{"displayFieldName":"TOWNNAME","fieldAliases":{"ID":"ID","DIS_CODE":"DIS_CODE","TOWNNAME":"TOWNNAME","LI":"LI","LIN":"LIN","STREET":"STREET","SECT":"SECT","MAREA":"MAREA","LANE":"LANE","ALLEY":"ALLEY","HOUSE_NO":"HOUSE_NO","E_COORD97":"E_COORD97","N_COORD97":"N_COORD97","ADDRESS":"ADDRESS","OBJECTID":"OBJECTID"},"geometryType":"esriGeometryPoint","spatialReference":{"wkid":102443,"latestWkid":3826},"fields":[{"name":"ID","type":"esriFieldTypeDouble","alias":"ID"},{"name":"DIS_CODE","type":"esriFieldTypeInteger","alias":"DIS_CODE"},{"name":"TOWNNAME","type":"esriFieldTypeString","alias":"TOWNNAME","length":8},{"name":"LI","type":"esriFieldTypeString","alias":"LI","length":8},{"name":"LIN","type":"esriFieldTypeString","alias":"LIN","length":12},{"name":"STREET","type":"esriFieldTypeString","alias":"STREET","length":20},{"name":"SECT","type":"esriFieldTypeString","alias":"SECT","length":8},{"name":"MAREA","type":"esriFieldTypeString","alias":"MAREA","length":12},{"name":"LANE","type":"esriFieldTypeString","alias":"LANE","length":10},{"name":"ALLEY","type":"esriFieldTypeString","alias":"ALLEY","length":10},{"name":"HOUSE_NO","type":"esriFieldTypeString","alias":"HOUSE_NO","length":20},{"name":"E_COORD97","type":"esriFieldTypeDouble","alias":"E_COORD97"},{"name":"N_COORD97","type":"esriFieldTypeDouble","alias":"N_COORD97"},{"name":"ADDRESS","type":"esriFieldTypeString","alias":"ADDRESS","length":50},{"name":"OBJECTID","type":"esriFieldTypeOID","alias":"OBJECTID"}],"features":[{"attributes":{"ID":173202,"DIS_CODE":0,"TOWNNAME":"安南區","LI":"安慶里","LIN":"21鄰","STREET":"安中路","SECT":"一段","MAREA":" ","LANE":"１８９巷","ALLEY":"７０弄","HOUSE_NO":"１１號","E_COORD97":168725.26999999999,"N_COORD97":2548289.3100000001,"ADDRESS":"安中路一段１８９巷７０弄１１號","OBJECTID":173201},"geometry":{"x":168725.27000000048,"y":2548289.3100000024}},{"attributes":{"ID":173203,"DIS_CODE":0,"TOWNNAME":"安南區","LI":"安慶里","LIN":"21鄰","STREET":"安中路","SECT":"一段","MAREA":" ","LANE":"１８９巷","ALLEY":"７０弄","HOUSE_NO":"１３號","E_COORD97":168721.51000000001,"N_COORD97":2548288.5099999998,"ADDRESS":"安中路一段１８９巷７０弄１３號","OBJECTID":173202},"geometry":{"x":168721.51000000164,"y":2548288.5099999998}},{"attributes":{"ID":173204,"DIS_CODE":0,"TOWNNAME":"東區","LI":"裕農里","LIN":"12鄰","STREET":"東寧路","SECT":" ","MAREA":" ","LANE":"４７２巷","ALLEY":" ","HOUSE_NO":"２號","E_COORD97":171027.01000000001,"N_COORD97":2543300.8700000001,"ADDRESS":"東寧路４７２巷２號","OBJECTID":173203},"geometry":{"x":171027.01000000164,"y":2543300.8700000048}},{"attributes":{"ID":173205,"DIS_CODE":0,"TOWNNAME":"北區","LI":"仁愛里","LIN":"15鄰","STREET":"長榮路","SECT":"四段","MAREA":" ","LANE":" ","ALLEY":" ","HOUSE_NO":"２５號","E_COORD97":170280.60999999999,"N_COORD97":2544874.3900000001,"ADDRESS":"長榮路四段２５號","OBJECTID":173204},"geometry":{"x":170280.61000000034,"y":2544874.3900000025}},{"attributes":{"ID":173206,"DIS_CODE":0,"TOWNNAME":"北區","LI":"仁愛里","LIN":"15鄰","STREET":"長榮路","SECT":"四段","MAREA":" ","LANE":" ","ALLEY":" ","HOUSE_NO":"２７號","E_COORD97":170280.45000000001,"N_COORD97":2544878.73,"ADDRESS":"長榮路四段２７號","OBJECTID":173205},"geometry":{"x":170280.45000000112,"y":2544878.7300000023}},{"attributes":{"ID":173207,"DIS_CODE":0,"TOWNNAME":"北區","LI":"仁愛里","LIN":"15鄰","STREET":"長榮路","SECT":"四段","MAREA":" ","LANE":" ","ALLEY":" ","HOUSE_NO":"２９號","E_COORD97":170280.53,"N_COORD97":2544882.8999999999,"ADDRESS":"長榮路四段２９號","OBJECTID":173206},"geometry":{"x":170280.53000000119,"y":2544882.8999999985}},{"attributes":{"ID":173208,"DIS_CODE":0,"TOWNNAME":"北區","LI":"文元里","LIN":"15鄰","STREET":"文賢二街","SECT":" ","MAREA":" ","LANE":" ","ALLEY":" ","HOUSE_NO":"２３１號","E_COORD97":167704.81,"N_COORD97":2545729.4900000002,"ADDRESS":"文賢二街２３１號","OBJECTID":173207},"geometry":{"x":167704.80999999959,"y":2545729.4900000002}},{"attributes":{"ID":173209,"DIS_CODE":0,"TOWNNAME":"北區","LI":"和順里","LIN":"25鄰","STREET":"公園南路","SECT":" ","MAREA":" ","LANE":" ","ALLEY":" ","HOUSE_NO":"３６５之３號","E_COORD97":168180.06,"N_COORD97":2544791.4300000002,"ADDRESS":"公園南路３６５之３號","OBJECTID":173208},"geometry":{"x":168180.05999999959,"y":2544791.4300000016}},{"attributes":{"ID":173210,"DIS_CODE":0,"TOWNNAME":"安南區","LI":"安慶里","LIN":"21鄰","STREET":"安中路","SECT":"一段","MAREA":" ","LANE":"１８９巷","ALLEY":"７０弄","HOUSE_NO":"１７號","E_COORD97":168713.39000000001,"N_COORD97":2548287.9300000002,"ADDRESS":"安中路一段１８９巷７０弄１７號","OBJECTID":173209},"geometry":{"x":168713.38999999966,"y":2548287.9299999997}},{"attributes":{"ID":173211,"DIS_CODE":0,"TOWNNAME":"安南區","LI":"安慶里","LIN":"21鄰","STREET":"安中路","SECT":"一段","MAREA":" ","LANE":"１８９巷","ALLEY":"７０弄","HOUSE_NO":"１９號","E_COORD97":168709.54000000001,"N_COORD97":2548286.8999999999,"ADDRESS":"安中路一段１８９巷７０弄１９號","OBJECTID":173210},"geometry":{"x":168709.54000000004,"y":2548286.9000000041}},{"attributes":{"ID":173212,"DIS_CODE":0,"TOWNNAME":"安南區","LI":"安慶里","LIN":"21鄰","STREET":"安中路","SECT":"一段","MAREA":" ","LANE":"１８９巷","ALLEY":"７０弄","HOUSE_NO":"１號","E_COORD97":168745.39000000001,"N_COORD97":2548291.7200000002,"ADDRESS":"安中路一段１８９巷７０弄１號","OBJECTID":173211},"geometry":{"x":168745.38999999966,"y":2548291.7199999988}},{"attributes":{"ID":173213,"DIS_CODE":0,"TOWNNAME":"東區","LI":"德高里","LIN":"12鄰","STREET":"崇善路","SECT":" ","MAREA":" ","LANE":" ","ALLEY":" ","HOUSE_NO":"９０７號","E_COORD97":171410.84,"N_COORD97":2540687.0600000001,"ADDRESS":"崇善路９０７號","OBJECTID":173212},"geometry":{"x":171410.83999999985,"y":2540687.0600000005}},{"attributes":{"ID":173214,"DIS_CODE":0,"TOWNNAME":"安南區","LI":"安慶里","LIN":"21鄰","STREET":"安中路","SECT":"一段","MAREA":" ","LANE":"１８９巷","ALLEY":"７０弄","HOUSE_NO":"２１號","E_COORD97":168705.31,"N_COORD97":2548286.52,"ADDRESS":"安中路一段１８９巷７０弄２１號","OBJECTID":173213},"geometry":{"x":168705.30999999959,"y":2548286.5200000014}},{"attributes":{"ID":173215,"DIS_CODE":0,"TOWNNAME":"安南區","LI":"安慶里","LIN":"21鄰","STREET":"安中路","SECT":"一段","MAREA":" ","LANE":"１８９巷","ALLEY":"７０弄","HOUSE_NO":"２３號","E_COORD97":168701.17999999999,"N_COORD97":2548286.0499999998,"ADDRESS":"安中路一段１８９巷７０弄２３號","OBJECTID":173214},"geometry":{"x":168701.1799999997,"y":2548286.0500000007}},{"attributes":{"ID":173216,"DIS_CODE":0,"TOWNNAME":"安南區","LI":"安慶里","LIN":"21鄰","STREET":"安中路","SECT":"一段","MAREA":" ","LANE":"１８９巷","ALLEY":"７０弄","HOUSE_NO":"２５號","E_COORD97":168697.42000000001,"N_COORD97":2548285.4900000002,"ADDRESS":"安中路一段１８９巷７０弄２５號","OBJECTID":173215},"geometry":{"x":168697.42000000086,"y":2548285.4900000002}},{"attributes":{"ID":173217,"DIS_CODE":0,"TOWNNAME":"安南區","LI":"安慶里","LIN":"20鄰","STREET":"安中路","SECT":"一段","MAREA":" ","LANE":"１８９巷","ALLEY":"７０弄","HOUSE_NO":"４號","E_COORD97":168738.19,"N_COORD97":2548318.7000000002,"ADDRESS":"安中路一段１８９巷７０弄４號","OBJECTID":173216},"geometry":{"x":168738.19000000134,"y":2548318.7000000011}},{"attributes":{"ID":173218,"DIS_CODE":0,"TOWNNAME":"安南區","LI":"安慶里","LIN":"25鄰","STREET":"安中路","SECT":"一段","MAREA":" ","LANE":"２０３巷","ALLEY":"３０弄","HOUSE_NO":"５號","E_COORD97":168693.22,"N_COORD97":2548385.1699999999,"ADDRESS":"安中路一段２０３巷３０弄５號","OBJECTID":173217},"geometry":{"x":168693.22000000067,"y":2548385.1699999999}},{"attributes":{"ID":173219,"DIS_CODE":0,"TOWNNAME":"安南區","LI":"安慶里","LIN":"25鄰","STREET":"安中路","SECT":"一段","MAREA":" ","LANE":"２０３巷","ALLEY":"３０弄","HOUSE_NO":"６號","E_COORD97":168695.32999999999,"N_COORD97":2548408.1600000001,"ADDRESS":"安中路一段２０３巷３０弄６號","OBJECTID":173218},"geometry":{"x":168695.33000000007,"y":2548408.160000002}},{"attributes":{"ID":173220,"DIS_CODE":0,"TOWNNAME":"安南區","LI":"安慶里","LIN":"25鄰","STREET":"安中路","SECT":"一段","MAREA":" ","LANE":"２０３巷","ALLEY":"３０弄","HOUSE_NO":"８號","E_COORD97":168689.60000000001,"N_COORD97":2548409.1000000001,"ADDRESS":"安中路一段２０３巷３０弄８號","OBJECTID":173219},"geometry":{"x":168689.59999999963,"y":2548409.0999999996}},{"attributes":{"ID":173221,"DIS_CODE":0,"TOWNNAME":"麻豆區","LI":"海埔里","LIN":"12鄰","STREET":" ","SECT":" ","MAREA":"海埔","LANE":" ","ALLEY":" ","HOUSE_NO":"７９號","E_COORD97":169376.92000000001,"N_COORD97":2567174.6200000001,"ADDRESS":"海埔７９號","OBJECTID":173220},"geometry":{"x":169376.92000000086,"y":2567174.6200000029}},{"attributes":{"ID":173222,"DIS_CODE":0,"TOWNNAME":"麻豆區","LI":"海埔里","LIN":"12鄰","STREET":" ","SECT":" ","MAREA":"海埔","LANE":" ","ALLEY":" ","HOUSE_NO":"８０號之１","E_COORD97":169352.32000000001,"N_COORD97":2567041.7999999998,"ADDRESS":"海埔８０號之１","OBJECTID":173221},"geometry":{"x":169352.32000000216,"y":2567041.8000000026}},{"attributes":{"ID":173223,"DIS_CODE":0,"TOWNNAME":"安南區","LI":"安慶里","LIN":"25鄰","STREET":"安中路","SECT":"一段","MAREA":" ","LANE":"２０３巷","ALLEY":"３０弄","HOUSE_NO":"９號","E_COORD97":168683.64999999999,"N_COORD97":2548386.4300000002,"ADDRESS":"安中路一段２０３巷３０弄９號","OBJECTID":173222},"geometry":{"x":168683.65000000037,"y":2548386.4299999997}},{"attributes":{"ID":173224,"DIS_CODE":0,"TOWNNAME":"安南區","LI":"安慶里","LIN":"17鄰","STREET":"安中路","SECT":"一段","MAREA":" ","LANE":"１８９巷","ALLEY":"４８弄","HOUSE_NO":"３０號","E_COORD97":168680.34,"N_COORD97":2548358.9300000002,"ADDRESS":"安中路一段１８９巷４８弄３０號","OBJECTID":173223},"geometry":{"x":168680.34000000171,"y":2548358.9300000016}},{"attributes":{"ID":173225,"DIS_CODE":0,"TOWNNAME":"安南區","LI":"安慶里","LIN":"18鄰","STREET":"安中路","SECT":"一段","MAREA":" ","LANE":"１８９巷","ALLEY":"４８弄","HOUSE_NO":"３號","E_COORD97":168735.42999999999,"N_COORD97":2548335.8100000001,"ADDRESS":"安中路一段１８９巷４８弄３號","OBJECTID":173224},"geometry":{"x":168735.4299999997,"y":2548335.8100000024}},{"attributes":{"ID":173226,"DIS_CODE":0,"TOWNNAME":"安南區","LI":"州南里","LIN":"26鄰","STREET":"安和路","SECT":"四段","MAREA":" ","LANE":"５３８巷","ALLEY":"７１弄","HOUSE_NO":"１３號","E_COORD97":170081.44,"N_COORD97":2551283.8199999998,"ADDRESS":"安和路四段５３８巷７１弄１３號","OBJECTID":173225},"geometry":{"x":170081.44000000041,"y":2551283.8200000003}},{"attributes":{"ID":173227,"DIS_CODE":0,"TOWNNAME":"安南區","LI":"安西里","LIN":"1鄰","STREET":"安和路","SECT":"一段","MAREA":" ","LANE":"１８５巷","ALLEY":"１５弄","HOUSE_NO":"８號","E_COORD97":169263.64000000001,"N_COORD97":2547857.6200000001,"ADDRESS":"安和路一段１８５巷１５弄８號","OBJECTID":173226},"geometry":{"x":169263.6400000006,"y":2547857.620000001}},{"attributes":{"ID":173228,"DIS_CODE":0,"TOWNNAME":"安南區","LI":"州南里","LIN":"20鄰","STREET":"安和路","SECT":"四段","MAREA":" ","LANE":"５３３巷","ALLEY":"３７弄","HOUSE_NO":"９號","E_COORD97":169871.79999999999,"N_COORD97":2551249.3300000001,"ADDRESS":"安和路四段５３３巷３７弄９號","OBJECTID":173227},"geometry":{"x":169871.79999999981,"y":2551249.3300000001}},{"attributes":{"ID":173229,"DIS_CODE":0,"TOWNNAME":"安南區","LI":"州南里","LIN":"26鄰","STREET":"安和路","SECT":"四段","MAREA":" ","LANE":"５３８巷","ALLEY":"８７弄","HOUSE_NO":"７８號","E_COORD97":170095.23999999999,"N_COORD97":2551354.2799999998,"ADDRESS":"安和路四段５３８巷８７弄７８號","OBJECTID":173228},"geometry":{"x":170095.24000000209,"y":2551354.2799999993}},{"attributes":{"ID":173230,"DIS_CODE":0,"TOWNNAME":"安南區","LI":"州南里","LIN":"26鄰","STREET":"安和路","SECT":"四段","MAREA":" ","LANE":"５３８巷","ALLEY":"８７弄","HOUSE_NO":"５１號","E_COORD97":170092.53,"N_COORD97":2551329.3900000001,"ADDRESS":"安和路四段５３８巷８７弄５１號","OBJECTID":173229},"geometry":{"x":170092.53000000026,"y":2551329.3900000025}},{"attributes":{"ID":173231,"DIS_CODE":0,"TOWNNAME":"安南區","LI":"安和里","LIN":"13鄰","STREET":"安和路","SECT":"一段","MAREA":" ","LANE":"９６巷","ALLEY":"３２弄","HOUSE_NO":"１７號","E_COORD97":169623.26000000001,"N_COORD97":2547636.8599999999,"ADDRESS":"安和路一段９６巷３２弄１７號","OBJECTID":173230},"geometry":{"x":169623.25999999885,"y":2547636.8600000013}},{"attributes":{"ID":173232,"DIS_CODE":0,"TOWNNAME":"安南區","LI":"州南里","LIN":"26鄰","STREET":"安和路","SECT":"四段","MAREA":" ","LANE":"５３８巷","ALLEY":"８７弄","HOUSE_NO":"８號","E_COORD97":170175.62,"N_COORD97":2551236.4500000002,"ADDRESS":"安和路四段５３８巷８７弄８號","OBJECTID":173231},"geometry":{"x":170175.62000000197,"y":2551236.4500000011}},{"attributes":{"ID":173233,"DIS_CODE":0,"TOWNNAME":"安南區","LI":"州南里","LIN":"19鄰","STREET":"安和路","SECT":"四段","MAREA":" ","LANE":"２７４巷","ALLEY":"５３弄","HOUSE_NO":"１３號","E_COORD97":170022.35146100001,"N_COORD97":2550792.5890899999,"ADDRESS":"安和路四段２７４巷５３弄１３號","OBJECTID":173232},"geometry":{"x":170022.35146100074,"y":2550792.5890870001}},{"attributes":{"ID":173234,"DIS_CODE":0,"TOWNNAME":"安南區","LI":"州南里","LIN":"19鄰","STREET":"安和路","SECT":"四段","MAREA":" ","LANE":"２７４巷","ALLEY":"５３弄","HOUSE_NO":"５號","E_COORD97":170054.45999999999,"N_COORD97":2550788.8399999999,"ADDRESS":"安和路四段２７４巷５３弄５號","OBJECTID":173233},"geometry":{"x":170054.46000000183,"y":2550788.839999998}},{"attributes":{"ID":173235,"DIS_CODE":0,"TOWNNAME":"安南區","LI":"州南里","LIN":"19鄰","STREET":"安和路","SECT":"四段","MAREA":" ","LANE":"２７４巷","ALLEY":"５３弄","HOUSE_NO":"６號","E_COORD97":170067.39999999999,"N_COORD97":2550789.75,"ADDRESS":"安和路四段２７４巷５３弄６號","OBJECTID":173234},"geometry":{"x":170067.4000000013,"y":2550789.7500000037}},{"attributes":{"ID":173236,"DIS_CODE":0,"TOWNNAME":"安南區","LI":"州南里","LIN":"19鄰","STREET":"安和路","SECT":"四段","MAREA":" ","LANE":"２７４巷","ALLEY":"５３弄","HOUSE_NO":"９號","E_COORD97":170033.56,"N_COORD97":2550786.8399999999,"ADDRESS":"安和路四段２７４巷５３弄９號","OBJECTID":173235},"geometry":{"x":170033.56000000052,"y":2550786.8400000017}},{"attributes":{"ID":173237,"DIS_CODE":0,"TOWNNAME":"白河區","LI":"外角里","LIN":"12鄰","STREET":"三民路","SECT":" ","MAREA":" ","LANE":"２０８巷","ALLEY":" ","HOUSE_NO":"１０號","E_COORD97":190881.12,"N_COORD97":2583328.3999999999,"ADDRESS":"三民路２０８巷１０號","OBJECTID":173236},"geometry":{"x":190881.12000000104,"y":2583328.4000000004}},{"attributes":{"ID":173238,"DIS_CODE":0,"TOWNNAME":"安平區","LI":"平通里","LIN":"24鄰","STREET":"育平八街","SECT":" ","MAREA":" ","LANE":" ","ALLEY":" ","HOUSE_NO":"３２號五樓之９","E_COORD97":164499.09,"N_COORD97":2543941.6299999999,"ADDRESS":"育平八街３２號五樓之９","OBJECTID":173237},"geometry":{"x":164499.09000000078,"y":2543941.6300000008}},{"attributes":{"ID":173239,"DIS_CODE":0,"TOWNNAME":"麻豆區","LI":"海埔里","LIN":"12鄰","STREET":" ","SECT":" ","MAREA":"海埔","LANE":" ","ALLEY":" ","HOUSE_NO":"８０號之２","E_COORD97":169367.14999999999,"N_COORD97":2567015.1600000001,"ADDRESS":"海埔８０號之２","OBJECTID":173238},"geometry":{"x":169367.15000000224,"y":2567015.160000002}},{"attributes":{"ID":173240,"DIS_CODE":0,"TOWNNAME":"新營區","LI":"新東里","LIN":"18鄰","STREET":"東興四街","SECT":" ","MAREA":" ","LANE":"３２巷","ALLEY":"１２弄","HOUSE_NO":"２號","E_COORD97":180885.04999999999,"N_COORD97":2579140,"ADDRESS":"東興四街３２巷１２弄２號","OBJECTID":173239},"geometry":{"x":180885.05000000075,"y":2579140.0000000019}},{"attributes":{"ID":173241,"DIS_CODE":0,"TOWNNAME":"永康區","LI":"中華里","LIN":"12鄰","STREET":"忠義街","SECT":" ","MAREA":" ","LANE":"４４巷","ALLEY":" ","HOUSE_NO":"５６號","E_COORD97":171875.82000000001,"N_COORD97":2544465,"ADDRESS":"忠義街４４巷５６號","OBJECTID":173240},"geometry":{"x":171875.8200000003,"y":2544465.0000000037}},{"attributes":{"ID":173242,"DIS_CODE":0,"TOWNNAME":"北區","LI":"成德里","LIN":"15鄰","STREET":"文成路","SECT":" ","MAREA":" ","LANE":" ","ALLEY":" ","HOUSE_NO":"７８號","E_COORD97":168781.04000000001,"N_COORD97":2545898.27,"ADDRESS":"文成路７８號","OBJECTID":173241},"geometry":{"x":168781.0400000019,"y":2545898.2700000014}},{"attributes":{"ID":173243,"DIS_CODE":0,"TOWNNAME":"北區","LI":"成德里","LIN":"15鄰","STREET":"文成路","SECT":" ","MAREA":" ","LANE":" ","ALLEY":" ","HOUSE_NO":"８０號","E_COORD97":168776.98000000001,"N_COORD97":2545900.2999999998,"ADDRESS":"文成路８０號","OBJECTID":173242},"geometry":{"x":168776.98000000138,"y":2545900.3000000007}},{"attributes":{"ID":173244,"DIS_CODE":0,"TOWNNAME":"永康區","LI":"永康里","LIN":"10鄰","STREET":"永康街","SECT":" ","MAREA":" ","LANE":" ","ALLEY":" ","HOUSE_NO":"７２號","E_COORD97":173782.85999999999,"N_COORD97":2547193.2400000002,"ADDRESS":"永康街７２號","OBJECTID":173243},"geometry":{"x":173782.86000000034,"y":2547193.2400000021}},{"attributes":{"ID":173245,"DIS_CODE":0,"TOWNNAME":"安南區","LI":"\u25A0南里","LIN":"12鄰","STREET":"環福街","SECT":" ","MAREA":" ","LANE":" ","ALLEY":" ","HOUSE_NO":"２３３號","E_COORD97":170221.82999999999,"N_COORD97":2552661.2000000002,"ADDRESS":"環福街２３３號","OBJECTID":173244},"geometry":{"x":170221.83000000101,"y":2552661.2000000011}},{"attributes":{"ID":173246,"DIS_CODE":0,"TOWNNAME":"安南區","LI":"\u25A0南里","LIN":"12鄰","STREET":"環福街","SECT":" ","MAREA":" ","LANE":" ","ALLEY":" ","HOUSE_NO":"２３７號","E_COORD97":170208.38,"N_COORD97":2552663.3399999999,"ADDRESS":"環福街２３７號","OBJECTID":173245},"geometry":{"x":170208.38000000082,"y":2552663.3399999999}},{"attributes":{"ID":173247,"DIS_CODE":0,"TOWNNAME":"安南區","LI":"\u25A0南里","LIN":"12鄰","STREET":"環福街","SECT":" ","MAREA":" ","LANE":" ","ALLEY":" ","HOUSE_NO":"２４３號","E_COORD97":170199.82000000001,"N_COORD97":2552663.3399999999,"ADDRESS":"環福街２４３號","OBJECTID":173246},"geometry":{"x":170199.81999999937,"y":2552663.3399999999}},{"attributes":{"ID":173248,"DIS_CODE":0,"TOWNNAME":"安南區","LI":"\u25A0南里","LIN":"12鄰","STREET":"環福街","SECT":" ","MAREA":" ","LANE":" ","ALLEY":" ","HOUSE_NO":"２５５號","E_COORD97":170174.14000000001,"N_COORD97":2552669.4500000002,"ADDRESS":"環福街２５５號","OBJECTID":173247},"geometry":{"x":170174.1400000006,"y":2552669.450000003}},{"attributes":{"ID":173249,"DIS_CODE":0,"TOWNNAME":"安南區","LI":"安東里","LIN":"17鄰","STREET":"安和路","SECT":"一段","MAREA":" ","LANE":"４７８巷","ALLEY":"２弄","HOUSE_NO":"１１號","E_COORD97":169434.47,"N_COORD97":2548396.75,"ADDRESS":"安和路一段４７８巷２弄１１號","OBJECTID":173248},"geometry":{"x":169434.47000000067,"y":2548396.7500000019}},{"attributes":{"ID":173250,"DIS_CODE":0,"TOWNNAME":"安南區","LI":"安東里","LIN":"17鄰","STREET":"安和路","SECT":"一段","MAREA":" ","LANE":"４７８巷","ALLEY":"２弄","HOUSE_NO":"１３號","E_COORD97":169434.47,"N_COORD97":2548392.2799999998,"ADDRESS":"安和路一段４７８巷２弄１３號","OBJECTID":173249},"geometry":{"x":169434.47000000067,"y":2548392.2800000012}},{"attributes":{"ID":173251,"DIS_CODE":0,"TOWNNAME":"安南區","LI":"安東里","LIN":"17鄰","STREET":"安和路","SECT":"一段","MAREA":" ","LANE":"４７８巷","ALLEY":"２弄","HOUSE_NO":"１７號","E_COORD97":169434.60999999999,"N_COORD97":2548384.3199999998,"ADDRESS":"安和路一段４７８巷２弄１７號","OBJECTID":173250},"geometry":{"x":169434.61000000034,"y":2548384.3200000003}},{"attributes":{"ID":173252,"DIS_CODE":0,"TOWNNAME":"安南區","LI":"安東里","LIN":"17鄰","STREET":"安和路","SECT":"一段","MAREA":" ","LANE":"４７８巷","ALLEY":"２弄","HOUSE_NO":"１９號","E_COORD97":169434.32999999999,"N_COORD97":2548380.6899999999,"ADDRESS":"安和路一段４７８巷２弄１９號","OBJECTID":173251},"geometry":{"x":169434.33000000007,"y":2548380.6900000013}},{"attributes":{"ID":173253,"DIS_CODE":0,"TOWNNAME":"新營區","LI":"五興里","LIN":"10鄰","STREET":" ","SECT":" ","MAREA":"五間厝","LANE":" ","ALLEY":" ","HOUSE_NO":"１０７號","E_COORD97":175591.87,"N_COORD97":2574766.8300000001,"ADDRESS":"五間厝１０７號","OBJECTID":173252},"geometry":{"x":175591.87000000197,"y":2574766.8300000019}},{"attributes":{"ID":173254,"DIS_CODE":0,"TOWNNAME":"安南區","LI":"安東里","LIN":"17鄰","STREET":"安和路","SECT":"一段","MAREA":" ","LANE":"４７８巷","ALLEY":"２弄","HOUSE_NO":"１號","E_COORD97":169429.85999999999,"N_COORD97":2548415.7400000002,"ADDRESS":"安和路一段４７８巷２弄１號","OBJECTID":173253},"geometry":{"x":169429.86000000034,"y":2548415.7400000002}},{"attributes":{"ID":173255,"DIS_CODE":0,"TOWNNAME":"安南區","LI":"安東里","LIN":"17鄰","STREET":"安和路","SECT":"一段","MAREA":" ","LANE":"４７８巷","ALLEY":"２弄","HOUSE_NO":"２１號","E_COORD97":169434.32999999999,"N_COORD97":2548376.2200000002,"ADDRESS":"安和路一段４７８巷２弄２１號","OBJECTID":173254},"geometry":{"x":169434.33000000007,"y":2548376.2200000007}},{"attributes":{"ID":173256,"DIS_CODE":0,"TOWNNAME":"安南區","LI":"安東里","LIN":"17鄰","STREET":"安和路","SECT":"一段","MAREA":" ","LANE":"４７８巷","ALLEY":"２弄","HOUSE_NO":"２３號","E_COORD97":169434.89000000001,"N_COORD97":2548372.3100000001,"ADDRESS":"安和路一段４７８巷２弄２３號","OBJECTID":173255},"geometry":{"x":169434.8900000006,"y":2548372.3099999987}},{"attributes":{"ID":173257,"DIS_CODE":0,"TOWNNAME":"安南區","LI":"安東里","LIN":"17鄰","STREET":"安和路","SECT":"一段","MAREA":" ","LANE":"４７８巷","ALLEY":"２弄","HOUSE_NO":"２５號","E_COORD97":169434.19,"N_COORD97":2548368.3999999999,"ADDRESS":"安和路一段４７８巷２弄２５號","OBJECTID":173256},"geometry":{"x":169434.19000000041,"y":2548368.4000000041}},{"attributes":{"ID":173258,"DIS_CODE":0,"TOWNNAME":"安南區","LI":"州南里","LIN":"19鄰","STREET":"大聖路","SECT":" ","MAREA":" ","LANE":" ","ALLEY":" ","HOUSE_NO":"１２５號","E_COORD97":170108.09,"N_COORD97":2550801.9399999999,"ADDRESS":"大聖路１２５號","OBJECTID":173257},"geometry":{"x":170108.09000000078,"y":2550801.9400000013}},{"attributes":{"ID":173259,"DIS_CODE":0,"TOWNNAME":"安南區","LI":"州南里","LIN":"19鄰","STREET":"大聖路","SECT":" ","MAREA":" ","LANE":" ","ALLEY":" ","HOUSE_NO":"１２７號","E_COORD97":170107.35000000001,"N_COORD97":2550805.6400000001,"ADDRESS":"大聖路１２７號","OBJECTID":173258},"geometry":{"x":170107.3499999987,"y":2550805.6400000025}},{"attributes":{"ID":173260,"DIS_CODE":0,"TOWNNAME":"安南區","LI":"州南里","LIN":"19鄰","STREET":"大聖路","SECT":" ","MAREA":" ","LANE":" ","ALLEY":" ","HOUSE_NO":"１３３號","E_COORD97":170110.31,"N_COORD97":2550819.6699999999,"ADDRESS":"大聖路１３３號","OBJECTID":173259},"geometry":{"x":170110.30999999959,"y":2550819.6699999999}},{"attributes":{"ID":173261,"DIS_CODE":0,"TOWNNAME":"安南區","LI":"州南里","LIN":"19鄰","STREET":"大聖路","SECT":" ","MAREA":" ","LANE":" ","ALLEY":" ","HOUSE_NO":"１３５號","E_COORD97":170110.67999999999,"N_COORD97":2550823,"ADDRESS":"大聖路１３５號","OBJECTID":173260},"geometry":{"x":170110.68000000063,"y":2550823.0000000019}},{"attributes":{"ID":173262,"DIS_CODE":0,"TOWNNAME":"安南區","LI":"州南里","LIN":"19鄰","STREET":"大聖路","SECT":" ","MAREA":" ","LANE":" ","ALLEY":" ","HOUSE_NO":"１３７號","E_COORD97":170110.67999999999,"N_COORD97":2550827.0600000001,"ADDRESS":"大聖路１３７號","OBJECTID":173261},"geometry":{"x":170110.68000000063,"y":2550827.0600000024}},{"attributes":{"ID":173263,"DIS_CODE":0,"TOWNNAME":"安南區","LI":"州南里","LIN":"19鄰","STREET":"大聖路","SECT":" ","MAREA":" ","LANE":" ","ALLEY":" ","HOUSE_NO":"１３９號","E_COORD97":170111.79000000001,"N_COORD97":2550830.7599999998,"ADDRESS":"大聖路１３９號","OBJECTID":173262},"geometry":{"x":170111.7900000019,"y":2550830.7600000016}},{"attributes":{"ID":173264,"DIS_CODE":0,"TOWNNAME":"安南區","LI":"州南里","LIN":"19鄰","STREET":"大聖路","SECT":" ","MAREA":" ","LANE":" ","ALLEY":" ","HOUSE_NO":"１４１號","E_COORD97":170110.67999999999,"N_COORD97":2550836.2999999998,"ADDRESS":"大聖路１４１號","OBJECTID":173263},"geometry":{"x":170110.68000000063,"y":2550836.3000000007}},{"attributes":{"ID":173265,"DIS_CODE":0,"TOWNNAME":"安南區","LI":"州南里","LIN":"19鄰","STREET":"大聖路","SECT":" ","MAREA":" ","LANE":" ","ALLEY":" ","HOUSE_NO":"１４３號","E_COORD97":170111.79000000001,"N_COORD97":2550840,"ADDRESS":"大聖路１４３號","OBJECTID":173264},"geometry":{"x":170111.7900000019,"y":2550840.0000000019}},{"attributes":{"ID":173266,"DIS_CODE":0,"TOWNNAME":"安南區","LI":"州南里","LIN":"19鄰","STREET":"大聖路","SECT":" ","MAREA":" ","LANE":" ","ALLEY":" ","HOUSE_NO":"１４５號","E_COORD97":170112.16,"N_COORD97":2550843.6899999999,"ADDRESS":"大聖路１４５號","OBJECTID":173265},"geometry":{"x":170112.16000000015,"y":2550843.6899999976}},{"attributes":{"ID":173267,"DIS_CODE":0,"TOWNNAME":"安南區","LI":"州南里","LIN":"19鄰","STREET":"大聖路","SECT":" ","MAREA":" ","LANE":" ","ALLEY":" ","HOUSE_NO":"１４７號","E_COORD97":170112.53,"N_COORD97":2550848.4900000002,"ADDRESS":"大聖路１４７號","OBJECTID":173266},"geometry":{"x":170112.53000000119,"y":2550848.4900000002}},{"attributes":{"ID":173268,"DIS_CODE":0,"TOWNNAME":"安南區","LI":"州南里","LIN":"19鄰","STREET":"大聖路","SECT":" ","MAREA":" ","LANE":" ","ALLEY":" ","HOUSE_NO":"１４９號","E_COORD97":170113.64000000001,"N_COORD97":2550852.9300000002,"ADDRESS":"大聖路１４９號","OBJECTID":173267},"geometry":{"x":170113.63999999966,"y":2550852.9300000016}},{"attributes":{"ID":173269,"DIS_CODE":0,"TOWNNAME":"安南區","LI":"安東里","LIN":"17鄰","STREET":"安和路","SECT":"一段","MAREA":" ","LANE":"４７８巷","ALLEY":"２弄","HOUSE_NO":"２７號","E_COORD97":169433.91,"N_COORD97":2548363.9300000002,"ADDRESS":"安和路一段４７８巷２弄２７號","OBJECTID":173268},"geometry":{"x":169433.91000000015,"y":2548363.9299999978}},{"attributes":{"ID":173270,"DIS_CODE":0,"TOWNNAME":"安南區","LI":"安東里","LIN":"17鄰","STREET":"安和路","SECT":"一段","MAREA":" ","LANE":"４７８巷","ALLEY":"２弄","HOUSE_NO":"２９號","E_COORD97":169434.75,"N_COORD97":2548360.4399999999,"ADDRESS":"安和路一段４７８巷２弄２９號","OBJECTID":173269},"geometry":{"x":169434.75,"y":2548360.4400000032}},{"attributes":{"ID":173271,"DIS_CODE":0,"TOWNNAME":"安南區","LI":"安東里","LIN":"17鄰","STREET":"安和路","SECT":"一段","MAREA":" ","LANE":"４７８巷","ALLEY":"２弄","HOUSE_NO":"３２號","E_COORD97":169410.70000000001,"N_COORD97":2548350.2400000002,"ADDRESS":"安和路一段４７８巷２弄３２號","OBJECTID":173270},"geometry":{"x":169410.70000000205,"y":2548350.2400000021}},{"attributes":{"ID":173272,"DIS_CODE":0,"TOWNNAME":"安南區","LI":"安東里","LIN":"17鄰","STREET":"安和路","SECT":"一段","MAREA":" ","LANE":"４７８巷","ALLEY":"２弄","HOUSE_NO":"３號","E_COORD97":169431.53,"N_COORD97":2548412.2400000002,"ADDRESS":"安和路一段４７８巷２弄３號","OBJECTID":173271},"geometry":{"x":169431.53000000026,"y":2548412.2400000002}},{"attributes":{"ID":173273,"DIS_CODE":0,"TOWNNAME":"安南區","LI":"安東里","LIN":"17鄰","STREET":"安和路","SECT":"一段","MAREA":" ","LANE":"４７８巷","ALLEY":"２弄","HOUSE_NO":"５２號","E_COORD97":169411.12,"N_COORD97":2548337.1099999999,"ADDRESS":"安和路一段４７８巷２弄５２號","OBJECTID":173272},"geometry":{"x":169411.12000000197,"y":2548337.1100000013}},{"attributes":{"ID":173274,"DIS_CODE":0,"TOWNNAME":"安南區","LI":"\u25A0南里","LIN":"12鄰","STREET":"環福街","SECT":" ","MAREA":" ","LANE":" ","ALLEY":" ","HOUSE_NO":"２５７號","E_COORD97":170168.94,"N_COORD97":2552670.3500000001,"ADDRESS":"環福街２５７號","OBJECTID":173273},"geometry":{"x":170168.94000000134,"y":2552670.3500000034}},{"attributes":{"ID":173275,"DIS_CODE":0,"TOWNNAME":"善化區","LI":"嘉北里","LIN":"12鄰","STREET":" ","SECT":" ","MAREA":"茄拔","LANE":" ","ALLEY":" ","HOUSE_NO":"２７１號","E_COORD97":180847.59,"N_COORD97":2559838.0099999998,"ADDRESS":"茄拔２７１號","OBJECTID":173274},"geometry":{"x":180847.59000000078,"y":2559838.0100000016}},{"attributes":{"ID":173276,"DIS_CODE":0,"TOWNNAME":"安南區","LI":"學東里","LIN":"12鄰","STREET":"公學路","SECT":"七段","MAREA":" ","LANE":" ","ALLEY":" ","HOUSE_NO":"４３號","E_COORD97":161929.91,"N_COORD97":2553339.9500000002,"ADDRESS":"公學路七段４３號","OBJECTID":173275},"geometry":{"x":161929.90999999922,"y":2553339.9499999993}},{"attributes":{"ID":173277,"DIS_CODE":0,"TOWNNAME":"安南區","LI":"學東里","LIN":"12鄰","STREET":"公學路","SECT":"七段","MAREA":" ","LANE":" ","ALLEY":" ","HOUSE_NO":"４５號","E_COORD97":161927.31,"N_COORD97":2553340.8799999999,"ADDRESS":"公學路七段４５號","OBJECTID":173276},"geometry":{"x":161927.31000000052,"y":2553340.8800000027}},{"attributes":{"ID":173278,"DIS_CODE":0,"TOWNNAME":"安南區","LI":"海南里","LIN":"12鄰","STREET":"府安路","SECT":"七段","MAREA":" ","LANE":" ","ALLEY":" ","HOUSE_NO":"３８０之３號","E_COORD97":163975.20000000001,"N_COORD97":2545682.75,"ADDRESS":"府安路七段３８０之３號","OBJECTID":173277},"geometry":{"x":163975.20000000019,"y":2545682.75}},{"attributes":{"ID":173279,"DIS_CODE":0,"TOWNNAME":"安南區","LI":"大安里","LIN":"12鄰","STREET":"理安街","SECT":" ","MAREA":" ","LANE":" ","ALLEY":" ","HOUSE_NO":"２６１號","E_COORD97":167618.57000000001,"N_COORD97":2548447.1499999999,"ADDRESS":"理安街２６１號","OBJECTID":173278},"geometry":{"x":167618.57000000123,"y":2548447.1500000004}},{"attributes":{"ID":173280,"DIS_CODE":0,"TOWNNAME":"安南區","LI":"安慶里","LIN":"12鄰","STREET":"長溪路","SECT":"一段","MAREA":" ","LANE":" ","ALLEY":" ","HOUSE_NO":"５８號","E_COORD97":169208.45999999999,"N_COORD97":2548336.0299999998,"ADDRESS":"長溪路一段５８號","OBJECTID":173279},"geometry":{"x":169208.45999999996,"y":2548336.0300000031}},{"attributes":{"ID":173281,"DIS_CODE":0,"TOWNNAME":"安南區","LI":"安慶里","LIN":"12鄰","STREET":"長溪路","SECT":"一段","MAREA":" ","LANE":" ","ALLEY":" ","HOUSE_NO":"５６號","E_COORD97":169210.72,"N_COORD97":2548333.7799999998,"ADDRESS":"長溪路一段５６號","OBJECTID":173280},"geometry":{"x":169210.72000000067,"y":2548333.7799999993}},{"attributes":{"ID":173282,"DIS_CODE":0,"TOWNNAME":"安南區","LI":"安東里","LIN":"19鄰","STREET":"安和路","SECT":"一段","MAREA":" ","LANE":"４９６巷","ALLEY":"１弄","HOUSE_NO":"１０號","E_COORD97":169499.32000000001,"N_COORD97":2548474.4199999999,"ADDRESS":"安和路一段４９６巷１弄１０號","OBJECTID":173281},"geometry":{"x":169499.3200000003,"y":2548474.4200000018}},{"attributes":{"ID":173283,"DIS_CODE":0,"TOWNNAME":"安南區","LI":"安東里","LIN":"19鄰","STREET":"安和路","SECT":"一段","MAREA":" ","LANE":"４９６巷","ALLEY":"１弄","HOUSE_NO":"１２號","E_COORD97":169504.76999999999,"N_COORD97":2548473.8599999999,"ADDRESS":"安和路一段４９６巷１弄１２號","OBJECTID":173282},"geometry":{"x":169504.77000000048,"y":2548473.8600000013}},{"attributes":{"ID":173284,"DIS_CODE":0,"TOWNNAME":"安南區","LI":"安東里","LIN":"19鄰","STREET":"安和路","SECT":"一段","MAREA":" ","LANE":"４９６巷","ALLEY":"１弄","HOUSE_NO":"１４號","E_COORD97":169509.38,"N_COORD97":2548473.5800000001,"ADDRESS":"安和路一段４９６巷１弄１４號","OBJECTID":173283},"geometry":{"x":169509.38000000082,"y":2548473.5800000019}},{"attributes":{"ID":173285,"DIS_CODE":0,"TOWNNAME":"安南區","LI":"安慶里","LIN":"12鄰","STREET":"長溪路","SECT":"一段","MAREA":" ","LANE":" ","ALLEY":" ","HOUSE_NO":"５２號","E_COORD97":169217.48000000001,"N_COORD97":2548328.52,"ADDRESS":"長溪路一段５２號","OBJECTID":173284},"geometry":{"x":169217.48000000231,"y":2548328.5199999996}},{"attributes":{"ID":173286,"DIS_CODE":0,"TOWNNAME":"安南區","LI":"安東里","LIN":"19鄰","STREET":"安和路","SECT":"一段","MAREA":" ","LANE":"４９６巷","ALLEY":"１弄","HOUSE_NO":"１６號","E_COORD97":169515.10999999999,"N_COORD97":2548473.5800000001,"ADDRESS":"安和路一段４９６巷１弄１６號","OBJECTID":173285},"geometry":{"x":169515.11000000127,"y":2548473.5800000019}},{"attributes":{"ID":173287,"DIS_CODE":0,"TOWNNAME":"安南區","LI":"安東里","LIN":"19鄰","STREET":"安和路","SECT":"一段","MAREA":" ","LANE":"４９６巷","ALLEY":"１弄","HOUSE_NO":"１８號","E_COORD97":169521.12,"N_COORD97":2548473.5800000001,"ADDRESS":"安和路一段４９６巷１弄１８號","OBJECTID":173286},"geometry":{"x":169521.12000000011,"y":2548473.5800000019}},{"attributes":{"ID":173288,"DIS_CODE":0,"TOWNNAME":"安南區","LI":"安東里","LIN":"19鄰","STREET":"安和路","SECT":"一段","MAREA":" ","LANE":"４９６巷","ALLEY":"１弄","HOUSE_NO":"２０號","E_COORD97":169526.01000000001,"N_COORD97":2548474,"ADDRESS":"安和路一段４９６巷１弄２０號","OBJECTID":173287},"geometry":{"x":169526.00999999978,"y":2548474.0000000019}},{"attributes":{"ID":173289,"DIS_CODE":0,"TOWNNAME":"安南區","LI":"安東里","LIN":"19鄰","STREET":"安和路","SECT":"一段","MAREA":" ","LANE":"４９６巷","ALLEY":"１弄","HOUSE_NO":"２２號","E_COORD97":169531.88,"N_COORD97":2548473.4399999999,"ADDRESS":"安和路一段４９６巷１弄２２號","OBJECTID":173288},"geometry":{"x":169531.88000000082,"y":2548473.4400000013}},{"attributes":{"ID":173290,"DIS_CODE":0,"TOWNNAME":"安南區","LI":"安東里","LIN":"19鄰","STREET":"安和路","SECT":"一段","MAREA":" ","LANE":"４９６巷","ALLEY":"１弄","HOUSE_NO":"２６號","E_COORD97":169545.14999999999,"N_COORD97":2548473.7200000002,"ADDRESS":"安和路一段４９６巷１弄２６號","OBJECTID":173289},"geometry":{"x":169545.15000000224,"y":2548473.7200000007}},{"attributes":{"ID":173291,"DIS_CODE":0,"TOWNNAME":"安南區","LI":"安東里","LIN":"19鄰","STREET":"安和路","SECT":"一段","MAREA":" ","LANE":"４９６巷","ALLEY":"１弄","HOUSE_NO":"２８號","E_COORD97":169549.76999999999,"N_COORD97":2548473.7200000002,"ADDRESS":"安和路一段４９６巷１弄２８號","OBJECTID":173290},"geometry":{"x":169549.76999999955,"y":2548473.7200000007}},{"attributes":{"ID":173292,"DIS_CODE":0,"TOWNNAME":"安南區","LI":"安東里","LIN":"19鄰","STREET":"安和路","SECT":"一段","MAREA":" ","LANE":"４９６巷","ALLEY":"１弄","HOUSE_NO":"６０號","E_COORD97":169620.04999999999,"N_COORD97":2548480.1400000001,"ADDRESS":"安和路一段４９６巷１弄６０號","OBJECTID":173291},"geometry":{"x":169620.05000000075,"y":2548480.1400000025}},{"attributes":{"ID":173293,"DIS_CODE":0,"TOWNNAME":"善化區","LI":"嘉北里","LIN":"12鄰","STREET":" ","SECT":" ","MAREA":"茄拔","LANE":" ","ALLEY":" ","HOUSE_NO":"２９０號","E_COORD97":180926.14000000001,"N_COORD97":2559748.2599999998,"ADDRESS":"茄拔２９０號","OBJECTID":173292},"geometry":{"x":180926.1400000006,"y":2559748.2600000016}},{"attributes":{"ID":173294,"DIS_CODE":0,"TOWNNAME":"善化區","LI":"嘉北里","LIN":"12鄰","STREET":" ","SECT":" ","MAREA":"茄拔","LANE":" ","ALLEY":" ","HOUSE_NO":"２７０號","E_COORD97":180888.54000000001,"N_COORD97":2559880.2599999998,"ADDRESS":"茄拔２７０號","OBJECTID":173293},"geometry":{"x":180888.54000000097,"y":2559880.2600000016}},{"attributes":{"ID":173295,"DIS_CODE":0,"TOWNNAME":"安南區","LI":"安西里","LIN":"12鄰","STREET":"安通路","SECT":"四段","MAREA":" ","LANE":" ","ALLEY":" ","HOUSE_NO":"４６號","E_COORD97":169162.81,"N_COORD97":2547731.6899999999,"ADDRESS":"安通路四段４６號","OBJECTID":173294},"geometry":{"x":169162.80999999959,"y":2547731.6900000032}},{"attributes":{"ID":173296,"DIS_CODE":0,"TOWNNAME":"善化區","LI":"嘉北里","LIN":"12鄰","STREET":" ","SECT":" ","MAREA":"茄拔","LANE":" ","ALLEY":" ","HOUSE_NO":"２８２號之１","E_COORD97":180711.01000000001,"N_COORD97":2559780.02,"ADDRESS":"茄拔２８２號之１","OBJECTID":173295},"geometry":{"x":180711.00999999978,"y":2559780.0200000014}},{"attributes":{"ID":173297,"DIS_CODE":0,"TOWNNAME":"善化區","LI":"嘉北里","LIN":"12鄰","STREET":" ","SECT":" ","MAREA":"茄拔","LANE":" ","ALLEY":" ","HOUSE_NO":"２７０號之１１","E_COORD97":180917.64999999999,"N_COORD97":2559925.77,"ADDRESS":"茄拔２７０號之１１","OBJECTID":173296},"geometry":{"x":180917.65000000037,"y":2559925.7699999996}},{"attributes":{"ID":173298,"DIS_CODE":0,"TOWNNAME":"善化區","LI":"嘉北里","LIN":"12鄰","STREET":" ","SECT":" ","MAREA":"茄拔","LANE":" ","ALLEY":" ","HOUSE_NO":"２２８號之１３","E_COORD97":180945.29000000001,"N_COORD97":2559941.27,"ADDRESS":"茄拔２２８號之１３","OBJECTID":173297},"geometry":{"x":180945.29000000004,"y":2559941.2700000014}},{"attributes":{"ID":173299,"DIS_CODE":0,"TOWNNAME":"善化區","LI":"嘉北里","LIN":"12鄰","STREET":" ","SECT":" ","MAREA":"茄拔","LANE":" ","ALLEY":" ","HOUSE_NO":"２８０號","E_COORD97":180849.95000000001,"N_COORD97":2559792.2599999998,"ADDRESS":"茄拔２８０號","OBJECTID":173298},"geometry":{"x":180849.95000000112,"y":2559792.2600000016}},{"attributes":{"ID":173300,"DIS_CODE":0,"TOWNNAME":"善化區","LI":"嘉北里","LIN":"12鄰","STREET":" ","SECT":" ","MAREA":"茄拔","LANE":" ","ALLEY":" ","HOUSE_NO":"２２８之１２號","E_COORD97":180934.48000000001,"N_COORD97":2559922.0099999998,"ADDRESS":"茄拔２２８之１２號","OBJECTID":173299},"geometry":{"x":180934.47999999952,"y":2559922.0100000016}},{"attributes":{"ID":173301,"DIS_CODE":0,"TOWNNAME":"善化區","LI":"嘉北里","LIN":"12鄰","STREET":" ","SECT":" ","MAREA":"茄拔","LANE":" ","ALLEY":" ","HOUSE_NO":"２２８號之１４","E_COORD97":180940.59,"N_COORD97":2559942.52,"ADDRESS":"茄拔２２８號之１４","OBJECTID":173300},"geometry":{"x":180940.59000000078,"y":2559942.5200000014}},{"attributes":{"ID":173302,"DIS_CODE":0,"TOWNNAME":"善化區","LI":"嘉北里","LIN":"12鄰","STREET":" ","SECT":" ","MAREA":"茄拔","LANE":" ","ALLEY":" ","HOUSE_NO":"２３０號","E_COORD97":180967.12,"N_COORD97":2559900.0099999998,"ADDRESS":"茄拔２３０號","OBJECTID":173301},"geometry":{"x":180967.11999999918,"y":2559900.0099999998}},{"attributes":{"ID":173303,"DIS_CODE":0,"TOWNNAME":"安南區","LI":"安東里","LIN":"19鄰","STREET":"安和路","SECT":"一段","MAREA":" ","LANE":"４９６巷","ALLEY":"１弄","HOUSE_NO":"６２號","E_COORD97":169624.38,"N_COORD97":2548480.5600000001,"ADDRESS":"安和路一段４９６巷１弄６２號","OBJECTID":173302},"geometry":{"x":169624.38000000175,"y":2548480.5600000024}},{"attributes":{"ID":173304,"DIS_CODE":0,"TOWNNAME":"安南區","LI":"安東里","LIN":"19鄰","STREET":"安和路","SECT":"一段","MAREA":" ","LANE":"４９６巷","ALLEY":"１弄","HOUSE_NO":"６４號","E_COORD97":169629.92999999999,"N_COORD97":2548479.8199999998,"ADDRESS":"安和路一段４９６巷１弄６４號","OBJECTID":173303},"geometry":{"x":169629.9299999997,"y":2548479.8200000003}},{"attributes":{"ID":173305,"DIS_CODE":0,"TOWNNAME":"安南區","LI":"安東里","LIN":"19鄰","STREET":"安和路","SECT":"一段","MAREA":" ","LANE":"４９６巷","ALLEY":"１弄","HOUSE_NO":"６８號","E_COORD97":169638.22,"N_COORD97":2548479.5699999998,"ADDRESS":"安和路一段４９６巷１弄６８號","OBJECTID":173304},"geometry":{"x":169638.21999999974,"y":2548479.5700000022}},{"attributes":{"ID":173306,"DIS_CODE":0,"TOWNNAME":"善化區","LI":"嘉北里","LIN":"12鄰","STREET":" ","SECT":" ","MAREA":"茄拔","LANE":" ","ALLEY":" ","HOUSE_NO":"２８０之４號","E_COORD97":180715.48000000001,"N_COORD97":2559792.52,"ADDRESS":"茄拔２８０之４號","OBJECTID":173305},"geometry":{"x":180715.48000000045,"y":2559792.5200000033}},{"attributes":{"ID":173307,"DIS_CODE":0,"TOWNNAME":"安南區","LI":"安東里","LIN":"19鄰","STREET":"安和路","SECT":"一段","MAREA":" ","LANE":"４９６巷","ALLEY":"１弄","HOUSE_NO":"６號","E_COORD97":169486.47,"N_COORD97":2548473.7200000002,"ADDRESS":"安和路一段４９６巷１弄６號","OBJECTID":173306},"geometry":{"x":169486.47000000067,"y":2548473.7200000007}},{"attributes":{"ID":173308,"DIS_CODE":0,"TOWNNAME":"善化區","LI":"嘉北里","LIN":"12鄰","STREET":" ","SECT":" ","MAREA":"茄拔","LANE":" ","ALLEY":" ","HOUSE_NO":"２９０之４號","E_COORD97":180920.56,"N_COORD97":2559808.02,"ADDRESS":"茄拔２９０之４號","OBJECTID":173307},"geometry":{"x":180920.55999999959,"y":2559808.0199999996}},{"attributes":{"ID":173309,"DIS_CODE":0,"TOWNNAME":"善化區","LI":"嘉北里","LIN":"12鄰","STREET":" ","SECT":" ","MAREA":"茄拔","LANE":" ","ALLEY":" ","HOUSE_NO":"２８９號","E_COORD97":180904.69,"N_COORD97":2559758.5099999998,"ADDRESS":"茄拔２８９號","OBJECTID":173308},"geometry":{"x":180904.69000000134,"y":2559758.5099999979}},{"attributes":{"ID":173310,"DIS_CODE":0,"TOWNNAME":"安南區","LI":"安東里","LIN":"19鄰","STREET":"安和路","SECT":"一段","MAREA":" ","LANE":"４９６巷","ALLEY":"１弄","HOUSE_NO":"７０號","E_COORD97":169643.23999999999,"N_COORD97":2548480.8300000001,"ADDRESS":"安和路一段４９６巷１弄７０號","OBJECTID":173309},"geometry":{"x":169643.24000000115,"y":2548480.8300000019}},{"attributes":{"ID":173311,"DIS_CODE":0,"TOWNNAME":"安南區","LI":"安東里","LIN":"19鄰","STREET":"安和路","SECT":"一段","MAREA":" ","LANE":"４９６巷","ALLEY":"１弄","HOUSE_NO":"７２號","E_COORD97":169646.76000000001,"N_COORD97":2548481.3300000001,"ADDRESS":"安和路一段４９６巷１弄７２號","OBJECTID":173310},"geometry":{"x":169646.75999999978,"y":2548481.3300000019}},{"attributes":{"ID":173312,"DIS_CODE":0,"TOWNNAME":"安南區","LI":"安東里","LIN":"19鄰","STREET":"安和路","SECT":"一段","MAREA":" ","LANE":"４９６巷","ALLEY":"１弄","HOUSE_NO":"８２號","E_COORD97":169669.37,"N_COORD97":2548483.8399999999,"ADDRESS":"安和路一段４９６巷１弄８２號","OBJECTID":173311},"geometry":{"x":169669.37000000104,"y":2548483.8400000017}},{"attributes":{"ID":173313,"DIS_CODE":0,"TOWNNAME":"善化區","LI":"牛庄里","LIN":"12鄰","STREET":" ","SECT":" ","MAREA":"牛庄","LANE":" ","ALLEY":" ","HOUSE_NO":"１１５號","E_COORD97":179980.76999999999,"N_COORD97":2559934.5,"ADDRESS":"牛庄１１５號","OBJECTID":173312},"geometry":{"x":179980.77000000142,"y":2559934.5}},{"attributes":{"ID":173314,"DIS_CODE":0,"TOWNNAME":"善化區","LI":"嘉北里","LIN":"12鄰","STREET":" ","SECT":" ","MAREA":"茄拔","LANE":" ","ALLEY":" ","HOUSE_NO":"２８９號之３","E_COORD97":180961.48000000001,"N_COORD97":2559732.52,"ADDRESS":"茄拔２８９號之３","OBJECTID":173313},"geometry":{"x":180961.48000000045,"y":2559732.5200000014}},{"attributes":{"ID":173315,"DIS_CODE":0,"TOWNNAME":"善化區","LI":"嘉北里","LIN":"12鄰","STREET":" ","SECT":" ","MAREA":"茄拔","LANE":" ","ALLEY":" ","HOUSE_NO":"２８２號之４","E_COORD97":180706.39999999999,"N_COORD97":2559767.02,"ADDRESS":"茄拔２８２號之４","OBJECTID":173314},"geometry":{"x":180706.4000000013,"y":2559767.0199999996}},{"attributes":{"ID":173316,"DIS_CODE":0,"TOWNNAME":"善化區","LI":"嘉北里","LIN":"12鄰","STREET":" ","SECT":" ","MAREA":"茄拔","LANE":" ","ALLEY":" ","HOUSE_NO":"２９０之５號","E_COORD97":180924.51000000001,"N_COORD97":2559808.02,"ADDRESS":"茄拔２９０之５號","OBJECTID":173315},"geometry":{"x":180924.50999999978,"y":2559808.0199999996}},{"attributes":{"ID":173317,"DIS_CODE":0,"TOWNNAME":"善化區","LI":"嘉北里","LIN":"12鄰","STREET":" ","SECT":" ","MAREA":"茄拔","LANE":" ","ALLEY":" ","HOUSE_NO":"２８２號","E_COORD97":180711.60999999999,"N_COORD97":2559784.5099999998,"ADDRESS":"茄拔２８２號","OBJECTID":173316},"geometry":{"x":180711.6100000022,"y":2559784.5099999998}},{"attributes":{"ID":173318,"DIS_CODE":0,"TOWNNAME":"善化區","LI":"嘉北里","LIN":"12鄰","STREET":" ","SECT":" ","MAREA":"茄拔","LANE":" ","ALLEY":" ","HOUSE_NO":"２６６號","E_COORD97":180921.29000000001,"N_COORD97":2559869.0099999998,"ADDRESS":"茄拔２６６號","OBJECTID":173317},"geometry":{"x":180921.29000000004,"y":2559869.0099999998}},{"attributes":{"ID":173319,"DIS_CODE":0,"TOWNNAME":"善化區","LI":"嘉北里","LIN":"12鄰","STREET":" ","SECT":" ","MAREA":"茄拔","LANE":" ","ALLEY":" ","HOUSE_NO":"２９０之２號","E_COORD97":180912.66,"N_COORD97":2559808.02,"ADDRESS":"茄拔２９０之２號","OBJECTID":173318},"geometry":{"x":180912.65999999922,"y":2559808.0199999996}},{"attributes":{"ID":173320,"DIS_CODE":0,"TOWNNAME":"安南區","LI":"安東里","LIN":"19鄰","STREET":"安和路","SECT":"一段","MAREA":" ","LANE":"４９６巷","ALLEY":"１弄","HOUSE_NO":"７４號","E_COORD97":169652.54000000001,"N_COORD97":2548481.3300000001,"ADDRESS":"安和路一段４９６巷１弄７４號","OBJECTID":173319},"geometry":{"x":169652.54000000097,"y":2548481.3300000019}},{"attributes":{"ID":173321,"DIS_CODE":0,"TOWNNAME":"善化區","LI":"嘉北里","LIN":"12鄰","STREET":" ","SECT":" ","MAREA":"茄拔","LANE":" ","ALLEY":" ","HOUSE_NO":"２８４號","E_COORD97":180965.98000000001,"N_COORD97":2559761.5099999998,"ADDRESS":"茄拔２８４號","OBJECTID":173320},"geometry":{"x":180965.98000000045,"y":2559761.5099999998}},{"attributes":{"ID":173322,"DIS_CODE":0,"TOWNNAME":"安南區","LI":"安東里","LIN":"19鄰","STREET":"安和路","SECT":"一段","MAREA":" ","LANE":"４９６巷","ALLEY":"１弄","HOUSE_NO":"７６號","E_COORD97":169656.81,"N_COORD97":2548482.0800000001,"ADDRESS":"安和路一段４９６巷１弄７６號","OBJECTID":173321},"geometry":{"x":169656.81000000145,"y":2548482.0800000038}},{"attributes":{"ID":173323,"DIS_CODE":0,"TOWNNAME":"善化區","LI":"嘉北里","LIN":"12鄰","STREET":" ","SECT":" ","MAREA":"茄拔","LANE":" ","ALLEY":" ","HOUSE_NO":"２２０之４號","E_COORD97":180920.82000000001,"N_COORD97":2559955.27,"ADDRESS":"茄拔２２０之４號","OBJECTID":173322},"geometry":{"x":180920.82000000123,"y":2559955.2699999996}},{"attributes":{"ID":173324,"DIS_CODE":0,"TOWNNAME":"善化區","LI":"嘉北里","LIN":"12鄰","STREET":" ","SECT":" ","MAREA":"茄拔","LANE":" ","ALLEY":" ","HOUSE_NO":"２７０號之１","E_COORD97":180903.51000000001,"N_COORD97":2559900.27,"ADDRESS":"茄拔２７０號之１","OBJECTID":173323},"geometry":{"x":180903.51000000071,"y":2559900.2700000014}},{"attributes":{"ID":173325,"DIS_CODE":0,"TOWNNAME":"善化區","LI":"溪美里","LIN":"12鄰","STREET":" ","SECT":" ","MAREA":"溪尾","LANE":" ","ALLEY":" ","HOUSE_NO":"１１４號之１","E_COORD97":176773.20999999999,"N_COORD97":2561555.52,"ADDRESS":"溪尾１１４號之１","OBJECTID":173324},"geometry":{"x":176773.21000000089,"y":2561555.5200000033}},{"attributes":{"ID":173326,"DIS_CODE":0,"TOWNNAME":"善化區","LI":"嘉北里","LIN":"12鄰","STREET":" ","SECT":" ","MAREA":"茄拔","LANE":" ","ALLEY":" ","HOUSE_NO":"２２８之８號","E_COORD97":180971.64000000001,"N_COORD97":2559945.27,"ADDRESS":"茄拔２２８之８號","OBJECTID":173325},"geometry":{"x":180971.64000000153,"y":2559945.2699999996}},{"attributes":{"ID":173327,"DIS_CODE":0,"TOWNNAME":"善化區","LI":"嘉北里","LIN":"12鄰","STREET":" ","SECT":" ","MAREA":"茄拔","LANE":" ","ALLEY":" ","HOUSE_NO":"２２６號","E_COORD97":181016.64999999999,"N_COORD97":2559930.2599999998,"ADDRESS":"茄拔２２６號","OBJECTID":173326},"geometry":{"x":181016.6500000013,"y":2559930.2600000016}},{"attributes":{"ID":173328,"DIS_CODE":0,"TOWNNAME":"善化區","LI":"田寮里","LIN":"12鄰","STREET":" ","SECT":" ","MAREA":"六分寮","LANE":" ","ALLEY":" ","HOUSE_NO":"１３２號之２","E_COORD97":178605.54999999999,"N_COORD97":2561270.27,"ADDRESS":"六分寮１３２號之２","OBJECTID":173327},"geometry":{"x":178605.54999999981,"y":2561270.2700000014}},{"attributes":{"ID":173329,"DIS_CODE":0,"TOWNNAME":"善化區","LI":"田寮里","LIN":"12鄰","STREET":" ","SECT":" ","MAREA":"六分寮","LANE":" ","ALLEY":" ","HOUSE_NO":"１３１之４７號","E_COORD97":178626.23000000001,"N_COORD97":2561209.52,"ADDRESS":"六分寮１３１之４７號","OBJECTID":173328},"geometry":{"x":178626.23000000138,"y":2561209.5200000033}},{"attributes":{"ID":173330,"DIS_CODE":0,"TOWNNAME":"善化區","LI":"田寮里","LIN":"12鄰","STREET":" ","SECT":" ","MAREA":"六分寮","LANE":" ","ALLEY":" ","HOUSE_NO":"１３４號","E_COORD97":178620.5,"N_COORD97":2561314.75,"ADDRESS":"六分寮１３４號","OBJECTID":173329},"geometry":{"x":178620.50000000093,"y":2561314.7500000019}},{"attributes":{"ID":173331,"DIS_CODE":0,"TOWNNAME":"佳里區","LI":"漳洲里","LIN":"12鄰","STREET":" ","SECT":" ","MAREA":"番子寮","LANE":" ","ALLEY":" ","HOUSE_NO":"２９１號","E_COORD97":163099.25,"N_COORD97":2564941.6899999999,"ADDRESS":"番子寮２９１號","OBJECTID":173330},"geometry":{"x":163099.25000000093,"y":2564941.6900000013}},{"attributes":{"ID":173332,"DIS_CODE":0,"TOWNNAME":"安南區","LI":"安東里","LIN":"19鄰","STREET":"安和路","SECT":"一段","MAREA":" ","LANE":"４９６巷","ALLEY":"１弄","HOUSE_NO":"８０號","E_COORD97":169665.35000000001,"N_COORD97":2548483.3399999999,"ADDRESS":"安和路一段４９６巷１弄８０號","OBJECTID":173331},"geometry":{"x":169665.35000000056,"y":2548483.339999998}},{"attributes":{"ID":173333,"DIS_CODE":0,"TOWNNAME":"善化區","LI":"田寮里","LIN":"12鄰","STREET":" ","SECT":" ","MAREA":"六分寮","LANE":" ","ALLEY":" ","HOUSE_NO":"１３２之５號","E_COORD97":178615.01999999999,"N_COORD97":2561253.27,"ADDRESS":"六分寮１３２之５號","OBJECTID":173332},"geometry":{"x":178615.02000000048,"y":2561253.2700000014}},{"attributes":{"ID":173334,"DIS_CODE":0,"TOWNNAME":"善化區","LI":"田寮里","LIN":"12鄰","STREET":" ","SECT":" ","MAREA":"六分寮","LANE":" ","ALLEY":" ","HOUSE_NO":"１３１號之４３","E_COORD97":178621.42999999999,"N_COORD97":2561236.77,"ADDRESS":"六分寮１３１號之４３","OBJECTID":173333},"geometry":{"x":178621.4299999997,"y":2561236.7699999996}},{"attributes":{"ID":173335,"DIS_CODE":0,"TOWNNAME":"安南區","LI":"安東里","LIN":"21鄰","STREET":"安和路","SECT":"一段","MAREA":" ","LANE":"４９６巷","ALLEY":"２３弄","HOUSE_NO":"２２號","E_COORD97":169563.98999999999,"N_COORD97":2548433.6800000002,"ADDRESS":"安和路一段４９６巷２３弄２２號","OBJECTID":173334},"geometry":{"x":169563.99000000022,"y":2548433.6800000034}},{"attributes":{"ID":173336,"DIS_CODE":0,"TOWNNAME":"安南區","LI":"安東里","LIN":"21鄰","STREET":"安和路","SECT":"一段","MAREA":" ","LANE":"４９６巷","ALLEY":"２３弄","HOUSE_NO":"２４號","E_COORD97":169568.32999999999,"N_COORD97":2548432.8399999999,"ADDRESS":"安和路一段４９６巷２３弄２４號","OBJECTID":173335},"geometry":{"x":169568.33000000007,"y":2548432.8400000036}},{"attributes":{"ID":173337,"DIS_CODE":0,"TOWNNAME":"安南區","LI":"安東里","LIN":"21鄰","STREET":"安和路","SECT":"一段","MAREA":" ","LANE":"４９６巷","ALLEY":"２３弄","HOUSE_NO":"２６號","E_COORD97":169572.38,"N_COORD97":2548432.4199999999,"ADDRESS":"安和路一段４９６巷２３弄２６號","OBJECTID":173336},"geometry":{"x":169572.38000000082,"y":2548432.4200000037}},{"attributes":{"ID":173338,"DIS_CODE":0,"TOWNNAME":"安南區","LI":"安東里","LIN":"21鄰","STREET":"安和路","SECT":"一段","MAREA":" ","LANE":"４９６巷","ALLEY":"２３弄","HOUSE_NO":"２８號","E_COORD97":169576.01000000001,"N_COORD97":2548433.6800000002,"ADDRESS":"安和路一段４９６巷２３弄２８號","OBJECTID":173337},"geometry":{"x":169576.01000000164,"y":2548433.6800000034}},{"attributes":{"ID":173339,"DIS_CODE":0,"TOWNNAME":"安南區","LI":"安東里","LIN":"21鄰","STREET":"安和路","SECT":"一段","MAREA":" ","LANE":"４９６巷","ALLEY":"２３弄","HOUSE_NO":"３２號","E_COORD97":169584.67000000001,"N_COORD97":2548433.96,"ADDRESS":"安和路一段４９６巷２３弄３２號","OBJECTID":173338},"geometry":{"x":169584.66999999993,"y":2548433.9600000028}},{"attributes":{"ID":173340,"DIS_CODE":0,"TOWNNAME":"安南區","LI":"安東里","LIN":"21鄰","STREET":"安和路","SECT":"一段","MAREA":" ","LANE":"４９６巷","ALLEY":"２３弄","HOUSE_NO":"３８號","E_COORD97":169596.26999999999,"N_COORD97":2548434.9399999999,"ADDRESS":"安和路一段４９６巷２３弄３８號","OBJECTID":173339},"geometry":{"x":169596.27000000048,"y":2548434.9400000032}},{"attributes":{"ID":173341,"DIS_CODE":0,"TOWNNAME":"善化區","LI":"田寮里","LIN":"12鄰","STREET":" ","SECT":" ","MAREA":"六分寮","LANE":" ","ALLEY":" ","HOUSE_NO":"１３２之１號","E_COORD97":178610.07000000001,"N_COORD97":2561271.52,"ADDRESS":"六分寮１３２之１號","OBJECTID":173340},"geometry":{"x":178610.07000000123,"y":2561271.5200000014}},{"attributes":{"ID":173342,"DIS_CODE":0,"TOWNNAME":"安南區","LI":"安東里","LIN":"21鄰","STREET":"安和路","SECT":"一段","MAREA":" ","LANE":"４９６巷","ALLEY":"２３弄","HOUSE_NO":"４２號","E_COORD97":169603.82000000001,"N_COORD97":2548437.3100000001,"ADDRESS":"安和路一段４９６巷２３弄４２號","OBJECTID":173341},"geometry":{"x":169603.82000000123,"y":2548437.3100000024}},{"attributes":{"ID":173343,"DIS_CODE":0,"TOWNNAME":"安南區","LI":"安東里","LIN":"21鄰","STREET":"安和路","SECT":"一段","MAREA":" ","LANE":"４９６巷","ALLEY":"２３弄","HOUSE_NO":"４４號","E_COORD97":169610.38,"N_COORD97":2548437.0299999998,"ADDRESS":"安和路一段４９６巷２３弄４４號","OBJECTID":173342},"geometry":{"x":169610.37999999989,"y":2548437.0299999993}},{"attributes":{"ID":173344,"DIS_CODE":0,"TOWNNAME":"白河區","LI":"河東里","LIN":"1鄰","STREET":" ","SECT":" ","MAREA":"糞箕湖","LANE":" ","ALLEY":" ","HOUSE_NO":"１２號","E_COORD97":192215.45000000001,"N_COORD97":2582238.7000000002,"ADDRESS":"糞箕湖１２號","OBJECTID":173343},"geometry":{"x":192215.45000000019,"y":2582238.700000003}},{"attributes":{"ID":173345,"DIS_CODE":0,"TOWNNAME":"善化區","LI":"牛庄里","LIN":"12鄰","STREET":" ","SECT":" ","MAREA":"牛庄","LANE":" ","ALLEY":" ","HOUSE_NO":"１１４號","E_COORD97":180000.19,"N_COORD97":2559906.5,"ADDRESS":"牛庄１１４號","OBJECTID":173344},"geometry":{"x":180000.19000000041,"y":2559906.5}},{"attributes":{"ID":173346,"DIS_CODE":0,"TOWNNAME":"善化區","LI":"田寮里","LIN":"12鄰","STREET":" ","SECT":" ","MAREA":"六分寮","LANE":" ","ALLEY":" ","HOUSE_NO":"１３１號之３９","E_COORD97":178608.84,"N_COORD97":2561228.02,"ADDRESS":"六分寮１３１號之３９","OBJECTID":173345},"geometry":{"x":178608.83999999985,"y":2561228.0200000014}},{"attributes":{"ID":173347,"DIS_CODE":0,"TOWNNAME":"安南區","LI":"安東里","LIN":"21鄰","STREET":"安和路","SECT":"一段","MAREA":" ","LANE":"４９６巷","ALLEY":"２３弄","HOUSE_NO":"４６號","E_COORD97":169614.57999999999,"N_COORD97":2548436.8900000001,"ADDRESS":"安和路一段４９６巷２３弄４６號","OBJECTID":173346},"geometry":{"x":169614.58000000007,"y":2548436.8900000025}},{"attributes":{"ID":173348,"DIS_CODE":0,"TOWNNAME":"善化區","LI":"田寮里","LIN":"12鄰","STREET":" ","SECT":" ","MAREA":"六分寮","LANE":" ","ALLEY":" ","HOUSE_NO":"１３２之６號","E_COORD97":178616.63,"N_COORD97":2561247.27,"ADDRESS":"六分寮１３２之６號","OBJECTID":173347},"geometry":{"x":178616.62999999989,"y":2561247.2699999996}},{"attributes":{"ID":173349,"DIS_CODE":0,"TOWNNAME":"善化區","LI":"田寮里","LIN":"12鄰","STREET":" ","SECT":" ","MAREA":"六分寮","LANE":" ","ALLEY":" ","HOUSE_NO":"１３１號之３７","E_COORD97":178606.31,"N_COORD97":2561238.27,"ADDRESS":"六分寮１３１號之３７","OBJECTID":173348},"geometry":{"x":178606.31000000052,"y":2561238.2700000033}},{"attributes":{"ID":173350,"DIS_CODE":0,"TOWNNAME":"安南區","LI":"安東里","LIN":"21鄰","STREET":"安和路","SECT":"一段","MAREA":" ","LANE":"４９６巷","ALLEY":"２３弄","HOUSE_NO":"４８號","E_COORD97":169618.91,"N_COORD97":2548437.1699999999,"ADDRESS":"安和路一段４９６巷２３弄４８號","OBJECTID":173349},"geometry":{"x":169618.91000000015,"y":2548437.1700000037}},{"attributes":{"ID":173351,"DIS_CODE":0,"TOWNNAME":"安南區","LI":"安東里","LIN":"21鄰","STREET":"安和路","SECT":"一段","MAREA":" ","LANE":"４９６巷","ALLEY":"２３弄","HOUSE_NO":"５０號","E_COORD97":169622.26000000001,"N_COORD97":2548437.8700000001,"ADDRESS":"安和路一段４９６巷２３弄５０號","OBJECTID":173350},"geometry":{"x":169622.26000000071,"y":2548437.8700000029}},{"attributes":{"ID":173352,"DIS_CODE":0,"TOWNNAME":"善化區","LI":"田寮里","LIN":"12鄰","STREET":" ","SECT":" ","MAREA":"六分寮","LANE":" ","ALLEY":" ","HOUSE_NO":"１３１號之２７","E_COORD97":178612.89999999999,"N_COORD97":2561172.02,"ADDRESS":"六分寮１３１號之２７","OBJECTID":173351},"geometry":{"x":178612.9000000013,"y":2561172.0199999977}},{"attributes":{"ID":173353,"DIS_CODE":0,"TOWNNAME":"安南區","LI":"安東里","LIN":"21鄰","STREET":"安和路","SECT":"一段","MAREA":" ","LANE":"４９６巷","ALLEY":"２３弄","HOUSE_NO":"５２號","E_COORD97":169626.31,"N_COORD97":2548437.8700000001,"ADDRESS":"安和路一段４９６巷２３弄５２號","OBJECTID":173352},"geometry":{"x":169626.31000000145,"y":2548437.8700000029}},{"attributes":{"ID":173354,"DIS_CODE":0,"TOWNNAME":"安南區","LI":"安東里","LIN":"21鄰","STREET":"安和路","SECT":"一段","MAREA":" ","LANE":"４９６巷","ALLEY":"２３弄","HOUSE_NO":"５４號","E_COORD97":169631.19,"N_COORD97":2548437.2799999998,"ADDRESS":"安和路一段４９６巷２３弄５４號","OBJECTID":173353},"geometry":{"x":169631.18999999948,"y":2548437.2800000012}},{"attributes":{"ID":173355,"DIS_CODE":0,"TOWNNAME":"安南區","LI":"溪北里","LIN":"6鄰","STREET":"安和路","SECT":"一段","MAREA":" ","LANE":"１５巷","ALLEY":"２０弄","HOUSE_NO":"１０號","E_COORD97":169486.73000000001,"N_COORD97":2547416.3700000001,"ADDRESS":"安和路一段１５巷２０弄１０號","OBJECTID":173354},"geometry":{"x":169486.73000000045,"y":2547416.3699999992}},{"attributes":{"ID":173356,"DIS_CODE":0,"TOWNNAME":"東區","LI":"莊敬里","LIN":"12鄰","STREET":"東光路","SECT":"二段","MAREA":" ","LANE":" ","ALLEY":" ","HOUSE_NO":"３４號","E_COORD97":171223.73999999999,"N_COORD97":2544053.3599999999,"ADDRESS":"東光路二段３４號","OBJECTID":173355},"geometry":{"x":171223.74000000022,"y":2544053.3600000013}},{"attributes":{"ID":173357,"DIS_CODE":0,"TOWNNAME":"安南區","LI":"溪北里","LIN":"6鄰","STREET":"安和路","SECT":"一段","MAREA":" ","LANE":"１５巷","ALLEY":"２０弄","HOUSE_NO":"１２號","E_COORD97":169485.10999999999,"N_COORD97":2547422.75,"ADDRESS":"安和路一段１５巷２０弄１２號","OBJECTID":173356},"geometry":{"x":169485.11000000127,"y":2547422.75}},{"attributes":{"ID":173358,"DIS_CODE":0,"TOWNNAME":"麻豆區","LI":"中興里","LIN":"10鄰","STREET":"和平路","SECT":" ","MAREA":" ","LANE":" ","ALLEY":" ","HOUSE_NO":"３號之２","E_COORD97":173039.85000000001,"N_COORD97":2564375.73,"ADDRESS":"和平路３號之２","OBJECTID":173357},"geometry":{"x":173039.84999999963,"y":2564375.7300000042}},{"attributes":{"ID":173359,"DIS_CODE":0,"TOWNNAME":"安南區","LI":"溪北里","LIN":"6鄰","STREET":"安和路","SECT":"一段","MAREA":" ","LANE":"１５巷","ALLEY":"２０弄","HOUSE_NO":"１３號","E_COORD97":169461.29000000001,"N_COORD97":2547421.0299999998,"ADDRESS":"安和路一段１５巷２０弄１３號","OBJECTID":173358},"geometry":{"x":169461.29000000097,"y":2547421.0300000012}},{"attributes":{"ID":173360,"DIS_CODE":0,"TOWNNAME":"安南區","LI":"溪北里","LIN":"6鄰","STREET":"安和路","SECT":"一段","MAREA":" ","LANE":"１５巷","ALLEY":"２０弄","HOUSE_NO":"１４號","E_COORD97":169481.84,"N_COORD97":2547427.0800000001,"ADDRESS":"安和路一段１５巷２０弄１４號","OBJECTID":173359},"geometry":{"x":169481.83999999985,"y":2547427.0800000001}},{"attributes":{"ID":173361,"DIS_CODE":0,"TOWNNAME":"安南區","LI":"溪北里","LIN":"6鄰","STREET":"安和路","SECT":"一段","MAREA":" ","LANE":"１５巷","ALLEY":"２０弄","HOUSE_NO":"１５號","E_COORD97":169458.89000000001,"N_COORD97":2547427.4399999999,"ADDRESS":"安和路一段１５巷２０弄１５號","OBJECTID":173360},"geometry":{"x":169458.88999999966,"y":2547427.4399999995}},{"attributes":{"ID":173362,"DIS_CODE":0,"TOWNNAME":"安南區","LI":"溪北里","LIN":"6鄰","STREET":"安和路","SECT":"一段","MAREA":" ","LANE":"１５巷","ALLEY":"２０弄","HOUSE_NO":"１６號","E_COORD97":169479.94,"N_COORD97":2547431.5499999998,"ADDRESS":"安和路一段１５巷２０弄１６號","OBJECTID":173361},"geometry":{"x":169479.94000000041,"y":2547431.5500000007}},{"attributes":{"ID":173363,"DIS_CODE":0,"TOWNNAME":"安南區","LI":"溪北里","LIN":"6鄰","STREET":"安和路","SECT":"一段","MAREA":" ","LANE":"１５巷","ALLEY":"２０弄","HOUSE_NO":"１７號","E_COORD97":169456.60999999999,"N_COORD97":2547433.8199999998,"ADDRESS":"安和路一段１５巷２０弄１７號","OBJECTID":173362},"geometry":{"x":169456.61000000034,"y":2547433.8200000022}},{"attributes":{"ID":173364,"DIS_CODE":0,"TOWNNAME":"北區","LI":"文元里","LIN":"13鄰","STREET":"文賢路","SECT":" ","MAREA":" ","LANE":"１１８０巷","ALLEY":"６弄","HOUSE_NO":"２號","E_COORD97":167357.20000000001,"N_COORD97":2546457.9399999999,"ADDRESS":"文賢路１１８０巷６弄２號","OBJECTID":173363},"geometry":{"x":167357.20000000019,"y":2546457.9399999995}},{"attributes":{"ID":173365,"DIS_CODE":0,"TOWNNAME":"北區","LI":"振興里","LIN":"8鄰","STREET":"開元路","SECT":" ","MAREA":" ","LANE":"１４８巷","ALLEY":"４３弄","HOUSE_NO":"３６號","E_COORD97":170154.38,"N_COORD97":2545093.73,"ADDRESS":"開元路１４８巷４３弄３６號","OBJECTID":173364},"geometry":{"x":170154.37999999989,"y":2545093.7300000004}},{"attributes":{"ID":173366,"DIS_CODE":0,"TOWNNAME":"北區","LI":"振興里","LIN":"8鄰","STREET":"開元路","SECT":" ","MAREA":" ","LANE":"１４８巷","ALLEY":"４３弄","HOUSE_NO":"４０號","E_COORD97":170153.17999999999,"N_COORD97":2545101.25,"ADDRESS":"開元路１４８巷４３弄４０號","OBJECTID":173365},"geometry":{"x":170153.18000000063,"y":2545101.2500000019}},{"attributes":{"ID":173367,"DIS_CODE":0,"TOWNNAME":"北區","LI":"振興里","LIN":"8鄰","STREET":"開元路","SECT":" ","MAREA":" ","LANE":"１４８巷","ALLEY":"４３弄","HOUSE_NO":"４４號","E_COORD97":170144.23000000001,"N_COORD97":2545103.8700000001,"ADDRESS":"開元路１４８巷４３弄４４號","OBJECTID":173366},"geometry":{"x":170144.23000000045,"y":2545103.870000001}},{"attributes":{"ID":173368,"DIS_CODE":0,"TOWNNAME":"北區","LI":"和順里","LIN":"31鄰","STREET":"臨安路","SECT":"二段","MAREA":" ","LANE":"１４３巷","ALLEY":"１弄","HOUSE_NO":"２號之１","E_COORD97":167810.89000000001,"N_COORD97":2544908.9700000002,"ADDRESS":"臨安路二段１４３巷１弄２號之１","OBJECTID":173367},"geometry":{"x":167810.8900000006,"y":2544908.9700000007}},{"attributes":{"ID":173369,"DIS_CODE":0,"TOWNNAME":"北區","LI":"振興里","LIN":"17鄰","STREET":"開元路","SECT":" ","MAREA":" ","LANE":"２１２巷","ALLEY":"１２４弄","HOUSE_NO":"１２號","E_COORD97":170411.59,"N_COORD97":2545031.3900000001,"ADDRESS":"開元路２１２巷１２４弄１２號","OBJECTID":173368},"geometry":{"x":170411.59000000078,"y":2545031.3900000006}},{"attributes":{"ID":173370,"DIS_CODE":0,"TOWNNAME":"北區","LI":"振興里","LIN":"17鄰","STREET":"開元路","SECT":" ","MAREA":" ","LANE":"２１２巷","ALLEY":"１２４弄","HOUSE_NO":"１６號","E_COORD97":170403.41,"N_COORD97":2545026.7000000002,"ADDRESS":"開元路２１２巷１２４弄１６號","OBJECTID":173369},"geometry":{"x":170403.41000000015,"y":2545026.7000000011}},{"attributes":{"ID":173371,"DIS_CODE":0,"TOWNNAME":"北區","LI":"振興里","LIN":"17鄰","STREET":"開元路","SECT":" ","MAREA":" ","LANE":"２１２巷","ALLEY":"１２４弄","HOUSE_NO":"１８號","E_COORD97":170399.37,"N_COORD97":2545024.1899999999,"ADDRESS":"開元路２１２巷１２４弄１８號","OBJECTID":173370},"geometry":{"x":170399.37000000197,"y":2545024.1900000013}},{"attributes":{"ID":173372,"DIS_CODE":0,"TOWNNAME":"北區","LI":"振興里","LIN":"17鄰","STREET":"開元路","SECT":" ","MAREA":" ","LANE":"２１２巷","ALLEY":"１２４弄","HOUSE_NO":"２０號","E_COORD97":170394.89999999999,"N_COORD97":2545022.0099999998,"ADDRESS":"開元路２１２巷１２４弄２０號","OBJECTID":173371},"geometry":{"x":170394.9000000013,"y":2545022.0100000016}},{"attributes":{"ID":173373,"DIS_CODE":0,"TOWNNAME":"北區","LI":"振興里","LIN":"17鄰","STREET":"開元路","SECT":" ","MAREA":" ","LANE":"２１２巷","ALLEY":"１２４弄","HOUSE_NO":"２６號","E_COORD97":170368.79999999999,"N_COORD97":2545011.6299999999,"ADDRESS":"開元路２１２巷１２４弄２６號","OBJECTID":173372},"geometry":{"x":170368.79999999981,"y":2545011.629999999}},{"attributes":{"ID":173374,"DIS_CODE":0,"TOWNNAME":"北區","LI":"振興里","LIN":"17鄰","STREET":"開元路","SECT":" ","MAREA":" ","LANE":"２１２巷","ALLEY":"１２４弄","HOUSE_NO":"２８號","E_COORD97":170372.07000000001,"N_COORD97":2545008.4700000002,"ADDRESS":"開元路２１２巷１２４弄２８號","OBJECTID":173373},"geometry":{"x":170372.0700000003,"y":2545008.4700000044}},{"attributes":{"ID":173375,"DIS_CODE":0,"TOWNNAME":"北區","LI":"振興里","LIN":"17鄰","STREET":"開元路","SECT":" ","MAREA":" ","LANE":"２１２巷","ALLEY":"１２４弄","HOUSE_NO":"２號","E_COORD97":170437.92000000001,"N_COORD97":2545047.3999999999,"ADDRESS":"開元路２１２巷１２４弄２號","OBJECTID":173374},"geometry":{"x":170437.92000000179,"y":2545047.4000000022}},{"attributes":{"ID":173376,"DIS_CODE":0,"TOWNNAME":"北區","LI":"振興里","LIN":"17鄰","STREET":"開元路","SECT":" ","MAREA":" ","LANE":"２１２巷","ALLEY":"１２４弄","HOUSE_NO":"４號","E_COORD97":170434.57000000001,"N_COORD97":2545045.25,"ADDRESS":"開元路２１２巷１２４弄４號","OBJECTID":173375},"geometry":{"x":170434.57000000123,"y":2545045.25}},{"attributes":{"ID":173377,"DIS_CODE":0,"TOWNNAME":"北區","LI":"振興里","LIN":"17鄰","STREET":"開元路","SECT":" ","MAREA":" ","LANE":"２１２巷","ALLEY":"１２４弄","HOUSE_NO":"６號","E_COORD97":170430.85999999999,"N_COORD97":2545042.1400000001,"ADDRESS":"開元路２１２巷１２４弄６號","OBJECTID":173376},"geometry":{"x":170430.86000000127,"y":2545042.1400000025}},{"attributes":{"ID":173378,"DIS_CODE":0,"TOWNNAME":"北區","LI":"振興里","LIN":"17鄰","STREET":"開元路","SECT":" ","MAREA":" ","LANE":"２１２巷","ALLEY":"１２４弄","HOUSE_NO":"８號","E_COORD97":170426.20000000001,"N_COORD97":2545039.4500000002,"ADDRESS":"開元路２１２巷１２４弄８號","OBJECTID":173377},"geometry":{"x":170426.20000000112,"y":2545039.4499999993}},{"attributes":{"ID":173379,"DIS_CODE":0,"TOWNNAME":"新營區","LI":"民榮里","LIN":"38鄰","STREET":"太子路","SECT":" ","MAREA":" ","LANE":"５３巷","ALLEY":"６弄","HOUSE_NO":"５之２號","E_COORD97":178330.89000000001,"N_COORD97":2577960.5800000001,"ADDRESS":"太子路５３巷６弄５之２號","OBJECTID":173378},"geometry":{"x":178330.8900000006,"y":2577960.5800000001}},{"attributes":{"ID":173380,"DIS_CODE":0,"TOWNNAME":"新營區","LI":"新南里","LIN":"25鄰","STREET":"復興路","SECT":" ","MAREA":" ","LANE":"６２０巷","ALLEY":"６４弄","HOUSE_NO":"１０號","E_COORD97":178083.85000000001,"N_COORD97":2578536.4900000002,"ADDRESS":"復興路６２０巷６４弄１０號","OBJECTID":173379},"geometry":{"x":178083.85000000056,"y":2578536.4900000021}},{"attributes":{"ID":173381,"DIS_CODE":0,"TOWNNAME":"新營區","LI":"民榮里","LIN":"39鄰","STREET":"太子路","SECT":" ","MAREA":" ","LANE":"５３巷","ALLEY":"７弄","HOUSE_NO":"２４號","E_COORD97":178302.98000000001,"N_COORD97":2577936.2999999998,"ADDRESS":"太子路５３巷７弄２４號","OBJECTID":173380},"geometry":{"x":178302.98000000045,"y":2577936.3000000007}},{"attributes":{"ID":173382,"DIS_CODE":0,"TOWNNAME":"新營區","LI":"嘉芳里","LIN":" ","STREET":"復興路","SECT":" ","MAREA":" ","LANE":"８０３巷","ALLEY":"２４弄","HOUSE_NO":"１３號","E_COORD97":177065.82000000001,"N_COORD97":2578479.4500000002,"ADDRESS":"復興路８０３巷２４弄１３號","OBJECTID":173381},"geometry":{"x":177065.82000000123,"y":2578479.4499999993}},{"attributes":{"ID":173383,"DIS_CODE":0,"TOWNNAME":"新營區","LI":"民榮里","LIN":"39鄰","STREET":"太子路","SECT":" ","MAREA":" ","LANE":"５３巷","ALLEY":"８弄","HOUSE_NO":"１２號","E_COORD97":178344.57999999999,"N_COORD97":2577880.7200000002,"ADDRESS":"太子路５３巷８弄１２號","OBJECTID":173382},"geometry":{"x":178344.58000000007,"y":2577880.7200000025}},{"attributes":{"ID":173384,"DIS_CODE":0,"TOWNNAME":"新營區","LI":"民榮里","LIN":"38鄰","STREET":"太子路","SECT":" ","MAREA":" ","LANE":"５３巷","ALLEY":"６弄","HOUSE_NO":"７號之２","E_COORD97":178323.5,"N_COORD97":2577959.5099999998,"ADDRESS":"太子路５３巷６弄７號之２","OBJECTID":173383},"geometry":{"x":178323.50000000186,"y":2577959.5100000016}},{"attributes":{"ID":173385,"DIS_CODE":0,"TOWNNAME":"新營區","LI":"民榮里","LIN":"38鄰","STREET":"太子路","SECT":" ","MAREA":" ","LANE":"５３巷","ALLEY":"６弄","HOUSE_NO":"１７號之１","E_COORD97":178283.62,"N_COORD97":2577947.52,"ADDRESS":"太子路５３巷６弄１７號之１","OBJECTID":173384},"geometry":{"x":178283.61999999918,"y":2577947.5199999977}},{"attributes":{"ID":173386,"DIS_CODE":0,"TOWNNAME":"東區","LI":"德光里","LIN":"12鄰","STREET":"崇學路","SECT":" ","MAREA":" ","LANE":" ","ALLEY":" ","HOUSE_NO":"１５９之１號","E_COORD97":170362.09,"N_COORD97":2542286.4300000002,"ADDRESS":"崇學路１５９之１號","OBJECTID":173385},"geometry":{"x":170362.09000000171,"y":2542286.4300000016}},{"attributes":{"ID":173387,"DIS_CODE":0,"TOWNNAME":"安南區","LI":"淵東里","LIN":"12鄰","STREET":"海佃路","SECT":"四段","MAREA":" ","LANE":" ","ALLEY":" ","HOUSE_NO":"５７號","E_COORD97":165675.01999999999,"N_COORD97":2550600.7599999998,"ADDRESS":"海佃路四段５７號","OBJECTID":173386},"geometry":{"x":165675.02000000142,"y":2550600.7600000016}},{"attributes":{"ID":173388,"DIS_CODE":0,"TOWNNAME":"新營區","LI":"新南里","LIN":"18鄰","STREET":"隋唐街","SECT":" ","MAREA":" ","LANE":"３１巷","ALLEY":"１０弄","HOUSE_NO":"１９號","E_COORD97":178641.82000000001,"N_COORD97":2578428.5899999999,"ADDRESS":"隋唐街３１巷１０弄１９號","OBJECTID":173387},"geometry":{"x":178641.81999999937,"y":2578428.5899999999}},{"attributes":{"ID":173389,"DIS_CODE":0,"TOWNNAME":"新營區","LI":"南紙里","LIN":"25鄰","STREET":"建業路","SECT":" ","MAREA":" ","LANE":"２２７巷","ALLEY":"２弄","HOUSE_NO":"３６號","E_COORD97":178021.54000000001,"N_COORD97":2577482.5,"ADDRESS":"建業路２２７巷２弄３６號","OBJECTID":173388},"geometry":{"x":178021.5400000019,"y":2577482.5}},{"attributes":{"ID":173390,"DIS_CODE":0,"TOWNNAME":"新營區","LI":"民榮里","LIN":"32鄰","STREET":"太子路","SECT":" ","MAREA":" ","LANE":"５３巷","ALLEY":"１弄","HOUSE_NO":"２號","E_COORD97":178310.42000000001,"N_COORD97":2578042.5699999998,"ADDRESS":"太子路５３巷１弄２號","OBJECTID":173389},"geometry":{"x":178310.42000000179,"y":2578042.5700000003}},{"attributes":{"ID":173391,"DIS_CODE":0,"TOWNNAME":"新營區","LI":"新南里","LIN":"26鄰","STREET":"復興路","SECT":" ","MAREA":" ","LANE":"６２０巷","ALLEY":"６１弄","HOUSE_NO":"４３號","E_COORD97":177900.76000000001,"N_COORD97":2578520.77,"ADDRESS":"復興路６２０巷６１弄４３號","OBJECTID":173390},"geometry":{"x":177900.75999999978,"y":2578520.7699999996}},{"attributes":{"ID":173392,"DIS_CODE":0,"TOWNNAME":"新市區","LI":"社內里","LIN":"12鄰","STREET":" ","SECT":" ","MAREA":"社內","LANE":" ","ALLEY":" ","HOUSE_NO":"１３０之８號","E_COORD97":176407.72,"N_COORD97":2552541.2999999998,"ADDRESS":"社內１３０之８號","OBJECTID":173391},"geometry":{"x":176407.7200000016,"y":2552541.3000000026}},{"attributes":{"ID":173393,"DIS_CODE":0,"TOWNNAME":"新市區","LI":"社內里","LIN":"12鄰","STREET":" ","SECT":" ","MAREA":"社內","LANE":" ","ALLEY":" ","HOUSE_NO":"１３０之１０號","E_COORD97":176404.87,"N_COORD97":2552566.0499999998,"ADDRESS":"社內１３０之１０號","OBJECTID":173392},"geometry":{"x":176404.87000000011,"y":2552566.0500000026}},{"attributes":{"ID":173394,"DIS_CODE":0,"TOWNNAME":"新營區","LI":"民榮里","LIN":"38鄰","STREET":"太子路","SECT":" ","MAREA":" ","LANE":"５３巷","ALLEY":"６弄","HOUSE_NO":"７號之３","E_COORD97":178323.45999999999,"N_COORD97":2577959.5099999998,"ADDRESS":"太子路５３巷６弄７號之３","OBJECTID":173393},"geometry":{"x":178323.45999999996,"y":2577959.5100000016}},{"attributes":{"ID":173395,"DIS_CODE":0,"TOWNNAME":"新營區","LI":"忠政里","LIN":"26鄰","STREET":"府西路","SECT":" ","MAREA":" ","LANE":"１３７巷","ALLEY":"２６弄","HOUSE_NO":"２號","E_COORD97":179721.04000000001,"N_COORD97":2579345.9300000002,"ADDRESS":"府西路１３７巷２６弄２號","OBJECTID":173394},"geometry":{"x":179721.04000000004,"y":2579345.9300000016}},{"attributes":{"ID":173396,"DIS_CODE":0,"TOWNNAME":"新營區","LI":"新南里","LIN":"17鄰","STREET":"隋唐街","SECT":" ","MAREA":" ","LANE":"３１巷","ALLEY":"６弄","HOUSE_NO":"２６號","E_COORD97":178633.95999999999,"N_COORD97":2578481.7799999998,"ADDRESS":"隋唐街３１巷６弄２６號","OBJECTID":173395},"geometry":{"x":178633.96000000183,"y":2578481.7800000012}},{"attributes":{"ID":173397,"DIS_CODE":0,"TOWNNAME":"新營區","LI":"忠政里","LIN":"26鄰","STREET":"府西路","SECT":" ","MAREA":" ","LANE":"１３７巷","ALLEY":"１２弄","HOUSE_NO":"１號","E_COORD97":179748.62,"N_COORD97":2579352.4399999999,"ADDRESS":"府西路１３７巷１２弄１號","OBJECTID":173396},"geometry":{"x":179748.62000000104,"y":2579352.4400000013}},{"attributes":{"ID":173398,"DIS_CODE":0,"TOWNNAME":"歸仁區","LI":"崙頂里","LIN":"12鄰","STREET":"凱旋路","SECT":"一段","MAREA":" ","LANE":" ","ALLEY":" ","HOUSE_NO":"５７０號","E_COORD97":177844.83686400001,"N_COORD97":2539557.87359,"ADDRESS":"凱旋路一段５７０號","OBJECTID":173397},"geometry":{"x":177844.83686400019,"y":2539557.8735900037}},{"attributes":{"ID":173399,"DIS_CODE":0,"TOWNNAME":"安平區","LI":"文平里","LIN":"13鄰","STREET":"建平五街","SECT":" ","MAREA":" ","LANE":"２２巷","ALLEY":"３６弄","HOUSE_NO":"３６號","E_COORD97":166043.91,"N_COORD97":2543223.7200000002,"ADDRESS":"建平五街２２巷３６弄３６號","OBJECTID":173398},"geometry":{"x":166043.91000000015,"y":2543223.7200000025}},{"attributes":{"ID":173400,"DIS_CODE":0,"TOWNNAME":"安平區","LI":"文平里","LIN":"13鄰","STREET":"建平五街","SECT":" ","MAREA":" ","LANE":"２２巷","ALLEY":"３６弄","HOUSE_NO":"３８號","E_COORD97":166039.70999999999,"N_COORD97":2543229.0899999999,"ADDRESS":"建平五街２２巷３６弄３８號","OBJECTID":173399},"geometry":{"x":166039.70999999996,"y":2543229.0899999999}},{"attributes":{"ID":173401,"DIS_CODE":0,"TOWNNAME":"安平區","LI":"國平里","LIN":"1鄰","STREET":"建平七街","SECT":" ","MAREA":" ","LANE":"３７０巷","ALLEY":"１３１弄","HOUSE_NO":"３９號","E_COORD97":165617.34,"N_COORD97":2543368.3599999999,"ADDRESS":"建平七街３７０巷１３１弄３９號","OBJECTID":173400},"geometry":{"x":165617.34000000078,"y":2543368.3600000013}}]}