{"displayFieldName":"TOWNNAME","fieldAliases":{"ID":"ID","DIS_CODE":"DIS_CODE","TOWNNAME":"TOWNNAME","LI":"LI","LIN":"LIN","STREET":"STREET","SECT":"SECT","MAREA":"MAREA","LANE":"LANE","ALLEY":"ALLEY","HOUSE_NO":"HOUSE_NO","E_COORD97":"E_COORD97","N_COORD97":"N_COORD97","ADDRESS":"ADDRESS","OBJECTID":"OBJECTID"},"geometryType":"esriGeometryPoint","spatialReference":{"wkid":102443,"latestWkid":3826},"fields":[{"name":"ID","type":"esriFieldTypeDouble","alias":"ID"},{"name":"DIS_CODE","type":"esriFieldTypeInteger","alias":"DIS_CODE"},{"name":"TOWNNAME","type":"esriFieldTypeString","alias":"TOWNNAME","length":8},{"name":"LI","type":"esriFieldTypeString","alias":"LI","length":8},{"name":"LIN","type":"esriFieldTypeString","alias":"LIN","length":12},{"name":"STREET","type":"esriFieldTypeString","alias":"STREET","length":20},{"name":"SECT","type":"esriFieldTypeString","alias":"SECT","length":8},{"name":"MAREA","type":"esriFieldTypeString","alias":"MAREA","length":12},{"name":"LANE","type":"esriFieldTypeString","alias":"LANE","length":10},{"name":"ALLEY","type":"esriFieldTypeString","alias":"ALLEY","length":10},{"name":"HOUSE_NO","type":"esriFieldTypeString","alias":"HOUSE_NO","length":20},{"name":"E_COORD97","type":"esriFieldTypeDouble","alias":"E_COORD97"},{"name":"N_COORD97","type":"esriFieldTypeDouble","alias":"N_COORD97"},{"name":"ADDRESS","type":"esriFieldTypeString","alias":"ADDRESS","length":50},{"name":"OBJECTID","type":"esriFieldTypeOID","alias":"OBJECTID"}],"features":[{"attributes":{"ID":208202,"DIS_CODE":0,"TOWNNAME":"善化區","LI":"牛庄里","LIN":"2鄰","STREET":" ","SECT":" ","MAREA":"牛庄","LANE":" ","ALLEY":" ","HOUSE_NO":"２４號之７","E_COORD97":180327.79999999999,"N_COORD97":2559903.02,"ADDRESS":"牛庄２４號之７","OBJECTID":208201},"geometry":{"x":180327.79999999981,"y":2559903.0199999996}},{"attributes":{"ID":208203,"DIS_CODE":0,"TOWNNAME":"善化區","LI":"什乃里","LIN":"2鄰","STREET":" ","SECT":" ","MAREA":"什乃","LANE":" ","ALLEY":" ","HOUSE_NO":"２１之２２號","E_COORD97":176102.29999999999,"N_COORD97":2560668.52,"ADDRESS":"什乃２１之２２號","OBJECTID":208202},"geometry":{"x":176102.30000000168,"y":2560668.5200000014}},{"attributes":{"ID":208204,"DIS_CODE":0,"TOWNNAME":"善化區","LI":"小新里","LIN":"2鄰","STREET":" ","SECT":" ","MAREA":"小新營","LANE":" ","ALLEY":" ","HOUSE_NO":"１３之６７號","E_COORD97":179820.01000000001,"N_COORD97":2558583.02,"ADDRESS":"小新營１３之６７號","OBJECTID":208203},"geometry":{"x":179820.01000000164,"y":2558583.0200000014}},{"attributes":{"ID":208205,"DIS_CODE":0,"TOWNNAME":"善化區","LI":"小新里","LIN":"2鄰","STREET":" ","SECT":" ","MAREA":"小新營","LANE":" ","ALLEY":" ","HOUSE_NO":"１３號之１５","E_COORD97":179831.79999999999,"N_COORD97":2558529.52,"ADDRESS":"小新營１３號之１５","OBJECTID":208204},"geometry":{"x":179831.80000000075,"y":2558529.5199999996}},{"attributes":{"ID":208206,"DIS_CODE":0,"TOWNNAME":"善化區","LI":"小新里","LIN":"2鄰","STREET":" ","SECT":" ","MAREA":"小新營","LANE":" ","ALLEY":" ","HOUSE_NO":"１３號之１８","E_COORD97":179858.85000000001,"N_COORD97":2558546.27,"ADDRESS":"小新營１３號之１８","OBJECTID":208205},"geometry":{"x":179858.85000000056,"y":2558546.2700000033}},{"attributes":{"ID":208207,"DIS_CODE":0,"TOWNNAME":"善化區","LI":"牛庄里","LIN":"2鄰","STREET":" ","SECT":" ","MAREA":"牛庄","LANE":" ","ALLEY":" ","HOUSE_NO":"２６號之８","E_COORD97":180349.57000000001,"N_COORD97":2559758.27,"ADDRESS":"牛庄２６號之８","OBJECTID":208206},"geometry":{"x":180349.57000000123,"y":2559758.2700000014}},{"attributes":{"ID":208208,"DIS_CODE":0,"TOWNNAME":"善化區","LI":"什乃里","LIN":"2鄰","STREET":" ","SECT":" ","MAREA":"什乃","LANE":" ","ALLEY":" ","HOUSE_NO":"２１之４號","E_COORD97":176165.39999999999,"N_COORD97":2560660.27,"ADDRESS":"什乃２１之４號","OBJECTID":208207},"geometry":{"x":176165.4000000013,"y":2560660.2699999996}},{"attributes":{"ID":208209,"DIS_CODE":0,"TOWNNAME":"永康區","LI":"正強里","LIN":"32鄰","STREET":"四維街","SECT":" ","MAREA":" ","LANE":"２９巷","ALLEY":"２６弄","HOUSE_NO":"１２號","E_COORD97":173329.32000000001,"N_COORD97":2548016.2400000002,"ADDRESS":"四維街２９巷２６弄１２號","OBJECTID":208208},"geometry":{"x":173329.32000000216,"y":2548016.2400000002}},{"attributes":{"ID":208210,"DIS_CODE":0,"TOWNNAME":"北區","LI":"成德里","LIN":"9鄰","STREET":"西門路","SECT":"四段","MAREA":" ","LANE":" ","ALLEY":" ","HOUSE_NO":"１５１號三樓之２２","E_COORD97":168684.17000000001,"N_COORD97":2545594.02,"ADDRESS":"西門路四段１５１號三樓之２２","OBJECTID":208209},"geometry":{"x":168684.17000000086,"y":2545594.0200000014}},{"attributes":{"ID":208211,"DIS_CODE":0,"TOWNNAME":"永康區","LI":"正強里","LIN":"32鄰","STREET":"四維街","SECT":" ","MAREA":" ","LANE":"２９巷","ALLEY":"２６弄","HOUSE_NO":"２號之１","E_COORD97":173335.12,"N_COORD97":2548000.0499999998,"ADDRESS":"四維街２９巷２６弄２號之１","OBJECTID":208210},"geometry":{"x":173335.12000000011,"y":2548000.0500000007}},{"attributes":{"ID":208212,"DIS_CODE":0,"TOWNNAME":"將軍區","LI":"長沙里","LIN":"9鄰","STREET":" ","SECT":" ","MAREA":"長沙","LANE":" ","ALLEY":" ","HOUSE_NO":"７３號","E_COORD97":157231.07000000001,"N_COORD97":2568657.8599999999,"ADDRESS":"長沙７３號","OBJECTID":208211},"geometry":{"x":157231.0700000003,"y":2568657.8599999994}},{"attributes":{"ID":208213,"DIS_CODE":0,"TOWNNAME":"北區","LI":"成德里","LIN":"9鄰","STREET":"西門路","SECT":"四段","MAREA":" ","LANE":" ","ALLEY":" ","HOUSE_NO":"１５１號三樓之２３","E_COORD97":168684.17000000001,"N_COORD97":2545594.02,"ADDRESS":"西門路四段１５１號三樓之２３","OBJECTID":208212},"geometry":{"x":168684.17000000086,"y":2545594.0200000014}},{"attributes":{"ID":208214,"DIS_CODE":0,"TOWNNAME":"永康區","LI":"正強里","LIN":"32鄰","STREET":"四維街","SECT":" ","MAREA":" ","LANE":"２９巷","ALLEY":"２６弄","HOUSE_NO":"１０號","E_COORD97":173331.07000000001,"N_COORD97":2548010.7400000002,"ADDRESS":"四維街２９巷２６弄１０號","OBJECTID":208213},"geometry":{"x":173331.07000000123,"y":2548010.7400000021}},{"attributes":{"ID":208215,"DIS_CODE":0,"TOWNNAME":"安南區","LI":"\u25A0南里","LIN":"32鄰","STREET":"安昌街","SECT":" ","MAREA":" ","LANE":"１７４巷","ALLEY":"３９弄","HOUSE_NO":"３６號","E_COORD97":170205.76000000001,"N_COORD97":2552337.0600000001,"ADDRESS":"安昌街１７４巷３９弄３６號","OBJECTID":208214},"geometry":{"x":170205.75999999978,"y":2552337.0600000005}},{"attributes":{"ID":208216,"DIS_CODE":0,"TOWNNAME":"安南區","LI":"\u25A0南里","LIN":"32鄰","STREET":"安昌街","SECT":" ","MAREA":" ","LANE":"１７４巷","ALLEY":"３９弄","HOUSE_NO":"４０號","E_COORD97":170215.76999999999,"N_COORD97":2552337.6600000001,"ADDRESS":"安昌街１７４巷３９弄４０號","OBJECTID":208215},"geometry":{"x":170215.76999999955,"y":2552337.660000002}},{"attributes":{"ID":208217,"DIS_CODE":0,"TOWNNAME":"安南區","LI":"\u25A0南里","LIN":"32鄰","STREET":"安昌街","SECT":" ","MAREA":" ","LANE":"１７４巷","ALLEY":"３９弄","HOUSE_NO":"３號","E_COORD97":170117.38,"N_COORD97":2552357.8300000001,"ADDRESS":"安昌街１７４巷３９弄３號","OBJECTID":208216},"geometry":{"x":170117.37999999989,"y":2552357.8300000001}},{"attributes":{"ID":208218,"DIS_CODE":0,"TOWNNAME":"永康區","LI":"勝利里","LIN":"32鄰","STREET":"勝利街","SECT":" ","MAREA":" ","LANE":"３０巷","ALLEY":"７弄","HOUSE_NO":"８４號","E_COORD97":171489.69,"N_COORD97":2544543.2599999998,"ADDRESS":"勝利街３０巷７弄８４號","OBJECTID":208217},"geometry":{"x":171489.69000000134,"y":2544543.2599999998}},{"attributes":{"ID":208219,"DIS_CODE":0,"TOWNNAME":"安南區","LI":"安慶里","LIN":"32鄰","STREET":"頂安街","SECT":" ","MAREA":" ","LANE":"４７９巷","ALLEY":"９弄","HOUSE_NO":"３號","E_COORD97":168821.17000000001,"N_COORD97":2549292.9399999999,"ADDRESS":"頂安街４７９巷９弄３號","OBJECTID":208218},"geometry":{"x":168821.17000000086,"y":2549292.9400000032}},{"attributes":{"ID":208220,"DIS_CODE":0,"TOWNNAME":"安南區","LI":"安慶里","LIN":"32鄰","STREET":"頂安街","SECT":" ","MAREA":" ","LANE":"４７９巷","ALLEY":"９弄","HOUSE_NO":"４號","E_COORD97":168824.89000000001,"N_COORD97":2549264.4300000002,"ADDRESS":"頂安街４７９巷９弄４號","OBJECTID":208219},"geometry":{"x":168824.88999999966,"y":2549264.4299999997}},{"attributes":{"ID":208221,"DIS_CODE":0,"TOWNNAME":"善化區","LI":"什乃里","LIN":"2鄰","STREET":" ","SECT":" ","MAREA":"什乃","LANE":" ","ALLEY":" ","HOUSE_NO":"１８號之４","E_COORD97":176221.63,"N_COORD97":2560682.02,"ADDRESS":"什乃１８號之４","OBJECTID":208220},"geometry":{"x":176221.62999999989,"y":2560682.0200000014}},{"attributes":{"ID":208222,"DIS_CODE":0,"TOWNNAME":"善化區","LI":"小新里","LIN":"2鄰","STREET":" ","SECT":" ","MAREA":"小新營","LANE":" ","ALLEY":" ","HOUSE_NO":"１３之３３號","E_COORD97":179804.37,"N_COORD97":2558501.52,"ADDRESS":"小新營１３之３３號","OBJECTID":208221},"geometry":{"x":179804.37000000197,"y":2558501.5200000014}},{"attributes":{"ID":208223,"DIS_CODE":0,"TOWNNAME":"善化區","LI":"小新里","LIN":"2鄰","STREET":" ","SECT":" ","MAREA":"小新營","LANE":" ","ALLEY":" ","HOUSE_NO":"１３號之２２","E_COORD97":179842.23999999999,"N_COORD97":2558551.27,"ADDRESS":"小新營１３號之２２","OBJECTID":208222},"geometry":{"x":179842.24000000022,"y":2558551.2700000014}},{"attributes":{"ID":208224,"DIS_CODE":0,"TOWNNAME":"善化區","LI":"什乃里","LIN":"2鄰","STREET":" ","SECT":" ","MAREA":"什乃","LANE":" ","ALLEY":" ","HOUSE_NO":"１８之２４號","E_COORD97":176133.70000000001,"N_COORD97":2560711.27,"ADDRESS":"什乃１８之２４號","OBJECTID":208223},"geometry":{"x":176133.70000000205,"y":2560711.2699999996}},{"attributes":{"ID":208225,"DIS_CODE":0,"TOWNNAME":"善化區","LI":"小新里","LIN":"2鄰","STREET":" ","SECT":" ","MAREA":"小新營","LANE":" ","ALLEY":" ","HOUSE_NO":"１３號之１３","E_COORD97":179839.95999999999,"N_COORD97":2558527.27,"ADDRESS":"小新營１３號之１３","OBJECTID":208224},"geometry":{"x":179839.96000000089,"y":2558527.2700000014}},{"attributes":{"ID":208226,"DIS_CODE":0,"TOWNNAME":"安南區","LI":"安慶里","LIN":"32鄰","STREET":"頂安街","SECT":" ","MAREA":" ","LANE":"４７９巷","ALLEY":"９弄","HOUSE_NO":"５號","E_COORD97":168825.35000000001,"N_COORD97":2549293.5,"ADDRESS":"頂安街４７９巷９弄５號","OBJECTID":208225},"geometry":{"x":168825.34999999963,"y":2549293.5000000019}},{"attributes":{"ID":208227,"DIS_CODE":0,"TOWNNAME":"安南區","LI":"安慶里","LIN":"32鄰","STREET":"頂安街","SECT":" ","MAREA":" ","LANE":"４７９巷","ALLEY":"９弄","HOUSE_NO":"６號","E_COORD97":168829.73000000001,"N_COORD97":2549266.0299999998,"ADDRESS":"頂安街４７９巷９弄６號","OBJECTID":208226},"geometry":{"x":168829.73000000138,"y":2549266.0300000012}},{"attributes":{"ID":208228,"DIS_CODE":0,"TOWNNAME":"安南區","LI":"安慶里","LIN":"32鄰","STREET":"頂安街","SECT":" ","MAREA":" ","LANE":"４７９巷","ALLEY":"９弄","HOUSE_NO":"７號","E_COORD97":168829.87,"N_COORD97":2549293.7400000002,"ADDRESS":"頂安街４７９巷９弄７號","OBJECTID":208227},"geometry":{"x":168829.87000000104,"y":2549293.7400000002}},{"attributes":{"ID":208229,"DIS_CODE":0,"TOWNNAME":"安南區","LI":"安慶里","LIN":"32鄰","STREET":"頂安街","SECT":" ","MAREA":" ","LANE":"４７９巷","ALLEY":"９弄","HOUSE_NO":"８號","E_COORD97":168833.88,"N_COORD97":2549266.5800000001,"ADDRESS":"頂安街４７９巷９弄８號","OBJECTID":208228},"geometry":{"x":168833.87999999989,"y":2549266.5800000019}},{"attributes":{"ID":208230,"DIS_CODE":0,"TOWNNAME":"安南區","LI":"安慶里","LIN":"32鄰","STREET":"頂安街","SECT":" ","MAREA":" ","LANE":"４７９巷","ALLEY":"９弄","HOUSE_NO":"９號","E_COORD97":168834.64999999999,"N_COORD97":2549294.2999999998,"ADDRESS":"頂安街４７９巷９弄９號","OBJECTID":208229},"geometry":{"x":168834.65000000037,"y":2549294.3000000007}},{"attributes":{"ID":208231,"DIS_CODE":0,"TOWNNAME":"安南區","LI":"安慶里","LIN":"32鄰","STREET":"怡安路","SECT":"一段","MAREA":" ","LANE":"３１６巷","ALLEY":"７弄","HOUSE_NO":"１２號","E_COORD97":168890.29000000001,"N_COORD97":2549175.5899999999,"ADDRESS":"怡安路一段３１６巷７弄１２號","OBJECTID":208230},"geometry":{"x":168890.29000000097,"y":2549175.5899999999}},{"attributes":{"ID":208232,"DIS_CODE":0,"TOWNNAME":"安南區","LI":"安慶里","LIN":"32鄰","STREET":"怡安路","SECT":"一段","MAREA":" ","LANE":"３１６巷","ALLEY":"７弄","HOUSE_NO":"１號","E_COORD97":168884.14999999999,"N_COORD97":2549143.7000000002,"ADDRESS":"怡安路一段３１６巷７弄１號","OBJECTID":208231},"geometry":{"x":168884.1500000013,"y":2549143.6999999993}},{"attributes":{"ID":208233,"DIS_CODE":0,"TOWNNAME":"安南區","LI":"安慶里","LIN":"32鄰","STREET":"怡安路","SECT":"一段","MAREA":" ","LANE":"３１６巷","ALLEY":"７弄","HOUSE_NO":"２號","E_COORD97":168893.76000000001,"N_COORD97":2549144.9100000001,"ADDRESS":"怡安路一段３１６巷７弄２號","OBJECTID":208232},"geometry":{"x":168893.75999999978,"y":2549144.910000002}},{"attributes":{"ID":208234,"DIS_CODE":0,"TOWNNAME":"安南區","LI":"安慶里","LIN":"32鄰","STREET":"怡安路","SECT":"一段","MAREA":" ","LANE":"３１６巷","ALLEY":"７弄","HOUSE_NO":"３號","E_COORD97":168882.67000000001,"N_COORD97":2549152.0099999998,"ADDRESS":"怡安路一段３１６巷７弄３號","OBJECTID":208233},"geometry":{"x":168882.66999999993,"y":2549152.0099999998}},{"attributes":{"ID":208235,"DIS_CODE":0,"TOWNNAME":"安南區","LI":"安慶里","LIN":"32鄰","STREET":"怡安路","SECT":"一段","MAREA":" ","LANE":"３１６巷","ALLEY":"７弄","HOUSE_NO":"５號","E_COORD97":168882.14999999999,"N_COORD97":2549158.9300000002,"ADDRESS":"怡安路一段３１６巷７弄５號","OBJECTID":208234},"geometry":{"x":168882.14999999944,"y":2549158.9300000016}},{"attributes":{"ID":208236,"DIS_CODE":0,"TOWNNAME":"安南區","LI":"安慶里","LIN":"32鄰","STREET":"怡安路","SECT":"一段","MAREA":" ","LANE":"３１６巷","ALLEY":"７弄","HOUSE_NO":"６號","E_COORD97":168892.45999999999,"N_COORD97":2549153.1299999999,"ADDRESS":"怡安路一段３１６巷７弄６號","OBJECTID":208235},"geometry":{"x":168892.45999999996,"y":2549153.1300000008}},{"attributes":{"ID":208237,"DIS_CODE":0,"TOWNNAME":"安南區","LI":"安慶里","LIN":"32鄰","STREET":"怡安路","SECT":"一段","MAREA":" ","LANE":"３１６巷","ALLEY":"７弄","HOUSE_NO":"７號","E_COORD97":168881.01999999999,"N_COORD97":2549166.23,"ADDRESS":"怡安路一段３１６巷７弄７號","OBJECTID":208236},"geometry":{"x":168881.02000000048,"y":2549166.2300000042}},{"attributes":{"ID":208238,"DIS_CODE":0,"TOWNNAME":"安南區","LI":"安慶里","LIN":"32鄰","STREET":"怡安路","SECT":"一段","MAREA":" ","LANE":"３１６巷","ALLEY":"７弄","HOUSE_NO":"８號","E_COORD97":168891.67999999999,"N_COORD97":2549159.8900000001,"ADDRESS":"怡安路一段３１６巷７弄８號","OBJECTID":208237},"geometry":{"x":168891.68000000063,"y":2549159.8900000025}},{"attributes":{"ID":208239,"DIS_CODE":0,"TOWNNAME":"善化區","LI":"牛庄里","LIN":"2鄰","STREET":" ","SECT":" ","MAREA":"牛庄","LANE":" ","ALLEY":" ","HOUSE_NO":"２７號之４０","E_COORD97":180610.41,"N_COORD97":2559808.02,"ADDRESS":"牛庄２７號之４０","OBJECTID":208238},"geometry":{"x":180610.41000000015,"y":2559808.0199999996}},{"attributes":{"ID":208240,"DIS_CODE":0,"TOWNNAME":"安南區","LI":"安慶里","LIN":"32鄰","STREET":"怡安路","SECT":"一段","MAREA":" ","LANE":"３１６巷","ALLEY":"７弄","HOUSE_NO":"９號","E_COORD97":168880.23999999999,"N_COORD97":2549172.98,"ADDRESS":"怡安路一段３１６巷７弄９號","OBJECTID":208239},"geometry":{"x":168880.24000000115,"y":2549172.9800000023}},{"attributes":{"ID":208241,"DIS_CODE":0,"TOWNNAME":"歸仁區","LI":"崙頂里","LIN":"9鄰","STREET":"成功八街","SECT":" ","MAREA":" ","LANE":" ","ALLEY":" ","HOUSE_NO":"１號六樓之３","E_COORD97":178087.10006299999,"N_COORD97":2539826.14188,"ADDRESS":"成功八街１號六樓之３","OBJECTID":208240},"geometry":{"x":178087.10006299987,"y":2539826.1418769993}},{"attributes":{"ID":208242,"DIS_CODE":0,"TOWNNAME":"永康區","LI":"永康里","LIN":"40鄰","STREET":"永大二路","SECT":" ","MAREA":" ","LANE":" ","ALLEY":" ","HOUSE_NO":"４６號五樓之２","E_COORD97":174255.57000000001,"N_COORD97":2546582.0899999999,"ADDRESS":"永大二路４６號五樓之２","OBJECTID":208241},"geometry":{"x":174255.57000000123,"y":2546582.0899999999}},{"attributes":{"ID":208243,"DIS_CODE":0,"TOWNNAME":"仁德區","LI":"仁義里","LIN":"40鄰","STREET":"仁義五街","SECT":" ","MAREA":" ","LANE":" ","ALLEY":" ","HOUSE_NO":"３１號","E_COORD97":173566.51000000001,"N_COORD97":2540444.52,"ADDRESS":"仁義五街３１號","OBJECTID":208242},"geometry":{"x":173566.51000000164,"y":2540444.5200000014}},{"attributes":{"ID":208244,"DIS_CODE":0,"TOWNNAME":"將軍區","LI":"長沙里","LIN":"9鄰","STREET":" ","SECT":" ","MAREA":"長沙","LANE":" ","ALLEY":" ","HOUSE_NO":"７４號","E_COORD97":157241.54999999999,"N_COORD97":2568690.5099999998,"ADDRESS":"長沙７４號","OBJECTID":208243},"geometry":{"x":157241.55000000168,"y":2568690.5100000016}},{"attributes":{"ID":208245,"DIS_CODE":0,"TOWNNAME":"善化區","LI":"什乃里","LIN":"2鄰","STREET":" ","SECT":" ","MAREA":"什乃","LANE":" ","ALLEY":" ","HOUSE_NO":"２１號之３６","E_COORD97":176023.48000000001,"N_COORD97":2560787.52,"ADDRESS":"什乃２１號之３６","OBJECTID":208244},"geometry":{"x":176023.48000000045,"y":2560787.5199999996}},{"attributes":{"ID":208246,"DIS_CODE":0,"TOWNNAME":"永康區","LI":"正強里","LIN":"40鄰","STREET":"四維街","SECT":" ","MAREA":" ","LANE":" ","ALLEY":" ","HOUSE_NO":"１９３號","E_COORD97":173256.32999999999,"N_COORD97":2548461.8199999998,"ADDRESS":"四維街１９３號","OBJECTID":208245},"geometry":{"x":173256.33000000101,"y":2548461.8200000022}},{"attributes":{"ID":208247,"DIS_CODE":0,"TOWNNAME":"善化區","LI":"小新里","LIN":"2鄰","STREET":" ","SECT":" ","MAREA":"小新營","LANE":" ","ALLEY":" ","HOUSE_NO":"１３之６２號","E_COORD97":179814.07000000001,"N_COORD97":2558563.02,"ADDRESS":"小新營１３之６２號","OBJECTID":208246},"geometry":{"x":179814.07000000123,"y":2558563.0200000014}},{"attributes":{"ID":208248,"DIS_CODE":0,"TOWNNAME":"善化區","LI":"小新里","LIN":"2鄰","STREET":" ","SECT":" ","MAREA":"小新營","LANE":" ","ALLEY":" ","HOUSE_NO":"７號","E_COORD97":179922.75,"N_COORD97":2558384.75,"ADDRESS":"小新營７號","OBJECTID":208247},"geometry":{"x":179922.75000000093,"y":2558384.7500000019}},{"attributes":{"ID":208249,"DIS_CODE":0,"TOWNNAME":"善化區","LI":"什乃里","LIN":"2鄰","STREET":" ","SECT":" ","MAREA":"什乃","LANE":" ","ALLEY":" ","HOUSE_NO":"２１之２１號","E_COORD97":176102.48999999999,"N_COORD97":2560673.27,"ADDRESS":"什乃２１之２１號","OBJECTID":208248},"geometry":{"x":176102.49000000022,"y":2560673.2700000014}},{"attributes":{"ID":208250,"DIS_CODE":0,"TOWNNAME":"善化區","LI":"小新里","LIN":"2鄰","STREET":" ","SECT":" ","MAREA":"小新營","LANE":" ","ALLEY":" ","HOUSE_NO":"１３之３７號","E_COORD97":179808.95000000001,"N_COORD97":2558516.77,"ADDRESS":"小新營１３之３７號","OBJECTID":208249},"geometry":{"x":179808.95000000205,"y":2558516.7700000014}},{"attributes":{"ID":208251,"DIS_CODE":0,"TOWNNAME":"善化區","LI":"小新里","LIN":"2鄰","STREET":" ","SECT":" ","MAREA":"小新營","LANE":" ","ALLEY":" ","HOUSE_NO":"１３號之１７","E_COORD97":179863.01000000001,"N_COORD97":2558545.02,"ADDRESS":"小新營１３號之１７","OBJECTID":208250},"geometry":{"x":179863.01000000071,"y":2558545.0200000014}},{"attributes":{"ID":208252,"DIS_CODE":0,"TOWNNAME":"善化區","LI":"小新里","LIN":"2鄰","STREET":" ","SECT":" ","MAREA":"小新營","LANE":" ","ALLEY":" ","HOUSE_NO":"１３號之２５","E_COORD97":179870.64999999999,"N_COORD97":2558570.02,"ADDRESS":"小新營１３號之２５","OBJECTID":208251},"geometry":{"x":179870.6500000013,"y":2558570.0200000014}},{"attributes":{"ID":208253,"DIS_CODE":0,"TOWNNAME":"善化區","LI":"小新里","LIN":"2鄰","STREET":" ","SECT":" ","MAREA":"小新營","LANE":" ","ALLEY":" ","HOUSE_NO":"１３之３５號","E_COORD97":179805.82000000001,"N_COORD97":2558507.02,"ADDRESS":"小新營１３之３５號","OBJECTID":208252},"geometry":{"x":179805.8200000003,"y":2558507.0199999996}},{"attributes":{"ID":208254,"DIS_CODE":0,"TOWNNAME":"善化區","LI":"小新里","LIN":"2鄰","STREET":" ","SECT":" ","MAREA":"小新營","LANE":" ","ALLEY":" ","HOUSE_NO":"１３之４５號","E_COORD97":179823.26999999999,"N_COORD97":2558560.27,"ADDRESS":"小新營１３之４５號","OBJECTID":208253},"geometry":{"x":179823.27000000048,"y":2558560.2700000014}},{"attributes":{"ID":208255,"DIS_CODE":0,"TOWNNAME":"永康區","LI":"復華里","LIN":"40鄰","STREET":"復華六街","SECT":" ","MAREA":" ","LANE":" ","ALLEY":" ","HOUSE_NO":"８０號","E_COORD97":172669.91,"N_COORD97":2545856.8900000001,"ADDRESS":"復華六街８０號","OBJECTID":208254},"geometry":{"x":172669.91000000015,"y":2545856.8900000025}},{"attributes":{"ID":208256,"DIS_CODE":0,"TOWNNAME":"安南區","LI":"安慶里","LIN":"32鄰","STREET":"怡安路","SECT":"一段","MAREA":" ","LANE":"３４４巷","ALLEY":"２弄","HOUSE_NO":"１０號","E_COORD97":168822.39000000001,"N_COORD97":2549182.1299999999,"ADDRESS":"怡安路一段３４４巷２弄１０號","OBJECTID":208255},"geometry":{"x":168822.39000000153,"y":2549182.129999999}},{"attributes":{"ID":208257,"DIS_CODE":0,"TOWNNAME":"安南區","LI":"安慶里","LIN":"32鄰","STREET":"怡安路","SECT":"一段","MAREA":" ","LANE":"３４４巷","ALLEY":"２弄","HOUSE_NO":"１２號","E_COORD97":168827.19,"N_COORD97":2549179.8199999998,"ADDRESS":"怡安路一段３４４巷２弄１２號","OBJECTID":208256},"geometry":{"x":168827.19000000041,"y":2549179.8200000022}},{"attributes":{"ID":208258,"DIS_CODE":0,"TOWNNAME":"安南區","LI":"安慶里","LIN":"32鄰","STREET":"怡安路","SECT":"一段","MAREA":" ","LANE":"３４４巷","ALLEY":"２弄","HOUSE_NO":"２號","E_COORD97":168805.56,"N_COORD97":2549188.0499999998,"ADDRESS":"怡安路一段３４４巷２弄２號","OBJECTID":208257},"geometry":{"x":168805.55999999959,"y":2549188.0499999989}},{"attributes":{"ID":208259,"DIS_CODE":0,"TOWNNAME":"安南區","LI":"安慶里","LIN":"32鄰","STREET":"怡安路","SECT":"一段","MAREA":" ","LANE":"３４４巷","ALLEY":"２弄","HOUSE_NO":"４號","E_COORD97":168809.67999999999,"N_COORD97":2549185.0499999998,"ADDRESS":"怡安路一段３４４巷２弄４號","OBJECTID":208258},"geometry":{"x":168809.6799999997,"y":2549185.0500000045}},{"attributes":{"ID":208260,"DIS_CODE":0,"TOWNNAME":"善化區","LI":"牛庄里","LIN":"2鄰","STREET":" ","SECT":" ","MAREA":"牛庄","LANE":" ","ALLEY":" ","HOUSE_NO":"２６號之３","E_COORD97":180313.98000000001,"N_COORD97":2559748.27,"ADDRESS":"牛庄２６號之３","OBJECTID":208259},"geometry":{"x":180313.98000000045,"y":2559748.2699999996}},{"attributes":{"ID":208261,"DIS_CODE":0,"TOWNNAME":"安南區","LI":"安慶里","LIN":"32鄰","STREET":"怡安路","SECT":"一段","MAREA":" ","LANE":"３４４巷","ALLEY":"２弄","HOUSE_NO":"６號","E_COORD97":168814.06,"N_COORD97":2549184.3599999999,"ADDRESS":"怡安路一段３４４巷２弄６號","OBJECTID":208260},"geometry":{"x":168814.05999999959,"y":2549184.3599999994}},{"attributes":{"ID":208262,"DIS_CODE":0,"TOWNNAME":"安南區","LI":"安慶里","LIN":"32鄰","STREET":"怡安路","SECT":"一段","MAREA":" ","LANE":"３４４巷","ALLEY":"２弄","HOUSE_NO":"８號","E_COORD97":168818.95000000001,"N_COORD97":2549183.3300000001,"ADDRESS":"怡安路一段３４４巷２弄８號","OBJECTID":208261},"geometry":{"x":168818.94999999925,"y":2549183.3300000019}},{"attributes":{"ID":208263,"DIS_CODE":0,"TOWNNAME":"歸仁區","LI":"後市里","LIN":"32鄰","STREET":"民族北街","SECT":" ","MAREA":" ","LANE":"３１巷","ALLEY":"１０弄","HOUSE_NO":"９號","E_COORD97":177390.48000000001,"N_COORD97":2540965.75,"ADDRESS":"民族北街３１巷１０弄９號","OBJECTID":208262},"geometry":{"x":177390.48000000138,"y":2540965.7500000019}},{"attributes":{"ID":208264,"DIS_CODE":0,"TOWNNAME":"南區","LI":"金華里","LIN":"32鄰","STREET":"新孝路","SECT":" ","MAREA":" ","LANE":"１４８巷","ALLEY":"５７弄","HOUSE_NO":"１０號","E_COORD97":166535.01999999999,"N_COORD97":2542247.4100000001,"ADDRESS":"新孝路１４８巷５７弄１０號","OBJECTID":208263},"geometry":{"x":166535.02000000048,"y":2542247.4100000001}},{"attributes":{"ID":208265,"DIS_CODE":0,"TOWNNAME":"南區","LI":"金華里","LIN":"32鄰","STREET":"新孝路","SECT":" ","MAREA":" ","LANE":"１４８巷","ALLEY":"５７弄","HOUSE_NO":"１２號","E_COORD97":166530.51999999999,"N_COORD97":2542248.8500000001,"ADDRESS":"新孝路１４８巷５７弄１２號","OBJECTID":208264},"geometry":{"x":166530.51999999955,"y":2542248.8500000015}},{"attributes":{"ID":208266,"DIS_CODE":0,"TOWNNAME":"南區","LI":"金華里","LIN":"32鄰","STREET":"新孝路","SECT":" ","MAREA":" ","LANE":"１４８巷","ALLEY":"５７弄","HOUSE_NO":"１４號","E_COORD97":166526.35999999999,"N_COORD97":2542250.29,"ADDRESS":"新孝路１４８巷５７弄１４號","OBJECTID":208265},"geometry":{"x":166526.36000000127,"y":2542250.2899999991}},{"attributes":{"ID":208267,"DIS_CODE":0,"TOWNNAME":"南區","LI":"金華里","LIN":"32鄰","STREET":"新孝路","SECT":" ","MAREA":" ","LANE":"１４８巷","ALLEY":"５７弄","HOUSE_NO":"１６號","E_COORD97":166521.51999999999,"N_COORD97":2542250.7999999998,"ADDRESS":"新孝路１４８巷５７弄１６號","OBJECTID":208266},"geometry":{"x":166521.52000000048,"y":2542250.8000000026}},{"attributes":{"ID":208268,"DIS_CODE":0,"TOWNNAME":"南區","LI":"金華里","LIN":"32鄰","STREET":"新孝路","SECT":" ","MAREA":" ","LANE":"１４８巷","ALLEY":"５７弄","HOUSE_NO":"２號","E_COORD97":166550.31,"N_COORD97":2542242.4100000001,"ADDRESS":"新孝路１４８巷５７弄２號","OBJECTID":208267},"geometry":{"x":166550.31000000052,"y":2542242.410000002}},{"attributes":{"ID":208269,"DIS_CODE":0,"TOWNNAME":"南區","LI":"金華里","LIN":"32鄰","STREET":"新孝路","SECT":" ","MAREA":" ","LANE":"１４８巷","ALLEY":"５７弄","HOUSE_NO":"４號","E_COORD97":166546.91,"N_COORD97":2542243.0800000001,"ADDRESS":"新孝路１４８巷５７弄４號","OBJECTID":208268},"geometry":{"x":166546.91000000015,"y":2542243.0800000001}},{"attributes":{"ID":208270,"DIS_CODE":0,"TOWNNAME":"南區","LI":"金華里","LIN":"32鄰","STREET":"新孝路","SECT":" ","MAREA":" ","LANE":"１４８巷","ALLEY":"５７弄","HOUSE_NO":"６號","E_COORD97":166542.48999999999,"N_COORD97":2542243.1699999999,"ADDRESS":"新孝路１４８巷５７弄６號","OBJECTID":208269},"geometry":{"x":166542.49000000115,"y":2542243.1700000037}},{"attributes":{"ID":208271,"DIS_CODE":0,"TOWNNAME":"南區","LI":"金華里","LIN":"32鄰","STREET":"新孝路","SECT":" ","MAREA":" ","LANE":"１４８巷","ALLEY":"５７弄","HOUSE_NO":"８號","E_COORD97":166538.59,"N_COORD97":2542245.8799999999,"ADDRESS":"新孝路１４８巷５７弄８號","OBJECTID":208270},"geometry":{"x":166538.58999999985,"y":2542245.879999999}},{"attributes":{"ID":208272,"DIS_CODE":0,"TOWNNAME":"南區","LI":"金華里","LIN":"32鄰","STREET":"新孝路","SECT":" ","MAREA":" ","LANE":"１４８巷","ALLEY":"７７弄","HOUSE_NO":"１０號","E_COORD97":166549.20000000001,"N_COORD97":2542290.7000000002,"ADDRESS":"新孝路１４８巷７７弄１０號","OBJECTID":208271},"geometry":{"x":166549.20000000205,"y":2542290.7000000011}},{"attributes":{"ID":208273,"DIS_CODE":0,"TOWNNAME":"南區","LI":"金華里","LIN":"32鄰","STREET":"新孝路","SECT":" ","MAREA":" ","LANE":"１４８巷","ALLEY":"７７弄","HOUSE_NO":"１１號","E_COORD97":166536.92999999999,"N_COORD97":2542268.73,"ADDRESS":"新孝路１４８巷７７弄１１號","OBJECTID":208272},"geometry":{"x":166536.93000000156,"y":2542268.7300000004}},{"attributes":{"ID":208274,"DIS_CODE":0,"TOWNNAME":"南區","LI":"金華里","LIN":"32鄰","STREET":"新孝路","SECT":" ","MAREA":" ","LANE":"１４８巷","ALLEY":"７７弄","HOUSE_NO":"１２號","E_COORD97":166544.62,"N_COORD97":2542291.04,"ADDRESS":"新孝路１４８巷７７弄１２號","OBJECTID":208273},"geometry":{"x":166544.62000000197,"y":2542291.040000001}},{"attributes":{"ID":208275,"DIS_CODE":0,"TOWNNAME":"南區","LI":"金華里","LIN":"32鄰","STREET":"新孝路","SECT":" ","MAREA":" ","LANE":"１４８巷","ALLEY":"７７弄","HOUSE_NO":"１３號","E_COORD97":166532.82000000001,"N_COORD97":2542268.5299999998,"ADDRESS":"新孝路１４８巷７７弄１３號","OBJECTID":208274},"geometry":{"x":166532.8200000003,"y":2542268.5300000012}},{"attributes":{"ID":208276,"DIS_CODE":0,"TOWNNAME":"將軍區","LI":"長沙里","LIN":"9鄰","STREET":" ","SECT":" ","MAREA":"長沙","LANE":" ","ALLEY":" ","HOUSE_NO":"７６號","E_COORD97":157268.26999999999,"N_COORD97":2568710.1800000002,"ADDRESS":"長沙７６號","OBJECTID":208275},"geometry":{"x":157268.26999999955,"y":2568710.1799999997}},{"attributes":{"ID":208277,"DIS_CODE":0,"TOWNNAME":"南區","LI":"金華里","LIN":"32鄰","STREET":"新孝路","SECT":" ","MAREA":" ","LANE":"１４８巷","ALLEY":"７７弄","HOUSE_NO":"１４號","E_COORD97":166540.54000000001,"N_COORD97":2542291.8900000001,"ADDRESS":"新孝路１４８巷７７弄１４號","OBJECTID":208276},"geometry":{"x":166540.54000000097,"y":2542291.8900000006}},{"attributes":{"ID":208278,"DIS_CODE":0,"TOWNNAME":"南區","LI":"金華里","LIN":"32鄰","STREET":"新孝路","SECT":" ","MAREA":" ","LANE":"１４８巷","ALLEY":"７７弄","HOUSE_NO":"１５號","E_COORD97":166528.48999999999,"N_COORD97":2542270.5600000001,"ADDRESS":"新孝路１４８巷７７弄１５號","OBJECTID":208277},"geometry":{"x":166528.48999999929,"y":2542270.5600000005}},{"attributes":{"ID":208279,"DIS_CODE":0,"TOWNNAME":"南區","LI":"金華里","LIN":"32鄰","STREET":"新孝路","SECT":" ","MAREA":" ","LANE":"１４８巷","ALLEY":"７７弄","HOUSE_NO":"１６號","E_COORD97":166536.54999999999,"N_COORD97":2542293.5,"ADDRESS":"新孝路１４８巷７７弄１６號","OBJECTID":208278},"geometry":{"x":166536.55000000075,"y":2542293.5}},{"attributes":{"ID":208280,"DIS_CODE":0,"TOWNNAME":"南區","LI":"金華里","LIN":"32鄰","STREET":"新孝路","SECT":" ","MAREA":" ","LANE":"１４８巷","ALLEY":"７７弄","HOUSE_NO":"１號","E_COORD97":166557.69,"N_COORD97":2542261.4900000002,"ADDRESS":"新孝路１４８巷７７弄１號","OBJECTID":208279},"geometry":{"x":166557.69000000041,"y":2542261.4900000039}},{"attributes":{"ID":208281,"DIS_CODE":0,"TOWNNAME":"南區","LI":"金華里","LIN":"32鄰","STREET":"新孝路","SECT":" ","MAREA":" ","LANE":"１４８巷","ALLEY":"７７弄","HOUSE_NO":"２號","E_COORD97":166565.82000000001,"N_COORD97":2542284.5299999998,"ADDRESS":"新孝路１４８巷７７弄２號","OBJECTID":208280},"geometry":{"x":166565.82000000123,"y":2542284.5300000012}},{"attributes":{"ID":208282,"DIS_CODE":0,"TOWNNAME":"南區","LI":"金華里","LIN":"32鄰","STREET":"新孝路","SECT":" ","MAREA":" ","LANE":"１４８巷","ALLEY":"７７弄","HOUSE_NO":"３號","E_COORD97":166553.70000000001,"N_COORD97":2542262.7599999998,"ADDRESS":"新孝路１４８巷７７弄３號","OBJECTID":208281},"geometry":{"x":166553.70000000019,"y":2542262.7600000035}},{"attributes":{"ID":208283,"DIS_CODE":0,"TOWNNAME":"仁德區","LI":"仁義里","LIN":"40鄰","STREET":"仁義五街","SECT":" ","MAREA":" ","LANE":" ","ALLEY":" ","HOUSE_NO":"２３號","E_COORD97":173546.47,"N_COORD97":2540443.52,"ADDRESS":"仁義五街２３號","OBJECTID":208282},"geometry":{"x":173546.47000000067,"y":2540443.5200000033}},{"attributes":{"ID":208284,"DIS_CODE":0,"TOWNNAME":"善化區","LI":"小新里","LIN":"2鄰","STREET":" ","SECT":" ","MAREA":"小新營","LANE":" ","ALLEY":" ","HOUSE_NO":"１３之３１號","E_COORD97":179845.76000000001,"N_COORD97":2558577.52,"ADDRESS":"小新營１３之３１號","OBJECTID":208283},"geometry":{"x":179845.76000000071,"y":2558577.5199999996}},{"attributes":{"ID":208285,"DIS_CODE":0,"TOWNNAME":"善化區","LI":"什乃里","LIN":"2鄰","STREET":" ","SECT":" ","MAREA":"什乃","LANE":" ","ALLEY":" ","HOUSE_NO":"２１之２８號","E_COORD97":176103.20999999999,"N_COORD97":2560639.77,"ADDRESS":"什乃２１之２８號","OBJECTID":208284},"geometry":{"x":176103.21000000089,"y":2560639.7700000014}},{"attributes":{"ID":208286,"DIS_CODE":0,"TOWNNAME":"善化區","LI":"小新里","LIN":"2鄰","STREET":" ","SECT":" ","MAREA":"小新營","LANE":" ","ALLEY":" ","HOUSE_NO":"１０號之２０","E_COORD97":179845.03,"N_COORD97":2558447.77,"ADDRESS":"小新營１０號之２０","OBJECTID":208285},"geometry":{"x":179845.03000000026,"y":2558447.7699999977}},{"attributes":{"ID":208287,"DIS_CODE":0,"TOWNNAME":"善化區","LI":"牛庄里","LIN":"2鄰","STREET":" ","SECT":" ","MAREA":"牛庄","LANE":" ","ALLEY":" ","HOUSE_NO":"２３號之１","E_COORD97":180290.89999999999,"N_COORD97":2559833.77,"ADDRESS":"牛庄２３號之１","OBJECTID":208286},"geometry":{"x":180290.90000000224,"y":2559833.7699999996}},{"attributes":{"ID":208288,"DIS_CODE":0,"TOWNNAME":"南區","LI":"金華里","LIN":"32鄰","STREET":"新孝路","SECT":" ","MAREA":" ","LANE":"１４８巷","ALLEY":"７７弄","HOUSE_NO":"４號","E_COORD97":166561.10000000001,"N_COORD97":2542285.3700000001,"ADDRESS":"新孝路１４８巷７７弄４號","OBJECTID":208287},"geometry":{"x":166561.10000000149,"y":2542285.370000001}},{"attributes":{"ID":208289,"DIS_CODE":0,"TOWNNAME":"安南區","LI":"海東里","LIN":"9鄰","STREET":"海佃路","SECT":"二段","MAREA":" ","LANE":" ","ALLEY":" ","HOUSE_NO":"５０１號","E_COORD97":166678.10999999999,"N_COORD97":2549197.96,"ADDRESS":"海佃路二段５０１號","OBJECTID":208288},"geometry":{"x":166678.11000000034,"y":2549197.9600000009}},{"attributes":{"ID":208290,"DIS_CODE":0,"TOWNNAME":"南區","LI":"金華里","LIN":"32鄰","STREET":"新孝路","SECT":" ","MAREA":" ","LANE":"１４８巷","ALLEY":"７７弄","HOUSE_NO":"５號","E_COORD97":166549.12,"N_COORD97":2542263.9500000002,"ADDRESS":"新孝路１４８巷７７弄５號","OBJECTID":208289},"geometry":{"x":166549.12000000011,"y":2542263.9499999974}},{"attributes":{"ID":208291,"DIS_CODE":0,"TOWNNAME":"善化區","LI":"小新里","LIN":"2鄰","STREET":" ","SECT":" ","MAREA":"小新營","LANE":" ","ALLEY":" ","HOUSE_NO":"１３號之１０","E_COORD97":179852.35000000001,"N_COORD97":2558523.52,"ADDRESS":"小新營１３號之１０","OBJECTID":208290},"geometry":{"x":179852.34999999963,"y":2558523.5199999996}},{"attributes":{"ID":208292,"DIS_CODE":0,"TOWNNAME":"南區","LI":"金華里","LIN":"32鄰","STREET":"新孝路","SECT":" ","MAREA":" ","LANE":"１４８巷","ALLEY":"７７弄","HOUSE_NO":"６號","E_COORD97":166557.56,"N_COORD97":2542287.0600000001,"ADDRESS":"新孝路１４８巷７７弄６號","OBJECTID":208291},"geometry":{"x":166557.55999999959,"y":2542287.0600000005}},{"attributes":{"ID":208293,"DIS_CODE":0,"TOWNNAME":"南區","LI":"金華里","LIN":"32鄰","STREET":"新孝路","SECT":" ","MAREA":" ","LANE":"１４８巷","ALLEY":"７７弄","HOUSE_NO":"７號","E_COORD97":166545.29999999999,"N_COORD97":2542265.5600000001,"ADDRESS":"新孝路１４８巷７７弄７號","OBJECTID":208292},"geometry":{"x":166545.30000000075,"y":2542265.5600000024}},{"attributes":{"ID":208294,"DIS_CODE":0,"TOWNNAME":"南區","LI":"金華里","LIN":"32鄰","STREET":"新孝路","SECT":" ","MAREA":" ","LANE":"１４８巷","ALLEY":"７７弄","HOUSE_NO":"８號","E_COORD97":166553.10999999999,"N_COORD97":2542288.8300000001,"ADDRESS":"新孝路１４８巷７７弄８號","OBJECTID":208293},"geometry":{"x":166553.11000000034,"y":2542288.8300000001}},{"attributes":{"ID":208295,"DIS_CODE":0,"TOWNNAME":"南區","LI":"金華里","LIN":"32鄰","STREET":"新孝路","SECT":" ","MAREA":" ","LANE":"１４８巷","ALLEY":"７７弄","HOUSE_NO":"９號","E_COORD97":166541.64999999999,"N_COORD97":2542266.75,"ADDRESS":"新孝路１４８巷７７弄９號","OBJECTID":208294},"geometry":{"x":166541.6500000013,"y":2542266.7500000019}},{"attributes":{"ID":208296,"DIS_CODE":0,"TOWNNAME":"南區","LI":"金華里","LIN":"32鄰","STREET":"新孝路","SECT":" ","MAREA":" ","LANE":"１４８巷","ALLEY":"９５弄","HOUSE_NO":"１０號","E_COORD97":166562.73000000001,"N_COORD97":2542330.54,"ADDRESS":"新孝路１４８巷９５弄１０號","OBJECTID":208295},"geometry":{"x":166562.73000000231,"y":2542330.5399999991}},{"attributes":{"ID":208297,"DIS_CODE":0,"TOWNNAME":"善化區","LI":"牛庄里","LIN":"2鄰","STREET":" ","SECT":" ","MAREA":"牛庄","LANE":" ","ALLEY":" ","HOUSE_NO":"２７號之６","E_COORD97":180414.26999999999,"N_COORD97":2559797.77,"ADDRESS":"牛庄２７號之６","OBJECTID":208296},"geometry":{"x":180414.26999999955,"y":2559797.7700000014}},{"attributes":{"ID":208298,"DIS_CODE":0,"TOWNNAME":"善化區","LI":"牛庄里","LIN":"2鄰","STREET":" ","SECT":" ","MAREA":"牛庄","LANE":" ","ALLEY":" ","HOUSE_NO":"２５號","E_COORD97":180332.37,"N_COORD97":2559846,"ADDRESS":"牛庄２５號","OBJECTID":208297},"geometry":{"x":180332.37000000011,"y":2559846}},{"attributes":{"ID":208299,"DIS_CODE":0,"TOWNNAME":"南區","LI":"金華里","LIN":"32鄰","STREET":"新孝路","SECT":" ","MAREA":" ","LANE":"１４８巷","ALLEY":"９５弄","HOUSE_NO":"１１號","E_COORD97":166550.97,"N_COORD97":2542307.4100000001,"ADDRESS":"新孝路１４８巷９５弄１１號","OBJECTID":208298},"geometry":{"x":166550.97000000067,"y":2542307.410000002}},{"attributes":{"ID":208300,"DIS_CODE":0,"TOWNNAME":"南區","LI":"金華里","LIN":"32鄰","STREET":"新孝路","SECT":" ","MAREA":" ","LANE":"１４８巷","ALLEY":"９５弄","HOUSE_NO":"１２號","E_COORD97":166558.39000000001,"N_COORD97":2542331.1299999999,"ADDRESS":"新孝路１４８巷９５弄１２號","OBJECTID":208299},"geometry":{"x":166558.38999999966,"y":2542331.1300000008}},{"attributes":{"ID":208301,"DIS_CODE":0,"TOWNNAME":"南區","LI":"金華里","LIN":"32鄰","STREET":"新孝路","SECT":" ","MAREA":" ","LANE":"１４８巷","ALLEY":"９５弄","HOUSE_NO":"１３號","E_COORD97":166546.37,"N_COORD97":2542309.5699999998,"ADDRESS":"新孝路１４８巷９５弄１３號","OBJECTID":208300},"geometry":{"x":166546.37000000197,"y":2542309.5700000022}},{"attributes":{"ID":208302,"DIS_CODE":0,"TOWNNAME":"南區","LI":"金華里","LIN":"32鄰","STREET":"新孝路","SECT":" ","MAREA":" ","LANE":"１４８巷","ALLEY":"９５弄","HOUSE_NO":"１４號","E_COORD97":166553.95999999999,"N_COORD97":2542333.4900000002,"ADDRESS":"新孝路１４８巷９５弄１４號","OBJECTID":208301},"geometry":{"x":166553.96000000183,"y":2542333.4900000021}},{"attributes":{"ID":208303,"DIS_CODE":0,"TOWNNAME":"南區","LI":"金華里","LIN":"32鄰","STREET":"新孝路","SECT":" ","MAREA":" ","LANE":"１４８巷","ALLEY":"９５弄","HOUSE_NO":"１５號","E_COORD97":166542.70999999999,"N_COORD97":2542310.6600000001,"ADDRESS":"新孝路１４８巷９５弄１５號","OBJECTID":208302},"geometry":{"x":166542.71000000089,"y":2542310.6600000001}},{"attributes":{"ID":208304,"DIS_CODE":0,"TOWNNAME":"南區","LI":"金華里","LIN":"32鄰","STREET":"新孝路","SECT":" ","MAREA":" ","LANE":"１４８巷","ALLEY":"９５弄","HOUSE_NO":"１６號","E_COORD97":166551.20000000001,"N_COORD97":2542337.5299999998,"ADDRESS":"新孝路１４８巷９５弄１６號","OBJECTID":208303},"geometry":{"x":166551.20000000112,"y":2542337.5299999993}},{"attributes":{"ID":208305,"DIS_CODE":0,"TOWNNAME":"南區","LI":"金華里","LIN":"32鄰","STREET":"新孝路","SECT":" ","MAREA":" ","LANE":"１４８巷","ALLEY":"９５弄","HOUSE_NO":"１號","E_COORD97":166571.70000000001,"N_COORD97":2542301.4900000002,"ADDRESS":"新孝路１４８巷９５弄１號","OBJECTID":208304},"geometry":{"x":166571.70000000112,"y":2542301.4900000002}},{"attributes":{"ID":208306,"DIS_CODE":0,"TOWNNAME":"南區","LI":"金華里","LIN":"32鄰","STREET":"新孝路","SECT":" ","MAREA":" ","LANE":"１４８巷","ALLEY":"９５弄","HOUSE_NO":"２號","E_COORD97":166579.48999999999,"N_COORD97":2542324.8300000001,"ADDRESS":"新孝路１４８巷９５弄２號","OBJECTID":208305},"geometry":{"x":166579.49000000209,"y":2542324.8300000019}},{"attributes":{"ID":208307,"DIS_CODE":0,"TOWNNAME":"南區","LI":"金華里","LIN":"32鄰","STREET":"新孝路","SECT":" ","MAREA":" ","LANE":"１４８巷","ALLEY":"９５弄","HOUSE_NO":"３號","E_COORD97":166567.56,"N_COORD97":2542302.8700000001,"ADDRESS":"新孝路１４８巷９５弄３號","OBJECTID":208306},"geometry":{"x":166567.55999999959,"y":2542302.870000001}},{"attributes":{"ID":208308,"DIS_CODE":0,"TOWNNAME":"東區","LI":"大智里","LIN":"24鄰","STREET":"文東街","SECT":" ","MAREA":" ","LANE":" ","ALLEY":" ","HOUSE_NO":"１１０號","E_COORD97":171472.66,"N_COORD97":2540180.4700000002,"ADDRESS":"文東街１１０號","OBJECTID":208307},"geometry":{"x":171472.66000000108,"y":2540180.4700000044}},{"attributes":{"ID":208309,"DIS_CODE":0,"TOWNNAME":"南區","LI":"金華里","LIN":"32鄰","STREET":"新孝路","SECT":" ","MAREA":" ","LANE":"１４８巷","ALLEY":"９５弄","HOUSE_NO":"４號","E_COORD97":166574.95999999999,"N_COORD97":2542326.6000000001,"ADDRESS":"新孝路１４８巷９５弄４號","OBJECTID":208308},"geometry":{"x":166574.96000000089,"y":2542326.5999999996}},{"attributes":{"ID":208310,"DIS_CODE":0,"TOWNNAME":"南區","LI":"金華里","LIN":"32鄰","STREET":"新孝路","SECT":" ","MAREA":" ","LANE":"１４８巷","ALLEY":"９５弄","HOUSE_NO":"５號","E_COORD97":166562.73000000001,"N_COORD97":2542304.5499999998,"ADDRESS":"新孝路１４８巷９５弄５號","OBJECTID":208309},"geometry":{"x":166562.73000000231,"y":2542304.5500000007}},{"attributes":{"ID":208311,"DIS_CODE":0,"TOWNNAME":"南區","LI":"金華里","LIN":"32鄰","STREET":"新孝路","SECT":" ","MAREA":" ","LANE":"１４８巷","ALLEY":"９５弄","HOUSE_NO":"６號","E_COORD97":166571.51000000001,"N_COORD97":2542328.1800000002,"ADDRESS":"新孝路１４８巷９５弄６號","OBJECTID":208310},"geometry":{"x":166571.50999999978,"y":2542328.1800000016}},{"attributes":{"ID":208312,"DIS_CODE":0,"TOWNNAME":"南區","LI":"金華里","LIN":"32鄰","STREET":"新孝路","SECT":" ","MAREA":" ","LANE":"１４８巷","ALLEY":"９５弄","HOUSE_NO":"７號","E_COORD97":166559.38,"N_COORD97":2542305.73,"ADDRESS":"新孝路１４８巷９５弄７號","OBJECTID":208311},"geometry":{"x":166559.37999999896,"y":2542305.7300000023}},{"attributes":{"ID":208313,"DIS_CODE":0,"TOWNNAME":"南區","LI":"金華里","LIN":"32鄰","STREET":"新孝路","SECT":" ","MAREA":" ","LANE":"１４８巷","ALLEY":"９５弄","HOUSE_NO":"８號","E_COORD97":166567.26999999999,"N_COORD97":2542329.6499999999,"ADDRESS":"新孝路１４８巷９５弄８號","OBJECTID":208312},"geometry":{"x":166567.27000000048,"y":2542329.6500000022}},{"attributes":{"ID":208314,"DIS_CODE":0,"TOWNNAME":"善化區","LI":"什乃里","LIN":"2鄰","STREET":" ","SECT":" ","MAREA":"什乃","LANE":" ","ALLEY":" ","HOUSE_NO":"２１之３號","E_COORD97":176165.56,"N_COORD97":2560664.77,"ADDRESS":"什乃２１之３號","OBJECTID":208313},"geometry":{"x":176165.55999999959,"y":2560664.7699999996}},{"attributes":{"ID":208315,"DIS_CODE":0,"TOWNNAME":"善化區","LI":"小新里","LIN":"2鄰","STREET":" ","SECT":" ","MAREA":"小新營","LANE":" ","ALLEY":" ","HOUSE_NO":"１０號之１６","E_COORD97":179836.57000000001,"N_COORD97":2558474.77,"ADDRESS":"小新營１０號之１６","OBJECTID":208314},"geometry":{"x":179836.5700000003,"y":2558474.7699999996}},{"attributes":{"ID":208316,"DIS_CODE":0,"TOWNNAME":"善化區","LI":"什乃里","LIN":"2鄰","STREET":" ","SECT":" ","MAREA":"什乃","LANE":" ","ALLEY":" ","HOUSE_NO":"２１之１２號","E_COORD97":176144.07999999999,"N_COORD97":2560651.77,"ADDRESS":"什乃２１之１２號","OBJECTID":208315},"geometry":{"x":176144.08000000007,"y":2560651.7700000033}},{"attributes":{"ID":208317,"DIS_CODE":0,"TOWNNAME":"善化區","LI":"小新里","LIN":"2鄰","STREET":" ","SECT":" ","MAREA":"小新營","LANE":" ","ALLEY":" ","HOUSE_NO":"１３之６８號","E_COORD97":179821.45999999999,"N_COORD97":2558587.77,"ADDRESS":"小新營１３之６８號","OBJECTID":208316},"geometry":{"x":179821.45999999996,"y":2558587.7700000014}},{"attributes":{"ID":208318,"DIS_CODE":0,"TOWNNAME":"善化區","LI":"牛庄里","LIN":"2鄰","STREET":" ","SECT":" ","MAREA":"牛庄","LANE":" ","ALLEY":" ","HOUSE_NO":"２６號之１０","E_COORD97":180401.66,"N_COORD97":2559714.7599999998,"ADDRESS":"牛庄２６號之１０","OBJECTID":208317},"geometry":{"x":180401.66000000015,"y":2559714.7599999998}},{"attributes":{"ID":208319,"DIS_CODE":0,"TOWNNAME":"善化區","LI":"什乃里","LIN":"2鄰","STREET":" ","SECT":" ","MAREA":"什乃","LANE":" ","ALLEY":" ","HOUSE_NO":"１８之１１號","E_COORD97":176227.85000000001,"N_COORD97":2560738.77,"ADDRESS":"什乃１８之１１號","OBJECTID":208318},"geometry":{"x":176227.85000000056,"y":2560738.7699999996}},{"attributes":{"ID":208320,"DIS_CODE":0,"TOWNNAME":"安南區","LI":"原佃里","LIN":"9鄰","STREET":"本原街","SECT":"一段","MAREA":" ","LANE":" ","ALLEY":" ","HOUSE_NO":"３５５號","E_COORD97":167628.59,"N_COORD97":2550456.5899999999,"ADDRESS":"本原街一段３５５號","OBJECTID":208319},"geometry":{"x":167628.58999999985,"y":2550456.5900000017}},{"attributes":{"ID":208321,"DIS_CODE":0,"TOWNNAME":"安南區","LI":"原佃里","LIN":"9鄰","STREET":"本原街","SECT":"一段","MAREA":" ","LANE":" ","ALLEY":" ","HOUSE_NO":"３５７號","E_COORD97":167623.76000000001,"N_COORD97":2550456.2000000002,"ADDRESS":"本原街一段３５７號","OBJECTID":208320},"geometry":{"x":167623.76000000071,"y":2550456.1999999993}},{"attributes":{"ID":208322,"DIS_CODE":0,"TOWNNAME":"安南區","LI":"原佃里","LIN":"9鄰","STREET":"本原街","SECT":"一段","MAREA":" ","LANE":" ","ALLEY":" ","HOUSE_NO":"３５９號","E_COORD97":167619.32000000001,"N_COORD97":2550456.2000000002,"ADDRESS":"本原街一段３５９號","OBJECTID":208321},"geometry":{"x":167619.3200000003,"y":2550456.1999999993}},{"attributes":{"ID":208323,"DIS_CODE":0,"TOWNNAME":"安南區","LI":"原佃里","LIN":"9鄰","STREET":"本原街","SECT":"一段","MAREA":" ","LANE":" ","ALLEY":" ","HOUSE_NO":"４１１號","E_COORD97":167524.64999999999,"N_COORD97":2550463.9900000002,"ADDRESS":"本原街一段４１１號","OBJECTID":208322},"geometry":{"x":167524.6500000013,"y":2550463.9900000021}},{"attributes":{"ID":208324,"DIS_CODE":0,"TOWNNAME":"安南區","LI":"溪頂里","LIN":"27鄰","STREET":"郡安路","SECT":"四段","MAREA":" ","LANE":" ","ALLEY":" ","HOUSE_NO":"２７３號","E_COORD97":168604.98999999999,"N_COORD97":2547637.77,"ADDRESS":"郡安路四段２７３號","OBJECTID":208323},"geometry":{"x":168604.99000000022,"y":2547637.7700000014}},{"attributes":{"ID":208325,"DIS_CODE":0,"TOWNNAME":"南區","LI":"金華里","LIN":"32鄰","STREET":"新孝路","SECT":" ","MAREA":" ","LANE":"１４８巷","ALLEY":"９５弄","HOUSE_NO":"９號","E_COORD97":166554.75,"N_COORD97":2542306.2200000002,"ADDRESS":"新孝路１４８巷９５弄９號","OBJECTID":208324},"geometry":{"x":166554.75,"y":2542306.2200000025}},{"attributes":{"ID":208326,"DIS_CODE":0,"TOWNNAME":"安平區","LI":"國平里","LIN":"32鄰","STREET":"育平二街","SECT":" ","MAREA":" ","LANE":"１７巷","ALLEY":"１弄","HOUSE_NO":"１２號","E_COORD97":164886.98999999999,"N_COORD97":2542879.6899999999,"ADDRESS":"育平二街１７巷１弄１２號","OBJECTID":208325},"geometry":{"x":164886.99000000022,"y":2542879.6899999976}},{"attributes":{"ID":208327,"DIS_CODE":0,"TOWNNAME":"安平區","LI":"國平里","LIN":"32鄰","STREET":"育平二街","SECT":" ","MAREA":" ","LANE":"１７巷","ALLEY":"１弄","HOUSE_NO":"１０號","E_COORD97":164882.38,"N_COORD97":2542880.4900000002,"ADDRESS":"育平二街１７巷１弄１０號","OBJECTID":208326},"geometry":{"x":164882.37999999989,"y":2542880.4900000002}},{"attributes":{"ID":208328,"DIS_CODE":0,"TOWNNAME":"安南區","LI":"溪頂里","LIN":"27鄰","STREET":"郡安路","SECT":"四段","MAREA":" ","LANE":" ","ALLEY":" ","HOUSE_NO":"２７４號","E_COORD97":168601.32999999999,"N_COORD97":2547638.29,"ADDRESS":"郡安路四段２７４號","OBJECTID":208327},"geometry":{"x":168601.33000000101,"y":2547638.2899999991}},{"attributes":{"ID":208329,"DIS_CODE":0,"TOWNNAME":"安南區","LI":"溪頂里","LIN":"27鄰","STREET":"郡安路","SECT":"四段","MAREA":" ","LANE":" ","ALLEY":" ","HOUSE_NO":"２７５號","E_COORD97":168597.82999999999,"N_COORD97":2547638.4300000002,"ADDRESS":"郡安路四段２７５號","OBJECTID":208328},"geometry":{"x":168597.83000000101,"y":2547638.4300000034}},{"attributes":{"ID":208330,"DIS_CODE":0,"TOWNNAME":"安南區","LI":"溪頂里","LIN":"27鄰","STREET":"郡安路","SECT":"四段","MAREA":" ","LANE":" ","ALLEY":" ","HOUSE_NO":"２７６號","E_COORD97":168593.66,"N_COORD97":2547639.1499999999,"ADDRESS":"郡安路四段２７６號","OBJECTID":208329},"geometry":{"x":168593.65999999922,"y":2547639.1500000022}},{"attributes":{"ID":208331,"DIS_CODE":0,"TOWNNAME":"安南區","LI":"溪頂里","LIN":"27鄰","STREET":"郡安路","SECT":"四段","MAREA":" ","LANE":" ","ALLEY":" ","HOUSE_NO":"２７７號","E_COORD97":168588.63,"N_COORD97":2547640.0099999998,"ADDRESS":"郡安路四段２７７號","OBJECTID":208330},"geometry":{"x":168588.63000000175,"y":2547640.0099999998}},{"attributes":{"ID":208332,"DIS_CODE":0,"TOWNNAME":"新化區","LI":"太平里","LIN":"4鄰","STREET":"中正路","SECT":" ","MAREA":" ","LANE":" ","ALLEY":" ","HOUSE_NO":"５７０號","E_COORD97":178902.91,"N_COORD97":2548985.25,"ADDRESS":"中正路５７０號","OBJECTID":208331},"geometry":{"x":178902.91000000108,"y":2548985.25}},{"attributes":{"ID":208333,"DIS_CODE":0,"TOWNNAME":"新化區","LI":"太平里","LIN":"4鄰","STREET":"民生路","SECT":" ","MAREA":" ","LANE":" ","ALLEY":" ","HOUSE_NO":"２５５號","E_COORD97":179013.91,"N_COORD97":2549043.25,"ADDRESS":"民生路２５５號","OBJECTID":208332},"geometry":{"x":179013.91000000015,"y":2549043.25}},{"attributes":{"ID":208334,"DIS_CODE":0,"TOWNNAME":"新化區","LI":"武安里","LIN":"13鄰","STREET":"正新南路","SECT":" ","MAREA":" ","LANE":" ","ALLEY":" ","HOUSE_NO":"９２號","E_COORD97":178901.92000000001,"N_COORD97":2547989.25,"ADDRESS":"正新南路９２號","OBJECTID":208333},"geometry":{"x":178901.92000000179,"y":2547989.2500000037}},{"attributes":{"ID":208335,"DIS_CODE":0,"TOWNNAME":"安平區","LI":"國平里","LIN":"32鄰","STREET":"育平二街","SECT":" ","MAREA":" ","LANE":"１７巷","ALLEY":"１弄","HOUSE_NO":"１６號","E_COORD97":164890.32000000001,"N_COORD97":2542878.1000000001,"ADDRESS":"育平二街１７巷１弄１６號","OBJECTID":208334},"geometry":{"x":164890.3200000003,"y":2542878.1000000015}},{"attributes":{"ID":208336,"DIS_CODE":0,"TOWNNAME":"安平區","LI":"國平里","LIN":"32鄰","STREET":"育平二街","SECT":" ","MAREA":" ","LANE":"１７巷","ALLEY":"１弄","HOUSE_NO":"１８號","E_COORD97":164894.29000000001,"N_COORD97":2542877.1499999999,"ADDRESS":"育平二街１７巷１弄１８號","OBJECTID":208335},"geometry":{"x":164894.29000000097,"y":2542877.1500000004}},{"attributes":{"ID":208337,"DIS_CODE":0,"TOWNNAME":"安平區","LI":"國平里","LIN":"32鄰","STREET":"育平二街","SECT":" ","MAREA":" ","LANE":"１７巷","ALLEY":"１弄","HOUSE_NO":"２０號","E_COORD97":164898.89000000001,"N_COORD97":2542877.79,"ADDRESS":"育平二街１７巷１弄２０號","OBJECTID":208336},"geometry":{"x":164898.88999999966,"y":2542877.7899999991}},{"attributes":{"ID":208338,"DIS_CODE":0,"TOWNNAME":"安平區","LI":"國平里","LIN":"32鄰","STREET":"育平二街","SECT":" ","MAREA":" ","LANE":"１７巷","ALLEY":"１弄","HOUSE_NO":"２號","E_COORD97":164869.37,"N_COORD97":2542881.2799999998,"ADDRESS":"育平二街１７巷１弄２號","OBJECTID":208337},"geometry":{"x":164869.37000000011,"y":2542881.2799999993}},{"attributes":{"ID":208339,"DIS_CODE":0,"TOWNNAME":"安平區","LI":"國平里","LIN":"32鄰","STREET":"育平二街","SECT":" ","MAREA":" ","LANE":"１７巷","ALLEY":"１弄","HOUSE_NO":"６號","E_COORD97":164874.29000000001,"N_COORD97":2542882.23,"ADDRESS":"育平二街１７巷１弄６號","OBJECTID":208338},"geometry":{"x":164874.29000000097,"y":2542882.2300000023}},{"attributes":{"ID":208340,"DIS_CODE":0,"TOWNNAME":"安平區","LI":"國平里","LIN":"32鄰","STREET":"育平二街","SECT":" ","MAREA":" ","LANE":"１７巷","ALLEY":"１弄","HOUSE_NO":"８號","E_COORD97":164879.04999999999,"N_COORD97":2542882.0699999998,"ADDRESS":"育平二街１７巷１弄８號","OBJECTID":208339},"geometry":{"x":164879.05000000075,"y":2542882.0700000022}},{"attributes":{"ID":208341,"DIS_CODE":0,"TOWNNAME":"鹽水區","LI":"橋南里","LIN":"15鄰","STREET":"月津路","SECT":" ","MAREA":" ","LANE":" ","ALLEY":" ","HOUSE_NO":"３號","E_COORD97":175009.85000000001,"N_COORD97":2579477.04,"ADDRESS":"月津路３號","OBJECTID":208340},"geometry":{"x":175009.8499999987,"y":2579477.040000001}},{"attributes":{"ID":208342,"DIS_CODE":0,"TOWNNAME":"安平區","LI":"國平里","LIN":"32鄰","STREET":"育平二街","SECT":" ","MAREA":" ","LANE":"１７巷","ALLEY":"３弄","HOUSE_NO":"１０號","E_COORD97":164871.42999999999,"N_COORD97":2542847.3100000001,"ADDRESS":"育平二街１７巷３弄１０號","OBJECTID":208341},"geometry":{"x":164871.4299999997,"y":2542847.3100000024}},{"attributes":{"ID":208343,"DIS_CODE":0,"TOWNNAME":"安平區","LI":"國平里","LIN":"32鄰","STREET":"育平二街","SECT":" ","MAREA":" ","LANE":"１７巷","ALLEY":"３弄","HOUSE_NO":"１１號","E_COORD97":164888.42000000001,"N_COORD97":2542863.02,"ADDRESS":"育平二街１７巷３弄１１號","OBJECTID":208342},"geometry":{"x":164888.42000000086,"y":2542863.0199999996}},{"attributes":{"ID":208344,"DIS_CODE":0,"TOWNNAME":"東區","LI":"裕農里","LIN":"6鄰","STREET":"裕農路","SECT":" ","MAREA":" ","LANE":"３５７巷","ALLEY":" ","HOUSE_NO":"２７號","E_COORD97":171009.12312999999,"N_COORD97":2543156.6712000002,"ADDRESS":"裕農路３５７巷２７號","OBJECTID":208343},"geometry":{"x":171009.12313000113,"y":2543156.6712030023}},{"attributes":{"ID":208345,"DIS_CODE":0,"TOWNNAME":"安平區","LI":"國平里","LIN":"32鄰","STREET":"育平二街","SECT":" ","MAREA":" ","LANE":"１７巷","ALLEY":"３弄","HOUSE_NO":"１２號","E_COORD97":164875.72,"N_COORD97":2542846.6699999999,"ADDRESS":"育平二街１７巷３弄１２號","OBJECTID":208344},"geometry":{"x":164875.72000000067,"y":2542846.6700000037}},{"attributes":{"ID":208346,"DIS_CODE":0,"TOWNNAME":"安平區","LI":"國平里","LIN":"32鄰","STREET":"育平二街","SECT":" ","MAREA":" ","LANE":"１７巷","ALLEY":"３弄","HOUSE_NO":"１３號","E_COORD97":164892.23000000001,"N_COORD97":2542861.9100000001,"ADDRESS":"育平二街１７巷３弄１３號","OBJECTID":208345},"geometry":{"x":164892.23000000045,"y":2542861.9099999983}},{"attributes":{"ID":208347,"DIS_CODE":0,"TOWNNAME":"新化區","LI":"護國里","LIN":"8鄰","STREET":"信義路","SECT":" ","MAREA":" ","LANE":" ","ALLEY":" ","HOUSE_NO":"７８號之２","E_COORD97":179864.53,"N_COORD97":2548754.2599999998,"ADDRESS":"信義路７８號之２","OBJECTID":208346},"geometry":{"x":179864.53000000212,"y":2548754.2599999998}},{"attributes":{"ID":208348,"DIS_CODE":0,"TOWNNAME":"新化區","LI":"觀音里","LIN":"7鄰","STREET":"忠孝路","SECT":" ","MAREA":" ","LANE":" ","ALLEY":" ","HOUSE_NO":"５３號","E_COORD97":178946.26999999999,"N_COORD97":2548681.25,"ADDRESS":"忠孝路５３號","OBJECTID":208347},"geometry":{"x":178946.26999999955,"y":2548681.2500000019}},{"attributes":{"ID":208349,"DIS_CODE":0,"TOWNNAME":"新化區","LI":"唪口里","LIN":"4鄰","STREET":"大德路","SECT":" ","MAREA":" ","LANE":" ","ALLEY":" ","HOUSE_NO":"８８號之２３","E_COORD97":178147.48000000001,"N_COORD97":2549520.2599999998,"ADDRESS":"大德路８８號之２３","OBJECTID":208348},"geometry":{"x":178147.48000000045,"y":2549520.2599999998}},{"attributes":{"ID":208350,"DIS_CODE":0,"TOWNNAME":"新化區","LI":"唪口里","LIN":" ","STREET":"大德路","SECT":" ","MAREA":" ","LANE":" ","ALLEY":" ","HOUSE_NO":"９０之１４號","E_COORD97":178115.13,"N_COORD97":2549490.2599999998,"ADDRESS":"大德路９０之１４號","OBJECTID":208349},"geometry":{"x":178115.12999999989,"y":2549490.2599999998}},{"attributes":{"ID":208351,"DIS_CODE":0,"TOWNNAME":"善化區","LI":"小新里","LIN":"2鄰","STREET":" ","SECT":" ","MAREA":"小新營","LANE":" ","ALLEY":" ","HOUSE_NO":"１３號之１２","E_COORD97":179844.04999999999,"N_COORD97":2558526.02,"ADDRESS":"小新營１３號之１２","OBJECTID":208350},"geometry":{"x":179844.05000000075,"y":2558526.0199999996}},{"attributes":{"ID":208352,"DIS_CODE":0,"TOWNNAME":"善化區","LI":"什乃里","LIN":"2鄰","STREET":" ","SECT":" ","MAREA":"什乃","LANE":" ","ALLEY":" ","HOUSE_NO":"１８號之１５","E_COORD97":176248.10000000001,"N_COORD97":2560849.52,"ADDRESS":"什乃１８號之１５","OBJECTID":208351},"geometry":{"x":176248.10000000056,"y":2560849.5199999996}},{"attributes":{"ID":208353,"DIS_CODE":0,"TOWNNAME":"善化區","LI":"牛庄里","LIN":"2鄰","STREET":" ","SECT":" ","MAREA":"牛庄","LANE":" ","ALLEY":" ","HOUSE_NO":"２６之１９號","E_COORD97":180388.07000000001,"N_COORD97":2559761.52,"ADDRESS":"牛庄２６之１９號","OBJECTID":208352},"geometry":{"x":180388.07000000216,"y":2559761.5199999977}},{"attributes":{"ID":208354,"DIS_CODE":0,"TOWNNAME":"東區","LI":"中西里","LIN":"12鄰","STREET":"東寧路","SECT":" ","MAREA":" ","LANE":" ","ALLEY":" ","HOUSE_NO":"２２號","E_COORD97":169980.23999999999,"N_COORD97":2543603.1499999999,"ADDRESS":"東寧路２２號","OBJECTID":208353},"geometry":{"x":169980.24000000115,"y":2543603.1500000041}},{"attributes":{"ID":208355,"DIS_CODE":0,"TOWNNAME":"東區","LI":"中西里","LIN":"12鄰","STREET":"東寧路","SECT":" ","MAREA":" ","LANE":" ","ALLEY":" ","HOUSE_NO":"２６號","E_COORD97":169994.73999999999,"N_COORD97":2543620.29,"ADDRESS":"東寧路２６號","OBJECTID":208354},"geometry":{"x":169994.74000000022,"y":2543620.2899999991}},{"attributes":{"ID":208356,"DIS_CODE":0,"TOWNNAME":"東區","LI":"中西里","LIN":"12鄰","STREET":"東寧路","SECT":" ","MAREA":" ","LANE":" ","ALLEY":" ","HOUSE_NO":"２６號之１","E_COORD97":169999.47,"N_COORD97":2543619.79,"ADDRESS":"東寧路２６號之１","OBJECTID":208355},"geometry":{"x":169999.46999999974,"y":2543619.7899999991}},{"attributes":{"ID":208357,"DIS_CODE":0,"TOWNNAME":"安平區","LI":"國平里","LIN":"32鄰","STREET":"育平二街","SECT":" ","MAREA":" ","LANE":"１７巷","ALLEY":"３弄","HOUSE_NO":"１５號","E_COORD97":164896.35000000001,"N_COORD97":2542863.1800000002,"ADDRESS":"育平二街１７巷３弄１５號","OBJECTID":208356},"geometry":{"x":164896.3499999987,"y":2542863.1800000034}},{"attributes":{"ID":208358,"DIS_CODE":0,"TOWNNAME":"安平區","LI":"國平里","LIN":"32鄰","STREET":"育平二街","SECT":" ","MAREA":" ","LANE":"１７巷","ALLEY":"３弄","HOUSE_NO":"１６號","E_COORD97":164879.37,"N_COORD97":2542846.3500000001,"ADDRESS":"育平二街１７巷３弄１６號","OBJECTID":208357},"geometry":{"x":164879.37000000011,"y":2542846.3500000015}},{"attributes":{"ID":208359,"DIS_CODE":0,"TOWNNAME":"東區","LI":"中西里","LIN":"12鄰","STREET":"東寧路","SECT":" ","MAREA":" ","LANE":" ","ALLEY":" ","HOUSE_NO":"２６號之２","E_COORD97":170004.14000000001,"N_COORD97":2543619.7400000002,"ADDRESS":"東寧路２６號之２","OBJECTID":208358},"geometry":{"x":170004.1400000006,"y":2543619.7400000021}},{"attributes":{"ID":208360,"DIS_CODE":0,"TOWNNAME":"安平區","LI":"國平里","LIN":"32鄰","STREET":"育平二街","SECT":" ","MAREA":" ","LANE":"１７巷","ALLEY":"３弄","HOUSE_NO":"１８號","E_COORD97":164884.13,"N_COORD97":2542844.77,"ADDRESS":"育平二街１７巷３弄１８號","OBJECTID":208359},"geometry":{"x":164884.12999999989,"y":2542844.7699999996}},{"attributes":{"ID":208361,"DIS_CODE":0,"TOWNNAME":"東區","LI":"忠孝里","LIN":"32鄰","STREET":"崇明六街","SECT":" ","MAREA":" ","LANE":"８巷","ALLEY":"３弄","HOUSE_NO":"７號","E_COORD97":169657.07000000001,"N_COORD97":2542176.6299999999,"ADDRESS":"崇明六街８巷３弄７號","OBJECTID":208360},"geometry":{"x":169657.0700000003,"y":2542176.629999999}},{"attributes":{"ID":208362,"DIS_CODE":0,"TOWNNAME":"安平區","LI":"國平里","LIN":"32鄰","STREET":"育平二街","SECT":" ","MAREA":" ","LANE":"１７巷","ALLEY":"３弄","HOUSE_NO":"２０號","E_COORD97":164888.57999999999,"N_COORD97":2542844.29,"ADDRESS":"育平二街１７巷３弄２０號","OBJECTID":208361},"geometry":{"x":164888.58000000194,"y":2542844.2899999991}},{"attributes":{"ID":208363,"DIS_CODE":0,"TOWNNAME":"安平區","LI":"國平里","LIN":"32鄰","STREET":"育平二街","SECT":" ","MAREA":" ","LANE":"１７巷","ALLEY":"３弄","HOUSE_NO":"２２號","E_COORD97":164892.39000000001,"N_COORD97":2542843.6600000001,"ADDRESS":"育平二街１７巷３弄２２號","OBJECTID":208362},"geometry":{"x":164892.38999999966,"y":2542843.6600000039}},{"attributes":{"ID":208364,"DIS_CODE":0,"TOWNNAME":"善化區","LI":"牛庄里","LIN":"2鄰","STREET":" ","SECT":" ","MAREA":"牛庄","LANE":" ","ALLEY":" ","HOUSE_NO":"２７號之１１","E_COORD97":180464.57999999999,"N_COORD97":2559776.27,"ADDRESS":"牛庄２７號之１１","OBJECTID":208363},"geometry":{"x":180464.58000000101,"y":2559776.2699999996}},{"attributes":{"ID":208365,"DIS_CODE":0,"TOWNNAME":"安平區","LI":"國平里","LIN":"32鄰","STREET":"育平二街","SECT":" ","MAREA":" ","LANE":"１７巷","ALLEY":"３弄","HOUSE_NO":"１號","E_COORD97":164865.72,"N_COORD97":2542867.6299999999,"ADDRESS":"育平二街１７巷３弄１號","OBJECTID":208364},"geometry":{"x":164865.72000000067,"y":2542867.6300000008}},{"attributes":{"ID":208366,"DIS_CODE":0,"TOWNNAME":"善化區","LI":"小新里","LIN":"2鄰","STREET":" ","SECT":" ","MAREA":"小新營","LANE":" ","ALLEY":" ","HOUSE_NO":"１３之５７號","E_COORD97":179803.57000000001,"N_COORD97":2558529.52,"ADDRESS":"小新營１３之５７號","OBJECTID":208365},"geometry":{"x":179803.57000000123,"y":2558529.5199999996}},{"attributes":{"ID":208367,"DIS_CODE":0,"TOWNNAME":"安平區","LI":"國平里","LIN":"32鄰","STREET":"育平二街","SECT":" ","MAREA":" ","LANE":"１７巷","ALLEY":"３弄","HOUSE_NO":"２號","E_COORD97":164857.45999999999,"N_COORD97":2542849.3700000001,"ADDRESS":"育平二街１７巷３弄２號","OBJECTID":208366},"geometry":{"x":164857.46000000089,"y":2542849.370000001}},{"attributes":{"ID":208368,"DIS_CODE":0,"TOWNNAME":"安平區","LI":"國平里","LIN":"32鄰","STREET":"育平二街","SECT":" ","MAREA":" ","LANE":"１７巷","ALLEY":"３弄","HOUSE_NO":"３號","E_COORD97":164871.10999999999,"N_COORD97":2542866.6699999999,"ADDRESS":"育平二街１７巷３弄３號","OBJECTID":208367},"geometry":{"x":164871.11000000034,"y":2542866.6699999981}},{"attributes":{"ID":208369,"DIS_CODE":0,"TOWNNAME":"安平區","LI":"國平里","LIN":"32鄰","STREET":"育平二街","SECT":" ","MAREA":" ","LANE":"１７巷","ALLEY":"３弄","HOUSE_NO":"５號","E_COORD97":164875.39999999999,"N_COORD97":2542865.3999999999,"ADDRESS":"育平二街１７巷３弄５號","OBJECTID":208368},"geometry":{"x":164875.4000000013,"y":2542865.4000000004}},{"attributes":{"ID":208370,"DIS_CODE":0,"TOWNNAME":"安平區","LI":"國平里","LIN":"32鄰","STREET":"育平二街","SECT":" ","MAREA":" ","LANE":"１７巷","ALLEY":"３弄","HOUSE_NO":"６號","E_COORD97":164863.17999999999,"N_COORD97":2542848.5800000001,"ADDRESS":"育平二街１７巷３弄６號","OBJECTID":208369},"geometry":{"x":164863.1799999997,"y":2542848.5800000019}},{"attributes":{"ID":208371,"DIS_CODE":0,"TOWNNAME":"安平區","LI":"國平里","LIN":"32鄰","STREET":"育平二街","SECT":" ","MAREA":" ","LANE":"１７巷","ALLEY":"３弄","HOUSE_NO":"７號","E_COORD97":164879.84,"N_COORD97":2542864.77,"ADDRESS":"育平二街１７巷３弄７號","OBJECTID":208370},"geometry":{"x":164879.84000000171,"y":2542864.7699999996}},{"attributes":{"ID":208372,"DIS_CODE":0,"TOWNNAME":"安平區","LI":"國平里","LIN":"32鄰","STREET":"育平二街","SECT":" ","MAREA":" ","LANE":"１７巷","ALLEY":"３弄","HOUSE_NO":"８號","E_COORD97":164867.78,"N_COORD97":2542847.7799999998,"ADDRESS":"育平二街１７巷３弄８號","OBJECTID":208371},"geometry":{"x":164867.78000000119,"y":2542847.7799999993}},{"attributes":{"ID":208373,"DIS_CODE":0,"TOWNNAME":"安平區","LI":"國平里","LIN":"32鄰","STREET":"育平二街","SECT":" ","MAREA":" ","LANE":"１７巷","ALLEY":"３弄","HOUSE_NO":"９號","E_COORD97":164883.81,"N_COORD97":2542863.5,"ADDRESS":"育平二街１７巷３弄９號","OBJECTID":208372},"geometry":{"x":164883.81000000052,"y":2542863.5}},{"attributes":{"ID":208374,"DIS_CODE":0,"TOWNNAME":"永康區","LI":"永康里","LIN":"32鄰","STREET":"大同街","SECT":" ","MAREA":" ","LANE":"９６６巷","ALLEY":"９弄","HOUSE_NO":"９號","E_COORD97":174413.44,"N_COORD97":2547113.3300000001,"ADDRESS":"大同街９６６巷９弄９號","OBJECTID":208373},"geometry":{"x":174413.44000000227,"y":2547113.3300000001}},{"attributes":{"ID":208375,"DIS_CODE":0,"TOWNNAME":"南區","LI":"光明里","LIN":"32鄰","STREET":"新興路","SECT":" ","MAREA":" ","LANE":"５３３巷","ALLEY":"３２弄","HOUSE_NO":"１號","E_COORD97":166646.82999999999,"N_COORD97":2541539.9199999999,"ADDRESS":"新興路５３３巷３２弄１號","OBJECTID":208374},"geometry":{"x":166646.83000000101,"y":2541539.9200000018}},{"attributes":{"ID":208376,"DIS_CODE":0,"TOWNNAME":"南區","LI":"光明里","LIN":"32鄰","STREET":"新興路","SECT":" ","MAREA":" ","LANE":"５３３巷","ALLEY":"３２弄","HOUSE_NO":"３號","E_COORD97":166638.5,"N_COORD97":2541539.9199999999,"ADDRESS":"新興路５３３巷３２弄３號","OBJECTID":208375},"geometry":{"x":166638.50000000186,"y":2541539.9200000018}},{"attributes":{"ID":208377,"DIS_CODE":0,"TOWNNAME":"善化區","LI":"小新里","LIN":"2鄰","STREET":" ","SECT":" ","MAREA":"小新營","LANE":" ","ALLEY":" ","HOUSE_NO":"１３號之１６","E_COORD97":179827.35000000001,"N_COORD97":2558530.77,"ADDRESS":"小新營１３號之１６","OBJECTID":208376},"geometry":{"x":179827.34999999963,"y":2558530.7700000014}},{"attributes":{"ID":208378,"DIS_CODE":0,"TOWNNAME":"善化區","LI":"小新里","LIN":"2鄰","STREET":" ","SECT":" ","MAREA":"小新營","LANE":" ","ALLEY":" ","HOUSE_NO":"１３號之１４","E_COORD97":179835.85000000001,"N_COORD97":2558528.27,"ADDRESS":"小新營１３號之１４","OBJECTID":208377},"geometry":{"x":179835.84999999963,"y":2558528.2699999996}},{"attributes":{"ID":208379,"DIS_CODE":0,"TOWNNAME":"善化區","LI":"牛庄里","LIN":"2鄰","STREET":" ","SECT":" ","MAREA":"牛庄","LANE":" ","ALLEY":" ","HOUSE_NO":"２４號之６","E_COORD97":180323.87,"N_COORD97":2559901.02,"ADDRESS":"牛庄２４號之６","OBJECTID":208378},"geometry":{"x":180323.87000000104,"y":2559901.0200000033}},{"attributes":{"ID":208380,"DIS_CODE":0,"TOWNNAME":"南區","LI":"光明里","LIN":"32鄰","STREET":"新興路","SECT":" ","MAREA":" ","LANE":"５３３巷","ALLEY":"３２弄","HOUSE_NO":"５號","E_COORD97":166627.88,"N_COORD97":2541539.7599999998,"ADDRESS":"新興路５３３巷３２弄５號","OBJECTID":208379},"geometry":{"x":166627.88000000082,"y":2541539.7599999998}},{"attributes":{"ID":208381,"DIS_CODE":0,"TOWNNAME":"南區","LI":"光明里","LIN":"32鄰","STREET":"新興路","SECT":" ","MAREA":" ","LANE":"５３３巷","ALLEY":"３２弄","HOUSE_NO":"７號","E_COORD97":166621.17999999999,"N_COORD97":2541540.0800000001,"ADDRESS":"新興路５３３巷３２弄７號","OBJECTID":208380},"geometry":{"x":166621.1799999997,"y":2541540.0800000019}},{"attributes":{"ID":208382,"DIS_CODE":0,"TOWNNAME":"南區","LI":"光明里","LIN":"32鄰","STREET":"新興路","SECT":" ","MAREA":" ","LANE":"５３３巷","ALLEY":"３２弄","HOUSE_NO":"９號","E_COORD97":166612.35999999999,"N_COORD97":2541540.25,"ADDRESS":"新興路５３３巷３２弄９號","OBJECTID":208381},"geometry":{"x":166612.36000000034,"y":2541540.25}},{"attributes":{"ID":208383,"DIS_CODE":0,"TOWNNAME":"善化區","LI":"牛庄里","LIN":"2鄰","STREET":" ","SECT":" ","MAREA":"牛庄","LANE":" ","ALLEY":" ","HOUSE_NO":"２３號之３","E_COORD97":180292.66,"N_COORD97":2559842.52,"ADDRESS":"牛庄２３號之３","OBJECTID":208382},"geometry":{"x":180292.66000000108,"y":2559842.5199999996}},{"attributes":{"ID":208384,"DIS_CODE":0,"TOWNNAME":"善化區","LI":"牛庄里","LIN":"2鄰","STREET":" ","SECT":" ","MAREA":"牛庄","LANE":" ","ALLEY":" ","HOUSE_NO":"２６號之２","E_COORD97":180332.88,"N_COORD97":2559750.77,"ADDRESS":"牛庄２６號之２","OBJECTID":208383},"geometry":{"x":180332.88000000175,"y":2559750.7700000014}},{"attributes":{"ID":208385,"DIS_CODE":0,"TOWNNAME":"善化區","LI":"牛庄里","LIN":"2鄰","STREET":" ","SECT":" ","MAREA":"牛庄","LANE":" ","ALLEY":" ","HOUSE_NO":"２７號之７","E_COORD97":180384.10999999999,"N_COORD97":2559782.27,"ADDRESS":"牛庄２７號之７","OBJECTID":208384},"geometry":{"x":180384.11000000034,"y":2559782.2699999996}},{"attributes":{"ID":208386,"DIS_CODE":0,"TOWNNAME":"善化區","LI":"小新里","LIN":"2鄰","STREET":" ","SECT":" ","MAREA":"小新營","LANE":" ","ALLEY":" ","HOUSE_NO":"１０號之１１","E_COORD97":179856.82000000001,"N_COORD97":2558468.77,"ADDRESS":"小新營１０號之１１","OBJECTID":208385},"geometry":{"x":179856.8200000003,"y":2558468.7700000014}},{"attributes":{"ID":208387,"DIS_CODE":0,"TOWNNAME":"善化區","LI":"小新里","LIN":"2鄰","STREET":" ","SECT":" ","MAREA":"小新營","LANE":" ","ALLEY":" ","HOUSE_NO":"１０號之３","E_COORD97":179906.07999999999,"N_COORD97":2558459.02,"ADDRESS":"小新營１０號之３","OBJECTID":208386},"geometry":{"x":179906.08000000007,"y":2558459.0199999996}},{"attributes":{"ID":208388,"DIS_CODE":0,"TOWNNAME":"善化區","LI":"六德里","LIN":"2鄰","STREET":" ","SECT":" ","MAREA":"六分寮","LANE":" ","ALLEY":" ","HOUSE_NO":"２１１號","E_COORD97":178722.29999999999,"N_COORD97":2561752.75,"ADDRESS":"六分寮２１１號","OBJECTID":208387},"geometry":{"x":178722.29999999981,"y":2561752.75}},{"attributes":{"ID":208389,"DIS_CODE":0,"TOWNNAME":"善化區","LI":"牛庄里","LIN":"2鄰","STREET":" ","SECT":" ","MAREA":"牛庄","LANE":" ","ALLEY":" ","HOUSE_NO":"２７號之４６","E_COORD97":180656.45999999999,"N_COORD97":2559819.02,"ADDRESS":"牛庄２７號之４６","OBJECTID":208388},"geometry":{"x":180656.46000000089,"y":2559819.0199999996}},{"attributes":{"ID":208390,"DIS_CODE":0,"TOWNNAME":"南區","LI":"光明里","LIN":"32鄰","STREET":"新興路","SECT":" ","MAREA":" ","LANE":"５３３巷","ALLEY":"３２弄","HOUSE_NO":"１１號","E_COORD97":166603.54000000001,"N_COORD97":2541540.25,"ADDRESS":"新興路５３３巷３２弄１１號","OBJECTID":208389},"geometry":{"x":166603.54000000004,"y":2541540.25}},{"attributes":{"ID":208391,"DIS_CODE":0,"TOWNNAME":"南區","LI":"光明里","LIN":"32鄰","STREET":"新興路","SECT":" ","MAREA":" ","LANE":"５３３巷","ALLEY":"３４弄","HOUSE_NO":"２號","E_COORD97":166647.81,"N_COORD97":2541521.7999999998,"ADDRESS":"新興路５３３巷３４弄２號","OBJECTID":208390},"geometry":{"x":166647.81000000145,"y":2541521.8000000026}},{"attributes":{"ID":208392,"DIS_CODE":0,"TOWNNAME":"善化區","LI":"什乃里","LIN":"2鄰","STREET":" ","SECT":" ","MAREA":"什乃","LANE":" ","ALLEY":" ","HOUSE_NO":"１８號之２０","E_COORD97":176185.16,"N_COORD97":2560731.52,"ADDRESS":"什乃１８號之２０","OBJECTID":208391},"geometry":{"x":176185.16000000108,"y":2560731.5200000033}},{"attributes":{"ID":208393,"DIS_CODE":0,"TOWNNAME":"善化區","LI":"小新里","LIN":"2鄰","STREET":" ","SECT":" ","MAREA":"小新營","LANE":" ","ALLEY":" ","HOUSE_NO":"１３號之３０","E_COORD97":179849.94,"N_COORD97":2558576.27,"ADDRESS":"小新營１３號之３０","OBJECTID":208392},"geometry":{"x":179849.94000000227,"y":2558576.2699999996}},{"attributes":{"ID":208394,"DIS_CODE":0,"TOWNNAME":"南區","LI":"光明里","LIN":"32鄰","STREET":"新興路","SECT":" ","MAREA":" ","LANE":"５３３巷","ALLEY":"３４弄","HOUSE_NO":"４號","E_COORD97":166639.64000000001,"N_COORD97":2541521.48,"ADDRESS":"新興路５３３巷３４弄４號","OBJECTID":208393},"geometry":{"x":166639.6400000006,"y":2541521.4800000004}},{"attributes":{"ID":208395,"DIS_CODE":0,"TOWNNAME":"南區","LI":"光明里","LIN":"32鄰","STREET":"新興路","SECT":" ","MAREA":" ","LANE":"５３３巷","ALLEY":"３４弄","HOUSE_NO":"６號","E_COORD97":166630.01000000001,"N_COORD97":2541521.6400000001,"ADDRESS":"新興路５３３巷３４弄６號","OBJECTID":208394},"geometry":{"x":166630.01000000071,"y":2541521.6399999987}},{"attributes":{"ID":208396,"DIS_CODE":0,"TOWNNAME":"南區","LI":"光明里","LIN":"32鄰","STREET":"新興路","SECT":" ","MAREA":" ","LANE":"５３３巷","ALLEY":"３４弄","HOUSE_NO":"８號","E_COORD97":166621.51000000001,"N_COORD97":2541521.7999999998,"ADDRESS":"新興路５３３巷３４弄８號","OBJECTID":208395},"geometry":{"x":166621.51000000071,"y":2541521.8000000026}},{"attributes":{"ID":208397,"DIS_CODE":0,"TOWNNAME":"永康區","LI":"成功里","LIN":"32鄰","STREET":"忠孝路","SECT":" ","MAREA":" ","LANE":"２０３巷","ALLEY":"６４弄","HOUSE_NO":"１２號","E_COORD97":171907.95000000001,"N_COORD97":2544888.0800000001,"ADDRESS":"忠孝路２０３巷６４弄１２號","OBJECTID":208396},"geometry":{"x":171907.95000000112,"y":2544888.0799999982}},{"attributes":{"ID":208398,"DIS_CODE":0,"TOWNNAME":"永康區","LI":"成功里","LIN":"32鄰","STREET":"忠孝路","SECT":" ","MAREA":" ","LANE":"２０３巷","ALLEY":"６４弄","HOUSE_NO":"１４號","E_COORD97":171907.23999999999,"N_COORD97":2544894.8300000001,"ADDRESS":"忠孝路２０３巷６４弄１４號","OBJECTID":208397},"geometry":{"x":171907.24000000022,"y":2544894.8300000019}},{"attributes":{"ID":208399,"DIS_CODE":0,"TOWNNAME":"永康區","LI":"成功里","LIN":"32鄰","STREET":"忠孝路","SECT":" ","MAREA":" ","LANE":"２０３巷","ALLEY":"６４弄","HOUSE_NO":"８號","E_COORD97":171909.62,"N_COORD97":2544876.8300000001,"ADDRESS":"忠孝路２０３巷６４弄８號","OBJECTID":208398},"geometry":{"x":171909.62000000011,"y":2544876.8300000019}},{"attributes":{"ID":208400,"DIS_CODE":0,"TOWNNAME":"仁德區","LI":"後壁里","LIN":"32鄰","STREET":"德洋路","SECT":" ","MAREA":" ","LANE":"２２７巷","ALLEY":"２弄","HOUSE_NO":"７號","E_COORD97":172510.17999999999,"N_COORD97":2539570.27,"ADDRESS":"德洋路２２７巷２弄７號","OBJECTID":208399},"geometry":{"x":172510.1799999997,"y":2539570.2700000033}},{"attributes":{"ID":208401,"DIS_CODE":0,"TOWNNAME":"永康區","LI":"二王里","LIN":"32鄰","STREET":"中山南路","SECT":" ","MAREA":" ","LANE":"５１０巷","ALLEY":"３４弄","HOUSE_NO":"１０號","E_COORD97":172152.29999999999,"N_COORD97":2546394.2599999998,"ADDRESS":"中山南路５１０巷３４弄１０號","OBJECTID":208400},"geometry":{"x":172152.29999999888,"y":2546394.2599999998}}]}