{"displayFieldName":"TOWNNAME","fieldAliases":{"ID":"ID","DIS_CODE":"DIS_CODE","TOWNNAME":"TOWNNAME","LI":"LI","LIN":"LIN","STREET":"STREET","SECT":"SECT","MAREA":"MAREA","LANE":"LANE","ALLEY":"ALLEY","HOUSE_NO":"HOUSE_NO","E_COORD97":"E_COORD97","N_COORD97":"N_COORD97","ADDRESS":"ADDRESS","OBJECTID":"OBJECTID"},"geometryType":"esriGeometryPoint","spatialReference":{"wkid":102443,"latestWkid":3826},"fields":[{"name":"ID","type":"esriFieldTypeDouble","alias":"ID"},{"name":"DIS_CODE","type":"esriFieldTypeInteger","alias":"DIS_CODE"},{"name":"TOWNNAME","type":"esriFieldTypeString","alias":"TOWNNAME","length":8},{"name":"LI","type":"esriFieldTypeString","alias":"LI","length":8},{"name":"LIN","type":"esriFieldTypeString","alias":"LIN","length":12},{"name":"STREET","type":"esriFieldTypeString","alias":"STREET","length":20},{"name":"SECT","type":"esriFieldTypeString","alias":"SECT","length":8},{"name":"MAREA","type":"esriFieldTypeString","alias":"MAREA","length":12},{"name":"LANE","type":"esriFieldTypeString","alias":"LANE","length":10},{"name":"ALLEY","type":"esriFieldTypeString","alias":"ALLEY","length":10},{"name":"HOUSE_NO","type":"esriFieldTypeString","alias":"HOUSE_NO","length":20},{"name":"E_COORD97","type":"esriFieldTypeDouble","alias":"E_COORD97"},{"name":"N_COORD97","type":"esriFieldTypeDouble","alias":"N_COORD97"},{"name":"ADDRESS","type":"esriFieldTypeString","alias":"ADDRESS","length":50},{"name":"OBJECTID","type":"esriFieldTypeOID","alias":"OBJECTID"}],"features":[{"attributes":{"ID":401825,"DIS_CODE":0,"TOWNNAME":"下營區","LI":"新興里","LIN":"11鄰","STREET":"大同街","SECT":" ","MAREA":" ","LANE":"４８巷","ALLEY":" ","HOUSE_NO":"３０號","E_COORD97":174588.76999999999,"N_COORD97":2570735.3199999998,"ADDRESS":"大同街４８巷３０號","OBJECTID":401801},"geometry":{"x":174588.77000000048,"y":2570735.320000004}},{"attributes":{"ID":401826,"DIS_CODE":0,"TOWNNAME":"下營區","LI":"新興里","LIN":"11鄰","STREET":"大同街","SECT":" ","MAREA":" ","LANE":"４８巷","ALLEY":" ","HOUSE_NO":"３２號","E_COORD97":174587.82999999999,"N_COORD97":2570739.1400000001,"ADDRESS":"大同街４８巷３２號","OBJECTID":401802},"geometry":{"x":174587.83000000007,"y":2570739.1400000006}},{"attributes":{"ID":401827,"DIS_CODE":0,"TOWNNAME":"永康區","LI":"復國里","LIN":"18鄰","STREET":"復國一路","SECT":" ","MAREA":" ","LANE":"３３４巷","ALLEY":" ","HOUSE_NO":"９號","E_COORD97":172806.09,"N_COORD97":2545669.77,"ADDRESS":"復國一路３３４巷９號","OBJECTID":401803},"geometry":{"x":172806.08999999985,"y":2545669.7700000033}},{"attributes":{"ID":401828,"DIS_CODE":0,"TOWNNAME":"永康區","LI":"勝利里","LIN":"20鄰","STREET":"勝學路","SECT":" ","MAREA":" ","LANE":"２６９巷","ALLEY":" ","HOUSE_NO":"３１號","E_COORD97":171148.60000000001,"N_COORD97":2545220.75,"ADDRESS":"勝學路２６９巷３１號","OBJECTID":401804},"geometry":{"x":171148.60000000056,"y":2545220.7500000019}},{"attributes":{"ID":401829,"DIS_CODE":0,"TOWNNAME":"永康區","LI":"復華里","LIN":"4鄰","STREET":"復國二路","SECT":" ","MAREA":" ","LANE":"２６９巷","ALLEY":" ","HOUSE_NO":"１號","E_COORD97":173023.39999999999,"N_COORD97":2546182.27,"ADDRESS":"復國二路２６９巷１號","OBJECTID":401805},"geometry":{"x":173023.40000000037,"y":2546182.2700000014}},{"attributes":{"ID":401830,"DIS_CODE":0,"TOWNNAME":"永康區","LI":"勝利里","LIN":"13鄰","STREET":"勝利街","SECT":" ","MAREA":" ","LANE":"７５巷","ALLEY":" ","HOUSE_NO":"７號","E_COORD97":171318.98999999999,"N_COORD97":2544736.75,"ADDRESS":"勝利街７５巷７號","OBJECTID":401806},"geometry":{"x":171318.99000000022,"y":2544736.75}},{"attributes":{"ID":401831,"DIS_CODE":0,"TOWNNAME":"永康區","LI":"復華里","LIN":"14鄰","STREET":"國華街","SECT":" ","MAREA":" ","LANE":"９４巷","ALLEY":" ","HOUSE_NO":"１７號","E_COORD97":172905.85000000001,"N_COORD97":2545900.5,"ADDRESS":"國華街９４巷１７號","OBJECTID":401807},"geometry":{"x":172905.84999999963,"y":2545900.5000000019}},{"attributes":{"ID":401832,"DIS_CODE":0,"TOWNNAME":"永康區","LI":"復華里","LIN":"1鄰","STREET":"復國二路","SECT":" ","MAREA":" ","LANE":"２４４巷","ALLEY":" ","HOUSE_NO":"９號","E_COORD97":173034.66,"N_COORD97":2545926.4500000002,"ADDRESS":"復國二路２４４巷９號","OBJECTID":401808},"geometry":{"x":173034.66000000015,"y":2545926.4500000011}},{"attributes":{"ID":401833,"DIS_CODE":0,"TOWNNAME":"永康區","LI":"復國里","LIN":"31鄰","STREET":"復國一路","SECT":" ","MAREA":" ","LANE":"１４１巷","ALLEY":" ","HOUSE_NO":"３號","E_COORD97":172688.28,"N_COORD97":2545122.8999999999,"ADDRESS":"復國一路１４１巷３號","OBJECTID":401809},"geometry":{"x":172688.28000000026,"y":2545122.9000000004}},{"attributes":{"ID":401834,"DIS_CODE":0,"TOWNNAME":"永康區","LI":"復國里","LIN":"28鄰","STREET":"復國一路","SECT":" ","MAREA":" ","LANE":"２３７巷","ALLEY":" ","HOUSE_NO":"３號","E_COORD97":172706.84,"N_COORD97":2545411.7799999998,"ADDRESS":"復國一路２３７巷３號","OBJECTID":401810},"geometry":{"x":172706.84000000078,"y":2545411.7800000031}},{"attributes":{"ID":401835,"DIS_CODE":0,"TOWNNAME":"下營區","LI":"新興里","LIN":"11鄰","STREET":"大同街","SECT":" ","MAREA":" ","LANE":"４８巷","ALLEY":" ","HOUSE_NO":"３６號","E_COORD97":174586.98000000001,"N_COORD97":2570742.4700000002,"ADDRESS":"大同街４８巷３６號","OBJECTID":401811},"geometry":{"x":174586.98000000045,"y":2570742.4700000025}},{"attributes":{"ID":401836,"DIS_CODE":0,"TOWNNAME":"下營區","LI":"新興里","LIN":"11鄰","STREET":"大同街","SECT":" ","MAREA":" ","LANE":"４８巷","ALLEY":" ","HOUSE_NO":"３８號","E_COORD97":174586.48999999999,"N_COORD97":2570746.77,"ADDRESS":"大同街４８巷３８號","OBJECTID":401812},"geometry":{"x":174586.49000000115,"y":2570746.7699999996}},{"attributes":{"ID":401837,"DIS_CODE":0,"TOWNNAME":"永康區","LI":"復國里","LIN":"3鄰","STREET":"復國一路","SECT":" ","MAREA":" ","LANE":"４４巷","ALLEY":" ","HOUSE_NO":"９號","E_COORD97":172749.37,"N_COORD97":2544834.02,"ADDRESS":"復國一路４４巷９號","OBJECTID":401813},"geometry":{"x":172749.37000000104,"y":2544834.0200000033}},{"attributes":{"ID":401838,"DIS_CODE":0,"TOWNNAME":"永康區","LI":"復國里","LIN":"3鄰","STREET":"復國一路","SECT":" ","MAREA":" ","LANE":"４４巷","ALLEY":" ","HOUSE_NO":"３號","E_COORD97":172744.41,"N_COORD97":2544817.77,"ADDRESS":"復國一路４４巷３號","OBJECTID":401814},"geometry":{"x":172744.41000000108,"y":2544817.7699999996}},{"attributes":{"ID":401839,"DIS_CODE":0,"TOWNNAME":"永康區","LI":"復國里","LIN":"35鄰","STREET":"復國一路","SECT":" ","MAREA":" ","LANE":"６７巷","ALLEY":" ","HOUSE_NO":"１５號之２","E_COORD97":172585.56,"N_COORD97":2544913.54,"ADDRESS":"復國一路６７巷１５號之２","OBJECTID":401815},"geometry":{"x":172585.55999999959,"y":2544913.5399999991}},{"attributes":{"ID":401840,"DIS_CODE":0,"TOWNNAME":"永康區","LI":"復國里","LIN":"35鄰","STREET":"復國一路","SECT":" ","MAREA":" ","LANE":"１０３巷","ALLEY":" ","HOUSE_NO":"４號","E_COORD97":172680.20000000001,"N_COORD97":2545015.5699999998,"ADDRESS":"復國一路１０３巷４號","OBJECTID":401816},"geometry":{"x":172680.20000000019,"y":2545015.5700000022}},{"attributes":{"ID":401841,"DIS_CODE":0,"TOWNNAME":"永康區","LI":"復國里","LIN":"35鄰","STREET":"復國一路","SECT":" ","MAREA":" ","LANE":"１０３巷","ALLEY":" ","HOUSE_NO":"１０號","E_COORD97":172669.62,"N_COORD97":2545016.5699999998,"ADDRESS":"復國一路１０３巷１０號","OBJECTID":401817},"geometry":{"x":172669.62000000104,"y":2545016.5700000003}},{"attributes":{"ID":401842,"DIS_CODE":0,"TOWNNAME":"永康區","LI":"復國里","LIN":"31鄰","STREET":"復國一路","SECT":" ","MAREA":" ","LANE":"１７３巷","ALLEY":" ","HOUSE_NO":"２１號","E_COORD97":172622.69,"N_COORD97":2545209.5299999998,"ADDRESS":"復國一路１７３巷２１號","OBJECTID":401818},"geometry":{"x":172622.69000000041,"y":2545209.5299999993}},{"attributes":{"ID":401843,"DIS_CODE":0,"TOWNNAME":"永康區","LI":"復國里","LIN":"29鄰","STREET":"復華二街","SECT":" ","MAREA":" ","LANE":"１３巷","ALLEY":" ","HOUSE_NO":"１１號","E_COORD97":172629.64999999999,"N_COORD97":2545307.7799999998,"ADDRESS":"復華二街１３巷１１號","OBJECTID":401819},"geometry":{"x":172629.65000000037,"y":2545307.7800000012}},{"attributes":{"ID":401844,"DIS_CODE":0,"TOWNNAME":"永康區","LI":"復華里","LIN":"24鄰","STREET":"復華八街","SECT":" ","MAREA":" ","LANE":"６０巷","ALLEY":" ","HOUSE_NO":"２號","E_COORD97":172776.70999999999,"N_COORD97":2546334.6899999999,"ADDRESS":"復華八街６０巷２號","OBJECTID":401820},"geometry":{"x":172776.70999999996,"y":2546334.6900000032}},{"attributes":{"ID":401845,"DIS_CODE":0,"TOWNNAME":"永康區","LI":"復興里","LIN":"29鄰","STREET":"忠孝路","SECT":" ","MAREA":" ","LANE":"７６巷","ALLEY":" ","HOUSE_NO":"１８號","E_COORD97":172283.57000000001,"N_COORD97":2544945.9900000002,"ADDRESS":"忠孝路７６巷１８號","OBJECTID":401821},"geometry":{"x":172283.57000000123,"y":2544945.9900000002}},{"attributes":{"ID":401846,"DIS_CODE":0,"TOWNNAME":"永康區","LI":"復華里","LIN":"1鄰","STREET":"復國二路","SECT":" ","MAREA":" ","LANE":"３３８巷","ALLEY":" ","HOUSE_NO":"１２號","E_COORD97":173052.92999999999,"N_COORD97":2546114.4399999999,"ADDRESS":"復國二路３３８巷１２號","OBJECTID":401822},"geometry":{"x":173052.9299999997,"y":2546114.4399999995}},{"attributes":{"ID":401847,"DIS_CODE":0,"TOWNNAME":"永康區","LI":"復國里","LIN":"35鄰","STREET":"復國一路","SECT":" ","MAREA":" ","LANE":"１１３巷","ALLEY":" ","HOUSE_NO":"５號","E_COORD97":172670.04999999999,"N_COORD97":2545040.6800000002,"ADDRESS":"復國一路１１３巷５號","OBJECTID":401823},"geometry":{"x":172670.05000000075,"y":2545040.6800000016}},{"attributes":{"ID":401848,"DIS_CODE":0,"TOWNNAME":"永康區","LI":"復國里","LIN":"31鄰","STREET":"復國一路","SECT":" ","MAREA":" ","LANE":"１７３巷","ALLEY":" ","HOUSE_NO":"１９號","E_COORD97":172627.26999999999,"N_COORD97":2545208.5299999998,"ADDRESS":"復國一路１７３巷１９號","OBJECTID":401824},"geometry":{"x":172627.27000000048,"y":2545208.5299999993}},{"attributes":{"ID":401849,"DIS_CODE":0,"TOWNNAME":"永康區","LI":"復國里","LIN":"30鄰","STREET":"復國一路","SECT":" ","MAREA":" ","LANE":"１７３巷","ALLEY":" ","HOUSE_NO":"５８號","E_COORD97":172559.12,"N_COORD97":2545227.7599999998,"ADDRESS":"復國一路１７３巷５８號","OBJECTID":401825},"geometry":{"x":172559.12000000197,"y":2545227.7599999998}},{"attributes":{"ID":401850,"DIS_CODE":0,"TOWNNAME":"永康區","LI":"復國里","LIN":"30鄰","STREET":"復國一路","SECT":" ","MAREA":" ","LANE":"１７３巷","ALLEY":" ","HOUSE_NO":"５０號","E_COORD97":172589.32000000001,"N_COORD97":2545226.0099999998,"ADDRESS":"復國一路１７３巷５０號","OBJECTID":401826},"geometry":{"x":172589.3200000003,"y":2545226.0099999998}},{"attributes":{"ID":401851,"DIS_CODE":0,"TOWNNAME":"中西區","LI":"建國里","LIN":"11鄰","STREET":"民生路","SECT":"一段","MAREA":" ","LANE":"１８１巷","ALLEY":" ","HOUSE_NO":"９號","E_COORD97":167995.13,"N_COORD97":2543811.02,"ADDRESS":"民生路一段１８１巷９號","OBJECTID":401827},"geometry":{"x":167995.12999999989,"y":2543811.0200000014}},{"attributes":{"ID":401852,"DIS_CODE":0,"TOWNNAME":"中西區","LI":"西賢里","LIN":"11鄰","STREET":"西賢一街","SECT":" ","MAREA":" ","LANE":"１８２巷","ALLEY":" ","HOUSE_NO":"３０號","E_COORD97":165770.26000000001,"N_COORD97":2544809.3300000001,"ADDRESS":"西賢一街１８２巷３０號","OBJECTID":401828},"geometry":{"x":165770.26000000164,"y":2544809.3300000019}},{"attributes":{"ID":401853,"DIS_CODE":0,"TOWNNAME":"中西區","LI":"西賢里","LIN":"11鄰","STREET":"西賢一街","SECT":" ","MAREA":" ","LANE":"１８２巷","ALLEY":" ","HOUSE_NO":"３２號","E_COORD97":165770.51000000001,"N_COORD97":2544800.8199999998,"ADDRESS":"西賢一街１８２巷３２號","OBJECTID":401829},"geometry":{"x":165770.51000000071,"y":2544800.8200000003}},{"attributes":{"ID":401854,"DIS_CODE":0,"TOWNNAME":"中西區","LI":"西賢里","LIN":"11鄰","STREET":"西賢一街","SECT":" ","MAREA":" ","LANE":"１８２巷","ALLEY":" ","HOUSE_NO":"３６號","E_COORD97":165771.01999999999,"N_COORD97":2544793.3300000001,"ADDRESS":"西賢一街１８２巷３６號","OBJECTID":401830},"geometry":{"x":165771.01999999955,"y":2544793.3300000019}},{"attributes":{"ID":401855,"DIS_CODE":0,"TOWNNAME":"中西區","LI":"西賢里","LIN":"11鄰","STREET":"西賢一街","SECT":" ","MAREA":" ","LANE":"１８２巷","ALLEY":" ","HOUSE_NO":"３８號","E_COORD97":165771.28,"N_COORD97":2544787.48,"ADDRESS":"西賢一街１８２巷３８號","OBJECTID":401831},"geometry":{"x":165771.28000000119,"y":2544787.4799999986}},{"attributes":{"ID":401856,"DIS_CODE":0,"TOWNNAME":"中西區","LI":"西賢里","LIN":"11鄰","STREET":"西賢一街","SECT":" ","MAREA":" ","LANE":"１８２巷","ALLEY":" ","HOUSE_NO":"４０號","E_COORD97":165771.14999999999,"N_COORD97":2544781.2599999998,"ADDRESS":"西賢一街１８２巷４０號","OBJECTID":401832},"geometry":{"x":165771.15000000037,"y":2544781.2599999998}},{"attributes":{"ID":401857,"DIS_CODE":0,"TOWNNAME":"中西區","LI":"西賢里","LIN":"11鄰","STREET":"西賢一街","SECT":" ","MAREA":" ","LANE":"１８２巷","ALLEY":" ","HOUSE_NO":"４２號","E_COORD97":165771.78,"N_COORD97":2544774.2799999998,"ADDRESS":"西賢一街１８２巷４２號","OBJECTID":401833},"geometry":{"x":165771.78000000026,"y":2544774.2800000031}},{"attributes":{"ID":401858,"DIS_CODE":0,"TOWNNAME":"中西區","LI":"西賢里","LIN":"11鄰","STREET":"西賢一街","SECT":" ","MAREA":" ","LANE":"１８２巷","ALLEY":" ","HOUSE_NO":"４６號","E_COORD97":165782.07000000001,"N_COORD97":2544774.9100000001,"ADDRESS":"西賢一街１８２巷４６號","OBJECTID":401834},"geometry":{"x":165782.0700000003,"y":2544774.910000002}},{"attributes":{"ID":401859,"DIS_CODE":0,"TOWNNAME":"中西區","LI":"西賢里","LIN":"11鄰","STREET":"西賢一街","SECT":" ","MAREA":" ","LANE":"１８２巷","ALLEY":" ","HOUSE_NO":"４８號","E_COORD97":165782.32000000001,"N_COORD97":2544781.2599999998,"ADDRESS":"西賢一街１８２巷４８號","OBJECTID":401835},"geometry":{"x":165782.32000000216,"y":2544781.2599999998}},{"attributes":{"ID":401860,"DIS_CODE":0,"TOWNNAME":"永康區","LI":"勝利里","LIN":"5鄰","STREET":"勝學路","SECT":" ","MAREA":" ","LANE":"６１巷","ALLEY":" ","HOUSE_NO":"２號","E_COORD97":171130.20999999999,"N_COORD97":2544744.75,"ADDRESS":"勝學路６１巷２號","OBJECTID":401836},"geometry":{"x":171130.20999999996,"y":2544744.7500000037}},{"attributes":{"ID":401861,"DIS_CODE":0,"TOWNNAME":"永康區","LI":"復華里","LIN":"24鄰","STREET":"復華八街","SECT":" ","MAREA":" ","LANE":"６０巷","ALLEY":" ","HOUSE_NO":"１０號","E_COORD97":172793.64000000001,"N_COORD97":2546333.1899999999,"ADDRESS":"復華八街６０巷１０號","OBJECTID":401837},"geometry":{"x":172793.63999999966,"y":2546333.1899999995}},{"attributes":{"ID":401862,"DIS_CODE":0,"TOWNNAME":"永康區","LI":"復華里","LIN":"14鄰","STREET":"國華街","SECT":" ","MAREA":" ","LANE":"９４巷","ALLEY":" ","HOUSE_NO":"２６號","E_COORD97":172929.12,"N_COORD97":2545889.5,"ADDRESS":"國華街９４巷２６號","OBJECTID":401838},"geometry":{"x":172929.12000000104,"y":2545889.5000000019}},{"attributes":{"ID":401863,"DIS_CODE":0,"TOWNNAME":"永康區","LI":"建國里","LIN":"8鄰","STREET":"復國一路","SECT":" ","MAREA":" ","LANE":"６巷","ALLEY":" ","HOUSE_NO":"７０號","E_COORD97":172811.92000000001,"N_COORD97":2544716.77,"ADDRESS":"復國一路６巷７０號","OBJECTID":401839},"geometry":{"x":172811.92000000086,"y":2544716.7699999977}},{"attributes":{"ID":401864,"DIS_CODE":0,"TOWNNAME":"永康區","LI":"復華里","LIN":"29鄰","STREET":"國華街","SECT":" ","MAREA":" ","LANE":"１２３巷","ALLEY":" ","HOUSE_NO":"１號","E_COORD97":172625.06,"N_COORD97":2546263.5,"ADDRESS":"國華街１２３巷１號","OBJECTID":401840},"geometry":{"x":172625.06000000145,"y":2546263.5000000019}},{"attributes":{"ID":401865,"DIS_CODE":0,"TOWNNAME":"永康區","LI":"復國里","LIN":"11鄰","STREET":"復國一路","SECT":" ","MAREA":" ","LANE":"２８０巷","ALLEY":" ","HOUSE_NO":"１３號","E_COORD97":172803.14000000001,"N_COORD97":2545518.3799999999,"ADDRESS":"復國一路２８０巷１３號","OBJECTID":401841},"geometry":{"x":172803.1400000006,"y":2545518.379999999}},{"attributes":{"ID":401866,"DIS_CODE":0,"TOWNNAME":"永康區","LI":"復國里","LIN":"11鄰","STREET":"復國一路","SECT":" ","MAREA":" ","LANE":"２７６巷","ALLEY":" ","HOUSE_NO":"２４號","E_COORD97":172848.04000000001,"N_COORD97":2545404.2999999998,"ADDRESS":"復國一路２７６巷２４號","OBJECTID":401842},"geometry":{"x":172848.04000000097,"y":2545404.3000000026}},{"attributes":{"ID":401867,"DIS_CODE":0,"TOWNNAME":"中西區","LI":"西賢里","LIN":"11鄰","STREET":"西賢一街","SECT":" ","MAREA":" ","LANE":"１８２巷","ALLEY":" ","HOUSE_NO":"５０號","E_COORD97":165782.57999999999,"N_COORD97":2544787.48,"ADDRESS":"西賢一街１８２巷５０號","OBJECTID":401843},"geometry":{"x":165782.58000000101,"y":2544787.4799999986}},{"attributes":{"ID":401868,"DIS_CODE":0,"TOWNNAME":"中西區","LI":"西賢里","LIN":"11鄰","STREET":"西賢一街","SECT":" ","MAREA":" ","LANE":"１８２巷","ALLEY":" ","HOUSE_NO":"５２號","E_COORD97":165782.20000000001,"N_COORD97":2544793.96,"ADDRESS":"西賢一街１８２巷５２號","OBJECTID":401844},"geometry":{"x":165782.20000000019,"y":2544793.9600000009}},{"attributes":{"ID":401869,"DIS_CODE":0,"TOWNNAME":"永康區","LI":"復華里","LIN":"30鄰","STREET":"復華八街","SECT":" ","MAREA":" ","LANE":"４７巷","ALLEY":" ","HOUSE_NO":"４５號","E_COORD97":172682.82000000001,"N_COORD97":2546372.52,"ADDRESS":"復華八街４７巷４５號","OBJECTID":401845},"geometry":{"x":172682.8200000003,"y":2546372.5199999996}},{"attributes":{"ID":401870,"DIS_CODE":0,"TOWNNAME":"永康區","LI":"復華里","LIN":"28鄰","STREET":"復華八街","SECT":" ","MAREA":" ","LANE":"４５巷","ALLEY":" ","HOUSE_NO":"１９號","E_COORD97":172704.06,"N_COORD97":2546339.8300000001,"ADDRESS":"復華八街４５巷１９號","OBJECTID":401846},"geometry":{"x":172704.05999999959,"y":2546339.8300000001}},{"attributes":{"ID":401871,"DIS_CODE":0,"TOWNNAME":"安南區","LI":"海東里","LIN":"11鄰","STREET":"海中街","SECT":" ","MAREA":" ","LANE":"５４巷","ALLEY":" ","HOUSE_NO":"１９號","E_COORD97":166524.54999999999,"N_COORD97":2548954.0899999999,"ADDRESS":"海中街５４巷１９號","OBJECTID":401847},"geometry":{"x":166524.55000000075,"y":2548954.0900000017}},{"attributes":{"ID":401872,"DIS_CODE":0,"TOWNNAME":"安南區","LI":"海東里","LIN":"11鄰","STREET":"海中街","SECT":" ","MAREA":" ","LANE":"５４巷","ALLEY":" ","HOUSE_NO":"２１號","E_COORD97":166528.73000000001,"N_COORD97":2548956.4399999999,"ADDRESS":"海中街５４巷２１號","OBJECTID":401848},"geometry":{"x":166528.73000000045,"y":2548956.4399999995}},{"attributes":{"ID":401873,"DIS_CODE":0,"TOWNNAME":"安南區","LI":"海東里","LIN":"11鄰","STREET":"海中街","SECT":" ","MAREA":" ","LANE":"５４巷","ALLEY":" ","HOUSE_NO":"２３號","E_COORD97":166532.60999999999,"N_COORD97":2548958.8599999999,"ADDRESS":"海中街５４巷２３號","OBJECTID":401849},"geometry":{"x":166532.61000000034,"y":2548958.8600000013}},{"attributes":{"ID":401874,"DIS_CODE":0,"TOWNNAME":"永康區","LI":"復華里","LIN":"33鄰","STREET":"復華十街","SECT":" ","MAREA":" ","LANE":"１１巷","ALLEY":" ","HOUSE_NO":"１２號","E_COORD97":172511.70000000001,"N_COORD97":2546228.5299999998,"ADDRESS":"復華十街１１巷１２號","OBJECTID":401850},"geometry":{"x":172511.70000000112,"y":2546228.5300000012}},{"attributes":{"ID":401875,"DIS_CODE":0,"TOWNNAME":"永康區","LI":"復華里","LIN":"29鄰","STREET":"國華街","SECT":" ","MAREA":" ","LANE":"１０３巷","ALLEY":" ","HOUSE_NO":"３號","E_COORD97":172618.07000000001,"N_COORD97":2546194.1499999999,"ADDRESS":"國華街１０３巷３號","OBJECTID":401851},"geometry":{"x":172618.07000000123,"y":2546194.1500000022}},{"attributes":{"ID":401876,"DIS_CODE":0,"TOWNNAME":"永康區","LI":"勝利里","LIN":"22鄰","STREET":"勝華街","SECT":" ","MAREA":" ","LANE":"３７巷","ALLEY":" ","HOUSE_NO":"１號","E_COORD97":171462.06,"N_COORD97":2545202.2599999998,"ADDRESS":"勝華街３７巷１號","OBJECTID":401852},"geometry":{"x":171462.05999999866,"y":2545202.2600000035}},{"attributes":{"ID":401877,"DIS_CODE":0,"TOWNNAME":"永康區","LI":"復國里","LIN":"5鄰","STREET":"復國一路","SECT":" ","MAREA":" ","LANE":"９０巷","ALLEY":" ","HOUSE_NO":"９號","E_COORD97":172746.76000000001,"N_COORD97":2544953.52,"ADDRESS":"復國一路９０巷９號","OBJECTID":401853},"geometry":{"x":172746.76000000071,"y":2544953.5200000014}},{"attributes":{"ID":401878,"DIS_CODE":0,"TOWNNAME":"永康區","LI":"復華里","LIN":"14鄰","STREET":"國華街","SECT":" ","MAREA":" ","LANE":"９４巷","ALLEY":" ","HOUSE_NO":"３４號","E_COORD97":172951.12,"N_COORD97":2545891,"ADDRESS":"國華街９４巷３４號","OBJECTID":401854},"geometry":{"x":172951.12000000104,"y":2545891}},{"attributes":{"ID":401879,"DIS_CODE":0,"TOWNNAME":"永康區","LI":"勝利里","LIN":"35鄰","STREET":"勝利街","SECT":" ","MAREA":" ","LANE":"２巷","ALLEY":" ","HOUSE_NO":"３９號","E_COORD97":171040.25,"N_COORD97":2544691.7599999998,"ADDRESS":"勝利街２巷３９號","OBJECTID":401855},"geometry":{"x":171040.25,"y":2544691.7600000016}},{"attributes":{"ID":401880,"DIS_CODE":0,"TOWNNAME":"永康區","LI":"復國里","LIN":"28鄰","STREET":"復國一路","SECT":" ","MAREA":" ","LANE":"２３７巷","ALLEY":" ","HOUSE_NO":"１號","E_COORD97":172713.59,"N_COORD97":2545411.2799999998,"ADDRESS":"復國一路２３７巷１號","OBJECTID":401856},"geometry":{"x":172713.59000000078,"y":2545411.2799999993}},{"attributes":{"ID":401881,"DIS_CODE":0,"TOWNNAME":"永康區","LI":"勝利里","LIN":"28鄰","STREET":"勝利街","SECT":" ","MAREA":" ","LANE":"３２巷","ALLEY":" ","HOUSE_NO":"１９號","E_COORD97":171391.14999999999,"N_COORD97":2544600.25,"ADDRESS":"勝利街３２巷１９號","OBJECTID":401857},"geometry":{"x":171391.15000000224,"y":2544600.2500000019}},{"attributes":{"ID":401882,"DIS_CODE":0,"TOWNNAME":"永康區","LI":"復華里","LIN":"29鄰","STREET":"國華街","SECT":" ","MAREA":" ","LANE":"１２３巷","ALLEY":" ","HOUSE_NO":"２３號","E_COORD97":172596.31,"N_COORD97":2546216.75,"ADDRESS":"國華街１２３巷２３號","OBJECTID":401858},"geometry":{"x":172596.31000000145,"y":2546216.7500000019}},{"attributes":{"ID":401883,"DIS_CODE":0,"TOWNNAME":"永康區","LI":"勝利里","LIN":"29鄰","STREET":"勝利街","SECT":" ","MAREA":" ","LANE":"３２巷","ALLEY":" ","HOUSE_NO":"７號","E_COORD97":171361.29999999999,"N_COORD97":2544604,"ADDRESS":"勝利街３２巷７號","OBJECTID":401859},"geometry":{"x":171361.30000000075,"y":2544604.0000000037}},{"attributes":{"ID":401884,"DIS_CODE":0,"TOWNNAME":"永康區","LI":"復華里","LIN":"24鄰","STREET":"復華八街","SECT":" ","MAREA":" ","LANE":"６０巷","ALLEY":" ","HOUSE_NO":"８號","E_COORD97":172786.75,"N_COORD97":2546334.1899999999,"ADDRESS":"復華八街６０巷８號","OBJECTID":401860},"geometry":{"x":172786.75,"y":2546334.1899999995}},{"attributes":{"ID":401885,"DIS_CODE":0,"TOWNNAME":"永康區","LI":"復華里","LIN":"24鄰","STREET":"復華八街","SECT":" ","MAREA":" ","LANE":"６０巷","ALLEY":" ","HOUSE_NO":"１２號","E_COORD97":172798.70999999999,"N_COORD97":2546332.9399999999,"ADDRESS":"復華八街６０巷１２號","OBJECTID":401861},"geometry":{"x":172798.70999999996,"y":2546332.9400000032}},{"attributes":{"ID":401886,"DIS_CODE":0,"TOWNNAME":"永康區","LI":"復國里","LIN":"35鄰","STREET":"復國一路","SECT":" ","MAREA":" ","LANE":"１１３巷","ALLEY":" ","HOUSE_NO":"３號","E_COORD97":172678.60999999999,"N_COORD97":2545040.1800000002,"ADDRESS":"復國一路１１３巷３號","OBJECTID":401862},"geometry":{"x":172678.61000000127,"y":2545040.1800000016}},{"attributes":{"ID":401887,"DIS_CODE":0,"TOWNNAME":"永康區","LI":"復國里","LIN":"30鄰","STREET":"復國一路","SECT":" ","MAREA":" ","LANE":"１７３巷","ALLEY":" ","HOUSE_NO":"３８號","E_COORD97":172624,"N_COORD97":2545223.2999999998,"ADDRESS":"復國一路１７３巷３８號","OBJECTID":401863},"geometry":{"x":172624,"y":2545223.3000000045}},{"attributes":{"ID":401888,"DIS_CODE":0,"TOWNNAME":"永康區","LI":"勝利里","LIN":"13鄰","STREET":"勝利街","SECT":" ","MAREA":" ","LANE":"７５巷","ALLEY":" ","HOUSE_NO":"１５號","E_COORD97":171292.92999999999,"N_COORD97":2544743.25,"ADDRESS":"勝利街７５巷１５號","OBJECTID":401864},"geometry":{"x":171292.9299999997,"y":2544743.25}},{"attributes":{"ID":401889,"DIS_CODE":0,"TOWNNAME":"永康區","LI":"復國里","LIN":"4鄰","STREET":"復國一路","SECT":" ","MAREA":" ","LANE":"６８巷","ALLEY":" ","HOUSE_NO":"４１號","E_COORD97":172817.54000000001,"N_COORD97":2544880.7799999998,"ADDRESS":"復國一路６８巷４１號","OBJECTID":401865},"geometry":{"x":172817.54000000097,"y":2544880.7800000012}},{"attributes":{"ID":401890,"DIS_CODE":0,"TOWNNAME":"永康區","LI":"勝利里","LIN":"14鄰","STREET":"勝利街","SECT":" ","MAREA":" ","LANE":"７７巷","ALLEY":" ","HOUSE_NO":"２４號","E_COORD97":171247.85000000001,"N_COORD97":2544790.5099999998,"ADDRESS":"勝利街７７巷２４號","OBJECTID":401866},"geometry":{"x":171247.84999999963,"y":2544790.5100000016}},{"attributes":{"ID":401891,"DIS_CODE":0,"TOWNNAME":"永康區","LI":"復華里","LIN":"1鄰","STREET":"復國二路","SECT":" ","MAREA":" ","LANE":"２８０巷","ALLEY":" ","HOUSE_NO":"２２號","E_COORD97":173068.79000000001,"N_COORD97":2546093.25,"ADDRESS":"復國二路２８０巷２２號","OBJECTID":401867},"geometry":{"x":173068.79000000097,"y":2546093.25}},{"attributes":{"ID":401892,"DIS_CODE":0,"TOWNNAME":"永康區","LI":"復華里","LIN":"4鄰","STREET":"復國二路","SECT":" ","MAREA":" ","LANE":"２６９巷","ALLEY":" ","HOUSE_NO":"９號","E_COORD97":173004.88,"N_COORD97":2546188.8100000001,"ADDRESS":"復國二路２６９巷９號","OBJECTID":401868},"geometry":{"x":173004.88000000082,"y":2546188.8100000005}},{"attributes":{"ID":401893,"DIS_CODE":0,"TOWNNAME":"永康區","LI":"復華里","LIN":"1鄰","STREET":"復國二路","SECT":" ","MAREA":" ","LANE":"２４４巷","ALLEY":" ","HOUSE_NO":"６號","E_COORD97":173014.28,"N_COORD97":2545914.5299999998,"ADDRESS":"復國二路２４４巷６號","OBJECTID":401869},"geometry":{"x":173014.28000000212,"y":2545914.5299999993}},{"attributes":{"ID":401894,"DIS_CODE":0,"TOWNNAME":"永康區","LI":"復國里","LIN":"33鄰","STREET":"復華一街","SECT":" ","MAREA":" ","LANE":"６６巷","ALLEY":" ","HOUSE_NO":"２號","E_COORD97":172544.81,"N_COORD97":2545108.25,"ADDRESS":"復華一街６６巷２號","OBJECTID":401870},"geometry":{"x":172544.80999999959,"y":2545108.2500000019}},{"attributes":{"ID":401895,"DIS_CODE":0,"TOWNNAME":"永康區","LI":"復華里","LIN":"28鄰","STREET":"復華八街","SECT":" ","MAREA":" ","LANE":"４７巷","ALLEY":" ","HOUSE_NO":"１５號","E_COORD97":172737.57999999999,"N_COORD97":2546369.71,"ADDRESS":"復華八街４７巷１５號","OBJECTID":401871},"geometry":{"x":172737.58000000101,"y":2546369.709999999}},{"attributes":{"ID":401896,"DIS_CODE":0,"TOWNNAME":"永康區","LI":"復國里","LIN":"11鄰","STREET":"復國一路","SECT":" ","MAREA":" ","LANE":"２７６巷","ALLEY":" ","HOUSE_NO":"３１號","E_COORD97":172805.44,"N_COORD97":2545449.52,"ADDRESS":"復國一路２７６巷３１號","OBJECTID":401872},"geometry":{"x":172805.44000000134,"y":2545449.5199999996}},{"attributes":{"ID":401897,"DIS_CODE":0,"TOWNNAME":"安南區","LI":"安慶里","LIN":"11鄰","STREET":"長溪路","SECT":"一段","MAREA":" ","LANE":"１６８巷","ALLEY":" ","HOUSE_NO":"２３號","E_COORD97":169040.01000000001,"N_COORD97":2548620.5299999998,"ADDRESS":"長溪路一段１６８巷２３號","OBJECTID":401873},"geometry":{"x":169040.00999999978,"y":2548620.5299999975}},{"attributes":{"ID":401898,"DIS_CODE":0,"TOWNNAME":"安南區","LI":"安慶里","LIN":"11鄰","STREET":"長溪路","SECT":"一段","MAREA":" ","LANE":"１６８巷","ALLEY":" ","HOUSE_NO":"２９號","E_COORD97":169027.89000000001,"N_COORD97":2548652.0499999998,"ADDRESS":"長溪路一段１６８巷２９號","OBJECTID":401874},"geometry":{"x":169027.8900000006,"y":2548652.0500000007}},{"attributes":{"ID":401899,"DIS_CODE":0,"TOWNNAME":"安南區","LI":"安慶里","LIN":"11鄰","STREET":"長溪路","SECT":"一段","MAREA":" ","LANE":"１６８巷","ALLEY":" ","HOUSE_NO":"３號","E_COORD97":169019.16,"N_COORD97":2548590.3599999999,"ADDRESS":"長溪路一段１６８巷３號","OBJECTID":401875},"geometry":{"x":169019.15999999922,"y":2548590.3599999994}},{"attributes":{"ID":401900,"DIS_CODE":0,"TOWNNAME":"安南區","LI":"安慶里","LIN":"11鄰","STREET":"長溪路","SECT":"一段","MAREA":" ","LANE":"１６８巷","ALLEY":" ","HOUSE_NO":"４１號","E_COORD97":169043.26999999999,"N_COORD97":2548663.6499999999,"ADDRESS":"長溪路一段１６８巷４１號","OBJECTID":401876},"geometry":{"x":169043.27000000142,"y":2548663.6500000004}},{"attributes":{"ID":401901,"DIS_CODE":0,"TOWNNAME":"永康區","LI":"復國里","LIN":"18鄰","STREET":"復國一路","SECT":" ","MAREA":" ","LANE":"３２２巷","ALLEY":" ","HOUSE_NO":"３號","E_COORD97":172785.88,"N_COORD97":2545632.27,"ADDRESS":"復國一路３２２巷３號","OBJECTID":401877},"geometry":{"x":172785.88000000175,"y":2545632.2700000033}},{"attributes":{"ID":401902,"DIS_CODE":0,"TOWNNAME":"永康區","LI":"勝利里","LIN":"39鄰","STREET":"勝華街","SECT":" ","MAREA":" ","LANE":"３７巷","ALLEY":" ","HOUSE_NO":"２０號","E_COORD97":171441.17999999999,"N_COORD97":2545167.6099999999,"ADDRESS":"勝華街３７巷２０號","OBJECTID":401878},"geometry":{"x":171441.18000000156,"y":2545167.6099999994}},{"attributes":{"ID":401903,"DIS_CODE":0,"TOWNNAME":"永康區","LI":"復國里","LIN":"14鄰","STREET":"復國二路","SECT":" ","MAREA":" ","LANE":"１３４巷","ALLEY":" ","HOUSE_NO":"１１號","E_COORD97":172937.63,"N_COORD97":2545574.77,"ADDRESS":"復國二路１３４巷１１號","OBJECTID":401879},"geometry":{"x":172937.63000000082,"y":2545574.7700000033}},{"attributes":{"ID":401904,"DIS_CODE":0,"TOWNNAME":"永康區","LI":"復華里","LIN":"1鄰","STREET":"復國二路","SECT":" ","MAREA":" ","LANE":"２４４巷","ALLEY":" ","HOUSE_NO":"８號","E_COORD97":173018.87,"N_COORD97":2545913.0299999998,"ADDRESS":"復國二路２４４巷８號","OBJECTID":401880},"geometry":{"x":173018.87000000104,"y":2545913.0300000012}},{"attributes":{"ID":401905,"DIS_CODE":0,"TOWNNAME":"永康區","LI":"復國里","LIN":"23鄰","STREET":"復國一路","SECT":" ","MAREA":" ","LANE":"３１５巷","ALLEY":" ","HOUSE_NO":"４０號","E_COORD97":172622.62,"N_COORD97":2545639.4900000002,"ADDRESS":"復國一路３１５巷４０號","OBJECTID":401881},"geometry":{"x":172622.62000000104,"y":2545639.4900000021}},{"attributes":{"ID":401906,"DIS_CODE":0,"TOWNNAME":"安南區","LI":"安慶里","LIN":"11鄰","STREET":"長溪路","SECT":"一段","MAREA":" ","LANE":"１６８巷","ALLEY":" ","HOUSE_NO":"４９號","E_COORD97":169047.37,"N_COORD97":2548676.5600000001,"ADDRESS":"長溪路一段１６８巷４９號","OBJECTID":401882},"geometry":{"x":169047.37000000104,"y":2548676.5600000024}},{"attributes":{"ID":401907,"DIS_CODE":0,"TOWNNAME":"安南區","LI":"安慶里","LIN":"11鄰","STREET":"長溪路","SECT":"一段","MAREA":" ","LANE":"１６８巷","ALLEY":" ","HOUSE_NO":"５號","E_COORD97":169023.87,"N_COORD97":2548591.3500000001,"ADDRESS":"長溪路一段１６８巷５號","OBJECTID":401883},"geometry":{"x":169023.87000000011,"y":2548591.3499999996}},{"attributes":{"ID":401908,"DIS_CODE":0,"TOWNNAME":"永康區","LI":"復華里","LIN":"25鄰","STREET":"復華八街","SECT":" ","MAREA":" ","LANE":"４９巷","ALLEY":" ","HOUSE_NO":"１１號","E_COORD97":172761.42999999999,"N_COORD97":2546412.2799999998,"ADDRESS":"復華八街４９巷１１號","OBJECTID":401884},"geometry":{"x":172761.4299999997,"y":2546412.2800000012}},{"attributes":{"ID":401909,"DIS_CODE":0,"TOWNNAME":"永康區","LI":"復華里","LIN":"25鄰","STREET":"復華八街","SECT":" ","MAREA":" ","LANE":"４９巷","ALLEY":" ","HOUSE_NO":"１９號","E_COORD97":172742.82999999999,"N_COORD97":2546413.0299999998,"ADDRESS":"復華八街４９巷１９號","OBJECTID":401885},"geometry":{"x":172742.83000000101,"y":2546413.0299999993}},{"attributes":{"ID":401910,"DIS_CODE":0,"TOWNNAME":"永康區","LI":"復國里","LIN":"32鄰","STREET":"復華一街","SECT":" ","MAREA":" ","LANE":"２８巷","ALLEY":" ","HOUSE_NO":"１號","E_COORD97":172635.70000000001,"N_COORD97":2545089.2799999998,"ADDRESS":"復華一街２８巷１號","OBJECTID":401886},"geometry":{"x":172635.70000000112,"y":2545089.2799999993}},{"attributes":{"ID":401911,"DIS_CODE":0,"TOWNNAME":"永康區","LI":"復華里","LIN":"29鄰","STREET":"國華街","SECT":" ","MAREA":" ","LANE":"１０３巷","ALLEY":" ","HOUSE_NO":"１號","E_COORD97":172620.42000000001,"N_COORD97":2546200,"ADDRESS":"國華街１０３巷１號","OBJECTID":401887},"geometry":{"x":172620.41999999993,"y":2546200}},{"attributes":{"ID":401912,"DIS_CODE":0,"TOWNNAME":"永康區","LI":"復國里","LIN":"23鄰","STREET":"復國一路","SECT":" ","MAREA":" ","LANE":"３１５巷","ALLEY":" ","HOUSE_NO":"２２號","E_COORD97":172668,"N_COORD97":2545637.0699999998,"ADDRESS":"復國一路３１５巷２２號","OBJECTID":401888},"geometry":{"x":172668,"y":2545637.0700000003}},{"attributes":{"ID":401913,"DIS_CODE":0,"TOWNNAME":"新市區","LI":"新和里","LIN":"11鄰","STREET":"仁愛街","SECT":" ","MAREA":" ","LANE":"１５２巷","ALLEY":" ","HOUSE_NO":"１號","E_COORD97":177592.32999999999,"N_COORD97":2552612.0299999998,"ADDRESS":"仁愛街１５２巷１號","OBJECTID":401889},"geometry":{"x":177592.33000000194,"y":2552612.0300000012}},{"attributes":{"ID":401914,"DIS_CODE":0,"TOWNNAME":"新市區","LI":"新市里","LIN":"11鄰","STREET":"中正路","SECT":" ","MAREA":" ","LANE":"３５６巷","ALLEY":" ","HOUSE_NO":"４號","E_COORD97":177603.73999999999,"N_COORD97":2553199.75,"ADDRESS":"中正路３５６巷４號","OBJECTID":401890},"geometry":{"x":177603.74000000115,"y":2553199.75}},{"attributes":{"ID":401915,"DIS_CODE":0,"TOWNNAME":"安南區","LI":"新順里","LIN":"11鄰","STREET":"安豐五街","SECT":" ","MAREA":" ","LANE":"１８６巷","ALLEY":" ","HOUSE_NO":"７號","E_COORD97":169821.64999999999,"N_COORD97":2549753.2599999998,"ADDRESS":"安豐五街１８６巷７號","OBJECTID":401891},"geometry":{"x":169821.6500000013,"y":2549753.2600000016}},{"attributes":{"ID":401916,"DIS_CODE":0,"TOWNNAME":"永康區","LI":"勝利里","LIN":"36鄰","STREET":"勝學路","SECT":" ","MAREA":" ","LANE":"６０巷","ALLEY":" ","HOUSE_NO":"３號","E_COORD97":171167.95999999999,"N_COORD97":2544740.5,"ADDRESS":"勝學路６０巷３號","OBJECTID":401892},"geometry":{"x":171167.95999999996,"y":2544740.5000000019}},{"attributes":{"ID":401917,"DIS_CODE":0,"TOWNNAME":"永康區","LI":"復華里","LIN":"14鄰","STREET":"國華街","SECT":" ","MAREA":" ","LANE":"９４巷","ALLEY":" ","HOUSE_NO":"１號","E_COORD97":172859.87,"N_COORD97":2545900,"ADDRESS":"國華街９４巷１號","OBJECTID":401893},"geometry":{"x":172859.87000000104,"y":2545900.0000000019}},{"attributes":{"ID":401918,"DIS_CODE":0,"TOWNNAME":"永康區","LI":"復華里","LIN":"1鄰","STREET":"復國二路","SECT":" ","MAREA":" ","LANE":"２７４巷","ALLEY":" ","HOUSE_NO":"１１號","E_COORD97":173069.07999999999,"N_COORD97":2546064.6899999999,"ADDRESS":"復國二路２７４巷１１號","OBJECTID":401894},"geometry":{"x":173069.08000000007,"y":2546064.6900000013}},{"attributes":{"ID":401919,"DIS_CODE":0,"TOWNNAME":"永康區","LI":"復國里","LIN":"33鄰","STREET":"復華一街","SECT":" ","MAREA":" ","LANE":"６６巷","ALLEY":" ","HOUSE_NO":"２８號","E_COORD97":172549.16,"N_COORD97":2545187.0299999998,"ADDRESS":"復華一街６６巷２８號","OBJECTID":401895},"geometry":{"x":172549.16000000108,"y":2545187.0300000012}},{"attributes":{"ID":401920,"DIS_CODE":0,"TOWNNAME":"永康區","LI":"復華里","LIN":"28鄰","STREET":"復華八街","SECT":" ","MAREA":" ","LANE":"４５巷","ALLEY":" ","HOUSE_NO":"１７號","E_COORD97":172715.57999999999,"N_COORD97":2546340.5800000001,"ADDRESS":"復華八街４５巷１７號","OBJECTID":401896},"geometry":{"x":172715.58000000101,"y":2546340.5800000019}},{"attributes":{"ID":401921,"DIS_CODE":0,"TOWNNAME":"永康區","LI":"復國里","LIN":"33鄰","STREET":"復華一街","SECT":" ","MAREA":" ","LANE":"６６巷","ALLEY":" ","HOUSE_NO":"１９號","E_COORD97":172532.60000000001,"N_COORD97":2545138.02,"ADDRESS":"復華一街６６巷１９號","OBJECTID":401897},"geometry":{"x":172532.59999999963,"y":2545138.0199999996}},{"attributes":{"ID":401922,"DIS_CODE":0,"TOWNNAME":"永康區","LI":"復華里","LIN":"3鄰","STREET":"復國二路","SECT":" ","MAREA":" ","LANE":"３４２巷","ALLEY":" ","HOUSE_NO":"１０號","E_COORD97":173066.19,"N_COORD97":2546184.1000000001,"ADDRESS":"復國二路３４２巷１０號","OBJECTID":401898},"geometry":{"x":173066.19000000134,"y":2546184.1000000015}},{"attributes":{"ID":401923,"DIS_CODE":0,"TOWNNAME":"永康區","LI":"復國里","LIN":"2鄰","STREET":"復國一路","SECT":" ","MAREA":" ","LANE":"６巷","ALLEY":" ","HOUSE_NO":"２７號","E_COORD97":172810.76000000001,"N_COORD97":2544740.9300000002,"ADDRESS":"復國一路６巷２７號","OBJECTID":401899},"geometry":{"x":172810.76000000071,"y":2544740.9300000016}},{"attributes":{"ID":401924,"DIS_CODE":0,"TOWNNAME":"永康區","LI":"復國里","LIN":"2鄰","STREET":"復國一路","SECT":" ","MAREA":" ","LANE":"２８巷","ALLEY":" ","HOUSE_NO":"１９號","E_COORD97":172780.5,"N_COORD97":2544773.98,"ADDRESS":"復國一路２８巷１９號","OBJECTID":401900},"geometry":{"x":172780.50000000093,"y":2544773.9799999986}},{"attributes":{"ID":401925,"DIS_CODE":0,"TOWNNAME":"永康區","LI":"復華里","LIN":"25鄰","STREET":"復華八街","SECT":" ","MAREA":" ","LANE":"４９巷","ALLEY":" ","HOUSE_NO":"２９號","E_COORD97":172719.35000000001,"N_COORD97":2546413.5299999998,"ADDRESS":"復華八街４９巷２９號","OBJECTID":401901},"geometry":{"x":172719.34999999963,"y":2546413.5300000031}},{"attributes":{"ID":401926,"DIS_CODE":0,"TOWNNAME":"永康區","LI":"復華里","LIN":"4鄰","STREET":"復國二路","SECT":" ","MAREA":" ","LANE":"２６９巷","ALLEY":" ","HOUSE_NO":"２１號","E_COORD97":172983.23999999999,"N_COORD97":2546193.8100000001,"ADDRESS":"復國二路２６９巷２１號","OBJECTID":401902},"geometry":{"x":172983.24000000022,"y":2546193.8100000024}},{"attributes":{"ID":401927,"DIS_CODE":0,"TOWNNAME":"永康區","LI":"復國里","LIN":"13鄰","STREET":"復華三街","SECT":" ","MAREA":" ","LANE":"１３巷","ALLEY":" ","HOUSE_NO":"２號","E_COORD97":172898.75,"N_COORD97":2545515.8100000001,"ADDRESS":"復華三街１３巷２號","OBJECTID":401903},"geometry":{"x":172898.75000000186,"y":2545515.8100000024}},{"attributes":{"ID":401928,"DIS_CODE":0,"TOWNNAME":"永康區","LI":"復華里","LIN":"24鄰","STREET":"復華八街","SECT":" ","MAREA":" ","LANE":"５６巷","ALLEY":" ","HOUSE_NO":"３０號","E_COORD97":172811.20999999999,"N_COORD97":2546259.6499999999,"ADDRESS":"復華八街５６巷３０號","OBJECTID":401904},"geometry":{"x":172811.21000000089,"y":2546259.6500000004}},{"attributes":{"ID":401929,"DIS_CODE":0,"TOWNNAME":"永康區","LI":"復華里","LIN":"1鄰","STREET":"復國二路","SECT":" ","MAREA":" ","LANE":"３３８巷","ALLEY":" ","HOUSE_NO":"８號","E_COORD97":173043.12,"N_COORD97":2546116.6899999999,"ADDRESS":"復國二路３３８巷８號","OBJECTID":401905},"geometry":{"x":173043.12000000011,"y":2546116.6899999995}},{"attributes":{"ID":401930,"DIS_CODE":0,"TOWNNAME":"永康區","LI":"復國里","LIN":"33鄰","STREET":"復華一街","SECT":" ","MAREA":" ","LANE":"６６巷","ALLEY":" ","HOUSE_NO":"５號","E_COORD97":172508.67000000001,"N_COORD97":2545113.77,"ADDRESS":"復華一街６６巷５號","OBJECTID":401906},"geometry":{"x":172508.66999999993,"y":2545113.7700000033}},{"attributes":{"ID":401931,"DIS_CODE":0,"TOWNNAME":"永康區","LI":"復華里","LIN":"12鄰","STREET":"國華街","SECT":" ","MAREA":" ","LANE":"１００巷","ALLEY":" ","HOUSE_NO":"１號","E_COORD97":172838.92999999999,"N_COORD97":2545995,"ADDRESS":"國華街１００巷１號","OBJECTID":401907},"geometry":{"x":172838.9299999997,"y":2545995.0000000019}},{"attributes":{"ID":401932,"DIS_CODE":0,"TOWNNAME":"永康區","LI":"復國里","LIN":"11鄰","STREET":"復國一路","SECT":" ","MAREA":" ","LANE":"２７６巷","ALLEY":" ","HOUSE_NO":"２７號","E_COORD97":172807.45999999999,"N_COORD97":2545458.52,"ADDRESS":"復國一路２７６巷２７號","OBJECTID":401908},"geometry":{"x":172807.46000000183,"y":2545458.5200000014}},{"attributes":{"ID":401933,"DIS_CODE":0,"TOWNNAME":"永康區","LI":"復國里","LIN":"4鄰","STREET":"復國一路","SECT":" ","MAREA":" ","LANE":"６８巷","ALLEY":" ","HOUSE_NO":"３４號","E_COORD97":172802.54000000001,"N_COORD97":2544861.2400000002,"ADDRESS":"復國一路６８巷３４號","OBJECTID":401909},"geometry":{"x":172802.54000000097,"y":2544861.2400000021}},{"attributes":{"ID":401934,"DIS_CODE":0,"TOWNNAME":"永康區","LI":"復國里","LIN":"35鄰","STREET":"復國一路","SECT":" ","MAREA":" ","LANE":"１０３巷","ALLEY":" ","HOUSE_NO":"１６號","E_COORD97":172655.07999999999,"N_COORD97":2545017.4500000002,"ADDRESS":"復國一路１０３巷１６號","OBJECTID":401910},"geometry":{"x":172655.08000000101,"y":2545017.450000003}},{"attributes":{"ID":401935,"DIS_CODE":0,"TOWNNAME":"永康區","LI":"復國里","LIN":"33鄰","STREET":"復華一街","SECT":" ","MAREA":" ","LANE":"３６巷","ALLEY":" ","HOUSE_NO":"５號","E_COORD97":172594.42999999999,"N_COORD97":2545120.77,"ADDRESS":"復華一街３６巷５號","OBJECTID":401911},"geometry":{"x":172594.43000000063,"y":2545120.7700000014}},{"attributes":{"ID":401936,"DIS_CODE":0,"TOWNNAME":"永康區","LI":"復國里","LIN":"23鄰","STREET":"復華三街","SECT":" ","MAREA":" ","LANE":"９０巷","ALLEY":" ","HOUSE_NO":"５３號","E_COORD97":172583.01000000001,"N_COORD97":2545680.0299999998,"ADDRESS":"復華三街９０巷５３號","OBJECTID":401912},"geometry":{"x":172583.00999999978,"y":2545680.0299999993}},{"attributes":{"ID":401937,"DIS_CODE":0,"TOWNNAME":"永康區","LI":"復國里","LIN":"23鄰","STREET":"復國一路","SECT":" ","MAREA":" ","LANE":"３２９巷","ALLEY":" ","HOUSE_NO":"５號","E_COORD97":172723.20000000001,"N_COORD97":2545659.02,"ADDRESS":"復國一路３２９巷５號","OBJECTID":401913},"geometry":{"x":172723.20000000112,"y":2545659.0200000014}},{"attributes":{"ID":401938,"DIS_CODE":0,"TOWNNAME":"永康區","LI":"復國里","LIN":"11鄰","STREET":"復國一路","SECT":" ","MAREA":" ","LANE":"２７６巷","ALLEY":" ","HOUSE_NO":"５３號","E_COORD97":172823.76999999999,"N_COORD97":2545461.27,"ADDRESS":"復國一路２７６巷５３號","OBJECTID":401914},"geometry":{"x":172823.77000000048,"y":2545461.2699999996}},{"attributes":{"ID":401939,"DIS_CODE":0,"TOWNNAME":"永康區","LI":"復國里","LIN":"2鄰","STREET":"復國一路","SECT":" ","MAREA":" ","LANE":"６巷","ALLEY":" ","HOUSE_NO":"１號","E_COORD97":172753.31,"N_COORD97":2544714.0299999998,"ADDRESS":"復國一路６巷１號","OBJECTID":401915},"geometry":{"x":172753.30999999959,"y":2544714.0299999993}},{"attributes":{"ID":401940,"DIS_CODE":0,"TOWNNAME":"永康區","LI":"勝利里","LIN":"13鄰","STREET":"勝利街","SECT":" ","MAREA":" ","LANE":"７５巷","ALLEY":" ","HOUSE_NO":"１９號","E_COORD97":171280.45000000001,"N_COORD97":2544746.5,"ADDRESS":"勝利街７５巷１９號","OBJECTID":401916},"geometry":{"x":171280.45000000205,"y":2544746.5000000037}},{"attributes":{"ID":401941,"DIS_CODE":0,"TOWNNAME":"永康區","LI":"復國里","LIN":"14鄰","STREET":"復國二路","SECT":" ","MAREA":" ","LANE":"１４０巷","ALLEY":" ","HOUSE_NO":"３號","E_COORD97":172922.20000000001,"N_COORD97":2545611.3300000001,"ADDRESS":"復國二路１４０巷３號","OBJECTID":401917},"geometry":{"x":172922.20000000112,"y":2545611.3300000001}},{"attributes":{"ID":401942,"DIS_CODE":0,"TOWNNAME":"永康區","LI":"復華里","LIN":"1鄰","STREET":"復國二路","SECT":" ","MAREA":" ","LANE":"２４４巷","ALLEY":" ","HOUSE_NO":"１４號","E_COORD97":173033.82000000001,"N_COORD97":2545908.0299999998,"ADDRESS":"復國二路２４４巷１４號","OBJECTID":401918},"geometry":{"x":173033.8200000003,"y":2545908.0299999993}},{"attributes":{"ID":401943,"DIS_CODE":0,"TOWNNAME":"永康區","LI":"復國里","LIN":"6鄰","STREET":"復國一路","SECT":" ","MAREA":" ","LANE":"１２０巷","ALLEY":" ","HOUSE_NO":"２７號","E_COORD97":172771.16,"N_COORD97":2545011.46,"ADDRESS":"復國一路１２０巷２７號","OBJECTID":401919},"geometry":{"x":172771.16000000108,"y":2545011.4600000009}},{"attributes":{"ID":401944,"DIS_CODE":0,"TOWNNAME":"永康區","LI":"復華里","LIN":"28鄰","STREET":"復華八街","SECT":" ","MAREA":" ","LANE":"４７巷","ALLEY":" ","HOUSE_NO":"１７號","E_COORD97":172733.04000000001,"N_COORD97":2546369.46,"ADDRESS":"復華八街４７巷１７號","OBJECTID":401920},"geometry":{"x":172733.04000000097,"y":2546369.4600000028}},{"attributes":{"ID":401945,"DIS_CODE":0,"TOWNNAME":"永康區","LI":"復華里","LIN":"28鄰","STREET":"復華八街","SECT":" ","MAREA":" ","LANE":"４７巷","ALLEY":" ","HOUSE_NO":"１９號","E_COORD97":172728.19,"N_COORD97":2546369.46,"ADDRESS":"復華八街４７巷１９號","OBJECTID":401921},"geometry":{"x":172728.19000000041,"y":2546369.4600000028}},{"attributes":{"ID":401946,"DIS_CODE":0,"TOWNNAME":"永康區","LI":"復國里","LIN":"23鄰","STREET":"復華三街","SECT":" ","MAREA":" ","LANE":"９０巷","ALLEY":" ","HOUSE_NO":"３１號","E_COORD97":172577.95999999999,"N_COORD97":2545639.02,"ADDRESS":"復華三街９０巷３１號","OBJECTID":401922},"geometry":{"x":172577.95999999996,"y":2545639.0200000014}},{"attributes":{"ID":401947,"DIS_CODE":0,"TOWNNAME":"永康區","LI":"復國里","LIN":"11鄰","STREET":"復國一路","SECT":" ","MAREA":" ","LANE":"２７６巷","ALLEY":" ","HOUSE_NO":"３３號","E_COORD97":172804.37,"N_COORD97":2545444.52,"ADDRESS":"復國一路２７６巷３３號","OBJECTID":401923},"geometry":{"x":172804.37000000011,"y":2545444.5200000014}},{"attributes":{"ID":401948,"DIS_CODE":0,"TOWNNAME":"永康區","LI":"復華里","LIN":"25鄰","STREET":"復華八街","SECT":" ","MAREA":" ","LANE":"４７巷","ALLEY":" ","HOUSE_NO":"６號","E_COORD97":172775.01999999999,"N_COORD97":2546384.77,"ADDRESS":"復華八街４７巷６號","OBJECTID":401924},"geometry":{"x":172775.02000000048,"y":2546384.7699999977}},{"attributes":{"ID":401949,"DIS_CODE":0,"TOWNNAME":"永康區","LI":"復國里","LIN":"32鄰","STREET":"復華一街","SECT":" ","MAREA":" ","LANE":"１９巷","ALLEY":" ","HOUSE_NO":"３１號","E_COORD97":172651.76000000001,"N_COORD97":2544966.7799999998,"ADDRESS":"復華一街１９巷３１號","OBJECTID":401925},"geometry":{"x":172651.76000000071,"y":2544966.7799999993}},{"attributes":{"ID":401950,"DIS_CODE":0,"TOWNNAME":"永康區","LI":"復國里","LIN":"24鄰","STREET":"復華三街","SECT":" ","MAREA":" ","LANE":"９０巷","ALLEY":" ","HOUSE_NO":"２２號","E_COORD97":172618.67999999999,"N_COORD97":2545607.0299999998,"ADDRESS":"復華三街９０巷２２號","OBJECTID":401926},"geometry":{"x":172618.6799999997,"y":2545607.0300000012}},{"attributes":{"ID":401951,"DIS_CODE":0,"TOWNNAME":"永康區","LI":"復國里","LIN":"11鄰","STREET":"復國一路","SECT":" ","MAREA":" ","LANE":"２７６巷","ALLEY":" ","HOUSE_NO":"２３號","E_COORD97":172809.01999999999,"N_COORD97":2545469.27,"ADDRESS":"復國一路２７６巷２３號","OBJECTID":401927},"geometry":{"x":172809.02000000048,"y":2545469.2699999996}},{"attributes":{"ID":401952,"DIS_CODE":0,"TOWNNAME":"永康區","LI":"復華里","LIN":"1鄰","STREET":"復國二路","SECT":" ","MAREA":" ","LANE":"２８０巷","ALLEY":" ","HOUSE_NO":"２４號","E_COORD97":173073.14000000001,"N_COORD97":2546093,"ADDRESS":"復國二路２８０巷２４號","OBJECTID":401928},"geometry":{"x":173073.13999999966,"y":2546093.0000000019}},{"attributes":{"ID":401953,"DIS_CODE":0,"TOWNNAME":"永康區","LI":"復華里","LIN":"1鄰","STREET":"復國二路","SECT":" ","MAREA":" ","LANE":"３３８巷","ALLEY":" ","HOUSE_NO":"１６號","E_COORD97":173061.76999999999,"N_COORD97":2546113.4399999999,"ADDRESS":"復國二路３３８巷１６號","OBJECTID":401929},"geometry":{"x":173061.77000000048,"y":2546113.4400000013}},{"attributes":{"ID":401954,"DIS_CODE":0,"TOWNNAME":"中西區","LI":"大涼里","LIN":"13鄰","STREET":"府前一街","SECT":" ","MAREA":" ","LANE":" ","ALLEY":" ","HOUSE_NO":"１２號","E_COORD97":166831.42000000001,"N_COORD97":2543704.79,"ADDRESS":"府前一街１２號","OBJECTID":401930},"geometry":{"x":166831.41999999993,"y":2543704.7899999991}},{"attributes":{"ID":401955,"DIS_CODE":0,"TOWNNAME":"永康區","LI":"復國里","LIN":"31鄰","STREET":"復國一路","SECT":" ","MAREA":" ","LANE":"１７３巷","ALLEY":" ","HOUSE_NO":"１７號","E_COORD97":172665.16,"N_COORD97":2545203.5299999998,"ADDRESS":"復國一路１７３巷１７號","OBJECTID":401931},"geometry":{"x":172665.16000000015,"y":2545203.5300000012}},{"attributes":{"ID":401956,"DIS_CODE":0,"TOWNNAME":"永康區","LI":"復國里","LIN":"21鄰","STREET":"復國一路","SECT":" ","MAREA":" ","LANE":"３４７巷","ALLEY":" ","HOUSE_NO":"１０號","E_COORD97":172729,"N_COORD97":2545809.5299999998,"ADDRESS":"復國一路３４７巷１０號","OBJECTID":401932},"geometry":{"x":172729,"y":2545809.5299999993}},{"attributes":{"ID":401957,"DIS_CODE":0,"TOWNNAME":"永康區","LI":"復國里","LIN":"23鄰","STREET":"復華三街","SECT":" ","MAREA":" ","LANE":"９０巷","ALLEY":" ","HOUSE_NO":"４９號","E_COORD97":172593.14000000001,"N_COORD97":2545679.7799999998,"ADDRESS":"復華三街９０巷４９號","OBJECTID":401933},"geometry":{"x":172593.1400000006,"y":2545679.7800000031}},{"attributes":{"ID":401958,"DIS_CODE":0,"TOWNNAME":"永康區","LI":"復國里","LIN":"2鄰","STREET":"復國一路","SECT":" ","MAREA":" ","LANE":"２８巷","ALLEY":" ","HOUSE_NO":"３７號","E_COORD97":172825.42000000001,"N_COORD97":2544782.1000000001,"ADDRESS":"復國一路２８巷３７號","OBJECTID":401934},"geometry":{"x":172825.42000000086,"y":2544782.0999999996}},{"attributes":{"ID":401959,"DIS_CODE":0,"TOWNNAME":"永康區","LI":"復華里","LIN":"25鄰","STREET":"復華八街","SECT":" ","MAREA":" ","LANE":"４７巷","ALLEY":" ","HOUSE_NO":"３８號","E_COORD97":172673.32000000001,"N_COORD97":2546385.7799999998,"ADDRESS":"復華八街４７巷３８號","OBJECTID":401935},"geometry":{"x":172673.32000000216,"y":2546385.7800000012}},{"attributes":{"ID":401960,"DIS_CODE":0,"TOWNNAME":"永康區","LI":"勝利里","LIN":"24鄰","STREET":"勝利街","SECT":" ","MAREA":" ","LANE":"９０巷","ALLEY":" ","HOUSE_NO":"３３號","E_COORD97":171434.03,"N_COORD97":2544751.5099999998,"ADDRESS":"勝利街９０巷３３號","OBJECTID":401936},"geometry":{"x":171434.03000000026,"y":2544751.5099999998}},{"attributes":{"ID":401961,"DIS_CODE":0,"TOWNNAME":"永康區","LI":"復華里","LIN":"1鄰","STREET":"復國二路","SECT":" ","MAREA":" ","LANE":"２８０巷","ALLEY":" ","HOUSE_NO":"２號","E_COORD97":173028.28,"N_COORD97":2546098.2599999998,"ADDRESS":"復國二路２８０巷２號","OBJECTID":401937},"geometry":{"x":173028.28000000119,"y":2546098.2600000016}},{"attributes":{"ID":401962,"DIS_CODE":0,"TOWNNAME":"永康區","LI":"勝利里","LIN":"35鄰","STREET":"勝利街","SECT":" ","MAREA":" ","LANE":"２巷","ALLEY":" ","HOUSE_NO":"４２號","E_COORD97":171053.23000000001,"N_COORD97":2544707,"ADDRESS":"勝利街２巷４２號","OBJECTID":401938},"geometry":{"x":171053.22999999952,"y":2544707.0000000019}},{"attributes":{"ID":401963,"DIS_CODE":0,"TOWNNAME":"永康區","LI":"復國里","LIN":"35鄰","STREET":"復國一路","SECT":" ","MAREA":" ","LANE":"１０３巷","ALLEY":" ","HOUSE_NO":"８號","E_COORD97":172672.17999999999,"N_COORD97":2545016.0699999998,"ADDRESS":"復國一路１０３巷８號","OBJECTID":401939},"geometry":{"x":172672.18000000063,"y":2545016.0700000003}},{"attributes":{"ID":401964,"DIS_CODE":0,"TOWNNAME":"永康區","LI":"復國里","LIN":"33鄰","STREET":"復華一街","SECT":" ","MAREA":" ","LANE":"６６巷","ALLEY":" ","HOUSE_NO":"３１號","E_COORD97":172504.04999999999,"N_COORD97":2545145.77,"ADDRESS":"復華一街６６巷３１號","OBJECTID":401940},"geometry":{"x":172504.05000000075,"y":2545145.7700000014}},{"attributes":{"ID":401965,"DIS_CODE":0,"TOWNNAME":"永康區","LI":"復國里","LIN":"30鄰","STREET":"復國一路","SECT":" ","MAREA":" ","LANE":"１７３巷","ALLEY":" ","HOUSE_NO":"４號","E_COORD97":172694.95999999999,"N_COORD97":2545261.27,"ADDRESS":"復國一路１７３巷４號","OBJECTID":401941},"geometry":{"x":172694.95999999996,"y":2545261.2699999996}},{"attributes":{"ID":401966,"DIS_CODE":0,"TOWNNAME":"永康區","LI":"復國里","LIN":"23鄰","STREET":"復國一路","SECT":" ","MAREA":" ","LANE":"３２９巷","ALLEY":" ","HOUSE_NO":"１號","E_COORD97":172733.31,"N_COORD97":2545658.77,"ADDRESS":"復國一路３２９巷１號","OBJECTID":401942},"geometry":{"x":172733.30999999959,"y":2545658.7699999996}},{"attributes":{"ID":401967,"DIS_CODE":0,"TOWNNAME":"永康區","LI":"復華里","LIN":"12鄰","STREET":"國華街","SECT":" ","MAREA":" ","LANE":"１００巷","ALLEY":" ","HOUSE_NO":"５號","E_COORD97":172852.39000000001,"N_COORD97":2545995.25,"ADDRESS":"國華街１００巷５號","OBJECTID":401943},"geometry":{"x":172852.3900000006,"y":2545995.25}},{"attributes":{"ID":401968,"DIS_CODE":0,"TOWNNAME":"永康區","LI":"復國里","LIN":"23鄰","STREET":"復華三街","SECT":" ","MAREA":" ","LANE":"９０巷","ALLEY":" ","HOUSE_NO":"２５號","E_COORD97":172592.20999999999,"N_COORD97":2545638.52,"ADDRESS":"復華三街９０巷２５號","OBJECTID":401944},"geometry":{"x":172592.21000000183,"y":2545638.5200000014}},{"attributes":{"ID":401969,"DIS_CODE":0,"TOWNNAME":"永康區","LI":"復華里","LIN":"16鄰","STREET":"國華街","SECT":" ","MAREA":" ","LANE":"９５巷","ALLEY":" ","HOUSE_NO":"８號","E_COORD97":172781.85000000001,"N_COORD97":2546044.9900000002,"ADDRESS":"國華街９５巷８號","OBJECTID":401945},"geometry":{"x":172781.84999999963,"y":2546044.9899999984}},{"attributes":{"ID":401970,"DIS_CODE":0,"TOWNNAME":"佳里區","LI":"東寧里","LIN":"11鄰","STREET":"文化路","SECT":" ","MAREA":" ","LANE":"１２８巷","ALLEY":" ","HOUSE_NO":"３號","E_COORD97":165967.79000000001,"N_COORD97":2562615.3700000001,"ADDRESS":"文化路１２８巷３號","OBJECTID":401946},"geometry":{"x":165967.79000000097,"y":2562615.370000001}},{"attributes":{"ID":401971,"DIS_CODE":0,"TOWNNAME":"佳里區","LI":"東寧里","LIN":"11鄰","STREET":"文化路","SECT":" ","MAREA":" ","LANE":"１２８巷","ALLEY":" ","HOUSE_NO":"５號","E_COORD97":165967.84,"N_COORD97":2562619.6400000001,"ADDRESS":"文化路１２８巷５號","OBJECTID":401947},"geometry":{"x":165967.83999999985,"y":2562619.6400000006}},{"attributes":{"ID":401972,"DIS_CODE":0,"TOWNNAME":"佳里區","LI":"東寧里","LIN":"11鄰","STREET":"文化路","SECT":" ","MAREA":" ","LANE":"１２８巷","ALLEY":" ","HOUSE_NO":"６號","E_COORD97":165994.39999999999,"N_COORD97":2562631.7999999998,"ADDRESS":"文化路１２８巷６號","OBJECTID":401948},"geometry":{"x":165994.4000000013,"y":2562631.8000000007}},{"attributes":{"ID":401973,"DIS_CODE":0,"TOWNNAME":"佳里區","LI":"東寧里","LIN":"11鄰","STREET":"文化路","SECT":" ","MAREA":" ","LANE":"１２８巷","ALLEY":" ","HOUSE_NO":"７號","E_COORD97":165967.82999999999,"N_COORD97":2562624.1699999999,"ADDRESS":"文化路１２８巷７號","OBJECTID":401949},"geometry":{"x":165967.83000000007,"y":2562624.1700000018}},{"attributes":{"ID":401974,"DIS_CODE":0,"TOWNNAME":"佳里區","LI":"東寧里","LIN":"11鄰","STREET":"文化路","SECT":" ","MAREA":" ","LANE":"１２８巷","ALLEY":" ","HOUSE_NO":"９號","E_COORD97":165966.76000000001,"N_COORD97":2562633.5299999998,"ADDRESS":"文化路１２８巷９號","OBJECTID":401950},"geometry":{"x":165966.75999999885,"y":2562633.5300000012}},{"attributes":{"ID":401975,"DIS_CODE":0,"TOWNNAME":"永康區","LI":"復國里","LIN":"2鄰","STREET":"復國一路","SECT":" ","MAREA":" ","LANE":"２８巷","ALLEY":" ","HOUSE_NO":"３２號","E_COORD97":172802.12,"N_COORD97":2544760.2999999998,"ADDRESS":"復國一路２８巷３２號","OBJECTID":401951},"geometry":{"x":172802.12000000104,"y":2544760.3000000026}},{"attributes":{"ID":401976,"DIS_CODE":0,"TOWNNAME":"永康區","LI":"復華里","LIN":"4鄰","STREET":"復國二路","SECT":" ","MAREA":" ","LANE":"２６９巷","ALLEY":" ","HOUSE_NO":"２３號","E_COORD97":172979.13,"N_COORD97":2546194.8100000001,"ADDRESS":"復國二路２６９巷２３號","OBJECTID":401952},"geometry":{"x":172979.13000000175,"y":2546194.8100000005}},{"attributes":{"ID":401977,"DIS_CODE":0,"TOWNNAME":"永康區","LI":"復國里","LIN":"4鄰","STREET":"復國一路","SECT":" ","MAREA":" ","LANE":"６８巷","ALLEY":" ","HOUSE_NO":"３８號","E_COORD97":172810.73999999999,"N_COORD97":2544861.4900000002,"ADDRESS":"復國一路６８巷３８號","OBJECTID":401953},"geometry":{"x":172810.74000000022,"y":2544861.4900000002}},{"attributes":{"ID":401978,"DIS_CODE":0,"TOWNNAME":"永康區","LI":"復華里","LIN":"25鄰","STREET":"復華八街","SECT":" ","MAREA":" ","LANE":"４９巷","ALLEY":" ","HOUSE_NO":"１６號","E_COORD97":172762.19,"N_COORD97":2546423.7799999998,"ADDRESS":"復華八街４９巷１６號","OBJECTID":401954},"geometry":{"x":172762.19000000041,"y":2546423.7799999993}},{"attributes":{"ID":401979,"DIS_CODE":0,"TOWNNAME":"永康區","LI":"復華里","LIN":"25鄰","STREET":"復華八街","SECT":" ","MAREA":" ","LANE":"４７巷","ALLEY":" ","HOUSE_NO":"２８號","E_COORD97":172725.38,"N_COORD97":2546385.52,"ADDRESS":"復華八街４７巷２８號","OBJECTID":401955},"geometry":{"x":172725.38000000082,"y":2546385.5199999996}},{"attributes":{"ID":401980,"DIS_CODE":0,"TOWNNAME":"永康區","LI":"復國里","LIN":"13鄰","STREET":"復華三街","SECT":" ","MAREA":" ","LANE":"１３巷","ALLEY":" ","HOUSE_NO":"６號","E_COORD97":172897.45000000001,"N_COORD97":2545511.0600000001,"ADDRESS":"復華三街１３巷６號","OBJECTID":401956},"geometry":{"x":172897.45000000019,"y":2545511.0600000024}},{"attributes":{"ID":401981,"DIS_CODE":0,"TOWNNAME":"永康區","LI":"勝利里","LIN":"24鄰","STREET":"勝利街","SECT":" ","MAREA":" ","LANE":"９０巷","ALLEY":" ","HOUSE_NO":"３１號","E_COORD97":171430.26000000001,"N_COORD97":2544752.0099999998,"ADDRESS":"勝利街９０巷３１號","OBJECTID":401957},"geometry":{"x":171430.25999999978,"y":2544752.0099999998}},{"attributes":{"ID":401982,"DIS_CODE":0,"TOWNNAME":"永康區","LI":"復國里","LIN":"14鄰","STREET":"復國二路","SECT":" ","MAREA":" ","LANE":"１３４巷","ALLEY":" ","HOUSE_NO":"６號","E_COORD97":172913.01999999999,"N_COORD97":2545568.77,"ADDRESS":"復國二路１３４巷６號","OBJECTID":401958},"geometry":{"x":172913.01999999955,"y":2545568.7700000014}},{"attributes":{"ID":401983,"DIS_CODE":0,"TOWNNAME":"永康區","LI":"復華里","LIN":"33鄰","STREET":"復華十街","SECT":" ","MAREA":" ","LANE":"１１巷","ALLEY":" ","HOUSE_NO":"１６號","E_COORD97":172505.98999999999,"N_COORD97":2546220.2799999998,"ADDRESS":"復華十街１１巷１６號","OBJECTID":401959},"geometry":{"x":172505.99000000115,"y":2546220.2800000012}},{"attributes":{"ID":401984,"DIS_CODE":0,"TOWNNAME":"永康區","LI":"復華里","LIN":"33鄰","STREET":"忠孝路","SECT":" ","MAREA":" ","LANE":"３５２巷","ALLEY":" ","HOUSE_NO":"４號","E_COORD97":172445.67999999999,"N_COORD97":2546321.25,"ADDRESS":"忠孝路３５２巷４號","OBJECTID":401960},"geometry":{"x":172445.6799999997,"y":2546321.2500000037}},{"attributes":{"ID":401985,"DIS_CODE":0,"TOWNNAME":"永康區","LI":"成功里","LIN":"11鄰","STREET":"忠孝路","SECT":" ","MAREA":" ","LANE":"１９９巷","ALLEY":" ","HOUSE_NO":"２５號","E_COORD97":172027.89999999999,"N_COORD97":2544852,"ADDRESS":"忠孝路１９９巷２５號","OBJECTID":401961},"geometry":{"x":172027.90000000037,"y":2544852.0000000019}},{"attributes":{"ID":401986,"DIS_CODE":0,"TOWNNAME":"永康區","LI":"埔園里","LIN":"11鄰","STREET":"中山路","SECT":" ","MAREA":" ","LANE":"１５５巷","ALLEY":" ","HOUSE_NO":"１６號","E_COORD97":173646.79999999999,"N_COORD97":2547931.2400000002,"ADDRESS":"中山路１５５巷１６號","OBJECTID":401962},"geometry":{"x":173646.79999999981,"y":2547931.2400000002}},{"attributes":{"ID":401987,"DIS_CODE":0,"TOWNNAME":"永康區","LI":"勝利里","LIN":"22鄰","STREET":"勝華街","SECT":" ","MAREA":" ","LANE":"３７巷","ALLEY":" ","HOUSE_NO":"１１號","E_COORD97":171461.62,"N_COORD97":2545179.0099999998,"ADDRESS":"勝華街３７巷１１號","OBJECTID":401963},"geometry":{"x":171461.62000000011,"y":2545179.0099999998}},{"attributes":{"ID":401988,"DIS_CODE":0,"TOWNNAME":"永康區","LI":"神洲里","LIN":"11鄰","STREET":"忠孝路","SECT":" ","MAREA":" ","LANE":"１５２巷","ALLEY":" ","HOUSE_NO":"３０號","E_COORD97":172218.85000000001,"N_COORD97":2545071.25,"ADDRESS":"忠孝路１５２巷３０號","OBJECTID":401964},"geometry":{"x":172218.84999999963,"y":2545071.2500000019}},{"attributes":{"ID":401989,"DIS_CODE":0,"TOWNNAME":"永康區","LI":"復國里","LIN":"18鄰","STREET":"復國一路","SECT":" ","MAREA":" ","LANE":"３２２巷","ALLEY":" ","HOUSE_NO":"５號","E_COORD97":172790.98000000001,"N_COORD97":2545632.02,"ADDRESS":"復國一路３２２巷５號","OBJECTID":401965},"geometry":{"x":172790.98000000231,"y":2545632.0200000014}},{"attributes":{"ID":401990,"DIS_CODE":0,"TOWNNAME":"永康區","LI":"復華里","LIN":"40鄰","STREET":"復華七街","SECT":" ","MAREA":" ","LANE":"３２巷","ALLEY":" ","HOUSE_NO":"１６號","E_COORD97":172671.35000000001,"N_COORD97":2545946.0699999998,"ADDRESS":"復華七街３２巷１６號","OBJECTID":401966},"geometry":{"x":172671.35000000056,"y":2545946.0700000003}},{"attributes":{"ID":401991,"DIS_CODE":0,"TOWNNAME":"永康區","LI":"復華里","LIN":"14鄰","STREET":"國華街","SECT":" ","MAREA":" ","LANE":"９４巷","ALLEY":" ","HOUSE_NO":"２２號","E_COORD97":172917.95999999999,"N_COORD97":2545889.5,"ADDRESS":"國華街９４巷２２號","OBJECTID":401967},"geometry":{"x":172917.96000000089,"y":2545889.5000000019}},{"attributes":{"ID":401992,"DIS_CODE":0,"TOWNNAME":"永康區","LI":"勝利里","LIN":"15鄰","STREET":"勝利街","SECT":" ","MAREA":" ","LANE":"９５巷","ALLEY":" ","HOUSE_NO":"２號","E_COORD97":171347.73999999999,"N_COORD97":2544865.7599999998,"ADDRESS":"勝利街９５巷２號","OBJECTID":401968},"geometry":{"x":171347.74000000022,"y":2544865.7599999998}},{"attributes":{"ID":401993,"DIS_CODE":0,"TOWNNAME":"永康區","LI":"復國里","LIN":"6鄰","STREET":"復國一路","SECT":" ","MAREA":" ","LANE":"１２０巷","ALLEY":" ","HOUSE_NO":"３１號","E_COORD97":172779.66,"N_COORD97":2545011.21,"ADDRESS":"復國一路１２０巷３１號","OBJECTID":401969},"geometry":{"x":172779.66000000108,"y":2545011.2100000028}},{"attributes":{"ID":401994,"DIS_CODE":0,"TOWNNAME":"永康區","LI":"復國里","LIN":"11鄰","STREET":"復國一路","SECT":" ","MAREA":" ","LANE":"２７６巷","ALLEY":" ","HOUSE_NO":"２２號","E_COORD97":172842.51000000001,"N_COORD97":2545404.5499999998,"ADDRESS":"復國一路２７６巷２２號","OBJECTID":401970},"geometry":{"x":172842.51000000164,"y":2545404.5500000045}},{"attributes":{"ID":401995,"DIS_CODE":0,"TOWNNAME":"永康區","LI":"復國里","LIN":"11鄰","STREET":"復國一路","SECT":" ","MAREA":" ","LANE":"２７６巷","ALLEY":" ","HOUSE_NO":"５１號","E_COORD97":172822.53,"N_COORD97":2545455.77,"ADDRESS":"復國一路２７６巷５１號","OBJECTID":401971},"geometry":{"x":172822.53000000212,"y":2545455.7699999996}},{"attributes":{"ID":401996,"DIS_CODE":0,"TOWNNAME":"永康區","LI":"復國里","LIN":"11鄰","STREET":"復國一路","SECT":" ","MAREA":" ","LANE":"２８０巷","ALLEY":" ","HOUSE_NO":"６號","E_COORD97":172835.35000000001,"N_COORD97":2545472.2000000002,"ADDRESS":"復國一路２８０巷６號","OBJECTID":401972},"geometry":{"x":172835.35000000056,"y":2545472.1999999993}},{"attributes":{"ID":401997,"DIS_CODE":0,"TOWNNAME":"永康區","LI":"東橋里","LIN":"11鄰","STREET":"中山南路","SECT":" ","MAREA":" ","LANE":"２３１巷","ALLEY":" ","HOUSE_NO":"１９號","E_COORD97":171614.29999999999,"N_COORD97":2546256.1499999999,"ADDRESS":"中山南路２３１巷１９號","OBJECTID":401973},"geometry":{"x":171614.29999999981,"y":2546256.1500000022}},{"attributes":{"ID":401998,"DIS_CODE":0,"TOWNNAME":"永康區","LI":"尚頂里","LIN":"11鄰","STREET":"正南一街","SECT":" ","MAREA":" ","LANE":"５７巷","ALLEY":" ","HOUSE_NO":"４８號","E_COORD97":171233.54000000001,"N_COORD97":2547255.3399999999,"ADDRESS":"正南一街５７巷４８號","OBJECTID":401974},"geometry":{"x":171233.54000000004,"y":2547255.3399999999}},{"attributes":{"ID":401999,"DIS_CODE":0,"TOWNNAME":"永康區","LI":"尚頂里","LIN":"11鄰","STREET":"正南一街","SECT":" ","MAREA":" ","LANE":"５７巷","ALLEY":" ","HOUSE_NO":"５８號","E_COORD97":171268.10000000001,"N_COORD97":2547269.8900000001,"ADDRESS":"正南一街５７巷５８號","OBJECTID":401975},"geometry":{"x":171268.09999999963,"y":2547269.8900000006}},{"attributes":{"ID":402000,"DIS_CODE":0,"TOWNNAME":"永康區","LI":"尚頂里","LIN":"11鄰","STREET":"正南一街","SECT":" ","MAREA":" ","LANE":"５７巷","ALLEY":" ","HOUSE_NO":"２２號","E_COORD97":171161.07000000001,"N_COORD97":2547211.4700000002,"ADDRESS":"正南一街５７巷２２號","OBJECTID":401976},"geometry":{"x":171161.07000000216,"y":2547211.4700000007}},{"attributes":{"ID":402001,"DIS_CODE":0,"TOWNNAME":"永康區","LI":"尚頂里","LIN":"11鄰","STREET":"正南一街","SECT":" ","MAREA":" ","LANE":"５７巷","ALLEY":" ","HOUSE_NO":"１１號","E_COORD97":171191.44,"N_COORD97":2547252.8999999999,"ADDRESS":"正南一街５７巷１１號","OBJECTID":401977},"geometry":{"x":171191.44000000134,"y":2547252.9000000041}},{"attributes":{"ID":402002,"DIS_CODE":0,"TOWNNAME":"永康區","LI":"尚頂里","LIN":"11鄰","STREET":"正南一街","SECT":" ","MAREA":" ","LANE":"５７巷","ALLEY":" ","HOUSE_NO":"６２號","E_COORD97":171277.28,"N_COORD97":2547282.6899999999,"ADDRESS":"正南一街５７巷６２號","OBJECTID":401978},"geometry":{"x":171277.28000000119,"y":2547282.6899999995}},{"attributes":{"ID":402003,"DIS_CODE":0,"TOWNNAME":"永康區","LI":"尚頂里","LIN":"11鄰","STREET":"正南一街","SECT":" ","MAREA":" ","LANE":"５７巷","ALLEY":" ","HOUSE_NO":"９６號","E_COORD97":171378.10999999999,"N_COORD97":2547323.2200000002,"ADDRESS":"正南一街５７巷９６號","OBJECTID":401979},"geometry":{"x":171378.11000000127,"y":2547323.2200000025}},{"attributes":{"ID":402004,"DIS_CODE":0,"TOWNNAME":"永康區","LI":"勝利里","LIN":"36鄰","STREET":"勝學路","SECT":" ","MAREA":" ","LANE":"１０８巷","ALLEY":" ","HOUSE_NO":"７號","E_COORD97":171203.88,"N_COORD97":2544850.73,"ADDRESS":"勝學路１０８巷７號","OBJECTID":401980},"geometry":{"x":171203.87999999989,"y":2544850.7300000023}},{"attributes":{"ID":402005,"DIS_CODE":0,"TOWNNAME":"永康區","LI":"東橋里","LIN":"11鄰","STREET":"中山南路","SECT":" ","MAREA":" ","LANE":"２３１巷","ALLEY":" ","HOUSE_NO":"１７號","E_COORD97":171616.81,"N_COORD97":2546252.8999999999,"ADDRESS":"中山南路２３１巷１７號","OBJECTID":401981},"geometry":{"x":171616.81000000052,"y":2546252.9000000041}},{"attributes":{"ID":402006,"DIS_CODE":0,"TOWNNAME":"永康區","LI":"復國里","LIN":"3鄰","STREET":"復國一路","SECT":" ","MAREA":" ","LANE":"４４巷","ALLEY":" ","HOUSE_NO":"１１號","E_COORD97":172748.48999999999,"N_COORD97":2544841.5800000001,"ADDRESS":"復國一路４４巷１１號","OBJECTID":401982},"geometry":{"x":172748.49000000115,"y":2544841.5800000019}},{"attributes":{"ID":402007,"DIS_CODE":0,"TOWNNAME":"永康區","LI":"復國里","LIN":"32鄰","STREET":"復華一街","SECT":" ","MAREA":" ","LANE":"１９巷","ALLEY":" ","HOUSE_NO":"３號","E_COORD97":172649.57000000001,"N_COORD97":2545049.02,"ADDRESS":"復華一街１９巷３號","OBJECTID":401983},"geometry":{"x":172649.57000000216,"y":2545049.0200000014}},{"attributes":{"ID":402008,"DIS_CODE":0,"TOWNNAME":"永康區","LI":"復華里","LIN":"28鄰","STREET":"復華八街","SECT":" ","MAREA":" ","LANE":"４７巷","ALLEY":" ","HOUSE_NO":"１１號","E_COORD97":172747.44,"N_COORD97":2546369.46,"ADDRESS":"復華八街４７巷１１號","OBJECTID":401984},"geometry":{"x":172747.44000000134,"y":2546369.4600000028}},{"attributes":{"ID":402009,"DIS_CODE":0,"TOWNNAME":"永康區","LI":"復國里","LIN":"11鄰","STREET":"復國一路","SECT":" ","MAREA":" ","LANE":"２７６巷","ALLEY":" ","HOUSE_NO":"４５號","E_COORD97":172818.38,"N_COORD97":2545436.4500000002,"ADDRESS":"復國一路２７６巷４５號","OBJECTID":401985},"geometry":{"x":172818.38000000082,"y":2545436.4499999993}},{"attributes":{"ID":402010,"DIS_CODE":0,"TOWNNAME":"永康區","LI":"尚頂里","LIN":"11鄰","STREET":"正南一街","SECT":" ","MAREA":" ","LANE":"５７巷","ALLEY":" ","HOUSE_NO":"７６號","E_COORD97":171317.20999999999,"N_COORD97":2547298.5699999998,"ADDRESS":"正南一街５７巷７６號","OBJECTID":401986},"geometry":{"x":171317.20999999996,"y":2547298.5700000003}},{"attributes":{"ID":402011,"DIS_CODE":0,"TOWNNAME":"永康區","LI":"南灣里","LIN":"11鄰","STREET":"大灣路","SECT":" ","MAREA":" ","LANE":"５２８巷","ALLEY":" ","HOUSE_NO":"５號","E_COORD97":174647.42000000001,"N_COORD97":2544828.4199999999,"ADDRESS":"大灣路５２８巷５號","OBJECTID":401987},"geometry":{"x":174647.42000000086,"y":2544828.4200000037}},{"attributes":{"ID":402012,"DIS_CODE":0,"TOWNNAME":"永康區","LI":"東橋里","LIN":"11鄰","STREET":"中山南路","SECT":" ","MAREA":" ","LANE":"１９５巷","ALLEY":" ","HOUSE_NO":"４號","E_COORD97":171578.35999999999,"N_COORD97":2546190.8300000001,"ADDRESS":"中山南路１９５巷４號","OBJECTID":401988},"geometry":{"x":171578.36000000127,"y":2546190.8300000001}},{"attributes":{"ID":402013,"DIS_CODE":0,"TOWNNAME":"永康區","LI":"東橋里","LIN":"11鄰","STREET":"中山南路","SECT":" ","MAREA":" ","LANE":"２３１巷","ALLEY":" ","HOUSE_NO":"１３號","E_COORD97":171621.79999999999,"N_COORD97":2546245.9100000001,"ADDRESS":"中山南路２３１巷１３號","OBJECTID":401989},"geometry":{"x":171621.80000000168,"y":2546245.9100000039}},{"attributes":{"ID":402014,"DIS_CODE":0,"TOWNNAME":"永康區","LI":"東橋里","LIN":"11鄰","STREET":"中山南路","SECT":" ","MAREA":" ","LANE":"１９５巷","ALLEY":" ","HOUSE_NO":"１０號","E_COORD97":171562.22,"N_COORD97":2546216.1000000001,"ADDRESS":"中山南路１９５巷１０號","OBJECTID":401990},"geometry":{"x":171562.21999999974,"y":2546216.0999999996}},{"attributes":{"ID":402015,"DIS_CODE":0,"TOWNNAME":"永康區","LI":"南灣里","LIN":"11鄰","STREET":"大灣路","SECT":" ","MAREA":" ","LANE":"５２８巷","ALLEY":" ","HOUSE_NO":"３號","E_COORD97":174653.54000000001,"N_COORD97":2544808.9900000002,"ADDRESS":"大灣路５２８巷３號","OBJECTID":401991},"geometry":{"x":174653.54000000097,"y":2544808.9900000021}},{"attributes":{"ID":402016,"DIS_CODE":0,"TOWNNAME":"永康區","LI":"南灣里","LIN":"11鄰","STREET":"大灣路","SECT":" ","MAREA":" ","LANE":"５２８巷","ALLEY":" ","HOUSE_NO":"２號","E_COORD97":174658.12,"N_COORD97":2544816.2400000002,"ADDRESS":"大灣路５２８巷２號","OBJECTID":401992},"geometry":{"x":174658.12000000104,"y":2544816.2400000039}},{"attributes":{"ID":402017,"DIS_CODE":0,"TOWNNAME":"永康區","LI":"東橋里","LIN":"11鄰","STREET":"中山南路","SECT":" ","MAREA":" ","LANE":"１９５巷","ALLEY":" ","HOUSE_NO":"８號","E_COORD97":171565.22,"N_COORD97":2546210.1000000001,"ADDRESS":"中山南路１９５巷８號","OBJECTID":401993},"geometry":{"x":171565.22000000067,"y":2546210.1000000034}},{"attributes":{"ID":402018,"DIS_CODE":0,"TOWNNAME":"永康區","LI":"南灣里","LIN":"11鄰","STREET":"大灣路","SECT":" ","MAREA":" ","LANE":"５２８巷","ALLEY":" ","HOUSE_NO":"４號","E_COORD97":174649.88,"N_COORD97":2544820.4900000002,"ADDRESS":"大灣路５２８巷４號","OBJECTID":401994},"geometry":{"x":174649.87999999989,"y":2544820.4900000002}},{"attributes":{"ID":402019,"DIS_CODE":0,"TOWNNAME":"永康區","LI":"東橋里","LIN":"11鄰","STREET":"中山南路","SECT":" ","MAREA":" ","LANE":"２３１巷","ALLEY":" ","HOUSE_NO":"３３號","E_COORD97":171583.01999999999,"N_COORD97":2546269.6499999999,"ADDRESS":"中山南路２３１巷３３號","OBJECTID":401995},"geometry":{"x":171583.02000000048,"y":2546269.6500000022}},{"attributes":{"ID":402020,"DIS_CODE":0,"TOWNNAME":"永康區","LI":"復國里","LIN":"5鄰","STREET":"復國一路","SECT":" ","MAREA":" ","LANE":"９０巷","ALLEY":" ","HOUSE_NO":"１２號","E_COORD97":172748.72,"N_COORD97":2544891.2799999998,"ADDRESS":"復國一路９０巷１２號","OBJECTID":401996},"geometry":{"x":172748.71999999974,"y":2544891.2799999993}},{"attributes":{"ID":402021,"DIS_CODE":0,"TOWNNAME":"永康區","LI":"東橋里","LIN":"11鄰","STREET":"中山南路","SECT":" ","MAREA":" ","LANE":"２３１巷","ALLEY":" ","HOUSE_NO":"２９號","E_COORD97":171599.64999999999,"N_COORD97":2546276.8999999999,"ADDRESS":"中山南路２３１巷２９號","OBJECTID":401997},"geometry":{"x":171599.65000000224,"y":2546276.9000000022}},{"attributes":{"ID":402022,"DIS_CODE":0,"TOWNNAME":"永康區","LI":"東橋里","LIN":"11鄰","STREET":"中山南路","SECT":" ","MAREA":" ","LANE":"２３１巷","ALLEY":" ","HOUSE_NO":"３５號","E_COORD97":171579.41,"N_COORD97":2546267.1499999999,"ADDRESS":"中山南路２３１巷３５號","OBJECTID":401998},"geometry":{"x":171579.41000000108,"y":2546267.1500000004}},{"attributes":{"ID":402023,"DIS_CODE":0,"TOWNNAME":"永康區","LI":"東橋里","LIN":"11鄰","STREET":"中山南路","SECT":" ","MAREA":" ","LANE":"２３１巷","ALLEY":" ","HOUSE_NO":"２３號","E_COORD97":171606.35000000001,"N_COORD97":2546266.3999999999,"ADDRESS":"中山南路２３１巷２３號","OBJECTID":401999},"geometry":{"x":171606.35000000056,"y":2546266.4000000041}},{"attributes":{"ID":402024,"DIS_CODE":0,"TOWNNAME":"佳里區","LI":"建南里","LIN":"11鄰","STREET":"光復路","SECT":" ","MAREA":" ","LANE":"１２７巷","ALLEY":" ","HOUSE_NO":"１０號","E_COORD97":165478.56,"N_COORD97":2562053.3700000001,"ADDRESS":"光復路１２７巷１０號","OBJECTID":402000},"geometry":{"x":165478.56000000052,"y":2562053.3700000029}}]}