{"displayFieldName":"TOWNNAME","fieldAliases":{"ID":"ID","DIS_CODE":"DIS_CODE","TOWNNAME":"TOWNNAME","LI":"LI","LIN":"LIN","STREET":"STREET","SECT":"SECT","MAREA":"MAREA","LANE":"LANE","ALLEY":"ALLEY","HOUSE_NO":"HOUSE_NO","E_COORD97":"E_COORD97","N_COORD97":"N_COORD97","ADDRESS":"ADDRESS","OBJECTID":"OBJECTID"},"geometryType":"esriGeometryPoint","spatialReference":{"wkid":102443,"latestWkid":3826},"fields":[{"name":"ID","type":"esriFieldTypeDouble","alias":"ID"},{"name":"DIS_CODE","type":"esriFieldTypeInteger","alias":"DIS_CODE"},{"name":"TOWNNAME","type":"esriFieldTypeString","alias":"TOWNNAME","length":8},{"name":"LI","type":"esriFieldTypeString","alias":"LI","length":8},{"name":"LIN","type":"esriFieldTypeString","alias":"LIN","length":12},{"name":"STREET","type":"esriFieldTypeString","alias":"STREET","length":20},{"name":"SECT","type":"esriFieldTypeString","alias":"SECT","length":8},{"name":"MAREA","type":"esriFieldTypeString","alias":"MAREA","length":12},{"name":"LANE","type":"esriFieldTypeString","alias":"LANE","length":10},{"name":"ALLEY","type":"esriFieldTypeString","alias":"ALLEY","length":10},{"name":"HOUSE_NO","type":"esriFieldTypeString","alias":"HOUSE_NO","length":20},{"name":"E_COORD97","type":"esriFieldTypeDouble","alias":"E_COORD97"},{"name":"N_COORD97","type":"esriFieldTypeDouble","alias":"N_COORD97"},{"name":"ADDRESS","type":"esriFieldTypeString","alias":"ADDRESS","length":50},{"name":"OBJECTID","type":"esriFieldTypeOID","alias":"OBJECTID"}],"features":[{"attributes":{"ID":3001,"DIS_CODE":0,"TOWNNAME":"安南區","LI":"安和里","LIN":"2鄰","STREET":"府安路","SECT":"三段","MAREA":" ","LANE":" ","ALLEY":" ","HOUSE_NO":"２９０號","E_COORD97":169923.76631599999,"N_COORD97":2547773.6425600001,"ADDRESS":"府安路三段２９０號","OBJECTID":3001},"geometry":{"x":169923.7663160013,"y":2547773.6425600015}},{"attributes":{"ID":3002,"DIS_CODE":0,"TOWNNAME":"安平區","LI":"平安里","LIN":"23鄰","STREET":"安平路","SECT":" ","MAREA":" ","LANE":"４４６巷","ALLEY":"２７弄","HOUSE_NO":"２３號之３","E_COORD97":165226.24177299999,"N_COORD97":2544459.3361300002,"ADDRESS":"安平路４４６巷２７弄２３號之３","OBJECTID":3002},"geometry":{"x":165226.24177300185,"y":2544459.3361269981}},{"attributes":{"ID":3003,"DIS_CODE":0,"TOWNNAME":"歸仁區","LI":"南保里","LIN":"21鄰","STREET":"民權六街","SECT":" ","MAREA":" ","LANE":" ","ALLEY":" ","HOUSE_NO":"１１２號","E_COORD97":176665.17215999999,"N_COORD97":2541124.0787399998,"ADDRESS":"民權六街１１２號","OBJECTID":3003},"geometry":{"x":176665.17215999961,"y":2541124.078737}},{"attributes":{"ID":3004,"DIS_CODE":0,"TOWNNAME":"安南區","LI":"\u25A0田里","LIN":"1鄰","STREET":"\u25A0田路","SECT":" ","MAREA":" ","LANE":"３２９巷","ALLEY":"６弄","HOUSE_NO":"８號","E_COORD97":161980.48000000001,"N_COORD97":2548085.46,"ADDRESS":"\u25A0田路３２９巷６弄８號","OBJECTID":3004},"geometry":{"x":161980.48000000045,"y":2548085.4600000009}},{"attributes":{"ID":3005,"DIS_CODE":0,"TOWNNAME":"安平區","LI":"平安里","LIN":"23鄰","STREET":"安平路","SECT":" ","MAREA":" ","LANE":"４４６巷","ALLEY":"２７弄","HOUSE_NO":"２３號之４","E_COORD97":165226.24177299999,"N_COORD97":2544459.3361300002,"ADDRESS":"安平路４４６巷２７弄２３號之４","OBJECTID":3005},"geometry":{"x":165226.24177300185,"y":2544459.3361269981}},{"attributes":{"ID":3006,"DIS_CODE":0,"TOWNNAME":"仁德區","LI":"中洲里","LIN":"13鄰","STREET":" ","SECT":" ","MAREA":"中洲","LANE":" ","ALLEY":" ","HOUSE_NO":"３５６之５號","E_COORD97":173349.613831,"N_COORD97":2534187.0666999999,"ADDRESS":"中洲３５６之５號","OBJECTID":3006},"geometry":{"x":173349.61383100133,"y":2534187.0667000022}},{"attributes":{"ID":3007,"DIS_CODE":0,"TOWNNAME":"安平區","LI":"平安里","LIN":"23鄰","STREET":"安平路","SECT":" ","MAREA":" ","LANE":"４４６巷","ALLEY":" ","HOUSE_NO":"２８號之１","E_COORD97":165293.84027300001,"N_COORD97":2544399.64616,"ADDRESS":"安平路４４６巷２８號之１","OBJECTID":3007},"geometry":{"x":165293.84027300123,"y":2544399.6461590007}},{"attributes":{"ID":3008,"DIS_CODE":0,"TOWNNAME":"永康區","LI":"二王里","LIN":"39鄰","STREET":"中山南路","SECT":" ","MAREA":" ","LANE":"３１６巷","ALLEY":" ","HOUSE_NO":"３３號","E_COORD97":171927.84622499999,"N_COORD97":2546293.4480900001,"ADDRESS":"中山南路３１６巷３３號","OBJECTID":3008},"geometry":{"x":171927.84622500092,"y":2546293.4480930008}},{"attributes":{"ID":3009,"DIS_CODE":0,"TOWNNAME":"歸仁區","LI":"南保里","LIN":"21鄰","STREET":"民權六街","SECT":" ","MAREA":" ","LANE":"１１０巷","ALLEY":" ","HOUSE_NO":"１３號","E_COORD97":176665.17215999999,"N_COORD97":2541159.4270500001,"ADDRESS":"民權六街１１０巷１３號","OBJECTID":3009},"geometry":{"x":176665.17215999961,"y":2541159.4270510022}},{"attributes":{"ID":3010,"DIS_CODE":0,"TOWNNAME":"安平區","LI":"平安里","LIN":"23鄰","STREET":"安平路","SECT":" ","MAREA":" ","LANE":"４４６巷","ALLEY":" ","HOUSE_NO":"２８號之２","E_COORD97":165294.05218,"N_COORD97":2544399.8578300001,"ADDRESS":"安平路４４６巷２８號之２","OBJECTID":3010},"geometry":{"x":165294.05217999965,"y":2544399.8578260019}},{"attributes":{"ID":3011,"DIS_CODE":0,"TOWNNAME":"歸仁區","LI":"南保里","LIN":"21鄰","STREET":"民權六街","SECT":" ","MAREA":" ","LANE":"１１０巷","ALLEY":" ","HOUSE_NO":"１號","E_COORD97":176664.53645799999,"N_COORD97":2541130.4287299998,"ADDRESS":"民權六街１１０巷１號","OBJECTID":3011},"geometry":{"x":176664.53645799961,"y":2541130.4287340026}},{"attributes":{"ID":3012,"DIS_CODE":0,"TOWNNAME":"永康區","LI":"二王里","LIN":"39鄰","STREET":"中山南路","SECT":" ","MAREA":" ","LANE":"３１６巷","ALLEY":" ","HOUSE_NO":"３１號","E_COORD97":171921.489206,"N_COORD97":2546285.4047599998,"ADDRESS":"中山南路３１６巷３１號","OBJECTID":3012},"geometry":{"x":171921.48920600023,"y":2546285.4047640041}},{"attributes":{"ID":3013,"DIS_CODE":0,"TOWNNAME":"安平區","LI":"平安里","LIN":"23鄰","STREET":"安平路","SECT":" ","MAREA":" ","LANE":"４４６巷","ALLEY":" ","HOUSE_NO":"２８號之３","E_COORD97":165294.05218,"N_COORD97":2544399.64616,"ADDRESS":"安平路４４６巷２８號之３","OBJECTID":3013},"geometry":{"x":165294.05217999965,"y":2544399.6461590007}},{"attributes":{"ID":3014,"DIS_CODE":0,"TOWNNAME":"安平區","LI":"平安里","LIN":"23鄰","STREET":"安平路","SECT":" ","MAREA":" ","LANE":"４４６巷","ALLEY":" ","HOUSE_NO":"２８號之４","E_COORD97":165293.41645799999,"N_COORD97":2544399.8578300001,"ADDRESS":"安平路４４６巷２８號之４","OBJECTID":3014},"geometry":{"x":165293.41645800229,"y":2544399.8578260019}},{"attributes":{"ID":3015,"DIS_CODE":0,"TOWNNAME":"歸仁區","LI":"南保里","LIN":"21鄰","STREET":"民權六街","SECT":" ","MAREA":" ","LANE":"１１０巷","ALLEY":" ","HOUSE_NO":"３號","E_COORD97":176663.68885599999,"N_COORD97":2541135.93206,"ADDRESS":"民權六街１１０巷３號","OBJECTID":3015},"geometry":{"x":176663.68885600101,"y":2541135.9320640005}},{"attributes":{"ID":3016,"DIS_CODE":0,"TOWNNAME":"安南區","LI":"城西里","LIN":"6鄰","STREET":"城西街","SECT":"三段","MAREA":" ","LANE":" ","ALLEY":" ","HOUSE_NO":"４３１之９號","E_COORD97":157372.42770100001,"N_COORD97":2550881.3898999998,"ADDRESS":"城西街三段４３１之９號","OBJECTID":3016},"geometry":{"x":157372.42770100106,"y":2550881.3898949996}},{"attributes":{"ID":3017,"DIS_CODE":0,"TOWNNAME":"歸仁區","LI":"南保里","LIN":"21鄰","STREET":"民權南街","SECT":" ","MAREA":" ","LANE":"１１０巷","ALLEY":" ","HOUSE_NO":"５號","E_COORD97":176663.68885599999,"N_COORD97":2541141.4353900002,"ADDRESS":"民權南街１１０巷５號","OBJECTID":3017},"geometry":{"x":176663.68885600101,"y":2541141.435394004}},{"attributes":{"ID":3018,"DIS_CODE":0,"TOWNNAME":"安南區","LI":"城西里","LIN":"6鄰","STREET":"城西街","SECT":"三段","MAREA":" ","LANE":" ","ALLEY":" ","HOUSE_NO":"４３３之８號","E_COORD97":157397.63707200001,"N_COORD97":2550855.1432400001,"ADDRESS":"城西街三段４３３之８號","OBJECTID":3018},"geometry":{"x":157397.63707199972,"y":2550855.1432419997}},{"attributes":{"ID":3019,"DIS_CODE":0,"TOWNNAME":"中西區","LI":"文賢里","LIN":"7鄰","STREET":"文和街","SECT":" ","MAREA":" ","LANE":" ","ALLEY":" ","HOUSE_NO":"１５２號之２","E_COORD97":167038.17389100001,"N_COORD97":2544777.9879600001,"ADDRESS":"文和街 １５２號之２","OBJECTID":3019},"geometry":{"x":167038.17389100045,"y":2544777.9879600015}},{"attributes":{"ID":3020,"DIS_CODE":0,"TOWNNAME":"安南區","LI":"城南里","LIN":"16鄰","STREET":"青砂街","SECT":"一段","MAREA":" ","LANE":" ","ALLEY":" ","HOUSE_NO":"１６９之１１３號","E_COORD97":160342.26193899999,"N_COORD97":2552056.5509899999,"ADDRESS":"青砂街一段１６９之１１３號","OBJECTID":3020},"geometry":{"x":160342.26193900127,"y":2552056.550989002}},{"attributes":{"ID":3021,"DIS_CODE":0,"TOWNNAME":"歸仁區","LI":"南保里","LIN":"21鄰","STREET":"民權六街","SECT":" ","MAREA":" ","LANE":"１１０巷","ALLEY":" ","HOUSE_NO":"７號","E_COORD97":176663.47695499999,"N_COORD97":2541146.7270599999,"ADDRESS":"民權六街１１０巷７號","OBJECTID":3021},"geometry":{"x":176663.47695500124,"y":2541146.7270580046}},{"attributes":{"ID":3022,"DIS_CODE":0,"TOWNNAME":"歸仁區","LI":"南保里","LIN":"21鄰","STREET":"民權六街","SECT":" ","MAREA":" ","LANE":"１１０巷","ALLEY":" ","HOUSE_NO":"９號","E_COORD97":176662.629353,"N_COORD97":2541152.0187200001,"ADDRESS":"民權六街１１０巷９號","OBJECTID":3022},"geometry":{"x":176662.62935300171,"y":2541152.0187219996}},{"attributes":{"ID":3023,"DIS_CODE":0,"TOWNNAME":"歸仁區","LI":"南保里","LIN":"21鄰","STREET":"民權六街","SECT":" ","MAREA":" ","LANE":"１１０巷","ALLEY":" ","HOUSE_NO":"１１號","E_COORD97":176662.41745199999,"N_COORD97":2541156.4637199999,"ADDRESS":"民權六街１１０巷１１號","OBJECTID":3023},"geometry":{"x":176662.41745200194,"y":2541156.4637189992}},{"attributes":{"ID":3024,"DIS_CODE":0,"TOWNNAME":"安南區","LI":"城南里","LIN":"16鄰","STREET":"青砂街","SECT":"一段","MAREA":" ","LANE":" ","ALLEY":" ","HOUSE_NO":"１６７之１號","E_COORD97":160474.65876200001,"N_COORD97":2551843.40277,"ADDRESS":"青砂街一段１６７之１號","OBJECTID":3024},"geometry":{"x":160474.65876199957,"y":2551843.4027699996}},{"attributes":{"ID":3025,"DIS_CODE":0,"TOWNNAME":"安南區","LI":"城南里","LIN":"16鄰","STREET":"青砂街","SECT":"一段","MAREA":" ","LANE":" ","ALLEY":" ","HOUSE_NO":"１０３號之１","E_COORD97":160555.15603000001,"N_COORD97":2551689.5211900002,"ADDRESS":"青砂街一段１０３號之１","OBJECTID":3025},"geometry":{"x":160555.15603000019,"y":2551689.5211870018}},{"attributes":{"ID":3026,"DIS_CODE":0,"TOWNNAME":"安南區","LI":"安和里","LIN":"3鄰","STREET":"府安路","SECT":"三段","MAREA":" ","LANE":"２８９巷","ALLEY":" ","HOUSE_NO":"６號","E_COORD97":169909.156736,"N_COORD97":2547800.9475400001,"ADDRESS":"府安路三段２８９巷６號","OBJECTID":3026},"geometry":{"x":169909.15673600044,"y":2547800.9475450031}},{"attributes":{"ID":3027,"DIS_CODE":0,"TOWNNAME":"安南區","LI":"安和里","LIN":"3鄰","STREET":"府安路","SECT":"三段","MAREA":" ","LANE":"２８９巷","ALLEY":" ","HOUSE_NO":"１０號","E_COORD97":169898.99355000001,"N_COORD97":2547801.3708799998,"ADDRESS":"府安路三段２８９巷１０號","OBJECTID":3027},"geometry":{"x":169898.99355000164,"y":2547801.3708780017}},{"attributes":{"ID":3028,"DIS_CODE":0,"TOWNNAME":"安南區","LI":"安和里","LIN":"3鄰","STREET":"府安路","SECT":"三段","MAREA":" ","LANE":"２８９巷","ALLEY":" ","HOUSE_NO":"１２號","E_COORD97":169892.85329200001,"N_COORD97":2547801.1592100002,"ADDRESS":"府安路三段２８９巷１２號","OBJECTID":3028},"geometry":{"x":169892.85329200048,"y":2547801.1592120025}},{"attributes":{"ID":3029,"DIS_CODE":0,"TOWNNAME":"安南區","LI":"安和里","LIN":"3鄰","STREET":"府安路","SECT":"三段","MAREA":" ","LANE":"２８９巷","ALLEY":" ","HOUSE_NO":"１６號","E_COORD97":169888.40689799999,"N_COORD97":2547803.2758800001,"ADDRESS":"府安路三段２８９巷１６號","OBJECTID":3029},"geometry":{"x":169888.40689800028,"y":2547803.2758770008}},{"attributes":{"ID":3030,"DIS_CODE":0,"TOWNNAME":"安南區","LI":"安和里","LIN":"3鄰","STREET":"府安路","SECT":"三段","MAREA":" ","LANE":"２８９巷","ALLEY":" ","HOUSE_NO":"１８號","E_COORD97":169883.32530500001,"N_COORD97":2547804.1225399999,"ADDRESS":"府安路三段２８９巷１８號","OBJECTID":3030},"geometry":{"x":169883.32530499995,"y":2547804.1225440018}},{"attributes":{"ID":3031,"DIS_CODE":0,"TOWNNAME":"安南區","LI":"安和里","LIN":"3鄰","STREET":"府安路","SECT":"三段","MAREA":" ","LANE":"２８９巷","ALLEY":" ","HOUSE_NO":"２０號","E_COORD97":169876.973314,"N_COORD97":2547804.9692099998,"ADDRESS":"府安路三段２８９巷２０號","OBJECTID":3031},"geometry":{"x":169876.97331400122,"y":2547804.9692099988}},{"attributes":{"ID":3032,"DIS_CODE":0,"TOWNNAME":"安南區","LI":"城南里","LIN":"10鄰","STREET":"城西街","SECT":"一段","MAREA":" ","LANE":" ","ALLEY":" ","HOUSE_NO":"２８６之１號","E_COORD97":160268.11971900001,"N_COORD97":2551170.3031299999,"ADDRESS":"城西街一段２８６之１號","OBJECTID":3032},"geometry":{"x":160268.11971900146,"y":2551170.3031340018}},{"attributes":{"ID":3033,"DIS_CODE":0,"TOWNNAME":"安南區","LI":"安和里","LIN":"3鄰","STREET":"府安路","SECT":"三段","MAREA":" ","LANE":"２８９巷","ALLEY":" ","HOUSE_NO":"２２號","E_COORD97":169872.95038600001,"N_COORD97":2547805.8158800001,"ADDRESS":"府安路三段２８９巷２２號","OBJECTID":3033},"geometry":{"x":169872.9503860008,"y":2547805.8158759996}},{"attributes":{"ID":3034,"DIS_CODE":0,"TOWNNAME":"仁德區","LI":"田厝里","LIN":"4鄰","STREET":"保安路","SECT":"二段","MAREA":" ","LANE":"４７４巷","ALLEY":" ","HOUSE_NO":"１號","E_COORD97":172444.64180099999,"N_COORD97":2537499.6858899998,"ADDRESS":"保安路二段４７４巷１號","OBJECTID":3034},"geometry":{"x":172444.64180099871,"y":2537499.6858890019}},{"attributes":{"ID":3035,"DIS_CODE":0,"TOWNNAME":"安南區","LI":"安和里","LIN":"3鄰","STREET":"府安路","SECT":"三段","MAREA":" ","LANE":"２８９巷","ALLEY":" ","HOUSE_NO":"２６號","E_COORD97":169867.44532699999,"N_COORD97":2547806.87421,"ADDRESS":"府安路三段２８９巷２６號","OBJECTID":3035},"geometry":{"x":169867.44532699976,"y":2547806.8742090017}},{"attributes":{"ID":3036,"DIS_CODE":0,"TOWNNAME":"仁德區","LI":"田厝里","LIN":"4鄰","STREET":"保安路","SECT":"二段","MAREA":" ","LANE":" ","ALLEY":" ","HOUSE_NO":"４７６號","E_COORD97":172439.55778800001,"N_COORD97":2537509.2108800001,"ADDRESS":"保安路二段４７６號","OBJECTID":3036},"geometry":{"x":172439.55778800137,"y":2537509.2108840011}},{"attributes":{"ID":3037,"DIS_CODE":0,"TOWNNAME":"安南區","LI":"安和里","LIN":"3鄰","STREET":"府安路","SECT":"三段","MAREA":" ","LANE":"２８９巷","ALLEY":" ","HOUSE_NO":"２８號","E_COORD97":169861.72853399999,"N_COORD97":2547806.6625399999,"ADDRESS":"府安路三段２８９巷２８號","OBJECTID":3037},"geometry":{"x":169861.72853399999,"y":2547806.6625420004}},{"attributes":{"ID":3038,"DIS_CODE":0,"TOWNNAME":"安南區","LI":"安和里","LIN":"3鄰","STREET":"府安路","SECT":"三段","MAREA":" ","LANE":"２８９巷","ALLEY":" ","HOUSE_NO":"３０號","E_COORD97":169855.58827599999,"N_COORD97":2547808.3558700001,"ADDRESS":"府安路三段２８９巷３０號","OBJECTID":3038},"geometry":{"x":169855.58827600162,"y":2547808.3558750041}},{"attributes":{"ID":3039,"DIS_CODE":0,"TOWNNAME":"安南區","LI":"\u25A0田里","LIN":"1鄰","STREET":"\u25A0田路","SECT":" ","MAREA":" ","LANE":"３２９巷","ALLEY":"１０弄","HOUSE_NO":"９號","E_COORD97":161990.31719,"N_COORD97":2548019.7752499999,"ADDRESS":"\u25A0田路３２９巷１０弄９號","OBJECTID":3039},"geometry":{"x":161990.31718999986,"y":2548019.7752479985}},{"attributes":{"ID":3040,"DIS_CODE":0,"TOWNNAME":"安南區","LI":"安和里","LIN":"4鄰","STREET":"府安路","SECT":"三段","MAREA":" ","LANE":"２８９巷","ALLEY":" ","HOUSE_NO":"３２號","E_COORD97":169851.14188000001,"N_COORD97":2547808.9908699999,"ADDRESS":"府安路三段２８９巷３２號","OBJECTID":3040},"geometry":{"x":169851.14188000001,"y":2547808.9908700027}},{"attributes":{"ID":3041,"DIS_CODE":0,"TOWNNAME":"安南區","LI":"砂崙里","LIN":"3鄰","STREET":"城北路","SECT":" ","MAREA":" ","LANE":"８７１巷","ALLEY":"１５４弄","HOUSE_NO":"７２號","E_COORD97":160543.60999999999,"N_COORD97":2553438.7200000002,"ADDRESS":"城北路８７１巷１５４弄７２號","OBJECTID":3041},"geometry":{"x":160543.61000000034,"y":2553438.7200000044}},{"attributes":{"ID":3042,"DIS_CODE":0,"TOWNNAME":"仁德區","LI":"田厝里","LIN":"5鄰","STREET":"田厝三街","SECT":" ","MAREA":" ","LANE":" ","ALLEY":" ","HOUSE_NO":"２５號","E_COORD97":172428.966094,"N_COORD97":2537441.3717499999,"ADDRESS":"田厝三街２５號","OBJECTID":3042},"geometry":{"x":172428.96609400027,"y":2537441.371754}},{"attributes":{"ID":3043,"DIS_CODE":0,"TOWNNAME":"仁德區","LI":"中洲里","LIN":"10鄰","STREET":" ","SECT":" ","MAREA":"中洲","LANE":" ","ALLEY":" ","HOUSE_NO":"３０７之５０號","E_COORD97":173429.698367,"N_COORD97":2533922.6951799998,"ADDRESS":"中洲３０７之５０號","OBJECTID":3043},"geometry":{"x":173429.69836699963,"y":2533922.6951759998}},{"attributes":{"ID":3044,"DIS_CODE":0,"TOWNNAME":"仁德區","LI":"田厝里","LIN":"4鄰","STREET":"田厝三街","SECT":" ","MAREA":" ","LANE":"９３巷","ALLEY":"２４弄","HOUSE_NO":"９號","E_COORD97":172504.061201,"N_COORD97":2537507.5704700002,"ADDRESS":"田厝三街９３巷２４弄９號","OBJECTID":3044},"geometry":{"x":172504.06120100059,"y":2537507.5704680011}},{"attributes":{"ID":3045,"DIS_CODE":0,"TOWNNAME":"新市區","LI":"新和里","LIN":"41鄰","STREET":"信義街","SECT":" ","MAREA":" ","LANE":" ","ALLEY":" ","HOUSE_NO":"６３號","E_COORD97":177206.83555399999,"N_COORD97":2552859.8670000001,"ADDRESS":"信義街６３號","OBJECTID":3045},"geometry":{"x":177206.83555399999,"y":2552859.8669990003}},{"attributes":{"ID":3046,"DIS_CODE":0,"TOWNNAME":"安南區","LI":"安和里","LIN":"3鄰","STREET":"府安路","SECT":"三段","MAREA":" ","LANE":"２８９巷","ALLEY":" ","HOUSE_NO":"８號","E_COORD97":169904.71034200001,"N_COORD97":2547801.3708799998,"ADDRESS":"府安路三段２８９巷８號","OBJECTID":3046},"geometry":{"x":169904.71034199931,"y":2547801.3708780017}},{"attributes":{"ID":3047,"DIS_CODE":0,"TOWNNAME":"安南區","LI":"城南里","LIN":"4鄰","STREET":"城西街","SECT":"一段","MAREA":" ","LANE":" ","ALLEY":" ","HOUSE_NO":"１６７之１號","E_COORD97":160534.39620799999,"N_COORD97":2551283.3330700002,"ADDRESS":"城西街一段１６７之１號","OBJECTID":3047},"geometry":{"x":160534.3962080013,"y":2551283.3330729995}},{"attributes":{"ID":3048,"DIS_CODE":0,"TOWNNAME":"歸仁區","LI":"南興里","LIN":"40鄰","STREET":"民生六街","SECT":" ","MAREA":" ","LANE":" ","ALLEY":" ","HOUSE_NO":"２０號","E_COORD97":176190.86391700001,"N_COORD97":2540857.10696,"ADDRESS":"民生六街２０號","OBJECTID":3048},"geometry":{"x":176190.86391699966,"y":2540857.1069559995}},{"attributes":{"ID":3049,"DIS_CODE":0,"TOWNNAME":"安南區","LI":"安和里","LIN":"3鄰","STREET":"府安路","SECT":"三段","MAREA":" ","LANE":" ","ALLEY":" ","HOUSE_NO":"２８８號","E_COORD97":169930.33004100001,"N_COORD97":2547791.6342199999,"ADDRESS":"府安路三段２８８號","OBJECTID":3049},"geometry":{"x":169930.33004099969,"y":2547791.6342170015}},{"attributes":{"ID":3050,"DIS_CODE":0,"TOWNNAME":"安南區","LI":"安和里","LIN":"3鄰","STREET":"府安路","SECT":"三段","MAREA":" ","LANE":" ","ALLEY":" ","HOUSE_NO":"２８７號","E_COORD97":169932.44737099999,"N_COORD97":2547796.5025499999,"ADDRESS":"府安路三段２８７號","OBJECTID":3050},"geometry":{"x":169932.44737100042,"y":2547796.5025480017}},{"attributes":{"ID":3051,"DIS_CODE":0,"TOWNNAME":"安南區","LI":"安和里","LIN":"3鄰","STREET":"府安路","SECT":"三段","MAREA":" ","LANE":" ","ALLEY":" ","HOUSE_NO":"２８６號","E_COORD97":169934.352969,"N_COORD97":2547801.3708799998,"ADDRESS":"府安路三段２８６號","OBJECTID":3051},"geometry":{"x":169934.35296900012,"y":2547801.3708780017}},{"attributes":{"ID":3052,"DIS_CODE":0,"TOWNNAME":"安南區","LI":"\u25A0田里","LIN":"1鄰","STREET":"\u25A0田路","SECT":" ","MAREA":" ","LANE":"３９５巷","ALLEY":"５弄","HOUSE_NO":"５號","E_COORD97":161851.91771099999,"N_COORD97":2548064.0135599999,"ADDRESS":"\u25A0田路３９５巷５弄５號","OBJECTID":3052},"geometry":{"x":161851.91771099996,"y":2548064.0135580041}},{"attributes":{"ID":3053,"DIS_CODE":0,"TOWNNAME":"新市區","LI":"大社里","LIN":"17鄰","STREET":" ","SECT":" ","MAREA":"大社","LANE":" ","ALLEY":" ","HOUSE_NO":"７４３之３號","E_COORD97":180087.19701900001,"N_COORD97":2554247.85231,"ADDRESS":"大社７４３之３號","OBJECTID":3053},"geometry":{"x":180087.19701899961,"y":2554247.8523080014}},{"attributes":{"ID":3054,"DIS_CODE":0,"TOWNNAME":"安南區","LI":"安和里","LIN":"3鄰","STREET":"府安路","SECT":"三段","MAREA":" ","LANE":" ","ALLEY":" ","HOUSE_NO":"２７７號","E_COORD97":169942.187091,"N_COORD97":2547837.77752,"ADDRESS":"府安路三段２７７號","OBJECTID":3054},"geometry":{"x":169942.18709100131,"y":2547837.7775250003}},{"attributes":{"ID":3055,"DIS_CODE":0,"TOWNNAME":"安南區","LI":"安和里","LIN":"3鄰","STREET":"府安路","SECT":"三段","MAREA":" ","LANE":" ","ALLEY":" ","HOUSE_NO":"２７８號","E_COORD97":169941.34015900001,"N_COORD97":2547833.7558599999,"ADDRESS":"府安路三段２７８號","OBJECTID":3055},"geometry":{"x":169941.34015900083,"y":2547833.7558609992}},{"attributes":{"ID":3056,"DIS_CODE":0,"TOWNNAME":"安南區","LI":"安和里","LIN":"3鄰","STREET":"府安路","SECT":"三段","MAREA":" ","LANE":" ","ALLEY":" ","HOUSE_NO":"２７９號","E_COORD97":169940.493227,"N_COORD97":2547830.15753,"ADDRESS":"府安路三段２７９號","OBJECTID":3056},"geometry":{"x":169940.49322700035,"y":2547830.1575300004}},{"attributes":{"ID":3057,"DIS_CODE":0,"TOWNNAME":"安南區","LI":"安和里","LIN":"3鄰","STREET":"府安路","SECT":"三段","MAREA":" ","LANE":" ","ALLEY":" ","HOUSE_NO":"２８０號","E_COORD97":169938.799363,"N_COORD97":2547826.3475299999,"ADDRESS":"府安路三段２８０號","OBJECTID":3057},"geometry":{"x":169938.79936300032,"y":2547826.3475320023}},{"attributes":{"ID":3058,"DIS_CODE":0,"TOWNNAME":"安南區","LI":"安和里","LIN":"3鄰","STREET":"府安路","SECT":"三段","MAREA":" ","LANE":" ","ALLEY":" ","HOUSE_NO":"２８１號","E_COORD97":169936.89376499999,"N_COORD97":2547821.9025300001,"ADDRESS":"府安路三段２８１號","OBJECTID":3058},"geometry":{"x":169936.89376500063,"y":2547821.9025340024}},{"attributes":{"ID":3059,"DIS_CODE":0,"TOWNNAME":"中西區","LI":"文賢里","LIN":"2鄰","STREET":"文和街","SECT":" ","MAREA":" ","LANE":" ","ALLEY":" ","HOUSE_NO":"７４號之１","E_COORD97":167169.54000000001,"N_COORD97":2544890.8100000001,"ADDRESS":"文和街７４號之１","OBJECTID":3059},"geometry":{"x":167169.54000000097,"y":2544890.8100000042}},{"attributes":{"ID":3060,"DIS_CODE":0,"TOWNNAME":"仁德區","LI":"中洲里","LIN":"1鄰","STREET":" ","SECT":" ","MAREA":"中洲","LANE":" ","ALLEY":" ","HOUSE_NO":"１號之３２","E_COORD97":174286.89950599999,"N_COORD97":2534771.0547199999,"ADDRESS":"中洲１號之３２","OBJECTID":3060},"geometry":{"x":174286.89950599987,"y":2534771.054717999}},{"attributes":{"ID":3061,"DIS_CODE":0,"TOWNNAME":"安平區","LI":"育平里","LIN":"38鄰","STREET":"府平路","SECT":" ","MAREA":" ","LANE":" ","ALLEY":" ","HOUSE_NO":"４６５號","E_COORD97":164395.306816,"N_COORD97":2543115.7897600001,"ADDRESS":"府平路４６５號","OBJECTID":3061},"geometry":{"x":164395.30681599956,"y":2543115.7897590008}},{"attributes":{"ID":3062,"DIS_CODE":0,"TOWNNAME":"安南區","LI":"安和里","LIN":"3鄰","STREET":"府安路","SECT":"三段","MAREA":" ","LANE":" ","ALLEY":" ","HOUSE_NO":"２８２號","E_COORD97":169937.10549799999,"N_COORD97":2547817.88087,"ADDRESS":"府安路三段２８２號","OBJECTID":3062},"geometry":{"x":169937.10549800098,"y":2547817.8808700014}},{"attributes":{"ID":3063,"DIS_CODE":0,"TOWNNAME":"安南區","LI":"安和里","LIN":"3鄰","STREET":"府安路","SECT":"三段","MAREA":" ","LANE":" ","ALLEY":" ","HOUSE_NO":"２８３號","E_COORD97":169935.8351,"N_COORD97":2547813.8592099999,"ADDRESS":"府安路三段２８３號","OBJECTID":3063},"geometry":{"x":169935.83510000072,"y":2547813.859205002}},{"attributes":{"ID":3064,"DIS_CODE":0,"TOWNNAME":"仁德區","LI":"後壁里","LIN":"7鄰","STREET":"德善一街","SECT":" ","MAREA":" ","LANE":" ","ALLEY":" ","HOUSE_NO":"６２號","E_COORD97":173573.37320100001,"N_COORD97":2539038.3427499998,"ADDRESS":"德善一街６２號","OBJECTID":3064},"geometry":{"x":173573.37320099957,"y":2539038.3427489996}},{"attributes":{"ID":3065,"DIS_CODE":0,"TOWNNAME":"安平區","LI":"怡平里","LIN":"25鄰","STREET":"華平路","SECT":" ","MAREA":" ","LANE":" ","ALLEY":" ","HOUSE_NO":"４９６號","E_COORD97":165467.98270299999,"N_COORD97":2543733.3676300002,"ADDRESS":"華平路４９６號","OBJECTID":3065},"geometry":{"x":165467.98270300124,"y":2543733.3676309995}},{"attributes":{"ID":3066,"DIS_CODE":0,"TOWNNAME":"中西區","LI":"文賢里","LIN":"2鄰","STREET":"文和街","SECT":" ","MAREA":" ","LANE":" ","ALLEY":" ","HOUSE_NO":"７４號之４","E_COORD97":167163.061713,"N_COORD97":2544895.2420899998,"ADDRESS":"文和街 ７４號之４","OBJECTID":3066},"geometry":{"x":167163.06171299983,"y":2544895.2420930024}},{"attributes":{"ID":3067,"DIS_CODE":0,"TOWNNAME":"安南區","LI":"安和里","LIN":"1鄰","STREET":"府安路","SECT":"三段","MAREA":" ","LANE":"３６８巷","ALLEY":" ","HOUSE_NO":"５號","E_COORD97":169605.10808400001,"N_COORD97":2547407.8827599999,"ADDRESS":"府安路三段３６８巷５號","OBJECTID":3067},"geometry":{"x":169605.10808400065,"y":2547407.8827580009}},{"attributes":{"ID":3068,"DIS_CODE":0,"TOWNNAME":"安南區","LI":"安和里","LIN":"1鄰","STREET":"府安路","SECT":"三段","MAREA":" ","LANE":"３６８巷","ALLEY":" ","HOUSE_NO":"３號","E_COORD97":169606.59021600001,"N_COORD97":2547405.3427599999,"ADDRESS":"府安路三段３６８巷３號","OBJECTID":3068},"geometry":{"x":169606.59021600056,"y":2547405.342759002}},{"attributes":{"ID":3069,"DIS_CODE":0,"TOWNNAME":"安南區","LI":"安和里","LIN":"1鄰","STREET":"府安路","SECT":"三段","MAREA":" ","LANE":"３６８巷","ALLEY":" ","HOUSE_NO":"１號","E_COORD97":169608.07234700001,"N_COORD97":2547403.01443,"ADDRESS":"府安路三段３６８巷１號","OBJECTID":3069},"geometry":{"x":169608.07234700117,"y":2547403.0144270044}},{"attributes":{"ID":3070,"DIS_CODE":0,"TOWNNAME":"安南區","LI":"安慶里","LIN":"31鄰","STREET":"培安路","SECT":" ","MAREA":" ","LANE":"４０６巷","ALLEY":" ","HOUSE_NO":"２６號","E_COORD97":169238.086201,"N_COORD97":2548752.6709699999,"ADDRESS":"培安路４０６巷２６號","OBJECTID":3070},"geometry":{"x":169238.08620100003,"y":2548752.6709740013}},{"attributes":{"ID":3071,"DIS_CODE":0,"TOWNNAME":"安南區","LI":"安慶里","LIN":"31鄰","STREET":"培安路","SECT":" ","MAREA":" ","LANE":"４０６巷","ALLEY":" ","HOUSE_NO":"２８號","E_COORD97":169232.15364,"N_COORD97":2548752.4593099998,"ADDRESS":"培安路４０６巷２８號","OBJECTID":3071},"geometry":{"x":169232.15364000108,"y":2548752.4593070019}},{"attributes":{"ID":3072,"DIS_CODE":0,"TOWNNAME":"安南區","LI":"安慶里","LIN":"31鄰","STREET":"培安路","SECT":" ","MAREA":" ","LANE":"４０６巷","ALLEY":" ","HOUSE_NO":"３０號","E_COORD97":169227.916096,"N_COORD97":2548752.88264,"ADDRESS":"培安路４０６巷３０號","OBJECTID":3072},"geometry":{"x":169227.91609600093,"y":2548752.8826400004}},{"attributes":{"ID":3073,"DIS_CODE":0,"TOWNNAME":"安南區","LI":"安慶里","LIN":"31鄰","STREET":"培安路","SECT":" ","MAREA":" ","LANE":"４０６巷","ALLEY":" ","HOUSE_NO":"３６號","E_COORD97":169209.90653499999,"N_COORD97":2548752.2476400002,"ADDRESS":"培安路４０６巷３６號","OBJECTID":3073},"geometry":{"x":169209.90653499961,"y":2548752.2476410028}},{"attributes":{"ID":3074,"DIS_CODE":0,"TOWNNAME":"安南區","LI":"安慶里","LIN":"31鄰","STREET":"培安路","SECT":" ","MAREA":" ","LANE":"４０６巷","ALLEY":" ","HOUSE_NO":"３８號","E_COORD97":169203.76209599999,"N_COORD97":2548752.0359700001,"ADDRESS":"培安路４０６巷３８號","OBJECTID":3074},"geometry":{"x":169203.76209600084,"y":2548752.0359740034}},{"attributes":{"ID":3075,"DIS_CODE":0,"TOWNNAME":"安南區","LI":"安慶里","LIN":"30鄰","STREET":"培安路","SECT":" ","MAREA":" ","LANE":"４０６巷","ALLEY":" ","HOUSE_NO":"１６號","E_COORD97":169270.71528900001,"N_COORD97":2548754.5759700001,"ADDRESS":"培安路４０６巷１６號","OBJECTID":3075},"geometry":{"x":169270.71528900042,"y":2548754.5759730022}},{"attributes":{"ID":3076,"DIS_CODE":0,"TOWNNAME":"安南區","LI":"安慶里","LIN":"30鄰","STREET":"培安路","SECT":" ","MAREA":" ","LANE":"４０６巷","ALLEY":" ","HOUSE_NO":"１８號","E_COORD97":169264.57084999999,"N_COORD97":2548753.7293099998,"ADDRESS":"培安路４０６巷１８號","OBJECTID":3076},"geometry":{"x":169264.57084999979,"y":2548753.7293060012}},{"attributes":{"ID":3077,"DIS_CODE":0,"TOWNNAME":"安南區","LI":"安慶里","LIN":"30鄰","STREET":"培安路","SECT":" ","MAREA":" ","LANE":"４０６巷","ALLEY":" ","HOUSE_NO":"２０號","E_COORD97":169258.63828899999,"N_COORD97":2548752.6709699999,"ADDRESS":"培安路４０６巷２０號","OBJECTID":3077},"geometry":{"x":169258.63828900084,"y":2548752.6709740013}},{"attributes":{"ID":3078,"DIS_CODE":0,"TOWNNAME":"安南區","LI":"安慶里","LIN":"28鄰","STREET":"培安路","SECT":" ","MAREA":" ","LANE":" ","ALLEY":" ","HOUSE_NO":"３０６號","E_COORD97":169259.909552,"N_COORD97":2548939.4853599998,"ADDRESS":"培安路３０６號","OBJECTID":3078},"geometry":{"x":169259.90955200233,"y":2548939.4853610005}},{"attributes":{"ID":3079,"DIS_CODE":0,"TOWNNAME":"安南區","LI":"安慶里","LIN":"28鄰","STREET":"培安路","SECT":" ","MAREA":" ","LANE":" ","ALLEY":" ","HOUSE_NO":"３０８號","E_COORD97":169261.180815,"N_COORD97":2548935.04036,"ADDRESS":"培安路３０８號","OBJECTID":3079},"geometry":{"x":169261.18081500102,"y":2548935.0403640009}},{"attributes":{"ID":3080,"DIS_CODE":0,"TOWNNAME":"安南區","LI":"安慶里","LIN":"28鄰","STREET":"培安路","SECT":" ","MAREA":" ","LANE":" ","ALLEY":" ","HOUSE_NO":"３１０號","E_COORD97":169261.81644699999,"N_COORD97":2548930.5953700002,"ADDRESS":"培安路３１０號","OBJECTID":3080},"geometry":{"x":169261.81644700002,"y":2548930.5953660011}},{"attributes":{"ID":3081,"DIS_CODE":0,"TOWNNAME":"安南區","LI":"安慶里","LIN":"28鄰","STREET":"培安路","SECT":" ","MAREA":" ","LANE":" ","ALLEY":" ","HOUSE_NO":"３１２號","E_COORD97":169262.663955,"N_COORD97":2548926.5737000001,"ADDRESS":"培安路３１２號","OBJECTID":3081},"geometry":{"x":169262.66395500116,"y":2548926.5737020001}},{"attributes":{"ID":3082,"DIS_CODE":0,"TOWNNAME":"安南區","LI":"安慶里","LIN":"28鄰","STREET":"培安路","SECT":" ","MAREA":" ","LANE":" ","ALLEY":" ","HOUSE_NO":"３１６號","E_COORD97":169263.723341,"N_COORD97":2548922.3403699999,"ADDRESS":"培安路３１６號","OBJECTID":3082},"geometry":{"x":169263.72334100213,"y":2548922.3403710034}},{"attributes":{"ID":3083,"DIS_CODE":0,"TOWNNAME":"安南區","LI":"安慶里","LIN":"28鄰","STREET":"培安路","SECT":" ","MAREA":" ","LANE":" ","ALLEY":" ","HOUSE_NO":"３１８號","E_COORD97":169264.57084999999,"N_COORD97":2548918.5303699998,"ADDRESS":"培安路３１８號","OBJECTID":3083},"geometry":{"x":169264.57084999979,"y":2548918.5303729996}},{"attributes":{"ID":3084,"DIS_CODE":0,"TOWNNAME":"安南區","LI":"安慶里","LIN":"28鄰","STREET":"培安路","SECT":" ","MAREA":" ","LANE":" ","ALLEY":" ","HOUSE_NO":"３２６號","E_COORD97":169267.325254,"N_COORD97":2548905.6187100001,"ADDRESS":"培安路３２６號","OBJECTID":3084},"geometry":{"x":169267.32525399979,"y":2548905.6187130008}},{"attributes":{"ID":3085,"DIS_CODE":0,"TOWNNAME":"安南區","LI":"安慶里","LIN":"28鄰","STREET":"培安路","SECT":" ","MAREA":" ","LANE":"３３０巷","ALLEY":"２弄","HOUSE_NO":"２號","E_COORD97":169246.13753499999,"N_COORD97":2548899.4803800001,"ADDRESS":"培安路３３０巷２弄２號","OBJECTID":3085},"geometry":{"x":169246.13753500115,"y":2548899.4803830031}},{"attributes":{"ID":3086,"DIS_CODE":0,"TOWNNAME":"安南區","LI":"安慶里","LIN":"28鄰","STREET":"培安路","SECT":" ","MAREA":" ","LANE":"３３０巷","ALLEY":"２弄","HOUSE_NO":"８號","E_COORD97":169243.806885,"N_COORD97":2548909.6403800002,"ADDRESS":"培安路３３０巷２弄８號","OBJECTID":3086},"geometry":{"x":169243.80688500032,"y":2548909.6403780002}},{"attributes":{"ID":3087,"DIS_CODE":0,"TOWNNAME":"安南區","LI":"安慶里","LIN":"28鄰","STREET":"培安路","SECT":" ","MAREA":" ","LANE":"３３０巷","ALLEY":"２弄","HOUSE_NO":"１２號","E_COORD97":169241.68811399999,"N_COORD97":2548918.3187099998,"ADDRESS":"培安路３３０巷２弄１２號","OBJECTID":3087},"geometry":{"x":169241.68811400048,"y":2548918.3187060021}},{"attributes":{"ID":3088,"DIS_CODE":0,"TOWNNAME":"安南區","LI":"安慶里","LIN":"28鄰","STREET":"培安路","SECT":" ","MAREA":" ","LANE":"３３０巷","ALLEY":"２弄","HOUSE_NO":"１６號","E_COORD97":169240.41685000001,"N_COORD97":2548923.3986999998,"ADDRESS":"培安路３３０巷２弄１６號","OBJECTID":3088},"geometry":{"x":169240.41684999969,"y":2548923.3987030014}},{"attributes":{"ID":3089,"DIS_CODE":0,"TOWNNAME":"安南區","LI":"安慶里","LIN":"28鄰","STREET":"培安路","SECT":" ","MAREA":" ","LANE":"３３０巷","ALLEY":"２弄","HOUSE_NO":"１８號","E_COORD97":169239.781219,"N_COORD97":2548927.63203,"ADDRESS":"培安路３３０巷２弄１８號","OBJECTID":3089},"geometry":{"x":169239.781219,"y":2548927.632034}},{"attributes":{"ID":3090,"DIS_CODE":0,"TOWNNAME":"安南區","LI":"安慶里","LIN":"28鄰","STREET":"培安路","SECT":" ","MAREA":" ","LANE":"３３０巷","ALLEY":"２弄","HOUSE_NO":"２０號","E_COORD97":169238.93371000001,"N_COORD97":2548932.50037,"ADDRESS":"培安路３３０巷２弄２０號","OBJECTID":3090},"geometry":{"x":169238.93370999955,"y":2548932.5003650021}},{"attributes":{"ID":3091,"DIS_CODE":0,"TOWNNAME":"安南區","LI":"安慶里","LIN":"5鄰","STREET":"怡安路","SECT":"一段","MAREA":" ","LANE":"２６２巷","ALLEY":" ","HOUSE_NO":"３８之２號","E_COORD97":169100.02953699999,"N_COORD97":2549206.2225299999,"ADDRESS":"怡安路一段２６２巷３８之２號","OBJECTID":3091},"geometry":{"x":169100.02953700069,"y":2549206.2225279994}},{"attributes":{"ID":3092,"DIS_CODE":0,"TOWNNAME":"安南區","LI":"安慶里","LIN":"5鄰","STREET":"長溪路","SECT":"一段","MAREA":" ","LANE":"１６８巷","ALLEY":"１７５弄","HOUSE_NO":"６之２號","E_COORD97":169050.02652000001,"N_COORD97":2548957.3898399998,"ADDRESS":"長溪路一段１６８巷１７５弄６之２號","OBJECTID":3092},"geometry":{"x":169050.0265200017,"y":2548957.3898399994}},{"attributes":{"ID":3093,"DIS_CODE":0,"TOWNNAME":"中西區","LI":"進學里","LIN":"14鄰","STREET":"府前路","SECT":"一段","MAREA":" ","LANE":" ","ALLEY":" ","HOUSE_NO":"３０５號之１","E_COORD97":168180.541734,"N_COORD97":2543293.10825,"ADDRESS":"府前路一段３０５號之１","OBJECTID":3093},"geometry":{"x":168180.54173399881,"y":2543293.1082549989}},{"attributes":{"ID":3094,"DIS_CODE":0,"TOWNNAME":"中西區","LI":"進學里","LIN":"14鄰","STREET":"忠義路","SECT":"一段","MAREA":" ","LANE":" ","ALLEY":" ","HOUSE_NO":"１２３號","E_COORD97":168165.07642600001,"N_COORD97":2543229.6082899999,"ADDRESS":"忠義路一段１２３號","OBJECTID":3094},"geometry":{"x":168165.07642600127,"y":2543229.6082889996}},{"attributes":{"ID":3095,"DIS_CODE":0,"TOWNNAME":"中西區","LI":"進學里","LIN":"15鄰","STREET":"府前路","SECT":"一段","MAREA":" ","LANE":" ","ALLEY":" ","HOUSE_NO":"２５５號","E_COORD97":168259.13939299999,"N_COORD97":2543322.3182399999,"ADDRESS":"府前路一段２５５號","OBJECTID":3095},"geometry":{"x":168259.13939300086,"y":2543322.3182390034}},{"attributes":{"ID":3096,"DIS_CODE":0,"TOWNNAME":"中西區","LI":"進學里","LIN":"15鄰","STREET":"府前路","SECT":"一段","MAREA":" ","LANE":" ","ALLEY":" ","HOUSE_NO":"２５７號","E_COORD97":168255.961591,"N_COORD97":2543323.7999,"ADDRESS":"府前路一段２５７號","OBJECTID":3096},"geometry":{"x":168255.96159099974,"y":2543323.7999050003}},{"attributes":{"ID":3097,"DIS_CODE":0,"TOWNNAME":"中西區","LI":"進學里","LIN":"15鄰","STREET":"府前路","SECT":"一段","MAREA":" ","LANE":" ","ALLEY":" ","HOUSE_NO":"２５９號","E_COORD97":168252.148227,"N_COORD97":2543325.0699,"ADDRESS":"府前路一段２５９號","OBJECTID":3097},"geometry":{"x":168252.14822699968,"y":2543325.0699039996}},{"attributes":{"ID":3098,"DIS_CODE":0,"TOWNNAME":"中西區","LI":"進學里","LIN":"15鄰","STREET":"府前路","SECT":"一段","MAREA":" ","LANE":" ","ALLEY":" ","HOUSE_NO":"２６１號","E_COORD97":168248.970424,"N_COORD97":2543325.0699,"ADDRESS":"府前路一段２６１號","OBJECTID":3098},"geometry":{"x":168248.97042400017,"y":2543325.0699039996}},{"attributes":{"ID":3099,"DIS_CODE":0,"TOWNNAME":"中西區","LI":"進學里","LIN":"15鄰","STREET":"府前路","SECT":"一段","MAREA":" ","LANE":" ","ALLEY":" ","HOUSE_NO":"２６３號","E_COORD97":168245.15706100001,"N_COORD97":2543326.3399,"ADDRESS":"府前路一段２６３號","OBJECTID":3099},"geometry":{"x":168245.15706100129,"y":2543326.3399030045}},{"attributes":{"ID":3100,"DIS_CODE":0,"TOWNNAME":"中西區","LI":"進學里","LIN":"15鄰","STREET":"府前路","SECT":"一段","MAREA":" ","LANE":" ","ALLEY":" ","HOUSE_NO":"２７５號","E_COORD97":168222.27687900001,"N_COORD97":2543332.6899000001,"ADDRESS":"府前路一段２７５號","OBJECTID":3100},"geometry":{"x":168222.27687900048,"y":2543332.6899000015}},{"attributes":{"ID":3101,"DIS_CODE":0,"TOWNNAME":"中西區","LI":"進學里","LIN":"15鄰","STREET":"府前路","SECT":"一段","MAREA":" ","LANE":" ","ALLEY":" ","HOUSE_NO":"２７７號","E_COORD97":168217.19239499999,"N_COORD97":2543334.5948999999,"ADDRESS":"府前路一段２７７號","OBJECTID":3101},"geometry":{"x":168217.19239500165,"y":2543334.5948990025}},{"attributes":{"ID":3102,"DIS_CODE":0,"TOWNNAME":"中西區","LI":"進學里","LIN":"15鄰","STREET":"府前路","SECT":"一段","MAREA":" ","LANE":" ","ALLEY":" ","HOUSE_NO":"２７９號","E_COORD97":168212.95532400001,"N_COORD97":2543335.2299000002,"ADDRESS":"府前路一段２７９號","OBJECTID":3102},"geometry":{"x":168212.95532400161,"y":2543335.2298990022}},{"attributes":{"ID":3103,"DIS_CODE":0,"TOWNNAME":"中西區","LI":"進學里","LIN":"15鄰","STREET":"府前路","SECT":"一段","MAREA":" ","LANE":" ","ALLEY":" ","HOUSE_NO":"２８９號","E_COORD97":168160.62750199999,"N_COORD97":2543346.6598899998,"ADDRESS":"府前路一段２８９號","OBJECTID":3103},"geometry":{"x":168160.62750200089,"y":2543346.6598920003}},{"attributes":{"ID":3104,"DIS_CODE":0,"TOWNNAME":"安南區","LI":"安和里","LIN":"3鄰","STREET":"府安路","SECT":"三段","MAREA":" ","LANE":" ","ALLEY":" ","HOUSE_NO":"２８５號","E_COORD97":169934.564702,"N_COORD97":2547807.7208799999,"ADDRESS":"府安路三段２８５號","OBJECTID":3104},"geometry":{"x":169934.56470200047,"y":2547807.7208750043}},{"attributes":{"ID":3105,"DIS_CODE":0,"TOWNNAME":"中西區","LI":"文賢里","LIN":"2鄰","STREET":"文和街","SECT":" ","MAREA":" ","LANE":" ","ALLEY":" ","HOUSE_NO":"７４號之２","E_COORD97":167166.451623,"N_COORD97":2544891.2204300002,"ADDRESS":"文和街 ７４號之２","OBJECTID":3105},"geometry":{"x":167166.45162300207,"y":2544891.2204290014}},{"attributes":{"ID":3106,"DIS_CODE":0,"TOWNNAME":"仁德區","LI":"中洲里","LIN":"1鄰","STREET":" ","SECT":" ","MAREA":"中洲","LANE":" ","ALLEY":" ","HOUSE_NO":"１號之４３","E_COORD97":174710.41534000001,"N_COORD97":2533725.2102800002,"ADDRESS":"中洲１號之４３","OBJECTID":3106},"geometry":{"x":174710.41533999983,"y":2533725.2102799993}},{"attributes":{"ID":3107,"DIS_CODE":0,"TOWNNAME":"安南區","LI":"安慶里","LIN":"31鄰","STREET":"培安路","SECT":" ","MAREA":" ","LANE":"４０６巷","ALLEY":" ","HOUSE_NO":"３２號","E_COORD97":169217.957868,"N_COORD97":2548752.0359700001,"ADDRESS":"培安路４０６巷３２號","OBJECTID":3107},"geometry":{"x":169217.95786799956,"y":2548752.0359740034}},{"attributes":{"ID":3108,"DIS_CODE":0,"TOWNNAME":"安南區","LI":"安慶里","LIN":"28鄰","STREET":"培安路","SECT":" ","MAREA":" ","LANE":" ","ALLEY":" ","HOUSE_NO":"３２０號","E_COORD97":169265.84211299999,"N_COORD97":2548913.87371,"ADDRESS":"培安路３２０號","OBJECTID":3108},"geometry":{"x":169265.84211300034,"y":2548913.8737090025}},{"attributes":{"ID":3109,"DIS_CODE":0,"TOWNNAME":"安南區","LI":"安慶里","LIN":"28鄰","STREET":"培安路","SECT":" ","MAREA":" ","LANE":" ","ALLEY":" ","HOUSE_NO":"３２８號","E_COORD97":169268.38464,"N_COORD97":2548901.59705,"ADDRESS":"培安路３２８號","OBJECTID":3109},"geometry":{"x":169268.38464000076,"y":2548901.5970489997}},{"attributes":{"ID":3110,"DIS_CODE":0,"TOWNNAME":"安南區","LI":"安慶里","LIN":"28鄰","STREET":"培安路","SECT":" ","MAREA":" ","LANE":"３３０巷","ALLEY":"２弄","HOUSE_NO":"６號","E_COORD97":169244.65439400001,"N_COORD97":2548904.5603800002,"ADDRESS":"培安路３３０巷２弄６號","OBJECTID":3110},"geometry":{"x":169244.65439399984,"y":2548904.5603800025}},{"attributes":{"ID":3111,"DIS_CODE":0,"TOWNNAME":"安南區","LI":"安慶里","LIN":"28鄰","STREET":"培安路","SECT":" ","MAREA":" ","LANE":"３３０巷","ALLEY":"２弄","HOUSE_NO":"１０號","E_COORD97":169242.74749899999,"N_COORD97":2548913.87371,"ADDRESS":"培安路３３０巷２弄１０號","OBJECTID":3111},"geometry":{"x":169242.74749900214,"y":2548913.8737090025}},{"attributes":{"ID":3112,"DIS_CODE":0,"TOWNNAME":"中西區","LI":"進學里","LIN":"15鄰","STREET":"府前路","SECT":"一段","MAREA":" ","LANE":" ","ALLEY":" ","HOUSE_NO":"２９１號","E_COORD97":168154.69560400001,"N_COORD97":2543349.4115599999,"ADDRESS":"府前路一段２９１號","OBJECTID":3112},"geometry":{"x":168154.69560400117,"y":2543349.4115580004}},{"attributes":{"ID":3113,"DIS_CODE":0,"TOWNNAME":"中西區","LI":"進學里","LIN":"15鄰","STREET":"府前路","SECT":"一段","MAREA":" ","LANE":" ","ALLEY":" ","HOUSE_NO":"２９５號","E_COORD97":168144.95034099999,"N_COORD97":2543350.4698899998,"ADDRESS":"府前路一段２９５號","OBJECTID":3113},"geometry":{"x":168144.95034100115,"y":2543350.4698900003}},{"attributes":{"ID":3114,"DIS_CODE":0,"TOWNNAME":"中西區","LI":"進學里","LIN":"20鄰","STREET":"府前路","SECT":"一段","MAREA":" ","LANE":" ","ALLEY":" ","HOUSE_NO":"１９５號","E_COORD97":168410.40281299999,"N_COORD97":2543242.09662,"ADDRESS":"府前路一段１９５號","OBJECTID":3114},"geometry":{"x":168410.40281299967,"y":2543242.0966160018}},{"attributes":{"ID":3115,"DIS_CODE":0,"TOWNNAME":"中西區","LI":"進學里","LIN":"20鄰","STREET":"府前路","SECT":"一段","MAREA":" ","LANE":" ","ALLEY":" ","HOUSE_NO":"１９７號","E_COORD97":168414.004323,"N_COORD97":2543267.7082699998,"ADDRESS":"府前路一段１９７號","OBJECTID":3115},"geometry":{"x":168414.00432300102,"y":2543267.708267998}},{"attributes":{"ID":3116,"DIS_CODE":0,"TOWNNAME":"中西區","LI":"進學里","LIN":"20鄰","STREET":"府前路","SECT":"一段","MAREA":" ","LANE":" ","ALLEY":" ","HOUSE_NO":"１９９號","E_COORD97":168402.98793999999,"N_COORD97":2543290.7799200001,"ADDRESS":"府前路一段１９９號","OBJECTID":3116},"geometry":{"x":168402.9879400013,"y":2543290.7799229994}},{"attributes":{"ID":3117,"DIS_CODE":0,"TOWNNAME":"中西區","LI":"進學里","LIN":"20鄰","STREET":"府前路","SECT":"一段","MAREA":" ","LANE":" ","ALLEY":" ","HOUSE_NO":"２０１號","E_COORD97":168394.30194500001,"N_COORD97":2543292.4732599999,"ADDRESS":"府前路一段２０１號","OBJECTID":3117},"geometry":{"x":168394.30194499902,"y":2543292.4732550029}},{"attributes":{"ID":3118,"DIS_CODE":0,"TOWNNAME":"中西區","LI":"進學里","LIN":"20鄰","STREET":"府前路","SECT":"一段","MAREA":" ","LANE":" ","ALLEY":" ","HOUSE_NO":"２１５號","E_COORD97":168365.278012,"N_COORD97":2543299.6699199998,"ADDRESS":"府前路一段２１５號","OBJECTID":3118},"geometry":{"x":168365.27801200096,"y":2543299.6699180026}},{"attributes":{"ID":3119,"DIS_CODE":0,"TOWNNAME":"中西區","LI":"進學里","LIN":"20鄰","STREET":"府前路","SECT":"一段","MAREA":" ","LANE":" ","ALLEY":" ","HOUSE_NO":"２１７號","E_COORD97":168361.04094100001,"N_COORD97":2543298.1882500001,"ADDRESS":"府前路一段２１７號","OBJECTID":3119},"geometry":{"x":168361.04094100092,"y":2543298.188252002}},{"attributes":{"ID":3120,"DIS_CODE":0,"TOWNNAME":"中西區","LI":"進學里","LIN":"20鄰","STREET":"府前路","SECT":"一段","MAREA":" ","LANE":" ","ALLEY":" ","HOUSE_NO":"２２３號","E_COORD97":168352.99050700001,"N_COORD97":2543295.0132499998,"ADDRESS":"府前路一段２２３號","OBJECTID":3120},"geometry":{"x":168352.99050700013,"y":2543295.0132540017}},{"attributes":{"ID":3121,"DIS_CODE":0,"TOWNNAME":"中西區","LI":"進學里","LIN":"20鄰","STREET":"府前路","SECT":"一段","MAREA":" ","LANE":" ","ALLEY":" ","HOUSE_NO":"２３１號","E_COORD97":168345.15192599999,"N_COORD97":2543282.3132600002,"ADDRESS":"府前路一段２３１號","OBJECTID":3121},"geometry":{"x":168345.15192599967,"y":2543282.3132610004}},{"attributes":{"ID":3122,"DIS_CODE":0,"TOWNNAME":"中西區","LI":"進學里","LIN":"20鄰","STREET":"府前路","SECT":"一段","MAREA":" ","LANE":" ","ALLEY":" ","HOUSE_NO":"２３３號","E_COORD97":168347.482315,"N_COORD97":2543278.9265999999,"ADDRESS":"府前路一段２３３號","OBJECTID":3122},"geometry":{"x":168347.48231500108,"y":2543278.9265960045}},{"attributes":{"ID":3123,"DIS_CODE":0,"TOWNNAME":"中西區","LI":"進學里","LIN":"20鄰","STREET":"府前路","SECT":"一段","MAREA":" ","LANE":" ","ALLEY":" ","HOUSE_NO":"２３５號","E_COORD97":168332.017008,"N_COORD97":2543273.6349300002,"ADDRESS":"府前路一段２３５號","OBJECTID":3123},"geometry":{"x":168332.01700800005,"y":2543273.6349320039}},{"attributes":{"ID":3124,"DIS_CODE":0,"TOWNNAME":"中西區","LI":"進學里","LIN":"20鄰","STREET":"府前路","SECT":"一段","MAREA":" ","LANE":" ","ALLEY":" ","HOUSE_NO":"２４３號","E_COORD97":168286.46849900001,"N_COORD97":2543316.8149100002,"ADDRESS":"府前路一段２４３號","OBJECTID":3124},"geometry":{"x":168286.46849900112,"y":2543316.8149089999}},{"attributes":{"ID":3125,"DIS_CODE":0,"TOWNNAME":"中西區","LI":"進學里","LIN":"20鄰","STREET":"府前路","SECT":"一段","MAREA":" ","LANE":" ","ALLEY":" ","HOUSE_NO":"２４７號","E_COORD97":168274.816555,"N_COORD97":2543319.7782399999,"ADDRESS":"府前路一段２４７號","OBJECTID":3125},"geometry":{"x":168274.81655499991,"y":2543319.778239999}},{"attributes":{"ID":3126,"DIS_CODE":0,"TOWNNAME":"中西區","LI":"進學里","LIN":"20鄰","STREET":"府前路","SECT":"一段","MAREA":" ","LANE":" ","ALLEY":" ","HOUSE_NO":"２５１號","E_COORD97":168266.76612099999,"N_COORD97":2543319.3549100002,"ADDRESS":"府前路一段２５１號","OBJECTID":3126},"geometry":{"x":168266.76612100191,"y":2543319.3549070004}},{"attributes":{"ID":3127,"DIS_CODE":0,"TOWNNAME":"中西區","LI":"進學里","LIN":"20鄰","STREET":"府前路","SECT":"一段","MAREA":" ","LANE":" ","ALLEY":" ","HOUSE_NO":"２５３號","E_COORD97":168262.31719599999,"N_COORD97":2543321.0482399999,"ADDRESS":"府前路一段２５３號","OBJECTID":3127},"geometry":{"x":168262.31719600037,"y":2543321.0482400022}},{"attributes":{"ID":3128,"DIS_CODE":0,"TOWNNAME":"中西區","LI":"進學里","LIN":"15鄰","STREET":"忠義路","SECT":"一段","MAREA":" ","LANE":" ","ALLEY":" ","HOUSE_NO":"１０６號","E_COORD97":168207.02342499999,"N_COORD97":2543328.4565699999,"ADDRESS":"忠義路一段１０６號","OBJECTID":3128},"geometry":{"x":168207.02342500165,"y":2543328.4565690011}},{"attributes":{"ID":3129,"DIS_CODE":0,"TOWNNAME":"中西區","LI":"進學里","LIN":"15鄰","STREET":"忠義路","SECT":"一段","MAREA":" ","LANE":" ","ALLEY":" ","HOUSE_NO":"１０８號","E_COORD97":168208.082693,"N_COORD97":2543331.6315700002,"ADDRESS":"忠義路一段１０８號","OBJECTID":3129},"geometry":{"x":168208.08269300126,"y":2543331.6315669995}},{"attributes":{"ID":3130,"DIS_CODE":0,"TOWNNAME":"中西區","LI":"進學里","LIN":"17鄰","STREET":"忠義路","SECT":"一段","MAREA":" ","LANE":"６０巷","ALLEY":" ","HOUSE_NO":"３號","E_COORD97":168199.60855199999,"N_COORD97":2543028.3133999999,"ADDRESS":"忠義路一段６０巷３號","OBJECTID":3130},"geometry":{"x":168199.60855200049,"y":2543028.3133980036}},{"attributes":{"ID":3131,"DIS_CODE":0,"TOWNNAME":"中西區","LI":"進學里","LIN":"17鄰","STREET":"忠義路","SECT":"一段","MAREA":" ","LANE":"６０巷","ALLEY":" ","HOUSE_NO":"４號","E_COORD97":168199.60855199999,"N_COORD97":2543016.8834000002,"ADDRESS":"忠義路一段６０巷４號","OBJECTID":3131},"geometry":{"x":168199.60855200049,"y":2543016.8834040016}},{"attributes":{"ID":3132,"DIS_CODE":0,"TOWNNAME":"中西區","LI":"進學里","LIN":"17鄰","STREET":"忠義路","SECT":"一段","MAREA":" ","LANE":"６０巷","ALLEY":" ","HOUSE_NO":"５號","E_COORD97":168204.05747599999,"N_COORD97":2543028.5250599999,"ADDRESS":"忠義路一段６０巷５號","OBJECTID":3132},"geometry":{"x":168204.05747599993,"y":2543028.5250640009}},{"attributes":{"ID":3133,"DIS_CODE":0,"TOWNNAME":"中西區","LI":"進學里","LIN":"17鄰","STREET":"忠義路","SECT":"一段","MAREA":" ","LANE":"６０巷","ALLEY":" ","HOUSE_NO":"７號","E_COORD97":168211.68420300001,"N_COORD97":2543028.3133999999,"ADDRESS":"忠義路一段６０巷７號","OBJECTID":3133},"geometry":{"x":168211.68420299981,"y":2543028.3133980036}},{"attributes":{"ID":3134,"DIS_CODE":0,"TOWNNAME":"中西區","LI":"進學里","LIN":"17鄰","STREET":"忠義路","SECT":"一段","MAREA":" ","LANE":"６０巷","ALLEY":" ","HOUSE_NO":"８號","E_COORD97":168215.92127399999,"N_COORD97":2543015.6134100002,"ADDRESS":"忠義路一段６０巷８號","OBJECTID":3134},"geometry":{"x":168215.92127399985,"y":2543015.6134050004}},{"attributes":{"ID":3135,"DIS_CODE":0,"TOWNNAME":"中西區","LI":"進學里","LIN":"17鄰","STREET":"忠義路","SECT":"一段","MAREA":" ","LANE":"６０巷","ALLEY":" ","HOUSE_NO":"９號","E_COORD97":168214.86200600001,"N_COORD97":2543027.8900600001,"ADDRESS":"忠義路一段６０巷９號","OBJECTID":3135},"geometry":{"x":168214.86200600024,"y":2543027.8900649995}},{"attributes":{"ID":3136,"DIS_CODE":0,"TOWNNAME":"中西區","LI":"進學里","LIN":"17鄰","STREET":"忠義路","SECT":"一段","MAREA":" ","LANE":" ","ALLEY":" ","HOUSE_NO":"７２號之１","E_COORD97":168174.39798199999,"N_COORD97":2543054.9833800001,"ADDRESS":"忠義路一段７２號之１","OBJECTID":3136},"geometry":{"x":168174.39798200224,"y":2543054.9833829999}},{"attributes":{"ID":3137,"DIS_CODE":0,"TOWNNAME":"中西區","LI":"進學里","LIN":"18鄰","STREET":"忠義路","SECT":"一段","MAREA":" ","LANE":"８４巷","ALLEY":" ","HOUSE_NO":"１２號","E_COORD97":168229.479899,"N_COORD97":2543064.50838,"ADDRESS":"忠義路一段８４巷１２號","OBJECTID":3137},"geometry":{"x":168229.47989900038,"y":2543064.5083780009}},{"attributes":{"ID":3138,"DIS_CODE":0,"TOWNNAME":"中西區","LI":"進學里","LIN":"18鄰","STREET":"忠義路","SECT":"一段","MAREA":" ","LANE":"８４巷","ALLEY":" ","HOUSE_NO":"１６號","E_COORD97":168244.94520700001,"N_COORD97":2543064.72004,"ADDRESS":"忠義路一段８４巷１６號","OBJECTID":3138},"geometry":{"x":168244.94520700071,"y":2543064.7200450022}},{"attributes":{"ID":3139,"DIS_CODE":0,"TOWNNAME":"中西區","LI":"進學里","LIN":"18鄰","STREET":"忠義路","SECT":"一段","MAREA":" ","LANE":"８４巷","ALLEY":"１８弄","HOUSE_NO":"１３號","E_COORD97":168263.58831799999,"N_COORD97":2543014.3434000001,"ADDRESS":"忠義路一段８４巷１８弄１３號","OBJECTID":3139},"geometry":{"x":168263.58831799962,"y":2543014.3434050009}},{"attributes":{"ID":3140,"DIS_CODE":0,"TOWNNAME":"中西區","LI":"進學里","LIN":"18鄰","STREET":"忠義路","SECT":"一段","MAREA":" ","LANE":"８４巷","ALLEY":"１８弄","HOUSE_NO":"５號","E_COORD97":168270.367631,"N_COORD97":2543029.3717299998,"ADDRESS":"忠義路一段８４巷１８弄５號","OBJECTID":3140},"geometry":{"x":168270.36763100047,"y":2543029.3717300016}},{"attributes":{"ID":3141,"DIS_CODE":0,"TOWNNAME":"中西區","LI":"進學里","LIN":"18鄰","STREET":"忠義路","SECT":"一段","MAREA":" ","LANE":"８４巷","ALLEY":"６弄","HOUSE_NO":"３號","E_COORD97":168227.573218,"N_COORD97":2543047.3633900001,"ADDRESS":"忠義路一段８４巷６弄３號","OBJECTID":3141},"geometry":{"x":168227.57321800105,"y":2543047.3633869998}},{"attributes":{"ID":3142,"DIS_CODE":0,"TOWNNAME":"中西區","LI":"進學里","LIN":"18鄰","STREET":"忠義路","SECT":"一段","MAREA":" ","LANE":"８４巷","ALLEY":" ","HOUSE_NO":"８號","E_COORD97":168209.353814,"N_COORD97":2543068.5300400001,"ADDRESS":"忠義路一段８４巷８號","OBJECTID":3142},"geometry":{"x":168209.35381400026,"y":2543068.5300430022}},{"attributes":{"ID":3143,"DIS_CODE":0,"TOWNNAME":"中西區","LI":"進學里","LIN":"19鄰","STREET":"忠義路","SECT":"一段","MAREA":" ","LANE":"８４巷","ALLEY":" ","HOUSE_NO":"１號之１","E_COORD97":168194.73592100001,"N_COORD97":2543096.47003,"ADDRESS":"忠義路一段８４巷１號之１","OBJECTID":3143},"geometry":{"x":168194.73592100013,"y":2543096.4700280018}},{"attributes":{"ID":3144,"DIS_CODE":0,"TOWNNAME":"中西區","LI":"進學里","LIN":"19鄰","STREET":"忠義路","SECT":"一段","MAREA":" ","LANE":" ","ALLEY":" ","HOUSE_NO":"９０號","E_COORD97":168174.60983500001,"N_COORD97":2543112.76835,"ADDRESS":"忠義路一段９０號","OBJECTID":3144},"geometry":{"x":168174.60983499885,"y":2543112.7683520019}},{"attributes":{"ID":3145,"DIS_CODE":0,"TOWNNAME":"中西區","LI":"進學里","LIN":"17鄰","STREET":"忠義路","SECT":"一段","MAREA":" ","LANE":"６０巷","ALLEY":" ","HOUSE_NO":"１２號","E_COORD97":168231.17472800001,"N_COORD97":2543014.3434000001,"ADDRESS":"忠義路一段６０巷１２號","OBJECTID":3145},"geometry":{"x":168231.17472799961,"y":2543014.3434050009}},{"attributes":{"ID":3146,"DIS_CODE":0,"TOWNNAME":"中西區","LI":"進學里","LIN":"20鄰","STREET":"南門路","SECT":" ","MAREA":" ","LANE":" ","ALLEY":" ","HOUSE_NO":"６號","E_COORD97":168437.308212,"N_COORD97":2543259.4532699999,"ADDRESS":"南門路６號","OBJECTID":3146},"geometry":{"x":168437.30821199995,"y":2543259.4532730002}},{"attributes":{"ID":3147,"DIS_CODE":0,"TOWNNAME":"中西區","LI":"進學里","LIN":"20鄰","STREET":"南門路","SECT":" ","MAREA":" ","LANE":" ","ALLEY":" ","HOUSE_NO":"８號","E_COORD97":168435.40153,"N_COORD97":2543256.7016099999,"ADDRESS":"南門路８號","OBJECTID":3147},"geometry":{"x":168435.40153000131,"y":2543256.701608004}},{"attributes":{"ID":3148,"DIS_CODE":0,"TOWNNAME":"中西區","LI":"進學里","LIN":"20鄰","STREET":"南門路","SECT":" ","MAREA":" ","LANE":" ","ALLEY":" ","HOUSE_NO":"１０號","E_COORD97":168435.82523700001,"N_COORD97":2543253.1032799999,"ADDRESS":"南門路１０號","OBJECTID":3148},"geometry":{"x":168435.82523700129,"y":2543253.1032760013}},{"attributes":{"ID":3149,"DIS_CODE":0,"TOWNNAME":"中西區","LI":"進學里","LIN":"20鄰","STREET":"南門路","SECT":" ","MAREA":" ","LANE":" ","ALLEY":" ","HOUSE_NO":"１２號","E_COORD97":168434.765969,"N_COORD97":2543248.8699400001,"ADDRESS":"南門路１２號","OBJECTID":3149},"geometry":{"x":168434.76596899983,"y":2543248.8699450027}},{"attributes":{"ID":3150,"DIS_CODE":0,"TOWNNAME":"中西區","LI":"進學里","LIN":"20鄰","STREET":"南門路","SECT":" ","MAREA":" ","LANE":" ","ALLEY":" ","HOUSE_NO":"２４號","E_COORD97":168416.546566,"N_COORD97":2543157.4299900001,"ADDRESS":"南門路２４號","OBJECTID":3150},"geometry":{"x":168416.54656600114,"y":2543157.4299950004}},{"attributes":{"ID":3151,"DIS_CODE":0,"TOWNNAME":"中西區","LI":"進學里","LIN":"20鄰","STREET":"南門路","SECT":" ","MAREA":" ","LANE":" ","ALLEY":" ","HOUSE_NO":"２６號","E_COORD97":168400.44569699999,"N_COORD97":2543142.1899999999,"ADDRESS":"南門路２６號","OBJECTID":3151},"geometry":{"x":168400.44569700118,"y":2543142.1900030039}},{"attributes":{"ID":3152,"DIS_CODE":0,"TOWNNAME":"中西區","LI":"進學里","LIN":"20鄰","STREET":"南門路","SECT":" ","MAREA":" ","LANE":" ","ALLEY":" ","HOUSE_NO":"２８號","E_COORD97":168412.945056,"N_COORD97":2543067.4717100002,"ADDRESS":"南門路２８號","OBJECTID":3152},"geometry":{"x":168412.94505599979,"y":2543067.4717100002}},{"attributes":{"ID":3153,"DIS_CODE":0,"TOWNNAME":"中西區","LI":"進學里","LIN":"20鄰","STREET":"南門路","SECT":" ","MAREA":" ","LANE":" ","ALLEY":" ","HOUSE_NO":"３２號之１","E_COORD97":168416.122859,"N_COORD97":2543063.8733799998,"ADDRESS":"南門路３２號之１","OBJECTID":3153},"geometry":{"x":168416.12285900023,"y":2543063.873378003}},{"attributes":{"ID":3154,"DIS_CODE":0,"TOWNNAME":"安南區","LI":"安慶里","LIN":"28鄰","STREET":"培安路","SECT":" ","MAREA":" ","LANE":" ","ALLEY":" ","HOUSE_NO":"３２２號","E_COORD97":169266.68962200001,"N_COORD97":2548909.8520399998,"ADDRESS":"培安路３２２號","OBJECTID":3154},"geometry":{"x":169266.68962200079,"y":2548909.8520440031}},{"attributes":{"ID":3155,"DIS_CODE":0,"TOWNNAME":"安南區","LI":"佃東里","LIN":"5鄰","STREET":"公學路","SECT":"四段","MAREA":" ","LANE":"１２２巷","ALLEY":" ","HOUSE_NO":"１１號","E_COORD97":165584.521183,"N_COORD97":2552113.4498800002,"ADDRESS":"公學路四段１２２巷１１號","OBJECTID":3155},"geometry":{"x":165584.52118300181,"y":2552113.4498829991}},{"attributes":{"ID":3156,"DIS_CODE":0,"TOWNNAME":"安南區","LI":"佃東里","LIN":"8鄰","STREET":"公學路","SECT":"四段","MAREA":" ","LANE":"１２６巷","ALLEY":" ","HOUSE_NO":"５２號","E_COORD97":165431.64992500001,"N_COORD97":2551981.1582900002,"ADDRESS":"公學路四段１２６巷５２號","OBJECTID":3156},"geometry":{"x":165431.6499250019,"y":2551981.158288002}},{"attributes":{"ID":3157,"DIS_CODE":0,"TOWNNAME":"安南區","LI":"佃東里","LIN":"9鄰","STREET":"海佃路","SECT":"四段","MAREA":" ","LANE":"３８８巷","ALLEY":"１０７弄","HOUSE_NO":"２２之１號","E_COORD97":165536.034316,"N_COORD97":2551878.28834,"ADDRESS":"海佃路四段３８８巷１０７弄２２之１號","OBJECTID":3157},"geometry":{"x":165536.03431600053,"y":2551878.2883430012}},{"attributes":{"ID":3158,"DIS_CODE":0,"TOWNNAME":"安南區","LI":"佃東里","LIN":"12鄰","STREET":"海佃路","SECT":"四段","MAREA":" ","LANE":"３８８巷","ALLEY":"１３４弄","HOUSE_NO":"１３號","E_COORD97":165666.27002,"N_COORD97":2551910.6335700001,"ADDRESS":"海佃路四段３８８巷１３４弄１３號","OBJECTID":3158},"geometry":{"x":165666.27002000064,"y":2551910.6335739996}},{"attributes":{"ID":3159,"DIS_CODE":0,"TOWNNAME":"安南區","LI":"佃東里","LIN":"14鄰","STREET":"公學路","SECT":"三段","MAREA":" ","LANE":" ","ALLEY":" ","HOUSE_NO":"３５０之７０號","E_COORD97":166038.76809200001,"N_COORD97":2552136.30987,"ADDRESS":"公學路三段３５０之７０號","OBJECTID":3159},"geometry":{"x":166038.76809200086,"y":2552136.3098700047}},{"attributes":{"ID":3160,"DIS_CODE":0,"TOWNNAME":"官田區","LI":"隆本里","LIN":"3鄰","STREET":"中華路","SECT":"二段","MAREA":" ","LANE":"５８巷","ALLEY":" ","HOUSE_NO":"２９號","E_COORD97":180243.79880300001,"N_COORD97":2566434.0275900001,"ADDRESS":"中華路二段５８巷２９號","OBJECTID":3160},"geometry":{"x":180243.79880299978,"y":2566434.0275920015}},{"attributes":{"ID":3161,"DIS_CODE":0,"TOWNNAME":"安南區","LI":"溪心里","LIN":"18鄰","STREET":"海佃路","SECT":"三段","MAREA":" ","LANE":" ","ALLEY":" ","HOUSE_NO":"２４１號","E_COORD97":165959.76519999999,"N_COORD97":2550237.49505,"ADDRESS":"海佃路三段２４１號","OBJECTID":3161},"geometry":{"x":165959.76520000119,"y":2550237.4950479995}},{"attributes":{"ID":3162,"DIS_CODE":0,"TOWNNAME":"安南區","LI":"砂崙里","LIN":"4鄰","STREET":"城北路","SECT":" ","MAREA":" ","LANE":"８７１巷","ALLEY":"１６６弄","HOUSE_NO":"６３之１號","E_COORD97":160430.60000000001,"N_COORD97":2553346.04,"ADDRESS":"城北路８７１巷１６６弄６３之１號","OBJECTID":3162},"geometry":{"x":160430.59999999963,"y":2553346.0399999991}},{"attributes":{"ID":3163,"DIS_CODE":0,"TOWNNAME":"中西區","LI":"水仙里","LIN":"3鄰","STREET":"海安路","SECT":"二段","MAREA":" ","LANE":" ","ALLEY":" ","HOUSE_NO":"１１２號","E_COORD97":167666.53749300001,"N_COORD97":2544009.2670200001,"ADDRESS":"海安路二段１１２號","OBJECTID":3163},"geometry":{"x":167666.53749300074,"y":2544009.2670220025}},{"attributes":{"ID":3164,"DIS_CODE":0,"TOWNNAME":"安南區","LI":"溪心里","LIN":"18鄰","STREET":"海佃路","SECT":"三段","MAREA":" ","LANE":" ","ALLEY":" ","HOUSE_NO":"２４１號之５","E_COORD97":165952.77801000001,"N_COORD97":2550231.1450499999,"ADDRESS":"海佃路三段２４１號之５","OBJECTID":3164},"geometry":{"x":165952.77801000047,"y":2550231.1450510006}},{"attributes":{"ID":3165,"DIS_CODE":0,"TOWNNAME":"中西區","LI":"水仙里","LIN":"3鄰","STREET":"海安路","SECT":"二段","MAREA":" ","LANE":" ","ALLEY":" ","HOUSE_NO":"１１６號","E_COORD97":167669.079902,"N_COORD97":2544014.3470200002,"ADDRESS":"海安路二段１１６號","OBJECTID":3165},"geometry":{"x":167669.07990199979,"y":2544014.3470200021}},{"attributes":{"ID":3166,"DIS_CODE":0,"TOWNNAME":"安南區","LI":"溪心里","LIN":"14鄰","STREET":"本原街","SECT":"二段","MAREA":" ","LANE":" ","ALLEY":" ","HOUSE_NO":"３６３號","E_COORD97":166254.312332,"N_COORD97":2550608.1429300001,"ADDRESS":"本原街二段３６３號","OBJECTID":3166},"geometry":{"x":166254.31233199965,"y":2550608.1429280024}},{"attributes":{"ID":3167,"DIS_CODE":0,"TOWNNAME":"安南區","LI":"砂崙里","LIN":"2鄰","STREET":"城北路","SECT":" ","MAREA":" ","LANE":"８７１巷","ALLEY":"１１７弄","HOUSE_NO":"４０號之１","E_COORD97":160564.48519199999,"N_COORD97":2553173.0151,"ADDRESS":"城北路８７１巷１１７弄４０號之１","OBJECTID":3167},"geometry":{"x":160564.4851920018,"y":2553173.0150979999}},{"attributes":{"ID":3168,"DIS_CODE":0,"TOWNNAME":"安南區","LI":"砂崙里","LIN":"2鄰","STREET":"城北路","SECT":" ","MAREA":" ","LANE":"８７１巷","ALLEY":"１１７弄","HOUSE_NO":"４２號之１","E_COORD97":160563.84968700001,"N_COORD97":2553169.62843,"ADDRESS":"城北路８７１巷１１７弄４２號之１","OBJECTID":3168},"geometry":{"x":160563.84968700074,"y":2553169.6284340024}},{"attributes":{"ID":3169,"DIS_CODE":0,"TOWNNAME":"安南區","LI":"溪心里","LIN":"15鄰","STREET":"智安四街","SECT":" ","MAREA":" ","LANE":" ","ALLEY":" ","HOUSE_NO":"１００號","E_COORD97":166070.95151499999,"N_COORD97":2550426.3213599999,"ADDRESS":"智安四街１００號","OBJECTID":3169},"geometry":{"x":166070.95151500124,"y":2550426.3213599995}},{"attributes":{"ID":3170,"DIS_CODE":0,"TOWNNAME":"安南區","LI":"砂崙里","LIN":"2鄰","STREET":"城北路","SECT":" ","MAREA":" ","LANE":"８７１巷","ALLEY":"１１７弄","HOUSE_NO":"４２號之２","E_COORD97":160563.00234800001,"N_COORD97":2553166.87677,"ADDRESS":"城北路８７１巷１１７弄４２號之２","OBJECTID":3170},"geometry":{"x":160563.00234800205,"y":2553166.8767680023}},{"attributes":{"ID":3171,"DIS_CODE":0,"TOWNNAME":"安南區","LI":"溪心里","LIN":"15鄰","STREET":"智安四街","SECT":" ","MAREA":" ","LANE":"９８巷","ALLEY":" ","HOUSE_NO":"６５號","E_COORD97":166097.34510899999,"N_COORD97":2550477.2599800001,"ADDRESS":"智安四街９８巷６５號","OBJECTID":3171},"geometry":{"x":166097.3451090008,"y":2550477.2599849999}},{"attributes":{"ID":3172,"DIS_CODE":0,"TOWNNAME":"新營區","LI":"新南里","LIN":"5鄰","STREET":"金華路","SECT":"二段","MAREA":" ","LANE":" ","ALLEY":" ","HOUSE_NO":"１２２號","E_COORD97":178590.31684099999,"N_COORD97":2578741.65258,"ADDRESS":"金華路二段１２２號","OBJECTID":3172},"geometry":{"x":178590.31684099976,"y":2578741.6525820047}},{"attributes":{"ID":3173,"DIS_CODE":0,"TOWNNAME":"安南區","LI":"溪心里","LIN":"15鄰","STREET":"智安四街","SECT":" ","MAREA":" ","LANE":"９８巷","ALLEY":" ","HOUSE_NO":"６３號","E_COORD97":166093.11044799999,"N_COORD97":2550474.2966499999,"ADDRESS":"智安四街９８巷６３號","OBJECTID":3173},"geometry":{"x":166093.11044800095,"y":2550474.2966530025}},{"attributes":{"ID":3174,"DIS_CODE":0,"TOWNNAME":"安南區","LI":"溪心里","LIN":"15鄰","STREET":"智安四街","SECT":" ","MAREA":" ","LANE":" ","ALLEY":" ","HOUSE_NO":"６１號","E_COORD97":166089.51098600001,"N_COORD97":2550470.4866599999,"ADDRESS":"智安四街６１號","OBJECTID":3174},"geometry":{"x":166089.5109860003,"y":2550470.4866550025}},{"attributes":{"ID":3175,"DIS_CODE":0,"TOWNNAME":"新營區","LI":"新南里","LIN":"5鄰","STREET":"金華路","SECT":"二段","MAREA":" ","LANE":" ","ALLEY":" ","HOUSE_NO":"１２８號","E_COORD97":178583.53661000001,"N_COORD97":2578737.6309199999,"ADDRESS":"金華路二段１２８號","OBJECTID":3175},"geometry":{"x":178583.53661000077,"y":2578737.6309169997}},{"attributes":{"ID":3176,"DIS_CODE":0,"TOWNNAME":"安南區","LI":"溪心里","LIN":"15鄰","STREET":"智安四街","SECT":" ","MAREA":" ","LANE":" ","ALLEY":" ","HOUSE_NO":"５９號","E_COORD97":166087.181923,"N_COORD97":2550467.09999,"ADDRESS":"智安四街５９號","OBJECTID":3176},"geometry":{"x":166087.18192300014,"y":2550467.0999910012}},{"attributes":{"ID":3177,"DIS_CODE":0,"TOWNNAME":"安南區","LI":"溪心里","LIN":"15鄰","STREET":"智安四街","SECT":" ","MAREA":" ","LANE":" ","ALLEY":" ","HOUSE_NO":"６０號","E_COORD97":166093.322181,"N_COORD97":2550461.3849900002,"ADDRESS":"智安四街６０號","OBJECTID":3177},"geometry":{"x":166093.32218100037,"y":2550461.3849940021}},{"attributes":{"ID":3178,"DIS_CODE":0,"TOWNNAME":"新營區","LI":"新南里","LIN":"5鄰","STREET":"金華路","SECT":"二段","MAREA":" ","LANE":" ","ALLEY":" ","HOUSE_NO":"１３２號","E_COORD97":178582.689082,"N_COORD97":2578734.8792500002,"ADDRESS":"金華路二段１３２號","OBJECTID":3178},"geometry":{"x":178582.68908200134,"y":2578734.8792520016}},{"attributes":{"ID":3179,"DIS_CODE":0,"TOWNNAME":"中西區","LI":"水仙里","LIN":"18鄰","STREET":"海安路","SECT":"二段","MAREA":" ","LANE":" ","ALLEY":" ","HOUSE_NO":"２６８號","E_COORD97":167768.65758900001,"N_COORD97":2544268.66438,"ADDRESS":"海安路二段２６８號","OBJECTID":3179},"geometry":{"x":167768.65758899972,"y":2544268.6643820014}},{"attributes":{"ID":3180,"DIS_CODE":0,"TOWNNAME":"安南區","LI":"溪心里","LIN":"15鄰","STREET":"智安四街","SECT":" ","MAREA":" ","LANE":" ","ALLEY":" ","HOUSE_NO":"６６號","E_COORD97":166103.06190100001,"N_COORD97":2550471.3333200002,"ADDRESS":"智安四街６６號","OBJECTID":3180},"geometry":{"x":166103.06190100126,"y":2550471.3333219998}},{"attributes":{"ID":3181,"DIS_CODE":0,"TOWNNAME":"新營區","LI":"新南里","LIN":"5鄰","STREET":"金華路","SECT":"二段","MAREA":" ","LANE":" ","ALLEY":" ","HOUSE_NO":"１３６號","E_COORD97":178579.51084800001,"N_COORD97":2578732.3392500002,"ADDRESS":"金華路二段１３６號","OBJECTID":3181},"geometry":{"x":178579.51084800065,"y":2578732.3392530028}},{"attributes":{"ID":3182,"DIS_CODE":0,"TOWNNAME":"東區","LI":"崇善里","LIN":"12鄰","STREET":"崇善九街","SECT":" ","MAREA":" ","LANE":" ","ALLEY":" ","HOUSE_NO":"１７號","E_COORD97":171121.027118,"N_COORD97":2541338.6443599998,"ADDRESS":"崇善九街１７號","OBJECTID":3182},"geometry":{"x":171121.0271180002,"y":2541338.6443570033}},{"attributes":{"ID":3183,"DIS_CODE":0,"TOWNNAME":"新營區","LI":"新南里","LIN":"5鄰","STREET":"金華路","SECT":"二段","MAREA":" ","LANE":" ","ALLEY":" ","HOUSE_NO":"１４０號","E_COORD97":178566.586033,"N_COORD97":2578720.2742599999,"ADDRESS":"金華路二段１４０號","OBJECTID":3183},"geometry":{"x":178566.58603300061,"y":2578720.2742599994}},{"attributes":{"ID":3184,"DIS_CODE":0,"TOWNNAME":"安南區","LI":"溪心里","LIN":"18鄰","STREET":"海佃路","SECT":"三段","MAREA":" ","LANE":" ","ALLEY":" ","HOUSE_NO":"１６３號","E_COORD97":166085.06459200001,"N_COORD97":2550077.8451999999,"ADDRESS":"海佃路三段１６３號","OBJECTID":3184},"geometry":{"x":166085.0645920001,"y":2550077.8452010006}},{"attributes":{"ID":3185,"DIS_CODE":0,"TOWNNAME":"東區","LI":"文聖里","LIN":"20鄰","STREET":"裕義路","SECT":" ","MAREA":" ","LANE":" ","ALLEY":" ","HOUSE_NO":"３１６號","E_COORD97":172872.68993699999,"N_COORD97":2542567.0318,"ADDRESS":"裕義路３１６號","OBJECTID":3185},"geometry":{"x":172872.68993700109,"y":2542567.0317989998}},{"attributes":{"ID":3186,"DIS_CODE":0,"TOWNNAME":"安南區","LI":"溪心里","LIN":"14鄰","STREET":"本原街","SECT":"二段","MAREA":" ","LANE":" ","ALLEY":" ","HOUSE_NO":"５１２號之２","E_COORD97":165908.5851,"N_COORD97":2550545.0991199999,"ADDRESS":"本原街二段５１２號之２","OBJECTID":3186},"geometry":{"x":165908.58509999979,"y":2550545.099115001}},{"attributes":{"ID":3187,"DIS_CODE":0,"TOWNNAME":"東區","LI":"裕聖里","LIN":"19鄰","STREET":"裕華三街","SECT":" ","MAREA":" ","LANE":" ","ALLEY":" ","HOUSE_NO":"１００號","E_COORD97":172762.66124799999,"N_COORD97":2541842.0255499999,"ADDRESS":"裕華三街１００號","OBJECTID":3187},"geometry":{"x":172762.66124800034,"y":2541842.0255530011}},{"attributes":{"ID":3188,"DIS_CODE":0,"TOWNNAME":"中西區","LI":"水仙里","LIN":"18鄰","STREET":"海安路","SECT":"二段","MAREA":" ","LANE":"２３６巷","ALLEY":" ","HOUSE_NO":"１之１號","E_COORD97":167762.30156699999,"N_COORD97":2544243.0527300001,"ADDRESS":"海安路二段２３６巷１之１號","OBJECTID":3188},"geometry":{"x":167762.30156699941,"y":2544243.0527289994}},{"attributes":{"ID":3189,"DIS_CODE":0,"TOWNNAME":"安南區","LI":"溪心里","LIN":"15鄰","STREET":"本原街","SECT":"二段","MAREA":" ","LANE":" ","ALLEY":" ","HOUSE_NO":"５１２號之６","E_COORD97":165910.91416300001,"N_COORD97":2550546.58078,"ADDRESS":"本原街二段５１２號之６","OBJECTID":3189},"geometry":{"x":165910.91416299995,"y":2550546.5807810035}},{"attributes":{"ID":3190,"DIS_CODE":0,"TOWNNAME":"歸仁區","LI":"西埔里","LIN":"15鄰","STREET":"西埔二街","SECT":" ","MAREA":" ","LANE":"１１０巷","ALLEY":" ","HOUSE_NO":"６號","E_COORD97":176765.06312599999,"N_COORD97":2544784.6624400001,"ADDRESS":"西埔二街１１０巷６號","OBJECTID":3190},"geometry":{"x":176765.06312599964,"y":2544784.662436001}},{"attributes":{"ID":3191,"DIS_CODE":0,"TOWNNAME":"南區","LI":"同安里","LIN":"17鄰","STREET":"明興路","SECT":" ","MAREA":" ","LANE":"１４２５巷","ALLEY":"１４弄","HOUSE_NO":"２８號","E_COORD97":166384.75615500001,"N_COORD97":2535696.8995500002,"ADDRESS":"明興路１４２５巷１４弄２８號","OBJECTID":3191},"geometry":{"x":166384.75615500193,"y":2535696.899546003}},{"attributes":{"ID":3192,"DIS_CODE":0,"TOWNNAME":"東區","LI":"裕聖里","LIN":"19鄰","STREET":"裕華三街","SECT":" ","MAREA":" ","LANE":" ","ALLEY":" ","HOUSE_NO":"１０２號","E_COORD97":172762.276147,"N_COORD97":2541830.4856599998,"ADDRESS":"裕華三街１０２號","OBJECTID":3192},"geometry":{"x":172762.27614700142,"y":2541830.4856560007}},{"attributes":{"ID":3193,"DIS_CODE":0,"TOWNNAME":"歸仁區","LI":"西埔里","LIN":"15鄰","STREET":"西埔二街","SECT":" ","MAREA":" ","LANE":"１１０巷","ALLEY":" ","HOUSE_NO":"３１號","E_COORD97":176727.76001,"N_COORD97":2544804.7707600002,"ADDRESS":"西埔二街１１０巷３１號","OBJECTID":3193},"geometry":{"x":176727.76001000125,"y":2544804.7707589995}},{"attributes":{"ID":3194,"DIS_CODE":0,"TOWNNAME":"歸仁區","LI":"許厝里","LIN":"13鄰","STREET":"中山路","SECT":"一段","MAREA":" ","LANE":" ","ALLEY":" ","HOUSE_NO":"４８１號","E_COORD97":178041.763573,"N_COORD97":2540710.13228,"ADDRESS":"中山路一段４８１號","OBJECTID":3194},"geometry":{"x":178041.76357300114,"y":2540710.1322810017}},{"attributes":{"ID":3195,"DIS_CODE":0,"TOWNNAME":"中西區","LI":"水仙里","LIN":"18鄰","STREET":"海安路","SECT":"二段","MAREA":" ","LANE":"２３６巷","ALLEY":" ","HOUSE_NO":"１號","E_COORD97":167762.24867500001,"N_COORD97":2544257.7637100001,"ADDRESS":"海安路二段２３６巷１號","OBJECTID":3195},"geometry":{"x":167762.24867499992,"y":2544257.7637060005}},{"attributes":{"ID":3196,"DIS_CODE":0,"TOWNNAME":"中西區","LI":"水仙里","LIN":"18鄰","STREET":"海安路","SECT":"二段","MAREA":" ","LANE":"２３６巷","ALLEY":" ","HOUSE_NO":"３號","E_COORD97":167771.358974,"N_COORD97":2544252.4720399999,"ADDRESS":"海安路二段２３６巷３號","OBJECTID":3196},"geometry":{"x":167771.3589740023,"y":2544252.4720419999}},{"attributes":{"ID":3197,"DIS_CODE":0,"TOWNNAME":"中西區","LI":"水仙里","LIN":"18鄰","STREET":"海安路","SECT":"二段","MAREA":" ","LANE":"２３６巷","ALLEY":" ","HOUSE_NO":"５號","E_COORD97":167773.90138299999,"N_COORD97":2544251.41371,"ADDRESS":"海安路二段２３６巷５號","OBJECTID":3197},"geometry":{"x":167773.90138300043,"y":2544251.4137090016}},{"attributes":{"ID":3198,"DIS_CODE":0,"TOWNNAME":"歸仁區","LI":"許厝里","LIN":"7鄰","STREET":"仁愛南街","SECT":" ","MAREA":" ","LANE":" ","ALLEY":" ","HOUSE_NO":"２０號","E_COORD97":178262.14442699999,"N_COORD97":2540622.5067400001,"ADDRESS":"仁愛南街２０號","OBJECTID":3198},"geometry":{"x":178262.14442699961,"y":2540622.5067370012}},{"attributes":{"ID":3199,"DIS_CODE":0,"TOWNNAME":"下營區","LI":"營前里","LIN":"21鄰","STREET":"健康路","SECT":" ","MAREA":" ","LANE":" ","ALLEY":" ","HOUSE_NO":"２５８號","E_COORD97":174992.344583,"N_COORD97":2570336.30045,"ADDRESS":"健康路２５８號","OBJECTID":3199},"geometry":{"x":174992.34458300099,"y":2570336.3004530016}},{"attributes":{"ID":3200,"DIS_CODE":0,"TOWNNAME":"南區","LI":"喜北里","LIN":"1鄰","STREET":"喜樹路","SECT":" ","MAREA":" ","LANE":"２４巷","ALLEY":" ","HOUSE_NO":"４１之１號","E_COORD97":165730.82820600001,"N_COORD97":2538618.5818400001,"ADDRESS":"喜樹路２４巷４１之１號","OBJECTID":3200},"geometry":{"x":165730.82820599992,"y":2538618.5818439983}}]}