{"displayFieldName":"TOWNNAME","fieldAliases":{"ID":"ID","DIS_CODE":"DIS_CODE","TOWNNAME":"TOWNNAME","LI":"LI","LIN":"LIN","STREET":"STREET","SECT":"SECT","MAREA":"MAREA","LANE":"LANE","ALLEY":"ALLEY","HOUSE_NO":"HOUSE_NO","E_COORD97":"E_COORD97","N_COORD97":"N_COORD97","ADDRESS":"ADDRESS","OBJECTID":"OBJECTID"},"geometryType":"esriGeometryPoint","spatialReference":{"wkid":102443,"latestWkid":3826},"fields":[{"name":"ID","type":"esriFieldTypeDouble","alias":"ID"},{"name":"DIS_CODE","type":"esriFieldTypeInteger","alias":"DIS_CODE"},{"name":"TOWNNAME","type":"esriFieldTypeString","alias":"TOWNNAME","length":8},{"name":"LI","type":"esriFieldTypeString","alias":"LI","length":8},{"name":"LIN","type":"esriFieldTypeString","alias":"LIN","length":12},{"name":"STREET","type":"esriFieldTypeString","alias":"STREET","length":20},{"name":"SECT","type":"esriFieldTypeString","alias":"SECT","length":8},{"name":"MAREA","type":"esriFieldTypeString","alias":"MAREA","length":12},{"name":"LANE","type":"esriFieldTypeString","alias":"LANE","length":10},{"name":"ALLEY","type":"esriFieldTypeString","alias":"ALLEY","length":10},{"name":"HOUSE_NO","type":"esriFieldTypeString","alias":"HOUSE_NO","length":20},{"name":"E_COORD97","type":"esriFieldTypeDouble","alias":"E_COORD97"},{"name":"N_COORD97","type":"esriFieldTypeDouble","alias":"N_COORD97"},{"name":"ADDRESS","type":"esriFieldTypeString","alias":"ADDRESS","length":50},{"name":"OBJECTID","type":"esriFieldTypeOID","alias":"OBJECTID"}],"features":[{"attributes":{"ID":620228,"DIS_CODE":0,"TOWNNAME":"新營區","LI":"民榮里","LIN":"2鄰","STREET":"濟安街","SECT":" ","MAREA":" ","LANE":" ","ALLEY":" ","HOUSE_NO":"７２號","E_COORD97":179294.16,"N_COORD97":2577941.5,"ADDRESS":"濟安街７２號","OBJECTID":620201},"geometry":{"x":179294.16000000108,"y":2577941.5000000037}},{"attributes":{"ID":620229,"DIS_CODE":0,"TOWNNAME":"新營區","LI":"民生里","LIN":"2鄰","STREET":"三興街","SECT":" ","MAREA":" ","LANE":" ","ALLEY":" ","HOUSE_NO":"３號","E_COORD97":179483.14999999999,"N_COORD97":2578141.04,"ADDRESS":"三興街３號","OBJECTID":620202},"geometry":{"x":179483.15000000037,"y":2578141.040000001}},{"attributes":{"ID":620230,"DIS_CODE":0,"TOWNNAME":"新營區","LI":"護鎮里","LIN":"2鄰","STREET":"建國路","SECT":" ","MAREA":" ","LANE":" ","ALLEY":" ","HOUSE_NO":"２６０號","E_COORD97":179325.64000000001,"N_COORD97":2581051.0899999999,"ADDRESS":"建國路２６０號","OBJECTID":620203},"geometry":{"x":179325.64000000153,"y":2581051.0900000017}},{"attributes":{"ID":620231,"DIS_CODE":0,"TOWNNAME":"新營區","LI":"民榮里","LIN":"2鄰","STREET":"復興路","SECT":" ","MAREA":" ","LANE":" ","ALLEY":" ","HOUSE_NO":"１４３之２號","E_COORD97":179278.81,"N_COORD97":2578018.0600000001,"ADDRESS":"復興路１４３之２號","OBJECTID":620204},"geometry":{"x":179278.81000000052,"y":2578018.0600000005}},{"attributes":{"ID":620232,"DIS_CODE":0,"TOWNNAME":"新營區","LI":"中營里","LIN":"2鄰","STREET":"中山路","SECT":" ","MAREA":" ","LANE":" ","ALLEY":" ","HOUSE_NO":"６８號","E_COORD97":180429.25,"N_COORD97":2578313.77,"ADDRESS":"中山路６８號","OBJECTID":620205},"geometry":{"x":180429.25000000093,"y":2578313.7700000014}},{"attributes":{"ID":620233,"DIS_CODE":0,"TOWNNAME":"新營區","LI":"新南里","LIN":"2鄰","STREET":"新北一街","SECT":" ","MAREA":" ","LANE":" ","ALLEY":" ","HOUSE_NO":"４１號","E_COORD97":178782.95000000001,"N_COORD97":2578620.6099999999,"ADDRESS":"新北一街４１號","OBJECTID":620206},"geometry":{"x":178782.95000000019,"y":2578620.6099999994}},{"attributes":{"ID":620234,"DIS_CODE":0,"TOWNNAME":"新營區","LI":"好平里","LIN":"2鄰","STREET":"南昌街","SECT":" ","MAREA":" ","LANE":" ","ALLEY":" ","HOUSE_NO":"２４號","E_COORD97":179650.92000000001,"N_COORD97":2577670.6899999999,"ADDRESS":"南昌街２４號","OBJECTID":620207},"geometry":{"x":179650.91999999993,"y":2577670.6899999995}},{"attributes":{"ID":620235,"DIS_CODE":0,"TOWNNAME":"新營區","LI":"新南里","LIN":"2鄰","STREET":"新北一街","SECT":" ","MAREA":" ","LANE":" ","ALLEY":" ","HOUSE_NO":"１５號","E_COORD97":178869.78,"N_COORD97":2578614.6400000001,"ADDRESS":"新北一街１５號","OBJECTID":620208},"geometry":{"x":178869.78000000119,"y":2578614.6400000006}},{"attributes":{"ID":620236,"DIS_CODE":0,"TOWNNAME":"新營區","LI":"新南里","LIN":"2鄰","STREET":"新北一街","SECT":" ","MAREA":" ","LANE":" ","ALLEY":" ","HOUSE_NO":"８１號","E_COORD97":178702.51000000001,"N_COORD97":2578698.5099999998,"ADDRESS":"新北一街８１號","OBJECTID":620209},"geometry":{"x":178702.50999999978,"y":2578698.5100000016}},{"attributes":{"ID":620237,"DIS_CODE":0,"TOWNNAME":"北區","LI":"仁愛里","LIN":"2鄰","STREET":"勝利路","SECT":" ","MAREA":" ","LANE":" ","ALLEY":" ","HOUSE_NO":"２２０號","E_COORD97":169935.87,"N_COORD97":2545010.29,"ADDRESS":"勝利路２２０號","OBJECTID":620210},"geometry":{"x":169935.87000000011,"y":2545010.2899999991}},{"attributes":{"ID":620238,"DIS_CODE":0,"TOWNNAME":"北區","LI":"仁愛里","LIN":"2鄰","STREET":"勝利路","SECT":" ","MAREA":" ","LANE":" ","ALLEY":" ","HOUSE_NO":"２２０號之１","E_COORD97":169950.79999999999,"N_COORD97":2545006.1200000001,"ADDRESS":"勝利路２２０號之１","OBJECTID":620211},"geometry":{"x":169950.80000000075,"y":2545006.120000001}},{"attributes":{"ID":620239,"DIS_CODE":0,"TOWNNAME":"北區","LI":"仁愛里","LIN":"2鄰","STREET":"勝利路","SECT":" ","MAREA":" ","LANE":" ","ALLEY":" ","HOUSE_NO":"２２０號之２","E_COORD97":169955.78,"N_COORD97":2545006.9300000002,"ADDRESS":"勝利路２２０號之２","OBJECTID":620212},"geometry":{"x":169955.78000000026,"y":2545006.9299999997}},{"attributes":{"ID":620240,"DIS_CODE":0,"TOWNNAME":"北區","LI":"仁愛里","LIN":"2鄰","STREET":"勝利路","SECT":" ","MAREA":" ","LANE":" ","ALLEY":" ","HOUSE_NO":"２２０號之３","E_COORD97":169960.89000000001,"N_COORD97":2545008.27,"ADDRESS":"勝利路２２０號之３","OBJECTID":620213},"geometry":{"x":169960.88999999966,"y":2545008.2699999996}},{"attributes":{"ID":620241,"DIS_CODE":0,"TOWNNAME":"北區","LI":"仁愛里","LIN":"2鄰","STREET":"勝利路","SECT":" ","MAREA":" ","LANE":" ","ALLEY":" ","HOUSE_NO":"２２０號之４","E_COORD97":169965.60000000001,"N_COORD97":2545009.0800000001,"ADDRESS":"勝利路２２０號之４","OBJECTID":620214},"geometry":{"x":169965.60000000056,"y":2545009.0800000001}},{"attributes":{"ID":620242,"DIS_CODE":0,"TOWNNAME":"北區","LI":"仁愛里","LIN":"2鄰","STREET":"勝利路","SECT":" ","MAREA":" ","LANE":" ","ALLEY":" ","HOUSE_NO":"２２０號之５","E_COORD97":169969.10000000001,"N_COORD97":2545010.6899999999,"ADDRESS":"勝利路２２０號之５","OBJECTID":620215},"geometry":{"x":169969.10000000056,"y":2545010.6900000013}},{"attributes":{"ID":620243,"DIS_CODE":0,"TOWNNAME":"中西區","LI":"三合里","LIN":"9鄰","STREET":"金華路","SECT":"四段","MAREA":" ","LANE":" ","ALLEY":" ","HOUSE_NO":"１２８號","E_COORD97":167506.78,"N_COORD97":2544433.6800000002,"ADDRESS":"金華路四段１２８號","OBJECTID":620216},"geometry":{"x":167506.78000000119,"y":2544433.6800000016}},{"attributes":{"ID":620244,"DIS_CODE":0,"TOWNNAME":"中西區","LI":"三合里","LIN":"9鄰","STREET":"金華路","SECT":"四段","MAREA":" ","LANE":" ","ALLEY":" ","HOUSE_NO":"１３０號","E_COORD97":167508.07000000001,"N_COORD97":2544438.52,"ADDRESS":"金華路四段１３０號","OBJECTID":620217},"geometry":{"x":167508.07000000216,"y":2544438.5200000014}},{"attributes":{"ID":620245,"DIS_CODE":0,"TOWNNAME":"安平區","LI":"金城里","LIN":"2鄰","STREET":"運河路","SECT":" ","MAREA":" ","LANE":" ","ALLEY":" ","HOUSE_NO":"３６號","E_COORD97":164005.64000000001,"N_COORD97":2544393.5499999998,"ADDRESS":"運河路３６號","OBJECTID":620218},"geometry":{"x":164005.63999999966,"y":2544393.5500000007}},{"attributes":{"ID":620246,"DIS_CODE":0,"TOWNNAME":"安平區","LI":"金城里","LIN":"2鄰","STREET":"運河路","SECT":" ","MAREA":" ","LANE":" ","ALLEY":" ","HOUSE_NO":"３７號","E_COORD97":163998.28,"N_COORD97":2544383.3900000001,"ADDRESS":"運河路３７號","OBJECTID":620219},"geometry":{"x":163998.28000000119,"y":2544383.3900000006}},{"attributes":{"ID":620247,"DIS_CODE":0,"TOWNNAME":"北區","LI":"五福里","LIN":"2鄰","STREET":"自強街","SECT":" ","MAREA":" ","LANE":" ","ALLEY":" ","HOUSE_NO":"１５９號","E_COORD97":168365.44,"N_COORD97":2544739.0099999998,"ADDRESS":"自強街１５９號","OBJECTID":620220},"geometry":{"x":168365.44000000134,"y":2544739.0099999998}},{"attributes":{"ID":620248,"DIS_CODE":0,"TOWNNAME":"北區","LI":"五福里","LIN":"2鄰","STREET":"自強街","SECT":" ","MAREA":" ","LANE":" ","ALLEY":" ","HOUSE_NO":"１６１號","E_COORD97":168359.98000000001,"N_COORD97":2544746.71,"ADDRESS":"自強街１６１號","OBJECTID":620221},"geometry":{"x":168359.98000000138,"y":2544746.7100000028}},{"attributes":{"ID":620249,"DIS_CODE":0,"TOWNNAME":"北區","LI":"五福里","LIN":"2鄰","STREET":"自強街","SECT":" ","MAREA":" ","LANE":" ","ALLEY":" ","HOUSE_NO":"１６１號之１","E_COORD97":168367.81,"N_COORD97":2544748.25,"ADDRESS":"自強街１６１號之１","OBJECTID":620222},"geometry":{"x":168367.80999999959,"y":2544748.2500000037}},{"attributes":{"ID":620250,"DIS_CODE":0,"TOWNNAME":"北區","LI":"五福里","LIN":"2鄰","STREET":"自強街","SECT":" ","MAREA":" ","LANE":" ","ALLEY":" ","HOUSE_NO":"１６３號","E_COORD97":168369.94,"N_COORD97":2544752.04,"ADDRESS":"自強街１６３號","OBJECTID":620223},"geometry":{"x":168369.94000000041,"y":2544752.0400000028}},{"attributes":{"ID":620251,"DIS_CODE":0,"TOWNNAME":"北區","LI":"五福里","LIN":"2鄰","STREET":"西門路","SECT":"三段","MAREA":" ","LANE":" ","ALLEY":" ","HOUSE_NO":"１５０號","E_COORD97":168336.48999999999,"N_COORD97":2544758.9900000002,"ADDRESS":"西門路三段１５０號","OBJECTID":620224},"geometry":{"x":168336.49000000115,"y":2544758.9900000002}},{"attributes":{"ID":620252,"DIS_CODE":0,"TOWNNAME":"北區","LI":"五福里","LIN":"2鄰","STREET":"西門路","SECT":"三段","MAREA":" ","LANE":" ","ALLEY":" ","HOUSE_NO":"１５２號","E_COORD97":168339.32999999999,"N_COORD97":2544763.1400000001,"ADDRESS":"西門路三段１５２號","OBJECTID":620225},"geometry":{"x":168339.33000000007,"y":2544763.1400000043}},{"attributes":{"ID":620253,"DIS_CODE":0,"TOWNNAME":"北區","LI":"五福里","LIN":"2鄰","STREET":"西門路","SECT":"三段","MAREA":" ","LANE":" ","ALLEY":" ","HOUSE_NO":"１５４號","E_COORD97":168343.60000000001,"N_COORD97":2544761.8300000001,"ADDRESS":"西門路三段１５４號","OBJECTID":620226},"geometry":{"x":168343.60000000056,"y":2544761.8300000019}},{"attributes":{"ID":620254,"DIS_CODE":0,"TOWNNAME":"北區","LI":"五福里","LIN":"2鄰","STREET":"西門路","SECT":"三段","MAREA":" ","LANE":" ","ALLEY":" ","HOUSE_NO":"１５６號","E_COORD97":168345.5,"N_COORD97":2544764.9100000001,"ADDRESS":"西門路三段１５６號","OBJECTID":620227},"geometry":{"x":168345.50000000186,"y":2544764.910000002}},{"attributes":{"ID":620255,"DIS_CODE":0,"TOWNNAME":"北區","LI":"五福里","LIN":"2鄰","STREET":"北華街","SECT":" ","MAREA":" ","LANE":" ","ALLEY":" ","HOUSE_NO":"２４８號","E_COORD97":168331.14999999999,"N_COORD97":2544683.71,"ADDRESS":"北華街２４８號","OBJECTID":620228},"geometry":{"x":168331.15000000037,"y":2544683.7100000009}},{"attributes":{"ID":620256,"DIS_CODE":0,"TOWNNAME":"玉井區","LI":"竹圍里","LIN":"2鄰","STREET":"中山路","SECT":" ","MAREA":" ","LANE":" ","ALLEY":" ","HOUSE_NO":"４７８號","E_COORD97":195323.45999999999,"N_COORD97":2558371.4399999999,"ADDRESS":"中山路４７８號","OBJECTID":620229},"geometry":{"x":195323.46000000089,"y":2558371.4399999995}},{"attributes":{"ID":620257,"DIS_CODE":0,"TOWNNAME":"中西區","LI":"安海里","LIN":"5鄰","STREET":"金華路","SECT":"三段","MAREA":" ","LANE":" ","ALLEY":" ","HOUSE_NO":"２５２號底一層","E_COORD97":167360.17000000001,"N_COORD97":2544002.2599999998,"ADDRESS":"金華路三段２５２號底一層","OBJECTID":620230},"geometry":{"x":167360.17000000086,"y":2544002.2600000016}},{"attributes":{"ID":620258,"DIS_CODE":0,"TOWNNAME":"中西區","LI":"安海里","LIN":"6鄰","STREET":"康樂街","SECT":" ","MAREA":" ","LANE":" ","ALLEY":" ","HOUSE_NO":"１６７號","E_COORD97":167434.10999999999,"N_COORD97":2543825.71,"ADDRESS":"康樂街１６７號","OBJECTID":620231},"geometry":{"x":167434.11000000034,"y":2543825.7100000009}},{"attributes":{"ID":620259,"DIS_CODE":0,"TOWNNAME":"中西區","LI":"安海里","LIN":"6鄰","STREET":"康樂街","SECT":" ","MAREA":" ","LANE":" ","ALLEY":" ","HOUSE_NO":"１６７號之１","E_COORD97":167435.01000000001,"N_COORD97":2543828.5600000001,"ADDRESS":"康樂街１６７號之１","OBJECTID":620232},"geometry":{"x":167435.01000000164,"y":2543828.5600000024}},{"attributes":{"ID":620260,"DIS_CODE":0,"TOWNNAME":"中西區","LI":"安海里","LIN":"6鄰","STREET":"康樂街","SECT":" ","MAREA":" ","LANE":" ","ALLEY":" ","HOUSE_NO":"１６７號之２","E_COORD97":167435.54000000001,"N_COORD97":2543831.0600000001,"ADDRESS":"康樂街１６７號之２","OBJECTID":620233},"geometry":{"x":167435.54000000097,"y":2543831.0600000042}},{"attributes":{"ID":620261,"DIS_CODE":0,"TOWNNAME":"中西區","LI":"安海里","LIN":"6鄰","STREET":"康樂街","SECT":" ","MAREA":" ","LANE":" ","ALLEY":" ","HOUSE_NO":"１６７號之３","E_COORD97":167436.07999999999,"N_COORD97":2543833.5600000001,"ADDRESS":"康樂街１６７號之３","OBJECTID":620234},"geometry":{"x":167436.08000000007,"y":2543833.5600000005}},{"attributes":{"ID":620262,"DIS_CODE":0,"TOWNNAME":"中西區","LI":"安海里","LIN":"6鄰","STREET":"康樂街","SECT":" ","MAREA":" ","LANE":" ","ALLEY":" ","HOUSE_NO":"１６７號之４","E_COORD97":167436.44,"N_COORD97":2543835.71,"ADDRESS":"康樂街１６７號之４","OBJECTID":620235},"geometry":{"x":167436.44000000134,"y":2543835.7100000009}},{"attributes":{"ID":620263,"DIS_CODE":0,"TOWNNAME":"中西區","LI":"安海里","LIN":"6鄰","STREET":"康樂街","SECT":" ","MAREA":" ","LANE":" ","ALLEY":" ","HOUSE_NO":"１６７號之５","E_COORD97":167436.79000000001,"N_COORD97":2543837.8500000001,"ADDRESS":"康樂街１６７號之５","OBJECTID":620236},"geometry":{"x":167436.7900000019,"y":2543837.8499999996}},{"attributes":{"ID":620264,"DIS_CODE":0,"TOWNNAME":"中西區","LI":"安海里","LIN":"6鄰","STREET":"康樂街","SECT":" ","MAREA":" ","LANE":" ","ALLEY":" ","HOUSE_NO":"１６７號之６","E_COORD97":167437.32999999999,"N_COORD97":2543839.2799999998,"ADDRESS":"康樂街１６７號之６","OBJECTID":620237},"geometry":{"x":167437.33000000007,"y":2543839.2800000012}},{"attributes":{"ID":620265,"DIS_CODE":0,"TOWNNAME":"中西區","LI":"三合里","LIN":"9鄰","STREET":"金華路","SECT":"四段","MAREA":" ","LANE":" ","ALLEY":" ","HOUSE_NO":"１３２號","E_COORD97":167510.19,"N_COORD97":2544443.04,"ADDRESS":"金華路四段１３２號","OBJECTID":620238},"geometry":{"x":167510.19000000041,"y":2544443.0399999991}},{"attributes":{"ID":620266,"DIS_CODE":0,"TOWNNAME":"中西區","LI":"三合里","LIN":"9鄰","STREET":"金華路","SECT":"四段","MAREA":" ","LANE":" ","ALLEY":" ","HOUSE_NO":"１３４號","E_COORD97":167513.07000000001,"N_COORD97":2544449.1499999999,"ADDRESS":"金華路四段１３４號","OBJECTID":620239},"geometry":{"x":167513.07000000216,"y":2544449.1500000004}},{"attributes":{"ID":620267,"DIS_CODE":0,"TOWNNAME":"北區","LI":"五福里","LIN":"2鄰","STREET":"自強街","SECT":" ","MAREA":" ","LANE":" ","ALLEY":" ","HOUSE_NO":"１２７號","E_COORD97":168340.64000000001,"N_COORD97":2544676.48,"ADDRESS":"自強街１２７號","OBJECTID":620240},"geometry":{"x":168340.63999999966,"y":2544676.4800000023}},{"attributes":{"ID":620268,"DIS_CODE":0,"TOWNNAME":"北區","LI":"五福里","LIN":"2鄰","STREET":"自強街","SECT":" ","MAREA":" ","LANE":" ","ALLEY":" ","HOUSE_NO":"１２９號","E_COORD97":168341.82000000001,"N_COORD97":2544679.9199999999,"ADDRESS":"自強街１２９號","OBJECTID":620241},"geometry":{"x":168341.8200000003,"y":2544679.9200000018}},{"attributes":{"ID":620269,"DIS_CODE":0,"TOWNNAME":"北區","LI":"五福里","LIN":"2鄰","STREET":"自強街","SECT":" ","MAREA":" ","LANE":" ","ALLEY":" ","HOUSE_NO":"１３１號","E_COORD97":168341.82000000001,"N_COORD97":2544683.8500000001,"ADDRESS":"自強街１３１號","OBJECTID":620242},"geometry":{"x":168341.8200000003,"y":2544683.8500000015}},{"attributes":{"ID":620270,"DIS_CODE":0,"TOWNNAME":"北區","LI":"五福里","LIN":"2鄰","STREET":"自強街","SECT":" ","MAREA":" ","LANE":" ","ALLEY":" ","HOUSE_NO":"１３３號","E_COORD97":168345.85000000001,"N_COORD97":2544687.52,"ADDRESS":"自強街１３３號","OBJECTID":620243},"geometry":{"x":168345.84999999963,"y":2544687.5199999996}},{"attributes":{"ID":620271,"DIS_CODE":0,"TOWNNAME":"北區","LI":"五福里","LIN":"2鄰","STREET":"自強街","SECT":" ","MAREA":" ","LANE":" ","ALLEY":" ","HOUSE_NO":"１３５號","E_COORD97":168344.67000000001,"N_COORD97":2544692.6099999999,"ADDRESS":"自強街１３５號","OBJECTID":620244},"geometry":{"x":168344.67000000086,"y":2544692.6099999994}},{"attributes":{"ID":620272,"DIS_CODE":0,"TOWNNAME":"北區","LI":"五福里","LIN":"2鄰","STREET":"自強街","SECT":" ","MAREA":" ","LANE":" ","ALLEY":" ","HOUSE_NO":"１３７號","E_COORD97":168345.85000000001,"N_COORD97":2544696.29,"ADDRESS":"自強街１３７號","OBJECTID":620245},"geometry":{"x":168345.84999999963,"y":2544696.2900000028}},{"attributes":{"ID":620273,"DIS_CODE":0,"TOWNNAME":"北區","LI":"五福里","LIN":"2鄰","STREET":"自強街","SECT":" ","MAREA":" ","LANE":" ","ALLEY":" ","HOUSE_NO":"１３９號","E_COORD97":168347.39000000001,"N_COORD97":2544700.2000000002,"ADDRESS":"自強街１３９號","OBJECTID":620246},"geometry":{"x":168347.38999999966,"y":2544700.200000003}},{"attributes":{"ID":620274,"DIS_CODE":0,"TOWNNAME":"歸仁區","LI":"歸仁里","LIN":"2鄰","STREET":"文化街","SECT":"一段","MAREA":" ","LANE":" ","ALLEY":" ","HOUSE_NO":"１４９號","E_COORD97":177834.98999999999,"N_COORD97":2541115.0499999998,"ADDRESS":"文化街一段１４９號","OBJECTID":620247},"geometry":{"x":177834.99000000022,"y":2541115.0500000007}},{"attributes":{"ID":620275,"DIS_CODE":0,"TOWNNAME":"歸仁區","LI":"崙頂里","LIN":"2鄰","STREET":"成功路","SECT":"一段","MAREA":" ","LANE":" ","ALLEY":" ","HOUSE_NO":"３０３號","E_COORD97":178261.06,"N_COORD97":2539942.3700000001,"ADDRESS":"成功路一段３０３號","OBJECTID":620248},"geometry":{"x":178261.05999999959,"y":2539942.3700000029}},{"attributes":{"ID":620276,"DIS_CODE":0,"TOWNNAME":"歸仁區","LI":"南保里","LIN":"2鄰","STREET":"民權二街","SECT":" ","MAREA":" ","LANE":" ","ALLEY":" ","HOUSE_NO":"５５號","E_COORD97":176927.98999999999,"N_COORD97":2541396.29,"ADDRESS":"民權二街５５號","OBJECTID":620249},"geometry":{"x":176927.99000000022,"y":2541396.2899999991}},{"attributes":{"ID":620277,"DIS_CODE":0,"TOWNNAME":"歸仁區","LI":"大潭里","LIN":"2鄰","STREET":"中正南路","SECT":"三段","MAREA":" ","LANE":" ","ALLEY":" ","HOUSE_NO":"１５９號","E_COORD97":175230.01000000001,"N_COORD97":2534869.2799999998,"ADDRESS":"中正南路三段１５９號","OBJECTID":620250},"geometry":{"x":175230.01000000071,"y":2534869.2800000012}},{"attributes":{"ID":620278,"DIS_CODE":0,"TOWNNAME":"歸仁區","LI":"南興里","LIN":"2鄰","STREET":"文化十二街","SECT":" ","MAREA":" ","LANE":" ","ALLEY":" ","HOUSE_NO":"５６號","E_COORD97":176468.29000000001,"N_COORD97":2541278.3300000001,"ADDRESS":"文化十二街５６號","OBJECTID":620251},"geometry":{"x":176468.29000000004,"y":2541278.3300000001}},{"attributes":{"ID":620279,"DIS_CODE":0,"TOWNNAME":"歸仁區","LI":"南保里","LIN":"2鄰","STREET":"民權二街","SECT":" ","MAREA":" ","LANE":" ","ALLEY":" ","HOUSE_NO":"５１號","E_COORD97":176951.59,"N_COORD97":2541397.29,"ADDRESS":"民權二街５１號","OBJECTID":620252},"geometry":{"x":176951.59000000078,"y":2541397.2900000028}},{"attributes":{"ID":620280,"DIS_CODE":0,"TOWNNAME":"歸仁區","LI":"新厝里","LIN":"2鄰","STREET":"復興路","SECT":" ","MAREA":" ","LANE":" ","ALLEY":" ","HOUSE_NO":"１２６號","E_COORD97":177700.07000000001,"N_COORD97":2540646.25,"ADDRESS":"復興路１２６號","OBJECTID":620253},"geometry":{"x":177700.07000000123,"y":2540646.2500000019}},{"attributes":{"ID":620281,"DIS_CODE":0,"TOWNNAME":"中西區","LI":"安海里","LIN":"6鄰","STREET":"康樂街","SECT":" ","MAREA":" ","LANE":" ","ALLEY":" ","HOUSE_NO":"１６７號之７","E_COORD97":167437.14999999999,"N_COORD97":2543841.4199999999,"ADDRESS":"康樂街１６７號之７","OBJECTID":620254},"geometry":{"x":167437.15000000037,"y":2543841.4199999981}},{"attributes":{"ID":620282,"DIS_CODE":0,"TOWNNAME":"中西區","LI":"安海里","LIN":"6鄰","STREET":"康樂街","SECT":" ","MAREA":" ","LANE":" ","ALLEY":" ","HOUSE_NO":"１６９號","E_COORD97":167435.01000000001,"N_COORD97":2543850.4900000002,"ADDRESS":"康樂街１６９號","OBJECTID":620255},"geometry":{"x":167435.01000000164,"y":2543850.4900000002}},{"attributes":{"ID":620283,"DIS_CODE":0,"TOWNNAME":"中西區","LI":"安海里","LIN":"6鄰","STREET":"康樂街","SECT":" ","MAREA":" ","LANE":" ","ALLEY":" ","HOUSE_NO":"１７１號","E_COORD97":167432.14000000001,"N_COORD97":2543855.2400000002,"ADDRESS":"康樂街１７１號","OBJECTID":620256},"geometry":{"x":167432.13999999873,"y":2543855.2400000002}},{"attributes":{"ID":620284,"DIS_CODE":0,"TOWNNAME":"中西區","LI":"安海里","LIN":"6鄰","STREET":"康樂街","SECT":" ","MAREA":" ","LANE":" ","ALLEY":" ","HOUSE_NO":"１７３號","E_COORD97":167437.32999999999,"N_COORD97":2543857.3900000001,"ADDRESS":"康樂街１７３號","OBJECTID":620257},"geometry":{"x":167437.33000000007,"y":2543857.3900000025}},{"attributes":{"ID":620285,"DIS_CODE":0,"TOWNNAME":"中西區","LI":"安海里","LIN":"6鄰","STREET":"康樂街","SECT":" ","MAREA":" ","LANE":" ","ALLEY":" ","HOUSE_NO":"１７５號","E_COORD97":167437.51000000001,"N_COORD97":2543861.6699999999,"ADDRESS":"康樂街１７５號","OBJECTID":620258},"geometry":{"x":167437.50999999978,"y":2543861.6700000018}},{"attributes":{"ID":620286,"DIS_CODE":0,"TOWNNAME":"中西區","LI":"安海里","LIN":"6鄰","STREET":"康樂街","SECT":" ","MAREA":" ","LANE":" ","ALLEY":" ","HOUSE_NO":"１７７號","E_COORD97":167435.54000000001,"N_COORD97":2543866.48,"ADDRESS":"康樂街１７７號","OBJECTID":620259},"geometry":{"x":167435.54000000097,"y":2543866.4800000023}},{"attributes":{"ID":620287,"DIS_CODE":0,"TOWNNAME":"中西區","LI":"安海里","LIN":"6鄰","STREET":"康樂街","SECT":" ","MAREA":" ","LANE":" ","ALLEY":" ","HOUSE_NO":"１７９號","E_COORD97":167435.72,"N_COORD97":2543869.71,"ADDRESS":"康樂街１７９號","OBJECTID":620260},"geometry":{"x":167435.72000000067,"y":2543869.7100000009}},{"attributes":{"ID":620288,"DIS_CODE":0,"TOWNNAME":"中西區","LI":"安海里","LIN":"6鄰","STREET":"康樂街","SECT":" ","MAREA":" ","LANE":" ","ALLEY":" ","HOUSE_NO":"１８１號","E_COORD97":167437.14999999999,"N_COORD97":2543880.2400000002,"ADDRESS":"康樂街１８１號","OBJECTID":620261},"geometry":{"x":167437.15000000037,"y":2543880.2399999984}},{"attributes":{"ID":620289,"DIS_CODE":0,"TOWNNAME":"中西區","LI":"安海里","LIN":"6鄰","STREET":"康樂街","SECT":" ","MAREA":" ","LANE":" ","ALLEY":" ","HOUSE_NO":"１８７號","E_COORD97":167443.04999999999,"N_COORD97":2543885.2400000002,"ADDRESS":"康樂街１８７號","OBJECTID":620262},"geometry":{"x":167443.04999999888,"y":2543885.2400000021}},{"attributes":{"ID":620290,"DIS_CODE":0,"TOWNNAME":"中西區","LI":"安海里","LIN":"6鄰","STREET":"康樂街","SECT":" ","MAREA":" ","LANE":" ","ALLEY":" ","HOUSE_NO":"１８９號","E_COORD97":167442.69,"N_COORD97":2543889.3500000001,"ADDRESS":"康樂街１８９號","OBJECTID":620263},"geometry":{"x":167442.69000000041,"y":2543889.3500000034}},{"attributes":{"ID":620291,"DIS_CODE":0,"TOWNNAME":"中西區","LI":"安海里","LIN":"6鄰","STREET":"康樂街","SECT":" ","MAREA":" ","LANE":" ","ALLEY":" ","HOUSE_NO":"１９１號","E_COORD97":167443.95000000001,"N_COORD97":2543893.1000000001,"ADDRESS":"康樂街１９１號","OBJECTID":620264},"geometry":{"x":167443.95000000019,"y":2543893.0999999996}},{"attributes":{"ID":620292,"DIS_CODE":0,"TOWNNAME":"中西區","LI":"三合里","LIN":"9鄰","STREET":"金華路","SECT":"四段","MAREA":" ","LANE":" ","ALLEY":" ","HOUSE_NO":"１３６號","E_COORD97":167518.72,"N_COORD97":2544453.8300000001,"ADDRESS":"金華路四段１３６號","OBJECTID":620265},"geometry":{"x":167518.72000000067,"y":2544453.8300000019}},{"attributes":{"ID":620293,"DIS_CODE":0,"TOWNNAME":"中西區","LI":"三合里","LIN":"11鄰","STREET":"金華路","SECT":"四段","MAREA":" ","LANE":" ","ALLEY":" ","HOUSE_NO":"７７號","E_COORD97":167484.09,"N_COORD97":2544440.3199999998,"ADDRESS":"金華路四段７７號","OBJECTID":620266},"geometry":{"x":167484.09000000078,"y":2544440.3200000022}},{"attributes":{"ID":620294,"DIS_CODE":0,"TOWNNAME":"中西區","LI":"三合里","LIN":"11鄰","STREET":"金華路","SECT":"四段","MAREA":" ","LANE":" ","ALLEY":" ","HOUSE_NO":"７９號","E_COORD97":167485.92999999999,"N_COORD97":2544452.5800000001,"ADDRESS":"金華路四段７９號","OBJECTID":620267},"geometry":{"x":167485.9299999997,"y":2544452.5800000019}},{"attributes":{"ID":620295,"DIS_CODE":0,"TOWNNAME":"歸仁區","LI":"辜厝里","LIN":"2鄰","STREET":"中正二街","SECT":" ","MAREA":" ","LANE":" ","ALLEY":" ","HOUSE_NO":"５２號","E_COORD97":177484.95999999999,"N_COORD97":2540742.1099999999,"ADDRESS":"中正二街５２號","OBJECTID":620268},"geometry":{"x":177484.96000000089,"y":2540742.1100000013}},{"attributes":{"ID":620296,"DIS_CODE":0,"TOWNNAME":"歸仁區","LI":"歸仁里","LIN":"2鄰","STREET":"和平一街","SECT":" ","MAREA":" ","LANE":" ","ALLEY":" ","HOUSE_NO":"１６號","E_COORD97":177792.19,"N_COORD97":2541081.04,"ADDRESS":"和平一街１６號","OBJECTID":620269},"geometry":{"x":177792.19000000134,"y":2541081.040000001}},{"attributes":{"ID":620297,"DIS_CODE":0,"TOWNNAME":"歸仁區","LI":"西埔里","LIN":"2鄰","STREET":"西埔三街","SECT":" ","MAREA":" ","LANE":" ","ALLEY":" ","HOUSE_NO":"５９號","E_COORD97":176795.04000000001,"N_COORD97":2543978.25,"ADDRESS":"西埔三街５９號","OBJECTID":620270},"geometry":{"x":176795.04000000004,"y":2543978.2499999981}},{"attributes":{"ID":620298,"DIS_CODE":0,"TOWNNAME":"歸仁區","LI":"西埔里","LIN":"2鄰","STREET":"西埔三街","SECT":" ","MAREA":" ","LANE":" ","ALLEY":" ","HOUSE_NO":"６９號","E_COORD97":176796.94,"N_COORD97":2543953.25,"ADDRESS":"西埔三街６９號","OBJECTID":620271},"geometry":{"x":176796.94000000227,"y":2543953.25}},{"attributes":{"ID":620299,"DIS_CODE":0,"TOWNNAME":"歸仁區","LI":"歸仁里","LIN":"2鄰","STREET":"文化街","SECT":"一段","MAREA":" ","LANE":" ","ALLEY":" ","HOUSE_NO":"１７３號","E_COORD97":177763.19,"N_COORD97":2541113.0499999998,"ADDRESS":"文化街一段１７３號","OBJECTID":620272},"geometry":{"x":177763.19000000227,"y":2541113.0500000026}},{"attributes":{"ID":620300,"DIS_CODE":0,"TOWNNAME":"歸仁區","LI":"八甲里","LIN":"2鄰","STREET":"大明三街","SECT":" ","MAREA":" ","LANE":" ","ALLEY":" ","HOUSE_NO":"７６號","E_COORD97":177994.01999999999,"N_COORD97":2541639.6099999999,"ADDRESS":"大明三街７６號","OBJECTID":620273},"geometry":{"x":177994.02000000142,"y":2541639.6100000031}},{"attributes":{"ID":620301,"DIS_CODE":0,"TOWNNAME":"歸仁區","LI":"大潭里","LIN":"2鄰","STREET":"中正南路","SECT":"三段","MAREA":" ","LANE":" ","ALLEY":" ","HOUSE_NO":"１５７號","E_COORD97":175230.01000000001,"N_COORD97":2534873.2799999998,"ADDRESS":"中正南路三段１５７號","OBJECTID":620274},"geometry":{"x":175230.01000000071,"y":2534873.2799999993}},{"attributes":{"ID":620302,"DIS_CODE":0,"TOWNNAME":"歸仁區","LI":"新厝里","LIN":"2鄰","STREET":"復興路","SECT":" ","MAREA":" ","LANE":" ","ALLEY":" ","HOUSE_NO":"１５８號","E_COORD97":177654.97,"N_COORD97":2540651.25,"ADDRESS":"復興路１５８號","OBJECTID":620275},"geometry":{"x":177654.96999999974,"y":2540651.25}},{"attributes":{"ID":620303,"DIS_CODE":0,"TOWNNAME":"中西區","LI":"安海里","LIN":"10鄰","STREET":"河中街","SECT":" ","MAREA":" ","LANE":" ","ALLEY":" ","HOUSE_NO":"７號","E_COORD97":167258.12,"N_COORD97":2543902.5,"ADDRESS":"河中街７號","OBJECTID":620276},"geometry":{"x":167258.11999999918,"y":2543902.5000000019}},{"attributes":{"ID":620304,"DIS_CODE":0,"TOWNNAME":"歸仁區","LI":"崙頂里","LIN":"2鄰","STREET":"成功路","SECT":"一段","MAREA":" ","LANE":" ","ALLEY":" ","HOUSE_NO":"３０１號","E_COORD97":178265.16,"N_COORD97":2539945.3700000001,"ADDRESS":"成功路一段３０１號","OBJECTID":620277},"geometry":{"x":178265.16000000108,"y":2539945.3700000029}},{"attributes":{"ID":620305,"DIS_CODE":0,"TOWNNAME":"歸仁區","LI":"後市里","LIN":"2鄰","STREET":"大順街","SECT":" ","MAREA":" ","LANE":" ","ALLEY":" ","HOUSE_NO":"９７號","E_COORD97":177161.79000000001,"N_COORD97":2540595.6800000002,"ADDRESS":"大順街９７號","OBJECTID":620278},"geometry":{"x":177161.79000000004,"y":2540595.6800000016}},{"attributes":{"ID":620306,"DIS_CODE":0,"TOWNNAME":"歸仁區","LI":"大潭里","LIN":"2鄰","STREET":"大潭一街","SECT":" ","MAREA":" ","LANE":" ","ALLEY":" ","HOUSE_NO":"４３號","E_COORD97":175250.97,"N_COORD97":2534666.25,"ADDRESS":"大潭一街４３號","OBJECTID":620279},"geometry":{"x":175250.96999999974,"y":2534666.2500000019}},{"attributes":{"ID":620307,"DIS_CODE":0,"TOWNNAME":"玉井區","LI":"竹圍里","LIN":"2鄰","STREET":"中山路","SECT":" ","MAREA":" ","LANE":" ","ALLEY":" ","HOUSE_NO":"４６６號","E_COORD97":195323.75,"N_COORD97":2558341.4300000002,"ADDRESS":"中山路４６６號","OBJECTID":620280},"geometry":{"x":195323.75,"y":2558341.4299999997}},{"attributes":{"ID":620308,"DIS_CODE":0,"TOWNNAME":"玉井區","LI":"竹圍里","LIN":"2鄰","STREET":"中山路","SECT":" ","MAREA":" ","LANE":" ","ALLEY":" ","HOUSE_NO":"４５８號","E_COORD97":195322.57000000001,"N_COORD97":2558324.1600000001,"ADDRESS":"中山路４５８號","OBJECTID":620281},"geometry":{"x":195322.57000000216,"y":2558324.1600000039}},{"attributes":{"ID":620309,"DIS_CODE":0,"TOWNNAME":"玉井區","LI":"竹圍里","LIN":"2鄰","STREET":"中山路","SECT":" ","MAREA":" ","LANE":" ","ALLEY":" ","HOUSE_NO":"４９２號","E_COORD97":195322.45000000001,"N_COORD97":2558404.0099999998,"ADDRESS":"中山路４９２號","OBJECTID":620282},"geometry":{"x":195322.45000000112,"y":2558404.0100000016}},{"attributes":{"ID":620310,"DIS_CODE":0,"TOWNNAME":"玉井區","LI":"中正里","LIN":"2鄰","STREET":"玉安街","SECT":" ","MAREA":" ","LANE":" ","ALLEY":" ","HOUSE_NO":"２１１號","E_COORD97":195232.07000000001,"N_COORD97":2558719.3100000001,"ADDRESS":"玉安街２１１號","OBJECTID":620283},"geometry":{"x":195232.0700000003,"y":2558719.3100000005}},{"attributes":{"ID":620311,"DIS_CODE":0,"TOWNNAME":"玉井區","LI":"竹圍里","LIN":"2鄰","STREET":"中山路","SECT":" ","MAREA":" ","LANE":" ","ALLEY":" ","HOUSE_NO":"４５６號","E_COORD97":195321.73000000001,"N_COORD97":2558320.0699999998,"ADDRESS":"中山路４５６號","OBJECTID":620284},"geometry":{"x":195321.73000000231,"y":2558320.0700000003}},{"attributes":{"ID":620312,"DIS_CODE":0,"TOWNNAME":"玉井區","LI":"竹圍里","LIN":"2鄰","STREET":"中山路","SECT":" ","MAREA":" ","LANE":" ","ALLEY":" ","HOUSE_NO":"４８０號","E_COORD97":195323.98999999999,"N_COORD97":2558376.6400000001,"ADDRESS":"中山路４８０號","OBJECTID":620285},"geometry":{"x":195323.99000000022,"y":2558376.6400000025}},{"attributes":{"ID":620313,"DIS_CODE":0,"TOWNNAME":"玉井區","LI":"竹圍里","LIN":"2鄰","STREET":"中山路","SECT":" ","MAREA":" ","LANE":" ","ALLEY":" ","HOUSE_NO":"５００號","E_COORD97":195323.66,"N_COORD97":2558425.3700000001,"ADDRESS":"中山路５００號","OBJECTID":620286},"geometry":{"x":195323.66000000201,"y":2558425.3700000048}},{"attributes":{"ID":620314,"DIS_CODE":0,"TOWNNAME":"玉井區","LI":"竹圍里","LIN":"2鄰","STREET":"中山路","SECT":" ","MAREA":" ","LANE":" ","ALLEY":" ","HOUSE_NO":"４８６號","E_COORD97":195322.91,"N_COORD97":2558390.04,"ADDRESS":"中山路４８６號","OBJECTID":620287},"geometry":{"x":195322.91000000015,"y":2558390.0399999991}},{"attributes":{"ID":620315,"DIS_CODE":0,"TOWNNAME":"玉井區","LI":"竹圍里","LIN":"2鄰","STREET":"中山路","SECT":" ","MAREA":" ","LANE":" ","ALLEY":" ","HOUSE_NO":"４９８號","E_COORD97":195323.32999999999,"N_COORD97":2558420.9399999999,"ADDRESS":"中山路４９８號","OBJECTID":620288},"geometry":{"x":195323.33000000007,"y":2558420.9400000013}},{"attributes":{"ID":620316,"DIS_CODE":0,"TOWNNAME":"玉井區","LI":"竹圍里","LIN":"2鄰","STREET":"中山路","SECT":" ","MAREA":" ","LANE":" ","ALLEY":" ","HOUSE_NO":"４６８號","E_COORD97":195323.98000000001,"N_COORD97":2558345.2999999998,"ADDRESS":"中山路４６８號","OBJECTID":620289},"geometry":{"x":195323.98000000138,"y":2558345.3000000026}},{"attributes":{"ID":620317,"DIS_CODE":0,"TOWNNAME":"玉井區","LI":"竹圍里","LIN":"2鄰","STREET":"中山路","SECT":" ","MAREA":" ","LANE":" ","ALLEY":" ","HOUSE_NO":"４６２號","E_COORD97":195322.91,"N_COORD97":2558332.6899999999,"ADDRESS":"中山路４６２號","OBJECTID":620290},"geometry":{"x":195322.91000000015,"y":2558332.6899999995}},{"attributes":{"ID":620318,"DIS_CODE":0,"TOWNNAME":"玉井區","LI":"竹圍里","LIN":"2鄰","STREET":"中山路","SECT":" ","MAREA":" ","LANE":" ","ALLEY":" ","HOUSE_NO":"４６０號","E_COORD97":195322.57999999999,"N_COORD97":2558328.48,"ADDRESS":"中山路４６０號","OBJECTID":620291},"geometry":{"x":195322.58000000101,"y":2558328.4800000004}},{"attributes":{"ID":620319,"DIS_CODE":0,"TOWNNAME":"玉井區","LI":"竹圍里","LIN":"2鄰","STREET":"中山路","SECT":" ","MAREA":" ","LANE":" ","ALLEY":" ","HOUSE_NO":"４７２號","E_COORD97":195324.20999999999,"N_COORD97":2558351.9500000002,"ADDRESS":"中山路４７２號","OBJECTID":620292},"geometry":{"x":195324.20999999996,"y":2558351.9500000011}},{"attributes":{"ID":620320,"DIS_CODE":0,"TOWNNAME":"玉井區","LI":"竹圍里","LIN":"2鄰","STREET":"中山路","SECT":" ","MAREA":" ","LANE":" ","ALLEY":" ","HOUSE_NO":"４７０號","E_COORD97":195324.19,"N_COORD97":2558348.0699999998,"ADDRESS":"中山路４７０號","OBJECTID":620293},"geometry":{"x":195324.19000000134,"y":2558348.0700000003}},{"attributes":{"ID":620321,"DIS_CODE":0,"TOWNNAME":"玉井區","LI":"竹圍里","LIN":"2鄰","STREET":"中山路","SECT":" ","MAREA":" ","LANE":" ","ALLEY":" ","HOUSE_NO":"４９０號","E_COORD97":195322.64000000001,"N_COORD97":2558400.3399999999,"ADDRESS":"中山路４９０號","OBJECTID":620294},"geometry":{"x":195322.63999999966,"y":2558400.3400000036}},{"attributes":{"ID":620322,"DIS_CODE":0,"TOWNNAME":"玉井區","LI":"竹圍里","LIN":"2鄰","STREET":"中山路","SECT":" ","MAREA":" ","LANE":" ","ALLEY":" ","HOUSE_NO":"４７６號","E_COORD97":195323.42999999999,"N_COORD97":2558365.5699999998,"ADDRESS":"中山路４７６號","OBJECTID":620295},"geometry":{"x":195323.43000000063,"y":2558365.570000004}},{"attributes":{"ID":620323,"DIS_CODE":0,"TOWNNAME":"玉井區","LI":"竹圍里","LIN":"2鄰","STREET":"中山路","SECT":" ","MAREA":" ","LANE":" ","ALLEY":" ","HOUSE_NO":"４５２號","E_COORD97":195322.92000000001,"N_COORD97":2558309.8799999999,"ADDRESS":"中山路４５２號","OBJECTID":620296},"geometry":{"x":195322.91999999993,"y":2558309.879999999}},{"attributes":{"ID":620324,"DIS_CODE":0,"TOWNNAME":"玉井區","LI":"竹圍里","LIN":"2鄰","STREET":"中山路","SECT":" ","MAREA":" ","LANE":" ","ALLEY":" ","HOUSE_NO":"４５０號之１","E_COORD97":195325.04999999999,"N_COORD97":2558305.3900000001,"ADDRESS":"中山路４５０號之１","OBJECTID":620297},"geometry":{"x":195325.04999999981,"y":2558305.3900000006}},{"attributes":{"ID":620325,"DIS_CODE":0,"TOWNNAME":"玉井區","LI":"竹圍里","LIN":"2鄰","STREET":"中山路","SECT":" ","MAREA":" ","LANE":" ","ALLEY":" ","HOUSE_NO":"４６４號","E_COORD97":195323.32999999999,"N_COORD97":2558336.7799999998,"ADDRESS":"中山路４６４號","OBJECTID":620298},"geometry":{"x":195323.33000000007,"y":2558336.7800000012}},{"attributes":{"ID":620326,"DIS_CODE":0,"TOWNNAME":"玉井區","LI":"竹圍里","LIN":"2鄰","STREET":"中山路","SECT":" ","MAREA":" ","LANE":" ","ALLEY":" ","HOUSE_NO":"４９２號之１","E_COORD97":195324.70999999999,"N_COORD97":2558407.4900000002,"ADDRESS":"中山路４９２號之１","OBJECTID":620299},"geometry":{"x":195324.71000000183,"y":2558407.4900000021}},{"attributes":{"ID":620327,"DIS_CODE":0,"TOWNNAME":"玉井區","LI":"竹圍里","LIN":"2鄰","STREET":"中山路","SECT":" ","MAREA":" ","LANE":" ","ALLEY":" ","HOUSE_NO":"４５４號","E_COORD97":195322.73000000001,"N_COORD97":2558313.8599999999,"ADDRESS":"中山路４５４號","OBJECTID":620300},"geometry":{"x":195322.73000000045,"y":2558313.8599999994}},{"attributes":{"ID":620328,"DIS_CODE":0,"TOWNNAME":"玉井區","LI":"竹圍里","LIN":"2鄰","STREET":"中山路","SECT":" ","MAREA":" ","LANE":" ","ALLEY":" ","HOUSE_NO":"４８４號","E_COORD97":195323.09,"N_COORD97":2558385.1699999999,"ADDRESS":"中山路４８４號","OBJECTID":620301},"geometry":{"x":195323.08999999985,"y":2558385.1700000018}},{"attributes":{"ID":620329,"DIS_CODE":0,"TOWNNAME":"玉井區","LI":"玉田里","LIN":"2鄰","STREET":"民生路","SECT":" ","MAREA":" ","LANE":" ","ALLEY":" ","HOUSE_NO":"１７１號","E_COORD97":194993.17999999999,"N_COORD97":2558342.29,"ADDRESS":"民生路１７１號","OBJECTID":620302},"geometry":{"x":194993.18000000063,"y":2558342.2900000028}},{"attributes":{"ID":620330,"DIS_CODE":0,"TOWNNAME":"玉井區","LI":"玉田里","LIN":"2鄰","STREET":"民生路","SECT":" ","MAREA":" ","LANE":" ","ALLEY":" ","HOUSE_NO":"１６９號","E_COORD97":194989.28,"N_COORD97":2558342.29,"ADDRESS":"民生路１６９號","OBJECTID":620303},"geometry":{"x":194989.28000000119,"y":2558342.2900000028}},{"attributes":{"ID":620331,"DIS_CODE":0,"TOWNNAME":"玉井區","LI":"玉田里","LIN":"2鄰","STREET":"玉安街","SECT":" ","MAREA":" ","LANE":" ","ALLEY":" ","HOUSE_NO":"１１號","E_COORD97":195034.92000000001,"N_COORD97":2558347.3199999998,"ADDRESS":"玉安街１１號","OBJECTID":620304},"geometry":{"x":195034.91999999899,"y":2558347.3200000022}},{"attributes":{"ID":620332,"DIS_CODE":0,"TOWNNAME":"玉井區","LI":"玉田里","LIN":"2鄰","STREET":"玉安街","SECT":" ","MAREA":" ","LANE":" ","ALLEY":" ","HOUSE_NO":"２１號","E_COORD97":195038.12,"N_COORD97":2558365.3199999998,"ADDRESS":"玉安街２１號","OBJECTID":620305},"geometry":{"x":195038.12000000104,"y":2558365.3200000022}},{"attributes":{"ID":620333,"DIS_CODE":0,"TOWNNAME":"玉井區","LI":"玉田里","LIN":"2鄰","STREET":"玉安街","SECT":" ","MAREA":" ","LANE":" ","ALLEY":" ","HOUSE_NO":"２９號","E_COORD97":195041.82000000001,"N_COORD97":2558388.3100000001,"ADDRESS":"玉安街２９號","OBJECTID":620306},"geometry":{"x":195041.82000000123,"y":2558388.3100000024}},{"attributes":{"ID":620334,"DIS_CODE":0,"TOWNNAME":"玉井區","LI":"玉田里","LIN":"2鄰","STREET":"民生路","SECT":" ","MAREA":" ","LANE":" ","ALLEY":" ","HOUSE_NO":"１６７號","E_COORD97":194984.79000000001,"N_COORD97":2558343.29,"ADDRESS":"民生路１６７號","OBJECTID":620307},"geometry":{"x":194984.79000000004,"y":2558343.290000001}},{"attributes":{"ID":620335,"DIS_CODE":0,"TOWNNAME":"玉井區","LI":"玉田里","LIN":"2鄰","STREET":"民生路","SECT":" ","MAREA":" ","LANE":" ","ALLEY":" ","HOUSE_NO":"１７３號","E_COORD97":194997.17999999999,"N_COORD97":2558342.29,"ADDRESS":"民生路１７３號","OBJECTID":620308},"geometry":{"x":194997.1799999997,"y":2558342.2900000028}},{"attributes":{"ID":620336,"DIS_CODE":0,"TOWNNAME":"北區","LI":"正風里","LIN":"2鄰","STREET":"公園路","SECT":" ","MAREA":" ","LANE":" ","ALLEY":" ","HOUSE_NO":"８９８號之２","E_COORD97":169331.34,"N_COORD97":2546097.8300000001,"ADDRESS":"公園路８９８號之２","OBJECTID":620309},"geometry":{"x":169331.34000000171,"y":2546097.8300000019}},{"attributes":{"ID":620337,"DIS_CODE":0,"TOWNNAME":"北區","LI":"正風里","LIN":"2鄰","STREET":"公園路","SECT":" ","MAREA":" ","LANE":" ","ALLEY":" ","HOUSE_NO":"８９８號之３","E_COORD97":169335.51000000001,"N_COORD97":2546102.25,"ADDRESS":"公園路８９８號之３","OBJECTID":620310},"geometry":{"x":169335.51000000071,"y":2546102.2500000019}},{"attributes":{"ID":620338,"DIS_CODE":0,"TOWNNAME":"學甲區","LI":"慈福里","LIN":"2鄰","STREET":"民生路","SECT":" ","MAREA":" ","LANE":" ","ALLEY":" ","HOUSE_NO":"１１號之１","E_COORD97":166444.03,"N_COORD97":2570085.5499999998,"ADDRESS":"民生路１１號之１","OBJECTID":620311},"geometry":{"x":166444.03000000119,"y":2570085.5500000007}},{"attributes":{"ID":620339,"DIS_CODE":0,"TOWNNAME":"學甲區","LI":"慈福里","LIN":"2鄰","STREET":"民生路","SECT":" ","MAREA":" ","LANE":" ","ALLEY":" ","HOUSE_NO":"１１號","E_COORD97":166413.66,"N_COORD97":2570079.1299999999,"ADDRESS":"民生路１１號","OBJECTID":620312},"geometry":{"x":166413.65999999922,"y":2570079.129999999}},{"attributes":{"ID":620340,"DIS_CODE":0,"TOWNNAME":"學甲區","LI":"慈福里","LIN":"2鄰","STREET":"民權路","SECT":" ","MAREA":" ","LANE":" ","ALLEY":" ","HOUSE_NO":"１７號之１","E_COORD97":166426.45000000001,"N_COORD97":2570120.3100000001,"ADDRESS":"民權路１７號之１","OBJECTID":620313},"geometry":{"x":166426.45000000019,"y":2570120.3100000005}},{"attributes":{"ID":620341,"DIS_CODE":0,"TOWNNAME":"學甲區","LI":"慈福里","LIN":"2鄰","STREET":"民權路","SECT":" ","MAREA":" ","LANE":" ","ALLEY":" ","HOUSE_NO":"１７號之４","E_COORD97":166430.07999999999,"N_COORD97":2570095.1000000001,"ADDRESS":"民權路１７號之４","OBJECTID":620314},"geometry":{"x":166430.08000000101,"y":2570095.1000000034}},{"attributes":{"ID":620342,"DIS_CODE":0,"TOWNNAME":"學甲區","LI":"慈福里","LIN":"2鄰","STREET":"民權路","SECT":" ","MAREA":" ","LANE":" ","ALLEY":" ","HOUSE_NO":"１７號","E_COORD97":166430.95000000001,"N_COORD97":2570120.48,"ADDRESS":"民權路１７號","OBJECTID":620315},"geometry":{"x":166430.95000000112,"y":2570120.4800000042}},{"attributes":{"ID":620343,"DIS_CODE":0,"TOWNNAME":"學甲區","LI":"慈福里","LIN":"2鄰","STREET":"民權路","SECT":" ","MAREA":" ","LANE":" ","ALLEY":" ","HOUSE_NO":"１９號之１","E_COORD97":166417.60999999999,"N_COORD97":2570120.2400000002,"ADDRESS":"民權路１９號之１","OBJECTID":620316},"geometry":{"x":166417.6099999994,"y":2570120.2400000021}},{"attributes":{"ID":620344,"DIS_CODE":0,"TOWNNAME":"學甲區","LI":"慈福里","LIN":"2鄰","STREET":"民權路","SECT":" ","MAREA":" ","LANE":" ","ALLEY":" ","HOUSE_NO":"１９號之２","E_COORD97":166423.42999999999,"N_COORD97":2570098.1099999999,"ADDRESS":"民權路１９號之２","OBJECTID":620317},"geometry":{"x":166423.43000000156,"y":2570098.1099999975}},{"attributes":{"ID":620345,"DIS_CODE":0,"TOWNNAME":"學甲區","LI":"慈福里","LIN":"2鄰","STREET":"民權路","SECT":" ","MAREA":" ","LANE":" ","ALLEY":" ","HOUSE_NO":"１９號之３","E_COORD97":166419.12,"N_COORD97":2570098.25,"ADDRESS":"民權路１９號之３","OBJECTID":620318},"geometry":{"x":166419.12000000197,"y":2570098.2500000019}},{"attributes":{"ID":620346,"DIS_CODE":0,"TOWNNAME":"學甲區","LI":"慈福里","LIN":"2鄰","STREET":"民權路","SECT":" ","MAREA":" ","LANE":" ","ALLEY":" ","HOUSE_NO":"１９號","E_COORD97":166422.01999999999,"N_COORD97":2570120.3100000001,"ADDRESS":"民權路１９號","OBJECTID":620319},"geometry":{"x":166422.01999999955,"y":2570120.3100000005}},{"attributes":{"ID":620347,"DIS_CODE":0,"TOWNNAME":"學甲區","LI":"慈福里","LIN":"2鄰","STREET":"民權路","SECT":" ","MAREA":" ","LANE":" ","ALLEY":" ","HOUSE_NO":"２３號","E_COORD97":166391.10000000001,"N_COORD97":2570113.1600000001,"ADDRESS":"民權路２３號","OBJECTID":620320},"geometry":{"x":166391.09999999963,"y":2570113.160000002}},{"attributes":{"ID":620348,"DIS_CODE":0,"TOWNNAME":"學甲區","LI":"慈福里","LIN":"2鄰","STREET":"民權路","SECT":" ","MAREA":" ","LANE":" ","ALLEY":" ","HOUSE_NO":"２５號","E_COORD97":166376.37,"N_COORD97":2570110.4500000002,"ADDRESS":"民權路２５號","OBJECTID":620321},"geometry":{"x":166376.37000000011,"y":2570110.4500000011}},{"attributes":{"ID":620349,"DIS_CODE":0,"TOWNNAME":"學甲區","LI":"仁得里","LIN":"2鄰","STREET":"民權路","SECT":" ","MAREA":" ","LANE":" ","ALLEY":" ","HOUSE_NO":"３０號之１","E_COORD97":166302,"N_COORD97":2570137.0800000001,"ADDRESS":"民權路３０號之１","OBJECTID":620322},"geometry":{"x":166302,"y":2570137.0800000019}},{"attributes":{"ID":620350,"DIS_CODE":0,"TOWNNAME":"學甲區","LI":"仁得里","LIN":"2鄰","STREET":"民權路","SECT":" ","MAREA":" ","LANE":" ","ALLEY":" ","HOUSE_NO":"３０號之２","E_COORD97":166296.62,"N_COORD97":2570137.3500000001,"ADDRESS":"民權路３０號之２","OBJECTID":620323},"geometry":{"x":166296.62000000011,"y":2570137.3499999978}},{"attributes":{"ID":620351,"DIS_CODE":0,"TOWNNAME":"學甲區","LI":"仁得里","LIN":"2鄰","STREET":"民權路","SECT":" ","MAREA":" ","LANE":" ","ALLEY":" ","HOUSE_NO":"３０號之３","E_COORD97":166292.31,"N_COORD97":2570136.6000000001,"ADDRESS":"民權路３０號之３","OBJECTID":620324},"geometry":{"x":166292.31000000052,"y":2570136.6000000015}},{"attributes":{"ID":620352,"DIS_CODE":0,"TOWNNAME":"學甲區","LI":"仁得里","LIN":"2鄰","STREET":"民權路","SECT":" ","MAREA":" ","LANE":" ","ALLEY":" ","HOUSE_NO":"３０號之４","E_COORD97":166286.82999999999,"N_COORD97":2570136.5800000001,"ADDRESS":"民權路３０號之４","OBJECTID":620325},"geometry":{"x":166286.83000000007,"y":2570136.5800000038}},{"attributes":{"ID":620353,"DIS_CODE":0,"TOWNNAME":"學甲區","LI":"仁得里","LIN":"2鄰","STREET":"民權路","SECT":" ","MAREA":" ","LANE":" ","ALLEY":" ","HOUSE_NO":"３０號","E_COORD97":166306.92000000001,"N_COORD97":2570136.7799999998,"ADDRESS":"民權路３０號","OBJECTID":620326},"geometry":{"x":166306.92000000086,"y":2570136.7799999993}},{"attributes":{"ID":620354,"DIS_CODE":0,"TOWNNAME":"學甲區","LI":"仁得里","LIN":"2鄰","STREET":"民權路","SECT":" ","MAREA":" ","LANE":" ","ALLEY":" ","HOUSE_NO":"３２號","E_COORD97":166275.51999999999,"N_COORD97":2570136.9300000002,"ADDRESS":"民權路３２號","OBJECTID":620327},"geometry":{"x":166275.52000000048,"y":2570136.9299999978}},{"attributes":{"ID":620355,"DIS_CODE":0,"TOWNNAME":"學甲區","LI":"仁得里","LIN":"2鄰","STREET":"民權路","SECT":" ","MAREA":" ","LANE":" ","ALLEY":" ","HOUSE_NO":"３４號","E_COORD97":166269.48000000001,"N_COORD97":2570141.0099999998,"ADDRESS":"民權路３４號","OBJECTID":620328},"geometry":{"x":166269.48000000231,"y":2570141.0100000016}},{"attributes":{"ID":620356,"DIS_CODE":0,"TOWNNAME":"學甲區","LI":"仁得里","LIN":"2鄰","STREET":"民權路","SECT":" ","MAREA":" ","LANE":" ","ALLEY":" ","HOUSE_NO":"３６號之２","E_COORD97":166255.66,"N_COORD97":2570134.1899999999,"ADDRESS":"民權路３６號之２","OBJECTID":620329},"geometry":{"x":166255.66000000015,"y":2570134.1899999995}},{"attributes":{"ID":620357,"DIS_CODE":0,"TOWNNAME":"學甲區","LI":"仁得里","LIN":"2鄰","STREET":"民權路","SECT":" ","MAREA":" ","LANE":" ","ALLEY":" ","HOUSE_NO":"３６號","E_COORD97":166262.69,"N_COORD97":2570134.3300000001,"ADDRESS":"民權路３６號","OBJECTID":620330},"geometry":{"x":166262.69000000041,"y":2570134.3300000001}},{"attributes":{"ID":620358,"DIS_CODE":0,"TOWNNAME":"學甲區","LI":"仁得里","LIN":"2鄰","STREET":"民權路","SECT":" ","MAREA":" ","LANE":" ","ALLEY":" ","HOUSE_NO":"３８號之１","E_COORD97":166242.79000000001,"N_COORD97":2570137.54,"ADDRESS":"民權路３８號之１","OBJECTID":620331},"geometry":{"x":166242.79000000004,"y":2570137.5399999991}},{"attributes":{"ID":620359,"DIS_CODE":0,"TOWNNAME":"學甲區","LI":"仁得里","LIN":"2鄰","STREET":"民權路","SECT":" ","MAREA":" ","LANE":" ","ALLEY":" ","HOUSE_NO":"３８號之２","E_COORD97":166237.81,"N_COORD97":2570137.5,"ADDRESS":"民權路３８號之２","OBJECTID":620332},"geometry":{"x":166237.81000000052,"y":2570137.5000000019}},{"attributes":{"ID":620360,"DIS_CODE":0,"TOWNNAME":"學甲區","LI":"仁得里","LIN":"2鄰","STREET":"民權路","SECT":" ","MAREA":" ","LANE":" ","ALLEY":" ","HOUSE_NO":"３８號","E_COORD97":166247.42999999999,"N_COORD97":2570143.6299999999,"ADDRESS":"民權路３８號","OBJECTID":620333},"geometry":{"x":166247.43000000063,"y":2570143.629999999}},{"attributes":{"ID":620361,"DIS_CODE":0,"TOWNNAME":"學甲區","LI":"仁得里","LIN":"2鄰","STREET":"民權路","SECT":" ","MAREA":" ","LANE":" ","ALLEY":" ","HOUSE_NO":"４２號之１","E_COORD97":166210.23999999999,"N_COORD97":2570149.6699999999,"ADDRESS":"民權路４２號之１","OBJECTID":620334},"geometry":{"x":166210.24000000115,"y":2570149.6700000018}},{"attributes":{"ID":620362,"DIS_CODE":0,"TOWNNAME":"學甲區","LI":"明宜里","LIN":"2鄰","STREET":"和平路","SECT":" ","MAREA":" ","LANE":" ","ALLEY":" ","HOUSE_NO":"２６２號","E_COORD97":165991.12,"N_COORD97":2570364.6299999999,"ADDRESS":"和平路２６２號","OBJECTID":620335},"geometry":{"x":165991.12000000011,"y":2570364.629999999}},{"attributes":{"ID":620363,"DIS_CODE":0,"TOWNNAME":"學甲區","LI":"明宜里","LIN":"2鄰","STREET":"和平路","SECT":" ","MAREA":" ","LANE":" ","ALLEY":" ","HOUSE_NO":"２７０號","E_COORD97":165993.88,"N_COORD97":2570383.21,"ADDRESS":"和平路２７０號","OBJECTID":620336},"geometry":{"x":165993.88000000082,"y":2570383.2100000009}},{"attributes":{"ID":620364,"DIS_CODE":0,"TOWNNAME":"中西區","LI":"安海里","LIN":"7鄰","STREET":"中正路","SECT":" ","MAREA":" ","LANE":" ","ALLEY":" ","HOUSE_NO":"３３６號","E_COORD97":167432.5,"N_COORD97":2543813.9199999999,"ADDRESS":"中正路３３６號","OBJECTID":620337},"geometry":{"x":167432.50000000093,"y":2543813.9199999999}},{"attributes":{"ID":620365,"DIS_CODE":0,"TOWNNAME":"中西區","LI":"安海里","LIN":"7鄰","STREET":"中正路","SECT":" ","MAREA":" ","LANE":" ","ALLEY":" ","HOUSE_NO":"３３８號","E_COORD97":167428.03,"N_COORD97":2543814.2799999998,"ADDRESS":"中正路３３８號","OBJECTID":620338},"geometry":{"x":167428.03000000026,"y":2543814.2799999993}},{"attributes":{"ID":620366,"DIS_CODE":0,"TOWNNAME":"中西區","LI":"安海里","LIN":"7鄰","STREET":"中正路","SECT":" ","MAREA":" ","LANE":" ","ALLEY":" ","HOUSE_NO":"３４０號","E_COORD97":167424.28,"N_COORD97":2543815.71,"ADDRESS":"中正路３４０號","OBJECTID":620339},"geometry":{"x":167424.28000000026,"y":2543815.7100000009}},{"attributes":{"ID":620367,"DIS_CODE":0,"TOWNNAME":"中西區","LI":"安海里","LIN":"7鄰","STREET":"中正路","SECT":" ","MAREA":" ","LANE":" ","ALLEY":" ","HOUSE_NO":"３４２號","E_COORD97":167419.63,"N_COORD97":2543817.3100000001,"ADDRESS":"中正路３４２號","OBJECTID":620340},"geometry":{"x":167419.63000000082,"y":2543817.3100000024}},{"attributes":{"ID":620368,"DIS_CODE":0,"TOWNNAME":"中西區","LI":"安海里","LIN":"7鄰","STREET":"中正路","SECT":" ","MAREA":" ","LANE":" ","ALLEY":" ","HOUSE_NO":"３４４號","E_COORD97":167414.98000000001,"N_COORD97":2543817.6699999999,"ADDRESS":"中正路３４４號","OBJECTID":620341},"geometry":{"x":167414.98000000045,"y":2543817.6700000018}},{"attributes":{"ID":620369,"DIS_CODE":0,"TOWNNAME":"中西區","LI":"安海里","LIN":"7鄰","STREET":"中正路","SECT":" ","MAREA":" ","LANE":" ","ALLEY":" ","HOUSE_NO":"３４６號","E_COORD97":167406.04000000001,"N_COORD97":2543819.1000000001,"ADDRESS":"中正路３４６號","OBJECTID":620342},"geometry":{"x":167406.03999999911,"y":2543819.0999999996}},{"attributes":{"ID":620370,"DIS_CODE":0,"TOWNNAME":"中西區","LI":"安海里","LIN":"7鄰","STREET":"中正路","SECT":" ","MAREA":" ","LANE":" ","ALLEY":" ","HOUSE_NO":"３４８號","E_COORD97":167401.20999999999,"N_COORD97":2543819.6400000001,"ADDRESS":"中正路３４８號","OBJECTID":620343},"geometry":{"x":167401.20999999996,"y":2543819.6400000006}},{"attributes":{"ID":620371,"DIS_CODE":0,"TOWNNAME":"中西區","LI":"安海里","LIN":"7鄰","STREET":"運河北街","SECT":" ","MAREA":" ","LANE":" ","ALLEY":" ","HOUSE_NO":"２號","E_COORD97":167383.69,"N_COORD97":2543844.6400000001,"ADDRESS":"運河北街２號","OBJECTID":620344},"geometry":{"x":167383.69000000134,"y":2543844.6400000025}},{"attributes":{"ID":620372,"DIS_CODE":0,"TOWNNAME":"中西區","LI":"安海里","LIN":"7鄰","STREET":"金華路","SECT":"三段","MAREA":" ","LANE":" ","ALLEY":" ","HOUSE_NO":"１９８號","E_COORD97":167320.75,"N_COORD97":2543860.3300000001,"ADDRESS":"金華路三段１９８號","OBJECTID":620345},"geometry":{"x":167320.75000000093,"y":2543860.3300000019}},{"attributes":{"ID":620373,"DIS_CODE":0,"TOWNNAME":"中西區","LI":"安海里","LIN":"7鄰","STREET":"金華路","SECT":"三段","MAREA":" ","LANE":" ","ALLEY":" ","HOUSE_NO":"２００號","E_COORD97":167322,"N_COORD97":2543863.73,"ADDRESS":"金華路三段２００號","OBJECTID":620346},"geometry":{"x":167322.00000000093,"y":2543863.7300000042}},{"attributes":{"ID":620374,"DIS_CODE":0,"TOWNNAME":"中西區","LI":"安海里","LIN":"7鄰","STREET":"金華路","SECT":"三段","MAREA":" ","LANE":" ","ALLEY":" ","HOUSE_NO":"２０２號","E_COORD97":167323.25,"N_COORD97":2543866.7599999998,"ADDRESS":"金華路三段２０２號","OBJECTID":620347},"geometry":{"x":167323.24999999907,"y":2543866.7600000016}},{"attributes":{"ID":620375,"DIS_CODE":0,"TOWNNAME":"中西區","LI":"安海里","LIN":"10鄰","STREET":"河中街","SECT":" ","MAREA":" ","LANE":" ","ALLEY":" ","HOUSE_NO":"９號","E_COORD97":167257.72,"N_COORD97":2543904.0699999998,"ADDRESS":"河中街９號","OBJECTID":620348},"geometry":{"x":167257.72000000067,"y":2543904.0700000003}},{"attributes":{"ID":620376,"DIS_CODE":0,"TOWNNAME":"中西區","LI":"安海里","LIN":"11鄰","STREET":"環河街","SECT":" ","MAREA":" ","LANE":" ","ALLEY":" ","HOUSE_NO":"８０號","E_COORD97":167215.47,"N_COORD97":2543902.3300000001,"ADDRESS":"環河街８０號","OBJECTID":620349},"geometry":{"x":167215.47000000067,"y":2543902.3300000001}},{"attributes":{"ID":620377,"DIS_CODE":0,"TOWNNAME":"北區","LI":"裕民里","LIN":"2鄰","STREET":"成功路","SECT":" ","MAREA":" ","LANE":" ","ALLEY":" ","HOUSE_NO":"４８４號","E_COORD97":167695.07999999999,"N_COORD97":2544668.1000000001,"ADDRESS":"成功路４８４號","OBJECTID":620350},"geometry":{"x":167695.08000000007,"y":2544668.1000000015}},{"attributes":{"ID":620378,"DIS_CODE":0,"TOWNNAME":"北區","LI":"正風里","LIN":"2鄰","STREET":"公園路","SECT":" ","MAREA":" ","LANE":" ","ALLEY":" ","HOUSE_NO":"９０２號之１","E_COORD97":169353.42000000001,"N_COORD97":2546127.3300000001,"ADDRESS":"公園路９０２號之１","OBJECTID":620351},"geometry":{"x":169353.42000000086,"y":2546127.3299999982}},{"attributes":{"ID":620379,"DIS_CODE":0,"TOWNNAME":"東山區","LI":"東中里","LIN":"19鄰","STREET":"達雲路","SECT":"一段","MAREA":" ","LANE":" ","ALLEY":" ","HOUSE_NO":"２８號","E_COORD97":189033.97,"N_COORD97":2580044.0499999998,"ADDRESS":"達雲路一段２８號","OBJECTID":620352},"geometry":{"x":189033.97000000067,"y":2580044.0500000045}},{"attributes":{"ID":620380,"DIS_CODE":0,"TOWNNAME":"永康區","LI":"\u25A0行里","LIN":"48鄰","STREET":"新民街","SECT":" ","MAREA":" ","LANE":" ","ALLEY":" ","HOUSE_NO":"４５號四樓之３","E_COORD97":172375.89999999999,"N_COORD97":2548942.7799999998,"ADDRESS":"新民街４５號四樓之３","OBJECTID":620353},"geometry":{"x":172375.90000000037,"y":2548942.7799999993}},{"attributes":{"ID":620381,"DIS_CODE":0,"TOWNNAME":"永康區","LI":"\u25A0行里","LIN":"48鄰","STREET":"新民街","SECT":" ","MAREA":" ","LANE":" ","ALLEY":" ","HOUSE_NO":"４５號九樓之２","E_COORD97":172375.94,"N_COORD97":2548942.7799999998,"ADDRESS":"新民街４５號九樓之２","OBJECTID":620354},"geometry":{"x":172375.94000000227,"y":2548942.7799999993}},{"attributes":{"ID":620382,"DIS_CODE":0,"TOWNNAME":"永康區","LI":"\u25A0行里","LIN":"48鄰","STREET":"新民街","SECT":" ","MAREA":" ","LANE":" ","ALLEY":" ","HOUSE_NO":"４５號五樓之３","E_COORD97":172375.89999999999,"N_COORD97":2548942.7799999998,"ADDRESS":"新民街４５號五樓之３","OBJECTID":620355},"geometry":{"x":172375.90000000037,"y":2548942.7799999993}},{"attributes":{"ID":620383,"DIS_CODE":0,"TOWNNAME":"東區","LI":"成大里","LIN":"27鄰","STREET":"育樂街","SECT":" ","MAREA":" ","LANE":" ","ALLEY":" ","HOUSE_NO":"４號","E_COORD97":169812.76000000001,"N_COORD97":2543996.0299999998,"ADDRESS":"育樂街４號","OBJECTID":620356},"geometry":{"x":169812.75999999978,"y":2543996.0299999975}},{"attributes":{"ID":620384,"DIS_CODE":0,"TOWNNAME":"佳里區","LI":"安西里","LIN":"48鄰","STREET":"佳西路","SECT":" ","MAREA":" ","LANE":" ","ALLEY":" ","HOUSE_NO":"１２號","E_COORD97":164795.91,"N_COORD97":2562096.48,"ADDRESS":"佳西路１２號","OBJECTID":620357},"geometry":{"x":164795.91000000015,"y":2562096.4800000023}},{"attributes":{"ID":620385,"DIS_CODE":0,"TOWNNAME":"佳里區","LI":"安西里","LIN":"48鄰","STREET":"佳西路","SECT":" ","MAREA":" ","LANE":" ","ALLEY":" ","HOUSE_NO":"１３號","E_COORD97":164748.5,"N_COORD97":2562087.7799999998,"ADDRESS":"佳西路１３號","OBJECTID":620358},"geometry":{"x":164748.50000000093,"y":2562087.7799999993}},{"attributes":{"ID":620386,"DIS_CODE":0,"TOWNNAME":"佳里區","LI":"安西里","LIN":"48鄰","STREET":"佳西路","SECT":" ","MAREA":" ","LANE":" ","ALLEY":" ","HOUSE_NO":"１６號","E_COORD97":164797.03,"N_COORD97":2562116.8799999999,"ADDRESS":"佳西路１６號","OBJECTID":620359},"geometry":{"x":164797.03000000026,"y":2562116.879999999}},{"attributes":{"ID":620387,"DIS_CODE":0,"TOWNNAME":"佳里區","LI":"安西里","LIN":"48鄰","STREET":"佳西路","SECT":" ","MAREA":" ","LANE":" ","ALLEY":" ","HOUSE_NO":"１８號","E_COORD97":164785.82999999999,"N_COORD97":2562119.5600000001,"ADDRESS":"佳西路１８號","OBJECTID":620360},"geometry":{"x":164785.83000000101,"y":2562119.5600000024}},{"attributes":{"ID":620388,"DIS_CODE":0,"TOWNNAME":"佳里區","LI":"安西里","LIN":"48鄰","STREET":"佳西路","SECT":" ","MAREA":" ","LANE":" ","ALLEY":" ","HOUSE_NO":"３６號","E_COORD97":164801.48999999999,"N_COORD97":2562255.52,"ADDRESS":"佳西路３６號","OBJECTID":620361},"geometry":{"x":164801.49000000115,"y":2562255.5199999996}},{"attributes":{"ID":620389,"DIS_CODE":0,"TOWNNAME":"佳里區","LI":"安西里","LIN":"48鄰","STREET":"佳西路","SECT":" ","MAREA":" ","LANE":" ","ALLEY":" ","HOUSE_NO":"６０號","E_COORD97":164785.91,"N_COORD97":2562301.9199999999,"ADDRESS":"佳西路６０號","OBJECTID":620362},"geometry":{"x":164785.91000000015,"y":2562301.9199999999}},{"attributes":{"ID":620390,"DIS_CODE":0,"TOWNNAME":"佳里區","LI":"安西里","LIN":"48鄰","STREET":"佳西路","SECT":" ","MAREA":" ","LANE":" ","ALLEY":" ","HOUSE_NO":"７３號","E_COORD97":164749.51999999999,"N_COORD97":2562224.77,"ADDRESS":"佳西路７３號","OBJECTID":620363},"geometry":{"x":164749.52000000142,"y":2562224.7700000033}},{"attributes":{"ID":620391,"DIS_CODE":0,"TOWNNAME":"永康區","LI":"崑山里","LIN":"48鄰","STREET":"永華路","SECT":" ","MAREA":" ","LANE":" ","ALLEY":" ","HOUSE_NO":"３８號","E_COORD97":174084.09,"N_COORD97":2545236.6400000001,"ADDRESS":"永華路３８號","OBJECTID":620364},"geometry":{"x":174084.08999999985,"y":2545236.6400000006}},{"attributes":{"ID":620392,"DIS_CODE":0,"TOWNNAME":"永康區","LI":"崑山里","LIN":"48鄰","STREET":"國光六街","SECT":" ","MAREA":" ","LANE":" ","ALLEY":" ","HOUSE_NO":"４９號","E_COORD97":174179.54000000001,"N_COORD97":2545281.7799999998,"ADDRESS":"國光六街４９號","OBJECTID":620365},"geometry":{"x":174179.54000000004,"y":2545281.7799999993}},{"attributes":{"ID":620393,"DIS_CODE":0,"TOWNNAME":"永康區","LI":"崑山里","LIN":"48鄰","STREET":"永華路","SECT":" ","MAREA":" ","LANE":" ","ALLEY":" ","HOUSE_NO":"６７號","E_COORD97":174062.84,"N_COORD97":2545287.6299999999,"ADDRESS":"永華路６７號","OBJECTID":620366},"geometry":{"x":174062.84000000078,"y":2545287.6300000008}},{"attributes":{"ID":620394,"DIS_CODE":0,"TOWNNAME":"永康區","LI":"崑山里","LIN":"48鄰","STREET":"永華路","SECT":" ","MAREA":" ","LANE":" ","ALLEY":" ","HOUSE_NO":"４８號","E_COORD97":174091.14000000001,"N_COORD97":2545258.2000000002,"ADDRESS":"永華路４８號","OBJECTID":620367},"geometry":{"x":174091.1400000006,"y":2545258.1999999993}},{"attributes":{"ID":620395,"DIS_CODE":0,"TOWNNAME":"永康區","LI":"崑山里","LIN":"48鄰","STREET":"永華路","SECT":" ","MAREA":" ","LANE":" ","ALLEY":" ","HOUSE_NO":"６０號","E_COORD97":174094.92000000001,"N_COORD97":2545292,"ADDRESS":"永華路６０號","OBJECTID":620368},"geometry":{"x":174094.92000000086,"y":2545291.9999999981}},{"attributes":{"ID":620396,"DIS_CODE":0,"TOWNNAME":"新市區","LI":"新和里","LIN":"48鄰","STREET":"和平街","SECT":" ","MAREA":" ","LANE":" ","ALLEY":" ","HOUSE_NO":"１３２號","E_COORD97":177527.56,"N_COORD97":2553358.75,"ADDRESS":"和平街１３２號","OBJECTID":620369},"geometry":{"x":177527.56000000145,"y":2553358.75}},{"attributes":{"ID":620397,"DIS_CODE":0,"TOWNNAME":"新市區","LI":"新和里","LIN":"48鄰","STREET":"和平街","SECT":" ","MAREA":" ","LANE":" ","ALLEY":" ","HOUSE_NO":"１４２號","E_COORD97":177499.04000000001,"N_COORD97":2553336,"ADDRESS":"和平街１４２號","OBJECTID":620370},"geometry":{"x":177499.04000000004,"y":2553336}},{"attributes":{"ID":620398,"DIS_CODE":0,"TOWNNAME":"新市區","LI":"新和里","LIN":"48鄰","STREET":"和平街","SECT":" ","MAREA":" ","LANE":" ","ALLEY":" ","HOUSE_NO":"１５８號","E_COORD97":177470.82000000001,"N_COORD97":2553314.5,"ADDRESS":"和平街１５８號","OBJECTID":620371},"geometry":{"x":177470.82000000123,"y":2553314.5000000019}},{"attributes":{"ID":620399,"DIS_CODE":0,"TOWNNAME":"歸仁區","LI":"後市里","LIN":"48鄰","STREET":"文化五街","SECT":" ","MAREA":" ","LANE":" ","ALLEY":" ","HOUSE_NO":"２５號","E_COORD97":177114.23999999999,"N_COORD97":2541128.7599999998,"ADDRESS":"文化五街２５號","OBJECTID":620372},"geometry":{"x":177114.24000000022,"y":2541128.7599999998}},{"attributes":{"ID":620400,"DIS_CODE":0,"TOWNNAME":"歸仁區","LI":"後市里","LIN":"48鄰","STREET":"文化五街","SECT":" ","MAREA":" ","LANE":" ","ALLEY":" ","HOUSE_NO":"３１號","E_COORD97":177113.14000000001,"N_COORD97":2541114.7599999998,"ADDRESS":"文化五街３１號","OBJECTID":620373},"geometry":{"x":177113.13999999966,"y":2541114.7600000016}},{"attributes":{"ID":620401,"DIS_CODE":0,"TOWNNAME":"歸仁區","LI":"後市里","LIN":"48鄰","STREET":"文化五街","SECT":" ","MAREA":" ","LANE":" ","ALLEY":" ","HOUSE_NO":"２３號","E_COORD97":177114.23999999999,"N_COORD97":2541132.7599999998,"ADDRESS":"文化五街２３號","OBJECTID":620374},"geometry":{"x":177114.24000000022,"y":2541132.7599999998}},{"attributes":{"ID":620402,"DIS_CODE":0,"TOWNNAME":"歸仁區","LI":"南保里","LIN":"48鄰","STREET":"大順街","SECT":" ","MAREA":" ","LANE":" ","ALLEY":" ","HOUSE_NO":"２０５號","E_COORD97":176857.57000000001,"N_COORD97":2540595.25,"ADDRESS":"大順街２０５號","OBJECTID":620375},"geometry":{"x":176857.57000000123,"y":2540595.2500000019}},{"attributes":{"ID":620403,"DIS_CODE":0,"TOWNNAME":"歸仁區","LI":"後市里","LIN":"48鄰","STREET":"文化五街","SECT":" ","MAREA":" ","LANE":" ","ALLEY":" ","HOUSE_NO":"２９號","E_COORD97":177114.14000000001,"N_COORD97":2541119.7599999998,"ADDRESS":"文化五街２９號","OBJECTID":620376},"geometry":{"x":177114.1400000006,"y":2541119.7599999998}},{"attributes":{"ID":620404,"DIS_CODE":0,"TOWNNAME":"歸仁區","LI":"後市里","LIN":"48鄰","STREET":"文化五街","SECT":" ","MAREA":" ","LANE":" ","ALLEY":" ","HOUSE_NO":"３３號","E_COORD97":177113.14000000001,"N_COORD97":2541110.7599999998,"ADDRESS":"文化五街３３號","OBJECTID":620377},"geometry":{"x":177113.13999999966,"y":2541110.7600000016}},{"attributes":{"ID":620405,"DIS_CODE":0,"TOWNNAME":"歸仁區","LI":"南保里","LIN":"48鄰","STREET":"大順街","SECT":" ","MAREA":" ","LANE":" ","ALLEY":" ","HOUSE_NO":"１７１號","E_COORD97":176939.57000000001,"N_COORD97":2540597.25,"ADDRESS":"大順街１７１號","OBJECTID":620378},"geometry":{"x":176939.5700000003,"y":2540597.25}},{"attributes":{"ID":620406,"DIS_CODE":0,"TOWNNAME":"歸仁區","LI":"南保里","LIN":"48鄰","STREET":"大順街","SECT":" ","MAREA":" ","LANE":" ","ALLEY":" ","HOUSE_NO":"１７９號","E_COORD97":176923.17000000001,"N_COORD97":2540598.25,"ADDRESS":"大順街１７９號","OBJECTID":620379},"geometry":{"x":176923.16999999993,"y":2540598.2500000037}},{"attributes":{"ID":620407,"DIS_CODE":0,"TOWNNAME":"東區","LI":"成大里","LIN":"27鄰","STREET":"育樂街","SECT":" ","MAREA":" ","LANE":" ","ALLEY":" ","HOUSE_NO":"５０號","E_COORD97":169723.42000000001,"N_COORD97":2544017.6600000001,"ADDRESS":"育樂街５０號","OBJECTID":620380},"geometry":{"x":169723.41999999993,"y":2544017.660000002}},{"attributes":{"ID":620408,"DIS_CODE":0,"TOWNNAME":"歸仁區","LI":"南保里","LIN":"48鄰","STREET":"大順五街","SECT":" ","MAREA":" ","LANE":" ","ALLEY":" ","HOUSE_NO":"５號","E_COORD97":176849.28,"N_COORD97":2540578.25,"ADDRESS":"大順五街５號","OBJECTID":620381},"geometry":{"x":176849.28000000119,"y":2540578.2500000019}},{"attributes":{"ID":620409,"DIS_CODE":0,"TOWNNAME":"歸仁區","LI":"辜厝里","LIN":"48鄰","STREET":"民權九街","SECT":" ","MAREA":" ","LANE":" ","ALLEY":" ","HOUSE_NO":"３８號","E_COORD97":177044.42000000001,"N_COORD97":2540342.0299999998,"ADDRESS":"民權九街３８號","OBJECTID":620382},"geometry":{"x":177044.42000000086,"y":2540342.0300000012}},{"attributes":{"ID":620410,"DIS_CODE":0,"TOWNNAME":"歸仁區","LI":"辜厝里","LIN":"48鄰","STREET":"民權九街","SECT":" ","MAREA":" ","LANE":" ","ALLEY":" ","HOUSE_NO":"４２號","E_COORD97":177051.62,"N_COORD97":2540342.0299999998,"ADDRESS":"民權九街４２號","OBJECTID":620383},"geometry":{"x":177051.62000000104,"y":2540342.0300000012}},{"attributes":{"ID":620411,"DIS_CODE":0,"TOWNNAME":"歸仁區","LI":"辜厝里","LIN":"48鄰","STREET":"民權九街","SECT":" ","MAREA":" ","LANE":" ","ALLEY":" ","HOUSE_NO":"３０號","E_COORD97":177032.12,"N_COORD97":2540343.0299999998,"ADDRESS":"民權九街３０號","OBJECTID":620384},"geometry":{"x":177032.12000000011,"y":2540343.0300000012}},{"attributes":{"ID":620412,"DIS_CODE":0,"TOWNNAME":"歸仁區","LI":"辜厝里","LIN":"48鄰","STREET":"民權九街","SECT":" ","MAREA":" ","LANE":" ","ALLEY":" ","HOUSE_NO":"４０號","E_COORD97":177048.51999999999,"N_COORD97":2540343.0299999998,"ADDRESS":"民權九街４０號","OBJECTID":620385},"geometry":{"x":177048.52000000048,"y":2540343.0300000012}},{"attributes":{"ID":620413,"DIS_CODE":0,"TOWNNAME":"歸仁區","LI":"辜厝里","LIN":"48鄰","STREET":"民權九街","SECT":" ","MAREA":" ","LANE":" ","ALLEY":" ","HOUSE_NO":"４６號","E_COORD97":177054.72,"N_COORD97":2540342.0299999998,"ADDRESS":"民權九街４６號","OBJECTID":620386},"geometry":{"x":177054.71999999974,"y":2540342.0300000012}},{"attributes":{"ID":620414,"DIS_CODE":0,"TOWNNAME":"歸仁區","LI":"南保里","LIN":"48鄰","STREET":"大順五街","SECT":" ","MAREA":" ","LANE":" ","ALLEY":" ","HOUSE_NO":"７號","E_COORD97":176855.22,"N_COORD97":2540574.25,"ADDRESS":"大順五街７號","OBJECTID":620387},"geometry":{"x":176855.21999999881,"y":2540574.25}},{"attributes":{"ID":620415,"DIS_CODE":0,"TOWNNAME":"歸仁區","LI":"南保里","LIN":"48鄰","STREET":"大順五街","SECT":" ","MAREA":" ","LANE":" ","ALLEY":" ","HOUSE_NO":"１９號","E_COORD97":176857.37,"N_COORD97":2540551.25,"ADDRESS":"大順五街１９號","OBJECTID":620388},"geometry":{"x":176857.37000000011,"y":2540551.2500000019}},{"attributes":{"ID":620416,"DIS_CODE":0,"TOWNNAME":"歸仁區","LI":"南保里","LIN":"48鄰","STREET":"大順五街","SECT":" ","MAREA":" ","LANE":" ","ALLEY":" ","HOUSE_NO":"９號","E_COORD97":176856.22,"N_COORD97":2540570.25,"ADDRESS":"大順五街９號","OBJECTID":620389},"geometry":{"x":176856.21999999974,"y":2540570.25}},{"attributes":{"ID":620417,"DIS_CODE":0,"TOWNNAME":"歸仁區","LI":"南保里","LIN":"48鄰","STREET":"大順五街","SECT":" ","MAREA":" ","LANE":" ","ALLEY":" ","HOUSE_NO":"１３號","E_COORD97":176857.37,"N_COORD97":2540562.25,"ADDRESS":"大順五街１３號","OBJECTID":620390},"geometry":{"x":176857.37000000011,"y":2540562.2500000019}},{"attributes":{"ID":620418,"DIS_CODE":0,"TOWNNAME":"歸仁區","LI":"南保里","LIN":"48鄰","STREET":"大順五街","SECT":" ","MAREA":" ","LANE":" ","ALLEY":" ","HOUSE_NO":"１７號","E_COORD97":176857.37,"N_COORD97":2540554.25,"ADDRESS":"大順五街１７號","OBJECTID":620391},"geometry":{"x":176857.37000000011,"y":2540554.2500000037}},{"attributes":{"ID":620419,"DIS_CODE":0,"TOWNNAME":"歸仁區","LI":"南保里","LIN":"48鄰","STREET":"大順五街","SECT":" ","MAREA":" ","LANE":" ","ALLEY":" ","HOUSE_NO":"１１號","E_COORD97":176857.37,"N_COORD97":2540565.25,"ADDRESS":"大順五街１１號","OBJECTID":620392},"geometry":{"x":176857.37000000011,"y":2540565.2500000019}},{"attributes":{"ID":620420,"DIS_CODE":0,"TOWNNAME":"歸仁區","LI":"南保里","LIN":"48鄰","STREET":"大順街","SECT":" ","MAREA":" ","LANE":" ","ALLEY":" ","HOUSE_NO":"１７５號","E_COORD97":176930.37,"N_COORD97":2540597.25,"ADDRESS":"大順街１７５號","OBJECTID":620393},"geometry":{"x":176930.37000000011,"y":2540597.25}},{"attributes":{"ID":620421,"DIS_CODE":0,"TOWNNAME":"歸仁區","LI":"後市里","LIN":"48鄰","STREET":"文化五街","SECT":" ","MAREA":" ","LANE":" ","ALLEY":" ","HOUSE_NO":"１１號","E_COORD97":177117.44,"N_COORD97":2541168.7599999998,"ADDRESS":"文化五街１１號","OBJECTID":620394},"geometry":{"x":177117.44000000134,"y":2541168.7600000016}},{"attributes":{"ID":620422,"DIS_CODE":0,"TOWNNAME":"歸仁區","LI":"後市里","LIN":"48鄰","STREET":"文化街","SECT":"二段","MAREA":" ","LANE":" ","ALLEY":" ","HOUSE_NO":"１４１號","E_COORD97":177149.94,"N_COORD97":2541198.7599999998,"ADDRESS":"文化街二段１４１號","OBJECTID":620395},"geometry":{"x":177149.94000000134,"y":2541198.7600000016}},{"attributes":{"ID":620423,"DIS_CODE":0,"TOWNNAME":"歸仁區","LI":"後市里","LIN":"48鄰","STREET":"文化街","SECT":"二段","MAREA":" ","LANE":" ","ALLEY":" ","HOUSE_NO":"１４９號","E_COORD97":177120.23999999999,"N_COORD97":2541204.7599999998,"ADDRESS":"文化街二段１４９號","OBJECTID":620396},"geometry":{"x":177120.24000000209,"y":2541204.7600000035}},{"attributes":{"ID":620424,"DIS_CODE":0,"TOWNNAME":"歸仁區","LI":"後市里","LIN":"48鄰","STREET":"文化街","SECT":"二段","MAREA":" ","LANE":" ","ALLEY":" ","HOUSE_NO":"１４５號","E_COORD97":177131.44,"N_COORD97":2541203.7599999998,"ADDRESS":"文化街二段１４５號","OBJECTID":620397},"geometry":{"x":177131.44000000134,"y":2541203.7599999998}},{"attributes":{"ID":620425,"DIS_CODE":0,"TOWNNAME":"歸仁區","LI":"辜厝里","LIN":"48鄰","STREET":"民權九街","SECT":" ","MAREA":" ","LANE":" ","ALLEY":" ","HOUSE_NO":"５２號","E_COORD97":177070.12,"N_COORD97":2540341.0299999998,"ADDRESS":"民權九街５２號","OBJECTID":620398},"geometry":{"x":177070.12000000104,"y":2540341.0299999993}},{"attributes":{"ID":620426,"DIS_CODE":0,"TOWNNAME":"歸仁區","LI":"後市里","LIN":"48鄰","STREET":"文化五街","SECT":" ","MAREA":" ","LANE":" ","ALLEY":" ","HOUSE_NO":"７號","E_COORD97":177118.29000000001,"N_COORD97":2541176.7599999998,"ADDRESS":"文化五街７號","OBJECTID":620399},"geometry":{"x":177118.29000000097,"y":2541176.7599999998}},{"attributes":{"ID":620427,"DIS_CODE":0,"TOWNNAME":"歸仁區","LI":"辜厝里","LIN":"48鄰","STREET":"民權九街","SECT":" ","MAREA":" ","LANE":" ","ALLEY":" ","HOUSE_NO":"５０號","E_COORD97":177063.92000000001,"N_COORD97":2540342.0299999998,"ADDRESS":"民權九街５０號","OBJECTID":620400},"geometry":{"x":177063.91999999993,"y":2540342.0300000012}}]}