{"displayFieldName":"TOWNNAME","fieldAliases":{"ID":"ID","DIS_CODE":"DIS_CODE","TOWNNAME":"TOWNNAME","LI":"LI","LIN":"LIN","STREET":"STREET","SECT":"SECT","MAREA":"MAREA","LANE":"LANE","ALLEY":"ALLEY","HOUSE_NO":"HOUSE_NO","E_COORD97":"E_COORD97","N_COORD97":"N_COORD97","ADDRESS":"ADDRESS","OBJECTID":"OBJECTID"},"geometryType":"esriGeometryPoint","spatialReference":{"wkid":102443,"latestWkid":3826},"fields":[{"name":"ID","type":"esriFieldTypeDouble","alias":"ID"},{"name":"DIS_CODE","type":"esriFieldTypeInteger","alias":"DIS_CODE"},{"name":"TOWNNAME","type":"esriFieldTypeString","alias":"TOWNNAME","length":8},{"name":"LI","type":"esriFieldTypeString","alias":"LI","length":8},{"name":"LIN","type":"esriFieldTypeString","alias":"LIN","length":12},{"name":"STREET","type":"esriFieldTypeString","alias":"STREET","length":20},{"name":"SECT","type":"esriFieldTypeString","alias":"SECT","length":8},{"name":"MAREA","type":"esriFieldTypeString","alias":"MAREA","length":12},{"name":"LANE","type":"esriFieldTypeString","alias":"LANE","length":10},{"name":"ALLEY","type":"esriFieldTypeString","alias":"ALLEY","length":10},{"name":"HOUSE_NO","type":"esriFieldTypeString","alias":"HOUSE_NO","length":20},{"name":"E_COORD97","type":"esriFieldTypeDouble","alias":"E_COORD97"},{"name":"N_COORD97","type":"esriFieldTypeDouble","alias":"N_COORD97"},{"name":"ADDRESS","type":"esriFieldTypeString","alias":"ADDRESS","length":50},{"name":"OBJECTID","type":"esriFieldTypeOID","alias":"OBJECTID"}],"features":[{"attributes":{"ID":382411,"DIS_CODE":0,"TOWNNAME":"北區","LI":"六甲里","LIN":"9鄰","STREET":"西門路","SECT":"四段","MAREA":" ","LANE":"３３０巷","ALLEY":" ","HOUSE_NO":"７號","E_COORD97":169020.73999999999,"N_COORD97":2546001.0499999998,"ADDRESS":"西門路四段３３０巷７號","OBJECTID":382401},"geometry":{"x":169020.74000000115,"y":2546001.0499999989}},{"attributes":{"ID":382412,"DIS_CODE":0,"TOWNNAME":"北區","LI":"六甲里","LIN":"9鄰","STREET":"西門路","SECT":"四段","MAREA":" ","LANE":"３３０巷","ALLEY":" ","HOUSE_NO":"９號","E_COORD97":169023.63,"N_COORD97":2546000.0800000001,"ADDRESS":"西門路四段３３０巷９號","OBJECTID":382402},"geometry":{"x":169023.62999999989,"y":2546000.0800000001}},{"attributes":{"ID":382413,"DIS_CODE":0,"TOWNNAME":"歸仁區","LI":"武東里","LIN":"9鄰","STREET":"武東三街","SECT":" ","MAREA":" ","LANE":"５３巷","ALLEY":" ","HOUSE_NO":"５５號","E_COORD97":175147.89000000001,"N_COORD97":2535063.25,"ADDRESS":"武東三街５３巷５５號","OBJECTID":382403},"geometry":{"x":175147.88999999966,"y":2535063.2500000019}},{"attributes":{"ID":382414,"DIS_CODE":0,"TOWNNAME":"永康區","LI":"龍潭里","LIN":"44鄰","STREET":"永平街","SECT":" ","MAREA":" ","LANE":"２９８巷","ALLEY":" ","HOUSE_NO":"１５之１５號","E_COORD97":174677.48999999999,"N_COORD97":2547138.7999999998,"ADDRESS":"永平街２９８巷１５之１５號","OBJECTID":382404},"geometry":{"x":174677.49000000209,"y":2547138.8000000045}},{"attributes":{"ID":382415,"DIS_CODE":0,"TOWNNAME":"永康區","LI":"龍潭里","LIN":"44鄰","STREET":"永平街","SECT":" ","MAREA":" ","LANE":"２９８巷","ALLEY":" ","HOUSE_NO":"７之８號","E_COORD97":174660.16,"N_COORD97":2547120.04,"ADDRESS":"永平街２９８巷７之８號","OBJECTID":382405},"geometry":{"x":174660.16000000015,"y":2547120.040000001}},{"attributes":{"ID":382416,"DIS_CODE":0,"TOWNNAME":"永康區","LI":"龍潭里","LIN":"44鄰","STREET":"永平街","SECT":" ","MAREA":" ","LANE":"２９８巷","ALLEY":" ","HOUSE_NO":"６之１號","E_COORD97":174660.16,"N_COORD97":2547120.04,"ADDRESS":"永平街２９８巷６之１號","OBJECTID":382406},"geometry":{"x":174660.16000000015,"y":2547120.040000001}},{"attributes":{"ID":382417,"DIS_CODE":0,"TOWNNAME":"歸仁區","LI":"大潭里","LIN":"9鄰","STREET":"長榮路","SECT":"一段","MAREA":" ","LANE":"２００巷","ALLEY":" ","HOUSE_NO":"６２號","E_COORD97":175112.42000000001,"N_COORD97":2534419.2799999998,"ADDRESS":"長榮路一段２００巷６２號","OBJECTID":382407},"geometry":{"x":175112.41999999993,"y":2534419.2799999993}},{"attributes":{"ID":382418,"DIS_CODE":0,"TOWNNAME":"歸仁區","LI":"七甲里","LIN":"9鄰","STREET":"七甲二街","SECT":" ","MAREA":" ","LANE":"５８巷","ALLEY":" ","HOUSE_NO":"３１號","E_COORD97":177729.73999999999,"N_COORD97":2542557.6600000001,"ADDRESS":"七甲二街５８巷３１號","OBJECTID":382408},"geometry":{"x":177729.74000000022,"y":2542557.6600000001}},{"attributes":{"ID":382419,"DIS_CODE":0,"TOWNNAME":"歸仁區","LI":"七甲里","LIN":"9鄰","STREET":"七甲二街","SECT":" ","MAREA":" ","LANE":"５８巷","ALLEY":" ","HOUSE_NO":"１１號","E_COORD97":177720.84,"N_COORD97":2542615.6600000001,"ADDRESS":"七甲二街５８巷１１號","OBJECTID":382409},"geometry":{"x":177720.84000000171,"y":2542615.6600000001}},{"attributes":{"ID":382420,"DIS_CODE":0,"TOWNNAME":"歸仁區","LI":"八甲里","LIN":"9鄰","STREET":"中正北路","SECT":"一段","MAREA":" ","LANE":"３９５巷","ALLEY":" ","HOUSE_NO":"７０號","E_COORD97":177417.98000000001,"N_COORD97":2541871.4900000002,"ADDRESS":"中正北路一段３９５巷７０號","OBJECTID":382410},"geometry":{"x":177417.98000000045,"y":2541871.4899999984}},{"attributes":{"ID":382421,"DIS_CODE":0,"TOWNNAME":"歸仁區","LI":"八甲里","LIN":"9鄰","STREET":"大明街","SECT":" ","MAREA":" ","LANE":"１８巷","ALLEY":" ","HOUSE_NO":"７號","E_COORD97":177803.47,"N_COORD97":2541853.6099999999,"ADDRESS":"大明街１８巷７號","OBJECTID":382411},"geometry":{"x":177803.47000000067,"y":2541853.6100000013}},{"attributes":{"ID":382422,"DIS_CODE":0,"TOWNNAME":"歸仁區","LI":"七甲里","LIN":"9鄰","STREET":"七甲二街","SECT":" ","MAREA":" ","LANE":"１００巷","ALLEY":" ","HOUSE_NO":"２號","E_COORD97":177828.07999999999,"N_COORD97":2542614.25,"ADDRESS":"七甲二街１００巷２號","OBJECTID":382412},"geometry":{"x":177828.08000000194,"y":2542614.25}},{"attributes":{"ID":382423,"DIS_CODE":0,"TOWNNAME":"歸仁區","LI":"七甲里","LIN":"9鄰","STREET":"七甲二街","SECT":" ","MAREA":" ","LANE":"５８巷","ALLEY":" ","HOUSE_NO":"２７號","E_COORD97":177725.73999999999,"N_COORD97":2542581.6499999999,"ADDRESS":"七甲二街５８巷２７號","OBJECTID":382413},"geometry":{"x":177725.74000000115,"y":2542581.6500000004}},{"attributes":{"ID":382424,"DIS_CODE":0,"TOWNNAME":"歸仁區","LI":"七甲里","LIN":"9鄰","STREET":"七甲一街","SECT":" ","MAREA":" ","LANE":"１１６巷","ALLEY":" ","HOUSE_NO":"１２號","E_COORD97":177700.48999999999,"N_COORD97":2542600.6600000001,"ADDRESS":"七甲一街１１６巷１２號","OBJECTID":382414},"geometry":{"x":177700.49000000115,"y":2542600.660000002}},{"attributes":{"ID":382425,"DIS_CODE":0,"TOWNNAME":"歸仁區","LI":"七甲里","LIN":"9鄰","STREET":"七甲二街","SECT":" ","MAREA":" ","LANE":"５８巷","ALLEY":" ","HOUSE_NO":"３７號","E_COORD97":177719.23999999999,"N_COORD97":2542505.6600000001,"ADDRESS":"七甲二街５８巷３７號","OBJECTID":382415},"geometry":{"x":177719.24000000115,"y":2542505.660000002}},{"attributes":{"ID":382426,"DIS_CODE":0,"TOWNNAME":"歸仁區","LI":"七甲里","LIN":"9鄰","STREET":"七甲一街","SECT":" ","MAREA":" ","LANE":"１１６巷","ALLEY":" ","HOUSE_NO":"６號","E_COORD97":177658.14000000001,"N_COORD97":2542596.6600000001,"ADDRESS":"七甲一街１１６巷６號","OBJECTID":382416},"geometry":{"x":177658.1400000006,"y":2542596.660000002}},{"attributes":{"ID":382427,"DIS_CODE":0,"TOWNNAME":"歸仁區","LI":"八甲里","LIN":"9鄰","STREET":"中正北路","SECT":"一段","MAREA":" ","LANE":"３９５巷","ALLEY":" ","HOUSE_NO":"３９號","E_COORD97":177584.98000000001,"N_COORD97":2541845.4900000002,"ADDRESS":"中正北路一段３９５巷３９號","OBJECTID":382417},"geometry":{"x":177584.98000000231,"y":2541845.4900000021}},{"attributes":{"ID":382428,"DIS_CODE":0,"TOWNNAME":"歸仁區","LI":"武東里","LIN":"9鄰","STREET":"中正南路","SECT":"三段","MAREA":" ","LANE":"９６巷","ALLEY":" ","HOUSE_NO":"３２號","E_COORD97":175195.41,"N_COORD97":2535049.2799999998,"ADDRESS":"中正南路三段９６巷３２號","OBJECTID":382418},"geometry":{"x":175195.41000000108,"y":2535049.2799999993}},{"attributes":{"ID":382429,"DIS_CODE":0,"TOWNNAME":"歸仁區","LI":"八甲里","LIN":"9鄰","STREET":"中正北路","SECT":"一段","MAREA":" ","LANE":"３９５巷","ALLEY":" ","HOUSE_NO":"７９號","E_COORD97":177314.31,"N_COORD97":2541825.25,"ADDRESS":"中正北路一段３９５巷７９號","OBJECTID":382419},"geometry":{"x":177314.31000000052,"y":2541825.25}},{"attributes":{"ID":382430,"DIS_CODE":0,"TOWNNAME":"歸仁區","LI":"武東里","LIN":"9鄰","STREET":"中正南路","SECT":"三段","MAREA":" ","LANE":"９６巷","ALLEY":" ","HOUSE_NO":"２８號","E_COORD97":175185.10999999999,"N_COORD97":2535030.2799999998,"ADDRESS":"中正南路三段９６巷２８號","OBJECTID":382420},"geometry":{"x":175185.1099999994,"y":2535030.2800000031}},{"attributes":{"ID":382431,"DIS_CODE":0,"TOWNNAME":"歸仁區","LI":"大廟里","LIN":"9鄰","STREET":"大廟一街","SECT":" ","MAREA":" ","LANE":"２９巷","ALLEY":" ","HOUSE_NO":"１８號","E_COORD97":175901.01999999999,"N_COORD97":2544051.25,"ADDRESS":"大廟一街２９巷１８號","OBJECTID":382421},"geometry":{"x":175901.02000000048,"y":2544051.2500000019}},{"attributes":{"ID":382432,"DIS_CODE":0,"TOWNNAME":"歸仁區","LI":"武東里","LIN":"9鄰","STREET":"中正南路","SECT":"三段","MAREA":" ","LANE":"９６巷","ALLEY":" ","HOUSE_NO":"２６號","E_COORD97":175183.01000000001,"N_COORD97":2535027.2799999998,"ADDRESS":"中正南路三段９６巷２６號","OBJECTID":382422},"geometry":{"x":175183.00999999978,"y":2535027.2800000012}},{"attributes":{"ID":382433,"DIS_CODE":0,"TOWNNAME":"歸仁區","LI":"八甲里","LIN":"9鄰","STREET":"中正北路","SECT":"一段","MAREA":" ","LANE":"３９５巷","ALLEY":" ","HOUSE_NO":"６２號","E_COORD97":177458.98000000001,"N_COORD97":2541881.4900000002,"ADDRESS":"中正北路一段３９５巷６２號","OBJECTID":382423},"geometry":{"x":177458.98000000045,"y":2541881.4900000002}},{"attributes":{"ID":382434,"DIS_CODE":0,"TOWNNAME":"南區","LI":"大忠里","LIN":"9鄰","STREET":"大同路","SECT":"二段","MAREA":" ","LANE":"４８２巷","ALLEY":" ","HOUSE_NO":"１２３號","E_COORD97":169165.01000000001,"N_COORD97":2541550.0899999999,"ADDRESS":"大同路二段４８２巷１２３號","OBJECTID":382424},"geometry":{"x":169165.00999999978,"y":2541550.0900000017}},{"attributes":{"ID":382435,"DIS_CODE":0,"TOWNNAME":"南區","LI":"大忠里","LIN":"9鄰","STREET":"大同路","SECT":"二段","MAREA":" ","LANE":"４８２巷","ALLEY":" ","HOUSE_NO":"１３１號","E_COORD97":169092.67999999999,"N_COORD97":2541554.9900000002,"ADDRESS":"大同路二段４８２巷１３１號","OBJECTID":382425},"geometry":{"x":169092.6799999997,"y":2541554.9900000002}},{"attributes":{"ID":382436,"DIS_CODE":0,"TOWNNAME":"南區","LI":"大忠里","LIN":"9鄰","STREET":"大同路","SECT":"二段","MAREA":" ","LANE":"４８２巷","ALLEY":" ","HOUSE_NO":"５９號","E_COORD97":169284.17999999999,"N_COORD97":2541450.4700000002,"ADDRESS":"大同路二段４８２巷５９號","OBJECTID":382426},"geometry":{"x":169284.1799999997,"y":2541450.4700000007}},{"attributes":{"ID":382437,"DIS_CODE":0,"TOWNNAME":"南區","LI":"大忠里","LIN":"9鄰","STREET":"大同路","SECT":"二段","MAREA":" ","LANE":"４８２巷","ALLEY":" ","HOUSE_NO":"６１號","E_COORD97":169282.20999999999,"N_COORD97":2541458.3300000001,"ADDRESS":"大同路二段４８２巷６１號","OBJECTID":382427},"geometry":{"x":169282.21000000089,"y":2541458.3300000001}},{"attributes":{"ID":382438,"DIS_CODE":0,"TOWNNAME":"南區","LI":"大忠里","LIN":"9鄰","STREET":"大同路","SECT":"二段","MAREA":" ","LANE":"４８２巷","ALLEY":" ","HOUSE_NO":"６３號","E_COORD97":169280.23999999999,"N_COORD97":2541462.75,"ADDRESS":"大同路二段４８２巷６３號","OBJECTID":382428},"geometry":{"x":169280.24000000115,"y":2541462.7500000037}},{"attributes":{"ID":382439,"DIS_CODE":0,"TOWNNAME":"南區","LI":"大忠里","LIN":"9鄰","STREET":"大同路","SECT":"二段","MAREA":" ","LANE":"４８２巷","ALLEY":" ","HOUSE_NO":"６５號","E_COORD97":169276.54999999999,"N_COORD97":2541467.6499999999,"ADDRESS":"大同路二段４８２巷６５號","OBJECTID":382429},"geometry":{"x":169276.54999999981,"y":2541467.6500000022}},{"attributes":{"ID":382440,"DIS_CODE":0,"TOWNNAME":"楠西區","LI":"東勢里","LIN":"9鄰","STREET":"水庫路","SECT":" ","MAREA":" ","LANE":"２３６巷","ALLEY":" ","HOUSE_NO":"２０號","E_COORD97":197683.22,"N_COORD97":2564240.25,"ADDRESS":"水庫路２３６巷２０號","OBJECTID":382430},"geometry":{"x":197683.22000000067,"y":2564240.2500000019}},{"attributes":{"ID":382441,"DIS_CODE":0,"TOWNNAME":"南區","LI":"大忠里","LIN":"9鄰","STREET":"大同路","SECT":"二段","MAREA":" ","LANE":"４８２巷","ALLEY":" ","HOUSE_NO":"８１號","E_COORD97":169237.76000000001,"N_COORD97":2541488.0499999998,"ADDRESS":"大同路二段４８２巷８１號","OBJECTID":382431},"geometry":{"x":169237.75999999978,"y":2541488.0500000007}},{"attributes":{"ID":382442,"DIS_CODE":0,"TOWNNAME":"南區","LI":"大忠里","LIN":"9鄰","STREET":"大同路","SECT":"二段","MAREA":" ","LANE":"４８２巷","ALLEY":" ","HOUSE_NO":"８３號","E_COORD97":169234.04999999999,"N_COORD97":2541490.1699999999,"ADDRESS":"大同路二段４８２巷８３號","OBJECTID":382432},"geometry":{"x":169234.05000000075,"y":2541490.1699999981}},{"attributes":{"ID":382443,"DIS_CODE":0,"TOWNNAME":"南區","LI":"大忠里","LIN":"9鄰","STREET":"大同路","SECT":"二段","MAREA":" ","LANE":"４８２巷","ALLEY":" ","HOUSE_NO":"９５號","E_COORD97":169215.92999999999,"N_COORD97":2541503.04,"ADDRESS":"大同路二段４８２巷９５號","OBJECTID":382433},"geometry":{"x":169215.93000000063,"y":2541503.0399999991}},{"attributes":{"ID":382444,"DIS_CODE":0,"TOWNNAME":"南區","LI":"大忠里","LIN":"9鄰","STREET":"大同路","SECT":"二段","MAREA":" ","LANE":"４８２巷","ALLEY":" ","HOUSE_NO":"９７號","E_COORD97":169203.26000000001,"N_COORD97":2541498.0299999998,"ADDRESS":"大同路二段４８２巷９７號","OBJECTID":382434},"geometry":{"x":169203.26000000071,"y":2541498.0300000012}},{"attributes":{"ID":382445,"DIS_CODE":0,"TOWNNAME":"南區","LI":"大林里","LIN":"9鄰","STREET":"大同路","SECT":"二段","MAREA":" ","LANE":"４８２巷","ALLEY":" ","HOUSE_NO":"１４０號","E_COORD97":169087.57999999999,"N_COORD97":2541570.27,"ADDRESS":"大同路二段４８２巷１４０號","OBJECTID":382435},"geometry":{"x":169087.58000000194,"y":2541570.2699999996}},{"attributes":{"ID":382446,"DIS_CODE":0,"TOWNNAME":"白河區","LI":"外角里","LIN":"13鄰","STREET":"三民路","SECT":" ","MAREA":" ","LANE":" ","ALLEY":" ","HOUSE_NO":"２０１號","E_COORD97":190799.95000000001,"N_COORD97":2583288.4900000002,"ADDRESS":"三民路２０１號","OBJECTID":382436},"geometry":{"x":190799.95000000019,"y":2583288.4900000039}},{"attributes":{"ID":382447,"DIS_CODE":0,"TOWNNAME":"楠西區","LI":"東勢里","LIN":"9鄰","STREET":"水庫路","SECT":" ","MAREA":" ","LANE":"２３６巷","ALLEY":" ","HOUSE_NO":"１６號","E_COORD97":197686.92000000001,"N_COORD97":2564206.25,"ADDRESS":"水庫路２３６巷１６號","OBJECTID":382437},"geometry":{"x":197686.92000000086,"y":2564206.2500000019}},{"attributes":{"ID":382448,"DIS_CODE":0,"TOWNNAME":"楠西區","LI":"東勢里","LIN":"9鄰","STREET":"水庫路","SECT":" ","MAREA":" ","LANE":"２３６巷","ALLEY":" ","HOUSE_NO":"２３號","E_COORD97":197682.92000000001,"N_COORD97":2564253.25,"ADDRESS":"水庫路２３６巷２３號","OBJECTID":382438},"geometry":{"x":197682.92000000179,"y":2564253.2500000019}},{"attributes":{"ID":382449,"DIS_CODE":0,"TOWNNAME":"楠西區","LI":"東勢里","LIN":"9鄰","STREET":"水庫路","SECT":" ","MAREA":" ","LANE":"２３６巷","ALLEY":" ","HOUSE_NO":"２１號","E_COORD97":197683.22,"N_COORD97":2564244.25,"ADDRESS":"水庫路２３６巷２１號","OBJECTID":382439},"geometry":{"x":197683.22000000067,"y":2564244.2500000019}},{"attributes":{"ID":382450,"DIS_CODE":0,"TOWNNAME":"楠西區","LI":"東勢里","LIN":"9鄰","STREET":"水庫路","SECT":" ","MAREA":" ","LANE":"２３６巷","ALLEY":" ","HOUSE_NO":"２４號","E_COORD97":197678.22,"N_COORD97":2564268.25,"ADDRESS":"水庫路２３６巷２４號","OBJECTID":382440},"geometry":{"x":197678.21999999974,"y":2564268.25}},{"attributes":{"ID":382451,"DIS_CODE":0,"TOWNNAME":"楠西區","LI":"東勢里","LIN":"9鄰","STREET":"水庫路","SECT":" ","MAREA":" ","LANE":"２３６巷","ALLEY":" ","HOUSE_NO":"１４號","E_COORD97":197688.12,"N_COORD97":2564197.25,"ADDRESS":"水庫路２３６巷１４號","OBJECTID":382441},"geometry":{"x":197688.12000000011,"y":2564197.25}},{"attributes":{"ID":382452,"DIS_CODE":0,"TOWNNAME":"楠西區","LI":"東勢里","LIN":"9鄰","STREET":"水庫路","SECT":" ","MAREA":" ","LANE":"２３６巷","ALLEY":" ","HOUSE_NO":"１８號","E_COORD97":197680.42000000001,"N_COORD97":2564215.25,"ADDRESS":"水庫路２３６巷１８號","OBJECTID":382442},"geometry":{"x":197680.41999999993,"y":2564215.25}},{"attributes":{"ID":382453,"DIS_CODE":0,"TOWNNAME":"楠西區","LI":"東勢里","LIN":"9鄰","STREET":"水庫路","SECT":" ","MAREA":" ","LANE":"２３６巷","ALLEY":" ","HOUSE_NO":"１２號","E_COORD97":197689.32000000001,"N_COORD97":2564187.25,"ADDRESS":"水庫路２３６巷１２號","OBJECTID":382443},"geometry":{"x":197689.32000000123,"y":2564187.25}},{"attributes":{"ID":382454,"DIS_CODE":0,"TOWNNAME":"楠西區","LI":"東勢里","LIN":"9鄰","STREET":"水庫路","SECT":" ","MAREA":" ","LANE":"２３６巷","ALLEY":" ","HOUSE_NO":"１３號","E_COORD97":197688.82000000001,"N_COORD97":2564192.25,"ADDRESS":"水庫路２３６巷１３號","OBJECTID":382444},"geometry":{"x":197688.8200000003,"y":2564192.2500000019}},{"attributes":{"ID":382455,"DIS_CODE":0,"TOWNNAME":"楠西區","LI":"東勢里","LIN":"9鄰","STREET":"水庫路","SECT":" ","MAREA":" ","LANE":"２３６巷","ALLEY":" ","HOUSE_NO":"１９號","E_COORD97":197682.92000000001,"N_COORD97":2564231.25,"ADDRESS":"水庫路２３６巷１９號","OBJECTID":382445},"geometry":{"x":197682.92000000179,"y":2564231.25}},{"attributes":{"ID":382456,"DIS_CODE":0,"TOWNNAME":"楠西區","LI":"東勢里","LIN":"9鄰","STREET":"水庫路","SECT":" ","MAREA":" ","LANE":"２３６巷","ALLEY":" ","HOUSE_NO":"１７號","E_COORD97":197686.42000000001,"N_COORD97":2564209.25,"ADDRESS":"水庫路２３６巷１７號","OBJECTID":382446},"geometry":{"x":197686.42000000179,"y":2564209.2500000019}},{"attributes":{"ID":382457,"DIS_CODE":0,"TOWNNAME":"楠西區","LI":"東勢里","LIN":"9鄰","STREET":"水庫路","SECT":" ","MAREA":" ","LANE":"２３６巷","ALLEY":" ","HOUSE_NO":"２２號","E_COORD97":197683.32000000001,"N_COORD97":2564248.25,"ADDRESS":"水庫路２３６巷２２號","OBJECTID":382447},"geometry":{"x":197683.3200000003,"y":2564248.25}},{"attributes":{"ID":382458,"DIS_CODE":0,"TOWNNAME":"楠西區","LI":"東勢里","LIN":"9鄰","STREET":"水庫路","SECT":" ","MAREA":" ","LANE":"２３６巷","ALLEY":" ","HOUSE_NO":"７號","E_COORD97":197667.17000000001,"N_COORD97":2564162.25,"ADDRESS":"水庫路２３６巷７號","OBJECTID":382448},"geometry":{"x":197667.16999999993,"y":2564162.2500000019}},{"attributes":{"ID":382459,"DIS_CODE":0,"TOWNNAME":"楠西區","LI":"東勢里","LIN":"9鄰","STREET":"水庫路","SECT":" ","MAREA":" ","LANE":"２３６巷","ALLEY":" ","HOUSE_NO":"５號","E_COORD97":197674.67000000001,"N_COORD97":2564162.25,"ADDRESS":"水庫路２３６巷５號","OBJECTID":382449},"geometry":{"x":197674.67000000086,"y":2564162.2500000019}},{"attributes":{"ID":382460,"DIS_CODE":0,"TOWNNAME":"楠西區","LI":"東勢里","LIN":"9鄰","STREET":"水庫路","SECT":" ","MAREA":" ","LANE":"２３６巷","ALLEY":" ","HOUSE_NO":"１號","E_COORD97":197690.17000000001,"N_COORD97":2564164.25,"ADDRESS":"水庫路２３６巷１號","OBJECTID":382450},"geometry":{"x":197690.17000000086,"y":2564164.25}},{"attributes":{"ID":382461,"DIS_CODE":0,"TOWNNAME":"楠西區","LI":"東勢里","LIN":"9鄰","STREET":"水庫路","SECT":" ","MAREA":" ","LANE":"２３６巷","ALLEY":" ","HOUSE_NO":"８號","E_COORD97":197663.47,"N_COORD97":2564161.2400000002,"ADDRESS":"水庫路２３６巷８號","OBJECTID":382451},"geometry":{"x":197663.46999999974,"y":2564161.2400000002}},{"attributes":{"ID":382462,"DIS_CODE":0,"TOWNNAME":"楠西區","LI":"東勢里","LIN":"9鄰","STREET":"水庫路","SECT":" ","MAREA":" ","LANE":"２３６巷","ALLEY":" ","HOUSE_NO":"２號","E_COORD97":197686.67000000001,"N_COORD97":2564164.25,"ADDRESS":"水庫路２３６巷２號","OBJECTID":382452},"geometry":{"x":197686.67000000086,"y":2564164.25}},{"attributes":{"ID":382463,"DIS_CODE":0,"TOWNNAME":"楠西區","LI":"東勢里","LIN":"9鄰","STREET":"水庫路","SECT":" ","MAREA":" ","LANE":"２３６巷","ALLEY":" ","HOUSE_NO":"１０號","E_COORD97":197689.92000000001,"N_COORD97":2564178.25,"ADDRESS":"水庫路２３６巷１０號","OBJECTID":382453},"geometry":{"x":197689.92000000086,"y":2564178.2500000037}},{"attributes":{"ID":382464,"DIS_CODE":0,"TOWNNAME":"楠西區","LI":"東勢里","LIN":"9鄰","STREET":"水庫路","SECT":" ","MAREA":" ","LANE":"２３６巷","ALLEY":" ","HOUSE_NO":"６號","E_COORD97":197670.87,"N_COORD97":2564162.25,"ADDRESS":"水庫路２３６巷６號","OBJECTID":382454},"geometry":{"x":197670.87000000011,"y":2564162.2500000019}},{"attributes":{"ID":382465,"DIS_CODE":0,"TOWNNAME":"楠西區","LI":"東勢里","LIN":"9鄰","STREET":"水庫路","SECT":" ","MAREA":" ","LANE":"２３６巷","ALLEY":" ","HOUSE_NO":"３號","E_COORD97":197682.97,"N_COORD97":2564164.25,"ADDRESS":"水庫路２３６巷３號","OBJECTID":382455},"geometry":{"x":197682.97000000067,"y":2564164.25}},{"attributes":{"ID":382466,"DIS_CODE":0,"TOWNNAME":"南區","LI":"大恩里","LIN":"9鄰","STREET":"大同路","SECT":"二段","MAREA":" ","LANE":"７５０巷","ALLEY":" ","HOUSE_NO":"４２號","E_COORD97":169448.63,"N_COORD97":2540721.6899999999,"ADDRESS":"大同路二段７５０巷４２號","OBJECTID":382456},"geometry":{"x":169448.63000000082,"y":2540721.6900000013}},{"attributes":{"ID":382467,"DIS_CODE":0,"TOWNNAME":"南區","LI":"大恩里","LIN":"9鄰","STREET":"大同路","SECT":"二段","MAREA":" ","LANE":"７５０巷","ALLEY":" ","HOUSE_NO":"４４號","E_COORD97":169444.45000000001,"N_COORD97":2540720.2999999998,"ADDRESS":"大同路二段７５０巷４４號","OBJECTID":382457},"geometry":{"x":169444.44999999925,"y":2540720.3000000007}},{"attributes":{"ID":382468,"DIS_CODE":0,"TOWNNAME":"南區","LI":"大恩里","LIN":"9鄰","STREET":"大同路","SECT":"二段","MAREA":" ","LANE":"７５０巷","ALLEY":" ","HOUSE_NO":"４６號","E_COORD97":169440.04000000001,"N_COORD97":2540720.9399999999,"ADDRESS":"大同路二段７５０巷４６號","OBJECTID":382458},"geometry":{"x":169440.04000000004,"y":2540720.9399999995}},{"attributes":{"ID":382469,"DIS_CODE":0,"TOWNNAME":"南區","LI":"大恩里","LIN":"9鄰","STREET":"大同路","SECT":"二段","MAREA":" ","LANE":"７５０巷","ALLEY":" ","HOUSE_NO":"４８號","E_COORD97":169436.17999999999,"N_COORD97":2540719.5499999998,"ADDRESS":"大同路二段７５０巷４８號","OBJECTID":382459},"geometry":{"x":169436.18000000063,"y":2540719.5500000026}},{"attributes":{"ID":382470,"DIS_CODE":0,"TOWNNAME":"新營區","LI":"忠政里","LIN":"9鄰","STREET":"中正路","SECT":" ","MAREA":" ","LANE":"３９巷","ALLEY":" ","HOUSE_NO":"４５號之３","E_COORD97":179944.95999999999,"N_COORD97":2579241.9399999999,"ADDRESS":"中正路３９巷４５號之３","OBJECTID":382460},"geometry":{"x":179944.96000000089,"y":2579241.9399999995}},{"attributes":{"ID":382471,"DIS_CODE":0,"TOWNNAME":"新營區","LI":"興業里","LIN":"9鄰","STREET":"中興路","SECT":" ","MAREA":" ","LANE":"１３巷","ALLEY":" ","HOUSE_NO":"５之４號","E_COORD97":180166.07000000001,"N_COORD97":2577981.71,"ADDRESS":"中興路１３巷５之４號","OBJECTID":382461},"geometry":{"x":180166.07000000123,"y":2577981.7100000046}},{"attributes":{"ID":382472,"DIS_CODE":0,"TOWNNAME":"新營區","LI":"新東里","LIN":"9鄰","STREET":"東仁街","SECT":" ","MAREA":" ","LANE":"４３巷","ALLEY":" ","HOUSE_NO":"４８號","E_COORD97":181186.38,"N_COORD97":2579662.4300000002,"ADDRESS":"東仁街４３巷４８號","OBJECTID":382462},"geometry":{"x":181186.38000000082,"y":2579662.4299999997}},{"attributes":{"ID":382473,"DIS_CODE":0,"TOWNNAME":"新營區","LI":"新東里","LIN":"9鄰","STREET":"東仁街","SECT":" ","MAREA":" ","LANE":"２１巷","ALLEY":" ","HOUSE_NO":"１９號","E_COORD97":181220.70000000001,"N_COORD97":2579581.4199999999,"ADDRESS":"東仁街２１巷１９號","OBJECTID":382463},"geometry":{"x":181220.70000000019,"y":2579581.4199999999}},{"attributes":{"ID":382474,"DIS_CODE":0,"TOWNNAME":"新營區","LI":"新東里","LIN":"9鄰","STREET":"東仁街","SECT":" ","MAREA":" ","LANE":"４３巷","ALLEY":" ","HOUSE_NO":"３１號","E_COORD97":181199.79999999999,"N_COORD97":2579642.98,"ADDRESS":"東仁街４３巷３１號","OBJECTID":382464},"geometry":{"x":181199.80000000075,"y":2579642.9800000004}},{"attributes":{"ID":382475,"DIS_CODE":0,"TOWNNAME":"新營區","LI":"大宏里","LIN":"9鄰","STREET":"民治路","SECT":" ","MAREA":" ","LANE":"２９巷","ALLEY":" ","HOUSE_NO":"３７號","E_COORD97":180192.09,"N_COORD97":2578760.0800000001,"ADDRESS":"民治路２９巷３７號","OBJECTID":382465},"geometry":{"x":180192.08999999985,"y":2578760.0800000001}},{"attributes":{"ID":382476,"DIS_CODE":0,"TOWNNAME":"新營區","LI":"新東里","LIN":"9鄰","STREET":"東仁街","SECT":" ","MAREA":" ","LANE":"２１巷","ALLEY":" ","HOUSE_NO":"５２號","E_COORD97":181174.81,"N_COORD97":2579606,"ADDRESS":"東仁街２１巷５２號","OBJECTID":382466},"geometry":{"x":181174.80999999959,"y":2579605.9999999981}},{"attributes":{"ID":382477,"DIS_CODE":0,"TOWNNAME":"新營區","LI":"忠政里","LIN":"9鄰","STREET":"中正路","SECT":" ","MAREA":" ","LANE":"３９巷","ALLEY":" ","HOUSE_NO":"３３號之２","E_COORD97":180011.47,"N_COORD97":2579234.9700000002,"ADDRESS":"中正路３９巷３３號之２","OBJECTID":382467},"geometry":{"x":180011.46999999974,"y":2579234.9700000025}},{"attributes":{"ID":382478,"DIS_CODE":0,"TOWNNAME":"新營區","LI":"新東里","LIN":"9鄰","STREET":"東仁街","SECT":" ","MAREA":" ","LANE":"４３巷","ALLEY":" ","HOUSE_NO":"１１號","E_COORD97":181249.60999999999,"N_COORD97":2579639.98,"ADDRESS":"東仁街４３巷１１號","OBJECTID":382468},"geometry":{"x":181249.61000000127,"y":2579639.9800000004}},{"attributes":{"ID":382479,"DIS_CODE":0,"TOWNNAME":"新營區","LI":"興業里","LIN":"9鄰","STREET":"中興路","SECT":" ","MAREA":" ","LANE":"１３巷","ALLEY":" ","HOUSE_NO":"７之１號","E_COORD97":180175.29000000001,"N_COORD97":2577981.6699999999,"ADDRESS":"中興路１３巷７之１號","OBJECTID":382469},"geometry":{"x":180175.29000000004,"y":2577981.6700000018}},{"attributes":{"ID":382480,"DIS_CODE":0,"TOWNNAME":"新營區","LI":"新東里","LIN":"9鄰","STREET":"東仁街","SECT":" ","MAREA":" ","LANE":"２１巷","ALLEY":" ","HOUSE_NO":"２３號","E_COORD97":181211.54999999999,"N_COORD97":2579580.3599999999,"ADDRESS":"東仁街２１巷２３號","OBJECTID":382470},"geometry":{"x":181211.55000000168,"y":2579580.3600000013}},{"attributes":{"ID":382481,"DIS_CODE":0,"TOWNNAME":"安平區","LI":"金城里","LIN":"9鄰","STREET":"同平路","SECT":" ","MAREA":" ","LANE":"１０８巷","ALLEY":" ","HOUSE_NO":"１０號","E_COORD97":163132.51999999999,"N_COORD97":2544167.8199999998,"ADDRESS":"同平路１０８巷１０號","OBJECTID":382471},"geometry":{"x":163132.52000000048,"y":2544167.8200000003}},{"attributes":{"ID":382482,"DIS_CODE":0,"TOWNNAME":"安平區","LI":"金城里","LIN":"9鄰","STREET":"同平路","SECT":" ","MAREA":" ","LANE":"１０８巷","ALLEY":" ","HOUSE_NO":"１２號","E_COORD97":163127.62,"N_COORD97":2544168.4700000002,"ADDRESS":"同平路１０８巷１２號","OBJECTID":382472},"geometry":{"x":163127.62000000104,"y":2544168.4700000025}},{"attributes":{"ID":382483,"DIS_CODE":0,"TOWNNAME":"安平區","LI":"金城里","LIN":"9鄰","STREET":"同平路","SECT":" ","MAREA":" ","LANE":"１０８巷","ALLEY":" ","HOUSE_NO":"２６號","E_COORD97":163093.42000000001,"N_COORD97":2544172.9199999999,"ADDRESS":"同平路１０８巷２６號","OBJECTID":382473},"geometry":{"x":163093.42000000086,"y":2544172.9199999999}},{"attributes":{"ID":382484,"DIS_CODE":0,"TOWNNAME":"安平區","LI":"金城里","LIN":"9鄰","STREET":"同平路","SECT":" ","MAREA":" ","LANE":"１０８巷","ALLEY":" ","HOUSE_NO":"２號","E_COORD97":163148.19,"N_COORD97":2544167.1600000001,"ADDRESS":"同平路１０８巷２號","OBJECTID":382474},"geometry":{"x":163148.19000000041,"y":2544167.160000002}},{"attributes":{"ID":382485,"DIS_CODE":0,"TOWNNAME":"安平區","LI":"金城里","LIN":"9鄰","STREET":"同平路","SECT":" ","MAREA":" ","LANE":"１０８巷","ALLEY":" ","HOUSE_NO":"３０號","E_COORD97":163077.69,"N_COORD97":2544172.4500000002,"ADDRESS":"同平路１０８巷３０號","OBJECTID":382475},"geometry":{"x":163077.69000000227,"y":2544172.4499999993}},{"attributes":{"ID":382486,"DIS_CODE":0,"TOWNNAME":"安平區","LI":"金城里","LIN":"9鄰","STREET":"同平路","SECT":" ","MAREA":" ","LANE":"１０８巷","ALLEY":" ","HOUSE_NO":"３２號","E_COORD97":163068.66,"N_COORD97":2544170.1200000001,"ADDRESS":"同平路１０８巷３２號","OBJECTID":382476},"geometry":{"x":163068.66000000015,"y":2544170.1199999992}},{"attributes":{"ID":382487,"DIS_CODE":0,"TOWNNAME":"安平區","LI":"金城里","LIN":"9鄰","STREET":"同平路","SECT":" ","MAREA":" ","LANE":"１０８巷","ALLEY":" ","HOUSE_NO":"４號","E_COORD97":163144.10999999999,"N_COORD97":2544167.3300000001,"ADDRESS":"同平路１０８巷４號","OBJECTID":382477},"geometry":{"x":163144.11000000034,"y":2544167.3300000001}},{"attributes":{"ID":382488,"DIS_CODE":0,"TOWNNAME":"安平區","LI":"金城里","LIN":"9鄰","STREET":"同平路","SECT":" ","MAREA":" ","LANE":"１０８巷","ALLEY":" ","HOUSE_NO":"６號","E_COORD97":163140.03,"N_COORD97":2544167.6499999999,"ADDRESS":"同平路１０８巷６號","OBJECTID":382478},"geometry":{"x":163140.03000000119,"y":2544167.6500000022}},{"attributes":{"ID":382489,"DIS_CODE":0,"TOWNNAME":"安平區","LI":"金城里","LIN":"9鄰","STREET":"同平路","SECT":" ","MAREA":" ","LANE":"１０８巷","ALLEY":" ","HOUSE_NO":"８號","E_COORD97":163136.44,"N_COORD97":2544167.8199999998,"ADDRESS":"同平路１０８巷８號","OBJECTID":382479},"geometry":{"x":163136.44000000041,"y":2544167.8200000003}},{"attributes":{"ID":382490,"DIS_CODE":0,"TOWNNAME":"安平區","LI":"金城里","LIN":"9鄰","STREET":"同平路","SECT":" ","MAREA":" ","LANE":"１０８巷","ALLEY":" ","HOUSE_NO":"２７號","E_COORD97":163085.95000000001,"N_COORD97":2544150.6200000001,"ADDRESS":"同平路１０８巷２７號","OBJECTID":382480},"geometry":{"x":163085.95000000205,"y":2544150.6200000029}},{"attributes":{"ID":382491,"DIS_CODE":0,"TOWNNAME":"安平區","LI":"金城里","LIN":"9鄰","STREET":"同平路","SECT":" ","MAREA":" ","LANE":"１０８巷","ALLEY":" ","HOUSE_NO":"２９號","E_COORD97":163083.60999999999,"N_COORD97":2544150.8300000001,"ADDRESS":"同平路１０８巷２９號","OBJECTID":382481},"geometry":{"x":163083.61000000127,"y":2544150.8300000038}},{"attributes":{"ID":382492,"DIS_CODE":0,"TOWNNAME":"安平區","LI":"金城里","LIN":"9鄰","STREET":"同平路","SECT":" ","MAREA":" ","LANE":"１０８巷","ALLEY":" ","HOUSE_NO":"３１號","E_COORD97":163077.10999999999,"N_COORD97":2544149.2599999998,"ADDRESS":"同平路１０８巷３１號","OBJECTID":382482},"geometry":{"x":163077.11000000127,"y":2544149.2600000016}},{"attributes":{"ID":382493,"DIS_CODE":0,"TOWNNAME":"安平區","LI":"金城里","LIN":"9鄰","STREET":"同平路","SECT":" ","MAREA":" ","LANE":"１４８巷","ALLEY":" ","HOUSE_NO":"１０號","E_COORD97":163102.85999999999,"N_COORD97":2544040.5499999998,"ADDRESS":"同平路１４８巷１０號","OBJECTID":382483},"geometry":{"x":163102.86000000034,"y":2544040.5500000007}},{"attributes":{"ID":382494,"DIS_CODE":0,"TOWNNAME":"南區","LI":"鯤鯓里","LIN":"9鄰","STREET":"鯤鯓路","SECT":" ","MAREA":" ","LANE":"１０４巷","ALLEY":" ","HOUSE_NO":"２３號","E_COORD97":165015.89000000001,"N_COORD97":2540070.3900000001,"ADDRESS":"鯤鯓路１０４巷２３號","OBJECTID":382484},"geometry":{"x":165015.88999999966,"y":2540070.3900000025}},{"attributes":{"ID":382495,"DIS_CODE":0,"TOWNNAME":"南區","LI":"鯤鯓里","LIN":"9鄰","STREET":"鯤鯓路","SECT":" ","MAREA":" ","LANE":"１０４巷","ALLEY":" ","HOUSE_NO":"２５號","E_COORD97":165011.54000000001,"N_COORD97":2540070.02,"ADDRESS":"鯤鯓路１０４巷２５號","OBJECTID":382485},"geometry":{"x":165011.54000000097,"y":2540070.0199999996}},{"attributes":{"ID":382496,"DIS_CODE":0,"TOWNNAME":"南區","LI":"鯤鯓里","LIN":"9鄰","STREET":"鯤鯓路","SECT":" ","MAREA":" ","LANE":"１０４巷","ALLEY":" ","HOUSE_NO":"２７號","E_COORD97":165007.92000000001,"N_COORD97":2540068.9399999999,"ADDRESS":"鯤鯓路１０４巷２７號","OBJECTID":382486},"geometry":{"x":165007.91999999993,"y":2540068.9400000013}},{"attributes":{"ID":382497,"DIS_CODE":0,"TOWNNAME":"南區","LI":"鯤鯓里","LIN":"9鄰","STREET":"鯤鯓路","SECT":" ","MAREA":" ","LANE":"１０４巷","ALLEY":" ","HOUSE_NO":"２９號","E_COORD97":165003.57000000001,"N_COORD97":2540067.8500000001,"ADDRESS":"鯤鯓路１０４巷２９號","OBJECTID":382487},"geometry":{"x":165003.5700000003,"y":2540067.8499999996}},{"attributes":{"ID":382498,"DIS_CODE":0,"TOWNNAME":"南區","LI":"鯤鯓里","LIN":"9鄰","STREET":"鯤鯓路","SECT":" ","MAREA":" ","LANE":"１０４巷","ALLEY":" ","HOUSE_NO":"３１號","E_COORD97":164999.22,"N_COORD97":2540066.77,"ADDRESS":"鯤鯓路１０４巷３１號","OBJECTID":382488},"geometry":{"x":164999.2200000016,"y":2540066.7700000014}},{"attributes":{"ID":382499,"DIS_CODE":0,"TOWNNAME":"南區","LI":"鯤鯓里","LIN":"9鄰","STREET":"鯤鯓路","SECT":" ","MAREA":" ","LANE":"１０４巷","ALLEY":" ","HOUSE_NO":"３３號","E_COORD97":164994.75,"N_COORD97":2540066.2799999998,"ADDRESS":"鯤鯓路１０４巷３３號","OBJECTID":382489},"geometry":{"x":164994.75000000093,"y":2540066.2800000012}},{"attributes":{"ID":382500,"DIS_CODE":0,"TOWNNAME":"南區","LI":"鯤鯓里","LIN":"9鄰","STREET":"鯤鯓路","SECT":" ","MAREA":" ","LANE":"１０４巷","ALLEY":" ","HOUSE_NO":"３３號之１","E_COORD97":164989.67999999999,"N_COORD97":2540065.3199999998,"ADDRESS":"鯤鯓路１０４巷３３號之１","OBJECTID":382490},"geometry":{"x":164989.68000000063,"y":2540065.3200000003}},{"attributes":{"ID":382501,"DIS_CODE":0,"TOWNNAME":"南區","LI":"喜南里","LIN":"9鄰","STREET":"喜樹路","SECT":" ","MAREA":" ","LANE":"２８８巷","ALLEY":" ","HOUSE_NO":"９號","E_COORD97":165663.44,"N_COORD97":2537837.4700000002,"ADDRESS":"喜樹路２８８巷９號","OBJECTID":382491},"geometry":{"x":165663.44000000134,"y":2537837.4699999988}},{"attributes":{"ID":382502,"DIS_CODE":0,"TOWNNAME":"南區","LI":"喜南里","LIN":"9鄰","STREET":"喜樹路","SECT":" ","MAREA":" ","LANE":"２８８巷","ALLEY":" ","HOUSE_NO":"１１號","E_COORD97":165653.79999999999,"N_COORD97":2537837.2000000002,"ADDRESS":"喜樹路２８８巷１１號","OBJECTID":382492},"geometry":{"x":165653.80000000075,"y":2537837.1999999993}},{"attributes":{"ID":382503,"DIS_CODE":0,"TOWNNAME":"南區","LI":"喜南里","LIN":"9鄰","STREET":"喜樹路","SECT":" ","MAREA":" ","LANE":"２８８巷","ALLEY":" ","HOUSE_NO":"１３號","E_COORD97":165650.88,"N_COORD97":2537829.1000000001,"ADDRESS":"喜樹路２８８巷１３號","OBJECTID":382493},"geometry":{"x":165650.88000000175,"y":2537829.1000000034}},{"attributes":{"ID":382504,"DIS_CODE":0,"TOWNNAME":"南區","LI":"喜南里","LIN":"9鄰","STREET":"喜樹路","SECT":" ","MAREA":" ","LANE":"２８８巷","ALLEY":" ","HOUSE_NO":"１５號","E_COORD97":165641.51999999999,"N_COORD97":2537834.9199999999,"ADDRESS":"喜樹路２８８巷１５號","OBJECTID":382494},"geometry":{"x":165641.52000000048,"y":2537834.9200000018}},{"attributes":{"ID":382505,"DIS_CODE":0,"TOWNNAME":"南區","LI":"喜南里","LIN":"9鄰","STREET":"喜樹路","SECT":" ","MAREA":" ","LANE":"３０２巷","ALLEY":" ","HOUSE_NO":"１０號","E_COORD97":165662.32000000001,"N_COORD97":2537810.3900000001,"ADDRESS":"喜樹路３０２巷１０號","OBJECTID":382495},"geometry":{"x":165662.32000000123,"y":2537810.3900000006}},{"attributes":{"ID":382506,"DIS_CODE":0,"TOWNNAME":"南區","LI":"喜南里","LIN":"9鄰","STREET":"喜樹路","SECT":" ","MAREA":" ","LANE":"３０２巷","ALLEY":" ","HOUSE_NO":"１２號","E_COORD97":165660.23999999999,"N_COORD97":2537818.29,"ADDRESS":"喜樹路３０２巷１２號","OBJECTID":382496},"geometry":{"x":165660.24000000022,"y":2537818.290000001}},{"attributes":{"ID":382507,"DIS_CODE":0,"TOWNNAME":"南區","LI":"喜南里","LIN":"9鄰","STREET":"喜樹路","SECT":" ","MAREA":" ","LANE":"３０２巷","ALLEY":" ","HOUSE_NO":"１６號","E_COORD97":165649.84,"N_COORD97":2537817.6699999999,"ADDRESS":"喜樹路３０２巷１６號","OBJECTID":382497},"geometry":{"x":165649.84000000078,"y":2537817.6699999999}},{"attributes":{"ID":382508,"DIS_CODE":0,"TOWNNAME":"南區","LI":"喜南里","LIN":"9鄰","STREET":"喜樹路","SECT":" ","MAREA":" ","LANE":"３０２巷","ALLEY":" ","HOUSE_NO":"２０號","E_COORD97":165639.44,"N_COORD97":2537816.21,"ADDRESS":"喜樹路３０２巷２０號","OBJECTID":382498},"geometry":{"x":165639.44000000134,"y":2537816.2100000046}},{"attributes":{"ID":382509,"DIS_CODE":0,"TOWNNAME":"南區","LI":"喜南里","LIN":"9鄰","STREET":"喜樹路","SECT":" ","MAREA":" ","LANE":"３０２巷","ALLEY":" ","HOUSE_NO":"２６號","E_COORD97":165623.57000000001,"N_COORD97":2537811.4300000002,"ADDRESS":"喜樹路３０２巷２６號","OBJECTID":382499},"geometry":{"x":165623.57000000123,"y":2537811.4300000016}},{"attributes":{"ID":382510,"DIS_CODE":0,"TOWNNAME":"南區","LI":"喜南里","LIN":"9鄰","STREET":"喜樹路","SECT":" ","MAREA":" ","LANE":"３０２巷","ALLEY":" ","HOUSE_NO":"３０號","E_COORD97":165604.98000000001,"N_COORD97":2537797.8799999999,"ADDRESS":"喜樹路３０２巷３０號","OBJECTID":382500},"geometry":{"x":165604.98000000231,"y":2537797.879999999}},{"attributes":{"ID":382511,"DIS_CODE":0,"TOWNNAME":"南區","LI":"喜南里","LIN":"9鄰","STREET":"喜樹路","SECT":" ","MAREA":" ","LANE":"３０２巷","ALLEY":" ","HOUSE_NO":"３２號","E_COORD97":165599.51000000001,"N_COORD97":2537796.1299999999,"ADDRESS":"喜樹路３０２巷３２號","OBJECTID":382501},"geometry":{"x":165599.51000000071,"y":2537796.129999999}},{"attributes":{"ID":382512,"DIS_CODE":0,"TOWNNAME":"南區","LI":"喜南里","LIN":"9鄰","STREET":"喜樹路","SECT":" ","MAREA":" ","LANE":"３０２巷","ALLEY":" ","HOUSE_NO":"８號","E_COORD97":165670.23000000001,"N_COORD97":2537816.6299999999,"ADDRESS":"喜樹路３０２巷８號","OBJECTID":382502},"geometry":{"x":165670.23000000138,"y":2537816.629999999}},{"attributes":{"ID":382513,"DIS_CODE":0,"TOWNNAME":"南區","LI":"喜南里","LIN":"9鄰","STREET":"喜樹路","SECT":" ","MAREA":" ","LANE":"２８８巷","ALLEY":" ","HOUSE_NO":"１０號","E_COORD97":165676.63,"N_COORD97":2537847.6000000001,"ADDRESS":"喜樹路２８８巷１０號","OBJECTID":382503},"geometry":{"x":165676.63000000082,"y":2537847.6000000015}},{"attributes":{"ID":382514,"DIS_CODE":0,"TOWNNAME":"南區","LI":"喜南里","LIN":"9鄰","STREET":"喜樹路","SECT":" ","MAREA":" ","LANE":"２８８巷","ALLEY":" ","HOUSE_NO":"１４號","E_COORD97":165672.12,"N_COORD97":2537860.4900000002,"ADDRESS":"喜樹路２８８巷１４號","OBJECTID":382504},"geometry":{"x":165672.12000000104,"y":2537860.4900000002}},{"attributes":{"ID":382515,"DIS_CODE":0,"TOWNNAME":"南區","LI":"喜南里","LIN":"9鄰","STREET":"喜樹路","SECT":" ","MAREA":" ","LANE":"２８８巷","ALLEY":" ","HOUSE_NO":"３號","E_COORD97":165685.82999999999,"N_COORD97":2537833.25,"ADDRESS":"喜樹路２８８巷３號","OBJECTID":382505},"geometry":{"x":165685.83000000101,"y":2537833.2500000019}},{"attributes":{"ID":382516,"DIS_CODE":0,"TOWNNAME":"南區","LI":"喜南里","LIN":"9鄰","STREET":"喜樹路","SECT":" ","MAREA":" ","LANE":"２８８巷","ALLEY":" ","HOUSE_NO":"５號","E_COORD97":165674.73999999999,"N_COORD97":2537840.5800000001,"ADDRESS":"喜樹路２８８巷５號","OBJECTID":382506},"geometry":{"x":165674.74000000115,"y":2537840.5800000019}},{"attributes":{"ID":382517,"DIS_CODE":0,"TOWNNAME":"南區","LI":"喜南里","LIN":"9鄰","STREET":"喜樹路","SECT":" ","MAREA":" ","LANE":"２８８巷","ALLEY":" ","HOUSE_NO":"６號","E_COORD97":165686.23999999999,"N_COORD97":2537842.25,"ADDRESS":"喜樹路２８８巷６號","OBJECTID":382507},"geometry":{"x":165686.24000000115,"y":2537842.2500000019}},{"attributes":{"ID":382518,"DIS_CODE":0,"TOWNNAME":"南區","LI":"喜南里","LIN":"9鄰","STREET":"喜樹路","SECT":" ","MAREA":" ","LANE":"２８８巷","ALLEY":" ","HOUSE_NO":"７號","E_COORD97":165669.60000000001,"N_COORD97":2537829.7200000002,"ADDRESS":"喜樹路２８８巷７號","OBJECTID":382508},"geometry":{"x":165669.60000000056,"y":2537829.7200000025}},{"attributes":{"ID":382519,"DIS_CODE":0,"TOWNNAME":"南區","LI":"喜南里","LIN":"9鄰","STREET":"喜樹路","SECT":" ","MAREA":" ","LANE":"３０２巷","ALLEY":" ","HOUSE_NO":"１號","E_COORD97":165690.82000000001,"N_COORD97":2537817.6699999999,"ADDRESS":"喜樹路３０２巷１號","OBJECTID":382509},"geometry":{"x":165690.82000000216,"y":2537817.6699999999}},{"attributes":{"ID":382520,"DIS_CODE":0,"TOWNNAME":"學甲區","LI":"慈福里","LIN":"9鄰","STREET":"博愛街","SECT":" ","MAREA":" ","LANE":"２１巷","ALLEY":" ","HOUSE_NO":"２０號","E_COORD97":166664.32999999999,"N_COORD97":2569822.9900000002,"ADDRESS":"博愛街２１巷２０號","OBJECTID":382510},"geometry":{"x":166664.33000000007,"y":2569822.9900000021}},{"attributes":{"ID":382521,"DIS_CODE":0,"TOWNNAME":"學甲區","LI":"慈福里","LIN":"9鄰","STREET":"博愛街","SECT":" ","MAREA":" ","LANE":"２１巷","ALLEY":" ","HOUSE_NO":"２２號","E_COORD97":166664.79000000001,"N_COORD97":2569818.0800000001,"ADDRESS":"博愛街２１巷２２號","OBJECTID":382511},"geometry":{"x":166664.79000000004,"y":2569818.0800000019}},{"attributes":{"ID":382522,"DIS_CODE":0,"TOWNNAME":"學甲區","LI":"慈福里","LIN":"9鄰","STREET":"博愛街","SECT":" ","MAREA":" ","LANE":"２１巷","ALLEY":" ","HOUSE_NO":"２６號","E_COORD97":166665.20000000001,"N_COORD97":2569812.96,"ADDRESS":"博愛街２１巷２６號","OBJECTID":382512},"geometry":{"x":166665.20000000112,"y":2569812.9600000028}},{"attributes":{"ID":382523,"DIS_CODE":0,"TOWNNAME":"學甲區","LI":"慈福里","LIN":"9鄰","STREET":"博愛街","SECT":" ","MAREA":" ","LANE":"２１巷","ALLEY":" ","HOUSE_NO":"２８號","E_COORD97":166665.42000000001,"N_COORD97":2569808.5499999998,"ADDRESS":"博愛街２１巷２８號","OBJECTID":382513},"geometry":{"x":166665.41999999993,"y":2569808.5500000045}},{"attributes":{"ID":382524,"DIS_CODE":0,"TOWNNAME":"學甲區","LI":"慈福里","LIN":"9鄰","STREET":"博愛街","SECT":" ","MAREA":" ","LANE":"２１巷","ALLEY":" ","HOUSE_NO":"２號","E_COORD97":166663.32999999999,"N_COORD97":2569857.1099999999,"ADDRESS":"博愛街２１巷２號","OBJECTID":382514},"geometry":{"x":166663.32999999914,"y":2569857.1099999994}},{"attributes":{"ID":382525,"DIS_CODE":0,"TOWNNAME":"學甲區","LI":"慈福里","LIN":"9鄰","STREET":"博愛街","SECT":" ","MAREA":" ","LANE":"２１巷","ALLEY":" ","HOUSE_NO":"３０號","E_COORD97":166665.42999999999,"N_COORD97":2569803.9199999999,"ADDRESS":"博愛街２１巷３０號","OBJECTID":382515},"geometry":{"x":166665.4299999997,"y":2569803.9199999999}},{"attributes":{"ID":382526,"DIS_CODE":0,"TOWNNAME":"學甲區","LI":"慈福里","LIN":"9鄰","STREET":"博愛街","SECT":" ","MAREA":" ","LANE":"２１巷","ALLEY":" ","HOUSE_NO":"３２號","E_COORD97":166665.95000000001,"N_COORD97":2569799.1800000002,"ADDRESS":"博愛街２１巷３２號","OBJECTID":382516},"geometry":{"x":166665.95000000019,"y":2569799.1799999997}},{"attributes":{"ID":382527,"DIS_CODE":0,"TOWNNAME":"學甲區","LI":"慈福里","LIN":"9鄰","STREET":"博愛街","SECT":" ","MAREA":" ","LANE":"２１巷","ALLEY":" ","HOUSE_NO":"３６號","E_COORD97":166666.20000000001,"N_COORD97":2569794.4900000002,"ADDRESS":"博愛街２１巷３６號","OBJECTID":382517},"geometry":{"x":166666.20000000205,"y":2569794.4900000002}},{"attributes":{"ID":382528,"DIS_CODE":0,"TOWNNAME":"學甲區","LI":"慈福里","LIN":"9鄰","STREET":"博愛街","SECT":" ","MAREA":" ","LANE":"２１巷","ALLEY":" ","HOUSE_NO":"６號","E_COORD97":166663.25,"N_COORD97":2569852.3700000001,"ADDRESS":"博愛街２１巷６號","OBJECTID":382518},"geometry":{"x":166663.25,"y":2569852.3700000029}},{"attributes":{"ID":382529,"DIS_CODE":0,"TOWNNAME":"學甲區","LI":"慈福里","LIN":"9鄰","STREET":"博愛街","SECT":" ","MAREA":" ","LANE":"２１巷","ALLEY":" ","HOUSE_NO":"８號","E_COORD97":166663.38,"N_COORD97":2569847.3799999999,"ADDRESS":"博愛街２１巷８號","OBJECTID":382519},"geometry":{"x":166663.38000000082,"y":2569847.379999999}},{"attributes":{"ID":382530,"DIS_CODE":0,"TOWNNAME":"六甲區","LI":"七甲里","LIN":"9鄰","STREET":"七甲街","SECT":" ","MAREA":" ","LANE":"１０８巷","ALLEY":" ","HOUSE_NO":"１２號","E_COORD97":183079.63,"N_COORD97":2569075.9300000002,"ADDRESS":"七甲街１０８巷１２號","OBJECTID":382520},"geometry":{"x":183079.63000000082,"y":2569075.9300000034}},{"attributes":{"ID":382531,"DIS_CODE":0,"TOWNNAME":"六甲區","LI":"七甲里","LIN":"9鄰","STREET":"七甲街","SECT":" ","MAREA":" ","LANE":"１０８巷","ALLEY":" ","HOUSE_NO":"１４號","E_COORD97":183081.41,"N_COORD97":2569080.52,"ADDRESS":"七甲街１０８巷１４號","OBJECTID":382521},"geometry":{"x":183081.41000000108,"y":2569080.5199999996}},{"attributes":{"ID":382532,"DIS_CODE":0,"TOWNNAME":"六甲區","LI":"七甲里","LIN":"9鄰","STREET":"七甲街","SECT":" ","MAREA":" ","LANE":"１０８巷","ALLEY":" ","HOUSE_NO":"１６號","E_COORD97":183082.91,"N_COORD97":2569084.4900000002,"ADDRESS":"七甲街１０８巷１６號","OBJECTID":382522},"geometry":{"x":183082.91000000108,"y":2569084.4900000021}},{"attributes":{"ID":382533,"DIS_CODE":0,"TOWNNAME":"六甲區","LI":"七甲里","LIN":"9鄰","STREET":"七甲街","SECT":" ","MAREA":" ","LANE":"１０８巷","ALLEY":" ","HOUSE_NO":"２０號","E_COORD97":183088.59,"N_COORD97":2569095.0800000001,"ADDRESS":"七甲街１０８巷２０號","OBJECTID":382523},"geometry":{"x":183088.59000000078,"y":2569095.0800000001}},{"attributes":{"ID":382534,"DIS_CODE":0,"TOWNNAME":"六甲區","LI":"七甲里","LIN":"9鄰","STREET":"七甲街","SECT":" ","MAREA":" ","LANE":"９２巷","ALLEY":" ","HOUSE_NO":"７號","E_COORD97":183107.73000000001,"N_COORD97":2569073.4399999999,"ADDRESS":"七甲街９２巷７號","OBJECTID":382524},"geometry":{"x":183107.72999999952,"y":2569073.4400000013}},{"attributes":{"ID":382535,"DIS_CODE":0,"TOWNNAME":"南區","LI":"新生里","LIN":"9鄰","STREET":"大林路","SECT":" ","MAREA":" ","LANE":"３２巷","ALLEY":" ","HOUSE_NO":"２１號","E_COORD97":169095.64999999999,"N_COORD97":2541966.0600000001,"ADDRESS":"大林路３２巷２１號","OBJECTID":382525},"geometry":{"x":169095.65000000037,"y":2541966.0600000005}},{"attributes":{"ID":382536,"DIS_CODE":0,"TOWNNAME":"北區","LI":"仁愛里","LIN":"9鄰","STREET":"長榮路","SECT":"四段","MAREA":" ","LANE":"５８巷","ALLEY":" ","HOUSE_NO":"１８號","E_COORD97":170372.01999999999,"N_COORD97":2544972.6400000001,"ADDRESS":"長榮路四段５８巷１８號","OBJECTID":382526},"geometry":{"x":170372.01999999955,"y":2544972.6400000006}},{"attributes":{"ID":382537,"DIS_CODE":0,"TOWNNAME":"北區","LI":"仁愛里","LIN":"9鄰","STREET":"長榮路","SECT":"四段","MAREA":" ","LANE":"５８巷","ALLEY":" ","HOUSE_NO":"１號","E_COORD97":170330.42000000001,"N_COORD97":2544983.2799999998,"ADDRESS":"長榮路四段５８巷１號","OBJECTID":382527},"geometry":{"x":170330.41999999993,"y":2544983.2799999993}},{"attributes":{"ID":382538,"DIS_CODE":0,"TOWNNAME":"北區","LI":"仁愛里","LIN":"9鄰","STREET":"長榮路","SECT":"四段","MAREA":" ","LANE":"５８巷","ALLEY":" ","HOUSE_NO":"２０號","E_COORD97":170396.89000000001,"N_COORD97":2544988.5699999998,"ADDRESS":"長榮路四段５８巷２０號","OBJECTID":382528},"geometry":{"x":170396.88999999966,"y":2544988.5700000022}},{"attributes":{"ID":382539,"DIS_CODE":0,"TOWNNAME":"北區","LI":"仁愛里","LIN":"9鄰","STREET":"長榮路","SECT":"四段","MAREA":" ","LANE":"５８巷","ALLEY":" ","HOUSE_NO":"２２號","E_COORD97":170370.25,"N_COORD97":2544907.6099999999,"ADDRESS":"長榮路四段５８巷２２號","OBJECTID":382529},"geometry":{"x":170370.25000000093,"y":2544907.6099999975}},{"attributes":{"ID":382540,"DIS_CODE":0,"TOWNNAME":"北區","LI":"仁愛里","LIN":"9鄰","STREET":"長榮路","SECT":"四段","MAREA":" ","LANE":"５８巷","ALLEY":" ","HOUSE_NO":"２２號之１","E_COORD97":170370.70256599999,"N_COORD97":2544913.26498,"ADDRESS":"長榮路四段５８巷２２號之１","OBJECTID":382530},"geometry":{"x":170370.7025659997,"y":2544913.2649789993}},{"attributes":{"ID":382541,"DIS_CODE":0,"TOWNNAME":"北區","LI":"仁愛里","LIN":"9鄰","STREET":"長榮路","SECT":"四段","MAREA":" ","LANE":"５８巷","ALLEY":" ","HOUSE_NO":"２２號之２","E_COORD97":170370.91436,"N_COORD97":2544918.1333099999,"ADDRESS":"長榮路四段５８巷２２號之２","OBJECTID":382531},"geometry":{"x":170370.91435999982,"y":2544918.1333100013}},{"attributes":{"ID":382542,"DIS_CODE":0,"TOWNNAME":"北區","LI":"仁愛里","LIN":"9鄰","STREET":"長榮路","SECT":"四段","MAREA":" ","LANE":"５８巷","ALLEY":" ","HOUSE_NO":"２２號之３","E_COORD97":170371.12615299999,"N_COORD97":2544923.0016399999,"ADDRESS":"長榮路四段５８巷２２號之３","OBJECTID":382532},"geometry":{"x":170371.12615300063,"y":2544923.0016409997}},{"attributes":{"ID":382543,"DIS_CODE":0,"TOWNNAME":"北區","LI":"仁愛里","LIN":"9鄰","STREET":"長榮路","SECT":"四段","MAREA":" ","LANE":"５８巷","ALLEY":" ","HOUSE_NO":"２２號之８","E_COORD97":170375.37,"N_COORD97":2544953.6600000001,"ADDRESS":"長榮路四段５８巷２２號之８","OBJECTID":382533},"geometry":{"x":170375.37000000011,"y":2544953.660000002}},{"attributes":{"ID":382544,"DIS_CODE":0,"TOWNNAME":"北區","LI":"仁愛里","LIN":"9鄰","STREET":"長榮路","SECT":"四段","MAREA":" ","LANE":"５８巷","ALLEY":" ","HOUSE_NO":"５號","E_COORD97":170351.48000000001,"N_COORD97":2544990.0099999998,"ADDRESS":"長榮路四段５８巷５號","OBJECTID":382534},"geometry":{"x":170351.48000000231,"y":2544990.0099999979}},{"attributes":{"ID":382545,"DIS_CODE":0,"TOWNNAME":"北區","LI":"仁愛里","LIN":"9鄰","STREET":"長榮路","SECT":"四段","MAREA":" ","LANE":"５８巷","ALLEY":" ","HOUSE_NO":"７號","E_COORD97":170359.57000000001,"N_COORD97":2544992.9500000002,"ADDRESS":"長榮路四段５８巷７號","OBJECTID":382535},"geometry":{"x":170359.57000000123,"y":2544992.9499999993}},{"attributes":{"ID":382546,"DIS_CODE":0,"TOWNNAME":"北區","LI":"仁愛里","LIN":"9鄰","STREET":"長榮路","SECT":"四段","MAREA":" ","LANE":"５８巷","ALLEY":" ","HOUSE_NO":"９號","E_COORD97":170366.67999999999,"N_COORD97":2544995.77,"ADDRESS":"長榮路四段５８巷９號","OBJECTID":382536},"geometry":{"x":170366.68000000063,"y":2544995.7700000014}},{"attributes":{"ID":382547,"DIS_CODE":0,"TOWNNAME":"北區","LI":"五福里","LIN":"9鄰","STREET":"自強街","SECT":" ","MAREA":" ","LANE":"６９巷","ALLEY":" ","HOUSE_NO":"２號","E_COORD97":168244.92999999999,"N_COORD97":2544600.6800000002,"ADDRESS":"自強街６９巷２號","OBJECTID":382537},"geometry":{"x":168244.9299999997,"y":2544600.6800000016}},{"attributes":{"ID":382548,"DIS_CODE":0,"TOWNNAME":"北區","LI":"五福里","LIN":"9鄰","STREET":"自強街","SECT":" ","MAREA":" ","LANE":"６９巷","ALLEY":" ","HOUSE_NO":"４號","E_COORD97":168247.23999999999,"N_COORD97":2544598.3599999999,"ADDRESS":"自強街６９巷４號","OBJECTID":382538},"geometry":{"x":168247.24000000022,"y":2544598.3600000013}},{"attributes":{"ID":382549,"DIS_CODE":0,"TOWNNAME":"北區","LI":"五福里","LIN":"9鄰","STREET":"自強街","SECT":" ","MAREA":" ","LANE":"８５巷","ALLEY":" ","HOUSE_NO":"１號","E_COORD97":168280.35000000001,"N_COORD97":2544606.1899999999,"ADDRESS":"自強街８５巷１號","OBJECTID":382539},"geometry":{"x":168280.35000000056,"y":2544606.1900000013}},{"attributes":{"ID":382550,"DIS_CODE":0,"TOWNNAME":"北區","LI":"文成里","LIN":"9鄰","STREET":"文賢路","SECT":" ","MAREA":" ","LANE":"５０２巷","ALLEY":" ","HOUSE_NO":"１０號","E_COORD97":167395.17000000001,"N_COORD97":2545236.6099999999,"ADDRESS":"文賢路５０２巷１０號","OBJECTID":382540},"geometry":{"x":167395.17000000086,"y":2545236.6100000031}},{"attributes":{"ID":382551,"DIS_CODE":0,"TOWNNAME":"北區","LI":"文成里","LIN":"9鄰","STREET":"文賢路","SECT":" ","MAREA":" ","LANE":"５０２巷","ALLEY":" ","HOUSE_NO":"１１號","E_COORD97":167400.23000000001,"N_COORD97":2545248.8100000001,"ADDRESS":"文賢路５０２巷１１號","OBJECTID":382541},"geometry":{"x":167400.23000000231,"y":2545248.8100000005}},{"attributes":{"ID":382552,"DIS_CODE":0,"TOWNNAME":"北區","LI":"文成里","LIN":"9鄰","STREET":"文賢路","SECT":" ","MAREA":" ","LANE":"５０２巷","ALLEY":" ","HOUSE_NO":"１２號","E_COORD97":167399.39999999999,"N_COORD97":2545235.6099999999,"ADDRESS":"文賢路５０２巷１２號","OBJECTID":382542},"geometry":{"x":167399.4000000013,"y":2545235.6099999994}},{"attributes":{"ID":382553,"DIS_CODE":0,"TOWNNAME":"北區","LI":"文成里","LIN":"9鄰","STREET":"文賢路","SECT":" ","MAREA":" ","LANE":"５０２巷","ALLEY":" ","HOUSE_NO":"１３號","E_COORD97":167404.26000000001,"N_COORD97":2545248.6099999999,"ADDRESS":"文賢路５０２巷１３號","OBJECTID":382543},"geometry":{"x":167404.25999999885,"y":2545248.6099999994}},{"attributes":{"ID":382554,"DIS_CODE":0,"TOWNNAME":"北區","LI":"文成里","LIN":"9鄰","STREET":"文賢路","SECT":" ","MAREA":" ","LANE":"５０２巷","ALLEY":" ","HOUSE_NO":"１４號","E_COORD97":167403.82999999999,"N_COORD97":2545235,"ADDRESS":"文賢路５０２巷１４號","OBJECTID":382544},"geometry":{"x":167403.83000000007,"y":2545235.0000000019}},{"attributes":{"ID":382555,"DIS_CODE":0,"TOWNNAME":"北區","LI":"文成里","LIN":"9鄰","STREET":"文賢路","SECT":" ","MAREA":" ","LANE":"５０２巷","ALLEY":" ","HOUSE_NO":"１５號","E_COORD97":167409.10000000001,"N_COORD97":2545248.4100000001,"ADDRESS":"文賢路５０２巷１５號","OBJECTID":382545},"geometry":{"x":167409.10000000056,"y":2545248.4100000001}},{"attributes":{"ID":382556,"DIS_CODE":0,"TOWNNAME":"北區","LI":"文成里","LIN":"9鄰","STREET":"文賢路","SECT":" ","MAREA":" ","LANE":"５０２巷","ALLEY":" ","HOUSE_NO":"１６號","E_COORD97":167408.85999999999,"N_COORD97":2545235.3999999999,"ADDRESS":"文賢路５０２巷１６號","OBJECTID":382546},"geometry":{"x":167408.86000000034,"y":2545235.4000000004}},{"attributes":{"ID":382557,"DIS_CODE":0,"TOWNNAME":"北區","LI":"文成里","LIN":"9鄰","STREET":"文賢路","SECT":" ","MAREA":" ","LANE":"５０２巷","ALLEY":" ","HOUSE_NO":"１７號","E_COORD97":167412.92000000001,"N_COORD97":2545248.21,"ADDRESS":"文賢路５０２巷１７號","OBJECTID":382547},"geometry":{"x":167412.91999999993,"y":2545248.2100000028}},{"attributes":{"ID":382558,"DIS_CODE":0,"TOWNNAME":"北區","LI":"文成里","LIN":"9鄰","STREET":"文賢路","SECT":" ","MAREA":" ","LANE":"５０２巷","ALLEY":" ","HOUSE_NO":"１８號","E_COORD97":167413.29000000001,"N_COORD97":2545234.7999999998,"ADDRESS":"文賢路５０２巷１８號","OBJECTID":382548},"geometry":{"x":167413.29000000097,"y":2545234.8000000026}},{"attributes":{"ID":382559,"DIS_CODE":0,"TOWNNAME":"北區","LI":"文成里","LIN":"9鄰","STREET":"文賢路","SECT":" ","MAREA":" ","LANE":"５０２巷","ALLEY":" ","HOUSE_NO":"１９號","E_COORD97":167418.56,"N_COORD97":2545247.6099999999,"ADDRESS":"文賢路５０２巷１９號","OBJECTID":382549},"geometry":{"x":167418.55999999959,"y":2545247.6100000013}},{"attributes":{"ID":382560,"DIS_CODE":0,"TOWNNAME":"北區","LI":"文成里","LIN":"9鄰","STREET":"文賢路","SECT":" ","MAREA":" ","LANE":"５０２巷","ALLEY":" ","HOUSE_NO":"１號","E_COORD97":167377.28,"N_COORD97":2545249.2200000002,"ADDRESS":"文賢路５０２巷１號","OBJECTID":382550},"geometry":{"x":167377.28000000026,"y":2545249.2200000007}},{"attributes":{"ID":382561,"DIS_CODE":0,"TOWNNAME":"北區","LI":"文成里","LIN":"9鄰","STREET":"文賢路","SECT":" ","MAREA":" ","LANE":"５０２巷","ALLEY":" ","HOUSE_NO":"２０號","E_COORD97":167417.51999999999,"N_COORD97":2545234.6000000001,"ADDRESS":"文賢路５０２巷２０號","OBJECTID":382551},"geometry":{"x":167417.51999999862,"y":2545234.6000000015}},{"attributes":{"ID":382562,"DIS_CODE":0,"TOWNNAME":"北區","LI":"文成里","LIN":"9鄰","STREET":"文賢路","SECT":" ","MAREA":" ","LANE":"５０２巷","ALLEY":" ","HOUSE_NO":"２１號","E_COORD97":167422.98999999999,"N_COORD97":2545247.6099999999,"ADDRESS":"文賢路５０２巷２１號","OBJECTID":382552},"geometry":{"x":167422.99000000022,"y":2545247.6100000013}},{"attributes":{"ID":382563,"DIS_CODE":0,"TOWNNAME":"北區","LI":"文成里","LIN":"9鄰","STREET":"文賢路","SECT":" ","MAREA":" ","LANE":"５０２巷","ALLEY":" ","HOUSE_NO":"２２號","E_COORD97":167422.35000000001,"N_COORD97":2545234.3999999999,"ADDRESS":"文賢路５０２巷２２號","OBJECTID":382553},"geometry":{"x":167422.35000000149,"y":2545234.4000000004}},{"attributes":{"ID":382564,"DIS_CODE":0,"TOWNNAME":"北區","LI":"文成里","LIN":"9鄰","STREET":"文賢路","SECT":" ","MAREA":" ","LANE":"５０２巷","ALLEY":" ","HOUSE_NO":"２３號","E_COORD97":167427.01999999999,"N_COORD97":2545247.6099999999,"ADDRESS":"文賢路５０２巷２３號","OBJECTID":382554},"geometry":{"x":167427.01999999955,"y":2545247.6100000013}},{"attributes":{"ID":382565,"DIS_CODE":0,"TOWNNAME":"北區","LI":"文成里","LIN":"9鄰","STREET":"文賢路","SECT":" ","MAREA":" ","LANE":"５０２巷","ALLEY":" ","HOUSE_NO":"２４號","E_COORD97":167426.79000000001,"N_COORD97":2545234,"ADDRESS":"文賢路５０２巷２４號","OBJECTID":382555},"geometry":{"x":167426.79000000097,"y":2545234}},{"attributes":{"ID":382566,"DIS_CODE":0,"TOWNNAME":"北區","LI":"文成里","LIN":"9鄰","STREET":"文賢路","SECT":" ","MAREA":" ","LANE":"５０２巷","ALLEY":" ","HOUSE_NO":"２５號","E_COORD97":167432.04999999999,"N_COORD97":2545248.8100000001,"ADDRESS":"文賢路５０２巷２５號","OBJECTID":382556},"geometry":{"x":167432.05000000075,"y":2545248.8100000005}},{"attributes":{"ID":382567,"DIS_CODE":0,"TOWNNAME":"北區","LI":"文成里","LIN":"9鄰","STREET":"文賢路","SECT":" ","MAREA":" ","LANE":"５０２巷","ALLEY":" ","HOUSE_NO":"２６號","E_COORD97":167431.01000000001,"N_COORD97":2545233.7999999998,"ADDRESS":"文賢路５０２巷２６號","OBJECTID":382557},"geometry":{"x":167431.00999999978,"y":2545233.8000000026}},{"attributes":{"ID":382568,"DIS_CODE":0,"TOWNNAME":"北區","LI":"文成里","LIN":"9鄰","STREET":"文賢路","SECT":" ","MAREA":" ","LANE":"５０２巷","ALLEY":" ","HOUSE_NO":"２７號","E_COORD97":167437.29000000001,"N_COORD97":2545248.6099999999,"ADDRESS":"文賢路５０２巷２７號","OBJECTID":382558},"geometry":{"x":167437.29000000097,"y":2545248.6099999994}},{"attributes":{"ID":382569,"DIS_CODE":0,"TOWNNAME":"北區","LI":"文成里","LIN":"9鄰","STREET":"文賢路","SECT":" ","MAREA":" ","LANE":"５０２巷","ALLEY":" ","HOUSE_NO":"２８號","E_COORD97":167435.85000000001,"N_COORD97":2545233.1899999999,"ADDRESS":"文賢路５０２巷２８號","OBJECTID":382559},"geometry":{"x":167435.85000000149,"y":2545233.1900000013}},{"attributes":{"ID":382570,"DIS_CODE":0,"TOWNNAME":"北區","LI":"文成里","LIN":"9鄰","STREET":"文賢路","SECT":" ","MAREA":" ","LANE":"５０２巷","ALLEY":" ","HOUSE_NO":"２９號","E_COORD97":167440.51000000001,"N_COORD97":2545248.21,"ADDRESS":"文賢路５０２巷２９號","OBJECTID":382560},"geometry":{"x":167440.51000000071,"y":2545248.2100000028}},{"attributes":{"ID":382571,"DIS_CODE":0,"TOWNNAME":"北區","LI":"文成里","LIN":"9鄰","STREET":"文賢路","SECT":" ","MAREA":" ","LANE":"５０２巷","ALLEY":" ","HOUSE_NO":"２號","E_COORD97":167376.23999999999,"N_COORD97":2545237.21,"ADDRESS":"文賢路５０２巷２號","OBJECTID":382561},"geometry":{"x":167376.24000000209,"y":2545237.2100000009}},{"attributes":{"ID":382572,"DIS_CODE":0,"TOWNNAME":"北區","LI":"文成里","LIN":"9鄰","STREET":"文賢路","SECT":" ","MAREA":" ","LANE":"５０２巷","ALLEY":" ","HOUSE_NO":"３１號","E_COORD97":167446.35000000001,"N_COORD97":2545247.8100000001,"ADDRESS":"文賢路５０２巷３１號","OBJECTID":382562},"geometry":{"x":167446.35000000056,"y":2545247.8100000024}},{"attributes":{"ID":382573,"DIS_CODE":0,"TOWNNAME":"北區","LI":"文成里","LIN":"9鄰","STREET":"文賢路","SECT":" ","MAREA":" ","LANE":"５０２巷","ALLEY":" ","HOUSE_NO":"３２號","E_COORD97":167440.28,"N_COORD97":2545232.9900000002,"ADDRESS":"文賢路５０２巷３２號","OBJECTID":382563},"geometry":{"x":167440.27999999933,"y":2545232.9900000021}},{"attributes":{"ID":382574,"DIS_CODE":0,"TOWNNAME":"北區","LI":"文成里","LIN":"9鄰","STREET":"文賢路","SECT":" ","MAREA":" ","LANE":"５０２巷","ALLEY":" ","HOUSE_NO":"３３號","E_COORD97":167453.39999999999,"N_COORD97":2545245.1899999999,"ADDRESS":"文賢路５０２巷３３號","OBJECTID":382564},"geometry":{"x":167453.4000000013,"y":2545245.1899999995}},{"attributes":{"ID":382575,"DIS_CODE":0,"TOWNNAME":"北區","LI":"文成里","LIN":"9鄰","STREET":"文賢路","SECT":" ","MAREA":" ","LANE":"５０２巷","ALLEY":" ","HOUSE_NO":"３４號","E_COORD97":167444.70999999999,"N_COORD97":2545232.9900000002,"ADDRESS":"文賢路５０２巷３４號","OBJECTID":382565},"geometry":{"x":167444.71000000089,"y":2545232.9900000021}},{"attributes":{"ID":382576,"DIS_CODE":0,"TOWNNAME":"北區","LI":"文成里","LIN":"9鄰","STREET":"文賢路","SECT":" ","MAREA":" ","LANE":"５０２巷","ALLEY":" ","HOUSE_NO":"３５號","E_COORD97":167457.82999999999,"N_COORD97":2545245.3999999999,"ADDRESS":"文賢路５０２巷３５號","OBJECTID":382566},"geometry":{"x":167457.83000000007,"y":2545245.4000000004}},{"attributes":{"ID":382577,"DIS_CODE":0,"TOWNNAME":"北區","LI":"文成里","LIN":"9鄰","STREET":"文賢路","SECT":" ","MAREA":" ","LANE":"５０２巷","ALLEY":" ","HOUSE_NO":"３７號","E_COORD97":167462.26000000001,"N_COORD97":2545244.9900000002,"ADDRESS":"文賢路５０２巷３７號","OBJECTID":382567},"geometry":{"x":167462.26000000071,"y":2545244.9900000039}},{"attributes":{"ID":382578,"DIS_CODE":0,"TOWNNAME":"北區","LI":"文成里","LIN":"9鄰","STREET":"文賢路","SECT":" ","MAREA":" ","LANE":"５０２巷","ALLEY":" ","HOUSE_NO":"３９號","E_COORD97":167466.69,"N_COORD97":2545245.3999999999,"ADDRESS":"文賢路５０２巷３９號","OBJECTID":382568},"geometry":{"x":167466.69000000227,"y":2545245.4000000004}},{"attributes":{"ID":382579,"DIS_CODE":0,"TOWNNAME":"北區","LI":"文成里","LIN":"9鄰","STREET":"文賢路","SECT":" ","MAREA":" ","LANE":"５０２巷","ALLEY":" ","HOUSE_NO":"３號","E_COORD97":167381.70999999999,"N_COORD97":2545248.6099999999,"ADDRESS":"文賢路５０２巷３號","OBJECTID":382569},"geometry":{"x":167381.71000000089,"y":2545248.6099999994}},{"attributes":{"ID":382580,"DIS_CODE":0,"TOWNNAME":"北區","LI":"文成里","LIN":"9鄰","STREET":"文賢路","SECT":" ","MAREA":" ","LANE":"５０２巷","ALLEY":" ","HOUSE_NO":"４０號","E_COORD97":167452.64999999999,"N_COORD97":2545233.7799999998,"ADDRESS":"文賢路５０２巷４０號","OBJECTID":382570},"geometry":{"x":167452.65000000037,"y":2545233.7799999993}},{"attributes":{"ID":382581,"DIS_CODE":0,"TOWNNAME":"北區","LI":"文成里","LIN":"9鄰","STREET":"文賢路","SECT":" ","MAREA":" ","LANE":"５０２巷","ALLEY":" ","HOUSE_NO":"４１號","E_COORD97":167471.72,"N_COORD97":2545244.9900000002,"ADDRESS":"文賢路５０２巷４１號","OBJECTID":382571},"geometry":{"x":167471.71999999974,"y":2545244.9900000039}},{"attributes":{"ID":382582,"DIS_CODE":0,"TOWNNAME":"北區","LI":"文成里","LIN":"9鄰","STREET":"文賢路","SECT":" ","MAREA":" ","LANE":"５０２巷","ALLEY":" ","HOUSE_NO":"４２號","E_COORD97":167463.12,"N_COORD97":2545233.7799999998,"ADDRESS":"文賢路５０２巷４２號","OBJECTID":382572},"geometry":{"x":167463.12000000011,"y":2545233.7799999993}},{"attributes":{"ID":382583,"DIS_CODE":0,"TOWNNAME":"北區","LI":"文成里","LIN":"9鄰","STREET":"文賢路","SECT":" ","MAREA":" ","LANE":"５０２巷","ALLEY":" ","HOUSE_NO":"４２號之１","E_COORD97":167466.54000000001,"N_COORD97":2545233.3700000001,"ADDRESS":"文賢路５０２巷４２號之１","OBJECTID":382573},"geometry":{"x":167466.54000000004,"y":2545233.3700000048}},{"attributes":{"ID":382584,"DIS_CODE":0,"TOWNNAME":"北區","LI":"文成里","LIN":"9鄰","STREET":"文賢路","SECT":" ","MAREA":" ","LANE":"５０２巷","ALLEY":" ","HOUSE_NO":"４３號","E_COORD97":167476.22,"N_COORD97":2545244.96,"ADDRESS":"文賢路５０２巷４３號","OBJECTID":382574},"geometry":{"x":167476.22000000067,"y":2545244.9600000009}},{"attributes":{"ID":382585,"DIS_CODE":0,"TOWNNAME":"北區","LI":"文成里","LIN":"9鄰","STREET":"文賢路","SECT":" ","MAREA":" ","LANE":"５０２巷","ALLEY":" ","HOUSE_NO":"４４號","E_COORD97":167470.57000000001,"N_COORD97":2545232.77,"ADDRESS":"文賢路５０２巷４４號","OBJECTID":382575},"geometry":{"x":167470.56999999937,"y":2545232.7700000014}},{"attributes":{"ID":382586,"DIS_CODE":0,"TOWNNAME":"北區","LI":"文成里","LIN":"9鄰","STREET":"文賢路","SECT":" ","MAREA":" ","LANE":"５０２巷","ALLEY":" ","HOUSE_NO":"４６號","E_COORD97":167475.39999999999,"N_COORD97":2545232.77,"ADDRESS":"文賢路５０２巷４６號","OBJECTID":382576},"geometry":{"x":167475.40000000224,"y":2545232.7700000014}},{"attributes":{"ID":382587,"DIS_CODE":0,"TOWNNAME":"北區","LI":"文成里","LIN":"9鄰","STREET":"文賢路","SECT":" ","MAREA":" ","LANE":"５０２巷","ALLEY":" ","HOUSE_NO":"４７號","E_COORD97":167484.89000000001,"N_COORD97":2545243.1800000002,"ADDRESS":"文賢路５０２巷４７號","OBJECTID":382577},"geometry":{"x":167484.89000000153,"y":2545243.1800000034}},{"attributes":{"ID":382588,"DIS_CODE":0,"TOWNNAME":"北區","LI":"文成里","LIN":"9鄰","STREET":"文賢路","SECT":" ","MAREA":" ","LANE":"５０２巷","ALLEY":" ","HOUSE_NO":"４８號","E_COORD97":167480.64000000001,"N_COORD97":2545232.77,"ADDRESS":"文賢路５０２巷４８號","OBJECTID":382578},"geometry":{"x":167480.63999999966,"y":2545232.7700000014}},{"attributes":{"ID":382589,"DIS_CODE":0,"TOWNNAME":"北區","LI":"文成里","LIN":"9鄰","STREET":"文賢路","SECT":" ","MAREA":" ","LANE":"５０２巷","ALLEY":" ","HOUSE_NO":"４９號","E_COORD97":167494.95999999999,"N_COORD97":2545243.5800000001,"ADDRESS":"文賢路５０２巷４９號","OBJECTID":382579},"geometry":{"x":167494.96000000089,"y":2545243.5800000001}},{"attributes":{"ID":382590,"DIS_CODE":0,"TOWNNAME":"北區","LI":"文成里","LIN":"9鄰","STREET":"文賢路","SECT":" ","MAREA":" ","LANE":"５０２巷","ALLEY":" ","HOUSE_NO":"５０號","E_COORD97":167487.69,"N_COORD97":2545231.7599999998,"ADDRESS":"文賢路５０２巷５０號","OBJECTID":382580},"geometry":{"x":167487.69000000134,"y":2545231.7599999998}},{"attributes":{"ID":382591,"DIS_CODE":0,"TOWNNAME":"北區","LI":"文成里","LIN":"9鄰","STREET":"文賢路","SECT":" ","MAREA":" ","LANE":"５０２巷","ALLEY":" ","HOUSE_NO":"５１號","E_COORD97":167502.82000000001,"N_COORD97":2545243.7799999998,"ADDRESS":"文賢路５０２巷５１號","OBJECTID":382581},"geometry":{"x":167502.82000000216,"y":2545243.7800000012}},{"attributes":{"ID":382592,"DIS_CODE":0,"TOWNNAME":"北區","LI":"文成里","LIN":"9鄰","STREET":"文賢路","SECT":" ","MAREA":" ","LANE":"５０２巷","ALLEY":" ","HOUSE_NO":"５２號","E_COORD97":167502.59,"N_COORD97":2545230.5600000001,"ADDRESS":"文賢路５０２巷５２號","OBJECTID":382582},"geometry":{"x":167502.59000000078,"y":2545230.5600000005}},{"attributes":{"ID":382593,"DIS_CODE":0,"TOWNNAME":"北區","LI":"文成里","LIN":"9鄰","STREET":"文賢路","SECT":" ","MAREA":" ","LANE":"５０２巷","ALLEY":" ","HOUSE_NO":"５３號","E_COORD97":167520.01000000001,"N_COORD97":2545241.6699999999,"ADDRESS":"文賢路５０２巷５３號","OBJECTID":382583},"geometry":{"x":167520.01000000071,"y":2545241.6700000018}},{"attributes":{"ID":382594,"DIS_CODE":0,"TOWNNAME":"北區","LI":"文成里","LIN":"9鄰","STREET":"文賢路","SECT":" ","MAREA":" ","LANE":"５０２巷","ALLEY":" ","HOUSE_NO":"５４號","E_COORD97":167504.39999999999,"N_COORD97":2545226.1299999999,"ADDRESS":"文賢路５０２巷５４號","OBJECTID":382584},"geometry":{"x":167504.4000000013,"y":2545226.1300000008}},{"attributes":{"ID":382595,"DIS_CODE":0,"TOWNNAME":"北區","LI":"文成里","LIN":"9鄰","STREET":"文賢路","SECT":" ","MAREA":" ","LANE":"５０２巷","ALLEY":" ","HOUSE_NO":"５５號","E_COORD97":167526.04999999999,"N_COORD97":2545241.8700000001,"ADDRESS":"文賢路５０２巷５５號","OBJECTID":382585},"geometry":{"x":167526.04999999981,"y":2545241.870000001}},{"attributes":{"ID":382596,"DIS_CODE":0,"TOWNNAME":"北區","LI":"文成里","LIN":"9鄰","STREET":"文賢路","SECT":" ","MAREA":" ","LANE":"５０２巷","ALLEY":" ","HOUSE_NO":"５６號","E_COORD97":167506.01000000001,"N_COORD97":2545220.5,"ADDRESS":"文賢路５０２巷５６號","OBJECTID":382586},"geometry":{"x":167506.00999999885,"y":2545220.5}},{"attributes":{"ID":382597,"DIS_CODE":0,"TOWNNAME":"北區","LI":"文成里","LIN":"9鄰","STREET":"文賢路","SECT":" ","MAREA":" ","LANE":"５０２巷","ALLEY":" ","HOUSE_NO":"５７號","E_COORD97":167530.88,"N_COORD97":2545242.8700000001,"ADDRESS":"文賢路５０２巷５７號","OBJECTID":382587},"geometry":{"x":167530.88000000175,"y":2545242.870000001}},{"attributes":{"ID":382598,"DIS_CODE":0,"TOWNNAME":"北區","LI":"文成里","LIN":"9鄰","STREET":"文賢路","SECT":" ","MAREA":" ","LANE":"５０２巷","ALLEY":" ","HOUSE_NO":"５８號","E_COORD97":167507.62,"N_COORD97":2545214.8700000001,"ADDRESS":"文賢路５０２巷５８號","OBJECTID":382588},"geometry":{"x":167507.62000000104,"y":2545214.870000001}},{"attributes":{"ID":382599,"DIS_CODE":0,"TOWNNAME":"北區","LI":"文成里","LIN":"9鄰","STREET":"文賢路","SECT":" ","MAREA":" ","LANE":"５０２巷","ALLEY":" ","HOUSE_NO":"５９號","E_COORD97":167534.91,"N_COORD97":2545243.6800000002,"ADDRESS":"文賢路５０２巷５９號","OBJECTID":382589},"geometry":{"x":167534.91000000108,"y":2545243.6800000016}},{"attributes":{"ID":382600,"DIS_CODE":0,"TOWNNAME":"北區","LI":"文成里","LIN":"9鄰","STREET":"文賢路","SECT":" ","MAREA":" ","LANE":"５０２巷","ALLEY":" ","HOUSE_NO":"５號","E_COORD97":167386.94,"N_COORD97":2545249.8199999998,"ADDRESS":"文賢路５０２巷５號","OBJECTID":382590},"geometry":{"x":167386.94000000227,"y":2545249.820000004}},{"attributes":{"ID":382601,"DIS_CODE":0,"TOWNNAME":"北區","LI":"文成里","LIN":"9鄰","STREET":"文賢路","SECT":" ","MAREA":" ","LANE":"５０２巷","ALLEY":" ","HOUSE_NO":"６０號","E_COORD97":167508.63,"N_COORD97":2545208.2400000002,"ADDRESS":"文賢路５０２巷６０號","OBJECTID":382591},"geometry":{"x":167508.62999999989,"y":2545208.2400000002}},{"attributes":{"ID":382602,"DIS_CODE":0,"TOWNNAME":"北區","LI":"文成里","LIN":"9鄰","STREET":"文賢路","SECT":" ","MAREA":" ","LANE":"５０２巷","ALLEY":" ","HOUSE_NO":"６１號","E_COORD97":167540.14999999999,"N_COORD97":2545244.0800000001,"ADDRESS":"文賢路５０２巷６１號","OBJECTID":382592},"geometry":{"x":167540.1500000013,"y":2545244.0799999982}},{"attributes":{"ID":382603,"DIS_CODE":0,"TOWNNAME":"北區","LI":"文成里","LIN":"9鄰","STREET":"文賢路","SECT":" ","MAREA":" ","LANE":"５０２巷","ALLEY":" ","HOUSE_NO":"６２號","E_COORD97":167521.01999999999,"N_COORD97":2545231.6099999999,"ADDRESS":"文賢路５０２巷６２號","OBJECTID":382593},"geometry":{"x":167521.02000000142,"y":2545231.6099999994}},{"attributes":{"ID":382604,"DIS_CODE":0,"TOWNNAME":"北區","LI":"文成里","LIN":"9鄰","STREET":"文賢路","SECT":" ","MAREA":" ","LANE":"５０２巷","ALLEY":" ","HOUSE_NO":"６３號","E_COORD97":167545.57999999999,"N_COORD97":2545244.6800000002,"ADDRESS":"文賢路５０２巷６３號","OBJECTID":382594},"geometry":{"x":167545.58000000101,"y":2545244.6800000016}},{"attributes":{"ID":382605,"DIS_CODE":0,"TOWNNAME":"北區","LI":"文成里","LIN":"9鄰","STREET":"文賢路","SECT":" ","MAREA":" ","LANE":"５０２巷","ALLEY":" ","HOUSE_NO":"６４號","E_COORD97":167528.47,"N_COORD97":2545232.8199999998,"ADDRESS":"文賢路５０２巷６４號","OBJECTID":382595},"geometry":{"x":167528.4700000016,"y":2545232.820000004}},{"attributes":{"ID":382606,"DIS_CODE":0,"TOWNNAME":"北區","LI":"文成里","LIN":"9鄰","STREET":"文賢路","SECT":" ","MAREA":" ","LANE":"５０２巷","ALLEY":" ","HOUSE_NO":"６５號","E_COORD97":167550.62,"N_COORD97":2545246.0899999999,"ADDRESS":"文賢路５０２巷６５號","OBJECTID":382596},"geometry":{"x":167550.62000000104,"y":2545246.0899999999}},{"attributes":{"ID":382607,"DIS_CODE":0,"TOWNNAME":"北區","LI":"文成里","LIN":"9鄰","STREET":"文賢路","SECT":" ","MAREA":" ","LANE":"５０２巷","ALLEY":" ","HOUSE_NO":"６６號","E_COORD97":167534.31,"N_COORD97":2545233.2200000002,"ADDRESS":"文賢路５０２巷６６號","OBJECTID":382597},"geometry":{"x":167534.30999999866,"y":2545233.2200000007}},{"attributes":{"ID":382608,"DIS_CODE":0,"TOWNNAME":"北區","LI":"文成里","LIN":"9鄰","STREET":"文賢路","SECT":" ","MAREA":" ","LANE":"５０２巷","ALLEY":" ","HOUSE_NO":"６７號","E_COORD97":167556.66,"N_COORD97":2545246.8999999999,"ADDRESS":"文賢路５０２巷６７號","OBJECTID":382598},"geometry":{"x":167556.66000000108,"y":2545246.9000000022}},{"attributes":{"ID":382609,"DIS_CODE":0,"TOWNNAME":"北區","LI":"文成里","LIN":"9鄰","STREET":"文賢路","SECT":" ","MAREA":" ","LANE":"５０２巷","ALLEY":" ","HOUSE_NO":"６８號","E_COORD97":167541.35000000001,"N_COORD97":2545233.8300000001,"ADDRESS":"文賢路５０２巷６８號","OBJECTID":382599},"geometry":{"x":167541.35000000056,"y":2545233.8300000019}},{"attributes":{"ID":382610,"DIS_CODE":0,"TOWNNAME":"北區","LI":"文成里","LIN":"9鄰","STREET":"文賢路","SECT":" ","MAREA":" ","LANE":"５０２巷","ALLEY":" ","HOUSE_NO":"６９號","E_COORD97":167561.29000000001,"N_COORD97":2545248.9100000001,"ADDRESS":"文賢路５０２巷６９號","OBJECTID":382600},"geometry":{"x":167561.29000000004,"y":2545248.9100000039}}]}