{"displayFieldName":"TOWNNAME","fieldAliases":{"ID":"ID","DIS_CODE":"DIS_CODE","TOWNNAME":"TOWNNAME","LI":"LI","LIN":"LIN","STREET":"STREET","SECT":"SECT","MAREA":"MAREA","LANE":"LANE","ALLEY":"ALLEY","HOUSE_NO":"HOUSE_NO","E_COORD97":"E_COORD97","N_COORD97":"N_COORD97","ADDRESS":"ADDRESS","OBJECTID":"OBJECTID"},"geometryType":"esriGeometryPoint","spatialReference":{"wkid":102443,"latestWkid":3826},"fields":[{"name":"ID","type":"esriFieldTypeDouble","alias":"ID"},{"name":"DIS_CODE","type":"esriFieldTypeInteger","alias":"DIS_CODE"},{"name":"TOWNNAME","type":"esriFieldTypeString","alias":"TOWNNAME","length":8},{"name":"LI","type":"esriFieldTypeString","alias":"LI","length":8},{"name":"LIN","type":"esriFieldTypeString","alias":"LIN","length":12},{"name":"STREET","type":"esriFieldTypeString","alias":"STREET","length":20},{"name":"SECT","type":"esriFieldTypeString","alias":"SECT","length":8},{"name":"MAREA","type":"esriFieldTypeString","alias":"MAREA","length":12},{"name":"LANE","type":"esriFieldTypeString","alias":"LANE","length":10},{"name":"ALLEY","type":"esriFieldTypeString","alias":"ALLEY","length":10},{"name":"HOUSE_NO","type":"esriFieldTypeString","alias":"HOUSE_NO","length":20},{"name":"E_COORD97","type":"esriFieldTypeDouble","alias":"E_COORD97"},{"name":"N_COORD97","type":"esriFieldTypeDouble","alias":"N_COORD97"},{"name":"ADDRESS","type":"esriFieldTypeString","alias":"ADDRESS","length":50},{"name":"OBJECTID","type":"esriFieldTypeOID","alias":"OBJECTID"}],"features":[{"attributes":{"ID":408025,"DIS_CODE":0,"TOWNNAME":"鹽水區","LI":"橋南里","LIN":"22鄰","STREET":"新中路","SECT":" ","MAREA":" ","LANE":"１０２巷","ALLEY":" ","HOUSE_NO":"５５號","E_COORD97":175873.01000000001,"N_COORD97":2578606.1600000001,"ADDRESS":"新中路１０２巷５５號","OBJECTID":408001},"geometry":{"x":175873.00999999978,"y":2578606.160000002}},{"attributes":{"ID":408026,"DIS_CODE":0,"TOWNNAME":"鹽水區","LI":"橋南里","LIN":"22鄰","STREET":"新中路","SECT":" ","MAREA":" ","LANE":"１０２巷","ALLEY":" ","HOUSE_NO":"５６號","E_COORD97":175891.60000000001,"N_COORD97":2578626.6099999999,"ADDRESS":"新中路１０２巷５６號","OBJECTID":408002},"geometry":{"x":175891.60000000056,"y":2578626.6100000013}},{"attributes":{"ID":408027,"DIS_CODE":0,"TOWNNAME":"鹽水區","LI":"橋南里","LIN":"22鄰","STREET":"新中路","SECT":" ","MAREA":" ","LANE":"１０２巷","ALLEY":" ","HOUSE_NO":"５７號","E_COORD97":175862.89000000001,"N_COORD97":2578608.6400000001,"ADDRESS":"新中路１０２巷５７號","OBJECTID":408003},"geometry":{"x":175862.8900000006,"y":2578608.6400000006}},{"attributes":{"ID":408028,"DIS_CODE":0,"TOWNNAME":"鹽水區","LI":"橋南里","LIN":"22鄰","STREET":"新中路","SECT":" ","MAREA":" ","LANE":"１０２巷","ALLEY":" ","HOUSE_NO":"５８號","E_COORD97":175887.32000000001,"N_COORD97":2578626.8199999998,"ADDRESS":"新中路１０２巷５８號","OBJECTID":408004},"geometry":{"x":175887.32000000216,"y":2578626.8200000003}},{"attributes":{"ID":408029,"DIS_CODE":0,"TOWNNAME":"鹽水區","LI":"橋南里","LIN":"22鄰","STREET":"新中路","SECT":" ","MAREA":" ","LANE":"１０２巷","ALLEY":" ","HOUSE_NO":"７４號","E_COORD97":175853.07000000001,"N_COORD97":2578628.4900000002,"ADDRESS":"新中路１０２巷７４號","OBJECTID":408005},"geometry":{"x":175853.0700000003,"y":2578628.4900000002}},{"attributes":{"ID":408030,"DIS_CODE":0,"TOWNNAME":"鹽水區","LI":"橋南里","LIN":"22鄰","STREET":"新中路","SECT":" ","MAREA":" ","LANE":"１０２巷","ALLEY":" ","HOUSE_NO":"７６號","E_COORD97":175848.79000000001,"N_COORD97":2578628.7000000002,"ADDRESS":"新中路１０２巷７６號","OBJECTID":408006},"geometry":{"x":175848.79000000097,"y":2578628.7000000011}},{"attributes":{"ID":408031,"DIS_CODE":0,"TOWNNAME":"鹽水區","LI":"橋南里","LIN":"22鄰","STREET":"新中路","SECT":" ","MAREA":" ","LANE":"１０２巷","ALLEY":" ","HOUSE_NO":"７８號","E_COORD97":175844.5,"N_COORD97":2578628.9100000001,"ADDRESS":"新中路１０２巷７８號","OBJECTID":408007},"geometry":{"x":175844.5,"y":2578628.910000002}},{"attributes":{"ID":408032,"DIS_CODE":0,"TOWNNAME":"鹽水區","LI":"橋南里","LIN":"22鄰","STREET":"新中路","SECT":" ","MAREA":" ","LANE":"１０２巷","ALLEY":" ","HOUSE_NO":"８０號","E_COORD97":175840.22,"N_COORD97":2578629.1200000001,"ADDRESS":"新中路１０２巷８０號","OBJECTID":408008},"geometry":{"x":175840.22000000067,"y":2578629.120000001}},{"attributes":{"ID":408033,"DIS_CODE":0,"TOWNNAME":"鹽水區","LI":"橋南里","LIN":"22鄰","STREET":"新中路","SECT":" ","MAREA":" ","LANE":"１０２巷","ALLEY":" ","HOUSE_NO":"９號","E_COORD97":175979.04999999999,"N_COORD97":2578603.5099999998,"ADDRESS":"新中路１０２巷９號","OBJECTID":408009},"geometry":{"x":175979.05000000075,"y":2578603.5100000016}},{"attributes":{"ID":408034,"DIS_CODE":0,"TOWNNAME":"中西區","LI":"銀同里","LIN":"13鄰","STREET":"開山路","SECT":" ","MAREA":" ","LANE":"２９巷","ALLEY":" ","HOUSE_NO":"２４號","E_COORD97":168616.39000000001,"N_COORD97":2543573.1600000001,"ADDRESS":"開山路２９巷２４號","OBJECTID":408010},"geometry":{"x":168616.38999999966,"y":2543573.160000002}},{"attributes":{"ID":408035,"DIS_CODE":0,"TOWNNAME":"中西區","LI":"銀同里","LIN":"13鄰","STREET":"開山路","SECT":" ","MAREA":" ","LANE":"２９巷","ALLEY":" ","HOUSE_NO":"２６號","E_COORD97":168625.19,"N_COORD97":2543577.23,"ADDRESS":"開山路２９巷２６號","OBJECTID":408011},"geometry":{"x":168625.19000000134,"y":2543577.2300000023}},{"attributes":{"ID":408036,"DIS_CODE":0,"TOWNNAME":"中西區","LI":"銀同里","LIN":"13鄰","STREET":"開山路","SECT":" ","MAREA":" ","LANE":"２９巷","ALLEY":" ","HOUSE_NO":"３號","E_COORD97":168597.10999999999,"N_COORD97":2543587.04,"ADDRESS":"開山路２９巷３號","OBJECTID":408012},"geometry":{"x":168597.11000000034,"y":2543587.040000001}},{"attributes":{"ID":408037,"DIS_CODE":0,"TOWNNAME":"中西區","LI":"銀同里","LIN":"13鄰","STREET":"開山路","SECT":" ","MAREA":" ","LANE":"２９巷","ALLEY":" ","HOUSE_NO":"５號","E_COORD97":168597.14999999999,"N_COORD97":2543596.3300000001,"ADDRESS":"開山路２９巷５號","OBJECTID":408013},"geometry":{"x":168597.15000000037,"y":2543596.3300000019}},{"attributes":{"ID":408038,"DIS_CODE":0,"TOWNNAME":"中西區","LI":"銀同里","LIN":"13鄰","STREET":"開山路","SECT":" ","MAREA":" ","LANE":"２９巷","ALLEY":" ","HOUSE_NO":"５號之１","E_COORD97":168604.89999999999,"N_COORD97":2543586.9700000002,"ADDRESS":"開山路２９巷５號之１","OBJECTID":408014},"geometry":{"x":168604.9000000013,"y":2543586.9700000007}},{"attributes":{"ID":408039,"DIS_CODE":0,"TOWNNAME":"中西區","LI":"銀同里","LIN":"13鄰","STREET":"開山路","SECT":" ","MAREA":" ","LANE":"２９巷","ALLEY":" ","HOUSE_NO":"７號","E_COORD97":168600.12,"N_COORD97":2543602.8900000001,"ADDRESS":"開山路２９巷７號","OBJECTID":408015},"geometry":{"x":168600.12000000011,"y":2543602.8900000025}},{"attributes":{"ID":408040,"DIS_CODE":0,"TOWNNAME":"中西區","LI":"銀同里","LIN":"13鄰","STREET":"開山路","SECT":" ","MAREA":" ","LANE":"２９巷","ALLEY":" ","HOUSE_NO":"９號","E_COORD97":168600.32999999999,"N_COORD97":2543608.6000000001,"ADDRESS":"開山路２９巷９號","OBJECTID":408016},"geometry":{"x":168600.33000000007,"y":2543608.5999999996}},{"attributes":{"ID":408041,"DIS_CODE":0,"TOWNNAME":"中西區","LI":"銀同里","LIN":"13鄰","STREET":"開山路","SECT":" ","MAREA":" ","LANE":"３巷","ALLEY":" ","HOUSE_NO":"２號","E_COORD97":168587.54999999999,"N_COORD97":2543614.5600000001,"ADDRESS":"開山路３巷２號","OBJECTID":408017},"geometry":{"x":168587.55000000075,"y":2543614.5600000024}},{"attributes":{"ID":408042,"DIS_CODE":0,"TOWNNAME":"中西區","LI":"銀同里","LIN":"13鄰","STREET":"開山路","SECT":" ","MAREA":" ","LANE":"３巷","ALLEY":" ","HOUSE_NO":"６號","E_COORD97":168587.17999999999,"N_COORD97":2543611.1299999999,"ADDRESS":"開山路３巷６號","OBJECTID":408018},"geometry":{"x":168587.18000000063,"y":2543611.129999999}},{"attributes":{"ID":408043,"DIS_CODE":0,"TOWNNAME":"中西區","LI":"銀同里","LIN":"13鄰","STREET":"開山路","SECT":" ","MAREA":" ","LANE":"３巷","ALLEY":" ","HOUSE_NO":"８號","E_COORD97":168585.48000000001,"N_COORD97":2543603.3100000001,"ADDRESS":"開山路３巷８號","OBJECTID":408019},"geometry":{"x":168585.48000000138,"y":2543603.3100000024}},{"attributes":{"ID":408044,"DIS_CODE":0,"TOWNNAME":"鹽水區","LI":"橋南里","LIN":"22鄰","STREET":"新中路","SECT":" ","MAREA":" ","LANE":"８２巷","ALLEY":" ","HOUSE_NO":"１５號","E_COORD97":175979.62,"N_COORD97":2578646.5099999998,"ADDRESS":"新中路８２巷１５號","OBJECTID":408020},"geometry":{"x":175979.62000000011,"y":2578646.5100000035}},{"attributes":{"ID":408045,"DIS_CODE":0,"TOWNNAME":"鹽水區","LI":"橋南里","LIN":"22鄰","STREET":"新中路","SECT":" ","MAREA":" ","LANE":"８２巷","ALLEY":" ","HOUSE_NO":"１９號","E_COORD97":175971.01999999999,"N_COORD97":2578646.96,"ADDRESS":"新中路８２巷１９號","OBJECTID":408021},"geometry":{"x":175971.01999999955,"y":2578646.9600000009}},{"attributes":{"ID":408046,"DIS_CODE":0,"TOWNNAME":"鹽水區","LI":"橋南里","LIN":"22鄰","STREET":"新中路","SECT":" ","MAREA":" ","LANE":"８２巷","ALLEY":" ","HOUSE_NO":"２１號","E_COORD97":175966.70999999999,"N_COORD97":2578647.1800000002,"ADDRESS":"新中路８２巷２１號","OBJECTID":408022},"geometry":{"x":175966.70999999996,"y":2578647.1799999997}},{"attributes":{"ID":408047,"DIS_CODE":0,"TOWNNAME":"鹽水區","LI":"橋南里","LIN":"22鄰","STREET":"新中路","SECT":" ","MAREA":" ","LANE":"８２巷","ALLEY":" ","HOUSE_NO":"２３號","E_COORD97":175962.41,"N_COORD97":2578647.3999999999,"ADDRESS":"新中路８２巷２３號","OBJECTID":408023},"geometry":{"x":175962.41000000015,"y":2578647.4000000004}},{"attributes":{"ID":408048,"DIS_CODE":0,"TOWNNAME":"鹽水區","LI":"橋南里","LIN":"22鄰","STREET":"新中路","SECT":" ","MAREA":" ","LANE":"８２巷","ALLEY":" ","HOUSE_NO":"２５號","E_COORD97":175958.10999999999,"N_COORD97":2578647.6200000001,"ADDRESS":"新中路８２巷２５號","OBJECTID":408024},"geometry":{"x":175958.1099999994,"y":2578647.6200000029}},{"attributes":{"ID":408049,"DIS_CODE":0,"TOWNNAME":"鹽水區","LI":"橋南里","LIN":"22鄰","STREET":"新中路","SECT":" ","MAREA":" ","LANE":"８２巷","ALLEY":" ","HOUSE_NO":"２７號","E_COORD97":175953.81,"N_COORD97":2578647.8500000001,"ADDRESS":"新中路８２巷２７號","OBJECTID":408025},"geometry":{"x":175953.80999999959,"y":2578647.8500000015}},{"attributes":{"ID":408050,"DIS_CODE":0,"TOWNNAME":"鹽水區","LI":"橋南里","LIN":"22鄰","STREET":"新中路","SECT":" ","MAREA":" ","LANE":"８２巷","ALLEY":" ","HOUSE_NO":"２９號","E_COORD97":175949.5,"N_COORD97":2578648.0699999998,"ADDRESS":"新中路８２巷２９號","OBJECTID":408026},"geometry":{"x":175949.5,"y":2578648.0700000022}},{"attributes":{"ID":408051,"DIS_CODE":0,"TOWNNAME":"鹽水區","LI":"橋南里","LIN":"22鄰","STREET":"新中路","SECT":" ","MAREA":" ","LANE":"８２巷","ALLEY":" ","HOUSE_NO":"３１號","E_COORD97":175945.20000000001,"N_COORD97":2578648.29,"ADDRESS":"新中路８２巷３１號","OBJECTID":408027},"geometry":{"x":175945.20000000019,"y":2578648.290000001}},{"attributes":{"ID":408052,"DIS_CODE":0,"TOWNNAME":"鹽水區","LI":"橋南里","LIN":"22鄰","STREET":"新中路","SECT":" ","MAREA":" ","LANE":"８２巷","ALLEY":" ","HOUSE_NO":"７９號","E_COORD97":175841.92000000001,"N_COORD97":2578653.6200000001,"ADDRESS":"新中路８２巷７９號","OBJECTID":408028},"geometry":{"x":175841.91999999993,"y":2578653.6199999992}},{"attributes":{"ID":408053,"DIS_CODE":0,"TOWNNAME":"安平區","LI":"怡平里","LIN":"22鄰","STREET":"平通路","SECT":" ","MAREA":" ","LANE":"３６５巷","ALLEY":" ","HOUSE_NO":"１６號","E_COORD97":165657.01000000001,"N_COORD97":2543674.25,"ADDRESS":"平通路３６５巷１６號","OBJECTID":408029},"geometry":{"x":165657.01000000071,"y":2543674.2500000019}},{"attributes":{"ID":408054,"DIS_CODE":0,"TOWNNAME":"安平區","LI":"怡平里","LIN":"22鄰","STREET":"平通路","SECT":" ","MAREA":" ","LANE":"３６５巷","ALLEY":" ","HOUSE_NO":"１２號","E_COORD97":165658.17000000001,"N_COORD97":2543683.23,"ADDRESS":"平通路３６５巷１２號","OBJECTID":408030},"geometry":{"x":165658.17000000086,"y":2543683.2300000004}},{"attributes":{"ID":408055,"DIS_CODE":0,"TOWNNAME":"安平區","LI":"怡平里","LIN":"22鄰","STREET":"平通路","SECT":" ","MAREA":" ","LANE":"３６５巷","ALLEY":" ","HOUSE_NO":"１４號","E_COORD97":165657.16,"N_COORD97":2543678.5899999999,"ADDRESS":"平通路３６５巷１４號","OBJECTID":408031},"geometry":{"x":165657.16000000015,"y":2543678.5900000017}},{"attributes":{"ID":408056,"DIS_CODE":0,"TOWNNAME":"安平區","LI":"怡平里","LIN":"22鄰","STREET":"平通路","SECT":" ","MAREA":" ","LANE":"３６５巷","ALLEY":" ","HOUSE_NO":"１８號","E_COORD97":165656.87,"N_COORD97":2543670.0499999998,"ADDRESS":"平通路３６５巷１８號","OBJECTID":408032},"geometry":{"x":165656.87000000104,"y":2543670.0500000026}},{"attributes":{"ID":408057,"DIS_CODE":0,"TOWNNAME":"安南區","LI":"安順里","LIN":"22鄰","STREET":"總安街","SECT":"一段","MAREA":" ","LANE":"１４６巷","ALLEY":" ","HOUSE_NO":"９號","E_COORD97":169585.73000000001,"N_COORD97":2550253.1899999999,"ADDRESS":"總安街一段１４６巷９號","OBJECTID":408033},"geometry":{"x":169585.73000000138,"y":2550253.1899999995}},{"attributes":{"ID":408058,"DIS_CODE":0,"TOWNNAME":"安南區","LI":"安順里","LIN":"22鄰","STREET":"總安街","SECT":"一段","MAREA":" ","LANE":"１４６巷","ALLEY":" ","HOUSE_NO":"１５號","E_COORD97":169586.69,"N_COORD97":2550279.29,"ADDRESS":"總安街一段１４６巷１５號","OBJECTID":408034},"geometry":{"x":169586.69000000041,"y":2550279.2899999991}},{"attributes":{"ID":408059,"DIS_CODE":0,"TOWNNAME":"安南區","LI":"安順里","LIN":"22鄰","STREET":"總安街","SECT":"一段","MAREA":" ","LANE":"１４６巷","ALLEY":" ","HOUSE_NO":"１７號","E_COORD97":169586.53,"N_COORD97":2550284.2400000002,"ADDRESS":"總安街一段１４６巷１７號","OBJECTID":408035},"geometry":{"x":169586.53000000212,"y":2550284.2400000002}},{"attributes":{"ID":408060,"DIS_CODE":0,"TOWNNAME":"安南區","LI":"新順里","LIN":"22鄰","STREET":"安豐六街","SECT":" ","MAREA":" ","LANE":"２５巷","ALLEY":" ","HOUSE_NO":"２６號","E_COORD97":169318.32000000001,"N_COORD97":2549769.4500000002,"ADDRESS":"安豐六街２５巷２６號","OBJECTID":408036},"geometry":{"x":169318.31999999937,"y":2549769.4499999993}},{"attributes":{"ID":408061,"DIS_CODE":0,"TOWNNAME":"安南區","LI":"新順里","LIN":"22鄰","STREET":"安豐六街","SECT":" ","MAREA":" ","LANE":"２５巷","ALLEY":" ","HOUSE_NO":"１０號","E_COORD97":169336.17000000001,"N_COORD97":2549741.52,"ADDRESS":"安豐六街２５巷１０號","OBJECTID":408037},"geometry":{"x":169336.17000000086,"y":2549741.5199999996}},{"attributes":{"ID":408062,"DIS_CODE":0,"TOWNNAME":"安南區","LI":"新順里","LIN":"22鄰","STREET":"安豐六街","SECT":" ","MAREA":" ","LANE":"２５巷","ALLEY":" ","HOUSE_NO":"１６號","E_COORD97":169324.72,"N_COORD97":2549762.0499999998,"ADDRESS":"安豐六街２５巷１６號","OBJECTID":408038},"geometry":{"x":169324.71999999974,"y":2549762.0500000026}},{"attributes":{"ID":408063,"DIS_CODE":0,"TOWNNAME":"南區","LI":"光明里","LIN":"22鄰","STREET":"新建路","SECT":" ","MAREA":" ","LANE":"２３巷","ALLEY":" ","HOUSE_NO":"１號","E_COORD97":166495.57000000001,"N_COORD97":2541384.8799999999,"ADDRESS":"新建路２３巷１號","OBJECTID":408039},"geometry":{"x":166495.5700000003,"y":2541384.879999999}},{"attributes":{"ID":408064,"DIS_CODE":0,"TOWNNAME":"南區","LI":"光明里","LIN":"22鄰","STREET":"新建路","SECT":" ","MAREA":" ","LANE":"２３巷","ALLEY":" ","HOUSE_NO":"３號","E_COORD97":166507.98000000001,"N_COORD97":2541384.5600000001,"ADDRESS":"新建路２３巷３號","OBJECTID":408040},"geometry":{"x":166507.98000000045,"y":2541384.5600000024}},{"attributes":{"ID":408065,"DIS_CODE":0,"TOWNNAME":"南區","LI":"光明里","LIN":"22鄰","STREET":"新建路","SECT":" ","MAREA":" ","LANE":"２３巷","ALLEY":" ","HOUSE_NO":"２號","E_COORD97":166480.48999999999,"N_COORD97":2541358.75,"ADDRESS":"新建路２３巷２號","OBJECTID":408041},"geometry":{"x":166480.49000000022,"y":2541358.7500000019}},{"attributes":{"ID":408066,"DIS_CODE":0,"TOWNNAME":"南區","LI":"光明里","LIN":"22鄰","STREET":"新建路","SECT":" ","MAREA":" ","LANE":"２３巷","ALLEY":" ","HOUSE_NO":"４號","E_COORD97":166486.34,"N_COORD97":2541358.6099999999,"ADDRESS":"新建路２３巷４號","OBJECTID":408042},"geometry":{"x":166486.33999999985,"y":2541358.6100000013}},{"attributes":{"ID":408067,"DIS_CODE":0,"TOWNNAME":"南區","LI":"光明里","LIN":"22鄰","STREET":"新建路","SECT":" ","MAREA":" ","LANE":"２３巷","ALLEY":" ","HOUSE_NO":"６號","E_COORD97":166494.04999999999,"N_COORD97":2541358.75,"ADDRESS":"新建路２３巷６號","OBJECTID":408043},"geometry":{"x":166494.05000000075,"y":2541358.7500000019}},{"attributes":{"ID":408068,"DIS_CODE":0,"TOWNNAME":"南區","LI":"光明里","LIN":"22鄰","STREET":"新建路","SECT":" ","MAREA":" ","LANE":"２３巷","ALLEY":" ","HOUSE_NO":"８號","E_COORD97":166500.19,"N_COORD97":2541358.8900000001,"ADDRESS":"新建路２３巷８號","OBJECTID":408044},"geometry":{"x":166500.18999999948,"y":2541358.8900000025}},{"attributes":{"ID":408069,"DIS_CODE":0,"TOWNNAME":"南區","LI":"光明里","LIN":"22鄰","STREET":"新建路","SECT":" ","MAREA":" ","LANE":"２３巷","ALLEY":" ","HOUSE_NO":"１０號","E_COORD97":166508.32999999999,"N_COORD97":2541358.6099999999,"ADDRESS":"新建路２３巷１０號","OBJECTID":408045},"geometry":{"x":166508.33000000007,"y":2541358.6100000013}},{"attributes":{"ID":408070,"DIS_CODE":0,"TOWNNAME":"南區","LI":"光明里","LIN":"22鄰","STREET":"新建路","SECT":" ","MAREA":" ","LANE":"２３巷","ALLEY":" ","HOUSE_NO":"１２號","E_COORD97":166515.32000000001,"N_COORD97":2541358.46,"ADDRESS":"新建路２３巷１２號","OBJECTID":408046},"geometry":{"x":166515.32000000123,"y":2541358.4600000028}},{"attributes":{"ID":408071,"DIS_CODE":0,"TOWNNAME":"南區","LI":"府南里","LIN":"22鄰","STREET":"大成路","SECT":"二段","MAREA":" ","LANE":"１４３巷","ALLEY":" ","HOUSE_NO":"５９號","E_COORD97":167306.91,"N_COORD97":2541552.9300000002,"ADDRESS":"大成路二段１４３巷５９號","OBJECTID":408047},"geometry":{"x":167306.91000000015,"y":2541552.9300000034}},{"attributes":{"ID":408072,"DIS_CODE":0,"TOWNNAME":"南區","LI":"府南里","LIN":"22鄰","STREET":"大成路","SECT":"二段","MAREA":" ","LANE":"１４３巷","ALLEY":" ","HOUSE_NO":"６１號","E_COORD97":167298.03,"N_COORD97":2541556.8199999998,"ADDRESS":"大成路二段１４３巷６１號","OBJECTID":408048},"geometry":{"x":167298.03000000212,"y":2541556.8200000003}},{"attributes":{"ID":408073,"DIS_CODE":0,"TOWNNAME":"南區","LI":"府南里","LIN":"22鄰","STREET":"大成路","SECT":"二段","MAREA":" ","LANE":"１４３巷","ALLEY":" ","HOUSE_NO":"６３號","E_COORD97":167288.76999999999,"N_COORD97":2541559.6699999999,"ADDRESS":"大成路二段１４３巷６３號","OBJECTID":408049},"geometry":{"x":167288.77000000142,"y":2541559.6700000018}},{"attributes":{"ID":408074,"DIS_CODE":0,"TOWNNAME":"南區","LI":"府南里","LIN":"22鄰","STREET":"大成路","SECT":"二段","MAREA":" ","LANE":"１４３巷","ALLEY":" ","HOUSE_NO":"６５號","E_COORD97":167284.54000000001,"N_COORD97":2541561.6600000001,"ADDRESS":"大成路二段１４３巷６５號","OBJECTID":408050},"geometry":{"x":167284.54000000097,"y":2541561.6599999983}},{"attributes":{"ID":408075,"DIS_CODE":0,"TOWNNAME":"南區","LI":"府南里","LIN":"22鄰","STREET":"大成路","SECT":"二段","MAREA":" ","LANE":"１４３巷","ALLEY":" ","HOUSE_NO":"６７號","E_COORD97":167280.39000000001,"N_COORD97":2541563.0699999998,"ADDRESS":"大成路二段１４３巷６７號","OBJECTID":408051},"geometry":{"x":167280.3900000006,"y":2541563.0700000022}},{"attributes":{"ID":408076,"DIS_CODE":0,"TOWNNAME":"南區","LI":"府南里","LIN":"22鄰","STREET":"大成路","SECT":"二段","MAREA":" ","LANE":"１４３巷","ALLEY":" ","HOUSE_NO":"６９號","E_COORD97":167276.14999999999,"N_COORD97":2541564.0699999998,"ADDRESS":"大成路二段１４３巷６９號","OBJECTID":408052},"geometry":{"x":167276.15000000037,"y":2541564.0700000022}},{"attributes":{"ID":408077,"DIS_CODE":0,"TOWNNAME":"南區","LI":"府南里","LIN":"22鄰","STREET":"大成路","SECT":"二段","MAREA":" ","LANE":"１４３巷","ALLEY":" ","HOUSE_NO":"７１號","E_COORD97":167271.59,"N_COORD97":2541565.6400000001,"ADDRESS":"大成路二段１４３巷７１號","OBJECTID":408053},"geometry":{"x":167271.58999999892,"y":2541565.6399999987}},{"attributes":{"ID":408078,"DIS_CODE":0,"TOWNNAME":"南區","LI":"府南里","LIN":"22鄰","STREET":"大成路","SECT":"二段","MAREA":" ","LANE":"１４３巷","ALLEY":" ","HOUSE_NO":"７３號","E_COORD97":167267.35000000001,"N_COORD97":2541567.2200000002,"ADDRESS":"大成路二段１４３巷７３號","OBJECTID":408054},"geometry":{"x":167267.34999999963,"y":2541567.2200000007}},{"attributes":{"ID":408079,"DIS_CODE":0,"TOWNNAME":"南區","LI":"府南里","LIN":"22鄰","STREET":"大成路","SECT":"二段","MAREA":" ","LANE":"１４３巷","ALLEY":" ","HOUSE_NO":"７５號","E_COORD97":167263.95000000001,"N_COORD97":2541568.8799999999,"ADDRESS":"大成路二段１４３巷７５號","OBJECTID":408055},"geometry":{"x":167263.95000000019,"y":2541568.879999999}},{"attributes":{"ID":408080,"DIS_CODE":0,"TOWNNAME":"南區","LI":"府南里","LIN":"22鄰","STREET":"大成路","SECT":"二段","MAREA":" ","LANE":"１４３巷","ALLEY":" ","HOUSE_NO":"７７號","E_COORD97":167258.97,"N_COORD97":2541570.7000000002,"ADDRESS":"大成路二段１４３巷７７號","OBJECTID":408056},"geometry":{"x":167258.9700000016,"y":2541570.6999999974}},{"attributes":{"ID":408081,"DIS_CODE":0,"TOWNNAME":"南區","LI":"府南里","LIN":"22鄰","STREET":"大成路","SECT":"二段","MAREA":" ","LANE":"１４３巷","ALLEY":" ","HOUSE_NO":"７９號","E_COORD97":167254.41,"N_COORD97":2541572.7799999998,"ADDRESS":"大成路二段１４３巷７９號","OBJECTID":408057},"geometry":{"x":167254.41000000015,"y":2541572.7799999993}},{"attributes":{"ID":408082,"DIS_CODE":0,"TOWNNAME":"南區","LI":"府南里","LIN":"22鄰","STREET":"大成路","SECT":"二段","MAREA":" ","LANE":"１４３巷","ALLEY":" ","HOUSE_NO":"８１號","E_COORD97":167250.84,"N_COORD97":2541574.6000000001,"ADDRESS":"大成路二段１４３巷８１號","OBJECTID":408058},"geometry":{"x":167250.83999999985,"y":2541574.5999999996}},{"attributes":{"ID":408083,"DIS_CODE":0,"TOWNNAME":"安南區","LI":"安東里","LIN":"22鄰","STREET":"安和路","SECT":"二段","MAREA":" ","LANE":"５４巷","ALLEY":" ","HOUSE_NO":"１２１號","E_COORD97":169749.45117300001,"N_COORD97":2548580.06525,"ADDRESS":"安和路二段５４巷１２１號","OBJECTID":408059},"geometry":{"x":169749.45117299911,"y":2548580.0652520005}},{"attributes":{"ID":408084,"DIS_CODE":0,"TOWNNAME":"安南區","LI":"安東里","LIN":"22鄰","STREET":"安和路","SECT":"二段","MAREA":" ","LANE":"５４巷","ALLEY":" ","HOUSE_NO":"２７５號","E_COORD97":169807.81,"N_COORD97":2548329.8399999999,"ADDRESS":"安和路二段５４巷２７５號","OBJECTID":408060},"geometry":{"x":169807.81000000052,"y":2548329.8399999999}},{"attributes":{"ID":408085,"DIS_CODE":0,"TOWNNAME":"安南區","LI":"安東里","LIN":"22鄰","STREET":"安和路","SECT":"二段","MAREA":" ","LANE":"５４巷","ALLEY":" ","HOUSE_NO":"２３９號","E_COORD97":169768.87,"N_COORD97":2548394.3999999999,"ADDRESS":"安和路二段５４巷２３９號","OBJECTID":408061},"geometry":{"x":169768.87000000197,"y":2548394.4000000004}},{"attributes":{"ID":408086,"DIS_CODE":0,"TOWNNAME":"仁德區","LI":"成功里","LIN":"22鄰","STREET":"保生路","SECT":" ","MAREA":" ","LANE":"４１巷","ALLEY":" ","HOUSE_NO":"７號","E_COORD97":170786.60999999999,"N_COORD97":2539740.2400000002,"ADDRESS":"保生路４１巷７號","OBJECTID":408062},"geometry":{"x":170786.61000000127,"y":2539740.2400000002}},{"attributes":{"ID":408087,"DIS_CODE":0,"TOWNNAME":"永康區","LI":"二王里","LIN":"22鄰","STREET":"中山南路","SECT":" ","MAREA":" ","LANE":"６１６巷","ALLEY":" ","HOUSE_NO":"２６號","E_COORD97":172318.92999999999,"N_COORD97":2546526.4399999999,"ADDRESS":"中山南路６１６巷２６號","OBJECTID":408063},"geometry":{"x":172318.9299999997,"y":2546526.4400000032}},{"attributes":{"ID":408088,"DIS_CODE":0,"TOWNNAME":"永康區","LI":"西灣里","LIN":"22鄰","STREET":"大勇路","SECT":" ","MAREA":" ","LANE":"６２巷","ALLEY":" ","HOUSE_NO":"２４號","E_COORD97":174288.25,"N_COORD97":2545416.71,"ADDRESS":"大勇路６２巷２４號","OBJECTID":408064},"geometry":{"x":174288.25,"y":2545416.7100000009}},{"attributes":{"ID":408089,"DIS_CODE":0,"TOWNNAME":"永康區","LI":"東灣里","LIN":"22鄰","STREET":"大灣三街","SECT":" ","MAREA":" ","LANE":"７３巷","ALLEY":" ","HOUSE_NO":"１１１之１號","E_COORD97":174887.20999999999,"N_COORD97":2544805.54,"ADDRESS":"大灣三街７３巷１１１之１號","OBJECTID":408065},"geometry":{"x":174887.20999999996,"y":2544805.5399999991}},{"attributes":{"ID":408090,"DIS_CODE":0,"TOWNNAME":"永康區","LI":"東橋里","LIN":"22鄰","STREET":"自強路","SECT":" ","MAREA":" ","LANE":"３５巷","ALLEY":" ","HOUSE_NO":"５號","E_COORD97":172722.44,"N_COORD97":2547221.9900000002,"ADDRESS":"自強路３５巷５號","OBJECTID":408066},"geometry":{"x":172722.44000000134,"y":2547221.9900000021}},{"attributes":{"ID":408091,"DIS_CODE":0,"TOWNNAME":"永康區","LI":"網寮里","LIN":"22鄰","STREET":"永春街","SECT":" ","MAREA":" ","LANE":"２５巷","ALLEY":" ","HOUSE_NO":"１２之３號","E_COORD97":173716.76000000001,"N_COORD97":2546283.54,"ADDRESS":"永春街２５巷１２之３號","OBJECTID":408067},"geometry":{"x":173716.75999999978,"y":2546283.5399999991}},{"attributes":{"ID":408092,"DIS_CODE":0,"TOWNNAME":"永康區","LI":"三合里","LIN":"22鄰","STREET":"南工街","SECT":" ","MAREA":" ","LANE":"３１１巷","ALLEY":" ","HOUSE_NO":"６號","E_COORD97":171821.48000000001,"N_COORD97":2546031.8900000001,"ADDRESS":"南工街３１１巷６號","OBJECTID":408068},"geometry":{"x":171821.48000000138,"y":2546031.8900000006}},{"attributes":{"ID":408093,"DIS_CODE":0,"TOWNNAME":"永康區","LI":"勝利里","LIN":"22鄰","STREET":"中華路","SECT":" ","MAREA":" ","LANE":"２１７巷","ALLEY":" ","HOUSE_NO":"３號","E_COORD97":171576.17999999999,"N_COORD97":2545043.8700000001,"ADDRESS":"中華路２１７巷３號","OBJECTID":408069},"geometry":{"x":171576.1799999997,"y":2545043.8700000029}},{"attributes":{"ID":408094,"DIS_CODE":0,"TOWNNAME":"永康區","LI":"永康里","LIN":"22鄰","STREET":"中山南路","SECT":" ","MAREA":" ","LANE":"５１７巷","ALLEY":" ","HOUSE_NO":"１號","E_COORD97":173221.79999999999,"N_COORD97":2547075.8900000001,"ADDRESS":"中山南路５１７巷１號","OBJECTID":408070},"geometry":{"x":173221.79999999981,"y":2547075.8900000006}},{"attributes":{"ID":408095,"DIS_CODE":0,"TOWNNAME":"永康區","LI":"中興里","LIN":"22鄰","STREET":"中華路","SECT":" ","MAREA":" ","LANE":"２１２巷","ALLEY":" ","HOUSE_NO":"２３號","E_COORD97":171762.20000000001,"N_COORD97":2545021.5499999998,"ADDRESS":"中華路２１２巷２３號","OBJECTID":408071},"geometry":{"x":171762.20000000112,"y":2545021.5500000045}},{"attributes":{"ID":408096,"DIS_CODE":0,"TOWNNAME":"永康區","LI":"埔園里","LIN":"22鄰","STREET":"埔園街","SECT":" ","MAREA":" ","LANE":"２７１巷","ALLEY":" ","HOUSE_NO":"２５號","E_COORD97":173491.04000000001,"N_COORD97":2548102.75,"ADDRESS":"埔園街２７１巷２５號","OBJECTID":408072},"geometry":{"x":173491.04000000097,"y":2548102.7500000019}},{"attributes":{"ID":408097,"DIS_CODE":0,"TOWNNAME":"永康區","LI":"崑山里","LIN":"22鄰","STREET":"崑山街","SECT":" ","MAREA":" ","LANE":"５６巷","ALLEY":" ","HOUSE_NO":"８號","E_COORD97":173968.94,"N_COORD97":2544639.1699999999,"ADDRESS":"崑山街５６巷８號","OBJECTID":408073},"geometry":{"x":173968.94000000041,"y":2544639.1699999999}},{"attributes":{"ID":408098,"DIS_CODE":0,"TOWNNAME":"永康區","LI":"西灣里","LIN":"22鄰","STREET":"永大路","SECT":"二段","MAREA":" ","LANE":"１９７巷","ALLEY":" ","HOUSE_NO":"２６號","E_COORD97":174259.13,"N_COORD97":2545330.6000000001,"ADDRESS":"永大路二段１９７巷２６號","OBJECTID":408074},"geometry":{"x":174259.13000000175,"y":2545330.5999999996}},{"attributes":{"ID":408099,"DIS_CODE":0,"TOWNNAME":"永康區","LI":"尚頂里","LIN":"22鄰","STREET":"南台街","SECT":" ","MAREA":" ","LANE":"１３巷","ALLEY":" ","HOUSE_NO":"４２號","E_COORD97":170348.85999999999,"N_COORD97":2546842.7200000002,"ADDRESS":"南台街１３巷４２號","OBJECTID":408075},"geometry":{"x":170348.8600000022,"y":2546842.7200000007}},{"attributes":{"ID":408100,"DIS_CODE":0,"TOWNNAME":"永康區","LI":"勝利里","LIN":"22鄰","STREET":"中華路","SECT":" ","MAREA":" ","LANE":"２３１巷","ALLEY":" ","HOUSE_NO":"７號","E_COORD97":171571.41,"N_COORD97":2545082.4500000002,"ADDRESS":"中華路２３１巷７號","OBJECTID":408076},"geometry":{"x":171571.41000000015,"y":2545082.4500000011}},{"attributes":{"ID":408101,"DIS_CODE":0,"TOWNNAME":"永康區","LI":"正強里","LIN":"22鄰","STREET":"自強路","SECT":" ","MAREA":" ","LANE":"３２１巷","ALLEY":" ","HOUSE_NO":"２號","E_COORD97":173444.48000000001,"N_COORD97":2547758.5,"ADDRESS":"自強路３２１巷２號","OBJECTID":408077},"geometry":{"x":173444.48000000045,"y":2547758.5000000019}},{"attributes":{"ID":408102,"DIS_CODE":0,"TOWNNAME":"永康區","LI":"埔園里","LIN":"22鄰","STREET":"四維街","SECT":" ","MAREA":" ","LANE":"５８巷","ALLEY":" ","HOUSE_NO":"７號","E_COORD97":173440.26000000001,"N_COORD97":2548080.8399999999,"ADDRESS":"四維街５８巷７號","OBJECTID":408078},"geometry":{"x":173440.25999999978,"y":2548080.8400000017}},{"attributes":{"ID":408103,"DIS_CODE":0,"TOWNNAME":"永康區","LI":"東橋里","LIN":"22鄰","STREET":"自強路","SECT":" ","MAREA":" ","LANE":"９巷","ALLEY":" ","HOUSE_NO":"４號","E_COORD97":172672.91,"N_COORD97":2547174.25,"ADDRESS":"自強路９巷４號","OBJECTID":408079},"geometry":{"x":172672.91000000108,"y":2547174.25}},{"attributes":{"ID":408104,"DIS_CODE":0,"TOWNNAME":"永康區","LI":"神洲里","LIN":"22鄰","STREET":"忠孝路","SECT":" ","MAREA":" ","LANE":"７６巷","ALLEY":" ","HOUSE_NO":"４１號","E_COORD97":172240.72,"N_COORD97":2544924.4500000002,"ADDRESS":"忠孝路７６巷４１號","OBJECTID":408080},"geometry":{"x":172240.71999999974,"y":2544924.4499999993}},{"attributes":{"ID":408105,"DIS_CODE":0,"TOWNNAME":"永康區","LI":"東橋里","LIN":"22鄰","STREET":"自強路","SECT":" ","MAREA":" ","LANE":"９巷","ALLEY":" ","HOUSE_NO":"５號","E_COORD97":172665.60999999999,"N_COORD97":2547179,"ADDRESS":"自強路９巷５號","OBJECTID":408081},"geometry":{"x":172665.61000000034,"y":2547179}},{"attributes":{"ID":408106,"DIS_CODE":0,"TOWNNAME":"永康區","LI":"東橋里","LIN":"22鄰","STREET":"自強路","SECT":" ","MAREA":" ","LANE":"９巷","ALLEY":" ","HOUSE_NO":"１號","E_COORD97":172668.25,"N_COORD97":2547157.4300000002,"ADDRESS":"自強路９巷１號","OBJECTID":408082},"geometry":{"x":172668.25000000186,"y":2547157.4300000016}},{"attributes":{"ID":408107,"DIS_CODE":0,"TOWNNAME":"永康區","LI":"東橋里","LIN":"22鄰","STREET":"自強路","SECT":" ","MAREA":" ","LANE":"９巷","ALLEY":" ","HOUSE_NO":"３號","E_COORD97":172666.89999999999,"N_COORD97":2547164.1800000002,"ADDRESS":"自強路９巷３號","OBJECTID":408083},"geometry":{"x":172666.90000000037,"y":2547164.1799999997}},{"attributes":{"ID":408108,"DIS_CODE":0,"TOWNNAME":"佳里區","LI":"鎮山里","LIN":"22鄰","STREET":"鎮山街","SECT":" ","MAREA":" ","LANE":"１０５巷","ALLEY":" ","HOUSE_NO":"１１號","E_COORD97":166365.06,"N_COORD97":2561021.8300000001,"ADDRESS":"鎮山街１０５巷１１號","OBJECTID":408084},"geometry":{"x":166365.06000000052,"y":2561021.8300000019}},{"attributes":{"ID":408109,"DIS_CODE":0,"TOWNNAME":"佳里區","LI":"鎮山里","LIN":"22鄰","STREET":"鎮山街","SECT":" ","MAREA":" ","LANE":"１０５巷","ALLEY":" ","HOUSE_NO":"１３號","E_COORD97":166385.81,"N_COORD97":2561030.0499999998,"ADDRESS":"鎮山街１０５巷１３號","OBJECTID":408085},"geometry":{"x":166385.81000000052,"y":2561030.0500000007}},{"attributes":{"ID":408110,"DIS_CODE":0,"TOWNNAME":"佳里區","LI":"鎮山里","LIN":"22鄰","STREET":"鎮山街","SECT":" ","MAREA":" ","LANE":"１０５巷","ALLEY":" ","HOUSE_NO":"１６號","E_COORD97":166324.76999999999,"N_COORD97":2560985.9300000002,"ADDRESS":"鎮山街１０５巷１６號","OBJECTID":408086},"geometry":{"x":166324.77000000048,"y":2560985.9299999997}},{"attributes":{"ID":408111,"DIS_CODE":0,"TOWNNAME":"佳里區","LI":"鎮山里","LIN":"22鄰","STREET":"鎮山街","SECT":" ","MAREA":" ","LANE":"１０５巷","ALLEY":" ","HOUSE_NO":"１８號","E_COORD97":166324.17999999999,"N_COORD97":2560981.5099999998,"ADDRESS":"鎮山街１０５巷１８號","OBJECTID":408087},"geometry":{"x":166324.1799999997,"y":2560981.5099999998}},{"attributes":{"ID":408112,"DIS_CODE":0,"TOWNNAME":"佳里區","LI":"鎮山里","LIN":"22鄰","STREET":"鎮山街","SECT":" ","MAREA":" ","LANE":"１０５巷","ALLEY":" ","HOUSE_NO":"２０號","E_COORD97":166323.26999999999,"N_COORD97":2560977.4199999999,"ADDRESS":"鎮山街１０５巷２０號","OBJECTID":408088},"geometry":{"x":166323.27000000048,"y":2560977.4200000018}},{"attributes":{"ID":408113,"DIS_CODE":0,"TOWNNAME":"佳里區","LI":"鎮山里","LIN":"22鄰","STREET":"鎮山街","SECT":" ","MAREA":" ","LANE":"１０５巷","ALLEY":" ","HOUSE_NO":"２２號","E_COORD97":166322.53,"N_COORD97":2560973.3300000001,"ADDRESS":"鎮山街１０５巷２２號","OBJECTID":408089},"geometry":{"x":166322.53000000026,"y":2560973.3300000001}},{"attributes":{"ID":408114,"DIS_CODE":0,"TOWNNAME":"佳里區","LI":"鎮山里","LIN":"22鄰","STREET":"鎮山街","SECT":" ","MAREA":" ","LANE":"１０５巷","ALLEY":" ","HOUSE_NO":"２６號","E_COORD97":166322.03,"N_COORD97":2560968.7599999998,"ADDRESS":"鎮山街１０５巷２６號","OBJECTID":408090},"geometry":{"x":166322.03000000119,"y":2560968.7600000016}},{"attributes":{"ID":408115,"DIS_CODE":0,"TOWNNAME":"佳里區","LI":"鎮山里","LIN":"22鄰","STREET":"鎮山街","SECT":" ","MAREA":" ","LANE":"１０５巷","ALLEY":" ","HOUSE_NO":"２８號","E_COORD97":166321.17000000001,"N_COORD97":2560964.25,"ADDRESS":"鎮山街１０５巷２８號","OBJECTID":408091},"geometry":{"x":166321.16999999993,"y":2560964.2500000037}},{"attributes":{"ID":408116,"DIS_CODE":0,"TOWNNAME":"佳里區","LI":"鎮山里","LIN":"22鄰","STREET":"鎮山街","SECT":" ","MAREA":" ","LANE":"１０５巷","ALLEY":" ","HOUSE_NO":"４０號","E_COORD97":166344.5,"N_COORD97":2560955.7200000002,"ADDRESS":"鎮山街１０５巷４０號","OBJECTID":408092},"geometry":{"x":166344.5,"y":2560955.7200000025}},{"attributes":{"ID":408117,"DIS_CODE":0,"TOWNNAME":"佳里區","LI":"鎮山里","LIN":"22鄰","STREET":"鎮山街","SECT":" ","MAREA":" ","LANE":"１０５巷","ALLEY":" ","HOUSE_NO":"４２號","E_COORD97":166345.28,"N_COORD97":2560960.1200000001,"ADDRESS":"鎮山街１０５巷４２號","OBJECTID":408093},"geometry":{"x":166345.28000000212,"y":2560960.1200000029}},{"attributes":{"ID":408118,"DIS_CODE":0,"TOWNNAME":"佳里區","LI":"鎮山里","LIN":"22鄰","STREET":"鎮山街","SECT":" ","MAREA":" ","LANE":"１０５巷","ALLEY":" ","HOUSE_NO":"４６號","E_COORD97":166346.04999999999,"N_COORD97":2560964.5299999998,"ADDRESS":"鎮山街１０５巷４６號","OBJECTID":408094},"geometry":{"x":166346.04999999981,"y":2560964.5299999993}},{"attributes":{"ID":408119,"DIS_CODE":0,"TOWNNAME":"佳里區","LI":"鎮山里","LIN":"22鄰","STREET":"鎮山街","SECT":" ","MAREA":" ","LANE":"１０５巷","ALLEY":" ","HOUSE_NO":"４８號","E_COORD97":166346.82000000001,"N_COORD97":2560968.9300000002,"ADDRESS":"鎮山街１０５巷４８號","OBJECTID":408095},"geometry":{"x":166346.82000000216,"y":2560968.9299999997}},{"attributes":{"ID":408120,"DIS_CODE":0,"TOWNNAME":"佳里區","LI":"鎮山里","LIN":"22鄰","STREET":"鎮山街","SECT":" ","MAREA":" ","LANE":"１０５巷","ALLEY":" ","HOUSE_NO":"５０號","E_COORD97":166347.59,"N_COORD97":2560973.3300000001,"ADDRESS":"鎮山街１０５巷５０號","OBJECTID":408096},"geometry":{"x":166347.58999999985,"y":2560973.3300000001}},{"attributes":{"ID":408121,"DIS_CODE":0,"TOWNNAME":"佳里區","LI":"鎮山里","LIN":"22鄰","STREET":"鎮山街","SECT":" ","MAREA":" ","LANE":"１０５巷","ALLEY":" ","HOUSE_NO":"５２號","E_COORD97":166348.35999999999,"N_COORD97":2560977.7400000002,"ADDRESS":"鎮山街１０５巷５２號","OBJECTID":408097},"geometry":{"x":166348.36000000127,"y":2560977.7400000002}},{"attributes":{"ID":408122,"DIS_CODE":0,"TOWNNAME":"佳里區","LI":"鎮山里","LIN":"22鄰","STREET":"鎮山街","SECT":" ","MAREA":" ","LANE":"１０５巷","ALLEY":" ","HOUSE_NO":"５６號","E_COORD97":166349.13,"N_COORD97":2560982.1400000001,"ADDRESS":"鎮山街１０５巷５６號","OBJECTID":408098},"geometry":{"x":166349.12999999989,"y":2560982.1400000006}},{"attributes":{"ID":408123,"DIS_CODE":0,"TOWNNAME":"佳里區","LI":"鎮山里","LIN":"22鄰","STREET":"鎮山街","SECT":" ","MAREA":" ","LANE":"１０５巷","ALLEY":" ","HOUSE_NO":"５８號","E_COORD97":166349.89999999999,"N_COORD97":2560986.5499999998,"ADDRESS":"鎮山街１０５巷５８號","OBJECTID":408099},"geometry":{"x":166349.9000000013,"y":2560986.5499999989}},{"attributes":{"ID":408124,"DIS_CODE":0,"TOWNNAME":"佳里區","LI":"鎮山里","LIN":"22鄰","STREET":"鎮山街","SECT":" ","MAREA":" ","LANE":"１０５巷","ALLEY":" ","HOUSE_NO":"６０號","E_COORD97":166350.67999999999,"N_COORD97":2560990.9500000002,"ADDRESS":"鎮山街１０５巷６０號","OBJECTID":408100},"geometry":{"x":166350.68000000063,"y":2560990.9499999993}},{"attributes":{"ID":408125,"DIS_CODE":0,"TOWNNAME":"佳里區","LI":"鎮山里","LIN":"22鄰","STREET":"鎮山街","SECT":" ","MAREA":" ","LANE":"１０５巷","ALLEY":" ","HOUSE_NO":"６２號","E_COORD97":166351.45000000001,"N_COORD97":2560995.3500000001,"ADDRESS":"鎮山街１０５巷６２號","OBJECTID":408101},"geometry":{"x":166351.45000000112,"y":2560995.3500000015}},{"attributes":{"ID":408126,"DIS_CODE":0,"TOWNNAME":"佳里區","LI":"鎮山里","LIN":"22鄰","STREET":"鎮山街","SECT":" ","MAREA":" ","LANE":"１０５巷","ALLEY":" ","HOUSE_NO":"６６號","E_COORD97":166352.22,"N_COORD97":2560999.7599999998,"ADDRESS":"鎮山街１０５巷６６號","OBJECTID":408102},"geometry":{"x":166352.22000000067,"y":2560999.7599999998}},{"attributes":{"ID":408127,"DIS_CODE":0,"TOWNNAME":"佳里區","LI":"鎮山里","LIN":"22鄰","STREET":"鎮山街","SECT":" ","MAREA":" ","LANE":"１０５巷","ALLEY":" ","HOUSE_NO":"６８號","E_COORD97":166352.98999999999,"N_COORD97":2561004.1600000001,"ADDRESS":"鎮山街１０５巷６８號","OBJECTID":408103},"geometry":{"x":166352.99000000115,"y":2561004.1600000001}},{"attributes":{"ID":408128,"DIS_CODE":0,"TOWNNAME":"佳里區","LI":"鎮山里","LIN":"22鄰","STREET":"鎮山街","SECT":" ","MAREA":" ","LANE":"１０５巷","ALLEY":" ","HOUSE_NO":"７０號","E_COORD97":166353.76000000001,"N_COORD97":2561008.5699999998,"ADDRESS":"鎮山街１０５巷７０號","OBJECTID":408104},"geometry":{"x":166353.76000000071,"y":2561008.5700000003}},{"attributes":{"ID":408129,"DIS_CODE":0,"TOWNNAME":"佳里區","LI":"鎮山里","LIN":"22鄰","STREET":"鎮山街","SECT":" ","MAREA":" ","LANE":"１０５巷","ALLEY":" ","HOUSE_NO":"７號","E_COORD97":166322.92999999999,"N_COORD97":2561044.8599999999,"ADDRESS":"鎮山街１０５巷７號","OBJECTID":408105},"geometry":{"x":166322.9299999997,"y":2561044.8600000013}},{"attributes":{"ID":408130,"DIS_CODE":0,"TOWNNAME":"佳里區","LI":"鎮山里","LIN":"22鄰","STREET":"鎮山街","SECT":" ","MAREA":" ","LANE":"１０５巷","ALLEY":" ","HOUSE_NO":"９號","E_COORD97":166345.67000000001,"N_COORD97":2561045.2799999998,"ADDRESS":"鎮山街１０５巷９號","OBJECTID":408106},"geometry":{"x":166345.67000000179,"y":2561045.2800000012}},{"attributes":{"ID":408131,"DIS_CODE":0,"TOWNNAME":"安南區","LI":"安慶里","LIN":"22鄰","STREET":"安通一街","SECT":" ","MAREA":" ","LANE":"１７８巷","ALLEY":" ","HOUSE_NO":"６號","E_COORD97":168799.56,"N_COORD97":2548206.6299999999,"ADDRESS":"安通一街１７８巷６號","OBJECTID":408107},"geometry":{"x":168799.56000000052,"y":2548206.6300000008}},{"attributes":{"ID":408132,"DIS_CODE":0,"TOWNNAME":"安南區","LI":"安慶里","LIN":"22鄰","STREET":"安通一街","SECT":" ","MAREA":" ","LANE":"１７８巷","ALLEY":" ","HOUSE_NO":"８號","E_COORD97":168802.57000000001,"N_COORD97":2548207.5899999999,"ADDRESS":"安通一街１７８巷８號","OBJECTID":408108},"geometry":{"x":168802.5700000003,"y":2548207.5900000017}},{"attributes":{"ID":408133,"DIS_CODE":0,"TOWNNAME":"安南區","LI":"安慶里","LIN":"22鄰","STREET":"安通一街","SECT":" ","MAREA":" ","LANE":"１７８巷","ALLEY":" ","HOUSE_NO":"１０號","E_COORD97":168806.38,"N_COORD97":2548208.3799999999,"ADDRESS":"安通一街１７８巷１０號","OBJECTID":408109},"geometry":{"x":168806.38000000082,"y":2548208.3800000008}},{"attributes":{"ID":408134,"DIS_CODE":0,"TOWNNAME":"安南區","LI":"安慶里","LIN":"22鄰","STREET":"安通一街","SECT":" ","MAREA":" ","LANE":"１７８巷","ALLEY":" ","HOUSE_NO":"１２號","E_COORD97":168809.72,"N_COORD97":2548208.8599999999,"ADDRESS":"安通一街１７８巷１２號","OBJECTID":408110},"geometry":{"x":168809.71999999974,"y":2548208.8600000013}},{"attributes":{"ID":408135,"DIS_CODE":0,"TOWNNAME":"安南區","LI":"安慶里","LIN":"22鄰","STREET":"安通一街","SECT":" ","MAREA":" ","LANE":"１７８巷","ALLEY":" ","HOUSE_NO":"１６號","E_COORD97":168813.37,"N_COORD97":2548209.1699999999,"ADDRESS":"安通一街１７８巷１６號","OBJECTID":408111},"geometry":{"x":168813.37000000104,"y":2548209.1699999999}},{"attributes":{"ID":408136,"DIS_CODE":0,"TOWNNAME":"安南區","LI":"安東里","LIN":"22鄰","STREET":"安和路","SECT":"二段","MAREA":" ","LANE":"５４巷","ALLEY":" ","HOUSE_NO":"１２３號","E_COORD97":169805.82592599999,"N_COORD97":2548537.3086100002,"ADDRESS":"安和路二段５４巷１２３號","OBJECTID":408112},"geometry":{"x":169805.82592600118,"y":2548537.3086090013}},{"attributes":{"ID":408137,"DIS_CODE":0,"TOWNNAME":"南區","LI":"明亮里","LIN":"22鄰","STREET":"金華路","SECT":"一段","MAREA":" ","LANE":"３５２巷","ALLEY":" ","HOUSE_NO":"９６號","E_COORD97":167211.42999999999,"N_COORD97":2541096.1499999999,"ADDRESS":"金華路一段３５２巷９６號","OBJECTID":408113},"geometry":{"x":167211.4299999997,"y":2541096.1500000004}},{"attributes":{"ID":408138,"DIS_CODE":0,"TOWNNAME":"南區","LI":"明亮里","LIN":"22鄰","STREET":"金華路","SECT":"一段","MAREA":" ","LANE":"３５２巷","ALLEY":" ","HOUSE_NO":"９８號","E_COORD97":167214.19,"N_COORD97":2541093.3900000001,"ADDRESS":"金華路一段３５２巷９８號","OBJECTID":408114},"geometry":{"x":167214.19000000134,"y":2541093.3900000025}},{"attributes":{"ID":408139,"DIS_CODE":0,"TOWNNAME":"南區","LI":"明亮里","LIN":"22鄰","STREET":"金華路","SECT":"一段","MAREA":" ","LANE":"３５２巷","ALLEY":" ","HOUSE_NO":"１００號","E_COORD97":167217.57000000001,"N_COORD97":2541091.2400000002,"ADDRESS":"金華路一段３５２巷１００號","OBJECTID":408115},"geometry":{"x":167217.5700000003,"y":2541091.2400000021}},{"attributes":{"ID":408140,"DIS_CODE":0,"TOWNNAME":"西港區","LI":"慶安里","LIN":"22鄰","STREET":"中山路","SECT":" ","MAREA":" ","LANE":"２４３巷","ALLEY":" ","HOUSE_NO":"１２號","E_COORD97":168373.16,"N_COORD97":2557868.8300000001,"ADDRESS":"中山路２４３巷１２號","OBJECTID":408116},"geometry":{"x":168373.16000000015,"y":2557868.8300000019}},{"attributes":{"ID":408141,"DIS_CODE":0,"TOWNNAME":"西港區","LI":"慶安里","LIN":"22鄰","STREET":"中山路","SECT":" ","MAREA":" ","LANE":"２４３巷","ALLEY":" ","HOUSE_NO":"１４號","E_COORD97":168368.81,"N_COORD97":2557868.3199999998,"ADDRESS":"中山路２４３巷１４號","OBJECTID":408117},"geometry":{"x":168368.81000000052,"y":2557868.3200000003}},{"attributes":{"ID":408142,"DIS_CODE":0,"TOWNNAME":"西港區","LI":"慶安里","LIN":"22鄰","STREET":"中山路","SECT":" ","MAREA":" ","LANE":"２４３巷","ALLEY":" ","HOUSE_NO":"１８號","E_COORD97":168359.78,"N_COORD97":2557867.5,"ADDRESS":"中山路２４３巷１８號","OBJECTID":408118},"geometry":{"x":168359.78000000119,"y":2557867.5000000019}},{"attributes":{"ID":408143,"DIS_CODE":0,"TOWNNAME":"西港區","LI":"慶安里","LIN":"22鄰","STREET":"中山路","SECT":" ","MAREA":" ","LANE":"２４３巷","ALLEY":" ","HOUSE_NO":"２０號","E_COORD97":168355.59,"N_COORD97":2557867.1699999999,"ADDRESS":"中山路２４３巷２０號","OBJECTID":408119},"geometry":{"x":168355.59000000078,"y":2557867.1700000018}},{"attributes":{"ID":408144,"DIS_CODE":0,"TOWNNAME":"西港區","LI":"慶安里","LIN":"22鄰","STREET":"中山路","SECT":" ","MAREA":" ","LANE":"２４３巷","ALLEY":" ","HOUSE_NO":"２２號","E_COORD97":168351.23000000001,"N_COORD97":2557867.1400000001,"ADDRESS":"中山路２４３巷２２號","OBJECTID":408120},"geometry":{"x":168351.23000000231,"y":2557867.1400000025}},{"attributes":{"ID":408145,"DIS_CODE":0,"TOWNNAME":"西港區","LI":"慶安里","LIN":"22鄰","STREET":"中山路","SECT":" ","MAREA":" ","LANE":"２４３巷","ALLEY":" ","HOUSE_NO":"２４號","E_COORD97":168346.98000000001,"N_COORD97":2557866.3500000001,"ADDRESS":"中山路２４３巷２４號","OBJECTID":408121},"geometry":{"x":168346.98000000138,"y":2557866.3499999996}},{"attributes":{"ID":408146,"DIS_CODE":0,"TOWNNAME":"西港區","LI":"慶安里","LIN":"22鄰","STREET":"中山路","SECT":" ","MAREA":" ","LANE":"２４３巷","ALLEY":" ","HOUSE_NO":"２６號","E_COORD97":168341.78,"N_COORD97":2557865.8599999999,"ADDRESS":"中山路２４３巷２６號","OBJECTID":408122},"geometry":{"x":168341.78000000026,"y":2557865.8599999994}},{"attributes":{"ID":408147,"DIS_CODE":0,"TOWNNAME":"西港區","LI":"慶安里","LIN":"22鄰","STREET":"中山路","SECT":" ","MAREA":" ","LANE":"２４３巷","ALLEY":" ","HOUSE_NO":"２號","E_COORD97":168392.09,"N_COORD97":2557871.5499999998,"ADDRESS":"中山路２４３巷２號","OBJECTID":408123},"geometry":{"x":168392.08999999892,"y":2557871.5500000026}},{"attributes":{"ID":408148,"DIS_CODE":0,"TOWNNAME":"西港區","LI":"慶安里","LIN":"22鄰","STREET":"中山路","SECT":" ","MAREA":" ","LANE":"２４３巷","ALLEY":" ","HOUSE_NO":"４號","E_COORD97":168388.64000000001,"N_COORD97":2557871.1099999999,"ADDRESS":"中山路２４３巷４號","OBJECTID":408124},"geometry":{"x":168388.6400000006,"y":2557871.1099999994}},{"attributes":{"ID":408149,"DIS_CODE":0,"TOWNNAME":"西港區","LI":"慶安里","LIN":"22鄰","STREET":"中山路","SECT":" ","MAREA":" ","LANE":"２４３巷","ALLEY":" ","HOUSE_NO":"６號","E_COORD97":168384.22,"N_COORD97":2557870.8500000001,"ADDRESS":"中山路２４３巷６號","OBJECTID":408125},"geometry":{"x":168384.21999999974,"y":2557870.8499999996}},{"attributes":{"ID":408150,"DIS_CODE":0,"TOWNNAME":"東區","LI":"崇德里","LIN":"22鄰","STREET":"崇德路","SECT":" ","MAREA":" ","LANE":"５０８巷","ALLEY":" ","HOUSE_NO":"５４號","E_COORD97":170626.16,"N_COORD97":2541585.3700000001,"ADDRESS":"崇德路５０８巷５４號","OBJECTID":408126},"geometry":{"x":170626.16000000015,"y":2541585.3700000048}},{"attributes":{"ID":408151,"DIS_CODE":0,"TOWNNAME":"東區","LI":"崇德里","LIN":"22鄰","STREET":"崇德路","SECT":" ","MAREA":" ","LANE":"５０８巷","ALLEY":" ","HOUSE_NO":"５６號","E_COORD97":170622.45000000001,"N_COORD97":2541588.8700000001,"ADDRESS":"崇德路５０８巷５６號","OBJECTID":408127},"geometry":{"x":170622.45000000019,"y":2541588.8700000029}},{"attributes":{"ID":408152,"DIS_CODE":0,"TOWNNAME":"東區","LI":"崇德里","LIN":"22鄰","STREET":"崇德路","SECT":" ","MAREA":" ","LANE":"５０８巷","ALLEY":" ","HOUSE_NO":"５８號","E_COORD97":170619.35000000001,"N_COORD97":2541593,"ADDRESS":"崇德路５０８巷５８號","OBJECTID":408128},"geometry":{"x":170619.35000000149,"y":2541593}},{"attributes":{"ID":408153,"DIS_CODE":0,"TOWNNAME":"東區","LI":"圍下里","LIN":"22鄰","STREET":"衛民街","SECT":" ","MAREA":" ","LANE":"２４巷","ALLEY":" ","HOUSE_NO":"２６號","E_COORD97":169266.84,"N_COORD97":2543832.6699999999,"ADDRESS":"衛民街２４巷２６號","OBJECTID":408129},"geometry":{"x":169266.83999999892,"y":2543832.6699999999}},{"attributes":{"ID":408154,"DIS_CODE":0,"TOWNNAME":"東區","LI":"新東里","LIN":"22鄰","STREET":"裕農路","SECT":" ","MAREA":" ","LANE":"４３巷","ALLEY":" ","HOUSE_NO":"３０號","E_COORD97":170641.73999999999,"N_COORD97":2543010.4399999999,"ADDRESS":"裕農路４３巷３０號","OBJECTID":408130},"geometry":{"x":170641.74000000115,"y":2543010.4400000032}},{"attributes":{"ID":408155,"DIS_CODE":0,"TOWNNAME":"東區","LI":"新東里","LIN":"22鄰","STREET":"裕農路","SECT":" ","MAREA":" ","LANE":"４３巷","ALLEY":" ","HOUSE_NO":"３２號","E_COORD97":170640.53,"N_COORD97":2543014.7200000002,"ADDRESS":"裕農路４３巷３２號","OBJECTID":408131},"geometry":{"x":170640.53000000026,"y":2543014.7200000025}},{"attributes":{"ID":408156,"DIS_CODE":0,"TOWNNAME":"東區","LI":"新東里","LIN":"22鄰","STREET":"裕農路","SECT":" ","MAREA":" ","LANE":"４３巷","ALLEY":" ","HOUSE_NO":"３４號","E_COORD97":170638.79000000001,"N_COORD97":2543019.0099999998,"ADDRESS":"裕農路４３巷３４號","OBJECTID":408132},"geometry":{"x":170638.78999999911,"y":2543019.0099999998}},{"attributes":{"ID":408157,"DIS_CODE":0,"TOWNNAME":"東區","LI":"新東里","LIN":"22鄰","STREET":"裕農路","SECT":" ","MAREA":" ","LANE":"４３巷","ALLEY":" ","HOUSE_NO":"３６號","E_COORD97":170636.78,"N_COORD97":2543023.5600000001,"ADDRESS":"裕農路４３巷３６號","OBJECTID":408133},"geometry":{"x":170636.78000000026,"y":2543023.5600000005}},{"attributes":{"ID":408158,"DIS_CODE":0,"TOWNNAME":"東區","LI":"新東里","LIN":"22鄰","STREET":"裕農路","SECT":" ","MAREA":" ","LANE":"４３巷","ALLEY":" ","HOUSE_NO":"３８號","E_COORD97":170635.29999999999,"N_COORD97":2543028.3799999999,"ADDRESS":"裕農路４３巷３８號","OBJECTID":408134},"geometry":{"x":170635.30000000168,"y":2543028.3800000008}},{"attributes":{"ID":408159,"DIS_CODE":0,"TOWNNAME":"東區","LI":"新東里","LIN":"22鄰","STREET":"裕農路","SECT":" ","MAREA":" ","LANE":"４３巷","ALLEY":" ","HOUSE_NO":"４０號","E_COORD97":170634.10000000001,"N_COORD97":2543032.7999999998,"ADDRESS":"裕農路４３巷４０號","OBJECTID":408135},"geometry":{"x":170634.09999999963,"y":2543032.7999999989}},{"attributes":{"ID":408160,"DIS_CODE":0,"TOWNNAME":"東區","LI":"新東里","LIN":"22鄰","STREET":"裕農路","SECT":" ","MAREA":" ","LANE":"４３巷","ALLEY":" ","HOUSE_NO":"４２號","E_COORD97":170631.28,"N_COORD97":2543045.46,"ADDRESS":"裕農路４３巷４２號","OBJECTID":408136},"geometry":{"x":170631.28000000119,"y":2543045.459999999}},{"attributes":{"ID":408161,"DIS_CODE":0,"TOWNNAME":"東區","LI":"新東里","LIN":"22鄰","STREET":"裕農路","SECT":" ","MAREA":" ","LANE":"４３巷","ALLEY":" ","HOUSE_NO":"４４號","E_COORD97":170630.07999999999,"N_COORD97":2543050.0099999998,"ADDRESS":"裕農路４３巷４４號","OBJECTID":408137},"geometry":{"x":170630.07999999914,"y":2543050.0099999998}},{"attributes":{"ID":408162,"DIS_CODE":0,"TOWNNAME":"東區","LI":"新東里","LIN":"22鄰","STREET":"裕農路","SECT":" ","MAREA":" ","LANE":"４３巷","ALLEY":" ","HOUSE_NO":"４６號","E_COORD97":170628.87,"N_COORD97":2543053.8900000001,"ADDRESS":"裕農路４３巷４６號","OBJECTID":408138},"geometry":{"x":170628.87000000104,"y":2543053.8900000025}},{"attributes":{"ID":408163,"DIS_CODE":0,"TOWNNAME":"東區","LI":"新東里","LIN":"22鄰","STREET":"裕農路","SECT":" ","MAREA":" ","LANE":"４３巷","ALLEY":" ","HOUSE_NO":"４８號","E_COORD97":170628.07000000001,"N_COORD97":2543057.9100000001,"ADDRESS":"裕農路４３巷４８號","OBJECTID":408139},"geometry":{"x":170628.0700000003,"y":2543057.9100000001}},{"attributes":{"ID":408164,"DIS_CODE":0,"TOWNNAME":"東區","LI":"新東里","LIN":"22鄰","STREET":"裕農路","SECT":" ","MAREA":" ","LANE":"４３巷","ALLEY":" ","HOUSE_NO":"５０號","E_COORD97":170626.85999999999,"N_COORD97":2543061.7999999998,"ADDRESS":"裕農路４３巷５０號","OBJECTID":408140},"geometry":{"x":170626.8600000022,"y":2543061.8000000026}},{"attributes":{"ID":408165,"DIS_CODE":0,"TOWNNAME":"東區","LI":"新東里","LIN":"22鄰","STREET":"裕農路","SECT":" ","MAREA":" ","LANE":"４３巷","ALLEY":" ","HOUSE_NO":"５２號","E_COORD97":170626.06,"N_COORD97":2543066.21,"ADDRESS":"裕農路４３巷５２號","OBJECTID":408141},"geometry":{"x":170626.05999999959,"y":2543066.2100000009}},{"attributes":{"ID":408166,"DIS_CODE":0,"TOWNNAME":"東區","LI":"新東里","LIN":"22鄰","STREET":"裕農路","SECT":" ","MAREA":" ","LANE":"４３巷","ALLEY":" ","HOUSE_NO":"５４號","E_COORD97":170625.12,"N_COORD97":2543069.96,"ADDRESS":"裕農路４３巷５４號","OBJECTID":408142},"geometry":{"x":170625.12000000104,"y":2543069.9600000028}},{"attributes":{"ID":408167,"DIS_CODE":0,"TOWNNAME":"東區","LI":"新東里","LIN":"22鄰","STREET":"裕農路","SECT":" ","MAREA":" ","LANE":"４３巷","ALLEY":" ","HOUSE_NO":"５６號","E_COORD97":170624.17999999999,"N_COORD97":2543074.25,"ADDRESS":"裕農路４３巷５６號","OBJECTID":408143},"geometry":{"x":170624.18000000063,"y":2543074.2500000019}},{"attributes":{"ID":408168,"DIS_CODE":0,"TOWNNAME":"新市區","LI":"港墘里","LIN":"22鄰","STREET":"華美街","SECT":" ","MAREA":" ","LANE":"８巷","ALLEY":" ","HOUSE_NO":"３號","E_COORD97":178153.95000000001,"N_COORD97":2552808.5499999998,"ADDRESS":"華美街８巷３號","OBJECTID":408144},"geometry":{"x":178153.95000000019,"y":2552808.5500000007}},{"attributes":{"ID":408169,"DIS_CODE":0,"TOWNNAME":"新市區","LI":"港墘里","LIN":"22鄰","STREET":"南港街","SECT":" ","MAREA":" ","LANE":"２６巷","ALLEY":" ","HOUSE_NO":"６號","E_COORD97":178192.89999999999,"N_COORD97":2552797,"ADDRESS":"南港街２６巷６號","OBJECTID":408145},"geometry":{"x":178192.9000000013,"y":2552797}},{"attributes":{"ID":408170,"DIS_CODE":0,"TOWNNAME":"新市區","LI":"港墘里","LIN":"22鄰","STREET":"南港街","SECT":" ","MAREA":" ","LANE":"２６巷","ALLEY":" ","HOUSE_NO":"２５號","E_COORD97":178172.04999999999,"N_COORD97":2552848.5,"ADDRESS":"南港街２６巷２５號","OBJECTID":408146},"geometry":{"x":178172.05000000168,"y":2552848.5}},{"attributes":{"ID":408171,"DIS_CODE":0,"TOWNNAME":"新市區","LI":"港墘里","LIN":"22鄰","STREET":"南港街","SECT":" ","MAREA":" ","LANE":"２６巷","ALLEY":" ","HOUSE_NO":"１０號","E_COORD97":178192.12,"N_COORD97":2552805.75,"ADDRESS":"南港街２６巷１０號","OBJECTID":408147},"geometry":{"x":178192.12000000197,"y":2552805.75}},{"attributes":{"ID":408172,"DIS_CODE":0,"TOWNNAME":"新市區","LI":"新市里","LIN":"22鄰","STREET":"和平街","SECT":" ","MAREA":" ","LANE":"１６巷","ALLEY":" ","HOUSE_NO":"３號","E_COORD97":177741.89999999999,"N_COORD97":2553490.25,"ADDRESS":"和平街１６巷３號","OBJECTID":408148},"geometry":{"x":177741.9000000013,"y":2553490.25}},{"attributes":{"ID":408173,"DIS_CODE":0,"TOWNNAME":"永康區","LI":"東橋里","LIN":"22鄰","STREET":"自強路","SECT":" ","MAREA":" ","LANE":"９巷","ALLEY":" ","HOUSE_NO":"１４號","E_COORD97":172669.66,"N_COORD97":2547210.2400000002,"ADDRESS":"自強路９巷１４號","OBJECTID":408149},"geometry":{"x":172669.66000000108,"y":2547210.2400000021}},{"attributes":{"ID":408174,"DIS_CODE":0,"TOWNNAME":"永康區","LI":"埔園里","LIN":"22鄰","STREET":"埔園街","SECT":" ","MAREA":" ","LANE":"２７１巷","ALLEY":" ","HOUSE_NO":"２１號","E_COORD97":173488.17000000001,"N_COORD97":2548114.2400000002,"ADDRESS":"埔園街２７１巷２１號","OBJECTID":408150},"geometry":{"x":173488.17000000086,"y":2548114.2400000002}},{"attributes":{"ID":408175,"DIS_CODE":0,"TOWNNAME":"永康區","LI":"神洲里","LIN":"22鄰","STREET":"忠孝路","SECT":" ","MAREA":" ","LANE":"７６巷","ALLEY":" ","HOUSE_NO":"１１號","E_COORD97":172139.23000000001,"N_COORD97":2544921.7400000002,"ADDRESS":"忠孝路７６巷１１號","OBJECTID":408151},"geometry":{"x":172139.23000000045,"y":2544921.7400000021}},{"attributes":{"ID":408176,"DIS_CODE":0,"TOWNNAME":"永康區","LI":"埔園里","LIN":"22鄰","STREET":"埔園街","SECT":" ","MAREA":" ","LANE":"２７１巷","ALLEY":" ","HOUSE_NO":"１３號","E_COORD97":173481.10999999999,"N_COORD97":2548132.7400000002,"ADDRESS":"埔園街２７１巷１３號","OBJECTID":408152},"geometry":{"x":173481.11000000034,"y":2548132.7400000021}},{"attributes":{"ID":408177,"DIS_CODE":0,"TOWNNAME":"永康區","LI":"埔園里","LIN":"22鄰","STREET":"埔園街","SECT":" ","MAREA":" ","LANE":"２７１巷","ALLEY":" ","HOUSE_NO":"７號","E_COORD97":173479.03,"N_COORD97":2548145.7000000002,"ADDRESS":"埔園街２７１巷７號","OBJECTID":408153},"geometry":{"x":173479.03000000119,"y":2548145.7000000011}},{"attributes":{"ID":408178,"DIS_CODE":0,"TOWNNAME":"永康區","LI":"神洲里","LIN":"22鄰","STREET":"忠孝路","SECT":" ","MAREA":" ","LANE":"７６巷","ALLEY":" ","HOUSE_NO":"９號","E_COORD97":172130.89999999999,"N_COORD97":2544920.9900000002,"ADDRESS":"忠孝路７６巷９號","OBJECTID":408154},"geometry":{"x":172130.9000000013,"y":2544920.9900000021}},{"attributes":{"ID":408179,"DIS_CODE":0,"TOWNNAME":"永康區","LI":"東灣里","LIN":"22鄰","STREET":"大灣二街","SECT":" ","MAREA":" ","LANE":"３８巷","ALLEY":" ","HOUSE_NO":"１號","E_COORD97":174906.57000000001,"N_COORD97":2544767.25,"ADDRESS":"大灣二街３８巷１號","OBJECTID":408155},"geometry":{"x":174906.57000000123,"y":2544767.25}},{"attributes":{"ID":408180,"DIS_CODE":0,"TOWNNAME":"永康區","LI":"南灣里","LIN":"22鄰","STREET":"大灣路","SECT":" ","MAREA":" ","LANE":"７６４巷","ALLEY":" ","HOUSE_NO":"３號","E_COORD97":174156.82000000001,"N_COORD97":2544575.0099999998,"ADDRESS":"大灣路７６４巷３號","OBJECTID":408156},"geometry":{"x":174156.82000000123,"y":2544575.0099999998}},{"attributes":{"ID":408181,"DIS_CODE":0,"TOWNNAME":"永康區","LI":"建國里","LIN":"22鄰","STREET":"興國街","SECT":" ","MAREA":" ","LANE":"５巷","ALLEY":" ","HOUSE_NO":"８號","E_COORD97":172671.70999999999,"N_COORD97":2544669,"ADDRESS":"興國街５巷８號","OBJECTID":408157},"geometry":{"x":172671.70999999996,"y":2544669.0000000019}},{"attributes":{"ID":408182,"DIS_CODE":0,"TOWNNAME":"永康區","LI":"建國里","LIN":"22鄰","STREET":"興國街","SECT":" ","MAREA":" ","LANE":"５巷","ALLEY":" ","HOUSE_NO":"７號","E_COORD97":172678.12,"N_COORD97":2544665,"ADDRESS":"興國街５巷７號","OBJECTID":408158},"geometry":{"x":172678.12000000104,"y":2544665.0000000037}},{"attributes":{"ID":408183,"DIS_CODE":0,"TOWNNAME":"永康區","LI":"東灣里","LIN":"22鄰","STREET":"大灣二街","SECT":" ","MAREA":" ","LANE":"３８巷","ALLEY":" ","HOUSE_NO":"１７號","E_COORD97":174913.57000000001,"N_COORD97":2544802.2400000002,"ADDRESS":"大灣二街３８巷１７號","OBJECTID":408159},"geometry":{"x":174913.5700000003,"y":2544802.2400000002}},{"attributes":{"ID":408184,"DIS_CODE":0,"TOWNNAME":"永康區","LI":"神洲里","LIN":"22鄰","STREET":"忠孝路","SECT":" ","MAREA":" ","LANE":"７６巷","ALLEY":" ","HOUSE_NO":"２７號","E_COORD97":172149.89000000001,"N_COORD97":2544925.4300000002,"ADDRESS":"忠孝路７６巷２７號","OBJECTID":408160},"geometry":{"x":172149.89000000153,"y":2544925.4299999997}},{"attributes":{"ID":408185,"DIS_CODE":0,"TOWNNAME":"永康區","LI":"建國里","LIN":"22鄰","STREET":"興國街","SECT":" ","MAREA":" ","LANE":"３巷","ALLEY":" ","HOUSE_NO":"３號","E_COORD97":172690.66,"N_COORD97":2544678,"ADDRESS":"興國街３巷３號","OBJECTID":408161},"geometry":{"x":172690.66000000015,"y":2544678}},{"attributes":{"ID":408186,"DIS_CODE":0,"TOWNNAME":"永康區","LI":"東橋里","LIN":"22鄰","STREET":"中山南路","SECT":" ","MAREA":" ","LANE":"３６５巷","ALLEY":" ","HOUSE_NO":"１８號","E_COORD97":172529.29000000001,"N_COORD97":2547396.0600000001,"ADDRESS":"中山南路３６５巷１８號","OBJECTID":408162},"geometry":{"x":172529.29000000097,"y":2547396.0600000024}},{"attributes":{"ID":408187,"DIS_CODE":0,"TOWNNAME":"永康區","LI":"建國里","LIN":"22鄰","STREET":"興國街","SECT":" ","MAREA":" ","LANE":"３巷","ALLEY":" ","HOUSE_NO":"２號","E_COORD97":172684.45999999999,"N_COORD97":2544682.25,"ADDRESS":"興國街３巷２號","OBJECTID":408163},"geometry":{"x":172684.46000000089,"y":2544682.25}},{"attributes":{"ID":408188,"DIS_CODE":0,"TOWNNAME":"永康區","LI":"東灣里","LIN":"22鄰","STREET":"大灣三街","SECT":" ","MAREA":" ","LANE":"７３巷","ALLEY":" ","HOUSE_NO":"１１９號","E_COORD97":174846.97,"N_COORD97":2544794.27,"ADDRESS":"大灣三街７３巷１１９號","OBJECTID":408164},"geometry":{"x":174846.97000000067,"y":2544794.2699999996}},{"attributes":{"ID":408189,"DIS_CODE":0,"TOWNNAME":"永康區","LI":"東灣里","LIN":"22鄰","STREET":"大灣三街","SECT":" ","MAREA":" ","LANE":"７３巷","ALLEY":" ","HOUSE_NO":"１２１號","E_COORD97":174845.79999999999,"N_COORD97":2544790.8500000001,"ADDRESS":"大灣三街７３巷１２１號","OBJECTID":408165},"geometry":{"x":174845.79999999981,"y":2544790.8499999978}},{"attributes":{"ID":408190,"DIS_CODE":0,"TOWNNAME":"永康區","LI":"神洲里","LIN":"22鄰","STREET":"忠孝路","SECT":" ","MAREA":" ","LANE":"７６巷","ALLEY":" ","HOUSE_NO":"３３號","E_COORD97":172190.79000000001,"N_COORD97":2544925.8100000001,"ADDRESS":"忠孝路７６巷３３號","OBJECTID":408166},"geometry":{"x":172190.79000000097,"y":2544925.8100000024}},{"attributes":{"ID":408191,"DIS_CODE":0,"TOWNNAME":"永康區","LI":"建國里","LIN":"22鄰","STREET":"興國街","SECT":" ","MAREA":" ","LANE":"３巷","ALLEY":" ","HOUSE_NO":"６號","E_COORD97":172686.82000000001,"N_COORD97":2544676.75,"ADDRESS":"興國街３巷６號","OBJECTID":408167},"geometry":{"x":172686.82000000216,"y":2544676.7499999981}},{"attributes":{"ID":408192,"DIS_CODE":0,"TOWNNAME":"永康區","LI":"神洲里","LIN":"22鄰","STREET":"忠孝路","SECT":" ","MAREA":" ","LANE":"７６巷","ALLEY":" ","HOUSE_NO":"２９號","E_COORD97":172163.78,"N_COORD97":2544924.9300000002,"ADDRESS":"忠孝路７６巷２９號","OBJECTID":408168},"geometry":{"x":172163.78000000119,"y":2544924.9299999997}},{"attributes":{"ID":408193,"DIS_CODE":0,"TOWNNAME":"永康區","LI":"神洲里","LIN":"22鄰","STREET":"忠孝路","SECT":" ","MAREA":" ","LANE":"７６巷","ALLEY":" ","HOUSE_NO":"４３號","E_COORD97":172250.82000000001,"N_COORD97":2544927.3799999999,"ADDRESS":"忠孝路７６巷４３號","OBJECTID":408169},"geometry":{"x":172250.8200000003,"y":2544927.3800000008}},{"attributes":{"ID":408194,"DIS_CODE":0,"TOWNNAME":"永康區","LI":"神洲里","LIN":"22鄰","STREET":"忠孝路","SECT":" ","MAREA":" ","LANE":"７６巷","ALLEY":" ","HOUSE_NO":"３９號","E_COORD97":172225.14999999999,"N_COORD97":2544925.2000000002,"ADDRESS":"忠孝路７６巷３９號","OBJECTID":408170},"geometry":{"x":172225.15000000224,"y":2544925.2000000011}},{"attributes":{"ID":408195,"DIS_CODE":0,"TOWNNAME":"永康區","LI":"東橋里","LIN":"22鄰","STREET":"自強路","SECT":" ","MAREA":" ","LANE":"９巷","ALLEY":" ","HOUSE_NO":"１０號","E_COORD97":172670.84,"N_COORD97":2547193.4900000002,"ADDRESS":"自強路９巷１０號","OBJECTID":408171},"geometry":{"x":172670.84000000171,"y":2547193.4900000002}},{"attributes":{"ID":408196,"DIS_CODE":0,"TOWNNAME":"永康區","LI":"東橋里","LIN":"22鄰","STREET":"自強路","SECT":" ","MAREA":" ","LANE":"３５巷","ALLEY":" ","HOUSE_NO":"３號","E_COORD97":172722.89000000001,"N_COORD97":2547217.4900000002,"ADDRESS":"自強路３５巷３號","OBJECTID":408172},"geometry":{"x":172722.89000000153,"y":2547217.4900000002}},{"attributes":{"ID":408197,"DIS_CODE":0,"TOWNNAME":"永康區","LI":"埔園里","LIN":"22鄰","STREET":"埔園街","SECT":" ","MAREA":" ","LANE":"２７１巷","ALLEY":" ","HOUSE_NO":"２３號","E_COORD97":173489.98999999999,"N_COORD97":2548108.25,"ADDRESS":"埔園街２７１巷２３號","OBJECTID":408173},"geometry":{"x":173489.99000000022,"y":2548108.2500000019}},{"attributes":{"ID":408198,"DIS_CODE":0,"TOWNNAME":"新市區","LI":"新市里","LIN":"22鄰","STREET":"和平街","SECT":" ","MAREA":" ","LANE":"１６巷","ALLEY":" ","HOUSE_NO":"７號","E_COORD97":177741.26000000001,"N_COORD97":2553498.25,"ADDRESS":"和平街１６巷７號","OBJECTID":408174},"geometry":{"x":177741.25999999978,"y":2553498.25}},{"attributes":{"ID":408199,"DIS_CODE":0,"TOWNNAME":"新市區","LI":"新市里","LIN":"22鄰","STREET":"和平街","SECT":" ","MAREA":" ","LANE":"１６巷","ALLEY":" ","HOUSE_NO":"５號","E_COORD97":177741.60000000001,"N_COORD97":2553494,"ADDRESS":"和平街１６巷５號","OBJECTID":408175},"geometry":{"x":177741.60000000056,"y":2553494.0000000019}},{"attributes":{"ID":408200,"DIS_CODE":0,"TOWNNAME":"東區","LI":"大智里","LIN":"22鄰","STREET":"崇善十五街","SECT":" ","MAREA":" ","LANE":"３３巷","ALLEY":" ","HOUSE_NO":"６９號","E_COORD97":171389.39000000001,"N_COORD97":2540445.8700000001,"ADDRESS":"崇善十五街３３巷６９號","OBJECTID":408176},"geometry":{"x":171389.3900000006,"y":2540445.8700000048}},{"attributes":{"ID":408201,"DIS_CODE":0,"TOWNNAME":"東區","LI":"大智里","LIN":"22鄰","STREET":"崇善十五街","SECT":" ","MAREA":" ","LANE":"３３巷","ALLEY":" ","HOUSE_NO":"７１號","E_COORD97":171384.14999999999,"N_COORD97":2540446.5299999998,"ADDRESS":"崇善十五街３３巷７１號","OBJECTID":408177},"geometry":{"x":171384.15000000037,"y":2540446.5300000031}},{"attributes":{"ID":408202,"DIS_CODE":0,"TOWNNAME":"東區","LI":"大智里","LIN":"22鄰","STREET":"崇善十五街","SECT":" ","MAREA":" ","LANE":"３３巷","ALLEY":" ","HOUSE_NO":"７３號","E_COORD97":171378.57999999999,"N_COORD97":2540447.5099999998,"ADDRESS":"崇善十五街３３巷７３號","OBJECTID":408178},"geometry":{"x":171378.58000000101,"y":2540447.5100000016}},{"attributes":{"ID":408203,"DIS_CODE":0,"TOWNNAME":"東區","LI":"大智里","LIN":"22鄰","STREET":"崇善十五街","SECT":" ","MAREA":" ","LANE":"３３巷","ALLEY":" ","HOUSE_NO":"７５號","E_COORD97":171374.64999999999,"N_COORD97":2540446.8500000001,"ADDRESS":"崇善十五街３３巷７５號","OBJECTID":408179},"geometry":{"x":171374.6500000013,"y":2540446.8499999996}},{"attributes":{"ID":408204,"DIS_CODE":0,"TOWNNAME":"東區","LI":"大智里","LIN":"22鄰","STREET":"崇善十五街","SECT":" ","MAREA":" ","LANE":"３３巷","ALLEY":" ","HOUSE_NO":"９６號","E_COORD97":171324.23000000001,"N_COORD97":2540438.3399999999,"ADDRESS":"崇善十五街３３巷９６號","OBJECTID":408180},"geometry":{"x":171324.23000000045,"y":2540438.3400000036}},{"attributes":{"ID":408205,"DIS_CODE":0,"TOWNNAME":"東區","LI":"大智里","LIN":"22鄰","STREET":"崇善十五街","SECT":" ","MAREA":" ","LANE":"３３巷","ALLEY":" ","HOUSE_NO":"９８號","E_COORD97":171319.31,"N_COORD97":2540438.6699999999,"ADDRESS":"崇善十五街３３巷９８號","OBJECTID":408181},"geometry":{"x":171319.30999999959,"y":2540438.6699999999}},{"attributes":{"ID":408206,"DIS_CODE":0,"TOWNNAME":"安南區","LI":"溪墘里","LIN":"22鄰","STREET":"安寧街","SECT":" ","MAREA":" ","LANE":"７９巷","ALLEY":" ","HOUSE_NO":"４號","E_COORD97":167372.59,"N_COORD97":2547081.4100000001,"ADDRESS":"安寧街７９巷４號","OBJECTID":408182},"geometry":{"x":167372.58999999985,"y":2547081.410000002}},{"attributes":{"ID":408207,"DIS_CODE":0,"TOWNNAME":"東區","LI":"大智里","LIN":"22鄰","STREET":"崇善十五街","SECT":" ","MAREA":" ","LANE":"３３巷","ALLEY":" ","HOUSE_NO":"１００號","E_COORD97":171312.64999999999,"N_COORD97":2540438.04,"ADDRESS":"崇善十五街３３巷１００號","OBJECTID":408183},"geometry":{"x":171312.65000000037,"y":2540438.0399999991}},{"attributes":{"ID":408208,"DIS_CODE":0,"TOWNNAME":"東區","LI":"大智里","LIN":"22鄰","STREET":"崇善十五街","SECT":" ","MAREA":" ","LANE":"３３巷","ALLEY":" ","HOUSE_NO":"１０２號","E_COORD97":171307.44,"N_COORD97":2540437.2400000002,"ADDRESS":"崇善十五街３３巷１０２號","OBJECTID":408184},"geometry":{"x":171307.44000000041,"y":2540437.2400000021}},{"attributes":{"ID":408209,"DIS_CODE":0,"TOWNNAME":"東區","LI":"大智里","LIN":"22鄰","STREET":"崇善十五街","SECT":" ","MAREA":" ","LANE":"３３巷","ALLEY":" ","HOUSE_NO":"１０６號","E_COORD97":171300.63,"N_COORD97":2540440.04,"ADDRESS":"崇善十五街３３巷１０６號","OBJECTID":408185},"geometry":{"x":171300.62999999989,"y":2540440.040000001}},{"attributes":{"ID":408210,"DIS_CODE":0,"TOWNNAME":"東區","LI":"大智里","LIN":"22鄰","STREET":"崇善十五街","SECT":" ","MAREA":" ","LANE":"３３巷","ALLEY":" ","HOUSE_NO":"１０８號","E_COORD97":171295.42999999999,"N_COORD97":2540438.04,"ADDRESS":"崇善十五街３３巷１０８號","OBJECTID":408186},"geometry":{"x":171295.43000000156,"y":2540438.0399999991}},{"attributes":{"ID":408211,"DIS_CODE":0,"TOWNNAME":"東區","LI":"大智里","LIN":"22鄰","STREET":"崇善十五街","SECT":" ","MAREA":" ","LANE":"３３巷","ALLEY":" ","HOUSE_NO":"１１０號","E_COORD97":171290.62,"N_COORD97":2540438.8399999999,"ADDRESS":"崇善十五街３３巷１１０號","OBJECTID":408187},"geometry":{"x":171290.62000000011,"y":2540438.8400000017}},{"attributes":{"ID":408212,"DIS_CODE":0,"TOWNNAME":"東區","LI":"崇德里","LIN":"22鄰","STREET":"崇德路","SECT":" ","MAREA":" ","LANE":"５０８巷","ALLEY":" ","HOUSE_NO":"２號","E_COORD97":170741.73000000001,"N_COORD97":2541571.8199999998,"ADDRESS":"崇德路５０８巷２號","OBJECTID":408188},"geometry":{"x":170741.73000000138,"y":2541571.8200000022}},{"attributes":{"ID":408213,"DIS_CODE":0,"TOWNNAME":"東區","LI":"崇德里","LIN":"22鄰","STREET":"崇德路","SECT":" ","MAREA":" ","LANE":"５０８巷","ALLEY":" ","HOUSE_NO":"２之１號","E_COORD97":170737.89999999999,"N_COORD97":2541571.9399999999,"ADDRESS":"崇德路５０８巷２之１號","OBJECTID":408189},"geometry":{"x":170737.90000000037,"y":2541571.9399999995}},{"attributes":{"ID":408214,"DIS_CODE":0,"TOWNNAME":"東區","LI":"崇德里","LIN":"22鄰","STREET":"崇德路","SECT":" ","MAREA":" ","LANE":"５０８巷","ALLEY":" ","HOUSE_NO":"３７號","E_COORD97":170692.04000000001,"N_COORD97":2541555.3599999999,"ADDRESS":"崇德路５０８巷３７號","OBJECTID":408190},"geometry":{"x":170692.04000000097,"y":2541555.3599999994}},{"attributes":{"ID":408215,"DIS_CODE":0,"TOWNNAME":"東區","LI":"崇德里","LIN":"22鄰","STREET":"崇德路","SECT":" ","MAREA":" ","LANE":"５０８巷","ALLEY":" ","HOUSE_NO":"３９號","E_COORD97":170687.67000000001,"N_COORD97":2541555.79,"ADDRESS":"崇德路５０８巷３９號","OBJECTID":408191},"geometry":{"x":170687.67000000086,"y":2541555.7899999991}},{"attributes":{"ID":408216,"DIS_CODE":0,"TOWNNAME":"善化區","LI":"光文里","LIN":"22鄰","STREET":"光華路","SECT":" ","MAREA":" ","LANE":"３５巷","ALLEY":" ","HOUSE_NO":"９２號","E_COORD97":178414.78,"N_COORD97":2559261.5,"ADDRESS":"光華路３５巷９２號","OBJECTID":408192},"geometry":{"x":178414.78000000026,"y":2559261.5000000019}},{"attributes":{"ID":408217,"DIS_CODE":0,"TOWNNAME":"善化區","LI":"光文里","LIN":"22鄰","STREET":"光華路","SECT":" ","MAREA":" ","LANE":"３５巷","ALLEY":" ","HOUSE_NO":"８２號","E_COORD97":178435.16,"N_COORD97":2559265,"ADDRESS":"光華路３５巷８２號","OBJECTID":408193},"geometry":{"x":178435.16000000108,"y":2559265.0000000019}},{"attributes":{"ID":408218,"DIS_CODE":0,"TOWNNAME":"善化區","LI":"光文里","LIN":"22鄰","STREET":"光華路","SECT":" ","MAREA":" ","LANE":"３５巷","ALLEY":" ","HOUSE_NO":"５４號","E_COORD97":178495.42000000001,"N_COORD97":2559273.25,"ADDRESS":"光華路３５巷５４號","OBJECTID":408194},"geometry":{"x":178495.42000000086,"y":2559273.2500000019}},{"attributes":{"ID":408219,"DIS_CODE":0,"TOWNNAME":"善化區","LI":"光文里","LIN":"22鄰","STREET":"光華路","SECT":" ","MAREA":" ","LANE":"３５巷","ALLEY":" ","HOUSE_NO":"７０號","E_COORD97":178459.14999999999,"N_COORD97":2559262.75,"ADDRESS":"光華路３５巷７０號","OBJECTID":408195},"geometry":{"x":178459.1500000013,"y":2559262.7500000019}},{"attributes":{"ID":408220,"DIS_CODE":0,"TOWNNAME":"南區","LI":"廣州里","LIN":"22鄰","STREET":"福吉四街","SECT":" ","MAREA":" ","LANE":"４７巷","ALLEY":" ","HOUSE_NO":"２號","E_COORD97":167206.67999999999,"N_COORD97":2542669.4399999999,"ADDRESS":"福吉四街４７巷２號","OBJECTID":408196},"geometry":{"x":167206.68000000063,"y":2542669.4400000013}},{"attributes":{"ID":408221,"DIS_CODE":0,"TOWNNAME":"南區","LI":"廣州里","LIN":"22鄰","STREET":"福吉四街","SECT":" ","MAREA":" ","LANE":"４７巷","ALLEY":" ","HOUSE_NO":"４號","E_COORD97":167204.89999999999,"N_COORD97":2542665.6699999999,"ADDRESS":"福吉四街４７巷４號","OBJECTID":408197},"geometry":{"x":167204.90000000037,"y":2542665.6699999999}},{"attributes":{"ID":408222,"DIS_CODE":0,"TOWNNAME":"南區","LI":"廣州里","LIN":"22鄰","STREET":"福吉四街","SECT":" ","MAREA":" ","LANE":"４７巷","ALLEY":" ","HOUSE_NO":"６號","E_COORD97":167201.34,"N_COORD97":2542663,"ADDRESS":"福吉四街４７巷６號","OBJECTID":408198},"geometry":{"x":167201.34000000078,"y":2542663.0000000019}},{"attributes":{"ID":408223,"DIS_CODE":0,"TOWNNAME":"南區","LI":"廣州里","LIN":"22鄰","STREET":"福吉四街","SECT":" ","MAREA":" ","LANE":"４７巷","ALLEY":" ","HOUSE_NO":"８號","E_COORD97":167199.56,"N_COORD97":2542658.5600000001,"ADDRESS":"福吉四街４７巷８號","OBJECTID":408199},"geometry":{"x":167199.56000000052,"y":2542658.5600000024}},{"attributes":{"ID":408224,"DIS_CODE":0,"TOWNNAME":"佳里區","LI":"安西里","LIN":"13鄰","STREET":"長安街","SECT":" ","MAREA":" ","LANE":" ","ALLEY":" ","HOUSE_NO":"９１號","E_COORD97":165413.76999999999,"N_COORD97":2562465.5800000001,"ADDRESS":"長安街９１號","OBJECTID":408200},"geometry":{"x":165413.76999999955,"y":2562465.5800000019}}]}