{"displayFieldName":"TOWNNAME","fieldAliases":{"ID":"ID","DIS_CODE":"DIS_CODE","TOWNNAME":"TOWNNAME","LI":"LI","LIN":"LIN","STREET":"STREET","SECT":"SECT","MAREA":"MAREA","LANE":"LANE","ALLEY":"ALLEY","HOUSE_NO":"HOUSE_NO","E_COORD97":"E_COORD97","N_COORD97":"N_COORD97","ADDRESS":"ADDRESS","OBJECTID":"OBJECTID"},"geometryType":"esriGeometryPoint","spatialReference":{"wkid":102443,"latestWkid":3826},"fields":[{"name":"ID","type":"esriFieldTypeDouble","alias":"ID"},{"name":"DIS_CODE","type":"esriFieldTypeInteger","alias":"DIS_CODE"},{"name":"TOWNNAME","type":"esriFieldTypeString","alias":"TOWNNAME","length":8},{"name":"LI","type":"esriFieldTypeString","alias":"LI","length":8},{"name":"LIN","type":"esriFieldTypeString","alias":"LIN","length":12},{"name":"STREET","type":"esriFieldTypeString","alias":"STREET","length":20},{"name":"SECT","type":"esriFieldTypeString","alias":"SECT","length":8},{"name":"MAREA","type":"esriFieldTypeString","alias":"MAREA","length":12},{"name":"LANE","type":"esriFieldTypeString","alias":"LANE","length":10},{"name":"ALLEY","type":"esriFieldTypeString","alias":"ALLEY","length":10},{"name":"HOUSE_NO","type":"esriFieldTypeString","alias":"HOUSE_NO","length":20},{"name":"E_COORD97","type":"esriFieldTypeDouble","alias":"E_COORD97"},{"name":"N_COORD97","type":"esriFieldTypeDouble","alias":"N_COORD97"},{"name":"ADDRESS","type":"esriFieldTypeString","alias":"ADDRESS","length":50},{"name":"OBJECTID","type":"esriFieldTypeOID","alias":"OBJECTID"}],"features":[{"attributes":{"ID":204602,"DIS_CODE":0,"TOWNNAME":"北區","LI":"成功里","LIN":"25鄰","STREET":"北成路","SECT":" ","MAREA":" ","LANE":"１２８巷","ALLEY":"６７弄","HOUSE_NO":"１５號","E_COORD97":168954.09,"N_COORD97":2546871.5600000001,"ADDRESS":"北成路１２８巷６７弄１５號","OBJECTID":204601},"geometry":{"x":168954.09000000078,"y":2546871.5600000005}},{"attributes":{"ID":204603,"DIS_CODE":0,"TOWNNAME":"北區","LI":"成功里","LIN":"25鄰","STREET":"北成路","SECT":" ","MAREA":" ","LANE":"１２８巷","ALLEY":"６７弄","HOUSE_NO":"１７號","E_COORD97":168950.87,"N_COORD97":2546873.3100000001,"ADDRESS":"北成路１２８巷６７弄１７號","OBJECTID":204602},"geometry":{"x":168950.87000000011,"y":2546873.3100000005}},{"attributes":{"ID":204604,"DIS_CODE":0,"TOWNNAME":"楠西區","LI":"鹿田里","LIN":"9鄰","STREET":" ","SECT":" ","MAREA":"油車","LANE":" ","ALLEY":" ","HOUSE_NO":"３６號","E_COORD97":198131.14000000001,"N_COORD97":2562163.2400000002,"ADDRESS":"油車３６號","OBJECTID":204603},"geometry":{"x":198131.1400000006,"y":2562163.2400000002}},{"attributes":{"ID":204605,"DIS_CODE":0,"TOWNNAME":"楠西區","LI":"照興里","LIN":"9鄰","STREET":" ","SECT":" ","MAREA":"興北","LANE":" ","ALLEY":" ","HOUSE_NO":"１２２號","E_COORD97":196618.62,"N_COORD97":2565322.25,"ADDRESS":"興北１２２號","OBJECTID":204604},"geometry":{"x":196618.62000000011,"y":2565322.2500000019}},{"attributes":{"ID":204606,"DIS_CODE":0,"TOWNNAME":"楠西區","LI":"鹿田里","LIN":"9鄰","STREET":" ","SECT":" ","MAREA":"油車","LANE":" ","ALLEY":" ","HOUSE_NO":"３９號之１","E_COORD97":198021.88,"N_COORD97":2562232.2999999998,"ADDRESS":"油車３９號之１","OBJECTID":204605},"geometry":{"x":198021.87999999989,"y":2562232.3000000007}},{"attributes":{"ID":204607,"DIS_CODE":0,"TOWNNAME":"楠西區","LI":"鹿田里","LIN":"9鄰","STREET":" ","SECT":" ","MAREA":"油車","LANE":" ","ALLEY":" ","HOUSE_NO":"４１號之２","E_COORD97":198114.41,"N_COORD97":2562267.2999999998,"ADDRESS":"油車４１號之２","OBJECTID":204606},"geometry":{"x":198114.41000000108,"y":2562267.3000000026}},{"attributes":{"ID":204608,"DIS_CODE":0,"TOWNNAME":"楠西區","LI":"鹿田里","LIN":"9鄰","STREET":" ","SECT":" ","MAREA":"油車","LANE":" ","ALLEY":" ","HOUSE_NO":"３４號","E_COORD97":198056.14000000001,"N_COORD97":2562118.25,"ADDRESS":"油車３４號","OBJECTID":204607},"geometry":{"x":198056.1400000006,"y":2562118.2500000019}},{"attributes":{"ID":204609,"DIS_CODE":0,"TOWNNAME":"北區","LI":"成功里","LIN":"25鄰","STREET":"北成路","SECT":" ","MAREA":" ","LANE":"１２８巷","ALLEY":"６７弄","HOUSE_NO":"１９號","E_COORD97":168947.06,"N_COORD97":2546875.9399999999,"ADDRESS":"北成路１２８巷６７弄１９號","OBJECTID":204608},"geometry":{"x":168947.06000000052,"y":2546875.9400000013}},{"attributes":{"ID":204610,"DIS_CODE":0,"TOWNNAME":"北區","LI":"成功里","LIN":"25鄰","STREET":"北成路","SECT":" ","MAREA":" ","LANE":"１２８巷","ALLEY":"６７弄","HOUSE_NO":"２１號","E_COORD97":168944.13,"N_COORD97":2546878.2799999998,"ADDRESS":"北成路１２８巷６７弄２１號","OBJECTID":204609},"geometry":{"x":168944.12999999989,"y":2546878.2799999993}},{"attributes":{"ID":204611,"DIS_CODE":0,"TOWNNAME":"楠西區","LI":"鹿田里","LIN":"9鄰","STREET":" ","SECT":" ","MAREA":"油車","LANE":" ","ALLEY":" ","HOUSE_NO":"３７號","E_COORD97":198101.64000000001,"N_COORD97":2562158.25,"ADDRESS":"油車３７號","OBJECTID":204610},"geometry":{"x":198101.64000000153,"y":2562158.2500000019}},{"attributes":{"ID":204612,"DIS_CODE":0,"TOWNNAME":"北區","LI":"成功里","LIN":"25鄰","STREET":"北成路","SECT":" ","MAREA":" ","LANE":"１２８巷","ALLEY":"６７弄","HOUSE_NO":"２３號","E_COORD97":168940.60999999999,"N_COORD97":2546880.6299999999,"ADDRESS":"北成路１２８巷６７弄２３號","OBJECTID":204611},"geometry":{"x":168940.61000000127,"y":2546880.6300000008}},{"attributes":{"ID":204613,"DIS_CODE":0,"TOWNNAME":"楠西區","LI":"密枝里","LIN":"9鄰","STREET":" ","SECT":" ","MAREA":"密枝","LANE":" ","ALLEY":" ","HOUSE_NO":"５５號之８","E_COORD97":201719.54999999999,"N_COORD97":2568050.2999999998,"ADDRESS":"密枝５５號之８","OBJECTID":204612},"geometry":{"x":201719.54999999981,"y":2568050.3000000007}},{"attributes":{"ID":204614,"DIS_CODE":0,"TOWNNAME":"楠西區","LI":"密枝里","LIN":"9鄰","STREET":" ","SECT":" ","MAREA":"密枝","LANE":" ","ALLEY":" ","HOUSE_NO":"５５號之１１","E_COORD97":201693.04999999999,"N_COORD97":2568042.2999999998,"ADDRESS":"密枝５５號之１１","OBJECTID":204613},"geometry":{"x":201693.05000000075,"y":2568042.3000000007}},{"attributes":{"ID":204615,"DIS_CODE":0,"TOWNNAME":"楠西區","LI":"密枝里","LIN":"9鄰","STREET":" ","SECT":" ","MAREA":"密枝","LANE":" ","ALLEY":" ","HOUSE_NO":"５５號之２０","E_COORD97":201695.70000000001,"N_COORD97":2568023.2999999998,"ADDRESS":"密枝５５號之２０","OBJECTID":204614},"geometry":{"x":201695.70000000112,"y":2568023.2999999989}},{"attributes":{"ID":204616,"DIS_CODE":0,"TOWNNAME":"楠西區","LI":"密枝里","LIN":"9鄰","STREET":" ","SECT":" ","MAREA":"密枝","LANE":" ","ALLEY":" ","HOUSE_NO":"５５號之９","E_COORD97":201729.98999999999,"N_COORD97":2568044.2999999998,"ADDRESS":"密枝５５號之９","OBJECTID":204615},"geometry":{"x":201729.99000000115,"y":2568044.3000000026}},{"attributes":{"ID":204617,"DIS_CODE":0,"TOWNNAME":"北區","LI":"成功里","LIN":"25鄰","STREET":"北成路","SECT":" ","MAREA":" ","LANE":"１２８巷","ALLEY":"６７弄","HOUSE_NO":"２５號","E_COORD97":168936.22,"N_COORD97":2546883.2599999998,"ADDRESS":"北成路１２８巷６７弄２５號","OBJECTID":204616},"geometry":{"x":168936.22000000067,"y":2546883.2599999998}},{"attributes":{"ID":204618,"DIS_CODE":0,"TOWNNAME":"北區","LI":"成功里","LIN":"25鄰","STREET":"北成路","SECT":" ","MAREA":" ","LANE":"１２８巷","ALLEY":"６７弄","HOUSE_NO":"２７號","E_COORD97":168933.29000000001,"N_COORD97":2546885.3100000001,"ADDRESS":"北成路１２８巷６７弄２７號","OBJECTID":204617},"geometry":{"x":168933.29000000004,"y":2546885.3100000024}},{"attributes":{"ID":204619,"DIS_CODE":0,"TOWNNAME":"北區","LI":"成功里","LIN":"25鄰","STREET":"北成路","SECT":" ","MAREA":" ","LANE":"１２８巷","ALLEY":"６７弄","HOUSE_NO":"３０號","E_COORD97":168929.48999999999,"N_COORD97":2546909.5899999999,"ADDRESS":"北成路１２８巷６７弄３０號","OBJECTID":204618},"geometry":{"x":168929.49000000115,"y":2546909.5900000017}},{"attributes":{"ID":204620,"DIS_CODE":0,"TOWNNAME":"北區","LI":"成功里","LIN":"25鄰","STREET":"北成路","SECT":" ","MAREA":" ","LANE":"１２８巷","ALLEY":"６７弄","HOUSE_NO":"９號","E_COORD97":168966.39000000001,"N_COORD97":2546867.1699999999,"ADDRESS":"北成路１２８巷６７弄９號","OBJECTID":204619},"geometry":{"x":168966.39000000153,"y":2546867.1699999999}},{"attributes":{"ID":204621,"DIS_CODE":0,"TOWNNAME":"北區","LI":"大港里","LIN":"25鄰","STREET":"中華北路","SECT":"一段","MAREA":" ","LANE":"２０３巷","ALLEY":"１６弄","HOUSE_NO":"２２號","E_COORD97":166364.47,"N_COORD97":2545764.75,"ADDRESS":"中華北路一段２０３巷１６弄２２號","OBJECTID":204620},"geometry":{"x":166364.47000000067,"y":2545764.75}},{"attributes":{"ID":204622,"DIS_CODE":0,"TOWNNAME":"楠西區","LI":"照興里","LIN":"9鄰","STREET":" ","SECT":" ","MAREA":"興北","LANE":" ","ALLEY":" ","HOUSE_NO":"１１０號之１","E_COORD97":196868.25,"N_COORD97":2565906.2999999998,"ADDRESS":"興北１１０號之１","OBJECTID":204621},"geometry":{"x":196868.25,"y":2565906.3000000007}},{"attributes":{"ID":204623,"DIS_CODE":0,"TOWNNAME":"楠西區","LI":"照興里","LIN":"9鄰","STREET":" ","SECT":" ","MAREA":"興北","LANE":" ","ALLEY":" ","HOUSE_NO":"１１１號","E_COORD97":196884.51999999999,"N_COORD97":2565892.25,"ADDRESS":"興北１１１號","OBJECTID":204622},"geometry":{"x":196884.51999999955,"y":2565892.25}},{"attributes":{"ID":204624,"DIS_CODE":0,"TOWNNAME":"楠西區","LI":"鹿田里","LIN":"9鄰","STREET":" ","SECT":" ","MAREA":"油車","LANE":" ","ALLEY":" ","HOUSE_NO":"４１號之１","E_COORD97":198069.98000000001,"N_COORD97":2562288.2999999998,"ADDRESS":"油車４１號之１","OBJECTID":204623},"geometry":{"x":198069.98000000138,"y":2562288.3000000026}},{"attributes":{"ID":204625,"DIS_CODE":0,"TOWNNAME":"楠西區","LI":"照興里","LIN":"9鄰","STREET":" ","SECT":" ","MAREA":"興北","LANE":" ","ALLEY":" ","HOUSE_NO":"１１５號","E_COORD97":196717.62,"N_COORD97":2565558.25,"ADDRESS":"興北１１５號","OBJECTID":204624},"geometry":{"x":196717.62000000104,"y":2565558.2500000037}},{"attributes":{"ID":204626,"DIS_CODE":0,"TOWNNAME":"楠西區","LI":"照興里","LIN":"9鄰","STREET":" ","SECT":" ","MAREA":"興北","LANE":" ","ALLEY":" ","HOUSE_NO":"１０９號","E_COORD97":196935.62,"N_COORD97":2565941.25,"ADDRESS":"興北１０９號","OBJECTID":204625},"geometry":{"x":196935.62000000011,"y":2565941.2500000037}},{"attributes":{"ID":204627,"DIS_CODE":0,"TOWNNAME":"楠西區","LI":"照興里","LIN":"9鄰","STREET":" ","SECT":" ","MAREA":"興北","LANE":" ","ALLEY":" ","HOUSE_NO":"１１０號","E_COORD97":196838.62,"N_COORD97":2565851.25,"ADDRESS":"興北１１０號","OBJECTID":204626},"geometry":{"x":196838.62000000011,"y":2565851.2500000019}},{"attributes":{"ID":204628,"DIS_CODE":0,"TOWNNAME":"楠西區","LI":"照興里","LIN":"9鄰","STREET":" ","SECT":" ","MAREA":"興北","LANE":" ","ALLEY":" ","HOUSE_NO":"１１２號之２","E_COORD97":196741.69,"N_COORD97":2565756.2999999998,"ADDRESS":"興北１１２號之２","OBJECTID":204627},"geometry":{"x":196741.69000000041,"y":2565756.3000000026}},{"attributes":{"ID":204629,"DIS_CODE":0,"TOWNNAME":"楠西區","LI":"照興里","LIN":"9鄰","STREET":" ","SECT":" ","MAREA":"興北","LANE":" ","ALLEY":" ","HOUSE_NO":"１１５號之２","E_COORD97":196763.69,"N_COORD97":2565536.2999999998,"ADDRESS":"興北１１５號之２","OBJECTID":204628},"geometry":{"x":196763.69000000041,"y":2565536.3000000026}},{"attributes":{"ID":204630,"DIS_CODE":0,"TOWNNAME":"楠西區","LI":"鹿田里","LIN":"9鄰","STREET":" ","SECT":" ","MAREA":"油車","LANE":" ","ALLEY":" ","HOUSE_NO":"３５號之２","E_COORD97":198083.41,"N_COORD97":2562161.2999999998,"ADDRESS":"油車３５號之２","OBJECTID":204629},"geometry":{"x":198083.41000000201,"y":2562161.2999999989}},{"attributes":{"ID":204631,"DIS_CODE":0,"TOWNNAME":"楠西區","LI":"鹿田里","LIN":"9鄰","STREET":" ","SECT":" ","MAREA":"油車","LANE":" ","ALLEY":" ","HOUSE_NO":"４２號","E_COORD97":198118.23999999999,"N_COORD97":2562220.25,"ADDRESS":"油車４２號","OBJECTID":204630},"geometry":{"x":198118.24000000022,"y":2562220.2500000019}},{"attributes":{"ID":204632,"DIS_CODE":0,"TOWNNAME":"楠西區","LI":"照興里","LIN":"9鄰","STREET":" ","SECT":" ","MAREA":"興北","LANE":" ","ALLEY":" ","HOUSE_NO":"１１１號之１","E_COORD97":196766.45000000001,"N_COORD97":2565936.2999999998,"ADDRESS":"興北１１１號之１","OBJECTID":204631},"geometry":{"x":196766.45000000112,"y":2565936.3000000026}},{"attributes":{"ID":204633,"DIS_CODE":0,"TOWNNAME":"楠西區","LI":"灣丘里","LIN":"9鄰","STREET":" ","SECT":" ","MAREA":"香蕉山","LANE":" ","ALLEY":" ","HOUSE_NO":"５號","E_COORD97":202252.64000000001,"N_COORD97":2564618.25,"ADDRESS":"香蕉山５號","OBJECTID":204632},"geometry":{"x":202252.63999999966,"y":2564618.25}},{"attributes":{"ID":204634,"DIS_CODE":0,"TOWNNAME":"北區","LI":"正覺里","LIN":"15鄰","STREET":"正覺街","SECT":" ","MAREA":" ","LANE":" ","ALLEY":" ","HOUSE_NO":"１０３號","E_COORD97":169308.92000000001,"N_COORD97":2546468.5499999998,"ADDRESS":"正覺街１０３號","OBJECTID":204633},"geometry":{"x":169308.92000000179,"y":2546468.5500000007}},{"attributes":{"ID":204635,"DIS_CODE":0,"TOWNNAME":"北區","LI":"大港里","LIN":"25鄰","STREET":"中華北路","SECT":"一段","MAREA":" ","LANE":"２０３巷","ALLEY":"１６弄","HOUSE_NO":"２４號","E_COORD97":166356.5,"N_COORD97":2545773,"ADDRESS":"中華北路一段２０３巷１６弄２４號","OBJECTID":204634},"geometry":{"x":166356.5,"y":2545773}},{"attributes":{"ID":204636,"DIS_CODE":0,"TOWNNAME":"北區","LI":"大港里","LIN":"25鄰","STREET":"中華北路","SECT":"一段","MAREA":" ","LANE":"２０３巷","ALLEY":"１６弄","HOUSE_NO":"２６號","E_COORD97":166354.47,"N_COORD97":2545776.1600000001,"ADDRESS":"中華北路一段２０３巷１６弄２６號","OBJECTID":204635},"geometry":{"x":166354.46999999974,"y":2545776.1600000039}},{"attributes":{"ID":204637,"DIS_CODE":0,"TOWNNAME":"北區","LI":"大港里","LIN":"25鄰","STREET":"中華北路","SECT":"一段","MAREA":" ","LANE":"２０３巷","ALLEY":"１６弄","HOUSE_NO":"２８號","E_COORD97":166351.91,"N_COORD97":2545778.7999999998,"ADDRESS":"中華北路一段２０３巷１６弄２８號","OBJECTID":204636},"geometry":{"x":166351.91000000015,"y":2545778.8000000007}},{"attributes":{"ID":204638,"DIS_CODE":0,"TOWNNAME":"北區","LI":"大港里","LIN":"25鄰","STREET":"中華北路","SECT":"一段","MAREA":" ","LANE":"２０３巷","ALLEY":"１６弄","HOUSE_NO":"３０號","E_COORD97":166349.88,"N_COORD97":2545782.27,"ADDRESS":"中華北路一段２０３巷１６弄３０號","OBJECTID":204637},"geometry":{"x":166349.88000000082,"y":2545782.2700000014}},{"attributes":{"ID":204639,"DIS_CODE":0,"TOWNNAME":"麻豆區","LI":"\u25A0江里","LIN":"15鄰","STREET":"民權路","SECT":" ","MAREA":" ","LANE":" ","ALLEY":" ","HOUSE_NO":"５１號之３","E_COORD97":173386.22,"N_COORD97":2564547.77,"ADDRESS":"民權路５１號之３","OBJECTID":204638},"geometry":{"x":173386.21999999974,"y":2564547.7700000014}},{"attributes":{"ID":204640,"DIS_CODE":0,"TOWNNAME":"柳營區","LI":"八翁里","LIN":"9鄰","STREET":" ","SECT":" ","MAREA":"八老爺","LANE":" ","ALLEY":" ","HOUSE_NO":"８０號","E_COORD97":178233.04000000001,"N_COORD97":2574617.79,"ADDRESS":"八老爺８０號","OBJECTID":204639},"geometry":{"x":178233.04000000004,"y":2574617.790000001}},{"attributes":{"ID":204641,"DIS_CODE":0,"TOWNNAME":"柳營區","LI":"八翁里","LIN":"9鄰","STREET":" ","SECT":" ","MAREA":"八老爺","LANE":" ","ALLEY":" ","HOUSE_NO":"８１號","E_COORD97":178229.75,"N_COORD97":2574666.04,"ADDRESS":"八老爺８１號","OBJECTID":204640},"geometry":{"x":178229.75,"y":2574666.040000001}},{"attributes":{"ID":204642,"DIS_CODE":0,"TOWNNAME":"柳營區","LI":"八翁里","LIN":"9鄰","STREET":" ","SECT":" ","MAREA":"八老爺","LANE":" ","ALLEY":" ","HOUSE_NO":"８２之１號","E_COORD97":178246.75,"N_COORD97":2574667.8599999999,"ADDRESS":"八老爺８２之１號","OBJECTID":204641},"geometry":{"x":178246.75,"y":2574667.8600000013}},{"attributes":{"ID":204643,"DIS_CODE":0,"TOWNNAME":"麻豆區","LI":"南勢里","LIN":"21鄰","STREET":" ","SECT":" ","MAREA":"南勢","LANE":" ","ALLEY":" ","HOUSE_NO":"５１號","E_COORD97":174500.92000000001,"N_COORD97":2565007.3599999999,"ADDRESS":"南勢５１號","OBJECTID":204642},"geometry":{"x":174500.91999999993,"y":2565007.3599999975}},{"attributes":{"ID":204644,"DIS_CODE":0,"TOWNNAME":"北區","LI":"大港里","LIN":"25鄰","STREET":"中華北路","SECT":"一段","MAREA":" ","LANE":"２０３巷","ALLEY":"１６弄","HOUSE_NO":"３２號","E_COORD97":166346.60999999999,"N_COORD97":2545786.6099999999,"ADDRESS":"中華北路一段２０３巷１６弄３２號","OBJECTID":204643},"geometry":{"x":166346.6100000022,"y":2545786.6100000013}},{"attributes":{"ID":204645,"DIS_CODE":0,"TOWNNAME":"北區","LI":"大港里","LIN":"25鄰","STREET":"中華北路","SECT":"一段","MAREA":" ","LANE":"２０３巷","ALLEY":"１６弄","HOUSE_NO":"３４號","E_COORD97":166342.72,"N_COORD97":2545789.98,"ADDRESS":"中華北路一段２０３巷１６弄３４號","OBJECTID":204644},"geometry":{"x":166342.71999999974,"y":2545789.9800000004}},{"attributes":{"ID":204646,"DIS_CODE":0,"TOWNNAME":"北區","LI":"大港里","LIN":"25鄰","STREET":"中華北路","SECT":"一段","MAREA":" ","LANE":"２０３巷","ALLEY":"１６弄","HOUSE_NO":"３６號","E_COORD97":166340.70000000001,"N_COORD97":2545794.7599999998,"ADDRESS":"中華北路一段２０３巷１６弄３６號","OBJECTID":204645},"geometry":{"x":166340.70000000205,"y":2545794.7599999998}},{"attributes":{"ID":204647,"DIS_CODE":0,"TOWNNAME":"安南區","LI":"溪心里","LIN":"19鄰","STREET":"功安一街","SECT":" ","MAREA":" ","LANE":" ","ALLEY":" ","HOUSE_NO":"３７號","E_COORD97":166062.89000000001,"N_COORD97":2549842.7000000002,"ADDRESS":"功安一街３７號","OBJECTID":204646},"geometry":{"x":166062.8900000006,"y":2549842.6999999993}},{"attributes":{"ID":204648,"DIS_CODE":0,"TOWNNAME":"安南區","LI":"溪心里","LIN":"19鄰","STREET":"功安一街","SECT":" ","MAREA":" ","LANE":" ","ALLEY":" ","HOUSE_NO":"３９號","E_COORD97":166064.13,"N_COORD97":2549847.9700000002,"ADDRESS":"功安一街３９號","OBJECTID":204647},"geometry":{"x":166064.12999999989,"y":2549847.9700000025}},{"attributes":{"ID":204649,"DIS_CODE":0,"TOWNNAME":"安南區","LI":"溪心里","LIN":"19鄰","STREET":"功安一街","SECT":" ","MAREA":" ","LANE":" ","ALLEY":" ","HOUSE_NO":"４１號","E_COORD97":166065.29000000001,"N_COORD97":2549852.75,"ADDRESS":"功安一街４１號","OBJECTID":204648},"geometry":{"x":166065.2900000019,"y":2549852.75}},{"attributes":{"ID":204650,"DIS_CODE":0,"TOWNNAME":"安南區","LI":"溪心里","LIN":"19鄰","STREET":"功安一街","SECT":" ","MAREA":" ","LANE":" ","ALLEY":" ","HOUSE_NO":"４３號","E_COORD97":166066.85000000001,"N_COORD97":2549858.9300000002,"ADDRESS":"功安一街４３號","OBJECTID":204649},"geometry":{"x":166066.85000000056,"y":2549858.9299999997}},{"attributes":{"ID":204651,"DIS_CODE":0,"TOWNNAME":"白河區","LI":"外角里","LIN":"7鄰","STREET":"開明街","SECT":" ","MAREA":" ","LANE":" ","ALLEY":" ","HOUSE_NO":"４６號","E_COORD97":190723.94,"N_COORD97":2583327.96,"ADDRESS":"開明街４６號","OBJECTID":204650},"geometry":{"x":190723.94000000041,"y":2583327.9600000028}},{"attributes":{"ID":204652,"DIS_CODE":0,"TOWNNAME":"安南區","LI":"溪心里","LIN":"19鄰","STREET":"安中路","SECT":"三段","MAREA":" ","LANE":" ","ALLEY":" ","HOUSE_NO":"１０６號","E_COORD97":166096.37,"N_COORD97":2549817.1299999999,"ADDRESS":"安中路三段１０６號","OBJECTID":204651},"geometry":{"x":166096.37000000011,"y":2549817.1300000008}},{"attributes":{"ID":204653,"DIS_CODE":0,"TOWNNAME":"北區","LI":"大港里","LIN":"25鄰","STREET":"中華北路","SECT":"一段","MAREA":" ","LANE":"２０３巷","ALLEY":"１６弄","HOUSE_NO":"３８號","E_COORD97":166331.51000000001,"N_COORD97":2545805.1499999999,"ADDRESS":"中華北路一段２０３巷１６弄３８號","OBJECTID":204652},"geometry":{"x":166331.51000000071,"y":2545805.1500000022}},{"attributes":{"ID":204654,"DIS_CODE":0,"TOWNNAME":"北區","LI":"大港里","LIN":"25鄰","STREET":"中華北路","SECT":"一段","MAREA":" ","LANE":"２０３巷","ALLEY":"１６弄","HOUSE_NO":"４１號","E_COORD97":166310.75,"N_COORD97":2545809.1899999999,"ADDRESS":"中華北路一段２０３巷１６弄４１號","OBJECTID":204653},"geometry":{"x":166310.75,"y":2545809.1900000032}},{"attributes":{"ID":204655,"DIS_CODE":0,"TOWNNAME":"北區","LI":"大港里","LIN":"25鄰","STREET":"中華北路","SECT":"一段","MAREA":" ","LANE":"２０３巷","ALLEY":"１６弄","HOUSE_NO":"４３號","E_COORD97":166307.85999999999,"N_COORD97":2545811.8900000001,"ADDRESS":"中華北路一段２０３巷１６弄４３號","OBJECTID":204654},"geometry":{"x":166307.86000000127,"y":2545811.8900000006}},{"attributes":{"ID":204656,"DIS_CODE":0,"TOWNNAME":"北區","LI":"大港里","LIN":"25鄰","STREET":"中華北路","SECT":"一段","MAREA":" ","LANE":"２０３巷","ALLEY":"１６弄","HOUSE_NO":"４５號","E_COORD97":166305.16,"N_COORD97":2545815.48,"ADDRESS":"中華北路一段２０３巷１６弄４５號","OBJECTID":204655},"geometry":{"x":166305.15999999922,"y":2545815.4800000023}},{"attributes":{"ID":204657,"DIS_CODE":0,"TOWNNAME":"北區","LI":"大港里","LIN":"25鄰","STREET":"中華北路","SECT":"一段","MAREA":" ","LANE":"２０３巷","ALLEY":"１６弄","HOUSE_NO":"４６號","E_COORD97":166320.95999999999,"N_COORD97":2545816.8300000001,"ADDRESS":"中華北路一段２０３巷１６弄４６號","OBJECTID":204656},"geometry":{"x":166320.95999999996,"y":2545816.8300000019}},{"attributes":{"ID":204658,"DIS_CODE":0,"TOWNNAME":"北區","LI":"大港里","LIN":"25鄰","STREET":"中華北路","SECT":"一段","MAREA":" ","LANE":"２０３巷","ALLEY":"１６弄","HOUSE_NO":"４７號","E_COORD97":166303,"N_COORD97":2545818.1800000002,"ADDRESS":"中華北路一段２０３巷１６弄４７號","OBJECTID":204657},"geometry":{"x":166303.00000000093,"y":2545818.1799999997}},{"attributes":{"ID":204659,"DIS_CODE":0,"TOWNNAME":"北區","LI":"大港里","LIN":"25鄰","STREET":"中華北路","SECT":"一段","MAREA":" ","LANE":"２０３巷","ALLEY":"１６弄","HOUSE_NO":"４８號","E_COORD97":166324.29000000001,"N_COORD97":2545818.7599999998,"ADDRESS":"中華北路一段２０３巷１６弄４８號","OBJECTID":204658},"geometry":{"x":166324.29000000004,"y":2545818.7599999998}},{"attributes":{"ID":204660,"DIS_CODE":0,"TOWNNAME":"北區","LI":"大港里","LIN":"25鄰","STREET":"中華北路","SECT":"一段","MAREA":" ","LANE":"２０３巷","ALLEY":"１６弄","HOUSE_NO":"４９號","E_COORD97":166299.94,"N_COORD97":2545821.5899999999,"ADDRESS":"中華北路一段２０３巷１６弄４９號","OBJECTID":204659},"geometry":{"x":166299.94000000041,"y":2545821.5900000017}},{"attributes":{"ID":204661,"DIS_CODE":0,"TOWNNAME":"北區","LI":"大港里","LIN":"25鄰","STREET":"中華北路","SECT":"一段","MAREA":" ","LANE":"２０３巷","ALLEY":"１６弄","HOUSE_NO":"５０號","E_COORD97":166327.51999999999,"N_COORD97":2545820.79,"ADDRESS":"中華北路一段２０３巷１６弄５０號","OBJECTID":204660},"geometry":{"x":166327.51999999862,"y":2545820.7899999991}},{"attributes":{"ID":204662,"DIS_CODE":0,"TOWNNAME":"北區","LI":"大港里","LIN":"25鄰","STREET":"中華北路","SECT":"一段","MAREA":" ","LANE":"２０３巷","ALLEY":"１６弄","HOUSE_NO":"５２號","E_COORD97":166331.26000000001,"N_COORD97":2545823.54,"ADDRESS":"中華北路一段２０３巷１６弄５２號","OBJECTID":204661},"geometry":{"x":166331.25999999885,"y":2545823.5400000028}},{"attributes":{"ID":204663,"DIS_CODE":0,"TOWNNAME":"北區","LI":"大港里","LIN":"25鄰","STREET":"中華北路","SECT":"一段","MAREA":" ","LANE":"２０３巷","ALLEY":"１６弄","HOUSE_NO":"５４號","E_COORD97":166334.19,"N_COORD97":2545826.4900000002,"ADDRESS":"中華北路一段２０３巷１６弄５４號","OBJECTID":204662},"geometry":{"x":166334.19000000227,"y":2545826.4900000021}},{"attributes":{"ID":204664,"DIS_CODE":0,"TOWNNAME":"北區","LI":"大港里","LIN":"25鄰","STREET":"中華北路","SECT":"一段","MAREA":" ","LANE":"２０３巷","ALLEY":"１６弄","HOUSE_NO":"５６號","E_COORD97":166337.22,"N_COORD97":2545830.1499999999,"ADDRESS":"中華北路一段２０３巷１６弄５６號","OBJECTID":204663},"geometry":{"x":166337.22000000067,"y":2545830.1500000004}},{"attributes":{"ID":204665,"DIS_CODE":0,"TOWNNAME":"北區","LI":"大港里","LIN":"25鄰","STREET":"中華北路","SECT":"一段","MAREA":" ","LANE":"２０３巷","ALLEY":"１６弄","HOUSE_NO":"５８號","E_COORD97":166331.29999999999,"N_COORD97":2545836.5699999998,"ADDRESS":"中華北路一段２０３巷１６弄５８號","OBJECTID":204664},"geometry":{"x":166331.30000000075,"y":2545836.5700000003}},{"attributes":{"ID":204666,"DIS_CODE":0,"TOWNNAME":"北區","LI":"大港里","LIN":"25鄰","STREET":"中華北路","SECT":"一段","MAREA":" ","LANE":"２０３巷","ALLEY":"１６弄","HOUSE_NO":"６０號","E_COORD97":166327.76000000001,"N_COORD97":2545834.3199999998,"ADDRESS":"中華北路一段２０３巷１６弄６０號","OBJECTID":204665},"geometry":{"x":166327.75999999978,"y":2545834.3200000022}},{"attributes":{"ID":204667,"DIS_CODE":0,"TOWNNAME":"北區","LI":"大港里","LIN":"25鄰","STREET":"中華北路","SECT":"一段","MAREA":" ","LANE":"２０３巷","ALLEY":"１６弄","HOUSE_NO":"６２號","E_COORD97":166324.10999999999,"N_COORD97":2545831.3799999999,"ADDRESS":"中華北路一段２０３巷１６弄６２號","OBJECTID":204666},"geometry":{"x":166324.11000000034,"y":2545831.3800000008}},{"attributes":{"ID":204668,"DIS_CODE":0,"TOWNNAME":"北區","LI":"大港里","LIN":"25鄰","STREET":"中華北路","SECT":"一段","MAREA":" ","LANE":"２０３巷","ALLEY":"１６弄","HOUSE_NO":"６４號","E_COORD97":166320.98999999999,"N_COORD97":2545828.6299999999,"ADDRESS":"中華北路一段２０３巷１６弄６４號","OBJECTID":204667},"geometry":{"x":166320.99000000022,"y":2545828.629999999}},{"attributes":{"ID":204669,"DIS_CODE":0,"TOWNNAME":"北區","LI":"大港里","LIN":"25鄰","STREET":"中華北路","SECT":"一段","MAREA":" ","LANE":"２０３巷","ALLEY":"１６弄","HOUSE_NO":"６６號","E_COORD97":166317.44,"N_COORD97":2545825.6899999999,"ADDRESS":"中華北路一段２０３巷１６弄６６號","OBJECTID":204668},"geometry":{"x":166317.44000000134,"y":2545825.6899999995}},{"attributes":{"ID":204670,"DIS_CODE":0,"TOWNNAME":"北區","LI":"大港里","LIN":"25鄰","STREET":"中華北路","SECT":"一段","MAREA":" ","LANE":"２０３巷","ALLEY":"１６弄","HOUSE_NO":"６８號","E_COORD97":166314.72,"N_COORD97":2545822.6299999999,"ADDRESS":"中華北路一段２０３巷１６弄６８號","OBJECTID":204669},"geometry":{"x":166314.7200000016,"y":2545822.6300000027}},{"attributes":{"ID":204671,"DIS_CODE":0,"TOWNNAME":"南區","LI":"大忠里","LIN":"25鄰","STREET":"公英一街","SECT":" ","MAREA":" ","LANE":"７７巷","ALLEY":"１２弄","HOUSE_NO":"１５號","E_COORD97":169249.91,"N_COORD97":2541091.8500000001,"ADDRESS":"公英一街７７巷１２弄１５號","OBJECTID":204670},"geometry":{"x":169249.91000000201,"y":2541091.8499999996}},{"attributes":{"ID":204672,"DIS_CODE":0,"TOWNNAME":"南區","LI":"大忠里","LIN":"25鄰","STREET":"公英一街","SECT":" ","MAREA":" ","LANE":"７７巷","ALLEY":"１２弄","HOUSE_NO":"１７號","E_COORD97":169246.07000000001,"N_COORD97":2541091.3700000001,"ADDRESS":"公英一街７７巷１２弄１７號","OBJECTID":204671},"geometry":{"x":169246.07000000123,"y":2541091.3700000029}},{"attributes":{"ID":204673,"DIS_CODE":0,"TOWNNAME":"南區","LI":"大忠里","LIN":"25鄰","STREET":"公英一街","SECT":" ","MAREA":" ","LANE":"７７巷","ALLEY":"１２弄","HOUSE_NO":"１９號","E_COORD97":169241.75,"N_COORD97":2541091.1299999999,"ADDRESS":"公英一街７７巷１２弄１９號","OBJECTID":204672},"geometry":{"x":169241.75,"y":2541091.1300000008}},{"attributes":{"ID":204674,"DIS_CODE":0,"TOWNNAME":"安南區","LI":"溪心里","LIN":"19鄰","STREET":"安中路","SECT":"三段","MAREA":" ","LANE":" ","ALLEY":" ","HOUSE_NO":"１０８號","E_COORD97":166089.35999999999,"N_COORD97":2549820.0899999999,"ADDRESS":"安中路三段１０８號","OBJECTID":204673},"geometry":{"x":166089.36000000127,"y":2549820.0899999999}},{"attributes":{"ID":204675,"DIS_CODE":0,"TOWNNAME":"南區","LI":"大忠里","LIN":"25鄰","STREET":"公英一街","SECT":" ","MAREA":" ","LANE":"７７巷","ALLEY":"１２弄","HOUSE_NO":"１號","E_COORD97":169280.64000000001,"N_COORD97":2541096.1600000001,"ADDRESS":"公英一街７７巷１２弄１號","OBJECTID":204674},"geometry":{"x":169280.6400000006,"y":2541096.1600000001}},{"attributes":{"ID":204676,"DIS_CODE":0,"TOWNNAME":"南區","LI":"大忠里","LIN":"25鄰","STREET":"公英一街","SECT":" ","MAREA":" ","LANE":"７７巷","ALLEY":"１２弄","HOUSE_NO":"２１號","E_COORD97":169237.91,"N_COORD97":2541091.1299999999,"ADDRESS":"公英一街７７巷１２弄２１號","OBJECTID":204675},"geometry":{"x":169237.91000000201,"y":2541091.1300000008}},{"attributes":{"ID":204677,"DIS_CODE":0,"TOWNNAME":"南區","LI":"大忠里","LIN":"25鄰","STREET":"公英一街","SECT":" ","MAREA":" ","LANE":"７７巷","ALLEY":"１２弄","HOUSE_NO":"２３號","E_COORD97":169234.29999999999,"N_COORD97":2541090.8900000001,"ADDRESS":"公英一街７７巷１２弄２３號","OBJECTID":204676},"geometry":{"x":169234.29999999981,"y":2541090.8900000025}},{"attributes":{"ID":204678,"DIS_CODE":0,"TOWNNAME":"南區","LI":"大忠里","LIN":"25鄰","STREET":"公英一街","SECT":" ","MAREA":" ","LANE":"７７巷","ALLEY":"１２弄","HOUSE_NO":"２５號","E_COORD97":169230.22,"N_COORD97":2541090.6499999999,"ADDRESS":"公英一街７７巷１２弄２５號","OBJECTID":204677},"geometry":{"x":169230.21999999881,"y":2541090.6500000004}},{"attributes":{"ID":204679,"DIS_CODE":0,"TOWNNAME":"南區","LI":"大忠里","LIN":"25鄰","STREET":"公英一街","SECT":" ","MAREA":" ","LANE":"７７巷","ALLEY":"１２弄","HOUSE_NO":"２７號","E_COORD97":169223.35999999999,"N_COORD97":2541089.6099999999,"ADDRESS":"公英一街７７巷１２弄２７號","OBJECTID":204678},"geometry":{"x":169223.3600000022,"y":2541089.6099999994}},{"attributes":{"ID":204680,"DIS_CODE":0,"TOWNNAME":"南區","LI":"大忠里","LIN":"25鄰","STREET":"公英一街","SECT":" ","MAREA":" ","LANE":"７７巷","ALLEY":"１２弄","HOUSE_NO":"３１號","E_COORD97":169216.78,"N_COORD97":2541085.7400000002,"ADDRESS":"公英一街７７巷１２弄３１號","OBJECTID":204679},"geometry":{"x":169216.78000000026,"y":2541085.7400000002}},{"attributes":{"ID":204681,"DIS_CODE":0,"TOWNNAME":"新營區","LI":"王公里","LIN":"9鄰","STREET":"義和街","SECT":" ","MAREA":" ","LANE":" ","ALLEY":" ","HOUSE_NO":"１５之２號","E_COORD97":180342.04999999999,"N_COORD97":2579035.1899999999,"ADDRESS":"義和街１５之２號","OBJECTID":204680},"geometry":{"x":180342.05000000075,"y":2579035.1900000013}},{"attributes":{"ID":204682,"DIS_CODE":0,"TOWNNAME":"新營區","LI":"王公里","LIN":"9鄰","STREET":"民族路","SECT":" ","MAREA":" ","LANE":" ","ALLEY":" ","HOUSE_NO":"８２之６號","E_COORD97":180306.29000000001,"N_COORD97":2579027.6000000001,"ADDRESS":"民族路８２之６號","OBJECTID":204681},"geometry":{"x":180306.29000000004,"y":2579027.5999999996}},{"attributes":{"ID":204683,"DIS_CODE":0,"TOWNNAME":"新營區","LI":"中營里","LIN":"9鄰","STREET":"同濟街","SECT":" ","MAREA":" ","LANE":" ","ALLEY":" ","HOUSE_NO":"１２號","E_COORD97":180504.60999999999,"N_COORD97":2578244.75,"ADDRESS":"同濟街１２號","OBJECTID":204682},"geometry":{"x":180504.6099999994,"y":2578244.75}},{"attributes":{"ID":204684,"DIS_CODE":0,"TOWNNAME":"新營區","LI":"新南里","LIN":"9鄰","STREET":"新北五街","SECT":" ","MAREA":" ","LANE":" ","ALLEY":" ","HOUSE_NO":"１３５號","E_COORD97":178573.87,"N_COORD97":2579141.0099999998,"ADDRESS":"新北五街１３５號","OBJECTID":204683},"geometry":{"x":178573.87000000104,"y":2579141.0099999998}},{"attributes":{"ID":204685,"DIS_CODE":0,"TOWNNAME":"新營區","LI":"王公里","LIN":"9鄰","STREET":"義和街","SECT":" ","MAREA":" ","LANE":" ","ALLEY":" ","HOUSE_NO":"１５號之１","E_COORD97":180349.20000000001,"N_COORD97":2579030.7200000002,"ADDRESS":"義和街１５號之１","OBJECTID":204684},"geometry":{"x":180349.20000000019,"y":2579030.7200000025}},{"attributes":{"ID":204686,"DIS_CODE":0,"TOWNNAME":"新營區","LI":"王公里","LIN":"9鄰","STREET":"義和街","SECT":" ","MAREA":" ","LANE":" ","ALLEY":" ","HOUSE_NO":"４６之１號","E_COORD97":180313.60000000001,"N_COORD97":2579057.4700000002,"ADDRESS":"義和街４６之１號","OBJECTID":204685},"geometry":{"x":180313.59999999963,"y":2579057.4700000007}},{"attributes":{"ID":204687,"DIS_CODE":0,"TOWNNAME":"南區","LI":"大忠里","LIN":"25鄰","STREET":"公英一街","SECT":" ","MAREA":" ","LANE":"７７巷","ALLEY":"１２弄","HOUSE_NO":"３３號","E_COORD97":169210.35000000001,"N_COORD97":2541085.2000000002,"ADDRESS":"公英一街７７巷１２弄３３號","OBJECTID":204686},"geometry":{"x":169210.34999999963,"y":2541085.1999999993}},{"attributes":{"ID":204688,"DIS_CODE":0,"TOWNNAME":"南區","LI":"大忠里","LIN":"25鄰","STREET":"公英一街","SECT":" ","MAREA":" ","LANE":"７７巷","ALLEY":"１２弄","HOUSE_NO":"３號","E_COORD97":169275.60000000001,"N_COORD97":2541095.4399999999,"ADDRESS":"公英一街７７巷１２弄３號","OBJECTID":204687},"geometry":{"x":169275.60000000056,"y":2541095.4400000013}},{"attributes":{"ID":204689,"DIS_CODE":0,"TOWNNAME":"新營區","LI":"好平里","LIN":"9鄰","STREET":"和平路","SECT":" ","MAREA":" ","LANE":" ","ALLEY":" ","HOUSE_NO":"３９號","E_COORD97":179450.51999999999,"N_COORD97":2577900.8900000001,"ADDRESS":"和平路３９號","OBJECTID":204688},"geometry":{"x":179450.52000000048,"y":2577900.8900000006}},{"attributes":{"ID":204690,"DIS_CODE":0,"TOWNNAME":"南區","LI":"大忠里","LIN":"25鄰","STREET":"公英一街","SECT":" ","MAREA":" ","LANE":"７７巷","ALLEY":"１２弄","HOUSE_NO":"５號","E_COORD97":169270.56,"N_COORD97":2541095.9199999999,"ADDRESS":"公英一街７７巷１２弄５號","OBJECTID":204689},"geometry":{"x":169270.56000000052,"y":2541095.9200000018}},{"attributes":{"ID":204691,"DIS_CODE":0,"TOWNNAME":"南區","LI":"大忠里","LIN":"25鄰","STREET":"公英一街","SECT":" ","MAREA":" ","LANE":"７７巷","ALLEY":"１２弄","HOUSE_NO":"７號","E_COORD97":169266.23999999999,"N_COORD97":2541093.0499999998,"ADDRESS":"公英一街７７巷１２弄７號","OBJECTID":204690},"geometry":{"x":169266.23999999929,"y":2541093.0500000026}},{"attributes":{"ID":204692,"DIS_CODE":0,"TOWNNAME":"新營區","LI":"埤寮里","LIN":"9鄰","STREET":" ","SECT":" ","MAREA":"埤寮","LANE":" ","ALLEY":" ","HOUSE_NO":"６０之２號","E_COORD97":180520.64999999999,"N_COORD97":2580908.1600000001,"ADDRESS":"埤寮６０之２號","OBJECTID":204691},"geometry":{"x":180520.65000000037,"y":2580908.160000002}},{"attributes":{"ID":204693,"DIS_CODE":0,"TOWNNAME":"新營區","LI":"鐵線里","LIN":"9鄰","STREET":" ","SECT":" ","MAREA":"鐵線橋","LANE":" ","ALLEY":" ","HOUSE_NO":"１００號","E_COORD97":175977.91,"N_COORD97":2574011.8300000001,"ADDRESS":"鐵線橋１００號","OBJECTID":204692},"geometry":{"x":175977.90999999922,"y":2574011.8300000001}},{"attributes":{"ID":204694,"DIS_CODE":0,"TOWNNAME":"新營區","LI":"姑爺里","LIN":"9鄰","STREET":" ","SECT":" ","MAREA":"挖仔","LANE":" ","ALLEY":" ","HOUSE_NO":"１９號","E_COORD97":173775.06,"N_COORD97":2575461.5699999998,"ADDRESS":"挖仔１９號","OBJECTID":204693},"geometry":{"x":173775.06000000052,"y":2575461.5700000003}},{"attributes":{"ID":204695,"DIS_CODE":0,"TOWNNAME":"將軍區","LI":"忠興里","LIN":"2鄰","STREET":" ","SECT":" ","MAREA":"忠興","LANE":" ","ALLEY":" ","HOUSE_NO":"３６之１１號","E_COORD97":163638.14000000001,"N_COORD97":2566754.0499999998,"ADDRESS":"忠興３６之１１號","OBJECTID":204694},"geometry":{"x":163638.13999999966,"y":2566754.0500000045}},{"attributes":{"ID":204696,"DIS_CODE":0,"TOWNNAME":"將軍區","LI":"忠興里","LIN":"2鄰","STREET":" ","SECT":" ","MAREA":"忠興","LANE":" ","ALLEY":" ","HOUSE_NO":"３６之１２號","E_COORD97":163635.39000000001,"N_COORD97":2566757.7400000002,"ADDRESS":"忠興３６之１２號","OBJECTID":204695},"geometry":{"x":163635.3900000006,"y":2566757.7400000002}},{"attributes":{"ID":204697,"DIS_CODE":0,"TOWNNAME":"將軍區","LI":"忠興里","LIN":"2鄰","STREET":" ","SECT":" ","MAREA":"忠興","LANE":" ","ALLEY":" ","HOUSE_NO":"３６之１３號","E_COORD97":163631.39000000001,"N_COORD97":2566761.9900000002,"ADDRESS":"忠興３６之１３號","OBJECTID":204696},"geometry":{"x":163631.38999999966,"y":2566761.9900000021}},{"attributes":{"ID":204698,"DIS_CODE":0,"TOWNNAME":"將軍區","LI":"忠興里","LIN":"2鄰","STREET":" ","SECT":" ","MAREA":"忠興","LANE":" ","ALLEY":" ","HOUSE_NO":"３６之１４號","E_COORD97":163629,"N_COORD97":2566766.2599999998,"ADDRESS":"忠興３６之１４號","OBJECTID":204697},"geometry":{"x":163629,"y":2566766.2600000016}},{"attributes":{"ID":204699,"DIS_CODE":0,"TOWNNAME":"將軍區","LI":"忠興里","LIN":"2鄰","STREET":" ","SECT":" ","MAREA":"忠興","LANE":" ","ALLEY":" ","HOUSE_NO":"３６之１５號","E_COORD97":163624.87,"N_COORD97":2566770.8999999999,"ADDRESS":"忠興３６之１５號","OBJECTID":204698},"geometry":{"x":163624.87000000011,"y":2566770.9000000004}},{"attributes":{"ID":204700,"DIS_CODE":0,"TOWNNAME":"將軍區","LI":"忠興里","LIN":"2鄰","STREET":" ","SECT":" ","MAREA":"忠興","LANE":" ","ALLEY":" ","HOUSE_NO":"３６之１６號","E_COORD97":163642.78,"N_COORD97":2566766.9100000001,"ADDRESS":"忠興３６之１６號","OBJECTID":204699},"geometry":{"x":163642.78000000026,"y":2566766.9100000001}},{"attributes":{"ID":204701,"DIS_CODE":0,"TOWNNAME":"將軍區","LI":"忠興里","LIN":"2鄰","STREET":" ","SECT":" ","MAREA":"忠興","LANE":" ","ALLEY":" ","HOUSE_NO":"３６之１７號","E_COORD97":163647.42999999999,"N_COORD97":2566766.4300000002,"ADDRESS":"忠興３６之１７號","OBJECTID":204700},"geometry":{"x":163647.43000000063,"y":2566766.4299999997}},{"attributes":{"ID":204702,"DIS_CODE":0,"TOWNNAME":"將軍區","LI":"忠興里","LIN":"2鄰","STREET":" ","SECT":" ","MAREA":"忠興","LANE":" ","ALLEY":" ","HOUSE_NO":"３６之１８號","E_COORD97":163694.70999999999,"N_COORD97":2566735.6000000001,"ADDRESS":"忠興３６之１８號","OBJECTID":204701},"geometry":{"x":163694.71000000089,"y":2566735.6000000015}},{"attributes":{"ID":204703,"DIS_CODE":0,"TOWNNAME":"將軍區","LI":"忠興里","LIN":"2鄰","STREET":" ","SECT":" ","MAREA":"忠興","LANE":" ","ALLEY":" ","HOUSE_NO":"３６之１９號","E_COORD97":163659.09,"N_COORD97":2566772.9199999999,"ADDRESS":"忠興３６之１９號","OBJECTID":204702},"geometry":{"x":163659.08999999985,"y":2566772.9199999999}},{"attributes":{"ID":204704,"DIS_CODE":0,"TOWNNAME":"將軍區","LI":"忠興里","LIN":"2鄰","STREET":" ","SECT":" ","MAREA":"忠興","LANE":" ","ALLEY":" ","HOUSE_NO":"３６之２０號","E_COORD97":163660.26000000001,"N_COORD97":2566766.6400000001,"ADDRESS":"忠興３６之２０號","OBJECTID":204703},"geometry":{"x":163660.26000000071,"y":2566766.6400000043}},{"attributes":{"ID":204705,"DIS_CODE":0,"TOWNNAME":"新營區","LI":"新北里","LIN":"9鄰","STREET":"三興街","SECT":" ","MAREA":" ","LANE":" ","ALLEY":" ","HOUSE_NO":"３１７號","E_COORD97":179300.04999999999,"N_COORD97":2579758.8100000001,"ADDRESS":"三興街３１７號","OBJECTID":204704},"geometry":{"x":179300.05000000075,"y":2579758.8100000024}},{"attributes":{"ID":204706,"DIS_CODE":0,"TOWNNAME":"新營區","LI":"三仙里","LIN":"9鄰","STREET":"博愛街","SECT":" ","MAREA":" ","LANE":" ","ALLEY":" ","HOUSE_NO":"９６號之３","E_COORD97":179635.81,"N_COORD97":2578129.3100000001,"ADDRESS":"博愛街９６號之３","OBJECTID":204705},"geometry":{"x":179635.80999999959,"y":2578129.3100000005}},{"attributes":{"ID":204707,"DIS_CODE":0,"TOWNNAME":"新營區","LI":"新北里","LIN":"9鄰","STREET":"三興街","SECT":" ","MAREA":" ","LANE":" ","ALLEY":" ","HOUSE_NO":"３２５號","E_COORD97":179298.07999999999,"N_COORD97":2579775.4300000002,"ADDRESS":"三興街３２５號","OBJECTID":204706},"geometry":{"x":179298.08000000101,"y":2579775.4299999997}},{"attributes":{"ID":204708,"DIS_CODE":0,"TOWNNAME":"南區","LI":"大忠里","LIN":"25鄰","STREET":"公英一街","SECT":" ","MAREA":" ","LANE":"７７巷","ALLEY":"１２弄","HOUSE_NO":"９號","E_COORD97":169261.92000000001,"N_COORD97":2541092.3300000001,"ADDRESS":"公英一街７７巷１２弄９號","OBJECTID":204707},"geometry":{"x":169261.92000000086,"y":2541092.3300000001}},{"attributes":{"ID":204709,"DIS_CODE":0,"TOWNNAME":"新營區","LI":"新南里","LIN":"25鄰","STREET":"復興路","SECT":" ","MAREA":" ","LANE":"６２０巷","ALLEY":"３８弄","HOUSE_NO":"１９號","E_COORD97":178095.39999999999,"N_COORD97":2578473.8799999999,"ADDRESS":"復興路６２０巷３８弄１９號","OBJECTID":204708},"geometry":{"x":178095.40000000037,"y":2578473.8800000008}},{"attributes":{"ID":204710,"DIS_CODE":0,"TOWNNAME":"新營區","LI":"新南里","LIN":"25鄰","STREET":"復興路","SECT":" ","MAREA":" ","LANE":"６２０巷","ALLEY":"３８弄","HOUSE_NO":"２１號","E_COORD97":178099.34,"N_COORD97":2578473.8100000001,"ADDRESS":"復興路６２０巷３８弄２１號","OBJECTID":204709},"geometry":{"x":178099.34000000078,"y":2578473.8100000024}},{"attributes":{"ID":204711,"DIS_CODE":0,"TOWNNAME":"新營區","LI":"新南里","LIN":"25鄰","STREET":"復興路","SECT":" ","MAREA":" ","LANE":"６２０巷","ALLEY":"３８弄","HOUSE_NO":"２３號","E_COORD97":178103.01999999999,"N_COORD97":2578473.5499999998,"ADDRESS":"復興路６２０巷３８弄２３號","OBJECTID":204710},"geometry":{"x":178103.02000000048,"y":2578473.5500000007}},{"attributes":{"ID":204712,"DIS_CODE":0,"TOWNNAME":"新營區","LI":"新南里","LIN":"25鄰","STREET":"復興路","SECT":" ","MAREA":" ","LANE":"６２０巷","ALLEY":"３８弄","HOUSE_NO":"２５號","E_COORD97":178107.48000000001,"N_COORD97":2578473.5499999998,"ADDRESS":"復興路６２０巷３８弄２５號","OBJECTID":204711},"geometry":{"x":178107.48000000138,"y":2578473.5500000007}},{"attributes":{"ID":204713,"DIS_CODE":0,"TOWNNAME":"新營區","LI":"姑爺里","LIN":"9鄰","STREET":" ","SECT":" ","MAREA":"挖仔","LANE":" ","ALLEY":" ","HOUSE_NO":"２５號","E_COORD97":173795.17000000001,"N_COORD97":2575378.3999999999,"ADDRESS":"挖仔２５號","OBJECTID":204712},"geometry":{"x":173795.17000000086,"y":2575378.4000000004}},{"attributes":{"ID":204714,"DIS_CODE":0,"TOWNNAME":"新營區","LI":"太南里","LIN":"9鄰","STREET":" ","SECT":" ","MAREA":"太子宮","LANE":" ","ALLEY":" ","HOUSE_NO":"２３９之７號","E_COORD97":175988.88,"N_COORD97":2576923.3399999999,"ADDRESS":"太子宮２３９之７號","OBJECTID":204713},"geometry":{"x":175988.88000000082,"y":2576923.3400000017}},{"attributes":{"ID":204715,"DIS_CODE":0,"TOWNNAME":"新營區","LI":"太南里","LIN":"9鄰","STREET":" ","SECT":" ","MAREA":"太子宮","LANE":" ","ALLEY":" ","HOUSE_NO":"２３８號","E_COORD97":176020.17999999999,"N_COORD97":2576931.98,"ADDRESS":"太子宮２３８號","OBJECTID":204714},"geometry":{"x":176020.18000000063,"y":2576931.9800000042}},{"attributes":{"ID":204716,"DIS_CODE":0,"TOWNNAME":"永康區","LI":"永康里","LIN":"25鄰","STREET":"中山北路","SECT":" ","MAREA":" ","LANE":"１２３巷","ALLEY":"１１弄","HOUSE_NO":"２３號","E_COORD97":174072.59,"N_COORD97":2547571.6000000001,"ADDRESS":"中山北路１２３巷１１弄２３號","OBJECTID":204715},"geometry":{"x":174072.58999999985,"y":2547571.5999999996}},{"attributes":{"ID":204717,"DIS_CODE":0,"TOWNNAME":"永康區","LI":"永康里","LIN":"25鄰","STREET":"中山北路","SECT":" ","MAREA":" ","LANE":"１２３巷","ALLEY":"１１弄","HOUSE_NO":"１１號","E_COORD97":174078.64000000001,"N_COORD97":2547561.7799999998,"ADDRESS":"中山北路１２３巷１１弄１１號","OBJECTID":204716},"geometry":{"x":174078.63999999966,"y":2547561.7800000012}},{"attributes":{"ID":204718,"DIS_CODE":0,"TOWNNAME":"永康區","LI":"勝利里","LIN":"25鄰","STREET":"中華路","SECT":" ","MAREA":" ","LANE":"１５５巷","ALLEY":"３４弄","HOUSE_NO":"２之２號","E_COORD97":171485.41,"N_COORD97":2544861.1800000002,"ADDRESS":"中華路１５５巷３４弄２之２號","OBJECTID":204717},"geometry":{"x":171485.41000000015,"y":2544861.1800000016}},{"attributes":{"ID":204719,"DIS_CODE":0,"TOWNNAME":"南區","LI":"明亮里","LIN":"25鄰","STREET":"金華路","SECT":"一段","MAREA":" ","LANE":"４８４巷","ALLEY":"５０弄","HOUSE_NO":"１號","E_COORD97":167138.28,"N_COORD97":2541427.3999999999,"ADDRESS":"金華路一段４８４巷５０弄１號","OBJECTID":204718},"geometry":{"x":167138.28000000026,"y":2541427.4000000004}},{"attributes":{"ID":204720,"DIS_CODE":0,"TOWNNAME":"南區","LI":"明亮里","LIN":"25鄰","STREET":"金華路","SECT":"一段","MAREA":" ","LANE":"４８４巷","ALLEY":"５０弄","HOUSE_NO":"２號","E_COORD97":167129.04000000001,"N_COORD97":2541433.2000000002,"ADDRESS":"金華路一段４８４巷５０弄２號","OBJECTID":204719},"geometry":{"x":167129.04000000004,"y":2541433.2000000011}},{"attributes":{"ID":204721,"DIS_CODE":0,"TOWNNAME":"南區","LI":"明亮里","LIN":"25鄰","STREET":"金華路","SECT":"一段","MAREA":" ","LANE":"４８４巷","ALLEY":"５０弄","HOUSE_NO":"３號","E_COORD97":167136.67000000001,"N_COORD97":2541423.5699999998,"ADDRESS":"金華路一段４８４巷５０弄３號","OBJECTID":204720},"geometry":{"x":167136.66999999993,"y":2541423.570000004}},{"attributes":{"ID":204722,"DIS_CODE":0,"TOWNNAME":"南區","LI":"明亮里","LIN":"25鄰","STREET":"金華路","SECT":"一段","MAREA":" ","LANE":"４８４巷","ALLEY":"５０弄","HOUSE_NO":"４號","E_COORD97":167127.12,"N_COORD97":2541429.3700000001,"ADDRESS":"金華路一段４８４巷５０弄４號","OBJECTID":204721},"geometry":{"x":167127.12000000011,"y":2541429.3700000048}},{"attributes":{"ID":204723,"DIS_CODE":0,"TOWNNAME":"南區","LI":"明亮里","LIN":"25鄰","STREET":"金華路","SECT":"一段","MAREA":" ","LANE":"４８４巷","ALLEY":"５０弄","HOUSE_NO":"６號","E_COORD97":167125.67999999999,"N_COORD97":2541425.5299999998,"ADDRESS":"金華路一段４８４巷５０弄６號","OBJECTID":204722},"geometry":{"x":167125.68000000063,"y":2541425.5299999993}},{"attributes":{"ID":204724,"DIS_CODE":0,"TOWNNAME":"南區","LI":"明亮里","LIN":"25鄰","STREET":"金華路","SECT":"一段","MAREA":" ","LANE":"４８４巷","ALLEY":"５０弄","HOUSE_NO":"７號","E_COORD97":167132.84,"N_COORD97":2541416.73,"ADDRESS":"金華路一段４８４巷５０弄７號","OBJECTID":204723},"geometry":{"x":167132.84000000078,"y":2541416.7300000023}},{"attributes":{"ID":204725,"DIS_CODE":0,"TOWNNAME":"南區","LI":"明亮里","LIN":"25鄰","STREET":"金華路","SECT":"一段","MAREA":" ","LANE":"４８４巷","ALLEY":"５０弄","HOUSE_NO":"８號","E_COORD97":167123.28,"N_COORD97":2541422.1699999999,"ADDRESS":"金華路一段４８４巷５０弄８號","OBJECTID":204724},"geometry":{"x":167123.27999999933,"y":2541422.1699999999}},{"attributes":{"ID":204726,"DIS_CODE":0,"TOWNNAME":"南區","LI":"明亮里","LIN":"25鄰","STREET":"金華路","SECT":"一段","MAREA":" ","LANE":"４８４巷","ALLEY":"５０弄","HOUSE_NO":"９號","E_COORD97":167130.82000000001,"N_COORD97":2541412.8999999999,"ADDRESS":"金華路一段４８４巷５０弄９號","OBJECTID":204725},"geometry":{"x":167130.8200000003,"y":2541412.9000000022}},{"attributes":{"ID":204727,"DIS_CODE":0,"TOWNNAME":"將軍區","LI":"忠興里","LIN":"2鄰","STREET":" ","SECT":" ","MAREA":"忠興","LANE":" ","ALLEY":" ","HOUSE_NO":"３６之２１號","E_COORD97":163661.07999999999,"N_COORD97":2566761.9300000002,"ADDRESS":"忠興３６之２１號","OBJECTID":204726},"geometry":{"x":163661.08000000007,"y":2566761.9300000016}},{"attributes":{"ID":204728,"DIS_CODE":0,"TOWNNAME":"將軍區","LI":"忠興里","LIN":"2鄰","STREET":" ","SECT":" ","MAREA":"忠興","LANE":" ","ALLEY":" ","HOUSE_NO":"３６之２２號","E_COORD97":163662.79000000001,"N_COORD97":2566756.96,"ADDRESS":"忠興３６之２２號","OBJECTID":204727},"geometry":{"x":163662.79000000004,"y":2566756.9600000009}},{"attributes":{"ID":204729,"DIS_CODE":0,"TOWNNAME":"將軍區","LI":"忠興里","LIN":"2鄰","STREET":" ","SECT":" ","MAREA":"忠興","LANE":" ","ALLEY":" ","HOUSE_NO":"３６之２３號","E_COORD97":163664.69,"N_COORD97":2566752.3599999999,"ADDRESS":"忠興３６之２３號","OBJECTID":204728},"geometry":{"x":163664.69000000134,"y":2566752.3599999994}},{"attributes":{"ID":204730,"DIS_CODE":0,"TOWNNAME":"將軍區","LI":"忠興里","LIN":"2鄰","STREET":" ","SECT":" ","MAREA":"忠興","LANE":" ","ALLEY":" ","HOUSE_NO":"３６之２４號","E_COORD97":163666.60000000001,"N_COORD97":2566747.8199999998,"ADDRESS":"忠興３６之２４號","OBJECTID":204729},"geometry":{"x":163666.59999999963,"y":2566747.8200000003}},{"attributes":{"ID":204731,"DIS_CODE":0,"TOWNNAME":"將軍區","LI":"忠興里","LIN":"2鄰","STREET":" ","SECT":" ","MAREA":"忠興","LANE":" ","ALLEY":" ","HOUSE_NO":"３６之２５號","E_COORD97":163668.73999999999,"N_COORD97":2566741.9900000002,"ADDRESS":"忠興３６之２５號","OBJECTID":204730},"geometry":{"x":163668.74000000209,"y":2566741.9900000002}},{"attributes":{"ID":204732,"DIS_CODE":0,"TOWNNAME":"安平區","LI":"金城里","LIN":"9鄰","STREET":"同平路","SECT":" ","MAREA":" ","LANE":" ","ALLEY":" ","HOUSE_NO":"１５０號","E_COORD97":163141.23000000001,"N_COORD97":2544042.6200000001,"ADDRESS":"同平路１５０號","OBJECTID":204731},"geometry":{"x":163141.23000000045,"y":2544042.6200000029}},{"attributes":{"ID":204733,"DIS_CODE":0,"TOWNNAME":"安平區","LI":"金城里","LIN":"9鄰","STREET":"同平路","SECT":" ","MAREA":" ","LANE":" ","ALLEY":" ","HOUSE_NO":"１５４號","E_COORD97":163141.85999999999,"N_COORD97":2544021.8799999999,"ADDRESS":"同平路１５４號","OBJECTID":204732},"geometry":{"x":163141.86000000034,"y":2544021.8800000008}},{"attributes":{"ID":204734,"DIS_CODE":0,"TOWNNAME":"安南區","LI":"溪心里","LIN":"19鄰","STREET":"安中路","SECT":"三段","MAREA":" ","LANE":" ","ALLEY":" ","HOUSE_NO":"１１０號","E_COORD97":166085.07999999999,"N_COORD97":2549821.8199999998,"ADDRESS":"安中路三段１１０號","OBJECTID":204733},"geometry":{"x":166085.08000000007,"y":2549821.8200000003}},{"attributes":{"ID":204735,"DIS_CODE":0,"TOWNNAME":"安南區","LI":"溪心里","LIN":"19鄰","STREET":"安中路","SECT":"三段","MAREA":" ","LANE":" ","ALLEY":" ","HOUSE_NO":"１１２號","E_COORD97":166081.28,"N_COORD97":2549823.6400000001,"ADDRESS":"安中路三段１１２號","OBJECTID":204734},"geometry":{"x":166081.28000000119,"y":2549823.6400000006}},{"attributes":{"ID":204736,"DIS_CODE":0,"TOWNNAME":"安南區","LI":"溪心里","LIN":"19鄰","STREET":"安中路","SECT":"三段","MAREA":" ","LANE":" ","ALLEY":" ","HOUSE_NO":"１１６號","E_COORD97":166076.82999999999,"N_COORD97":2549823.9700000002,"ADDRESS":"安中路三段１１６號","OBJECTID":204735},"geometry":{"x":166076.82999999914,"y":2549823.9700000025}},{"attributes":{"ID":204737,"DIS_CODE":0,"TOWNNAME":"安南區","LI":"溪心里","LIN":"19鄰","STREET":"安中路","SECT":"三段","MAREA":" ","LANE":" ","ALLEY":" ","HOUSE_NO":"１１８號","E_COORD97":166073.53,"N_COORD97":2549824.54,"ADDRESS":"安中路三段１１８號","OBJECTID":204736},"geometry":{"x":166073.53000000026,"y":2549824.540000001}},{"attributes":{"ID":204738,"DIS_CODE":0,"TOWNNAME":"安南區","LI":"溪心里","LIN":"19鄰","STREET":"安中路","SECT":"三段","MAREA":" ","LANE":" ","ALLEY":" ","HOUSE_NO":"１２０號","E_COORD97":166069.07999999999,"N_COORD97":2549825.2000000002,"ADDRESS":"安中路三段１２０號","OBJECTID":204737},"geometry":{"x":166069.08000000101,"y":2549825.1999999993}},{"attributes":{"ID":204739,"DIS_CODE":0,"TOWNNAME":"南區","LI":"明亮里","LIN":"25鄰","STREET":"金華路","SECT":"一段","MAREA":" ","LANE":"４８４巷","ALLEY":"５０弄","HOUSE_NO":"１０號","E_COORD97":167121.84,"N_COORD97":2541417.8500000001,"ADDRESS":"金華路一段４８４巷５０弄１０號","OBJECTID":204738},"geometry":{"x":167121.83999999985,"y":2541417.8500000034}},{"attributes":{"ID":204740,"DIS_CODE":0,"TOWNNAME":"南區","LI":"明亮里","LIN":"25鄰","STREET":"金華路","SECT":"一段","MAREA":" ","LANE":"４８４巷","ALLEY":"５０弄","HOUSE_NO":"１１號","E_COORD97":167128.60000000001,"N_COORD97":2541409.48,"ADDRESS":"金華路一段４８４巷５０弄１１號","OBJECTID":204739},"geometry":{"x":167128.59999999963,"y":2541409.4800000004}},{"attributes":{"ID":204741,"DIS_CODE":0,"TOWNNAME":"南區","LI":"明亮里","LIN":"25鄰","STREET":"金華路","SECT":"一段","MAREA":" ","LANE":"４８４巷","ALLEY":"５０弄","HOUSE_NO":"１２號","E_COORD97":167119.42999999999,"N_COORD97":2541414.5,"ADDRESS":"金華路一段４８４巷５０弄１２號","OBJECTID":204740},"geometry":{"x":167119.4299999997,"y":2541414.5000000019}},{"attributes":{"ID":204742,"DIS_CODE":0,"TOWNNAME":"南區","LI":"明亮里","LIN":"25鄰","STREET":"金華路","SECT":"一段","MAREA":" ","LANE":"４８４巷","ALLEY":"５０弄","HOUSE_NO":"１３號","E_COORD97":167125.98000000001,"N_COORD97":2541405.46,"ADDRESS":"金華路一段４８４巷５０弄１３號","OBJECTID":204741},"geometry":{"x":167125.98000000138,"y":2541405.4600000028}},{"attributes":{"ID":204743,"DIS_CODE":0,"TOWNNAME":"南區","LI":"明亮里","LIN":"25鄰","STREET":"金華路","SECT":"一段","MAREA":" ","LANE":"４８４巷","ALLEY":"５０弄","HOUSE_NO":"１４號","E_COORD97":167117.51000000001,"N_COORD97":2541410.6600000001,"ADDRESS":"金華路一段４８４巷５０弄１４號","OBJECTID":204742},"geometry":{"x":167117.50999999978,"y":2541410.660000002}},{"attributes":{"ID":204744,"DIS_CODE":0,"TOWNNAME":"南區","LI":"明亮里","LIN":"25鄰","STREET":"金華路","SECT":"一段","MAREA":" ","LANE":"４８４巷","ALLEY":"５０弄","HOUSE_NO":"２２號","E_COORD97":167110.31,"N_COORD97":2541396.27,"ADDRESS":"金華路一段４８４巷５０弄２２號","OBJECTID":204743},"geometry":{"x":167110.30999999959,"y":2541396.2699999996}},{"attributes":{"ID":204745,"DIS_CODE":0,"TOWNNAME":"南區","LI":"明亮里","LIN":"25鄰","STREET":"金華路","SECT":"一段","MAREA":" ","LANE":"４８４巷","ALLEY":"５０弄","HOUSE_NO":"２３號","E_COORD97":167117.01000000001,"N_COORD97":2541387.1099999999,"ADDRESS":"金華路一段４８４巷５０弄２３號","OBJECTID":204744},"geometry":{"x":167117.01000000071,"y":2541387.1099999994}},{"attributes":{"ID":204746,"DIS_CODE":0,"TOWNNAME":"南區","LI":"明亮里","LIN":"25鄰","STREET":"金華路","SECT":"一段","MAREA":" ","LANE":"４８４巷","ALLEY":"５０弄","HOUSE_NO":"２４號","E_COORD97":167108.39000000001,"N_COORD97":2541391.9500000002,"ADDRESS":"金華路一段４８４巷５０弄２４號","OBJECTID":204745},"geometry":{"x":167108.39000000153,"y":2541391.9499999993}},{"attributes":{"ID":204747,"DIS_CODE":0,"TOWNNAME":"南區","LI":"明亮里","LIN":"25鄰","STREET":"金華路","SECT":"一段","MAREA":" ","LANE":"４８４巷","ALLEY":"５０弄","HOUSE_NO":"２５號","E_COORD97":167114.76999999999,"N_COORD97":2541383.9199999999,"ADDRESS":"金華路一段４８４巷５０弄２５號","OBJECTID":204746},"geometry":{"x":167114.77000000048,"y":2541383.9200000018}},{"attributes":{"ID":204748,"DIS_CODE":0,"TOWNNAME":"南區","LI":"明亮里","LIN":"25鄰","STREET":"金華路","SECT":"一段","MAREA":" ","LANE":"４８４巷","ALLEY":"５０弄","HOUSE_NO":"２６號","E_COORD97":167105.82000000001,"N_COORD97":2541388.3900000001,"ADDRESS":"金華路一段４８４巷５０弄２６號","OBJECTID":204747},"geometry":{"x":167105.8200000003,"y":2541388.3900000025}},{"attributes":{"ID":204749,"DIS_CODE":0,"TOWNNAME":"南區","LI":"明亮里","LIN":"25鄰","STREET":"金華路","SECT":"一段","MAREA":" ","LANE":"４８４巷","ALLEY":"５０弄","HOUSE_NO":"２７號","E_COORD97":167113.48999999999,"N_COORD97":2541379.1299999999,"ADDRESS":"金華路一段４８４巷５０弄２７號","OBJECTID":204748},"geometry":{"x":167113.49000000209,"y":2541379.1300000008}},{"attributes":{"ID":204750,"DIS_CODE":0,"TOWNNAME":"南區","LI":"明亮里","LIN":"25鄰","STREET":"金華路","SECT":"一段","MAREA":" ","LANE":"４８４巷","ALLEY":"５０弄","HOUSE_NO":"２８號","E_COORD97":167102.62,"N_COORD97":2541385.2000000002,"ADDRESS":"金華路一段４８４巷５０弄２８號","OBJECTID":204749},"geometry":{"x":167102.62000000104,"y":2541385.2000000011}},{"attributes":{"ID":204751,"DIS_CODE":0,"TOWNNAME":"南區","LI":"明亮里","LIN":"25鄰","STREET":"金華路","SECT":"一段","MAREA":" ","LANE":"４８４巷","ALLEY":"５０弄","HOUSE_NO":"２９號","E_COORD97":167111.89000000001,"N_COORD97":2541374.98,"ADDRESS":"金華路一段４８４巷５０弄２９號","OBJECTID":204750},"geometry":{"x":167111.89000000153,"y":2541374.9800000023}},{"attributes":{"ID":204752,"DIS_CODE":0,"TOWNNAME":"南區","LI":"明亮里","LIN":"25鄰","STREET":"金華路","SECT":"一段","MAREA":" ","LANE":"４８４巷","ALLEY":"５０弄","HOUSE_NO":"３０號","E_COORD97":167099.42000000001,"N_COORD97":2541382.3199999998,"ADDRESS":"金華路一段４８４巷５０弄３０號","OBJECTID":204751},"geometry":{"x":167099.41999999993,"y":2541382.3200000022}},{"attributes":{"ID":204753,"DIS_CODE":0,"TOWNNAME":"南區","LI":"明亮里","LIN":"25鄰","STREET":"金華路","SECT":"一段","MAREA":" ","LANE":"４８４巷","ALLEY":"５０弄","HOUSE_NO":"３１號","E_COORD97":167109.66,"N_COORD97":2541371.1400000001,"ADDRESS":"金華路一段４８４巷５０弄３１號","OBJECTID":204752},"geometry":{"x":167109.66000000015,"y":2541371.1400000006}},{"attributes":{"ID":204754,"DIS_CODE":0,"TOWNNAME":"東區","LI":"忠孝里","LIN":"25鄰","STREET":"崇明三街","SECT":" ","MAREA":" ","LANE":"３８巷","ALLEY":"７弄","HOUSE_NO":"３號","E_COORD97":169625.39999999999,"N_COORD97":2542318.5800000001,"ADDRESS":"崇明三街３８巷７弄３號","OBJECTID":204753},"geometry":{"x":169625.4000000013,"y":2542318.5800000038}},{"attributes":{"ID":204755,"DIS_CODE":0,"TOWNNAME":"東區","LI":"忠孝里","LIN":"25鄰","STREET":"崇明三街","SECT":" ","MAREA":" ","LANE":"３８巷","ALLEY":"７弄","HOUSE_NO":"５號","E_COORD97":169622.06,"N_COORD97":2542316.9199999999,"ADDRESS":"崇明三街３８巷７弄５號","OBJECTID":204754},"geometry":{"x":169622.05999999959,"y":2542316.9200000018}},{"attributes":{"ID":204756,"DIS_CODE":0,"TOWNNAME":"東區","LI":"忠孝里","LIN":"25鄰","STREET":"崇明三街","SECT":" ","MAREA":" ","LANE":"３８巷","ALLEY":"７弄","HOUSE_NO":"７號","E_COORD97":169618.10000000001,"N_COORD97":2542315.46,"ADDRESS":"崇明三街３８巷７弄７號","OBJECTID":204755},"geometry":{"x":169618.10000000056,"y":2542315.4600000009}},{"attributes":{"ID":204757,"DIS_CODE":0,"TOWNNAME":"永康區","LI":"東灣里","LIN":"25鄰","STREET":"大灣二街","SECT":" ","MAREA":" ","LANE":"７１巷","ALLEY":"３９弄","HOUSE_NO":"８號","E_COORD97":174835.64000000001,"N_COORD97":2544651.6699999999,"ADDRESS":"大灣二街７１巷３９弄８號","OBJECTID":204756},"geometry":{"x":174835.6400000006,"y":2544651.6700000018}},{"attributes":{"ID":204758,"DIS_CODE":0,"TOWNNAME":"安南區","LI":"州北里","LIN":"25鄰","STREET":"安和路","SECT":"五段","MAREA":" ","LANE":"１７１巷","ALLEY":"２７弄","HOUSE_NO":"１０號","E_COORD97":169745.23999999999,"N_COORD97":2551784.5,"ADDRESS":"安和路五段１７１巷２７弄１０號","OBJECTID":204757},"geometry":{"x":169745.24000000022,"y":2551784.5}},{"attributes":{"ID":204759,"DIS_CODE":0,"TOWNNAME":"安南區","LI":"州北里","LIN":"25鄰","STREET":"安和路","SECT":"五段","MAREA":" ","LANE":"１７１巷","ALLEY":"２７弄","HOUSE_NO":"１１號","E_COORD97":169770.76999999999,"N_COORD97":2551786.2799999998,"ADDRESS":"安和路五段１７１巷２７弄１１號","OBJECTID":204758},"geometry":{"x":169770.77000000048,"y":2551786.2800000012}},{"attributes":{"ID":204760,"DIS_CODE":0,"TOWNNAME":"將軍區","LI":"忠興里","LIN":"2鄰","STREET":" ","SECT":" ","MAREA":"忠興","LANE":" ","ALLEY":" ","HOUSE_NO":"３６之２６號","E_COORD97":163668.66,"N_COORD97":2566736.6499999999,"ADDRESS":"忠興３６之２６號","OBJECTID":204759},"geometry":{"x":163668.66000000015,"y":2566736.6500000022}},{"attributes":{"ID":204761,"DIS_CODE":0,"TOWNNAME":"安南區","LI":"州北里","LIN":"25鄰","STREET":"安和路","SECT":"五段","MAREA":" ","LANE":"１７１巷","ALLEY":"２７弄","HOUSE_NO":"１２號","E_COORD97":169746.82999999999,"N_COORD97":2551780.3500000001,"ADDRESS":"安和路五段１７１巷２７弄１２號","OBJECTID":204760},"geometry":{"x":169746.83000000007,"y":2551780.3500000015}},{"attributes":{"ID":204762,"DIS_CODE":0,"TOWNNAME":"安南區","LI":"州北里","LIN":"25鄰","STREET":"安和路","SECT":"五段","MAREA":" ","LANE":"１７１巷","ALLEY":"２７弄","HOUSE_NO":"１３號","E_COORD97":169772.94,"N_COORD97":2551782.3300000001,"ADDRESS":"安和路五段１７１巷２７弄１３號","OBJECTID":204761},"geometry":{"x":169772.94000000041,"y":2551782.3300000001}},{"attributes":{"ID":204763,"DIS_CODE":0,"TOWNNAME":"安南區","LI":"州北里","LIN":"25鄰","STREET":"安和路","SECT":"五段","MAREA":" ","LANE":"１７１巷","ALLEY":"２７弄","HOUSE_NO":"１５號","E_COORD97":169774.53,"N_COORD97":2551778.3799999999,"ADDRESS":"安和路五段１７１巷２７弄１５號","OBJECTID":204762},"geometry":{"x":169774.52999999933,"y":2551778.3800000008}},{"attributes":{"ID":204764,"DIS_CODE":0,"TOWNNAME":"安南區","LI":"州北里","LIN":"25鄰","STREET":"安和路","SECT":"五段","MAREA":" ","LANE":"１７１巷","ALLEY":"２７弄","HOUSE_NO":"１６號","E_COORD97":169749.98999999999,"N_COORD97":2551772.6499999999,"ADDRESS":"安和路五段１７１巷２７弄１６號","OBJECTID":204763},"geometry":{"x":169749.99000000115,"y":2551772.6500000004}},{"attributes":{"ID":204765,"DIS_CODE":0,"TOWNNAME":"安南區","LI":"州北里","LIN":"25鄰","STREET":"安和路","SECT":"五段","MAREA":" ","LANE":"１７１巷","ALLEY":"２７弄","HOUSE_NO":"１７號","E_COORD97":169776.31,"N_COORD97":2551774.6200000001,"ADDRESS":"安和路五段１７１巷２７弄１７號","OBJECTID":204764},"geometry":{"x":169776.30999999959,"y":2551774.620000001}},{"attributes":{"ID":204766,"DIS_CODE":0,"TOWNNAME":"安南區","LI":"州北里","LIN":"25鄰","STREET":"安和路","SECT":"五段","MAREA":" ","LANE":"１７１巷","ALLEY":"２７弄","HOUSE_NO":"１８號","E_COORD97":169756.13,"N_COORD97":2551768.6899999999,"ADDRESS":"安和路五段１７１巷２７弄１８號","OBJECTID":204765},"geometry":{"x":169756.12999999989,"y":2551768.6899999995}},{"attributes":{"ID":204767,"DIS_CODE":0,"TOWNNAME":"安南區","LI":"州北里","LIN":"25鄰","STREET":"安和路","SECT":"五段","MAREA":" ","LANE":"１７１巷","ALLEY":"２７弄","HOUSE_NO":"１號","E_COORD97":169761.85999999999,"N_COORD97":2551805.6499999999,"ADDRESS":"安和路五段１７１巷２７弄１號","OBJECTID":204766},"geometry":{"x":169761.86000000034,"y":2551805.6500000022}},{"attributes":{"ID":204768,"DIS_CODE":0,"TOWNNAME":"安南區","LI":"州北里","LIN":"25鄰","STREET":"安和路","SECT":"五段","MAREA":" ","LANE":"１７１巷","ALLEY":"２７弄","HOUSE_NO":"２號","E_COORD97":169740.48999999999,"N_COORD97":2551796.3599999999,"ADDRESS":"安和路五段１７１巷２７弄２號","OBJECTID":204767},"geometry":{"x":169740.49000000022,"y":2551796.3600000013}},{"attributes":{"ID":204769,"DIS_CODE":0,"TOWNNAME":"安南區","LI":"州北里","LIN":"25鄰","STREET":"安和路","SECT":"五段","MAREA":" ","LANE":"１７１巷","ALLEY":"２７弄","HOUSE_NO":"３號","E_COORD97":169763.84,"N_COORD97":2551801.1000000001,"ADDRESS":"安和路五段１７１巷２７弄３號","OBJECTID":204768},"geometry":{"x":169763.84000000078,"y":2551801.1000000015}},{"attributes":{"ID":204770,"DIS_CODE":0,"TOWNNAME":"安南區","LI":"州北里","LIN":"25鄰","STREET":"安和路","SECT":"五段","MAREA":" ","LANE":"１７１巷","ALLEY":"２７弄","HOUSE_NO":"５號","E_COORD97":169765.23000000001,"N_COORD97":2551797.1499999999,"ADDRESS":"安和路五段１７１巷２７弄５號","OBJECTID":204769},"geometry":{"x":169765.23000000138,"y":2551797.1500000004}},{"attributes":{"ID":204771,"DIS_CODE":0,"TOWNNAME":"白河區","LI":"崁頭里","LIN":"2鄰","STREET":" ","SECT":" ","MAREA":"崁子頭","LANE":" ","ALLEY":" ","HOUSE_NO":"１３號","E_COORD97":190457.32999999999,"N_COORD97":2580733.4500000002,"ADDRESS":"崁子頭１３號","OBJECTID":204770},"geometry":{"x":190457.33000000101,"y":2580733.4499999993}},{"attributes":{"ID":204772,"DIS_CODE":0,"TOWNNAME":"安南區","LI":"州北里","LIN":"25鄰","STREET":"安和路","SECT":"五段","MAREA":" ","LANE":"１７１巷","ALLEY":"２７弄","HOUSE_NO":"６號","E_COORD97":169742.07999999999,"N_COORD97":2551792.0099999998,"ADDRESS":"安和路五段１７１巷２７弄６號","OBJECTID":204771},"geometry":{"x":169742.08000000101,"y":2551792.0100000016}},{"attributes":{"ID":204773,"DIS_CODE":0,"TOWNNAME":"安南區","LI":"州北里","LIN":"25鄰","STREET":"安和路","SECT":"五段","MAREA":" ","LANE":"１７１巷","ALLEY":"２７弄","HOUSE_NO":"７號","E_COORD97":169767.01000000001,"N_COORD97":2551793.3999999999,"ADDRESS":"安和路五段１７１巷２７弄７號","OBJECTID":204772},"geometry":{"x":169767.00999999978,"y":2551793.4000000022}},{"attributes":{"ID":204774,"DIS_CODE":0,"TOWNNAME":"安南區","LI":"州北里","LIN":"25鄰","STREET":"安和路","SECT":"五段","MAREA":" ","LANE":"１７１巷","ALLEY":"２７弄","HOUSE_NO":"８號","E_COORD97":169743.66,"N_COORD97":2551788.2599999998,"ADDRESS":"安和路五段１７１巷２７弄８號","OBJECTID":204773},"geometry":{"x":169743.66000000108,"y":2551788.2599999998}},{"attributes":{"ID":204775,"DIS_CODE":0,"TOWNNAME":"安南區","LI":"州北里","LIN":"25鄰","STREET":"安和路","SECT":"五段","MAREA":" ","LANE":"１７１巷","ALLEY":"２７弄","HOUSE_NO":"９號","E_COORD97":169769.19,"N_COORD97":2551789.8399999999,"ADDRESS":"安和路五段１７１巷２７弄９號","OBJECTID":204774},"geometry":{"x":169769.19000000134,"y":2551789.8400000017}},{"attributes":{"ID":204776,"DIS_CODE":0,"TOWNNAME":"東區","LI":"自強里","LIN":"25鄰","STREET":"中華東路","SECT":"二段","MAREA":" ","LANE":"２４３巷","ALLEY":"５７弄","HOUSE_NO":"７５號","E_COORD97":171499.87,"N_COORD97":2542699.6400000001,"ADDRESS":"中華東路二段２４３巷５７弄７５號","OBJECTID":204775},"geometry":{"x":171499.87000000104,"y":2542699.6400000025}},{"attributes":{"ID":204777,"DIS_CODE":0,"TOWNNAME":"東區","LI":"自強里","LIN":"25鄰","STREET":"中華東路","SECT":"二段","MAREA":" ","LANE":"２４３巷","ALLEY":"５７弄","HOUSE_NO":"７７號","E_COORD97":171506.32000000001,"N_COORD97":2542700.2999999998,"ADDRESS":"中華東路二段２４３巷５７弄７７號","OBJECTID":204776},"geometry":{"x":171506.3200000003,"y":2542700.3000000007}},{"attributes":{"ID":204778,"DIS_CODE":0,"TOWNNAME":"東區","LI":"自強里","LIN":"25鄰","STREET":"中華東路","SECT":"二段","MAREA":" ","LANE":"２４３巷","ALLEY":"５７弄","HOUSE_NO":"７９號","E_COORD97":171512.60000000001,"N_COORD97":2542700.7999999998,"ADDRESS":"中華東路二段２４３巷５７弄７９號","OBJECTID":204777},"geometry":{"x":171512.59999999963,"y":2542700.8000000045}},{"attributes":{"ID":204779,"DIS_CODE":0,"TOWNNAME":"東區","LI":"自強里","LIN":"25鄰","STREET":"中華東路","SECT":"二段","MAREA":" ","LANE":"２４３巷","ALLEY":"５７弄","HOUSE_NO":"８１號","E_COORD97":171519.04999999999,"N_COORD97":2542700.9700000002,"ADDRESS":"中華東路二段２４３巷５７弄８１號","OBJECTID":204778},"geometry":{"x":171519.05000000075,"y":2542700.9700000025}},{"attributes":{"ID":204780,"DIS_CODE":0,"TOWNNAME":"東區","LI":"自強里","LIN":"25鄰","STREET":"中華東路","SECT":"二段","MAREA":" ","LANE":"２４３巷","ALLEY":"５７弄","HOUSE_NO":"８３號","E_COORD97":171526.66,"N_COORD97":2542701.96,"ADDRESS":"中華東路二段２４３巷５７弄８３號","OBJECTID":204779},"geometry":{"x":171526.66000000108,"y":2542701.9600000009}},{"attributes":{"ID":204781,"DIS_CODE":0,"TOWNNAME":"東區","LI":"自強里","LIN":"25鄰","STREET":"中華東路","SECT":"二段","MAREA":" ","LANE":"２４３巷","ALLEY":"５７弄","HOUSE_NO":"９３號","E_COORD97":171545.01000000001,"N_COORD97":2542715.3500000001,"ADDRESS":"中華東路二段２４３巷５７弄９３號","OBJECTID":204780},"geometry":{"x":171545.00999999978,"y":2542715.3499999996}},{"attributes":{"ID":204782,"DIS_CODE":0,"TOWNNAME":"南區","LI":"永寧里","LIN":"9鄰","STREET":"灣裡路","SECT":" ","MAREA":" ","LANE":"２６６巷","ALLEY":" ","HOUSE_NO":"３號","E_COORD97":166080.26000000001,"N_COORD97":2536415.3300000001,"ADDRESS":"灣裡路２６６巷３號","OBJECTID":204781},"geometry":{"x":166080.25999999978,"y":2536415.3300000019}},{"attributes":{"ID":204783,"DIS_CODE":0,"TOWNNAME":"麻豆區","LI":"\u25A0江里","LIN":"15鄰","STREET":"民權路","SECT":" ","MAREA":" ","LANE":" ","ALLEY":" ","HOUSE_NO":"５３號","E_COORD97":173423.97,"N_COORD97":2564547.3199999998,"ADDRESS":"民權路５３號","OBJECTID":204782},"geometry":{"x":173423.96999999974,"y":2564547.3200000003}},{"attributes":{"ID":204784,"DIS_CODE":0,"TOWNNAME":"麻豆區","LI":"\u25A0江里","LIN":"15鄰","STREET":"民權路","SECT":" ","MAREA":" ","LANE":" ","ALLEY":" ","HOUSE_NO":"５７號之３","E_COORD97":173428.20000000001,"N_COORD97":2564515.2599999998,"ADDRESS":"民權路５７號之３","OBJECTID":204783},"geometry":{"x":173428.20000000205,"y":2564515.2600000016}},{"attributes":{"ID":204785,"DIS_CODE":0,"TOWNNAME":"麻豆區","LI":"\u25A0江里","LIN":"15鄰","STREET":"民權路","SECT":" ","MAREA":" ","LANE":" ","ALLEY":" ","HOUSE_NO":"５７號","E_COORD97":173388.70000000001,"N_COORD97":2564506.3599999999,"ADDRESS":"民權路５７號","OBJECTID":204784},"geometry":{"x":173388.70000000019,"y":2564506.3600000013}},{"attributes":{"ID":204786,"DIS_CODE":0,"TOWNNAME":"北區","LI":"正覺里","LIN":"15鄰","STREET":"正覺街","SECT":" ","MAREA":" ","LANE":" ","ALLEY":" ","HOUSE_NO":"１０５號","E_COORD97":169309.87,"N_COORD97":2546471.7000000002,"ADDRESS":"正覺街１０５號","OBJECTID":204785},"geometry":{"x":169309.87000000104,"y":2546471.6999999993}},{"attributes":{"ID":204787,"DIS_CODE":0,"TOWNNAME":"將軍區","LI":"忠興里","LIN":"2鄰","STREET":" ","SECT":" ","MAREA":"忠興","LANE":" ","ALLEY":" ","HOUSE_NO":"３６之２７號","E_COORD97":163655.51999999999,"N_COORD97":2566732.3300000001,"ADDRESS":"忠興３６之２７號","OBJECTID":204786},"geometry":{"x":163655.51999999955,"y":2566732.3300000019}},{"attributes":{"ID":204788,"DIS_CODE":0,"TOWNNAME":"將軍區","LI":"忠興里","LIN":"2鄰","STREET":" ","SECT":" ","MAREA":"忠興","LANE":" ","ALLEY":" ","HOUSE_NO":"３６之２８號","E_COORD97":163651.72,"N_COORD97":2566736.5699999998,"ADDRESS":"忠興３６之２８號","OBJECTID":204787},"geometry":{"x":163651.72000000067,"y":2566736.5700000022}},{"attributes":{"ID":204789,"DIS_CODE":0,"TOWNNAME":"將軍區","LI":"忠興里","LIN":"2鄰","STREET":" ","SECT":" ","MAREA":"忠興","LANE":" ","ALLEY":" ","HOUSE_NO":"３６之２號","E_COORD97":163706.14000000001,"N_COORD97":2566710.79,"ADDRESS":"忠興３６之２號","OBJECTID":204788},"geometry":{"x":163706.14000000153,"y":2566710.790000001}},{"attributes":{"ID":204790,"DIS_CODE":0,"TOWNNAME":"南區","LI":"荔宅里","LIN":"9鄰","STREET":"大成路","SECT":"一段","MAREA":" ","LANE":" ","ALLEY":" ","HOUSE_NO":"１７１號","E_COORD97":167806.56,"N_COORD97":2541709.7999999998,"ADDRESS":"大成路一段１７１號","OBJECTID":204789},"geometry":{"x":167806.55999999959,"y":2541709.8000000007}},{"attributes":{"ID":204791,"DIS_CODE":0,"TOWNNAME":"南區","LI":"喜南里","LIN":"9鄰","STREET":"喜樹路","SECT":" ","MAREA":" ","LANE":" ","ALLEY":" ","HOUSE_NO":"３００號","E_COORD97":165705.38,"N_COORD97":2537818.7000000002,"ADDRESS":"喜樹路３００號","OBJECTID":204790},"geometry":{"x":165705.38000000082,"y":2537818.7000000011}},{"attributes":{"ID":204792,"DIS_CODE":0,"TOWNNAME":"南區","LI":"鯤鯓里","LIN":"9鄰","STREET":"鯤鯓路","SECT":" ","MAREA":" ","LANE":" ","ALLEY":" ","HOUSE_NO":"１１２號","E_COORD97":165019.62,"N_COORD97":2540021.3199999998,"ADDRESS":"鯤鯓路１１２號","OBJECTID":204791},"geometry":{"x":165019.62000000104,"y":2540021.3200000003}},{"attributes":{"ID":204793,"DIS_CODE":0,"TOWNNAME":"南區","LI":"鯤鯓里","LIN":"9鄰","STREET":"鯤鯓路","SECT":" ","MAREA":" ","LANE":" ","ALLEY":" ","HOUSE_NO":"１１４號","E_COORD97":165015.39999999999,"N_COORD97":2540020.7200000002,"ADDRESS":"鯤鯓路１１４號","OBJECTID":204792},"geometry":{"x":165015.40000000037,"y":2540020.7200000025}},{"attributes":{"ID":204794,"DIS_CODE":0,"TOWNNAME":"南區","LI":"鯤鯓里","LIN":"9鄰","STREET":"鯤鯓路","SECT":" ","MAREA":" ","LANE":" ","ALLEY":" ","HOUSE_NO":"１１６號","E_COORD97":165010.32000000001,"N_COORD97":2540019.6299999999,"ADDRESS":"鯤鯓路１１６號","OBJECTID":204793},"geometry":{"x":165010.3200000003,"y":2540019.6300000008}},{"attributes":{"ID":204795,"DIS_CODE":0,"TOWNNAME":"南區","LI":"鯤鯓里","LIN":"9鄰","STREET":"鯤鯓路","SECT":" ","MAREA":" ","LANE":" ","ALLEY":" ","HOUSE_NO":"１１８號","E_COORD97":165006.45999999999,"N_COORD97":2540019.6299999999,"ADDRESS":"鯤鯓路１１８號","OBJECTID":204794},"geometry":{"x":165006.46000000089,"y":2540019.6300000008}},{"attributes":{"ID":204796,"DIS_CODE":0,"TOWNNAME":"安南區","LI":"溪心里","LIN":"19鄰","STREET":"安中路","SECT":"三段","MAREA":" ","LANE":" ","ALLEY":" ","HOUSE_NO":"１２２號","E_COORD97":166065.12,"N_COORD97":2549826.1099999999,"ADDRESS":"安中路三段１２２號","OBJECTID":204795},"geometry":{"x":166065.12000000104,"y":2549826.1099999994}},{"attributes":{"ID":204797,"DIS_CODE":0,"TOWNNAME":"安南區","LI":"溪心里","LIN":"19鄰","STREET":"安中路","SECT":"三段","MAREA":" ","LANE":" ","ALLEY":" ","HOUSE_NO":"１２６號","E_COORD97":166061.25,"N_COORD97":2549826.8500000001,"ADDRESS":"安中路三段１２６號","OBJECTID":204796},"geometry":{"x":166061.25000000093,"y":2549826.8500000015}},{"attributes":{"ID":204798,"DIS_CODE":0,"TOWNNAME":"東區","LI":"自強里","LIN":"25鄰","STREET":"中華東路","SECT":"二段","MAREA":" ","LANE":"２４３巷","ALLEY":"５７弄","HOUSE_NO":"９５號","E_COORD97":171546.01000000001,"N_COORD97":2542720.3100000001,"ADDRESS":"中華東路二段２４３巷５７弄９５號","OBJECTID":204797},"geometry":{"x":171546.01000000071,"y":2542720.3100000005}},{"attributes":{"ID":204799,"DIS_CODE":0,"TOWNNAME":"安南區","LI":"溪心里","LIN":"19鄰","STREET":"安中路","SECT":"三段","MAREA":" ","LANE":" ","ALLEY":" ","HOUSE_NO":"１２８號","E_COORD97":166056.87,"N_COORD97":2549828.0800000001,"ADDRESS":"安中路三段１２８號","OBJECTID":204798},"geometry":{"x":166056.87000000104,"y":2549828.0800000038}},{"attributes":{"ID":204800,"DIS_CODE":0,"TOWNNAME":"安南區","LI":"溪心里","LIN":"19鄰","STREET":"安中路","SECT":"三段","MAREA":" ","LANE":" ","ALLEY":" ","HOUSE_NO":"１３０號","E_COORD97":166053.16,"N_COORD97":2549828.3300000001,"ADDRESS":"安中路三段１３０號","OBJECTID":204799},"geometry":{"x":166053.16000000108,"y":2549828.3300000001}},{"attributes":{"ID":204801,"DIS_CODE":0,"TOWNNAME":"安南區","LI":"溪心里","LIN":"19鄰","STREET":"安中路","SECT":"三段","MAREA":" ","LANE":" ","ALLEY":" ","HOUSE_NO":"１４０號","E_COORD97":165997.51000000001,"N_COORD97":2549843.3100000001,"ADDRESS":"安中路三段１４０號","OBJECTID":204800},"geometry":{"x":165997.51000000164,"y":2549843.3100000005}}]}