{"displayFieldName":"TOWNNAME","fieldAliases":{"ID":"ID","DIS_CODE":"DIS_CODE","TOWNNAME":"TOWNNAME","LI":"LI","LIN":"LIN","STREET":"STREET","SECT":"SECT","MAREA":"MAREA","LANE":"LANE","ALLEY":"ALLEY","HOUSE_NO":"HOUSE_NO","E_COORD97":"E_COORD97","N_COORD97":"N_COORD97","ADDRESS":"ADDRESS","OBJECTID":"OBJECTID"},"geometryType":"esriGeometryPoint","spatialReference":{"wkid":102443,"latestWkid":3826},"fields":[{"name":"ID","type":"esriFieldTypeDouble","alias":"ID"},{"name":"DIS_CODE","type":"esriFieldTypeInteger","alias":"DIS_CODE"},{"name":"TOWNNAME","type":"esriFieldTypeString","alias":"TOWNNAME","length":8},{"name":"LI","type":"esriFieldTypeString","alias":"LI","length":8},{"name":"LIN","type":"esriFieldTypeString","alias":"LIN","length":12},{"name":"STREET","type":"esriFieldTypeString","alias":"STREET","length":20},{"name":"SECT","type":"esriFieldTypeString","alias":"SECT","length":8},{"name":"MAREA","type":"esriFieldTypeString","alias":"MAREA","length":12},{"name":"LANE","type":"esriFieldTypeString","alias":"LANE","length":10},{"name":"ALLEY","type":"esriFieldTypeString","alias":"ALLEY","length":10},{"name":"HOUSE_NO","type":"esriFieldTypeString","alias":"HOUSE_NO","length":20},{"name":"E_COORD97","type":"esriFieldTypeDouble","alias":"E_COORD97"},{"name":"N_COORD97","type":"esriFieldTypeDouble","alias":"N_COORD97"},{"name":"ADDRESS","type":"esriFieldTypeString","alias":"ADDRESS","length":50},{"name":"OBJECTID","type":"esriFieldTypeOID","alias":"OBJECTID"}],"features":[{"attributes":{"ID":580228,"DIS_CODE":0,"TOWNNAME":"善化區","LI":"光文里","LIN":"16鄰","STREET":"民族路","SECT":" ","MAREA":" ","LANE":" ","ALLEY":" ","HOUSE_NO":"１２７號","E_COORD97":178306.48999999999,"N_COORD97":2559097.0099999998,"ADDRESS":"民族路１２７號","OBJECTID":580201},"geometry":{"x":178306.49000000022,"y":2559097.0099999998}},{"attributes":{"ID":580229,"DIS_CODE":0,"TOWNNAME":"善化區","LI":"坐駕里","LIN":"16鄰","STREET":"健康街","SECT":" ","MAREA":" ","LANE":" ","ALLEY":" ","HOUSE_NO":"１０號","E_COORD97":178895.64000000001,"N_COORD97":2558879.27,"ADDRESS":"健康街１０號","OBJECTID":580202},"geometry":{"x":178895.6400000006,"y":2558879.2700000014}},{"attributes":{"ID":580230,"DIS_CODE":0,"TOWNNAME":"善化區","LI":"文昌里","LIN":"16鄰","STREET":"光復路","SECT":" ","MAREA":" ","LANE":" ","ALLEY":" ","HOUSE_NO":"２號","E_COORD97":177669.07000000001,"N_COORD97":2558758.0099999998,"ADDRESS":"光復路２號","OBJECTID":580203},"geometry":{"x":177669.07000000123,"y":2558758.0099999998}},{"attributes":{"ID":580231,"DIS_CODE":0,"TOWNNAME":"善化區","LI":"東關里","LIN":"16鄰","STREET":"大信路","SECT":" ","MAREA":" ","LANE":" ","ALLEY":" ","HOUSE_NO":"１８號之２","E_COORD97":177501.51999999999,"N_COORD97":2558972.27,"ADDRESS":"大信路１８號之２","OBJECTID":580204},"geometry":{"x":177501.51999999955,"y":2558972.2699999996}},{"attributes":{"ID":580232,"DIS_CODE":0,"TOWNNAME":"善化區","LI":"光文里","LIN":"16鄰","STREET":"中山路","SECT":" ","MAREA":" ","LANE":" ","ALLEY":" ","HOUSE_NO":"２３１之４號","E_COORD97":178129.35999999999,"N_COORD97":2559099.77,"ADDRESS":"中山路２３１之４號","OBJECTID":580205},"geometry":{"x":178129.36000000034,"y":2559099.7700000014}},{"attributes":{"ID":580233,"DIS_CODE":0,"TOWNNAME":"善化區","LI":"文昌里","LIN":"16鄰","STREET":"文賢街","SECT":" ","MAREA":" ","LANE":" ","ALLEY":" ","HOUSE_NO":"２５號","E_COORD97":177646.67999999999,"N_COORD97":2558946.2799999998,"ADDRESS":"文賢街２５號","OBJECTID":580206},"geometry":{"x":177646.6799999997,"y":2558946.2800000031}},{"attributes":{"ID":580234,"DIS_CODE":0,"TOWNNAME":"善化區","LI":"文昌里","LIN":"16鄰","STREET":"文賢街","SECT":" ","MAREA":" ","LANE":" ","ALLEY":" ","HOUSE_NO":"３５號","E_COORD97":177644.01000000001,"N_COORD97":2558970.5299999998,"ADDRESS":"文賢街３５號","OBJECTID":580207},"geometry":{"x":177644.01000000071,"y":2558970.5299999993}},{"attributes":{"ID":580235,"DIS_CODE":0,"TOWNNAME":"善化區","LI":"光文里","LIN":"16鄰","STREET":"信義路","SECT":" ","MAREA":" ","LANE":" ","ALLEY":" ","HOUSE_NO":"１６３號","E_COORD97":178224.60000000001,"N_COORD97":2559058.25,"ADDRESS":"信義路１６３號","OBJECTID":580208},"geometry":{"x":178224.60000000056,"y":2559058.25}},{"attributes":{"ID":580236,"DIS_CODE":0,"TOWNNAME":"善化區","LI":"光文里","LIN":"16鄰","STREET":"樹人路","SECT":" ","MAREA":" ","LANE":" ","ALLEY":" ","HOUSE_NO":"７１號","E_COORD97":178356.73999999999,"N_COORD97":2559073.75,"ADDRESS":"樹人路７１號","OBJECTID":580209},"geometry":{"x":178356.74000000115,"y":2559073.7500000019}},{"attributes":{"ID":580237,"DIS_CODE":0,"TOWNNAME":"學甲區","LI":"明宜里","LIN":"22鄰","STREET":"三民路","SECT":" ","MAREA":" ","LANE":" ","ALLEY":" ","HOUSE_NO":"９號","E_COORD97":165802.88,"N_COORD97":2570649.5099999998,"ADDRESS":"三民路９號","OBJECTID":580210},"geometry":{"x":165802.87999999989,"y":2570649.5100000016}},{"attributes":{"ID":580238,"DIS_CODE":0,"TOWNNAME":"善化區","LI":"坐駕里","LIN":"16鄰","STREET":"大成路","SECT":" ","MAREA":" ","LANE":" ","ALLEY":" ","HOUSE_NO":"１１７號之６","E_COORD97":178604.07999999999,"N_COORD97":2558823.77,"ADDRESS":"大成路１１７號之６","OBJECTID":580211},"geometry":{"x":178604.08000000007,"y":2558823.7699999996}},{"attributes":{"ID":580239,"DIS_CODE":0,"TOWNNAME":"善化區","LI":"文昌里","LIN":"16鄰","STREET":"光復路","SECT":" ","MAREA":" ","LANE":" ","ALLEY":" ","HOUSE_NO":"１０號","E_COORD97":177653.37,"N_COORD97":2558751.5099999998,"ADDRESS":"光復路１０號","OBJECTID":580212},"geometry":{"x":177653.37000000104,"y":2558751.5099999979}},{"attributes":{"ID":580240,"DIS_CODE":0,"TOWNNAME":"善化區","LI":"文昌里","LIN":"16鄰","STREET":"光復路","SECT":" ","MAREA":" ","LANE":" ","ALLEY":" ","HOUSE_NO":"４號","E_COORD97":177664.95000000001,"N_COORD97":2558756.2599999998,"ADDRESS":"光復路４號","OBJECTID":580213},"geometry":{"x":177664.95000000112,"y":2558756.2599999998}},{"attributes":{"ID":580241,"DIS_CODE":0,"TOWNNAME":"官田區","LI":"隆田里","LIN":"16鄰","STREET":"四維街","SECT":" ","MAREA":" ","LANE":" ","ALLEY":" ","HOUSE_NO":"１６號","E_COORD97":180285.28,"N_COORD97":2566029.8100000001,"ADDRESS":"四維街１６號","OBJECTID":580214},"geometry":{"x":180285.28000000119,"y":2566029.8100000042}},{"attributes":{"ID":580242,"DIS_CODE":0,"TOWNNAME":"善化區","LI":"文昌里","LIN":"16鄰","STREET":"光復路","SECT":" ","MAREA":" ","LANE":" ","ALLEY":" ","HOUSE_NO":"１２號之１","E_COORD97":177637.89999999999,"N_COORD97":2558754.02,"ADDRESS":"光復路１２號之１","OBJECTID":580215},"geometry":{"x":177637.90000000224,"y":2558754.0199999996}},{"attributes":{"ID":580243,"DIS_CODE":0,"TOWNNAME":"善化區","LI":"文昌里","LIN":"16鄰","STREET":"中正路","SECT":" ","MAREA":" ","LANE":" ","ALLEY":" ","HOUSE_NO":"４０３號","E_COORD97":177684.95999999999,"N_COORD97":2558672,"ADDRESS":"中正路４０３號","OBJECTID":580216},"geometry":{"x":177684.96000000089,"y":2558672.0000000019}},{"attributes":{"ID":580244,"DIS_CODE":0,"TOWNNAME":"善化區","LI":"文昌里","LIN":"16鄰","STREET":"中正路","SECT":" ","MAREA":" ","LANE":" ","ALLEY":" ","HOUSE_NO":"４８３號","E_COORD97":177678.98000000001,"N_COORD97":2558960.75,"ADDRESS":"中正路４８３號","OBJECTID":580217},"geometry":{"x":177678.98000000138,"y":2558960.7500000037}},{"attributes":{"ID":580245,"DIS_CODE":0,"TOWNNAME":"善化區","LI":"光文里","LIN":"16鄰","STREET":"信義路","SECT":" ","MAREA":" ","LANE":" ","ALLEY":" ","HOUSE_NO":"１６７號","E_COORD97":178223.10000000001,"N_COORD97":2559066.9900000002,"ADDRESS":"信義路１６７號","OBJECTID":580218},"geometry":{"x":178223.10000000056,"y":2559066.9900000002}},{"attributes":{"ID":580246,"DIS_CODE":0,"TOWNNAME":"善化區","LI":"文昌里","LIN":"16鄰","STREET":"中正路","SECT":" ","MAREA":" ","LANE":" ","ALLEY":" ","HOUSE_NO":"３８４號","E_COORD97":177706.01000000001,"N_COORD97":2558718.5,"ADDRESS":"中正路３８４號","OBJECTID":580219},"geometry":{"x":177706.01000000164,"y":2558718.5000000019}},{"attributes":{"ID":580247,"DIS_CODE":0,"TOWNNAME":"善化區","LI":"文昌里","LIN":"16鄰","STREET":"文賢街","SECT":" ","MAREA":" ","LANE":" ","ALLEY":" ","HOUSE_NO":"３３號","E_COORD97":177644.45000000001,"N_COORD97":2558966.2799999998,"ADDRESS":"文賢街３３號","OBJECTID":580220},"geometry":{"x":177644.45000000112,"y":2558966.2799999975}},{"attributes":{"ID":580248,"DIS_CODE":0,"TOWNNAME":"善化區","LI":"文昌里","LIN":"16鄰","STREET":"文賢街","SECT":" ","MAREA":" ","LANE":" ","ALLEY":" ","HOUSE_NO":"２９號","E_COORD97":177646.72,"N_COORD97":2558956.0299999998,"ADDRESS":"文賢街２９號","OBJECTID":580221},"geometry":{"x":177646.71999999974,"y":2558956.0300000012}},{"attributes":{"ID":580249,"DIS_CODE":0,"TOWNNAME":"善化區","LI":"光文里","LIN":"16鄰","STREET":"民族路","SECT":" ","MAREA":" ","LANE":" ","ALLEY":" ","HOUSE_NO":"１５４號","E_COORD97":178167.48000000001,"N_COORD97":2559074.7599999998,"ADDRESS":"民族路１５４號","OBJECTID":580222},"geometry":{"x":178167.48000000045,"y":2559074.7599999998}},{"attributes":{"ID":580250,"DIS_CODE":0,"TOWNNAME":"善化區","LI":"文昌里","LIN":"16鄰","STREET":"中正路","SECT":" ","MAREA":" ","LANE":" ","ALLEY":" ","HOUSE_NO":"３３６號","E_COORD97":177708.45000000001,"N_COORD97":2558567.7400000002,"ADDRESS":"中正路３３６號","OBJECTID":580223},"geometry":{"x":177708.45000000019,"y":2558567.7400000039}},{"attributes":{"ID":580251,"DIS_CODE":0,"TOWNNAME":"安南區","LI":"淵東里","LIN":"16鄰","STREET":"安中路","SECT":"三段","MAREA":" ","LANE":" ","ALLEY":" ","HOUSE_NO":"２６８號","E_COORD97":165678.17000000001,"N_COORD97":2549921,"ADDRESS":"安中路三段２６８號","OBJECTID":580224},"geometry":{"x":165678.17000000086,"y":2549921.0000000019}},{"attributes":{"ID":580252,"DIS_CODE":0,"TOWNNAME":"安南區","LI":"淵東里","LIN":"16鄰","STREET":"智安一街","SECT":" ","MAREA":" ","LANE":" ","ALLEY":" ","HOUSE_NO":"２號之１","E_COORD97":165666.85000000001,"N_COORD97":2549939.0299999998,"ADDRESS":"智安一街２號之１","OBJECTID":580225},"geometry":{"x":165666.85000000056,"y":2549939.0299999993}},{"attributes":{"ID":580253,"DIS_CODE":0,"TOWNNAME":"官田區","LI":"隆田里","LIN":"16鄰","STREET":"文化街","SECT":" ","MAREA":" ","LANE":" ","ALLEY":" ","HOUSE_NO":"６９號","E_COORD97":180226.91,"N_COORD97":2566019.2999999998,"ADDRESS":"文化街６９號","OBJECTID":580226},"geometry":{"x":180226.91000000108,"y":2566019.3000000007}},{"attributes":{"ID":580254,"DIS_CODE":0,"TOWNNAME":"官田區","LI":"隆田里","LIN":"16鄰","STREET":"文化街","SECT":" ","MAREA":" ","LANE":" ","ALLEY":" ","HOUSE_NO":"７５號","E_COORD97":180230.20999999999,"N_COORD97":2566029.8999999999,"ADDRESS":"文化街７５號","OBJECTID":580227},"geometry":{"x":180230.20999999996,"y":2566029.9000000022}},{"attributes":{"ID":580255,"DIS_CODE":0,"TOWNNAME":"官田區","LI":"隆田里","LIN":"16鄰","STREET":"文化街","SECT":" ","MAREA":" ","LANE":" ","ALLEY":" ","HOUSE_NO":"７７號","E_COORD97":180230.01999999999,"N_COORD97":2566034.1600000001,"ADDRESS":"文化街７７號","OBJECTID":580228},"geometry":{"x":180230.02000000142,"y":2566034.160000002}},{"attributes":{"ID":580256,"DIS_CODE":0,"TOWNNAME":"官田區","LI":"隆田里","LIN":"16鄰","STREET":"文化街","SECT":" ","MAREA":" ","LANE":" ","ALLEY":" ","HOUSE_NO":"７９號","E_COORD97":180229.84,"N_COORD97":2566038.1400000001,"ADDRESS":"文化街７９號","OBJECTID":580229},"geometry":{"x":180229.84000000171,"y":2566038.1400000025}},{"attributes":{"ID":580257,"DIS_CODE":0,"TOWNNAME":"官田區","LI":"隆田里","LIN":"16鄰","STREET":"文化街","SECT":" ","MAREA":" ","LANE":" ","ALLEY":" ","HOUSE_NO":"８１號","E_COORD97":180230.26000000001,"N_COORD97":2566041.9399999999,"ADDRESS":"文化街８１號","OBJECTID":580230},"geometry":{"x":180230.26000000164,"y":2566041.9400000013}},{"attributes":{"ID":580258,"DIS_CODE":0,"TOWNNAME":"官田區","LI":"隆田里","LIN":"16鄰","STREET":"文化街","SECT":" ","MAREA":" ","LANE":" ","ALLEY":" ","HOUSE_NO":"８３號","E_COORD97":180226.31,"N_COORD97":2566047.3700000001,"ADDRESS":"文化街８３號","OBJECTID":580231},"geometry":{"x":180226.31000000145,"y":2566047.3700000029}},{"attributes":{"ID":580259,"DIS_CODE":0,"TOWNNAME":"官田區","LI":"隆田里","LIN":"16鄰","STREET":"文化街","SECT":" ","MAREA":" ","LANE":" ","ALLEY":" ","HOUSE_NO":"８５號","E_COORD97":180225.97,"N_COORD97":2566051.98,"ADDRESS":"文化街８５號","OBJECTID":580232},"geometry":{"x":180225.97000000067,"y":2566051.9799999986}},{"attributes":{"ID":580260,"DIS_CODE":0,"TOWNNAME":"官田區","LI":"隆田里","LIN":"16鄰","STREET":"文化街","SECT":" ","MAREA":" ","LANE":" ","ALLEY":" ","HOUSE_NO":"８７號","E_COORD97":180225.79999999999,"N_COORD97":2566056.2000000002,"ADDRESS":"文化街８７號","OBJECTID":580233},"geometry":{"x":180225.79999999981,"y":2566056.200000003}},{"attributes":{"ID":580261,"DIS_CODE":0,"TOWNNAME":"官田區","LI":"隆田里","LIN":"16鄰","STREET":"文化街","SECT":" ","MAREA":" ","LANE":" ","ALLEY":" ","HOUSE_NO":"８９號","E_COORD97":180225.85000000001,"N_COORD97":2566060.2400000002,"ADDRESS":"文化街８９號","OBJECTID":580234},"geometry":{"x":180225.84999999963,"y":2566060.2400000039}},{"attributes":{"ID":580262,"DIS_CODE":0,"TOWNNAME":"官田區","LI":"隆田里","LIN":"16鄰","STREET":"文化街","SECT":" ","MAREA":" ","LANE":" ","ALLEY":" ","HOUSE_NO":"９１號","E_COORD97":180226.01000000001,"N_COORD97":2566064.4399999999,"ADDRESS":"文化街９１號","OBJECTID":580235},"geometry":{"x":180226.00999999978,"y":2566064.4399999995}},{"attributes":{"ID":580263,"DIS_CODE":0,"TOWNNAME":"官田區","LI":"隆田里","LIN":"16鄰","STREET":"文化街","SECT":" ","MAREA":" ","LANE":" ","ALLEY":" ","HOUSE_NO":"９３號","E_COORD97":180225.89999999999,"N_COORD97":2566068.3500000001,"ADDRESS":"文化街９３號","OBJECTID":580236},"geometry":{"x":180225.90000000037,"y":2566068.3499999996}},{"attributes":{"ID":580264,"DIS_CODE":0,"TOWNNAME":"官田區","LI":"隆田里","LIN":"16鄰","STREET":"文化街","SECT":" ","MAREA":" ","LANE":" ","ALLEY":" ","HOUSE_NO":"９９號","E_COORD97":180228.23000000001,"N_COORD97":2566081.8100000001,"ADDRESS":"文化街９９號","OBJECTID":580237},"geometry":{"x":180228.23000000138,"y":2566081.8100000024}},{"attributes":{"ID":580265,"DIS_CODE":0,"TOWNNAME":"官田區","LI":"隆田里","LIN":"16鄰","STREET":"四維街","SECT":" ","MAREA":" ","LANE":" ","ALLEY":" ","HOUSE_NO":"１０號","E_COORD97":180263.42000000001,"N_COORD97":2566017.3399999999,"ADDRESS":"四維街１０號","OBJECTID":580238},"geometry":{"x":180263.42000000086,"y":2566017.3399999999}},{"attributes":{"ID":580266,"DIS_CODE":0,"TOWNNAME":"官田區","LI":"隆田里","LIN":"16鄰","STREET":"四維街","SECT":" ","MAREA":" ","LANE":" ","ALLEY":" ","HOUSE_NO":"１８號","E_COORD97":180283.76000000001,"N_COORD97":2566034.5800000001,"ADDRESS":"四維街１８號","OBJECTID":580239},"geometry":{"x":180283.75999999978,"y":2566034.5800000019}},{"attributes":{"ID":580267,"DIS_CODE":0,"TOWNNAME":"官田區","LI":"隆田里","LIN":"16鄰","STREET":"四維街","SECT":" ","MAREA":" ","LANE":" ","ALLEY":" ","HOUSE_NO":"２０號","E_COORD97":180283.88,"N_COORD97":2566039.73,"ADDRESS":"四維街２０號","OBJECTID":580240},"geometry":{"x":180283.88000000175,"y":2566039.7300000004}},{"attributes":{"ID":580268,"DIS_CODE":0,"TOWNNAME":"官田區","LI":"隆田里","LIN":"16鄰","STREET":"四維街","SECT":" ","MAREA":" ","LANE":" ","ALLEY":" ","HOUSE_NO":"２２號","E_COORD97":180272.57000000001,"N_COORD97":2566038.1099999999,"ADDRESS":"四維街２２號","OBJECTID":580241},"geometry":{"x":180272.5700000003,"y":2566038.1100000013}},{"attributes":{"ID":580269,"DIS_CODE":0,"TOWNNAME":"官田區","LI":"隆田里","LIN":"16鄰","STREET":"四維街","SECT":" ","MAREA":" ","LANE":" ","ALLEY":" ","HOUSE_NO":"２４號","E_COORD97":180268.12,"N_COORD97":2566037.6699999999,"ADDRESS":"四維街２４號","OBJECTID":580242},"geometry":{"x":180268.12000000011,"y":2566037.6700000018}},{"attributes":{"ID":580270,"DIS_CODE":0,"TOWNNAME":"官田區","LI":"隆田里","LIN":"16鄰","STREET":"四維街","SECT":" ","MAREA":" ","LANE":" ","ALLEY":" ","HOUSE_NO":"２６號","E_COORD97":180263.85999999999,"N_COORD97":2566037.3999999999,"ADDRESS":"四維街２６號","OBJECTID":580243},"geometry":{"x":180263.86000000034,"y":2566037.4000000004}},{"attributes":{"ID":580271,"DIS_CODE":0,"TOWNNAME":"官田區","LI":"隆田里","LIN":"16鄰","STREET":"四維街","SECT":" ","MAREA":" ","LANE":" ","ALLEY":" ","HOUSE_NO":"３０號","E_COORD97":180251.16,"N_COORD97":2566054.6899999999,"ADDRESS":"四維街３０號","OBJECTID":580244},"geometry":{"x":180251.16000000015,"y":2566054.6900000013}},{"attributes":{"ID":580272,"DIS_CODE":0,"TOWNNAME":"官田區","LI":"隆田里","LIN":"16鄰","STREET":"四維街","SECT":" ","MAREA":" ","LANE":" ","ALLEY":" ","HOUSE_NO":"３２號","E_COORD97":180262.92999999999,"N_COORD97":2566050.8399999999,"ADDRESS":"四維街３２號","OBJECTID":580245},"geometry":{"x":180262.93000000156,"y":2566050.8399999999}},{"attributes":{"ID":580273,"DIS_CODE":0,"TOWNNAME":"官田區","LI":"隆田里","LIN":"16鄰","STREET":"四維街","SECT":" ","MAREA":" ","LANE":" ","ALLEY":" ","HOUSE_NO":"３４號","E_COORD97":180268.45000000001,"N_COORD97":2566051.0099999998,"ADDRESS":"四維街３４號","OBJECTID":580246},"geometry":{"x":180268.45000000205,"y":2566051.0099999979}},{"attributes":{"ID":580274,"DIS_CODE":0,"TOWNNAME":"官田區","LI":"隆田里","LIN":"16鄰","STREET":"四維街","SECT":" ","MAREA":" ","LANE":" ","ALLEY":" ","HOUSE_NO":"３６號","E_COORD97":180281.76000000001,"N_COORD97":2566048.1600000001,"ADDRESS":"四維街３６號","OBJECTID":580247},"geometry":{"x":180281.76000000071,"y":2566048.160000002}},{"attributes":{"ID":580275,"DIS_CODE":0,"TOWNNAME":"官田區","LI":"隆田里","LIN":"16鄰","STREET":"四維街","SECT":" ","MAREA":" ","LANE":" ","ALLEY":" ","HOUSE_NO":"３８號","E_COORD97":180281.76000000001,"N_COORD97":2566052.8700000001,"ADDRESS":"四維街３８號","OBJECTID":580248},"geometry":{"x":180281.76000000071,"y":2566052.870000001}},{"attributes":{"ID":580276,"DIS_CODE":0,"TOWNNAME":"官田區","LI":"隆田里","LIN":"16鄰","STREET":"四維街","SECT":" ","MAREA":" ","LANE":" ","ALLEY":" ","HOUSE_NO":"４０號之１","E_COORD97":180281.56,"N_COORD97":2566061.1499999999,"ADDRESS":"四維街４０號之１","OBJECTID":580249},"geometry":{"x":180281.55999999959,"y":2566061.1500000041}},{"attributes":{"ID":580277,"DIS_CODE":0,"TOWNNAME":"官田區","LI":"隆田里","LIN":"16鄰","STREET":"四維街","SECT":" ","MAREA":" ","LANE":" ","ALLEY":" ","HOUSE_NO":"４０號之６","E_COORD97":180280.10999999999,"N_COORD97":2566082.02,"ADDRESS":"四維街４０號之６","OBJECTID":580250},"geometry":{"x":180280.11000000127,"y":2566082.0200000014}},{"attributes":{"ID":580278,"DIS_CODE":0,"TOWNNAME":"官田區","LI":"隆田里","LIN":"16鄰","STREET":"四維街","SECT":" ","MAREA":" ","LANE":" ","ALLEY":" ","HOUSE_NO":"４０號之７","E_COORD97":180279.85000000001,"N_COORD97":2566086.3100000001,"ADDRESS":"四維街４０號之７","OBJECTID":580251},"geometry":{"x":180279.84999999963,"y":2566086.3100000005}},{"attributes":{"ID":580279,"DIS_CODE":0,"TOWNNAME":"官田區","LI":"隆田里","LIN":"16鄰","STREET":"四維街","SECT":" ","MAREA":" ","LANE":" ","ALLEY":" ","HOUSE_NO":"４０號之８","E_COORD97":180279.56,"N_COORD97":2566090.3199999998,"ADDRESS":"四維街４０號之８","OBJECTID":580252},"geometry":{"x":180279.56000000052,"y":2566090.320000004}},{"attributes":{"ID":580280,"DIS_CODE":0,"TOWNNAME":"官田區","LI":"隆田里","LIN":"16鄰","STREET":"四維街","SECT":" ","MAREA":" ","LANE":" ","ALLEY":" ","HOUSE_NO":"４０號之９","E_COORD97":180279.14999999999,"N_COORD97":2566094.4399999999,"ADDRESS":"四維街４０號之９","OBJECTID":580253},"geometry":{"x":180279.15000000224,"y":2566094.4399999995}},{"attributes":{"ID":580281,"DIS_CODE":0,"TOWNNAME":"官田區","LI":"隆田里","LIN":"16鄰","STREET":"四維街","SECT":" ","MAREA":" ","LANE":" ","ALLEY":" ","HOUSE_NO":"４０號","E_COORD97":180280.98000000001,"N_COORD97":2566056.5899999999,"ADDRESS":"四維街４０號","OBJECTID":580254},"geometry":{"x":180280.98000000138,"y":2566056.5899999999}},{"attributes":{"ID":580282,"DIS_CODE":0,"TOWNNAME":"官田區","LI":"隆田里","LIN":"16鄰","STREET":"四維街","SECT":" ","MAREA":" ","LANE":" ","ALLEY":" ","HOUSE_NO":"６號","E_COORD97":180254.79000000001,"N_COORD97":2566012.98,"ADDRESS":"四維街６號","OBJECTID":580255},"geometry":{"x":180254.79000000097,"y":2566012.9800000023}},{"attributes":{"ID":580283,"DIS_CODE":0,"TOWNNAME":"仁德區","LI":"大甲里","LIN":"16鄰","STREET":"行大一街","SECT":" ","MAREA":" ","LANE":" ","ALLEY":" ","HOUSE_NO":"４４０號","E_COORD97":169413.82000000001,"N_COORD97":2535219.75,"ADDRESS":"行大一街４４０號","OBJECTID":580256},"geometry":{"x":169413.82000000123,"y":2535219.75}},{"attributes":{"ID":580284,"DIS_CODE":0,"TOWNNAME":"仁德區","LI":"大甲里","LIN":"16鄰","STREET":"行大一街","SECT":" ","MAREA":" ","LANE":" ","ALLEY":" ","HOUSE_NO":"４３４號","E_COORD97":169433.57000000001,"N_COORD97":2535211.2400000002,"ADDRESS":"行大一街４３４號","OBJECTID":580257},"geometry":{"x":169433.56999999937,"y":2535211.2400000039}},{"attributes":{"ID":580285,"DIS_CODE":0,"TOWNNAME":"仁德區","LI":"大甲里","LIN":"16鄰","STREET":"行大一街","SECT":" ","MAREA":" ","LANE":" ","ALLEY":" ","HOUSE_NO":"４００號","E_COORD97":169464.51999999999,"N_COORD97":2535207.9900000002,"ADDRESS":"行大一街４００號","OBJECTID":580258},"geometry":{"x":169464.52000000048,"y":2535207.9900000002}},{"attributes":{"ID":580286,"DIS_CODE":0,"TOWNNAME":"仁德區","LI":"土庫里","LIN":"16鄰","STREET":"土庫二街","SECT":" ","MAREA":" ","LANE":" ","ALLEY":" ","HOUSE_NO":"１０１號","E_COORD97":174601.34,"N_COORD97":2542909.75,"ADDRESS":"土庫二街１０１號","OBJECTID":580259},"geometry":{"x":174601.33999999985,"y":2542909.75}},{"attributes":{"ID":580287,"DIS_CODE":0,"TOWNNAME":"仁德區","LI":"大甲里","LIN":"16鄰","STREET":"行大一街","SECT":" ","MAREA":" ","LANE":" ","ALLEY":" ","HOUSE_NO":"４０８號","E_COORD97":169456.32999999999,"N_COORD97":2535212.9900000002,"ADDRESS":"行大一街４０８號","OBJECTID":580260},"geometry":{"x":169456.33000000007,"y":2535212.9900000039}},{"attributes":{"ID":580288,"DIS_CODE":0,"TOWNNAME":"仁德區","LI":"上崙里","LIN":"16鄰","STREET":"德崙路","SECT":" ","MAREA":" ","LANE":" ","ALLEY":" ","HOUSE_NO":"３７２號","E_COORD97":174006.73000000001,"N_COORD97":2538106.0099999998,"ADDRESS":"德崙路３７２號","OBJECTID":580261},"geometry":{"x":174006.73000000138,"y":2538106.0100000016}},{"attributes":{"ID":580289,"DIS_CODE":0,"TOWNNAME":"仁德區","LI":"大甲里","LIN":"16鄰","STREET":"行大一街","SECT":" ","MAREA":" ","LANE":" ","ALLEY":" ","HOUSE_NO":"４０２號","E_COORD97":169472.60000000001,"N_COORD97":2535236.75,"ADDRESS":"行大一街４０２號","OBJECTID":580262},"geometry":{"x":169472.60000000056,"y":2535236.75}},{"attributes":{"ID":580290,"DIS_CODE":0,"TOWNNAME":"仁德區","LI":"土庫里","LIN":"16鄰","STREET":"土庫二街","SECT":" ","MAREA":" ","LANE":" ","ALLEY":" ","HOUSE_NO":"９０號","E_COORD97":174568.73000000001,"N_COORD97":2542866.7400000002,"ADDRESS":"土庫二街９０號","OBJECTID":580263},"geometry":{"x":174568.73000000045,"y":2542866.7400000039}},{"attributes":{"ID":580291,"DIS_CODE":0,"TOWNNAME":"仁德區","LI":"土庫里","LIN":"16鄰","STREET":"土庫二街","SECT":" ","MAREA":" ","LANE":" ","ALLEY":" ","HOUSE_NO":"１０５號","E_COORD97":174612.75,"N_COORD97":2542913.25,"ADDRESS":"土庫二街１０５號","OBJECTID":580264},"geometry":{"x":174612.75000000186,"y":2542913.25}},{"attributes":{"ID":580292,"DIS_CODE":0,"TOWNNAME":"仁德區","LI":"大甲里","LIN":"16鄰","STREET":"行大一街","SECT":" ","MAREA":" ","LANE":" ","ALLEY":" ","HOUSE_NO":"４０８之１號","E_COORD97":169454.73000000001,"N_COORD97":2535215.04,"ADDRESS":"行大一街４０８之１號","OBJECTID":580265},"geometry":{"x":169454.73000000231,"y":2535215.0400000028}},{"attributes":{"ID":580293,"DIS_CODE":0,"TOWNNAME":"仁德區","LI":"仁義里","LIN":"16鄰","STREET":"中山路","SECT":" ","MAREA":" ","LANE":" ","ALLEY":" ","HOUSE_NO":"１８８號","E_COORD97":174460.95999999999,"N_COORD97":2541197.2400000002,"ADDRESS":"中山路１８８號","OBJECTID":580266},"geometry":{"x":174460.96000000089,"y":2541197.2400000002}},{"attributes":{"ID":580294,"DIS_CODE":0,"TOWNNAME":"仁德區","LI":"大甲里","LIN":"16鄰","STREET":"行大一街","SECT":" ","MAREA":" ","LANE":" ","ALLEY":" ","HOUSE_NO":"４３６號","E_COORD97":169425.85999999999,"N_COORD97":2535197.7400000002,"ADDRESS":"行大一街４３６號","OBJECTID":580267},"geometry":{"x":169425.86000000034,"y":2535197.7400000039}},{"attributes":{"ID":580295,"DIS_CODE":0,"TOWNNAME":"仁德區","LI":"仁義里","LIN":"16鄰","STREET":"義林十二街","SECT":" ","MAREA":" ","LANE":" ","ALLEY":" ","HOUSE_NO":"３７號","E_COORD97":174502.16,"N_COORD97":2541484.0099999998,"ADDRESS":"義林十二街３７號","OBJECTID":580268},"geometry":{"x":174502.16000000108,"y":2541484.0099999998}},{"attributes":{"ID":580296,"DIS_CODE":0,"TOWNNAME":"仁德區","LI":"一甲里","LIN":"16鄰","STREET":"中清路","SECT":" ","MAREA":" ","LANE":" ","ALLEY":" ","HOUSE_NO":"２５７號","E_COORD97":173732.41,"N_COORD97":2541779.2999999998,"ADDRESS":"中清路２５７號","OBJECTID":580269},"geometry":{"x":173732.41000000108,"y":2541779.3000000026}},{"attributes":{"ID":580297,"DIS_CODE":0,"TOWNNAME":"仁德區","LI":"一甲里","LIN":"16鄰","STREET":"中清路","SECT":" ","MAREA":" ","LANE":" ","ALLEY":" ","HOUSE_NO":"２４９號","E_COORD97":173728.51000000001,"N_COORD97":2541757.5499999998,"ADDRESS":"中清路２４９號","OBJECTID":580270},"geometry":{"x":173728.50999999978,"y":2541757.5500000026}},{"attributes":{"ID":580298,"DIS_CODE":0,"TOWNNAME":"善化區","LI":"坐駕里","LIN":"16鄰","STREET":"成功路","SECT":" ","MAREA":" ","LANE":" ","ALLEY":" ","HOUSE_NO":"４２７號","E_COORD97":179074.51000000001,"N_COORD97":2558699.5,"ADDRESS":"成功路４２７號","OBJECTID":580271},"geometry":{"x":179074.51000000071,"y":2558699.5000000019}},{"attributes":{"ID":580299,"DIS_CODE":0,"TOWNNAME":"中西區","LI":"福安里","LIN":"16鄰","STREET":"永福路","SECT":"二段","MAREA":" ","LANE":" ","ALLEY":" ","HOUSE_NO":"６５號","E_COORD97":168037.26000000001,"N_COORD97":2543608.4900000002,"ADDRESS":"永福路二段６５號","OBJECTID":580272},"geometry":{"x":168037.26000000071,"y":2543608.4900000021}},{"attributes":{"ID":580300,"DIS_CODE":0,"TOWNNAME":"中西區","LI":"福安里","LIN":"16鄰","STREET":"永福路","SECT":"二段","MAREA":" ","LANE":" ","ALLEY":" ","HOUSE_NO":"６７號","E_COORD97":168047,"N_COORD97":2543616.8199999998,"ADDRESS":"永福路二段６７號","OBJECTID":580273},"geometry":{"x":168047,"y":2543616.8200000022}},{"attributes":{"ID":580301,"DIS_CODE":0,"TOWNNAME":"中西區","LI":"福安里","LIN":"16鄰","STREET":"永福路","SECT":"二段","MAREA":" ","LANE":" ","ALLEY":" ","HOUSE_NO":"６９號","E_COORD97":168047.51000000001,"N_COORD97":2543620.3999999999,"ADDRESS":"永福路二段６９號","OBJECTID":580274},"geometry":{"x":168047.51000000071,"y":2543620.4000000004}},{"attributes":{"ID":580302,"DIS_CODE":0,"TOWNNAME":"東區","LI":"南聖里","LIN":"16鄰","STREET":"裕義路","SECT":" ","MAREA":" ","LANE":" ","ALLEY":" ","HOUSE_NO":"８８號","E_COORD97":172862.23000000001,"N_COORD97":2543210.5699999998,"ADDRESS":"裕義路８８號","OBJECTID":580275},"geometry":{"x":172862.23000000231,"y":2543210.570000004}},{"attributes":{"ID":580303,"DIS_CODE":0,"TOWNNAME":"東區","LI":"崇文里","LIN":"16鄰","STREET":"崇德十九街","SECT":" ","MAREA":" ","LANE":" ","ALLEY":" ","HOUSE_NO":"５２號","E_COORD97":170940.67000000001,"N_COORD97":2540955.96,"ADDRESS":"崇德十九街５２號","OBJECTID":580276},"geometry":{"x":170940.66999999993,"y":2540955.9600000009}},{"attributes":{"ID":580304,"DIS_CODE":0,"TOWNNAME":"東區","LI":"崇文里","LIN":"16鄰","STREET":"崇德十九街","SECT":" ","MAREA":" ","LANE":" ","ALLEY":" ","HOUSE_NO":"５２之１號","E_COORD97":170944.76000000001,"N_COORD97":2540955.4700000002,"ADDRESS":"崇德十九街５２之１號","OBJECTID":580277},"geometry":{"x":170944.76000000071,"y":2540955.4700000007}},{"attributes":{"ID":580305,"DIS_CODE":0,"TOWNNAME":"東區","LI":"崇文里","LIN":"16鄰","STREET":"崇德十九街","SECT":" ","MAREA":" ","LANE":" ","ALLEY":" ","HOUSE_NO":"５２之２號","E_COORD97":170949.17999999999,"N_COORD97":2540955.96,"ADDRESS":"崇德十九街５２之２號","OBJECTID":580278},"geometry":{"x":170949.1799999997,"y":2540955.9600000009}},{"attributes":{"ID":580306,"DIS_CODE":0,"TOWNNAME":"東區","LI":"崇明里","LIN":"16鄰","STREET":"崇明路","SECT":" ","MAREA":" ","LANE":" ","ALLEY":" ","HOUSE_NO":"１０００號","E_COORD97":170569.34,"N_COORD97":2540834.71,"ADDRESS":"崇明路１０００號","OBJECTID":580279},"geometry":{"x":170569.34000000078,"y":2540834.7100000028}},{"attributes":{"ID":580307,"DIS_CODE":0,"TOWNNAME":"東區","LI":"崇明里","LIN":"16鄰","STREET":"崇明路","SECT":" ","MAREA":" ","LANE":" ","ALLEY":" ","HOUSE_NO":"１００２號","E_COORD97":170562.51000000001,"N_COORD97":2540838.3500000001,"ADDRESS":"崇明路１００２號","OBJECTID":580280},"geometry":{"x":170562.51000000164,"y":2540838.3500000015}},{"attributes":{"ID":580308,"DIS_CODE":0,"TOWNNAME":"東區","LI":"崇明里","LIN":"16鄰","STREET":"崇明路","SECT":" ","MAREA":" ","LANE":" ","ALLEY":" ","HOUSE_NO":"１００８號","E_COORD97":170554.23999999999,"N_COORD97":2540838.2999999998,"ADDRESS":"崇明路１００８號","OBJECTID":580281},"geometry":{"x":170554.24000000022,"y":2540838.3000000007}},{"attributes":{"ID":580309,"DIS_CODE":0,"TOWNNAME":"東區","LI":"崇明里","LIN":"16鄰","STREET":"崇明路","SECT":" ","MAREA":" ","LANE":" ","ALLEY":" ","HOUSE_NO":"１０１０號","E_COORD97":170551.66,"N_COORD97":2540834.1400000001,"ADDRESS":"崇明路１０１０號","OBJECTID":580282},"geometry":{"x":170551.65999999922,"y":2540834.1400000025}},{"attributes":{"ID":580310,"DIS_CODE":0,"TOWNNAME":"東區","LI":"崇明里","LIN":"16鄰","STREET":"崇明路","SECT":" ","MAREA":" ","LANE":" ","ALLEY":" ","HOUSE_NO":"１０１２號","E_COORD97":170546.89999999999,"N_COORD97":2540838.1000000001,"ADDRESS":"崇明路１０１２號","OBJECTID":580283},"geometry":{"x":170546.90000000224,"y":2540838.0999999996}},{"attributes":{"ID":580311,"DIS_CODE":0,"TOWNNAME":"東區","LI":"崇明里","LIN":"16鄰","STREET":"崇明路","SECT":" ","MAREA":" ","LANE":" ","ALLEY":" ","HOUSE_NO":"１０１６號","E_COORD97":170541.75,"N_COORD97":2540834.3300000001,"ADDRESS":"崇明路１０１６號","OBJECTID":580284},"geometry":{"x":170541.75,"y":2540834.3300000001}},{"attributes":{"ID":580312,"DIS_CODE":0,"TOWNNAME":"東區","LI":"崇明里","LIN":"16鄰","STREET":"崇明路","SECT":" ","MAREA":" ","LANE":" ","ALLEY":" ","HOUSE_NO":"１０１８號","E_COORD97":170537,"N_COORD97":2540838.5,"ADDRESS":"崇明路１０１８號","OBJECTID":580285},"geometry":{"x":170537,"y":2540838.5000000019}},{"attributes":{"ID":580313,"DIS_CODE":0,"TOWNNAME":"東區","LI":"崇明里","LIN":"16鄰","STREET":"崇明路","SECT":" ","MAREA":" ","LANE":" ","ALLEY":" ","HOUSE_NO":"１０２０號","E_COORD97":170532.82999999999,"N_COORD97":2540833.9399999999,"ADDRESS":"崇明路１０２０號","OBJECTID":580286},"geometry":{"x":170532.83000000007,"y":2540833.9400000032}},{"attributes":{"ID":580314,"DIS_CODE":0,"TOWNNAME":"東區","LI":"崇明里","LIN":"16鄰","STREET":"崇明路","SECT":" ","MAREA":" ","LANE":" ","ALLEY":" ","HOUSE_NO":"１０２２號","E_COORD97":170528.48000000001,"N_COORD97":2540838.2999999998,"ADDRESS":"崇明路１０２２號","OBJECTID":580287},"geometry":{"x":170528.48000000138,"y":2540838.3000000007}},{"attributes":{"ID":580315,"DIS_CODE":0,"TOWNNAME":"東區","LI":"崇明里","LIN":"16鄰","STREET":"崇明路","SECT":" ","MAREA":" ","LANE":" ","ALLEY":" ","HOUSE_NO":"１０２６號","E_COORD97":170521.94,"N_COORD97":2540833.7400000002,"ADDRESS":"崇明路１０２６號","OBJECTID":580288},"geometry":{"x":170521.94000000134,"y":2540833.7400000021}},{"attributes":{"ID":580316,"DIS_CODE":0,"TOWNNAME":"東區","LI":"崇明里","LIN":"16鄰","STREET":"崇明路","SECT":" ","MAREA":" ","LANE":" ","ALLEY":" ","HOUSE_NO":"１０２８號","E_COORD97":170521.54000000001,"N_COORD97":2540815.5099999998,"ADDRESS":"崇明路１０２８號","OBJECTID":580289},"geometry":{"x":170521.54000000004,"y":2540815.5099999998}},{"attributes":{"ID":580317,"DIS_CODE":0,"TOWNNAME":"東區","LI":"崇明里","LIN":"16鄰","STREET":"崇明路","SECT":" ","MAREA":" ","LANE":" ","ALLEY":" ","HOUSE_NO":"１０３０號","E_COORD97":170528.82000000001,"N_COORD97":2540815.4300000002,"ADDRESS":"崇明路１０３０號","OBJECTID":580290},"geometry":{"x":170528.82000000216,"y":2540815.4299999997}},{"attributes":{"ID":580318,"DIS_CODE":0,"TOWNNAME":"東區","LI":"崇明里","LIN":"16鄰","STREET":"崇明路","SECT":" ","MAREA":" ","LANE":" ","ALLEY":" ","HOUSE_NO":"１０３２號","E_COORD97":170531.88,"N_COORD97":2540811.9300000002,"ADDRESS":"崇明路１０３２號","OBJECTID":580291},"geometry":{"x":170531.88000000082,"y":2540811.9300000016}},{"attributes":{"ID":580319,"DIS_CODE":0,"TOWNNAME":"東區","LI":"崇明里","LIN":"16鄰","STREET":"崇明路","SECT":" ","MAREA":" ","LANE":" ","ALLEY":" ","HOUSE_NO":"１０３６號","E_COORD97":170541.20000000001,"N_COORD97":2540815.1400000001,"ADDRESS":"崇明路１０３６號","OBJECTID":580292},"geometry":{"x":170541.19999999925,"y":2540815.1400000006}},{"attributes":{"ID":580320,"DIS_CODE":0,"TOWNNAME":"東區","LI":"崇明里","LIN":"16鄰","STREET":"崇明路","SECT":" ","MAREA":" ","LANE":" ","ALLEY":" ","HOUSE_NO":"１０３８號","E_COORD97":170545.72,"N_COORD97":2540812.9500000002,"ADDRESS":"崇明路１０３８號","OBJECTID":580293},"geometry":{"x":170545.71999999881,"y":2540812.9499999974}},{"attributes":{"ID":580321,"DIS_CODE":0,"TOWNNAME":"東區","LI":"崇明里","LIN":"16鄰","STREET":"崇明路","SECT":" ","MAREA":" ","LANE":" ","ALLEY":" ","HOUSE_NO":"１０４０號","E_COORD97":170551.39999999999,"N_COORD97":2540815.5699999998,"ADDRESS":"崇明路１０４０號","OBJECTID":580294},"geometry":{"x":170551.40000000037,"y":2540815.5700000003}},{"attributes":{"ID":580322,"DIS_CODE":0,"TOWNNAME":"東區","LI":"崇明里","LIN":"16鄰","STREET":"崇明路","SECT":" ","MAREA":" ","LANE":" ","ALLEY":" ","HOUSE_NO":"１０４２號","E_COORD97":170556.64999999999,"N_COORD97":2540812.9500000002,"ADDRESS":"崇明路１０４２號","OBJECTID":580295},"geometry":{"x":170556.65000000037,"y":2540812.9499999974}},{"attributes":{"ID":580323,"DIS_CODE":0,"TOWNNAME":"東區","LI":"崇明里","LIN":"16鄰","STREET":"崇明路","SECT":" ","MAREA":" ","LANE":" ","ALLEY":" ","HOUSE_NO":"１０４６號","E_COORD97":170561.01999999999,"N_COORD97":2540815.8700000001,"ADDRESS":"崇明路１０４６號","OBJECTID":580296},"geometry":{"x":170561.02000000048,"y":2540815.8700000029}},{"attributes":{"ID":580324,"DIS_CODE":0,"TOWNNAME":"東區","LI":"崇明里","LIN":"16鄰","STREET":"崇明路","SECT":" ","MAREA":" ","LANE":" ","ALLEY":" ","HOUSE_NO":"１０４８號","E_COORD97":170566.12,"N_COORD97":2540813.1000000001,"ADDRESS":"崇明路１０４８號","OBJECTID":580297},"geometry":{"x":170566.12000000104,"y":2540813.1000000015}},{"attributes":{"ID":580325,"DIS_CODE":0,"TOWNNAME":"東區","LI":"崇明里","LIN":"16鄰","STREET":"崇明路","SECT":" ","MAREA":" ","LANE":" ","ALLEY":" ","HOUSE_NO":"１０５０號","E_COORD97":170575.01000000001,"N_COORD97":2540816.1600000001,"ADDRESS":"崇明路１０５０號","OBJECTID":580298},"geometry":{"x":170575.01000000071,"y":2540816.1600000039}},{"attributes":{"ID":580326,"DIS_CODE":0,"TOWNNAME":"東區","LI":"崇明里","LIN":"16鄰","STREET":"崇明路","SECT":" ","MAREA":" ","LANE":" ","ALLEY":" ","HOUSE_NO":"１０５２號","E_COORD97":170586.95999999999,"N_COORD97":2540813.6800000002,"ADDRESS":"崇明路１０５２號","OBJECTID":580299},"geometry":{"x":170586.96000000089,"y":2540813.6800000016}},{"attributes":{"ID":580327,"DIS_CODE":0,"TOWNNAME":"東區","LI":"崇明里","LIN":"16鄰","STREET":"崇明路","SECT":" ","MAREA":" ","LANE":" ","ALLEY":" ","HOUSE_NO":"７１２號","E_COORD97":170591.10000000001,"N_COORD97":2541038.6099999999,"ADDRESS":"崇明路７１２號","OBJECTID":580300},"geometry":{"x":170591.10000000056,"y":2541038.6099999994}},{"attributes":{"ID":580328,"DIS_CODE":0,"TOWNNAME":"東區","LI":"崇明里","LIN":"16鄰","STREET":"崇明路","SECT":" ","MAREA":" ","LANE":" ","ALLEY":" ","HOUSE_NO":"７１６號","E_COORD97":170590.85999999999,"N_COORD97":2541035.29,"ADDRESS":"崇明路７１６號","OBJECTID":580301},"geometry":{"x":170590.86000000034,"y":2541035.290000001}},{"attributes":{"ID":580329,"DIS_CODE":0,"TOWNNAME":"東區","LI":"崇明里","LIN":"16鄰","STREET":"崇明路","SECT":" ","MAREA":" ","LANE":" ","ALLEY":" ","HOUSE_NO":"７１８號","E_COORD97":170590.60999999999,"N_COORD97":2541030.8599999999,"ADDRESS":"崇明路７１８號","OBJECTID":580302},"geometry":{"x":170590.61000000034,"y":2541030.8600000031}},{"attributes":{"ID":580330,"DIS_CODE":0,"TOWNNAME":"東區","LI":"崇明里","LIN":"16鄰","STREET":"崇明路","SECT":" ","MAREA":" ","LANE":" ","ALLEY":" ","HOUSE_NO":"７２０號","E_COORD97":170590.85999999999,"N_COORD97":2541025.3199999998,"ADDRESS":"崇明路７２０號","OBJECTID":580303},"geometry":{"x":170590.86000000034,"y":2541025.320000004}},{"attributes":{"ID":580331,"DIS_CODE":0,"TOWNNAME":"東區","LI":"崇明里","LIN":"16鄰","STREET":"崇明路","SECT":" ","MAREA":" ","LANE":" ","ALLEY":" ","HOUSE_NO":"７２２號","E_COORD97":170590.73000000001,"N_COORD97":2541019.9100000001,"ADDRESS":"崇明路７２２號","OBJECTID":580304},"geometry":{"x":170590.73000000138,"y":2541019.9100000001}},{"attributes":{"ID":580332,"DIS_CODE":0,"TOWNNAME":"東區","LI":"崇明里","LIN":"16鄰","STREET":"崇明路","SECT":" ","MAREA":" ","LANE":" ","ALLEY":" ","HOUSE_NO":"７２６號","E_COORD97":170590.98000000001,"N_COORD97":2541015.3500000001,"ADDRESS":"崇明路７２６號","OBJECTID":580305},"geometry":{"x":170590.98000000138,"y":2541015.3500000015}},{"attributes":{"ID":580333,"DIS_CODE":0,"TOWNNAME":"東區","LI":"崇明里","LIN":"16鄰","STREET":"崇明路","SECT":" ","MAREA":" ","LANE":" ","ALLEY":" ","HOUSE_NO":"７２８號","E_COORD97":170590.98000000001,"N_COORD97":2541010.1800000002,"ADDRESS":"崇明路７２８號","OBJECTID":580306},"geometry":{"x":170590.98000000138,"y":2541010.1800000016}},{"attributes":{"ID":580334,"DIS_CODE":0,"TOWNNAME":"東區","LI":"崇明里","LIN":"16鄰","STREET":"崇明路","SECT":" ","MAREA":" ","LANE":" ","ALLEY":" ","HOUSE_NO":"７３０號","E_COORD97":170591.10000000001,"N_COORD97":2541004.6400000001,"ADDRESS":"崇明路７３０號","OBJECTID":580307},"geometry":{"x":170591.10000000056,"y":2541004.6400000025}},{"attributes":{"ID":580335,"DIS_CODE":0,"TOWNNAME":"東區","LI":"崇明里","LIN":"16鄰","STREET":"崇明路","SECT":" ","MAREA":" ","LANE":" ","ALLEY":" ","HOUSE_NO":"７３２號","E_COORD97":170591.23000000001,"N_COORD97":2540999.48,"ADDRESS":"崇明路７３２號","OBJECTID":580308},"geometry":{"x":170591.23000000138,"y":2540999.4800000004}},{"attributes":{"ID":580336,"DIS_CODE":0,"TOWNNAME":"東區","LI":"崇明里","LIN":"16鄰","STREET":"崇明路","SECT":" ","MAREA":" ","LANE":" ","ALLEY":" ","HOUSE_NO":"７３６號","E_COORD97":170591.10000000001,"N_COORD97":2540994.4300000002,"ADDRESS":"崇明路７３６號","OBJECTID":580309},"geometry":{"x":170591.10000000056,"y":2540994.4300000016}},{"attributes":{"ID":580337,"DIS_CODE":0,"TOWNNAME":"東區","LI":"崇明里","LIN":"16鄰","STREET":"崇明路","SECT":" ","MAREA":" ","LANE":" ","ALLEY":" ","HOUSE_NO":"７３８號","E_COORD97":170591.51999999999,"N_COORD97":2540989.3799999999,"ADDRESS":"崇明路７３８號","OBJECTID":580310},"geometry":{"x":170591.52000000048,"y":2540989.3799999971}},{"attributes":{"ID":580338,"DIS_CODE":0,"TOWNNAME":"東區","LI":"崇明里","LIN":"16鄰","STREET":"崇明路","SECT":" ","MAREA":" ","LANE":" ","ALLEY":" ","HOUSE_NO":"７４０號","E_COORD97":170579.12,"N_COORD97":2540989.4199999999,"ADDRESS":"崇明路７４０號","OBJECTID":580311},"geometry":{"x":170579.12000000197,"y":2540989.4199999999}},{"attributes":{"ID":580339,"DIS_CODE":0,"TOWNNAME":"東區","LI":"崇明里","LIN":"16鄰","STREET":"崇明路","SECT":" ","MAREA":" ","LANE":" ","ALLEY":" ","HOUSE_NO":"７４２號","E_COORD97":170571.60999999999,"N_COORD97":2540989.5600000001,"ADDRESS":"崇明路７４２號","OBJECTID":580312},"geometry":{"x":170571.61000000127,"y":2540989.5600000005}},{"attributes":{"ID":580340,"DIS_CODE":0,"TOWNNAME":"東區","LI":"崇明里","LIN":"16鄰","STREET":"崇明路","SECT":" ","MAREA":" ","LANE":" ","ALLEY":" ","HOUSE_NO":"７４６號","E_COORD97":170565.94,"N_COORD97":2540989.7000000002,"ADDRESS":"崇明路７４６號","OBJECTID":580313},"geometry":{"x":170565.94000000134,"y":2540989.6999999993}},{"attributes":{"ID":580341,"DIS_CODE":0,"TOWNNAME":"東區","LI":"崇明里","LIN":"16鄰","STREET":"崇明路","SECT":" ","MAREA":" ","LANE":" ","ALLEY":" ","HOUSE_NO":"７４８號","E_COORD97":170560.82999999999,"N_COORD97":2540990.27,"ADDRESS":"崇明路７４８號","OBJECTID":580314},"geometry":{"x":170560.83000000101,"y":2540990.2699999996}},{"attributes":{"ID":580342,"DIS_CODE":0,"TOWNNAME":"東區","LI":"崇明里","LIN":"16鄰","STREET":"崇明路","SECT":" ","MAREA":" ","LANE":" ","ALLEY":" ","HOUSE_NO":"７５０號","E_COORD97":170554.03,"N_COORD97":2540990.5499999998,"ADDRESS":"崇明路７５０號","OBJECTID":580315},"geometry":{"x":170554.03000000026,"y":2540990.5500000045}},{"attributes":{"ID":580343,"DIS_CODE":0,"TOWNNAME":"東區","LI":"崇明里","LIN":"16鄰","STREET":"崇明路","SECT":" ","MAREA":" ","LANE":" ","ALLEY":" ","HOUSE_NO":"７５２號","E_COORD97":170546.64999999999,"N_COORD97":2540990.8399999999,"ADDRESS":"崇明路７５２號","OBJECTID":580316},"geometry":{"x":170546.65000000037,"y":2540990.8400000036}},{"attributes":{"ID":580344,"DIS_CODE":0,"TOWNNAME":"東區","LI":"崇明里","LIN":"16鄰","STREET":"崇明路","SECT":" ","MAREA":" ","LANE":" ","ALLEY":" ","HOUSE_NO":"７５６號","E_COORD97":170546.94,"N_COORD97":2541009.4100000001,"ADDRESS":"崇明路７５６號","OBJECTID":580317},"geometry":{"x":170546.94000000134,"y":2541009.4100000001}},{"attributes":{"ID":580345,"DIS_CODE":0,"TOWNNAME":"東區","LI":"崇明里","LIN":"16鄰","STREET":"崇明路","SECT":" ","MAREA":" ","LANE":" ","ALLEY":" ","HOUSE_NO":"７５８號","E_COORD97":170550.62,"N_COORD97":2541009.27,"ADDRESS":"崇明路７５８號","OBJECTID":580318},"geometry":{"x":170550.62000000104,"y":2541009.2700000014}},{"attributes":{"ID":580346,"DIS_CODE":0,"TOWNNAME":"東區","LI":"崇明里","LIN":"16鄰","STREET":"崇明路","SECT":" ","MAREA":" ","LANE":" ","ALLEY":" ","HOUSE_NO":"７６０號","E_COORD97":170556.44,"N_COORD97":2541009.1299999999,"ADDRESS":"崇明路７６０號","OBJECTID":580319},"geometry":{"x":170556.44000000041,"y":2541009.1300000008}},{"attributes":{"ID":580347,"DIS_CODE":0,"TOWNNAME":"東區","LI":"崇明里","LIN":"16鄰","STREET":"崇明路","SECT":" ","MAREA":" ","LANE":" ","ALLEY":" ","HOUSE_NO":"７６２號","E_COORD97":170560.97,"N_COORD97":2541008.5600000001,"ADDRESS":"崇明路７６２號","OBJECTID":580320},"geometry":{"x":170560.96999999881,"y":2541008.5600000024}},{"attributes":{"ID":580348,"DIS_CODE":0,"TOWNNAME":"東區","LI":"崇明里","LIN":"16鄰","STREET":"崇明路","SECT":" ","MAREA":" ","LANE":" ","ALLEY":" ","HOUSE_NO":"７６６號","E_COORD97":170565.94,"N_COORD97":2541008.4199999999,"ADDRESS":"崇明路７６６號","OBJECTID":580321},"geometry":{"x":170565.94000000134,"y":2541008.4200000018}},{"attributes":{"ID":580349,"DIS_CODE":0,"TOWNNAME":"東區","LI":"崇明里","LIN":"16鄰","STREET":"崇明路","SECT":" ","MAREA":" ","LANE":" ","ALLEY":" ","HOUSE_NO":"７６８號","E_COORD97":170570.89999999999,"N_COORD97":2541008.7000000002,"ADDRESS":"崇明路７６８號","OBJECTID":580322},"geometry":{"x":170570.9000000013,"y":2541008.7000000011}},{"attributes":{"ID":580350,"DIS_CODE":0,"TOWNNAME":"東區","LI":"崇明里","LIN":"16鄰","STREET":"崇明路","SECT":" ","MAREA":" ","LANE":" ","ALLEY":" ","HOUSE_NO":"７７０號","E_COORD97":170574.16,"N_COORD97":2541008.5600000001,"ADDRESS":"崇明路７７０號","OBJECTID":580323},"geometry":{"x":170574.16000000108,"y":2541008.5600000024}},{"attributes":{"ID":580351,"DIS_CODE":0,"TOWNNAME":"東區","LI":"崇明里","LIN":"16鄰","STREET":"崇明路","SECT":" ","MAREA":" ","LANE":" ","ALLEY":" ","HOUSE_NO":"７７２號","E_COORD97":170580.54000000001,"N_COORD97":2541008.2799999998,"ADDRESS":"崇明路７７２號","OBJECTID":580324},"geometry":{"x":170580.54000000004,"y":2541008.2800000012}},{"attributes":{"ID":580352,"DIS_CODE":0,"TOWNNAME":"東區","LI":"崇明里","LIN":"16鄰","STREET":"崇明路","SECT":" ","MAREA":" ","LANE":" ","ALLEY":" ","HOUSE_NO":"７７６號","E_COORD97":170582.67000000001,"N_COORD97":2541024.4399999999,"ADDRESS":"崇明路７７６號","OBJECTID":580325},"geometry":{"x":170582.67000000086,"y":2541024.4400000013}},{"attributes":{"ID":580353,"DIS_CODE":0,"TOWNNAME":"東區","LI":"崇明里","LIN":"16鄰","STREET":"崇明路","SECT":" ","MAREA":" ","LANE":" ","ALLEY":" ","HOUSE_NO":"７７８號","E_COORD97":170576.42999999999,"N_COORD97":2541024.8700000001,"ADDRESS":"崇明路７７８號","OBJECTID":580326},"geometry":{"x":170576.42999999877,"y":2541024.870000001}},{"attributes":{"ID":580354,"DIS_CODE":0,"TOWNNAME":"東區","LI":"崇明里","LIN":"16鄰","STREET":"崇明路","SECT":" ","MAREA":" ","LANE":" ","ALLEY":" ","HOUSE_NO":"７８０號","E_COORD97":170572.88,"N_COORD97":2541025.29,"ADDRESS":"崇明路７８０號","OBJECTID":580327},"geometry":{"x":170572.87999999989,"y":2541025.290000001}},{"attributes":{"ID":580355,"DIS_CODE":0,"TOWNNAME":"東區","LI":"崇明里","LIN":"16鄰","STREET":"崇明路","SECT":" ","MAREA":" ","LANE":" ","ALLEY":" ","HOUSE_NO":"７８２號","E_COORD97":170567.78,"N_COORD97":2541025.5699999998,"ADDRESS":"崇明路７８２號","OBJECTID":580328},"geometry":{"x":170567.78000000026,"y":2541025.5700000003}},{"attributes":{"ID":580356,"DIS_CODE":0,"TOWNNAME":"東區","LI":"崇明里","LIN":"16鄰","STREET":"崇明路","SECT":" ","MAREA":" ","LANE":" ","ALLEY":" ","HOUSE_NO":"７８６號","E_COORD97":170561.97,"N_COORD97":2541025.5699999998,"ADDRESS":"崇明路７８６號","OBJECTID":580329},"geometry":{"x":170561.96999999974,"y":2541025.5700000003}},{"attributes":{"ID":580357,"DIS_CODE":0,"TOWNNAME":"東區","LI":"崇明里","LIN":"16鄰","STREET":"崇明路","SECT":" ","MAREA":" ","LANE":" ","ALLEY":" ","HOUSE_NO":"７８８號","E_COORD97":170557.70999999999,"N_COORD97":2541026.4300000002,"ADDRESS":"崇明路７８８號","OBJECTID":580330},"geometry":{"x":170557.70999999996,"y":2541026.4299999997}},{"attributes":{"ID":580358,"DIS_CODE":0,"TOWNNAME":"東區","LI":"崇明里","LIN":"16鄰","STREET":"崇明路","SECT":" ","MAREA":" ","LANE":" ","ALLEY":" ","HOUSE_NO":"７９０號","E_COORD97":170552.60999999999,"N_COORD97":2541026.1400000001,"ADDRESS":"崇明路７９０號","OBJECTID":580331},"geometry":{"x":170552.61000000127,"y":2541026.1400000006}},{"attributes":{"ID":580359,"DIS_CODE":0,"TOWNNAME":"東區","LI":"崇明里","LIN":"16鄰","STREET":"崇明路","SECT":" ","MAREA":" ","LANE":" ","ALLEY":" ","HOUSE_NO":"７９２號","E_COORD97":170547.07999999999,"N_COORD97":2541026,"ADDRESS":"崇明路７９２號","OBJECTID":580332},"geometry":{"x":170547.08000000194,"y":2541026}},{"attributes":{"ID":580360,"DIS_CODE":0,"TOWNNAME":"東區","LI":"崇明里","LIN":"16鄰","STREET":"崇明路","SECT":" ","MAREA":" ","LANE":" ","ALLEY":" ","HOUSE_NO":"７９６號","E_COORD97":170581.10999999999,"N_COORD97":2541046.4199999999,"ADDRESS":"崇明路７９６號","OBJECTID":580333},"geometry":{"x":170581.1100000022,"y":2541046.4199999999}},{"attributes":{"ID":580361,"DIS_CODE":0,"TOWNNAME":"東區","LI":"崇明里","LIN":"16鄰","STREET":"崇明路","SECT":" ","MAREA":" ","LANE":" ","ALLEY":" ","HOUSE_NO":"７９８號","E_COORD97":170570.32999999999,"N_COORD97":2541046.8399999999,"ADDRESS":"崇明路７９８號","OBJECTID":580334},"geometry":{"x":170570.33000000007,"y":2541046.8399999999}},{"attributes":{"ID":580362,"DIS_CODE":0,"TOWNNAME":"東區","LI":"崇明里","LIN":"16鄰","STREET":"崇明路","SECT":" ","MAREA":" ","LANE":" ","ALLEY":" ","HOUSE_NO":"８００號","E_COORD97":170559.41,"N_COORD97":2541046.7000000002,"ADDRESS":"崇明路８００號","OBJECTID":580335},"geometry":{"x":170559.41000000015,"y":2541046.7000000011}},{"attributes":{"ID":580363,"DIS_CODE":0,"TOWNNAME":"東區","LI":"崇明里","LIN":"16鄰","STREET":"崇明路","SECT":" ","MAREA":" ","LANE":" ","ALLEY":" ","HOUSE_NO":"８０２號","E_COORD97":170549.06,"N_COORD97":2541046.9900000002,"ADDRESS":"崇明路８０２號","OBJECTID":580336},"geometry":{"x":170549.06000000052,"y":2541046.9900000002}},{"attributes":{"ID":580364,"DIS_CODE":0,"TOWNNAME":"東區","LI":"崇明里","LIN":"16鄰","STREET":"崇明路","SECT":" ","MAREA":" ","LANE":" ","ALLEY":" ","HOUSE_NO":"８０６號","E_COORD97":170540.13,"N_COORD97":2541047.1299999999,"ADDRESS":"崇明路８０６號","OBJECTID":580337},"geometry":{"x":170540.13000000082,"y":2541047.1300000008}},{"attributes":{"ID":580365,"DIS_CODE":0,"TOWNNAME":"東區","LI":"崇明里","LIN":"16鄰","STREET":"崇明路","SECT":" ","MAREA":" ","LANE":" ","ALLEY":" ","HOUSE_NO":"８０８號","E_COORD97":170532.62,"N_COORD97":2541047.5499999998,"ADDRESS":"崇明路８０８號","OBJECTID":580338},"geometry":{"x":170532.62000000011,"y":2541047.5500000007}},{"attributes":{"ID":580366,"DIS_CODE":0,"TOWNNAME":"東區","LI":"崇明里","LIN":"16鄰","STREET":"崇明路","SECT":" ","MAREA":" ","LANE":" ","ALLEY":" ","HOUSE_NO":"８１０號","E_COORD97":170525.10000000001,"N_COORD97":2541047.6899999999,"ADDRESS":"崇明路８１０號","OBJECTID":580339},"geometry":{"x":170525.10000000056,"y":2541047.6899999995}},{"attributes":{"ID":580367,"DIS_CODE":0,"TOWNNAME":"東區","LI":"崇明里","LIN":"16鄰","STREET":"崇明路","SECT":" ","MAREA":" ","LANE":" ","ALLEY":" ","HOUSE_NO":"８１２號","E_COORD97":170515.88,"N_COORD97":2541047.5499999998,"ADDRESS":"崇明路８１２號","OBJECTID":580340},"geometry":{"x":170515.87999999989,"y":2541047.5500000007}},{"attributes":{"ID":580368,"DIS_CODE":0,"TOWNNAME":"東區","LI":"崇明里","LIN":"16鄰","STREET":"崇明路","SECT":" ","MAREA":" ","LANE":" ","ALLEY":" ","HOUSE_NO":"８１６號","E_COORD97":170525.38,"N_COORD97":2541026.8500000001,"ADDRESS":"崇明路８１６號","OBJECTID":580341},"geometry":{"x":170525.38000000082,"y":2541026.8499999996}},{"attributes":{"ID":580369,"DIS_CODE":0,"TOWNNAME":"東區","LI":"崇明里","LIN":"16鄰","STREET":"崇明路","SECT":" ","MAREA":" ","LANE":" ","ALLEY":" ","HOUSE_NO":"８１８號","E_COORD97":170517.44,"N_COORD97":2541027.2799999998,"ADDRESS":"崇明路８１８號","OBJECTID":580342},"geometry":{"x":170517.44000000041,"y":2541027.2799999993}},{"attributes":{"ID":580370,"DIS_CODE":0,"TOWNNAME":"東區","LI":"崇明里","LIN":"16鄰","STREET":"崇明路","SECT":" ","MAREA":" ","LANE":" ","ALLEY":" ","HOUSE_NO":"８２０號","E_COORD97":170517.29999999999,"N_COORD97":2541009.98,"ADDRESS":"崇明路８２０號","OBJECTID":580343},"geometry":{"x":170517.30000000075,"y":2541009.9800000004}},{"attributes":{"ID":580371,"DIS_CODE":0,"TOWNNAME":"東區","LI":"崇明里","LIN":"16鄰","STREET":"崇明路","SECT":" ","MAREA":" ","LANE":" ","ALLEY":" ","HOUSE_NO":"８２２號","E_COORD97":170525.53,"N_COORD97":2541009.6899999999,"ADDRESS":"崇明路８２２號","OBJECTID":580344},"geometry":{"x":170525.52999999933,"y":2541009.6900000013}},{"attributes":{"ID":580372,"DIS_CODE":0,"TOWNNAME":"東區","LI":"崇明里","LIN":"16鄰","STREET":"崇明路","SECT":" ","MAREA":" ","LANE":" ","ALLEY":" ","HOUSE_NO":"８２６號","E_COORD97":170527.37,"N_COORD97":2540990.5499999998,"ADDRESS":"崇明路８２６號","OBJECTID":580345},"geometry":{"x":170527.37000000104,"y":2540990.5500000045}},{"attributes":{"ID":580373,"DIS_CODE":0,"TOWNNAME":"東區","LI":"崇明里","LIN":"16鄰","STREET":"崇明路","SECT":" ","MAREA":" ","LANE":" ","ALLEY":" ","HOUSE_NO":"８２８號","E_COORD97":170518.01000000001,"N_COORD97":2540991.2599999998,"ADDRESS":"崇明路８２８號","OBJECTID":580346},"geometry":{"x":170518.00999999978,"y":2540991.2600000035}},{"attributes":{"ID":580374,"DIS_CODE":0,"TOWNNAME":"東區","LI":"崇明里","LIN":"16鄰","STREET":"崇明路","SECT":" ","MAREA":" ","LANE":" ","ALLEY":" ","HOUSE_NO":"８３０號","E_COORD97":170518.14999999999,"N_COORD97":2540975.3799999999,"ADDRESS":"崇明路８３０號","OBJECTID":580347},"geometry":{"x":170518.15000000224,"y":2540975.379999999}},{"attributes":{"ID":580375,"DIS_CODE":0,"TOWNNAME":"東區","LI":"崇明里","LIN":"16鄰","STREET":"崇明路","SECT":" ","MAREA":" ","LANE":" ","ALLEY":" ","HOUSE_NO":"８３２號","E_COORD97":170527.37,"N_COORD97":2540975.2400000002,"ADDRESS":"崇明路８３２號","OBJECTID":580348},"geometry":{"x":170527.37000000104,"y":2540975.2400000021}},{"attributes":{"ID":580376,"DIS_CODE":0,"TOWNNAME":"東區","LI":"崇明里","LIN":"16鄰","STREET":"崇明路","SECT":" ","MAREA":" ","LANE":" ","ALLEY":" ","HOUSE_NO":"８３６號","E_COORD97":170523.10999999999,"N_COORD97":2540947.1000000001,"ADDRESS":"崇明路８３６號","OBJECTID":580349},"geometry":{"x":170523.11000000034,"y":2540947.0999999996}},{"attributes":{"ID":580377,"DIS_CODE":0,"TOWNNAME":"東區","LI":"崇明里","LIN":"16鄰","STREET":"崇明路","SECT":" ","MAREA":" ","LANE":" ","ALLEY":" ","HOUSE_NO":"８３８號","E_COORD97":170519.31,"N_COORD97":2540925.0099999998,"ADDRESS":"崇明路８３８號","OBJECTID":580350},"geometry":{"x":170519.30999999959,"y":2540925.0100000035}},{"attributes":{"ID":580378,"DIS_CODE":0,"TOWNNAME":"東區","LI":"崇明里","LIN":"16鄰","STREET":"崇明路","SECT":" ","MAREA":" ","LANE":" ","ALLEY":" ","HOUSE_NO":"８４０號","E_COORD97":170530.01999999999,"N_COORD97":2540925.7000000002,"ADDRESS":"崇明路８４０號","OBJECTID":580351},"geometry":{"x":170530.02000000142,"y":2540925.6999999993}},{"attributes":{"ID":580379,"DIS_CODE":0,"TOWNNAME":"東區","LI":"崇明里","LIN":"16鄰","STREET":"崇明路","SECT":" ","MAREA":" ","LANE":" ","ALLEY":" ","HOUSE_NO":"８４２號","E_COORD97":170528.98000000001,"N_COORD97":2540903.9500000002,"ADDRESS":"崇明路８４２號","OBJECTID":580352},"geometry":{"x":170528.98000000045,"y":2540903.9499999993}},{"attributes":{"ID":580380,"DIS_CODE":0,"TOWNNAME":"東區","LI":"崇明里","LIN":"16鄰","STREET":"崇明路","SECT":" ","MAREA":" ","LANE":" ","ALLEY":" ","HOUSE_NO":"８４６號","E_COORD97":170519.31,"N_COORD97":2540904.98,"ADDRESS":"崇明路８４６號","OBJECTID":580353},"geometry":{"x":170519.30999999959,"y":2540904.9800000004}},{"attributes":{"ID":580381,"DIS_CODE":0,"TOWNNAME":"東區","LI":"崇明里","LIN":"16鄰","STREET":"崇明路","SECT":" ","MAREA":" ","LANE":" ","ALLEY":" ","HOUSE_NO":"８４８號","E_COORD97":170517.23999999999,"N_COORD97":2540874.9500000002,"ADDRESS":"崇明路８４８號","OBJECTID":580354},"geometry":{"x":170517.23999999929,"y":2540874.9500000011}},{"attributes":{"ID":580382,"DIS_CODE":0,"TOWNNAME":"東區","LI":"崇明里","LIN":"16鄰","STREET":"崇明路","SECT":" ","MAREA":" ","LANE":" ","ALLEY":" ","HOUSE_NO":"８５０號","E_COORD97":170521.42000000001,"N_COORD97":2540875.1800000002,"ADDRESS":"崇明路８５０號","OBJECTID":580355},"geometry":{"x":170521.42000000086,"y":2540875.1799999997}},{"attributes":{"ID":580383,"DIS_CODE":0,"TOWNNAME":"東區","LI":"崇明里","LIN":"16鄰","STREET":"崇明路","SECT":" ","MAREA":" ","LANE":" ","ALLEY":" ","HOUSE_NO":"８５２號","E_COORD97":170525.23999999999,"N_COORD97":2540875.1800000002,"ADDRESS":"崇明路８５２號","OBJECTID":580356},"geometry":{"x":170525.24000000022,"y":2540875.1799999997}},{"attributes":{"ID":580384,"DIS_CODE":0,"TOWNNAME":"東區","LI":"崇明里","LIN":"16鄰","STREET":"崇明路","SECT":" ","MAREA":" ","LANE":" ","ALLEY":" ","HOUSE_NO":"８５６號","E_COORD97":170529.04999999999,"N_COORD97":2540874.8999999999,"ADDRESS":"崇明路８５６號","OBJECTID":580357},"geometry":{"x":170529.05000000075,"y":2540874.9000000004}},{"attributes":{"ID":580385,"DIS_CODE":0,"TOWNNAME":"東區","LI":"崇明里","LIN":"16鄰","STREET":"崇明路","SECT":" ","MAREA":" ","LANE":" ","ALLEY":" ","HOUSE_NO":"８５８號","E_COORD97":170533.85999999999,"N_COORD97":2540874.7599999998,"ADDRESS":"崇明路８５８號","OBJECTID":580358},"geometry":{"x":170533.86000000127,"y":2540874.7599999998}},{"attributes":{"ID":580386,"DIS_CODE":0,"TOWNNAME":"東區","LI":"崇明里","LIN":"16鄰","STREET":"崇明路","SECT":" ","MAREA":" ","LANE":" ","ALLEY":" ","HOUSE_NO":"８６０號","E_COORD97":170538.53,"N_COORD97":2540874.8999999999,"ADDRESS":"崇明路８６０號","OBJECTID":580359},"geometry":{"x":170538.53000000026,"y":2540874.9000000004}},{"attributes":{"ID":580387,"DIS_CODE":0,"TOWNNAME":"東區","LI":"崇明里","LIN":"16鄰","STREET":"崇明路","SECT":" ","MAREA":" ","LANE":" ","ALLEY":" ","HOUSE_NO":"８６２號","E_COORD97":170543.34,"N_COORD97":2540875.04,"ADDRESS":"崇明路８６２號","OBJECTID":580360},"geometry":{"x":170543.33999999892,"y":2540875.040000001}},{"attributes":{"ID":580388,"DIS_CODE":0,"TOWNNAME":"東區","LI":"崇明里","LIN":"16鄰","STREET":"崇明路","SECT":" ","MAREA":" ","LANE":" ","ALLEY":" ","HOUSE_NO":"８６６號","E_COORD97":170548,"N_COORD97":2540875.04,"ADDRESS":"崇明路８６６號","OBJECTID":580361},"geometry":{"x":170548.00000000093,"y":2540875.040000001}},{"attributes":{"ID":580389,"DIS_CODE":0,"TOWNNAME":"東區","LI":"崇明里","LIN":"16鄰","STREET":"崇明路","SECT":" ","MAREA":" ","LANE":" ","ALLEY":" ","HOUSE_NO":"８６８號","E_COORD97":170553.51999999999,"N_COORD97":2540874.4700000002,"ADDRESS":"崇明路８６８號","OBJECTID":580362},"geometry":{"x":170553.51999999955,"y":2540874.4700000007}},{"attributes":{"ID":580390,"DIS_CODE":0,"TOWNNAME":"東區","LI":"崇明里","LIN":"16鄰","STREET":"崇明路","SECT":" ","MAREA":" ","LANE":" ","ALLEY":" ","HOUSE_NO":"８７０號","E_COORD97":170559.03,"N_COORD97":2540875.1800000002,"ADDRESS":"崇明路８７０號","OBJECTID":580363},"geometry":{"x":170559.03000000026,"y":2540875.1799999997}},{"attributes":{"ID":580391,"DIS_CODE":0,"TOWNNAME":"東區","LI":"崇明里","LIN":"16鄰","STREET":"崇明路","SECT":" ","MAREA":" ","LANE":" ","ALLEY":" ","HOUSE_NO":"８７２號","E_COORD97":170565.39999999999,"N_COORD97":2540875.1800000002,"ADDRESS":"崇明路８７２號","OBJECTID":580364},"geometry":{"x":170565.40000000037,"y":2540875.1799999997}},{"attributes":{"ID":580392,"DIS_CODE":0,"TOWNNAME":"東區","LI":"崇明里","LIN":"16鄰","STREET":"崇明路","SECT":" ","MAREA":" ","LANE":" ","ALLEY":" ","HOUSE_NO":"８７６號","E_COORD97":170573.60000000001,"N_COORD97":2540875.3199999998,"ADDRESS":"崇明路８７６號","OBJECTID":580365},"geometry":{"x":170573.60000000149,"y":2540875.3200000003}},{"attributes":{"ID":580393,"DIS_CODE":0,"TOWNNAME":"東區","LI":"崇明里","LIN":"16鄰","STREET":"崇明路","SECT":" ","MAREA":" ","LANE":" ","ALLEY":" ","HOUSE_NO":"８７８號","E_COORD97":170575.14999999999,"N_COORD97":2540903.46,"ADDRESS":"崇明路８７８號","OBJECTID":580366},"geometry":{"x":170575.15000000037,"y":2540903.4600000028}},{"attributes":{"ID":580394,"DIS_CODE":0,"TOWNNAME":"東區","LI":"崇明里","LIN":"16鄰","STREET":"崇明路","SECT":" ","MAREA":" ","LANE":" ","ALLEY":" ","HOUSE_NO":"８８０號","E_COORD97":170571.04999999999,"N_COORD97":2540903.6000000001,"ADDRESS":"崇明路８８０號","OBJECTID":580367},"geometry":{"x":170571.05000000075,"y":2540903.5999999996}},{"attributes":{"ID":580395,"DIS_CODE":0,"TOWNNAME":"東區","LI":"崇明里","LIN":"16鄰","STREET":"崇明路","SECT":" ","MAREA":" ","LANE":" ","ALLEY":" ","HOUSE_NO":"８８２號","E_COORD97":170566.81,"N_COORD97":2540903.8900000001,"ADDRESS":"崇明路８８２號","OBJECTID":580368},"geometry":{"x":170566.80999999959,"y":2540903.8900000025}},{"attributes":{"ID":580396,"DIS_CODE":0,"TOWNNAME":"東區","LI":"崇明里","LIN":"16鄰","STREET":"崇明路","SECT":" ","MAREA":" ","LANE":" ","ALLEY":" ","HOUSE_NO":"８８６號","E_COORD97":170562.42999999999,"N_COORD97":2540903.8900000001,"ADDRESS":"崇明路８８６號","OBJECTID":580369},"geometry":{"x":170562.4299999997,"y":2540903.8900000025}},{"attributes":{"ID":580397,"DIS_CODE":0,"TOWNNAME":"東區","LI":"崇明里","LIN":"16鄰","STREET":"崇明路","SECT":" ","MAREA":" ","LANE":" ","ALLEY":" ","HOUSE_NO":"８８８號","E_COORD97":170558.17999999999,"N_COORD97":2540904.1699999999,"ADDRESS":"崇明路８８８號","OBJECTID":580370},"geometry":{"x":170558.18000000063,"y":2540904.1700000018}},{"attributes":{"ID":580398,"DIS_CODE":0,"TOWNNAME":"東區","LI":"崇明里","LIN":"16鄰","STREET":"崇明路","SECT":" ","MAREA":" ","LANE":" ","ALLEY":" ","HOUSE_NO":"８９０號","E_COORD97":170554.37,"N_COORD97":2540904.5899999999,"ADDRESS":"崇明路８９０號","OBJECTID":580371},"geometry":{"x":170554.37000000104,"y":2540904.5900000036}},{"attributes":{"ID":580399,"DIS_CODE":0,"TOWNNAME":"東區","LI":"崇明里","LIN":"16鄰","STREET":"崇明路","SECT":" ","MAREA":" ","LANE":" ","ALLEY":" ","HOUSE_NO":"８９２號","E_COORD97":170550.26000000001,"N_COORD97":2540904.5899999999,"ADDRESS":"崇明路８９２號","OBJECTID":580372},"geometry":{"x":170550.25999999978,"y":2540904.5900000036}},{"attributes":{"ID":580400,"DIS_CODE":0,"TOWNNAME":"東區","LI":"崇明里","LIN":"16鄰","STREET":"崇明路","SECT":" ","MAREA":" ","LANE":" ","ALLEY":" ","HOUSE_NO":"８９６號","E_COORD97":170545.03,"N_COORD97":2540904.1699999999,"ADDRESS":"崇明路８９６號","OBJECTID":580373},"geometry":{"x":170545.03000000119,"y":2540904.1700000018}},{"attributes":{"ID":580401,"DIS_CODE":0,"TOWNNAME":"東區","LI":"崇明里","LIN":"16鄰","STREET":"崇明路","SECT":" ","MAREA":" ","LANE":" ","ALLEY":" ","HOUSE_NO":"８９８號","E_COORD97":170544.04000000001,"N_COORD97":2540925.2400000002,"ADDRESS":"崇明路８９８號","OBJECTID":580374},"geometry":{"x":170544.0400000019,"y":2540925.2400000021}},{"attributes":{"ID":580402,"DIS_CODE":0,"TOWNNAME":"東區","LI":"崇明里","LIN":"16鄰","STREET":"崇明路","SECT":" ","MAREA":" ","LANE":" ","ALLEY":" ","HOUSE_NO":"９００號","E_COORD97":170549.26999999999,"N_COORD97":2540925.1000000001,"ADDRESS":"崇明路９００號","OBJECTID":580375},"geometry":{"x":170549.27000000048,"y":2540925.1000000015}},{"attributes":{"ID":580403,"DIS_CODE":0,"TOWNNAME":"東區","LI":"崇明里","LIN":"16鄰","STREET":"崇明路","SECT":" ","MAREA":" ","LANE":" ","ALLEY":" ","HOUSE_NO":"９０２號","E_COORD97":170554.07999999999,"N_COORD97":2540924.96,"ADDRESS":"崇明路９０２號","OBJECTID":580376},"geometry":{"x":170554.08000000101,"y":2540924.9600000028}},{"attributes":{"ID":580404,"DIS_CODE":0,"TOWNNAME":"東區","LI":"崇明里","LIN":"16鄰","STREET":"崇明路","SECT":" ","MAREA":" ","LANE":" ","ALLEY":" ","HOUSE_NO":"９０６號","E_COORD97":170559.03,"N_COORD97":2540924.6699999999,"ADDRESS":"崇明路９０６號","OBJECTID":580377},"geometry":{"x":170559.03000000026,"y":2540924.6700000018}},{"attributes":{"ID":580405,"DIS_CODE":0,"TOWNNAME":"東區","LI":"崇明里","LIN":"16鄰","STREET":"崇明路","SECT":" ","MAREA":" ","LANE":" ","ALLEY":" ","HOUSE_NO":"９０８號","E_COORD97":170563.26999999999,"N_COORD97":2540924.5299999998,"ADDRESS":"崇明路９０８號","OBJECTID":580378},"geometry":{"x":170563.26999999955,"y":2540924.5300000031}},{"attributes":{"ID":580406,"DIS_CODE":0,"TOWNNAME":"東區","LI":"崇明里","LIN":"16鄰","STREET":"崇明路","SECT":" ","MAREA":" ","LANE":" ","ALLEY":" ","HOUSE_NO":"９１０號","E_COORD97":170568.22,"N_COORD97":2540924.5299999998,"ADDRESS":"崇明路９１０號","OBJECTID":580379},"geometry":{"x":170568.22000000067,"y":2540924.5300000031}},{"attributes":{"ID":580407,"DIS_CODE":0,"TOWNNAME":"東區","LI":"崇明里","LIN":"16鄰","STREET":"崇明路","SECT":" ","MAREA":" ","LANE":" ","ALLEY":" ","HOUSE_NO":"９１２號","E_COORD97":170572.60999999999,"N_COORD97":2540924.25,"ADDRESS":"崇明路９１２號","OBJECTID":580380},"geometry":{"x":170572.6100000022,"y":2540924.2500000019}},{"attributes":{"ID":580408,"DIS_CODE":0,"TOWNNAME":"東區","LI":"崇明里","LIN":"16鄰","STREET":"崇明路","SECT":" ","MAREA":" ","LANE":" ","ALLEY":" ","HOUSE_NO":"９１６號","E_COORD97":170578.26000000001,"N_COORD97":2540923.8300000001,"ADDRESS":"崇明路９１６號","OBJECTID":580381},"geometry":{"x":170578.26000000071,"y":2540923.8300000019}},{"attributes":{"ID":580409,"DIS_CODE":0,"TOWNNAME":"東區","LI":"崇明里","LIN":"16鄰","STREET":"崇明路","SECT":" ","MAREA":" ","LANE":" ","ALLEY":" ","HOUSE_NO":"９１８號","E_COORD97":170577.84,"N_COORD97":2540945.1800000002,"ADDRESS":"崇明路９１８號","OBJECTID":580382},"geometry":{"x":170577.84000000078,"y":2540945.1800000016}},{"attributes":{"ID":580410,"DIS_CODE":0,"TOWNNAME":"東區","LI":"崇明里","LIN":"16鄰","STREET":"崇明路","SECT":" ","MAREA":" ","LANE":" ","ALLEY":" ","HOUSE_NO":"９２０號","E_COORD97":170573.73999999999,"N_COORD97":2540945.46,"ADDRESS":"崇明路９２０號","OBJECTID":580383},"geometry":{"x":170573.74000000115,"y":2540945.4600000009}},{"attributes":{"ID":580411,"DIS_CODE":0,"TOWNNAME":"東區","LI":"崇明里","LIN":"16鄰","STREET":"崇明路","SECT":" ","MAREA":" ","LANE":" ","ALLEY":" ","HOUSE_NO":"９２２號","E_COORD97":170568.79000000001,"N_COORD97":2540945.7400000002,"ADDRESS":"崇明路９２２號","OBJECTID":580384},"geometry":{"x":170568.79000000004,"y":2540945.7400000021}},{"attributes":{"ID":580412,"DIS_CODE":0,"TOWNNAME":"東區","LI":"崇明里","LIN":"16鄰","STREET":"崇明路","SECT":" ","MAREA":" ","LANE":" ","ALLEY":" ","HOUSE_NO":"９２６號","E_COORD97":170563.56,"N_COORD97":2540945.8900000001,"ADDRESS":"崇明路９２６號","OBJECTID":580385},"geometry":{"x":170563.55999999866,"y":2540945.8900000006}},{"attributes":{"ID":580413,"DIS_CODE":0,"TOWNNAME":"東區","LI":"崇明里","LIN":"16鄰","STREET":"崇明路","SECT":" ","MAREA":" ","LANE":" ","ALLEY":" ","HOUSE_NO":"９２８號","E_COORD97":170558.17999999999,"N_COORD97":2540946.1699999999,"ADDRESS":"崇明路９２８號","OBJECTID":580386},"geometry":{"x":170558.18000000063,"y":2540946.1700000018}},{"attributes":{"ID":580414,"DIS_CODE":0,"TOWNNAME":"東區","LI":"崇明里","LIN":"16鄰","STREET":"崇明路","SECT":" ","MAREA":" ","LANE":" ","ALLEY":" ","HOUSE_NO":"９３０號","E_COORD97":170553.79999999999,"N_COORD97":2540946.4500000002,"ADDRESS":"崇明路９３０號","OBJECTID":580387},"geometry":{"x":170553.80000000168,"y":2540946.4500000011}},{"attributes":{"ID":580415,"DIS_CODE":0,"TOWNNAME":"東區","LI":"崇明里","LIN":"16鄰","STREET":"崇明路","SECT":" ","MAREA":" ","LANE":" ","ALLEY":" ","HOUSE_NO":"９３２號","E_COORD97":170549.13,"N_COORD97":2540946.73,"ADDRESS":"崇明路９３２號","OBJECTID":580388},"geometry":{"x":170549.12999999989,"y":2540946.7300000004}},{"attributes":{"ID":580416,"DIS_CODE":0,"TOWNNAME":"東區","LI":"崇明里","LIN":"16鄰","STREET":"崇明路","SECT":" ","MAREA":" ","LANE":" ","ALLEY":" ","HOUSE_NO":"９３６號","E_COORD97":170543.89999999999,"N_COORD97":2540946.3100000001,"ADDRESS":"崇明路９３６號","OBJECTID":580389},"geometry":{"x":170543.9000000013,"y":2540946.3100000005}},{"attributes":{"ID":580417,"DIS_CODE":0,"TOWNNAME":"東區","LI":"崇明里","LIN":"16鄰","STREET":"崇明路","SECT":" ","MAREA":" ","LANE":" ","ALLEY":" ","HOUSE_NO":"９３８號","E_COORD97":170544.89000000001,"N_COORD97":2540974.1699999999,"ADDRESS":"崇明路９３８號","OBJECTID":580390},"geometry":{"x":170544.8900000006,"y":2540974.1699999999}},{"attributes":{"ID":580418,"DIS_CODE":0,"TOWNNAME":"東區","LI":"崇明里","LIN":"16鄰","STREET":"崇明路","SECT":" ","MAREA":" ","LANE":" ","ALLEY":" ","HOUSE_NO":"９４０號","E_COORD97":170551.82000000001,"N_COORD97":2540973.8799999999,"ADDRESS":"崇明路９４０號","OBJECTID":580391},"geometry":{"x":170551.8200000003,"y":2540973.8800000008}},{"attributes":{"ID":580419,"DIS_CODE":0,"TOWNNAME":"東區","LI":"崇明里","LIN":"16鄰","STREET":"崇明路","SECT":" ","MAREA":" ","LANE":" ","ALLEY":" ","HOUSE_NO":"９４２號","E_COORD97":170558.89000000001,"N_COORD97":2540973.6000000001,"ADDRESS":"崇明路９４２號","OBJECTID":580392},"geometry":{"x":170558.8900000006,"y":2540973.5999999996}},{"attributes":{"ID":580420,"DIS_CODE":0,"TOWNNAME":"東區","LI":"崇明里","LIN":"16鄰","STREET":"崇明路","SECT":" ","MAREA":" ","LANE":" ","ALLEY":" ","HOUSE_NO":"９４６號","E_COORD97":170564.97,"N_COORD97":2540973.46,"ADDRESS":"崇明路９４６號","OBJECTID":580393},"geometry":{"x":170564.97000000067,"y":2540973.4600000009}},{"attributes":{"ID":580421,"DIS_CODE":0,"TOWNNAME":"東區","LI":"崇明里","LIN":"16鄰","STREET":"崇明路","SECT":" ","MAREA":" ","LANE":" ","ALLEY":" ","HOUSE_NO":"９４８號","E_COORD97":170569.64000000001,"N_COORD97":2540973.46,"ADDRESS":"崇明路９４８號","OBJECTID":580394},"geometry":{"x":170569.63999999966,"y":2540973.4600000009}},{"attributes":{"ID":580422,"DIS_CODE":0,"TOWNNAME":"東區","LI":"崇明里","LIN":"16鄰","STREET":"崇明路","SECT":" ","MAREA":" ","LANE":" ","ALLEY":" ","HOUSE_NO":"９５０號","E_COORD97":170577.98000000001,"N_COORD97":2540973.3199999998,"ADDRESS":"崇明路９５０號","OBJECTID":580395},"geometry":{"x":170577.98000000045,"y":2540973.3200000003}},{"attributes":{"ID":580423,"DIS_CODE":0,"TOWNNAME":"東區","LI":"崇明里","LIN":"16鄰","STREET":"崇明路","SECT":" ","MAREA":" ","LANE":" ","ALLEY":" ","HOUSE_NO":"９５２號","E_COORD97":170590.70999999999,"N_COORD97":2540972.6099999999,"ADDRESS":"崇明路９５２號","OBJECTID":580396},"geometry":{"x":170590.71000000089,"y":2540972.6100000013}},{"attributes":{"ID":580424,"DIS_CODE":0,"TOWNNAME":"東區","LI":"崇明里","LIN":"16鄰","STREET":"崇明路","SECT":" ","MAREA":" ","LANE":" ","ALLEY":" ","HOUSE_NO":"９５６號","E_COORD97":170590.98999999999,"N_COORD97":2540966.8100000001,"ADDRESS":"崇明路９５６號","OBJECTID":580397},"geometry":{"x":170590.99000000115,"y":2540966.8100000005}},{"attributes":{"ID":580425,"DIS_CODE":0,"TOWNNAME":"東區","LI":"崇明里","LIN":"16鄰","STREET":"崇明路","SECT":" ","MAREA":" ","LANE":" ","ALLEY":" ","HOUSE_NO":"９５８號","E_COORD97":170590.85000000001,"N_COORD97":2540962.29,"ADDRESS":"崇明路９５８號","OBJECTID":580398},"geometry":{"x":170590.85000000056,"y":2540962.2899999991}},{"attributes":{"ID":580426,"DIS_CODE":0,"TOWNNAME":"東區","LI":"崇明里","LIN":"16鄰","STREET":"崇明路","SECT":" ","MAREA":" ","LANE":" ","ALLEY":" ","HOUSE_NO":"９６０號","E_COORD97":170590.70999999999,"N_COORD97":2540957.8999999999,"ADDRESS":"崇明路９６０號","OBJECTID":580399},"geometry":{"x":170590.71000000089,"y":2540957.9000000022}},{"attributes":{"ID":580427,"DIS_CODE":0,"TOWNNAME":"東區","LI":"崇明里","LIN":"16鄰","STREET":"崇明路","SECT":" ","MAREA":" ","LANE":" ","ALLEY":" ","HOUSE_NO":"９６０之１號","E_COORD97":170590.57000000001,"N_COORD97":2540953.1000000001,"ADDRESS":"崇明路９６０之１號","OBJECTID":580400},"geometry":{"x":170590.57000000123,"y":2540953.1000000015}}]}