{"displayFieldName":"TOWNNAME","fieldAliases":{"ID":"ID","DIS_CODE":"DIS_CODE","TOWNNAME":"TOWNNAME","LI":"LI","LIN":"LIN","STREET":"STREET","SECT":"SECT","MAREA":"MAREA","LANE":"LANE","ALLEY":"ALLEY","HOUSE_NO":"HOUSE_NO","E_COORD97":"E_COORD97","N_COORD97":"N_COORD97","ADDRESS":"ADDRESS","OBJECTID":"OBJECTID"},"geometryType":"esriGeometryPoint","spatialReference":{"wkid":102443,"latestWkid":3826},"fields":[{"name":"ID","type":"esriFieldTypeDouble","alias":"ID"},{"name":"DIS_CODE","type":"esriFieldTypeInteger","alias":"DIS_CODE"},{"name":"TOWNNAME","type":"esriFieldTypeString","alias":"TOWNNAME","length":8},{"name":"LI","type":"esriFieldTypeString","alias":"LI","length":8},{"name":"LIN","type":"esriFieldTypeString","alias":"LIN","length":12},{"name":"STREET","type":"esriFieldTypeString","alias":"STREET","length":20},{"name":"SECT","type":"esriFieldTypeString","alias":"SECT","length":8},{"name":"MAREA","type":"esriFieldTypeString","alias":"MAREA","length":12},{"name":"LANE","type":"esriFieldTypeString","alias":"LANE","length":10},{"name":"ALLEY","type":"esriFieldTypeString","alias":"ALLEY","length":10},{"name":"HOUSE_NO","type":"esriFieldTypeString","alias":"HOUSE_NO","length":20},{"name":"E_COORD97","type":"esriFieldTypeDouble","alias":"E_COORD97"},{"name":"N_COORD97","type":"esriFieldTypeDouble","alias":"N_COORD97"},{"name":"ADDRESS","type":"esriFieldTypeString","alias":"ADDRESS","length":50},{"name":"OBJECTID","type":"esriFieldTypeOID","alias":"OBJECTID"}],"features":[{"attributes":{"ID":63401,"DIS_CODE":0,"TOWNNAME":"永康區","LI":"埔園里","LIN":"31鄰","STREET":"永大路","SECT":"三段","MAREA":" ","LANE":"４６９巷","ALLEY":"１６６弄","HOUSE_NO":"２９號","E_COORD97":173722.28,"N_COORD97":2548854.9500000002,"ADDRESS":"永大路三段４６９巷１６６弄２９號","OBJECTID":63401},"geometry":{"x":173722.28000000026,"y":2548854.9499999974}},{"attributes":{"ID":63402,"DIS_CODE":0,"TOWNNAME":"永康區","LI":"建國里","LIN":"31鄰","STREET":"復興路","SECT":" ","MAREA":" ","LANE":"７１巷","ALLEY":"１１２弄","HOUSE_NO":"４９號","E_COORD97":172712.34,"N_COORD97":2543653.29,"ADDRESS":"復興路７１巷１１２弄４９號","OBJECTID":63402},"geometry":{"x":172712.34000000078,"y":2543653.290000001}},{"attributes":{"ID":63403,"DIS_CODE":0,"TOWNNAME":"永康區","LI":"建國里","LIN":"31鄰","STREET":"復興路","SECT":" ","MAREA":" ","LANE":"７１巷","ALLEY":"１１２弄","HOUSE_NO":"３９號","E_COORD97":172737.14999999999,"N_COORD97":2543657.79,"ADDRESS":"復興路７１巷１１２弄３９號","OBJECTID":63403},"geometry":{"x":172737.15000000224,"y":2543657.7899999991}},{"attributes":{"ID":63404,"DIS_CODE":0,"TOWNNAME":"永康區","LI":"埔園里","LIN":"31鄰","STREET":"永大路","SECT":"三段","MAREA":" ","LANE":"４６９巷","ALLEY":"１６６弄","HOUSE_NO":"２０號","E_COORD97":173741.14999999999,"N_COORD97":2548849.8900000001,"ADDRESS":"永大路三段４６９巷１６６弄２０號","OBJECTID":63404},"geometry":{"x":173741.1500000013,"y":2548849.8899999987}},{"attributes":{"ID":63405,"DIS_CODE":0,"TOWNNAME":"南區","LI":"廣州里","LIN":"8鄰","STREET":"大德街","SECT":" ","MAREA":" ","LANE":" ","ALLEY":" ","HOUSE_NO":"２２２號","E_COORD97":167489.85000000001,"N_COORD97":2542916.25,"ADDRESS":"大德街２２２號","OBJECTID":63405},"geometry":{"x":167489.84999999963,"y":2542916.25}},{"attributes":{"ID":63406,"DIS_CODE":0,"TOWNNAME":"南區","LI":"新昌里","LIN":"8鄰","STREET":"五妃街","SECT":" ","MAREA":" ","LANE":" ","ALLEY":" ","HOUSE_NO":"３９８號","E_COORD97":167552.95999999999,"N_COORD97":2542603.0899999999,"ADDRESS":"五妃街３９８號","OBJECTID":63406},"geometry":{"x":167552.96000000089,"y":2542603.0900000036}},{"attributes":{"ID":63407,"DIS_CODE":0,"TOWNNAME":"南區","LI":"新昌里","LIN":"8鄰","STREET":"五妃街","SECT":" ","MAREA":" ","LANE":" ","ALLEY":" ","HOUSE_NO":"４０２號","E_COORD97":167547.76000000001,"N_COORD97":2542604.0600000001,"ADDRESS":"五妃街４０２號","OBJECTID":63407},"geometry":{"x":167547.75999999978,"y":2542604.0600000042}},{"attributes":{"ID":63408,"DIS_CODE":0,"TOWNNAME":"永康區","LI":"西勢里","LIN":"31鄰","STREET":"富強路","SECT":"一段","MAREA":" ","LANE":"９３巷","ALLEY":"１０弄","HOUSE_NO":"１號","E_COORD97":175423.85999999999,"N_COORD97":2546249.9399999999,"ADDRESS":"富強路一段９３巷１０弄１號","OBJECTID":63408},"geometry":{"x":175423.86000000034,"y":2546249.9399999995}},{"attributes":{"ID":63409,"DIS_CODE":0,"TOWNNAME":"新營區","LI":"南興里","LIN":"31鄰","STREET":"建業路","SECT":" ","MAREA":" ","LANE":"１６７巷","ALLEY":"３弄","HOUSE_NO":"３０號","E_COORD97":178339.14000000001,"N_COORD97":2577372.4199999999,"ADDRESS":"建業路１６７巷３弄３０號","OBJECTID":63409},"geometry":{"x":178339.14000000153,"y":2577372.4200000037}},{"attributes":{"ID":63410,"DIS_CODE":0,"TOWNNAME":"新營區","LI":"三仙里","LIN":"31鄰","STREET":"三興街","SECT":" ","MAREA":" ","LANE":"１４４巷","ALLEY":"２２弄","HOUSE_NO":"５號","E_COORD97":179523.28,"N_COORD97":2579280.4199999999,"ADDRESS":"三興街１４４巷２２弄５號","OBJECTID":63410},"geometry":{"x":179523.28000000026,"y":2579280.4199999999}},{"attributes":{"ID":63411,"DIS_CODE":0,"TOWNNAME":"新營區","LI":"民榮里","LIN":"31鄰","STREET":"太子路","SECT":" ","MAREA":" ","LANE":"３３巷","ALLEY":"１弄","HOUSE_NO":"６號","E_COORD97":178352.41,"N_COORD97":2578065.6200000001,"ADDRESS":"太子路３３巷１弄６號","OBJECTID":63411},"geometry":{"x":178352.41000000015,"y":2578065.6200000029}},{"attributes":{"ID":63412,"DIS_CODE":0,"TOWNNAME":"新營區","LI":"民榮里","LIN":"31鄰","STREET":"太子路","SECT":" ","MAREA":" ","LANE":"３３巷","ALLEY":"１弄","HOUSE_NO":"１２號","E_COORD97":178343.39000000001,"N_COORD97":2578059.0299999998,"ADDRESS":"太子路３３巷１弄１２號","OBJECTID":63412},"geometry":{"x":178343.38999999966,"y":2578059.0299999993}},{"attributes":{"ID":63413,"DIS_CODE":0,"TOWNNAME":"新營區","LI":"民榮里","LIN":"31鄰","STREET":"太子路","SECT":" ","MAREA":" ","LANE":"３３巷","ALLEY":"１弄","HOUSE_NO":"５號","E_COORD97":178357.48000000001,"N_COORD97":2578053.4100000001,"ADDRESS":"太子路３３巷１弄５號","OBJECTID":63413},"geometry":{"x":178357.48000000045,"y":2578053.4100000001}},{"attributes":{"ID":63414,"DIS_CODE":0,"TOWNNAME":"六甲區","LI":"六甲里","LIN":"31鄰","STREET":"中正路","SECT":" ","MAREA":" ","LANE":"１８９巷","ALLEY":"２４弄","HOUSE_NO":"１１號","E_COORD97":183394.04999999999,"N_COORD97":2569176.6600000001,"ADDRESS":"中正路１８９巷２４弄１１號","OBJECTID":63414},"geometry":{"x":183394.04999999981,"y":2569176.6600000039}},{"attributes":{"ID":63415,"DIS_CODE":0,"TOWNNAME":"六甲區","LI":"六甲里","LIN":"31鄰","STREET":"中正路","SECT":" ","MAREA":" ","LANE":"１８９巷","ALLEY":"２４弄","HOUSE_NO":"１３號","E_COORD97":183395.70000000001,"N_COORD97":2569180.2999999998,"ADDRESS":"中正路１８９巷２４弄１３號","OBJECTID":63415},"geometry":{"x":183395.70000000019,"y":2569180.3000000026}},{"attributes":{"ID":63416,"DIS_CODE":0,"TOWNNAME":"安平區","LI":"建平里","LIN":"8鄰","STREET":"府前三街","SECT":" ","MAREA":" ","LANE":" ","ALLEY":" ","HOUSE_NO":"１３３號","E_COORD97":166503.64000000001,"N_COORD97":2543989.1699999999,"ADDRESS":"府前三街１３３號","OBJECTID":63416},"geometry":{"x":166503.6400000006,"y":2543989.1700000037}},{"attributes":{"ID":63417,"DIS_CODE":0,"TOWNNAME":"鹽水區","LI":"舊營里","LIN":"8鄰","STREET":" ","SECT":" ","MAREA":"舊營","LANE":" ","ALLEY":" ","HOUSE_NO":"８１號之１６","E_COORD97":174510.60000000001,"N_COORD97":2577634.3999999999,"ADDRESS":"舊營８１號之１６","OBJECTID":63417},"geometry":{"x":174510.60000000056,"y":2577634.4000000041}},{"attributes":{"ID":63418,"DIS_CODE":0,"TOWNNAME":"鹽水區","LI":"飯店里","LIN":"8鄰","STREET":" ","SECT":" ","MAREA":"麻油寮","LANE":" ","ALLEY":" ","HOUSE_NO":"３之２號","E_COORD97":169442.63,"N_COORD97":2573760.5600000001,"ADDRESS":"麻油寮３之２號","OBJECTID":63418},"geometry":{"x":169442.62999999989,"y":2573760.5600000005}},{"attributes":{"ID":63419,"DIS_CODE":0,"TOWNNAME":"山上區","LI":"山上里","LIN":"1鄰","STREET":" ","SECT":" ","MAREA":"山上","LANE":" ","ALLEY":" ","HOUSE_NO":"４０之１３號","E_COORD97":184048.31,"N_COORD97":2555358.2999999998,"ADDRESS":"山上４０之１３號","OBJECTID":63419},"geometry":{"x":184048.30999999959,"y":2555358.3000000026}},{"attributes":{"ID":63420,"DIS_CODE":0,"TOWNNAME":"山上區","LI":"玉\u25A0里","LIN":"1鄰","STREET":" ","SECT":" ","MAREA":"蚵\u25A0潭","LANE":" ","ALLEY":" ","HOUSE_NO":"７號","E_COORD97":187284.76999999999,"N_COORD97":2555672.25,"ADDRESS":"蚵\u25A0潭７號","OBJECTID":63420},"geometry":{"x":187284.76999999955,"y":2555672.2500000019}},{"attributes":{"ID":63421,"DIS_CODE":0,"TOWNNAME":"山上區","LI":"山上里","LIN":"1鄰","STREET":" ","SECT":" ","MAREA":"山上","LANE":" ","ALLEY":" ","HOUSE_NO":"４０之３１號","E_COORD97":184124.51000000001,"N_COORD97":2555339.2999999998,"ADDRESS":"山上４０之３１號","OBJECTID":63421},"geometry":{"x":184124.51000000071,"y":2555339.3000000007}},{"attributes":{"ID":63422,"DIS_CODE":0,"TOWNNAME":"山上區","LI":"山上里","LIN":"1鄰","STREET":" ","SECT":" ","MAREA":"山上","LANE":" ","ALLEY":" ","HOUSE_NO":"５７之６號","E_COORD97":184328.95999999999,"N_COORD97":2555543.2999999998,"ADDRESS":"山上５７之６號","OBJECTID":63422},"geometry":{"x":184328.95999999996,"y":2555543.2999999989}},{"attributes":{"ID":63423,"DIS_CODE":0,"TOWNNAME":"新化區","LI":"全興里","LIN":"8鄰","STREET":" ","SECT":" ","MAREA":"竹子\u25A0","LANE":" ","ALLEY":" ","HOUSE_NO":"１１４號","E_COORD97":177469.23000000001,"N_COORD97":2547697.25,"ADDRESS":"竹子\u25A0１１４號","OBJECTID":63423},"geometry":{"x":177469.23000000045,"y":2547697.25}},{"attributes":{"ID":63424,"DIS_CODE":0,"TOWNNAME":"山上區","LI":"新莊里","LIN":"1鄰","STREET":" ","SECT":" ","MAREA":"新庄","LANE":" ","ALLEY":" ","HOUSE_NO":"８號之２","E_COORD97":185262.01809699999,"N_COORD97":2555037.55284,"ADDRESS":"新庄８號之２","OBJECTID":63424},"geometry":{"x":185262.01809700206,"y":2555037.5528410021}},{"attributes":{"ID":63425,"DIS_CODE":0,"TOWNNAME":"山上區","LI":"南洲里","LIN":"1鄰","STREET":" ","SECT":" ","MAREA":"南洲","LANE":" ","ALLEY":" ","HOUSE_NO":"８３號","E_COORD97":183929.09,"N_COORD97":2555759.25,"ADDRESS":"南洲８３號","OBJECTID":63425},"geometry":{"x":183929.09000000078,"y":2555759.25}},{"attributes":{"ID":63426,"DIS_CODE":0,"TOWNNAME":"山上區","LI":"南洲里","LIN":"1鄰","STREET":" ","SECT":" ","MAREA":"南洲","LANE":" ","ALLEY":" ","HOUSE_NO":"８０號","E_COORD97":183936.69,"N_COORD97":2555749.25,"ADDRESS":"南洲８０號","OBJECTID":63426},"geometry":{"x":183936.69000000041,"y":2555749.25}},{"attributes":{"ID":63427,"DIS_CODE":0,"TOWNNAME":"山上區","LI":"新莊里","LIN":"1鄰","STREET":" ","SECT":" ","MAREA":"新庄","LANE":" ","ALLEY":" ","HOUSE_NO":"１號之１","E_COORD97":184704.443012,"N_COORD97":2555000.0266700001,"ADDRESS":"新庄１號之１","OBJECTID":63427},"geometry":{"x":184704.44301200006,"y":2555000.0266710036}},{"attributes":{"ID":63428,"DIS_CODE":0,"TOWNNAME":"山上區","LI":"新莊里","LIN":"1鄰","STREET":" ","SECT":" ","MAREA":"新庄","LANE":" ","ALLEY":" ","HOUSE_NO":"１號之９","E_COORD97":184723.77423899999,"N_COORD97":2554979.0110499999,"ADDRESS":"新庄１號之９","OBJECTID":63428},"geometry":{"x":184723.7742390018,"y":2554979.0110539999}},{"attributes":{"ID":63429,"DIS_CODE":0,"TOWNNAME":"新化區","LI":"知義里","LIN":" ","STREET":" ","SECT":" ","MAREA":"新和庄","LANE":" ","ALLEY":" ","HOUSE_NO":"１８７號","E_COORD97":181661.09,"N_COORD97":2547156.25,"ADDRESS":"新和庄１８７號","OBJECTID":63429},"geometry":{"x":181661.09000000078,"y":2547156.2500000019}},{"attributes":{"ID":63430,"DIS_CODE":0,"TOWNNAME":"善化區","LI":"六德里","LIN":"1鄰","STREET":" ","SECT":" ","MAREA":"六分寮","LANE":" ","ALLEY":" ","HOUSE_NO":"２０４號之１","E_COORD97":178871.45999999999,"N_COORD97":2561767.27,"ADDRESS":"六分寮２０４號之１","OBJECTID":63430},"geometry":{"x":178871.46000000089,"y":2561767.2700000033}},{"attributes":{"ID":63431,"DIS_CODE":0,"TOWNNAME":"善化區","LI":"嘉南里","LIN":"1鄰","STREET":" ","SECT":" ","MAREA":"茄拔","LANE":" ","ALLEY":" ","HOUSE_NO":"６０號之２","E_COORD97":181386.01000000001,"N_COORD97":2559419.02,"ADDRESS":"茄拔６０號之２","OBJECTID":63431},"geometry":{"x":181386.00999999978,"y":2559419.0199999996}},{"attributes":{"ID":63432,"DIS_CODE":0,"TOWNNAME":"善化區","LI":"東昌里","LIN":"1鄰","STREET":" ","SECT":" ","MAREA":"東勢寮","LANE":" ","ALLEY":" ","HOUSE_NO":"１４號","E_COORD97":180975.44,"N_COORD97":2561832.0099999998,"ADDRESS":"東勢寮１４號","OBJECTID":63432},"geometry":{"x":180975.43999999948,"y":2561832.0099999998}},{"attributes":{"ID":63433,"DIS_CODE":0,"TOWNNAME":"善化區","LI":"嘉北里","LIN":"1鄰","STREET":" ","SECT":" ","MAREA":"茄拔","LANE":" ","ALLEY":" ","HOUSE_NO":"１號之５","E_COORD97":181161.39999999999,"N_COORD97":2560157.02,"ADDRESS":"茄拔１號之５","OBJECTID":63433},"geometry":{"x":181161.40000000037,"y":2560157.0199999996}},{"attributes":{"ID":63434,"DIS_CODE":0,"TOWNNAME":"善化區","LI":"嘉北里","LIN":"1鄰","STREET":" ","SECT":" ","MAREA":"茄拔","LANE":" ","ALLEY":" ","HOUSE_NO":"３之１８號","E_COORD97":181180.42999999999,"N_COORD97":2560136.02,"ADDRESS":"茄拔３之１８號","OBJECTID":63434},"geometry":{"x":181180.43000000063,"y":2560136.0200000014}},{"attributes":{"ID":63435,"DIS_CODE":0,"TOWNNAME":"善化區","LI":"嘉北里","LIN":"1鄰","STREET":" ","SECT":" ","MAREA":"茄拔","LANE":" ","ALLEY":" ","HOUSE_NO":"１號之１３","E_COORD97":180859.67999999999,"N_COORD97":2560216.52,"ADDRESS":"茄拔１號之１３","OBJECTID":63435},"geometry":{"x":180859.68000000156,"y":2560216.5200000014}},{"attributes":{"ID":63436,"DIS_CODE":0,"TOWNNAME":"善化區","LI":"六分里","LIN":"1鄰","STREET":" ","SECT":" ","MAREA":"六分寮","LANE":" ","ALLEY":" ","HOUSE_NO":"２號之３","E_COORD97":178276.45999999999,"N_COORD97":2561180.27,"ADDRESS":"六分寮２號之３","OBJECTID":63436},"geometry":{"x":178276.46000000089,"y":2561180.2699999996}},{"attributes":{"ID":63437,"DIS_CODE":0,"TOWNNAME":"善化區","LI":"嘉北里","LIN":"1鄰","STREET":" ","SECT":" ","MAREA":"茄拔","LANE":" ","ALLEY":" ","HOUSE_NO":"６號之１２","E_COORD97":181243.79999999999,"N_COORD97":2560030.02,"ADDRESS":"茄拔６號之１２","OBJECTID":63437},"geometry":{"x":181243.80000000168,"y":2560030.0200000014}},{"attributes":{"ID":63438,"DIS_CODE":0,"TOWNNAME":"善化區","LI":"溪美里","LIN":"1鄰","STREET":" ","SECT":" ","MAREA":"溪尾","LANE":" ","ALLEY":" ","HOUSE_NO":"１００１號","E_COORD97":177132.38,"N_COORD97":2560022.27,"ADDRESS":"溪尾１００１號","OBJECTID":63438},"geometry":{"x":177132.38000000175,"y":2560022.2700000014}},{"attributes":{"ID":63439,"DIS_CODE":0,"TOWNNAME":"安平區","LI":"國平里","LIN":"8鄰","STREET":"建平三街","SECT":" ","MAREA":" ","LANE":" ","ALLEY":" ","HOUSE_NO":"２０７號","E_COORD97":165430.75,"N_COORD97":2542953.75,"ADDRESS":"建平三街２０７號","OBJECTID":63439},"geometry":{"x":165430.75,"y":2542953.75}},{"attributes":{"ID":63440,"DIS_CODE":0,"TOWNNAME":"鹽水區","LI":"飯店里","LIN":"8鄰","STREET":" ","SECT":" ","MAREA":"麻油寮","LANE":" ","ALLEY":" ","HOUSE_NO":"３號","E_COORD97":169438.20999999999,"N_COORD97":2573805.6000000001,"ADDRESS":"麻油寮３號","OBJECTID":63440},"geometry":{"x":169438.21000000089,"y":2573805.6000000015}},{"attributes":{"ID":63441,"DIS_CODE":0,"TOWNNAME":"善化區","LI":"溪美里","LIN":"1鄰","STREET":" ","SECT":" ","MAREA":"溪尾","LANE":" ","ALLEY":" ","HOUSE_NO":"９９５號","E_COORD97":177129.38,"N_COORD97":2560035.77,"ADDRESS":"溪尾９９５號","OBJECTID":63441},"geometry":{"x":177129.38000000082,"y":2560035.7700000014}},{"attributes":{"ID":63442,"DIS_CODE":0,"TOWNNAME":"善化區","LI":"溪美里","LIN":"1鄰","STREET":" ","SECT":" ","MAREA":"溪尾","LANE":" ","ALLEY":" ","HOUSE_NO":"１００６號","E_COORD97":177107.19,"N_COORD97":2559926.52,"ADDRESS":"溪尾１００６號","OBJECTID":63442},"geometry":{"x":177107.19000000227,"y":2559926.5199999996}},{"attributes":{"ID":63443,"DIS_CODE":0,"TOWNNAME":"善化區","LI":"溪美里","LIN":"1鄰","STREET":" ","SECT":" ","MAREA":"溪尾","LANE":" ","ALLEY":" ","HOUSE_NO":"９７５之１１號","E_COORD97":177198.01999999999,"N_COORD97":2560112.52,"ADDRESS":"溪尾９７５之１１號","OBJECTID":63443},"geometry":{"x":177198.02000000048,"y":2560112.5200000014}},{"attributes":{"ID":63444,"DIS_CODE":0,"TOWNNAME":"善化區","LI":"溪美里","LIN":"1鄰","STREET":" ","SECT":" ","MAREA":"溪尾","LANE":" ","ALLEY":" ","HOUSE_NO":"８９８號","E_COORD97":177091.39999999999,"N_COORD97":2560192.77,"ADDRESS":"溪尾８９８號","OBJECTID":63444},"geometry":{"x":177091.40000000037,"y":2560192.7699999996}},{"attributes":{"ID":63445,"DIS_CODE":0,"TOWNNAME":"善化區","LI":"溪美里","LIN":"1鄰","STREET":" ","SECT":" ","MAREA":"溪尾","LANE":" ","ALLEY":" ","HOUSE_NO":"６８１號之１６","E_COORD97":177106.17999999999,"N_COORD97":2560842.77,"ADDRESS":"溪尾６８１號之１６","OBJECTID":63445},"geometry":{"x":177106.1799999997,"y":2560842.7700000014}},{"attributes":{"ID":63446,"DIS_CODE":0,"TOWNNAME":"新化區","LI":"\u25A0拔里","LIN":"4鄰","STREET":" ","SECT":" ","MAREA":"\u25A0拔林","LANE":" ","ALLEY":" ","HOUSE_NO":"２１８號之２１","E_COORD97":183795.70000000001,"N_COORD97":2552054.2599999998,"ADDRESS":"\u25A0拔林２１８號之２１","OBJECTID":63446},"geometry":{"x":183795.70000000019,"y":2552054.2600000035}},{"attributes":{"ID":63447,"DIS_CODE":0,"TOWNNAME":"仁德區","LI":"三甲里","LIN":"1鄰","STREET":" ","SECT":" ","MAREA":"三甲子","LANE":" ","ALLEY":" ","HOUSE_NO":"１１之５號","E_COORD97":171698.37,"N_COORD97":2537060.79,"ADDRESS":"三甲子１１之５號","OBJECTID":63447},"geometry":{"x":171698.37000000104,"y":2537060.7900000028}},{"attributes":{"ID":63448,"DIS_CODE":0,"TOWNNAME":"仁德區","LI":"中洲里","LIN":"1鄰","STREET":" ","SECT":" ","MAREA":"中洲","LANE":" ","ALLEY":" ","HOUSE_NO":"３之２號","E_COORD97":173650.23000000001,"N_COORD97":2534317.5499999998,"ADDRESS":"中洲３之２號","OBJECTID":63448},"geometry":{"x":173650.23000000045,"y":2534317.5500000007}},{"attributes":{"ID":63449,"DIS_CODE":0,"TOWNNAME":"仁德區","LI":"三甲里","LIN":"1鄰","STREET":" ","SECT":" ","MAREA":"三甲子","LANE":" ","ALLEY":" ","HOUSE_NO":"１１號之１０","E_COORD97":171933.56,"N_COORD97":2537148.29,"ADDRESS":"三甲子１１號之１０","OBJECTID":63449},"geometry":{"x":171933.56000000052,"y":2537148.2899999991}},{"attributes":{"ID":63450,"DIS_CODE":0,"TOWNNAME":"仁德區","LI":"三甲里","LIN":"1鄰","STREET":" ","SECT":" ","MAREA":"三甲子","LANE":" ","ALLEY":" ","HOUSE_NO":"４號","E_COORD97":171863.26000000001,"N_COORD97":2537207.25,"ADDRESS":"三甲子４號","OBJECTID":63450},"geometry":{"x":171863.26000000071,"y":2537207.25}},{"attributes":{"ID":63451,"DIS_CODE":0,"TOWNNAME":"仁德區","LI":"中洲里","LIN":"1鄰","STREET":" ","SECT":" ","MAREA":"中洲","LANE":" ","ALLEY":" ","HOUSE_NO":"４號之３","E_COORD97":173542.26000000001,"N_COORD97":2534271.54,"ADDRESS":"中洲４號之３","OBJECTID":63451},"geometry":{"x":173542.25999999978,"y":2534271.5399999991}},{"attributes":{"ID":63452,"DIS_CODE":0,"TOWNNAME":"仁德區","LI":"中洲里","LIN":"1鄰","STREET":" ","SECT":" ","MAREA":"中洲","LANE":" ","ALLEY":" ","HOUSE_NO":"５號之３","E_COORD97":173484.66,"N_COORD97":2534351.54,"ADDRESS":"中洲５號之３","OBJECTID":63452},"geometry":{"x":173484.66000000108,"y":2534351.540000001}},{"attributes":{"ID":63453,"DIS_CODE":0,"TOWNNAME":"仁德區","LI":"中洲里","LIN":"1鄰","STREET":" ","SECT":" ","MAREA":"中洲","LANE":" ","ALLEY":" ","HOUSE_NO":"２號之５２","E_COORD97":173115.10999999999,"N_COORD97":2535226.0499999998,"ADDRESS":"中洲２號之５２","OBJECTID":63453},"geometry":{"x":173115.11000000034,"y":2535226.0500000007}},{"attributes":{"ID":63454,"DIS_CODE":0,"TOWNNAME":"仁德區","LI":"三甲里","LIN":"1鄰","STREET":" ","SECT":" ","MAREA":"三甲子","LANE":" ","ALLEY":" ","HOUSE_NO":"３號之１","E_COORD97":171902.23000000001,"N_COORD97":2537212.0499999998,"ADDRESS":"三甲子３號之１","OBJECTID":63454},"geometry":{"x":171902.23000000045,"y":2537212.0500000007}},{"attributes":{"ID":63455,"DIS_CODE":0,"TOWNNAME":"新化區","LI":"\u25A0拔里","LIN":"1鄰","STREET":" ","SECT":" ","MAREA":"\u25A0拔林","LANE":" ","ALLEY":" ","HOUSE_NO":"５３號","E_COORD97":183343.76999999999,"N_COORD97":2551952.25,"ADDRESS":"\u25A0拔林５３號","OBJECTID":63455},"geometry":{"x":183343.76999999955,"y":2551952.25}},{"attributes":{"ID":63456,"DIS_CODE":0,"TOWNNAME":"新化區","LI":"\u25A0拔里","LIN":"1鄰","STREET":" ","SECT":" ","MAREA":"\u25A0拔林","LANE":" ","ALLEY":" ","HOUSE_NO":"２３號之６","E_COORD97":183324.62,"N_COORD97":2551919.2599999998,"ADDRESS":"\u25A0拔林２３號之６","OBJECTID":63456},"geometry":{"x":183324.62000000011,"y":2551919.2600000016}},{"attributes":{"ID":63457,"DIS_CODE":0,"TOWNNAME":"鹽水區","LI":"大莊里","LIN":"6鄰","STREET":" ","SECT":" ","MAREA":"大莊","LANE":" ","ALLEY":" ","HOUSE_NO":"２５號","E_COORD97":172831.25,"N_COORD97":2576817.25,"ADDRESS":"大莊２５號","OBJECTID":63457},"geometry":{"x":172831.25000000093,"y":2576817.25}},{"attributes":{"ID":63458,"DIS_CODE":0,"TOWNNAME":"六甲區","LI":"六甲里","LIN":"31鄰","STREET":"中正路","SECT":" ","MAREA":" ","LANE":"１８９巷","ALLEY":"２４弄","HOUSE_NO":"１５號","E_COORD97":183397.39000000001,"N_COORD97":2569183.9900000002,"ADDRESS":"中正路１８９巷２４弄１５號","OBJECTID":63458},"geometry":{"x":183397.38999999873,"y":2569183.9900000002}},{"attributes":{"ID":63459,"DIS_CODE":0,"TOWNNAME":"六甲區","LI":"六甲里","LIN":"31鄰","STREET":"中正路","SECT":" ","MAREA":" ","LANE":"１８９巷","ALLEY":"２４弄","HOUSE_NO":"１７號","E_COORD97":183409.62,"N_COORD97":2569193.29,"ADDRESS":"中正路１８９巷２４弄１７號","OBJECTID":63459},"geometry":{"x":183409.62000000011,"y":2569193.2899999991}},{"attributes":{"ID":63460,"DIS_CODE":0,"TOWNNAME":"六甲區","LI":"六甲里","LIN":"31鄰","STREET":"中正路","SECT":" ","MAREA":" ","LANE":"１８９巷","ALLEY":"２４弄","HOUSE_NO":"１９號","E_COORD97":183405.51999999999,"N_COORD97":2569194.1699999999,"ADDRESS":"中正路１８９巷２４弄１９號","OBJECTID":63460},"geometry":{"x":183405.52000000048,"y":2569194.1700000018}},{"attributes":{"ID":63461,"DIS_CODE":0,"TOWNNAME":"六甲區","LI":"六甲里","LIN":"31鄰","STREET":"中正路","SECT":" ","MAREA":" ","LANE":"１８９巷","ALLEY":"２４弄","HOUSE_NO":"１號","E_COORD97":183386.25,"N_COORD97":2569157.9500000002,"ADDRESS":"中正路１８９巷２４弄１號","OBJECTID":63461},"geometry":{"x":183386.25,"y":2569157.9500000011}},{"attributes":{"ID":63462,"DIS_CODE":0,"TOWNNAME":"六甲區","LI":"六甲里","LIN":"31鄰","STREET":"中正路","SECT":" ","MAREA":" ","LANE":"１８９巷","ALLEY":"２４弄","HOUSE_NO":"２１號","E_COORD97":183401.51000000001,"N_COORD97":2569195.2999999998,"ADDRESS":"中正路１８９巷２４弄２１號","OBJECTID":63462},"geometry":{"x":183401.50999999978,"y":2569195.3000000007}},{"attributes":{"ID":63463,"DIS_CODE":0,"TOWNNAME":"六甲區","LI":"六甲里","LIN":"31鄰","STREET":"中正路","SECT":" ","MAREA":" ","LANE":"１８９巷","ALLEY":"２４弄","HOUSE_NO":"２３號","E_COORD97":183397.25,"N_COORD97":2569196.2400000002,"ADDRESS":"中正路１８９巷２４弄２３號","OBJECTID":63463},"geometry":{"x":183397.25000000186,"y":2569196.2399999984}},{"attributes":{"ID":63464,"DIS_CODE":0,"TOWNNAME":"六甲區","LI":"六甲里","LIN":"31鄰","STREET":"中正路","SECT":" ","MAREA":" ","LANE":"１８９巷","ALLEY":"２４弄","HOUSE_NO":"２５號","E_COORD97":183393.06,"N_COORD97":2569197.2799999998,"ADDRESS":"中正路１８９巷２４弄２５號","OBJECTID":63464},"geometry":{"x":183393.06000000052,"y":2569197.2799999993}},{"attributes":{"ID":63465,"DIS_CODE":0,"TOWNNAME":"六甲區","LI":"六甲里","LIN":"31鄰","STREET":"中正路","SECT":" ","MAREA":" ","LANE":"１８９巷","ALLEY":"２４弄","HOUSE_NO":"２７號","E_COORD97":183388.66,"N_COORD97":2569197.9500000002,"ADDRESS":"中正路１８９巷２４弄２７號","OBJECTID":63465},"geometry":{"x":183388.66000000015,"y":2569197.9500000011}},{"attributes":{"ID":63466,"DIS_CODE":0,"TOWNNAME":"六甲區","LI":"六甲里","LIN":"31鄰","STREET":"中正路","SECT":" ","MAREA":" ","LANE":"１８９巷","ALLEY":"２４弄","HOUSE_NO":"２９號","E_COORD97":183384.89000000001,"N_COORD97":2569199.29,"ADDRESS":"中正路１８９巷２４弄２９號","OBJECTID":63466},"geometry":{"x":183384.88999999966,"y":2569199.290000001}},{"attributes":{"ID":63467,"DIS_CODE":0,"TOWNNAME":"六甲區","LI":"六甲里","LIN":"31鄰","STREET":"中正路","SECT":" ","MAREA":" ","LANE":"１８９巷","ALLEY":"２４弄","HOUSE_NO":"２號","E_COORD97":183406.23000000001,"N_COORD97":2569149.8900000001,"ADDRESS":"中正路１８９巷２４弄２號","OBJECTID":63467},"geometry":{"x":183406.23000000231,"y":2569149.8900000025}},{"attributes":{"ID":63468,"DIS_CODE":0,"TOWNNAME":"安平區","LI":"億載里","LIN":"8鄰","STREET":"光州六街","SECT":" ","MAREA":" ","LANE":" ","ALLEY":" ","HOUSE_NO":"８２號","E_COORD97":164186.13,"N_COORD97":2543556.0800000001,"ADDRESS":"光州六街８２號","OBJECTID":63468},"geometry":{"x":164186.12999999896,"y":2543556.0800000038}},{"attributes":{"ID":63469,"DIS_CODE":0,"TOWNNAME":"安平區","LI":"億載里","LIN":"8鄰","STREET":"光州六街","SECT":" ","MAREA":" ","LANE":" ","ALLEY":" ","HOUSE_NO":"８０號","E_COORD97":164190.26000000001,"N_COORD97":2543555.9199999999,"ADDRESS":"光州六街８０號","OBJECTID":63469},"geometry":{"x":164190.26000000164,"y":2543555.9199999999}},{"attributes":{"ID":63470,"DIS_CODE":0,"TOWNNAME":"安平區","LI":"億載里","LIN":"8鄰","STREET":"光州六街","SECT":" ","MAREA":" ","LANE":" ","ALLEY":" ","HOUSE_NO":"３０號","E_COORD97":164261.70000000001,"N_COORD97":2543551.0299999998,"ADDRESS":"光州六街３０號","OBJECTID":63470},"geometry":{"x":164261.70000000019,"y":2543551.0299999993}},{"attributes":{"ID":63471,"DIS_CODE":0,"TOWNNAME":"安平區","LI":"億載里","LIN":"8鄰","STREET":"光州六街","SECT":" ","MAREA":" ","LANE":" ","ALLEY":" ","HOUSE_NO":"３２號","E_COORD97":164266.62,"N_COORD97":2543551.5099999998,"ADDRESS":"光州六街３２號","OBJECTID":63471},"geometry":{"x":164266.62000000104,"y":2543551.5099999998}},{"attributes":{"ID":63472,"DIS_CODE":0,"TOWNNAME":"安平區","LI":"億載里","LIN":"8鄰","STREET":"光州六街","SECT":" ","MAREA":" ","LANE":" ","ALLEY":" ","HOUSE_NO":"１０６號","E_COORD97":164147.39000000001,"N_COORD97":2543550.0800000001,"ADDRESS":"光州六街１０６號","OBJECTID":63472},"geometry":{"x":164147.3900000006,"y":2543550.0800000019}},{"attributes":{"ID":63473,"DIS_CODE":0,"TOWNNAME":"六甲區","LI":"六甲里","LIN":"31鄰","STREET":"中正路","SECT":" ","MAREA":" ","LANE":"１８９巷","ALLEY":"２４弄","HOUSE_NO":"３０號","E_COORD97":183396.01000000001,"N_COORD97":2569219.7400000002,"ADDRESS":"中正路１８９巷２４弄３０號","OBJECTID":63473},"geometry":{"x":183396.00999999978,"y":2569219.7400000002}},{"attributes":{"ID":63474,"DIS_CODE":0,"TOWNNAME":"六甲區","LI":"六甲里","LIN":"31鄰","STREET":"中正路","SECT":" ","MAREA":" ","LANE":"１８９巷","ALLEY":"２４弄","HOUSE_NO":"３１號","E_COORD97":183380.95999999999,"N_COORD97":2569200.3799999999,"ADDRESS":"中正路１８９巷２４弄３１號","OBJECTID":63474},"geometry":{"x":183380.96000000089,"y":2569200.379999999}},{"attributes":{"ID":63475,"DIS_CODE":0,"TOWNNAME":"六甲區","LI":"六甲里","LIN":"31鄰","STREET":"中正路","SECT":" ","MAREA":" ","LANE":"１８９巷","ALLEY":"２４弄","HOUSE_NO":"３２號","E_COORD97":183387.48000000001,"N_COORD97":2569222.5499999998,"ADDRESS":"中正路１８９巷２４弄３２號","OBJECTID":63475},"geometry":{"x":183387.47999999952,"y":2569222.5500000026}},{"attributes":{"ID":63476,"DIS_CODE":0,"TOWNNAME":"六甲區","LI":"六甲里","LIN":"31鄰","STREET":"中正路","SECT":" ","MAREA":" ","LANE":"１８９巷","ALLEY":"２４弄","HOUSE_NO":"３３號","E_COORD97":183376.85000000001,"N_COORD97":2569201.4100000001,"ADDRESS":"中正路１８９巷２４弄３３號","OBJECTID":63476},"geometry":{"x":183376.84999999963,"y":2569201.4100000001}},{"attributes":{"ID":63477,"DIS_CODE":0,"TOWNNAME":"六甲區","LI":"六甲里","LIN":"31鄰","STREET":"中正路","SECT":" ","MAREA":" ","LANE":"１８９巷","ALLEY":"２４弄","HOUSE_NO":"３６號","E_COORD97":183373.92000000001,"N_COORD97":2569224.6400000001,"ADDRESS":"中正路１８９巷２４弄３６號","OBJECTID":63477},"geometry":{"x":183373.92000000179,"y":2569224.6400000043}},{"attributes":{"ID":63478,"DIS_CODE":0,"TOWNNAME":"六甲區","LI":"六甲里","LIN":"31鄰","STREET":"中正路","SECT":" ","MAREA":" ","LANE":"１８９巷","ALLEY":"２４弄","HOUSE_NO":"３號","E_COORD97":183387.79999999999,"N_COORD97":2569161.7400000002,"ADDRESS":"中正路１８９巷２４弄３號","OBJECTID":63478},"geometry":{"x":183387.79999999981,"y":2569161.7400000002}},{"attributes":{"ID":63479,"DIS_CODE":0,"TOWNNAME":"六甲區","LI":"六甲里","LIN":"31鄰","STREET":"中正路","SECT":" ","MAREA":" ","LANE":"１８９巷","ALLEY":"２４弄","HOUSE_NO":"４號","E_COORD97":183407.76999999999,"N_COORD97":2569153.54,"ADDRESS":"中正路１８９巷２４弄４號","OBJECTID":63479},"geometry":{"x":183407.76999999955,"y":2569153.540000001}},{"attributes":{"ID":63480,"DIS_CODE":0,"TOWNNAME":"六甲區","LI":"六甲里","LIN":"31鄰","STREET":"中正路","SECT":" ","MAREA":" ","LANE":"１８９巷","ALLEY":"２４弄","HOUSE_NO":"５號","E_COORD97":183389.34,"N_COORD97":2569165.6800000002,"ADDRESS":"中正路１８９巷２４弄５號","OBJECTID":63480},"geometry":{"x":183389.33999999985,"y":2569165.6800000034}},{"attributes":{"ID":63481,"DIS_CODE":0,"TOWNNAME":"六甲區","LI":"六甲里","LIN":"31鄰","STREET":"中正路","SECT":" ","MAREA":" ","LANE":"１８９巷","ALLEY":"２４弄","HOUSE_NO":"６號","E_COORD97":183409.14000000001,"N_COORD97":2569157.04,"ADDRESS":"中正路１８９巷２４弄６號","OBJECTID":63481},"geometry":{"x":183409.13999999966,"y":2569157.040000001}},{"attributes":{"ID":63482,"DIS_CODE":0,"TOWNNAME":"六甲區","LI":"六甲里","LIN":"31鄰","STREET":"中正路","SECT":" ","MAREA":" ","LANE":"１８９巷","ALLEY":"２４弄","HOUSE_NO":"７號","E_COORD97":183390.48000000001,"N_COORD97":2569169.3599999999,"ADDRESS":"中正路１８９巷２４弄７號","OBJECTID":63482},"geometry":{"x":183390.48000000045,"y":2569169.3599999994}},{"attributes":{"ID":63483,"DIS_CODE":0,"TOWNNAME":"六甲區","LI":"六甲里","LIN":"31鄰","STREET":"中正路","SECT":" ","MAREA":" ","LANE":"１８９巷","ALLEY":"２４弄","HOUSE_NO":"９號","E_COORD97":183391.91,"N_COORD97":2569172.9700000002,"ADDRESS":"中正路１８９巷２４弄９號","OBJECTID":63483},"geometry":{"x":183391.91000000108,"y":2569172.9700000025}},{"attributes":{"ID":63484,"DIS_CODE":0,"TOWNNAME":"新營區","LI":"南興里","LIN":"31鄰","STREET":"建業路","SECT":" ","MAREA":" ","LANE":"１６７巷","ALLEY":"３弄","HOUSE_NO":"２８號","E_COORD97":178339.13,"N_COORD97":2577375.75,"ADDRESS":"建業路１６７巷３弄２８號","OBJECTID":63484},"geometry":{"x":178339.12999999989,"y":2577375.75}},{"attributes":{"ID":63485,"DIS_CODE":0,"TOWNNAME":"歸仁區","LI":"後市里","LIN":"31鄰","STREET":"民族北街","SECT":" ","MAREA":" ","LANE":"３１巷","ALLEY":"１０弄","HOUSE_NO":"６號","E_COORD97":177408.07999999999,"N_COORD97":2540999.75,"ADDRESS":"民族北街３１巷１０弄６號","OBJECTID":63485},"geometry":{"x":177408.08000000101,"y":2540999.7500000019}},{"attributes":{"ID":63486,"DIS_CODE":0,"TOWNNAME":"新營區","LI":"王公里","LIN":"31鄰","STREET":"大勇街","SECT":" ","MAREA":" ","LANE":"１９巷","ALLEY":"１弄","HOUSE_NO":"１０號","E_COORD97":180199.37,"N_COORD97":2579456.6299999999,"ADDRESS":"大勇街１９巷１弄１０號","OBJECTID":63486},"geometry":{"x":180199.37000000197,"y":2579456.6300000008}},{"attributes":{"ID":63487,"DIS_CODE":0,"TOWNNAME":"新營區","LI":"南興里","LIN":"31鄰","STREET":"建業路","SECT":" ","MAREA":" ","LANE":"１６７巷","ALLEY":"３弄","HOUSE_NO":"１號","E_COORD97":178352.42999999999,"N_COORD97":2577435.48,"ADDRESS":"建業路１６７巷３弄１號","OBJECTID":63487},"geometry":{"x":178352.43000000156,"y":2577435.4800000004}},{"attributes":{"ID":63488,"DIS_CODE":0,"TOWNNAME":"新營區","LI":"南興里","LIN":"31鄰","STREET":"建業路","SECT":" ","MAREA":" ","LANE":"１６７巷","ALLEY":"３弄","HOUSE_NO":"１１號","E_COORD97":178353.51999999999,"N_COORD97":2577403.3700000001,"ADDRESS":"建業路１６７巷３弄１１號","OBJECTID":63488},"geometry":{"x":178353.52000000048,"y":2577403.370000001}},{"attributes":{"ID":63489,"DIS_CODE":0,"TOWNNAME":"新營區","LI":"南興里","LIN":"31鄰","STREET":"建業路","SECT":" ","MAREA":" ","LANE":"１６７巷","ALLEY":"３弄","HOUSE_NO":"１２號","E_COORD97":178343.32999999999,"N_COORD97":2577410.0600000001,"ADDRESS":"建業路１６７巷３弄１２號","OBJECTID":63489},"geometry":{"x":178343.33000000194,"y":2577410.0600000024}},{"attributes":{"ID":63490,"DIS_CODE":0,"TOWNNAME":"新營區","LI":"民榮里","LIN":"31鄰","STREET":"太子路","SECT":" ","MAREA":" ","LANE":"３３巷","ALLEY":"１弄","HOUSE_NO":"７號","E_COORD97":178352.37,"N_COORD97":2578051.2200000002,"ADDRESS":"太子路３３巷１弄７號","OBJECTID":63490},"geometry":{"x":178352.37000000104,"y":2578051.2200000007}},{"attributes":{"ID":63491,"DIS_CODE":0,"TOWNNAME":"新營區","LI":"民榮里","LIN":"31鄰","STREET":"太子路","SECT":" ","MAREA":" ","LANE":"３３巷","ALLEY":"１弄","HOUSE_NO":"８號","E_COORD97":178349.39999999999,"N_COORD97":2578064.5299999998,"ADDRESS":"太子路３３巷１弄８號","OBJECTID":63491},"geometry":{"x":178349.40000000037,"y":2578064.5299999993}},{"attributes":{"ID":63492,"DIS_CODE":0,"TOWNNAME":"新營區","LI":"民榮里","LIN":"31鄰","STREET":"太子路","SECT":" ","MAREA":" ","LANE":"３３巷","ALLEY":"１弄","HOUSE_NO":"１４號","E_COORD97":178339.29000000001,"N_COORD97":2578057.9399999999,"ADDRESS":"太子路３３巷１弄１４號","OBJECTID":63492},"geometry":{"x":178339.29000000004,"y":2578057.9400000013}},{"attributes":{"ID":63493,"DIS_CODE":0,"TOWNNAME":"新營區","LI":"民榮里","LIN":"31鄰","STREET":"太子路","SECT":" ","MAREA":" ","LANE":"３３巷","ALLEY":"１弄","HOUSE_NO":"１９號","E_COORD97":178331.01999999999,"N_COORD97":2578039.1499999999,"ADDRESS":"太子路３３巷１弄１９號","OBJECTID":63493},"geometry":{"x":178331.01999999955,"y":2578039.1499999985}},{"attributes":{"ID":63494,"DIS_CODE":0,"TOWNNAME":"新營區","LI":"民榮里","LIN":"31鄰","STREET":"太子路","SECT":" ","MAREA":" ","LANE":"３３巷","ALLEY":"１弄","HOUSE_NO":"１７號","E_COORD97":178335.13,"N_COORD97":2578042.4500000002,"ADDRESS":"太子路３３巷１弄１７號","OBJECTID":63494},"geometry":{"x":178335.12999999989,"y":2578042.4499999993}},{"attributes":{"ID":63495,"DIS_CODE":0,"TOWNNAME":"新營區","LI":"王公里","LIN":"31鄰","STREET":"大勇街","SECT":" ","MAREA":" ","LANE":"１９巷","ALLEY":"１弄","HOUSE_NO":"４號","E_COORD97":180214.57999999999,"N_COORD97":2579458.77,"ADDRESS":"大勇街１９巷１弄４號","OBJECTID":63495},"geometry":{"x":180214.58000000007,"y":2579458.7700000014}},{"attributes":{"ID":63496,"DIS_CODE":0,"TOWNNAME":"學甲區","LI":"明宜里","LIN":"15鄰","STREET":"中正路","SECT":" ","MAREA":" ","LANE":" ","ALLEY":" ","HOUSE_NO":"２８９號","E_COORD97":166134.81,"N_COORD97":2570519.96,"ADDRESS":"中正路２８９號","OBJECTID":63496},"geometry":{"x":166134.81000000052,"y":2570519.9600000009}},{"attributes":{"ID":63497,"DIS_CODE":0,"TOWNNAME":"學甲區","LI":"明宜里","LIN":"15鄰","STREET":"中正路","SECT":" ","MAREA":" ","LANE":" ","ALLEY":" ","HOUSE_NO":"２９１號","E_COORD97":166134.98999999999,"N_COORD97":2570524.7200000002,"ADDRESS":"中正路２９１號","OBJECTID":63497},"geometry":{"x":166134.99000000022,"y":2570524.7200000007}},{"attributes":{"ID":63498,"DIS_CODE":0,"TOWNNAME":"學甲區","LI":"明宜里","LIN":"15鄰","STREET":"中正路","SECT":" ","MAREA":" ","LANE":" ","ALLEY":" ","HOUSE_NO":"２９３號","E_COORD97":166134.73999999999,"N_COORD97":2570530.3500000001,"ADDRESS":"中正路２９３號","OBJECTID":63498},"geometry":{"x":166134.74000000022,"y":2570530.3499999996}},{"attributes":{"ID":63499,"DIS_CODE":0,"TOWNNAME":"學甲區","LI":"明宜里","LIN":"15鄰","STREET":"中正路","SECT":" ","MAREA":" ","LANE":" ","ALLEY":" ","HOUSE_NO":"２９５號","E_COORD97":166134.70999999999,"N_COORD97":2570535.46,"ADDRESS":"中正路２９５號","OBJECTID":63499},"geometry":{"x":166134.70999999996,"y":2570535.4600000028}},{"attributes":{"ID":63500,"DIS_CODE":0,"TOWNNAME":"學甲區","LI":"明宜里","LIN":"15鄰","STREET":"中正路","SECT":" ","MAREA":" ","LANE":" ","ALLEY":" ","HOUSE_NO":"２９７號","E_COORD97":166135.47,"N_COORD97":2570539.1000000001,"ADDRESS":"中正路２９７號","OBJECTID":63500},"geometry":{"x":166135.47000000067,"y":2570539.0999999978}},{"attributes":{"ID":63501,"DIS_CODE":0,"TOWNNAME":"學甲區","LI":"明宜里","LIN":"15鄰","STREET":"中正路","SECT":" ","MAREA":" ","LANE":" ","ALLEY":" ","HOUSE_NO":"２９９號","E_COORD97":166139.70000000001,"N_COORD97":2570549.8700000001,"ADDRESS":"中正路２９９號","OBJECTID":63501},"geometry":{"x":166139.70000000112,"y":2570549.8700000029}},{"attributes":{"ID":63502,"DIS_CODE":0,"TOWNNAME":"學甲區","LI":"明宜里","LIN":"15鄰","STREET":"中正路","SECT":" ","MAREA":" ","LANE":" ","ALLEY":" ","HOUSE_NO":"３０１號","E_COORD97":166140.42999999999,"N_COORD97":2570552.5800000001,"ADDRESS":"中正路３０１號","OBJECTID":63502},"geometry":{"x":166140.43000000063,"y":2570552.5800000001}},{"attributes":{"ID":63503,"DIS_CODE":0,"TOWNNAME":"學甲區","LI":"明宜里","LIN":"15鄰","STREET":"中正路","SECT":" ","MAREA":" ","LANE":" ","ALLEY":" ","HOUSE_NO":"３０３號","E_COORD97":166140.94,"N_COORD97":2570555.0800000001,"ADDRESS":"中正路３０３號","OBJECTID":63503},"geometry":{"x":166140.94000000227,"y":2570555.0800000019}},{"attributes":{"ID":63504,"DIS_CODE":0,"TOWNNAME":"新營區","LI":"王公里","LIN":"31鄰","STREET":"大勇街","SECT":" ","MAREA":" ","LANE":"１９巷","ALLEY":"１弄","HOUSE_NO":"１２號","E_COORD97":180194.26000000001,"N_COORD97":2579457.7599999998,"ADDRESS":"大勇街１９巷１弄１２號","OBJECTID":63504},"geometry":{"x":180194.25999999978,"y":2579457.7599999998}},{"attributes":{"ID":63505,"DIS_CODE":0,"TOWNNAME":"新營區","LI":"民榮里","LIN":"31鄰","STREET":"太子路","SECT":" ","MAREA":" ","LANE":"３３巷","ALLEY":"１弄","HOUSE_NO":"３號","E_COORD97":178360.63,"N_COORD97":2578055.6099999999,"ADDRESS":"太子路３３巷１弄３號","OBJECTID":63505},"geometry":{"x":178360.62999999989,"y":2578055.6100000031}},{"attributes":{"ID":63506,"DIS_CODE":0,"TOWNNAME":"新營區","LI":"王公里","LIN":"31鄰","STREET":"大勇街","SECT":" ","MAREA":" ","LANE":"１９巷","ALLEY":"１弄","HOUSE_NO":"８號","E_COORD97":180202.28,"N_COORD97":2579457.7200000002,"ADDRESS":"大勇街１９巷１弄８號","OBJECTID":63506},"geometry":{"x":180202.28000000119,"y":2579457.7200000025}},{"attributes":{"ID":63507,"DIS_CODE":0,"TOWNNAME":"新營區","LI":"忠政里","LIN":"31鄰","STREET":"府西路","SECT":" ","MAREA":" ","LANE":"６３巷","ALLEY":"３２弄","HOUSE_NO":"８號","E_COORD97":179721.03,"N_COORD97":2579126.6499999999,"ADDRESS":"府西路６３巷３２弄８號","OBJECTID":63507},"geometry":{"x":179721.03000000119,"y":2579126.6500000004}},{"attributes":{"ID":63508,"DIS_CODE":0,"TOWNNAME":"新營區","LI":"新北里","LIN":"31鄰","STREET":"新北六街","SECT":" ","MAREA":" ","LANE":"５巷","ALLEY":"８弄","HOUSE_NO":"４２號","E_COORD97":178778.95000000001,"N_COORD97":2579065.8199999998,"ADDRESS":"新北六街５巷８弄４２號","OBJECTID":63508},"geometry":{"x":178778.95000000112,"y":2579065.8200000022}},{"attributes":{"ID":63509,"DIS_CODE":0,"TOWNNAME":"新營區","LI":"忠政里","LIN":"31鄰","STREET":"府西路","SECT":" ","MAREA":" ","LANE":"６３巷","ALLEY":"３２弄","HOUSE_NO":"６號","E_COORD97":179720.94,"N_COORD97":2579122.2200000002,"ADDRESS":"府西路６３巷３２弄６號","OBJECTID":63509},"geometry":{"x":179720.94000000041,"y":2579122.2200000025}},{"attributes":{"ID":63510,"DIS_CODE":0,"TOWNNAME":"新營區","LI":"忠政里","LIN":"31鄰","STREET":"府西路","SECT":" ","MAREA":" ","LANE":"６３巷","ALLEY":"３２弄","HOUSE_NO":"３號","E_COORD97":179710.67999999999,"N_COORD97":2579097.8999999999,"ADDRESS":"府西路６３巷３２弄３號","OBJECTID":63510},"geometry":{"x":179710.68000000063,"y":2579097.9000000004}},{"attributes":{"ID":63511,"DIS_CODE":0,"TOWNNAME":"新營區","LI":"民榮里","LIN":"31鄰","STREET":"太子路","SECT":" ","MAREA":" ","LANE":"３３巷","ALLEY":"１弄","HOUSE_NO":"４號","E_COORD97":178356.57999999999,"N_COORD97":2578067.8100000001,"ADDRESS":"太子路３３巷１弄４號","OBJECTID":63511},"geometry":{"x":178356.58000000007,"y":2578067.8100000005}},{"attributes":{"ID":63512,"DIS_CODE":0,"TOWNNAME":"新營區","LI":"民榮里","LIN":"31鄰","STREET":"太子路","SECT":" ","MAREA":" ","LANE":"３３巷","ALLEY":"１弄","HOUSE_NO":"１５號","E_COORD97":178339.23000000001,"N_COORD97":2578043.54,"ADDRESS":"太子路３３巷１弄１５號","OBJECTID":63512},"geometry":{"x":178339.23000000231,"y":2578043.540000001}},{"attributes":{"ID":63513,"DIS_CODE":0,"TOWNNAME":"新營區","LI":"忠政里","LIN":"31鄰","STREET":"府西路","SECT":" ","MAREA":" ","LANE":"６３巷","ALLEY":"３２弄","HOUSE_NO":"９號","E_COORD97":179710.62,"N_COORD97":2579111.1899999999,"ADDRESS":"府西路６３巷３２弄９號","OBJECTID":63513},"geometry":{"x":179710.62000000011,"y":2579111.1899999995}},{"attributes":{"ID":63514,"DIS_CODE":0,"TOWNNAME":"新營區","LI":"忠政里","LIN":"31鄰","STREET":"府西路","SECT":" ","MAREA":" ","LANE":"６３巷","ALLEY":"３２弄","HOUSE_NO":"１號","E_COORD97":179710.57000000001,"N_COORD97":2579094.5800000001,"ADDRESS":"府西路６３巷３２弄１號","OBJECTID":63514},"geometry":{"x":179710.57000000123,"y":2579094.5800000019}},{"attributes":{"ID":63515,"DIS_CODE":0,"TOWNNAME":"南區","LI":"松安里","LIN":"8鄰","STREET":"灣裡路","SECT":" ","MAREA":" ","LANE":" ","ALLEY":" ","HOUSE_NO":"２８４號","E_COORD97":166108.17000000001,"N_COORD97":2536401.29,"ADDRESS":"灣裡路２８４號","OBJECTID":63515},"geometry":{"x":166108.16999999993,"y":2536401.290000001}},{"attributes":{"ID":63516,"DIS_CODE":0,"TOWNNAME":"鹽水區","LI":"飯店里","LIN":"8鄰","STREET":" ","SECT":" ","MAREA":"麻油寮","LANE":" ","ALLEY":" ","HOUSE_NO":"１０號","E_COORD97":169391.62,"N_COORD97":2573791.6299999999,"ADDRESS":"麻油寮１０號","OBJECTID":63516},"geometry":{"x":169391.62000000011,"y":2573791.629999999}},{"attributes":{"ID":63517,"DIS_CODE":0,"TOWNNAME":"鹽水區","LI":"飯店里","LIN":"8鄰","STREET":" ","SECT":" ","MAREA":"麻油寮","LANE":" ","ALLEY":" ","HOUSE_NO":"１１號","E_COORD97":169400.82000000001,"N_COORD97":2573782.5600000001,"ADDRESS":"麻油寮１１號","OBJECTID":63517},"geometry":{"x":169400.8200000003,"y":2573782.5600000024}},{"attributes":{"ID":63518,"DIS_CODE":0,"TOWNNAME":"鹽水區","LI":"飯店里","LIN":"8鄰","STREET":" ","SECT":" ","MAREA":"麻油寮","LANE":" ","ALLEY":" ","HOUSE_NO":"１２之１號","E_COORD97":169418.87,"N_COORD97":2573755.1099999999,"ADDRESS":"麻油寮１２之１號","OBJECTID":63518},"geometry":{"x":169418.87000000011,"y":2573755.1099999994}},{"attributes":{"ID":63519,"DIS_CODE":0,"TOWNNAME":"鹽水區","LI":"飯店里","LIN":"8鄰","STREET":" ","SECT":" ","MAREA":"麻油寮","LANE":" ","ALLEY":" ","HOUSE_NO":"１２號","E_COORD97":169410.04000000001,"N_COORD97":2573749.5699999998,"ADDRESS":"麻油寮１２號","OBJECTID":63519},"geometry":{"x":169410.04000000097,"y":2573749.5700000003}},{"attributes":{"ID":63520,"DIS_CODE":0,"TOWNNAME":"鹽水區","LI":"飯店里","LIN":"8鄰","STREET":" ","SECT":" ","MAREA":"麻油寮","LANE":" ","ALLEY":" ","HOUSE_NO":"１３之１號","E_COORD97":169368.51999999999,"N_COORD97":2573731.8100000001,"ADDRESS":"麻油寮１３之１號","OBJECTID":63520},"geometry":{"x":169368.51999999955,"y":2573731.8100000005}},{"attributes":{"ID":63521,"DIS_CODE":0,"TOWNNAME":"鹽水區","LI":"飯店里","LIN":"8鄰","STREET":" ","SECT":" ","MAREA":"麻油寮","LANE":" ","ALLEY":" ","HOUSE_NO":"１３號","E_COORD97":169390.57999999999,"N_COORD97":2573739.7400000002,"ADDRESS":"麻油寮１３號","OBJECTID":63521},"geometry":{"x":169390.58000000007,"y":2573739.7400000039}},{"attributes":{"ID":63522,"DIS_CODE":0,"TOWNNAME":"鹽水區","LI":"飯店里","LIN":"8鄰","STREET":" ","SECT":" ","MAREA":"麻油寮","LANE":" ","ALLEY":" ","HOUSE_NO":"１４之１號","E_COORD97":169375.91,"N_COORD97":2573789.2599999998,"ADDRESS":"麻油寮１４之１號","OBJECTID":63522},"geometry":{"x":169375.91000000108,"y":2573789.2599999998}},{"attributes":{"ID":63523,"DIS_CODE":0,"TOWNNAME":"鹽水區","LI":"飯店里","LIN":"8鄰","STREET":" ","SECT":" ","MAREA":"麻油寮","LANE":" ","ALLEY":" ","HOUSE_NO":"１４號","E_COORD97":169383.39000000001,"N_COORD97":2573775.5600000001,"ADDRESS":"麻油寮１４號","OBJECTID":63523},"geometry":{"x":169383.39000000153,"y":2573775.5600000024}},{"attributes":{"ID":63524,"DIS_CODE":0,"TOWNNAME":"鹽水區","LI":"飯店里","LIN":"8鄰","STREET":" ","SECT":" ","MAREA":"麻油寮","LANE":" ","ALLEY":" ","HOUSE_NO":"２０號","E_COORD97":169333.82999999999,"N_COORD97":2573779.2799999998,"ADDRESS":"麻油寮２０號","OBJECTID":63524},"geometry":{"x":169333.83000000101,"y":2573779.2800000012}},{"attributes":{"ID":63525,"DIS_CODE":0,"TOWNNAME":"鹽水區","LI":"飯店里","LIN":"8鄰","STREET":" ","SECT":" ","MAREA":"麻油寮","LANE":" ","ALLEY":" ","HOUSE_NO":"２１號","E_COORD97":169344.85999999999,"N_COORD97":2573780.6099999999,"ADDRESS":"麻油寮２１號","OBJECTID":63525},"geometry":{"x":169344.86000000034,"y":2573780.6100000013}},{"attributes":{"ID":63526,"DIS_CODE":0,"TOWNNAME":"鹽水區","LI":"後宅里","LIN":"8鄰","STREET":" ","SECT":" ","MAREA":"番子寮","LANE":" ","ALLEY":" ","HOUSE_NO":"３２號","E_COORD97":171796.10000000001,"N_COORD97":2578279.7799999998,"ADDRESS":"番子寮３２號","OBJECTID":63526},"geometry":{"x":171796.10000000056,"y":2578279.7799999993}},{"attributes":{"ID":63527,"DIS_CODE":0,"TOWNNAME":"白河區","LI":"河東里","LIN":"1鄰","STREET":" ","SECT":" ","MAREA":"糞箕湖","LANE":" ","ALLEY":" ","HOUSE_NO":"１之３號","E_COORD97":192470.84,"N_COORD97":2582443.1200000001,"ADDRESS":"糞箕湖１之３號","OBJECTID":63527},"geometry":{"x":192470.84000000078,"y":2582443.120000001}},{"attributes":{"ID":63528,"DIS_CODE":0,"TOWNNAME":"白河區","LI":"河東里","LIN":"1鄰","STREET":" ","SECT":" ","MAREA":"糞箕湖","LANE":" ","ALLEY":" ","HOUSE_NO":"１之４號","E_COORD97":192415.17000000001,"N_COORD97":2582406.8799999999,"ADDRESS":"糞箕湖１之４號","OBJECTID":63528},"geometry":{"x":192415.16999999993,"y":2582406.8800000008}},{"attributes":{"ID":63529,"DIS_CODE":0,"TOWNNAME":"白河區","LI":"河東里","LIN":"1鄰","STREET":" ","SECT":" ","MAREA":"糞箕湖","LANE":" ","ALLEY":" ","HOUSE_NO":"１之６號","E_COORD97":192431.17999999999,"N_COORD97":2582417.1699999999,"ADDRESS":"糞箕湖１之６號","OBJECTID":63529},"geometry":{"x":192431.18000000063,"y":2582417.1700000018}},{"attributes":{"ID":63530,"DIS_CODE":0,"TOWNNAME":"白河區","LI":"河東里","LIN":"1鄰","STREET":" ","SECT":" ","MAREA":"糞箕湖","LANE":" ","ALLEY":" ","HOUSE_NO":"１之９號","E_COORD97":192388.92000000001,"N_COORD97":2582392.1600000001,"ADDRESS":"糞箕湖１之９號","OBJECTID":63530},"geometry":{"x":192388.92000000179,"y":2582392.1600000039}},{"attributes":{"ID":63531,"DIS_CODE":0,"TOWNNAME":"白河區","LI":"河東里","LIN":"1鄰","STREET":" ","SECT":" ","MAREA":"糞箕湖","LANE":" ","ALLEY":" ","HOUSE_NO":"２號","E_COORD97":192329.73999999999,"N_COORD97":2582357.29,"ADDRESS":"糞箕湖２號","OBJECTID":63531},"geometry":{"x":192329.74000000115,"y":2582357.290000001}},{"attributes":{"ID":63532,"DIS_CODE":0,"TOWNNAME":"白河區","LI":"河東里","LIN":"1鄰","STREET":" ","SECT":" ","MAREA":"糞箕湖","LANE":" ","ALLEY":" ","HOUSE_NO":"３之１０號","E_COORD97":192383.70999999999,"N_COORD97":2582307.1699999999,"ADDRESS":"糞箕湖３之１０號","OBJECTID":63532},"geometry":{"x":192383.71000000089,"y":2582307.1700000037}},{"attributes":{"ID":63533,"DIS_CODE":0,"TOWNNAME":"白河區","LI":"河東里","LIN":"1鄰","STREET":" ","SECT":" ","MAREA":"糞箕湖","LANE":" ","ALLEY":" ","HOUSE_NO":"３之１１號","E_COORD97":192381.39999999999,"N_COORD97":2582323.6899999999,"ADDRESS":"糞箕湖３之１１號","OBJECTID":63533},"geometry":{"x":192381.4000000013,"y":2582323.6900000032}},{"attributes":{"ID":63534,"DIS_CODE":0,"TOWNNAME":"白河區","LI":"河東里","LIN":"1鄰","STREET":" ","SECT":" ","MAREA":"糞箕湖","LANE":" ","ALLEY":" ","HOUSE_NO":"３之１２號","E_COORD97":192383.73999999999,"N_COORD97":2582327.0699999998,"ADDRESS":"糞箕湖３之１２號","OBJECTID":63534},"geometry":{"x":192383.74000000209,"y":2582327.0700000003}},{"attributes":{"ID":63535,"DIS_CODE":0,"TOWNNAME":"白河區","LI":"河東里","LIN":"1鄰","STREET":" ","SECT":" ","MAREA":"糞箕湖","LANE":" ","ALLEY":" ","HOUSE_NO":"３之１３號","E_COORD97":192385.92000000001,"N_COORD97":2582331.1400000001,"ADDRESS":"糞箕湖３之１３號","OBJECTID":63535},"geometry":{"x":192385.92000000086,"y":2582331.1400000006}},{"attributes":{"ID":63536,"DIS_CODE":0,"TOWNNAME":"白河區","LI":"河東里","LIN":"1鄰","STREET":" ","SECT":" ","MAREA":"糞箕湖","LANE":" ","ALLEY":" ","HOUSE_NO":"３之１４號","E_COORD97":192388.19,"N_COORD97":2582335.1400000001,"ADDRESS":"糞箕湖３之１４號","OBJECTID":63536},"geometry":{"x":192388.19000000134,"y":2582335.1400000043}},{"attributes":{"ID":63537,"DIS_CODE":0,"TOWNNAME":"白河區","LI":"河東里","LIN":"1鄰","STREET":" ","SECT":" ","MAREA":"糞箕湖","LANE":" ","ALLEY":" ","HOUSE_NO":"３之１５號","E_COORD97":192390.67000000001,"N_COORD97":2582338.54,"ADDRESS":"糞箕湖３之１５號","OBJECTID":63537},"geometry":{"x":192390.67000000179,"y":2582338.540000001}},{"attributes":{"ID":63538,"DIS_CODE":0,"TOWNNAME":"白河區","LI":"河東里","LIN":"1鄰","STREET":" ","SECT":" ","MAREA":"糞箕湖","LANE":" ","ALLEY":" ","HOUSE_NO":"３之１６號","E_COORD97":192392.32999999999,"N_COORD97":2582342.4300000002,"ADDRESS":"糞箕湖３之１６號","OBJECTID":63538},"geometry":{"x":192392.33000000007,"y":2582342.4300000034}},{"attributes":{"ID":63539,"DIS_CODE":0,"TOWNNAME":"白河區","LI":"河東里","LIN":"1鄰","STREET":" ","SECT":" ","MAREA":"糞箕湖","LANE":" ","ALLEY":" ","HOUSE_NO":"３之１７號","E_COORD97":192395.23999999999,"N_COORD97":2582346.21,"ADDRESS":"糞箕湖３之１７號","OBJECTID":63539},"geometry":{"x":192395.24000000022,"y":2582346.2100000028}},{"attributes":{"ID":63540,"DIS_CODE":0,"TOWNNAME":"白河區","LI":"河東里","LIN":"1鄰","STREET":" ","SECT":" ","MAREA":"糞箕湖","LANE":" ","ALLEY":" ","HOUSE_NO":"３之１８號","E_COORD97":192398.10000000001,"N_COORD97":2582350.2599999998,"ADDRESS":"糞箕湖３之１８號","OBJECTID":63540},"geometry":{"x":192398.10000000056,"y":2582350.2599999979}},{"attributes":{"ID":63541,"DIS_CODE":0,"TOWNNAME":"白河區","LI":"河東里","LIN":"1鄰","STREET":" ","SECT":" ","MAREA":"糞箕湖","LANE":" ","ALLEY":" ","HOUSE_NO":"３之１９號","E_COORD97":192399.76000000001,"N_COORD97":2582353.8599999999,"ADDRESS":"糞箕湖３之１９號","OBJECTID":63541},"geometry":{"x":192399.75999999978,"y":2582353.8600000013}},{"attributes":{"ID":63542,"DIS_CODE":0,"TOWNNAME":"白河區","LI":"河東里","LIN":"1鄰","STREET":" ","SECT":" ","MAREA":"糞箕湖","LANE":" ","ALLEY":" ","HOUSE_NO":"３之２０號","E_COORD97":192402.17999999999,"N_COORD97":2582358,"ADDRESS":"糞箕湖３之２０號","OBJECTID":63542},"geometry":{"x":192402.18000000156,"y":2582358}},{"attributes":{"ID":63543,"DIS_CODE":0,"TOWNNAME":"白河區","LI":"河東里","LIN":"1鄰","STREET":" ","SECT":" ","MAREA":"糞箕湖","LANE":" ","ALLEY":" ","HOUSE_NO":"３之３號","E_COORD97":192279.95000000001,"N_COORD97":2582283.5,"ADDRESS":"糞箕湖３之３號","OBJECTID":63543},"geometry":{"x":192279.95000000019,"y":2582283.5}},{"attributes":{"ID":63544,"DIS_CODE":0,"TOWNNAME":"白河區","LI":"河東里","LIN":"1鄰","STREET":" ","SECT":" ","MAREA":"糞箕湖","LANE":" ","ALLEY":" ","HOUSE_NO":"３之５號","E_COORD97":192321.53,"N_COORD97":2582326.1000000001,"ADDRESS":"糞箕湖３之５號","OBJECTID":63544},"geometry":{"x":192321.53000000026,"y":2582326.0999999996}},{"attributes":{"ID":63545,"DIS_CODE":0,"TOWNNAME":"永康區","LI":"正強里","LIN":"31鄰","STREET":"自強路","SECT":" ","MAREA":" ","LANE":"２５５巷","ALLEY":"４２弄","HOUSE_NO":"８號","E_COORD97":173148.69,"N_COORD97":2547642.2400000002,"ADDRESS":"自強路２５５巷４２弄８號","OBJECTID":63545},"geometry":{"x":173148.69000000041,"y":2547642.2400000002}},{"attributes":{"ID":63546,"DIS_CODE":0,"TOWNNAME":"白河區","LI":"河東里","LIN":"1鄰","STREET":" ","SECT":" ","MAREA":"糞箕湖","LANE":" ","ALLEY":" ","HOUSE_NO":"３之６號","E_COORD97":192420.28,"N_COORD97":2582343.5600000001,"ADDRESS":"糞箕湖３之６號","OBJECTID":63546},"geometry":{"x":192420.28000000026,"y":2582343.5600000024}},{"attributes":{"ID":63547,"DIS_CODE":0,"TOWNNAME":"新營區","LI":"忠政里","LIN":"31鄰","STREET":"府西路","SECT":" ","MAREA":" ","LANE":"６３巷","ALLEY":"３２弄","HOUSE_NO":"１５號","E_COORD97":179705.85999999999,"N_COORD97":2579130.0499999998,"ADDRESS":"府西路６３巷３２弄１５號","OBJECTID":63547},"geometry":{"x":179705.86000000034,"y":2579130.0500000026}},{"attributes":{"ID":63548,"DIS_CODE":0,"TOWNNAME":"新營區","LI":"忠政里","LIN":"31鄰","STREET":"府西路","SECT":" ","MAREA":" ","LANE":"６３巷","ALLEY":"３２弄","HOUSE_NO":"１３號","E_COORD97":179710.92999999999,"N_COORD97":2579121.1600000001,"ADDRESS":"府西路６３巷３２弄１３號","OBJECTID":63548},"geometry":{"x":179710.93000000063,"y":2579121.160000002}},{"attributes":{"ID":63549,"DIS_CODE":0,"TOWNNAME":"新營區","LI":"新北里","LIN":"31鄰","STREET":"新北六街","SECT":" ","MAREA":" ","LANE":"５巷","ALLEY":"８弄","HOUSE_NO":"４８號","E_COORD97":178779.01999999999,"N_COORD97":2579079.1099999999,"ADDRESS":"新北六街５巷８弄４８號","OBJECTID":63549},"geometry":{"x":178779.02000000048,"y":2579079.1099999994}},{"attributes":{"ID":63550,"DIS_CODE":0,"TOWNNAME":"新營區","LI":"新北里","LIN":"31鄰","STREET":"新北六街","SECT":" ","MAREA":" ","LANE":"５巷","ALLEY":"８弄","HOUSE_NO":"４０號","E_COORD97":178770.76999999999,"N_COORD97":2579065.8599999999,"ADDRESS":"新北六街５巷８弄４０號","OBJECTID":63550},"geometry":{"x":178770.77000000048,"y":2579065.8599999994}},{"attributes":{"ID":63551,"DIS_CODE":0,"TOWNNAME":"新營區","LI":"新北里","LIN":"31鄰","STREET":"新北六街","SECT":" ","MAREA":" ","LANE":"５巷","ALLEY":"８弄","HOUSE_NO":"３４號","E_COORD97":178765.79999999999,"N_COORD97":2579092.46,"ADDRESS":"新北六街５巷８弄３４號","OBJECTID":63551},"geometry":{"x":178765.80000000075,"y":2579092.4600000028}},{"attributes":{"ID":63552,"DIS_CODE":0,"TOWNNAME":"新營區","LI":"新北里","LIN":"31鄰","STREET":"新北六街","SECT":" ","MAREA":" ","LANE":"５巷","ALLEY":"８弄","HOUSE_NO":"２４號","E_COORD97":178744.29000000001,"N_COORD97":2579091.4500000002,"ADDRESS":"新北六街５巷８弄２４號","OBJECTID":63552},"geometry":{"x":178744.29000000097,"y":2579091.4500000011}},{"attributes":{"ID":63553,"DIS_CODE":0,"TOWNNAME":"新營區","LI":"南興里","LIN":"31鄰","STREET":"建業路","SECT":" ","MAREA":" ","LANE":"１６７巷","ALLEY":"３弄","HOUSE_NO":"９號","E_COORD97":178352.26000000001,"N_COORD97":2577407.7999999998,"ADDRESS":"建業路１６７巷３弄９號","OBJECTID":63553},"geometry":{"x":178352.26000000071,"y":2577407.7999999989}},{"attributes":{"ID":63554,"DIS_CODE":0,"TOWNNAME":"新營區","LI":"南興里","LIN":"31鄰","STREET":"建業路","SECT":" ","MAREA":" ","LANE":"１６７巷","ALLEY":"３弄","HOUSE_NO":"２３號","E_COORD97":178352.44,"N_COORD97":2577375.6899999999,"ADDRESS":"建業路１６７巷３弄２３號","OBJECTID":63554},"geometry":{"x":178352.44000000041,"y":2577375.6899999995}},{"attributes":{"ID":63555,"DIS_CODE":0,"TOWNNAME":"新營區","LI":"南興里","LIN":"31鄰","STREET":"建業路","SECT":" ","MAREA":" ","LANE":"１６７巷","ALLEY":"３弄","HOUSE_NO":"３２號","E_COORD97":178338.10000000001,"N_COORD97":2577368,"ADDRESS":"建業路１６７巷３弄３２號","OBJECTID":63555},"geometry":{"x":178338.10000000056,"y":2577368}},{"attributes":{"ID":63556,"DIS_CODE":0,"TOWNNAME":"新營區","LI":"南興里","LIN":"31鄰","STREET":"建業路","SECT":" ","MAREA":" ","LANE":"１６７巷","ALLEY":"３弄","HOUSE_NO":"２６號","E_COORD97":178339.16,"N_COORD97":2577380.1800000002,"ADDRESS":"建業路１６７巷３弄２６號","OBJECTID":63556},"geometry":{"x":178339.16000000015,"y":2577380.1799999997}},{"attributes":{"ID":63557,"DIS_CODE":0,"TOWNNAME":"新營區","LI":"南興里","LIN":"31鄰","STREET":"建業路","SECT":" ","MAREA":" ","LANE":"１６７巷","ALLEY":"３弄","HOUSE_NO":"２２號","E_COORD97":178339.17999999999,"N_COORD97":2577384.6099999999,"ADDRESS":"建業路１６７巷３弄２２號","OBJECTID":63557},"geometry":{"x":178339.18000000063,"y":2577384.6100000013}},{"attributes":{"ID":63558,"DIS_CODE":0,"TOWNNAME":"新營區","LI":"南興里","LIN":"31鄰","STREET":"建業路","SECT":" ","MAREA":" ","LANE":"１６７巷","ALLEY":"３弄","HOUSE_NO":"６號","E_COORD97":178343.17000000001,"N_COORD97":2577422.2400000002,"ADDRESS":"建業路１６７巷３弄６號","OBJECTID":63558},"geometry":{"x":178343.17000000086,"y":2577422.2400000021}},{"attributes":{"ID":63559,"DIS_CODE":0,"TOWNNAME":"新營區","LI":"民榮里","LIN":"31鄰","STREET":"太子路","SECT":" ","MAREA":" ","LANE":"３３巷","ALLEY":"１弄","HOUSE_NO":"１３號","E_COORD97":178343.32999999999,"N_COORD97":2578045.7400000002,"ADDRESS":"太子路３３巷１弄１３號","OBJECTID":63559},"geometry":{"x":178343.33000000194,"y":2578045.7400000021}},{"attributes":{"ID":63560,"DIS_CODE":0,"TOWNNAME":"南區","LI":"大忠里","LIN":"31鄰","STREET":"中華南路","SECT":"一段","MAREA":" ","LANE":"１８６巷","ALLEY":"２０弄","HOUSE_NO":"１１號","E_COORD97":169098.14999999999,"N_COORD97":2541291.5800000001,"ADDRESS":"中華南路一段１８６巷２０弄１１號","OBJECTID":63560},"geometry":{"x":169098.1500000013,"y":2541291.5800000019}},{"attributes":{"ID":63561,"DIS_CODE":0,"TOWNNAME":"南區","LI":"大忠里","LIN":"31鄰","STREET":"中華南路","SECT":"一段","MAREA":" ","LANE":"１８６巷","ALLEY":"２０弄","HOUSE_NO":"１３號","E_COORD97":169101.64999999999,"N_COORD97":2541294.5600000001,"ADDRESS":"中華南路一段１８６巷２０弄１３號","OBJECTID":63561},"geometry":{"x":169101.6500000013,"y":2541294.5600000005}},{"attributes":{"ID":63562,"DIS_CODE":0,"TOWNNAME":"南區","LI":"大忠里","LIN":"31鄰","STREET":"中華南路","SECT":"一段","MAREA":" ","LANE":"１８６巷","ALLEY":"２０弄","HOUSE_NO":"１５號","E_COORD97":169104.39000000001,"N_COORD97":2541297.0499999998,"ADDRESS":"中華南路一段１８６巷２０弄１５號","OBJECTID":63562},"geometry":{"x":169104.3900000006,"y":2541297.0500000026}},{"attributes":{"ID":63563,"DIS_CODE":0,"TOWNNAME":"南區","LI":"大忠里","LIN":"31鄰","STREET":"中華南路","SECT":"一段","MAREA":" ","LANE":"１８６巷","ALLEY":"２０弄","HOUSE_NO":"１７號","E_COORD97":169107.39000000001,"N_COORD97":2541300.04,"ADDRESS":"中華南路一段１８６巷２０弄１７號","OBJECTID":63563},"geometry":{"x":169107.3900000006,"y":2541300.0399999991}},{"attributes":{"ID":63564,"DIS_CODE":0,"TOWNNAME":"南區","LI":"大忠里","LIN":"31鄰","STREET":"中華南路","SECT":"一段","MAREA":" ","LANE":"１８６巷","ALLEY":"２０弄","HOUSE_NO":"１９號","E_COORD97":169110.63,"N_COORD97":2541302.7799999998,"ADDRESS":"中華南路一段１８６巷２０弄１９號","OBJECTID":63564},"geometry":{"x":169110.62999999896,"y":2541302.7800000031}},{"attributes":{"ID":63565,"DIS_CODE":0,"TOWNNAME":"南區","LI":"大忠里","LIN":"31鄰","STREET":"中華南路","SECT":"一段","MAREA":" ","LANE":"１８６巷","ALLEY":"２０弄","HOUSE_NO":"１號","E_COORD97":169082.67999999999,"N_COORD97":2541277.3900000001,"ADDRESS":"中華南路一段１８６巷２０弄１號","OBJECTID":63565},"geometry":{"x":169082.6799999997,"y":2541277.3900000025}},{"attributes":{"ID":63566,"DIS_CODE":0,"TOWNNAME":"南區","LI":"大忠里","LIN":"31鄰","STREET":"中華南路","SECT":"一段","MAREA":" ","LANE":"１８６巷","ALLEY":"２０弄","HOUSE_NO":"３號","E_COORD97":169085.92000000001,"N_COORD97":2541280.3799999999,"ADDRESS":"中華南路一段１８６巷２０弄３號","OBJECTID":63566},"geometry":{"x":169085.92000000086,"y":2541280.379999999}},{"attributes":{"ID":63567,"DIS_CODE":0,"TOWNNAME":"南區","LI":"大忠里","LIN":"31鄰","STREET":"中華南路","SECT":"一段","MAREA":" ","LANE":"１８６巷","ALLEY":"２０弄","HOUSE_NO":"５號","E_COORD97":169089.42000000001,"N_COORD97":2541282.8700000001,"ADDRESS":"中華南路一段１８６巷２０弄５號","OBJECTID":63567},"geometry":{"x":169089.41999999993,"y":2541282.870000001}},{"attributes":{"ID":63568,"DIS_CODE":0,"TOWNNAME":"南區","LI":"大忠里","LIN":"31鄰","STREET":"中華南路","SECT":"一段","MAREA":" ","LANE":"１８６巷","ALLEY":"２０弄","HOUSE_NO":"７號","E_COORD97":169091.91,"N_COORD97":2541285.6099999999,"ADDRESS":"中華南路一段１８６巷２０弄７號","OBJECTID":63568},"geometry":{"x":169091.91000000015,"y":2541285.6099999994}},{"attributes":{"ID":63569,"DIS_CODE":0,"TOWNNAME":"南區","LI":"大忠里","LIN":"31鄰","STREET":"中華南路","SECT":"一段","MAREA":" ","LANE":"１８６巷","ALLEY":"２０弄","HOUSE_NO":"９號","E_COORD97":169095.16,"N_COORD97":2541288.8399999999,"ADDRESS":"中華南路一段１８６巷２０弄９號","OBJECTID":63569},"geometry":{"x":169095.16000000015,"y":2541288.8399999999}},{"attributes":{"ID":63570,"DIS_CODE":0,"TOWNNAME":"南區","LI":"大忠里","LIN":"31鄰","STREET":"中華南路","SECT":"一段","MAREA":" ","LANE":"１８６巷","ALLEY":"３０弄","HOUSE_NO":"１０號","E_COORD97":169081.67999999999,"N_COORD97":2541303.77,"ADDRESS":"中華南路一段１８６巷３０弄１０號","OBJECTID":63570},"geometry":{"x":169081.68000000063,"y":2541303.7700000014}},{"attributes":{"ID":63571,"DIS_CODE":0,"TOWNNAME":"南區","LI":"大忠里","LIN":"31鄰","STREET":"中華南路","SECT":"一段","MAREA":" ","LANE":"１８６巷","ALLEY":"３０弄","HOUSE_NO":"１１號","E_COORD97":169067.07000000001,"N_COORD97":2541325.9500000002,"ADDRESS":"中華南路一段１８６巷３０弄１１號","OBJECTID":63571},"geometry":{"x":169067.0700000003,"y":2541325.9500000011}},{"attributes":{"ID":63572,"DIS_CODE":0,"TOWNNAME":"南區","LI":"大忠里","LIN":"31鄰","STREET":"中華南路","SECT":"一段","MAREA":" ","LANE":"１８６巷","ALLEY":"３０弄","HOUSE_NO":"１２號","E_COORD97":169084.42999999999,"N_COORD97":2541306.2599999998,"ADDRESS":"中華南路一段１８６巷３０弄１２號","OBJECTID":63572},"geometry":{"x":169084.4299999997,"y":2541306.2599999998}},{"attributes":{"ID":63573,"DIS_CODE":0,"TOWNNAME":"南區","LI":"大忠里","LIN":"31鄰","STREET":"中華南路","SECT":"一段","MAREA":" ","LANE":"１８６巷","ALLEY":"３０弄","HOUSE_NO":"１號","E_COORD97":169052.14000000001,"N_COORD97":2541311.9199999999,"ADDRESS":"中華南路一段１８６巷３０弄１號","OBJECTID":63573},"geometry":{"x":169052.13999999966,"y":2541311.9199999999}},{"attributes":{"ID":63574,"DIS_CODE":0,"TOWNNAME":"南區","LI":"大忠里","LIN":"31鄰","STREET":"中華南路","SECT":"一段","MAREA":" ","LANE":"１８６巷","ALLEY":"３０弄","HOUSE_NO":"２號","E_COORD97":169069.95000000001,"N_COORD97":2541291.3300000001,"ADDRESS":"中華南路一段１８６巷３０弄２號","OBJECTID":63574},"geometry":{"x":169069.95000000205,"y":2541291.3300000001}},{"attributes":{"ID":63575,"DIS_CODE":0,"TOWNNAME":"南區","LI":"大忠里","LIN":"31鄰","STREET":"中華南路","SECT":"一段","MAREA":" ","LANE":"１８６巷","ALLEY":"３０弄","HOUSE_NO":"３號","E_COORD97":169054.73000000001,"N_COORD97":2541315.3599999999,"ADDRESS":"中華南路一段１８６巷３０弄３號","OBJECTID":63575},"geometry":{"x":169054.73000000231,"y":2541315.3599999994}},{"attributes":{"ID":63576,"DIS_CODE":0,"TOWNNAME":"南區","LI":"大忠里","LIN":"31鄰","STREET":"中華南路","SECT":"一段","MAREA":" ","LANE":"１８６巷","ALLEY":"３０弄","HOUSE_NO":"４號","E_COORD97":169072.44,"N_COORD97":2541294.8100000001,"ADDRESS":"中華南路一段１８６巷３０弄４號","OBJECTID":63576},"geometry":{"x":169072.44000000134,"y":2541294.8100000024}},{"attributes":{"ID":63577,"DIS_CODE":0,"TOWNNAME":"南區","LI":"大忠里","LIN":"31鄰","STREET":"中華南路","SECT":"一段","MAREA":" ","LANE":"１８６巷","ALLEY":"３０弄","HOUSE_NO":"５號","E_COORD97":169057.60000000001,"N_COORD97":2541317.9300000002,"ADDRESS":"中華南路一段１８６巷３０弄５號","OBJECTID":63577},"geometry":{"x":169057.59999999963,"y":2541317.9299999997}},{"attributes":{"ID":63578,"DIS_CODE":0,"TOWNNAME":"南區","LI":"大忠里","LIN":"31鄰","STREET":"中華南路","SECT":"一段","MAREA":" ","LANE":"１８６巷","ALLEY":"３０弄","HOUSE_NO":"６號","E_COORD97":169075.69,"N_COORD97":2541297.7999999998,"ADDRESS":"中華南路一段１８６巷３０弄６號","OBJECTID":63578},"geometry":{"x":169075.69000000134,"y":2541297.8000000026}},{"attributes":{"ID":63579,"DIS_CODE":0,"TOWNNAME":"南區","LI":"大忠里","LIN":"31鄰","STREET":"中華南路","SECT":"一段","MAREA":" ","LANE":"１８６巷","ALLEY":"３０弄","HOUSE_NO":"７號","E_COORD97":169060.76000000001,"N_COORD97":2541320.2200000002,"ADDRESS":"中華南路一段１８６巷３０弄７號","OBJECTID":63579},"geometry":{"x":169060.76000000071,"y":2541320.2200000007}},{"attributes":{"ID":63580,"DIS_CODE":0,"TOWNNAME":"南區","LI":"大忠里","LIN":"31鄰","STREET":"中華南路","SECT":"一段","MAREA":" ","LANE":"１８６巷","ALLEY":"３０弄","HOUSE_NO":"８號","E_COORD97":169078.67999999999,"N_COORD97":2541300.54,"ADDRESS":"中華南路一段１８６巷３０弄８號","OBJECTID":63580},"geometry":{"x":169078.68000000063,"y":2541300.5400000028}},{"attributes":{"ID":63581,"DIS_CODE":0,"TOWNNAME":"南區","LI":"大忠里","LIN":"31鄰","STREET":"中華南路","SECT":"一段","MAREA":" ","LANE":"１８６巷","ALLEY":"３０弄","HOUSE_NO":"９號","E_COORD97":169064.20000000001,"N_COORD97":2541323.0899999999,"ADDRESS":"中華南路一段１８６巷３０弄９號","OBJECTID":63581},"geometry":{"x":169064.20000000019,"y":2541323.0899999999}},{"attributes":{"ID":63582,"DIS_CODE":0,"TOWNNAME":"新營區","LI":"南興里","LIN":"31鄰","STREET":"建業路","SECT":" ","MAREA":" ","LANE":"１６７巷","ALLEY":"３弄","HOUSE_NO":"１８號","E_COORD97":178341.22,"N_COORD97":2577396.7799999998,"ADDRESS":"建業路１６７巷３弄１８號","OBJECTID":63582},"geometry":{"x":178341.21999999974,"y":2577396.7800000031}},{"attributes":{"ID":63583,"DIS_CODE":0,"TOWNNAME":"新營區","LI":"南興里","LIN":"31鄰","STREET":"建業路","SECT":" ","MAREA":" ","LANE":"１６７巷","ALLEY":"３弄","HOUSE_NO":"２號","E_COORD97":178344.29000000001,"N_COORD97":2577431.0899999999,"ADDRESS":"建業路１６７巷３弄２號","OBJECTID":63583},"geometry":{"x":178344.29000000097,"y":2577431.0899999999}},{"attributes":{"ID":63584,"DIS_CODE":0,"TOWNNAME":"新營區","LI":"南興里","LIN":"31鄰","STREET":"建業路","SECT":" ","MAREA":" ","LANE":"１６７巷","ALLEY":"３弄","HOUSE_NO":"７號","E_COORD97":178353.37,"N_COORD97":2577412.2200000002,"ADDRESS":"建業路１６７巷３弄７號","OBJECTID":63584},"geometry":{"x":178353.37000000104,"y":2577412.2200000025}},{"attributes":{"ID":63585,"DIS_CODE":0,"TOWNNAME":"新營區","LI":"南興里","LIN":"31鄰","STREET":"建業路","SECT":" ","MAREA":" ","LANE":"１６７巷","ALLEY":"３弄","HOUSE_NO":"１９號","E_COORD97":178352.41,"N_COORD97":2577384.5499999998,"ADDRESS":"建業路１６７巷３弄１９號","OBJECTID":63585},"geometry":{"x":178352.41000000015,"y":2577384.5500000007}},{"attributes":{"ID":63586,"DIS_CODE":0,"TOWNNAME":"新化區","LI":"唪口里","LIN":"5鄰","STREET":" ","SECT":" ","MAREA":"唪口","LANE":" ","ALLEY":" ","HOUSE_NO":"５６號之６","E_COORD97":178103.95000000001,"N_COORD97":2549132.2599999998,"ADDRESS":"唪口５６號之６","OBJECTID":63586},"geometry":{"x":178103.95000000112,"y":2549132.2600000016}},{"attributes":{"ID":63587,"DIS_CODE":0,"TOWNNAME":"新化區","LI":"全興里","LIN":"20鄰","STREET":" ","SECT":" ","MAREA":"竹子\u25A0","LANE":" ","ALLEY":" ","HOUSE_NO":"２４７號之３２６","E_COORD97":178493.17999999999,"N_COORD97":2546672.2599999998,"ADDRESS":"竹子\u25A0２４７號之３２６","OBJECTID":63587},"geometry":{"x":178493.18000000156,"y":2546672.2599999998}},{"attributes":{"ID":63588,"DIS_CODE":0,"TOWNNAME":"新營區","LI":"南興里","LIN":"31鄰","STREET":"建業路","SECT":" ","MAREA":" ","LANE":"１６７巷","ALLEY":"３弄","HOUSE_NO":"１７號","E_COORD97":178352.42999999999,"N_COORD97":2577390.0800000001,"ADDRESS":"建業路１６７巷３弄１７號","OBJECTID":63588},"geometry":{"x":178352.43000000156,"y":2577390.0800000019}},{"attributes":{"ID":63589,"DIS_CODE":0,"TOWNNAME":"新營區","LI":"三仙里","LIN":"31鄰","STREET":"三興街","SECT":" ","MAREA":" ","LANE":"１４４巷","ALLEY":"２２弄","HOUSE_NO":"１２號","E_COORD97":179511.14999999999,"N_COORD97":2579267.1899999999,"ADDRESS":"三興街１４４巷２２弄１２號","OBJECTID":63589},"geometry":{"x":179511.15000000224,"y":2579267.1899999995}},{"attributes":{"ID":63590,"DIS_CODE":0,"TOWNNAME":"新營區","LI":"三仙里","LIN":"31鄰","STREET":"三興街","SECT":" ","MAREA":" ","LANE":"１４４巷","ALLEY":"２２弄","HOUSE_NO":"６號","E_COORD97":179507.92000000001,"N_COORD97":2579279.3799999999,"ADDRESS":"三興街１４４巷２２弄６號","OBJECTID":63590},"geometry":{"x":179507.92000000086,"y":2579279.379999999}},{"attributes":{"ID":63591,"DIS_CODE":0,"TOWNNAME":"永康區","LI":"埔園里","LIN":"31鄰","STREET":"八德街","SECT":" ","MAREA":" ","LANE":"３２６巷","ALLEY":"５１弄","HOUSE_NO":"２３號","E_COORD97":173587.01999999999,"N_COORD97":2548744.98,"ADDRESS":"八德街３２６巷５１弄２３號","OBJECTID":63591},"geometry":{"x":173587.02000000048,"y":2548744.9800000023}},{"attributes":{"ID":63592,"DIS_CODE":0,"TOWNNAME":"永康區","LI":"埔園里","LIN":"31鄰","STREET":"八德街","SECT":" ","MAREA":" ","LANE":"３２６巷","ALLEY":"３５弄","HOUSE_NO":"１６號","E_COORD97":173590.32999999999,"N_COORD97":2548691.9900000002,"ADDRESS":"八德街３２６巷３５弄１６號","OBJECTID":63592},"geometry":{"x":173590.33000000101,"y":2548691.9900000002}},{"attributes":{"ID":63593,"DIS_CODE":0,"TOWNNAME":"永康區","LI":"埔園里","LIN":"31鄰","STREET":"永大路","SECT":"三段","MAREA":" ","LANE":"５１１巷","ALLEY":"２０弄","HOUSE_NO":"８號","E_COORD97":173924.73000000001,"N_COORD97":2548916.0099999998,"ADDRESS":"永大路三段５１１巷２０弄８號","OBJECTID":63593},"geometry":{"x":173924.73000000045,"y":2548916.0099999979}},{"attributes":{"ID":63594,"DIS_CODE":0,"TOWNNAME":"永康區","LI":"埔園里","LIN":"31鄰","STREET":"八德街","SECT":" ","MAREA":" ","LANE":"１４０巷","ALLEY":"６弄","HOUSE_NO":"２號","E_COORD97":174000.78,"N_COORD97":2548600.5699999998,"ADDRESS":"八德街１４０巷６弄２號","OBJECTID":63594},"geometry":{"x":174000.78000000212,"y":2548600.5700000003}},{"attributes":{"ID":63595,"DIS_CODE":0,"TOWNNAME":"永康區","LI":"埔園里","LIN":"31鄰","STREET":"永大路","SECT":"三段","MAREA":" ","LANE":"５１１巷","ALLEY":"２０弄","HOUSE_NO":"２號","E_COORD97":173927.89999999999,"N_COORD97":2548906.9100000001,"ADDRESS":"永大路三段５１１巷２０弄２號","OBJECTID":63595},"geometry":{"x":173927.9000000013,"y":2548906.9099999983}},{"attributes":{"ID":63596,"DIS_CODE":0,"TOWNNAME":"鹽水區","LI":"橋南里","LIN":"8鄰","STREET":"新太路","SECT":" ","MAREA":" ","LANE":" ","ALLEY":" ","HOUSE_NO":"２６號之１","E_COORD97":175000.89000000001,"N_COORD97":2578463.6499999999,"ADDRESS":"新太路２６號之１","OBJECTID":63596},"geometry":{"x":175000.88999999966,"y":2578463.6500000022}},{"attributes":{"ID":63597,"DIS_CODE":0,"TOWNNAME":"鹽水區","LI":"義稠里","LIN":"8鄰","STREET":" ","SECT":" ","MAREA":"義稠","LANE":" ","ALLEY":" ","HOUSE_NO":"１１３號","E_COORD97":173790.25,"N_COORD97":2580692.8199999998,"ADDRESS":"義稠１１３號","OBJECTID":63597},"geometry":{"x":173790.25,"y":2580692.820000004}},{"attributes":{"ID":63598,"DIS_CODE":0,"TOWNNAME":"鹽水區","LI":"舊營里","LIN":"8鄰","STREET":" ","SECT":" ","MAREA":"舊營","LANE":" ","ALLEY":" ","HOUSE_NO":"８１號之１４","E_COORD97":174514.73000000001,"N_COORD97":2577626.96,"ADDRESS":"舊營８１號之１４","OBJECTID":63598},"geometry":{"x":174514.73000000045,"y":2577626.9600000009}},{"attributes":{"ID":63599,"DIS_CODE":0,"TOWNNAME":"左鎮區","LI":"澄山里","LIN":"8鄰","STREET":" ","SECT":" ","MAREA":"澄山","LANE":" ","ALLEY":" ","HOUSE_NO":"８２號","E_COORD97":187104.89000000001,"N_COORD97":2547252.25,"ADDRESS":"澄山８２號","OBJECTID":63599},"geometry":{"x":187104.89000000153,"y":2547252.25}},{"attributes":{"ID":63600,"DIS_CODE":0,"TOWNNAME":"左鎮區","LI":"澄山里","LIN":"8鄰","STREET":" ","SECT":" ","MAREA":"澄山","LANE":" ","ALLEY":" ","HOUSE_NO":"７７號","E_COORD97":187003.48999999999,"N_COORD97":2547344.25,"ADDRESS":"澄山７７號","OBJECTID":63600},"geometry":{"x":187003.49000000115,"y":2547344.25}}]}