{"displayFieldName":"TOWNNAME","fieldAliases":{"ID":"ID","DIS_CODE":"DIS_CODE","TOWNNAME":"TOWNNAME","LI":"LI","LIN":"LIN","STREET":"STREET","SECT":"SECT","MAREA":"MAREA","LANE":"LANE","ALLEY":"ALLEY","HOUSE_NO":"HOUSE_NO","E_COORD97":"E_COORD97","N_COORD97":"N_COORD97","ADDRESS":"ADDRESS","OBJECTID":"OBJECTID"},"geometryType":"esriGeometryPoint","spatialReference":{"wkid":102443,"latestWkid":3826},"fields":[{"name":"ID","type":"esriFieldTypeDouble","alias":"ID"},{"name":"DIS_CODE","type":"esriFieldTypeInteger","alias":"DIS_CODE"},{"name":"TOWNNAME","type":"esriFieldTypeString","alias":"TOWNNAME","length":8},{"name":"LI","type":"esriFieldTypeString","alias":"LI","length":8},{"name":"LIN","type":"esriFieldTypeString","alias":"LIN","length":12},{"name":"STREET","type":"esriFieldTypeString","alias":"STREET","length":20},{"name":"SECT","type":"esriFieldTypeString","alias":"SECT","length":8},{"name":"MAREA","type":"esriFieldTypeString","alias":"MAREA","length":12},{"name":"LANE","type":"esriFieldTypeString","alias":"LANE","length":10},{"name":"ALLEY","type":"esriFieldTypeString","alias":"ALLEY","length":10},{"name":"HOUSE_NO","type":"esriFieldTypeString","alias":"HOUSE_NO","length":20},{"name":"E_COORD97","type":"esriFieldTypeDouble","alias":"E_COORD97"},{"name":"N_COORD97","type":"esriFieldTypeDouble","alias":"N_COORD97"},{"name":"ADDRESS","type":"esriFieldTypeString","alias":"ADDRESS","length":50},{"name":"OBJECTID","type":"esriFieldTypeOID","alias":"OBJECTID"}],"features":[{"attributes":{"ID":578028,"DIS_CODE":0,"TOWNNAME":"歸仁區","LI":"大廟里","LIN":"16鄰","STREET":"大廟六街","SECT":" ","MAREA":" ","LANE":" ","ALLEY":" ","HOUSE_NO":"４９號","E_COORD97":176075.28,"N_COORD97":2544229.79,"ADDRESS":"大廟六街４９號","OBJECTID":578001},"geometry":{"x":176075.28000000026,"y":2544229.790000001}},{"attributes":{"ID":578029,"DIS_CODE":0,"TOWNNAME":"歸仁區","LI":"七甲里","LIN":"16鄰","STREET":"南潭二街","SECT":" ","MAREA":" ","LANE":" ","ALLEY":" ","HOUSE_NO":"１４４號","E_COORD97":176476.04000000001,"N_COORD97":2543005.0099999998,"ADDRESS":"南潭二街１４４號","OBJECTID":578002},"geometry":{"x":176476.04000000097,"y":2543005.0100000016}},{"attributes":{"ID":578030,"DIS_CODE":0,"TOWNNAME":"歸仁區","LI":"七甲里","LIN":"16鄰","STREET":"南潭二街","SECT":" ","MAREA":" ","LANE":" ","ALLEY":" ","HOUSE_NO":"１３８號","E_COORD97":176462.64000000001,"N_COORD97":2543004.0099999998,"ADDRESS":"南潭二街１３８號","OBJECTID":578003},"geometry":{"x":176462.6400000006,"y":2543004.0100000016}},{"attributes":{"ID":578031,"DIS_CODE":0,"TOWNNAME":"歸仁區","LI":"大廟里","LIN":"16鄰","STREET":"大廟六街","SECT":" ","MAREA":" ","LANE":" ","ALLEY":" ","HOUSE_NO":"３１號","E_COORD97":176041.48000000001,"N_COORD97":2544245.0899999999,"ADDRESS":"大廟六街３１號","OBJECTID":578004},"geometry":{"x":176041.48000000045,"y":2544245.0900000017}},{"attributes":{"ID":578032,"DIS_CODE":0,"TOWNNAME":"歸仁區","LI":"大廟里","LIN":"16鄰","STREET":"大廟六街","SECT":" ","MAREA":" ","LANE":" ","ALLEY":" ","HOUSE_NO":"７１號","E_COORD97":176125.67999999999,"N_COORD97":2544251.79,"ADDRESS":"大廟六街７１號","OBJECTID":578005},"geometry":{"x":176125.68000000063,"y":2544251.7900000028}},{"attributes":{"ID":578033,"DIS_CODE":0,"TOWNNAME":"東區","LI":"東明里","LIN":"16鄰","STREET":"東安路","SECT":" ","MAREA":" ","LANE":" ","ALLEY":" ","HOUSE_NO":"８６號","E_COORD97":170711.69,"N_COORD97":2543701.71,"ADDRESS":"東安路８６號","OBJECTID":578006},"geometry":{"x":170711.69000000134,"y":2543701.7100000046}},{"attributes":{"ID":578034,"DIS_CODE":0,"TOWNNAME":"東區","LI":"崇德里","LIN":"20鄰","STREET":"崇明十四街","SECT":" ","MAREA":" ","LANE":" ","ALLEY":" ","HOUSE_NO":"７５號","E_COORD97":170641.45000000001,"N_COORD97":2541650.2999999998,"ADDRESS":"崇明十四街７５號","OBJECTID":578007},"geometry":{"x":170641.45000000205,"y":2541650.3000000026}},{"attributes":{"ID":578035,"DIS_CODE":0,"TOWNNAME":"東區","LI":"崇德里","LIN":"14鄰","STREET":"崇明路","SECT":" ","MAREA":" ","LANE":" ","ALLEY":" ","HOUSE_NO":"４３７號","E_COORD97":170462.59,"N_COORD97":2541550.8399999999,"ADDRESS":"崇明路４３７號","OBJECTID":578008},"geometry":{"x":170462.59000000078,"y":2541550.8400000017}},{"attributes":{"ID":578036,"DIS_CODE":0,"TOWNNAME":"東區","LI":"崇德里","LIN":"14鄰","STREET":"崇明路","SECT":" ","MAREA":" ","LANE":" ","ALLEY":" ","HOUSE_NO":"４４９號","E_COORD97":170486.98000000001,"N_COORD97":2541530.4700000002,"ADDRESS":"崇明路４４９號","OBJECTID":578009},"geometry":{"x":170486.98000000045,"y":2541530.4700000025}},{"attributes":{"ID":578037,"DIS_CODE":0,"TOWNNAME":"東區","LI":"崇德里","LIN":"1鄰","STREET":"崇善路","SECT":" ","MAREA":" ","LANE":" ","ALLEY":" ","HOUSE_NO":"２６８號","E_COORD97":170818.91,"N_COORD97":2541949.4500000002,"ADDRESS":"崇善路２６８號","OBJECTID":578010},"geometry":{"x":170818.91000000015,"y":2541949.4500000011}},{"attributes":{"ID":578038,"DIS_CODE":0,"TOWNNAME":"東區","LI":"小東里","LIN":"35鄰","STREET":"東興路","SECT":" ","MAREA":" ","LANE":" ","ALLEY":" ","HOUSE_NO":"３６９號","E_COORD97":171011.89999999999,"N_COORD97":2544304.79,"ADDRESS":"東興路３６９號","OBJECTID":578011},"geometry":{"x":171011.9000000013,"y":2544304.7899999991}},{"attributes":{"ID":578039,"DIS_CODE":0,"TOWNNAME":"歸仁區","LI":"八甲里","LIN":"16鄰","STREET":"大明三街","SECT":" ","MAREA":" ","LANE":" ","ALLEY":" ","HOUSE_NO":"９１號","E_COORD97":178047.22,"N_COORD97":2541631.6099999999,"ADDRESS":"大明三街９１號","OBJECTID":578012},"geometry":{"x":178047.22000000067,"y":2541631.6099999994}},{"attributes":{"ID":578040,"DIS_CODE":0,"TOWNNAME":"歸仁區","LI":"大潭里","LIN":"16鄰","STREET":"大潭二街","SECT":" ","MAREA":" ","LANE":" ","ALLEY":" ","HOUSE_NO":"２０號","E_COORD97":175068.56,"N_COORD97":2534698.25,"ADDRESS":"大潭二街２０號","OBJECTID":578013},"geometry":{"x":175068.56000000052,"y":2534698.25}},{"attributes":{"ID":578041,"DIS_CODE":0,"TOWNNAME":"北區","LI":"六甲里","LIN":"16鄰","STREET":"西門路","SECT":"四段","MAREA":" ","LANE":" ","ALLEY":" ","HOUSE_NO":"３０６號","E_COORD97":168957.76000000001,"N_COORD97":2545934.0899999999,"ADDRESS":"西門路四段３０６號","OBJECTID":578014},"geometry":{"x":168957.76000000071,"y":2545934.0899999999}},{"attributes":{"ID":578042,"DIS_CODE":0,"TOWNNAME":"北區","LI":"大豐里","LIN":"16鄰","STREET":"武聖路","SECT":" ","MAREA":" ","LANE":" ","ALLEY":" ","HOUSE_NO":"２２４之１號","E_COORD97":166791.63,"N_COORD97":2545336.3700000001,"ADDRESS":"武聖路２２４之１號","OBJECTID":578015},"geometry":{"x":166791.62999999896,"y":2545336.3700000029}},{"attributes":{"ID":578043,"DIS_CODE":0,"TOWNNAME":"北區","LI":"六甲里","LIN":"16鄰","STREET":"西門路","SECT":"四段","MAREA":" ","LANE":" ","ALLEY":" ","HOUSE_NO":"３１４之１號","E_COORD97":168967.56,"N_COORD97":2545953.6600000001,"ADDRESS":"西門路四段３１４之１號","OBJECTID":578016},"geometry":{"x":168967.56000000052,"y":2545953.660000002}},{"attributes":{"ID":578044,"DIS_CODE":0,"TOWNNAME":"柳營區","LI":"士林里","LIN":"16鄰","STREET":"柳營路","SECT":"二段","MAREA":" ","LANE":" ","ALLEY":" ","HOUSE_NO":"２０５號","E_COORD97":179560.34,"N_COORD97":2575585.4100000001,"ADDRESS":"柳營路二段２０５號","OBJECTID":578017},"geometry":{"x":179560.34000000078,"y":2575585.4100000001}},{"attributes":{"ID":578045,"DIS_CODE":0,"TOWNNAME":"東區","LI":"忠孝里","LIN":"34鄰","STREET":"崇明三街","SECT":" ","MAREA":" ","LANE":" ","ALLEY":" ","HOUSE_NO":"４５號","E_COORD97":169637.01999999999,"N_COORD97":2542374.77,"ADDRESS":"崇明三街４５號","OBJECTID":578018},"geometry":{"x":169637.02000000048,"y":2542374.7700000014}},{"attributes":{"ID":578046,"DIS_CODE":0,"TOWNNAME":"東區","LI":"忠孝里","LIN":"34鄰","STREET":"崇明三街","SECT":" ","MAREA":" ","LANE":" ","ALLEY":" ","HOUSE_NO":"４７號","E_COORD97":169641.07999999999,"N_COORD97":2542375.5899999999,"ADDRESS":"崇明三街４７號","OBJECTID":578019},"geometry":{"x":169641.08000000007,"y":2542375.589999998}},{"attributes":{"ID":578047,"DIS_CODE":0,"TOWNNAME":"東區","LI":"崇誨里","LIN":"34鄰","STREET":"東寧路","SECT":" ","MAREA":" ","LANE":" ","ALLEY":" ","HOUSE_NO":"２４０號","E_COORD97":170575.14999999999,"N_COORD97":2543464.4700000002,"ADDRESS":"東寧路２４０號","OBJECTID":578020},"geometry":{"x":170575.15000000037,"y":2543464.4700000007}},{"attributes":{"ID":578048,"DIS_CODE":0,"TOWNNAME":"東區","LI":"忠孝里","LIN":"35鄰","STREET":"崇明路","SECT":" ","MAREA":" ","LANE":" ","ALLEY":" ","HOUSE_NO":"８號","E_COORD97":169617.13,"N_COORD97":2542476.0800000001,"ADDRESS":"崇明路８號","OBJECTID":578021},"geometry":{"x":169617.12999999989,"y":2542476.0800000001}},{"attributes":{"ID":578049,"DIS_CODE":0,"TOWNNAME":"東區","LI":"忠孝里","LIN":"30鄰","STREET":"崇明十街","SECT":" ","MAREA":" ","LANE":" ","ALLEY":" ","HOUSE_NO":"５３號","E_COORD97":170104.75,"N_COORD97":2541806.8399999999,"ADDRESS":"崇明十街５３號","OBJECTID":578022},"geometry":{"x":170104.75,"y":2541806.8399999999}},{"attributes":{"ID":578050,"DIS_CODE":0,"TOWNNAME":"東區","LI":"莊敬里","LIN":"19鄰","STREET":"莊敬路","SECT":" ","MAREA":" ","LANE":" ","ALLEY":" ","HOUSE_NO":"１７３號","E_COORD97":171358.14999999999,"N_COORD97":2544076.6600000001,"ADDRESS":"莊敬路１７３號","OBJECTID":578023},"geometry":{"x":171358.15000000037,"y":2544076.6600000001}},{"attributes":{"ID":578051,"DIS_CODE":0,"TOWNNAME":"東區","LI":"莊敬里","LIN":"19鄰","STREET":"莊敬路","SECT":" ","MAREA":" ","LANE":" ","ALLEY":" ","HOUSE_NO":"１６１號","E_COORD97":171350.45000000001,"N_COORD97":2544048.0800000001,"ADDRESS":"莊敬路１６１號","OBJECTID":578024},"geometry":{"x":171350.45000000112,"y":2544048.0800000019}},{"attributes":{"ID":578052,"DIS_CODE":0,"TOWNNAME":"東區","LI":"東明里","LIN":"12鄰","STREET":"凱旋路","SECT":" ","MAREA":" ","LANE":" ","ALLEY":" ","HOUSE_NO":"１６３號","E_COORD97":170944.94,"N_COORD97":2543731.1099999999,"ADDRESS":"凱旋路１６３號","OBJECTID":578025},"geometry":{"x":170944.94000000041,"y":2543731.1099999975}},{"attributes":{"ID":578053,"DIS_CODE":0,"TOWNNAME":"東區","LI":"忠孝里","LIN":"29鄰","STREET":"崇明九街","SECT":" ","MAREA":" ","LANE":" ","ALLEY":" ","HOUSE_NO":"３６號","E_COORD97":170044.47,"N_COORD97":2541793.46,"ADDRESS":"崇明九街３６號","OBJECTID":578026},"geometry":{"x":170044.47000000067,"y":2541793.4600000009}},{"attributes":{"ID":578054,"DIS_CODE":0,"TOWNNAME":"柳營區","LI":"士林里","LIN":"16鄰","STREET":"柳營路","SECT":"二段","MAREA":" ","LANE":" ","ALLEY":" ","HOUSE_NO":"２１３號","E_COORD97":179579.04000000001,"N_COORD97":2575604.6600000001,"ADDRESS":"柳營路二段２１３號","OBJECTID":578027},"geometry":{"x":179579.04000000004,"y":2575604.6600000039}},{"attributes":{"ID":578055,"DIS_CODE":0,"TOWNNAME":"柳營區","LI":"士林里","LIN":"16鄰","STREET":"柳營路","SECT":"二段","MAREA":" ","LANE":" ","ALLEY":" ","HOUSE_NO":"２１９號","E_COORD97":179577.45000000001,"N_COORD97":2575615.6699999999,"ADDRESS":"柳營路二段２１９號","OBJECTID":578028},"geometry":{"x":179577.45000000112,"y":2575615.6700000018}},{"attributes":{"ID":578056,"DIS_CODE":0,"TOWNNAME":"柳營區","LI":"士林里","LIN":"16鄰","STREET":"柳營路","SECT":"二段","MAREA":" ","LANE":" ","ALLEY":" ","HOUSE_NO":"２２１號","E_COORD97":179578.67000000001,"N_COORD97":2575624.1099999999,"ADDRESS":"柳營路二段２２１號","OBJECTID":578029},"geometry":{"x":179578.67000000086,"y":2575624.1099999994}},{"attributes":{"ID":578057,"DIS_CODE":0,"TOWNNAME":"柳營區","LI":"士林里","LIN":"16鄰","STREET":"柳營路","SECT":"二段","MAREA":" ","LANE":" ","ALLEY":" ","HOUSE_NO":"２２３號","E_COORD97":179578.20000000001,"N_COORD97":2575627.9500000002,"ADDRESS":"柳營路二段２２３號","OBJECTID":578030},"geometry":{"x":179578.20000000019,"y":2575627.9499999993}},{"attributes":{"ID":578058,"DIS_CODE":0,"TOWNNAME":"柳營區","LI":"士林里","LIN":"16鄰","STREET":"柳營路","SECT":"二段","MAREA":" ","LANE":" ","ALLEY":" ","HOUSE_NO":"２２５號","E_COORD97":179577.62,"N_COORD97":2575633.8799999999,"ADDRESS":"柳營路二段２２５號","OBJECTID":578031},"geometry":{"x":179577.62000000104,"y":2575633.8800000008}},{"attributes":{"ID":578059,"DIS_CODE":0,"TOWNNAME":"柳營區","LI":"士林里","LIN":"16鄰","STREET":"柳營路","SECT":"二段","MAREA":" ","LANE":" ","ALLEY":" ","HOUSE_NO":"２２７號","E_COORD97":179577.54000000001,"N_COORD97":2575639.6099999999,"ADDRESS":"柳營路二段２２７號","OBJECTID":578032},"geometry":{"x":179577.53999999911,"y":2575639.6100000013}},{"attributes":{"ID":578060,"DIS_CODE":0,"TOWNNAME":"柳營區","LI":"士林里","LIN":"16鄰","STREET":"柳營路","SECT":"二段","MAREA":" ","LANE":" ","ALLEY":" ","HOUSE_NO":"２２９號","E_COORD97":179577.92000000001,"N_COORD97":2575644.1000000001,"ADDRESS":"柳營路二段２２９號","OBJECTID":578033},"geometry":{"x":179577.91999999993,"y":2575644.0999999996}},{"attributes":{"ID":578061,"DIS_CODE":0,"TOWNNAME":"柳營區","LI":"士林里","LIN":"16鄰","STREET":"柳營路","SECT":"二段","MAREA":" ","LANE":" ","ALLEY":" ","HOUSE_NO":"２３１號","E_COORD97":179578.29999999999,"N_COORD97":2575648.6000000001,"ADDRESS":"柳營路二段２３１號","OBJECTID":578034},"geometry":{"x":179578.29999999981,"y":2575648.6000000034}},{"attributes":{"ID":578062,"DIS_CODE":0,"TOWNNAME":"柳營區","LI":"士林里","LIN":"16鄰","STREET":"柳營路","SECT":"二段","MAREA":" ","LANE":" ","ALLEY":" ","HOUSE_NO":"２３３號","E_COORD97":179578.69,"N_COORD97":2575653.1000000001,"ADDRESS":"柳營路二段２３３號","OBJECTID":578035},"geometry":{"x":179578.69000000227,"y":2575653.1000000015}},{"attributes":{"ID":578063,"DIS_CODE":0,"TOWNNAME":"柳營區","LI":"士林里","LIN":"16鄰","STREET":"柳營路","SECT":"二段","MAREA":" ","LANE":" ","ALLEY":" ","HOUSE_NO":"２３５號","E_COORD97":179579.07000000001,"N_COORD97":2575657.5899999999,"ADDRESS":"柳營路二段２３５號","OBJECTID":578036},"geometry":{"x":179579.0700000003,"y":2575657.5899999999}},{"attributes":{"ID":578064,"DIS_CODE":0,"TOWNNAME":"柳營區","LI":"士林里","LIN":"16鄰","STREET":"柳營路","SECT":"二段","MAREA":" ","LANE":" ","ALLEY":" ","HOUSE_NO":"２７３號","E_COORD97":179562.32000000001,"N_COORD97":2575732.1600000001,"ADDRESS":"柳營路二段２７３號","OBJECTID":578037},"geometry":{"x":179562.31999999937,"y":2575732.1600000001}},{"attributes":{"ID":578065,"DIS_CODE":0,"TOWNNAME":"柳營區","LI":"士林里","LIN":"16鄰","STREET":"柳營路","SECT":"二段","MAREA":" ","LANE":" ","ALLEY":" ","HOUSE_NO":"２９１號","E_COORD97":179581.19,"N_COORD97":2575777.2400000002,"ADDRESS":"柳營路二段２９１號","OBJECTID":578038},"geometry":{"x":179581.19000000134,"y":2575777.2400000039}},{"attributes":{"ID":578066,"DIS_CODE":0,"TOWNNAME":"柳營區","LI":"士林里","LIN":"16鄰","STREET":"柳營路","SECT":"二段","MAREA":" ","LANE":" ","ALLEY":" ","HOUSE_NO":"２９３號","E_COORD97":179586.26999999999,"N_COORD97":2575784.8500000001,"ADDRESS":"柳營路二段２９３號","OBJECTID":578039},"geometry":{"x":179586.27000000048,"y":2575784.8499999996}},{"attributes":{"ID":578067,"DIS_CODE":0,"TOWNNAME":"柳營區","LI":"士林里","LIN":"16鄰","STREET":"柳營路","SECT":"二段","MAREA":" ","LANE":" ","ALLEY":" ","HOUSE_NO":"２９５號","E_COORD97":179558.39000000001,"N_COORD97":2575797.1600000001,"ADDRESS":"柳營路二段２９５號","OBJECTID":578040},"geometry":{"x":179558.3900000006,"y":2575797.1600000001}},{"attributes":{"ID":578068,"DIS_CODE":0,"TOWNNAME":"柳營區","LI":"士林里","LIN":"16鄰","STREET":"柳營路","SECT":"二段","MAREA":" ","LANE":" ","ALLEY":" ","HOUSE_NO":"３１５號","E_COORD97":179576.45000000001,"N_COORD97":2575836.7400000002,"ADDRESS":"柳營路二段３１５號","OBJECTID":578041},"geometry":{"x":179576.45000000019,"y":2575836.7400000002}},{"attributes":{"ID":578069,"DIS_CODE":0,"TOWNNAME":"柳營區","LI":"士林里","LIN":"16鄰","STREET":"柳營路","SECT":"二段","MAREA":" ","LANE":" ","ALLEY":" ","HOUSE_NO":"３１７號","E_COORD97":179576.70999999999,"N_COORD97":2575840.7000000002,"ADDRESS":"柳營路二段３１７號","OBJECTID":578042},"geometry":{"x":179576.71000000089,"y":2575840.700000003}},{"attributes":{"ID":578070,"DIS_CODE":0,"TOWNNAME":"柳營區","LI":"士林里","LIN":"16鄰","STREET":"柳營路","SECT":"二段","MAREA":" ","LANE":" ","ALLEY":" ","HOUSE_NO":"３１９號","E_COORD97":179576.97,"N_COORD97":2575844.6600000001,"ADDRESS":"柳營路二段３１９號","OBJECTID":578043},"geometry":{"x":179576.96999999974,"y":2575844.6600000001}},{"attributes":{"ID":578071,"DIS_CODE":0,"TOWNNAME":"柳營區","LI":"士林里","LIN":"16鄰","STREET":"柳營路","SECT":"二段","MAREA":" ","LANE":" ","ALLEY":" ","HOUSE_NO":"３２１號","E_COORD97":179577.23000000001,"N_COORD97":2575848.6200000001,"ADDRESS":"柳營路二段３２１號","OBJECTID":578044},"geometry":{"x":179577.23000000138,"y":2575848.620000001}},{"attributes":{"ID":578072,"DIS_CODE":0,"TOWNNAME":"柳營區","LI":"士林里","LIN":"16鄰","STREET":"柳營路","SECT":"二段","MAREA":" ","LANE":" ","ALLEY":" ","HOUSE_NO":"３２３號","E_COORD97":179577.5,"N_COORD97":2575852.5800000001,"ADDRESS":"柳營路二段３２３號","OBJECTID":578045},"geometry":{"x":179577.5,"y":2575852.5800000038}},{"attributes":{"ID":578073,"DIS_CODE":0,"TOWNNAME":"柳營區","LI":"士林里","LIN":"16鄰","STREET":"柳營路","SECT":"二段","MAREA":" ","LANE":" ","ALLEY":" ","HOUSE_NO":"３２５號","E_COORD97":179577.76000000001,"N_COORD97":2575856.54,"ADDRESS":"柳營路二段３２５號","OBJECTID":578046},"geometry":{"x":179577.76000000071,"y":2575856.540000001}},{"attributes":{"ID":578074,"DIS_CODE":0,"TOWNNAME":"柳營區","LI":"士林里","LIN":"16鄰","STREET":"柳營路","SECT":"二段","MAREA":" ","LANE":" ","ALLEY":" ","HOUSE_NO":"３２９號","E_COORD97":179575.22,"N_COORD97":2575866.04,"ADDRESS":"柳營路二段３２９號","OBJECTID":578047},"geometry":{"x":179575.22000000067,"y":2575866.040000001}},{"attributes":{"ID":578075,"DIS_CODE":0,"TOWNNAME":"柳營區","LI":"士林里","LIN":"16鄰","STREET":"柳營路","SECT":"二段","MAREA":" ","LANE":" ","ALLEY":" ","HOUSE_NO":"３３５號","E_COORD97":179558.56,"N_COORD97":2575881.1200000001,"ADDRESS":"柳營路二段３３５號","OBJECTID":578048},"geometry":{"x":179558.56000000052,"y":2575881.1200000029}},{"attributes":{"ID":578076,"DIS_CODE":0,"TOWNNAME":"柳營區","LI":"士林里","LIN":"16鄰","STREET":"柳營路","SECT":"二段","MAREA":" ","LANE":" ","ALLEY":" ","HOUSE_NO":"３３７號","E_COORD97":179559.85000000001,"N_COORD97":2575890.4500000002,"ADDRESS":"柳營路二段３３７號","OBJECTID":578049},"geometry":{"x":179559.85000000149,"y":2575890.4500000011}},{"attributes":{"ID":578077,"DIS_CODE":0,"TOWNNAME":"柳營區","LI":"士林里","LIN":"16鄰","STREET":"柳營路","SECT":"二段","MAREA":" ","LANE":" ","ALLEY":" ","HOUSE_NO":"３５１號","E_COORD97":179595.12,"N_COORD97":2575907.5299999998,"ADDRESS":"柳營路二段３５１號","OBJECTID":578050},"geometry":{"x":179595.12000000011,"y":2575907.5300000012}},{"attributes":{"ID":578078,"DIS_CODE":0,"TOWNNAME":"柳營區","LI":"士林里","LIN":"16鄰","STREET":"柳營路","SECT":"二段","MAREA":" ","LANE":" ","ALLEY":" ","HOUSE_NO":"３５３號","E_COORD97":179586.66,"N_COORD97":2575928.6000000001,"ADDRESS":"柳營路二段３５３號","OBJECTID":578051},"geometry":{"x":179586.66000000015,"y":2575928.5999999996}},{"attributes":{"ID":578079,"DIS_CODE":0,"TOWNNAME":"柳營區","LI":"士林里","LIN":"16鄰","STREET":"柳營路","SECT":"二段","MAREA":" ","LANE":" ","ALLEY":" ","HOUSE_NO":"４２７號","E_COORD97":179608.60000000001,"N_COORD97":2576091.9300000002,"ADDRESS":"柳營路二段４２７號","OBJECTID":578052},"geometry":{"x":179608.59999999963,"y":2576091.9300000016}},{"attributes":{"ID":578080,"DIS_CODE":0,"TOWNNAME":"柳營區","LI":"士林里","LIN":"16鄰","STREET":"柳營路","SECT":"二段","MAREA":" ","LANE":" ","ALLEY":" ","HOUSE_NO":"４４９號","E_COORD97":179591.64000000001,"N_COORD97":2576124.1000000001,"ADDRESS":"柳營路二段４４９號","OBJECTID":578053},"geometry":{"x":179591.63999999966,"y":2576124.1000000015}},{"attributes":{"ID":578081,"DIS_CODE":0,"TOWNNAME":"柳營區","LI":"士林里","LIN":"16鄰","STREET":"柳營路","SECT":"二段","MAREA":" ","LANE":" ","ALLEY":" ","HOUSE_NO":"４７１號","E_COORD97":179616.23999999999,"N_COORD97":2576192.3900000001,"ADDRESS":"柳營路二段４７１號","OBJECTID":578054},"geometry":{"x":179616.24000000115,"y":2576192.3900000006}},{"attributes":{"ID":578082,"DIS_CODE":0,"TOWNNAME":"柳營區","LI":"人和里","LIN":"16鄰","STREET":"柳營路","SECT":"三段","MAREA":" ","LANE":" ","ALLEY":" ","HOUSE_NO":"１７號","E_COORD97":179614.34,"N_COORD97":2576300.6899999999,"ADDRESS":"柳營路三段１７號","OBJECTID":578055},"geometry":{"x":179614.34000000171,"y":2576300.6899999995}},{"attributes":{"ID":578083,"DIS_CODE":0,"TOWNNAME":"柳營區","LI":"人和里","LIN":"16鄰","STREET":"柳營路","SECT":"三段","MAREA":" ","LANE":" ","ALLEY":" ","HOUSE_NO":"２９號","E_COORD97":179622.04000000001,"N_COORD97":2576326.8100000001,"ADDRESS":"柳營路三段２９號","OBJECTID":578056},"geometry":{"x":179622.04000000097,"y":2576326.8100000024}},{"attributes":{"ID":578084,"DIS_CODE":0,"TOWNNAME":"柳營區","LI":"人和里","LIN":"16鄰","STREET":"柳營路","SECT":"三段","MAREA":" ","LANE":" ","ALLEY":" ","HOUSE_NO":"３７號","E_COORD97":179622.07999999999,"N_COORD97":2576334.6899999999,"ADDRESS":"柳營路三段３７號","OBJECTID":578057},"geometry":{"x":179622.08000000101,"y":2576334.6899999995}},{"attributes":{"ID":578085,"DIS_CODE":0,"TOWNNAME":"柳營區","LI":"人和里","LIN":"16鄰","STREET":"柳營路","SECT":"三段","MAREA":" ","LANE":" ","ALLEY":" ","HOUSE_NO":"４５號","E_COORD97":179636.03,"N_COORD97":2576364.54,"ADDRESS":"柳營路三段４５號","OBJECTID":578058},"geometry":{"x":179636.03000000119,"y":2576364.540000001}},{"attributes":{"ID":578086,"DIS_CODE":0,"TOWNNAME":"柳營區","LI":"人和里","LIN":"16鄰","STREET":"柳營路","SECT":"三段","MAREA":" ","LANE":" ","ALLEY":" ","HOUSE_NO":"５３號","E_COORD97":179639.95999999999,"N_COORD97":2576375.8799999999,"ADDRESS":"柳營路三段５３號","OBJECTID":578059},"geometry":{"x":179639.95999999996,"y":2576375.8800000008}},{"attributes":{"ID":578087,"DIS_CODE":0,"TOWNNAME":"柳營區","LI":"人和里","LIN":"16鄰","STREET":"柳營路","SECT":"三段","MAREA":" ","LANE":" ","ALLEY":" ","HOUSE_NO":"５９號","E_COORD97":179638.39000000001,"N_COORD97":2576383.7000000002,"ADDRESS":"柳營路三段５９號","OBJECTID":578060},"geometry":{"x":179638.3900000006,"y":2576383.7000000011}},{"attributes":{"ID":578088,"DIS_CODE":0,"TOWNNAME":"柳營區","LI":"人和里","LIN":"16鄰","STREET":"柳營路","SECT":"三段","MAREA":" ","LANE":" ","ALLEY":" ","HOUSE_NO":"６１號","E_COORD97":179638.38,"N_COORD97":2576387.71,"ADDRESS":"柳營路三段６１號","OBJECTID":578061},"geometry":{"x":179638.38000000082,"y":2576387.7100000009}},{"attributes":{"ID":578089,"DIS_CODE":0,"TOWNNAME":"柳營區","LI":"人和里","LIN":"16鄰","STREET":"柳營路","SECT":"三段","MAREA":" ","LANE":" ","ALLEY":" ","HOUSE_NO":"６３號","E_COORD97":179638.54999999999,"N_COORD97":2576396.9500000002,"ADDRESS":"柳營路三段６３號","OBJECTID":578062},"geometry":{"x":179638.55000000075,"y":2576396.9499999993}},{"attributes":{"ID":578090,"DIS_CODE":0,"TOWNNAME":"柳營區","LI":"人和里","LIN":"16鄰","STREET":"柳營路","SECT":"三段","MAREA":" ","LANE":" ","ALLEY":" ","HOUSE_NO":"８９號","E_COORD97":179626.64999999999,"N_COORD97":2576450.8500000001,"ADDRESS":"柳營路三段８９號","OBJECTID":578063},"geometry":{"x":179626.6500000013,"y":2576450.8500000015}},{"attributes":{"ID":578091,"DIS_CODE":0,"TOWNNAME":"北區","LI":"實踐里","LIN":"16鄰","STREET":"長榮路","SECT":"五段","MAREA":" ","LANE":" ","ALLEY":" ","HOUSE_NO":"３８２號","E_COORD97":169531.57999999999,"N_COORD97":2545965.3799999999,"ADDRESS":"長榮路五段３８２號","OBJECTID":578064},"geometry":{"x":169531.57999999914,"y":2545965.379999999}},{"attributes":{"ID":578092,"DIS_CODE":0,"TOWNNAME":"北區","LI":"實踐里","LIN":"16鄰","STREET":"長榮路","SECT":"五段","MAREA":" ","LANE":" ","ALLEY":" ","HOUSE_NO":"３８４號","E_COORD97":169527.25,"N_COORD97":2545965.9700000002,"ADDRESS":"長榮路五段３８４號","OBJECTID":578065},"geometry":{"x":169527.25000000093,"y":2545965.9700000025}},{"attributes":{"ID":578093,"DIS_CODE":0,"TOWNNAME":"北區","LI":"實踐里","LIN":"16鄰","STREET":"長榮路","SECT":"五段","MAREA":" ","LANE":" ","ALLEY":" ","HOUSE_NO":"３８６號","E_COORD97":169524.20000000001,"N_COORD97":2545966.7599999998,"ADDRESS":"長榮路五段３８６號","OBJECTID":578066},"geometry":{"x":169524.20000000205,"y":2545966.7599999998}},{"attributes":{"ID":578094,"DIS_CODE":0,"TOWNNAME":"北區","LI":"實踐里","LIN":"16鄰","STREET":"長榮路","SECT":"五段","MAREA":" ","LANE":" ","ALLEY":" ","HOUSE_NO":"３８８號","E_COORD97":169520.66,"N_COORD97":2545968.3300000001,"ADDRESS":"長榮路五段３８８號","OBJECTID":578067},"geometry":{"x":169520.66000000015,"y":2545968.3300000038}},{"attributes":{"ID":578095,"DIS_CODE":0,"TOWNNAME":"北區","LI":"實踐里","LIN":"16鄰","STREET":"長榮路","SECT":"五段","MAREA":" ","LANE":" ","ALLEY":" ","HOUSE_NO":"３９０號","E_COORD97":169515.64000000001,"N_COORD97":2545969.6099999999,"ADDRESS":"長榮路五段３９０號","OBJECTID":578068},"geometry":{"x":169515.64000000153,"y":2545969.6100000013}},{"attributes":{"ID":578096,"DIS_CODE":0,"TOWNNAME":"北區","LI":"實踐里","LIN":"16鄰","STREET":"長榮路","SECT":"五段","MAREA":" ","LANE":" ","ALLEY":" ","HOUSE_NO":"３９２號","E_COORD97":169511.12,"N_COORD97":2545970,"ADDRESS":"長榮路五段３９２號","OBJECTID":578069},"geometry":{"x":169511.12000000197,"y":2545970}},{"attributes":{"ID":578097,"DIS_CODE":0,"TOWNNAME":"歸仁區","LI":"大廟里","LIN":"16鄰","STREET":"大廟六街","SECT":" ","MAREA":" ","LANE":" ","ALLEY":" ","HOUSE_NO":"７７號","E_COORD97":176125.78,"N_COORD97":2544278.0899999999,"ADDRESS":"大廟六街７７號","OBJECTID":578070},"geometry":{"x":176125.78000000026,"y":2544278.0900000017}},{"attributes":{"ID":578098,"DIS_CODE":0,"TOWNNAME":"歸仁區","LI":"武東里","LIN":"16鄰","STREET":"歸仁六路","SECT":" ","MAREA":" ","LANE":" ","ALLEY":" ","HOUSE_NO":"２號","E_COORD97":176311.14000000001,"N_COORD97":2536608.48,"ADDRESS":"歸仁六路２號","OBJECTID":578071},"geometry":{"x":176311.13999999966,"y":2536608.4800000004}},{"attributes":{"ID":578099,"DIS_CODE":0,"TOWNNAME":"歸仁區","LI":"六甲里","LIN":"16鄰","STREET":"中正二十街","SECT":" ","MAREA":" ","LANE":" ","ALLEY":" ","HOUSE_NO":"６２號","E_COORD97":175812.81,"N_COORD97":2539150.25,"ADDRESS":"中正二十街６２號","OBJECTID":578072},"geometry":{"x":175812.81000000052,"y":2539150.25}},{"attributes":{"ID":578100,"DIS_CODE":0,"TOWNNAME":"歸仁區","LI":"武東里","LIN":"16鄰","STREET":"中正南路","SECT":"二段","MAREA":" ","LANE":" ","ALLEY":" ","HOUSE_NO":"１１號","E_COORD97":175929.06,"N_COORD97":2536598.5,"ADDRESS":"中正南路二段１１號","OBJECTID":578073},"geometry":{"x":175929.06000000145,"y":2536598.5}},{"attributes":{"ID":578101,"DIS_CODE":0,"TOWNNAME":"歸仁區","LI":"六甲里","LIN":"16鄰","STREET":"中正二十街","SECT":" ","MAREA":" ","LANE":" ","ALLEY":" ","HOUSE_NO":"８６號","E_COORD97":175762.41,"N_COORD97":2539124.25,"ADDRESS":"中正二十街８６號","OBJECTID":578074},"geometry":{"x":175762.41000000015,"y":2539124.2500000019}},{"attributes":{"ID":578102,"DIS_CODE":0,"TOWNNAME":"歸仁區","LI":"六甲里","LIN":"16鄰","STREET":"中正二十街","SECT":" ","MAREA":" ","LANE":" ","ALLEY":" ","HOUSE_NO":"８８號","E_COORD97":175753.20999999999,"N_COORD97":2539127.25,"ADDRESS":"中正二十街８８號","OBJECTID":578075},"geometry":{"x":175753.20999999996,"y":2539127.2500000019}},{"attributes":{"ID":578103,"DIS_CODE":0,"TOWNNAME":"歸仁區","LI":"後市里","LIN":"16鄰","STREET":"中山路","SECT":"二段","MAREA":" ","LANE":" ","ALLEY":" ","HOUSE_NO":"９１號","E_COORD97":177413.04000000001,"N_COORD97":2540786.5499999998,"ADDRESS":"中山路二段９１號","OBJECTID":578076},"geometry":{"x":177413.04000000097,"y":2540786.5500000007}},{"attributes":{"ID":578104,"DIS_CODE":0,"TOWNNAME":"歸仁區","LI":"六甲里","LIN":"16鄰","STREET":"中正二十街","SECT":" ","MAREA":" ","LANE":" ","ALLEY":" ","HOUSE_NO":"６４號","E_COORD97":175809.60999999999,"N_COORD97":2539140.25,"ADDRESS":"中正二十街６４號","OBJECTID":578077},"geometry":{"x":175809.61000000127,"y":2539140.2499999981}},{"attributes":{"ID":578105,"DIS_CODE":0,"TOWNNAME":"歸仁區","LI":"八甲里","LIN":"16鄰","STREET":"大仁街","SECT":" ","MAREA":" ","LANE":" ","ALLEY":" ","HOUSE_NO":"４００號","E_COORD97":178102.32999999999,"N_COORD97":2541592.25,"ADDRESS":"大仁街４００號","OBJECTID":578078},"geometry":{"x":178102.33000000007,"y":2541592.2500000019}},{"attributes":{"ID":578106,"DIS_CODE":0,"TOWNNAME":"北區","LI":"華興里","LIN":"16鄰","STREET":"南園街","SECT":" ","MAREA":" ","LANE":" ","ALLEY":" ","HOUSE_NO":"１１１號","E_COORD97":170630.51999999999,"N_COORD97":2545330.7200000002,"ADDRESS":"南園街１１１號","OBJECTID":578079},"geometry":{"x":170630.52000000048,"y":2545330.7200000007}},{"attributes":{"ID":578107,"DIS_CODE":0,"TOWNNAME":"北區","LI":"華興里","LIN":"16鄰","STREET":"南園街","SECT":" ","MAREA":" ","LANE":" ","ALLEY":" ","HOUSE_NO":"１１３號","E_COORD97":170631.57000000001,"N_COORD97":2545324.3199999998,"ADDRESS":"南園街１１３號","OBJECTID":578080},"geometry":{"x":170631.5700000003,"y":2545324.320000004}},{"attributes":{"ID":578108,"DIS_CODE":0,"TOWNNAME":"北區","LI":"華興里","LIN":"16鄰","STREET":"南園街","SECT":" ","MAREA":" ","LANE":" ","ALLEY":" ","HOUSE_NO":"１１５號","E_COORD97":170634.41,"N_COORD97":2545319.9199999999,"ADDRESS":"南園街１１５號","OBJECTID":578081},"geometry":{"x":170634.41000000015,"y":2545319.9200000037}},{"attributes":{"ID":578109,"DIS_CODE":0,"TOWNNAME":"北區","LI":"華興里","LIN":"16鄰","STREET":"南園街","SECT":" ","MAREA":" ","LANE":" ","ALLEY":" ","HOUSE_NO":"１１７號","E_COORD97":170634.81,"N_COORD97":2545315.6400000001,"ADDRESS":"南園街１１７號","OBJECTID":578082},"geometry":{"x":170634.80999999866,"y":2545315.6400000043}},{"attributes":{"ID":578110,"DIS_CODE":0,"TOWNNAME":"北區","LI":"華興里","LIN":"16鄰","STREET":"南園街","SECT":" ","MAREA":" ","LANE":" ","ALLEY":" ","HOUSE_NO":"１１９號","E_COORD97":170635.45999999999,"N_COORD97":2545312.3300000001,"ADDRESS":"南園街１１９號","OBJECTID":578083},"geometry":{"x":170635.45999999996,"y":2545312.3300000001}},{"attributes":{"ID":578111,"DIS_CODE":0,"TOWNNAME":"北區","LI":"華興里","LIN":"16鄰","STREET":"南園街","SECT":" ","MAREA":" ","LANE":" ","ALLEY":" ","HOUSE_NO":"１２１號","E_COORD97":170636.26000000001,"N_COORD97":2545307.9700000002,"ADDRESS":"南園街１２１號","OBJECTID":578084},"geometry":{"x":170636.26000000071,"y":2545307.9700000025}},{"attributes":{"ID":578112,"DIS_CODE":0,"TOWNNAME":"北區","LI":"華興里","LIN":"16鄰","STREET":"南園街","SECT":" ","MAREA":" ","LANE":" ","ALLEY":" ","HOUSE_NO":"１２３號","E_COORD97":170636.89999999999,"N_COORD97":2545304.5600000001,"ADDRESS":"南園街１２３號","OBJECTID":578085},"geometry":{"x":170636.90000000224,"y":2545304.5600000005}},{"attributes":{"ID":578113,"DIS_CODE":0,"TOWNNAME":"北區","LI":"華興里","LIN":"16鄰","STREET":"南園街","SECT":" ","MAREA":" ","LANE":" ","ALLEY":" ","HOUSE_NO":"１２５號","E_COORD97":170637.54999999999,"N_COORD97":2545299.4900000002,"ADDRESS":"南園街１２５號","OBJECTID":578086},"geometry":{"x":170637.55000000075,"y":2545299.4900000039}},{"attributes":{"ID":578114,"DIS_CODE":0,"TOWNNAME":"六甲區","LI":"甲東里","LIN":"16鄰","STREET":"裕農街","SECT":" ","MAREA":" ","LANE":" ","ALLEY":" ","HOUSE_NO":"２９號之１","E_COORD97":184040.26000000001,"N_COORD97":2569694.9300000002,"ADDRESS":"裕農街２９號之１","OBJECTID":578087},"geometry":{"x":184040.25999999978,"y":2569694.9299999997}},{"attributes":{"ID":578115,"DIS_CODE":0,"TOWNNAME":"六甲區","LI":"甲東里","LIN":"16鄰","STREET":"裕農街","SECT":" ","MAREA":" ","LANE":" ","ALLEY":" ","HOUSE_NO":"２９號","E_COORD97":184036.76000000001,"N_COORD97":2569693.04,"ADDRESS":"裕農街２９號","OBJECTID":578088},"geometry":{"x":184036.75999999978,"y":2569693.040000001}},{"attributes":{"ID":578116,"DIS_CODE":0,"TOWNNAME":"六甲區","LI":"甲東里","LIN":"16鄰","STREET":"裕農街","SECT":" ","MAREA":" ","LANE":" ","ALLEY":" ","HOUSE_NO":"３５號","E_COORD97":184068.23999999999,"N_COORD97":2569700.3100000001,"ADDRESS":"裕農街３５號","OBJECTID":578089},"geometry":{"x":184068.24000000022,"y":2569700.3100000005}},{"attributes":{"ID":578117,"DIS_CODE":0,"TOWNNAME":"六甲區","LI":"甲東里","LIN":"16鄰","STREET":"裕農街","SECT":" ","MAREA":" ","LANE":" ","ALLEY":" ","HOUSE_NO":"３９號","E_COORD97":184078.66,"N_COORD97":2569699.3700000001,"ADDRESS":"裕農街３９號","OBJECTID":578090},"geometry":{"x":184078.66000000015,"y":2569699.3700000029}},{"attributes":{"ID":578118,"DIS_CODE":0,"TOWNNAME":"關廟區","LI":"北花里","LIN":"16鄰","STREET":"中正路","SECT":" ","MAREA":" ","LANE":" ","ALLEY":" ","HOUSE_NO":"１９２號","E_COORD97":183311.35999999999,"N_COORD97":2540900.25,"ADDRESS":"中正路１９２號","OBJECTID":578091},"geometry":{"x":183311.36000000034,"y":2540900.2500000037}},{"attributes":{"ID":578119,"DIS_CODE":0,"TOWNNAME":"關廟區","LI":"五甲里","LIN":"16鄰","STREET":"東興路","SECT":" ","MAREA":" ","LANE":" ","ALLEY":" ","HOUSE_NO":"８０號","E_COORD97":181393.32000000001,"N_COORD97":2539551.25,"ADDRESS":"東興路８０號","OBJECTID":578092},"geometry":{"x":181393.32000000216,"y":2539551.2500000019}},{"attributes":{"ID":578120,"DIS_CODE":0,"TOWNNAME":"關廟區","LI":"香洋里","LIN":"16鄰","STREET":"花園一街","SECT":" ","MAREA":" ","LANE":" ","ALLEY":" ","HOUSE_NO":"２５９號","E_COORD97":181512.67999999999,"N_COORD97":2540159.1899999999,"ADDRESS":"花園一街２５９號","OBJECTID":578093},"geometry":{"x":181512.68000000063,"y":2540159.1899999995}},{"attributes":{"ID":578121,"DIS_CODE":0,"TOWNNAME":"關廟區","LI":"香洋里","LIN":"16鄰","STREET":"花園一街","SECT":" ","MAREA":" ","LANE":" ","ALLEY":" ","HOUSE_NO":"２４５號","E_COORD97":181544.69,"N_COORD97":2540147.25,"ADDRESS":"花園一街２４５號","OBJECTID":578094},"geometry":{"x":181544.69000000041,"y":2540147.2500000037}},{"attributes":{"ID":578122,"DIS_CODE":0,"TOWNNAME":"關廟區","LI":"香洋里","LIN":"16鄰","STREET":"花園一街","SECT":" ","MAREA":" ","LANE":" ","ALLEY":" ","HOUSE_NO":"２７５號","E_COORD97":181477.38,"N_COORD97":2540171.1899999999,"ADDRESS":"花園一街２７５號","OBJECTID":578095},"geometry":{"x":181477.38000000082,"y":2540171.1900000032}},{"attributes":{"ID":578123,"DIS_CODE":0,"TOWNNAME":"關廟區","LI":"松腳里","LIN":"16鄰","STREET":"民族街","SECT":" ","MAREA":" ","LANE":" ","ALLEY":" ","HOUSE_NO":"４２號","E_COORD97":181580.14000000001,"N_COORD97":2539789.29,"ADDRESS":"民族街４２號","OBJECTID":578096},"geometry":{"x":181580.13999999873,"y":2539789.2899999991}},{"attributes":{"ID":578124,"DIS_CODE":0,"TOWNNAME":"關廟區","LI":"松腳里","LIN":"16鄰","STREET":"民族街","SECT":" ","MAREA":" ","LANE":" ","ALLEY":" ","HOUSE_NO":"７２號","E_COORD97":181521.84,"N_COORD97":2539790.29,"ADDRESS":"民族街７２號","OBJECTID":578097},"geometry":{"x":181521.84000000078,"y":2539790.2900000028}},{"attributes":{"ID":578125,"DIS_CODE":0,"TOWNNAME":"關廟區","LI":"香洋里","LIN":"16鄰","STREET":"花園一街","SECT":" ","MAREA":" ","LANE":" ","ALLEY":" ","HOUSE_NO":"２８１號","E_COORD97":181457.19,"N_COORD97":2540181.25,"ADDRESS":"花園一街２８１號","OBJECTID":578098},"geometry":{"x":181457.19000000134,"y":2540181.2500000037}},{"attributes":{"ID":578126,"DIS_CODE":0,"TOWNNAME":"關廟區","LI":"五甲里","LIN":"16鄰","STREET":"東安街","SECT":" ","MAREA":" ","LANE":" ","ALLEY":" ","HOUSE_NO":"１３６號","E_COORD97":181441.07000000001,"N_COORD97":2539465.3199999998,"ADDRESS":"東安街１３６號","OBJECTID":578099},"geometry":{"x":181441.07000000123,"y":2539465.3200000003}},{"attributes":{"ID":578127,"DIS_CODE":0,"TOWNNAME":"關廟區","LI":"松腳里","LIN":"16鄰","STREET":"民族街","SECT":" ","MAREA":" ","LANE":" ","ALLEY":" ","HOUSE_NO":"８０號","E_COORD97":181474.64000000001,"N_COORD97":2539795.29,"ADDRESS":"民族街８０號","OBJECTID":578100},"geometry":{"x":181474.63999999966,"y":2539795.2899999991}},{"attributes":{"ID":578128,"DIS_CODE":0,"TOWNNAME":"關廟區","LI":"北花里","LIN":"16鄰","STREET":"中正路","SECT":" ","MAREA":" ","LANE":" ","ALLEY":" ","HOUSE_NO":"３０８號","E_COORD97":183058.45999999999,"N_COORD97":2540863.25,"ADDRESS":"中正路３０８號","OBJECTID":578101},"geometry":{"x":183058.46000000089,"y":2540863.2500000019}},{"attributes":{"ID":578129,"DIS_CODE":0,"TOWNNAME":"關廟區","LI":"北勢里","LIN":"16鄰","STREET":"成功路","SECT":" ","MAREA":" ","LANE":" ","ALLEY":" ","HOUSE_NO":"３６２號","E_COORD97":181245.26999999999,"N_COORD97":2540530.27,"ADDRESS":"成功路３６２號","OBJECTID":578102},"geometry":{"x":181245.27000000142,"y":2540530.2700000014}},{"attributes":{"ID":578130,"DIS_CODE":0,"TOWNNAME":"關廟區","LI":"北花里","LIN":"16鄰","STREET":"中正路","SECT":" ","MAREA":" ","LANE":" ","ALLEY":" ","HOUSE_NO":"２３２號","E_COORD97":183225.06,"N_COORD97":2540887.25,"ADDRESS":"中正路２３２號","OBJECTID":578103},"geometry":{"x":183225.06000000145,"y":2540887.2500000019}},{"attributes":{"ID":578131,"DIS_CODE":0,"TOWNNAME":"關廟區","LI":"北花里","LIN":"16鄰","STREET":"中正路","SECT":" ","MAREA":" ","LANE":" ","ALLEY":" ","HOUSE_NO":"２１０號","E_COORD97":183283.35999999999,"N_COORD97":2540895.25,"ADDRESS":"中正路２１０號","OBJECTID":578104},"geometry":{"x":183283.36000000127,"y":2540895.25}},{"attributes":{"ID":578132,"DIS_CODE":0,"TOWNNAME":"關廟區","LI":"北花里","LIN":"16鄰","STREET":"新光街","SECT":" ","MAREA":" ","LANE":" ","ALLEY":" ","HOUSE_NO":"１０號","E_COORD97":183385.01000000001,"N_COORD97":2540950.25,"ADDRESS":"新光街１０號","OBJECTID":578105},"geometry":{"x":183385.01000000164,"y":2540950.25}},{"attributes":{"ID":578133,"DIS_CODE":0,"TOWNNAME":"關廟區","LI":"北花里","LIN":"16鄰","STREET":"中正路","SECT":" ","MAREA":" ","LANE":" ","ALLEY":" ","HOUSE_NO":"２５８號","E_COORD97":183184.76000000001,"N_COORD97":2540881.25,"ADDRESS":"中正路２５８號","OBJECTID":578106},"geometry":{"x":183184.75999999978,"y":2540881.2500000019}},{"attributes":{"ID":578134,"DIS_CODE":0,"TOWNNAME":"關廟區","LI":"北勢里","LIN":"16鄰","STREET":"成功路","SECT":" ","MAREA":" ","LANE":" ","ALLEY":" ","HOUSE_NO":"３８２號","E_COORD97":181203.47,"N_COORD97":2540544.27,"ADDRESS":"成功路３８２號","OBJECTID":578107},"geometry":{"x":181203.4700000016,"y":2540544.2700000014}},{"attributes":{"ID":578135,"DIS_CODE":0,"TOWNNAME":"關廟區","LI":"北勢里","LIN":"16鄰","STREET":"成功路","SECT":" ","MAREA":" ","LANE":" ","ALLEY":" ","HOUSE_NO":"３８６號","E_COORD97":181198.47,"N_COORD97":2540545.27,"ADDRESS":"成功路３８６號","OBJECTID":578108},"geometry":{"x":181198.4700000016,"y":2540545.2699999996}},{"attributes":{"ID":578136,"DIS_CODE":0,"TOWNNAME":"關廟區","LI":"松腳里","LIN":"16鄰","STREET":"民族街","SECT":" ","MAREA":" ","LANE":" ","ALLEY":" ","HOUSE_NO":"２號","E_COORD97":181672.19,"N_COORD97":2539787.29,"ADDRESS":"民族街２號","OBJECTID":578109},"geometry":{"x":181672.19000000227,"y":2539787.290000001}},{"attributes":{"ID":578137,"DIS_CODE":0,"TOWNNAME":"關廟區","LI":"松腳里","LIN":"16鄰","STREET":"民族街","SECT":" ","MAREA":" ","LANE":" ","ALLEY":" ","HOUSE_NO":"２８號","E_COORD97":181609.73999999999,"N_COORD97":2539790.29,"ADDRESS":"民族街２８號","OBJECTID":578110},"geometry":{"x":181609.74000000115,"y":2539790.2900000028}},{"attributes":{"ID":578138,"DIS_CODE":0,"TOWNNAME":"關廟區","LI":"山西里","LIN":"16鄰","STREET":"崇仁街","SECT":" ","MAREA":" ","LANE":" ","ALLEY":" ","HOUSE_NO":"２１號","E_COORD97":180984.92000000001,"N_COORD97":2540406.25,"ADDRESS":"崇仁街２１號","OBJECTID":578111},"geometry":{"x":180984.91999999993,"y":2540406.2500000019}},{"attributes":{"ID":578139,"DIS_CODE":0,"TOWNNAME":"關廟區","LI":"山西里","LIN":"16鄰","STREET":"崇仁街","SECT":" ","MAREA":" ","LANE":" ","ALLEY":" ","HOUSE_NO":"１７號","E_COORD97":180994.12,"N_COORD97":2540405.25,"ADDRESS":"崇仁街１７號","OBJECTID":578112},"geometry":{"x":180994.12000000011,"y":2540405.2500000037}},{"attributes":{"ID":578140,"DIS_CODE":0,"TOWNNAME":"關廟區","LI":"北花里","LIN":"16鄰","STREET":"中正路","SECT":" ","MAREA":" ","LANE":" ","ALLEY":" ","HOUSE_NO":"３１２號","E_COORD97":183028.16,"N_COORD97":2540862.25,"ADDRESS":"中正路３１２號","OBJECTID":578113},"geometry":{"x":183028.16000000015,"y":2540862.25}},{"attributes":{"ID":578141,"DIS_CODE":0,"TOWNNAME":"東區","LI":"東光里","LIN":"26鄰","STREET":"東安路","SECT":" ","MAREA":" ","LANE":" ","ALLEY":" ","HOUSE_NO":"１５８號","E_COORD97":170756.89000000001,"N_COORD97":2543897.8100000001,"ADDRESS":"東安路１５８號","OBJECTID":578114},"geometry":{"x":170756.8900000006,"y":2543897.8100000024}},{"attributes":{"ID":578142,"DIS_CODE":0,"TOWNNAME":"東區","LI":"東光里","LIN":"26鄰","STREET":"東安路","SECT":" ","MAREA":" ","LANE":" ","ALLEY":" ","HOUSE_NO":"１６０號","E_COORD97":170757.28,"N_COORD97":2543901.9300000002,"ADDRESS":"東安路１６０號","OBJECTID":578115},"geometry":{"x":170757.28000000026,"y":2543901.9299999997}},{"attributes":{"ID":578143,"DIS_CODE":0,"TOWNNAME":"東區","LI":"東光里","LIN":"26鄰","STREET":"東安路","SECT":" ","MAREA":" ","LANE":" ","ALLEY":" ","HOUSE_NO":"１６２號","E_COORD97":170758.44,"N_COORD97":2543906.8300000001,"ADDRESS":"東安路１６２號","OBJECTID":578116},"geometry":{"x":170758.44000000041,"y":2543906.8300000038}},{"attributes":{"ID":578144,"DIS_CODE":0,"TOWNNAME":"東區","LI":"東光里","LIN":"26鄰","STREET":"東安路","SECT":" ","MAREA":" ","LANE":" ","ALLEY":" ","HOUSE_NO":"１６４號","E_COORD97":170759.20999999999,"N_COORD97":2543910.9500000002,"ADDRESS":"東安路１６４號","OBJECTID":578117},"geometry":{"x":170759.20999999996,"y":2543910.9499999993}},{"attributes":{"ID":578145,"DIS_CODE":0,"TOWNNAME":"東區","LI":"東光里","LIN":"26鄰","STREET":"東安路","SECT":" ","MAREA":" ","LANE":" ","ALLEY":" ","HOUSE_NO":"１６６號","E_COORD97":170759.47,"N_COORD97":2543914.8100000001,"ADDRESS":"東安路１６６號","OBJECTID":578118},"geometry":{"x":170759.4700000016,"y":2543914.8100000024}},{"attributes":{"ID":578146,"DIS_CODE":0,"TOWNNAME":"東區","LI":"東光里","LIN":"26鄰","STREET":"東安路","SECT":" ","MAREA":" ","LANE":" ","ALLEY":" ","HOUSE_NO":"１６８號","E_COORD97":170759.47,"N_COORD97":2543920.3399999999,"ADDRESS":"東安路１６８號","OBJECTID":578119},"geometry":{"x":170759.4700000016,"y":2543920.3400000036}},{"attributes":{"ID":578147,"DIS_CODE":0,"TOWNNAME":"東區","LI":"東光里","LIN":"26鄰","STREET":"東安路","SECT":" ","MAREA":" ","LANE":" ","ALLEY":" ","HOUSE_NO":"１７０號","E_COORD97":170760.5,"N_COORD97":2543924.21,"ADDRESS":"東安路１７０號","OBJECTID":578120},"geometry":{"x":170760.5,"y":2543924.2100000009}},{"attributes":{"ID":578148,"DIS_CODE":0,"TOWNNAME":"東區","LI":"東光里","LIN":"26鄰","STREET":"東安路","SECT":" ","MAREA":" ","LANE":" ","ALLEY":" ","HOUSE_NO":"１７２號","E_COORD97":170761.66,"N_COORD97":2543928.3300000001,"ADDRESS":"東安路１７２號","OBJECTID":578121},"geometry":{"x":170761.66000000015,"y":2543928.3300000019}},{"attributes":{"ID":578149,"DIS_CODE":0,"TOWNNAME":"東區","LI":"東光里","LIN":"26鄰","STREET":"東安路","SECT":" ","MAREA":" ","LANE":" ","ALLEY":" ","HOUSE_NO":"１７４號","E_COORD97":170763.32999999999,"N_COORD97":2543936.9500000002,"ADDRESS":"東安路１７４號","OBJECTID":578122},"geometry":{"x":170763.33000000007,"y":2543936.9500000011}},{"attributes":{"ID":578150,"DIS_CODE":0,"TOWNNAME":"東區","LI":"東光里","LIN":"26鄰","STREET":"東安路","SECT":" ","MAREA":" ","LANE":" ","ALLEY":" ","HOUSE_NO":"１７８號","E_COORD97":170767.79999999999,"N_COORD97":2543951.6200000001,"ADDRESS":"東安路１７８號","OBJECTID":578123},"geometry":{"x":170767.80000000075,"y":2543951.6200000029}},{"attributes":{"ID":578151,"DIS_CODE":0,"TOWNNAME":"東區","LI":"東光里","LIN":"26鄰","STREET":"東安路","SECT":" ","MAREA":" ","LANE":" ","ALLEY":" ","HOUSE_NO":"１８０號","E_COORD97":170768.56,"N_COORD97":2543956.6699999999,"ADDRESS":"東安路１８０號","OBJECTID":578124},"geometry":{"x":170768.55999999959,"y":2543956.6700000018}},{"attributes":{"ID":578152,"DIS_CODE":0,"TOWNNAME":"東區","LI":"東明里","LIN":"3鄰","STREET":"怡東路","SECT":" ","MAREA":" ","LANE":" ","ALLEY":" ","HOUSE_NO":"６０號","E_COORD97":170849.79999999999,"N_COORD97":2543597.0800000001,"ADDRESS":"怡東路６０號","OBJECTID":578125},"geometry":{"x":170849.79999999981,"y":2543597.0800000019}},{"attributes":{"ID":578153,"DIS_CODE":0,"TOWNNAME":"東區","LI":"東明里","LIN":"3鄰","STREET":"怡東路","SECT":" ","MAREA":" ","LANE":" ","ALLEY":" ","HOUSE_NO":"６４號","E_COORD97":170854.67999999999,"N_COORD97":2543609.8900000001,"ADDRESS":"怡東路６４號","OBJECTID":578126},"geometry":{"x":170854.68000000156,"y":2543609.8900000025}},{"attributes":{"ID":578154,"DIS_CODE":0,"TOWNNAME":"東區","LI":"東明里","LIN":"4鄰","STREET":"東興路","SECT":" ","MAREA":" ","LANE":" ","ALLEY":" ","HOUSE_NO":"９１號","E_COORD97":170933.41,"N_COORD97":2543617.96,"ADDRESS":"東興路９１號","OBJECTID":578127},"geometry":{"x":170933.41000000108,"y":2543617.9600000009}},{"attributes":{"ID":578155,"DIS_CODE":0,"TOWNNAME":"東區","LI":"東光里","LIN":"26鄰","STREET":"東平路","SECT":" ","MAREA":" ","LANE":" ","ALLEY":" ","HOUSE_NO":"２２９號","E_COORD97":170887.39999999999,"N_COORD97":2543984.5099999998,"ADDRESS":"東平路２２９號","OBJECTID":578128},"geometry":{"x":170887.40000000037,"y":2543984.5100000016}},{"attributes":{"ID":578156,"DIS_CODE":0,"TOWNNAME":"東區","LI":"東光里","LIN":"26鄰","STREET":"東平路","SECT":" ","MAREA":" ","LANE":" ","ALLEY":" ","HOUSE_NO":"２３１號","E_COORD97":170883.07000000001,"N_COORD97":2543987.1099999999,"ADDRESS":"東平路２３１號","OBJECTID":578129},"geometry":{"x":170883.07000000216,"y":2543987.1100000013}},{"attributes":{"ID":578157,"DIS_CODE":0,"TOWNNAME":"東區","LI":"東光里","LIN":"26鄰","STREET":"東平路","SECT":" ","MAREA":" ","LANE":" ","ALLEY":" ","HOUSE_NO":"２３３號","E_COORD97":170878.06,"N_COORD97":2543985.1800000002,"ADDRESS":"東平路２３３號","OBJECTID":578130},"geometry":{"x":170878.06000000052,"y":2543985.1799999978}},{"attributes":{"ID":578158,"DIS_CODE":0,"TOWNNAME":"東區","LI":"東光里","LIN":"26鄰","STREET":"東平路","SECT":" ","MAREA":" ","LANE":" ","ALLEY":" ","HOUSE_NO":"２３５號","E_COORD97":170873.54000000001,"N_COORD97":2543987.7799999998,"ADDRESS":"東平路２３５號","OBJECTID":578131},"geometry":{"x":170873.54000000097,"y":2543987.7800000031}},{"attributes":{"ID":578159,"DIS_CODE":0,"TOWNNAME":"東區","LI":"東光里","LIN":"26鄰","STREET":"東平路","SECT":" ","MAREA":" ","LANE":" ","ALLEY":" ","HOUSE_NO":"２３７號","E_COORD97":170868.73000000001,"N_COORD97":2543985.6600000001,"ADDRESS":"東平路２３７號","OBJECTID":578132},"geometry":{"x":170868.73000000138,"y":2543985.6600000001}},{"attributes":{"ID":578160,"DIS_CODE":0,"TOWNNAME":"東區","LI":"東光里","LIN":"26鄰","STREET":"東平路","SECT":" ","MAREA":" ","LANE":" ","ALLEY":" ","HOUSE_NO":"２３９號","E_COORD97":170864.88,"N_COORD97":2543989.0299999998,"ADDRESS":"東平路２３９號","OBJECTID":578133},"geometry":{"x":170864.87999999989,"y":2543989.0299999993}},{"attributes":{"ID":578161,"DIS_CODE":0,"TOWNNAME":"東區","LI":"東光里","LIN":"26鄰","STREET":"東平路","SECT":" ","MAREA":" ","LANE":" ","ALLEY":" ","HOUSE_NO":"２４１號","E_COORD97":170859,"N_COORD97":2543987.1099999999,"ADDRESS":"東平路２４１號","OBJECTID":578134},"geometry":{"x":170859,"y":2543987.1100000013}},{"attributes":{"ID":578162,"DIS_CODE":0,"TOWNNAME":"東區","LI":"東光里","LIN":"26鄰","STREET":"東平路","SECT":" ","MAREA":" ","LANE":" ","ALLEY":" ","HOUSE_NO":"２４３號","E_COORD97":170850.44,"N_COORD97":2543986.9100000001,"ADDRESS":"東平路２４３號","OBJECTID":578135},"geometry":{"x":170850.44000000134,"y":2543986.9100000001}},{"attributes":{"ID":578163,"DIS_CODE":0,"TOWNNAME":"東區","LI":"東光里","LIN":"26鄰","STREET":"東平路","SECT":" ","MAREA":" ","LANE":" ","ALLEY":" ","HOUSE_NO":"２４５號","E_COORD97":170845.82000000001,"N_COORD97":2543989.5099999998,"ADDRESS":"東平路２４５號","OBJECTID":578136},"geometry":{"x":170845.82000000216,"y":2543989.5099999998}},{"attributes":{"ID":578164,"DIS_CODE":0,"TOWNNAME":"東區","LI":"東光里","LIN":"26鄰","STREET":"東平路","SECT":" ","MAREA":" ","LANE":" ","ALLEY":" ","HOUSE_NO":"２４７號","E_COORD97":170841,"N_COORD97":2543987.1099999999,"ADDRESS":"東平路２４７號","OBJECTID":578137},"geometry":{"x":170841.00000000093,"y":2543987.1100000013}},{"attributes":{"ID":578165,"DIS_CODE":0,"TOWNNAME":"東區","LI":"東光里","LIN":"26鄰","STREET":"東平路","SECT":" ","MAREA":" ","LANE":" ","ALLEY":" ","HOUSE_NO":"２４９號","E_COORD97":170836.38,"N_COORD97":2543990.1800000002,"ADDRESS":"東平路２４９號","OBJECTID":578138},"geometry":{"x":170836.37999999896,"y":2543990.1800000016}},{"attributes":{"ID":578166,"DIS_CODE":0,"TOWNNAME":"東區","LI":"東光里","LIN":"26鄰","STREET":"東平路","SECT":" ","MAREA":" ","LANE":" ","ALLEY":" ","HOUSE_NO":"２５１號","E_COORD97":170831.57000000001,"N_COORD97":2543987.2999999998,"ADDRESS":"東平路２５１號","OBJECTID":578139},"geometry":{"x":170831.5700000003,"y":2543987.3000000026}},{"attributes":{"ID":578167,"DIS_CODE":0,"TOWNNAME":"東區","LI":"東光里","LIN":"26鄰","STREET":"東平路","SECT":" ","MAREA":" ","LANE":" ","ALLEY":" ","HOUSE_NO":"２５３號","E_COORD97":170826.94,"N_COORD97":2543990.5899999999,"ADDRESS":"東平路２５３號","OBJECTID":578140},"geometry":{"x":170826.94000000134,"y":2543990.5900000017}},{"attributes":{"ID":578168,"DIS_CODE":0,"TOWNNAME":"東區","LI":"東光里","LIN":"26鄰","STREET":"東平路","SECT":" ","MAREA":" ","LANE":" ","ALLEY":" ","HOUSE_NO":"２５５號","E_COORD97":170822.54999999999,"N_COORD97":2543992.75,"ADDRESS":"東平路２５５號","OBJECTID":578141},"geometry":{"x":170822.54999999981,"y":2543992.7500000019}},{"attributes":{"ID":578169,"DIS_CODE":0,"TOWNNAME":"北區","LI":"開元里","LIN":"16鄰","STREET":"長榮路","SECT":"五段","MAREA":" ","LANE":" ","ALLEY":" ","HOUSE_NO":"１４２號","E_COORD97":170077.17000000001,"N_COORD97":2545936.25,"ADDRESS":"長榮路五段１４２號","OBJECTID":578142},"geometry":{"x":170077.17000000086,"y":2545936.2500000019}},{"attributes":{"ID":578170,"DIS_CODE":0,"TOWNNAME":"北區","LI":"開元里","LIN":"16鄰","STREET":"長榮路","SECT":"五段","MAREA":" ","LANE":" ","ALLEY":" ","HOUSE_NO":"１４４號","E_COORD97":170073.76999999999,"N_COORD97":2545939.3199999998,"ADDRESS":"長榮路五段１４４號","OBJECTID":578143},"geometry":{"x":170073.76999999955,"y":2545939.3200000022}},{"attributes":{"ID":578171,"DIS_CODE":0,"TOWNNAME":"東區","LI":"東明里","LIN":"18鄰","STREET":"怡東路","SECT":" ","MAREA":" ","LANE":" ","ALLEY":" ","HOUSE_NO":"６３號","E_COORD97":170830.26999999999,"N_COORD97":2543617.2599999998,"ADDRESS":"怡東路６３號","OBJECTID":578144},"geometry":{"x":170830.27000000048,"y":2543617.2599999998}},{"attributes":{"ID":578172,"DIS_CODE":0,"TOWNNAME":"東區","LI":"東明里","LIN":"7鄰","STREET":"東興路","SECT":" ","MAREA":" ","LANE":" ","ALLEY":" ","HOUSE_NO":"１２１號","E_COORD97":170954.70999999999,"N_COORD97":2543662.5099999998,"ADDRESS":"東興路１２１號","OBJECTID":578145},"geometry":{"x":170954.71000000183,"y":2543662.5100000016}},{"attributes":{"ID":578173,"DIS_CODE":0,"TOWNNAME":"東區","LI":"東明里","LIN":"7鄰","STREET":"東興路","SECT":" ","MAREA":" ","LANE":" ","ALLEY":" ","HOUSE_NO":"１２５號","E_COORD97":170956.23000000001,"N_COORD97":2543670.1099999999,"ADDRESS":"東興路１２５號","OBJECTID":578146},"geometry":{"x":170956.23000000045,"y":2543670.1099999975}},{"attributes":{"ID":578174,"DIS_CODE":0,"TOWNNAME":"東區","LI":"東明里","LIN":"10鄰","STREET":"東興路","SECT":" ","MAREA":" ","LANE":" ","ALLEY":" ","HOUSE_NO":"１３１號","E_COORD97":170961.54000000001,"N_COORD97":2543693.52,"ADDRESS":"東興路１３１號","OBJECTID":578147},"geometry":{"x":170961.54000000097,"y":2543693.5199999996}},{"attributes":{"ID":578175,"DIS_CODE":0,"TOWNNAME":"東區","LI":"東明里","LIN":"10鄰","STREET":"東興路","SECT":" ","MAREA":" ","LANE":" ","ALLEY":" ","HOUSE_NO":"１３１號地下一層","E_COORD97":170961.54000000001,"N_COORD97":2543693.52,"ADDRESS":"東興路１３１號地下一層","OBJECTID":578148},"geometry":{"x":170961.54000000097,"y":2543693.5199999996}},{"attributes":{"ID":578176,"DIS_CODE":0,"TOWNNAME":"東區","LI":"東明里","LIN":"10鄰","STREET":"東興路","SECT":" ","MAREA":" ","LANE":" ","ALLEY":" ","HOUSE_NO":"１３９號","E_COORD97":170966.25,"N_COORD97":2543710.48,"ADDRESS":"東興路１３９號","OBJECTID":578149},"geometry":{"x":170966.25000000186,"y":2543710.4800000023}},{"attributes":{"ID":578177,"DIS_CODE":0,"TOWNNAME":"北區","LI":"開元里","LIN":"16鄰","STREET":"長榮路","SECT":"五段","MAREA":" ","LANE":" ","ALLEY":" ","HOUSE_NO":"１４６號","E_COORD97":170071.26000000001,"N_COORD97":2545941.8199999998,"ADDRESS":"長榮路五段１４６號","OBJECTID":578150},"geometry":{"x":170071.26000000071,"y":2545941.8200000022}},{"attributes":{"ID":578178,"DIS_CODE":0,"TOWNNAME":"北區","LI":"開元里","LIN":"16鄰","STREET":"長榮路","SECT":"五段","MAREA":" ","LANE":" ","ALLEY":" ","HOUSE_NO":"１４８號","E_COORD97":170067.70000000001,"N_COORD97":2545945.0600000001,"ADDRESS":"長榮路五段１４８號","OBJECTID":578151},"geometry":{"x":170067.70000000019,"y":2545945.0600000005}},{"attributes":{"ID":578179,"DIS_CODE":0,"TOWNNAME":"北區","LI":"開元里","LIN":"16鄰","STREET":"長榮路","SECT":"五段","MAREA":" ","LANE":" ","ALLEY":" ","HOUSE_NO":"１５０號","E_COORD97":170060.07999999999,"N_COORD97":2545958.1800000002,"ADDRESS":"長榮路五段１５０號","OBJECTID":578152},"geometry":{"x":170060.08000000007,"y":2545958.1799999997}},{"attributes":{"ID":578180,"DIS_CODE":0,"TOWNNAME":"北區","LI":"大豐里","LIN":"16鄰","STREET":"和緯路","SECT":"四段","MAREA":" ","LANE":" ","ALLEY":" ","HOUSE_NO":"３６６號","E_COORD97":166767.01000000001,"N_COORD97":2545375.8300000001,"ADDRESS":"和緯路四段３６６號","OBJECTID":578153},"geometry":{"x":166767.01000000164,"y":2545375.8300000019}},{"attributes":{"ID":578181,"DIS_CODE":0,"TOWNNAME":"北區","LI":"大豐里","LIN":"16鄰","STREET":"和緯路","SECT":"四段","MAREA":" ","LANE":" ","ALLEY":" ","HOUSE_NO":"３５６號","E_COORD97":166774.79000000001,"N_COORD97":2545382.5,"ADDRESS":"和緯路四段３５６號","OBJECTID":578154},"geometry":{"x":166774.79000000004,"y":2545382.5}},{"attributes":{"ID":578182,"DIS_CODE":0,"TOWNNAME":"北區","LI":"大豐里","LIN":"16鄰","STREET":"和緯路","SECT":"四段","MAREA":" ","LANE":" ","ALLEY":" ","HOUSE_NO":"３３８號","E_COORD97":166794.31,"N_COORD97":2545386.4700000002,"ADDRESS":"和緯路四段３３８號","OBJECTID":578155},"geometry":{"x":166794.31000000052,"y":2545386.4700000007}},{"attributes":{"ID":578183,"DIS_CODE":0,"TOWNNAME":"北區","LI":"大豐里","LIN":"16鄰","STREET":"和緯路","SECT":"四段","MAREA":" ","LANE":" ","ALLEY":" ","HOUSE_NO":"３５０號","E_COORD97":166786.06,"N_COORD97":2545382.6600000001,"ADDRESS":"和緯路四段３５０號","OBJECTID":578156},"geometry":{"x":166786.05999999959,"y":2545382.6599999983}},{"attributes":{"ID":578184,"DIS_CODE":0,"TOWNNAME":"北區","LI":"大豐里","LIN":"16鄰","STREET":"和緯路","SECT":"四段","MAREA":" ","LANE":" ","ALLEY":" ","HOUSE_NO":"４２６號","E_COORD97":166693.98000000001,"N_COORD97":2545343.1299999999,"ADDRESS":"和緯路四段４２６號","OBJECTID":578157},"geometry":{"x":166693.98000000138,"y":2545343.129999999}},{"attributes":{"ID":578185,"DIS_CODE":0,"TOWNNAME":"北區","LI":"大豐里","LIN":"16鄰","STREET":"武聖路","SECT":" ","MAREA":" ","LANE":" ","ALLEY":" ","HOUSE_NO":"１７８號","E_COORD97":166903.84,"N_COORD97":2545287.6499999999,"ADDRESS":"武聖路１７８號","OBJECTID":578158},"geometry":{"x":166903.84000000171,"y":2545287.6500000004}},{"attributes":{"ID":578186,"DIS_CODE":0,"TOWNNAME":"北區","LI":"大豐里","LIN":"16鄰","STREET":"武聖路","SECT":" ","MAREA":" ","LANE":" ","ALLEY":" ","HOUSE_NO":"２２０號","E_COORD97":166798.59,"N_COORD97":2545334.7999999998,"ADDRESS":"武聖路２２０號","OBJECTID":578159},"geometry":{"x":166798.58999999985,"y":2545334.8000000007}},{"attributes":{"ID":578187,"DIS_CODE":0,"TOWNNAME":"北區","LI":"大豐里","LIN":"16鄰","STREET":"武聖路","SECT":" ","MAREA":" ","LANE":" ","ALLEY":" ","HOUSE_NO":"２３０號","E_COORD97":166754.76999999999,"N_COORD97":2545370.6800000002,"ADDRESS":"武聖路２３０號","OBJECTID":578160},"geometry":{"x":166754.77000000142,"y":2545370.6799999997}},{"attributes":{"ID":578188,"DIS_CODE":0,"TOWNNAME":"北區","LI":"大豐里","LIN":"16鄰","STREET":"武聖路","SECT":" ","MAREA":" ","LANE":" ","ALLEY":" ","HOUSE_NO":"２３２號","E_COORD97":166752.23000000001,"N_COORD97":2545374.96,"ADDRESS":"武聖路２３２號","OBJECTID":578161},"geometry":{"x":166752.23000000045,"y":2545374.9600000046}},{"attributes":{"ID":578189,"DIS_CODE":0,"TOWNNAME":"北區","LI":"大豐里","LIN":"16鄰","STREET":"武聖路","SECT":" ","MAREA":" ","LANE":" ","ALLEY":" ","HOUSE_NO":"２３６號","E_COORD97":166748.26999999999,"N_COORD97":2545381.9500000002,"ADDRESS":"武聖路２３６號","OBJECTID":578162},"geometry":{"x":166748.27000000048,"y":2545381.9499999993}},{"attributes":{"ID":578190,"DIS_CODE":0,"TOWNNAME":"北區","LI":"大豐里","LIN":"16鄰","STREET":"武聖路","SECT":" ","MAREA":" ","LANE":" ","ALLEY":" ","HOUSE_NO":"２４６之３號","E_COORD97":166716.42999999999,"N_COORD97":2545463.5699999998,"ADDRESS":"武聖路２４６之３號","OBJECTID":578163},"geometry":{"x":166716.4299999997,"y":2545463.5700000003}},{"attributes":{"ID":578191,"DIS_CODE":0,"TOWNNAME":"東區","LI":"東明里","LIN":"11鄰","STREET":"東興路","SECT":" ","MAREA":" ","LANE":" ","ALLEY":" ","HOUSE_NO":"１４１號","E_COORD97":170945.44,"N_COORD97":2543694.8999999999,"ADDRESS":"東興路１４１號","OBJECTID":578164},"geometry":{"x":170945.44000000134,"y":2543694.9000000004}},{"attributes":{"ID":578192,"DIS_CODE":0,"TOWNNAME":"東區","LI":"東明里","LIN":"11鄰","STREET":"東興路","SECT":" ","MAREA":" ","LANE":" ","ALLEY":" ","HOUSE_NO":"１４１號之２","E_COORD97":170947.97,"N_COORD97":2543705.9900000002,"ADDRESS":"東興路１４１號之２","OBJECTID":578165},"geometry":{"x":170947.97000000067,"y":2543705.9900000039}},{"attributes":{"ID":578193,"DIS_CODE":0,"TOWNNAME":"東區","LI":"東明里","LIN":"20鄰","STREET":"東安路","SECT":" ","MAREA":" ","LANE":" ","ALLEY":" ","HOUSE_NO":"５２號","E_COORD97":170694.91,"N_COORD97":2543621.2599999998,"ADDRESS":"東安路５２號","OBJECTID":578166},"geometry":{"x":170694.91000000108,"y":2543621.2599999998}},{"attributes":{"ID":578194,"DIS_CODE":0,"TOWNNAME":"東區","LI":"東明里","LIN":"20鄰","STREET":"東安路","SECT":" ","MAREA":" ","LANE":" ","ALLEY":" ","HOUSE_NO":"５４號","E_COORD97":170696.48000000001,"N_COORD97":2543626.6200000001,"ADDRESS":"東安路５４號","OBJECTID":578167},"geometry":{"x":170696.48000000138,"y":2543626.620000001}},{"attributes":{"ID":578195,"DIS_CODE":0,"TOWNNAME":"東區","LI":"東明里","LIN":"20鄰","STREET":"東安路","SECT":" ","MAREA":" ","LANE":" ","ALLEY":" ","HOUSE_NO":"５６號","E_COORD97":170697.14000000001,"N_COORD97":2543631.1699999999,"ADDRESS":"東安路５６號","OBJECTID":578168},"geometry":{"x":170697.14000000153,"y":2543631.1700000018}},{"attributes":{"ID":578196,"DIS_CODE":0,"TOWNNAME":"麻豆區","LI":"穀興里","LIN":"13鄰","STREET":"中山路","SECT":" ","MAREA":" ","LANE":" ","ALLEY":" ","HOUSE_NO":"７５號","E_COORD97":172848.92000000001,"N_COORD97":2564811.7799999998,"ADDRESS":"中山路７５號","OBJECTID":578169},"geometry":{"x":172848.92000000086,"y":2564811.7800000012}},{"attributes":{"ID":578197,"DIS_CODE":0,"TOWNNAME":"東區","LI":"崇德里","LIN":"21鄰","STREET":"崇德路","SECT":" ","MAREA":" ","LANE":" ","ALLEY":" ","HOUSE_NO":"４１６號","E_COORD97":170604.54000000001,"N_COORD97":2541735.1800000002,"ADDRESS":"崇德路４１６號","OBJECTID":578170},"geometry":{"x":170604.54000000004,"y":2541735.1800000016}},{"attributes":{"ID":578198,"DIS_CODE":0,"TOWNNAME":"東區","LI":"崇德里","LIN":"21鄰","STREET":"崇德路","SECT":" ","MAREA":" ","LANE":" ","ALLEY":" ","HOUSE_NO":"４１８號","E_COORD97":170608.48999999999,"N_COORD97":2541733.2799999998,"ADDRESS":"崇德路４１８號","OBJECTID":578171},"geometry":{"x":170608.49000000022,"y":2541733.2800000031}},{"attributes":{"ID":578199,"DIS_CODE":0,"TOWNNAME":"東區","LI":"崇德里","LIN":"21鄰","STREET":"崇德路","SECT":" ","MAREA":" ","LANE":" ","ALLEY":" ","HOUSE_NO":"４２０號","E_COORD97":170611.98000000001,"N_COORD97":2541730.5899999999,"ADDRESS":"崇德路４２０號","OBJECTID":578172},"geometry":{"x":170611.98000000045,"y":2541730.5899999999}},{"attributes":{"ID":578200,"DIS_CODE":0,"TOWNNAME":"東區","LI":"崇德里","LIN":"21鄰","STREET":"崇德路","SECT":" ","MAREA":" ","LANE":" ","ALLEY":" ","HOUSE_NO":"４２２號","E_COORD97":170615.14999999999,"N_COORD97":2541727.7400000002,"ADDRESS":"崇德路４２２號","OBJECTID":578173},"geometry":{"x":170615.1500000013,"y":2541727.7400000039}},{"attributes":{"ID":578201,"DIS_CODE":0,"TOWNNAME":"東區","LI":"崇德里","LIN":"21鄰","STREET":"崇德路","SECT":" ","MAREA":" ","LANE":" ","ALLEY":" ","HOUSE_NO":"４２４號","E_COORD97":170618,"N_COORD97":2541725.8399999999,"ADDRESS":"崇德路４２４號","OBJECTID":578174},"geometry":{"x":170618,"y":2541725.8399999999}},{"attributes":{"ID":578202,"DIS_CODE":0,"TOWNNAME":"安平區","LI":"平通里","LIN":"16鄰","STREET":"平通路","SECT":" ","MAREA":" ","LANE":" ","ALLEY":" ","HOUSE_NO":"５４８號","E_COORD97":165018.67999999999,"N_COORD97":2543829.5499999998,"ADDRESS":"平通路５４８號","OBJECTID":578175},"geometry":{"x":165018.68000000063,"y":2543829.5500000026}},{"attributes":{"ID":578203,"DIS_CODE":0,"TOWNNAME":"安平區","LI":"平通里","LIN":"16鄰","STREET":"平通路","SECT":" ","MAREA":" ","LANE":" ","ALLEY":" ","HOUSE_NO":"５５０號","E_COORD97":165014.09,"N_COORD97":2543830.8399999999,"ADDRESS":"平通路５５０號","OBJECTID":578176},"geometry":{"x":165014.09000000078,"y":2543830.8399999999}},{"attributes":{"ID":578204,"DIS_CODE":0,"TOWNNAME":"東區","LI":"崇德里","LIN":"21鄰","STREET":"崇德路","SECT":" ","MAREA":" ","LANE":" ","ALLEY":" ","HOUSE_NO":"４２６號","E_COORD97":170623.54000000001,"N_COORD97":2541723.7799999998,"ADDRESS":"崇德路４２６號","OBJECTID":578177},"geometry":{"x":170623.53999999911,"y":2541723.7800000012}},{"attributes":{"ID":578205,"DIS_CODE":0,"TOWNNAME":"東區","LI":"崇德里","LIN":"21鄰","STREET":"崇德路","SECT":" ","MAREA":" ","LANE":" ","ALLEY":" ","HOUSE_NO":"４２８號","E_COORD97":170627.17999999999,"N_COORD97":2541720.9399999999,"ADDRESS":"崇德路４２８號","OBJECTID":578178},"geometry":{"x":170627.1799999997,"y":2541720.9399999995}},{"attributes":{"ID":578206,"DIS_CODE":0,"TOWNNAME":"東區","LI":"崇德里","LIN":"21鄰","STREET":"崇德路","SECT":" ","MAREA":" ","LANE":" ","ALLEY":" ","HOUSE_NO":"４３０號","E_COORD97":170630.67000000001,"N_COORD97":2541719.04,"ADDRESS":"崇德路４３０號","OBJECTID":578179},"geometry":{"x":170630.66999999993,"y":2541719.040000001}},{"attributes":{"ID":578207,"DIS_CODE":0,"TOWNNAME":"東區","LI":"崇德里","LIN":"21鄰","STREET":"崇德路","SECT":" ","MAREA":" ","LANE":" ","ALLEY":" ","HOUSE_NO":"４３２號","E_COORD97":170634.14999999999,"N_COORD97":2541714.7599999998,"ADDRESS":"崇德路４３２號","OBJECTID":578180},"geometry":{"x":170634.1500000013,"y":2541714.7600000016}},{"attributes":{"ID":578208,"DIS_CODE":0,"TOWNNAME":"東區","LI":"崇德里","LIN":"21鄰","STREET":"崇德路","SECT":" ","MAREA":" ","LANE":" ","ALLEY":" ","HOUSE_NO":"４３４號","E_COORD97":170638.10999999999,"N_COORD97":2541712.3900000001,"ADDRESS":"崇德路４３４號","OBJECTID":578181},"geometry":{"x":170638.11000000034,"y":2541712.3900000006}},{"attributes":{"ID":578209,"DIS_CODE":0,"TOWNNAME":"東區","LI":"崇德里","LIN":"21鄰","STREET":"崇德路","SECT":" ","MAREA":" ","LANE":" ","ALLEY":" ","HOUSE_NO":"４３６號","E_COORD97":170641.75,"N_COORD97":2541709.8599999999,"ADDRESS":"崇德路４３６號","OBJECTID":578182},"geometry":{"x":170641.75,"y":2541709.8600000013}},{"attributes":{"ID":578210,"DIS_CODE":0,"TOWNNAME":"東區","LI":"崇德里","LIN":"21鄰","STREET":"崇德路","SECT":" ","MAREA":" ","LANE":" ","ALLEY":" ","HOUSE_NO":"４３８號","E_COORD97":170645.39999999999,"N_COORD97":2541707.1699999999,"ADDRESS":"崇德路４３８號","OBJECTID":578183},"geometry":{"x":170645.40000000224,"y":2541707.1699999981}},{"attributes":{"ID":578211,"DIS_CODE":0,"TOWNNAME":"東區","LI":"東明里","LIN":"23鄰","STREET":"怡東路","SECT":" ","MAREA":" ","LANE":" ","ALLEY":" ","HOUSE_NO":"３５號","E_COORD97":170806.79000000001,"N_COORD97":2543533.9300000002,"ADDRESS":"怡東路３５號","OBJECTID":578184},"geometry":{"x":170806.7900000019,"y":2543533.9300000016}},{"attributes":{"ID":578212,"DIS_CODE":0,"TOWNNAME":"安平區","LI":"平通里","LIN":"16鄰","STREET":"平通路","SECT":" ","MAREA":" ","LANE":" ","ALLEY":" ","HOUSE_NO":"５５２號","E_COORD97":165004.98000000001,"N_COORD97":2543831.8900000001,"ADDRESS":"平通路５５２號","OBJECTID":578185},"geometry":{"x":165004.98000000231,"y":2543831.8900000006}},{"attributes":{"ID":578213,"DIS_CODE":0,"TOWNNAME":"安平區","LI":"平通里","LIN":"16鄰","STREET":"平通路","SECT":" ","MAREA":" ","LANE":" ","ALLEY":" ","HOUSE_NO":"５６０號","E_COORD97":165000.22,"N_COORD97":2543832.7799999998,"ADDRESS":"平通路５６０號","OBJECTID":578186},"geometry":{"x":165000.21999999974,"y":2543832.7800000012}},{"attributes":{"ID":578214,"DIS_CODE":0,"TOWNNAME":"安平區","LI":"平通里","LIN":"16鄰","STREET":"平通路","SECT":" ","MAREA":" ","LANE":" ","ALLEY":" ","HOUSE_NO":"５６２號","E_COORD97":164995.06,"N_COORD97":2543833.8999999999,"ADDRESS":"平通路５６２號","OBJECTID":578187},"geometry":{"x":164995.06000000145,"y":2543833.9000000004}},{"attributes":{"ID":578215,"DIS_CODE":0,"TOWNNAME":"安平區","LI":"平通里","LIN":"16鄰","STREET":"平通路","SECT":" ","MAREA":" ","LANE":" ","ALLEY":" ","HOUSE_NO":"５６４號","E_COORD97":164989.73999999999,"N_COORD97":2543834.9500000002,"ADDRESS":"平通路５６４號","OBJECTID":578188},"geometry":{"x":164989.74000000115,"y":2543834.9500000011}},{"attributes":{"ID":578216,"DIS_CODE":0,"TOWNNAME":"安平區","LI":"平通里","LIN":"16鄰","STREET":"平通路","SECT":" ","MAREA":" ","LANE":" ","ALLEY":" ","HOUSE_NO":"５６６號","E_COORD97":164973.26000000001,"N_COORD97":2543838.73,"ADDRESS":"平通路５６６號","OBJECTID":578189},"geometry":{"x":164973.25999999978,"y":2543838.7300000004}},{"attributes":{"ID":578217,"DIS_CODE":0,"TOWNNAME":"安平區","LI":"平通里","LIN":"16鄰","STREET":"平通路","SECT":" ","MAREA":" ","LANE":" ","ALLEY":" ","HOUSE_NO":"５７８號","E_COORD97":164953.35000000001,"N_COORD97":2543842.0299999998,"ADDRESS":"平通路５７８號","OBJECTID":578190},"geometry":{"x":164953.34999999963,"y":2543842.0299999993}},{"attributes":{"ID":578218,"DIS_CODE":0,"TOWNNAME":"安平區","LI":"平通里","LIN":"16鄰","STREET":"國平路","SECT":" ","MAREA":" ","LANE":" ","ALLEY":" ","HOUSE_NO":"４２７號","E_COORD97":165043.79000000001,"N_COORD97":2543948.6200000001,"ADDRESS":"國平路４２７號","OBJECTID":578191},"geometry":{"x":165043.79000000097,"y":2543948.620000001}},{"attributes":{"ID":578219,"DIS_CODE":0,"TOWNNAME":"安平區","LI":"海頭里","LIN":"16鄰","STREET":"古堡街","SECT":" ","MAREA":" ","LANE":" ","ALLEY":" ","HOUSE_NO":"７８號","E_COORD97":163968.70000000001,"N_COORD97":2544914.6400000001,"ADDRESS":"古堡街７８號","OBJECTID":578192},"geometry":{"x":163968.70000000019,"y":2544914.6400000006}},{"attributes":{"ID":578220,"DIS_CODE":0,"TOWNNAME":"安平區","LI":"海頭里","LIN":"16鄰","STREET":"古堡街","SECT":" ","MAREA":" ","LANE":" ","ALLEY":" ","HOUSE_NO":"８０號","E_COORD97":163964.20000000001,"N_COORD97":2544912.1299999999,"ADDRESS":"古堡街８０號","OBJECTID":578193},"geometry":{"x":163964.20000000112,"y":2544912.1300000008}},{"attributes":{"ID":578221,"DIS_CODE":0,"TOWNNAME":"安平區","LI":"海頭里","LIN":"16鄰","STREET":"古堡街","SECT":" ","MAREA":" ","LANE":" ","ALLEY":" ","HOUSE_NO":"８２號","E_COORD97":163960.23999999999,"N_COORD97":2544914.1899999999,"ADDRESS":"古堡街８２號","OBJECTID":578194},"geometry":{"x":163960.24000000022,"y":2544914.1900000032}},{"attributes":{"ID":578222,"DIS_CODE":0,"TOWNNAME":"安平區","LI":"海頭里","LIN":"16鄰","STREET":"古堡街","SECT":" ","MAREA":" ","LANE":" ","ALLEY":" ","HOUSE_NO":"８４號","E_COORD97":163956.73000000001,"N_COORD97":2544911.9500000002,"ADDRESS":"古堡街８４號","OBJECTID":578195},"geometry":{"x":163956.73000000045,"y":2544911.950000003}},{"attributes":{"ID":578223,"DIS_CODE":0,"TOWNNAME":"安平區","LI":"海頭里","LIN":"16鄰","STREET":"古堡街","SECT":" ","MAREA":" ","LANE":" ","ALLEY":" ","HOUSE_NO":"８６號","E_COORD97":163952.41,"N_COORD97":2544913.75,"ADDRESS":"古堡街８６號","OBJECTID":578196},"geometry":{"x":163952.41000000201,"y":2544913.75}},{"attributes":{"ID":578224,"DIS_CODE":0,"TOWNNAME":"安平區","LI":"海頭里","LIN":"16鄰","STREET":"古堡街","SECT":" ","MAREA":" ","LANE":" ","ALLEY":" ","HOUSE_NO":"８８號","E_COORD97":163949.35000000001,"N_COORD97":2544911.4100000001,"ADDRESS":"古堡街８８號","OBJECTID":578197},"geometry":{"x":163949.35000000056,"y":2544911.410000002}},{"attributes":{"ID":578225,"DIS_CODE":0,"TOWNNAME":"新營區","LI":"三仙里","LIN":"16鄰","STREET":"武昌街","SECT":" ","MAREA":" ","LANE":" ","ALLEY":" ","HOUSE_NO":"８０號","E_COORD97":179571.10000000001,"N_COORD97":2578308.9700000002,"ADDRESS":"武昌街８０號","OBJECTID":578198},"geometry":{"x":179571.09999999963,"y":2578308.9700000025}},{"attributes":{"ID":578226,"DIS_CODE":0,"TOWNNAME":"新營區","LI":"新東里","LIN":"16鄰","STREET":"東泰九街","SECT":" ","MAREA":" ","LANE":" ","ALLEY":" ","HOUSE_NO":"２２號","E_COORD97":181058.16,"N_COORD97":2579804.77,"ADDRESS":"東泰九街２２號","OBJECTID":578199},"geometry":{"x":181058.16000000015,"y":2579804.7700000014}},{"attributes":{"ID":578227,"DIS_CODE":0,"TOWNNAME":"新營區","LI":"民權里","LIN":"16鄰","STREET":"民權路","SECT":" ","MAREA":" ","LANE":" ","ALLEY":" ","HOUSE_NO":"２６號","E_COORD97":179757.14999999999,"N_COORD97":2578068.8700000001,"ADDRESS":"民權路２６號","OBJECTID":578200},"geometry":{"x":179757.1500000013,"y":2578068.8699999992}}]}