{"displayFieldName":"TOWNNAME","fieldAliases":{"ID":"ID","DIS_CODE":"DIS_CODE","TOWNNAME":"TOWNNAME","LI":"LI","LIN":"LIN","STREET":"STREET","SECT":"SECT","MAREA":"MAREA","LANE":"LANE","ALLEY":"ALLEY","HOUSE_NO":"HOUSE_NO","E_COORD97":"E_COORD97","N_COORD97":"N_COORD97","ADDRESS":"ADDRESS","OBJECTID":"OBJECTID"},"geometryType":"esriGeometryPoint","spatialReference":{"wkid":102443,"latestWkid":3826},"fields":[{"name":"ID","type":"esriFieldTypeDouble","alias":"ID"},{"name":"DIS_CODE","type":"esriFieldTypeInteger","alias":"DIS_CODE"},{"name":"TOWNNAME","type":"esriFieldTypeString","alias":"TOWNNAME","length":8},{"name":"LI","type":"esriFieldTypeString","alias":"LI","length":8},{"name":"LIN","type":"esriFieldTypeString","alias":"LIN","length":12},{"name":"STREET","type":"esriFieldTypeString","alias":"STREET","length":20},{"name":"SECT","type":"esriFieldTypeString","alias":"SECT","length":8},{"name":"MAREA","type":"esriFieldTypeString","alias":"MAREA","length":12},{"name":"LANE","type":"esriFieldTypeString","alias":"LANE","length":10},{"name":"ALLEY","type":"esriFieldTypeString","alias":"ALLEY","length":10},{"name":"HOUSE_NO","type":"esriFieldTypeString","alias":"HOUSE_NO","length":20},{"name":"E_COORD97","type":"esriFieldTypeDouble","alias":"E_COORD97"},{"name":"N_COORD97","type":"esriFieldTypeDouble","alias":"N_COORD97"},{"name":"ADDRESS","type":"esriFieldTypeString","alias":"ADDRESS","length":50},{"name":"OBJECTID","type":"esriFieldTypeOID","alias":"OBJECTID"}],"features":[{"attributes":{"ID":209602,"DIS_CODE":0,"TOWNNAME":"永康區","LI":"二王里","LIN":"42鄰","STREET":"中山南路","SECT":" ","MAREA":" ","LANE":"３１６巷","ALLEY":"３２弄","HOUSE_NO":"５號","E_COORD97":172056.44,"N_COORD97":2546103.71,"ADDRESS":"中山南路３１６巷３２弄５號","OBJECTID":209601},"geometry":{"x":172056.44000000041,"y":2546103.7100000028}},{"attributes":{"ID":209603,"DIS_CODE":0,"TOWNNAME":"永康區","LI":"二王里","LIN":"42鄰","STREET":"中山南路","SECT":" ","MAREA":" ","LANE":"３１６巷","ALLEY":"３２弄","HOUSE_NO":"６號","E_COORD97":172043.14000000001,"N_COORD97":2546106.46,"ADDRESS":"中山南路３１６巷３２弄６號","OBJECTID":209602},"geometry":{"x":172043.14000000153,"y":2546106.4600000009}},{"attributes":{"ID":209604,"DIS_CODE":0,"TOWNNAME":"永康區","LI":"二王里","LIN":"42鄰","STREET":"中山南路","SECT":" ","MAREA":" ","LANE":"３１６巷","ALLEY":"２６弄","HOUSE_NO":"２１號","E_COORD97":172018.54000000001,"N_COORD97":2546076.4500000002,"ADDRESS":"中山南路３１６巷２６弄２１號","OBJECTID":209603},"geometry":{"x":172018.54000000004,"y":2546076.4500000011}},{"attributes":{"ID":209605,"DIS_CODE":0,"TOWNNAME":"永康區","LI":"二王里","LIN":"42鄰","STREET":"中山南路","SECT":" ","MAREA":" ","LANE":"３１６巷","ALLEY":"２６弄","HOUSE_NO":"３２號","E_COORD97":172006.97,"N_COORD97":2546071.9500000002,"ADDRESS":"中山南路３１６巷２６弄３２號","OBJECTID":209604},"geometry":{"x":172006.96999999881,"y":2546071.9500000011}},{"attributes":{"ID":209606,"DIS_CODE":0,"TOWNNAME":"永康區","LI":"二王里","LIN":"42鄰","STREET":"中山南路","SECT":" ","MAREA":" ","LANE":"３１６巷","ALLEY":"３２弄","HOUSE_NO":"１９號","E_COORD97":172055.79999999999,"N_COORD97":2546075.7000000002,"ADDRESS":"中山南路３１６巷３２弄１９號","OBJECTID":209605},"geometry":{"x":172055.80000000168,"y":2546075.6999999993}},{"attributes":{"ID":209607,"DIS_CODE":0,"TOWNNAME":"永康區","LI":"二王里","LIN":"42鄰","STREET":"中山南路","SECT":" ","MAREA":" ","LANE":"３１６巷","ALLEY":"３２弄","HOUSE_NO":"３號","E_COORD97":172056.64000000001,"N_COORD97":2546107.71,"ADDRESS":"中山南路３１６巷３２弄３號","OBJECTID":209606},"geometry":{"x":172056.64000000153,"y":2546107.7100000009}},{"attributes":{"ID":209608,"DIS_CODE":0,"TOWNNAME":"永康區","LI":"二王里","LIN":"42鄰","STREET":"中山南路","SECT":" ","MAREA":" ","LANE":"３１６巷","ALLEY":"３２弄","HOUSE_NO":"１４號","E_COORD97":172041.89000000001,"N_COORD97":2546088.9500000002,"ADDRESS":"中山南路３１６巷３２弄１４號","OBJECTID":209607},"geometry":{"x":172041.8900000006,"y":2546088.9500000011}},{"attributes":{"ID":209609,"DIS_CODE":0,"TOWNNAME":"永康區","LI":"二王里","LIN":"42鄰","STREET":"中山南路","SECT":" ","MAREA":" ","LANE":"３１６巷","ALLEY":"２６弄","HOUSE_NO":"２０號","E_COORD97":172011.39999999999,"N_COORD97":2546103.46,"ADDRESS":"中山南路３１６巷２６弄２０號","OBJECTID":209608},"geometry":{"x":172011.40000000037,"y":2546103.4600000009}},{"attributes":{"ID":209610,"DIS_CODE":0,"TOWNNAME":"永康區","LI":"二王里","LIN":"42鄰","STREET":"中山南路","SECT":" ","MAREA":" ","LANE":"３１６巷","ALLEY":"２６弄","HOUSE_NO":"２３號","E_COORD97":172018.09,"N_COORD97":2546069.9500000002,"ADDRESS":"中山南路３１６巷２６弄２３號","OBJECTID":209609},"geometry":{"x":172018.08999999985,"y":2546069.9499999993}},{"attributes":{"ID":209611,"DIS_CODE":0,"TOWNNAME":"永康區","LI":"二王里","LIN":"42鄰","STREET":"中山南路","SECT":" ","MAREA":" ","LANE":"３１６巷","ALLEY":"２６弄","HOUSE_NO":"１８號","E_COORD97":172012.39000000001,"N_COORD97":2546109.71,"ADDRESS":"中山南路３１６巷２６弄１８號","OBJECTID":209610},"geometry":{"x":172012.38999999966,"y":2546109.7100000028}},{"attributes":{"ID":209612,"DIS_CODE":0,"TOWNNAME":"永康區","LI":"二王里","LIN":"42鄰","STREET":"中山南路","SECT":" ","MAREA":" ","LANE":"３１６巷","ALLEY":"３２弄","HOUSE_NO":"４號","E_COORD97":172043.44,"N_COORD97":2546112.46,"ADDRESS":"中山南路３１６巷３２弄４號","OBJECTID":209611},"geometry":{"x":172043.43999999948,"y":2546112.4600000009}},{"attributes":{"ID":209613,"DIS_CODE":0,"TOWNNAME":"永康區","LI":"二王里","LIN":"42鄰","STREET":"中山南路","SECT":" ","MAREA":" ","LANE":"３１６巷","ALLEY":"３２弄","HOUSE_NO":"１８號","E_COORD97":172041.19,"N_COORD97":2546080.9500000002,"ADDRESS":"中山南路３１６巷３２弄１８號","OBJECTID":209612},"geometry":{"x":172041.19000000041,"y":2546080.9499999993}},{"attributes":{"ID":209614,"DIS_CODE":0,"TOWNNAME":"麻豆區","LI":"穀興里","LIN":"9鄰","STREET":"光復路","SECT":" ","MAREA":" ","LANE":" ","ALLEY":" ","HOUSE_NO":"６３號","E_COORD97":172914.13,"N_COORD97":2564905.4700000002,"ADDRESS":"光復路６３號","OBJECTID":209613},"geometry":{"x":172914.12999999989,"y":2564905.4700000007}},{"attributes":{"ID":209615,"DIS_CODE":0,"TOWNNAME":"麻豆區","LI":"穀興里","LIN":"9鄰","STREET":"光復路","SECT":" ","MAREA":" ","LANE":" ","ALLEY":" ","HOUSE_NO":"６５號","E_COORD97":172911.06,"N_COORD97":2564905.46,"ADDRESS":"光復路６５號","OBJECTID":209614},"geometry":{"x":172911.05999999959,"y":2564905.4600000009}},{"attributes":{"ID":209616,"DIS_CODE":0,"TOWNNAME":"麻豆區","LI":"穀興里","LIN":"9鄰","STREET":"光復路","SECT":" ","MAREA":" ","LANE":" ","ALLEY":" ","HOUSE_NO":"６７號","E_COORD97":172908.14999999999,"N_COORD97":2564905.46,"ADDRESS":"光復路６７號","OBJECTID":209615},"geometry":{"x":172908.15000000037,"y":2564905.4600000009}},{"attributes":{"ID":209617,"DIS_CODE":0,"TOWNNAME":"麻豆區","LI":"穀興里","LIN":"9鄰","STREET":"光復路","SECT":" ","MAREA":" ","LANE":" ","ALLEY":" ","HOUSE_NO":"６９號","E_COORD97":172904.56,"N_COORD97":2564905.1099999999,"ADDRESS":"光復路６９號","OBJECTID":209616},"geometry":{"x":172904.55999999959,"y":2564905.1100000013}},{"attributes":{"ID":209618,"DIS_CODE":0,"TOWNNAME":"麻豆區","LI":"海埔里","LIN":"2鄰","STREET":" ","SECT":" ","MAREA":"埤子尾","LANE":" ","ALLEY":" ","HOUSE_NO":"１９號","E_COORD97":169766.32000000001,"N_COORD97":2566626.4500000002,"ADDRESS":"埤子尾１９號","OBJECTID":209617},"geometry":{"x":169766.32000000123,"y":2566626.4499999993}},{"attributes":{"ID":209619,"DIS_CODE":0,"TOWNNAME":"麻豆區","LI":"海埔里","LIN":"2鄰","STREET":" ","SECT":" ","MAREA":"埤子尾","LANE":" ","ALLEY":" ","HOUSE_NO":"２１號","E_COORD97":169747.82999999999,"N_COORD97":2566615.9100000001,"ADDRESS":"埤子尾２１號","OBJECTID":209618},"geometry":{"x":169747.83000000101,"y":2566615.910000002}},{"attributes":{"ID":209620,"DIS_CODE":0,"TOWNNAME":"麻豆區","LI":"海埔里","LIN":"2鄰","STREET":" ","SECT":" ","MAREA":"埤子尾","LANE":" ","ALLEY":" ","HOUSE_NO":"２２號","E_COORD97":169723.85999999999,"N_COORD97":2566619.5299999998,"ADDRESS":"埤子尾２２號","OBJECTID":209619},"geometry":{"x":169723.86000000127,"y":2566619.5299999993}},{"attributes":{"ID":209621,"DIS_CODE":0,"TOWNNAME":"麻豆區","LI":"海埔里","LIN":"2鄰","STREET":" ","SECT":" ","MAREA":"埤子尾","LANE":" ","ALLEY":" ","HOUSE_NO":"２３號之１０","E_COORD97":169581.79000000001,"N_COORD97":2566348.6000000001,"ADDRESS":"埤子尾２３號之１０","OBJECTID":209620},"geometry":{"x":169581.79000000097,"y":2566348.5999999978}},{"attributes":{"ID":209622,"DIS_CODE":0,"TOWNNAME":"麻豆區","LI":"穀興里","LIN":"9鄰","STREET":"光復路","SECT":" ","MAREA":" ","LANE":" ","ALLEY":" ","HOUSE_NO":"７１號之１","E_COORD97":172892.34,"N_COORD97":2564905.4900000002,"ADDRESS":"光復路７１號之１","OBJECTID":209621},"geometry":{"x":172892.33999999985,"y":2564905.4900000002}},{"attributes":{"ID":209623,"DIS_CODE":0,"TOWNNAME":"麻豆區","LI":"穀興里","LIN":"9鄰","STREET":"光復路","SECT":" ","MAREA":" ","LANE":" ","ALLEY":" ","HOUSE_NO":"７１號","E_COORD97":172900.16,"N_COORD97":2564905.21,"ADDRESS":"光復路７１號","OBJECTID":209622},"geometry":{"x":172900.16000000108,"y":2564905.2100000046}},{"attributes":{"ID":209624,"DIS_CODE":0,"TOWNNAME":"麻豆區","LI":"穀興里","LIN":"9鄰","STREET":"光復路","SECT":" ","MAREA":" ","LANE":" ","ALLEY":" ","HOUSE_NO":"７３號","E_COORD97":172895.75,"N_COORD97":2564905.3599999999,"ADDRESS":"光復路７３號","OBJECTID":209623},"geometry":{"x":172895.75000000093,"y":2564905.3599999994}},{"attributes":{"ID":209625,"DIS_CODE":0,"TOWNNAME":"麻豆區","LI":"穀興里","LIN":"9鄰","STREET":"光復路","SECT":" ","MAREA":" ","LANE":" ","ALLEY":" ","HOUSE_NO":"７５號","E_COORD97":172887.32999999999,"N_COORD97":2564905.6699999999,"ADDRESS":"光復路７５號","OBJECTID":209624},"geometry":{"x":172887.33000000007,"y":2564905.6700000018}},{"attributes":{"ID":209626,"DIS_CODE":0,"TOWNNAME":"麻豆區","LI":"穀興里","LIN":"9鄰","STREET":"光復路","SECT":" ","MAREA":" ","LANE":" ","ALLEY":" ","HOUSE_NO":"８３號","E_COORD97":172873.39000000001,"N_COORD97":2564902.4300000002,"ADDRESS":"光復路８３號","OBJECTID":209625},"geometry":{"x":172873.38999999966,"y":2564902.4300000034}},{"attributes":{"ID":209627,"DIS_CODE":0,"TOWNNAME":"麻豆區","LI":"穀興里","LIN":"9鄰","STREET":"光復路","SECT":" ","MAREA":" ","LANE":" ","ALLEY":" ","HOUSE_NO":"８７號","E_COORD97":172857.29999999999,"N_COORD97":2564901.6499999999,"ADDRESS":"光復路８７號","OBJECTID":209626},"geometry":{"x":172857.29999999981,"y":2564901.6500000041}},{"attributes":{"ID":209628,"DIS_CODE":0,"TOWNNAME":"麻豆區","LI":"穀興里","LIN":"9鄰","STREET":"光復路","SECT":" ","MAREA":" ","LANE":" ","ALLEY":" ","HOUSE_NO":"８９號","E_COORD97":172853.34,"N_COORD97":2564901.4199999999,"ADDRESS":"光復路８９號","OBJECTID":209627},"geometry":{"x":172853.33999999985,"y":2564901.4199999999}},{"attributes":{"ID":209629,"DIS_CODE":0,"TOWNNAME":"麻豆區","LI":"海埔里","LIN":"2鄰","STREET":" ","SECT":" ","MAREA":"埤子尾","LANE":" ","ALLEY":" ","HOUSE_NO":"２３號之１１","E_COORD97":169756.48999999999,"N_COORD97":2566265.6600000001,"ADDRESS":"埤子尾２３號之１１","OBJECTID":209628},"geometry":{"x":169756.49000000115,"y":2566265.660000002}},{"attributes":{"ID":209630,"DIS_CODE":0,"TOWNNAME":"麻豆區","LI":"海埔里","LIN":"2鄰","STREET":" ","SECT":" ","MAREA":"埤子尾","LANE":" ","ALLEY":" ","HOUSE_NO":"２３號之１５","E_COORD97":169689.79000000001,"N_COORD97":2566569.6099999999,"ADDRESS":"埤子尾２３號之１５","OBJECTID":209629},"geometry":{"x":169689.79000000097,"y":2566569.6100000013}},{"attributes":{"ID":209631,"DIS_CODE":0,"TOWNNAME":"麻豆區","LI":"海埔里","LIN":"2鄰","STREET":" ","SECT":" ","MAREA":"埤子尾","LANE":" ","ALLEY":" ","HOUSE_NO":"２３號之１６","E_COORD97":169688.35000000001,"N_COORD97":2566564.5600000001,"ADDRESS":"埤子尾２３號之１６","OBJECTID":209630},"geometry":{"x":169688.34999999963,"y":2566564.5600000024}},{"attributes":{"ID":209632,"DIS_CODE":0,"TOWNNAME":"麻豆區","LI":"海埔里","LIN":"2鄰","STREET":" ","SECT":" ","MAREA":"埤子尾","LANE":" ","ALLEY":" ","HOUSE_NO":"２３號之１７","E_COORD97":169686.89999999999,"N_COORD97":2566559.5,"ADDRESS":"埤子尾２３號之１７","OBJECTID":209631},"geometry":{"x":169686.90000000037,"y":2566559.5}},{"attributes":{"ID":209633,"DIS_CODE":0,"TOWNNAME":"麻豆區","LI":"海埔里","LIN":"2鄰","STREET":" ","SECT":" ","MAREA":"埤子尾","LANE":" ","ALLEY":" ","HOUSE_NO":"２３號之１８","E_COORD97":169685.45999999999,"N_COORD97":2566554.4500000002,"ADDRESS":"埤子尾２３號之１８","OBJECTID":209632},"geometry":{"x":169685.46000000089,"y":2566554.4500000011}},{"attributes":{"ID":209634,"DIS_CODE":0,"TOWNNAME":"麻豆區","LI":"海埔里","LIN":"2鄰","STREET":" ","SECT":" ","MAREA":"埤子尾","LANE":" ","ALLEY":" ","HOUSE_NO":"２３號之１９","E_COORD97":169684.01999999999,"N_COORD97":2566549.3900000001,"ADDRESS":"埤子尾２３號之１９","OBJECTID":209633},"geometry":{"x":169684.01999999862,"y":2566549.3900000025}},{"attributes":{"ID":209635,"DIS_CODE":0,"TOWNNAME":"麻豆區","LI":"海埔里","LIN":"2鄰","STREET":" ","SECT":" ","MAREA":"埤子尾","LANE":" ","ALLEY":" ","HOUSE_NO":"２３號之１","E_COORD97":169705.67999999999,"N_COORD97":2566580.7799999998,"ADDRESS":"埤子尾２３號之１","OBJECTID":209634},"geometry":{"x":169705.68000000063,"y":2566580.7799999993}},{"attributes":{"ID":209636,"DIS_CODE":0,"TOWNNAME":"麻豆區","LI":"海埔里","LIN":"2鄰","STREET":" ","SECT":" ","MAREA":"埤子尾","LANE":" ","ALLEY":" ","HOUSE_NO":"２３號之２０","E_COORD97":169682.57000000001,"N_COORD97":2566544.3399999999,"ADDRESS":"埤子尾２３號之２０","OBJECTID":209635},"geometry":{"x":169682.5700000003,"y":2566544.3400000036}},{"attributes":{"ID":209637,"DIS_CODE":0,"TOWNNAME":"麻豆區","LI":"海埔里","LIN":"2鄰","STREET":" ","SECT":" ","MAREA":"埤子尾","LANE":" ","ALLEY":" ","HOUSE_NO":"２３號之２１","E_COORD97":169681.13,"N_COORD97":2566539.2799999998,"ADDRESS":"埤子尾２３號之２１","OBJECTID":209636},"geometry":{"x":169681.13000000082,"y":2566539.2799999993}},{"attributes":{"ID":209638,"DIS_CODE":0,"TOWNNAME":"麻豆區","LI":"海埔里","LIN":"2鄰","STREET":" ","SECT":" ","MAREA":"埤子尾","LANE":" ","ALLEY":" ","HOUSE_NO":"２３號之２２","E_COORD97":169702.81,"N_COORD97":2566532,"ADDRESS":"埤子尾２３號之２２","OBJECTID":209637},"geometry":{"x":169702.81000000052,"y":2566532}},{"attributes":{"ID":209639,"DIS_CODE":0,"TOWNNAME":"永康區","LI":"二王里","LIN":"42鄰","STREET":"中山南路","SECT":" ","MAREA":" ","LANE":"３１６巷","ALLEY":"３２弄","HOUSE_NO":"１７號","E_COORD97":172055.89999999999,"N_COORD97":2546079.9500000002,"ADDRESS":"中山南路３１６巷３２弄１７號","OBJECTID":209638},"geometry":{"x":172055.9000000013,"y":2546079.9500000011}},{"attributes":{"ID":209640,"DIS_CODE":0,"TOWNNAME":"永康區","LI":"二王里","LIN":"42鄰","STREET":"中山南路","SECT":" ","MAREA":" ","LANE":"３１６巷","ALLEY":"３２弄","HOUSE_NO":"１０號","E_COORD97":172043.54999999999,"N_COORD97":2546097.46,"ADDRESS":"中山南路３１６巷３２弄１０號","OBJECTID":209639},"geometry":{"x":172043.54999999981,"y":2546097.4600000028}},{"attributes":{"ID":209641,"DIS_CODE":0,"TOWNNAME":"永康區","LI":"二王里","LIN":"42鄰","STREET":"中山南路","SECT":" ","MAREA":" ","LANE":"３１６巷","ALLEY":"３２弄","HOUSE_NO":"２５號","E_COORD97":172056.91,"N_COORD97":2546051.2000000002,"ADDRESS":"中山南路３１６巷３２弄２５號","OBJECTID":209640},"geometry":{"x":172056.91000000015,"y":2546051.2000000011}},{"attributes":{"ID":209642,"DIS_CODE":0,"TOWNNAME":"永康區","LI":"二王里","LIN":"42鄰","STREET":"中山南路","SECT":" ","MAREA":" ","LANE":"３１６巷","ALLEY":"３２弄","HOUSE_NO":"２７號","E_COORD97":172061.09,"N_COORD97":2546050.9500000002,"ADDRESS":"中山南路３１６巷３２弄２７號","OBJECTID":209641},"geometry":{"x":172061.09000000078,"y":2546050.9499999993}},{"attributes":{"ID":209643,"DIS_CODE":0,"TOWNNAME":"永康區","LI":"二王里","LIN":"42鄰","STREET":"中山南路","SECT":" ","MAREA":" ","LANE":"３１６巷","ALLEY":"３２弄","HOUSE_NO":"１５號","E_COORD97":172056.23000000001,"N_COORD97":2546083.7000000002,"ADDRESS":"中山南路３１６巷３２弄１５號","OBJECTID":209642},"geometry":{"x":172056.23000000045,"y":2546083.700000003}},{"attributes":{"ID":209644,"DIS_CODE":0,"TOWNNAME":"永康區","LI":"二王里","LIN":"42鄰","STREET":"中山南路","SECT":" ","MAREA":" ","LANE":"３１６巷","ALLEY":"３２弄","HOUSE_NO":"９號","E_COORD97":172055.78,"N_COORD97":2546095.71,"ADDRESS":"中山南路３１６巷３２弄９號","OBJECTID":209643},"geometry":{"x":172055.78000000026,"y":2546095.7100000028}},{"attributes":{"ID":209645,"DIS_CODE":0,"TOWNNAME":"永康區","LI":"二王里","LIN":"42鄰","STREET":"中山南路","SECT":" ","MAREA":" ","LANE":"３１６巷","ALLEY":"３２弄","HOUSE_NO":"２８號","E_COORD97":172040.04000000001,"N_COORD97":2546059.9500000002,"ADDRESS":"中山南路３１６巷３２弄２８號","OBJECTID":209644},"geometry":{"x":172040.04000000004,"y":2546059.9499999993}},{"attributes":{"ID":209646,"DIS_CODE":0,"TOWNNAME":"永康區","LI":"二王里","LIN":"42鄰","STREET":"中山南路","SECT":" ","MAREA":" ","LANE":"３１６巷","ALLEY":"３２弄","HOUSE_NO":"２４號","E_COORD97":172040.39000000001,"N_COORD97":2546069.2000000002,"ADDRESS":"中山南路３１６巷３２弄２４號","OBJECTID":209645},"geometry":{"x":172040.3900000006,"y":2546069.1999999993}},{"attributes":{"ID":209647,"DIS_CODE":0,"TOWNNAME":"永康區","LI":"二王里","LIN":"42鄰","STREET":"中山南路","SECT":" ","MAREA":" ","LANE":"３１６巷","ALLEY":"３２弄","HOUSE_NO":"１６號","E_COORD97":172041.54000000001,"N_COORD97":2546084.9500000002,"ADDRESS":"中山南路３１６巷３２弄１６號","OBJECTID":209646},"geometry":{"x":172041.54000000097,"y":2546084.9499999974}},{"attributes":{"ID":209648,"DIS_CODE":0,"TOWNNAME":"麻豆區","LI":"海埔里","LIN":"2鄰","STREET":" ","SECT":" ","MAREA":"埤子尾","LANE":" ","ALLEY":" ","HOUSE_NO":"２３號之２３","E_COORD97":169704.22,"N_COORD97":2566537.1800000002,"ADDRESS":"埤子尾２３號之２３","OBJECTID":209647},"geometry":{"x":169704.21999999974,"y":2566537.1799999997}},{"attributes":{"ID":209649,"DIS_CODE":0,"TOWNNAME":"麻豆區","LI":"海埔里","LIN":"2鄰","STREET":" ","SECT":" ","MAREA":"埤子尾","LANE":" ","ALLEY":" ","HOUSE_NO":"２３號之２５","E_COORD97":169705.64000000001,"N_COORD97":2566542.3500000001,"ADDRESS":"埤子尾２３號之２５","OBJECTID":209648},"geometry":{"x":169705.6400000006,"y":2566542.3499999996}},{"attributes":{"ID":209650,"DIS_CODE":0,"TOWNNAME":"麻豆區","LI":"海埔里","LIN":"2鄰","STREET":" ","SECT":" ","MAREA":"埤子尾","LANE":" ","ALLEY":" ","HOUSE_NO":"２３號之２６","E_COORD97":169707.04999999999,"N_COORD97":2566547.5299999998,"ADDRESS":"埤子尾２３號之２６","OBJECTID":209649},"geometry":{"x":169707.05000000075,"y":2566547.5299999993}},{"attributes":{"ID":209651,"DIS_CODE":0,"TOWNNAME":"仁德區","LI":"後壁里","LIN":"42鄰","STREET":"德崙路","SECT":" ","MAREA":" ","LANE":"４８巷","ALLEY":"１２弄","HOUSE_NO":"６號","E_COORD97":173278.35000000001,"N_COORD97":2538536.52,"ADDRESS":"德崙路４８巷１２弄６號","OBJECTID":209650},"geometry":{"x":173278.34999999963,"y":2538536.5199999996}},{"attributes":{"ID":209652,"DIS_CODE":0,"TOWNNAME":"永康區","LI":"成功里","LIN":"42鄰","STREET":"中華路","SECT":" ","MAREA":" ","LANE":"１５４巷","ALLEY":"１８弄","HOUSE_NO":"３７號","E_COORD97":171771.64999999999,"N_COORD97":2544861.5,"ADDRESS":"中華路１５４巷１８弄３７號","OBJECTID":209651},"geometry":{"x":171771.6500000013,"y":2544861.4999999981}},{"attributes":{"ID":209653,"DIS_CODE":0,"TOWNNAME":"永康區","LI":"成功里","LIN":"42鄰","STREET":"中華路","SECT":" ","MAREA":" ","LANE":"１５４巷","ALLEY":"１８弄","HOUSE_NO":"２７號","E_COORD97":171750.70999999999,"N_COORD97":2544863.5,"ADDRESS":"中華路１５４巷１８弄２７號","OBJECTID":209652},"geometry":{"x":171750.70999999996,"y":2544863.5}},{"attributes":{"ID":209654,"DIS_CODE":0,"TOWNNAME":"永康區","LI":"二王里","LIN":"42鄰","STREET":"中山南路","SECT":" ","MAREA":" ","LANE":"３１６巷","ALLEY":"２６弄","HOUSE_NO":"２５號","E_COORD97":172016.54000000001,"N_COORD97":2546064.2000000002,"ADDRESS":"中山南路３１６巷２６弄２５號","OBJECTID":209653},"geometry":{"x":172016.54000000004,"y":2546064.2000000011}},{"attributes":{"ID":209655,"DIS_CODE":0,"TOWNNAME":"永康區","LI":"二王里","LIN":"42鄰","STREET":"中山南路","SECT":" ","MAREA":" ","LANE":"３１６巷","ALLEY":"２６弄","HOUSE_NO":"３６號","E_COORD97":172006.07999999999,"N_COORD97":2546066.9500000002,"ADDRESS":"中山南路３１６巷２６弄３６號","OBJECTID":209654},"geometry":{"x":172006.08000000007,"y":2546066.9499999993}},{"attributes":{"ID":209656,"DIS_CODE":0,"TOWNNAME":"永康區","LI":"龍潭里","LIN":"42鄰","STREET":"永明街","SECT":" ","MAREA":" ","LANE":"３０２巷","ALLEY":"１７弄","HOUSE_NO":"１號","E_COORD97":174548.48000000001,"N_COORD97":2547083.7400000002,"ADDRESS":"永明街３０２巷１７弄１號","OBJECTID":209655},"geometry":{"x":174548.48000000045,"y":2547083.7400000002}},{"attributes":{"ID":209657,"DIS_CODE":0,"TOWNNAME":"仁德區","LI":"後壁里","LIN":"42鄰","STREET":"德崙路","SECT":" ","MAREA":" ","LANE":"４８巷","ALLEY":"１２弄","HOUSE_NO":"７號","E_COORD97":173252.66,"N_COORD97":2538533.2200000002,"ADDRESS":"德崙路４８巷１２弄７號","OBJECTID":209656},"geometry":{"x":173252.66000000108,"y":2538533.2200000007}},{"attributes":{"ID":209658,"DIS_CODE":0,"TOWNNAME":"永康區","LI":"勝利里","LIN":"24鄰","STREET":"勝利街","SECT":" ","MAREA":" ","LANE":" ","ALLEY":" ","HOUSE_NO":"９２之６號","E_COORD97":171371.70999999999,"N_COORD97":2544783.0099999998,"ADDRESS":"勝利街９２之６號","OBJECTID":209657},"geometry":{"x":171371.71000000183,"y":2544783.0099999998}},{"attributes":{"ID":209659,"DIS_CODE":0,"TOWNNAME":"麻豆區","LI":"海埔里","LIN":"2鄰","STREET":" ","SECT":" ","MAREA":"埤子尾","LANE":" ","ALLEY":" ","HOUSE_NO":"２３號","E_COORD97":169711.56,"N_COORD97":2566596.6400000001,"ADDRESS":"埤子尾２３號","OBJECTID":209658},"geometry":{"x":169711.56000000052,"y":2566596.6400000006}},{"attributes":{"ID":209660,"DIS_CODE":0,"TOWNNAME":"麻豆區","LI":"海埔里","LIN":"2鄰","STREET":" ","SECT":" ","MAREA":"埤子尾","LANE":" ","ALLEY":" ","HOUSE_NO":"２４號","E_COORD97":169711.04000000001,"N_COORD97":2566643.73,"ADDRESS":"埤子尾２４號","OBJECTID":209659},"geometry":{"x":169711.04000000004,"y":2566643.7300000042}},{"attributes":{"ID":209661,"DIS_CODE":0,"TOWNNAME":"麻豆區","LI":"海埔里","LIN":"2鄰","STREET":" ","SECT":" ","MAREA":"埤子尾","LANE":" ","ALLEY":" ","HOUSE_NO":"２５號之１０","E_COORD97":169640.95999999999,"N_COORD97":2566616.8500000001,"ADDRESS":"埤子尾２５號之１０","OBJECTID":209660},"geometry":{"x":169640.96000000183,"y":2566616.8499999996}},{"attributes":{"ID":209662,"DIS_CODE":0,"TOWNNAME":"麻豆區","LI":"海埔里","LIN":"2鄰","STREET":" ","SECT":" ","MAREA":"埤子尾","LANE":" ","ALLEY":" ","HOUSE_NO":"２５號之１１","E_COORD97":169639.89000000001,"N_COORD97":2566612.75,"ADDRESS":"埤子尾２５號之１１","OBJECTID":209661},"geometry":{"x":169639.8900000006,"y":2566612.7500000037}},{"attributes":{"ID":209663,"DIS_CODE":0,"TOWNNAME":"麻豆區","LI":"海埔里","LIN":"2鄰","STREET":" ","SECT":" ","MAREA":"埤子尾","LANE":" ","ALLEY":" ","HOUSE_NO":"２５號之１２","E_COORD97":169666.42999999999,"N_COORD97":2566626.5299999998,"ADDRESS":"埤子尾２５號之１２","OBJECTID":209662},"geometry":{"x":169666.43000000063,"y":2566626.5299999993}},{"attributes":{"ID":209664,"DIS_CODE":0,"TOWNNAME":"麻豆區","LI":"海埔里","LIN":"2鄰","STREET":" ","SECT":" ","MAREA":"埤子尾","LANE":" ","ALLEY":" ","HOUSE_NO":"２５號之１３","E_COORD97":169664,"N_COORD97":2566617.5299999998,"ADDRESS":"埤子尾２５號之１３","OBJECTID":209663},"geometry":{"x":169664,"y":2566617.5300000012}},{"attributes":{"ID":209665,"DIS_CODE":0,"TOWNNAME":"麻豆區","LI":"海埔里","LIN":"2鄰","STREET":" ","SECT":" ","MAREA":"埤子尾","LANE":" ","ALLEY":" ","HOUSE_NO":"２５號之１４","E_COORD97":169661.57000000001,"N_COORD97":2566608.5299999998,"ADDRESS":"埤子尾２５號之１４","OBJECTID":209664},"geometry":{"x":169661.57000000123,"y":2566608.5299999993}},{"attributes":{"ID":209666,"DIS_CODE":0,"TOWNNAME":"麻豆區","LI":"海埔里","LIN":"2鄰","STREET":" ","SECT":" ","MAREA":"埤子尾","LANE":" ","ALLEY":" ","HOUSE_NO":"２５號之５","E_COORD97":169646.14999999999,"N_COORD97":2566636.8900000001,"ADDRESS":"埤子尾２５號之５","OBJECTID":209665},"geometry":{"x":169646.15000000037,"y":2566636.8900000025}},{"attributes":{"ID":209667,"DIS_CODE":0,"TOWNNAME":"善化區","LI":"嘉北里","LIN":"2鄰","STREET":" ","SECT":" ","MAREA":"茄拔","LANE":" ","ALLEY":" ","HOUSE_NO":"９號之２","E_COORD97":181167.75,"N_COORD97":2560068.02,"ADDRESS":"茄拔９號之２","OBJECTID":209666},"geometry":{"x":181167.75,"y":2560068.0200000014}},{"attributes":{"ID":209668,"DIS_CODE":0,"TOWNNAME":"善化區","LI":"東昌里","LIN":"2鄰","STREET":" ","SECT":" ","MAREA":"東勢寮","LANE":" ","ALLEY":" ","HOUSE_NO":"１５號之２","E_COORD97":180861.01999999999,"N_COORD97":2561763.77,"ADDRESS":"東勢寮１５號之２","OBJECTID":209667},"geometry":{"x":180861.02000000048,"y":2561763.7700000033}},{"attributes":{"ID":209669,"DIS_CODE":0,"TOWNNAME":"善化區","LI":"胡家里","LIN":"2鄰","STREET":" ","SECT":" ","MAREA":"胡厝寮","LANE":" ","ALLEY":" ","HOUSE_NO":"１４號之３","E_COORD97":175602.87,"N_COORD97":2560709.52,"ADDRESS":"胡厝寮１４號之３","OBJECTID":209668},"geometry":{"x":175602.87000000011,"y":2560709.5199999996}},{"attributes":{"ID":209670,"DIS_CODE":0,"TOWNNAME":"善化區","LI":"嘉北里","LIN":"2鄰","STREET":" ","SECT":" ","MAREA":"茄拔","LANE":" ","ALLEY":" ","HOUSE_NO":"１１號之４","E_COORD97":181238.39999999999,"N_COORD97":2559993.27,"ADDRESS":"茄拔１１號之４","OBJECTID":209669},"geometry":{"x":181238.39999999944,"y":2559993.2699999996}},{"attributes":{"ID":209671,"DIS_CODE":0,"TOWNNAME":"六甲區","LI":"甲東里","LIN":"9鄰","STREET":"曾文街","SECT":" ","MAREA":" ","LANE":" ","ALLEY":" ","HOUSE_NO":"５１號","E_COORD97":184089.03,"N_COORD97":2570249.7400000002,"ADDRESS":"曾文街５１號","OBJECTID":209670},"geometry":{"x":184089.03000000119,"y":2570249.7400000002}},{"attributes":{"ID":209672,"DIS_CODE":0,"TOWNNAME":"六甲區","LI":"菁埔里","LIN":"9鄰","STREET":" ","SECT":" ","MAREA":"菁埔寮","LANE":" ","ALLEY":" ","HOUSE_NO":"１００號之２","E_COORD97":177470.64000000001,"N_COORD97":2570086.4399999999,"ADDRESS":"菁埔寮１００號之２","OBJECTID":209671},"geometry":{"x":177470.63999999966,"y":2570086.4400000013}},{"attributes":{"ID":209673,"DIS_CODE":0,"TOWNNAME":"六甲區","LI":"菁埔里","LIN":"9鄰","STREET":" ","SECT":" ","MAREA":"菁埔寮","LANE":" ","ALLEY":" ","HOUSE_NO":"１００號","E_COORD97":177472.31,"N_COORD97":2570106.1299999999,"ADDRESS":"菁埔寮１００號","OBJECTID":209672},"geometry":{"x":177472.31000000052,"y":2570106.1300000008}},{"attributes":{"ID":209674,"DIS_CODE":0,"TOWNNAME":"六甲區","LI":"菁埔里","LIN":"9鄰","STREET":" ","SECT":" ","MAREA":"菁埔寮","LANE":" ","ALLEY":" ","HOUSE_NO":"１０１號","E_COORD97":177491.89999999999,"N_COORD97":2570091.0499999998,"ADDRESS":"菁埔寮１０１號","OBJECTID":209673},"geometry":{"x":177491.90000000037,"y":2570091.0500000026}},{"attributes":{"ID":209675,"DIS_CODE":0,"TOWNNAME":"六甲區","LI":"菁埔里","LIN":"9鄰","STREET":" ","SECT":" ","MAREA":"菁埔寮","LANE":" ","ALLEY":" ","HOUSE_NO":"１０２號","E_COORD97":177494.09,"N_COORD97":2570105.0099999998,"ADDRESS":"菁埔寮１０２號","OBJECTID":209674},"geometry":{"x":177494.09000000078,"y":2570105.0099999998}},{"attributes":{"ID":209676,"DIS_CODE":0,"TOWNNAME":"六甲區","LI":"菁埔里","LIN":"9鄰","STREET":" ","SECT":" ","MAREA":"菁埔寮","LANE":" ","ALLEY":" ","HOUSE_NO":"１０７號","E_COORD97":177396.32000000001,"N_COORD97":2570277.3500000001,"ADDRESS":"菁埔寮１０７號","OBJECTID":209675},"geometry":{"x":177396.32000000123,"y":2570277.3500000015}},{"attributes":{"ID":209677,"DIS_CODE":0,"TOWNNAME":"六甲區","LI":"菁埔里","LIN":"9鄰","STREET":" ","SECT":" ","MAREA":"菁埔寮","LANE":" ","ALLEY":" ","HOUSE_NO":"２６號","E_COORD97":177505.67000000001,"N_COORD97":2570067.1600000001,"ADDRESS":"菁埔寮２６號","OBJECTID":209676},"geometry":{"x":177505.67000000086,"y":2570067.1600000001}},{"attributes":{"ID":209678,"DIS_CODE":0,"TOWNNAME":"六甲區","LI":"菁埔里","LIN":"9鄰","STREET":" ","SECT":" ","MAREA":"菁埔寮","LANE":" ","ALLEY":" ","HOUSE_NO":"４０號","E_COORD97":177504.25,"N_COORD97":2570019.8799999999,"ADDRESS":"菁埔寮４０號","OBJECTID":209677},"geometry":{"x":177504.25,"y":2570019.879999999}},{"attributes":{"ID":209679,"DIS_CODE":0,"TOWNNAME":"歸仁區","LI":"大廟里","LIN":"18鄰","STREET":"大廟五街","SECT":" ","MAREA":" ","LANE":"２７巷","ALLEY":"６弄","HOUSE_NO":"６號","E_COORD97":175891.78,"N_COORD97":2544238.0899999999,"ADDRESS":"大廟五街２７巷６弄６號","OBJECTID":209678},"geometry":{"x":175891.78000000026,"y":2544238.0900000017}},{"attributes":{"ID":209680,"DIS_CODE":0,"TOWNNAME":"佳里區","LI":"安西里","LIN":"42鄰","STREET":"安西路","SECT":" ","MAREA":" ","LANE":"９３巷","ALLEY":"３０弄","HOUSE_NO":"１０號","E_COORD97":165033.95999999999,"N_COORD97":2562426.3999999999,"ADDRESS":"安西路９３巷３０弄１０號","OBJECTID":209679},"geometry":{"x":165033.96000000089,"y":2562426.4000000022}},{"attributes":{"ID":209681,"DIS_CODE":0,"TOWNNAME":"六甲區","LI":"菁埔里","LIN":"9鄰","STREET":" ","SECT":" ","MAREA":"菁埔寮","LANE":" ","ALLEY":" ","HOUSE_NO":"４１號","E_COORD97":177494.41,"N_COORD97":2570015.8900000001,"ADDRESS":"菁埔寮４１號","OBJECTID":209680},"geometry":{"x":177494.41000000015,"y":2570015.8900000006}},{"attributes":{"ID":209682,"DIS_CODE":0,"TOWNNAME":"新營區","LI":"新南里","LIN":"9鄰","STREET":"新北五街","SECT":" ","MAREA":" ","LANE":" ","ALLEY":" ","HOUSE_NO":"１５５號","E_COORD97":178554.64000000001,"N_COORD97":2579180.9700000002,"ADDRESS":"新北五街１５５號","OBJECTID":209681},"geometry":{"x":178554.6400000006,"y":2579180.9700000025}},{"attributes":{"ID":209683,"DIS_CODE":0,"TOWNNAME":"新營區","LI":"民榮里","LIN":"9鄰","STREET":"新進路","SECT":"二段","MAREA":" ","LANE":" ","ALLEY":" ","HOUSE_NO":"１４４號","E_COORD97":179346.57999999999,"N_COORD97":2577740.7999999998,"ADDRESS":"新進路二段１４４號","OBJECTID":209682},"geometry":{"x":179346.58000000007,"y":2577740.8000000026}},{"attributes":{"ID":209684,"DIS_CODE":0,"TOWNNAME":"麻豆區","LI":"安業里","LIN":"9鄰","STREET":" ","SECT":" ","MAREA":"安業","LANE":" ","ALLEY":" ","HOUSE_NO":"１７３號","E_COORD97":172571.76000000001,"N_COORD97":2561992.0299999998,"ADDRESS":"安業１７３號","OBJECTID":209683},"geometry":{"x":172571.76000000071,"y":2561992.0299999993}},{"attributes":{"ID":209685,"DIS_CODE":0,"TOWNNAME":"新營區","LI":"土庫里","LIN":"9鄰","STREET":" ","SECT":" ","MAREA":"土庫","LANE":" ","ALLEY":" ","HOUSE_NO":"７３號","E_COORD97":183111.85999999999,"N_COORD97":2579810.8599999999,"ADDRESS":"土庫７３號","OBJECTID":209684},"geometry":{"x":183111.8599999994,"y":2579810.8600000013}},{"attributes":{"ID":209686,"DIS_CODE":0,"TOWNNAME":"佳里區","LI":"安西里","LIN":"42鄰","STREET":"安西路","SECT":" ","MAREA":" ","LANE":"９３巷","ALLEY":"３０弄","HOUSE_NO":"１２號","E_COORD97":165039,"N_COORD97":2562426.1499999999,"ADDRESS":"安西路９３巷３０弄１２號","OBJECTID":209685},"geometry":{"x":165039.00000000093,"y":2562426.1500000004}},{"attributes":{"ID":209687,"DIS_CODE":0,"TOWNNAME":"新營區","LI":"土庫里","LIN":"9鄰","STREET":" ","SECT":" ","MAREA":"土庫","LANE":" ","ALLEY":" ","HOUSE_NO":"７９號","E_COORD97":183132.13,"N_COORD97":2579770.8999999999,"ADDRESS":"土庫７９號","OBJECTID":209686},"geometry":{"x":183132.13000000082,"y":2579770.9000000022}},{"attributes":{"ID":209688,"DIS_CODE":0,"TOWNNAME":"新營區","LI":"新東里","LIN":"9鄰","STREET":"東泰二街","SECT":" ","MAREA":" ","LANE":" ","ALLEY":" ","HOUSE_NO":"２５號","E_COORD97":181217.56,"N_COORD97":2579551.54,"ADDRESS":"東泰二街２５號","OBJECTID":209687},"geometry":{"x":181217.55999999959,"y":2579551.540000001}},{"attributes":{"ID":209689,"DIS_CODE":0,"TOWNNAME":"佳里區","LI":"安西里","LIN":"42鄰","STREET":"安西路","SECT":" ","MAREA":" ","LANE":"９３巷","ALLEY":"３０弄","HOUSE_NO":"２號","E_COORD97":165015.41,"N_COORD97":2562426.46,"ADDRESS":"安西路９３巷３０弄２號","OBJECTID":209688},"geometry":{"x":165015.41000000108,"y":2562426.4600000028}},{"attributes":{"ID":209690,"DIS_CODE":0,"TOWNNAME":"新營區","LI":"護鎮里","LIN":"9鄰","STREET":" ","SECT":" ","MAREA":"後鎮","LANE":" ","ALLEY":" ","HOUSE_NO":"９７之１２號","E_COORD97":178958.5,"N_COORD97":2580767.1800000002,"ADDRESS":"後鎮９７之１２號","OBJECTID":209689},"geometry":{"x":178958.5,"y":2580767.1799999997}},{"attributes":{"ID":209691,"DIS_CODE":0,"TOWNNAME":"佳里區","LI":"安西里","LIN":"42鄰","STREET":"安西路","SECT":" ","MAREA":" ","LANE":"９３巷","ALLEY":"３０弄","HOUSE_NO":"４號","E_COORD97":165020.06,"N_COORD97":2562426.5,"ADDRESS":"安西路９３巷３０弄４號","OBJECTID":209690},"geometry":{"x":165020.05999999959,"y":2562426.5}},{"attributes":{"ID":209692,"DIS_CODE":0,"TOWNNAME":"新營區","LI":"土庫里","LIN":"9鄰","STREET":" ","SECT":" ","MAREA":"土庫","LANE":" ","ALLEY":" ","HOUSE_NO":"７９之２號","E_COORD97":183124.41,"N_COORD97":2579773.21,"ADDRESS":"土庫７９之２號","OBJECTID":209691},"geometry":{"x":183124.41000000015,"y":2579773.2100000028}},{"attributes":{"ID":209693,"DIS_CODE":0,"TOWNNAME":"佳里區","LI":"安西里","LIN":"42鄰","STREET":"安西路","SECT":" ","MAREA":" ","LANE":"９３巷","ALLEY":"３０弄","HOUSE_NO":"６號","E_COORD97":165024.76000000001,"N_COORD97":2562426.4199999999,"ADDRESS":"安西路９３巷３０弄６號","OBJECTID":209692},"geometry":{"x":165024.76000000071,"y":2562426.4199999999}},{"attributes":{"ID":209694,"DIS_CODE":0,"TOWNNAME":"佳里區","LI":"安西里","LIN":"42鄰","STREET":"安西路","SECT":" ","MAREA":" ","LANE":"９３巷","ALLEY":"３０弄","HOUSE_NO":"８號","E_COORD97":165029.48999999999,"N_COORD97":2562426.52,"ADDRESS":"安西路９３巷３０弄８號","OBJECTID":209693},"geometry":{"x":165029.49000000022,"y":2562426.5200000033}},{"attributes":{"ID":209695,"DIS_CODE":0,"TOWNNAME":"新營區","LI":"護鎮里","LIN":"9鄰","STREET":" ","SECT":" ","MAREA":"後鎮","LANE":" ","ALLEY":" ","HOUSE_NO":"９６之７號","E_COORD97":179122.70000000001,"N_COORD97":2580931.3999999999,"ADDRESS":"後鎮９６之７號","OBJECTID":209694},"geometry":{"x":179122.70000000112,"y":2580931.4000000004}},{"attributes":{"ID":209696,"DIS_CODE":0,"TOWNNAME":"佳里區","LI":"安西里","LIN":"42鄰","STREET":"安西路","SECT":" ","MAREA":" ","LANE":"９３巷","ALLEY":"８弄","HOUSE_NO":"１０號","E_COORD97":165079.25,"N_COORD97":2562436.96,"ADDRESS":"安西路９３巷８弄１０號","OBJECTID":209695},"geometry":{"x":165079.25000000093,"y":2562436.9600000009}},{"attributes":{"ID":209697,"DIS_CODE":0,"TOWNNAME":"新營區","LI":"護鎮里","LIN":"9鄰","STREET":" ","SECT":" ","MAREA":"後鎮","LANE":" ","ALLEY":" ","HOUSE_NO":"９７號","E_COORD97":179056.72,"N_COORD97":2580916.1499999999,"ADDRESS":"後鎮９７號","OBJECTID":209696},"geometry":{"x":179056.71999999974,"y":2580916.1500000004}},{"attributes":{"ID":209698,"DIS_CODE":0,"TOWNNAME":"佳里區","LI":"安西里","LIN":"42鄰","STREET":"安西路","SECT":" ","MAREA":" ","LANE":"９３巷","ALLEY":"８弄","HOUSE_NO":"１１號","E_COORD97":165056.06,"N_COORD97":2562437.7999999998,"ADDRESS":"安西路９３巷８弄１１號","OBJECTID":209697},"geometry":{"x":165056.06000000145,"y":2562437.8000000026}},{"attributes":{"ID":209699,"DIS_CODE":0,"TOWNNAME":"佳里區","LI":"安西里","LIN":"42鄰","STREET":"安西路","SECT":" ","MAREA":" ","LANE":"９３巷","ALLEY":"８弄","HOUSE_NO":"１２號","E_COORD97":165079.48999999999,"N_COORD97":2562441.29,"ADDRESS":"安西路９３巷８弄１２號","OBJECTID":209698},"geometry":{"x":165079.49000000115,"y":2562441.2900000028}},{"attributes":{"ID":209700,"DIS_CODE":0,"TOWNNAME":"新營區","LI":"土庫里","LIN":"9鄰","STREET":" ","SECT":" ","MAREA":"土庫","LANE":" ","ALLEY":" ","HOUSE_NO":"７７之１號","E_COORD97":183167.42000000001,"N_COORD97":2579782.98,"ADDRESS":"土庫７７之１號","OBJECTID":209699},"geometry":{"x":183167.42000000086,"y":2579782.9799999986}},{"attributes":{"ID":209701,"DIS_CODE":0,"TOWNNAME":"善化區","LI":"胡家里","LIN":"2鄰","STREET":" ","SECT":" ","MAREA":"胡厝寮","LANE":" ","ALLEY":" ","HOUSE_NO":"１４號之５","E_COORD97":175598.70999999999,"N_COORD97":2560695.77,"ADDRESS":"胡厝寮１４號之５","OBJECTID":209700},"geometry":{"x":175598.70999999996,"y":2560695.7700000033}},{"attributes":{"ID":209702,"DIS_CODE":0,"TOWNNAME":"善化區","LI":"東昌里","LIN":"2鄰","STREET":" ","SECT":" ","MAREA":"東勢寮","LANE":" ","ALLEY":" ","HOUSE_NO":"２６號","E_COORD97":180818.57999999999,"N_COORD97":2561806.5099999998,"ADDRESS":"東勢寮２６號","OBJECTID":209701},"geometry":{"x":180818.58000000101,"y":2561806.5100000035}},{"attributes":{"ID":209703,"DIS_CODE":0,"TOWNNAME":"善化區","LI":"胡家里","LIN":"2鄰","STREET":" ","SECT":" ","MAREA":"胡厝寮","LANE":" ","ALLEY":" ","HOUSE_NO":"１４號之２","E_COORD97":175589.59,"N_COORD97":2560693.02,"ADDRESS":"胡厝寮１４號之２","OBJECTID":209702},"geometry":{"x":175589.58999999985,"y":2560693.0199999996}},{"attributes":{"ID":209704,"DIS_CODE":0,"TOWNNAME":"佳里區","LI":"安西里","LIN":"42鄰","STREET":"安西路","SECT":" ","MAREA":" ","LANE":"９３巷","ALLEY":"８弄","HOUSE_NO":"１號","E_COORD97":165055.38,"N_COORD97":2562413.71,"ADDRESS":"安西路９３巷８弄１號","OBJECTID":209703},"geometry":{"x":165055.37999999989,"y":2562413.7100000028}},{"attributes":{"ID":209705,"DIS_CODE":0,"TOWNNAME":"善化區","LI":"胡家里","LIN":"2鄰","STREET":" ","SECT":" ","MAREA":"胡厝寮","LANE":" ","ALLEY":" ","HOUSE_NO":"１０號","E_COORD97":175503.54999999999,"N_COORD97":2560771.75,"ADDRESS":"胡厝寮１０號","OBJECTID":209704},"geometry":{"x":175503.54999999981,"y":2560771.7500000019}},{"attributes":{"ID":209706,"DIS_CODE":0,"TOWNNAME":"善化區","LI":"胡厝里","LIN":"2鄰","STREET":" ","SECT":" ","MAREA":"胡厝寮","LANE":" ","ALLEY":" ","HOUSE_NO":"１７３號","E_COORD97":175129.54999999999,"N_COORD97":2560589.75,"ADDRESS":"胡厝寮１７３號","OBJECTID":209705},"geometry":{"x":175129.55000000075,"y":2560589.75}},{"attributes":{"ID":209707,"DIS_CODE":0,"TOWNNAME":"善化區","LI":"田寮里","LIN":"2鄰","STREET":" ","SECT":" ","MAREA":"六分寮","LANE":" ","ALLEY":" ","HOUSE_NO":"２８號","E_COORD97":178419.66,"N_COORD97":2561314.25,"ADDRESS":"六分寮２８號","OBJECTID":209706},"geometry":{"x":178419.66000000108,"y":2561314.2500000019}},{"attributes":{"ID":209708,"DIS_CODE":0,"TOWNNAME":"善化區","LI":"光文里","LIN":"2鄰","STREET":" ","SECT":" ","MAREA":"北子店","LANE":" ","ALLEY":" ","HOUSE_NO":"２１號","E_COORD97":179683.70999999999,"N_COORD97":2559696.75,"ADDRESS":"北子店２１號","OBJECTID":209707},"geometry":{"x":179683.71000000089,"y":2559696.7500000019}},{"attributes":{"ID":209709,"DIS_CODE":0,"TOWNNAME":"新營區","LI":"護鎮里","LIN":"9鄰","STREET":" ","SECT":" ","MAREA":"後鎮","LANE":" ","ALLEY":" ","HOUSE_NO":"９７之８號","E_COORD97":179057.32999999999,"N_COORD97":2580949.4300000002,"ADDRESS":"後鎮９７之８號","OBJECTID":209708},"geometry":{"x":179057.33000000101,"y":2580949.4300000016}},{"attributes":{"ID":209710,"DIS_CODE":0,"TOWNNAME":"善化區","LI":"光文里","LIN":"2鄰","STREET":" ","SECT":" ","MAREA":"北子店","LANE":" ","ALLEY":" ","HOUSE_NO":"４６號","E_COORD97":179712.72,"N_COORD97":2559660.5,"ADDRESS":"北子店４６號","OBJECTID":209709},"geometry":{"x":179712.71999999974,"y":2559660.4999999981}},{"attributes":{"ID":209711,"DIS_CODE":0,"TOWNNAME":"善化區","LI":"光文里","LIN":"2鄰","STREET":" ","SECT":" ","MAREA":"北子店","LANE":" ","ALLEY":" ","HOUSE_NO":"８３號之１","E_COORD97":179544.43006499999,"N_COORD97":2559672.0628900002,"ADDRESS":"北子店８３號之１","OBJECTID":209710},"geometry":{"x":179544.43006500043,"y":2559672.0628860034}},{"attributes":{"ID":209712,"DIS_CODE":0,"TOWNNAME":"佳里區","LI":"安西里","LIN":"42鄰","STREET":"安西路","SECT":" ","MAREA":" ","LANE":"９３巷","ALLEY":"８弄","HOUSE_NO":"２０號","E_COORD97":165079.64999999999,"N_COORD97":2562472.5800000001,"ADDRESS":"安西路９３巷８弄２０號","OBJECTID":209711},"geometry":{"x":165079.65000000037,"y":2562472.5800000001}},{"attributes":{"ID":209713,"DIS_CODE":0,"TOWNNAME":"佳里區","LI":"安西里","LIN":"42鄰","STREET":"安西路","SECT":" ","MAREA":" ","LANE":"９３巷","ALLEY":"８弄","HOUSE_NO":"２２號","E_COORD97":165079.60000000001,"N_COORD97":2562477.9199999999,"ADDRESS":"安西路９３巷８弄２２號","OBJECTID":209712},"geometry":{"x":165079.60000000149,"y":2562477.9199999999}},{"attributes":{"ID":209714,"DIS_CODE":0,"TOWNNAME":"佳里區","LI":"安西里","LIN":"42鄰","STREET":"安西路","SECT":" ","MAREA":" ","LANE":"９３巷","ALLEY":"８弄","HOUSE_NO":"２４號","E_COORD97":165077.85999999999,"N_COORD97":2562483.9199999999,"ADDRESS":"安西路９３巷８弄２４號","OBJECTID":209713},"geometry":{"x":165077.86000000034,"y":2562483.9199999999}},{"attributes":{"ID":209715,"DIS_CODE":0,"TOWNNAME":"善化區","LI":"六德里","LIN":"2鄰","STREET":" ","SECT":" ","MAREA":"六分寮","LANE":" ","ALLEY":" ","HOUSE_NO":"２０７號之２","E_COORD97":178510.04999999999,"N_COORD97":2563157.77,"ADDRESS":"六分寮２０７號之２","OBJECTID":209714},"geometry":{"x":178510.05000000075,"y":2563157.7700000014}},{"attributes":{"ID":209716,"DIS_CODE":0,"TOWNNAME":"善化區","LI":"牛庄里","LIN":"2鄰","STREET":" ","SECT":" ","MAREA":"牛庄","LANE":" ","ALLEY":" ","HOUSE_NO":"２８號之２","E_COORD97":180400.22,"N_COORD97":2559918.27,"ADDRESS":"牛庄２８號之２","OBJECTID":209715},"geometry":{"x":180400.22000000067,"y":2559918.2699999996}},{"attributes":{"ID":209717,"DIS_CODE":0,"TOWNNAME":"善化區","LI":"光文里","LIN":"2鄰","STREET":" ","SECT":" ","MAREA":"北子店","LANE":" ","ALLEY":" ","HOUSE_NO":"８４號之１","E_COORD97":179630.97,"N_COORD97":2559656.02,"ADDRESS":"北子店８４號之１","OBJECTID":209716},"geometry":{"x":179630.97000000067,"y":2559656.0199999996}},{"attributes":{"ID":209718,"DIS_CODE":0,"TOWNNAME":"佳里區","LI":"安西里","LIN":"42鄰","STREET":"安西路","SECT":" ","MAREA":" ","LANE":"９３巷","ALLEY":"８弄","HOUSE_NO":"２６號","E_COORD97":165077.17000000001,"N_COORD97":2562491.1800000002,"ADDRESS":"安西路９３巷８弄２６號","OBJECTID":209717},"geometry":{"x":165077.16999999993,"y":2562491.1800000016}},{"attributes":{"ID":209719,"DIS_CODE":0,"TOWNNAME":"佳里區","LI":"安西里","LIN":"42鄰","STREET":"安西路","SECT":" ","MAREA":" ","LANE":"９３巷","ALLEY":"８弄","HOUSE_NO":"２８號","E_COORD97":165076.54000000001,"N_COORD97":2562498.6499999999,"ADDRESS":"安西路９３巷８弄２８號","OBJECTID":209718},"geometry":{"x":165076.54000000004,"y":2562498.6500000022}},{"attributes":{"ID":209720,"DIS_CODE":0,"TOWNNAME":"佳里區","LI":"安西里","LIN":"42鄰","STREET":"安西路","SECT":" ","MAREA":" ","LANE":"９３巷","ALLEY":"８弄","HOUSE_NO":"２號","E_COORD97":165078.48000000001,"N_COORD97":2562417.7400000002,"ADDRESS":"安西路９３巷８弄２號","OBJECTID":209719},"geometry":{"x":165078.48000000138,"y":2562417.7400000002}},{"attributes":{"ID":209721,"DIS_CODE":0,"TOWNNAME":"善化區","LI":"光文里","LIN":"2鄰","STREET":" ","SECT":" ","MAREA":"北子店","LANE":" ","ALLEY":" ","HOUSE_NO":"１０６號","E_COORD97":179567.10000000001,"N_COORD97":2559649.25,"ADDRESS":"北子店１０６號","OBJECTID":209720},"geometry":{"x":179567.10000000056,"y":2559649.2500000019}},{"attributes":{"ID":209722,"DIS_CODE":0,"TOWNNAME":"佳里區","LI":"安西里","LIN":"42鄰","STREET":"安西路","SECT":" ","MAREA":" ","LANE":"９３巷","ALLEY":"８弄","HOUSE_NO":"３號","E_COORD97":165054.97,"N_COORD97":2562418.1099999999,"ADDRESS":"安西路９３巷８弄３號","OBJECTID":209721},"geometry":{"x":165054.96999999881,"y":2562418.1099999994}},{"attributes":{"ID":209723,"DIS_CODE":0,"TOWNNAME":"佳里區","LI":"安西里","LIN":"42鄰","STREET":"安西路","SECT":" ","MAREA":" ","LANE":"９３巷","ALLEY":"８弄","HOUSE_NO":"４號","E_COORD97":165078.92999999999,"N_COORD97":2562422.98,"ADDRESS":"安西路９３巷８弄４號","OBJECTID":209722},"geometry":{"x":165078.92999999877,"y":2562422.9800000004}},{"attributes":{"ID":209724,"DIS_CODE":0,"TOWNNAME":"佳里區","LI":"安西里","LIN":"42鄰","STREET":"安西路","SECT":" ","MAREA":" ","LANE":"９３巷","ALLEY":"８弄","HOUSE_NO":"５號","E_COORD97":165055.47,"N_COORD97":2562423.1099999999,"ADDRESS":"安西路９３巷８弄５號","OBJECTID":209723},"geometry":{"x":165055.47000000067,"y":2562423.1100000013}},{"attributes":{"ID":209725,"DIS_CODE":0,"TOWNNAME":"善化區","LI":"牛庄里","LIN":"2鄰","STREET":" ","SECT":" ","MAREA":"牛庄","LANE":" ","ALLEY":" ","HOUSE_NO":"４７號之３","E_COORD97":180274.57000000001,"N_COORD97":2559891.52,"ADDRESS":"牛庄４７號之３","OBJECTID":209724},"geometry":{"x":180274.57000000123,"y":2559891.5200000014}},{"attributes":{"ID":209726,"DIS_CODE":0,"TOWNNAME":"善化區","LI":"光文里","LIN":"2鄰","STREET":" ","SECT":" ","MAREA":"北子店","LANE":" ","ALLEY":" ","HOUSE_NO":"８８號","E_COORD97":179620.32999999999,"N_COORD97":2559652.75,"ADDRESS":"北子店８８號","OBJECTID":209725},"geometry":{"x":179620.33000000101,"y":2559652.7500000019}},{"attributes":{"ID":209727,"DIS_CODE":0,"TOWNNAME":"善化區","LI":"光文里","LIN":"2鄰","STREET":" ","SECT":" ","MAREA":"北子店","LANE":" ","ALLEY":" ","HOUSE_NO":"７７號","E_COORD97":179555.10999999999,"N_COORD97":2559684.75,"ADDRESS":"北子店７７號","OBJECTID":209726},"geometry":{"x":179555.11000000034,"y":2559684.75}},{"attributes":{"ID":209728,"DIS_CODE":0,"TOWNNAME":"佳里區","LI":"安西里","LIN":"42鄰","STREET":"安西路","SECT":" ","MAREA":" ","LANE":"９３巷","ALLEY":"８弄","HOUSE_NO":"６號","E_COORD97":165079.13,"N_COORD97":2562427.1200000001,"ADDRESS":"安西路９３巷８弄６號","OBJECTID":209727},"geometry":{"x":165079.12999999989,"y":2562427.120000001}},{"attributes":{"ID":209729,"DIS_CODE":0,"TOWNNAME":"佳里區","LI":"安西里","LIN":"42鄰","STREET":"安西路","SECT":" ","MAREA":" ","LANE":"９３巷","ALLEY":"８弄","HOUSE_NO":"７號","E_COORD97":165055.48000000001,"N_COORD97":2562428.0699999998,"ADDRESS":"安西路９３巷８弄７號","OBJECTID":209728},"geometry":{"x":165055.48000000045,"y":2562428.0700000022}},{"attributes":{"ID":209730,"DIS_CODE":0,"TOWNNAME":"佳里區","LI":"安西里","LIN":"42鄰","STREET":"安西路","SECT":" ","MAREA":" ","LANE":"９３巷","ALLEY":"８弄","HOUSE_NO":"８號","E_COORD97":165078.67999999999,"N_COORD97":2562432.0800000001,"ADDRESS":"安西路９３巷８弄８號","OBJECTID":209729},"geometry":{"x":165078.6799999997,"y":2562432.0800000001}},{"attributes":{"ID":209731,"DIS_CODE":0,"TOWNNAME":"佳里區","LI":"安西里","LIN":"42鄰","STREET":"安西路","SECT":" ","MAREA":" ","LANE":"９３巷","ALLEY":"８弄","HOUSE_NO":"９號","E_COORD97":165055.54000000001,"N_COORD97":2562432.7599999998,"ADDRESS":"安西路９３巷８弄９號","OBJECTID":209730},"geometry":{"x":165055.54000000097,"y":2562432.7600000016}},{"attributes":{"ID":209732,"DIS_CODE":0,"TOWNNAME":"新營區","LI":"太北里","LIN":"2鄰","STREET":" ","SECT":" ","MAREA":"太子宮","LANE":" ","ALLEY":" ","HOUSE_NO":"１６號","E_COORD97":176134.57999999999,"N_COORD97":2577161.75,"ADDRESS":"太子宮１６號","OBJECTID":209731},"geometry":{"x":176134.58000000194,"y":2577161.7500000019}},{"attributes":{"ID":209733,"DIS_CODE":0,"TOWNNAME":"歸仁區","LI":"七甲里","LIN":"20鄰","STREET":"南潭三街","SECT":" ","MAREA":" ","LANE":"１６５巷","ALLEY":"３弄","HOUSE_NO":"７號","E_COORD97":176471.48000000001,"N_COORD97":2543266.0299999998,"ADDRESS":"南潭三街１６５巷３弄７號","OBJECTID":209732},"geometry":{"x":176471.48000000138,"y":2543266.0299999993}},{"attributes":{"ID":209734,"DIS_CODE":0,"TOWNNAME":"新化區","LI":"\u25A0拔里","LIN":"2鄰","STREET":" ","SECT":" ","MAREA":"\u25A0拔林","LANE":" ","ALLEY":" ","HOUSE_NO":"７８號","E_COORD97":183533.47,"N_COORD97":2552041.25,"ADDRESS":"\u25A0拔林７８號","OBJECTID":209733},"geometry":{"x":183533.47000000067,"y":2552041.2500000019}},{"attributes":{"ID":209735,"DIS_CODE":0,"TOWNNAME":"永康區","LI":"二王里","LIN":"42鄰","STREET":"中山南路","SECT":" ","MAREA":" ","LANE":"３１６巷","ALLEY":"２６弄","HOUSE_NO":"１號","E_COORD97":172027.32000000001,"N_COORD97":2546140.46,"ADDRESS":"中山南路３１６巷２６弄１號","OBJECTID":209734},"geometry":{"x":172027.32000000216,"y":2546140.4600000009}},{"attributes":{"ID":209736,"DIS_CODE":0,"TOWNNAME":"永康區","LI":"二王里","LIN":"42鄰","STREET":"中山南路","SECT":" ","MAREA":" ","LANE":"３１６巷","ALLEY":"２６弄","HOUSE_NO":"１０號","E_COORD97":172016.37,"N_COORD97":2546128.96,"ADDRESS":"中山南路３１６巷２６弄１０號","OBJECTID":209735},"geometry":{"x":172016.37000000011,"y":2546128.9600000028}},{"attributes":{"ID":209737,"DIS_CODE":0,"TOWNNAME":"永康區","LI":"二王里","LIN":"42鄰","STREET":"中山南路","SECT":" ","MAREA":" ","LANE":"３１６巷","ALLEY":"２６弄","HOUSE_NO":"５號","E_COORD97":172025.76000000001,"N_COORD97":2546127.21,"ADDRESS":"中山南路３１６巷２６弄５號","OBJECTID":209736},"geometry":{"x":172025.76000000071,"y":2546127.2100000028}},{"attributes":{"ID":209738,"DIS_CODE":0,"TOWNNAME":"仁德區","LI":"後壁里","LIN":"42鄰","STREET":"德崙路","SECT":" ","MAREA":" ","LANE":"４８巷","ALLEY":"１５弄","HOUSE_NO":"１１號","E_COORD97":173341.23999999999,"N_COORD97":2538493.0099999998,"ADDRESS":"德崙路４８巷１５弄１１號","OBJECTID":209737},"geometry":{"x":173341.24000000022,"y":2538493.0099999998}},{"attributes":{"ID":209739,"DIS_CODE":0,"TOWNNAME":"新營區","LI":"興安里","LIN":"9鄰","STREET":"新進路","SECT":" ","MAREA":" ","LANE":"２８１巷","ALLEY":" ","HOUSE_NO":"２號","E_COORD97":179953.01999999999,"N_COORD97":2577789.9700000002,"ADDRESS":"新進路２８１巷２號","OBJECTID":209738},"geometry":{"x":179953.01999999955,"y":2577789.9700000044}},{"attributes":{"ID":209740,"DIS_CODE":0,"TOWNNAME":"鹽水區","LI":"橋南里","LIN":"15鄰","STREET":"月津路","SECT":" ","MAREA":" ","LANE":" ","ALLEY":" ","HOUSE_NO":"３５號","E_COORD97":174990.56,"N_COORD97":2579409.4500000002,"ADDRESS":"月津路３５號","OBJECTID":209739},"geometry":{"x":174990.56000000052,"y":2579409.450000003}},{"attributes":{"ID":209741,"DIS_CODE":0,"TOWNNAME":"仁德區","LI":"後壁里","LIN":"42鄰","STREET":"德崙路","SECT":" ","MAREA":" ","LANE":"４８巷","ALLEY":"１５弄","HOUSE_NO":"１３號","E_COORD97":173344.88,"N_COORD97":2538490.0099999998,"ADDRESS":"德崙路４８巷１５弄１３號","OBJECTID":209740},"geometry":{"x":173344.87999999989,"y":2538490.0099999998}},{"attributes":{"ID":209742,"DIS_CODE":0,"TOWNNAME":"歸仁區","LI":"七甲里","LIN":"9鄰","STREET":"七甲一街","SECT":" ","MAREA":" ","LANE":" ","ALLEY":" ","HOUSE_NO":"８６號","E_COORD97":177658.19,"N_COORD97":2542536.6600000001,"ADDRESS":"七甲一街８６號","OBJECTID":209741},"geometry":{"x":177658.19000000134,"y":2542536.6600000001}},{"attributes":{"ID":209743,"DIS_CODE":0,"TOWNNAME":"歸仁區","LI":"文化里","LIN":"9鄰","STREET":"文化北二街","SECT":" ","MAREA":" ","LANE":" ","ALLEY":" ","HOUSE_NO":"１４０號","E_COORD97":177077.06,"N_COORD97":2541384.3399999999,"ADDRESS":"文化北二街１４０號","OBJECTID":209742},"geometry":{"x":177077.06000000052,"y":2541384.3400000036}},{"attributes":{"ID":209744,"DIS_CODE":0,"TOWNNAME":"歸仁區","LI":"大廟里","LIN":"9鄰","STREET":"大廟一街","SECT":" ","MAREA":" ","LANE":" ","ALLEY":" ","HOUSE_NO":"３１號","E_COORD97":175857.47,"N_COORD97":2544080.25,"ADDRESS":"大廟一街３１號","OBJECTID":209743},"geometry":{"x":175857.47000000067,"y":2544080.2500000037}},{"attributes":{"ID":209745,"DIS_CODE":0,"TOWNNAME":"歸仁區","LI":"大廟里","LIN":"9鄰","STREET":"大廟一街","SECT":" ","MAREA":" ","LANE":" ","ALLEY":" ","HOUSE_NO":"３７號","E_COORD97":175851.26999999999,"N_COORD97":2544067.25,"ADDRESS":"大廟一街３７號","OBJECTID":209744},"geometry":{"x":175851.27000000142,"y":2544067.2500000019}},{"attributes":{"ID":209746,"DIS_CODE":0,"TOWNNAME":"新化區","LI":"山\u25A0里","LIN":"2鄰","STREET":" ","SECT":" ","MAREA":"頂山\u25A0","LANE":" ","ALLEY":" ","HOUSE_NO":"５３號之２８","E_COORD97":179133.39000000001,"N_COORD97":2546645.2599999998,"ADDRESS":"頂山\u25A0５３號之２８","OBJECTID":209745},"geometry":{"x":179133.38999999966,"y":2546645.2599999998}},{"attributes":{"ID":209747,"DIS_CODE":0,"TOWNNAME":"新化區","LI":"山\u25A0里","LIN":"2鄰","STREET":" ","SECT":" ","MAREA":"頂山\u25A0","LANE":" ","ALLEY":" ","HOUSE_NO":"５４號之１３５","E_COORD97":179310.54000000001,"N_COORD97":2546119.2599999998,"ADDRESS":"頂山\u25A0５４號之１３５","OBJECTID":209746},"geometry":{"x":179310.54000000097,"y":2546119.2599999998}},{"attributes":{"ID":209748,"DIS_CODE":0,"TOWNNAME":"歸仁區","LI":"文化里","LIN":"9鄰","STREET":"民權北路","SECT":" ","MAREA":" ","LANE":" ","ALLEY":" ","HOUSE_NO":"１５２號","E_COORD97":177030.60000000001,"N_COORD97":2541365.3300000001,"ADDRESS":"民權北路１５２號","OBJECTID":209747},"geometry":{"x":177030.60000000149,"y":2541365.3300000019}},{"attributes":{"ID":209749,"DIS_CODE":0,"TOWNNAME":"新化區","LI":"山\u25A0里","LIN":"2鄰","STREET":" ","SECT":" ","MAREA":"頂山\u25A0","LANE":" ","ALLEY":" ","HOUSE_NO":"３８號","E_COORD97":179397.07999999999,"N_COORD97":2546690.25,"ADDRESS":"頂山\u25A0３８號","OBJECTID":209748},"geometry":{"x":179397.08000000007,"y":2546690.25}},{"attributes":{"ID":209750,"DIS_CODE":0,"TOWNNAME":"新化區","LI":"\u25A0拔里","LIN":"2鄰","STREET":" ","SECT":" ","MAREA":"\u25A0拔林","LANE":" ","ALLEY":" ","HOUSE_NO":"８７號之８","E_COORD97":183327.42999999999,"N_COORD97":2552164.2599999998,"ADDRESS":"\u25A0拔林８７號之８","OBJECTID":209749},"geometry":{"x":183327.4299999997,"y":2552164.2599999998}},{"attributes":{"ID":209751,"DIS_CODE":0,"TOWNNAME":"永康區","LI":"崑山里","LIN":"42鄰","STREET":"大灣路","SECT":" ","MAREA":" ","LANE":"９４２巷","ALLEY":"２８０弄","HOUSE_NO":"４２號","E_COORD97":173942.75,"N_COORD97":2545145.5600000001,"ADDRESS":"大灣路９４２巷２８０弄４２號","OBJECTID":209750},"geometry":{"x":173942.75,"y":2545145.5600000005}},{"attributes":{"ID":209752,"DIS_CODE":0,"TOWNNAME":"永康區","LI":"崑山里","LIN":"42鄰","STREET":"大灣路","SECT":" ","MAREA":" ","LANE":"９４２巷","ALLEY":"２８０弄","HOUSE_NO":"２４號","E_COORD97":173911.57999999999,"N_COORD97":2545156.0600000001,"ADDRESS":"大灣路９４２巷２８０弄２４號","OBJECTID":209751},"geometry":{"x":173911.58000000007,"y":2545156.0600000005}},{"attributes":{"ID":209753,"DIS_CODE":0,"TOWNNAME":"永康區","LI":"西灣里","LIN":"42鄰","STREET":"大灣路","SECT":" ","MAREA":" ","LANE":"９４２巷","ALLEY":"３７４弄","HOUSE_NO":"２２號","E_COORD97":174004.98999999999,"N_COORD97":2545399.1000000001,"ADDRESS":"大灣路９４２巷３７４弄２２號","OBJECTID":209752},"geometry":{"x":174004.99000000115,"y":2545399.0999999996}},{"attributes":{"ID":209754,"DIS_CODE":0,"TOWNNAME":"新化區","LI":"豐榮里","LIN":"2鄰","STREET":" ","SECT":" ","MAREA":"洋子","LANE":" ","ALLEY":" ","HOUSE_NO":"４５號","E_COORD97":178042.63,"N_COORD97":2548318.25,"ADDRESS":"洋子４５號","OBJECTID":209753},"geometry":{"x":178042.62999999896,"y":2548318.2500000037}},{"attributes":{"ID":209755,"DIS_CODE":0,"TOWNNAME":"仁德區","LI":"仁德里","LIN":"42鄰","STREET":"中山路","SECT":" ","MAREA":" ","LANE":"８７０巷","ALLEY":"２２１弄","HOUSE_NO":"２２號","E_COORD97":171999.64999999999,"N_COORD97":2542226.9900000002,"ADDRESS":"中山路８７０巷２２１弄２２號","OBJECTID":209754},"geometry":{"x":171999.64999999944,"y":2542226.9900000002}},{"attributes":{"ID":209756,"DIS_CODE":0,"TOWNNAME":"玉井區","LI":"玉田里","LIN":"42鄰","STREET":"仁愛街","SECT":" ","MAREA":" ","LANE":"１８０巷","ALLEY":"２弄","HOUSE_NO":"１２號","E_COORD97":195417.84,"N_COORD97":2557859.27,"ADDRESS":"仁愛街１８０巷２弄１２號","OBJECTID":209755},"geometry":{"x":195417.83999999985,"y":2557859.2700000014}},{"attributes":{"ID":209757,"DIS_CODE":0,"TOWNNAME":"玉井區","LI":"玉田里","LIN":"42鄰","STREET":"仁愛街","SECT":" ","MAREA":" ","LANE":"１８０巷","ALLEY":"２弄","HOUSE_NO":"７號","E_COORD97":195434.48000000001,"N_COORD97":2557863.27,"ADDRESS":"仁愛街１８０巷２弄７號","OBJECTID":209756},"geometry":{"x":195434.48000000045,"y":2557863.2699999996}},{"attributes":{"ID":209758,"DIS_CODE":0,"TOWNNAME":"玉井區","LI":"玉田里","LIN":"42鄰","STREET":"仁愛街","SECT":" ","MAREA":" ","LANE":"１８０巷","ALLEY":"２弄","HOUSE_NO":"１３號","E_COORD97":195435.42999999999,"N_COORD97":2557852.27,"ADDRESS":"仁愛街１８０巷２弄１３號","OBJECTID":209757},"geometry":{"x":195435.43000000063,"y":2557852.2700000014}},{"attributes":{"ID":209759,"DIS_CODE":0,"TOWNNAME":"東山區","LI":"大客里","LIN":"9鄰","STREET":" ","SECT":" ","MAREA":"大庄","LANE":" ","ALLEY":" ","HOUSE_NO":"６４號","E_COORD97":189779.82999999999,"N_COORD97":2578993.8399999999,"ADDRESS":"大庄６４號","OBJECTID":209758},"geometry":{"x":189779.83000000101,"y":2578993.8400000017}},{"attributes":{"ID":209760,"DIS_CODE":0,"TOWNNAME":"玉井區","LI":"玉田里","LIN":"42鄰","STREET":"仁愛街","SECT":" ","MAREA":" ","LANE":"１８０巷","ALLEY":"２弄","HOUSE_NO":"１８號","E_COORD97":195418.03,"N_COORD97":2557852.27,"ADDRESS":"仁愛街１８０巷２弄１８號","OBJECTID":209759},"geometry":{"x":195418.03000000119,"y":2557852.2700000014}},{"attributes":{"ID":209761,"DIS_CODE":0,"TOWNNAME":"新化區","LI":"山\u25A0里","LIN":"2鄰","STREET":" ","SECT":" ","MAREA":"頂山\u25A0","LANE":" ","ALLEY":" ","HOUSE_NO":"５４號之１１０","E_COORD97":179239.12,"N_COORD97":2546165.2599999998,"ADDRESS":"頂山\u25A0５４號之１１０","OBJECTID":209760},"geometry":{"x":179239.12000000011,"y":2546165.2600000016}},{"attributes":{"ID":209762,"DIS_CODE":0,"TOWNNAME":"玉井區","LI":"玉田里","LIN":"42鄰","STREET":"仁愛街","SECT":" ","MAREA":" ","LANE":"１８０巷","ALLEY":"２弄","HOUSE_NO":"１０號","E_COORD97":195418.14000000001,"N_COORD97":2557863.27,"ADDRESS":"仁愛街１８０巷２弄１０號","OBJECTID":209761},"geometry":{"x":195418.14000000153,"y":2557863.2699999996}},{"attributes":{"ID":209763,"DIS_CODE":0,"TOWNNAME":"玉井區","LI":"玉田里","LIN":"42鄰","STREET":"仁愛街","SECT":" ","MAREA":" ","LANE":"１８０巷","ALLEY":"２弄","HOUSE_NO":"９號","E_COORD97":195434.48000000001,"N_COORD97":2557858.27,"ADDRESS":"仁愛街１８０巷２弄９號","OBJECTID":209762},"geometry":{"x":195434.48000000045,"y":2557858.2700000033}},{"attributes":{"ID":209764,"DIS_CODE":0,"TOWNNAME":"新化區","LI":"山\u25A0里","LIN":"2鄰","STREET":" ","SECT":" ","MAREA":"頂山\u25A0","LANE":" ","ALLEY":" ","HOUSE_NO":"５４號之１２１","E_COORD97":179242.10999999999,"N_COORD97":2546131.2599999998,"ADDRESS":"頂山\u25A0５４號之１２１","OBJECTID":209763},"geometry":{"x":179242.11000000127,"y":2546131.2600000035}},{"attributes":{"ID":209765,"DIS_CODE":0,"TOWNNAME":"新化區","LI":"山\u25A0里","LIN":"2鄰","STREET":" ","SECT":" ","MAREA":"頂山\u25A0","LANE":" ","ALLEY":" ","HOUSE_NO":"５４號之１９７","E_COORD97":179216.22,"N_COORD97":2546194.2599999998,"ADDRESS":"頂山\u25A0５４號之１９７","OBJECTID":209764},"geometry":{"x":179216.21999999974,"y":2546194.2599999998}},{"attributes":{"ID":209766,"DIS_CODE":0,"TOWNNAME":"玉井區","LI":"玉田里","LIN":"42鄰","STREET":"仁愛街","SECT":" ","MAREA":" ","LANE":"１８０巷","ALLEY":"２弄","HOUSE_NO":"６號","E_COORD97":195417.48000000001,"N_COORD97":2557872.27,"ADDRESS":"仁愛街１８０巷２弄６號","OBJECTID":209765},"geometry":{"x":195417.48000000045,"y":2557872.2700000014}},{"attributes":{"ID":209767,"DIS_CODE":0,"TOWNNAME":"玉井區","LI":"玉田里","LIN":"42鄰","STREET":"仁愛街","SECT":" ","MAREA":" ","LANE":"１８０巷","ALLEY":"２弄","HOUSE_NO":"５號","E_COORD97":195434.59,"N_COORD97":2557867.27,"ADDRESS":"仁愛街１８０巷２弄５號","OBJECTID":209766},"geometry":{"x":195434.59000000078,"y":2557867.2699999996}},{"attributes":{"ID":209768,"DIS_CODE":0,"TOWNNAME":"新化區","LI":"山\u25A0里","LIN":"2鄰","STREET":" ","SECT":" ","MAREA":"頂山\u25A0","LANE":" ","ALLEY":" ","HOUSE_NO":"５４號之１０９","E_COORD97":179220.72,"N_COORD97":2546162.2599999998,"ADDRESS":"頂山\u25A0５４號之１０９","OBJECTID":209767},"geometry":{"x":179220.72000000067,"y":2546162.2600000016}},{"attributes":{"ID":209769,"DIS_CODE":0,"TOWNNAME":"新化區","LI":"山\u25A0里","LIN":"2鄰","STREET":" ","SECT":" ","MAREA":"頂山\u25A0","LANE":" ","ALLEY":" ","HOUSE_NO":"５４號之１１１","E_COORD97":179246.10999999999,"N_COORD97":2546165.2599999998,"ADDRESS":"頂山\u25A0５４號之１１１","OBJECTID":209768},"geometry":{"x":179246.11000000034,"y":2546165.2600000016}},{"attributes":{"ID":209770,"DIS_CODE":0,"TOWNNAME":"玉井區","LI":"玉田里","LIN":"42鄰","STREET":"仁愛街","SECT":" ","MAREA":" ","LANE":"１８０巷","ALLEY":"２弄","HOUSE_NO":"８號","E_COORD97":195417.39000000001,"N_COORD97":2557867.27,"ADDRESS":"仁愛街１８０巷２弄８號","OBJECTID":209769},"geometry":{"x":195417.38999999966,"y":2557867.2699999996}},{"attributes":{"ID":209771,"DIS_CODE":0,"TOWNNAME":"新化區","LI":"山\u25A0里","LIN":"2鄰","STREET":" ","SECT":" ","MAREA":"頂山\u25A0","LANE":" ","ALLEY":" ","HOUSE_NO":"５４號之１４８","E_COORD97":179351.04000000001,"N_COORD97":2546112.2599999998,"ADDRESS":"頂山\u25A0５４號之１４８","OBJECTID":209770},"geometry":{"x":179351.04000000097,"y":2546112.2600000016}},{"attributes":{"ID":209772,"DIS_CODE":0,"TOWNNAME":"新化區","LI":"山\u25A0里","LIN":"2鄰","STREET":" ","SECT":" ","MAREA":"頂山\u25A0","LANE":" ","ALLEY":" ","HOUSE_NO":"５４號之１０１","E_COORD97":179219.10999999999,"N_COORD97":2546127.2599999998,"ADDRESS":"頂山\u25A0５４號之１０１","OBJECTID":209771},"geometry":{"x":179219.11000000034,"y":2546127.2599999998}},{"attributes":{"ID":209773,"DIS_CODE":0,"TOWNNAME":"新化區","LI":"\u25A0拔里","LIN":"2鄰","STREET":" ","SECT":" ","MAREA":"\u25A0拔林","LANE":" ","ALLEY":" ","HOUSE_NO":"８１號之４","E_COORD97":183455.10999999999,"N_COORD97":2552053.2599999998,"ADDRESS":"\u25A0拔林８１號之４","OBJECTID":209772},"geometry":{"x":183455.11000000127,"y":2552053.2599999998}},{"attributes":{"ID":209774,"DIS_CODE":0,"TOWNNAME":"新化區","LI":"山\u25A0里","LIN":"2鄰","STREET":" ","SECT":" ","MAREA":"頂山\u25A0","LANE":" ","ALLEY":" ","HOUSE_NO":"５４號之１１５","E_COORD97":179258.54000000001,"N_COORD97":2546143.2599999998,"ADDRESS":"頂山\u25A0５４號之１１５","OBJECTID":209773},"geometry":{"x":179258.54000000004,"y":2546143.2599999998}},{"attributes":{"ID":209775,"DIS_CODE":0,"TOWNNAME":"歸仁區","LI":"大廟里","LIN":"9鄰","STREET":"大廟一街","SECT":" ","MAREA":" ","LANE":" ","ALLEY":" ","HOUSE_NO":"５３號","E_COORD97":175839.76999999999,"N_COORD97":2544029.25,"ADDRESS":"大廟一街５３號","OBJECTID":209774},"geometry":{"x":175839.77000000048,"y":2544029.2500000037}},{"attributes":{"ID":209776,"DIS_CODE":0,"TOWNNAME":"柳營區","LI":"中埕里","LIN":"9鄰","STREET":"建安街","SECT":" ","MAREA":" ","LANE":" ","ALLEY":" ","HOUSE_NO":"４１號","E_COORD97":179858.57999999999,"N_COORD97":2574983.4399999999,"ADDRESS":"建安街４１號","OBJECTID":209775},"geometry":{"x":179858.58000000007,"y":2574983.4399999995}},{"attributes":{"ID":209777,"DIS_CODE":0,"TOWNNAME":"歸仁區","LI":"七甲里","LIN":"9鄰","STREET":"七甲一街","SECT":" ","MAREA":" ","LANE":" ","ALLEY":" ","HOUSE_NO":"６８號","E_COORD97":177623.09,"N_COORD97":2542501.6600000001,"ADDRESS":"七甲一街６８號","OBJECTID":209776},"geometry":{"x":177623.09000000078,"y":2542501.660000002}},{"attributes":{"ID":209778,"DIS_CODE":0,"TOWNNAME":"歸仁區","LI":"七甲里","LIN":"1鄰","STREET":"七甲五街","SECT":" ","MAREA":" ","LANE":"１０２巷","ALLEY":"３９弄","HOUSE_NO":"３６號","E_COORD97":177120.75,"N_COORD97":2542587.9300000002,"ADDRESS":"七甲五街１０２巷３９弄３６號","OBJECTID":209777},"geometry":{"x":177120.75,"y":2542587.9300000016}},{"attributes":{"ID":209779,"DIS_CODE":0,"TOWNNAME":"歸仁區","LI":"武東里","LIN":"9鄰","STREET":"大武路","SECT":"三段","MAREA":" ","LANE":" ","ALLEY":" ","HOUSE_NO":"２８０號","E_COORD97":174985.67000000001,"N_COORD97":2535279.2799999998,"ADDRESS":"大武路三段２８０號","OBJECTID":209778},"geometry":{"x":174985.66999999993,"y":2535279.2800000012}},{"attributes":{"ID":209780,"DIS_CODE":0,"TOWNNAME":"歸仁區","LI":"大廟里","LIN":"20鄰","STREET":"大廟一街","SECT":" ","MAREA":" ","LANE":"２８巷","ALLEY":"５５弄","HOUSE_NO":"１３號","E_COORD97":175711.67000000001,"N_COORD97":2544188.25,"ADDRESS":"大廟一街２８巷５５弄１３號","OBJECTID":209779},"geometry":{"x":175711.67000000179,"y":2544188.25}},{"attributes":{"ID":209781,"DIS_CODE":0,"TOWNNAME":"永康區","LI":"龍潭里","LIN":"42鄰","STREET":"永明街","SECT":" ","MAREA":" ","LANE":"３０２巷","ALLEY":"１７弄","HOUSE_NO":"３號","E_COORD97":174553.95999999999,"N_COORD97":2547082.9900000002,"ADDRESS":"永明街３０２巷１７弄３號","OBJECTID":209780},"geometry":{"x":174553.96000000089,"y":2547082.9900000021}},{"attributes":{"ID":209782,"DIS_CODE":0,"TOWNNAME":"永康區","LI":"龍潭里","LIN":"42鄰","STREET":"永明街","SECT":" ","MAREA":" ","LANE":"３０２巷","ALLEY":"１７弄","HOUSE_NO":"９號","E_COORD97":174569.12,"N_COORD97":2547083.4900000002,"ADDRESS":"永明街３０２巷１７弄９號","OBJECTID":209781},"geometry":{"x":174569.12000000011,"y":2547083.4900000021}},{"attributes":{"ID":209783,"DIS_CODE":0,"TOWNNAME":"永康區","LI":"成功里","LIN":"42鄰","STREET":"中華路","SECT":" ","MAREA":" ","LANE":"１５４巷","ALLEY":"１８弄","HOUSE_NO":"１號","E_COORD97":171693.97,"N_COORD97":2544868.46,"ADDRESS":"中華路１５４巷１８弄１號","OBJECTID":209782},"geometry":{"x":171693.97000000067,"y":2544868.4600000009}},{"attributes":{"ID":209784,"DIS_CODE":0,"TOWNNAME":"歸仁區","LI":"南保里","LIN":"46鄰","STREET":"民權十街","SECT":" ","MAREA":" ","LANE":"６３巷","ALLEY":"１７弄","HOUSE_NO":"６號","E_COORD97":176781.51000000001,"N_COORD97":2540659.2999999998,"ADDRESS":"民權十街６３巷１７弄６號","OBJECTID":209783},"geometry":{"x":176781.50999999978,"y":2540659.3000000007}},{"attributes":{"ID":209785,"DIS_CODE":0,"TOWNNAME":"歸仁區","LI":"南保里","LIN":"46鄰","STREET":"民權十街","SECT":" ","MAREA":" ","LANE":"６３巷","ALLEY":"１７弄","HOUSE_NO":"１２號","E_COORD97":176794.06,"N_COORD97":2540659.2999999998,"ADDRESS":"民權十街６３巷１７弄１２號","OBJECTID":209784},"geometry":{"x":176794.06000000052,"y":2540659.3000000007}},{"attributes":{"ID":209786,"DIS_CODE":0,"TOWNNAME":"歸仁區","LI":"南保里","LIN":"46鄰","STREET":"民權十街","SECT":" ","MAREA":" ","LANE":"６３巷","ALLEY":"１７弄","HOUSE_NO":"３０號","E_COORD97":176835.06,"N_COORD97":2540654.2999999998,"ADDRESS":"民權十街６３巷１７弄３０號","OBJECTID":209785},"geometry":{"x":176835.05999999959,"y":2540654.3000000026}},{"attributes":{"ID":209787,"DIS_CODE":0,"TOWNNAME":"新化區","LI":"豐榮里","LIN":"2鄰","STREET":" ","SECT":" ","MAREA":"洋子","LANE":" ","ALLEY":" ","HOUSE_NO":"４５號之３","E_COORD97":178048.67999999999,"N_COORD97":2548300.2599999998,"ADDRESS":"洋子４５號之３","OBJECTID":209786},"geometry":{"x":178048.6799999997,"y":2548300.2599999998}},{"attributes":{"ID":209788,"DIS_CODE":0,"TOWNNAME":"新化區","LI":"山\u25A0里","LIN":"2鄰","STREET":" ","SECT":" ","MAREA":"頂山\u25A0","LANE":" ","ALLEY":" ","HOUSE_NO":"５４號之１４９","E_COORD97":179350.42000000001,"N_COORD97":2546118.2599999998,"ADDRESS":"頂山\u25A0５４號之１４９","OBJECTID":209787},"geometry":{"x":179350.41999999993,"y":2546118.2600000016}},{"attributes":{"ID":209789,"DIS_CODE":0,"TOWNNAME":"歸仁區","LI":"南保里","LIN":"46鄰","STREET":"民權十街","SECT":" ","MAREA":" ","LANE":"６３巷","ALLEY":"１７弄","HOUSE_NO":"１６號","E_COORD97":176801.26000000001,"N_COORD97":2540659.2999999998,"ADDRESS":"民權十街６３巷１７弄１６號","OBJECTID":209788},"geometry":{"x":176801.26000000071,"y":2540659.3000000007}},{"attributes":{"ID":209790,"DIS_CODE":0,"TOWNNAME":"新化區","LI":"\u25A0拔里","LIN":"2鄰","STREET":" ","SECT":" ","MAREA":"\u25A0拔林","LANE":" ","ALLEY":" ","HOUSE_NO":"８２號之２","E_COORD97":183459.42999999999,"N_COORD97":2552026.2599999998,"ADDRESS":"\u25A0拔林８２號之２","OBJECTID":209789},"geometry":{"x":183459.4299999997,"y":2552026.2599999998}},{"attributes":{"ID":209791,"DIS_CODE":0,"TOWNNAME":"新化區","LI":"山\u25A0里","LIN":"2鄰","STREET":" ","SECT":" ","MAREA":"頂山\u25A0","LANE":" ","ALLEY":" ","HOUSE_NO":"５４號之１６１","E_COORD97":179309.70999999999,"N_COORD97":2546153.2599999998,"ADDRESS":"頂山\u25A0５４號之１６１","OBJECTID":209790},"geometry":{"x":179309.70999999996,"y":2546153.2599999998}},{"attributes":{"ID":209792,"DIS_CODE":0,"TOWNNAME":"歸仁區","LI":"南保里","LIN":"46鄰","STREET":"民權十街","SECT":" ","MAREA":" ","LANE":"６３巷","ALLEY":"１７弄","HOUSE_NO":"２０號","E_COORD97":176809.45999999999,"N_COORD97":2540659.2999999998,"ADDRESS":"民權十街６３巷１７弄２０號","OBJECTID":209791},"geometry":{"x":176809.45999999996,"y":2540659.3000000007}},{"attributes":{"ID":209793,"DIS_CODE":0,"TOWNNAME":"新化區","LI":"山\u25A0里","LIN":"2鄰","STREET":" ","SECT":" ","MAREA":"頂山\u25A0","LANE":" ","ALLEY":" ","HOUSE_NO":"５４號之１１４","E_COORD97":179263.60999999999,"N_COORD97":2546144.2599999998,"ADDRESS":"頂山\u25A0５４號之１１４","OBJECTID":209792},"geometry":{"x":179263.61000000034,"y":2546144.2599999998}},{"attributes":{"ID":209794,"DIS_CODE":0,"TOWNNAME":"歸仁區","LI":"南保里","LIN":"46鄰","STREET":"民權十街","SECT":" ","MAREA":" ","LANE":"６３巷","ALLEY":"１７弄","HOUSE_NO":"２號","E_COORD97":176778.41,"N_COORD97":2540659.2999999998,"ADDRESS":"民權十街６３巷１７弄２號","OBJECTID":209793},"geometry":{"x":176778.41000000108,"y":2540659.3000000007}},{"attributes":{"ID":209795,"DIS_CODE":0,"TOWNNAME":"新化區","LI":"山\u25A0里","LIN":"2鄰","STREET":" ","SECT":" ","MAREA":"頂山\u25A0","LANE":" ","ALLEY":" ","HOUSE_NO":"５４號之１０４","E_COORD97":179218.31,"N_COORD97":2546140.2599999998,"ADDRESS":"頂山\u25A0５４號之１０４","OBJECTID":209794},"geometry":{"x":179218.31000000052,"y":2546140.2599999998}},{"attributes":{"ID":209796,"DIS_CODE":0,"TOWNNAME":"歸仁區","LI":"後市里","LIN":"46鄰","STREET":"文化街","SECT":"二段","MAREA":" ","LANE":"１２１巷","ALLEY":"７弄","HOUSE_NO":"６號","E_COORD97":177193.64000000001,"N_COORD97":2541130.7599999998,"ADDRESS":"文化街二段１２１巷７弄６號","OBJECTID":209795},"geometry":{"x":177193.6400000006,"y":2541130.7600000016}},{"attributes":{"ID":209797,"DIS_CODE":0,"TOWNNAME":"歸仁區","LI":"文化里","LIN":"9鄰","STREET":"文化北二街","SECT":" ","MAREA":" ","LANE":" ","ALLEY":" ","HOUSE_NO":"８１號","E_COORD97":177090.20999999999,"N_COORD97":2541383.3300000001,"ADDRESS":"文化北二街８１號","OBJECTID":209796},"geometry":{"x":177090.21000000089,"y":2541383.3300000001}},{"attributes":{"ID":209798,"DIS_CODE":0,"TOWNNAME":"新化區","LI":"山\u25A0里","LIN":"2鄰","STREET":" ","SECT":" ","MAREA":"頂山\u25A0","LANE":" ","ALLEY":" ","HOUSE_NO":"６５號","E_COORD97":179449.57999999999,"N_COORD97":2546618.25,"ADDRESS":"頂山\u25A0６５號","OBJECTID":209797},"geometry":{"x":179449.58000000007,"y":2546618.25}},{"attributes":{"ID":209799,"DIS_CODE":0,"TOWNNAME":"新化區","LI":"山\u25A0里","LIN":"2鄰","STREET":" ","SECT":" ","MAREA":"頂山\u25A0","LANE":" ","ALLEY":" ","HOUSE_NO":"５４號之１６３","E_COORD97":179310.13,"N_COORD97":2546144.2599999998,"ADDRESS":"頂山\u25A0５４號之１６３","OBJECTID":209798},"geometry":{"x":179310.12999999989,"y":2546144.2599999998}},{"attributes":{"ID":209800,"DIS_CODE":0,"TOWNNAME":"新化區","LI":"山\u25A0里","LIN":"2鄰","STREET":" ","SECT":" ","MAREA":"頂山\u25A0","LANE":" ","ALLEY":" ","HOUSE_NO":"７３號之６","E_COORD97":179527.63,"N_COORD97":2546627.2599999998,"ADDRESS":"頂山\u25A0７３號之６","OBJECTID":209799},"geometry":{"x":179527.63000000175,"y":2546627.2600000016}},{"attributes":{"ID":209801,"DIS_CODE":0,"TOWNNAME":"新化區","LI":"山\u25A0里","LIN":"2鄰","STREET":" ","SECT":" ","MAREA":"頂山\u25A0","LANE":" ","ALLEY":" ","HOUSE_NO":"７５號","E_COORD97":179557.38,"N_COORD97":2546572.25,"ADDRESS":"頂山\u25A0７５號","OBJECTID":209800},"geometry":{"x":179557.37999999989,"y":2546572.2500000037}}]}