{"displayFieldName":"TOWNNAME","fieldAliases":{"ID":"ID","DIS_CODE":"DIS_CODE","TOWNNAME":"TOWNNAME","LI":"LI","LIN":"LIN","STREET":"STREET","SECT":"SECT","MAREA":"MAREA","LANE":"LANE","ALLEY":"ALLEY","HOUSE_NO":"HOUSE_NO","E_COORD97":"E_COORD97","N_COORD97":"N_COORD97","ADDRESS":"ADDRESS","OBJECTID":"OBJECTID"},"geometryType":"esriGeometryPoint","spatialReference":{"wkid":102443,"latestWkid":3826},"fields":[{"name":"ID","type":"esriFieldTypeDouble","alias":"ID"},{"name":"DIS_CODE","type":"esriFieldTypeInteger","alias":"DIS_CODE"},{"name":"TOWNNAME","type":"esriFieldTypeString","alias":"TOWNNAME","length":8},{"name":"LI","type":"esriFieldTypeString","alias":"LI","length":8},{"name":"LIN","type":"esriFieldTypeString","alias":"LIN","length":12},{"name":"STREET","type":"esriFieldTypeString","alias":"STREET","length":20},{"name":"SECT","type":"esriFieldTypeString","alias":"SECT","length":8},{"name":"MAREA","type":"esriFieldTypeString","alias":"MAREA","length":12},{"name":"LANE","type":"esriFieldTypeString","alias":"LANE","length":10},{"name":"ALLEY","type":"esriFieldTypeString","alias":"ALLEY","length":10},{"name":"HOUSE_NO","type":"esriFieldTypeString","alias":"HOUSE_NO","length":20},{"name":"E_COORD97","type":"esriFieldTypeDouble","alias":"E_COORD97"},{"name":"N_COORD97","type":"esriFieldTypeDouble","alias":"N_COORD97"},{"name":"ADDRESS","type":"esriFieldTypeString","alias":"ADDRESS","length":50},{"name":"OBJECTID","type":"esriFieldTypeOID","alias":"OBJECTID"}],"features":[{"attributes":{"ID":239005,"DIS_CODE":0,"TOWNNAME":"南區","LI":"明興里","LIN":"13鄰","STREET":"金華路","SECT":"一段","MAREA":" ","LANE":"６０巷","ALLEY":" ","HOUSE_NO":"２１號","E_COORD97":166953.48000000001,"N_COORD97":2540380.5699999998,"ADDRESS":"金華路一段６０巷２１號","OBJECTID":239001},"geometry":{"x":166953.48000000138,"y":2540380.5700000022}},{"attributes":{"ID":239006,"DIS_CODE":0,"TOWNNAME":"南區","LI":"明興里","LIN":"13鄰","STREET":"金華路","SECT":"一段","MAREA":" ","LANE":"６０巷","ALLEY":" ","HOUSE_NO":"２９號","E_COORD97":166975.73000000001,"N_COORD97":2540382.71,"ADDRESS":"金華路一段６０巷２９號","OBJECTID":239002},"geometry":{"x":166975.73000000045,"y":2540382.7100000046}},{"attributes":{"ID":239007,"DIS_CODE":0,"TOWNNAME":"南區","LI":"明興里","LIN":"13鄰","STREET":"金華路","SECT":"一段","MAREA":" ","LANE":"６０巷","ALLEY":" ","HOUSE_NO":"３２號","E_COORD97":166978.94,"N_COORD97":2540371.9199999999,"ADDRESS":"金華路一段６０巷３２號","OBJECTID":239003},"geometry":{"x":166978.94000000134,"y":2540371.9199999999}},{"attributes":{"ID":239008,"DIS_CODE":0,"TOWNNAME":"佳里區","LI":"六安里","LIN":"8鄰","STREET":"延平路","SECT":" ","MAREA":" ","LANE":"４９８巷","ALLEY":" ","HOUSE_NO":"９號","E_COORD97":165920.32000000001,"N_COORD97":2562914.4900000002,"ADDRESS":"延平路４９８巷９號","OBJECTID":239004},"geometry":{"x":165920.32000000123,"y":2562914.4900000002}},{"attributes":{"ID":239009,"DIS_CODE":0,"TOWNNAME":"南區","LI":"明興里","LIN":"13鄰","STREET":"金華路","SECT":"一段","MAREA":" ","LANE":"６０巷","ALLEY":" ","HOUSE_NO":"３４號","E_COORD97":166982.57999999999,"N_COORD97":2540373.2400000002,"ADDRESS":"金華路一段６０巷３４號","OBJECTID":239005},"geometry":{"x":166982.58000000101,"y":2540373.2400000002}},{"attributes":{"ID":239010,"DIS_CODE":0,"TOWNNAME":"南區","LI":"明興里","LIN":"13鄰","STREET":"金華路","SECT":"一段","MAREA":" ","LANE":"６０巷","ALLEY":" ","HOUSE_NO":"３５號","E_COORD97":166999.28,"N_COORD97":2540384.6099999999,"ADDRESS":"金華路一段６０巷３５號","OBJECTID":239006},"geometry":{"x":166999.28000000026,"y":2540384.6099999994}},{"attributes":{"ID":239011,"DIS_CODE":0,"TOWNNAME":"南區","LI":"明興里","LIN":"13鄰","STREET":"金華路","SECT":"一段","MAREA":" ","LANE":"６０巷","ALLEY":" ","HOUSE_NO":"３７號","E_COORD97":167002.92000000001,"N_COORD97":2540385.52,"ADDRESS":"金華路一段６０巷３７號","OBJECTID":239007},"geometry":{"x":167002.91999999993,"y":2540385.5199999977}},{"attributes":{"ID":239012,"DIS_CODE":0,"TOWNNAME":"南區","LI":"明興里","LIN":"13鄰","STREET":"金華路","SECT":"一段","MAREA":" ","LANE":"６０巷","ALLEY":" ","HOUSE_NO":"５０號","E_COORD97":167015.04000000001,"N_COORD97":2540375.1699999999,"ADDRESS":"金華路一段６０巷５０號","OBJECTID":239008},"geometry":{"x":167015.04000000097,"y":2540375.1700000037}},{"attributes":{"ID":239013,"DIS_CODE":0,"TOWNNAME":"南區","LI":"明興里","LIN":"13鄰","STREET":"金華路","SECT":"一段","MAREA":" ","LANE":"６０巷","ALLEY":" ","HOUSE_NO":"５２號","E_COORD97":167019.67000000001,"N_COORD97":2540374.0099999998,"ADDRESS":"金華路一段６０巷５２號","OBJECTID":239009},"geometry":{"x":167019.66999999993,"y":2540374.0100000016}},{"attributes":{"ID":239014,"DIS_CODE":0,"TOWNNAME":"南區","LI":"明興里","LIN":"13鄰","STREET":"金華路","SECT":"一段","MAREA":" ","LANE":"６０巷","ALLEY":" ","HOUSE_NO":"５４號","E_COORD97":167025.85999999999,"N_COORD97":2540373.6800000002,"ADDRESS":"金華路一段６０巷５４號","OBJECTID":239010},"geometry":{"x":167025.86000000034,"y":2540373.6799999997}},{"attributes":{"ID":239015,"DIS_CODE":0,"TOWNNAME":"南區","LI":"明興里","LIN":"13鄰","STREET":"金華路","SECT":"一段","MAREA":" ","LANE":"６０巷","ALLEY":" ","HOUSE_NO":"５６號","E_COORD97":167030.41,"N_COORD97":2540372.7799999998,"ADDRESS":"金華路一段６０巷５６號","OBJECTID":239011},"geometry":{"x":167030.41000000015,"y":2540372.7799999993}},{"attributes":{"ID":239016,"DIS_CODE":0,"TOWNNAME":"東山區","LI":"科里里","LIN":"22鄰","STREET":" ","SECT":" ","MAREA":"枋子林","LANE":" ","ALLEY":" ","HOUSE_NO":"８１號之１","E_COORD97":188991.66,"N_COORD97":2577044.9100000001,"ADDRESS":"枋子林８１號之１","OBJECTID":239012},"geometry":{"x":188991.66000000015,"y":2577044.910000002}},{"attributes":{"ID":239017,"DIS_CODE":0,"TOWNNAME":"東山區","LI":"科里里","LIN":"22鄰","STREET":" ","SECT":" ","MAREA":"枋子林","LANE":" ","ALLEY":" ","HOUSE_NO":"８１號","E_COORD97":188990.29999999999,"N_COORD97":2577023.9300000002,"ADDRESS":"枋子林８１號","OBJECTID":239013},"geometry":{"x":188990.29999999981,"y":2577023.9300000016}},{"attributes":{"ID":239018,"DIS_CODE":0,"TOWNNAME":"南區","LI":"明興里","LIN":"13鄰","STREET":"金華路","SECT":"一段","MAREA":" ","LANE":"６０巷","ALLEY":" ","HOUSE_NO":"５８號","E_COORD97":167035.70000000001,"N_COORD97":2540372.2000000002,"ADDRESS":"金華路一段６０巷５８號","OBJECTID":239014},"geometry":{"x":167035.70000000205,"y":2540372.2000000011}},{"attributes":{"ID":239019,"DIS_CODE":0,"TOWNNAME":"東山區","LI":"科里里","LIN":"22鄰","STREET":" ","SECT":" ","MAREA":"枋子林","LANE":" ","ALLEY":" ","HOUSE_NO":"８２號之２","E_COORD97":189013.73000000001,"N_COORD97":2576997.5899999999,"ADDRESS":"枋子林８２號之２","OBJECTID":239015},"geometry":{"x":189013.73000000045,"y":2576997.5899999999}},{"attributes":{"ID":239020,"DIS_CODE":0,"TOWNNAME":"南區","LI":"明興里","LIN":"13鄰","STREET":"金華路","SECT":"一段","MAREA":" ","LANE":"６０巷","ALLEY":" ","HOUSE_NO":"６０號","E_COORD97":167039.98999999999,"N_COORD97":2540371.21,"ADDRESS":"金華路一段６０巷６０號","OBJECTID":239016},"geometry":{"x":167039.99000000022,"y":2540371.2100000009}},{"attributes":{"ID":239021,"DIS_CODE":0,"TOWNNAME":"南區","LI":"明興里","LIN":"13鄰","STREET":"金華路","SECT":"一段","MAREA":" ","LANE":"６０巷","ALLEY":" ","HOUSE_NO":"６２號","E_COORD97":167044.95000000001,"N_COORD97":2540369.5600000001,"ADDRESS":"金華路一段６０巷６２號","OBJECTID":239017},"geometry":{"x":167044.95000000112,"y":2540369.5600000042}},{"attributes":{"ID":239022,"DIS_CODE":0,"TOWNNAME":"東山區","LI":"科里里","LIN":"22鄰","STREET":" ","SECT":" ","MAREA":"枋子林","LANE":" ","ALLEY":" ","HOUSE_NO":"８２號之３","E_COORD97":189012.81,"N_COORD97":2576972.1099999999,"ADDRESS":"枋子林８２號之３","OBJECTID":239018},"geometry":{"x":189012.81000000052,"y":2576972.1100000013}},{"attributes":{"ID":239023,"DIS_CODE":0,"TOWNNAME":"南區","LI":"明興里","LIN":"13鄰","STREET":"金華路","SECT":"一段","MAREA":" ","LANE":"６０巷","ALLEY":" ","HOUSE_NO":"６４號","E_COORD97":167050.42999999999,"N_COORD97":2540369.48,"ADDRESS":"金華路一段６０巷６４號","OBJECTID":239019},"geometry":{"x":167050.42999999877,"y":2540369.4800000004}},{"attributes":{"ID":239024,"DIS_CODE":0,"TOWNNAME":"南區","LI":"明興里","LIN":"13鄰","STREET":"金華路","SECT":"一段","MAREA":" ","LANE":"６０巷","ALLEY":" ","HOUSE_NO":"６６號","E_COORD97":167056.13,"N_COORD97":2540369.3100000001,"ADDRESS":"金華路一段６０巷６６號","OBJECTID":239020},"geometry":{"x":167056.13000000175,"y":2540369.3100000024}},{"attributes":{"ID":239025,"DIS_CODE":0,"TOWNNAME":"南區","LI":"明興里","LIN":"13鄰","STREET":"金華路","SECT":"一段","MAREA":" ","LANE":"６０巷","ALLEY":" ","HOUSE_NO":"６８號","E_COORD97":167055.63,"N_COORD97":2540378.1400000001,"ADDRESS":"金華路一段６０巷６８號","OBJECTID":239021},"geometry":{"x":167055.62999999989,"y":2540378.1400000006}},{"attributes":{"ID":239026,"DIS_CODE":0,"TOWNNAME":"南區","LI":"明興里","LIN":"13鄰","STREET":"金華路","SECT":"一段","MAREA":" ","LANE":"６０巷","ALLEY":" ","HOUSE_NO":"７０號","E_COORD97":167050.17999999999,"N_COORD97":2540379.0499999998,"ADDRESS":"金華路一段６０巷７０號","OBJECTID":239022},"geometry":{"x":167050.1799999997,"y":2540379.0500000007}},{"attributes":{"ID":239027,"DIS_CODE":0,"TOWNNAME":"南區","LI":"明興里","LIN":"13鄰","STREET":"金華路","SECT":"一段","MAREA":" ","LANE":"６０巷","ALLEY":" ","HOUSE_NO":"７２號","E_COORD97":167045.47,"N_COORD97":2540379.71,"ADDRESS":"金華路一段６０巷７２號","OBJECTID":239023},"geometry":{"x":167045.47000000067,"y":2540379.7100000028}},{"attributes":{"ID":239028,"DIS_CODE":0,"TOWNNAME":"南區","LI":"興農里","LIN":"14鄰","STREET":"明興路","SECT":" ","MAREA":" ","LANE":" ","ALLEY":" ","HOUSE_NO":"１０３１號","E_COORD97":166273.26999999999,"N_COORD97":2536845.9300000002,"ADDRESS":"明興路１０３１號","OBJECTID":239024},"geometry":{"x":166273.26999999862,"y":2536845.9299999997}},{"attributes":{"ID":239029,"DIS_CODE":0,"TOWNNAME":"北區","LI":"元寶里","LIN":"16鄰","STREET":"開元路","SECT":" ","MAREA":" ","LANE":"４８５巷","ALLEY":" ","HOUSE_NO":"２１號五樓之６","E_COORD97":170484.06,"N_COORD97":2545694.1499999999,"ADDRESS":"開元路４８５巷２１號五樓之６","OBJECTID":239025},"geometry":{"x":170484.06000000145,"y":2545694.1500000004}},{"attributes":{"ID":239030,"DIS_CODE":0,"TOWNNAME":"北區","LI":"元寶里","LIN":"16鄰","STREET":"開元路","SECT":" ","MAREA":" ","LANE":"４８５巷","ALLEY":" ","HOUSE_NO":"２１號五樓之８","E_COORD97":170484.06,"N_COORD97":2545694.1499999999,"ADDRESS":"開元路４８５巷２１號五樓之８","OBJECTID":239026},"geometry":{"x":170484.06000000145,"y":2545694.1500000004}},{"attributes":{"ID":239031,"DIS_CODE":0,"TOWNNAME":"南區","LI":"明興里","LIN":"13鄰","STREET":"金華路","SECT":"一段","MAREA":" ","LANE":"６０巷","ALLEY":" ","HOUSE_NO":"７４號","E_COORD97":167032.25,"N_COORD97":2540385.3199999998,"ADDRESS":"金華路一段６０巷７４號","OBJECTID":239027},"geometry":{"x":167032.25000000093,"y":2540385.3200000022}},{"attributes":{"ID":239032,"DIS_CODE":0,"TOWNNAME":"東區","LI":"虎尾里","LIN":"13鄰","STREET":"東成街","SECT":" ","MAREA":" ","LANE":"１２１巷","ALLEY":" ","HOUSE_NO":"２號","E_COORD97":171652.12,"N_COORD97":2542312.5699999998,"ADDRESS":"東成街１２１巷２號","OBJECTID":239028},"geometry":{"x":171652.12000000197,"y":2542312.5700000022}},{"attributes":{"ID":239033,"DIS_CODE":0,"TOWNNAME":"南區","LI":"明興里","LIN":"13鄰","STREET":"金華路","SECT":"一段","MAREA":" ","LANE":"６０巷","ALLEY":" ","HOUSE_NO":"７６號","E_COORD97":167032.42000000001,"N_COORD97":2540389.9399999999,"ADDRESS":"金華路一段６０巷７６號","OBJECTID":239029},"geometry":{"x":167032.42000000086,"y":2540389.9400000013}},{"attributes":{"ID":239034,"DIS_CODE":0,"TOWNNAME":"南區","LI":"明興里","LIN":"13鄰","STREET":"金華路","SECT":"一段","MAREA":" ","LANE":"６０巷","ALLEY":" ","HOUSE_NO":"８６號","E_COORD97":167034.14999999999,"N_COORD97":2540411.2000000002,"ADDRESS":"金華路一段６０巷８６號","OBJECTID":239030},"geometry":{"x":167034.15000000037,"y":2540411.1999999974}},{"attributes":{"ID":239035,"DIS_CODE":0,"TOWNNAME":"南區","LI":"建南里","LIN":"13鄰","STREET":"中華南路","SECT":"二段","MAREA":" ","LANE":"１８５巷","ALLEY":" ","HOUSE_NO":"１號","E_COORD97":167017.95000000001,"N_COORD97":2540181.8799999999,"ADDRESS":"中華南路二段１８５巷１號","OBJECTID":239031},"geometry":{"x":167017.95000000019,"y":2540181.879999999}},{"attributes":{"ID":239036,"DIS_CODE":0,"TOWNNAME":"南區","LI":"建南里","LIN":"13鄰","STREET":"中華南路","SECT":"二段","MAREA":" ","LANE":"１８５巷","ALLEY":" ","HOUSE_NO":"２號","E_COORD97":167003.53,"N_COORD97":2540194.77,"ADDRESS":"中華南路二段１８５巷２號","OBJECTID":239032},"geometry":{"x":167003.53000000119,"y":2540194.7700000014}},{"attributes":{"ID":239037,"DIS_CODE":0,"TOWNNAME":"南區","LI":"建南里","LIN":"13鄰","STREET":"中華南路","SECT":"二段","MAREA":" ","LANE":"１８５巷","ALLEY":" ","HOUSE_NO":"３號","E_COORD97":167017.73000000001,"N_COORD97":2540177.3100000001,"ADDRESS":"中華南路二段１８５巷３號","OBJECTID":239033},"geometry":{"x":167017.73000000138,"y":2540177.3100000005}},{"attributes":{"ID":239038,"DIS_CODE":0,"TOWNNAME":"南區","LI":"建南里","LIN":"13鄰","STREET":"中華南路","SECT":"二段","MAREA":" ","LANE":"１８５巷","ALLEY":" ","HOUSE_NO":"４號","E_COORD97":167003.09,"N_COORD97":2540188.8900000001,"ADDRESS":"中華南路二段１８５巷４號","OBJECTID":239034},"geometry":{"x":167003.08999999985,"y":2540188.8900000025}},{"attributes":{"ID":239039,"DIS_CODE":0,"TOWNNAME":"南區","LI":"建南里","LIN":"13鄰","STREET":"中華南路","SECT":"二段","MAREA":" ","LANE":"１８５巷","ALLEY":" ","HOUSE_NO":"５號","E_COORD97":167017.95000000001,"N_COORD97":2540172.2999999998,"ADDRESS":"中華南路二段１８５巷５號","OBJECTID":239035},"geometry":{"x":167017.95000000019,"y":2540172.3000000026}},{"attributes":{"ID":239040,"DIS_CODE":0,"TOWNNAME":"南區","LI":"建南里","LIN":"13鄰","STREET":"中華南路","SECT":"二段","MAREA":" ","LANE":"１８５巷","ALLEY":" ","HOUSE_NO":"６號","E_COORD97":167002.66,"N_COORD97":2540184.54,"ADDRESS":"中華南路二段１８５巷６號","OBJECTID":239036},"geometry":{"x":167002.66000000108,"y":2540184.5399999991}},{"attributes":{"ID":239041,"DIS_CODE":0,"TOWNNAME":"南區","LI":"建南里","LIN":"13鄰","STREET":"中華南路","SECT":"二段","MAREA":" ","LANE":"１８５巷","ALLEY":" ","HOUSE_NO":"７號","E_COORD97":167018.39000000001,"N_COORD97":2540167.0800000001,"ADDRESS":"中華南路二段１８５巷７號","OBJECTID":239037},"geometry":{"x":167018.38999999966,"y":2540167.0800000019}},{"attributes":{"ID":239042,"DIS_CODE":0,"TOWNNAME":"南區","LI":"建南里","LIN":"13鄰","STREET":"中華南路","SECT":"二段","MAREA":" ","LANE":"１８５巷","ALLEY":" ","HOUSE_NO":"８號","E_COORD97":167003.09,"N_COORD97":2540179.54,"ADDRESS":"中華南路二段１８５巷８號","OBJECTID":239038},"geometry":{"x":167003.08999999985,"y":2540179.540000001}},{"attributes":{"ID":239043,"DIS_CODE":0,"TOWNNAME":"南區","LI":"建南里","LIN":"13鄰","STREET":"中華南路","SECT":"二段","MAREA":" ","LANE":"１８５巷","ALLEY":" ","HOUSE_NO":"９號","E_COORD97":167017.73000000001,"N_COORD97":2540161.8599999999,"ADDRESS":"中華南路二段１８５巷９號","OBJECTID":239039},"geometry":{"x":167017.73000000138,"y":2540161.8599999994}},{"attributes":{"ID":239044,"DIS_CODE":0,"TOWNNAME":"南區","LI":"建南里","LIN":"13鄰","STREET":"中華南路","SECT":"二段","MAREA":" ","LANE":"１８５巷","ALLEY":" ","HOUSE_NO":"１０號","E_COORD97":167002.44,"N_COORD97":2540175.8399999999,"ADDRESS":"中華南路二段１８５巷１０號","OBJECTID":239040},"geometry":{"x":167002.44000000134,"y":2540175.8399999999}},{"attributes":{"ID":239045,"DIS_CODE":0,"TOWNNAME":"南區","LI":"建南里","LIN":"13鄰","STREET":"中華南路","SECT":"二段","MAREA":" ","LANE":"１８５巷","ALLEY":" ","HOUSE_NO":"１１號","E_COORD97":167017.73000000001,"N_COORD97":2540156.8599999999,"ADDRESS":"中華南路二段１８５巷１１號","OBJECTID":239041},"geometry":{"x":167017.73000000138,"y":2540156.8600000013}},{"attributes":{"ID":239046,"DIS_CODE":0,"TOWNNAME":"南區","LI":"建南里","LIN":"13鄰","STREET":"中華南路","SECT":"二段","MAREA":" ","LANE":"１８５巷","ALLEY":" ","HOUSE_NO":"１２號","E_COORD97":167001.57000000001,"N_COORD97":2540170.8399999999,"ADDRESS":"中華南路二段１８５巷１２號","OBJECTID":239042},"geometry":{"x":167001.57000000123,"y":2540170.8400000017}},{"attributes":{"ID":239047,"DIS_CODE":0,"TOWNNAME":"南區","LI":"建南里","LIN":"13鄰","STREET":"中華南路","SECT":"二段","MAREA":" ","LANE":"１８５巷","ALLEY":" ","HOUSE_NO":"１３號","E_COORD97":167017.73000000001,"N_COORD97":2540151.8500000001,"ADDRESS":"中華南路二段１８５巷１３號","OBJECTID":239043},"geometry":{"x":167017.73000000138,"y":2540151.8499999996}},{"attributes":{"ID":239048,"DIS_CODE":0,"TOWNNAME":"南區","LI":"建南里","LIN":"13鄰","STREET":"中華南路","SECT":"二段","MAREA":" ","LANE":"１８５巷","ALLEY":" ","HOUSE_NO":"１４號","E_COORD97":167001.56,"N_COORD97":2540165.9300000002,"ADDRESS":"中華南路二段１８５巷１４號","OBJECTID":239044},"geometry":{"x":167001.55999999959,"y":2540165.9299999978}},{"attributes":{"ID":239049,"DIS_CODE":0,"TOWNNAME":"南區","LI":"建南里","LIN":"13鄰","STREET":"中華南路","SECT":"二段","MAREA":" ","LANE":"１８５巷","ALLEY":" ","HOUSE_NO":"１５號","E_COORD97":167017.29999999999,"N_COORD97":2540146.4100000001,"ADDRESS":"中華南路二段１８５巷１５號","OBJECTID":239045},"geometry":{"x":167017.29999999981,"y":2540146.4100000039}},{"attributes":{"ID":239050,"DIS_CODE":0,"TOWNNAME":"南區","LI":"建南里","LIN":"13鄰","STREET":"中華南路","SECT":"二段","MAREA":" ","LANE":"１８５巷","ALLEY":" ","HOUSE_NO":"１６號","E_COORD97":167000.69,"N_COORD97":2540160.5,"ADDRESS":"中華南路二段１８５巷１６號","OBJECTID":239046},"geometry":{"x":167000.69000000134,"y":2540160.5000000019}},{"attributes":{"ID":239051,"DIS_CODE":0,"TOWNNAME":"南區","LI":"建南里","LIN":"13鄰","STREET":"中華南路","SECT":"二段","MAREA":" ","LANE":"１８５巷","ALLEY":" ","HOUSE_NO":"１７號","E_COORD97":167032.45000000001,"N_COORD97":2540151.8199999998,"ADDRESS":"中華南路二段１８５巷１７號","OBJECTID":239047},"geometry":{"x":167032.45000000112,"y":2540151.8200000022}},{"attributes":{"ID":239052,"DIS_CODE":0,"TOWNNAME":"南區","LI":"建南里","LIN":"13鄰","STREET":"中華南路","SECT":"二段","MAREA":" ","LANE":"１８５巷","ALLEY":" ","HOUSE_NO":"１８號","E_COORD97":167000.91,"N_COORD97":2540156.3599999999,"ADDRESS":"中華南路二段１８５巷１８號","OBJECTID":239048},"geometry":{"x":167000.91000000108,"y":2540156.3600000031}},{"attributes":{"ID":239053,"DIS_CODE":0,"TOWNNAME":"南區","LI":"建南里","LIN":"13鄰","STREET":"中華南路","SECT":"二段","MAREA":" ","LANE":"１８５巷","ALLEY":" ","HOUSE_NO":"１９號","E_COORD97":167036.53,"N_COORD97":2540152.04,"ADDRESS":"中華南路二段１８５巷１９號","OBJECTID":239049},"geometry":{"x":167036.53000000026,"y":2540152.040000001}},{"attributes":{"ID":239054,"DIS_CODE":0,"TOWNNAME":"南區","LI":"建南里","LIN":"13鄰","STREET":"中華南路","SECT":"二段","MAREA":" ","LANE":"１８５巷","ALLEY":" ","HOUSE_NO":"２０號","E_COORD97":166999.60000000001,"N_COORD97":2540151.5699999998,"ADDRESS":"中華南路二段１８５巷２０號","OBJECTID":239050},"geometry":{"x":166999.59999999963,"y":2540151.5700000003}},{"attributes":{"ID":239055,"DIS_CODE":0,"TOWNNAME":"南區","LI":"興農里","LIN":"14鄰","STREET":"明興路","SECT":" ","MAREA":" ","LANE":" ","ALLEY":" ","HOUSE_NO":"１０３３號","E_COORD97":166277.29999999999,"N_COORD97":2536843.0899999999,"ADDRESS":"明興路１０３３號","OBJECTID":239051},"geometry":{"x":166277.30000000075,"y":2536843.0900000017}},{"attributes":{"ID":239056,"DIS_CODE":0,"TOWNNAME":"南區","LI":"興農里","LIN":"14鄰","STREET":"明興路","SECT":" ","MAREA":" ","LANE":" ","ALLEY":" ","HOUSE_NO":"１０３５號","E_COORD97":166279.97,"N_COORD97":2536839.8900000001,"ADDRESS":"明興路１０３５號","OBJECTID":239052},"geometry":{"x":166279.96999999974,"y":2536839.8900000006}},{"attributes":{"ID":239057,"DIS_CODE":0,"TOWNNAME":"南區","LI":"興農里","LIN":"14鄰","STREET":"明興路","SECT":" ","MAREA":" ","LANE":" ","ALLEY":" ","HOUSE_NO":"１０３７號","E_COORD97":166282.91,"N_COORD97":2536836.4199999999,"ADDRESS":"明興路１０３７號","OBJECTID":239053},"geometry":{"x":166282.91000000015,"y":2536836.4199999999}},{"attributes":{"ID":239058,"DIS_CODE":0,"TOWNNAME":"北區","LI":"元寶里","LIN":"16鄰","STREET":"北園街","SECT":" ","MAREA":" ","LANE":"８巷","ALLEY":" ","HOUSE_NO":"２６號二樓之２","E_COORD97":170485.51000000001,"N_COORD97":2545628.0899999999,"ADDRESS":"北園街８巷２６號二樓之２","OBJECTID":239054},"geometry":{"x":170485.50999999978,"y":2545628.0900000017}},{"attributes":{"ID":239059,"DIS_CODE":0,"TOWNNAME":"北區","LI":"元寶里","LIN":"16鄰","STREET":"北園街","SECT":" ","MAREA":" ","LANE":"８巷","ALLEY":" ","HOUSE_NO":"２６號二樓之５","E_COORD97":170485.51000000001,"N_COORD97":2545628.0899999999,"ADDRESS":"北園街８巷２６號二樓之５","OBJECTID":239055},"geometry":{"x":170485.50999999978,"y":2545628.0900000017}},{"attributes":{"ID":239060,"DIS_CODE":0,"TOWNNAME":"北區","LI":"元寶里","LIN":"16鄰","STREET":"北園街","SECT":" ","MAREA":" ","LANE":"８巷","ALLEY":" ","HOUSE_NO":"２６號二樓之６","E_COORD97":170485.51000000001,"N_COORD97":2545628.0899999999,"ADDRESS":"北園街８巷２６號二樓之６","OBJECTID":239056},"geometry":{"x":170485.50999999978,"y":2545628.0900000017}},{"attributes":{"ID":239061,"DIS_CODE":0,"TOWNNAME":"南區","LI":"建南里","LIN":"13鄰","STREET":"中華南路","SECT":"二段","MAREA":" ","LANE":"１８５巷","ALLEY":" ","HOUSE_NO":"２１號","E_COORD97":167040.39999999999,"N_COORD97":2540150.75,"ADDRESS":"中華南路二段１８５巷２１號","OBJECTID":239057},"geometry":{"x":167040.4000000013,"y":2540150.7500000037}},{"attributes":{"ID":239062,"DIS_CODE":0,"TOWNNAME":"南區","LI":"建南里","LIN":"13鄰","STREET":"中華南路","SECT":"二段","MAREA":" ","LANE":"１８５巷","ALLEY":" ","HOUSE_NO":"２２號","E_COORD97":166997.42000000001,"N_COORD97":2540144.8300000001,"ADDRESS":"中華南路二段１８５巷２２號","OBJECTID":239058},"geometry":{"x":166997.42000000086,"y":2540144.8300000019}},{"attributes":{"ID":239063,"DIS_CODE":0,"TOWNNAME":"南區","LI":"建南里","LIN":"13鄰","STREET":"中華南路","SECT":"二段","MAREA":" ","LANE":"１８５巷","ALLEY":" ","HOUSE_NO":"２３號","E_COORD97":167030.94,"N_COORD97":2540132.7200000002,"ADDRESS":"中華南路二段１８５巷２３號","OBJECTID":239059},"geometry":{"x":167030.94000000227,"y":2540132.7200000025}},{"attributes":{"ID":239064,"DIS_CODE":0,"TOWNNAME":"南區","LI":"建南里","LIN":"13鄰","STREET":"中華南路","SECT":"二段","MAREA":" ","LANE":"１８５巷","ALLEY":" ","HOUSE_NO":"２４號","E_COORD97":166996.54999999999,"N_COORD97":2540136.7799999998,"ADDRESS":"中華南路二段１８５巷２４號","OBJECTID":239060},"geometry":{"x":166996.54999999981,"y":2540136.7800000012}},{"attributes":{"ID":239065,"DIS_CODE":0,"TOWNNAME":"南區","LI":"建南里","LIN":"13鄰","STREET":"中華南路","SECT":"二段","MAREA":" ","LANE":"１８５巷","ALLEY":" ","HOUSE_NO":"２５號","E_COORD97":167015.10999999999,"N_COORD97":2540135.6699999999,"ADDRESS":"中華南路二段１８５巷２５號","OBJECTID":239061},"geometry":{"x":167015.11000000127,"y":2540135.6700000018}},{"attributes":{"ID":239066,"DIS_CODE":0,"TOWNNAME":"南區","LI":"建南里","LIN":"13鄰","STREET":"中華南路","SECT":"二段","MAREA":" ","LANE":"１８５巷","ALLEY":" ","HOUSE_NO":"２６號","E_COORD97":166997.64000000001,"N_COORD97":2540129.1699999999,"ADDRESS":"中華南路二段１８５巷２６號","OBJECTID":239062},"geometry":{"x":166997.63999999966,"y":2540129.1699999999}},{"attributes":{"ID":239067,"DIS_CODE":0,"TOWNNAME":"南區","LI":"建南里","LIN":"13鄰","STREET":"中華南路","SECT":"二段","MAREA":" ","LANE":"１８５巷","ALLEY":" ","HOUSE_NO":"２７號","E_COORD97":167015.10999999999,"N_COORD97":2540129.5800000001,"ADDRESS":"中華南路二段１８５巷２７號","OBJECTID":239063},"geometry":{"x":167015.11000000127,"y":2540129.5800000019}},{"attributes":{"ID":239068,"DIS_CODE":0,"TOWNNAME":"南區","LI":"建南里","LIN":"13鄰","STREET":"中華南路","SECT":"二段","MAREA":" ","LANE":"１８５巷","ALLEY":" ","HOUSE_NO":"２８號","E_COORD97":166997.20000000001,"N_COORD97":2540123.73,"ADDRESS":"中華南路二段１８５巷２８號","OBJECTID":239064},"geometry":{"x":166997.20000000112,"y":2540123.7300000004}},{"attributes":{"ID":239069,"DIS_CODE":0,"TOWNNAME":"南區","LI":"建南里","LIN":"13鄰","STREET":"中華南路","SECT":"二段","MAREA":" ","LANE":"１８５巷","ALLEY":" ","HOUSE_NO":"２９號","E_COORD97":167015.32999999999,"N_COORD97":2540124.5699999998,"ADDRESS":"中華南路二段１８５巷２９號","OBJECTID":239065},"geometry":{"x":167015.33000000007,"y":2540124.5700000003}},{"attributes":{"ID":239070,"DIS_CODE":0,"TOWNNAME":"南區","LI":"建南里","LIN":"13鄰","STREET":"中華南路","SECT":"二段","MAREA":" ","LANE":"１８５巷","ALLEY":" ","HOUSE_NO":"３０號","E_COORD97":166997.20000000001,"N_COORD97":2540119.3799999999,"ADDRESS":"中華南路二段１８５巷３０號","OBJECTID":239066},"geometry":{"x":166997.20000000112,"y":2540119.3800000008}},{"attributes":{"ID":239071,"DIS_CODE":0,"TOWNNAME":"南區","LI":"建南里","LIN":"13鄰","STREET":"中華南路","SECT":"二段","MAREA":" ","LANE":"１８５巷","ALLEY":" ","HOUSE_NO":"３１號","E_COORD97":167015.10999999999,"N_COORD97":2540118.9199999999,"ADDRESS":"中華南路二段１８５巷３１號","OBJECTID":239067},"geometry":{"x":167015.11000000127,"y":2540118.9200000037}},{"attributes":{"ID":239072,"DIS_CODE":0,"TOWNNAME":"南區","LI":"建南里","LIN":"13鄰","STREET":"中華南路","SECT":"二段","MAREA":" ","LANE":"１８５巷","ALLEY":" ","HOUSE_NO":"３２號","E_COORD97":166996.76999999999,"N_COORD97":2540114.8100000001,"ADDRESS":"中華南路二段１８５巷３２號","OBJECTID":239068},"geometry":{"x":166996.76999999955,"y":2540114.8100000024}},{"attributes":{"ID":239073,"DIS_CODE":0,"TOWNNAME":"南區","LI":"建南里","LIN":"13鄰","STREET":"中華南路","SECT":"二段","MAREA":" ","LANE":"１８５巷","ALLEY":" ","HOUSE_NO":"３３號","E_COORD97":167015.10999999999,"N_COORD97":2540114.3500000001,"ADDRESS":"中華南路二段１８５巷３３號","OBJECTID":239069},"geometry":{"x":167015.11000000127,"y":2540114.3499999996}},{"attributes":{"ID":239074,"DIS_CODE":0,"TOWNNAME":"南區","LI":"建南里","LIN":"13鄰","STREET":"中華南路","SECT":"二段","MAREA":" ","LANE":"１８５巷","ALLEY":" ","HOUSE_NO":"３４號","E_COORD97":166996.54999999999,"N_COORD97":2540110.8900000001,"ADDRESS":"中華南路二段１８５巷３４號","OBJECTID":239070},"geometry":{"x":166996.54999999981,"y":2540110.8900000025}},{"attributes":{"ID":239075,"DIS_CODE":0,"TOWNNAME":"南區","LI":"建南里","LIN":"13鄰","STREET":"中華南路","SECT":"二段","MAREA":" ","LANE":"１８５巷","ALLEY":" ","HOUSE_NO":"３５號","E_COORD97":167015.10999999999,"N_COORD97":2540110,"ADDRESS":"中華南路二段１８５巷３５號","OBJECTID":239071},"geometry":{"x":167015.11000000127,"y":2540110.0000000019}},{"attributes":{"ID":239076,"DIS_CODE":0,"TOWNNAME":"南區","LI":"建南里","LIN":"13鄰","STREET":"中華南路","SECT":"二段","MAREA":" ","LANE":"１８５巷","ALLEY":" ","HOUSE_NO":"３６號","E_COORD97":166995.45999999999,"N_COORD97":2540105.23,"ADDRESS":"中華南路二段１８５巷３６號","OBJECTID":239072},"geometry":{"x":166995.46000000089,"y":2540105.2300000023}},{"attributes":{"ID":239077,"DIS_CODE":0,"TOWNNAME":"南區","LI":"建南里","LIN":"13鄰","STREET":"中華南路","SECT":"二段","MAREA":" ","LANE":"１８５巷","ALLEY":" ","HOUSE_NO":"３７號","E_COORD97":167015.10999999999,"N_COORD97":2540103.8999999999,"ADDRESS":"中華南路二段１８５巷３７號","OBJECTID":239073},"geometry":{"x":167015.11000000127,"y":2540103.9000000022}},{"attributes":{"ID":239078,"DIS_CODE":0,"TOWNNAME":"南區","LI":"建南里","LIN":"13鄰","STREET":"中華南路","SECT":"二段","MAREA":" ","LANE":"１８５巷","ALLEY":" ","HOUSE_NO":"３８號","E_COORD97":166995.42000000001,"N_COORD97":2540100.5099999998,"ADDRESS":"中華南路二段１８５巷３８號","OBJECTID":239074},"geometry":{"x":166995.42000000086,"y":2540100.5099999998}},{"attributes":{"ID":239079,"DIS_CODE":0,"TOWNNAME":"南區","LI":"建南里","LIN":"13鄰","STREET":"中華南路","SECT":"二段","MAREA":" ","LANE":"１８５巷","ALLEY":" ","HOUSE_NO":"３９號","E_COORD97":167029,"N_COORD97":2540108.7799999998,"ADDRESS":"中華南路二段１８５巷３９號","OBJECTID":239075},"geometry":{"x":167029.00000000093,"y":2540108.7799999993}},{"attributes":{"ID":239080,"DIS_CODE":0,"TOWNNAME":"南區","LI":"建南里","LIN":"13鄰","STREET":"中華南路","SECT":"二段","MAREA":" ","LANE":"１８５巷","ALLEY":" ","HOUSE_NO":"４０號","E_COORD97":166993.67999999999,"N_COORD97":2540096.8100000001,"ADDRESS":"中華南路二段１８５巷４０號","OBJECTID":239076},"geometry":{"x":166993.68000000063,"y":2540096.8100000042}},{"attributes":{"ID":239081,"DIS_CODE":0,"TOWNNAME":"南區","LI":"建南里","LIN":"13鄰","STREET":"中華南路","SECT":"二段","MAREA":" ","LANE":"１８５巷","ALLEY":" ","HOUSE_NO":"４１號","E_COORD97":167034.37,"N_COORD97":2540109.21,"ADDRESS":"中華南路二段１８５巷４１號","OBJECTID":239077},"geometry":{"x":167034.36999999918,"y":2540109.2100000028}},{"attributes":{"ID":239082,"DIS_CODE":0,"TOWNNAME":"南區","LI":"建南里","LIN":"13鄰","STREET":"中華南路","SECT":"二段","MAREA":" ","LANE":"１８５巷","ALLEY":" ","HOUSE_NO":"４２號","E_COORD97":166993.89999999999,"N_COORD97":2540090.0699999998,"ADDRESS":"中華南路二段１８５巷４２號","OBJECTID":239078},"geometry":{"x":166993.90000000224,"y":2540090.0700000003}},{"attributes":{"ID":239083,"DIS_CODE":0,"TOWNNAME":"南區","LI":"建南里","LIN":"13鄰","STREET":"中華南路","SECT":"二段","MAREA":" ","LANE":"１８５巷","ALLEY":" ","HOUSE_NO":"４３號","E_COORD97":167038.67000000001,"N_COORD97":2540108.7799999998,"ADDRESS":"中華南路二段１８５巷４３號","OBJECTID":239079},"geometry":{"x":167038.66999999993,"y":2540108.7799999993}},{"attributes":{"ID":239084,"DIS_CODE":0,"TOWNNAME":"南區","LI":"興農里","LIN":"14鄰","STREET":"明興路","SECT":" ","MAREA":" ","LANE":" ","ALLEY":" ","HOUSE_NO":"１０３９號","E_COORD97":166286.64999999999,"N_COORD97":2536832.4199999999,"ADDRESS":"明興路１０３９號","OBJECTID":239080},"geometry":{"x":166286.65000000037,"y":2536832.4199999999}},{"attributes":{"ID":239085,"DIS_CODE":0,"TOWNNAME":"南區","LI":"興農里","LIN":"14鄰","STREET":"明興路","SECT":" ","MAREA":" ","LANE":" ","ALLEY":" ","HOUSE_NO":"１０４１號","E_COORD97":166290.12,"N_COORD97":2536828.9500000002,"ADDRESS":"明興路１０４１號","OBJECTID":239081},"geometry":{"x":166290.12000000011,"y":2536828.9499999993}},{"attributes":{"ID":239086,"DIS_CODE":0,"TOWNNAME":"善化區","LI":"溪美里","LIN":"1鄰","STREET":" ","SECT":" ","MAREA":"溪尾","LANE":" ","ALLEY":" ","HOUSE_NO":"７２０號","E_COORD97":176860.10000000001,"N_COORD97":2560505.2200000002,"ADDRESS":"溪尾７２０號","OBJECTID":239082},"geometry":{"x":176860.10000000056,"y":2560505.2200000025}},{"attributes":{"ID":239087,"DIS_CODE":0,"TOWNNAME":"歸仁區","LI":"六甲里","LIN":"20鄰","STREET":"中正南路","SECT":"一段","MAREA":" ","LANE":" ","ALLEY":" ","HOUSE_NO":"７２０號","E_COORD97":176476.25438500001,"N_COORD97":2539722.8317900002,"ADDRESS":"中正南路一段７２０號","OBJECTID":239083},"geometry":{"x":176476.25438500009,"y":2539722.8317930028}},{"attributes":{"ID":239088,"DIS_CODE":0,"TOWNNAME":"南區","LI":"興農里","LIN":"14鄰","STREET":"明興路","SECT":" ","MAREA":" ","LANE":" ","ALLEY":" ","HOUSE_NO":"１０４３號","E_COORD97":166292.53,"N_COORD97":2536825.75,"ADDRESS":"明興路１０４３號","OBJECTID":239084},"geometry":{"x":166292.53000000026,"y":2536825.7500000019}},{"attributes":{"ID":239089,"DIS_CODE":0,"TOWNNAME":"北區","LI":"元寶里","LIN":"16鄰","STREET":"北園街","SECT":" ","MAREA":" ","LANE":"８巷","ALLEY":" ","HOUSE_NO":"２８號二樓之８","E_COORD97":170483.76999999999,"N_COORD97":2545668.25,"ADDRESS":"北園街８巷２８號二樓之８","OBJECTID":239085},"geometry":{"x":170483.76999999955,"y":2545668.2500000019}},{"attributes":{"ID":239090,"DIS_CODE":0,"TOWNNAME":"北區","LI":"元寶里","LIN":"16鄰","STREET":"北園街","SECT":" ","MAREA":" ","LANE":"８巷","ALLEY":" ","HOUSE_NO":"２８號二樓之９","E_COORD97":170483.76999999999,"N_COORD97":2545668.25,"ADDRESS":"北園街８巷２８號二樓之９","OBJECTID":239086},"geometry":{"x":170483.76999999955,"y":2545668.2500000019}},{"attributes":{"ID":239091,"DIS_CODE":0,"TOWNNAME":"北區","LI":"元寶里","LIN":"16鄰","STREET":"北園街","SECT":" ","MAREA":" ","LANE":"８巷","ALLEY":" ","HOUSE_NO":"２８號三樓之１","E_COORD97":170483.76999999999,"N_COORD97":2545668.25,"ADDRESS":"北園街８巷２８號三樓之１","OBJECTID":239087},"geometry":{"x":170483.76999999955,"y":2545668.2500000019}},{"attributes":{"ID":239092,"DIS_CODE":0,"TOWNNAME":"北區","LI":"元寶里","LIN":"16鄰","STREET":"北園街","SECT":" ","MAREA":" ","LANE":"８巷","ALLEY":" ","HOUSE_NO":"２８號三樓之３","E_COORD97":170483.76999999999,"N_COORD97":2545668.25,"ADDRESS":"北園街８巷２８號三樓之３","OBJECTID":239088},"geometry":{"x":170483.76999999955,"y":2545668.2500000019}},{"attributes":{"ID":239093,"DIS_CODE":0,"TOWNNAME":"永康區","LI":"復國里","LIN":"32鄰","STREET":"復華一街","SECT":" ","MAREA":" ","LANE":"１９巷","ALLEY":" ","HOUSE_NO":"９號","E_COORD97":172649.73000000001,"N_COORD97":2545037.27,"ADDRESS":"復華一街１９巷９號","OBJECTID":239089},"geometry":{"x":172649.73000000045,"y":2545037.2700000014}},{"attributes":{"ID":239094,"DIS_CODE":0,"TOWNNAME":"南區","LI":"建南里","LIN":"13鄰","STREET":"中華南路","SECT":"二段","MAREA":" ","LANE":"１８５巷","ALLEY":" ","HOUSE_NO":"４４號","E_COORD97":166992.81,"N_COORD97":2540086.1499999999,"ADDRESS":"中華南路二段１８５巷４４號","OBJECTID":239090},"geometry":{"x":166992.80999999959,"y":2540086.1500000004}},{"attributes":{"ID":239095,"DIS_CODE":0,"TOWNNAME":"南區","LI":"建南里","LIN":"13鄰","STREET":"中華南路","SECT":"二段","MAREA":" ","LANE":"１８５巷","ALLEY":" ","HOUSE_NO":"４５號","E_COORD97":167033.29999999999,"N_COORD97":2540087.75,"ADDRESS":"中華南路二段１８５巷４５號","OBJECTID":239091},"geometry":{"x":167033.30000000075,"y":2540087.7500000019}},{"attributes":{"ID":239096,"DIS_CODE":0,"TOWNNAME":"南區","LI":"建南里","LIN":"13鄰","STREET":"中華南路","SECT":"二段","MAREA":" ","LANE":"１８５巷","ALLEY":" ","HOUSE_NO":"４６號","E_COORD97":166992.14999999999,"N_COORD97":2540081.5899999999,"ADDRESS":"中華南路二段１８５巷４６號","OBJECTID":239092},"geometry":{"x":166992.15000000224,"y":2540081.5900000017}},{"attributes":{"ID":239097,"DIS_CODE":0,"TOWNNAME":"南區","LI":"建南里","LIN":"13鄰","STREET":"中華南路","SECT":"二段","MAREA":" ","LANE":"１８５巷","ALLEY":" ","HOUSE_NO":"４７號","E_COORD97":167028.79000000001,"N_COORD97":2540088.3900000001,"ADDRESS":"中華南路二段１８５巷４７號","OBJECTID":239093},"geometry":{"x":167028.79000000097,"y":2540088.3900000006}},{"attributes":{"ID":239098,"DIS_CODE":0,"TOWNNAME":"南區","LI":"建南里","LIN":"13鄰","STREET":"中華南路","SECT":"二段","MAREA":" ","LANE":"１８５巷","ALLEY":" ","HOUSE_NO":"４８號","E_COORD97":166991.5,"N_COORD97":2540076.3599999999,"ADDRESS":"中華南路二段１８５巷４８號","OBJECTID":239094},"geometry":{"x":166991.50000000093,"y":2540076.3600000013}},{"attributes":{"ID":239099,"DIS_CODE":0,"TOWNNAME":"南區","LI":"建南里","LIN":"13鄰","STREET":"中華南路","SECT":"二段","MAREA":" ","LANE":"１８５巷","ALLEY":" ","HOUSE_NO":"４９號","E_COORD97":167012.70000000001,"N_COORD97":2540092.2400000002,"ADDRESS":"中華南路二段１８５巷４９號","OBJECTID":239095},"geometry":{"x":167012.70000000112,"y":2540092.2400000002}},{"attributes":{"ID":239100,"DIS_CODE":0,"TOWNNAME":"南區","LI":"建南里","LIN":"13鄰","STREET":"中華南路","SECT":"二段","MAREA":" ","LANE":"１８５巷","ALLEY":" ","HOUSE_NO":"５０號","E_COORD97":166991.72,"N_COORD97":2540071.5800000001,"ADDRESS":"中華南路二段１８５巷５０號","OBJECTID":239096},"geometry":{"x":166991.72000000067,"y":2540071.5800000019}},{"attributes":{"ID":239101,"DIS_CODE":0,"TOWNNAME":"南區","LI":"建南里","LIN":"13鄰","STREET":"中華南路","SECT":"二段","MAREA":" ","LANE":"１８５巷","ALLEY":" ","HOUSE_NO":"５１號","E_COORD97":167012.70000000001,"N_COORD97":2540086.5800000001,"ADDRESS":"中華南路二段１８５巷５１號","OBJECTID":239097},"geometry":{"x":167012.70000000112,"y":2540086.5800000001}},{"attributes":{"ID":239102,"DIS_CODE":0,"TOWNNAME":"南區","LI":"建南里","LIN":"13鄰","STREET":"中華南路","SECT":"二段","MAREA":" ","LANE":"１８５巷","ALLEY":" ","HOUSE_NO":"５２號","E_COORD97":166991.07000000001,"N_COORD97":2540066.3599999999,"ADDRESS":"中華南路二段１８５巷５２號","OBJECTID":239098},"geometry":{"x":166991.07000000123,"y":2540066.3599999994}},{"attributes":{"ID":239103,"DIS_CODE":0,"TOWNNAME":"南區","LI":"建南里","LIN":"13鄰","STREET":"中華南路","SECT":"二段","MAREA":" ","LANE":"１８５巷","ALLEY":" ","HOUSE_NO":"５３號","E_COORD97":167012.48000000001,"N_COORD97":2540082.23,"ADDRESS":"中華南路二段１８５巷５３號","OBJECTID":239099},"geometry":{"x":167012.48000000138,"y":2540082.2300000004}},{"attributes":{"ID":239104,"DIS_CODE":0,"TOWNNAME":"南區","LI":"建南里","LIN":"13鄰","STREET":"中華南路","SECT":"二段","MAREA":" ","LANE":"１８５巷","ALLEY":" ","HOUSE_NO":"５４號","E_COORD97":166989.32000000001,"N_COORD97":2540062,"ADDRESS":"中華南路二段１８５巷５４號","OBJECTID":239100},"geometry":{"x":166989.32000000216,"y":2540062.0000000019}},{"attributes":{"ID":239105,"DIS_CODE":0,"TOWNNAME":"南區","LI":"建南里","LIN":"13鄰","STREET":"中華南路","SECT":"二段","MAREA":" ","LANE":"１８５巷","ALLEY":" ","HOUSE_NO":"５５號","E_COORD97":167012.48000000001,"N_COORD97":2540076.79,"ADDRESS":"中華南路二段１８５巷５５號","OBJECTID":239101},"geometry":{"x":167012.48000000138,"y":2540076.7899999991}},{"attributes":{"ID":239106,"DIS_CODE":0,"TOWNNAME":"南區","LI":"建南里","LIN":"13鄰","STREET":"中華南路","SECT":"二段","MAREA":" ","LANE":"１８５巷","ALLEY":" ","HOUSE_NO":"５６號","E_COORD97":166989.54000000001,"N_COORD97":2540057.6499999999,"ADDRESS":"中華南路二段１８５巷５６號","OBJECTID":239102},"geometry":{"x":166989.54000000097,"y":2540057.6500000022}},{"attributes":{"ID":239107,"DIS_CODE":0,"TOWNNAME":"南區","LI":"建南里","LIN":"13鄰","STREET":"中華南路","SECT":"二段","MAREA":" ","LANE":"１８５巷","ALLEY":" ","HOUSE_NO":"５７號","E_COORD97":167012.48000000001,"N_COORD97":2540071.3500000001,"ADDRESS":"中華南路二段１８５巷５７號","OBJECTID":239103},"geometry":{"x":167012.48000000138,"y":2540071.3499999996}},{"attributes":{"ID":239108,"DIS_CODE":0,"TOWNNAME":"南區","LI":"建南里","LIN":"13鄰","STREET":"中華南路","SECT":"二段","MAREA":" ","LANE":"１８５巷","ALLEY":" ","HOUSE_NO":"５９號","E_COORD97":167012.48000000001,"N_COORD97":2540067,"ADDRESS":"中華南路二段１８５巷５９號","OBJECTID":239104},"geometry":{"x":167012.48000000138,"y":2540067}},{"attributes":{"ID":239109,"DIS_CODE":0,"TOWNNAME":"南區","LI":"建南里","LIN":"13鄰","STREET":"中華南路","SECT":"二段","MAREA":" ","LANE":"１８５巷","ALLEY":" ","HOUSE_NO":"６１號","E_COORD97":167011.60999999999,"N_COORD97":2540060.9100000001,"ADDRESS":"中華南路二段１８５巷６１號","OBJECTID":239105},"geometry":{"x":167011.61000000127,"y":2540060.9100000001}},{"attributes":{"ID":239110,"DIS_CODE":0,"TOWNNAME":"南區","LI":"建南里","LIN":"13鄰","STREET":"中華南路","SECT":"二段","MAREA":" ","LANE":"１８５巷","ALLEY":" ","HOUSE_NO":"６３號","E_COORD97":167011.39000000001,"N_COORD97":2540056.3399999999,"ADDRESS":"中華南路二段１８５巷６３號","OBJECTID":239106},"geometry":{"x":167011.38999999966,"y":2540056.3400000017}},{"attributes":{"ID":239111,"DIS_CODE":0,"TOWNNAME":"南區","LI":"建南里","LIN":"13鄰","STREET":"中華南路","SECT":"二段","MAREA":" ","LANE":"１８５巷","ALLEY":" ","HOUSE_NO":"６５號","E_COORD97":167010.95999999999,"N_COORD97":2540050.4700000002,"ADDRESS":"中華南路二段１８５巷６５號","OBJECTID":239107},"geometry":{"x":167010.95999999996,"y":2540050.4700000007}},{"attributes":{"ID":239112,"DIS_CODE":0,"TOWNNAME":"南區","LI":"建南里","LIN":"13鄰","STREET":"中華南路","SECT":"二段","MAREA":" ","LANE":"１８５巷","ALLEY":" ","HOUSE_NO":"６７號","E_COORD97":167010.51999999999,"N_COORD97":2540046.1200000001,"ADDRESS":"中華南路二段１８５巷６７號","OBJECTID":239108},"geometry":{"x":167010.51999999955,"y":2540046.120000001}},{"attributes":{"ID":239113,"DIS_CODE":0,"TOWNNAME":"南區","LI":"興農里","LIN":"14鄰","STREET":"明興路","SECT":" ","MAREA":" ","LANE":" ","ALLEY":" ","HOUSE_NO":"１０４５號","E_COORD97":166296.26999999999,"N_COORD97":2536822.0099999998,"ADDRESS":"明興路１０４５號","OBJECTID":239109},"geometry":{"x":166296.27000000048,"y":2536822.0099999998}},{"attributes":{"ID":239114,"DIS_CODE":0,"TOWNNAME":"南區","LI":"興農里","LIN":"14鄰","STREET":"明興路","SECT":" ","MAREA":" ","LANE":" ","ALLEY":" ","HOUSE_NO":"１０４７號","E_COORD97":166299.48000000001,"N_COORD97":2536817.48,"ADDRESS":"明興路１０４７號","OBJECTID":239110},"geometry":{"x":166299.48000000045,"y":2536817.4800000023}},{"attributes":{"ID":239115,"DIS_CODE":0,"TOWNNAME":"南區","LI":"興農里","LIN":"14鄰","STREET":"明興路","SECT":" ","MAREA":" ","LANE":" ","ALLEY":" ","HOUSE_NO":"１０４９號","E_COORD97":166304.01999999999,"N_COORD97":2536815.0699999998,"ADDRESS":"明興路１０４９號","OBJECTID":239111},"geometry":{"x":166304.02000000142,"y":2536815.0700000003}},{"attributes":{"ID":239116,"DIS_CODE":0,"TOWNNAME":"南區","LI":"興農里","LIN":"14鄰","STREET":"明興路","SECT":" ","MAREA":" ","LANE":" ","ALLEY":" ","HOUSE_NO":"１０５１號","E_COORD97":166307.48999999999,"N_COORD97":2536812.1400000001,"ADDRESS":"明興路１０５１號","OBJECTID":239112},"geometry":{"x":166307.49000000022,"y":2536812.1400000006}},{"attributes":{"ID":239117,"DIS_CODE":0,"TOWNNAME":"南區","LI":"興農里","LIN":"14鄰","STREET":"明興路","SECT":" ","MAREA":" ","LANE":" ","ALLEY":" ","HOUSE_NO":"１０５３號","E_COORD97":166311.23000000001,"N_COORD97":2536807.8700000001,"ADDRESS":"明興路１０５３號","OBJECTID":239113},"geometry":{"x":166311.23000000045,"y":2536807.8699999992}},{"attributes":{"ID":239118,"DIS_CODE":0,"TOWNNAME":"永康區","LI":"復國里","LIN":"32鄰","STREET":"復華一街","SECT":" ","MAREA":" ","LANE":"２８巷","ALLEY":" ","HOUSE_NO":"１８號","E_COORD97":172662.66,"N_COORD97":2545181.0499999998,"ADDRESS":"復華一街２８巷１８號","OBJECTID":239114},"geometry":{"x":172662.66000000108,"y":2545181.0500000045}},{"attributes":{"ID":239119,"DIS_CODE":0,"TOWNNAME":"永康區","LI":"復國里","LIN":"32鄰","STREET":"復華一街","SECT":" ","MAREA":" ","LANE":"１９巷","ALLEY":" ","HOUSE_NO":"１５號","E_COORD97":172652.75,"N_COORD97":2544999.2799999998,"ADDRESS":"復華一街１９巷１５號","OBJECTID":239115},"geometry":{"x":172652.75,"y":2544999.2800000012}},{"attributes":{"ID":239120,"DIS_CODE":0,"TOWNNAME":"永康區","LI":"復國里","LIN":"32鄰","STREET":"復華一街","SECT":" ","MAREA":" ","LANE":"１９巷","ALLEY":" ","HOUSE_NO":"３３號","E_COORD97":172651.81,"N_COORD97":2544962.2799999998,"ADDRESS":"復華一街１９巷３３號","OBJECTID":239116},"geometry":{"x":172651.80999999959,"y":2544962.2800000012}},{"attributes":{"ID":239121,"DIS_CODE":0,"TOWNNAME":"南區","LI":"建南里","LIN":"13鄰","STREET":"中華南路","SECT":"二段","MAREA":" ","LANE":"１８５巷","ALLEY":" ","HOUSE_NO":"６９號","E_COORD97":167008.78,"N_COORD97":2540041.7599999998,"ADDRESS":"中華南路二段１８５巷６９號","OBJECTID":239117},"geometry":{"x":167008.78000000119,"y":2540041.7599999979}},{"attributes":{"ID":239122,"DIS_CODE":0,"TOWNNAME":"南區","LI":"建南里","LIN":"13鄰","STREET":"中華南路","SECT":"二段","MAREA":" ","LANE":"１８５巷","ALLEY":" ","HOUSE_NO":"７１號","E_COORD97":167009,"N_COORD97":2540036.54,"ADDRESS":"中華南路二段１８５巷７１號","OBJECTID":239118},"geometry":{"x":167009,"y":2540036.540000001}},{"attributes":{"ID":239123,"DIS_CODE":0,"TOWNNAME":"東區","LI":"虎尾里","LIN":"13鄰","STREET":"東成街","SECT":" ","MAREA":" ","LANE":"１３１巷","ALLEY":" ","HOUSE_NO":"３號","E_COORD97":171680.20000000001,"N_COORD97":2542344.5600000001,"ADDRESS":"東成街１３１巷３號","OBJECTID":239119},"geometry":{"x":171680.20000000019,"y":2542344.5600000005}},{"attributes":{"ID":239124,"DIS_CODE":0,"TOWNNAME":"東區","LI":"虎尾里","LIN":"13鄰","STREET":"東成街","SECT":" ","MAREA":" ","LANE":"１３１巷","ALLEY":" ","HOUSE_NO":"５號","E_COORD97":171679.53,"N_COORD97":2542348.8100000001,"ADDRESS":"東成街１３１巷５號","OBJECTID":239120},"geometry":{"x":171679.53000000026,"y":2542348.8100000024}},{"attributes":{"ID":239125,"DIS_CODE":0,"TOWNNAME":"東區","LI":"虎尾里","LIN":"13鄰","STREET":"東成街","SECT":" ","MAREA":" ","LANE":"１３１巷","ALLEY":" ","HOUSE_NO":"７號","E_COORD97":171679.66,"N_COORD97":2542353.2000000002,"ADDRESS":"東成街１３１巷７號","OBJECTID":239121},"geometry":{"x":171679.66000000108,"y":2542353.1999999993}},{"attributes":{"ID":239126,"DIS_CODE":0,"TOWNNAME":"東區","LI":"虎尾里","LIN":"13鄰","STREET":"東成街","SECT":" ","MAREA":" ","LANE":"１２１巷","ALLEY":" ","HOUSE_NO":"３號","E_COORD97":171634.42000000001,"N_COORD97":2542310.1899999999,"ADDRESS":"東成街１２１巷３號","OBJECTID":239122},"geometry":{"x":171634.41999999993,"y":2542310.1900000032}},{"attributes":{"ID":239127,"DIS_CODE":0,"TOWNNAME":"東區","LI":"虎尾里","LIN":"13鄰","STREET":"東成街","SECT":" ","MAREA":" ","LANE":"１２１巷","ALLEY":" ","HOUSE_NO":"５號","E_COORD97":171634.14999999999,"N_COORD97":2542313.6499999999,"ADDRESS":"東成街１２１巷５號","OBJECTID":239123},"geometry":{"x":171634.1500000013,"y":2542313.6500000004}},{"attributes":{"ID":239128,"DIS_CODE":0,"TOWNNAME":"東區","LI":"虎尾里","LIN":"13鄰","STREET":"東成街","SECT":" ","MAREA":" ","LANE":"１２１巷","ALLEY":" ","HOUSE_NO":"６號","E_COORD97":171651.10691100001,"N_COORD97":2542322.1892300001,"ADDRESS":"東成街１２１巷６號","OBJECTID":239124},"geometry":{"x":171651.1069110008,"y":2542322.1892339997}},{"attributes":{"ID":239129,"DIS_CODE":0,"TOWNNAME":"東區","LI":"虎尾里","LIN":"13鄰","STREET":"東成街","SECT":" ","MAREA":" ","LANE":"１２１巷","ALLEY":" ","HOUSE_NO":"７號","E_COORD97":171629.19141,"N_COORD97":2542321.4886400001,"ADDRESS":"東成街１２１巷７號","OBJECTID":239125},"geometry":{"x":171629.19141000137,"y":2542321.4886409994}},{"attributes":{"ID":239130,"DIS_CODE":0,"TOWNNAME":"東區","LI":"虎尾里","LIN":"13鄰","STREET":"東成街","SECT":" ","MAREA":" ","LANE":"１２１巷","ALLEY":" ","HOUSE_NO":"８號","E_COORD97":171652.378153,"N_COORD97":2542326.2108999998,"ADDRESS":"東成街１２１巷８號","OBJECTID":239126},"geometry":{"x":171652.37815300189,"y":2542326.210899001}},{"attributes":{"ID":239131,"DIS_CODE":0,"TOWNNAME":"東區","LI":"虎尾里","LIN":"13鄰","STREET":"東成街","SECT":" ","MAREA":" ","LANE":"１２１巷","ALLEY":" ","HOUSE_NO":"９號","E_COORD97":171627.70829400001,"N_COORD97":2542325.5103099998,"ADDRESS":"東成街１２１巷９號","OBJECTID":239127},"geometry":{"x":171627.70829400048,"y":2542325.5103060007}},{"attributes":{"ID":239132,"DIS_CODE":0,"TOWNNAME":"東區","LI":"虎尾里","LIN":"13鄰","STREET":"東成街","SECT":" ","MAREA":" ","LANE":"１２１巷","ALLEY":" ","HOUSE_NO":"１０號","E_COORD97":171651.954406,"N_COORD97":2542330.2325599999,"ADDRESS":"東成街１２１巷１０號","OBJECTID":239128},"geometry":{"x":171651.95440599974,"y":2542330.232563002}},{"attributes":{"ID":239133,"DIS_CODE":0,"TOWNNAME":"東區","LI":"虎尾里","LIN":"13鄰","STREET":"東成街","SECT":" ","MAREA":" ","LANE":"１２１巷","ALLEY":" ","HOUSE_NO":"１１號","E_COORD97":171626.86079899999,"N_COORD97":2542328.6853,"ADDRESS":"東成街１２１巷１１號","OBJECTID":239129},"geometry":{"x":171626.86079899967,"y":2542328.685304001}},{"attributes":{"ID":239134,"DIS_CODE":0,"TOWNNAME":"東區","LI":"虎尾里","LIN":"13鄰","STREET":"東成街","SECT":" ","MAREA":" ","LANE":"１２１巷","ALLEY":" ","HOUSE_NO":"１２號","E_COORD97":171652.378153,"N_COORD97":2542333.8308999999,"ADDRESS":"東成街１２１巷１２號","OBJECTID":239130},"geometry":{"x":171652.37815300189,"y":2542333.8308949992}},{"attributes":{"ID":239135,"DIS_CODE":0,"TOWNNAME":"東區","LI":"虎尾里","LIN":"13鄰","STREET":"東成街","SECT":" ","MAREA":" ","LANE":"１２１巷","ALLEY":" ","HOUSE_NO":"１３號","E_COORD97":171627.70829400001,"N_COORD97":2542332.0719699999,"ADDRESS":"東成街１２１巷１３號","OBJECTID":239131},"geometry":{"x":171627.70829400048,"y":2542332.0719690006}},{"attributes":{"ID":239136,"DIS_CODE":0,"TOWNNAME":"東區","LI":"虎尾里","LIN":"13鄰","STREET":"東成街","SECT":" ","MAREA":" ","LANE":"１２１巷","ALLEY":" ","HOUSE_NO":"１６號","E_COORD97":171651.04999999999,"N_COORD97":2542346.9500000002,"ADDRESS":"東成街１２１巷１６號","OBJECTID":239132},"geometry":{"x":171651.05000000075,"y":2542346.9500000011}},{"attributes":{"ID":239137,"DIS_CODE":0,"TOWNNAME":"東區","LI":"虎尾里","LIN":"13鄰","STREET":"東成街","SECT":" ","MAREA":" ","LANE":"１２１巷","ALLEY":" ","HOUSE_NO":"１８號","E_COORD97":171650.25,"N_COORD97":2542353.4700000002,"ADDRESS":"東成街１２１巷１８號","OBJECTID":239133},"geometry":{"x":171650.25000000093,"y":2542353.4699999988}},{"attributes":{"ID":239138,"DIS_CODE":0,"TOWNNAME":"東區","LI":"虎尾里","LIN":"13鄰","STREET":"東成街","SECT":" ","MAREA":" ","LANE":"１３１巷","ALLEY":" ","HOUSE_NO":"９號","E_COORD97":171670.07999999999,"N_COORD97":2542347.8799999999,"ADDRESS":"東成街１３１巷９號","OBJECTID":239134},"geometry":{"x":171670.08000000101,"y":2542347.879999999}},{"attributes":{"ID":239139,"DIS_CODE":0,"TOWNNAME":"東區","LI":"虎尾里","LIN":"13鄰","STREET":"東成街","SECT":" ","MAREA":" ","LANE":"１３１巷","ALLEY":" ","HOUSE_NO":"１１號","E_COORD97":171665.82000000001,"N_COORD97":2542347.8799999999,"ADDRESS":"東成街１３１巷１１號","OBJECTID":239135},"geometry":{"x":171665.8200000003,"y":2542347.879999999}},{"attributes":{"ID":239140,"DIS_CODE":0,"TOWNNAME":"東區","LI":"大智里","LIN":"13鄰","STREET":"德東街","SECT":" ","MAREA":" ","LANE":"１３６巷","ALLEY":" ","HOUSE_NO":"４３號","E_COORD97":171223.42000000001,"N_COORD97":2540141.9900000002,"ADDRESS":"德東街１３６巷４３號","OBJECTID":239136},"geometry":{"x":171223.42000000086,"y":2540141.9900000002}},{"attributes":{"ID":239141,"DIS_CODE":0,"TOWNNAME":"東區","LI":"大智里","LIN":"13鄰","STREET":"德東街","SECT":" ","MAREA":" ","LANE":"１３６巷","ALLEY":" ","HOUSE_NO":"４１號","E_COORD97":171229.04999999999,"N_COORD97":2540142.8199999998,"ADDRESS":"德東街１３６巷４１號","OBJECTID":239137},"geometry":{"x":171229.05000000075,"y":2540142.8200000003}},{"attributes":{"ID":239142,"DIS_CODE":0,"TOWNNAME":"東區","LI":"大智里","LIN":"13鄰","STREET":"德東街","SECT":" ","MAREA":" ","LANE":"１３６巷","ALLEY":" ","HOUSE_NO":"３９號","E_COORD97":171235.34,"N_COORD97":2540143.6499999999,"ADDRESS":"德東街１３６巷３９號","OBJECTID":239138},"geometry":{"x":171235.34000000078,"y":2540143.6500000004}},{"attributes":{"ID":239143,"DIS_CODE":0,"TOWNNAME":"東區","LI":"大智里","LIN":"13鄰","STREET":"德東街","SECT":" ","MAREA":" ","LANE":"１３６巷","ALLEY":" ","HOUSE_NO":"３７號","E_COORD97":171234.35000000001,"N_COORD97":2540152.7599999998,"ADDRESS":"德東街１３６巷３７號","OBJECTID":239139},"geometry":{"x":171234.34999999963,"y":2540152.7599999998}},{"attributes":{"ID":239144,"DIS_CODE":0,"TOWNNAME":"安平區","LI":"華平里","LIN":"14鄰","STREET":"永華路","SECT":"二段","MAREA":" ","LANE":" ","ALLEY":" ","HOUSE_NO":"６７２號","E_COORD97":165237.20999999999,"N_COORD97":2543528.4500000002,"ADDRESS":"永華路二段６７２號","OBJECTID":239140},"geometry":{"x":165237.21000000089,"y":2543528.4499999993}},{"attributes":{"ID":239145,"DIS_CODE":0,"TOWNNAME":"安平區","LI":"華平里","LIN":"14鄰","STREET":"永華路","SECT":"二段","MAREA":" ","LANE":" ","ALLEY":" ","HOUSE_NO":"６７４號","E_COORD97":165232.29000000001,"N_COORD97":2543529.23,"ADDRESS":"永華路二段６７４號","OBJECTID":239141},"geometry":{"x":165232.29000000004,"y":2543529.2300000023}},{"attributes":{"ID":239146,"DIS_CODE":0,"TOWNNAME":"安平區","LI":"華平里","LIN":"14鄰","STREET":"永華路","SECT":"二段","MAREA":" ","LANE":" ","ALLEY":" ","HOUSE_NO":"６７６號","E_COORD97":165229.38,"N_COORD97":2543531.02,"ADDRESS":"永華路二段６７６號","OBJECTID":239142},"geometry":{"x":165229.38000000082,"y":2543531.0199999996}},{"attributes":{"ID":239147,"DIS_CODE":0,"TOWNNAME":"東區","LI":"大智里","LIN":"13鄰","STREET":"德東街","SECT":" ","MAREA":" ","LANE":"１３６巷","ALLEY":" ","HOUSE_NO":"３５號","E_COORD97":171227.89000000001,"N_COORD97":2540152.7599999998,"ADDRESS":"德東街１３６巷３５號","OBJECTID":239143},"geometry":{"x":171227.8900000006,"y":2540152.7599999998}},{"attributes":{"ID":239148,"DIS_CODE":0,"TOWNNAME":"東區","LI":"大智里","LIN":"13鄰","STREET":"德東街","SECT":" ","MAREA":" ","LANE":"１３６巷","ALLEY":" ","HOUSE_NO":"３３號","E_COORD97":171223.25,"N_COORD97":2540152.7599999998,"ADDRESS":"德東街１３６巷３３號","OBJECTID":239144},"geometry":{"x":171223.25,"y":2540152.7599999998}},{"attributes":{"ID":239149,"DIS_CODE":0,"TOWNNAME":"東區","LI":"大智里","LIN":"13鄰","STREET":"德東街","SECT":" ","MAREA":" ","LANE":"１３６巷","ALLEY":" ","HOUSE_NO":"３１號","E_COORD97":171217.29000000001,"N_COORD97":2540153.4199999999,"ADDRESS":"德東街１３６巷３１號","OBJECTID":239145},"geometry":{"x":171217.29000000097,"y":2540153.4200000018}},{"attributes":{"ID":239150,"DIS_CODE":0,"TOWNNAME":"新市區","LI":"港墘里","LIN":"13鄰","STREET":"中山路","SECT":" ","MAREA":" ","LANE":"７８巷","ALLEY":" ","HOUSE_NO":"６１號","E_COORD97":178184.12,"N_COORD97":2552856.5,"ADDRESS":"中山路７８巷６１號","OBJECTID":239146},"geometry":{"x":178184.12000000104,"y":2552856.5000000019}},{"attributes":{"ID":239151,"DIS_CODE":0,"TOWNNAME":"新市區","LI":"港墘里","LIN":"13鄰","STREET":"中山路","SECT":" ","MAREA":" ","LANE":"７８巷","ALLEY":" ","HOUSE_NO":"５１號","E_COORD97":178221.95000000001,"N_COORD97":2552848.5,"ADDRESS":"中山路７８巷５１號","OBJECTID":239147},"geometry":{"x":178221.95000000019,"y":2552848.5}},{"attributes":{"ID":239152,"DIS_CODE":0,"TOWNNAME":"新市區","LI":"新市里","LIN":"13鄰","STREET":"中正路","SECT":" ","MAREA":" ","LANE":"３０１巷","ALLEY":" ","HOUSE_NO":"３１號","E_COORD97":177555.67999999999,"N_COORD97":2553331,"ADDRESS":"中正路３０１巷３１號","OBJECTID":239148},"geometry":{"x":177555.68000000156,"y":2553331.0000000037}},{"attributes":{"ID":239153,"DIS_CODE":0,"TOWNNAME":"中西區","LI":"保安里","LIN":"13鄰","STREET":"友愛街","SECT":" ","MAREA":" ","LANE":"２０６巷","ALLEY":" ","HOUSE_NO":"１號","E_COORD97":167618.73000000001,"N_COORD97":2543657.2999999998,"ADDRESS":"友愛街２０６巷１號","OBJECTID":239149},"geometry":{"x":167618.73000000045,"y":2543657.3000000026}},{"attributes":{"ID":239154,"DIS_CODE":0,"TOWNNAME":"中西區","LI":"保安里","LIN":"13鄰","STREET":"友愛街","SECT":" ","MAREA":" ","LANE":"２０６巷","ALLEY":" ","HOUSE_NO":"３號","E_COORD97":167618,"N_COORD97":2543659.7599999998,"ADDRESS":"友愛街２０６巷３號","OBJECTID":239150},"geometry":{"x":167618,"y":2543659.7600000016}},{"attributes":{"ID":239155,"DIS_CODE":0,"TOWNNAME":"中西區","LI":"仙草里","LIN":"13鄰","STREET":"南寧街","SECT":" ","MAREA":" ","LANE":"８３巷","ALLEY":" ","HOUSE_NO":"１１號","E_COORD97":167826.16,"N_COORD97":2542805.5099999998,"ADDRESS":"南寧街８３巷１１號","OBJECTID":239151},"geometry":{"x":167826.16000000108,"y":2542805.5099999998}},{"attributes":{"ID":239156,"DIS_CODE":0,"TOWNNAME":"中西區","LI":"仙草里","LIN":"13鄰","STREET":"南寧街","SECT":" ","MAREA":" ","LANE":"８３巷","ALLEY":" ","HOUSE_NO":"１３號","E_COORD97":167826.67999999999,"N_COORD97":2542799.27,"ADDRESS":"南寧街８３巷１３號","OBJECTID":239152},"geometry":{"x":167826.6799999997,"y":2542799.2700000014}},{"attributes":{"ID":239157,"DIS_CODE":0,"TOWNNAME":"中西區","LI":"仙草里","LIN":"13鄰","STREET":"南寧街","SECT":" ","MAREA":" ","LANE":"８３巷","ALLEY":" ","HOUSE_NO":"１４號","E_COORD97":167796.14000000001,"N_COORD97":2542829.4399999999,"ADDRESS":"南寧街８３巷１４號","OBJECTID":239153},"geometry":{"x":167796.13999999966,"y":2542829.4399999995}},{"attributes":{"ID":239158,"DIS_CODE":0,"TOWNNAME":"中西區","LI":"仙草里","LIN":"13鄰","STREET":"南寧街","SECT":" ","MAREA":" ","LANE":"８３巷","ALLEY":" ","HOUSE_NO":"１９號","E_COORD97":167827.03,"N_COORD97":2542770.52,"ADDRESS":"南寧街８３巷１９號","OBJECTID":239154},"geometry":{"x":167827.03000000119,"y":2542770.5200000014}},{"attributes":{"ID":239159,"DIS_CODE":0,"TOWNNAME":"中西區","LI":"仙草里","LIN":"13鄰","STREET":"南寧街","SECT":" ","MAREA":" ","LANE":"８３巷","ALLEY":" ","HOUSE_NO":"１號","E_COORD97":167823.56,"N_COORD97":2542830.8300000001,"ADDRESS":"南寧街８３巷１號","OBJECTID":239155},"geometry":{"x":167823.55999999959,"y":2542830.8300000001}},{"attributes":{"ID":239160,"DIS_CODE":0,"TOWNNAME":"中西區","LI":"仙草里","LIN":"13鄰","STREET":"南寧街","SECT":" ","MAREA":" ","LANE":"８３巷","ALLEY":" ","HOUSE_NO":"２０號","E_COORD97":167801.17000000001,"N_COORD97":2542806.0299999998,"ADDRESS":"南寧街８３巷２０號","OBJECTID":239156},"geometry":{"x":167801.16999999993,"y":2542806.0299999975}},{"attributes":{"ID":239161,"DIS_CODE":0,"TOWNNAME":"中西區","LI":"仙草里","LIN":"13鄰","STREET":"南寧街","SECT":" ","MAREA":" ","LANE":"８３巷","ALLEY":" ","HOUSE_NO":"２２號","E_COORD97":167810.19,"N_COORD97":2542808.2799999998,"ADDRESS":"南寧街８３巷２２號","OBJECTID":239157},"geometry":{"x":167810.19000000041,"y":2542808.2800000012}},{"attributes":{"ID":239162,"DIS_CODE":0,"TOWNNAME":"中西區","LI":"仙草里","LIN":"13鄰","STREET":"南寧街","SECT":" ","MAREA":" ","LANE":"８３巷","ALLEY":" ","HOUSE_NO":"２４號","E_COORD97":167811.23000000001,"N_COORD97":2542804.6400000001,"ADDRESS":"南寧街８３巷２４號","OBJECTID":239158},"geometry":{"x":167811.23000000138,"y":2542804.6400000025}},{"attributes":{"ID":239163,"DIS_CODE":0,"TOWNNAME":"中西區","LI":"仙草里","LIN":"13鄰","STREET":"南寧街","SECT":" ","MAREA":" ","LANE":"８３巷","ALLEY":" ","HOUSE_NO":"２６號","E_COORD97":167810.89000000001,"N_COORD97":2542800.3100000001,"ADDRESS":"南寧街８３巷２６號","OBJECTID":239159},"geometry":{"x":167810.8900000006,"y":2542800.3100000024}},{"attributes":{"ID":239164,"DIS_CODE":0,"TOWNNAME":"中西區","LI":"仙草里","LIN":"13鄰","STREET":"南寧街","SECT":" ","MAREA":" ","LANE":"８３巷","ALLEY":" ","HOUSE_NO":"２８號","E_COORD97":167809.67000000001,"N_COORD97":2542796.3199999998,"ADDRESS":"南寧街８３巷２８號","OBJECTID":239160},"geometry":{"x":167809.66999999993,"y":2542796.3200000022}},{"attributes":{"ID":239165,"DIS_CODE":0,"TOWNNAME":"中西區","LI":"仙草里","LIN":"13鄰","STREET":"南寧街","SECT":" ","MAREA":" ","LANE":"８３巷","ALLEY":" ","HOUSE_NO":"２號","E_COORD97":167815.78,"N_COORD97":2542837.96,"ADDRESS":"南寧街８３巷２號","OBJECTID":239161},"geometry":{"x":167815.78000000119,"y":2542837.9600000009}},{"attributes":{"ID":239166,"DIS_CODE":0,"TOWNNAME":"中西區","LI":"仙草里","LIN":"13鄰","STREET":"南寧街","SECT":" ","MAREA":" ","LANE":"８３巷","ALLEY":" ","HOUSE_NO":"３０號","E_COORD97":167811.41,"N_COORD97":2542791.1099999999,"ADDRESS":"南寧街８３巷３０號","OBJECTID":239162},"geometry":{"x":167811.41000000108,"y":2542791.1099999994}},{"attributes":{"ID":239167,"DIS_CODE":0,"TOWNNAME":"中西區","LI":"仙草里","LIN":"13鄰","STREET":"南寧街","SECT":" ","MAREA":" ","LANE":"８３巷","ALLEY":" ","HOUSE_NO":"３２號","E_COORD97":167809.85000000001,"N_COORD97":2542786.7799999998,"ADDRESS":"南寧街８３巷３２號","OBJECTID":239163},"geometry":{"x":167809.84999999963,"y":2542786.7799999993}},{"attributes":{"ID":239168,"DIS_CODE":0,"TOWNNAME":"中西區","LI":"仙草里","LIN":"13鄰","STREET":"南寧街","SECT":" ","MAREA":" ","LANE":"８３巷","ALLEY":" ","HOUSE_NO":"３８號","E_COORD97":167814.01000000001,"N_COORD97":2542766.04,"ADDRESS":"南寧街８３巷３８號","OBJECTID":239164},"geometry":{"x":167814.00999999978,"y":2542766.040000001}},{"attributes":{"ID":239169,"DIS_CODE":0,"TOWNNAME":"中西區","LI":"小西里","LIN":"13鄰","STREET":"府前路","SECT":"一段","MAREA":" ","LANE":"３５９巷","ALLEY":" ","HOUSE_NO":"８號","E_COORD97":167885.66,"N_COORD97":2543347.5899999999,"ADDRESS":"府前路一段３５９巷８號","OBJECTID":239165},"geometry":{"x":167885.66000000108,"y":2543347.5899999999}},{"attributes":{"ID":239170,"DIS_CODE":0,"TOWNNAME":"中西區","LI":"小西里","LIN":"13鄰","STREET":"府前路","SECT":"一段","MAREA":" ","LANE":"３７１巷","ALLEY":" ","HOUSE_NO":"１１號","E_COORD97":167875.16,"N_COORD97":2543347.9399999999,"ADDRESS":"府前路一段３７１巷１１號","OBJECTID":239166},"geometry":{"x":167875.16000000201,"y":2543347.9399999995}},{"attributes":{"ID":239171,"DIS_CODE":0,"TOWNNAME":"中西區","LI":"小西里","LIN":"13鄰","STREET":"府前路","SECT":"一段","MAREA":" ","LANE":"３７１巷","ALLEY":" ","HOUSE_NO":"１３號","E_COORD97":167875.16,"N_COORD97":2543342.7000000002,"ADDRESS":"府前路一段３７１巷１３號","OBJECTID":239167},"geometry":{"x":167875.16000000201,"y":2543342.6999999993}},{"attributes":{"ID":239172,"DIS_CODE":0,"TOWNNAME":"中西區","LI":"小西里","LIN":"13鄰","STREET":"府前路","SECT":"一段","MAREA":" ","LANE":"３７１巷","ALLEY":" ","HOUSE_NO":"１５號","E_COORD97":167878.54000000001,"N_COORD97":2543337.2200000002,"ADDRESS":"府前路一段３７１巷１５號","OBJECTID":239168},"geometry":{"x":167878.54000000004,"y":2543337.2200000007}},{"attributes":{"ID":239173,"DIS_CODE":0,"TOWNNAME":"中西區","LI":"小西里","LIN":"13鄰","STREET":"府前路","SECT":"一段","MAREA":" ","LANE":"３７１巷","ALLEY":" ","HOUSE_NO":"３號","E_COORD97":167875.63,"N_COORD97":2543362.2799999998,"ADDRESS":"府前路一段３７１巷３號","OBJECTID":239169},"geometry":{"x":167875.63000000082,"y":2543362.2799999993}},{"attributes":{"ID":239174,"DIS_CODE":0,"TOWNNAME":"中西區","LI":"小西里","LIN":"13鄰","STREET":"府前路","SECT":"一段","MAREA":" ","LANE":"３７１巷","ALLEY":" ","HOUSE_NO":"５號","E_COORD97":167878.31,"N_COORD97":2543358.8999999999,"ADDRESS":"府前路一段３７１巷５號","OBJECTID":239170},"geometry":{"x":167878.30999999959,"y":2543358.9000000022}},{"attributes":{"ID":239175,"DIS_CODE":0,"TOWNNAME":"中西區","LI":"小西里","LIN":"13鄰","STREET":"府前路","SECT":"一段","MAREA":" ","LANE":"３７１巷","ALLEY":" ","HOUSE_NO":"７號","E_COORD97":167872.94,"N_COORD97":2543356.1000000001,"ADDRESS":"府前路一段３７１巷７號","OBJECTID":239171},"geometry":{"x":167872.94000000041,"y":2543356.1000000015}},{"attributes":{"ID":239176,"DIS_CODE":0,"TOWNNAME":"中西區","LI":"小西里","LIN":"13鄰","STREET":"府前路","SECT":"一段","MAREA":" ","LANE":"３７１巷","ALLEY":" ","HOUSE_NO":"９號","E_COORD97":167876.32999999999,"N_COORD97":2543352.2599999998,"ADDRESS":"府前路一段３７１巷９號","OBJECTID":239172},"geometry":{"x":167876.33000000101,"y":2543352.2600000016}},{"attributes":{"ID":239177,"DIS_CODE":0,"TOWNNAME":"中西區","LI":"小西里","LIN":"13鄰","STREET":"府前路","SECT":"一段","MAREA":" ","LANE":"３５９巷","ALLEY":" ","HOUSE_NO":"７號","E_COORD97":167935.70999999999,"N_COORD97":2543372.8500000001,"ADDRESS":"府前路一段３５９巷７號","OBJECTID":239173},"geometry":{"x":167935.71000000089,"y":2543372.8499999996}},{"attributes":{"ID":239178,"DIS_CODE":0,"TOWNNAME":"安南區","LI":"佃東里","LIN":"13鄰","STREET":"公學路","SECT":"四段","MAREA":" ","LANE":"１２２巷","ALLEY":" ","HOUSE_NO":"１４號","E_COORD97":165608.17000000001,"N_COORD97":2552122.6400000001,"ADDRESS":"公學路四段１２２巷１４號","OBJECTID":239174},"geometry":{"x":165608.16999999899,"y":2552122.6400000006}},{"attributes":{"ID":239179,"DIS_CODE":0,"TOWNNAME":"安南區","LI":"佃東里","LIN":"13鄰","STREET":"公學路","SECT":"四段","MAREA":" ","LANE":"１２２巷","ALLEY":" ","HOUSE_NO":"４號","E_COORD97":165604.35000000001,"N_COORD97":2552111.23,"ADDRESS":"公學路四段１２２巷４號","OBJECTID":239175},"geometry":{"x":165604.34999999963,"y":2552111.2300000004}},{"attributes":{"ID":239180,"DIS_CODE":0,"TOWNNAME":"南區","LI":"郡南里","LIN":"13鄰","STREET":"永成路","SECT":"三段","MAREA":" ","LANE":"７１巷","ALLEY":" ","HOUSE_NO":"１５號","E_COORD97":167440.06,"N_COORD97":2540552.6899999999,"ADDRESS":"永成路三段７１巷１５號","OBJECTID":239176},"geometry":{"x":167440.06000000052,"y":2540552.6899999995}},{"attributes":{"ID":239181,"DIS_CODE":0,"TOWNNAME":"南區","LI":"郡南里","LIN":"13鄰","STREET":"永成路","SECT":"三段","MAREA":" ","LANE":"７１巷","ALLEY":" ","HOUSE_NO":"１７號","E_COORD97":167434.17999999999,"N_COORD97":2540552.0800000001,"ADDRESS":"永成路三段７１巷１７號","OBJECTID":239177},"geometry":{"x":167434.18000000063,"y":2540552.0800000038}},{"attributes":{"ID":239182,"DIS_CODE":0,"TOWNNAME":"南區","LI":"郡南里","LIN":"13鄰","STREET":"永成路","SECT":"三段","MAREA":" ","LANE":"７１巷","ALLEY":" ","HOUSE_NO":"１９號","E_COORD97":167430.23999999999,"N_COORD97":2540552.0800000001,"ADDRESS":"永成路三段７１巷１９號","OBJECTID":239178},"geometry":{"x":167430.24000000022,"y":2540552.0800000038}},{"attributes":{"ID":239183,"DIS_CODE":0,"TOWNNAME":"南區","LI":"郡南里","LIN":"13鄰","STREET":"永成路","SECT":"三段","MAREA":" ","LANE":"７１巷","ALLEY":" ","HOUSE_NO":"２１號","E_COORD97":167425.42000000001,"N_COORD97":2540553.3900000001,"ADDRESS":"永成路三段７１巷２１號","OBJECTID":239179},"geometry":{"x":167425.41999999899,"y":2540553.3900000006}},{"attributes":{"ID":239184,"DIS_CODE":0,"TOWNNAME":"南區","LI":"國宅里","LIN":"13鄰","STREET":"金華路","SECT":"二段","MAREA":" ","LANE":"３３巷","ALLEY":" ","HOUSE_NO":"５９號","E_COORD97":166876.41,"N_COORD97":2541976.48,"ADDRESS":"金華路二段３３巷５９號","OBJECTID":239180},"geometry":{"x":166876.41000000015,"y":2541976.4800000004}},{"attributes":{"ID":239185,"DIS_CODE":0,"TOWNNAME":"南區","LI":"國宅里","LIN":"13鄰","STREET":"金華路","SECT":"二段","MAREA":" ","LANE":"３３巷","ALLEY":" ","HOUSE_NO":"６０號","E_COORD97":166877.89000000001,"N_COORD97":2541991.5299999998,"ADDRESS":"金華路二段３３巷６０號","OBJECTID":239181},"geometry":{"x":166877.89000000153,"y":2541991.5299999993}},{"attributes":{"ID":239186,"DIS_CODE":0,"TOWNNAME":"南區","LI":"國宅里","LIN":"13鄰","STREET":"金華路","SECT":"二段","MAREA":" ","LANE":"３３巷","ALLEY":" ","HOUSE_NO":"６１號","E_COORD97":166871.54999999999,"N_COORD97":2541976.48,"ADDRESS":"金華路二段３３巷６１號","OBJECTID":239182},"geometry":{"x":166871.54999999981,"y":2541976.4800000004}},{"attributes":{"ID":239187,"DIS_CODE":0,"TOWNNAME":"南區","LI":"國宅里","LIN":"13鄰","STREET":"金華路","SECT":"二段","MAREA":" ","LANE":"３３巷","ALLEY":" ","HOUSE_NO":"６２號","E_COORD97":166872.91,"N_COORD97":2541991.7200000002,"ADDRESS":"金華路二段３３巷６２號","OBJECTID":239183},"geometry":{"x":166872.91000000015,"y":2541991.7200000007}},{"attributes":{"ID":239188,"DIS_CODE":0,"TOWNNAME":"南區","LI":"國宅里","LIN":"13鄰","STREET":"金華路","SECT":"二段","MAREA":" ","LANE":"３３巷","ALLEY":" ","HOUSE_NO":"６５號","E_COORD97":166861.60000000001,"N_COORD97":2541977.4500000002,"ADDRESS":"金華路二段３３巷６５號","OBJECTID":239184},"geometry":{"x":166861.60000000056,"y":2541977.4500000011}},{"attributes":{"ID":239189,"DIS_CODE":0,"TOWNNAME":"南區","LI":"國宅里","LIN":"13鄰","STREET":"金華路","SECT":"二段","MAREA":" ","LANE":"３３巷","ALLEY":" ","HOUSE_NO":"６６號","E_COORD97":166863.73999999999,"N_COORD97":2541992.3199999998,"ADDRESS":"金華路二段３３巷６６號","OBJECTID":239185},"geometry":{"x":166863.74000000022,"y":2541992.3200000022}},{"attributes":{"ID":239190,"DIS_CODE":0,"TOWNNAME":"南區","LI":"國宅里","LIN":"13鄰","STREET":"金華路","SECT":"二段","MAREA":" ","LANE":"３３巷","ALLEY":" ","HOUSE_NO":"６７號","E_COORD97":166856.98999999999,"N_COORD97":2541978.1800000002,"ADDRESS":"金華路二段３３巷６７號","OBJECTID":239186},"geometry":{"x":166856.99000000022,"y":2541978.1800000034}},{"attributes":{"ID":239191,"DIS_CODE":0,"TOWNNAME":"南區","LI":"國宅里","LIN":"13鄰","STREET":"金華路","SECT":"二段","MAREA":" ","LANE":"３３巷","ALLEY":" ","HOUSE_NO":"６８號","E_COORD97":166857.95999999999,"N_COORD97":2541992.52,"ADDRESS":"金華路二段３３巷６８號","OBJECTID":239187},"geometry":{"x":166857.96000000089,"y":2541992.5199999996}},{"attributes":{"ID":239192,"DIS_CODE":0,"TOWNNAME":"南區","LI":"國宅里","LIN":"13鄰","STREET":"金華路","SECT":"二段","MAREA":" ","LANE":"３３巷","ALLEY":" ","HOUSE_NO":"６９號","E_COORD97":166852.37,"N_COORD97":2541978.4199999999,"ADDRESS":"金華路二段３３巷６９號","OBJECTID":239188},"geometry":{"x":166852.37000000011,"y":2541978.4200000018}},{"attributes":{"ID":239193,"DIS_CODE":0,"TOWNNAME":"南區","LI":"國宅里","LIN":"13鄰","STREET":"金華路","SECT":"二段","MAREA":" ","LANE":"３３巷","ALLEY":" ","HOUSE_NO":"７０號","E_COORD97":166852.78,"N_COORD97":2541992.9199999999,"ADDRESS":"金華路二段３３巷７０號","OBJECTID":239189},"geometry":{"x":166852.78000000119,"y":2541992.9199999999}},{"attributes":{"ID":239194,"DIS_CODE":0,"TOWNNAME":"南區","LI":"國宅里","LIN":"13鄰","STREET":"金華路","SECT":"二段","MAREA":" ","LANE":"３３巷","ALLEY":" ","HOUSE_NO":"７１號","E_COORD97":166847.51999999999,"N_COORD97":2541978.9100000001,"ADDRESS":"金華路二段３３巷７１號","OBJECTID":239190},"geometry":{"x":166847.51999999955,"y":2541978.910000002}},{"attributes":{"ID":239195,"DIS_CODE":0,"TOWNNAME":"南區","LI":"國宅里","LIN":"13鄰","STREET":"金華路","SECT":"二段","MAREA":" ","LANE":"３３巷","ALLEY":" ","HOUSE_NO":"７２號","E_COORD97":166848.39000000001,"N_COORD97":2541992.9199999999,"ADDRESS":"金華路二段３３巷７２號","OBJECTID":239191},"geometry":{"x":166848.38999999966,"y":2541992.9199999999}},{"attributes":{"ID":239196,"DIS_CODE":0,"TOWNNAME":"南區","LI":"國宅里","LIN":"13鄰","STREET":"金華路","SECT":"二段","MAREA":" ","LANE":"３３巷","ALLEY":" ","HOUSE_NO":"７３號","E_COORD97":166842.91,"N_COORD97":2541979.1499999999,"ADDRESS":"金華路二段３３巷７３號","OBJECTID":239192},"geometry":{"x":166842.91000000108,"y":2541979.1500000041}},{"attributes":{"ID":239197,"DIS_CODE":0,"TOWNNAME":"南區","LI":"國宅里","LIN":"13鄰","STREET":"金華路","SECT":"二段","MAREA":" ","LANE":"３３巷","ALLEY":" ","HOUSE_NO":"７４號","E_COORD97":166843.81,"N_COORD97":2541993.7200000002,"ADDRESS":"金華路二段３３巷７４號","OBJECTID":239193},"geometry":{"x":166843.80999999959,"y":2541993.7200000025}},{"attributes":{"ID":239198,"DIS_CODE":0,"TOWNNAME":"南區","LI":"國宅里","LIN":"13鄰","STREET":"金華路","SECT":"二段","MAREA":" ","LANE":"３３巷","ALLEY":" ","HOUSE_NO":"７５號","E_COORD97":166838.04999999999,"N_COORD97":2541979.1499999999,"ADDRESS":"金華路二段３３巷７５號","OBJECTID":239194},"geometry":{"x":166838.05000000168,"y":2541979.1500000041}},{"attributes":{"ID":239199,"DIS_CODE":0,"TOWNNAME":"南區","LI":"國宅里","LIN":"13鄰","STREET":"金華路","SECT":"二段","MAREA":" ","LANE":"３９巷","ALLEY":" ","HOUSE_NO":"６３號","E_COORD97":166870.07999999999,"N_COORD97":2542009.5899999999,"ADDRESS":"金華路二段３９巷６３號","OBJECTID":239195},"geometry":{"x":166870.08000000007,"y":2542009.5900000036}},{"attributes":{"ID":239200,"DIS_CODE":0,"TOWNNAME":"南區","LI":"國宅里","LIN":"13鄰","STREET":"金華路","SECT":"二段","MAREA":" ","LANE":"３９巷","ALLEY":" ","HOUSE_NO":"６５號","E_COORD97":166865.14000000001,"N_COORD97":2542009.8500000001,"ADDRESS":"金華路二段３９巷６５號","OBJECTID":239196},"geometry":{"x":166865.1400000006,"y":2542009.8499999996}},{"attributes":{"ID":239201,"DIS_CODE":0,"TOWNNAME":"南區","LI":"國宅里","LIN":"13鄰","STREET":"金華路","SECT":"二段","MAREA":" ","LANE":"３９巷","ALLEY":" ","HOUSE_NO":"６７號","E_COORD97":166860.45999999999,"N_COORD97":2542009.8500000001,"ADDRESS":"金華路二段３９巷６７號","OBJECTID":239197},"geometry":{"x":166860.45999999996,"y":2542009.8499999996}},{"attributes":{"ID":239202,"DIS_CODE":0,"TOWNNAME":"南區","LI":"國宅里","LIN":"13鄰","STREET":"金華路","SECT":"二段","MAREA":" ","LANE":"３９巷","ALLEY":" ","HOUSE_NO":"６８號","E_COORD97":166861.66,"N_COORD97":2542026.0299999998,"ADDRESS":"金華路二段３９巷６８號","OBJECTID":239198},"geometry":{"x":166861.66000000108,"y":2542026.0299999993}},{"attributes":{"ID":239203,"DIS_CODE":0,"TOWNNAME":"南區","LI":"國宅里","LIN":"13鄰","STREET":"金華路","SECT":"二段","MAREA":" ","LANE":"３９巷","ALLEY":" ","HOUSE_NO":"６９號","E_COORD97":166855.26000000001,"N_COORD97":2542010.1099999999,"ADDRESS":"金華路二段３９巷６９號","OBJECTID":239199},"geometry":{"x":166855.26000000164,"y":2542010.1100000013}},{"attributes":{"ID":239204,"DIS_CODE":0,"TOWNNAME":"南區","LI":"國宅里","LIN":"13鄰","STREET":"金華路","SECT":"二段","MAREA":" ","LANE":"３９巷","ALLEY":" ","HOUSE_NO":"７０號","E_COORD97":166856.53,"N_COORD97":2542026.8399999999,"ADDRESS":"金華路二段３９巷７０號","OBJECTID":239200},"geometry":{"x":166856.53000000026,"y":2542026.8399999999}}]}