{"displayFieldName":"TOWNNAME","fieldAliases":{"ID":"ID","DIS_CODE":"DIS_CODE","TOWNNAME":"TOWNNAME","LI":"LI","LIN":"LIN","STREET":"STREET","SECT":"SECT","MAREA":"MAREA","LANE":"LANE","ALLEY":"ALLEY","HOUSE_NO":"HOUSE_NO","E_COORD97":"E_COORD97","N_COORD97":"N_COORD97","ADDRESS":"ADDRESS","OBJECTID":"OBJECTID"},"geometryType":"esriGeometryPoint","spatialReference":{"wkid":102443,"latestWkid":3826},"fields":[{"name":"ID","type":"esriFieldTypeDouble","alias":"ID"},{"name":"DIS_CODE","type":"esriFieldTypeInteger","alias":"DIS_CODE"},{"name":"TOWNNAME","type":"esriFieldTypeString","alias":"TOWNNAME","length":8},{"name":"LI","type":"esriFieldTypeString","alias":"LI","length":8},{"name":"LIN","type":"esriFieldTypeString","alias":"LIN","length":12},{"name":"STREET","type":"esriFieldTypeString","alias":"STREET","length":20},{"name":"SECT","type":"esriFieldTypeString","alias":"SECT","length":8},{"name":"MAREA","type":"esriFieldTypeString","alias":"MAREA","length":12},{"name":"LANE","type":"esriFieldTypeString","alias":"LANE","length":10},{"name":"ALLEY","type":"esriFieldTypeString","alias":"ALLEY","length":10},{"name":"HOUSE_NO","type":"esriFieldTypeString","alias":"HOUSE_NO","length":20},{"name":"E_COORD97","type":"esriFieldTypeDouble","alias":"E_COORD97"},{"name":"N_COORD97","type":"esriFieldTypeDouble","alias":"N_COORD97"},{"name":"ADDRESS","type":"esriFieldTypeString","alias":"ADDRESS","length":50},{"name":"OBJECTID","type":"esriFieldTypeOID","alias":"OBJECTID"}],"features":[{"attributes":{"ID":237405,"DIS_CODE":0,"TOWNNAME":"中西區","LI":"民生里","LIN":"16鄰","STREET":"大仁街","SECT":" ","MAREA":" ","LANE":" ","ALLEY":" ","HOUSE_NO":"７０號之１","E_COORD97":167264.78,"N_COORD97":2543480.7200000002,"ADDRESS":"大仁街７０號之１","OBJECTID":237401},"geometry":{"x":167264.78000000119,"y":2543480.7200000007}},{"attributes":{"ID":237406,"DIS_CODE":0,"TOWNNAME":"中西區","LI":"民生里","LIN":"16鄰","STREET":"大仁街","SECT":" ","MAREA":" ","LANE":" ","ALLEY":" ","HOUSE_NO":"７０號之２","E_COORD97":167265.67000000001,"N_COORD97":2543485.3999999999,"ADDRESS":"大仁街７０號之２","OBJECTID":237402},"geometry":{"x":167265.66999999993,"y":2543485.4000000004}},{"attributes":{"ID":237407,"DIS_CODE":0,"TOWNNAME":"中西區","LI":"民生里","LIN":"16鄰","STREET":"大仁街","SECT":" ","MAREA":" ","LANE":" ","ALLEY":" ","HOUSE_NO":"７０號之３","E_COORD97":167266.57000000001,"N_COORD97":2543490.3100000001,"ADDRESS":"大仁街７０號之３","OBJECTID":237403},"geometry":{"x":167266.5700000003,"y":2543490.3100000042}},{"attributes":{"ID":237408,"DIS_CODE":0,"TOWNNAME":"中西區","LI":"民生里","LIN":"16鄰","STREET":"大仁街","SECT":" ","MAREA":" ","LANE":" ","ALLEY":" ","HOUSE_NO":"７０號之４","E_COORD97":167267.23999999999,"N_COORD97":2543493.8900000001,"ADDRESS":"大仁街７０號之４","OBJECTID":237404},"geometry":{"x":167267.24000000022,"y":2543493.8900000025}},{"attributes":{"ID":237409,"DIS_CODE":0,"TOWNNAME":"永康區","LI":"光復里","LIN":"16鄰","STREET":"復興路","SECT":" ","MAREA":" ","LANE":" ","ALLEY":" ","HOUSE_NO":"１１４號","E_COORD97":172763.92999999999,"N_COORD97":2544345.5299999998,"ADDRESS":"復興路１１４號","OBJECTID":237405},"geometry":{"x":172763.93000000063,"y":2544345.5300000031}},{"attributes":{"ID":237410,"DIS_CODE":0,"TOWNNAME":"永康區","LI":"永康里","LIN":"16鄰","STREET":"永中街","SECT":" ","MAREA":" ","LANE":" ","ALLEY":" ","HOUSE_NO":"１０２號","E_COORD97":173956.04000000001,"N_COORD97":2547217.5699999998,"ADDRESS":"永中街１０２號","OBJECTID":237406},"geometry":{"x":173956.04000000004,"y":2547217.5699999984}},{"attributes":{"ID":237411,"DIS_CODE":0,"TOWNNAME":"永康區","LI":"西橋里","LIN":"16鄰","STREET":"大橋三街","SECT":" ","MAREA":" ","LANE":" ","ALLEY":" ","HOUSE_NO":"１６號","E_COORD97":170516.04000000001,"N_COORD97":2546385.9900000002,"ADDRESS":"大橋三街１６號","OBJECTID":237407},"geometry":{"x":170516.04000000004,"y":2546385.9900000002}},{"attributes":{"ID":237412,"DIS_CODE":0,"TOWNNAME":"永康區","LI":"\u25A0洲里","LIN":"25鄰","STREET":"中正南路","SECT":" ","MAREA":" ","LANE":" ","ALLEY":" ","HOUSE_NO":"４３１號","E_COORD97":170795.98999999999,"N_COORD97":2548057.7400000002,"ADDRESS":"中正南路４３１號","OBJECTID":237408},"geometry":{"x":170795.99000000115,"y":2548057.7400000021}},{"attributes":{"ID":237413,"DIS_CODE":0,"TOWNNAME":"永康區","LI":"崑山里","LIN":" ","STREET":"崑山街","SECT":" ","MAREA":" ","LANE":" ","ALLEY":" ","HOUSE_NO":"７號","E_COORD97":174027.12,"N_COORD97":2544989.3599999999,"ADDRESS":"崑山街７號","OBJECTID":237409},"geometry":{"x":174027.12000000197,"y":2544989.3599999994}},{"attributes":{"ID":237414,"DIS_CODE":0,"TOWNNAME":"永康區","LI":"大橋里","LIN":" ","STREET":"大橋一街","SECT":" ","MAREA":" ","LANE":" ","ALLEY":" ","HOUSE_NO":"２５４號","E_COORD97":171087.79999999999,"N_COORD97":2546512.3399999999,"ADDRESS":"大橋一街２５４號","OBJECTID":237410},"geometry":{"x":171087.80000000168,"y":2546512.3399999999}},{"attributes":{"ID":237415,"DIS_CODE":0,"TOWNNAME":"麻豆區","LI":"東角里","LIN":"4鄰","STREET":"忠孝路","SECT":" ","MAREA":" ","LANE":" ","ALLEY":" ","HOUSE_NO":"４８號","E_COORD97":173678.85000000001,"N_COORD97":2564976.3399999999,"ADDRESS":"忠孝路４８號","OBJECTID":237411},"geometry":{"x":173678.84999999963,"y":2564976.3399999999}},{"attributes":{"ID":237416,"DIS_CODE":0,"TOWNNAME":"安南區","LI":"溪頂里","LIN":"4鄰","STREET":"府安路","SECT":"四段","MAREA":" ","LANE":" ","ALLEY":" ","HOUSE_NO":"１１６號","E_COORD97":169006.85000000001,"N_COORD97":2547272.5099999998,"ADDRESS":"府安路四段１１６號","OBJECTID":237412},"geometry":{"x":169006.84999999963,"y":2547272.5100000016}},{"attributes":{"ID":237417,"DIS_CODE":0,"TOWNNAME":"東區","LI":"德光里","LIN":"16鄰","STREET":"德光街","SECT":" ","MAREA":" ","LANE":"６２巷","ALLEY":" ","HOUSE_NO":"８號","E_COORD97":170224.60000000001,"N_COORD97":2542395.9399999999,"ADDRESS":"德光街６２巷８號","OBJECTID":237413},"geometry":{"x":170224.60000000056,"y":2542395.9399999995}},{"attributes":{"ID":237418,"DIS_CODE":0,"TOWNNAME":"東區","LI":"德光里","LIN":"16鄰","STREET":"德光街","SECT":" ","MAREA":" ","LANE":"６２巷","ALLEY":" ","HOUSE_NO":"９號","E_COORD97":170208.70999999999,"N_COORD97":2542383.2799999998,"ADDRESS":"德光街６２巷９號","OBJECTID":237414},"geometry":{"x":170208.71000000183,"y":2542383.2799999993}},{"attributes":{"ID":237419,"DIS_CODE":0,"TOWNNAME":"歸仁區","LI":"看西里","LIN":"13鄰","STREET":"成功六街","SECT":" ","MAREA":" ","LANE":"１３巷","ALLEY":" ","HOUSE_NO":"１６號","E_COORD97":178370.56,"N_COORD97":2540135.1099999999,"ADDRESS":"成功六街１３巷１６號","OBJECTID":237415},"geometry":{"x":178370.56000000052,"y":2540135.1100000013}},{"attributes":{"ID":237420,"DIS_CODE":0,"TOWNNAME":"安南區","LI":"淵東里","LIN":"14鄰","STREET":"仁安路","SECT":" ","MAREA":" ","LANE":" ","ALLEY":" ","HOUSE_NO":"１０３號","E_COORD97":165703.01999999999,"N_COORD97":2550173.1000000001,"ADDRESS":"仁安路１０３號","OBJECTID":237416},"geometry":{"x":165703.01999999955,"y":2550173.0999999978}},{"attributes":{"ID":237421,"DIS_CODE":0,"TOWNNAME":"歸仁區","LI":"崙頂里","LIN":"13鄰","STREET":"成功路","SECT":"二段","MAREA":" ","LANE":"１６８巷","ALLEY":" ","HOUSE_NO":"２７號","E_COORD97":177939.89000000001,"N_COORD97":2539798.25,"ADDRESS":"成功路二段１６８巷２７號","OBJECTID":237417},"geometry":{"x":177939.88999999966,"y":2539798.2500000037}},{"attributes":{"ID":237422,"DIS_CODE":0,"TOWNNAME":"歸仁區","LI":"南興里","LIN":"13鄰","STREET":"文化十八街","SECT":" ","MAREA":" ","LANE":"１８巷","ALLEY":" ","HOUSE_NO":"３號","E_COORD97":175861.07000000001,"N_COORD97":2541278.2599999998,"ADDRESS":"文化十八街１８巷３號","OBJECTID":237418},"geometry":{"x":175861.0700000003,"y":2541278.2599999998}},{"attributes":{"ID":237423,"DIS_CODE":0,"TOWNNAME":"佳里區","LI":"六安里","LIN":"8鄰","STREET":"延平路","SECT":" ","MAREA":" ","LANE":"４９８巷","ALLEY":" ","HOUSE_NO":"５號","E_COORD97":165910.57000000001,"N_COORD97":2562912.7599999998,"ADDRESS":"延平路４９８巷５號","OBJECTID":237419},"geometry":{"x":165910.5700000003,"y":2562912.7599999998}},{"attributes":{"ID":237424,"DIS_CODE":0,"TOWNNAME":"歸仁區","LI":"文化里","LIN":"13鄰","STREET":"大德路","SECT":" ","MAREA":" ","LANE":"１９３巷","ALLEY":" ","HOUSE_NO":"２１號","E_COORD97":177357.82000000001,"N_COORD97":2541484.3300000001,"ADDRESS":"大德路１９３巷２１號","OBJECTID":237420},"geometry":{"x":177357.82000000123,"y":2541484.3300000019}},{"attributes":{"ID":237425,"DIS_CODE":0,"TOWNNAME":"歸仁區","LI":"文化里","LIN":"13鄰","STREET":"大德路","SECT":" ","MAREA":" ","LANE":"１９３巷","ALLEY":" ","HOUSE_NO":"９號","E_COORD97":177318.57000000001,"N_COORD97":2541487.3300000001,"ADDRESS":"大德路１９３巷９號","OBJECTID":237421},"geometry":{"x":177318.57000000123,"y":2541487.3300000019}},{"attributes":{"ID":237426,"DIS_CODE":0,"TOWNNAME":"歸仁區","LI":"文化里","LIN":"13鄰","STREET":"大德路","SECT":" ","MAREA":" ","LANE":"１９３巷","ALLEY":" ","HOUSE_NO":"２５號","E_COORD97":177370.12,"N_COORD97":2541484.3300000001,"ADDRESS":"大德路１９３巷２５號","OBJECTID":237422},"geometry":{"x":177370.12000000197,"y":2541484.3300000019}},{"attributes":{"ID":237427,"DIS_CODE":0,"TOWNNAME":"歸仁區","LI":"大潭里","LIN":"13鄰","STREET":"長榮路","SECT":"一段","MAREA":" ","LANE":"１巷","ALLEY":" ","HOUSE_NO":"１０號","E_COORD97":174693.12,"N_COORD97":2534577.2799999998,"ADDRESS":"長榮路一段１巷１０號","OBJECTID":237423},"geometry":{"x":174693.12000000011,"y":2534577.2800000012}},{"attributes":{"ID":237428,"DIS_CODE":0,"TOWNNAME":"歸仁區","LI":"大潭里","LIN":"13鄰","STREET":"長榮路","SECT":"一段","MAREA":" ","LANE":"１巷","ALLEY":" ","HOUSE_NO":"１５０號","E_COORD97":174436.07000000001,"N_COORD97":2534822.2799999998,"ADDRESS":"長榮路一段１巷１５０號","OBJECTID":237424},"geometry":{"x":174436.06999999937,"y":2534822.2799999993}},{"attributes":{"ID":237429,"DIS_CODE":0,"TOWNNAME":"歸仁區","LI":"文化里","LIN":"13鄰","STREET":"大德路","SECT":" ","MAREA":" ","LANE":"１９３巷","ALLEY":" ","HOUSE_NO":"１９號","E_COORD97":177351.62,"N_COORD97":2541485.3300000001,"ADDRESS":"大德路１９３巷１９號","OBJECTID":237425},"geometry":{"x":177351.62000000104,"y":2541485.3300000001}},{"attributes":{"ID":237430,"DIS_CODE":0,"TOWNNAME":"歸仁區","LI":"大潭里","LIN":"13鄰","STREET":"長榮路","SECT":"一段","MAREA":" ","LANE":"１６３巷","ALLEY":" ","HOUSE_NO":"７號","E_COORD97":174945.85999999999,"N_COORD97":2534619.2799999998,"ADDRESS":"長榮路一段１６３巷７號","OBJECTID":237426},"geometry":{"x":174945.86000000034,"y":2534619.2799999993}},{"attributes":{"ID":237431,"DIS_CODE":0,"TOWNNAME":"歸仁區","LI":"文化里","LIN":"13鄰","STREET":"大德路","SECT":" ","MAREA":" ","LANE":"１９３巷","ALLEY":" ","HOUSE_NO":"７號","E_COORD97":177311.37,"N_COORD97":2541488.3300000001,"ADDRESS":"大德路１９３巷７號","OBJECTID":237427},"geometry":{"x":177311.37000000104,"y":2541488.3300000001}},{"attributes":{"ID":237432,"DIS_CODE":0,"TOWNNAME":"歸仁區","LI":"文化里","LIN":"13鄰","STREET":"大德路","SECT":" ","MAREA":" ","LANE":"１９３巷","ALLEY":" ","HOUSE_NO":"２７號","E_COORD97":177376.22,"N_COORD97":2541484.3300000001,"ADDRESS":"大德路１９３巷２７號","OBJECTID":237428},"geometry":{"x":177376.22000000067,"y":2541484.3300000019}},{"attributes":{"ID":237433,"DIS_CODE":0,"TOWNNAME":"歸仁區","LI":"文化里","LIN":"13鄰","STREET":"大德路","SECT":" ","MAREA":" ","LANE":"１９３巷","ALLEY":" ","HOUSE_NO":"３號","E_COORD97":177298.07000000001,"N_COORD97":2541488.3300000001,"ADDRESS":"大德路１９３巷３號","OBJECTID":237429},"geometry":{"x":177298.07000000123,"y":2541488.3300000001}},{"attributes":{"ID":237434,"DIS_CODE":0,"TOWNNAME":"歸仁區","LI":"大潭里","LIN":"13鄰","STREET":"長榮路","SECT":"一段","MAREA":" ","LANE":"１６３巷","ALLEY":" ","HOUSE_NO":"２０號","E_COORD97":174937.10999999999,"N_COORD97":2534650.2799999998,"ADDRESS":"長榮路一段１６３巷２０號","OBJECTID":237430},"geometry":{"x":174937.11000000034,"y":2534650.2799999993}},{"attributes":{"ID":237435,"DIS_CODE":0,"TOWNNAME":"歸仁區","LI":"文化里","LIN":"13鄰","STREET":"大德路","SECT":" ","MAREA":" ","LANE":"１９３巷","ALLEY":" ","HOUSE_NO":"２９號","E_COORD97":177383.42000000001,"N_COORD97":2541483.3199999998,"ADDRESS":"大德路１９３巷２９號","OBJECTID":237431},"geometry":{"x":177383.42000000086,"y":2541483.3200000022}},{"attributes":{"ID":237436,"DIS_CODE":0,"TOWNNAME":"東區","LI":"德高里","LIN":"14鄰","STREET":"仁和路","SECT":" ","MAREA":" ","LANE":" ","ALLEY":" ","HOUSE_NO":"１６９號","E_COORD97":171615.42000000001,"N_COORD97":2540896.3900000001,"ADDRESS":"仁和路１６９號","OBJECTID":237432},"geometry":{"x":171615.41999999993,"y":2540896.3900000043}},{"attributes":{"ID":237437,"DIS_CODE":0,"TOWNNAME":"東區","LI":"德高里","LIN":"14鄰","STREET":"仁和路","SECT":" ","MAREA":" ","LANE":" ","ALLEY":" ","HOUSE_NO":"１７５號","E_COORD97":171619.10000000001,"N_COORD97":2540885.96,"ADDRESS":"仁和路１７５號","OBJECTID":237433},"geometry":{"x":171619.09999999963,"y":2540885.9600000046}},{"attributes":{"ID":237438,"DIS_CODE":0,"TOWNNAME":"歸仁區","LI":"文化里","LIN":"13鄰","STREET":"大德路","SECT":" ","MAREA":" ","LANE":"１９３巷","ALLEY":" ","HOUSE_NO":"２３號","E_COORD97":177362.92000000001,"N_COORD97":2541484.3300000001,"ADDRESS":"大德路１９３巷２３號","OBJECTID":237434},"geometry":{"x":177362.92000000086,"y":2541484.3300000019}},{"attributes":{"ID":237439,"DIS_CODE":0,"TOWNNAME":"歸仁區","LI":"文化里","LIN":"13鄰","STREET":"大德路","SECT":" ","MAREA":" ","LANE":"１９３巷","ALLEY":" ","HOUSE_NO":"１１號","E_COORD97":177325.01999999999,"N_COORD97":2541487.3300000001,"ADDRESS":"大德路１９３巷１１號","OBJECTID":237435},"geometry":{"x":177325.02000000048,"y":2541487.3300000019}},{"attributes":{"ID":237440,"DIS_CODE":0,"TOWNNAME":"歸仁區","LI":"文化里","LIN":"13鄰","STREET":"大德路","SECT":" ","MAREA":" ","LANE":"１９３巷","ALLEY":" ","HOUSE_NO":"１５號","E_COORD97":177338.32000000001,"N_COORD97":2541485.3300000001,"ADDRESS":"大德路１９３巷１５號","OBJECTID":237436},"geometry":{"x":177338.32000000216,"y":2541485.3300000001}},{"attributes":{"ID":237441,"DIS_CODE":0,"TOWNNAME":"歸仁區","LI":"大潭里","LIN":"13鄰","STREET":"長榮路","SECT":"一段","MAREA":" ","LANE":"１６３巷","ALLEY":" ","HOUSE_NO":"８號","E_COORD97":174984.85999999999,"N_COORD97":2534603.2799999998,"ADDRESS":"長榮路一段１６３巷８號","OBJECTID":237437},"geometry":{"x":174984.86000000034,"y":2534603.2800000031}},{"attributes":{"ID":237442,"DIS_CODE":0,"TOWNNAME":"歸仁區","LI":"大潭里","LIN":"13鄰","STREET":"長榮路","SECT":"一段","MAREA":" ","LANE":"１６３巷","ALLEY":" ","HOUSE_NO":"２號","E_COORD97":174988.85999999999,"N_COORD97":2534588.2799999998,"ADDRESS":"長榮路一段１６３巷２號","OBJECTID":237438},"geometry":{"x":174988.86000000127,"y":2534588.2799999993}},{"attributes":{"ID":237443,"DIS_CODE":0,"TOWNNAME":"善化區","LI":"田寮里","LIN":"16鄰","STREET":" ","SECT":" ","MAREA":"六分寮","LANE":" ","ALLEY":" ","HOUSE_NO":"１９８號之９","E_COORD97":179026.35999999999,"N_COORD97":2561640.77,"ADDRESS":"六分寮１９８號之９","OBJECTID":237439},"geometry":{"x":179026.36000000034,"y":2561640.7699999996}},{"attributes":{"ID":237444,"DIS_CODE":0,"TOWNNAME":"歸仁區","LI":"歸南里","LIN":"13鄰","STREET":"民生南街","SECT":"二段","MAREA":" ","LANE":"２７７巷","ALLEY":" ","HOUSE_NO":"３３號","E_COORD97":176187.70999999999,"N_COORD97":2540001.25,"ADDRESS":"民生南街二段２７７巷３３號","OBJECTID":237440},"geometry":{"x":176187.71000000183,"y":2540001.25}},{"attributes":{"ID":237445,"DIS_CODE":0,"TOWNNAME":"歸仁區","LI":"歸南里","LIN":"13鄰","STREET":"民生南街","SECT":"二段","MAREA":" ","LANE":"２７７巷","ALLEY":" ","HOUSE_NO":"３９號","E_COORD97":176203.10999999999,"N_COORD97":2540003.25,"ADDRESS":"民生南街二段２７７巷３９號","OBJECTID":237441},"geometry":{"x":176203.11000000127,"y":2540003.2500000019}},{"attributes":{"ID":237446,"DIS_CODE":0,"TOWNNAME":"歸仁區","LI":"歸南里","LIN":"13鄰","STREET":"民生南街","SECT":"二段","MAREA":" ","LANE":"２７７巷","ALLEY":" ","HOUSE_NO":"３７號","E_COORD97":176197.01000000001,"N_COORD97":2540002.25,"ADDRESS":"民生南街二段２７７巷３７號","OBJECTID":237442},"geometry":{"x":176197.00999999978,"y":2540002.2500000019}},{"attributes":{"ID":237447,"DIS_CODE":0,"TOWNNAME":"歸仁區","LI":"歸南里","LIN":"13鄰","STREET":"民生南街","SECT":"二段","MAREA":" ","LANE":"２７７巷","ALLEY":" ","HOUSE_NO":"４１號","E_COORD97":176208.31,"N_COORD97":2540005.25,"ADDRESS":"民生南街二段２７７巷４１號","OBJECTID":237443},"geometry":{"x":176208.30999999959,"y":2540005.2500000019}},{"attributes":{"ID":237448,"DIS_CODE":0,"TOWNNAME":"歸仁區","LI":"歸南里","LIN":"13鄰","STREET":"民生南街","SECT":"二段","MAREA":" ","LANE":"２７７巷","ALLEY":" ","HOUSE_NO":"１９號","E_COORD97":176149.70999999999,"N_COORD97":2539993.25,"ADDRESS":"民生南街二段２７７巷１９號","OBJECTID":237444},"geometry":{"x":176149.70999999996,"y":2539993.25}},{"attributes":{"ID":237449,"DIS_CODE":0,"TOWNNAME":"歸仁區","LI":"歸南里","LIN":"13鄰","STREET":"民生南街","SECT":"二段","MAREA":" ","LANE":"２７７巷","ALLEY":" ","HOUSE_NO":"３５號","E_COORD97":176192.91,"N_COORD97":2540002.25,"ADDRESS":"民生南街二段２７７巷３５號","OBJECTID":237445},"geometry":{"x":176192.91000000015,"y":2540002.2500000019}},{"attributes":{"ID":237450,"DIS_CODE":0,"TOWNNAME":"歸仁區","LI":"歸南里","LIN":"13鄰","STREET":"民生南街","SECT":"二段","MAREA":" ","LANE":"２７７巷","ALLEY":" ","HOUSE_NO":"１３號","E_COORD97":176135.41,"N_COORD97":2539990.25,"ADDRESS":"民生南街二段２７７巷１３號","OBJECTID":237446},"geometry":{"x":176135.41000000015,"y":2539990.25}},{"attributes":{"ID":237451,"DIS_CODE":0,"TOWNNAME":"永康區","LI":"甲頂里","LIN":"16鄰","STREET":"中正南路","SECT":" ","MAREA":" ","LANE":"５２巷","ALLEY":" ","HOUSE_NO":"５９號","E_COORD97":169888.37,"N_COORD97":2546792.7400000002,"ADDRESS":"中正南路５２巷５９號","OBJECTID":237447},"geometry":{"x":169888.37000000011,"y":2546792.7400000039}},{"attributes":{"ID":237452,"DIS_CODE":0,"TOWNNAME":"永康區","LI":"西勢里","LIN":"16鄰","STREET":"西勢路","SECT":" ","MAREA":" ","LANE":"６６巷","ALLEY":" ","HOUSE_NO":"２３號","E_COORD97":176121.20000000001,"N_COORD97":2546833.79,"ADDRESS":"西勢路６６巷２３號","OBJECTID":237448},"geometry":{"x":176121.20000000019,"y":2546833.7899999991}},{"attributes":{"ID":237453,"DIS_CODE":0,"TOWNNAME":"下營區","LI":"營前里","LIN":"21鄰","STREET":"中華街","SECT":" ","MAREA":" ","LANE":"４０巷","ALLEY":" ","HOUSE_NO":"３５號","E_COORD97":174946.71277099999,"N_COORD97":2570361.2630799999,"ADDRESS":"中華街４０巷３５號","OBJECTID":237449},"geometry":{"x":174946.71277100127,"y":2570361.2630790006}},{"attributes":{"ID":237454,"DIS_CODE":0,"TOWNNAME":"北區","LI":"正風里","LIN":"13鄰","STREET":"長榮路","SECT":"五段","MAREA":" ","LANE":"４５２巷","ALLEY":" ","HOUSE_NO":"１７號","E_COORD97":169455.76999999999,"N_COORD97":2546072.2000000002,"ADDRESS":"長榮路五段４５２巷１７號","OBJECTID":237450},"geometry":{"x":169455.77000000048,"y":2546072.1999999993}},{"attributes":{"ID":237455,"DIS_CODE":0,"TOWNNAME":"北區","LI":"正風里","LIN":"13鄰","STREET":"長榮路","SECT":"五段","MAREA":" ","LANE":"４５２巷","ALLEY":" ","HOUSE_NO":"１８號","E_COORD97":169488.35000000001,"N_COORD97":2546069.3599999999,"ADDRESS":"長榮路五段４５２巷１８號","OBJECTID":237451},"geometry":{"x":169488.34999999963,"y":2546069.3600000013}},{"attributes":{"ID":237456,"DIS_CODE":0,"TOWNNAME":"北區","LI":"正風里","LIN":"13鄰","STREET":"長榮路","SECT":"五段","MAREA":" ","LANE":"４５２巷","ALLEY":" ","HOUSE_NO":"１９號","E_COORD97":169462.14999999999,"N_COORD97":2546090.0299999998,"ADDRESS":"長榮路五段４５２巷１９號","OBJECTID":237452},"geometry":{"x":169462.15000000224,"y":2546090.0299999993}},{"attributes":{"ID":237457,"DIS_CODE":0,"TOWNNAME":"北區","LI":"正風里","LIN":"13鄰","STREET":"長榮路","SECT":"五段","MAREA":" ","LANE":"４５２巷","ALLEY":" ","HOUSE_NO":"１號","E_COORD97":169386.95000000001,"N_COORD97":2545985.2799999998,"ADDRESS":"長榮路五段４５２巷１號","OBJECTID":237453},"geometry":{"x":169386.95000000205,"y":2545985.2800000012}},{"attributes":{"ID":237458,"DIS_CODE":0,"TOWNNAME":"北區","LI":"正風里","LIN":"13鄰","STREET":"長榮路","SECT":"五段","MAREA":" ","LANE":"４５２巷","ALLEY":" ","HOUSE_NO":"２１號","E_COORD97":169466.94,"N_COORD97":2546103.3999999999,"ADDRESS":"長榮路五段４５２巷２１號","OBJECTID":237454},"geometry":{"x":169466.94000000227,"y":2546103.3999999985}},{"attributes":{"ID":237459,"DIS_CODE":0,"TOWNNAME":"北區","LI":"正風里","LIN":"13鄰","STREET":"長榮路","SECT":"五段","MAREA":" ","LANE":"４５２巷","ALLEY":" ","HOUSE_NO":"２３號","E_COORD97":169476.59,"N_COORD97":2546115.8300000001,"ADDRESS":"長榮路五段４５２巷２３號","OBJECTID":237455},"geometry":{"x":169476.58999999985,"y":2546115.8300000001}},{"attributes":{"ID":237460,"DIS_CODE":0,"TOWNNAME":"北區","LI":"正風里","LIN":"13鄰","STREET":"長榮路","SECT":"五段","MAREA":" ","LANE":"４５２巷","ALLEY":" ","HOUSE_NO":"２號","E_COORD97":169409.13,"N_COORD97":2545987.4700000002,"ADDRESS":"長榮路五段４５２巷２號","OBJECTID":237456},"geometry":{"x":169409.13000000175,"y":2545987.4700000007}},{"attributes":{"ID":237461,"DIS_CODE":0,"TOWNNAME":"東區","LI":"德高里","LIN":"14鄰","STREET":"仁和路","SECT":" ","MAREA":" ","LANE":" ","ALLEY":" ","HOUSE_NO":"１７７號","E_COORD97":171620.07999999999,"N_COORD97":2540884.1600000001,"ADDRESS":"仁和路１７７號","OBJECTID":237457},"geometry":{"x":171620.07999999914,"y":2540884.160000002}},{"attributes":{"ID":237462,"DIS_CODE":0,"TOWNNAME":"東區","LI":"德高里","LIN":"14鄰","STREET":"仁和路","SECT":" ","MAREA":" ","LANE":" ","ALLEY":" ","HOUSE_NO":"１９３號","E_COORD97":171638.91,"N_COORD97":2540855.5800000001,"ADDRESS":"仁和路１９３號","OBJECTID":237458},"geometry":{"x":171638.91000000108,"y":2540855.5800000001}},{"attributes":{"ID":237463,"DIS_CODE":0,"TOWNNAME":"北區","LI":"正風里","LIN":"13鄰","STREET":"長榮路","SECT":"五段","MAREA":" ","LANE":"４５２巷","ALLEY":" ","HOUSE_NO":"３號","E_COORD97":169385.85999999999,"N_COORD97":2545991.73,"ADDRESS":"長榮路五段４５２巷３號","OBJECTID":237459},"geometry":{"x":169385.8599999994,"y":2545991.7300000004}},{"attributes":{"ID":237464,"DIS_CODE":0,"TOWNNAME":"北區","LI":"正風里","LIN":"13鄰","STREET":"長榮路","SECT":"五段","MAREA":" ","LANE":"４５２巷","ALLEY":" ","HOUSE_NO":"４號","E_COORD97":169411.39000000001,"N_COORD97":2545994.7599999998,"ADDRESS":"長榮路五段４５２巷４號","OBJECTID":237460},"geometry":{"x":169411.38999999966,"y":2545994.7599999998}},{"attributes":{"ID":237465,"DIS_CODE":0,"TOWNNAME":"北區","LI":"正風里","LIN":"13鄰","STREET":"長榮路","SECT":"五段","MAREA":" ","LANE":"４５２巷","ALLEY":" ","HOUSE_NO":"５號","E_COORD97":169388.12,"N_COORD97":2545995.8599999999,"ADDRESS":"長榮路五段４５２巷５號","OBJECTID":237461},"geometry":{"x":169388.12000000104,"y":2545995.8600000013}},{"attributes":{"ID":237466,"DIS_CODE":0,"TOWNNAME":"北區","LI":"正風里","LIN":"13鄰","STREET":"長榮路","SECT":"五段","MAREA":" ","LANE":"４５２巷","ALLEY":" ","HOUSE_NO":"７號","E_COORD97":169390.25,"N_COORD97":2545998.7000000002,"ADDRESS":"長榮路五段４５２巷７號","OBJECTID":237462},"geometry":{"x":169390.25000000093,"y":2545998.700000003}},{"attributes":{"ID":237467,"DIS_CODE":0,"TOWNNAME":"北區","LI":"正風里","LIN":"13鄰","STREET":"長榮路","SECT":"五段","MAREA":" ","LANE":"４５２巷","ALLEY":" ","HOUSE_NO":"８號","E_COORD97":169430.23000000001,"N_COORD97":2546016.6600000001,"ADDRESS":"長榮路五段４５２巷８號","OBJECTID":237463},"geometry":{"x":169430.23000000045,"y":2546016.6599999983}},{"attributes":{"ID":237468,"DIS_CODE":0,"TOWNNAME":"東區","LI":"富裕里","LIN":"16鄰","STREET":"裕豐街","SECT":" ","MAREA":" ","LANE":"８４巷","ALLEY":" ","HOUSE_NO":"１７號之１","E_COORD97":170779.95000000001,"N_COORD97":2542904.8599999999,"ADDRESS":"裕豐街８４巷１７號之１","OBJECTID":237464},"geometry":{"x":170779.95000000019,"y":2542904.8599999994}},{"attributes":{"ID":237469,"DIS_CODE":0,"TOWNNAME":"永康區","LI":"光復里","LIN":"16鄰","STREET":"復興路","SECT":" ","MAREA":" ","LANE":"１２８巷","ALLEY":" ","HOUSE_NO":"４號","E_COORD97":172739.42999999999,"N_COORD97":2544354.2799999998,"ADDRESS":"復興路１２８巷４號","OBJECTID":237465},"geometry":{"x":172739.4299999997,"y":2544354.2800000012}},{"attributes":{"ID":237470,"DIS_CODE":0,"TOWNNAME":"永康區","LI":"西勢里","LIN":"16鄰","STREET":"西勢路","SECT":" ","MAREA":" ","LANE":"６６巷","ALLEY":" ","HOUSE_NO":"２９號","E_COORD97":176133.89999999999,"N_COORD97":2546833.54,"ADDRESS":"西勢路６６巷２９號","OBJECTID":237466},"geometry":{"x":176133.90000000037,"y":2546833.5400000028}},{"attributes":{"ID":237471,"DIS_CODE":0,"TOWNNAME":"北區","LI":"正風里","LIN":"13鄰","STREET":"長榮路","SECT":"五段","MAREA":" ","LANE":"４５２巷","ALLEY":" ","HOUSE_NO":"９號","E_COORD97":169392.57000000001,"N_COORD97":2546001.79,"ADDRESS":"長榮路五段４５２巷９號","OBJECTID":237467},"geometry":{"x":169392.5700000003,"y":2546001.790000001}},{"attributes":{"ID":237472,"DIS_CODE":0,"TOWNNAME":"北區","LI":"正覺里","LIN":"13鄰","STREET":"北安路","SECT":"一段","MAREA":" ","LANE":"５６巷","ALLEY":" ","HOUSE_NO":"１１號","E_COORD97":169200.37,"N_COORD97":2546302.96,"ADDRESS":"北安路一段５６巷１１號","OBJECTID":237468},"geometry":{"x":169200.37000000011,"y":2546302.9600000009}},{"attributes":{"ID":237473,"DIS_CODE":0,"TOWNNAME":"北區","LI":"正覺里","LIN":"13鄰","STREET":"北安路","SECT":"一段","MAREA":" ","LANE":"５６巷","ALLEY":" ","HOUSE_NO":"１３號","E_COORD97":169202.38,"N_COORD97":2546306.96,"ADDRESS":"北安路一段５６巷１３號","OBJECTID":237469},"geometry":{"x":169202.38000000175,"y":2546306.959999999}},{"attributes":{"ID":237474,"DIS_CODE":0,"TOWNNAME":"北區","LI":"正覺里","LIN":"13鄰","STREET":"北安路","SECT":"一段","MAREA":" ","LANE":"５６巷","ALLEY":" ","HOUSE_NO":"１５號","E_COORD97":169205.38,"N_COORD97":2546310.6800000002,"ADDRESS":"北安路一段５６巷１５號","OBJECTID":237470},"geometry":{"x":169205.37999999989,"y":2546310.6799999997}},{"attributes":{"ID":237475,"DIS_CODE":0,"TOWNNAME":"北區","LI":"正覺里","LIN":"13鄰","STREET":"北安路","SECT":"一段","MAREA":" ","LANE":"５６巷","ALLEY":" ","HOUSE_NO":"１７號","E_COORD97":169206.92000000001,"N_COORD97":2546315.4100000001,"ADDRESS":"北安路一段５６巷１７號","OBJECTID":237471},"geometry":{"x":169206.91999999993,"y":2546315.4100000001}},{"attributes":{"ID":237476,"DIS_CODE":0,"TOWNNAME":"北區","LI":"正覺里","LIN":"13鄰","STREET":"北安路","SECT":"一段","MAREA":" ","LANE":"５６巷","ALLEY":" ","HOUSE_NO":"１９號","E_COORD97":169212.01999999999,"N_COORD97":2546317.0499999998,"ADDRESS":"北安路一段５６巷１９號","OBJECTID":237472},"geometry":{"x":169212.01999999955,"y":2546317.0500000026}},{"attributes":{"ID":237477,"DIS_CODE":0,"TOWNNAME":"北區","LI":"正覺里","LIN":"13鄰","STREET":"北安路","SECT":"一段","MAREA":" ","LANE":"５６巷","ALLEY":" ","HOUSE_NO":"１號","E_COORD97":169186.51999999999,"N_COORD97":2546284.1899999999,"ADDRESS":"北安路一段５６巷１號","OBJECTID":237473},"geometry":{"x":169186.52000000048,"y":2546284.1900000013}},{"attributes":{"ID":237478,"DIS_CODE":0,"TOWNNAME":"北區","LI":"正覺里","LIN":"13鄰","STREET":"北安路","SECT":"一段","MAREA":" ","LANE":"５６巷","ALLEY":" ","HOUSE_NO":"２１號","E_COORD97":169214.10999999999,"N_COORD97":2546321.1499999999,"ADDRESS":"北安路一段５６巷２１號","OBJECTID":237474},"geometry":{"x":169214.11000000034,"y":2546321.1500000004}},{"attributes":{"ID":237479,"DIS_CODE":0,"TOWNNAME":"東區","LI":"德高里","LIN":"14鄰","STREET":"仁和路","SECT":" ","MAREA":" ","LANE":" ","ALLEY":" ","HOUSE_NO":"２１３號","E_COORD97":171676.72,"N_COORD97":2540816.3799999999,"ADDRESS":"仁和路２１３號","OBJECTID":237475},"geometry":{"x":171676.72000000067,"y":2540816.379999999}},{"attributes":{"ID":237480,"DIS_CODE":0,"TOWNNAME":"東區","LI":"德高里","LIN":"14鄰","STREET":"仁和路","SECT":" ","MAREA":" ","LANE":" ","ALLEY":" ","HOUSE_NO":"２１５號","E_COORD97":171678.39000000001,"N_COORD97":2540813.1699999999,"ADDRESS":"仁和路２１５號","OBJECTID":237476},"geometry":{"x":171678.38999999966,"y":2540813.1700000018}},{"attributes":{"ID":237481,"DIS_CODE":0,"TOWNNAME":"東區","LI":"德高里","LIN":"14鄰","STREET":"仁和路","SECT":" ","MAREA":" ","LANE":" ","ALLEY":" ","HOUSE_NO":"２１７號","E_COORD97":171681.04000000001,"N_COORD97":2540809.4100000001,"ADDRESS":"仁和路２１７號","OBJECTID":237477},"geometry":{"x":171681.04000000004,"y":2540809.4100000001}},{"attributes":{"ID":237482,"DIS_CODE":0,"TOWNNAME":"永康區","LI":"中華里","LIN":"16鄰","STREET":"小東路","SECT":" ","MAREA":" ","LANE":"４７７巷","ALLEY":" ","HOUSE_NO":"１２號","E_COORD97":171619.44,"N_COORD97":2544385.0800000001,"ADDRESS":"小東路４７７巷１２號","OBJECTID":237478},"geometry":{"x":171619.44000000041,"y":2544385.0800000001}},{"attributes":{"ID":237483,"DIS_CODE":0,"TOWNNAME":"永康區","LI":"中華里","LIN":"16鄰","STREET":"小東路","SECT":" ","MAREA":" ","LANE":"４７７巷","ALLEY":" ","HOUSE_NO":"１６號","E_COORD97":171620.38,"N_COORD97":2544394.7400000002,"ADDRESS":"小東路４７７巷１６號","OBJECTID":237479},"geometry":{"x":171620.38000000082,"y":2544394.7400000002}},{"attributes":{"ID":237484,"DIS_CODE":0,"TOWNNAME":"永康區","LI":"二王里","LIN":"16鄰","STREET":"忠孝路","SECT":" ","MAREA":" ","LANE":"４３６巷","ALLEY":" ","HOUSE_NO":"５號","E_COORD97":172503.10000000001,"N_COORD97":2546582.5699999998,"ADDRESS":"忠孝路４３６巷５號","OBJECTID":237480},"geometry":{"x":172503.10000000056,"y":2546582.5700000003}},{"attributes":{"ID":237485,"DIS_CODE":0,"TOWNNAME":"永康區","LI":"二王里","LIN":"16鄰","STREET":"忠孝路","SECT":" ","MAREA":" ","LANE":"４３６巷","ALLEY":" ","HOUSE_NO":"８號","E_COORD97":172505.97,"N_COORD97":2546576.1600000001,"ADDRESS":"忠孝路４３６巷８號","OBJECTID":237481},"geometry":{"x":172505.97000000067,"y":2546576.1600000039}},{"attributes":{"ID":237486,"DIS_CODE":0,"TOWNNAME":"永康區","LI":"二王里","LIN":"16鄰","STREET":"忠孝路","SECT":" ","MAREA":" ","LANE":"４３６巷","ALLEY":" ","HOUSE_NO":"２號","E_COORD97":172493.79999999999,"N_COORD97":2546574.6600000001,"ADDRESS":"忠孝路４３６巷２號","OBJECTID":237482},"geometry":{"x":172493.80000000075,"y":2546574.6600000001}},{"attributes":{"ID":237487,"DIS_CODE":0,"TOWNNAME":"中西區","LI":"西湖里","LIN":"16鄰","STREET":"湖美一街","SECT":" ","MAREA":" ","LANE":"１１４巷","ALLEY":" ","HOUSE_NO":"１５號","E_COORD97":166098.34,"N_COORD97":2544897.7799999998,"ADDRESS":"湖美一街１１４巷１５號","OBJECTID":237483},"geometry":{"x":166098.33999999985,"y":2544897.7800000012}},{"attributes":{"ID":237488,"DIS_CODE":0,"TOWNNAME":"中西區","LI":"西湖里","LIN":"16鄰","STREET":"湖美一街","SECT":" ","MAREA":" ","LANE":"１１４巷","ALLEY":" ","HOUSE_NO":"１７號","E_COORD97":166107.10000000001,"N_COORD97":2544897.7799999998,"ADDRESS":"湖美一街１１４巷１７號","OBJECTID":237484},"geometry":{"x":166107.10000000056,"y":2544897.7800000012}},{"attributes":{"ID":237489,"DIS_CODE":0,"TOWNNAME":"中西區","LI":"西湖里","LIN":"16鄰","STREET":"湖美一街","SECT":" ","MAREA":" ","LANE":"１１４巷","ALLEY":" ","HOUSE_NO":"１９號","E_COORD97":166112.70000000001,"N_COORD97":2544897.7799999998,"ADDRESS":"湖美一街１１４巷１９號","OBJECTID":237485},"geometry":{"x":166112.70000000019,"y":2544897.7800000012}},{"attributes":{"ID":237490,"DIS_CODE":0,"TOWNNAME":"仁德區","LI":"土庫里","LIN":"16鄰","STREET":"土庫一街","SECT":" ","MAREA":" ","LANE":"７４巷","ALLEY":" ","HOUSE_NO":"６號","E_COORD97":174549.29000000001,"N_COORD97":2543045.7400000002,"ADDRESS":"土庫一街７４巷６號","OBJECTID":237486},"geometry":{"x":174549.29000000004,"y":2543045.7400000002}},{"attributes":{"ID":237491,"DIS_CODE":0,"TOWNNAME":"北區","LI":"正覺里","LIN":"13鄰","STREET":"北安路","SECT":"一段","MAREA":" ","LANE":"５６巷","ALLEY":" ","HOUSE_NO":"２３號","E_COORD97":169216.29000000001,"N_COORD97":2546325.4199999999,"ADDRESS":"北安路一段５６巷２３號","OBJECTID":237487},"geometry":{"x":169216.29000000004,"y":2546325.4199999999}},{"attributes":{"ID":237492,"DIS_CODE":0,"TOWNNAME":"北區","LI":"正覺里","LIN":"13鄰","STREET":"北安路","SECT":"一段","MAREA":" ","LANE":"５６巷","ALLEY":" ","HOUSE_NO":"２５號","E_COORD97":169219.29999999999,"N_COORD97":2546332.46,"ADDRESS":"北安路一段５６巷２５號","OBJECTID":237488},"geometry":{"x":169219.29999999981,"y":2546332.4600000028}},{"attributes":{"ID":237493,"DIS_CODE":0,"TOWNNAME":"北區","LI":"正覺里","LIN":"13鄰","STREET":"北安路","SECT":"一段","MAREA":" ","LANE":"５６巷","ALLEY":" ","HOUSE_NO":"２７號","E_COORD97":169223.67000000001,"N_COORD97":2546336.9300000002,"ADDRESS":"北安路一段５６巷２７號","OBJECTID":237489},"geometry":{"x":169223.66999999993,"y":2546336.9300000016}},{"attributes":{"ID":237494,"DIS_CODE":0,"TOWNNAME":"東區","LI":"德高里","LIN":"14鄰","STREET":"仁和路","SECT":" ","MAREA":" ","LANE":" ","ALLEY":" ","HOUSE_NO":"２２５號","E_COORD97":171694.32000000001,"N_COORD97":2540780.6400000001,"ADDRESS":"仁和路２２５號","OBJECTID":237490},"geometry":{"x":171694.3200000003,"y":2540780.6400000025}},{"attributes":{"ID":237495,"DIS_CODE":0,"TOWNNAME":"東區","LI":"德高里","LIN":"14鄰","STREET":"城東街","SECT":" ","MAREA":" ","LANE":" ","ALLEY":" ","HOUSE_NO":"６６號","E_COORD97":171706.75,"N_COORD97":2540795.5499999998,"ADDRESS":"城東街６６號","OBJECTID":237491},"geometry":{"x":171706.75,"y":2540795.5500000007}},{"attributes":{"ID":237496,"DIS_CODE":0,"TOWNNAME":"東區","LI":"德高里","LIN":"14鄰","STREET":"城東街","SECT":" ","MAREA":" ","LANE":" ","ALLEY":" ","HOUSE_NO":"６８號","E_COORD97":171711.35000000001,"N_COORD97":2540795.9700000002,"ADDRESS":"城東街６８號","OBJECTID":237492},"geometry":{"x":171711.35000000056,"y":2540795.9700000007}},{"attributes":{"ID":237497,"DIS_CODE":0,"TOWNNAME":"東區","LI":"德高里","LIN":"14鄰","STREET":"城東街","SECT":" ","MAREA":" ","LANE":" ","ALLEY":" ","HOUSE_NO":"８９號","E_COORD97":171697.07999999999,"N_COORD97":2540818.7400000002,"ADDRESS":"城東街８９號","OBJECTID":237493},"geometry":{"x":171697.08000000101,"y":2540818.7399999984}},{"attributes":{"ID":237498,"DIS_CODE":0,"TOWNNAME":"東區","LI":"德高里","LIN":"14鄰","STREET":"城東街","SECT":" ","MAREA":" ","LANE":" ","ALLEY":" ","HOUSE_NO":"９１號","E_COORD97":171701.48999999999,"N_COORD97":2540820.4199999999,"ADDRESS":"城東街９１號","OBJECTID":237494},"geometry":{"x":171701.49000000022,"y":2540820.4199999999}},{"attributes":{"ID":237499,"DIS_CODE":0,"TOWNNAME":"東區","LI":"德高里","LIN":"14鄰","STREET":"城東街","SECT":" ","MAREA":" ","LANE":" ","ALLEY":" ","HOUSE_NO":"９５號","E_COORD97":171708.88,"N_COORD97":2540823.3399999999,"ADDRESS":"城東街９５號","OBJECTID":237495},"geometry":{"x":171708.87999999989,"y":2540823.3399999999}},{"attributes":{"ID":237500,"DIS_CODE":0,"TOWNNAME":"東區","LI":"德高里","LIN":"14鄰","STREET":"城東街","SECT":" ","MAREA":" ","LANE":" ","ALLEY":" ","HOUSE_NO":"９７號","E_COORD97":171713.06,"N_COORD97":2540825.5699999998,"ADDRESS":"城東街９７號","OBJECTID":237496},"geometry":{"x":171713.06000000145,"y":2540825.5700000003}},{"attributes":{"ID":237501,"DIS_CODE":0,"TOWNNAME":"東區","LI":"德高里","LIN":"14鄰","STREET":"仁和路","SECT":" ","MAREA":" ","LANE":" ","ALLEY":" ","HOUSE_NO":"１７１號","E_COORD97":171617.39999999999,"N_COORD97":2540892.8500000001,"ADDRESS":"仁和路１７１號","OBJECTID":237497},"geometry":{"x":171617.4000000013,"y":2540892.8500000015}},{"attributes":{"ID":237502,"DIS_CODE":0,"TOWNNAME":"東區","LI":"德高里","LIN":"14鄰","STREET":"仁和路","SECT":" ","MAREA":" ","LANE":" ","ALLEY":" ","HOUSE_NO":"１８１號","E_COORD97":171624.17000000001,"N_COORD97":2540880.1299999999,"ADDRESS":"仁和路１８１號","OBJECTID":237498},"geometry":{"x":171624.16999999993,"y":2540880.1300000008}},{"attributes":{"ID":237503,"DIS_CODE":0,"TOWNNAME":"中西區","LI":"青年里","LIN":"5鄰","STREET":"青年路","SECT":" ","MAREA":" ","LANE":"１３７巷","ALLEY":" ","HOUSE_NO":"６號","E_COORD97":168949.42000000001,"N_COORD97":2543653.1000000001,"ADDRESS":"青年路１３７巷６號","OBJECTID":237499},"geometry":{"x":168949.42000000179,"y":2543653.0999999996}},{"attributes":{"ID":237504,"DIS_CODE":0,"TOWNNAME":"中西區","LI":"青年里","LIN":"5鄰","STREET":"青年路","SECT":" ","MAREA":" ","LANE":"１３７巷","ALLEY":" ","HOUSE_NO":"８號","E_COORD97":168949.10000000001,"N_COORD97":2543661.2599999998,"ADDRESS":"青年路１３７巷８號","OBJECTID":237500},"geometry":{"x":168949.09999999963,"y":2543661.2599999998}},{"attributes":{"ID":237505,"DIS_CODE":0,"TOWNNAME":"中西區","LI":"五妃里","LIN":"16鄰","STREET":"慶中街","SECT":" ","MAREA":" ","LANE":"２０６巷","ALLEY":" ","HOUSE_NO":"２號","E_COORD97":168579.78,"N_COORD97":2542813.71,"ADDRESS":"慶中街２０６巷２號","OBJECTID":237501},"geometry":{"x":168579.78000000119,"y":2542813.7100000028}},{"attributes":{"ID":237506,"DIS_CODE":0,"TOWNNAME":"中西區","LI":"五妃里","LIN":"16鄰","STREET":"慶中街","SECT":" ","MAREA":" ","LANE":"２０６巷","ALLEY":" ","HOUSE_NO":"９號","E_COORD97":168590.51000000001,"N_COORD97":2542823.5099999998,"ADDRESS":"慶中街２０６巷９號","OBJECTID":237502},"geometry":{"x":168590.50999999978,"y":2542823.5099999979}},{"attributes":{"ID":237507,"DIS_CODE":0,"TOWNNAME":"中西區","LI":"五妃里","LIN":"16鄰","STREET":"慶中街","SECT":" ","MAREA":" ","LANE":"２１６巷","ALLEY":" ","HOUSE_NO":"１０號","E_COORD97":168599.70000000001,"N_COORD97":2542862.0699999998,"ADDRESS":"慶中街２１６巷１０號","OBJECTID":237503},"geometry":{"x":168599.70000000019,"y":2542862.0700000022}},{"attributes":{"ID":237508,"DIS_CODE":0,"TOWNNAME":"中西區","LI":"五妃里","LIN":"16鄰","STREET":"慶中街","SECT":" ","MAREA":" ","LANE":"２１６巷","ALLEY":" ","HOUSE_NO":"１２號","E_COORD97":168603.78,"N_COORD97":2542861.5600000001,"ADDRESS":"慶中街２１６巷１２號","OBJECTID":237504},"geometry":{"x":168603.78000000119,"y":2542861.5600000042}},{"attributes":{"ID":237509,"DIS_CODE":0,"TOWNNAME":"中西區","LI":"五妃里","LIN":"16鄰","STREET":"慶中街","SECT":" ","MAREA":" ","LANE":"２１６巷","ALLEY":" ","HOUSE_NO":"１號","E_COORD97":168584.76000000001,"N_COORD97":2542874.7000000002,"ADDRESS":"慶中街２１６巷１號","OBJECTID":237505},"geometry":{"x":168584.76000000071,"y":2542874.6999999993}},{"attributes":{"ID":237510,"DIS_CODE":0,"TOWNNAME":"中西區","LI":"五妃里","LIN":"16鄰","STREET":"慶中街","SECT":" ","MAREA":" ","LANE":"２１６巷","ALLEY":" ","HOUSE_NO":"２號","E_COORD97":168582.12,"N_COORD97":2542862.3399999999,"ADDRESS":"慶中街２１６巷２號","OBJECTID":237506},"geometry":{"x":168582.12000000197,"y":2542862.3400000036}},{"attributes":{"ID":237511,"DIS_CODE":0,"TOWNNAME":"中西區","LI":"五妃里","LIN":"16鄰","STREET":"慶中街","SECT":" ","MAREA":" ","LANE":"２１６巷","ALLEY":" ","HOUSE_NO":"３號","E_COORD97":168589.87,"N_COORD97":2542873.1699999999,"ADDRESS":"慶中街２１６巷３號","OBJECTID":237507},"geometry":{"x":168589.87000000011,"y":2542873.1699999999}},{"attributes":{"ID":237512,"DIS_CODE":0,"TOWNNAME":"中西區","LI":"五妃里","LIN":"16鄰","STREET":"慶中街","SECT":" ","MAREA":" ","LANE":"２１６巷","ALLEY":" ","HOUSE_NO":"４號","E_COORD97":168584.76000000001,"N_COORD97":2542864.6200000001,"ADDRESS":"慶中街２１６巷４號","OBJECTID":237508},"geometry":{"x":168584.76000000071,"y":2542864.620000001}},{"attributes":{"ID":237513,"DIS_CODE":0,"TOWNNAME":"東區","LI":"德高里","LIN":"14鄰","STREET":"仁和路","SECT":" ","MAREA":" ","LANE":" ","ALLEY":" ","HOUSE_NO":"１８９號","E_COORD97":171633.79999999999,"N_COORD97":2540863.6299999999,"ADDRESS":"仁和路１８９號","OBJECTID":237509},"geometry":{"x":171633.80000000075,"y":2540863.6300000008}},{"attributes":{"ID":237514,"DIS_CODE":0,"TOWNNAME":"東區","LI":"德高里","LIN":"14鄰","STREET":"城東街","SECT":" ","MAREA":" ","LANE":" ","ALLEY":" ","HOUSE_NO":"７４號","E_COORD97":171722.09,"N_COORD97":2540800.98,"ADDRESS":"城東街７４號","OBJECTID":237510},"geometry":{"x":171722.09000000078,"y":2540800.9800000023}},{"attributes":{"ID":237515,"DIS_CODE":0,"TOWNNAME":"東區","LI":"德高里","LIN":"14鄰","STREET":"城東街","SECT":" ","MAREA":" ","LANE":" ","ALLEY":" ","HOUSE_NO":"９３號","E_COORD97":171705.39000000001,"N_COORD97":2540821.8100000001,"ADDRESS":"城東街９３號","OBJECTID":237511},"geometry":{"x":171705.38999999966,"y":2540821.8100000005}},{"attributes":{"ID":237516,"DIS_CODE":0,"TOWNNAME":"東區","LI":"中西里","LIN":"14鄰","STREET":"東寧路","SECT":" ","MAREA":" ","LANE":" ","ALLEY":" ","HOUSE_NO":"７６號","E_COORD97":170135.87,"N_COORD97":2543596.8599999999,"ADDRESS":"東寧路７６號","OBJECTID":237512},"geometry":{"x":170135.87000000011,"y":2543596.8599999994}},{"attributes":{"ID":237517,"DIS_CODE":0,"TOWNNAME":"安南區","LI":"淵東里","LIN":"14鄰","STREET":"仁安路","SECT":" ","MAREA":" ","LANE":" ","ALLEY":" ","HOUSE_NO":"１０１號","E_COORD97":165698.20999999999,"N_COORD97":2550171.8599999999,"ADDRESS":"仁安路１０１號","OBJECTID":237513},"geometry":{"x":165698.21000000089,"y":2550171.8600000013}},{"attributes":{"ID":237518,"DIS_CODE":0,"TOWNNAME":"東區","LI":"富強里","LIN":"16鄰","STREET":"裕農路","SECT":" ","MAREA":" ","LANE":"２８８巷","ALLEY":" ","HOUSE_NO":"９２號","E_COORD97":170958.78,"N_COORD97":2542934.0800000001,"ADDRESS":"裕農路２８８巷９２號","OBJECTID":237514},"geometry":{"x":170958.78000000026,"y":2542934.0800000001}},{"attributes":{"ID":237519,"DIS_CODE":0,"TOWNNAME":"東區","LI":"富強里","LIN":"16鄰","STREET":"裕農路","SECT":" ","MAREA":" ","LANE":"２８８巷","ALLEY":" ","HOUSE_NO":"９８號","E_COORD97":170975.70000000001,"N_COORD97":2542935.29,"ADDRESS":"裕農路２８８巷９８號","OBJECTID":237515},"geometry":{"x":170975.70000000112,"y":2542935.2899999991}},{"attributes":{"ID":237520,"DIS_CODE":0,"TOWNNAME":"東區","LI":"富強里","LIN":"16鄰","STREET":"裕農路","SECT":" ","MAREA":" ","LANE":"２８８巷","ALLEY":" ","HOUSE_NO":"１６４號","E_COORD97":171064,"N_COORD97":2542861.7799999998,"ADDRESS":"裕農路２８８巷１６４號","OBJECTID":237516},"geometry":{"x":171064,"y":2542861.7799999993}},{"attributes":{"ID":237521,"DIS_CODE":0,"TOWNNAME":"東區","LI":"虎尾里","LIN":"16鄰","STREET":"東成街","SECT":" ","MAREA":" ","LANE":"５６巷","ALLEY":" ","HOUSE_NO":"２４號","E_COORD97":171377.35000000001,"N_COORD97":2542194.96,"ADDRESS":"東成街５６巷２４號","OBJECTID":237517},"geometry":{"x":171377.35000000056,"y":2542194.9600000028}},{"attributes":{"ID":237522,"DIS_CODE":0,"TOWNNAME":"東區","LI":"虎尾里","LIN":"16鄰","STREET":"東成街","SECT":" ","MAREA":" ","LANE":"５６巷","ALLEY":" ","HOUSE_NO":"４６號","E_COORD97":171380.29000000001,"N_COORD97":2542147.79,"ADDRESS":"東成街５６巷４６號","OBJECTID":237518},"geometry":{"x":171380.29000000097,"y":2542147.790000001}},{"attributes":{"ID":237523,"DIS_CODE":0,"TOWNNAME":"永康區","LI":"復華里","LIN":"16鄰","STREET":"復華七街","SECT":" ","MAREA":" ","LANE":"１０６巷","ALLEY":" ","HOUSE_NO":"１２號","E_COORD97":172891.07999999999,"N_COORD97":2546144.7599999998,"ADDRESS":"復華七街１０６巷１２號","OBJECTID":237519},"geometry":{"x":172891.08000000007,"y":2546144.7600000035}},{"attributes":{"ID":237524,"DIS_CODE":0,"TOWNNAME":"北區","LI":"正覺里","LIN":"13鄰","STREET":"北安路","SECT":"一段","MAREA":" ","LANE":"５６巷","ALLEY":" ","HOUSE_NO":"３１號","E_COORD97":169227.39999999999,"N_COORD97":2546345.5699999998,"ADDRESS":"北安路一段５６巷３１號","OBJECTID":237520},"geometry":{"x":169227.40000000037,"y":2546345.5700000003}},{"attributes":{"ID":237525,"DIS_CODE":0,"TOWNNAME":"安南區","LI":"淵東里","LIN":"14鄰","STREET":"仁安路","SECT":" ","MAREA":" ","LANE":" ","ALLEY":" ","HOUSE_NO":"１０５號","E_COORD97":165708.13,"N_COORD97":2550174.98,"ADDRESS":"仁安路１０５號","OBJECTID":237521},"geometry":{"x":165708.12999999989,"y":2550174.9800000042}},{"attributes":{"ID":237526,"DIS_CODE":0,"TOWNNAME":"安南區","LI":"淵東里","LIN":"14鄰","STREET":"仁安路","SECT":" ","MAREA":" ","LANE":" ","ALLEY":" ","HOUSE_NO":"１０７號","E_COORD97":165712.48999999999,"N_COORD97":2550176.8500000001,"ADDRESS":"仁安路１０７號","OBJECTID":237522},"geometry":{"x":165712.49000000022,"y":2550176.8499999996}},{"attributes":{"ID":237527,"DIS_CODE":0,"TOWNNAME":"安南區","LI":"新順里","LIN":"14鄰","STREET":"永安二街","SECT":" ","MAREA":" ","LANE":" ","ALLEY":" ","HOUSE_NO":"３０號","E_COORD97":169893.79000000001,"N_COORD97":2549480.6000000001,"ADDRESS":"永安二街３０號","OBJECTID":237523},"geometry":{"x":169893.79000000097,"y":2549480.5999999996}},{"attributes":{"ID":237528,"DIS_CODE":0,"TOWNNAME":"安南區","LI":"淵東里","LIN":"14鄰","STREET":"智安二街","SECT":" ","MAREA":" ","LANE":" ","ALLEY":" ","HOUSE_NO":"８９號","E_COORD97":165666.76999999999,"N_COORD97":2550329.7999999998,"ADDRESS":"智安二街８９號","OBJECTID":237524},"geometry":{"x":165666.77000000048,"y":2550329.8000000026}},{"attributes":{"ID":237529,"DIS_CODE":0,"TOWNNAME":"中西區","LI":"建國里","LIN":"14鄰","STREET":"民生路","SECT":"一段","MAREA":" ","LANE":" ","ALLEY":" ","HOUSE_NO":"１３４號","E_COORD97":168066.37,"N_COORD97":2543855.75,"ADDRESS":"民生路一段１３４號","OBJECTID":237525},"geometry":{"x":168066.37000000011,"y":2543855.75}},{"attributes":{"ID":237530,"DIS_CODE":0,"TOWNNAME":"中西區","LI":"建國里","LIN":"14鄰","STREET":"民生路","SECT":"一段","MAREA":" ","LANE":" ","ALLEY":" ","HOUSE_NO":"１３６號","E_COORD97":168062.64000000001,"N_COORD97":2543856.8999999999,"ADDRESS":"民生路一段１３６號","OBJECTID":237526},"geometry":{"x":168062.63999999966,"y":2543856.9000000022}},{"attributes":{"ID":237531,"DIS_CODE":0,"TOWNNAME":"中西區","LI":"建國里","LIN":"14鄰","STREET":"民生路","SECT":"一段","MAREA":" ","LANE":" ","ALLEY":" ","HOUSE_NO":"１３８號","E_COORD97":168058.89999999999,"N_COORD97":2543857.8999999999,"ADDRESS":"民生路一段１３８號","OBJECTID":237527},"geometry":{"x":168058.9000000013,"y":2543857.9000000004}},{"attributes":{"ID":237532,"DIS_CODE":0,"TOWNNAME":"安南區","LI":"安慶里","LIN":"16鄰","STREET":"安中路","SECT":"一段","MAREA":" ","LANE":"１８９巷","ALLEY":" ","HOUSE_NO":"３３號","E_COORD97":168774.82000000001,"N_COORD97":2548373.02,"ADDRESS":"安中路一段１８９巷３３號","OBJECTID":237528},"geometry":{"x":168774.82000000123,"y":2548373.0199999996}},{"attributes":{"ID":237533,"DIS_CODE":0,"TOWNNAME":"安南區","LI":"安慶里","LIN":"16鄰","STREET":"安中路","SECT":"一段","MAREA":" ","LANE":"１８９巷","ALLEY":" ","HOUSE_NO":"３５號","E_COORD97":168774.82000000001,"N_COORD97":2548369.25,"ADDRESS":"安中路一段１８９巷３５號","OBJECTID":237529},"geometry":{"x":168774.82000000123,"y":2548369.2500000037}},{"attributes":{"ID":237534,"DIS_CODE":0,"TOWNNAME":"安南區","LI":"安慶里","LIN":"16鄰","STREET":"安中路","SECT":"一段","MAREA":" ","LANE":"１８９巷","ALLEY":" ","HOUSE_NO":"３７號","E_COORD97":168776.57999999999,"N_COORD97":2548365.6000000001,"ADDRESS":"安中路一段１８９巷３７號","OBJECTID":237530},"geometry":{"x":168776.58000000007,"y":2548365.5999999996}},{"attributes":{"ID":237535,"DIS_CODE":0,"TOWNNAME":"安南區","LI":"安慶里","LIN":"16鄰","STREET":"安中路","SECT":"一段","MAREA":" ","LANE":"１８９巷","ALLEY":" ","HOUSE_NO":"３９號","E_COORD97":168777.12,"N_COORD97":2548361.5600000001,"ADDRESS":"安中路一段１８９巷３９號","OBJECTID":237531},"geometry":{"x":168777.12000000197,"y":2548361.5600000024}},{"attributes":{"ID":237536,"DIS_CODE":0,"TOWNNAME":"安南區","LI":"安慶里","LIN":"16鄰","STREET":"安中路","SECT":"一段","MAREA":" ","LANE":"１８９巷","ALLEY":" ","HOUSE_NO":"４３號","E_COORD97":168778.47,"N_COORD97":2548351.4399999999,"ADDRESS":"安中路一段１８９巷４３號","OBJECTID":237532},"geometry":{"x":168778.47000000067,"y":2548351.4400000013}},{"attributes":{"ID":237537,"DIS_CODE":0,"TOWNNAME":"安南區","LI":"安慶里","LIN":"16鄰","STREET":"安中路","SECT":"一段","MAREA":" ","LANE":"１８９巷","ALLEY":" ","HOUSE_NO":"４５號","E_COORD97":168779.54999999999,"N_COORD97":2548347.2599999998,"ADDRESS":"安中路一段１８９巷４５號","OBJECTID":237533},"geometry":{"x":168779.55000000075,"y":2548347.2599999998}},{"attributes":{"ID":237538,"DIS_CODE":0,"TOWNNAME":"安南區","LI":"安慶里","LIN":"16鄰","STREET":"安中路","SECT":"一段","MAREA":" ","LANE":"１８９巷","ALLEY":" ","HOUSE_NO":"４７號","E_COORD97":168779.82999999999,"N_COORD97":2548343.1400000001,"ADDRESS":"安中路一段１８９巷４７號","OBJECTID":237534},"geometry":{"x":168779.83000000101,"y":2548343.1400000043}},{"attributes":{"ID":237539,"DIS_CODE":0,"TOWNNAME":"安南區","LI":"幸福里","LIN":"16鄰","STREET":"府安路","SECT":"六段","MAREA":" ","LANE":"３７巷","ALLEY":" ","HOUSE_NO":"５６號","E_COORD97":166986.85999999999,"N_COORD97":2546830.7799999998,"ADDRESS":"府安路六段３７巷５６號","OBJECTID":237535},"geometry":{"x":166986.86000000034,"y":2546830.7799999993}},{"attributes":{"ID":237540,"DIS_CODE":0,"TOWNNAME":"北區","LI":"正覺里","LIN":"13鄰","STREET":"北安路","SECT":"一段","MAREA":" ","LANE":"５６巷","ALLEY":" ","HOUSE_NO":"３３號","E_COORD97":169229.76000000001,"N_COORD97":2546349.75,"ADDRESS":"北安路一段５６巷３３號","OBJECTID":237536},"geometry":{"x":169229.75999999978,"y":2546349.7500000019}},{"attributes":{"ID":237541,"DIS_CODE":0,"TOWNNAME":"北區","LI":"正覺里","LIN":"13鄰","STREET":"北安路","SECT":"一段","MAREA":" ","LANE":"５６巷","ALLEY":" ","HOUSE_NO":"３號","E_COORD97":169188.42999999999,"N_COORD97":2546287.46,"ADDRESS":"北安路一段５６巷３號","OBJECTID":237537},"geometry":{"x":169188.43000000063,"y":2546287.4600000028}},{"attributes":{"ID":237542,"DIS_CODE":0,"TOWNNAME":"北區","LI":"正覺里","LIN":"13鄰","STREET":"北安路","SECT":"一段","MAREA":" ","LANE":"５６巷","ALLEY":" ","HOUSE_NO":"７號","E_COORD97":169196.73000000001,"N_COORD97":2546295.6699999999,"ADDRESS":"北安路一段５６巷７號","OBJECTID":237538},"geometry":{"x":169196.73000000045,"y":2546295.6700000018}},{"attributes":{"ID":237543,"DIS_CODE":0,"TOWNNAME":"北區","LI":"正覺里","LIN":"13鄰","STREET":"北安路","SECT":"一段","MAREA":" ","LANE":"５６巷","ALLEY":" ","HOUSE_NO":"９號","E_COORD97":169198.28,"N_COORD97":2546299.3199999998,"ADDRESS":"北安路一段５６巷９號","OBJECTID":237539},"geometry":{"x":169198.28000000212,"y":2546299.3200000003}},{"attributes":{"ID":237544,"DIS_CODE":0,"TOWNNAME":"北區","LI":"正覺里","LIN":"13鄰","STREET":"北安路","SECT":"一段","MAREA":" ","LANE":"６８巷","ALLEY":" ","HOUSE_NO":"１０號","E_COORD97":169219.48000000001,"N_COORD97":2546355.9300000002,"ADDRESS":"北安路一段６８巷１０號","OBJECTID":237540},"geometry":{"x":169219.48000000138,"y":2546355.9299999997}},{"attributes":{"ID":237545,"DIS_CODE":0,"TOWNNAME":"北區","LI":"正覺里","LIN":"13鄰","STREET":"北安路","SECT":"一段","MAREA":" ","LANE":"６８巷","ALLEY":" ","HOUSE_NO":"１１號","E_COORD97":169176.66,"N_COORD97":2546317.3199999998,"ADDRESS":"北安路一段６８巷１１號","OBJECTID":237541},"geometry":{"x":169176.66000000015,"y":2546317.3200000003}},{"attributes":{"ID":237546,"DIS_CODE":0,"TOWNNAME":"北區","LI":"正覺里","LIN":"13鄰","STREET":"北安路","SECT":"一段","MAREA":" ","LANE":"６８巷","ALLEY":" ","HOUSE_NO":"１３號","E_COORD97":169179.48000000001,"N_COORD97":2546321.23,"ADDRESS":"北安路一段６８巷１３號","OBJECTID":237542},"geometry":{"x":169179.48000000045,"y":2546321.2300000004}},{"attributes":{"ID":237547,"DIS_CODE":0,"TOWNNAME":"北區","LI":"正覺里","LIN":"13鄰","STREET":"北安路","SECT":"一段","MAREA":" ","LANE":"６８巷","ALLEY":" ","HOUSE_NO":"１５號","E_COORD97":169181.85000000001,"N_COORD97":2546324.3199999998,"ADDRESS":"北安路一段６８巷１５號","OBJECTID":237543},"geometry":{"x":169181.85000000149,"y":2546324.3199999984}},{"attributes":{"ID":237548,"DIS_CODE":0,"TOWNNAME":"北區","LI":"正覺里","LIN":"13鄰","STREET":"北安路","SECT":"一段","MAREA":" ","LANE":"６８巷","ALLEY":" ","HOUSE_NO":"１７號","E_COORD97":169183.94,"N_COORD97":2546327.5899999999,"ADDRESS":"北安路一段６８巷１７號","OBJECTID":237544},"geometry":{"x":169183.94000000134,"y":2546327.5899999999}},{"attributes":{"ID":237549,"DIS_CODE":0,"TOWNNAME":"北區","LI":"正覺里","LIN":"13鄰","STREET":"北安路","SECT":"一段","MAREA":" ","LANE":"６８巷","ALLEY":" ","HOUSE_NO":"１９號","E_COORD97":169187.95000000001,"N_COORD97":2546331.2400000002,"ADDRESS":"北安路一段６８巷１９號","OBJECTID":237545},"geometry":{"x":169187.95000000019,"y":2546331.2400000002}},{"attributes":{"ID":237550,"DIS_CODE":0,"TOWNNAME":"北區","LI":"正覺里","LIN":"13鄰","STREET":"北安路","SECT":"一段","MAREA":" ","LANE":"６８巷","ALLEY":" ","HOUSE_NO":"２１號","E_COORD97":169190.95000000001,"N_COORD97":2546334.52,"ADDRESS":"北安路一段６８巷２１號","OBJECTID":237546},"geometry":{"x":169190.95000000112,"y":2546334.5199999996}},{"attributes":{"ID":237551,"DIS_CODE":0,"TOWNNAME":"中西區","LI":"建國里","LIN":"14鄰","STREET":"民生路","SECT":"一段","MAREA":" ","LANE":" ","ALLEY":" ","HOUSE_NO":"１４０號","E_COORD97":168055.60000000001,"N_COORD97":2543859.3399999999,"ADDRESS":"民生路一段１４０號","OBJECTID":237547},"geometry":{"x":168055.59999999963,"y":2543859.3400000017}},{"attributes":{"ID":237552,"DIS_CODE":0,"TOWNNAME":"中西區","LI":"建國里","LIN":"14鄰","STREET":"民生路","SECT":"一段","MAREA":" ","LANE":" ","ALLEY":" ","HOUSE_NO":"１４６號","E_COORD97":168044.10000000001,"N_COORD97":2543863.5,"ADDRESS":"民生路一段１４６號","OBJECTID":237548},"geometry":{"x":168044.09999999963,"y":2543863.5}},{"attributes":{"ID":237553,"DIS_CODE":0,"TOWNNAME":"中西區","LI":"建國里","LIN":"14鄰","STREET":"民生路","SECT":"一段","MAREA":" ","LANE":" ","ALLEY":" ","HOUSE_NO":"１４８號","E_COORD97":168039.5,"N_COORD97":2543864.5,"ADDRESS":"民生路一段１４８號","OBJECTID":237549},"geometry":{"x":168039.50000000093,"y":2543864.5}},{"attributes":{"ID":237554,"DIS_CODE":0,"TOWNNAME":"中西區","LI":"建國里","LIN":"14鄰","STREET":"民生路","SECT":"一段","MAREA":" ","LANE":" ","ALLEY":" ","HOUSE_NO":"１５０號","E_COORD97":168034.91,"N_COORD97":2543865.79,"ADDRESS":"民生路一段１５０號","OBJECTID":237550},"geometry":{"x":168034.91000000108,"y":2543865.790000001}},{"attributes":{"ID":237555,"DIS_CODE":0,"TOWNNAME":"中西區","LI":"建國里","LIN":"14鄰","STREET":"民生路","SECT":"一段","MAREA":" ","LANE":" ","ALLEY":" ","HOUSE_NO":"１５２號","E_COORD97":168030.88,"N_COORD97":2543866.9399999999,"ADDRESS":"民生路一段１５２號","OBJECTID":237551},"geometry":{"x":168030.88000000175,"y":2543866.9399999995}},{"attributes":{"ID":237556,"DIS_CODE":0,"TOWNNAME":"中西區","LI":"建國里","LIN":"14鄰","STREET":"民生路","SECT":"一段","MAREA":" ","LANE":" ","ALLEY":" ","HOUSE_NO":"１５４號","E_COORD97":168025.17999999999,"N_COORD97":2543868.3700000001,"ADDRESS":"民生路一段１５４號","OBJECTID":237552},"geometry":{"x":168025.17999999877,"y":2543868.3700000029}},{"attributes":{"ID":237557,"DIS_CODE":0,"TOWNNAME":"中西區","LI":"建國里","LIN":"14鄰","STREET":"民生路","SECT":"一段","MAREA":" ","LANE":" ","ALLEY":" ","HOUSE_NO":"１５８號","E_COORD97":168017.45999999999,"N_COORD97":2543871.3700000001,"ADDRESS":"民生路一段１５８號","OBJECTID":237553},"geometry":{"x":168017.46000000089,"y":2543871.3700000029}},{"attributes":{"ID":237558,"DIS_CODE":0,"TOWNNAME":"中西區","LI":"建國里","LIN":"14鄰","STREET":"民生路","SECT":"一段","MAREA":" ","LANE":" ","ALLEY":" ","HOUSE_NO":"１６０號","E_COORD97":168014.31,"N_COORD97":2543871.9399999999,"ADDRESS":"民生路一段１６０號","OBJECTID":237554},"geometry":{"x":168014.31000000052,"y":2543871.9400000013}},{"attributes":{"ID":237559,"DIS_CODE":0,"TOWNNAME":"中西區","LI":"建國里","LIN":"14鄰","STREET":"民生路","SECT":"一段","MAREA":" ","LANE":" ","ALLEY":" ","HOUSE_NO":"１６２號","E_COORD97":168008.01000000001,"N_COORD97":2543873.6600000001,"ADDRESS":"民生路一段１６２號","OBJECTID":237555},"geometry":{"x":168008.01000000164,"y":2543873.6600000001}},{"attributes":{"ID":237560,"DIS_CODE":0,"TOWNNAME":"安南區","LI":"州北里","LIN":"16鄰","STREET":"安和路","SECT":"五段","MAREA":" ","LANE":"１７８巷","ALLEY":" ","HOUSE_NO":"８號","E_COORD97":169890.23000000001,"N_COORD97":2551879.0699999998,"ADDRESS":"安和路五段１７８巷８號","OBJECTID":237556},"geometry":{"x":169890.23000000045,"y":2551879.0700000003}},{"attributes":{"ID":237561,"DIS_CODE":0,"TOWNNAME":"北區","LI":"正覺里","LIN":"13鄰","STREET":"北安路","SECT":"一段","MAREA":" ","LANE":"６８巷","ALLEY":" ","HOUSE_NO":"２５號","E_COORD97":169196.5,"N_COORD97":2546341.9900000002,"ADDRESS":"北安路一段６８巷２５號","OBJECTID":237557},"geometry":{"x":169196.50000000186,"y":2546341.9900000002}},{"attributes":{"ID":237562,"DIS_CODE":0,"TOWNNAME":"中西區","LI":"建國里","LIN":"14鄰","STREET":"民生路","SECT":"一段","MAREA":" ","LANE":" ","ALLEY":" ","HOUSE_NO":"１６４號","E_COORD97":168004.29000000001,"N_COORD97":2543874.7999999998,"ADDRESS":"民生路一段１６４號","OBJECTID":237558},"geometry":{"x":168004.29000000004,"y":2543874.8000000026}},{"attributes":{"ID":237563,"DIS_CODE":0,"TOWNNAME":"大內區","LI":"二溪里","LIN":"16鄰","STREET":" ","SECT":" ","MAREA":"其子瓦","LANE":" ","ALLEY":" ","HOUSE_NO":"６６號","E_COORD97":191278.92000000001,"N_COORD97":2559554.25,"ADDRESS":"其子瓦６６號","OBJECTID":237559},"geometry":{"x":191278.92000000086,"y":2559554.2500000019}},{"attributes":{"ID":237564,"DIS_CODE":0,"TOWNNAME":"大內區","LI":"二溪里","LIN":"16鄰","STREET":" ","SECT":" ","MAREA":"其子瓦","LANE":" ","ALLEY":" ","HOUSE_NO":"５７號之４","E_COORD97":191537.57999999999,"N_COORD97":2559468.2999999998,"ADDRESS":"其子瓦５７號之４","OBJECTID":237560},"geometry":{"x":191537.58000000101,"y":2559468.3000000007}},{"attributes":{"ID":237565,"DIS_CODE":0,"TOWNNAME":"大內區","LI":"石城里","LIN":"16鄰","STREET":" ","SECT":" ","MAREA":"石子瀨","LANE":" ","ALLEY":" ","HOUSE_NO":"１２２之１５３號","E_COORD97":184054.28,"N_COORD97":2557637.1299999999,"ADDRESS":"石子瀨１２２之１５３號","OBJECTID":237561},"geometry":{"x":184054.28000000026,"y":2557637.129999999}},{"attributes":{"ID":237566,"DIS_CODE":0,"TOWNNAME":"安南區","LI":"海西里","LIN":"16鄰","STREET":"海環街","SECT":" ","MAREA":" ","LANE":"１２１巷","ALLEY":" ","HOUSE_NO":"３４號","E_COORD97":166526.47,"N_COORD97":2548650.3399999999,"ADDRESS":"海環街１２１巷３４號","OBJECTID":237562},"geometry":{"x":166526.4700000016,"y":2548650.3400000017}},{"attributes":{"ID":237567,"DIS_CODE":0,"TOWNNAME":"安南區","LI":"海西里","LIN":"16鄰","STREET":"海環街","SECT":" ","MAREA":" ","LANE":"１２１巷","ALLEY":" ","HOUSE_NO":"３６號","E_COORD97":166529.54000000001,"N_COORD97":2548646.1699999999,"ADDRESS":"海環街１２１巷３６號","OBJECTID":237563},"geometry":{"x":166529.54000000004,"y":2548646.1699999999}},{"attributes":{"ID":237568,"DIS_CODE":0,"TOWNNAME":"安南區","LI":"溪心里","LIN":"16鄰","STREET":"安中路","SECT":"二段","MAREA":" ","LANE":"３７巷","ALLEY":" ","HOUSE_NO":"５５號","E_COORD97":166942.70000000001,"N_COORD97":2549491.77,"ADDRESS":"安中路二段３７巷５５號","OBJECTID":237564},"geometry":{"x":166942.70000000112,"y":2549491.7700000014}},{"attributes":{"ID":237569,"DIS_CODE":0,"TOWNNAME":"北區","LI":"正覺里","LIN":"13鄰","STREET":"北安路","SECT":"一段","MAREA":" ","LANE":"６８巷","ALLEY":" ","HOUSE_NO":"２７號","E_COORD97":169198.41,"N_COORD97":2546345.2599999998,"ADDRESS":"北安路一段６８巷２７號","OBJECTID":237565},"geometry":{"x":169198.41000000015,"y":2546345.2600000016}},{"attributes":{"ID":237570,"DIS_CODE":0,"TOWNNAME":"北區","LI":"正覺里","LIN":"13鄰","STREET":"北安路","SECT":"一段","MAREA":" ","LANE":"６８巷","ALLEY":" ","HOUSE_NO":"２９號","E_COORD97":169201.32000000001,"N_COORD97":2546348.6200000001,"ADDRESS":"北安路一段６８巷２９號","OBJECTID":237566},"geometry":{"x":169201.31999999937,"y":2546348.6200000029}},{"attributes":{"ID":237571,"DIS_CODE":0,"TOWNNAME":"北區","LI":"正覺里","LIN":"13鄰","STREET":"北安路","SECT":"一段","MAREA":" ","LANE":"６８巷","ALLEY":" ","HOUSE_NO":"２號","E_COORD97":169179.97,"N_COORD97":2546295.8199999998,"ADDRESS":"北安路一段６８巷２號","OBJECTID":237567},"geometry":{"x":169179.97000000067,"y":2546295.8200000003}},{"attributes":{"ID":237572,"DIS_CODE":0,"TOWNNAME":"北區","LI":"正覺里","LIN":"13鄰","STREET":"北安路","SECT":"一段","MAREA":" ","LANE":"６８巷","ALLEY":" ","HOUSE_NO":"３１號","E_COORD97":169203.41,"N_COORD97":2546352.25,"ADDRESS":"北安路一段６８巷３１號","OBJECTID":237568},"geometry":{"x":169203.41000000015,"y":2546352.2500000019}},{"attributes":{"ID":237573,"DIS_CODE":0,"TOWNNAME":"北區","LI":"正覺里","LIN":"13鄰","STREET":"北安路","SECT":"一段","MAREA":" ","LANE":"６８巷","ALLEY":" ","HOUSE_NO":"３３號","E_COORD97":169205.82999999999,"N_COORD97":2546370.79,"ADDRESS":"北安路一段６８巷３３號","OBJECTID":237569},"geometry":{"x":169205.83000000007,"y":2546370.7900000028}},{"attributes":{"ID":237574,"DIS_CODE":0,"TOWNNAME":"中西區","LI":"建國里","LIN":"14鄰","STREET":"民生路","SECT":"一段","MAREA":" ","LANE":" ","ALLEY":" ","HOUSE_NO":"１６８號","E_COORD97":167994.59,"N_COORD97":2543878.5800000001,"ADDRESS":"民生路一段１６８號","OBJECTID":237570},"geometry":{"x":167994.59000000078,"y":2543878.5800000019}},{"attributes":{"ID":237575,"DIS_CODE":0,"TOWNNAME":"中西區","LI":"萬昌里","LIN":"14鄰","STREET":"民權路","SECT":"一段","MAREA":" ","LANE":" ","ALLEY":" ","HOUSE_NO":"１００號","E_COORD97":168967.04000000001,"N_COORD97":2543430.8199999998,"ADDRESS":"民權路一段１００號","OBJECTID":237571},"geometry":{"x":168967.04000000004,"y":2543430.8200000003}},{"attributes":{"ID":237576,"DIS_CODE":0,"TOWNNAME":"中西區","LI":"萬昌里","LIN":"14鄰","STREET":"民權路","SECT":"一段","MAREA":" ","LANE":" ","ALLEY":" ","HOUSE_NO":"１０２號","E_COORD97":168964.13,"N_COORD97":2543432.04,"ADDRESS":"民權路一段１０２號","OBJECTID":237572},"geometry":{"x":168964.12999999989,"y":2543432.0399999991}},{"attributes":{"ID":237577,"DIS_CODE":0,"TOWNNAME":"永康區","LI":"中華里","LIN":"16鄰","STREET":"小東路","SECT":" ","MAREA":" ","LANE":"４７７巷","ALLEY":" ","HOUSE_NO":"２２號","E_COORD97":171621.63,"N_COORD97":2544407,"ADDRESS":"小東路４７７巷２２號","OBJECTID":237573},"geometry":{"x":171621.63000000082,"y":2544407}},{"attributes":{"ID":237578,"DIS_CODE":0,"TOWNNAME":"永康區","LI":"中華里","LIN":"16鄰","STREET":"小東路","SECT":" ","MAREA":" ","LANE":"４７７巷","ALLEY":" ","HOUSE_NO":"１４號","E_COORD97":171619.85999999999,"N_COORD97":2544390.1699999999,"ADDRESS":"小東路４７７巷１４號","OBJECTID":237574},"geometry":{"x":171619.86000000034,"y":2544390.1700000018}},{"attributes":{"ID":237579,"DIS_CODE":0,"TOWNNAME":"永康區","LI":"中華里","LIN":"16鄰","STREET":"小東路","SECT":" ","MAREA":" ","LANE":"４７７巷","ALLEY":" ","HOUSE_NO":"１８號","E_COORD97":171620.89999999999,"N_COORD97":2544399.52,"ADDRESS":"小東路４７７巷１８號","OBJECTID":237575},"geometry":{"x":171620.90000000037,"y":2544399.5199999996}},{"attributes":{"ID":237580,"DIS_CODE":0,"TOWNNAME":"永康區","LI":"中華里","LIN":"16鄰","STREET":"小東路","SECT":" ","MAREA":" ","LANE":"４７７巷","ALLEY":" ","HOUSE_NO":"２４號","E_COORD97":171622.25,"N_COORD97":2544411.25,"ADDRESS":"小東路４７７巷２４號","OBJECTID":237576},"geometry":{"x":171622.24999999907,"y":2544411.25}},{"attributes":{"ID":237581,"DIS_CODE":0,"TOWNNAME":"永康區","LI":"中華里","LIN":"16鄰","STREET":"小東路","SECT":" ","MAREA":" ","LANE":"４７７巷","ALLEY":" ","HOUSE_NO":"２０號","E_COORD97":171621.32000000001,"N_COORD97":2544403.3599999999,"ADDRESS":"小東路４７７巷２０號","OBJECTID":237577},"geometry":{"x":171621.32000000123,"y":2544403.3599999994}},{"attributes":{"ID":237582,"DIS_CODE":0,"TOWNNAME":"永康區","LI":"大橋里","LIN":"16鄰","STREET":"大橋一街","SECT":" ","MAREA":" ","LANE":"１３９巷","ALLEY":" ","HOUSE_NO":"３３號","E_COORD97":170971.85999999999,"N_COORD97":2546613,"ADDRESS":"大橋一街１３９巷３３號","OBJECTID":237578},"geometry":{"x":170971.86000000034,"y":2546613}},{"attributes":{"ID":237583,"DIS_CODE":0,"TOWNNAME":"永康區","LI":"大橋里","LIN":"16鄰","STREET":"大橋一街","SECT":" ","MAREA":" ","LANE":"１３９巷","ALLEY":" ","HOUSE_NO":"３７號","E_COORD97":170961.92000000001,"N_COORD97":2546606.2400000002,"ADDRESS":"大橋一街１３９巷３７號","OBJECTID":237579},"geometry":{"x":170961.92000000086,"y":2546606.2400000039}},{"attributes":{"ID":237584,"DIS_CODE":0,"TOWNNAME":"中西區","LI":"西湖里","LIN":"16鄰","STREET":"湖美一街","SECT":" ","MAREA":" ","LANE":"１０８巷","ALLEY":" ","HOUSE_NO":"１０號","E_COORD97":166085.92999999999,"N_COORD97":2544845.0499999998,"ADDRESS":"湖美一街１０８巷１０號","OBJECTID":237580},"geometry":{"x":166085.92999999877,"y":2544845.0500000045}},{"attributes":{"ID":237585,"DIS_CODE":0,"TOWNNAME":"中西區","LI":"西湖里","LIN":"16鄰","STREET":"湖美一街","SECT":" ","MAREA":" ","LANE":"１０８巷","ALLEY":" ","HOUSE_NO":"１１號","E_COORD97":166089.34,"N_COORD97":2544866.4300000002,"ADDRESS":"湖美一街１０８巷１１號","OBJECTID":237581},"geometry":{"x":166089.33999999985,"y":2544866.4300000016}},{"attributes":{"ID":237586,"DIS_CODE":0,"TOWNNAME":"中西區","LI":"西湖里","LIN":"16鄰","STREET":"湖美一街","SECT":" ","MAREA":" ","LANE":"１０８巷","ALLEY":" ","HOUSE_NO":"１２號","E_COORD97":166090.31,"N_COORD97":2544845.5299999998,"ADDRESS":"湖美一街１０８巷１２號","OBJECTID":237582},"geometry":{"x":166090.31000000052,"y":2544845.5299999993}},{"attributes":{"ID":237587,"DIS_CODE":0,"TOWNNAME":"中西區","LI":"西湖里","LIN":"16鄰","STREET":"湖美一街","SECT":" ","MAREA":" ","LANE":"１０８巷","ALLEY":" ","HOUSE_NO":"１號","E_COORD97":166066.70999999999,"N_COORD97":2544866.6800000002,"ADDRESS":"湖美一街１０８巷１號","OBJECTID":237583},"geometry":{"x":166066.70999999996,"y":2544866.6799999978}},{"attributes":{"ID":237588,"DIS_CODE":0,"TOWNNAME":"中西區","LI":"西湖里","LIN":"16鄰","STREET":"湖美一街","SECT":" ","MAREA":" ","LANE":"１０８巷","ALLEY":" ","HOUSE_NO":"２號","E_COORD97":166067.44,"N_COORD97":2544844.7999999998,"ADDRESS":"湖美一街１０８巷２號","OBJECTID":237584},"geometry":{"x":166067.44000000041,"y":2544844.8000000026}},{"attributes":{"ID":237589,"DIS_CODE":0,"TOWNNAME":"中西區","LI":"西湖里","LIN":"16鄰","STREET":"湖美一街","SECT":" ","MAREA":" ","LANE":"１０８巷","ALLEY":" ","HOUSE_NO":"３號","E_COORD97":166071.57000000001,"N_COORD97":2544866.6800000002,"ADDRESS":"湖美一街１０８巷３號","OBJECTID":237585},"geometry":{"x":166071.5700000003,"y":2544866.6799999978}},{"attributes":{"ID":237590,"DIS_CODE":0,"TOWNNAME":"中西區","LI":"萬昌里","LIN":"14鄰","STREET":"民權路","SECT":"一段","MAREA":" ","LANE":" ","ALLEY":" ","HOUSE_NO":"１１６號","E_COORD97":168933.76000000001,"N_COORD97":2543455.04,"ADDRESS":"民權路一段１１６號","OBJECTID":237586},"geometry":{"x":168933.76000000071,"y":2543455.040000001}},{"attributes":{"ID":237591,"DIS_CODE":0,"TOWNNAME":"中西區","LI":"萬昌里","LIN":"14鄰","STREET":"民權路","SECT":"一段","MAREA":" ","LANE":" ","ALLEY":" ","HOUSE_NO":"１１６號之１","E_COORD97":168931.34,"N_COORD97":2543458.1499999999,"ADDRESS":"民權路一段１１６號之１","OBJECTID":237587},"geometry":{"x":168931.34000000171,"y":2543458.1500000022}},{"attributes":{"ID":237592,"DIS_CODE":0,"TOWNNAME":"中西區","LI":"萬昌里","LIN":"14鄰","STREET":"民權路","SECT":"一段","MAREA":" ","LANE":" ","ALLEY":" ","HOUSE_NO":"１１６號之２","E_COORD97":168924.82999999999,"N_COORD97":2543462.6400000001,"ADDRESS":"民權路一段１１６號之２","OBJECTID":237588},"geometry":{"x":168924.83000000194,"y":2543462.6400000025}},{"attributes":{"ID":237593,"DIS_CODE":0,"TOWNNAME":"中西區","LI":"萬昌里","LIN":"14鄰","STREET":"民權路","SECT":"一段","MAREA":" ","LANE":" ","ALLEY":" ","HOUSE_NO":"９２號","E_COORD97":168978.76000000001,"N_COORD97":2543421.4900000002,"ADDRESS":"民權路一段９２號","OBJECTID":237589},"geometry":{"x":168978.75999999978,"y":2543421.4900000021}},{"attributes":{"ID":237594,"DIS_CODE":0,"TOWNNAME":"中西區","LI":"萬昌里","LIN":"14鄰","STREET":"民權路","SECT":"一段","MAREA":" ","LANE":" ","ALLEY":" ","HOUSE_NO":"９４號","E_COORD97":168976.12,"N_COORD97":2543423.7400000002,"ADDRESS":"民權路一段９４號","OBJECTID":237590},"geometry":{"x":168976.12000000104,"y":2543423.7400000021}},{"attributes":{"ID":237595,"DIS_CODE":0,"TOWNNAME":"中西區","LI":"萬昌里","LIN":"14鄰","STREET":"民權路","SECT":"一段","MAREA":" ","LANE":" ","ALLEY":" ","HOUSE_NO":"９６號","E_COORD97":168973.10000000001,"N_COORD97":2543425.8799999999,"ADDRESS":"民權路一段９６號","OBJECTID":237591},"geometry":{"x":168973.09999999963,"y":2543425.879999999}},{"attributes":{"ID":237596,"DIS_CODE":0,"TOWNNAME":"中西區","LI":"萬昌里","LIN":"14鄰","STREET":"民權路","SECT":"一段","MAREA":" ","LANE":" ","ALLEY":" ","HOUSE_NO":"９８號","E_COORD97":168969.95000000001,"N_COORD97":2543427.9100000001,"ADDRESS":"民權路一段９８號","OBJECTID":237592},"geometry":{"x":168969.95000000205,"y":2543427.9100000001}},{"attributes":{"ID":237597,"DIS_CODE":0,"TOWNNAME":"永康區","LI":"埔園里","LIN":"14鄰","STREET":"中山路","SECT":" ","MAREA":" ","LANE":" ","ALLEY":" ","HOUSE_NO":"３１３號","E_COORD97":173606.17999999999,"N_COORD97":2548340.52,"ADDRESS":"中山路３１３號","OBJECTID":237593},"geometry":{"x":173606.18000000063,"y":2548340.5200000014}},{"attributes":{"ID":237598,"DIS_CODE":0,"TOWNNAME":"歸仁區","LI":"後市里","LIN":"25鄰","STREET":"民族北街","SECT":" ","MAREA":" ","LANE":" ","ALLEY":" ","HOUSE_NO":"５０號","E_COORD97":177452.67999999999,"N_COORD97":2540979.25,"ADDRESS":"民族北街５０號","OBJECTID":237594},"geometry":{"x":177452.68000000063,"y":2540979.2500000019}},{"attributes":{"ID":237599,"DIS_CODE":0,"TOWNNAME":"中西區","LI":"福安里","LIN":"14鄰","STREET":"永福路","SECT":"二段","MAREA":" ","LANE":" ","ALLEY":" ","HOUSE_NO":"２３號","E_COORD97":168020.94,"N_COORD97":2543476.96,"ADDRESS":"永福路二段２３號","OBJECTID":237595},"geometry":{"x":168020.94000000227,"y":2543476.9600000028}},{"attributes":{"ID":237600,"DIS_CODE":0,"TOWNNAME":"中西區","LI":"福安里","LIN":"14鄰","STREET":"永福路","SECT":"二段","MAREA":" ","LANE":" ","ALLEY":" ","HOUSE_NO":"２５號","E_COORD97":168021.29999999999,"N_COORD97":2543482.1499999999,"ADDRESS":"永福路二段２５號","OBJECTID":237596},"geometry":{"x":168021.30000000168,"y":2543482.1500000022}},{"attributes":{"ID":237601,"DIS_CODE":0,"TOWNNAME":"中西區","LI":"福安里","LIN":"14鄰","STREET":"永福路","SECT":"二段","MAREA":" ","LANE":" ","ALLEY":" ","HOUSE_NO":"２７號","E_COORD97":168023.35000000001,"N_COORD97":2543491.73,"ADDRESS":"永福路二段２７號","OBJECTID":237597},"geometry":{"x":168023.34999999963,"y":2543491.7300000023}},{"attributes":{"ID":237602,"DIS_CODE":0,"TOWNNAME":"中西區","LI":"福安里","LIN":"14鄰","STREET":"永福路","SECT":"二段","MAREA":" ","LANE":" ","ALLEY":" ","HOUSE_NO":"２９號","E_COORD97":168023.87,"N_COORD97":2543498,"ADDRESS":"永福路二段２９號","OBJECTID":237598},"geometry":{"x":168023.87000000011,"y":2543498}},{"attributes":{"ID":237603,"DIS_CODE":0,"TOWNNAME":"中西區","LI":"福安里","LIN":"14鄰","STREET":"永福路","SECT":"二段","MAREA":" ","LANE":" ","ALLEY":" ","HOUSE_NO":"３１號","E_COORD97":168024.38,"N_COORD97":2543502.8599999999,"ADDRESS":"永福路二段３１號","OBJECTID":237599},"geometry":{"x":168024.38000000082,"y":2543502.8600000013}},{"attributes":{"ID":237604,"DIS_CODE":0,"TOWNNAME":"永康區","LI":"埔園里","LIN":"14鄰","STREET":"中山路","SECT":" ","MAREA":" ","LANE":" ","ALLEY":" ","HOUSE_NO":"３１７號","E_COORD97":173603.76999999999,"N_COORD97":2548349.52,"ADDRESS":"中山路３１７號","OBJECTID":237600},"geometry":{"x":173603.77000000048,"y":2548349.5199999977}}]}