{"displayFieldName":"TOWNNAME","fieldAliases":{"ID":"ID","DIS_CODE":"DIS_CODE","TOWNNAME":"TOWNNAME","LI":"LI","LIN":"LIN","STREET":"STREET","SECT":"SECT","MAREA":"MAREA","LANE":"LANE","ALLEY":"ALLEY","HOUSE_NO":"HOUSE_NO","E_COORD97":"E_COORD97","N_COORD97":"N_COORD97","ADDRESS":"ADDRESS","OBJECTID":"OBJECTID"},"geometryType":"esriGeometryPoint","spatialReference":{"wkid":102443,"latestWkid":3826},"fields":[{"name":"ID","type":"esriFieldTypeDouble","alias":"ID"},{"name":"DIS_CODE","type":"esriFieldTypeInteger","alias":"DIS_CODE"},{"name":"TOWNNAME","type":"esriFieldTypeString","alias":"TOWNNAME","length":8},{"name":"LI","type":"esriFieldTypeString","alias":"LI","length":8},{"name":"LIN","type":"esriFieldTypeString","alias":"LIN","length":12},{"name":"STREET","type":"esriFieldTypeString","alias":"STREET","length":20},{"name":"SECT","type":"esriFieldTypeString","alias":"SECT","length":8},{"name":"MAREA","type":"esriFieldTypeString","alias":"MAREA","length":12},{"name":"LANE","type":"esriFieldTypeString","alias":"LANE","length":10},{"name":"ALLEY","type":"esriFieldTypeString","alias":"ALLEY","length":10},{"name":"HOUSE_NO","type":"esriFieldTypeString","alias":"HOUSE_NO","length":20},{"name":"E_COORD97","type":"esriFieldTypeDouble","alias":"E_COORD97"},{"name":"N_COORD97","type":"esriFieldTypeDouble","alias":"N_COORD97"},{"name":"ADDRESS","type":"esriFieldTypeString","alias":"ADDRESS","length":50},{"name":"OBJECTID","type":"esriFieldTypeOID","alias":"OBJECTID"}],"features":[{"attributes":{"ID":35201,"DIS_CODE":0,"TOWNNAME":"佳里區","LI":"興化里","LIN":"14鄰","STREET":" ","SECT":" ","MAREA":"佳里興","LANE":" ","ALLEY":" ","HOUSE_NO":"５４８號","E_COORD97":166609.72,"N_COORD97":2565346.3999999999,"ADDRESS":"佳里興５４８號","OBJECTID":35201},"geometry":{"x":166609.72000000067,"y":2565346.4000000004}},{"attributes":{"ID":35202,"DIS_CODE":0,"TOWNNAME":"佳里區","LI":"忠仁里","LIN":"14鄰","STREET":"佳東路","SECT":" ","MAREA":" ","LANE":" ","ALLEY":" ","HOUSE_NO":"２３９號","E_COORD97":166376.75,"N_COORD97":2561997.1600000001,"ADDRESS":"佳東路２３９號","OBJECTID":35202},"geometry":{"x":166376.75,"y":2561997.160000002}},{"attributes":{"ID":35203,"DIS_CODE":0,"TOWNNAME":"佳里區","LI":"忠仁里","LIN":"14鄰","STREET":"佳東路","SECT":" ","MAREA":" ","LANE":" ","ALLEY":" ","HOUSE_NO":"２４１號","E_COORD97":166376.19,"N_COORD97":2562001.9100000001,"ADDRESS":"佳東路２４１號","OBJECTID":35203},"geometry":{"x":166376.19000000041,"y":2562001.910000002}},{"attributes":{"ID":35204,"DIS_CODE":0,"TOWNNAME":"北區","LI":"新勝里","LIN":"8鄰","STREET":"開元路","SECT":" ","MAREA":" ","LANE":"３３３巷","ALLEY":"１６弄","HOUSE_NO":"２５號","E_COORD97":170171.79000000001,"N_COORD97":2545557.04,"ADDRESS":"開元路３３３巷１６弄２５號","OBJECTID":35204},"geometry":{"x":170171.79000000097,"y":2545557.040000001}},{"attributes":{"ID":35205,"DIS_CODE":0,"TOWNNAME":"北區","LI":"新勝里","LIN":"8鄰","STREET":"開元路","SECT":" ","MAREA":" ","LANE":"３３３巷","ALLEY":"１６弄","HOUSE_NO":"２６號","E_COORD97":170194.10999999999,"N_COORD97":2545560.6899999999,"ADDRESS":"開元路３３３巷１６弄２６號","OBJECTID":35205},"geometry":{"x":170194.11000000034,"y":2545560.6899999995}},{"attributes":{"ID":35206,"DIS_CODE":0,"TOWNNAME":"北區","LI":"新勝里","LIN":"8鄰","STREET":"開元路","SECT":" ","MAREA":" ","LANE":"３３３巷","ALLEY":"１６弄","HOUSE_NO":"２７號","E_COORD97":170162.31,"N_COORD97":2545556.25,"ADDRESS":"開元路３３３巷１６弄２７號","OBJECTID":35206},"geometry":{"x":170162.31000000052,"y":2545556.2500000019}},{"attributes":{"ID":35207,"DIS_CODE":0,"TOWNNAME":"北區","LI":"新勝里","LIN":"8鄰","STREET":"開元路","SECT":" ","MAREA":" ","LANE":"３３３巷","ALLEY":"１６弄","HOUSE_NO":"２８號","E_COORD97":170192.14000000001,"N_COORD97":2545571.8900000001,"ADDRESS":"開元路３３３巷１６弄２８號","OBJECTID":35207},"geometry":{"x":170192.1400000006,"y":2545571.8900000043}},{"attributes":{"ID":35208,"DIS_CODE":0,"TOWNNAME":"北區","LI":"新勝里","LIN":"8鄰","STREET":"開元路","SECT":" ","MAREA":" ","LANE":"３３３巷","ALLEY":"１６弄","HOUSE_NO":"２９號","E_COORD97":170156.78,"N_COORD97":2545553.7999999998,"ADDRESS":"開元路３３３巷１６弄２９號","OBJECTID":35208},"geometry":{"x":170156.78000000119,"y":2545553.8000000007}},{"attributes":{"ID":35209,"DIS_CODE":0,"TOWNNAME":"北區","LI":"新勝里","LIN":"8鄰","STREET":"開元路","SECT":" ","MAREA":" ","LANE":"３３３巷","ALLEY":"１６弄","HOUSE_NO":"２號","E_COORD97":170159.17000000001,"N_COORD97":2545506.6200000001,"ADDRESS":"開元路３３３巷１６弄２號","OBJECTID":35209},"geometry":{"x":170159.16999999993,"y":2545506.6200000029}},{"attributes":{"ID":35210,"DIS_CODE":0,"TOWNNAME":"北區","LI":"新勝里","LIN":"8鄰","STREET":"開元路","SECT":" ","MAREA":" ","LANE":"３３３巷","ALLEY":"１６弄","HOUSE_NO":"３０號","E_COORD97":170191.10999999999,"N_COORD97":2545578.0499999998,"ADDRESS":"開元路３３３巷１６弄３０號","OBJECTID":35210},"geometry":{"x":170191.1099999994,"y":2545578.0500000026}},{"attributes":{"ID":35211,"DIS_CODE":0,"TOWNNAME":"北區","LI":"新勝里","LIN":"8鄰","STREET":"開元路","SECT":" ","MAREA":" ","LANE":"３３３巷","ALLEY":"１６弄","HOUSE_NO":"３１號","E_COORD97":170151.17000000001,"N_COORD97":2545554.5899999999,"ADDRESS":"開元路３３３巷１６弄３１號","OBJECTID":35211},"geometry":{"x":170151.16999999993,"y":2545554.5899999999}},{"attributes":{"ID":35212,"DIS_CODE":0,"TOWNNAME":"後壁區","LI":"菁豊里","LIN":"7鄰","STREET":" ","SECT":" ","MAREA":"前菁寮","LANE":" ","ALLEY":" ","HOUSE_NO":"７０號之６","E_COORD97":183271.87,"N_COORD97":2586375.3500000001,"ADDRESS":"前菁寮７０號之６","OBJECTID":35212},"geometry":{"x":183271.87000000011,"y":2586375.3500000015}},{"attributes":{"ID":35213,"DIS_CODE":0,"TOWNNAME":"後壁區","LI":"菁豊里","LIN":"7鄰","STREET":" ","SECT":" ","MAREA":"前菁寮","LANE":" ","ALLEY":" ","HOUSE_NO":"７０號之７","E_COORD97":183275.59,"N_COORD97":2586375.0699999998,"ADDRESS":"前菁寮７０號之７","OBJECTID":35213},"geometry":{"x":183275.58999999985,"y":2586375.0700000003}},{"attributes":{"ID":35214,"DIS_CODE":0,"TOWNNAME":"後壁區","LI":"菁豊里","LIN":"7鄰","STREET":" ","SECT":" ","MAREA":"前菁寮","LANE":" ","ALLEY":" ","HOUSE_NO":"７０號之８","E_COORD97":183279.97,"N_COORD97":2586374.8500000001,"ADDRESS":"前菁寮７０號之８","OBJECTID":35214},"geometry":{"x":183279.96999999881,"y":2586374.8500000015}},{"attributes":{"ID":35215,"DIS_CODE":0,"TOWNNAME":"北區","LI":"新勝里","LIN":"8鄰","STREET":"開元路","SECT":" ","MAREA":" ","LANE":"３３３巷","ALLEY":"１６弄","HOUSE_NO":"３２號","E_COORD97":170190.48000000001,"N_COORD97":2545584.6299999999,"ADDRESS":"開元路３３３巷１６弄３２號","OBJECTID":35215},"geometry":{"x":170190.48000000231,"y":2545584.629999999}},{"attributes":{"ID":35216,"DIS_CODE":0,"TOWNNAME":"北區","LI":"新勝里","LIN":"8鄰","STREET":"開元路","SECT":" ","MAREA":" ","LANE":"３３３巷","ALLEY":"１６弄","HOUSE_NO":"３３號","E_COORD97":170146.04000000001,"N_COORD97":2545552.9300000002,"ADDRESS":"開元路３３３巷１６弄３３號","OBJECTID":35216},"geometry":{"x":170146.04000000097,"y":2545552.9299999997}},{"attributes":{"ID":35217,"DIS_CODE":0,"TOWNNAME":"北區","LI":"新勝里","LIN":"8鄰","STREET":"開元路","SECT":" ","MAREA":" ","LANE":"３３３巷","ALLEY":"１６弄","HOUSE_NO":"３４號","E_COORD97":170188.5,"N_COORD97":2545590.4300000002,"ADDRESS":"開元路３３３巷１６弄３４號","OBJECTID":35217},"geometry":{"x":170188.50000000093,"y":2545590.4299999997}},{"attributes":{"ID":35218,"DIS_CODE":0,"TOWNNAME":"北區","LI":"新勝里","LIN":"8鄰","STREET":"開元路","SECT":" ","MAREA":" ","LANE":"３３３巷","ALLEY":"１６弄","HOUSE_NO":"３５號","E_COORD97":170144.06,"N_COORD97":2545564.2200000002,"ADDRESS":"開元路３３３巷１６弄３５號","OBJECTID":35218},"geometry":{"x":170144.06000000052,"y":2545564.2200000025}},{"attributes":{"ID":35219,"DIS_CODE":0,"TOWNNAME":"後壁區","LI":"菁豊里","LIN":"7鄰","STREET":" ","SECT":" ","MAREA":"前菁寮","LANE":" ","ALLEY":" ","HOUSE_NO":"７０號之９","E_COORD97":183284.45000000001,"N_COORD97":2586374.6299999999,"ADDRESS":"前菁寮７０號之９","OBJECTID":35219},"geometry":{"x":183284.45000000112,"y":2586374.6299999971}},{"attributes":{"ID":35220,"DIS_CODE":0,"TOWNNAME":"後壁區","LI":"菁豊里","LIN":"7鄰","STREET":" ","SECT":" ","MAREA":"前菁寮","LANE":" ","ALLEY":" ","HOUSE_NO":"７０號","E_COORD97":183240.01000000001,"N_COORD97":2586340.1600000001,"ADDRESS":"前菁寮７０號","OBJECTID":35220},"geometry":{"x":183240.00999999978,"y":2586340.160000002}},{"attributes":{"ID":35221,"DIS_CODE":0,"TOWNNAME":"後壁區","LI":"菁豊里","LIN":"7鄰","STREET":" ","SECT":" ","MAREA":"前菁寮","LANE":" ","ALLEY":" ","HOUSE_NO":"７１號之１","E_COORD97":183267.48999999999,"N_COORD97":2586353.8100000001,"ADDRESS":"前菁寮７１號之１","OBJECTID":35221},"geometry":{"x":183267.49000000115,"y":2586353.8100000005}},{"attributes":{"ID":35222,"DIS_CODE":0,"TOWNNAME":"後壁區","LI":"菁豊里","LIN":"7鄰","STREET":" ","SECT":" ","MAREA":"前菁寮","LANE":" ","ALLEY":" ","HOUSE_NO":"７１號之２","E_COORD97":183284.85000000001,"N_COORD97":2586352.3999999999,"ADDRESS":"前菁寮７１號之２","OBJECTID":35222},"geometry":{"x":183284.85000000056,"y":2586352.4000000022}},{"attributes":{"ID":35223,"DIS_CODE":0,"TOWNNAME":"後壁區","LI":"菁豊里","LIN":"7鄰","STREET":" ","SECT":" ","MAREA":"前菁寮","LANE":" ","ALLEY":" ","HOUSE_NO":"７１號","E_COORD97":183255.09,"N_COORD97":2586356.1899999999,"ADDRESS":"前菁寮７１號","OBJECTID":35223},"geometry":{"x":183255.08999999985,"y":2586356.1900000013}},{"attributes":{"ID":35224,"DIS_CODE":0,"TOWNNAME":"後壁區","LI":"菁豊里","LIN":"7鄰","STREET":" ","SECT":" ","MAREA":"前菁寮","LANE":" ","ALLEY":" ","HOUSE_NO":"７２號","E_COORD97":183285.60000000001,"N_COORD97":2586342.9500000002,"ADDRESS":"前菁寮７２號","OBJECTID":35224},"geometry":{"x":183285.59999999963,"y":2586342.9500000011}},{"attributes":{"ID":35225,"DIS_CODE":0,"TOWNNAME":"後壁區","LI":"菁豊里","LIN":"7鄰","STREET":" ","SECT":" ","MAREA":"前菁寮","LANE":" ","ALLEY":" ","HOUSE_NO":"７３號之１","E_COORD97":183274.95999999999,"N_COORD97":2586333.7999999998,"ADDRESS":"前菁寮７３號之１","OBJECTID":35225},"geometry":{"x":183274.95999999996,"y":2586333.8000000007}},{"attributes":{"ID":35226,"DIS_CODE":0,"TOWNNAME":"後壁區","LI":"菁豊里","LIN":"7鄰","STREET":" ","SECT":" ","MAREA":"前菁寮","LANE":" ","ALLEY":" ","HOUSE_NO":"７５號之１","E_COORD97":183213.69,"N_COORD97":2586284.8100000001,"ADDRESS":"前菁寮７５號之１","OBJECTID":35226},"geometry":{"x":183213.69000000134,"y":2586284.8100000024}},{"attributes":{"ID":35227,"DIS_CODE":0,"TOWNNAME":"後壁區","LI":"菁豊里","LIN":"7鄰","STREET":" ","SECT":" ","MAREA":"前菁寮","LANE":" ","ALLEY":" ","HOUSE_NO":"７５號之３","E_COORD97":183203.64999999999,"N_COORD97":2586245.4500000002,"ADDRESS":"前菁寮７５號之３","OBJECTID":35227},"geometry":{"x":183203.6500000013,"y":2586245.4500000011}},{"attributes":{"ID":35228,"DIS_CODE":0,"TOWNNAME":"後壁區","LI":"菁豊里","LIN":"7鄰","STREET":" ","SECT":" ","MAREA":"前菁寮","LANE":" ","ALLEY":" ","HOUSE_NO":"７５號之４","E_COORD97":183198.98999999999,"N_COORD97":2586246.8999999999,"ADDRESS":"前菁寮７５號之４","OBJECTID":35228},"geometry":{"x":183198.98999999929,"y":2586246.9000000022}},{"attributes":{"ID":35229,"DIS_CODE":0,"TOWNNAME":"後壁區","LI":"菁豊里","LIN":"7鄰","STREET":" ","SECT":" ","MAREA":"前菁寮","LANE":" ","ALLEY":" ","HOUSE_NO":"７５號","E_COORD97":183211.63,"N_COORD97":2586266.98,"ADDRESS":"前菁寮７５號","OBJECTID":35229},"geometry":{"x":183211.63000000082,"y":2586266.9800000023}},{"attributes":{"ID":35230,"DIS_CODE":0,"TOWNNAME":"後壁區","LI":"頂長里","LIN":"7鄰","STREET":" ","SECT":" ","MAREA":"長短樹","LANE":" ","ALLEY":" ","HOUSE_NO":"５８號","E_COORD97":181674.23000000001,"N_COORD97":2584972.3999999999,"ADDRESS":"長短樹５８號","OBJECTID":35230},"geometry":{"x":181674.23000000138,"y":2584972.4000000022}},{"attributes":{"ID":35231,"DIS_CODE":0,"TOWNNAME":"後壁區","LI":"頂長里","LIN":"7鄰","STREET":" ","SECT":" ","MAREA":"長短樹","LANE":" ","ALLEY":" ","HOUSE_NO":"５９號之７","E_COORD97":181655.85999999999,"N_COORD97":2585006.1400000001,"ADDRESS":"長短樹５９號之７","OBJECTID":35231},"geometry":{"x":181655.8600000022,"y":2585006.1400000006}},{"attributes":{"ID":35232,"DIS_CODE":0,"TOWNNAME":"後壁區","LI":"頂長里","LIN":"7鄰","STREET":" ","SECT":" ","MAREA":"長短樹","LANE":" ","ALLEY":" ","HOUSE_NO":"８８號","E_COORD97":181472.45999999999,"N_COORD97":2584508.8700000001,"ADDRESS":"長短樹８８號","OBJECTID":35232},"geometry":{"x":181472.45999999996,"y":2584508.8700000029}},{"attributes":{"ID":35233,"DIS_CODE":0,"TOWNNAME":"後壁區","LI":"頂長里","LIN":"7鄰","STREET":" ","SECT":" ","MAREA":"長短樹","LANE":" ","ALLEY":" ","HOUSE_NO":"９７號","E_COORD97":181478.67000000001,"N_COORD97":2584367.1800000002,"ADDRESS":"長短樹９７號","OBJECTID":35233},"geometry":{"x":181478.67000000179,"y":2584367.1799999997}},{"attributes":{"ID":35234,"DIS_CODE":0,"TOWNNAME":"後壁區","LI":"頂長里","LIN":"7鄰","STREET":" ","SECT":" ","MAREA":"長短樹","LANE":" ","ALLEY":" ","HOUSE_NO":"９８號","E_COORD97":181461.67000000001,"N_COORD97":2584330.8799999999,"ADDRESS":"長短樹９８號","OBJECTID":35234},"geometry":{"x":181461.67000000179,"y":2584330.879999999}},{"attributes":{"ID":35235,"DIS_CODE":0,"TOWNNAME":"後壁區","LI":"菁豊里","LIN":"7鄰","STREET":" ","SECT":" ","MAREA":"前菁寮","LANE":" ","ALLEY":" ","HOUSE_NO":"６４號","E_COORD97":183229.17000000001,"N_COORD97":2586434.2999999998,"ADDRESS":"前菁寮６４號","OBJECTID":35235},"geometry":{"x":183229.16999999993,"y":2586434.3000000026}},{"attributes":{"ID":35236,"DIS_CODE":0,"TOWNNAME":"後壁區","LI":"菁豊里","LIN":"7鄰","STREET":" ","SECT":" ","MAREA":"前菁寮","LANE":" ","ALLEY":" ","HOUSE_NO":"６５號","E_COORD97":183207.45000000001,"N_COORD97":2586411.6200000001,"ADDRESS":"前菁寮６５號","OBJECTID":35236},"geometry":{"x":183207.45000000019,"y":2586411.6200000029}},{"attributes":{"ID":35237,"DIS_CODE":0,"TOWNNAME":"北區","LI":"新勝里","LIN":"8鄰","STREET":"開元路","SECT":" ","MAREA":" ","LANE":"３３３巷","ALLEY":"１６弄","HOUSE_NO":"３６號","E_COORD97":170183.95000000001,"N_COORD97":2545601.5800000001,"ADDRESS":"開元路３３３巷１６弄３６號","OBJECTID":35237},"geometry":{"x":170183.95000000112,"y":2545601.5800000019}},{"attributes":{"ID":35238,"DIS_CODE":0,"TOWNNAME":"北區","LI":"新勝里","LIN":"8鄰","STREET":"開元路","SECT":" ","MAREA":" ","LANE":"３３３巷","ALLEY":"１６弄","HOUSE_NO":"３７號","E_COORD97":170149.35000000001,"N_COORD97":2545565.9900000002,"ADDRESS":"開元路３３３巷１６弄３７號","OBJECTID":35238},"geometry":{"x":170149.34999999963,"y":2545565.9900000002}},{"attributes":{"ID":35239,"DIS_CODE":0,"TOWNNAME":"歸仁區","LI":"看西里","LIN":"23鄰","STREET":"成功五街","SECT":" ","MAREA":" ","LANE":"８８巷","ALLEY":"９７弄","HOUSE_NO":"５號","E_COORD97":178357.32024999999,"N_COORD97":2539810.3559900001,"ADDRESS":"成功五街８８巷９７弄５號","OBJECTID":35239},"geometry":{"x":178357.32024999987,"y":2539810.3559880015}},{"attributes":{"ID":35240,"DIS_CODE":0,"TOWNNAME":"下營區","LI":"賀建里","LIN":"14鄰","STREET":" ","SECT":" ","MAREA":"洲子","LANE":" ","ALLEY":" ","HOUSE_NO":"２４號","E_COORD97":177349.85000000001,"N_COORD97":2572133.0600000001,"ADDRESS":"洲子２４號","OBJECTID":35240},"geometry":{"x":177349.85000000056,"y":2572133.0600000005}},{"attributes":{"ID":35241,"DIS_CODE":0,"TOWNNAME":"下營區","LI":"賀建里","LIN":"14鄰","STREET":" ","SECT":" ","MAREA":"洲子","LANE":" ","ALLEY":" ","HOUSE_NO":"２７號","E_COORD97":177345.10999999999,"N_COORD97":2572121.8900000001,"ADDRESS":"洲子２７號","OBJECTID":35241},"geometry":{"x":177345.11000000127,"y":2572121.8900000043}},{"attributes":{"ID":35242,"DIS_CODE":0,"TOWNNAME":"下營區","LI":"賀建里","LIN":"14鄰","STREET":" ","SECT":" ","MAREA":"洲子","LANE":" ","ALLEY":" ","HOUSE_NO":"２８號","E_COORD97":177377.32000000001,"N_COORD97":2572109.5800000001,"ADDRESS":"洲子２８號","OBJECTID":35242},"geometry":{"x":177377.32000000216,"y":2572109.5800000038}},{"attributes":{"ID":35243,"DIS_CODE":0,"TOWNNAME":"下營區","LI":"賀建里","LIN":"14鄰","STREET":" ","SECT":" ","MAREA":"洲子","LANE":" ","ALLEY":" ","HOUSE_NO":"２９號","E_COORD97":177374.82000000001,"N_COORD97":2572123.4399999999,"ADDRESS":"洲子２９號","OBJECTID":35243},"geometry":{"x":177374.8200000003,"y":2572123.4400000032}},{"attributes":{"ID":35244,"DIS_CODE":0,"TOWNNAME":"下營區","LI":"賀建里","LIN":"14鄰","STREET":" ","SECT":" ","MAREA":"洲子","LANE":" ","ALLEY":" ","HOUSE_NO":"３０號之１０","E_COORD97":177403.64000000001,"N_COORD97":2572071.5800000001,"ADDRESS":"洲子３０號之１０","OBJECTID":35244},"geometry":{"x":177403.6400000006,"y":2572071.5800000001}},{"attributes":{"ID":35245,"DIS_CODE":0,"TOWNNAME":"下營區","LI":"賀建里","LIN":"14鄰","STREET":" ","SECT":" ","MAREA":"洲子","LANE":" ","ALLEY":" ","HOUSE_NO":"３０號之１１","E_COORD97":177478.94,"N_COORD97":2571944.4900000002,"ADDRESS":"洲子３０號之１１","OBJECTID":35245},"geometry":{"x":177478.94000000134,"y":2571944.4900000039}},{"attributes":{"ID":35246,"DIS_CODE":0,"TOWNNAME":"下營區","LI":"賀建里","LIN":"14鄰","STREET":" ","SECT":" ","MAREA":"洲子","LANE":" ","ALLEY":" ","HOUSE_NO":"３０號之１","E_COORD97":177347.92000000001,"N_COORD97":2572030.7799999998,"ADDRESS":"洲子３０號之１","OBJECTID":35246},"geometry":{"x":177347.92000000086,"y":2572030.7800000012}},{"attributes":{"ID":35247,"DIS_CODE":0,"TOWNNAME":"下營區","LI":"賀建里","LIN":"14鄰","STREET":" ","SECT":" ","MAREA":"洲子","LANE":" ","ALLEY":" ","HOUSE_NO":"３０號之２","E_COORD97":177466.37,"N_COORD97":2572046.21,"ADDRESS":"洲子３０號之２","OBJECTID":35247},"geometry":{"x":177466.37000000011,"y":2572046.2100000028}},{"attributes":{"ID":35248,"DIS_CODE":0,"TOWNNAME":"下營區","LI":"賀建里","LIN":"14鄰","STREET":" ","SECT":" ","MAREA":"洲子","LANE":" ","ALLEY":" ","HOUSE_NO":"３０號之３","E_COORD97":177470.87,"N_COORD97":2572063.27,"ADDRESS":"洲子３０號之３","OBJECTID":35248},"geometry":{"x":177470.87000000104,"y":2572063.2699999996}},{"attributes":{"ID":35249,"DIS_CODE":0,"TOWNNAME":"下營區","LI":"賀建里","LIN":"14鄰","STREET":" ","SECT":" ","MAREA":"洲子","LANE":" ","ALLEY":" ","HOUSE_NO":"３０號之６","E_COORD97":177516.56,"N_COORD97":2572103.4199999999,"ADDRESS":"洲子３０號之６","OBJECTID":35249},"geometry":{"x":177516.55999999959,"y":2572103.4199999999}},{"attributes":{"ID":35250,"DIS_CODE":0,"TOWNNAME":"北區","LI":"新勝里","LIN":"8鄰","STREET":"開元路","SECT":" ","MAREA":" ","LANE":"３３３巷","ALLEY":"１６弄","HOUSE_NO":"３８號","E_COORD97":170183.48999999999,"N_COORD97":2545605.21,"ADDRESS":"開元路３３３巷１６弄３８號","OBJECTID":35250},"geometry":{"x":170183.49000000209,"y":2545605.2100000028}},{"attributes":{"ID":35251,"DIS_CODE":0,"TOWNNAME":"下營區","LI":"新興里","LIN":"14鄰","STREET":"和平街","SECT":" ","MAREA":" ","LANE":" ","ALLEY":" ","HOUSE_NO":"３號","E_COORD97":174702.01999999999,"N_COORD97":2570623.5499999998,"ADDRESS":"和平街３號","OBJECTID":35251},"geometry":{"x":174702.02000000048,"y":2570623.5500000026}},{"attributes":{"ID":35252,"DIS_CODE":0,"TOWNNAME":"下營區","LI":"賀建里","LIN":"14鄰","STREET":" ","SECT":" ","MAREA":"洲子","LANE":" ","ALLEY":" ","HOUSE_NO":"３０號之７","E_COORD97":177522.03,"N_COORD97":2572114.7799999998,"ADDRESS":"洲子３０號之７","OBJECTID":35252},"geometry":{"x":177522.03000000119,"y":2572114.7800000012}},{"attributes":{"ID":35253,"DIS_CODE":0,"TOWNNAME":"將軍區","LI":"西和里","LIN":"14鄰","STREET":" ","SECT":" ","MAREA":"西和","LANE":" ","ALLEY":" ","HOUSE_NO":"１２４之３號","E_COORD97":163166.35999999999,"N_COORD97":2566096.2599999998,"ADDRESS":"西和１２４之３號","OBJECTID":35253},"geometry":{"x":163166.3600000022,"y":2566096.2599999998}},{"attributes":{"ID":35254,"DIS_CODE":0,"TOWNNAME":"將軍區","LI":"西和里","LIN":"14鄰","STREET":" ","SECT":" ","MAREA":"西和","LANE":" ","ALLEY":" ","HOUSE_NO":"１２４之４號","E_COORD97":163161.85000000001,"N_COORD97":2566096.1099999999,"ADDRESS":"西和１２４之４號","OBJECTID":35254},"geometry":{"x":163161.84999999963,"y":2566096.1099999994}},{"attributes":{"ID":35255,"DIS_CODE":0,"TOWNNAME":"北區","LI":"新勝里","LIN":"8鄰","STREET":"開元路","SECT":" ","MAREA":" ","LANE":"３３３巷","ALLEY":"１６弄","HOUSE_NO":"３９號","E_COORD97":170154.17000000001,"N_COORD97":2545566.23,"ADDRESS":"開元路３３３巷１６弄３９號","OBJECTID":35255},"geometry":{"x":170154.16999999993,"y":2545566.2300000023}},{"attributes":{"ID":35256,"DIS_CODE":0,"TOWNNAME":"北區","LI":"新勝里","LIN":"8鄰","STREET":"開元路","SECT":" ","MAREA":" ","LANE":"３３３巷","ALLEY":"１６弄","HOUSE_NO":"３號","E_COORD97":170153.29000000001,"N_COORD97":2545522.3999999999,"ADDRESS":"開元路３３３巷１６弄３號","OBJECTID":35256},"geometry":{"x":170153.29000000004,"y":2545522.4000000004}},{"attributes":{"ID":35257,"DIS_CODE":0,"TOWNNAME":"北區","LI":"新勝里","LIN":"8鄰","STREET":"開元路","SECT":" ","MAREA":" ","LANE":"３３３巷","ALLEY":"１６弄","HOUSE_NO":"４５號","E_COORD97":170168.07999999999,"N_COORD97":2545573.5699999998,"ADDRESS":"開元路３３３巷１６弄４５號","OBJECTID":35257},"geometry":{"x":170168.08000000101,"y":2545573.570000004}},{"attributes":{"ID":35258,"DIS_CODE":0,"TOWNNAME":"將軍區","LI":"西華里","LIN":"14鄰","STREET":" ","SECT":" ","MAREA":"西華","LANE":" ","ALLEY":" ","HOUSE_NO":"１５６之２６號","E_COORD97":163493.79999999999,"N_COORD97":2566161.4199999999,"ADDRESS":"西華１５６之２６號","OBJECTID":35258},"geometry":{"x":163493.80000000075,"y":2566161.4200000018}},{"attributes":{"ID":35259,"DIS_CODE":0,"TOWNNAME":"將軍區","LI":"西華里","LIN":"14鄰","STREET":" ","SECT":" ","MAREA":"西華","LANE":" ","ALLEY":" ","HOUSE_NO":"１５６之２７號","E_COORD97":163493.17999999999,"N_COORD97":2566166.7999999998,"ADDRESS":"西華１５６之２７號","OBJECTID":35259},"geometry":{"x":163493.18000000063,"y":2566166.8000000026}},{"attributes":{"ID":35260,"DIS_CODE":0,"TOWNNAME":"將軍區","LI":"西華里","LIN":"14鄰","STREET":" ","SECT":" ","MAREA":"西華","LANE":" ","ALLEY":" ","HOUSE_NO":"１５６之２８號","E_COORD97":163492.54999999999,"N_COORD97":2566172.1699999999,"ADDRESS":"西華１５６之２８號","OBJECTID":35260},"geometry":{"x":163492.54999999981,"y":2566172.1699999981}},{"attributes":{"ID":35261,"DIS_CODE":0,"TOWNNAME":"新化區","LI":"竹林里","LIN":"4鄰","STREET":"民族街","SECT":" ","MAREA":" ","LANE":" ","ALLEY":" ","HOUSE_NO":"１３號","E_COORD97":178890.95999999999,"N_COORD97":2548477.25,"ADDRESS":"民族街１３號","OBJECTID":35261},"geometry":{"x":178890.95999999996,"y":2548477.2499999981}},{"attributes":{"ID":35262,"DIS_CODE":0,"TOWNNAME":"新化區","LI":"唪口里","LIN":" ","STREET":"大德路","SECT":" ","MAREA":" ","LANE":" ","ALLEY":" ","HOUSE_NO":"９２之４號","E_COORD97":178103.48000000001,"N_COORD97":2549493.2599999998,"ADDRESS":"大德路９２之４號","OBJECTID":35262},"geometry":{"x":178103.48000000045,"y":2549493.2599999998}},{"attributes":{"ID":35263,"DIS_CODE":0,"TOWNNAME":"新化區","LI":"豐榮里","LIN":"13鄰","STREET":"正新路","SECT":" ","MAREA":" ","LANE":" ","ALLEY":" ","HOUSE_NO":"１８號","E_COORD97":178647.26999999999,"N_COORD97":2547964.25,"ADDRESS":"正新路１８號","OBJECTID":35263},"geometry":{"x":178647.27000000048,"y":2547964.25}},{"attributes":{"ID":35264,"DIS_CODE":0,"TOWNNAME":"新化區","LI":"知義里","LIN":"14鄰","STREET":"中正路","SECT":" ","MAREA":" ","LANE":" ","ALLEY":" ","HOUSE_NO":"６１號","E_COORD97":179112.66,"N_COORD97":2547315.25,"ADDRESS":"中正路６１號","OBJECTID":35264},"geometry":{"x":179112.66000000108,"y":2547315.2500000019}},{"attributes":{"ID":35265,"DIS_CODE":0,"TOWNNAME":"北區","LI":"新勝里","LIN":"8鄰","STREET":"開元路","SECT":" ","MAREA":" ","LANE":"３３３巷","ALLEY":"１６弄","HOUSE_NO":"４７號","E_COORD97":170167.13,"N_COORD97":2545580.3799999999,"ADDRESS":"開元路３３３巷１６弄４７號","OBJECTID":35265},"geometry":{"x":170167.13000000082,"y":2545580.3800000027}},{"attributes":{"ID":35266,"DIS_CODE":0,"TOWNNAME":"北區","LI":"新勝里","LIN":"8鄰","STREET":"開元路","SECT":" ","MAREA":" ","LANE":"３３３巷","ALLEY":"１６弄","HOUSE_NO":"４９號","E_COORD97":170166.17999999999,"N_COORD97":2545585.6899999999,"ADDRESS":"開元路３３３巷１６弄４９號","OBJECTID":35266},"geometry":{"x":170166.1799999997,"y":2545585.6900000013}},{"attributes":{"ID":35267,"DIS_CODE":0,"TOWNNAME":"北區","LI":"新勝里","LIN":"8鄰","STREET":"開元路","SECT":" ","MAREA":" ","LANE":"３３３巷","ALLEY":"１６弄","HOUSE_NO":"４號","E_COORD97":170162.56,"N_COORD97":2545510.5699999998,"ADDRESS":"開元路３３３巷１６弄４號","OBJECTID":35267},"geometry":{"x":170162.56000000052,"y":2545510.5700000022}},{"attributes":{"ID":35268,"DIS_CODE":0,"TOWNNAME":"北區","LI":"新勝里","LIN":"8鄰","STREET":"開元路","SECT":" ","MAREA":" ","LANE":"３３３巷","ALLEY":"１６弄","HOUSE_NO":"５１號","E_COORD97":170157.32999999999,"N_COORD97":2545583.3999999999,"ADDRESS":"開元路３３３巷１６弄５１號","OBJECTID":35268},"geometry":{"x":170157.33000000194,"y":2545583.4000000004}},{"attributes":{"ID":35269,"DIS_CODE":0,"TOWNNAME":"北區","LI":"新勝里","LIN":"8鄰","STREET":"開元路","SECT":" ","MAREA":" ","LANE":"３３３巷","ALLEY":"１６弄","HOUSE_NO":"５３號","E_COORD97":170151.79999999999,"N_COORD97":2545582.4500000002,"ADDRESS":"開元路３３３巷１６弄５３號","OBJECTID":35269},"geometry":{"x":170151.79999999981,"y":2545582.4499999993}},{"attributes":{"ID":35270,"DIS_CODE":0,"TOWNNAME":"新化區","LI":"東榮里","LIN":"13鄰","STREET":"中興路","SECT":" ","MAREA":" ","LANE":" ","ALLEY":" ","HOUSE_NO":"５７４號","E_COORD97":179867.91,"N_COORD97":2547961.25,"ADDRESS":"中興路５７４號","OBJECTID":35270},"geometry":{"x":179867.91000000015,"y":2547961.25}},{"attributes":{"ID":35271,"DIS_CODE":0,"TOWNNAME":"將軍區","LI":"苓和里","LIN":"14鄰","STREET":" ","SECT":" ","MAREA":"忠寮","LANE":" ","ALLEY":" ","HOUSE_NO":"１２號","E_COORD97":164215.35999999999,"N_COORD97":2569183.9700000002,"ADDRESS":"忠寮１２號","OBJECTID":35271},"geometry":{"x":164215.36000000034,"y":2569183.9700000007}},{"attributes":{"ID":35272,"DIS_CODE":0,"TOWNNAME":"將軍區","LI":"苓和里","LIN":"14鄰","STREET":" ","SECT":" ","MAREA":"忠寮","LANE":" ","ALLEY":" ","HOUSE_NO":"１３號","E_COORD97":164220.48000000001,"N_COORD97":2569183.9900000002,"ADDRESS":"忠寮１３號","OBJECTID":35272},"geometry":{"x":164220.48000000138,"y":2569183.9900000002}},{"attributes":{"ID":35273,"DIS_CODE":0,"TOWNNAME":"將軍區","LI":"苓和里","LIN":"14鄰","STREET":" ","SECT":" ","MAREA":"忠寮","LANE":" ","ALLEY":" ","HOUSE_NO":"１４之１號","E_COORD97":164211.47,"N_COORD97":2569205.98,"ADDRESS":"忠寮１４之１號","OBJECTID":35273},"geometry":{"x":164211.47000000067,"y":2569205.9800000023}},{"attributes":{"ID":35274,"DIS_CODE":0,"TOWNNAME":"北區","LI":"新勝里","LIN":"8鄰","STREET":"開元路","SECT":" ","MAREA":" ","LANE":"３３３巷","ALLEY":"１６弄","HOUSE_NO":"５５號","E_COORD97":170145.72,"N_COORD97":2545581.8999999999,"ADDRESS":"開元路３３３巷１６弄５５號","OBJECTID":35274},"geometry":{"x":170145.7200000016,"y":2545581.9000000022}},{"attributes":{"ID":35275,"DIS_CODE":0,"TOWNNAME":"北區","LI":"新勝里","LIN":"8鄰","STREET":"開元路","SECT":" ","MAREA":" ","LANE":"３３３巷","ALLEY":"１６弄","HOUSE_NO":"５７號","E_COORD97":170140.81,"N_COORD97":2545581.02,"ADDRESS":"開元路３３３巷１６弄５７號","OBJECTID":35275},"geometry":{"x":170140.80999999959,"y":2545581.0200000014}},{"attributes":{"ID":35276,"DIS_CODE":0,"TOWNNAME":"安平區","LI":"西門里","LIN":"1鄰","STREET":"國勝路","SECT":" ","MAREA":" ","LANE":"３１巷","ALLEY":"２弄","HOUSE_NO":"３號","E_COORD97":163921.04999999999,"N_COORD97":2544597.0600000001,"ADDRESS":"國勝路３１巷２弄３號","OBJECTID":35276},"geometry":{"x":163921.05000000075,"y":2544597.0600000005}},{"attributes":{"ID":35277,"DIS_CODE":0,"TOWNNAME":"北區","LI":"新勝里","LIN":"8鄰","STREET":"開元路","SECT":" ","MAREA":" ","LANE":"３３３巷","ALLEY":"１６弄","HOUSE_NO":"５９號","E_COORD97":170136.78,"N_COORD97":2545592.4900000002,"ADDRESS":"開元路３３３巷１６弄５９號","OBJECTID":35277},"geometry":{"x":170136.78000000026,"y":2545592.4900000021}},{"attributes":{"ID":35278,"DIS_CODE":0,"TOWNNAME":"將軍區","LI":"苓和里","LIN":"14鄰","STREET":" ","SECT":" ","MAREA":"忠寮","LANE":" ","ALLEY":" ","HOUSE_NO":"１５號","E_COORD97":164177.01999999999,"N_COORD97":2569209.4900000002,"ADDRESS":"忠寮１５號","OBJECTID":35278},"geometry":{"x":164177.02000000048,"y":2569209.4900000021}},{"attributes":{"ID":35279,"DIS_CODE":0,"TOWNNAME":"北區","LI":"新勝里","LIN":"8鄰","STREET":"開元路","SECT":" ","MAREA":" ","LANE":"３３３巷","ALLEY":"１６弄","HOUSE_NO":"５號","E_COORD97":170155.73999999999,"N_COORD97":2545524.8500000001,"ADDRESS":"開元路３３３巷１６弄５號","OBJECTID":35279},"geometry":{"x":170155.74000000022,"y":2545524.8500000015}},{"attributes":{"ID":35280,"DIS_CODE":0,"TOWNNAME":"北區","LI":"新勝里","LIN":"8鄰","STREET":"開元路","SECT":" ","MAREA":" ","LANE":"３３３巷","ALLEY":"１６弄","HOUSE_NO":"６１號","E_COORD97":170142.85999999999,"N_COORD97":2545593.9900000002,"ADDRESS":"開元路３３３巷１６弄６１號","OBJECTID":35280},"geometry":{"x":170142.86000000127,"y":2545593.9900000002}},{"attributes":{"ID":35281,"DIS_CODE":0,"TOWNNAME":"北區","LI":"新勝里","LIN":"8鄰","STREET":"開元路","SECT":" ","MAREA":" ","LANE":"３３３巷","ALLEY":"１６弄","HOUSE_NO":"６３號","E_COORD97":170148.87,"N_COORD97":2545595.02,"ADDRESS":"開元路３３３巷１６弄６３號","OBJECTID":35281},"geometry":{"x":170148.87000000104,"y":2545595.0200000014}},{"attributes":{"ID":35282,"DIS_CODE":0,"TOWNNAME":"北區","LI":"新勝里","LIN":"8鄰","STREET":"開元路","SECT":" ","MAREA":" ","LANE":"３３３巷","ALLEY":"１６弄","HOUSE_NO":"６５號","E_COORD97":170154.56,"N_COORD97":2545595.6499999999,"ADDRESS":"開元路３３３巷１６弄６５號","OBJECTID":35282},"geometry":{"x":170154.55999999959,"y":2545595.6500000004}},{"attributes":{"ID":35283,"DIS_CODE":0,"TOWNNAME":"北區","LI":"新勝里","LIN":"8鄰","STREET":"開元路","SECT":" ","MAREA":" ","LANE":"３３３巷","ALLEY":"１６弄","HOUSE_NO":"６７號","E_COORD97":170166.60999999999,"N_COORD97":2545596.6299999999,"ADDRESS":"開元路３３３巷１６弄６７號","OBJECTID":35283},"geometry":{"x":170166.61000000127,"y":2545596.6300000008}},{"attributes":{"ID":35284,"DIS_CODE":0,"TOWNNAME":"北區","LI":"新勝里","LIN":"8鄰","STREET":"開元路","SECT":" ","MAREA":" ","LANE":"３３３巷","ALLEY":"１６弄","HOUSE_NO":"６９號","E_COORD97":170165.63,"N_COORD97":2545602.3500000001,"ADDRESS":"開元路３３３巷１６弄６９號","OBJECTID":35284},"geometry":{"x":170165.63000000082,"y":2545602.3500000015}},{"attributes":{"ID":35285,"DIS_CODE":0,"TOWNNAME":"將軍區","LI":"苓和里","LIN":"14鄰","STREET":" ","SECT":" ","MAREA":"忠寮","LANE":" ","ALLEY":" ","HOUSE_NO":"１６號","E_COORD97":164167.06,"N_COORD97":2569189.8599999999,"ADDRESS":"忠寮１６號","OBJECTID":35285},"geometry":{"x":164167.05999999959,"y":2569189.8599999994}},{"attributes":{"ID":35286,"DIS_CODE":0,"TOWNNAME":"永康區","LI":"王行里","LIN":"14鄰","STREET":"環工路","SECT":" ","MAREA":" ","LANE":" ","ALLEY":" ","HOUSE_NO":"４之１號","E_COORD97":175676.13,"N_COORD97":2550021.4100000001,"ADDRESS":"環工路４之１號","OBJECTID":35286},"geometry":{"x":175676.12999999896,"y":2550021.4100000001}},{"attributes":{"ID":35287,"DIS_CODE":0,"TOWNNAME":"永康區","LI":"埔園里","LIN":"14鄰","STREET":"中山路","SECT":" ","MAREA":" ","LANE":" ","ALLEY":" ","HOUSE_NO":"２９１號","E_COORD97":173624.31,"N_COORD97":2548281.5,"ADDRESS":"中山路２９１號","OBJECTID":35287},"geometry":{"x":173624.31000000052,"y":2548281.5}},{"attributes":{"ID":35288,"DIS_CODE":0,"TOWNNAME":"永康區","LI":"龍潭里","LIN":"14鄰","STREET":"龍埔街","SECT":" ","MAREA":" ","LANE":" ","ALLEY":" ","HOUSE_NO":"９８號","E_COORD97":174560.94,"N_COORD97":2548261.7599999998,"ADDRESS":"龍埔街９８號","OBJECTID":35288},"geometry":{"x":174560.94000000227,"y":2548261.7600000016}},{"attributes":{"ID":35289,"DIS_CODE":0,"TOWNNAME":"將軍區","LI":"仁和里","LIN":"14鄰","STREET":" ","SECT":" ","MAREA":"和巷","LANE":" ","ALLEY":" ","HOUSE_NO":"１７之１號","E_COORD97":163754.82000000001,"N_COORD97":2569428.8100000001,"ADDRESS":"和巷１７之１號","OBJECTID":35289},"geometry":{"x":163754.82000000216,"y":2569428.8100000005}},{"attributes":{"ID":35290,"DIS_CODE":0,"TOWNNAME":"將軍區","LI":"仁和里","LIN":"14鄰","STREET":" ","SECT":" ","MAREA":"和巷","LANE":" ","ALLEY":" ","HOUSE_NO":"１７號","E_COORD97":163733.29999999999,"N_COORD97":2569445.3599999999,"ADDRESS":"和巷１７號","OBJECTID":35290},"geometry":{"x":163733.29999999981,"y":2569445.3599999975}},{"attributes":{"ID":35291,"DIS_CODE":0,"TOWNNAME":"將軍區","LI":"仁和里","LIN":"14鄰","STREET":" ","SECT":" ","MAREA":"和巷","LANE":" ","ALLEY":" ","HOUSE_NO":"１９之２號","E_COORD97":163677.31,"N_COORD97":2569411.4700000002,"ADDRESS":"和巷１９之２號","OBJECTID":35291},"geometry":{"x":163677.30999999959,"y":2569411.4700000007}},{"attributes":{"ID":35292,"DIS_CODE":0,"TOWNNAME":"將軍區","LI":"仁和里","LIN":"14鄰","STREET":" ","SECT":" ","MAREA":"和巷","LANE":" ","ALLEY":" ","HOUSE_NO":"２０之１號","E_COORD97":163668.39000000001,"N_COORD97":2569411.3300000001,"ADDRESS":"和巷２０之１號","OBJECTID":35292},"geometry":{"x":163668.38999999966,"y":2569411.3300000001}},{"attributes":{"ID":35293,"DIS_CODE":0,"TOWNNAME":"將軍區","LI":"仁和里","LIN":"14鄰","STREET":" ","SECT":" ","MAREA":"和巷","LANE":" ","ALLEY":" ","HOUSE_NO":"２２號","E_COORD97":163635.22,"N_COORD97":2569450.3700000001,"ADDRESS":"和巷２２號","OBJECTID":35293},"geometry":{"x":163635.22000000067,"y":2569450.370000001}},{"attributes":{"ID":35294,"DIS_CODE":0,"TOWNNAME":"將軍區","LI":"仁和里","LIN":"14鄰","STREET":" ","SECT":" ","MAREA":"和巷","LANE":" ","ALLEY":" ","HOUSE_NO":"２３之３號","E_COORD97":163483.51999999999,"N_COORD97":2569404.25,"ADDRESS":"和巷２３之３號","OBJECTID":35294},"geometry":{"x":163483.52000000048,"y":2569404.2500000019}},{"attributes":{"ID":35295,"DIS_CODE":0,"TOWNNAME":"將軍區","LI":"仁和里","LIN":"14鄰","STREET":" ","SECT":" ","MAREA":"和巷","LANE":" ","ALLEY":" ","HOUSE_NO":"２３號","E_COORD97":163652.57999999999,"N_COORD97":2569433.0499999998,"ADDRESS":"和巷２３號","OBJECTID":35295},"geometry":{"x":163652.58000000007,"y":2569433.0500000026}},{"attributes":{"ID":35296,"DIS_CODE":0,"TOWNNAME":"將軍區","LI":"忠興里","LIN":"14鄰","STREET":" ","SECT":" ","MAREA":"忠興","LANE":" ","ALLEY":" ","HOUSE_NO":"１４１之５號","E_COORD97":163599.35999999999,"N_COORD97":2567134.75,"ADDRESS":"忠興１４１之５號","OBJECTID":35296},"geometry":{"x":163599.36000000127,"y":2567134.7500000037}},{"attributes":{"ID":35297,"DIS_CODE":0,"TOWNNAME":"北區","LI":"新勝里","LIN":"8鄰","STREET":"開元路","SECT":" ","MAREA":" ","LANE":"３３３巷","ALLEY":"１６弄","HOUSE_NO":"６號","E_COORD97":170166.04000000001,"N_COORD97":2545514.3500000001,"ADDRESS":"開元路３３３巷１６弄６號","OBJECTID":35297},"geometry":{"x":170166.0400000019,"y":2545514.3500000015}},{"attributes":{"ID":35298,"DIS_CODE":0,"TOWNNAME":"北區","LI":"新勝里","LIN":"8鄰","STREET":"開元路","SECT":" ","MAREA":" ","LANE":"３３３巷","ALLEY":"１６弄","HOUSE_NO":"７０號","E_COORD97":170154.17999999999,"N_COORD97":2545617.9700000002,"ADDRESS":"開元路３３３巷１６弄７０號","OBJECTID":35298},"geometry":{"x":170154.1799999997,"y":2545617.9700000007}},{"attributes":{"ID":35299,"DIS_CODE":0,"TOWNNAME":"將軍區","LI":"忠興里","LIN":"14鄰","STREET":" ","SECT":" ","MAREA":"忠興","LANE":" ","ALLEY":" ","HOUSE_NO":"１４１之６號","E_COORD97":163599.51999999999,"N_COORD97":2567138.4300000002,"ADDRESS":"忠興１４１之６號","OBJECTID":35299},"geometry":{"x":163599.51999999955,"y":2567138.4299999997}},{"attributes":{"ID":35300,"DIS_CODE":0,"TOWNNAME":"將軍區","LI":"忠興里","LIN":"14鄰","STREET":" ","SECT":" ","MAREA":"忠興","LANE":" ","ALLEY":" ","HOUSE_NO":"１４１之７號","E_COORD97":163599.03,"N_COORD97":2567142.6800000002,"ADDRESS":"忠興１４１之７號","OBJECTID":35300},"geometry":{"x":163599.03000000212,"y":2567142.6800000016}},{"attributes":{"ID":35301,"DIS_CODE":0,"TOWNNAME":"將軍區","LI":"忠興里","LIN":"14鄰","STREET":" ","SECT":" ","MAREA":"忠興","LANE":" ","ALLEY":" ","HOUSE_NO":"１４１之８號","E_COORD97":163617.32999999999,"N_COORD97":2567140.6899999999,"ADDRESS":"忠興１４１之８號","OBJECTID":35301},"geometry":{"x":163617.33000000101,"y":2567140.6899999995}},{"attributes":{"ID":35302,"DIS_CODE":0,"TOWNNAME":"將軍區","LI":"忠興里","LIN":"14鄰","STREET":" ","SECT":" ","MAREA":"忠興","LANE":" ","ALLEY":" ","HOUSE_NO":"１４１之９號","E_COORD97":163621.89000000001,"N_COORD97":2567140.8799999999,"ADDRESS":"忠興１４１之９號","OBJECTID":35302},"geometry":{"x":163621.8900000006,"y":2567140.8800000008}},{"attributes":{"ID":35303,"DIS_CODE":0,"TOWNNAME":"將軍區","LI":"忠興里","LIN":"14鄰","STREET":" ","SECT":" ","MAREA":"忠興","LANE":" ","ALLEY":" ","HOUSE_NO":"１４２之１號","E_COORD97":163586.34,"N_COORD97":2567202.6899999999,"ADDRESS":"忠興１４２之１號","OBJECTID":35303},"geometry":{"x":163586.34000000171,"y":2567202.6900000032}},{"attributes":{"ID":35304,"DIS_CODE":0,"TOWNNAME":"將軍區","LI":"忠興里","LIN":"14鄰","STREET":" ","SECT":" ","MAREA":"忠興","LANE":" ","ALLEY":" ","HOUSE_NO":"１４３號","E_COORD97":163608.31,"N_COORD97":2567201.21,"ADDRESS":"忠興１４３號","OBJECTID":35304},"geometry":{"x":163608.31000000145,"y":2567201.2100000028}},{"attributes":{"ID":35305,"DIS_CODE":0,"TOWNNAME":"將軍區","LI":"忠興里","LIN":"14鄰","STREET":" ","SECT":" ","MAREA":"忠興","LANE":" ","ALLEY":" ","HOUSE_NO":"１４４號","E_COORD97":163583.19,"N_COORD97":2567221.6299999999,"ADDRESS":"忠興１４４號","OBJECTID":35305},"geometry":{"x":163583.19000000134,"y":2567221.629999999}},{"attributes":{"ID":35306,"DIS_CODE":0,"TOWNNAME":"將軍區","LI":"嘉昌里","LIN":"14鄰","STREET":" ","SECT":" ","MAREA":"昌平","LANE":" ","ALLEY":" ","HOUSE_NO":"１１之１０號","E_COORD97":163234.94,"N_COORD97":2567529.0899999999,"ADDRESS":"昌平１１之１０號","OBJECTID":35306},"geometry":{"x":163234.94000000041,"y":2567529.0900000036}},{"attributes":{"ID":35307,"DIS_CODE":0,"TOWNNAME":"將軍區","LI":"嘉昌里","LIN":"14鄰","STREET":" ","SECT":" ","MAREA":"昌平","LANE":" ","ALLEY":" ","HOUSE_NO":"１１之１號","E_COORD97":163289.41,"N_COORD97":2567376.3900000001,"ADDRESS":"昌平１１之１號","OBJECTID":35307},"geometry":{"x":163289.40999999922,"y":2567376.3900000025}},{"attributes":{"ID":35308,"DIS_CODE":0,"TOWNNAME":"將軍區","LI":"嘉昌里","LIN":"14鄰","STREET":" ","SECT":" ","MAREA":"昌平","LANE":" ","ALLEY":" ","HOUSE_NO":"１１之２號","E_COORD97":163307.22,"N_COORD97":2567376.25,"ADDRESS":"昌平１１之２號","OBJECTID":35308},"geometry":{"x":163307.21999999881,"y":2567376.2500000019}},{"attributes":{"ID":35309,"DIS_CODE":0,"TOWNNAME":"將軍區","LI":"嘉昌里","LIN":"14鄰","STREET":" ","SECT":" ","MAREA":"昌平","LANE":" ","ALLEY":" ","HOUSE_NO":"１３號","E_COORD97":163297.53,"N_COORD97":2567327.6899999999,"ADDRESS":"昌平１３號","OBJECTID":35309},"geometry":{"x":163297.53000000119,"y":2567327.6899999976}},{"attributes":{"ID":35310,"DIS_CODE":0,"TOWNNAME":"將軍區","LI":"嘉昌里","LIN":"14鄰","STREET":" ","SECT":" ","MAREA":"昌平","LANE":" ","ALLEY":" ","HOUSE_NO":"１４號","E_COORD97":163311.47,"N_COORD97":2567313.02,"ADDRESS":"昌平１４號","OBJECTID":35310},"geometry":{"x":163311.47000000067,"y":2567313.0200000014}},{"attributes":{"ID":35311,"DIS_CODE":0,"TOWNNAME":"將軍區","LI":"嘉昌里","LIN":"14鄰","STREET":" ","SECT":" ","MAREA":"昌平","LANE":" ","ALLEY":" ","HOUSE_NO":"１５號","E_COORD97":163341.01000000001,"N_COORD97":2567301.6699999999,"ADDRESS":"昌平１５號","OBJECTID":35311},"geometry":{"x":163341.01000000164,"y":2567301.6700000018}},{"attributes":{"ID":35312,"DIS_CODE":0,"TOWNNAME":"將軍區","LI":"嘉昌里","LIN":"14鄰","STREET":" ","SECT":" ","MAREA":"昌平","LANE":" ","ALLEY":" ","HOUSE_NO":"１６號","E_COORD97":163332,"N_COORD97":2567316.29,"ADDRESS":"昌平１６號","OBJECTID":35312},"geometry":{"x":163332.00000000093,"y":2567316.2899999991}},{"attributes":{"ID":35313,"DIS_CODE":0,"TOWNNAME":"將軍區","LI":"嘉昌里","LIN":"14鄰","STREET":" ","SECT":" ","MAREA":"昌平","LANE":" ","ALLEY":" ","HOUSE_NO":"１７號","E_COORD97":163328.17999999999,"N_COORD97":2567334.54,"ADDRESS":"昌平１７號","OBJECTID":35313},"geometry":{"x":163328.18000000063,"y":2567334.5399999991}},{"attributes":{"ID":35314,"DIS_CODE":0,"TOWNNAME":"將軍區","LI":"嘉昌里","LIN":"14鄰","STREET":" ","SECT":" ","MAREA":"昌平","LANE":" ","ALLEY":" ","HOUSE_NO":"１８之１號","E_COORD97":163327.22,"N_COORD97":2567355.5899999999,"ADDRESS":"昌平１８之１號","OBJECTID":35314},"geometry":{"x":163327.21999999974,"y":2567355.5899999999}},{"attributes":{"ID":35315,"DIS_CODE":0,"TOWNNAME":"後壁區","LI":"菁豊里","LIN":"7鄰","STREET":" ","SECT":" ","MAREA":"前菁寮","LANE":" ","ALLEY":" ","HOUSE_NO":"６６號","E_COORD97":183229.48000000001,"N_COORD97":2586421.3100000001,"ADDRESS":"前菁寮６６號","OBJECTID":35315},"geometry":{"x":183229.48000000045,"y":2586421.3100000005}},{"attributes":{"ID":35316,"DIS_CODE":0,"TOWNNAME":"後壁區","LI":"菁豊里","LIN":"7鄰","STREET":" ","SECT":" ","MAREA":"前菁寮","LANE":" ","ALLEY":" ","HOUSE_NO":"６７號","E_COORD97":183220.92999999999,"N_COORD97":2586399.9199999999,"ADDRESS":"前菁寮６７號","OBJECTID":35316},"geometry":{"x":183220.93000000156,"y":2586399.9199999999}},{"attributes":{"ID":35317,"DIS_CODE":0,"TOWNNAME":"後壁區","LI":"菁豊里","LIN":"7鄰","STREET":" ","SECT":" ","MAREA":"前菁寮","LANE":" ","ALLEY":" ","HOUSE_NO":"６８號之２","E_COORD97":183243.09,"N_COORD97":2586399.1800000002,"ADDRESS":"前菁寮６８號之２","OBJECTID":35317},"geometry":{"x":183243.08999999985,"y":2586399.1800000034}},{"attributes":{"ID":35318,"DIS_CODE":0,"TOWNNAME":"後壁區","LI":"菁豊里","LIN":"7鄰","STREET":" ","SECT":" ","MAREA":"前菁寮","LANE":" ","ALLEY":" ","HOUSE_NO":"６８號之３","E_COORD97":183242.06,"N_COORD97":2586394.3100000001,"ADDRESS":"前菁寮６８號之３","OBJECTID":35318},"geometry":{"x":183242.06000000145,"y":2586394.3100000005}},{"attributes":{"ID":35319,"DIS_CODE":0,"TOWNNAME":"後壁區","LI":"菁豊里","LIN":"7鄰","STREET":" ","SECT":" ","MAREA":"前菁寮","LANE":" ","ALLEY":" ","HOUSE_NO":"６８號之８","E_COORD97":183328.32999999999,"N_COORD97":2586408.04,"ADDRESS":"前菁寮６８號之８","OBJECTID":35319},"geometry":{"x":183328.33000000007,"y":2586408.0399999991}},{"attributes":{"ID":35320,"DIS_CODE":0,"TOWNNAME":"後壁區","LI":"菁豊里","LIN":"7鄰","STREET":" ","SECT":" ","MAREA":"前菁寮","LANE":" ","ALLEY":" ","HOUSE_NO":"６８號","E_COORD97":183271.44,"N_COORD97":2586418.77,"ADDRESS":"前菁寮６８號","OBJECTID":35320},"geometry":{"x":183271.44000000134,"y":2586418.7700000033}},{"attributes":{"ID":35321,"DIS_CODE":0,"TOWNNAME":"後壁區","LI":"菁豊里","LIN":"7鄰","STREET":" ","SECT":" ","MAREA":"前菁寮","LANE":" ","ALLEY":" ","HOUSE_NO":"６９號之１","E_COORD97":183229.94,"N_COORD97":2586355.9700000002,"ADDRESS":"前菁寮６９號之１","OBJECTID":35321},"geometry":{"x":183229.94000000041,"y":2586355.9700000007}},{"attributes":{"ID":35322,"DIS_CODE":0,"TOWNNAME":"後壁區","LI":"菁豊里","LIN":"7鄰","STREET":" ","SECT":" ","MAREA":"前菁寮","LANE":" ","ALLEY":" ","HOUSE_NO":"６９號之３","E_COORD97":183223.17000000001,"N_COORD97":2586334,"ADDRESS":"前菁寮６９號之３","OBJECTID":35322},"geometry":{"x":183223.17000000086,"y":2586334.0000000019}},{"attributes":{"ID":35323,"DIS_CODE":0,"TOWNNAME":"後壁區","LI":"菁豊里","LIN":"7鄰","STREET":" ","SECT":" ","MAREA":"前菁寮","LANE":" ","ALLEY":" ","HOUSE_NO":"６９號之５","E_COORD97":183234.82999999999,"N_COORD97":2586371.6899999999,"ADDRESS":"前菁寮６９號之５","OBJECTID":35323},"geometry":{"x":183234.83000000007,"y":2586371.6900000032}},{"attributes":{"ID":35324,"DIS_CODE":0,"TOWNNAME":"後壁區","LI":"菁豊里","LIN":"7鄰","STREET":" ","SECT":" ","MAREA":"前菁寮","LANE":" ","ALLEY":" ","HOUSE_NO":"６９號","E_COORD97":183235.79000000001,"N_COORD97":2586353.9100000001,"ADDRESS":"前菁寮６９號","OBJECTID":35324},"geometry":{"x":183235.7900000019,"y":2586353.9100000039}},{"attributes":{"ID":35325,"DIS_CODE":0,"TOWNNAME":"後壁區","LI":"後壁里","LIN":"7鄰","STREET":" ","SECT":" ","MAREA":"後壁","LANE":" ","ALLEY":" ","HOUSE_NO":"１３４號之１","E_COORD97":184859.98999999999,"N_COORD97":2584925.48,"ADDRESS":"後壁１３４號之１","OBJECTID":35325},"geometry":{"x":184859.99000000022,"y":2584925.4800000004}},{"attributes":{"ID":35326,"DIS_CODE":0,"TOWNNAME":"後壁區","LI":"後壁里","LIN":"7鄰","STREET":" ","SECT":" ","MAREA":"後壁","LANE":" ","ALLEY":" ","HOUSE_NO":"１３５號之１０","E_COORD97":184903.12,"N_COORD97":2584861.29,"ADDRESS":"後壁１３５號之１０","OBJECTID":35326},"geometry":{"x":184903.12000000011,"y":2584861.2899999991}},{"attributes":{"ID":35327,"DIS_CODE":0,"TOWNNAME":"後壁區","LI":"後壁里","LIN":"7鄰","STREET":" ","SECT":" ","MAREA":"後壁","LANE":" ","ALLEY":" ","HOUSE_NO":"１３５號之１１","E_COORD97":184890.85999999999,"N_COORD97":2584861.1400000001,"ADDRESS":"後壁１３５號之１１","OBJECTID":35327},"geometry":{"x":184890.86000000127,"y":2584861.1400000043}},{"attributes":{"ID":35328,"DIS_CODE":0,"TOWNNAME":"後壁區","LI":"後壁里","LIN":"7鄰","STREET":" ","SECT":" ","MAREA":"後壁","LANE":" ","ALLEY":" ","HOUSE_NO":"１３５號之１２","E_COORD97":184884.84,"N_COORD97":2584862.6499999999,"ADDRESS":"後壁１３５號之１２","OBJECTID":35328},"geometry":{"x":184884.84000000171,"y":2584862.6500000004}},{"attributes":{"ID":35329,"DIS_CODE":0,"TOWNNAME":"後壁區","LI":"後壁里","LIN":"7鄰","STREET":" ","SECT":" ","MAREA":"後壁","LANE":" ","ALLEY":" ","HOUSE_NO":"１３５號之１３","E_COORD97":184879.22,"N_COORD97":2584864.0600000001,"ADDRESS":"後壁１３５號之１３","OBJECTID":35329},"geometry":{"x":184879.22000000067,"y":2584864.0600000005}},{"attributes":{"ID":35330,"DIS_CODE":0,"TOWNNAME":"後壁區","LI":"後壁里","LIN":"7鄰","STREET":" ","SECT":" ","MAREA":"後壁","LANE":" ","ALLEY":" ","HOUSE_NO":"１３５號之１４","E_COORD97":184873.42999999999,"N_COORD97":2584865.71,"ADDRESS":"後壁１３５號之１４","OBJECTID":35330},"geometry":{"x":184873.4299999997,"y":2584865.7100000028}},{"attributes":{"ID":35331,"DIS_CODE":0,"TOWNNAME":"後壁區","LI":"後壁里","LIN":"7鄰","STREET":" ","SECT":" ","MAREA":"後壁","LANE":" ","ALLEY":" ","HOUSE_NO":"１３５號之２","E_COORD97":184871.35999999999,"N_COORD97":2584882.8399999999,"ADDRESS":"後壁１３５號之２","OBJECTID":35331},"geometry":{"x":184871.36000000034,"y":2584882.8400000036}},{"attributes":{"ID":35332,"DIS_CODE":0,"TOWNNAME":"後壁區","LI":"後壁里","LIN":"7鄰","STREET":" ","SECT":" ","MAREA":"後壁","LANE":" ","ALLEY":" ","HOUSE_NO":"１３５號之３","E_COORD97":184876.37,"N_COORD97":2584881.5600000001,"ADDRESS":"後壁１３５號之３","OBJECTID":35332},"geometry":{"x":184876.37000000197,"y":2584881.5600000005}},{"attributes":{"ID":35333,"DIS_CODE":0,"TOWNNAME":"後壁區","LI":"後壁里","LIN":"7鄰","STREET":" ","SECT":" ","MAREA":"後壁","LANE":" ","ALLEY":" ","HOUSE_NO":"１３５號之４","E_COORD97":184880.92999999999,"N_COORD97":2584880.4500000002,"ADDRESS":"後壁１３５號之４","OBJECTID":35333},"geometry":{"x":184880.93000000063,"y":2584880.4499999993}},{"attributes":{"ID":35334,"DIS_CODE":0,"TOWNNAME":"後壁區","LI":"後壁里","LIN":"7鄰","STREET":" ","SECT":" ","MAREA":"後壁","LANE":" ","ALLEY":" ","HOUSE_NO":"１３５號之５","E_COORD97":184885.29999999999,"N_COORD97":2584878.6499999999,"ADDRESS":"後壁１３５號之５","OBJECTID":35334},"geometry":{"x":184885.30000000075,"y":2584878.6500000022}},{"attributes":{"ID":35335,"DIS_CODE":0,"TOWNNAME":"後壁區","LI":"後壁里","LIN":"7鄰","STREET":" ","SECT":" ","MAREA":"後壁","LANE":" ","ALLEY":" ","HOUSE_NO":"１３５號之６","E_COORD97":184890.01999999999,"N_COORD97":2584877.3700000001,"ADDRESS":"後壁１３５號之６","OBJECTID":35335},"geometry":{"x":184890.02000000142,"y":2584877.3700000029}},{"attributes":{"ID":35336,"DIS_CODE":0,"TOWNNAME":"後壁區","LI":"後壁里","LIN":"7鄰","STREET":" ","SECT":" ","MAREA":"後壁","LANE":" ","ALLEY":" ","HOUSE_NO":"１３５號之７","E_COORD97":184894.47,"N_COORD97":2584876.48,"ADDRESS":"後壁１３５號之７","OBJECTID":35336},"geometry":{"x":184894.47000000067,"y":2584876.4800000023}},{"attributes":{"ID":35337,"DIS_CODE":0,"TOWNNAME":"後壁區","LI":"後壁里","LIN":"7鄰","STREET":" ","SECT":" ","MAREA":"後壁","LANE":" ","ALLEY":" ","HOUSE_NO":"１３５號之８","E_COORD97":184905.76000000001,"N_COORD97":2584873.9700000002,"ADDRESS":"後壁１３５號之８","OBJECTID":35337},"geometry":{"x":184905.76000000071,"y":2584873.9700000025}},{"attributes":{"ID":35338,"DIS_CODE":0,"TOWNNAME":"後壁區","LI":"後壁里","LIN":"7鄰","STREET":" ","SECT":" ","MAREA":"後壁","LANE":" ","ALLEY":" ","HOUSE_NO":"１３５號之９","E_COORD97":184910.92000000001,"N_COORD97":2584872.73,"ADDRESS":"後壁１３５號之９","OBJECTID":35338},"geometry":{"x":184910.91999999993,"y":2584872.7300000004}},{"attributes":{"ID":35339,"DIS_CODE":0,"TOWNNAME":"後壁區","LI":"後壁里","LIN":"7鄰","STREET":" ","SECT":" ","MAREA":"後壁","LANE":" ","ALLEY":" ","HOUSE_NO":"１３６號之１","E_COORD97":184883.69,"N_COORD97":2584914.0800000001,"ADDRESS":"後壁１３６號之１","OBJECTID":35339},"geometry":{"x":184883.69000000134,"y":2584914.0800000001}},{"attributes":{"ID":35340,"DIS_CODE":0,"TOWNNAME":"後壁區","LI":"後壁里","LIN":"7鄰","STREET":" ","SECT":" ","MAREA":"後壁","LANE":" ","ALLEY":" ","HOUSE_NO":"１３６號之３","E_COORD97":184892.62,"N_COORD97":2584914.7000000002,"ADDRESS":"後壁１３６號之３","OBJECTID":35340},"geometry":{"x":184892.62000000011,"y":2584914.7000000011}},{"attributes":{"ID":35341,"DIS_CODE":0,"TOWNNAME":"北區","LI":"新勝里","LIN":"8鄰","STREET":"開元路","SECT":" ","MAREA":" ","LANE":"３３３巷","ALLEY":"１６弄","HOUSE_NO":"７２號","E_COORD97":170147.47,"N_COORD97":2545617.52,"ADDRESS":"開元路３３３巷１６弄７２號","OBJECTID":35341},"geometry":{"x":170147.4700000016,"y":2545617.5200000014}},{"attributes":{"ID":35342,"DIS_CODE":0,"TOWNNAME":"北區","LI":"新勝里","LIN":"8鄰","STREET":"開元路","SECT":" ","MAREA":" ","LANE":"３３３巷","ALLEY":"１６弄","HOUSE_NO":"７４號","E_COORD97":170141.54999999999,"N_COORD97":2545616.6099999999,"ADDRESS":"開元路３３３巷１６弄７４號","OBJECTID":35342},"geometry":{"x":170141.54999999981,"y":2545616.6100000031}},{"attributes":{"ID":35343,"DIS_CODE":0,"TOWNNAME":"北區","LI":"新勝里","LIN":"8鄰","STREET":"開元路","SECT":" ","MAREA":" ","LANE":"３３３巷","ALLEY":"１６弄","HOUSE_NO":"７６號","E_COORD97":170135.10999999999,"N_COORD97":2545615.3100000001,"ADDRESS":"開元路３３３巷１６弄７６號","OBJECTID":35343},"geometry":{"x":170135.11000000034,"y":2545615.3100000005}},{"attributes":{"ID":35344,"DIS_CODE":0,"TOWNNAME":"北區","LI":"新勝里","LIN":"8鄰","STREET":"開元路","SECT":" ","MAREA":" ","LANE":"３３３巷","ALLEY":"１６弄","HOUSE_NO":"７號","E_COORD97":170142.87,"N_COORD97":2545528.5,"ADDRESS":"開元路３３３巷１６弄７號","OBJECTID":35344},"geometry":{"x":170142.87000000011,"y":2545528.5}},{"attributes":{"ID":35345,"DIS_CODE":0,"TOWNNAME":"北區","LI":"新勝里","LIN":"8鄰","STREET":"開元路","SECT":" ","MAREA":" ","LANE":"３３３巷","ALLEY":"１６弄","HOUSE_NO":"８號","E_COORD97":170168.81,"N_COORD97":2545518.46,"ADDRESS":"開元路３３３巷１６弄８號","OBJECTID":35345},"geometry":{"x":170168.81000000145,"y":2545518.4600000028}},{"attributes":{"ID":35346,"DIS_CODE":0,"TOWNNAME":"北區","LI":"新勝里","LIN":"8鄰","STREET":"開元路","SECT":" ","MAREA":" ","LANE":"３３３巷","ALLEY":"１６弄","HOUSE_NO":"９號","E_COORD97":170139.70999999999,"N_COORD97":2545531.8100000001,"ADDRESS":"開元路３３３巷１６弄９號","OBJECTID":35346},"geometry":{"x":170139.71000000089,"y":2545531.8100000024}},{"attributes":{"ID":35347,"DIS_CODE":0,"TOWNNAME":"南區","LI":"興農里","LIN":"8鄰","STREET":"灣裡路","SECT":" ","MAREA":" ","LANE":"２１１巷","ALLEY":"８８弄","HOUSE_NO":"１０號之１","E_COORD97":166484.29999999999,"N_COORD97":2536541.6000000001,"ADDRESS":"灣裡路２１１巷８８弄１０號之１","OBJECTID":35347},"geometry":{"x":166484.30000000075,"y":2536541.6000000015}},{"attributes":{"ID":35348,"DIS_CODE":0,"TOWNNAME":"南區","LI":"興農里","LIN":"8鄰","STREET":"灣裡路","SECT":" ","MAREA":" ","LANE":"２１１巷","ALLEY":"８８弄","HOUSE_NO":"１０號之２","E_COORD97":166485.20000000001,"N_COORD97":2536535.6499999999,"ADDRESS":"灣裡路２１１巷８８弄１０號之２","OBJECTID":35348},"geometry":{"x":166485.20000000112,"y":2536535.6500000022}},{"attributes":{"ID":35349,"DIS_CODE":0,"TOWNNAME":"南區","LI":"興農里","LIN":"8鄰","STREET":"灣裡路","SECT":" ","MAREA":" ","LANE":"２１１巷","ALLEY":"８８弄","HOUSE_NO":"１０號之４","E_COORD97":166485.20000000001,"N_COORD97":2536522.8700000001,"ADDRESS":"灣裡路２１１巷８８弄１０號之４","OBJECTID":35349},"geometry":{"x":166485.20000000112,"y":2536522.870000001}},{"attributes":{"ID":35350,"DIS_CODE":0,"TOWNNAME":"南區","LI":"興農里","LIN":"8鄰","STREET":"灣裡路","SECT":" ","MAREA":" ","LANE":"２１１巷","ALLEY":"８８弄","HOUSE_NO":"６號之１","E_COORD97":166463.45999999999,"N_COORD97":2536553.2000000002,"ADDRESS":"灣裡路２１１巷８８弄６號之１","OBJECTID":35350},"geometry":{"x":166463.45999999996,"y":2536553.200000003}},{"attributes":{"ID":35351,"DIS_CODE":0,"TOWNNAME":"南區","LI":"興農里","LIN":"8鄰","STREET":"灣裡路","SECT":" ","MAREA":" ","LANE":"２１１巷","ALLEY":"８８弄","HOUSE_NO":"１２號","E_COORD97":166502.17000000001,"N_COORD97":2536551.4100000001,"ADDRESS":"灣裡路２１１巷８８弄１２號","OBJECTID":35351},"geometry":{"x":166502.17000000086,"y":2536551.4100000001}},{"attributes":{"ID":35352,"DIS_CODE":0,"TOWNNAME":"南區","LI":"興農里","LIN":"8鄰","STREET":"灣裡路","SECT":" ","MAREA":" ","LANE":"２１１巷","ALLEY":"８８弄","HOUSE_NO":"１２號之１","E_COORD97":166501.87,"N_COORD97":2536547.25,"ADDRESS":"灣裡路２１１巷８８弄１２號之１","OBJECTID":35352},"geometry":{"x":166501.87000000011,"y":2536547.2500000019}},{"attributes":{"ID":35353,"DIS_CODE":0,"TOWNNAME":"南區","LI":"興農里","LIN":"8鄰","STREET":"灣裡路","SECT":" ","MAREA":" ","LANE":"２１１巷","ALLEY":"８８弄","HOUSE_NO":"１２號之２","E_COORD97":166502.17000000001,"N_COORD97":2536542.79,"ADDRESS":"灣裡路２１１巷８８弄１２號之２","OBJECTID":35353},"geometry":{"x":166502.17000000086,"y":2536542.790000001}},{"attributes":{"ID":35354,"DIS_CODE":0,"TOWNNAME":"南區","LI":"興農里","LIN":"8鄰","STREET":"灣裡路","SECT":" ","MAREA":" ","LANE":"２１１巷","ALLEY":"８８弄","HOUSE_NO":"１２號之３","E_COORD97":166501.87,"N_COORD97":2536538.6299999999,"ADDRESS":"灣裡路２１１巷８８弄１２號之３","OBJECTID":35354},"geometry":{"x":166501.87000000011,"y":2536538.629999999}},{"attributes":{"ID":35355,"DIS_CODE":0,"TOWNNAME":"南區","LI":"興農里","LIN":"8鄰","STREET":"灣裡路","SECT":" ","MAREA":" ","LANE":"２１１巷","ALLEY":"８８弄","HOUSE_NO":"１２號之４","E_COORD97":166501.26999999999,"N_COORD97":2536535.3599999999,"ADDRESS":"灣裡路２１１巷８８弄１２號之４","OBJECTID":35355},"geometry":{"x":166501.27000000048,"y":2536535.3600000031}},{"attributes":{"ID":35356,"DIS_CODE":0,"TOWNNAME":"南區","LI":"興農里","LIN":"8鄰","STREET":"灣裡路","SECT":" ","MAREA":" ","LANE":"２１１巷","ALLEY":"８８弄","HOUSE_NO":"１２號之５","E_COORD97":166500.98000000001,"N_COORD97":2536531.1899999999,"ADDRESS":"灣裡路２１１巷８８弄１２號之５","OBJECTID":35356},"geometry":{"x":166500.98000000045,"y":2536531.1900000013}},{"attributes":{"ID":35357,"DIS_CODE":0,"TOWNNAME":"將軍區","LI":"長沙里","LIN":"14鄰","STREET":" ","SECT":" ","MAREA":"長沙","LANE":" ","ALLEY":" ","HOUSE_NO":"１１５之１號","E_COORD97":157541.22,"N_COORD97":2568481.6299999999,"ADDRESS":"長沙１１５之１號","OBJECTID":35357},"geometry":{"x":157541.21999999974,"y":2568481.6300000008}},{"attributes":{"ID":35358,"DIS_CODE":0,"TOWNNAME":"將軍區","LI":"長沙里","LIN":"14鄰","STREET":" ","SECT":" ","MAREA":"長沙","LANE":" ","ALLEY":" ","HOUSE_NO":"１１５號","E_COORD97":157540.81,"N_COORD97":2568475.6600000001,"ADDRESS":"長沙１１５號","OBJECTID":35358},"geometry":{"x":157540.80999999959,"y":2568475.660000002}},{"attributes":{"ID":35359,"DIS_CODE":0,"TOWNNAME":"將軍區","LI":"長沙里","LIN":"14鄰","STREET":" ","SECT":" ","MAREA":"長沙","LANE":" ","ALLEY":" ","HOUSE_NO":"１１６號","E_COORD97":157541.10999999999,"N_COORD97":2568468.5299999998,"ADDRESS":"長沙１１６號","OBJECTID":35359},"geometry":{"x":157541.11000000034,"y":2568468.5300000012}},{"attributes":{"ID":35360,"DIS_CODE":0,"TOWNNAME":"將軍區","LI":"長沙里","LIN":"14鄰","STREET":" ","SECT":" ","MAREA":"長沙","LANE":" ","ALLEY":" ","HOUSE_NO":"１１７號","E_COORD97":157541.54999999999,"N_COORD97":2568461.4300000002,"ADDRESS":"長沙１１７號","OBJECTID":35360},"geometry":{"x":157541.55000000168,"y":2568461.4299999997}},{"attributes":{"ID":35361,"DIS_CODE":0,"TOWNNAME":"將軍區","LI":"長沙里","LIN":"14鄰","STREET":" ","SECT":" ","MAREA":"長沙","LANE":" ","ALLEY":" ","HOUSE_NO":"１１８之２號","E_COORD97":157545.04000000001,"N_COORD97":2568446.46,"ADDRESS":"長沙１１８之２號","OBJECTID":35361},"geometry":{"x":157545.04000000004,"y":2568446.4600000046}},{"attributes":{"ID":35362,"DIS_CODE":0,"TOWNNAME":"將軍區","LI":"長沙里","LIN":"14鄰","STREET":" ","SECT":" ","MAREA":"長沙","LANE":" ","ALLEY":" ","HOUSE_NO":"１１８號","E_COORD97":157541.41,"N_COORD97":2568453.8999999999,"ADDRESS":"長沙１１８號","OBJECTID":35362},"geometry":{"x":157541.41000000108,"y":2568453.9000000022}},{"attributes":{"ID":35363,"DIS_CODE":0,"TOWNNAME":"將軍區","LI":"長沙里","LIN":"14鄰","STREET":" ","SECT":" ","MAREA":"長沙","LANE":" ","ALLEY":" ","HOUSE_NO":"１１９之１號","E_COORD97":157569.92000000001,"N_COORD97":2568446.6699999999,"ADDRESS":"長沙１１９之１號","OBJECTID":35363},"geometry":{"x":157569.92000000086,"y":2568446.6699999999}},{"attributes":{"ID":35364,"DIS_CODE":0,"TOWNNAME":"將軍區","LI":"長沙里","LIN":"14鄰","STREET":" ","SECT":" ","MAREA":"長沙","LANE":" ","ALLEY":" ","HOUSE_NO":"１１９號","E_COORD97":157569.98000000001,"N_COORD97":2568456.02,"ADDRESS":"長沙１１９號","OBJECTID":35364},"geometry":{"x":157569.98000000138,"y":2568456.0200000014}},{"attributes":{"ID":35365,"DIS_CODE":0,"TOWNNAME":"將軍區","LI":"長沙里","LIN":"14鄰","STREET":" ","SECT":" ","MAREA":"長沙","LANE":" ","ALLEY":" ","HOUSE_NO":"１２０號","E_COORD97":157569.85999999999,"N_COORD97":2568463.46,"ADDRESS":"長沙１２０號","OBJECTID":35365},"geometry":{"x":157569.86000000034,"y":2568463.4600000046}},{"attributes":{"ID":35366,"DIS_CODE":0,"TOWNNAME":"白河區","LI":"永安里","LIN":"14鄰","STREET":"復興街","SECT":" ","MAREA":" ","LANE":" ","ALLEY":" ","HOUSE_NO":"５８號","E_COORD97":190344.45999999999,"N_COORD97":2583425.6899999999,"ADDRESS":"復興街５８號","OBJECTID":35366},"geometry":{"x":190344.46000000089,"y":2583425.6900000013}},{"attributes":{"ID":35367,"DIS_CODE":0,"TOWNNAME":"安定區","LI":"港口里","LIN":"14鄰","STREET":" ","SECT":" ","MAREA":"港口","LANE":" ","ALLEY":" ","HOUSE_NO":"３３２之７號","E_COORD97":171026.48999999999,"N_COORD97":2554696.2999999998,"ADDRESS":"港口３３２之７號","OBJECTID":35367},"geometry":{"x":171026.49000000115,"y":2554696.3000000026}},{"attributes":{"ID":35368,"DIS_CODE":0,"TOWNNAME":"安定區","LI":"海寮里","LIN":"14鄰","STREET":" ","SECT":" ","MAREA":"海寮","LANE":" ","ALLEY":" ","HOUSE_NO":"１３２號之７６","E_COORD97":168989.23000000001,"N_COORD97":2555429.2999999998,"ADDRESS":"海寮１３２號之７６","OBJECTID":35368},"geometry":{"x":168989.23000000138,"y":2555429.3000000026}},{"attributes":{"ID":35369,"DIS_CODE":0,"TOWNNAME":"安定區","LI":"蘇林里","LIN":"14鄰","STREET":" ","SECT":" ","MAREA":"蘇厝","LANE":" ","ALLEY":" ","HOUSE_NO":"１５３號","E_COORD97":173512.42000000001,"N_COORD97":2558855.25,"ADDRESS":"蘇厝１５３號","OBJECTID":35369},"geometry":{"x":173512.41999999993,"y":2558855.2499999981}},{"attributes":{"ID":35370,"DIS_CODE":0,"TOWNNAME":"安定區","LI":"海寮里","LIN":"14鄰","STREET":" ","SECT":" ","MAREA":"海寮","LANE":" ","ALLEY":" ","HOUSE_NO":"１３２號之７１","E_COORD97":168984.13,"N_COORD97":2555450.2999999998,"ADDRESS":"海寮１３２號之７１","OBJECTID":35370},"geometry":{"x":168984.13000000082,"y":2555450.3000000007}},{"attributes":{"ID":35371,"DIS_CODE":0,"TOWNNAME":"安定區","LI":"海寮里","LIN":"14鄰","STREET":" ","SECT":" ","MAREA":"海寮","LANE":" ","ALLEY":" ","HOUSE_NO":"１３２號之１０５","E_COORD97":168974.73000000001,"N_COORD97":2555434.2999999998,"ADDRESS":"海寮１３２號之１０５","OBJECTID":35371},"geometry":{"x":168974.73000000045,"y":2555434.3000000007}},{"attributes":{"ID":35372,"DIS_CODE":0,"TOWNNAME":"安定區","LI":"管寮里","LIN":"14鄰","STREET":" ","SECT":" ","MAREA":"管寮","LANE":" ","ALLEY":" ","HOUSE_NO":"１２７號","E_COORD97":169997.79000000001,"N_COORD97":2556234.25,"ADDRESS":"管寮１２７號","OBJECTID":35372},"geometry":{"x":169997.79000000004,"y":2556234.25}},{"attributes":{"ID":35373,"DIS_CODE":0,"TOWNNAME":"安定區","LI":"港口里","LIN":"14鄰","STREET":" ","SECT":" ","MAREA":"港口","LANE":" ","ALLEY":" ","HOUSE_NO":"３３８號之３","E_COORD97":171242.12,"N_COORD97":2554803.2999999998,"ADDRESS":"港口３３８號之３","OBJECTID":35373},"geometry":{"x":171242.12000000104,"y":2554803.3000000007}},{"attributes":{"ID":35374,"DIS_CODE":0,"TOWNNAME":"安定區","LI":"港口里","LIN":"14鄰","STREET":" ","SECT":" ","MAREA":"港口","LANE":" ","ALLEY":" ","HOUSE_NO":"３３４號","E_COORD97":171172.09,"N_COORD97":2554758.25,"ADDRESS":"港口３３４號","OBJECTID":35374},"geometry":{"x":171172.08999999985,"y":2554758.25}},{"attributes":{"ID":35375,"DIS_CODE":0,"TOWNNAME":"安定區","LI":"海寮里","LIN":"14鄰","STREET":" ","SECT":" ","MAREA":"海寮","LANE":" ","ALLEY":" ","HOUSE_NO":"１３２之１１８號","E_COORD97":168989.14000000001,"N_COORD97":2555380.2999999998,"ADDRESS":"海寮１３２之１１８號","OBJECTID":35375},"geometry":{"x":168989.1400000006,"y":2555380.3000000007}},{"attributes":{"ID":35376,"DIS_CODE":0,"TOWNNAME":"安定區","LI":"海寮里","LIN":"14鄰","STREET":" ","SECT":" ","MAREA":"海寮","LANE":" ","ALLEY":" ","HOUSE_NO":"１３２號之７２","E_COORD97":168985.06,"N_COORD97":2555446.2999999998,"ADDRESS":"海寮１３２號之７２","OBJECTID":35376},"geometry":{"x":168985.05999999959,"y":2555446.3000000026}},{"attributes":{"ID":35377,"DIS_CODE":0,"TOWNNAME":"安定區","LI":"海寮里","LIN":"14鄰","STREET":" ","SECT":" ","MAREA":"海寮","LANE":" ","ALLEY":" ","HOUSE_NO":"１３２之７０號","E_COORD97":168983.59,"N_COORD97":2555454.2999999998,"ADDRESS":"海寮１３２之７０號","OBJECTID":35377},"geometry":{"x":168983.58999999985,"y":2555454.3000000007}},{"attributes":{"ID":35378,"DIS_CODE":0,"TOWNNAME":"南區","LI":"興農里","LIN":"8鄰","STREET":"灣裡路","SECT":" ","MAREA":" ","LANE":"２１１巷","ALLEY":"８８弄","HOUSE_NO":"１２號之６","E_COORD97":166499.48999999999,"N_COORD97":2536527.0299999998,"ADDRESS":"灣裡路２１１巷８８弄１２號之６","OBJECTID":35378},"geometry":{"x":166499.49000000022,"y":2536527.0299999975}},{"attributes":{"ID":35379,"DIS_CODE":0,"TOWNNAME":"安定區","LI":"海寮里","LIN":"14鄰","STREET":" ","SECT":" ","MAREA":"海寮","LANE":" ","ALLEY":" ","HOUSE_NO":"１３２號之１１３","E_COORD97":168983.48000000001,"N_COORD97":2555401.2999999998,"ADDRESS":"海寮１３２號之１１３","OBJECTID":35379},"geometry":{"x":168983.48000000231,"y":2555401.3000000045}},{"attributes":{"ID":35380,"DIS_CODE":0,"TOWNNAME":"安定區","LI":"蘇林里","LIN":"14鄰","STREET":" ","SECT":" ","MAREA":"蘇厝","LANE":" ","ALLEY":" ","HOUSE_NO":"１５２之２號","E_COORD97":173504.32000000001,"N_COORD97":2558886.2999999998,"ADDRESS":"蘇厝１５２之２號","OBJECTID":35380},"geometry":{"x":173504.32000000123,"y":2558886.3000000045}},{"attributes":{"ID":35381,"DIS_CODE":0,"TOWNNAME":"安定區","LI":"港口里","LIN":"14鄰","STREET":" ","SECT":" ","MAREA":"港口","LANE":" ","ALLEY":" ","HOUSE_NO":"３３２之６號","E_COORD97":171095.48999999999,"N_COORD97":2554754.2999999998,"ADDRESS":"港口３３２之６號","OBJECTID":35381},"geometry":{"x":171095.49000000209,"y":2554754.3000000026}},{"attributes":{"ID":35382,"DIS_CODE":0,"TOWNNAME":"安定區","LI":"海寮里","LIN":"14鄰","STREET":" ","SECT":" ","MAREA":"海寮","LANE":" ","ALLEY":" ","HOUSE_NO":"１３２號之８６","E_COORD97":168999.03,"N_COORD97":2555388.2999999998,"ADDRESS":"海寮１３２號之８６","OBJECTID":35382},"geometry":{"x":168999.03000000119,"y":2555388.3000000026}},{"attributes":{"ID":35383,"DIS_CODE":0,"TOWNNAME":"安定區","LI":"海寮里","LIN":"14鄰","STREET":" ","SECT":" ","MAREA":"海寮","LANE":" ","ALLEY":" ","HOUSE_NO":"１３２之１０３號","E_COORD97":168973.64000000001,"N_COORD97":2555442.2999999998,"ADDRESS":"海寮１３２之１０３號","OBJECTID":35383},"geometry":{"x":168973.6400000006,"y":2555442.3000000026}},{"attributes":{"ID":35384,"DIS_CODE":0,"TOWNNAME":"安定區","LI":"蘇林里","LIN":"14鄰","STREET":" ","SECT":" ","MAREA":"蘇厝","LANE":" ","ALLEY":" ","HOUSE_NO":"１５２號","E_COORD97":173504.62,"N_COORD97":2558879.25,"ADDRESS":"蘇厝１５２號","OBJECTID":35384},"geometry":{"x":173504.62000000011,"y":2558879.2500000037}},{"attributes":{"ID":35385,"DIS_CODE":0,"TOWNNAME":"安定區","LI":"海寮里","LIN":"14鄰","STREET":" ","SECT":" ","MAREA":"海寮","LANE":" ","ALLEY":" ","HOUSE_NO":"１３２之９０號","E_COORD97":169003.29000000001,"N_COORD97":2555371.29,"ADDRESS":"海寮１３２之９０號","OBJECTID":35385},"geometry":{"x":169003.29000000097,"y":2555371.2899999991}},{"attributes":{"ID":35386,"DIS_CODE":0,"TOWNNAME":"安定區","LI":"大同里","LIN":"14鄰","STREET":" ","SECT":" ","MAREA":"牛肉寮","LANE":" ","ALLEY":" ","HOUSE_NO":"７５號","E_COORD97":170903.92000000001,"N_COORD97":2552841.25,"ADDRESS":"牛肉寮７５號","OBJECTID":35386},"geometry":{"x":170903.91999999899,"y":2552841.2500000019}},{"attributes":{"ID":35387,"DIS_CODE":0,"TOWNNAME":"安定區","LI":"蘇林里","LIN":"14鄰","STREET":" ","SECT":" ","MAREA":"蘇厝","LANE":" ","ALLEY":" ","HOUSE_NO":"１５９號","E_COORD97":173477.51999999999,"N_COORD97":2558846.25,"ADDRESS":"蘇厝１５９號","OBJECTID":35387},"geometry":{"x":173477.51999999955,"y":2558846.2500000019}},{"attributes":{"ID":35388,"DIS_CODE":0,"TOWNNAME":"安定區","LI":"海寮里","LIN":"14鄰","STREET":" ","SECT":" ","MAREA":"海寮","LANE":" ","ALLEY":" ","HOUSE_NO":"１３２之９７號","E_COORD97":169011.48999999999,"N_COORD97":2555340.2999999998,"ADDRESS":"海寮１３２之９７號","OBJECTID":35388},"geometry":{"x":169011.49000000022,"y":2555340.3000000045}},{"attributes":{"ID":35389,"DIS_CODE":0,"TOWNNAME":"後壁區","LI":"後壁里","LIN":"7鄰","STREET":" ","SECT":" ","MAREA":"後壁","LANE":" ","ALLEY":" ","HOUSE_NO":"１３６號之５","E_COORD97":184902.92000000001,"N_COORD97":2584920.73,"ADDRESS":"後壁１３６號之５","OBJECTID":35389},"geometry":{"x":184902.92000000179,"y":2584920.7300000004}},{"attributes":{"ID":35390,"DIS_CODE":0,"TOWNNAME":"後壁區","LI":"後壁里","LIN":"7鄰","STREET":" ","SECT":" ","MAREA":"後壁","LANE":" ","ALLEY":" ","HOUSE_NO":"１３６號之７","E_COORD97":184908.70000000001,"N_COORD97":2584910.0499999998,"ADDRESS":"後壁１３６號之７","OBJECTID":35390},"geometry":{"x":184908.70000000112,"y":2584910.0500000026}},{"attributes":{"ID":35391,"DIS_CODE":0,"TOWNNAME":"南區","LI":"大林里","LIN":"8鄰","STREET":"大同路","SECT":"二段","MAREA":" ","LANE":"４８２巷","ALLEY":"１１４弄","HOUSE_NO":"１３號","E_COORD97":169159.23999999999,"N_COORD97":2541596.5600000001,"ADDRESS":"大同路二段４８２巷１１４弄１３號","OBJECTID":35391},"geometry":{"x":169159.24000000022,"y":2541596.5600000005}},{"attributes":{"ID":35392,"DIS_CODE":0,"TOWNNAME":"南區","LI":"大林里","LIN":"8鄰","STREET":"大同路","SECT":"二段","MAREA":" ","LANE":"４８２巷","ALLEY":"１１４弄","HOUSE_NO":"１５號","E_COORD97":169156.09,"N_COORD97":2541608.8399999999,"ADDRESS":"大同路二段４８２巷１１４弄１５號","OBJECTID":35392},"geometry":{"x":169156.08999999985,"y":2541608.8400000017}},{"attributes":{"ID":35393,"DIS_CODE":0,"TOWNNAME":"安南區","LI":"溪心里","LIN":"14鄰","STREET":"本原街","SECT":"二段","MAREA":" ","LANE":" ","ALLEY":" ","HOUSE_NO":"４２６號","E_COORD97":166072.37,"N_COORD97":2550577.7000000002,"ADDRESS":"本原街二段４２６號","OBJECTID":35393},"geometry":{"x":166072.37000000104,"y":2550577.6999999993}},{"attributes":{"ID":35394,"DIS_CODE":0,"TOWNNAME":"南區","LI":"大林里","LIN":"8鄰","STREET":"大同路","SECT":"二段","MAREA":" ","LANE":"４８２巷","ALLEY":"１１４弄","HOUSE_NO":"１號","E_COORD97":169157.57000000001,"N_COORD97":2541572.77,"ADDRESS":"大同路二段４８２巷１１４弄１號","OBJECTID":35394},"geometry":{"x":169157.57000000123,"y":2541572.7699999996}},{"attributes":{"ID":35395,"DIS_CODE":0,"TOWNNAME":"南區","LI":"大林里","LIN":"8鄰","STREET":"大同路","SECT":"二段","MAREA":" ","LANE":"４８２巷","ALLEY":"１１４弄","HOUSE_NO":"３號","E_COORD97":169156.89000000001,"N_COORD97":2541578.8799999999,"ADDRESS":"大同路二段４８２巷１１４弄３號","OBJECTID":35395},"geometry":{"x":169156.8900000006,"y":2541578.879999999}},{"attributes":{"ID":35396,"DIS_CODE":0,"TOWNNAME":"南區","LI":"大林里","LIN":"8鄰","STREET":"大同路","SECT":"二段","MAREA":" ","LANE":"４８２巷","ALLEY":"１１４弄","HOUSE_NO":"５號","E_COORD97":169157.14000000001,"N_COORD97":2541584.5699999998,"ADDRESS":"大同路二段４８２巷１１４弄５號","OBJECTID":35396},"geometry":{"x":169157.13999999966,"y":2541584.5700000022}},{"attributes":{"ID":35397,"DIS_CODE":0,"TOWNNAME":"南區","LI":"大林里","LIN":"8鄰","STREET":"大同路","SECT":"二段","MAREA":" ","LANE":"４８２巷","ALLEY":"１１４弄","HOUSE_NO":"７號","E_COORD97":169156.89000000001,"N_COORD97":2541590.25,"ADDRESS":"大同路二段４８２巷１１４弄７號","OBJECTID":35397},"geometry":{"x":169156.8900000006,"y":2541590.25}},{"attributes":{"ID":35398,"DIS_CODE":0,"TOWNNAME":"南區","LI":"大林里","LIN":"8鄰","STREET":"大同路","SECT":"二段","MAREA":" ","LANE":"４８２巷","ALLEY":"１１４弄","HOUSE_NO":"１７號","E_COORD97":169157.20000000001,"N_COORD97":2541615.52,"ADDRESS":"大同路二段４８２巷１１４弄１７號","OBJECTID":35398},"geometry":{"x":169157.20000000112,"y":2541615.5199999996}},{"attributes":{"ID":35399,"DIS_CODE":0,"TOWNNAME":"南區","LI":"大林里","LIN":"8鄰","STREET":"大同路","SECT":"二段","MAREA":" ","LANE":"４８２巷","ALLEY":"１１４弄","HOUSE_NO":"１９號","E_COORD97":169156.45999999999,"N_COORD97":2541619.8999999999,"ADDRESS":"大同路二段４８２巷１１４弄１９號","OBJECTID":35399},"geometry":{"x":169156.46000000089,"y":2541619.9000000004}},{"attributes":{"ID":35400,"DIS_CODE":0,"TOWNNAME":"北區","LI":"大港里","LIN":"8鄰","STREET":"大興街","SECT":" ","MAREA":" ","LANE":"２４６巷","ALLEY":"３８弄","HOUSE_NO":"１０號","E_COORD97":166700.51000000001,"N_COORD97":2545805.8100000001,"ADDRESS":"大興街２４６巷３８弄１０號","OBJECTID":35400},"geometry":{"x":166700.50999999978,"y":2545805.8099999987}}]}