{"displayFieldName":"TOWNNAME","fieldAliases":{"ID":"ID","DIS_CODE":"DIS_CODE","TOWNNAME":"TOWNNAME","LI":"LI","LIN":"LIN","STREET":"STREET","SECT":"SECT","MAREA":"MAREA","LANE":"LANE","ALLEY":"ALLEY","HOUSE_NO":"HOUSE_NO","E_COORD97":"E_COORD97","N_COORD97":"N_COORD97","ADDRESS":"ADDRESS","OBJECTID":"OBJECTID"},"geometryType":"esriGeometryPoint","spatialReference":{"wkid":102443,"latestWkid":3826},"fields":[{"name":"ID","type":"esriFieldTypeDouble","alias":"ID"},{"name":"DIS_CODE","type":"esriFieldTypeInteger","alias":"DIS_CODE"},{"name":"TOWNNAME","type":"esriFieldTypeString","alias":"TOWNNAME","length":8},{"name":"LI","type":"esriFieldTypeString","alias":"LI","length":8},{"name":"LIN","type":"esriFieldTypeString","alias":"LIN","length":12},{"name":"STREET","type":"esriFieldTypeString","alias":"STREET","length":20},{"name":"SECT","type":"esriFieldTypeString","alias":"SECT","length":8},{"name":"MAREA","type":"esriFieldTypeString","alias":"MAREA","length":12},{"name":"LANE","type":"esriFieldTypeString","alias":"LANE","length":10},{"name":"ALLEY","type":"esriFieldTypeString","alias":"ALLEY","length":10},{"name":"HOUSE_NO","type":"esriFieldTypeString","alias":"HOUSE_NO","length":20},{"name":"E_COORD97","type":"esriFieldTypeDouble","alias":"E_COORD97"},{"name":"N_COORD97","type":"esriFieldTypeDouble","alias":"N_COORD97"},{"name":"ADDRESS","type":"esriFieldTypeString","alias":"ADDRESS","length":50},{"name":"OBJECTID","type":"esriFieldTypeOID","alias":"OBJECTID"}],"features":[{"attributes":{"ID":4001,"DIS_CODE":0,"TOWNNAME":"安南區","LI":"東和里","LIN":"7鄰","STREET":"長和路","SECT":"一段","MAREA":" ","LANE":" ","ALLEY":" ","HOUSE_NO":"５６１號","E_COORD97":171224.34242900001,"N_COORD97":2551053.1317199999,"ADDRESS":"長和路一段５６１號","OBJECTID":4001},"geometry":{"x":171224.34242899995,"y":2551053.1317180004}},{"attributes":{"ID":4002,"DIS_CODE":0,"TOWNNAME":"安南區","LI":"東和里","LIN":"7鄰","STREET":"長和路","SECT":"一段","MAREA":" ","LANE":" ","ALLEY":" ","HOUSE_NO":"５５７號","E_COORD97":171234.76722800001,"N_COORD97":2551043.3388299998,"ADDRESS":"長和路一段５５７號","OBJECTID":4002},"geometry":{"x":171234.7672280008,"y":2551043.3388330042}},{"attributes":{"ID":4003,"DIS_CODE":0,"TOWNNAME":"安南區","LI":"東和里","LIN":"7鄰","STREET":"長和路","SECT":"一段","MAREA":" ","LANE":" ","ALLEY":" ","HOUSE_NO":"５５５號","E_COORD97":171237.26918,"N_COORD97":2551039.79672,"ADDRESS":"長和路一段５５５號","OBJECTID":4003},"geometry":{"x":171237.26917999983,"y":2551039.796725003}},{"attributes":{"ID":4004,"DIS_CODE":0,"TOWNNAME":"安南區","LI":"東和里","LIN":"7鄰","STREET":"長和路","SECT":"一段","MAREA":" ","LANE":" ","ALLEY":" ","HOUSE_NO":"５５３號","E_COORD97":171240.60511500001,"N_COORD97":2551036.8796999999,"ADDRESS":"長和路一段５５３號","OBJECTID":4004},"geometry":{"x":171240.60511500016,"y":2551036.8796960004}},{"attributes":{"ID":4005,"DIS_CODE":0,"TOWNNAME":"仁德區","LI":"太子里","LIN":"34鄰","STREET":"太子二街","SECT":" ","MAREA":" ","LANE":" ","ALLEY":" ","HOUSE_NO":"１０號","E_COORD97":174266.7335,"N_COORD97":2543442.2621499998,"ADDRESS":"太子二街１０號","OBJECTID":4005},"geometry":{"x":174266.73349999916,"y":2543442.2621480022}},{"attributes":{"ID":4006,"DIS_CODE":0,"TOWNNAME":"安南區","LI":"城西里","LIN":"3鄰","STREET":"城西街","SECT":"三段","MAREA":" ","LANE":"２巷","ALLEY":" ","HOUSE_NO":"３之１５０號","E_COORD97":157842.99791599999,"N_COORD97":2551279.3785199998,"ADDRESS":"城西街三段２巷３之１５０號","OBJECTID":4006},"geometry":{"x":157842.99791599996,"y":2551279.3785159998}},{"attributes":{"ID":4007,"DIS_CODE":0,"TOWNNAME":"安南區","LI":"東和里","LIN":"7鄰","STREET":"長和路","SECT":"一段","MAREA":" ","LANE":" ","ALLEY":" ","HOUSE_NO":"５５１號","E_COORD97":171244.35804299999,"N_COORD97":2551032.71251,"ADDRESS":"長和路一段５５１號","OBJECTID":4007},"geometry":{"x":171244.3580430001,"y":2551032.7125100009}},{"attributes":{"ID":4008,"DIS_CODE":0,"TOWNNAME":"安南區","LI":"頂安里","LIN":"17鄰","STREET":"安中二街","SECT":" ","MAREA":" ","LANE":"７０巷","ALLEY":" ","HOUSE_NO":"１２號","E_COORD97":168537.805654,"N_COORD97":2548393.1987299998,"ADDRESS":"安中二街７０巷１２號","OBJECTID":4008},"geometry":{"x":168537.80565399956,"y":2548393.1987319998}},{"attributes":{"ID":4009,"DIS_CODE":0,"TOWNNAME":"安南區","LI":"東和里","LIN":"7鄰","STREET":"長和路","SECT":"一段","MAREA":" ","LANE":" ","ALLEY":" ","HOUSE_NO":"５０１號","E_COORD97":171311.91073800001,"N_COORD97":2550958.3282499998,"ADDRESS":"長和路一段５０１號","OBJECTID":4009},"geometry":{"x":171311.91073800065,"y":2550958.3282539994}},{"attributes":{"ID":4010,"DIS_CODE":0,"TOWNNAME":"新市區","LI":"潭頂里","LIN":"7鄰","STREET":" ","SECT":" ","MAREA":"潭頂","LANE":" ","ALLEY":" ","HOUSE_NO":"３０２之１號","E_COORD97":180694.14999999999,"N_COORD97":2552835.25,"ADDRESS":"潭頂３０２之１號","OBJECTID":4010},"geometry":{"x":180694.15000000037,"y":2552835.2500000019}},{"attributes":{"ID":4011,"DIS_CODE":0,"TOWNNAME":"楠西區","LI":"東勢里","LIN":"19鄰","STREET":"水庫路","SECT":" ","MAREA":" ","LANE":" ","ALLEY":" ","HOUSE_NO":"２５７號","E_COORD97":197638.638037,"N_COORD97":2563310.4861499998,"ADDRESS":"水庫路２５７號","OBJECTID":4011},"geometry":{"x":197638.63803699985,"y":2563310.4861540012}},{"attributes":{"ID":4012,"DIS_CODE":0,"TOWNNAME":"安南區","LI":"東和里","LIN":"7鄰","STREET":"長和路","SECT":"一段","MAREA":" ","LANE":" ","ALLEY":" ","HOUSE_NO":"５０３號","E_COORD97":171303.987891,"N_COORD97":2550967.2877000002,"ADDRESS":"長和路一段５０３號","OBJECTID":4012},"geometry":{"x":171303.9878910007,"y":2550967.2877020016}},{"attributes":{"ID":4013,"DIS_CODE":0,"TOWNNAME":"新市區","LI":"潭頂里","LIN":"7鄰","STREET":" ","SECT":" ","MAREA":"潭頂","LANE":" ","ALLEY":" ","HOUSE_NO":"３０２號","E_COORD97":180705.02582899999,"N_COORD97":2552835.5531000001,"ADDRESS":"潭頂３０２號","OBJECTID":4013},"geometry":{"x":180705.02582900133,"y":2552835.5530990008}},{"attributes":{"ID":4014,"DIS_CODE":0,"TOWNNAME":"安南區","LI":"鳳凰里","LIN":"1鄰","STREET":"怡安路","SECT":"二段","MAREA":" ","LANE":" ","ALLEY":" ","HOUSE_NO":"４７號","E_COORD97":168328.27132599999,"N_COORD97":2549250.9498999999,"ADDRESS":"怡安路二段４７號","OBJECTID":4014},"geometry":{"x":168328.27132599894,"y":2549250.9499019999}},{"attributes":{"ID":4015,"DIS_CODE":0,"TOWNNAME":"仁德區","LI":"太子里","LIN":"35鄰","STREET":"太子路","SECT":" ","MAREA":" ","LANE":"４５９巷","ALLEY":" ","HOUSE_NO":"１３號","E_COORD97":174254.87426800001,"N_COORD97":2543461.9471399998,"ADDRESS":"太子路４５９巷１３號","OBJECTID":4015},"geometry":{"x":174254.87426800095,"y":2543461.9471370038}},{"attributes":{"ID":4016,"DIS_CODE":0,"TOWNNAME":"安南區","LI":"東和里","LIN":"7鄰","STREET":"長和路","SECT":"一段","MAREA":" ","LANE":" ","ALLEY":" ","HOUSE_NO":"５０５號","E_COORD97":171300.185818,"N_COORD97":2550970.4731200002,"ADDRESS":"長和路一段５０５號","OBJECTID":4016},"geometry":{"x":171300.18581800163,"y":2550970.4731180016}},{"attributes":{"ID":4017,"DIS_CODE":0,"TOWNNAME":"安南區","LI":"城西里","LIN":"5鄰","STREET":"城西街","SECT":"三段","MAREA":" ","LANE":" ","ALLEY":" ","HOUSE_NO":"６０５之１５號","E_COORD97":156943.51060499999,"N_COORD97":2550772.8604600001,"ADDRESS":"城西街三段６０５之１５號","OBJECTID":4017},"geometry":{"x":156943.51060500182,"y":2550772.860456001}},{"attributes":{"ID":4018,"DIS_CODE":0,"TOWNNAME":"安南區","LI":"東和里","LIN":"7鄰","STREET":"長和路","SECT":"一段","MAREA":" ","LANE":" ","ALLEY":" ","HOUSE_NO":"５０７號","E_COORD97":171296.58512599999,"N_COORD97":2550974.2831199998,"ADDRESS":"長和路一段５０７號","OBJECTID":4018},"geometry":{"x":171296.58512600046,"y":2550974.2831160016}},{"attributes":{"ID":4019,"DIS_CODE":0,"TOWNNAME":"歸仁區","LI":"歸仁里","LIN":"20鄰","STREET":"文化街","SECT":"一段","MAREA":" ","LANE":" ","ALLEY":" ","HOUSE_NO":"９７號","E_COORD97":178030.041772,"N_COORD97":2541138.47016,"ADDRESS":"文化街一段９７號","OBJECTID":4019},"geometry":{"x":178030.04177199863,"y":2541138.4701600019}},{"attributes":{"ID":4020,"DIS_CODE":0,"TOWNNAME":"安南區","LI":"頂安里","LIN":"17鄰","STREET":"安中二街","SECT":" ","MAREA":" ","LANE":"５６巷","ALLEY":" ","HOUSE_NO":"１０號","E_COORD97":168542.68756600001,"N_COORD97":2548353.9652100001,"ADDRESS":"安中二街５６巷１０號","OBJECTID":4020},"geometry":{"x":168542.6875660019,"y":2548353.9652079996}},{"attributes":{"ID":4021,"DIS_CODE":0,"TOWNNAME":"安南區","LI":"鳳凰里","LIN":"2鄰","STREET":"怡安路","SECT":"二段","MAREA":" ","LANE":"５９巷","ALLEY":" ","HOUSE_NO":"１３號","E_COORD97":168302.863361,"N_COORD97":2549209.25159,"ADDRESS":"怡安路二段５９巷１３號","OBJECTID":4021},"geometry":{"x":168302.86336100101,"y":2549209.2515909988}},{"attributes":{"ID":4022,"DIS_CODE":0,"TOWNNAME":"安南區","LI":"鳳凰里","LIN":"2鄰","STREET":"怡安路","SECT":"二段","MAREA":" ","LANE":"５９巷","ALLEY":" ","HOUSE_NO":"１１號","E_COORD97":168296.723103,"N_COORD97":2549210.7332600001,"ADDRESS":"怡安路二段５９巷１１號","OBJECTID":4022},"geometry":{"x":168296.72310299985,"y":2549210.7332570013}},{"attributes":{"ID":4023,"DIS_CODE":0,"TOWNNAME":"安南區","LI":"東和里","LIN":"7鄰","STREET":"長和路","SECT":"一段","MAREA":" ","LANE":" ","ALLEY":" ","HOUSE_NO":"５０９號","E_COORD97":171293.19623900001,"N_COORD97":2550978.0931099998,"ADDRESS":"長和路一段５０９號","OBJECTID":4023},"geometry":{"x":171293.19623900205,"y":2550978.0931139998}},{"attributes":{"ID":4024,"DIS_CODE":0,"TOWNNAME":"下營區","LI":"新興里","LIN":"19鄰","STREET":"慈惠街","SECT":" ","MAREA":" ","LANE":" ","ALLEY":" ","HOUSE_NO":"１０２號","E_COORD97":175003.474212,"N_COORD97":2570612.0432600002,"ADDRESS":"慈惠街１０２號","OBJECTID":4024},"geometry":{"x":175003.47421200108,"y":2570612.043262003}},{"attributes":{"ID":4025,"DIS_CODE":0,"TOWNNAME":"安南區","LI":"鳳凰里","LIN":"2鄰","STREET":"怡安路","SECT":"二段","MAREA":" ","LANE":"５９巷","ALLEY":" ","HOUSE_NO":"７號","E_COORD97":168285.92471799999,"N_COORD97":2549212.8499199999,"ADDRESS":"怡安路二段５９巷７號","OBJECTID":4025},"geometry":{"x":168285.92471800093,"y":2549212.8499220032}},{"attributes":{"ID":4026,"DIS_CODE":0,"TOWNNAME":"安南區","LI":"頂安里","LIN":"17鄰","STREET":"安中二街","SECT":" ","MAREA":" ","LANE":"５６巷","ALLEY":" ","HOUSE_NO":"２０號","E_COORD97":168559.547731,"N_COORD97":2548355.4449100001,"ADDRESS":"安中二街５６巷２０號","OBJECTID":4026},"geometry":{"x":168559.54773100093,"y":2548355.4449090008}},{"attributes":{"ID":4027,"DIS_CODE":0,"TOWNNAME":"安南區","LI":"東和里","LIN":"7鄰","STREET":"長和路","SECT":"一段","MAREA":" ","LANE":" ","ALLEY":" ","HOUSE_NO":"５１１號","E_COORD97":171290.23096300001,"N_COORD97":2550981.9031099998,"ADDRESS":"長和路一段５１１號","OBJECTID":4027},"geometry":{"x":171290.2309630001,"y":2550981.9031119999}},{"attributes":{"ID":4028,"DIS_CODE":0,"TOWNNAME":"安南區","LI":"東和里","LIN":"7鄰","STREET":"長和路","SECT":"一段","MAREA":" ","LANE":" ","ALLEY":" ","HOUSE_NO":"５１３號","E_COORD97":171287.053881,"N_COORD97":2550985.5014399998,"ADDRESS":"長和路一段５１３號","OBJECTID":4028},"geometry":{"x":171287.05388100073,"y":2550985.5014430024}},{"attributes":{"ID":4029,"DIS_CODE":0,"TOWNNAME":"安南區","LI":"鳳凰里","LIN":"1鄰","STREET":"北安路","SECT":"三段","MAREA":" ","LANE":" ","ALLEY":" ","HOUSE_NO":"１８３號","E_COORD97":168319.590272,"N_COORD97":2549146.38662,"ADDRESS":"北安路三段１８３號","OBJECTID":4029},"geometry":{"x":168319.59027200006,"y":2549146.3866250012}},{"attributes":{"ID":4030,"DIS_CODE":0,"TOWNNAME":"安南區","LI":"東和里","LIN":"7鄰","STREET":"長和路","SECT":"一段","MAREA":" ","LANE":" ","ALLEY":" ","HOUSE_NO":"５１５號","E_COORD97":171282.60596700001,"N_COORD97":2550989.52311,"ADDRESS":"長和路一段５１５號","OBJECTID":4030},"geometry":{"x":171282.60596700013,"y":2550989.5231080018}},{"attributes":{"ID":4031,"DIS_CODE":0,"TOWNNAME":"安南區","LI":"鳳凰里","LIN":"1鄰","STREET":"北安路","SECT":"三段","MAREA":" ","LANE":" ","ALLEY":" ","HOUSE_NO":"１８７號","E_COORD97":168321.70760200001,"N_COORD97":2549155.4882899998,"ADDRESS":"北安路三段１８７號","OBJECTID":4031},"geometry":{"x":168321.7076020008,"y":2549155.4882870018}},{"attributes":{"ID":4032,"DIS_CODE":0,"TOWNNAME":"安南區","LI":"東和里","LIN":"7鄰","STREET":"長和路","SECT":"一段","MAREA":" ","LANE":" ","ALLEY":" ","HOUSE_NO":"５１７號","E_COORD97":171279.85249600001,"N_COORD97":2550992.27477,"ADDRESS":"長和路一段５１７號","OBJECTID":4032},"geometry":{"x":171279.85249600001,"y":2550992.2747729998}},{"attributes":{"ID":4033,"DIS_CODE":0,"TOWNNAME":"新市區","LI":"潭頂里","LIN":"12鄰","STREET":" ","SECT":" ","MAREA":"潭頂","LANE":" ","ALLEY":" ","HOUSE_NO":"４１６號","E_COORD97":180401.057787,"N_COORD97":2553312.54367,"ADDRESS":"潭頂４１６號","OBJECTID":4033},"geometry":{"x":180401.05778700113,"y":2553312.5436749998}},{"attributes":{"ID":4034,"DIS_CODE":0,"TOWNNAME":"楠西區","LI":"灣丘里","LIN":"17鄰","STREET":" ","SECT":" ","MAREA":"鳳興","LANE":" ","ALLEY":" ","HOUSE_NO":"５９之５號","E_COORD97":200357.382858,"N_COORD97":2562367.6175000002,"ADDRESS":"鳳興５９之５號","OBJECTID":4034},"geometry":{"x":200357.38285799976,"y":2562367.6174970008}},{"attributes":{"ID":4035,"DIS_CODE":0,"TOWNNAME":"安南區","LI":"頂安里","LIN":"17鄰","STREET":"安中二街","SECT":" ","MAREA":" ","LANE":"５６巷","ALLEY":" ","HOUSE_NO":"２１號","E_COORD97":168565.04132399999,"N_COORD97":2548379.7755100001,"ADDRESS":"安中二街５６巷２１號","OBJECTID":4035},"geometry":{"x":168565.04132399987,"y":2548379.7755130026}},{"attributes":{"ID":4036,"DIS_CODE":0,"TOWNNAME":"安南區","LI":"東和里","LIN":"7鄰","STREET":"長和路","SECT":"一段","MAREA":" ","LANE":" ","ALLEY":" ","HOUSE_NO":"５２１號","E_COORD97":171272.22750099999,"N_COORD97":2550999.47144,"ADDRESS":"長和路一段５２１號","OBJECTID":4036},"geometry":{"x":171272.22750100121,"y":2550999.4714359995}},{"attributes":{"ID":4037,"DIS_CODE":0,"TOWNNAME":"仁德區","LI":"太子里","LIN":"36鄰","STREET":"長興一街","SECT":" ","MAREA":" ","LANE":" ","ALLEY":" ","HOUSE_NO":"１０６號","E_COORD97":174290.02841999999,"N_COORD97":2543877.9777500001,"ADDRESS":"長興一街１０６號","OBJECTID":4037},"geometry":{"x":174290.02842000127,"y":2543877.9777460005}},{"attributes":{"ID":4038,"DIS_CODE":0,"TOWNNAME":"安南區","LI":"鳳凰里","LIN":"1鄰","STREET":"北安路","SECT":"三段","MAREA":" ","LANE":" ","ALLEY":" ","HOUSE_NO":"２１１號","E_COORD97":168333.98811899999,"N_COORD97":2549209.0399199999,"ADDRESS":"北安路三段２１１號","OBJECTID":4038},"geometry":{"x":168333.98811899964,"y":2549209.0399239995}},{"attributes":{"ID":4039,"DIS_CODE":0,"TOWNNAME":"安南區","LI":"東和里","LIN":"7鄰","STREET":"長和路","SECT":"一段","MAREA":" ","LANE":" ","ALLEY":" ","HOUSE_NO":"５６７號","E_COORD97":171215.79409400001,"N_COORD97":2551063.5496800002,"ADDRESS":"長和路一段５６７號","OBJECTID":4039},"geometry":{"x":171215.79409400094,"y":2551063.5496810004}},{"attributes":{"ID":4040,"DIS_CODE":0,"TOWNNAME":"下營區","LI":"後街里","LIN":"12鄰","STREET":"中正北路","SECT":" ","MAREA":" ","LANE":" ","ALLEY":" ","HOUSE_NO":"９６號","E_COORD97":174488.986492,"N_COORD97":2570689.5757800001,"ADDRESS":"中正北路９６號","OBJECTID":4040},"geometry":{"x":174488.98649199959,"y":2570689.5757849999}},{"attributes":{"ID":4041,"DIS_CODE":0,"TOWNNAME":"安南區","LI":"東和里","LIN":"7鄰","STREET":"長和路","SECT":"一段","MAREA":" ","LANE":" ","ALLEY":" ","HOUSE_NO":"５１９號","E_COORD97":171276.039999,"N_COORD97":2550995.0264400002,"ADDRESS":"長和路一段５１９號","OBJECTID":4041},"geometry":{"x":171276.03999900073,"y":2550995.0264379997}},{"attributes":{"ID":4042,"DIS_CODE":0,"TOWNNAME":"安南區","LI":"東和里","LIN":"7鄰","STREET":"長和路","SECT":"一段","MAREA":" ","LANE":" ","ALLEY":" ","HOUSE_NO":"５２３號","E_COORD97":171268.83861400001,"N_COORD97":2551003.9164300002,"ADDRESS":"長和路一段５２３號","OBJECTID":4042},"geometry":{"x":171268.83861400001,"y":2551003.9164329991}},{"attributes":{"ID":4043,"DIS_CODE":0,"TOWNNAME":"安南區","LI":"鳳凰里","LIN":"1鄰","STREET":"北安路","SECT":"三段","MAREA":" ","LANE":" ","ALLEY":" ","HOUSE_NO":"２０７號","E_COORD97":168332.29425400001,"N_COORD97":2549199.7266000002,"ADDRESS":"北安路三段２０７號","OBJECTID":4043},"geometry":{"x":168332.29425400216,"y":2549199.7265960015}},{"attributes":{"ID":4044,"DIS_CODE":0,"TOWNNAME":"安南區","LI":"學東里","LIN":"14鄰","STREET":"公學路","SECT":"七段","MAREA":" ","LANE":"９７巷","ALLEY":" ","HOUSE_NO":"４４號之１","E_COORD97":161723.122646,"N_COORD97":2553290.6340999999,"ADDRESS":"公學路七段９７巷４４號之１","OBJECTID":4044},"geometry":{"x":161723.12264600117,"y":2553290.6340960003}},{"attributes":{"ID":4045,"DIS_CODE":0,"TOWNNAME":"安南區","LI":"鳳凰里","LIN":"1鄰","STREET":"北安路","SECT":"三段","MAREA":" ","LANE":" ","ALLEY":" ","HOUSE_NO":"２０５號","E_COORD97":168331.659055,"N_COORD97":2549195.70493,"ADDRESS":"北安路三段２０５號","OBJECTID":4045},"geometry":{"x":168331.65905500203,"y":2549195.7049320005}},{"attributes":{"ID":4046,"DIS_CODE":0,"TOWNNAME":"安南區","LI":"鳳凰里","LIN":"1鄰","STREET":"北安路","SECT":"三段","MAREA":" ","LANE":" ","ALLEY":" ","HOUSE_NO":"２０１號","E_COORD97":168329.54172499999,"N_COORD97":2549186.3916000002,"ADDRESS":"北安路三段２０１號","OBJECTID":4046},"geometry":{"x":168329.5417250013,"y":2549186.3916029986}},{"attributes":{"ID":4047,"DIS_CODE":0,"TOWNNAME":"安南區","LI":"東和里","LIN":"7鄰","STREET":"長和路","SECT":"一段","MAREA":" ","LANE":" ","ALLEY":" ","HOUSE_NO":"５２５號","E_COORD97":171261.42542399999,"N_COORD97":2551012.3831000002,"ADDRESS":"長和路一段５２５號","OBJECTID":4047},"geometry":{"x":171261.42542400025,"y":2551012.3830960039}},{"attributes":{"ID":4048,"DIS_CODE":0,"TOWNNAME":"安南區","LI":"頂安里","LIN":"17鄰","STREET":"北安一街","SECT":" ","MAREA":" ","LANE":" ","ALLEY":" ","HOUSE_NO":"２號","E_COORD97":168611.11743700001,"N_COORD97":2548304.3387699998,"ADDRESS":"北安一街２號","OBJECTID":4048},"geometry":{"x":168611.11743700039,"y":2548304.3387720007}},{"attributes":{"ID":4049,"DIS_CODE":0,"TOWNNAME":"安南區","LI":"東和里","LIN":"7鄰","STREET":"長和路","SECT":"一段","MAREA":" ","LANE":" ","ALLEY":" ","HOUSE_NO":"５２９號","E_COORD97":171251.682374,"N_COORD97":2551024.0247599999,"ADDRESS":"長和路一段５２９號","OBJECTID":4049},"geometry":{"x":171251.68237400055,"y":2551024.0247559976}},{"attributes":{"ID":4050,"DIS_CODE":0,"TOWNNAME":"新市區","LI":"潭頂里","LIN":"14鄰","STREET":" ","SECT":" ","MAREA":"潭頂","LANE":" ","ALLEY":" ","HOUSE_NO":"５４０之３號","E_COORD97":180131.690531,"N_COORD97":2552850.5285100001,"ADDRESS":"潭頂５４０之３號","OBJECTID":4050},"geometry":{"x":180131.69053099956,"y":2552850.5285080019}},{"attributes":{"ID":4051,"DIS_CODE":0,"TOWNNAME":"安南區","LI":"鳳凰里","LIN":"1鄰","STREET":"北安路","SECT":"三段","MAREA":" ","LANE":" ","ALLEY":" ","HOUSE_NO":"１５１號","E_COORD97":168295.18132500001,"N_COORD97":2549049.6152599999,"ADDRESS":"北安路三段１５１號","OBJECTID":4051},"geometry":{"x":168295.18132499978,"y":2549049.6152580045}},{"attributes":{"ID":4052,"DIS_CODE":0,"TOWNNAME":"下營區","LI":"新興里","LIN":"15鄰","STREET":"寮前二街","SECT":" ","MAREA":" ","LANE":"３９巷","ALLEY":" ","HOUSE_NO":"１號","E_COORD97":175211.74562100001,"N_COORD97":2570433.2810900002,"ADDRESS":"寮前二街３９巷１號","OBJECTID":4052},"geometry":{"x":175211.74562100135,"y":2570433.2810890023}},{"attributes":{"ID":4053,"DIS_CODE":0,"TOWNNAME":"安南區","LI":"鳳凰里","LIN":"1鄰","STREET":"北安路","SECT":"三段","MAREA":" ","LANE":" ","ALLEY":" ","HOUSE_NO":"１３５號","E_COORD97":168287.40684899999,"N_COORD97":2549009.2267,"ADDRESS":"北安路三段１３５號","OBJECTID":4053},"geometry":{"x":168287.40684899967,"y":2549009.2266990021}},{"attributes":{"ID":4054,"DIS_CODE":0,"TOWNNAME":"安南區","LI":"東和里","LIN":"7鄰","STREET":"館前二路","SECT":" ","MAREA":" ","LANE":" ","ALLEY":" ","HOUSE_NO":"１號","E_COORD97":171153.40465300001,"N_COORD97":2551094.0863899998,"ADDRESS":"館前二路１號","OBJECTID":4054},"geometry":{"x":171153.40465299971,"y":2551094.0863850005}},{"attributes":{"ID":4055,"DIS_CODE":0,"TOWNNAME":"安南區","LI":"東和里","LIN":"7鄰","STREET":"館前二路","SECT":" ","MAREA":" ","LANE":" ","ALLEY":" ","HOUSE_NO":"３號","E_COORD97":171147.05048999999,"N_COORD97":2551090.0647200001,"ADDRESS":"館前二路３號","OBJECTID":4055},"geometry":{"x":171147.05049000122,"y":2551090.0647200011}},{"attributes":{"ID":4056,"DIS_CODE":0,"TOWNNAME":"安南區","LI":"鳳凰里","LIN":"1鄰","STREET":"北安路","SECT":"三段","MAREA":" ","LANE":" ","ALLEY":" ","HOUSE_NO":"５１號","E_COORD97":168261.72750400001,"N_COORD97":2548970.4519699998,"ADDRESS":"北安路三段５１號","OBJECTID":4056},"geometry":{"x":168261.727504001,"y":2548970.4519679993}},{"attributes":{"ID":4057,"DIS_CODE":0,"TOWNNAME":"安南區","LI":"東和里","LIN":"7鄰","STREET":"館前二路","SECT":" ","MAREA":" ","LANE":" ","ALLEY":" ","HOUSE_NO":"５號","E_COORD97":171142.602576,"N_COORD97":2551086.2547200001,"ADDRESS":"館前二路５號","OBJECTID":4057},"geometry":{"x":171142.60257600062,"y":2551086.254722001}},{"attributes":{"ID":4058,"DIS_CODE":0,"TOWNNAME":"安南區","LI":"東和里","LIN":"7鄰","STREET":"館前二路","SECT":" ","MAREA":" ","LANE":" ","ALLEY":" ","HOUSE_NO":"７號","E_COORD97":171137.30744,"N_COORD97":2551080.7513899999,"ADDRESS":"館前二路７號","OBJECTID":4058},"geometry":{"x":171137.30743999965,"y":2551080.7513919994}},{"attributes":{"ID":4059,"DIS_CODE":0,"TOWNNAME":"安南區","LI":"學東里","LIN":"14鄰","STREET":"公學路","SECT":"七段","MAREA":" ","LANE":"９７巷","ALLEY":" ","HOUSE_NO":"４２之１號","E_COORD97":161725.770689,"N_COORD97":2553293.2799300002,"ADDRESS":"公學路七段９７巷４２之１號","OBJECTID":4059},"geometry":{"x":161725.77068900038,"y":2553293.2799280006}},{"attributes":{"ID":4060,"DIS_CODE":0,"TOWNNAME":"新市區","LI":"潭頂里","LIN":"2鄰","STREET":" ","SECT":" ","MAREA":"潭頂","LANE":" ","ALLEY":" ","HOUSE_NO":"５７號","E_COORD97":181307.03186300001,"N_COORD97":2552972.81886,"ADDRESS":"潭頂５７號","OBJECTID":4060},"geometry":{"x":181307.03186300118,"y":2552972.8188579995}},{"attributes":{"ID":4061,"DIS_CODE":0,"TOWNNAME":"安南區","LI":"東和里","LIN":"7鄰","STREET":"館前二路","SECT":" ","MAREA":" ","LANE":" ","ALLEY":" ","HOUSE_NO":"９號","E_COORD97":171132.012304,"N_COORD97":2551075.8830599999,"ADDRESS":"館前二路９號","OBJECTID":4061},"geometry":{"x":171132.01230400056,"y":2551075.8830610011}},{"attributes":{"ID":4062,"DIS_CODE":0,"TOWNNAME":"安南區","LI":"東和里","LIN":"7鄰","STREET":"館前二路","SECT":" ","MAREA":" ","LANE":" ","ALLEY":" ","HOUSE_NO":"１１號","E_COORD97":171127.35258499999,"N_COORD97":2551071.2264,"ADDRESS":"館前二路１１號","OBJECTID":4062},"geometry":{"x":171127.35258500092,"y":2551071.2263970003}},{"attributes":{"ID":4063,"DIS_CODE":0,"TOWNNAME":"歸仁區","LI":"歸仁里","LIN":"20鄰","STREET":"大仁二街","SECT":" ","MAREA":" ","LANE":" ","ALLEY":" ","HOUSE_NO":"２２之１號","E_COORD97":178137.083992,"N_COORD97":2541088.4786800002,"ADDRESS":"大仁二街２２之１號","OBJECTID":4063},"geometry":{"x":178137.08399200067,"y":2541088.4786840007}},{"attributes":{"ID":4064,"DIS_CODE":0,"TOWNNAME":"下營區","LI":"茅港里","LIN":"8鄰","STREET":" ","SECT":" ","MAREA":"茅港尾","LANE":" ","ALLEY":" ","HOUSE_NO":"２６８號","E_COORD97":176467.16924300001,"N_COORD97":2568360.9140499998,"ADDRESS":"茅港尾２６８號","OBJECTID":4064},"geometry":{"x":176467.16924300231,"y":2568360.914048003}},{"attributes":{"ID":4065,"DIS_CODE":0,"TOWNNAME":"安南區","LI":"頂安里","LIN":"17鄰","STREET":"安中二街","SECT":" ","MAREA":" ","LANE":"３２巷","ALLEY":" ","HOUSE_NO":"１號","E_COORD97":168536.08054900001,"N_COORD97":2548337.74199,"ADDRESS":"安中二街３２巷１號","OBJECTID":4065},"geometry":{"x":168536.08054900169,"y":2548337.741985999}},{"attributes":{"ID":4066,"DIS_CODE":0,"TOWNNAME":"安南區","LI":"頂安里","LIN":"17鄰","STREET":"安中二街","SECT":" ","MAREA":" ","LANE":" ","ALLEY":" ","HOUSE_NO":"３號","E_COORD97":168541.16745899999,"N_COORD97":2548337.95365,"ADDRESS":"安中二街３號","OBJECTID":4066},"geometry":{"x":168541.16745900083,"y":2548337.9536520019}},{"attributes":{"ID":4067,"DIS_CODE":0,"TOWNNAME":"安南區","LI":"頂安里","LIN":"17鄰","STREET":"安中二街","SECT":" ","MAREA":" ","LANE":"３２巷","ALLEY":" ","HOUSE_NO":"５號","E_COORD97":168544.558732,"N_COORD97":2548338.1653200001,"ADDRESS":"安中二街３２巷５號","OBJECTID":4067},"geometry":{"x":168544.55873200018,"y":2548338.1653190013}},{"attributes":{"ID":4068,"DIS_CODE":0,"TOWNNAME":"安南區","LI":"頂安里","LIN":"17鄰","STREET":"安中二街","SECT":" ","MAREA":" ","LANE":"３２巷","ALLEY":" ","HOUSE_NO":"７號","E_COORD97":168549.00977800001,"N_COORD97":2548338.5886499998,"ADDRESS":"安中二街３２巷７號","OBJECTID":4068},"geometry":{"x":168549.00977800041,"y":2548338.5886519998}},{"attributes":{"ID":4069,"DIS_CODE":0,"TOWNNAME":"安南區","LI":"頂安里","LIN":"17鄰","STREET":"安中二街","SECT":" ","MAREA":" ","LANE":"３２巷","ALLEY":" ","HOUSE_NO":"９號","E_COORD97":168552.18909699999,"N_COORD97":2548339.01199,"ADDRESS":"安中二街３２巷９號","OBJECTID":4069},"geometry":{"x":168552.18909700215,"y":2548339.0119849984}},{"attributes":{"ID":4070,"DIS_CODE":0,"TOWNNAME":"安南區","LI":"頂安里","LIN":"17鄰","STREET":"安中二街","SECT":" ","MAREA":" ","LANE":"３２巷","ALLEY":" ","HOUSE_NO":"１１號","E_COORD97":168556.42818799999,"N_COORD97":2548339.4353200002,"ADDRESS":"安中二街３２巷１１號","OBJECTID":4070},"geometry":{"x":168556.42818799987,"y":2548339.4353180025}},{"attributes":{"ID":4071,"DIS_CODE":0,"TOWNNAME":"安南區","LI":"頂安里","LIN":"17鄰","STREET":"安中二街","SECT":" ","MAREA":" ","LANE":"３２巷","ALLEY":" ","HOUSE_NO":"１３號","E_COORD97":168560.87923399999,"N_COORD97":2548339.2236500001,"ADDRESS":"安中二街３２巷１３號","OBJECTID":4071},"geometry":{"x":168560.87923399918,"y":2548339.2236519996}},{"attributes":{"ID":4072,"DIS_CODE":0,"TOWNNAME":"安南區","LI":"頂安里","LIN":"17鄰","STREET":"安中二街","SECT":" ","MAREA":" ","LANE":"３２巷","ALLEY":" ","HOUSE_NO":"１５號","E_COORD97":168564.69441600001,"N_COORD97":2548339.6469899998,"ADDRESS":"安中二街３２巷１５號","OBJECTID":4072},"geometry":{"x":168564.69441600051,"y":2548339.6469850037}},{"attributes":{"ID":4073,"DIS_CODE":0,"TOWNNAME":"安南區","LI":"頂安里","LIN":"17鄰","STREET":"安中二街","SECT":" ","MAREA":" ","LANE":"３２巷","ALLEY":" ","HOUSE_NO":"１７號","E_COORD97":168569.35741699999,"N_COORD97":2548340.4936500001,"ADDRESS":"安中二街３２巷１７號","OBJECTID":4073},"geometry":{"x":168569.35741700139,"y":2548340.4936510008}},{"attributes":{"ID":4074,"DIS_CODE":0,"TOWNNAME":"安南區","LI":"頂安里","LIN":"17鄰","STREET":"安中二街","SECT":" ","MAREA":" ","LANE":"３２巷","ALLEY":" ","HOUSE_NO":"２１號","E_COORD97":168577.62364500001,"N_COORD97":2548341.9753200002,"ADDRESS":"安中二街３２巷２１號","OBJECTID":4074},"geometry":{"x":168577.62364500016,"y":2548341.9753170013}},{"attributes":{"ID":4075,"DIS_CODE":0,"TOWNNAME":"安南區","LI":"頂安里","LIN":"17鄰","STREET":"安中二街","SECT":" ","MAREA":" ","LANE":"３２巷","ALLEY":" ","HOUSE_NO":"２３號","E_COORD97":168581.65078200001,"N_COORD97":2548341.9753200002,"ADDRESS":"安中二街３２巷２３號","OBJECTID":4075},"geometry":{"x":168581.6507820012,"y":2548341.9753170013}},{"attributes":{"ID":4076,"DIS_CODE":0,"TOWNNAME":"安南區","LI":"頂安里","LIN":"17鄰","STREET":"安中二街","SECT":" ","MAREA":" ","LANE":"３２巷","ALLEY":" ","HOUSE_NO":"２５之１號","E_COORD97":168586.25683599999,"N_COORD97":2548341.2233000002,"ADDRESS":"安中二街３２巷２５之１號","OBJECTID":4076},"geometry":{"x":168586.25683600176,"y":2548341.2233000007}},{"attributes":{"ID":4077,"DIS_CODE":0,"TOWNNAME":"安南區","LI":"頂安里","LIN":"17鄰","STREET":"安中二街","SECT":" ","MAREA":" ","LANE":"３２巷","ALLEY":" ","HOUSE_NO":"２７號","E_COORD97":168589.49310200001,"N_COORD97":2548342.61032,"ADDRESS":"安中二街３２巷２７號","OBJECTID":4077},"geometry":{"x":168589.49310200009,"y":2548342.6103160027}},{"attributes":{"ID":4078,"DIS_CODE":0,"TOWNNAME":"安南區","LI":"頂安里","LIN":"17鄰","STREET":"安中二街","SECT":" ","MAREA":" ","LANE":"３２巷","ALLEY":" ","HOUSE_NO":"２９號","E_COORD97":168593.732193,"N_COORD97":2548343.0336500001,"ADDRESS":"安中二街３２巷２９號","OBJECTID":4078},"geometry":{"x":168593.73219300061,"y":2548343.0336490013}},{"attributes":{"ID":4079,"DIS_CODE":0,"TOWNNAME":"安南區","LI":"頂安里","LIN":"17鄰","STREET":"安中二街","SECT":" ","MAREA":" ","LANE":"３２巷","ALLEY":" ","HOUSE_NO":"３１號","E_COORD97":168598.81910299999,"N_COORD97":2548343.4569799998,"ADDRESS":"安中二街３２巷３１號","OBJECTID":4079},"geometry":{"x":168598.81910299975,"y":2548343.4569830019}},{"attributes":{"ID":4080,"DIS_CODE":0,"TOWNNAME":"安南區","LI":"頂安里","LIN":"17鄰","STREET":"安中二街","SECT":" ","MAREA":" ","LANE":"７０巷","ALLEY":" ","HOUSE_NO":"１５號","E_COORD97":168538.94341199999,"N_COORD97":2548417.3103299998,"ADDRESS":"安中二街７０巷１５號","OBJECTID":4080},"geometry":{"x":168538.94341200031,"y":2548417.3103320003}},{"attributes":{"ID":4081,"DIS_CODE":0,"TOWNNAME":"安南區","LI":"頂安里","LIN":"17鄰","STREET":"安中二街","SECT":" ","MAREA":" ","LANE":"７０巷","ALLEY":" ","HOUSE_NO":"２７號","E_COORD97":168564.329252,"N_COORD97":2548418.7032599999,"ADDRESS":"安中二街７０巷２７號","OBJECTID":4081},"geometry":{"x":168564.3292520009,"y":2548418.7032630015}},{"attributes":{"ID":4082,"DIS_CODE":0,"TOWNNAME":"安南區","LI":"頂安里","LIN":"17鄰","STREET":"安中二街","SECT":" ","MAREA":" ","LANE":"７０巷","ALLEY":" ","HOUSE_NO":"２８號","E_COORD97":168562.09753,"N_COORD97":2548396.4860100001,"ADDRESS":"安中二街７０巷２８號","OBJECTID":4082},"geometry":{"x":168562.09752999991,"y":2548396.4860130008}},{"attributes":{"ID":4083,"DIS_CODE":0,"TOWNNAME":"善化區","LI":"小新里","LIN":"7鄰","STREET":"成功路","SECT":" ","MAREA":" ","LANE":"１６９巷","ALLEY":"９６弄","HOUSE_NO":"１７６號","E_COORD97":179629.760545,"N_COORD97":2558637.60354,"ADDRESS":"成功路１６９巷９６弄１７６號","OBJECTID":4083},"geometry":{"x":179629.76054500137,"y":2558637.6035430003}},{"attributes":{"ID":4084,"DIS_CODE":0,"TOWNNAME":"善化區","LI":"小新里","LIN":"7鄰","STREET":"成功路","SECT":" ","MAREA":" ","LANE":"１６９巷","ALLEY":"９６弄","HOUSE_NO":"１９２號","E_COORD97":179663.01516099999,"N_COORD97":2558626.4910499998,"ADDRESS":"成功路１６９巷９６弄１９２號","OBJECTID":4084},"geometry":{"x":179663.01516100019,"y":2558626.491049001}},{"attributes":{"ID":4085,"DIS_CODE":0,"TOWNNAME":"善化區","LI":"小新里","LIN":"7鄰","STREET":"成功路","SECT":" ","MAREA":" ","LANE":"１６９巷","ALLEY":"９６弄","HOUSE_NO":"２００號","E_COORD97":179647.023292,"N_COORD97":2558610.1927299998,"ADDRESS":"成功路１６９巷９６弄２００號","OBJECTID":4085},"geometry":{"x":179647.02329200134,"y":2558610.192724999}},{"attributes":{"ID":4086,"DIS_CODE":0,"TOWNNAME":"安南區","LI":"頂安里","LIN":"17鄰","STREET":"北安一街","SECT":" ","MAREA":" ","LANE":" ","ALLEY":" ","HOUSE_NO":"６號","E_COORD97":168604.50025300001,"N_COORD97":2548304.2739800001,"ADDRESS":"北安一街６號","OBJECTID":4086},"geometry":{"x":168604.50025300123,"y":2548304.2739809975}},{"attributes":{"ID":4087,"DIS_CODE":0,"TOWNNAME":"安南區","LI":"頂安里","LIN":"17鄰","STREET":"北安一街","SECT":" ","MAREA":" ","LANE":" ","ALLEY":" ","HOUSE_NO":"８號","E_COORD97":168597.80508600001,"N_COORD97":2548302.88105,"ADDRESS":"北安一街８號","OBJECTID":4087},"geometry":{"x":168597.80508600175,"y":2548302.8810500018}},{"attributes":{"ID":4088,"DIS_CODE":0,"TOWNNAME":"善化區","LI":"小新里","LIN":"22鄰","STREET":" ","SECT":" ","MAREA":"小新營","LANE":" ","ALLEY":" ","HOUSE_NO":"２５５號","E_COORD97":180395.41024699999,"N_COORD97":2558758.6663799998,"ADDRESS":"小新營２５５號","OBJECTID":4088},"geometry":{"x":180395.41024700087,"y":2558758.6663819999}},{"attributes":{"ID":4089,"DIS_CODE":0,"TOWNNAME":"安南區","LI":"頂安里","LIN":"17鄰","STREET":"北安一街","SECT":" ","MAREA":" ","LANE":" ","ALLEY":" ","HOUSE_NO":"１０號","E_COORD97":168590.551989,"N_COORD97":2548302.6024600002,"ADDRESS":"北安一街１０號","OBJECTID":4089},"geometry":{"x":168590.55198900029,"y":2548302.6024639998}},{"attributes":{"ID":4090,"DIS_CODE":0,"TOWNNAME":"安南區","LI":"頂安里","LIN":"17鄰","STREET":"北安一街","SECT":" ","MAREA":" ","LANE":" ","ALLEY":" ","HOUSE_NO":"１２號","E_COORD97":168585.53061399999,"N_COORD97":2548301.7667,"ADDRESS":"北安一街１２號","OBJECTID":4090},"geometry":{"x":168585.53061399888,"y":2548301.7667049989}},{"attributes":{"ID":4091,"DIS_CODE":0,"TOWNNAME":"安南區","LI":"頂安里","LIN":"17鄰","STREET":"北安一街","SECT":" ","MAREA":" ","LANE":" ","ALLEY":" ","HOUSE_NO":"１６號","E_COORD97":168579.67234300001,"N_COORD97":2548300.93095,"ADDRESS":"北安一街１６號","OBJECTID":4091},"geometry":{"x":168579.67234300077,"y":2548300.9309460018}},{"attributes":{"ID":4092,"DIS_CODE":0,"TOWNNAME":"新市區","LI":"新和里","LIN":"23鄰","STREET":"銘傳街","SECT":" ","MAREA":" ","LANE":" ","ALLEY":" ","HOUSE_NO":"７２號","E_COORD97":177344.013431,"N_COORD97":2552680.50551,"ADDRESS":"銘傳街７２號","OBJECTID":4092},"geometry":{"x":177344.01343100052,"y":2552680.5055110008}},{"attributes":{"ID":4093,"DIS_CODE":0,"TOWNNAME":"安南區","LI":"頂安里","LIN":"17鄰","STREET":"北安一街","SECT":" ","MAREA":" ","LANE":" ","ALLEY":" ","HOUSE_NO":"２０號","E_COORD97":168566.83994000001,"N_COORD97":2548299.8166,"ADDRESS":"北安一街２０號","OBJECTID":4093},"geometry":{"x":168566.83994000033,"y":2548299.8166019972}},{"attributes":{"ID":4094,"DIS_CODE":0,"TOWNNAME":"安南區","LI":"頂安里","LIN":"17鄰","STREET":"北安一街","SECT":" ","MAREA":" ","LANE":" ","ALLEY":" ","HOUSE_NO":"２２號","E_COORD97":168560.702704,"N_COORD97":2548298.7022600002,"ADDRESS":"北安一街２２號","OBJECTID":4094},"geometry":{"x":168560.70270400215,"y":2548298.7022569999}},{"attributes":{"ID":4095,"DIS_CODE":0,"TOWNNAME":"安南區","LI":"頂安里","LIN":"17鄰","STREET":"北安一街","SECT":" ","MAREA":" ","LANE":" ","ALLEY":" ","HOUSE_NO":"２６號","E_COORD97":168554.84443299999,"N_COORD97":2548298.4236699999,"ADDRESS":"北安一街２６號","OBJECTID":4095},"geometry":{"x":168554.84443300124,"y":2548298.4236710016}},{"attributes":{"ID":4096,"DIS_CODE":0,"TOWNNAME":"安南區","LI":"頂安里","LIN":"17鄰","STREET":"北安一街","SECT":" ","MAREA":" ","LANE":" ","ALLEY":" ","HOUSE_NO":"２８號","E_COORD97":168548.70719700001,"N_COORD97":2548297.5879099998,"ADDRESS":"北安一街２８號","OBJECTID":4096},"geometry":{"x":168548.70719700027,"y":2548297.5879120007}},{"attributes":{"ID":4097,"DIS_CODE":0,"TOWNNAME":"安南區","LI":"頂安里","LIN":"17鄰","STREET":"北安一街","SECT":" ","MAREA":" ","LANE":" ","ALLEY":" ","HOUSE_NO":"３０號","E_COORD97":168540.617203,"N_COORD97":2548296.7521500001,"ADDRESS":"北安一街３０號","OBJECTID":4097},"geometry":{"x":168540.61720300093,"y":2548296.7521529999}},{"attributes":{"ID":4098,"DIS_CODE":0,"TOWNNAME":"善化區","LI":"小新里","LIN":"22鄰","STREET":" ","SECT":" ","MAREA":"小新營","LANE":" ","ALLEY":" ","HOUSE_NO":"２３６號","E_COORD97":180412.14346200001,"N_COORD97":2558715.6980699999,"ADDRESS":"小新營２３６號","OBJECTID":4098},"geometry":{"x":180412.14346200228,"y":2558715.6980719995}},{"attributes":{"ID":4099,"DIS_CODE":0,"TOWNNAME":"善化區","LI":"小新里","LIN":"22鄰","STREET":" ","SECT":" ","MAREA":"小新營","LANE":" ","ALLEY":" ","HOUSE_NO":"２４０號","E_COORD97":180403.88276099999,"N_COORD97":2558719.0847399998,"ADDRESS":"小新營２４０號","OBJECTID":4099},"geometry":{"x":180403.88276099972,"y":2558719.0847360007}},{"attributes":{"ID":4100,"DIS_CODE":0,"TOWNNAME":"安南區","LI":"頂安里","LIN":"17鄰","STREET":"安中二街","SECT":" ","MAREA":" ","LANE":" ","ALLEY":" ","HOUSE_NO":"２６號","E_COORD97":168537.82755099999,"N_COORD97":2548306.7812600001,"ADDRESS":"安中二街２６號","OBJECTID":4100},"geometry":{"x":168537.82755100075,"y":2548306.7812570017}},{"attributes":{"ID":4101,"DIS_CODE":0,"TOWNNAME":"善化區","LI":"小新里","LIN":"22鄰","STREET":" ","SECT":" ","MAREA":"小新營","LANE":" ","ALLEY":" ","HOUSE_NO":"２４６號","E_COORD97":180396.045686,"N_COORD97":2558721.2014000001,"ADDRESS":"小新營２４６號","OBJECTID":4101},"geometry":{"x":180396.04568600003,"y":2558721.2014020011}},{"attributes":{"ID":4102,"DIS_CODE":0,"TOWNNAME":"安南區","LI":"頂安里","LIN":"17鄰","STREET":"安中二街","SECT":" ","MAREA":" ","LANE":" ","ALLEY":" ","HOUSE_NO":"２８號","E_COORD97":168535.874794,"N_COORD97":2548313.4673299999,"ADDRESS":"安中二街２８號","OBJECTID":4102},"geometry":{"x":168535.87479399983,"y":2548313.4673250001}},{"attributes":{"ID":4103,"DIS_CODE":0,"TOWNNAME":"善化區","LI":"小新里","LIN":"22鄰","STREET":" ","SECT":" ","MAREA":"小新營","LANE":" ","ALLEY":" ","HOUSE_NO":"２５０號","E_COORD97":180388.420423,"N_COORD97":2558724.3764,"ADDRESS":"小新營２５０號","OBJECTID":4103},"geometry":{"x":180388.42042300105,"y":2558724.3764000013}},{"attributes":{"ID":4104,"DIS_CODE":0,"TOWNNAME":"安南區","LI":"頂安里","LIN":"17鄰","STREET":"安中二街","SECT":" ","MAREA":" ","LANE":" ","ALLEY":" ","HOUSE_NO":"３０號","E_COORD97":168534.34048399999,"N_COORD97":2548319.5265799998,"ADDRESS":"安中二街３０號","OBJECTID":4104},"geometry":{"x":168534.34048400167,"y":2548319.5265749991}},{"attributes":{"ID":4105,"DIS_CODE":0,"TOWNNAME":"安南區","LI":"頂安里","LIN":"17鄰","STREET":"安中二街","SECT":" ","MAREA":" ","LANE":"３２巷","ALLEY":" ","HOUSE_NO":"２號","E_COORD97":168546.89392199999,"N_COORD97":2548315.0691999998,"ADDRESS":"安中二街３２巷２號","OBJECTID":4105},"geometry":{"x":168546.89392200112,"y":2548315.0691959988}},{"attributes":{"ID":4106,"DIS_CODE":0,"TOWNNAME":"安南區","LI":"頂安里","LIN":"17鄰","STREET":"安中二街","SECT":" ","MAREA":" ","LANE":"３２巷","ALLEY":" ","HOUSE_NO":"６號","E_COORD97":168551.07840100001,"N_COORD97":2548315.90496,"ADDRESS":"安中二街３２巷６號","OBJECTID":4106},"geometry":{"x":168551.07840100117,"y":2548315.9049550015}},{"attributes":{"ID":4107,"DIS_CODE":0,"TOWNNAME":"安南區","LI":"頂安里","LIN":"17鄰","STREET":"安中二街","SECT":" ","MAREA":" ","LANE":"３２巷","ALLEY":" ","HOUSE_NO":"８號","E_COORD97":168554.98391499999,"N_COORD97":2548316.4621299999,"ADDRESS":"安中二街３２巷８號","OBJECTID":4107},"geometry":{"x":168554.98391500115,"y":2548316.4621270001}},{"attributes":{"ID":4108,"DIS_CODE":0,"TOWNNAME":"善化區","LI":"小新里","LIN":"22鄰","STREET":" ","SECT":" ","MAREA":"小新營","LANE":" ","ALLEY":" ","HOUSE_NO":"２３５號","E_COORD97":180402.16178200001,"N_COORD97":2558712.7347400002,"ADDRESS":"小新營２３５號","OBJECTID":4108},"geometry":{"x":180402.16178200208,"y":2558712.7347400021}},{"attributes":{"ID":4109,"DIS_CODE":0,"TOWNNAME":"安南區","LI":"頂安里","LIN":"17鄰","STREET":"安中二街","SECT":" ","MAREA":" ","LANE":"３２巷","ALLEY":" ","HOUSE_NO":"１２號","E_COORD97":168563.073909,"N_COORD97":2548316.4621299999,"ADDRESS":"安中二街３２巷１２號","OBJECTID":4109},"geometry":{"x":168563.07390899956,"y":2548316.4621270001}},{"attributes":{"ID":4110,"DIS_CODE":0,"TOWNNAME":"安南區","LI":"頂安里","LIN":"17鄰","STREET":"安中二街","SECT":" ","MAREA":" ","LANE":"３２巷","ALLEY":" ","HOUSE_NO":"１６號","E_COORD97":168567.25838799999,"N_COORD97":2548317.29789,"ADDRESS":"安中二街３２巷１６號","OBJECTID":4110},"geometry":{"x":168567.25838800054,"y":2548317.2978860009}},{"attributes":{"ID":4111,"DIS_CODE":0,"TOWNNAME":"安南區","LI":"頂安里","LIN":"17鄰","STREET":"安中二街","SECT":" ","MAREA":" ","LANE":"３２巷","ALLEY":" ","HOUSE_NO":"１８號","E_COORD97":168571.72183200001,"N_COORD97":2548318.1336400001,"ADDRESS":"安中二街３２巷１８號","OBJECTID":4111},"geometry":{"x":168571.72183200065,"y":2548318.1336439997}},{"attributes":{"ID":4112,"DIS_CODE":0,"TOWNNAME":"安南區","LI":"頂安里","LIN":"17鄰","STREET":"安中二街","SECT":" ","MAREA":" ","LANE":"３２巷","ALLEY":" ","HOUSE_NO":"２０號","E_COORD97":168575.62734599999,"N_COORD97":2548319.2479900001,"ADDRESS":"安中二街３２巷２０號","OBJECTID":4112},"geometry":{"x":168575.62734600063,"y":2548319.247988997}},{"attributes":{"ID":4113,"DIS_CODE":0,"TOWNNAME":"安南區","LI":"頂安里","LIN":"17鄰","STREET":"安中二街","SECT":" ","MAREA":" ","LANE":"３２巷","ALLEY":" ","HOUSE_NO":"２２號","E_COORD97":168580.090791,"N_COORD97":2548318.9693999998,"ADDRESS":"安中二街３２巷２２號","OBJECTID":4113},"geometry":{"x":168580.09079100098,"y":2548318.9694030005}},{"attributes":{"ID":4114,"DIS_CODE":0,"TOWNNAME":"安南區","LI":"頂安里","LIN":"17鄰","STREET":"安中二街","SECT":" ","MAREA":" ","LANE":"３２巷","ALLEY":" ","HOUSE_NO":"２６號","E_COORD97":168584.55423499999,"N_COORD97":2548319.2479900001,"ADDRESS":"安中二街３２巷２６號","OBJECTID":4114},"geometry":{"x":168584.55423500109,"y":2548319.247988997}},{"attributes":{"ID":4115,"DIS_CODE":0,"TOWNNAME":"安南區","LI":"頂安里","LIN":"17鄰","STREET":"安中二街","SECT":" ","MAREA":" ","LANE":"３２巷","ALLEY":" ","HOUSE_NO":"２８號","E_COORD97":168588.73871500001,"N_COORD97":2548320.0837500002,"ADDRESS":"安中二街３２巷２８號","OBJECTID":4115},"geometry":{"x":168588.73871500138,"y":2548320.0837479997}},{"attributes":{"ID":4116,"DIS_CODE":0,"TOWNNAME":"善化區","LI":"小新里","LIN":"22鄰","STREET":" ","SECT":" ","MAREA":"小新營","LANE":" ","ALLEY":" ","HOUSE_NO":"２３２號","E_COORD97":180422.881757,"N_COORD97":2558712.3322700001,"ADDRESS":"小新營２３２號","OBJECTID":4116},"geometry":{"x":180422.88175700046,"y":2558712.332266001}},{"attributes":{"ID":4117,"DIS_CODE":0,"TOWNNAME":"安南區","LI":"頂安里","LIN":"17鄰","STREET":"安中二街","SECT":" ","MAREA":" ","LANE":"３２巷","ALLEY":" ","HOUSE_NO":"３０號","E_COORD97":168592.08629800001,"N_COORD97":2548320.9195099999,"ADDRESS":"安中二街３２巷３０號","OBJECTID":4117},"geometry":{"x":168592.08629800007,"y":2548320.9195060004}},{"attributes":{"ID":4118,"DIS_CODE":0,"TOWNNAME":"安南區","LI":"頂安里","LIN":"17鄰","STREET":"安中二街","SECT":" ","MAREA":" ","LANE":"３２巷","ALLEY":" ","HOUSE_NO":"３２號","E_COORD97":168595.99181199999,"N_COORD97":2548321.4766799998,"ADDRESS":"安中二街３２巷３２號","OBJECTID":4118},"geometry":{"x":168595.99181200191,"y":2548321.4766789991}},{"attributes":{"ID":4119,"DIS_CODE":0,"TOWNNAME":"安南區","LI":"頂安里","LIN":"17鄰","STREET":"安中二街","SECT":" ","MAREA":" ","LANE":"３２巷","ALLEY":" ","HOUSE_NO":"３６號","E_COORD97":168600.734222,"N_COORD97":2548321.1980900001,"ADDRESS":"安中二街３２巷３６號","OBJECTID":4119},"geometry":{"x":168600.73422200046,"y":2548321.1980930027}},{"attributes":{"ID":4120,"DIS_CODE":0,"TOWNNAME":"安南區","LI":"頂安里","LIN":"17鄰","STREET":"安中一街","SECT":" ","MAREA":" ","LANE":" ","ALLEY":" ","HOUSE_NO":"２１號","E_COORD97":168608.54525,"N_COORD97":2548320.6409200002,"ADDRESS":"安中一街２１號","OBJECTID":4120},"geometry":{"x":168608.54525000136,"y":2548320.6409200039}},{"attributes":{"ID":4121,"DIS_CODE":0,"TOWNNAME":"安南區","LI":"頂安里","LIN":"17鄰","STREET":"安中一街","SECT":" ","MAREA":" ","LANE":" ","ALLEY":" ","HOUSE_NO":"２３號","E_COORD97":168607.708354,"N_COORD97":2548326.4912299998,"ADDRESS":"安中一街２３號","OBJECTID":4121},"geometry":{"x":168607.708354,"y":2548326.4912299998}},{"attributes":{"ID":4122,"DIS_CODE":0,"TOWNNAME":"安南區","LI":"頂安里","LIN":"17鄰","STREET":"安中一街","SECT":" ","MAREA":" ","LANE":" ","ALLEY":" ","HOUSE_NO":"２５號","E_COORD97":168607.15042300001,"N_COORD97":2548339.3062,"ADDRESS":"安中一街２５號","OBJECTID":4122},"geometry":{"x":168607.15042299964,"y":2548339.3061960004}},{"attributes":{"ID":4123,"DIS_CODE":0,"TOWNNAME":"善化區","LI":"小新里","LIN":"22鄰","STREET":" ","SECT":" ","MAREA":"小新營","LANE":" ","ALLEY":" ","HOUSE_NO":"２０２號","E_COORD97":180480.07122400001,"N_COORD97":2558691.69478,"ADDRESS":"小新營２０２號","OBJECTID":4123},"geometry":{"x":180480.07122400124,"y":2558691.6947770026}},{"attributes":{"ID":4124,"DIS_CODE":0,"TOWNNAME":"安南區","LI":"頂安里","LIN":"17鄰","STREET":"安中一街","SECT":" ","MAREA":" ","LANE":" ","ALLEY":" ","HOUSE_NO":"２７號","E_COORD97":168605.75559700001,"N_COORD97":2548344.32075,"ADDRESS":"安中一街２７號","OBJECTID":4124},"geometry":{"x":168605.75559700187,"y":2548344.3207470011}},{"attributes":{"ID":4125,"DIS_CODE":0,"TOWNNAME":"安南區","LI":"頂安里","LIN":"17鄰","STREET":"安中一街","SECT":" ","MAREA":" ","LANE":" ","ALLEY":" ","HOUSE_NO":"２９號","E_COORD97":168604.91870099999,"N_COORD97":2548349.0567100001,"ADDRESS":"安中一街２９號","OBJECTID":4125},"geometry":{"x":168604.91870100051,"y":2548349.0567130018}},{"attributes":{"ID":4126,"DIS_CODE":0,"TOWNNAME":"善化區","LI":"小新里","LIN":"22鄰","STREET":" ","SECT":" ","MAREA":"小新營","LANE":" ","ALLEY":" ","HOUSE_NO":"２２９號","E_COORD97":180421.34611400001,"N_COORD97":2558707.9931000001,"ADDRESS":"小新營２２９號","OBJECTID":4126},"geometry":{"x":180421.34611400124,"y":2558707.9931010026}},{"attributes":{"ID":4127,"DIS_CODE":0,"TOWNNAME":"安南區","LI":"頂安里","LIN":"17鄰","STREET":"安中一街","SECT":" ","MAREA":" ","LANE":" ","ALLEY":" ","HOUSE_NO":"３１號","E_COORD97":168603.52387400001,"N_COORD97":2548354.3498499999,"ADDRESS":"安中一街３１號","OBJECTID":4127},"geometry":{"x":168603.52387400065,"y":2548354.349849999}},{"attributes":{"ID":4128,"DIS_CODE":0,"TOWNNAME":"安南區","LI":"頂安里","LIN":"17鄰","STREET":"安中一街","SECT":" ","MAREA":" ","LANE":" ","ALLEY":" ","HOUSE_NO":"３３號","E_COORD97":168601.850083,"N_COORD97":2548359.9215699998,"ADDRESS":"安中一街３３號","OBJECTID":4128},"geometry":{"x":168601.85008300003,"y":2548359.921574004}},{"attributes":{"ID":4129,"DIS_CODE":0,"TOWNNAME":"安南區","LI":"頂安里","LIN":"17鄰","STREET":"安中一街","SECT":" ","MAREA":" ","LANE":" ","ALLEY":" ","HOUSE_NO":"３５號","E_COORD97":168602.129048,"N_COORD97":2548365.21471,"ADDRESS":"安中一街３５號","OBJECTID":4129},"geometry":{"x":168602.12904800009,"y":2548365.2147119995}},{"attributes":{"ID":4130,"DIS_CODE":0,"TOWNNAME":"善化區","LI":"小新里","LIN":"22鄰","STREET":" ","SECT":" ","MAREA":"小新營","LANE":" ","ALLEY":" ","HOUSE_NO":"２１３號","E_COORD97":180458.942893,"N_COORD97":2558693.1764400001,"ADDRESS":"小新營２１３號","OBJECTID":4130},"geometry":{"x":180458.94289300125,"y":2558693.1764429975}},{"attributes":{"ID":4131,"DIS_CODE":0,"TOWNNAME":"安南區","LI":"頂安里","LIN":"17鄰","STREET":"安中二街","SECT":" ","MAREA":" ","LANE":" ","ALLEY":" ","HOUSE_NO":"３６號","E_COORD97":168528.20324800001,"N_COORD97":2548331.2272000001,"ADDRESS":"安中二街３６號","OBJECTID":4131},"geometry":{"x":168528.20324799977,"y":2548331.2271960024}},{"attributes":{"ID":4132,"DIS_CODE":0,"TOWNNAME":"安南區","LI":"頂安里","LIN":"17鄰","STREET":"安中二街","SECT":" ","MAREA":" ","LANE":" ","ALLEY":" ","HOUSE_NO":"３８號","E_COORD97":168525.692561,"N_COORD97":2548338.1918500001,"ADDRESS":"安中二街３８號","OBJECTID":4132},"geometry":{"x":168525.69256100059,"y":2548338.1918510012}},{"attributes":{"ID":4133,"DIS_CODE":0,"TOWNNAME":"安南區","LI":"頂安里","LIN":"17鄰","STREET":"安中二街","SECT":" ","MAREA":" ","LANE":" ","ALLEY":" ","HOUSE_NO":"５０號","E_COORD97":168522.90290799999,"N_COORD97":2548346.8280199999,"ADDRESS":"安中二街５０號","OBJECTID":4133},"geometry":{"x":168522.90290800016,"y":2548346.8280229997}},{"attributes":{"ID":4134,"DIS_CODE":0,"TOWNNAME":"安南區","LI":"頂安里","LIN":"17鄰","STREET":"安中二街","SECT":" ","MAREA":" ","LANE":" ","ALLEY":" ","HOUSE_NO":"５２號","E_COORD97":168520.113255,"N_COORD97":2548354.9070199998,"ADDRESS":"安中二街５２號","OBJECTID":4134},"geometry":{"x":168520.11325500067,"y":2548354.9070229996}},{"attributes":{"ID":4135,"DIS_CODE":0,"TOWNNAME":"安南區","LI":"頂安里","LIN":"17鄰","STREET":"安中二街","SECT":" ","MAREA":" ","LANE":"５６巷","ALLEY":" ","HOUSE_NO":"２號","E_COORD97":168530.43497100001,"N_COORD97":2548353.79268,"ADDRESS":"安中二街５６巷２號","OBJECTID":4135},"geometry":{"x":168530.434971001,"y":2548353.7926780004}},{"attributes":{"ID":4136,"DIS_CODE":0,"TOWNNAME":"安南區","LI":"頂安里","LIN":"17鄰","STREET":"安中二街","SECT":" ","MAREA":" ","LANE":"５６巷","ALLEY":" ","HOUSE_NO":"６號","E_COORD97":168534.61945,"N_COORD97":2548354.0712600001,"ADDRESS":"安中二街５６巷６號","OBJECTID":4136},"geometry":{"x":168534.61945000105,"y":2548354.0712640025}},{"attributes":{"ID":4137,"DIS_CODE":0,"TOWNNAME":"安南區","LI":"頂安里","LIN":"17鄰","STREET":"安中二街","SECT":" ","MAREA":" ","LANE":"５６巷","ALLEY":" ","HOUSE_NO":"８號","E_COORD97":168539.08289399999,"N_COORD97":2548353.5140900002,"ADDRESS":"安中二街５６巷８號","OBJECTID":4137},"geometry":{"x":168539.08289400022,"y":2548353.5140920021}},{"attributes":{"ID":4138,"DIS_CODE":0,"TOWNNAME":"善化區","LI":"小新里","LIN":"22鄰","STREET":" ","SECT":" ","MAREA":"小新營","LANE":" ","ALLEY":" ","HOUSE_NO":"２６２號","E_COORD97":180467.73312600001,"N_COORD97":2558745.2464100001,"ADDRESS":"小新營２６２號","OBJECTID":4138},"geometry":{"x":180467.73312599957,"y":2558745.2464150023}},{"attributes":{"ID":4139,"DIS_CODE":0,"TOWNNAME":"善化區","LI":"小新里","LIN":"22鄰","STREET":" ","SECT":" ","MAREA":"小新營","LANE":" ","ALLEY":" ","HOUSE_NO":"２６６號","E_COORD97":180462.01418,"N_COORD97":2558747.4689099998,"ADDRESS":"小新營２６６號","OBJECTID":4139},"geometry":{"x":180462.01418000087,"y":2558747.4689130001}},{"attributes":{"ID":4140,"DIS_CODE":0,"TOWNNAME":"安南區","LI":"頂安里","LIN":"17鄰","STREET":"安中二街","SECT":" ","MAREA":" ","LANE":"５６巷","ALLEY":" ","HOUSE_NO":"１２號","E_COORD97":168546.89392199999,"N_COORD97":2548354.9070199998,"ADDRESS":"安中二街５６巷１２號","OBJECTID":4140},"geometry":{"x":168546.89392200112,"y":2548354.9070229996}},{"attributes":{"ID":4141,"DIS_CODE":0,"TOWNNAME":"安南區","LI":"頂安里","LIN":"17鄰","STREET":"安中二街","SECT":" ","MAREA":" ","LANE":"５６巷","ALLEY":" ","HOUSE_NO":"１６號","E_COORD97":168551.07840100001,"N_COORD97":2548354.9070199998,"ADDRESS":"安中二街５６巷１６號","OBJECTID":4141},"geometry":{"x":168551.07840100117,"y":2548354.9070229996}},{"attributes":{"ID":4142,"DIS_CODE":0,"TOWNNAME":"安南區","LI":"頂安里","LIN":"17鄰","STREET":"安中二街","SECT":" ","MAREA":" ","LANE":"５６巷","ALLEY":" ","HOUSE_NO":"１８號","E_COORD97":168555.82081100001,"N_COORD97":2548354.9070199998,"ADDRESS":"安中二街５６巷１８號","OBJECTID":4142},"geometry":{"x":168555.82081099972,"y":2548354.9070229996}},{"attributes":{"ID":4143,"DIS_CODE":0,"TOWNNAME":"善化區","LI":"小新里","LIN":"22鄰","STREET":" ","SECT":" ","MAREA":"小新營","LANE":" ","ALLEY":" ","HOUSE_NO":"２７１號","E_COORD97":180447.928625,"N_COORD97":2558742.6005799999,"ADDRESS":"小新營２７１號","OBJECTID":4143},"geometry":{"x":180447.92862500064,"y":2558742.600583002}},{"attributes":{"ID":4144,"DIS_CODE":0,"TOWNNAME":"安南區","LI":"頂安里","LIN":"17鄰","STREET":"安中二街","SECT":" ","MAREA":" ","LANE":"５６巷","ALLEY":" ","HOUSE_NO":"２２號","E_COORD97":168563.352874,"N_COORD97":2548355.74278,"ADDRESS":"安中二街５６巷２２號","OBJECTID":4144},"geometry":{"x":168563.35287400056,"y":2548355.7427810002}},{"attributes":{"ID":4145,"DIS_CODE":0,"TOWNNAME":"安南區","LI":"頂安里","LIN":"17鄰","STREET":"安中二街","SECT":" ","MAREA":" ","LANE":"５６巷","ALLEY":" ","HOUSE_NO":"２６號","E_COORD97":168567.816318,"N_COORD97":2548355.74278,"ADDRESS":"安中二街５６巷２６號","OBJECTID":4145},"geometry":{"x":168567.8163180016,"y":2548355.7427810002}},{"attributes":{"ID":4146,"DIS_CODE":0,"TOWNNAME":"安南區","LI":"頂安里","LIN":"17鄰","STREET":"安中二街","SECT":" ","MAREA":" ","LANE":"５６巷","ALLEY":" ","HOUSE_NO":"２８號","E_COORD97":168571.72183200001,"N_COORD97":2548356.0213700002,"ADDRESS":"安中二街５６巷２８號","OBJECTID":4146},"geometry":{"x":168571.72183200065,"y":2548356.0213680025}},{"attributes":{"ID":4147,"DIS_CODE":0,"TOWNNAME":"安南區","LI":"頂安里","LIN":"17鄰","STREET":"安中二街","SECT":" ","MAREA":" ","LANE":"５６巷","ALLEY":" ","HOUSE_NO":"３０號","E_COORD97":168576.18527700001,"N_COORD97":2548356.5785400001,"ADDRESS":"安中二街５６巷３０號","OBJECTID":4147},"geometry":{"x":168576.185277001,"y":2548356.5785400011}},{"attributes":{"ID":4148,"DIS_CODE":0,"TOWNNAME":"善化區","LI":"小新里","LIN":"22鄰","STREET":" ","SECT":" ","MAREA":"小新營","LANE":" ","ALLEY":" ","HOUSE_NO":"２８７號","E_COORD97":180462.12008600001,"N_COORD97":2558783.0288900002,"ADDRESS":"小新營２８７號","OBJECTID":4148},"geometry":{"x":180462.1200860003,"y":2558783.0288939998}},{"attributes":{"ID":4149,"DIS_CODE":0,"TOWNNAME":"安南區","LI":"頂安里","LIN":"17鄰","STREET":"安中二街","SECT":" ","MAREA":" ","LANE":"５６巷","ALLEY":" ","HOUSE_NO":"３２號","E_COORD97":168580.369756,"N_COORD97":2548357.4142999998,"ADDRESS":"安中二街５６巷３２號","OBJECTID":4149},"geometry":{"x":168580.36975600105,"y":2548357.4142990019}},{"attributes":{"ID":4150,"DIS_CODE":0,"TOWNNAME":"善化區","LI":"小新里","LIN":"22鄰","STREET":" ","SECT":" ","MAREA":"小新營","LANE":" ","ALLEY":" ","HOUSE_NO":"２７８號","E_COORD97":180482.030493,"N_COORD97":2558784.72223,"ADDRESS":"小新營２７８號","OBJECTID":4150},"geometry":{"x":180482.03049300145,"y":2558784.7222270016}},{"attributes":{"ID":4151,"DIS_CODE":0,"TOWNNAME":"善化區","LI":"小新里","LIN":"22鄰","STREET":" ","SECT":" ","MAREA":"小新營","LANE":" ","ALLEY":" ","HOUSE_NO":"２８８號","E_COORD97":180457.35429700001,"N_COORD97":2558793.8238900001,"ADDRESS":"小新營２８８號","OBJECTID":4151},"geometry":{"x":180457.35429699998,"y":2558793.823888002}},{"attributes":{"ID":4152,"DIS_CODE":0,"TOWNNAME":"安南區","LI":"頂安里","LIN":"17鄰","STREET":"安中二街","SECT":" ","MAREA":" ","LANE":"５６巷","ALLEY":" ","HOUSE_NO":"３６號","E_COORD97":168584.27527000001,"N_COORD97":2548357.69288,"ADDRESS":"安中二街５６巷３６號","OBJECTID":4152},"geometry":{"x":168584.27527000103,"y":2548357.6928850003}},{"attributes":{"ID":4153,"DIS_CODE":0,"TOWNNAME":"安南區","LI":"頂安里","LIN":"17鄰","STREET":"安中二街","SECT":" ","MAREA":" ","LANE":"５６巷","ALLEY":" ","HOUSE_NO":"３８號","E_COORD97":168588.180784,"N_COORD97":2548358.5286400001,"ADDRESS":"安中二街５６巷３８號","OBJECTID":4153},"geometry":{"x":168588.18078400008,"y":2548358.5286430027}},{"attributes":{"ID":4154,"DIS_CODE":0,"TOWNNAME":"安南區","LI":"頂安里","LIN":"17鄰","STREET":"安中二街","SECT":" ","MAREA":" ","LANE":"５６巷","ALLEY":" ","HOUSE_NO":"４０號","E_COORD97":168592.64422799999,"N_COORD97":2548358.8072299999,"ADDRESS":"安中二街５６巷４０號","OBJECTID":4154},"geometry":{"x":168592.64422800113,"y":2548358.8072299995}},{"attributes":{"ID":4155,"DIS_CODE":0,"TOWNNAME":"安南區","LI":"頂安里","LIN":"17鄰","STREET":"安中二街","SECT":" ","MAREA":" ","LANE":"５６巷","ALLEY":" ","HOUSE_NO":"４２號","E_COORD97":168596.270777,"N_COORD97":2548358.8072299999,"ADDRESS":"安中二街５６巷４２號","OBJECTID":4155},"geometry":{"x":168596.27077700011,"y":2548358.8072299995}},{"attributes":{"ID":4156,"DIS_CODE":0,"TOWNNAME":"安南區","LI":"頂安里","LIN":"17鄰","STREET":"安中二街","SECT":" ","MAREA":" ","LANE":" ","ALLEY":" ","HOUSE_NO":"５８號","E_COORD97":168515.09187999999,"N_COORD97":2548368.8363299998,"ADDRESS":"安中二街５８號","OBJECTID":4156},"geometry":{"x":168515.09188000113,"y":2548368.8363329992}},{"attributes":{"ID":4157,"DIS_CODE":0,"TOWNNAME":"安南區","LI":"頂安里","LIN":"17鄰","STREET":"安中二街","SECT":" ","MAREA":" ","LANE":" ","ALLEY":" ","HOUSE_NO":"６０號","E_COORD97":168513.139123,"N_COORD97":2548376.3581599998,"ADDRESS":"安中二街６０號","OBJECTID":4157},"geometry":{"x":168513.1391230002,"y":2548376.3581600022}},{"attributes":{"ID":4158,"DIS_CODE":0,"TOWNNAME":"安南區","LI":"頂安里","LIN":"17鄰","STREET":"安中二街","SECT":" ","MAREA":" ","LANE":" ","ALLEY":" ","HOUSE_NO":"６２號","E_COORD97":168510.34946999999,"N_COORD97":2548382.20847,"ADDRESS":"安中二街６２號","OBJECTID":4158},"geometry":{"x":168510.34947000071,"y":2548382.20847}},{"attributes":{"ID":4159,"DIS_CODE":0,"TOWNNAME":"安南區","LI":"頂安里","LIN":"17鄰","STREET":"安中二街","SECT":" ","MAREA":" ","LANE":" ","ALLEY":" ","HOUSE_NO":"６２號","E_COORD97":168510.62843499999,"N_COORD97":2548382.7656399999,"ADDRESS":"安中二街６２號","OBJECTID":4159},"geometry":{"x":168510.62843500078,"y":2548382.7656430025}},{"attributes":{"ID":4160,"DIS_CODE":0,"TOWNNAME":"安南區","LI":"頂安里","LIN":"17鄰","STREET":"安中二街","SECT":" ","MAREA":" ","LANE":" ","ALLEY":" ","HOUSE_NO":"６６號","E_COORD97":168508.95464400001,"N_COORD97":2548388.3373699998,"ADDRESS":"安中二街６６號","OBJECTID":4160},"geometry":{"x":168508.95464400016,"y":2548388.3373670019}},{"attributes":{"ID":4161,"DIS_CODE":0,"TOWNNAME":"善化區","LI":"小新里","LIN":"11鄰","STREET":"陽光三路","SECT":" ","MAREA":" ","LANE":"９０巷","ALLEY":" ","HOUSE_NO":"１５號","E_COORD97":179223.968116,"N_COORD97":2556947.0332200001,"ADDRESS":"陽光三路９０巷１５號","OBJECTID":4161},"geometry":{"x":179223.96811600029,"y":2556947.0332190003}},{"attributes":{"ID":4162,"DIS_CODE":0,"TOWNNAME":"善化區","LI":"小新里","LIN":"11鄰","STREET":"陽光三路","SECT":" ","MAREA":" ","LANE":"９０巷","ALLEY":" ","HOUSE_NO":"１７號","E_COORD97":179217.719637,"N_COORD97":2556947.0332200001,"ADDRESS":"陽光三路９０巷１７號","OBJECTID":4162},"geometry":{"x":179217.71963700186,"y":2556947.0332190003}},{"attributes":{"ID":4163,"DIS_CODE":0,"TOWNNAME":"安南區","LI":"頂安里","LIN":"17鄰","STREET":"安中二街","SECT":" ","MAREA":" ","LANE":" ","ALLEY":" ","HOUSE_NO":"６８號","E_COORD97":168507.83878300001,"N_COORD97":2548394.4662600001,"ADDRESS":"安中二街６８號","OBJECTID":4163},"geometry":{"x":168507.8387830006,"y":2548394.4662629999}},{"attributes":{"ID":4164,"DIS_CODE":0,"TOWNNAME":"善化區","LI":"小新里","LIN":"11鄰","STREET":"陽光三路","SECT":" ","MAREA":" ","LANE":"９０巷","ALLEY":" ","HOUSE_NO":"１９號","E_COORD97":179211.15343899999,"N_COORD97":2556947.56238,"ADDRESS":"陽光三路９０巷１９號","OBJECTID":4164},"geometry":{"x":179211.15343900025,"y":2556947.5623850003}},{"attributes":{"ID":4165,"DIS_CODE":0,"TOWNNAME":"安南區","LI":"頂安里","LIN":"17鄰","STREET":"安中二街","SECT":" ","MAREA":" ","LANE":"５６巷","ALLEY":" ","HOUSE_NO":"１號","E_COORD97":168523.73980400001,"N_COORD97":2548375.24382,"ADDRESS":"安中二街５６巷１號","OBJECTID":4165},"geometry":{"x":168523.73980399966,"y":2548375.243815003}},{"attributes":{"ID":4166,"DIS_CODE":0,"TOWNNAME":"安南區","LI":"頂安里","LIN":"17鄰","STREET":"安中二街","SECT":" ","MAREA":" ","LANE":"５６巷","ALLEY":" ","HOUSE_NO":"３號","E_COORD97":168528.20324800001,"N_COORD97":2548376.3581599998,"ADDRESS":"安中二街５６巷３號","OBJECTID":4166},"geometry":{"x":168528.20324799977,"y":2548376.3581600022}},{"attributes":{"ID":4167,"DIS_CODE":0,"TOWNNAME":"安南區","LI":"頂安里","LIN":"17鄰","STREET":"安中二街","SECT":" ","MAREA":" ","LANE":"５６巷","ALLEY":" ","HOUSE_NO":"５號","E_COORD97":168531.82979700001,"N_COORD97":2548375.8009899999,"ADDRESS":"安中二街５６巷５號","OBJECTID":4167},"geometry":{"x":168531.82979700156,"y":2548375.8009880036}},{"attributes":{"ID":4168,"DIS_CODE":0,"TOWNNAME":"安南區","LI":"頂安里","LIN":"17鄰","STREET":"安中二街","SECT":" ","MAREA":" ","LANE":"５６巷","ALLEY":" ","HOUSE_NO":"７號","E_COORD97":168536.29324100001,"N_COORD97":2548376.3581599998,"ADDRESS":"安中二街５６巷７號","OBJECTID":4168},"geometry":{"x":168536.2932409998,"y":2548376.3581600022}},{"attributes":{"ID":4169,"DIS_CODE":0,"TOWNNAME":"安南區","LI":"頂安里","LIN":"17鄰","STREET":"安中二街","SECT":" ","MAREA":" ","LANE":"５６巷","ALLEY":" ","HOUSE_NO":"９號","E_COORD97":168540.75668600001,"N_COORD97":2548377.7510899999,"ADDRESS":"安中二街５６巷９號","OBJECTID":4169},"geometry":{"x":168540.75668600015,"y":2548377.7510909997}},{"attributes":{"ID":4170,"DIS_CODE":0,"TOWNNAME":"安南區","LI":"頂安里","LIN":"17鄰","STREET":"安中二街","SECT":" ","MAREA":" ","LANE":"５６巷","ALLEY":" ","HOUSE_NO":"２７號","E_COORD97":168577.58010299999,"N_COORD97":2548380.8155399999,"ADDRESS":"安中二街５６巷２７號","OBJECTID":4170},"geometry":{"x":168577.58010300156,"y":2548380.8155390024}},{"attributes":{"ID":4171,"DIS_CODE":0,"TOWNNAME":"安南區","LI":"頂安里","LIN":"17鄰","STREET":"安中二街","SECT":" ","MAREA":" ","LANE":"５６巷","ALLEY":" ","HOUSE_NO":"２９號","E_COORD97":168581.485617,"N_COORD97":2548381.0941300001,"ADDRESS":"安中二街５６巷２９號","OBJECTID":4171},"geometry":{"x":168581.48561700061,"y":2548381.0941260047}},{"attributes":{"ID":4172,"DIS_CODE":0,"TOWNNAME":"善化區","LI":"小新里","LIN":"11鄰","STREET":"陽光三路","SECT":" ","MAREA":" ","LANE":"９０巷","ALLEY":" ","HOUSE_NO":"９號","E_COORD97":179240.807237,"N_COORD97":2556946.7157200002,"ADDRESS":"陽光三路９０巷９號","OBJECTID":4172},"geometry":{"x":179240.80723700114,"y":2556946.7157190032}},{"attributes":{"ID":4173,"DIS_CODE":0,"TOWNNAME":"善化區","LI":"小新里","LIN":"11鄰","STREET":"陽光三路","SECT":" ","MAREA":" ","LANE":"９０巷","ALLEY":" ","HOUSE_NO":"１６號","E_COORD97":179235.30010299999,"N_COORD97":2556953.1715500001,"ADDRESS":"陽光三路９０巷１６號","OBJECTID":4173},"geometry":{"x":179235.3001030013,"y":2556953.1715490017}},{"attributes":{"ID":4174,"DIS_CODE":0,"TOWNNAME":"安南區","LI":"頂安里","LIN":"17鄰","STREET":"安中二街","SECT":" ","MAREA":" ","LANE":"５６巷","ALLEY":" ","HOUSE_NO":"１１號","E_COORD97":168544.66219999999,"N_COORD97":2548378.0296800002,"ADDRESS":"安中二街５６巷１１號","OBJECTID":4174},"geometry":{"x":168544.66219999921,"y":2548378.0296770018}},{"attributes":{"ID":4175,"DIS_CODE":0,"TOWNNAME":"安南區","LI":"頂安里","LIN":"17鄰","STREET":"安中二街","SECT":" ","MAREA":" ","LANE":"５６巷","ALLEY":" ","HOUSE_NO":"１３號","E_COORD97":168548.567714,"N_COORD97":2548378.8654399998,"ADDRESS":"安中二街５６巷１３號","OBJECTID":4175},"geometry":{"x":168548.56771400105,"y":2548378.865435997}},{"attributes":{"ID":4176,"DIS_CODE":0,"TOWNNAME":"安南區","LI":"頂安里","LIN":"17鄰","STREET":"安中二街","SECT":" ","MAREA":" ","LANE":"５６巷","ALLEY":" ","HOUSE_NO":"１５號","E_COORD97":168552.47322799999,"N_COORD97":2548378.8654399998,"ADDRESS":"安中二街５６巷１５號","OBJECTID":4176},"geometry":{"x":168552.47322800104,"y":2548378.865435997}},{"attributes":{"ID":4177,"DIS_CODE":0,"TOWNNAME":"善化區","LI":"小新里","LIN":"11鄰","STREET":"蓮潭路","SECT":" ","MAREA":" ","LANE":" ","ALLEY":" ","HOUSE_NO":"５５號","E_COORD97":179268.872439,"N_COORD97":2557004.3948599999,"ADDRESS":"蓮潭路５５號","OBJECTID":4177},"geometry":{"x":179268.87243900076,"y":2557004.3948550001}},{"attributes":{"ID":4178,"DIS_CODE":0,"TOWNNAME":"安南區","LI":"頂安里","LIN":"17鄰","STREET":"安中二街","SECT":" ","MAREA":" ","LANE":"５６巷","ALLEY":" ","HOUSE_NO":"１７號","E_COORD97":168556.93667200001,"N_COORD97":2548378.8654399998,"ADDRESS":"安中二街５６巷１７號","OBJECTID":4178},"geometry":{"x":168556.93667200208,"y":2548378.865435997}},{"attributes":{"ID":4179,"DIS_CODE":0,"TOWNNAME":"安南區","LI":"頂安里","LIN":"17鄰","STREET":"安中二街","SECT":" ","MAREA":" ","LANE":"５６巷","ALLEY":" ","HOUSE_NO":"１９號","E_COORD97":168561.40011700001,"N_COORD97":2548379.4226099998,"ADDRESS":"安中二街５６巷１９號","OBJECTID":4179},"geometry":{"x":168561.40011699963,"y":2548379.4226080012}},{"attributes":{"ID":4180,"DIS_CODE":0,"TOWNNAME":"安南區","LI":"頂安里","LIN":"17鄰","STREET":"安中二街","SECT":" ","MAREA":" ","LANE":"５６巷","ALLEY":" ","HOUSE_NO":"２３號","E_COORD97":168569.49011000001,"N_COORD97":2548379.9797800002,"ADDRESS":"安中二街５６巷２３號","OBJECTID":4180},"geometry":{"x":168569.49010999966,"y":2548379.9797810018}},{"attributes":{"ID":4181,"DIS_CODE":0,"TOWNNAME":"善化區","LI":"小新里","LIN":"11鄰","STREET":"陽光三路","SECT":" ","MAREA":" ","LANE":" ","ALLEY":" ","HOUSE_NO":"６６號","E_COORD97":179290.47734799999,"N_COORD97":2556876.2307600002,"ADDRESS":"陽光三路６６號","OBJECTID":4181},"geometry":{"x":179290.47734799981,"y":2556876.2307570018}},{"attributes":{"ID":4182,"DIS_CODE":0,"TOWNNAME":"安南區","LI":"頂安里","LIN":"17鄰","STREET":"安中二街","SECT":" ","MAREA":" ","LANE":"５６巷","ALLEY":" ","HOUSE_NO":"２５號","E_COORD97":168573.674589,"N_COORD97":2548380.2583699999,"ADDRESS":"安中二街５６巷２５號","OBJECTID":4182},"geometry":{"x":168573.67458899971,"y":2548380.2583670039}},{"attributes":{"ID":4183,"DIS_CODE":0,"TOWNNAME":"安南區","LI":"頂安里","LIN":"17鄰","STREET":"安中二街","SECT":" ","MAREA":" ","LANE":"５６巷","ALLEY":" ","HOUSE_NO":"３１號","E_COORD97":168585.39113100001,"N_COORD97":2548381.6513,"ADDRESS":"安中二街５６巷３１號","OBJECTID":4183},"geometry":{"x":168585.39113100059,"y":2548381.6512979995}},{"attributes":{"ID":4184,"DIS_CODE":0,"TOWNNAME":"善化區","LI":"小新里","LIN":"11鄰","STREET":"蓮潭南街","SECT":" ","MAREA":" ","LANE":"６８巷","ALLEY":" ","HOUSE_NO":"１號","E_COORD97":179341.100618,"N_COORD97":2556908.8274099999,"ADDRESS":"蓮潭南街６８巷１號","OBJECTID":4184},"geometry":{"x":179341.100618002,"y":2556908.8274060022}},{"attributes":{"ID":4185,"DIS_CODE":0,"TOWNNAME":"安南區","LI":"頂安里","LIN":"17鄰","STREET":"安中二街","SECT":" ","MAREA":" ","LANE":"５６巷","ALLEY":" ","HOUSE_NO":"３３號","E_COORD97":168590.41250599999,"N_COORD97":2548381.9298800002,"ADDRESS":"安中二街５６巷３３號","OBJECTID":4185},"geometry":{"x":168590.41250599921,"y":2548381.9298840016}},{"attributes":{"ID":4186,"DIS_CODE":0,"TOWNNAME":"善化區","LI":"小新里","LIN":"11鄰","STREET":"蓮潭南街","SECT":" ","MAREA":" ","LANE":"６８巷","ALLEY":" ","HOUSE_NO":"２號","E_COORD97":179331.46313300001,"N_COORD97":2556908.50991,"ADDRESS":"蓮潭南街６８巷２號","OBJECTID":4186},"geometry":{"x":179331.4631330017,"y":2556908.5099059995}},{"attributes":{"ID":4187,"DIS_CODE":0,"TOWNNAME":"善化區","LI":"小新里","LIN":"11鄰","STREET":"陽光三路","SECT":" ","MAREA":" ","LANE":" ","ALLEY":" ","HOUSE_NO":"９６號","E_COORD97":179293.33682200001,"N_COORD97":2556956.24071,"ADDRESS":"陽光三路９６號","OBJECTID":4187},"geometry":{"x":179293.33682200126,"y":2556956.2407140005}},{"attributes":{"ID":4188,"DIS_CODE":0,"TOWNNAME":"安南區","LI":"頂安里","LIN":"17鄰","STREET":"安中二街","SECT":" ","MAREA":" ","LANE":"７０巷","ALLEY":" ","HOUSE_NO":"２號","E_COORD97":168520.67118599999,"N_COORD97":2548391.4018199998,"ADDRESS":"安中二街７０巷２號","OBJECTID":4188},"geometry":{"x":168520.67118600104,"y":2548391.4018150009}},{"attributes":{"ID":4189,"DIS_CODE":0,"TOWNNAME":"安南區","LI":"頂安里","LIN":"17鄰","STREET":"安中二街","SECT":" ","MAREA":" ","LANE":"７０巷","ALLEY":" ","HOUSE_NO":"６號","E_COORD97":168524.57670000001,"N_COORD97":2548392.2375699999,"ADDRESS":"安中二街７０巷６號","OBJECTID":4189},"geometry":{"x":168524.57670000102,"y":2548392.2375740018}},{"attributes":{"ID":4190,"DIS_CODE":0,"TOWNNAME":"安南區","LI":"頂安里","LIN":"17鄰","STREET":"安中二街","SECT":" ","MAREA":" ","LANE":"７０巷","ALLEY":" ","HOUSE_NO":"８號","E_COORD97":168529.319109,"N_COORD97":2548393.6305,"ADDRESS":"安中二街７０巷８號","OBJECTID":4190},"geometry":{"x":168529.31910900027,"y":2548393.6305049993}},{"attributes":{"ID":4191,"DIS_CODE":0,"TOWNNAME":"安南區","LI":"頂安里","LIN":"17鄰","STREET":"安中二街","SECT":" ","MAREA":" ","LANE":"７０巷","ALLEY":" ","HOUSE_NO":"１６號","E_COORD97":168541.87254700001,"N_COORD97":2548393.3519199998,"ADDRESS":"安中二街７０巷１６號","OBJECTID":4191},"geometry":{"x":168541.87254699972,"y":2548393.3519180026}},{"attributes":{"ID":4192,"DIS_CODE":0,"TOWNNAME":"安南區","LI":"頂安里","LIN":"17鄰","STREET":"安中二街","SECT":" ","MAREA":" ","LANE":"７０巷","ALLEY":" ","HOUSE_NO":"１８號","E_COORD97":168546.05702599999,"N_COORD97":2548393.9090900002,"ADDRESS":"安中二街７０巷１８號","OBJECTID":4192},"geometry":{"x":168546.05702599976,"y":2548393.9090910014}},{"attributes":{"ID":4193,"DIS_CODE":0,"TOWNNAME":"安南區","LI":"頂安里","LIN":"17鄰","STREET":"安中二街","SECT":" ","MAREA":" ","LANE":"７０巷","ALLEY":" ","HOUSE_NO":"２０號","E_COORD97":168549.683575,"N_COORD97":2548394.4662600001,"ADDRESS":"安中二街７０巷２０號","OBJECTID":4193},"geometry":{"x":168549.68357500061,"y":2548394.4662629999}},{"attributes":{"ID":4194,"DIS_CODE":0,"TOWNNAME":"安南區","LI":"頂安里","LIN":"17鄰","STREET":"安中二街","SECT":" ","MAREA":" ","LANE":"７０巷","ALLEY":" ","HOUSE_NO":"２２號","E_COORD97":168554.70495000001,"N_COORD97":2548395.8591900002,"ADDRESS":"安中二街７０巷２２號","OBJECTID":4194},"geometry":{"x":168554.70495000016,"y":2548395.8591940012}},{"attributes":{"ID":4195,"DIS_CODE":0,"TOWNNAME":"安南區","LI":"頂安里","LIN":"17鄰","STREET":"安中二街","SECT":" ","MAREA":" ","LANE":"７０巷","ALLEY":" ","HOUSE_NO":"２６號","E_COORD97":168558.05253300001,"N_COORD97":2548396.13778,"ADDRESS":"安中二街７０巷２６號","OBJECTID":4195},"geometry":{"x":168558.05253300164,"y":2548396.1377799995}},{"attributes":{"ID":4196,"DIS_CODE":0,"TOWNNAME":"安南區","LI":"頂安里","LIN":"17鄰","STREET":"安中二街","SECT":" ","MAREA":" ","LANE":"７０巷","ALLEY":" ","HOUSE_NO":"３０號","E_COORD97":168566.700457,"N_COORD97":2548396.9735400002,"ADDRESS":"安中二街７０巷３０號","OBJECTID":4196},"geometry":{"x":168566.70045700204,"y":2548396.9735390004}},{"attributes":{"ID":4197,"DIS_CODE":0,"TOWNNAME":"安南區","LI":"頂安里","LIN":"17鄰","STREET":"安中二街","SECT":" ","MAREA":" ","LANE":"７０巷","ALLEY":" ","HOUSE_NO":"３２號","E_COORD97":168570.88493599999,"N_COORD97":2548397.2521299999,"ADDRESS":"安中二街７０巷３２號","OBJECTID":4197},"geometry":{"x":168570.88493599929,"y":2548397.2521250024}},{"attributes":{"ID":4198,"DIS_CODE":0,"TOWNNAME":"安南區","LI":"頂安里","LIN":"17鄰","STREET":"安中二街","SECT":" ","MAREA":" ","LANE":"７０巷","ALLEY":" ","HOUSE_NO":"３６號","E_COORD97":168575.62734599999,"N_COORD97":2548397.8092999998,"ADDRESS":"安中二街７０巷３６號","OBJECTID":4198},"geometry":{"x":168575.62734600063,"y":2548397.8092980012}},{"attributes":{"ID":4199,"DIS_CODE":0,"TOWNNAME":"安南區","LI":"頂安里","LIN":"17鄰","STREET":"安中二街","SECT":" ","MAREA":" ","LANE":"７０巷","ALLEY":" ","HOUSE_NO":"３８號","E_COORD97":168578.97493,"N_COORD97":2548397.8092999998,"ADDRESS":"安中二街７０巷３８號","OBJECTID":4199},"geometry":{"x":168578.97493000049,"y":2548397.8092980012}},{"attributes":{"ID":4200,"DIS_CODE":0,"TOWNNAME":"安南區","LI":"頂安里","LIN":"17鄰","STREET":"安中二街","SECT":" ","MAREA":" ","LANE":"７０巷","ALLEY":" ","HOUSE_NO":"４０號","E_COORD97":168583.99630500001,"N_COORD97":2548397.8092999998,"ADDRESS":"安中二街７０巷４０號","OBJECTID":4200},"geometry":{"x":168583.99630500004,"y":2548397.8092980012}}]}