{"displayFieldName":"TOWNNAME","fieldAliases":{"ID":"ID","DIS_CODE":"DIS_CODE","TOWNNAME":"TOWNNAME","LI":"LI","LIN":"LIN","STREET":"STREET","SECT":"SECT","MAREA":"MAREA","LANE":"LANE","ALLEY":"ALLEY","HOUSE_NO":"HOUSE_NO","E_COORD97":"E_COORD97","N_COORD97":"N_COORD97","ADDRESS":"ADDRESS","OBJECTID":"OBJECTID"},"geometryType":"esriGeometryPoint","spatialReference":{"wkid":102443,"latestWkid":3826},"fields":[{"name":"ID","type":"esriFieldTypeDouble","alias":"ID"},{"name":"DIS_CODE","type":"esriFieldTypeInteger","alias":"DIS_CODE"},{"name":"TOWNNAME","type":"esriFieldTypeString","alias":"TOWNNAME","length":8},{"name":"LI","type":"esriFieldTypeString","alias":"LI","length":8},{"name":"LIN","type":"esriFieldTypeString","alias":"LIN","length":12},{"name":"STREET","type":"esriFieldTypeString","alias":"STREET","length":20},{"name":"SECT","type":"esriFieldTypeString","alias":"SECT","length":8},{"name":"MAREA","type":"esriFieldTypeString","alias":"MAREA","length":12},{"name":"LANE","type":"esriFieldTypeString","alias":"LANE","length":10},{"name":"ALLEY","type":"esriFieldTypeString","alias":"ALLEY","length":10},{"name":"HOUSE_NO","type":"esriFieldTypeString","alias":"HOUSE_NO","length":20},{"name":"E_COORD97","type":"esriFieldTypeDouble","alias":"E_COORD97"},{"name":"N_COORD97","type":"esriFieldTypeDouble","alias":"N_COORD97"},{"name":"ADDRESS","type":"esriFieldTypeString","alias":"ADDRESS","length":50},{"name":"OBJECTID","type":"esriFieldTypeOID","alias":"OBJECTID"}],"features":[{"attributes":{"ID":219602,"DIS_CODE":0,"TOWNNAME":"安定區","LI":"港南里","LIN":"13鄰","STREET":" ","SECT":" ","MAREA":"港口","LANE":" ","ALLEY":" ","HOUSE_NO":"９８之３號","E_COORD97":171224.23999999999,"N_COORD97":2554336.2999999998,"ADDRESS":"港口９８之３號","OBJECTID":219601},"geometry":{"x":171224.24000000209,"y":2554336.2999999989}},{"attributes":{"ID":219603,"DIS_CODE":0,"TOWNNAME":"安定區","LI":"新吉里","LIN":"13鄰","STREET":" ","SECT":" ","MAREA":"新吉","LANE":" ","ALLEY":" ","HOUSE_NO":"１１５號","E_COORD97":169451.42000000001,"N_COORD97":2554006.25,"ADDRESS":"新吉１１５號","OBJECTID":219602},"geometry":{"x":169451.42000000086,"y":2554006.25}},{"attributes":{"ID":219604,"DIS_CODE":0,"TOWNNAME":"北區","LI":"成德里","LIN":"23鄰","STREET":"育德二路","SECT":" ","MAREA":" ","LANE":"８１０巷","ALLEY":"２弄","HOUSE_NO":"２８號","E_COORD97":168172.60000000001,"N_COORD97":2546705.4399999999,"ADDRESS":"育德二路８１０巷２弄２８號","OBJECTID":219603},"geometry":{"x":168172.59999999963,"y":2546705.4399999995}},{"attributes":{"ID":219605,"DIS_CODE":0,"TOWNNAME":"新營區","LI":"新南里","LIN":"23鄰","STREET":"復興路","SECT":" ","MAREA":" ","LANE":"６２０巷","ALLEY":"１５弄","HOUSE_NO":"４８號","E_COORD97":177940.19,"N_COORD97":2578424.23,"ADDRESS":"復興路６２０巷１５弄４８號","OBJECTID":219604},"geometry":{"x":177940.19000000134,"y":2578424.2300000004}},{"attributes":{"ID":219606,"DIS_CODE":0,"TOWNNAME":"永康區","LI":"復國里","LIN":"28鄰","STREET":"復國一路","SECT":" ","MAREA":" ","LANE":" ","ALLEY":" ","HOUSE_NO":"２２５號","E_COORD97":172727.01999999999,"N_COORD97":2545385.7799999998,"ADDRESS":"復國一路２２５號","OBJECTID":219605},"geometry":{"x":172727.02000000142,"y":2545385.7800000012}},{"attributes":{"ID":219607,"DIS_CODE":0,"TOWNNAME":"永康區","LI":"復國里","LIN":"28鄰","STREET":"復國一路","SECT":" ","MAREA":" ","LANE":" ","ALLEY":" ","HOUSE_NO":"２２９號","E_COORD97":172727.32000000001,"N_COORD97":2545394.5299999998,"ADDRESS":"復國一路２２９號","OBJECTID":219606},"geometry":{"x":172727.31999999937,"y":2545394.5300000012}},{"attributes":{"ID":219608,"DIS_CODE":0,"TOWNNAME":"永康區","LI":"大橋里","LIN":"28鄰","STREET":"中華路","SECT":" ","MAREA":" ","LANE":" ","ALLEY":" ","HOUSE_NO":"６２６號","E_COORD97":171115.45000000001,"N_COORD97":2546078.98,"ADDRESS":"中華路６２６號","OBJECTID":219607},"geometry":{"x":171115.45000000019,"y":2546078.9800000004}},{"attributes":{"ID":219609,"DIS_CODE":0,"TOWNNAME":"永康區","LI":"埔園里","LIN":"28鄰","STREET":"中山路","SECT":" ","MAREA":" ","LANE":" ","ALLEY":" ","HOUSE_NO":"３３０號","E_COORD97":173673.48999999999,"N_COORD97":2548200.4399999999,"ADDRESS":"中山路３３０號","OBJECTID":219608},"geometry":{"x":173673.49000000022,"y":2548200.4399999995}},{"attributes":{"ID":219610,"DIS_CODE":0,"TOWNNAME":"永康區","LI":"復國里","LIN":"28鄰","STREET":"復國一路","SECT":" ","MAREA":" ","LANE":" ","ALLEY":" ","HOUSE_NO":"２１９號","E_COORD97":172726.01999999999,"N_COORD97":2545373.2799999998,"ADDRESS":"復國一路２１９號","OBJECTID":219609},"geometry":{"x":172726.02000000048,"y":2545373.2799999993}},{"attributes":{"ID":219611,"DIS_CODE":0,"TOWNNAME":"新營區","LI":"南紙里","LIN":"23鄰","STREET":"南紙街","SECT":" ","MAREA":" ","LANE":"１１７巷","ALLEY":"４０弄","HOUSE_NO":"２號","E_COORD97":177900.35000000001,"N_COORD97":2577433.2400000002,"ADDRESS":"南紙街１１７巷４０弄２號","OBJECTID":219610},"geometry":{"x":177900.35000000149,"y":2577433.2400000021}},{"attributes":{"ID":219612,"DIS_CODE":0,"TOWNNAME":"新營區","LI":"新南里","LIN":"23鄰","STREET":"復興路","SECT":" ","MAREA":" ","LANE":"６２０巷","ALLEY":"１５弄","HOUSE_NO":"６２號","E_COORD97":177908.45999999999,"N_COORD97":2578435.46,"ADDRESS":"復興路６２０巷１５弄６２號","OBJECTID":219611},"geometry":{"x":177908.46000000089,"y":2578435.4600000028}},{"attributes":{"ID":219613,"DIS_CODE":0,"TOWNNAME":"永康區","LI":"永康里","LIN":"23鄰","STREET":"中山南路","SECT":" ","MAREA":" ","LANE":"５９７巷","ALLEY":"９弄","HOUSE_NO":"１６之１２號","E_COORD97":173380.88,"N_COORD97":2547285.5499999998,"ADDRESS":"中山南路５９７巷９弄１６之１２號","OBJECTID":219612},"geometry":{"x":173380.88000000175,"y":2547285.5500000007}},{"attributes":{"ID":219614,"DIS_CODE":0,"TOWNNAME":"永康區","LI":"東灣里","LIN":"23鄰","STREET":"大灣一街","SECT":" ","MAREA":" ","LANE":"２７１巷","ALLEY":"６弄","HOUSE_NO":"１３號","E_COORD97":175015.06,"N_COORD97":2544801.1899999999,"ADDRESS":"大灣一街２７１巷６弄１３號","OBJECTID":219613},"geometry":{"x":175015.05999999959,"y":2544801.1899999995}},{"attributes":{"ID":219615,"DIS_CODE":0,"TOWNNAME":"永康區","LI":"埔園里","LIN":"23鄰","STREET":"中正路","SECT":" ","MAREA":" ","LANE":"１４８巷","ALLEY":"１７弄","HOUSE_NO":"２號","E_COORD97":173516.35000000001,"N_COORD97":2547941.4900000002,"ADDRESS":"中正路１４８巷１７弄２號","OBJECTID":219614},"geometry":{"x":173516.3499999987,"y":2547941.4900000021}},{"attributes":{"ID":219616,"DIS_CODE":0,"TOWNNAME":"永康區","LI":"永康里","LIN":"23鄰","STREET":"中山南路","SECT":" ","MAREA":" ","LANE":"５９７巷","ALLEY":"９弄","HOUSE_NO":"１６之１號","E_COORD97":173404.66,"N_COORD97":2547247.4900000002,"ADDRESS":"中山南路５９７巷９弄１６之１號","OBJECTID":219615},"geometry":{"x":173404.65999999922,"y":2547247.4900000002}},{"attributes":{"ID":219617,"DIS_CODE":0,"TOWNNAME":"東區","LI":"龍山里","LIN":"5鄰","STREET":"崇善路","SECT":" ","MAREA":" ","LANE":" ","ALLEY":" ","HOUSE_NO":"５５號","E_COORD97":170176.49214399999,"N_COORD97":2542519.7869500001,"ADDRESS":"崇善路５５號","OBJECTID":219616},"geometry":{"x":170176.49214400072,"y":2542519.7869550008}},{"attributes":{"ID":219618,"DIS_CODE":0,"TOWNNAME":"永康區","LI":"永康里","LIN":"23鄰","STREET":"中山南路","SECT":" ","MAREA":" ","LANE":"５９７巷","ALLEY":"９弄","HOUSE_NO":"１６之５號","E_COORD97":173399.07000000001,"N_COORD97":2547275.0699999998,"ADDRESS":"中山南路５９７巷９弄１６之５號","OBJECTID":219617},"geometry":{"x":173399.07000000123,"y":2547275.0700000003}},{"attributes":{"ID":219619,"DIS_CODE":0,"TOWNNAME":"永康區","LI":"埔園里","LIN":"23鄰","STREET":"中正路","SECT":" ","MAREA":" ","LANE":"１４８巷","ALLEY":"１９弄","HOUSE_NO":"３號","E_COORD97":173522.59,"N_COORD97":2547981.25,"ADDRESS":"中正路１４８巷１９弄３號","OBJECTID":219618},"geometry":{"x":173522.59000000078,"y":2547981.25}},{"attributes":{"ID":219620,"DIS_CODE":0,"TOWNNAME":"善化區","LI":"胡厝里","LIN":"28鄰","STREET":" ","SECT":" ","MAREA":"烏橋","LANE":" ","ALLEY":" ","HOUSE_NO":"４７號","E_COORD97":175317.67999999999,"N_COORD97":2558900,"ADDRESS":"烏橋４７號","OBJECTID":219619},"geometry":{"x":175317.6799999997,"y":2558900}},{"attributes":{"ID":219621,"DIS_CODE":0,"TOWNNAME":"善化區","LI":"胡厝里","LIN":"28鄰","STREET":" ","SECT":" ","MAREA":"烏橋","LANE":" ","ALLEY":" ","HOUSE_NO":"４４號","E_COORD97":175316.82000000001,"N_COORD97":2558929.25,"ADDRESS":"烏橋４４號","OBJECTID":219620},"geometry":{"x":175316.82000000123,"y":2558929.25}},{"attributes":{"ID":219622,"DIS_CODE":0,"TOWNNAME":"善化區","LI":"胡厝里","LIN":"28鄰","STREET":" ","SECT":" ","MAREA":"烏橋","LANE":" ","ALLEY":" ","HOUSE_NO":"５０號","E_COORD97":175319.01999999999,"N_COORD97":2558874.5,"ADDRESS":"烏橋５０號","OBJECTID":219621},"geometry":{"x":175319.02000000142,"y":2558874.5000000019}},{"attributes":{"ID":219623,"DIS_CODE":0,"TOWNNAME":"善化區","LI":"溪美里","LIN":"28鄰","STREET":" ","SECT":" ","MAREA":"溪尾","LANE":" ","ALLEY":" ","HOUSE_NO":"１７８之６號","E_COORD97":176884.57999999999,"N_COORD97":2561261.02,"ADDRESS":"溪尾１７８之６號","OBJECTID":219622},"geometry":{"x":176884.58000000101,"y":2561261.0200000014}},{"attributes":{"ID":219624,"DIS_CODE":0,"TOWNNAME":"善化區","LI":"溪美里","LIN":"20鄰","STREET":" ","SECT":" ","MAREA":"溪尾","LANE":" ","ALLEY":" ","HOUSE_NO":"１７８號之１２","E_COORD97":176912.95000000001,"N_COORD97":2561250.02,"ADDRESS":"溪尾１７８號之１２","OBJECTID":219623},"geometry":{"x":176912.95000000019,"y":2561250.0200000033}},{"attributes":{"ID":219625,"DIS_CODE":0,"TOWNNAME":"善化區","LI":"胡厝里","LIN":"28鄰","STREET":" ","SECT":" ","MAREA":"烏橋","LANE":" ","ALLEY":" ","HOUSE_NO":"４３號","E_COORD97":175316.48000000001,"N_COORD97":2558936.25,"ADDRESS":"烏橋４３號","OBJECTID":219624},"geometry":{"x":175316.48000000045,"y":2558936.25}},{"attributes":{"ID":219626,"DIS_CODE":0,"TOWNNAME":"永康區","LI":"永康里","LIN":"23鄰","STREET":"中山南路","SECT":" ","MAREA":" ","LANE":"５９７巷","ALLEY":"９弄","HOUSE_NO":"１６之９號","E_COORD97":173393.59,"N_COORD97":2547298.4399999999,"ADDRESS":"中山南路５９７巷９弄１６之９號","OBJECTID":219625},"geometry":{"x":173393.59000000078,"y":2547298.4399999995}},{"attributes":{"ID":219627,"DIS_CODE":0,"TOWNNAME":"永康區","LI":"東灣里","LIN":"23鄰","STREET":"大灣一街","SECT":" ","MAREA":" ","LANE":"２７１巷","ALLEY":"６弄","HOUSE_NO":"７號","E_COORD97":175004.5,"N_COORD97":2544788.7200000002,"ADDRESS":"大灣一街２７１巷６弄７號","OBJECTID":219626},"geometry":{"x":175004.50000000093,"y":2544788.7200000007}},{"attributes":{"ID":219628,"DIS_CODE":0,"TOWNNAME":"永康區","LI":"大橋里","LIN":"28鄰","STREET":"中華路","SECT":" ","MAREA":" ","LANE":" ","ALLEY":" ","HOUSE_NO":"６８６號","E_COORD97":171021.54000000001,"N_COORD97":2546238.9199999999,"ADDRESS":"中華路６８６號","OBJECTID":219627},"geometry":{"x":171021.54000000004,"y":2546238.9200000018}},{"attributes":{"ID":219629,"DIS_CODE":0,"TOWNNAME":"永康區","LI":"永康里","LIN":"23鄰","STREET":"中山南路","SECT":" ","MAREA":" ","LANE":"５９７巷","ALLEY":"９弄","HOUSE_NO":"１６之２號","E_COORD97":173401.89000000001,"N_COORD97":2547258.5699999998,"ADDRESS":"中山南路５９７巷９弄１６之２號","OBJECTID":219628},"geometry":{"x":173401.88999999966,"y":2547258.570000004}},{"attributes":{"ID":219630,"DIS_CODE":0,"TOWNNAME":"永康區","LI":"永康里","LIN":"23鄰","STREET":"中山南路","SECT":" ","MAREA":" ","LANE":"５９７巷","ALLEY":"９弄","HOUSE_NO":"１６之１３號","E_COORD97":173375.13,"N_COORD97":2547286.71,"ADDRESS":"中山南路５９７巷９弄１６之１３號","OBJECTID":219629},"geometry":{"x":173375.12999999989,"y":2547286.7100000028}},{"attributes":{"ID":219631,"DIS_CODE":0,"TOWNNAME":"永康區","LI":"東灣里","LIN":"23鄰","STREET":"大灣一街","SECT":" ","MAREA":" ","LANE":"２７１巷","ALLEY":"６弄","HOUSE_NO":"１１號","E_COORD97":175012.32999999999,"N_COORD97":2544795.98,"ADDRESS":"大灣一街２７１巷６弄１１號","OBJECTID":219630},"geometry":{"x":175012.33000000194,"y":2544795.9800000023}},{"attributes":{"ID":219632,"DIS_CODE":0,"TOWNNAME":"永康區","LI":"永康里","LIN":"23鄰","STREET":"中山南路","SECT":" ","MAREA":" ","LANE":"５９７巷","ALLEY":"９弄","HOUSE_NO":"１６之１１號","E_COORD97":173385.92000000001,"N_COORD97":2547285.7400000002,"ADDRESS":"中山南路５９７巷９弄１６之１１號","OBJECTID":219631},"geometry":{"x":173385.92000000179,"y":2547285.7400000021}},{"attributes":{"ID":219633,"DIS_CODE":0,"TOWNNAME":"永康區","LI":"永康里","LIN":"23鄰","STREET":"中山南路","SECT":" ","MAREA":" ","LANE":"５９７巷","ALLEY":"９弄","HOUSE_NO":"１６之８號","E_COORD97":173397.70000000001,"N_COORD97":2547301.1699999999,"ADDRESS":"中山南路５９７巷９弄１６之８號","OBJECTID":219632},"geometry":{"x":173397.70000000205,"y":2547301.1699999999}},{"attributes":{"ID":219634,"DIS_CODE":0,"TOWNNAME":"永康區","LI":"永康里","LIN":"23鄰","STREET":"中山南路","SECT":" ","MAREA":" ","LANE":"５９７巷","ALLEY":"９弄","HOUSE_NO":"１６之６號","E_COORD97":173395.98000000001,"N_COORD97":2547279.52,"ADDRESS":"中山南路５９７巷９弄１６之６號","OBJECTID":219633},"geometry":{"x":173395.97999999952,"y":2547279.5200000014}},{"attributes":{"ID":219635,"DIS_CODE":0,"TOWNNAME":"永康區","LI":"永康里","LIN":"23鄰","STREET":"中山南路","SECT":" ","MAREA":" ","LANE":"５９７巷","ALLEY":"９弄","HOUSE_NO":"１６號","E_COORD97":173408.14999999999,"N_COORD97":2547226.0800000001,"ADDRESS":"中山南路５９７巷９弄１６號","OBJECTID":219634},"geometry":{"x":173408.15000000037,"y":2547226.0800000001}},{"attributes":{"ID":219636,"DIS_CODE":0,"TOWNNAME":"永康區","LI":"東灣里","LIN":"23鄰","STREET":"大灣一街","SECT":" ","MAREA":" ","LANE":"２７１巷","ALLEY":"６弄","HOUSE_NO":"９號","E_COORD97":175010.79000000001,"N_COORD97":2544792.0800000001,"ADDRESS":"大灣一街２７１巷６弄９號","OBJECTID":219635},"geometry":{"x":175010.7900000019,"y":2544792.0800000001}},{"attributes":{"ID":219637,"DIS_CODE":0,"TOWNNAME":"永康區","LI":"埔園里","LIN":"23鄰","STREET":"中正路","SECT":" ","MAREA":" ","LANE":"１４８巷","ALLEY":"１７弄","HOUSE_NO":"１８號","E_COORD97":173508.82000000001,"N_COORD97":2547974.3999999999,"ADDRESS":"中正路１４８巷１７弄１８號","OBJECTID":219636},"geometry":{"x":173508.81999999937,"y":2547974.4000000004}},{"attributes":{"ID":219638,"DIS_CODE":0,"TOWNNAME":"永康區","LI":"埔園里","LIN":"23鄰","STREET":"中正路","SECT":" ","MAREA":" ","LANE":"１４８巷","ALLEY":"１９弄","HOUSE_NO":"１號","E_COORD97":173522.85000000001,"N_COORD97":2547971.02,"ADDRESS":"中正路１４８巷１９弄１號","OBJECTID":219637},"geometry":{"x":173522.84999999963,"y":2547971.0200000014}},{"attributes":{"ID":219639,"DIS_CODE":0,"TOWNNAME":"永康區","LI":"埔園里","LIN":"23鄰","STREET":"中正路","SECT":" ","MAREA":" ","LANE":"１４８巷","ALLEY":"１７弄","HOUSE_NO":"８號","E_COORD97":173519.81,"N_COORD97":2547955.77,"ADDRESS":"中正路１４８巷１７弄８號","OBJECTID":219638},"geometry":{"x":173519.80999999959,"y":2547955.7700000014}},{"attributes":{"ID":219640,"DIS_CODE":0,"TOWNNAME":"永康區","LI":"埔園里","LIN":"23鄰","STREET":"中正路","SECT":" ","MAREA":" ","LANE":"１４８巷","ALLEY":"１７弄","HOUSE_NO":"６號","E_COORD97":173515.35999999999,"N_COORD97":2547948.8399999999,"ADDRESS":"中正路１４８巷１７弄６號","OBJECTID":219639},"geometry":{"x":173515.3599999994,"y":2547948.8400000017}},{"attributes":{"ID":219641,"DIS_CODE":0,"TOWNNAME":"永康區","LI":"埔園里","LIN":"23鄰","STREET":"中正路","SECT":" ","MAREA":" ","LANE":"１４８巷","ALLEY":"１７弄","HOUSE_NO":"１６號","E_COORD97":173507.97,"N_COORD97":2547967.5800000001,"ADDRESS":"中正路１４８巷１７弄１６號","OBJECTID":219640},"geometry":{"x":173507.97000000067,"y":2547967.5800000019}},{"attributes":{"ID":219642,"DIS_CODE":0,"TOWNNAME":"仁德區","LI":"後壁里","LIN":"28鄰","STREET":"德洋路","SECT":" ","MAREA":" ","LANE":" ","ALLEY":" ","HOUSE_NO":"２７號","E_COORD97":173149.07999999999,"N_COORD97":2539007.27,"ADDRESS":"德洋路２７號","OBJECTID":219641},"geometry":{"x":173149.08000000007,"y":2539007.2699999996}},{"attributes":{"ID":219643,"DIS_CODE":0,"TOWNNAME":"永康區","LI":"埔園里","LIN":"23鄰","STREET":"中正路","SECT":" ","MAREA":" ","LANE":"１４８巷","ALLEY":"１７弄","HOUSE_NO":"１２號","E_COORD97":173510.45999999999,"N_COORD97":2547963.9700000002,"ADDRESS":"中正路１４８巷１７弄１２號","OBJECTID":219642},"geometry":{"x":173510.45999999996,"y":2547963.9700000007}},{"attributes":{"ID":219644,"DIS_CODE":0,"TOWNNAME":"永康區","LI":"永康里","LIN":"23鄰","STREET":"中山南路","SECT":" ","MAREA":" ","LANE":"５９７巷","ALLEY":"９弄","HOUSE_NO":"１６之１０號","E_COORD97":173388.37,"N_COORD97":2547298.46,"ADDRESS":"中山南路５９７巷９弄１６之１０號","OBJECTID":219643},"geometry":{"x":173388.37000000104,"y":2547298.4600000028}},{"attributes":{"ID":219645,"DIS_CODE":0,"TOWNNAME":"永康區","LI":"埔園里","LIN":"23鄰","STREET":"中正路","SECT":" ","MAREA":" ","LANE":"１４８巷","ALLEY":"１７弄","HOUSE_NO":"２０號","E_COORD97":173505.70000000001,"N_COORD97":2547979.6000000001,"ADDRESS":"中正路１４８巷１７弄２０號","OBJECTID":219644},"geometry":{"x":173505.70000000019,"y":2547979.5999999978}},{"attributes":{"ID":219646,"DIS_CODE":0,"TOWNNAME":"永康區","LI":"埔園里","LIN":"23鄰","STREET":"中正路","SECT":" ","MAREA":" ","LANE":"１４８巷","ALLEY":"１７弄","HOUSE_NO":"３０號","E_COORD97":173540.91,"N_COORD97":2548010.8599999999,"ADDRESS":"中正路１４８巷１７弄３０號","OBJECTID":219645},"geometry":{"x":173540.91000000108,"y":2548010.8599999994}},{"attributes":{"ID":219647,"DIS_CODE":0,"TOWNNAME":"永康區","LI":"東灣里","LIN":"23鄰","STREET":"大灣一街","SECT":" ","MAREA":" ","LANE":"２７１巷","ALLEY":"６弄","HOUSE_NO":"３號","E_COORD97":175000.82999999999,"N_COORD97":2544780.6099999999,"ADDRESS":"大灣一街２７１巷６弄３號","OBJECTID":219646},"geometry":{"x":175000.83000000101,"y":2544780.6100000013}},{"attributes":{"ID":219648,"DIS_CODE":0,"TOWNNAME":"永康區","LI":"東灣里","LIN":"23鄰","STREET":"大灣一街","SECT":" ","MAREA":" ","LANE":"２７１巷","ALLEY":"６弄","HOUSE_NO":"１５號","E_COORD97":175020.34,"N_COORD97":2544804.5600000001,"ADDRESS":"大灣一街２７１巷６弄１５號","OBJECTID":219647},"geometry":{"x":175020.33999999892,"y":2544804.5600000024}},{"attributes":{"ID":219649,"DIS_CODE":0,"TOWNNAME":"永康區","LI":"埔園里","LIN":"23鄰","STREET":"中正路","SECT":" ","MAREA":" ","LANE":"１４８巷","ALLEY":"１７弄","HOUSE_NO":"２６號","E_COORD97":173499.47,"N_COORD97":2547996.9300000002,"ADDRESS":"中正路１４８巷１７弄２６號","OBJECTID":219648},"geometry":{"x":173499.47000000067,"y":2547996.9299999997}},{"attributes":{"ID":219650,"DIS_CODE":0,"TOWNNAME":"永康區","LI":"埔園里","LIN":"23鄰","STREET":"中正路","SECT":" ","MAREA":" ","LANE":"１４８巷","ALLEY":"１７弄","HOUSE_NO":"２２號","E_COORD97":173502.09,"N_COORD97":2547984.2200000002,"ADDRESS":"中正路１４８巷１７弄２２號","OBJECTID":219649},"geometry":{"x":173502.09000000078,"y":2547984.2200000025}},{"attributes":{"ID":219651,"DIS_CODE":0,"TOWNNAME":"永康區","LI":"復國里","LIN":"28鄰","STREET":"復國一路","SECT":" ","MAREA":" ","LANE":" ","ALLEY":" ","HOUSE_NO":"１８３號","E_COORD97":172711.54999999999,"N_COORD97":2545236.9900000002,"ADDRESS":"復國一路１８３號","OBJECTID":219650},"geometry":{"x":172711.54999999981,"y":2545236.9900000002}},{"attributes":{"ID":219652,"DIS_CODE":0,"TOWNNAME":"永康區","LI":"大灣里","LIN":"28鄰","STREET":"文賢街","SECT":" ","MAREA":" ","LANE":" ","ALLEY":" ","HOUSE_NO":"５１號","E_COORD97":175276.28,"N_COORD97":2545043.0800000001,"ADDRESS":"文賢街５１號","OBJECTID":219651},"geometry":{"x":175276.28000000119,"y":2545043.0800000001}},{"attributes":{"ID":219653,"DIS_CODE":0,"TOWNNAME":"永康區","LI":"五王里","LIN":"28鄰","STREET":"五福街","SECT":" ","MAREA":" ","LANE":" ","ALLEY":" ","HOUSE_NO":"１５０號","E_COORD97":171607.82000000001,"N_COORD97":2546015.75,"ADDRESS":"五福街１５０號","OBJECTID":219652},"geometry":{"x":171607.8200000003,"y":2546015.75}},{"attributes":{"ID":219654,"DIS_CODE":0,"TOWNNAME":"安定區","LI":"港南里","LIN":"4鄰","STREET":" ","SECT":" ","MAREA":"港口","LANE":" ","ALLEY":" ","HOUSE_NO":"２５之２３號","E_COORD97":171496.69,"N_COORD97":2554024.2999999998,"ADDRESS":"港口２５之２３號","OBJECTID":219653},"geometry":{"x":171496.69000000134,"y":2554024.3000000007}},{"attributes":{"ID":219655,"DIS_CODE":0,"TOWNNAME":"安定區","LI":"港南里","LIN":"4鄰","STREET":" ","SECT":" ","MAREA":"港口","LANE":" ","ALLEY":" ","HOUSE_NO":"２５之３０號","E_COORD97":171522.89000000001,"N_COORD97":2554038.2999999998,"ADDRESS":"港口２５之３０號","OBJECTID":219654},"geometry":{"x":171522.8900000006,"y":2554038.3000000045}},{"attributes":{"ID":219656,"DIS_CODE":0,"TOWNNAME":"安定區","LI":"港南里","LIN":"4鄰","STREET":" ","SECT":" ","MAREA":"港口","LANE":" ","ALLEY":" ","HOUSE_NO":"２５之２６號","E_COORD97":171507.69,"N_COORD97":2554030.2999999998,"ADDRESS":"港口２５之２６號","OBJECTID":219655},"geometry":{"x":171507.69000000041,"y":2554030.3000000007}},{"attributes":{"ID":219657,"DIS_CODE":0,"TOWNNAME":"永康區","LI":"永康里","LIN":"23鄰","STREET":"中山南路","SECT":" ","MAREA":" ","LANE":"５９７巷","ALLEY":"９弄","HOUSE_NO":"１６之７號","E_COORD97":173396.73000000001,"N_COORD97":2547286.3500000001,"ADDRESS":"中山南路５９７巷９弄１６之７號","OBJECTID":219656},"geometry":{"x":173396.73000000138,"y":2547286.3500000034}},{"attributes":{"ID":219658,"DIS_CODE":0,"TOWNNAME":"永康區","LI":"埔園里","LIN":"23鄰","STREET":"中正路","SECT":" ","MAREA":" ","LANE":"１４８巷","ALLEY":"１７弄","HOUSE_NO":"２８號","E_COORD97":173520.67000000001,"N_COORD97":2548003.3999999999,"ADDRESS":"中正路１４８巷１７弄２８號","OBJECTID":219657},"geometry":{"x":173520.66999999993,"y":2548003.4000000022}},{"attributes":{"ID":219659,"DIS_CODE":0,"TOWNNAME":"永康區","LI":"埔園里","LIN":"23鄰","STREET":"中正路","SECT":" ","MAREA":" ","LANE":"１４８巷","ALLEY":"１７弄","HOUSE_NO":"１０號","E_COORD97":173515.12,"N_COORD97":2547960.3300000001,"ADDRESS":"中正路１４８巷１７弄１０號","OBJECTID":219658},"geometry":{"x":173515.12000000197,"y":2547960.3300000001}},{"attributes":{"ID":219660,"DIS_CODE":0,"TOWNNAME":"新市區","LI":"新市里","LIN":"28鄰","STREET":"復興路","SECT":" ","MAREA":" ","LANE":" ","ALLEY":" ","HOUSE_NO":"４６號","E_COORD97":177828.48000000001,"N_COORD97":2553437.2799999998,"ADDRESS":"復興路４６號","OBJECTID":219659},"geometry":{"x":177828.48000000045,"y":2553437.2800000012}},{"attributes":{"ID":219661,"DIS_CODE":0,"TOWNNAME":"東區","LI":"東明里","LIN":"28鄰","STREET":"東安路","SECT":" ","MAREA":" ","LANE":" ","ALLEY":" ","HOUSE_NO":"２５號","E_COORD97":170650.48000000001,"N_COORD97":2543543.4300000002,"ADDRESS":"東安路２５號","OBJECTID":219660},"geometry":{"x":170650.48000000138,"y":2543543.4300000016}},{"attributes":{"ID":219662,"DIS_CODE":0,"TOWNNAME":"東區","LI":"東明里","LIN":"28鄰","STREET":"東安路","SECT":" ","MAREA":" ","LANE":" ","ALLEY":" ","HOUSE_NO":"３３號","E_COORD97":170653.51999999999,"N_COORD97":2543560.0099999998,"ADDRESS":"東安路３３號","OBJECTID":219661},"geometry":{"x":170653.51999999955,"y":2543560.0100000016}},{"attributes":{"ID":219663,"DIS_CODE":0,"TOWNNAME":"永康區","LI":"東灣里","LIN":"23鄰","STREET":"大灣一街","SECT":" ","MAREA":" ","LANE":"２７１巷","ALLEY":"６弄","HOUSE_NO":"５號","E_COORD97":175007.73000000001,"N_COORD97":2544781.8300000001,"ADDRESS":"大灣一街２７１巷６弄５號","OBJECTID":219662},"geometry":{"x":175007.73000000045,"y":2544781.8300000019}},{"attributes":{"ID":219664,"DIS_CODE":0,"TOWNNAME":"歸仁區","LI":"大廟里","LIN":"23鄰","STREET":"大廟一街","SECT":" ","MAREA":" ","LANE":"３８巷","ALLEY":"２５弄","HOUSE_NO":"１２號","E_COORD97":175730.41,"N_COORD97":2544070.3399999999,"ADDRESS":"大廟一街３８巷２５弄１２號","OBJECTID":219663},"geometry":{"x":175730.40999999922,"y":2544070.3400000017}},{"attributes":{"ID":219665,"DIS_CODE":0,"TOWNNAME":"歸仁區","LI":"大廟里","LIN":"23鄰","STREET":"大廟一街","SECT":" ","MAREA":" ","LANE":"３８巷","ALLEY":"２５弄","HOUSE_NO":"２４號","E_COORD97":175698.64000000001,"N_COORD97":2544055.73,"ADDRESS":"大廟一街３８巷２５弄２４號","OBJECTID":219664},"geometry":{"x":175698.6400000006,"y":2544055.7300000004}},{"attributes":{"ID":219666,"DIS_CODE":0,"TOWNNAME":"永康區","LI":"正強里","LIN":"23鄰","STREET":"自強路","SECT":" ","MAREA":" ","LANE":"２５５巷","ALLEY":"２６弄","HOUSE_NO":"１２號","E_COORD97":173191.45999999999,"N_COORD97":2547658.1499999999,"ADDRESS":"自強路２５５巷２６弄１２號","OBJECTID":219665},"geometry":{"x":173191.45999999996,"y":2547658.1500000041}},{"attributes":{"ID":219667,"DIS_CODE":0,"TOWNNAME":"永康區","LI":"光復里","LIN":"23鄰","STREET":"復興路","SECT":" ","MAREA":" ","LANE":"１２８巷","ALLEY":"１弄","HOUSE_NO":"１號","E_COORD97":172720.62,"N_COORD97":2544367.5299999998,"ADDRESS":"復興路１２８巷１弄１號","OBJECTID":219666},"geometry":{"x":172720.62000000104,"y":2544367.5299999993}},{"attributes":{"ID":219668,"DIS_CODE":0,"TOWNNAME":"永康區","LI":"安康里","LIN":"23鄰","STREET":"中華路","SECT":" ","MAREA":" ","LANE":"７０３巷","ALLEY":"７１弄","HOUSE_NO":"５號","E_COORD97":170765.95000000001,"N_COORD97":2546212.75,"ADDRESS":"中華路７０３巷７１弄５號","OBJECTID":219667},"geometry":{"x":170765.95000000019,"y":2546212.7500000037}},{"attributes":{"ID":219669,"DIS_CODE":0,"TOWNNAME":"安定區","LI":"港南里","LIN":"4鄰","STREET":" ","SECT":" ","MAREA":"港口","LANE":" ","ALLEY":" ","HOUSE_NO":"２５之３號","E_COORD97":171552.14000000001,"N_COORD97":2554068.2999999998,"ADDRESS":"港口２５之３號","OBJECTID":219668},"geometry":{"x":171552.1400000006,"y":2554068.3000000007}},{"attributes":{"ID":219670,"DIS_CODE":0,"TOWNNAME":"安定區","LI":"港南里","LIN":"4鄰","STREET":" ","SECT":" ","MAREA":"港口","LANE":" ","ALLEY":" ","HOUSE_NO":"２５之１９號","E_COORD97":171491.79000000001,"N_COORD97":2554035.2999999998,"ADDRESS":"港口２５之１９號","OBJECTID":219669},"geometry":{"x":171491.79000000097,"y":2554035.3000000026}},{"attributes":{"ID":219671,"DIS_CODE":0,"TOWNNAME":"安定區","LI":"港南里","LIN":"4鄰","STREET":" ","SECT":" ","MAREA":"港口","LANE":" ","ALLEY":" ","HOUSE_NO":"２５之１７號","E_COORD97":171499.69,"N_COORD97":2554039.2999999998,"ADDRESS":"港口２５之１７號","OBJECTID":219670},"geometry":{"x":171499.69000000134,"y":2554039.3000000026}},{"attributes":{"ID":219672,"DIS_CODE":0,"TOWNNAME":"安定區","LI":"港南里","LIN":"18鄰","STREET":" ","SECT":" ","MAREA":"港口","LANE":" ","ALLEY":" ","HOUSE_NO":"２４２號之７","E_COORD97":171698.20000000001,"N_COORD97":2554564.2999999998,"ADDRESS":"港口２４２號之７","OBJECTID":219671},"geometry":{"x":171698.20000000112,"y":2554564.3000000026}},{"attributes":{"ID":219673,"DIS_CODE":0,"TOWNNAME":"安定區","LI":"港南里","LIN":"18鄰","STREET":" ","SECT":" ","MAREA":"港口","LANE":" ","ALLEY":" ","HOUSE_NO":"２４４號之１０","E_COORD97":171858.92999999999,"N_COORD97":2554765.2999999998,"ADDRESS":"港口２４４號之１０","OBJECTID":219672},"geometry":{"x":171858.93000000063,"y":2554765.3000000026}},{"attributes":{"ID":219674,"DIS_CODE":0,"TOWNNAME":"安定區","LI":"港南里","LIN":"20鄰","STREET":" ","SECT":" ","MAREA":"港口","LANE":" ","ALLEY":" ","HOUSE_NO":"１５６號","E_COORD97":171432.26519599999,"N_COORD97":2554557.9345800001,"ADDRESS":"港口１５６號","OBJECTID":219673},"geometry":{"x":171432.26519600116,"y":2554557.9345789999}},{"attributes":{"ID":219675,"DIS_CODE":0,"TOWNNAME":"永康區","LI":"安康里","LIN":"23鄰","STREET":"中華路","SECT":" ","MAREA":" ","LANE":"７０３巷","ALLEY":"７１弄","HOUSE_NO":"７號","E_COORD97":170770.23999999999,"N_COORD97":2546215.25,"ADDRESS":"中華路７０３巷７１弄７號","OBJECTID":219674},"geometry":{"x":170770.24000000115,"y":2546215.25}},{"attributes":{"ID":219676,"DIS_CODE":0,"TOWNNAME":"安定區","LI":"新吉里","LIN":"13鄰","STREET":" ","SECT":" ","MAREA":"新吉","LANE":" ","ALLEY":" ","HOUSE_NO":"１０９號","E_COORD97":169432.42000000001,"N_COORD97":2554038.25,"ADDRESS":"新吉１０９號","OBJECTID":219675},"geometry":{"x":169432.41999999993,"y":2554038.2500000019}},{"attributes":{"ID":219677,"DIS_CODE":0,"TOWNNAME":"安定區","LI":"海寮里","LIN":"13鄰","STREET":" ","SECT":" ","MAREA":"海寮","LANE":" ","ALLEY":" ","HOUSE_NO":"１２６之３７號","E_COORD97":168973.89000000001,"N_COORD97":2555280.2999999998,"ADDRESS":"海寮１２６之３７號","OBJECTID":219676},"geometry":{"x":168973.8900000006,"y":2555280.3000000026}},{"attributes":{"ID":219678,"DIS_CODE":0,"TOWNNAME":"永康區","LI":"安康里","LIN":"23鄰","STREET":"中華路","SECT":" ","MAREA":" ","LANE":"７０３巷","ALLEY":"７１弄","HOUSE_NO":"９號","E_COORD97":170774.28,"N_COORD97":2546217.5,"ADDRESS":"中華路７０３巷７１弄９號","OBJECTID":219677},"geometry":{"x":170774.28000000026,"y":2546217.5}},{"attributes":{"ID":219679,"DIS_CODE":0,"TOWNNAME":"永康區","LI":"光復里","LIN":"23鄰","STREET":"復興路","SECT":" ","MAREA":" ","LANE":"１２８巷","ALLEY":"１弄","HOUSE_NO":"７號","E_COORD97":172692.29000000001,"N_COORD97":2544368.0299999998,"ADDRESS":"復興路１２８巷１弄７號","OBJECTID":219678},"geometry":{"x":172692.29000000097,"y":2544368.0299999993}},{"attributes":{"ID":219680,"DIS_CODE":0,"TOWNNAME":"永康區","LI":"安康里","LIN":"23鄰","STREET":"中華路","SECT":" ","MAREA":" ","LANE":"７０３巷","ALLEY":"７１弄","HOUSE_NO":"１號","E_COORD97":170757.48000000001,"N_COORD97":2546207.75,"ADDRESS":"中華路７０３巷７１弄１號","OBJECTID":219679},"geometry":{"x":170757.48000000138,"y":2546207.75}},{"attributes":{"ID":219681,"DIS_CODE":0,"TOWNNAME":"永康區","LI":"安康里","LIN":"23鄰","STREET":"中華路","SECT":" ","MAREA":" ","LANE":"７０３巷","ALLEY":"７１弄","HOUSE_NO":"１３號","E_COORD97":170783.78,"N_COORD97":2546222.25,"ADDRESS":"中華路７０３巷７１弄１３號","OBJECTID":219680},"geometry":{"x":170783.78000000119,"y":2546222.25}},{"attributes":{"ID":219682,"DIS_CODE":0,"TOWNNAME":"永康區","LI":"正強里","LIN":"23鄰","STREET":"自強路","SECT":" ","MAREA":" ","LANE":"２５５巷","ALLEY":"２６弄","HOUSE_NO":"６號","E_COORD97":173192.95999999999,"N_COORD97":2547645.3900000001,"ADDRESS":"自強路２５５巷２６弄６號","OBJECTID":219681},"geometry":{"x":173192.96000000089,"y":2547645.3900000006}},{"attributes":{"ID":219683,"DIS_CODE":0,"TOWNNAME":"永康區","LI":"永康里","LIN":"23鄰","STREET":"中山南路","SECT":" ","MAREA":" ","LANE":"５９７巷","ALLEY":"９弄","HOUSE_NO":"１９號","E_COORD97":173416.45000000001,"N_COORD97":2547207.7400000002,"ADDRESS":"中山南路５９７巷９弄１９號","OBJECTID":219682},"geometry":{"x":173416.45000000205,"y":2547207.7400000021}},{"attributes":{"ID":219684,"DIS_CODE":0,"TOWNNAME":"永康區","LI":"永康里","LIN":"23鄰","STREET":"中山南路","SECT":" ","MAREA":" ","LANE":"５９７巷","ALLEY":"９弄","HOUSE_NO":"２７號","E_COORD97":173398.60000000001,"N_COORD97":2547199.9900000002,"ADDRESS":"中山南路５９７巷９弄２７號","OBJECTID":219683},"geometry":{"x":173398.60000000056,"y":2547199.9900000002}},{"attributes":{"ID":219685,"DIS_CODE":0,"TOWNNAME":"安定區","LI":"蘇林里","LIN":"17鄰","STREET":" ","SECT":" ","MAREA":"蘇厝","LANE":" ","ALLEY":" ","HOUSE_NO":"１９０號","E_COORD97":173296.82000000001,"N_COORD97":2558975.25,"ADDRESS":"蘇厝１９０號","OBJECTID":219684},"geometry":{"x":173296.8200000003,"y":2558975.2500000019}},{"attributes":{"ID":219686,"DIS_CODE":0,"TOWNNAME":"安定區","LI":"六嘉里","LIN":"4鄰","STREET":" ","SECT":" ","MAREA":"六塊寮","LANE":" ","ALLEY":" ","HOUSE_NO":"２７號之５","E_COORD97":169966.960528,"N_COORD97":2553513.11014,"ADDRESS":"六塊寮２７號之５","OBJECTID":219685},"geometry":{"x":169966.96052800119,"y":2553513.1101449989}},{"attributes":{"ID":219687,"DIS_CODE":0,"TOWNNAME":"仁德區","LI":"後壁里","LIN":"23鄰","STREET":"中正路","SECT":"二段","MAREA":" ","LANE":"１８７巷","ALLEY":"６弄","HOUSE_NO":"２６號","E_COORD97":173063.82999999999,"N_COORD97":2538671.7799999998,"ADDRESS":"中正路二段１８７巷６弄２６號","OBJECTID":219686},"geometry":{"x":173063.83000000007,"y":2538671.7800000031}},{"attributes":{"ID":219688,"DIS_CODE":0,"TOWNNAME":"仁德區","LI":"後壁里","LIN":"23鄰","STREET":"中正路","SECT":"二段","MAREA":" ","LANE":"９７巷","ALLEY":"６４弄","HOUSE_NO":"８號","E_COORD97":173121.42999999999,"N_COORD97":2538576.0299999998,"ADDRESS":"中正路二段９７巷６４弄８號","OBJECTID":219687},"geometry":{"x":173121.43000000063,"y":2538576.0300000012}},{"attributes":{"ID":219689,"DIS_CODE":0,"TOWNNAME":"仁德區","LI":"成功里","LIN":"23鄰","STREET":"保華路","SECT":" ","MAREA":" ","LANE":"２６５巷","ALLEY":"２１弄","HOUSE_NO":"３０號","E_COORD97":170714.62,"N_COORD97":2539896.5099999998,"ADDRESS":"保華路２６５巷２１弄３０號","OBJECTID":219688},"geometry":{"x":170714.61999999918,"y":2539896.5099999998}},{"attributes":{"ID":219690,"DIS_CODE":0,"TOWNNAME":"仁德區","LI":"成功里","LIN":"23鄰","STREET":"保華路","SECT":" ","MAREA":" ","LANE":"２６５巷","ALLEY":"２１弄","HOUSE_NO":"４０號","E_COORD97":170696.10999999999,"N_COORD97":2539906.2599999998,"ADDRESS":"保華路２６５巷２１弄４０號","OBJECTID":219689},"geometry":{"x":170696.11000000034,"y":2539906.2600000035}},{"attributes":{"ID":219691,"DIS_CODE":0,"TOWNNAME":"仁德區","LI":"成功里","LIN":"23鄰","STREET":"保華路","SECT":" ","MAREA":" ","LANE":"２６５巷","ALLEY":"２１弄","HOUSE_NO":"１７號","E_COORD97":170683.57999999999,"N_COORD97":2539930,"ADDRESS":"保華路２６５巷２１弄１７號","OBJECTID":219690},"geometry":{"x":170683.58000000007,"y":2539930.0000000019}},{"attributes":{"ID":219692,"DIS_CODE":0,"TOWNNAME":"仁德區","LI":"後壁里","LIN":"23鄰","STREET":"中正路","SECT":"二段","MAREA":" ","LANE":"１８７巷","ALLEY":"６弄","HOUSE_NO":"２２號","E_COORD97":173067.22,"N_COORD97":2538684.2799999998,"ADDRESS":"中正路二段１８７巷６弄２２號","OBJECTID":219691},"geometry":{"x":173067.22000000067,"y":2538684.2799999993}},{"attributes":{"ID":219693,"DIS_CODE":0,"TOWNNAME":"仁德區","LI":"後壁里","LIN":"23鄰","STREET":"中正路","SECT":"二段","MAREA":" ","LANE":"９７巷","ALLEY":"６４弄","HOUSE_NO":"１０號","E_COORD97":173125.45000000001,"N_COORD97":2538579.5299999998,"ADDRESS":"中正路二段９７巷６４弄１０號","OBJECTID":219692},"geometry":{"x":173125.45000000112,"y":2538579.5300000012}},{"attributes":{"ID":219694,"DIS_CODE":0,"TOWNNAME":"永康區","LI":"正強里","LIN":"23鄰","STREET":"自強路","SECT":" ","MAREA":" ","LANE":"２５５巷","ALLEY":"２６弄","HOUSE_NO":"１０號","E_COORD97":173192.26000000001,"N_COORD97":2547653.8999999999,"ADDRESS":"自強路２５５巷２６弄１０號","OBJECTID":219693},"geometry":{"x":173192.26000000071,"y":2547653.9000000022}},{"attributes":{"ID":219695,"DIS_CODE":0,"TOWNNAME":"永康區","LI":"龍潭里","LIN":"23鄰","STREET":"自強路","SECT":" ","MAREA":" ","LANE":"７５０巷","ALLEY":"１８弄","HOUSE_NO":"１３號","E_COORD97":174449.78,"N_COORD97":2548391.8700000001,"ADDRESS":"自強路７５０巷１８弄１３號","OBJECTID":219694},"geometry":{"x":174449.78000000026,"y":2548391.870000001}},{"attributes":{"ID":219696,"DIS_CODE":0,"TOWNNAME":"永康區","LI":"二王里","LIN":"23鄰","STREET":"中山南路","SECT":" ","MAREA":" ","LANE":"５４４巷","ALLEY":"５９弄","HOUSE_NO":"２號","E_COORD97":172338.94,"N_COORD97":2546434.8300000001,"ADDRESS":"中山南路５４４巷５９弄２號","OBJECTID":219695},"geometry":{"x":172338.94000000134,"y":2546434.8300000001}},{"attributes":{"ID":219697,"DIS_CODE":0,"TOWNNAME":"永康區","LI":"二王里","LIN":"23鄰","STREET":"中山南路","SECT":" ","MAREA":" ","LANE":"５４４巷","ALLEY":"５９弄","HOUSE_NO":"２２號","E_COORD97":172399.39000000001,"N_COORD97":2546433.8300000001,"ADDRESS":"中山南路５４４巷５９弄２２號","OBJECTID":219696},"geometry":{"x":172399.3900000006,"y":2546433.8300000019}},{"attributes":{"ID":219698,"DIS_CODE":0,"TOWNNAME":"永康區","LI":"埔園里","LIN":"23鄰","STREET":"自強路","SECT":" ","MAREA":" ","LANE":"３７９巷","ALLEY":"３５弄","HOUSE_NO":"３號","E_COORD97":173571.67999999999,"N_COORD97":2547975,"ADDRESS":"自強路３７９巷３５弄３號","OBJECTID":219697},"geometry":{"x":173571.6799999997,"y":2547975.0000000019}},{"attributes":{"ID":219699,"DIS_CODE":0,"TOWNNAME":"仁德區","LI":"後壁里","LIN":"28鄰","STREET":"德洋路","SECT":" ","MAREA":" ","LANE":" ","ALLEY":" ","HOUSE_NO":"２９號","E_COORD97":173141.79999999999,"N_COORD97":2539012.27,"ADDRESS":"德洋路２９號","OBJECTID":219698},"geometry":{"x":173141.79999999981,"y":2539012.2700000014}},{"attributes":{"ID":219700,"DIS_CODE":0,"TOWNNAME":"永康區","LI":"西橋里","LIN":"23鄰","STREET":"大橋三街","SECT":" ","MAREA":" ","LANE":"５７巷","ALLEY":"１９弄","HOUSE_NO":"３６號","E_COORD97":170461.01000000001,"N_COORD97":2546522.46,"ADDRESS":"大橋三街５７巷１９弄３６號","OBJECTID":219699},"geometry":{"x":170461.01000000071,"y":2546522.4600000028}},{"attributes":{"ID":219701,"DIS_CODE":0,"TOWNNAME":"仁德區","LI":"後壁里","LIN":"28鄰","STREET":"德洋路","SECT":" ","MAREA":" ","LANE":" ","ALLEY":" ","HOUSE_NO":"３３號","E_COORD97":173134.85999999999,"N_COORD97":2539016.27,"ADDRESS":"德洋路３３號","OBJECTID":219700},"geometry":{"x":173134.86000000127,"y":2539016.2699999996}},{"attributes":{"ID":219702,"DIS_CODE":0,"TOWNNAME":"永康區","LI":"安康里","LIN":"23鄰","STREET":"中華路","SECT":" ","MAREA":" ","LANE":"７０３巷","ALLEY":"７１弄","HOUSE_NO":"１１號","E_COORD97":170779.64000000001,"N_COORD97":2546220,"ADDRESS":"中華路７０３巷７１弄１１號","OBJECTID":219701},"geometry":{"x":170779.63999999966,"y":2546220}},{"attributes":{"ID":219703,"DIS_CODE":0,"TOWNNAME":"永康區","LI":"正強里","LIN":"23鄰","STREET":"自強路","SECT":" ","MAREA":" ","LANE":"２５５巷","ALLEY":"６弄","HOUSE_NO":"２號","E_COORD97":173244.22,"N_COORD97":2547635.2200000002,"ADDRESS":"自強路２５５巷６弄２號","OBJECTID":219702},"geometry":{"x":173244.21999999974,"y":2547635.2200000025}},{"attributes":{"ID":219704,"DIS_CODE":0,"TOWNNAME":"永康區","LI":"西橋里","LIN":"23鄰","STREET":"大橋三街","SECT":" ","MAREA":" ","LANE":"５７巷","ALLEY":"１９弄","HOUSE_NO":"６０號","E_COORD97":170454.23000000001,"N_COORD97":2546514.71,"ADDRESS":"大橋三街５７巷１９弄６０號","OBJECTID":219703},"geometry":{"x":170454.23000000045,"y":2546514.7100000009}},{"attributes":{"ID":219705,"DIS_CODE":0,"TOWNNAME":"永康區","LI":"大橋里","LIN":"23鄰","STREET":"大橋一街","SECT":" ","MAREA":" ","LANE":"１３９巷","ALLEY":"２２弄","HOUSE_NO":"６０號","E_COORD97":171142.42999999999,"N_COORD97":2546630,"ADDRESS":"大橋一街１３９巷２２弄６０號","OBJECTID":219704},"geometry":{"x":171142.4299999997,"y":2546630}},{"attributes":{"ID":219706,"DIS_CODE":0,"TOWNNAME":"永康區","LI":"埔園里","LIN":"23鄰","STREET":"自強路","SECT":" ","MAREA":" ","LANE":"３７９巷","ALLEY":"５３弄","HOUSE_NO":"１２號","E_COORD97":173556.73999999999,"N_COORD97":2548012.2599999998,"ADDRESS":"自強路３７９巷５３弄１２號","OBJECTID":219705},"geometry":{"x":173556.73999999929,"y":2548012.2599999998}},{"attributes":{"ID":219707,"DIS_CODE":0,"TOWNNAME":"仁德區","LI":"仁德里","LIN":"28鄰","STREET":"淨修街","SECT":" ","MAREA":" ","LANE":"１７５巷","ALLEY":" ","HOUSE_NO":"４８號","E_COORD97":172010.10000000001,"N_COORD97":2541238.1899999999,"ADDRESS":"淨修街１７５巷４８號","OBJECTID":219706},"geometry":{"x":172010.10000000056,"y":2541238.1899999995}},{"attributes":{"ID":219708,"DIS_CODE":0,"TOWNNAME":"安定區","LI":"港口里","LIN":"18鄰","STREET":" ","SECT":" ","MAREA":"港口","LANE":" ","ALLEY":" ","HOUSE_NO":"３８２之９號","E_COORD97":171428.29000000001,"N_COORD97":2555062.2999999998,"ADDRESS":"港口３８２之９號","OBJECTID":219707},"geometry":{"x":171428.29000000004,"y":2555062.3000000045}},{"attributes":{"ID":219709,"DIS_CODE":0,"TOWNNAME":"安定區","LI":"港口里","LIN":"20鄰","STREET":" ","SECT":" ","MAREA":"港口","LANE":" ","ALLEY":" ","HOUSE_NO":"３９９之３５號","E_COORD97":171549.14000000001,"N_COORD97":2554913.2999999998,"ADDRESS":"港口３９９之３５號","OBJECTID":219708},"geometry":{"x":171549.13999999966,"y":2554913.3000000026}},{"attributes":{"ID":219710,"DIS_CODE":0,"TOWNNAME":"安定區","LI":"港口里","LIN":"13鄰","STREET":" ","SECT":" ","MAREA":"港口","LANE":" ","ALLEY":" ","HOUSE_NO":"３４７之４號","E_COORD97":171232.39000000001,"N_COORD97":2554704.2999999998,"ADDRESS":"港口３４７之４號","OBJECTID":219709},"geometry":{"x":171232.38999999966,"y":2554704.3000000026}},{"attributes":{"ID":219711,"DIS_CODE":0,"TOWNNAME":"安定區","LI":"港口里","LIN":"13鄰","STREET":" ","SECT":" ","MAREA":"港口","LANE":" ","ALLEY":" ","HOUSE_NO":"３４５之２號","E_COORD97":171192.39000000001,"N_COORD97":2554686.2999999998,"ADDRESS":"港口３４５之２號","OBJECTID":219710},"geometry":{"x":171192.3900000006,"y":2554686.3000000026}},{"attributes":{"ID":219712,"DIS_CODE":0,"TOWNNAME":"安定區","LI":"南安里","LIN":"4鄰","STREET":" ","SECT":" ","MAREA":"油車","LANE":" ","ALLEY":" ","HOUSE_NO":"５１號之９","E_COORD97":170634.73999999999,"N_COORD97":2555600.2999999998,"ADDRESS":"油車５１之９號","OBJECTID":219711},"geometry":{"x":170634.74000000115,"y":2555600.3000000007}},{"attributes":{"ID":219713,"DIS_CODE":0,"TOWNNAME":"安定區","LI":"港口里","LIN":"4鄰","STREET":" ","SECT":" ","MAREA":"港口","LANE":" ","ALLEY":" ","HOUSE_NO":"２５６之１號","E_COORD97":171463.09,"N_COORD97":2554806.2999999998,"ADDRESS":"港口２５６之１號","OBJECTID":219712},"geometry":{"x":171463.08999999985,"y":2554806.3000000007}},{"attributes":{"ID":219714,"DIS_CODE":0,"TOWNNAME":"安定區","LI":"安加里","LIN":"4鄰","STREET":" ","SECT":" ","MAREA":"安定","LANE":" ","ALLEY":" ","HOUSE_NO":"１９４號","E_COORD97":171792.22,"N_COORD97":2557711.3199999998,"ADDRESS":"安定１９４號","OBJECTID":219713},"geometry":{"x":171792.22000000067,"y":2557711.3200000003}},{"attributes":{"ID":219715,"DIS_CODE":0,"TOWNNAME":"永康區","LI":"東橋里","LIN":"23鄰","STREET":"中正路","SECT":" ","MAREA":" ","LANE":"２１７巷","ALLEY":"３弄","HOUSE_NO":"６８之１號","E_COORD97":172766.35000000001,"N_COORD97":2547839.4700000002,"ADDRESS":"中正路２１７巷３弄６８之１號","OBJECTID":219714},"geometry":{"x":172766.35000000056,"y":2547839.4700000044}},{"attributes":{"ID":219716,"DIS_CODE":0,"TOWNNAME":"永康區","LI":"埔園里","LIN":"23鄰","STREET":"自強路","SECT":" ","MAREA":" ","LANE":"３７９巷","ALLEY":"５３弄","HOUSE_NO":"１４號","E_COORD97":173553.14999999999,"N_COORD97":2548011.5099999998,"ADDRESS":"自強路３７９巷５３弄１４號","OBJECTID":219715},"geometry":{"x":173553.1500000013,"y":2548011.5100000016}},{"attributes":{"ID":219717,"DIS_CODE":0,"TOWNNAME":"永康區","LI":"埔園里","LIN":"23鄰","STREET":"自強路","SECT":" ","MAREA":" ","LANE":"３７９巷","ALLEY":"５３弄","HOUSE_NO":"５號","E_COORD97":173564.17000000001,"N_COORD97":2547999.25,"ADDRESS":"自強路３７９巷５３弄５號","OBJECTID":219716},"geometry":{"x":173564.17000000086,"y":2547999.2499999981}},{"attributes":{"ID":219718,"DIS_CODE":0,"TOWNNAME":"永康區","LI":"永康里","LIN":"28鄰","STREET":"永康街","SECT":" ","MAREA":" ","LANE":" ","ALLEY":" ","HOUSE_NO":"２８０號","E_COORD97":174168.23000000001,"N_COORD97":2547017.21,"ADDRESS":"永康街２８０號","OBJECTID":219717},"geometry":{"x":174168.23000000138,"y":2547017.209999999}},{"attributes":{"ID":219719,"DIS_CODE":0,"TOWNNAME":"永康區","LI":"埔園里","LIN":"23鄰","STREET":"自強路","SECT":" ","MAREA":" ","LANE":"３７９巷","ALLEY":"３５弄","HOUSE_NO":"１號","E_COORD97":173578.67000000001,"N_COORD97":2547978.25,"ADDRESS":"自強路３７９巷３５弄１號","OBJECTID":219718},"geometry":{"x":173578.66999999993,"y":2547978.25}},{"attributes":{"ID":219720,"DIS_CODE":0,"TOWNNAME":"西港區","LI":"慶安里","LIN":"23鄰","STREET":"中山路","SECT":" ","MAREA":" ","LANE":"２４３巷","ALLEY":"１７弄","HOUSE_NO":"１０號","E_COORD97":168352.04000000001,"N_COORD97":2557809.2400000002,"ADDRESS":"中山路２４３巷１７弄１０號","OBJECTID":219719},"geometry":{"x":168352.0400000019,"y":2557809.2400000021}},{"attributes":{"ID":219721,"DIS_CODE":0,"TOWNNAME":"西港區","LI":"慶安里","LIN":"23鄰","STREET":"中山路","SECT":" ","MAREA":" ","LANE":"２４３巷","ALLEY":"１７弄","HOUSE_NO":"１１號","E_COORD97":168362.28,"N_COORD97":2557804.1800000002,"ADDRESS":"中山路２４３巷１７弄１１號","OBJECTID":219720},"geometry":{"x":168362.28000000026,"y":2557804.1799999997}},{"attributes":{"ID":219722,"DIS_CODE":0,"TOWNNAME":"西港區","LI":"慶安里","LIN":"23鄰","STREET":"中山路","SECT":" ","MAREA":" ","LANE":"２４３巷","ALLEY":"１７弄","HOUSE_NO":"１２號","E_COORD97":168353.23000000001,"N_COORD97":2557803.5099999998,"ADDRESS":"中山路２４３巷１７弄１２號","OBJECTID":219721},"geometry":{"x":168353.23000000138,"y":2557803.5100000016}},{"attributes":{"ID":219723,"DIS_CODE":0,"TOWNNAME":"西港區","LI":"慶安里","LIN":"23鄰","STREET":"中山路","SECT":" ","MAREA":" ","LANE":"２４３巷","ALLEY":"１７弄","HOUSE_NO":"１３號","E_COORD97":168362.47,"N_COORD97":2557797.9500000002,"ADDRESS":"中山路２４３巷１７弄１３號","OBJECTID":219722},"geometry":{"x":168362.4700000016,"y":2557797.9499999993}},{"attributes":{"ID":219724,"DIS_CODE":0,"TOWNNAME":"永康區","LI":"五王里","LIN":"28鄰","STREET":"五福街","SECT":" ","MAREA":" ","LANE":" ","ALLEY":" ","HOUSE_NO":"９０號","E_COORD97":171504.57999999999,"N_COORD97":2545967.4100000001,"ADDRESS":"五福街９０號","OBJECTID":219723},"geometry":{"x":171504.58000000007,"y":2545967.4100000001}},{"attributes":{"ID":219725,"DIS_CODE":0,"TOWNNAME":"西港區","LI":"慶安里","LIN":"23鄰","STREET":"中山路","SECT":" ","MAREA":" ","LANE":"２４３巷","ALLEY":"１７弄","HOUSE_NO":"１４號","E_COORD97":168353.70999999999,"N_COORD97":2557797.3599999999,"ADDRESS":"中山路２４３巷１７弄１４號","OBJECTID":219724},"geometry":{"x":168353.70999999996,"y":2557797.3600000013}},{"attributes":{"ID":219726,"DIS_CODE":0,"TOWNNAME":"永康區","LI":"五王里","LIN":"28鄰","STREET":"五福街","SECT":" ","MAREA":" ","LANE":" ","ALLEY":" ","HOUSE_NO":"１２６號","E_COORD97":171571.92999999999,"N_COORD97":2545999,"ADDRESS":"五福街１２６號","OBJECTID":219725},"geometry":{"x":171571.93000000063,"y":2545999.0000000019}},{"attributes":{"ID":219727,"DIS_CODE":0,"TOWNNAME":"西港區","LI":"慶安里","LIN":"23鄰","STREET":"中山路","SECT":" ","MAREA":" ","LANE":"２４３巷","ALLEY":"１７弄","HOUSE_NO":"１號","E_COORD97":168358.03,"N_COORD97":2557835.3399999999,"ADDRESS":"中山路２４３巷１７弄１號","OBJECTID":219726},"geometry":{"x":168358.03000000119,"y":2557835.3400000017}},{"attributes":{"ID":219728,"DIS_CODE":0,"TOWNNAME":"西港區","LI":"慶安里","LIN":"23鄰","STREET":"中山路","SECT":" ","MAREA":" ","LANE":"２４３巷","ALLEY":"１７弄","HOUSE_NO":"２號","E_COORD97":168348.66,"N_COORD97":2557834.6299999999,"ADDRESS":"中山路２４３巷１７弄２號","OBJECTID":219727},"geometry":{"x":168348.66000000108,"y":2557834.6300000027}},{"attributes":{"ID":219729,"DIS_CODE":0,"TOWNNAME":"西港區","LI":"慶安里","LIN":"23鄰","STREET":"中山路","SECT":" ","MAREA":" ","LANE":"２４３巷","ALLEY":"１７弄","HOUSE_NO":"３號","E_COORD97":168358.97,"N_COORD97":2557829.1899999999,"ADDRESS":"中山路２４３巷１７弄３號","OBJECTID":219728},"geometry":{"x":168358.9700000016,"y":2557829.1900000013}},{"attributes":{"ID":219730,"DIS_CODE":0,"TOWNNAME":"西港區","LI":"慶安里","LIN":"23鄰","STREET":"中山路","SECT":" ","MAREA":" ","LANE":"２４３巷","ALLEY":"１７弄","HOUSE_NO":"４號","E_COORD97":168349.12,"N_COORD97":2557828.1000000001,"ADDRESS":"中山路２４３巷１７弄４號","OBJECTID":219729},"geometry":{"x":168349.12000000011,"y":2557828.0999999996}},{"attributes":{"ID":219731,"DIS_CODE":0,"TOWNNAME":"西港區","LI":"慶安里","LIN":"23鄰","STREET":"中山路","SECT":" ","MAREA":" ","LANE":"２４３巷","ALLEY":"１７弄","HOUSE_NO":"５號","E_COORD97":168359.85999999999,"N_COORD97":2557822.9900000002,"ADDRESS":"中山路２４３巷１７弄５號","OBJECTID":219730},"geometry":{"x":168359.86000000034,"y":2557822.9900000002}},{"attributes":{"ID":219732,"DIS_CODE":0,"TOWNNAME":"西港區","LI":"慶安里","LIN":"23鄰","STREET":"中山路","SECT":" ","MAREA":" ","LANE":"２４３巷","ALLEY":"１７弄","HOUSE_NO":"６號","E_COORD97":168350.07000000001,"N_COORD97":2557821.8199999998,"ADDRESS":"中山路２４３巷１７弄６號","OBJECTID":219731},"geometry":{"x":168350.0700000003,"y":2557821.8200000022}},{"attributes":{"ID":219733,"DIS_CODE":0,"TOWNNAME":"永康區","LI":"五王里","LIN":"28鄰","STREET":"五福街","SECT":" ","MAREA":" ","LANE":" ","ALLEY":" ","HOUSE_NO":"１０２號","E_COORD97":171525.67999999999,"N_COORD97":2545976.2400000002,"ADDRESS":"五福街１０２號","OBJECTID":219732},"geometry":{"x":171525.6799999997,"y":2545976.2400000021}},{"attributes":{"ID":219734,"DIS_CODE":0,"TOWNNAME":"安定區","LI":"新吉里","LIN":"18鄰","STREET":" ","SECT":" ","MAREA":"新吉","LANE":" ","ALLEY":" ","HOUSE_NO":"２６１號","E_COORD97":169001.22,"N_COORD97":2554053.25,"ADDRESS":"新吉２６１號","OBJECTID":219733},"geometry":{"x":169001.21999999974,"y":2554053.25}},{"attributes":{"ID":219735,"DIS_CODE":0,"TOWNNAME":"安定區","LI":"港口里","LIN":"20鄰","STREET":" ","SECT":" ","MAREA":"港口","LANE":" ","ALLEY":" ","HOUSE_NO":"３９９之８號","E_COORD97":171602.39000000001,"N_COORD97":2554912.2999999998,"ADDRESS":"港口３９９之８號","OBJECTID":219734},"geometry":{"x":171602.39000000153,"y":2554912.3000000007}},{"attributes":{"ID":219736,"DIS_CODE":0,"TOWNNAME":"安定區","LI":"海寮里","LIN":"14鄰","STREET":" ","SECT":" ","MAREA":"海寮","LANE":" ","ALLEY":" ","HOUSE_NO":"１３２之８４號","E_COORD97":168997.29000000001,"N_COORD97":2555396.2999999998,"ADDRESS":"海寮１３２之８４號","OBJECTID":219735},"geometry":{"x":168997.29000000004,"y":2555396.3000000007}},{"attributes":{"ID":219737,"DIS_CODE":0,"TOWNNAME":"安定區","LI":"海寮里","LIN":"14鄰","STREET":" ","SECT":" ","MAREA":"海寮","LANE":" ","ALLEY":" ","HOUSE_NO":"１３２號之８１","E_COORD97":168994.23000000001,"N_COORD97":2555409.2999999998,"ADDRESS":"海寮１３２號之８１","OBJECTID":219736},"geometry":{"x":168994.23000000138,"y":2555409.3000000026}},{"attributes":{"ID":219738,"DIS_CODE":0,"TOWNNAME":"安定區","LI":"港尾里","LIN":"7鄰","STREET":" ","SECT":" ","MAREA":"港子尾","LANE":" ","ALLEY":" ","HOUSE_NO":"３３號","E_COORD97":171630.39000000001,"N_COORD97":2556031.2599999998,"ADDRESS":"港子尾３３號","OBJECTID":219737},"geometry":{"x":171630.38999999966,"y":2556031.2600000016}},{"attributes":{"ID":219739,"DIS_CODE":0,"TOWNNAME":"安定區","LI":"海寮里","LIN":"4鄰","STREET":" ","SECT":" ","MAREA":"海寮","LANE":" ","ALLEY":" ","HOUSE_NO":"４４之１１號","E_COORD97":169634.04000000001,"N_COORD97":2555385.2999999998,"ADDRESS":"海寮４４之１１號","OBJECTID":219738},"geometry":{"x":169634.04000000097,"y":2555385.3000000026}},{"attributes":{"ID":219740,"DIS_CODE":0,"TOWNNAME":"安定區","LI":"中沙里","LIN":"4鄰","STREET":" ","SECT":" ","MAREA":"中崙","LANE":" ","ALLEY":" ","HOUSE_NO":"１７３號","E_COORD97":169018.41,"N_COORD97":2552936.25,"ADDRESS":"中崙１７３號","OBJECTID":219739},"geometry":{"x":169018.41000000108,"y":2552936.2500000019}},{"attributes":{"ID":219741,"DIS_CODE":0,"TOWNNAME":"安定區","LI":"海寮里","LIN":"18鄰","STREET":" ","SECT":" ","MAREA":"海寮","LANE":" ","ALLEY":" ","HOUSE_NO":"１７７之２號","E_COORD97":169385.64000000001,"N_COORD97":2555448.2999999998,"ADDRESS":"海寮１７７之２號","OBJECTID":219740},"geometry":{"x":169385.6400000006,"y":2555448.3000000007}},{"attributes":{"ID":219742,"DIS_CODE":0,"TOWNNAME":"安定區","LI":"蘇林里","LIN":"13鄰","STREET":" ","SECT":" ","MAREA":"蘇厝","LANE":" ","ALLEY":" ","HOUSE_NO":"１４８之５號","E_COORD97":173455.72,"N_COORD97":2558933.2999999998,"ADDRESS":"蘇厝１４８之５號","OBJECTID":219741},"geometry":{"x":173455.71999999974,"y":2558933.3000000007}},{"attributes":{"ID":219743,"DIS_CODE":0,"TOWNNAME":"安定區","LI":"港口里","LIN":"14鄰","STREET":" ","SECT":" ","MAREA":"港口","LANE":" ","ALLEY":" ","HOUSE_NO":"３３２之２０號","E_COORD97":171084.44,"N_COORD97":2554707.2999999998,"ADDRESS":"港口３３２之２０號","OBJECTID":219742},"geometry":{"x":171084.44000000134,"y":2554707.3000000026}},{"attributes":{"ID":219744,"DIS_CODE":0,"TOWNNAME":"安定區","LI":"南安里","LIN":"1鄰","STREET":" ","SECT":" ","MAREA":"油車","LANE":" ","ALLEY":" ","HOUSE_NO":"６號之１","E_COORD97":170818.03,"N_COORD97":2555951.2999999998,"ADDRESS":"油車６號之１","OBJECTID":219743},"geometry":{"x":170818.03000000119,"y":2555951.3000000026}},{"attributes":{"ID":219745,"DIS_CODE":0,"TOWNNAME":"安定區","LI":"海寮里","LIN":"4鄰","STREET":" ","SECT":" ","MAREA":"海寮","LANE":" ","ALLEY":" ","HOUSE_NO":"４６號","E_COORD97":169576.29000000001,"N_COORD97":2555397.25,"ADDRESS":"海寮４６號","OBJECTID":219744},"geometry":{"x":169576.29000000097,"y":2555397.2500000037}},{"attributes":{"ID":219746,"DIS_CODE":0,"TOWNNAME":"安定區","LI":"港南里","LIN":"4鄰","STREET":" ","SECT":" ","MAREA":"港口","LANE":" ","ALLEY":" ","HOUSE_NO":"２７號之１３","E_COORD97":171525.62,"N_COORD97":2553987.2999999998,"ADDRESS":"港口２７號之１３","OBJECTID":219745},"geometry":{"x":171525.62000000104,"y":2553987.3000000045}},{"attributes":{"ID":219747,"DIS_CODE":0,"TOWNNAME":"新市區","LI":"港墘里","LIN":"28鄰","STREET":"南昌街","SECT":" ","MAREA":" ","LANE":" ","ALLEY":" ","HOUSE_NO":"７５號","E_COORD97":178008.95999999999,"N_COORD97":2553068,"ADDRESS":"南昌街７５號","OBJECTID":219746},"geometry":{"x":178008.96000000089,"y":2553068.0000000019}},{"attributes":{"ID":219748,"DIS_CODE":0,"TOWNNAME":"永康區","LI":"五王里","LIN":"28鄰","STREET":"五福街","SECT":" ","MAREA":" ","LANE":" ","ALLEY":" ","HOUSE_NO":"１２２號","E_COORD97":171566.48000000001,"N_COORD97":2545996.75,"ADDRESS":"五福街１２２號","OBJECTID":219747},"geometry":{"x":171566.48000000045,"y":2545996.7500000019}},{"attributes":{"ID":219749,"DIS_CODE":0,"TOWNNAME":"永康區","LI":"五王里","LIN":"28鄰","STREET":"五福街","SECT":" ","MAREA":" ","LANE":" ","ALLEY":" ","HOUSE_NO":"１１６號","E_COORD97":171554.42999999999,"N_COORD97":2545991.25,"ADDRESS":"五福街１１６號","OBJECTID":219748},"geometry":{"x":171554.4299999997,"y":2545991.25}},{"attributes":{"ID":219750,"DIS_CODE":0,"TOWNNAME":"安定區","LI":"新吉里","LIN":"18鄰","STREET":" ","SECT":" ","MAREA":"新吉","LANE":" ","ALLEY":" ","HOUSE_NO":"２８２之１號","E_COORD97":168334.72,"N_COORD97":2554036.2999999998,"ADDRESS":"新吉２８２之１號","OBJECTID":219749},"geometry":{"x":168334.71999999974,"y":2554036.3000000026}},{"attributes":{"ID":219751,"DIS_CODE":0,"TOWNNAME":"永康區","LI":"五王里","LIN":"28鄰","STREET":"五福街","SECT":" ","MAREA":" ","LANE":" ","ALLEY":" ","HOUSE_NO":"１３０號","E_COORD97":171579.14000000001,"N_COORD97":2546002.5,"ADDRESS":"五福街１３０號","OBJECTID":219750},"geometry":{"x":171579.1400000006,"y":2546002.5000000019}},{"attributes":{"ID":219752,"DIS_CODE":0,"TOWNNAME":"安定區","LI":"新吉里","LIN":"18鄰","STREET":" ","SECT":" ","MAREA":"新吉","LANE":" ","ALLEY":" ","HOUSE_NO":"２６４號","E_COORD97":168988.22,"N_COORD97":2554052.25,"ADDRESS":"新吉２６４號","OBJECTID":219751},"geometry":{"x":168988.22000000067,"y":2554052.2500000019}},{"attributes":{"ID":219753,"DIS_CODE":0,"TOWNNAME":"西港區","LI":"慶安里","LIN":"23鄰","STREET":"中山路","SECT":" ","MAREA":" ","LANE":"２４３巷","ALLEY":"１７弄","HOUSE_NO":"７號","E_COORD97":168360.5,"N_COORD97":2557816.3900000001,"ADDRESS":"中山路２４３巷１７弄７號","OBJECTID":219752},"geometry":{"x":168360.5,"y":2557816.3900000006}},{"attributes":{"ID":219754,"DIS_CODE":0,"TOWNNAME":"學甲區","LI":"秀昌里","LIN":"28鄰","STREET":" ","SECT":" ","MAREA":"煥昌","LANE":" ","ALLEY":" ","HOUSE_NO":"５４號","E_COORD97":166140.01000000001,"N_COORD97":2570853.1000000001,"ADDRESS":"煥昌５４號","OBJECTID":219753},"geometry":{"x":166140.01000000071,"y":2570853.0999999996}},{"attributes":{"ID":219755,"DIS_CODE":0,"TOWNNAME":"西港區","LI":"慶安里","LIN":"23鄰","STREET":"中山路","SECT":" ","MAREA":" ","LANE":"２４３巷","ALLEY":"１７弄","HOUSE_NO":"８號","E_COORD97":168350.72,"N_COORD97":2557815.7000000002,"ADDRESS":"中山路２４３巷１７弄８號","OBJECTID":219754},"geometry":{"x":168350.72000000067,"y":2557815.7000000011}},{"attributes":{"ID":219756,"DIS_CODE":0,"TOWNNAME":"西港區","LI":"慶安里","LIN":"23鄰","STREET":"中山路","SECT":" ","MAREA":" ","LANE":"２４３巷","ALLEY":"１７弄","HOUSE_NO":"９號","E_COORD97":168361.59,"N_COORD97":2557810.25,"ADDRESS":"中山路２４３巷１７弄９號","OBJECTID":219755},"geometry":{"x":168361.58999999892,"y":2557810.25}},{"attributes":{"ID":219757,"DIS_CODE":0,"TOWNNAME":"西港區","LI":"慶安里","LIN":"23鄰","STREET":"中山路","SECT":" ","MAREA":" ","LANE":"２４３巷","ALLEY":"５弄","HOUSE_NO":"１號","E_COORD97":168385.07000000001,"N_COORD97":2557836.0099999998,"ADDRESS":"中山路２４３巷５弄１號","OBJECTID":219756},"geometry":{"x":168385.07000000123,"y":2557836.0099999998}},{"attributes":{"ID":219758,"DIS_CODE":0,"TOWNNAME":"西港區","LI":"慶安里","LIN":"23鄰","STREET":"中山路","SECT":" ","MAREA":" ","LANE":"２４３巷","ALLEY":"５弄","HOUSE_NO":"２號","E_COORD97":168374.57000000001,"N_COORD97":2557834.6400000001,"ADDRESS":"中山路２４３巷５弄２號","OBJECTID":219757},"geometry":{"x":168374.57000000123,"y":2557834.6400000006}},{"attributes":{"ID":219759,"DIS_CODE":0,"TOWNNAME":"西港區","LI":"慶安里","LIN":"23鄰","STREET":"中山路","SECT":" ","MAREA":" ","LANE":"２４３巷","ALLEY":"５弄","HOUSE_NO":"３號","E_COORD97":168385.42000000001,"N_COORD97":2557830.1600000001,"ADDRESS":"中山路２４３巷５弄３號","OBJECTID":219758},"geometry":{"x":168385.42000000086,"y":2557830.160000002}},{"attributes":{"ID":219760,"DIS_CODE":0,"TOWNNAME":"永康區","LI":"五王里","LIN":"28鄰","STREET":"五福街","SECT":" ","MAREA":" ","LANE":" ","ALLEY":" ","HOUSE_NO":"９８號","E_COORD97":171515.07999999999,"N_COORD97":2545971.9100000001,"ADDRESS":"五福街９８號","OBJECTID":219759},"geometry":{"x":171515.08000000194,"y":2545971.910000002}},{"attributes":{"ID":219761,"DIS_CODE":0,"TOWNNAME":"安定區","LI":"新吉里","LIN":"18鄰","STREET":" ","SECT":" ","MAREA":"新吉","LANE":" ","ALLEY":" ","HOUSE_NO":"２８０號","E_COORD97":168915.92000000001,"N_COORD97":2554065.25,"ADDRESS":"新吉２８０號","OBJECTID":219760},"geometry":{"x":168915.92000000086,"y":2554065.2500000019}},{"attributes":{"ID":219762,"DIS_CODE":0,"TOWNNAME":"西港區","LI":"慶安里","LIN":"23鄰","STREET":"中山路","SECT":" ","MAREA":" ","LANE":"２４３巷","ALLEY":"５弄","HOUSE_NO":"４號","E_COORD97":168375.10000000001,"N_COORD97":2557829.3900000001,"ADDRESS":"中山路２４３巷５弄４號","OBJECTID":219761},"geometry":{"x":168375.10000000149,"y":2557829.3900000025}},{"attributes":{"ID":219763,"DIS_CODE":0,"TOWNNAME":"西港區","LI":"慶安里","LIN":"23鄰","STREET":"中山路","SECT":" ","MAREA":" ","LANE":"２４３巷","ALLEY":"５弄","HOUSE_NO":"５號","E_COORD97":168386.32000000001,"N_COORD97":2557824.6899999999,"ADDRESS":"中山路２４３巷５弄５號","OBJECTID":219762},"geometry":{"x":168386.32000000123,"y":2557824.6900000032}},{"attributes":{"ID":219764,"DIS_CODE":0,"TOWNNAME":"西港區","LI":"慶安里","LIN":"23鄰","STREET":"中山路","SECT":" ","MAREA":" ","LANE":"２４３巷","ALLEY":"５弄","HOUSE_NO":"６號","E_COORD97":168375.84,"N_COORD97":2557823.9300000002,"ADDRESS":"中山路２４３巷５弄６號","OBJECTID":219763},"geometry":{"x":168375.84000000078,"y":2557823.9300000016}},{"attributes":{"ID":219765,"DIS_CODE":0,"TOWNNAME":"西港區","LI":"慶安里","LIN":"23鄰","STREET":"中山路","SECT":" ","MAREA":" ","LANE":"２４３巷","ALLEY":"５弄","HOUSE_NO":"７號","E_COORD97":168386.78,"N_COORD97":2557819.0800000001,"ADDRESS":"中山路２４３巷５弄７號","OBJECTID":219764},"geometry":{"x":168386.78000000119,"y":2557819.0799999982}},{"attributes":{"ID":219766,"DIS_CODE":0,"TOWNNAME":"西港區","LI":"慶安里","LIN":"23鄰","STREET":"中山路","SECT":" ","MAREA":" ","LANE":"２４３巷","ALLEY":"５弄","HOUSE_NO":"８號","E_COORD97":168376.23999999999,"N_COORD97":2557817.8100000001,"ADDRESS":"中山路２４３巷５弄８號","OBJECTID":219765},"geometry":{"x":168376.23999999929,"y":2557817.8100000005}},{"attributes":{"ID":219767,"DIS_CODE":0,"TOWNNAME":"東區","LI":"衛國里","LIN":"23鄰","STREET":"林森路","SECT":"二段","MAREA":" ","LANE":"１９０巷","ALLEY":"１１弄","HOUSE_NO":"２５號","E_COORD97":170528.17999999999,"N_COORD97":2543217.71,"ADDRESS":"林森路二段１９０巷１１弄２５號","OBJECTID":219766},"geometry":{"x":170528.18000000063,"y":2543217.7100000028}},{"attributes":{"ID":219768,"DIS_CODE":0,"TOWNNAME":"東區","LI":"衛國里","LIN":"23鄰","STREET":"林森路","SECT":"二段","MAREA":" ","LANE":"１９０巷","ALLEY":"１１弄","HOUSE_NO":"８號","E_COORD97":170507.56,"N_COORD97":2543261.5899999999,"ADDRESS":"林森路二段１９０巷１１弄８號","OBJECTID":219767},"geometry":{"x":170507.55999999959,"y":2543261.5900000017}},{"attributes":{"ID":219769,"DIS_CODE":0,"TOWNNAME":"新市區","LI":"港墘里","LIN":"23鄰","STREET":"光華街","SECT":" ","MAREA":" ","LANE":"１５２巷","ALLEY":"１７弄","HOUSE_NO":"６號","E_COORD97":177952.32000000001,"N_COORD97":2552857,"ADDRESS":"光華街１５２巷１７弄６號","OBJECTID":219768},"geometry":{"x":177952.32000000123,"y":2552857.0000000019}},{"attributes":{"ID":219770,"DIS_CODE":0,"TOWNNAME":"新市區","LI":"港墘里","LIN":"23鄰","STREET":"光華街","SECT":" ","MAREA":" ","LANE":"１５２巷","ALLEY":"１７弄","HOUSE_NO":"１號","E_COORD97":177945.42000000001,"N_COORD97":2552841.5,"ADDRESS":"光華街１５２巷１７弄１號","OBJECTID":219769},"geometry":{"x":177945.41999999993,"y":2552841.5}},{"attributes":{"ID":219771,"DIS_CODE":0,"TOWNNAME":"新市區","LI":"港墘里","LIN":"23鄰","STREET":"光華街","SECT":" ","MAREA":" ","LANE":"１５２巷","ALLEY":"１７弄","HOUSE_NO":"３號","E_COORD97":177944.45999999999,"N_COORD97":2552847.5,"ADDRESS":"光華街１５２巷１７弄３號","OBJECTID":219770},"geometry":{"x":177944.46000000089,"y":2552847.5000000019}},{"attributes":{"ID":219772,"DIS_CODE":0,"TOWNNAME":"安南區","LI":"安東里","LIN":"23鄰","STREET":"安和路","SECT":"一段","MAREA":" ","LANE":"４９６巷","ALLEY":"４１弄","HOUSE_NO":"４４號","E_COORD97":169629.17999999999,"N_COORD97":2548386.8300000001,"ADDRESS":"安和路一段４９６巷４１弄４４號","OBJECTID":219771},"geometry":{"x":169629.18000000063,"y":2548386.8300000019}},{"attributes":{"ID":219773,"DIS_CODE":0,"TOWNNAME":"安南區","LI":"州南里","LIN":"23鄰","STREET":"安和路","SECT":"四段","MAREA":" ","LANE":"５３７巷","ALLEY":"３７弄","HOUSE_NO":"１９號","E_COORD97":169814.92000000001,"N_COORD97":2551353.8700000001,"ADDRESS":"安和路四段５３７巷３７弄１９號","OBJECTID":219772},"geometry":{"x":169814.91999999993,"y":2551353.8700000029}},{"attributes":{"ID":219774,"DIS_CODE":0,"TOWNNAME":"永康區","LI":"五王里","LIN":"28鄰","STREET":"五福街","SECT":" ","MAREA":" ","LANE":" ","ALLEY":" ","HOUSE_NO":"１００號","E_COORD97":171519.94,"N_COORD97":2545974.1600000001,"ADDRESS":"五福街１００號","OBJECTID":219773},"geometry":{"x":171519.94000000134,"y":2545974.160000002}},{"attributes":{"ID":219775,"DIS_CODE":0,"TOWNNAME":"安定區","LI":"港口里","LIN":"13鄰","STREET":" ","SECT":" ","MAREA":"港口","LANE":" ","ALLEY":" ","HOUSE_NO":"３４５之２７號","E_COORD97":171158.73999999999,"N_COORD97":2554701.2999999998,"ADDRESS":"港口３４５之２７號","OBJECTID":219774},"geometry":{"x":171158.74000000115,"y":2554701.3000000007}},{"attributes":{"ID":219776,"DIS_CODE":0,"TOWNNAME":"安定區","LI":"海寮里","LIN":"14鄰","STREET":" ","SECT":" ","MAREA":"海寮","LANE":" ","ALLEY":" ","HOUSE_NO":"１３２號之９９","E_COORD97":168967.91,"N_COORD97":2555460.2999999998,"ADDRESS":"海寮１３２號之９９","OBJECTID":219775},"geometry":{"x":168967.91000000015,"y":2555460.3000000026}},{"attributes":{"ID":219777,"DIS_CODE":0,"TOWNNAME":"安定區","LI":"港南里","LIN":"4鄰","STREET":" ","SECT":" ","MAREA":"港口","LANE":" ","ALLEY":" ","HOUSE_NO":"２８號之５","E_COORD97":171594.32999999999,"N_COORD97":2553976.2999999998,"ADDRESS":"港口２８號之５","OBJECTID":219776},"geometry":{"x":171594.33000000007,"y":2553976.3000000007}},{"attributes":{"ID":219778,"DIS_CODE":0,"TOWNNAME":"安南區","LI":"州南里","LIN":"23鄰","STREET":"安和路","SECT":"四段","MAREA":" ","LANE":"５３７巷","ALLEY":"３７弄","HOUSE_NO":"９號","E_COORD97":169843.16,"N_COORD97":2551364.3100000001,"ADDRESS":"安和路四段５３７巷３７弄９號","OBJECTID":219777},"geometry":{"x":169843.16000000201,"y":2551364.3100000024}},{"attributes":{"ID":219779,"DIS_CODE":0,"TOWNNAME":"安南區","LI":"\u25A0南里","LIN":"23鄰","STREET":"環福街","SECT":" ","MAREA":" ","LANE":"２１６巷","ALLEY":"１９弄","HOUSE_NO":"１２號","E_COORD97":170341.35999999999,"N_COORD97":2552713.7200000002,"ADDRESS":"環福街２１６巷１９弄１２號","OBJECTID":219778},"geometry":{"x":170341.36000000034,"y":2552713.7200000025}},{"attributes":{"ID":219780,"DIS_CODE":0,"TOWNNAME":"安南區","LI":"\u25A0南里","LIN":"23鄰","STREET":"環福街","SECT":" ","MAREA":" ","LANE":"２１６巷","ALLEY":"１９弄","HOUSE_NO":"４７號","E_COORD97":170363.60000000001,"N_COORD97":2552736.2400000002,"ADDRESS":"環福街２１６巷１９弄４７號","OBJECTID":219779},"geometry":{"x":170363.60000000056,"y":2552736.2400000039}},{"attributes":{"ID":219781,"DIS_CODE":0,"TOWNNAME":"永康區","LI":"埔園里","LIN":"23鄰","STREET":"自強路","SECT":" ","MAREA":" ","LANE":"３７９巷","ALLEY":"３５弄","HOUSE_NO":"５號","E_COORD97":173564.47,"N_COORD97":2547972.5,"ADDRESS":"自強路３７９巷３５弄５號","OBJECTID":219780},"geometry":{"x":173564.46999999974,"y":2547972.5}},{"attributes":{"ID":219782,"DIS_CODE":0,"TOWNNAME":"永康區","LI":"埔園里","LIN":"23鄰","STREET":"自強路","SECT":" ","MAREA":" ","LANE":"３７９巷","ALLEY":"５３弄","HOUSE_NO":"９號","E_COORD97":173556.17000000001,"N_COORD97":2547997,"ADDRESS":"自強路３７９巷５３弄９號","OBJECTID":219781},"geometry":{"x":173556.16999999993,"y":2547997}},{"attributes":{"ID":219783,"DIS_CODE":0,"TOWNNAME":"安定區","LI":"蘇林里","LIN":"24鄰","STREET":" ","SECT":" ","MAREA":"蘇厝","LANE":" ","ALLEY":" ","HOUSE_NO":"２６９號之２","E_COORD97":173318.19,"N_COORD97":2558602.2999999998,"ADDRESS":"蘇厝２６９號之２","OBJECTID":219782},"geometry":{"x":173318.19000000041,"y":2558602.3000000026}},{"attributes":{"ID":219784,"DIS_CODE":0,"TOWNNAME":"永康區","LI":"埔園里","LIN":"23鄰","STREET":"自強路","SECT":" ","MAREA":" ","LANE":"３７９巷","ALLEY":"５３弄","HOUSE_NO":"２號","E_COORD97":173575.32999999999,"N_COORD97":2548018.5099999998,"ADDRESS":"自強路３７９巷５３弄２號","OBJECTID":219783},"geometry":{"x":173575.33000000101,"y":2548018.5100000016}},{"attributes":{"ID":219785,"DIS_CODE":0,"TOWNNAME":"永康區","LI":"埔園里","LIN":"23鄰","STREET":"自強路","SECT":" ","MAREA":" ","LANE":"３７９巷","ALLEY":"５３弄","HOUSE_NO":"１號","E_COORD97":173571.38,"N_COORD97":2548001.5,"ADDRESS":"自強路３７９巷５３弄１號","OBJECTID":219784},"geometry":{"x":173571.38000000082,"y":2548001.5000000019}},{"attributes":{"ID":219786,"DIS_CODE":0,"TOWNNAME":"永康區","LI":"東橋里","LIN":"23鄰","STREET":"中正路","SECT":" ","MAREA":" ","LANE":"２１７巷","ALLEY":"３弄","HOUSE_NO":"１１號","E_COORD97":172970.47,"N_COORD97":2547862.4100000001,"ADDRESS":"中正路２１７巷３弄１１號","OBJECTID":219785},"geometry":{"x":172970.47000000067,"y":2547862.4100000001}},{"attributes":{"ID":219787,"DIS_CODE":0,"TOWNNAME":"永康區","LI":"東橋里","LIN":"23鄰","STREET":"中正路","SECT":" ","MAREA":" ","LANE":"２１７巷","ALLEY":"３弄","HOUSE_NO":"１９號","E_COORD97":172980.42000000001,"N_COORD97":2547802.8999999999,"ADDRESS":"中正路２１７巷３弄１９號","OBJECTID":219786},"geometry":{"x":172980.41999999993,"y":2547802.9000000022}},{"attributes":{"ID":219788,"DIS_CODE":0,"TOWNNAME":"永康區","LI":"東橋里","LIN":"23鄰","STREET":"中正路","SECT":" ","MAREA":" ","LANE":"２１７巷","ALLEY":"３弄","HOUSE_NO":"２３號","E_COORD97":172961.64000000001,"N_COORD97":2547810.3700000001,"ADDRESS":"中正路２１７巷３弄２３號","OBJECTID":219787},"geometry":{"x":172961.63999999966,"y":2547810.3700000029}},{"attributes":{"ID":219789,"DIS_CODE":0,"TOWNNAME":"永康區","LI":"東橋里","LIN":"23鄰","STREET":"中正路","SECT":" ","MAREA":" ","LANE":"２１７巷","ALLEY":"３弄","HOUSE_NO":"２５號","E_COORD97":172959.75,"N_COORD97":2547821.1200000001,"ADDRESS":"中正路２１７巷３弄２５號","OBJECTID":219788},"geometry":{"x":172959.74999999907,"y":2547821.120000001}},{"attributes":{"ID":219790,"DIS_CODE":0,"TOWNNAME":"永康區","LI":"東橋里","LIN":"23鄰","STREET":"中正路","SECT":" ","MAREA":" ","LANE":"２１７巷","ALLEY":"３弄","HOUSE_NO":"４１號","E_COORD97":172888.54000000001,"N_COORD97":2547846.4900000002,"ADDRESS":"中正路２１７巷３弄４１號","OBJECTID":219789},"geometry":{"x":172888.54000000097,"y":2547846.4900000021}},{"attributes":{"ID":219791,"DIS_CODE":0,"TOWNNAME":"永康區","LI":"埔園里","LIN":"23鄰","STREET":"自強路","SECT":" ","MAREA":" ","LANE":"３７９巷","ALLEY":"５３弄","HOUSE_NO":"３號","E_COORD97":173567.72,"N_COORD97":2548000.25,"ADDRESS":"自強路３７９巷５３弄３號","OBJECTID":219790},"geometry":{"x":173567.71999999974,"y":2548000.2500000019}},{"attributes":{"ID":219792,"DIS_CODE":0,"TOWNNAME":"永康區","LI":"東橋里","LIN":"23鄰","STREET":"中正路","SECT":" ","MAREA":" ","LANE":"２１７巷","ALLEY":"３弄","HOUSE_NO":"３３號","E_COORD97":172933.04000000001,"N_COORD97":2547855,"ADDRESS":"中正路２１７巷３弄３３號","OBJECTID":219791},"geometry":{"x":172933.04000000097,"y":2547855}},{"attributes":{"ID":219793,"DIS_CODE":0,"TOWNNAME":"永康區","LI":"東橋里","LIN":"23鄰","STREET":"中正路","SECT":" ","MAREA":" ","LANE":"２１７巷","ALLEY":"３弄","HOUSE_NO":"２９號","E_COORD97":172950.42000000001,"N_COORD97":2547857.75,"ADDRESS":"中正路２１７巷３弄２９號","OBJECTID":219792},"geometry":{"x":172950.42000000086,"y":2547857.7500000019}},{"attributes":{"ID":219794,"DIS_CODE":0,"TOWNNAME":"永康區","LI":"東橋里","LIN":"23鄰","STREET":"中正路","SECT":" ","MAREA":" ","LANE":"２１７巷","ALLEY":"３弄","HOUSE_NO":"６７號","E_COORD97":172828.89999999999,"N_COORD97":2547834.8599999999,"ADDRESS":"中正路２１７巷３弄６７號","OBJECTID":219793},"geometry":{"x":172828.9000000013,"y":2547834.8599999994}},{"attributes":{"ID":219795,"DIS_CODE":0,"TOWNNAME":"永康區","LI":"埔園里","LIN":"23鄰","STREET":"自強路","SECT":" ","MAREA":" ","LANE":"３７９巷","ALLEY":"５３弄","HOUSE_NO":"６號","E_COORD97":173567.54999999999,"N_COORD97":2548016.2599999998,"ADDRESS":"自強路３７９巷５３弄６號","OBJECTID":219794},"geometry":{"x":173567.54999999981,"y":2548016.2600000035}},{"attributes":{"ID":219796,"DIS_CODE":0,"TOWNNAME":"永康區","LI":"埔園里","LIN":"23鄰","STREET":"自強路","SECT":" ","MAREA":" ","LANE":"３７９巷","ALLEY":"５３弄","HOUSE_NO":"８號","E_COORD97":173563.63,"N_COORD97":2548014.7599999998,"ADDRESS":"自強路３７９巷５３弄８號","OBJECTID":219795},"geometry":{"x":173563.62999999989,"y":2548014.7599999998}},{"attributes":{"ID":219797,"DIS_CODE":0,"TOWNNAME":"東區","LI":"崇誨里","LIN":"23鄰","STREET":"林森路","SECT":"二段","MAREA":" ","LANE":"１９２巷","ALLEY":"３５弄","HOUSE_NO":"２５號","E_COORD97":170553.84,"N_COORD97":2543459.73,"ADDRESS":"林森路二段１９２巷３５弄２５號","OBJECTID":219796},"geometry":{"x":170553.84000000078,"y":2543459.7300000004}},{"attributes":{"ID":219798,"DIS_CODE":0,"TOWNNAME":"仁德區","LI":"上崙里","LIN":"23鄰","STREET":"德崙路","SECT":" ","MAREA":" ","LANE":"１９６巷","ALLEY":"１６弄","HOUSE_NO":"１５號","E_COORD97":173580.63,"N_COORD97":2538263.8999999999,"ADDRESS":"德崙路１９６巷１６弄１５號","OBJECTID":219797},"geometry":{"x":173580.62999999989,"y":2538263.9000000004}},{"attributes":{"ID":219799,"DIS_CODE":0,"TOWNNAME":"仁德區","LI":"上崙里","LIN":"23鄰","STREET":"德崙路","SECT":" ","MAREA":" ","LANE":"１９６巷","ALLEY":"１６弄","HOUSE_NO":"１０號","E_COORD97":173591.25,"N_COORD97":2538276.9700000002,"ADDRESS":"德崙路１９６巷１６弄１０號","OBJECTID":219798},"geometry":{"x":173591.25000000093,"y":2538276.9700000007}},{"attributes":{"ID":219800,"DIS_CODE":0,"TOWNNAME":"仁德區","LI":"成功里","LIN":"23鄰","STREET":"保華路","SECT":" ","MAREA":" ","LANE":"２６５巷","ALLEY":"２１弄","HOUSE_NO":"２２號","E_COORD97":170717.10999999999,"N_COORD97":2539882.0099999998,"ADDRESS":"保華路２６５巷２１弄２２號","OBJECTID":219799},"geometry":{"x":170717.11000000127,"y":2539882.0100000016}},{"attributes":{"ID":219801,"DIS_CODE":0,"TOWNNAME":"仁德區","LI":"上崙里","LIN":"23鄰","STREET":"德崙路","SECT":" ","MAREA":" ","LANE":"１９６巷","ALLEY":"１６弄","HOUSE_NO":"２８號","E_COORD97":173562.89999999999,"N_COORD97":2538301.9700000002,"ADDRESS":"德崙路１９６巷１６弄２８號","OBJECTID":219800},"geometry":{"x":173562.9000000013,"y":2538301.9699999988}}]}