{"displayFieldName":"TOWNNAME","fieldAliases":{"ID":"ID","DIS_CODE":"DIS_CODE","TOWNNAME":"TOWNNAME","LI":"LI","LIN":"LIN","STREET":"STREET","SECT":"SECT","MAREA":"MAREA","LANE":"LANE","ALLEY":"ALLEY","HOUSE_NO":"HOUSE_NO","E_COORD97":"E_COORD97","N_COORD97":"N_COORD97","ADDRESS":"ADDRESS","OBJECTID":"OBJECTID"},"geometryType":"esriGeometryPoint","spatialReference":{"wkid":102443,"latestWkid":3826},"fields":[{"name":"ID","type":"esriFieldTypeDouble","alias":"ID"},{"name":"DIS_CODE","type":"esriFieldTypeInteger","alias":"DIS_CODE"},{"name":"TOWNNAME","type":"esriFieldTypeString","alias":"TOWNNAME","length":8},{"name":"LI","type":"esriFieldTypeString","alias":"LI","length":8},{"name":"LIN","type":"esriFieldTypeString","alias":"LIN","length":12},{"name":"STREET","type":"esriFieldTypeString","alias":"STREET","length":20},{"name":"SECT","type":"esriFieldTypeString","alias":"SECT","length":8},{"name":"MAREA","type":"esriFieldTypeString","alias":"MAREA","length":12},{"name":"LANE","type":"esriFieldTypeString","alias":"LANE","length":10},{"name":"ALLEY","type":"esriFieldTypeString","alias":"ALLEY","length":10},{"name":"HOUSE_NO","type":"esriFieldTypeString","alias":"HOUSE_NO","length":20},{"name":"E_COORD97","type":"esriFieldTypeDouble","alias":"E_COORD97"},{"name":"N_COORD97","type":"esriFieldTypeDouble","alias":"N_COORD97"},{"name":"ADDRESS","type":"esriFieldTypeString","alias":"ADDRESS","length":50},{"name":"OBJECTID","type":"esriFieldTypeOID","alias":"OBJECTID"}],"features":[{"attributes":{"ID":280607,"DIS_CODE":0,"TOWNNAME":"六甲區","LI":"龜港里","LIN":"2鄰","STREET":" ","SECT":" ","MAREA":"龜子港","LANE":" ","ALLEY":" ","HOUSE_NO":"４７號","E_COORD97":179790.82000000001,"N_COORD97":2571786.9399999999,"ADDRESS":"龜子港４７號","OBJECTID":280601},"geometry":{"x":179790.8200000003,"y":2571786.9399999995}},{"attributes":{"ID":280608,"DIS_CODE":0,"TOWNNAME":"六甲區","LI":"龜港里","LIN":"2鄰","STREET":" ","SECT":" ","MAREA":"龜子港","LANE":" ","ALLEY":" ","HOUSE_NO":"４９號","E_COORD97":179789.69,"N_COORD97":2571791.1000000001,"ADDRESS":"龜子港４９號","OBJECTID":280602},"geometry":{"x":179789.69000000134,"y":2571791.1000000015}},{"attributes":{"ID":280609,"DIS_CODE":0,"TOWNNAME":"六甲區","LI":"龜港里","LIN":"2鄰","STREET":" ","SECT":" ","MAREA":"龜子港","LANE":" ","ALLEY":" ","HOUSE_NO":"４號","E_COORD97":179783.04999999999,"N_COORD97":2572118.2999999998,"ADDRESS":"龜子港４號","OBJECTID":280603},"geometry":{"x":179783.05000000075,"y":2572118.3000000007}},{"attributes":{"ID":280610,"DIS_CODE":0,"TOWNNAME":"六甲區","LI":"龜港里","LIN":"2鄰","STREET":" ","SECT":" ","MAREA":"龜子港","LANE":" ","ALLEY":" ","HOUSE_NO":"５１號","E_COORD97":179788.20999999999,"N_COORD97":2571795.5699999998,"ADDRESS":"龜子港５１號","OBJECTID":280604},"geometry":{"x":179788.20999999903,"y":2571795.5700000022}},{"attributes":{"ID":280611,"DIS_CODE":0,"TOWNNAME":"六甲區","LI":"龜港里","LIN":"2鄰","STREET":" ","SECT":" ","MAREA":"龜子港","LANE":" ","ALLEY":" ","HOUSE_NO":"５５號","E_COORD97":179786.47,"N_COORD97":2571803.8799999999,"ADDRESS":"龜子港５５號","OBJECTID":280605},"geometry":{"x":179786.47000000067,"y":2571803.879999999}},{"attributes":{"ID":280612,"DIS_CODE":0,"TOWNNAME":"六甲區","LI":"龜港里","LIN":"2鄰","STREET":" ","SECT":" ","MAREA":"龜子港","LANE":" ","ALLEY":" ","HOUSE_NO":"５７號","E_COORD97":179785.48000000001,"N_COORD97":2571808.02,"ADDRESS":"龜子港５７號","OBJECTID":280606},"geometry":{"x":179785.48000000138,"y":2571808.0200000033}},{"attributes":{"ID":280613,"DIS_CODE":0,"TOWNNAME":"六甲區","LI":"龜港里","LIN":"2鄰","STREET":" ","SECT":" ","MAREA":"龜子港","LANE":" ","ALLEY":" ","HOUSE_NO":"６２號","E_COORD97":179739.25,"N_COORD97":2572294.3100000001,"ADDRESS":"龜子港６２號","OBJECTID":280607},"geometry":{"x":179739.25000000093,"y":2572294.3100000005}},{"attributes":{"ID":280614,"DIS_CODE":0,"TOWNNAME":"六甲區","LI":"龜港里","LIN":"2鄰","STREET":" ","SECT":" ","MAREA":"龜子港","LANE":" ","ALLEY":" ","HOUSE_NO":"６３號","E_COORD97":179778.84,"N_COORD97":2571847.8500000001,"ADDRESS":"龜子港６３號","OBJECTID":280608},"geometry":{"x":179778.84000000171,"y":2571847.8500000015}},{"attributes":{"ID":280615,"DIS_CODE":0,"TOWNNAME":"六甲區","LI":"龜港里","LIN":"2鄰","STREET":" ","SECT":" ","MAREA":"龜子港","LANE":" ","ALLEY":" ","HOUSE_NO":"６６號","E_COORD97":179716.72,"N_COORD97":2572296.4900000002,"ADDRESS":"龜子港６６號","OBJECTID":280609},"geometry":{"x":179716.7200000016,"y":2572296.4900000002}},{"attributes":{"ID":280616,"DIS_CODE":0,"TOWNNAME":"六甲區","LI":"龜港里","LIN":"2鄰","STREET":" ","SECT":" ","MAREA":"龜子港","LANE":" ","ALLEY":" ","HOUSE_NO":"６７號","E_COORD97":179774.60000000001,"N_COORD97":2571864.4500000002,"ADDRESS":"龜子港６７號","OBJECTID":280610},"geometry":{"x":179774.59999999963,"y":2571864.4499999993}},{"attributes":{"ID":280617,"DIS_CODE":0,"TOWNNAME":"六甲區","LI":"龜港里","LIN":"2鄰","STREET":" ","SECT":" ","MAREA":"龜子港","LANE":" ","ALLEY":" ","HOUSE_NO":"６８號","E_COORD97":179716.42000000001,"N_COORD97":2572301.2400000002,"ADDRESS":"龜子港６８號","OBJECTID":280611},"geometry":{"x":179716.42000000086,"y":2572301.2400000002}},{"attributes":{"ID":280618,"DIS_CODE":0,"TOWNNAME":"六甲區","LI":"龜港里","LIN":"2鄰","STREET":" ","SECT":" ","MAREA":"龜子港","LANE":" ","ALLEY":" ","HOUSE_NO":"６９號","E_COORD97":179773.54000000001,"N_COORD97":2571870.1400000001,"ADDRESS":"龜子港６９號","OBJECTID":280612},"geometry":{"x":179773.54000000004,"y":2571870.1400000025}},{"attributes":{"ID":280619,"DIS_CODE":0,"TOWNNAME":"六甲區","LI":"龜港里","LIN":"2鄰","STREET":" ","SECT":" ","MAREA":"龜子港","LANE":" ","ALLEY":" ","HOUSE_NO":"６號","E_COORD97":179781.91,"N_COORD97":2572123.1600000001,"ADDRESS":"龜子港６號","OBJECTID":280613},"geometry":{"x":179781.90999999922,"y":2572123.160000002}},{"attributes":{"ID":280620,"DIS_CODE":0,"TOWNNAME":"六甲區","LI":"龜港里","LIN":"2鄰","STREET":" ","SECT":" ","MAREA":"龜子港","LANE":" ","ALLEY":" ","HOUSE_NO":"７１號","E_COORD97":179772.73999999999,"N_COORD97":2571875.2400000002,"ADDRESS":"龜子港７１號","OBJECTID":280614},"geometry":{"x":179772.74000000022,"y":2571875.2400000021}},{"attributes":{"ID":280621,"DIS_CODE":0,"TOWNNAME":"六甲區","LI":"龜港里","LIN":"2鄰","STREET":" ","SECT":" ","MAREA":"龜子港","LANE":" ","ALLEY":" ","HOUSE_NO":"７３號","E_COORD97":179771.39999999999,"N_COORD97":2571880.6800000002,"ADDRESS":"龜子港７３號","OBJECTID":280615},"geometry":{"x":179771.40000000037,"y":2571880.6799999997}},{"attributes":{"ID":280622,"DIS_CODE":0,"TOWNNAME":"安南區","LI":"四草里","LIN":"2鄰","STREET":"大眾六街","SECT":" ","MAREA":" ","LANE":" ","ALLEY":" ","HOUSE_NO":"２２６之１號","E_COORD97":160234.59166100001,"N_COORD97":2546813.40063,"ADDRESS":"大眾六街２２６之１號","OBJECTID":280616},"geometry":{"x":160234.59166100062,"y":2546813.4006280005}},{"attributes":{"ID":280623,"DIS_CODE":0,"TOWNNAME":"六甲區","LI":"龜港里","LIN":"2鄰","STREET":" ","SECT":" ","MAREA":"龜子港","LANE":" ","ALLEY":" ","HOUSE_NO":"７５號","E_COORD97":179770.23000000001,"N_COORD97":2571886.21,"ADDRESS":"龜子港７５號","OBJECTID":280617},"geometry":{"x":179770.23000000138,"y":2571886.2100000028}},{"attributes":{"ID":280624,"DIS_CODE":0,"TOWNNAME":"六甲區","LI":"龜港里","LIN":"2鄰","STREET":" ","SECT":" ","MAREA":"龜子港","LANE":" ","ALLEY":" ","HOUSE_NO":"７７之１０號","E_COORD97":179764.32999999999,"N_COORD97":2571905.0299999998,"ADDRESS":"龜子港７７之１０號","OBJECTID":280618},"geometry":{"x":179764.33000000101,"y":2571905.0299999993}},{"attributes":{"ID":280625,"DIS_CODE":0,"TOWNNAME":"六甲區","LI":"龜港里","LIN":"2鄰","STREET":" ","SECT":" ","MAREA":"龜子港","LANE":" ","ALLEY":" ","HOUSE_NO":"７７號","E_COORD97":179768.95999999999,"N_COORD97":2571891.02,"ADDRESS":"龜子港７７號","OBJECTID":280619},"geometry":{"x":179768.95999999996,"y":2571891.0199999996}},{"attributes":{"ID":280626,"DIS_CODE":0,"TOWNNAME":"六甲區","LI":"龜港里","LIN":"2鄰","STREET":" ","SECT":" ","MAREA":"龜子港","LANE":" ","ALLEY":" ","HOUSE_NO":"８號","E_COORD97":179780.82999999999,"N_COORD97":2572127.8700000001,"ADDRESS":"龜子港８號","OBJECTID":280620},"geometry":{"x":179780.83000000194,"y":2572127.870000001}},{"attributes":{"ID":280627,"DIS_CODE":0,"TOWNNAME":"六甲區","LI":"大丘里","LIN":"2鄰","STREET":" ","SECT":" ","MAREA":"嶺頂","LANE":" ","ALLEY":" ","HOUSE_NO":"１號之１","E_COORD97":192719.10999999999,"N_COORD97":2569377.0600000001,"ADDRESS":"嶺頂１號之１","OBJECTID":280621},"geometry":{"x":192719.11000000127,"y":2569377.0600000005}},{"attributes":{"ID":280628,"DIS_CODE":0,"TOWNNAME":"永康區","LI":"永康里","LIN":"31鄰","STREET":"聖龍街","SECT":" ","MAREA":" ","LANE":"１８６巷","ALLEY":" ","HOUSE_NO":"２０號","E_COORD97":174223.85000000001,"N_COORD97":2547800.2000000002,"ADDRESS":"聖龍街１８６巷２０號","OBJECTID":280622},"geometry":{"x":174223.85000000056,"y":2547800.2000000011}},{"attributes":{"ID":280629,"DIS_CODE":0,"TOWNNAME":"安南區","LI":"海東里","LIN":"6鄰","STREET":"同安路","SECT":" ","MAREA":" ","LANE":"２３７巷","ALLEY":" ","HOUSE_NO":"１號十一樓之１","E_COORD97":167195.69,"N_COORD97":2549238.3799999999,"ADDRESS":"同安路２３７巷１號十一樓之１","OBJECTID":280623},"geometry":{"x":167195.69000000134,"y":2549238.3800000027}},{"attributes":{"ID":280630,"DIS_CODE":0,"TOWNNAME":"安南區","LI":"海東里","LIN":"6鄰","STREET":"同安路","SECT":" ","MAREA":" ","LANE":"２３７巷","ALLEY":" ","HOUSE_NO":"１號十一樓之２","E_COORD97":167195.69,"N_COORD97":2549238.3799999999,"ADDRESS":"同安路２３７巷１號十一樓之２","OBJECTID":280624},"geometry":{"x":167195.69000000134,"y":2549238.3800000027}},{"attributes":{"ID":280631,"DIS_CODE":0,"TOWNNAME":"六甲區","LI":"龜港里","LIN":"2鄰","STREET":" ","SECT":" ","MAREA":"龜子港","LANE":"８０巷","ALLEY":"３８弄","HOUSE_NO":"１６號","E_COORD97":179864.32999999999,"N_COORD97":2572277.98,"ADDRESS":"龜子港８０巷３８弄１６號","OBJECTID":280625},"geometry":{"x":179864.33000000101,"y":2572277.9800000023}},{"attributes":{"ID":280632,"DIS_CODE":0,"TOWNNAME":"六甲區","LI":"龜港里","LIN":"2鄰","STREET":" ","SECT":" ","MAREA":"龜子港","LANE":"８０巷","ALLEY":"３８弄","HOUSE_NO":"８號","E_COORD97":179851.54000000001,"N_COORD97":2572320.6899999999,"ADDRESS":"龜子港８０巷３８弄８號","OBJECTID":280626},"geometry":{"x":179851.54000000004,"y":2572320.6899999995}},{"attributes":{"ID":280633,"DIS_CODE":0,"TOWNNAME":"六甲區","LI":"龜港里","LIN":"2鄰","STREET":" ","SECT":" ","MAREA":"龜子港","LANE":"８０巷","ALLEY":" ","HOUSE_NO":"２０號","E_COORD97":179770.57000000001,"N_COORD97":2572340.1200000001,"ADDRESS":"龜子港８０巷２０號","OBJECTID":280627},"geometry":{"x":179770.5700000003,"y":2572340.120000001}},{"attributes":{"ID":280634,"DIS_CODE":0,"TOWNNAME":"六甲區","LI":"龜港里","LIN":"2鄰","STREET":" ","SECT":" ","MAREA":"龜子港","LANE":"８０巷","ALLEY":" ","HOUSE_NO":"２６號","E_COORD97":179771.51999999999,"N_COORD97":2572308.4500000002,"ADDRESS":"龜子港８０巷２６號","OBJECTID":280628},"geometry":{"x":179771.51999999955,"y":2572308.4499999993}},{"attributes":{"ID":280635,"DIS_CODE":0,"TOWNNAME":"六甲區","LI":"龜港里","LIN":"2鄰","STREET":" ","SECT":" ","MAREA":"龜子港","LANE":"８０巷","ALLEY":" ","HOUSE_NO":"３２號","E_COORD97":179843.66,"N_COORD97":2572351.1499999999,"ADDRESS":"龜子港８０巷３２號","OBJECTID":280629},"geometry":{"x":179843.66000000108,"y":2572351.1500000022}},{"attributes":{"ID":280636,"DIS_CODE":0,"TOWNNAME":"六甲區","LI":"龜港里","LIN":"2鄰","STREET":" ","SECT":" ","MAREA":"龜子港","LANE":"８０巷","ALLEY":" ","HOUSE_NO":"９８號","E_COORD97":180206.92000000001,"N_COORD97":2572413.02,"ADDRESS":"龜子港８０巷９８號","OBJECTID":280630},"geometry":{"x":180206.91999999993,"y":2572413.0199999996}},{"attributes":{"ID":280637,"DIS_CODE":0,"TOWNNAME":"關廟區","LI":"北勢里","LIN":"2鄰","STREET":"中正路","SECT":" ","MAREA":" ","LANE":" ","ALLEY":" ","HOUSE_NO":"８７０號","E_COORD97":181313.06,"N_COORD97":2540245.25,"ADDRESS":"中正路８７０號","OBJECTID":280631},"geometry":{"x":181313.06000000052,"y":2540245.25}},{"attributes":{"ID":280638,"DIS_CODE":0,"TOWNNAME":"關廟區","LI":"東勢里","LIN":"2鄰","STREET":"光復街","SECT":" ","MAREA":" ","LANE":" ","ALLEY":" ","HOUSE_NO":"２００號","E_COORD97":181502.84,"N_COORD97":2539676.2799999998,"ADDRESS":"光復街２００號","OBJECTID":280632},"geometry":{"x":181502.84000000171,"y":2539676.2800000012}},{"attributes":{"ID":280639,"DIS_CODE":0,"TOWNNAME":"安南區","LI":"海東里","LIN":"6鄰","STREET":"同安路","SECT":" ","MAREA":" ","LANE":"２３７巷","ALLEY":" ","HOUSE_NO":"１號十一樓之３","E_COORD97":167195.69,"N_COORD97":2549238.3799999999,"ADDRESS":"同安路２３７巷１號十一樓之３","OBJECTID":280633},"geometry":{"x":167195.69000000134,"y":2549238.3800000027}},{"attributes":{"ID":280640,"DIS_CODE":0,"TOWNNAME":"仁德區","LI":"太子里","LIN":"27鄰","STREET":"太子路","SECT":" ","MAREA":" ","LANE":" ","ALLEY":" ","HOUSE_NO":"６７９號","E_COORD97":173432.65641,"N_COORD97":2543526.2806899999,"ADDRESS":"太子路６７９號","OBJECTID":280634},"geometry":{"x":173432.65641000122,"y":2543526.2806900032}},{"attributes":{"ID":280641,"DIS_CODE":0,"TOWNNAME":"永康區","LI":"永康里","LIN":"31鄰","STREET":"聖龍街","SECT":" ","MAREA":" ","LANE":"１８６巷","ALLEY":" ","HOUSE_NO":"６０號","E_COORD97":174231.19,"N_COORD97":2547711.2999999998,"ADDRESS":"聖龍街１８６巷６０號","OBJECTID":280635},"geometry":{"x":174231.19000000134,"y":2547711.3000000007}},{"attributes":{"ID":280642,"DIS_CODE":0,"TOWNNAME":"永康區","LI":"正強里","LIN":"36鄰","STREET":"正強街","SECT":" ","MAREA":" ","LANE":"３０７巷","ALLEY":" ","HOUSE_NO":"３６號","E_COORD97":173172.44,"N_COORD97":2548113.4399999999,"ADDRESS":"正強街３０７巷３６號","OBJECTID":280636},"geometry":{"x":173172.43999999948,"y":2548113.4400000013}},{"attributes":{"ID":280643,"DIS_CODE":0,"TOWNNAME":"永康區","LI":"永康里","LIN":"18鄰","STREET":"永中街","SECT":" ","MAREA":" ","LANE":"１３８巷","ALLEY":" ","HOUSE_NO":"１９號","E_COORD97":174068.76999999999,"N_COORD97":2547239.6000000001,"ADDRESS":"永中街１３８巷１９號","OBJECTID":280637},"geometry":{"x":174068.76999999955,"y":2547239.5999999996}},{"attributes":{"ID":280644,"DIS_CODE":0,"TOWNNAME":"下營區","LI":"大埤里","LIN":"1鄰","STREET":" ","SECT":" ","MAREA":"大埤寮","LANE":" ","ALLEY":" ","HOUSE_NO":"２號之１７","E_COORD97":173630.48000000001,"N_COORD97":2569917.9700000002,"ADDRESS":"大埤寮２號之１７","OBJECTID":280638},"geometry":{"x":173630.48000000138,"y":2569917.9700000025}},{"attributes":{"ID":280645,"DIS_CODE":0,"TOWNNAME":"永康區","LI":"永康里","LIN":"25鄰","STREET":"中山北路","SECT":" ","MAREA":" ","LANE":"１２３巷","ALLEY":" ","HOUSE_NO":"１８號","E_COORD97":174156.95000000001,"N_COORD97":2547554.71,"ADDRESS":"中山北路１２３巷１８號","OBJECTID":280639},"geometry":{"x":174156.95000000019,"y":2547554.7100000028}},{"attributes":{"ID":280646,"DIS_CODE":0,"TOWNNAME":"下營區","LI":"大埤里","LIN":"1鄰","STREET":" ","SECT":" ","MAREA":"大埤寮","LANE":" ","ALLEY":" ","HOUSE_NO":"２號之１８","E_COORD97":173634.76000000001,"N_COORD97":2569917.7200000002,"ADDRESS":"大埤寮２號之１８","OBJECTID":280640},"geometry":{"x":173634.76000000071,"y":2569917.7200000007}},{"attributes":{"ID":280647,"DIS_CODE":0,"TOWNNAME":"下營區","LI":"大埤里","LIN":"1鄰","STREET":" ","SECT":" ","MAREA":"大埤寮","LANE":" ","ALLEY":" ","HOUSE_NO":"２號之１９","E_COORD97":173639.92000000001,"N_COORD97":2569916.7599999998,"ADDRESS":"大埤寮２號之１９","OBJECTID":280641},"geometry":{"x":173639.91999999993,"y":2569916.7599999998}},{"attributes":{"ID":280648,"DIS_CODE":0,"TOWNNAME":"永康區","LI":"永康里","LIN":"15鄰","STREET":"永中街","SECT":" ","MAREA":" ","LANE":"６０巷","ALLEY":" ","HOUSE_NO":"９號","E_COORD97":173937.19,"N_COORD97":2547153.5,"ADDRESS":"永中街６０巷９號","OBJECTID":280642},"geometry":{"x":173937.19000000227,"y":2547153.5000000037}},{"attributes":{"ID":280649,"DIS_CODE":0,"TOWNNAME":"東區","LI":"路東里","LIN":"6鄰","STREET":"大同路","SECT":"二段","MAREA":" ","LANE":"６１巷","ALLEY":" ","HOUSE_NO":"１６號十六樓之１","E_COORD97":169386.85999999999,"N_COORD97":2542216.9399999999,"ADDRESS":"大同路二段６１巷１６號十六樓之１","OBJECTID":280643},"geometry":{"x":169386.86000000034,"y":2542216.9400000032}},{"attributes":{"ID":280650,"DIS_CODE":0,"TOWNNAME":"東區","LI":"路東里","LIN":"6鄰","STREET":"大同路","SECT":"二段","MAREA":" ","LANE":"６１巷","ALLEY":" ","HOUSE_NO":"６號八樓之１","E_COORD97":169356.92999999999,"N_COORD97":2542219.29,"ADDRESS":"大同路二段６１巷６號八樓之１","OBJECTID":280644},"geometry":{"x":169356.9299999997,"y":2542219.290000001}},{"attributes":{"ID":280651,"DIS_CODE":0,"TOWNNAME":"北區","LI":"賢北里","LIN":"6鄰","STREET":"中華北路","SECT":"一段","MAREA":" ","LANE":"１０５巷","ALLEY":" ","HOUSE_NO":"５０號二樓之５","E_COORD97":166395.47,"N_COORD97":2545527.0099999998,"ADDRESS":"中華北路一段１０５巷５０號二樓之５","OBJECTID":280645},"geometry":{"x":166395.46999999974,"y":2545527.0100000016}},{"attributes":{"ID":280652,"DIS_CODE":0,"TOWNNAME":"北區","LI":"賢北里","LIN":"6鄰","STREET":"中華北路","SECT":"一段","MAREA":" ","LANE":"１０５巷","ALLEY":" ","HOUSE_NO":"５０號六樓之６","E_COORD97":166395.47,"N_COORD97":2545527.0099999998,"ADDRESS":"中華北路一段１０５巷５０號六樓之６","OBJECTID":280646},"geometry":{"x":166395.46999999974,"y":2545527.0100000016}},{"attributes":{"ID":280653,"DIS_CODE":0,"TOWNNAME":"關廟區","LI":"北勢里","LIN":"2鄰","STREET":"北新街","SECT":" ","MAREA":" ","LANE":" ","ALLEY":" ","HOUSE_NO":"４２號","E_COORD97":181294.73999999999,"N_COORD97":2540345.25,"ADDRESS":"北新街４２號","OBJECTID":280647},"geometry":{"x":181294.74000000022,"y":2540345.2500000019}},{"attributes":{"ID":280654,"DIS_CODE":0,"TOWNNAME":"安南區","LI":"四草里","LIN":"2鄰","STREET":"大眾六街","SECT":" ","MAREA":" ","LANE":" ","ALLEY":" ","HOUSE_NO":"２２６之２號","E_COORD97":160239.03928500001,"N_COORD97":2546828.2172900001,"ADDRESS":"大眾六街２２６之２號","OBJECTID":280648},"geometry":{"x":160239.03928500134,"y":2546828.217286}},{"attributes":{"ID":280655,"DIS_CODE":0,"TOWNNAME":"永康區","LI":"永康里","LIN":"18鄰","STREET":"永中街","SECT":" ","MAREA":" ","LANE":"１３８巷","ALLEY":" ","HOUSE_NO":"８號","E_COORD97":174003.14000000001,"N_COORD97":2547259.6400000001,"ADDRESS":"永中街１３８巷８號","OBJECTID":280649},"geometry":{"x":174003.1400000006,"y":2547259.6400000025}},{"attributes":{"ID":280656,"DIS_CODE":0,"TOWNNAME":"永康區","LI":"正強里","LIN":"13鄰","STREET":"自強路","SECT":" ","MAREA":" ","LANE":"１８８巷","ALLEY":" ","HOUSE_NO":"１５之２號","E_COORD97":173216.75,"N_COORD97":2547462.2999999998,"ADDRESS":"自強路１８８巷１５之２號","OBJECTID":280650},"geometry":{"x":173216.75,"y":2547462.3000000026}},{"attributes":{"ID":280657,"DIS_CODE":0,"TOWNNAME":"永康區","LI":"安康里","LIN":"6鄰","STREET":"中華路","SECT":" ","MAREA":" ","LANE":"７２７巷","ALLEY":" ","HOUSE_NO":"２２號","E_COORD97":170775.54000000001,"N_COORD97":2546393.1600000001,"ADDRESS":"中華路７２７巷２２號","OBJECTID":280651},"geometry":{"x":170775.54000000004,"y":2546393.1600000039}},{"attributes":{"ID":280658,"DIS_CODE":0,"TOWNNAME":"永康區","LI":"安康里","LIN":"6鄰","STREET":"中華路","SECT":" ","MAREA":" ","LANE":"７２７巷","ALLEY":" ","HOUSE_NO":"７８號","E_COORD97":170676.32000000001,"N_COORD97":2546337.0299999998,"ADDRESS":"中華路７２７巷７８號","OBJECTID":280652},"geometry":{"x":170676.32000000216,"y":2546337.0300000012}},{"attributes":{"ID":280659,"DIS_CODE":0,"TOWNNAME":"永康區","LI":"永康里","LIN":"38鄰","STREET":"大同街","SECT":" ","MAREA":" ","LANE":"７１５巷","ALLEY":" ","HOUSE_NO":"２０號","E_COORD97":174447.06,"N_COORD97":2546670.9300000002,"ADDRESS":"大同街７１５巷２０號","OBJECTID":280653},"geometry":{"x":174447.05999999959,"y":2546670.9299999997}},{"attributes":{"ID":280660,"DIS_CODE":0,"TOWNNAME":"永康區","LI":"永康里","LIN":"41鄰","STREET":"永福街","SECT":" ","MAREA":" ","LANE":"９７巷","ALLEY":" ","HOUSE_NO":"４號","E_COORD97":174266.17999999999,"N_COORD97":2546641.6800000002,"ADDRESS":"永福街９７巷４號","OBJECTID":280654},"geometry":{"x":174266.1799999997,"y":2546641.6800000016}},{"attributes":{"ID":280661,"DIS_CODE":0,"TOWNNAME":"永康區","LI":"永康里","LIN":"5鄰","STREET":"中山北路","SECT":" ","MAREA":" ","LANE":"１８巷","ALLEY":" ","HOUSE_NO":"１０號","E_COORD97":173923.57999999999,"N_COORD97":2547309.7000000002,"ADDRESS":"中山北路１８巷１０號","OBJECTID":280655},"geometry":{"x":173923.58000000007,"y":2547309.6999999993}},{"attributes":{"ID":280662,"DIS_CODE":0,"TOWNNAME":"永康區","LI":"甲頂里","LIN":"13鄰","STREET":"大武街","SECT":" ","MAREA":" ","LANE":"１８巷","ALLEY":" ","HOUSE_NO":"２號","E_COORD97":170308.69,"N_COORD97":2546654.5899999999,"ADDRESS":"大武街１８巷２號","OBJECTID":280656},"geometry":{"x":170308.69000000041,"y":2546654.5900000036}},{"attributes":{"ID":280663,"DIS_CODE":0,"TOWNNAME":"關廟區","LI":"新埔里","LIN":"2鄰","STREET":"忠孝街","SECT":" ","MAREA":" ","LANE":" ","ALLEY":" ","HOUSE_NO":"２６８號","E_COORD97":181213.34,"N_COORD97":2540900.25,"ADDRESS":"忠孝街２６８號","OBJECTID":280657},"geometry":{"x":181213.34000000078,"y":2540900.2500000037}},{"attributes":{"ID":280664,"DIS_CODE":0,"TOWNNAME":"永康區","LI":"永康里","LIN":"5鄰","STREET":"中山北路","SECT":" ","MAREA":" ","LANE":"１８巷","ALLEY":" ","HOUSE_NO":"１６號","E_COORD97":173943.07000000001,"N_COORD97":2547311.2400000002,"ADDRESS":"中山北路１８巷１６號","OBJECTID":280658},"geometry":{"x":173943.07000000123,"y":2547311.2400000002}},{"attributes":{"ID":280665,"DIS_CODE":0,"TOWNNAME":"永康區","LI":"正強里","LIN":"38鄰","STREET":"正強街","SECT":" ","MAREA":" ","LANE":"３０７巷","ALLEY":" ","HOUSE_NO":"３９號","E_COORD97":173156.89000000001,"N_COORD97":2548091.1299999999,"ADDRESS":"正強街３０７巷３９號","OBJECTID":280659},"geometry":{"x":173156.89000000153,"y":2548091.1300000008}},{"attributes":{"ID":280666,"DIS_CODE":0,"TOWNNAME":"永康區","LI":"安康里","LIN":"18鄰","STREET":"中華路","SECT":" ","MAREA":" ","LANE":"６６１巷","ALLEY":" ","HOUSE_NO":"９０號","E_COORD97":170827.78,"N_COORD97":2546134.75,"ADDRESS":"中華路６６１巷９０號","OBJECTID":280660},"geometry":{"x":170827.78000000119,"y":2546134.7500000037}},{"attributes":{"ID":280667,"DIS_CODE":0,"TOWNNAME":"永康區","LI":"永康里","LIN":"17鄰","STREET":"永中街","SECT":" ","MAREA":" ","LANE":"１１８巷","ALLEY":" ","HOUSE_NO":"２８號","E_COORD97":174053.04000000001,"N_COORD97":2547176.5,"ADDRESS":"永中街１１８巷２８號","OBJECTID":280661},"geometry":{"x":174053.0400000019,"y":2547176.5}},{"attributes":{"ID":280668,"DIS_CODE":0,"TOWNNAME":"歸仁區","LI":"南保里","LIN":"6鄰","STREET":"文化街","SECT":"三段","MAREA":" ","LANE":"１８巷","ALLEY":" ","HOUSE_NO":"２號二樓之５","E_COORD97":176974.98000000001,"N_COORD97":2541278.3300000001,"ADDRESS":"文化街三段１８巷２號二樓之５","OBJECTID":280662},"geometry":{"x":176974.98000000138,"y":2541278.3300000001}},{"attributes":{"ID":280669,"DIS_CODE":0,"TOWNNAME":"關廟區","LI":"南花里","LIN":"2鄰","STREET":"中山路","SECT":"一段","MAREA":" ","LANE":"２０２巷","ALLEY":" ","HOUSE_NO":"１１號","E_COORD97":181926.66623199999,"N_COORD97":2540026.5318800001,"ADDRESS":"中山路一段２０２巷１１號","OBJECTID":280663},"geometry":{"x":181926.66623200011,"y":2540026.5318800025}},{"attributes":{"ID":280670,"DIS_CODE":0,"TOWNNAME":"關廟區","LI":"北勢里","LIN":"2鄰","STREET":"北新街","SECT":" ","MAREA":" ","LANE":" ","ALLEY":" ","HOUSE_NO":"６號","E_COORD97":181271.98999999999,"N_COORD97":2540276.25,"ADDRESS":"北新街６號","OBJECTID":280664},"geometry":{"x":181271.99000000115,"y":2540276.2500000037}},{"attributes":{"ID":280671,"DIS_CODE":0,"TOWNNAME":"關廟區","LI":"山西里","LIN":"2鄰","STREET":"武聖路","SECT":" ","MAREA":" ","LANE":" ","ALLEY":" ","HOUSE_NO":"３８號","E_COORD97":180928.48999999999,"N_COORD97":2540201.25,"ADDRESS":"武聖路３８號","OBJECTID":280665},"geometry":{"x":180928.49000000022,"y":2540201.25}},{"attributes":{"ID":280672,"DIS_CODE":0,"TOWNNAME":"關廟區","LI":"山西里","LIN":"2鄰","STREET":"武聖路","SECT":" ","MAREA":" ","LANE":" ","ALLEY":" ","HOUSE_NO":"３０號","E_COORD97":180941.09,"N_COORD97":2540200.25,"ADDRESS":"武聖路３０號","OBJECTID":280666},"geometry":{"x":180941.08999999985,"y":2540200.25}},{"attributes":{"ID":280673,"DIS_CODE":0,"TOWNNAME":"中西區","LI":"青年里","LIN":"10鄰","STREET":"民權路","SECT":"一段","MAREA":" ","LANE":" ","ALLEY":" ","HOUSE_NO":"２２８號","E_COORD97":168755.20999999999,"N_COORD97":2543683.54,"ADDRESS":"民權路一段２２８號","OBJECTID":280667},"geometry":{"x":168755.20999999996,"y":2543683.5399999991}},{"attributes":{"ID":280674,"DIS_CODE":0,"TOWNNAME":"中西區","LI":"青年里","LIN":"13鄰","STREET":"民權路","SECT":"一段","MAREA":" ","LANE":" ","ALLEY":" ","HOUSE_NO":"２５５號底層","E_COORD97":168696.01999999999,"N_COORD97":2543722.27,"ADDRESS":"民權路一段２５５號底層","OBJECTID":280668},"geometry":{"x":168696.02000000048,"y":2543722.2699999996}},{"attributes":{"ID":280675,"DIS_CODE":0,"TOWNNAME":"中西區","LI":"青年里","LIN":"13鄰","STREET":"民權路","SECT":"一段","MAREA":" ","LANE":" ","ALLEY":" ","HOUSE_NO":"２６１號","E_COORD97":168692.37,"N_COORD97":2543727.1400000001,"ADDRESS":"民權路一段２６１號","OBJECTID":280669},"geometry":{"x":168692.37000000197,"y":2543727.1400000025}},{"attributes":{"ID":280676,"DIS_CODE":0,"TOWNNAME":"中西區","LI":"青年里","LIN":"13鄰","STREET":"民權路","SECT":"一段","MAREA":" ","LANE":" ","ALLEY":" ","HOUSE_NO":"２６３號","E_COORD97":168687.89999999999,"N_COORD97":2543729.3700000001,"ADDRESS":"民權路一段２６３號","OBJECTID":280670},"geometry":{"x":168687.9000000013,"y":2543729.3700000029}},{"attributes":{"ID":280677,"DIS_CODE":0,"TOWNNAME":"中西區","LI":"青年里","LIN":"13鄰","STREET":"民權路","SECT":"一段","MAREA":" ","LANE":" ","ALLEY":" ","HOUSE_NO":"２６５號","E_COORD97":168686.78,"N_COORD97":2543733.8399999999,"ADDRESS":"民權路一段２６５號","OBJECTID":280671},"geometry":{"x":168686.78000000119,"y":2543733.8400000036}},{"attributes":{"ID":280678,"DIS_CODE":0,"TOWNNAME":"關廟區","LI":"田中里","LIN":"2鄰","STREET":"田大路","SECT":" ","MAREA":" ","LANE":"１２２巷","ALLEY":" ","HOUSE_NO":"１１號","E_COORD97":184295.11393799999,"N_COORD97":2533678.73618,"ADDRESS":"田大路１２２巷１１號","OBJECTID":280672},"geometry":{"x":184295.11393800098,"y":2533678.7361750025}},{"attributes":{"ID":280679,"DIS_CODE":0,"TOWNNAME":"歸仁區","LI":"南保里","LIN":"6鄰","STREET":"文化街","SECT":"三段","MAREA":" ","LANE":"１８巷","ALLEY":" ","HOUSE_NO":"２號四樓之２","E_COORD97":176974.95999999999,"N_COORD97":2541278.3300000001,"ADDRESS":"文化街三段１８巷２號四樓之２","OBJECTID":280673},"geometry":{"x":176974.96000000089,"y":2541278.3300000001}},{"attributes":{"ID":280680,"DIS_CODE":0,"TOWNNAME":"歸仁區","LI":"南保里","LIN":"6鄰","STREET":"文化街","SECT":"三段","MAREA":" ","LANE":"１８巷","ALLEY":" ","HOUSE_NO":"２號三樓之２","E_COORD97":176974.95999999999,"N_COORD97":2541278.3300000001,"ADDRESS":"文化街三段１８巷２號三樓之２","OBJECTID":280674},"geometry":{"x":176974.96000000089,"y":2541278.3300000001}},{"attributes":{"ID":280681,"DIS_CODE":0,"TOWNNAME":"南區","LI":"大成里","LIN":"6鄰","STREET":"健康路","SECT":"一段","MAREA":" ","LANE":"３９１巷","ALLEY":" ","HOUSE_NO":"１９號四樓","E_COORD97":167973.01999999999,"N_COORD97":2542383.48,"ADDRESS":"健康路一段３９１巷１９號四樓","OBJECTID":280675},"geometry":{"x":167973.01999999955,"y":2542383.4800000004}},{"attributes":{"ID":280682,"DIS_CODE":0,"TOWNNAME":"中西區","LI":"青年里","LIN":"13鄰","STREET":"民權路","SECT":"一段","MAREA":" ","LANE":" ","ALLEY":" ","HOUSE_NO":"２６７號","E_COORD97":168687.51999999999,"N_COORD97":2543738.6800000002,"ADDRESS":"民權路一段２６７號","OBJECTID":280676},"geometry":{"x":168687.52000000048,"y":2543738.6800000016}},{"attributes":{"ID":280683,"DIS_CODE":0,"TOWNNAME":"中西區","LI":"青年里","LIN":"13鄰","STREET":"民權路","SECT":"一段","MAREA":" ","LANE":" ","ALLEY":" ","HOUSE_NO":"２６９號","E_COORD97":168684.91,"N_COORD97":2543742.0299999998,"ADDRESS":"民權路一段２６９號","OBJECTID":280677},"geometry":{"x":168684.91000000015,"y":2543742.0300000031}},{"attributes":{"ID":280684,"DIS_CODE":0,"TOWNNAME":"中西區","LI":"青年里","LIN":"13鄰","STREET":"民權路","SECT":"一段","MAREA":" ","LANE":" ","ALLEY":" ","HOUSE_NO":"２７１號","E_COORD97":168682.29999999999,"N_COORD97":2543744.6400000001,"ADDRESS":"民權路一段２７１號","OBJECTID":280678},"geometry":{"x":168682.30000000168,"y":2543744.6400000006}},{"attributes":{"ID":280685,"DIS_CODE":0,"TOWNNAME":"中西區","LI":"青年里","LIN":"13鄰","STREET":"民權路","SECT":"一段","MAREA":" ","LANE":" ","ALLEY":" ","HOUSE_NO":"２７３號","E_COORD97":168684.91,"N_COORD97":2543751.3399999999,"ADDRESS":"民權路一段２７３號","OBJECTID":280679},"geometry":{"x":168684.91000000015,"y":2543751.3400000017}},{"attributes":{"ID":280686,"DIS_CODE":0,"TOWNNAME":"永康區","LI":"甲頂里","LIN":"13鄰","STREET":"大武街","SECT":" ","MAREA":" ","LANE":"１８巷","ALLEY":" ","HOUSE_NO":"６號","E_COORD97":170316.34,"N_COORD97":2546649.3399999999,"ADDRESS":"大武街１８巷６號","OBJECTID":280680},"geometry":{"x":170316.34000000171,"y":2546649.3400000036}},{"attributes":{"ID":280687,"DIS_CODE":0,"TOWNNAME":"永康區","LI":"安康里","LIN":"15鄰","STREET":"中華路","SECT":" ","MAREA":" ","LANE":"６１９巷","ALLEY":" ","HOUSE_NO":"３２號","E_COORD97":170968.35000000001,"N_COORD97":2546062.7400000002,"ADDRESS":"中華路６１９巷３２號","OBJECTID":280681},"geometry":{"x":170968.34999999963,"y":2546062.7400000002}},{"attributes":{"ID":280688,"DIS_CODE":0,"TOWNNAME":"新營區","LI":"王公里","LIN":"15鄰","STREET":"大勇街","SECT":" ","MAREA":" ","LANE":" ","ALLEY":" ","HOUSE_NO":"５８號","E_COORD97":180317.824138,"N_COORD97":2579430.7281300002,"ADDRESS":"大勇街５８號","OBJECTID":280682},"geometry":{"x":180317.82413799968,"y":2579430.7281260006}},{"attributes":{"ID":280689,"DIS_CODE":0,"TOWNNAME":"北區","LI":"安民里","LIN":"6鄰","STREET":"海安路","SECT":"三段","MAREA":" ","LANE":"５３巷","ALLEY":" ","HOUSE_NO":"１９號","E_COORD97":167835.57000000001,"N_COORD97":2544755.02,"ADDRESS":"海安路三段５３巷１９號","OBJECTID":280683},"geometry":{"x":167835.57000000123,"y":2544755.0199999996}},{"attributes":{"ID":280690,"DIS_CODE":0,"TOWNNAME":"永康區","LI":"安康里","LIN":"19鄰","STREET":"中華西街","SECT":" ","MAREA":" ","LANE":"１２２巷","ALLEY":" ","HOUSE_NO":"４０號","E_COORD97":170805.60000000001,"N_COORD97":2546183.7400000002,"ADDRESS":"中華西街１２２巷４０號","OBJECTID":280684},"geometry":{"x":170805.59999999963,"y":2546183.7400000021}},{"attributes":{"ID":280691,"DIS_CODE":0,"TOWNNAME":"永康區","LI":"永康里","LIN":"24鄰","STREET":"中山南路","SECT":" ","MAREA":" ","LANE":"５９７巷","ALLEY":" ","HOUSE_NO":"１６號之１","E_COORD97":173530.76999999999,"N_COORD97":2547254.7999999998,"ADDRESS":"中山南路５９７巷１６號之１","OBJECTID":280685},"geometry":{"x":173530.77000000048,"y":2547254.8000000026}},{"attributes":{"ID":280692,"DIS_CODE":0,"TOWNNAME":"永康區","LI":"安康里","LIN":"18鄰","STREET":"中華路","SECT":" ","MAREA":" ","LANE":"６６１巷","ALLEY":" ","HOUSE_NO":"１０６號","E_COORD97":170800.14999999999,"N_COORD97":2546118,"ADDRESS":"中華路６６１巷１０６號","OBJECTID":280686},"geometry":{"x":170800.1500000013,"y":2546118}},{"attributes":{"ID":280693,"DIS_CODE":0,"TOWNNAME":"關廟區","LI":"東勢里","LIN":"2鄰","STREET":"東興路","SECT":" ","MAREA":" ","LANE":"１４５巷","ALLEY":" ","HOUSE_NO":"６號","E_COORD97":181558.67000000001,"N_COORD97":2539592.25,"ADDRESS":"東興路１４５巷６號","OBJECTID":280687},"geometry":{"x":181558.67000000086,"y":2539592.2500000019}},{"attributes":{"ID":280694,"DIS_CODE":0,"TOWNNAME":"東區","LI":"小東里","LIN":"4鄰","STREET":"小東路","SECT":" ","MAREA":" ","LANE":" ","ALLEY":" ","HOUSE_NO":"２１２號","E_COORD97":170863.53,"N_COORD97":2544448.6000000001,"ADDRESS":"小東路２１２號","OBJECTID":280688},"geometry":{"x":170863.53000000119,"y":2544448.6000000015}},{"attributes":{"ID":280695,"DIS_CODE":0,"TOWNNAME":"永康區","LI":"成功里","LIN":"42鄰","STREET":"中華路","SECT":" ","MAREA":" ","LANE":"１５４巷","ALLEY":" ","HOUSE_NO":"４０號","E_COORD97":171720.82000000001,"N_COORD97":2544885,"ADDRESS":"中華路１５４巷４０號","OBJECTID":280689},"geometry":{"x":171720.82000000123,"y":2544885}},{"attributes":{"ID":280696,"DIS_CODE":0,"TOWNNAME":"永康區","LI":"正強里","LIN":"21鄰","STREET":"自強路","SECT":" ","MAREA":" ","LANE":"３５３巷","ALLEY":" ","HOUSE_NO":"５號之１","E_COORD97":173486.64999999999,"N_COORD97":2547817.04,"ADDRESS":"自強路３５３巷５號之１","OBJECTID":280690},"geometry":{"x":173486.6500000013,"y":2547817.0400000028}},{"attributes":{"ID":280697,"DIS_CODE":0,"TOWNNAME":"永康區","LI":"永康里","LIN":"38鄰","STREET":"大同街","SECT":" ","MAREA":" ","LANE":"７１５巷","ALLEY":" ","HOUSE_NO":"３６號","E_COORD97":174423.85999999999,"N_COORD97":2546665.4300000002,"ADDRESS":"大同街７１５巷３６號","OBJECTID":280691},"geometry":{"x":174423.86000000034,"y":2546665.4300000034}},{"attributes":{"ID":280698,"DIS_CODE":0,"TOWNNAME":"永康區","LI":"永康里","LIN":"39鄰","STREET":"永福街","SECT":" ","MAREA":" ","LANE":"１１巷","ALLEY":" ","HOUSE_NO":"１７號","E_COORD97":174294.19,"N_COORD97":2546384.2400000002,"ADDRESS":"永福街１１巷１７號","OBJECTID":280692},"geometry":{"x":174294.19000000041,"y":2546384.2400000021}},{"attributes":{"ID":280699,"DIS_CODE":0,"TOWNNAME":"中西區","LI":"青年里","LIN":"14鄰","STREET":"民權路","SECT":"一段","MAREA":" ","LANE":" ","ALLEY":" ","HOUSE_NO":"２４５號","E_COORD97":168704.79000000001,"N_COORD97":2543699.7799999998,"ADDRESS":"民權路一段２４５號","OBJECTID":280693},"geometry":{"x":168704.7900000019,"y":2543699.7800000031}},{"attributes":{"ID":280700,"DIS_CODE":0,"TOWNNAME":"中西區","LI":"青年里","LIN":"14鄰","STREET":"民權路","SECT":"一段","MAREA":" ","LANE":" ","ALLEY":" ","HOUSE_NO":"２５１號","E_COORD97":168698.91,"N_COORD97":2543710.52,"ADDRESS":"民權路一段２５１號","OBJECTID":280694},"geometry":{"x":168698.91000000201,"y":2543710.5199999996}},{"attributes":{"ID":280701,"DIS_CODE":0,"TOWNNAME":"中西區","LI":"青年里","LIN":"14鄰","STREET":"民權路","SECT":"一段","MAREA":" ","LANE":" ","ALLEY":" ","HOUSE_NO":"２５３號","E_COORD97":168703.13,"N_COORD97":2543717.0899999999,"ADDRESS":"民權路一段２５３號","OBJECTID":280695},"geometry":{"x":168703.12999999989,"y":2543717.0899999999}},{"attributes":{"ID":280702,"DIS_CODE":0,"TOWNNAME":"中西區","LI":"青年里","LIN":"10鄰","STREET":"民權路","SECT":"一段","MAREA":" ","LANE":" ","ALLEY":" ","HOUSE_NO":"２２２號","E_COORD97":168765.35000000001,"N_COORD97":2543673.5299999998,"ADDRESS":"民權路一段２２２號","OBJECTID":280696},"geometry":{"x":168765.35000000056,"y":2543673.5299999993}},{"attributes":{"ID":280703,"DIS_CODE":0,"TOWNNAME":"中西區","LI":"青年里","LIN":"10鄰","STREET":"民權路","SECT":"一段","MAREA":" ","LANE":" ","ALLEY":" ","HOUSE_NO":"２２４號","E_COORD97":168765.10999999999,"N_COORD97":2543680.2400000002,"ADDRESS":"民權路一段２２４號","OBJECTID":280697},"geometry":{"x":168765.11000000034,"y":2543680.2399999984}},{"attributes":{"ID":280704,"DIS_CODE":0,"TOWNNAME":"中西區","LI":"青年里","LIN":"10鄰","STREET":"民權路","SECT":"一段","MAREA":" ","LANE":" ","ALLEY":" ","HOUSE_NO":"２２６號","E_COORD97":168756.14999999999,"N_COORD97":2543680.2400000002,"ADDRESS":"民權路一段２２６號","OBJECTID":280698},"geometry":{"x":168756.15000000037,"y":2543680.2399999984}},{"attributes":{"ID":280705,"DIS_CODE":0,"TOWNNAME":"北區","LI":"元寶里","LIN":"2鄰","STREET":"北園街","SECT":" ","MAREA":" ","LANE":" ","ALLEY":" ","HOUSE_NO":"８４號","E_COORD97":170358.82999999999,"N_COORD97":2545875.21,"ADDRESS":"北園街８４號","OBJECTID":280699},"geometry":{"x":170358.82999999914,"y":2545875.2100000028}},{"attributes":{"ID":280706,"DIS_CODE":0,"TOWNNAME":"北區","LI":"元寶里","LIN":"2鄰","STREET":"北園街","SECT":" ","MAREA":" ","LANE":" ","ALLEY":" ","HOUSE_NO":"８６號","E_COORD97":170358.16,"N_COORD97":2545881.0600000001,"ADDRESS":"北園街８６號","OBJECTID":280700},"geometry":{"x":170358.16000000015,"y":2545881.0600000005}},{"attributes":{"ID":280707,"DIS_CODE":0,"TOWNNAME":"北區","LI":"元寶里","LIN":"2鄰","STREET":"北園街","SECT":" ","MAREA":" ","LANE":" ","ALLEY":" ","HOUSE_NO":"８８號","E_COORD97":170358.38,"N_COORD97":2545885.1000000001,"ADDRESS":"北園街８８號","OBJECTID":280701},"geometry":{"x":170358.38000000175,"y":2545885.1000000015}},{"attributes":{"ID":280708,"DIS_CODE":0,"TOWNNAME":"永康區","LI":"正強里","LIN":"17鄰","STREET":"自強路","SECT":" ","MAREA":" ","LANE":"１８８巷","ALLEY":" ","HOUSE_NO":"４２號","E_COORD97":173212.92000000001,"N_COORD97":2547344.5,"ADDRESS":"自強路１８８巷４２號","OBJECTID":280702},"geometry":{"x":173212.92000000179,"y":2547344.5000000019}},{"attributes":{"ID":280709,"DIS_CODE":0,"TOWNNAME":"永康區","LI":"永康里","LIN":"16鄰","STREET":"永中街","SECT":" ","MAREA":" ","LANE":"１００巷","ALLEY":" ","HOUSE_NO":"３３號","E_COORD97":174026.75,"N_COORD97":2547165.25,"ADDRESS":"永中街１００巷３３號","OBJECTID":280703},"geometry":{"x":174026.75000000093,"y":2547165.2499999981}},{"attributes":{"ID":280710,"DIS_CODE":0,"TOWNNAME":"永康區","LI":"正強里","LIN":"13鄰","STREET":"自強路","SECT":" ","MAREA":" ","LANE":"１８８巷","ALLEY":" ","HOUSE_NO":"１９號","E_COORD97":173216.57999999999,"N_COORD97":2547432.2400000002,"ADDRESS":"自強路１８８巷１９號","OBJECTID":280704},"geometry":{"x":173216.58000000007,"y":2547432.2400000002}},{"attributes":{"ID":280711,"DIS_CODE":0,"TOWNNAME":"永康區","LI":"永康里","LIN":"8鄰","STREET":"永中街","SECT":" ","MAREA":" ","LANE":"５３巷","ALLEY":" ","HOUSE_NO":"７號","E_COORD97":173886.45000000001,"N_COORD97":2547226.9900000002,"ADDRESS":"永中街５３巷７號","OBJECTID":280705},"geometry":{"x":173886.45000000112,"y":2547226.9900000002}},{"attributes":{"ID":280712,"DIS_CODE":0,"TOWNNAME":"永康區","LI":"成功里","LIN":"15鄰","STREET":"忠孝路","SECT":" ","MAREA":" ","LANE":"１９５巷","ALLEY":" ","HOUSE_NO":"３１號","E_COORD97":171974.38,"N_COORD97":2544810.25,"ADDRESS":"忠孝路１９５巷３１號","OBJECTID":280706},"geometry":{"x":171974.38000000082,"y":2544810.2500000019}},{"attributes":{"ID":280713,"DIS_CODE":0,"TOWNNAME":"永康區","LI":"安康里","LIN":"6鄰","STREET":"中華路","SECT":" ","MAREA":" ","LANE":"７２７巷","ALLEY":" ","HOUSE_NO":"５５號","E_COORD97":170698.53,"N_COORD97":2546332.4900000002,"ADDRESS":"中華路７２７巷５５號","OBJECTID":280707},"geometry":{"x":170698.53000000212,"y":2546332.4900000002}},{"attributes":{"ID":280714,"DIS_CODE":0,"TOWNNAME":"永康區","LI":"安康里","LIN":"6鄰","STREET":"中華路","SECT":" ","MAREA":" ","LANE":"７２７巷","ALLEY":" ","HOUSE_NO":"３０號","E_COORD97":170761.67000000001,"N_COORD97":2546385.2200000002,"ADDRESS":"中華路７２７巷３０號","OBJECTID":280708},"geometry":{"x":170761.67000000179,"y":2546385.2200000007}},{"attributes":{"ID":280715,"DIS_CODE":0,"TOWNNAME":"東區","LI":"小東里","LIN":"4鄰","STREET":"小東路","SECT":" ","MAREA":" ","LANE":" ","ALLEY":" ","HOUSE_NO":"２１６號","E_COORD97":170869.69,"N_COORD97":2544446.9500000002,"ADDRESS":"小東路２１６號","OBJECTID":280709},"geometry":{"x":170869.69000000041,"y":2544446.9499999993}},{"attributes":{"ID":280716,"DIS_CODE":0,"TOWNNAME":"東區","LI":"大德里","LIN":"8鄰","STREET":"立德十一路","SECT":" ","MAREA":" ","LANE":" ","ALLEY":" ","HOUSE_NO":"４２號","E_COORD97":169521,"N_COORD97":2542089.0600000001,"ADDRESS":"立德十一路４２號","OBJECTID":280710},"geometry":{"x":169521.00000000093,"y":2542089.0600000024}},{"attributes":{"ID":280717,"DIS_CODE":0,"TOWNNAME":"北區","LI":"長榮里","LIN":"6鄰","STREET":"長榮路","SECT":"五段","MAREA":" ","LANE":"４１巷","ALLEY":" ","HOUSE_NO":"２０號十一樓之３","E_COORD97":169989.37,"N_COORD97":2545569.0099999998,"ADDRESS":"長榮路五段４１巷２０號十一樓之３","OBJECTID":280711},"geometry":{"x":169989.37000000104,"y":2545569.0099999998}},{"attributes":{"ID":280718,"DIS_CODE":0,"TOWNNAME":"北區","LI":"長榮里","LIN":"6鄰","STREET":"長榮路","SECT":"五段","MAREA":" ","LANE":"４１巷","ALLEY":" ","HOUSE_NO":"２０號十一樓之５","E_COORD97":169989.37,"N_COORD97":2545569.0099999998,"ADDRESS":"長榮路五段４１巷２０號十一樓之５","OBJECTID":280712},"geometry":{"x":169989.37000000104,"y":2545569.0099999998}},{"attributes":{"ID":280719,"DIS_CODE":0,"TOWNNAME":"北區","LI":"長榮里","LIN":"6鄰","STREET":"長榮路","SECT":"五段","MAREA":" ","LANE":"４１巷","ALLEY":" ","HOUSE_NO":"２０號十二樓之１","E_COORD97":169989.37,"N_COORD97":2545569.0099999998,"ADDRESS":"長榮路五段４１巷２０號十二樓之１","OBJECTID":280713},"geometry":{"x":169989.37000000104,"y":2545569.0099999998}},{"attributes":{"ID":280720,"DIS_CODE":0,"TOWNNAME":"北區","LI":"長榮里","LIN":"6鄰","STREET":"長榮路","SECT":"五段","MAREA":" ","LANE":"４１巷","ALLEY":" ","HOUSE_NO":"２０號十二樓之２","E_COORD97":169989.37,"N_COORD97":2545569.0099999998,"ADDRESS":"長榮路五段４１巷２０號十二樓之２","OBJECTID":280714},"geometry":{"x":169989.37000000104,"y":2545569.0099999998}},{"attributes":{"ID":280721,"DIS_CODE":0,"TOWNNAME":"北區","LI":"長榮里","LIN":"6鄰","STREET":"長榮路","SECT":"五段","MAREA":" ","LANE":"４１巷","ALLEY":" ","HOUSE_NO":"２０號十二樓之３","E_COORD97":169989.37,"N_COORD97":2545569.0099999998,"ADDRESS":"長榮路五段４１巷２０號十二樓之３","OBJECTID":280715},"geometry":{"x":169989.37000000104,"y":2545569.0099999998}},{"attributes":{"ID":280722,"DIS_CODE":0,"TOWNNAME":"北區","LI":"長榮里","LIN":"6鄰","STREET":"長榮路","SECT":"五段","MAREA":" ","LANE":"４１巷","ALLEY":" ","HOUSE_NO":"２０號十二樓之５","E_COORD97":169989.37,"N_COORD97":2545569.0099999998,"ADDRESS":"長榮路五段４１巷２０號十二樓之５","OBJECTID":280716},"geometry":{"x":169989.37000000104,"y":2545569.0099999998}},{"attributes":{"ID":280723,"DIS_CODE":0,"TOWNNAME":"北區","LI":"長榮里","LIN":"6鄰","STREET":"長榮路","SECT":"五段","MAREA":" ","LANE":"４１巷","ALLEY":" ","HOUSE_NO":"２０號十三樓之１","E_COORD97":169989.37,"N_COORD97":2545569.0099999998,"ADDRESS":"長榮路五段４１巷２０號十三樓之１","OBJECTID":280717},"geometry":{"x":169989.37000000104,"y":2545569.0099999998}},{"attributes":{"ID":280724,"DIS_CODE":0,"TOWNNAME":"北區","LI":"長榮里","LIN":"6鄰","STREET":"長榮路","SECT":"五段","MAREA":" ","LANE":"４１巷","ALLEY":" ","HOUSE_NO":"２０號十三樓之２","E_COORD97":169989.37,"N_COORD97":2545569.0099999998,"ADDRESS":"長榮路五段４１巷２０號十三樓之２","OBJECTID":280718},"geometry":{"x":169989.37000000104,"y":2545569.0099999998}},{"attributes":{"ID":280725,"DIS_CODE":0,"TOWNNAME":"北區","LI":"長榮里","LIN":"6鄰","STREET":"長榮路","SECT":"五段","MAREA":" ","LANE":"４１巷","ALLEY":" ","HOUSE_NO":"２０號十三樓之３","E_COORD97":169989.37,"N_COORD97":2545569.0099999998,"ADDRESS":"長榮路五段４１巷２０號十三樓之３","OBJECTID":280719},"geometry":{"x":169989.37000000104,"y":2545569.0099999998}},{"attributes":{"ID":280726,"DIS_CODE":0,"TOWNNAME":"北區","LI":"長榮里","LIN":"6鄰","STREET":"長榮路","SECT":"五段","MAREA":" ","LANE":"４１巷","ALLEY":" ","HOUSE_NO":"２０號十三樓之５","E_COORD97":169989.37,"N_COORD97":2545569.0099999998,"ADDRESS":"長榮路五段４１巷２０號十三樓之５","OBJECTID":280720},"geometry":{"x":169989.37000000104,"y":2545569.0099999998}},{"attributes":{"ID":280727,"DIS_CODE":0,"TOWNNAME":"歸仁區","LI":"南保里","LIN":"6鄰","STREET":"文化街","SECT":"三段","MAREA":" ","LANE":"１８巷","ALLEY":" ","HOUSE_NO":"２號七樓之３","E_COORD97":176974.92000000001,"N_COORD97":2541278.3300000001,"ADDRESS":"文化街三段１８巷２號七樓之３","OBJECTID":280721},"geometry":{"x":176974.92000000086,"y":2541278.3300000001}},{"attributes":{"ID":280728,"DIS_CODE":0,"TOWNNAME":"歸仁區","LI":"南保里","LIN":"6鄰","STREET":"文化街","SECT":"三段","MAREA":" ","LANE":"１８巷","ALLEY":" ","HOUSE_NO":"２號三樓之７","E_COORD97":176974.89999999999,"N_COORD97":2541278.3300000001,"ADDRESS":"文化街三段１８巷２號三樓之７","OBJECTID":280722},"geometry":{"x":176974.90000000037,"y":2541278.3300000001}},{"attributes":{"ID":280729,"DIS_CODE":0,"TOWNNAME":"歸仁區","LI":"南保里","LIN":"6鄰","STREET":"文化街","SECT":"三段","MAREA":" ","LANE":"１８巷","ALLEY":" ","HOUSE_NO":"２號六樓之１","E_COORD97":176974.82999999999,"N_COORD97":2541278.3300000001,"ADDRESS":"文化街三段１８巷２號六樓之１","OBJECTID":280723},"geometry":{"x":176974.83000000007,"y":2541278.3300000001}},{"attributes":{"ID":280730,"DIS_CODE":0,"TOWNNAME":"歸仁區","LI":"南保里","LIN":"6鄰","STREET":"文化街","SECT":"三段","MAREA":" ","LANE":"１８巷","ALLEY":" ","HOUSE_NO":"２號四樓之６","E_COORD97":176974.92999999999,"N_COORD97":2541278.3300000001,"ADDRESS":"文化街三段１８巷２號四樓之６","OBJECTID":280724},"geometry":{"x":176974.93000000063,"y":2541278.3300000001}},{"attributes":{"ID":280731,"DIS_CODE":0,"TOWNNAME":"歸仁區","LI":"南保里","LIN":"6鄰","STREET":"文化街","SECT":"三段","MAREA":" ","LANE":"１８巷","ALLEY":" ","HOUSE_NO":"２號七樓之２","E_COORD97":176974.95999999999,"N_COORD97":2541278.3300000001,"ADDRESS":"文化街三段１８巷２號七樓之２","OBJECTID":280725},"geometry":{"x":176974.96000000089,"y":2541278.3300000001}},{"attributes":{"ID":280732,"DIS_CODE":0,"TOWNNAME":"歸仁區","LI":"南保里","LIN":"6鄰","STREET":"文化街","SECT":"三段","MAREA":" ","LANE":"１８巷","ALLEY":" ","HOUSE_NO":"２號四樓之４","E_COORD97":176974.85000000001,"N_COORD97":2541278.3300000001,"ADDRESS":"文化街三段１８巷２號四樓之４","OBJECTID":280726},"geometry":{"x":176974.85000000056,"y":2541278.3300000001}},{"attributes":{"ID":280733,"DIS_CODE":0,"TOWNNAME":"歸仁區","LI":"南保里","LIN":"6鄰","STREET":"文化街","SECT":"三段","MAREA":" ","LANE":"１８巷","ALLEY":" ","HOUSE_NO":"２號五樓之１","E_COORD97":176974.82999999999,"N_COORD97":2541278.3300000001,"ADDRESS":"文化街三段１８巷２號五樓之１","OBJECTID":280727},"geometry":{"x":176974.83000000007,"y":2541278.3300000001}},{"attributes":{"ID":280734,"DIS_CODE":0,"TOWNNAME":"歸仁區","LI":"南保里","LIN":"6鄰","STREET":"文化街","SECT":"三段","MAREA":" ","LANE":"１８巷","ALLEY":" ","HOUSE_NO":"２號二樓之６","E_COORD97":176974.92999999999,"N_COORD97":2541278.3300000001,"ADDRESS":"文化街三段１８巷２號二樓之６","OBJECTID":280728},"geometry":{"x":176974.93000000063,"y":2541278.3300000001}},{"attributes":{"ID":280735,"DIS_CODE":0,"TOWNNAME":"歸仁區","LI":"南保里","LIN":"6鄰","STREET":"文化街","SECT":"三段","MAREA":" ","LANE":"１８巷","ALLEY":" ","HOUSE_NO":"２號七樓之６","E_COORD97":176974.92999999999,"N_COORD97":2541278.3300000001,"ADDRESS":"文化街三段１８巷２號七樓之６","OBJECTID":280729},"geometry":{"x":176974.93000000063,"y":2541278.3300000001}},{"attributes":{"ID":280736,"DIS_CODE":0,"TOWNNAME":"歸仁區","LI":"南保里","LIN":"6鄰","STREET":"文化街","SECT":"三段","MAREA":" ","LANE":"１８巷","ALLEY":" ","HOUSE_NO":"２號三樓之１","E_COORD97":176974.82999999999,"N_COORD97":2541278.3300000001,"ADDRESS":"文化街三段１８巷２號三樓之１","OBJECTID":280730},"geometry":{"x":176974.83000000007,"y":2541278.3300000001}},{"attributes":{"ID":280737,"DIS_CODE":0,"TOWNNAME":"歸仁區","LI":"南保里","LIN":"6鄰","STREET":"文化街","SECT":"三段","MAREA":" ","LANE":"１８巷","ALLEY":" ","HOUSE_NO":"２號三樓之６","E_COORD97":176974.92999999999,"N_COORD97":2541278.3300000001,"ADDRESS":"文化街三段１８巷２號三樓之６","OBJECTID":280731},"geometry":{"x":176974.93000000063,"y":2541278.3300000001}},{"attributes":{"ID":280738,"DIS_CODE":0,"TOWNNAME":"歸仁區","LI":"南保里","LIN":"6鄰","STREET":"文化街","SECT":"三段","MAREA":" ","LANE":"１８巷","ALLEY":" ","HOUSE_NO":"２號五樓之６","E_COORD97":176974.92999999999,"N_COORD97":2541278.3300000001,"ADDRESS":"文化街三段１８巷２號五樓之６","OBJECTID":280732},"geometry":{"x":176974.93000000063,"y":2541278.3300000001}},{"attributes":{"ID":280739,"DIS_CODE":0,"TOWNNAME":"北區","LI":"文元里","LIN":"2鄰","STREET":"海安路","SECT":"三段","MAREA":" ","LANE":" ","ALLEY":" ","HOUSE_NO":"９６７號","E_COORD97":167953.07000000001,"N_COORD97":2546609.8100000001,"ADDRESS":"海安路三段９６７號","OBJECTID":280733},"geometry":{"x":167953.0700000003,"y":2546609.8100000042}},{"attributes":{"ID":280740,"DIS_CODE":0,"TOWNNAME":"北區","LI":"文元里","LIN":"2鄰","STREET":"海安路","SECT":"三段","MAREA":" ","LANE":" ","ALLEY":" ","HOUSE_NO":"９７３號","E_COORD97":167955.13,"N_COORD97":2546624.4100000001,"ADDRESS":"海安路三段９７３號","OBJECTID":280734},"geometry":{"x":167955.13000000082,"y":2546624.4100000001}},{"attributes":{"ID":280741,"DIS_CODE":0,"TOWNNAME":"永康區","LI":"永康里","LIN":"6鄰","STREET":"中山南路","SECT":" ","MAREA":" ","LANE":"６５３巷","ALLEY":" ","HOUSE_NO":"１６號","E_COORD97":173799.54000000001,"N_COORD97":2547478.5,"ADDRESS":"中山南路６５３巷１６號","OBJECTID":280735},"geometry":{"x":173799.54000000097,"y":2547478.5}},{"attributes":{"ID":280742,"DIS_CODE":0,"TOWNNAME":"永康區","LI":"永康里","LIN":"6鄰","STREET":"中山南路","SECT":" ","MAREA":" ","LANE":"６５３巷","ALLEY":" ","HOUSE_NO":"３１號","E_COORD97":173793.06,"N_COORD97":2547437.48,"ADDRESS":"中山南路６５３巷３１號","OBJECTID":280736},"geometry":{"x":173793.06000000145,"y":2547437.4800000004}},{"attributes":{"ID":280743,"DIS_CODE":0,"TOWNNAME":"永康區","LI":"正強里","LIN":"6鄰","STREET":"自強路","SECT":" ","MAREA":" ","LANE":"３３０巷","ALLEY":" ","HOUSE_NO":"１號","E_COORD97":173423.07999999999,"N_COORD97":2547688.25,"ADDRESS":"自強路３３０巷１號","OBJECTID":280737},"geometry":{"x":173423.08000000007,"y":2547688.2500000019}},{"attributes":{"ID":280744,"DIS_CODE":0,"TOWNNAME":"永康區","LI":"北灣里","LIN":"6鄰","STREET":"大灣路","SECT":" ","MAREA":" ","LANE":"１１９巷","ALLEY":" ","HOUSE_NO":"１５號","E_COORD97":175171.37,"N_COORD97":2545526.02,"ADDRESS":"大灣路１１９巷１５號","OBJECTID":280738},"geometry":{"x":175171.37000000197,"y":2545526.0200000014}},{"attributes":{"ID":280745,"DIS_CODE":0,"TOWNNAME":"新營區","LI":"王公里","LIN":"15鄰","STREET":"大勇街","SECT":" ","MAREA":" ","LANE":" ","ALLEY":" ","HOUSE_NO":"６０號","E_COORD97":180322.27366400001,"N_COORD97":2579430.30479,"ADDRESS":"大勇街６０號","OBJECTID":280739},"geometry":{"x":180322.27366400138,"y":2579430.3047930021}},{"attributes":{"ID":280746,"DIS_CODE":0,"TOWNNAME":"永康區","LI":"北灣里","LIN":"6鄰","STREET":"信義街","SECT":" ","MAREA":" ","LANE":"１２９巷","ALLEY":" ","HOUSE_NO":"２０號","E_COORD97":175159.70999999999,"N_COORD97":2545544.0299999998,"ADDRESS":"信義街１２９巷２０號","OBJECTID":280740},"geometry":{"x":175159.70999999996,"y":2545544.0299999993}},{"attributes":{"ID":280747,"DIS_CODE":0,"TOWNNAME":"永康區","LI":"永康里","LIN":"6鄰","STREET":"中山南路","SECT":" ","MAREA":" ","LANE":"１１１６巷","ALLEY":" ","HOUSE_NO":"８號","E_COORD97":173876.87,"N_COORD97":2547297.3700000001,"ADDRESS":"中山南路１１１６巷８號","OBJECTID":280741},"geometry":{"x":173876.87000000104,"y":2547297.370000001}},{"attributes":{"ID":280748,"DIS_CODE":0,"TOWNNAME":"安南區","LI":"原佃里","LIN":"6鄰","STREET":"本原街","SECT":"一段","MAREA":" ","LANE":"１９５巷","ALLEY":" ","HOUSE_NO":"８８號","E_COORD97":167575.95000000001,"N_COORD97":2550163.0299999998,"ADDRESS":"本原街一段１９５巷８８號","OBJECTID":280742},"geometry":{"x":167575.95000000019,"y":2550163.0299999993}},{"attributes":{"ID":280749,"DIS_CODE":0,"TOWNNAME":"安南區","LI":"總頭里","LIN":"6鄰","STREET":"長溪路","SECT":"二段","MAREA":" ","LANE":"５７０巷","ALLEY":" ","HOUSE_NO":"３５號","E_COORD97":168351.25,"N_COORD97":2550603.3999999999,"ADDRESS":"長溪路二段５７０巷３５號","OBJECTID":280743},"geometry":{"x":168351.25000000093,"y":2550603.4000000022}},{"attributes":{"ID":280750,"DIS_CODE":0,"TOWNNAME":"安南區","LI":"總頭里","LIN":"6鄰","STREET":"長溪路","SECT":"二段","MAREA":" ","LANE":"５７０巷","ALLEY":" ","HOUSE_NO":"４５號","E_COORD97":168381.19,"N_COORD97":2550602.7599999998,"ADDRESS":"長溪路二段５７０巷４５號","OBJECTID":280744},"geometry":{"x":168381.19000000041,"y":2550602.7599999979}},{"attributes":{"ID":280751,"DIS_CODE":0,"TOWNNAME":"安南區","LI":"總頭里","LIN":"6鄰","STREET":"長溪路","SECT":"二段","MAREA":" ","LANE":"５７０巷","ALLEY":" ","HOUSE_NO":"４７號","E_COORD97":168385.64999999999,"N_COORD97":2550602.4399999999,"ADDRESS":"長溪路二段５７０巷４７號","OBJECTID":280745},"geometry":{"x":168385.65000000224,"y":2550602.4400000013}},{"attributes":{"ID":280752,"DIS_CODE":0,"TOWNNAME":"安南區","LI":"總頭里","LIN":"6鄰","STREET":"長溪路","SECT":"二段","MAREA":" ","LANE":"５７０巷","ALLEY":" ","HOUSE_NO":"４９號","E_COORD97":168390.10999999999,"N_COORD97":2550601.4900000002,"ADDRESS":"長溪路二段５７０巷４９號","OBJECTID":280746},"geometry":{"x":168390.11000000034,"y":2550601.4900000002}},{"attributes":{"ID":280753,"DIS_CODE":0,"TOWNNAME":"安南區","LI":"安西里","LIN":"6鄰","STREET":"安中路","SECT":"一段","MAREA":" ","LANE":"２９巷","ALLEY":" ","HOUSE_NO":"２２４號","E_COORD97":168956.890923,"N_COORD97":2548159.9638899998,"ADDRESS":"安中路一段２９巷２２４號","OBJECTID":280747},"geometry":{"x":168956.8909230018,"y":2548159.963893}},{"attributes":{"ID":280754,"DIS_CODE":0,"TOWNNAME":"安南區","LI":"安西里","LIN":"6鄰","STREET":"安中路","SECT":"一段","MAREA":" ","LANE":"２９巷","ALLEY":" ","HOUSE_NO":"２２６號","E_COORD97":168953.28734400001,"N_COORD97":2548159.5405600001,"ADDRESS":"安中路一段２９巷２２６號","OBJECTID":280748},"geometry":{"x":168953.28734400123,"y":2548159.5405600015}},{"attributes":{"ID":280755,"DIS_CODE":0,"TOWNNAME":"安南區","LI":"佃東里","LIN":"6鄰","STREET":"公學路","SECT":"四段","MAREA":" ","LANE":"１２２巷","ALLEY":" ","HOUSE_NO":"１００號","E_COORD97":165595.16,"N_COORD97":2552324.1400000001,"ADDRESS":"公學路四段１２２巷１００號","OBJECTID":280749},"geometry":{"x":165595.16000000108,"y":2552324.1400000025}},{"attributes":{"ID":280756,"DIS_CODE":0,"TOWNNAME":"安南區","LI":"佃東里","LIN":"6鄰","STREET":"公學路","SECT":"四段","MAREA":" ","LANE":"１２２巷","ALLEY":" ","HOUSE_NO":"１０２號","E_COORD97":165595.32999999999,"N_COORD97":2552328.77,"ADDRESS":"公學路四段１２２巷１０２號","OBJECTID":280750},"geometry":{"x":165595.33000000007,"y":2552328.7700000014}},{"attributes":{"ID":280757,"DIS_CODE":0,"TOWNNAME":"安南區","LI":"佃東里","LIN":"6鄰","STREET":"公學路","SECT":"四段","MAREA":" ","LANE":"１２２巷","ALLEY":" ","HOUSE_NO":"１０４號","E_COORD97":165595.16,"N_COORD97":2552333.5800000001,"ADDRESS":"公學路四段１２２巷１０４號","OBJECTID":280751},"geometry":{"x":165595.16000000108,"y":2552333.5800000038}},{"attributes":{"ID":280758,"DIS_CODE":0,"TOWNNAME":"安南區","LI":"佃東里","LIN":"6鄰","STREET":"公學路","SECT":"四段","MAREA":" ","LANE":"１２２巷","ALLEY":" ","HOUSE_NO":"１０６號","E_COORD97":165593.91,"N_COORD97":2552337.8599999999,"ADDRESS":"公學路四段１２２巷１０６號","OBJECTID":280752},"geometry":{"x":165593.91000000108,"y":2552337.8600000031}},{"attributes":{"ID":280759,"DIS_CODE":0,"TOWNNAME":"安南區","LI":"佃東里","LIN":"6鄰","STREET":"公學路","SECT":"四段","MAREA":" ","LANE":"１２２巷","ALLEY":" ","HOUSE_NO":"１０８號","E_COORD97":165594.44,"N_COORD97":2552343.0299999998,"ADDRESS":"公學路四段１２２巷１０８號","OBJECTID":280753},"geometry":{"x":165594.44000000041,"y":2552343.0299999993}},{"attributes":{"ID":280760,"DIS_CODE":0,"TOWNNAME":"安南區","LI":"佃東里","LIN":"6鄰","STREET":"公學路","SECT":"四段","MAREA":" ","LANE":"１２２巷","ALLEY":" ","HOUSE_NO":"９８號","E_COORD97":165596.41,"N_COORD97":2552318.79,"ADDRESS":"公學路四段１２２巷９８號","OBJECTID":280754},"geometry":{"x":165596.41000000015,"y":2552318.790000001}},{"attributes":{"ID":280761,"DIS_CODE":0,"TOWNNAME":"安南區","LI":"溪心里","LIN":"6鄰","STREET":"本原街","SECT":"二段","MAREA":" ","LANE":"１１６巷","ALLEY":" ","HOUSE_NO":"３３號","E_COORD97":166738.85999999999,"N_COORD97":2550888.8999999999,"ADDRESS":"本原街二段１１６巷３３號","OBJECTID":280755},"geometry":{"x":166738.86000000127,"y":2550888.9000000022}},{"attributes":{"ID":280762,"DIS_CODE":0,"TOWNNAME":"安南區","LI":"溪心里","LIN":"6鄰","STREET":"本原街","SECT":"二段","MAREA":" ","LANE":"１１６巷","ALLEY":" ","HOUSE_NO":"３５號","E_COORD97":166737.13,"N_COORD97":2550894.1899999999,"ADDRESS":"本原街二段１１６巷３５號","OBJECTID":280756},"geometry":{"x":166737.12999999989,"y":2550894.1899999995}},{"attributes":{"ID":280763,"DIS_CODE":0,"TOWNNAME":"安南區","LI":"淵中里","LIN":"6鄰","STREET":"安中路","SECT":"四段","MAREA":" ","LANE":"１２９巷","ALLEY":" ","HOUSE_NO":"２號","E_COORD97":164961.41,"N_COORD97":2549979.4300000002,"ADDRESS":"安中路四段１２９巷２號","OBJECTID":280757},"geometry":{"x":164961.41000000108,"y":2549979.4300000016}},{"attributes":{"ID":280764,"DIS_CODE":0,"TOWNNAME":"安南區","LI":"淵中里","LIN":"6鄰","STREET":"安中路","SECT":"四段","MAREA":" ","LANE":"１２９巷","ALLEY":" ","HOUSE_NO":"６號","E_COORD97":164958.45000000001,"N_COORD97":2549971.2599999998,"ADDRESS":"安中路四段１２９巷６號","OBJECTID":280758},"geometry":{"x":164958.45000000019,"y":2549971.2599999998}},{"attributes":{"ID":280765,"DIS_CODE":0,"TOWNNAME":"安南區","LI":"淵中里","LIN":"6鄰","STREET":"安中路","SECT":"四段","MAREA":" ","LANE":"１２９巷","ALLEY":" ","HOUSE_NO":"８號","E_COORD97":164958.81,"N_COORD97":2549965.7000000002,"ADDRESS":"安中路四段１２９巷８號","OBJECTID":280759},"geometry":{"x":164958.80999999959,"y":2549965.700000003}},{"attributes":{"ID":280766,"DIS_CODE":0,"TOWNNAME":"安南區","LI":"淵中里","LIN":"6鄰","STREET":"安中路","SECT":"四段","MAREA":" ","LANE":"１２９巷","ALLEY":" ","HOUSE_NO":"４號","E_COORD97":164960.07000000001,"N_COORD97":2549976.1099999999,"ADDRESS":"安中路四段１２９巷４號","OBJECTID":280760},"geometry":{"x":164960.07000000216,"y":2549976.1099999975}},{"attributes":{"ID":280767,"DIS_CODE":0,"TOWNNAME":"安南區","LI":"城北里","LIN":"6鄰","STREET":"安中路","SECT":"六段","MAREA":" ","LANE":"５００巷","ALLEY":" ","HOUSE_NO":"４０號","E_COORD97":161071.17999999999,"N_COORD97":2551448.0699999998,"ADDRESS":"安中路六段５００巷４０號","OBJECTID":280761},"geometry":{"x":161071.1799999997,"y":2551448.0700000003}},{"attributes":{"ID":280768,"DIS_CODE":0,"TOWNNAME":"安南區","LI":"城北里","LIN":"6鄰","STREET":"安中路","SECT":"六段","MAREA":" ","LANE":"５００巷","ALLEY":" ","HOUSE_NO":"４２號","E_COORD97":161076.76000000001,"N_COORD97":2551449.1299999999,"ADDRESS":"安中路六段５００巷４２號","OBJECTID":280762},"geometry":{"x":161076.76000000071,"y":2551449.129999999}},{"attributes":{"ID":280769,"DIS_CODE":0,"TOWNNAME":"安南區","LI":"原佃里","LIN":"6鄰","STREET":"本原街","SECT":"一段","MAREA":" ","LANE":"１９５巷","ALLEY":" ","HOUSE_NO":"６６號","E_COORD97":167627.07999999999,"N_COORD97":2550169.27,"ADDRESS":"本原街一段１９５巷６６號","OBJECTID":280763},"geometry":{"x":167627.08000000101,"y":2550169.2700000014}},{"attributes":{"ID":280770,"DIS_CODE":0,"TOWNNAME":"安南區","LI":"原佃里","LIN":"6鄰","STREET":"本原街","SECT":"一段","MAREA":" ","LANE":"１９５巷","ALLEY":" ","HOUSE_NO":"６４號","E_COORD97":167631.14999999999,"N_COORD97":2550169.9100000001,"ADDRESS":"本原街一段１９５巷６４號","OBJECTID":280764},"geometry":{"x":167631.14999999944,"y":2550169.910000002}},{"attributes":{"ID":280771,"DIS_CODE":0,"TOWNNAME":"安南區","LI":"原佃里","LIN":"6鄰","STREET":"本原街","SECT":"一段","MAREA":" ","LANE":"１９５巷","ALLEY":" ","HOUSE_NO":"６８號","E_COORD97":167623.35000000001,"N_COORD97":2550167.71,"ADDRESS":"本原街一段１９５巷６８號","OBJECTID":280765},"geometry":{"x":167623.34999999963,"y":2550167.7100000028}},{"attributes":{"ID":280772,"DIS_CODE":0,"TOWNNAME":"安南區","LI":"原佃里","LIN":"6鄰","STREET":"本原街","SECT":"一段","MAREA":" ","LANE":"１９５巷","ALLEY":" ","HOUSE_NO":"７０號","E_COORD97":167619.20999999999,"N_COORD97":2550166.8799999999,"ADDRESS":"本原街一段１９５巷７０號","OBJECTID":280766},"geometry":{"x":167619.21000000089,"y":2550166.879999999}},{"attributes":{"ID":280773,"DIS_CODE":0,"TOWNNAME":"安南區","LI":"原佃里","LIN":"6鄰","STREET":"本原街","SECT":"一段","MAREA":" ","LANE":"１９５巷","ALLEY":" ","HOUSE_NO":"７２號","E_COORD97":167615.35999999999,"N_COORD97":2550166.6099999999,"ADDRESS":"本原街一段１９５巷７２號","OBJECTID":280767},"geometry":{"x":167615.36000000034,"y":2550166.6100000013}},{"attributes":{"ID":280774,"DIS_CODE":0,"TOWNNAME":"安南區","LI":"原佃里","LIN":"6鄰","STREET":"本原街","SECT":"一段","MAREA":" ","LANE":"１９５巷","ALLEY":" ","HOUSE_NO":"７４號","E_COORD97":167610.67000000001,"N_COORD97":2550166.6099999999,"ADDRESS":"本原街一段１９５巷７４號","OBJECTID":280768},"geometry":{"x":167610.67000000086,"y":2550166.6100000013}},{"attributes":{"ID":280775,"DIS_CODE":0,"TOWNNAME":"安南區","LI":"原佃里","LIN":"6鄰","STREET":"本原街","SECT":"一段","MAREA":" ","LANE":"１９５巷","ALLEY":" ","HOUSE_NO":"７６號","E_COORD97":167607.09,"N_COORD97":2550166.3300000001,"ADDRESS":"本原街一段１９５巷７６號","OBJECTID":280769},"geometry":{"x":167607.08999999985,"y":2550166.3300000019}},{"attributes":{"ID":280776,"DIS_CODE":0,"TOWNNAME":"歸仁區","LI":"沙崙里","LIN":"2鄰","STREET":" ","SECT":" ","MAREA":"二甲","LANE":" ","ALLEY":" ","HOUSE_NO":"７１號","E_COORD97":178368.17999999999,"N_COORD97":2539300.8900000001,"ADDRESS":"二甲７１號","OBJECTID":280770},"geometry":{"x":178368.18000000063,"y":2539300.8900000025}},{"attributes":{"ID":280777,"DIS_CODE":0,"TOWNNAME":"安南區","LI":"原佃里","LIN":"6鄰","STREET":"本原街","SECT":"一段","MAREA":" ","LANE":"１９５巷","ALLEY":" ","HOUSE_NO":"７８號","E_COORD97":167603.78,"N_COORD97":2550166.0600000001,"ADDRESS":"本原街一段１９５巷７８號","OBJECTID":280771},"geometry":{"x":167603.78000000119,"y":2550166.0600000024}},{"attributes":{"ID":280778,"DIS_CODE":0,"TOWNNAME":"安南區","LI":"原佃里","LIN":"6鄰","STREET":"本原街","SECT":"一段","MAREA":" ","LANE":"１９５巷","ALLEY":" ","HOUSE_NO":"８４號","E_COORD97":167584.22,"N_COORD97":2550163.2999999998,"ADDRESS":"本原街一段１９５巷８４號","OBJECTID":280772},"geometry":{"x":167584.21999999881,"y":2550163.3000000026}},{"attributes":{"ID":280779,"DIS_CODE":0,"TOWNNAME":"安南區","LI":"原佃里","LIN":"6鄰","STREET":"本原街","SECT":"一段","MAREA":" ","LANE":"１９５巷","ALLEY":" ","HOUSE_NO":"８２號","E_COORD97":167588.63,"N_COORD97":2550163.2999999998,"ADDRESS":"本原街一段１９５巷８２號","OBJECTID":280773},"geometry":{"x":167588.63000000082,"y":2550163.3000000026}},{"attributes":{"ID":280780,"DIS_CODE":0,"TOWNNAME":"安南區","LI":"原佃里","LIN":"6鄰","STREET":"本原街","SECT":"一段","MAREA":" ","LANE":"１９５巷","ALLEY":" ","HOUSE_NO":"８６號","E_COORD97":167580.35999999999,"N_COORD97":2550163.2999999998,"ADDRESS":"本原街一段１９５巷８６號","OBJECTID":280774},"geometry":{"x":167580.36000000034,"y":2550163.3000000026}},{"attributes":{"ID":280781,"DIS_CODE":0,"TOWNNAME":"安南區","LI":"原佃里","LIN":"6鄰","STREET":"本原街","SECT":"一段","MAREA":" ","LANE":"１９５巷","ALLEY":" ","HOUSE_NO":"４０號","E_COORD97":167706.14999999999,"N_COORD97":2550174.3999999999,"ADDRESS":"本原街一段１９５巷４０號","OBJECTID":280775},"geometry":{"x":167706.1500000013,"y":2550174.4000000004}},{"attributes":{"ID":280782,"DIS_CODE":0,"TOWNNAME":"安南區","LI":"原佃里","LIN":"6鄰","STREET":"本原街","SECT":"一段","MAREA":" ","LANE":"１９５巷","ALLEY":" ","HOUSE_NO":"４２號","E_COORD97":167701.01000000001,"N_COORD97":2550173.3300000001,"ADDRESS":"本原街一段１９５巷４２號","OBJECTID":280776},"geometry":{"x":167701.01000000164,"y":2550173.3300000019}},{"attributes":{"ID":280783,"DIS_CODE":0,"TOWNNAME":"安南區","LI":"原佃里","LIN":"6鄰","STREET":"本原街","SECT":"一段","MAREA":" ","LANE":"１９５巷","ALLEY":" ","HOUSE_NO":"４６號","E_COORD97":167691.39000000001,"N_COORD97":2550172.6899999999,"ADDRESS":"本原街一段１９５巷４６號","OBJECTID":280777},"geometry":{"x":167691.38999999966,"y":2550172.6900000032}},{"attributes":{"ID":280784,"DIS_CODE":0,"TOWNNAME":"安南區","LI":"原佃里","LIN":"6鄰","STREET":"本原街","SECT":"一段","MAREA":" ","LANE":"１９５巷","ALLEY":" ","HOUSE_NO":"４８號","E_COORD97":167686.37,"N_COORD97":2550172.2599999998,"ADDRESS":"本原街一段１９５巷４８號","OBJECTID":280778},"geometry":{"x":167686.37000000011,"y":2550172.2600000035}},{"attributes":{"ID":280785,"DIS_CODE":0,"TOWNNAME":"安南區","LI":"原佃里","LIN":"6鄰","STREET":"本原街","SECT":"一段","MAREA":" ","LANE":"１９５巷","ALLEY":" ","HOUSE_NO":"５０號","E_COORD97":167681.87,"N_COORD97":2550171.9399999999,"ADDRESS":"本原街一段１９５巷５０號","OBJECTID":280779},"geometry":{"x":167681.87000000011,"y":2550171.9400000013}},{"attributes":{"ID":280786,"DIS_CODE":0,"TOWNNAME":"安南區","LI":"原佃里","LIN":"6鄰","STREET":"本原街","SECT":"一段","MAREA":" ","LANE":"１９５巷","ALLEY":" ","HOUSE_NO":"５２號","E_COORD97":167677.17000000001,"N_COORD97":2550171.5099999998,"ADDRESS":"本原街一段１９５巷５２號","OBJECTID":280780},"geometry":{"x":167677.17000000086,"y":2550171.5100000016}},{"attributes":{"ID":280787,"DIS_CODE":0,"TOWNNAME":"中西區","LI":"赤嵌里","LIN":"12鄰","STREET":"觀亭街","SECT":" ","MAREA":" ","LANE":" ","ALLEY":" ","HOUSE_NO":"４１號","E_COORD97":168547.39000000001,"N_COORD97":2544191.1899999999,"ADDRESS":"觀亭街４１號","OBJECTID":280781},"geometry":{"x":168547.38999999966,"y":2544191.1899999995}},{"attributes":{"ID":280788,"DIS_CODE":0,"TOWNNAME":"北區","LI":"賢北里","LIN":"2鄰","STREET":"賢北街","SECT":" ","MAREA":" ","LANE":" ","ALLEY":" ","HOUSE_NO":"３８號","E_COORD97":166329.67000000001,"N_COORD97":2545312.6000000001,"ADDRESS":"賢北街３８號","OBJECTID":280782},"geometry":{"x":166329.66999999993,"y":2545312.6000000015}},{"attributes":{"ID":280789,"DIS_CODE":0,"TOWNNAME":"北區","LI":"振興里","LIN":"2鄰","STREET":"勝利路","SECT":" ","MAREA":" ","LANE":" ","ALLEY":" ","HOUSE_NO":"２６８號","E_COORD97":169938.07999999999,"N_COORD97":2545124.4500000002,"ADDRESS":"勝利路２６８號","OBJECTID":280783},"geometry":{"x":169938.08000000007,"y":2545124.4499999993}},{"attributes":{"ID":280790,"DIS_CODE":0,"TOWNNAME":"北區","LI":"振興里","LIN":"2鄰","STREET":"勝利路","SECT":" ","MAREA":" ","LANE":" ","ALLEY":" ","HOUSE_NO":"２７０號","E_COORD97":169933.95000000001,"N_COORD97":2545132.1499999999,"ADDRESS":"勝利路２７０號","OBJECTID":280784},"geometry":{"x":169933.95000000019,"y":2545132.1500000041}},{"attributes":{"ID":280791,"DIS_CODE":0,"TOWNNAME":"安南區","LI":"原佃里","LIN":"6鄰","STREET":"本原街","SECT":"一段","MAREA":" ","LANE":"１９５巷","ALLEY":" ","HOUSE_NO":"５４號","E_COORD97":167672.14999999999,"N_COORD97":2550171.1899999999,"ADDRESS":"本原街一段１９５巷５４號","OBJECTID":280785},"geometry":{"x":167672.1500000013,"y":2550171.1899999995}},{"attributes":{"ID":280792,"DIS_CODE":0,"TOWNNAME":"安南區","LI":"原佃里","LIN":"6鄰","STREET":"本原街","SECT":"一段","MAREA":" ","LANE":"１９５巷","ALLEY":" ","HOUSE_NO":"５６號","E_COORD97":167667.44,"N_COORD97":2550170.7599999998,"ADDRESS":"本原街一段１９５巷５６號","OBJECTID":280786},"geometry":{"x":167667.44000000134,"y":2550170.7599999998}},{"attributes":{"ID":280793,"DIS_CODE":0,"TOWNNAME":"安南區","LI":"原佃里","LIN":"6鄰","STREET":"本原街","SECT":"一段","MAREA":" ","LANE":"１９５巷","ALLEY":" ","HOUSE_NO":"５８號","E_COORD97":167662.63,"N_COORD97":2550169.9100000001,"ADDRESS":"本原街一段１９５巷５８號","OBJECTID":280787},"geometry":{"x":167662.62999999989,"y":2550169.910000002}},{"attributes":{"ID":280794,"DIS_CODE":0,"TOWNNAME":"麻豆區","LI":"埤頭里","LIN":"2鄰","STREET":" ","SECT":" ","MAREA":"埤頭","LANE":" ","ALLEY":" ","HOUSE_NO":"２１號","E_COORD97":170740.07000000001,"N_COORD97":2565695.52,"ADDRESS":"埤頭２１號","OBJECTID":280788},"geometry":{"x":170740.0700000003,"y":2565695.5200000014}},{"attributes":{"ID":280795,"DIS_CODE":0,"TOWNNAME":"安南區","LI":"溪心里","LIN":"6鄰","STREET":"本原街","SECT":"二段","MAREA":" ","LANE":"１１６巷","ALLEY":" ","HOUSE_NO":"８１號","E_COORD97":166791.06,"N_COORD97":2551004.4500000002,"ADDRESS":"本原街二段１１６巷８１號","OBJECTID":280789},"geometry":{"x":166791.05999999959,"y":2551004.4499999974}},{"attributes":{"ID":280796,"DIS_CODE":0,"TOWNNAME":"安南區","LI":"溪心里","LIN":"6鄰","STREET":"本原街","SECT":"二段","MAREA":" ","LANE":"１１６巷","ALLEY":" ","HOUSE_NO":"８３號","E_COORD97":166788.26999999999,"N_COORD97":2551013.0099999998,"ADDRESS":"本原街二段１１６巷８３號","OBJECTID":280790},"geometry":{"x":166788.26999999955,"y":2551013.0100000016}},{"attributes":{"ID":280797,"DIS_CODE":0,"TOWNNAME":"東區","LI":"崇成里","LIN":"6鄰","STREET":"崇德十二街","SECT":" ","MAREA":" ","LANE":"７６巷","ALLEY":" ","HOUSE_NO":"５號","E_COORD97":171015.66,"N_COORD97":2541336.2599999998,"ADDRESS":"崇德十二街７６巷５號","OBJECTID":280791},"geometry":{"x":171015.66000000015,"y":2541336.2599999998}},{"attributes":{"ID":280798,"DIS_CODE":0,"TOWNNAME":"東區","LI":"崇成里","LIN":"6鄰","STREET":"崇德十二街","SECT":" ","MAREA":" ","LANE":"７６巷","ALLEY":" ","HOUSE_NO":"７號","E_COORD97":171017.62,"N_COORD97":2541332.3300000001,"ADDRESS":"崇德十二街７６巷７號","OBJECTID":280792},"geometry":{"x":171017.62000000011,"y":2541332.3300000001}},{"attributes":{"ID":280799,"DIS_CODE":0,"TOWNNAME":"下營區","LI":"仁里里","LIN":"6鄰","STREET":"仁里街","SECT":" ","MAREA":" ","LANE":"１００巷","ALLEY":" ","HOUSE_NO":"６號","E_COORD97":174229.64999999999,"N_COORD97":2570076.4399999999,"ADDRESS":"仁里街１００巷６號","OBJECTID":280793},"geometry":{"x":174229.6500000013,"y":2570076.4400000013}},{"attributes":{"ID":280800,"DIS_CODE":0,"TOWNNAME":"下營區","LI":"仁里里","LIN":"6鄰","STREET":"仁里街","SECT":" ","MAREA":" ","LANE":"１００巷","ALLEY":" ","HOUSE_NO":"８號","E_COORD97":174224.94,"N_COORD97":2570052.0299999998,"ADDRESS":"仁里街１００巷８號","OBJECTID":280794},"geometry":{"x":174224.94000000041,"y":2570052.0300000012}},{"attributes":{"ID":280801,"DIS_CODE":0,"TOWNNAME":"下營區","LI":"仁里里","LIN":"6鄰","STREET":"仁里街","SECT":" ","MAREA":" ","LANE":"１２２巷","ALLEY":" ","HOUSE_NO":"１０號","E_COORD97":174128.37,"N_COORD97":2570013.5699999998,"ADDRESS":"仁里街１２２巷１０號","OBJECTID":280795},"geometry":{"x":174128.37000000011,"y":2570013.5700000003}},{"attributes":{"ID":280802,"DIS_CODE":0,"TOWNNAME":"下營區","LI":"仁里里","LIN":"6鄰","STREET":"仁里街","SECT":" ","MAREA":" ","LANE":"１２２巷","ALLEY":" ","HOUSE_NO":"１２號","E_COORD97":174117.29999999999,"N_COORD97":2570007.54,"ADDRESS":"仁里街１２２巷１２號","OBJECTID":280796},"geometry":{"x":174117.30000000075,"y":2570007.540000001}},{"attributes":{"ID":280803,"DIS_CODE":0,"TOWNNAME":"北區","LI":"振興里","LIN":"2鄰","STREET":"勝利路","SECT":" ","MAREA":" ","LANE":" ","ALLEY":" ","HOUSE_NO":"２７２號","E_COORD97":169929.98000000001,"N_COORD97":2545140.0899999999,"ADDRESS":"勝利路２７２號","OBJECTID":280797},"geometry":{"x":169929.98000000138,"y":2545140.0900000017}},{"attributes":{"ID":280804,"DIS_CODE":0,"TOWNNAME":"東山區","LI":"東中里","LIN":"2鄰","STREET":"中興路","SECT":" ","MAREA":" ","LANE":" ","ALLEY":" ","HOUSE_NO":"２９號","E_COORD97":188966.67999999999,"N_COORD97":2580142.4199999999,"ADDRESS":"中興路２９號","OBJECTID":280798},"geometry":{"x":188966.68000000063,"y":2580142.4200000037}},{"attributes":{"ID":280805,"DIS_CODE":0,"TOWNNAME":"中西區","LI":"仙草里","LIN":" ","STREET":"府緯街","SECT":" ","MAREA":" ","LANE":" ","ALLEY":" ","HOUSE_NO":"１６號","E_COORD97":167921.84,"N_COORD97":2542733.2000000002,"ADDRESS":"府緯街１６號","OBJECTID":280799},"geometry":{"x":167921.83999999985,"y":2542733.1999999993}},{"attributes":{"ID":280806,"DIS_CODE":0,"TOWNNAME":"中西區","LI":"仙草里","LIN":" ","STREET":"府緯街","SECT":" ","MAREA":" ","LANE":" ","ALLEY":" ","HOUSE_NO":"６５號","E_COORD97":167767.42999999999,"N_COORD97":2542712.96,"ADDRESS":"府緯街６５號","OBJECTID":280800},"geometry":{"x":167767.4299999997,"y":2542712.9600000009}}]}