{"displayFieldName":"TOWNNAME","fieldAliases":{"ID":"ID","DIS_CODE":"DIS_CODE","TOWNNAME":"TOWNNAME","LI":"LI","LIN":"LIN","STREET":"STREET","SECT":"SECT","MAREA":"MAREA","LANE":"LANE","ALLEY":"ALLEY","HOUSE_NO":"HOUSE_NO","E_COORD97":"E_COORD97","N_COORD97":"N_COORD97","ADDRESS":"ADDRESS","OBJECTID":"OBJECTID"},"geometryType":"esriGeometryPoint","spatialReference":{"wkid":102443,"latestWkid":3826},"fields":[{"name":"ID","type":"esriFieldTypeDouble","alias":"ID"},{"name":"DIS_CODE","type":"esriFieldTypeInteger","alias":"DIS_CODE"},{"name":"TOWNNAME","type":"esriFieldTypeString","alias":"TOWNNAME","length":8},{"name":"LI","type":"esriFieldTypeString","alias":"LI","length":8},{"name":"LIN","type":"esriFieldTypeString","alias":"LIN","length":12},{"name":"STREET","type":"esriFieldTypeString","alias":"STREET","length":20},{"name":"SECT","type":"esriFieldTypeString","alias":"SECT","length":8},{"name":"MAREA","type":"esriFieldTypeString","alias":"MAREA","length":12},{"name":"LANE","type":"esriFieldTypeString","alias":"LANE","length":10},{"name":"ALLEY","type":"esriFieldTypeString","alias":"ALLEY","length":10},{"name":"HOUSE_NO","type":"esriFieldTypeString","alias":"HOUSE_NO","length":20},{"name":"E_COORD97","type":"esriFieldTypeDouble","alias":"E_COORD97"},{"name":"N_COORD97","type":"esriFieldTypeDouble","alias":"N_COORD97"},{"name":"ADDRESS","type":"esriFieldTypeString","alias":"ADDRESS","length":50},{"name":"OBJECTID","type":"esriFieldTypeOID","alias":"OBJECTID"}],"features":[{"attributes":{"ID":249805,"DIS_CODE":0,"TOWNNAME":"永康區","LI":"復國里","LIN":"5鄰","STREET":"復國一路","SECT":" ","MAREA":" ","LANE":"９０巷","ALLEY":" ","HOUSE_NO":"６號","E_COORD97":172742.95000000001,"N_COORD97":2544921.27,"ADDRESS":"復國一路９０巷６號","OBJECTID":249801},"geometry":{"x":172742.95000000019,"y":2544921.2700000014}},{"attributes":{"ID":249806,"DIS_CODE":0,"TOWNNAME":"永康區","LI":"復國里","LIN":"5鄰","STREET":"復國一路","SECT":" ","MAREA":" ","LANE":"９０巷","ALLEY":" ","HOUSE_NO":"２６號","E_COORD97":172767.26000000001,"N_COORD97":2544923.52,"ADDRESS":"復國一路９０巷２６號","OBJECTID":249802},"geometry":{"x":172767.25999999978,"y":2544923.5200000014}},{"attributes":{"ID":249807,"DIS_CODE":0,"TOWNNAME":"永康區","LI":"復華里","LIN":"24鄰","STREET":"復華八街","SECT":" ","MAREA":" ","LANE":"５８巷","ALLEY":" ","HOUSE_NO":"１號","E_COORD97":172771.17000000001,"N_COORD97":2546311.3500000001,"ADDRESS":"復華八街５８巷１號","OBJECTID":249803},"geometry":{"x":172771.17000000086,"y":2546311.3500000015}},{"attributes":{"ID":249808,"DIS_CODE":0,"TOWNNAME":"七股區","LI":"七股里","LIN":"11鄰","STREET":" ","SECT":" ","MAREA":"七股","LANE":" ","ALLEY":" ","HOUSE_NO":"９８號","E_COORD97":160575.35999999999,"N_COORD97":2559447.3100000001,"ADDRESS":"七股９８號","OBJECTID":249804},"geometry":{"x":160575.36000000034,"y":2559447.3100000005}},{"attributes":{"ID":249809,"DIS_CODE":0,"TOWNNAME":"七股區","LI":"十份里","LIN":"11鄰","STREET":" ","SECT":" ","MAREA":"十份","LANE":" ","ALLEY":" ","HOUSE_NO":"４９號之１","E_COORD97":158014.81,"N_COORD97":2554561.75,"ADDRESS":"十份４９號之１","OBJECTID":249805},"geometry":{"x":158014.81000000052,"y":2554561.75}},{"attributes":{"ID":249810,"DIS_CODE":0,"TOWNNAME":"佳里區","LI":"忠仁里","LIN":"14鄰","STREET":"信義一街","SECT":" ","MAREA":" ","LANE":" ","ALLEY":" ","HOUSE_NO":"２９０號","E_COORD97":166182.91,"N_COORD97":2562059.8599999999,"ADDRESS":"信義一街２９０號","OBJECTID":249806},"geometry":{"x":166182.91000000015,"y":2562059.8599999994}},{"attributes":{"ID":249811,"DIS_CODE":0,"TOWNNAME":"七股區","LI":"十份里","LIN":"11鄰","STREET":" ","SECT":" ","MAREA":"十份","LANE":" ","ALLEY":" ","HOUSE_NO":"４９號之３","E_COORD97":158023.54000000001,"N_COORD97":2554520.0099999998,"ADDRESS":"十份４９號之３","OBJECTID":249807},"geometry":{"x":158023.54000000097,"y":2554520.0099999998}},{"attributes":{"ID":249812,"DIS_CODE":0,"TOWNNAME":"七股區","LI":"十份里","LIN":"11鄰","STREET":" ","SECT":" ","MAREA":"十份","LANE":" ","ALLEY":" ","HOUSE_NO":"４９號之６","E_COORD97":158143.64999999999,"N_COORD97":2554518.6800000002,"ADDRESS":"十份４９號之６","OBJECTID":249808},"geometry":{"x":158143.6500000013,"y":2554518.6799999997}},{"attributes":{"ID":249813,"DIS_CODE":0,"TOWNNAME":"七股區","LI":"十份里","LIN":"11鄰","STREET":" ","SECT":" ","MAREA":"十份","LANE":" ","ALLEY":" ","HOUSE_NO":"４９號","E_COORD97":158013.14000000001,"N_COORD97":2554535.5800000001,"ADDRESS":"十份４９號","OBJECTID":249809},"geometry":{"x":158013.13999999966,"y":2554535.5800000019}},{"attributes":{"ID":249814,"DIS_CODE":0,"TOWNNAME":"七股區","LI":"十份里","LIN":"11鄰","STREET":" ","SECT":" ","MAREA":"十份","LANE":" ","ALLEY":" ","HOUSE_NO":"５０號之１","E_COORD97":157957.73999999999,"N_COORD97":2554558.5,"ADDRESS":"十份５０號之１","OBJECTID":249810},"geometry":{"x":157957.74000000209,"y":2554558.5000000019}},{"attributes":{"ID":249815,"DIS_CODE":0,"TOWNNAME":"七股區","LI":"十份里","LIN":"11鄰","STREET":" ","SECT":" ","MAREA":"十份","LANE":" ","ALLEY":" ","HOUSE_NO":"５０號之２","E_COORD97":157935.48999999999,"N_COORD97":2554570.75,"ADDRESS":"十份５０號之２","OBJECTID":249811},"geometry":{"x":157935.49000000022,"y":2554570.7500000019}},{"attributes":{"ID":249816,"DIS_CODE":0,"TOWNNAME":"七股區","LI":"十份里","LIN":"11鄰","STREET":" ","SECT":" ","MAREA":"十份","LANE":" ","ALLEY":" ","HOUSE_NO":"５０號之３","E_COORD97":157912.84,"N_COORD97":2554569.1000000001,"ADDRESS":"十份５０號之３","OBJECTID":249812},"geometry":{"x":157912.84000000078,"y":2554569.0999999996}},{"attributes":{"ID":249817,"DIS_CODE":0,"TOWNNAME":"七股區","LI":"十份里","LIN":"11鄰","STREET":" ","SECT":" ","MAREA":"十份","LANE":" ","ALLEY":" ","HOUSE_NO":"５０號之４","E_COORD97":157965.16,"N_COORD97":2554529.54,"ADDRESS":"十份５０號之４","OBJECTID":249813},"geometry":{"x":157965.16000000108,"y":2554529.5399999991}},{"attributes":{"ID":249818,"DIS_CODE":0,"TOWNNAME":"佳里區","LI":"忠仁里","LIN":"14鄰","STREET":"信義一街","SECT":" ","MAREA":" ","LANE":" ","ALLEY":" ","HOUSE_NO":"２９２號","E_COORD97":166182.31,"N_COORD97":2562064.3399999999,"ADDRESS":"信義一街２９２號","OBJECTID":249814},"geometry":{"x":166182.31000000052,"y":2562064.3399999999}},{"attributes":{"ID":249819,"DIS_CODE":0,"TOWNNAME":"佳里區","LI":"忠仁里","LIN":"14鄰","STREET":"信義一街","SECT":" ","MAREA":" ","LANE":" ","ALLEY":" ","HOUSE_NO":"２９６號","E_COORD97":166182.42000000001,"N_COORD97":2562069.0800000001,"ADDRESS":"信義一街２９６號","OBJECTID":249815},"geometry":{"x":166182.41999999993,"y":2562069.0800000001}},{"attributes":{"ID":249820,"DIS_CODE":0,"TOWNNAME":"佳里區","LI":"忠仁里","LIN":"14鄰","STREET":"信義一街","SECT":" ","MAREA":" ","LANE":" ","ALLEY":" ","HOUSE_NO":"３０８號","E_COORD97":166182.01000000001,"N_COORD97":2562090.5,"ADDRESS":"信義一街３０８號","OBJECTID":249816},"geometry":{"x":166182.00999999978,"y":2562090.5}},{"attributes":{"ID":249821,"DIS_CODE":0,"TOWNNAME":"佳里區","LI":"忠仁里","LIN":"14鄰","STREET":"信義一街","SECT":" ","MAREA":" ","LANE":" ","ALLEY":" ","HOUSE_NO":"３１０號","E_COORD97":166182.04000000001,"N_COORD97":2562095.0899999999,"ADDRESS":"信義一街３１０號","OBJECTID":249817},"geometry":{"x":166182.04000000004,"y":2562095.0900000017}},{"attributes":{"ID":249822,"DIS_CODE":0,"TOWNNAME":"永康區","LI":"復華里","LIN":"3鄰","STREET":"復國二路","SECT":" ","MAREA":" ","LANE":"３３８巷","ALLEY":" ","HOUSE_NO":"１５號","E_COORD97":173069.01000000001,"N_COORD97":2546123.8999999999,"ADDRESS":"復國二路３３８巷１５號","OBJECTID":249818},"geometry":{"x":173069.00999999978,"y":2546123.9000000041}},{"attributes":{"ID":249823,"DIS_CODE":0,"TOWNNAME":"北區","LI":"元寶里","LIN":"14鄰","STREET":"開元路","SECT":" ","MAREA":" ","LANE":"４８５巷","ALLEY":" ","HOUSE_NO":"２９號七樓之６","E_COORD97":170480.92000000001,"N_COORD97":2545714.0699999998,"ADDRESS":"開元路４８５巷２９號七樓之６","OBJECTID":249819},"geometry":{"x":170480.92000000086,"y":2545714.0700000022}},{"attributes":{"ID":249824,"DIS_CODE":0,"TOWNNAME":"北區","LI":"元寶里","LIN":"14鄰","STREET":"開元路","SECT":" ","MAREA":" ","LANE":"４８５巷","ALLEY":" ","HOUSE_NO":"２９號七樓之８","E_COORD97":170480.92000000001,"N_COORD97":2545714.0699999998,"ADDRESS":"開元路４８５巷２９號七樓之８","OBJECTID":249820},"geometry":{"x":170480.92000000086,"y":2545714.0700000022}},{"attributes":{"ID":249825,"DIS_CODE":0,"TOWNNAME":"北區","LI":"元寶里","LIN":"14鄰","STREET":"開元路","SECT":" ","MAREA":" ","LANE":"４８５巷","ALLEY":" ","HOUSE_NO":"２９號九樓之１０","E_COORD97":170480.92000000001,"N_COORD97":2545714.0699999998,"ADDRESS":"開元路４８５巷２９號九樓之１０","OBJECTID":249821},"geometry":{"x":170480.92000000086,"y":2545714.0700000022}},{"attributes":{"ID":249826,"DIS_CODE":0,"TOWNNAME":"北區","LI":"元寶里","LIN":"14鄰","STREET":"開元路","SECT":" ","MAREA":" ","LANE":"４８５巷","ALLEY":" ","HOUSE_NO":"２９號九樓之１２","E_COORD97":170480.92000000001,"N_COORD97":2545714.0699999998,"ADDRESS":"開元路４８５巷２９號九樓之１２","OBJECTID":249822},"geometry":{"x":170480.92000000086,"y":2545714.0700000022}},{"attributes":{"ID":249827,"DIS_CODE":0,"TOWNNAME":"北區","LI":"元寶里","LIN":"14鄰","STREET":"開元路","SECT":" ","MAREA":" ","LANE":"４８５巷","ALLEY":" ","HOUSE_NO":"２９號九樓之２","E_COORD97":170480.92000000001,"N_COORD97":2545714.0699999998,"ADDRESS":"開元路４８５巷２９號九樓之２","OBJECTID":249823},"geometry":{"x":170480.92000000086,"y":2545714.0700000022}},{"attributes":{"ID":249828,"DIS_CODE":0,"TOWNNAME":"北區","LI":"元寶里","LIN":"14鄰","STREET":"開元路","SECT":" ","MAREA":" ","LANE":"４８５巷","ALLEY":" ","HOUSE_NO":"２９號九樓之６","E_COORD97":170480.92000000001,"N_COORD97":2545714.0699999998,"ADDRESS":"開元路４８５巷２９號九樓之６","OBJECTID":249824},"geometry":{"x":170480.92000000086,"y":2545714.0700000022}},{"attributes":{"ID":249829,"DIS_CODE":0,"TOWNNAME":"北區","LI":"元寶里","LIN":"14鄰","STREET":"開元路","SECT":" ","MAREA":" ","LANE":"４８５巷","ALLEY":" ","HOUSE_NO":"２９號九樓之８","E_COORD97":170480.92000000001,"N_COORD97":2545714.0699999998,"ADDRESS":"開元路４８５巷２９號九樓之８","OBJECTID":249825},"geometry":{"x":170480.92000000086,"y":2545714.0700000022}},{"attributes":{"ID":249830,"DIS_CODE":0,"TOWNNAME":"北區","LI":"元寶里","LIN":"14鄰","STREET":"開元路","SECT":" ","MAREA":" ","LANE":"４８５巷","ALLEY":" ","HOUSE_NO":"２９號二樓之１０","E_COORD97":170480.92000000001,"N_COORD97":2545714.0699999998,"ADDRESS":"開元路４８５巷２９號二樓之１０","OBJECTID":249826},"geometry":{"x":170480.92000000086,"y":2545714.0700000022}},{"attributes":{"ID":249831,"DIS_CODE":0,"TOWNNAME":"佳里區","LI":"忠仁里","LIN":"14鄰","STREET":"信義一街","SECT":" ","MAREA":" ","LANE":" ","ALLEY":" ","HOUSE_NO":"３１２號","E_COORD97":166182.04999999999,"N_COORD97":2562099.1600000001,"ADDRESS":"信義一街３１２號","OBJECTID":249827},"geometry":{"x":166182.05000000168,"y":2562099.1600000001}},{"attributes":{"ID":249832,"DIS_CODE":0,"TOWNNAME":"永康區","LI":"復國里","LIN":"5鄰","STREET":"復國一路","SECT":" ","MAREA":" ","LANE":"９０巷","ALLEY":" ","HOUSE_NO":"２７號","E_COORD97":172758.51000000001,"N_COORD97":2544963.0299999998,"ADDRESS":"復國一路９０巷２７號","OBJECTID":249828},"geometry":{"x":172758.51000000071,"y":2544963.0300000012}},{"attributes":{"ID":249833,"DIS_CODE":0,"TOWNNAME":"永康區","LI":"復華里","LIN":"39鄰","STREET":"復華七街","SECT":" ","MAREA":" ","LANE":"３２巷","ALLEY":" ","HOUSE_NO":"７號","E_COORD97":172689.26999999999,"N_COORD97":2545952.77,"ADDRESS":"復華七街３２巷７號","OBJECTID":249829},"geometry":{"x":172689.26999999955,"y":2545952.7699999996}},{"attributes":{"ID":249834,"DIS_CODE":0,"TOWNNAME":"永康區","LI":"復華里","LIN":"14鄰","STREET":"國華街","SECT":" ","MAREA":" ","LANE":"９４巷","ALLEY":" ","HOUSE_NO":"１５號","E_COORD97":172901.07999999999,"N_COORD97":2545900.5,"ADDRESS":"國華街９４巷１５號","OBJECTID":249830},"geometry":{"x":172901.08000000007,"y":2545900.5000000019}},{"attributes":{"ID":249835,"DIS_CODE":0,"TOWNNAME":"北區","LI":"元寶里","LIN":"14鄰","STREET":"開元路","SECT":" ","MAREA":" ","LANE":"４８５巷","ALLEY":" ","HOUSE_NO":"２９號二樓之１２","E_COORD97":170480.92000000001,"N_COORD97":2545714.0699999998,"ADDRESS":"開元路４８５巷２９號二樓之１２","OBJECTID":249831},"geometry":{"x":170480.92000000086,"y":2545714.0700000022}},{"attributes":{"ID":249836,"DIS_CODE":0,"TOWNNAME":"北區","LI":"元寶里","LIN":"14鄰","STREET":"開元路","SECT":" ","MAREA":" ","LANE":"４８５巷","ALLEY":" ","HOUSE_NO":"２９號二樓之２","E_COORD97":170480.92000000001,"N_COORD97":2545714.0699999998,"ADDRESS":"開元路４８５巷２９號二樓之２","OBJECTID":249832},"geometry":{"x":170480.92000000086,"y":2545714.0700000022}},{"attributes":{"ID":249837,"DIS_CODE":0,"TOWNNAME":"北區","LI":"元寶里","LIN":"14鄰","STREET":"開元路","SECT":" ","MAREA":" ","LANE":"４８５巷","ALLEY":" ","HOUSE_NO":"２９號二樓之６","E_COORD97":170480.92000000001,"N_COORD97":2545714.0699999998,"ADDRESS":"開元路４８５巷２９號二樓之６","OBJECTID":249833},"geometry":{"x":170480.92000000086,"y":2545714.0700000022}},{"attributes":{"ID":249838,"DIS_CODE":0,"TOWNNAME":"新化區","LI":"武安里","LIN":"14鄰","STREET":"健康路","SECT":" ","MAREA":" ","LANE":"１０１巷","ALLEY":" ","HOUSE_NO":"５號四樓之３","E_COORD97":178772.17999999999,"N_COORD97":2548139.2599999998,"ADDRESS":"健康路１０１巷５號四樓之３","OBJECTID":249834},"geometry":{"x":178772.1799999997,"y":2548139.2600000016}},{"attributes":{"ID":249839,"DIS_CODE":0,"TOWNNAME":"新化區","LI":"武安里","LIN":"14鄰","STREET":"健康路","SECT":" ","MAREA":" ","LANE":"１０１巷","ALLEY":" ","HOUSE_NO":"５號五樓之３","E_COORD97":178772.17999999999,"N_COORD97":2548139.2599999998,"ADDRESS":"健康路１０１巷５號五樓之３","OBJECTID":249835},"geometry":{"x":178772.1799999997,"y":2548139.2600000016}},{"attributes":{"ID":249840,"DIS_CODE":0,"TOWNNAME":"北區","LI":"元寶里","LIN":"14鄰","STREET":"開元路","SECT":" ","MAREA":" ","LANE":"４８５巷","ALLEY":" ","HOUSE_NO":"２９號二樓之８","E_COORD97":170480.92000000001,"N_COORD97":2545714.0699999998,"ADDRESS":"開元路４８５巷２９號二樓之８","OBJECTID":249836},"geometry":{"x":170480.92000000086,"y":2545714.0700000022}},{"attributes":{"ID":249841,"DIS_CODE":0,"TOWNNAME":"北區","LI":"元寶里","LIN":"14鄰","STREET":"開元路","SECT":" ","MAREA":" ","LANE":"４８５巷","ALLEY":" ","HOUSE_NO":"２９號八樓之１０","E_COORD97":170480.92000000001,"N_COORD97":2545714.0699999998,"ADDRESS":"開元路４８５巷２９號八樓之１０","OBJECTID":249837},"geometry":{"x":170480.92000000086,"y":2545714.0700000022}},{"attributes":{"ID":249842,"DIS_CODE":0,"TOWNNAME":"北區","LI":"元寶里","LIN":"14鄰","STREET":"開元路","SECT":" ","MAREA":" ","LANE":"４８５巷","ALLEY":" ","HOUSE_NO":"２９號八樓之１２","E_COORD97":170480.92000000001,"N_COORD97":2545714.0699999998,"ADDRESS":"開元路４８５巷２９號八樓之１２","OBJECTID":249838},"geometry":{"x":170480.92000000086,"y":2545714.0700000022}},{"attributes":{"ID":249843,"DIS_CODE":0,"TOWNNAME":"北區","LI":"元寶里","LIN":"14鄰","STREET":"開元路","SECT":" ","MAREA":" ","LANE":"４８５巷","ALLEY":" ","HOUSE_NO":"２９號八樓之２","E_COORD97":170480.92000000001,"N_COORD97":2545714.0699999998,"ADDRESS":"開元路４８５巷２９號八樓之２","OBJECTID":249839},"geometry":{"x":170480.92000000086,"y":2545714.0700000022}},{"attributes":{"ID":249844,"DIS_CODE":0,"TOWNNAME":"北區","LI":"元寶里","LIN":"14鄰","STREET":"開元路","SECT":" ","MAREA":" ","LANE":"４８５巷","ALLEY":" ","HOUSE_NO":"２９號八樓之６","E_COORD97":170480.92000000001,"N_COORD97":2545714.0699999998,"ADDRESS":"開元路４８５巷２９號八樓之６","OBJECTID":249840},"geometry":{"x":170480.92000000086,"y":2545714.0700000022}},{"attributes":{"ID":249845,"DIS_CODE":0,"TOWNNAME":"佳里區","LI":"忠仁里","LIN":"14鄰","STREET":"信義一街","SECT":" ","MAREA":" ","LANE":" ","ALLEY":" ","HOUSE_NO":"３１６號","E_COORD97":166181.95000000001,"N_COORD97":2562103.2400000002,"ADDRESS":"信義一街３１６號","OBJECTID":249841},"geometry":{"x":166181.95000000112,"y":2562103.2400000002}},{"attributes":{"ID":249846,"DIS_CODE":0,"TOWNNAME":"佳里區","LI":"忠仁里","LIN":"14鄰","STREET":"信義一街","SECT":" ","MAREA":" ","LANE":" ","ALLEY":" ","HOUSE_NO":"３１８號","E_COORD97":166181.94,"N_COORD97":2562107.52,"ADDRESS":"信義一街３１８號","OBJECTID":249842},"geometry":{"x":166181.94000000134,"y":2562107.5199999996}},{"attributes":{"ID":249847,"DIS_CODE":0,"TOWNNAME":"佳里區","LI":"忠仁里","LIN":"14鄰","STREET":"信義一街","SECT":" ","MAREA":" ","LANE":" ","ALLEY":" ","HOUSE_NO":"３２０號","E_COORD97":166181.78,"N_COORD97":2562111.77,"ADDRESS":"信義一街３２０號","OBJECTID":249843},"geometry":{"x":166181.78000000026,"y":2562111.7699999996}},{"attributes":{"ID":249848,"DIS_CODE":0,"TOWNNAME":"南區","LI":"白雪里","LIN":"6鄰","STREET":"鹽埕路","SECT":" ","MAREA":" ","LANE":"１８７巷","ALLEY":" ","HOUSE_NO":"３號","E_COORD97":166817.92999999999,"N_COORD97":2541110.6000000001,"ADDRESS":"鹽埕路１８７巷３號","OBJECTID":249844},"geometry":{"x":166817.9299999997,"y":2541110.5999999978}},{"attributes":{"ID":249849,"DIS_CODE":0,"TOWNNAME":"北區","LI":"元寶里","LIN":"14鄰","STREET":"開元路","SECT":" ","MAREA":" ","LANE":"４８５巷","ALLEY":" ","HOUSE_NO":"２９號八樓之８","E_COORD97":170480.92000000001,"N_COORD97":2545714.0699999998,"ADDRESS":"開元路４８５巷２９號八樓之８","OBJECTID":249845},"geometry":{"x":170480.92000000086,"y":2545714.0700000022}},{"attributes":{"ID":249850,"DIS_CODE":0,"TOWNNAME":"北區","LI":"元寶里","LIN":"14鄰","STREET":"開元路","SECT":" ","MAREA":" ","LANE":"４８５巷","ALLEY":" ","HOUSE_NO":"２９號十一樓之１０","E_COORD97":170480.92000000001,"N_COORD97":2545714.0699999998,"ADDRESS":"開元路４８５巷２９號十一樓之１０","OBJECTID":249846},"geometry":{"x":170480.92000000086,"y":2545714.0700000022}},{"attributes":{"ID":249851,"DIS_CODE":0,"TOWNNAME":"佳里區","LI":"忠仁里","LIN":"14鄰","STREET":"信義一街","SECT":" ","MAREA":" ","LANE":" ","ALLEY":" ","HOUSE_NO":"３２２號","E_COORD97":166182,"N_COORD97":2562118.5499999998,"ADDRESS":"信義一街３２２號","OBJECTID":249847},"geometry":{"x":166182,"y":2562118.5500000007}},{"attributes":{"ID":249852,"DIS_CODE":0,"TOWNNAME":"永康區","LI":"復華里","LIN":"25鄰","STREET":"復華八街","SECT":" ","MAREA":" ","LANE":"４７巷","ALLEY":" ","HOUSE_NO":"１４號","E_COORD97":172757.89000000001,"N_COORD97":2546384.77,"ADDRESS":"復華八街４７巷１４號","OBJECTID":249848},"geometry":{"x":172757.88999999966,"y":2546384.7699999977}},{"attributes":{"ID":249853,"DIS_CODE":0,"TOWNNAME":"永康區","LI":"復華里","LIN":"24鄰","STREET":"復華八街","SECT":" ","MAREA":" ","LANE":"５８巷","ALLEY":" ","HOUSE_NO":"５號","E_COORD97":172779.76999999999,"N_COORD97":2546311.3500000001,"ADDRESS":"復華八街５８巷５號","OBJECTID":249849},"geometry":{"x":172779.77000000048,"y":2546311.3500000015}},{"attributes":{"ID":249854,"DIS_CODE":0,"TOWNNAME":"永康區","LI":"復華里","LIN":"14鄰","STREET":"國華街","SECT":" ","MAREA":" ","LANE":"９６巷","ALLEY":" ","HOUSE_NO":"１２號","E_COORD97":172881.12,"N_COORD97":2545917.25,"ADDRESS":"國華街９６巷１２號","OBJECTID":249850},"geometry":{"x":172881.12000000197,"y":2545917.25}},{"attributes":{"ID":249855,"DIS_CODE":0,"TOWNNAME":"永康區","LI":"復華里","LIN":"14鄰","STREET":"國華街","SECT":" ","MAREA":" ","LANE":"９６巷","ALLEY":" ","HOUSE_NO":"３２號","E_COORD97":172936.31,"N_COORD97":2545916.75,"ADDRESS":"國華街９６巷３２號","OBJECTID":249851},"geometry":{"x":172936.30999999959,"y":2545916.75}},{"attributes":{"ID":249856,"DIS_CODE":0,"TOWNNAME":"北區","LI":"元寶里","LIN":"14鄰","STREET":"開元路","SECT":" ","MAREA":" ","LANE":"４８５巷","ALLEY":" ","HOUSE_NO":"２９號十一樓之１２","E_COORD97":170480.92000000001,"N_COORD97":2545714.0699999998,"ADDRESS":"開元路４８５巷２９號十一樓之１２","OBJECTID":249852},"geometry":{"x":170480.92000000086,"y":2545714.0700000022}},{"attributes":{"ID":249857,"DIS_CODE":0,"TOWNNAME":"北區","LI":"元寶里","LIN":"14鄰","STREET":"開元路","SECT":" ","MAREA":" ","LANE":"４８５巷","ALLEY":" ","HOUSE_NO":"２９號十一樓之２","E_COORD97":170480.92000000001,"N_COORD97":2545714.0699999998,"ADDRESS":"開元路４８５巷２９號十一樓之２","OBJECTID":249853},"geometry":{"x":170480.92000000086,"y":2545714.0700000022}},{"attributes":{"ID":249858,"DIS_CODE":0,"TOWNNAME":"北區","LI":"元寶里","LIN":"14鄰","STREET":"開元路","SECT":" ","MAREA":" ","LANE":"４８５巷","ALLEY":" ","HOUSE_NO":"２９號十一樓之６","E_COORD97":170480.92000000001,"N_COORD97":2545714.0699999998,"ADDRESS":"開元路４８５巷２９號十一樓之６","OBJECTID":249854},"geometry":{"x":170480.92000000086,"y":2545714.0700000022}},{"attributes":{"ID":249859,"DIS_CODE":0,"TOWNNAME":"北區","LI":"元寶里","LIN":"14鄰","STREET":"開元路","SECT":" ","MAREA":" ","LANE":"４８５巷","ALLEY":" ","HOUSE_NO":"２９號十一樓之８","E_COORD97":170480.92000000001,"N_COORD97":2545714.0699999998,"ADDRESS":"開元路４８５巷２９號十一樓之８","OBJECTID":249855},"geometry":{"x":170480.92000000086,"y":2545714.0700000022}},{"attributes":{"ID":249860,"DIS_CODE":0,"TOWNNAME":"北區","LI":"元寶里","LIN":"14鄰","STREET":"開元路","SECT":" ","MAREA":" ","LANE":"４８５巷","ALLEY":" ","HOUSE_NO":"２９號十二樓之１０","E_COORD97":170480.92000000001,"N_COORD97":2545714.0699999998,"ADDRESS":"開元路４８５巷２９號十二樓之１０","OBJECTID":249856},"geometry":{"x":170480.92000000086,"y":2545714.0700000022}},{"attributes":{"ID":249861,"DIS_CODE":0,"TOWNNAME":"北區","LI":"元寶里","LIN":"14鄰","STREET":"開元路","SECT":" ","MAREA":" ","LANE":"４８５巷","ALLEY":" ","HOUSE_NO":"２９號十二樓之１２","E_COORD97":170480.92000000001,"N_COORD97":2545714.0699999998,"ADDRESS":"開元路４８５巷２９號十二樓之１２","OBJECTID":249857},"geometry":{"x":170480.92000000086,"y":2545714.0700000022}},{"attributes":{"ID":249862,"DIS_CODE":0,"TOWNNAME":"北區","LI":"元寶里","LIN":"14鄰","STREET":"開元路","SECT":" ","MAREA":" ","LANE":"４８５巷","ALLEY":" ","HOUSE_NO":"２９號十二樓之２","E_COORD97":170480.92000000001,"N_COORD97":2545714.0699999998,"ADDRESS":"開元路４８５巷２９號十二樓之２","OBJECTID":249858},"geometry":{"x":170480.92000000086,"y":2545714.0700000022}},{"attributes":{"ID":249863,"DIS_CODE":0,"TOWNNAME":"北區","LI":"元寶里","LIN":"14鄰","STREET":"開元路","SECT":" ","MAREA":" ","LANE":"４８５巷","ALLEY":" ","HOUSE_NO":"２９號十二樓之６","E_COORD97":170480.92000000001,"N_COORD97":2545714.0699999998,"ADDRESS":"開元路４８５巷２９號十二樓之６","OBJECTID":249859},"geometry":{"x":170480.92000000086,"y":2545714.0700000022}},{"attributes":{"ID":249864,"DIS_CODE":0,"TOWNNAME":"北區","LI":"元寶里","LIN":"14鄰","STREET":"開元路","SECT":" ","MAREA":" ","LANE":"４８５巷","ALLEY":" ","HOUSE_NO":"２９號十二樓之８","E_COORD97":170480.92000000001,"N_COORD97":2545714.0699999998,"ADDRESS":"開元路４８５巷２９號十二樓之８","OBJECTID":249860},"geometry":{"x":170480.92000000086,"y":2545714.0700000022}},{"attributes":{"ID":249865,"DIS_CODE":0,"TOWNNAME":"佳里區","LI":"忠仁里","LIN":"14鄰","STREET":"信義一街","SECT":" ","MAREA":" ","LANE":" ","ALLEY":" ","HOUSE_NO":"３３６號","E_COORD97":166251.04000000001,"N_COORD97":2562221.8599999999,"ADDRESS":"信義一街３３６號","OBJECTID":249861},"geometry":{"x":166251.04000000004,"y":2562221.8600000013}},{"attributes":{"ID":249866,"DIS_CODE":0,"TOWNNAME":"東區","LI":"崇信里","LIN":"14鄰","STREET":"崇學路","SECT":" ","MAREA":" ","LANE":" ","ALLEY":" ","HOUSE_NO":"１８２號","E_COORD97":170568.07000000001,"N_COORD97":2542469.7000000002,"ADDRESS":"崇學路１８２號","OBJECTID":249862},"geometry":{"x":170568.07000000123,"y":2542469.7000000011}},{"attributes":{"ID":249867,"DIS_CODE":0,"TOWNNAME":"東區","LI":"崇信里","LIN":"14鄰","STREET":"崇學路","SECT":" ","MAREA":" ","LANE":" ","ALLEY":" ","HOUSE_NO":"１８６號","E_COORD97":170572.23999999999,"N_COORD97":2542475.04,"ADDRESS":"崇學路１８６號","OBJECTID":249863},"geometry":{"x":170572.24000000115,"y":2542475.040000001}},{"attributes":{"ID":249868,"DIS_CODE":0,"TOWNNAME":"東區","LI":"崇信里","LIN":"14鄰","STREET":"崇學路","SECT":" ","MAREA":" ","LANE":" ","ALLEY":" ","HOUSE_NO":"１８６號之１","E_COORD97":170577.07999999999,"N_COORD97":2542480.3300000001,"ADDRESS":"崇學路１８６號之１","OBJECTID":249864},"geometry":{"x":170577.08000000007,"y":2542480.3300000019}},{"attributes":{"ID":249869,"DIS_CODE":0,"TOWNNAME":"東區","LI":"東門里","LIN":"1鄰","STREET":"東門路","SECT":"一段","MAREA":" ","LANE":" ","ALLEY":" ","HOUSE_NO":"３５號","E_COORD97":169214.23999999999,"N_COORD97":2543271.8199999998,"ADDRESS":"東門路一段３５號","OBJECTID":249865},"geometry":{"x":169214.24000000115,"y":2543271.8200000003}},{"attributes":{"ID":249870,"DIS_CODE":0,"TOWNNAME":"永康區","LI":"復華里","LIN":"25鄰","STREET":"復華八街","SECT":" ","MAREA":" ","LANE":"４９巷","ALLEY":" ","HOUSE_NO":"１５號","E_COORD97":172752.01999999999,"N_COORD97":2546412.7799999998,"ADDRESS":"復華八街４９巷１５號","OBJECTID":249866},"geometry":{"x":172752.01999999955,"y":2546412.7800000012}},{"attributes":{"ID":249871,"DIS_CODE":0,"TOWNNAME":"永康區","LI":"復國里","LIN":"13鄰","STREET":"復華三街","SECT":" ","MAREA":" ","LANE":"１３巷","ALLEY":" ","HOUSE_NO":"１０號","E_COORD97":172897.04999999999,"N_COORD97":2545502.0600000001,"ADDRESS":"復華三街１３巷１０號","OBJECTID":249867},"geometry":{"x":172897.05000000075,"y":2545502.0600000005}},{"attributes":{"ID":249872,"DIS_CODE":0,"TOWNNAME":"永康區","LI":"復華里","LIN":"14鄰","STREET":"國華街","SECT":" ","MAREA":" ","LANE":"９４巷","ALLEY":" ","HOUSE_NO":"３號","E_COORD97":172865.39999999999,"N_COORD97":2545900,"ADDRESS":"國華街９４巷３號","OBJECTID":249868},"geometry":{"x":172865.40000000037,"y":2545900.0000000019}},{"attributes":{"ID":249873,"DIS_CODE":0,"TOWNNAME":"永康區","LI":"復國里","LIN":"31鄰","STREET":"復國一路","SECT":" ","MAREA":" ","LANE":"１４１巷","ALLEY":" ","HOUSE_NO":"１號","E_COORD97":172692.45999999999,"N_COORD97":2545122.1499999999,"ADDRESS":"復國一路１４１巷１號","OBJECTID":249869},"geometry":{"x":172692.46000000089,"y":2545122.1500000041}},{"attributes":{"ID":249874,"DIS_CODE":0,"TOWNNAME":"新營區","LI":"太北里","LIN":"13鄰","STREET":" ","SECT":" ","MAREA":"太子宮","LANE":" ","ALLEY":" ","HOUSE_NO":"１１０號之６","E_COORD97":175979.85052000001,"N_COORD97":2577074.3668399998,"ADDRESS":"太子宮１１０號之６","OBJECTID":249870},"geometry":{"x":175979.85051999986,"y":2577074.3668380007}},{"attributes":{"ID":249875,"DIS_CODE":0,"TOWNNAME":"永康區","LI":"勝利里","LIN":"6鄰","STREET":"勝學路","SECT":" ","MAREA":" ","LANE":"４６巷","ALLEY":" ","HOUSE_NO":"１號","E_COORD97":171170.53,"N_COORD97":2544668.5099999998,"ADDRESS":"勝學路４６巷１號","OBJECTID":249871},"geometry":{"x":171170.53000000119,"y":2544668.5100000016}},{"attributes":{"ID":249876,"DIS_CODE":0,"TOWNNAME":"永康區","LI":"復華里","LIN":"16鄰","STREET":"國華街","SECT":" ","MAREA":" ","LANE":"９５巷","ALLEY":" ","HOUSE_NO":"９號","E_COORD97":172781.26000000001,"N_COORD97":2546024,"ADDRESS":"國華街９５巷９號","OBJECTID":249872},"geometry":{"x":172781.25999999978,"y":2546024}},{"attributes":{"ID":249877,"DIS_CODE":0,"TOWNNAME":"北區","LI":"元寶里","LIN":"14鄰","STREET":"開元路","SECT":" ","MAREA":" ","LANE":"４８５巷","ALLEY":" ","HOUSE_NO":"２９號十三樓之１０","E_COORD97":170480.92000000001,"N_COORD97":2545714.0699999998,"ADDRESS":"開元路４８５巷２９號十三樓之１０","OBJECTID":249873},"geometry":{"x":170480.92000000086,"y":2545714.0700000022}},{"attributes":{"ID":249878,"DIS_CODE":0,"TOWNNAME":"北區","LI":"元寶里","LIN":"14鄰","STREET":"開元路","SECT":" ","MAREA":" ","LANE":"４８５巷","ALLEY":" ","HOUSE_NO":"２９號十三樓之１２","E_COORD97":170480.92000000001,"N_COORD97":2545714.0699999998,"ADDRESS":"開元路４８５巷２９號十三樓之１２","OBJECTID":249874},"geometry":{"x":170480.92000000086,"y":2545714.0700000022}},{"attributes":{"ID":249879,"DIS_CODE":0,"TOWNNAME":"北區","LI":"元寶里","LIN":"14鄰","STREET":"開元路","SECT":" ","MAREA":" ","LANE":"４８５巷","ALLEY":" ","HOUSE_NO":"２９號十三樓之２","E_COORD97":170480.92000000001,"N_COORD97":2545714.0699999998,"ADDRESS":"開元路４８５巷２９號十三樓之２","OBJECTID":249875},"geometry":{"x":170480.92000000086,"y":2545714.0700000022}},{"attributes":{"ID":249880,"DIS_CODE":0,"TOWNNAME":"北區","LI":"元寶里","LIN":"14鄰","STREET":"開元路","SECT":" ","MAREA":" ","LANE":"４８５巷","ALLEY":" ","HOUSE_NO":"２９號十三樓之６","E_COORD97":170480.92000000001,"N_COORD97":2545714.0699999998,"ADDRESS":"開元路４８５巷２９號十三樓之６","OBJECTID":249876},"geometry":{"x":170480.92000000086,"y":2545714.0700000022}},{"attributes":{"ID":249881,"DIS_CODE":0,"TOWNNAME":"北區","LI":"元寶里","LIN":"14鄰","STREET":"開元路","SECT":" ","MAREA":" ","LANE":"４８５巷","ALLEY":" ","HOUSE_NO":"２９號十三樓之８","E_COORD97":170480.92000000001,"N_COORD97":2545714.0699999998,"ADDRESS":"開元路４８５巷２９號十三樓之８","OBJECTID":249877},"geometry":{"x":170480.92000000086,"y":2545714.0700000022}},{"attributes":{"ID":249882,"DIS_CODE":0,"TOWNNAME":"北區","LI":"元寶里","LIN":"14鄰","STREET":"開元路","SECT":" ","MAREA":" ","LANE":"４８５巷","ALLEY":" ","HOUSE_NO":"２９號十四樓之１０","E_COORD97":170480.92000000001,"N_COORD97":2545714.0699999998,"ADDRESS":"開元路４８５巷２９號十四樓之１０","OBJECTID":249878},"geometry":{"x":170480.92000000086,"y":2545714.0700000022}},{"attributes":{"ID":249883,"DIS_CODE":0,"TOWNNAME":"北區","LI":"元寶里","LIN":"14鄰","STREET":"開元路","SECT":" ","MAREA":" ","LANE":"４８５巷","ALLEY":" ","HOUSE_NO":"２９號十四樓之１２","E_COORD97":170480.92000000001,"N_COORD97":2545714.0699999998,"ADDRESS":"開元路４８５巷２９號十四樓之１２","OBJECTID":249879},"geometry":{"x":170480.92000000086,"y":2545714.0700000022}},{"attributes":{"ID":249884,"DIS_CODE":0,"TOWNNAME":"北區","LI":"元寶里","LIN":"14鄰","STREET":"開元路","SECT":" ","MAREA":" ","LANE":"４８５巷","ALLEY":" ","HOUSE_NO":"２９號十四樓之８","E_COORD97":170480.92000000001,"N_COORD97":2545714.0699999998,"ADDRESS":"開元路４８５巷２９號十四樓之８","OBJECTID":249880},"geometry":{"x":170480.92000000086,"y":2545714.0700000022}},{"attributes":{"ID":249885,"DIS_CODE":0,"TOWNNAME":"東區","LI":"崇信里","LIN":"14鄰","STREET":"崇學路","SECT":" ","MAREA":" ","LANE":" ","ALLEY":" ","HOUSE_NO":"１８６號之１地下層","E_COORD97":170577.07999999999,"N_COORD97":2542480.3300000001,"ADDRESS":"崇學路１８６號之１地下層","OBJECTID":249881},"geometry":{"x":170577.08000000007,"y":2542480.3300000019}},{"attributes":{"ID":249886,"DIS_CODE":0,"TOWNNAME":"東區","LI":"崇信里","LIN":"14鄰","STREET":"崇學路","SECT":" ","MAREA":" ","LANE":" ","ALLEY":" ","HOUSE_NO":"１８６號地下層","E_COORD97":170572.23999999999,"N_COORD97":2542475.04,"ADDRESS":"崇學路１８６號地下層","OBJECTID":249882},"geometry":{"x":170572.24000000115,"y":2542475.040000001}},{"attributes":{"ID":249887,"DIS_CODE":0,"TOWNNAME":"安南區","LI":"州北里","LIN":"14鄰","STREET":"安和路","SECT":"五段","MAREA":" ","LANE":" ","ALLEY":" ","HOUSE_NO":"１３１號","E_COORD97":169881.44,"N_COORD97":2551768.6299999999,"ADDRESS":"安和路五段１３１號","OBJECTID":249883},"geometry":{"x":169881.44000000041,"y":2551768.629999999}},{"attributes":{"ID":249888,"DIS_CODE":0,"TOWNNAME":"安南區","LI":"州北里","LIN":"14鄰","STREET":"安和路","SECT":"五段","MAREA":" ","LANE":" ","ALLEY":" ","HOUSE_NO":"１４８號","E_COORD97":169899.98000000001,"N_COORD97":2551798.3599999999,"ADDRESS":"安和路五段１４８號","OBJECTID":249884},"geometry":{"x":169899.98000000045,"y":2551798.3599999994}},{"attributes":{"ID":249889,"DIS_CODE":0,"TOWNNAME":"安南區","LI":"州北里","LIN":"14鄰","STREET":"安和路","SECT":"五段","MAREA":" ","LANE":" ","ALLEY":" ","HOUSE_NO":"１５０號","E_COORD97":169897.94,"N_COORD97":2551801.75,"ADDRESS":"安和路五段１５０號","OBJECTID":249885},"geometry":{"x":169897.94000000134,"y":2551801.7500000019}},{"attributes":{"ID":249890,"DIS_CODE":0,"TOWNNAME":"永康區","LI":"復國里","LIN":"32鄰","STREET":"復華一街","SECT":" ","MAREA":" ","LANE":"２８巷","ALLEY":" ","HOUSE_NO":"２９號","E_COORD97":172642.07000000001,"N_COORD97":2545166.7799999998,"ADDRESS":"復華一街２８巷２９號","OBJECTID":249886},"geometry":{"x":172642.0700000003,"y":2545166.7799999993}},{"attributes":{"ID":249891,"DIS_CODE":0,"TOWNNAME":"北區","LI":"元寶里","LIN":"14鄰","STREET":"開元路","SECT":" ","MAREA":" ","LANE":"４８５巷","ALLEY":" ","HOUSE_NO":"２９號十樓之１０","E_COORD97":170480.92000000001,"N_COORD97":2545714.0699999998,"ADDRESS":"開元路４８５巷２９號十樓之１０","OBJECTID":249887},"geometry":{"x":170480.92000000086,"y":2545714.0700000022}},{"attributes":{"ID":249892,"DIS_CODE":0,"TOWNNAME":"北區","LI":"元寶里","LIN":"14鄰","STREET":"開元路","SECT":" ","MAREA":" ","LANE":"４８５巷","ALLEY":" ","HOUSE_NO":"２９號十樓之１２","E_COORD97":170480.92000000001,"N_COORD97":2545714.0699999998,"ADDRESS":"開元路４８５巷２９號十樓之１２","OBJECTID":249888},"geometry":{"x":170480.92000000086,"y":2545714.0700000022}},{"attributes":{"ID":249893,"DIS_CODE":0,"TOWNNAME":"北區","LI":"元寶里","LIN":"14鄰","STREET":"開元路","SECT":" ","MAREA":" ","LANE":"４８５巷","ALLEY":" ","HOUSE_NO":"２９號十樓之２","E_COORD97":170480.92000000001,"N_COORD97":2545714.0699999998,"ADDRESS":"開元路４８５巷２９號十樓之２","OBJECTID":249889},"geometry":{"x":170480.92000000086,"y":2545714.0700000022}},{"attributes":{"ID":249894,"DIS_CODE":0,"TOWNNAME":"北區","LI":"元寶里","LIN":"14鄰","STREET":"開元路","SECT":" ","MAREA":" ","LANE":"４８５巷","ALLEY":" ","HOUSE_NO":"２９號十樓之６","E_COORD97":170480.92000000001,"N_COORD97":2545714.0699999998,"ADDRESS":"開元路４８５巷２９號十樓之６","OBJECTID":249890},"geometry":{"x":170480.92000000086,"y":2545714.0700000022}},{"attributes":{"ID":249895,"DIS_CODE":0,"TOWNNAME":"北區","LI":"元寶里","LIN":"14鄰","STREET":"開元路","SECT":" ","MAREA":" ","LANE":"４８５巷","ALLEY":" ","HOUSE_NO":"２９號十樓之８","E_COORD97":170480.92000000001,"N_COORD97":2545714.0699999998,"ADDRESS":"開元路４８５巷２９號十樓之８","OBJECTID":249891},"geometry":{"x":170480.92000000086,"y":2545714.0700000022}},{"attributes":{"ID":249896,"DIS_CODE":0,"TOWNNAME":"北區","LI":"元寶里","LIN":"14鄰","STREET":"開元路","SECT":" ","MAREA":" ","LANE":"４８５巷","ALLEY":" ","HOUSE_NO":"２９號三樓之１０","E_COORD97":170480.92000000001,"N_COORD97":2545714.0699999998,"ADDRESS":"開元路４８５巷２９號三樓之１０","OBJECTID":249892},"geometry":{"x":170480.92000000086,"y":2545714.0700000022}},{"attributes":{"ID":249897,"DIS_CODE":0,"TOWNNAME":"北區","LI":"元寶里","LIN":"14鄰","STREET":"開元路","SECT":" ","MAREA":" ","LANE":"４８５巷","ALLEY":" ","HOUSE_NO":"２９號三樓之１２","E_COORD97":170480.92000000001,"N_COORD97":2545714.0699999998,"ADDRESS":"開元路４８５巷２９號三樓之１２","OBJECTID":249893},"geometry":{"x":170480.92000000086,"y":2545714.0700000022}},{"attributes":{"ID":249898,"DIS_CODE":0,"TOWNNAME":"北區","LI":"元寶里","LIN":"14鄰","STREET":"開元路","SECT":" ","MAREA":" ","LANE":"４８５巷","ALLEY":" ","HOUSE_NO":"２９號三樓之２","E_COORD97":170480.92000000001,"N_COORD97":2545714.0699999998,"ADDRESS":"開元路４８５巷２９號三樓之２","OBJECTID":249894},"geometry":{"x":170480.92000000086,"y":2545714.0700000022}},{"attributes":{"ID":249899,"DIS_CODE":0,"TOWNNAME":"北區","LI":"元寶里","LIN":"14鄰","STREET":"開元路","SECT":" ","MAREA":" ","LANE":"４８５巷","ALLEY":" ","HOUSE_NO":"２９號三樓之６","E_COORD97":170480.92000000001,"N_COORD97":2545714.0699999998,"ADDRESS":"開元路４８５巷２９號三樓之６","OBJECTID":249895},"geometry":{"x":170480.92000000086,"y":2545714.0700000022}},{"attributes":{"ID":249900,"DIS_CODE":0,"TOWNNAME":"北區","LI":"元寶里","LIN":"14鄰","STREET":"開元路","SECT":" ","MAREA":" ","LANE":"４８５巷","ALLEY":" ","HOUSE_NO":"２９號三樓之８","E_COORD97":170480.92000000001,"N_COORD97":2545714.0699999998,"ADDRESS":"開元路４８５巷２９號三樓之８","OBJECTID":249896},"geometry":{"x":170480.92000000086,"y":2545714.0700000022}},{"attributes":{"ID":249901,"DIS_CODE":0,"TOWNNAME":"北區","LI":"元寶里","LIN":"14鄰","STREET":"開元路","SECT":" ","MAREA":" ","LANE":"４８５巷","ALLEY":" ","HOUSE_NO":"２９號五樓之１０","E_COORD97":170480.92000000001,"N_COORD97":2545714.0699999998,"ADDRESS":"開元路４８５巷２９號五樓之１０","OBJECTID":249897},"geometry":{"x":170480.92000000086,"y":2545714.0700000022}},{"attributes":{"ID":249902,"DIS_CODE":0,"TOWNNAME":"北區","LI":"元寶里","LIN":"14鄰","STREET":"開元路","SECT":" ","MAREA":" ","LANE":"４８５巷","ALLEY":" ","HOUSE_NO":"２９號五樓之１２","E_COORD97":170480.92000000001,"N_COORD97":2545714.0699999998,"ADDRESS":"開元路４８５巷２９號五樓之１２","OBJECTID":249898},"geometry":{"x":170480.92000000086,"y":2545714.0700000022}},{"attributes":{"ID":249903,"DIS_CODE":0,"TOWNNAME":"北區","LI":"元寶里","LIN":"14鄰","STREET":"開元路","SECT":" ","MAREA":" ","LANE":"４８５巷","ALLEY":" ","HOUSE_NO":"２９號五樓之２","E_COORD97":170480.92000000001,"N_COORD97":2545714.0699999998,"ADDRESS":"開元路４８５巷２９號五樓之２","OBJECTID":249899},"geometry":{"x":170480.92000000086,"y":2545714.0700000022}},{"attributes":{"ID":249904,"DIS_CODE":0,"TOWNNAME":"安南區","LI":"州北里","LIN":"14鄰","STREET":"安和路","SECT":"五段","MAREA":" ","LANE":" ","ALLEY":" ","HOUSE_NO":"１５２號","E_COORD97":169898.67000000001,"N_COORD97":2551806.6800000002,"ADDRESS":"安和路五段１５２號","OBJECTID":249900},"geometry":{"x":169898.66999999899,"y":2551806.6799999997}},{"attributes":{"ID":249905,"DIS_CODE":0,"TOWNNAME":"東區","LI":"東門里","LIN":"1鄰","STREET":"東門路","SECT":"一段","MAREA":" ","LANE":" ","ALLEY":" ","HOUSE_NO":"３７號","E_COORD97":169213.82999999999,"N_COORD97":2543267.8700000001,"ADDRESS":"東門路一段３７號","OBJECTID":249901},"geometry":{"x":169213.83000000101,"y":2543267.8700000029}},{"attributes":{"ID":249906,"DIS_CODE":0,"TOWNNAME":"永康區","LI":"尚頂里","LIN":"11鄰","STREET":"正南一街","SECT":" ","MAREA":" ","LANE":"５７巷","ALLEY":" ","HOUSE_NO":"９８號","E_COORD97":171392.04000000001,"N_COORD97":2547331.7200000002,"ADDRESS":"正南一街５７巷９８號","OBJECTID":249902},"geometry":{"x":171392.04000000097,"y":2547331.7200000007}},{"attributes":{"ID":249907,"DIS_CODE":0,"TOWNNAME":"北區","LI":"元寶里","LIN":"14鄰","STREET":"開元路","SECT":" ","MAREA":" ","LANE":"４８５巷","ALLEY":" ","HOUSE_NO":"２９號五樓之６","E_COORD97":170480.92000000001,"N_COORD97":2545714.0699999998,"ADDRESS":"開元路４８５巷２９號五樓之６","OBJECTID":249903},"geometry":{"x":170480.92000000086,"y":2545714.0700000022}},{"attributes":{"ID":249908,"DIS_CODE":0,"TOWNNAME":"北區","LI":"元寶里","LIN":"14鄰","STREET":"開元路","SECT":" ","MAREA":" ","LANE":"４８５巷","ALLEY":" ","HOUSE_NO":"２９號五樓之８","E_COORD97":170480.92000000001,"N_COORD97":2545714.0699999998,"ADDRESS":"開元路４８５巷２９號五樓之８","OBJECTID":249904},"geometry":{"x":170480.92000000086,"y":2545714.0700000022}},{"attributes":{"ID":249909,"DIS_CODE":0,"TOWNNAME":"北區","LI":"元寶里","LIN":"14鄰","STREET":"開元路","SECT":" ","MAREA":" ","LANE":"４８５巷","ALLEY":" ","HOUSE_NO":"２９號六樓之１０","E_COORD97":170480.92000000001,"N_COORD97":2545714.0699999998,"ADDRESS":"開元路４８５巷２９號六樓之１０","OBJECTID":249905},"geometry":{"x":170480.92000000086,"y":2545714.0700000022}},{"attributes":{"ID":249910,"DIS_CODE":0,"TOWNNAME":"北區","LI":"元寶里","LIN":"14鄰","STREET":"開元路","SECT":" ","MAREA":" ","LANE":"４８５巷","ALLEY":" ","HOUSE_NO":"２９號六樓之１２","E_COORD97":170480.92000000001,"N_COORD97":2545714.0699999998,"ADDRESS":"開元路４８５巷２９號六樓之１２","OBJECTID":249906},"geometry":{"x":170480.92000000086,"y":2545714.0700000022}},{"attributes":{"ID":249911,"DIS_CODE":0,"TOWNNAME":"北區","LI":"元寶里","LIN":"14鄰","STREET":"開元路","SECT":" ","MAREA":" ","LANE":"４８５巷","ALLEY":" ","HOUSE_NO":"２９號六樓之２","E_COORD97":170480.92000000001,"N_COORD97":2545714.0699999998,"ADDRESS":"開元路４８５巷２９號六樓之２","OBJECTID":249907},"geometry":{"x":170480.92000000086,"y":2545714.0700000022}},{"attributes":{"ID":249912,"DIS_CODE":0,"TOWNNAME":"北區","LI":"元寶里","LIN":"14鄰","STREET":"開元路","SECT":" ","MAREA":" ","LANE":"４８５巷","ALLEY":" ","HOUSE_NO":"２９號六樓之６","E_COORD97":170480.92000000001,"N_COORD97":2545714.0699999998,"ADDRESS":"開元路４８５巷２９號六樓之６","OBJECTID":249908},"geometry":{"x":170480.92000000086,"y":2545714.0700000022}},{"attributes":{"ID":249913,"DIS_CODE":0,"TOWNNAME":"北區","LI":"元寶里","LIN":"14鄰","STREET":"開元路","SECT":" ","MAREA":" ","LANE":"４８５巷","ALLEY":" ","HOUSE_NO":"２９號六樓之８","E_COORD97":170480.92000000001,"N_COORD97":2545714.0699999998,"ADDRESS":"開元路４８５巷２９號六樓之８","OBJECTID":249909},"geometry":{"x":170480.92000000086,"y":2545714.0700000022}},{"attributes":{"ID":249914,"DIS_CODE":0,"TOWNNAME":"北區","LI":"元寶里","LIN":"14鄰","STREET":"開元路","SECT":" ","MAREA":" ","LANE":"４８５巷","ALLEY":" ","HOUSE_NO":"２９號四樓之１０","E_COORD97":170480.92000000001,"N_COORD97":2545714.0699999998,"ADDRESS":"開元路４８５巷２９號四樓之１０","OBJECTID":249910},"geometry":{"x":170480.92000000086,"y":2545714.0700000022}},{"attributes":{"ID":249915,"DIS_CODE":0,"TOWNNAME":"北區","LI":"元寶里","LIN":"14鄰","STREET":"開元路","SECT":" ","MAREA":" ","LANE":"４８５巷","ALLEY":" ","HOUSE_NO":"２９號四樓之１２","E_COORD97":170480.92000000001,"N_COORD97":2545714.0699999998,"ADDRESS":"開元路４８５巷２９號四樓之１２","OBJECTID":249911},"geometry":{"x":170480.92000000086,"y":2545714.0700000022}},{"attributes":{"ID":249916,"DIS_CODE":0,"TOWNNAME":"北區","LI":"元寶里","LIN":"14鄰","STREET":"開元路","SECT":" ","MAREA":" ","LANE":"４８５巷","ALLEY":" ","HOUSE_NO":"２９號四樓之２","E_COORD97":170480.92000000001,"N_COORD97":2545714.0699999998,"ADDRESS":"開元路４８５巷２９號四樓之２","OBJECTID":249912},"geometry":{"x":170480.92000000086,"y":2545714.0700000022}},{"attributes":{"ID":249917,"DIS_CODE":0,"TOWNNAME":"北區","LI":"元寶里","LIN":"14鄰","STREET":"開元路","SECT":" ","MAREA":" ","LANE":"４８５巷","ALLEY":" ","HOUSE_NO":"２９號四樓之６","E_COORD97":170480.92000000001,"N_COORD97":2545714.0699999998,"ADDRESS":"開元路４８５巷２９號四樓之６","OBJECTID":249913},"geometry":{"x":170480.92000000086,"y":2545714.0700000022}},{"attributes":{"ID":249918,"DIS_CODE":0,"TOWNNAME":"北區","LI":"元寶里","LIN":"14鄰","STREET":"開元路","SECT":" ","MAREA":" ","LANE":"４８５巷","ALLEY":" ","HOUSE_NO":"２９號四樓之８","E_COORD97":170480.92000000001,"N_COORD97":2545714.0699999998,"ADDRESS":"開元路４８５巷２９號四樓之８","OBJECTID":249914},"geometry":{"x":170480.92000000086,"y":2545714.0700000022}},{"attributes":{"ID":249919,"DIS_CODE":0,"TOWNNAME":"新化區","LI":"武安里","LIN":"14鄰","STREET":"健康路","SECT":" ","MAREA":" ","LANE":"１０１巷","ALLEY":" ","HOUSE_NO":"５號六樓之２","E_COORD97":178772.19,"N_COORD97":2548139.2599999998,"ADDRESS":"健康路１０１巷５號六樓之２","OBJECTID":249915},"geometry":{"x":178772.19000000134,"y":2548139.2600000016}},{"attributes":{"ID":249920,"DIS_CODE":0,"TOWNNAME":"新化區","LI":"武安里","LIN":"14鄰","STREET":"健康路","SECT":" ","MAREA":" ","LANE":"１０１巷","ALLEY":" ","HOUSE_NO":"５號三樓之１","E_COORD97":178772.16,"N_COORD97":2548139.2599999998,"ADDRESS":"健康路１０１巷５號三樓之１","OBJECTID":249916},"geometry":{"x":178772.16000000108,"y":2548139.2600000016}},{"attributes":{"ID":249921,"DIS_CODE":0,"TOWNNAME":"新化區","LI":"武安里","LIN":"14鄰","STREET":"健康路","SECT":" ","MAREA":" ","LANE":"１０１巷","ALLEY":" ","HOUSE_NO":"５號三樓之３","E_COORD97":178772.17999999999,"N_COORD97":2548139.2599999998,"ADDRESS":"健康路１０１巷５號三樓之３","OBJECTID":249917},"geometry":{"x":178772.1799999997,"y":2548139.2600000016}},{"attributes":{"ID":249922,"DIS_CODE":0,"TOWNNAME":"安南區","LI":"州北里","LIN":"14鄰","STREET":"安和路","SECT":"五段","MAREA":" ","LANE":" ","ALLEY":" ","HOUSE_NO":"１５４號","E_COORD97":169896.54000000001,"N_COORD97":2551810.1699999999,"ADDRESS":"安和路五段１５４號","OBJECTID":249918},"geometry":{"x":169896.54000000097,"y":2551810.1699999999}},{"attributes":{"ID":249923,"DIS_CODE":0,"TOWNNAME":"永康區","LI":"復華里","LIN":"32鄰","STREET":"國華街","SECT":" ","MAREA":" ","LANE":"１２５巷","ALLEY":" ","HOUSE_NO":"１０號","E_COORD97":172565.66,"N_COORD97":2546283.4900000002,"ADDRESS":"國華街１２５巷１０號","OBJECTID":249919},"geometry":{"x":172565.66000000201,"y":2546283.4900000021}},{"attributes":{"ID":249924,"DIS_CODE":0,"TOWNNAME":"永康區","LI":"復國里","LIN":"31鄰","STREET":"復國一路","SECT":" ","MAREA":" ","LANE":"１４１巷","ALLEY":" ","HOUSE_NO":"１１號","E_COORD97":172672.53,"N_COORD97":2545124.6499999999,"ADDRESS":"復國一路１４１巷１１號","OBJECTID":249920},"geometry":{"x":172672.53000000119,"y":2545124.6500000004}},{"attributes":{"ID":249925,"DIS_CODE":0,"TOWNNAME":"永康區","LI":"復國里","LIN":"6鄰","STREET":"復國一路","SECT":" ","MAREA":" ","LANE":"１２０巷","ALLEY":" ","HOUSE_NO":"１３號","E_COORD97":172751.95000000001,"N_COORD97":2545029.8599999999,"ADDRESS":"復國一路１２０巷１３號","OBJECTID":249921},"geometry":{"x":172751.95000000205,"y":2545029.8599999994}},{"attributes":{"ID":249926,"DIS_CODE":0,"TOWNNAME":"永康區","LI":"復國里","LIN":"29鄰","STREET":"復華二街","SECT":" ","MAREA":" ","LANE":"１３巷","ALLEY":" ","HOUSE_NO":"８號","E_COORD97":172617.10000000001,"N_COORD97":2545321.77,"ADDRESS":"復華二街１３巷８號","OBJECTID":249922},"geometry":{"x":172617.10000000056,"y":2545321.7700000014}},{"attributes":{"ID":249927,"DIS_CODE":0,"TOWNNAME":"永康區","LI":"復國里","LIN":"16鄰","STREET":"復國二路","SECT":" ","MAREA":" ","LANE":"１９６巷","ALLEY":" ","HOUSE_NO":"２號","E_COORD97":172955.23000000001,"N_COORD97":2545780.7999999998,"ADDRESS":"復國二路１９６巷２號","OBJECTID":249923},"geometry":{"x":172955.22999999952,"y":2545780.8000000026}},{"attributes":{"ID":249928,"DIS_CODE":0,"TOWNNAME":"新化區","LI":"武安里","LIN":"14鄰","STREET":"健康路","SECT":" ","MAREA":" ","LANE":"１０１巷","ALLEY":" ","HOUSE_NO":"５號二樓之２","E_COORD97":178772.19,"N_COORD97":2548139.2599999998,"ADDRESS":"健康路１０１巷５號二樓之２","OBJECTID":249924},"geometry":{"x":178772.19000000134,"y":2548139.2600000016}},{"attributes":{"ID":249929,"DIS_CODE":0,"TOWNNAME":"新化區","LI":"武安里","LIN":"14鄰","STREET":"健康路","SECT":" ","MAREA":" ","LANE":"１０１巷","ALLEY":" ","HOUSE_NO":"５號五樓之１","E_COORD97":178772.16,"N_COORD97":2548139.2599999998,"ADDRESS":"健康路１０１巷５號五樓之１","OBJECTID":249925},"geometry":{"x":178772.16000000108,"y":2548139.2600000016}},{"attributes":{"ID":249930,"DIS_CODE":0,"TOWNNAME":"新化區","LI":"武安里","LIN":"14鄰","STREET":"健康路","SECT":" ","MAREA":" ","LANE":"１０１巷","ALLEY":" ","HOUSE_NO":"５號六樓之１","E_COORD97":178772.16,"N_COORD97":2548139.2599999998,"ADDRESS":"健康路１０１巷５號六樓之１","OBJECTID":249926},"geometry":{"x":178772.16000000108,"y":2548139.2600000016}},{"attributes":{"ID":249931,"DIS_CODE":0,"TOWNNAME":"新化區","LI":"武安里","LIN":"14鄰","STREET":"健康路","SECT":" ","MAREA":" ","LANE":"１０１巷","ALLEY":" ","HOUSE_NO":"５號五樓之５","E_COORD97":178772.19,"N_COORD97":2548139.2599999998,"ADDRESS":"健康路１０１巷５號五樓之５","OBJECTID":249927},"geometry":{"x":178772.19000000134,"y":2548139.2600000016}},{"attributes":{"ID":249932,"DIS_CODE":0,"TOWNNAME":"東區","LI":"德光里","LIN":"14鄰","STREET":"崇德二街","SECT":" ","MAREA":" ","LANE":"６巷","ALLEY":" ","HOUSE_NO":"２４號四樓之２","E_COORD97":170169.32000000001,"N_COORD97":2542324.2599999998,"ADDRESS":"崇德二街６巷２４號四樓之２","OBJECTID":249928},"geometry":{"x":170169.31999999937,"y":2542324.2600000016}},{"attributes":{"ID":249933,"DIS_CODE":0,"TOWNNAME":"東區","LI":"德光里","LIN":"14鄰","STREET":"崇德二街","SECT":" ","MAREA":" ","LANE":"６巷","ALLEY":" ","HOUSE_NO":"２６號七樓","E_COORD97":170173.26000000001,"N_COORD97":2542327.5499999998,"ADDRESS":"崇德二街６巷２６號七樓","OBJECTID":249929},"geometry":{"x":170173.26000000071,"y":2542327.5500000026}},{"attributes":{"ID":249934,"DIS_CODE":0,"TOWNNAME":"永康區","LI":"復國里","LIN":"33鄰","STREET":"復華一街","SECT":" ","MAREA":" ","LANE":"６６巷","ALLEY":" ","HOUSE_NO":"８２號","E_COORD97":172499.341254,"N_COORD97":2545104.9138199999,"ADDRESS":"復華一街６６巷８２號","OBJECTID":249930},"geometry":{"x":172499.34125400148,"y":2545104.9138230029}},{"attributes":{"ID":249935,"DIS_CODE":0,"TOWNNAME":"東區","LI":"德光里","LIN":"14鄰","STREET":"崇德二街","SECT":" ","MAREA":" ","LANE":"６巷","ALLEY":" ","HOUSE_NO":"２６號七樓之１","E_COORD97":170173.26000000001,"N_COORD97":2542327.5499999998,"ADDRESS":"崇德二街６巷２６號七樓之１","OBJECTID":249931},"geometry":{"x":170173.26000000071,"y":2542327.5500000026}},{"attributes":{"ID":249936,"DIS_CODE":0,"TOWNNAME":"東區","LI":"德光里","LIN":"14鄰","STREET":"崇德二街","SECT":" ","MAREA":" ","LANE":"６巷","ALLEY":" ","HOUSE_NO":"２６號二樓","E_COORD97":170173.26000000001,"N_COORD97":2542327.5499999998,"ADDRESS":"崇德二街６巷２６號二樓","OBJECTID":249932},"geometry":{"x":170173.26000000071,"y":2542327.5500000026}},{"attributes":{"ID":249937,"DIS_CODE":0,"TOWNNAME":"東區","LI":"德光里","LIN":"14鄰","STREET":"崇德二街","SECT":" ","MAREA":" ","LANE":"６巷","ALLEY":" ","HOUSE_NO":"２６號三樓","E_COORD97":170173.26000000001,"N_COORD97":2542327.5499999998,"ADDRESS":"崇德二街６巷２６號三樓","OBJECTID":249933},"geometry":{"x":170173.26000000071,"y":2542327.5500000026}},{"attributes":{"ID":249938,"DIS_CODE":0,"TOWNNAME":"東區","LI":"德光里","LIN":"14鄰","STREET":"崇德二街","SECT":" ","MAREA":" ","LANE":"６巷","ALLEY":" ","HOUSE_NO":"２６號六樓","E_COORD97":170173.26000000001,"N_COORD97":2542327.5499999998,"ADDRESS":"崇德二街６巷２６號六樓","OBJECTID":249934},"geometry":{"x":170173.26000000071,"y":2542327.5500000026}},{"attributes":{"ID":249939,"DIS_CODE":0,"TOWNNAME":"東區","LI":"德光里","LIN":"14鄰","STREET":"崇德二街","SECT":" ","MAREA":" ","LANE":"６巷","ALLEY":" ","HOUSE_NO":"２６號四樓","E_COORD97":170173.26000000001,"N_COORD97":2542327.5499999998,"ADDRESS":"崇德二街６巷２６號四樓","OBJECTID":249935},"geometry":{"x":170173.26000000071,"y":2542327.5500000026}},{"attributes":{"ID":249940,"DIS_CODE":0,"TOWNNAME":"東區","LI":"德光里","LIN":"14鄰","STREET":"崇德二街","SECT":" ","MAREA":" ","LANE":"６巷","ALLEY":" ","HOUSE_NO":"２８號七樓","E_COORD97":170177.39999999999,"N_COORD97":2542324.1699999999,"ADDRESS":"崇德二街６巷２８號七樓","OBJECTID":249936},"geometry":{"x":170177.40000000224,"y":2542324.1699999981}},{"attributes":{"ID":249941,"DIS_CODE":0,"TOWNNAME":"東區","LI":"德光里","LIN":"14鄰","STREET":"崇德二街","SECT":" ","MAREA":" ","LANE":"６巷","ALLEY":" ","HOUSE_NO":"２８號三樓","E_COORD97":170177.39999999999,"N_COORD97":2542324.1699999999,"ADDRESS":"崇德二街６巷２８號三樓","OBJECTID":249937},"geometry":{"x":170177.40000000224,"y":2542324.1699999981}},{"attributes":{"ID":249942,"DIS_CODE":0,"TOWNNAME":"安南區","LI":"州北里","LIN":"14鄰","STREET":"安和路","SECT":"五段","MAREA":" ","LANE":" ","ALLEY":" ","HOUSE_NO":"１５６號","E_COORD97":169894.31,"N_COORD97":2551813.8999999999,"ADDRESS":"安和路五段１５６號","OBJECTID":249938},"geometry":{"x":169894.31000000052,"y":2551813.9000000022}},{"attributes":{"ID":249943,"DIS_CODE":0,"TOWNNAME":"安南區","LI":"州北里","LIN":"14鄰","STREET":"安和路","SECT":"五段","MAREA":" ","LANE":" ","ALLEY":" ","HOUSE_NO":"１５８號","E_COORD97":169893.29000000001,"N_COORD97":2551817.48,"ADDRESS":"安和路五段１５８號","OBJECTID":249939},"geometry":{"x":169893.29000000097,"y":2551817.4800000023}},{"attributes":{"ID":249944,"DIS_CODE":0,"TOWNNAME":"安南區","LI":"州北里","LIN":"14鄰","STREET":"安和路","SECT":"五段","MAREA":" ","LANE":" ","ALLEY":" ","HOUSE_NO":"１６０號","E_COORD97":169891.04999999999,"N_COORD97":2551820.8500000001,"ADDRESS":"安和路五段１６０號","OBJECTID":249940},"geometry":{"x":169891.05000000168,"y":2551820.8500000015}},{"attributes":{"ID":249945,"DIS_CODE":0,"TOWNNAME":"安南區","LI":"州北里","LIN":"14鄰","STREET":"安和路","SECT":"五段","MAREA":" ","LANE":" ","ALLEY":" ","HOUSE_NO":"１６２號","E_COORD97":169888.37,"N_COORD97":2551825.0600000001,"ADDRESS":"安和路五段１６２號","OBJECTID":249941},"geometry":{"x":169888.37000000011,"y":2551825.0600000005}},{"attributes":{"ID":249946,"DIS_CODE":0,"TOWNNAME":"安南區","LI":"州北里","LIN":"14鄰","STREET":"安和路","SECT":"五段","MAREA":" ","LANE":" ","ALLEY":" ","HOUSE_NO":"１６６號","E_COORD97":169883.25,"N_COORD97":2551832.3399999999,"ADDRESS":"安和路五段１６６號","OBJECTID":249942},"geometry":{"x":169883.25000000093,"y":2551832.3399999999}},{"attributes":{"ID":249947,"DIS_CODE":0,"TOWNNAME":"東區","LI":"德光里","LIN":"14鄰","STREET":"崇德二街","SECT":" ","MAREA":" ","LANE":"６巷","ALLEY":" ","HOUSE_NO":"２８號五樓","E_COORD97":170177.39999999999,"N_COORD97":2542324.1699999999,"ADDRESS":"崇德二街６巷２８號五樓","OBJECTID":249943},"geometry":{"x":170177.40000000224,"y":2542324.1699999981}},{"attributes":{"ID":249948,"DIS_CODE":0,"TOWNNAME":"東區","LI":"德光里","LIN":"14鄰","STREET":"崇德二街","SECT":" ","MAREA":" ","LANE":"６巷","ALLEY":" ","HOUSE_NO":"２８號六樓","E_COORD97":170177.39999999999,"N_COORD97":2542324.1699999999,"ADDRESS":"崇德二街６巷２８號六樓","OBJECTID":249944},"geometry":{"x":170177.40000000224,"y":2542324.1699999981}},{"attributes":{"ID":249949,"DIS_CODE":0,"TOWNNAME":"東區","LI":"德光里","LIN":"14鄰","STREET":"崇德二街","SECT":" ","MAREA":" ","LANE":"６巷","ALLEY":" ","HOUSE_NO":"２８號四樓","E_COORD97":170177.39999999999,"N_COORD97":2542324.1699999999,"ADDRESS":"崇德二街６巷２８號四樓","OBJECTID":249945},"geometry":{"x":170177.40000000224,"y":2542324.1699999981}},{"attributes":{"ID":249950,"DIS_CODE":0,"TOWNNAME":"中西區","LI":"小西里","LIN":"14鄰","STREET":"府前路","SECT":"一段","MAREA":" ","LANE":"３５９巷","ALLEY":" ","HOUSE_NO":"３４號二樓","E_COORD97":167921.82000000001,"N_COORD97":2543362.2799999998,"ADDRESS":"府前路一段３５９巷３４號二樓","OBJECTID":249946},"geometry":{"x":167921.82000000123,"y":2543362.2799999993}},{"attributes":{"ID":249951,"DIS_CODE":0,"TOWNNAME":"中西區","LI":"小西里","LIN":"14鄰","STREET":"府前路","SECT":"一段","MAREA":" ","LANE":"３５９巷","ALLEY":" ","HOUSE_NO":"３８號七樓之１","E_COORD97":167921.94,"N_COORD97":2543345.96,"ADDRESS":"府前路一段３５９巷３８號七樓之１","OBJECTID":249947},"geometry":{"x":167921.94000000041,"y":2543345.9600000009}},{"attributes":{"ID":249952,"DIS_CODE":0,"TOWNNAME":"中西區","LI":"小西里","LIN":"14鄰","STREET":"府前路","SECT":"一段","MAREA":" ","LANE":"３５９巷","ALLEY":" ","HOUSE_NO":"３８號七樓之２","E_COORD97":167921.94,"N_COORD97":2543345.96,"ADDRESS":"府前路一段３５９巷３８號七樓之２","OBJECTID":249948},"geometry":{"x":167921.94000000041,"y":2543345.9600000009}},{"attributes":{"ID":249953,"DIS_CODE":0,"TOWNNAME":"中西區","LI":"小西里","LIN":"14鄰","STREET":"府前路","SECT":"一段","MAREA":" ","LANE":"３５９巷","ALLEY":" ","HOUSE_NO":"３８號七樓之３","E_COORD97":167921.94,"N_COORD97":2543345.96,"ADDRESS":"府前路一段３５９巷３８號七樓之３","OBJECTID":249949},"geometry":{"x":167921.94000000041,"y":2543345.9600000009}},{"attributes":{"ID":249954,"DIS_CODE":0,"TOWNNAME":"中西區","LI":"小西里","LIN":"14鄰","STREET":"府前路","SECT":"一段","MAREA":" ","LANE":"３５９巷","ALLEY":" ","HOUSE_NO":"３８號七樓之４","E_COORD97":167921.94,"N_COORD97":2543345.96,"ADDRESS":"府前路一段３５９巷３８號七樓之４","OBJECTID":249950},"geometry":{"x":167921.94000000041,"y":2543345.9600000009}},{"attributes":{"ID":249955,"DIS_CODE":0,"TOWNNAME":"中西區","LI":"小西里","LIN":"14鄰","STREET":"府前路","SECT":"一段","MAREA":" ","LANE":"３５９巷","ALLEY":" ","HOUSE_NO":"３８號七樓之５","E_COORD97":167921.94,"N_COORD97":2543345.96,"ADDRESS":"府前路一段３５９巷３８號七樓之５","OBJECTID":249951},"geometry":{"x":167921.94000000041,"y":2543345.9600000009}},{"attributes":{"ID":249956,"DIS_CODE":0,"TOWNNAME":"中西區","LI":"小西里","LIN":"14鄰","STREET":"府前路","SECT":"一段","MAREA":" ","LANE":"３５９巷","ALLEY":" ","HOUSE_NO":"３８號二樓之１","E_COORD97":167921.94,"N_COORD97":2543345.96,"ADDRESS":"府前路一段３５９巷３８號二樓之１","OBJECTID":249952},"geometry":{"x":167921.94000000041,"y":2543345.9600000009}},{"attributes":{"ID":249957,"DIS_CODE":0,"TOWNNAME":"中西區","LI":"小西里","LIN":"14鄰","STREET":"府前路","SECT":"一段","MAREA":" ","LANE":"３５９巷","ALLEY":" ","HOUSE_NO":"３８號二樓之２","E_COORD97":167921.94,"N_COORD97":2543345.96,"ADDRESS":"府前路一段３５９巷３８號二樓之２","OBJECTID":249953},"geometry":{"x":167921.94000000041,"y":2543345.9600000009}},{"attributes":{"ID":249958,"DIS_CODE":0,"TOWNNAME":"中西區","LI":"小西里","LIN":"14鄰","STREET":"府前路","SECT":"一段","MAREA":" ","LANE":"３５９巷","ALLEY":" ","HOUSE_NO":"３８號二樓之３","E_COORD97":167921.94,"N_COORD97":2543345.96,"ADDRESS":"府前路一段３５９巷３８號二樓之３","OBJECTID":249954},"geometry":{"x":167921.94000000041,"y":2543345.9600000009}},{"attributes":{"ID":249959,"DIS_CODE":0,"TOWNNAME":"中西區","LI":"小西里","LIN":"14鄰","STREET":"府前路","SECT":"一段","MAREA":" ","LANE":"３５９巷","ALLEY":" ","HOUSE_NO":"３８號二樓之４","E_COORD97":167921.94,"N_COORD97":2543345.96,"ADDRESS":"府前路一段３５９巷３８號二樓之４","OBJECTID":249955},"geometry":{"x":167921.94000000041,"y":2543345.9600000009}},{"attributes":{"ID":249960,"DIS_CODE":0,"TOWNNAME":"中西區","LI":"小西里","LIN":"14鄰","STREET":"府前路","SECT":"一段","MAREA":" ","LANE":"３５９巷","ALLEY":" ","HOUSE_NO":"３８號二樓之５","E_COORD97":167921.94,"N_COORD97":2543345.96,"ADDRESS":"府前路一段３５９巷３８號二樓之５","OBJECTID":249956},"geometry":{"x":167921.94000000041,"y":2543345.9600000009}},{"attributes":{"ID":249961,"DIS_CODE":0,"TOWNNAME":"中西區","LI":"小西里","LIN":"14鄰","STREET":"府前路","SECT":"一段","MAREA":" ","LANE":"３５９巷","ALLEY":" ","HOUSE_NO":"３８號八樓之１","E_COORD97":167921.94,"N_COORD97":2543345.96,"ADDRESS":"府前路一段３５９巷３８號八樓之１","OBJECTID":249957},"geometry":{"x":167921.94000000041,"y":2543345.9600000009}},{"attributes":{"ID":249962,"DIS_CODE":0,"TOWNNAME":"佳里區","LI":"建南里","LIN":"11鄰","STREET":"光復路","SECT":" ","MAREA":" ","LANE":"１２７巷","ALLEY":" ","HOUSE_NO":"１２號之３３","E_COORD97":165360.28,"N_COORD97":2562121.1800000002,"ADDRESS":"光復路１２７巷１２號之３３","OBJECTID":249958},"geometry":{"x":165360.27999999933,"y":2562121.1800000016}},{"attributes":{"ID":249963,"DIS_CODE":0,"TOWNNAME":"中西區","LI":"小西里","LIN":"14鄰","STREET":"府前路","SECT":"一段","MAREA":" ","LANE":"３５９巷","ALLEY":" ","HOUSE_NO":"３８號八樓之２","E_COORD97":167921.94,"N_COORD97":2543345.96,"ADDRESS":"府前路一段３５９巷３８號八樓之２","OBJECTID":249959},"geometry":{"x":167921.94000000041,"y":2543345.9600000009}},{"attributes":{"ID":249964,"DIS_CODE":0,"TOWNNAME":"中西區","LI":"小西里","LIN":"14鄰","STREET":"府前路","SECT":"一段","MAREA":" ","LANE":"３５９巷","ALLEY":" ","HOUSE_NO":"３８號八樓之３","E_COORD97":167921.94,"N_COORD97":2543345.96,"ADDRESS":"府前路一段３５９巷３８號八樓之３","OBJECTID":249960},"geometry":{"x":167921.94000000041,"y":2543345.9600000009}},{"attributes":{"ID":249965,"DIS_CODE":0,"TOWNNAME":"中西區","LI":"小西里","LIN":"14鄰","STREET":"府前路","SECT":"一段","MAREA":" ","LANE":"３５９巷","ALLEY":" ","HOUSE_NO":"３８號八樓之４","E_COORD97":167921.94,"N_COORD97":2543345.96,"ADDRESS":"府前路一段３５９巷３８號八樓之４","OBJECTID":249961},"geometry":{"x":167921.94000000041,"y":2543345.9600000009}},{"attributes":{"ID":249966,"DIS_CODE":0,"TOWNNAME":"中西區","LI":"小西里","LIN":"14鄰","STREET":"府前路","SECT":"一段","MAREA":" ","LANE":"３５９巷","ALLEY":" ","HOUSE_NO":"３８號八樓之５","E_COORD97":167921.94,"N_COORD97":2543345.96,"ADDRESS":"府前路一段３５９巷３８號八樓之５","OBJECTID":249962},"geometry":{"x":167921.94000000041,"y":2543345.9600000009}},{"attributes":{"ID":249967,"DIS_CODE":0,"TOWNNAME":"中西區","LI":"小西里","LIN":"14鄰","STREET":"府前路","SECT":"一段","MAREA":" ","LANE":"３５９巷","ALLEY":" ","HOUSE_NO":"３８號三樓之２","E_COORD97":167921.94,"N_COORD97":2543345.96,"ADDRESS":"府前路一段３５９巷３８號三樓之２","OBJECTID":249963},"geometry":{"x":167921.94000000041,"y":2543345.9600000009}},{"attributes":{"ID":249968,"DIS_CODE":0,"TOWNNAME":"中西區","LI":"小西里","LIN":"14鄰","STREET":"府前路","SECT":"一段","MAREA":" ","LANE":"３５９巷","ALLEY":" ","HOUSE_NO":"３８號三樓之３","E_COORD97":167921.94,"N_COORD97":2543345.96,"ADDRESS":"府前路一段３５９巷３８號三樓之３","OBJECTID":249964},"geometry":{"x":167921.94000000041,"y":2543345.9600000009}},{"attributes":{"ID":249969,"DIS_CODE":0,"TOWNNAME":"中西區","LI":"小西里","LIN":"14鄰","STREET":"府前路","SECT":"一段","MAREA":" ","LANE":"３５９巷","ALLEY":" ","HOUSE_NO":"３８號三樓之４","E_COORD97":167921.94,"N_COORD97":2543345.96,"ADDRESS":"府前路一段３５９巷３８號三樓之４","OBJECTID":249965},"geometry":{"x":167921.94000000041,"y":2543345.9600000009}},{"attributes":{"ID":249970,"DIS_CODE":0,"TOWNNAME":"歸仁區","LI":"看西里","LIN":"13鄰","STREET":"仁愛南街","SECT":" ","MAREA":" ","LANE":"２３５巷","ALLEY":" ","HOUSE_NO":"１號","E_COORD97":178316.26000000001,"N_COORD97":2540161.1200000001,"ADDRESS":"仁愛南街２３５巷１號","OBJECTID":249966},"geometry":{"x":178316.26000000164,"y":2540161.1200000029}},{"attributes":{"ID":249971,"DIS_CODE":0,"TOWNNAME":"中西區","LI":"小西里","LIN":"14鄰","STREET":"府前路","SECT":"一段","MAREA":" ","LANE":"３５９巷","ALLEY":" ","HOUSE_NO":"３８號三樓之５","E_COORD97":167921.94,"N_COORD97":2543345.96,"ADDRESS":"府前路一段３５９巷３８號三樓之５","OBJECTID":249967},"geometry":{"x":167921.94000000041,"y":2543345.9600000009}},{"attributes":{"ID":249972,"DIS_CODE":0,"TOWNNAME":"中西區","LI":"小西里","LIN":"14鄰","STREET":"府前路","SECT":"一段","MAREA":" ","LANE":"３５９巷","ALLEY":" ","HOUSE_NO":"３８號五樓之１","E_COORD97":167921.94,"N_COORD97":2543345.96,"ADDRESS":"府前路一段３５９巷３８號五樓之１","OBJECTID":249968},"geometry":{"x":167921.94000000041,"y":2543345.9600000009}},{"attributes":{"ID":249973,"DIS_CODE":0,"TOWNNAME":"中西區","LI":"小西里","LIN":"14鄰","STREET":"府前路","SECT":"一段","MAREA":" ","LANE":"３５９巷","ALLEY":" ","HOUSE_NO":"３８號五樓之２","E_COORD97":167921.94,"N_COORD97":2543345.96,"ADDRESS":"府前路一段３５９巷３８號五樓之２","OBJECTID":249969},"geometry":{"x":167921.94000000041,"y":2543345.9600000009}},{"attributes":{"ID":249974,"DIS_CODE":0,"TOWNNAME":"中西區","LI":"小西里","LIN":"14鄰","STREET":"府前路","SECT":"一段","MAREA":" ","LANE":"３５９巷","ALLEY":" ","HOUSE_NO":"３８號五樓之３","E_COORD97":167921.94,"N_COORD97":2543345.96,"ADDRESS":"府前路一段３５９巷３８號五樓之３","OBJECTID":249970},"geometry":{"x":167921.94000000041,"y":2543345.9600000009}},{"attributes":{"ID":249975,"DIS_CODE":0,"TOWNNAME":"中西區","LI":"小西里","LIN":"14鄰","STREET":"府前路","SECT":"一段","MAREA":" ","LANE":"３５９巷","ALLEY":" ","HOUSE_NO":"３８號五樓之４","E_COORD97":167921.94,"N_COORD97":2543345.96,"ADDRESS":"府前路一段３５９巷３８號五樓之４","OBJECTID":249971},"geometry":{"x":167921.94000000041,"y":2543345.9600000009}},{"attributes":{"ID":249976,"DIS_CODE":0,"TOWNNAME":"中西區","LI":"小西里","LIN":"14鄰","STREET":"府前路","SECT":"一段","MAREA":" ","LANE":"３５９巷","ALLEY":" ","HOUSE_NO":"３８號五樓之５","E_COORD97":167921.94,"N_COORD97":2543345.96,"ADDRESS":"府前路一段３５９巷３８號五樓之５","OBJECTID":249972},"geometry":{"x":167921.94000000041,"y":2543345.9600000009}},{"attributes":{"ID":249977,"DIS_CODE":0,"TOWNNAME":"中西區","LI":"小西里","LIN":"14鄰","STREET":"府前路","SECT":"一段","MAREA":" ","LANE":"３５９巷","ALLEY":" ","HOUSE_NO":"３８號六樓之１","E_COORD97":167921.94,"N_COORD97":2543345.96,"ADDRESS":"府前路一段３５９巷３８號六樓之１","OBJECTID":249973},"geometry":{"x":167921.94000000041,"y":2543345.9600000009}},{"attributes":{"ID":249978,"DIS_CODE":0,"TOWNNAME":"中西區","LI":"小西里","LIN":"14鄰","STREET":"府前路","SECT":"一段","MAREA":" ","LANE":"３５９巷","ALLEY":" ","HOUSE_NO":"３８號六樓之２","E_COORD97":167921.94,"N_COORD97":2543345.96,"ADDRESS":"府前路一段３５９巷３８號六樓之２","OBJECTID":249974},"geometry":{"x":167921.94000000041,"y":2543345.9600000009}},{"attributes":{"ID":249979,"DIS_CODE":0,"TOWNNAME":"中西區","LI":"小西里","LIN":"14鄰","STREET":"府前路","SECT":"一段","MAREA":" ","LANE":"３５９巷","ALLEY":" ","HOUSE_NO":"３８號六樓之３","E_COORD97":167921.94,"N_COORD97":2543345.96,"ADDRESS":"府前路一段３５９巷３８號六樓之３","OBJECTID":249975},"geometry":{"x":167921.94000000041,"y":2543345.9600000009}},{"attributes":{"ID":249980,"DIS_CODE":0,"TOWNNAME":"七股區","LI":"三股里","LIN":"11鄰","STREET":" ","SECT":" ","MAREA":"三股","LANE":" ","ALLEY":" ","HOUSE_NO":"３１號之１１","E_COORD97":159405.10999999999,"N_COORD97":2555534.7000000002,"ADDRESS":"三股３１號之１１","OBJECTID":249976},"geometry":{"x":159405.11000000127,"y":2555534.6999999993}},{"attributes":{"ID":249981,"DIS_CODE":0,"TOWNNAME":"中西區","LI":"小西里","LIN":"14鄰","STREET":"府前路","SECT":"一段","MAREA":" ","LANE":"３５９巷","ALLEY":" ","HOUSE_NO":"３８號六樓之４","E_COORD97":167921.94,"N_COORD97":2543345.96,"ADDRESS":"府前路一段３５９巷３８號六樓之４","OBJECTID":249977},"geometry":{"x":167921.94000000041,"y":2543345.9600000009}},{"attributes":{"ID":249982,"DIS_CODE":0,"TOWNNAME":"中西區","LI":"小西里","LIN":"14鄰","STREET":"府前路","SECT":"一段","MAREA":" ","LANE":"３５９巷","ALLEY":" ","HOUSE_NO":"３８號六樓之５","E_COORD97":167921.94,"N_COORD97":2543345.96,"ADDRESS":"府前路一段３５９巷３８號六樓之５","OBJECTID":249978},"geometry":{"x":167921.94000000041,"y":2543345.9600000009}},{"attributes":{"ID":249983,"DIS_CODE":0,"TOWNNAME":"安南區","LI":"州北里","LIN":"14鄰","STREET":"安和路","SECT":"五段","MAREA":" ","LANE":" ","ALLEY":" ","HOUSE_NO":"１７０號","E_COORD97":169879.60000000001,"N_COORD97":2551839.0600000001,"ADDRESS":"安和路五段１７０號","OBJECTID":249979},"geometry":{"x":169879.59999999963,"y":2551839.0599999987}},{"attributes":{"ID":249984,"DIS_CODE":0,"TOWNNAME":"永康區","LI":"復華里","LIN":"15鄰","STREET":"國華街","SECT":" ","MAREA":" ","LANE":"９３巷","ALLEY":" ","HOUSE_NO":"８號","E_COORD97":172800.53,"N_COORD97":2546015.4900000002,"ADDRESS":"國華街９３巷８號","OBJECTID":249980},"geometry":{"x":172800.53000000212,"y":2546015.4900000021}},{"attributes":{"ID":249985,"DIS_CODE":0,"TOWNNAME":"楠西區","LI":"灣丘里","LIN":"8鄰","STREET":" ","SECT":" ","MAREA":"灣丘","LANE":" ","ALLEY":" ","HOUSE_NO":"７８號之１","E_COORD97":201108.280547,"N_COORD97":2564375.2297200002,"ADDRESS":"灣丘７８號之１","OBJECTID":249981},"geometry":{"x":201108.28054700047,"y":2564375.2297220007}},{"attributes":{"ID":249986,"DIS_CODE":0,"TOWNNAME":"永康區","LI":"復國里","LIN":"31鄰","STREET":"復國一路","SECT":" ","MAREA":" ","LANE":"１４１巷","ALLEY":" ","HOUSE_NO":"７號","E_COORD97":172680.20000000001,"N_COORD97":2545123.3999999999,"ADDRESS":"復國一路１４１巷７號","OBJECTID":249982},"geometry":{"x":172680.20000000019,"y":2545123.4000000004}},{"attributes":{"ID":249987,"DIS_CODE":0,"TOWNNAME":"中西區","LI":"小西里","LIN":"14鄰","STREET":"府前路","SECT":"一段","MAREA":" ","LANE":"３５９巷","ALLEY":" ","HOUSE_NO":"３８號四樓之１","E_COORD97":167921.94,"N_COORD97":2543345.96,"ADDRESS":"府前路一段３５９巷３８號四樓之１","OBJECTID":249983},"geometry":{"x":167921.94000000041,"y":2543345.9600000009}},{"attributes":{"ID":249988,"DIS_CODE":0,"TOWNNAME":"中西區","LI":"小西里","LIN":"14鄰","STREET":"府前路","SECT":"一段","MAREA":" ","LANE":"３５９巷","ALLEY":" ","HOUSE_NO":"３８號四樓之２","E_COORD97":167921.94,"N_COORD97":2543345.96,"ADDRESS":"府前路一段３５９巷３８號四樓之２","OBJECTID":249984},"geometry":{"x":167921.94000000041,"y":2543345.9600000009}},{"attributes":{"ID":249989,"DIS_CODE":0,"TOWNNAME":"中西區","LI":"小西里","LIN":"14鄰","STREET":"府前路","SECT":"一段","MAREA":" ","LANE":"３５９巷","ALLEY":" ","HOUSE_NO":"３８號四樓之３","E_COORD97":167921.94,"N_COORD97":2543345.96,"ADDRESS":"府前路一段３５９巷３８號四樓之３","OBJECTID":249985},"geometry":{"x":167921.94000000041,"y":2543345.9600000009}},{"attributes":{"ID":249990,"DIS_CODE":0,"TOWNNAME":"中西區","LI":"小西里","LIN":"14鄰","STREET":"府前路","SECT":"一段","MAREA":" ","LANE":"３５９巷","ALLEY":" ","HOUSE_NO":"３８號四樓之４","E_COORD97":167921.94,"N_COORD97":2543345.96,"ADDRESS":"府前路一段３５９巷３８號四樓之４","OBJECTID":249986},"geometry":{"x":167921.94000000041,"y":2543345.9600000009}},{"attributes":{"ID":249991,"DIS_CODE":0,"TOWNNAME":"中西區","LI":"小西里","LIN":"14鄰","STREET":"府前路","SECT":"一段","MAREA":" ","LANE":"３５９巷","ALLEY":" ","HOUSE_NO":"３８號四樓之５","E_COORD97":167921.94,"N_COORD97":2543345.96,"ADDRESS":"府前路一段３５９巷３８號四樓之５","OBJECTID":249987},"geometry":{"x":167921.94000000041,"y":2543345.9600000009}},{"attributes":{"ID":249992,"DIS_CODE":0,"TOWNNAME":"中西區","LI":"小西里","LIN":"14鄰","STREET":"府前路","SECT":"一段","MAREA":" ","LANE":"３５９巷","ALLEY":" ","HOUSE_NO":"３８號三樓之１","E_COORD97":167921.94,"N_COORD97":2543345.96,"ADDRESS":"府前路一段３５９巷３８號三樓之１","OBJECTID":249988},"geometry":{"x":167921.94000000041,"y":2543345.9600000009}},{"attributes":{"ID":249993,"DIS_CODE":0,"TOWNNAME":"中西區","LI":"小西里","LIN":"14鄰","STREET":"府前路","SECT":"一段","MAREA":" ","LANE":"３５９巷","ALLEY":" ","HOUSE_NO":"２８號一樓","E_COORD97":167918.67000000001,"N_COORD97":2543369.77,"ADDRESS":"府前路一段３５９巷２８號一樓","OBJECTID":249989},"geometry":{"x":167918.66999999899,"y":2543369.7699999996}},{"attributes":{"ID":249994,"DIS_CODE":0,"TOWNNAME":"中西區","LI":"小西里","LIN":"14鄰","STREET":"府前路","SECT":"一段","MAREA":" ","LANE":"３５９巷","ALLEY":" ","HOUSE_NO":"２８號七樓之１","E_COORD97":167918.67000000001,"N_COORD97":2543369.77,"ADDRESS":"府前路一段３５９巷２８號七樓之１","OBJECTID":249990},"geometry":{"x":167918.66999999899,"y":2543369.7699999996}},{"attributes":{"ID":249995,"DIS_CODE":0,"TOWNNAME":"中西區","LI":"小西里","LIN":"14鄰","STREET":"府前路","SECT":"一段","MAREA":" ","LANE":"３５９巷","ALLEY":" ","HOUSE_NO":"２８號七樓之２","E_COORD97":167918.67000000001,"N_COORD97":2543369.77,"ADDRESS":"府前路一段３５９巷２８號七樓之２","OBJECTID":249991},"geometry":{"x":167918.66999999899,"y":2543369.7699999996}},{"attributes":{"ID":249996,"DIS_CODE":0,"TOWNNAME":"中西區","LI":"小西里","LIN":"14鄰","STREET":"府前路","SECT":"一段","MAREA":" ","LANE":"３５９巷","ALLEY":" ","HOUSE_NO":"２８號二樓之１","E_COORD97":167918.67000000001,"N_COORD97":2543369.77,"ADDRESS":"府前路一段３５９巷２８號二樓之１","OBJECTID":249992},"geometry":{"x":167918.66999999899,"y":2543369.7699999996}},{"attributes":{"ID":249997,"DIS_CODE":0,"TOWNNAME":"中西區","LI":"小西里","LIN":"14鄰","STREET":"府前路","SECT":"一段","MAREA":" ","LANE":"３５９巷","ALLEY":" ","HOUSE_NO":"２８號二樓之２","E_COORD97":167918.67000000001,"N_COORD97":2543369.77,"ADDRESS":"府前路一段３５９巷２８號二樓之２","OBJECTID":249993},"geometry":{"x":167918.66999999899,"y":2543369.7699999996}},{"attributes":{"ID":249998,"DIS_CODE":0,"TOWNNAME":"中西區","LI":"小西里","LIN":"14鄰","STREET":"府前路","SECT":"一段","MAREA":" ","LANE":"３５９巷","ALLEY":" ","HOUSE_NO":"２８號三樓之１","E_COORD97":167918.67000000001,"N_COORD97":2543369.77,"ADDRESS":"府前路一段３５９巷２８號三樓之１","OBJECTID":249994},"geometry":{"x":167918.66999999899,"y":2543369.7699999996}},{"attributes":{"ID":249999,"DIS_CODE":0,"TOWNNAME":"安南區","LI":"州北里","LIN":"14鄰","STREET":"安和路","SECT":"五段","MAREA":" ","LANE":" ","ALLEY":" ","HOUSE_NO":"１７６號","E_COORD97":169873.75,"N_COORD97":2551850.4399999999,"ADDRESS":"安和路五段１７６號","OBJECTID":249995},"geometry":{"x":169873.75,"y":2551850.4400000013}},{"attributes":{"ID":250000,"DIS_CODE":0,"TOWNNAME":"安南區","LI":"安慶里","LIN":"14鄰","STREET":"安中路","SECT":"一段","MAREA":" ","LANE":" ","ALLEY":" ","HOUSE_NO":"１００號","E_COORD97":169007.91,"N_COORD97":2548370.1800000002,"ADDRESS":"安中路一段１００號","OBJECTID":249996},"geometry":{"x":169007.91000000108,"y":2548370.1800000016}},{"attributes":{"ID":250001,"DIS_CODE":0,"TOWNNAME":"永康區","LI":"復國里","LIN":"18鄰","STREET":"復國一路","SECT":" ","MAREA":" ","LANE":"３３４巷","ALLEY":" ","HOUSE_NO":"７號","E_COORD97":172800.79000000001,"N_COORD97":2545670.52,"ADDRESS":"復國一路３３４巷７號","OBJECTID":249997},"geometry":{"x":172800.79000000097,"y":2545670.5199999996}},{"attributes":{"ID":250002,"DIS_CODE":0,"TOWNNAME":"永康區","LI":"復國里","LIN":"18鄰","STREET":"復國一路","SECT":" ","MAREA":" ","LANE":"３２２巷","ALLEY":" ","HOUSE_NO":"１３號","E_COORD97":172811.84,"N_COORD97":2545635.52,"ADDRESS":"復國一路３２２巷１３號","OBJECTID":249998},"geometry":{"x":172811.84000000078,"y":2545635.5200000014}},{"attributes":{"ID":250003,"DIS_CODE":0,"TOWNNAME":"永康區","LI":"復華里","LIN":"25鄰","STREET":"復華八街","SECT":" ","MAREA":" ","LANE":"４７巷","ALLEY":" ","HOUSE_NO":"３６號","E_COORD97":172685.64000000001,"N_COORD97":2546385.6600000001,"ADDRESS":"復華八街４７巷３６號","OBJECTID":249999},"geometry":{"x":172685.64000000153,"y":2546385.6600000001}},{"attributes":{"ID":250004,"DIS_CODE":0,"TOWNNAME":"永康區","LI":"勝利里","LIN":"13鄰","STREET":"勝利街","SECT":" ","MAREA":" ","LANE":"７５巷","ALLEY":" ","HOUSE_NO":"１７號","E_COORD97":171287.32000000001,"N_COORD97":2544745,"ADDRESS":"勝利街７５巷１７號","OBJECTID":250000},"geometry":{"x":171287.32000000123,"y":2544745}}]}