{"displayFieldName":"TOWNNAME","fieldAliases":{"ID":"ID","DIS_CODE":"DIS_CODE","TOWNNAME":"TOWNNAME","LI":"LI","LIN":"LIN","STREET":"STREET","SECT":"SECT","MAREA":"MAREA","LANE":"LANE","ALLEY":"ALLEY","HOUSE_NO":"HOUSE_NO","E_COORD97":"E_COORD97","N_COORD97":"N_COORD97","ADDRESS":"ADDRESS","OBJECTID":"OBJECTID"},"geometryType":"esriGeometryPoint","spatialReference":{"wkid":102443,"latestWkid":3826},"fields":[{"name":"ID","type":"esriFieldTypeDouble","alias":"ID"},{"name":"DIS_CODE","type":"esriFieldTypeInteger","alias":"DIS_CODE"},{"name":"TOWNNAME","type":"esriFieldTypeString","alias":"TOWNNAME","length":8},{"name":"LI","type":"esriFieldTypeString","alias":"LI","length":8},{"name":"LIN","type":"esriFieldTypeString","alias":"LIN","length":12},{"name":"STREET","type":"esriFieldTypeString","alias":"STREET","length":20},{"name":"SECT","type":"esriFieldTypeString","alias":"SECT","length":8},{"name":"MAREA","type":"esriFieldTypeString","alias":"MAREA","length":12},{"name":"LANE","type":"esriFieldTypeString","alias":"LANE","length":10},{"name":"ALLEY","type":"esriFieldTypeString","alias":"ALLEY","length":10},{"name":"HOUSE_NO","type":"esriFieldTypeString","alias":"HOUSE_NO","length":20},{"name":"E_COORD97","type":"esriFieldTypeDouble","alias":"E_COORD97"},{"name":"N_COORD97","type":"esriFieldTypeDouble","alias":"N_COORD97"},{"name":"ADDRESS","type":"esriFieldTypeString","alias":"ADDRESS","length":50},{"name":"OBJECTID","type":"esriFieldTypeOID","alias":"OBJECTID"}],"features":[{"attributes":{"ID":238805,"DIS_CODE":0,"TOWNNAME":"東區","LI":"成大里","LIN":"16鄰","STREET":"育樂街","SECT":" ","MAREA":" ","LANE":"１４８巷","ALLEY":" ","HOUSE_NO":"３號","E_COORD97":169472.82999999999,"N_COORD97":2544027.4100000001,"ADDRESS":"育樂街１４８巷３號","OBJECTID":238801},"geometry":{"x":169472.83000000101,"y":2544027.4100000001}},{"attributes":{"ID":238806,"DIS_CODE":0,"TOWNNAME":"東區","LI":"成大里","LIN":"16鄰","STREET":"育樂街","SECT":" ","MAREA":" ","LANE":"１４８巷","ALLEY":" ","HOUSE_NO":"５號","E_COORD97":169467.92999999999,"N_COORD97":2544027.9900000002,"ADDRESS":"育樂街１４８巷５號","OBJECTID":238802},"geometry":{"x":169467.93000000156,"y":2544027.9900000039}},{"attributes":{"ID":238807,"DIS_CODE":0,"TOWNNAME":"東區","LI":"成大里","LIN":"16鄰","STREET":"育樂街","SECT":" ","MAREA":" ","LANE":"１４８巷","ALLEY":" ","HOUSE_NO":"７號","E_COORD97":169462.82999999999,"N_COORD97":2544028.3900000001,"ADDRESS":"育樂街１４８巷７號","OBJECTID":238803},"geometry":{"x":169462.83000000101,"y":2544028.3900000006}},{"attributes":{"ID":238808,"DIS_CODE":0,"TOWNNAME":"東區","LI":"成大里","LIN":"16鄰","STREET":"育樂街","SECT":" ","MAREA":" ","LANE":"１４８巷","ALLEY":" ","HOUSE_NO":"９號","E_COORD97":169457.92000000001,"N_COORD97":2544028.7799999998,"ADDRESS":"育樂街１４８巷９號","OBJECTID":238804},"geometry":{"x":169457.91999999899,"y":2544028.7800000012}},{"attributes":{"ID":238809,"DIS_CODE":0,"TOWNNAME":"永康區","LI":"復國里","LIN":"11鄰","STREET":"復國一路","SECT":" ","MAREA":" ","LANE":"２７６巷","ALLEY":" ","HOUSE_NO":"１８號","E_COORD97":172831.14000000001,"N_COORD97":2545405.2999999998,"ADDRESS":"復國一路２７６巷１８號","OBJECTID":238805},"geometry":{"x":172831.13999999966,"y":2545405.3000000007}},{"attributes":{"ID":238810,"DIS_CODE":0,"TOWNNAME":"安南區","LI":"新順里","LIN":"13鄰","STREET":"開安路","SECT":" ","MAREA":" ","LANE":"６３巷","ALLEY":" ","HOUSE_NO":"６７號","E_COORD97":170139.79999999999,"N_COORD97":2549851.1899999999,"ADDRESS":"開安路６３巷６７號","OBJECTID":238806},"geometry":{"x":170139.79999999981,"y":2549851.1900000013}},{"attributes":{"ID":238811,"DIS_CODE":0,"TOWNNAME":"安南區","LI":"新順里","LIN":"13鄰","STREET":"開安路","SECT":" ","MAREA":" ","LANE":"６３巷","ALLEY":" ","HOUSE_NO":"６９號","E_COORD97":170121.70000000001,"N_COORD97":2549860.0800000001,"ADDRESS":"開安路６３巷６９號","OBJECTID":238807},"geometry":{"x":170121.70000000112,"y":2549860.0800000019}},{"attributes":{"ID":238812,"DIS_CODE":0,"TOWNNAME":"安南區","LI":"淵東里","LIN":"13鄰","STREET":"本原街","SECT":"三段","MAREA":" ","LANE":"２４巷","ALLEY":" ","HOUSE_NO":"７號","E_COORD97":165687.23000000001,"N_COORD97":2550445.3700000001,"ADDRESS":"本原街三段２４巷７號","OBJECTID":238808},"geometry":{"x":165687.23000000138,"y":2550445.3700000029}},{"attributes":{"ID":238813,"DIS_CODE":0,"TOWNNAME":"安南區","LI":"長安里","LIN":"13鄰","STREET":"長和路","SECT":"四段","MAREA":" ","LANE":"３５６巷","ALLEY":" ","HOUSE_NO":"６０號","E_COORD97":168182.57999999999,"N_COORD97":2552083.4399999999,"ADDRESS":"長和路四段３５６巷６０號","OBJECTID":238809},"geometry":{"x":168182.58000000101,"y":2552083.4400000013}},{"attributes":{"ID":238814,"DIS_CODE":0,"TOWNNAME":"南區","LI":"再興里","LIN":"13鄰","STREET":"三官路","SECT":" ","MAREA":" ","LANE":"１７６巷","ALLEY":" ","HOUSE_NO":"７號","E_COORD97":167240.95000000001,"N_COORD97":2542096.6899999999,"ADDRESS":"三官路１７６巷７號","OBJECTID":238810},"geometry":{"x":167240.95000000112,"y":2542096.6900000032}},{"attributes":{"ID":238815,"DIS_CODE":0,"TOWNNAME":"南區","LI":"再興里","LIN":"13鄰","STREET":"三官路","SECT":" ","MAREA":" ","LANE":"１７６巷","ALLEY":" ","HOUSE_NO":"９號","E_COORD97":167242.75,"N_COORD97":2542101.4399999999,"ADDRESS":"三官路１７６巷９號","OBJECTID":238811},"geometry":{"x":167242.75000000093,"y":2542101.4399999995}},{"attributes":{"ID":238816,"DIS_CODE":0,"TOWNNAME":"南區","LI":"再興里","LIN":"13鄰","STREET":"三官路","SECT":" ","MAREA":" ","LANE":"１７６巷","ALLEY":" ","HOUSE_NO":"１１號","E_COORD97":167244.76000000001,"N_COORD97":2542105.2400000002,"ADDRESS":"三官路１７６巷１１號","OBJECTID":238812},"geometry":{"x":167244.75999999978,"y":2542105.2400000021}},{"attributes":{"ID":238817,"DIS_CODE":0,"TOWNNAME":"南區","LI":"再興里","LIN":"13鄰","STREET":"三官路","SECT":" ","MAREA":" ","LANE":"１７６巷","ALLEY":" ","HOUSE_NO":"１３號","E_COORD97":167244.85999999999,"N_COORD97":2542109.0499999998,"ADDRESS":"三官路１７６巷１３號","OBJECTID":238813},"geometry":{"x":167244.8599999994,"y":2542109.0500000045}},{"attributes":{"ID":238818,"DIS_CODE":0,"TOWNNAME":"南區","LI":"再興里","LIN":"13鄰","STREET":"三官路","SECT":" ","MAREA":" ","LANE":"１７６巷","ALLEY":" ","HOUSE_NO":"１５號","E_COORD97":167246.01999999999,"N_COORD97":2542112.3300000001,"ADDRESS":"三官路１７６巷１５號","OBJECTID":238814},"geometry":{"x":167246.01999999955,"y":2542112.3300000001}},{"attributes":{"ID":238819,"DIS_CODE":0,"TOWNNAME":"南區","LI":"佛壇里","LIN":"13鄰","STREET":"灣裡路","SECT":" ","MAREA":" ","LANE":"５１６巷","ALLEY":" ","HOUSE_NO":"１５號","E_COORD97":166230.82999999999,"N_COORD97":2535792.6000000001,"ADDRESS":"灣裡路５１６巷１５號","OBJECTID":238815},"geometry":{"x":166230.83000000007,"y":2535792.6000000015}},{"attributes":{"ID":238820,"DIS_CODE":0,"TOWNNAME":"新營區","LI":"嘉芳里","LIN":"14鄰","STREET":"五福路","SECT":" ","MAREA":" ","LANE":" ","ALLEY":" ","HOUSE_NO":"１３號","E_COORD97":176666.82000000001,"N_COORD97":2578254.3900000001,"ADDRESS":"五福路１３號","OBJECTID":238816},"geometry":{"x":176666.8200000003,"y":2578254.3900000006}},{"attributes":{"ID":238821,"DIS_CODE":0,"TOWNNAME":"南區","LI":"新昌里","LIN":"14鄰","STREET":"府緯街","SECT":" ","MAREA":" ","LANE":" ","ALLEY":" ","HOUSE_NO":"１１２號","E_COORD97":167595.54000000001,"N_COORD97":2542731.9900000002,"ADDRESS":"府緯街１１２號","OBJECTID":238817},"geometry":{"x":167595.54000000004,"y":2542731.9900000002}},{"attributes":{"ID":238822,"DIS_CODE":0,"TOWNNAME":"南區","LI":"新昌里","LIN":"14鄰","STREET":"府緯街","SECT":" ","MAREA":" ","LANE":" ","ALLEY":" ","HOUSE_NO":"１１４號","E_COORD97":167591.16,"N_COORD97":2542731.9900000002,"ADDRESS":"府緯街１１４號","OBJECTID":238818},"geometry":{"x":167591.16000000015,"y":2542731.9900000002}},{"attributes":{"ID":238823,"DIS_CODE":0,"TOWNNAME":"南區","LI":"新昌里","LIN":"14鄰","STREET":"府緯街","SECT":" ","MAREA":" ","LANE":" ","ALLEY":" ","HOUSE_NO":"１１６號","E_COORD97":167585.95999999999,"N_COORD97":2542735.3999999999,"ADDRESS":"府緯街１１６號","OBJECTID":238819},"geometry":{"x":167585.95999999996,"y":2542735.4000000004}},{"attributes":{"ID":238824,"DIS_CODE":0,"TOWNNAME":"南區","LI":"新興里","LIN":"14鄰","STREET":"夏林路","SECT":" ","MAREA":" ","LANE":" ","ALLEY":" ","HOUSE_NO":"１３６號","E_COORD97":167445.42999999999,"N_COORD97":2542439.0099999998,"ADDRESS":"夏林路１３６號","OBJECTID":238820},"geometry":{"x":167445.42999999877,"y":2542439.0099999998}},{"attributes":{"ID":238825,"DIS_CODE":0,"TOWNNAME":"南區","LI":"新興里","LIN":"14鄰","STREET":"夏林路","SECT":" ","MAREA":" ","LANE":" ","ALLEY":" ","HOUSE_NO":"１３８號","E_COORD97":167445.01000000001,"N_COORD97":2542435.3500000001,"ADDRESS":"夏林路１３８號","OBJECTID":238821},"geometry":{"x":167445.01000000164,"y":2542435.3500000015}},{"attributes":{"ID":238826,"DIS_CODE":0,"TOWNNAME":"南區","LI":"新興里","LIN":"14鄰","STREET":"夏林路","SECT":" ","MAREA":" ","LANE":" ","ALLEY":" ","HOUSE_NO":"１４０號","E_COORD97":167444.42999999999,"N_COORD97":2542430,"ADDRESS":"夏林路１４０號","OBJECTID":238822},"geometry":{"x":167444.43000000063,"y":2542430}},{"attributes":{"ID":238827,"DIS_CODE":0,"TOWNNAME":"南區","LI":"新興里","LIN":"14鄰","STREET":"夏林路","SECT":" ","MAREA":" ","LANE":" ","ALLEY":" ","HOUSE_NO":"１４４號","E_COORD97":167441.44,"N_COORD97":2542426.3799999999,"ADDRESS":"夏林路１４４號","OBJECTID":238823},"geometry":{"x":167441.44000000134,"y":2542426.379999999}},{"attributes":{"ID":238828,"DIS_CODE":0,"TOWNNAME":"南區","LI":"新興里","LIN":"14鄰","STREET":"夏林路","SECT":" ","MAREA":" ","LANE":" ","ALLEY":" ","HOUSE_NO":"１４６號","E_COORD97":167441.35000000001,"N_COORD97":2542422.5299999998,"ADDRESS":"夏林路１４６號","OBJECTID":238824},"geometry":{"x":167441.35000000056,"y":2542422.5299999993}},{"attributes":{"ID":238829,"DIS_CODE":0,"TOWNNAME":"南區","LI":"新興里","LIN":"14鄰","STREET":"夏林路","SECT":" ","MAREA":" ","LANE":" ","ALLEY":" ","HOUSE_NO":"１４８號","E_COORD97":167441.35000000001,"N_COORD97":2542417.9900000002,"ADDRESS":"夏林路１４８號","OBJECTID":238825},"geometry":{"x":167441.35000000056,"y":2542417.9900000021}},{"attributes":{"ID":238830,"DIS_CODE":0,"TOWNNAME":"南區","LI":"新興里","LIN":"14鄰","STREET":"夏林路","SECT":" ","MAREA":" ","LANE":" ","ALLEY":" ","HOUSE_NO":"１５０號","E_COORD97":167440.54999999999,"N_COORD97":2542413.4500000002,"ADDRESS":"夏林路１５０號","OBJECTID":238826},"geometry":{"x":167440.55000000075,"y":2542413.450000003}},{"attributes":{"ID":238831,"DIS_CODE":0,"TOWNNAME":"七股區","LI":"大潭里","LIN":"16鄰","STREET":" ","SECT":" ","MAREA":"頂潭","LANE":" ","ALLEY":" ","HOUSE_NO":"１３號","E_COORD97":161055,"N_COORD97":2565971.0899999999,"ADDRESS":"頂潭１３號","OBJECTID":238827},"geometry":{"x":161055.00000000093,"y":2565971.0900000017}},{"attributes":{"ID":238832,"DIS_CODE":0,"TOWNNAME":"永康區","LI":"復華里","LIN":"25鄰","STREET":"復華八街","SECT":" ","MAREA":" ","LANE":"４７巷","ALLEY":" ","HOUSE_NO":"８號","E_COORD97":172770.23000000001,"N_COORD97":2546384.77,"ADDRESS":"復華八街４７巷８號","OBJECTID":238828},"geometry":{"x":172770.23000000045,"y":2546384.7699999977}},{"attributes":{"ID":238833,"DIS_CODE":0,"TOWNNAME":"永康區","LI":"復國里","LIN":"14鄰","STREET":"復國二路","SECT":" ","MAREA":" ","LANE":"１３４巷","ALLEY":" ","HOUSE_NO":"１０號","E_COORD97":172924.12,"N_COORD97":2545566.77,"ADDRESS":"復國二路１３４巷１０號","OBJECTID":238829},"geometry":{"x":172924.12000000104,"y":2545566.7699999996}},{"attributes":{"ID":238834,"DIS_CODE":0,"TOWNNAME":"永康區","LI":"復國里","LIN":"9鄰","STREET":"復國一路","SECT":" ","MAREA":" ","LANE":"２１０巷","ALLEY":" ","HOUSE_NO":"１１號","E_COORD97":172775.62,"N_COORD97":2545216.5600000001,"ADDRESS":"復國一路２１０巷１１號","OBJECTID":238830},"geometry":{"x":172775.62000000011,"y":2545216.5600000005}},{"attributes":{"ID":238835,"DIS_CODE":0,"TOWNNAME":"永康區","LI":"復國里","LIN":"23鄰","STREET":"復國一路","SECT":" ","MAREA":" ","LANE":"３２９巷","ALLEY":" ","HOUSE_NO":"２號","E_COORD97":172733.06,"N_COORD97":2545676.27,"ADDRESS":"復國一路３２９巷２號","OBJECTID":238831},"geometry":{"x":172733.05999999959,"y":2545676.2699999977}},{"attributes":{"ID":238836,"DIS_CODE":0,"TOWNNAME":"南區","LI":"佛壇里","LIN":"13鄰","STREET":"灣裡路","SECT":" ","MAREA":" ","LANE":"５０６巷","ALLEY":" ","HOUSE_NO":"１號","E_COORD97":166238.42000000001,"N_COORD97":2535854.52,"ADDRESS":"灣裡路５０６巷１號","OBJECTID":238832},"geometry":{"x":166238.41999999993,"y":2535854.5200000014}},{"attributes":{"ID":238837,"DIS_CODE":0,"TOWNNAME":"七股區","LI":"大潭里","LIN":"16鄰","STREET":" ","SECT":" ","MAREA":"頂潭","LANE":" ","ALLEY":" ","HOUSE_NO":"１４號","E_COORD97":161020.75,"N_COORD97":2565993.3100000001,"ADDRESS":"頂潭１４號","OBJECTID":238833},"geometry":{"x":161020.75000000186,"y":2565993.3100000024}},{"attributes":{"ID":238838,"DIS_CODE":0,"TOWNNAME":"七股區","LI":"大潭里","LIN":"16鄰","STREET":" ","SECT":" ","MAREA":"頂潭","LANE":" ","ALLEY":" ","HOUSE_NO":"１５號之１","E_COORD97":161005.01999999999,"N_COORD97":2566002.9500000002,"ADDRESS":"頂潭１５號之１","OBJECTID":238834},"geometry":{"x":161005.02000000048,"y":2566002.9499999993}},{"attributes":{"ID":238839,"DIS_CODE":0,"TOWNNAME":"南區","LI":"佛壇里","LIN":"13鄰","STREET":"灣裡路","SECT":" ","MAREA":" ","LANE":"５０６巷","ALLEY":" ","HOUSE_NO":"３號","E_COORD97":166228.39000000001,"N_COORD97":2535860.7000000002,"ADDRESS":"灣裡路５０６巷３號","OBJECTID":238835},"geometry":{"x":166228.38999999966,"y":2535860.6999999993}},{"attributes":{"ID":238840,"DIS_CODE":0,"TOWNNAME":"南區","LI":"佛壇里","LIN":"13鄰","STREET":"灣裡路","SECT":" ","MAREA":" ","LANE":"５０６巷","ALLEY":" ","HOUSE_NO":"７號","E_COORD97":166228.39000000001,"N_COORD97":2535851.1099999999,"ADDRESS":"灣裡路５０６巷７號","OBJECTID":238836},"geometry":{"x":166228.38999999966,"y":2535851.1099999994}},{"attributes":{"ID":238841,"DIS_CODE":0,"TOWNNAME":"南區","LI":"佛壇里","LIN":"13鄰","STREET":"灣裡路","SECT":" ","MAREA":" ","LANE":"５０６巷","ALLEY":" ","HOUSE_NO":"１１號","E_COORD97":166207.70000000001,"N_COORD97":2535849.8300000001,"ADDRESS":"灣裡路５０６巷１１號","OBJECTID":238837},"geometry":{"x":166207.70000000019,"y":2535849.8300000001}},{"attributes":{"ID":238842,"DIS_CODE":0,"TOWNNAME":"南區","LI":"佛壇里","LIN":"13鄰","STREET":"灣裡路","SECT":" ","MAREA":" ","LANE":"５０６巷","ALLEY":" ","HOUSE_NO":"１７號","E_COORD97":166192.34,"N_COORD97":2535850.8999999999,"ADDRESS":"灣裡路５０６巷１７號","OBJECTID":238838},"geometry":{"x":166192.34000000078,"y":2535850.8999999985}},{"attributes":{"ID":238843,"DIS_CODE":0,"TOWNNAME":"南區","LI":"佛壇里","LIN":"13鄰","STREET":"灣裡路","SECT":" ","MAREA":" ","LANE":"５０６巷","ALLEY":" ","HOUSE_NO":"２１號","E_COORD97":166176.76999999999,"N_COORD97":2535850.8999999999,"ADDRESS":"灣裡路５０６巷２１號","OBJECTID":238839},"geometry":{"x":166176.77000000142,"y":2535850.8999999985}},{"attributes":{"ID":238844,"DIS_CODE":0,"TOWNNAME":"南區","LI":"佛壇里","LIN":"13鄰","STREET":"灣裡路","SECT":" ","MAREA":" ","LANE":"５１６巷","ALLEY":" ","HOUSE_NO":"１號","E_COORD97":166237.25,"N_COORD97":2535824.1000000001,"ADDRESS":"灣裡路５１６巷１號","OBJECTID":238840},"geometry":{"x":166237.25000000093,"y":2535824.0999999996}},{"attributes":{"ID":238845,"DIS_CODE":0,"TOWNNAME":"南區","LI":"佛壇里","LIN":"13鄰","STREET":"灣裡路","SECT":" ","MAREA":" ","LANE":"５１６巷","ALLEY":" ","HOUSE_NO":"３號","E_COORD97":166228.29000000001,"N_COORD97":2535822.8199999998,"ADDRESS":"灣裡路５１６巷３號","OBJECTID":238841},"geometry":{"x":166228.29000000097,"y":2535822.8200000003}},{"attributes":{"ID":238846,"DIS_CODE":0,"TOWNNAME":"南區","LI":"佛壇里","LIN":"13鄰","STREET":"灣裡路","SECT":" ","MAREA":" ","LANE":"５１６巷","ALLEY":" ","HOUSE_NO":"５號","E_COORD97":166238.92999999999,"N_COORD97":2535809.6400000001,"ADDRESS":"灣裡路５１６巷５號","OBJECTID":238842},"geometry":{"x":166238.93000000063,"y":2535809.6400000025}},{"attributes":{"ID":238847,"DIS_CODE":0,"TOWNNAME":"南區","LI":"新興里","LIN":"14鄰","STREET":"夏林路","SECT":" ","MAREA":" ","LANE":" ","ALLEY":" ","HOUSE_NO":"１５２號","E_COORD97":167440.54999999999,"N_COORD97":2542406.8900000001,"ADDRESS":"夏林路１５２號","OBJECTID":238843},"geometry":{"x":167440.55000000075,"y":2542406.8900000006}},{"attributes":{"ID":238848,"DIS_CODE":0,"TOWNNAME":"南區","LI":"新興里","LIN":"14鄰","STREET":"夏林路","SECT":" ","MAREA":" ","LANE":" ","ALLEY":" ","HOUSE_NO":"１５４號","E_COORD97":167439.57000000001,"N_COORD97":2542401.0600000001,"ADDRESS":"夏林路１５４號","OBJECTID":238844},"geometry":{"x":167439.5700000003,"y":2542401.0600000024}},{"attributes":{"ID":238849,"DIS_CODE":0,"TOWNNAME":"南區","LI":"新興里","LIN":"14鄰","STREET":"夏林路","SECT":" ","MAREA":" ","LANE":" ","ALLEY":" ","HOUSE_NO":"１５６號","E_COORD97":167439.26999999999,"N_COORD97":2542395.9300000002,"ADDRESS":"夏林路１５６號","OBJECTID":238845},"geometry":{"x":167439.26999999955,"y":2542395.9299999997}},{"attributes":{"ID":238850,"DIS_CODE":0,"TOWNNAME":"南區","LI":"新興里","LIN":"14鄰","STREET":"夏林路","SECT":" ","MAREA":" ","LANE":" ","ALLEY":" ","HOUSE_NO":"１５８號","E_COORD97":167439.95999999999,"N_COORD97":2542392.4300000002,"ADDRESS":"夏林路１５８號","OBJECTID":238846},"geometry":{"x":167439.95999999996,"y":2542392.4299999997}},{"attributes":{"ID":238851,"DIS_CODE":0,"TOWNNAME":"永康區","LI":"復華里","LIN":"12鄰","STREET":"國華街","SECT":" ","MAREA":" ","LANE":"１０２巷","ALLEY":" ","HOUSE_NO":"６號","E_COORD97":172834.32000000001,"N_COORD97":2546015.75,"ADDRESS":"國華街１０２巷６號","OBJECTID":238847},"geometry":{"x":172834.32000000216,"y":2546015.75}},{"attributes":{"ID":238852,"DIS_CODE":0,"TOWNNAME":"永康區","LI":"復國里","LIN":"9鄰","STREET":"復國一路","SECT":" ","MAREA":" ","LANE":"２１０巷","ALLEY":" ","HOUSE_NO":"６號","E_COORD97":172763.37,"N_COORD97":2545198.7200000002,"ADDRESS":"復國一路２１０巷６號","OBJECTID":238848},"geometry":{"x":172763.37000000011,"y":2545198.7200000007}},{"attributes":{"ID":238853,"DIS_CODE":0,"TOWNNAME":"南區","LI":"佛壇里","LIN":"13鄰","STREET":"灣裡路","SECT":" ","MAREA":" ","LANE":"５１６巷","ALLEY":" ","HOUSE_NO":"６號","E_COORD97":166231.28,"N_COORD97":2535837.7400000002,"ADDRESS":"灣裡路５１６巷６號","OBJECTID":238849},"geometry":{"x":166231.28000000026,"y":2535837.7400000002}},{"attributes":{"ID":238854,"DIS_CODE":0,"TOWNNAME":"南區","LI":"佛壇里","LIN":"13鄰","STREET":"灣裡路","SECT":" ","MAREA":" ","LANE":"５１６巷","ALLEY":" ","HOUSE_NO":"８號","E_COORD97":166221.47,"N_COORD97":2535836.6699999999,"ADDRESS":"灣裡路５１６巷８號","OBJECTID":238850},"geometry":{"x":166221.4700000016,"y":2535836.6700000018}},{"attributes":{"ID":238855,"DIS_CODE":0,"TOWNNAME":"南區","LI":"佛壇里","LIN":"13鄰","STREET":"灣裡路","SECT":" ","MAREA":" ","LANE":"５１６巷","ALLEY":" ","HOUSE_NO":"９號","E_COORD97":166241.70999999999,"N_COORD97":2535803.6699999999,"ADDRESS":"灣裡路５１６巷９號","OBJECTID":238851},"geometry":{"x":166241.70999999996,"y":2535803.6699999999}},{"attributes":{"ID":238856,"DIS_CODE":0,"TOWNNAME":"南區","LI":"佛壇里","LIN":"13鄰","STREET":"灣裡路","SECT":" ","MAREA":" ","LANE":"５１６巷","ALLEY":" ","HOUSE_NO":"１０號","E_COORD97":166212.51000000001,"N_COORD97":2535834.1099999999,"ADDRESS":"灣裡路５１６巷１０號","OBJECTID":238852},"geometry":{"x":166212.50999999978,"y":2535834.1099999994}},{"attributes":{"ID":238857,"DIS_CODE":0,"TOWNNAME":"南區","LI":"佛壇里","LIN":"13鄰","STREET":"灣裡路","SECT":" ","MAREA":" ","LANE":"５１６巷","ALLEY":" ","HOUSE_NO":"１２號","E_COORD97":166202.22,"N_COORD97":2535834.6400000001,"ADDRESS":"灣裡路５１６巷１２號","OBJECTID":238853},"geometry":{"x":166202.21999999974,"y":2535834.6400000006}},{"attributes":{"ID":238858,"DIS_CODE":0,"TOWNNAME":"七股區","LI":"後港里","LIN":"16鄰","STREET":" ","SECT":" ","MAREA":"港西","LANE":" ","ALLEY":" ","HOUSE_NO":"５８號","E_COORD97":162213.76999999999,"N_COORD97":2564914.0699999998,"ADDRESS":"港西５８號","OBJECTID":238854},"geometry":{"x":162213.77000000048,"y":2564914.0700000003}},{"attributes":{"ID":238859,"DIS_CODE":0,"TOWNNAME":"南區","LI":"佛壇里","LIN":"13鄰","STREET":"灣裡路","SECT":" ","MAREA":" ","LANE":"５１６巷","ALLEY":" ","HOUSE_NO":"１７號","E_COORD97":166218.06,"N_COORD97":2535825.1699999999,"ADDRESS":"灣裡路５１６巷１７號","OBJECTID":238855},"geometry":{"x":166218.06000000052,"y":2535825.1700000037}},{"attributes":{"ID":238860,"DIS_CODE":0,"TOWNNAME":"七股區","LI":"後港里","LIN":"16鄰","STREET":" ","SECT":" ","MAREA":"港西","LANE":" ","ALLEY":" ","HOUSE_NO":"６０號","E_COORD97":162205.79999999999,"N_COORD97":2564929,"ADDRESS":"港西６０號","OBJECTID":238856},"geometry":{"x":162205.80000000075,"y":2564929}},{"attributes":{"ID":238861,"DIS_CODE":0,"TOWNNAME":"南區","LI":"佛壇里","LIN":"13鄰","STREET":"灣裡路","SECT":" ","MAREA":" ","LANE":"５１６巷","ALLEY":" ","HOUSE_NO":"２０號","E_COORD97":166187.88,"N_COORD97":2535831.1200000001,"ADDRESS":"灣裡路５１６巷２０號","OBJECTID":238857},"geometry":{"x":166187.87999999989,"y":2535831.1200000029}},{"attributes":{"ID":238862,"DIS_CODE":0,"TOWNNAME":"七股區","LI":"龍山里","LIN":"16鄰","STREET":" ","SECT":" ","MAREA":"龍山","LANE":" ","ALLEY":" ","HOUSE_NO":"１５８號","E_COORD97":159212.64999999999,"N_COORD97":2560010.7599999998,"ADDRESS":"龍山１５８號","OBJECTID":238858},"geometry":{"x":159212.65000000037,"y":2560010.7599999998}},{"attributes":{"ID":238863,"DIS_CODE":0,"TOWNNAME":"七股區","LI":"龍山里","LIN":"16鄰","STREET":" ","SECT":" ","MAREA":"龍山","LANE":" ","ALLEY":" ","HOUSE_NO":"１５９號之１","E_COORD97":159247.39999999999,"N_COORD97":2559986.7799999998,"ADDRESS":"龍山１５９號之１","OBJECTID":238859},"geometry":{"x":159247.4000000013,"y":2559986.7799999975}},{"attributes":{"ID":238864,"DIS_CODE":0,"TOWNNAME":"七股區","LI":"龍山里","LIN":"16鄰","STREET":" ","SECT":" ","MAREA":"龍山","LANE":" ","ALLEY":" ","HOUSE_NO":"１５９號之２","E_COORD97":159267.54000000001,"N_COORD97":2559978.29,"ADDRESS":"龍山１５９號之２","OBJECTID":238860},"geometry":{"x":159267.5400000019,"y":2559978.2899999991}},{"attributes":{"ID":238865,"DIS_CODE":0,"TOWNNAME":"七股區","LI":"龍山里","LIN":"16鄰","STREET":" ","SECT":" ","MAREA":"龍山","LANE":" ","ALLEY":" ","HOUSE_NO":"１５９號","E_COORD97":159220.70999999999,"N_COORD97":2559994.3900000001,"ADDRESS":"龍山１５９號","OBJECTID":238861},"geometry":{"x":159220.71000000089,"y":2559994.3900000043}},{"attributes":{"ID":238866,"DIS_CODE":0,"TOWNNAME":"南區","LI":"府南里","LIN":"13鄰","STREET":"永成路","SECT":"三段","MAREA":" ","LANE":"３７２巷","ALLEY":" ","HOUSE_NO":"１１號","E_COORD97":167547.92000000001,"N_COORD97":2540999.6299999999,"ADDRESS":"永成路三段３７２巷１１號","OBJECTID":238862},"geometry":{"x":167547.92000000086,"y":2540999.6300000008}},{"attributes":{"ID":238867,"DIS_CODE":0,"TOWNNAME":"七股區","LI":"龍山里","LIN":"16鄰","STREET":" ","SECT":" ","MAREA":"龍山","LANE":" ","ALLEY":" ","HOUSE_NO":"１２１號之１","E_COORD97":159227.70999999999,"N_COORD97":2559923.3900000001,"ADDRESS":"龍山１２１號之１","OBJECTID":238863},"geometry":{"x":159227.71000000089,"y":2559923.3900000025}},{"attributes":{"ID":238868,"DIS_CODE":0,"TOWNNAME":"南區","LI":"新興里","LIN":"14鄰","STREET":"夏林路","SECT":" ","MAREA":" ","LANE":" ","ALLEY":" ","HOUSE_NO":"１６０號","E_COORD97":167440.06,"N_COORD97":2542387.1000000001,"ADDRESS":"夏林路１６０號","OBJECTID":238864},"geometry":{"x":167440.06000000052,"y":2542387.1000000015}},{"attributes":{"ID":238869,"DIS_CODE":0,"TOWNNAME":"南區","LI":"新興里","LIN":"14鄰","STREET":"夏林路","SECT":" ","MAREA":" ","LANE":" ","ALLEY":" ","HOUSE_NO":"１６２號","E_COORD97":167440.06,"N_COORD97":2542379.6000000001,"ADDRESS":"夏林路１６２號","OBJECTID":238865},"geometry":{"x":167440.06000000052,"y":2542379.6000000015}},{"attributes":{"ID":238870,"DIS_CODE":0,"TOWNNAME":"永康區","LI":"崑山里","LIN":"41鄰","STREET":"崑山街","SECT":" ","MAREA":" ","LANE":"２０３巷","ALLEY":" ","HOUSE_NO":"８號","E_COORD97":174047.37,"N_COORD97":2545013.1899999999,"ADDRESS":"崑山街２０３巷８號","OBJECTID":238866},"geometry":{"x":174047.36999999918,"y":2545013.1900000013}},{"attributes":{"ID":238871,"DIS_CODE":0,"TOWNNAME":"永康區","LI":"復華里","LIN":"37鄰","STREET":"復華七街","SECT":" ","MAREA":" ","LANE":"３２巷","ALLEY":" ","HOUSE_NO":"２９號","E_COORD97":172726.39999999999,"N_COORD97":2545951.52,"ADDRESS":"復華七街３２巷２９號","OBJECTID":238867},"geometry":{"x":172726.40000000037,"y":2545951.5199999996}},{"attributes":{"ID":238872,"DIS_CODE":0,"TOWNNAME":"安南區","LI":"淵西里","LIN":"16鄰","STREET":"安中路","SECT":"四段","MAREA":" ","LANE":"２２５巷","ALLEY":" ","HOUSE_NO":"１０６號","E_COORD97":164562.34,"N_COORD97":2550057.4100000001,"ADDRESS":"安中路四段２２５巷１０６號","OBJECTID":238868},"geometry":{"x":164562.33999999985,"y":2550057.410000002}},{"attributes":{"ID":238873,"DIS_CODE":0,"TOWNNAME":"東區","LI":"虎尾里","LIN":"13鄰","STREET":"東成街","SECT":" ","MAREA":" ","LANE":"１２１巷","ALLEY":" ","HOUSE_NO":"１號","E_COORD97":171635.22,"N_COORD97":2542306.0699999998,"ADDRESS":"東成街１２１巷１號","OBJECTID":238869},"geometry":{"x":171635.21999999974,"y":2542306.0700000022}},{"attributes":{"ID":238874,"DIS_CODE":0,"TOWNNAME":"安南區","LI":"淵西里","LIN":"16鄰","STREET":"安中路","SECT":"四段","MAREA":" ","LANE":"２２５巷","ALLEY":" ","HOUSE_NO":"１０８號","E_COORD97":164559.32000000001,"N_COORD97":2550058.3999999999,"ADDRESS":"安中路四段２２５巷１０８號","OBJECTID":238870},"geometry":{"x":164559.3200000003,"y":2550058.4000000022}},{"attributes":{"ID":238875,"DIS_CODE":0,"TOWNNAME":"安南區","LI":"淵西里","LIN":"16鄰","STREET":"安中路","SECT":"四段","MAREA":" ","LANE":"２２５巷","ALLEY":" ","HOUSE_NO":"１１６號","E_COORD97":164552.66,"N_COORD97":2550060.46,"ADDRESS":"安中路四段２２５巷１１６號","OBJECTID":238871},"geometry":{"x":164552.66000000108,"y":2550060.4600000046}},{"attributes":{"ID":238876,"DIS_CODE":0,"TOWNNAME":"安南區","LI":"淵西里","LIN":"16鄰","STREET":"安中路","SECT":"四段","MAREA":" ","LANE":"２２５巷","ALLEY":" ","HOUSE_NO":"１１８號","E_COORD97":164550.59,"N_COORD97":2550061.4100000001,"ADDRESS":"安中路四段２２５巷１１８號","OBJECTID":238872},"geometry":{"x":164550.58999999985,"y":2550061.410000002}},{"attributes":{"ID":238877,"DIS_CODE":0,"TOWNNAME":"安南區","LI":"淵西里","LIN":"16鄰","STREET":"安中路","SECT":"四段","MAREA":" ","LANE":"２２５巷","ALLEY":" ","HOUSE_NO":"１１０號","E_COORD97":164557.42000000001,"N_COORD97":2550059.1899999999,"ADDRESS":"安中路四段２２５巷１１０號","OBJECTID":238873},"geometry":{"x":164557.42000000086,"y":2550059.1899999995}},{"attributes":{"ID":238878,"DIS_CODE":0,"TOWNNAME":"安南區","LI":"淵西里","LIN":"16鄰","STREET":"安中路","SECT":"四段","MAREA":" ","LANE":"２２５巷","ALLEY":" ","HOUSE_NO":"１１２號","E_COORD97":164554.72,"N_COORD97":2550059.8300000001,"ADDRESS":"安中路四段２２５巷１１２號","OBJECTID":238874},"geometry":{"x":164554.71999999974,"y":2550059.8300000001}},{"attributes":{"ID":238879,"DIS_CODE":0,"TOWNNAME":"安南區","LI":"海東里","LIN":"16鄰","STREET":"海尾路","SECT":" ","MAREA":" ","LANE":" ","ALLEY":" ","HOUSE_NO":"１９２號","E_COORD97":166644.44289000001,"N_COORD97":2548712.42044,"ADDRESS":"海尾路１９２號","OBJECTID":238875},"geometry":{"x":166644.4428899996,"y":2548712.4204420019}},{"attributes":{"ID":238880,"DIS_CODE":0,"TOWNNAME":"南區","LI":"府南里","LIN":"13鄰","STREET":"永成路","SECT":"三段","MAREA":" ","LANE":"３７２巷","ALLEY":" ","HOUSE_NO":"１９號","E_COORD97":167566.97,"N_COORD97":2540997.6099999999,"ADDRESS":"永成路三段３７２巷１９號","OBJECTID":238876},"geometry":{"x":167566.96999999974,"y":2540997.6099999994}},{"attributes":{"ID":238881,"DIS_CODE":0,"TOWNNAME":"南區","LI":"府南里","LIN":"13鄰","STREET":"永成路","SECT":"三段","MAREA":" ","LANE":"３７２巷","ALLEY":" ","HOUSE_NO":"２１號","E_COORD97":167570.70999999999,"N_COORD97":2540998.6499999999,"ADDRESS":"永成路三段３７２巷２１號","OBJECTID":238877},"geometry":{"x":167570.70999999996,"y":2540998.6500000004}},{"attributes":{"ID":238882,"DIS_CODE":0,"TOWNNAME":"南區","LI":"府南里","LIN":"13鄰","STREET":"永成路","SECT":"三段","MAREA":" ","LANE":"３７２巷","ALLEY":" ","HOUSE_NO":"２３號","E_COORD97":167567.07999999999,"N_COORD97":2541013.29,"ADDRESS":"永成路三段３７２巷２３號","OBJECTID":238878},"geometry":{"x":167567.08000000194,"y":2541013.2899999991}},{"attributes":{"ID":238883,"DIS_CODE":0,"TOWNNAME":"南區","LI":"府南里","LIN":"13鄰","STREET":"永成路","SECT":"三段","MAREA":" ","LANE":"３７２巷","ALLEY":" ","HOUSE_NO":"２５號","E_COORD97":167574.17999999999,"N_COORD97":2541015.3799999999,"ADDRESS":"永成路三段３７２巷２５號","OBJECTID":238879},"geometry":{"x":167574.1799999997,"y":2541015.379999999}},{"attributes":{"ID":238884,"DIS_CODE":0,"TOWNNAME":"南區","LI":"府南里","LIN":"13鄰","STREET":"永成路","SECT":"三段","MAREA":" ","LANE":"３７２巷","ALLEY":" ","HOUSE_NO":"２７號","E_COORD97":167575.91,"N_COORD97":2541011.2000000002,"ADDRESS":"永成路三段３７２巷２７號","OBJECTID":238880},"geometry":{"x":167575.91000000015,"y":2541011.1999999974}},{"attributes":{"ID":238885,"DIS_CODE":0,"TOWNNAME":"南區","LI":"新興里","LIN":"14鄰","STREET":"夏林路","SECT":" ","MAREA":" ","LANE":" ","ALLEY":" ","HOUSE_NO":"１６６號","E_COORD97":167440.35999999999,"N_COORD97":2542370.4700000002,"ADDRESS":"夏林路１６６號","OBJECTID":238881},"geometry":{"x":167440.36000000127,"y":2542370.4699999988}},{"attributes":{"ID":238886,"DIS_CODE":0,"TOWNNAME":"南區","LI":"新興里","LIN":"14鄰","STREET":"夏林路","SECT":" ","MAREA":" ","LANE":" ","ALLEY":" ","HOUSE_NO":"１６８號","E_COORD97":167440.26000000001,"N_COORD97":2542366.7200000002,"ADDRESS":"夏林路１６８號","OBJECTID":238882},"geometry":{"x":167440.26000000071,"y":2542366.7200000025}},{"attributes":{"ID":238887,"DIS_CODE":0,"TOWNNAME":"南區","LI":"新興里","LIN":"14鄰","STREET":"夏林路","SECT":" ","MAREA":" ","LANE":" ","ALLEY":" ","HOUSE_NO":"１７０號","E_COORD97":167439.76000000001,"N_COORD97":2542361.1899999999,"ADDRESS":"夏林路１７０號","OBJECTID":238883},"geometry":{"x":167439.75999999978,"y":2542361.1900000032}},{"attributes":{"ID":238888,"DIS_CODE":0,"TOWNNAME":"南區","LI":"新興里","LIN":"14鄰","STREET":"夏林路","SECT":" ","MAREA":" ","LANE":" ","ALLEY":" ","HOUSE_NO":"１７２號","E_COORD97":167439.85999999999,"N_COORD97":2542357.25,"ADDRESS":"夏林路１７２號","OBJECTID":238884},"geometry":{"x":167439.8600000022,"y":2542357.25}},{"attributes":{"ID":238889,"DIS_CODE":0,"TOWNNAME":"南區","LI":"新興里","LIN":"14鄰","STREET":"夏林路","SECT":" ","MAREA":" ","LANE":" ","ALLEY":" ","HOUSE_NO":"１７４號","E_COORD97":167442.23000000001,"N_COORD97":2542352.7599999998,"ADDRESS":"夏林路１７４號","OBJECTID":238885},"geometry":{"x":167442.23000000045,"y":2542352.7599999998}},{"attributes":{"ID":238890,"DIS_CODE":0,"TOWNNAME":"南區","LI":"新興里","LIN":"14鄰","STREET":"夏林路","SECT":" ","MAREA":" ","LANE":" ","ALLEY":" ","HOUSE_NO":"１７６號","E_COORD97":167441.94,"N_COORD97":2542348.5099999998,"ADDRESS":"夏林路１７６號","OBJECTID":238886},"geometry":{"x":167441.94000000134,"y":2542348.5099999998}},{"attributes":{"ID":238891,"DIS_CODE":0,"TOWNNAME":"歸仁區","LI":"文化里","LIN":"12鄰","STREET":"文化北一街","SECT":" ","MAREA":" ","LANE":" ","ALLEY":" ","HOUSE_NO":"２４號","E_COORD97":177356.10999999999,"N_COORD97":2541465.3399999999,"ADDRESS":"文化北一街２４號","OBJECTID":238887},"geometry":{"x":177356.11000000034,"y":2541465.3400000036}},{"attributes":{"ID":238892,"DIS_CODE":0,"TOWNNAME":"南區","LI":"新興里","LIN":"14鄰","STREET":"夏林路","SECT":" ","MAREA":" ","LANE":" ","ALLEY":" ","HOUSE_NO":"１８２號","E_COORD97":167443.01999999999,"N_COORD97":2542324.5800000001,"ADDRESS":"夏林路１８２號","OBJECTID":238888},"geometry":{"x":167443.02000000142,"y":2542324.5800000001}},{"attributes":{"ID":238893,"DIS_CODE":0,"TOWNNAME":"南區","LI":"新興里","LIN":"14鄰","STREET":"夏林路","SECT":" ","MAREA":" ","LANE":" ","ALLEY":" ","HOUSE_NO":"１８４號","E_COORD97":167445.48999999999,"N_COORD97":2542319.25,"ADDRESS":"夏林路１８４號","OBJECTID":238889},"geometry":{"x":167445.49000000022,"y":2542319.25}},{"attributes":{"ID":238894,"DIS_CODE":0,"TOWNNAME":"南區","LI":"新興里","LIN":"14鄰","STREET":"夏林路","SECT":" ","MAREA":" ","LANE":" ","ALLEY":" ","HOUSE_NO":"１８６號","E_COORD97":167445.39999999999,"N_COORD97":2542315.7000000002,"ADDRESS":"夏林路１８６號","OBJECTID":238890},"geometry":{"x":167445.4000000013,"y":2542315.6999999993}},{"attributes":{"ID":238895,"DIS_CODE":0,"TOWNNAME":"南區","LI":"新興里","LIN":"14鄰","STREET":"夏林路","SECT":" ","MAREA":" ","LANE":" ","ALLEY":" ","HOUSE_NO":"１９０號","E_COORD97":167446.48000000001,"N_COORD97":2542307.21,"ADDRESS":"夏林路１９０號","OBJECTID":238891},"geometry":{"x":167446.48000000138,"y":2542307.2100000009}},{"attributes":{"ID":238896,"DIS_CODE":0,"TOWNNAME":"永康區","LI":"勝利里","LIN":"14鄰","STREET":"勝利街","SECT":" ","MAREA":" ","LANE":"７７巷","ALLEY":" ","HOUSE_NO":"１９號","E_COORD97":171281.94,"N_COORD97":2544768.7599999998,"ADDRESS":"勝利街７７巷１９號","OBJECTID":238892},"geometry":{"x":171281.94000000041,"y":2544768.7600000016}},{"attributes":{"ID":238897,"DIS_CODE":0,"TOWNNAME":"永康區","LI":"崑山里","LIN":"15鄰","STREET":"大灣路","SECT":" ","MAREA":" ","LANE":"９６０巷","ALLEY":" ","HOUSE_NO":"５號","E_COORD97":173577.34,"N_COORD97":2544440.5,"ADDRESS":"大灣路９６０巷５號","OBJECTID":238893},"geometry":{"x":173577.33999999985,"y":2544440.5}},{"attributes":{"ID":238898,"DIS_CODE":0,"TOWNNAME":"永康區","LI":"復華里","LIN":"15鄰","STREET":"國華街","SECT":" ","MAREA":" ","LANE":"８９巷","ALLEY":" ","HOUSE_NO":"６號","E_COORD97":172822.32999999999,"N_COORD97":2545932.75,"ADDRESS":"國華街８９巷６號","OBJECTID":238894},"geometry":{"x":172822.33000000101,"y":2545932.7500000019}},{"attributes":{"ID":238899,"DIS_CODE":0,"TOWNNAME":"永康區","LI":"正強里","LIN":"16鄰","STREET":"自強路","SECT":" ","MAREA":" ","LANE":"２１６巷","ALLEY":" ","HOUSE_NO":"６號","E_COORD97":173287.17000000001,"N_COORD97":2547561,"ADDRESS":"自強路２１６巷６號","OBJECTID":238895},"geometry":{"x":173287.16999999993,"y":2547561.0000000019}},{"attributes":{"ID":238900,"DIS_CODE":0,"TOWNNAME":"永康區","LI":"復華里","LIN":"11鄰","STREET":"復國二路","SECT":" ","MAREA":" ","LANE":"２０５巷","ALLEY":" ","HOUSE_NO":"１８號","E_COORD97":172943.66,"N_COORD97":2546005.5600000001,"ADDRESS":"復國二路２０５巷１８號","OBJECTID":238896},"geometry":{"x":172943.66000000201,"y":2546005.5600000024}},{"attributes":{"ID":238901,"DIS_CODE":0,"TOWNNAME":"永康區","LI":"復國里","LIN":"14鄰","STREET":"復國二路","SECT":" ","MAREA":" ","LANE":"１４０巷","ALLEY":" ","HOUSE_NO":"２號","E_COORD97":172914.67000000001,"N_COORD97":2545600.5299999998,"ADDRESS":"復國二路１４０巷２號","OBJECTID":238897},"geometry":{"x":172914.67000000086,"y":2545600.5300000012}},{"attributes":{"ID":238902,"DIS_CODE":0,"TOWNNAME":"永康區","LI":"勝利里","LIN":"14鄰","STREET":"勝利街","SECT":" ","MAREA":" ","LANE":"７７巷","ALLEY":" ","HOUSE_NO":"５號","E_COORD97":171328.01999999999,"N_COORD97":2544756.5099999998,"ADDRESS":"勝利街７７巷５號","OBJECTID":238898},"geometry":{"x":171328.01999999955,"y":2544756.5100000035}},{"attributes":{"ID":238903,"DIS_CODE":0,"TOWNNAME":"永康區","LI":"崑山里","LIN":"17鄰","STREET":"大灣路","SECT":" ","MAREA":" ","LANE":"９４２巷","ALLEY":" ","HOUSE_NO":"４１號","E_COORD97":173622.70999999999,"N_COORD97":2544514.4900000002,"ADDRESS":"大灣路９４２巷４１號","OBJECTID":238899},"geometry":{"x":173622.70999999996,"y":2544514.4900000002}},{"attributes":{"ID":238904,"DIS_CODE":0,"TOWNNAME":"永康區","LI":"復國里","LIN":"6鄰","STREET":"復國一路","SECT":" ","MAREA":" ","LANE":"１２０巷","ALLEY":" ","HOUSE_NO":"５７號","E_COORD97":172793.01999999999,"N_COORD97":2545036.77,"ADDRESS":"復國一路１２０巷５７號","OBJECTID":238900},"geometry":{"x":172793.01999999862,"y":2545036.7700000014}},{"attributes":{"ID":238905,"DIS_CODE":0,"TOWNNAME":"永康區","LI":"復國里","LIN":"6鄰","STREET":"復國一路","SECT":" ","MAREA":" ","LANE":"１２０巷","ALLEY":" ","HOUSE_NO":"２９號","E_COORD97":172775.26000000001,"N_COORD97":2545011.46,"ADDRESS":"復國一路１２０巷２９號","OBJECTID":238901},"geometry":{"x":172775.26000000071,"y":2545011.4600000009}},{"attributes":{"ID":238906,"DIS_CODE":0,"TOWNNAME":"永康區","LI":"崑山里","LIN":"21鄰","STREET":"大灣路","SECT":" ","MAREA":" ","LANE":"９４２巷","ALLEY":" ","HOUSE_NO":"５２號","E_COORD97":173673.79000000001,"N_COORD97":2544610.6499999999,"ADDRESS":"大灣路９４２巷５２號","OBJECTID":238902},"geometry":{"x":173673.79000000097,"y":2544610.6500000022}},{"attributes":{"ID":238907,"DIS_CODE":0,"TOWNNAME":"永康區","LI":"復華里","LIN":"28鄰","STREET":"復華八街","SECT":" ","MAREA":" ","LANE":"４５巷","ALLEY":" ","HOUSE_NO":"１２號","E_COORD97":172747.54000000001,"N_COORD97":2546347.2599999998,"ADDRESS":"復華八街４５巷１２號","OBJECTID":238903},"geometry":{"x":172747.54000000004,"y":2546347.2599999998}},{"attributes":{"ID":238908,"DIS_CODE":0,"TOWNNAME":"永康區","LI":"復國里","LIN":"16鄰","STREET":"復國二路","SECT":" ","MAREA":" ","LANE":"２０４巷","ALLEY":" ","HOUSE_NO":"６號","E_COORD97":172984.29000000001,"N_COORD97":2545809.5299999998,"ADDRESS":"復國二路２０４巷６號","OBJECTID":238904},"geometry":{"x":172984.29000000004,"y":2545809.5299999993}},{"attributes":{"ID":238909,"DIS_CODE":0,"TOWNNAME":"永康區","LI":"勝利里","LIN":"20鄰","STREET":"勝學路","SECT":" ","MAREA":" ","LANE":"２６９巷","ALLEY":" ","HOUSE_NO":"２７號","E_COORD97":171148.79999999999,"N_COORD97":2545245.5,"ADDRESS":"勝學路２６９巷２７號","OBJECTID":238905},"geometry":{"x":171148.80000000168,"y":2545245.5000000019}},{"attributes":{"ID":238910,"DIS_CODE":0,"TOWNNAME":"永康區","LI":"復國里","LIN":"17鄰","STREET":"國華街","SECT":" ","MAREA":" ","LANE":"３６巷","ALLEY":" ","HOUSE_NO":"１號","E_COORD97":172859.44,"N_COORD97":2545661.7400000002,"ADDRESS":"國華街３６巷１號","OBJECTID":238906},"geometry":{"x":172859.44000000134,"y":2545661.7400000021}},{"attributes":{"ID":238911,"DIS_CODE":0,"TOWNNAME":"南區","LI":"府南里","LIN":"13鄰","STREET":"永成路","SECT":"三段","MAREA":" ","LANE":"３７２巷","ALLEY":" ","HOUSE_NO":"２９號","E_COORD97":167578.47,"N_COORD97":2541001.9700000002,"ADDRESS":"永成路三段３７２巷２９號","OBJECTID":238907},"geometry":{"x":167578.46999999974,"y":2541001.9700000025}},{"attributes":{"ID":238912,"DIS_CODE":0,"TOWNNAME":"南區","LI":"新興里","LIN":"14鄰","STREET":"夏林路","SECT":" ","MAREA":" ","LANE":" ","ALLEY":" ","HOUSE_NO":"１９２號","E_COORD97":167446.88,"N_COORD97":2542303.6600000001,"ADDRESS":"夏林路１９２號","OBJECTID":238908},"geometry":{"x":167446.88000000082,"y":2542303.6600000001}},{"attributes":{"ID":238913,"DIS_CODE":0,"TOWNNAME":"南區","LI":"新興里","LIN":"14鄰","STREET":"夏林路","SECT":" ","MAREA":" ","LANE":" ","ALLEY":" ","HOUSE_NO":"１９４號","E_COORD97":167446.57999999999,"N_COORD97":2542299.0699999998,"ADDRESS":"夏林路１９４號","OBJECTID":238909},"geometry":{"x":167446.58000000194,"y":2542299.0700000022}},{"attributes":{"ID":238914,"DIS_CODE":0,"TOWNNAME":"南區","LI":"新興里","LIN":"14鄰","STREET":"夏林路","SECT":" ","MAREA":" ","LANE":" ","ALLEY":" ","HOUSE_NO":"１９６號","E_COORD97":167444.31,"N_COORD97":2542293.7400000002,"ADDRESS":"夏林路１９６號","OBJECTID":238910},"geometry":{"x":167444.30999999959,"y":2542293.7400000039}},{"attributes":{"ID":238915,"DIS_CODE":0,"TOWNNAME":"南區","LI":"新興里","LIN":"14鄰","STREET":"夏林路","SECT":" ","MAREA":" ","LANE":" ","ALLEY":" ","HOUSE_NO":"１９８號","E_COORD97":167445.44,"N_COORD97":2542289.3999999999,"ADDRESS":"夏林路１９８號","OBJECTID":238911},"geometry":{"x":167445.44000000041,"y":2542289.4000000041}},{"attributes":{"ID":238916,"DIS_CODE":0,"TOWNNAME":"南區","LI":"新興里","LIN":"14鄰","STREET":"夏林路","SECT":" ","MAREA":" ","LANE":" ","ALLEY":" ","HOUSE_NO":"２００號","E_COORD97":167445.44,"N_COORD97":2542284.9199999999,"ADDRESS":"夏林路２００號","OBJECTID":238912},"geometry":{"x":167445.44000000041,"y":2542284.9199999999}},{"attributes":{"ID":238917,"DIS_CODE":0,"TOWNNAME":"南區","LI":"新興里","LIN":"14鄰","STREET":"夏林路","SECT":" ","MAREA":" ","LANE":" ","ALLEY":" ","HOUSE_NO":"２０２號","E_COORD97":167448,"N_COORD97":2542278.8500000001,"ADDRESS":"夏林路２０２號","OBJECTID":238913},"geometry":{"x":167448,"y":2542278.8500000034}},{"attributes":{"ID":238918,"DIS_CODE":0,"TOWNNAME":"南區","LI":"新興里","LIN":"14鄰","STREET":"夏林路","SECT":" ","MAREA":" ","LANE":" ","ALLEY":" ","HOUSE_NO":"２０４號","E_COORD97":167448.95999999999,"N_COORD97":2542274.3700000001,"ADDRESS":"夏林路２０４號","OBJECTID":238914},"geometry":{"x":167448.96000000183,"y":2542274.3700000029}},{"attributes":{"ID":238919,"DIS_CODE":0,"TOWNNAME":"南區","LI":"新興里","LIN":"14鄰","STREET":"夏林路","SECT":" ","MAREA":" ","LANE":" ","ALLEY":" ","HOUSE_NO":"２０６號","E_COORD97":167449.28,"N_COORD97":2542270.5299999998,"ADDRESS":"夏林路２０６號","OBJECTID":238915},"geometry":{"x":167449.28000000119,"y":2542270.5300000031}},{"attributes":{"ID":238920,"DIS_CODE":0,"TOWNNAME":"南區","LI":"新興里","LIN":"14鄰","STREET":"夏林路","SECT":" ","MAREA":" ","LANE":" ","ALLEY":" ","HOUSE_NO":"２０８號","E_COORD97":167448.95999999999,"N_COORD97":2542265.4199999999,"ADDRESS":"夏林路２０８號","OBJECTID":238916},"geometry":{"x":167448.96000000183,"y":2542265.4200000018}},{"attributes":{"ID":238921,"DIS_CODE":0,"TOWNNAME":"南區","LI":"新興里","LIN":"14鄰","STREET":"夏林路","SECT":" ","MAREA":" ","LANE":" ","ALLEY":" ","HOUSE_NO":"２１０號","E_COORD97":167450.23999999999,"N_COORD97":2542261.8999999999,"ADDRESS":"夏林路２１０號","OBJECTID":238917},"geometry":{"x":167450.24000000022,"y":2542261.9000000004}},{"attributes":{"ID":238922,"DIS_CODE":0,"TOWNNAME":"南區","LI":"新興里","LIN":"14鄰","STREET":"夏林路","SECT":" ","MAREA":" ","LANE":" ","ALLEY":" ","HOUSE_NO":"２１２號","E_COORD97":167449.60000000001,"N_COORD97":2542258.3799999999,"ADDRESS":"夏林路２１２號","OBJECTID":238918},"geometry":{"x":167449.60000000056,"y":2542258.3800000008}},{"attributes":{"ID":238923,"DIS_CODE":0,"TOWNNAME":"南區","LI":"新興里","LIN":"14鄰","STREET":"夏林路","SECT":" ","MAREA":" ","LANE":" ","ALLEY":" ","HOUSE_NO":"２１４號","E_COORD97":167449.54000000001,"N_COORD97":2542253.52,"ADDRESS":"夏林路２１４號","OBJECTID":238919},"geometry":{"x":167449.54000000004,"y":2542253.5199999996}},{"attributes":{"ID":238924,"DIS_CODE":0,"TOWNNAME":"南區","LI":"新興里","LIN":"14鄰","STREET":"夏林路","SECT":" ","MAREA":" ","LANE":" ","ALLEY":" ","HOUSE_NO":"２１６號","E_COORD97":167449.54000000001,"N_COORD97":2542249.1800000002,"ADDRESS":"夏林路２１６號","OBJECTID":238920},"geometry":{"x":167449.54000000004,"y":2542249.1799999997}},{"attributes":{"ID":238925,"DIS_CODE":0,"TOWNNAME":"南區","LI":"新興里","LIN":"14鄰","STREET":"夏林路","SECT":" ","MAREA":" ","LANE":" ","ALLEY":" ","HOUSE_NO":"２１８號","E_COORD97":167449.54000000001,"N_COORD97":2542245.8100000001,"ADDRESS":"夏林路２１８號","OBJECTID":238921},"geometry":{"x":167449.54000000004,"y":2542245.8100000005}},{"attributes":{"ID":238926,"DIS_CODE":0,"TOWNNAME":"南區","LI":"新興里","LIN":"14鄰","STREET":"夏林路","SECT":" ","MAREA":" ","LANE":" ","ALLEY":" ","HOUSE_NO":"２２０號","E_COORD97":167449.85999999999,"N_COORD97":2542241.4100000001,"ADDRESS":"夏林路２２０號","OBJECTID":238922},"geometry":{"x":167449.86000000034,"y":2542241.4099999983}},{"attributes":{"ID":238927,"DIS_CODE":0,"TOWNNAME":"永康區","LI":"復華里","LIN":"16鄰","STREET":"國華街","SECT":" ","MAREA":" ","LANE":"１０２巷","ALLEY":" ","HOUSE_NO":"８９號","E_COORD97":172937.13,"N_COORD97":2546189.8300000001,"ADDRESS":"國華街１０２巷８９號","OBJECTID":238923},"geometry":{"x":172937.13000000082,"y":2546189.8300000019}},{"attributes":{"ID":238928,"DIS_CODE":0,"TOWNNAME":"永康區","LI":"復國里","LIN":"16鄰","STREET":"復國二路","SECT":" ","MAREA":" ","LANE":"１９６巷","ALLEY":" ","HOUSE_NO":"１４號","E_COORD97":172983.23000000001,"N_COORD97":2545775.2999999998,"ADDRESS":"復國二路１９６巷１４號","OBJECTID":238924},"geometry":{"x":172983.23000000138,"y":2545775.3000000007}},{"attributes":{"ID":238929,"DIS_CODE":0,"TOWNNAME":"永康區","LI":"永康里","LIN":"16鄰","STREET":"永中街","SECT":" ","MAREA":" ","LANE":"１００巷","ALLEY":" ","HOUSE_NO":"１７號","E_COORD97":173994.98000000001,"N_COORD97":2547206.7400000002,"ADDRESS":"永中街１００巷１７號","OBJECTID":238925},"geometry":{"x":173994.98000000138,"y":2547206.7400000021}},{"attributes":{"ID":238930,"DIS_CODE":0,"TOWNNAME":"南區","LI":"府南里","LIN":"13鄰","STREET":"永成路","SECT":"三段","MAREA":" ","LANE":"３７２巷","ALLEY":" ","HOUSE_NO":"３１號","E_COORD97":167582.57000000001,"N_COORD97":2541003.0600000001,"ADDRESS":"永成路三段３７２巷３１號","OBJECTID":238926},"geometry":{"x":167582.57000000216,"y":2541003.0600000005}},{"attributes":{"ID":238931,"DIS_CODE":0,"TOWNNAME":"南區","LI":"府南里","LIN":"13鄰","STREET":"永成路","SECT":"三段","MAREA":" ","LANE":"３７２巷","ALLEY":" ","HOUSE_NO":"３３號","E_COORD97":167586.94,"N_COORD97":2541003.9700000002,"ADDRESS":"永成路三段３７２巷３３號","OBJECTID":238927},"geometry":{"x":167586.94000000227,"y":2541003.9700000007}},{"attributes":{"ID":238932,"DIS_CODE":0,"TOWNNAME":"南區","LI":"府南里","LIN":"13鄰","STREET":"永成路","SECT":"三段","MAREA":" ","LANE":"３７２巷","ALLEY":" ","HOUSE_NO":"３５號","E_COORD97":167591.13,"N_COORD97":2541004.8799999999,"ADDRESS":"永成路三段３７２巷３５號","OBJECTID":238928},"geometry":{"x":167591.12999999989,"y":2541004.879999999}},{"attributes":{"ID":238933,"DIS_CODE":0,"TOWNNAME":"南區","LI":"府南里","LIN":"13鄰","STREET":"永成路","SECT":"三段","MAREA":" ","LANE":"３７２巷","ALLEY":" ","HOUSE_NO":"３７號","E_COORD97":167595.59,"N_COORD97":2541005.98,"ADDRESS":"永成路三段３７２巷３７號","OBJECTID":238929},"geometry":{"x":167595.59000000171,"y":2541005.9800000004}},{"attributes":{"ID":238934,"DIS_CODE":0,"TOWNNAME":"南區","LI":"府南里","LIN":"13鄰","STREET":"永成路","SECT":"三段","MAREA":" ","LANE":"３７２巷","ALLEY":" ","HOUSE_NO":"３號","E_COORD97":167531.23999999999,"N_COORD97":2540994.77,"ADDRESS":"永成路三段３７２巷３號","OBJECTID":238930},"geometry":{"x":167531.24000000115,"y":2540994.7700000014}},{"attributes":{"ID":238935,"DIS_CODE":0,"TOWNNAME":"南區","LI":"府南里","LIN":"13鄰","STREET":"永成路","SECT":"三段","MAREA":" ","LANE":"３７２巷","ALLEY":" ","HOUSE_NO":"５號","E_COORD97":167535.41,"N_COORD97":2540995.6299999999,"ADDRESS":"永成路三段３７２巷５號","OBJECTID":238931},"geometry":{"x":167535.41000000015,"y":2540995.6300000008}},{"attributes":{"ID":238936,"DIS_CODE":0,"TOWNNAME":"南區","LI":"府南里","LIN":"13鄰","STREET":"永成路","SECT":"三段","MAREA":" ","LANE":"３７２巷","ALLEY":" ","HOUSE_NO":"７號","E_COORD97":167539.48999999999,"N_COORD97":2540997.2000000002,"ADDRESS":"永成路三段３７２巷７號","OBJECTID":238932},"geometry":{"x":167539.49000000115,"y":2540997.1999999993}},{"attributes":{"ID":238937,"DIS_CODE":0,"TOWNNAME":"南區","LI":"府南里","LIN":"13鄰","STREET":"永成路","SECT":"三段","MAREA":" ","LANE":"３７２巷","ALLEY":" ","HOUSE_NO":"９號","E_COORD97":167543.84,"N_COORD97":2540998.5800000001,"ADDRESS":"永成路三段３７２巷９號","OBJECTID":238933},"geometry":{"x":167543.83999999985,"y":2540998.5800000001}},{"attributes":{"ID":238938,"DIS_CODE":0,"TOWNNAME":"安南區","LI":"海西里","LIN":"13鄰","STREET":"海尾路","SECT":" ","MAREA":" ","LANE":" ","ALLEY":" ","HOUSE_NO":"３５９號","E_COORD97":166409.60200799999,"N_COORD97":2548507.02777,"ADDRESS":"海尾路３５９號","OBJECTID":238934},"geometry":{"x":166409.60200800095,"y":2548507.0277740024}},{"attributes":{"ID":238939,"DIS_CODE":0,"TOWNNAME":"安南區","LI":"城南里","LIN":"13鄰","STREET":"城西街","SECT":"二段","MAREA":" ","LANE":"２９１巷","ALLEY":" ","HOUSE_NO":"７號","E_COORD97":159623.14999999999,"N_COORD97":2550956.6499999999,"ADDRESS":"城西街二段２９１巷７號","OBJECTID":238935},"geometry":{"x":159623.15000000224,"y":2550956.6500000004}},{"attributes":{"ID":238940,"DIS_CODE":0,"TOWNNAME":"南區","LI":"新興里","LIN":"14鄰","STREET":"夏林路","SECT":" ","MAREA":" ","LANE":" ","ALLEY":" ","HOUSE_NO":"２２０號之１","E_COORD97":167450,"N_COORD97":2542237.5800000001,"ADDRESS":"夏林路２２０號之１","OBJECTID":238936},"geometry":{"x":167450,"y":2542237.5800000019}},{"attributes":{"ID":238941,"DIS_CODE":0,"TOWNNAME":"南區","LI":"新興里","LIN":"14鄰","STREET":"夏林路","SECT":" ","MAREA":" ","LANE":" ","ALLEY":" ","HOUSE_NO":"２２０號之３","E_COORD97":167449.17999999999,"N_COORD97":2542227.7400000002,"ADDRESS":"夏林路２２０號之３","OBJECTID":238937},"geometry":{"x":167449.18000000063,"y":2542227.7400000002}},{"attributes":{"ID":238942,"DIS_CODE":0,"TOWNNAME":"南區","LI":"興農里","LIN":"14鄰","STREET":"明興路","SECT":" ","MAREA":" ","LANE":" ","ALLEY":" ","HOUSE_NO":"１０１５號","E_COORD97":166249.54000000001,"N_COORD97":2536877.6200000001,"ADDRESS":"明興路１０１５號","OBJECTID":238938},"geometry":{"x":166249.54000000004,"y":2536877.6200000048}},{"attributes":{"ID":238943,"DIS_CODE":0,"TOWNNAME":"南區","LI":"興農里","LIN":"14鄰","STREET":"明興路","SECT":" ","MAREA":" ","LANE":" ","ALLEY":" ","HOUSE_NO":"１０１７號","E_COORD97":166251.85999999999,"N_COORD97":2536873.7599999998,"ADDRESS":"明興路１０１７號","OBJECTID":238939},"geometry":{"x":166251.86000000127,"y":2536873.7599999998}},{"attributes":{"ID":238944,"DIS_CODE":0,"TOWNNAME":"北區","LI":"元寶里","LIN":"16鄰","STREET":"開元路","SECT":" ","MAREA":" ","LANE":"４８５巷","ALLEY":" ","HOUSE_NO":"２１號七樓之１２","E_COORD97":170484.06,"N_COORD97":2545694.1499999999,"ADDRESS":"開元路４８５巷２１號七樓之１２","OBJECTID":238940},"geometry":{"x":170484.06000000145,"y":2545694.1500000004}},{"attributes":{"ID":238945,"DIS_CODE":0,"TOWNNAME":"北區","LI":"元寶里","LIN":"16鄰","STREET":"開元路","SECT":" ","MAREA":" ","LANE":"４８５巷","ALLEY":" ","HOUSE_NO":"２１號七樓之２","E_COORD97":170484.06,"N_COORD97":2545694.1499999999,"ADDRESS":"開元路４８５巷２１號七樓之２","OBJECTID":238941},"geometry":{"x":170484.06000000145,"y":2545694.1500000004}},{"attributes":{"ID":238946,"DIS_CODE":0,"TOWNNAME":"安南區","LI":"城南里","LIN":"13鄰","STREET":"城西街","SECT":"二段","MAREA":" ","LANE":"２９１巷","ALLEY":" ","HOUSE_NO":"１１號","E_COORD97":159616.79999999999,"N_COORD97":2550933.6299999999,"ADDRESS":"城西街二段２９１巷１１號","OBJECTID":238942},"geometry":{"x":159616.80000000075,"y":2550933.629999999}},{"attributes":{"ID":238947,"DIS_CODE":0,"TOWNNAME":"安南區","LI":"城南里","LIN":"13鄰","STREET":"城西街","SECT":"二段","MAREA":" ","LANE":"２９１巷","ALLEY":" ","HOUSE_NO":"９號","E_COORD97":159618.70999999999,"N_COORD97":2550945.0600000001,"ADDRESS":"城西街二段２９１巷９號","OBJECTID":238943},"geometry":{"x":159618.70999999996,"y":2550945.0600000024}},{"attributes":{"ID":238948,"DIS_CODE":0,"TOWNNAME":"安南區","LI":"城南里","LIN":"13鄰","STREET":"城西街","SECT":"二段","MAREA":" ","LANE":"２９１巷","ALLEY":" ","HOUSE_NO":"５號","E_COORD97":159624.10999999999,"N_COORD97":2550965.3799999999,"ADDRESS":"城西街二段２９１巷５號","OBJECTID":238944},"geometry":{"x":159624.11000000127,"y":2550965.3800000008}},{"attributes":{"ID":238949,"DIS_CODE":0,"TOWNNAME":"東山區","LI":"科里里","LIN":"22鄰","STREET":" ","SECT":" ","MAREA":"枋子林","LANE":" ","ALLEY":" ","HOUSE_NO":"８０之１號","E_COORD97":188955.10000000001,"N_COORD97":2577054.3500000001,"ADDRESS":"枋子林８０之１號","OBJECTID":238945},"geometry":{"x":188955.10000000056,"y":2577054.3500000015}},{"attributes":{"ID":238950,"DIS_CODE":0,"TOWNNAME":"仁德區","LI":"上崙里","LIN":"13鄰","STREET":"德崙路","SECT":" ","MAREA":" ","LANE":"４５０巷","ALLEY":" ","HOUSE_NO":"３３號","E_COORD97":174198.48000000001,"N_COORD97":2537997.5099999998,"ADDRESS":"德崙路４５０巷３３號","OBJECTID":238946},"geometry":{"x":174198.48000000138,"y":2537997.5100000016}},{"attributes":{"ID":238951,"DIS_CODE":0,"TOWNNAME":"仁德區","LI":"上崙里","LIN":"13鄰","STREET":"德崙路","SECT":" ","MAREA":" ","LANE":"４５０巷","ALLEY":" ","HOUSE_NO":"２６號","E_COORD97":174176.37,"N_COORD97":2538007.2599999998,"ADDRESS":"德崙路４５０巷２６號","OBJECTID":238947},"geometry":{"x":174176.37000000197,"y":2538007.2599999998}},{"attributes":{"ID":238952,"DIS_CODE":0,"TOWNNAME":"仁德區","LI":"太子里","LIN":"13鄰","STREET":"長興二街","SECT":" ","MAREA":" ","LANE":"２６巷","ALLEY":" ","HOUSE_NO":"９號","E_COORD97":174380.62,"N_COORD97":2543730.0099999998,"ADDRESS":"長興二街２６巷９號","OBJECTID":238948},"geometry":{"x":174380.62000000011,"y":2543730.0100000016}},{"attributes":{"ID":238953,"DIS_CODE":0,"TOWNNAME":"仁德區","LI":"土庫里","LIN":"13鄰","STREET":"土庫路","SECT":" ","MAREA":" ","LANE":"２４５巷","ALLEY":" ","HOUSE_NO":"２號","E_COORD97":174247.42999999999,"N_COORD97":2542821.75,"ADDRESS":"土庫路２４５巷２號","OBJECTID":238949},"geometry":{"x":174247.43000000063,"y":2542821.75}},{"attributes":{"ID":238954,"DIS_CODE":0,"TOWNNAME":"佳里區","LI":"建南里","LIN":"13鄰","STREET":"新生路","SECT":" ","MAREA":" ","LANE":"４４１巷","ALLEY":" ","HOUSE_NO":"１０２號","E_COORD97":165196.10000000001,"N_COORD97":2561802.6600000001,"ADDRESS":"新生路４４１巷１０２號","OBJECTID":238950},"geometry":{"x":165196.09999999963,"y":2561802.6600000039}},{"attributes":{"ID":238955,"DIS_CODE":0,"TOWNNAME":"佳里區","LI":"建南里","LIN":"13鄰","STREET":"新生路","SECT":" ","MAREA":" ","LANE":"４４１巷","ALLEY":" ","HOUSE_NO":"１０６號","E_COORD97":165196.54999999999,"N_COORD97":2561798.6000000001,"ADDRESS":"新生路４４１巷１０６號","OBJECTID":238951},"geometry":{"x":165196.54999999981,"y":2561798.5999999996}},{"attributes":{"ID":238956,"DIS_CODE":0,"TOWNNAME":"佳里區","LI":"建南里","LIN":"13鄰","STREET":"新生路","SECT":" ","MAREA":" ","LANE":"４４１巷","ALLEY":" ","HOUSE_NO":"１０８號","E_COORD97":165197.29999999999,"N_COORD97":2561794.8599999999,"ADDRESS":"新生路４４１巷１０８號","OBJECTID":238952},"geometry":{"x":165197.30000000075,"y":2561794.8600000013}},{"attributes":{"ID":238957,"DIS_CODE":0,"TOWNNAME":"佳里區","LI":"建南里","LIN":"13鄰","STREET":"新生路","SECT":" ","MAREA":" ","LANE":"４４１巷","ALLEY":" ","HOUSE_NO":"１３３號","E_COORD97":165219.48000000001,"N_COORD97":2561832.46,"ADDRESS":"新生路４４１巷１３３號","OBJECTID":238953},"geometry":{"x":165219.48000000045,"y":2561832.4600000028}},{"attributes":{"ID":238958,"DIS_CODE":0,"TOWNNAME":"佳里區","LI":"建南里","LIN":"13鄰","STREET":"新生路","SECT":" ","MAREA":" ","LANE":"４４１巷","ALLEY":" ","HOUSE_NO":"１３５號","E_COORD97":165219.31,"N_COORD97":2561828.4100000001,"ADDRESS":"新生路４４１巷１３５號","OBJECTID":238954},"geometry":{"x":165219.31000000052,"y":2561828.410000002}},{"attributes":{"ID":238959,"DIS_CODE":0,"TOWNNAME":"佳里區","LI":"建南里","LIN":"13鄰","STREET":"新生路","SECT":" ","MAREA":" ","LANE":"４４１巷","ALLEY":" ","HOUSE_NO":"１３７號","E_COORD97":165219.29000000001,"N_COORD97":2561824.4399999999,"ADDRESS":"新生路４４１巷１３７號","OBJECTID":238955},"geometry":{"x":165219.28999999911,"y":2561824.4400000013}},{"attributes":{"ID":238960,"DIS_CODE":0,"TOWNNAME":"佳里區","LI":"建南里","LIN":"13鄰","STREET":"新生路","SECT":" ","MAREA":" ","LANE":"４４１巷","ALLEY":" ","HOUSE_NO":"１３９號","E_COORD97":165219.22,"N_COORD97":2561820.3100000001,"ADDRESS":"新生路４４１巷１３９號","OBJECTID":238956},"geometry":{"x":165219.21999999974,"y":2561820.3100000024}},{"attributes":{"ID":238961,"DIS_CODE":0,"TOWNNAME":"佳里區","LI":"建南里","LIN":"13鄰","STREET":"新生路","SECT":" ","MAREA":" ","LANE":"４４１巷","ALLEY":" ","HOUSE_NO":"８８號","E_COORD97":165167.10999999999,"N_COORD97":2561889.7200000002,"ADDRESS":"新生路４４１巷８８號","OBJECTID":238957},"geometry":{"x":165167.11000000127,"y":2561889.7200000007}},{"attributes":{"ID":238962,"DIS_CODE":0,"TOWNNAME":"佳里區","LI":"建南里","LIN":"13鄰","STREET":"新生路","SECT":" ","MAREA":" ","LANE":"４４１巷","ALLEY":" ","HOUSE_NO":"８號","E_COORD97":165191.67999999999,"N_COORD97":2562124.9900000002,"ADDRESS":"新生路４４１巷８號","OBJECTID":238958},"geometry":{"x":165191.68000000063,"y":2562124.9900000002}},{"attributes":{"ID":238963,"DIS_CODE":0,"TOWNNAME":"佳里區","LI":"建南里","LIN":"13鄰","STREET":"新生路","SECT":" ","MAREA":" ","LANE":"４４１巷","ALLEY":" ","HOUSE_NO":"９０號","E_COORD97":165162.07000000001,"N_COORD97":2561889.1099999999,"ADDRESS":"新生路４４１巷９０號","OBJECTID":238959},"geometry":{"x":165162.07000000123,"y":2561889.1099999994}},{"attributes":{"ID":238964,"DIS_CODE":0,"TOWNNAME":"佳里區","LI":"建南里","LIN":"13鄰","STREET":"新生路","SECT":" ","MAREA":" ","LANE":"４４１巷","ALLEY":" ","HOUSE_NO":"９６號","E_COORD97":165194.51000000001,"N_COORD97":2561815.2799999998,"ADDRESS":"新生路４４１巷９６號","OBJECTID":238960},"geometry":{"x":165194.51000000071,"y":2561815.2800000012}},{"attributes":{"ID":238965,"DIS_CODE":0,"TOWNNAME":"佳里區","LI":"建南里","LIN":"13鄰","STREET":"新生路","SECT":" ","MAREA":" ","LANE":"４４１巷","ALLEY":" ","HOUSE_NO":"９８號","E_COORD97":165195.22,"N_COORD97":2561810.9700000002,"ADDRESS":"新生路４４１巷９８號","OBJECTID":238961},"geometry":{"x":165195.21999999974,"y":2561810.9700000044}},{"attributes":{"ID":238966,"DIS_CODE":0,"TOWNNAME":"永康區","LI":"正強里","LIN":"13鄰","STREET":"自強路","SECT":" ","MAREA":" ","LANE":"１８８巷","ALLEY":" ","HOUSE_NO":"７號","E_COORD97":173209.98000000001,"N_COORD97":2547487.25,"ADDRESS":"自強路１８８巷７號","OBJECTID":238962},"geometry":{"x":173209.98000000138,"y":2547487.2499999981}},{"attributes":{"ID":238967,"DIS_CODE":0,"TOWNNAME":"安南區","LI":"海西里","LIN":"13鄰","STREET":"海尾路","SECT":" ","MAREA":" ","LANE":" ","ALLEY":" ","HOUSE_NO":"３６１號","E_COORD97":166403.88227999999,"N_COORD97":2548503.74694,"ADDRESS":"海尾路３６１號","OBJECTID":238963},"geometry":{"x":166403.88227999955,"y":2548503.7469420023}},{"attributes":{"ID":238968,"DIS_CODE":0,"TOWNNAME":"安南區","LI":"海西里","LIN":"13鄰","STREET":"海尾路","SECT":" ","MAREA":" ","LANE":" ","ALLEY":" ","HOUSE_NO":"３６３號","E_COORD97":166398.37439400001,"N_COORD97":2548500.3602800001,"ADDRESS":"海尾路３６３號","OBJECTID":238964},"geometry":{"x":166398.37439399958,"y":2548500.3602780011}},{"attributes":{"ID":238969,"DIS_CODE":0,"TOWNNAME":"南區","LI":"興農里","LIN":"14鄰","STREET":"明興路","SECT":" ","MAREA":" ","LANE":" ","ALLEY":" ","HOUSE_NO":"１０１９號","E_COORD97":166254.98000000001,"N_COORD97":2536870.2799999998,"ADDRESS":"明興路１０１９號","OBJECTID":238965},"geometry":{"x":166254.98000000138,"y":2536870.2799999993}},{"attributes":{"ID":238970,"DIS_CODE":0,"TOWNNAME":"南區","LI":"興農里","LIN":"14鄰","STREET":"明興路","SECT":" ","MAREA":" ","LANE":" ","ALLEY":" ","HOUSE_NO":"１０２１號","E_COORD97":166257.64000000001,"N_COORD97":2536865.2599999998,"ADDRESS":"明興路１０２１號","OBJECTID":238966},"geometry":{"x":166257.6400000006,"y":2536865.2600000035}},{"attributes":{"ID":238971,"DIS_CODE":0,"TOWNNAME":"南區","LI":"興農里","LIN":"14鄰","STREET":"明興路","SECT":" ","MAREA":" ","LANE":" ","ALLEY":" ","HOUSE_NO":"１０２３號","E_COORD97":166260.89000000001,"N_COORD97":2536861.4199999999,"ADDRESS":"明興路１０２３號","OBJECTID":238967},"geometry":{"x":166260.89000000153,"y":2536861.4200000018}},{"attributes":{"ID":238972,"DIS_CODE":0,"TOWNNAME":"北區","LI":"元寶里","LIN":"16鄰","STREET":"開元路","SECT":" ","MAREA":" ","LANE":"４８５巷","ALLEY":" ","HOUSE_NO":"２１號十二樓之１０","E_COORD97":170484.06,"N_COORD97":2545694.1499999999,"ADDRESS":"開元路４８５巷２１號十二樓之１０","OBJECTID":238968},"geometry":{"x":170484.06000000145,"y":2545694.1500000004}},{"attributes":{"ID":238973,"DIS_CODE":0,"TOWNNAME":"北區","LI":"元寶里","LIN":"16鄰","STREET":"開元路","SECT":" ","MAREA":" ","LANE":"４８５巷","ALLEY":" ","HOUSE_NO":"２１號十二樓之１２","E_COORD97":170484.06,"N_COORD97":2545694.1499999999,"ADDRESS":"開元路４８５巷２１號十二樓之１２","OBJECTID":238969},"geometry":{"x":170484.06000000145,"y":2545694.1500000004}},{"attributes":{"ID":238974,"DIS_CODE":0,"TOWNNAME":"永康區","LI":"復國里","LIN":"5鄰","STREET":"復國一路","SECT":" ","MAREA":" ","LANE":"９０巷","ALLEY":" ","HOUSE_NO":"３５號","E_COORD97":172761.70000000001,"N_COORD97":2544939.0499999998,"ADDRESS":"復國一路９０巷３５號","OBJECTID":238970},"geometry":{"x":172761.70000000019,"y":2544939.0500000007}},{"attributes":{"ID":238975,"DIS_CODE":0,"TOWNNAME":"永康區","LI":"永康里","LIN":"13鄰","STREET":"永康街","SECT":" ","MAREA":" ","LANE":"１８６巷","ALLEY":" ","HOUSE_NO":"２１號","E_COORD97":174000.23999999999,"N_COORD97":2546998.1800000002,"ADDRESS":"永康街１８６巷２１號","OBJECTID":238971},"geometry":{"x":174000.24000000022,"y":2546998.1799999997}},{"attributes":{"ID":238976,"DIS_CODE":0,"TOWNNAME":"永康區","LI":"成功里","LIN":"13鄰","STREET":"忠孝路","SECT":" ","MAREA":" ","LANE":"２０７巷","ALLEY":" ","HOUSE_NO":"３３號","E_COORD97":171994.13,"N_COORD97":2544916.9900000002,"ADDRESS":"忠孝路２０７巷３３號","OBJECTID":238972},"geometry":{"x":171994.12999999989,"y":2544916.9900000021}},{"attributes":{"ID":238977,"DIS_CODE":0,"TOWNNAME":"永康區","LI":"中興里","LIN":"13鄰","STREET":"中興街","SECT":" ","MAREA":" ","LANE":"５７巷","ALLEY":" ","HOUSE_NO":"３號","E_COORD97":172048.29999999999,"N_COORD97":2545261.2400000002,"ADDRESS":"中興街５７巷３號","OBJECTID":238973},"geometry":{"x":172048.29999999981,"y":2545261.2400000021}},{"attributes":{"ID":238978,"DIS_CODE":0,"TOWNNAME":"永康區","LI":"埔園里","LIN":"13鄰","STREET":"中山路","SECT":" ","MAREA":" ","LANE":"２０７巷","ALLEY":" ","HOUSE_NO":"５號","E_COORD97":173644.20999999999,"N_COORD97":2548085.75,"ADDRESS":"中山路２０７巷５號","OBJECTID":238974},"geometry":{"x":173644.20999999996,"y":2548085.7500000019}},{"attributes":{"ID":238979,"DIS_CODE":0,"TOWNNAME":"永康區","LI":"埔園里","LIN":"13鄰","STREET":"中山路","SECT":" ","MAREA":" ","LANE":"２０７巷","ALLEY":" ","HOUSE_NO":"１１號","E_COORD97":173631.5,"N_COORD97":2548088.5,"ADDRESS":"中山路２０７巷１１號","OBJECTID":238975},"geometry":{"x":173631.50000000093,"y":2548088.5}},{"attributes":{"ID":238980,"DIS_CODE":0,"TOWNNAME":"永康區","LI":"埔園里","LIN":"13鄰","STREET":"中山路","SECT":" ","MAREA":" ","LANE":"２０７巷","ALLEY":" ","HOUSE_NO":"５５號","E_COORD97":173556.85999999999,"N_COORD97":2548141.9900000002,"ADDRESS":"中山路２０７巷５５號","OBJECTID":238976},"geometry":{"x":173556.86000000127,"y":2548141.9900000021}},{"attributes":{"ID":238981,"DIS_CODE":0,"TOWNNAME":"永康區","LI":"埔園里","LIN":"13鄰","STREET":"中山路","SECT":" ","MAREA":" ","LANE":"２０７巷","ALLEY":" ","HOUSE_NO":"１３號","E_COORD97":173628.54999999999,"N_COORD97":2548090.75,"ADDRESS":"中山路２０７巷１３號","OBJECTID":238977},"geometry":{"x":173628.54999999981,"y":2548090.7499999981}},{"attributes":{"ID":238982,"DIS_CODE":0,"TOWNNAME":"永康區","LI":"埔園里","LIN":"13鄰","STREET":"中山路","SECT":" ","MAREA":" ","LANE":"２０７巷","ALLEY":" ","HOUSE_NO":"５１號","E_COORD97":173563.84,"N_COORD97":2548137.7400000002,"ADDRESS":"中山路２０７巷５１號","OBJECTID":238978},"geometry":{"x":173563.83999999985,"y":2548137.7400000002}},{"attributes":{"ID":238983,"DIS_CODE":0,"TOWNNAME":"永康區","LI":"埔園里","LIN":"13鄰","STREET":"中山路","SECT":" ","MAREA":" ","LANE":"２０７巷","ALLEY":" ","HOUSE_NO":"８號","E_COORD97":173626.54000000001,"N_COORD97":2548117.4900000002,"ADDRESS":"中山路２０７巷８號","OBJECTID":238979},"geometry":{"x":173626.54000000097,"y":2548117.4900000021}},{"attributes":{"ID":238984,"DIS_CODE":0,"TOWNNAME":"永康區","LI":"埔園里","LIN":"13鄰","STREET":"中山路","SECT":" ","MAREA":" ","LANE":"２０７巷","ALLEY":" ","HOUSE_NO":"１６號","E_COORD97":173613.88,"N_COORD97":2548126.7400000002,"ADDRESS":"中山路２０７巷１６號","OBJECTID":238980},"geometry":{"x":173613.88000000082,"y":2548126.7400000021}},{"attributes":{"ID":238985,"DIS_CODE":0,"TOWNNAME":"永康區","LI":"埔園里","LIN":"13鄰","STREET":"中山路","SECT":" ","MAREA":" ","LANE":"２０７巷","ALLEY":" ","HOUSE_NO":"２１號","E_COORD97":173614.85000000001,"N_COORD97":2548100.75,"ADDRESS":"中山路２０７巷２１號","OBJECTID":238981},"geometry":{"x":173614.85000000149,"y":2548100.75}},{"attributes":{"ID":238986,"DIS_CODE":0,"TOWNNAME":"永康區","LI":"埔園里","LIN":"13鄰","STREET":"中山路","SECT":" ","MAREA":" ","LANE":"２０７巷","ALLEY":" ","HOUSE_NO":"１９號","E_COORD97":173618.44,"N_COORD97":2548098.25,"ADDRESS":"中山路２０７巷１９號","OBJECTID":238982},"geometry":{"x":173618.44000000227,"y":2548098.2500000019}},{"attributes":{"ID":238987,"DIS_CODE":0,"TOWNNAME":"佳里區","LI":"建南里","LIN":"13鄰","STREET":"新生路","SECT":" ","MAREA":" ","LANE":"４４１巷","ALLEY":" ","HOUSE_NO":"１２３號","E_COORD97":165231.84,"N_COORD97":2561868,"ADDRESS":"新生路４４１巷１２３號","OBJECTID":238983},"geometry":{"x":165231.83999999985,"y":2561868.0000000037}},{"attributes":{"ID":238988,"DIS_CODE":0,"TOWNNAME":"南區","LI":"明亮里","LIN":"13鄰","STREET":"金華路","SECT":"一段","MAREA":" ","LANE":"３５２巷","ALLEY":" ","HOUSE_NO":"１８５號","E_COORD97":167413.94,"N_COORD97":2540898.7400000002,"ADDRESS":"金華路一段３５２巷１８５號","OBJECTID":238984},"geometry":{"x":167413.93999999948,"y":2540898.7400000002}},{"attributes":{"ID":238989,"DIS_CODE":0,"TOWNNAME":"南區","LI":"明亮里","LIN":"13鄰","STREET":"金華路","SECT":"一段","MAREA":" ","LANE":"３５２巷","ALLEY":" ","HOUSE_NO":"１８７號","E_COORD97":167417.04999999999,"N_COORD97":2540896.52,"ADDRESS":"金華路一段３５２巷１８７號","OBJECTID":238985},"geometry":{"x":167417.04999999981,"y":2540896.5199999996}},{"attributes":{"ID":238990,"DIS_CODE":0,"TOWNNAME":"南區","LI":"明亮里","LIN":"13鄰","STREET":"金華路","SECT":"一段","MAREA":" ","LANE":"３５２巷","ALLEY":" ","HOUSE_NO":"１８９號","E_COORD97":167420.60000000001,"N_COORD97":2540893.4199999999,"ADDRESS":"金華路一段３５２巷１８９號","OBJECTID":238986},"geometry":{"x":167420.60000000149,"y":2540893.4200000018}},{"attributes":{"ID":238991,"DIS_CODE":0,"TOWNNAME":"南區","LI":"明亮里","LIN":"13鄰","STREET":"金華路","SECT":"一段","MAREA":" ","LANE":"３５２巷","ALLEY":" ","HOUSE_NO":"１９１號","E_COORD97":167423.70999999999,"N_COORD97":2540891.2000000002,"ADDRESS":"金華路一段３５２巷１９１號","OBJECTID":238987},"geometry":{"x":167423.71000000183,"y":2540891.1999999993}},{"attributes":{"ID":238992,"DIS_CODE":0,"TOWNNAME":"南區","LI":"明興里","LIN":"13鄰","STREET":"金華路","SECT":"一段","MAREA":" ","LANE":"６０巷","ALLEY":" ","HOUSE_NO":"４號","E_COORD97":166915.78,"N_COORD97":2540367.71,"ADDRESS":"金華路一段６０巷４號","OBJECTID":238988},"geometry":{"x":166915.78000000026,"y":2540367.7100000009}},{"attributes":{"ID":238993,"DIS_CODE":0,"TOWNNAME":"南區","LI":"明興里","LIN":"13鄰","STREET":"金華路","SECT":"一段","MAREA":" ","LANE":"６０巷","ALLEY":" ","HOUSE_NO":"６號","E_COORD97":166920.07999999999,"N_COORD97":2540368.21,"ADDRESS":"金華路一段６０巷６號","OBJECTID":238989},"geometry":{"x":166920.08000000101,"y":2540368.2100000009}},{"attributes":{"ID":238994,"DIS_CODE":0,"TOWNNAME":"南區","LI":"明興里","LIN":"13鄰","STREET":"金華路","SECT":"一段","MAREA":" ","LANE":"６０巷","ALLEY":" ","HOUSE_NO":"８號","E_COORD97":166924.79000000001,"N_COORD97":2540368.9500000002,"ADDRESS":"金華路一段６０巷８號","OBJECTID":238990},"geometry":{"x":166924.7900000019,"y":2540368.950000003}},{"attributes":{"ID":238995,"DIS_CODE":0,"TOWNNAME":"南區","LI":"明興里","LIN":"13鄰","STREET":"金華路","SECT":"一段","MAREA":" ","LANE":"６０巷","ALLEY":" ","HOUSE_NO":"１０號","E_COORD97":166928.92000000001,"N_COORD97":2540369.5299999998,"ADDRESS":"金華路一段６０巷１０號","OBJECTID":238991},"geometry":{"x":166928.92000000179,"y":2540369.5300000012}},{"attributes":{"ID":238996,"DIS_CODE":0,"TOWNNAME":"南區","LI":"明興里","LIN":"13鄰","STREET":"金華路","SECT":"一段","MAREA":" ","LANE":"６０巷","ALLEY":" ","HOUSE_NO":"１２號","E_COORD97":166933.88,"N_COORD97":2540368.21,"ADDRESS":"金華路一段６０巷１２號","OBJECTID":238992},"geometry":{"x":166933.87999999989,"y":2540368.2100000009}},{"attributes":{"ID":238997,"DIS_CODE":0,"TOWNNAME":"南區","LI":"興農里","LIN":"14鄰","STREET":"明興路","SECT":" ","MAREA":" ","LANE":" ","ALLEY":" ","HOUSE_NO":"１０２５號","E_COORD97":166264.73000000001,"N_COORD97":2536858.4700000002,"ADDRESS":"明興路１０２５號","OBJECTID":238993},"geometry":{"x":166264.73000000138,"y":2536858.4700000025}},{"attributes":{"ID":238998,"DIS_CODE":0,"TOWNNAME":"南區","LI":"興農里","LIN":"14鄰","STREET":"明興路","SECT":" ","MAREA":" ","LANE":" ","ALLEY":" ","HOUSE_NO":"１０２７號","E_COORD97":166268.28,"N_COORD97":2536854.9199999999,"ADDRESS":"明興路１０２７號","OBJECTID":238994},"geometry":{"x":166268.28000000026,"y":2536854.9200000018}},{"attributes":{"ID":238999,"DIS_CODE":0,"TOWNNAME":"南區","LI":"興農里","LIN":"14鄰","STREET":"明興路","SECT":" ","MAREA":" ","LANE":" ","ALLEY":" ","HOUSE_NO":"１０２９號","E_COORD97":166270.35000000001,"N_COORD97":2536849.9100000001,"ADDRESS":"明興路１０２９號","OBJECTID":238995},"geometry":{"x":166270.35000000056,"y":2536849.9100000001}},{"attributes":{"ID":239000,"DIS_CODE":0,"TOWNNAME":"北區","LI":"元寶里","LIN":"16鄰","STREET":"開元路","SECT":" ","MAREA":" ","LANE":"４８５巷","ALLEY":" ","HOUSE_NO":"２１號十三樓之８","E_COORD97":170484.06,"N_COORD97":2545694.1499999999,"ADDRESS":"開元路４８５巷２１號十三樓之８","OBJECTID":238996},"geometry":{"x":170484.06000000145,"y":2545694.1500000004}},{"attributes":{"ID":239001,"DIS_CODE":0,"TOWNNAME":"南區","LI":"明興里","LIN":"13鄰","STREET":"金華路","SECT":"一段","MAREA":" ","LANE":"６０巷","ALLEY":" ","HOUSE_NO":"１４號","E_COORD97":166938.67000000001,"N_COORD97":2540367.71,"ADDRESS":"金華路一段６０巷１４號","OBJECTID":238997},"geometry":{"x":166938.66999999993,"y":2540367.7100000009}},{"attributes":{"ID":239002,"DIS_CODE":0,"TOWNNAME":"南區","LI":"明興里","LIN":"13鄰","STREET":"金華路","SECT":"一段","MAREA":" ","LANE":"６０巷","ALLEY":" ","HOUSE_NO":"１６號","E_COORD97":166944.53,"N_COORD97":2540368.8700000001,"ADDRESS":"金華路一段６０巷１６號","OBJECTID":238998},"geometry":{"x":166944.53000000026,"y":2540368.8700000029}},{"attributes":{"ID":239003,"DIS_CODE":0,"TOWNNAME":"南區","LI":"明興里","LIN":"13鄰","STREET":"金華路","SECT":"一段","MAREA":" ","LANE":"６０巷","ALLEY":" ","HOUSE_NO":"１８號","E_COORD97":166951.42000000001,"N_COORD97":2540367.5499999998,"ADDRESS":"金華路一段６０巷１８號","OBJECTID":238999},"geometry":{"x":166951.42000000086,"y":2540367.5500000026}},{"attributes":{"ID":239004,"DIS_CODE":0,"TOWNNAME":"南區","LI":"明興里","LIN":"13鄰","STREET":"金華路","SECT":"一段","MAREA":" ","LANE":"６０巷","ALLEY":" ","HOUSE_NO":"２０號","E_COORD97":166957.94,"N_COORD97":2540367.0499999998,"ADDRESS":"金華路一段６０巷２０號","OBJECTID":239000},"geometry":{"x":166957.94000000227,"y":2540367.0500000026}}]}