{"displayFieldName":"TOWNNAME","fieldAliases":{"ID":"ID","DIS_CODE":"DIS_CODE","TOWNNAME":"TOWNNAME","LI":"LI","LIN":"LIN","STREET":"STREET","SECT":"SECT","MAREA":"MAREA","LANE":"LANE","ALLEY":"ALLEY","HOUSE_NO":"HOUSE_NO","E_COORD97":"E_COORD97","N_COORD97":"N_COORD97","ADDRESS":"ADDRESS","OBJECTID":"OBJECTID"},"geometryType":"esriGeometryPoint","spatialReference":{"wkid":102443,"latestWkid":3826},"fields":[{"name":"ID","type":"esriFieldTypeDouble","alias":"ID"},{"name":"DIS_CODE","type":"esriFieldTypeInteger","alias":"DIS_CODE"},{"name":"TOWNNAME","type":"esriFieldTypeString","alias":"TOWNNAME","length":8},{"name":"LI","type":"esriFieldTypeString","alias":"LI","length":8},{"name":"LIN","type":"esriFieldTypeString","alias":"LIN","length":12},{"name":"STREET","type":"esriFieldTypeString","alias":"STREET","length":20},{"name":"SECT","type":"esriFieldTypeString","alias":"SECT","length":8},{"name":"MAREA","type":"esriFieldTypeString","alias":"MAREA","length":12},{"name":"LANE","type":"esriFieldTypeString","alias":"LANE","length":10},{"name":"ALLEY","type":"esriFieldTypeString","alias":"ALLEY","length":10},{"name":"HOUSE_NO","type":"esriFieldTypeString","alias":"HOUSE_NO","length":20},{"name":"E_COORD97","type":"esriFieldTypeDouble","alias":"E_COORD97"},{"name":"N_COORD97","type":"esriFieldTypeDouble","alias":"N_COORD97"},{"name":"ADDRESS","type":"esriFieldTypeString","alias":"ADDRESS","length":50},{"name":"OBJECTID","type":"esriFieldTypeOID","alias":"OBJECTID"}],"features":[{"attributes":{"ID":238605,"DIS_CODE":0,"TOWNNAME":"安平區","LI":"金城里","LIN":"13鄰","STREET":"世平五街","SECT":" ","MAREA":" ","LANE":"４０巷","ALLEY":" ","HOUSE_NO":"１２號","E_COORD97":162679.79000000001,"N_COORD97":2544137.0899999999,"ADDRESS":"世平五街４０巷１２號","OBJECTID":238601},"geometry":{"x":162679.79000000004,"y":2544137.0899999999}},{"attributes":{"ID":238606,"DIS_CODE":0,"TOWNNAME":"安平區","LI":"金城里","LIN":"13鄰","STREET":"世平五街","SECT":" ","MAREA":" ","LANE":"４０巷","ALLEY":" ","HOUSE_NO":"３０號","E_COORD97":162655.92999999999,"N_COORD97":2544169.8100000001,"ADDRESS":"世平五街４０巷３０號","OBJECTID":238602},"geometry":{"x":162655.9299999997,"y":2544169.8100000024}},{"attributes":{"ID":238607,"DIS_CODE":0,"TOWNNAME":"北區","LI":"小康里","LIN":"14鄰","STREET":"大武街","SECT":" ","MAREA":" ","LANE":" ","ALLEY":" ","HOUSE_NO":"３４６號","E_COORD97":169814.48999999999,"N_COORD97":2546371.9199999999,"ADDRESS":"大武街３４６號","OBJECTID":238603},"geometry":{"x":169814.49000000115,"y":2546371.9200000018}},{"attributes":{"ID":238608,"DIS_CODE":0,"TOWNNAME":"北區","LI":"小康里","LIN":"14鄰","STREET":"大武街","SECT":" ","MAREA":" ","LANE":" ","ALLEY":" ","HOUSE_NO":"３４７號","E_COORD97":169776.42000000001,"N_COORD97":2546382.3100000001,"ADDRESS":"大武街３４７號","OBJECTID":238604},"geometry":{"x":169776.41999999993,"y":2546382.3100000042}},{"attributes":{"ID":238609,"DIS_CODE":0,"TOWNNAME":"永康區","LI":"復興里","LIN":"3鄰","STREET":"復興路","SECT":" ","MAREA":" ","LANE":"２７７巷","ALLEY":" ","HOUSE_NO":"２０６號之１０","E_COORD97":172387.70999999999,"N_COORD97":2543792.3599999999,"ADDRESS":"復興路２７７巷２０６號之１０","OBJECTID":238605},"geometry":{"x":172387.71000000089,"y":2543792.3599999994}},{"attributes":{"ID":238610,"DIS_CODE":0,"TOWNNAME":"北門區","LI":"北門里","LIN":"16鄰","STREET":" ","SECT":" ","MAREA":"舊埕","LANE":" ","ALLEY":" ","HOUSE_NO":"３７號","E_COORD97":160455.45000000001,"N_COORD97":2574088.21,"ADDRESS":"舊埕３７號","OBJECTID":238606},"geometry":{"x":160455.45000000112,"y":2574088.2100000009}},{"attributes":{"ID":238611,"DIS_CODE":0,"TOWNNAME":"永康區","LI":"新樹里","LIN":"12鄰","STREET":"富強路","SECT":"二段","MAREA":" ","LANE":"７７巷","ALLEY":" ","HOUSE_NO":"２９號之２","E_COORD97":175586.75,"N_COORD97":2546919.9300000002,"ADDRESS":"富強路二段７７巷２９號之２","OBJECTID":238607},"geometry":{"x":175586.75,"y":2546919.9300000034}},{"attributes":{"ID":238612,"DIS_CODE":0,"TOWNNAME":"北區","LI":"小康里","LIN":"14鄰","STREET":"大武街","SECT":" ","MAREA":" ","LANE":" ","ALLEY":" ","HOUSE_NO":"３４８號","E_COORD97":169818.89000000001,"N_COORD97":2546372.6499999999,"ADDRESS":"大武街３４８號","OBJECTID":238608},"geometry":{"x":169818.88999999966,"y":2546372.6500000004}},{"attributes":{"ID":238613,"DIS_CODE":0,"TOWNNAME":"北區","LI":"小康里","LIN":"14鄰","STREET":"大武街","SECT":" ","MAREA":" ","LANE":" ","ALLEY":" ","HOUSE_NO":"３４９號","E_COORD97":169782.73999999999,"N_COORD97":2546384.1400000001,"ADDRESS":"大武街３４９號","OBJECTID":238609},"geometry":{"x":169782.74000000022,"y":2546384.1400000025}},{"attributes":{"ID":238614,"DIS_CODE":0,"TOWNNAME":"永康區","LI":"復興里","LIN":"3鄰","STREET":"復興路","SECT":" ","MAREA":" ","LANE":"２７７巷","ALLEY":" ","HOUSE_NO":"１４６號","E_COORD97":172380.39999999999,"N_COORD97":2543889.4700000002,"ADDRESS":"復興路２７７巷１４６號","OBJECTID":238610},"geometry":{"x":172380.40000000037,"y":2543889.4700000044}},{"attributes":{"ID":238615,"DIS_CODE":0,"TOWNNAME":"官田區","LI":"二鎮里","LIN":"16鄰","STREET":" ","SECT":" ","MAREA":"二鎮","LANE":" ","ALLEY":" ","HOUSE_NO":"１１１號之２５","E_COORD97":181432.67000000001,"N_COORD97":2568001.1099999999,"ADDRESS":"二鎮１１１號之２５","OBJECTID":238611},"geometry":{"x":181432.66999999993,"y":2568001.1100000013}},{"attributes":{"ID":238616,"DIS_CODE":0,"TOWNNAME":"官田區","LI":"二鎮里","LIN":"16鄰","STREET":" ","SECT":" ","MAREA":"二鎮","LANE":" ","ALLEY":" ","HOUSE_NO":"１１１號之２６","E_COORD97":181437,"N_COORD97":2568001.8900000001,"ADDRESS":"二鎮１１１號之２６","OBJECTID":238612},"geometry":{"x":181437,"y":2568001.8900000006}},{"attributes":{"ID":238617,"DIS_CODE":0,"TOWNNAME":"永康區","LI":"復華里","LIN":"34鄰","STREET":"復國一路","SECT":" ","MAREA":" ","LANE":"４７５巷","ALLEY":" ","HOUSE_NO":"１４號","E_COORD97":172567.41,"N_COORD97":2546110.6800000002,"ADDRESS":"復國一路４７５巷１４號","OBJECTID":238613},"geometry":{"x":172567.41000000201,"y":2546110.6799999997}},{"attributes":{"ID":238618,"DIS_CODE":0,"TOWNNAME":"官田區","LI":"二鎮里","LIN":"16鄰","STREET":" ","SECT":" ","MAREA":"二鎮","LANE":" ","ALLEY":" ","HOUSE_NO":"１１１號之２７","E_COORD97":181441.23999999999,"N_COORD97":2568002.6299999999,"ADDRESS":"二鎮１１１號之２７","OBJECTID":238614},"geometry":{"x":181441.24000000209,"y":2568002.6300000027}},{"attributes":{"ID":238619,"DIS_CODE":0,"TOWNNAME":"北區","LI":"小康里","LIN":"14鄰","STREET":"大武街","SECT":" ","MAREA":" ","LANE":" ","ALLEY":" ","HOUSE_NO":"３５１號","E_COORD97":169788.51000000001,"N_COORD97":2546384.7799999998,"ADDRESS":"大武街３５１號","OBJECTID":238615},"geometry":{"x":169788.51000000071,"y":2546384.7800000031}},{"attributes":{"ID":238620,"DIS_CODE":0,"TOWNNAME":"北區","LI":"小康里","LIN":"14鄰","STREET":"大武街","SECT":" ","MAREA":" ","LANE":" ","ALLEY":" ","HOUSE_NO":"３５３號","E_COORD97":169794.26999999999,"N_COORD97":2546385.6000000001,"ADDRESS":"大武街３５３號","OBJECTID":238616},"geometry":{"x":169794.27000000142,"y":2546385.5999999996}},{"attributes":{"ID":238621,"DIS_CODE":0,"TOWNNAME":"歸仁區","LI":"武東里","LIN":"8鄰","STREET":"武東一街","SECT":" ","MAREA":" ","LANE":" ","ALLEY":" ","HOUSE_NO":"７４號","E_COORD97":175786.14000000001,"N_COORD97":2535441.25,"ADDRESS":"武東一街７４號","OBJECTID":238617},"geometry":{"x":175786.14000000153,"y":2535441.2499999981}},{"attributes":{"ID":238622,"DIS_CODE":0,"TOWNNAME":"歸仁區","LI":"看東里","LIN":"13鄰","STREET":"忠孝南路","SECT":" ","MAREA":" ","LANE":"２５巷","ALLEY":" ","HOUSE_NO":"５１號","E_COORD97":178587.20000000001,"N_COORD97":2540496.48,"ADDRESS":"忠孝南路２５巷５１號","OBJECTID":238618},"geometry":{"x":178587.20000000112,"y":2540496.4800000023}},{"attributes":{"ID":238623,"DIS_CODE":0,"TOWNNAME":"歸仁區","LI":"看東里","LIN":"13鄰","STREET":"忠孝南路","SECT":" ","MAREA":" ","LANE":"２５巷","ALLEY":" ","HOUSE_NO":"３１號","E_COORD97":178583.29999999999,"N_COORD97":2540540.48,"ADDRESS":"忠孝南路２５巷３１號","OBJECTID":238619},"geometry":{"x":178583.29999999981,"y":2540540.4800000023}},{"attributes":{"ID":238624,"DIS_CODE":0,"TOWNNAME":"官田區","LI":"二鎮里","LIN":"16鄰","STREET":" ","SECT":" ","MAREA":"二鎮","LANE":" ","ALLEY":" ","HOUSE_NO":"１１１號之６１","E_COORD97":181490.60000000001,"N_COORD97":2568004.21,"ADDRESS":"二鎮１１１號之６１","OBJECTID":238620},"geometry":{"x":181490.60000000149,"y":2568004.2100000028}},{"attributes":{"ID":238625,"DIS_CODE":0,"TOWNNAME":"歸仁區","LI":"看東里","LIN":"13鄰","STREET":"忠孝南路","SECT":" ","MAREA":" ","LANE":"２５巷","ALLEY":" ","HOUSE_NO":"４９號","E_COORD97":178583.10000000001,"N_COORD97":2540502.48,"ADDRESS":"忠孝南路２５巷４９號","OBJECTID":238621},"geometry":{"x":178583.09999999963,"y":2540502.4800000042}},{"attributes":{"ID":238626,"DIS_CODE":0,"TOWNNAME":"歸仁區","LI":"看西里","LIN":"13鄰","STREET":"成功六街","SECT":" ","MAREA":" ","LANE":"１３巷","ALLEY":" ","HOUSE_NO":"１８號","E_COORD97":178367.45999999999,"N_COORD97":2540134.1099999999,"ADDRESS":"成功六街１３巷１８號","OBJECTID":238622},"geometry":{"x":178367.45999999996,"y":2540134.1100000031}},{"attributes":{"ID":238627,"DIS_CODE":0,"TOWNNAME":"官田區","LI":"二鎮里","LIN":"16鄰","STREET":" ","SECT":" ","MAREA":"二鎮","LANE":" ","ALLEY":" ","HOUSE_NO":"１１１號之６２","E_COORD97":181488.26999999999,"N_COORD97":2568013.1000000001,"ADDRESS":"二鎮１１１號之６２","OBJECTID":238623},"geometry":{"x":181488.27000000048,"y":2568013.0999999996}},{"attributes":{"ID":238628,"DIS_CODE":0,"TOWNNAME":"官田區","LI":"二鎮里","LIN":"16鄰","STREET":" ","SECT":" ","MAREA":"二鎮","LANE":" ","ALLEY":" ","HOUSE_NO":"１１１號之６","E_COORD97":181418.53,"N_COORD97":2568053.1400000001,"ADDRESS":"二鎮１１１號之６","OBJECTID":238624},"geometry":{"x":181418.53000000026,"y":2568053.1400000025}},{"attributes":{"ID":238629,"DIS_CODE":0,"TOWNNAME":"歸仁區","LI":"看東里","LIN":"13鄰","STREET":"忠孝南路","SECT":" ","MAREA":" ","LANE":"２５巷","ALLEY":" ","HOUSE_NO":"５７號","E_COORD97":178587.10000000001,"N_COORD97":2540483.48,"ADDRESS":"忠孝南路２５巷５７號","OBJECTID":238625},"geometry":{"x":178587.10000000056,"y":2540483.4800000023}},{"attributes":{"ID":238630,"DIS_CODE":0,"TOWNNAME":"官田區","LI":"二鎮里","LIN":"16鄰","STREET":" ","SECT":" ","MAREA":"二鎮","LANE":" ","ALLEY":" ","HOUSE_NO":"１１１號之７１","E_COORD97":181562.69,"N_COORD97":2568021.71,"ADDRESS":"二鎮１１１號之７１","OBJECTID":238626},"geometry":{"x":181562.69000000134,"y":2568021.7100000028}},{"attributes":{"ID":238631,"DIS_CODE":0,"TOWNNAME":"歸仁區","LI":"南興里","LIN":"13鄰","STREET":"文化十八街","SECT":" ","MAREA":" ","LANE":"１８巷","ALLEY":" ","HOUSE_NO":"１２號","E_COORD97":175896.01999999999,"N_COORD97":2541254.2599999998,"ADDRESS":"文化十八街１８巷１２號","OBJECTID":238627},"geometry":{"x":175896.02000000048,"y":2541254.2599999998}},{"attributes":{"ID":238632,"DIS_CODE":0,"TOWNNAME":"新化區","LI":"太平里","LIN":"13鄰","STREET":"太平街","SECT":" ","MAREA":" ","LANE":"２２巷","ALLEY":" ","HOUSE_NO":"１８號之２","E_COORD97":178862.88,"N_COORD97":2548895.2599999998,"ADDRESS":"太平街２２巷１８號之２","OBJECTID":238628},"geometry":{"x":178862.87999999989,"y":2548895.2600000016}},{"attributes":{"ID":238633,"DIS_CODE":0,"TOWNNAME":"官田區","LI":"二鎮里","LIN":"16鄰","STREET":" ","SECT":" ","MAREA":"二鎮","LANE":" ","ALLEY":" ","HOUSE_NO":"１１１號之７２","E_COORD97":181563.82000000001,"N_COORD97":2568017.46,"ADDRESS":"二鎮１１１號之７２","OBJECTID":238629},"geometry":{"x":181563.8200000003,"y":2568017.4600000028}},{"attributes":{"ID":238634,"DIS_CODE":0,"TOWNNAME":"新化區","LI":"豐榮里","LIN":"13鄰","STREET":"民治路","SECT":" ","MAREA":" ","LANE":"１３巷","ALLEY":" ","HOUSE_NO":"２２號","E_COORD97":178670.20999999999,"N_COORD97":2547999.25,"ADDRESS":"民治路１３巷２２號","OBJECTID":238630},"geometry":{"x":178670.21000000089,"y":2547999.2499999981}},{"attributes":{"ID":238635,"DIS_CODE":0,"TOWNNAME":"新化區","LI":"豐榮里","LIN":"13鄰","STREET":"民治路","SECT":" ","MAREA":" ","LANE":"３３巷","ALLEY":" ","HOUSE_NO":"１６號","E_COORD97":178683.70999999999,"N_COORD97":2548053.25,"ADDRESS":"民治路３３巷１６號","OBJECTID":238631},"geometry":{"x":178683.71000000089,"y":2548053.25}},{"attributes":{"ID":238636,"DIS_CODE":0,"TOWNNAME":"官田區","LI":"二鎮里","LIN":"16鄰","STREET":" ","SECT":" ","MAREA":"二鎮","LANE":" ","ALLEY":" ","HOUSE_NO":"１３０號之１９","E_COORD97":181592.53,"N_COORD97":2568068.7599999998,"ADDRESS":"二鎮１３０號之１９","OBJECTID":238632},"geometry":{"x":181592.53000000119,"y":2568068.7599999998}},{"attributes":{"ID":238637,"DIS_CODE":0,"TOWNNAME":"官田區","LI":"二鎮里","LIN":"16鄰","STREET":" ","SECT":" ","MAREA":"二鎮","LANE":" ","ALLEY":" ","HOUSE_NO":"１３０號之１","E_COORD97":181597.85999999999,"N_COORD97":2568023.4199999999,"ADDRESS":"二鎮１３０號之１","OBJECTID":238633},"geometry":{"x":181597.86000000034,"y":2568023.4200000018}},{"attributes":{"ID":238638,"DIS_CODE":0,"TOWNNAME":"官田區","LI":"二鎮里","LIN":"16鄰","STREET":" ","SECT":" ","MAREA":"二鎮","LANE":" ","ALLEY":" ","HOUSE_NO":"１３０號之２０","E_COORD97":181604.17999999999,"N_COORD97":2568069.2799999998,"ADDRESS":"二鎮１３０號之２０","OBJECTID":238634},"geometry":{"x":181604.18000000063,"y":2568069.2799999993}},{"attributes":{"ID":238639,"DIS_CODE":0,"TOWNNAME":"永康區","LI":"新樹里","LIN":"5鄰","STREET":"西勢路","SECT":" ","MAREA":" ","LANE":"２２８巷","ALLEY":" ","HOUSE_NO":"１號","E_COORD97":175757.76999999999,"N_COORD97":2546802.6400000001,"ADDRESS":"西勢路２２８巷１號","OBJECTID":238635},"geometry":{"x":175757.76999999955,"y":2546802.6400000006}},{"attributes":{"ID":238640,"DIS_CODE":0,"TOWNNAME":"永康區","LI":"復華里","LIN":"41鄰","STREET":"復華六街","SECT":" ","MAREA":" ","LANE":"１０６巷","ALLEY":" ","HOUSE_NO":"３號","E_COORD97":172608.26999999999,"N_COORD97":2545879.3199999998,"ADDRESS":"復華六街１０６巷３號","OBJECTID":238636},"geometry":{"x":172608.27000000142,"y":2545879.3200000003}},{"attributes":{"ID":238641,"DIS_CODE":0,"TOWNNAME":"永康區","LI":"網寮里","LIN":"21鄰","STREET":"文化路","SECT":" ","MAREA":" ","LANE":"２６１巷","ALLEY":" ","HOUSE_NO":"１３號","E_COORD97":173614.72,"N_COORD97":2546099.3300000001,"ADDRESS":"文化路２６１巷１３號","OBJECTID":238637},"geometry":{"x":173614.72000000067,"y":2546099.3300000001}},{"attributes":{"ID":238642,"DIS_CODE":0,"TOWNNAME":"官田區","LI":"二鎮里","LIN":"16鄰","STREET":" ","SECT":" ","MAREA":"二鎮","LANE":" ","ALLEY":" ","HOUSE_NO":"１３０號之２１","E_COORD97":181612.42999999999,"N_COORD97":2568069.2999999998,"ADDRESS":"二鎮１３０號之２１","OBJECTID":238638},"geometry":{"x":181612.43000000063,"y":2568069.3000000007}},{"attributes":{"ID":238643,"DIS_CODE":0,"TOWNNAME":"官田區","LI":"二鎮里","LIN":"16鄰","STREET":" ","SECT":" ","MAREA":"二鎮","LANE":" ","ALLEY":" ","HOUSE_NO":"１３０號之２２","E_COORD97":181624.47,"N_COORD97":2568070.4700000002,"ADDRESS":"二鎮１３０號之２２","OBJECTID":238639},"geometry":{"x":181624.47000000067,"y":2568070.4700000025}},{"attributes":{"ID":238644,"DIS_CODE":0,"TOWNNAME":"官田區","LI":"二鎮里","LIN":"16鄰","STREET":" ","SECT":" ","MAREA":"二鎮","LANE":" ","ALLEY":" ","HOUSE_NO":"１３０號之２３","E_COORD97":181632.84,"N_COORD97":2568070.4300000002,"ADDRESS":"二鎮１３０號之２３","OBJECTID":238640},"geometry":{"x":181632.83999999985,"y":2568070.4300000016}},{"attributes":{"ID":238645,"DIS_CODE":0,"TOWNNAME":"官田區","LI":"二鎮里","LIN":"16鄰","STREET":" ","SECT":" ","MAREA":"二鎮","LANE":" ","ALLEY":" ","HOUSE_NO":"１３０號之２５","E_COORD97":181568.01999999999,"N_COORD97":2568082.4900000002,"ADDRESS":"二鎮１３０號之２５","OBJECTID":238641},"geometry":{"x":181568.02000000048,"y":2568082.4899999984}},{"attributes":{"ID":238646,"DIS_CODE":0,"TOWNNAME":"官田區","LI":"二鎮里","LIN":"16鄰","STREET":" ","SECT":" ","MAREA":"二鎮","LANE":" ","ALLEY":" ","HOUSE_NO":"１３０號之２６","E_COORD97":181575.04000000001,"N_COORD97":2568083.3100000001,"ADDRESS":"二鎮１３０號之２６","OBJECTID":238642},"geometry":{"x":181575.04000000097,"y":2568083.3100000005}},{"attributes":{"ID":238647,"DIS_CODE":0,"TOWNNAME":"官田區","LI":"二鎮里","LIN":"16鄰","STREET":" ","SECT":" ","MAREA":"二鎮","LANE":" ","ALLEY":" ","HOUSE_NO":"１３０號之２","E_COORD97":181607.17999999999,"N_COORD97":2568027.4399999999,"ADDRESS":"二鎮１３０號之２","OBJECTID":238643},"geometry":{"x":181607.18000000156,"y":2568027.4399999995}},{"attributes":{"ID":238648,"DIS_CODE":0,"TOWNNAME":"北區","LI":"小康里","LIN":"14鄰","STREET":"大武街","SECT":" ","MAREA":" ","LANE":" ","ALLEY":" ","HOUSE_NO":"３５５號","E_COORD97":169799.48999999999,"N_COORD97":2546386.8799999999,"ADDRESS":"大武街３５５號","OBJECTID":238644},"geometry":{"x":169799.49000000022,"y":2546386.8799999971}},{"attributes":{"ID":238649,"DIS_CODE":0,"TOWNNAME":"北區","LI":"小康里","LIN":"14鄰","STREET":"大武街","SECT":" ","MAREA":" ","LANE":" ","ALLEY":" ","HOUSE_NO":"３５７號","E_COORD97":169804.62,"N_COORD97":2546387.6099999999,"ADDRESS":"大武街３５７號","OBJECTID":238645},"geometry":{"x":169804.62000000104,"y":2546387.6100000013}},{"attributes":{"ID":238650,"DIS_CODE":0,"TOWNNAME":"北區","LI":"小康里","LIN":"14鄰","STREET":"大武街","SECT":" ","MAREA":" ","LANE":" ","ALLEY":" ","HOUSE_NO":"３５９號","E_COORD97":169809.64999999999,"N_COORD97":2546388.5299999998,"ADDRESS":"大武街３５９號","OBJECTID":238646},"geometry":{"x":169809.65000000224,"y":2546388.5299999993}},{"attributes":{"ID":238651,"DIS_CODE":0,"TOWNNAME":"永康區","LI":"復華里","LIN":"11鄰","STREET":"復國二路","SECT":" ","MAREA":" ","LANE":"２４３巷","ALLEY":" ","HOUSE_NO":"１５號","E_COORD97":172981.69,"N_COORD97":2546104.27,"ADDRESS":"復國二路２４３巷１５號","OBJECTID":238647},"geometry":{"x":172981.69000000134,"y":2546104.2700000014}},{"attributes":{"ID":238652,"DIS_CODE":0,"TOWNNAME":"新化區","LI":"豐榮里","LIN":"13鄰","STREET":"民治路","SECT":" ","MAREA":" ","LANE":"３３巷","ALLEY":" ","HOUSE_NO":"２２號","E_COORD97":178669.60999999999,"N_COORD97":2548050.25,"ADDRESS":"民治路３３巷２２號","OBJECTID":238648},"geometry":{"x":178669.61000000127,"y":2548050.2500000037}},{"attributes":{"ID":238653,"DIS_CODE":0,"TOWNNAME":"下營區","LI":"開化里","LIN":"16鄰","STREET":" ","SECT":" ","MAREA":"中營","LANE":" ","ALLEY":" ","HOUSE_NO":"４０號之１","E_COORD97":175685.20000000001,"N_COORD97":2568227.4500000002,"ADDRESS":"中營４０號之１","OBJECTID":238649},"geometry":{"x":175685.20000000112,"y":2568227.4499999974}},{"attributes":{"ID":238654,"DIS_CODE":0,"TOWNNAME":"下營區","LI":"開化里","LIN":"16鄰","STREET":" ","SECT":" ","MAREA":"中營","LANE":" ","ALLEY":" ","HOUSE_NO":"４０號","E_COORD97":175683.28,"N_COORD97":2568244.8999999999,"ADDRESS":"中營４０號","OBJECTID":238650},"geometry":{"x":175683.28000000026,"y":2568244.9000000004}},{"attributes":{"ID":238655,"DIS_CODE":0,"TOWNNAME":"新化區","LI":"太平里","LIN":"13鄰","STREET":"太平街","SECT":" ","MAREA":" ","LANE":"２２巷","ALLEY":" ","HOUSE_NO":"３０號","E_COORD97":178812.62,"N_COORD97":2548892.25,"ADDRESS":"太平街２２巷３０號","OBJECTID":238651},"geometry":{"x":178812.62000000197,"y":2548892.2500000019}},{"attributes":{"ID":238656,"DIS_CODE":0,"TOWNNAME":"新化區","LI":"協興里","LIN":"13鄰","STREET":"太平街","SECT":" ","MAREA":" ","LANE":"１５０巷","ALLEY":" ","HOUSE_NO":"１０９號","E_COORD97":178273.62,"N_COORD97":2548821.25,"ADDRESS":"太平街１５０巷１０９號","OBJECTID":238652},"geometry":{"x":178273.62000000197,"y":2548821.2500000019}},{"attributes":{"ID":238657,"DIS_CODE":0,"TOWNNAME":"下營區","LI":"開化里","LIN":"16鄰","STREET":" ","SECT":" ","MAREA":"中營","LANE":" ","ALLEY":" ","HOUSE_NO":"４１號","E_COORD97":175705.64999999999,"N_COORD97":2568262.21,"ADDRESS":"中營４１號","OBJECTID":238653},"geometry":{"x":175705.6500000013,"y":2568262.2100000028}},{"attributes":{"ID":238658,"DIS_CODE":0,"TOWNNAME":"新化區","LI":"協興里","LIN":"13鄰","STREET":"太平街","SECT":" ","MAREA":" ","LANE":"１５０巷","ALLEY":" ","HOUSE_NO":"８９號","E_COORD97":178288.37,"N_COORD97":2548816.25,"ADDRESS":"太平街１５０巷８９號","OBJECTID":238654},"geometry":{"x":178288.37000000011,"y":2548816.25}},{"attributes":{"ID":238659,"DIS_CODE":0,"TOWNNAME":"新化區","LI":"協興里","LIN":"13鄰","STREET":"太平街","SECT":" ","MAREA":" ","LANE":"１５０巷","ALLEY":" ","HOUSE_NO":"５３號","E_COORD97":178311.17000000001,"N_COORD97":2548821.25,"ADDRESS":"太平街１５０巷５３號","OBJECTID":238655},"geometry":{"x":178311.16999999993,"y":2548821.2500000019}},{"attributes":{"ID":238660,"DIS_CODE":0,"TOWNNAME":"下營區","LI":"開化里","LIN":"16鄰","STREET":" ","SECT":" ","MAREA":"中營","LANE":" ","ALLEY":" ","HOUSE_NO":"４２號","E_COORD97":175618.01999999999,"N_COORD97":2568207.1400000001,"ADDRESS":"中營４２號","OBJECTID":238656},"geometry":{"x":175618.02000000048,"y":2568207.1400000006}},{"attributes":{"ID":238661,"DIS_CODE":0,"TOWNNAME":"北區","LI":"小康里","LIN":"14鄰","STREET":"大武街","SECT":" ","MAREA":" ","LANE":" ","ALLEY":" ","HOUSE_NO":"３６１號","E_COORD97":169814.87,"N_COORD97":2546389.1699999999,"ADDRESS":"大武街３６１號","OBJECTID":238657},"geometry":{"x":169814.87000000104,"y":2546389.1699999999}},{"attributes":{"ID":238662,"DIS_CODE":0,"TOWNNAME":"永康區","LI":"復華里","LIN":"11鄰","STREET":"復國二路","SECT":" ","MAREA":" ","LANE":"２１５巷","ALLEY":" ","HOUSE_NO":"２２號","E_COORD97":172949.88,"N_COORD97":2546048.2599999998,"ADDRESS":"復國二路２１５巷２２號","OBJECTID":238658},"geometry":{"x":172949.87999999989,"y":2546048.2599999998}},{"attributes":{"ID":238663,"DIS_CODE":0,"TOWNNAME":"下營區","LI":"茅港里","LIN":"16鄰","STREET":" ","SECT":" ","MAREA":"中營","LANE":" ","ALLEY":" ","HOUSE_NO":"８１２號之１","E_COORD97":176083.81,"N_COORD97":2568480.54,"ADDRESS":"中營８１２號之１","OBJECTID":238659},"geometry":{"x":176083.81000000052,"y":2568480.5399999991}},{"attributes":{"ID":238664,"DIS_CODE":0,"TOWNNAME":"永康區","LI":"復國里","LIN":"5鄰","STREET":"復國一路","SECT":" ","MAREA":" ","LANE":"９０巷","ALLEY":" ","HOUSE_NO":"１號","E_COORD97":172734.47,"N_COORD97":2544937.9100000001,"ADDRESS":"復國一路９０巷１號","OBJECTID":238660},"geometry":{"x":172734.47000000067,"y":2544937.910000002}},{"attributes":{"ID":238665,"DIS_CODE":0,"TOWNNAME":"永康區","LI":"復華里","LIN":"15鄰","STREET":"國華街","SECT":" ","MAREA":" ","LANE":"９３巷","ALLEY":" ","HOUSE_NO":"１３號","E_COORD97":172791.48000000001,"N_COORD97":2545982.7400000002,"ADDRESS":"國華街９３巷１３號","OBJECTID":238661},"geometry":{"x":172791.48000000138,"y":2545982.7400000039}},{"attributes":{"ID":238666,"DIS_CODE":0,"TOWNNAME":"下營區","LI":"茅港里","LIN":"16鄰","STREET":" ","SECT":" ","MAREA":"中營","LANE":" ","ALLEY":" ","HOUSE_NO":"８１２號之２","E_COORD97":176082.53,"N_COORD97":2568487.1000000001,"ADDRESS":"中營８１２號之２","OBJECTID":238662},"geometry":{"x":176082.53000000212,"y":2568487.0999999996}},{"attributes":{"ID":238667,"DIS_CODE":0,"TOWNNAME":"新化區","LI":"協興里","LIN":"13鄰","STREET":"太平街","SECT":" ","MAREA":" ","LANE":"１５０巷","ALLEY":" ","HOUSE_NO":"７３號","E_COORD97":178279.76999999999,"N_COORD97":2548786.25,"ADDRESS":"太平街１５０巷７３號","OBJECTID":238663},"geometry":{"x":178279.76999999955,"y":2548786.2500000037}},{"attributes":{"ID":238668,"DIS_CODE":0,"TOWNNAME":"下營區","LI":"茅港里","LIN":"16鄰","STREET":" ","SECT":" ","MAREA":"中營","LANE":" ","ALLEY":" ","HOUSE_NO":"８１２號","E_COORD97":176086.06,"N_COORD97":2568474.3700000001,"ADDRESS":"中營８１２號","OBJECTID":238664},"geometry":{"x":176086.05999999959,"y":2568474.3700000048}},{"attributes":{"ID":238669,"DIS_CODE":0,"TOWNNAME":"新化區","LI":"太平里","LIN":"13鄰","STREET":"太平街","SECT":" ","MAREA":" ","LANE":"２２巷","ALLEY":" ","HOUSE_NO":"１３號","E_COORD97":178847.51999999999,"N_COORD97":2548858.25,"ADDRESS":"太平街２２巷１３號","OBJECTID":238665},"geometry":{"x":178847.51999999955,"y":2548858.2500000019}},{"attributes":{"ID":238670,"DIS_CODE":0,"TOWNNAME":"新化區","LI":"東榮里","LIN":"13鄰","STREET":"中興路","SECT":" ","MAREA":" ","LANE":"５５４巷","ALLEY":" ","HOUSE_NO":"４３號","E_COORD97":179910.16,"N_COORD97":2548050.25,"ADDRESS":"中興路５５４巷４３號","OBJECTID":238666},"geometry":{"x":179910.16000000015,"y":2548050.2500000037}},{"attributes":{"ID":238671,"DIS_CODE":0,"TOWNNAME":"下營區","LI":"中營里","LIN":"16鄰","STREET":" ","SECT":" ","MAREA":"中營","LANE":" ","ALLEY":" ","HOUSE_NO":"９０３號","E_COORD97":176042.20000000001,"N_COORD97":2568670.4300000002,"ADDRESS":"中營９０３號","OBJECTID":238667},"geometry":{"x":176042.20000000205,"y":2568670.4300000016}},{"attributes":{"ID":238672,"DIS_CODE":0,"TOWNNAME":"北區","LI":"小康里","LIN":"14鄰","STREET":"大武街","SECT":" ","MAREA":" ","LANE":" ","ALLEY":" ","HOUSE_NO":"３６３號","E_COORD97":169819.54000000001,"N_COORD97":2546390.1800000002,"ADDRESS":"大武街３６３號","OBJECTID":238668},"geometry":{"x":169819.54000000004,"y":2546390.1800000016}},{"attributes":{"ID":238673,"DIS_CODE":0,"TOWNNAME":"安平區","LI":"建平里","LIN":"14鄰","STREET":"建平十三街","SECT":" ","MAREA":" ","LANE":" ","ALLEY":" ","HOUSE_NO":"８６號","E_COORD97":166072.34,"N_COORD97":2544037.4900000002,"ADDRESS":"建平十三街８６號","OBJECTID":238669},"geometry":{"x":166072.34000000078,"y":2544037.4900000002}},{"attributes":{"ID":238674,"DIS_CODE":0,"TOWNNAME":"安平區","LI":"建平里","LIN":"14鄰","STREET":"建平十三街","SECT":" ","MAREA":" ","LANE":" ","ALLEY":" ","HOUSE_NO":"７２號","E_COORD97":166121.17999999999,"N_COORD97":2544029.6800000002,"ADDRESS":"建平十三街７２號","OBJECTID":238670},"geometry":{"x":166121.1799999997,"y":2544029.6800000034}},{"attributes":{"ID":238675,"DIS_CODE":0,"TOWNNAME":"安平區","LI":"建平里","LIN":"14鄰","STREET":"建平十三街","SECT":" ","MAREA":" ","LANE":" ","ALLEY":" ","HOUSE_NO":"７６號","E_COORD97":166114.03,"N_COORD97":2544030.7400000002,"ADDRESS":"建平十三街７６號","OBJECTID":238671},"geometry":{"x":166114.03000000026,"y":2544030.7400000021}},{"attributes":{"ID":238676,"DIS_CODE":0,"TOWNNAME":"永康區","LI":"西灣里","LIN":"16鄰","STREET":"民族路","SECT":" ","MAREA":" ","LANE":"４６５巷","ALLEY":" ","HOUSE_NO":"１７號","E_COORD97":174631.79999999999,"N_COORD97":2545377.5299999998,"ADDRESS":"民族路４６５巷１７號","OBJECTID":238672},"geometry":{"x":174631.79999999981,"y":2545377.5300000012}},{"attributes":{"ID":238677,"DIS_CODE":0,"TOWNNAME":"永康區","LI":"尚頂里","LIN":"16鄰","STREET":"中正南路","SECT":" ","MAREA":" ","LANE":"２２０巷","ALLEY":" ","HOUSE_NO":"１５號","E_COORD97":170172.59,"N_COORD97":2547310.96,"ADDRESS":"中正南路２２０巷１５號","OBJECTID":238673},"geometry":{"x":170172.59000000078,"y":2547310.9600000046}},{"attributes":{"ID":238678,"DIS_CODE":0,"TOWNNAME":"永康區","LI":"尚頂里","LIN":"16鄰","STREET":"中正南路","SECT":" ","MAREA":" ","LANE":"２２０巷","ALLEY":" ","HOUSE_NO":"１３號","E_COORD97":170159.85999999999,"N_COORD97":2547317.46,"ADDRESS":"中正南路２２０巷１３號","OBJECTID":238674},"geometry":{"x":170159.86000000034,"y":2547317.4600000046}},{"attributes":{"ID":238679,"DIS_CODE":0,"TOWNNAME":"下營區","LI":"中營里","LIN":"16鄰","STREET":" ","SECT":" ","MAREA":"中營","LANE":" ","ALLEY":" ","HOUSE_NO":"９３９號之１","E_COORD97":175901.45999999999,"N_COORD97":2568632.4300000002,"ADDRESS":"中營９３９號之１","OBJECTID":238675},"geometry":{"x":175901.46000000089,"y":2568632.4300000016}},{"attributes":{"ID":238680,"DIS_CODE":0,"TOWNNAME":"下營區","LI":"中營里","LIN":"16鄰","STREET":" ","SECT":" ","MAREA":"中營","LANE":" ","ALLEY":" ","HOUSE_NO":"９３９號","E_COORD97":175885.20999999999,"N_COORD97":2568673.0099999998,"ADDRESS":"中營９３９號","OBJECTID":238676},"geometry":{"x":175885.20999999996,"y":2568673.0100000016}},{"attributes":{"ID":238681,"DIS_CODE":0,"TOWNNAME":"永康區","LI":"西灣里","LIN":"16鄰","STREET":"民族路","SECT":" ","MAREA":" ","LANE":"４６５巷","ALLEY":" ","HOUSE_NO":"１號","E_COORD97":174637.25,"N_COORD97":2545413.29,"ADDRESS":"民族路４６５巷１號","OBJECTID":238677},"geometry":{"x":174637.25,"y":2545413.2899999991}},{"attributes":{"ID":238682,"DIS_CODE":0,"TOWNNAME":"永康區","LI":"尚頂里","LIN":"16鄰","STREET":"中正南路","SECT":" ","MAREA":" ","LANE":"２２０巷","ALLEY":" ","HOUSE_NO":"３１號","E_COORD97":170208.81,"N_COORD97":2547312.21,"ADDRESS":"中正南路２２０巷３１號","OBJECTID":238678},"geometry":{"x":170208.80999999959,"y":2547312.209999999}},{"attributes":{"ID":238683,"DIS_CODE":0,"TOWNNAME":"永康區","LI":"復華里","LIN":"14鄰","STREET":"國華街","SECT":" ","MAREA":" ","LANE":"９４巷","ALLEY":" ","HOUSE_NO":"９號","E_COORD97":172882.14999999999,"N_COORD97":2545900.25,"ADDRESS":"國華街９４巷９號","OBJECTID":238679},"geometry":{"x":172882.15000000037,"y":2545900.25}},{"attributes":{"ID":238684,"DIS_CODE":0,"TOWNNAME":"新化區","LI":"協興里","LIN":"13鄰","STREET":"太平街","SECT":" ","MAREA":" ","LANE":"１５０巷","ALLEY":" ","HOUSE_NO":"１１３號","E_COORD97":178281.32000000001,"N_COORD97":2548823.25,"ADDRESS":"太平街１５０巷１１３號","OBJECTID":238680},"geometry":{"x":178281.32000000123,"y":2548823.2500000037}},{"attributes":{"ID":238685,"DIS_CODE":0,"TOWNNAME":"新化區","LI":"東榮里","LIN":"13鄰","STREET":"中興路","SECT":" ","MAREA":" ","LANE":"５８１巷","ALLEY":" ","HOUSE_NO":"５號","E_COORD97":179879.91,"N_COORD97":2547893.25,"ADDRESS":"中興路５８１巷５號","OBJECTID":238681},"geometry":{"x":179879.91000000015,"y":2547893.25}},{"attributes":{"ID":238686,"DIS_CODE":0,"TOWNNAME":"新化區","LI":"太平里","LIN":"13鄰","STREET":"太平街","SECT":" ","MAREA":" ","LANE":"２２巷","ALLEY":" ","HOUSE_NO":"７號之２","E_COORD97":178870.23000000001,"N_COORD97":2548826.2599999998,"ADDRESS":"太平街２２巷７號之２","OBJECTID":238682},"geometry":{"x":178870.23000000138,"y":2548826.2599999979}},{"attributes":{"ID":238687,"DIS_CODE":0,"TOWNNAME":"新化區","LI":"豐榮里","LIN":"13鄰","STREET":"民治路","SECT":" ","MAREA":" ","LANE":"１３巷","ALLEY":" ","HOUSE_NO":"１８號","E_COORD97":178682.01000000001,"N_COORD97":2547994.25,"ADDRESS":"民治路１３巷１８號","OBJECTID":238683},"geometry":{"x":178682.00999999978,"y":2547994.2500000019}},{"attributes":{"ID":238688,"DIS_CODE":0,"TOWNNAME":"新化區","LI":"豐榮里","LIN":"13鄰","STREET":"信義路","SECT":" ","MAREA":" ","LANE":"４１７巷","ALLEY":" ","HOUSE_NO":"８號","E_COORD97":178614.42999999999,"N_COORD97":2548133.25,"ADDRESS":"信義路４１７巷８號","OBJECTID":238684},"geometry":{"x":178614.4299999997,"y":2548133.2500000019}},{"attributes":{"ID":238689,"DIS_CODE":0,"TOWNNAME":"七股區","LI":"後港里","LIN":"16鄰","STREET":" ","SECT":" ","MAREA":"港西","LANE":" ","ALLEY":" ","HOUSE_NO":"６３號","E_COORD97":162222.91,"N_COORD97":2564971.3900000001,"ADDRESS":"港西６３號","OBJECTID":238685},"geometry":{"x":162222.91000000015,"y":2564971.3900000043}},{"attributes":{"ID":238690,"DIS_CODE":0,"TOWNNAME":"新化區","LI":"豐榮里","LIN":"13鄰","STREET":"健康路","SECT":" ","MAREA":" ","LANE":"１０１巷","ALLEY":" ","HOUSE_NO":"６號","E_COORD97":178775.73000000001,"N_COORD97":2548177.2599999998,"ADDRESS":"健康路１０１巷６號","OBJECTID":238686},"geometry":{"x":178775.73000000138,"y":2548177.2599999998}},{"attributes":{"ID":238691,"DIS_CODE":0,"TOWNNAME":"新化區","LI":"豐榮里","LIN":"13鄰","STREET":"信義路","SECT":" ","MAREA":" ","LANE":"４１７巷","ALLEY":" ","HOUSE_NO":"１１號","E_COORD97":178590.57999999999,"N_COORD97":2548191.25,"ADDRESS":"信義路４１７巷１１號","OBJECTID":238687},"geometry":{"x":178590.58000000007,"y":2548191.25}},{"attributes":{"ID":238692,"DIS_CODE":0,"TOWNNAME":"新化區","LI":"豐榮里","LIN":"13鄰","STREET":"健康路","SECT":" ","MAREA":" ","LANE":"１０１巷","ALLEY":" ","HOUSE_NO":"２號","E_COORD97":178779.63,"N_COORD97":2548179.2599999998,"ADDRESS":"健康路１０１巷２號","OBJECTID":238688},"geometry":{"x":178779.62999999989,"y":2548179.2600000016}},{"attributes":{"ID":238693,"DIS_CODE":0,"TOWNNAME":"安平區","LI":"建平里","LIN":"14鄰","STREET":"建平十三街","SECT":" ","MAREA":" ","LANE":" ","ALLEY":" ","HOUSE_NO":"８０號","E_COORD97":166096.56,"N_COORD97":2544033.79,"ADDRESS":"建平十三街８０號","OBJECTID":238689},"geometry":{"x":166096.55999999959,"y":2544033.7899999991}},{"attributes":{"ID":238694,"DIS_CODE":0,"TOWNNAME":"安平區","LI":"建平里","LIN":"14鄰","STREET":"建平十三街","SECT":" ","MAREA":" ","LANE":" ","ALLEY":" ","HOUSE_NO":"８２號","E_COORD97":166086.5,"N_COORD97":2544035.1099999999,"ADDRESS":"建平十三街８２號","OBJECTID":238690},"geometry":{"x":166086.50000000093,"y":2544035.1099999994}},{"attributes":{"ID":238695,"DIS_CODE":0,"TOWNNAME":"安平區","LI":"金城里","LIN":"14鄰","STREET":"世平路","SECT":" ","MAREA":" ","LANE":" ","ALLEY":" ","HOUSE_NO":"１３６號","E_COORD97":162881.92999999999,"N_COORD97":2544070.7999999998,"ADDRESS":"世平路１３６號","OBJECTID":238691},"geometry":{"x":162881.9299999997,"y":2544070.8000000026}},{"attributes":{"ID":238696,"DIS_CODE":0,"TOWNNAME":"安平區","LI":"金城里","LIN":"14鄰","STREET":"世平路","SECT":" ","MAREA":" ","LANE":" ","ALLEY":" ","HOUSE_NO":"１５０號","E_COORD97":162863.54000000001,"N_COORD97":2544094,"ADDRESS":"世平路１５０號","OBJECTID":238692},"geometry":{"x":162863.54000000097,"y":2544094}},{"attributes":{"ID":238697,"DIS_CODE":0,"TOWNNAME":"安平區","LI":"金城里","LIN":"14鄰","STREET":"世平四街","SECT":" ","MAREA":" ","LANE":" ","ALLEY":" ","HOUSE_NO":"５１號","E_COORD97":162889.66,"N_COORD97":2544141.3199999998,"ADDRESS":"世平四街５１號","OBJECTID":238693},"geometry":{"x":162889.66000000108,"y":2544141.320000004}},{"attributes":{"ID":238698,"DIS_CODE":0,"TOWNNAME":"安平區","LI":"金城里","LIN":"14鄰","STREET":"世平四街","SECT":" ","MAREA":" ","LANE":" ","ALLEY":" ","HOUSE_NO":"５３號","E_COORD97":162884.73999999999,"N_COORD97":2544140.5299999998,"ADDRESS":"世平四街５３號","OBJECTID":238694},"geometry":{"x":162884.74000000115,"y":2544140.5299999993}},{"attributes":{"ID":238699,"DIS_CODE":0,"TOWNNAME":"安平區","LI":"金城里","LIN":"14鄰","STREET":"世平四街","SECT":" ","MAREA":" ","LANE":" ","ALLEY":" ","HOUSE_NO":"５５號","E_COORD97":162879.98000000001,"N_COORD97":2544139.1000000001,"ADDRESS":"世平四街５５號","OBJECTID":238695},"geometry":{"x":162879.98000000138,"y":2544139.1000000015}},{"attributes":{"ID":238700,"DIS_CODE":0,"TOWNNAME":"安南區","LI":"新順里","LIN":"16鄰","STREET":"頂安街","SECT":" ","MAREA":" ","LANE":"４０巷","ALLEY":" ","HOUSE_NO":"６號","E_COORD97":169625.79000000001,"N_COORD97":2549364,"ADDRESS":"頂安街４０巷６號","OBJECTID":238696},"geometry":{"x":169625.79000000097,"y":2549364.0000000037}},{"attributes":{"ID":238701,"DIS_CODE":0,"TOWNNAME":"安南區","LI":"新順里","LIN":"16鄰","STREET":"頂安街","SECT":" ","MAREA":" ","LANE":"６８巷","ALLEY":" ","HOUSE_NO":"２號","E_COORD97":169569.54000000001,"N_COORD97":2549368.6600000001,"ADDRESS":"頂安街６８巷２號","OBJECTID":238697},"geometry":{"x":169569.54000000097,"y":2549368.6600000001}},{"attributes":{"ID":238702,"DIS_CODE":0,"TOWNNAME":"安南區","LI":"新順里","LIN":"16鄰","STREET":"頂安街","SECT":" ","MAREA":" ","LANE":"６８巷","ALLEY":" ","HOUSE_NO":"６號","E_COORD97":169569.23000000001,"N_COORD97":2549373.77,"ADDRESS":"頂安街６８巷６號","OBJECTID":238698},"geometry":{"x":169569.23000000045,"y":2549373.7699999996}},{"attributes":{"ID":238703,"DIS_CODE":0,"TOWNNAME":"安南區","LI":"新順里","LIN":"16鄰","STREET":"頂安街","SECT":" ","MAREA":" ","LANE":"６８巷","ALLEY":" ","HOUSE_NO":"８號","E_COORD97":169571.39999999999,"N_COORD97":2549377.79,"ADDRESS":"頂安街６８巷８號","OBJECTID":238699},"geometry":{"x":169571.40000000037,"y":2549377.7899999991}},{"attributes":{"ID":238704,"DIS_CODE":0,"TOWNNAME":"安南區","LI":"新順里","LIN":"16鄰","STREET":"頂安街","SECT":" ","MAREA":" ","LANE":"６８巷","ALLEY":" ","HOUSE_NO":"１０號","E_COORD97":169570.25,"N_COORD97":2549382.6400000001,"ADDRESS":"頂安街６８巷１０號","OBJECTID":238700},"geometry":{"x":169570.25000000093,"y":2549382.6400000006}},{"attributes":{"ID":238705,"DIS_CODE":0,"TOWNNAME":"新化區","LI":"豐榮里","LIN":"13鄰","STREET":"民治路","SECT":" ","MAREA":" ","LANE":"３３巷","ALLEY":" ","HOUSE_NO":"２６號","E_COORD97":178665.31,"N_COORD97":2548050.25,"ADDRESS":"民治路３３巷２６號","OBJECTID":238701},"geometry":{"x":178665.31000000052,"y":2548050.2500000037}},{"attributes":{"ID":238706,"DIS_CODE":0,"TOWNNAME":"新化區","LI":"豐榮里","LIN":"13鄰","STREET":"民治路","SECT":" ","MAREA":" ","LANE":"４３巷","ALLEY":" ","HOUSE_NO":"１號","E_COORD97":178710.85999999999,"N_COORD97":2548088.25,"ADDRESS":"民治路４３巷１號","OBJECTID":238702},"geometry":{"x":178710.86000000034,"y":2548088.2500000019}},{"attributes":{"ID":238707,"DIS_CODE":0,"TOWNNAME":"新化區","LI":"東榮里","LIN":"13鄰","STREET":"中興路","SECT":" ","MAREA":" ","LANE":"５８０巷","ALLEY":" ","HOUSE_NO":"４６號","E_COORD97":179853.76000000001,"N_COORD97":2548075.25,"ADDRESS":"中興路５８０巷４６號","OBJECTID":238703},"geometry":{"x":179853.75999999885,"y":2548075.2500000019}},{"attributes":{"ID":238708,"DIS_CODE":0,"TOWNNAME":"安平區","LI":"怡平里","LIN":"13鄰","STREET":"建平十二街","SECT":" ","MAREA":" ","LANE":"３９６巷","ALLEY":" ","HOUSE_NO":"１８號","E_COORD97":165581.79999999999,"N_COORD97":2544102.2799999998,"ADDRESS":"建平十二街３９６巷１８號","OBJECTID":238704},"geometry":{"x":165581.80000000168,"y":2544102.2799999993}},{"attributes":{"ID":238709,"DIS_CODE":0,"TOWNNAME":"安平區","LI":"怡平里","LIN":"13鄰","STREET":"建平十二街","SECT":" ","MAREA":" ","LANE":"３９６巷","ALLEY":" ","HOUSE_NO":"１８之１號","E_COORD97":165581.79999999999,"N_COORD97":2544102.2799999998,"ADDRESS":"建平十二街３９６巷１８之１號","OBJECTID":238705},"geometry":{"x":165581.80000000168,"y":2544102.2799999993}},{"attributes":{"ID":238710,"DIS_CODE":0,"TOWNNAME":"安平區","LI":"華平里","LIN":"13鄰","STREET":"建平十二街","SECT":" ","MAREA":" ","LANE":"３９６巷","ALLEY":" ","HOUSE_NO":"１８之２號","E_COORD97":165581.79999999999,"N_COORD97":2544102.2799999998,"ADDRESS":"建平十二街３９６巷１８之２號","OBJECTID":238706},"geometry":{"x":165581.80000000168,"y":2544102.2799999993}},{"attributes":{"ID":238711,"DIS_CODE":0,"TOWNNAME":"善化區","LI":"嘉南里","LIN":"1鄰","STREET":" ","SECT":" ","MAREA":"茄拔","LANE":" ","ALLEY":" ","HOUSE_NO":"５５號","E_COORD97":181085.70000000001,"N_COORD97":2559569.7599999998,"ADDRESS":"茄拔５５號","OBJECTID":238707},"geometry":{"x":181085.70000000112,"y":2559569.7599999998}},{"attributes":{"ID":238712,"DIS_CODE":0,"TOWNNAME":"安平區","LI":"怡平里","LIN":"13鄰","STREET":"永華六街","SECT":" ","MAREA":" ","LANE":"２７９巷","ALLEY":" ","HOUSE_NO":"３號","E_COORD97":165640.44,"N_COORD97":2544108.02,"ADDRESS":"永華六街２７９巷３號","OBJECTID":238708},"geometry":{"x":165640.44000000041,"y":2544108.0199999996}},{"attributes":{"ID":238713,"DIS_CODE":0,"TOWNNAME":"安平區","LI":"怡平里","LIN":"13鄰","STREET":"華平路","SECT":" ","MAREA":" ","LANE":"６７２巷","ALLEY":" ","HOUSE_NO":"１０號","E_COORD97":165573.73000000001,"N_COORD97":2544095.8999999999,"ADDRESS":"華平路６７２巷１０號","OBJECTID":238709},"geometry":{"x":165573.73000000045,"y":2544095.9000000004}},{"attributes":{"ID":238714,"DIS_CODE":0,"TOWNNAME":"東區","LI":"德光里","LIN":"13鄰","STREET":"崇德三街","SECT":" ","MAREA":" ","LANE":"６７巷","ALLEY":" ","HOUSE_NO":"１０號","E_COORD97":170255.70999999999,"N_COORD97":2542319.6699999999,"ADDRESS":"崇德三街６７巷１０號","OBJECTID":238710},"geometry":{"x":170255.70999999996,"y":2542319.6699999999}},{"attributes":{"ID":238715,"DIS_CODE":0,"TOWNNAME":"東區","LI":"德光里","LIN":"13鄰","STREET":"崇德三街","SECT":" ","MAREA":" ","LANE":"６７巷","ALLEY":" ","HOUSE_NO":"１１號","E_COORD97":170254.04000000001,"N_COORD97":2542306.0600000001,"ADDRESS":"崇德三街６７巷１１號","OBJECTID":238711},"geometry":{"x":170254.0400000019,"y":2542306.0600000024}},{"attributes":{"ID":238716,"DIS_CODE":0,"TOWNNAME":"東區","LI":"德光里","LIN":"13鄰","STREET":"崇德三街","SECT":" ","MAREA":" ","LANE":"６７巷","ALLEY":" ","HOUSE_NO":"１２號","E_COORD97":170249.87,"N_COORD97":2542320.7799999998,"ADDRESS":"崇德三街６７巷１２號","OBJECTID":238712},"geometry":{"x":170249.87000000011,"y":2542320.7800000012}},{"attributes":{"ID":238717,"DIS_CODE":0,"TOWNNAME":"東區","LI":"德光里","LIN":"13鄰","STREET":"崇德三街","SECT":" ","MAREA":" ","LANE":"６７巷","ALLEY":" ","HOUSE_NO":"１３號","E_COORD97":170247.64999999999,"N_COORD97":2542308.3700000001,"ADDRESS":"崇德三街６７巷１３號","OBJECTID":238713},"geometry":{"x":170247.6500000013,"y":2542308.3700000029}},{"attributes":{"ID":238718,"DIS_CODE":0,"TOWNNAME":"東區","LI":"德光里","LIN":"13鄰","STREET":"崇德三街","SECT":" ","MAREA":" ","LANE":"６７巷","ALLEY":" ","HOUSE_NO":"１４號","E_COORD97":170244.48999999999,"N_COORD97":2542322.7200000002,"ADDRESS":"崇德三街６７巷１４號","OBJECTID":238714},"geometry":{"x":170244.49000000209,"y":2542322.7200000025}},{"attributes":{"ID":238719,"DIS_CODE":0,"TOWNNAME":"東區","LI":"德光里","LIN":"13鄰","STREET":"崇德三街","SECT":" ","MAREA":" ","LANE":"６７巷","ALLEY":" ","HOUSE_NO":"１５號","E_COORD97":170230.22,"N_COORD97":2542312.3500000001,"ADDRESS":"崇德三街６７巷１５號","OBJECTID":238715},"geometry":{"x":170230.21999999974,"y":2542312.3499999996}},{"attributes":{"ID":238720,"DIS_CODE":0,"TOWNNAME":"東區","LI":"德光里","LIN":"13鄰","STREET":"崇德三街","SECT":" ","MAREA":" ","LANE":"６７巷","ALLEY":" ","HOUSE_NO":"１號","E_COORD97":170280.67000000001,"N_COORD97":2542297.6000000001,"ADDRESS":"崇德三街６７巷１號","OBJECTID":238716},"geometry":{"x":170280.67000000086,"y":2542297.6000000034}},{"attributes":{"ID":238721,"DIS_CODE":0,"TOWNNAME":"東區","LI":"德光里","LIN":"13鄰","STREET":"崇德三街","SECT":" ","MAREA":" ","LANE":"６７巷","ALLEY":" ","HOUSE_NO":"２號","E_COORD97":170276.22,"N_COORD97":2542313.6600000001,"ADDRESS":"崇德三街６７巷２號","OBJECTID":238717},"geometry":{"x":170276.2200000016,"y":2542313.6600000001}},{"attributes":{"ID":238722,"DIS_CODE":0,"TOWNNAME":"東區","LI":"德光里","LIN":"13鄰","STREET":"崇德三街","SECT":" ","MAREA":" ","LANE":"６７巷","ALLEY":" ","HOUSE_NO":"３號","E_COORD97":170273.14000000001,"N_COORD97":2542300.9700000002,"ADDRESS":"崇德三街６７巷３號","OBJECTID":238718},"geometry":{"x":170273.13999999966,"y":2542300.9700000025}},{"attributes":{"ID":238723,"DIS_CODE":0,"TOWNNAME":"東區","LI":"德光里","LIN":"13鄰","STREET":"崇德三街","SECT":" ","MAREA":" ","LANE":"６７巷","ALLEY":" ","HOUSE_NO":"４號","E_COORD97":170271.38,"N_COORD97":2542315.3199999998,"ADDRESS":"崇德三街６７巷４號","OBJECTID":238719},"geometry":{"x":170271.37999999989,"y":2542315.3200000022}},{"attributes":{"ID":238724,"DIS_CODE":0,"TOWNNAME":"東區","LI":"德光里","LIN":"13鄰","STREET":"崇德三街","SECT":" ","MAREA":" ","LANE":"６７巷","ALLEY":" ","HOUSE_NO":"５號","E_COORD97":170266.64999999999,"N_COORD97":2542302.73,"ADDRESS":"崇德三街６７巷５號","OBJECTID":238720},"geometry":{"x":170266.65000000037,"y":2542302.7300000004}},{"attributes":{"ID":238725,"DIS_CODE":0,"TOWNNAME":"安平區","LI":"金城里","LIN":"14鄰","STREET":"世平四街","SECT":" ","MAREA":" ","LANE":" ","ALLEY":" ","HOUSE_NO":"５７號","E_COORD97":162876.48000000001,"N_COORD97":2544136.8799999999,"ADDRESS":"世平四街５７號","OBJECTID":238721},"geometry":{"x":162876.48000000138,"y":2544136.8800000008}},{"attributes":{"ID":238726,"DIS_CODE":0,"TOWNNAME":"安平區","LI":"金城里","LIN":"14鄰","STREET":"世平四街","SECT":" ","MAREA":" ","LANE":" ","ALLEY":" ","HOUSE_NO":"５９號","E_COORD97":162871.72,"N_COORD97":2544134.5,"ADDRESS":"世平四街５９號","OBJECTID":238722},"geometry":{"x":162871.7200000016,"y":2544134.5}},{"attributes":{"ID":238727,"DIS_CODE":0,"TOWNNAME":"七股區","LI":"後港里","LIN":"16鄰","STREET":" ","SECT":" ","MAREA":"港西","LANE":" ","ALLEY":" ","HOUSE_NO":"５７號","E_COORD97":162229.5,"N_COORD97":2564919.7799999998,"ADDRESS":"港西５７號","OBJECTID":238723},"geometry":{"x":162229.50000000093,"y":2564919.7799999975}},{"attributes":{"ID":238728,"DIS_CODE":0,"TOWNNAME":"安平區","LI":"金城里","LIN":"14鄰","STREET":"世平四街","SECT":" ","MAREA":" ","LANE":" ","ALLEY":" ","HOUSE_NO":"６１號","E_COORD97":162868.23000000001,"N_COORD97":2544133.0699999998,"ADDRESS":"世平四街６１號","OBJECTID":238724},"geometry":{"x":162868.23000000045,"y":2544133.0700000022}},{"attributes":{"ID":238729,"DIS_CODE":0,"TOWNNAME":"安平區","LI":"金城里","LIN":"14鄰","STREET":"世平四街","SECT":" ","MAREA":" ","LANE":" ","ALLEY":" ","HOUSE_NO":"６３號","E_COORD97":162865.04999999999,"N_COORD97":2544131.6400000001,"ADDRESS":"世平四街６３號","OBJECTID":238725},"geometry":{"x":162865.05000000075,"y":2544131.6400000006}},{"attributes":{"ID":238730,"DIS_CODE":0,"TOWNNAME":"安平區","LI":"怡平里","LIN":"14鄰","STREET":"華平路","SECT":" ","MAREA":" ","LANE":" ","ALLEY":" ","HOUSE_NO":"６６０號","E_COORD97":165511.89000000001,"N_COORD97":2544072.3700000001,"ADDRESS":"華平路６６０號","OBJECTID":238726},"geometry":{"x":165511.8900000006,"y":2544072.370000001}},{"attributes":{"ID":238731,"DIS_CODE":0,"TOWNNAME":"東區","LI":"虎尾里","LIN":"16鄰","STREET":"東成街","SECT":" ","MAREA":" ","LANE":"５６巷","ALLEY":" ","HOUSE_NO":"８號","E_COORD97":171375.20999999999,"N_COORD97":2542228.4700000002,"ADDRESS":"東成街５６巷８號","OBJECTID":238727},"geometry":{"x":171375.21000000089,"y":2542228.4700000044}},{"attributes":{"ID":238732,"DIS_CODE":0,"TOWNNAME":"安南區","LI":"淵東里","LIN":"16鄰","STREET":"智安一街","SECT":" ","MAREA":" ","LANE":"１８巷","ALLEY":" ","HOUSE_NO":"１６號","E_COORD97":165689.23999999999,"N_COORD97":2549983.9399999999,"ADDRESS":"智安一街１８巷１６號","OBJECTID":238728},"geometry":{"x":165689.24000000022,"y":2549983.9399999995}},{"attributes":{"ID":238733,"DIS_CODE":0,"TOWNNAME":"東區","LI":"德光里","LIN":"13鄰","STREET":"崇德三街","SECT":" ","MAREA":" ","LANE":"６７巷","ALLEY":" ","HOUSE_NO":"６號","E_COORD97":170268.04000000001,"N_COORD97":2542316.0600000001,"ADDRESS":"崇德三街６７巷６號","OBJECTID":238729},"geometry":{"x":170268.04000000097,"y":2542316.0600000024}},{"attributes":{"ID":238734,"DIS_CODE":0,"TOWNNAME":"東區","LI":"德光里","LIN":"13鄰","STREET":"崇德三街","SECT":" ","MAREA":" ","LANE":"７９巷","ALLEY":" ","HOUSE_NO":"１０號","E_COORD97":170288.85000000001,"N_COORD97":2542361.7200000002,"ADDRESS":"崇德三街７９巷１０號","OBJECTID":238730},"geometry":{"x":170288.85000000149,"y":2542361.7200000007}},{"attributes":{"ID":238735,"DIS_CODE":0,"TOWNNAME":"東區","LI":"德光里","LIN":"13鄰","STREET":"崇德三街","SECT":" ","MAREA":" ","LANE":"７９巷","ALLEY":" ","HOUSE_NO":"１２號","E_COORD97":170284.56,"N_COORD97":2542366,"ADDRESS":"崇德三街７９巷１２號","OBJECTID":238731},"geometry":{"x":170284.56000000052,"y":2542366}},{"attributes":{"ID":238736,"DIS_CODE":0,"TOWNNAME":"南區","LI":"日新里","LIN":"13鄰","STREET":"金華路","SECT":"一段","MAREA":" ","LANE":"５０３巷","ALLEY":" ","HOUSE_NO":"３４號","E_COORD97":166896.23000000001,"N_COORD97":2541625.9500000002,"ADDRESS":"金華路一段５０３巷３４號","OBJECTID":238732},"geometry":{"x":166896.23000000045,"y":2541625.9499999993}},{"attributes":{"ID":238737,"DIS_CODE":0,"TOWNNAME":"南區","LI":"日新里","LIN":"13鄰","STREET":"金華路","SECT":"一段","MAREA":" ","LANE":"５０３巷","ALLEY":" ","HOUSE_NO":"４０號","E_COORD97":166876.29000000001,"N_COORD97":2541604.1699999999,"ADDRESS":"金華路一段５０３巷４０號","OBJECTID":238733},"geometry":{"x":166876.29000000097,"y":2541604.1699999999}},{"attributes":{"ID":238738,"DIS_CODE":0,"TOWNNAME":"南區","LI":"日新里","LIN":"13鄰","STREET":"金華路","SECT":"一段","MAREA":" ","LANE":"５０３巷","ALLEY":" ","HOUSE_NO":"４２號","E_COORD97":166872.76000000001,"N_COORD97":2541600.1699999999,"ADDRESS":"金華路一段５０３巷４２號","OBJECTID":238734},"geometry":{"x":166872.76000000071,"y":2541600.1700000018}},{"attributes":{"ID":238739,"DIS_CODE":0,"TOWNNAME":"南區","LI":"日新里","LIN":"13鄰","STREET":"金華路","SECT":"一段","MAREA":" ","LANE":"５０３巷","ALLEY":" ","HOUSE_NO":"４４號","E_COORD97":166869.14000000001,"N_COORD97":2541596.3599999999,"ADDRESS":"金華路一段５０３巷４４號","OBJECTID":238735},"geometry":{"x":166869.13999999966,"y":2541596.3599999994}},{"attributes":{"ID":238740,"DIS_CODE":0,"TOWNNAME":"南區","LI":"日新里","LIN":"13鄰","STREET":"金華路","SECT":"一段","MAREA":" ","LANE":"５０３巷","ALLEY":" ","HOUSE_NO":"４６號","E_COORD97":166866.07999999999,"N_COORD97":2541591.5499999998,"ADDRESS":"金華路一段５０３巷４６號","OBJECTID":238736},"geometry":{"x":166866.08000000007,"y":2541591.5500000026}},{"attributes":{"ID":238741,"DIS_CODE":0,"TOWNNAME":"南區","LI":"日新里","LIN":"13鄰","STREET":"金華路","SECT":"一段","MAREA":" ","LANE":"５０３巷","ALLEY":" ","HOUSE_NO":"４８號","E_COORD97":166863.03,"N_COORD97":2541587.54,"ADDRESS":"金華路一段５０３巷４８號","OBJECTID":238737},"geometry":{"x":166863.03000000119,"y":2541587.5399999991}},{"attributes":{"ID":238742,"DIS_CODE":0,"TOWNNAME":"南區","LI":"日新里","LIN":"13鄰","STREET":"金華路","SECT":"一段","MAREA":" ","LANE":"５０３巷","ALLEY":" ","HOUSE_NO":"５０號","E_COORD97":166860.64000000001,"N_COORD97":2541584.02,"ADDRESS":"金華路一段５０３巷５０號","OBJECTID":238738},"geometry":{"x":166860.63999999966,"y":2541584.0200000014}},{"attributes":{"ID":238743,"DIS_CODE":0,"TOWNNAME":"南區","LI":"日新里","LIN":"13鄰","STREET":"金華路","SECT":"一段","MAREA":" ","LANE":"５０３巷","ALLEY":" ","HOUSE_NO":"５２號","E_COORD97":166857.39999999999,"N_COORD97":2541580.5899999999,"ADDRESS":"金華路一段５０３巷５２號","OBJECTID":238739},"geometry":{"x":166857.40000000037,"y":2541580.5900000017}},{"attributes":{"ID":238744,"DIS_CODE":0,"TOWNNAME":"南區","LI":"日新里","LIN":"13鄰","STREET":"金華路","SECT":"一段","MAREA":" ","LANE":"５０３巷","ALLEY":" ","HOUSE_NO":"５４號","E_COORD97":166853.87,"N_COORD97":2541576.5,"ADDRESS":"金華路一段５０３巷５４號","OBJECTID":238740},"geometry":{"x":166853.87000000104,"y":2541576.5000000037}},{"attributes":{"ID":238745,"DIS_CODE":0,"TOWNNAME":"南區","LI":"日新里","LIN":"13鄰","STREET":"金華路","SECT":"一段","MAREA":" ","LANE":"５０３巷","ALLEY":" ","HOUSE_NO":"５６號","E_COORD97":166850.72,"N_COORD97":2541572.2999999998,"ADDRESS":"金華路一段５０３巷５６號","OBJECTID":238741},"geometry":{"x":166850.72000000067,"y":2541572.3000000026}},{"attributes":{"ID":238746,"DIS_CODE":0,"TOWNNAME":"南區","LI":"田寮里","LIN":"13鄰","STREET":"西門路","SECT":"一段","MAREA":" ","LANE":"３７３巷","ALLEY":" ","HOUSE_NO":"１４號","E_COORD97":167689.70000000001,"N_COORD97":2542160.1699999999,"ADDRESS":"西門路一段３７３巷１４號","OBJECTID":238742},"geometry":{"x":167689.70000000019,"y":2542160.1699999999}},{"attributes":{"ID":238747,"DIS_CODE":0,"TOWNNAME":"南區","LI":"田寮里","LIN":"13鄰","STREET":"西門路","SECT":"一段","MAREA":" ","LANE":"３７３巷","ALLEY":" ","HOUSE_NO":"１６號","E_COORD97":167684.35000000001,"N_COORD97":2542160.1699999999,"ADDRESS":"西門路一段３７３巷１６號","OBJECTID":238743},"geometry":{"x":167684.34999999963,"y":2542160.1699999999}},{"attributes":{"ID":238748,"DIS_CODE":0,"TOWNNAME":"安平區","LI":"怡平里","LIN":"14鄰","STREET":"華平路","SECT":" ","MAREA":" ","LANE":" ","ALLEY":" ","HOUSE_NO":"６５６號","E_COORD97":165518.87,"N_COORD97":2544059.5099999998,"ADDRESS":"華平路６５６號","OBJECTID":238744},"geometry":{"x":165518.86999999918,"y":2544059.5100000016}},{"attributes":{"ID":238749,"DIS_CODE":0,"TOWNNAME":"安平區","LI":"怡平里","LIN":"14鄰","STREET":"華平路","SECT":" ","MAREA":" ","LANE":" ","ALLEY":" ","HOUSE_NO":"６５８號","E_COORD97":165513,"N_COORD97":2544065.71,"ADDRESS":"華平路６５８號","OBJECTID":238745},"geometry":{"x":165513.00000000186,"y":2544065.7100000028}},{"attributes":{"ID":238750,"DIS_CODE":0,"TOWNNAME":"永康區","LI":"勝利里","LIN":"24鄰","STREET":"勝利街","SECT":" ","MAREA":" ","LANE":"９０巷","ALLEY":" ","HOUSE_NO":"１９號","E_COORD97":171403.63,"N_COORD97":2544753.7599999998,"ADDRESS":"勝利街９０巷１９號","OBJECTID":238746},"geometry":{"x":171403.62999999989,"y":2544753.7599999998}},{"attributes":{"ID":238751,"DIS_CODE":0,"TOWNNAME":"永康區","LI":"復華里","LIN":"24鄰","STREET":"復華八街","SECT":" ","MAREA":" ","LANE":"５６巷","ALLEY":" ","HOUSE_NO":"２１號","E_COORD97":172807.64000000001,"N_COORD97":2546278.52,"ADDRESS":"復華八街５６巷２１號","OBJECTID":238747},"geometry":{"x":172807.64000000153,"y":2546278.5200000014}},{"attributes":{"ID":238752,"DIS_CODE":0,"TOWNNAME":"永康區","LI":"勝利里","LIN":"14鄰","STREET":"勝利街","SECT":" ","MAREA":" ","LANE":"７７巷","ALLEY":" ","HOUSE_NO":"１６號","E_COORD97":171263.45000000001,"N_COORD97":2544788.5099999998,"ADDRESS":"勝利街７７巷１６號","OBJECTID":238748},"geometry":{"x":171263.45000000205,"y":2544788.5099999998}},{"attributes":{"ID":238753,"DIS_CODE":0,"TOWNNAME":"永康區","LI":"復華里","LIN":"15鄰","STREET":"國華街","SECT":" ","MAREA":" ","LANE":"９３巷","ALLEY":" ","HOUSE_NO":"２號","E_COORD97":172807.12,"N_COORD97":2546022.2400000002,"ADDRESS":"國華街９３巷２號","OBJECTID":238749},"geometry":{"x":172807.12000000104,"y":2546022.2400000002}},{"attributes":{"ID":238754,"DIS_CODE":0,"TOWNNAME":"永康區","LI":"復華里","LIN":"28鄰","STREET":"復華八街","SECT":" ","MAREA":" ","LANE":"４５巷","ALLEY":" ","HOUSE_NO":"１１號","E_COORD97":172736.78,"N_COORD97":2546339.0099999998,"ADDRESS":"復華八街４５巷１１號","OBJECTID":238750},"geometry":{"x":172736.78000000119,"y":2546339.0099999998}},{"attributes":{"ID":238755,"DIS_CODE":0,"TOWNNAME":"安南區","LI":"淵西里","LIN":"16鄰","STREET":"安中路","SECT":"四段","MAREA":" ","LANE":"２２５巷","ALLEY":" ","HOUSE_NO":"２號","E_COORD97":164668.14999999999,"N_COORD97":2550124.2799999998,"ADDRESS":"安中路四段２２５巷２號","OBJECTID":238751},"geometry":{"x":164668.15000000224,"y":2550124.2800000031}},{"attributes":{"ID":238756,"DIS_CODE":0,"TOWNNAME":"永康區","LI":"復國里","LIN":"36鄰","STREET":"復國一路","SECT":" ","MAREA":" ","LANE":"２１巷","ALLEY":" ","HOUSE_NO":"１５號","E_COORD97":172655.67000000001,"N_COORD97":2544801.27,"ADDRESS":"復國一路２１巷１５號","OBJECTID":238752},"geometry":{"x":172655.67000000086,"y":2544801.2699999996}},{"attributes":{"ID":238757,"DIS_CODE":0,"TOWNNAME":"永康區","LI":"復國里","LIN":"13鄰","STREET":"復華三街","SECT":" ","MAREA":" ","LANE":"１３巷","ALLEY":" ","HOUSE_NO":"５號","E_COORD97":172909.62,"N_COORD97":2545502.2799999998,"ADDRESS":"復華三街１３巷５號","OBJECTID":238753},"geometry":{"x":172909.62000000011,"y":2545502.2799999993}},{"attributes":{"ID":238758,"DIS_CODE":0,"TOWNNAME":"南區","LI":"田寮里","LIN":"13鄰","STREET":"西門路","SECT":"一段","MAREA":" ","LANE":"３７３巷","ALLEY":" ","HOUSE_NO":"１８號","E_COORD97":167677.85999999999,"N_COORD97":2542159.75,"ADDRESS":"西門路一段３７３巷１８號","OBJECTID":238754},"geometry":{"x":167677.86000000127,"y":2542159.75}},{"attributes":{"ID":238759,"DIS_CODE":0,"TOWNNAME":"南區","LI":"田寮里","LIN":"13鄰","STREET":"新興路","SECT":" ","MAREA":" ","LANE":"４１巷","ALLEY":" ","HOUSE_NO":"１２號","E_COORD97":167661.03,"N_COORD97":2542183.52,"ADDRESS":"新興路４１巷１２號","OBJECTID":238755},"geometry":{"x":167661.03000000119,"y":2542183.5200000014}},{"attributes":{"ID":238760,"DIS_CODE":0,"TOWNNAME":"南區","LI":"田寮里","LIN":"13鄰","STREET":"新興路","SECT":" ","MAREA":" ","LANE":"４１巷","ALLEY":" ","HOUSE_NO":"１５號","E_COORD97":167670.67000000001,"N_COORD97":2542171.1499999999,"ADDRESS":"新興路４１巷１５號","OBJECTID":238756},"geometry":{"x":167670.66999999993,"y":2542171.1500000004}},{"attributes":{"ID":238761,"DIS_CODE":0,"TOWNNAME":"南區","LI":"田寮里","LIN":"13鄰","STREET":"新興路","SECT":" ","MAREA":" ","LANE":"４１巷","ALLEY":" ","HOUSE_NO":"１５號之１","E_COORD97":167669.82000000001,"N_COORD97":2542160.1699999999,"ADDRESS":"新興路４１巷１５號之１","OBJECTID":238757},"geometry":{"x":167669.82000000123,"y":2542160.1699999999}},{"attributes":{"ID":238762,"DIS_CODE":0,"TOWNNAME":"南區","LI":"田寮里","LIN":"13鄰","STREET":"新興路","SECT":" ","MAREA":" ","LANE":"９１巷","ALLEY":" ","HOUSE_NO":"９號","E_COORD97":167629.76000000001,"N_COORD97":2542159.7599999998,"ADDRESS":"新興路９１巷９號","OBJECTID":238758},"geometry":{"x":167629.75999999885,"y":2542159.7599999998}},{"attributes":{"ID":238763,"DIS_CODE":0,"TOWNNAME":"南區","LI":"田寮里","LIN":"13鄰","STREET":"新興路","SECT":" ","MAREA":" ","LANE":"９１巷","ALLEY":" ","HOUSE_NO":"７號","E_COORD97":167625.85000000001,"N_COORD97":2542159.3599999999,"ADDRESS":"新興路９１巷７號","OBJECTID":238759},"geometry":{"x":167625.85000000056,"y":2542159.3599999994}},{"attributes":{"ID":238764,"DIS_CODE":0,"TOWNNAME":"南區","LI":"田寮里","LIN":"13鄰","STREET":"新興路","SECT":" ","MAREA":" ","LANE":"９１巷","ALLEY":" ","HOUSE_NO":"５號","E_COORD97":167622.20000000001,"N_COORD97":2542159.1099999999,"ADDRESS":"新興路９１巷５號","OBJECTID":238760},"geometry":{"x":167622.20000000205,"y":2542159.1100000013}},{"attributes":{"ID":238765,"DIS_CODE":0,"TOWNNAME":"南區","LI":"田寮里","LIN":"13鄰","STREET":"新興路","SECT":" ","MAREA":" ","LANE":"９１巷","ALLEY":" ","HOUSE_NO":"３號","E_COORD97":167617.67000000001,"N_COORD97":2542158.8199999998,"ADDRESS":"新興路９１巷３號","OBJECTID":238761},"geometry":{"x":167617.67000000086,"y":2542158.8200000022}},{"attributes":{"ID":238766,"DIS_CODE":0,"TOWNNAME":"安平區","LI":"怡平里","LIN":"14鄰","STREET":"華平路","SECT":" ","MAREA":" ","LANE":" ","ALLEY":" ","HOUSE_NO":"６６０號","E_COORD97":165512.51999999999,"N_COORD97":2544068.5600000001,"ADDRESS":"華平路６６０號","OBJECTID":238762},"geometry":{"x":165512.52000000048,"y":2544068.5600000042}},{"attributes":{"ID":238767,"DIS_CODE":0,"TOWNNAME":"安平區","LI":"怡平里","LIN":"14鄰","STREET":"華平路","SECT":" ","MAREA":" ","LANE":" ","ALLEY":" ","HOUSE_NO":"６６２號","E_COORD97":165512.35999999999,"N_COORD97":2544076.98,"ADDRESS":"華平路６６２號","OBJECTID":238763},"geometry":{"x":165512.3599999994,"y":2544076.9800000023}},{"attributes":{"ID":238768,"DIS_CODE":0,"TOWNNAME":"安平區","LI":"怡平里","LIN":"14鄰","STREET":"華平路","SECT":" ","MAREA":" ","LANE":" ","ALLEY":" ","HOUSE_NO":"６６６號","E_COORD97":165512.84,"N_COORD97":2544081.1000000001,"ADDRESS":"華平路６６６號","OBJECTID":238764},"geometry":{"x":165512.84000000078,"y":2544081.1000000015}},{"attributes":{"ID":238769,"DIS_CODE":0,"TOWNNAME":"安平區","LI":"怡平里","LIN":"14鄰","STREET":"華平路","SECT":" ","MAREA":" ","LANE":" ","ALLEY":" ","HOUSE_NO":"６６８號","E_COORD97":165512.84,"N_COORD97":2544084.7599999998,"ADDRESS":"華平路６６８號","OBJECTID":238765},"geometry":{"x":165512.84000000078,"y":2544084.7600000016}},{"attributes":{"ID":238770,"DIS_CODE":0,"TOWNNAME":"安平區","LI":"怡平里","LIN":"14鄰","STREET":"華平路","SECT":" ","MAREA":" ","LANE":" ","ALLEY":" ","HOUSE_NO":"６７０號","E_COORD97":165515.06,"N_COORD97":2544089.2000000002,"ADDRESS":"華平路６７０號","OBJECTID":238766},"geometry":{"x":165515.05999999959,"y":2544089.1999999993}},{"attributes":{"ID":238771,"DIS_CODE":0,"TOWNNAME":"安平區","LI":"海頭里","LIN":"14鄰","STREET":"中興街","SECT":" ","MAREA":" ","LANE":" ","ALLEY":" ","HOUSE_NO":"９０號","E_COORD97":164061.60000000001,"N_COORD97":2544778.8799999999,"ADDRESS":"中興街９０號","OBJECTID":238767},"geometry":{"x":164061.59999999963,"y":2544778.879999999}},{"attributes":{"ID":238772,"DIS_CODE":0,"TOWNNAME":"安平區","LI":"建平里","LIN":"14鄰","STREET":"建平路","SECT":" ","MAREA":" ","LANE":" ","ALLEY":" ","HOUSE_NO":"６５９號","E_COORD97":166309.01000000001,"N_COORD97":2544012.04,"ADDRESS":"建平路６５９號","OBJECTID":238768},"geometry":{"x":166309.00999999978,"y":2544012.0399999991}},{"attributes":{"ID":238773,"DIS_CODE":0,"TOWNNAME":"安平區","LI":"建平里","LIN":"14鄰","STREET":"建平十三街","SECT":" ","MAREA":" ","LANE":" ","ALLEY":" ","HOUSE_NO":"４６號","E_COORD97":166202.47,"N_COORD97":2544023.1899999999,"ADDRESS":"建平十三街４６號","OBJECTID":238769},"geometry":{"x":166202.46999999974,"y":2544023.1900000013}},{"attributes":{"ID":238774,"DIS_CODE":0,"TOWNNAME":"永康區","LI":"復華里","LIN":"22鄰","STREET":"復華七街","SECT":" ","MAREA":" ","LANE":"１１７巷","ALLEY":" ","HOUSE_NO":"１９號","E_COORD97":172771.04000000001,"N_COORD97":2546153.9700000002,"ADDRESS":"復華七街１１７巷１９號","OBJECTID":238770},"geometry":{"x":172771.04000000004,"y":2546153.9700000007}},{"attributes":{"ID":238775,"DIS_CODE":0,"TOWNNAME":"永康區","LI":"復國里","LIN":"32鄰","STREET":"復華一街","SECT":" ","MAREA":" ","LANE":"１９巷","ALLEY":" ","HOUSE_NO":"２１號","E_COORD97":172652.75,"N_COORD97":2544987.2799999998,"ADDRESS":"復華一街１９巷２１號","OBJECTID":238771},"geometry":{"x":172652.75,"y":2544987.2799999993}},{"attributes":{"ID":238776,"DIS_CODE":0,"TOWNNAME":"永康區","LI":"復華里","LIN":"40鄰","STREET":"復華七街","SECT":" ","MAREA":" ","LANE":"３２巷","ALLEY":" ","HOUSE_NO":"２８號","E_COORD97":172682.89999999999,"N_COORD97":2545878.21,"ADDRESS":"復華七街３２巷２８號","OBJECTID":238772},"geometry":{"x":172682.90000000224,"y":2545878.2100000046}},{"attributes":{"ID":238777,"DIS_CODE":0,"TOWNNAME":"永康區","LI":"勝利里","LIN":"14鄰","STREET":"勝利街","SECT":" ","MAREA":" ","LANE":"７７巷","ALLEY":" ","HOUSE_NO":"１１號","E_COORD97":171309.04999999999,"N_COORD97":2544762.2599999998,"ADDRESS":"勝利街７７巷１１號","OBJECTID":238773},"geometry":{"x":171309.04999999981,"y":2544762.2600000016}},{"attributes":{"ID":238778,"DIS_CODE":0,"TOWNNAME":"永康區","LI":"復國里","LIN":"7鄰","STREET":"復國一路","SECT":" ","MAREA":" ","LANE":"１５０巷","ALLEY":" ","HOUSE_NO":"２０號","E_COORD97":172780.89000000001,"N_COORD97":2545067.3700000001,"ADDRESS":"復國一路１５０巷２０號","OBJECTID":238774},"geometry":{"x":172780.8900000006,"y":2545067.3700000029}},{"attributes":{"ID":238779,"DIS_CODE":0,"TOWNNAME":"永康區","LI":"勝利里","LIN":"15鄰","STREET":"勝利街","SECT":" ","MAREA":" ","LANE":"９５巷","ALLEY":" ","HOUSE_NO":"１號","E_COORD97":171334.26000000001,"N_COORD97":2544861.2599999998,"ADDRESS":"勝利街９５巷１號","OBJECTID":238775},"geometry":{"x":171334.26000000071,"y":2544861.2600000016}},{"attributes":{"ID":238780,"DIS_CODE":0,"TOWNNAME":"永康區","LI":"復國里","LIN":"6鄰","STREET":"復國一路","SECT":" ","MAREA":" ","LANE":"１２０巷","ALLEY":" ","HOUSE_NO":"３５號","E_COORD97":172777.14000000001,"N_COORD97":2545029.27,"ADDRESS":"復國一路１２０巷３５號","OBJECTID":238776},"geometry":{"x":172777.14000000153,"y":2545029.2700000014}},{"attributes":{"ID":238781,"DIS_CODE":0,"TOWNNAME":"南區","LI":"田寮里","LIN":"13鄰","STREET":"新興路","SECT":" ","MAREA":" ","LANE":"９１巷","ALLEY":" ","HOUSE_NO":"１號","E_COORD97":167613.70999999999,"N_COORD97":2542158.4500000002,"ADDRESS":"新興路９１巷１號","OBJECTID":238777},"geometry":{"x":167613.71000000089,"y":2542158.4499999993}},{"attributes":{"ID":238782,"DIS_CODE":0,"TOWNNAME":"永康區","LI":"正強里","LIN":"13鄰","STREET":"自強路","SECT":" ","MAREA":" ","LANE":"１８８巷","ALLEY":" ","HOUSE_NO":"２７號","E_COORD97":173218.20000000001,"N_COORD97":2547412.6200000001,"ADDRESS":"自強路１８８巷２７號","OBJECTID":238778},"geometry":{"x":173218.20000000112,"y":2547412.6200000029}},{"attributes":{"ID":238783,"DIS_CODE":0,"TOWNNAME":"新化區","LI":"協興里","LIN":"13鄰","STREET":"太平街","SECT":" ","MAREA":" ","LANE":"１５０巷","ALLEY":" ","HOUSE_NO":"４１號","E_COORD97":178316.87,"N_COORD97":2548798.25,"ADDRESS":"太平街１５０巷４１號","OBJECTID":238779},"geometry":{"x":178316.87000000011,"y":2548798.25}},{"attributes":{"ID":238784,"DIS_CODE":0,"TOWNNAME":"安南區","LI":"安順里","LIN":"13鄰","STREET":"總安街","SECT":"一段","MAREA":" ","LANE":"１４１巷","ALLEY":" ","HOUSE_NO":"２１號","E_COORD97":169630.95000000001,"N_COORD97":2550099.3500000001,"ADDRESS":"總安街一段１４１巷２１號","OBJECTID":238780},"geometry":{"x":169630.95000000205,"y":2550099.3499999996}},{"attributes":{"ID":238785,"DIS_CODE":0,"TOWNNAME":"安南區","LI":"安順里","LIN":"13鄰","STREET":"總安街","SECT":"一段","MAREA":" ","LANE":"１４１巷","ALLEY":" ","HOUSE_NO":"５號","E_COORD97":169631.70999999999,"N_COORD97":2550134.3999999999,"ADDRESS":"總安街一段１４１巷５號","OBJECTID":238781},"geometry":{"x":169631.70999999996,"y":2550134.4000000004}},{"attributes":{"ID":238786,"DIS_CODE":0,"TOWNNAME":"安南區","LI":"安順里","LIN":"13鄰","STREET":"總安街","SECT":"一段","MAREA":" ","LANE":"１４１巷","ALLEY":" ","HOUSE_NO":"７號","E_COORD97":169632.17000000001,"N_COORD97":2550130.1499999999,"ADDRESS":"總安街一段１４１巷７號","OBJECTID":238782},"geometry":{"x":169632.16999999993,"y":2550130.1500000022}},{"attributes":{"ID":238787,"DIS_CODE":0,"TOWNNAME":"安南區","LI":"安順里","LIN":"13鄰","STREET":"總安街","SECT":"一段","MAREA":" ","LANE":"１４１巷","ALLEY":" ","HOUSE_NO":"９號","E_COORD97":169631.10000000001,"N_COORD97":2550126.21,"ADDRESS":"總安街一段１４１巷９號","OBJECTID":238783},"geometry":{"x":169631.10000000149,"y":2550126.209999999}},{"attributes":{"ID":238788,"DIS_CODE":0,"TOWNNAME":"安南區","LI":"新順里","LIN":"13鄰","STREET":"永安路","SECT":" ","MAREA":" ","LANE":"８９巷","ALLEY":" ","HOUSE_NO":"６號","E_COORD97":170514.79000000001,"N_COORD97":2549377.8999999999,"ADDRESS":"永安路８９巷６號","OBJECTID":238784},"geometry":{"x":170514.79000000004,"y":2549377.9000000004}},{"attributes":{"ID":238789,"DIS_CODE":0,"TOWNNAME":"安南區","LI":"新順里","LIN":"13鄰","STREET":"永安路","SECT":" ","MAREA":" ","LANE":"８９巷","ALLEY":" ","HOUSE_NO":"８號","E_COORD97":170532.32000000001,"N_COORD97":2549413.02,"ADDRESS":"永安路８９巷８號","OBJECTID":238785},"geometry":{"x":170532.32000000123,"y":2549413.0199999996}},{"attributes":{"ID":238790,"DIS_CODE":0,"TOWNNAME":"安南區","LI":"新順里","LIN":"13鄰","STREET":"永安路","SECT":" ","MAREA":" ","LANE":"８９巷","ALLEY":" ","HOUSE_NO":"９號","E_COORD97":170498.44,"N_COORD97":2549403.98,"ADDRESS":"永安路８９巷９號","OBJECTID":238786},"geometry":{"x":170498.44000000041,"y":2549403.9800000004}},{"attributes":{"ID":238791,"DIS_CODE":0,"TOWNNAME":"安南區","LI":"新順里","LIN":"13鄰","STREET":"開安一街","SECT":" ","MAREA":" ","LANE":"８巷","ALLEY":" ","HOUSE_NO":"１０號","E_COORD97":170419.91,"N_COORD97":2549643.04,"ADDRESS":"開安一街８巷１０號","OBJECTID":238787},"geometry":{"x":170419.91000000108,"y":2549643.0399999991}},{"attributes":{"ID":238792,"DIS_CODE":0,"TOWNNAME":"安平區","LI":"億載里","LIN":"14鄰","STREET":"光州三街","SECT":" ","MAREA":" ","LANE":" ","ALLEY":" ","HOUSE_NO":"６７號","E_COORD97":164192.84,"N_COORD97":2543163.21,"ADDRESS":"光州三街６７號","OBJECTID":238788},"geometry":{"x":164192.83999999985,"y":2543163.2100000028}},{"attributes":{"ID":238793,"DIS_CODE":0,"TOWNNAME":"新營區","LI":"嘉芳里","LIN":"14鄰","STREET":"五福路","SECT":" ","MAREA":" ","LANE":" ","ALLEY":" ","HOUSE_NO":"１５號","E_COORD97":176600.47,"N_COORD97":2578282.3999999999,"ADDRESS":"五福路１５號","OBJECTID":238789},"geometry":{"x":176600.46999999974,"y":2578282.4000000022}},{"attributes":{"ID":238794,"DIS_CODE":0,"TOWNNAME":"新營區","LI":"中營里","LIN":"14鄰","STREET":"東山路","SECT":" ","MAREA":" ","LANE":" ","ALLEY":" ","HOUSE_NO":"１０１之２號","E_COORD97":181475.32999999999,"N_COORD97":2578761.8999999999,"ADDRESS":"東山路１０１之２號","OBJECTID":238790},"geometry":{"x":181475.33000000007,"y":2578761.9000000004}},{"attributes":{"ID":238795,"DIS_CODE":0,"TOWNNAME":"新營區","LI":"三仙里","LIN":"14鄰","STREET":"中華路","SECT":" ","MAREA":" ","LANE":" ","ALLEY":" ","HOUSE_NO":"６２號之３","E_COORD97":179558.5,"N_COORD97":2578214.9500000002,"ADDRESS":"中華路６２號之３","OBJECTID":238791},"geometry":{"x":179558.5,"y":2578214.9499999993}},{"attributes":{"ID":238796,"DIS_CODE":0,"TOWNNAME":"新營區","LI":"中營里","LIN":"14鄰","STREET":"東信街","SECT":" ","MAREA":" ","LANE":" ","ALLEY":" ","HOUSE_NO":"８號","E_COORD97":181331.98000000001,"N_COORD97":2578910.8900000001,"ADDRESS":"東信街８號","OBJECTID":238792},"geometry":{"x":181331.98000000138,"y":2578910.8900000025}},{"attributes":{"ID":238797,"DIS_CODE":0,"TOWNNAME":"新營區","LI":"南紙里","LIN":"14鄰","STREET":"南紙街","SECT":" ","MAREA":" ","LANE":" ","ALLEY":" ","HOUSE_NO":"１３２號","E_COORD97":177793.23000000001,"N_COORD97":2577412.7400000002,"ADDRESS":"南紙街１３２號","OBJECTID":238793},"geometry":{"x":177793.23000000045,"y":2577412.7400000021}},{"attributes":{"ID":238798,"DIS_CODE":0,"TOWNNAME":"新營區","LI":"嘉芳里","LIN":"14鄰","STREET":"新業街","SECT":" ","MAREA":" ","LANE":" ","ALLEY":" ","HOUSE_NO":"３號","E_COORD97":176785.94,"N_COORD97":2578170.7400000002,"ADDRESS":"新業街３號","OBJECTID":238794},"geometry":{"x":176785.94000000041,"y":2578170.7400000039}},{"attributes":{"ID":238799,"DIS_CODE":0,"TOWNNAME":"新營區","LI":"嘉芳里","LIN":"14鄰","STREET":"新嘉街","SECT":" ","MAREA":" ","LANE":" ","ALLEY":" ","HOUSE_NO":"１０號","E_COORD97":176270.76000000001,"N_COORD97":2578626.25,"ADDRESS":"新嘉街１０號","OBJECTID":238795},"geometry":{"x":176270.76000000071,"y":2578626.2500000019}},{"attributes":{"ID":238800,"DIS_CODE":0,"TOWNNAME":"東區","LI":"成大里","LIN":"16鄰","STREET":"育樂街","SECT":" ","MAREA":" ","LANE":"１４８巷","ALLEY":" ","HOUSE_NO":"２３號","E_COORD97":169421.42000000001,"N_COORD97":2544031.9100000001,"ADDRESS":"育樂街１４８巷２３號","OBJECTID":238796},"geometry":{"x":169421.42000000086,"y":2544031.9100000039}},{"attributes":{"ID":238801,"DIS_CODE":0,"TOWNNAME":"東區","LI":"成大里","LIN":"16鄰","STREET":"育樂街","SECT":" ","MAREA":" ","LANE":"１４８巷","ALLEY":" ","HOUSE_NO":"２５號","E_COORD97":169415.73000000001,"N_COORD97":2544032.8900000001,"ADDRESS":"育樂街１４８巷２５號","OBJECTID":238797},"geometry":{"x":169415.72999999952,"y":2544032.8900000025}},{"attributes":{"ID":238802,"DIS_CODE":0,"TOWNNAME":"東區","LI":"成大里","LIN":"16鄰","STREET":"育樂街","SECT":" ","MAREA":" ","LANE":"１４８巷","ALLEY":" ","HOUSE_NO":"２７號","E_COORD97":169410.23999999999,"N_COORD97":2544032.7000000002,"ADDRESS":"育樂街１４８巷２７號","OBJECTID":238798},"geometry":{"x":169410.24000000022,"y":2544032.7000000011}},{"attributes":{"ID":238803,"DIS_CODE":0,"TOWNNAME":"東區","LI":"成大里","LIN":"16鄰","STREET":"育樂街","SECT":" ","MAREA":" ","LANE":"１４８巷","ALLEY":" ","HOUSE_NO":"２９號","E_COORD97":169404.54999999999,"N_COORD97":2544033.8700000001,"ADDRESS":"育樂街１４８巷２９號","OBJECTID":238799},"geometry":{"x":169404.55000000168,"y":2544033.8700000029}},{"attributes":{"ID":238804,"DIS_CODE":0,"TOWNNAME":"東區","LI":"成大里","LIN":"16鄰","STREET":"育樂街","SECT":" ","MAREA":" ","LANE":"１４８巷","ALLEY":" ","HOUSE_NO":"３１號","E_COORD97":169400.42999999999,"N_COORD97":2544033.8700000001,"ADDRESS":"育樂街１４８巷３１號","OBJECTID":238800},"geometry":{"x":169400.43000000063,"y":2544033.8700000029}}]}