{"displayFieldName":"TOWNNAME","fieldAliases":{"ID":"ID","DIS_CODE":"DIS_CODE","TOWNNAME":"TOWNNAME","LI":"LI","LIN":"LIN","STREET":"STREET","SECT":"SECT","MAREA":"MAREA","LANE":"LANE","ALLEY":"ALLEY","HOUSE_NO":"HOUSE_NO","E_COORD97":"E_COORD97","N_COORD97":"N_COORD97","ADDRESS":"ADDRESS","OBJECTID":"OBJECTID"},"geometryType":"esriGeometryPoint","spatialReference":{"wkid":102443,"latestWkid":3826},"fields":[{"name":"ID","type":"esriFieldTypeDouble","alias":"ID"},{"name":"DIS_CODE","type":"esriFieldTypeInteger","alias":"DIS_CODE"},{"name":"TOWNNAME","type":"esriFieldTypeString","alias":"TOWNNAME","length":8},{"name":"LI","type":"esriFieldTypeString","alias":"LI","length":8},{"name":"LIN","type":"esriFieldTypeString","alias":"LIN","length":12},{"name":"STREET","type":"esriFieldTypeString","alias":"STREET","length":20},{"name":"SECT","type":"esriFieldTypeString","alias":"SECT","length":8},{"name":"MAREA","type":"esriFieldTypeString","alias":"MAREA","length":12},{"name":"LANE","type":"esriFieldTypeString","alias":"LANE","length":10},{"name":"ALLEY","type":"esriFieldTypeString","alias":"ALLEY","length":10},{"name":"HOUSE_NO","type":"esriFieldTypeString","alias":"HOUSE_NO","length":20},{"name":"E_COORD97","type":"esriFieldTypeDouble","alias":"E_COORD97"},{"name":"N_COORD97","type":"esriFieldTypeDouble","alias":"N_COORD97"},{"name":"ADDRESS","type":"esriFieldTypeString","alias":"ADDRESS","length":50},{"name":"OBJECTID","type":"esriFieldTypeOID","alias":"OBJECTID"}],"features":[{"attributes":{"ID":613828,"DIS_CODE":0,"TOWNNAME":"南區","LI":"新生里","LIN":"2鄰","STREET":"大同路","SECT":"二段","MAREA":" ","LANE":" ","ALLEY":" ","HOUSE_NO":"１９６號四樓之２","E_COORD97":169367.23000000001,"N_COORD97":2541911.75,"ADDRESS":"大同路二段１９６號四樓之２","OBJECTID":613801},"geometry":{"x":169367.23000000138,"y":2541911.7500000019}},{"attributes":{"ID":613829,"DIS_CODE":0,"TOWNNAME":"南區","LI":"新生里","LIN":"2鄰","STREET":"大同路","SECT":"二段","MAREA":" ","LANE":" ","ALLEY":" ","HOUSE_NO":"１９６號八樓之１","E_COORD97":169367.23000000001,"N_COORD97":2541911.75,"ADDRESS":"大同路二段１９６號八樓之１","OBJECTID":613802},"geometry":{"x":169367.23000000138,"y":2541911.7500000019}},{"attributes":{"ID":613830,"DIS_CODE":0,"TOWNNAME":"南區","LI":"新生里","LIN":"2鄰","STREET":"大同路","SECT":"二段","MAREA":" ","LANE":" ","ALLEY":" ","HOUSE_NO":"１９６號八樓之２","E_COORD97":169367.23000000001,"N_COORD97":2541911.75,"ADDRESS":"大同路二段１９６號八樓之２","OBJECTID":613803},"geometry":{"x":169367.23000000138,"y":2541911.7500000019}},{"attributes":{"ID":613831,"DIS_CODE":0,"TOWNNAME":"南區","LI":"新生里","LIN":"2鄰","STREET":"大同路","SECT":"二段","MAREA":" ","LANE":" ","ALLEY":" ","HOUSE_NO":"１９６號九樓之１","E_COORD97":169367.23000000001,"N_COORD97":2541911.75,"ADDRESS":"大同路二段１９６號九樓之１","OBJECTID":613804},"geometry":{"x":169367.23000000138,"y":2541911.7500000019}},{"attributes":{"ID":613832,"DIS_CODE":0,"TOWNNAME":"南區","LI":"新生里","LIN":"2鄰","STREET":"大同路","SECT":"二段","MAREA":" ","LANE":" ","ALLEY":" ","HOUSE_NO":"１９６號九樓之２","E_COORD97":169367.23000000001,"N_COORD97":2541911.75,"ADDRESS":"大同路二段１９６號九樓之２","OBJECTID":613805},"geometry":{"x":169367.23000000138,"y":2541911.7500000019}},{"attributes":{"ID":613833,"DIS_CODE":0,"TOWNNAME":"南區","LI":"新生里","LIN":"2鄰","STREET":"大同路","SECT":"二段","MAREA":" ","LANE":" ","ALLEY":" ","HOUSE_NO":"１９６號十樓之１","E_COORD97":169367.23000000001,"N_COORD97":2541911.75,"ADDRESS":"大同路二段１９６號十樓之１","OBJECTID":613806},"geometry":{"x":169367.23000000138,"y":2541911.7500000019}},{"attributes":{"ID":613834,"DIS_CODE":0,"TOWNNAME":"南區","LI":"新生里","LIN":"2鄰","STREET":"大同路","SECT":"二段","MAREA":" ","LANE":" ","ALLEY":" ","HOUSE_NO":"１９６號十樓之２","E_COORD97":169367.23000000001,"N_COORD97":2541911.75,"ADDRESS":"大同路二段１９６號十樓之２","OBJECTID":613807},"geometry":{"x":169367.23000000138,"y":2541911.7500000019}},{"attributes":{"ID":613835,"DIS_CODE":0,"TOWNNAME":"南區","LI":"新生里","LIN":"2鄰","STREET":"大同路","SECT":"二段","MAREA":" ","LANE":" ","ALLEY":" ","HOUSE_NO":"１９６號十一樓之１","E_COORD97":169367.23000000001,"N_COORD97":2541911.75,"ADDRESS":"大同路二段１９６號十一樓之１","OBJECTID":613808},"geometry":{"x":169367.23000000138,"y":2541911.7500000019}},{"attributes":{"ID":613836,"DIS_CODE":0,"TOWNNAME":"南區","LI":"新生里","LIN":"2鄰","STREET":"大同路","SECT":"二段","MAREA":" ","LANE":" ","ALLEY":" ","HOUSE_NO":"１９６號十一樓之２","E_COORD97":169367.23000000001,"N_COORD97":2541911.75,"ADDRESS":"大同路二段１９６號十一樓之２","OBJECTID":613809},"geometry":{"x":169367.23000000138,"y":2541911.7500000019}},{"attributes":{"ID":613837,"DIS_CODE":0,"TOWNNAME":"南區","LI":"新生里","LIN":"2鄰","STREET":"大同路","SECT":"二段","MAREA":" ","LANE":" ","ALLEY":" ","HOUSE_NO":"１９６號二樓之１","E_COORD97":169367.23000000001,"N_COORD97":2541911.75,"ADDRESS":"大同路二段１９６號二樓之１","OBJECTID":613810},"geometry":{"x":169367.23000000138,"y":2541911.7500000019}},{"attributes":{"ID":613838,"DIS_CODE":0,"TOWNNAME":"北區","LI":"和順里","LIN":"2鄰","STREET":"西門路","SECT":"三段","MAREA":" ","LANE":" ","ALLEY":" ","HOUSE_NO":"１５９號九樓之１","E_COORD97":168402.81,"N_COORD97":2544920.4100000001,"ADDRESS":"西門路三段１５９號九樓之１","OBJECTID":613811},"geometry":{"x":168402.81000000052,"y":2544920.410000002}},{"attributes":{"ID":613839,"DIS_CODE":0,"TOWNNAME":"北區","LI":"和順里","LIN":"2鄰","STREET":"西門路","SECT":"三段","MAREA":" ","LANE":" ","ALLEY":" ","HOUSE_NO":"１５９號九樓之２","E_COORD97":168402.81,"N_COORD97":2544920.4100000001,"ADDRESS":"西門路三段１５９號九樓之２","OBJECTID":613812},"geometry":{"x":168402.81000000052,"y":2544920.410000002}},{"attributes":{"ID":613840,"DIS_CODE":0,"TOWNNAME":"北區","LI":"和順里","LIN":"2鄰","STREET":"西門路","SECT":"三段","MAREA":" ","LANE":" ","ALLEY":" ","HOUSE_NO":"１５９號九樓之３","E_COORD97":168402.81,"N_COORD97":2544920.4100000001,"ADDRESS":"西門路三段１５９號九樓之３","OBJECTID":613813},"geometry":{"x":168402.81000000052,"y":2544920.410000002}},{"attributes":{"ID":613841,"DIS_CODE":0,"TOWNNAME":"北區","LI":"和順里","LIN":"2鄰","STREET":"西門路","SECT":"三段","MAREA":" ","LANE":" ","ALLEY":" ","HOUSE_NO":"１５９號九樓之４","E_COORD97":168402.81,"N_COORD97":2544920.4100000001,"ADDRESS":"西門路三段１５９號九樓之４","OBJECTID":613814},"geometry":{"x":168402.81000000052,"y":2544920.410000002}},{"attributes":{"ID":613842,"DIS_CODE":0,"TOWNNAME":"北區","LI":"和順里","LIN":"2鄰","STREET":"西門路","SECT":"三段","MAREA":" ","LANE":" ","ALLEY":" ","HOUSE_NO":"１５９號九樓之５","E_COORD97":168402.81,"N_COORD97":2544920.4100000001,"ADDRESS":"西門路三段１５９號九樓之５","OBJECTID":613815},"geometry":{"x":168402.81000000052,"y":2544920.410000002}},{"attributes":{"ID":613843,"DIS_CODE":0,"TOWNNAME":"北區","LI":"和順里","LIN":"2鄰","STREET":"西門路","SECT":"三段","MAREA":" ","LANE":" ","ALLEY":" ","HOUSE_NO":"１５９號九樓之６","E_COORD97":168402.81,"N_COORD97":2544920.4100000001,"ADDRESS":"西門路三段１５９號九樓之６","OBJECTID":613816},"geometry":{"x":168402.81000000052,"y":2544920.410000002}},{"attributes":{"ID":613844,"DIS_CODE":0,"TOWNNAME":"北區","LI":"和順里","LIN":"2鄰","STREET":"西門路","SECT":"三段","MAREA":" ","LANE":" ","ALLEY":" ","HOUSE_NO":"１５９號二樓之１","E_COORD97":168402.81,"N_COORD97":2544920.4100000001,"ADDRESS":"西門路三段１５９號二樓之１","OBJECTID":613817},"geometry":{"x":168402.81000000052,"y":2544920.410000002}},{"attributes":{"ID":613845,"DIS_CODE":0,"TOWNNAME":"北區","LI":"和順里","LIN":"2鄰","STREET":"西門路","SECT":"三段","MAREA":" ","LANE":" ","ALLEY":" ","HOUSE_NO":"１５９號二樓之２","E_COORD97":168402.81,"N_COORD97":2544920.4100000001,"ADDRESS":"西門路三段１５９號二樓之２","OBJECTID":613818},"geometry":{"x":168402.81000000052,"y":2544920.410000002}},{"attributes":{"ID":613846,"DIS_CODE":0,"TOWNNAME":"北區","LI":"和順里","LIN":"2鄰","STREET":"西門路","SECT":"三段","MAREA":" ","LANE":" ","ALLEY":" ","HOUSE_NO":"１５９號八樓之１","E_COORD97":168402.81,"N_COORD97":2544920.4100000001,"ADDRESS":"西門路三段１５９號八樓之１","OBJECTID":613819},"geometry":{"x":168402.81000000052,"y":2544920.410000002}},{"attributes":{"ID":613847,"DIS_CODE":0,"TOWNNAME":"北區","LI":"和順里","LIN":"2鄰","STREET":"西門路","SECT":"三段","MAREA":" ","LANE":" ","ALLEY":" ","HOUSE_NO":"１５９號八樓之２","E_COORD97":168402.81,"N_COORD97":2544920.4100000001,"ADDRESS":"西門路三段１５９號八樓之２","OBJECTID":613820},"geometry":{"x":168402.81000000052,"y":2544920.410000002}},{"attributes":{"ID":613848,"DIS_CODE":0,"TOWNNAME":"北區","LI":"和順里","LIN":"2鄰","STREET":"西門路","SECT":"三段","MAREA":" ","LANE":" ","ALLEY":" ","HOUSE_NO":"１５９號八樓之３","E_COORD97":168402.81,"N_COORD97":2544920.4100000001,"ADDRESS":"西門路三段１５９號八樓之３","OBJECTID":613821},"geometry":{"x":168402.81000000052,"y":2544920.410000002}},{"attributes":{"ID":613849,"DIS_CODE":0,"TOWNNAME":"北區","LI":"和順里","LIN":"2鄰","STREET":"西門路","SECT":"三段","MAREA":" ","LANE":" ","ALLEY":" ","HOUSE_NO":"１５９號八樓之４","E_COORD97":168402.81,"N_COORD97":2544920.4100000001,"ADDRESS":"西門路三段１５９號八樓之４","OBJECTID":613822},"geometry":{"x":168402.81000000052,"y":2544920.410000002}},{"attributes":{"ID":613850,"DIS_CODE":0,"TOWNNAME":"北區","LI":"和順里","LIN":"2鄰","STREET":"西門路","SECT":"三段","MAREA":" ","LANE":" ","ALLEY":" ","HOUSE_NO":"１５９號八樓之５","E_COORD97":168402.81,"N_COORD97":2544920.4100000001,"ADDRESS":"西門路三段１５９號八樓之５","OBJECTID":613823},"geometry":{"x":168402.81000000052,"y":2544920.410000002}},{"attributes":{"ID":613851,"DIS_CODE":0,"TOWNNAME":"北區","LI":"和順里","LIN":"2鄰","STREET":"西門路","SECT":"三段","MAREA":" ","LANE":" ","ALLEY":" ","HOUSE_NO":"１５９號八樓之６","E_COORD97":168402.81,"N_COORD97":2544920.4100000001,"ADDRESS":"西門路三段１５９號八樓之６","OBJECTID":613824},"geometry":{"x":168402.81000000052,"y":2544920.410000002}},{"attributes":{"ID":613852,"DIS_CODE":0,"TOWNNAME":"北區","LI":"和順里","LIN":"2鄰","STREET":"西門路","SECT":"三段","MAREA":" ","LANE":" ","ALLEY":" ","HOUSE_NO":"１５９號十一樓之１","E_COORD97":168402.81,"N_COORD97":2544920.4100000001,"ADDRESS":"西門路三段１５９號十一樓之１","OBJECTID":613825},"geometry":{"x":168402.81000000052,"y":2544920.410000002}},{"attributes":{"ID":613853,"DIS_CODE":0,"TOWNNAME":"北區","LI":"和順里","LIN":"2鄰","STREET":"西門路","SECT":"三段","MAREA":" ","LANE":" ","ALLEY":" ","HOUSE_NO":"１５９號十一樓之２","E_COORD97":168402.81,"N_COORD97":2544920.4100000001,"ADDRESS":"西門路三段１５９號十一樓之２","OBJECTID":613826},"geometry":{"x":168402.81000000052,"y":2544920.410000002}},{"attributes":{"ID":613854,"DIS_CODE":0,"TOWNNAME":"北區","LI":"和順里","LIN":"2鄰","STREET":"西門路","SECT":"三段","MAREA":" ","LANE":" ","ALLEY":" ","HOUSE_NO":"１５９號十一樓之３","E_COORD97":168402.81,"N_COORD97":2544920.4100000001,"ADDRESS":"西門路三段１５９號十一樓之３","OBJECTID":613827},"geometry":{"x":168402.81000000052,"y":2544920.410000002}},{"attributes":{"ID":613855,"DIS_CODE":0,"TOWNNAME":"北區","LI":"和順里","LIN":"2鄰","STREET":"西門路","SECT":"三段","MAREA":" ","LANE":" ","ALLEY":" ","HOUSE_NO":"１５９號十一樓之４","E_COORD97":168402.81,"N_COORD97":2544920.4100000001,"ADDRESS":"西門路三段１５９號十一樓之４","OBJECTID":613828},"geometry":{"x":168402.81000000052,"y":2544920.410000002}},{"attributes":{"ID":613856,"DIS_CODE":0,"TOWNNAME":"北區","LI":"和順里","LIN":"2鄰","STREET":"西門路","SECT":"三段","MAREA":" ","LANE":" ","ALLEY":" ","HOUSE_NO":"１５９號十二樓之１","E_COORD97":168402.81,"N_COORD97":2544920.4100000001,"ADDRESS":"西門路三段１５９號十二樓之１","OBJECTID":613829},"geometry":{"x":168402.81000000052,"y":2544920.410000002}},{"attributes":{"ID":613857,"DIS_CODE":0,"TOWNNAME":"北區","LI":"和順里","LIN":"2鄰","STREET":"西門路","SECT":"三段","MAREA":" ","LANE":" ","ALLEY":" ","HOUSE_NO":"１５９號十二樓之２","E_COORD97":168402.81,"N_COORD97":2544920.4100000001,"ADDRESS":"西門路三段１５９號十二樓之２","OBJECTID":613830},"geometry":{"x":168402.81000000052,"y":2544920.410000002}},{"attributes":{"ID":613858,"DIS_CODE":0,"TOWNNAME":"北區","LI":"和順里","LIN":"2鄰","STREET":"西門路","SECT":"三段","MAREA":" ","LANE":" ","ALLEY":" ","HOUSE_NO":"１５９號十二樓之３","E_COORD97":168402.81,"N_COORD97":2544920.4100000001,"ADDRESS":"西門路三段１５９號十二樓之３","OBJECTID":613831},"geometry":{"x":168402.81000000052,"y":2544920.410000002}},{"attributes":{"ID":613859,"DIS_CODE":0,"TOWNNAME":"北區","LI":"和順里","LIN":"2鄰","STREET":"西門路","SECT":"三段","MAREA":" ","LANE":" ","ALLEY":" ","HOUSE_NO":"１５９號十二樓之４","E_COORD97":168402.81,"N_COORD97":2544920.4100000001,"ADDRESS":"西門路三段１５９號十二樓之４","OBJECTID":613832},"geometry":{"x":168402.81000000052,"y":2544920.410000002}},{"attributes":{"ID":613860,"DIS_CODE":0,"TOWNNAME":"北區","LI":"和順里","LIN":"2鄰","STREET":"西門路","SECT":"三段","MAREA":" ","LANE":" ","ALLEY":" ","HOUSE_NO":"１５９號十三樓之１","E_COORD97":168402.81,"N_COORD97":2544920.4100000001,"ADDRESS":"西門路三段１５９號十三樓之１","OBJECTID":613833},"geometry":{"x":168402.81000000052,"y":2544920.410000002}},{"attributes":{"ID":613861,"DIS_CODE":0,"TOWNNAME":"北區","LI":"和順里","LIN":"2鄰","STREET":"西門路","SECT":"三段","MAREA":" ","LANE":" ","ALLEY":" ","HOUSE_NO":"１５９號十三樓之２","E_COORD97":168402.81,"N_COORD97":2544920.4100000001,"ADDRESS":"西門路三段１５９號十三樓之２","OBJECTID":613834},"geometry":{"x":168402.81000000052,"y":2544920.410000002}},{"attributes":{"ID":613862,"DIS_CODE":0,"TOWNNAME":"北區","LI":"和順里","LIN":"2鄰","STREET":"西門路","SECT":"三段","MAREA":" ","LANE":" ","ALLEY":" ","HOUSE_NO":"１５９號十四樓","E_COORD97":168402.81,"N_COORD97":2544920.4100000001,"ADDRESS":"西門路三段１５９號十四樓","OBJECTID":613835},"geometry":{"x":168402.81000000052,"y":2544920.410000002}},{"attributes":{"ID":613863,"DIS_CODE":0,"TOWNNAME":"北區","LI":"和順里","LIN":"2鄰","STREET":"西門路","SECT":"三段","MAREA":" ","LANE":" ","ALLEY":" ","HOUSE_NO":"１５９號十樓之１","E_COORD97":168402.81,"N_COORD97":2544920.4100000001,"ADDRESS":"西門路三段１５９號十樓之１","OBJECTID":613836},"geometry":{"x":168402.81000000052,"y":2544920.410000002}},{"attributes":{"ID":613864,"DIS_CODE":0,"TOWNNAME":"北區","LI":"和順里","LIN":"2鄰","STREET":"西門路","SECT":"三段","MAREA":" ","LANE":" ","ALLEY":" ","HOUSE_NO":"１５９號十樓之２","E_COORD97":168402.81,"N_COORD97":2544920.4100000001,"ADDRESS":"西門路三段１５９號十樓之２","OBJECTID":613837},"geometry":{"x":168402.81000000052,"y":2544920.410000002}},{"attributes":{"ID":613865,"DIS_CODE":0,"TOWNNAME":"北區","LI":"和順里","LIN":"2鄰","STREET":"西門路","SECT":"三段","MAREA":" ","LANE":" ","ALLEY":" ","HOUSE_NO":"１５９號十樓之３","E_COORD97":168402.81,"N_COORD97":2544920.4100000001,"ADDRESS":"西門路三段１５９號十樓之３","OBJECTID":613838},"geometry":{"x":168402.81000000052,"y":2544920.410000002}},{"attributes":{"ID":613866,"DIS_CODE":0,"TOWNNAME":"北區","LI":"和順里","LIN":"2鄰","STREET":"西門路","SECT":"三段","MAREA":" ","LANE":" ","ALLEY":" ","HOUSE_NO":"１５９號十樓之４","E_COORD97":168402.81,"N_COORD97":2544920.4100000001,"ADDRESS":"西門路三段１５９號十樓之４","OBJECTID":613839},"geometry":{"x":168402.81000000052,"y":2544920.410000002}},{"attributes":{"ID":613867,"DIS_CODE":0,"TOWNNAME":"北區","LI":"和順里","LIN":"2鄰","STREET":"西門路","SECT":"三段","MAREA":" ","LANE":" ","ALLEY":" ","HOUSE_NO":"１５９號三樓","E_COORD97":168402.81,"N_COORD97":2544920.4100000001,"ADDRESS":"西門路三段１５９號三樓","OBJECTID":613840},"geometry":{"x":168402.81000000052,"y":2544920.410000002}},{"attributes":{"ID":613868,"DIS_CODE":0,"TOWNNAME":"北區","LI":"和順里","LIN":"2鄰","STREET":"西門路","SECT":"三段","MAREA":" ","LANE":" ","ALLEY":" ","HOUSE_NO":"１５９號五樓","E_COORD97":168402.81,"N_COORD97":2544920.4100000001,"ADDRESS":"西門路三段１５９號五樓","OBJECTID":613841},"geometry":{"x":168402.81000000052,"y":2544920.410000002}},{"attributes":{"ID":613869,"DIS_CODE":0,"TOWNNAME":"北區","LI":"和順里","LIN":"2鄰","STREET":"西門路","SECT":"三段","MAREA":" ","LANE":" ","ALLEY":" ","HOUSE_NO":"１５９號六樓","E_COORD97":168402.81,"N_COORD97":2544920.4100000001,"ADDRESS":"西門路三段１５９號六樓","OBJECTID":613842},"geometry":{"x":168402.81000000052,"y":2544920.410000002}},{"attributes":{"ID":613870,"DIS_CODE":0,"TOWNNAME":"北區","LI":"和順里","LIN":"2鄰","STREET":"西門路","SECT":"三段","MAREA":" ","LANE":" ","ALLEY":" ","HOUSE_NO":"１５９號四樓","E_COORD97":168402.81,"N_COORD97":2544920.4100000001,"ADDRESS":"西門路三段１５９號四樓","OBJECTID":613843},"geometry":{"x":168402.81000000052,"y":2544920.410000002}},{"attributes":{"ID":613871,"DIS_CODE":0,"TOWNNAME":"北區","LI":"和順里","LIN":"2鄰","STREET":"西門路","SECT":"三段","MAREA":" ","LANE":" ","ALLEY":" ","HOUSE_NO":"１５９號七樓之１","E_COORD97":168402.81,"N_COORD97":2544920.4100000001,"ADDRESS":"西門路三段１５９號七樓之１","OBJECTID":613844},"geometry":{"x":168402.81000000052,"y":2544920.410000002}},{"attributes":{"ID":613872,"DIS_CODE":0,"TOWNNAME":"北區","LI":"和順里","LIN":"2鄰","STREET":"西門路","SECT":"三段","MAREA":" ","LANE":" ","ALLEY":" ","HOUSE_NO":"１５９號七樓之２","E_COORD97":168402.81,"N_COORD97":2544920.4100000001,"ADDRESS":"西門路三段１５９號七樓之２","OBJECTID":613845},"geometry":{"x":168402.81000000052,"y":2544920.410000002}},{"attributes":{"ID":613873,"DIS_CODE":0,"TOWNNAME":"北區","LI":"和順里","LIN":"2鄰","STREET":"西門路","SECT":"三段","MAREA":" ","LANE":" ","ALLEY":" ","HOUSE_NO":"１５９號七樓之３","E_COORD97":168402.81,"N_COORD97":2544920.4100000001,"ADDRESS":"西門路三段１５９號七樓之３","OBJECTID":613846},"geometry":{"x":168402.81000000052,"y":2544920.410000002}},{"attributes":{"ID":613874,"DIS_CODE":0,"TOWNNAME":"新營區","LI":"永生里","LIN":"2鄰","STREET":"中山路","SECT":" ","MAREA":" ","LANE":" ","ALLEY":" ","HOUSE_NO":"１３７號九樓","E_COORD97":180117.04000000001,"N_COORD97":2578121.46,"ADDRESS":"中山路１３７號九樓","OBJECTID":613847},"geometry":{"x":180117.04000000097,"y":2578121.4600000009}},{"attributes":{"ID":613875,"DIS_CODE":0,"TOWNNAME":"新營區","LI":"延平里","LIN":"2鄰","STREET":"延平路","SECT":" ","MAREA":" ","LANE":" ","ALLEY":" ","HOUSE_NO":"４０之２號六樓之１","E_COORD97":179768.34,"N_COORD97":2577845.1899999999,"ADDRESS":"延平路４０之２號六樓之１","OBJECTID":613848},"geometry":{"x":179768.33999999985,"y":2577845.1900000013}},{"attributes":{"ID":613876,"DIS_CODE":0,"TOWNNAME":"新營區","LI":"延平里","LIN":"2鄰","STREET":"延平路","SECT":" ","MAREA":" ","LANE":" ","ALLEY":" ","HOUSE_NO":"４０之２號五樓之３","E_COORD97":179768.44,"N_COORD97":2577845.1899999999,"ADDRESS":"延平路４０之２號五樓之３","OBJECTID":613849},"geometry":{"x":179768.43999999948,"y":2577845.1900000013}},{"attributes":{"ID":613877,"DIS_CODE":0,"TOWNNAME":"新營區","LI":"延平里","LIN":"2鄰","STREET":"延平路","SECT":" ","MAREA":" ","LANE":" ","ALLEY":" ","HOUSE_NO":"４０之１號二樓之１","E_COORD97":179768.34,"N_COORD97":2577845.1899999999,"ADDRESS":"延平路４０之１號二樓之１","OBJECTID":613850},"geometry":{"x":179768.33999999985,"y":2577845.1900000013}},{"attributes":{"ID":613878,"DIS_CODE":0,"TOWNNAME":"安平區","LI":"文平里","LIN":"2鄰","STREET":"中華西路","SECT":"二段","MAREA":" ","LANE":" ","ALLEY":" ","HOUSE_NO":"２１號二樓","E_COORD97":166588.51000000001,"N_COORD97":2543081.6600000001,"ADDRESS":"中華西路二段２１號二樓","OBJECTID":613851},"geometry":{"x":166588.50999999978,"y":2543081.660000002}},{"attributes":{"ID":613879,"DIS_CODE":0,"TOWNNAME":"安平區","LI":"文平里","LIN":"2鄰","STREET":"中華西路","SECT":"二段","MAREA":" ","LANE":" ","ALLEY":" ","HOUSE_NO":"２１號三樓之１","E_COORD97":166588.51000000001,"N_COORD97":2543081.6600000001,"ADDRESS":"中華西路二段２１號三樓之１","OBJECTID":613852},"geometry":{"x":166588.50999999978,"y":2543081.660000002}},{"attributes":{"ID":613880,"DIS_CODE":0,"TOWNNAME":"安平區","LI":"文平里","LIN":"2鄰","STREET":"中華西路","SECT":"二段","MAREA":" ","LANE":" ","ALLEY":" ","HOUSE_NO":"２１號三樓之２","E_COORD97":166588.51000000001,"N_COORD97":2543081.6600000001,"ADDRESS":"中華西路二段２１號三樓之２","OBJECTID":613853},"geometry":{"x":166588.50999999978,"y":2543081.660000002}},{"attributes":{"ID":613881,"DIS_CODE":0,"TOWNNAME":"安平區","LI":"文平里","LIN":"2鄰","STREET":"中華西路","SECT":"二段","MAREA":" ","LANE":" ","ALLEY":" ","HOUSE_NO":"２１號三樓之３","E_COORD97":166588.51000000001,"N_COORD97":2543081.6600000001,"ADDRESS":"中華西路二段２１號三樓之３","OBJECTID":613854},"geometry":{"x":166588.50999999978,"y":2543081.660000002}},{"attributes":{"ID":613882,"DIS_CODE":0,"TOWNNAME":"安平區","LI":"文平里","LIN":"2鄰","STREET":"中華西路","SECT":"二段","MAREA":" ","LANE":" ","ALLEY":" ","HOUSE_NO":"２１號三樓之４","E_COORD97":166588.51000000001,"N_COORD97":2543081.6600000001,"ADDRESS":"中華西路二段２１號三樓之４","OBJECTID":613855},"geometry":{"x":166588.50999999978,"y":2543081.660000002}},{"attributes":{"ID":613883,"DIS_CODE":0,"TOWNNAME":"安平區","LI":"文平里","LIN":"2鄰","STREET":"中華西路","SECT":"二段","MAREA":" ","LANE":" ","ALLEY":" ","HOUSE_NO":"２１號五樓之１","E_COORD97":166588.51000000001,"N_COORD97":2543081.6600000001,"ADDRESS":"中華西路二段２１號五樓之１","OBJECTID":613856},"geometry":{"x":166588.50999999978,"y":2543081.660000002}},{"attributes":{"ID":613884,"DIS_CODE":0,"TOWNNAME":"安平區","LI":"文平里","LIN":"2鄰","STREET":"中華西路","SECT":"二段","MAREA":" ","LANE":" ","ALLEY":" ","HOUSE_NO":"２１號五樓之２","E_COORD97":166588.51000000001,"N_COORD97":2543081.6600000001,"ADDRESS":"中華西路二段２１號五樓之２","OBJECTID":613857},"geometry":{"x":166588.50999999978,"y":2543081.660000002}},{"attributes":{"ID":613885,"DIS_CODE":0,"TOWNNAME":"安平區","LI":"文平里","LIN":"2鄰","STREET":"中華西路","SECT":"二段","MAREA":" ","LANE":" ","ALLEY":" ","HOUSE_NO":"２１號五樓之３","E_COORD97":166588.51000000001,"N_COORD97":2543081.6600000001,"ADDRESS":"中華西路二段２１號五樓之３","OBJECTID":613858},"geometry":{"x":166588.50999999978,"y":2543081.660000002}},{"attributes":{"ID":613886,"DIS_CODE":0,"TOWNNAME":"安平區","LI":"文平里","LIN":"2鄰","STREET":"中華西路","SECT":"二段","MAREA":" ","LANE":" ","ALLEY":" ","HOUSE_NO":"２１號五樓之４","E_COORD97":166588.51000000001,"N_COORD97":2543081.6600000001,"ADDRESS":"中華西路二段２１號五樓之４","OBJECTID":613859},"geometry":{"x":166588.50999999978,"y":2543081.660000002}},{"attributes":{"ID":613887,"DIS_CODE":0,"TOWNNAME":"安平區","LI":"文平里","LIN":"2鄰","STREET":"中華西路","SECT":"二段","MAREA":" ","LANE":" ","ALLEY":" ","HOUSE_NO":"２１號六樓之１","E_COORD97":166588.51000000001,"N_COORD97":2543081.6600000001,"ADDRESS":"中華西路二段２１號六樓之１","OBJECTID":613860},"geometry":{"x":166588.50999999978,"y":2543081.660000002}},{"attributes":{"ID":613888,"DIS_CODE":0,"TOWNNAME":"安平區","LI":"文平里","LIN":"2鄰","STREET":"中華西路","SECT":"二段","MAREA":" ","LANE":" ","ALLEY":" ","HOUSE_NO":"２１號六樓之２","E_COORD97":166588.51000000001,"N_COORD97":2543081.6600000001,"ADDRESS":"中華西路二段２１號六樓之２","OBJECTID":613861},"geometry":{"x":166588.50999999978,"y":2543081.660000002}},{"attributes":{"ID":613889,"DIS_CODE":0,"TOWNNAME":"安平區","LI":"文平里","LIN":"2鄰","STREET":"中華西路","SECT":"二段","MAREA":" ","LANE":" ","ALLEY":" ","HOUSE_NO":"２１號六樓之３","E_COORD97":166588.51000000001,"N_COORD97":2543081.6600000001,"ADDRESS":"中華西路二段２１號六樓之３","OBJECTID":613862},"geometry":{"x":166588.50999999978,"y":2543081.660000002}},{"attributes":{"ID":613890,"DIS_CODE":0,"TOWNNAME":"安平區","LI":"文平里","LIN":"2鄰","STREET":"中華西路","SECT":"二段","MAREA":" ","LANE":" ","ALLEY":" ","HOUSE_NO":"２１號六樓之４","E_COORD97":166588.51000000001,"N_COORD97":2543081.6600000001,"ADDRESS":"中華西路二段２１號六樓之４","OBJECTID":613863},"geometry":{"x":166588.50999999978,"y":2543081.660000002}},{"attributes":{"ID":613891,"DIS_CODE":0,"TOWNNAME":"安平區","LI":"文平里","LIN":"2鄰","STREET":"中華西路","SECT":"二段","MAREA":" ","LANE":" ","ALLEY":" ","HOUSE_NO":"２１號四樓之１","E_COORD97":166588.51000000001,"N_COORD97":2543081.6600000001,"ADDRESS":"中華西路二段２１號四樓之１","OBJECTID":613864},"geometry":{"x":166588.50999999978,"y":2543081.660000002}},{"attributes":{"ID":613892,"DIS_CODE":0,"TOWNNAME":"安平區","LI":"文平里","LIN":"2鄰","STREET":"中華西路","SECT":"二段","MAREA":" ","LANE":" ","ALLEY":" ","HOUSE_NO":"２１號四樓之２","E_COORD97":166588.51000000001,"N_COORD97":2543081.6600000001,"ADDRESS":"中華西路二段２１號四樓之２","OBJECTID":613865},"geometry":{"x":166588.50999999978,"y":2543081.660000002}},{"attributes":{"ID":613893,"DIS_CODE":0,"TOWNNAME":"安平區","LI":"文平里","LIN":"2鄰","STREET":"中華西路","SECT":"二段","MAREA":" ","LANE":" ","ALLEY":" ","HOUSE_NO":"２１號四樓之３","E_COORD97":166588.51000000001,"N_COORD97":2543081.6600000001,"ADDRESS":"中華西路二段２１號四樓之３","OBJECTID":613866},"geometry":{"x":166588.50999999978,"y":2543081.660000002}},{"attributes":{"ID":613894,"DIS_CODE":0,"TOWNNAME":"安平區","LI":"文平里","LIN":"2鄰","STREET":"中華西路","SECT":"二段","MAREA":" ","LANE":" ","ALLEY":" ","HOUSE_NO":"２１號四樓之４","E_COORD97":166588.51000000001,"N_COORD97":2543081.6600000001,"ADDRESS":"中華西路二段２１號四樓之４","OBJECTID":613867},"geometry":{"x":166588.50999999978,"y":2543081.660000002}},{"attributes":{"ID":613895,"DIS_CODE":0,"TOWNNAME":"新營區","LI":"延平里","LIN":"2鄰","STREET":"延平路","SECT":" ","MAREA":" ","LANE":" ","ALLEY":" ","HOUSE_NO":"４０之２號八樓之１","E_COORD97":179768.34,"N_COORD97":2577845.1899999999,"ADDRESS":"延平路４０之２號八樓之１","OBJECTID":613868},"geometry":{"x":179768.33999999985,"y":2577845.1900000013}},{"attributes":{"ID":613896,"DIS_CODE":0,"TOWNNAME":"北區","LI":"公園里","LIN":"2鄰","STREET":"北門路","SECT":"二段","MAREA":" ","LANE":" ","ALLEY":" ","HOUSE_NO":"５９號二樓","E_COORD97":169253.95000000001,"N_COORD97":2544349.1499999999,"ADDRESS":"北門路二段５９號二樓","OBJECTID":613869},"geometry":{"x":169253.95000000019,"y":2544349.1500000041}},{"attributes":{"ID":613897,"DIS_CODE":0,"TOWNNAME":"北區","LI":"公園里","LIN":"2鄰","STREET":"北門路","SECT":"二段","MAREA":" ","LANE":" ","ALLEY":" ","HOUSE_NO":"５９號三樓","E_COORD97":169253.95000000001,"N_COORD97":2544349.1499999999,"ADDRESS":"北門路二段５９號三樓","OBJECTID":613870},"geometry":{"x":169253.95000000019,"y":2544349.1500000041}},{"attributes":{"ID":613898,"DIS_CODE":0,"TOWNNAME":"北區","LI":"公園里","LIN":"2鄰","STREET":"北門路","SECT":"二段","MAREA":" ","LANE":" ","ALLEY":" ","HOUSE_NO":"７３號二樓","E_COORD97":169259.85999999999,"N_COORD97":2544379.6800000002,"ADDRESS":"北門路二段７３號二樓","OBJECTID":613871},"geometry":{"x":169259.86000000034,"y":2544379.6800000016}},{"attributes":{"ID":613899,"DIS_CODE":0,"TOWNNAME":"安平區","LI":"育平里","LIN":"2鄰","STREET":"永華路","SECT":"二段","MAREA":" ","LANE":" ","ALLEY":" ","HOUSE_NO":"８１９號七樓之５","E_COORD97":164756.10999999999,"N_COORD97":2543515.4199999999,"ADDRESS":"永華路二段８１９號七樓之５","OBJECTID":613872},"geometry":{"x":164756.11000000034,"y":2543515.4199999999}},{"attributes":{"ID":613900,"DIS_CODE":0,"TOWNNAME":"安平區","LI":"育平里","LIN":"2鄰","STREET":"永華路","SECT":"二段","MAREA":" ","LANE":" ","ALLEY":" ","HOUSE_NO":"８１９號七樓之６","E_COORD97":164756.10999999999,"N_COORD97":2543515.4199999999,"ADDRESS":"永華路二段８１９號七樓之６","OBJECTID":613873},"geometry":{"x":164756.11000000034,"y":2543515.4199999999}},{"attributes":{"ID":613901,"DIS_CODE":0,"TOWNNAME":"安平區","LI":"育平里","LIN":"2鄰","STREET":"永華路","SECT":"二段","MAREA":" ","LANE":" ","ALLEY":" ","HOUSE_NO":"８１９號七樓之７","E_COORD97":164756.10999999999,"N_COORD97":2543515.4199999999,"ADDRESS":"永華路二段８１９號七樓之７","OBJECTID":613874},"geometry":{"x":164756.11000000034,"y":2543515.4199999999}},{"attributes":{"ID":613902,"DIS_CODE":0,"TOWNNAME":"安平區","LI":"育平里","LIN":"2鄰","STREET":"永華路","SECT":"二段","MAREA":" ","LANE":" ","ALLEY":" ","HOUSE_NO":"８１９號七樓之８","E_COORD97":164756.10999999999,"N_COORD97":2543515.4199999999,"ADDRESS":"永華路二段８１９號七樓之８","OBJECTID":613875},"geometry":{"x":164756.11000000034,"y":2543515.4199999999}},{"attributes":{"ID":613903,"DIS_CODE":0,"TOWNNAME":"安平區","LI":"育平里","LIN":"2鄰","STREET":"永華路","SECT":"二段","MAREA":" ","LANE":" ","ALLEY":" ","HOUSE_NO":"８１９號九樓之５","E_COORD97":164756.10999999999,"N_COORD97":2543515.4199999999,"ADDRESS":"永華路二段８１９號九樓之５","OBJECTID":613876},"geometry":{"x":164756.11000000034,"y":2543515.4199999999}},{"attributes":{"ID":613904,"DIS_CODE":0,"TOWNNAME":"安平區","LI":"育平里","LIN":"2鄰","STREET":"永華路","SECT":"二段","MAREA":" ","LANE":" ","ALLEY":" ","HOUSE_NO":"８１９號九樓之６","E_COORD97":164756.10999999999,"N_COORD97":2543515.4199999999,"ADDRESS":"永華路二段８１９號九樓之６","OBJECTID":613877},"geometry":{"x":164756.11000000034,"y":2543515.4199999999}},{"attributes":{"ID":613905,"DIS_CODE":0,"TOWNNAME":"安平區","LI":"育平里","LIN":"2鄰","STREET":"永華路","SECT":"二段","MAREA":" ","LANE":" ","ALLEY":" ","HOUSE_NO":"８１９號九樓之７","E_COORD97":164756.10999999999,"N_COORD97":2543515.4199999999,"ADDRESS":"永華路二段８１９號九樓之７","OBJECTID":613878},"geometry":{"x":164756.11000000034,"y":2543515.4199999999}},{"attributes":{"ID":613906,"DIS_CODE":0,"TOWNNAME":"安平區","LI":"育平里","LIN":"2鄰","STREET":"永華路","SECT":"二段","MAREA":" ","LANE":" ","ALLEY":" ","HOUSE_NO":"８１９號九樓之８","E_COORD97":164756.10999999999,"N_COORD97":2543515.4199999999,"ADDRESS":"永華路二段８１９號九樓之８","OBJECTID":613879},"geometry":{"x":164756.11000000034,"y":2543515.4199999999}},{"attributes":{"ID":613907,"DIS_CODE":0,"TOWNNAME":"安平區","LI":"育平里","LIN":"2鄰","STREET":"永華路","SECT":"二段","MAREA":" ","LANE":" ","ALLEY":" ","HOUSE_NO":"８１９號二十一樓之５","E_COORD97":164756.10999999999,"N_COORD97":2543515.4199999999,"ADDRESS":"永華路二段８１９號二十一樓之５","OBJECTID":613880},"geometry":{"x":164756.11000000034,"y":2543515.4199999999}},{"attributes":{"ID":613908,"DIS_CODE":0,"TOWNNAME":"安平區","LI":"育平里","LIN":"2鄰","STREET":"永華路","SECT":"二段","MAREA":" ","LANE":" ","ALLEY":" ","HOUSE_NO":"８１９號二十一樓之６","E_COORD97":164756.10999999999,"N_COORD97":2543515.4199999999,"ADDRESS":"永華路二段８１９號二十一樓之６","OBJECTID":613881},"geometry":{"x":164756.11000000034,"y":2543515.4199999999}},{"attributes":{"ID":613909,"DIS_CODE":0,"TOWNNAME":"安平區","LI":"育平里","LIN":"2鄰","STREET":"永華路","SECT":"二段","MAREA":" ","LANE":" ","ALLEY":" ","HOUSE_NO":"８１９號二十一樓之７","E_COORD97":164756.10999999999,"N_COORD97":2543515.4199999999,"ADDRESS":"永華路二段８１９號二十一樓之７","OBJECTID":613882},"geometry":{"x":164756.11000000034,"y":2543515.4199999999}},{"attributes":{"ID":613910,"DIS_CODE":0,"TOWNNAME":"安平區","LI":"育平里","LIN":"2鄰","STREET":"永華路","SECT":"二段","MAREA":" ","LANE":" ","ALLEY":" ","HOUSE_NO":"８１９號二十一樓之８","E_COORD97":164756.10999999999,"N_COORD97":2543515.4199999999,"ADDRESS":"永華路二段８１９號二十一樓之８","OBJECTID":613883},"geometry":{"x":164756.11000000034,"y":2543515.4199999999}},{"attributes":{"ID":613911,"DIS_CODE":0,"TOWNNAME":"安平區","LI":"育平里","LIN":"2鄰","STREET":"永華路","SECT":"二段","MAREA":" ","LANE":" ","ALLEY":" ","HOUSE_NO":"８１９號二十二樓之５","E_COORD97":164756.10999999999,"N_COORD97":2543515.4199999999,"ADDRESS":"永華路二段８１９號二十二樓之５","OBJECTID":613884},"geometry":{"x":164756.11000000034,"y":2543515.4199999999}},{"attributes":{"ID":613912,"DIS_CODE":0,"TOWNNAME":"安平區","LI":"育平里","LIN":"2鄰","STREET":"永華路","SECT":"二段","MAREA":" ","LANE":" ","ALLEY":" ","HOUSE_NO":"８１９號二十二樓之６","E_COORD97":164756.10999999999,"N_COORD97":2543515.4199999999,"ADDRESS":"永華路二段８１９號二十二樓之６","OBJECTID":613885},"geometry":{"x":164756.11000000034,"y":2543515.4199999999}},{"attributes":{"ID":613913,"DIS_CODE":0,"TOWNNAME":"安平區","LI":"育平里","LIN":"2鄰","STREET":"永華路","SECT":"二段","MAREA":" ","LANE":" ","ALLEY":" ","HOUSE_NO":"８１９號二十二樓之７","E_COORD97":164756.10999999999,"N_COORD97":2543515.4199999999,"ADDRESS":"永華路二段８１９號二十二樓之７","OBJECTID":613886},"geometry":{"x":164756.11000000034,"y":2543515.4199999999}},{"attributes":{"ID":613914,"DIS_CODE":0,"TOWNNAME":"安平區","LI":"育平里","LIN":"2鄰","STREET":"永華路","SECT":"二段","MAREA":" ","LANE":" ","ALLEY":" ","HOUSE_NO":"８１９號二十二樓之８","E_COORD97":164756.10999999999,"N_COORD97":2543515.4199999999,"ADDRESS":"永華路二段８１９號二十二樓之８","OBJECTID":613887},"geometry":{"x":164756.11000000034,"y":2543515.4199999999}},{"attributes":{"ID":613915,"DIS_CODE":0,"TOWNNAME":"安平區","LI":"育平里","LIN":"2鄰","STREET":"永華路","SECT":"二段","MAREA":" ","LANE":" ","ALLEY":" ","HOUSE_NO":"８１９號二十三樓之５","E_COORD97":164756.10999999999,"N_COORD97":2543515.4199999999,"ADDRESS":"永華路二段８１９號二十三樓之５","OBJECTID":613888},"geometry":{"x":164756.11000000034,"y":2543515.4199999999}},{"attributes":{"ID":613916,"DIS_CODE":0,"TOWNNAME":"安平區","LI":"育平里","LIN":"2鄰","STREET":"永華路","SECT":"二段","MAREA":" ","LANE":" ","ALLEY":" ","HOUSE_NO":"８１９號二十三樓之６","E_COORD97":164756.10999999999,"N_COORD97":2543515.4199999999,"ADDRESS":"永華路二段８１９號二十三樓之６","OBJECTID":613889},"geometry":{"x":164756.11000000034,"y":2543515.4199999999}},{"attributes":{"ID":613917,"DIS_CODE":0,"TOWNNAME":"安平區","LI":"育平里","LIN":"2鄰","STREET":"永華路","SECT":"二段","MAREA":" ","LANE":" ","ALLEY":" ","HOUSE_NO":"８１９號二十三樓之７","E_COORD97":164756.10999999999,"N_COORD97":2543515.4199999999,"ADDRESS":"永華路二段８１９號二十三樓之７","OBJECTID":613890},"geometry":{"x":164756.11000000034,"y":2543515.4199999999}},{"attributes":{"ID":613918,"DIS_CODE":0,"TOWNNAME":"安平區","LI":"育平里","LIN":"2鄰","STREET":"永華路","SECT":"二段","MAREA":" ","LANE":" ","ALLEY":" ","HOUSE_NO":"８１９號二十三樓之８","E_COORD97":164756.10999999999,"N_COORD97":2543515.4199999999,"ADDRESS":"永華路二段８１９號二十三樓之８","OBJECTID":613891},"geometry":{"x":164756.11000000034,"y":2543515.4199999999}},{"attributes":{"ID":613919,"DIS_CODE":0,"TOWNNAME":"安平區","LI":"育平里","LIN":"2鄰","STREET":"永華路","SECT":"二段","MAREA":" ","LANE":" ","ALLEY":" ","HOUSE_NO":"８１９號二十樓之５","E_COORD97":164756.10999999999,"N_COORD97":2543515.4199999999,"ADDRESS":"永華路二段８１９號二十樓之５","OBJECTID":613892},"geometry":{"x":164756.11000000034,"y":2543515.4199999999}},{"attributes":{"ID":613920,"DIS_CODE":0,"TOWNNAME":"安平區","LI":"育平里","LIN":"2鄰","STREET":"永華路","SECT":"二段","MAREA":" ","LANE":" ","ALLEY":" ","HOUSE_NO":"８１９號二十樓之６","E_COORD97":164756.10999999999,"N_COORD97":2543515.4199999999,"ADDRESS":"永華路二段８１９號二十樓之６","OBJECTID":613893},"geometry":{"x":164756.11000000034,"y":2543515.4199999999}},{"attributes":{"ID":613921,"DIS_CODE":0,"TOWNNAME":"安平區","LI":"育平里","LIN":"2鄰","STREET":"永華路","SECT":"二段","MAREA":" ","LANE":" ","ALLEY":" ","HOUSE_NO":"８１９號二十樓之７","E_COORD97":164756.10999999999,"N_COORD97":2543515.4199999999,"ADDRESS":"永華路二段８１９號二十樓之７","OBJECTID":613894},"geometry":{"x":164756.11000000034,"y":2543515.4199999999}},{"attributes":{"ID":613922,"DIS_CODE":0,"TOWNNAME":"安平區","LI":"育平里","LIN":"2鄰","STREET":"永華路","SECT":"二段","MAREA":" ","LANE":" ","ALLEY":" ","HOUSE_NO":"８１９號二十樓之８","E_COORD97":164756.10999999999,"N_COORD97":2543515.4199999999,"ADDRESS":"永華路二段８１９號二十樓之８","OBJECTID":613895},"geometry":{"x":164756.11000000034,"y":2543515.4199999999}},{"attributes":{"ID":613923,"DIS_CODE":0,"TOWNNAME":"安平區","LI":"育平里","LIN":"2鄰","STREET":"永華路","SECT":"二段","MAREA":" ","LANE":" ","ALLEY":" ","HOUSE_NO":"８１９號八樓之５","E_COORD97":164756.10999999999,"N_COORD97":2543515.4199999999,"ADDRESS":"永華路二段８１９號八樓之５","OBJECTID":613896},"geometry":{"x":164756.11000000034,"y":2543515.4199999999}},{"attributes":{"ID":613924,"DIS_CODE":0,"TOWNNAME":"安平區","LI":"育平里","LIN":"2鄰","STREET":"永華路","SECT":"二段","MAREA":" ","LANE":" ","ALLEY":" ","HOUSE_NO":"８１９號八樓之６","E_COORD97":164756.10999999999,"N_COORD97":2543515.4199999999,"ADDRESS":"永華路二段８１９號八樓之６","OBJECTID":613897},"geometry":{"x":164756.11000000034,"y":2543515.4199999999}},{"attributes":{"ID":613925,"DIS_CODE":0,"TOWNNAME":"安平區","LI":"育平里","LIN":"2鄰","STREET":"永華路","SECT":"二段","MAREA":" ","LANE":" ","ALLEY":" ","HOUSE_NO":"８１９號八樓之７","E_COORD97":164756.10999999999,"N_COORD97":2543515.4199999999,"ADDRESS":"永華路二段８１９號八樓之７","OBJECTID":613898},"geometry":{"x":164756.11000000034,"y":2543515.4199999999}},{"attributes":{"ID":613926,"DIS_CODE":0,"TOWNNAME":"安平區","LI":"育平里","LIN":"2鄰","STREET":"永華路","SECT":"二段","MAREA":" ","LANE":" ","ALLEY":" ","HOUSE_NO":"８１９號八樓之８","E_COORD97":164756.10999999999,"N_COORD97":2543515.4199999999,"ADDRESS":"永華路二段８１９號八樓之８","OBJECTID":613899},"geometry":{"x":164756.11000000034,"y":2543515.4199999999}},{"attributes":{"ID":613927,"DIS_CODE":0,"TOWNNAME":"安平區","LI":"育平里","LIN":"2鄰","STREET":"永華路","SECT":"二段","MAREA":" ","LANE":" ","ALLEY":" ","HOUSE_NO":"８１９號十一樓之５","E_COORD97":164756.10999999999,"N_COORD97":2543515.4199999999,"ADDRESS":"永華路二段８１９號十一樓之５","OBJECTID":613900},"geometry":{"x":164756.11000000034,"y":2543515.4199999999}},{"attributes":{"ID":613928,"DIS_CODE":0,"TOWNNAME":"安平區","LI":"育平里","LIN":"2鄰","STREET":"永華路","SECT":"二段","MAREA":" ","LANE":" ","ALLEY":" ","HOUSE_NO":"８１９號十一樓之６","E_COORD97":164756.10999999999,"N_COORD97":2543515.4199999999,"ADDRESS":"永華路二段８１９號十一樓之６","OBJECTID":613901},"geometry":{"x":164756.11000000034,"y":2543515.4199999999}},{"attributes":{"ID":613929,"DIS_CODE":0,"TOWNNAME":"安平區","LI":"育平里","LIN":"2鄰","STREET":"永華路","SECT":"二段","MAREA":" ","LANE":" ","ALLEY":" ","HOUSE_NO":"８１９號十一樓之７","E_COORD97":164756.10999999999,"N_COORD97":2543515.4199999999,"ADDRESS":"永華路二段８１９號十一樓之７","OBJECTID":613902},"geometry":{"x":164756.11000000034,"y":2543515.4199999999}},{"attributes":{"ID":613930,"DIS_CODE":0,"TOWNNAME":"安平區","LI":"育平里","LIN":"2鄰","STREET":"永華路","SECT":"二段","MAREA":" ","LANE":" ","ALLEY":" ","HOUSE_NO":"８１９號十一樓之８","E_COORD97":164756.10999999999,"N_COORD97":2543515.4199999999,"ADDRESS":"永華路二段８１９號十一樓之８","OBJECTID":613903},"geometry":{"x":164756.11000000034,"y":2543515.4199999999}},{"attributes":{"ID":613931,"DIS_CODE":0,"TOWNNAME":"安平區","LI":"育平里","LIN":"2鄰","STREET":"永華路","SECT":"二段","MAREA":" ","LANE":" ","ALLEY":" ","HOUSE_NO":"８１９號十七樓之５","E_COORD97":164756.10999999999,"N_COORD97":2543515.4199999999,"ADDRESS":"永華路二段８１９號十七樓之５","OBJECTID":613904},"geometry":{"x":164756.11000000034,"y":2543515.4199999999}},{"attributes":{"ID":613932,"DIS_CODE":0,"TOWNNAME":"安平區","LI":"育平里","LIN":"2鄰","STREET":"永華路","SECT":"二段","MAREA":" ","LANE":" ","ALLEY":" ","HOUSE_NO":"８１９號十七樓之６","E_COORD97":164756.10999999999,"N_COORD97":2543515.4199999999,"ADDRESS":"永華路二段８１９號十七樓之６","OBJECTID":613905},"geometry":{"x":164756.11000000034,"y":2543515.4199999999}},{"attributes":{"ID":613933,"DIS_CODE":0,"TOWNNAME":"中西區","LI":"水仙里","LIN":"2鄰","STREET":"民生路","SECT":"二段","MAREA":" ","LANE":" ","ALLEY":" ","HOUSE_NO":"３６號","E_COORD97":167800.06,"N_COORD97":2543949.4900000002,"ADDRESS":"民生路二段３６號","OBJECTID":613906},"geometry":{"x":167800.05999999959,"y":2543949.4900000002}},{"attributes":{"ID":613934,"DIS_CODE":0,"TOWNNAME":"安平區","LI":"育平里","LIN":"2鄰","STREET":"永華路","SECT":"二段","MAREA":" ","LANE":" ","ALLEY":" ","HOUSE_NO":"８１９號十七樓之７","E_COORD97":164756.10999999999,"N_COORD97":2543515.4199999999,"ADDRESS":"永華路二段８１９號十七樓之７","OBJECTID":613907},"geometry":{"x":164756.11000000034,"y":2543515.4199999999}},{"attributes":{"ID":613935,"DIS_CODE":0,"TOWNNAME":"安平區","LI":"育平里","LIN":"2鄰","STREET":"永華路","SECT":"二段","MAREA":" ","LANE":" ","ALLEY":" ","HOUSE_NO":"８１９號十七樓之８","E_COORD97":164756.10999999999,"N_COORD97":2543515.4199999999,"ADDRESS":"永華路二段８１９號十七樓之８","OBJECTID":613908},"geometry":{"x":164756.11000000034,"y":2543515.4199999999}},{"attributes":{"ID":613936,"DIS_CODE":0,"TOWNNAME":"安平區","LI":"育平里","LIN":"2鄰","STREET":"永華路","SECT":"二段","MAREA":" ","LANE":" ","ALLEY":" ","HOUSE_NO":"８１９號十九樓之５","E_COORD97":164756.10999999999,"N_COORD97":2543515.4199999999,"ADDRESS":"永華路二段８１９號十九樓之５","OBJECTID":613909},"geometry":{"x":164756.11000000034,"y":2543515.4199999999}},{"attributes":{"ID":613937,"DIS_CODE":0,"TOWNNAME":"安平區","LI":"育平里","LIN":"2鄰","STREET":"永華路","SECT":"二段","MAREA":" ","LANE":" ","ALLEY":" ","HOUSE_NO":"８１９號十九樓之６","E_COORD97":164756.10999999999,"N_COORD97":2543515.4199999999,"ADDRESS":"永華路二段８１９號十九樓之６","OBJECTID":613910},"geometry":{"x":164756.11000000034,"y":2543515.4199999999}},{"attributes":{"ID":613938,"DIS_CODE":0,"TOWNNAME":"安平區","LI":"育平里","LIN":"2鄰","STREET":"永華路","SECT":"二段","MAREA":" ","LANE":" ","ALLEY":" ","HOUSE_NO":"８１９號十九樓之７","E_COORD97":164756.10999999999,"N_COORD97":2543515.4199999999,"ADDRESS":"永華路二段８１９號十九樓之７","OBJECTID":613911},"geometry":{"x":164756.11000000034,"y":2543515.4199999999}},{"attributes":{"ID":613939,"DIS_CODE":0,"TOWNNAME":"安平區","LI":"育平里","LIN":"2鄰","STREET":"永華路","SECT":"二段","MAREA":" ","LANE":" ","ALLEY":" ","HOUSE_NO":"８１９號十九樓之８","E_COORD97":164756.10999999999,"N_COORD97":2543515.4199999999,"ADDRESS":"永華路二段８１９號十九樓之８","OBJECTID":613912},"geometry":{"x":164756.11000000034,"y":2543515.4199999999}},{"attributes":{"ID":613940,"DIS_CODE":0,"TOWNNAME":"安平區","LI":"育平里","LIN":"2鄰","STREET":"永華路","SECT":"二段","MAREA":" ","LANE":" ","ALLEY":" ","HOUSE_NO":"８１９號十二樓之５","E_COORD97":164756.10999999999,"N_COORD97":2543515.4199999999,"ADDRESS":"永華路二段８１９號十二樓之５","OBJECTID":613913},"geometry":{"x":164756.11000000034,"y":2543515.4199999999}},{"attributes":{"ID":613941,"DIS_CODE":0,"TOWNNAME":"安平區","LI":"育平里","LIN":"2鄰","STREET":"永華路","SECT":"二段","MAREA":" ","LANE":" ","ALLEY":" ","HOUSE_NO":"８１９號十二樓之６","E_COORD97":164756.10999999999,"N_COORD97":2543515.4199999999,"ADDRESS":"永華路二段８１９號十二樓之６","OBJECTID":613914},"geometry":{"x":164756.11000000034,"y":2543515.4199999999}},{"attributes":{"ID":613942,"DIS_CODE":0,"TOWNNAME":"安平區","LI":"育平里","LIN":"2鄰","STREET":"永華路","SECT":"二段","MAREA":" ","LANE":" ","ALLEY":" ","HOUSE_NO":"８１９號十二樓之７","E_COORD97":164756.10999999999,"N_COORD97":2543515.4199999999,"ADDRESS":"永華路二段８１９號十二樓之７","OBJECTID":613915},"geometry":{"x":164756.11000000034,"y":2543515.4199999999}},{"attributes":{"ID":613943,"DIS_CODE":0,"TOWNNAME":"安平區","LI":"育平里","LIN":"2鄰","STREET":"永華路","SECT":"二段","MAREA":" ","LANE":" ","ALLEY":" ","HOUSE_NO":"８１９號十二樓之８","E_COORD97":164756.10999999999,"N_COORD97":2543515.4199999999,"ADDRESS":"永華路二段８１９號十二樓之８","OBJECTID":613916},"geometry":{"x":164756.11000000034,"y":2543515.4199999999}},{"attributes":{"ID":613944,"DIS_CODE":0,"TOWNNAME":"安平區","LI":"育平里","LIN":"2鄰","STREET":"永華路","SECT":"二段","MAREA":" ","LANE":" ","ALLEY":" ","HOUSE_NO":"８１９號十八樓之５","E_COORD97":164756.10999999999,"N_COORD97":2543515.4199999999,"ADDRESS":"永華路二段８１９號十八樓之５","OBJECTID":613917},"geometry":{"x":164756.11000000034,"y":2543515.4199999999}},{"attributes":{"ID":613945,"DIS_CODE":0,"TOWNNAME":"安平區","LI":"育平里","LIN":"2鄰","STREET":"永華路","SECT":"二段","MAREA":" ","LANE":" ","ALLEY":" ","HOUSE_NO":"８１９號十八樓之６","E_COORD97":164756.10999999999,"N_COORD97":2543515.4199999999,"ADDRESS":"永華路二段８１９號十八樓之６","OBJECTID":613918},"geometry":{"x":164756.11000000034,"y":2543515.4199999999}},{"attributes":{"ID":613946,"DIS_CODE":0,"TOWNNAME":"安平區","LI":"育平里","LIN":"2鄰","STREET":"永華路","SECT":"二段","MAREA":" ","LANE":" ","ALLEY":" ","HOUSE_NO":"８１９號十八樓之７","E_COORD97":164756.10999999999,"N_COORD97":2543515.4199999999,"ADDRESS":"永華路二段８１９號十八樓之７","OBJECTID":613919},"geometry":{"x":164756.11000000034,"y":2543515.4199999999}},{"attributes":{"ID":613947,"DIS_CODE":0,"TOWNNAME":"安平區","LI":"育平里","LIN":"2鄰","STREET":"永華路","SECT":"二段","MAREA":" ","LANE":" ","ALLEY":" ","HOUSE_NO":"８１９號十八樓之８","E_COORD97":164756.10999999999,"N_COORD97":2543515.4199999999,"ADDRESS":"永華路二段８１９號十八樓之８","OBJECTID":613920},"geometry":{"x":164756.11000000034,"y":2543515.4199999999}},{"attributes":{"ID":613948,"DIS_CODE":0,"TOWNNAME":"安平區","LI":"育平里","LIN":"2鄰","STREET":"永華路","SECT":"二段","MAREA":" ","LANE":" ","ALLEY":" ","HOUSE_NO":"８１９號十三樓之５","E_COORD97":164756.10999999999,"N_COORD97":2543515.4199999999,"ADDRESS":"永華路二段８１９號十三樓之５","OBJECTID":613921},"geometry":{"x":164756.11000000034,"y":2543515.4199999999}},{"attributes":{"ID":613949,"DIS_CODE":0,"TOWNNAME":"安平區","LI":"育平里","LIN":"2鄰","STREET":"永華路","SECT":"二段","MAREA":" ","LANE":" ","ALLEY":" ","HOUSE_NO":"８１９號十三樓之６","E_COORD97":164756.10999999999,"N_COORD97":2543515.4199999999,"ADDRESS":"永華路二段８１９號十三樓之６","OBJECTID":613922},"geometry":{"x":164756.11000000034,"y":2543515.4199999999}},{"attributes":{"ID":613950,"DIS_CODE":0,"TOWNNAME":"安平區","LI":"育平里","LIN":"2鄰","STREET":"永華路","SECT":"二段","MAREA":" ","LANE":" ","ALLEY":" ","HOUSE_NO":"８１９號十三樓之７","E_COORD97":164756.10999999999,"N_COORD97":2543515.4199999999,"ADDRESS":"永華路二段８１９號十三樓之７","OBJECTID":613923},"geometry":{"x":164756.11000000034,"y":2543515.4199999999}},{"attributes":{"ID":613951,"DIS_CODE":0,"TOWNNAME":"安平區","LI":"育平里","LIN":"2鄰","STREET":"永華路","SECT":"二段","MAREA":" ","LANE":" ","ALLEY":" ","HOUSE_NO":"８１９號十三樓之８","E_COORD97":164756.10999999999,"N_COORD97":2543515.4199999999,"ADDRESS":"永華路二段８１９號十三樓之８","OBJECTID":613924},"geometry":{"x":164756.11000000034,"y":2543515.4199999999}},{"attributes":{"ID":613952,"DIS_CODE":0,"TOWNNAME":"安平區","LI":"育平里","LIN":"2鄰","STREET":"永華路","SECT":"二段","MAREA":" ","LANE":" ","ALLEY":" ","HOUSE_NO":"８１９號十五樓之５","E_COORD97":164756.10999999999,"N_COORD97":2543515.4199999999,"ADDRESS":"永華路二段８１９號十五樓之５","OBJECTID":613925},"geometry":{"x":164756.11000000034,"y":2543515.4199999999}},{"attributes":{"ID":613953,"DIS_CODE":0,"TOWNNAME":"安平區","LI":"育平里","LIN":"2鄰","STREET":"永華路","SECT":"二段","MAREA":" ","LANE":" ","ALLEY":" ","HOUSE_NO":"８１９號十五樓之６","E_COORD97":164756.10999999999,"N_COORD97":2543515.4199999999,"ADDRESS":"永華路二段８１９號十五樓之６","OBJECTID":613926},"geometry":{"x":164756.11000000034,"y":2543515.4199999999}},{"attributes":{"ID":613954,"DIS_CODE":0,"TOWNNAME":"安平區","LI":"育平里","LIN":"2鄰","STREET":"永華路","SECT":"二段","MAREA":" ","LANE":" ","ALLEY":" ","HOUSE_NO":"８１９號十五樓之７","E_COORD97":164756.10999999999,"N_COORD97":2543515.4199999999,"ADDRESS":"永華路二段８１９號十五樓之７","OBJECTID":613927},"geometry":{"x":164756.11000000034,"y":2543515.4199999999}},{"attributes":{"ID":613955,"DIS_CODE":0,"TOWNNAME":"安平區","LI":"育平里","LIN":"2鄰","STREET":"永華路","SECT":"二段","MAREA":" ","LANE":" ","ALLEY":" ","HOUSE_NO":"８１９號十五樓之８","E_COORD97":164756.10999999999,"N_COORD97":2543515.4199999999,"ADDRESS":"永華路二段８１９號十五樓之８","OBJECTID":613928},"geometry":{"x":164756.11000000034,"y":2543515.4199999999}},{"attributes":{"ID":613956,"DIS_CODE":0,"TOWNNAME":"安平區","LI":"育平里","LIN":"2鄰","STREET":"永華路","SECT":"二段","MAREA":" ","LANE":" ","ALLEY":" ","HOUSE_NO":"８１９號十六樓之５","E_COORD97":164756.10999999999,"N_COORD97":2543515.4199999999,"ADDRESS":"永華路二段８１９號十六樓之５","OBJECTID":613929},"geometry":{"x":164756.11000000034,"y":2543515.4199999999}},{"attributes":{"ID":613957,"DIS_CODE":0,"TOWNNAME":"安平區","LI":"育平里","LIN":"2鄰","STREET":"永華路","SECT":"二段","MAREA":" ","LANE":" ","ALLEY":" ","HOUSE_NO":"８１９號十六樓之６","E_COORD97":164756.10999999999,"N_COORD97":2543515.4199999999,"ADDRESS":"永華路二段８１９號十六樓之６","OBJECTID":613930},"geometry":{"x":164756.11000000034,"y":2543515.4199999999}},{"attributes":{"ID":613958,"DIS_CODE":0,"TOWNNAME":"安平區","LI":"育平里","LIN":"2鄰","STREET":"永華路","SECT":"二段","MAREA":" ","LANE":" ","ALLEY":" ","HOUSE_NO":"８１９號十六樓之７","E_COORD97":164756.10999999999,"N_COORD97":2543515.4199999999,"ADDRESS":"永華路二段８１９號十六樓之７","OBJECTID":613931},"geometry":{"x":164756.11000000034,"y":2543515.4199999999}},{"attributes":{"ID":613959,"DIS_CODE":0,"TOWNNAME":"安平區","LI":"育平里","LIN":"2鄰","STREET":"永華路","SECT":"二段","MAREA":" ","LANE":" ","ALLEY":" ","HOUSE_NO":"８１９號十六樓之８","E_COORD97":164756.10999999999,"N_COORD97":2543515.4199999999,"ADDRESS":"永華路二段８１９號十六樓之８","OBJECTID":613932},"geometry":{"x":164756.11000000034,"y":2543515.4199999999}},{"attributes":{"ID":613960,"DIS_CODE":0,"TOWNNAME":"安平區","LI":"育平里","LIN":"2鄰","STREET":"永華路","SECT":"二段","MAREA":" ","LANE":" ","ALLEY":" ","HOUSE_NO":"８１９號十四樓之５","E_COORD97":164756.10999999999,"N_COORD97":2543515.4199999999,"ADDRESS":"永華路二段８１９號十四樓之５","OBJECTID":613933},"geometry":{"x":164756.11000000034,"y":2543515.4199999999}},{"attributes":{"ID":613961,"DIS_CODE":0,"TOWNNAME":"北區","LI":"興南里","LIN":"2鄰","STREET":"公園路","SECT":" ","MAREA":" ","LANE":" ","ALLEY":" ","HOUSE_NO":"３１５號之１七樓","E_COORD97":169016.45000000001,"N_COORD97":2544900.3199999998,"ADDRESS":"公園路３１５號之１七樓","OBJECTID":613934},"geometry":{"x":169016.45000000112,"y":2544900.3199999984}},{"attributes":{"ID":613962,"DIS_CODE":0,"TOWNNAME":"安平區","LI":"育平里","LIN":"2鄰","STREET":"永華路","SECT":"二段","MAREA":" ","LANE":" ","ALLEY":" ","HOUSE_NO":"８１９號十四樓之６","E_COORD97":164756.10999999999,"N_COORD97":2543515.4199999999,"ADDRESS":"永華路二段８１９號十四樓之６","OBJECTID":613935},"geometry":{"x":164756.11000000034,"y":2543515.4199999999}},{"attributes":{"ID":613963,"DIS_CODE":0,"TOWNNAME":"安平區","LI":"育平里","LIN":"2鄰","STREET":"永華路","SECT":"二段","MAREA":" ","LANE":" ","ALLEY":" ","HOUSE_NO":"８１９號十四樓之７","E_COORD97":164756.10999999999,"N_COORD97":2543515.4199999999,"ADDRESS":"永華路二段８１９號十四樓之７","OBJECTID":613936},"geometry":{"x":164756.11000000034,"y":2543515.4199999999}},{"attributes":{"ID":613964,"DIS_CODE":0,"TOWNNAME":"安平區","LI":"育平里","LIN":"2鄰","STREET":"永華路","SECT":"二段","MAREA":" ","LANE":" ","ALLEY":" ","HOUSE_NO":"８１９號十四樓之８","E_COORD97":164756.10999999999,"N_COORD97":2543515.4199999999,"ADDRESS":"永華路二段８１９號十四樓之８","OBJECTID":613937},"geometry":{"x":164756.11000000034,"y":2543515.4199999999}},{"attributes":{"ID":613965,"DIS_CODE":0,"TOWNNAME":"安平區","LI":"育平里","LIN":"2鄰","STREET":"永華路","SECT":"二段","MAREA":" ","LANE":" ","ALLEY":" ","HOUSE_NO":"８１９號十樓之５","E_COORD97":164756.10999999999,"N_COORD97":2543515.4199999999,"ADDRESS":"永華路二段８１９號十樓之５","OBJECTID":613938},"geometry":{"x":164756.11000000034,"y":2543515.4199999999}},{"attributes":{"ID":613966,"DIS_CODE":0,"TOWNNAME":"安平區","LI":"育平里","LIN":"2鄰","STREET":"永華路","SECT":"二段","MAREA":" ","LANE":" ","ALLEY":" ","HOUSE_NO":"８１９號十樓之６","E_COORD97":164756.10999999999,"N_COORD97":2543515.4199999999,"ADDRESS":"永華路二段８１９號十樓之６","OBJECTID":613939},"geometry":{"x":164756.11000000034,"y":2543515.4199999999}},{"attributes":{"ID":613967,"DIS_CODE":0,"TOWNNAME":"安平區","LI":"育平里","LIN":"2鄰","STREET":"永華路","SECT":"二段","MAREA":" ","LANE":" ","ALLEY":" ","HOUSE_NO":"８１９號十樓之７","E_COORD97":164756.10999999999,"N_COORD97":2543515.4199999999,"ADDRESS":"永華路二段８１９號十樓之７","OBJECTID":613940},"geometry":{"x":164756.11000000034,"y":2543515.4199999999}},{"attributes":{"ID":613968,"DIS_CODE":0,"TOWNNAME":"安平區","LI":"育平里","LIN":"2鄰","STREET":"永華路","SECT":"二段","MAREA":" ","LANE":" ","ALLEY":" ","HOUSE_NO":"８１９號十樓之８","E_COORD97":164756.10999999999,"N_COORD97":2543515.4199999999,"ADDRESS":"永華路二段８１９號十樓之８","OBJECTID":613941},"geometry":{"x":164756.11000000034,"y":2543515.4199999999}},{"attributes":{"ID":613969,"DIS_CODE":0,"TOWNNAME":"安平區","LI":"育平里","LIN":"2鄰","STREET":"永華路","SECT":"二段","MAREA":" ","LANE":" ","ALLEY":" ","HOUSE_NO":"８１９號三樓之５","E_COORD97":164756.10999999999,"N_COORD97":2543515.4199999999,"ADDRESS":"永華路二段８１９號三樓之５","OBJECTID":613942},"geometry":{"x":164756.11000000034,"y":2543515.4199999999}},{"attributes":{"ID":613970,"DIS_CODE":0,"TOWNNAME":"安平區","LI":"育平里","LIN":"2鄰","STREET":"永華路","SECT":"二段","MAREA":" ","LANE":" ","ALLEY":" ","HOUSE_NO":"８１９號三樓之６","E_COORD97":164756.10999999999,"N_COORD97":2543515.4199999999,"ADDRESS":"永華路二段８１９號三樓之６","OBJECTID":613943},"geometry":{"x":164756.11000000034,"y":2543515.4199999999}},{"attributes":{"ID":613971,"DIS_CODE":0,"TOWNNAME":"安平區","LI":"育平里","LIN":"2鄰","STREET":"永華路","SECT":"二段","MAREA":" ","LANE":" ","ALLEY":" ","HOUSE_NO":"８１９號三樓之７","E_COORD97":164756.10999999999,"N_COORD97":2543515.4199999999,"ADDRESS":"永華路二段８１９號三樓之７","OBJECTID":613944},"geometry":{"x":164756.11000000034,"y":2543515.4199999999}},{"attributes":{"ID":613972,"DIS_CODE":0,"TOWNNAME":"安平區","LI":"育平里","LIN":"2鄰","STREET":"永華路","SECT":"二段","MAREA":" ","LANE":" ","ALLEY":" ","HOUSE_NO":"８１９號三樓之８","E_COORD97":164756.10999999999,"N_COORD97":2543515.4199999999,"ADDRESS":"永華路二段８１９號三樓之８","OBJECTID":613945},"geometry":{"x":164756.11000000034,"y":2543515.4199999999}},{"attributes":{"ID":613973,"DIS_CODE":0,"TOWNNAME":"安平區","LI":"育平里","LIN":"2鄰","STREET":"永華路","SECT":"二段","MAREA":" ","LANE":" ","ALLEY":" ","HOUSE_NO":"８１９號五樓之５","E_COORD97":164756.10999999999,"N_COORD97":2543515.4199999999,"ADDRESS":"永華路二段８１９號五樓之５","OBJECTID":613946},"geometry":{"x":164756.11000000034,"y":2543515.4199999999}},{"attributes":{"ID":613974,"DIS_CODE":0,"TOWNNAME":"安平區","LI":"育平里","LIN":"2鄰","STREET":"永華路","SECT":"二段","MAREA":" ","LANE":" ","ALLEY":" ","HOUSE_NO":"８１９號五樓之６","E_COORD97":164756.10999999999,"N_COORD97":2543515.4199999999,"ADDRESS":"永華路二段８１９號五樓之６","OBJECTID":613947},"geometry":{"x":164756.11000000034,"y":2543515.4199999999}},{"attributes":{"ID":613975,"DIS_CODE":0,"TOWNNAME":"安平區","LI":"育平里","LIN":"2鄰","STREET":"永華路","SECT":"二段","MAREA":" ","LANE":" ","ALLEY":" ","HOUSE_NO":"８１９號五樓之７","E_COORD97":164756.10999999999,"N_COORD97":2543515.4199999999,"ADDRESS":"永華路二段８１９號五樓之７","OBJECTID":613948},"geometry":{"x":164756.11000000034,"y":2543515.4199999999}},{"attributes":{"ID":613976,"DIS_CODE":0,"TOWNNAME":"安平區","LI":"育平里","LIN":"2鄰","STREET":"永華路","SECT":"二段","MAREA":" ","LANE":" ","ALLEY":" ","HOUSE_NO":"８１９號五樓之８","E_COORD97":164756.10999999999,"N_COORD97":2543515.4199999999,"ADDRESS":"永華路二段８１９號五樓之８","OBJECTID":613949},"geometry":{"x":164756.11000000034,"y":2543515.4199999999}},{"attributes":{"ID":613977,"DIS_CODE":0,"TOWNNAME":"安平區","LI":"育平里","LIN":"2鄰","STREET":"永華路","SECT":"二段","MAREA":" ","LANE":" ","ALLEY":" ","HOUSE_NO":"８１９號六樓之５","E_COORD97":164756.10999999999,"N_COORD97":2543515.4199999999,"ADDRESS":"永華路二段８１９號六樓之５","OBJECTID":613950},"geometry":{"x":164756.11000000034,"y":2543515.4199999999}},{"attributes":{"ID":613978,"DIS_CODE":0,"TOWNNAME":"安平區","LI":"育平里","LIN":"2鄰","STREET":"永華路","SECT":"二段","MAREA":" ","LANE":" ","ALLEY":" ","HOUSE_NO":"８１９號六樓之６","E_COORD97":164756.10999999999,"N_COORD97":2543515.4199999999,"ADDRESS":"永華路二段８１９號六樓之６","OBJECTID":613951},"geometry":{"x":164756.11000000034,"y":2543515.4199999999}},{"attributes":{"ID":613979,"DIS_CODE":0,"TOWNNAME":"安平區","LI":"育平里","LIN":"2鄰","STREET":"永華路","SECT":"二段","MAREA":" ","LANE":" ","ALLEY":" ","HOUSE_NO":"８１９號六樓之７","E_COORD97":164756.10999999999,"N_COORD97":2543515.4199999999,"ADDRESS":"永華路二段８１９號六樓之７","OBJECTID":613952},"geometry":{"x":164756.11000000034,"y":2543515.4199999999}},{"attributes":{"ID":613980,"DIS_CODE":0,"TOWNNAME":"安平區","LI":"育平里","LIN":"2鄰","STREET":"永華路","SECT":"二段","MAREA":" ","LANE":" ","ALLEY":" ","HOUSE_NO":"８１９號六樓之８","E_COORD97":164756.10999999999,"N_COORD97":2543515.4199999999,"ADDRESS":"永華路二段８１９號六樓之８","OBJECTID":613953},"geometry":{"x":164756.11000000034,"y":2543515.4199999999}},{"attributes":{"ID":613981,"DIS_CODE":0,"TOWNNAME":"安平區","LI":"育平里","LIN":"2鄰","STREET":"永華路","SECT":"二段","MAREA":" ","LANE":" ","ALLEY":" ","HOUSE_NO":"８１９號四樓之５","E_COORD97":164756.10999999999,"N_COORD97":2543515.4199999999,"ADDRESS":"永華路二段８１９號四樓之５","OBJECTID":613954},"geometry":{"x":164756.11000000034,"y":2543515.4199999999}},{"attributes":{"ID":613982,"DIS_CODE":0,"TOWNNAME":"安平區","LI":"育平里","LIN":"2鄰","STREET":"永華路","SECT":"二段","MAREA":" ","LANE":" ","ALLEY":" ","HOUSE_NO":"８１９號四樓之６","E_COORD97":164756.10999999999,"N_COORD97":2543515.4199999999,"ADDRESS":"永華路二段８１９號四樓之６","OBJECTID":613955},"geometry":{"x":164756.11000000034,"y":2543515.4199999999}},{"attributes":{"ID":613983,"DIS_CODE":0,"TOWNNAME":"安平區","LI":"育平里","LIN":"2鄰","STREET":"永華路","SECT":"二段","MAREA":" ","LANE":" ","ALLEY":" ","HOUSE_NO":"８１９號四樓之７","E_COORD97":164756.10999999999,"N_COORD97":2543515.4199999999,"ADDRESS":"永華路二段８１９號四樓之７","OBJECTID":613956},"geometry":{"x":164756.11000000034,"y":2543515.4199999999}},{"attributes":{"ID":613984,"DIS_CODE":0,"TOWNNAME":"安平區","LI":"育平里","LIN":"2鄰","STREET":"永華路","SECT":"二段","MAREA":" ","LANE":" ","ALLEY":" ","HOUSE_NO":"８１９號四樓之８","E_COORD97":164756.10999999999,"N_COORD97":2543515.4199999999,"ADDRESS":"永華路二段８１９號四樓之８","OBJECTID":613957},"geometry":{"x":164756.11000000034,"y":2543515.4199999999}},{"attributes":{"ID":613985,"DIS_CODE":0,"TOWNNAME":"新營區","LI":"興業里","LIN":"2鄰","STREET":"新進路","SECT":" ","MAREA":" ","LANE":" ","ALLEY":" ","HOUSE_NO":"２３２號五樓","E_COORD97":180275.56,"N_COORD97":2577883.71,"ADDRESS":"新進路２３２號五樓","OBJECTID":613958},"geometry":{"x":180275.56000000145,"y":2577883.7100000046}},{"attributes":{"ID":613986,"DIS_CODE":0,"TOWNNAME":"新營區","LI":"延平里","LIN":"2鄰","STREET":"延平路","SECT":" ","MAREA":" ","LANE":" ","ALLEY":" ","HOUSE_NO":"４０之１號八樓之２","E_COORD97":179768.48000000001,"N_COORD97":2577845.1899999999,"ADDRESS":"延平路４０之１號八樓之２","OBJECTID":613959},"geometry":{"x":179768.48000000138,"y":2577845.1900000013}},{"attributes":{"ID":613987,"DIS_CODE":0,"TOWNNAME":"中西區","LI":"銀同里","LIN":"14鄰","STREET":"青年路","SECT":" ","MAREA":" ","LANE":" ","ALLEY":" ","HOUSE_NO":"６６號","E_COORD97":168736.97,"N_COORD97":2543624.52,"ADDRESS":"青年路６６號","OBJECTID":613960},"geometry":{"x":168736.96999999881,"y":2543624.5200000014}},{"attributes":{"ID":613988,"DIS_CODE":0,"TOWNNAME":"新營區","LI":"延平里","LIN":"2鄰","STREET":"延平路","SECT":" ","MAREA":" ","LANE":" ","ALLEY":" ","HOUSE_NO":"４０之１號七樓之１","E_COORD97":179768.34,"N_COORD97":2577845.1899999999,"ADDRESS":"延平路４０之１號七樓之１","OBJECTID":613961},"geometry":{"x":179768.33999999985,"y":2577845.1900000013}},{"attributes":{"ID":613989,"DIS_CODE":0,"TOWNNAME":"新營區","LI":"民權里","LIN":"2鄰","STREET":"信義街","SECT":" ","MAREA":" ","LANE":" ","ALLEY":" ","HOUSE_NO":"１０之４號三樓之３","E_COORD97":179968.20000000001,"N_COORD97":2578141.04,"ADDRESS":"信義街１０之４號三樓之３","OBJECTID":613962},"geometry":{"x":179968.19999999925,"y":2578141.040000001}},{"attributes":{"ID":613990,"DIS_CODE":0,"TOWNNAME":"新營區","LI":"興業里","LIN":"2鄰","STREET":"新進路","SECT":" ","MAREA":" ","LANE":" ","ALLEY":" ","HOUSE_NO":"２３２號四樓","E_COORD97":180275.56,"N_COORD97":2577883.71,"ADDRESS":"新進路２３２號四樓","OBJECTID":613963},"geometry":{"x":180275.56000000145,"y":2577883.7100000046}},{"attributes":{"ID":613991,"DIS_CODE":0,"TOWNNAME":"北區","LI":"興南里","LIN":"2鄰","STREET":"公園路","SECT":" ","MAREA":" ","LANE":" ","ALLEY":" ","HOUSE_NO":"３１５號之１一樓","E_COORD97":169016.45000000001,"N_COORD97":2544900.3199999998,"ADDRESS":"公園路３１５號之１一樓","OBJECTID":613964},"geometry":{"x":169016.45000000112,"y":2544900.3199999984}},{"attributes":{"ID":613992,"DIS_CODE":0,"TOWNNAME":"北區","LI":"興南里","LIN":"2鄰","STREET":"公園路","SECT":" ","MAREA":" ","LANE":" ","ALLEY":" ","HOUSE_NO":"３１５號之１九樓","E_COORD97":169016.45000000001,"N_COORD97":2544900.3199999998,"ADDRESS":"公園路３１５號之１九樓","OBJECTID":613965},"geometry":{"x":169016.45000000112,"y":2544900.3199999984}},{"attributes":{"ID":613993,"DIS_CODE":0,"TOWNNAME":"北區","LI":"興南里","LIN":"2鄰","STREET":"公園路","SECT":" ","MAREA":" ","LANE":" ","ALLEY":" ","HOUSE_NO":"３１５號之１二樓","E_COORD97":169016.45000000001,"N_COORD97":2544900.3199999998,"ADDRESS":"公園路３１５號之１二樓","OBJECTID":613966},"geometry":{"x":169016.45000000112,"y":2544900.3199999984}},{"attributes":{"ID":613994,"DIS_CODE":0,"TOWNNAME":"北區","LI":"興南里","LIN":"2鄰","STREET":"公園路","SECT":" ","MAREA":" ","LANE":" ","ALLEY":" ","HOUSE_NO":"３１５號之１八樓","E_COORD97":169016.45000000001,"N_COORD97":2544900.3199999998,"ADDRESS":"公園路３１５號之１八樓","OBJECTID":613967},"geometry":{"x":169016.45000000112,"y":2544900.3199999984}},{"attributes":{"ID":613995,"DIS_CODE":0,"TOWNNAME":"北區","LI":"興南里","LIN":"2鄰","STREET":"公園路","SECT":" ","MAREA":" ","LANE":" ","ALLEY":" ","HOUSE_NO":"３１５號之１十一樓","E_COORD97":169016.45000000001,"N_COORD97":2544900.3199999998,"ADDRESS":"公園路３１５號之１十一樓","OBJECTID":613968},"geometry":{"x":169016.45000000112,"y":2544900.3199999984}},{"attributes":{"ID":613996,"DIS_CODE":0,"TOWNNAME":"北區","LI":"興南里","LIN":"2鄰","STREET":"公園路","SECT":" ","MAREA":" ","LANE":" ","ALLEY":" ","HOUSE_NO":"３１５號之１十二樓","E_COORD97":169016.45000000001,"N_COORD97":2544900.3199999998,"ADDRESS":"公園路３１５號之１十二樓","OBJECTID":613969},"geometry":{"x":169016.45000000112,"y":2544900.3199999984}},{"attributes":{"ID":613997,"DIS_CODE":0,"TOWNNAME":"北區","LI":"興南里","LIN":"2鄰","STREET":"公園路","SECT":" ","MAREA":" ","LANE":" ","ALLEY":" ","HOUSE_NO":"３１５號之１十樓","E_COORD97":169016.45000000001,"N_COORD97":2544900.3199999998,"ADDRESS":"公園路３１５號之１十樓","OBJECTID":613970},"geometry":{"x":169016.45000000112,"y":2544900.3199999984}},{"attributes":{"ID":613998,"DIS_CODE":0,"TOWNNAME":"北區","LI":"興南里","LIN":"2鄰","STREET":"公園路","SECT":" ","MAREA":" ","LANE":" ","ALLEY":" ","HOUSE_NO":"３１５號之１三樓","E_COORD97":169016.45000000001,"N_COORD97":2544900.3199999998,"ADDRESS":"公園路３１５號之１三樓","OBJECTID":613971},"geometry":{"x":169016.45000000112,"y":2544900.3199999984}},{"attributes":{"ID":613999,"DIS_CODE":0,"TOWNNAME":"北區","LI":"興南里","LIN":"2鄰","STREET":"公園路","SECT":" ","MAREA":" ","LANE":" ","ALLEY":" ","HOUSE_NO":"３１５號之１五樓","E_COORD97":169016.45000000001,"N_COORD97":2544900.3199999998,"ADDRESS":"公園路３１５號之１五樓","OBJECTID":613972},"geometry":{"x":169016.45000000112,"y":2544900.3199999984}},{"attributes":{"ID":614000,"DIS_CODE":0,"TOWNNAME":"北區","LI":"興南里","LIN":"2鄰","STREET":"公園路","SECT":" ","MAREA":" ","LANE":" ","ALLEY":" ","HOUSE_NO":"３１５號之１六樓","E_COORD97":169016.45000000001,"N_COORD97":2544900.3199999998,"ADDRESS":"公園路３１５號之１六樓","OBJECTID":613973},"geometry":{"x":169016.45000000112,"y":2544900.3199999984}},{"attributes":{"ID":614001,"DIS_CODE":0,"TOWNNAME":"北區","LI":"興南里","LIN":"2鄰","STREET":"公園路","SECT":" ","MAREA":" ","LANE":" ","ALLEY":" ","HOUSE_NO":"３１５號之１四樓","E_COORD97":169016.45000000001,"N_COORD97":2544900.3199999998,"ADDRESS":"公園路３１５號之１四樓","OBJECTID":613974},"geometry":{"x":169016.45000000112,"y":2544900.3199999984}},{"attributes":{"ID":614002,"DIS_CODE":0,"TOWNNAME":"北區","LI":"仁愛里","LIN":"2鄰","STREET":"勝利路","SECT":" ","MAREA":" ","LANE":" ","ALLEY":" ","HOUSE_NO":"２２０號二樓之３","E_COORD97":169935.87,"N_COORD97":2545010.29,"ADDRESS":"勝利路２２０號二樓之３","OBJECTID":613975},"geometry":{"x":169935.87000000011,"y":2545010.2899999991}},{"attributes":{"ID":614003,"DIS_CODE":0,"TOWNNAME":"北區","LI":"成德里","LIN":"2鄰","STREET":"西門路","SECT":"四段","MAREA":" ","LANE":" ","ALLEY":" ","HOUSE_NO":"１５號八樓","E_COORD97":168594.82000000001,"N_COORD97":2545252.8799999999,"ADDRESS":"西門路四段１５號八樓","OBJECTID":613976},"geometry":{"x":168594.82000000123,"y":2545252.8800000008}},{"attributes":{"ID":614004,"DIS_CODE":0,"TOWNNAME":"北區","LI":"成德里","LIN":"2鄰","STREET":"西門路","SECT":"四段","MAREA":" ","LANE":" ","ALLEY":" ","HOUSE_NO":"１５號七樓","E_COORD97":168594.82000000001,"N_COORD97":2545252.8799999999,"ADDRESS":"西門路四段１５號七樓","OBJECTID":613977},"geometry":{"x":168594.82000000123,"y":2545252.8800000008}},{"attributes":{"ID":614005,"DIS_CODE":0,"TOWNNAME":"北區","LI":"成德里","LIN":"2鄰","STREET":"西門路","SECT":"四段","MAREA":" ","LANE":" ","ALLEY":" ","HOUSE_NO":"１５號九樓","E_COORD97":168594.82000000001,"N_COORD97":2545252.8799999999,"ADDRESS":"西門路四段１５號九樓","OBJECTID":613978},"geometry":{"x":168594.82000000123,"y":2545252.8800000008}},{"attributes":{"ID":614006,"DIS_CODE":0,"TOWNNAME":"北區","LI":"成德里","LIN":"2鄰","STREET":"西門路","SECT":"四段","MAREA":" ","LANE":" ","ALLEY":" ","HOUSE_NO":"１５號二樓","E_COORD97":168594.82000000001,"N_COORD97":2545252.8799999999,"ADDRESS":"西門路四段１５號二樓","OBJECTID":613979},"geometry":{"x":168594.82000000123,"y":2545252.8800000008}},{"attributes":{"ID":614007,"DIS_CODE":0,"TOWNNAME":"歸仁區","LI":"新厝里","LIN":"2鄰","STREET":"復興路","SECT":" ","MAREA":" ","LANE":" ","ALLEY":" ","HOUSE_NO":"１６２之１號五樓","E_COORD97":177628.37,"N_COORD97":2540657.2599999998,"ADDRESS":"復興路１６２之１號五樓","OBJECTID":613980},"geometry":{"x":177628.37000000104,"y":2540657.2600000016}},{"attributes":{"ID":614008,"DIS_CODE":0,"TOWNNAME":"永康區","LI":"永康里","LIN":"2鄰","STREET":"中山北路","SECT":" ","MAREA":" ","LANE":" ","ALLEY":" ","HOUSE_NO":"６７號","E_COORD97":174006.09,"N_COORD97":2547416.6800000002,"ADDRESS":"中山北路６７號","OBJECTID":613981},"geometry":{"x":174006.08999999985,"y":2547416.6800000034}},{"attributes":{"ID":614009,"DIS_CODE":0,"TOWNNAME":"永康區","LI":"龍潭里","LIN":"2鄰","STREET":"龍潭街","SECT":" ","MAREA":" ","LANE":" ","ALLEY":" ","HOUSE_NO":"８１號","E_COORD97":174818.91,"N_COORD97":2548063.8100000001,"ADDRESS":"龍潭街８１號","OBJECTID":613982},"geometry":{"x":174818.91000000108,"y":2548063.8099999987}},{"attributes":{"ID":614010,"DIS_CODE":0,"TOWNNAME":"安平區","LI":"億載里","LIN":"2鄰","STREET":"光州七街","SECT":" ","MAREA":" ","LANE":" ","ALLEY":" ","HOUSE_NO":"８０號","E_COORD97":164045.04000000001,"N_COORD97":2543744.4300000002,"ADDRESS":"光州七街８０號","OBJECTID":613983},"geometry":{"x":164045.04000000097,"y":2543744.4300000016}},{"attributes":{"ID":614011,"DIS_CODE":0,"TOWNNAME":"安南區","LI":"城中里","LIN":"2鄰","STREET":"安中路","SECT":"六段","MAREA":" ","LANE":" ","ALLEY":" ","HOUSE_NO":"５７７號","E_COORD97":160844.38,"N_COORD97":2551411,"ADDRESS":"安中路六段５７７號","OBJECTID":613984},"geometry":{"x":160844.37999999989,"y":2551411}},{"attributes":{"ID":614012,"DIS_CODE":0,"TOWNNAME":"安南區","LI":"城中里","LIN":"2鄰","STREET":"安中路","SECT":"六段","MAREA":" ","LANE":" ","ALLEY":" ","HOUSE_NO":"５７３號","E_COORD97":160852.34,"N_COORD97":2551408.9100000001,"ADDRESS":"安中路六段５７３號","OBJECTID":613985},"geometry":{"x":160852.34000000078,"y":2551408.9100000001}},{"attributes":{"ID":614013,"DIS_CODE":0,"TOWNNAME":"安南區","LI":"城中里","LIN":"2鄰","STREET":"安中路","SECT":"六段","MAREA":" ","LANE":" ","ALLEY":" ","HOUSE_NO":"５７５號","E_COORD97":160847.87,"N_COORD97":2551409.4500000002,"ADDRESS":"安中路六段５７５號","OBJECTID":613986},"geometry":{"x":160847.87000000011,"y":2551409.4500000011}},{"attributes":{"ID":614014,"DIS_CODE":0,"TOWNNAME":"東區","LI":"崇文里","LIN":"2鄰","STREET":"崇善路","SECT":" ","MAREA":" ","LANE":" ","ALLEY":" ","HOUSE_NO":"５８２號","E_COORD97":171093.37,"N_COORD97":2541174.48,"ADDRESS":"崇善路５８２號","OBJECTID":613987},"geometry":{"x":171093.37000000104,"y":2541174.4800000023}},{"attributes":{"ID":614015,"DIS_CODE":0,"TOWNNAME":"東區","LI":"崇文里","LIN":"2鄰","STREET":"崇善路","SECT":" ","MAREA":" ","LANE":" ","ALLEY":" ","HOUSE_NO":"５８４號","E_COORD97":171094.95999999999,"N_COORD97":2541170.5,"ADDRESS":"崇善路５８４號","OBJECTID":613988},"geometry":{"x":171094.95999999996,"y":2541170.5000000019}},{"attributes":{"ID":614016,"DIS_CODE":0,"TOWNNAME":"東區","LI":"崇文里","LIN":"2鄰","STREET":"崇善路","SECT":" ","MAREA":" ","LANE":" ","ALLEY":" ","HOUSE_NO":"５８６號","E_COORD97":171097.04999999999,"N_COORD97":2541165.1400000001,"ADDRESS":"崇善路５８６號","OBJECTID":613989},"geometry":{"x":171097.05000000075,"y":2541165.1400000006}},{"attributes":{"ID":614017,"DIS_CODE":0,"TOWNNAME":"東區","LI":"崇文里","LIN":"2鄰","STREET":"崇善路","SECT":" ","MAREA":" ","LANE":" ","ALLEY":" ","HOUSE_NO":"５８８號","E_COORD97":171100.73000000001,"N_COORD97":2541152.0099999998,"ADDRESS":"崇善路５８８號","OBJECTID":613990},"geometry":{"x":171100.72999999952,"y":2541152.0099999998}},{"attributes":{"ID":614018,"DIS_CODE":0,"TOWNNAME":"中西區","LI":"銀同里","LIN":"7鄰","STREET":"府中街","SECT":" ","MAREA":" ","LANE":" ","ALLEY":" ","HOUSE_NO":"４２號","E_COORD97":168740.13,"N_COORD97":2543478.5800000001,"ADDRESS":"府中街４２號","OBJECTID":613991},"geometry":{"x":168740.13000000082,"y":2543478.5800000019}},{"attributes":{"ID":614019,"DIS_CODE":0,"TOWNNAME":"中西區","LI":"銀同里","LIN":"7鄰","STREET":"府中街","SECT":" ","MAREA":" ","LANE":" ","ALLEY":" ","HOUSE_NO":"４８號","E_COORD97":168723.85000000001,"N_COORD97":2543479.7000000002,"ADDRESS":"府中街４８號","OBJECTID":613992},"geometry":{"x":168723.84999999963,"y":2543479.700000003}},{"attributes":{"ID":614020,"DIS_CODE":0,"TOWNNAME":"中西區","LI":"銀同里","LIN":"7鄰","STREET":"府中街","SECT":" ","MAREA":" ","LANE":" ","ALLEY":" ","HOUSE_NO":"５８號","E_COORD97":168703.41,"N_COORD97":2543458.0099999998,"ADDRESS":"府中街５８號","OBJECTID":613993},"geometry":{"x":168703.41000000015,"y":2543458.0100000035}},{"attributes":{"ID":614021,"DIS_CODE":0,"TOWNNAME":"中西區","LI":"保安里","LIN":"2鄰","STREET":"西門路","SECT":"二段","MAREA":" ","LANE":" ","ALLEY":" ","HOUSE_NO":"４１號","E_COORD97":167757.14000000001,"N_COORD97":2543522.52,"ADDRESS":"西門路二段４１號","OBJECTID":613994},"geometry":{"x":167757.13999999966,"y":2543522.5200000014}},{"attributes":{"ID":614022,"DIS_CODE":0,"TOWNNAME":"中西區","LI":"保安里","LIN":"2鄰","STREET":"西門路","SECT":"二段","MAREA":" ","LANE":" ","ALLEY":" ","HOUSE_NO":"４３號","E_COORD97":167758,"N_COORD97":2543526.6400000001,"ADDRESS":"西門路二段４３號","OBJECTID":613995},"geometry":{"x":167758.00000000093,"y":2543526.6400000025}},{"attributes":{"ID":614023,"DIS_CODE":0,"TOWNNAME":"中西區","LI":"保安里","LIN":"2鄰","STREET":"西門路","SECT":"二段","MAREA":" ","LANE":" ","ALLEY":" ","HOUSE_NO":"４５號","E_COORD97":167757.66,"N_COORD97":2543530.25,"ADDRESS":"西門路二段４５號","OBJECTID":613996},"geometry":{"x":167757.66000000015,"y":2543530.25}},{"attributes":{"ID":614024,"DIS_CODE":0,"TOWNNAME":"中西區","LI":"保安里","LIN":"2鄰","STREET":"西門路","SECT":"二段","MAREA":" ","LANE":" ","ALLEY":" ","HOUSE_NO":"５５號","E_COORD97":167770.79000000001,"N_COORD97":2543550.5499999998,"ADDRESS":"西門路二段５５號","OBJECTID":613997},"geometry":{"x":167770.79000000097,"y":2543550.5500000026}},{"attributes":{"ID":614025,"DIS_CODE":0,"TOWNNAME":"中西區","LI":"保安里","LIN":"2鄰","STREET":"西門路","SECT":"二段","MAREA":" ","LANE":" ","ALLEY":" ","HOUSE_NO":"５７號","E_COORD97":167771.98000000001,"N_COORD97":2543556.5,"ADDRESS":"西門路二段５７號","OBJECTID":613998},"geometry":{"x":167771.98000000138,"y":2543556.5000000037}},{"attributes":{"ID":614026,"DIS_CODE":0,"TOWNNAME":"中西區","LI":"水仙里","LIN":"2鄰","STREET":"民生路","SECT":"二段","MAREA":" ","LANE":" ","ALLEY":" ","HOUSE_NO":"３８號","E_COORD97":167795.63,"N_COORD97":2543951.1400000001,"ADDRESS":"民生路二段３８號","OBJECTID":613999},"geometry":{"x":167795.63000000082,"y":2543951.1400000006}},{"attributes":{"ID":614027,"DIS_CODE":0,"TOWNNAME":"中西區","LI":"水仙里","LIN":"2鄰","STREET":"民生路","SECT":"二段","MAREA":" ","LANE":" ","ALLEY":" ","HOUSE_NO":"４０號","E_COORD97":167790.97,"N_COORD97":2543952.8900000001,"ADDRESS":"民生路二段４０號","OBJECTID":614000},"geometry":{"x":167790.96999999974,"y":2543952.8900000006}}]}