{"displayFieldName":"TOWNNAME","fieldAliases":{"ID":"ID","DIS_CODE":"DIS_CODE","TOWNNAME":"TOWNNAME","LI":"LI","LIN":"LIN","STREET":"STREET","SECT":"SECT","MAREA":"MAREA","LANE":"LANE","ALLEY":"ALLEY","HOUSE_NO":"HOUSE_NO","E_COORD97":"E_COORD97","N_COORD97":"N_COORD97","ADDRESS":"ADDRESS","OBJECTID":"OBJECTID"},"geometryType":"esriGeometryPoint","spatialReference":{"wkid":102443,"latestWkid":3826},"fields":[{"name":"ID","type":"esriFieldTypeDouble","alias":"ID"},{"name":"DIS_CODE","type":"esriFieldTypeInteger","alias":"DIS_CODE"},{"name":"TOWNNAME","type":"esriFieldTypeString","alias":"TOWNNAME","length":8},{"name":"LI","type":"esriFieldTypeString","alias":"LI","length":8},{"name":"LIN","type":"esriFieldTypeString","alias":"LIN","length":12},{"name":"STREET","type":"esriFieldTypeString","alias":"STREET","length":20},{"name":"SECT","type":"esriFieldTypeString","alias":"SECT","length":8},{"name":"MAREA","type":"esriFieldTypeString","alias":"MAREA","length":12},{"name":"LANE","type":"esriFieldTypeString","alias":"LANE","length":10},{"name":"ALLEY","type":"esriFieldTypeString","alias":"ALLEY","length":10},{"name":"HOUSE_NO","type":"esriFieldTypeString","alias":"HOUSE_NO","length":20},{"name":"E_COORD97","type":"esriFieldTypeDouble","alias":"E_COORD97"},{"name":"N_COORD97","type":"esriFieldTypeDouble","alias":"N_COORD97"},{"name":"ADDRESS","type":"esriFieldTypeString","alias":"ADDRESS","length":50},{"name":"OBJECTID","type":"esriFieldTypeOID","alias":"OBJECTID"}],"features":[{"attributes":{"ID":577428,"DIS_CODE":0,"TOWNNAME":"安平區","LI":"文平里","LIN":"23鄰","STREET":"建平一街","SECT":" ","MAREA":" ","LANE":" ","ALLEY":" ","HOUSE_NO":"３８號四樓之９","E_COORD97":165965.10000000001,"N_COORD97":2542755.5299999998,"ADDRESS":"建平一街３８號四樓之９","OBJECTID":577401},"geometry":{"x":165965.10000000056,"y":2542755.5300000031}},{"attributes":{"ID":577429,"DIS_CODE":0,"TOWNNAME":"南區","LI":"大恩里","LIN":"23鄰","STREET":"大同路","SECT":"二段","MAREA":" ","LANE":" ","ALLEY":" ","HOUSE_NO":"７５２號之１二樓","E_COORD97":169557.29000000001,"N_COORD97":2540605.21,"ADDRESS":"大同路二段７５２號之１二樓","OBJECTID":577402},"geometry":{"x":169557.2900000019,"y":2540605.2100000009}},{"attributes":{"ID":577430,"DIS_CODE":0,"TOWNNAME":"南區","LI":"大恩里","LIN":"23鄰","STREET":"大同路","SECT":"二段","MAREA":" ","LANE":" ","ALLEY":" ","HOUSE_NO":"７５２號之１三樓","E_COORD97":169557.29000000001,"N_COORD97":2540605.21,"ADDRESS":"大同路二段７５２號之１三樓","OBJECTID":577403},"geometry":{"x":169557.2900000019,"y":2540605.2100000009}},{"attributes":{"ID":577431,"DIS_CODE":0,"TOWNNAME":"南區","LI":"大恩里","LIN":"23鄰","STREET":"大同路","SECT":"二段","MAREA":" ","LANE":" ","ALLEY":" ","HOUSE_NO":"７５２號之１五樓","E_COORD97":169557.29000000001,"N_COORD97":2540605.21,"ADDRESS":"大同路二段７５２號之１五樓","OBJECTID":577404},"geometry":{"x":169557.2900000019,"y":2540605.2100000009}},{"attributes":{"ID":577432,"DIS_CODE":0,"TOWNNAME":"南區","LI":"大恩里","LIN":"23鄰","STREET":"大同路","SECT":"二段","MAREA":" ","LANE":" ","ALLEY":" ","HOUSE_NO":"７５２號之１四樓","E_COORD97":169557.29000000001,"N_COORD97":2540605.21,"ADDRESS":"大同路二段７５２號之１四樓","OBJECTID":577405},"geometry":{"x":169557.2900000019,"y":2540605.2100000009}},{"attributes":{"ID":577433,"DIS_CODE":0,"TOWNNAME":"新營區","LI":"民權里","LIN":"23鄰","STREET":"民治路","SECT":" ","MAREA":" ","LANE":" ","ALLEY":" ","HOUSE_NO":"４１號七樓","E_COORD97":179773.51999999999,"N_COORD97":2578834.0699999998,"ADDRESS":"民治路４１號七樓","OBJECTID":577406},"geometry":{"x":179773.51999999955,"y":2578834.0700000022}},{"attributes":{"ID":577434,"DIS_CODE":0,"TOWNNAME":"下營區","LI":"營前里","LIN":"23鄰","STREET":"忠孝街","SECT":" ","MAREA":" ","LANE":" ","ALLEY":" ","HOUSE_NO":"２９號","E_COORD97":174728.07000000001,"N_COORD97":2569807.1899999999,"ADDRESS":"忠孝街２９號","OBJECTID":577407},"geometry":{"x":174728.07000000123,"y":2569807.1900000013}},{"attributes":{"ID":577435,"DIS_CODE":0,"TOWNNAME":"新營區","LI":"民權里","LIN":"23鄰","STREET":"民治路","SECT":" ","MAREA":" ","LANE":" ","ALLEY":" ","HOUSE_NO":"４５之２號六樓","E_COORD97":179776.01999999999,"N_COORD97":2578834.1099999999,"ADDRESS":"民治路４５之２號六樓","OBJECTID":577408},"geometry":{"x":179776.02000000048,"y":2578834.1099999994}},{"attributes":{"ID":577436,"DIS_CODE":0,"TOWNNAME":"南區","LI":"明興里","LIN":"23鄰","STREET":"永春街","SECT":" ","MAREA":" ","LANE":" ","ALLEY":" ","HOUSE_NO":"３６號七樓之１","E_COORD97":167115.03,"N_COORD97":2540684.8300000001,"ADDRESS":"永春街３６號七樓之１","OBJECTID":577409},"geometry":{"x":167115.03000000119,"y":2540684.8300000001}},{"attributes":{"ID":577437,"DIS_CODE":0,"TOWNNAME":"南區","LI":"明興里","LIN":"23鄰","STREET":"永春街","SECT":" ","MAREA":" ","LANE":" ","ALLEY":" ","HOUSE_NO":"３６號七樓之２","E_COORD97":167115.03,"N_COORD97":2540684.8300000001,"ADDRESS":"永春街３６號七樓之２","OBJECTID":577410},"geometry":{"x":167115.03000000119,"y":2540684.8300000001}},{"attributes":{"ID":577438,"DIS_CODE":0,"TOWNNAME":"南區","LI":"明興里","LIN":"23鄰","STREET":"永春街","SECT":" ","MAREA":" ","LANE":" ","ALLEY":" ","HOUSE_NO":"３６號七樓之３","E_COORD97":167115.03,"N_COORD97":2540684.8300000001,"ADDRESS":"永春街３６號七樓之３","OBJECTID":577411},"geometry":{"x":167115.03000000119,"y":2540684.8300000001}},{"attributes":{"ID":577439,"DIS_CODE":0,"TOWNNAME":"南區","LI":"明興里","LIN":"23鄰","STREET":"永春街","SECT":" ","MAREA":" ","LANE":" ","ALLEY":" ","HOUSE_NO":"３６號七樓之４","E_COORD97":167115.03,"N_COORD97":2540684.8300000001,"ADDRESS":"永春街３６號七樓之４","OBJECTID":577412},"geometry":{"x":167115.03000000119,"y":2540684.8300000001}},{"attributes":{"ID":577440,"DIS_CODE":0,"TOWNNAME":"南區","LI":"明興里","LIN":"23鄰","STREET":"永春街","SECT":" ","MAREA":" ","LANE":" ","ALLEY":" ","HOUSE_NO":"３６號二樓","E_COORD97":167115.03,"N_COORD97":2540684.8300000001,"ADDRESS":"永春街３６號二樓","OBJECTID":577413},"geometry":{"x":167115.03000000119,"y":2540684.8300000001}},{"attributes":{"ID":577441,"DIS_CODE":0,"TOWNNAME":"南區","LI":"明興里","LIN":"23鄰","STREET":"永春街","SECT":" ","MAREA":" ","LANE":" ","ALLEY":" ","HOUSE_NO":"３６號八樓之１","E_COORD97":167115.03,"N_COORD97":2540684.8300000001,"ADDRESS":"永春街３６號八樓之１","OBJECTID":577414},"geometry":{"x":167115.03000000119,"y":2540684.8300000001}},{"attributes":{"ID":577442,"DIS_CODE":0,"TOWNNAME":"南區","LI":"明興里","LIN":"23鄰","STREET":"永春街","SECT":" ","MAREA":" ","LANE":" ","ALLEY":" ","HOUSE_NO":"３６號八樓之２","E_COORD97":167115.03,"N_COORD97":2540684.8300000001,"ADDRESS":"永春街３６號八樓之２","OBJECTID":577415},"geometry":{"x":167115.03000000119,"y":2540684.8300000001}},{"attributes":{"ID":577443,"DIS_CODE":0,"TOWNNAME":"南區","LI":"明興里","LIN":"23鄰","STREET":"永春街","SECT":" ","MAREA":" ","LANE":" ","ALLEY":" ","HOUSE_NO":"３６號八樓之３","E_COORD97":167115.03,"N_COORD97":2540684.8300000001,"ADDRESS":"永春街３６號八樓之３","OBJECTID":577416},"geometry":{"x":167115.03000000119,"y":2540684.8300000001}},{"attributes":{"ID":577444,"DIS_CODE":0,"TOWNNAME":"南區","LI":"明興里","LIN":"23鄰","STREET":"永春街","SECT":" ","MAREA":" ","LANE":" ","ALLEY":" ","HOUSE_NO":"３６號八樓之４","E_COORD97":167115.03,"N_COORD97":2540684.8300000001,"ADDRESS":"永春街３６號八樓之４","OBJECTID":577417},"geometry":{"x":167115.03000000119,"y":2540684.8300000001}},{"attributes":{"ID":577445,"DIS_CODE":0,"TOWNNAME":"南區","LI":"明興里","LIN":"23鄰","STREET":"永春街","SECT":" ","MAREA":" ","LANE":" ","ALLEY":" ","HOUSE_NO":"３６號八樓之５","E_COORD97":167115.03,"N_COORD97":2540684.8300000001,"ADDRESS":"永春街３６號八樓之５","OBJECTID":577418},"geometry":{"x":167115.03000000119,"y":2540684.8300000001}},{"attributes":{"ID":577446,"DIS_CODE":0,"TOWNNAME":"南區","LI":"明興里","LIN":"23鄰","STREET":"永春街","SECT":" ","MAREA":" ","LANE":" ","ALLEY":" ","HOUSE_NO":"３６號八樓之６","E_COORD97":167115.03,"N_COORD97":2540684.8300000001,"ADDRESS":"永春街３６號八樓之６","OBJECTID":577419},"geometry":{"x":167115.03000000119,"y":2540684.8300000001}},{"attributes":{"ID":577447,"DIS_CODE":0,"TOWNNAME":"南區","LI":"明興里","LIN":"23鄰","STREET":"永春街","SECT":" ","MAREA":" ","LANE":" ","ALLEY":" ","HOUSE_NO":"３６號八樓之７","E_COORD97":167115.03,"N_COORD97":2540684.8300000001,"ADDRESS":"永春街３６號八樓之７","OBJECTID":577420},"geometry":{"x":167115.03000000119,"y":2540684.8300000001}},{"attributes":{"ID":577448,"DIS_CODE":0,"TOWNNAME":"南區","LI":"明興里","LIN":"23鄰","STREET":"永春街","SECT":" ","MAREA":" ","LANE":" ","ALLEY":" ","HOUSE_NO":"３６號三樓之１","E_COORD97":167115.03,"N_COORD97":2540684.8300000001,"ADDRESS":"永春街３６號三樓之１","OBJECTID":577421},"geometry":{"x":167115.03000000119,"y":2540684.8300000001}},{"attributes":{"ID":577449,"DIS_CODE":0,"TOWNNAME":"南區","LI":"明興里","LIN":"23鄰","STREET":"永春街","SECT":" ","MAREA":" ","LANE":" ","ALLEY":" ","HOUSE_NO":"３６號三樓之２","E_COORD97":167115.03,"N_COORD97":2540684.8300000001,"ADDRESS":"永春街３６號三樓之２","OBJECTID":577422},"geometry":{"x":167115.03000000119,"y":2540684.8300000001}},{"attributes":{"ID":577450,"DIS_CODE":0,"TOWNNAME":"南區","LI":"明興里","LIN":"23鄰","STREET":"永春街","SECT":" ","MAREA":" ","LANE":" ","ALLEY":" ","HOUSE_NO":"３６號五樓之１","E_COORD97":167115.03,"N_COORD97":2540684.8300000001,"ADDRESS":"永春街３６號五樓之１","OBJECTID":577423},"geometry":{"x":167115.03000000119,"y":2540684.8300000001}},{"attributes":{"ID":577451,"DIS_CODE":0,"TOWNNAME":"南區","LI":"明興里","LIN":"23鄰","STREET":"永春街","SECT":" ","MAREA":" ","LANE":" ","ALLEY":" ","HOUSE_NO":"３６號五樓之２","E_COORD97":167115.03,"N_COORD97":2540684.8300000001,"ADDRESS":"永春街３６號五樓之２","OBJECTID":577424},"geometry":{"x":167115.03000000119,"y":2540684.8300000001}},{"attributes":{"ID":577452,"DIS_CODE":0,"TOWNNAME":"南區","LI":"明興里","LIN":"23鄰","STREET":"永春街","SECT":" ","MAREA":" ","LANE":" ","ALLEY":" ","HOUSE_NO":"３６號五樓之３","E_COORD97":167115.03,"N_COORD97":2540684.8300000001,"ADDRESS":"永春街３６號五樓之３","OBJECTID":577425},"geometry":{"x":167115.03000000119,"y":2540684.8300000001}},{"attributes":{"ID":577453,"DIS_CODE":0,"TOWNNAME":"南區","LI":"明興里","LIN":"23鄰","STREET":"永春街","SECT":" ","MAREA":" ","LANE":" ","ALLEY":" ","HOUSE_NO":"３６號五樓之４","E_COORD97":167115.03,"N_COORD97":2540684.8300000001,"ADDRESS":"永春街３６號五樓之４","OBJECTID":577426},"geometry":{"x":167115.03000000119,"y":2540684.8300000001}},{"attributes":{"ID":577454,"DIS_CODE":0,"TOWNNAME":"南區","LI":"明興里","LIN":"23鄰","STREET":"永春街","SECT":" ","MAREA":" ","LANE":" ","ALLEY":" ","HOUSE_NO":"３６號五樓之５","E_COORD97":167115.03,"N_COORD97":2540684.8300000001,"ADDRESS":"永春街３６號五樓之５","OBJECTID":577427},"geometry":{"x":167115.03000000119,"y":2540684.8300000001}},{"attributes":{"ID":577455,"DIS_CODE":0,"TOWNNAME":"南區","LI":"明興里","LIN":"23鄰","STREET":"永春街","SECT":" ","MAREA":" ","LANE":" ","ALLEY":" ","HOUSE_NO":"３６號五樓之６","E_COORD97":167115.03,"N_COORD97":2540684.8300000001,"ADDRESS":"永春街３６號五樓之６","OBJECTID":577428},"geometry":{"x":167115.03000000119,"y":2540684.8300000001}},{"attributes":{"ID":577456,"DIS_CODE":0,"TOWNNAME":"南區","LI":"明興里","LIN":"23鄰","STREET":"永春街","SECT":" ","MAREA":" ","LANE":" ","ALLEY":" ","HOUSE_NO":"３６號五樓之８","E_COORD97":167115.03,"N_COORD97":2540684.8300000001,"ADDRESS":"永春街３６號五樓之８","OBJECTID":577429},"geometry":{"x":167115.03000000119,"y":2540684.8300000001}},{"attributes":{"ID":577457,"DIS_CODE":0,"TOWNNAME":"南區","LI":"明興里","LIN":"23鄰","STREET":"永春街","SECT":" ","MAREA":" ","LANE":" ","ALLEY":" ","HOUSE_NO":"３６號六樓之１","E_COORD97":167115.03,"N_COORD97":2540684.8300000001,"ADDRESS":"永春街３６號六樓之１","OBJECTID":577430},"geometry":{"x":167115.03000000119,"y":2540684.8300000001}},{"attributes":{"ID":577458,"DIS_CODE":0,"TOWNNAME":"南區","LI":"明興里","LIN":"23鄰","STREET":"永春街","SECT":" ","MAREA":" ","LANE":" ","ALLEY":" ","HOUSE_NO":"３６號六樓之２","E_COORD97":167115.03,"N_COORD97":2540684.8300000001,"ADDRESS":"永春街３６號六樓之２","OBJECTID":577431},"geometry":{"x":167115.03000000119,"y":2540684.8300000001}},{"attributes":{"ID":577459,"DIS_CODE":0,"TOWNNAME":"南區","LI":"明興里","LIN":"23鄰","STREET":"永春街","SECT":" ","MAREA":" ","LANE":" ","ALLEY":" ","HOUSE_NO":"３６號四樓之１","E_COORD97":167115.03,"N_COORD97":2540684.8300000001,"ADDRESS":"永春街３６號四樓之１","OBJECTID":577432},"geometry":{"x":167115.03000000119,"y":2540684.8300000001}},{"attributes":{"ID":577460,"DIS_CODE":0,"TOWNNAME":"南區","LI":"明興里","LIN":"23鄰","STREET":"永春街","SECT":" ","MAREA":" ","LANE":" ","ALLEY":" ","HOUSE_NO":"３６號四樓之２","E_COORD97":167115.03,"N_COORD97":2540684.8300000001,"ADDRESS":"永春街３６號四樓之２","OBJECTID":577433},"geometry":{"x":167115.03000000119,"y":2540684.8300000001}},{"attributes":{"ID":577461,"DIS_CODE":0,"TOWNNAME":"南區","LI":"明興里","LIN":"23鄰","STREET":"永春街","SECT":" ","MAREA":" ","LANE":" ","ALLEY":" ","HOUSE_NO":"３６號四樓之３","E_COORD97":167115.03,"N_COORD97":2540684.8300000001,"ADDRESS":"永春街３６號四樓之３","OBJECTID":577434},"geometry":{"x":167115.03000000119,"y":2540684.8300000001}},{"attributes":{"ID":577462,"DIS_CODE":0,"TOWNNAME":"南區","LI":"明興里","LIN":"23鄰","STREET":"永春街","SECT":" ","MAREA":" ","LANE":" ","ALLEY":" ","HOUSE_NO":"３６號四樓之４","E_COORD97":167115.03,"N_COORD97":2540684.8300000001,"ADDRESS":"永春街３６號四樓之４","OBJECTID":577435},"geometry":{"x":167115.03000000119,"y":2540684.8300000001}},{"attributes":{"ID":577463,"DIS_CODE":0,"TOWNNAME":"南區","LI":"明興里","LIN":"23鄰","STREET":"永春街","SECT":" ","MAREA":" ","LANE":" ","ALLEY":" ","HOUSE_NO":"３６號四樓之５","E_COORD97":167115.03,"N_COORD97":2540684.8300000001,"ADDRESS":"永春街３６號四樓之５","OBJECTID":577436},"geometry":{"x":167115.03000000119,"y":2540684.8300000001}},{"attributes":{"ID":577464,"DIS_CODE":0,"TOWNNAME":"南區","LI":"明興里","LIN":"23鄰","STREET":"永春街","SECT":" ","MAREA":" ","LANE":" ","ALLEY":" ","HOUSE_NO":"３６號四樓之６","E_COORD97":167115.03,"N_COORD97":2540684.8300000001,"ADDRESS":"永春街３６號四樓之６","OBJECTID":577437},"geometry":{"x":167115.03000000119,"y":2540684.8300000001}},{"attributes":{"ID":577465,"DIS_CODE":0,"TOWNNAME":"南區","LI":"明興里","LIN":"23鄰","STREET":"永春街","SECT":" ","MAREA":" ","LANE":" ","ALLEY":" ","HOUSE_NO":"３６號四樓之７","E_COORD97":167115.03,"N_COORD97":2540684.8300000001,"ADDRESS":"永春街３６號四樓之７","OBJECTID":577438},"geometry":{"x":167115.03000000119,"y":2540684.8300000001}},{"attributes":{"ID":577466,"DIS_CODE":0,"TOWNNAME":"南區","LI":"明興里","LIN":"23鄰","STREET":"永春街","SECT":" ","MAREA":" ","LANE":" ","ALLEY":" ","HOUSE_NO":"３６號四樓之８","E_COORD97":167115.03,"N_COORD97":2540684.8300000001,"ADDRESS":"永春街３６號四樓之８","OBJECTID":577439},"geometry":{"x":167115.03000000119,"y":2540684.8300000001}},{"attributes":{"ID":577467,"DIS_CODE":0,"TOWNNAME":"歸仁區","LI":"辜厝里","LIN":"23鄰","STREET":"大順街","SECT":" ","MAREA":" ","LANE":" ","ALLEY":" ","HOUSE_NO":"３９號五樓之２","E_COORD97":177415.23000000001,"N_COORD97":2540581.1600000001,"ADDRESS":"大順街３９號五樓之２","OBJECTID":577440},"geometry":{"x":177415.23000000045,"y":2540581.1600000001}},{"attributes":{"ID":577468,"DIS_CODE":0,"TOWNNAME":"歸仁區","LI":"辜厝里","LIN":"23鄰","STREET":"大順街","SECT":" ","MAREA":" ","LANE":" ","ALLEY":" ","HOUSE_NO":"３９號七樓之２","E_COORD97":177415.23000000001,"N_COORD97":2540581.1600000001,"ADDRESS":"大順街３９號七樓之２","OBJECTID":577441},"geometry":{"x":177415.23000000045,"y":2540581.1600000001}},{"attributes":{"ID":577469,"DIS_CODE":0,"TOWNNAME":"歸仁區","LI":"辜厝里","LIN":"23鄰","STREET":"大順街","SECT":" ","MAREA":" ","LANE":" ","ALLEY":" ","HOUSE_NO":"３９號七樓之１","E_COORD97":177415.20999999999,"N_COORD97":2540581.1600000001,"ADDRESS":"大順街３９號七樓之１","OBJECTID":577442},"geometry":{"x":177415.21000000089,"y":2540581.1600000001}},{"attributes":{"ID":577470,"DIS_CODE":0,"TOWNNAME":"歸仁區","LI":"南保里","LIN":"23鄰","STREET":"民權六街","SECT":" ","MAREA":" ","LANE":" ","ALLEY":" ","HOUSE_NO":"６０號二樓之２","E_COORD97":176828.47,"N_COORD97":2541118.2599999998,"ADDRESS":"民權六街６０號二樓之２","OBJECTID":577443},"geometry":{"x":176828.47000000067,"y":2541118.2600000016}},{"attributes":{"ID":577471,"DIS_CODE":0,"TOWNNAME":"歸仁區","LI":"南保里","LIN":"23鄰","STREET":"民權六街","SECT":" ","MAREA":" ","LANE":" ","ALLEY":" ","HOUSE_NO":"６０號三樓之１２","E_COORD97":176828.72,"N_COORD97":2541118.2599999998,"ADDRESS":"民權六街６０號三樓之１２","OBJECTID":577444},"geometry":{"x":176828.72000000067,"y":2541118.2600000016}},{"attributes":{"ID":577472,"DIS_CODE":0,"TOWNNAME":"歸仁區","LI":"南保里","LIN":"23鄰","STREET":"民權六街","SECT":" ","MAREA":" ","LANE":" ","ALLEY":" ","HOUSE_NO":"６０號四樓之２","E_COORD97":176828.47,"N_COORD97":2541118.2599999998,"ADDRESS":"民權六街６０號四樓之２","OBJECTID":577445},"geometry":{"x":176828.47000000067,"y":2541118.2600000016}},{"attributes":{"ID":577473,"DIS_CODE":0,"TOWNNAME":"歸仁區","LI":"南保里","LIN":"23鄰","STREET":"民權六街","SECT":" ","MAREA":" ","LANE":" ","ALLEY":" ","HOUSE_NO":"６０號三樓之７","E_COORD97":176828.45999999999,"N_COORD97":2541118.2599999998,"ADDRESS":"民權六街６０號三樓之７","OBJECTID":577446},"geometry":{"x":176828.46000000183,"y":2541118.2600000016}},{"attributes":{"ID":577474,"DIS_CODE":0,"TOWNNAME":"歸仁區","LI":"南保里","LIN":"23鄰","STREET":"民權六街","SECT":" ","MAREA":" ","LANE":" ","ALLEY":" ","HOUSE_NO":"６０號二樓之１２","E_COORD97":176828.72,"N_COORD97":2541118.2599999998,"ADDRESS":"民權六街６０號二樓之１２","OBJECTID":577447},"geometry":{"x":176828.72000000067,"y":2541118.2600000016}},{"attributes":{"ID":577475,"DIS_CODE":0,"TOWNNAME":"歸仁區","LI":"南保里","LIN":"23鄰","STREET":"民權六街","SECT":" ","MAREA":" ","LANE":" ","ALLEY":" ","HOUSE_NO":"６０號三樓之４","E_COORD97":176828.45000000001,"N_COORD97":2541118.2599999998,"ADDRESS":"民權六街６０號三樓之４","OBJECTID":577448},"geometry":{"x":176828.45000000019,"y":2541118.2600000016}},{"attributes":{"ID":577476,"DIS_CODE":0,"TOWNNAME":"歸仁區","LI":"南保里","LIN":"23鄰","STREET":"民權六街","SECT":" ","MAREA":" ","LANE":" ","ALLEY":" ","HOUSE_NO":"６０號四樓之７","E_COORD97":176839.10000000001,"N_COORD97":2541119.2999999998,"ADDRESS":"民權六街６０號四樓之７","OBJECTID":577449},"geometry":{"x":176839.10000000149,"y":2541119.3000000007}},{"attributes":{"ID":577477,"DIS_CODE":0,"TOWNNAME":"歸仁區","LI":"南保里","LIN":"23鄰","STREET":"民權六街","SECT":" ","MAREA":" ","LANE":" ","ALLEY":" ","HOUSE_NO":"６０號四樓之１０","E_COORD97":176840.32999999999,"N_COORD97":2541119.2999999998,"ADDRESS":"民權六街６０號四樓之１０","OBJECTID":577450},"geometry":{"x":176840.33000000101,"y":2541119.3000000007}},{"attributes":{"ID":577478,"DIS_CODE":0,"TOWNNAME":"歸仁區","LI":"南保里","LIN":"23鄰","STREET":"民權六街","SECT":" ","MAREA":" ","LANE":" ","ALLEY":" ","HOUSE_NO":"６０號六樓之１０","E_COORD97":176840.32999999999,"N_COORD97":2541119.2999999998,"ADDRESS":"民權六街６０號六樓之１０","OBJECTID":577451},"geometry":{"x":176840.33000000101,"y":2541119.3000000007}},{"attributes":{"ID":577479,"DIS_CODE":0,"TOWNNAME":"歸仁區","LI":"南保里","LIN":"23鄰","STREET":"民權六街","SECT":" ","MAREA":" ","LANE":" ","ALLEY":" ","HOUSE_NO":"６０號四樓之８","E_COORD97":176839.17000000001,"N_COORD97":2541119.2999999998,"ADDRESS":"民權六街６０號四樓之８","OBJECTID":577452},"geometry":{"x":176839.17000000086,"y":2541119.3000000007}},{"attributes":{"ID":577480,"DIS_CODE":0,"TOWNNAME":"歸仁區","LI":"文化里","LIN":"23鄰","STREET":"大德路","SECT":" ","MAREA":" ","LANE":" ","ALLEY":" ","HOUSE_NO":"２５３號四樓之７","E_COORD97":177107.91,"N_COORD97":2541521.3399999999,"ADDRESS":"大德路２５３號四樓之７","OBJECTID":577453},"geometry":{"x":177107.91000000015,"y":2541521.3400000017}},{"attributes":{"ID":577481,"DIS_CODE":0,"TOWNNAME":"歸仁區","LI":"文化里","LIN":"23鄰","STREET":"大德路","SECT":" ","MAREA":" ","LANE":" ","ALLEY":" ","HOUSE_NO":"２５３號五樓之２","E_COORD97":177107.92000000001,"N_COORD97":2541521.3399999999,"ADDRESS":"大德路２５３號五樓之２","OBJECTID":577454},"geometry":{"x":177107.91999999993,"y":2541521.3400000017}},{"attributes":{"ID":577482,"DIS_CODE":0,"TOWNNAME":"歸仁區","LI":"文化里","LIN":"23鄰","STREET":"大德路","SECT":" ","MAREA":" ","LANE":" ","ALLEY":" ","HOUSE_NO":"２５３號四樓之３","E_COORD97":177107.92000000001,"N_COORD97":2541521.3399999999,"ADDRESS":"大德路２５３號四樓之３","OBJECTID":577455},"geometry":{"x":177107.91999999993,"y":2541521.3400000017}},{"attributes":{"ID":577483,"DIS_CODE":0,"TOWNNAME":"歸仁區","LI":"文化里","LIN":"23鄰","STREET":"大德路","SECT":" ","MAREA":" ","LANE":" ","ALLEY":" ","HOUSE_NO":"２５３號四樓之６","E_COORD97":177107.92000000001,"N_COORD97":2541521.3399999999,"ADDRESS":"大德路２５３號四樓之６","OBJECTID":577456},"geometry":{"x":177107.91999999993,"y":2541521.3400000017}},{"attributes":{"ID":577484,"DIS_CODE":0,"TOWNNAME":"歸仁區","LI":"文化里","LIN":"23鄰","STREET":"大德路","SECT":" ","MAREA":" ","LANE":" ","ALLEY":" ","HOUSE_NO":"２５３號四樓之２","E_COORD97":177107.92000000001,"N_COORD97":2541521.3399999999,"ADDRESS":"大德路２５３號四樓之２","OBJECTID":577457},"geometry":{"x":177107.91999999993,"y":2541521.3400000017}},{"attributes":{"ID":577485,"DIS_CODE":0,"TOWNNAME":"歸仁區","LI":"文化里","LIN":"23鄰","STREET":"大德路","SECT":" ","MAREA":" ","LANE":" ","ALLEY":" ","HOUSE_NO":"２５３號六樓之３","E_COORD97":177107.92000000001,"N_COORD97":2541521.3399999999,"ADDRESS":"大德路２５３號六樓之３","OBJECTID":577458},"geometry":{"x":177107.91999999993,"y":2541521.3400000017}},{"attributes":{"ID":577486,"DIS_CODE":0,"TOWNNAME":"歸仁區","LI":"文化里","LIN":"23鄰","STREET":"大德路","SECT":" ","MAREA":" ","LANE":" ","ALLEY":" ","HOUSE_NO":"２５３號五樓之１","E_COORD97":177107.89999999999,"N_COORD97":2541521.3399999999,"ADDRESS":"大德路２５３號五樓之１","OBJECTID":577459},"geometry":{"x":177107.9000000013,"y":2541521.3400000017}},{"attributes":{"ID":577487,"DIS_CODE":0,"TOWNNAME":"歸仁區","LI":"南保里","LIN":"23鄰","STREET":"民權六街","SECT":" ","MAREA":" ","LANE":" ","ALLEY":" ","HOUSE_NO":"６０號四樓之１１","E_COORD97":176840.26999999999,"N_COORD97":2541119.2999999998,"ADDRESS":"民權六街６０號四樓之１１","OBJECTID":577460},"geometry":{"x":176840.27000000048,"y":2541119.3000000007}},{"attributes":{"ID":577488,"DIS_CODE":0,"TOWNNAME":"歸仁區","LI":"文化里","LIN":"23鄰","STREET":"大德路","SECT":" ","MAREA":" ","LANE":" ","ALLEY":" ","HOUSE_NO":"２５３號三樓之３","E_COORD97":177107.92000000001,"N_COORD97":2541521.3399999999,"ADDRESS":"大德路２５３號三樓之３","OBJECTID":577461},"geometry":{"x":177107.91999999993,"y":2541521.3400000017}},{"attributes":{"ID":577489,"DIS_CODE":0,"TOWNNAME":"歸仁區","LI":"文化里","LIN":"23鄰","STREET":"大德路","SECT":" ","MAREA":" ","LANE":" ","ALLEY":" ","HOUSE_NO":"２５３號五樓之６","E_COORD97":177107.92000000001,"N_COORD97":2541521.3399999999,"ADDRESS":"大德路２５３號五樓之６","OBJECTID":577462},"geometry":{"x":177107.91999999993,"y":2541521.3400000017}},{"attributes":{"ID":577490,"DIS_CODE":0,"TOWNNAME":"歸仁區","LI":"文化里","LIN":"23鄰","STREET":"大德路","SECT":" ","MAREA":" ","LANE":" ","ALLEY":" ","HOUSE_NO":"２５３號六樓之２","E_COORD97":177107.92000000001,"N_COORD97":2541521.3399999999,"ADDRESS":"大德路２５３號六樓之２","OBJECTID":577463},"geometry":{"x":177107.91999999993,"y":2541521.3400000017}},{"attributes":{"ID":577491,"DIS_CODE":0,"TOWNNAME":"下營區","LI":"營前里","LIN":"23鄰","STREET":"忠孝街","SECT":" ","MAREA":" ","LANE":" ","ALLEY":" ","HOUSE_NO":"４０號","E_COORD97":174702.56,"N_COORD97":2569812.7599999998,"ADDRESS":"忠孝街４０號","OBJECTID":577464},"geometry":{"x":174702.55999999959,"y":2569812.7600000035}},{"attributes":{"ID":577492,"DIS_CODE":0,"TOWNNAME":"歸仁區","LI":"文化里","LIN":"23鄰","STREET":"大德路","SECT":" ","MAREA":" ","LANE":" ","ALLEY":" ","HOUSE_NO":"２５３號五樓之８","E_COORD97":177107.92999999999,"N_COORD97":2541521.3399999999,"ADDRESS":"大德路２５３號五樓之８","OBJECTID":577465},"geometry":{"x":177107.9299999997,"y":2541521.3400000017}},{"attributes":{"ID":577493,"DIS_CODE":0,"TOWNNAME":"歸仁區","LI":"文化里","LIN":"23鄰","STREET":"大德路","SECT":" ","MAREA":" ","LANE":" ","ALLEY":" ","HOUSE_NO":"２５３號五樓之７","E_COORD97":177107.91,"N_COORD97":2541521.3399999999,"ADDRESS":"大德路２５３號五樓之７","OBJECTID":577466},"geometry":{"x":177107.91000000015,"y":2541521.3400000017}},{"attributes":{"ID":577494,"DIS_CODE":0,"TOWNNAME":"歸仁區","LI":"文化里","LIN":"23鄰","STREET":"大德路","SECT":" ","MAREA":" ","LANE":" ","ALLEY":" ","HOUSE_NO":"２５３號五樓之３","E_COORD97":177107.92000000001,"N_COORD97":2541521.3399999999,"ADDRESS":"大德路２５３號五樓之３","OBJECTID":577467},"geometry":{"x":177107.91999999993,"y":2541521.3400000017}},{"attributes":{"ID":577495,"DIS_CODE":0,"TOWNNAME":"歸仁區","LI":"南保里","LIN":"23鄰","STREET":"民權六街","SECT":" ","MAREA":" ","LANE":" ","ALLEY":" ","HOUSE_NO":"６０號二樓之１０","E_COORD97":176840.32999999999,"N_COORD97":2541119.2999999998,"ADDRESS":"民權六街６０號二樓之１０","OBJECTID":577468},"geometry":{"x":176840.33000000101,"y":2541119.3000000007}},{"attributes":{"ID":577496,"DIS_CODE":0,"TOWNNAME":"新營區","LI":"民權里","LIN":"23鄰","STREET":"民治路","SECT":" ","MAREA":" ","LANE":" ","ALLEY":" ","HOUSE_NO":"４５號五樓","E_COORD97":179773.51999999999,"N_COORD97":2578834.0699999998,"ADDRESS":"民治路４５號五樓","OBJECTID":577469},"geometry":{"x":179773.51999999955,"y":2578834.0700000022}},{"attributes":{"ID":577497,"DIS_CODE":0,"TOWNNAME":"歸仁區","LI":"文化里","LIN":"23鄰","STREET":"大德路","SECT":" ","MAREA":" ","LANE":" ","ALLEY":" ","HOUSE_NO":"２５３號六樓之５","E_COORD97":177107.92999999999,"N_COORD97":2541521.3399999999,"ADDRESS":"大德路２５３號六樓之５","OBJECTID":577470},"geometry":{"x":177107.9299999997,"y":2541521.3400000017}},{"attributes":{"ID":577498,"DIS_CODE":0,"TOWNNAME":"歸仁區","LI":"文化里","LIN":"23鄰","STREET":"大德路","SECT":" ","MAREA":" ","LANE":" ","ALLEY":" ","HOUSE_NO":"２５３號六樓之８","E_COORD97":177107.92999999999,"N_COORD97":2541521.3399999999,"ADDRESS":"大德路２５３號六樓之８","OBJECTID":577471},"geometry":{"x":177107.9299999997,"y":2541521.3400000017}},{"attributes":{"ID":577499,"DIS_CODE":0,"TOWNNAME":"歸仁區","LI":"文化里","LIN":"23鄰","STREET":"大德路","SECT":" ","MAREA":" ","LANE":" ","ALLEY":" ","HOUSE_NO":"２５３號六樓之１","E_COORD97":177107.89999999999,"N_COORD97":2541521.3399999999,"ADDRESS":"大德路２５３號六樓之１","OBJECTID":577472},"geometry":{"x":177107.9000000013,"y":2541521.3400000017}},{"attributes":{"ID":577500,"DIS_CODE":0,"TOWNNAME":"南區","LI":"金華里","LIN":"23鄰","STREET":"健康路","SECT":"二段","MAREA":" ","LANE":" ","ALLEY":" ","HOUSE_NO":"３４３號二樓","E_COORD97":166750.78,"N_COORD97":2542485.8599999999,"ADDRESS":"健康路二段３４３號二樓","OBJECTID":577473},"geometry":{"x":166750.78000000119,"y":2542485.8600000013}},{"attributes":{"ID":577501,"DIS_CODE":0,"TOWNNAME":"新營區","LI":"民權里","LIN":"23鄰","STREET":"民治路","SECT":" ","MAREA":" ","LANE":" ","ALLEY":" ","HOUSE_NO":"４５之２號七樓","E_COORD97":179776.01999999999,"N_COORD97":2578834.1099999999,"ADDRESS":"民治路４５之２號七樓","OBJECTID":577474},"geometry":{"x":179776.02000000048,"y":2578834.1099999994}},{"attributes":{"ID":577502,"DIS_CODE":0,"TOWNNAME":"歸仁區","LI":"南保里","LIN":"23鄰","STREET":"民權六街","SECT":" ","MAREA":" ","LANE":" ","ALLEY":" ","HOUSE_NO":"６０號五樓之３","E_COORD97":176839.12,"N_COORD97":2541119.2999999998,"ADDRESS":"民權六街６０號五樓之３","OBJECTID":577475},"geometry":{"x":176839.12000000011,"y":2541119.3000000007}},{"attributes":{"ID":577503,"DIS_CODE":0,"TOWNNAME":"歸仁區","LI":"南保里","LIN":"23鄰","STREET":"民權六街","SECT":" ","MAREA":" ","LANE":" ","ALLEY":" ","HOUSE_NO":"６０號六樓之９","E_COORD97":176839.10999999999,"N_COORD97":2541119.2999999998,"ADDRESS":"民權六街６０號六樓之９","OBJECTID":577476},"geometry":{"x":176839.11000000034,"y":2541119.3000000007}},{"attributes":{"ID":577504,"DIS_CODE":0,"TOWNNAME":"歸仁區","LI":"南保里","LIN":"23鄰","STREET":"民權六街","SECT":" ","MAREA":" ","LANE":" ","ALLEY":" ","HOUSE_NO":"６０號五樓之１１","E_COORD97":176840.26999999999,"N_COORD97":2541119.2999999998,"ADDRESS":"民權六街６０號五樓之１１","OBJECTID":577477},"geometry":{"x":176840.27000000048,"y":2541119.3000000007}},{"attributes":{"ID":577505,"DIS_CODE":0,"TOWNNAME":"歸仁區","LI":"南保里","LIN":"23鄰","STREET":"民權六街","SECT":" ","MAREA":" ","LANE":" ","ALLEY":" ","HOUSE_NO":"６０號三樓之８","E_COORD97":176839.17000000001,"N_COORD97":2541119.2999999998,"ADDRESS":"民權六街６０號三樓之８","OBJECTID":577478},"geometry":{"x":176839.17000000086,"y":2541119.3000000007}},{"attributes":{"ID":577506,"DIS_CODE":0,"TOWNNAME":"歸仁區","LI":"南保里","LIN":"23鄰","STREET":"民權六街","SECT":" ","MAREA":" ","LANE":" ","ALLEY":" ","HOUSE_NO":"６０號四樓之９","E_COORD97":176839.10999999999,"N_COORD97":2541119.2999999998,"ADDRESS":"民權六街６０號四樓之９","OBJECTID":577479},"geometry":{"x":176839.11000000034,"y":2541119.3000000007}},{"attributes":{"ID":577507,"DIS_CODE":0,"TOWNNAME":"歸仁區","LI":"南保里","LIN":"23鄰","STREET":"民權六街","SECT":" ","MAREA":" ","LANE":" ","ALLEY":" ","HOUSE_NO":"６０號五樓之９","E_COORD97":176839.10999999999,"N_COORD97":2541119.2999999998,"ADDRESS":"民權六街６０號五樓之９","OBJECTID":577480},"geometry":{"x":176839.11000000034,"y":2541119.3000000007}},{"attributes":{"ID":577508,"DIS_CODE":0,"TOWNNAME":"歸仁區","LI":"南保里","LIN":"23鄰","STREET":"民權六街","SECT":" ","MAREA":" ","LANE":" ","ALLEY":" ","HOUSE_NO":"６０號五樓之８","E_COORD97":176839.17000000001,"N_COORD97":2541119.2999999998,"ADDRESS":"民權六街６０號五樓之８","OBJECTID":577481},"geometry":{"x":176839.17000000086,"y":2541119.3000000007}},{"attributes":{"ID":577509,"DIS_CODE":0,"TOWNNAME":"歸仁區","LI":"南保里","LIN":"23鄰","STREET":"民權六街","SECT":" ","MAREA":" ","LANE":" ","ALLEY":" ","HOUSE_NO":"６０號六樓之１","E_COORD97":176839.01999999999,"N_COORD97":2541119.2999999998,"ADDRESS":"民權六街６０號六樓之１","OBJECTID":577482},"geometry":{"x":176839.01999999955,"y":2541119.3000000007}},{"attributes":{"ID":577510,"DIS_CODE":0,"TOWNNAME":"歸仁區","LI":"南保里","LIN":"23鄰","STREET":"民權六街","SECT":" ","MAREA":" ","LANE":" ","ALLEY":" ","HOUSE_NO":"６０號四樓之６","E_COORD97":176839.13,"N_COORD97":2541119.2999999998,"ADDRESS":"民權六街６０號四樓之６","OBJECTID":577483},"geometry":{"x":176839.13000000175,"y":2541119.3000000007}},{"attributes":{"ID":577511,"DIS_CODE":0,"TOWNNAME":"歸仁區","LI":"南保里","LIN":"23鄰","STREET":"民權六街","SECT":" ","MAREA":" ","LANE":" ","ALLEY":" ","HOUSE_NO":"６０號二樓之９","E_COORD97":176839.10999999999,"N_COORD97":2541119.2999999998,"ADDRESS":"民權六街６０號二樓之９","OBJECTID":577484},"geometry":{"x":176839.11000000034,"y":2541119.3000000007}},{"attributes":{"ID":577512,"DIS_CODE":0,"TOWNNAME":"歸仁區","LI":"南保里","LIN":"23鄰","STREET":"民權六街","SECT":" ","MAREA":" ","LANE":" ","ALLEY":" ","HOUSE_NO":"６０號三樓之５","E_COORD97":176839.17999999999,"N_COORD97":2541119.2999999998,"ADDRESS":"民權六街６０號三樓之５","OBJECTID":577485},"geometry":{"x":176839.18000000063,"y":2541119.3000000007}},{"attributes":{"ID":577513,"DIS_CODE":0,"TOWNNAME":"歸仁區","LI":"辜厝里","LIN":"23鄰","STREET":"大順街","SECT":" ","MAREA":" ","LANE":" ","ALLEY":" ","HOUSE_NO":"３９號三樓之２","E_COORD97":177415.23000000001,"N_COORD97":2540581.1600000001,"ADDRESS":"大順街３９號三樓之２","OBJECTID":577486},"geometry":{"x":177415.23000000045,"y":2540581.1600000001}},{"attributes":{"ID":577514,"DIS_CODE":0,"TOWNNAME":"歸仁區","LI":"南保里","LIN":"23鄰","STREET":"民權六街","SECT":" ","MAREA":" ","LANE":" ","ALLEY":" ","HOUSE_NO":"６０號六樓之６","E_COORD97":176839.13,"N_COORD97":2541119.2999999998,"ADDRESS":"民權六街６０號六樓之６","OBJECTID":577487},"geometry":{"x":176839.13000000175,"y":2541119.3000000007}},{"attributes":{"ID":577515,"DIS_CODE":0,"TOWNNAME":"歸仁區","LI":"南保里","LIN":"23鄰","STREET":"民權六街","SECT":" ","MAREA":" ","LANE":" ","ALLEY":" ","HOUSE_NO":"６０號三樓之６","E_COORD97":176839.13,"N_COORD97":2541119.2999999998,"ADDRESS":"民權六街６０號三樓之６","OBJECTID":577488},"geometry":{"x":176839.13000000175,"y":2541119.3000000007}},{"attributes":{"ID":577516,"DIS_CODE":0,"TOWNNAME":"歸仁區","LI":"南保里","LIN":"23鄰","STREET":"民權六街","SECT":" ","MAREA":" ","LANE":" ","ALLEY":" ","HOUSE_NO":"６０號五樓之４","E_COORD97":176839.04999999999,"N_COORD97":2541119.2999999998,"ADDRESS":"民權六街６０號五樓之４","OBJECTID":577489},"geometry":{"x":176839.04999999981,"y":2541119.3000000007}},{"attributes":{"ID":577517,"DIS_CODE":0,"TOWNNAME":"歸仁區","LI":"南保里","LIN":"23鄰","STREET":"民權六街","SECT":" ","MAREA":" ","LANE":" ","ALLEY":" ","HOUSE_NO":"６０號二樓之５","E_COORD97":176839.17999999999,"N_COORD97":2541119.2999999998,"ADDRESS":"民權六街６０號二樓之５","OBJECTID":577490},"geometry":{"x":176839.18000000063,"y":2541119.3000000007}},{"attributes":{"ID":577518,"DIS_CODE":0,"TOWNNAME":"歸仁區","LI":"南保里","LIN":"23鄰","STREET":"民權六街","SECT":" ","MAREA":" ","LANE":" ","ALLEY":" ","HOUSE_NO":"６０號三樓之１","E_COORD97":176839.01999999999,"N_COORD97":2541119.2999999998,"ADDRESS":"民權六街６０號三樓之１","OBJECTID":577491},"geometry":{"x":176839.01999999955,"y":2541119.3000000007}},{"attributes":{"ID":577519,"DIS_CODE":0,"TOWNNAME":"歸仁區","LI":"南保里","LIN":"23鄰","STREET":"民權六街","SECT":" ","MAREA":" ","LANE":" ","ALLEY":" ","HOUSE_NO":"６０號二樓之８","E_COORD97":176839.17000000001,"N_COORD97":2541119.2999999998,"ADDRESS":"民權六街６０號二樓之８","OBJECTID":577492},"geometry":{"x":176839.17000000086,"y":2541119.3000000007}},{"attributes":{"ID":577520,"DIS_CODE":0,"TOWNNAME":"歸仁區","LI":"南保里","LIN":"23鄰","STREET":"民權六街","SECT":" ","MAREA":" ","LANE":" ","ALLEY":" ","HOUSE_NO":"６０號二樓之６","E_COORD97":176839.13,"N_COORD97":2541119.2999999998,"ADDRESS":"民權六街６０號二樓之６","OBJECTID":577493},"geometry":{"x":176839.13000000175,"y":2541119.3000000007}},{"attributes":{"ID":577521,"DIS_CODE":0,"TOWNNAME":"歸仁區","LI":"南保里","LIN":"23鄰","STREET":"民權六街","SECT":" ","MAREA":" ","LANE":" ","ALLEY":" ","HOUSE_NO":"６０號二樓之１１","E_COORD97":176840.26999999999,"N_COORD97":2541119.2999999998,"ADDRESS":"民權六街６０號二樓之１１","OBJECTID":577494},"geometry":{"x":176840.27000000048,"y":2541119.3000000007}},{"attributes":{"ID":577522,"DIS_CODE":0,"TOWNNAME":"歸仁區","LI":"南保里","LIN":"23鄰","STREET":"民權六街","SECT":" ","MAREA":" ","LANE":" ","ALLEY":" ","HOUSE_NO":"６０號六樓之８","E_COORD97":176839.17000000001,"N_COORD97":2541119.2999999998,"ADDRESS":"民權六街６０號六樓之８","OBJECTID":577495},"geometry":{"x":176839.17000000086,"y":2541119.3000000007}},{"attributes":{"ID":577523,"DIS_CODE":0,"TOWNNAME":"歸仁區","LI":"南保里","LIN":"23鄰","STREET":"民權六街","SECT":" ","MAREA":" ","LANE":" ","ALLEY":" ","HOUSE_NO":"６０號三樓之１１","E_COORD97":176840.26999999999,"N_COORD97":2541119.2999999998,"ADDRESS":"民權六街６０號三樓之１１","OBJECTID":577496},"geometry":{"x":176840.27000000048,"y":2541119.3000000007}},{"attributes":{"ID":577524,"DIS_CODE":0,"TOWNNAME":"歸仁區","LI":"南保里","LIN":"23鄰","STREET":"民權六街","SECT":" ","MAREA":" ","LANE":" ","ALLEY":" ","HOUSE_NO":"６０號四樓之３","E_COORD97":176839.12,"N_COORD97":2541119.2999999998,"ADDRESS":"民權六街６０號四樓之３","OBJECTID":577497},"geometry":{"x":176839.12000000011,"y":2541119.3000000007}},{"attributes":{"ID":577525,"DIS_CODE":0,"TOWNNAME":"歸仁區","LI":"南保里","LIN":"23鄰","STREET":"民權六街","SECT":" ","MAREA":" ","LANE":" ","ALLEY":" ","HOUSE_NO":"６０號六樓之７","E_COORD97":176839.10000000001,"N_COORD97":2541119.2999999998,"ADDRESS":"民權六街６０號六樓之７","OBJECTID":577498},"geometry":{"x":176839.10000000149,"y":2541119.3000000007}},{"attributes":{"ID":577526,"DIS_CODE":0,"TOWNNAME":"歸仁區","LI":"南保里","LIN":"23鄰","STREET":"民權六街","SECT":" ","MAREA":" ","LANE":" ","ALLEY":" ","HOUSE_NO":"６０號二樓之３","E_COORD97":176839.12,"N_COORD97":2541119.2999999998,"ADDRESS":"民權六街６０號二樓之３","OBJECTID":577499},"geometry":{"x":176839.12000000011,"y":2541119.3000000007}},{"attributes":{"ID":577527,"DIS_CODE":0,"TOWNNAME":"歸仁區","LI":"南保里","LIN":"23鄰","STREET":"民權六街","SECT":" ","MAREA":" ","LANE":" ","ALLEY":" ","HOUSE_NO":"６０號六樓之２","E_COORD97":176839.16,"N_COORD97":2541119.2999999998,"ADDRESS":"民權六街６０號六樓之２","OBJECTID":577500},"geometry":{"x":176839.16000000201,"y":2541119.3000000007}},{"attributes":{"ID":577528,"DIS_CODE":0,"TOWNNAME":"歸仁區","LI":"南保里","LIN":"23鄰","STREET":"民權六街","SECT":" ","MAREA":" ","LANE":" ","ALLEY":" ","HOUSE_NO":"６０號二樓之１","E_COORD97":176839.01999999999,"N_COORD97":2541119.2999999998,"ADDRESS":"民權六街６０號二樓之１","OBJECTID":577501},"geometry":{"x":176839.01999999955,"y":2541119.3000000007}},{"attributes":{"ID":577529,"DIS_CODE":0,"TOWNNAME":"歸仁區","LI":"文化里","LIN":"23鄰","STREET":"大德路","SECT":" ","MAREA":" ","LANE":" ","ALLEY":" ","HOUSE_NO":"２５３號三樓之２","E_COORD97":177107.51000000001,"N_COORD97":2541521.6400000001,"ADDRESS":"大德路２５３號三樓之２","OBJECTID":577502},"geometry":{"x":177107.50999999978,"y":2541521.6399999987}},{"attributes":{"ID":577530,"DIS_CODE":0,"TOWNNAME":"歸仁區","LI":"文化里","LIN":"23鄰","STREET":"大德路","SECT":" ","MAREA":" ","LANE":" ","ALLEY":" ","HOUSE_NO":"２５３號三樓之１","E_COORD97":177107.48000000001,"N_COORD97":2541521.6400000001,"ADDRESS":"大德路２５３號三樓之１","OBJECTID":577503},"geometry":{"x":177107.48000000138,"y":2541521.6399999987}},{"attributes":{"ID":577531,"DIS_CODE":0,"TOWNNAME":"下營區","LI":"營前里","LIN":"23鄰","STREET":"忠孝街","SECT":" ","MAREA":" ","LANE":" ","ALLEY":" ","HOUSE_NO":"２號","E_COORD97":174740.06,"N_COORD97":2569873.4100000001,"ADDRESS":"忠孝街２號","OBJECTID":577504},"geometry":{"x":174740.05999999959,"y":2569873.4100000039}},{"attributes":{"ID":577532,"DIS_CODE":0,"TOWNNAME":"永康區","LI":"正強里","LIN":"23鄰","STREET":"自強路","SECT":" ","MAREA":" ","LANE":" ","ALLEY":" ","HOUSE_NO":"３０１號","E_COORD97":173390.97,"N_COORD97":2547694.5,"ADDRESS":"自強路３０１號","OBJECTID":577505},"geometry":{"x":173390.97000000067,"y":2547694.5}},{"attributes":{"ID":577533,"DIS_CODE":0,"TOWNNAME":"永康區","LI":"正強里","LIN":"23鄰","STREET":"正強街","SECT":" ","MAREA":" ","LANE":" ","ALLEY":" ","HOUSE_NO":"２２５號","E_COORD97":173289.01999999999,"N_COORD97":2547740.4399999999,"ADDRESS":"正強街２２５號","OBJECTID":577506},"geometry":{"x":173289.01999999955,"y":2547740.4400000013}},{"attributes":{"ID":577534,"DIS_CODE":0,"TOWNNAME":"佳里區","LI":"鎮山里","LIN":"23鄰","STREET":"佳南路","SECT":" ","MAREA":" ","LANE":" ","ALLEY":" ","HOUSE_NO":"８０號","E_COORD97":166341.17000000001,"N_COORD97":2561206.4300000002,"ADDRESS":"佳南路８０號","OBJECTID":577507},"geometry":{"x":166341.17000000086,"y":2561206.4299999997}},{"attributes":{"ID":577535,"DIS_CODE":0,"TOWNNAME":"安南區","LI":"州北里","LIN":"23鄰","STREET":"安和路","SECT":"五段","MAREA":" ","LANE":" ","ALLEY":" ","HOUSE_NO":"２６１號","E_COORD97":169736.70000000001,"N_COORD97":2551996.4199999999,"ADDRESS":"安和路五段２６１號","OBJECTID":577508},"geometry":{"x":169736.70000000112,"y":2551996.4200000018}},{"attributes":{"ID":577536,"DIS_CODE":0,"TOWNNAME":"安南區","LI":"州北里","LIN":"23鄰","STREET":"安和路","SECT":"五段","MAREA":" ","LANE":" ","ALLEY":" ","HOUSE_NO":"２６３號","E_COORD97":169735.07999999999,"N_COORD97":2552000.0899999999,"ADDRESS":"安和路五段２６３號","OBJECTID":577509},"geometry":{"x":169735.08000000194,"y":2552000.0899999999}},{"attributes":{"ID":577537,"DIS_CODE":0,"TOWNNAME":"安南區","LI":"州北里","LIN":"23鄰","STREET":"安和路","SECT":"五段","MAREA":" ","LANE":" ","ALLEY":" ","HOUSE_NO":"２６５號","E_COORD97":169733.91,"N_COORD97":2552003.6200000001,"ADDRESS":"安和路五段２６５號","OBJECTID":577510},"geometry":{"x":169733.91000000015,"y":2552003.6200000029}},{"attributes":{"ID":577538,"DIS_CODE":0,"TOWNNAME":"安南區","LI":"州北里","LIN":"23鄰","STREET":"安和路","SECT":"五段","MAREA":" ","LANE":" ","ALLEY":" ","HOUSE_NO":"２６５號之１","E_COORD97":169732.88,"N_COORD97":2552007.8900000001,"ADDRESS":"安和路五段２６５號之１","OBJECTID":577511},"geometry":{"x":169732.88000000175,"y":2552007.8900000025}},{"attributes":{"ID":577539,"DIS_CODE":0,"TOWNNAME":"安南區","LI":"州北里","LIN":"23鄰","STREET":"安和路","SECT":"五段","MAREA":" ","LANE":" ","ALLEY":" ","HOUSE_NO":"２６５號之２","E_COORD97":169731.98999999999,"N_COORD97":2552010.6800000002,"ADDRESS":"安和路五段２６５號之２","OBJECTID":577512},"geometry":{"x":169731.99000000022,"y":2552010.6800000034}},{"attributes":{"ID":577540,"DIS_CODE":0,"TOWNNAME":"安南區","LI":"州北里","LIN":"23鄰","STREET":"安和路","SECT":"五段","MAREA":" ","LANE":" ","ALLEY":" ","HOUSE_NO":"２５５號","E_COORD97":169741.42999999999,"N_COORD97":2551983.8100000001,"ADDRESS":"安和路五段２５５號","OBJECTID":577513},"geometry":{"x":169741.43000000063,"y":2551983.8100000024}},{"attributes":{"ID":577541,"DIS_CODE":0,"TOWNNAME":"安南區","LI":"州北里","LIN":"23鄰","STREET":"安和路","SECT":"五段","MAREA":" ","LANE":" ","ALLEY":" ","HOUSE_NO":"２５７號","E_COORD97":169739.79999999999,"N_COORD97":2551988.1800000002,"ADDRESS":"安和路五段２５７號","OBJECTID":577514},"geometry":{"x":169739.79999999981,"y":2551988.1800000016}},{"attributes":{"ID":577542,"DIS_CODE":0,"TOWNNAME":"佳里區","LI":"鎮山里","LIN":"23鄰","STREET":"佳南路","SECT":" ","MAREA":" ","LANE":" ","ALLEY":" ","HOUSE_NO":"１０２號","E_COORD97":166325.60999999999,"N_COORD97":2561185.8799999999,"ADDRESS":"佳南路１０２號","OBJECTID":577515},"geometry":{"x":166325.61000000034,"y":2561185.8799999971}},{"attributes":{"ID":577543,"DIS_CODE":0,"TOWNNAME":"佳里區","LI":"鎮山里","LIN":"23鄰","STREET":"佳南路","SECT":" ","MAREA":" ","LANE":" ","ALLEY":" ","HOUSE_NO":"１０６號","E_COORD97":166322.94,"N_COORD97":2561183.1099999999,"ADDRESS":"佳南路１０６號","OBJECTID":577516},"geometry":{"x":166322.94000000134,"y":2561183.1100000013}},{"attributes":{"ID":577544,"DIS_CODE":0,"TOWNNAME":"佳里區","LI":"鎮山里","LIN":"23鄰","STREET":"佳南路","SECT":" ","MAREA":" ","LANE":" ","ALLEY":" ","HOUSE_NO":"１０８號","E_COORD97":166320.48000000001,"N_COORD97":2561180.02,"ADDRESS":"佳南路１０８號","OBJECTID":577517},"geometry":{"x":166320.48000000231,"y":2561180.0200000014}},{"attributes":{"ID":577545,"DIS_CODE":0,"TOWNNAME":"佳里區","LI":"鎮山里","LIN":"23鄰","STREET":"佳南路","SECT":" ","MAREA":" ","LANE":" ","ALLEY":" ","HOUSE_NO":"１１０號","E_COORD97":166318.01000000001,"N_COORD97":2561176.9300000002,"ADDRESS":"佳南路１１０號","OBJECTID":577518},"geometry":{"x":166318.01000000071,"y":2561176.9300000016}},{"attributes":{"ID":577546,"DIS_CODE":0,"TOWNNAME":"佳里區","LI":"鎮山里","LIN":"23鄰","STREET":"佳南路","SECT":" ","MAREA":" ","LANE":" ","ALLEY":" ","HOUSE_NO":"１１２號","E_COORD97":166315.54000000001,"N_COORD97":2561173.8300000001,"ADDRESS":"佳南路１１２號","OBJECTID":577519},"geometry":{"x":166315.54000000004,"y":2561173.8299999982}},{"attributes":{"ID":577547,"DIS_CODE":0,"TOWNNAME":"佳里區","LI":"鎮山里","LIN":"23鄰","STREET":"佳南路","SECT":" ","MAREA":" ","LANE":" ","ALLEY":" ","HOUSE_NO":"１１６號","E_COORD97":166313.07999999999,"N_COORD97":2561170.7400000002,"ADDRESS":"佳南路１１６號","OBJECTID":577520},"geometry":{"x":166313.08000000101,"y":2561170.7400000002}},{"attributes":{"ID":577548,"DIS_CODE":0,"TOWNNAME":"佳里區","LI":"鎮山里","LIN":"23鄰","STREET":"佳南路","SECT":" ","MAREA":" ","LANE":" ","ALLEY":" ","HOUSE_NO":"１１８號","E_COORD97":166310.60999999999,"N_COORD97":2561167.6499999999,"ADDRESS":"佳南路１１８號","OBJECTID":577521},"geometry":{"x":166310.61000000034,"y":2561167.6500000004}},{"attributes":{"ID":577549,"DIS_CODE":0,"TOWNNAME":"佳里區","LI":"鎮山里","LIN":"23鄰","STREET":"佳南路","SECT":" ","MAREA":" ","LANE":" ","ALLEY":" ","HOUSE_NO":"５９號","E_COORD97":166404.82000000001,"N_COORD97":2561235.1400000001,"ADDRESS":"佳南路５９號","OBJECTID":577522},"geometry":{"x":166404.82000000123,"y":2561235.1400000025}},{"attributes":{"ID":577550,"DIS_CODE":0,"TOWNNAME":"佳里區","LI":"鎮山里","LIN":"23鄰","STREET":"佳南路","SECT":" ","MAREA":" ","LANE":" ","ALLEY":" ","HOUSE_NO":"６０號","E_COORD97":166377.29000000001,"N_COORD97":2561283.5099999998,"ADDRESS":"佳南路６０號","OBJECTID":577523},"geometry":{"x":166377.2900000019,"y":2561283.5099999998}},{"attributes":{"ID":577551,"DIS_CODE":0,"TOWNNAME":"佳里區","LI":"鎮山里","LIN":"23鄰","STREET":"佳南路","SECT":" ","MAREA":" ","LANE":" ","ALLEY":" ","HOUSE_NO":"７１號","E_COORD97":166363.31,"N_COORD97":2561182.2200000002,"ADDRESS":"佳南路７１號","OBJECTID":577524},"geometry":{"x":166363.31000000052,"y":2561182.2200000044}},{"attributes":{"ID":577552,"DIS_CODE":0,"TOWNNAME":"佳里區","LI":"鎮山里","LIN":"23鄰","STREET":"佳南路","SECT":" ","MAREA":" ","LANE":" ","ALLEY":" ","HOUSE_NO":"７５號","E_COORD97":166344.03,"N_COORD97":2561164.6499999999,"ADDRESS":"佳南路７５號","OBJECTID":577525},"geometry":{"x":166344.03000000119,"y":2561164.6500000004}},{"attributes":{"ID":577553,"DIS_CODE":0,"TOWNNAME":"下營區","LI":"後街里","LIN":"23鄰","STREET":"自由街","SECT":" ","MAREA":" ","LANE":" ","ALLEY":" ","HOUSE_NO":"１４９號","E_COORD97":174846.53,"N_COORD97":2571059.1600000001,"ADDRESS":"自由街１４９號","OBJECTID":577526},"geometry":{"x":174846.52999999933,"y":2571059.160000002}},{"attributes":{"ID":577554,"DIS_CODE":0,"TOWNNAME":"下營區","LI":"後街里","LIN":"23鄰","STREET":"自由街","SECT":" ","MAREA":" ","LANE":" ","ALLEY":" ","HOUSE_NO":"１５１號","E_COORD97":174851.38,"N_COORD97":2571073.8999999999,"ADDRESS":"自由街１５１號","OBJECTID":577527},"geometry":{"x":174851.38000000082,"y":2571073.9000000041}},{"attributes":{"ID":577555,"DIS_CODE":0,"TOWNNAME":"下營區","LI":"後街里","LIN":"23鄰","STREET":"自由街","SECT":" ","MAREA":" ","LANE":" ","ALLEY":" ","HOUSE_NO":"１８３號","E_COORD97":174897.78,"N_COORD97":2571211.2799999998,"ADDRESS":"自由街１８３號","OBJECTID":577528},"geometry":{"x":174897.78000000119,"y":2571211.2799999993}},{"attributes":{"ID":577556,"DIS_CODE":0,"TOWNNAME":"下營區","LI":"後街里","LIN":"23鄰","STREET":"自由街","SECT":" ","MAREA":" ","LANE":" ","ALLEY":" ","HOUSE_NO":"１８５號","E_COORD97":174903.41,"N_COORD97":2571218.9500000002,"ADDRESS":"自由街１８５號","OBJECTID":577529},"geometry":{"x":174903.41000000201,"y":2571218.9500000011}},{"attributes":{"ID":577557,"DIS_CODE":0,"TOWNNAME":"下營區","LI":"營前里","LIN":"23鄰","STREET":"忠孝街","SECT":" ","MAREA":" ","LANE":" ","ALLEY":" ","HOUSE_NO":"１７號","E_COORD97":174716.66,"N_COORD97":2569844.8900000001,"ADDRESS":"忠孝街１７號","OBJECTID":577530},"geometry":{"x":174716.66000000015,"y":2569844.8900000025}},{"attributes":{"ID":577558,"DIS_CODE":0,"TOWNNAME":"下營區","LI":"營前里","LIN":"23鄰","STREET":"忠孝街","SECT":" ","MAREA":" ","LANE":" ","ALLEY":" ","HOUSE_NO":"１９號","E_COORD97":174711.03,"N_COORD97":2569842.5800000001,"ADDRESS":"忠孝街１９號","OBJECTID":577531},"geometry":{"x":174711.03000000212,"y":2569842.5800000019}},{"attributes":{"ID":577559,"DIS_CODE":0,"TOWNNAME":"下營區","LI":"營前里","LIN":"23鄰","STREET":"忠孝街","SECT":" ","MAREA":" ","LANE":" ","ALLEY":" ","HOUSE_NO":"４２號","E_COORD97":174703.79000000001,"N_COORD97":2569808.5899999999,"ADDRESS":"忠孝街４２號","OBJECTID":577532},"geometry":{"x":174703.79000000004,"y":2569808.5900000017}},{"attributes":{"ID":577560,"DIS_CODE":0,"TOWNNAME":"下營區","LI":"營前里","LIN":"23鄰","STREET":"忠孝街","SECT":" ","MAREA":" ","LANE":" ","ALLEY":" ","HOUSE_NO":"４６號","E_COORD97":174705.82999999999,"N_COORD97":2569804.6699999999,"ADDRESS":"忠孝街４６號","OBJECTID":577533},"geometry":{"x":174705.83000000101,"y":2569804.6700000018}},{"attributes":{"ID":577561,"DIS_CODE":0,"TOWNNAME":"下營區","LI":"營前里","LIN":"23鄰","STREET":"忠孝街","SECT":" ","MAREA":" ","LANE":" ","ALLEY":" ","HOUSE_NO":"４８號","E_COORD97":174707.82000000001,"N_COORD97":2569800.1000000001,"ADDRESS":"忠孝街４８號","OBJECTID":577534},"geometry":{"x":174707.82000000123,"y":2569800.1000000034}},{"attributes":{"ID":577562,"DIS_CODE":0,"TOWNNAME":"下營區","LI":"營前里","LIN":"23鄰","STREET":"忠孝街","SECT":" ","MAREA":" ","LANE":" ","ALLEY":" ","HOUSE_NO":"５０號","E_COORD97":174709.04999999999,"N_COORD97":2569796.3900000001,"ADDRESS":"忠孝街５０號","OBJECTID":577535},"geometry":{"x":174709.05000000075,"y":2569796.3900000025}},{"attributes":{"ID":577563,"DIS_CODE":0,"TOWNNAME":"下營區","LI":"營前里","LIN":"23鄰","STREET":"忠孝街","SECT":" ","MAREA":" ","LANE":" ","ALLEY":" ","HOUSE_NO":"６號","E_COORD97":174733.51000000001,"N_COORD97":2569872.71,"ADDRESS":"忠孝街６號","OBJECTID":577536},"geometry":{"x":174733.51000000071,"y":2569872.7100000028}},{"attributes":{"ID":577564,"DIS_CODE":0,"TOWNNAME":"永康區","LI":"正強里","LIN":"23鄰","STREET":"自強路","SECT":" ","MAREA":" ","LANE":" ","ALLEY":" ","HOUSE_NO":"２９７號","E_COORD97":173384.20999999999,"N_COORD97":2547687.9399999999,"ADDRESS":"自強路２９７號","OBJECTID":577537},"geometry":{"x":173384.21000000089,"y":2547687.9399999995}},{"attributes":{"ID":577565,"DIS_CODE":0,"TOWNNAME":"永康區","LI":"正強里","LIN":"23鄰","STREET":"正強街","SECT":" ","MAREA":" ","LANE":" ","ALLEY":" ","HOUSE_NO":"２００號","E_COORD97":173314.75,"N_COORD97":2547668.25,"ADDRESS":"正強街２００號","OBJECTID":577538},"geometry":{"x":173314.75000000093,"y":2547668.2500000019}},{"attributes":{"ID":577566,"DIS_CODE":0,"TOWNNAME":"永康區","LI":"正強里","LIN":"23鄰","STREET":"自強路","SECT":" ","MAREA":" ","LANE":" ","ALLEY":" ","HOUSE_NO":"２９５號","E_COORD97":173380.29999999999,"N_COORD97":2547684.6899999999,"ADDRESS":"自強路２９５號","OBJECTID":577539},"geometry":{"x":173380.30000000075,"y":2547684.6900000013}},{"attributes":{"ID":577567,"DIS_CODE":0,"TOWNNAME":"永康區","LI":"正強里","LIN":"23鄰","STREET":"正強街","SECT":" ","MAREA":" ","LANE":" ","ALLEY":" ","HOUSE_NO":"２２１號","E_COORD97":173287.34,"N_COORD97":2547727.2400000002,"ADDRESS":"正強街２２１號","OBJECTID":577540},"geometry":{"x":173287.33999999985,"y":2547727.2400000002}},{"attributes":{"ID":577568,"DIS_CODE":0,"TOWNNAME":"永康區","LI":"正強里","LIN":"23鄰","STREET":"正強街","SECT":" ","MAREA":" ","LANE":" ","ALLEY":" ","HOUSE_NO":"２２３號","E_COORD97":173289.81,"N_COORD97":2547735.9399999999,"ADDRESS":"正強街２２３號","OBJECTID":577541},"geometry":{"x":173289.81000000052,"y":2547735.9399999995}},{"attributes":{"ID":577569,"DIS_CODE":0,"TOWNNAME":"永康區","LI":"龍潭里","LIN":"23鄰","STREET":"龍中街","SECT":" ","MAREA":" ","LANE":" ","ALLEY":" ","HOUSE_NO":"１５４號","E_COORD97":174412.01000000001,"N_COORD97":2548322.27,"ADDRESS":"龍中街１５４號","OBJECTID":577542},"geometry":{"x":174412.00999999978,"y":2548322.2700000014}},{"attributes":{"ID":577570,"DIS_CODE":0,"TOWNNAME":"永康區","LI":"網寮里","LIN":"23鄰","STREET":"永興路","SECT":" ","MAREA":" ","LANE":" ","ALLEY":" ","HOUSE_NO":"１７號","E_COORD97":174088.76000000001,"N_COORD97":2546348,"ADDRESS":"永興路１７號","OBJECTID":577543},"geometry":{"x":174088.76000000071,"y":2546348.0000000019}},{"attributes":{"ID":577571,"DIS_CODE":0,"TOWNNAME":"永康區","LI":"龍潭里","LIN":"23鄰","STREET":"龍安街","SECT":" ","MAREA":" ","LANE":" ","ALLEY":" ","HOUSE_NO":"１３７號","E_COORD97":174608.03,"N_COORD97":2548399.3399999999,"ADDRESS":"龍安街１３７號","OBJECTID":577544},"geometry":{"x":174608.03000000119,"y":2548399.3400000017}},{"attributes":{"ID":577572,"DIS_CODE":0,"TOWNNAME":"佳里區","LI":"安西里","LIN":"23鄰","STREET":"忠孝路","SECT":" ","MAREA":" ","LANE":" ","ALLEY":" ","HOUSE_NO":"１０２號","E_COORD97":165275.26999999999,"N_COORD97":2563150.8999999999,"ADDRESS":"忠孝路１０２號","OBJECTID":577545},"geometry":{"x":165275.27000000048,"y":2563150.9000000022}},{"attributes":{"ID":577573,"DIS_CODE":0,"TOWNNAME":"佳里區","LI":"安西里","LIN":"23鄰","STREET":"忠孝路","SECT":" ","MAREA":" ","LANE":" ","ALLEY":" ","HOUSE_NO":"１０８號","E_COORD97":165264.73999999999,"N_COORD97":2563159.8999999999,"ADDRESS":"忠孝路１０８號","OBJECTID":577546},"geometry":{"x":165264.74000000115,"y":2563159.9000000004}},{"attributes":{"ID":577574,"DIS_CODE":0,"TOWNNAME":"楠西區","LI":"東勢里","LIN":"22鄰","STREET":"水庫路","SECT":" ","MAREA":" ","LANE":" ","ALLEY":" ","HOUSE_NO":"５０號","E_COORD97":197645.82000000001,"N_COORD97":2564692.25,"ADDRESS":"水庫路５０號","OBJECTID":577547},"geometry":{"x":197645.82000000123,"y":2564692.25}},{"attributes":{"ID":577575,"DIS_CODE":0,"TOWNNAME":"佳里區","LI":"安西里","LIN":"23鄰","STREET":"忠孝路","SECT":" ","MAREA":" ","LANE":" ","ALLEY":" ","HOUSE_NO":"１０４號","E_COORD97":165271.57000000001,"N_COORD97":2563153.1099999999,"ADDRESS":"忠孝路１０４號","OBJECTID":577548},"geometry":{"x":165271.5700000003,"y":2563153.1099999994}},{"attributes":{"ID":577576,"DIS_CODE":0,"TOWNNAME":"佳里區","LI":"安西里","LIN":"23鄰","STREET":"忠孝路","SECT":" ","MAREA":" ","LANE":" ","ALLEY":" ","HOUSE_NO":"１０８號之１","E_COORD97":165261.87,"N_COORD97":2563163.1099999999,"ADDRESS":"忠孝路１０８號之１","OBJECTID":577549},"geometry":{"x":165261.87000000104,"y":2563163.1100000013}},{"attributes":{"ID":577577,"DIS_CODE":0,"TOWNNAME":"佳里區","LI":"安西里","LIN":"23鄰","STREET":"忠孝路","SECT":" ","MAREA":" ","LANE":" ","ALLEY":" ","HOUSE_NO":"１００號","E_COORD97":165279.04999999999,"N_COORD97":2563148.3100000001,"ADDRESS":"忠孝路１００號","OBJECTID":577550},"geometry":{"x":165279.05000000075,"y":2563148.3100000024}},{"attributes":{"ID":577578,"DIS_CODE":0,"TOWNNAME":"佳里區","LI":"安西里","LIN":"23鄰","STREET":"忠孝路","SECT":" ","MAREA":" ","LANE":" ","ALLEY":" ","HOUSE_NO":"１０６號","E_COORD97":165267.82000000001,"N_COORD97":2563156.6299999999,"ADDRESS":"忠孝路１０６號","OBJECTID":577551},"geometry":{"x":165267.8200000003,"y":2563156.629999999}},{"attributes":{"ID":577579,"DIS_CODE":0,"TOWNNAME":"佳里區","LI":"安西里","LIN":"23鄰","STREET":"忠孝路","SECT":" ","MAREA":" ","LANE":" ","ALLEY":" ","HOUSE_NO":"７４號","E_COORD97":165336.51999999999,"N_COORD97":2563107.7799999998,"ADDRESS":"忠孝路７４號","OBJECTID":577552},"geometry":{"x":165336.52000000048,"y":2563107.7799999993}},{"attributes":{"ID":577580,"DIS_CODE":0,"TOWNNAME":"佳里區","LI":"安西里","LIN":"23鄰","STREET":"忠孝路","SECT":" ","MAREA":" ","LANE":" ","ALLEY":" ","HOUSE_NO":"１１２號","E_COORD97":165251.79000000001,"N_COORD97":2563170.2400000002,"ADDRESS":"忠孝路１１２號","OBJECTID":577553},"geometry":{"x":165251.79000000097,"y":2563170.2400000002}},{"attributes":{"ID":577581,"DIS_CODE":0,"TOWNNAME":"佳里區","LI":"安西里","LIN":"23鄰","STREET":"忠孝路","SECT":" ","MAREA":" ","LANE":" ","ALLEY":" ","HOUSE_NO":"１１４號","E_COORD97":165248.95999999999,"N_COORD97":2563173.1299999999,"ADDRESS":"忠孝路１１４號","OBJECTID":577554},"geometry":{"x":165248.96000000089,"y":2563173.129999999}},{"attributes":{"ID":577582,"DIS_CODE":0,"TOWNNAME":"佳里區","LI":"安西里","LIN":"23鄰","STREET":"忠孝路","SECT":" ","MAREA":" ","LANE":" ","ALLEY":" ","HOUSE_NO":"１１６號","E_COORD97":165245.19,"N_COORD97":2563175.8399999999,"ADDRESS":"忠孝路１１６號","OBJECTID":577555},"geometry":{"x":165245.19000000041,"y":2563175.8399999999}},{"attributes":{"ID":577583,"DIS_CODE":0,"TOWNNAME":"佳里區","LI":"安西里","LIN":"23鄰","STREET":"忠孝路","SECT":" ","MAREA":" ","LANE":" ","ALLEY":" ","HOUSE_NO":"１１８號","E_COORD97":165240.84,"N_COORD97":2563179.4100000001,"ADDRESS":"忠孝路１１８號","OBJECTID":577556},"geometry":{"x":165240.84000000171,"y":2563179.4100000001}},{"attributes":{"ID":577584,"DIS_CODE":0,"TOWNNAME":"佳里區","LI":"安西里","LIN":"23鄰","STREET":"忠孝路","SECT":" ","MAREA":" ","LANE":" ","ALLEY":" ","HOUSE_NO":"１２０號","E_COORD97":165237.07000000001,"N_COORD97":2563181.7799999998,"ADDRESS":"忠孝路１２０號","OBJECTID":577557},"geometry":{"x":165237.07000000123,"y":2563181.7800000012}},{"attributes":{"ID":577585,"DIS_CODE":0,"TOWNNAME":"佳里區","LI":"安西里","LIN":"23鄰","STREET":"忠孝路","SECT":" ","MAREA":" ","LANE":" ","ALLEY":" ","HOUSE_NO":"１２２號","E_COORD97":165232.69,"N_COORD97":2563184.8300000001,"ADDRESS":"忠孝路１２２號","OBJECTID":577558},"geometry":{"x":165232.69000000134,"y":2563184.8300000019}},{"attributes":{"ID":577586,"DIS_CODE":0,"TOWNNAME":"佳里區","LI":"安西里","LIN":"23鄰","STREET":"忠孝路","SECT":" ","MAREA":" ","LANE":" ","ALLEY":" ","HOUSE_NO":"１２４號","E_COORD97":165228.76000000001,"N_COORD97":2563187.29,"ADDRESS":"忠孝路１２４號","OBJECTID":577559},"geometry":{"x":165228.75999999978,"y":2563187.2900000028}},{"attributes":{"ID":577587,"DIS_CODE":0,"TOWNNAME":"佳里區","LI":"安西里","LIN":"23鄰","STREET":"忠孝路","SECT":" ","MAREA":" ","LANE":" ","ALLEY":" ","HOUSE_NO":"１２６號","E_COORD97":165223.89999999999,"N_COORD97":2563189.6899999999,"ADDRESS":"忠孝路１２６號","OBJECTID":577560},"geometry":{"x":165223.90000000037,"y":2563189.6900000013}},{"attributes":{"ID":577588,"DIS_CODE":0,"TOWNNAME":"佳里區","LI":"安西里","LIN":"23鄰","STREET":"忠孝路","SECT":" ","MAREA":" ","LANE":" ","ALLEY":" ","HOUSE_NO":"１２８號","E_COORD97":165218.91,"N_COORD97":2563192.2599999998,"ADDRESS":"忠孝路１２８號","OBJECTID":577561},"geometry":{"x":165218.91000000108,"y":2563192.2600000016}},{"attributes":{"ID":577589,"DIS_CODE":0,"TOWNNAME":"佳里區","LI":"安西里","LIN":"23鄰","STREET":"忠孝路","SECT":" ","MAREA":" ","LANE":" ","ALLEY":" ","HOUSE_NO":"１３０號","E_COORD97":165215.70000000001,"N_COORD97":2563195.02,"ADDRESS":"忠孝路１３０號","OBJECTID":577562},"geometry":{"x":165215.70000000112,"y":2563195.0199999996}},{"attributes":{"ID":577590,"DIS_CODE":0,"TOWNNAME":"佳里區","LI":"安西里","LIN":"23鄰","STREET":"忠孝路","SECT":" ","MAREA":" ","LANE":" ","ALLEY":" ","HOUSE_NO":"１３２號","E_COORD97":165211.64999999999,"N_COORD97":2563197.6499999999,"ADDRESS":"忠孝路１３２號","OBJECTID":577563},"geometry":{"x":165211.65000000037,"y":2563197.6500000022}},{"attributes":{"ID":577591,"DIS_CODE":0,"TOWNNAME":"佳里區","LI":"安西里","LIN":"23鄰","STREET":"忠孝路","SECT":" ","MAREA":" ","LANE":" ","ALLEY":" ","HOUSE_NO":"１３４號","E_COORD97":165207.82000000001,"N_COORD97":2563200.3799999999,"ADDRESS":"忠孝路１３４號","OBJECTID":577564},"geometry":{"x":165207.82000000123,"y":2563200.3800000008}},{"attributes":{"ID":577592,"DIS_CODE":0,"TOWNNAME":"佳里區","LI":"安西里","LIN":"23鄰","STREET":"忠孝路","SECT":" ","MAREA":" ","LANE":" ","ALLEY":" ","HOUSE_NO":"１３６號","E_COORD97":165203.62,"N_COORD97":2563203.5699999998,"ADDRESS":"忠孝路１３６號","OBJECTID":577565},"geometry":{"x":165203.62000000197,"y":2563203.570000004}},{"attributes":{"ID":577593,"DIS_CODE":0,"TOWNNAME":"佳里區","LI":"安西里","LIN":"23鄰","STREET":"忠孝路","SECT":" ","MAREA":" ","LANE":" ","ALLEY":" ","HOUSE_NO":"１４０號","E_COORD97":165198.16,"N_COORD97":2563207.6499999999,"ADDRESS":"忠孝路１４０號","OBJECTID":577566},"geometry":{"x":165198.16000000015,"y":2563207.6500000022}},{"attributes":{"ID":577594,"DIS_CODE":0,"TOWNNAME":"佳里區","LI":"安西里","LIN":"23鄰","STREET":"忠孝路","SECT":" ","MAREA":" ","LANE":" ","ALLEY":" ","HOUSE_NO":"１４２號","E_COORD97":165191.01999999999,"N_COORD97":2563212.8999999999,"ADDRESS":"忠孝路１４２號","OBJECTID":577567},"geometry":{"x":165191.01999999955,"y":2563212.9000000022}},{"attributes":{"ID":577595,"DIS_CODE":0,"TOWNNAME":"佳里區","LI":"安西里","LIN":"23鄰","STREET":"忠孝路","SECT":" ","MAREA":" ","LANE":" ","ALLEY":" ","HOUSE_NO":"１４６號","E_COORD97":165185.85000000001,"N_COORD97":2563218.3999999999,"ADDRESS":"忠孝路１４６號","OBJECTID":577568},"geometry":{"x":165185.84999999963,"y":2563218.4000000041}},{"attributes":{"ID":577596,"DIS_CODE":0,"TOWNNAME":"佳里區","LI":"安西里","LIN":"23鄰","STREET":"忠孝路","SECT":" ","MAREA":" ","LANE":" ","ALLEY":" ","HOUSE_NO":"１４８號","E_COORD97":165182.03,"N_COORD97":2563221.02,"ADDRESS":"忠孝路１４８號","OBJECTID":577569},"geometry":{"x":165182.03000000026,"y":2563221.0200000014}},{"attributes":{"ID":577597,"DIS_CODE":0,"TOWNNAME":"佳里區","LI":"安西里","LIN":"23鄰","STREET":"忠孝路","SECT":" ","MAREA":" ","LANE":" ","ALLEY":" ","HOUSE_NO":"１５０號","E_COORD97":165178.20999999999,"N_COORD97":2563223.6299999999,"ADDRESS":"忠孝路１５０號","OBJECTID":577570},"geometry":{"x":165178.21000000089,"y":2563223.6300000008}},{"attributes":{"ID":577598,"DIS_CODE":0,"TOWNNAME":"佳里區","LI":"安西里","LIN":"23鄰","STREET":"忠孝路","SECT":" ","MAREA":" ","LANE":" ","ALLEY":" ","HOUSE_NO":"１５２號","E_COORD97":165174.39999999999,"N_COORD97":2563226.2400000002,"ADDRESS":"忠孝路１５２號","OBJECTID":577571},"geometry":{"x":165174.40000000037,"y":2563226.2400000021}},{"attributes":{"ID":577599,"DIS_CODE":0,"TOWNNAME":"佳里區","LI":"安西里","LIN":"23鄰","STREET":"忠孝路","SECT":" ","MAREA":" ","LANE":" ","ALLEY":" ","HOUSE_NO":"８６號","E_COORD97":165305.87,"N_COORD97":2563129.8599999999,"ADDRESS":"忠孝路８６號","OBJECTID":577572},"geometry":{"x":165305.87000000104,"y":2563129.8600000013}},{"attributes":{"ID":577600,"DIS_CODE":0,"TOWNNAME":"佳里區","LI":"安西里","LIN":"23鄰","STREET":"忠孝路","SECT":" ","MAREA":" ","LANE":" ","ALLEY":" ","HOUSE_NO":"２４號之１","E_COORD97":165425.51999999999,"N_COORD97":2563027.8399999999,"ADDRESS":"忠孝路２４號之１","OBJECTID":577573},"geometry":{"x":165425.51999999955,"y":2563027.8399999999}},{"attributes":{"ID":577601,"DIS_CODE":0,"TOWNNAME":"佳里區","LI":"安西里","LIN":"23鄰","STREET":"忠孝路","SECT":" ","MAREA":" ","LANE":" ","ALLEY":" ","HOUSE_NO":"２６號","E_COORD97":165418.45000000001,"N_COORD97":2563039.27,"ADDRESS":"忠孝路２６號","OBJECTID":577574},"geometry":{"x":165418.45000000205,"y":2563039.2700000014}},{"attributes":{"ID":577602,"DIS_CODE":0,"TOWNNAME":"佳里區","LI":"安西里","LIN":"23鄰","STREET":"忠孝路","SECT":" ","MAREA":" ","LANE":" ","ALLEY":" ","HOUSE_NO":"２８號","E_COORD97":165414.70000000001,"N_COORD97":2563045.9300000002,"ADDRESS":"忠孝路２８號","OBJECTID":577575},"geometry":{"x":165414.70000000019,"y":2563045.9300000016}},{"attributes":{"ID":577603,"DIS_CODE":0,"TOWNNAME":"佳里區","LI":"安西里","LIN":"23鄰","STREET":"忠孝路","SECT":" ","MAREA":" ","LANE":" ","ALLEY":" ","HOUSE_NO":"４２號","E_COORD97":165395.14000000001,"N_COORD97":2563065.5,"ADDRESS":"忠孝路４２號","OBJECTID":577576},"geometry":{"x":165395.1400000006,"y":2563065.5000000019}},{"attributes":{"ID":577604,"DIS_CODE":0,"TOWNNAME":"佳里區","LI":"安西里","LIN":"23鄰","STREET":"忠孝路","SECT":" ","MAREA":" ","LANE":" ","ALLEY":" ","HOUSE_NO":"４６號","E_COORD97":165391.64999999999,"N_COORD97":2563068.4700000002,"ADDRESS":"忠孝路４６號","OBJECTID":577577},"geometry":{"x":165391.65000000037,"y":2563068.4700000007}},{"attributes":{"ID":577605,"DIS_CODE":0,"TOWNNAME":"佳里區","LI":"安西里","LIN":"23鄰","STREET":"忠孝路","SECT":" ","MAREA":" ","LANE":" ","ALLEY":" ","HOUSE_NO":"５８號","E_COORD97":165364.17999999999,"N_COORD97":2563086.8999999999,"ADDRESS":"忠孝路５８號","OBJECTID":577578},"geometry":{"x":165364.18000000063,"y":2563086.9000000022}},{"attributes":{"ID":577606,"DIS_CODE":0,"TOWNNAME":"佳里區","LI":"安西里","LIN":"23鄰","STREET":"忠孝路","SECT":" ","MAREA":" ","LANE":" ","ALLEY":" ","HOUSE_NO":"６６號","E_COORD97":165351.60000000001,"N_COORD97":2563095.9900000002,"ADDRESS":"忠孝路６６號","OBJECTID":577579},"geometry":{"x":165351.59999999963,"y":2563095.9900000021}},{"attributes":{"ID":577607,"DIS_CODE":0,"TOWNNAME":"佳里區","LI":"安西里","LIN":"23鄰","STREET":"忠孝路","SECT":" ","MAREA":" ","LANE":" ","ALLEY":" ","HOUSE_NO":"６８號","E_COORD97":165352.76999999999,"N_COORD97":2563105.6400000001,"ADDRESS":"忠孝路６８號","OBJECTID":577580},"geometry":{"x":165352.76999999955,"y":2563105.6400000025}},{"attributes":{"ID":577608,"DIS_CODE":0,"TOWNNAME":"佳里區","LI":"安西里","LIN":"23鄰","STREET":"忠孝路","SECT":" ","MAREA":" ","LANE":" ","ALLEY":" ","HOUSE_NO":"７０號","E_COORD97":165341.97,"N_COORD97":2563102.9300000002,"ADDRESS":"忠孝路７０號","OBJECTID":577581},"geometry":{"x":165341.97000000067,"y":2563102.9300000016}},{"attributes":{"ID":577609,"DIS_CODE":0,"TOWNNAME":"佳里區","LI":"安西里","LIN":"23鄰","STREET":"忠孝路","SECT":" ","MAREA":" ","LANE":" ","ALLEY":" ","HOUSE_NO":"８２號","E_COORD97":165317.56,"N_COORD97":2563126.52,"ADDRESS":"忠孝路８２號","OBJECTID":577582},"geometry":{"x":165317.56000000052,"y":2563126.5200000014}},{"attributes":{"ID":577610,"DIS_CODE":0,"TOWNNAME":"佳里區","LI":"安西里","LIN":"23鄰","STREET":"忠孝路","SECT":" ","MAREA":" ","LANE":" ","ALLEY":" ","HOUSE_NO":"８４號","E_COORD97":165309.62,"N_COORD97":2563127.0499999998,"ADDRESS":"忠孝路８４號","OBJECTID":577583},"geometry":{"x":165309.62000000011,"y":2563127.0500000026}},{"attributes":{"ID":577611,"DIS_CODE":0,"TOWNNAME":"佳里區","LI":"安西里","LIN":"23鄰","STREET":"忠孝路","SECT":" ","MAREA":" ","LANE":" ","ALLEY":" ","HOUSE_NO":"８８號","E_COORD97":165302.44,"N_COORD97":2563132.2999999998,"ADDRESS":"忠孝路８８號","OBJECTID":577584},"geometry":{"x":165302.44000000134,"y":2563132.3000000026}},{"attributes":{"ID":577612,"DIS_CODE":0,"TOWNNAME":"佳里區","LI":"安西里","LIN":"23鄰","STREET":"忠孝路","SECT":" ","MAREA":" ","LANE":" ","ALLEY":" ","HOUSE_NO":"９０號","E_COORD97":165299.54000000001,"N_COORD97":2563135.1699999999,"ADDRESS":"忠孝路９０號","OBJECTID":577585},"geometry":{"x":165299.54000000097,"y":2563135.1700000018}},{"attributes":{"ID":577613,"DIS_CODE":0,"TOWNNAME":"佳里區","LI":"安西里","LIN":"23鄰","STREET":"忠孝路","SECT":" ","MAREA":" ","LANE":" ","ALLEY":" ","HOUSE_NO":"９２號","E_COORD97":165294.85000000001,"N_COORD97":2563138.0600000001,"ADDRESS":"忠孝路９２號","OBJECTID":577586},"geometry":{"x":165294.85000000149,"y":2563138.0600000005}},{"attributes":{"ID":577614,"DIS_CODE":0,"TOWNNAME":"佳里區","LI":"安西里","LIN":"23鄰","STREET":"忠孝路","SECT":" ","MAREA":" ","LANE":" ","ALLEY":" ","HOUSE_NO":"９４號","E_COORD97":165291.60000000001,"N_COORD97":2563140.5,"ADDRESS":"忠孝路９４號","OBJECTID":577587},"geometry":{"x":165291.60000000056,"y":2563140.5000000019}},{"attributes":{"ID":577615,"DIS_CODE":0,"TOWNNAME":"佳里區","LI":"安西里","LIN":"23鄰","STREET":"忠孝路","SECT":" ","MAREA":" ","LANE":" ","ALLEY":" ","HOUSE_NO":"９６號","E_COORD97":165288.12,"N_COORD97":2563142.6800000002,"ADDRESS":"忠孝路９６號","OBJECTID":577588},"geometry":{"x":165288.12000000011,"y":2563142.6800000016}},{"attributes":{"ID":577616,"DIS_CODE":0,"TOWNNAME":"新市區","LI":"新和里","LIN":"23鄰","STREET":"中正路","SECT":" ","MAREA":" ","LANE":" ","ALLEY":" ","HOUSE_NO":"２２０號之２","E_COORD97":177431.39000000001,"N_COORD97":2552834.0499999998,"ADDRESS":"中正路２２０號之２","OBJECTID":577589},"geometry":{"x":177431.38999999966,"y":2552834.0500000026}},{"attributes":{"ID":577617,"DIS_CODE":0,"TOWNNAME":"新市區","LI":"新和里","LIN":"23鄰","STREET":"中正路","SECT":" ","MAREA":" ","LANE":" ","ALLEY":" ","HOUSE_NO":"１６９號","E_COORD97":177395.07000000001,"N_COORD97":2552864.75,"ADDRESS":"中正路１６９號","OBJECTID":577590},"geometry":{"x":177395.07000000123,"y":2552864.7500000037}},{"attributes":{"ID":577618,"DIS_CODE":0,"TOWNNAME":"新市區","LI":"新和里","LIN":"23鄰","STREET":"中正路","SECT":" ","MAREA":" ","LANE":" ","ALLEY":" ","HOUSE_NO":"２２８號","E_COORD97":177431.12,"N_COORD97":2552861,"ADDRESS":"中正路２２８號","OBJECTID":577591},"geometry":{"x":177431.12000000197,"y":2552861.0000000019}},{"attributes":{"ID":577619,"DIS_CODE":0,"TOWNNAME":"新市區","LI":"新和里","LIN":"23鄰","STREET":"中正路","SECT":" ","MAREA":" ","LANE":" ","ALLEY":" ","HOUSE_NO":"１６５號","E_COORD97":177401.98000000001,"N_COORD97":2552830,"ADDRESS":"中正路１６５號","OBJECTID":577592},"geometry":{"x":177401.98000000138,"y":2552830.0000000019}},{"attributes":{"ID":577620,"DIS_CODE":0,"TOWNNAME":"新市區","LI":"新和里","LIN":"23鄰","STREET":"中正路","SECT":" ","MAREA":" ","LANE":" ","ALLEY":" ","HOUSE_NO":"２２０號","E_COORD97":177428.91,"N_COORD97":2552825.25,"ADDRESS":"中正路２２０號","OBJECTID":577593},"geometry":{"x":177428.91000000015,"y":2552825.2500000019}},{"attributes":{"ID":577621,"DIS_CODE":0,"TOWNNAME":"新市區","LI":"新和里","LIN":"23鄰","STREET":"中正路","SECT":" ","MAREA":" ","LANE":" ","ALLEY":" ","HOUSE_NO":"２３２號","E_COORD97":177432.70999999999,"N_COORD97":2552871.5,"ADDRESS":"中正路２３２號","OBJECTID":577594},"geometry":{"x":177432.71000000089,"y":2552871.5}},{"attributes":{"ID":577622,"DIS_CODE":0,"TOWNNAME":"永康區","LI":"復華里","LIN":"23鄰","STREET":"復華八街","SECT":" ","MAREA":" ","LANE":" ","ALLEY":" ","HOUSE_NO":"２８號","E_COORD97":172699.76000000001,"N_COORD97":2546182.77,"ADDRESS":"復華八街２８號","OBJECTID":577595},"geometry":{"x":172699.75999999978,"y":2546182.7700000014}},{"attributes":{"ID":577623,"DIS_CODE":0,"TOWNNAME":"永康區","LI":"復華里","LIN":"23鄰","STREET":"復華八街","SECT":" ","MAREA":" ","LANE":" ","ALLEY":" ","HOUSE_NO":"１０號","E_COORD97":172673.38,"N_COORD97":2546132.9900000002,"ADDRESS":"復華八街１０號","OBJECTID":577596},"geometry":{"x":172673.37999999989,"y":2546132.9900000002}},{"attributes":{"ID":577624,"DIS_CODE":0,"TOWNNAME":"東區","LI":"圍下里","LIN":"23鄰","STREET":"前鋒路","SECT":" ","MAREA":" ","LANE":" ","ALLEY":" ","HOUSE_NO":"１３９號","E_COORD97":169317.12,"N_COORD97":2543839.2000000002,"ADDRESS":"前鋒路１３９號","OBJECTID":577597},"geometry":{"x":169317.12000000011,"y":2543839.200000003}},{"attributes":{"ID":577625,"DIS_CODE":0,"TOWNNAME":"東區","LI":"圍下里","LIN":"23鄰","STREET":"前鋒路","SECT":" ","MAREA":" ","LANE":" ","ALLEY":" ","HOUSE_NO":"１４１號","E_COORD97":169311.76000000001,"N_COORD97":2543846.3999999999,"ADDRESS":"前鋒路１４１號","OBJECTID":577598},"geometry":{"x":169311.76000000071,"y":2543846.4000000022}},{"attributes":{"ID":577626,"DIS_CODE":0,"TOWNNAME":"永康區","LI":"永康里","LIN":"23鄰","STREET":"中山南路","SECT":" ","MAREA":" ","LANE":" ","ALLEY":" ","HOUSE_NO":"５９１號","E_COORD97":173516.95000000001,"N_COORD97":2547196.9900000002,"ADDRESS":"中山南路５９１號","OBJECTID":577599},"geometry":{"x":173516.95000000112,"y":2547196.9900000002}},{"attributes":{"ID":577627,"DIS_CODE":0,"TOWNNAME":"永康區","LI":"永康里","LIN":"23鄰","STREET":"中山南路","SECT":" ","MAREA":" ","LANE":" ","ALLEY":" ","HOUSE_NO":"６２３號","E_COORD97":173572.70999999999,"N_COORD97":2547244.75,"ADDRESS":"中山南路６２３號","OBJECTID":577600},"geometry":{"x":173572.71000000089,"y":2547244.7500000019}}]}