{"displayFieldName":"TOWNNAME","fieldAliases":{"ID":"ID","DIS_CODE":"DIS_CODE","TOWNNAME":"TOWNNAME","LI":"LI","LIN":"LIN","STREET":"STREET","SECT":"SECT","MAREA":"MAREA","LANE":"LANE","ALLEY":"ALLEY","HOUSE_NO":"HOUSE_NO","E_COORD97":"E_COORD97","N_COORD97":"N_COORD97","ADDRESS":"ADDRESS","OBJECTID":"OBJECTID"},"geometryType":"esriGeometryPoint","spatialReference":{"wkid":102443,"latestWkid":3826},"fields":[{"name":"ID","type":"esriFieldTypeDouble","alias":"ID"},{"name":"DIS_CODE","type":"esriFieldTypeInteger","alias":"DIS_CODE"},{"name":"TOWNNAME","type":"esriFieldTypeString","alias":"TOWNNAME","length":8},{"name":"LI","type":"esriFieldTypeString","alias":"LI","length":8},{"name":"LIN","type":"esriFieldTypeString","alias":"LIN","length":12},{"name":"STREET","type":"esriFieldTypeString","alias":"STREET","length":20},{"name":"SECT","type":"esriFieldTypeString","alias":"SECT","length":8},{"name":"MAREA","type":"esriFieldTypeString","alias":"MAREA","length":12},{"name":"LANE","type":"esriFieldTypeString","alias":"LANE","length":10},{"name":"ALLEY","type":"esriFieldTypeString","alias":"ALLEY","length":10},{"name":"HOUSE_NO","type":"esriFieldTypeString","alias":"HOUSE_NO","length":20},{"name":"E_COORD97","type":"esriFieldTypeDouble","alias":"E_COORD97"},{"name":"N_COORD97","type":"esriFieldTypeDouble","alias":"N_COORD97"},{"name":"ADDRESS","type":"esriFieldTypeString","alias":"ADDRESS","length":50},{"name":"OBJECTID","type":"esriFieldTypeOID","alias":"OBJECTID"}],"features":[{"attributes":{"ID":214402,"DIS_CODE":0,"TOWNNAME":"西港區","LI":"劉厝里","LIN":"9鄰","STREET":" ","SECT":" ","MAREA":"劉厝","LANE":" ","ALLEY":" ","HOUSE_NO":"６７號","E_COORD97":166035.79999999999,"N_COORD97":2558824.6600000001,"ADDRESS":"劉厝６７號","OBJECTID":214401},"geometry":{"x":166035.79999999981,"y":2558824.6600000001}},{"attributes":{"ID":214403,"DIS_CODE":0,"TOWNNAME":"西港區","LI":"劉厝里","LIN":"9鄰","STREET":" ","SECT":" ","MAREA":"劉厝","LANE":" ","ALLEY":" ","HOUSE_NO":"６９號之１","E_COORD97":166053.70999999999,"N_COORD97":2558879.9500000002,"ADDRESS":"劉厝６９號之１","OBJECTID":214402},"geometry":{"x":166053.70999999996,"y":2558879.9499999993}},{"attributes":{"ID":214404,"DIS_CODE":0,"TOWNNAME":"西港區","LI":"劉厝里","LIN":"9鄰","STREET":" ","SECT":" ","MAREA":"劉厝","LANE":" ","ALLEY":" ","HOUSE_NO":"６９號之３","E_COORD97":166017.04000000001,"N_COORD97":2558896.6400000001,"ADDRESS":"劉厝６９號之３","OBJECTID":214403},"geometry":{"x":166017.04000000004,"y":2558896.6400000006}},{"attributes":{"ID":214405,"DIS_CODE":0,"TOWNNAME":"六甲區","LI":"六甲里","LIN":"28鄰","STREET":"中正路","SECT":" ","MAREA":" ","LANE":"４８５巷","ALLEY":"４１弄","HOUSE_NO":"２９號","E_COORD97":183491.78,"N_COORD97":2569948.5800000001,"ADDRESS":"中正路４８５巷４１弄２９號","OBJECTID":214404},"geometry":{"x":183491.78000000026,"y":2569948.5800000001}},{"attributes":{"ID":214406,"DIS_CODE":0,"TOWNNAME":"六甲區","LI":"六甲里","LIN":"28鄰","STREET":"中正路","SECT":" ","MAREA":" ","LANE":"４８５巷","ALLEY":"４１弄","HOUSE_NO":"２號","E_COORD97":183450.85999999999,"N_COORD97":2569942.5600000001,"ADDRESS":"中正路４８５巷４１弄２號","OBJECTID":214405},"geometry":{"x":183450.8599999994,"y":2569942.5600000005}},{"attributes":{"ID":214407,"DIS_CODE":0,"TOWNNAME":"六甲區","LI":"六甲里","LIN":"28鄰","STREET":"中正路","SECT":" ","MAREA":" ","LANE":"４８５巷","ALLEY":"４１弄","HOUSE_NO":"３１號","E_COORD97":183496.06,"N_COORD97":2569947.1000000001,"ADDRESS":"中正路４８５巷４１弄３１號","OBJECTID":214406},"geometry":{"x":183496.05999999959,"y":2569947.1000000015}},{"attributes":{"ID":214408,"DIS_CODE":0,"TOWNNAME":"六甲區","LI":"六甲里","LIN":"28鄰","STREET":"中正路","SECT":" ","MAREA":" ","LANE":"４８５巷","ALLEY":"４１弄","HOUSE_NO":"３３號","E_COORD97":183500.95999999999,"N_COORD97":2569945.7400000002,"ADDRESS":"中正路４８５巷４１弄３３號","OBJECTID":214407},"geometry":{"x":183500.96000000089,"y":2569945.7400000039}},{"attributes":{"ID":214409,"DIS_CODE":0,"TOWNNAME":"六甲區","LI":"六甲里","LIN":"28鄰","STREET":"中正路","SECT":" ","MAREA":" ","LANE":"４８５巷","ALLEY":"４１弄","HOUSE_NO":"３５號","E_COORD97":183505.19,"N_COORD97":2569944.4500000002,"ADDRESS":"中正路４８５巷４１弄３５號","OBJECTID":214408},"geometry":{"x":183505.19000000134,"y":2569944.4500000011}},{"attributes":{"ID":214410,"DIS_CODE":0,"TOWNNAME":"六甲區","LI":"六甲里","LIN":"28鄰","STREET":"中正路","SECT":" ","MAREA":" ","LANE":"４８５巷","ALLEY":"４１弄","HOUSE_NO":"３號","E_COORD97":183469.38,"N_COORD97":2569954.8799999999,"ADDRESS":"中正路４８５巷４１弄３號","OBJECTID":214409},"geometry":{"x":183469.38000000082,"y":2569954.8800000008}},{"attributes":{"ID":214411,"DIS_CODE":0,"TOWNNAME":"六甲區","LI":"六甲里","LIN":"28鄰","STREET":"中正路","SECT":" ","MAREA":" ","LANE":"４８５巷","ALLEY":"４１弄","HOUSE_NO":"５號","E_COORD97":183473.41,"N_COORD97":2569954.0899999999,"ADDRESS":"中正路４８５巷４１弄５號","OBJECTID":214410},"geometry":{"x":183473.41000000015,"y":2569954.0900000017}},{"attributes":{"ID":214412,"DIS_CODE":0,"TOWNNAME":"六甲區","LI":"六甲里","LIN":"28鄰","STREET":"中正路","SECT":" ","MAREA":" ","LANE":"４８５巷","ALLEY":"４１弄","HOUSE_NO":"７號","E_COORD97":183477.57999999999,"N_COORD97":2569953.0600000001,"ADDRESS":"中正路４８５巷４１弄７號","OBJECTID":214411},"geometry":{"x":183477.58000000007,"y":2569953.0600000005}},{"attributes":{"ID":214413,"DIS_CODE":0,"TOWNNAME":"六甲區","LI":"六甲里","LIN":"28鄰","STREET":"中正路","SECT":" ","MAREA":" ","LANE":"４８５巷","ALLEY":"４１弄","HOUSE_NO":"９號","E_COORD97":183482.10000000001,"N_COORD97":2569951.5499999998,"ADDRESS":"中正路４８５巷４１弄９號","OBJECTID":214412},"geometry":{"x":183482.09999999963,"y":2569951.5500000026}},{"attributes":{"ID":214414,"DIS_CODE":0,"TOWNNAME":"新營區","LI":"南興里","LIN":"28鄰","STREET":"建業路","SECT":" ","MAREA":" ","LANE":"１１１巷","ALLEY":"８弄","HOUSE_NO":"６號","E_COORD97":178463.92999999999,"N_COORD97":2577434.9399999999,"ADDRESS":"建業路１１１巷８弄６號","OBJECTID":214413},"geometry":{"x":178463.9299999997,"y":2577434.9399999995}},{"attributes":{"ID":214415,"DIS_CODE":0,"TOWNNAME":"新營區","LI":"民榮里","LIN":"28鄰","STREET":"復興路","SECT":" ","MAREA":" ","LANE":"５１１巷","ALLEY":"７５弄","HOUSE_NO":"７號","E_COORD97":178102.98000000001,"N_COORD97":2578092.2999999998,"ADDRESS":"復興路５１１巷７５弄７號","OBJECTID":214414},"geometry":{"x":178102.98000000045,"y":2578092.3000000007}},{"attributes":{"ID":214416,"DIS_CODE":0,"TOWNNAME":"新營區","LI":"民榮里","LIN":"28鄰","STREET":"復興路","SECT":" ","MAREA":" ","LANE":"５１１巷","ALLEY":"７５弄","HOUSE_NO":"９號","E_COORD97":178104.94,"N_COORD97":2578087.8599999999,"ADDRESS":"復興路５１１巷７５弄９號","OBJECTID":214415},"geometry":{"x":178104.94000000041,"y":2578087.8600000031}},{"attributes":{"ID":214417,"DIS_CODE":0,"TOWNNAME":"新營區","LI":"民榮里","LIN":"28鄰","STREET":"復興路","SECT":" ","MAREA":" ","LANE":"５１１巷","ALLEY":"７５弄","HOUSE_NO":"２號","E_COORD97":178095.95000000001,"N_COORD97":2578112.27,"ADDRESS":"復興路５１１巷７５弄２號","OBJECTID":214416},"geometry":{"x":178095.95000000019,"y":2578112.2700000033}},{"attributes":{"ID":214418,"DIS_CODE":0,"TOWNNAME":"南區","LI":"府南里","LIN":"28鄰","STREET":"大成路","SECT":"二段","MAREA":" ","LANE":"２９巷","ALLEY":"１９弄","HOUSE_NO":"１０號","E_COORD97":167659.07000000001,"N_COORD97":2541695.8700000001,"ADDRESS":"大成路二段２９巷１９弄１０號","OBJECTID":214417},"geometry":{"x":167659.07000000123,"y":2541695.870000001}},{"attributes":{"ID":214419,"DIS_CODE":0,"TOWNNAME":"南區","LI":"府南里","LIN":"28鄰","STREET":"大成路","SECT":"二段","MAREA":" ","LANE":"２９巷","ALLEY":"１９弄","HOUSE_NO":"１１號","E_COORD97":167646.91,"N_COORD97":2541701.3199999998,"ADDRESS":"大成路二段２９巷１９弄１１號","OBJECTID":214418},"geometry":{"x":167646.91000000108,"y":2541701.3200000022}},{"attributes":{"ID":214420,"DIS_CODE":0,"TOWNNAME":"南區","LI":"府南里","LIN":"28鄰","STREET":"大成路","SECT":"二段","MAREA":" ","LANE":"２９巷","ALLEY":"１９弄","HOUSE_NO":"１２號","E_COORD97":167659.16,"N_COORD97":2541701.2400000002,"ADDRESS":"大成路二段２９巷１９弄１２號","OBJECTID":214419},"geometry":{"x":167659.16000000015,"y":2541701.2400000021}},{"attributes":{"ID":214421,"DIS_CODE":0,"TOWNNAME":"南區","LI":"府南里","LIN":"28鄰","STREET":"大成路","SECT":"二段","MAREA":" ","LANE":"２９巷","ALLEY":"１９弄","HOUSE_NO":"５號","E_COORD97":167646.91,"N_COORD97":2541684.0499999998,"ADDRESS":"大成路二段２９巷１９弄５號","OBJECTID":214420},"geometry":{"x":167646.91000000108,"y":2541684.0500000007}},{"attributes":{"ID":214422,"DIS_CODE":0,"TOWNNAME":"南區","LI":"府南里","LIN":"28鄰","STREET":"大成路","SECT":"二段","MAREA":" ","LANE":"２９巷","ALLEY":"１９弄","HOUSE_NO":"６號","E_COORD97":167659.89999999999,"N_COORD97":2541683.7200000002,"ADDRESS":"大成路二段２９巷１９弄６號","OBJECTID":214421},"geometry":{"x":167659.90000000037,"y":2541683.7200000007}},{"attributes":{"ID":214423,"DIS_CODE":0,"TOWNNAME":"南區","LI":"府南里","LIN":"28鄰","STREET":"大成路","SECT":"二段","MAREA":" ","LANE":"２９巷","ALLEY":"１９弄","HOUSE_NO":"７號","E_COORD97":167646.57999999999,"N_COORD97":2541689.2599999998,"ADDRESS":"大成路二段２９巷１９弄７號","OBJECTID":214422},"geometry":{"x":167646.58000000194,"y":2541689.2599999998}},{"attributes":{"ID":214424,"DIS_CODE":0,"TOWNNAME":"南區","LI":"府南里","LIN":"28鄰","STREET":"大成路","SECT":"二段","MAREA":" ","LANE":"２９巷","ALLEY":"１９弄","HOUSE_NO":"８號","E_COORD97":167659.48999999999,"N_COORD97":2541688.7599999998,"ADDRESS":"大成路二段２９巷１９弄８號","OBJECTID":214423},"geometry":{"x":167659.49000000115,"y":2541688.7599999998}},{"attributes":{"ID":214425,"DIS_CODE":0,"TOWNNAME":"南區","LI":"府南里","LIN":"28鄰","STREET":"大成路","SECT":"二段","MAREA":" ","LANE":"２９巷","ALLEY":"１９弄","HOUSE_NO":"９號","E_COORD97":167646.91,"N_COORD97":2541695.79,"ADDRESS":"大成路二段２９巷１９弄９號","OBJECTID":214424},"geometry":{"x":167646.91000000108,"y":2541695.7900000028}},{"attributes":{"ID":214426,"DIS_CODE":0,"TOWNNAME":"南區","LI":"府南里","LIN":"28鄰","STREET":"大成路","SECT":"二段","MAREA":" ","LANE":"２９巷","ALLEY":"１９弄","HOUSE_NO":"１號","E_COORD97":167641.04000000001,"N_COORD97":2541670.9100000001,"ADDRESS":"大成路二段２９巷１９弄１號","OBJECTID":214425},"geometry":{"x":167641.04000000004,"y":2541670.9100000001}},{"attributes":{"ID":214427,"DIS_CODE":0,"TOWNNAME":"南區","LI":"府南里","LIN":"28鄰","STREET":"大成路","SECT":"二段","MAREA":" ","LANE":"２９巷","ALLEY":"１９弄","HOUSE_NO":"２號","E_COORD97":167663.20999999999,"N_COORD97":2541672.1499999999,"ADDRESS":"大成路二段２９巷１９弄２號","OBJECTID":214426},"geometry":{"x":167663.21000000089,"y":2541672.1500000022}},{"attributes":{"ID":214428,"DIS_CODE":0,"TOWNNAME":"南區","LI":"府南里","LIN":"28鄰","STREET":"大成路","SECT":"二段","MAREA":" ","LANE":"２９巷","ALLEY":"１９弄","HOUSE_NO":"３號","E_COORD97":167646.57999999999,"N_COORD97":2541671,"ADDRESS":"大成路二段２９巷１９弄３號","OBJECTID":214427},"geometry":{"x":167646.58000000194,"y":2541671}},{"attributes":{"ID":214429,"DIS_CODE":0,"TOWNNAME":"歸仁區","LI":"媽廟里","LIN":"28鄰","STREET":"保大路","SECT":"一段","MAREA":" ","LANE":"１５２巷","ALLEY":"８弄","HOUSE_NO":"２１號","E_COORD97":177795.57999999999,"N_COORD97":2544077.7200000002,"ADDRESS":"保大路一段１５２巷８弄２１號","OBJECTID":214428},"geometry":{"x":177795.58000000007,"y":2544077.7200000044}},{"attributes":{"ID":214430,"DIS_CODE":0,"TOWNNAME":"歸仁區","LI":"媽廟里","LIN":"28鄰","STREET":"保大路","SECT":"一段","MAREA":" ","LANE":"１５２巷","ALLEY":"８弄","HOUSE_NO":"４１號","E_COORD97":177854.07999999999,"N_COORD97":2544083.7200000002,"ADDRESS":"保大路一段１５２巷８弄４１號","OBJECTID":214429},"geometry":{"x":177854.08000000101,"y":2544083.7200000007}},{"attributes":{"ID":214431,"DIS_CODE":0,"TOWNNAME":"歸仁區","LI":"媽廟里","LIN":"28鄰","STREET":"保大路","SECT":"一段","MAREA":" ","LANE":"１５２巷","ALLEY":"８弄","HOUSE_NO":"１１號","E_COORD97":177769.98000000001,"N_COORD97":2544074.7200000002,"ADDRESS":"保大路一段１５２巷８弄１１號","OBJECTID":214430},"geometry":{"x":177769.98000000138,"y":2544074.7200000025}},{"attributes":{"ID":214432,"DIS_CODE":0,"TOWNNAME":"歸仁區","LI":"媽廟里","LIN":"28鄰","STREET":"保大路","SECT":"一段","MAREA":" ","LANE":"１５２巷","ALLEY":"８弄","HOUSE_NO":"２７號","E_COORD97":177811.98000000001,"N_COORD97":2544079.7200000002,"ADDRESS":"保大路一段１５２巷８弄２７號","OBJECTID":214431},"geometry":{"x":177811.97999999952,"y":2544079.7200000007}},{"attributes":{"ID":214433,"DIS_CODE":0,"TOWNNAME":"南區","LI":"竹溪里","LIN":"9鄰","STREET":"南門路","SECT":" ","MAREA":" ","LANE":" ","ALLEY":" ","HOUSE_NO":"２８５號","E_COORD97":168360.10999999999,"N_COORD97":2542033.9300000002,"ADDRESS":"南門路２８５號","OBJECTID":214432},"geometry":{"x":168360.11000000034,"y":2542033.9299999997}},{"attributes":{"ID":214434,"DIS_CODE":0,"TOWNNAME":"南區","LI":"金華里","LIN":"9鄰","STREET":"慶南街","SECT":" ","MAREA":" ","LANE":" ","ALLEY":" ","HOUSE_NO":"１３７號","E_COORD97":166941.01000000001,"N_COORD97":2542172.6699999999,"ADDRESS":"慶南街１３７號","OBJECTID":214433},"geometry":{"x":166941.00999999978,"y":2542172.6700000018}},{"attributes":{"ID":214435,"DIS_CODE":0,"TOWNNAME":"南區","LI":"金華里","LIN":"9鄰","STREET":"慶南街","SECT":" ","MAREA":" ","LANE":" ","ALLEY":" ","HOUSE_NO":"１３７之１號","E_COORD97":166945.92999999999,"N_COORD97":2542177.04,"ADDRESS":"慶南街１３７之１號","OBJECTID":214434},"geometry":{"x":166945.93000000063,"y":2542177.0399999991}},{"attributes":{"ID":214436,"DIS_CODE":0,"TOWNNAME":"東區","LI":"裕農里","LIN":"9鄰","STREET":"裕農路","SECT":" ","MAREA":" ","LANE":" ","ALLEY":" ","HOUSE_NO":"４６１號","E_COORD97":171252.16,"N_COORD97":2543187.79,"ADDRESS":"裕農路４６１號","OBJECTID":214435},"geometry":{"x":171252.16000000108,"y":2543187.790000001}},{"attributes":{"ID":214437,"DIS_CODE":0,"TOWNNAME":"東區","LI":"裕農里","LIN":"9鄰","STREET":"裕農路","SECT":" ","MAREA":" ","LANE":" ","ALLEY":" ","HOUSE_NO":"５０１號","E_COORD97":171321.70999999999,"N_COORD97":2543212.54,"ADDRESS":"裕農路５０１號","OBJECTID":214436},"geometry":{"x":171321.70999999996,"y":2543212.5399999972}},{"attributes":{"ID":214438,"DIS_CODE":0,"TOWNNAME":"歸仁區","LI":"媽廟里","LIN":"28鄰","STREET":"保大路","SECT":"一段","MAREA":" ","LANE":"１５２巷","ALLEY":"８弄","HOUSE_NO":"４３號","E_COORD97":177858.17999999999,"N_COORD97":2544083.7200000002,"ADDRESS":"保大路一段１５２巷８弄４３號","OBJECTID":214437},"geometry":{"x":177858.18000000063,"y":2544083.7200000007}},{"attributes":{"ID":214439,"DIS_CODE":0,"TOWNNAME":"歸仁區","LI":"媽廟里","LIN":"28鄰","STREET":"保大路","SECT":"一段","MAREA":" ","LANE":"１５２巷","ALLEY":"８弄","HOUSE_NO":"４８號","E_COORD97":177833.48000000001,"N_COORD97":2544068.7200000002,"ADDRESS":"保大路一段１５２巷８弄４８號","OBJECTID":214438},"geometry":{"x":177833.48000000045,"y":2544068.7200000025}},{"attributes":{"ID":214440,"DIS_CODE":0,"TOWNNAME":"歸仁區","LI":"媽廟里","LIN":"28鄰","STREET":"保大路","SECT":"一段","MAREA":" ","LANE":"１５２巷","ALLEY":"８弄","HOUSE_NO":"２３號","E_COORD97":177800.78,"N_COORD97":2544078.7200000002,"ADDRESS":"保大路一段１５２巷８弄２３號","OBJECTID":214439},"geometry":{"x":177800.78000000026,"y":2544078.7200000025}},{"attributes":{"ID":214441,"DIS_CODE":0,"TOWNNAME":"關廟區","LI":"新埔里","LIN":"9鄰","STREET":"忠孝街","SECT":" ","MAREA":" ","LANE":"３４０巷","ALLEY":" ","HOUSE_NO":"１２號","E_COORD97":181227.44330099999,"N_COORD97":2541035.4736199998,"ADDRESS":"忠孝街３４０巷１２號","OBJECTID":214440},"geometry":{"x":181227.44330100156,"y":2541035.4736220017}},{"attributes":{"ID":214442,"DIS_CODE":0,"TOWNNAME":"將軍區","LI":"三吉里","LIN":"2鄰","STREET":" ","SECT":" ","MAREA":"三吉","LANE":" ","ALLEY":" ","HOUSE_NO":"８號","E_COORD97":161332.5,"N_COORD97":2567686.2400000002,"ADDRESS":"三吉８號","OBJECTID":214441},"geometry":{"x":161332.50000000186,"y":2567686.2400000002}},{"attributes":{"ID":214443,"DIS_CODE":0,"TOWNNAME":"將軍區","LI":"三吉里","LIN":"2鄰","STREET":" ","SECT":" ","MAREA":"三吉","LANE":" ","ALLEY":" ","HOUSE_NO":"９之１號","E_COORD97":161375.41,"N_COORD97":2567713.6000000001,"ADDRESS":"三吉９之１號","OBJECTID":214442},"geometry":{"x":161375.41000000015,"y":2567713.5999999996}},{"attributes":{"ID":214444,"DIS_CODE":0,"TOWNNAME":"將軍區","LI":"三吉里","LIN":"2鄰","STREET":" ","SECT":" ","MAREA":"三吉","LANE":" ","ALLEY":" ","HOUSE_NO":"９號","E_COORD97":161355.31,"N_COORD97":2567681.4100000001,"ADDRESS":"三吉９號","OBJECTID":214443},"geometry":{"x":161355.30999999866,"y":2567681.4100000001}},{"attributes":{"ID":214445,"DIS_CODE":0,"TOWNNAME":"白河區","LI":"竹門里","LIN":"2鄰","STREET":" ","SECT":" ","MAREA":"竹子門","LANE":" ","ALLEY":" ","HOUSE_NO":"１６號","E_COORD97":193619.07000000001,"N_COORD97":2585986.8900000001,"ADDRESS":"竹子門１６號","OBJECTID":214444},"geometry":{"x":193619.07000000216,"y":2585986.8900000006}},{"attributes":{"ID":214446,"DIS_CODE":0,"TOWNNAME":"白河區","LI":"竹門里","LIN":"2鄰","STREET":" ","SECT":" ","MAREA":"竹子門","LANE":" ","ALLEY":" ","HOUSE_NO":"１７之１號","E_COORD97":193586.84,"N_COORD97":2585992.6800000002,"ADDRESS":"竹子門１７之１號","OBJECTID":214445},"geometry":{"x":193586.84000000078,"y":2585992.6800000016}},{"attributes":{"ID":214447,"DIS_CODE":0,"TOWNNAME":"歸仁區","LI":"媽廟里","LIN":"28鄰","STREET":"保大路","SECT":"一段","MAREA":" ","LANE":"１５２巷","ALLEY":"８弄","HOUSE_NO":"３２號","E_COORD97":177791.48000000001,"N_COORD97":2544065.7200000002,"ADDRESS":"保大路一段１５２巷８弄３２號","OBJECTID":214446},"geometry":{"x":177791.48000000045,"y":2544065.7200000025}},{"attributes":{"ID":214448,"DIS_CODE":0,"TOWNNAME":"歸仁區","LI":"媽廟里","LIN":"28鄰","STREET":"保大路","SECT":"一段","MAREA":" ","LANE":"１５２巷","ALLEY":"８弄","HOUSE_NO":"３９號","E_COORD97":177849.98000000001,"N_COORD97":2544083.7200000002,"ADDRESS":"保大路一段１５２巷８弄３９號","OBJECTID":214447},"geometry":{"x":177849.98000000138,"y":2544083.7200000007}},{"attributes":{"ID":214449,"DIS_CODE":0,"TOWNNAME":"歸仁區","LI":"媽廟里","LIN":"28鄰","STREET":"保大路","SECT":"一段","MAREA":" ","LANE":"１５２巷","ALLEY":"８弄","HOUSE_NO":"３６號","E_COORD97":177801.67999999999,"N_COORD97":2544066.7200000002,"ADDRESS":"保大路一段１５２巷８弄３６號","OBJECTID":214448},"geometry":{"x":177801.68000000063,"y":2544066.7200000007}},{"attributes":{"ID":214450,"DIS_CODE":0,"TOWNNAME":"歸仁區","LI":"媽廟里","LIN":"28鄰","STREET":"保大路","SECT":"一段","MAREA":" ","LANE":"１５２巷","ALLEY":"８弄","HOUSE_NO":"１７號","E_COORD97":177786.38,"N_COORD97":2544076.7200000002,"ADDRESS":"保大路一段１５２巷８弄１７號","OBJECTID":214449},"geometry":{"x":177786.37999999989,"y":2544076.7200000007}},{"attributes":{"ID":214451,"DIS_CODE":0,"TOWNNAME":"歸仁區","LI":"媽廟里","LIN":"28鄰","STREET":"保大路","SECT":"一段","MAREA":" ","LANE":"１５２巷","ALLEY":"８弄","HOUSE_NO":"３０號","E_COORD97":177787.38,"N_COORD97":2544064.7200000002,"ADDRESS":"保大路一段１５２巷８弄３０號","OBJECTID":214450},"geometry":{"x":177787.38000000082,"y":2544064.7200000025}},{"attributes":{"ID":214452,"DIS_CODE":0,"TOWNNAME":"歸仁區","LI":"媽廟里","LIN":"28鄰","STREET":"保大路","SECT":"一段","MAREA":" ","LANE":"１５２巷","ALLEY":"８弄","HOUSE_NO":"３３號","E_COORD97":177830.48000000001,"N_COORD97":2544081.7200000002,"ADDRESS":"保大路一段１５２巷８弄３３號","OBJECTID":214451},"geometry":{"x":177830.48000000045,"y":2544081.7200000025}},{"attributes":{"ID":214453,"DIS_CODE":0,"TOWNNAME":"歸仁區","LI":"媽廟里","LIN":"28鄰","STREET":"保大路","SECT":"一段","MAREA":" ","LANE":"１５２巷","ALLEY":"８弄","HOUSE_NO":"４６號","E_COORD97":177824.28,"N_COORD97":2544068.7200000002,"ADDRESS":"保大路一段１５２巷８弄４６號","OBJECTID":214452},"geometry":{"x":177824.28000000026,"y":2544068.7200000025}},{"attributes":{"ID":214454,"DIS_CODE":0,"TOWNNAME":"歸仁區","LI":"媽廟里","LIN":"28鄰","STREET":"保大路","SECT":"一段","MAREA":" ","LANE":"１５２巷","ALLEY":"８弄","HOUSE_NO":"１９號","E_COORD97":177790.48000000001,"N_COORD97":2544077.7200000002,"ADDRESS":"保大路一段１５２巷８弄１９號","OBJECTID":214453},"geometry":{"x":177790.48000000138,"y":2544077.7200000044}},{"attributes":{"ID":214455,"DIS_CODE":0,"TOWNNAME":"歸仁區","LI":"媽廟里","LIN":"28鄰","STREET":"保大路","SECT":"一段","MAREA":" ","LANE":"１５２巷","ALLEY":"８弄","HOUSE_NO":"３７號","E_COORD97":177842.78,"N_COORD97":2544082.7200000002,"ADDRESS":"保大路一段１５２巷８弄３７號","OBJECTID":214454},"geometry":{"x":177842.78000000119,"y":2544082.7200000025}},{"attributes":{"ID":214456,"DIS_CODE":0,"TOWNNAME":"歸仁區","LI":"媽廟里","LIN":"28鄰","STREET":"保大路","SECT":"一段","MAREA":" ","LANE":"１５２巷","ALLEY":"８弄","HOUSE_NO":"３４號","E_COORD97":177796.57999999999,"N_COORD97":2544065.7200000002,"ADDRESS":"保大路一段１５２巷８弄３４號","OBJECTID":214455},"geometry":{"x":177796.58000000101,"y":2544065.7200000025}},{"attributes":{"ID":214457,"DIS_CODE":0,"TOWNNAME":"歸仁區","LI":"媽廟里","LIN":"28鄰","STREET":"保大路","SECT":"一段","MAREA":" ","LANE":"１５２巷","ALLEY":"８弄","HOUSE_NO":"４０號","E_COORD97":177812.98000000001,"N_COORD97":2544067.7200000002,"ADDRESS":"保大路一段１５２巷８弄４０號","OBJECTID":214456},"geometry":{"x":177812.98000000045,"y":2544067.7200000044}},{"attributes":{"ID":214458,"DIS_CODE":0,"TOWNNAME":"歸仁區","LI":"媽廟里","LIN":"28鄰","STREET":"保大路","SECT":"一段","MAREA":" ","LANE":"１５２巷","ALLEY":"８弄","HOUSE_NO":"１５號","E_COORD97":177779.17999999999,"N_COORD97":2544075.7200000002,"ADDRESS":"保大路一段１５２巷８弄１５號","OBJECTID":214457},"geometry":{"x":177779.1799999997,"y":2544075.7200000025}},{"attributes":{"ID":214459,"DIS_CODE":0,"TOWNNAME":"歸仁區","LI":"媽廟里","LIN":"28鄰","STREET":"保大路","SECT":"一段","MAREA":" ","LANE":"１５２巷","ALLEY":"８弄","HOUSE_NO":"４２號","E_COORD97":177821.17999999999,"N_COORD97":2544067.7200000002,"ADDRESS":"保大路一段１５２巷８弄４２號","OBJECTID":214458},"geometry":{"x":177821.1799999997,"y":2544067.7200000044}},{"attributes":{"ID":214460,"DIS_CODE":0,"TOWNNAME":"歸仁區","LI":"媽廟里","LIN":"28鄰","STREET":"保大路","SECT":"一段","MAREA":" ","LANE":"１５２巷","ALLEY":"８弄","HOUSE_NO":"５０號","E_COORD97":177836.57999999999,"N_COORD97":2544069.7200000002,"ADDRESS":"保大路一段１５２巷８弄５０號","OBJECTID":214459},"geometry":{"x":177836.58000000101,"y":2544069.7200000007}},{"attributes":{"ID":214461,"DIS_CODE":0,"TOWNNAME":"歸仁區","LI":"媽廟里","LIN":"28鄰","STREET":"保大路","SECT":"一段","MAREA":" ","LANE":"１５２巷","ALLEY":"８弄","HOUSE_NO":"２５號","E_COORD97":177805.88,"N_COORD97":2544078.7200000002,"ADDRESS":"保大路一段１５２巷８弄２５號","OBJECTID":214460},"geometry":{"x":177805.88000000082,"y":2544078.7200000025}},{"attributes":{"ID":214462,"DIS_CODE":0,"TOWNNAME":"歸仁區","LI":"媽廟里","LIN":"28鄰","STREET":"保大路","SECT":"一段","MAREA":" ","LANE":"１５２巷","ALLEY":"８弄","HOUSE_NO":"３５號","E_COORD97":177836.67999999999,"N_COORD97":2544081.7200000002,"ADDRESS":"保大路一段１５２巷８弄３５號","OBJECTID":214461},"geometry":{"x":177836.6799999997,"y":2544081.7200000025}},{"attributes":{"ID":214463,"DIS_CODE":0,"TOWNNAME":"歸仁區","LI":"媽廟里","LIN":"28鄰","STREET":"保大路","SECT":"一段","MAREA":" ","LANE":"１５２巷","ALLEY":"８弄","HOUSE_NO":"３１號","E_COORD97":177824.38,"N_COORD97":2544080.7200000002,"ADDRESS":"保大路一段１５２巷８弄３１號","OBJECTID":214462},"geometry":{"x":177824.38000000082,"y":2544080.7200000007}},{"attributes":{"ID":214464,"DIS_CODE":0,"TOWNNAME":"安南區","LI":"新順里","LIN":"9鄰","STREET":"安生街","SECT":" ","MAREA":" ","LANE":" ","ALLEY":" ","HOUSE_NO":"６７號","E_COORD97":169610.22,"N_COORD97":2549482.0099999998,"ADDRESS":"安生街６７號","OBJECTID":214463},"geometry":{"x":169610.22000000067,"y":2549482.0099999998}},{"attributes":{"ID":214465,"DIS_CODE":0,"TOWNNAME":"善化區","LI":"東昌里","LIN":"6鄰","STREET":" ","SECT":" ","MAREA":"東勢寮","LANE":" ","ALLEY":" ","HOUSE_NO":"６７號","E_COORD97":180498.85000000001,"N_COORD97":2561850.5099999998,"ADDRESS":"東勢寮６７號","OBJECTID":214464},"geometry":{"x":180498.8499999987,"y":2561850.5100000035}},{"attributes":{"ID":214466,"DIS_CODE":0,"TOWNNAME":"白河區","LI":"竹門里","LIN":"2鄰","STREET":" ","SECT":" ","MAREA":"竹子門","LANE":" ","ALLEY":" ","HOUSE_NO":"１７號","E_COORD97":193594.42000000001,"N_COORD97":2586006.6899999999,"ADDRESS":"竹子門１７號","OBJECTID":214465},"geometry":{"x":193594.42000000086,"y":2586006.6900000013}},{"attributes":{"ID":214467,"DIS_CODE":0,"TOWNNAME":"白河區","LI":"竹門里","LIN":"2鄰","STREET":" ","SECT":" ","MAREA":"竹子門","LANE":" ","ALLEY":" ","HOUSE_NO":"１９號","E_COORD97":193560.39000000001,"N_COORD97":2585992.1299999999,"ADDRESS":"竹子門１９號","OBJECTID":214466},"geometry":{"x":193560.3900000006,"y":2585992.1300000008}},{"attributes":{"ID":214468,"DIS_CODE":0,"TOWNNAME":"白河區","LI":"竹門里","LIN":"2鄰","STREET":" ","SECT":" ","MAREA":"竹子門","LANE":" ","ALLEY":" ","HOUSE_NO":"２０之１號","E_COORD97":193557.35000000001,"N_COORD97":2586038.7999999998,"ADDRESS":"竹子門２０之１號","OBJECTID":214467},"geometry":{"x":193557.35000000056,"y":2586038.8000000007}},{"attributes":{"ID":214469,"DIS_CODE":0,"TOWNNAME":"白河區","LI":"竹門里","LIN":"2鄰","STREET":" ","SECT":" ","MAREA":"竹子門","LANE":" ","ALLEY":" ","HOUSE_NO":"２０號","E_COORD97":193578.22,"N_COORD97":2586029.2999999998,"ADDRESS":"竹子門２０號","OBJECTID":214468},"geometry":{"x":193578.21999999881,"y":2586029.3000000007}},{"attributes":{"ID":214470,"DIS_CODE":0,"TOWNNAME":"白河區","LI":"竹門里","LIN":"2鄰","STREET":" ","SECT":" ","MAREA":"竹子門","LANE":" ","ALLEY":" ","HOUSE_NO":"２１號","E_COORD97":193618.89000000001,"N_COORD97":2586032.9700000002,"ADDRESS":"竹子門２１號","OBJECTID":214469},"geometry":{"x":193618.88999999966,"y":2586032.9700000025}},{"attributes":{"ID":214471,"DIS_CODE":0,"TOWNNAME":"白河區","LI":"竹門里","LIN":"2鄰","STREET":" ","SECT":" ","MAREA":"竹子門","LANE":" ","ALLEY":" ","HOUSE_NO":"２２號","E_COORD97":193620.95999999999,"N_COORD97":2586056.4900000002,"ADDRESS":"竹子門２２號","OBJECTID":214470},"geometry":{"x":193620.95999999903,"y":2586056.4900000021}},{"attributes":{"ID":214472,"DIS_CODE":0,"TOWNNAME":"白河區","LI":"竹門里","LIN":"2鄰","STREET":" ","SECT":" ","MAREA":"竹子門","LANE":" ","ALLEY":" ","HOUSE_NO":"２３號","E_COORD97":193608.26000000001,"N_COORD97":2586065.27,"ADDRESS":"竹子門２３號","OBJECTID":214471},"geometry":{"x":193608.25999999978,"y":2586065.2699999996}},{"attributes":{"ID":214473,"DIS_CODE":0,"TOWNNAME":"白河區","LI":"竹門里","LIN":"2鄰","STREET":" ","SECT":" ","MAREA":"竹子門","LANE":" ","ALLEY":" ","HOUSE_NO":"２４號","E_COORD97":193567.87,"N_COORD97":2586055.4399999999,"ADDRESS":"竹子門２４號","OBJECTID":214472},"geometry":{"x":193567.87000000104,"y":2586055.4400000013}},{"attributes":{"ID":214474,"DIS_CODE":0,"TOWNNAME":"白河區","LI":"竹門里","LIN":"2鄰","STREET":" ","SECT":" ","MAREA":"竹子門","LANE":" ","ALLEY":" ","HOUSE_NO":"２５之１號","E_COORD97":193543.32999999999,"N_COORD97":2586015.98,"ADDRESS":"竹子門２５之１號","OBJECTID":214473},"geometry":{"x":193543.33000000007,"y":2586015.9800000023}},{"attributes":{"ID":214475,"DIS_CODE":0,"TOWNNAME":"白河區","LI":"竹門里","LIN":"2鄰","STREET":" ","SECT":" ","MAREA":"竹子門","LANE":" ","ALLEY":" ","HOUSE_NO":"２５號","E_COORD97":193537.64999999999,"N_COORD97":2586035.1699999999,"ADDRESS":"竹子門２５號","OBJECTID":214474},"geometry":{"x":193537.6500000013,"y":2586035.1699999999}},{"attributes":{"ID":214476,"DIS_CODE":0,"TOWNNAME":"白河區","LI":"竹門里","LIN":"2鄰","STREET":" ","SECT":" ","MAREA":"竹子門","LANE":" ","ALLEY":" ","HOUSE_NO":"２６號","E_COORD97":193537.82999999999,"N_COORD97":2586061.5899999999,"ADDRESS":"竹子門２６號","OBJECTID":214475},"geometry":{"x":193537.83000000101,"y":2586061.5900000017}},{"attributes":{"ID":214477,"DIS_CODE":0,"TOWNNAME":"白河區","LI":"竹門里","LIN":"2鄰","STREET":" ","SECT":" ","MAREA":"竹子門","LANE":" ","ALLEY":" ","HOUSE_NO":"２７號","E_COORD97":193532.69,"N_COORD97":2586067.0600000001,"ADDRESS":"竹子門２７號","OBJECTID":214476},"geometry":{"x":193532.69000000041,"y":2586067.0600000005}},{"attributes":{"ID":214478,"DIS_CODE":0,"TOWNNAME":"歸仁區","LI":"媽廟里","LIN":"28鄰","STREET":"保大路","SECT":"一段","MAREA":" ","LANE":"１５２巷","ALLEY":"８弄","HOUSE_NO":"１３號","E_COORD97":177775.07999999999,"N_COORD97":2544075.7200000002,"ADDRESS":"保大路一段１５２巷８弄１３號","OBJECTID":214477},"geometry":{"x":177775.08000000007,"y":2544075.7200000025}},{"attributes":{"ID":214479,"DIS_CODE":0,"TOWNNAME":"歸仁區","LI":"歸仁里","LIN":"28鄰","STREET":"中山路","SECT":"一段","MAREA":" ","LANE":"２巷","ALLEY":"１弄","HOUSE_NO":"１１號","E_COORD97":179600.03,"N_COORD97":2540355.5699999998,"ADDRESS":"中山路一段２巷１弄１１號","OBJECTID":214478},"geometry":{"x":179600.03000000212,"y":2540355.570000004}},{"attributes":{"ID":214480,"DIS_CODE":0,"TOWNNAME":"歸仁區","LI":"歸仁里","LIN":"28鄰","STREET":"中山路","SECT":"一段","MAREA":" ","LANE":"２巷","ALLEY":"３弄","HOUSE_NO":"２號","E_COORD97":179646.07999999999,"N_COORD97":2540378.5699999998,"ADDRESS":"中山路一段２巷３弄２號","OBJECTID":214479},"geometry":{"x":179646.08000000007,"y":2540378.5700000003}},{"attributes":{"ID":214481,"DIS_CODE":0,"TOWNNAME":"歸仁區","LI":"歸仁里","LIN":"28鄰","STREET":"中山路","SECT":"一段","MAREA":" ","LANE":"２巷","ALLEY":"１弄","HOUSE_NO":"１８號","E_COORD97":179590.92999999999,"N_COORD97":2540370.5699999998,"ADDRESS":"中山路一段２巷１弄１８號","OBJECTID":214480},"geometry":{"x":179590.9299999997,"y":2540370.5700000022}},{"attributes":{"ID":214482,"DIS_CODE":0,"TOWNNAME":"新營區","LI":"民榮里","LIN":"28鄰","STREET":"復興路","SECT":" ","MAREA":" ","LANE":"５１１巷","ALLEY":"６５弄","HOUSE_NO":"３號","E_COORD97":178131.73999999999,"N_COORD97":2578103.2400000002,"ADDRESS":"復興路５１１巷６５弄３號","OBJECTID":214481},"geometry":{"x":178131.74000000022,"y":2578103.2400000021}},{"attributes":{"ID":214483,"DIS_CODE":0,"TOWNNAME":"新營區","LI":"民榮里","LIN":"28鄰","STREET":"復興路","SECT":" ","MAREA":" ","LANE":"５１１巷","ALLEY":"６５弄","HOUSE_NO":"１０號","E_COORD97":178117.53,"N_COORD97":2578099.9900000002,"ADDRESS":"復興路５１１巷６５弄１０號","OBJECTID":214482},"geometry":{"x":178117.53000000026,"y":2578099.9900000002}},{"attributes":{"ID":214484,"DIS_CODE":0,"TOWNNAME":"新營區","LI":"民榮里","LIN":"28鄰","STREET":"復興路","SECT":" ","MAREA":" ","LANE":"５１１巷","ALLEY":"６５弄","HOUSE_NO":"３之６號","E_COORD97":178157.82999999999,"N_COORD97":2578116.4700000002,"ADDRESS":"復興路５１１巷６５弄３之６號","OBJECTID":214483},"geometry":{"x":178157.83000000007,"y":2578116.4700000025}},{"attributes":{"ID":214485,"DIS_CODE":0,"TOWNNAME":"東區","LI":"圍下里","LIN":"9鄰","STREET":"勝利路","SECT":" ","MAREA":" ","LANE":" ","ALLEY":" ","HOUSE_NO":"８５號之１","E_COORD97":169799.38,"N_COORD97":2543600.0899999999,"ADDRESS":"勝利路８５號之１","OBJECTID":214484},"geometry":{"x":169799.38000000082,"y":2543600.0900000017}},{"attributes":{"ID":214486,"DIS_CODE":0,"TOWNNAME":"東區","LI":"中西里","LIN":"9鄰","STREET":"勝利路","SECT":" ","MAREA":" ","LANE":" ","ALLEY":" ","HOUSE_NO":"５６號","E_COORD97":169822.48000000001,"N_COORD97":2543573.9500000002,"ADDRESS":"勝利路５６號","OBJECTID":214485},"geometry":{"x":169822.48000000045,"y":2543573.9500000011}},{"attributes":{"ID":214487,"DIS_CODE":0,"TOWNNAME":"安南區","LI":"城北里","LIN":"9鄰","STREET":"安中路","SECT":"六段","MAREA":" ","LANE":" ","ALLEY":" ","HOUSE_NO":"５９８號","E_COORD97":160824.97,"N_COORD97":2551505.6899999999,"ADDRESS":"安中路六段５９８號","OBJECTID":214486},"geometry":{"x":160824.96999999974,"y":2551505.6900000013}},{"attributes":{"ID":214488,"DIS_CODE":0,"TOWNNAME":"安南區","LI":"城北里","LIN":"9鄰","STREET":"安中路","SECT":"六段","MAREA":" ","LANE":" ","ALLEY":" ","HOUSE_NO":"６００號","E_COORD97":160824.01999999999,"N_COORD97":2551509.6800000002,"ADDRESS":"安中路六段６００號","OBJECTID":214487},"geometry":{"x":160824.02000000048,"y":2551509.6800000016}},{"attributes":{"ID":214489,"DIS_CODE":0,"TOWNNAME":"新營區","LI":"民榮里","LIN":"28鄰","STREET":"復興路","SECT":" ","MAREA":" ","LANE":"５１１巷","ALLEY":"６５弄","HOUSE_NO":"６號","E_COORD97":178112.25,"N_COORD97":2578108.8700000001,"ADDRESS":"復興路５１１巷６５弄６號","OBJECTID":214488},"geometry":{"x":178112.25000000093,"y":2578108.870000001}},{"attributes":{"ID":214490,"DIS_CODE":0,"TOWNNAME":"新營區","LI":"民榮里","LIN":"28鄰","STREET":"復興路","SECT":" ","MAREA":" ","LANE":"５１１巷","ALLEY":"６５弄","HOUSE_NO":"２之２號","E_COORD97":178113.84,"N_COORD97":2578122.2200000002,"ADDRESS":"復興路５１１巷６５弄２之２號","OBJECTID":214489},"geometry":{"x":178113.83999999985,"y":2578122.2200000007}},{"attributes":{"ID":214491,"DIS_CODE":0,"TOWNNAME":"新營區","LI":"民榮里","LIN":"28鄰","STREET":"復興路","SECT":" ","MAREA":" ","LANE":"５１１巷","ALLEY":"６５弄","HOUSE_NO":"２號","E_COORD97":178112.35000000001,"N_COORD97":2578117.73,"ADDRESS":"復興路５１１巷６５弄２號","OBJECTID":214490},"geometry":{"x":178112.35000000056,"y":2578117.7300000023}},{"attributes":{"ID":214492,"DIS_CODE":0,"TOWNNAME":"善化區","LI":"坐駕里","LIN":"9鄰","STREET":"青年路","SECT":" ","MAREA":" ","LANE":" ","ALLEY":" ","HOUSE_NO":"１０號","E_COORD97":177905.14999999999,"N_COORD97":2558564.5,"ADDRESS":"青年路１０號","OBJECTID":214491},"geometry":{"x":177905.15000000037,"y":2558564.5}},{"attributes":{"ID":214493,"DIS_CODE":0,"TOWNNAME":"善化區","LI":"光文里","LIN":"9鄰","STREET":"民生路","SECT":" ","MAREA":" ","LANE":" ","ALLEY":" ","HOUSE_NO":"６號","E_COORD97":178898.82000000001,"N_COORD97":2559041.5099999998,"ADDRESS":"民生路６號","OBJECTID":214492},"geometry":{"x":178898.8200000003,"y":2559041.5100000016}},{"attributes":{"ID":214494,"DIS_CODE":0,"TOWNNAME":"善化區","LI":"光文里","LIN":"9鄰","STREET":"光文路","SECT":" ","MAREA":" ","LANE":" ","ALLEY":" ","HOUSE_NO":"５號","E_COORD97":178897.29999999999,"N_COORD97":2559056.2799999998,"ADDRESS":"光文路５號","OBJECTID":214493},"geometry":{"x":178897.29999999981,"y":2559056.2799999993}},{"attributes":{"ID":214495,"DIS_CODE":0,"TOWNNAME":"善化區","LI":"文昌里","LIN":"9鄰","STREET":"自由路","SECT":" ","MAREA":" ","LANE":" ","ALLEY":" ","HOUSE_NO":"４８號","E_COORD97":177299.26999999999,"N_COORD97":2558914,"ADDRESS":"自由路４８號","OBJECTID":214494},"geometry":{"x":177299.27000000048,"y":2558914}},{"attributes":{"ID":214496,"DIS_CODE":0,"TOWNNAME":"善化區","LI":"文昌里","LIN":"9鄰","STREET":"平等路","SECT":" ","MAREA":" ","LANE":" ","ALLEY":" ","HOUSE_NO":"９號","E_COORD97":177306,"N_COORD97":2558951.25,"ADDRESS":"平等路９號","OBJECTID":214495},"geometry":{"x":177306,"y":2558951.2500000019}},{"attributes":{"ID":214497,"DIS_CODE":0,"TOWNNAME":"新營區","LI":"民榮里","LIN":"28鄰","STREET":"復興路","SECT":" ","MAREA":" ","LANE":"５１１巷","ALLEY":"６５弄","HOUSE_NO":"８號","E_COORD97":178114.34,"N_COORD97":2578105.54,"ADDRESS":"復興路５１１巷６５弄８號","OBJECTID":214496},"geometry":{"x":178114.34000000078,"y":2578105.5399999991}},{"attributes":{"ID":214498,"DIS_CODE":0,"TOWNNAME":"新營區","LI":"南興里","LIN":"28鄰","STREET":"建業路","SECT":" ","MAREA":" ","LANE":"１１１巷","ALLEY":"８弄","HOUSE_NO":"４號","E_COORD97":178464.03,"N_COORD97":2577439.3700000001,"ADDRESS":"建業路１１１巷８弄４號","OBJECTID":214497},"geometry":{"x":178464.03000000026,"y":2577439.3700000029}},{"attributes":{"ID":214499,"DIS_CODE":0,"TOWNNAME":"關廟區","LI":"東勢里","LIN":"28鄰","STREET":"東榮街","SECT":" ","MAREA":" ","LANE":"１２７巷","ALLEY":"５弄","HOUSE_NO":"８號","E_COORD97":182200.92999999999,"N_COORD97":2539418.1099999999,"ADDRESS":"東榮街１２７巷５弄８號","OBJECTID":214498},"geometry":{"x":182200.93000000063,"y":2539418.1099999994}},{"attributes":{"ID":214500,"DIS_CODE":0,"TOWNNAME":"關廟區","LI":"東勢里","LIN":"28鄰","STREET":"東榮街","SECT":" ","MAREA":" ","LANE":"１２７巷","ALLEY":"５弄","HOUSE_NO":"１６號","E_COORD97":182203.28,"N_COORD97":2539434.1099999999,"ADDRESS":"東榮街１２７巷５弄１６號","OBJECTID":214499},"geometry":{"x":182203.28000000026,"y":2539434.1099999994}},{"attributes":{"ID":214501,"DIS_CODE":0,"TOWNNAME":"東區","LI":"裕聖里","LIN":"15鄰","STREET":"裕信路","SECT":" ","MAREA":" ","LANE":" ","ALLEY":" ","HOUSE_NO":"３３０之５號","E_COORD97":172566.98000000001,"N_COORD97":2542390.48,"ADDRESS":"裕信路３３０之５號","OBJECTID":214500},"geometry":{"x":172566.98000000045,"y":2542390.4799999986}},{"attributes":{"ID":214502,"DIS_CODE":0,"TOWNNAME":"東區","LI":"裕聖里","LIN":"15鄰","STREET":"裕信路","SECT":" ","MAREA":" ","LANE":" ","ALLEY":" ","HOUSE_NO":"３３０之３號","E_COORD97":172570.92999999999,"N_COORD97":2542388.6400000001,"ADDRESS":"裕信路３３０之３號","OBJECTID":214501},"geometry":{"x":172570.93000000063,"y":2542388.6400000006}},{"attributes":{"ID":214503,"DIS_CODE":0,"TOWNNAME":"善化區","LI":"田寮里","LIN":"9鄰","STREET":" ","SECT":" ","MAREA":"六分寮","LANE":" ","ALLEY":" ","HOUSE_NO":"９９號","E_COORD97":178632.76000000001,"N_COORD97":2561467,"ADDRESS":"六分寮９９號","OBJECTID":214502},"geometry":{"x":178632.75999999978,"y":2561467}},{"attributes":{"ID":214504,"DIS_CODE":0,"TOWNNAME":"白河區","LI":"竹門里","LIN":"2鄰","STREET":" ","SECT":" ","MAREA":"竹子門","LANE":" ","ALLEY":" ","HOUSE_NO":"２８之１５號","E_COORD97":193417.51000000001,"N_COORD97":2586108.5499999998,"ADDRESS":"竹子門２８之１０號","OBJECTID":214503},"geometry":{"x":193417.51000000071,"y":2586108.5500000007}},{"attributes":{"ID":214505,"DIS_CODE":0,"TOWNNAME":"白河區","LI":"竹門里","LIN":"2鄰","STREET":" ","SECT":" ","MAREA":"竹子門","LANE":" ","ALLEY":" ","HOUSE_NO":"２８之１１號","E_COORD97":193428.94,"N_COORD97":2586098.6499999999,"ADDRESS":"竹子門２８之１１號","OBJECTID":214504},"geometry":{"x":193428.94000000134,"y":2586098.6500000022}},{"attributes":{"ID":214506,"DIS_CODE":0,"TOWNNAME":"白河區","LI":"竹門里","LIN":"2鄰","STREET":" ","SECT":" ","MAREA":"竹子門","LANE":" ","ALLEY":" ","HOUSE_NO":"２８之１２號","E_COORD97":193427.69,"N_COORD97":2586121.21,"ADDRESS":"竹子門２８之１２號","OBJECTID":214505},"geometry":{"x":193427.69000000041,"y":2586121.2100000009}},{"attributes":{"ID":214507,"DIS_CODE":0,"TOWNNAME":"白河區","LI":"竹門里","LIN":"2鄰","STREET":" ","SECT":" ","MAREA":"竹子門","LANE":" ","ALLEY":" ","HOUSE_NO":"２８之１３號","E_COORD97":193441.73999999999,"N_COORD97":2586085.23,"ADDRESS":"竹子門２８之１３號","OBJECTID":214506},"geometry":{"x":193441.74000000115,"y":2586085.2300000023}},{"attributes":{"ID":214508,"DIS_CODE":0,"TOWNNAME":"白河區","LI":"竹門里","LIN":"2鄰","STREET":" ","SECT":" ","MAREA":"竹子門","LANE":" ","ALLEY":" ","HOUSE_NO":"２８之１號","E_COORD97":193510.95000000001,"N_COORD97":2586118.5600000001,"ADDRESS":"竹子門２８之１號","OBJECTID":214507},"geometry":{"x":193510.95000000019,"y":2586118.5600000005}},{"attributes":{"ID":214509,"DIS_CODE":0,"TOWNNAME":"白河區","LI":"竹門里","LIN":"2鄰","STREET":" ","SECT":" ","MAREA":"竹子門","LANE":" ","ALLEY":" ","HOUSE_NO":"２８之２０號","E_COORD97":193455.14000000001,"N_COORD97":2586123.8599999999,"ADDRESS":"竹子門２８之２０號","OBJECTID":214508},"geometry":{"x":193455.14000000153,"y":2586123.8600000013}},{"attributes":{"ID":214510,"DIS_CODE":0,"TOWNNAME":"善化區","LI":"什乃里","LIN":"9鄰","STREET":" ","SECT":" ","MAREA":"什乃","LANE":" ","ALLEY":" ","HOUSE_NO":"７８號","E_COORD97":176152.87,"N_COORD97":2560357,"ADDRESS":"什乃７８號","OBJECTID":214509},"geometry":{"x":176152.87000000197,"y":2560357.0000000019}},{"attributes":{"ID":214511,"DIS_CODE":0,"TOWNNAME":"善化區","LI":"東隆里","LIN":"9鄰","STREET":" ","SECT":" ","MAREA":"東勢寮","LANE":" ","ALLEY":" ","HOUSE_NO":"２１２號之６","E_COORD97":179987.09,"N_COORD97":2561230.27,"ADDRESS":"東勢寮２１２號之６","OBJECTID":214510},"geometry":{"x":179987.08999999985,"y":2561230.2699999996}},{"attributes":{"ID":214512,"DIS_CODE":0,"TOWNNAME":"善化區","LI":"東隆里","LIN":"9鄰","STREET":" ","SECT":" ","MAREA":"東勢寮","LANE":" ","ALLEY":" ","HOUSE_NO":"２６９號","E_COORD97":179952.07000000001,"N_COORD97":2561151.7599999998,"ADDRESS":"東勢寮２６９號","OBJECTID":214511},"geometry":{"x":179952.0700000003,"y":2561151.7600000016}},{"attributes":{"ID":214513,"DIS_CODE":0,"TOWNNAME":"善化區","LI":"六德里","LIN":"9鄰","STREET":" ","SECT":" ","MAREA":"六分寮","LANE":" ","ALLEY":" ","HOUSE_NO":"２７１號","E_COORD97":178592.85000000001,"N_COORD97":2561663.5,"ADDRESS":"六分寮２７１號","OBJECTID":214512},"geometry":{"x":178592.84999999963,"y":2561663.5}},{"attributes":{"ID":214514,"DIS_CODE":0,"TOWNNAME":"關廟區","LI":"東勢里","LIN":"28鄰","STREET":"東榮街","SECT":" ","MAREA":" ","LANE":"１２７巷","ALLEY":"５弄","HOUSE_NO":"１９號","E_COORD97":182183.67999999999,"N_COORD97":2539469.1099999999,"ADDRESS":"東榮街１２７巷５弄１９號","OBJECTID":214513},"geometry":{"x":182183.68000000063,"y":2539469.1099999994}},{"attributes":{"ID":214515,"DIS_CODE":0,"TOWNNAME":"善化區","LI":"牛庄里","LIN":"9鄰","STREET":" ","SECT":" ","MAREA":"牛庄","LANE":" ","ALLEY":" ","HOUSE_NO":"８０號","E_COORD97":180101.56,"N_COORD97":2559937,"ADDRESS":"牛庄８０號","OBJECTID":214514},"geometry":{"x":180101.56000000052,"y":2559937}},{"attributes":{"ID":214516,"DIS_CODE":0,"TOWNNAME":"善化區","LI":"溪美里","LIN":"9鄰","STREET":" ","SECT":" ","MAREA":"溪尾","LANE":" ","ALLEY":" ","HOUSE_NO":"８３號之２","E_COORD97":176718.89000000001,"N_COORD97":2561341.27,"ADDRESS":"溪尾８３號之２","OBJECTID":214515},"geometry":{"x":176718.8900000006,"y":2561341.2700000014}},{"attributes":{"ID":214517,"DIS_CODE":0,"TOWNNAME":"善化區","LI":"胡厝里","LIN":"9鄰","STREET":" ","SECT":" ","MAREA":"胡厝寮","LANE":" ","ALLEY":" ","HOUSE_NO":"２１９之５號","E_COORD97":175095.13,"N_COORD97":2560416.77,"ADDRESS":"胡厝寮２１９之５號","OBJECTID":214516},"geometry":{"x":175095.13000000082,"y":2560416.7699999996}},{"attributes":{"ID":214518,"DIS_CODE":0,"TOWNNAME":"善化區","LI":"胡家里","LIN":"9鄰","STREET":" ","SECT":" ","MAREA":"胡厝寮","LANE":" ","ALLEY":" ","HOUSE_NO":"３５號之１","E_COORD97":175383.85000000001,"N_COORD97":2560459.27,"ADDRESS":"胡厝寮３５號之１","OBJECTID":214517},"geometry":{"x":175383.84999999963,"y":2560459.2700000014}},{"attributes":{"ID":214519,"DIS_CODE":0,"TOWNNAME":"善化區","LI":"東隆里","LIN":"9鄰","STREET":" ","SECT":" ","MAREA":"東勢寮","LANE":" ","ALLEY":" ","HOUSE_NO":"２１５號之１","E_COORD97":179954.16,"N_COORD97":2561440.27,"ADDRESS":"東勢寮２１５號之１","OBJECTID":214518},"geometry":{"x":179954.16000000015,"y":2561440.2699999996}},{"attributes":{"ID":214520,"DIS_CODE":0,"TOWNNAME":"善化區","LI":"胡厝里","LIN":"9鄰","STREET":" ","SECT":" ","MAREA":"胡厝寮","LANE":" ","ALLEY":" ","HOUSE_NO":"２１９號之６","E_COORD97":175091.07999999999,"N_COORD97":2560413.52,"ADDRESS":"胡厝寮２１９號之６","OBJECTID":214519},"geometry":{"x":175091.08000000007,"y":2560413.5200000014}},{"attributes":{"ID":214521,"DIS_CODE":0,"TOWNNAME":"關廟區","LI":"東勢里","LIN":"28鄰","STREET":"東榮街","SECT":" ","MAREA":" ","LANE":"１２７巷","ALLEY":"５弄","HOUSE_NO":"１０號","E_COORD97":182202.57999999999,"N_COORD97":2539425.1099999999,"ADDRESS":"東榮街１２７巷５弄１０號","OBJECTID":214520},"geometry":{"x":182202.58000000007,"y":2539425.1099999994}},{"attributes":{"ID":214522,"DIS_CODE":0,"TOWNNAME":"關廟區","LI":"東勢里","LIN":"28鄰","STREET":"東榮街","SECT":" ","MAREA":" ","LANE":"１２７巷","ALLEY":"５弄","HOUSE_NO":"５號","E_COORD97":182180.92999999999,"N_COORD97":2539434.1099999999,"ADDRESS":"東榮街１２７巷５弄５號","OBJECTID":214521},"geometry":{"x":182180.93000000063,"y":2539434.1099999994}},{"attributes":{"ID":214523,"DIS_CODE":0,"TOWNNAME":"關廟區","LI":"香洋里","LIN":"28鄰","STREET":"大富街","SECT":" ","MAREA":" ","LANE":"３４３巷","ALLEY":"６弄","HOUSE_NO":"１號","E_COORD97":180969.26999999999,"N_COORD97":2539879.25,"ADDRESS":"大富街３４３巷６弄１號","OBJECTID":214522},"geometry":{"x":180969.27000000048,"y":2539879.2499999981}},{"attributes":{"ID":214524,"DIS_CODE":0,"TOWNNAME":"善化區","LI":"文昌里","LIN":"9鄰","STREET":"平等路","SECT":" ","MAREA":" ","LANE":" ","ALLEY":" ","HOUSE_NO":"７號","E_COORD97":177311.54000000001,"N_COORD97":2558952.75,"ADDRESS":"平等路７號","OBJECTID":214523},"geometry":{"x":177311.54000000097,"y":2558952.75}},{"attributes":{"ID":214525,"DIS_CODE":0,"TOWNNAME":"關廟區","LI":"東勢里","LIN":"28鄰","STREET":"東榮街","SECT":" ","MAREA":" ","LANE":"１２７巷","ALLEY":"５弄","HOUSE_NO":"２２號","E_COORD97":182202.17999999999,"N_COORD97":2539449.1099999999,"ADDRESS":"東榮街１２７巷５弄２２號","OBJECTID":214524},"geometry":{"x":182202.18000000156,"y":2539449.1099999975}},{"attributes":{"ID":214526,"DIS_CODE":0,"TOWNNAME":"善化區","LI":"什乃里","LIN":"9鄰","STREET":" ","SECT":" ","MAREA":"什乃","LANE":" ","ALLEY":" ","HOUSE_NO":"８０號","E_COORD97":176167.92999999999,"N_COORD97":2560342.25,"ADDRESS":"什乃８０號","OBJECTID":214525},"geometry":{"x":176167.93000000063,"y":2560342.25}},{"attributes":{"ID":214527,"DIS_CODE":0,"TOWNNAME":"關廟區","LI":"東勢里","LIN":"28鄰","STREET":"東榮街","SECT":" ","MAREA":" ","LANE":"１２７巷","ALLEY":"５弄","HOUSE_NO":"１１號","E_COORD97":182183.38,"N_COORD97":2539449.1099999999,"ADDRESS":"東榮街１２７巷５弄１１號","OBJECTID":214526},"geometry":{"x":182183.37999999989,"y":2539449.1099999975}},{"attributes":{"ID":214528,"DIS_CODE":0,"TOWNNAME":"關廟區","LI":"東勢里","LIN":"28鄰","STREET":"東榮街","SECT":" ","MAREA":" ","LANE":"１２７巷","ALLEY":"５弄","HOUSE_NO":"３號","E_COORD97":182180.53,"N_COORD97":2539429.1099999999,"ADDRESS":"東榮街１２７巷５弄３號","OBJECTID":214527},"geometry":{"x":182180.53000000119,"y":2539429.1100000031}},{"attributes":{"ID":214529,"DIS_CODE":0,"TOWNNAME":"善化區","LI":"六分里","LIN":"9鄰","STREET":" ","SECT":" ","MAREA":"溪底寮","LANE":" ","ALLEY":" ","HOUSE_NO":"１８號之３","E_COORD97":177530.25,"N_COORD97":2561830.02,"ADDRESS":"溪底寮１８號之３","OBJECTID":214528},"geometry":{"x":177530.25000000093,"y":2561830.0200000033}},{"attributes":{"ID":214530,"DIS_CODE":0,"TOWNNAME":"關廟區","LI":"東勢里","LIN":"28鄰","STREET":"東榮街","SECT":" ","MAREA":" ","LANE":"１２７巷","ALLEY":"５弄","HOUSE_NO":"６號","E_COORD97":182200.92999999999,"N_COORD97":2539414.1099999999,"ADDRESS":"東榮街１２７巷５弄６號","OBJECTID":214529},"geometry":{"x":182200.93000000063,"y":2539414.1099999994}},{"attributes":{"ID":214531,"DIS_CODE":0,"TOWNNAME":"新營區","LI":"南興里","LIN":"28鄰","STREET":"建業路","SECT":" ","MAREA":" ","LANE":"１１１巷","ALLEY":"８弄","HOUSE_NO":"８號","E_COORD97":178463.98000000001,"N_COORD97":2577430.5099999998,"ADDRESS":"建業路１１１巷８弄８號","OBJECTID":214530},"geometry":{"x":178463.98000000045,"y":2577430.5100000016}},{"attributes":{"ID":214532,"DIS_CODE":0,"TOWNNAME":"新營區","LI":"民榮里","LIN":"28鄰","STREET":"復興路","SECT":" ","MAREA":" ","LANE":"５１１巷","ALLEY":"６５弄","HOUSE_NO":"１號","E_COORD97":178124.54000000001,"N_COORD97":2578116.5600000001,"ADDRESS":"復興路５１１巷６５弄１號","OBJECTID":214531},"geometry":{"x":178124.54000000004,"y":2578116.5600000005}},{"attributes":{"ID":214533,"DIS_CODE":0,"TOWNNAME":"新營區","LI":"民榮里","LIN":"28鄰","STREET":"復興路","SECT":" ","MAREA":" ","LANE":"５１１巷","ALLEY":"６５弄","HOUSE_NO":"３之１號","E_COORD97":178138.34,"N_COORD97":2578105.4900000002,"ADDRESS":"復興路５１１巷６５弄３之１號","OBJECTID":214532},"geometry":{"x":178138.34000000078,"y":2578105.4900000021}},{"attributes":{"ID":214534,"DIS_CODE":0,"TOWNNAME":"新營區","LI":"民榮里","LIN":"28鄰","STREET":"復興路","SECT":" ","MAREA":" ","LANE":"５１１巷","ALLEY":"６５弄","HOUSE_NO":"１之５號","E_COORD97":178145.51000000001,"N_COORD97":2578127.6000000001,"ADDRESS":"復興路５１１巷６５弄１之５號","OBJECTID":214533},"geometry":{"x":178145.51000000071,"y":2578127.6000000015}},{"attributes":{"ID":214535,"DIS_CODE":0,"TOWNNAME":"新營區","LI":"民榮里","LIN":"28鄰","STREET":"復興路","SECT":" ","MAREA":" ","LANE":"５１１巷","ALLEY":"６５弄","HOUSE_NO":"１之１號","E_COORD97":178188.95000000001,"N_COORD97":2578224.8399999999,"ADDRESS":"復興路５１１巷６５弄１之１號","OBJECTID":214534},"geometry":{"x":178188.95000000112,"y":2578224.8400000017}},{"attributes":{"ID":214536,"DIS_CODE":0,"TOWNNAME":"關廟區","LI":"東勢里","LIN":"28鄰","STREET":"東榮街","SECT":" ","MAREA":" ","LANE":"１２７巷","ALLEY":"５弄","HOUSE_NO":"１７號","E_COORD97":182183.67999999999,"N_COORD97":2539464.1099999999,"ADDRESS":"東榮街１２７巷５弄１７號","OBJECTID":214535},"geometry":{"x":182183.68000000063,"y":2539464.1100000013}},{"attributes":{"ID":214537,"DIS_CODE":0,"TOWNNAME":"關廟區","LI":"東勢里","LIN":"28鄰","STREET":"東榮街","SECT":" ","MAREA":" ","LANE":"１２７巷","ALLEY":"５弄","HOUSE_NO":"１３號","E_COORD97":182183.38,"N_COORD97":2539454.1099999999,"ADDRESS":"東榮街１２７巷５弄１３號","OBJECTID":214536},"geometry":{"x":182183.37999999989,"y":2539454.1100000013}},{"attributes":{"ID":214538,"DIS_CODE":0,"TOWNNAME":"善化區","LI":"六分里","LIN":"9鄰","STREET":" ","SECT":" ","MAREA":"溪底寮","LANE":" ","ALLEY":" ","HOUSE_NO":"２０號之３","E_COORD97":177625.79000000001,"N_COORD97":2561804.52,"ADDRESS":"溪底寮２０號之３","OBJECTID":214537},"geometry":{"x":177625.79000000004,"y":2561804.5199999996}},{"attributes":{"ID":214539,"DIS_CODE":0,"TOWNNAME":"關廟區","LI":"東勢里","LIN":"28鄰","STREET":"東榮街","SECT":" ","MAREA":" ","LANE":"１２７巷","ALLEY":"５弄","HOUSE_NO":"２８號","E_COORD97":182202.57999999999,"N_COORD97":2539459.1099999999,"ADDRESS":"東榮街１２７巷５弄２８號","OBJECTID":214538},"geometry":{"x":182202.58000000007,"y":2539459.1099999994}},{"attributes":{"ID":214540,"DIS_CODE":0,"TOWNNAME":"關廟區","LI":"東勢里","LIN":"28鄰","STREET":"東榮街","SECT":" ","MAREA":" ","LANE":"１２７巷","ALLEY":"５弄","HOUSE_NO":"２６號","E_COORD97":182202.57999999999,"N_COORD97":2539455.1099999999,"ADDRESS":"東榮街１２７巷５弄２６號","OBJECTID":214539},"geometry":{"x":182202.58000000007,"y":2539455.1099999994}},{"attributes":{"ID":214541,"DIS_CODE":0,"TOWNNAME":"關廟區","LI":"東勢里","LIN":"28鄰","STREET":"東榮街","SECT":" ","MAREA":" ","LANE":"１２７巷","ALLEY":"７弄","HOUSE_NO":"７號","E_COORD97":182228.13,"N_COORD97":2539419.1099999999,"ADDRESS":"東榮街１２７巷７弄７號","OBJECTID":214540},"geometry":{"x":182228.13000000175,"y":2539419.1100000013}},{"attributes":{"ID":214542,"DIS_CODE":0,"TOWNNAME":"善化區","LI":"什乃里","LIN":"9鄰","STREET":" ","SECT":" ","MAREA":"什乃","LANE":" ","ALLEY":" ","HOUSE_NO":"８３號","E_COORD97":176124.10999999999,"N_COORD97":2560341,"ADDRESS":"什乃８３號","OBJECTID":214541},"geometry":{"x":176124.11000000034,"y":2560341}},{"attributes":{"ID":214543,"DIS_CODE":0,"TOWNNAME":"善化區","LI":"什乃里","LIN":"9鄰","STREET":" ","SECT":" ","MAREA":"什乃","LANE":" ","ALLEY":" ","HOUSE_NO":"７７號","E_COORD97":176149.17999999999,"N_COORD97":2560308.75,"ADDRESS":"什乃７７號","OBJECTID":214542},"geometry":{"x":176149.18000000063,"y":2560308.75}},{"attributes":{"ID":214544,"DIS_CODE":0,"TOWNNAME":"善化區","LI":"六德里","LIN":"9鄰","STREET":" ","SECT":" ","MAREA":"六分寮","LANE":" ","ALLEY":" ","HOUSE_NO":"２６９之１號","E_COORD97":178633.35000000001,"N_COORD97":2561638.77,"ADDRESS":"六分寮２６９之１號","OBJECTID":214543},"geometry":{"x":178633.35000000056,"y":2561638.7700000014}},{"attributes":{"ID":214545,"DIS_CODE":0,"TOWNNAME":"善化區","LI":"什乃里","LIN":"9鄰","STREET":" ","SECT":" ","MAREA":"什乃","LANE":" ","ALLEY":" ","HOUSE_NO":"８２號之２","E_COORD97":176126.82000000001,"N_COORD97":2560303.77,"ADDRESS":"什乃８２號之２","OBJECTID":214544},"geometry":{"x":176126.82000000123,"y":2560303.7700000014}},{"attributes":{"ID":214546,"DIS_CODE":0,"TOWNNAME":"善化區","LI":"六分里","LIN":"9鄰","STREET":" ","SECT":" ","MAREA":"溪底寮","LANE":" ","ALLEY":" ","HOUSE_NO":"２１號","E_COORD97":177576.85999999999,"N_COORD97":2561813.27,"ADDRESS":"溪底寮２１號","OBJECTID":214545},"geometry":{"x":177576.86000000034,"y":2561813.2699999996}},{"attributes":{"ID":214547,"DIS_CODE":0,"TOWNNAME":"善化區","LI":"什乃里","LIN":"9鄰","STREET":" ","SECT":" ","MAREA":"什乃","LANE":" ","ALLEY":" ","HOUSE_NO":"８２號之３","E_COORD97":176125.10000000001,"N_COORD97":2560310.52,"ADDRESS":"什乃８２號之３","OBJECTID":214546},"geometry":{"x":176125.09999999963,"y":2560310.5199999996}},{"attributes":{"ID":214548,"DIS_CODE":0,"TOWNNAME":"善化區","LI":"什乃里","LIN":"9鄰","STREET":" ","SECT":" ","MAREA":"什乃","LANE":" ","ALLEY":" ","HOUSE_NO":"７３號","E_COORD97":176112.70999999999,"N_COORD97":2560382.5,"ADDRESS":"什乃７３號","OBJECTID":214547},"geometry":{"x":176112.70999999996,"y":2560382.5}},{"attributes":{"ID":214549,"DIS_CODE":0,"TOWNNAME":"白河區","LI":"竹門里","LIN":"9鄰","STREET":" ","SECT":" ","MAREA":"竹子門","LANE":" ","ALLEY":" ","HOUSE_NO":"１１３之２號","E_COORD97":193051.92000000001,"N_COORD97":2586098.2400000002,"ADDRESS":"竹子門１１３之２號","OBJECTID":214548},"geometry":{"x":193051.92000000086,"y":2586098.2400000021}},{"attributes":{"ID":214550,"DIS_CODE":0,"TOWNNAME":"關廟區","LI":"東勢里","LIN":"28鄰","STREET":"東榮街","SECT":" ","MAREA":" ","LANE":"１２７巷","ALLEY":"７弄","HOUSE_NO":"３號","E_COORD97":182227.73000000001,"N_COORD97":2539409.1099999999,"ADDRESS":"東榮街１２７巷７弄３號","OBJECTID":214549},"geometry":{"x":182227.73000000045,"y":2539409.1100000013}},{"attributes":{"ID":214551,"DIS_CODE":0,"TOWNNAME":"白河區","LI":"草店里","LIN":"9鄰","STREET":" ","SECT":" ","MAREA":"草店","LANE":" ","ALLEY":" ","HOUSE_NO":"１１４之２號","E_COORD97":191158.45000000001,"N_COORD97":2588271.2000000002,"ADDRESS":"草店１１４之２號","OBJECTID":214550},"geometry":{"x":191158.45000000112,"y":2588271.2000000011}},{"attributes":{"ID":214552,"DIS_CODE":0,"TOWNNAME":"白河區","LI":"竹門里","LIN":"2鄰","STREET":" ","SECT":" ","MAREA":"竹子門","LANE":" ","ALLEY":" ","HOUSE_NO":"２８之２號","E_COORD97":193450.17999999999,"N_COORD97":2586122.6400000001,"ADDRESS":"竹子門２８之２號","OBJECTID":214551},"geometry":{"x":193450.18000000063,"y":2586122.6400000025}},{"attributes":{"ID":214553,"DIS_CODE":0,"TOWNNAME":"白河區","LI":"竹門里","LIN":"2鄰","STREET":" ","SECT":" ","MAREA":"竹子門","LANE":" ","ALLEY":" ","HOUSE_NO":"２８之３號","E_COORD97":193460.26999999999,"N_COORD97":2586124.8399999999,"ADDRESS":"竹子門２８之３號","OBJECTID":214552},"geometry":{"x":193460.26999999955,"y":2586124.8400000017}},{"attributes":{"ID":214554,"DIS_CODE":0,"TOWNNAME":"白河區","LI":"竹門里","LIN":"2鄰","STREET":" ","SECT":" ","MAREA":"竹子門","LANE":" ","ALLEY":" ","HOUSE_NO":"２８之４號","E_COORD97":193468.32999999999,"N_COORD97":2586127.1499999999,"ADDRESS":"竹子門２８之４號","OBJECTID":214553},"geometry":{"x":193468.33000000101,"y":2586127.1500000004}},{"attributes":{"ID":214555,"DIS_CODE":0,"TOWNNAME":"白河區","LI":"竹門里","LIN":"2鄰","STREET":" ","SECT":" ","MAREA":"竹子門","LANE":" ","ALLEY":" ","HOUSE_NO":"２８之５號","E_COORD97":193433.72,"N_COORD97":2586121.71,"ADDRESS":"竹子門２８之５號","OBJECTID":214554},"geometry":{"x":193433.71999999974,"y":2586121.7100000009}},{"attributes":{"ID":214556,"DIS_CODE":0,"TOWNNAME":"白河區","LI":"竹門里","LIN":"2鄰","STREET":" ","SECT":" ","MAREA":"竹子門","LANE":" ","ALLEY":" ","HOUSE_NO":"２８之６號","E_COORD97":193438.29000000001,"N_COORD97":2586122.2999999998,"ADDRESS":"竹子門２８之６號","OBJECTID":214555},"geometry":{"x":193438.29000000097,"y":2586122.3000000026}},{"attributes":{"ID":214557,"DIS_CODE":0,"TOWNNAME":"白河區","LI":"竹門里","LIN":"2鄰","STREET":" ","SECT":" ","MAREA":"竹子門","LANE":" ","ALLEY":" ","HOUSE_NO":"２８之７號","E_COORD97":193422.16,"N_COORD97":2586120.4199999999,"ADDRESS":"竹子門２８之７號","OBJECTID":214556},"geometry":{"x":193422.16000000108,"y":2586120.4200000018}},{"attributes":{"ID":214558,"DIS_CODE":0,"TOWNNAME":"白河區","LI":"竹門里","LIN":"2鄰","STREET":" ","SECT":" ","MAREA":"竹子門","LANE":" ","ALLEY":" ","HOUSE_NO":"２８之８號","E_COORD97":193415.54999999999,"N_COORD97":2586119.96,"ADDRESS":"竹子門２８之８號","OBJECTID":214557},"geometry":{"x":193415.55000000075,"y":2586119.9600000009}},{"attributes":{"ID":214559,"DIS_CODE":0,"TOWNNAME":"白河區","LI":"竹門里","LIN":"2鄰","STREET":" ","SECT":" ","MAREA":"竹子門","LANE":" ","ALLEY":" ","HOUSE_NO":"２８號","E_COORD97":193533.92999999999,"N_COORD97":2586082.2400000002,"ADDRESS":"竹子門２８號","OBJECTID":214558},"geometry":{"x":193533.9299999997,"y":2586082.2400000002}},{"attributes":{"ID":214560,"DIS_CODE":0,"TOWNNAME":"白河區","LI":"竹門里","LIN":"2鄰","STREET":" ","SECT":" ","MAREA":"竹子門","LANE":" ","ALLEY":" ","HOUSE_NO":"３３之１號","E_COORD97":193593.48000000001,"N_COORD97":2586089.7200000002,"ADDRESS":"竹子門３３之１號","OBJECTID":214559},"geometry":{"x":193593.48000000045,"y":2586089.7200000007}},{"attributes":{"ID":214561,"DIS_CODE":0,"TOWNNAME":"善化區","LI":"胡家里","LIN":"2鄰","STREET":" ","SECT":" ","MAREA":"胡厝寮","LANE":" ","ALLEY":" ","HOUSE_NO":"１３號","E_COORD97":175586.75,"N_COORD97":2560758.25,"ADDRESS":"胡厝寮１３號","OBJECTID":214560},"geometry":{"x":175586.75,"y":2560758.2500000019}},{"attributes":{"ID":214562,"DIS_CODE":0,"TOWNNAME":"善化區","LI":"嘉北里","LIN":"2鄰","STREET":" ","SECT":" ","MAREA":"茄拔","LANE":" ","ALLEY":" ","HOUSE_NO":"１１號之１１","E_COORD97":181349.69,"N_COORD97":2559939.52,"ADDRESS":"茄拔１１號之１１","OBJECTID":214561},"geometry":{"x":181349.69000000041,"y":2559939.5200000014}},{"attributes":{"ID":214563,"DIS_CODE":0,"TOWNNAME":"善化區","LI":"胡厝里","LIN":"2鄰","STREET":" ","SECT":" ","MAREA":"胡厝寮","LANE":" ","ALLEY":" ","HOUSE_NO":"１７８號","E_COORD97":175148.17000000001,"N_COORD97":2560532,"ADDRESS":"胡厝寮１７８號","OBJECTID":214562},"geometry":{"x":175148.16999999993,"y":2560532.0000000037}},{"attributes":{"ID":214564,"DIS_CODE":0,"TOWNNAME":"善化區","LI":"嘉北里","LIN":"2鄰","STREET":" ","SECT":" ","MAREA":"茄拔","LANE":" ","ALLEY":" ","HOUSE_NO":"１４之６號","E_COORD97":181145.67999999999,"N_COORD97":2559982.77,"ADDRESS":"茄拔１４之６號","OBJECTID":214563},"geometry":{"x":181145.6799999997,"y":2559982.7699999996}},{"attributes":{"ID":214565,"DIS_CODE":0,"TOWNNAME":"善化區","LI":"東昌里","LIN":"2鄰","STREET":" ","SECT":" ","MAREA":"東勢寮","LANE":" ","ALLEY":" ","HOUSE_NO":"２１號之３","E_COORD97":180836.82999999999,"N_COORD97":2561925.27,"ADDRESS":"東勢寮２１號之３","OBJECTID":214564},"geometry":{"x":180836.82999999914,"y":2561925.2699999996}},{"attributes":{"ID":214566,"DIS_CODE":0,"TOWNNAME":"善化區","LI":"東隆里","LIN":"2鄰","STREET":" ","SECT":" ","MAREA":"東勢寮","LANE":" ","ALLEY":" ","HOUSE_NO":"１３８之１號","E_COORD97":180224,"N_COORD97":2561918.77,"ADDRESS":"東勢寮１３８之１號","OBJECTID":214565},"geometry":{"x":180224.00000000093,"y":2561918.7699999996}},{"attributes":{"ID":214567,"DIS_CODE":0,"TOWNNAME":"善化區","LI":"東昌里","LIN":"2鄰","STREET":" ","SECT":" ","MAREA":"東勢寮","LANE":" ","ALLEY":" ","HOUSE_NO":"１５之７號","E_COORD97":180837.95999999999,"N_COORD97":2561717.77,"ADDRESS":"東勢寮１５之７號","OBJECTID":214566},"geometry":{"x":180837.96000000089,"y":2561717.7700000014}},{"attributes":{"ID":214568,"DIS_CODE":0,"TOWNNAME":"善化區","LI":"什乃里","LIN":"2鄰","STREET":" ","SECT":" ","MAREA":"什乃","LANE":" ","ALLEY":" ","HOUSE_NO":"１８號之２２（該建物","E_COORD97":176210.31,"N_COORD97":2560789.8999999999,"ADDRESS":"什乃１８號之２２（該建物係農業設施不得設施）","OBJECTID":214567},"geometry":{"x":176210.31000000145,"y":2560789.9000000004}},{"attributes":{"ID":214569,"DIS_CODE":0,"TOWNNAME":"安南區","LI":"城北里","LIN":"9鄰","STREET":"尊安街","SECT":" ","MAREA":" ","LANE":" ","ALLEY":" ","HOUSE_NO":"３９號","E_COORD97":160886.07000000001,"N_COORD97":2551600.5600000001,"ADDRESS":"尊安街３９號","OBJECTID":214568},"geometry":{"x":160886.0700000003,"y":2551600.5600000005}},{"attributes":{"ID":214570,"DIS_CODE":0,"TOWNNAME":"安南區","LI":"城北里","LIN":"9鄰","STREET":"尊安街","SECT":" ","MAREA":" ","LANE":" ","ALLEY":" ","HOUSE_NO":"４１號","E_COORD97":160890.64999999999,"N_COORD97":2551601.3199999998,"ADDRESS":"尊安街４１號","OBJECTID":214569},"geometry":{"x":160890.65000000037,"y":2551601.3200000022}},{"attributes":{"ID":214571,"DIS_CODE":0,"TOWNNAME":"關廟區","LI":"東勢里","LIN":"28鄰","STREET":"旺萊路","SECT":" ","MAREA":" ","LANE":"４６６巷","ALLEY":"６弄","HOUSE_NO":"１２號","E_COORD97":182175.12,"N_COORD97":2539550.9700000002,"ADDRESS":"旺萊路４６６巷６弄１２號","OBJECTID":214570},"geometry":{"x":182175.12000000011,"y":2539550.9700000025}},{"attributes":{"ID":214572,"DIS_CODE":0,"TOWNNAME":"關廟區","LI":"東勢里","LIN":"28鄰","STREET":"東榮街","SECT":" ","MAREA":" ","LANE":"１２７巷","ALLEY":"７弄","HOUSE_NO":"６號","E_COORD97":182238.53,"N_COORD97":2539408.1099999999,"ADDRESS":"東榮街１２７巷７弄６號","OBJECTID":214571},"geometry":{"x":182238.53000000026,"y":2539408.1099999994}},{"attributes":{"ID":214573,"DIS_CODE":0,"TOWNNAME":"關廟區","LI":"東勢里","LIN":"28鄰","STREET":"東榮街","SECT":" ","MAREA":" ","LANE":"１２７巷","ALLEY":"５弄","HOUSE_NO":"２３號","E_COORD97":182183.67999999999,"N_COORD97":2539479.1099999999,"ADDRESS":"東榮街１２７巷５弄２３號","OBJECTID":214572},"geometry":{"x":182183.68000000063,"y":2539479.1099999994}},{"attributes":{"ID":214574,"DIS_CODE":0,"TOWNNAME":"關廟區","LI":"東勢里","LIN":"28鄰","STREET":"東榮街","SECT":" ","MAREA":" ","LANE":"１２７巷","ALLEY":"５弄","HOUSE_NO":"１號","E_COORD97":182180.53,"N_COORD97":2539424.1099999999,"ADDRESS":"東榮街１２７巷５弄１號","OBJECTID":214573},"geometry":{"x":182180.53000000119,"y":2539424.1099999994}},{"attributes":{"ID":214575,"DIS_CODE":0,"TOWNNAME":"歸仁區","LI":"歸仁里","LIN":"28鄰","STREET":"中山路","SECT":"一段","MAREA":" ","LANE":"２巷","ALLEY":"１弄","HOUSE_NO":"３號","E_COORD97":179628.48000000001,"N_COORD97":2540346.5699999998,"ADDRESS":"中山路一段２巷１弄３號","OBJECTID":214574},"geometry":{"x":179628.48000000045,"y":2540346.5700000022}},{"attributes":{"ID":214576,"DIS_CODE":0,"TOWNNAME":"歸仁區","LI":"歸仁里","LIN":"28鄰","STREET":"中山路","SECT":"一段","MAREA":" ","LANE":"２巷","ALLEY":"１弄","HOUSE_NO":"７號","E_COORD97":179614.17999999999,"N_COORD97":2540350.5699999998,"ADDRESS":"中山路一段２巷１弄７號","OBJECTID":214575},"geometry":{"x":179614.18000000063,"y":2540350.5700000022}},{"attributes":{"ID":214577,"DIS_CODE":0,"TOWNNAME":"歸仁區","LI":"歸仁里","LIN":"28鄰","STREET":"中山路","SECT":"一段","MAREA":" ","LANE":"２巷","ALLEY":"１弄","HOUSE_NO":"２號","E_COORD97":179638.78,"N_COORD97":2540354.5699999998,"ADDRESS":"中山路一段２巷１弄２號","OBJECTID":214576},"geometry":{"x":179638.78000000026,"y":2540354.5700000003}},{"attributes":{"ID":214578,"DIS_CODE":0,"TOWNNAME":"歸仁區","LI":"歸仁里","LIN":"28鄰","STREET":"中山路","SECT":"一段","MAREA":" ","LANE":"２巷","ALLEY":"１弄","HOUSE_NO":"１４號","E_COORD97":179604.23000000001,"N_COORD97":2540364.5699999998,"ADDRESS":"中山路一段２巷１弄１４號","OBJECTID":214577},"geometry":{"x":179604.23000000138,"y":2540364.5700000003}},{"attributes":{"ID":214579,"DIS_CODE":0,"TOWNNAME":"關廟區","LI":"新埔里","LIN":"8鄰","STREET":"新埔三街","SECT":" ","MAREA":" ","LANE":"１０１巷","ALLEY":" ","HOUSE_NO":"５號","E_COORD97":181149.262437,"N_COORD97":2541136.4385700002,"ADDRESS":"新埔三街１０１巷５號","OBJECTID":214578},"geometry":{"x":181149.26243699994,"y":2541136.4385669995}},{"attributes":{"ID":214580,"DIS_CODE":0,"TOWNNAME":"歸仁區","LI":"歸仁里","LIN":"28鄰","STREET":"中山路","SECT":"一段","MAREA":" ","LANE":"２巷","ALLEY":"３弄","HOUSE_NO":"１３號","E_COORD97":179601.23000000001,"N_COORD97":2540384.5699999998,"ADDRESS":"中山路一段２巷３弄１３號","OBJECTID":214579},"geometry":{"x":179601.23000000138,"y":2540384.5700000003}},{"attributes":{"ID":214581,"DIS_CODE":0,"TOWNNAME":"歸仁區","LI":"歸仁里","LIN":"28鄰","STREET":"中山路","SECT":"一段","MAREA":" ","LANE":"２巷","ALLEY":"１弄","HOUSE_NO":"１０號","E_COORD97":179618.53,"N_COORD97":2540361.5699999998,"ADDRESS":"中山路一段２巷１弄１０號","OBJECTID":214580},"geometry":{"x":179618.52999999933,"y":2540361.5700000003}},{"attributes":{"ID":214582,"DIS_CODE":0,"TOWNNAME":"歸仁區","LI":"歸仁里","LIN":"28鄰","STREET":"中山路","SECT":"一段","MAREA":" ","LANE":"２巷","ALLEY":"１弄","HOUSE_NO":"９號","E_COORD97":179606.98000000001,"N_COORD97":2540352.5699999998,"ADDRESS":"中山路一段２巷１弄９號","OBJECTID":214581},"geometry":{"x":179606.98000000045,"y":2540352.570000004}},{"attributes":{"ID":214583,"DIS_CODE":0,"TOWNNAME":"歸仁區","LI":"歸仁里","LIN":"28鄰","STREET":"中山路","SECT":"一段","MAREA":" ","LANE":"２巷","ALLEY":"３弄","HOUSE_NO":"１號","E_COORD97":179643.98000000001,"N_COORD97":2540371.5699999998,"ADDRESS":"中山路一段２巷３弄１號","OBJECTID":214582},"geometry":{"x":179643.98000000045,"y":2540371.5700000003}},{"attributes":{"ID":214584,"DIS_CODE":0,"TOWNNAME":"歸仁區","LI":"歸仁里","LIN":"28鄰","STREET":"中山路","SECT":"一段","MAREA":" ","LANE":"２巷","ALLEY":"３弄","HOUSE_NO":"３號","E_COORD97":179636.78,"N_COORD97":2540373.5699999998,"ADDRESS":"中山路一段２巷３弄３號","OBJECTID":214583},"geometry":{"x":179636.78000000026,"y":2540373.5700000022}},{"attributes":{"ID":214585,"DIS_CODE":0,"TOWNNAME":"歸仁區","LI":"歸仁里","LIN":"28鄰","STREET":"中山路","SECT":"一段","MAREA":" ","LANE":"２巷","ALLEY":"１弄","HOUSE_NO":"１３號","E_COORD97":179592.92999999999,"N_COORD97":2540357.5699999998,"ADDRESS":"中山路一段２巷１弄１３號","OBJECTID":214584},"geometry":{"x":179592.9299999997,"y":2540357.5700000003}},{"attributes":{"ID":214586,"DIS_CODE":0,"TOWNNAME":"歸仁區","LI":"歸仁里","LIN":"28鄰","STREET":"中山路","SECT":"一段","MAREA":" ","LANE":"２巷","ALLEY":"３７弄","HOUSE_NO":"８號","E_COORD97":179641.45999999999,"N_COORD97":2540666.25,"ADDRESS":"中山路一段２巷３７弄８號","OBJECTID":214585},"geometry":{"x":179641.46000000089,"y":2540666.2500000037}},{"attributes":{"ID":214587,"DIS_CODE":0,"TOWNNAME":"歸仁區","LI":"歸仁里","LIN":"28鄰","STREET":"中山路","SECT":"一段","MAREA":" ","LANE":"２巷","ALLEY":"１弄","HOUSE_NO":"１６號","E_COORD97":179598.13,"N_COORD97":2540367.5699999998,"ADDRESS":"中山路一段２巷１弄１６號","OBJECTID":214586},"geometry":{"x":179598.12999999989,"y":2540367.5700000003}},{"attributes":{"ID":214588,"DIS_CODE":0,"TOWNNAME":"官田區","LI":"東庄里","LIN":"9鄰","STREET":" ","SECT":" ","MAREA":"西庄","LANE":" ","ALLEY":" ","HOUSE_NO":"１５４號之１","E_COORD97":178194.07999999999,"N_COORD97":2565043.0299999998,"ADDRESS":"西庄１５４號之１","OBJECTID":214587},"geometry":{"x":178194.08000000194,"y":2565043.0299999993}},{"attributes":{"ID":214589,"DIS_CODE":0,"TOWNNAME":"官田區","LI":"東庄里","LIN":"9鄰","STREET":" ","SECT":" ","MAREA":"西庄","LANE":" ","ALLEY":" ","HOUSE_NO":"１５４號","E_COORD97":178182.64999999999,"N_COORD97":2565058.7000000002,"ADDRESS":"西庄１５４號","OBJECTID":214588},"geometry":{"x":178182.6500000013,"y":2565058.6999999993}},{"attributes":{"ID":214590,"DIS_CODE":0,"TOWNNAME":"官田區","LI":"東庄里","LIN":"9鄰","STREET":" ","SECT":" ","MAREA":"西庄","LANE":" ","ALLEY":" ","HOUSE_NO":"１５５號","E_COORD97":178159.19,"N_COORD97":2565047.8500000001,"ADDRESS":"西庄１５５號","OBJECTID":214589},"geometry":{"x":178159.19000000041,"y":2565047.8499999996}},{"attributes":{"ID":214591,"DIS_CODE":0,"TOWNNAME":"歸仁區","LI":"歸仁里","LIN":"28鄰","STREET":"中山路","SECT":"一段","MAREA":" ","LANE":"２巷","ALLEY":"３弄","HOUSE_NO":"１２號","E_COORD97":179617.63,"N_COORD97":2540387.5699999998,"ADDRESS":"中山路一段２巷３弄１２號","OBJECTID":214590},"geometry":{"x":179617.63000000175,"y":2540387.5700000022}},{"attributes":{"ID":214592,"DIS_CODE":0,"TOWNNAME":"官田區","LI":"隆田里","LIN":"9鄰","STREET":"仁愛街","SECT":" ","MAREA":" ","LANE":" ","ALLEY":" ","HOUSE_NO":"６號","E_COORD97":180003.95999999999,"N_COORD97":2565860.8799999999,"ADDRESS":"仁愛街６號","OBJECTID":214591},"geometry":{"x":180003.96000000089,"y":2565860.879999999}},{"attributes":{"ID":214593,"DIS_CODE":0,"TOWNNAME":"官田區","LI":"隆田里","LIN":"9鄰","STREET":"仁愛街","SECT":" ","MAREA":" ","LANE":" ","ALLEY":" ","HOUSE_NO":"４號","E_COORD97":180004.17000000001,"N_COORD97":2565856.7599999998,"ADDRESS":"仁愛街４號","OBJECTID":214592},"geometry":{"x":180004.17000000086,"y":2565856.7600000016}},{"attributes":{"ID":214594,"DIS_CODE":0,"TOWNNAME":"官田區","LI":"東庄里","LIN":"9鄰","STREET":" ","SECT":" ","MAREA":"西庄","LANE":" ","ALLEY":" ","HOUSE_NO":"１５６號","E_COORD97":178176.42000000001,"N_COORD97":2565042.04,"ADDRESS":"西庄１５６號","OBJECTID":214593},"geometry":{"x":178176.42000000179,"y":2565042.0399999991}},{"attributes":{"ID":214595,"DIS_CODE":0,"TOWNNAME":"官田區","LI":"東庄里","LIN":"9鄰","STREET":" ","SECT":" ","MAREA":"西庄","LANE":" ","ALLEY":" ","HOUSE_NO":"１５７號之２","E_COORD97":178156.67000000001,"N_COORD97":2565019.8799999999,"ADDRESS":"西庄１５７號之２","OBJECTID":214594},"geometry":{"x":178156.67000000086,"y":2565019.879999999}},{"attributes":{"ID":214596,"DIS_CODE":0,"TOWNNAME":"官田區","LI":"東庄里","LIN":"9鄰","STREET":" ","SECT":" ","MAREA":"西庄","LANE":" ","ALLEY":" ","HOUSE_NO":"１５７號之３","E_COORD97":178160.75,"N_COORD97":2565018.29,"ADDRESS":"西庄１５７號之３","OBJECTID":214595},"geometry":{"x":178160.75000000186,"y":2565018.290000001}},{"attributes":{"ID":214597,"DIS_CODE":0,"TOWNNAME":"官田區","LI":"東庄里","LIN":"9鄰","STREET":" ","SECT":" ","MAREA":"西庄","LANE":" ","ALLEY":" ","HOUSE_NO":"１５７號","E_COORD97":178150.29999999999,"N_COORD97":2565026.79,"ADDRESS":"西庄１５７號","OBJECTID":214596},"geometry":{"x":178150.30000000075,"y":2565026.7899999991}},{"attributes":{"ID":214598,"DIS_CODE":0,"TOWNNAME":"歸仁區","LI":"歸仁里","LIN":"28鄰","STREET":"中山路","SECT":"一段","MAREA":" ","LANE":"２巷","ALLEY":"３弄","HOUSE_NO":"１１號","E_COORD97":179607.32999999999,"N_COORD97":2540382.5699999998,"ADDRESS":"中山路一段２巷３弄１１號","OBJECTID":214597},"geometry":{"x":179607.33000000007,"y":2540382.5699999984}},{"attributes":{"ID":214599,"DIS_CODE":0,"TOWNNAME":"仁德區","LI":"上崙里","LIN":"9鄰","STREET":"德善路","SECT":" ","MAREA":" ","LANE":" ","ALLEY":" ","HOUSE_NO":"２９３號","E_COORD97":173946.01000000001,"N_COORD97":2538583.02,"ADDRESS":"德善路２９３號","OBJECTID":214598},"geometry":{"x":173946.00999999885,"y":2538583.0200000014}},{"attributes":{"ID":214600,"DIS_CODE":0,"TOWNNAME":"仁德區","LI":"上崙里","LIN":"9鄰","STREET":"德善路","SECT":" ","MAREA":" ","LANE":" ","ALLEY":" ","HOUSE_NO":"２９１之１５號","E_COORD97":173969.62,"N_COORD97":2538583.0499999998,"ADDRESS":"德善路２９１之１５號","OBJECTID":214599},"geometry":{"x":173969.62000000104,"y":2538583.0500000045}},{"attributes":{"ID":214601,"DIS_CODE":0,"TOWNNAME":"歸仁區","LI":"歸仁里","LIN":"28鄰","STREET":"中山路","SECT":"一段","MAREA":" ","LANE":"２巷","ALLEY":"３７弄","HOUSE_NO":"２０號","E_COORD97":179652.10999999999,"N_COORD97":2540710.25,"ADDRESS":"中山路一段２巷３７弄２０號","OBJECTID":214600},"geometry":{"x":179652.1100000022,"y":2540710.2500000037}}]}