{"displayFieldName":"TOWNNAME","fieldAliases":{"ID":"ID","DIS_CODE":"DIS_CODE","TOWNNAME":"TOWNNAME","LI":"LI","LIN":"LIN","STREET":"STREET","SECT":"SECT","MAREA":"MAREA","LANE":"LANE","ALLEY":"ALLEY","HOUSE_NO":"HOUSE_NO","E_COORD97":"E_COORD97","N_COORD97":"N_COORD97","ADDRESS":"ADDRESS","OBJECTID":"OBJECTID"},"geometryType":"esriGeometryPoint","spatialReference":{"wkid":102443,"latestWkid":3826},"fields":[{"name":"ID","type":"esriFieldTypeDouble","alias":"ID"},{"name":"DIS_CODE","type":"esriFieldTypeInteger","alias":"DIS_CODE"},{"name":"TOWNNAME","type":"esriFieldTypeString","alias":"TOWNNAME","length":8},{"name":"LI","type":"esriFieldTypeString","alias":"LI","length":8},{"name":"LIN","type":"esriFieldTypeString","alias":"LIN","length":12},{"name":"STREET","type":"esriFieldTypeString","alias":"STREET","length":20},{"name":"SECT","type":"esriFieldTypeString","alias":"SECT","length":8},{"name":"MAREA","type":"esriFieldTypeString","alias":"MAREA","length":12},{"name":"LANE","type":"esriFieldTypeString","alias":"LANE","length":10},{"name":"ALLEY","type":"esriFieldTypeString","alias":"ALLEY","length":10},{"name":"HOUSE_NO","type":"esriFieldTypeString","alias":"HOUSE_NO","length":20},{"name":"E_COORD97","type":"esriFieldTypeDouble","alias":"E_COORD97"},{"name":"N_COORD97","type":"esriFieldTypeDouble","alias":"N_COORD97"},{"name":"ADDRESS","type":"esriFieldTypeString","alias":"ADDRESS","length":50},{"name":"OBJECTID","type":"esriFieldTypeOID","alias":"OBJECTID"}],"features":[{"attributes":{"ID":21601,"DIS_CODE":0,"TOWNNAME":"西港區","LI":"南海里","LIN":"17鄰","STREET":" ","SECT":" ","MAREA":"東港","LANE":" ","ALLEY":" ","HOUSE_NO":"２３號之２","E_COORD97":167134.98999999999,"N_COORD97":2556406.8500000001,"ADDRESS":"東港２３號之２","OBJECTID":21601},"geometry":{"x":167134.99000000022,"y":2556406.8500000015}},{"attributes":{"ID":21602,"DIS_CODE":0,"TOWNNAME":"中西區","LI":"光賢里","LIN":"14鄰","STREET":"武聖路","SECT":" ","MAREA":" ","LANE":"６９巷","ALLEY":"４０弄","HOUSE_NO":"３０號十一樓之１７","E_COORD97":166628.06,"N_COORD97":2545203.8599999999,"ADDRESS":"武聖路６９巷４０弄３０號十一樓之１７","OBJECTID":21602},"geometry":{"x":166628.06000000052,"y":2545203.8599999994}},{"attributes":{"ID":21603,"DIS_CODE":0,"TOWNNAME":"西港區","LI":"南海里","LIN":"17鄰","STREET":" ","SECT":" ","MAREA":"東港","LANE":" ","ALLEY":" ","HOUSE_NO":"２３號之３","E_COORD97":167133.42999999999,"N_COORD97":2556398.3999999999,"ADDRESS":"東港２３號之３","OBJECTID":21603},"geometry":{"x":167133.4299999997,"y":2556398.4000000022}},{"attributes":{"ID":21604,"DIS_CODE":0,"TOWNNAME":"西港區","LI":"南海里","LIN":"17鄰","STREET":" ","SECT":" ","MAREA":"東港","LANE":" ","ALLEY":" ","HOUSE_NO":"２３號之４","E_COORD97":167134,"N_COORD97":2556390.5299999998,"ADDRESS":"東港２３號之４","OBJECTID":21604},"geometry":{"x":167134.00000000093,"y":2556390.5299999993}},{"attributes":{"ID":21605,"DIS_CODE":0,"TOWNNAME":"西港區","LI":"南海里","LIN":"17鄰","STREET":" ","SECT":" ","MAREA":"東港","LANE":" ","ALLEY":" ","HOUSE_NO":"２４號之１","E_COORD97":167096.54999999999,"N_COORD97":2556409.6200000001,"ADDRESS":"東港２４號之１","OBJECTID":21605},"geometry":{"x":167096.54999999981,"y":2556409.6200000048}},{"attributes":{"ID":21606,"DIS_CODE":0,"TOWNNAME":"西港區","LI":"南海里","LIN":"17鄰","STREET":" ","SECT":" ","MAREA":"東港","LANE":" ","ALLEY":" ","HOUSE_NO":"２４號","E_COORD97":167077.19,"N_COORD97":2556404.8399999999,"ADDRESS":"東港２４號","OBJECTID":21606},"geometry":{"x":167077.19000000134,"y":2556404.8400000017}},{"attributes":{"ID":21607,"DIS_CODE":0,"TOWNNAME":"中西區","LI":"光賢里","LIN":"14鄰","STREET":"武聖路","SECT":" ","MAREA":" ","LANE":"６９巷","ALLEY":"４０弄","HOUSE_NO":"３０號十一樓之１８","E_COORD97":166628.06,"N_COORD97":2545203.8599999999,"ADDRESS":"武聖路６９巷４０弄３０號十一樓之１８","OBJECTID":21607},"geometry":{"x":166628.06000000052,"y":2545203.8599999994}},{"attributes":{"ID":21608,"DIS_CODE":0,"TOWNNAME":"中西區","LI":"光賢里","LIN":"14鄰","STREET":"武聖路","SECT":" ","MAREA":" ","LANE":"６９巷","ALLEY":"４０弄","HOUSE_NO":"３０號十一樓之２","E_COORD97":166628.06,"N_COORD97":2545203.8599999999,"ADDRESS":"武聖路６９巷４０弄３０號十一樓之２","OBJECTID":21608},"geometry":{"x":166628.06000000052,"y":2545203.8599999994}},{"attributes":{"ID":21609,"DIS_CODE":0,"TOWNNAME":"安南區","LI":"安東里","LIN":"14鄰","STREET":"安和路","SECT":"一段","MAREA":" ","LANE":"２２０巷","ALLEY":"４４弄","HOUSE_NO":"４號","E_COORD97":169449.14999999999,"N_COORD97":2547947.1299999999,"ADDRESS":"安和路一段２２０巷４４弄４號","OBJECTID":21609},"geometry":{"x":169449.1500000013,"y":2547947.129999999}},{"attributes":{"ID":21610,"DIS_CODE":0,"TOWNNAME":"中西區","LI":"光賢里","LIN":"14鄰","STREET":"武聖路","SECT":" ","MAREA":" ","LANE":"６９巷","ALLEY":"４０弄","HOUSE_NO":"３０號十一樓之３","E_COORD97":166628.06,"N_COORD97":2545203.8599999999,"ADDRESS":"武聖路６９巷４０弄３０號十一樓之３","OBJECTID":21610},"geometry":{"x":166628.06000000052,"y":2545203.8599999994}},{"attributes":{"ID":21611,"DIS_CODE":0,"TOWNNAME":"中西區","LI":"光賢里","LIN":"14鄰","STREET":"武聖路","SECT":" ","MAREA":" ","LANE":"６９巷","ALLEY":"４０弄","HOUSE_NO":"３０號十一樓之４","E_COORD97":166628.06,"N_COORD97":2545203.8599999999,"ADDRESS":"武聖路６９巷４０弄３０號十一樓之４","OBJECTID":21611},"geometry":{"x":166628.06000000052,"y":2545203.8599999994}},{"attributes":{"ID":21612,"DIS_CODE":0,"TOWNNAME":"中西區","LI":"光賢里","LIN":"14鄰","STREET":"武聖路","SECT":" ","MAREA":" ","LANE":"６９巷","ALLEY":"４０弄","HOUSE_NO":"３０號十一樓之５","E_COORD97":166628.06,"N_COORD97":2545203.8599999999,"ADDRESS":"武聖路６９巷４０弄３０號十一樓之５","OBJECTID":21612},"geometry":{"x":166628.06000000052,"y":2545203.8599999994}},{"attributes":{"ID":21613,"DIS_CODE":0,"TOWNNAME":"中西區","LI":"光賢里","LIN":"14鄰","STREET":"武聖路","SECT":" ","MAREA":" ","LANE":"６９巷","ALLEY":"４０弄","HOUSE_NO":"３０號十一樓之６","E_COORD97":166628.06,"N_COORD97":2545203.8599999999,"ADDRESS":"武聖路６９巷４０弄３０號十一樓之６","OBJECTID":21613},"geometry":{"x":166628.06000000052,"y":2545203.8599999994}},{"attributes":{"ID":21614,"DIS_CODE":0,"TOWNNAME":"中西區","LI":"光賢里","LIN":"14鄰","STREET":"武聖路","SECT":" ","MAREA":" ","LANE":"６９巷","ALLEY":"４０弄","HOUSE_NO":"３０號十一樓之７","E_COORD97":166628.06,"N_COORD97":2545203.8599999999,"ADDRESS":"武聖路６９巷４０弄３０號十一樓之７","OBJECTID":21614},"geometry":{"x":166628.06000000052,"y":2545203.8599999994}},{"attributes":{"ID":21615,"DIS_CODE":0,"TOWNNAME":"中西區","LI":"光賢里","LIN":"14鄰","STREET":"武聖路","SECT":" ","MAREA":" ","LANE":"６９巷","ALLEY":"４０弄","HOUSE_NO":"３０號十一樓之８","E_COORD97":166628.06,"N_COORD97":2545203.8599999999,"ADDRESS":"武聖路６９巷４０弄３０號十一樓之８","OBJECTID":21615},"geometry":{"x":166628.06000000052,"y":2545203.8599999994}},{"attributes":{"ID":21616,"DIS_CODE":0,"TOWNNAME":"西港區","LI":"南海里","LIN":"17鄰","STREET":" ","SECT":" ","MAREA":"東港","LANE":" ","ALLEY":" ","HOUSE_NO":"２６號","E_COORD97":167089.85999999999,"N_COORD97":2556434.6800000002,"ADDRESS":"東港２６號","OBJECTID":21616},"geometry":{"x":167089.86000000034,"y":2556434.6799999978}},{"attributes":{"ID":21617,"DIS_CODE":0,"TOWNNAME":"西港區","LI":"南海里","LIN":"17鄰","STREET":" ","SECT":" ","MAREA":"東港","LANE":" ","ALLEY":" ","HOUSE_NO":"２７號之１","E_COORD97":167115.31,"N_COORD97":2556476.46,"ADDRESS":"東港２７號之１","OBJECTID":21617},"geometry":{"x":167115.30999999959,"y":2556476.4600000028}},{"attributes":{"ID":21618,"DIS_CODE":0,"TOWNNAME":"南區","LI":"金華里","LIN":"24鄰","STREET":"惠南街","SECT":" ","MAREA":" ","LANE":" ","ALLEY":" ","HOUSE_NO":"７９之１號","E_COORD97":166756.04999999999,"N_COORD97":2542255.6699999999,"ADDRESS":"惠南街７９之１號","OBJECTID":21618},"geometry":{"x":166756.04999999981,"y":2542255.6699999999}},{"attributes":{"ID":21619,"DIS_CODE":0,"TOWNNAME":"西港區","LI":"南海里","LIN":"17鄰","STREET":" ","SECT":" ","MAREA":"東港","LANE":" ","ALLEY":" ","HOUSE_NO":"２７號之２","E_COORD97":167187.97,"N_COORD97":2556419.7200000002,"ADDRESS":"東港２７號之２","OBJECTID":21619},"geometry":{"x":167187.97000000067,"y":2556419.7200000025}},{"attributes":{"ID":21620,"DIS_CODE":0,"TOWNNAME":"西港區","LI":"南海里","LIN":"17鄰","STREET":" ","SECT":" ","MAREA":"東港","LANE":" ","ALLEY":" ","HOUSE_NO":"２７號","E_COORD97":167114.75,"N_COORD97":2556452.8900000001,"ADDRESS":"東港２７號","OBJECTID":21620},"geometry":{"x":167114.74999999907,"y":2556452.8900000025}},{"attributes":{"ID":21621,"DIS_CODE":0,"TOWNNAME":"南區","LI":"金華里","LIN":"24鄰","STREET":"惠南街","SECT":" ","MAREA":" ","LANE":" ","ALLEY":" ","HOUSE_NO":"７９號","E_COORD97":166738.59,"N_COORD97":2542246.1400000001,"ADDRESS":"惠南街７９號","OBJECTID":21621},"geometry":{"x":166738.58999999985,"y":2542246.1400000006}},{"attributes":{"ID":21622,"DIS_CODE":0,"TOWNNAME":"安南區","LI":"溪頂里","LIN":"24鄰","STREET":"郡安路","SECT":"四段","MAREA":" ","LANE":" ","ALLEY":" ","HOUSE_NO":"８４號","E_COORD97":169041.70999999999,"N_COORD97":2547599.9900000002,"ADDRESS":"郡安路四段８４號","OBJECTID":21622},"geometry":{"x":169041.70999999996,"y":2547599.9900000002}},{"attributes":{"ID":21623,"DIS_CODE":0,"TOWNNAME":"安南區","LI":"溪頂里","LIN":"24鄰","STREET":"郡安路","SECT":"四段","MAREA":" ","LANE":" ","ALLEY":" ","HOUSE_NO":"８５號","E_COORD97":169037.39000000001,"N_COORD97":2547600.0800000001,"ADDRESS":"郡安路四段８５號","OBJECTID":21623},"geometry":{"x":169037.38999999966,"y":2547600.0800000001}},{"attributes":{"ID":21624,"DIS_CODE":0,"TOWNNAME":"新營區","LI":"大宏里","LIN":"15鄰","STREET":"綠川北街","SECT":" ","MAREA":" ","LANE":" ","ALLEY":" ","HOUSE_NO":"４０號","E_COORD97":180639.07999999999,"N_COORD97":2578764.6200000001,"ADDRESS":"綠川北街４０號","OBJECTID":21624},"geometry":{"x":180639.08000000101,"y":2578764.620000001}},{"attributes":{"ID":21625,"DIS_CODE":0,"TOWNNAME":"新營區","LI":"王公里","LIN":"30鄰","STREET":"民族路","SECT":" ","MAREA":" ","LANE":" ","ALLEY":" ","HOUSE_NO":"２４８號","E_COORD97":180391.23999999999,"N_COORD97":2579522.1800000002,"ADDRESS":"民族路２４８號","OBJECTID":21625},"geometry":{"x":180391.24000000022,"y":2579522.1799999997}},{"attributes":{"ID":21626,"DIS_CODE":0,"TOWNNAME":"新營區","LI":"民榮里","LIN":" ","STREET":"南昌街","SECT":" ","MAREA":" ","LANE":" ","ALLEY":" ","HOUSE_NO":"６０之３號","E_COORD97":179271.79000000001,"N_COORD97":2577664.7999999998,"ADDRESS":"南昌街６０之３號","OBJECTID":21626},"geometry":{"x":179271.79000000004,"y":2577664.8000000007}},{"attributes":{"ID":21627,"DIS_CODE":0,"TOWNNAME":"新營區","LI":"民權里","LIN":"21鄰","STREET":"仁愛街","SECT":" ","MAREA":" ","LANE":" ","ALLEY":" ","HOUSE_NO":"７１號","E_COORD97":179772.82000000001,"N_COORD97":2578361.1600000001,"ADDRESS":"仁愛街７１號","OBJECTID":21627},"geometry":{"x":179772.82000000123,"y":2578361.1600000039}},{"attributes":{"ID":21628,"DIS_CODE":0,"TOWNNAME":"新營區","LI":"南興里","LIN":"5鄰","STREET":"建業路","SECT":" ","MAREA":" ","LANE":" ","ALLEY":" ","HOUSE_NO":"６２之３號","E_COORD97":179438.89999999999,"N_COORD97":2577528.8999999999,"ADDRESS":"建業路６２之３號","OBJECTID":21628},"geometry":{"x":179438.9000000013,"y":2577528.8999999985}},{"attributes":{"ID":21629,"DIS_CODE":0,"TOWNNAME":"新營區","LI":"王公里","LIN":"26鄰","STREET":"大公街","SECT":" ","MAREA":" ","LANE":" ","ALLEY":" ","HOUSE_NO":"２２號","E_COORD97":180167.67000000001,"N_COORD97":2579659.4500000002,"ADDRESS":"大公街２２號","OBJECTID":21629},"geometry":{"x":180167.66999999993,"y":2579659.4499999993}},{"attributes":{"ID":21630,"DIS_CODE":0,"TOWNNAME":"西港區","LI":"南海里","LIN":"17鄰","STREET":" ","SECT":" ","MAREA":"東港","LANE":" ","ALLEY":" ","HOUSE_NO":"２８號","E_COORD97":167150.60999999999,"N_COORD97":2556451.4700000002,"ADDRESS":"東港２８號","OBJECTID":21630},"geometry":{"x":167150.61000000127,"y":2556451.4700000025}},{"attributes":{"ID":21631,"DIS_CODE":0,"TOWNNAME":"新營區","LI":"太南里","LIN":" ","STREET":" ","SECT":" ","MAREA":"太子宮","LANE":" ","ALLEY":" ","HOUSE_NO":"３０５之７號","E_COORD97":175989.76999999999,"N_COORD97":2576688.5600000001,"ADDRESS":"太子宮３０５之７號","OBJECTID":21631},"geometry":{"x":175989.76999999955,"y":2576688.5600000024}},{"attributes":{"ID":21632,"DIS_CODE":0,"TOWNNAME":"西港區","LI":"南海里","LIN":"17鄰","STREET":" ","SECT":" ","MAREA":"東港","LANE":" ","ALLEY":" ","HOUSE_NO":"３５號","E_COORD97":167192.28,"N_COORD97":2556652.4100000001,"ADDRESS":"東港３５號","OBJECTID":21632},"geometry":{"x":167192.28000000026,"y":2556652.410000002}},{"attributes":{"ID":21633,"DIS_CODE":0,"TOWNNAME":"西港區","LI":"南海里","LIN":"17鄰","STREET":" ","SECT":" ","MAREA":"東港","LANE":" ","ALLEY":" ","HOUSE_NO":"３７號","E_COORD97":167080.51000000001,"N_COORD97":2556567.8700000001,"ADDRESS":"東港３７號","OBJECTID":21633},"geometry":{"x":167080.50999999885,"y":2556567.8700000029}},{"attributes":{"ID":21634,"DIS_CODE":0,"TOWNNAME":"西港區","LI":"南海里","LIN":"17鄰","STREET":" ","SECT":" ","MAREA":"東港","LANE":" ","ALLEY":" ","HOUSE_NO":"４０號","E_COORD97":167269.39000000001,"N_COORD97":2556791.1699999999,"ADDRESS":"東港４０號","OBJECTID":21634},"geometry":{"x":167269.38999999873,"y":2556791.1700000037}},{"attributes":{"ID":21635,"DIS_CODE":0,"TOWNNAME":"中西區","LI":"光賢里","LIN":"14鄰","STREET":"武聖路","SECT":" ","MAREA":" ","LANE":"６９巷","ALLEY":"４０弄","HOUSE_NO":"３０號十一樓之９","E_COORD97":166628.06,"N_COORD97":2545203.8599999999,"ADDRESS":"武聖路６９巷４０弄３０號十一樓之９","OBJECTID":21635},"geometry":{"x":166628.06000000052,"y":2545203.8599999994}},{"attributes":{"ID":21636,"DIS_CODE":0,"TOWNNAME":"西港區","LI":"後營里","LIN":"17鄰","STREET":" ","SECT":" ","MAREA":"後營","LANE":" ","ALLEY":" ","HOUSE_NO":"３０７號之１","E_COORD97":170140.07000000001,"N_COORD97":2560082.4500000002,"ADDRESS":"後營３０７號之１","OBJECTID":21636},"geometry":{"x":170140.0700000003,"y":2560082.4499999993}},{"attributes":{"ID":21637,"DIS_CODE":0,"TOWNNAME":"中西區","LI":"光賢里","LIN":"14鄰","STREET":"武聖路","SECT":" ","MAREA":" ","LANE":"６９巷","ALLEY":"４０弄","HOUSE_NO":"３０號十二樓之１","E_COORD97":166628.06,"N_COORD97":2545203.8599999999,"ADDRESS":"武聖路６９巷４０弄３０號十二樓之１","OBJECTID":21637},"geometry":{"x":166628.06000000052,"y":2545203.8599999994}},{"attributes":{"ID":21638,"DIS_CODE":0,"TOWNNAME":"中西區","LI":"光賢里","LIN":"14鄰","STREET":"武聖路","SECT":" ","MAREA":" ","LANE":"６９巷","ALLEY":"４０弄","HOUSE_NO":"３０號十二樓之１０","E_COORD97":166628.06,"N_COORD97":2545203.8599999999,"ADDRESS":"武聖路６９巷４０弄３０號十二樓之１０","OBJECTID":21638},"geometry":{"x":166628.06000000052,"y":2545203.8599999994}},{"attributes":{"ID":21639,"DIS_CODE":0,"TOWNNAME":"中西區","LI":"光賢里","LIN":"14鄰","STREET":"武聖路","SECT":" ","MAREA":" ","LANE":"６９巷","ALLEY":"４０弄","HOUSE_NO":"３０號十二樓之１１","E_COORD97":166628.06,"N_COORD97":2545203.8599999999,"ADDRESS":"武聖路６９巷４０弄３０號十二樓之１１","OBJECTID":21639},"geometry":{"x":166628.06000000052,"y":2545203.8599999994}},{"attributes":{"ID":21640,"DIS_CODE":0,"TOWNNAME":"中西區","LI":"光賢里","LIN":"14鄰","STREET":"武聖路","SECT":" ","MAREA":" ","LANE":"６９巷","ALLEY":"４０弄","HOUSE_NO":"３０號十二樓之１２","E_COORD97":166628.06,"N_COORD97":2545203.8599999999,"ADDRESS":"武聖路６９巷４０弄３０號十二樓之１２","OBJECTID":21640},"geometry":{"x":166628.06000000052,"y":2545203.8599999994}},{"attributes":{"ID":21641,"DIS_CODE":0,"TOWNNAME":"中西區","LI":"光賢里","LIN":"14鄰","STREET":"武聖路","SECT":" ","MAREA":" ","LANE":"６９巷","ALLEY":"４０弄","HOUSE_NO":"３０號十二樓之１３","E_COORD97":166628.06,"N_COORD97":2545203.8599999999,"ADDRESS":"武聖路６９巷４０弄３０號十二樓之１３","OBJECTID":21641},"geometry":{"x":166628.06000000052,"y":2545203.8599999994}},{"attributes":{"ID":21642,"DIS_CODE":0,"TOWNNAME":"中西區","LI":"光賢里","LIN":"14鄰","STREET":"武聖路","SECT":" ","MAREA":" ","LANE":"６９巷","ALLEY":"４０弄","HOUSE_NO":"３０號十二樓之１４","E_COORD97":166628.06,"N_COORD97":2545203.8599999999,"ADDRESS":"武聖路６９巷４０弄３０號十二樓之１４","OBJECTID":21642},"geometry":{"x":166628.06000000052,"y":2545203.8599999994}},{"attributes":{"ID":21643,"DIS_CODE":0,"TOWNNAME":"中西區","LI":"光賢里","LIN":"14鄰","STREET":"武聖路","SECT":" ","MAREA":" ","LANE":"６９巷","ALLEY":"４０弄","HOUSE_NO":"３０號十二樓之１５","E_COORD97":166628.06,"N_COORD97":2545203.8599999999,"ADDRESS":"武聖路６９巷４０弄３０號十二樓之１５","OBJECTID":21643},"geometry":{"x":166628.06000000052,"y":2545203.8599999994}},{"attributes":{"ID":21644,"DIS_CODE":0,"TOWNNAME":"中西區","LI":"光賢里","LIN":"14鄰","STREET":"武聖路","SECT":" ","MAREA":" ","LANE":"６９巷","ALLEY":"４０弄","HOUSE_NO":"３０號十二樓之１６","E_COORD97":166628.06,"N_COORD97":2545203.8599999999,"ADDRESS":"武聖路６９巷４０弄３０號十二樓之１６","OBJECTID":21644},"geometry":{"x":166628.06000000052,"y":2545203.8599999994}},{"attributes":{"ID":21645,"DIS_CODE":0,"TOWNNAME":"中西區","LI":"光賢里","LIN":"14鄰","STREET":"武聖路","SECT":" ","MAREA":" ","LANE":"６９巷","ALLEY":"４０弄","HOUSE_NO":"３０號十二樓之１７","E_COORD97":166628.06,"N_COORD97":2545203.8599999999,"ADDRESS":"武聖路６９巷４０弄３０號十二樓之１７","OBJECTID":21645},"geometry":{"x":166628.06000000052,"y":2545203.8599999994}},{"attributes":{"ID":21646,"DIS_CODE":0,"TOWNNAME":"中西區","LI":"光賢里","LIN":"14鄰","STREET":"武聖路","SECT":" ","MAREA":" ","LANE":"６９巷","ALLEY":"４０弄","HOUSE_NO":"３０號十二樓之１８","E_COORD97":166628.06,"N_COORD97":2545203.8599999999,"ADDRESS":"武聖路６９巷４０弄３０號十二樓之１８","OBJECTID":21646},"geometry":{"x":166628.06000000052,"y":2545203.8599999994}},{"attributes":{"ID":21647,"DIS_CODE":0,"TOWNNAME":"中西區","LI":"光賢里","LIN":"14鄰","STREET":"武聖路","SECT":" ","MAREA":" ","LANE":"６９巷","ALLEY":"４０弄","HOUSE_NO":"３０號十二樓之１９","E_COORD97":166628.06,"N_COORD97":2545203.8599999999,"ADDRESS":"武聖路６９巷４０弄３０號十二樓之１９","OBJECTID":21647},"geometry":{"x":166628.06000000052,"y":2545203.8599999994}},{"attributes":{"ID":21648,"DIS_CODE":0,"TOWNNAME":"中西區","LI":"光賢里","LIN":"14鄰","STREET":"武聖路","SECT":" ","MAREA":" ","LANE":"６９巷","ALLEY":"４０弄","HOUSE_NO":"３０號十二樓之２","E_COORD97":166628.06,"N_COORD97":2545203.8599999999,"ADDRESS":"武聖路６９巷４０弄３０號十二樓之２","OBJECTID":21648},"geometry":{"x":166628.06000000052,"y":2545203.8599999994}},{"attributes":{"ID":21649,"DIS_CODE":0,"TOWNNAME":"中西區","LI":"光賢里","LIN":"14鄰","STREET":"武聖路","SECT":" ","MAREA":" ","LANE":"６９巷","ALLEY":"４０弄","HOUSE_NO":"３０號十二樓之３","E_COORD97":166628.06,"N_COORD97":2545203.8599999999,"ADDRESS":"武聖路６９巷４０弄３０號十二樓之３","OBJECTID":21649},"geometry":{"x":166628.06000000052,"y":2545203.8599999994}},{"attributes":{"ID":21650,"DIS_CODE":0,"TOWNNAME":"中西區","LI":"光賢里","LIN":"14鄰","STREET":"武聖路","SECT":" ","MAREA":" ","LANE":"６９巷","ALLEY":"４０弄","HOUSE_NO":"３０號十二樓之４","E_COORD97":166628.06,"N_COORD97":2545203.8599999999,"ADDRESS":"武聖路６９巷４０弄３０號十二樓之４","OBJECTID":21650},"geometry":{"x":166628.06000000052,"y":2545203.8599999994}},{"attributes":{"ID":21651,"DIS_CODE":0,"TOWNNAME":"中西區","LI":"光賢里","LIN":"14鄰","STREET":"武聖路","SECT":" ","MAREA":" ","LANE":"６９巷","ALLEY":"４０弄","HOUSE_NO":"３０號十二樓之５","E_COORD97":166628.06,"N_COORD97":2545203.8599999999,"ADDRESS":"武聖路６９巷４０弄３０號十二樓之５","OBJECTID":21651},"geometry":{"x":166628.06000000052,"y":2545203.8599999994}},{"attributes":{"ID":21652,"DIS_CODE":0,"TOWNNAME":"佳里區","LI":"忠仁里","LIN":"14鄰","STREET":"信義一街","SECT":" ","MAREA":" ","LANE":"２７１巷","ALLEY":"３１弄","HOUSE_NO":"５號","E_COORD97":166129.44,"N_COORD97":2562179.5800000001,"ADDRESS":"信義一街２７１巷３１弄５號","OBJECTID":21652},"geometry":{"x":166129.44000000134,"y":2562179.5800000019}},{"attributes":{"ID":21653,"DIS_CODE":0,"TOWNNAME":"安南區","LI":"溪頂里","LIN":"24鄰","STREET":"郡安路","SECT":"四段","MAREA":" ","LANE":"８９巷","ALLEY":" ","HOUSE_NO":"２１號","E_COORD97":169026.89999999999,"N_COORD97":2547531.6499999999,"ADDRESS":"郡安路四段８９巷２１號","OBJECTID":21653},"geometry":{"x":169026.9000000013,"y":2547531.6500000004}},{"attributes":{"ID":21654,"DIS_CODE":0,"TOWNNAME":"新營區","LI":"興安里","LIN":"14鄰","STREET":"延平路","SECT":" ","MAREA":" ","LANE":" ","ALLEY":" ","HOUSE_NO":"９９號","E_COORD97":179779.67999999999,"N_COORD97":2577665.6400000001,"ADDRESS":"延平路９９號","OBJECTID":21654},"geometry":{"x":179779.68000000156,"y":2577665.6400000006}},{"attributes":{"ID":21655,"DIS_CODE":0,"TOWNNAME":"新營區","LI":"南興里","LIN":"1鄰","STREET":"延平路","SECT":" ","MAREA":" ","LANE":" ","ALLEY":" ","HOUSE_NO":"１２０號","E_COORD97":179689.64000000001,"N_COORD97":2577605.1699999999,"ADDRESS":"延平路１２０號","OBJECTID":21655},"geometry":{"x":179689.63999999966,"y":2577605.1700000018}},{"attributes":{"ID":21656,"DIS_CODE":0,"TOWNNAME":"新營區","LI":"民權里","LIN":"20鄰","STREET":"中華路","SECT":" ","MAREA":" ","LANE":" ","ALLEY":" ","HOUSE_NO":"２８號","E_COORD97":179768.10999999999,"N_COORD97":2578224.9700000002,"ADDRESS":"中華路２８號","OBJECTID":21656},"geometry":{"x":179768.11000000127,"y":2578224.9700000025}},{"attributes":{"ID":21657,"DIS_CODE":0,"TOWNNAME":"安南區","LI":"溪頂里","LIN":"24鄰","STREET":"敦安街","SECT":" ","MAREA":" ","LANE":" ","ALLEY":" ","HOUSE_NO":"１３４號","E_COORD97":169056.44,"N_COORD97":2547569.9399999999,"ADDRESS":"敦安街１３４號","OBJECTID":21657},"geometry":{"x":169056.44000000041,"y":2547569.9399999995}},{"attributes":{"ID":21658,"DIS_CODE":0,"TOWNNAME":"北區","LI":"振興里","LIN":"8鄰","STREET":"長榮路","SECT":"四段","MAREA":" ","LANE":" ","ALLEY":" ","HOUSE_NO":"１６７號","E_COORD97":170193.97,"N_COORD97":2545191.1899999999,"ADDRESS":"長榮路四段１６７號","OBJECTID":21658},"geometry":{"x":170193.97000000067,"y":2545191.1899999995}},{"attributes":{"ID":21659,"DIS_CODE":0,"TOWNNAME":"北區","LI":"振興里","LIN":"8鄰","STREET":"長榮路","SECT":"四段","MAREA":" ","LANE":" ","ALLEY":" ","HOUSE_NO":"１８１號","E_COORD97":170176.10999999999,"N_COORD97":2545224.9900000002,"ADDRESS":"長榮路四段１８１號","OBJECTID":21659},"geometry":{"x":170176.11000000127,"y":2545224.9900000039}},{"attributes":{"ID":21660,"DIS_CODE":0,"TOWNNAME":"西港區","LI":"南海里","LIN":"17鄰","STREET":" ","SECT":" ","MAREA":"東港","LANE":" ","ALLEY":" ","HOUSE_NO":"４１號之５","E_COORD97":167056.42999999999,"N_COORD97":2556518.02,"ADDRESS":"東港４１號之５","OBJECTID":21660},"geometry":{"x":167056.43000000063,"y":2556518.0200000014}},{"attributes":{"ID":21661,"DIS_CODE":0,"TOWNNAME":"中西區","LI":"光賢里","LIN":"14鄰","STREET":"武聖路","SECT":" ","MAREA":" ","LANE":"６９巷","ALLEY":"４０弄","HOUSE_NO":"３０號十二樓之６","E_COORD97":166628.06,"N_COORD97":2545203.8599999999,"ADDRESS":"武聖路６９巷４０弄３０號十二樓之６","OBJECTID":21661},"geometry":{"x":166628.06000000052,"y":2545203.8599999994}},{"attributes":{"ID":21662,"DIS_CODE":0,"TOWNNAME":"中西區","LI":"光賢里","LIN":"14鄰","STREET":"武聖路","SECT":" ","MAREA":" ","LANE":"６９巷","ALLEY":"４０弄","HOUSE_NO":"３０號十二樓之７","E_COORD97":166628.06,"N_COORD97":2545203.8599999999,"ADDRESS":"武聖路６９巷４０弄３０號十二樓之７","OBJECTID":21662},"geometry":{"x":166628.06000000052,"y":2545203.8599999994}},{"attributes":{"ID":21663,"DIS_CODE":0,"TOWNNAME":"西港區","LI":"南海里","LIN":"17鄰","STREET":" ","SECT":" ","MAREA":"東港","LANE":" ","ALLEY":" ","HOUSE_NO":"４１號","E_COORD97":167012.13,"N_COORD97":2556506.3100000001,"ADDRESS":"東港４１號","OBJECTID":21663},"geometry":{"x":167012.13000000175,"y":2556506.3100000042}},{"attributes":{"ID":21664,"DIS_CODE":0,"TOWNNAME":"西港區","LI":"南海里","LIN":"17鄰","STREET":" ","SECT":" ","MAREA":"東港","LANE":" ","ALLEY":" ","HOUSE_NO":"４２號","E_COORD97":166994.26000000001,"N_COORD97":2556508.1499999999,"ADDRESS":"東港４２號","OBJECTID":21664},"geometry":{"x":166994.26000000164,"y":2556508.1500000022}},{"attributes":{"ID":21665,"DIS_CODE":0,"TOWNNAME":"西港區","LI":"後營里","LIN":"17鄰","STREET":" ","SECT":" ","MAREA":"後營","LANE":" ","ALLEY":" ","HOUSE_NO":"３０６號","E_COORD97":170075.62,"N_COORD97":2560074.4300000002,"ADDRESS":"後營３０６號","OBJECTID":21665},"geometry":{"x":170075.62000000197,"y":2560074.4300000034}},{"attributes":{"ID":21666,"DIS_CODE":0,"TOWNNAME":"西港區","LI":"後營里","LIN":"17鄰","STREET":" ","SECT":" ","MAREA":"後營","LANE":" ","ALLEY":" ","HOUSE_NO":"３１０號之１","E_COORD97":170063.63,"N_COORD97":2560049.21,"ADDRESS":"後營３１０號之１","OBJECTID":21666},"geometry":{"x":170063.63000000082,"y":2560049.2100000009}},{"attributes":{"ID":21667,"DIS_CODE":0,"TOWNNAME":"西港區","LI":"後營里","LIN":"17鄰","STREET":" ","SECT":" ","MAREA":"後營","LANE":" ","ALLEY":" ","HOUSE_NO":"３１０號","E_COORD97":170070.13,"N_COORD97":2560048.3199999998,"ADDRESS":"後營３１０號","OBJECTID":21667},"geometry":{"x":170070.12999999896,"y":2560048.3200000003}},{"attributes":{"ID":21668,"DIS_CODE":0,"TOWNNAME":"西港區","LI":"後營里","LIN":"17鄰","STREET":" ","SECT":" ","MAREA":"後營","LANE":" ","ALLEY":" ","HOUSE_NO":"３１１號之１","E_COORD97":170059.28,"N_COORD97":2560020.4100000001,"ADDRESS":"後營３１１號之１","OBJECTID":21668},"geometry":{"x":170059.28000000026,"y":2560020.4100000001}},{"attributes":{"ID":21669,"DIS_CODE":0,"TOWNNAME":"西港區","LI":"後營里","LIN":"17鄰","STREET":" ","SECT":" ","MAREA":"後營","LANE":" ","ALLEY":" ","HOUSE_NO":"３１１號之２","E_COORD97":170055.12,"N_COORD97":2560024.71,"ADDRESS":"後營３１１號之２","OBJECTID":21669},"geometry":{"x":170055.12000000011,"y":2560024.7100000009}},{"attributes":{"ID":21670,"DIS_CODE":0,"TOWNNAME":"西港區","LI":"後營里","LIN":"17鄰","STREET":" ","SECT":" ","MAREA":"後營","LANE":" ","ALLEY":" ","HOUSE_NO":"３１１號","E_COORD97":170060.12,"N_COORD97":2560015.5299999998,"ADDRESS":"後營３１１號","OBJECTID":21670},"geometry":{"x":170060.12000000011,"y":2560015.5299999975}},{"attributes":{"ID":21671,"DIS_CODE":0,"TOWNNAME":"西港區","LI":"後營里","LIN":"17鄰","STREET":" ","SECT":" ","MAREA":"後營","LANE":" ","ALLEY":" ","HOUSE_NO":"３１２號之１","E_COORD97":170103.17999999999,"N_COORD97":2560015.6000000001,"ADDRESS":"後營３１２號之１","OBJECTID":21671},"geometry":{"x":170103.1799999997,"y":2560015.6000000034}},{"attributes":{"ID":21672,"DIS_CODE":0,"TOWNNAME":"西港區","LI":"後營里","LIN":"17鄰","STREET":" ","SECT":" ","MAREA":"後營","LANE":" ","ALLEY":" ","HOUSE_NO":"３１２號","E_COORD97":170078.87,"N_COORD97":2559991.7400000002,"ADDRESS":"後營３１２號","OBJECTID":21672},"geometry":{"x":170078.87000000011,"y":2559991.7400000039}},{"attributes":{"ID":21673,"DIS_CODE":0,"TOWNNAME":"西港區","LI":"後營里","LIN":"17鄰","STREET":" ","SECT":" ","MAREA":"後營","LANE":" ","ALLEY":" ","HOUSE_NO":"３１３號之１","E_COORD97":170056.70000000001,"N_COORD97":2559958.6499999999,"ADDRESS":"後營３１３號之１","OBJECTID":21673},"geometry":{"x":170056.70000000112,"y":2559958.6500000041}},{"attributes":{"ID":21674,"DIS_CODE":0,"TOWNNAME":"西港區","LI":"後營里","LIN":"17鄰","STREET":" ","SECT":" ","MAREA":"後營","LANE":" ","ALLEY":" ","HOUSE_NO":"３１３號之２","E_COORD97":170060.51000000001,"N_COORD97":2559958.2999999998,"ADDRESS":"後營３１３號之２","OBJECTID":21674},"geometry":{"x":170060.50999999978,"y":2559958.3000000026}},{"attributes":{"ID":21675,"DIS_CODE":0,"TOWNNAME":"西港區","LI":"後營里","LIN":"17鄰","STREET":" ","SECT":" ","MAREA":"後營","LANE":" ","ALLEY":" ","HOUSE_NO":"３１３號之３","E_COORD97":170064.39999999999,"N_COORD97":2559957.9500000002,"ADDRESS":"後營３１３號之３","OBJECTID":21675},"geometry":{"x":170064.4000000013,"y":2559957.9499999993}},{"attributes":{"ID":21676,"DIS_CODE":0,"TOWNNAME":"西港區","LI":"後營里","LIN":"17鄰","STREET":" ","SECT":" ","MAREA":"後營","LANE":" ","ALLEY":" ","HOUSE_NO":"３１３號","E_COORD97":170050.75,"N_COORD97":2559957.02,"ADDRESS":"後營３１３號","OBJECTID":21676},"geometry":{"x":170050.75,"y":2559957.0199999996}},{"attributes":{"ID":21677,"DIS_CODE":0,"TOWNNAME":"西港區","LI":"後營里","LIN":"17鄰","STREET":" ","SECT":" ","MAREA":"後營","LANE":" ","ALLEY":" ","HOUSE_NO":"３１６號","E_COORD97":170128.57999999999,"N_COORD97":2559967.52,"ADDRESS":"後營３１６號","OBJECTID":21677},"geometry":{"x":170128.58000000101,"y":2559967.5199999996}},{"attributes":{"ID":21678,"DIS_CODE":0,"TOWNNAME":"西港區","LI":"後營里","LIN":"17鄰","STREET":" ","SECT":" ","MAREA":"後營","LANE":" ","ALLEY":" ","HOUSE_NO":"３１７號","E_COORD97":170134.60999999999,"N_COORD97":2559971.2200000002,"ADDRESS":"後營３１７號","OBJECTID":21678},"geometry":{"x":170134.61000000034,"y":2559971.2200000007}},{"attributes":{"ID":21679,"DIS_CODE":0,"TOWNNAME":"西港區","LI":"後營里","LIN":"17鄰","STREET":" ","SECT":" ","MAREA":"後營","LANE":" ","ALLEY":" ","HOUSE_NO":"３１８號","E_COORD97":170139.70000000001,"N_COORD97":2559975.5099999998,"ADDRESS":"後營３１８號","OBJECTID":21679},"geometry":{"x":170139.70000000205,"y":2559975.5099999979}},{"attributes":{"ID":21680,"DIS_CODE":0,"TOWNNAME":"西港區","LI":"後營里","LIN":"17鄰","STREET":" ","SECT":" ","MAREA":"後營","LANE":" ","ALLEY":" ","HOUSE_NO":"３１９號","E_COORD97":170142.72,"N_COORD97":2559978.1800000002,"ADDRESS":"後營３１９號","OBJECTID":21680},"geometry":{"x":170142.72000000067,"y":2559978.1800000016}},{"attributes":{"ID":21681,"DIS_CODE":0,"TOWNNAME":"西港區","LI":"後營里","LIN":"17鄰","STREET":" ","SECT":" ","MAREA":"後營","LANE":" ","ALLEY":" ","HOUSE_NO":"３２０號","E_COORD97":170146.60000000001,"N_COORD97":2559980.0800000001,"ADDRESS":"後營３２０號","OBJECTID":21681},"geometry":{"x":170146.60000000056,"y":2559980.0800000019}},{"attributes":{"ID":21682,"DIS_CODE":0,"TOWNNAME":"西港區","LI":"後營里","LIN":"17鄰","STREET":" ","SECT":" ","MAREA":"後營","LANE":" ","ALLEY":" ","HOUSE_NO":"３２１號之１０","E_COORD97":170184.5,"N_COORD97":2560004.1899999999,"ADDRESS":"後營３２１號之１０","OBJECTID":21682},"geometry":{"x":170184.5,"y":2560004.1899999995}},{"attributes":{"ID":21683,"DIS_CODE":0,"TOWNNAME":"西港區","LI":"後營里","LIN":"17鄰","STREET":" ","SECT":" ","MAREA":"後營","LANE":" ","ALLEY":" ","HOUSE_NO":"３２１號之１１","E_COORD97":170189.17999999999,"N_COORD97":2560006.3999999999,"ADDRESS":"後營３２１號之１１","OBJECTID":21683},"geometry":{"x":170189.18000000063,"y":2560006.4000000004}},{"attributes":{"ID":21684,"DIS_CODE":0,"TOWNNAME":"西港區","LI":"後營里","LIN":"17鄰","STREET":" ","SECT":" ","MAREA":"後營","LANE":" ","ALLEY":" ","HOUSE_NO":"３２１號之１","E_COORD97":170150.54999999999,"N_COORD97":2559983.0800000001,"ADDRESS":"後營３２１號之１","OBJECTID":21684},"geometry":{"x":170150.55000000075,"y":2559983.0800000019}},{"attributes":{"ID":21685,"DIS_CODE":0,"TOWNNAME":"西港區","LI":"後營里","LIN":"17鄰","STREET":" ","SECT":" ","MAREA":"後營","LANE":" ","ALLEY":" ","HOUSE_NO":"３２１號之２","E_COORD97":170154.22,"N_COORD97":2559985.2799999998,"ADDRESS":"後營３２１號之２","OBJECTID":21685},"geometry":{"x":170154.2200000016,"y":2559985.2799999993}},{"attributes":{"ID":21686,"DIS_CODE":0,"TOWNNAME":"西港區","LI":"後營里","LIN":"17鄰","STREET":" ","SECT":" ","MAREA":"後營","LANE":" ","ALLEY":" ","HOUSE_NO":"３２１號之３","E_COORD97":170157.97,"N_COORD97":2559987.4700000002,"ADDRESS":"後營３２１號之３","OBJECTID":21686},"geometry":{"x":170157.97000000067,"y":2559987.4700000025}},{"attributes":{"ID":21687,"DIS_CODE":0,"TOWNNAME":"西港區","LI":"後營里","LIN":"17鄰","STREET":" ","SECT":" ","MAREA":"後營","LANE":" ","ALLEY":" ","HOUSE_NO":"３２１號之４","E_COORD97":170161.94,"N_COORD97":2559989.9500000002,"ADDRESS":"後營３２１號之４","OBJECTID":21687},"geometry":{"x":170161.94000000227,"y":2559989.9500000011}},{"attributes":{"ID":21688,"DIS_CODE":0,"TOWNNAME":"安南區","LI":"溪頂里","LIN":"24鄰","STREET":"惠安街","SECT":" ","MAREA":" ","LANE":" ","ALLEY":" ","HOUSE_NO":"３４號","E_COORD97":169069.82999999999,"N_COORD97":2547493.1099999999,"ADDRESS":"惠安街３４號","OBJECTID":21688},"geometry":{"x":169069.83000000007,"y":2547493.1099999994}},{"attributes":{"ID":21689,"DIS_CODE":0,"TOWNNAME":"西港區","LI":"後營里","LIN":"17鄰","STREET":" ","SECT":" ","MAREA":"後營","LANE":" ","ALLEY":" ","HOUSE_NO":"３２１號之７","E_COORD97":170173.31,"N_COORD97":2559997.3199999998,"ADDRESS":"後營３２１號之７","OBJECTID":21689},"geometry":{"x":170173.30999999959,"y":2559997.3200000003}},{"attributes":{"ID":21690,"DIS_CODE":0,"TOWNNAME":"西港區","LI":"後營里","LIN":"17鄰","STREET":" ","SECT":" ","MAREA":"後營","LANE":" ","ALLEY":" ","HOUSE_NO":"３２１號之８","E_COORD97":170177.13,"N_COORD97":2559999.5800000001,"ADDRESS":"後營３２１號之８","OBJECTID":21690},"geometry":{"x":170177.13000000175,"y":2559999.5800000019}},{"attributes":{"ID":21691,"DIS_CODE":0,"TOWNNAME":"西港區","LI":"後營里","LIN":"17鄰","STREET":" ","SECT":" ","MAREA":"後營","LANE":" ","ALLEY":" ","HOUSE_NO":"３２１號之９","E_COORD97":170180.98999999999,"N_COORD97":2560001.8700000001,"ADDRESS":"後營３２１號之９","OBJECTID":21691},"geometry":{"x":170180.99000000022,"y":2560001.8700000048}},{"attributes":{"ID":21692,"DIS_CODE":0,"TOWNNAME":"西港區","LI":"後營里","LIN":"17鄰","STREET":" ","SECT":" ","MAREA":"後營","LANE":" ","ALLEY":" ","HOUSE_NO":"３２６號之１０","E_COORD97":170263.87,"N_COORD97":2560100.3900000001,"ADDRESS":"後營３２６號之１０","OBJECTID":21692},"geometry":{"x":170263.87000000197,"y":2560100.3900000025}},{"attributes":{"ID":21693,"DIS_CODE":0,"TOWNNAME":"西港區","LI":"後營里","LIN":"17鄰","STREET":" ","SECT":" ","MAREA":"後營","LANE":" ","ALLEY":" ","HOUSE_NO":"３２６之１３號","E_COORD97":170462.98999999999,"N_COORD97":2560211.02,"ADDRESS":"後營３２６之１３號","OBJECTID":21693},"geometry":{"x":170462.98999999929,"y":2560211.0199999996}},{"attributes":{"ID":21694,"DIS_CODE":0,"TOWNNAME":"中西區","LI":"光賢里","LIN":"14鄰","STREET":"武聖路","SECT":" ","MAREA":" ","LANE":"６９巷","ALLEY":"４０弄","HOUSE_NO":"３０號十二樓之８","E_COORD97":166628.06,"N_COORD97":2545203.8599999999,"ADDRESS":"武聖路６９巷４０弄３０號十二樓之８","OBJECTID":21694},"geometry":{"x":166628.06000000052,"y":2545203.8599999994}},{"attributes":{"ID":21695,"DIS_CODE":0,"TOWNNAME":"仁德區","LI":"仁和里","LIN":"24鄰","STREET":" ","SECT":" ","MAREA":"仁和","LANE":" ","ALLEY":" ","HOUSE_NO":"４７８號","E_COORD97":170393.64199999999,"N_COORD97":2539808.5499999998,"ADDRESS":"仁和４７８號","OBJECTID":21695},"geometry":{"x":170393.64200000186,"y":2539808.5500000026}},{"attributes":{"ID":21696,"DIS_CODE":0,"TOWNNAME":"中西區","LI":"光賢里","LIN":"14鄰","STREET":"武聖路","SECT":" ","MAREA":" ","LANE":"６９巷","ALLEY":"４０弄","HOUSE_NO":"３０號十二樓之９","E_COORD97":166628.06,"N_COORD97":2545203.8599999999,"ADDRESS":"武聖路６９巷４０弄３０號十二樓之９","OBJECTID":21696},"geometry":{"x":166628.06000000052,"y":2545203.8599999994}},{"attributes":{"ID":21697,"DIS_CODE":0,"TOWNNAME":"中西區","LI":"光賢里","LIN":"14鄰","STREET":"武聖路","SECT":" ","MAREA":" ","LANE":"６９巷","ALLEY":"４０弄","HOUSE_NO":"３０號十樓之１","E_COORD97":166628.06,"N_COORD97":2545203.8599999999,"ADDRESS":"武聖路６９巷４０弄３０號十樓之１","OBJECTID":21697},"geometry":{"x":166628.06000000052,"y":2545203.8599999994}},{"attributes":{"ID":21698,"DIS_CODE":0,"TOWNNAME":"仁德區","LI":"仁和里","LIN":"24鄰","STREET":" ","SECT":" ","MAREA":"仁和","LANE":" ","ALLEY":" ","HOUSE_NO":"４９２號","E_COORD97":170383.89577199999,"N_COORD97":2539772.25,"ADDRESS":"仁和４９２號","OBJECTID":21698},"geometry":{"x":170383.89577200077,"y":2539772.2500000019}},{"attributes":{"ID":21699,"DIS_CODE":0,"TOWNNAME":"仁德區","LI":"仁和里","LIN":"24鄰","STREET":" ","SECT":" ","MAREA":"仁和","LANE":" ","ALLEY":" ","HOUSE_NO":"４８６號","E_COORD97":170393.800911,"N_COORD97":2539781.1499999999,"ADDRESS":"仁和４８６號","OBJECTID":21699},"geometry":{"x":170393.80091100093,"y":2539781.1500000004}},{"attributes":{"ID":21700,"DIS_CODE":0,"TOWNNAME":"仁德區","LI":"仁和里","LIN":"24鄰","STREET":" ","SECT":" ","MAREA":"仁和","LANE":" ","ALLEY":" ","HOUSE_NO":"４８９號","E_COORD97":170369.85907000001,"N_COORD97":2539772.25,"ADDRESS":"仁和４８９號","OBJECTID":21700},"geometry":{"x":170369.85907000024,"y":2539772.2500000019}},{"attributes":{"ID":21701,"DIS_CODE":0,"TOWNNAME":"中西區","LI":"光賢里","LIN":"14鄰","STREET":"武聖路","SECT":" ","MAREA":" ","LANE":"６９巷","ALLEY":"４０弄","HOUSE_NO":"３０號十樓之１０","E_COORD97":166628.06,"N_COORD97":2545203.8599999999,"ADDRESS":"武聖路６９巷４０弄３０號十樓之１０","OBJECTID":21701},"geometry":{"x":166628.06000000052,"y":2545203.8599999994}},{"attributes":{"ID":21702,"DIS_CODE":0,"TOWNNAME":"仁德區","LI":"仁和里","LIN":"24鄰","STREET":" ","SECT":" ","MAREA":"仁和","LANE":" ","ALLEY":" ","HOUSE_NO":"４７９號","E_COORD97":170397.82652,"N_COORD97":2539808.5499999998,"ADDRESS":"仁和４７９號","OBJECTID":21702},"geometry":{"x":170397.82652000058,"y":2539808.5500000026}},{"attributes":{"ID":21703,"DIS_CODE":0,"TOWNNAME":"仁德區","LI":"仁和里","LIN":"24鄰","STREET":" ","SECT":" ","MAREA":"仁和","LANE":" ","ALLEY":" ","HOUSE_NO":"４９０號","E_COORD97":170374.41438,"N_COORD97":2539772.25,"ADDRESS":"仁和４９０號","OBJECTID":21703},"geometry":{"x":170374.41438000184,"y":2539772.2500000019}},{"attributes":{"ID":21704,"DIS_CODE":0,"TOWNNAME":"仁德區","LI":"仁和里","LIN":"24鄰","STREET":" ","SECT":" ","MAREA":"仁和","LANE":" ","ALLEY":" ","HOUSE_NO":"４９４號","E_COORD97":170392.900444,"N_COORD97":2539772.25,"ADDRESS":"仁和４９４號","OBJECTID":21704},"geometry":{"x":170392.90044400003,"y":2539772.2500000019}},{"attributes":{"ID":21705,"DIS_CODE":0,"TOWNNAME":"仁德區","LI":"仁和里","LIN":"24鄰","STREET":" ","SECT":" ","MAREA":"仁和","LANE":" ","ALLEY":" ","HOUSE_NO":"４８９號之１","E_COORD97":170358.32999999999,"N_COORD97":2539768.29,"ADDRESS":"仁和４８９號之１","OBJECTID":21705},"geometry":{"x":170358.33000000007,"y":2539768.2899999991}},{"attributes":{"ID":21706,"DIS_CODE":0,"TOWNNAME":"仁德區","LI":"仁和里","LIN":"24鄰","STREET":" ","SECT":" ","MAREA":"仁和","LANE":" ","ALLEY":" ","HOUSE_NO":"４９３號","E_COORD97":170388.29217,"N_COORD97":2539772.25,"ADDRESS":"仁和４９３號","OBJECTID":21706},"geometry":{"x":170388.29217000026,"y":2539772.2500000019}},{"attributes":{"ID":21707,"DIS_CODE":0,"TOWNNAME":"仁德區","LI":"仁和里","LIN":"24鄰","STREET":" ","SECT":" ","MAREA":"仁和","LANE":" ","ALLEY":" ","HOUSE_NO":"４７５號","E_COORD97":170378.91670999999,"N_COORD97":2539808.5499999998,"ADDRESS":"仁和４７５號","OBJECTID":21707},"geometry":{"x":170378.91670999955,"y":2539808.5500000026}},{"attributes":{"ID":21708,"DIS_CODE":0,"TOWNNAME":"中西區","LI":"光賢里","LIN":"14鄰","STREET":"武聖路","SECT":" ","MAREA":" ","LANE":"６９巷","ALLEY":"４０弄","HOUSE_NO":"３０號十樓之１１","E_COORD97":166628.06,"N_COORD97":2545203.8599999999,"ADDRESS":"武聖路６９巷４０弄３０號十樓之１１","OBJECTID":21708},"geometry":{"x":166628.06000000052,"y":2545203.8599999994}},{"attributes":{"ID":21709,"DIS_CODE":0,"TOWNNAME":"中西區","LI":"光賢里","LIN":"14鄰","STREET":"武聖路","SECT":" ","MAREA":" ","LANE":"６９巷","ALLEY":"４０弄","HOUSE_NO":"３０號十樓之１２","E_COORD97":166628.06,"N_COORD97":2545203.8599999999,"ADDRESS":"武聖路６９巷４０弄３０號十樓之１２","OBJECTID":21709},"geometry":{"x":166628.06000000052,"y":2545203.8599999994}},{"attributes":{"ID":21710,"DIS_CODE":0,"TOWNNAME":"官田區","LI":"隆本里","LIN":"24鄰","STREET":"仁愛街","SECT":" ","MAREA":" ","LANE":" ","ALLEY":" ","HOUSE_NO":"１０１號","E_COORD97":179888.48000000001,"N_COORD97":2566077.0899999999,"ADDRESS":"仁愛街１０１號","OBJECTID":21710},"geometry":{"x":179888.48000000045,"y":2566077.0899999999}},{"attributes":{"ID":21711,"DIS_CODE":0,"TOWNNAME":"官田區","LI":"隆本里","LIN":"24鄰","STREET":"仁愛街","SECT":" ","MAREA":" ","LANE":" ","ALLEY":" ","HOUSE_NO":"１０２號","E_COORD97":179857.76999999999,"N_COORD97":2566053.27,"ADDRESS":"仁愛街１０２號","OBJECTID":21711},"geometry":{"x":179857.77000000048,"y":2566053.2700000014}},{"attributes":{"ID":21712,"DIS_CODE":0,"TOWNNAME":"官田區","LI":"隆本里","LIN":"24鄰","STREET":"仁愛街","SECT":" ","MAREA":" ","LANE":" ","ALLEY":" ","HOUSE_NO":"９０號","E_COORD97":179888.73000000001,"N_COORD97":2566052,"ADDRESS":"仁愛街９０號","OBJECTID":21712},"geometry":{"x":179888.73000000231,"y":2566052.0000000019}},{"attributes":{"ID":21713,"DIS_CODE":0,"TOWNNAME":"官田區","LI":"隆本里","LIN":"24鄰","STREET":"仁愛街","SECT":" ","MAREA":" ","LANE":" ","ALLEY":" ","HOUSE_NO":"９２號","E_COORD97":179882.29000000001,"N_COORD97":2566051.3500000001,"ADDRESS":"仁愛街９２號","OBJECTID":21713},"geometry":{"x":179882.29000000004,"y":2566051.3499999996}},{"attributes":{"ID":21714,"DIS_CODE":0,"TOWNNAME":"官田區","LI":"隆本里","LIN":"24鄰","STREET":"仁愛街","SECT":" ","MAREA":" ","LANE":" ","ALLEY":" ","HOUSE_NO":"９６號","E_COORD97":179876.59,"N_COORD97":2566051.3799999999,"ADDRESS":"仁愛街９６號","OBJECTID":21714},"geometry":{"x":179876.58999999985,"y":2566051.3800000027}},{"attributes":{"ID":21715,"DIS_CODE":0,"TOWNNAME":"官田區","LI":"隆本里","LIN":"24鄰","STREET":"仁愛街","SECT":" ","MAREA":" ","LANE":" ","ALLEY":" ","HOUSE_NO":"９８號","E_COORD97":179870.82000000001,"N_COORD97":2566051.1299999999,"ADDRESS":"仁愛街９８號","OBJECTID":21715},"geometry":{"x":179870.8200000003,"y":2566051.1300000008}},{"attributes":{"ID":21716,"DIS_CODE":0,"TOWNNAME":"中西區","LI":"光賢里","LIN":"14鄰","STREET":"武聖路","SECT":" ","MAREA":" ","LANE":"６９巷","ALLEY":"４０弄","HOUSE_NO":"３０號十樓之１３","E_COORD97":166628.06,"N_COORD97":2545203.8599999999,"ADDRESS":"武聖路６９巷４０弄３０號十樓之１３","OBJECTID":21716},"geometry":{"x":166628.06000000052,"y":2545203.8599999994}},{"attributes":{"ID":21717,"DIS_CODE":0,"TOWNNAME":"中西區","LI":"光賢里","LIN":"14鄰","STREET":"武聖路","SECT":" ","MAREA":" ","LANE":"６９巷","ALLEY":"４０弄","HOUSE_NO":"３０號十樓之１４","E_COORD97":166628.06,"N_COORD97":2545203.8599999999,"ADDRESS":"武聖路６９巷４０弄３０號十樓之１４","OBJECTID":21717},"geometry":{"x":166628.06000000052,"y":2545203.8599999994}},{"attributes":{"ID":21718,"DIS_CODE":0,"TOWNNAME":"中西區","LI":"光賢里","LIN":"14鄰","STREET":"武聖路","SECT":" ","MAREA":" ","LANE":"６９巷","ALLEY":"４０弄","HOUSE_NO":"３０號十樓之１５","E_COORD97":166628.06,"N_COORD97":2545203.8599999999,"ADDRESS":"武聖路６９巷４０弄３０號十樓之１５","OBJECTID":21718},"geometry":{"x":166628.06000000052,"y":2545203.8599999994}},{"attributes":{"ID":21719,"DIS_CODE":0,"TOWNNAME":"中西區","LI":"光賢里","LIN":"14鄰","STREET":"武聖路","SECT":" ","MAREA":" ","LANE":"６９巷","ALLEY":"４０弄","HOUSE_NO":"３０號十樓之１６","E_COORD97":166628.06,"N_COORD97":2545203.8599999999,"ADDRESS":"武聖路６９巷４０弄３０號十樓之１６","OBJECTID":21719},"geometry":{"x":166628.06000000052,"y":2545203.8599999994}},{"attributes":{"ID":21720,"DIS_CODE":0,"TOWNNAME":"中西區","LI":"光賢里","LIN":"14鄰","STREET":"武聖路","SECT":" ","MAREA":" ","LANE":"６９巷","ALLEY":"４０弄","HOUSE_NO":"３０號十樓之１７","E_COORD97":166628.06,"N_COORD97":2545203.8599999999,"ADDRESS":"武聖路６９巷４０弄３０號十樓之１７","OBJECTID":21720},"geometry":{"x":166628.06000000052,"y":2545203.8599999994}},{"attributes":{"ID":21721,"DIS_CODE":0,"TOWNNAME":"西港區","LI":"西港里","LIN":"24鄰","STREET":" ","SECT":" ","MAREA":"堀子頭","LANE":" ","ALLEY":" ","HOUSE_NO":"３號之５６","E_COORD97":168503.51000000001,"N_COORD97":2557615.4100000001,"ADDRESS":"堀子頭３號之５６","OBJECTID":21721},"geometry":{"x":168503.51000000071,"y":2557615.4100000001}},{"attributes":{"ID":21722,"DIS_CODE":0,"TOWNNAME":"中西區","LI":"光賢里","LIN":"14鄰","STREET":"武聖路","SECT":" ","MAREA":" ","LANE":"６９巷","ALLEY":"４０弄","HOUSE_NO":"３０號十樓之１８","E_COORD97":166628.06,"N_COORD97":2545203.8599999999,"ADDRESS":"武聖路６９巷４０弄３０號十樓之１８","OBJECTID":21722},"geometry":{"x":166628.06000000052,"y":2545203.8599999994}},{"attributes":{"ID":21723,"DIS_CODE":0,"TOWNNAME":"中西區","LI":"光賢里","LIN":"14鄰","STREET":"武聖路","SECT":" ","MAREA":" ","LANE":"６９巷","ALLEY":"４０弄","HOUSE_NO":"３０號十樓之１９","E_COORD97":166628.06,"N_COORD97":2545203.8599999999,"ADDRESS":"武聖路６９巷４０弄３０號十樓之１９","OBJECTID":21723},"geometry":{"x":166628.06000000052,"y":2545203.8599999994}},{"attributes":{"ID":21724,"DIS_CODE":0,"TOWNNAME":"中西區","LI":"光賢里","LIN":"14鄰","STREET":"武聖路","SECT":" ","MAREA":" ","LANE":"６９巷","ALLEY":"４０弄","HOUSE_NO":"３０號十樓之２","E_COORD97":166628.06,"N_COORD97":2545203.8599999999,"ADDRESS":"武聖路６９巷４０弄３０號十樓之２","OBJECTID":21724},"geometry":{"x":166628.06000000052,"y":2545203.8599999994}},{"attributes":{"ID":21725,"DIS_CODE":0,"TOWNNAME":"東區","LI":"忠孝里","LIN":"24鄰","STREET":"崇明四街","SECT":" ","MAREA":" ","LANE":"２６巷","ALLEY":" ","HOUSE_NO":"９號","E_COORD97":169639.67000000001,"N_COORD97":2542267.1600000001,"ADDRESS":"崇明四街２６巷９號","OBJECTID":21725},"geometry":{"x":169639.67000000086,"y":2542267.1600000039}},{"attributes":{"ID":21726,"DIS_CODE":0,"TOWNNAME":"仁德區","LI":"大甲里","LIN":"24鄰","STREET":"中正西路","SECT":" ","MAREA":" ","LANE":" ","ALLEY":" ","HOUSE_NO":"３６５號","E_COORD97":169699.32000000001,"N_COORD97":2535394.4900000002,"ADDRESS":"中正西路３６５號","OBJECTID":21726},"geometry":{"x":169699.3200000003,"y":2535394.4900000002}},{"attributes":{"ID":21727,"DIS_CODE":0,"TOWNNAME":"東區","LI":"文聖里","LIN":"20鄰","STREET":"裕信二街","SECT":" ","MAREA":" ","LANE":" ","ALLEY":" ","HOUSE_NO":"１７０號","E_COORD97":172791.76999999999,"N_COORD97":2542607.0299999998,"ADDRESS":"裕信二街１７０號","OBJECTID":21727},"geometry":{"x":172791.77000000048,"y":2542607.0300000012}},{"attributes":{"ID":21728,"DIS_CODE":0,"TOWNNAME":"東區","LI":"文聖里","LIN":"20鄰","STREET":"裕信二街","SECT":" ","MAREA":" ","LANE":" ","ALLEY":" ","HOUSE_NO":"１７２號","E_COORD97":172797.31,"N_COORD97":2542607.1499999999,"ADDRESS":"裕信二街１７２號","OBJECTID":21728},"geometry":{"x":172797.30999999959,"y":2542607.1500000022}},{"attributes":{"ID":21729,"DIS_CODE":0,"TOWNNAME":"東區","LI":"文聖里","LIN":"20鄰","STREET":"裕信二街","SECT":" ","MAREA":" ","LANE":" ","ALLEY":" ","HOUSE_NO":"１７６號","E_COORD97":172803.09,"N_COORD97":2542607.2599999998,"ADDRESS":"裕信二街１７６號","OBJECTID":21729},"geometry":{"x":172803.09000000171,"y":2542607.2599999998}},{"attributes":{"ID":21730,"DIS_CODE":0,"TOWNNAME":"東區","LI":"和平里","LIN":"20鄰","STREET":"文化一街","SECT":" ","MAREA":" ","LANE":" ","ALLEY":" ","HOUSE_NO":"１２０號","E_COORD97":171188.5,"N_COORD97":2541966.5600000001,"ADDRESS":"文化一街１２０號","OBJECTID":21730},"geometry":{"x":171188.50000000093,"y":2541966.5600000042}},{"attributes":{"ID":21731,"DIS_CODE":0,"TOWNNAME":"中西區","LI":"光賢里","LIN":"14鄰","STREET":"武聖路","SECT":" ","MAREA":" ","LANE":"６９巷","ALLEY":"４０弄","HOUSE_NO":"３０號十樓之３","E_COORD97":166628.06,"N_COORD97":2545203.8599999999,"ADDRESS":"武聖路６９巷４０弄３０號十樓之３","OBJECTID":21731},"geometry":{"x":166628.06000000052,"y":2545203.8599999994}},{"attributes":{"ID":21732,"DIS_CODE":0,"TOWNNAME":"中西區","LI":"光賢里","LIN":"14鄰","STREET":"武聖路","SECT":" ","MAREA":" ","LANE":"６９巷","ALLEY":"４０弄","HOUSE_NO":"３０號十樓之４","E_COORD97":166628.06,"N_COORD97":2545203.8599999999,"ADDRESS":"武聖路６９巷４０弄３０號十樓之４","OBJECTID":21732},"geometry":{"x":166628.06000000052,"y":2545203.8599999994}},{"attributes":{"ID":21733,"DIS_CODE":0,"TOWNNAME":"中西區","LI":"光賢里","LIN":"14鄰","STREET":"武聖路","SECT":" ","MAREA":" ","LANE":"６９巷","ALLEY":"４０弄","HOUSE_NO":"３０號十樓之５","E_COORD97":166628.06,"N_COORD97":2545203.8599999999,"ADDRESS":"武聖路６９巷４０弄３０號十樓之５","OBJECTID":21733},"geometry":{"x":166628.06000000052,"y":2545203.8599999994}},{"attributes":{"ID":21734,"DIS_CODE":0,"TOWNNAME":"中西區","LI":"光賢里","LIN":"14鄰","STREET":"武聖路","SECT":" ","MAREA":" ","LANE":"６９巷","ALLEY":"４０弄","HOUSE_NO":"３０號十樓之６","E_COORD97":166628.06,"N_COORD97":2545203.8599999999,"ADDRESS":"武聖路６９巷４０弄３０號十樓之６","OBJECTID":21734},"geometry":{"x":166628.06000000052,"y":2545203.8599999994}},{"attributes":{"ID":21735,"DIS_CODE":0,"TOWNNAME":"中西區","LI":"光賢里","LIN":"14鄰","STREET":"武聖路","SECT":" ","MAREA":" ","LANE":"６９巷","ALLEY":"４０弄","HOUSE_NO":"３０號十樓之７","E_COORD97":166628.06,"N_COORD97":2545203.8599999999,"ADDRESS":"武聖路６９巷４０弄３０號十樓之７","OBJECTID":21735},"geometry":{"x":166628.06000000052,"y":2545203.8599999994}},{"attributes":{"ID":21736,"DIS_CODE":0,"TOWNNAME":"中西區","LI":"光賢里","LIN":"14鄰","STREET":"武聖路","SECT":" ","MAREA":" ","LANE":"６９巷","ALLEY":"４０弄","HOUSE_NO":"３０號十樓之８","E_COORD97":166628.06,"N_COORD97":2545203.8599999999,"ADDRESS":"武聖路６９巷４０弄３０號十樓之８","OBJECTID":21736},"geometry":{"x":166628.06000000052,"y":2545203.8599999994}},{"attributes":{"ID":21737,"DIS_CODE":0,"TOWNNAME":"中西區","LI":"光賢里","LIN":"14鄰","STREET":"武聖路","SECT":" ","MAREA":" ","LANE":"６９巷","ALLEY":"４０弄","HOUSE_NO":"３０號十樓之９","E_COORD97":166628.06,"N_COORD97":2545203.8599999999,"ADDRESS":"武聖路６９巷４０弄３０號十樓之９","OBJECTID":21737},"geometry":{"x":166628.06000000052,"y":2545203.8599999994}},{"attributes":{"ID":21738,"DIS_CODE":0,"TOWNNAME":"中西區","LI":"光賢里","LIN":"14鄰","STREET":"武聖路","SECT":" ","MAREA":" ","LANE":"６９巷","ALLEY":"４０弄","HOUSE_NO":"３０號三樓之１","E_COORD97":166628.06,"N_COORD97":2545203.8599999999,"ADDRESS":"武聖路６９巷４０弄３０號三樓之１","OBJECTID":21738},"geometry":{"x":166628.06000000052,"y":2545203.8599999994}},{"attributes":{"ID":21739,"DIS_CODE":0,"TOWNNAME":"中西區","LI":"光賢里","LIN":"14鄰","STREET":"武聖路","SECT":" ","MAREA":" ","LANE":"６９巷","ALLEY":"４０弄","HOUSE_NO":"３０號三樓之１０","E_COORD97":166628.06,"N_COORD97":2545203.8599999999,"ADDRESS":"武聖路６９巷４０弄３０號三樓之１０","OBJECTID":21739},"geometry":{"x":166628.06000000052,"y":2545203.8599999994}},{"attributes":{"ID":21740,"DIS_CODE":0,"TOWNNAME":"中西區","LI":"光賢里","LIN":"14鄰","STREET":"武聖路","SECT":" ","MAREA":" ","LANE":"６９巷","ALLEY":"４０弄","HOUSE_NO":"３０號三樓之１１","E_COORD97":166628.06,"N_COORD97":2545203.8599999999,"ADDRESS":"武聖路６９巷４０弄３０號三樓之１１","OBJECTID":21740},"geometry":{"x":166628.06000000052,"y":2545203.8599999994}},{"attributes":{"ID":21741,"DIS_CODE":0,"TOWNNAME":"中西區","LI":"光賢里","LIN":"14鄰","STREET":"武聖路","SECT":" ","MAREA":" ","LANE":"６９巷","ALLEY":"４０弄","HOUSE_NO":"３０號三樓之１２","E_COORD97":166628.06,"N_COORD97":2545203.8599999999,"ADDRESS":"武聖路６９巷４０弄３０號三樓之１２","OBJECTID":21741},"geometry":{"x":166628.06000000052,"y":2545203.8599999994}},{"attributes":{"ID":21742,"DIS_CODE":0,"TOWNNAME":"中西區","LI":"光賢里","LIN":"14鄰","STREET":"武聖路","SECT":" ","MAREA":" ","LANE":"６９巷","ALLEY":"４０弄","HOUSE_NO":"３０號三樓之２","E_COORD97":166628.06,"N_COORD97":2545203.8599999999,"ADDRESS":"武聖路６９巷４０弄３０號三樓之２","OBJECTID":21742},"geometry":{"x":166628.06000000052,"y":2545203.8599999994}},{"attributes":{"ID":21743,"DIS_CODE":0,"TOWNNAME":"中西區","LI":"光賢里","LIN":"14鄰","STREET":"武聖路","SECT":" ","MAREA":" ","LANE":"６９巷","ALLEY":"４０弄","HOUSE_NO":"３０號三樓之３","E_COORD97":166628.06,"N_COORD97":2545203.8599999999,"ADDRESS":"武聖路６９巷４０弄３０號三樓之３","OBJECTID":21743},"geometry":{"x":166628.06000000052,"y":2545203.8599999994}},{"attributes":{"ID":21744,"DIS_CODE":0,"TOWNNAME":"中西區","LI":"光賢里","LIN":"14鄰","STREET":"武聖路","SECT":" ","MAREA":" ","LANE":"６９巷","ALLEY":"４０弄","HOUSE_NO":"３０號三樓之４","E_COORD97":166628.06,"N_COORD97":2545203.8599999999,"ADDRESS":"武聖路６９巷４０弄３０號三樓之４","OBJECTID":21744},"geometry":{"x":166628.06000000052,"y":2545203.8599999994}},{"attributes":{"ID":21745,"DIS_CODE":0,"TOWNNAME":"中西區","LI":"光賢里","LIN":"14鄰","STREET":"武聖路","SECT":" ","MAREA":" ","LANE":"６９巷","ALLEY":"４０弄","HOUSE_NO":"３０號三樓之５","E_COORD97":166628.06,"N_COORD97":2545203.8599999999,"ADDRESS":"武聖路６９巷４０弄３０號三樓之５","OBJECTID":21745},"geometry":{"x":166628.06000000052,"y":2545203.8599999994}},{"attributes":{"ID":21746,"DIS_CODE":0,"TOWNNAME":"中西區","LI":"光賢里","LIN":"14鄰","STREET":"武聖路","SECT":" ","MAREA":" ","LANE":"６９巷","ALLEY":"４０弄","HOUSE_NO":"３０號三樓之６","E_COORD97":166628.06,"N_COORD97":2545203.8599999999,"ADDRESS":"武聖路６９巷４０弄３０號三樓之６","OBJECTID":21746},"geometry":{"x":166628.06000000052,"y":2545203.8599999994}},{"attributes":{"ID":21747,"DIS_CODE":0,"TOWNNAME":"中西區","LI":"光賢里","LIN":"14鄰","STREET":"武聖路","SECT":" ","MAREA":" ","LANE":"６９巷","ALLEY":"４０弄","HOUSE_NO":"３０號三樓之７","E_COORD97":166628.06,"N_COORD97":2545203.8599999999,"ADDRESS":"武聖路６９巷４０弄３０號三樓之７","OBJECTID":21747},"geometry":{"x":166628.06000000052,"y":2545203.8599999994}},{"attributes":{"ID":21748,"DIS_CODE":0,"TOWNNAME":"中西區","LI":"光賢里","LIN":"14鄰","STREET":"武聖路","SECT":" ","MAREA":" ","LANE":"６９巷","ALLEY":"４０弄","HOUSE_NO":"３０號三樓之８","E_COORD97":166628.06,"N_COORD97":2545203.8599999999,"ADDRESS":"武聖路６９巷４０弄３０號三樓之８","OBJECTID":21748},"geometry":{"x":166628.06000000052,"y":2545203.8599999994}},{"attributes":{"ID":21749,"DIS_CODE":0,"TOWNNAME":"西港區","LI":"西港里","LIN":"24鄰","STREET":" ","SECT":" ","MAREA":"堀子頭","LANE":" ","ALLEY":" ","HOUSE_NO":"３號之５８","E_COORD97":168493.29000000001,"N_COORD97":2557614.9500000002,"ADDRESS":"堀子頭３號之５８","OBJECTID":21749},"geometry":{"x":168493.29000000097,"y":2557614.9499999993}},{"attributes":{"ID":21750,"DIS_CODE":0,"TOWNNAME":"中西區","LI":"光賢里","LIN":"14鄰","STREET":"武聖路","SECT":" ","MAREA":" ","LANE":"６９巷","ALLEY":"４０弄","HOUSE_NO":"３０號三樓之９","E_COORD97":166628.06,"N_COORD97":2545203.8599999999,"ADDRESS":"武聖路６９巷４０弄３０號三樓之９","OBJECTID":21750},"geometry":{"x":166628.06000000052,"y":2545203.8599999994}},{"attributes":{"ID":21751,"DIS_CODE":0,"TOWNNAME":"中西區","LI":"光賢里","LIN":"14鄰","STREET":"武聖路","SECT":" ","MAREA":" ","LANE":"６９巷","ALLEY":"４０弄","HOUSE_NO":"３０號五樓之１","E_COORD97":166628.06,"N_COORD97":2545203.8599999999,"ADDRESS":"武聖路６９巷４０弄３０號五樓之１","OBJECTID":21751},"geometry":{"x":166628.06000000052,"y":2545203.8599999994}},{"attributes":{"ID":21752,"DIS_CODE":0,"TOWNNAME":"中西區","LI":"光賢里","LIN":"14鄰","STREET":"武聖路","SECT":" ","MAREA":" ","LANE":"６９巷","ALLEY":"４０弄","HOUSE_NO":"３０號五樓之１０","E_COORD97":166628.06,"N_COORD97":2545203.8599999999,"ADDRESS":"武聖路６９巷４０弄３０號五樓之１０","OBJECTID":21752},"geometry":{"x":166628.06000000052,"y":2545203.8599999994}},{"attributes":{"ID":21753,"DIS_CODE":0,"TOWNNAME":"永康區","LI":"西勢里","LIN":"24鄰","STREET":"廣興街","SECT":" ","MAREA":" ","LANE":" ","ALLEY":" ","HOUSE_NO":"２０號","E_COORD97":175911.87,"N_COORD97":2546566.1899999999,"ADDRESS":"廣興街２０號","OBJECTID":21753},"geometry":{"x":175911.87000000011,"y":2546566.1900000013}},{"attributes":{"ID":21754,"DIS_CODE":0,"TOWNNAME":"永康區","LI":"西勢里","LIN":"24鄰","STREET":"廣興街","SECT":" ","MAREA":" ","LANE":" ","ALLEY":" ","HOUSE_NO":"７０號","E_COORD97":176097.42999999999,"N_COORD97":2546561.7799999998,"ADDRESS":"廣興街７０號","OBJECTID":21754},"geometry":{"x":176097.4299999997,"y":2546561.7800000012}},{"attributes":{"ID":21755,"DIS_CODE":0,"TOWNNAME":"永康區","LI":"西勢里","LIN":"24鄰","STREET":"廣興街","SECT":" ","MAREA":" ","LANE":" ","ALLEY":" ","HOUSE_NO":"６６號","E_COORD97":176090.17999999999,"N_COORD97":2546567.3199999998,"ADDRESS":"廣興街６６號","OBJECTID":21755},"geometry":{"x":176090.1799999997,"y":2546567.3200000003}},{"attributes":{"ID":21756,"DIS_CODE":0,"TOWNNAME":"北區","LI":"六甲里","LIN":"4鄰","STREET":"公園路","SECT":" ","MAREA":" ","LANE":" ","ALLEY":" ","HOUSE_NO":"５４５號","E_COORD97":169073.62,"N_COORD97":2545621.5600000001,"ADDRESS":"公園路５４５號","OBJECTID":21756},"geometry":{"x":169073.62000000011,"y":2545621.5600000024}},{"attributes":{"ID":21757,"DIS_CODE":0,"TOWNNAME":"西港區","LI":"後營里","LIN":"17鄰","STREET":" ","SECT":" ","MAREA":"後營","LANE":" ","ALLEY":" ","HOUSE_NO":"３２６之２０號","E_COORD97":170335.75,"N_COORD97":2560267.3500000001,"ADDRESS":"後營３２６之２０號","OBJECTID":21757},"geometry":{"x":170335.75000000186,"y":2560267.3499999996}},{"attributes":{"ID":21758,"DIS_CODE":0,"TOWNNAME":"西港區","LI":"後營里","LIN":"17鄰","STREET":" ","SECT":" ","MAREA":"後營","LANE":" ","ALLEY":" ","HOUSE_NO":"３２６之２１號","E_COORD97":170332.95999999999,"N_COORD97":2560296.7200000002,"ADDRESS":"後營３２６之２１號","OBJECTID":21758},"geometry":{"x":170332.96000000089,"y":2560296.7200000007}},{"attributes":{"ID":21759,"DIS_CODE":0,"TOWNNAME":"中西區","LI":"光賢里","LIN":"14鄰","STREET":"武聖路","SECT":" ","MAREA":" ","LANE":"６９巷","ALLEY":"４０弄","HOUSE_NO":"３０號五樓之１１","E_COORD97":166628.06,"N_COORD97":2545203.8599999999,"ADDRESS":"武聖路６９巷４０弄３０號五樓之１１","OBJECTID":21759},"geometry":{"x":166628.06000000052,"y":2545203.8599999994}},{"attributes":{"ID":21760,"DIS_CODE":0,"TOWNNAME":"中西區","LI":"光賢里","LIN":"14鄰","STREET":"武聖路","SECT":" ","MAREA":" ","LANE":"６９巷","ALLEY":"４０弄","HOUSE_NO":"３０號五樓之１２","E_COORD97":166628.06,"N_COORD97":2545203.8599999999,"ADDRESS":"武聖路６９巷４０弄３０號五樓之１２","OBJECTID":21760},"geometry":{"x":166628.06000000052,"y":2545203.8599999994}},{"attributes":{"ID":21761,"DIS_CODE":0,"TOWNNAME":"北區","LI":"六甲里","LIN":"4鄰","STREET":"公園路","SECT":" ","MAREA":" ","LANE":" ","ALLEY":" ","HOUSE_NO":"５４５號之１","E_COORD97":169059.82000000001,"N_COORD97":2545624,"ADDRESS":"公園路５４５號之１","OBJECTID":21761},"geometry":{"x":169059.82000000123,"y":2545624}},{"attributes":{"ID":21762,"DIS_CODE":0,"TOWNNAME":"西港區","LI":"西港里","LIN":"24鄰","STREET":" ","SECT":" ","MAREA":"堀子頭","LANE":" ","ALLEY":" ","HOUSE_NO":"３號之５７","E_COORD97":168498.57999999999,"N_COORD97":2557615.0099999998,"ADDRESS":"堀子頭３號之５７","OBJECTID":21762},"geometry":{"x":168498.58000000007,"y":2557615.0099999998}},{"attributes":{"ID":21763,"DIS_CODE":0,"TOWNNAME":"中西區","LI":"光賢里","LIN":"14鄰","STREET":"武聖路","SECT":" ","MAREA":" ","LANE":"６９巷","ALLEY":"４０弄","HOUSE_NO":"３０號五樓之１３","E_COORD97":166628.06,"N_COORD97":2545203.8599999999,"ADDRESS":"武聖路６９巷４０弄３０號五樓之１３","OBJECTID":21763},"geometry":{"x":166628.06000000052,"y":2545203.8599999994}},{"attributes":{"ID":21764,"DIS_CODE":0,"TOWNNAME":"中西區","LI":"光賢里","LIN":"14鄰","STREET":"武聖路","SECT":" ","MAREA":" ","LANE":"６９巷","ALLEY":"４０弄","HOUSE_NO":"３０號五樓之１４","E_COORD97":166628.06,"N_COORD97":2545203.8599999999,"ADDRESS":"武聖路６９巷４０弄３０號五樓之１４","OBJECTID":21764},"geometry":{"x":166628.06000000052,"y":2545203.8599999994}},{"attributes":{"ID":21765,"DIS_CODE":0,"TOWNNAME":"西港區","LI":"西港里","LIN":"24鄰","STREET":" ","SECT":" ","MAREA":"堀子頭","LANE":" ","ALLEY":" ","HOUSE_NO":"４號","E_COORD97":168537.89000000001,"N_COORD97":2557612.6299999999,"ADDRESS":"堀子頭４號","OBJECTID":21765},"geometry":{"x":168537.8900000006,"y":2557612.629999999}},{"attributes":{"ID":21766,"DIS_CODE":0,"TOWNNAME":"西港區","LI":"西港里","LIN":"24鄰","STREET":" ","SECT":" ","MAREA":"堀子頭","LANE":" ","ALLEY":" ","HOUSE_NO":"２號","E_COORD97":168564.04999999999,"N_COORD97":2557590.7200000002,"ADDRESS":"堀子頭２號","OBJECTID":21766},"geometry":{"x":168564.05000000075,"y":2557590.7200000007}},{"attributes":{"ID":21767,"DIS_CODE":0,"TOWNNAME":"中西區","LI":"光賢里","LIN":"14鄰","STREET":"武聖路","SECT":" ","MAREA":" ","LANE":"６９巷","ALLEY":"４０弄","HOUSE_NO":"３０號五樓之１５","E_COORD97":166628.06,"N_COORD97":2545203.8599999999,"ADDRESS":"武聖路６９巷４０弄３０號五樓之１５","OBJECTID":21767},"geometry":{"x":166628.06000000052,"y":2545203.8599999994}},{"attributes":{"ID":21768,"DIS_CODE":0,"TOWNNAME":"永康區","LI":"西勢里","LIN":"24鄰","STREET":"廣興街","SECT":" ","MAREA":" ","LANE":" ","ALLEY":" ","HOUSE_NO":"１４號","E_COORD97":175853.98999999999,"N_COORD97":2546572.7400000002,"ADDRESS":"廣興街１４號","OBJECTID":21768},"geometry":{"x":175853.99000000115,"y":2546572.7400000021}},{"attributes":{"ID":21769,"DIS_CODE":0,"TOWNNAME":"永康區","LI":"西勢里","LIN":"24鄰","STREET":"廣興街","SECT":" ","MAREA":" ","LANE":" ","ALLEY":" ","HOUSE_NO":"１０號","E_COORD97":175844.89999999999,"N_COORD97":2546572.4900000002,"ADDRESS":"廣興街１０號","OBJECTID":21769},"geometry":{"x":175844.9000000013,"y":2546572.4900000002}},{"attributes":{"ID":21770,"DIS_CODE":0,"TOWNNAME":"善化區","LI":"光文里","LIN":"24鄰","STREET":"信義路","SECT":" ","MAREA":" ","LANE":" ","ALLEY":" ","HOUSE_NO":"１９５號","E_COORD97":178200.73000000001,"N_COORD97":2559196.9900000002,"ADDRESS":"信義路１９５號","OBJECTID":21770},"geometry":{"x":178200.73000000138,"y":2559196.9900000021}},{"attributes":{"ID":21771,"DIS_CODE":0,"TOWNNAME":"西港區","LI":"西港里","LIN":"24鄰","STREET":" ","SECT":" ","MAREA":"堀子頭","LANE":" ","ALLEY":" ","HOUSE_NO":"３號之４３","E_COORD97":168505.45999999999,"N_COORD97":2557585.6499999999,"ADDRESS":"堀子頭３號之４３","OBJECTID":21771},"geometry":{"x":168505.46000000089,"y":2557585.6500000022}},{"attributes":{"ID":21772,"DIS_CODE":0,"TOWNNAME":"西港區","LI":"西港里","LIN":"24鄰","STREET":" ","SECT":" ","MAREA":"堀子頭","LANE":" ","ALLEY":" ","HOUSE_NO":"３號之４５","E_COORD97":168500.37,"N_COORD97":2557585.1400000001,"ADDRESS":"堀子頭３號之４５","OBJECTID":21772},"geometry":{"x":168500.37000000011,"y":2557585.1400000006}},{"attributes":{"ID":21773,"DIS_CODE":0,"TOWNNAME":"西港區","LI":"西港里","LIN":"24鄰","STREET":" ","SECT":" ","MAREA":"堀子頭","LANE":" ","ALLEY":" ","HOUSE_NO":"３號之４６","E_COORD97":168495.85000000001,"N_COORD97":2557585.1000000001,"ADDRESS":"堀子頭３號之４６","OBJECTID":21773},"geometry":{"x":168495.85000000056,"y":2557585.1000000015}},{"attributes":{"ID":21774,"DIS_CODE":0,"TOWNNAME":"西港區","LI":"西港里","LIN":"24鄰","STREET":" ","SECT":" ","MAREA":"堀子頭","LANE":" ","ALLEY":" ","HOUSE_NO":"３號之４７","E_COORD97":168519.32999999999,"N_COORD97":2557603.6200000001,"ADDRESS":"堀子頭３號之４７","OBJECTID":21774},"geometry":{"x":168519.33000000007,"y":2557603.6200000029}},{"attributes":{"ID":21775,"DIS_CODE":0,"TOWNNAME":"西港區","LI":"西港里","LIN":"24鄰","STREET":" ","SECT":" ","MAREA":"堀子頭","LANE":" ","ALLEY":" ","HOUSE_NO":"３號之４８","E_COORD97":168514.42999999999,"N_COORD97":2557603.1800000002,"ADDRESS":"堀子頭３號之４８","OBJECTID":21775},"geometry":{"x":168514.4299999997,"y":2557603.1799999997}},{"attributes":{"ID":21776,"DIS_CODE":0,"TOWNNAME":"西港區","LI":"西港里","LIN":"24鄰","STREET":" ","SECT":" ","MAREA":"堀子頭","LANE":" ","ALLEY":" ","HOUSE_NO":"３號之４９","E_COORD97":168509.48000000001,"N_COORD97":2557603.1899999999,"ADDRESS":"堀子頭３號之４９","OBJECTID":21776},"geometry":{"x":168509.48000000138,"y":2557603.1899999995}},{"attributes":{"ID":21777,"DIS_CODE":0,"TOWNNAME":"西港區","LI":"西港里","LIN":"24鄰","STREET":" ","SECT":" ","MAREA":"堀子頭","LANE":" ","ALLEY":" ","HOUSE_NO":"３號之４","E_COORD97":168548.35000000001,"N_COORD97":2557533.1000000001,"ADDRESS":"堀子頭３號之４","OBJECTID":21777},"geometry":{"x":168548.35000000056,"y":2557533.0999999996}},{"attributes":{"ID":21778,"DIS_CODE":0,"TOWNNAME":"西港區","LI":"西港里","LIN":"24鄰","STREET":" ","SECT":" ","MAREA":"堀子頭","LANE":" ","ALLEY":" ","HOUSE_NO":"３號之５０","E_COORD97":168504.42000000001,"N_COORD97":2557602.7599999998,"ADDRESS":"堀子頭３號之５０","OBJECTID":21778},"geometry":{"x":168504.42000000086,"y":2557602.7599999998}},{"attributes":{"ID":21779,"DIS_CODE":0,"TOWNNAME":"西港區","LI":"西港里","LIN":"24鄰","STREET":" ","SECT":" ","MAREA":"堀子頭","LANE":" ","ALLEY":" ","HOUSE_NO":"３號之５１","E_COORD97":168498.98000000001,"N_COORD97":2557602.48,"ADDRESS":"堀子頭３號之５１","OBJECTID":21779},"geometry":{"x":168498.98000000138,"y":2557602.4800000004}},{"attributes":{"ID":21780,"DIS_CODE":0,"TOWNNAME":"西港區","LI":"西港里","LIN":"24鄰","STREET":" ","SECT":" ","MAREA":"堀子頭","LANE":" ","ALLEY":" ","HOUSE_NO":"３號之５２","E_COORD97":168494.26999999999,"N_COORD97":2557602.0299999998,"ADDRESS":"堀子頭３號之５２","OBJECTID":21780},"geometry":{"x":168494.27000000048,"y":2557602.0300000031}},{"attributes":{"ID":21781,"DIS_CODE":0,"TOWNNAME":"西港區","LI":"西港里","LIN":"24鄰","STREET":" ","SECT":" ","MAREA":"堀子頭","LANE":" ","ALLEY":" ","HOUSE_NO":"３號之５３","E_COORD97":168518.92999999999,"N_COORD97":2557616.1800000002,"ADDRESS":"堀子頭３號之５３","OBJECTID":21781},"geometry":{"x":168518.93000000063,"y":2557616.1800000016}},{"attributes":{"ID":21782,"DIS_CODE":0,"TOWNNAME":"西港區","LI":"西港里","LIN":"24鄰","STREET":" ","SECT":" ","MAREA":"堀子頭","LANE":" ","ALLEY":" ","HOUSE_NO":"３號之５４","E_COORD97":168513.79999999999,"N_COORD97":2557615.6499999999,"ADDRESS":"堀子頭３號之５４","OBJECTID":21782},"geometry":{"x":168513.79999999981,"y":2557615.6500000041}},{"attributes":{"ID":21783,"DIS_CODE":0,"TOWNNAME":"西港區","LI":"西港里","LIN":"24鄰","STREET":" ","SECT":" ","MAREA":"堀子頭","LANE":" ","ALLEY":" ","HOUSE_NO":"３號之５５","E_COORD97":168509.04999999999,"N_COORD97":2557615.6699999999,"ADDRESS":"堀子頭３號之５５","OBJECTID":21783},"geometry":{"x":168509.04999999981,"y":2557615.6700000018}},{"attributes":{"ID":21784,"DIS_CODE":0,"TOWNNAME":"西港區","LI":"西港里","LIN":"24鄰","STREET":" ","SECT":" ","MAREA":"堀子頭","LANE":" ","ALLEY":" ","HOUSE_NO":"３號之５９","E_COORD97":168492.09,"N_COORD97":2557631.0499999998,"ADDRESS":"堀子頭３號之５９","OBJECTID":21784},"geometry":{"x":168492.08999999985,"y":2557631.0500000026}},{"attributes":{"ID":21785,"DIS_CODE":0,"TOWNNAME":"西港區","LI":"西港里","LIN":"24鄰","STREET":" ","SECT":" ","MAREA":"堀子頭","LANE":" ","ALLEY":" ","HOUSE_NO":"３號之５","E_COORD97":168544.66,"N_COORD97":2557533.0299999998,"ADDRESS":"堀子頭３號之５","OBJECTID":21785},"geometry":{"x":168544.66000000201,"y":2557533.0299999993}},{"attributes":{"ID":21786,"DIS_CODE":0,"TOWNNAME":"西港區","LI":"西港里","LIN":"24鄰","STREET":" ","SECT":" ","MAREA":"堀子頭","LANE":" ","ALLEY":" ","HOUSE_NO":"３號之６０","E_COORD97":168497.66,"N_COORD97":2557631.1099999999,"ADDRESS":"堀子頭３號之６０","OBJECTID":21786},"geometry":{"x":168497.66000000108,"y":2557631.1099999994}},{"attributes":{"ID":21787,"DIS_CODE":0,"TOWNNAME":"西港區","LI":"西港里","LIN":"24鄰","STREET":" ","SECT":" ","MAREA":"堀子頭","LANE":" ","ALLEY":" ","HOUSE_NO":"５之１號","E_COORD97":168550.91,"N_COORD97":2557639.1099999999,"ADDRESS":"堀子頭５之１號","OBJECTID":21787},"geometry":{"x":168550.91000000015,"y":2557639.1100000013}},{"attributes":{"ID":21788,"DIS_CODE":0,"TOWNNAME":"西港區","LI":"西港里","LIN":"24鄰","STREET":" ","SECT":" ","MAREA":"堀子頭","LANE":" ","ALLEY":" ","HOUSE_NO":"５號","E_COORD97":168551.73000000001,"N_COORD97":2557619.5699999998,"ADDRESS":"堀子頭５號","OBJECTID":21788},"geometry":{"x":168551.73000000138,"y":2557619.570000004}},{"attributes":{"ID":21789,"DIS_CODE":0,"TOWNNAME":"麻豆區","LI":"南勢里","LIN":"24鄰","STREET":" ","SECT":" ","MAREA":"南勢","LANE":" ","ALLEY":" ","HOUSE_NO":"８４號","E_COORD97":174494.54000000001,"N_COORD97":2565100.1099999999,"ADDRESS":"南勢８４號","OBJECTID":21789},"geometry":{"x":174494.54000000097,"y":2565100.1099999994}},{"attributes":{"ID":21790,"DIS_CODE":0,"TOWNNAME":"中西區","LI":"光賢里","LIN":"14鄰","STREET":"武聖路","SECT":" ","MAREA":" ","LANE":"６９巷","ALLEY":"４０弄","HOUSE_NO":"３０號五樓之１６","E_COORD97":166628.06,"N_COORD97":2545203.8599999999,"ADDRESS":"武聖路６９巷４０弄３０號五樓之１６","OBJECTID":21790},"geometry":{"x":166628.06000000052,"y":2545203.8599999994}},{"attributes":{"ID":21791,"DIS_CODE":0,"TOWNNAME":"西港區","LI":"後營里","LIN":"17鄰","STREET":" ","SECT":" ","MAREA":"後營","LANE":" ","ALLEY":" ","HOUSE_NO":"３２６之２６號","E_COORD97":170275.67999999999,"N_COORD97":2560336.5099999998,"ADDRESS":"後營３２６之２６號","OBJECTID":21791},"geometry":{"x":170275.6799999997,"y":2560336.5100000016}},{"attributes":{"ID":21792,"DIS_CODE":0,"TOWNNAME":"西港區","LI":"後營里","LIN":"17鄰","STREET":" ","SECT":" ","MAREA":"後營","LANE":" ","ALLEY":" ","HOUSE_NO":"３２６之３０號","E_COORD97":170387.98999999999,"N_COORD97":2560290.9100000001,"ADDRESS":"後營３２６之３０號","OBJECTID":21792},"geometry":{"x":170387.99000000022,"y":2560290.9100000001}},{"attributes":{"ID":21793,"DIS_CODE":0,"TOWNNAME":"西港區","LI":"後營里","LIN":"17鄰","STREET":" ","SECT":" ","MAREA":"後營","LANE":" ","ALLEY":" ","HOUSE_NO":"３５３號","E_COORD97":170301.95999999999,"N_COORD97":2560024.6299999999,"ADDRESS":"後營３５３號","OBJECTID":21793},"geometry":{"x":170301.96000000183,"y":2560024.6299999971}},{"attributes":{"ID":21794,"DIS_CODE":0,"TOWNNAME":"中西區","LI":"光賢里","LIN":"14鄰","STREET":"武聖路","SECT":" ","MAREA":" ","LANE":"６９巷","ALLEY":"４０弄","HOUSE_NO":"３０號五樓之１７","E_COORD97":166628.06,"N_COORD97":2545203.8599999999,"ADDRESS":"武聖路６９巷４０弄３０號五樓之１７","OBJECTID":21794},"geometry":{"x":166628.06000000052,"y":2545203.8599999994}},{"attributes":{"ID":21795,"DIS_CODE":0,"TOWNNAME":"中西區","LI":"光賢里","LIN":"14鄰","STREET":"武聖路","SECT":" ","MAREA":" ","LANE":"６９巷","ALLEY":"４０弄","HOUSE_NO":"３０號五樓之１８","E_COORD97":166628.06,"N_COORD97":2545203.8599999999,"ADDRESS":"武聖路６９巷４０弄３０號五樓之１８","OBJECTID":21795},"geometry":{"x":166628.06000000052,"y":2545203.8599999994}},{"attributes":{"ID":21796,"DIS_CODE":0,"TOWNNAME":"中西區","LI":"光賢里","LIN":"14鄰","STREET":"武聖路","SECT":" ","MAREA":" ","LANE":"６９巷","ALLEY":"４０弄","HOUSE_NO":"３０號五樓之１９","E_COORD97":166628.06,"N_COORD97":2545203.8599999999,"ADDRESS":"武聖路６９巷４０弄３０號五樓之１９","OBJECTID":21796},"geometry":{"x":166628.06000000052,"y":2545203.8599999994}},{"attributes":{"ID":21797,"DIS_CODE":0,"TOWNNAME":"中西區","LI":"光賢里","LIN":"14鄰","STREET":"武聖路","SECT":" ","MAREA":" ","LANE":"６９巷","ALLEY":"４０弄","HOUSE_NO":"３０號五樓之２","E_COORD97":166628.06,"N_COORD97":2545203.8599999999,"ADDRESS":"武聖路６９巷４０弄３０號五樓之２","OBJECTID":21797},"geometry":{"x":166628.06000000052,"y":2545203.8599999994}},{"attributes":{"ID":21798,"DIS_CODE":0,"TOWNNAME":"中西區","LI":"光賢里","LIN":"14鄰","STREET":"武聖路","SECT":" ","MAREA":" ","LANE":"６９巷","ALLEY":"４０弄","HOUSE_NO":"３０號五樓之３","E_COORD97":166628.06,"N_COORD97":2545203.8599999999,"ADDRESS":"武聖路６９巷４０弄３０號五樓之３","OBJECTID":21798},"geometry":{"x":166628.06000000052,"y":2545203.8599999994}},{"attributes":{"ID":21799,"DIS_CODE":0,"TOWNNAME":"中西區","LI":"光賢里","LIN":"14鄰","STREET":"武聖路","SECT":" ","MAREA":" ","LANE":"６９巷","ALLEY":"４０弄","HOUSE_NO":"３０號五樓之４","E_COORD97":166628.06,"N_COORD97":2545203.8599999999,"ADDRESS":"武聖路６９巷４０弄３０號五樓之４","OBJECTID":21799},"geometry":{"x":166628.06000000052,"y":2545203.8599999994}},{"attributes":{"ID":21800,"DIS_CODE":0,"TOWNNAME":"中西區","LI":"光賢里","LIN":"14鄰","STREET":"武聖路","SECT":" ","MAREA":" ","LANE":"６９巷","ALLEY":"４０弄","HOUSE_NO":"３０號五樓之５","E_COORD97":166628.06,"N_COORD97":2545203.8599999999,"ADDRESS":"武聖路６９巷４０弄３０號五樓之５","OBJECTID":21800},"geometry":{"x":166628.06000000052,"y":2545203.8599999994}}]}