{"displayFieldName":"TOWNNAME","fieldAliases":{"ID":"ID","DIS_CODE":"DIS_CODE","TOWNNAME":"TOWNNAME","LI":"LI","LIN":"LIN","STREET":"STREET","SECT":"SECT","MAREA":"MAREA","LANE":"LANE","ALLEY":"ALLEY","HOUSE_NO":"HOUSE_NO","E_COORD97":"E_COORD97","N_COORD97":"N_COORD97","ADDRESS":"ADDRESS","OBJECTID":"OBJECTID"},"geometryType":"esriGeometryPoint","spatialReference":{"wkid":102443,"latestWkid":3826},"fields":[{"name":"ID","type":"esriFieldTypeDouble","alias":"ID"},{"name":"DIS_CODE","type":"esriFieldTypeInteger","alias":"DIS_CODE"},{"name":"TOWNNAME","type":"esriFieldTypeString","alias":"TOWNNAME","length":8},{"name":"LI","type":"esriFieldTypeString","alias":"LI","length":8},{"name":"LIN","type":"esriFieldTypeString","alias":"LIN","length":12},{"name":"STREET","type":"esriFieldTypeString","alias":"STREET","length":20},{"name":"SECT","type":"esriFieldTypeString","alias":"SECT","length":8},{"name":"MAREA","type":"esriFieldTypeString","alias":"MAREA","length":12},{"name":"LANE","type":"esriFieldTypeString","alias":"LANE","length":10},{"name":"ALLEY","type":"esriFieldTypeString","alias":"ALLEY","length":10},{"name":"HOUSE_NO","type":"esriFieldTypeString","alias":"HOUSE_NO","length":20},{"name":"E_COORD97","type":"esriFieldTypeDouble","alias":"E_COORD97"},{"name":"N_COORD97","type":"esriFieldTypeDouble","alias":"N_COORD97"},{"name":"ADDRESS","type":"esriFieldTypeString","alias":"ADDRESS","length":50},{"name":"OBJECTID","type":"esriFieldTypeOID","alias":"OBJECTID"}],"features":[{"attributes":{"ID":648028,"DIS_CODE":0,"TOWNNAME":"新營區","LI":"南紙里","LIN":"4鄰","STREET":"南紙街","SECT":" ","MAREA":" ","LANE":" ","ALLEY":" ","HOUSE_NO":"２７號","E_COORD97":177844.839664,"N_COORD97":2577731.7816900001,"ADDRESS":"南紙街２７號","OBJECTID":648001},"geometry":{"x":177844.83966399916,"y":2577731.7816930003}},{"attributes":{"ID":648029,"DIS_CODE":0,"TOWNNAME":"中西區","LI":"仙草里","LIN":"7鄰","STREET":"永福路","SECT":"一段","MAREA":" ","LANE":"６１巷","ALLEY":" ","HOUSE_NO":"３號之１","E_COORD97":167948.77986400001,"N_COORD97":2542634.54232,"ADDRESS":"永福路一段６１巷３號之１","OBJECTID":648002},"geometry":{"x":167948.77986400016,"y":2542634.5423230026}},{"attributes":{"ID":648030,"DIS_CODE":0,"TOWNNAME":"新營區","LI":"南紙里","LIN":"5鄰","STREET":"南紙街","SECT":" ","MAREA":" ","LANE":"２９巷","ALLEY":"６弄","HOUSE_NO":"１１號","E_COORD97":177877.29248999999,"N_COORD97":2577686.3792099999,"ADDRESS":"南紙街２９巷６弄１１號","OBJECTID":648003},"geometry":{"x":177877.29248999991,"y":2577686.3792100009}},{"attributes":{"ID":648031,"DIS_CODE":0,"TOWNNAME":"新營區","LI":"南紙里","LIN":"5鄰","STREET":"南紙街","SECT":" ","MAREA":" ","LANE":"２９巷","ALLEY":"６弄","HOUSE_NO":"１３號","E_COORD97":177881.32258000001,"N_COORD97":2577686.3792099999,"ADDRESS":"南紙街２９巷６弄１３號","OBJECTID":648004},"geometry":{"x":177881.32258000132,"y":2577686.3792100009}},{"attributes":{"ID":648032,"DIS_CODE":0,"TOWNNAME":"新營區","LI":"南紙里","LIN":"5鄰","STREET":"南紙街","SECT":" ","MAREA":" ","LANE":"２９巷","ALLEY":"６弄","HOUSE_NO":"１６號","E_COORD97":177881.746809,"N_COORD97":2577672.5150600001,"ADDRESS":"南紙街２９巷６弄１６號","OBJECTID":648005},"geometry":{"x":177881.74680899922,"y":2577672.5150579996}},{"attributes":{"ID":648033,"DIS_CODE":0,"TOWNNAME":"新營區","LI":"王公里","LIN":"9鄰","STREET":"義和街","SECT":" ","MAREA":" ","LANE":" ","ALLEY":" ","HOUSE_NO":"１３號","E_COORD97":180388.463701,"N_COORD97":2579038.4917899999,"ADDRESS":"義和街１３號","OBJECTID":648006},"geometry":{"x":180388.46370100137,"y":2579038.4917879999}},{"attributes":{"ID":648034,"DIS_CODE":0,"TOWNNAME":"中西區","LI":"民權里","LIN":"12鄰","STREET":"神農街","SECT":" ","MAREA":" ","LANE":" ","ALLEY":" ","HOUSE_NO":"１３１號","E_COORD97":167512.35283700001,"N_COORD97":2544280.0630000001,"ADDRESS":"神農街１３１號","OBJECTID":648007},"geometry":{"x":167512.3528370019,"y":2544280.0630050004}},{"attributes":{"ID":648035,"DIS_CODE":0,"TOWNNAME":"新營區","LI":"南紙里","LIN":"5鄰","STREET":"南紙街","SECT":" ","MAREA":" ","LANE":"２９巷","ALLEY":"６弄","HOUSE_NO":"２９號","E_COORD97":177915.89652400001,"N_COORD97":2577696.4333799998,"ADDRESS":"南紙街２９巷６弄２９號","OBJECTID":648008},"geometry":{"x":177915.89652399998,"y":2577696.4333790019}},{"attributes":{"ID":648036,"DIS_CODE":0,"TOWNNAME":"新營區","LI":"南紙里","LIN":"5鄰","STREET":"南紙街","SECT":" ","MAREA":" ","LANE":"２９巷","ALLEY":"６弄","HOUSE_NO":"３１號","E_COORD97":177920.77505500001,"N_COORD97":2577697.8092100001,"ADDRESS":"南紙街２９巷６弄３１號","OBJECTID":648009},"geometry":{"x":177920.77505500056,"y":2577697.8092110027}},{"attributes":{"ID":648037,"DIS_CODE":0,"TOWNNAME":"新營區","LI":"南紙里","LIN":"5鄰","STREET":"南紙街","SECT":" ","MAREA":" ","LANE":"２９巷","ALLEY":"６弄","HOUSE_NO":"２號","E_COORD97":177855.65727500001,"N_COORD97":2577670.1867300002,"ADDRESS":"南紙街２９巷６弄２號","OBJECTID":648010},"geometry":{"x":177855.65727500059,"y":2577670.186726002}},{"attributes":{"ID":648038,"DIS_CODE":0,"TOWNNAME":"新營區","LI":"南紙里","LIN":"5鄰","STREET":"南紙街","SECT":" ","MAREA":" ","LANE":" ","ALLEY":" ","HOUSE_NO":"５９號","E_COORD97":177825.325541,"N_COORD97":2577645.4217400001,"ADDRESS":"南紙街５９號","OBJECTID":648011},"geometry":{"x":177825.32554100081,"y":2577645.4217400011}},{"attributes":{"ID":648039,"DIS_CODE":0,"TOWNNAME":"新營區","LI":"南紙里","LIN":"5鄰","STREET":"南紙街","SECT":" ","MAREA":" ","LANE":" ","ALLEY":" ","HOUSE_NO":"６１號","E_COORD97":177825.325541,"N_COORD97":2577639.2834100001,"ADDRESS":"南紙街６１號","OBJECTID":648012},"geometry":{"x":177825.32554100081,"y":2577639.2834100034}},{"attributes":{"ID":648040,"DIS_CODE":0,"TOWNNAME":"新營區","LI":"南紙里","LIN":"5鄰","STREET":"南紙街","SECT":" ","MAREA":" ","LANE":" ","ALLEY":" ","HOUSE_NO":"６７號","E_COORD97":177825.53765099999,"N_COORD97":2577632.72175,"ADDRESS":"南紙街６７號","OBJECTID":648013},"geometry":{"x":177825.53765100148,"y":2577632.7217470016}},{"attributes":{"ID":648041,"DIS_CODE":0,"TOWNNAME":"新營區","LI":"南紙里","LIN":"5鄰","STREET":"南紙街","SECT":" ","MAREA":" ","LANE":" ","ALLEY":" ","HOUSE_NO":"６９號","E_COORD97":177855.65727500001,"N_COORD97":2577640.5534100002,"ADDRESS":"南紙街６９號","OBJECTID":648014},"geometry":{"x":177855.65727500059,"y":2577640.553408999}},{"attributes":{"ID":648042,"DIS_CODE":0,"TOWNNAME":"新營區","LI":"南紙里","LIN":"5鄰","STREET":"南紙街","SECT":" ","MAREA":" ","LANE":" ","ALLEY":" ","HOUSE_NO":"７１號","E_COORD97":177856.29360599999,"N_COORD97":2577632.5100799999,"ADDRESS":"南紙街７１號","OBJECTID":648015},"geometry":{"x":177856.29360600188,"y":2577632.5100800022}},{"attributes":{"ID":648043,"DIS_CODE":0,"TOWNNAME":"關廟區","LI":"深坑里","LIN":"3鄰","STREET":"南雄路","SECT":"一段","MAREA":" ","LANE":"４３３巷","ALLEY":" ","HOUSE_NO":"３０號","E_COORD97":181612.01566999999,"N_COORD97":2537556.89555,"ADDRESS":"南雄路一段４３３巷３０號","OBJECTID":648016},"geometry":{"x":181612.01567000058,"y":2537556.8955470044}},{"attributes":{"ID":648044,"DIS_CODE":0,"TOWNNAME":"關廟區","LI":"深坑里","LIN":"3鄰","STREET":"南雄路","SECT":"一段","MAREA":" ","LANE":"４３３巷","ALLEY":" ","HOUSE_NO":"２號","E_COORD97":181691.19212699999,"N_COORD97":2537604.08396,"ADDRESS":"南雄路一段４３３巷２號","OBJECTID":648017},"geometry":{"x":181691.19212700054,"y":2537604.0839590039}},{"attributes":{"ID":648045,"DIS_CODE":0,"TOWNNAME":"仁德區","LI":"仁和里","LIN":"17鄰","STREET":" ","SECT":" ","MAREA":"仁和","LANE":" ","ALLEY":" ","HOUSE_NO":"３５０號","E_COORD97":170476.62172600001,"N_COORD97":2539886.1301500001,"ADDRESS":"仁和３５０號","OBJECTID":648018},"geometry":{"x":170476.62172600068,"y":2539886.1301509999}},{"attributes":{"ID":648046,"DIS_CODE":0,"TOWNNAME":"關廟區","LI":"深坑里","LIN":"3鄰","STREET":"深坑二街","SECT":" ","MAREA":" ","LANE":" ","ALLEY":" ","HOUSE_NO":"２９號","E_COORD97":181590.79516199999,"N_COORD97":2537586.5156399999,"ADDRESS":"深坑二街２９號","OBJECTID":648019},"geometry":{"x":181590.79516199976,"y":2537586.5156350043}},{"attributes":{"ID":648047,"DIS_CODE":0,"TOWNNAME":"關廟區","LI":"深坑里","LIN":"3鄰","STREET":"深坑二街","SECT":" ","MAREA":" ","LANE":" ","ALLEY":" ","HOUSE_NO":"２７號","E_COORD97":181602.02098299999,"N_COORD97":2537585.66897,"ADDRESS":"深坑二街２７號","OBJECTID":648020},"geometry":{"x":181602.02098300029,"y":2537585.6689690016}},{"attributes":{"ID":648048,"DIS_CODE":0,"TOWNNAME":"仁德區","LI":"仁和里","LIN":"17鄰","STREET":" ","SECT":" ","MAREA":"仁和","LANE":" ","ALLEY":" ","HOUSE_NO":"３５１之２號","E_COORD97":170481.49484299999,"N_COORD97":2539879.8859899999,"ADDRESS":"仁和３５１之２號","OBJECTID":648021},"geometry":{"x":170481.49484300148,"y":2539879.8859880008}},{"attributes":{"ID":648049,"DIS_CODE":0,"TOWNNAME":"仁德區","LI":"仁和里","LIN":"17鄰","STREET":" ","SECT":" ","MAREA":"仁和","LANE":" ","ALLEY":" ","HOUSE_NO":"３５１之４號","E_COORD97":170486.05014800001,"N_COORD97":2539877.24016,"ADDRESS":"仁和３５１之４號","OBJECTID":648022},"geometry":{"x":170486.05014800187,"y":2539877.2401560005}},{"attributes":{"ID":648050,"DIS_CODE":0,"TOWNNAME":"新營區","LI":"王公里","LIN":"14鄰","STREET":"公正街","SECT":" ","MAREA":" ","LANE":"７０巷","ALLEY":" ","HOUSE_NO":"１３號","E_COORD97":180240.487127,"N_COORD97":2579399.7834600001,"ADDRESS":"公正街７０巷１３號","OBJECTID":648023},"geometry":{"x":180240.48712700233,"y":2579399.783459004}},{"attributes":{"ID":648051,"DIS_CODE":0,"TOWNNAME":"仁德區","LI":"仁和里","LIN":"17鄰","STREET":" ","SECT":" ","MAREA":"仁和","LANE":" ","ALLEY":" ","HOUSE_NO":"３３０號","E_COORD97":170489.55074400001,"N_COORD97":2539950.2425600002,"ADDRESS":"仁和３３０號","OBJECTID":648024},"geometry":{"x":170489.55074400175,"y":2539950.2425640002}},{"attributes":{"ID":648052,"DIS_CODE":0,"TOWNNAME":"仁德區","LI":"仁和里","LIN":"17鄰","STREET":" ","SECT":" ","MAREA":"仁和","LANE":" ","ALLEY":" ","HOUSE_NO":"３３５號","E_COORD97":170489.23293200001,"N_COORD97":2539933.9442400001,"ADDRESS":"仁和３３５號","OBJECTID":648025},"geometry":{"x":170489.23293200135,"y":2539933.9442389999}},{"attributes":{"ID":648053,"DIS_CODE":0,"TOWNNAME":"仁德區","LI":"仁和里","LIN":"17鄰","STREET":" ","SECT":" ","MAREA":"仁和","LANE":" ","ALLEY":" ","HOUSE_NO":"３３６號","E_COORD97":170489.97449299999,"N_COORD97":2539922.6200799998,"ADDRESS":"仁和３３６號","OBJECTID":648026},"geometry":{"x":170489.97449299973,"y":2539922.6200790033}},{"attributes":{"ID":648054,"DIS_CODE":0,"TOWNNAME":"仁德區","LI":"仁和里","LIN":"17鄰","STREET":" ","SECT":" ","MAREA":"仁和","LANE":" ","ALLEY":" ","HOUSE_NO":"３３６之１號","E_COORD97":170489.338869,"N_COORD97":2539916.4817499998,"ADDRESS":"仁和３３６之１號","OBJECTID":648027},"geometry":{"x":170489.33886900172,"y":2539916.481749}},{"attributes":{"ID":648055,"DIS_CODE":0,"TOWNNAME":"北門區","LI":"保吉里","LIN":"3鄰","STREET":" ","SECT":" ","MAREA":"蚵寮","LANE":" ","ALLEY":" ","HOUSE_NO":"４１號","E_COORD97":161492.40479299999,"N_COORD97":2575755.87469,"ADDRESS":"蚵寮４１號","OBJECTID":648028},"geometry":{"x":161492.40479300078,"y":2575755.8746920004}},{"attributes":{"ID":648056,"DIS_CODE":0,"TOWNNAME":"東山區","LI":"青山里","LIN":"2鄰","STREET":" ","SECT":" ","MAREA":"青山","LANE":" ","ALLEY":" ","HOUSE_NO":"１５號之６","E_COORD97":195479.299333,"N_COORD97":2575259.5674399999,"ADDRESS":"青山１５號之６","OBJECTID":648029},"geometry":{"x":195479.29933299962,"y":2575259.5674419999}},{"attributes":{"ID":648057,"DIS_CODE":0,"TOWNNAME":"北門區","LI":"保吉里","LIN":"3鄰","STREET":" ","SECT":" ","MAREA":"蚵寮","LANE":" ","ALLEY":" ","HOUSE_NO":"２５之１號","E_COORD97":161498.12656500001,"N_COORD97":2575683.9080599998,"ADDRESS":"蚵寮２５之１號","OBJECTID":648030},"geometry":{"x":161498.1265650019,"y":2575683.9080640022}},{"attributes":{"ID":648058,"DIS_CODE":0,"TOWNNAME":"楠西區","LI":"灣丘里","LIN":"12鄰","STREET":" ","SECT":" ","MAREA":"香蕉山","LANE":" ","ALLEY":" ","HOUSE_NO":"５４號","E_COORD97":203719.16927899999,"N_COORD97":2563456.0140200001,"ADDRESS":"香蕉山５４號","OBJECTID":648031},"geometry":{"x":203719.16927899886,"y":2563456.0140160043}},{"attributes":{"ID":648059,"DIS_CODE":0,"TOWNNAME":"楠西區","LI":"灣丘里","LIN":"12鄰","STREET":" ","SECT":" ","MAREA":"香蕉山","LANE":" ","ALLEY":" ","HOUSE_NO":"５５號之１","E_COORD97":203698.193925,"N_COORD97":2563480.1439999999,"ADDRESS":"香蕉山５５號之１","OBJECTID":648032},"geometry":{"x":203698.19392500073,"y":2563480.1440030001}},{"attributes":{"ID":648060,"DIS_CODE":0,"TOWNNAME":"白河區","LI":"玉豐里","LIN":"10鄰","STREET":" ","SECT":" ","MAREA":"海豐厝","LANE":" ","ALLEY":" ","HOUSE_NO":"９２之１號","E_COORD97":190112.844534,"N_COORD97":2586248.9871,"ADDRESS":"海豐厝９２之１號","OBJECTID":648033},"geometry":{"x":190112.84453400038,"y":2586248.9870979991}},{"attributes":{"ID":648061,"DIS_CODE":0,"TOWNNAME":"白河區","LI":"玉豐里","LIN":"10鄰","STREET":" ","SECT":" ","MAREA":"海豐厝","LANE":" ","ALLEY":" ","HOUSE_NO":"９２之４號","E_COORD97":190155.32395200001,"N_COORD97":2586273.2229200001,"ADDRESS":"海豐厝９２之４號","OBJECTID":648034},"geometry":{"x":190155.32395200059,"y":2586273.2229180019}},{"attributes":{"ID":648062,"DIS_CODE":0,"TOWNNAME":"安南區","LI":"砂崙里","LIN":"6鄰","STREET":"青砂街","SECT":"一段","MAREA":" ","LANE":"５７２巷","ALLEY":"１１６弄","HOUSE_NO":"５４號","E_COORD97":160253.68966599999,"N_COORD97":2552952.4332900001,"ADDRESS":"青砂街一段５７２巷１１６弄５４號","OBJECTID":648035},"geometry":{"x":160253.68966600113,"y":2552952.4332920015}},{"attributes":{"ID":648063,"DIS_CODE":0,"TOWNNAME":"安南區","LI":"城南里","LIN":"13鄰","STREET":"城西街","SECT":"二段","MAREA":" ","LANE":"２６３巷","ALLEY":" ","HOUSE_NO":"２號","E_COORD97":159684.48924699999,"N_COORD97":2550975.4676899998,"ADDRESS":"城西街二段２６３巷２號","OBJECTID":648036},"geometry":{"x":159684.48924699984,"y":2550975.4676930048}},{"attributes":{"ID":648064,"DIS_CODE":0,"TOWNNAME":"後壁區","LI":"仕安里","LIN":"3鄰","STREET":" ","SECT":" ","MAREA":"下長","LANE":" ","ALLEY":" ","HOUSE_NO":"２４號之１","E_COORD97":180540.92186199999,"N_COORD97":2583918.4868800002,"ADDRESS":"下長２４號之１","OBJECTID":648037},"geometry":{"x":180540.92186199967,"y":2583918.4868820049}},{"attributes":{"ID":648065,"DIS_CODE":0,"TOWNNAME":"北門區","LI":"保吉里","LIN":"4鄰","STREET":" ","SECT":" ","MAREA":"蚵寮","LANE":" ","ALLEY":" ","HOUSE_NO":"５５號","E_COORD97":161503.212585,"N_COORD97":2575607.70811,"ADDRESS":"蚵寮５５號","OBJECTID":648038},"geometry":{"x":161503.21258500125,"y":2575607.7081050016}},{"attributes":{"ID":648066,"DIS_CODE":0,"TOWNNAME":"新營區","LI":"延平里","LIN":"1鄰","STREET":"延平路","SECT":" ","MAREA":" ","LANE":" ","ALLEY":" ","HOUSE_NO":"４６之７１號","E_COORD97":179738.66684600001,"N_COORD97":2577789.1594799999,"ADDRESS":"延平路４６之７１號","OBJECTID":648039},"geometry":{"x":179738.66684600059,"y":2577789.1594790015}},{"attributes":{"ID":648067,"DIS_CODE":0,"TOWNNAME":"新營區","LI":"延平里","LIN":"1鄰","STREET":"延平路","SECT":" ","MAREA":" ","LANE":" ","ALLEY":" ","HOUSE_NO":"４６號之７２","E_COORD97":179735.69992000001,"N_COORD97":2577789.3711399999,"ADDRESS":"延平路４６號之７２","OBJECTID":648040},"geometry":{"x":179735.69991999958,"y":2577789.3711400013}},{"attributes":{"ID":648068,"DIS_CODE":0,"TOWNNAME":"北門區","LI":"保吉里","LIN":"4鄰","STREET":" ","SECT":" ","MAREA":"蚵寮","LANE":" ","ALLEY":" ","HOUSE_NO":"５５之１０號","E_COORD97":161611.07858299999,"N_COORD97":2575287.7741100001,"ADDRESS":"蚵寮５５之１０號","OBJECTID":648041},"geometry":{"x":161611.07858300023,"y":2575287.774110999}},{"attributes":{"ID":648069,"DIS_CODE":0,"TOWNNAME":"新營區","LI":"延平里","LIN":"1鄰","STREET":"延平路","SECT":" ","MAREA":" ","LANE":" ","ALLEY":" ","HOUSE_NO":"４６之７３號","E_COORD97":179732.09722299999,"N_COORD97":2577789.2653100002,"ADDRESS":"延平路４６之７３號","OBJECTID":648042},"geometry":{"x":179732.09722299967,"y":2577789.265312003}},{"attributes":{"ID":648070,"DIS_CODE":0,"TOWNNAME":"新營區","LI":"延平里","LIN":"1鄰","STREET":"延平路","SECT":" ","MAREA":" ","LANE":" ","ALLEY":" ","HOUSE_NO":"４６之７４號","E_COORD97":179728.49452599999,"N_COORD97":2577789.0536500001,"ADDRESS":"延平路４６之７４號","OBJECTID":648043},"geometry":{"x":179728.49452600069,"y":2577789.0536460001}},{"attributes":{"ID":648071,"DIS_CODE":0,"TOWNNAME":"新營區","LI":"延平里","LIN":"1鄰","STREET":"延平路","SECT":" ","MAREA":" ","LANE":" ","ALLEY":" ","HOUSE_NO":"４６之７５號","E_COORD97":179725.103753,"N_COORD97":2577789.2653100002,"ADDRESS":"延平路４６之７５號","OBJECTID":648044},"geometry":{"x":179725.10375299957,"y":2577789.265312003}},{"attributes":{"ID":648072,"DIS_CODE":0,"TOWNNAME":"新營區","LI":"延平里","LIN":"1鄰","STREET":"延平路","SECT":" ","MAREA":" ","LANE":" ","ALLEY":" ","HOUSE_NO":"４６之７６號","E_COORD97":179722.136826,"N_COORD97":2577789.2653100002,"ADDRESS":"延平路４６之７６號","OBJECTID":648045},"geometry":{"x":179722.13682600018,"y":2577789.265312003}},{"attributes":{"ID":648073,"DIS_CODE":0,"TOWNNAME":"新營區","LI":"延平里","LIN":"1鄰","STREET":"延平路","SECT":" ","MAREA":" ","LANE":" ","ALLEY":" ","HOUSE_NO":"４６之７７號","E_COORD97":179717.050666,"N_COORD97":2577788.6303099999,"ADDRESS":"延平路４６之７７號","OBJECTID":648046},"geometry":{"x":179717.05066600069,"y":2577788.6303120032}},{"attributes":{"ID":648074,"DIS_CODE":0,"TOWNNAME":"新營區","LI":"延平里","LIN":"1鄰","STREET":"延平路","SECT":" ","MAREA":" ","LANE":" ","ALLEY":" ","HOUSE_NO":"４６之７８號","E_COORD97":179714.295663,"N_COORD97":2577788.2069799998,"ADDRESS":"延平路４６之７８號","OBJECTID":648047},"geometry":{"x":179714.29566300008,"y":2577788.2069789991}},{"attributes":{"ID":648075,"DIS_CODE":0,"TOWNNAME":"後壁區","LI":"仕安里","LIN":"1鄰","STREET":" ","SECT":" ","MAREA":"下長","LANE":" ","ALLEY":" ","HOUSE_NO":"２號之２７","E_COORD97":181322.656888,"N_COORD97":2583806.0919400002,"ADDRESS":"下長２號之２７","OBJECTID":648048},"geometry":{"x":181322.65688799974,"y":2583806.0919420011}},{"attributes":{"ID":648076,"DIS_CODE":0,"TOWNNAME":"新營區","LI":"延平里","LIN":"1鄰","STREET":"延平路","SECT":" ","MAREA":" ","LANE":" ","ALLEY":" ","HOUSE_NO":"４６之７９號","E_COORD97":179711.328736,"N_COORD97":2577788.4186499999,"ADDRESS":"延平路４６之７９號","OBJECTID":648049},"geometry":{"x":179711.32873600069,"y":2577788.4186460003}},{"attributes":{"ID":648077,"DIS_CODE":0,"TOWNNAME":"北門區","LI":"保吉里","LIN":"4鄰","STREET":" ","SECT":" ","MAREA":"蚵寮","LANE":" ","ALLEY":" ","HOUSE_NO":"６３號６","E_COORD97":161539.87430900001,"N_COORD97":2575763.9180200002,"ADDRESS":"蚵寮６３號６","OBJECTID":648050},"geometry":{"x":161539.87430900056,"y":2575763.9180210009}},{"attributes":{"ID":648078,"DIS_CODE":0,"TOWNNAME":"北門區","LI":"保吉里","LIN":"4鄰","STREET":" ","SECT":" ","MAREA":"蚵寮","LANE":" ","ALLEY":" ","HOUSE_NO":"６３號７","E_COORD97":161543.053071,"N_COORD97":2575759.0496899998,"ADDRESS":"蚵寮６３號７","OBJECTID":648051},"geometry":{"x":161543.05307099968,"y":2575759.0496900044}},{"attributes":{"ID":648079,"DIS_CODE":0,"TOWNNAME":"新營區","LI":"延平里","LIN":"1鄰","STREET":"延平路","SECT":" ","MAREA":" ","LANE":" ","ALLEY":" ","HOUSE_NO":"４６之８０號","E_COORD97":179708.89161799999,"N_COORD97":2577788.1275999998,"ADDRESS":"延平路４６之８０號","OBJECTID":648052},"geometry":{"x":179708.89161800034,"y":2577788.1276040003}},{"attributes":{"ID":648080,"DIS_CODE":0,"TOWNNAME":"安平區","LI":"華平里","LIN":"32鄰","STREET":"怡平路","SECT":" ","MAREA":" ","LANE":" ","ALLEY":" ","HOUSE_NO":"４３１號","E_COORD97":165330.92733899999,"N_COORD97":2543824.2508100001,"ADDRESS":"怡平路４３１號","OBJECTID":648053},"geometry":{"x":165330.9273389997,"y":2543824.2508140001}},{"attributes":{"ID":648081,"DIS_CODE":0,"TOWNNAME":"安平區","LI":"華平里","LIN":"32鄰","STREET":"怡平路","SECT":" ","MAREA":" ","LANE":" ","ALLEY":" ","HOUSE_NO":"４３３號","E_COORD97":165325.41774400001,"N_COORD97":2543825.3091500001,"ADDRESS":"怡平路４３３號","OBJECTID":648054},"geometry":{"x":165325.4177440023,"y":2543825.3091470022}},{"attributes":{"ID":648082,"DIS_CODE":0,"TOWNNAME":"新營區","LI":"延平里","LIN":"1鄰","STREET":"延平路","SECT":" ","MAREA":" ","LANE":" ","ALLEY":" ","HOUSE_NO":"４６之８１號","E_COORD97":179708.89161799999,"N_COORD97":2577784.95261,"ADDRESS":"延平路４６之８１號","OBJECTID":648055},"geometry":{"x":179708.89161800034,"y":2577784.952606}},{"attributes":{"ID":648083,"DIS_CODE":0,"TOWNNAME":"安平區","LI":"華平里","LIN":"32鄰","STREET":"怡平路","SECT":" ","MAREA":" ","LANE":" ","ALLEY":" ","HOUSE_NO":"４３５號","E_COORD97":165318.84861099999,"N_COORD97":2543826.36748,"ADDRESS":"怡平路４３５號","OBJECTID":648056},"geometry":{"x":165318.84861100093,"y":2543826.3674790002}},{"attributes":{"ID":648084,"DIS_CODE":0,"TOWNNAME":"安平區","LI":"華平里","LIN":"32鄰","STREET":"怡平路","SECT":" ","MAREA":" ","LANE":" ","ALLEY":" ","HOUSE_NO":"４３７號","E_COORD97":165312.491385,"N_COORD97":2543827.0024799998,"ADDRESS":"怡平路４３７號","OBJECTID":648057},"geometry":{"x":165312.49138500076,"y":2543827.002479}},{"attributes":{"ID":648085,"DIS_CODE":0,"TOWNNAME":"新營區","LI":"延平里","LIN":"1鄰","STREET":"延平路","SECT":" ","MAREA":" ","LANE":" ","ALLEY":" ","HOUSE_NO":"４６號之８２","E_COORD97":179711.010851,"N_COORD97":2577784.95261,"ADDRESS":"延平路４６號之８２","OBJECTID":648058},"geometry":{"x":179711.01085100137,"y":2577784.952606}},{"attributes":{"ID":648086,"DIS_CODE":0,"TOWNNAME":"安平區","LI":"華平里","LIN":"32鄰","STREET":"怡平路","SECT":" ","MAREA":" ","LANE":" ","ALLEY":" ","HOUSE_NO":"４３９之１號","E_COORD97":165300.200748,"N_COORD97":2543829.5424799998,"ADDRESS":"怡平路４３９之１號","OBJECTID":648059},"geometry":{"x":165300.20074800123,"y":2543829.5424779989}},{"attributes":{"ID":648087,"DIS_CODE":0,"TOWNNAME":"北門區","LI":"錦湖里","LIN":"12鄰","STREET":" ","SECT":" ","MAREA":"渡子頭","LANE":" ","ALLEY":" ","HOUSE_NO":"１１９之２號","E_COORD97":165032.7592,"N_COORD97":2577691.5719099999,"ADDRESS":"渡子頭１１９之２號","OBJECTID":648060},"geometry":{"x":165032.7592000002,"y":2577691.5719140023}},{"attributes":{"ID":648088,"DIS_CODE":0,"TOWNNAME":"新營區","LI":"延平里","LIN":"1鄰","STREET":"延平路","SECT":" ","MAREA":" ","LANE":" ","ALLEY":" ","HOUSE_NO":"４６之８３號","E_COORD97":179713.977778,"N_COORD97":2577785.1642700001,"ADDRESS":"延平路４６之８３號","OBJECTID":648061},"geometry":{"x":179713.97777799983,"y":2577785.1642730013}},{"attributes":{"ID":648089,"DIS_CODE":0,"TOWNNAME":"新營區","LI":"延平里","LIN":"1鄰","STREET":"延平路","SECT":" ","MAREA":" ","LANE":" ","ALLEY":" ","HOUSE_NO":"４６之８４號","E_COORD97":179716.520858,"N_COORD97":2577785.1642700001,"ADDRESS":"延平路４６之８４號","OBJECTID":648062},"geometry":{"x":179716.52085800003,"y":2577785.1642730013}},{"attributes":{"ID":648090,"DIS_CODE":0,"TOWNNAME":"新營區","LI":"延平里","LIN":"1鄰","STREET":"延平路","SECT":" ","MAREA":" ","LANE":" ","ALLEY":" ","HOUSE_NO":"４６之８５號","E_COORD97":179721.18317100001,"N_COORD97":2577785.1642700001,"ADDRESS":"延平路４６之８５號","OBJECTID":648063},"geometry":{"x":179721.18317100126,"y":2577785.1642730013}},{"attributes":{"ID":648091,"DIS_CODE":0,"TOWNNAME":"北門區","LI":"保吉里","LIN":"8鄰","STREET":" ","SECT":" ","MAREA":"蚵寮","LANE":" ","ALLEY":" ","HOUSE_NO":"２３０號","E_COORD97":161598.363534,"N_COORD97":2576132.5353199998,"ADDRESS":"蚵寮２３０號","OBJECTID":648064},"geometry":{"x":161598.36353399977,"y":2576132.5353219993}},{"attributes":{"ID":648092,"DIS_CODE":0,"TOWNNAME":"新營區","LI":"延平里","LIN":"1鄰","STREET":"延平路","SECT":" ","MAREA":" ","LANE":" ","ALLEY":" ","HOUSE_NO":"４６之８６號","E_COORD97":179724.57394500001,"N_COORD97":2577784.7409399999,"ADDRESS":"延平路４６之８６號","OBJECTID":648065},"geometry":{"x":179724.5739450017,"y":2577784.7409400027}},{"attributes":{"ID":648093,"DIS_CODE":0,"TOWNNAME":"安平區","LI":"華平里","LIN":"32鄰","STREET":"怡平路","SECT":" ","MAREA":" ","LANE":" ","ALLEY":" ","HOUSE_NO":"４３９號","E_COORD97":165305.498437,"N_COORD97":2543828.4841499999,"ADDRESS":"怡平路４３９號","OBJECTID":648066},"geometry":{"x":165305.49843700044,"y":2543828.4841450024}},{"attributes":{"ID":648094,"DIS_CODE":0,"TOWNNAME":"北門區","LI":"錦湖里","LIN":"13鄰","STREET":" ","SECT":" ","MAREA":"渡子頭","LANE":" ","ALLEY":" ","HOUSE_NO":"１３１號","E_COORD97":163887.19206199999,"N_COORD97":2578287.9424299998,"ADDRESS":"渡子頭１３１號","OBJECTID":648067},"geometry":{"x":163887.19206200074,"y":2578287.9424259998}},{"attributes":{"ID":648095,"DIS_CODE":0,"TOWNNAME":"新營區","LI":"延平里","LIN":"1鄰","STREET":"延平路","SECT":" ","MAREA":" ","LANE":" ","ALLEY":" ","HOUSE_NO":"４６之８７號","E_COORD97":179727.75279500001,"N_COORD97":2577785.5876099998,"ADDRESS":"延平路４６之８７號","OBJECTID":648068},"geometry":{"x":179727.75279499963,"y":2577785.5876059998}},{"attributes":{"ID":648096,"DIS_CODE":0,"TOWNNAME":"新營區","LI":"延平里","LIN":"1鄰","STREET":"延平路","SECT":" ","MAREA":" ","LANE":" ","ALLEY":" ","HOUSE_NO":"４６之８８號","E_COORD97":179731.567415,"N_COORD97":2577785.3759400002,"ADDRESS":"延平路４６之８８號","OBJECTID":648069},"geometry":{"x":179731.56741500087,"y":2577785.3759390041}},{"attributes":{"ID":648097,"DIS_CODE":0,"TOWNNAME":"新營區","LI":"延平里","LIN":"1鄰","STREET":"延平路","SECT":" ","MAREA":" ","LANE":" ","ALLEY":" ","HOUSE_NO":"４６之８９號","E_COORD97":179734.74626499999,"N_COORD97":2577785.3759400002,"ADDRESS":"延平路４６之８９號","OBJECTID":648070},"geometry":{"x":179734.7462650016,"y":2577785.3759390041}},{"attributes":{"ID":648098,"DIS_CODE":0,"TOWNNAME":"新營區","LI":"延平里","LIN":"1鄰","STREET":"延平路","SECT":" ","MAREA":" ","LANE":" ","ALLEY":" ","HOUSE_NO":"４６之９０號","E_COORD97":179737.92511499999,"N_COORD97":2577785.3759400002,"ADDRESS":"延平路４６之９０號","OBJECTID":648071},"geometry":{"x":179737.92511500139,"y":2577785.3759390041}},{"attributes":{"ID":648099,"DIS_CODE":0,"TOWNNAME":"後壁區","LI":"仕安里","LIN":"9鄰","STREET":" ","SECT":" ","MAREA":"下長","LANE":" ","ALLEY":" ","HOUSE_NO":"５８號之２０","E_COORD97":180702.96735200001,"N_COORD97":2583214.1681400002,"ADDRESS":"下長５８號之２０","OBJECTID":648072},"geometry":{"x":180702.96735200007,"y":2583214.1681360025}},{"attributes":{"ID":648100,"DIS_CODE":0,"TOWNNAME":"安平區","LI":"華平里","LIN":"32鄰","STREET":"怡平路","SECT":" ","MAREA":" ","LANE":" ","ALLEY":" ","HOUSE_NO":"４３９之２號","E_COORD97":165291.838552,"N_COORD97":2543830.77177,"ADDRESS":"怡平路４３９之２號","OBJECTID":648073},"geometry":{"x":165291.838552,"y":2543830.7717720047}},{"attributes":{"ID":648101,"DIS_CODE":0,"TOWNNAME":"新營區","LI":"延平里","LIN":"1鄰","STREET":"延平路","SECT":" ","MAREA":" ","LANE":" ","ALLEY":" ","HOUSE_NO":"４６之９１號","E_COORD97":179740.89204100001,"N_COORD97":2577784.95261,"ADDRESS":"延平路４６之９１號","OBJECTID":648074},"geometry":{"x":179740.89204099961,"y":2577784.952606}},{"attributes":{"ID":648102,"DIS_CODE":0,"TOWNNAME":"新營區","LI":"延平里","LIN":"1鄰","STREET":"延平路","SECT":" ","MAREA":" ","LANE":" ","ALLEY":" ","HOUSE_NO":"４６之９２號","E_COORD97":179745.342432,"N_COORD97":2577784.7409399999,"ADDRESS":"延平路４６之９２號","OBJECTID":648075},"geometry":{"x":179745.34243200067,"y":2577784.7409400027}},{"attributes":{"ID":648103,"DIS_CODE":0,"TOWNNAME":"新營區","LI":"延平里","LIN":"1鄰","STREET":"延平路","SECT":" ","MAREA":" ","LANE":" ","ALLEY":" ","HOUSE_NO":"４６之９３號","E_COORD97":179748.521282,"N_COORD97":2577784.95261,"ADDRESS":"延平路４６之９３號","OBJECTID":648076},"geometry":{"x":179748.5212820014,"y":2577784.952606}},{"attributes":{"ID":648104,"DIS_CODE":0,"TOWNNAME":"北門區","LI":"保吉里","LIN":"7鄰","STREET":" ","SECT":" ","MAREA":"蚵寮","LANE":" ","ALLEY":" ","HOUSE_NO":"２０６號","E_COORD97":161648.799894,"N_COORD97":2576091.3661799999,"ADDRESS":"蚵寮２０６號","OBJECTID":648077},"geometry":{"x":161648.79989400133,"y":2576091.366177002}},{"attributes":{"ID":648105,"DIS_CODE":0,"TOWNNAME":"新營區","LI":"延平里","LIN":"1鄰","STREET":"延平路","SECT":" ","MAREA":" ","LANE":" ","ALLEY":" ","HOUSE_NO":"４６之９４號","E_COORD97":179751.488208,"N_COORD97":2577785.3759400002,"ADDRESS":"延平路４６之９４號","OBJECTID":648078},"geometry":{"x":179751.48820799962,"y":2577785.3759390041}},{"attributes":{"ID":648106,"DIS_CODE":0,"TOWNNAME":"佳里區","LI":"建南里","LIN":"28鄰","STREET":"祥和三街","SECT":" ","MAREA":" ","LANE":" ","ALLEY":" ","HOUSE_NO":"８５號","E_COORD97":165890.966656,"N_COORD97":2561236.3358499999,"ADDRESS":"祥和三街８５號","OBJECTID":648079},"geometry":{"x":165890.96665600128,"y":2561236.3358459994}},{"attributes":{"ID":648107,"DIS_CODE":0,"TOWNNAME":"新營區","LI":"延平里","LIN":"1鄰","STREET":"延平路","SECT":" ","MAREA":" ","LANE":" ","ALLEY":" ","HOUSE_NO":"４６之９５號","E_COORD97":179731.99126099999,"N_COORD97":2577778.6026099999,"ADDRESS":"延平路４６之９５號","OBJECTID":648080},"geometry":{"x":179731.99126100168,"y":2577778.6026090011}},{"attributes":{"ID":648108,"DIS_CODE":0,"TOWNNAME":"佳里區","LI":"建南里","LIN":"28鄰","STREET":"祥和三街","SECT":" ","MAREA":" ","LANE":" ","ALLEY":" ","HOUSE_NO":"８７號","E_COORD97":165885.668466,"N_COORD97":2561236.7591800001,"ADDRESS":"祥和三街８７號","OBJECTID":648081},"geometry":{"x":165885.66846600082,"y":2561236.7591790035}},{"attributes":{"ID":648109,"DIS_CODE":0,"TOWNNAME":"新營區","LI":"延平里","LIN":"1鄰","STREET":"延平路","SECT":" ","MAREA":" ","LANE":" ","ALLEY":" ","HOUSE_NO":"４６之９６號","E_COORD97":179728.176641,"N_COORD97":2577779.0259400001,"ADDRESS":"延平路４６之９６號","OBJECTID":648082},"geometry":{"x":179728.17664100137,"y":2577779.0259429999}},{"attributes":{"ID":648110,"DIS_CODE":0,"TOWNNAME":"北門區","LI":"錦湖里","LIN":"15鄰","STREET":" ","SECT":" ","MAREA":"渡子頭","LANE":" ","ALLEY":" ","HOUSE_NO":"１４８號","E_COORD97":163891.005676,"N_COORD97":2578252.1707799998,"ADDRESS":"渡子頭１４８號","OBJECTID":648083},"geometry":{"x":163891.00567600131,"y":2578252.1707780007}},{"attributes":{"ID":648111,"DIS_CODE":0,"TOWNNAME":"新營區","LI":"延平里","LIN":"1鄰","STREET":"延平路","SECT":" ","MAREA":" ","LANE":" ","ALLEY":" ","HOUSE_NO":"４６之９７號","E_COORD97":179724.57394500001,"N_COORD97":2577778.3909399998,"ADDRESS":"延平路４６之９７號","OBJECTID":648084},"geometry":{"x":179724.5739450017,"y":2577778.3909430001}},{"attributes":{"ID":648112,"DIS_CODE":0,"TOWNNAME":"佳里區","LI":"建南里","LIN":"28鄰","STREET":"祥和三街","SECT":" ","MAREA":" ","LANE":" ","ALLEY":" ","HOUSE_NO":"８９號","E_COORD97":165881.42991400001,"N_COORD97":2561236.5475099999,"ADDRESS":"祥和三街８９號","OBJECTID":648085},"geometry":{"x":165881.42991400231,"y":2561236.5475130007}},{"attributes":{"ID":648113,"DIS_CODE":0,"TOWNNAME":"北門區","LI":"保吉里","LIN":"13鄰","STREET":" ","SECT":" ","MAREA":"蚵寮","LANE":" ","ALLEY":" ","HOUSE_NO":"３４２號","E_COORD97":161499.18615299999,"N_COORD97":2576201.3269500001,"ADDRESS":"蚵寮３４２號","OBJECTID":648086},"geometry":{"x":161499.18615300022,"y":2576201.3269510027}},{"attributes":{"ID":648114,"DIS_CODE":0,"TOWNNAME":"佳里區","LI":"建南里","LIN":"28鄰","STREET":"祥和三街","SECT":" ","MAREA":" ","LANE":" ","ALLEY":" ","HOUSE_NO":"９１號","E_COORD97":165877.19136200001,"N_COORD97":2561236.1241799998,"ADDRESS":"祥和三街９１號","OBJECTID":648087},"geometry":{"x":165877.19136200193,"y":2561236.1241800021}},{"attributes":{"ID":648115,"DIS_CODE":0,"TOWNNAME":"北門區","LI":"保吉里","LIN":"13鄰","STREET":" ","SECT":" ","MAREA":"蚵寮","LANE":" ","ALLEY":" ","HOUSE_NO":"３４０號","E_COORD97":161501.729162,"N_COORD97":2576193.49529,"ADDRESS":"蚵寮３４０號","OBJECTID":648088},"geometry":{"x":161501.72916200105,"y":2576193.4952890016}},{"attributes":{"ID":648116,"DIS_CODE":0,"TOWNNAME":"佳里區","LI":"建南里","LIN":"28鄰","STREET":"祥和三街","SECT":" ","MAREA":" ","LANE":" ","ALLEY":" ","HOUSE_NO":"９３號","E_COORD97":165872.52895499999,"N_COORD97":2561235.9125100002,"ADDRESS":"祥和三街９３號","OBJECTID":648089},"geometry":{"x":165872.52895500045,"y":2561235.9125130009}},{"attributes":{"ID":648117,"DIS_CODE":0,"TOWNNAME":"北門區","LI":"保吉里","LIN":"17鄰","STREET":" ","SECT":" ","MAREA":"蚵寮","LANE":" ","ALLEY":" ","HOUSE_NO":"４００號","E_COORD97":161561.91372700001,"N_COORD97":2576299.01107,"ADDRESS":"蚵寮４００號","OBJECTID":648090},"geometry":{"x":161561.91372699942,"y":2576299.0110650025}},{"attributes":{"ID":648118,"DIS_CODE":0,"TOWNNAME":"北門區","LI":"保吉里","LIN":"17鄰","STREET":" ","SECT":" ","MAREA":"蚵寮","LANE":" ","ALLEY":" ","HOUSE_NO":"３９４號","E_COORD97":161539.87430900001,"N_COORD97":2576291.60274,"ADDRESS":"蚵寮３９４號","OBJECTID":648091},"geometry":{"x":161539.87430900056,"y":2576291.6027360018}},{"attributes":{"ID":648119,"DIS_CODE":0,"TOWNNAME":"安平區","LI":"文平里","LIN":"1鄰","STREET":"建平七街","SECT":" ","MAREA":" ","LANE":" ","ALLEY":" ","HOUSE_NO":"１２號","E_COORD97":166532.13329100001,"N_COORD97":2543209.1071100002,"ADDRESS":"建平七街１２號","OBJECTID":648092},"geometry":{"x":166532.1332910005,"y":2543209.1071080025}},{"attributes":{"ID":648120,"DIS_CODE":0,"TOWNNAME":"北門區","LI":"保吉里","LIN":"14鄰","STREET":" ","SECT":" ","MAREA":"蚵寮","LANE":" ","ALLEY":" ","HOUSE_NO":"３６６號","E_COORD97":161447.47828700001,"N_COORD97":2576257.4185899999,"ADDRESS":"蚵寮３６６號","OBJECTID":648093},"geometry":{"x":161447.47828700021,"y":2576257.4185879994}},{"attributes":{"ID":648121,"DIS_CODE":0,"TOWNNAME":"安平區","LI":"文平里","LIN":"1鄰","STREET":"建平七街","SECT":" ","MAREA":" ","LANE":" ","ALLEY":" ","HOUSE_NO":"１２之１號","E_COORD97":166523.021267,"N_COORD97":2543210.3771099998,"ADDRESS":"建平七街１２之１號","OBJECTID":648094},"geometry":{"x":166523.02126699965,"y":2543210.3771070018}},{"attributes":{"ID":648122,"DIS_CODE":0,"TOWNNAME":"安平區","LI":"文平里","LIN":"1鄰","STREET":"建平七街","SECT":" ","MAREA":" ","LANE":" ","ALLEY":" ","HOUSE_NO":"１２之２號","E_COORD97":166517.51167199999,"N_COORD97":2543211.8587699998,"ADDRESS":"建平七街１２之２號","OBJECTID":648095},"geometry":{"x":166517.51167200133,"y":2543211.8587730024}},{"attributes":{"ID":648123,"DIS_CODE":0,"TOWNNAME":"安平區","LI":"文平里","LIN":"1鄰","STREET":"建平七街","SECT":" ","MAREA":" ","LANE":" ","ALLEY":" ","HOUSE_NO":"１２之３號","E_COORD97":166511.154446,"N_COORD97":2543213.1287699998,"ADDRESS":"建平七街１２之３號","OBJECTID":648096},"geometry":{"x":166511.15444600116,"y":2543213.128771998}},{"attributes":{"ID":648124,"DIS_CODE":0,"TOWNNAME":"北門區","LI":"錦湖里","LIN":"14鄰","STREET":" ","SECT":" ","MAREA":"渡子頭","LANE":" ","ALLEY":" ","HOUSE_NO":"１３８號","E_COORD97":163764.52082599999,"N_COORD97":2578341.1765600001,"ADDRESS":"渡子頭１３８號","OBJECTID":648097},"geometry":{"x":163764.52082599979,"y":2578341.1765640024}},{"attributes":{"ID":648125,"DIS_CODE":0,"TOWNNAME":"安平區","LI":"育平里","LIN":"38鄰","STREET":"光州二街","SECT":" ","MAREA":" ","LANE":" ","ALLEY":" ","HOUSE_NO":"１３０號","E_COORD97":164372.79561900001,"N_COORD97":2543057.3421900002,"ADDRESS":"光州二街１３０號","OBJECTID":648098},"geometry":{"x":164372.79561899975,"y":2543057.3421900012}},{"attributes":{"ID":648126,"DIS_CODE":0,"TOWNNAME":"安平區","LI":"育平里","LIN":"38鄰","STREET":"光州二街","SECT":" ","MAREA":" ","LANE":" ","ALLEY":" ","HOUSE_NO":"１３２號","E_COORD97":164378.51712199999,"N_COORD97":2543058.6121899998,"ADDRESS":"光州二街１３２號","OBJECTID":648099},"geometry":{"x":164378.51712200139,"y":2543058.6121890005}},{"attributes":{"ID":648127,"DIS_CODE":0,"TOWNNAME":"安平區","LI":"育平里","LIN":"38鄰","STREET":"光州二街","SECT":" ","MAREA":" ","LANE":" ","ALLEY":" ","HOUSE_NO":"１３６號","E_COORD97":164384.450533,"N_COORD97":2543058.8238599999,"ADDRESS":"光州二街１３６號","OBJECTID":648100},"geometry":{"x":164384.45053300075,"y":2543058.8238550033}},{"attributes":{"ID":648128,"DIS_CODE":0,"TOWNNAME":"北門區","LI":"保吉里","LIN":"16鄰","STREET":" ","SECT":" ","MAREA":"蚵寮","LANE":" ","ALLEY":" ","HOUSE_NO":"３８７號","E_COORD97":161522.70899300001,"N_COORD97":2576262.8160899999,"ADDRESS":"蚵寮３８７號","OBJECTID":648101},"geometry":{"x":161522.70899300091,"y":2576262.8160849996}},{"attributes":{"ID":648129,"DIS_CODE":0,"TOWNNAME":"安平區","LI":"育平里","LIN":"38鄰","STREET":"光州二街","SECT":" ","MAREA":" ","LANE":" ","ALLEY":" ","HOUSE_NO":"１３８號","E_COORD97":164391.231574,"N_COORD97":2543059.0355199999,"ADDRESS":"光州二街１３８號","OBJECTID":648102},"geometry":{"x":164391.23157400079,"y":2543059.035521999}},{"attributes":{"ID":648130,"DIS_CODE":0,"TOWNNAME":"北門區","LI":"錦湖里","LIN":"14鄰","STREET":" ","SECT":" ","MAREA":"渡子頭","LANE":" ","ALLEY":" ","HOUSE_NO":"１４２號之１","E_COORD97":163743.334084,"N_COORD97":2578296.7265900001,"ADDRESS":"渡子頭１４２號之１","OBJECTID":648103},"geometry":{"x":163743.33408400137,"y":2578296.7265880015}},{"attributes":{"ID":648131,"DIS_CODE":0,"TOWNNAME":"楠西區","LI":"灣丘里","LIN":"13鄰","STREET":" ","SECT":" ","MAREA":"鳳興","LANE":" ","ALLEY":" ","HOUSE_NO":"１０號之１８","E_COORD97":198722.84671099999,"N_COORD97":2562705.1187999998,"ADDRESS":"鳳興１０號之１８","OBJECTID":648104},"geometry":{"x":198722.84671100043,"y":2562705.1188000012}},{"attributes":{"ID":648132,"DIS_CODE":0,"TOWNNAME":"北門區","LI":"錦湖里","LIN":"14鄰","STREET":" ","SECT":" ","MAREA":"渡子頭","LANE":" ","ALLEY":" ","HOUSE_NO":"１４３號","E_COORD97":163767.69883800001,"N_COORD97":2578301.4890899998,"ADDRESS":"渡子頭１４３號","OBJECTID":648105},"geometry":{"x":163767.69883800112,"y":2578301.4890850037}},{"attributes":{"ID":648133,"DIS_CODE":0,"TOWNNAME":"仁德區","LI":"太子里","LIN":"40鄰","STREET":"太子路","SECT":" ","MAREA":" ","LANE":"８巷","ALLEY":" ","HOUSE_NO":"４１號","E_COORD97":175397.490793,"N_COORD97":2543708.8828099999,"ADDRESS":"太子路８巷４１號","OBJECTID":648106},"geometry":{"x":175397.49079299998,"y":2543708.882809002}},{"attributes":{"ID":648134,"DIS_CODE":0,"TOWNNAME":"北門區","LI":"錦湖里","LIN":"15鄰","STREET":" ","SECT":" ","MAREA":"渡子頭","LANE":" ","ALLEY":" ","HOUSE_NO":"１５６號","E_COORD97":163743.122217,"N_COORD97":2578281.4865999999,"ADDRESS":"渡子頭１５６號","OBJECTID":648107},"geometry":{"x":163743.12221700046,"y":2578281.4865959994}},{"attributes":{"ID":648135,"DIS_CODE":0,"TOWNNAME":"北門區","LI":"保吉里","LIN":"19鄰","STREET":" ","SECT":" ","MAREA":"蚵寮","LANE":" ","ALLEY":" ","HOUSE_NO":"４３５號","E_COORD97":161602.178048,"N_COORD97":2576354.7851999998,"ADDRESS":"蚵寮４３５號","OBJECTID":648108},"geometry":{"x":161602.1780480016,"y":2576354.7852020022}},{"attributes":{"ID":648136,"DIS_CODE":0,"TOWNNAME":"北門區","LI":"錦湖里","LIN":"16鄰","STREET":" ","SECT":" ","MAREA":"渡子頭","LANE":" ","ALLEY":" ","HOUSE_NO":"１６４號","E_COORD97":163721.29987300001,"N_COORD97":2578268.3632700001,"ADDRESS":"渡子頭１６４號","OBJECTID":648109},"geometry":{"x":163721.29987300094,"y":2578268.3632699996}},{"attributes":{"ID":648137,"DIS_CODE":0,"TOWNNAME":"白河區","LI":"玉豐里","LIN":"12鄰","STREET":" ","SECT":" ","MAREA":"海豐厝","LANE":" ","ALLEY":" ","HOUSE_NO":"１１６號","E_COORD97":190238.585204,"N_COORD97":2586019.9924099999,"ADDRESS":"海豐厝１１６號","OBJECTID":648110},"geometry":{"x":190238.58520400058,"y":2586019.9924140014}},{"attributes":{"ID":648138,"DIS_CODE":0,"TOWNNAME":"楠西區","LI":"灣丘里","LIN":"13鄰","STREET":" ","SECT":" ","MAREA":"鳳興","LANE":" ","ALLEY":" ","HOUSE_NO":"１０號之３","E_COORD97":198727.084156,"N_COORD97":2562704.9071300002,"ADDRESS":"鳳興１０號之３","OBJECTID":648111},"geometry":{"x":198727.08415600006,"y":2562704.907133}},{"attributes":{"ID":648139,"DIS_CODE":0,"TOWNNAME":"楠西區","LI":"灣丘里","LIN":"13鄰","STREET":" ","SECT":" ","MAREA":"鳳興","LANE":" ","ALLEY":" ","HOUSE_NO":"１０號之２","E_COORD97":198732.380963,"N_COORD97":2562704.9071300002,"ADDRESS":"鳳興１０號之２","OBJECTID":648112},"geometry":{"x":198732.38096299954,"y":2562704.907133}},{"attributes":{"ID":648140,"DIS_CODE":0,"TOWNNAME":"北門區","LI":"保吉里","LIN":"25鄰","STREET":" ","SECT":" ","MAREA":"蚵寮","LANE":" ","ALLEY":" ","HOUSE_NO":"４９２號","E_COORD97":161458.92183100001,"N_COORD97":2576324.6227199999,"ADDRESS":"蚵寮４９２號","OBJECTID":648113},"geometry":{"x":161458.92183099966,"y":2576324.6227180008}},{"attributes":{"ID":648141,"DIS_CODE":0,"TOWNNAME":"白河區","LI":"玉豐里","LIN":"12鄰","STREET":" ","SECT":" ","MAREA":"海豐厝","LANE":" ","ALLEY":" ","HOUSE_NO":"１２２號","E_COORD97":190275.873869,"N_COORD97":2586027.2949100002,"ADDRESS":"海豐厝１２２號","OBJECTID":648114},"geometry":{"x":190275.87386900093,"y":2586027.2949100025}},{"attributes":{"ID":648142,"DIS_CODE":0,"TOWNNAME":"北門區","LI":"錦湖里","LIN":"16鄰","STREET":" ","SECT":" ","MAREA":"渡子頭","LANE":" ","ALLEY":" ","HOUSE_NO":"１６８號","E_COORD97":162963.02637800001,"N_COORD97":2578026.4284000001,"ADDRESS":"渡子頭１６８號","OBJECTID":648115},"geometry":{"x":162963.02637800109,"y":2578026.4284000006}},{"attributes":{"ID":648143,"DIS_CODE":0,"TOWNNAME":"仁德區","LI":"太子里","LIN":"39鄰","STREET":"太子路","SECT":" ","MAREA":" ","LANE":"８６巷","ALLEY":"９弄","HOUSE_NO":"１２號","E_COORD97":174947.05175799999,"N_COORD97":2543746.8240399999,"ADDRESS":"太子路８６巷９弄１２號","OBJECTID":648116},"geometry":{"x":174947.05175800063,"y":2543746.824039001}},{"attributes":{"ID":648144,"DIS_CODE":0,"TOWNNAME":"北區","LI":"大山里","LIN":"12鄰","STREET":"和緯路","SECT":"一段","MAREA":" ","LANE":"１７６巷","ALLEY":" ","HOUSE_NO":"２０號","E_COORD97":169346.64330500001,"N_COORD97":2545630.6863199999,"ADDRESS":"和緯路一段１７６巷２０號","OBJECTID":648117},"geometry":{"x":169346.64330500085,"y":2545630.6863169987}},{"attributes":{"ID":648145,"DIS_CODE":0,"TOWNNAME":"安平區","LI":"育平里","LIN":"28鄰","STREET":"健康三街","SECT":" ","MAREA":" ","LANE":" ","ALLEY":" ","HOUSE_NO":"１６７號","E_COORD97":164737.27656100001,"N_COORD97":2543218.42044,"ADDRESS":"健康三街１６７號","OBJECTID":648118},"geometry":{"x":164737.27656099945,"y":2543218.4204360042}},{"attributes":{"ID":648146,"DIS_CODE":0,"TOWNNAME":"仁德區","LI":"太子里","LIN":"39鄰","STREET":"太子路","SECT":" ","MAREA":" ","LANE":"８６巷","ALLEY":"９弄","HOUSE_NO":"２２號","E_COORD97":174918.25076699999,"N_COORD97":2543745.4482100001,"ADDRESS":"太子路８６巷９弄２２號","OBJECTID":648119},"geometry":{"x":174918.25076700095,"y":2543745.448206}},{"attributes":{"ID":648147,"DIS_CODE":0,"TOWNNAME":"六甲區","LI":"二甲里","LIN":"16鄰","STREET":"信義街","SECT":" ","MAREA":" ","LANE":"２１１巷","ALLEY":" ","HOUSE_NO":"１１號","E_COORD97":183277.20047800001,"N_COORD97":2569734.4629199998,"ADDRESS":"信義街２１１巷１１號","OBJECTID":648120},"geometry":{"x":183277.20047800057,"y":2569734.4629160017}},{"attributes":{"ID":648148,"DIS_CODE":0,"TOWNNAME":"北門區","LI":"錦湖里","LIN":"15鄰","STREET":" ","SECT":" ","MAREA":"渡子頭","LANE":" ","ALLEY":" ","HOUSE_NO":"１５０之８號","E_COORD97":163928.29434200001,"N_COORD97":2577255.6446500001,"ADDRESS":"渡子頭１５０之８號","OBJECTID":648121},"geometry":{"x":163928.29434200097,"y":2577255.6446500011}},{"attributes":{"ID":648149,"DIS_CODE":0,"TOWNNAME":"楠西區","LI":"灣丘里","LIN":"12鄰","STREET":" ","SECT":" ","MAREA":"香蕉山","LANE":" ","ALLEY":" ","HOUSE_NO":"５５號之２","E_COORD97":203395.05375600001,"N_COORD97":2563562.2095900001,"ADDRESS":"香蕉山５５號之２","OBJECTID":648122},"geometry":{"x":203395.05375600141,"y":2563562.2095870003}},{"attributes":{"ID":648150,"DIS_CODE":0,"TOWNNAME":"後壁區","LI":"仕安里","LIN":"8鄰","STREET":" ","SECT":" ","MAREA":"下長","LANE":" ","ALLEY":" ","HOUSE_NO":"６７號之５","E_COORD97":180727.30884099999,"N_COORD97":2583558.7182700001,"ADDRESS":"下長６７號之５","OBJECTID":648123},"geometry":{"x":180727.30884100124,"y":2583558.7182669993}},{"attributes":{"ID":648151,"DIS_CODE":0,"TOWNNAME":"北區","LI":"大山里","LIN":"12鄰","STREET":"和緯路","SECT":"一段","MAREA":" ","LANE":"１７６巷","ALLEY":" ","HOUSE_NO":"３０號","E_COORD97":169348.12619899999,"N_COORD97":2545654.8163000001,"ADDRESS":"和緯路一段１７６巷３０號","OBJECTID":648124},"geometry":{"x":169348.12619899865,"y":2545654.8163040001}},{"attributes":{"ID":648152,"DIS_CODE":0,"TOWNNAME":"安平區","LI":"育平里","LIN":"31鄰","STREET":"健康三街","SECT":" ","MAREA":" ","LANE":"１０７巷","ALLEY":" ","HOUSE_NO":"３３號","E_COORD97":164654.20881099999,"N_COORD97":2543148.9938099999,"ADDRESS":"健康三街１０７巷３３號","OBJECTID":648125},"geometry":{"x":164654.20881100092,"y":2543148.993807001}},{"attributes":{"ID":648153,"DIS_CODE":0,"TOWNNAME":"楠西區","LI":"灣丘里","LIN":"14鄰","STREET":" ","SECT":" ","MAREA":"鳳興","LANE":" ","ALLEY":" ","HOUSE_NO":"１３號之２","E_COORD97":198685.76906600001,"N_COORD97":2562677.54923,"ADDRESS":"鳳興１３號之２","OBJECTID":648126},"geometry":{"x":198685.76906600036,"y":2562677.5492320023}},{"attributes":{"ID":648154,"DIS_CODE":0,"TOWNNAME":"新營區","LI":"延平里","LIN":"1鄰","STREET":"延平路","SECT":" ","MAREA":" ","LANE":" ","ALLEY":" ","HOUSE_NO":"４６之１０８號","E_COORD97":179724.214737,"N_COORD97":2577774.55449,"ADDRESS":"延平路４６之１０８號","OBJECTID":648127},"geometry":{"x":179724.21473699994,"y":2577774.554487003}},{"attributes":{"ID":648155,"DIS_CODE":0,"TOWNNAME":"新營區","LI":"延平里","LIN":"1鄰","STREET":"延平路","SECT":" ","MAREA":" ","LANE":" ","ALLEY":" ","HOUSE_NO":"４６之１０９號","E_COORD97":179727.605511,"N_COORD97":2577775.1894899998,"ADDRESS":"延平路４６之１０９號","OBJECTID":648128},"geometry":{"x":179727.60551100224,"y":2577775.1894859988}},{"attributes":{"ID":648156,"DIS_CODE":0,"TOWNNAME":"新營區","LI":"延平里","LIN":"1鄰","STREET":"延平路","SECT":" ","MAREA":" ","LANE":" ","ALLEY":" ","HOUSE_NO":"４６之１１０號","E_COORD97":179731.208208,"N_COORD97":2577774.9778200001,"ADDRESS":"延平路４６之１１０號","OBJECTID":648129},"geometry":{"x":179731.20820800122,"y":2577774.9778200015}},{"attributes":{"ID":648157,"DIS_CODE":0,"TOWNNAME":"新營區","LI":"延平里","LIN":"1鄰","STREET":"延平路","SECT":" ","MAREA":" ","LANE":" ","ALLEY":" ","HOUSE_NO":"４６之１１１號","E_COORD97":179731.84397799999,"N_COORD97":2577770.3211599998,"ADDRESS":"延平路４６之１１１號","OBJECTID":648130},"geometry":{"x":179731.8439780008,"y":2577770.3211560007}},{"attributes":{"ID":648158,"DIS_CODE":0,"TOWNNAME":"新營區","LI":"延平里","LIN":"1鄰","STREET":"延平路","SECT":" ","MAREA":" ","LANE":" ","ALLEY":" ","HOUSE_NO":"４６之１１２號","E_COORD97":179728.241281,"N_COORD97":2577770.3211599998,"ADDRESS":"延平路４６之１１２號","OBJECTID":648131},"geometry":{"x":179728.24128100183,"y":2577770.3211560007}},{"attributes":{"ID":648159,"DIS_CODE":0,"TOWNNAME":"新營區","LI":"延平里","LIN":"1鄰","STREET":"延平路","SECT":" ","MAREA":" ","LANE":" ","ALLEY":" ","HOUSE_NO":"４６之１２５號","E_COORD97":179728.87705099999,"N_COORD97":2577766.7228199998,"ADDRESS":"延平路４６之１２５號","OBJECTID":648132},"geometry":{"x":179728.87705100141,"y":2577766.7228239998}},{"attributes":{"ID":648160,"DIS_CODE":0,"TOWNNAME":"新營區","LI":"延平里","LIN":"1鄰","STREET":"延平路","SECT":" ","MAREA":" ","LANE":" ","ALLEY":" ","HOUSE_NO":"４６之１２６號","E_COORD97":179731.84397799999,"N_COORD97":2577766.7228199998,"ADDRESS":"延平路４６之１２６號","OBJECTID":648133},"geometry":{"x":179731.8439780008,"y":2577766.7228239998}},{"attributes":{"ID":648161,"DIS_CODE":0,"TOWNNAME":"後壁區","LI":"仕安里","LIN":"10鄰","STREET":" ","SECT":" ","MAREA":"下長","LANE":" ","ALLEY":" ","HOUSE_NO":"７７號之６","E_COORD97":180422.94165200001,"N_COORD97":2583720.6216699998,"ADDRESS":"下長７７號之６","OBJECTID":648134},"geometry":{"x":180422.94165199995,"y":2583720.6216710005}},{"attributes":{"ID":648162,"DIS_CODE":0,"TOWNNAME":"安平區","LI":"國平里","LIN":"5鄰","STREET":"建平五街","SECT":" ","MAREA":" ","LANE":" ","ALLEY":" ","HOUSE_NO":"２１９號","E_COORD97":165503.11035,"N_COORD97":2543181.8021200001,"ADDRESS":"建平五街２１９號","OBJECTID":648135},"geometry":{"x":165503.11034999974,"y":2543181.8021200001}},{"attributes":{"ID":648163,"DIS_CODE":0,"TOWNNAME":"新營區","LI":"延平里","LIN":"1鄰","STREET":"延平路","SECT":" ","MAREA":" ","LANE":" ","ALLEY":" ","HOUSE_NO":"４６之１２８號","E_COORD97":179744.771301,"N_COORD97":2577768.5219899998,"ADDRESS":"延平路４６之１２８號","OBJECTID":648136},"geometry":{"x":179744.77130100224,"y":2577768.5219899975}},{"attributes":{"ID":648164,"DIS_CODE":0,"TOWNNAME":"新營區","LI":"延平里","LIN":"1鄰","STREET":"延平路","SECT":" ","MAREA":" ","LANE":" ","ALLEY":" ","HOUSE_NO":"４６之１３０號","E_COORD97":179743.92360800001,"N_COORD97":2577763.2303300002,"ADDRESS":"延平路４６之１３０號","OBJECTID":648137},"geometry":{"x":179743.92360799946,"y":2577763.2303260025}},{"attributes":{"ID":648165,"DIS_CODE":0,"TOWNNAME":"新營區","LI":"延平里","LIN":"1鄰","STREET":"延平路","SECT":" ","MAREA":" ","LANE":" ","ALLEY":" ","HOUSE_NO":"４６之１３１號","E_COORD97":179743.92360800001,"N_COORD97":2577761.5369899999,"ADDRESS":"延平路４６之１３１號","OBJECTID":648138},"geometry":{"x":179743.92360799946,"y":2577761.536993999}},{"attributes":{"ID":648166,"DIS_CODE":0,"TOWNNAME":"楠西區","LI":"灣丘里","LIN":"14鄰","STREET":" ","SECT":" ","MAREA":"鳳興","LANE":" ","ALLEY":" ","HOUSE_NO":"１８號","E_COORD97":198612.46126499999,"N_COORD97":2562646.7517499998,"ADDRESS":"鳳興１８號","OBJECTID":648139},"geometry":{"x":198612.46126500145,"y":2562646.7517480012}},{"attributes":{"ID":648167,"DIS_CODE":0,"TOWNNAME":"安平區","LI":"億載里","LIN":"13鄰","STREET":"光州路","SECT":" ","MAREA":" ","LANE":" ","ALLEY":" ","HOUSE_NO":"８６號","E_COORD97":163921.85640799999,"N_COORD97":2543279.3804000001,"ADDRESS":"光州路８６號","OBJECTID":648140},"geometry":{"x":163921.85640800092,"y":2543279.3804030027}},{"attributes":{"ID":648168,"DIS_CODE":0,"TOWNNAME":"官田區","LI":"隆本里","LIN":"23鄰","STREET":"仁愛街","SECT":" ","MAREA":" ","LANE":" ","ALLEY":" ","HOUSE_NO":"７０號","E_COORD97":179943.51077600001,"N_COORD97":2566036.20395,"ADDRESS":"仁愛街７０號","OBJECTID":648141},"geometry":{"x":179943.51077599917,"y":2566036.2039449997}},{"attributes":{"ID":648169,"DIS_CODE":0,"TOWNNAME":"安平區","LI":"平通里","LIN":"27鄰","STREET":"育平七街","SECT":" ","MAREA":" ","LANE":"１４２巷","ALLEY":" ","HOUSE_NO":"７６號","E_COORD97":164343.34047299999,"N_COORD97":2543964.5450300002,"ADDRESS":"育平七街１４２巷７６號","OBJECTID":648142},"geometry":{"x":164343.34047300089,"y":2543964.5450330023}},{"attributes":{"ID":648170,"DIS_CODE":0,"TOWNNAME":"新營區","LI":"延平里","LIN":"1鄰","STREET":"延平路","SECT":" ","MAREA":" ","LANE":" ","ALLEY":" ","HOUSE_NO":"４６之１０１號","E_COORD97":179712.98280100001,"N_COORD97":2577775.3482400002,"ADDRESS":"延平路４６之１０１號","OBJECTID":648143},"geometry":{"x":179712.98280099966,"y":2577775.348236002}},{"attributes":{"ID":648171,"DIS_CODE":0,"TOWNNAME":"新營區","LI":"延平里","LIN":"1鄰","STREET":"延平路","SECT":" ","MAREA":" ","LANE":" ","ALLEY":" ","HOUSE_NO":"４６之１０２號","E_COORD97":179710.015874,"N_COORD97":2577774.9249,"ADDRESS":"延平路４６之１０２號","OBJECTID":648144},"geometry":{"x":179710.01587400027,"y":2577774.9249029998}},{"attributes":{"ID":648172,"DIS_CODE":0,"TOWNNAME":"後壁區","LI":"仕安里","LIN":"10鄰","STREET":" ","SECT":" ","MAREA":"下長","LANE":" ","ALLEY":" ","HOUSE_NO":"８０號之３０","E_COORD97":180204.94562400001,"N_COORD97":2582804.1055000001,"ADDRESS":"下長８０號之３０","OBJECTID":648145},"geometry":{"x":180204.94562400132,"y":2582804.1055000015}},{"attributes":{"ID":648173,"DIS_CODE":0,"TOWNNAME":"安平區","LI":"億載里","LIN":"2鄰","STREET":"永華十一街","SECT":" ","MAREA":" ","LANE":"１４１巷","ALLEY":" ","HOUSE_NO":"４５號","E_COORD97":163953.43062900001,"N_COORD97":2543772.3517999998,"ADDRESS":"永華十一街１４１巷４５號","OBJECTID":648146},"geometry":{"x":163953.430629001,"y":2543772.351803001}},{"attributes":{"ID":648174,"DIS_CODE":0,"TOWNNAME":"安平區","LI":"億載里","LIN":"2鄰","STREET":"永華十一街","SECT":" ","MAREA":" ","LANE":"１４１巷","ALLEY":" ","HOUSE_NO":"４７號","E_COORD97":163949.19247800001,"N_COORD97":2543771.7168000001,"ADDRESS":"永華十一街１４１巷４７號","OBJECTID":648147},"geometry":{"x":163949.19247800112,"y":2543771.7168040015}},{"attributes":{"ID":648175,"DIS_CODE":0,"TOWNNAME":"安平區","LI":"文平里","LIN":"9鄰","STREET":"建平七街","SECT":" ","MAREA":" ","LANE":"１８２巷","ALLEY":" ","HOUSE_NO":"３６號","E_COORD97":166066.36055300001,"N_COORD97":2543323.40705,"ADDRESS":"建平七街１８２巷３６號","OBJECTID":648148},"geometry":{"x":166066.36055300105,"y":2543323.4070460014}},{"attributes":{"ID":648176,"DIS_CODE":0,"TOWNNAME":"安平區","LI":"文平里","LIN":"9鄰","STREET":"建平七街","SECT":" ","MAREA":" ","LANE":"１８２巷","ALLEY":" ","HOUSE_NO":"３８號","E_COORD97":166060.63904899999,"N_COORD97":2543324.0420499998,"ADDRESS":"建平七街１８２巷３８號","OBJECTID":648149},"geometry":{"x":166060.63904900011,"y":2543324.0420460012}},{"attributes":{"ID":648177,"DIS_CODE":0,"TOWNNAME":"仁德區","LI":"二行里","LIN":"1鄰","STREET":"中正西路","SECT":" ","MAREA":" ","LANE":"２０２巷","ALLEY":" ","HOUSE_NO":"１００號","E_COORD97":170093.895108,"N_COORD97":2535635.63625,"ADDRESS":"中正西路２０２巷１００號","OBJECTID":648150},"geometry":{"x":170093.89510800131,"y":2535635.6362540014}},{"attributes":{"ID":648178,"DIS_CODE":0,"TOWNNAME":"楠西區","LI":"灣丘里","LIN":"14鄰","STREET":" ","SECT":" ","MAREA":"鳳興","LANE":" ","ALLEY":" ","HOUSE_NO":"１９號","E_COORD97":198620.936155,"N_COORD97":2562637.2267499999,"ADDRESS":"鳳興１９號","OBJECTID":648151},"geometry":{"x":198620.9361550007,"y":2562637.226753002}},{"attributes":{"ID":648179,"DIS_CODE":0,"TOWNNAME":"安平區","LI":"建平里","LIN":"14鄰","STREET":"建平十三街","SECT":" ","MAREA":" ","LANE":" ","ALLEY":" ","HOUSE_NO":"１０５號","E_COORD97":166072.293963,"N_COORD97":2544016.6150099998,"ADDRESS":"建平十三街１０５號","OBJECTID":648152},"geometry":{"x":166072.29396300111,"y":2544016.6150050033}},{"attributes":{"ID":648180,"DIS_CODE":0,"TOWNNAME":"安平區","LI":"國平里","LIN":"3鄰","STREET":"建平五街","SECT":" ","MAREA":" ","LANE":" ","ALLEY":" ","HOUSE_NO":"２０６之１號","E_COORD97":165520.274863,"N_COORD97":2543196.6187800001,"ADDRESS":"建平五街２０６之１號","OBJECTID":648153},"geometry":{"x":165520.27486300003,"y":2543196.6187810022}},{"attributes":{"ID":648181,"DIS_CODE":0,"TOWNNAME":"安平區","LI":"國平里","LIN":"3鄰","STREET":"建平五街","SECT":" ","MAREA":" ","LANE":" ","ALLEY":" ","HOUSE_NO":"２０６號","E_COORD97":165528.115441,"N_COORD97":2543195.9837799999,"ADDRESS":"建平五街２０６號","OBJECTID":648154},"geometry":{"x":165528.11544100102,"y":2543195.9837810025}},{"attributes":{"ID":648182,"DIS_CODE":0,"TOWNNAME":"安南區","LI":"城南里","LIN":"6鄰","STREET":"青砂街","SECT":"一段","MAREA":" ","LANE":" ","ALLEY":" ","HOUSE_NO":"９３號","E_COORD97":160340.25793399999,"N_COORD97":2551530.7881100001,"ADDRESS":"青砂街一段65巷61弄９３號","OBJECTID":648155},"geometry":{"x":160340.25793400034,"y":2551530.7881120034}},{"attributes":{"ID":648183,"DIS_CODE":0,"TOWNNAME":"安平區","LI":"文平里","LIN":"1鄰","STREET":"建平七街","SECT":" ","MAREA":" ","LANE":"２６巷","ALLEY":" ","HOUSE_NO":"２０號","E_COORD97":166494.837566,"N_COORD97":2543239.58709,"ADDRESS":"建平七街２６巷２０號","OBJECTID":648156},"geometry":{"x":166494.83756600134,"y":2543239.5870910026}},{"attributes":{"ID":648184,"DIS_CODE":0,"TOWNNAME":"安平區","LI":"建平里","LIN":"28鄰","STREET":"建平八街","SECT":" ","MAREA":" ","LANE":" ","ALLEY":" ","HOUSE_NO":"７６之１號","E_COORD97":165920.568176,"N_COORD97":2543499.5136199999,"ADDRESS":"建平八街７６之１號","OBJECTID":648157},"geometry":{"x":165920.56817600131,"y":2543499.5136169996}},{"attributes":{"ID":648185,"DIS_CODE":0,"TOWNNAME":"安南區","LI":"城南里","LIN":"5鄰","STREET":"城西街","SECT":"一段","MAREA":" ","LANE":" ","ALLEY":" ","HOUSE_NO":"１６３號","E_COORD97":160542.13660900001,"N_COORD97":2551287.37158,"ADDRESS":"城西街一段１６３號","OBJECTID":648158},"geometry":{"x":160542.13660900202,"y":2551287.3715760037}},{"attributes":{"ID":648186,"DIS_CODE":0,"TOWNNAME":"安平區","LI":"華平里","LIN":"32鄰","STREET":"永華八街","SECT":" ","MAREA":" ","LANE":" ","ALLEY":" ","HOUSE_NO":"２２６號","E_COORD97":165191.60629299999,"N_COORD97":2543918.8250600002,"ADDRESS":"永華八街２２６號","OBJECTID":648159},"geometry":{"x":165191.60629299935,"y":2543918.825058002}},{"attributes":{"ID":648187,"DIS_CODE":0,"TOWNNAME":"仁德區","LI":"二行里","LIN":"1鄰","STREET":"中正西路","SECT":" ","MAREA":" ","LANE":"２０２巷","ALLEY":" ","HOUSE_NO":"１７１號","E_COORD97":170031.155531,"N_COORD97":2535792.6928400001,"ADDRESS":"中正西路２０２巷１７１號","OBJECTID":648160},"geometry":{"x":170031.15553100035,"y":2535792.6928359997}},{"attributes":{"ID":648188,"DIS_CODE":0,"TOWNNAME":"安平區","LI":"文平里","LIN":"1鄰","STREET":"建平七街","SECT":" ","MAREA":" ","LANE":" ","ALLEY":" ","HOUSE_NO":"７號","E_COORD97":166531.073753,"N_COORD97":2543187.7287900001,"ADDRESS":"建平七街７號","OBJECTID":648161},"geometry":{"x":166531.07375300024,"y":2543187.7287859991}},{"attributes":{"ID":648189,"DIS_CODE":0,"TOWNNAME":"安南區","LI":"城南里","LIN":"12鄰","STREET":"城西街","SECT":"二段","MAREA":" ","LANE":"３６６巷","ALLEY":" ","HOUSE_NO":"２３號","E_COORD97":159418.77604999999,"N_COORD97":2551081.4200200001,"ADDRESS":"城西街二段３６６巷２３號","OBJECTID":648162},"geometry":{"x":159418.77604999952,"y":2551081.4200209994}},{"attributes":{"ID":648190,"DIS_CODE":0,"TOWNNAME":"安平區","LI":"文平里","LIN":"3鄰","STREET":"中華西路","SECT":"二段","MAREA":" ","LANE":"４９巷","ALLEY":" ","HOUSE_NO":"３２號","E_COORD97":166526.83560300001,"N_COORD97":2543151.74547,"ADDRESS":"中華西路二段４９巷３２號","OBJECTID":648163},"geometry":{"x":166526.83560299966,"y":2543151.7454720009}},{"attributes":{"ID":648191,"DIS_CODE":0,"TOWNNAME":"仁德區","LI":"二行里","LIN":"1鄰","STREET":"中正西路","SECT":" ","MAREA":" ","LANE":"２０２巷","ALLEY":" ","HOUSE_NO":"１６９號","E_COORD97":170046.90352399999,"N_COORD97":2535767.1812800001,"ADDRESS":"中正西路２０２巷１６９號","OBJECTID":648164},"geometry":{"x":170046.9035240002,"y":2535767.1812770013}},{"attributes":{"ID":648192,"DIS_CODE":0,"TOWNNAME":"仁德區","LI":"二行里","LIN":"1鄰","STREET":"中正西路","SECT":" ","MAREA":" ","LANE":"２０２巷","ALLEY":" ","HOUSE_NO":"２３９號","E_COORD97":169975.41056799999,"N_COORD97":2535675.4295700002,"ADDRESS":"中正西路２０２巷２３９號","OBJECTID":648165},"geometry":{"x":169975.41056800075,"y":2535675.4295660034}},{"attributes":{"ID":648193,"DIS_CODE":0,"TOWNNAME":"下營區","LI":"茅港里","LIN":"9鄰","STREET":" ","SECT":" ","MAREA":"茅港尾","LANE":" ","ALLEY":" ","HOUSE_NO":"３１２號","E_COORD97":176598.55285599999,"N_COORD97":2568542.0175700001,"ADDRESS":"茅港尾３１２號","OBJECTID":648166},"geometry":{"x":176598.55285600014,"y":2568542.0175740011}},{"attributes":{"ID":648194,"DIS_CODE":0,"TOWNNAME":"白河區","LI":"玉豐里","LIN":"3鄰","STREET":" ","SECT":" ","MAREA":"頂山腳","LANE":" ","ALLEY":" ","HOUSE_NO":"１之１５號","E_COORD97":190350.876525,"N_COORD97":2587015.6473400001,"ADDRESS":"頂山腳１之１５號","OBJECTID":648167},"geometry":{"x":190350.87652499974,"y":2587015.6473430023}},{"attributes":{"ID":648195,"DIS_CODE":0,"TOWNNAME":"下營區","LI":"茅港里","LIN":"9鄰","STREET":" ","SECT":" ","MAREA":"茅港尾","LANE":" ","ALLEY":" ","HOUSE_NO":"３１２號之１","E_COORD97":176579.0606,"N_COORD97":2568548.5792299998,"ADDRESS":"茅港尾３１２號之１","OBJECTID":648168},"geometry":{"x":176579.06060000136,"y":2568548.5792300031}},{"attributes":{"ID":648196,"DIS_CODE":0,"TOWNNAME":"仁德區","LI":"二行里","LIN":"1鄰","STREET":"二仁路","SECT":"一段","MAREA":" ","LANE":"１５５巷","ALLEY":" ","HOUSE_NO":"６號","E_COORD97":170456.76725899999,"N_COORD97":2535672.8895700001,"ADDRESS":"二仁路一段１５５巷６號","OBJECTID":648169},"geometry":{"x":170456.76725900173,"y":2535672.8895669989}},{"attributes":{"ID":648197,"DIS_CODE":0,"TOWNNAME":"下營區","LI":"茅港里","LIN":"9鄰","STREET":" ","SECT":" ","MAREA":"茅港尾","LANE":" ","ALLEY":" ","HOUSE_NO":"３１２號之２","E_COORD97":176577.36562999999,"N_COORD97":2568540.7475700001,"ADDRESS":"茅港尾３１２號之２","OBJECTID":648170},"geometry":{"x":176577.3656299999,"y":2568540.7475750018}},{"attributes":{"ID":648198,"DIS_CODE":0,"TOWNNAME":"安平區","LI":"文平里","LIN":"9鄰","STREET":"建平七街","SECT":" ","MAREA":" ","LANE":"１８２巷","ALLEY":" ","HOUSE_NO":"４６號","E_COORD97":166043.262632,"N_COORD97":2543326.3703800002,"ADDRESS":"建平七街１８２巷４６號","OBJECTID":648171},"geometry":{"x":166043.26263200119,"y":2543326.3703780025}},{"attributes":{"ID":648199,"DIS_CODE":0,"TOWNNAME":"白河區","LI":"玉豐里","LIN":"3鄰","STREET":" ","SECT":" ","MAREA":"頂山腳","LANE":" ","ALLEY":" ","HOUSE_NO":"７之３５號","E_COORD97":190392.82627399999,"N_COORD97":2587201.5964100002,"ADDRESS":"頂山腳７之３５號","OBJECTID":648172},"geometry":{"x":190392.82627400104,"y":2587201.5964100007}},{"attributes":{"ID":648200,"DIS_CODE":0,"TOWNNAME":"安平區","LI":"文平里","LIN":"7鄰","STREET":"建平七街","SECT":" ","MAREA":" ","LANE":" ","ALLEY":" ","HOUSE_NO":"６６號","E_COORD97":166301.15408899999,"N_COORD97":2543242.7620899999,"ADDRESS":"建平七街６６號","OBJECTID":648173},"geometry":{"x":166301.15408900008,"y":2543242.762089001}},{"attributes":{"ID":648201,"DIS_CODE":0,"TOWNNAME":"將軍區","LI":"長沙里","LIN":"156鄰","STREET":" ","SECT":" ","MAREA":"長沙","LANE":" ","ALLEY":" ","HOUSE_NO":"１４６之６號","E_COORD97":158407.600622,"N_COORD97":2568570.0852399999,"ADDRESS":"長沙１４６之６號","OBJECTID":648174},"geometry":{"x":158407.60062200017,"y":2568570.085244}},{"attributes":{"ID":648202,"DIS_CODE":0,"TOWNNAME":"安平區","LI":"平安里","LIN":"21鄰","STREET":"民權路","SECT":"四段","MAREA":" ","LANE":" ","ALLEY":" ","HOUSE_NO":"１４１號","E_COORD97":166196.68367999999,"N_COORD97":2544409.67979,"ADDRESS":"民權路四段１４１號","OBJECTID":648175},"geometry":{"x":166196.68367999978,"y":2544409.6797930021}},{"attributes":{"ID":648203,"DIS_CODE":0,"TOWNNAME":"仁德區","LI":"二行里","LIN":"2鄰","STREET":"二仁路","SECT":"一段","MAREA":" ","LANE":"１５５巷","ALLEY":" ","HOUSE_NO":"６２號","E_COORD97":170403.459814,"N_COORD97":2535580.2960299999,"ADDRESS":"二仁路一段１５５巷６２號","OBJECTID":648176},"geometry":{"x":170403.45981400087,"y":2535580.2960340027}},{"attributes":{"ID":648204,"DIS_CODE":0,"TOWNNAME":"將軍區","LI":"將貴里","LIN":"6鄰","STREET":" ","SECT":" ","MAREA":"將貴","LANE":" ","ALLEY":" ","HOUSE_NO":"６２之３０號","E_COORD97":161541.978569,"N_COORD97":2568060.9702300001,"ADDRESS":"將貴６２之３０號","OBJECTID":648177},"geometry":{"x":161541.97856900003,"y":2568060.9702310022}},{"attributes":{"ID":648205,"DIS_CODE":0,"TOWNNAME":"仁德區","LI":"二行里","LIN":"2鄰","STREET":"二行一路","SECT":" ","MAREA":" ","LANE":" ","ALLEY":" ","HOUSE_NO":"１２７號","E_COORD97":170484.586751,"N_COORD97":2535480.4952500002,"ADDRESS":"二行一路１２７號","OBJECTID":648178},"geometry":{"x":170484.58675100002,"y":2535480.4952540006}},{"attributes":{"ID":648206,"DIS_CODE":0,"TOWNNAME":"安平區","LI":"平通里","LIN":"32鄰","STREET":"永華路","SECT":"二段","MAREA":" ","LANE":" ","ALLEY":" ","HOUSE_NO":"９３６號二十五樓","E_COORD97":164459.6777,"N_COORD97":2543645.5635299999,"ADDRESS":"永華路二段９３６號二十五樓","OBJECTID":648179},"geometry":{"x":164459.67769999988,"y":2543645.5635300037}},{"attributes":{"ID":648207,"DIS_CODE":0,"TOWNNAME":"安平區","LI":"平通里","LIN":"32鄰","STREET":"永華路","SECT":"二段","MAREA":" ","LANE":" ","ALLEY":" ","HOUSE_NO":"９３０號四樓","E_COORD97":164459.6777,"N_COORD97":2543645.5635299999,"ADDRESS":"永華路二段９３０號四樓","OBJECTID":648180},"geometry":{"x":164459.67769999988,"y":2543645.5635300037}},{"attributes":{"ID":648208,"DIS_CODE":0,"TOWNNAME":"安平區","LI":"平通里","LIN":"32鄰","STREET":"永華路","SECT":"二段","MAREA":" ","LANE":" ","ALLEY":" ","HOUSE_NO":"９３０號五樓","E_COORD97":164459.6777,"N_COORD97":2543645.5635299999,"ADDRESS":"永華路二段９３０號五樓","OBJECTID":648181},"geometry":{"x":164459.67769999988,"y":2543645.5635300037}},{"attributes":{"ID":648209,"DIS_CODE":0,"TOWNNAME":"安平區","LI":"平通里","LIN":"32鄰","STREET":"永華路","SECT":"二段","MAREA":" ","LANE":" ","ALLEY":" ","HOUSE_NO":"９３０號六樓","E_COORD97":164459.6777,"N_COORD97":2543645.5635299999,"ADDRESS":"永華路二段９３０號六樓","OBJECTID":648182},"geometry":{"x":164459.67769999988,"y":2543645.5635300037}},{"attributes":{"ID":648210,"DIS_CODE":0,"TOWNNAME":"安平區","LI":"平通里","LIN":"32鄰","STREET":"永華路","SECT":"二段","MAREA":" ","LANE":" ","ALLEY":" ","HOUSE_NO":"９３０號三樓","E_COORD97":164459.6777,"N_COORD97":2543645.5635299999,"ADDRESS":"永華路二段９３０號三樓","OBJECTID":648183},"geometry":{"x":164459.67769999988,"y":2543645.5635300037}},{"attributes":{"ID":648211,"DIS_CODE":0,"TOWNNAME":"安平區","LI":"平通里","LIN":"32鄰","STREET":"永華路","SECT":"二段","MAREA":" ","LANE":" ","ALLEY":" ","HOUSE_NO":"９３０號七樓","E_COORD97":164459.6777,"N_COORD97":2543645.5635299999,"ADDRESS":"永華路二段９３０號七樓","OBJECTID":648184},"geometry":{"x":164459.67769999988,"y":2543645.5635300037}},{"attributes":{"ID":648212,"DIS_CODE":0,"TOWNNAME":"安平區","LI":"平通里","LIN":"32鄰","STREET":"永華路","SECT":"二段","MAREA":" ","LANE":" ","ALLEY":" ","HOUSE_NO":"９３０號八樓","E_COORD97":164459.6777,"N_COORD97":2543645.5635299999,"ADDRESS":"永華路二段９３０號八樓","OBJECTID":648185},"geometry":{"x":164459.67769999988,"y":2543645.5635300037}},{"attributes":{"ID":648213,"DIS_CODE":0,"TOWNNAME":"安平區","LI":"平通里","LIN":"32鄰","STREET":"永華路","SECT":"二段","MAREA":" ","LANE":" ","ALLEY":" ","HOUSE_NO":"９３０號九樓","E_COORD97":164459.6777,"N_COORD97":2543645.5635299999,"ADDRESS":"永華路二段９３０號九樓","OBJECTID":648186},"geometry":{"x":164459.67769999988,"y":2543645.5635300037}},{"attributes":{"ID":648214,"DIS_CODE":0,"TOWNNAME":"安平區","LI":"平通里","LIN":"32鄰","STREET":"永華路","SECT":"二段","MAREA":" ","LANE":" ","ALLEY":" ","HOUSE_NO":"９３０號十樓","E_COORD97":164459.6777,"N_COORD97":2543645.5635299999,"ADDRESS":"永華路二段９３０號十樓","OBJECTID":648187},"geometry":{"x":164459.67769999988,"y":2543645.5635300037}},{"attributes":{"ID":648215,"DIS_CODE":0,"TOWNNAME":"安平區","LI":"平通里","LIN":"32鄰","STREET":"永華路","SECT":"二段","MAREA":" ","LANE":" ","ALLEY":" ","HOUSE_NO":"９３０號十一樓","E_COORD97":164459.6777,"N_COORD97":2543645.5635299999,"ADDRESS":"永華路二段９３０號十一樓","OBJECTID":648188},"geometry":{"x":164459.67769999988,"y":2543645.5635300037}},{"attributes":{"ID":648216,"DIS_CODE":0,"TOWNNAME":"安平區","LI":"平通里","LIN":"32鄰","STREET":"永華路","SECT":"二段","MAREA":" ","LANE":" ","ALLEY":" ","HOUSE_NO":"９３０號十二樓","E_COORD97":164459.6777,"N_COORD97":2543645.5635299999,"ADDRESS":"永華路二段９３０號十二樓","OBJECTID":648189},"geometry":{"x":164459.67769999988,"y":2543645.5635300037}},{"attributes":{"ID":648217,"DIS_CODE":0,"TOWNNAME":"安平區","LI":"平通里","LIN":"32鄰","STREET":"永華路","SECT":"二段","MAREA":" ","LANE":" ","ALLEY":" ","HOUSE_NO":"９３０號十三樓","E_COORD97":164459.6777,"N_COORD97":2543645.5635299999,"ADDRESS":"永華路二段９３０號十三樓","OBJECTID":648190},"geometry":{"x":164459.67769999988,"y":2543645.5635300037}},{"attributes":{"ID":648218,"DIS_CODE":0,"TOWNNAME":"安平區","LI":"平通里","LIN":"32鄰","STREET":"永華路","SECT":"二段","MAREA":" ","LANE":" ","ALLEY":" ","HOUSE_NO":"９３０號十四樓","E_COORD97":164459.6777,"N_COORD97":2543645.5635299999,"ADDRESS":"永華路二段９３０號十四樓","OBJECTID":648191},"geometry":{"x":164459.67769999988,"y":2543645.5635300037}},{"attributes":{"ID":648219,"DIS_CODE":0,"TOWNNAME":"安平區","LI":"平通里","LIN":"32鄰","STREET":"永華路","SECT":"二段","MAREA":" ","LANE":" ","ALLEY":" ","HOUSE_NO":"９３０號十五樓","E_COORD97":164459.6777,"N_COORD97":2543645.5635299999,"ADDRESS":"永華路二段９３０號十五樓","OBJECTID":648192},"geometry":{"x":164459.67769999988,"y":2543645.5635300037}},{"attributes":{"ID":648220,"DIS_CODE":0,"TOWNNAME":"安平區","LI":"平通里","LIN":"32鄰","STREET":"永華路","SECT":"二段","MAREA":" ","LANE":" ","ALLEY":" ","HOUSE_NO":"９３０號十六樓","E_COORD97":164459.6777,"N_COORD97":2543645.5635299999,"ADDRESS":"永華路二段９３０號十六樓","OBJECTID":648193},"geometry":{"x":164459.67769999988,"y":2543645.5635300037}},{"attributes":{"ID":648221,"DIS_CODE":0,"TOWNNAME":"安平區","LI":"平通里","LIN":"32鄰","STREET":"永華路","SECT":"二段","MAREA":" ","LANE":" ","ALLEY":" ","HOUSE_NO":"９３０號十七樓","E_COORD97":164459.6777,"N_COORD97":2543645.5635299999,"ADDRESS":"永華路二段９３０號十七樓","OBJECTID":648194},"geometry":{"x":164459.67769999988,"y":2543645.5635300037}},{"attributes":{"ID":648222,"DIS_CODE":0,"TOWNNAME":"安平區","LI":"平通里","LIN":"32鄰","STREET":"永華路","SECT":"二段","MAREA":" ","LANE":" ","ALLEY":" ","HOUSE_NO":"９３０號十八樓","E_COORD97":164459.6777,"N_COORD97":2543645.5635299999,"ADDRESS":"永華路二段９３０號十八樓","OBJECTID":648195},"geometry":{"x":164459.67769999988,"y":2543645.5635300037}},{"attributes":{"ID":648223,"DIS_CODE":0,"TOWNNAME":"安平區","LI":"平通里","LIN":"32鄰","STREET":"永華路","SECT":"二段","MAREA":" ","LANE":" ","ALLEY":" ","HOUSE_NO":"９３０號十九樓","E_COORD97":164459.6777,"N_COORD97":2543645.5635299999,"ADDRESS":"永華路二段９３０號十九樓","OBJECTID":648196},"geometry":{"x":164459.67769999988,"y":2543645.5635300037}},{"attributes":{"ID":648224,"DIS_CODE":0,"TOWNNAME":"安平區","LI":"平通里","LIN":"32鄰","STREET":"永華路","SECT":"二段","MAREA":" ","LANE":" ","ALLEY":" ","HOUSE_NO":"９３０號二十樓","E_COORD97":164459.6777,"N_COORD97":2543645.5635299999,"ADDRESS":"永華路二段９３０號二十樓","OBJECTID":648197},"geometry":{"x":164459.67769999988,"y":2543645.5635300037}},{"attributes":{"ID":648225,"DIS_CODE":0,"TOWNNAME":"安平區","LI":"平通里","LIN":"32鄰","STREET":"永華路","SECT":"二段","MAREA":" ","LANE":" ","ALLEY":" ","HOUSE_NO":"９３０號二十一樓","E_COORD97":164459.6777,"N_COORD97":2543645.5635299999,"ADDRESS":"永華路二段９３０號二十一樓","OBJECTID":648198},"geometry":{"x":164459.67769999988,"y":2543645.5635300037}},{"attributes":{"ID":648226,"DIS_CODE":0,"TOWNNAME":"安平區","LI":"平通里","LIN":"32鄰","STREET":"永華路","SECT":"二段","MAREA":" ","LANE":" ","ALLEY":" ","HOUSE_NO":"９３０號二十二樓","E_COORD97":164459.6777,"N_COORD97":2543645.5635299999,"ADDRESS":"永華路二段９３０號二十二樓","OBJECTID":648199},"geometry":{"x":164459.67769999988,"y":2543645.5635300037}},{"attributes":{"ID":648227,"DIS_CODE":0,"TOWNNAME":"安平區","LI":"平通里","LIN":"32鄰","STREET":"永華路","SECT":"二段","MAREA":" ","LANE":" ","ALLEY":" ","HOUSE_NO":"９３０號二十三樓","E_COORD97":164459.6777,"N_COORD97":2543645.5635299999,"ADDRESS":"永華路二段９３０號二十三樓","OBJECTID":648200},"geometry":{"x":164459.67769999988,"y":2543645.5635300037}}]}