{"displayFieldName":"TOWNNAME","fieldAliases":{"ID":"ID","DIS_CODE":"DIS_CODE","TOWNNAME":"TOWNNAME","LI":"LI","LIN":"LIN","STREET":"STREET","SECT":"SECT","MAREA":"MAREA","LANE":"LANE","ALLEY":"ALLEY","HOUSE_NO":"HOUSE_NO","E_COORD97":"E_COORD97","N_COORD97":"N_COORD97","ADDRESS":"ADDRESS","OBJECTID":"OBJECTID"},"geometryType":"esriGeometryPoint","spatialReference":{"wkid":102443,"latestWkid":3826},"fields":[{"name":"ID","type":"esriFieldTypeDouble","alias":"ID"},{"name":"DIS_CODE","type":"esriFieldTypeInteger","alias":"DIS_CODE"},{"name":"TOWNNAME","type":"esriFieldTypeString","alias":"TOWNNAME","length":8},{"name":"LI","type":"esriFieldTypeString","alias":"LI","length":8},{"name":"LIN","type":"esriFieldTypeString","alias":"LIN","length":12},{"name":"STREET","type":"esriFieldTypeString","alias":"STREET","length":20},{"name":"SECT","type":"esriFieldTypeString","alias":"SECT","length":8},{"name":"MAREA","type":"esriFieldTypeString","alias":"MAREA","length":12},{"name":"LANE","type":"esriFieldTypeString","alias":"LANE","length":10},{"name":"ALLEY","type":"esriFieldTypeString","alias":"ALLEY","length":10},{"name":"HOUSE_NO","type":"esriFieldTypeString","alias":"HOUSE_NO","length":20},{"name":"E_COORD97","type":"esriFieldTypeDouble","alias":"E_COORD97"},{"name":"N_COORD97","type":"esriFieldTypeDouble","alias":"N_COORD97"},{"name":"ADDRESS","type":"esriFieldTypeString","alias":"ADDRESS","length":50},{"name":"OBJECTID","type":"esriFieldTypeOID","alias":"OBJECTID"}],"features":[{"attributes":{"ID":359211,"DIS_CODE":0,"TOWNNAME":"仁德區","LI":"仁愛里","LIN":"25鄰","STREET":"大同路","SECT":"三段","MAREA":" ","LANE":" ","ALLEY":" ","HOUSE_NO":"１２號","E_COORD97":169692.90292299999,"N_COORD97":2540089.3855699999,"ADDRESS":"大同路三段１２號","OBJECTID":359201},"geometry":{"x":169692.90292300098,"y":2540089.3855710011}},{"attributes":{"ID":359212,"DIS_CODE":0,"TOWNNAME":"東區","LI":"富強里","LIN":"25鄰","STREET":"裕農路","SECT":" ","MAREA":" ","LANE":"４４６巷","ALLEY":" ","HOUSE_NO":"５８號","E_COORD97":171237.56,"N_COORD97":2542980.8900000001,"ADDRESS":"裕農路４４６巷５８號","OBJECTID":359202},"geometry":{"x":171237.55999999959,"y":2542980.8900000006}},{"attributes":{"ID":359213,"DIS_CODE":0,"TOWNNAME":"東區","LI":"富強里","LIN":"25鄰","STREET":"裕農路","SECT":" ","MAREA":" ","LANE":"４４６巷","ALLEY":" ","HOUSE_NO":"６０號","E_COORD97":171238.20999999999,"N_COORD97":2542977.3599999999,"ADDRESS":"裕農路４４６巷６０號","OBJECTID":359203},"geometry":{"x":171238.21000000089,"y":2542977.3600000013}},{"attributes":{"ID":359214,"DIS_CODE":0,"TOWNNAME":"東區","LI":"大同里","LIN":"19鄰","STREET":"府連路","SECT":" ","MAREA":" ","LANE":"１６６巷","ALLEY":" ","HOUSE_NO":"２６號","E_COORD97":169240.45999999999,"N_COORD97":2542761.1699999999,"ADDRESS":"府連路１６６巷２６號","OBJECTID":359204},"geometry":{"x":169240.45999999996,"y":2542761.1699999999}},{"attributes":{"ID":359215,"DIS_CODE":0,"TOWNNAME":"東區","LI":"崇信里","LIN":"8鄰","STREET":"中華東路","SECT":"三段","MAREA":" ","LANE":" ","ALLEY":" ","HOUSE_NO":"６０號十五樓之１","E_COORD97":170850.25,"N_COORD97":2542259.1099999999,"ADDRESS":"中華東路三段６０號十五樓之１","OBJECTID":359205},"geometry":{"x":170850.25,"y":2542259.1099999994}},{"attributes":{"ID":359216,"DIS_CODE":0,"TOWNNAME":"東區","LI":"崇信里","LIN":"8鄰","STREET":"中華東路","SECT":"三段","MAREA":" ","LANE":" ","ALLEY":" ","HOUSE_NO":"６０號十六樓","E_COORD97":170850.25,"N_COORD97":2542259.1099999999,"ADDRESS":"中華東路三段６０號十六樓","OBJECTID":359206},"geometry":{"x":170850.25,"y":2542259.1099999994}},{"attributes":{"ID":359217,"DIS_CODE":0,"TOWNNAME":"東區","LI":"崇信里","LIN":"8鄰","STREET":"中華東路","SECT":"三段","MAREA":" ","LANE":" ","ALLEY":" ","HOUSE_NO":"６０號十六樓之１","E_COORD97":170850.25,"N_COORD97":2542259.1099999999,"ADDRESS":"中華東路三段６０號十六樓之１","OBJECTID":359207},"geometry":{"x":170850.25,"y":2542259.1099999994}},{"attributes":{"ID":359218,"DIS_CODE":0,"TOWNNAME":"東區","LI":"崇信里","LIN":"8鄰","STREET":"中華東路","SECT":"三段","MAREA":" ","LANE":" ","ALLEY":" ","HOUSE_NO":"６０號十四樓","E_COORD97":170850.25,"N_COORD97":2542259.1099999999,"ADDRESS":"中華東路三段６０號十四樓","OBJECTID":359208},"geometry":{"x":170850.25,"y":2542259.1099999994}},{"attributes":{"ID":359219,"DIS_CODE":0,"TOWNNAME":"東區","LI":"崇信里","LIN":"8鄰","STREET":"中華東路","SECT":"三段","MAREA":" ","LANE":" ","ALLEY":" ","HOUSE_NO":"６０號十四樓之１","E_COORD97":170850.25,"N_COORD97":2542259.1099999999,"ADDRESS":"中華東路三段６０號十四樓之１","OBJECTID":359209},"geometry":{"x":170850.25,"y":2542259.1099999994}},{"attributes":{"ID":359220,"DIS_CODE":0,"TOWNNAME":"東區","LI":"崇信里","LIN":"8鄰","STREET":"中華東路","SECT":"三段","MAREA":" ","LANE":" ","ALLEY":" ","HOUSE_NO":"６０號十樓","E_COORD97":170850.25,"N_COORD97":2542259.1099999999,"ADDRESS":"中華東路三段６０號十樓","OBJECTID":359210},"geometry":{"x":170850.25,"y":2542259.1099999994}},{"attributes":{"ID":359221,"DIS_CODE":0,"TOWNNAME":"東區","LI":"崇信里","LIN":"8鄰","STREET":"中華東路","SECT":"三段","MAREA":" ","LANE":" ","ALLEY":" ","HOUSE_NO":"６０號十樓之１","E_COORD97":170850.25,"N_COORD97":2542259.1099999999,"ADDRESS":"中華東路三段６０號十樓之１","OBJECTID":359211},"geometry":{"x":170850.25,"y":2542259.1099999994}},{"attributes":{"ID":359222,"DIS_CODE":0,"TOWNNAME":"東區","LI":"崇信里","LIN":"8鄰","STREET":"中華東路","SECT":"三段","MAREA":" ","LANE":" ","ALLEY":" ","HOUSE_NO":"６０號五樓","E_COORD97":170850.25,"N_COORD97":2542259.1099999999,"ADDRESS":"中華東路三段６０號五樓","OBJECTID":359212},"geometry":{"x":170850.25,"y":2542259.1099999994}},{"attributes":{"ID":359223,"DIS_CODE":0,"TOWNNAME":"東區","LI":"崇信里","LIN":"8鄰","STREET":"中華東路","SECT":"三段","MAREA":" ","LANE":" ","ALLEY":" ","HOUSE_NO":"６０號五樓之１","E_COORD97":170850.25,"N_COORD97":2542259.1099999999,"ADDRESS":"中華東路三段６０號五樓之１","OBJECTID":359213},"geometry":{"x":170850.25,"y":2542259.1099999994}},{"attributes":{"ID":359224,"DIS_CODE":0,"TOWNNAME":"東區","LI":"崇信里","LIN":"8鄰","STREET":"中華東路","SECT":"三段","MAREA":" ","LANE":" ","ALLEY":" ","HOUSE_NO":"６０號六樓","E_COORD97":170850.25,"N_COORD97":2542259.1099999999,"ADDRESS":"中華東路三段６０號六樓","OBJECTID":359214},"geometry":{"x":170850.25,"y":2542259.1099999994}},{"attributes":{"ID":359225,"DIS_CODE":0,"TOWNNAME":"東區","LI":"崇信里","LIN":"8鄰","STREET":"中華東路","SECT":"三段","MAREA":" ","LANE":" ","ALLEY":" ","HOUSE_NO":"６０號六樓之１","E_COORD97":170850.25,"N_COORD97":2542259.1099999999,"ADDRESS":"中華東路三段６０號六樓之１","OBJECTID":359215},"geometry":{"x":170850.25,"y":2542259.1099999994}},{"attributes":{"ID":359226,"DIS_CODE":0,"TOWNNAME":"東區","LI":"崇信里","LIN":"8鄰","STREET":"中華東路","SECT":"三段","MAREA":" ","LANE":" ","ALLEY":" ","HOUSE_NO":"６０號四樓","E_COORD97":170850.25,"N_COORD97":2542259.1099999999,"ADDRESS":"中華東路三段６０號四樓","OBJECTID":359216},"geometry":{"x":170850.25,"y":2542259.1099999994}},{"attributes":{"ID":359227,"DIS_CODE":0,"TOWNNAME":"東區","LI":"崇信里","LIN":"8鄰","STREET":"中華東路","SECT":"三段","MAREA":" ","LANE":" ","ALLEY":" ","HOUSE_NO":"６０號四樓之１","E_COORD97":170850.25,"N_COORD97":2542259.1099999999,"ADDRESS":"中華東路三段６０號四樓之１","OBJECTID":359217},"geometry":{"x":170850.25,"y":2542259.1099999994}},{"attributes":{"ID":359228,"DIS_CODE":0,"TOWNNAME":"永康區","LI":"\u25A0行里","LIN":"25鄰","STREET":"\u25A0和街","SECT":" ","MAREA":" ","LANE":"２４７巷","ALLEY":" ","HOUSE_NO":"６號","E_COORD97":171514.45999999999,"N_COORD97":2548368.7000000002,"ADDRESS":"\u25A0和街２４７巷６號","OBJECTID":359218},"geometry":{"x":171514.46000000089,"y":2548368.700000003}},{"attributes":{"ID":359229,"DIS_CODE":0,"TOWNNAME":"東區","LI":"大同里","LIN":"19鄰","STREET":"府連路","SECT":" ","MAREA":" ","LANE":"１８２巷","ALLEY":" ","HOUSE_NO":"１０號","E_COORD97":169247.39999999999,"N_COORD97":2542786.6499999999,"ADDRESS":"府連路１８２巷１０號","OBJECTID":359219},"geometry":{"x":169247.4000000013,"y":2542786.6500000022}},{"attributes":{"ID":359230,"DIS_CODE":0,"TOWNNAME":"東區","LI":"崇信里","LIN":"8鄰","STREET":"中華東路","SECT":"三段","MAREA":" ","LANE":" ","ALLEY":" ","HOUSE_NO":"６８號七樓","E_COORD97":170834.63,"N_COORD97":2542241.3199999998,"ADDRESS":"中華東路三段６８號七樓","OBJECTID":359220},"geometry":{"x":170834.62999999896,"y":2542241.3200000003}},{"attributes":{"ID":359231,"DIS_CODE":0,"TOWNNAME":"東區","LI":"大同里","LIN":"19鄰","STREET":"府連路","SECT":" ","MAREA":" ","LANE":"１８２巷","ALLEY":" ","HOUSE_NO":"１２號","E_COORD97":169246.35999999999,"N_COORD97":2542779.8799999999,"ADDRESS":"府連路１８２巷１２號","OBJECTID":359221},"geometry":{"x":169246.36000000034,"y":2542779.8800000027}},{"attributes":{"ID":359232,"DIS_CODE":0,"TOWNNAME":"官田區","LI":"渡頭里","LIN":"25鄰","STREET":" ","SECT":" ","MAREA":"渡子頭","LANE":" ","ALLEY":" ","HOUSE_NO":"２８３號","E_COORD97":182221.51000000001,"N_COORD97":2563428.6299999999,"ADDRESS":"渡子頭２８３號","OBJECTID":359222},"geometry":{"x":182221.50999999978,"y":2563428.6299999971}},{"attributes":{"ID":359233,"DIS_CODE":0,"TOWNNAME":"東區","LI":"大同里","LIN":"19鄰","STREET":"府連路","SECT":" ","MAREA":" ","LANE":"１８２巷","ALLEY":" ","HOUSE_NO":"１８號","E_COORD97":169252.14999999999,"N_COORD97":2542769.0899999999,"ADDRESS":"府連路１８２巷１８號","OBJECTID":359223},"geometry":{"x":169252.1500000013,"y":2542769.0900000036}},{"attributes":{"ID":359234,"DIS_CODE":0,"TOWNNAME":"東區","LI":"大同里","LIN":"19鄰","STREET":"府連路","SECT":" ","MAREA":" ","LANE":"１８２巷","ALLEY":" ","HOUSE_NO":"２０號","E_COORD97":169258.09,"N_COORD97":2542764.71,"ADDRESS":"府連路１８２巷２０號","OBJECTID":359224},"geometry":{"x":169258.08999999985,"y":2542764.7100000009}},{"attributes":{"ID":359235,"DIS_CODE":0,"TOWNNAME":"東區","LI":"大同里","LIN":"19鄰","STREET":"府連路","SECT":" ","MAREA":" ","LANE":"１８２巷","ALLEY":" ","HOUSE_NO":"２２號","E_COORD97":169263.67999999999,"N_COORD97":2542759.4100000001,"ADDRESS":"府連路１８２巷２２號","OBJECTID":359225},"geometry":{"x":169263.6799999997,"y":2542759.4100000001}},{"attributes":{"ID":359236,"DIS_CODE":0,"TOWNNAME":"東區","LI":"大同里","LIN":"19鄰","STREET":"府連路","SECT":" ","MAREA":" ","LANE":"１８２巷","ALLEY":" ","HOUSE_NO":"８號","E_COORD97":169246.70999999999,"N_COORD97":2542790.9900000002,"ADDRESS":"府連路１８２巷８號","OBJECTID":359226},"geometry":{"x":169246.71000000089,"y":2542790.9900000021}},{"attributes":{"ID":359237,"DIS_CODE":0,"TOWNNAME":"東區","LI":"大同里","LIN":"19鄰","STREET":"府連路","SECT":" ","MAREA":" ","LANE":"１８２巷","ALLEY":" ","HOUSE_NO":"２５號","E_COORD97":169303.48000000001,"N_COORD97":2542754.52,"ADDRESS":"府連路１８２巷２５號","OBJECTID":359227},"geometry":{"x":169303.48000000045,"y":2542754.5199999996}},{"attributes":{"ID":359238,"DIS_CODE":0,"TOWNNAME":"下營區","LI":"新興里","LIN":"19鄰","STREET":"中山路","SECT":"一段","MAREA":" ","LANE":"２７８巷","ALLEY":" ","HOUSE_NO":"１號","E_COORD97":174981.92999999999,"N_COORD97":2570711.0899999999,"ADDRESS":"中山路一段２７８巷１號","OBJECTID":359228},"geometry":{"x":174981.9299999997,"y":2570711.0899999999}},{"attributes":{"ID":359239,"DIS_CODE":0,"TOWNNAME":"下營區","LI":"新興里","LIN":"19鄰","STREET":"中山路","SECT":"一段","MAREA":" ","LANE":"２７８巷","ALLEY":" ","HOUSE_NO":"２號","E_COORD97":174987.48000000001,"N_COORD97":2570687.21,"ADDRESS":"中山路一段２７８巷２號","OBJECTID":359229},"geometry":{"x":174987.48000000045,"y":2570687.2100000028}},{"attributes":{"ID":359240,"DIS_CODE":0,"TOWNNAME":"下營區","LI":"新興里","LIN":"19鄰","STREET":"中山路","SECT":"一段","MAREA":" ","LANE":"３１２巷","ALLEY":" ","HOUSE_NO":"２號","E_COORD97":175058.82999999999,"N_COORD97":2570735.5,"ADDRESS":"中山路一段３１２巷２號","OBJECTID":359230},"geometry":{"x":175058.83000000101,"y":2570735.5}},{"attributes":{"ID":359241,"DIS_CODE":0,"TOWNNAME":"下營區","LI":"新興里","LIN":"19鄰","STREET":"中山路","SECT":"一段","MAREA":" ","LANE":"３１２巷","ALLEY":" ","HOUSE_NO":"６號","E_COORD97":175083.32000000001,"N_COORD97":2570725.9900000002,"ADDRESS":"中山路一段３１２巷６號","OBJECTID":359231},"geometry":{"x":175083.3200000003,"y":2570725.9900000002}},{"attributes":{"ID":359242,"DIS_CODE":0,"TOWNNAME":"下營區","LI":"下營里","LIN":"19鄰","STREET":"中山路","SECT":"一段","MAREA":" ","LANE":"９巷","ALLEY":" ","HOUSE_NO":"１３號","E_COORD97":174388.76000000001,"N_COORD97":2570526.7200000002,"ADDRESS":"中山路一段９巷１３號","OBJECTID":359232},"geometry":{"x":174388.76000000071,"y":2570526.7200000025}},{"attributes":{"ID":359243,"DIS_CODE":0,"TOWNNAME":"下營區","LI":"下營里","LIN":"19鄰","STREET":"中山路","SECT":"一段","MAREA":" ","LANE":"９巷","ALLEY":" ","HOUSE_NO":"１號","E_COORD97":174396.66,"N_COORD97":2570500.6299999999,"ADDRESS":"中山路一段９巷１號","OBJECTID":359233},"geometry":{"x":174396.66000000108,"y":2570500.629999999}},{"attributes":{"ID":359244,"DIS_CODE":0,"TOWNNAME":"下營區","LI":"下營里","LIN":"19鄰","STREET":"中山路","SECT":"一段","MAREA":" ","LANE":"９巷","ALLEY":" ","HOUSE_NO":"３號","E_COORD97":174395.14000000001,"N_COORD97":2570506.8199999998,"ADDRESS":"中山路一段９巷３號","OBJECTID":359234},"geometry":{"x":174395.1400000006,"y":2570506.8200000003}},{"attributes":{"ID":359245,"DIS_CODE":0,"TOWNNAME":"下營區","LI":"下營里","LIN":"19鄰","STREET":"中山路","SECT":"一段","MAREA":" ","LANE":"９巷","ALLEY":" ","HOUSE_NO":"７號","E_COORD97":174392.35000000001,"N_COORD97":2570516.8799999999,"ADDRESS":"中山路一段９巷７號","OBJECTID":359235},"geometry":{"x":174392.34999999963,"y":2570516.8800000008}},{"attributes":{"ID":359246,"DIS_CODE":0,"TOWNNAME":"東區","LI":"後甲里","LIN":"25鄰","STREET":"中華東路","SECT":"一段","MAREA":" ","LANE":"２０７巷","ALLEY":" ","HOUSE_NO":"１７號","E_COORD97":171510.92999999999,"N_COORD97":2543414.98,"ADDRESS":"中華東路一段２０７巷１７號","OBJECTID":359236},"geometry":{"x":171510.93000000063,"y":2543414.9800000023}},{"attributes":{"ID":359247,"DIS_CODE":0,"TOWNNAME":"永康區","LI":"復興里","LIN":"25鄰","STREET":"復興路","SECT":" ","MAREA":" ","LANE":"４２９巷","ALLEY":" ","HOUSE_NO":"１１８號","E_COORD97":172294.85000000001,"N_COORD97":2543797.1600000001,"ADDRESS":"復興路４２９巷１１８號","OBJECTID":359237},"geometry":{"x":172294.85000000056,"y":2543797.160000002}},{"attributes":{"ID":359248,"DIS_CODE":0,"TOWNNAME":"歸仁區","LI":"大廟里","LIN":"18鄰","STREET":"保大路","SECT":"三段","MAREA":" ","LANE":"２７２巷","ALLEY":" ","HOUSE_NO":"６號","E_COORD97":175809.47,"N_COORD97":2544342.2799999998,"ADDRESS":"保大路三段２７２巷６號","OBJECTID":359238},"geometry":{"x":175809.4700000016,"y":2544342.2799999993}},{"attributes":{"ID":359249,"DIS_CODE":0,"TOWNNAME":"安南區","LI":"安慶里","LIN":"25鄰","STREET":"安中路","SECT":"一段","MAREA":" ","LANE":"２０３巷","ALLEY":" ","HOUSE_NO":"２６號","E_COORD97":168718.01999999999,"N_COORD97":2548406.1699999999,"ADDRESS":"安中路一段２０３巷２６號","OBJECTID":359239},"geometry":{"x":168718.02000000048,"y":2548406.1699999999}},{"attributes":{"ID":359250,"DIS_CODE":0,"TOWNNAME":"安南區","LI":"溪頂里","LIN":"25鄰","STREET":"郡安路","SECT":"四段","MAREA":" ","LANE":"１２０巷","ALLEY":" ","HOUSE_NO":"２８號","E_COORD97":168855.03,"N_COORD97":2547526.1400000001,"ADDRESS":"郡安路四段１２０巷２８號","OBJECTID":359240},"geometry":{"x":168855.03000000026,"y":2547526.1400000043}},{"attributes":{"ID":359251,"DIS_CODE":0,"TOWNNAME":"下營區","LI":"營前里","LIN":"19鄰","STREET":"中山路","SECT":"二段","MAREA":" ","LANE":"２５９巷","ALLEY":" ","HOUSE_NO":"５１號","E_COORD97":175023.26999999999,"N_COORD97":2569850.6600000001,"ADDRESS":"中山路二段２５９巷５１號","OBJECTID":359241},"geometry":{"x":175023.26999999955,"y":2569850.6600000001}},{"attributes":{"ID":359252,"DIS_CODE":0,"TOWNNAME":"永康區","LI":"安康里","LIN":"19鄰","STREET":"中華西街","SECT":" ","MAREA":" ","LANE":"１０４巷","ALLEY":" ","HOUSE_NO":"３１號","E_COORD97":170808.20000000001,"N_COORD97":2546155.4900000002,"ADDRESS":"中華西街１０４巷３１號","OBJECTID":359242},"geometry":{"x":170808.20000000112,"y":2546155.4900000002}},{"attributes":{"ID":359253,"DIS_CODE":0,"TOWNNAME":"佳里區","LI":"安西里","LIN":"19鄰","STREET":"光華街","SECT":" ","MAREA":" ","LANE":"２２巷","ALLEY":" ","HOUSE_NO":"１０號","E_COORD97":165440.89000000001,"N_COORD97":2562833.3700000001,"ADDRESS":"光華街２２巷１０號","OBJECTID":359243},"geometry":{"x":165440.8900000006,"y":2562833.3700000029}},{"attributes":{"ID":359254,"DIS_CODE":0,"TOWNNAME":"佳里區","LI":"安西里","LIN":"19鄰","STREET":"光華街","SECT":" ","MAREA":" ","LANE":"２２巷","ALLEY":" ","HOUSE_NO":"１２號","E_COORD97":165439.35000000001,"N_COORD97":2562838.5899999999,"ADDRESS":"光華街２２巷１２號","OBJECTID":359244},"geometry":{"x":165439.35000000056,"y":2562838.5899999999}},{"attributes":{"ID":359255,"DIS_CODE":0,"TOWNNAME":"佳里區","LI":"安西里","LIN":"19鄰","STREET":"光華街","SECT":" ","MAREA":" ","LANE":"２２巷","ALLEY":" ","HOUSE_NO":"１４號","E_COORD97":165438,"N_COORD97":2562843.5,"ADDRESS":"光華街２２巷１４號","OBJECTID":359245},"geometry":{"x":165438,"y":2562843.5}},{"attributes":{"ID":359256,"DIS_CODE":0,"TOWNNAME":"佳里區","LI":"安西里","LIN":"19鄰","STREET":"光華街","SECT":" ","MAREA":" ","LANE":"２２巷","ALLEY":" ","HOUSE_NO":"１６號","E_COORD97":165436.51999999999,"N_COORD97":2562847.3999999999,"ADDRESS":"光華街２２巷１６號","OBJECTID":359246},"geometry":{"x":165436.52000000048,"y":2562847.4000000004}},{"attributes":{"ID":359257,"DIS_CODE":0,"TOWNNAME":"佳里區","LI":"安西里","LIN":"19鄰","STREET":"光華街","SECT":" ","MAREA":" ","LANE":"２２巷","ALLEY":" ","HOUSE_NO":"１８號","E_COORD97":165436.44,"N_COORD97":2562853.75,"ADDRESS":"光華街２２巷１８號","OBJECTID":359247},"geometry":{"x":165436.44000000134,"y":2562853.7500000019}},{"attributes":{"ID":359258,"DIS_CODE":0,"TOWNNAME":"佳里區","LI":"安西里","LIN":"19鄰","STREET":"光華街","SECT":" ","MAREA":" ","LANE":"２２巷","ALLEY":" ","HOUSE_NO":"２０號","E_COORD97":165433.87,"N_COORD97":2562857.3700000001,"ADDRESS":"光華街２２巷２０號","OBJECTID":359248},"geometry":{"x":165433.87000000011,"y":2562857.3700000029}},{"attributes":{"ID":359259,"DIS_CODE":0,"TOWNNAME":"東區","LI":"崇信里","LIN":"8鄰","STREET":"中華東路","SECT":"三段","MAREA":" ","LANE":" ","ALLEY":" ","HOUSE_NO":"６８號七樓之１","E_COORD97":170834.63,"N_COORD97":2542241.3199999998,"ADDRESS":"中華東路三段６８號七樓之１","OBJECTID":359249},"geometry":{"x":170834.62999999896,"y":2542241.3200000003}},{"attributes":{"ID":359260,"DIS_CODE":0,"TOWNNAME":"東區","LI":"崇信里","LIN":"8鄰","STREET":"中華東路","SECT":"三段","MAREA":" ","LANE":" ","ALLEY":" ","HOUSE_NO":"６８號九樓","E_COORD97":170834.63,"N_COORD97":2542241.3199999998,"ADDRESS":"中華東路三段６８號九樓","OBJECTID":359250},"geometry":{"x":170834.62999999896,"y":2542241.3200000003}},{"attributes":{"ID":359261,"DIS_CODE":0,"TOWNNAME":"東區","LI":"崇信里","LIN":"8鄰","STREET":"中華東路","SECT":"三段","MAREA":" ","LANE":" ","ALLEY":" ","HOUSE_NO":"６８號九樓之１","E_COORD97":170834.63,"N_COORD97":2542241.3199999998,"ADDRESS":"中華東路三段６８號九樓之１","OBJECTID":359251},"geometry":{"x":170834.62999999896,"y":2542241.3200000003}},{"attributes":{"ID":359262,"DIS_CODE":0,"TOWNNAME":"東區","LI":"崇信里","LIN":"8鄰","STREET":"中華東路","SECT":"三段","MAREA":" ","LANE":" ","ALLEY":" ","HOUSE_NO":"６８號八樓","E_COORD97":170834.63,"N_COORD97":2542241.3199999998,"ADDRESS":"中華東路三段６８號八樓","OBJECTID":359252},"geometry":{"x":170834.62999999896,"y":2542241.3200000003}},{"attributes":{"ID":359263,"DIS_CODE":0,"TOWNNAME":"東區","LI":"崇信里","LIN":"8鄰","STREET":"中華東路","SECT":"三段","MAREA":" ","LANE":" ","ALLEY":" ","HOUSE_NO":"６８號八樓之１","E_COORD97":170834.63,"N_COORD97":2542241.3199999998,"ADDRESS":"中華東路三段６８號八樓之１","OBJECTID":359253},"geometry":{"x":170834.62999999896,"y":2542241.3200000003}},{"attributes":{"ID":359264,"DIS_CODE":0,"TOWNNAME":"東區","LI":"崇信里","LIN":"8鄰","STREET":"中華東路","SECT":"三段","MAREA":" ","LANE":" ","ALLEY":" ","HOUSE_NO":"６８號十一樓","E_COORD97":170834.63,"N_COORD97":2542241.3199999998,"ADDRESS":"中華東路三段６８號十一樓","OBJECTID":359254},"geometry":{"x":170834.62999999896,"y":2542241.3200000003}},{"attributes":{"ID":359265,"DIS_CODE":0,"TOWNNAME":"東區","LI":"虎尾里","LIN":"25鄰","STREET":"富農街","SECT":"一段","MAREA":" ","LANE":"１８８巷","ALLEY":" ","HOUSE_NO":"４號","E_COORD97":171560.26999999999,"N_COORD97":2542471.3799999999,"ADDRESS":"富農街一段１８８巷４號","OBJECTID":359255},"geometry":{"x":171560.26999999955,"y":2542471.3800000027}},{"attributes":{"ID":359266,"DIS_CODE":0,"TOWNNAME":"永康區","LI":"復興里","LIN":"25鄰","STREET":"復興路","SECT":" ","MAREA":" ","LANE":"４２９巷","ALLEY":" ","HOUSE_NO":"１１６號","E_COORD97":172294.78,"N_COORD97":2543801.1600000001,"ADDRESS":"復興路４２９巷１１６號","OBJECTID":359256},"geometry":{"x":172294.78000000026,"y":2543801.160000002}},{"attributes":{"ID":359267,"DIS_CODE":0,"TOWNNAME":"安南區","LI":"海佃里","LIN":"25鄰","STREET":"國安街","SECT":" ","MAREA":" ","LANE":"１５６巷","ALLEY":" ","HOUSE_NO":"７６號","E_COORD97":166712.41,"N_COORD97":2547194.48,"ADDRESS":"國安街１５６巷７６號","OBJECTID":359257},"geometry":{"x":166712.41000000108,"y":2547194.4800000004}},{"attributes":{"ID":359268,"DIS_CODE":0,"TOWNNAME":"安南區","LI":"海佃里","LIN":"25鄰","STREET":"國安街","SECT":" ","MAREA":" ","LANE":"１５６巷","ALLEY":" ","HOUSE_NO":"８０號","E_COORD97":166711.75,"N_COORD97":2547203.7799999998,"ADDRESS":"國安街１５６巷８０號","OBJECTID":359258},"geometry":{"x":166711.75000000093,"y":2547203.7799999993}},{"attributes":{"ID":359269,"DIS_CODE":0,"TOWNNAME":"安南區","LI":"海佃里","LIN":"25鄰","STREET":"國安街","SECT":" ","MAREA":" ","LANE":"１５６巷","ALLEY":" ","HOUSE_NO":"８２號","E_COORD97":166711.07999999999,"N_COORD97":2547208.4300000002,"ADDRESS":"國安街１５６巷８２號","OBJECTID":359259},"geometry":{"x":166711.08000000101,"y":2547208.4300000016}},{"attributes":{"ID":359270,"DIS_CODE":0,"TOWNNAME":"安南區","LI":"海佃里","LIN":"25鄰","STREET":"國安街","SECT":" ","MAREA":" ","LANE":"１５６巷","ALLEY":" ","HOUSE_NO":"８６號","E_COORD97":166707.76000000001,"N_COORD97":2547218.3900000001,"ADDRESS":"國安街１５６巷８６號","OBJECTID":359260},"geometry":{"x":166707.76000000164,"y":2547218.3900000006}},{"attributes":{"ID":359271,"DIS_CODE":0,"TOWNNAME":"安南區","LI":"海佃里","LIN":"25鄰","STREET":"國安街","SECT":" ","MAREA":" ","LANE":"１５６巷","ALLEY":" ","HOUSE_NO":"８８號","E_COORD97":166707.09,"N_COORD97":2547223.04,"ADDRESS":"國安街１５６巷８８號","OBJECTID":359261},"geometry":{"x":166707.08999999892,"y":2547223.0399999991}},{"attributes":{"ID":359272,"DIS_CODE":0,"TOWNNAME":"佳里區","LI":"安西里","LIN":"19鄰","STREET":"光華街","SECT":" ","MAREA":" ","LANE":"２２巷","ALLEY":" ","HOUSE_NO":"２２號","E_COORD97":165439.01999999999,"N_COORD97":2562866.3300000001,"ADDRESS":"光華街２２巷２２號","OBJECTID":359262},"geometry":{"x":165439.01999999955,"y":2562866.3300000019}},{"attributes":{"ID":359273,"DIS_CODE":0,"TOWNNAME":"佳里區","LI":"安西里","LIN":"19鄰","STREET":"光華街","SECT":" ","MAREA":" ","LANE":"２２巷","ALLEY":" ","HOUSE_NO":"２４號","E_COORD97":165436.84,"N_COORD97":2562869.6400000001,"ADDRESS":"光華街２２巷２４號","OBJECTID":359263},"geometry":{"x":165436.83999999985,"y":2562869.6400000006}},{"attributes":{"ID":359274,"DIS_CODE":0,"TOWNNAME":"佳里區","LI":"安西里","LIN":"19鄰","STREET":"光華街","SECT":" ","MAREA":" ","LANE":"２２巷","ALLEY":" ","HOUSE_NO":"２６號","E_COORD97":165429.91,"N_COORD97":2562870.2999999998,"ADDRESS":"光華街２２巷２６號","OBJECTID":359264},"geometry":{"x":165429.91000000015,"y":2562870.3000000045}},{"attributes":{"ID":359275,"DIS_CODE":0,"TOWNNAME":"佳里區","LI":"安西里","LIN":"19鄰","STREET":"光華街","SECT":" ","MAREA":" ","LANE":"２２巷","ALLEY":" ","HOUSE_NO":"２８號","E_COORD97":165422.48000000001,"N_COORD97":2562870.1899999999,"ADDRESS":"光華街２２巷２８號","OBJECTID":359265},"geometry":{"x":165422.48000000138,"y":2562870.1900000013}},{"attributes":{"ID":359276,"DIS_CODE":0,"TOWNNAME":"佳里區","LI":"安西里","LIN":"19鄰","STREET":"光華街","SECT":" ","MAREA":" ","LANE":"２２巷","ALLEY":" ","HOUSE_NO":"６號","E_COORD97":165443.42000000001,"N_COORD97":2562821.7400000002,"ADDRESS":"光華街２２巷６號","OBJECTID":359266},"geometry":{"x":165443.41999999993,"y":2562821.7400000002}},{"attributes":{"ID":359277,"DIS_CODE":0,"TOWNNAME":"佳里區","LI":"安西里","LIN":"19鄰","STREET":"光華街","SECT":" ","MAREA":" ","LANE":"２２巷","ALLEY":" ","HOUSE_NO":"８號","E_COORD97":165441.95999999999,"N_COORD97":2562827.8300000001,"ADDRESS":"光華街２２巷８號","OBJECTID":359267},"geometry":{"x":165441.96000000183,"y":2562827.8300000001}},{"attributes":{"ID":359278,"DIS_CODE":0,"TOWNNAME":"佳里區","LI":"安西里","LIN":"19鄰","STREET":"光華街","SECT":" ","MAREA":" ","LANE":"４０巷","ALLEY":" ","HOUSE_NO":"１０號","E_COORD97":165394.98999999999,"N_COORD97":2562838.3399999999,"ADDRESS":"光華街４０巷１０號","OBJECTID":359268},"geometry":{"x":165394.99000000115,"y":2562838.3400000036}},{"attributes":{"ID":359279,"DIS_CODE":0,"TOWNNAME":"佳里區","LI":"安西里","LIN":"19鄰","STREET":"光華街","SECT":" ","MAREA":" ","LANE":"４０巷","ALLEY":" ","HOUSE_NO":"２號之１","E_COORD97":165396.5,"N_COORD97":2562826.1699999999,"ADDRESS":"光華街４０巷２號之１","OBJECTID":359269},"geometry":{"x":165396.50000000093,"y":2562826.1700000037}},{"attributes":{"ID":359280,"DIS_CODE":0,"TOWNNAME":"佳里區","LI":"安西里","LIN":"19鄰","STREET":"光華街","SECT":" ","MAREA":" ","LANE":"４０巷","ALLEY":" ","HOUSE_NO":"２號","E_COORD97":165397.42000000001,"N_COORD97":2562822,"ADDRESS":"光華街４０巷２號","OBJECTID":359270},"geometry":{"x":165397.41999999993,"y":2562822.0000000019}},{"attributes":{"ID":359281,"DIS_CODE":0,"TOWNNAME":"佳里區","LI":"安西里","LIN":"19鄰","STREET":"光華街","SECT":" ","MAREA":" ","LANE":"４０巷","ALLEY":" ","HOUSE_NO":"６號","E_COORD97":165396.16,"N_COORD97":2562829.77,"ADDRESS":"光華街４０巷６號","OBJECTID":359271},"geometry":{"x":165396.16000000015,"y":2562829.7700000014}},{"attributes":{"ID":359282,"DIS_CODE":0,"TOWNNAME":"佳里區","LI":"安西里","LIN":"19鄰","STREET":"光華街","SECT":" ","MAREA":" ","LANE":"４０巷","ALLEY":" ","HOUSE_NO":"８號","E_COORD97":165395.10000000001,"N_COORD97":2562833.7799999998,"ADDRESS":"光華街４０巷８號","OBJECTID":359272},"geometry":{"x":165395.10000000056,"y":2562833.7799999993}},{"attributes":{"ID":359283,"DIS_CODE":0,"TOWNNAME":"南區","LI":"明德里","LIN":" ","STREET":"興中街","SECT":" ","MAREA":" ","LANE":"７７巷","ALLEY":" ","HOUSE_NO":"３４之１號","E_COORD97":168094.70000000001,"N_COORD97":2541818.77,"ADDRESS":"興中街７７巷３４之１號","OBJECTID":359273},"geometry":{"x":168094.70000000019,"y":2541818.7700000014}},{"attributes":{"ID":359284,"DIS_CODE":0,"TOWNNAME":"佳里區","LI":"安西里","LIN":"19鄰","STREET":"光華街","SECT":" ","MAREA":" ","LANE":"８巷","ALLEY":" ","HOUSE_NO":"１號","E_COORD97":165466.64999999999,"N_COORD97":2562821.1800000002,"ADDRESS":"光華街８巷１號","OBJECTID":359274},"geometry":{"x":165466.6500000013,"y":2562821.1799999997}},{"attributes":{"ID":359285,"DIS_CODE":0,"TOWNNAME":"佳里區","LI":"安西里","LIN":"19鄰","STREET":"光華街","SECT":" ","MAREA":" ","LANE":"８巷","ALLEY":" ","HOUSE_NO":"２號","E_COORD97":165479.81,"N_COORD97":2562820.2799999998,"ADDRESS":"光華街８巷２號","OBJECTID":359275},"geometry":{"x":165479.81000000145,"y":2562820.2799999993}},{"attributes":{"ID":359286,"DIS_CODE":0,"TOWNNAME":"安南區","LI":"安富里","LIN":"19鄰","STREET":"安富街","SECT":" ","MAREA":" ","LANE":"２４５巷","ALLEY":" ","HOUSE_NO":"１４號","E_COORD97":167571.17999999999,"N_COORD97":2547414.1000000001,"ADDRESS":"安富街２４５巷１４號","OBJECTID":359276},"geometry":{"x":167571.18000000063,"y":2547414.1000000015}},{"attributes":{"ID":359287,"DIS_CODE":0,"TOWNNAME":"安南區","LI":"安富里","LIN":"19鄰","STREET":"安富街","SECT":" ","MAREA":" ","LANE":"２４５巷","ALLEY":" ","HOUSE_NO":"１２號","E_COORD97":167570.03,"N_COORD97":2547418.1600000001,"ADDRESS":"安富街２４５巷１２號","OBJECTID":359277},"geometry":{"x":167570.03000000119,"y":2547418.160000002}},{"attributes":{"ID":359288,"DIS_CODE":0,"TOWNNAME":"安南區","LI":"安富里","LIN":"19鄰","STREET":"安富街","SECT":" ","MAREA":" ","LANE":"２４５巷","ALLEY":" ","HOUSE_NO":"１０號","E_COORD97":167568.51000000001,"N_COORD97":2547422.8599999999,"ADDRESS":"安富街２４５巷１０號","OBJECTID":359278},"geometry":{"x":167568.50999999978,"y":2547422.8600000013}},{"attributes":{"ID":359289,"DIS_CODE":0,"TOWNNAME":"安南區","LI":"安富里","LIN":"19鄰","STREET":"安富街","SECT":" ","MAREA":" ","LANE":"２４５巷","ALLEY":" ","HOUSE_NO":"８號","E_COORD97":167567.37,"N_COORD97":2547427.0499999998,"ADDRESS":"安富街２４５巷８號","OBJECTID":359279},"geometry":{"x":167567.37000000104,"y":2547427.0500000007}},{"attributes":{"ID":359290,"DIS_CODE":0,"TOWNNAME":"東區","LI":"崇信里","LIN":"8鄰","STREET":"中華東路","SECT":"三段","MAREA":" ","LANE":" ","ALLEY":" ","HOUSE_NO":"６８號十一樓之１","E_COORD97":170834.63,"N_COORD97":2542241.3199999998,"ADDRESS":"中華東路三段６８號十一樓之１","OBJECTID":359280},"geometry":{"x":170834.62999999896,"y":2542241.3200000003}},{"attributes":{"ID":359291,"DIS_CODE":0,"TOWNNAME":"東區","LI":"崇信里","LIN":"8鄰","STREET":"中華東路","SECT":"三段","MAREA":" ","LANE":" ","ALLEY":" ","HOUSE_NO":"６８號十七樓","E_COORD97":170834.63,"N_COORD97":2542241.3199999998,"ADDRESS":"中華東路三段６８號十七樓","OBJECTID":359281},"geometry":{"x":170834.62999999896,"y":2542241.3200000003}},{"attributes":{"ID":359292,"DIS_CODE":0,"TOWNNAME":"東區","LI":"崇信里","LIN":"8鄰","STREET":"中華東路","SECT":"三段","MAREA":" ","LANE":" ","ALLEY":" ","HOUSE_NO":"６８號十七樓之１","E_COORD97":170834.63,"N_COORD97":2542241.3199999998,"ADDRESS":"中華東路三段６８號十七樓之１","OBJECTID":359282},"geometry":{"x":170834.62999999896,"y":2542241.3200000003}},{"attributes":{"ID":359293,"DIS_CODE":0,"TOWNNAME":"東區","LI":"崇信里","LIN":"8鄰","STREET":"中華東路","SECT":"三段","MAREA":" ","LANE":" ","ALLEY":" ","HOUSE_NO":"６８號十二樓","E_COORD97":170834.63,"N_COORD97":2542241.3199999998,"ADDRESS":"中華東路三段６８號十二樓","OBJECTID":359283},"geometry":{"x":170834.62999999896,"y":2542241.3200000003}},{"attributes":{"ID":359294,"DIS_CODE":0,"TOWNNAME":"東區","LI":"崇信里","LIN":"8鄰","STREET":"中華東路","SECT":"三段","MAREA":" ","LANE":" ","ALLEY":" ","HOUSE_NO":"６８號十二樓之１","E_COORD97":170834.63,"N_COORD97":2542241.3199999998,"ADDRESS":"中華東路三段６８號十二樓之１","OBJECTID":359284},"geometry":{"x":170834.62999999896,"y":2542241.3200000003}},{"attributes":{"ID":359295,"DIS_CODE":0,"TOWNNAME":"東區","LI":"崇信里","LIN":"8鄰","STREET":"中華東路","SECT":"三段","MAREA":" ","LANE":" ","ALLEY":" ","HOUSE_NO":"６８號十八樓","E_COORD97":170834.63,"N_COORD97":2542241.3199999998,"ADDRESS":"中華東路三段６８號十八樓","OBJECTID":359285},"geometry":{"x":170834.62999999896,"y":2542241.3200000003}},{"attributes":{"ID":359296,"DIS_CODE":0,"TOWNNAME":"安南區","LI":"安東里","LIN":"8鄰","STREET":"安和路","SECT":"一段","MAREA":" ","LANE":" ","ALLEY":" ","HOUSE_NO":"２５４號","E_COORD97":169321.04999999999,"N_COORD97":2547989.0800000001,"ADDRESS":"安和路一段２５４號","OBJECTID":359286},"geometry":{"x":169321.04999999981,"y":2547989.0800000001}},{"attributes":{"ID":359297,"DIS_CODE":0,"TOWNNAME":"安南區","LI":"海佃里","LIN":"25鄰","STREET":"國安街","SECT":" ","MAREA":" ","LANE":"１５６巷","ALLEY":" ","HOUSE_NO":"９０號","E_COORD97":166706.42999999999,"N_COORD97":2547227.0299999998,"ADDRESS":"國安街１５６巷９０號","OBJECTID":359287},"geometry":{"x":166706.43000000156,"y":2547227.0299999975}},{"attributes":{"ID":359298,"DIS_CODE":0,"TOWNNAME":"安南區","LI":"海佃里","LIN":"25鄰","STREET":"國安街","SECT":" ","MAREA":" ","LANE":"１５６巷","ALLEY":" ","HOUSE_NO":"９２號","E_COORD97":166706.42999999999,"N_COORD97":2547231.6800000002,"ADDRESS":"國安街１５６巷９２號","OBJECTID":359288},"geometry":{"x":166706.43000000156,"y":2547231.6800000016}},{"attributes":{"ID":359299,"DIS_CODE":0,"TOWNNAME":"安南區","LI":"海佃里","LIN":"25鄰","STREET":"國安街","SECT":" ","MAREA":" ","LANE":"１５６巷","ALLEY":" ","HOUSE_NO":"９６號","E_COORD97":166705.10000000001,"N_COORD97":2547238.3199999998,"ADDRESS":"國安街１５６巷９６號","OBJECTID":359289},"geometry":{"x":166705.0999999987,"y":2547238.3200000003}},{"attributes":{"ID":359300,"DIS_CODE":0,"TOWNNAME":"安南區","LI":"海佃里","LIN":"25鄰","STREET":"國安街","SECT":" ","MAREA":" ","LANE":"１５６巷","ALLEY":" ","HOUSE_NO":"９８號","E_COORD97":166704.42999999999,"N_COORD97":2547242.9700000002,"ADDRESS":"國安街１５６巷９８號","OBJECTID":359290},"geometry":{"x":166704.4299999997,"y":2547242.9700000025}},{"attributes":{"ID":359301,"DIS_CODE":0,"TOWNNAME":"永康區","LI":"二王里","LIN":"25鄰","STREET":"中山南路","SECT":" ","MAREA":" ","LANE":"５４４巷","ALLEY":" ","HOUSE_NO":"７５號","E_COORD97":172337.59,"N_COORD97":2546314,"ADDRESS":"中山南路５４４巷７５號","OBJECTID":359291},"geometry":{"x":172337.59000000078,"y":2546314.0000000019}},{"attributes":{"ID":359302,"DIS_CODE":0,"TOWNNAME":"永康區","LI":"二王里","LIN":"25鄰","STREET":"中山南路","SECT":" ","MAREA":" ","LANE":"５４４巷","ALLEY":" ","HOUSE_NO":"７３號","E_COORD97":172338.04999999999,"N_COORD97":2546319,"ADDRESS":"中山南路５４４巷７３號","OBJECTID":359292},"geometry":{"x":172338.04999999981,"y":2546319}},{"attributes":{"ID":359303,"DIS_CODE":0,"TOWNNAME":"永康區","LI":"二王里","LIN":"25鄰","STREET":"中山南路","SECT":" ","MAREA":" ","LANE":"５４４巷","ALLEY":" ","HOUSE_NO":"９１號","E_COORD97":172333.51000000001,"N_COORD97":2546268.7400000002,"ADDRESS":"中山南路５４４巷９１號","OBJECTID":359293},"geometry":{"x":172333.50999999978,"y":2546268.7400000021}},{"attributes":{"ID":359304,"DIS_CODE":0,"TOWNNAME":"永康區","LI":"二王里","LIN":"25鄰","STREET":"中山南路","SECT":" ","MAREA":" ","LANE":"５４４巷","ALLEY":" ","HOUSE_NO":"９９號","E_COORD97":172332.35999999999,"N_COORD97":2546248.9900000002,"ADDRESS":"中山南路５４４巷９９號","OBJECTID":359294},"geometry":{"x":172332.36000000127,"y":2546248.9900000021}},{"attributes":{"ID":359305,"DIS_CODE":0,"TOWNNAME":"東區","LI":"崇德里","LIN":"25鄰","STREET":"崇道路","SECT":" ","MAREA":" ","LANE":"１９巷","ALLEY":" ","HOUSE_NO":"１１號","E_COORD97":170611.63,"N_COORD97":2541440.3199999998,"ADDRESS":"崇道路１９巷１１號","OBJECTID":359295},"geometry":{"x":170611.63000000082,"y":2541440.3200000022}},{"attributes":{"ID":359306,"DIS_CODE":0,"TOWNNAME":"東區","LI":"崇德里","LIN":"25鄰","STREET":"崇道路","SECT":" ","MAREA":" ","LANE":"１９巷","ALLEY":" ","HOUSE_NO":"１３號","E_COORD97":170608.67000000001,"N_COORD97":2541442.8599999999,"ADDRESS":"崇道路１９巷１３號","OBJECTID":359296},"geometry":{"x":170608.66999999993,"y":2541442.8599999994}},{"attributes":{"ID":359307,"DIS_CODE":0,"TOWNNAME":"安南區","LI":"溪心里","LIN":"19鄰","STREET":"海中街","SECT":" ","MAREA":" ","LANE":"７７４巷","ALLEY":" ","HOUSE_NO":"１９號","E_COORD97":165950.95999999999,"N_COORD97":2549912.3199999998,"ADDRESS":"海中街７７４巷１９號","OBJECTID":359297},"geometry":{"x":165950.96000000089,"y":2549912.3200000022}},{"attributes":{"ID":359308,"DIS_CODE":0,"TOWNNAME":"安南區","LI":"溪心里","LIN":"19鄰","STREET":"海中街","SECT":" ","MAREA":" ","LANE":"７７４巷","ALLEY":" ","HOUSE_NO":"１７號","E_COORD97":165945.88,"N_COORD97":2549912.4500000002,"ADDRESS":"海中街７７４巷１７號","OBJECTID":359298},"geometry":{"x":165945.88000000175,"y":2549912.4499999993}},{"attributes":{"ID":359309,"DIS_CODE":0,"TOWNNAME":"東區","LI":"復興里","LIN":"19鄰","STREET":"自由路","SECT":"三段","MAREA":" ","LANE":" ","ALLEY":" ","HOUSE_NO":"１５７號","E_COORD97":171790.84,"N_COORD97":2542415.8799999999,"ADDRESS":"自由路三段１５７號","OBJECTID":359299},"geometry":{"x":171790.83999999985,"y":2542415.879999999}},{"attributes":{"ID":359310,"DIS_CODE":0,"TOWNNAME":"東區","LI":"復興里","LIN":"19鄰","STREET":"自由路","SECT":"三段","MAREA":" ","LANE":" ","ALLEY":" ","HOUSE_NO":"１５９號","E_COORD97":171790.44,"N_COORD97":2542421.0499999998,"ADDRESS":"自由路三段１５９號","OBJECTID":359300},"geometry":{"x":171790.44000000041,"y":2542421.0500000045}},{"attributes":{"ID":359311,"DIS_CODE":0,"TOWNNAME":"東區","LI":"復興里","LIN":"19鄰","STREET":"自由路","SECT":"三段","MAREA":" ","LANE":" ","ALLEY":" ","HOUSE_NO":"１７７號","E_COORD97":171782.75,"N_COORD97":2542460.46,"ADDRESS":"自由路三段１７７號","OBJECTID":359301},"geometry":{"x":171782.75,"y":2542460.4600000028}},{"attributes":{"ID":359312,"DIS_CODE":0,"TOWNNAME":"東區","LI":"復興里","LIN":"19鄰","STREET":"自由路","SECT":"三段","MAREA":" ","LANE":" ","ALLEY":" ","HOUSE_NO":"１７９號","E_COORD97":171781.87,"N_COORD97":2542464.6099999999,"ADDRESS":"自由路三段１７９號","OBJECTID":359302},"geometry":{"x":171781.87000000011,"y":2542464.6100000013}},{"attributes":{"ID":359313,"DIS_CODE":0,"TOWNNAME":"東區","LI":"復興里","LIN":"19鄰","STREET":"自由路","SECT":"三段","MAREA":" ","LANE":" ","ALLEY":" ","HOUSE_NO":"１８１號","E_COORD97":171780.98999999999,"N_COORD97":2542468.6400000001,"ADDRESS":"自由路三段１８１號","OBJECTID":359303},"geometry":{"x":171780.99000000115,"y":2542468.6400000025}},{"attributes":{"ID":359314,"DIS_CODE":0,"TOWNNAME":"東區","LI":"復興里","LIN":"19鄰","STREET":"自由路","SECT":"三段","MAREA":" ","LANE":" ","ALLEY":" ","HOUSE_NO":"１８３號","E_COORD97":171779.92000000001,"N_COORD97":2542472.79,"ADDRESS":"自由路三段１８３號","OBJECTID":359304},"geometry":{"x":171779.91999999993,"y":2542472.790000001}},{"attributes":{"ID":359315,"DIS_CODE":0,"TOWNNAME":"東區","LI":"崇信里","LIN":"8鄰","STREET":"中華東路","SECT":"三段","MAREA":" ","LANE":" ","ALLEY":" ","HOUSE_NO":"６８號十八樓之１","E_COORD97":170834.63,"N_COORD97":2542241.3199999998,"ADDRESS":"中華東路三段６８號十八樓之１","OBJECTID":359305},"geometry":{"x":170834.62999999896,"y":2542241.3200000003}},{"attributes":{"ID":359316,"DIS_CODE":0,"TOWNNAME":"東區","LI":"崇信里","LIN":"8鄰","STREET":"中華東路","SECT":"三段","MAREA":" ","LANE":" ","ALLEY":" ","HOUSE_NO":"６８號十三樓","E_COORD97":170834.63,"N_COORD97":2542241.3199999998,"ADDRESS":"中華東路三段６８號十三樓","OBJECTID":359306},"geometry":{"x":170834.62999999896,"y":2542241.3200000003}},{"attributes":{"ID":359317,"DIS_CODE":0,"TOWNNAME":"東區","LI":"崇信里","LIN":"8鄰","STREET":"中華東路","SECT":"三段","MAREA":" ","LANE":" ","ALLEY":" ","HOUSE_NO":"６８號十三樓之１","E_COORD97":170834.63,"N_COORD97":2542241.3199999998,"ADDRESS":"中華東路三段６８號十三樓之１","OBJECTID":359307},"geometry":{"x":170834.62999999896,"y":2542241.3200000003}},{"attributes":{"ID":359318,"DIS_CODE":0,"TOWNNAME":"東區","LI":"崇信里","LIN":"8鄰","STREET":"中華東路","SECT":"三段","MAREA":" ","LANE":" ","ALLEY":" ","HOUSE_NO":"６８號十五樓","E_COORD97":170834.63,"N_COORD97":2542241.3199999998,"ADDRESS":"中華東路三段６８號十五樓","OBJECTID":359308},"geometry":{"x":170834.62999999896,"y":2542241.3200000003}},{"attributes":{"ID":359319,"DIS_CODE":0,"TOWNNAME":"東區","LI":"崇信里","LIN":"8鄰","STREET":"中華東路","SECT":"三段","MAREA":" ","LANE":" ","ALLEY":" ","HOUSE_NO":"６８號十五樓之１","E_COORD97":170834.63,"N_COORD97":2542241.3199999998,"ADDRESS":"中華東路三段６８號十五樓之１","OBJECTID":359309},"geometry":{"x":170834.62999999896,"y":2542241.3200000003}},{"attributes":{"ID":359320,"DIS_CODE":0,"TOWNNAME":"東區","LI":"崇信里","LIN":"8鄰","STREET":"中華東路","SECT":"三段","MAREA":" ","LANE":" ","ALLEY":" ","HOUSE_NO":"６８號十六樓","E_COORD97":170834.63,"N_COORD97":2542241.3199999998,"ADDRESS":"中華東路三段６８號十六樓","OBJECTID":359310},"geometry":{"x":170834.62999999896,"y":2542241.3200000003}},{"attributes":{"ID":359321,"DIS_CODE":0,"TOWNNAME":"東區","LI":"崇信里","LIN":"8鄰","STREET":"中華東路","SECT":"三段","MAREA":" ","LANE":" ","ALLEY":" ","HOUSE_NO":"６８號十六樓之１","E_COORD97":170834.63,"N_COORD97":2542241.3199999998,"ADDRESS":"中華東路三段６８號十六樓之１","OBJECTID":359311},"geometry":{"x":170834.62999999896,"y":2542241.3200000003}},{"attributes":{"ID":359322,"DIS_CODE":0,"TOWNNAME":"東區","LI":"崇信里","LIN":"8鄰","STREET":"中華東路","SECT":"三段","MAREA":" ","LANE":" ","ALLEY":" ","HOUSE_NO":"６８號十四樓","E_COORD97":170834.63,"N_COORD97":2542241.3199999998,"ADDRESS":"中華東路三段６８號十四樓","OBJECTID":359312},"geometry":{"x":170834.62999999896,"y":2542241.3200000003}},{"attributes":{"ID":359323,"DIS_CODE":0,"TOWNNAME":"東區","LI":"崇信里","LIN":"8鄰","STREET":"中華東路","SECT":"三段","MAREA":" ","LANE":" ","ALLEY":" ","HOUSE_NO":"６８號十四樓之１","E_COORD97":170834.63,"N_COORD97":2542241.3199999998,"ADDRESS":"中華東路三段６８號十四樓之１","OBJECTID":359313},"geometry":{"x":170834.62999999896,"y":2542241.3200000003}},{"attributes":{"ID":359324,"DIS_CODE":0,"TOWNNAME":"東區","LI":"崇信里","LIN":"8鄰","STREET":"中華東路","SECT":"三段","MAREA":" ","LANE":" ","ALLEY":" ","HOUSE_NO":"６８號十樓","E_COORD97":170834.63,"N_COORD97":2542241.3199999998,"ADDRESS":"中華東路三段６８號十樓","OBJECTID":359314},"geometry":{"x":170834.62999999896,"y":2542241.3200000003}},{"attributes":{"ID":359325,"DIS_CODE":0,"TOWNNAME":"仁德區","LI":"仁德里","LIN":"25鄰","STREET":"淨修街","SECT":" ","MAREA":" ","LANE":"１５７巷","ALLEY":" ","HOUSE_NO":"１９號","E_COORD97":171941.51999999999,"N_COORD97":2541323.75,"ADDRESS":"淨修街１５７巷１９號","OBJECTID":359315},"geometry":{"x":171941.51999999955,"y":2541323.7500000037}},{"attributes":{"ID":359326,"DIS_CODE":0,"TOWNNAME":"仁德區","LI":"仁德里","LIN":"25鄰","STREET":"淨修街","SECT":" ","MAREA":" ","LANE":"１５７巷","ALLEY":" ","HOUSE_NO":"３４號","E_COORD97":171974.14000000001,"N_COORD97":2541313,"ADDRESS":"淨修街１５７巷３４號","OBJECTID":359316},"geometry":{"x":171974.1400000006,"y":2541313.0000000019}},{"attributes":{"ID":359327,"DIS_CODE":0,"TOWNNAME":"仁德區","LI":"仁德里","LIN":"25鄰","STREET":"淨修街","SECT":" ","MAREA":" ","LANE":"１５７巷","ALLEY":" ","HOUSE_NO":"２０號","E_COORD97":171942.88,"N_COORD97":2541307.75,"ADDRESS":"淨修街１５７巷２０號","OBJECTID":359317},"geometry":{"x":171942.87999999989,"y":2541307.7500000019}},{"attributes":{"ID":359328,"DIS_CODE":0,"TOWNNAME":"仁德區","LI":"仁德里","LIN":"25鄰","STREET":"淨修街","SECT":" ","MAREA":" ","LANE":"１７５巷","ALLEY":" ","HOUSE_NO":"２２號","E_COORD97":171959.20999999999,"N_COORD97":2541258.9399999999,"ADDRESS":"淨修街１７５巷２２號","OBJECTID":359318},"geometry":{"x":171959.20999999996,"y":2541258.9400000013}},{"attributes":{"ID":359329,"DIS_CODE":0,"TOWNNAME":"仁德區","LI":"仁德里","LIN":"25鄰","STREET":"淨修街","SECT":" ","MAREA":" ","LANE":"１５７巷","ALLEY":" ","HOUSE_NO":"４０號","E_COORD97":171987.75,"N_COORD97":2541314.5,"ADDRESS":"淨修街１５７巷４０號","OBJECTID":359319},"geometry":{"x":171987.75,"y":2541314.5}},{"attributes":{"ID":359330,"DIS_CODE":0,"TOWNNAME":"仁德區","LI":"仁德里","LIN":"25鄰","STREET":"淨修街","SECT":" ","MAREA":" ","LANE":"１５７巷","ALLEY":" ","HOUSE_NO":"３８號","E_COORD97":171983.35000000001,"N_COORD97":2541314.25,"ADDRESS":"淨修街１５７巷３８號","OBJECTID":359320},"geometry":{"x":171983.34999999963,"y":2541314.2500000019}},{"attributes":{"ID":359331,"DIS_CODE":0,"TOWNNAME":"永康區","LI":"東橋里","LIN":"25鄰","STREET":"中正路","SECT":" ","MAREA":" ","LANE":"２６９巷","ALLEY":" ","HOUSE_NO":"３２號","E_COORD97":172783.37,"N_COORD97":2547942.3700000001,"ADDRESS":"中正路２６９巷３２號","OBJECTID":359321},"geometry":{"x":172783.37000000104,"y":2547942.3700000048}},{"attributes":{"ID":359332,"DIS_CODE":0,"TOWNNAME":"永康區","LI":"東橋里","LIN":"25鄰","STREET":"中正路","SECT":" ","MAREA":" ","LANE":"２６９巷","ALLEY":" ","HOUSE_NO":"３６號","E_COORD97":172798.20000000001,"N_COORD97":2547943.6000000001,"ADDRESS":"中正路２６９巷３６號","OBJECTID":359322},"geometry":{"x":172798.20000000112,"y":2547943.6000000015}},{"attributes":{"ID":359333,"DIS_CODE":0,"TOWNNAME":"永康區","LI":"東橋里","LIN":"25鄰","STREET":"中正路","SECT":" ","MAREA":" ","LANE":"２６９巷","ALLEY":" ","HOUSE_NO":"３８號","E_COORD97":172818.66,"N_COORD97":2547950.7999999998,"ADDRESS":"中正路２６９巷３８號","OBJECTID":359323},"geometry":{"x":172818.66000000108,"y":2547950.8000000007}},{"attributes":{"ID":359334,"DIS_CODE":0,"TOWNNAME":"東區","LI":"復興里","LIN":"19鄰","STREET":"自由路","SECT":"三段","MAREA":" ","LANE":" ","ALLEY":" ","HOUSE_NO":"１８５號","E_COORD97":171779.60000000001,"N_COORD97":2542476.6899999999,"ADDRESS":"自由路三段１８５號","OBJECTID":359324},"geometry":{"x":171779.60000000056,"y":2542476.6900000013}},{"attributes":{"ID":359335,"DIS_CODE":0,"TOWNNAME":"東區","LI":"復興里","LIN":"19鄰","STREET":"自由路","SECT":"三段","MAREA":" ","LANE":" ","ALLEY":" ","HOUSE_NO":"１８７號","E_COORD97":171779.16,"N_COORD97":2542481.4700000002,"ADDRESS":"自由路三段１８７號","OBJECTID":359325},"geometry":{"x":171779.16000000201,"y":2542481.4700000007}},{"attributes":{"ID":359336,"DIS_CODE":0,"TOWNNAME":"東區","LI":"復興里","LIN":"19鄰","STREET":"自由路","SECT":"三段","MAREA":" ","LANE":" ","ALLEY":" ","HOUSE_NO":"１８９號","E_COORD97":171778.60000000001,"N_COORD97":2542485.8100000001,"ADDRESS":"自由路三段１８９號","OBJECTID":359326},"geometry":{"x":171778.59999999963,"y":2542485.8100000005}},{"attributes":{"ID":359337,"DIS_CODE":0,"TOWNNAME":"東區","LI":"復興里","LIN":"19鄰","STREET":"自由路","SECT":"三段","MAREA":" ","LANE":" ","ALLEY":" ","HOUSE_NO":"１９１號","E_COORD97":171778.22,"N_COORD97":2542490.0899999999,"ADDRESS":"自由路三段１９１號","OBJECTID":359327},"geometry":{"x":171778.2200000016,"y":2542490.0899999999}},{"attributes":{"ID":359338,"DIS_CODE":0,"TOWNNAME":"東區","LI":"復興里","LIN":"19鄰","STREET":"自由路","SECT":"三段","MAREA":" ","LANE":" ","ALLEY":" ","HOUSE_NO":"１９３號","E_COORD97":171777.64999999999,"N_COORD97":2542494.4300000002,"ADDRESS":"自由路三段１９３號","OBJECTID":359328},"geometry":{"x":171777.65000000224,"y":2542494.4299999997}},{"attributes":{"ID":359339,"DIS_CODE":0,"TOWNNAME":"東區","LI":"復興里","LIN":"19鄰","STREET":"自由路","SECT":"三段","MAREA":" ","LANE":" ","ALLEY":" ","HOUSE_NO":"１９５號","E_COORD97":171777.53,"N_COORD97":2542498.77,"ADDRESS":"自由路三段１９５號","OBJECTID":359329},"geometry":{"x":171777.53000000026,"y":2542498.7699999996}},{"attributes":{"ID":359340,"DIS_CODE":0,"TOWNNAME":"東區","LI":"復興里","LIN":"19鄰","STREET":"自由路","SECT":"三段","MAREA":" ","LANE":" ","ALLEY":" ","HOUSE_NO":"１９７號","E_COORD97":171777.39999999999,"N_COORD97":2542503.4900000002,"ADDRESS":"自由路三段１９７號","OBJECTID":359330},"geometry":{"x":171777.40000000037,"y":2542503.4900000021}},{"attributes":{"ID":359341,"DIS_CODE":0,"TOWNNAME":"東區","LI":"崇信里","LIN":"8鄰","STREET":"中華東路","SECT":"三段","MAREA":" ","LANE":" ","ALLEY":" ","HOUSE_NO":"６８號十樓之１","E_COORD97":170834.63,"N_COORD97":2542241.3199999998,"ADDRESS":"中華東路三段６８號十樓之１","OBJECTID":359331},"geometry":{"x":170834.62999999896,"y":2542241.3200000003}},{"attributes":{"ID":359342,"DIS_CODE":0,"TOWNNAME":"東區","LI":"崇信里","LIN":"8鄰","STREET":"中華東路","SECT":"三段","MAREA":" ","LANE":" ","ALLEY":" ","HOUSE_NO":"６８號五樓","E_COORD97":170834.63,"N_COORD97":2542241.3199999998,"ADDRESS":"中華東路三段６８號五樓","OBJECTID":359332},"geometry":{"x":170834.62999999896,"y":2542241.3200000003}},{"attributes":{"ID":359343,"DIS_CODE":0,"TOWNNAME":"東區","LI":"崇信里","LIN":"8鄰","STREET":"中華東路","SECT":"三段","MAREA":" ","LANE":" ","ALLEY":" ","HOUSE_NO":"６８號五樓之１","E_COORD97":170834.63,"N_COORD97":2542241.3199999998,"ADDRESS":"中華東路三段６８號五樓之１","OBJECTID":359333},"geometry":{"x":170834.62999999896,"y":2542241.3200000003}},{"attributes":{"ID":359344,"DIS_CODE":0,"TOWNNAME":"東區","LI":"崇信里","LIN":"8鄰","STREET":"中華東路","SECT":"三段","MAREA":" ","LANE":" ","ALLEY":" ","HOUSE_NO":"６８號六樓","E_COORD97":170834.63,"N_COORD97":2542241.3199999998,"ADDRESS":"中華東路三段６８號六樓","OBJECTID":359334},"geometry":{"x":170834.62999999896,"y":2542241.3200000003}},{"attributes":{"ID":359345,"DIS_CODE":0,"TOWNNAME":"東區","LI":"崇信里","LIN":"8鄰","STREET":"中華東路","SECT":"三段","MAREA":" ","LANE":" ","ALLEY":" ","HOUSE_NO":"６８號六樓之１","E_COORD97":170834.63,"N_COORD97":2542241.3199999998,"ADDRESS":"中華東路三段６８號六樓之１","OBJECTID":359335},"geometry":{"x":170834.62999999896,"y":2542241.3200000003}},{"attributes":{"ID":359346,"DIS_CODE":0,"TOWNNAME":"東區","LI":"崇信里","LIN":"8鄰","STREET":"中華東路","SECT":"三段","MAREA":" ","LANE":" ","ALLEY":" ","HOUSE_NO":"６８號四樓","E_COORD97":170834.63,"N_COORD97":2542241.3199999998,"ADDRESS":"中華東路三段６８號四樓","OBJECTID":359336},"geometry":{"x":170834.62999999896,"y":2542241.3200000003}},{"attributes":{"ID":359347,"DIS_CODE":0,"TOWNNAME":"東區","LI":"崇信里","LIN":"8鄰","STREET":"中華東路","SECT":"三段","MAREA":" ","LANE":" ","ALLEY":" ","HOUSE_NO":"６８號四樓之１","E_COORD97":170834.63,"N_COORD97":2542241.3199999998,"ADDRESS":"中華東路三段６８號四樓之１","OBJECTID":359337},"geometry":{"x":170834.62999999896,"y":2542241.3200000003}},{"attributes":{"ID":359348,"DIS_CODE":0,"TOWNNAME":"東區","LI":"崇信里","LIN":"8鄰","STREET":"崇信街","SECT":" ","MAREA":" ","LANE":" ","ALLEY":" ","HOUSE_NO":"１３３號七樓","E_COORD97":170824.53,"N_COORD97":2542235.21,"ADDRESS":"崇信街１３３號七樓","OBJECTID":359338},"geometry":{"x":170824.53000000119,"y":2542235.2100000028}},{"attributes":{"ID":359349,"DIS_CODE":0,"TOWNNAME":"東區","LI":"崇信里","LIN":"8鄰","STREET":"崇信街","SECT":" ","MAREA":" ","LANE":" ","ALLEY":" ","HOUSE_NO":"１３３號七樓之１","E_COORD97":170824.53,"N_COORD97":2542235.21,"ADDRESS":"崇信街１３３號七樓之１","OBJECTID":359339},"geometry":{"x":170824.53000000119,"y":2542235.2100000028}},{"attributes":{"ID":359350,"DIS_CODE":0,"TOWNNAME":"官田區","LI":"渡頭里","LIN":"25鄰","STREET":" ","SECT":" ","MAREA":"渡子頭","LANE":" ","ALLEY":" ","HOUSE_NO":"２５６號","E_COORD97":182302.26999999999,"N_COORD97":2563579.7400000002,"ADDRESS":"渡子頭２５６號","OBJECTID":359340},"geometry":{"x":182302.26999999955,"y":2563579.7400000021}},{"attributes":{"ID":359351,"DIS_CODE":0,"TOWNNAME":"東區","LI":"復興里","LIN":"19鄰","STREET":"自由路","SECT":"三段","MAREA":" ","LANE":" ","ALLEY":" ","HOUSE_NO":"１９９號","E_COORD97":171777.29999999999,"N_COORD97":2542506.5499999998,"ADDRESS":"自由路三段１９９號","OBJECTID":359341},"geometry":{"x":171777.29999999981,"y":2542506.5500000026}},{"attributes":{"ID":359352,"DIS_CODE":0,"TOWNNAME":"東區","LI":"復興里","LIN":"19鄰","STREET":"自由路","SECT":"三段","MAREA":" ","LANE":" ","ALLEY":" ","HOUSE_NO":"２０１號","E_COORD97":171776.57999999999,"N_COORD97":2542512.9300000002,"ADDRESS":"自由路三段２０１號","OBJECTID":359342},"geometry":{"x":171776.58000000101,"y":2542512.9300000016}},{"attributes":{"ID":359353,"DIS_CODE":0,"TOWNNAME":"東區","LI":"復興里","LIN":"19鄰","STREET":"自由路","SECT":"三段","MAREA":" ","LANE":" ","ALLEY":" ","HOUSE_NO":"２０３號","E_COORD97":171779.73000000001,"N_COORD97":2542518.8399999999,"ADDRESS":"自由路三段２０３號","OBJECTID":359343},"geometry":{"x":171779.73000000138,"y":2542518.8399999999}},{"attributes":{"ID":359354,"DIS_CODE":0,"TOWNNAME":"東區","LI":"復興里","LIN":"19鄰","STREET":"自由路","SECT":"三段","MAREA":" ","LANE":" ","ALLEY":" ","HOUSE_NO":"２０５號","E_COORD97":171779.10000000001,"N_COORD97":2542523.1800000002,"ADDRESS":"自由路三段２０５號","OBJECTID":359344},"geometry":{"x":171779.10000000056,"y":2542523.1799999997}},{"attributes":{"ID":359355,"DIS_CODE":0,"TOWNNAME":"東區","LI":"復興里","LIN":"19鄰","STREET":"自由路","SECT":"三段","MAREA":" ","LANE":" ","ALLEY":" ","HOUSE_NO":"２０７號","E_COORD97":171778.72,"N_COORD97":2542527.02,"ADDRESS":"自由路三段２０７號","OBJECTID":359345},"geometry":{"x":171778.72000000067,"y":2542527.0199999996}},{"attributes":{"ID":359356,"DIS_CODE":0,"TOWNNAME":"東區","LI":"復興里","LIN":"19鄰","STREET":"自由路","SECT":"三段","MAREA":" ","LANE":" ","ALLEY":" ","HOUSE_NO":"２０９號","E_COORD97":171778.34,"N_COORD97":2542531.6099999999,"ADDRESS":"自由路三段２０９號","OBJECTID":359346},"geometry":{"x":171778.34000000078,"y":2542531.6100000013}},{"attributes":{"ID":359357,"DIS_CODE":0,"TOWNNAME":"東區","LI":"復興里","LIN":"19鄰","STREET":"自由路","SECT":"三段","MAREA":" ","LANE":" ","ALLEY":" ","HOUSE_NO":"２１１號","E_COORD97":171777.53,"N_COORD97":2542535.4500000002,"ADDRESS":"自由路三段２１１號","OBJECTID":359347},"geometry":{"x":171777.53000000026,"y":2542535.450000003}},{"attributes":{"ID":359358,"DIS_CODE":0,"TOWNNAME":"官田區","LI":"渡頭里","LIN":"25鄰","STREET":" ","SECT":" ","MAREA":"渡子頭","LANE":" ","ALLEY":" ","HOUSE_NO":"２８３號之８","E_COORD97":182222.85999999999,"N_COORD97":2563394.9700000002,"ADDRESS":"渡子頭２８３號之８","OBJECTID":359348},"geometry":{"x":182222.86000000034,"y":2563394.9700000025}},{"attributes":{"ID":359359,"DIS_CODE":0,"TOWNNAME":"東區","LI":"復興里","LIN":"19鄰","STREET":"自由路","SECT":"三段","MAREA":" ","LANE":" ","ALLEY":" ","HOUSE_NO":"２１３號","E_COORD97":171776.64999999999,"N_COORD97":2542540.1099999999,"ADDRESS":"自由路三段２１３號","OBJECTID":359349},"geometry":{"x":171776.6500000013,"y":2542540.1099999994}},{"attributes":{"ID":359360,"DIS_CODE":0,"TOWNNAME":"東區","LI":"大同里","LIN":"25鄰","STREET":"大同路","SECT":"一段","MAREA":" ","LANE":"２７５巷","ALLEY":" ","HOUSE_NO":"５５號","E_COORD97":169304.62,"N_COORD97":2542570.3799999999,"ADDRESS":"大同路一段２７５巷５５號","OBJECTID":359350},"geometry":{"x":169304.62000000104,"y":2542570.3800000008}},{"attributes":{"ID":359361,"DIS_CODE":0,"TOWNNAME":"東區","LI":"復興里","LIN":"19鄰","STREET":"自由路","SECT":"三段","MAREA":" ","LANE":"２１５巷","ALLEY":" ","HOUSE_NO":"１號","E_COORD97":171764.44,"N_COORD97":2542537.21,"ADDRESS":"自由路三段２１５巷１號","OBJECTID":359351},"geometry":{"x":171764.44000000134,"y":2542537.2100000009}},{"attributes":{"ID":359362,"DIS_CODE":0,"TOWNNAME":"東區","LI":"復興里","LIN":"19鄰","STREET":"自由路","SECT":"三段","MAREA":" ","LANE":"２１５巷","ALLEY":" ","HOUSE_NO":"３號","E_COORD97":171760.41,"N_COORD97":2542537.2799999998,"ADDRESS":"自由路三段２１５巷３號","OBJECTID":359352},"geometry":{"x":171760.41000000201,"y":2542537.2800000012}},{"attributes":{"ID":359363,"DIS_CODE":0,"TOWNNAME":"東區","LI":"復興里","LIN":"19鄰","STREET":"自由路","SECT":"三段","MAREA":" ","LANE":"２１５巷","ALLEY":" ","HOUSE_NO":"５號","E_COORD97":171753.92999999999,"N_COORD97":2542536.8999999999,"ADDRESS":"自由路三段２１５巷５號","OBJECTID":359353},"geometry":{"x":171753.9299999997,"y":2542536.9000000041}},{"attributes":{"ID":359364,"DIS_CODE":0,"TOWNNAME":"永康區","LI":"安康里","LIN":"19鄰","STREET":"中華西街","SECT":" ","MAREA":" ","LANE":"１２２巷","ALLEY":" ","HOUSE_NO":"４２號","E_COORD97":170809.32000000001,"N_COORD97":2546185.7400000002,"ADDRESS":"中華西街１２２巷４２號","OBJECTID":359354},"geometry":{"x":170809.32000000123,"y":2546185.7399999984}},{"attributes":{"ID":359365,"DIS_CODE":0,"TOWNNAME":"永康區","LI":"安康里","LIN":"19鄰","STREET":"中華西街","SECT":" ","MAREA":" ","LANE":"１２２巷","ALLEY":" ","HOUSE_NO":"２４號","E_COORD97":170775.20000000001,"N_COORD97":2546165.7400000002,"ADDRESS":"中華西街１２２巷２４號","OBJECTID":359355},"geometry":{"x":170775.19999999925,"y":2546165.7400000039}},{"attributes":{"ID":359366,"DIS_CODE":0,"TOWNNAME":"永康區","LI":"安康里","LIN":"19鄰","STREET":"中華西街","SECT":" ","MAREA":" ","LANE":"１２２巷","ALLEY":" ","HOUSE_NO":"６號","E_COORD97":170731.45999999999,"N_COORD97":2546144.5,"ADDRESS":"中華西街１２２巷６號","OBJECTID":359356},"geometry":{"x":170731.46000000089,"y":2546144.5000000019}},{"attributes":{"ID":359367,"DIS_CODE":0,"TOWNNAME":"永康區","LI":"安康里","LIN":"19鄰","STREET":"中華西街","SECT":" ","MAREA":" ","LANE":"１０４巷","ALLEY":" ","HOUSE_NO":"２１號之２","E_COORD97":170791.31,"N_COORD97":2546145.04,"ADDRESS":"中華西街１０４巷２１號之２","OBJECTID":359357},"geometry":{"x":170791.31000000052,"y":2546145.0399999991}},{"attributes":{"ID":359368,"DIS_CODE":0,"TOWNNAME":"永康區","LI":"安康里","LIN":"19鄰","STREET":"中華西街","SECT":" ","MAREA":" ","LANE":"１２２巷","ALLEY":" ","HOUSE_NO":"３２號","E_COORD97":170790.23999999999,"N_COORD97":2546174.7400000002,"ADDRESS":"中華西街１２２巷３２號","OBJECTID":359358},"geometry":{"x":170790.24000000209,"y":2546174.7400000002}},{"attributes":{"ID":359369,"DIS_CODE":0,"TOWNNAME":"永康區","LI":"安康里","LIN":"19鄰","STREET":"中華西街","SECT":" ","MAREA":" ","LANE":"１２２巷","ALLEY":" ","HOUSE_NO":"３６號","E_COORD97":170797.70000000001,"N_COORD97":2546179.4900000002,"ADDRESS":"中華西街１２２巷３６號","OBJECTID":359359},"geometry":{"x":170797.70000000112,"y":2546179.4900000002}},{"attributes":{"ID":359370,"DIS_CODE":0,"TOWNNAME":"永康區","LI":"安康里","LIN":"19鄰","STREET":"中華西街","SECT":" ","MAREA":" ","LANE":"１２２巷","ALLEY":" ","HOUSE_NO":"２６號","E_COORD97":170778.98999999999,"N_COORD97":2546168.2400000002,"ADDRESS":"中華西街１２２巷２６號","OBJECTID":359360},"geometry":{"x":170778.99000000115,"y":2546168.2400000002}},{"attributes":{"ID":359371,"DIS_CODE":0,"TOWNNAME":"南區","LI":"明興里","LIN":"5鄰","STREET":"金華路","SECT":"一段","MAREA":" ","LANE":"２００巷","ALLEY":" ","HOUSE_NO":"２７號","E_COORD97":167037.10999999999,"N_COORD97":2540778.1400000001,"ADDRESS":"金華路一段２００巷２７號","OBJECTID":359361},"geometry":{"x":167037.11000000127,"y":2540778.1400000006}},{"attributes":{"ID":359372,"DIS_CODE":0,"TOWNNAME":"南區","LI":"明興里","LIN":"5鄰","STREET":"金華路","SECT":"一段","MAREA":" ","LANE":"２００巷","ALLEY":" ","HOUSE_NO":"２７號之１","E_COORD97":167041.60999999999,"N_COORD97":2540786.8799999999,"ADDRESS":"金華路一段２００巷２７號之１","OBJECTID":359362},"geometry":{"x":167041.6100000022,"y":2540786.8800000008}},{"attributes":{"ID":359373,"DIS_CODE":0,"TOWNNAME":"南區","LI":"明興里","LIN":"5鄰","STREET":"金華路","SECT":"一段","MAREA":" ","LANE":"２００巷","ALLEY":" ","HOUSE_NO":"２９號","E_COORD97":167051.29999999999,"N_COORD97":2540768.3300000001,"ADDRESS":"金華路一段２００巷２９號","OBJECTID":359363},"geometry":{"x":167051.29999999981,"y":2540768.3300000019}},{"attributes":{"ID":359374,"DIS_CODE":0,"TOWNNAME":"南區","LI":"明興里","LIN":"5鄰","STREET":"金華路","SECT":"一段","MAREA":" ","LANE":"２００巷","ALLEY":" ","HOUSE_NO":"３５號","E_COORD97":167051.13,"N_COORD97":2540755.6000000001,"ADDRESS":"金華路一段２００巷３５號","OBJECTID":359364},"geometry":{"x":167051.13000000175,"y":2540755.6000000015}},{"attributes":{"ID":359375,"DIS_CODE":0,"TOWNNAME":"南區","LI":"明興里","LIN":"5鄰","STREET":"金華路","SECT":"一段","MAREA":" ","LANE":"２００巷","ALLEY":" ","HOUSE_NO":"３６號","E_COORD97":167034.09,"N_COORD97":2540732.1800000002,"ADDRESS":"金華路一段２００巷３６號","OBJECTID":359365},"geometry":{"x":167034.08999999985,"y":2540732.1800000016}},{"attributes":{"ID":359376,"DIS_CODE":0,"TOWNNAME":"東區","LI":"崇信里","LIN":"8鄰","STREET":"崇信街","SECT":" ","MAREA":" ","LANE":" ","ALLEY":" ","HOUSE_NO":"１３３號九樓","E_COORD97":170824.53,"N_COORD97":2542235.21,"ADDRESS":"崇信街１３３號九樓","OBJECTID":359366},"geometry":{"x":170824.53000000119,"y":2542235.2100000028}},{"attributes":{"ID":359377,"DIS_CODE":0,"TOWNNAME":"中西區","LI":"西賢里","LIN":"25鄰","STREET":"西賢五街","SECT":" ","MAREA":" ","LANE":"３６巷","ALLEY":" ","HOUSE_NO":"１０號","E_COORD97":165221.42000000001,"N_COORD97":2544590.77,"ADDRESS":"西賢五街３６巷１０號","OBJECTID":359367},"geometry":{"x":165221.41999999993,"y":2544590.7699999996}},{"attributes":{"ID":359378,"DIS_CODE":0,"TOWNNAME":"中西區","LI":"西賢里","LIN":"25鄰","STREET":"西賢五街","SECT":" ","MAREA":" ","LANE":"３６巷","ALLEY":" ","HOUSE_NO":"１２號","E_COORD97":165221.53,"N_COORD97":2544600.9100000001,"ADDRESS":"西賢五街３６巷１２號","OBJECTID":359368},"geometry":{"x":165221.53000000119,"y":2544600.9100000001}},{"attributes":{"ID":359379,"DIS_CODE":0,"TOWNNAME":"中西區","LI":"西賢里","LIN":"25鄰","STREET":"西賢五街","SECT":" ","MAREA":" ","LANE":"３６巷","ALLEY":" ","HOUSE_NO":"１６號","E_COORD97":165225.16,"N_COORD97":2544598.98,"ADDRESS":"西賢五街３６巷１６號","OBJECTID":359369},"geometry":{"x":165225.16000000015,"y":2544598.9800000023}},{"attributes":{"ID":359380,"DIS_CODE":0,"TOWNNAME":"南區","LI":"明興里","LIN":"5鄰","STREET":"金華路","SECT":"一段","MAREA":" ","LANE":"２００巷","ALLEY":" ","HOUSE_NO":"３７號","E_COORD97":167050.79000000001,"N_COORD97":2540751.27,"ADDRESS":"金華路一段２００巷３７號","OBJECTID":359370},"geometry":{"x":167050.79000000097,"y":2540751.2700000014}},{"attributes":{"ID":359381,"DIS_CODE":0,"TOWNNAME":"南區","LI":"明興里","LIN":"5鄰","STREET":"金華路","SECT":"一段","MAREA":" ","LANE":"２００巷","ALLEY":" ","HOUSE_NO":"３８號","E_COORD97":167034.17000000001,"N_COORD97":2540728.2799999998,"ADDRESS":"金華路一段２００巷３８號","OBJECTID":359371},"geometry":{"x":167034.17000000086,"y":2540728.2799999993}},{"attributes":{"ID":359382,"DIS_CODE":0,"TOWNNAME":"南區","LI":"明興里","LIN":"5鄰","STREET":"金華路","SECT":"一段","MAREA":" ","LANE":"２００巷","ALLEY":" ","HOUSE_NO":"４０號","E_COORD97":167033.23999999999,"N_COORD97":2540724.46,"ADDRESS":"金華路一段２００巷４０號","OBJECTID":359372},"geometry":{"x":167033.24000000022,"y":2540724.4600000028}},{"attributes":{"ID":359383,"DIS_CODE":0,"TOWNNAME":"南區","LI":"明興里","LIN":"5鄰","STREET":"金華路","SECT":"一段","MAREA":" ","LANE":"２００巷","ALLEY":" ","HOUSE_NO":"４１號","E_COORD97":167049.69,"N_COORD97":2540741.3799999999,"ADDRESS":"金華路一段２００巷４１號","OBJECTID":359373},"geometry":{"x":167049.69000000134,"y":2540741.379999999}},{"attributes":{"ID":359384,"DIS_CODE":0,"TOWNNAME":"南區","LI":"明興里","LIN":"5鄰","STREET":"金華路","SECT":"一段","MAREA":" ","LANE":"２００巷","ALLEY":" ","HOUSE_NO":"４２號","E_COORD97":167034.85000000001,"N_COORD97":2540720.3900000001,"ADDRESS":"金華路一段２００巷４２號","OBJECTID":359374},"geometry":{"x":167034.85000000056,"y":2540720.3900000025}},{"attributes":{"ID":359385,"DIS_CODE":0,"TOWNNAME":"南區","LI":"明興里","LIN":"5鄰","STREET":"金華路","SECT":"一段","MAREA":" ","LANE":"２００巷","ALLEY":" ","HOUSE_NO":"４５號","E_COORD97":167048.5,"N_COORD97":2540732.5499999998,"ADDRESS":"金華路一段２００巷４５號","OBJECTID":359375},"geometry":{"x":167048.5,"y":2540732.5500000045}},{"attributes":{"ID":359386,"DIS_CODE":0,"TOWNNAME":"南區","LI":"明興里","LIN":"5鄰","STREET":"金華路","SECT":"一段","MAREA":" ","LANE":"２００巷","ALLEY":" ","HOUSE_NO":"４７號","E_COORD97":167048.5,"N_COORD97":2540728.2200000002,"ADDRESS":"金華路一段２００巷４７號","OBJECTID":359376},"geometry":{"x":167048.5,"y":2540728.2200000044}},{"attributes":{"ID":359387,"DIS_CODE":0,"TOWNNAME":"永康區","LI":"安康里","LIN":"19鄰","STREET":"中華西街","SECT":" ","MAREA":" ","LANE":"１０４巷","ALLEY":" ","HOUSE_NO":"１３號","E_COORD97":170768.89000000001,"N_COORD97":2546136.25,"ADDRESS":"中華西街１０４巷１３號","OBJECTID":359377},"geometry":{"x":170768.8900000006,"y":2546136.2500000019}},{"attributes":{"ID":359388,"DIS_CODE":0,"TOWNNAME":"東區","LI":"崇信里","LIN":"8鄰","STREET":"崇信街","SECT":" ","MAREA":" ","LANE":" ","ALLEY":" ","HOUSE_NO":"１３３號九樓之１","E_COORD97":170824.53,"N_COORD97":2542235.21,"ADDRESS":"崇信街１３３號九樓之１","OBJECTID":359378},"geometry":{"x":170824.53000000119,"y":2542235.2100000028}},{"attributes":{"ID":359389,"DIS_CODE":0,"TOWNNAME":"東區","LI":"崇信里","LIN":"8鄰","STREET":"崇信街","SECT":" ","MAREA":" ","LANE":" ","ALLEY":" ","HOUSE_NO":"１３３號八樓","E_COORD97":170824.53,"N_COORD97":2542235.21,"ADDRESS":"崇信街１３３號八樓","OBJECTID":359379},"geometry":{"x":170824.53000000119,"y":2542235.2100000028}},{"attributes":{"ID":359390,"DIS_CODE":0,"TOWNNAME":"東區","LI":"崇信里","LIN":"8鄰","STREET":"崇信街","SECT":" ","MAREA":" ","LANE":" ","ALLEY":" ","HOUSE_NO":"１３３號八樓之１","E_COORD97":170824.53,"N_COORD97":2542235.21,"ADDRESS":"崇信街１３３號八樓之１","OBJECTID":359380},"geometry":{"x":170824.53000000119,"y":2542235.2100000028}},{"attributes":{"ID":359391,"DIS_CODE":0,"TOWNNAME":"東區","LI":"崇信里","LIN":"8鄰","STREET":"崇信街","SECT":" ","MAREA":" ","LANE":" ","ALLEY":" ","HOUSE_NO":"１３３號十一樓","E_COORD97":170824.53,"N_COORD97":2542235.21,"ADDRESS":"崇信街１３３號十一樓","OBJECTID":359381},"geometry":{"x":170824.53000000119,"y":2542235.2100000028}},{"attributes":{"ID":359392,"DIS_CODE":0,"TOWNNAME":"東區","LI":"崇信里","LIN":"8鄰","STREET":"崇信街","SECT":" ","MAREA":" ","LANE":" ","ALLEY":" ","HOUSE_NO":"１３３號十一樓之１","E_COORD97":170824.53,"N_COORD97":2542235.21,"ADDRESS":"崇信街１３３號十一樓之１","OBJECTID":359382},"geometry":{"x":170824.53000000119,"y":2542235.2100000028}},{"attributes":{"ID":359393,"DIS_CODE":0,"TOWNNAME":"永康區","LI":"建國里","LIN":"25鄰","STREET":" ","SECT":" ","MAREA":"慈光九村","LANE":" ","ALLEY":" ","HOUSE_NO":"６號","E_COORD97":172820.42999999999,"N_COORD97":2544274,"ADDRESS":"慈光九村６號","OBJECTID":359383},"geometry":{"x":172820.4299999997,"y":2544274}},{"attributes":{"ID":359394,"DIS_CODE":0,"TOWNNAME":"永康區","LI":"東橋里","LIN":"25鄰","STREET":"中正路","SECT":" ","MAREA":" ","LANE":"３５４巷","ALLEY":" ","HOUSE_NO":"４２號","E_COORD97":172893.39000000001,"N_COORD97":2548164.4900000002,"ADDRESS":"中正路３５４巷４２號","OBJECTID":359384},"geometry":{"x":172893.38999999966,"y":2548164.4900000021}},{"attributes":{"ID":359395,"DIS_CODE":0,"TOWNNAME":"永康區","LI":"安康里","LIN":"19鄰","STREET":"中華西街","SECT":" ","MAREA":" ","LANE":"１２２巷","ALLEY":" ","HOUSE_NO":"８號","E_COORD97":170735.07000000001,"N_COORD97":2546146.7400000002,"ADDRESS":"中華西街１２２巷８號","OBJECTID":359385},"geometry":{"x":170735.0700000003,"y":2546146.7400000021}},{"attributes":{"ID":359396,"DIS_CODE":0,"TOWNNAME":"永康區","LI":"永康里","LIN":"19鄰","STREET":"永中街","SECT":" ","MAREA":" ","LANE":"１３８巷","ALLEY":" ","HOUSE_NO":"３號","E_COORD97":174004.64999999999,"N_COORD97":2547270.8500000001,"ADDRESS":"永中街１３８巷３號","OBJECTID":359386},"geometry":{"x":174004.65000000037,"y":2547270.8500000015}},{"attributes":{"ID":359397,"DIS_CODE":0,"TOWNNAME":"東區","LI":"崇信里","LIN":"8鄰","STREET":"崇信街","SECT":" ","MAREA":" ","LANE":" ","ALLEY":" ","HOUSE_NO":"１３３號十七樓","E_COORD97":170824.53,"N_COORD97":2542235.21,"ADDRESS":"崇信街１３３號十七樓","OBJECTID":359387},"geometry":{"x":170824.53000000119,"y":2542235.2100000028}},{"attributes":{"ID":359398,"DIS_CODE":0,"TOWNNAME":"永康區","LI":"正強里","LIN":"19鄰","STREET":"中山南路","SECT":" ","MAREA":" ","LANE":"４７１巷","ALLEY":" ","HOUSE_NO":"６７號","E_COORD97":173237.01000000001,"N_COORD97":2547184.5699999998,"ADDRESS":"中山南路４７１巷６７號","OBJECTID":359388},"geometry":{"x":173237.00999999978,"y":2547184.5700000022}},{"attributes":{"ID":359399,"DIS_CODE":0,"TOWNNAME":"南區","LI":"開南里","LIN":"19鄰","STREET":"新建路","SECT":" ","MAREA":" ","LANE":"３９巷","ALLEY":" ","HOUSE_NO":"１號七樓","E_COORD97":166634.03,"N_COORD97":2541050.0099999998,"ADDRESS":"新建路３９巷１號七樓","OBJECTID":359389},"geometry":{"x":166634.03000000119,"y":2541050.0099999998}},{"attributes":{"ID":359400,"DIS_CODE":0,"TOWNNAME":"南區","LI":"開南里","LIN":"19鄰","STREET":"新建路","SECT":" ","MAREA":" ","LANE":"３９巷","ALLEY":" ","HOUSE_NO":"１號七樓之１","E_COORD97":166634.03,"N_COORD97":2541050.0099999998,"ADDRESS":"新建路３９巷１號七樓之１","OBJECTID":359390},"geometry":{"x":166634.03000000119,"y":2541050.0099999998}},{"attributes":{"ID":359401,"DIS_CODE":0,"TOWNNAME":"南區","LI":"開南里","LIN":"19鄰","STREET":"新建路","SECT":" ","MAREA":" ","LANE":"３９巷","ALLEY":" ","HOUSE_NO":"１號七樓之２","E_COORD97":166634.03,"N_COORD97":2541050.0099999998,"ADDRESS":"新建路３９巷１號七樓之２","OBJECTID":359391},"geometry":{"x":166634.03000000119,"y":2541050.0099999998}},{"attributes":{"ID":359402,"DIS_CODE":0,"TOWNNAME":"南區","LI":"開南里","LIN":"19鄰","STREET":"新建路","SECT":" ","MAREA":" ","LANE":"３９巷","ALLEY":" ","HOUSE_NO":"１號七樓之３","E_COORD97":166634.03,"N_COORD97":2541050.0099999998,"ADDRESS":"新建路３９巷１號七樓之３","OBJECTID":359392},"geometry":{"x":166634.03000000119,"y":2541050.0099999998}},{"attributes":{"ID":359403,"DIS_CODE":0,"TOWNNAME":"南區","LI":"開南里","LIN":"19鄰","STREET":"新建路","SECT":" ","MAREA":" ","LANE":"３９巷","ALLEY":" ","HOUSE_NO":"１號九樓","E_COORD97":166634.03,"N_COORD97":2541050.0099999998,"ADDRESS":"新建路３９巷１號九樓","OBJECTID":359393},"geometry":{"x":166634.03000000119,"y":2541050.0099999998}},{"attributes":{"ID":359404,"DIS_CODE":0,"TOWNNAME":"南區","LI":"開南里","LIN":"19鄰","STREET":"新建路","SECT":" ","MAREA":" ","LANE":"３９巷","ALLEY":" ","HOUSE_NO":"１號九樓之１","E_COORD97":166634.03,"N_COORD97":2541050.0099999998,"ADDRESS":"新建路３９巷１號九樓之１","OBJECTID":359394},"geometry":{"x":166634.03000000119,"y":2541050.0099999998}},{"attributes":{"ID":359405,"DIS_CODE":0,"TOWNNAME":"南區","LI":"開南里","LIN":"19鄰","STREET":"新建路","SECT":" ","MAREA":" ","LANE":"３９巷","ALLEY":" ","HOUSE_NO":"１號五樓","E_COORD97":166634.03,"N_COORD97":2541050.0099999998,"ADDRESS":"新建路３９巷１號五樓","OBJECTID":359395},"geometry":{"x":166634.03000000119,"y":2541050.0099999998}},{"attributes":{"ID":359406,"DIS_CODE":0,"TOWNNAME":"南區","LI":"開南里","LIN":"19鄰","STREET":"新建路","SECT":" ","MAREA":" ","LANE":"３９巷","ALLEY":" ","HOUSE_NO":"１號五樓之１","E_COORD97":166634.03,"N_COORD97":2541050.0099999998,"ADDRESS":"新建路３９巷１號五樓之１","OBJECTID":359396},"geometry":{"x":166634.03000000119,"y":2541050.0099999998}},{"attributes":{"ID":359407,"DIS_CODE":0,"TOWNNAME":"南區","LI":"開南里","LIN":"19鄰","STREET":"新建路","SECT":" ","MAREA":" ","LANE":"３９巷","ALLEY":" ","HOUSE_NO":"１號五樓之２","E_COORD97":166634.03,"N_COORD97":2541050.0099999998,"ADDRESS":"新建路３９巷１號五樓之２","OBJECTID":359397},"geometry":{"x":166634.03000000119,"y":2541050.0099999998}},{"attributes":{"ID":359408,"DIS_CODE":0,"TOWNNAME":"南區","LI":"開南里","LIN":"19鄰","STREET":"新建路","SECT":" ","MAREA":" ","LANE":"３９巷","ALLEY":" ","HOUSE_NO":"１號五樓之３","E_COORD97":166634.03,"N_COORD97":2541050.0099999998,"ADDRESS":"新建路３９巷１號五樓之３","OBJECTID":359398},"geometry":{"x":166634.03000000119,"y":2541050.0099999998}},{"attributes":{"ID":359409,"DIS_CODE":0,"TOWNNAME":"南區","LI":"開南里","LIN":"19鄰","STREET":"新建路","SECT":" ","MAREA":" ","LANE":"３９巷","ALLEY":" ","HOUSE_NO":"１號六樓","E_COORD97":166634.03,"N_COORD97":2541050.0099999998,"ADDRESS":"新建路３９巷１號六樓","OBJECTID":359399},"geometry":{"x":166634.03000000119,"y":2541050.0099999998}},{"attributes":{"ID":359410,"DIS_CODE":0,"TOWNNAME":"南區","LI":"開南里","LIN":"19鄰","STREET":"新建路","SECT":" ","MAREA":" ","LANE":"３９巷","ALLEY":" ","HOUSE_NO":"１號六樓之１","E_COORD97":166634.03,"N_COORD97":2541050.0099999998,"ADDRESS":"新建路３９巷１號六樓之１","OBJECTID":359400},"geometry":{"x":166634.03000000119,"y":2541050.0099999998}}]}