{"displayFieldName":"TOWNNAME","fieldAliases":{"ID":"ID","DIS_CODE":"DIS_CODE","TOWNNAME":"TOWNNAME","LI":"LI","LIN":"LIN","STREET":"STREET","SECT":"SECT","MAREA":"MAREA","LANE":"LANE","ALLEY":"ALLEY","HOUSE_NO":"HOUSE_NO","E_COORD97":"E_COORD97","N_COORD97":"N_COORD97","ADDRESS":"ADDRESS","OBJECTID":"OBJECTID"},"geometryType":"esriGeometryPoint","spatialReference":{"wkid":102443,"latestWkid":3826},"fields":[{"name":"ID","type":"esriFieldTypeDouble","alias":"ID"},{"name":"DIS_CODE","type":"esriFieldTypeInteger","alias":"DIS_CODE"},{"name":"TOWNNAME","type":"esriFieldTypeString","alias":"TOWNNAME","length":8},{"name":"LI","type":"esriFieldTypeString","alias":"LI","length":8},{"name":"LIN","type":"esriFieldTypeString","alias":"LIN","length":12},{"name":"STREET","type":"esriFieldTypeString","alias":"STREET","length":20},{"name":"SECT","type":"esriFieldTypeString","alias":"SECT","length":8},{"name":"MAREA","type":"esriFieldTypeString","alias":"MAREA","length":12},{"name":"LANE","type":"esriFieldTypeString","alias":"LANE","length":10},{"name":"ALLEY","type":"esriFieldTypeString","alias":"ALLEY","length":10},{"name":"HOUSE_NO","type":"esriFieldTypeString","alias":"HOUSE_NO","length":20},{"name":"E_COORD97","type":"esriFieldTypeDouble","alias":"E_COORD97"},{"name":"N_COORD97","type":"esriFieldTypeDouble","alias":"N_COORD97"},{"name":"ADDRESS","type":"esriFieldTypeString","alias":"ADDRESS","length":50},{"name":"OBJECTID","type":"esriFieldTypeOID","alias":"OBJECTID"}],"features":[{"attributes":{"ID":306809,"DIS_CODE":0,"TOWNNAME":"新化區","LI":"東榮里","LIN":"8鄰","STREET":"信義路","SECT":" ","MAREA":" ","LANE":"１１７巷","ALLEY":" ","HOUSE_NO":"２８號之３２","E_COORD97":179714.07999999999,"N_COORD97":2548296.2599999998,"ADDRESS":"信義路１１７巷２８號之３２","OBJECTID":306801},"geometry":{"x":179714.08000000007,"y":2548296.2599999998}},{"attributes":{"ID":306810,"DIS_CODE":0,"TOWNNAME":"新化區","LI":"東榮里","LIN":"8鄰","STREET":"信義路","SECT":" ","MAREA":" ","LANE":"１１７巷","ALLEY":" ","HOUSE_NO":"２８號之５３","E_COORD97":179759.98000000001,"N_COORD97":2548265.2599999998,"ADDRESS":"信義路１１７巷２８號之５３","OBJECTID":306802},"geometry":{"x":179759.98000000231,"y":2548265.2600000016}},{"attributes":{"ID":306811,"DIS_CODE":0,"TOWNNAME":"新化區","LI":"東榮里","LIN":"8鄰","STREET":"信義路","SECT":" ","MAREA":" ","LANE":"１１７巷","ALLEY":" ","HOUSE_NO":"２８號之３６","E_COORD97":179736.67999999999,"N_COORD97":2548295.2599999998,"ADDRESS":"信義路１１７巷２８號之３６","OBJECTID":306803},"geometry":{"x":179736.6799999997,"y":2548295.2600000016}},{"attributes":{"ID":306812,"DIS_CODE":0,"TOWNNAME":"新化區","LI":"東榮里","LIN":"8鄰","STREET":"信義路","SECT":" ","MAREA":" ","LANE":"１１７巷","ALLEY":" ","HOUSE_NO":"２６號之２","E_COORD97":179701.63,"N_COORD97":2548317.2599999998,"ADDRESS":"信義路１１７巷２６號之２","OBJECTID":306804},"geometry":{"x":179701.62999999989,"y":2548317.2599999998}},{"attributes":{"ID":306813,"DIS_CODE":0,"TOWNNAME":"西港區","LI":"西港里","LIN":"8鄰","STREET":"文化路","SECT":" ","MAREA":" ","LANE":"３６巷","ALLEY":" ","HOUSE_NO":"２號","E_COORD97":168595.78,"N_COORD97":2558142.8399999999,"ADDRESS":"文化路３６巷２號","OBJECTID":306805},"geometry":{"x":168595.78000000026,"y":2558142.8400000036}},{"attributes":{"ID":306814,"DIS_CODE":0,"TOWNNAME":"西港區","LI":"西港里","LIN":"8鄰","STREET":"文化路","SECT":" ","MAREA":" ","LANE":"３６巷","ALLEY":" ","HOUSE_NO":"４號","E_COORD97":168597.81,"N_COORD97":2558133.21,"ADDRESS":"文化路３６巷４號","OBJECTID":306806},"geometry":{"x":168597.81000000052,"y":2558133.2100000009}},{"attributes":{"ID":306815,"DIS_CODE":0,"TOWNNAME":"東區","LI":"大學里","LIN":"8鄰","STREET":"大學路","SECT":" ","MAREA":" ","LANE":"１８巷","ALLEY":" ","HOUSE_NO":"１０號","E_COORD97":170113.07999999999,"N_COORD97":2543974.1699999999,"ADDRESS":"大學路１８巷１０號","OBJECTID":306807},"geometry":{"x":170113.08000000194,"y":2543974.1699999999}},{"attributes":{"ID":306816,"DIS_CODE":0,"TOWNNAME":"東區","LI":"大學里","LIN":"8鄰","STREET":"大學路","SECT":" ","MAREA":" ","LANE":"１８巷","ALLEY":" ","HOUSE_NO":"１２號","E_COORD97":170114.53,"N_COORD97":2543955.8900000001,"ADDRESS":"大學路１８巷１２號","OBJECTID":306808},"geometry":{"x":170114.53000000026,"y":2543955.8900000025}},{"attributes":{"ID":306817,"DIS_CODE":0,"TOWNNAME":"中西區","LI":"天后里","LIN":"17鄰","STREET":"西門路","SECT":"二段","MAREA":" ","LANE":" ","ALLEY":" ","HOUSE_NO":"３５２號","E_COORD97":168031.54000000001,"N_COORD97":2544282.8399999999,"ADDRESS":"西門路二段３５２號","OBJECTID":306809},"geometry":{"x":168031.54000000004,"y":2544282.8400000036}},{"attributes":{"ID":306818,"DIS_CODE":0,"TOWNNAME":"中西區","LI":"天后里","LIN":"17鄰","STREET":"西門路","SECT":"二段","MAREA":" ","LANE":" ","ALLEY":" ","HOUSE_NO":"３５４號","E_COORD97":168034.57999999999,"N_COORD97":2544293,"ADDRESS":"西門路二段３５４號","OBJECTID":306810},"geometry":{"x":168034.58000000007,"y":2544293.0000000019}},{"attributes":{"ID":306819,"DIS_CODE":0,"TOWNNAME":"中西區","LI":"天后里","LIN":"17鄰","STREET":"西門路","SECT":"二段","MAREA":" ","LANE":" ","ALLEY":" ","HOUSE_NO":"３５６號","E_COORD97":168036.39000000001,"N_COORD97":2544296.1099999999,"ADDRESS":"西門路二段３５６號","OBJECTID":306811},"geometry":{"x":168036.3900000006,"y":2544296.1099999994}},{"attributes":{"ID":306820,"DIS_CODE":0,"TOWNNAME":"新營區","LI":"埤寮里","LIN":"2鄰","STREET":" ","SECT":" ","MAREA":"許丑","LANE":" ","ALLEY":" ","HOUSE_NO":"２２號之１７","E_COORD97":179999.42000000001,"N_COORD97":2580920.5899999999,"ADDRESS":"許丑２２號之１７","OBJECTID":306812},"geometry":{"x":179999.42000000086,"y":2580920.5899999999}},{"attributes":{"ID":306821,"DIS_CODE":0,"TOWNNAME":"新營區","LI":"嘉芳里","LIN":"4鄰","STREET":" ","SECT":" ","MAREA":"茄苳腳","LANE":" ","ALLEY":" ","HOUSE_NO":"５０之３７號","E_COORD97":176816.44,"N_COORD97":2578377.75,"ADDRESS":"茄苳腳５０之３７號","OBJECTID":306813},"geometry":{"x":176816.44000000041,"y":2578377.7500000019}},{"attributes":{"ID":306822,"DIS_CODE":0,"TOWNNAME":"新營區","LI":"大宏里","LIN":"25鄰","STREET":"同濟街","SECT":" ","MAREA":" ","LANE":"１３６巷","ALLEY":" ","HOUSE_NO":"４０號","E_COORD97":180567.39000000001,"N_COORD97":2578746.1299999999,"ADDRESS":"同濟街１３６巷４０號","OBJECTID":306814},"geometry":{"x":180567.38999999966,"y":2578746.129999999}},{"attributes":{"ID":306823,"DIS_CODE":0,"TOWNNAME":"新營區","LI":"五興里","LIN":"8鄰","STREET":" ","SECT":" ","MAREA":"五間厝","LANE":" ","ALLEY":" ","HOUSE_NO":"９５號之１","E_COORD97":175636.01999999999,"N_COORD97":2574961.5800000001,"ADDRESS":"五間厝９５之１號","OBJECTID":306815},"geometry":{"x":175636.02000000142,"y":2574961.5800000019}},{"attributes":{"ID":306824,"DIS_CODE":0,"TOWNNAME":"新營區","LI":"嘉芳里","LIN":" ","STREET":" ","SECT":" ","MAREA":"茄苳腳","LANE":" ","ALLEY":" ","HOUSE_NO":"５１之６號","E_COORD97":176955.07999999999,"N_COORD97":2578328.3399999999,"ADDRESS":"茄苳腳５１之６號","OBJECTID":306816},"geometry":{"x":176955.08000000101,"y":2578328.3399999999}},{"attributes":{"ID":306825,"DIS_CODE":0,"TOWNNAME":"新營區","LI":"南興里","LIN":" ","STREET":"興農街","SECT":" ","MAREA":" ","LANE":"１４０巷","ALLEY":" ","HOUSE_NO":"１１之１號","E_COORD97":179212.79999999999,"N_COORD97":2577524.4399999999,"ADDRESS":"興農街１４０巷１１之１號","OBJECTID":306817},"geometry":{"x":179212.80000000168,"y":2577524.4400000032}},{"attributes":{"ID":306826,"DIS_CODE":0,"TOWNNAME":"新營區","LI":"姑爺里","LIN":"1鄰","STREET":" ","SECT":" ","MAREA":"姑爺","LANE":" ","ALLEY":" ","HOUSE_NO":"９號之１","E_COORD97":174458.14000000001,"N_COORD97":2574349.5600000001,"ADDRESS":"姑爺９號之１","OBJECTID":306818},"geometry":{"x":174458.13999999966,"y":2574349.5600000024}},{"attributes":{"ID":306827,"DIS_CODE":0,"TOWNNAME":"新營區","LI":"南興里","LIN":"32鄰","STREET":"延平路","SECT":" ","MAREA":" ","LANE":"１４０巷","ALLEY":" ","HOUSE_NO":"３之１號","E_COORD97":179689.85999999999,"N_COORD97":2577416.9500000002,"ADDRESS":"延平路１４０巷３之１號","OBJECTID":306819},"geometry":{"x":179689.86000000127,"y":2577416.9500000011}},{"attributes":{"ID":306828,"DIS_CODE":0,"TOWNNAME":"東區","LI":"大學里","LIN":"8鄰","STREET":"大學路","SECT":" ","MAREA":" ","LANE":"１８巷","ALLEY":" ","HOUSE_NO":"１４號","E_COORD97":170112.79999999999,"N_COORD97":2543933.21,"ADDRESS":"大學路１８巷１４號","OBJECTID":306820},"geometry":{"x":170112.79999999981,"y":2543933.2100000028}},{"attributes":{"ID":306829,"DIS_CODE":0,"TOWNNAME":"東區","LI":"大學里","LIN":"8鄰","STREET":"大學路","SECT":" ","MAREA":" ","LANE":"１８巷","ALLEY":" ","HOUSE_NO":"１６號之２","E_COORD97":170120.47,"N_COORD97":2543915.21,"ADDRESS":"大學路１８巷１６號之２","OBJECTID":306821},"geometry":{"x":170120.47000000067,"y":2543915.2100000046}},{"attributes":{"ID":306830,"DIS_CODE":0,"TOWNNAME":"東區","LI":"大學里","LIN":"8鄰","STREET":"大學路","SECT":" ","MAREA":" ","LANE":"１８巷","ALLEY":" ","HOUSE_NO":"１６號之３","E_COORD97":170120.85000000001,"N_COORD97":2543918.7200000002,"ADDRESS":"大學路１８巷１６號之３","OBJECTID":306822},"geometry":{"x":170120.84999999963,"y":2543918.7200000025}},{"attributes":{"ID":306831,"DIS_CODE":0,"TOWNNAME":"東區","LI":"大學里","LIN":"8鄰","STREET":"大學路","SECT":" ","MAREA":" ","LANE":"１８巷","ALLEY":" ","HOUSE_NO":"１６號之４","E_COORD97":170120.85000000001,"N_COORD97":2543923.04,"ADDRESS":"大學路１８巷１６號之４","OBJECTID":306823},"geometry":{"x":170120.84999999963,"y":2543923.0399999991}},{"attributes":{"ID":306832,"DIS_CODE":0,"TOWNNAME":"東區","LI":"大學里","LIN":"8鄰","STREET":"大學路","SECT":" ","MAREA":" ","LANE":"１８巷","ALLEY":" ","HOUSE_NO":"１９號","E_COORD97":170139.31,"N_COORD97":2543888.7400000002,"ADDRESS":"大學路１８巷１９號","OBJECTID":306824},"geometry":{"x":170139.30999999959,"y":2543888.7400000021}},{"attributes":{"ID":306833,"DIS_CODE":0,"TOWNNAME":"東區","LI":"大學里","LIN":"8鄰","STREET":"大學路","SECT":" ","MAREA":" ","LANE":"１８巷","ALLEY":" ","HOUSE_NO":"２３號","E_COORD97":170143.47,"N_COORD97":2543866.2200000002,"ADDRESS":"大學路１８巷２３號","OBJECTID":306825},"geometry":{"x":170143.46999999974,"y":2543866.2200000007}},{"attributes":{"ID":306834,"DIS_CODE":0,"TOWNNAME":"東區","LI":"大學里","LIN":"8鄰","STREET":"大學路","SECT":" ","MAREA":" ","LANE":"１８巷","ALLEY":" ","HOUSE_NO":"２５號","E_COORD97":170139.03,"N_COORD97":2543837.3199999998,"ADDRESS":"大學路１８巷２５號","OBJECTID":306826},"geometry":{"x":170139.02999999933,"y":2543837.3200000022}},{"attributes":{"ID":306835,"DIS_CODE":0,"TOWNNAME":"中西區","LI":"天后里","LIN":"17鄰","STREET":"西門路","SECT":"二段","MAREA":" ","LANE":" ","ALLEY":" ","HOUSE_NO":"３６６號","E_COORD97":168048.04999999999,"N_COORD97":2544312.1699999999,"ADDRESS":"西門路二段３６６號","OBJECTID":306827},"geometry":{"x":168048.04999999981,"y":2544312.1700000018}},{"attributes":{"ID":306836,"DIS_CODE":0,"TOWNNAME":"中西區","LI":"天后里","LIN":"17鄰","STREET":"西門路","SECT":"二段","MAREA":" ","LANE":" ","ALLEY":" ","HOUSE_NO":"３６８號","E_COORD97":168052.85000000001,"N_COORD97":2544316.96,"ADDRESS":"西門路二段３６８號","OBJECTID":306828},"geometry":{"x":168052.85000000149,"y":2544316.9600000046}},{"attributes":{"ID":306837,"DIS_CODE":0,"TOWNNAME":"中西區","LI":"天后里","LIN":"17鄰","STREET":"西門路","SECT":"二段","MAREA":" ","LANE":" ","ALLEY":" ","HOUSE_NO":"３７０號","E_COORD97":168053.5,"N_COORD97":2544321.0899999999,"ADDRESS":"西門路二段３７０號","OBJECTID":306829},"geometry":{"x":168053.5,"y":2544321.0899999999}},{"attributes":{"ID":306838,"DIS_CODE":0,"TOWNNAME":"中西區","LI":"天后里","LIN":"17鄰","STREET":"西門路","SECT":"二段","MAREA":" ","LANE":" ","ALLEY":" ","HOUSE_NO":"３７４號","E_COORD97":168057.39000000001,"N_COORD97":2544327.5600000001,"ADDRESS":"西門路二段３７４號","OBJECTID":306830},"geometry":{"x":168057.38999999966,"y":2544327.5600000024}},{"attributes":{"ID":306839,"DIS_CODE":0,"TOWNNAME":"新營區","LI":"嘉芳里","LIN":"3鄰","STREET":" ","SECT":" ","MAREA":"茄苳腳","LANE":" ","ALLEY":" ","HOUSE_NO":"２８號之１３","E_COORD97":177013.10999999999,"N_COORD97":2578423.2999999998,"ADDRESS":"茄苳腳２８之１３號","OBJECTID":306831},"geometry":{"x":177013.11000000127,"y":2578423.3000000026}},{"attributes":{"ID":306840,"DIS_CODE":0,"TOWNNAME":"新營區","LI":"嘉芳里","LIN":" ","STREET":" ","SECT":" ","MAREA":"茄苳腳","LANE":" ","ALLEY":" ","HOUSE_NO":"４６之１１號","E_COORD97":176872.47,"N_COORD97":2578525.8799999999,"ADDRESS":"茄苳腳４６之１１號","OBJECTID":306832},"geometry":{"x":176872.47000000067,"y":2578525.8800000008}},{"attributes":{"ID":306841,"DIS_CODE":0,"TOWNNAME":"新營區","LI":"嘉芳里","LIN":" ","STREET":" ","SECT":" ","MAREA":"茄苳腳","LANE":" ","ALLEY":" ","HOUSE_NO":"１１之１號","E_COORD97":177200.28,"N_COORD97":2578271.7599999998,"ADDRESS":"茄苳腳１１之１號","OBJECTID":306833},"geometry":{"x":177200.28000000119,"y":2578271.7600000035}},{"attributes":{"ID":306842,"DIS_CODE":0,"TOWNNAME":"新營區","LI":"護鎮里","LIN":" ","STREET":" ","SECT":" ","MAREA":"後鎮","LANE":" ","ALLEY":" ","HOUSE_NO":"７４之５號","E_COORD97":179139.82000000001,"N_COORD97":2581076.3900000001,"ADDRESS":"後鎮７４之５號","OBJECTID":306834},"geometry":{"x":179139.8200000003,"y":2581076.3900000025}},{"attributes":{"ID":306843,"DIS_CODE":0,"TOWNNAME":"新營區","LI":"鐵線里","LIN":"5鄰","STREET":" ","SECT":" ","MAREA":"鐵線橋","LANE":" ","ALLEY":" ","HOUSE_NO":"５４之１號","E_COORD97":176161.67999999999,"N_COORD97":2573674.3100000001,"ADDRESS":"鐵線橋５４之１號","OBJECTID":306835},"geometry":{"x":176161.6799999997,"y":2573674.3100000005}},{"attributes":{"ID":306844,"DIS_CODE":0,"TOWNNAME":"新營區","LI":"大宏里","LIN":"9鄰","STREET":"民治路","SECT":" ","MAREA":" ","LANE":"２９巷","ALLEY":" ","HOUSE_NO":"４３號之８","E_COORD97":180228.09,"N_COORD97":2578709.02,"ADDRESS":"民治路２９巷４３號之８","OBJECTID":306836},"geometry":{"x":180228.09000000171,"y":2578709.0199999996}},{"attributes":{"ID":306845,"DIS_CODE":0,"TOWNNAME":"新營區","LI":"大宏里","LIN":"15鄰","STREET":"大同路","SECT":" ","MAREA":" ","LANE":" ","ALLEY":" ","HOUSE_NO":"３９號之１","E_COORD97":180698.98000000001,"N_COORD97":2578788.7599999998,"ADDRESS":"大同路３９號之１","OBJECTID":306837},"geometry":{"x":180698.98000000231,"y":2578788.7600000016}},{"attributes":{"ID":306846,"DIS_CODE":0,"TOWNNAME":"歸仁區","LI":"歸仁里","LIN":"7鄰","STREET":"中山路","SECT":"一段","MAREA":" ","LANE":" ","ALLEY":" ","HOUSE_NO":"５６８之１號","E_COORD97":177719.229303,"N_COORD97":2540850.56525,"ADDRESS":"中山路一段５６８之１號","OBJECTID":306838},"geometry":{"x":177719.22930300049,"y":2540850.5652530026}},{"attributes":{"ID":306847,"DIS_CODE":0,"TOWNNAME":"新營區","LI":"王公里","LIN":"32鄰","STREET":"大德街","SECT":" ","MAREA":" ","LANE":"５０巷","ALLEY":" ","HOUSE_NO":"５號","E_COORD97":180297.59,"N_COORD97":2579508.21,"ADDRESS":"大德街５０巷５號","OBJECTID":306839},"geometry":{"x":180297.59000000171,"y":2579508.2100000028}},{"attributes":{"ID":306848,"DIS_CODE":0,"TOWNNAME":"新營區","LI":"土庫里","LIN":"13鄰","STREET":" ","SECT":" ","MAREA":"土庫","LANE":" ","ALLEY":" ","HOUSE_NO":"１１１號","E_COORD97":183340.82000000001,"N_COORD97":2579735.6299999999,"ADDRESS":"土庫１１１號","OBJECTID":306840},"geometry":{"x":183340.8200000003,"y":2579735.629999999}},{"attributes":{"ID":306849,"DIS_CODE":0,"TOWNNAME":"新營區","LI":"舊部里","LIN":" ","STREET":" ","SECT":" ","MAREA":"舊部","LANE":" ","ALLEY":" ","HOUSE_NO":"３０號","E_COORD97":177131.34,"N_COORD97":2575350.5600000001,"ADDRESS":"舊部３０號","OBJECTID":306841},"geometry":{"x":177131.34000000078,"y":2575350.5600000005}},{"attributes":{"ID":306850,"DIS_CODE":0,"TOWNNAME":"新營區","LI":"新北里","LIN":"20鄰","STREET":"民生路","SECT":" ","MAREA":" ","LANE":"３３６巷","ALLEY":" ","HOUSE_NO":"２２號","E_COORD97":178989.32999999999,"N_COORD97":2579214.3100000001,"ADDRESS":"民生路３３６巷２２號","OBJECTID":306842},"geometry":{"x":178989.33000000101,"y":2579214.3100000005}},{"attributes":{"ID":306851,"DIS_CODE":0,"TOWNNAME":"新營區","LI":"新東里","LIN":"23鄰","STREET":"大同路","SECT":" ","MAREA":" ","LANE":"７２巷","ALLEY":" ","HOUSE_NO":"１８號","E_COORD97":180740.72,"N_COORD97":2578971.2999999998,"ADDRESS":"大同路７２巷１８號","OBJECTID":306843},"geometry":{"x":180740.7200000016,"y":2578971.3000000026}},{"attributes":{"ID":306852,"DIS_CODE":0,"TOWNNAME":"東區","LI":"大學里","LIN":"8鄰","STREET":"大學路","SECT":" ","MAREA":" ","LANE":"１８巷","ALLEY":" ","HOUSE_NO":"２６號","E_COORD97":170119.67000000001,"N_COORD97":2543840.9500000002,"ADDRESS":"大學路１８巷２６號","OBJECTID":306844},"geometry":{"x":170119.67000000086,"y":2543840.950000003}},{"attributes":{"ID":306853,"DIS_CODE":0,"TOWNNAME":"東區","LI":"仁和里","LIN":"8鄰","STREET":"仁和路","SECT":" ","MAREA":" ","LANE":"１０９巷","ALLEY":" ","HOUSE_NO":"１２８號","E_COORD97":171695.87,"N_COORD97":2541323.6800000002,"ADDRESS":"仁和路１０９巷１２８號","OBJECTID":306845},"geometry":{"x":171695.87000000011,"y":2541323.6799999997}},{"attributes":{"ID":306854,"DIS_CODE":0,"TOWNNAME":"東區","LI":"忠孝里","LIN":"8鄰","STREET":"榮譽街","SECT":" ","MAREA":" ","LANE":"８４巷","ALLEY":" ","HOUSE_NO":"１１３號","E_COORD97":169764.95999999999,"N_COORD97":2541559.1099999999,"ADDRESS":"榮譽街８４巷１１３號","OBJECTID":306846},"geometry":{"x":169764.96000000089,"y":2541559.1100000013}},{"attributes":{"ID":306855,"DIS_CODE":0,"TOWNNAME":"新營區","LI":"民生里","LIN":" ","STREET":"民生路","SECT":" ","MAREA":" ","LANE":" ","ALLEY":" ","HOUSE_NO":"６９之３號","E_COORD97":179210.23999999999,"N_COORD97":2578486.8199999998,"ADDRESS":"民生路６９之３號","OBJECTID":306847},"geometry":{"x":179210.24000000209,"y":2578486.8200000022}},{"attributes":{"ID":306856,"DIS_CODE":0,"TOWNNAME":"新營區","LI":"新南里","LIN":"4鄰","STREET":"新北三街","SECT":" ","MAREA":" ","LANE":" ","ALLEY":" ","HOUSE_NO":"２７號","E_COORD97":178618.09,"N_COORD97":2578797.48,"ADDRESS":"新北三街２７號","OBJECTID":306848},"geometry":{"x":178618.09000000078,"y":2578797.4800000023}},{"attributes":{"ID":306857,"DIS_CODE":0,"TOWNNAME":"中西區","LI":"天后里","LIN":"17鄰","STREET":"西門路","SECT":"二段","MAREA":" ","LANE":" ","ALLEY":" ","HOUSE_NO":"３７６號","E_COORD97":168059.59,"N_COORD97":2544331.1899999999,"ADDRESS":"西門路二段３７６號","OBJECTID":306849},"geometry":{"x":168059.58999999985,"y":2544331.1900000032}},{"attributes":{"ID":306858,"DIS_CODE":0,"TOWNNAME":"中西區","LI":"青年里","LIN":"17鄰","STREET":"青年路","SECT":" ","MAREA":" ","LANE":" ","ALLEY":" ","HOUSE_NO":"２３號","E_COORD97":168613.79999999999,"N_COORD97":2543674.25,"ADDRESS":"青年路２３號","OBJECTID":306850},"geometry":{"x":168613.79999999981,"y":2543674.2500000019}},{"attributes":{"ID":306859,"DIS_CODE":0,"TOWNNAME":"仁德區","LI":"後壁里","LIN":"17鄰","STREET":"德善路","SECT":" ","MAREA":" ","LANE":" ","ALLEY":" ","HOUSE_NO":"１０之１號","E_COORD97":173283.41,"N_COORD97":2538916.79,"ADDRESS":"德善路１０之１號","OBJECTID":306851},"geometry":{"x":173283.41000000108,"y":2538916.790000001}},{"attributes":{"ID":306860,"DIS_CODE":0,"TOWNNAME":"仁德區","LI":"仁德里","LIN":"17鄰","STREET":"文華路","SECT":"三段","MAREA":" ","LANE":" ","ALLEY":" ","HOUSE_NO":"４５６號","E_COORD97":172441.85000000001,"N_COORD97":2541325.1699999999,"ADDRESS":"文華路三段４５６號","OBJECTID":306852},"geometry":{"x":172441.85000000149,"y":2541325.1700000018}},{"attributes":{"ID":306861,"DIS_CODE":0,"TOWNNAME":"新營區","LI":"護鎮里","LIN":" ","STREET":" ","SECT":" ","MAREA":"後鎮","LANE":" ","ALLEY":" ","HOUSE_NO":"９６之３號","E_COORD97":179107.31,"N_COORD97":2580921.5099999998,"ADDRESS":"後鎮９６之３號","OBJECTID":306853},"geometry":{"x":179107.30999999866,"y":2580921.5100000035}},{"attributes":{"ID":306862,"DIS_CODE":0,"TOWNNAME":"新營區","LI":"嘉芳里","LIN":"3鄰","STREET":" ","SECT":" ","MAREA":"茄苳腳","LANE":" ","ALLEY":" ","HOUSE_NO":"２９號之１０","E_COORD97":177034.10999999999,"N_COORD97":2578324.6299999999,"ADDRESS":"茄苳腳２９之１０號","OBJECTID":306854},"geometry":{"x":177034.11000000034,"y":2578324.629999999}},{"attributes":{"ID":306863,"DIS_CODE":0,"TOWNNAME":"新營區","LI":"王公里","LIN":"4鄰","STREET":"民治路","SECT":" ","MAREA":" ","LANE":" ","ALLEY":" ","HOUSE_NO":"１６號之５","E_COORD97":180350.60000000001,"N_COORD97":2578894.5,"ADDRESS":"民治路１６號之５","OBJECTID":306855},"geometry":{"x":180350.60000000056,"y":2578894.5000000037}},{"attributes":{"ID":306864,"DIS_CODE":0,"TOWNNAME":"新營區","LI":"大宏里","LIN":"13鄰","STREET":"文昌街","SECT":" ","MAREA":" ","LANE":" ","ALLEY":" ","HOUSE_NO":"４８號之４","E_COORD97":180258.10999999999,"N_COORD97":2578351.1800000002,"ADDRESS":"文昌街４８號之４","OBJECTID":306856},"geometry":{"x":180258.11000000034,"y":2578351.1800000016}},{"attributes":{"ID":306865,"DIS_CODE":0,"TOWNNAME":"新營區","LI":"大宏里","LIN":"18鄰","STREET":"民族路","SECT":" ","MAREA":" ","LANE":" ","ALLEY":" ","HOUSE_NO":"１８號之４","E_COORD97":180303.04999999999,"N_COORD97":2578572.4500000002,"ADDRESS":"民族路１８號之４","OBJECTID":306857},"geometry":{"x":180303.05000000075,"y":2578572.4500000011}},{"attributes":{"ID":306866,"DIS_CODE":0,"TOWNNAME":"新營區","LI":"大宏里","LIN":"12鄰","STREET":"開元路","SECT":" ","MAREA":" ","LANE":" ","ALLEY":" ","HOUSE_NO":"６１號之１１","E_COORD97":180894.5,"N_COORD97":2578790.0699999998,"ADDRESS":"開元路６１號之１１","OBJECTID":306858},"geometry":{"x":180894.5,"y":2578790.0700000022}},{"attributes":{"ID":306867,"DIS_CODE":0,"TOWNNAME":"新營區","LI":"大宏里","LIN":"25鄰","STREET":"同濟街","SECT":" ","MAREA":" ","LANE":"１３６巷","ALLEY":" ","HOUSE_NO":"７號之１","E_COORD97":180483.44,"N_COORD97":2578769.8300000001,"ADDRESS":"同濟街１３６巷７號之１","OBJECTID":306859},"geometry":{"x":180483.44000000041,"y":2578769.8299999982}},{"attributes":{"ID":306868,"DIS_CODE":0,"TOWNNAME":"東區","LI":"富強里","LIN":"8鄰","STREET":"中華東路","SECT":"二段","MAREA":" ","LANE":"９６巷","ALLEY":" ","HOUSE_NO":"３３號","E_COORD97":171200.64000000001,"N_COORD97":2542823.1800000002,"ADDRESS":"中華東路二段９６巷３３號","OBJECTID":306860},"geometry":{"x":171200.64000000153,"y":2542823.1800000016}},{"attributes":{"ID":306869,"DIS_CODE":0,"TOWNNAME":"北區","LI":"成功里","LIN":"17鄰","STREET":"北成路","SECT":" ","MAREA":" ","LANE":"１２８巷","ALLEY":" ","HOUSE_NO":"６６號","E_COORD97":169016.04999999999,"N_COORD97":2546860.3100000001,"ADDRESS":"北成路１２８巷６６號","OBJECTID":306861},"geometry":{"x":169016.04999999981,"y":2546860.3100000042}},{"attributes":{"ID":306870,"DIS_CODE":0,"TOWNNAME":"北區","LI":"成功里","LIN":"17鄰","STREET":"北成路","SECT":" ","MAREA":" ","LANE":"１２８巷","ALLEY":" ","HOUSE_NO":"６８號","E_COORD97":169017.81,"N_COORD97":2546864.9900000002,"ADDRESS":"北成路１２８巷６８號","OBJECTID":306862},"geometry":{"x":169017.81000000145,"y":2546864.9900000002}},{"attributes":{"ID":306871,"DIS_CODE":0,"TOWNNAME":"新市區","LI":"新市里","LIN":"8鄰","STREET":"中正路","SECT":" ","MAREA":" ","LANE":"２４１巷","ALLEY":" ","HOUSE_NO":"２號","E_COORD97":177430.16,"N_COORD97":2553189.25,"ADDRESS":"中正路２４１巷２號","OBJECTID":306863},"geometry":{"x":177430.16000000015,"y":2553189.25}},{"attributes":{"ID":306872,"DIS_CODE":0,"TOWNNAME":"安南區","LI":"海西里","LIN":"8鄰","STREET":"海中街","SECT":" ","MAREA":" ","LANE":"１０１巷","ALLEY":" ","HOUSE_NO":"８５號","E_COORD97":166217.19,"N_COORD97":2548899.1800000002,"ADDRESS":"海中街１０１巷８５號","OBJECTID":306864},"geometry":{"x":166217.19000000227,"y":2548899.1800000016}},{"attributes":{"ID":306873,"DIS_CODE":0,"TOWNNAME":"仁德區","LI":"仁德里","LIN":"17鄰","STREET":"文華路","SECT":"三段","MAREA":" ","LANE":" ","ALLEY":" ","HOUSE_NO":"４６０號","E_COORD97":172448.07000000001,"N_COORD97":2541350.79,"ADDRESS":"文華路三段４６０號","OBJECTID":306865},"geometry":{"x":172448.07000000123,"y":2541350.790000001}},{"attributes":{"ID":306874,"DIS_CODE":0,"TOWNNAME":"中西區","LI":"青年里","LIN":"17鄰","STREET":"青年路","SECT":" ","MAREA":" ","LANE":" ","ALLEY":" ","HOUSE_NO":"１１號","E_COORD97":168586.70999999999,"N_COORD97":2543673.6699999999,"ADDRESS":"青年路１１號","OBJECTID":306866},"geometry":{"x":168586.71000000089,"y":2543673.6699999981}},{"attributes":{"ID":306875,"DIS_CODE":0,"TOWNNAME":"中西區","LI":"青年里","LIN":"17鄰","STREET":"青年路","SECT":" ","MAREA":" ","LANE":" ","ALLEY":" ","HOUSE_NO":"１號","E_COORD97":168562.12,"N_COORD97":2543685.0600000001,"ADDRESS":"青年路１號","OBJECTID":306867},"geometry":{"x":168562.12000000104,"y":2543685.0600000005}},{"attributes":{"ID":306876,"DIS_CODE":0,"TOWNNAME":"新營區","LI":"鐵線里","LIN":"5鄰","STREET":" ","SECT":" ","MAREA":"鐵線橋","LANE":" ","ALLEY":" ","HOUSE_NO":"４８之４號","E_COORD97":176089.26999999999,"N_COORD97":2573711.21,"ADDRESS":"鐵線橋４８之４號","OBJECTID":306868},"geometry":{"x":176089.27000000048,"y":2573711.2100000028}},{"attributes":{"ID":306877,"DIS_CODE":0,"TOWNNAME":"新營區","LI":"土庫里","LIN":"17鄰","STREET":" ","SECT":" ","MAREA":"卯舍","LANE":" ","ALLEY":" ","HOUSE_NO":"６６０號","E_COORD97":181005.85000000001,"N_COORD97":2580613.4700000002,"ADDRESS":"卯舍６６０號","OBJECTID":306869},"geometry":{"x":181005.85000000149,"y":2580613.4700000007}},{"attributes":{"ID":306878,"DIS_CODE":0,"TOWNNAME":"新營區","LI":"鐵線里","LIN":" ","STREET":" ","SECT":" ","MAREA":"秀才","LANE":" ","ALLEY":" ","HOUSE_NO":"１４之１號","E_COORD97":174774.98000000001,"N_COORD97":2573829.6600000001,"ADDRESS":"秀才１４之１號","OBJECTID":306870},"geometry":{"x":174774.98000000138,"y":2573829.660000002}},{"attributes":{"ID":306879,"DIS_CODE":0,"TOWNNAME":"新營區","LI":"嘉芳里","LIN":" ","STREET":" ","SECT":" ","MAREA":"茄苳腳","LANE":" ","ALLEY":" ","HOUSE_NO":"１５號","E_COORD97":177191.26000000001,"N_COORD97":2578403.52,"ADDRESS":"茄苳腳１５號","OBJECTID":306871},"geometry":{"x":177191.26000000071,"y":2578403.5200000014}},{"attributes":{"ID":306880,"DIS_CODE":0,"TOWNNAME":"新營區","LI":"民榮里","LIN":"20鄰","STREET":"裕民路","SECT":" ","MAREA":" ","LANE":"１６巷","ALLEY":" ","HOUSE_NO":"１２號","E_COORD97":179070.01999999999,"N_COORD97":2577922.6400000001,"ADDRESS":"裕民路１６巷１２號","OBJECTID":306872},"geometry":{"x":179070.01999999955,"y":2577922.6400000006}},{"attributes":{"ID":306881,"DIS_CODE":0,"TOWNNAME":"新營區","LI":"鐵線里","LIN":" ","STREET":" ","SECT":" ","MAREA":"鐵線橋","LANE":" ","ALLEY":" ","HOUSE_NO":"６８之１號","E_COORD97":175711.51999999999,"N_COORD97":2573686.52,"ADDRESS":"鐵線橋６８之１號","OBJECTID":306873},"geometry":{"x":175711.51999999955,"y":2573686.5200000014}},{"attributes":{"ID":306882,"DIS_CODE":0,"TOWNNAME":"新營區","LI":"埤寮里","LIN":"2鄰","STREET":" ","SECT":" ","MAREA":"許丑","LANE":" ","ALLEY":" ","HOUSE_NO":"２２號之７","E_COORD97":180014.59,"N_COORD97":2580932.6899999999,"ADDRESS":"許丑２２號之７","OBJECTID":306874},"geometry":{"x":180014.59000000078,"y":2580932.6899999995}},{"attributes":{"ID":306883,"DIS_CODE":0,"TOWNNAME":"新營區","LI":"太北里","LIN":"4鄰","STREET":" ","SECT":" ","MAREA":"太子宮","LANE":" ","ALLEY":" ","HOUSE_NO":"２５號","E_COORD97":176164.04999999999,"N_COORD97":2577313.3300000001,"ADDRESS":"太子宮２５號","OBJECTID":306875},"geometry":{"x":176164.05000000075,"y":2577313.3300000019}},{"attributes":{"ID":306884,"DIS_CODE":0,"TOWNNAME":"新營區","LI":"鐵線里","LIN":"4鄰","STREET":" ","SECT":" ","MAREA":"鐵線橋","LANE":" ","ALLEY":" ","HOUSE_NO":"３８號","E_COORD97":176024.73000000001,"N_COORD97":2573783.46,"ADDRESS":"鐵線橋３８號","OBJECTID":306876},"geometry":{"x":176024.73000000045,"y":2573783.4600000028}},{"attributes":{"ID":306885,"DIS_CODE":0,"TOWNNAME":"新營區","LI":"南興里","LIN":" ","STREET":"延平路","SECT":" ","MAREA":" ","LANE":"１４０巷","ALLEY":" ","HOUSE_NO":"３０之６號","E_COORD97":179631.95000000001,"N_COORD97":2577451.5600000001,"ADDRESS":"延平路１４０巷３０之６號","OBJECTID":306877},"geometry":{"x":179631.95000000019,"y":2577451.5600000024}},{"attributes":{"ID":306886,"DIS_CODE":0,"TOWNNAME":"新營區","LI":"民榮里","LIN":"26鄰","STREET":"復興路","SECT":" ","MAREA":" ","LANE":"３０５巷","ALLEY":" ","HOUSE_NO":"３９號","E_COORD97":178537.75,"N_COORD97":2578040.3700000001,"ADDRESS":"復興路３０５巷３９號","OBJECTID":306878},"geometry":{"x":178537.75000000093,"y":2578040.370000001}},{"attributes":{"ID":306887,"DIS_CODE":0,"TOWNNAME":"安南區","LI":"海東里","LIN":"8鄰","STREET":"海佃路","SECT":"二段","MAREA":" ","LANE":"４８３巷","ALLEY":" ","HOUSE_NO":"１４號","E_COORD97":166644.06,"N_COORD97":2549140.7200000002,"ADDRESS":"海佃路二段４８３巷１４號","OBJECTID":306879},"geometry":{"x":166644.05999999959,"y":2549140.7200000025}},{"attributes":{"ID":306888,"DIS_CODE":0,"TOWNNAME":"安南區","LI":"海東里","LIN":"8鄰","STREET":"海佃路","SECT":"二段","MAREA":" ","LANE":"４８３巷","ALLEY":" ","HOUSE_NO":"１６號","E_COORD97":166640.48999999999,"N_COORD97":2549138.1699999999,"ADDRESS":"海佃路二段４８３巷１６號","OBJECTID":306880},"geometry":{"x":166640.49000000209,"y":2549138.1699999999}},{"attributes":{"ID":306889,"DIS_CODE":0,"TOWNNAME":"安南區","LI":"海東里","LIN":"8鄰","STREET":"海佃路","SECT":"二段","MAREA":" ","LANE":"４８３巷","ALLEY":" ","HOUSE_NO":"１８號","E_COORD97":166637.19,"N_COORD97":2549136.0099999998,"ADDRESS":"海佃路二段４８３巷１８號","OBJECTID":306881},"geometry":{"x":166637.19000000041,"y":2549136.0099999998}},{"attributes":{"ID":306890,"DIS_CODE":0,"TOWNNAME":"中西區","LI":"青年里","LIN":"17鄰","STREET":"青年路","SECT":" ","MAREA":" ","LANE":" ","ALLEY":" ","HOUSE_NO":"９號","E_COORD97":168580.35000000001,"N_COORD97":2543671.6699999999,"ADDRESS":"青年路９號","OBJECTID":306882},"geometry":{"x":168580.35000000056,"y":2543671.6700000018}},{"attributes":{"ID":306891,"DIS_CODE":0,"TOWNNAME":"新市區","LI":"港墘里","LIN":"17鄰","STREET":"南港街","SECT":" ","MAREA":" ","LANE":" ","ALLEY":" ","HOUSE_NO":"２號","E_COORD97":178272.85000000001,"N_COORD97":2552777.5,"ADDRESS":"南港街２號","OBJECTID":306883},"geometry":{"x":178272.84999999963,"y":2552777.5}},{"attributes":{"ID":306892,"DIS_CODE":0,"TOWNNAME":"安南區","LI":"長安里","LIN":"17鄰","STREET":"長溪路","SECT":"三段","MAREA":" ","LANE":" ","ALLEY":" ","HOUSE_NO":"２７９號","E_COORD97":167760.62,"N_COORD97":2551814.6800000002,"ADDRESS":"長溪路三段２７９號","OBJECTID":306884},"geometry":{"x":167760.62000000104,"y":2551814.6800000016}},{"attributes":{"ID":306893,"DIS_CODE":0,"TOWNNAME":"安南區","LI":"學東里","LIN":"17鄰","STREET":"城北路","SECT":" ","MAREA":" ","LANE":" ","ALLEY":" ","HOUSE_NO":"５５４號之１００","E_COORD97":160931.19,"N_COORD97":2552621.6099999999,"ADDRESS":"城北路５５４號之１００","OBJECTID":306885},"geometry":{"x":160931.19000000041,"y":2552621.6100000013}},{"attributes":{"ID":306894,"DIS_CODE":0,"TOWNNAME":"新營區","LI":"大宏里","LIN":"15鄰","STREET":"大同路","SECT":" ","MAREA":" ","LANE":" ","ALLEY":" ","HOUSE_NO":"４１號之３","E_COORD97":180660.20999999999,"N_COORD97":2578813.3100000001,"ADDRESS":"大同路４１號之３","OBJECTID":306886},"geometry":{"x":180660.21000000089,"y":2578813.3100000005}},{"attributes":{"ID":306895,"DIS_CODE":0,"TOWNNAME":"新營區","LI":"民生里","LIN":" ","STREET":"民生路","SECT":" ","MAREA":" ","LANE":"１６３巷","ALLEY":" ","HOUSE_NO":"１００之３號","E_COORD97":179076.72,"N_COORD97":2578539.52,"ADDRESS":"民生路１６３巷１００之３號","OBJECTID":306887},"geometry":{"x":179076.72000000067,"y":2578539.5199999996}},{"attributes":{"ID":306896,"DIS_CODE":0,"TOWNNAME":"新營區","LI":"好平里","LIN":" ","STREET":"南昌街","SECT":" ","MAREA":" ","LANE":"４０巷","ALLEY":" ","HOUSE_NO":"１５號","E_COORD97":179497.56,"N_COORD97":2577700.21,"ADDRESS":"南昌街４０巷１５號","OBJECTID":306888},"geometry":{"x":179497.56000000052,"y":2577700.209999999}},{"attributes":{"ID":306897,"DIS_CODE":0,"TOWNNAME":"新營區","LI":"太北里","LIN":"16鄰","STREET":" ","SECT":" ","MAREA":"太子宮","LANE":" ","ALLEY":" ","HOUSE_NO":"１３３號之２","E_COORD97":175881.10999999999,"N_COORD97":2576866.2999999998,"ADDRESS":"太子宮１３３號之２","OBJECTID":306889},"geometry":{"x":175881.11000000034,"y":2576866.3000000026}},{"attributes":{"ID":306898,"DIS_CODE":0,"TOWNNAME":"新營區","LI":"土庫里","LIN":"1鄰","STREET":" ","SECT":" ","MAREA":"土庫","LANE":" ","ALLEY":" ","HOUSE_NO":"５號之５","E_COORD97":182961.66,"N_COORD97":2580022.0099999998,"ADDRESS":"土庫５號之５","OBJECTID":306890},"geometry":{"x":182961.66000000015,"y":2580022.0099999998}},{"attributes":{"ID":306899,"DIS_CODE":0,"TOWNNAME":"新營區","LI":"五興里","LIN":"10鄰","STREET":" ","SECT":" ","MAREA":"五間厝","LANE":" ","ALLEY":" ","HOUSE_NO":"１１３號之１０","E_COORD97":175664.91,"N_COORD97":2574710.0600000001,"ADDRESS":"五間厝１１３之１０號","OBJECTID":306891},"geometry":{"x":175664.91000000108,"y":2574710.0600000005}},{"attributes":{"ID":306900,"DIS_CODE":0,"TOWNNAME":"新營區","LI":"土庫里","LIN":"7鄰","STREET":" ","SECT":" ","MAREA":"土庫","LANE":" ","ALLEY":" ","HOUSE_NO":"６４號之２","E_COORD97":183185.01000000001,"N_COORD97":2579832.73,"ADDRESS":"土庫６４號之２","OBJECTID":306892},"geometry":{"x":183185.01000000164,"y":2579832.7300000023}},{"attributes":{"ID":306901,"DIS_CODE":0,"TOWNNAME":"新營區","LI":"土庫里","LIN":"4鄰","STREET":" ","SECT":" ","MAREA":"土庫","LANE":" ","ALLEY":" ","HOUSE_NO":"３５之７號","E_COORD97":183330.92000000001,"N_COORD97":2580124.8900000001,"ADDRESS":"土庫３５之７號","OBJECTID":306893},"geometry":{"x":183330.91999999993,"y":2580124.8900000006}},{"attributes":{"ID":306902,"DIS_CODE":0,"TOWNNAME":"安南區","LI":"海東里","LIN":"8鄰","STREET":"海佃路","SECT":"二段","MAREA":" ","LANE":"４８３巷","ALLEY":" ","HOUSE_NO":"２０號","E_COORD97":166633.67000000001,"N_COORD97":2549133.9900000002,"ADDRESS":"海佃路二段４８３巷２０號","OBJECTID":306894},"geometry":{"x":166633.66999999993,"y":2549133.9900000039}},{"attributes":{"ID":306903,"DIS_CODE":0,"TOWNNAME":"新營區","LI":"土庫里","LIN":"8鄰","STREET":" ","SECT":" ","MAREA":"土庫","LANE":" ","ALLEY":" ","HOUSE_NO":"７１號之４","E_COORD97":182950.17000000001,"N_COORD97":2579914.6400000001,"ADDRESS":"土庫７１號之４","OBJECTID":306895},"geometry":{"x":182950.17000000179,"y":2579914.6400000043}},{"attributes":{"ID":306904,"DIS_CODE":0,"TOWNNAME":"新營區","LI":"護鎮里","LIN":"5鄰","STREET":" ","SECT":" ","MAREA":"後鎮","LANE":" ","ALLEY":" ","HOUSE_NO":"４９號之１","E_COORD97":179160.54999999999,"N_COORD97":2581126.1299999999,"ADDRESS":"後鎮４９之１號","OBJECTID":306896},"geometry":{"x":179160.55000000075,"y":2581126.129999999}},{"attributes":{"ID":306905,"DIS_CODE":0,"TOWNNAME":"安南區","LI":"海東里","LIN":"8鄰","STREET":"海佃路","SECT":"二段","MAREA":" ","LANE":"４８３巷","ALLEY":" ","HOUSE_NO":"２４號","E_COORD97":166624.85000000001,"N_COORD97":2549133.6600000001,"ADDRESS":"海佃路二段４８３巷２４號","OBJECTID":306897},"geometry":{"x":166624.84999999963,"y":2549133.660000002}},{"attributes":{"ID":306906,"DIS_CODE":0,"TOWNNAME":"安南區","LI":"海東里","LIN":"8鄰","STREET":"海佃路","SECT":"二段","MAREA":" ","LANE":"４８３巷","ALLEY":" ","HOUSE_NO":"２６號","E_COORD97":166617.76000000001,"N_COORD97":2549126.8900000001,"ADDRESS":"海佃路二段４８３巷２６號","OBJECTID":306898},"geometry":{"x":166617.76000000164,"y":2549126.8900000006}},{"attributes":{"ID":306907,"DIS_CODE":0,"TOWNNAME":"安南區","LI":"海東里","LIN":"8鄰","STREET":"海佃路","SECT":"二段","MAREA":" ","LANE":"４８３巷","ALLEY":" ","HOUSE_NO":"３６號","E_COORD97":166585.92999999999,"N_COORD97":2549102.7799999998,"ADDRESS":"海佃路二段４８３巷３６號","OBJECTID":306899},"geometry":{"x":166585.9299999997,"y":2549102.7799999993}},{"attributes":{"ID":306908,"DIS_CODE":0,"TOWNNAME":"安南區","LI":"海東里","LIN":"8鄰","STREET":"海佃路","SECT":"二段","MAREA":" ","LANE":"４８３巷","ALLEY":" ","HOUSE_NO":"５８號","E_COORD97":166535.22,"N_COORD97":2549089.9399999999,"ADDRESS":"海佃路二段４８３巷５８號","OBJECTID":306900},"geometry":{"x":166535.22000000067,"y":2549089.9400000013}},{"attributes":{"ID":306909,"DIS_CODE":0,"TOWNNAME":"安南區","LI":"海東里","LIN":"8鄰","STREET":"海佃路","SECT":"二段","MAREA":" ","LANE":"４８３巷","ALLEY":" ","HOUSE_NO":"６０號","E_COORD97":166523.67000000001,"N_COORD97":2549085.3399999999,"ADDRESS":"海佃路二段４８３巷６０號","OBJECTID":306901},"geometry":{"x":166523.67000000179,"y":2549085.3399999999}},{"attributes":{"ID":306910,"DIS_CODE":0,"TOWNNAME":"安南區","LI":"海東里","LIN":"8鄰","STREET":"海佃路","SECT":"二段","MAREA":" ","LANE":"４８３巷","ALLEY":" ","HOUSE_NO":"６６號","E_COORD97":166508.42000000001,"N_COORD97":2549082.7599999998,"ADDRESS":"海佃路二段４８３巷６６號","OBJECTID":306902},"geometry":{"x":166508.42000000179,"y":2549082.7599999998}},{"attributes":{"ID":306911,"DIS_CODE":0,"TOWNNAME":"安南區","LI":"海東里","LIN":"17鄰","STREET":"同安路","SECT":" ","MAREA":" ","LANE":" ","ALLEY":" ","HOUSE_NO":"３７１號","E_COORD97":167273.23999999999,"N_COORD97":2549340.6000000001,"ADDRESS":"同安路３７１號","OBJECTID":306903},"geometry":{"x":167273.24000000115,"y":2549340.6000000015}},{"attributes":{"ID":306912,"DIS_CODE":0,"TOWNNAME":"安南區","LI":"海東里","LIN":"17鄰","STREET":"同安路","SECT":" ","MAREA":" ","LANE":" ","ALLEY":" ","HOUSE_NO":"３７３號","E_COORD97":167275.5,"N_COORD97":2549344.5299999998,"ADDRESS":"同安路３７３號","OBJECTID":306904},"geometry":{"x":167275.5,"y":2549344.5300000012}},{"attributes":{"ID":306913,"DIS_CODE":0,"TOWNNAME":"安南區","LI":"海東里","LIN":"17鄰","STREET":"同安路","SECT":" ","MAREA":" ","LANE":" ","ALLEY":" ","HOUSE_NO":"３７５號","E_COORD97":167277.64999999999,"N_COORD97":2549348.4700000002,"ADDRESS":"同安路３７５號","OBJECTID":306905},"geometry":{"x":167277.6500000013,"y":2549348.4700000025}},{"attributes":{"ID":306914,"DIS_CODE":0,"TOWNNAME":"新營區","LI":"土庫里","LIN":"8鄰","STREET":" ","SECT":" ","MAREA":"土庫","LANE":" ","ALLEY":" ","HOUSE_NO":"７１號之２","E_COORD97":182963.39999999999,"N_COORD97":2579901.29,"ADDRESS":"土庫７１號之２","OBJECTID":306906},"geometry":{"x":182963.40000000037,"y":2579901.2899999991}},{"attributes":{"ID":306915,"DIS_CODE":0,"TOWNNAME":"新營區","LI":"護鎮里","LIN":" ","STREET":" ","SECT":" ","MAREA":"後鎮","LANE":" ","ALLEY":" ","HOUSE_NO":"１１３之５號","E_COORD97":176357.17000000001,"N_COORD97":2579615.96,"ADDRESS":"後鎮１１３之５號","OBJECTID":306907},"geometry":{"x":176357.16999999993,"y":2579615.9600000028}},{"attributes":{"ID":306916,"DIS_CODE":0,"TOWNNAME":"新營區","LI":"土庫里","LIN":" ","STREET":" ","SECT":" ","MAREA":"土庫","LANE":" ","ALLEY":" ","HOUSE_NO":"６４之１號","E_COORD97":183180.85000000001,"N_COORD97":2579818.3599999999,"ADDRESS":"土庫６４之１號","OBJECTID":306908},"geometry":{"x":183180.85000000149,"y":2579818.3600000013}},{"attributes":{"ID":306917,"DIS_CODE":0,"TOWNNAME":"新營區","LI":"大宏里","LIN":"10鄰","STREET":"民族路","SECT":" ","MAREA":" ","LANE":" ","ALLEY":" ","HOUSE_NO":"４５號之１","E_COORD97":180267.64000000001,"N_COORD97":2578853.9199999999,"ADDRESS":"民族路４５號之１","OBJECTID":306909},"geometry":{"x":180267.63999999966,"y":2578853.9199999981}},{"attributes":{"ID":306918,"DIS_CODE":0,"TOWNNAME":"新營區","LI":"南興里","LIN":"6鄰","STREET":"和平路","SECT":" ","MAREA":" ","LANE":"９７巷","ALLEY":" ","HOUSE_NO":"２１號之１","E_COORD97":179477.07000000001,"N_COORD97":2577585.2000000002,"ADDRESS":"和平路９７巷２１之１號","OBJECTID":306910},"geometry":{"x":179477.0700000003,"y":2577585.1999999993}},{"attributes":{"ID":306919,"DIS_CODE":0,"TOWNNAME":"新營區","LI":"好平里","LIN":"5鄰","STREET":"南昌街","SECT":" ","MAREA":" ","LANE":"４０巷","ALLEY":" ","HOUSE_NO":"９號","E_COORD97":179500.809756,"N_COORD97":2577687.97627,"ADDRESS":"南昌街４０巷９號","OBJECTID":306911},"geometry":{"x":179500.80975600053,"y":2577687.9762660023}},{"attributes":{"ID":306920,"DIS_CODE":0,"TOWNNAME":"新營區","LI":"新南里","LIN":"25鄰","STREET":"隋唐街","SECT":" ","MAREA":" ","LANE":"２９５巷","ALLEY":" ","HOUSE_NO":"６號","E_COORD97":178148.23999999999,"N_COORD97":2578571.6099999999,"ADDRESS":"隋唐街２９５巷６號","OBJECTID":306912},"geometry":{"x":178148.24000000115,"y":2578571.6100000013}},{"attributes":{"ID":306921,"DIS_CODE":0,"TOWNNAME":"新營區","LI":"護鎮里","LIN":"4鄰","STREET":" ","SECT":" ","MAREA":"後鎮","LANE":" ","ALLEY":" ","HOUSE_NO":"４３號之９","E_COORD97":179183.57999999999,"N_COORD97":2581236.77,"ADDRESS":"後鎮４３之９號","OBJECTID":306913},"geometry":{"x":179183.58000000007,"y":2581236.7699999996}},{"attributes":{"ID":306922,"DIS_CODE":0,"TOWNNAME":"安南區","LI":"海東里","LIN":"8鄰","STREET":"海佃路","SECT":"二段","MAREA":" ","LANE":"５０９巷","ALLEY":" ","HOUSE_NO":"２１號","E_COORD97":166629.26999999999,"N_COORD97":2549155.1400000001,"ADDRESS":"海佃路二段５０９巷２１號","OBJECTID":306914},"geometry":{"x":166629.26999999862,"y":2549155.1400000025}},{"attributes":{"ID":306923,"DIS_CODE":0,"TOWNNAME":"安南區","LI":"海東里","LIN":"8鄰","STREET":"海佃路","SECT":"二段","MAREA":" ","LANE":"５０９巷","ALLEY":" ","HOUSE_NO":"２３號","E_COORD97":166632.01000000001,"N_COORD97":2549151.9500000002,"ADDRESS":"海佃路二段５０９巷２３號","OBJECTID":306915},"geometry":{"x":166632.01000000071,"y":2549151.9499999993}},{"attributes":{"ID":306924,"DIS_CODE":0,"TOWNNAME":"新營區","LI":"角帶里","LIN":"6鄰","STREET":" ","SECT":" ","MAREA":"角帶圍","LANE":" ","ALLEY":" ","HOUSE_NO":"７９號之１","E_COORD97":174778.14999999999,"N_COORD97":2575660.2799999998,"ADDRESS":"角帶圍７９號之１","OBJECTID":306916},"geometry":{"x":174778.15000000224,"y":2575660.2799999993}},{"attributes":{"ID":306925,"DIS_CODE":0,"TOWNNAME":"新營區","LI":"姑爺里","LIN":"4鄰","STREET":" ","SECT":" ","MAREA":"姑爺","LANE":" ","ALLEY":" ","HOUSE_NO":"３４號","E_COORD97":174250.76000000001,"N_COORD97":2574233.1699999999,"ADDRESS":"姑爺３４號","OBJECTID":306917},"geometry":{"x":174250.75999999978,"y":2574233.1699999999}},{"attributes":{"ID":306926,"DIS_CODE":0,"TOWNNAME":"安南區","LI":"海東里","LIN":"8鄰","STREET":"海佃路","SECT":"二段","MAREA":" ","LANE":"５０９巷","ALLEY":" ","HOUSE_NO":"２５號","E_COORD97":166634.67000000001,"N_COORD97":2549148.6800000002,"ADDRESS":"海佃路二段５０９巷２５號","OBJECTID":306918},"geometry":{"x":166634.67000000086,"y":2549148.6799999997}},{"attributes":{"ID":306927,"DIS_CODE":0,"TOWNNAME":"中西區","LI":"小西里","LIN":"8鄰","STREET":"西門路","SECT":"一段","MAREA":" ","LANE":"６７６巷","ALLEY":" ","HOUSE_NO":"１１號","E_COORD97":167782.73999999999,"N_COORD97":2543311.3199999998,"ADDRESS":"西門路一段６７６巷１１號","OBJECTID":306919},"geometry":{"x":167782.74000000022,"y":2543311.3200000022}},{"attributes":{"ID":306928,"DIS_CODE":0,"TOWNNAME":"中西區","LI":"小西里","LIN":"8鄰","STREET":"西門路","SECT":"一段","MAREA":" ","LANE":"６７６巷","ALLEY":" ","HOUSE_NO":"１３號","E_COORD97":167787.45000000001,"N_COORD97":2543309.9500000002,"ADDRESS":"西門路一段６７６巷１３號","OBJECTID":306920},"geometry":{"x":167787.45000000112,"y":2543309.9500000011}},{"attributes":{"ID":306929,"DIS_CODE":0,"TOWNNAME":"中西區","LI":"小西里","LIN":"8鄰","STREET":"西門路","SECT":"一段","MAREA":" ","LANE":"６７６巷","ALLEY":" ","HOUSE_NO":"１５號","E_COORD97":167792.76000000001,"N_COORD97":2543310.6400000001,"ADDRESS":"西門路一段６７６巷１５號","OBJECTID":306921},"geometry":{"x":167792.76000000071,"y":2543310.6400000006}},{"attributes":{"ID":306930,"DIS_CODE":0,"TOWNNAME":"中西區","LI":"小西里","LIN":"8鄰","STREET":"西門路","SECT":"一段","MAREA":" ","LANE":"６７６巷","ALLEY":" ","HOUSE_NO":"１７號","E_COORD97":167789.60999999999,"N_COORD97":2543319.8599999999,"ADDRESS":"西門路一段６７６巷１７號","OBJECTID":306922},"geometry":{"x":167789.61000000127,"y":2543319.8600000013}},{"attributes":{"ID":306931,"DIS_CODE":0,"TOWNNAME":"安南區","LI":"海東里","LIN":"17鄰","STREET":"同安路","SECT":" ","MAREA":" ","LANE":" ","ALLEY":" ","HOUSE_NO":"３７７號","E_COORD97":167281.47,"N_COORD97":2549351.6899999999,"ADDRESS":"同安路３７７號","OBJECTID":306923},"geometry":{"x":167281.47000000067,"y":2549351.6899999995}},{"attributes":{"ID":306932,"DIS_CODE":0,"TOWNNAME":"安南區","LI":"海東里","LIN":"17鄰","STREET":"同安路","SECT":" ","MAREA":" ","LANE":" ","ALLEY":" ","HOUSE_NO":"３７９號","E_COORD97":167284.28,"N_COORD97":2549354.46,"ADDRESS":"同安路３７９號","OBJECTID":306924},"geometry":{"x":167284.27999999933,"y":2549354.4600000009}},{"attributes":{"ID":306933,"DIS_CODE":0,"TOWNNAME":"安南區","LI":"海東里","LIN":"17鄰","STREET":"同安路","SECT":" ","MAREA":" ","LANE":" ","ALLEY":" ","HOUSE_NO":"３８１號","E_COORD97":167286.60999999999,"N_COORD97":2549358.7599999998,"ADDRESS":"同安路３８１號","OBJECTID":306925},"geometry":{"x":167286.61000000034,"y":2549358.7600000035}},{"attributes":{"ID":306934,"DIS_CODE":0,"TOWNNAME":"安南區","LI":"海東里","LIN":"17鄰","STREET":"同安路","SECT":" ","MAREA":" ","LANE":" ","ALLEY":" ","HOUSE_NO":"３８３號","E_COORD97":167288.34,"N_COORD97":2549362.5699999998,"ADDRESS":"同安路３８３號","OBJECTID":306926},"geometry":{"x":167288.33999999985,"y":2549362.5700000003}},{"attributes":{"ID":306935,"DIS_CODE":0,"TOWNNAME":"新營區","LI":"土庫里","LIN":"1鄰","STREET":" ","SECT":" ","MAREA":"土庫","LANE":" ","ALLEY":" ","HOUSE_NO":"４號之１","E_COORD97":182991.13,"N_COORD97":2579964.29,"ADDRESS":"土庫４號之１","OBJECTID":306927},"geometry":{"x":182991.13000000082,"y":2579964.290000001}},{"attributes":{"ID":306936,"DIS_CODE":0,"TOWNNAME":"新營區","LI":"太南里","LIN":"14鄰","STREET":" ","SECT":" ","MAREA":"太子宮","LANE":" ","ALLEY":" ","HOUSE_NO":"２９２號","E_COORD97":176190.57000000001,"N_COORD97":2576637.6499999999,"ADDRESS":"太子宮２９２號","OBJECTID":306928},"geometry":{"x":176190.56999999937,"y":2576637.6500000004}},{"attributes":{"ID":306937,"DIS_CODE":0,"TOWNNAME":"新營區","LI":"舊部里","LIN":"4鄰","STREET":" ","SECT":" ","MAREA":"舊部","LANE":" ","ALLEY":" ","HOUSE_NO":"３９號之３","E_COORD97":177160.51000000001,"N_COORD97":2575420.2599999998,"ADDRESS":"舊部３９號之３","OBJECTID":306929},"geometry":{"x":177160.51000000071,"y":2575420.2599999998}},{"attributes":{"ID":306938,"DIS_CODE":0,"TOWNNAME":"新營區","LI":"埤寮里","LIN":"5鄰","STREET":" ","SECT":" ","MAREA":"埤寮","LANE":" ","ALLEY":" ","HOUSE_NO":"１３號之４","E_COORD97":180199.42000000001,"N_COORD97":2580888.6200000001,"ADDRESS":"埤寮１３號之４","OBJECTID":306930},"geometry":{"x":180199.42000000086,"y":2580888.6200000029}},{"attributes":{"ID":306939,"DIS_CODE":0,"TOWNNAME":"新營區","LI":"太南里","LIN":" ","STREET":" ","SECT":" ","MAREA":"太子宮","LANE":" ","ALLEY":" ","HOUSE_NO":"３１８之４號","E_COORD97":175831.32999999999,"N_COORD97":2575486.6499999999,"ADDRESS":"太子宮３１８之４號","OBJECTID":306931},"geometry":{"x":175831.33000000101,"y":2575486.6500000022}},{"attributes":{"ID":306940,"DIS_CODE":0,"TOWNNAME":"新營區","LI":"大宏里","LIN":"13鄰","STREET":"文昌街","SECT":" ","MAREA":" ","LANE":" ","ALLEY":" ","HOUSE_NO":"５８號之５","E_COORD97":180234.53,"N_COORD97":2578352.3999999999,"ADDRESS":"文昌街５８號之５","OBJECTID":306932},"geometry":{"x":180234.53000000119,"y":2578352.4000000004}},{"attributes":{"ID":306941,"DIS_CODE":0,"TOWNNAME":"新營區","LI":"太北里","LIN":"18鄰","STREET":" ","SECT":" ","MAREA":"太子宮","LANE":" ","ALLEY":" ","HOUSE_NO":"８號之１７","E_COORD97":176215.98000000001,"N_COORD97":2577232.29,"ADDRESS":"太子宮８號之１７","OBJECTID":306933},"geometry":{"x":176215.98000000138,"y":2577232.2899999991}},{"attributes":{"ID":306942,"DIS_CODE":0,"TOWNNAME":"新營區","LI":"姑爺里","LIN":"4鄰","STREET":" ","SECT":" ","MAREA":"姑爺","LANE":" ","ALLEY":" ","HOUSE_NO":"３０之２號","E_COORD97":174198.23000000001,"N_COORD97":2574277.8100000001,"ADDRESS":"姑爺３０之２號","OBJECTID":306934},"geometry":{"x":174198.23000000138,"y":2574277.8100000005}},{"attributes":{"ID":306943,"DIS_CODE":0,"TOWNNAME":"新營區","LI":"王公里","LIN":"1","STREET":"民治路","SECT":" ","MAREA":" ","LANE":" ","ALLEY":" ","HOUSE_NO":"２８號之５","E_COORD97":180159.35999999999,"N_COORD97":2578885.4300000002,"ADDRESS":"民治路２８號之５","OBJECTID":306935},"geometry":{"x":180159.36000000127,"y":2578885.4300000016}},{"attributes":{"ID":306944,"DIS_CODE":0,"TOWNNAME":"新營區","LI":"王公里","LIN":"31鄰","STREET":"大勇街","SECT":" ","MAREA":" ","LANE":" ","ALLEY":" ","HOUSE_NO":"４２之１號","E_COORD97":180284.20999999999,"N_COORD97":2579428.54,"ADDRESS":"大勇街４２之１號","OBJECTID":306936},"geometry":{"x":180284.20999999996,"y":2579428.5399999972}},{"attributes":{"ID":306945,"DIS_CODE":0,"TOWNNAME":"新營區","LI":"新東里","LIN":" ","STREET":"開元路","SECT":" ","MAREA":" ","LANE":"１２５巷","ALLEY":" ","HOUSE_NO":"３號","E_COORD97":181042.81,"N_COORD97":2578967.6099999999,"ADDRESS":"開元路１２５巷３號","OBJECTID":306937},"geometry":{"x":181042.80999999959,"y":2578967.6100000031}},{"attributes":{"ID":306946,"DIS_CODE":0,"TOWNNAME":"新營區","LI":"民生里","LIN":"18鄰","STREET":"民治路","SECT":" ","MAREA":" ","LANE":"１８３巷","ALLEY":" ","HOUSE_NO":"５８號之１","E_COORD97":178896.16,"N_COORD97":2578332.1800000002,"ADDRESS":"民治路１８３巷５８號之１","OBJECTID":306938},"geometry":{"x":178896.16000000108,"y":2578332.1799999997}},{"attributes":{"ID":306947,"DIS_CODE":0,"TOWNNAME":"中西區","LI":"小西里","LIN":"8鄰","STREET":"西門路","SECT":"一段","MAREA":" ","LANE":"６７６巷","ALLEY":" ","HOUSE_NO":"１９號","E_COORD97":167790.79000000001,"N_COORD97":2543324.3700000001,"ADDRESS":"西門路一段６７６巷１９號","OBJECTID":306939},"geometry":{"x":167790.79000000004,"y":2543324.3700000048}},{"attributes":{"ID":306948,"DIS_CODE":0,"TOWNNAME":"中西區","LI":"小西里","LIN":"8鄰","STREET":"西門路","SECT":"一段","MAREA":" ","LANE":"６７６巷","ALLEY":" ","HOUSE_NO":"７號","E_COORD97":167775.07999999999,"N_COORD97":2543311.52,"ADDRESS":"西門路一段６７６巷７號","OBJECTID":306940},"geometry":{"x":167775.08000000007,"y":2543311.5199999977}},{"attributes":{"ID":306949,"DIS_CODE":0,"TOWNNAME":"安南區","LI":"海東里","LIN":"17鄰","STREET":"同安路","SECT":" ","MAREA":" ","LANE":" ","ALLEY":" ","HOUSE_NO":"３８５號","E_COORD97":167290.42999999999,"N_COORD97":2549366.7999999998,"ADDRESS":"同安路３８５號","OBJECTID":306941},"geometry":{"x":167290.43000000063,"y":2549366.8000000026}},{"attributes":{"ID":306950,"DIS_CODE":0,"TOWNNAME":"安南區","LI":"學東里","LIN":"17鄰","STREET":"城北路","SECT":" ","MAREA":" ","LANE":" ","ALLEY":" ","HOUSE_NO":"５５４號之８０","E_COORD97":160934.29000000001,"N_COORD97":2552610.8999999999,"ADDRESS":"城北路５５４號之８０","OBJECTID":306942},"geometry":{"x":160934.29000000097,"y":2552610.9000000022}},{"attributes":{"ID":306951,"DIS_CODE":0,"TOWNNAME":"安南區","LI":"長安里","LIN":"17鄰","STREET":"長溪路","SECT":"三段","MAREA":" ","LANE":" ","ALLEY":" ","HOUSE_NO":"２６７號","E_COORD97":167774.59,"N_COORD97":2551785.6899999999,"ADDRESS":"長溪路三段２６７號","OBJECTID":306943},"geometry":{"x":167774.58999999985,"y":2551785.6899999995}},{"attributes":{"ID":306952,"DIS_CODE":0,"TOWNNAME":"新市區","LI":"港墘里","LIN":"17鄰","STREET":"南港街","SECT":" ","MAREA":" ","LANE":" ","ALLEY":" ","HOUSE_NO":"４２號","E_COORD97":178152.44,"N_COORD97":2552765.5,"ADDRESS":"南港街４２號","OBJECTID":306944},"geometry":{"x":178152.44000000041,"y":2552765.5000000019}},{"attributes":{"ID":306953,"DIS_CODE":0,"TOWNNAME":"新營區","LI":"五興里","LIN":" ","STREET":" ","SECT":" ","MAREA":"舊部","LANE":" ","ALLEY":" ","HOUSE_NO":"２之６０號","E_COORD97":176181.67999999999,"N_COORD97":2574804.9199999999,"ADDRESS":"舊部２之６０號","OBJECTID":306945},"geometry":{"x":176181.68000000063,"y":2574804.9199999999}},{"attributes":{"ID":306954,"DIS_CODE":0,"TOWNNAME":"新營區","LI":"太北里","LIN":"20鄰","STREET":" ","SECT":" ","MAREA":"太子宮","LANE":" ","ALLEY":" ","HOUSE_NO":"１４０之６３號","E_COORD97":175200.73000000001,"N_COORD97":2576395.7200000002,"ADDRESS":"太子宮１４０之６３號","OBJECTID":306946},"geometry":{"x":175200.73000000045,"y":2576395.7200000025}},{"attributes":{"ID":306955,"DIS_CODE":0,"TOWNNAME":"新營區","LI":"南興里","LIN":"3鄰","STREET":"南昌街","SECT":" ","MAREA":" ","LANE":" ","ALLEY":" ","HOUSE_NO":"１９號之９","E_COORD97":179604.17000000001,"N_COORD97":2577652.1400000001,"ADDRESS":"南昌街１９號之９","OBJECTID":306947},"geometry":{"x":179604.17000000086,"y":2577652.1400000006}},{"attributes":{"ID":306956,"DIS_CODE":0,"TOWNNAME":"新營區","LI":"太南里","LIN":" ","STREET":" ","SECT":" ","MAREA":"太子宮","LANE":" ","ALLEY":" ","HOUSE_NO":"３１０之２號","E_COORD97":176065.26000000001,"N_COORD97":2576646.0899999999,"ADDRESS":"太子宮３１０之２號","OBJECTID":306948},"geometry":{"x":176065.26000000071,"y":2576646.0900000017}},{"attributes":{"ID":306957,"DIS_CODE":0,"TOWNNAME":"新營區","LI":"護鎮里","LIN":" ","STREET":" ","SECT":" ","MAREA":"後鎮","LANE":" ","ALLEY":" ","HOUSE_NO":"６６之１號","E_COORD97":179077.5,"N_COORD97":2581095.52,"ADDRESS":"後鎮６６之１號","OBJECTID":306949},"geometry":{"x":179077.5,"y":2581095.5200000014}},{"attributes":{"ID":306958,"DIS_CODE":0,"TOWNNAME":"新營區","LI":"太南里","LIN":"20鄰","STREET":" ","SECT":" ","MAREA":"太子宮","LANE":" ","ALLEY":" ","HOUSE_NO":"３２１號之７","E_COORD97":176288.64000000001,"N_COORD97":2576777.8799999999,"ADDRESS":"太子宮３２１號之７","OBJECTID":306950},"geometry":{"x":176288.6400000006,"y":2576777.879999999}},{"attributes":{"ID":306959,"DIS_CODE":0,"TOWNNAME":"新營區","LI":"舊部里","LIN":"4鄰","STREET":" ","SECT":" ","MAREA":"舊部","LANE":" ","ALLEY":" ","HOUSE_NO":"３９號之７","E_COORD97":177184.39999999999,"N_COORD97":2575497.6499999999,"ADDRESS":"舊部３９號之７","OBJECTID":306951},"geometry":{"x":177184.4000000013,"y":2575497.6500000022}},{"attributes":{"ID":306960,"DIS_CODE":0,"TOWNNAME":"新營區","LI":"大宏里","LIN":"15鄰","STREET":"大同路","SECT":" ","MAREA":" ","LANE":" ","ALLEY":" ","HOUSE_NO":"４１號之１０","E_COORD97":180666.73000000001,"N_COORD97":2578846.5099999998,"ADDRESS":"大同路４１號之１０","OBJECTID":306952},"geometry":{"x":180666.73000000231,"y":2578846.5100000035}},{"attributes":{"ID":306961,"DIS_CODE":0,"TOWNNAME":"新營區","LI":"王公里","LIN":"22鄰","STREET":"義和街","SECT":" ","MAREA":" ","LANE":" ","ALLEY":" ","HOUSE_NO":"６０號之９","E_COORD97":180542.62,"N_COORD97":2579488.2999999998,"ADDRESS":"義和街６０號之９","OBJECTID":306953},"geometry":{"x":180542.62000000011,"y":2579488.3000000007}},{"attributes":{"ID":306962,"DIS_CODE":0,"TOWNNAME":"新營區","LI":"大宏里","LIN":"10鄰","STREET":"民族路","SECT":" ","MAREA":" ","LANE":" ","ALLEY":" ","HOUSE_NO":"３９號之１","E_COORD97":180269.57000000001,"N_COORD97":2578826.2200000002,"ADDRESS":"民族路３９號之１","OBJECTID":306954},"geometry":{"x":180269.57000000123,"y":2578826.2200000025}},{"attributes":{"ID":306963,"DIS_CODE":0,"TOWNNAME":"新營區","LI":"南興里","LIN":"6鄰","STREET":"和平路","SECT":" ","MAREA":" ","LANE":"９７巷","ALLEY":" ","HOUSE_NO":"１１號之１","E_COORD97":179453.48000000001,"N_COORD97":2577585.3100000001,"ADDRESS":"和平路９７巷１１之１號","OBJECTID":306955},"geometry":{"x":179453.48000000138,"y":2577585.3100000024}},{"attributes":{"ID":306964,"DIS_CODE":0,"TOWNNAME":"新營區","LI":"新北里","LIN":"26鄰","STREET":"民治路","SECT":" ","MAREA":" ","LANE":"１５６巷","ALLEY":" ","HOUSE_NO":"３號","E_COORD97":179123.91,"N_COORD97":2578739.6800000002,"ADDRESS":"民治路１５６巷３號","OBJECTID":306956},"geometry":{"x":179123.91000000015,"y":2578739.6799999997}},{"attributes":{"ID":306965,"DIS_CODE":0,"TOWNNAME":"中西區","LI":"小西里","LIN":"8鄰","STREET":"西門路","SECT":"一段","MAREA":" ","LANE":"６７６巷","ALLEY":" ","HOUSE_NO":"９號","E_COORD97":167778.01999999999,"N_COORD97":2543308.0899999999,"ADDRESS":"西門路一段６７６巷９號","OBJECTID":306957},"geometry":{"x":167778.01999999955,"y":2543308.0900000036}},{"attributes":{"ID":306966,"DIS_CODE":0,"TOWNNAME":"中西區","LI":"小西里","LIN":"8鄰","STREET":"西門路","SECT":"一段","MAREA":" ","LANE":"７０２巷","ALLEY":" ","HOUSE_NO":"１０號","E_COORD97":167781.48999999999,"N_COORD97":2543343.7000000002,"ADDRESS":"西門路一段７０２巷１０號","OBJECTID":306958},"geometry":{"x":167781.49000000115,"y":2543343.6999999993}},{"attributes":{"ID":306967,"DIS_CODE":0,"TOWNNAME":"中西區","LI":"小西里","LIN":"8鄰","STREET":"西門路","SECT":"一段","MAREA":" ","LANE":"７０２巷","ALLEY":" ","HOUSE_NO":"２號","E_COORD97":167772.64999999999,"N_COORD97":2543340.5600000001,"ADDRESS":"西門路一段７０２巷２號","OBJECTID":306959},"geometry":{"x":167772.6500000013,"y":2543340.5600000024}},{"attributes":{"ID":306968,"DIS_CODE":0,"TOWNNAME":"中西區","LI":"小西里","LIN":"8鄰","STREET":"西門路","SECT":"一段","MAREA":" ","LANE":"７０２巷","ALLEY":" ","HOUSE_NO":"４號","E_COORD97":167769.51000000001,"N_COORD97":2543350.3799999999,"ADDRESS":"西門路一段７０２巷４號","OBJECTID":306960},"geometry":{"x":167769.51000000071,"y":2543350.3800000008}},{"attributes":{"ID":306969,"DIS_CODE":0,"TOWNNAME":"新市區","LI":"永就里","LIN":"17鄰","STREET":"永華二街","SECT":" ","MAREA":" ","LANE":" ","ALLEY":" ","HOUSE_NO":"４２號","E_COORD97":177607.26000000001,"N_COORD97":2551061,"ADDRESS":"永華二街４２號","OBJECTID":306961},"geometry":{"x":177607.25999999978,"y":2551061}},{"attributes":{"ID":306970,"DIS_CODE":0,"TOWNNAME":"新市區","LI":"港墘里","LIN":"17鄰","STREET":"南港街","SECT":" ","MAREA":" ","LANE":" ","ALLEY":" ","HOUSE_NO":"１５號","E_COORD97":178236.34,"N_COORD97":2552759.5,"ADDRESS":"南港街１５號","OBJECTID":306962},"geometry":{"x":178236.34000000078,"y":2552759.5000000019}},{"attributes":{"ID":306971,"DIS_CODE":0,"TOWNNAME":"新市區","LI":"港墘里","LIN":"17鄰","STREET":"南港街","SECT":" ","MAREA":" ","LANE":" ","ALLEY":" ","HOUSE_NO":"３１號","E_COORD97":178199.13,"N_COORD97":2552755.25,"ADDRESS":"南港街３１號","OBJECTID":306963},"geometry":{"x":178199.13000000082,"y":2552755.25}},{"attributes":{"ID":306972,"DIS_CODE":0,"TOWNNAME":"新市區","LI":"港墘里","LIN":"17鄰","STREET":"南港街","SECT":" ","MAREA":" ","LANE":" ","ALLEY":" ","HOUSE_NO":"２４號","E_COORD97":178209.38,"N_COORD97":2552770,"ADDRESS":"南港街２４號","OBJECTID":306964},"geometry":{"x":178209.38000000082,"y":2552770}},{"attributes":{"ID":306973,"DIS_CODE":0,"TOWNNAME":"新市區","LI":"港墘里","LIN":"17鄰","STREET":"南港街","SECT":" ","MAREA":" ","LANE":" ","ALLEY":" ","HOUSE_NO":"１６號","E_COORD97":178233.17999999999,"N_COORD97":2552772.5,"ADDRESS":"南港街１６號","OBJECTID":306965},"geometry":{"x":178233.1799999997,"y":2552772.5000000019}},{"attributes":{"ID":306974,"DIS_CODE":0,"TOWNNAME":"新市區","LI":"港墘里","LIN":"17鄰","STREET":"南港街","SECT":" ","MAREA":" ","LANE":" ","ALLEY":" ","HOUSE_NO":"１４號","E_COORD97":178237.17999999999,"N_COORD97":2552772.9900000002,"ADDRESS":"南港街１４號","OBJECTID":306966},"geometry":{"x":178237.18000000156,"y":2552772.9900000021}},{"attributes":{"ID":306975,"DIS_CODE":0,"TOWNNAME":"新市區","LI":"港墘里","LIN":"17鄰","STREET":"南港街","SECT":" ","MAREA":" ","LANE":" ","ALLEY":" ","HOUSE_NO":"５０號","E_COORD97":178139.45999999999,"N_COORD97":2552763.75,"ADDRESS":"南港街５０號","OBJECTID":306967},"geometry":{"x":178139.46000000089,"y":2552763.7500000019}},{"attributes":{"ID":306976,"DIS_CODE":0,"TOWNNAME":"新營區","LI":"嘉芳里","LIN":" ","STREET":" ","SECT":" ","MAREA":"茄苳腳","LANE":" ","ALLEY":" ","HOUSE_NO":"３０號","E_COORD97":177019.20000000001,"N_COORD97":2578341.25,"ADDRESS":"茄苳腳３０號","OBJECTID":306968},"geometry":{"x":177019.20000000112,"y":2578341.2500000019}},{"attributes":{"ID":306977,"DIS_CODE":0,"TOWNNAME":"新營區","LI":"王公里","LIN":"4鄰","STREET":"民治路","SECT":" ","MAREA":" ","LANE":" ","ALLEY":" ","HOUSE_NO":"２０號之３","E_COORD97":180314.85999999999,"N_COORD97":2578892.4500000002,"ADDRESS":"民治路２０號之３","OBJECTID":306969},"geometry":{"x":180314.8600000022,"y":2578892.4499999993}},{"attributes":{"ID":306978,"DIS_CODE":0,"TOWNNAME":"新營區","LI":"大宏里","LIN":"8鄰","STREET":"文昌街","SECT":" ","MAREA":" ","LANE":" ","ALLEY":" ","HOUSE_NO":"２２號之１０","E_COORD97":180414.09,"N_COORD97":2578413.5800000001,"ADDRESS":"文昌街２２號之１０","OBJECTID":306970},"geometry":{"x":180414.08999999985,"y":2578413.5800000019}},{"attributes":{"ID":306979,"DIS_CODE":0,"TOWNNAME":"新營區","LI":"護鎮里","LIN":"4鄰","STREET":" ","SECT":" ","MAREA":"後鎮","LANE":" ","ALLEY":" ","HOUSE_NO":"４３號之１５","E_COORD97":179147.01000000001,"N_COORD97":2581241.3799999999,"ADDRESS":"後鎮４３之１５號","OBJECTID":306971},"geometry":{"x":179147.01000000164,"y":2581241.3800000008}},{"attributes":{"ID":306980,"DIS_CODE":0,"TOWNNAME":"新營區","LI":"護鎮里","LIN":"2鄰","STREET":" ","SECT":" ","MAREA":"後鎮","LANE":" ","ALLEY":" ","HOUSE_NO":"１７號之４","E_COORD97":179317.16,"N_COORD97":2580957.0499999998,"ADDRESS":"後鎮１７之４號","OBJECTID":306972},"geometry":{"x":179317.16000000015,"y":2580957.0500000026}},{"attributes":{"ID":306981,"DIS_CODE":0,"TOWNNAME":"新營區","LI":"鐵線里","LIN":" ","STREET":" ","SECT":" ","MAREA":"鐵線橋","LANE":" ","ALLEY":" ","HOUSE_NO":"６之１４號","E_COORD97":176031.09,"N_COORD97":2573957.3599999999,"ADDRESS":"鐵線橋６之１４號","OBJECTID":306973},"geometry":{"x":176031.09000000078,"y":2573957.3599999994}},{"attributes":{"ID":306982,"DIS_CODE":0,"TOWNNAME":"新營區","LI":"好平里","LIN":"5鄰","STREET":"長春街","SECT":" ","MAREA":" ","LANE":"１１３巷","ALLEY":" ","HOUSE_NO":"６號","E_COORD97":179495.70999999999,"N_COORD97":2577787.7000000002,"ADDRESS":"長春街１１３巷６號","OBJECTID":306974},"geometry":{"x":179495.71000000089,"y":2577787.7000000011}},{"attributes":{"ID":306983,"DIS_CODE":0,"TOWNNAME":"新營區","LI":"埤寮里","LIN":"12鄰","STREET":" ","SECT":" ","MAREA":"埤寮","LANE":" ","ALLEY":" ","HOUSE_NO":"９８號之３","E_COORD97":180591.42999999999,"N_COORD97":2580743.9199999999,"ADDRESS":"埤寮９８號之３","OBJECTID":306975},"geometry":{"x":180591.4299999997,"y":2580743.9200000018}},{"attributes":{"ID":306984,"DIS_CODE":0,"TOWNNAME":"新營區","LI":"忠政里","LIN":"20鄰","STREET":"府西路","SECT":" ","MAREA":" ","LANE":"２５７巷","ALLEY":" ","HOUSE_NO":"２７號","E_COORD97":179713.60999999999,"N_COORD97":2579671.5600000001,"ADDRESS":"府西路２５７巷２７號","OBJECTID":306976},"geometry":{"x":179713.61000000127,"y":2579671.5600000024}},{"attributes":{"ID":306985,"DIS_CODE":0,"TOWNNAME":"中西區","LI":"小西里","LIN":"8鄰","STREET":"西門路","SECT":"一段","MAREA":" ","LANE":"７０２巷","ALLEY":" ","HOUSE_NO":"６號","E_COORD97":167775.79000000001,"N_COORD97":2543335.8500000001,"ADDRESS":"西門路一段７０２巷６號","OBJECTID":306977},"geometry":{"x":167775.7900000019,"y":2543335.8499999996}},{"attributes":{"ID":306986,"DIS_CODE":0,"TOWNNAME":"中西區","LI":"小西里","LIN":"8鄰","STREET":"西門路","SECT":"一段","MAREA":" ","LANE":"７０２巷","ALLEY":" ","HOUSE_NO":"８號","E_COORD97":167784.63,"N_COORD97":2543337.23,"ADDRESS":"西門路一段７０２巷８號","OBJECTID":306978},"geometry":{"x":167784.62999999989,"y":2543337.2300000004}},{"attributes":{"ID":306987,"DIS_CODE":0,"TOWNNAME":"中西區","LI":"大南里","LIN":"8鄰","STREET":"南門路","SECT":" ","MAREA":" ","LANE":"４８巷","ALLEY":" ","HOUSE_NO":"１１號","E_COORD97":168325.22,"N_COORD97":2542869.8300000001,"ADDRESS":"南門路４８巷１１號","OBJECTID":306979},"geometry":{"x":168325.2200000016,"y":2542869.8300000019}},{"attributes":{"ID":306988,"DIS_CODE":0,"TOWNNAME":"新營區","LI":"舊部里","LIN":" ","STREET":" ","SECT":" ","MAREA":"舊部","LANE":" ","ALLEY":" ","HOUSE_NO":"４１號","E_COORD97":177200.14000000001,"N_COORD97":2575404.4900000002,"ADDRESS":"舊部４１號","OBJECTID":306980},"geometry":{"x":177200.1400000006,"y":2575404.4900000002}},{"attributes":{"ID":306989,"DIS_CODE":0,"TOWNNAME":"新營區","LI":"角帶里","LIN":" ","STREET":" ","SECT":" ","MAREA":"角帶圍","LANE":" ","ALLEY":" ","HOUSE_NO":"１４之２號","E_COORD97":174735.26000000001,"N_COORD97":2576083.5499999998,"ADDRESS":"角帶圍１４之２號","OBJECTID":306981},"geometry":{"x":174735.25999999978,"y":2576083.5500000007}},{"attributes":{"ID":306990,"DIS_CODE":0,"TOWNNAME":"中西區","LI":"大南里","LIN":"8鄰","STREET":"南門路","SECT":" ","MAREA":" ","LANE":"４８巷","ALLEY":" ","HOUSE_NO":"１３號","E_COORD97":168315.35000000001,"N_COORD97":2542871.2400000002,"ADDRESS":"南門路４８巷１３號","OBJECTID":306982},"geometry":{"x":168315.34999999963,"y":2542871.2400000021}},{"attributes":{"ID":306991,"DIS_CODE":0,"TOWNNAME":"新營區","LI":"埤寮里","LIN":"5鄰","STREET":" ","SECT":" ","MAREA":"埤寮","LANE":" ","ALLEY":" ","HOUSE_NO":"１０號","E_COORD97":180181.98000000001,"N_COORD97":2580975.0299999998,"ADDRESS":"埤寮１０號","OBJECTID":306983},"geometry":{"x":180181.98000000231,"y":2580975.0300000031}},{"attributes":{"ID":306992,"DIS_CODE":0,"TOWNNAME":"中西區","LI":"大南里","LIN":"8鄰","STREET":"南門路","SECT":" ","MAREA":" ","LANE":"４８巷","ALLEY":" ","HOUSE_NO":"１５號","E_COORD97":168304.07999999999,"N_COORD97":2542873,"ADDRESS":"南門路４８巷１５號","OBJECTID":306984},"geometry":{"x":168304.08000000007,"y":2542873.0000000019}},{"attributes":{"ID":306993,"DIS_CODE":0,"TOWNNAME":"新市區","LI":"港墘里","LIN":"17鄰","STREET":"南港街","SECT":" ","MAREA":" ","LANE":" ","ALLEY":" ","HOUSE_NO":"４８號","E_COORD97":178144.07000000001,"N_COORD97":2552764.25,"ADDRESS":"南港街４８號","OBJECTID":306985},"geometry":{"x":178144.07000000123,"y":2552764.2500000019}},{"attributes":{"ID":306994,"DIS_CODE":0,"TOWNNAME":"新市區","LI":"港墘里","LIN":"17鄰","STREET":"南港街","SECT":" ","MAREA":" ","LANE":" ","ALLEY":" ","HOUSE_NO":"２３號","E_COORD97":178214.92999999999,"N_COORD97":2552757,"ADDRESS":"南港街２３號","OBJECTID":306986},"geometry":{"x":178214.9299999997,"y":2552757}},{"attributes":{"ID":306995,"DIS_CODE":0,"TOWNNAME":"安南區","LI":"安順里","LIN":"17鄰","STREET":"開安二街","SECT":" ","MAREA":" ","LANE":" ","ALLEY":" ","HOUSE_NO":"１５號","E_COORD97":170508.07999999999,"N_COORD97":2549788.3599999999,"ADDRESS":"開安二街１５號","OBJECTID":306987},"geometry":{"x":170508.08000000194,"y":2549788.3600000031}},{"attributes":{"ID":306996,"DIS_CODE":0,"TOWNNAME":"新營區","LI":"埤寮里","LIN":"5鄰","STREET":" ","SECT":" ","MAREA":"埤寮","LANE":" ","ALLEY":" ","HOUSE_NO":"４號之２","E_COORD97":180145.54000000001,"N_COORD97":2580987.4399999999,"ADDRESS":"埤寮４號之２","OBJECTID":306988},"geometry":{"x":180145.5400000019,"y":2580987.4400000013}},{"attributes":{"ID":306997,"DIS_CODE":0,"TOWNNAME":"新營區","LI":"埤寮里","LIN":"6鄰","STREET":" ","SECT":" ","MAREA":"埤寮","LANE":" ","ALLEY":" ","HOUSE_NO":"２１號之１","E_COORD97":180317.76999999999,"N_COORD97":2580814.98,"ADDRESS":"埤寮２１號之１","OBJECTID":306989},"geometry":{"x":180317.76999999955,"y":2580814.9800000023}},{"attributes":{"ID":306998,"DIS_CODE":0,"TOWNNAME":"新營區","LI":"太南里","LIN":"18鄰","STREET":" ","SECT":" ","MAREA":"太子宮","LANE":" ","ALLEY":" ","HOUSE_NO":"３０８之２號","E_COORD97":176013.35000000001,"N_COORD97":2576698.4100000001,"ADDRESS":"太子宮３０８之２號","OBJECTID":306990},"geometry":{"x":176013.34999999963,"y":2576698.410000002}},{"attributes":{"ID":306999,"DIS_CODE":0,"TOWNNAME":"新營區","LI":"興業里","LIN":" ","STREET":"中興路","SECT":" ","MAREA":" ","LANE":"１５巷","ALLEY":" ","HOUSE_NO":"１３之４號","E_COORD97":180210.04999999999,"N_COORD97":2577937.2200000002,"ADDRESS":"中興路１５巷１３之４號","OBJECTID":306991},"geometry":{"x":180210.05000000075,"y":2577937.2199999988}},{"attributes":{"ID":307000,"DIS_CODE":0,"TOWNNAME":"新營區","LI":"民榮里","LIN":"26鄰","STREET":"新進路","SECT":"二段","MAREA":" ","LANE":"４４５巷","ALLEY":" ","HOUSE_NO":"８號","E_COORD97":178603.98999999999,"N_COORD97":2578042.2599999998,"ADDRESS":"新進路二段４４５巷８號","OBJECTID":306992},"geometry":{"x":178603.99000000115,"y":2578042.2600000016}},{"attributes":{"ID":307001,"DIS_CODE":0,"TOWNNAME":"新營區","LI":"南興里","LIN":" ","STREET":"興農街","SECT":" ","MAREA":" ","LANE":"１４０巷","ALLEY":" ","HOUSE_NO":"５之１號","E_COORD97":179231,"N_COORD97":2577524.3500000001,"ADDRESS":"興農街１４０巷５之１號","OBJECTID":306993},"geometry":{"x":179231.00000000093,"y":2577524.3499999996}},{"attributes":{"ID":307002,"DIS_CODE":0,"TOWNNAME":"新營區","LI":"新南里","LIN":"18鄰","STREET":"隋唐街","SECT":" ","MAREA":" ","LANE":"３１巷","ALLEY":" ","HOUSE_NO":"２６號","E_COORD97":178684.64000000001,"N_COORD97":2578385.1800000002,"ADDRESS":"隋唐街３１巷２６號","OBJECTID":306994},"geometry":{"x":178684.63999999966,"y":2578385.1800000016}},{"attributes":{"ID":307003,"DIS_CODE":0,"TOWNNAME":"南區","LI":"大恩里","LIN":"13鄰","STREET":"國民路","SECT":" ","MAREA":" ","LANE":"１６５巷","ALLEY":" ","HOUSE_NO":"２４號","E_COORD97":169153.54000000001,"N_COORD97":2540817.1000000001,"ADDRESS":"國民路１６５巷２４號","OBJECTID":306995},"geometry":{"x":169153.54000000004,"y":2540817.1000000015}},{"attributes":{"ID":307004,"DIS_CODE":0,"TOWNNAME":"南區","LI":"大恩里","LIN":"13鄰","STREET":"國民路","SECT":" ","MAREA":" ","LANE":"１６５巷","ALLEY":" ","HOUSE_NO":"２６號","E_COORD97":169152.57000000001,"N_COORD97":2540812.5899999999,"ADDRESS":"國民路１６５巷２６號","OBJECTID":306996},"geometry":{"x":169152.57000000123,"y":2540812.589999998}},{"attributes":{"ID":307005,"DIS_CODE":0,"TOWNNAME":"南區","LI":"大恩里","LIN":"13鄰","STREET":"國民路","SECT":" ","MAREA":" ","LANE":"１６５巷","ALLEY":" ","HOUSE_NO":"２８號","E_COORD97":169150.95999999999,"N_COORD97":2540808.1899999999,"ADDRESS":"國民路１６５巷２８號","OBJECTID":306997},"geometry":{"x":169150.96000000183,"y":2540808.1899999976}},{"attributes":{"ID":307006,"DIS_CODE":0,"TOWNNAME":"中西區","LI":"大南里","LIN":"8鄰","STREET":"南門路","SECT":" ","MAREA":" ","LANE":"４８巷","ALLEY":" ","HOUSE_NO":"１７號","E_COORD97":168294.57000000001,"N_COORD97":2542874.4100000001,"ADDRESS":"南門路４８巷１７號","OBJECTID":306998},"geometry":{"x":168294.57000000216,"y":2542874.4100000001}},{"attributes":{"ID":307007,"DIS_CODE":0,"TOWNNAME":"中西區","LI":"大南里","LIN":"8鄰","STREET":"南門路","SECT":" ","MAREA":" ","LANE":"４８巷","ALLEY":" ","HOUSE_NO":"１９號","E_COORD97":168282.59,"N_COORD97":2542876.8700000001,"ADDRESS":"南門路４８巷１９號","OBJECTID":306999},"geometry":{"x":168282.59000000078,"y":2542876.8700000048}},{"attributes":{"ID":307008,"DIS_CODE":0,"TOWNNAME":"中西區","LI":"大南里","LIN":"8鄰","STREET":"南門路","SECT":" ","MAREA":" ","LANE":"４８巷","ALLEY":" ","HOUSE_NO":"１號","E_COORD97":168375.94,"N_COORD97":2542862.0899999999,"ADDRESS":"南門路４８巷１號","OBJECTID":307000},"geometry":{"x":168375.94000000134,"y":2542862.0900000017}}]}