{"displayFieldName":"TOWNNAME","fieldAliases":{"ID":"ID","DIS_CODE":"DIS_CODE","TOWNNAME":"TOWNNAME","LI":"LI","LIN":"LIN","STREET":"STREET","SECT":"SECT","MAREA":"MAREA","LANE":"LANE","ALLEY":"ALLEY","HOUSE_NO":"HOUSE_NO","E_COORD97":"E_COORD97","N_COORD97":"N_COORD97","ADDRESS":"ADDRESS","OBJECTID":"OBJECTID"},"geometryType":"esriGeometryPoint","spatialReference":{"wkid":102443,"latestWkid":3826},"fields":[{"name":"ID","type":"esriFieldTypeDouble","alias":"ID"},{"name":"DIS_CODE","type":"esriFieldTypeInteger","alias":"DIS_CODE"},{"name":"TOWNNAME","type":"esriFieldTypeString","alias":"TOWNNAME","length":8},{"name":"LI","type":"esriFieldTypeString","alias":"LI","length":8},{"name":"LIN","type":"esriFieldTypeString","alias":"LIN","length":12},{"name":"STREET","type":"esriFieldTypeString","alias":"STREET","length":20},{"name":"SECT","type":"esriFieldTypeString","alias":"SECT","length":8},{"name":"MAREA","type":"esriFieldTypeString","alias":"MAREA","length":12},{"name":"LANE","type":"esriFieldTypeString","alias":"LANE","length":10},{"name":"ALLEY","type":"esriFieldTypeString","alias":"ALLEY","length":10},{"name":"HOUSE_NO","type":"esriFieldTypeString","alias":"HOUSE_NO","length":20},{"name":"E_COORD97","type":"esriFieldTypeDouble","alias":"E_COORD97"},{"name":"N_COORD97","type":"esriFieldTypeDouble","alias":"N_COORD97"},{"name":"ADDRESS","type":"esriFieldTypeString","alias":"ADDRESS","length":50},{"name":"OBJECTID","type":"esriFieldTypeOID","alias":"OBJECTID"}],"features":[{"attributes":{"ID":155402,"DIS_CODE":0,"TOWNNAME":"麻豆區","LI":"謝安里","LIN":"5鄰","STREET":" ","SECT":" ","MAREA":"謝厝寮","LANE":" ","ALLEY":" ","HOUSE_NO":"４４號之２５","E_COORD97":172108.35999999999,"N_COORD97":2561018.3700000001,"ADDRESS":"謝厝寮４４號之２５","OBJECTID":155401},"geometry":{"x":172108.3599999994,"y":2561018.370000001}},{"attributes":{"ID":155403,"DIS_CODE":0,"TOWNNAME":"麻豆區","LI":"謝安里","LIN":"5鄰","STREET":" ","SECT":" ","MAREA":"謝厝寮","LANE":" ","ALLEY":" ","HOUSE_NO":"４４號之２６","E_COORD97":172110.42000000001,"N_COORD97":2561014.71,"ADDRESS":"謝厝寮４４號之２６","OBJECTID":155402},"geometry":{"x":172110.41999999993,"y":2561014.7100000009}},{"attributes":{"ID":155404,"DIS_CODE":0,"TOWNNAME":"麻豆區","LI":"謝安里","LIN":"5鄰","STREET":" ","SECT":" ","MAREA":"謝厝寮","LANE":" ","ALLEY":" ","HOUSE_NO":"４４號之２７","E_COORD97":172111.79000000001,"N_COORD97":2561010.96,"ADDRESS":"謝厝寮４４號之２７","OBJECTID":155403},"geometry":{"x":172111.79000000004,"y":2561010.9600000009}},{"attributes":{"ID":155405,"DIS_CODE":0,"TOWNNAME":"麻豆區","LI":"謝安里","LIN":"5鄰","STREET":" ","SECT":" ","MAREA":"謝厝寮","LANE":" ","ALLEY":" ","HOUSE_NO":"４４號之２８","E_COORD97":172113.51999999999,"N_COORD97":2561006.5499999998,"ADDRESS":"謝厝寮４４號之２８","OBJECTID":155404},"geometry":{"x":172113.52000000048,"y":2561006.5500000007}},{"attributes":{"ID":155406,"DIS_CODE":0,"TOWNNAME":"麻豆區","LI":"謝安里","LIN":"5鄰","STREET":" ","SECT":" ","MAREA":"謝厝寮","LANE":" ","ALLEY":" ","HOUSE_NO":"４４號之２９","E_COORD97":172115.26999999999,"N_COORD97":2561002.0299999998,"ADDRESS":"謝厝寮４４號之２９","OBJECTID":155405},"geometry":{"x":172115.27000000048,"y":2561002.0299999993}},{"attributes":{"ID":155407,"DIS_CODE":0,"TOWNNAME":"麻豆區","LI":"謝安里","LIN":"5鄰","STREET":" ","SECT":" ","MAREA":"謝厝寮","LANE":" ","ALLEY":" ","HOUSE_NO":"４４號之２","E_COORD97":172068.67000000001,"N_COORD97":2561101.54,"ADDRESS":"謝厝寮４４號之２","OBJECTID":155406},"geometry":{"x":172068.67000000179,"y":2561101.540000001}},{"attributes":{"ID":155408,"DIS_CODE":0,"TOWNNAME":"麻豆區","LI":"謝安里","LIN":"5鄰","STREET":" ","SECT":" ","MAREA":"謝厝寮","LANE":" ","ALLEY":" ","HOUSE_NO":"４４號之３０","E_COORD97":172117.19,"N_COORD97":2560998.2799999998,"ADDRESS":"謝厝寮４４號之３０","OBJECTID":155407},"geometry":{"x":172117.19000000134,"y":2560998.2800000012}},{"attributes":{"ID":155409,"DIS_CODE":0,"TOWNNAME":"麻豆區","LI":"謝安里","LIN":"5鄰","STREET":" ","SECT":" ","MAREA":"謝厝寮","LANE":" ","ALLEY":" ","HOUSE_NO":"４４號之３１","E_COORD97":172114.76999999999,"N_COORD97":2560985.8999999999,"ADDRESS":"謝厝寮４４號之３１","OBJECTID":155408},"geometry":{"x":172114.76999999955,"y":2560985.9000000004}},{"attributes":{"ID":155410,"DIS_CODE":0,"TOWNNAME":"麻豆區","LI":"謝安里","LIN":"5鄰","STREET":" ","SECT":" ","MAREA":"謝厝寮","LANE":" ","ALLEY":" ","HOUSE_NO":"４４號之３２","E_COORD97":172119.57000000001,"N_COORD97":2560991.9500000002,"ADDRESS":"謝厝寮４４號之３２","OBJECTID":155409},"geometry":{"x":172119.57000000123,"y":2560991.9499999993}},{"attributes":{"ID":155411,"DIS_CODE":0,"TOWNNAME":"麻豆區","LI":"謝安里","LIN":"5鄰","STREET":" ","SECT":" ","MAREA":"謝厝寮","LANE":" ","ALLEY":" ","HOUSE_NO":"４５號之１０","E_COORD97":172061.29999999999,"N_COORD97":2561138.0800000001,"ADDRESS":"謝厝寮４５號之１０","OBJECTID":155410},"geometry":{"x":172061.30000000075,"y":2561138.0800000001}},{"attributes":{"ID":155412,"DIS_CODE":0,"TOWNNAME":"麻豆區","LI":"謝安里","LIN":"5鄰","STREET":" ","SECT":" ","MAREA":"謝厝寮","LANE":" ","ALLEY":" ","HOUSE_NO":"４５號之１１","E_COORD97":172080.23000000001,"N_COORD97":2561169.98,"ADDRESS":"謝厝寮４５號之１１","OBJECTID":155411},"geometry":{"x":172080.23000000045,"y":2561169.9800000042}},{"attributes":{"ID":155413,"DIS_CODE":0,"TOWNNAME":"麻豆區","LI":"謝安里","LIN":"5鄰","STREET":" ","SECT":" ","MAREA":"謝厝寮","LANE":" ","ALLEY":" ","HOUSE_NO":"４５號之１２","E_COORD97":172075.95999999999,"N_COORD97":2561167.3799999999,"ADDRESS":"謝厝寮４５號之１２","OBJECTID":155412},"geometry":{"x":172075.96000000089,"y":2561167.3800000008}},{"attributes":{"ID":155414,"DIS_CODE":0,"TOWNNAME":"麻豆區","LI":"謝安里","LIN":"5鄰","STREET":" ","SECT":" ","MAREA":"謝厝寮","LANE":" ","ALLEY":" ","HOUSE_NO":"４５號之１３","E_COORD97":172071.89999999999,"N_COORD97":2561165.6499999999,"ADDRESS":"謝厝寮４５號之１３","OBJECTID":155413},"geometry":{"x":172071.90000000037,"y":2561165.6500000041}},{"attributes":{"ID":155415,"DIS_CODE":0,"TOWNNAME":"新市區","LI":"新和里","LIN":"25鄰","STREET":"仁愛街","SECT":" ","MAREA":" ","LANE":" ","ALLEY":" ","HOUSE_NO":"２７６號","E_COORD97":177637.09,"N_COORD97":2552923.0299999998,"ADDRESS":"仁愛街２７６號","OBJECTID":155414},"geometry":{"x":177637.08999999985,"y":2552923.0300000031}},{"attributes":{"ID":155416,"DIS_CODE":0,"TOWNNAME":"麻豆區","LI":"謝安里","LIN":"5鄰","STREET":" ","SECT":" ","MAREA":"謝厝寮","LANE":" ","ALLEY":" ","HOUSE_NO":"４５號之１４","E_COORD97":172068.25,"N_COORD97":2561164.0699999998,"ADDRESS":"謝厝寮４５號之１４","OBJECTID":155415},"geometry":{"x":172068.25000000186,"y":2561164.0700000022}},{"attributes":{"ID":155417,"DIS_CODE":0,"TOWNNAME":"北區","LI":"成德里","LIN":"19鄰","STREET":"育成路","SECT":" ","MAREA":" ","LANE":" ","ALLEY":" ","HOUSE_NO":"３０號","E_COORD97":168981.48000000001,"N_COORD97":2546336.9100000001,"ADDRESS":"育成路３０號","OBJECTID":155416},"geometry":{"x":168981.48000000045,"y":2546336.9100000001}},{"attributes":{"ID":155418,"DIS_CODE":0,"TOWNNAME":"永康區","LI":"網寮里","LIN":"2鄰","STREET":"永和街","SECT":" ","MAREA":" ","LANE":"１００巷","ALLEY":"９弄","HOUSE_NO":"５號","E_COORD97":173623.44,"N_COORD97":2546516.48,"ADDRESS":"永和街１００巷９弄５號","OBJECTID":155417},"geometry":{"x":173623.44000000227,"y":2546516.4800000004}},{"attributes":{"ID":155419,"DIS_CODE":0,"TOWNNAME":"永康區","LI":"網寮里","LIN":"2鄰","STREET":"永和街","SECT":" ","MAREA":" ","LANE":"１００巷","ALLEY":"９弄","HOUSE_NO":"１號","E_COORD97":173631.44,"N_COORD97":2546510.5299999998,"ADDRESS":"永和街１００巷９弄１號","OBJECTID":155418},"geometry":{"x":173631.44000000041,"y":2546510.5299999993}},{"attributes":{"ID":155420,"DIS_CODE":0,"TOWNNAME":"南區","LI":"文華里","LIN":"2鄰","STREET":"金華路","SECT":"二段","MAREA":" ","LANE":"３９９巷","ALLEY":"１２弄","HOUSE_NO":"２號","E_COORD97":167103.92000000001,"N_COORD97":2543067.9500000002,"ADDRESS":"金華路二段３９９巷１２弄２號","OBJECTID":155419},"geometry":{"x":167103.92000000086,"y":2543067.950000003}},{"attributes":{"ID":155421,"DIS_CODE":0,"TOWNNAME":"南區","LI":"文華里","LIN":"2鄰","STREET":"金華路","SECT":"二段","MAREA":" ","LANE":"３９９巷","ALLEY":"１２弄","HOUSE_NO":"２號之１","E_COORD97":167104.28,"N_COORD97":2543071.0899999999,"ADDRESS":"金華路二段３９９巷１２弄２號之１","OBJECTID":155420},"geometry":{"x":167104.28000000026,"y":2543071.0900000017}},{"attributes":{"ID":155422,"DIS_CODE":0,"TOWNNAME":"南區","LI":"文華里","LIN":"2鄰","STREET":"金華路","SECT":"二段","MAREA":" ","LANE":"３９９巷","ALLEY":"１２弄","HOUSE_NO":"６號","E_COORD97":167105.72,"N_COORD97":2543077.5600000001,"ADDRESS":"金華路二段３９９巷１２弄６號","OBJECTID":155421},"geometry":{"x":167105.71999999974,"y":2543077.5600000005}},{"attributes":{"ID":155423,"DIS_CODE":0,"TOWNNAME":"南區","LI":"文華里","LIN":"2鄰","STREET":"金華路","SECT":"二段","MAREA":" ","LANE":"３９９巷","ALLEY":"１２弄","HOUSE_NO":"１８號","E_COORD97":167107.78,"N_COORD97":2543113.6000000001,"ADDRESS":"金華路二段３９９巷１２弄１８號","OBJECTID":155422},"geometry":{"x":167107.78000000026,"y":2543113.5999999996}},{"attributes":{"ID":155424,"DIS_CODE":0,"TOWNNAME":"南區","LI":"田寮里","LIN":"2鄰","STREET":"新興路","SECT":" ","MAREA":" ","LANE":"２６７巷","ALLEY":"１５弄","HOUSE_NO":"１１號","E_COORD97":167276.69,"N_COORD97":2541806.0699999998,"ADDRESS":"新興路２６７巷１５弄１１號","OBJECTID":155423},"geometry":{"x":167276.69000000227,"y":2541806.0700000003}},{"attributes":{"ID":155425,"DIS_CODE":0,"TOWNNAME":"南區","LI":"田寮里","LIN":"2鄰","STREET":"新興路","SECT":" ","MAREA":" ","LANE":"２６７巷","ALLEY":"１５弄","HOUSE_NO":"１４號","E_COORD97":167273.07000000001,"N_COORD97":2541776.6200000001,"ADDRESS":"新興路２６７巷１５弄１４號","OBJECTID":155424},"geometry":{"x":167273.07000000123,"y":2541776.6200000048}},{"attributes":{"ID":155426,"DIS_CODE":0,"TOWNNAME":"南區","LI":"田寮里","LIN":"2鄰","STREET":"新興路","SECT":" ","MAREA":" ","LANE":"２６７巷","ALLEY":"１５弄","HOUSE_NO":"２３號","E_COORD97":167328.98000000001,"N_COORD97":2541798.52,"ADDRESS":"新興路２６７巷１５弄２３號","OBJECTID":155425},"geometry":{"x":167328.98000000231,"y":2541798.5199999996}},{"attributes":{"ID":155427,"DIS_CODE":0,"TOWNNAME":"鹽水區","LI":"水秀里","LIN":"5鄰","STREET":" ","SECT":" ","MAREA":"土庫","LANE":" ","ALLEY":" ","HOUSE_NO":"５７號","E_COORD97":176217.73999999999,"N_COORD97":2580024.7999999998,"ADDRESS":"土庫５７號","OBJECTID":155426},"geometry":{"x":176217.74000000022,"y":2580024.8000000007}},{"attributes":{"ID":155428,"DIS_CODE":0,"TOWNNAME":"南區","LI":"田寮里","LIN":"2鄰","STREET":"新興路","SECT":" ","MAREA":" ","LANE":"２６７巷","ALLEY":"１５弄","HOUSE_NO":"４８號","E_COORD97":167312.28,"N_COORD97":2541778.9399999999,"ADDRESS":"新興路２６７巷１５弄４８號","OBJECTID":155427},"geometry":{"x":167312.28000000119,"y":2541778.9399999995}},{"attributes":{"ID":155429,"DIS_CODE":0,"TOWNNAME":"南區","LI":"田寮里","LIN":"2鄰","STREET":"新興路","SECT":" ","MAREA":" ","LANE":"２６７巷","ALLEY":"２７弄","HOUSE_NO":"５號","E_COORD97":167247.51000000001,"N_COORD97":2541782.1299999999,"ADDRESS":"新興路２６７巷２７弄５號","OBJECTID":155428},"geometry":{"x":167247.51000000071,"y":2541782.1300000008}},{"attributes":{"ID":155430,"DIS_CODE":0,"TOWNNAME":"南區","LI":"田寮里","LIN":"2鄰","STREET":"新興路","SECT":" ","MAREA":" ","LANE":"２６７巷","ALLEY":"２７弄","HOUSE_NO":"７號","E_COORD97":167255.07000000001,"N_COORD97":2541780.9700000002,"ADDRESS":"新興路２６７巷２７弄７號","OBJECTID":155429},"geometry":{"x":167255.0700000003,"y":2541780.9700000044}},{"attributes":{"ID":155431,"DIS_CODE":0,"TOWNNAME":"南區","LI":"田寮里","LIN":"2鄰","STREET":"新興路","SECT":" ","MAREA":" ","LANE":"２６７巷","ALLEY":"２７弄","HOUSE_NO":"９號","E_COORD97":167260.29000000001,"N_COORD97":2541779.23,"ADDRESS":"新興路２６７巷２７弄９號","OBJECTID":155430},"geometry":{"x":167260.28999999911,"y":2541779.2300000023}},{"attributes":{"ID":155432,"DIS_CODE":0,"TOWNNAME":"南區","LI":"田寮里","LIN":"2鄰","STREET":"新興路","SECT":" ","MAREA":" ","LANE":"２６７巷","ALLEY":"２７弄","HOUSE_NO":"１１號","E_COORD97":167268.14000000001,"N_COORD97":2541778.0699999998,"ADDRESS":"新興路２６７巷２７弄１１號","OBJECTID":155431},"geometry":{"x":167268.1400000006,"y":2541778.0700000003}},{"attributes":{"ID":155433,"DIS_CODE":0,"TOWNNAME":"南區","LI":"田寮里","LIN":"2鄰","STREET":"新興路","SECT":" ","MAREA":" ","LANE":"２６７巷","ALLEY":"２７弄","HOUSE_NO":"６號","E_COORD97":167244.89999999999,"N_COORD97":2541767.6299999999,"ADDRESS":"新興路２６７巷２７弄６號","OBJECTID":155432},"geometry":{"x":167244.9000000013,"y":2541767.6300000027}},{"attributes":{"ID":155434,"DIS_CODE":0,"TOWNNAME":"南區","LI":"田寮里","LIN":"2鄰","STREET":"新興路","SECT":" ","MAREA":" ","LANE":"２６７巷","ALLEY":"２７弄","HOUSE_NO":"８號","E_COORD97":167249.84,"N_COORD97":2541767.0499999998,"ADDRESS":"新興路２６７巷２７弄８號","OBJECTID":155433},"geometry":{"x":167249.84000000078,"y":2541767.0500000026}},{"attributes":{"ID":155435,"DIS_CODE":0,"TOWNNAME":"永康區","LI":"六合里","LIN":"2鄰","STREET":"新興街","SECT":" ","MAREA":" ","LANE":"３５巷","ALLEY":"１３弄","HOUSE_NO":"５號","E_COORD97":170954.07000000001,"N_COORD97":2545861.4900000002,"ADDRESS":"新興街３５巷１３弄５號","OBJECTID":155434},"geometry":{"x":170954.0700000003,"y":2545861.4900000002}},{"attributes":{"ID":155436,"DIS_CODE":0,"TOWNNAME":"永康區","LI":"甲頂里","LIN":"2鄰","STREET":"南台街","SECT":" ","MAREA":" ","LANE":"１３５巷","ALLEY":"７弄","HOUSE_NO":"１０號","E_COORD97":170117.10999999999,"N_COORD97":2546818.46,"ADDRESS":"南台街１３５巷７弄１０號","OBJECTID":155435},"geometry":{"x":170117.11000000127,"y":2546818.4600000009}},{"attributes":{"ID":155437,"DIS_CODE":0,"TOWNNAME":"安南區","LI":"新順里","LIN":"2鄰","STREET":"安生街","SECT":" ","MAREA":" ","LANE":"１０６巷","ALLEY":"６弄","HOUSE_NO":"４號","E_COORD97":169522.10000000001,"N_COORD97":2549592.4900000002,"ADDRESS":"安生街１０６巷６弄４號","OBJECTID":155436},"geometry":{"x":169522.09999999963,"y":2549592.4900000021}},{"attributes":{"ID":155438,"DIS_CODE":0,"TOWNNAME":"安南區","LI":"新順里","LIN":"2鄰","STREET":"安生街","SECT":" ","MAREA":" ","LANE":"１０６巷","ALLEY":"６弄","HOUSE_NO":"１０號","E_COORD97":169536.70000000001,"N_COORD97":2549587.27,"ADDRESS":"安生街１０６巷６弄１０號","OBJECTID":155437},"geometry":{"x":169536.70000000112,"y":2549587.2699999996}},{"attributes":{"ID":155439,"DIS_CODE":0,"TOWNNAME":"安南區","LI":"新順里","LIN":"2鄰","STREET":"安生街","SECT":" ","MAREA":" ","LANE":"１０６巷","ALLEY":"６弄","HOUSE_NO":"１２號","E_COORD97":169541.54999999999,"N_COORD97":2549585.98,"ADDRESS":"安生街１０６巷６弄１２號","OBJECTID":155438},"geometry":{"x":169541.54999999981,"y":2549585.9800000023}},{"attributes":{"ID":155440,"DIS_CODE":0,"TOWNNAME":"新營區","LI":"忠政里","LIN":"19鄰","STREET":"長榮路","SECT":"二段","MAREA":" ","LANE":" ","ALLEY":" ","HOUSE_NO":"５號","E_COORD97":180032.25,"N_COORD97":2579847.2200000002,"ADDRESS":"長榮路二段５號","OBJECTID":155439},"geometry":{"x":180032.25000000186,"y":2579847.2200000025}},{"attributes":{"ID":155441,"DIS_CODE":0,"TOWNNAME":"新市區","LI":"新市里","LIN":"5鄰","STREET":"仁愛街","SECT":" ","MAREA":" ","LANE":" ","ALLEY":" ","HOUSE_NO":"２９３號","E_COORD97":177643.53,"N_COORD97":2553033.0299999998,"ADDRESS":"仁愛街２９３號","OBJECTID":155440},"geometry":{"x":177643.53000000026,"y":2553033.0300000012}},{"attributes":{"ID":155442,"DIS_CODE":0,"TOWNNAME":"新市區","LI":"新市里","LIN":"5鄰","STREET":"仁愛街","SECT":" ","MAREA":" ","LANE":" ","ALLEY":" ","HOUSE_NO":"３０３號","E_COORD97":177648.17000000001,"N_COORD97":2553055.7799999998,"ADDRESS":"仁愛街３０３號","OBJECTID":155441},"geometry":{"x":177648.17000000086,"y":2553055.7799999993}},{"attributes":{"ID":155443,"DIS_CODE":0,"TOWNNAME":"新市區","LI":"港墘里","LIN":"20鄰","STREET":"光華街","SECT":" ","MAREA":" ","LANE":" ","ALLEY":" ","HOUSE_NO":"１３８號","E_COORD97":177920.62,"N_COORD97":2552780.5,"ADDRESS":"光華街１３８號","OBJECTID":155442},"geometry":{"x":177920.62000000011,"y":2552780.5}},{"attributes":{"ID":155444,"DIS_CODE":0,"TOWNNAME":"新市區","LI":"新市里","LIN":"18鄰","STREET":"和平街","SECT":" ","MAREA":" ","LANE":" ","ALLEY":" ","HOUSE_NO":"１１號","E_COORD97":177762.95999999999,"N_COORD97":2553456.75,"ADDRESS":"和平街１１號","OBJECTID":155443},"geometry":{"x":177762.96000000089,"y":2553456.75}},{"attributes":{"ID":155445,"DIS_CODE":0,"TOWNNAME":"新市區","LI":"港墘里","LIN":"20鄰","STREET":"光華街","SECT":" ","MAREA":" ","LANE":" ","ALLEY":" ","HOUSE_NO":"７８號","E_COORD97":177995.76000000001,"N_COORD97":2552649,"ADDRESS":"光華街７８號","OBJECTID":155444},"geometry":{"x":177995.75999999978,"y":2552649}},{"attributes":{"ID":155446,"DIS_CODE":0,"TOWNNAME":"新市區","LI":"新市里","LIN":"13鄰","STREET":"和平街","SECT":" ","MAREA":" ","LANE":" ","ALLEY":" ","HOUSE_NO":"１２５號","E_COORD97":177505.20000000001,"N_COORD97":2553319.25,"ADDRESS":"和平街１２５號","OBJECTID":155445},"geometry":{"x":177505.20000000205,"y":2553319.2500000019}},{"attributes":{"ID":155447,"DIS_CODE":0,"TOWNNAME":"新市區","LI":"港墘里","LIN":"20鄰","STREET":"光華街","SECT":" ","MAREA":" ","LANE":" ","ALLEY":" ","HOUSE_NO":"１４２號","E_COORD97":177917.42000000001,"N_COORD97":2552788,"ADDRESS":"光華街１４２號","OBJECTID":155446},"geometry":{"x":177917.42000000086,"y":2552788}},{"attributes":{"ID":155448,"DIS_CODE":0,"TOWNNAME":"新市區","LI":"新和里","LIN":"40鄰","STREET":"勝利街","SECT":" ","MAREA":" ","LANE":" ","ALLEY":" ","HOUSE_NO":"１０號","E_COORD97":177379.12,"N_COORD97":2552963.5099999998,"ADDRESS":"勝利街１０號","OBJECTID":155447},"geometry":{"x":177379.12000000104,"y":2552963.5099999998}},{"attributes":{"ID":155449,"DIS_CODE":0,"TOWNNAME":"北區","LI":"大和里","LIN":"19鄰","STREET":"中華北路","SECT":"一段","MAREA":" ","LANE":" ","ALLEY":" ","HOUSE_NO":"５００號","E_COORD97":167048.95000000001,"N_COORD97":2546302.1099999999,"ADDRESS":"中華北路一段５００號","OBJECTID":155448},"geometry":{"x":167048.95000000019,"y":2546302.1100000013}},{"attributes":{"ID":155450,"DIS_CODE":0,"TOWNNAME":"新市區","LI":"新和里","LIN":"25鄰","STREET":"仁愛街","SECT":" ","MAREA":" ","LANE":" ","ALLEY":" ","HOUSE_NO":"２８６號","E_COORD97":177641.85999999999,"N_COORD97":2552946.7799999998,"ADDRESS":"仁愛街２８６號","OBJECTID":155449},"geometry":{"x":177641.86000000127,"y":2552946.7800000012}},{"attributes":{"ID":155451,"DIS_CODE":0,"TOWNNAME":"新市區","LI":"新市里","LIN":"8鄰","STREET":"中興街","SECT":" ","MAREA":" ","LANE":" ","ALLEY":" ","HOUSE_NO":"１６２號","E_COORD97":177419.89999999999,"N_COORD97":2553132.5,"ADDRESS":"中興街１６２號","OBJECTID":155450},"geometry":{"x":177419.9000000013,"y":2553132.5}},{"attributes":{"ID":155452,"DIS_CODE":0,"TOWNNAME":"新市區","LI":"港墘里","LIN":"5鄰","STREET":"民族路","SECT":" ","MAREA":" ","LANE":" ","ALLEY":" ","HOUSE_NO":"１３１號","E_COORD97":178272.23999999999,"N_COORD97":2553561.79,"ADDRESS":"民族路１３１號","OBJECTID":155451},"geometry":{"x":178272.24000000022,"y":2553561.7900000028}},{"attributes":{"ID":155453,"DIS_CODE":0,"TOWNNAME":"新市區","LI":"新市里","LIN":"13鄰","STREET":"和平街","SECT":" ","MAREA":" ","LANE":" ","ALLEY":" ","HOUSE_NO":"１２９之１號","E_COORD97":177498.04000000001,"N_COORD97":2553312.0499999998,"ADDRESS":"和平街１２９之１號","OBJECTID":155452},"geometry":{"x":177498.04000000097,"y":2553312.0500000026}},{"attributes":{"ID":155454,"DIS_CODE":0,"TOWNNAME":"新市區","LI":"港墘里","LIN":"4鄰","STREET":"三民街","SECT":" ","MAREA":" ","LANE":" ","ALLEY":" ","HOUSE_NO":"１４２號","E_COORD97":178270.73999999999,"N_COORD97":2553542.79,"ADDRESS":"三民街１４２號","OBJECTID":155453},"geometry":{"x":178270.74000000022,"y":2553542.790000001}},{"attributes":{"ID":155455,"DIS_CODE":0,"TOWNNAME":"新市區","LI":"新市里","LIN":"18鄰","STREET":"和平街","SECT":" ","MAREA":" ","LANE":" ","ALLEY":" ","HOUSE_NO":"９號","E_COORD97":177765.51000000001,"N_COORD97":2553457.75,"ADDRESS":"和平街９號","OBJECTID":155454},"geometry":{"x":177765.51000000164,"y":2553457.7499999981}},{"attributes":{"ID":155456,"DIS_CODE":0,"TOWNNAME":"安南區","LI":"新順里","LIN":"2鄰","STREET":"安生街","SECT":" ","MAREA":" ","LANE":"１０６巷","ALLEY":"６弄","HOUSE_NO":"２號","E_COORD97":169516.54000000001,"N_COORD97":2549593.25,"ADDRESS":"安生街１０６巷６弄２號","OBJECTID":155455},"geometry":{"x":169516.53999999911,"y":2549593.2500000019}},{"attributes":{"ID":155457,"DIS_CODE":0,"TOWNNAME":"安南區","LI":"新順里","LIN":"2鄰","STREET":"安生街","SECT":" ","MAREA":" ","LANE":"７８巷","ALLEY":"２弄","HOUSE_NO":"１０號","E_COORD97":169587.89000000001,"N_COORD97":2549566.9900000002,"ADDRESS":"安生街７８巷２弄１０號","OBJECTID":155456},"geometry":{"x":169587.88999999966,"y":2549566.9900000002}},{"attributes":{"ID":155458,"DIS_CODE":0,"TOWNNAME":"安南區","LI":"新順里","LIN":"2鄰","STREET":"安生街","SECT":" ","MAREA":" ","LANE":"７８巷","ALLEY":"２弄","HOUSE_NO":"１１號","E_COORD97":169598.10999999999,"N_COORD97":2549586.3700000001,"ADDRESS":"安生街７８巷２弄１１號","OBJECTID":155457},"geometry":{"x":169598.11000000127,"y":2549586.3700000048}},{"attributes":{"ID":155459,"DIS_CODE":0,"TOWNNAME":"安南區","LI":"新順里","LIN":"2鄰","STREET":"安生街","SECT":" ","MAREA":" ","LANE":"７８巷","ALLEY":"２弄","HOUSE_NO":"１２號","E_COORD97":169592.73999999999,"N_COORD97":2549565.4300000002,"ADDRESS":"安生街７８巷２弄１２號","OBJECTID":155458},"geometry":{"x":169592.74000000022,"y":2549565.4300000016}},{"attributes":{"ID":155460,"DIS_CODE":0,"TOWNNAME":"安南區","LI":"新順里","LIN":"2鄰","STREET":"安生街","SECT":" ","MAREA":" ","LANE":"７８巷","ALLEY":"２弄","HOUSE_NO":"１３號","E_COORD97":169603.64999999999,"N_COORD97":2549584.29,"ADDRESS":"安生街７８巷２弄１３號","OBJECTID":155459},"geometry":{"x":169603.65000000037,"y":2549584.2899999991}},{"attributes":{"ID":155461,"DIS_CODE":0,"TOWNNAME":"安南區","LI":"新順里","LIN":"2鄰","STREET":"安生街","SECT":" ","MAREA":" ","LANE":"７８巷","ALLEY":"２弄","HOUSE_NO":"１４號","E_COORD97":169598.45999999999,"N_COORD97":2549564.7400000002,"ADDRESS":"安生街７８巷２弄１４號","OBJECTID":155460},"geometry":{"x":169598.46000000183,"y":2549564.7400000002}},{"attributes":{"ID":155462,"DIS_CODE":0,"TOWNNAME":"安南區","LI":"新順里","LIN":"2鄰","STREET":"安生街","SECT":" ","MAREA":" ","LANE":"７８巷","ALLEY":"２弄","HOUSE_NO":"１號","E_COORD97":169576.45999999999,"N_COORD97":2549592.4199999999,"ADDRESS":"安生街７８巷２弄１號","OBJECTID":155461},"geometry":{"x":169576.46000000183,"y":2549592.4200000018}},{"attributes":{"ID":155463,"DIS_CODE":0,"TOWNNAME":"安南區","LI":"新順里","LIN":"2鄰","STREET":"安生街","SECT":" ","MAREA":" ","LANE":"７８巷","ALLEY":"２弄","HOUSE_NO":"２號","E_COORD97":169570.75,"N_COORD97":2549572.52,"ADDRESS":"安生街７８巷２弄２號","OBJECTID":155462},"geometry":{"x":169570.75,"y":2549572.5199999996}},{"attributes":{"ID":155464,"DIS_CODE":0,"TOWNNAME":"安南區","LI":"新順里","LIN":"2鄰","STREET":"安生街","SECT":" ","MAREA":" ","LANE":"７８巷","ALLEY":"２弄","HOUSE_NO":"３號","E_COORD97":169580.79000000001,"N_COORD97":2549591.04,"ADDRESS":"安生街７８巷２弄３號","OBJECTID":155463},"geometry":{"x":169580.79000000004,"y":2549591.040000001}},{"attributes":{"ID":155465,"DIS_CODE":0,"TOWNNAME":"安南區","LI":"新順里","LIN":"2鄰","STREET":"安生街","SECT":" ","MAREA":" ","LANE":"７８巷","ALLEY":"２弄","HOUSE_NO":"４號","E_COORD97":169575.42000000001,"N_COORD97":2549571.1400000001,"ADDRESS":"安生街７８巷２弄４號","OBJECTID":155464},"geometry":{"x":169575.42000000086,"y":2549571.1400000025}},{"attributes":{"ID":155466,"DIS_CODE":0,"TOWNNAME":"安南區","LI":"新順里","LIN":"2鄰","STREET":"安生街","SECT":" ","MAREA":" ","LANE":"７８巷","ALLEY":"２弄","HOUSE_NO":"５號","E_COORD97":169585.12,"N_COORD97":2549590,"ADDRESS":"安生街７８巷２弄５號","OBJECTID":155465},"geometry":{"x":169585.12000000011,"y":2549590}},{"attributes":{"ID":155467,"DIS_CODE":0,"TOWNNAME":"安南區","LI":"新順里","LIN":"2鄰","STREET":"安生街","SECT":" ","MAREA":" ","LANE":"７８巷","ALLEY":"２弄","HOUSE_NO":"６號","E_COORD97":169579.41,"N_COORD97":2549569.7599999998,"ADDRESS":"安生街７８巷２弄６號","OBJECTID":155466},"geometry":{"x":169579.41000000108,"y":2549569.7600000016}},{"attributes":{"ID":155468,"DIS_CODE":0,"TOWNNAME":"安南區","LI":"新順里","LIN":"2鄰","STREET":"安生街","SECT":" ","MAREA":" ","LANE":"７８巷","ALLEY":"２弄","HOUSE_NO":"７號","E_COORD97":169589.79999999999,"N_COORD97":2549588.1000000001,"ADDRESS":"安生街７８巷２弄７號","OBJECTID":155467},"geometry":{"x":169589.80000000075,"y":2549588.1000000015}},{"attributes":{"ID":155469,"DIS_CODE":0,"TOWNNAME":"安南區","LI":"新順里","LIN":"2鄰","STREET":"安生街","SECT":" ","MAREA":" ","LANE":"７８巷","ALLEY":"２弄","HOUSE_NO":"８號","E_COORD97":169584.07999999999,"N_COORD97":2549568.5499999998,"ADDRESS":"安生街７８巷２弄８號","OBJECTID":155468},"geometry":{"x":169584.08000000007,"y":2549568.5500000026}},{"attributes":{"ID":155470,"DIS_CODE":0,"TOWNNAME":"安南區","LI":"新順里","LIN":"2鄰","STREET":"安生街","SECT":" ","MAREA":" ","LANE":"１０６巷","ALLEY":"６弄","HOUSE_NO":"６號","E_COORD97":169527.09,"N_COORD97":2549591.1400000001,"ADDRESS":"安生街１０６巷６弄６號","OBJECTID":155469},"geometry":{"x":169527.09000000078,"y":2549591.1400000043}},{"attributes":{"ID":155471,"DIS_CODE":0,"TOWNNAME":"安南區","LI":"鳳凰里","LIN":"2鄰","STREET":"北安路","SECT":"三段","MAREA":" ","LANE":"１４５巷","ALLEY":"３１弄","HOUSE_NO":"１０號","E_COORD97":168191.855599,"N_COORD97":2549029.7185999998,"ADDRESS":"北安路三段１４５巷３１弄１０號","OBJECTID":155470},"geometry":{"x":168191.85559900105,"y":2549029.718603}},{"attributes":{"ID":155472,"DIS_CODE":0,"TOWNNAME":"安南區","LI":"淵西里","LIN":"2鄰","STREET":"安中路","SECT":"四段","MAREA":" ","LANE":"２９０巷","ALLEY":"２９１弄","HOUSE_NO":"３號","E_COORD97":165095.85000000001,"N_COORD97":2550317.3700000001,"ADDRESS":"安中路四段２９０巷２９１弄３號","OBJECTID":155471},"geometry":{"x":165095.84999999963,"y":2550317.370000001}},{"attributes":{"ID":155473,"DIS_CODE":0,"TOWNNAME":"安南區","LI":"淵西里","LIN":"2鄰","STREET":"安中路","SECT":"四段","MAREA":" ","LANE":"２９０巷","ALLEY":"２９１弄","HOUSE_NO":"５號","E_COORD97":165092.54000000001,"N_COORD97":2550320.8300000001,"ADDRESS":"安中路四段２９０巷２９１弄５號","OBJECTID":155472},"geometry":{"x":165092.54000000097,"y":2550320.8300000001}},{"attributes":{"ID":155474,"DIS_CODE":0,"TOWNNAME":"南區","LI":"同安里","LIN":"2鄰","STREET":"灣裡路","SECT":" ","MAREA":" ","LANE":"４００巷","ALLEY":"１１弄","HOUSE_NO":"２號","E_COORD97":166126.12,"N_COORD97":2536125.5699999998,"ADDRESS":"灣裡路４００巷１１弄２號","OBJECTID":155473},"geometry":{"x":166126.12000000104,"y":2536125.5700000022}},{"attributes":{"ID":155475,"DIS_CODE":0,"TOWNNAME":"南區","LI":"府南里","LIN":"2鄰","STREET":"金華路","SECT":"一段","MAREA":" ","LANE":"４８４巷","ALLEY":"７１弄","HOUSE_NO":"１０號","E_COORD97":167226.34,"N_COORD97":2541449.5299999998,"ADDRESS":"金華路一段４８４巷７１弄１０號","OBJECTID":155474},"geometry":{"x":167226.34000000078,"y":2541449.5299999993}},{"attributes":{"ID":155476,"DIS_CODE":0,"TOWNNAME":"南區","LI":"府南里","LIN":"2鄰","STREET":"金華路","SECT":"一段","MAREA":" ","LANE":"４８４巷","ALLEY":"７１弄","HOUSE_NO":"１１號","E_COORD97":167211.64999999999,"N_COORD97":2541463.7400000002,"ADDRESS":"金華路一段４８４巷７１弄１１號","OBJECTID":155475},"geometry":{"x":167211.6500000013,"y":2541463.7400000021}},{"attributes":{"ID":155477,"DIS_CODE":0,"TOWNNAME":"南區","LI":"府南里","LIN":"2鄰","STREET":"金華路","SECT":"一段","MAREA":" ","LANE":"４８４巷","ALLEY":"７１弄","HOUSE_NO":"１３號","E_COORD97":167213.23999999999,"N_COORD97":2541466.8399999999,"ADDRESS":"金華路一段４８４巷７１弄１３號","OBJECTID":155476},"geometry":{"x":167213.24000000022,"y":2541466.8400000017}},{"attributes":{"ID":155478,"DIS_CODE":0,"TOWNNAME":"南區","LI":"府南里","LIN":"2鄰","STREET":"金華路","SECT":"一段","MAREA":" ","LANE":"４８４巷","ALLEY":"７１弄","HOUSE_NO":"１４號","E_COORD97":167230.20000000001,"N_COORD97":2541456.6099999999,"ADDRESS":"金華路一段４８４巷７１弄１４號","OBJECTID":155477},"geometry":{"x":167230.20000000019,"y":2541456.6100000031}},{"attributes":{"ID":155479,"DIS_CODE":0,"TOWNNAME":"麻豆區","LI":"謝安里","LIN":"5鄰","STREET":" ","SECT":" ","MAREA":"謝厝寮","LANE":" ","ALLEY":" ","HOUSE_NO":"４５號之１５","E_COORD97":172064.06,"N_COORD97":2561161.5699999998,"ADDRESS":"謝厝寮４５號之１５","OBJECTID":155478},"geometry":{"x":172064.06000000145,"y":2561161.5700000003}},{"attributes":{"ID":155480,"DIS_CODE":0,"TOWNNAME":"南區","LI":"府南里","LIN":"2鄰","STREET":"金華路","SECT":"一段","MAREA":" ","LANE":"４８４巷","ALLEY":"７１弄","HOUSE_NO":"１５號","E_COORD97":167215.70999999999,"N_COORD97":2541470.2599999998,"ADDRESS":"金華路一段４８４巷７１弄１５號","OBJECTID":155479},"geometry":{"x":167215.71000000089,"y":2541470.2600000016}},{"attributes":{"ID":155481,"DIS_CODE":0,"TOWNNAME":"南區","LI":"府南里","LIN":"2鄰","STREET":"金華路","SECT":"一段","MAREA":" ","LANE":"４８４巷","ALLEY":"７１弄","HOUSE_NO":"１６號","E_COORD97":167232.17000000001,"N_COORD97":2541460.46,"ADDRESS":"金華路一段４８４巷７１弄１６號","OBJECTID":155480},"geometry":{"x":167232.16999999899,"y":2541460.4600000028}},{"attributes":{"ID":155482,"DIS_CODE":0,"TOWNNAME":"南區","LI":"府南里","LIN":"2鄰","STREET":"金華路","SECT":"一段","MAREA":" ","LANE":"４８４巷","ALLEY":"７１弄","HOUSE_NO":"１７號","E_COORD97":167217.82000000001,"N_COORD97":2541473.7200000002,"ADDRESS":"金華路一段４８４巷７１弄１７號","OBJECTID":155481},"geometry":{"x":167217.8200000003,"y":2541473.7199999988}},{"attributes":{"ID":155483,"DIS_CODE":0,"TOWNNAME":"南區","LI":"府南里","LIN":"2鄰","STREET":"金華路","SECT":"一段","MAREA":" ","LANE":"４８４巷","ALLEY":"７１弄","HOUSE_NO":"１８號","E_COORD97":167233.75,"N_COORD97":2541463.5299999998,"ADDRESS":"金華路一段４８４巷７１弄１８號","OBJECTID":155482},"geometry":{"x":167233.75000000093,"y":2541463.5300000031}},{"attributes":{"ID":155484,"DIS_CODE":0,"TOWNNAME":"關廟區","LI":"東勢里","LIN":"19鄰","STREET":"東仁街","SECT":" ","MAREA":" ","LANE":" ","ALLEY":" ","HOUSE_NO":"７０號","E_COORD97":181815.22,"N_COORD97":2539274.25,"ADDRESS":"東仁街７０號","OBJECTID":155483},"geometry":{"x":181815.21999999974,"y":2539274.2500000019}},{"attributes":{"ID":155485,"DIS_CODE":0,"TOWNNAME":"關廟區","LI":"五甲里","LIN":"19鄰","STREET":"南雄路","SECT":"一段","MAREA":" ","LANE":" ","ALLEY":" ","HOUSE_NO":"１０８１號","E_COORD97":181096.75,"N_COORD97":2539706.1699999999,"ADDRESS":"南雄路一段１０８１號","OBJECTID":155484},"geometry":{"x":181096.75000000186,"y":2539706.1699999999}},{"attributes":{"ID":155486,"DIS_CODE":0,"TOWNNAME":"麻豆區","LI":"謝安里","LIN":"5鄰","STREET":" ","SECT":" ","MAREA":"謝厝寮","LANE":" ","ALLEY":" ","HOUSE_NO":"４５號之１６","E_COORD97":172074.01999999999,"N_COORD97":2561148.4500000002,"ADDRESS":"謝厝寮４５號之１６","OBJECTID":155485},"geometry":{"x":172074.01999999955,"y":2561148.4499999974}},{"attributes":{"ID":155487,"DIS_CODE":0,"TOWNNAME":"麻豆區","LI":"謝安里","LIN":"5鄰","STREET":" ","SECT":" ","MAREA":"謝厝寮","LANE":" ","ALLEY":" ","HOUSE_NO":"４５號之１７","E_COORD97":172075.59,"N_COORD97":2561144.8100000001,"ADDRESS":"謝厝寮４５號之１７","OBJECTID":155486},"geometry":{"x":172075.58999999985,"y":2561144.8100000024}},{"attributes":{"ID":155488,"DIS_CODE":0,"TOWNNAME":"關廟區","LI":"東勢里","LIN":"19鄰","STREET":"東仁街","SECT":" ","MAREA":" ","LANE":" ","ALLEY":" ","HOUSE_NO":"８８號","E_COORD97":181815.51999999999,"N_COORD97":2539240.25,"ADDRESS":"東仁街８８號","OBJECTID":155487},"geometry":{"x":181815.52000000048,"y":2539240.2500000019}},{"attributes":{"ID":155489,"DIS_CODE":0,"TOWNNAME":"麻豆區","LI":"謝安里","LIN":"5鄰","STREET":" ","SECT":" ","MAREA":"謝厝寮","LANE":" ","ALLEY":" ","HOUSE_NO":"４５號之１８","E_COORD97":172077.41,"N_COORD97":2561139.9300000002,"ADDRESS":"謝厝寮４５號之１８","OBJECTID":155488},"geometry":{"x":172077.41000000201,"y":2561139.9300000016}},{"attributes":{"ID":155490,"DIS_CODE":0,"TOWNNAME":"鹽水區","LI":"水秀里","LIN":"5鄰","STREET":" ","SECT":" ","MAREA":"土庫","LANE":" ","ALLEY":" ","HOUSE_NO":"５８號","E_COORD97":176194.22,"N_COORD97":2580021.4500000002,"ADDRESS":"土庫５８號","OBJECTID":155489},"geometry":{"x":176194.2200000016,"y":2580021.4499999993}},{"attributes":{"ID":155491,"DIS_CODE":0,"TOWNNAME":"麻豆區","LI":"謝安里","LIN":"5鄰","STREET":" ","SECT":" ","MAREA":"謝厝寮","LANE":" ","ALLEY":" ","HOUSE_NO":"４５號之１９","E_COORD97":172079.51000000001,"N_COORD97":2561136.48,"ADDRESS":"謝厝寮４５號之１９","OBJECTID":155490},"geometry":{"x":172079.50999999978,"y":2561136.4800000023}},{"attributes":{"ID":155492,"DIS_CODE":0,"TOWNNAME":"麻豆區","LI":"謝安里","LIN":"5鄰","STREET":" ","SECT":" ","MAREA":"謝厝寮","LANE":" ","ALLEY":" ","HOUSE_NO":"４５號之２０","E_COORD97":172083.32000000001,"N_COORD97":2561129.5600000001,"ADDRESS":"謝厝寮４５號之２０","OBJECTID":155491},"geometry":{"x":172083.32000000216,"y":2561129.5600000024}},{"attributes":{"ID":155493,"DIS_CODE":0,"TOWNNAME":"麻豆區","LI":"謝安里","LIN":"5鄰","STREET":" ","SECT":" ","MAREA":"謝厝寮","LANE":" ","ALLEY":" ","HOUSE_NO":"４５號之２１","E_COORD97":172085.19,"N_COORD97":2561125.29,"ADDRESS":"謝厝寮４５號之２１","OBJECTID":155492},"geometry":{"x":172085.19000000041,"y":2561125.2899999991}},{"attributes":{"ID":155494,"DIS_CODE":0,"TOWNNAME":"麻豆區","LI":"謝安里","LIN":"5鄰","STREET":" ","SECT":" ","MAREA":"謝厝寮","LANE":" ","ALLEY":" ","HOUSE_NO":"４５號之２２","E_COORD97":172087.32000000001,"N_COORD97":2561120.0499999998,"ADDRESS":"謝厝寮４５號之２２","OBJECTID":155493},"geometry":{"x":172087.32000000123,"y":2561120.0500000026}},{"attributes":{"ID":155495,"DIS_CODE":0,"TOWNNAME":"麻豆區","LI":"謝安里","LIN":"5鄰","STREET":" ","SECT":" ","MAREA":"謝厝寮","LANE":" ","ALLEY":" ","HOUSE_NO":"４５號之２３","E_COORD97":172089.42999999999,"N_COORD97":2561114.7999999998,"ADDRESS":"謝厝寮４５號之２３","OBJECTID":155494},"geometry":{"x":172089.43000000063,"y":2561114.8000000026}},{"attributes":{"ID":155496,"DIS_CODE":0,"TOWNNAME":"麻豆區","LI":"謝安里","LIN":"5鄰","STREET":" ","SECT":" ","MAREA":"謝厝寮","LANE":" ","ALLEY":" ","HOUSE_NO":"４５號之２４","E_COORD97":172094.48999999999,"N_COORD97":2561105.77,"ADDRESS":"謝厝寮４５號之２４","OBJECTID":155495},"geometry":{"x":172094.49000000115,"y":2561105.7699999996}},{"attributes":{"ID":155497,"DIS_CODE":0,"TOWNNAME":"麻豆區","LI":"謝安里","LIN":"5鄰","STREET":" ","SECT":" ","MAREA":"謝厝寮","LANE":" ","ALLEY":" ","HOUSE_NO":"４５號之２５","E_COORD97":172094.48999999999,"N_COORD97":2561091.9700000002,"ADDRESS":"謝厝寮４５號之２５","OBJECTID":155496},"geometry":{"x":172094.49000000115,"y":2561091.9700000007}},{"attributes":{"ID":155498,"DIS_CODE":0,"TOWNNAME":"麻豆區","LI":"謝安里","LIN":"5鄰","STREET":" ","SECT":" ","MAREA":"謝厝寮","LANE":" ","ALLEY":" ","HOUSE_NO":"４５號之２６","E_COORD97":172090.54000000001,"N_COORD97":2561090.6699999999,"ADDRESS":"謝厝寮４５號之２６","OBJECTID":155497},"geometry":{"x":172090.54000000097,"y":2561090.6700000018}},{"attributes":{"ID":155499,"DIS_CODE":0,"TOWNNAME":"麻豆區","LI":"謝安里","LIN":"5鄰","STREET":" ","SECT":" ","MAREA":"謝厝寮","LANE":" ","ALLEY":" ","HOUSE_NO":"４５號之２","E_COORD97":172054.82999999999,"N_COORD97":2561156.4100000001,"ADDRESS":"謝厝寮４５號之２","OBJECTID":155498},"geometry":{"x":172054.83000000101,"y":2561156.4099999983}},{"attributes":{"ID":155500,"DIS_CODE":0,"TOWNNAME":"麻豆區","LI":"謝安里","LIN":"5鄰","STREET":" ","SECT":" ","MAREA":"謝厝寮","LANE":" ","ALLEY":" ","HOUSE_NO":"４５號之４","E_COORD97":172050.32000000001,"N_COORD97":2561154.7999999998,"ADDRESS":"謝厝寮４５號之４","OBJECTID":155499},"geometry":{"x":172050.3200000003,"y":2561154.8000000045}},{"attributes":{"ID":155501,"DIS_CODE":0,"TOWNNAME":"麻豆區","LI":"謝安里","LIN":"5鄰","STREET":" ","SECT":" ","MAREA":"謝厝寮","LANE":" ","ALLEY":" ","HOUSE_NO":"４５號之５","E_COORD97":172044.41,"N_COORD97":2561146.8100000001,"ADDRESS":"謝厝寮４５號之５","OBJECTID":155500},"geometry":{"x":172044.41000000015,"y":2561146.8100000005}},{"attributes":{"ID":155502,"DIS_CODE":0,"TOWNNAME":"麻豆區","LI":"謝安里","LIN":"5鄰","STREET":" ","SECT":" ","MAREA":"謝厝寮","LANE":" ","ALLEY":" ","HOUSE_NO":"４５號","E_COORD97":172056.25,"N_COORD97":2561133.2000000002,"ADDRESS":"謝厝寮４５號","OBJECTID":155501},"geometry":{"x":172056.25000000186,"y":2561133.1999999974}},{"attributes":{"ID":155503,"DIS_CODE":0,"TOWNNAME":"麻豆區","LI":"謝安里","LIN":"5鄰","STREET":" ","SECT":" ","MAREA":"謝厝寮","LANE":" ","ALLEY":" ","HOUSE_NO":"４６號之１６","E_COORD97":172035.06,"N_COORD97":2561106.5,"ADDRESS":"謝厝寮４６號之１６","OBJECTID":155502},"geometry":{"x":172035.06000000145,"y":2561106.5000000019}},{"attributes":{"ID":155504,"DIS_CODE":0,"TOWNNAME":"麻豆區","LI":"謝安里","LIN":"5鄰","STREET":" ","SECT":" ","MAREA":"謝厝寮","LANE":" ","ALLEY":" ","HOUSE_NO":"４６號之１７","E_COORD97":172048.13,"N_COORD97":2561099.1400000001,"ADDRESS":"謝厝寮４６號之１７","OBJECTID":155503},"geometry":{"x":172048.12999999989,"y":2561099.1400000025}},{"attributes":{"ID":155505,"DIS_CODE":0,"TOWNNAME":"麻豆區","LI":"謝安里","LIN":"5鄰","STREET":" ","SECT":" ","MAREA":"謝厝寮","LANE":" ","ALLEY":" ","HOUSE_NO":"４６號之１８","E_COORD97":172044.20999999999,"N_COORD97":2561097.3799999999,"ADDRESS":"謝厝寮４６號之１８","OBJECTID":155504},"geometry":{"x":172044.20999999996,"y":2561097.379999999}},{"attributes":{"ID":155506,"DIS_CODE":0,"TOWNNAME":"麻豆區","LI":"謝安里","LIN":"5鄰","STREET":" ","SECT":" ","MAREA":"謝厝寮","LANE":" ","ALLEY":" ","HOUSE_NO":"４６號之１９","E_COORD97":172040.38,"N_COORD97":2561095.5499999998,"ADDRESS":"謝厝寮４６號之１９","OBJECTID":155505},"geometry":{"x":172040.38000000082,"y":2561095.5500000026}},{"attributes":{"ID":155507,"DIS_CODE":0,"TOWNNAME":"麻豆區","LI":"謝安里","LIN":"5鄰","STREET":" ","SECT":" ","MAREA":"謝厝寮","LANE":" ","ALLEY":" ","HOUSE_NO":"４６號之１","E_COORD97":171996.01999999999,"N_COORD97":2561136.1499999999,"ADDRESS":"謝厝寮４６號之１","OBJECTID":155506},"geometry":{"x":171996.01999999955,"y":2561136.1500000022}},{"attributes":{"ID":155508,"DIS_CODE":0,"TOWNNAME":"麻豆區","LI":"謝安里","LIN":"5鄰","STREET":" ","SECT":" ","MAREA":"謝厝寮","LANE":" ","ALLEY":" ","HOUSE_NO":"４６號之２０","E_COORD97":172037.5,"N_COORD97":2561093.23,"ADDRESS":"謝厝寮４６號之２０","OBJECTID":155507},"geometry":{"x":172037.5,"y":2561093.2300000004}},{"attributes":{"ID":155509,"DIS_CODE":0,"TOWNNAME":"麻豆區","LI":"謝安里","LIN":"5鄰","STREET":" ","SECT":" ","MAREA":"謝厝寮","LANE":" ","ALLEY":" ","HOUSE_NO":"４６號之２１","E_COORD97":172033.75,"N_COORD97":2561091.1800000002,"ADDRESS":"謝厝寮４６號之２１","OBJECTID":155508},"geometry":{"x":172033.75,"y":2561091.1800000016}},{"attributes":{"ID":155510,"DIS_CODE":0,"TOWNNAME":"麻豆區","LI":"謝安里","LIN":"5鄰","STREET":" ","SECT":" ","MAREA":"謝厝寮","LANE":" ","ALLEY":" ","HOUSE_NO":"４６號之２２","E_COORD97":172030.39000000001,"N_COORD97":2561089.27,"ADDRESS":"謝厝寮４６號之２２","OBJECTID":155509},"geometry":{"x":172030.3900000006,"y":2561089.2700000033}},{"attributes":{"ID":155511,"DIS_CODE":0,"TOWNNAME":"麻豆區","LI":"謝安里","LIN":"5鄰","STREET":" ","SECT":" ","MAREA":"謝厝寮","LANE":" ","ALLEY":" ","HOUSE_NO":"４６號之２","E_COORD97":171992.70000000001,"N_COORD97":2561134.3900000001,"ADDRESS":"謝厝寮４６號之２","OBJECTID":155510},"geometry":{"x":171992.70000000112,"y":2561134.3900000025}},{"attributes":{"ID":155512,"DIS_CODE":0,"TOWNNAME":"麻豆區","LI":"謝安里","LIN":"5鄰","STREET":" ","SECT":" ","MAREA":"謝厝寮","LANE":" ","ALLEY":" ","HOUSE_NO":"４６號之３","E_COORD97":171989.14000000001,"N_COORD97":2561132.4700000002,"ADDRESS":"謝厝寮４６號之３","OBJECTID":155511},"geometry":{"x":171989.1400000006,"y":2561132.4700000007}},{"attributes":{"ID":155513,"DIS_CODE":0,"TOWNNAME":"麻豆區","LI":"謝安里","LIN":"5鄰","STREET":" ","SECT":" ","MAREA":"謝厝寮","LANE":" ","ALLEY":" ","HOUSE_NO":"４６號之４","E_COORD97":171985.89000000001,"N_COORD97":2561131.1400000001,"ADDRESS":"謝厝寮４６號之４","OBJECTID":155512},"geometry":{"x":171985.8900000006,"y":2561131.1400000006}},{"attributes":{"ID":155514,"DIS_CODE":0,"TOWNNAME":"麻豆區","LI":"謝安里","LIN":"5鄰","STREET":" ","SECT":" ","MAREA":"謝厝寮","LANE":" ","ALLEY":" ","HOUSE_NO":"４６號之５","E_COORD97":171982.20999999999,"N_COORD97":2561129.25,"ADDRESS":"謝厝寮４６號之５","OBJECTID":155513},"geometry":{"x":171982.21000000089,"y":2561129.25}},{"attributes":{"ID":155515,"DIS_CODE":0,"TOWNNAME":"新營區","LI":"太北里","LIN":"19鄰","STREET":" ","SECT":" ","MAREA":"太子宮","LANE":" ","ALLEY":" ","HOUSE_NO":"４４號之３６","E_COORD97":175580.20000000001,"N_COORD97":2577685.1000000001,"ADDRESS":"太子宮４４號之３６","OBJECTID":155514},"geometry":{"x":175580.20000000112,"y":2577685.0999999996}},{"attributes":{"ID":155516,"DIS_CODE":0,"TOWNNAME":"新營區","LI":"太南里","LIN":"19鄰","STREET":" ","SECT":" ","MAREA":"太子宮","LANE":" ","ALLEY":" ","HOUSE_NO":"３０９之４１號","E_COORD97":175943.04999999999,"N_COORD97":2576504.96,"ADDRESS":"太子宮３０９之４１號","OBJECTID":155515},"geometry":{"x":175943.05000000075,"y":2576504.9600000009}},{"attributes":{"ID":155517,"DIS_CODE":0,"TOWNNAME":"新營區","LI":"太南里","LIN":"19鄰","STREET":" ","SECT":" ","MAREA":"太子宮","LANE":" ","ALLEY":" ","HOUSE_NO":"３１２之２１號","E_COORD97":176031.19,"N_COORD97":2576538.8500000001,"ADDRESS":"太子宮３１２之２１號","OBJECTID":155516},"geometry":{"x":176031.19000000134,"y":2576538.8500000034}},{"attributes":{"ID":155518,"DIS_CODE":0,"TOWNNAME":"新營區","LI":"太南里","LIN":"19鄰","STREET":" ","SECT":" ","MAREA":"太子宮","LANE":" ","ALLEY":" ","HOUSE_NO":"３１２之２０號","E_COORD97":176020.91,"N_COORD97":2576528.9300000002,"ADDRESS":"太子宮３１２之２０號","OBJECTID":155517},"geometry":{"x":176020.91000000108,"y":2576528.9300000016}},{"attributes":{"ID":155519,"DIS_CODE":0,"TOWNNAME":"麻豆區","LI":"謝安里","LIN":"5鄰","STREET":" ","SECT":" ","MAREA":"謝厝寮","LANE":" ","ALLEY":" ","HOUSE_NO":"４６號之６","E_COORD97":171978.67999999999,"N_COORD97":2561127.5899999999,"ADDRESS":"謝厝寮４６號之６","OBJECTID":155518},"geometry":{"x":171978.68000000063,"y":2561127.5899999999}},{"attributes":{"ID":155520,"DIS_CODE":0,"TOWNNAME":"麻豆區","LI":"謝安里","LIN":"5鄰","STREET":" ","SECT":" ","MAREA":"謝厝寮","LANE":" ","ALLEY":" ","HOUSE_NO":"４６號之７","E_COORD97":171987.45999999999,"N_COORD97":2561111.1200000001,"ADDRESS":"謝厝寮４６號之７","OBJECTID":155519},"geometry":{"x":171987.46000000089,"y":2561111.120000001}},{"attributes":{"ID":155521,"DIS_CODE":0,"TOWNNAME":"麻豆區","LI":"謝安里","LIN":"5鄰","STREET":" ","SECT":" ","MAREA":"謝厝寮","LANE":" ","ALLEY":" ","HOUSE_NO":"４６號之８","E_COORD97":171989.09,"N_COORD97":2561108.1699999999,"ADDRESS":"謝厝寮４６號之８","OBJECTID":155520},"geometry":{"x":171989.08999999985,"y":2561108.1700000018}},{"attributes":{"ID":155522,"DIS_CODE":0,"TOWNNAME":"麻豆區","LI":"謝安里","LIN":"5鄰","STREET":" ","SECT":" ","MAREA":"謝厝寮","LANE":" ","ALLEY":" ","HOUSE_NO":"４６號","E_COORD97":172002.54999999999,"N_COORD97":2561136.98,"ADDRESS":"謝厝寮４６號","OBJECTID":155521},"geometry":{"x":172002.54999999981,"y":2561136.9800000023}},{"attributes":{"ID":155523,"DIS_CODE":0,"TOWNNAME":"麻豆區","LI":"謝安里","LIN":"5鄰","STREET":" ","SECT":" ","MAREA":"謝厝寮","LANE":" ","ALLEY":" ","HOUSE_NO":"４７號之１","E_COORD97":172000.79000000001,"N_COORD97":2561103.73,"ADDRESS":"謝厝寮４７號之１","OBJECTID":155522},"geometry":{"x":172000.79000000097,"y":2561103.7299999986}},{"attributes":{"ID":155524,"DIS_CODE":0,"TOWNNAME":"麻豆區","LI":"謝安里","LIN":"5鄰","STREET":" ","SECT":" ","MAREA":"謝厝寮","LANE":" ","ALLEY":" ","HOUSE_NO":"４７號","E_COORD97":172003.70000000001,"N_COORD97":2561090.0800000001,"ADDRESS":"謝厝寮４７號","OBJECTID":155523},"geometry":{"x":172003.70000000019,"y":2561090.0800000001}},{"attributes":{"ID":155525,"DIS_CODE":0,"TOWNNAME":"安定區","LI":"六嘉里","LIN":"5鄰","STREET":" ","SECT":" ","MAREA":"六塊寮","LANE":" ","ALLEY":" ","HOUSE_NO":"３９號之８","E_COORD97":170246.977828,"N_COORD97":2553525.7307600002,"ADDRESS":"六塊寮３９號之８","OBJECTID":155524},"geometry":{"x":170246.97782799974,"y":2553525.7307640016}},{"attributes":{"ID":155526,"DIS_CODE":0,"TOWNNAME":"南區","LI":"府南里","LIN":"2鄰","STREET":"金華路","SECT":"一段","MAREA":" ","LANE":"４８４巷","ALLEY":"７１弄","HOUSE_NO":"１９號","E_COORD97":167219.42000000001,"N_COORD97":2541477.3399999999,"ADDRESS":"金華路一段４８４巷７１弄１９號","OBJECTID":155525},"geometry":{"x":167219.42000000086,"y":2541477.3399999999}},{"attributes":{"ID":155527,"DIS_CODE":0,"TOWNNAME":"南區","LI":"府南里","LIN":"2鄰","STREET":"金華路","SECT":"一段","MAREA":" ","LANE":"４８４巷","ALLEY":"７１弄","HOUSE_NO":"１號","E_COORD97":167201.29000000001,"N_COORD97":2541445.7000000002,"ADDRESS":"金華路一段４８４巷７１弄１號","OBJECTID":155526},"geometry":{"x":167201.29000000097,"y":2541445.7000000011}},{"attributes":{"ID":155528,"DIS_CODE":0,"TOWNNAME":"南區","LI":"府南里","LIN":"2鄰","STREET":"金華路","SECT":"一段","MAREA":" ","LANE":"４８４巷","ALLEY":"７１弄","HOUSE_NO":"２０號","E_COORD97":167236.10999999999,"N_COORD97":2541467.3900000001,"ADDRESS":"金華路一段４８４巷７１弄２０號","OBJECTID":155527},"geometry":{"x":167236.11000000034,"y":2541467.3900000025}},{"attributes":{"ID":155529,"DIS_CODE":0,"TOWNNAME":"南區","LI":"府南里","LIN":"2鄰","STREET":"金華路","SECT":"一段","MAREA":" ","LANE":"４８４巷","ALLEY":"７１弄","HOUSE_NO":"２１號","E_COORD97":167221.44,"N_COORD97":2541480.7999999998,"ADDRESS":"金華路一段４８４巷７１弄２１號","OBJECTID":155528},"geometry":{"x":167221.44000000134,"y":2541480.8000000026}},{"attributes":{"ID":155530,"DIS_CODE":0,"TOWNNAME":"麻豆區","LI":"謝安里","LIN":"5鄰","STREET":" ","SECT":" ","MAREA":"謝厝寮","LANE":" ","ALLEY":" ","HOUSE_NO":"４８號之１０","E_COORD97":171971.60999999999,"N_COORD97":2561062.6400000001,"ADDRESS":"謝厝寮４８號之１０","OBJECTID":155529},"geometry":{"x":171971.61000000127,"y":2561062.6400000006}},{"attributes":{"ID":155531,"DIS_CODE":0,"TOWNNAME":"南區","LI":"府南里","LIN":"2鄰","STREET":"金華路","SECT":"一段","MAREA":" ","LANE":"４８４巷","ALLEY":"７１弄","HOUSE_NO":"２２號","E_COORD97":167239.10000000001,"N_COORD97":2541470.2999999998,"ADDRESS":"金華路一段４８４巷７１弄２２號","OBJECTID":155530},"geometry":{"x":167239.0999999987,"y":2541470.3000000045}},{"attributes":{"ID":155532,"DIS_CODE":0,"TOWNNAME":"南區","LI":"府南里","LIN":"2鄰","STREET":"金華路","SECT":"一段","MAREA":" ","LANE":"４８４巷","ALLEY":"７１弄","HOUSE_NO":"２３號","E_COORD97":167223.64000000001,"N_COORD97":2541483.9100000001,"ADDRESS":"金華路一段４８４巷７１弄２３號","OBJECTID":155531},"geometry":{"x":167223.64000000153,"y":2541483.910000002}},{"attributes":{"ID":155533,"DIS_CODE":0,"TOWNNAME":"麻豆區","LI":"謝安里","LIN":"5鄰","STREET":" ","SECT":" ","MAREA":"謝厝寮","LANE":" ","ALLEY":" ","HOUSE_NO":"４８號之１１","E_COORD97":171975.22,"N_COORD97":2561064.2200000002,"ADDRESS":"謝厝寮４８號之１１","OBJECTID":155532},"geometry":{"x":171975.22000000067,"y":2561064.2200000025}},{"attributes":{"ID":155534,"DIS_CODE":0,"TOWNNAME":"麻豆區","LI":"謝安里","LIN":"5鄰","STREET":" ","SECT":" ","MAREA":"謝厝寮","LANE":" ","ALLEY":" ","HOUSE_NO":"４８號之１２","E_COORD97":171978.70999999999,"N_COORD97":2561066.4199999999,"ADDRESS":"謝厝寮４８號之１２","OBJECTID":155533},"geometry":{"x":171978.71000000089,"y":2561066.4200000018}},{"attributes":{"ID":155535,"DIS_CODE":0,"TOWNNAME":"麻豆區","LI":"謝安里","LIN":"5鄰","STREET":" ","SECT":" ","MAREA":"謝厝寮","LANE":" ","ALLEY":" ","HOUSE_NO":"４８號之１３","E_COORD97":171982.22,"N_COORD97":2561068,"ADDRESS":"謝厝寮４８號之１３","OBJECTID":155534},"geometry":{"x":171982.22000000067,"y":2561068.0000000019}},{"attributes":{"ID":155536,"DIS_CODE":0,"TOWNNAME":"麻豆區","LI":"謝安里","LIN":"5鄰","STREET":" ","SECT":" ","MAREA":"謝厝寮","LANE":" ","ALLEY":" ","HOUSE_NO":"４８號之１４","E_COORD97":171985.66,"N_COORD97":2561069.6400000001,"ADDRESS":"謝厝寮４８號之１４","OBJECTID":155535},"geometry":{"x":171985.66000000015,"y":2561069.6400000006}},{"attributes":{"ID":155537,"DIS_CODE":0,"TOWNNAME":"麻豆區","LI":"謝安里","LIN":"5鄰","STREET":" ","SECT":" ","MAREA":"謝厝寮","LANE":" ","ALLEY":" ","HOUSE_NO":"４８號之１５","E_COORD97":171989.09,"N_COORD97":2561071.3999999999,"ADDRESS":"謝厝寮４８號之１５","OBJECTID":155536},"geometry":{"x":171989.08999999985,"y":2561071.4000000004}},{"attributes":{"ID":155538,"DIS_CODE":0,"TOWNNAME":"南區","LI":"府南里","LIN":"2鄰","STREET":"金華路","SECT":"一段","MAREA":" ","LANE":"４８４巷","ALLEY":"７１弄","HOUSE_NO":"２４號","E_COORD97":167240.04000000001,"N_COORD97":2541474.2799999998,"ADDRESS":"金華路一段４８４巷７１弄２４號","OBJECTID":155537},"geometry":{"x":167240.0400000019,"y":2541474.2799999993}},{"attributes":{"ID":155539,"DIS_CODE":0,"TOWNNAME":"麻豆區","LI":"謝安里","LIN":"5鄰","STREET":" ","SECT":" ","MAREA":"謝厝寮","LANE":" ","ALLEY":" ","HOUSE_NO":"４８號之１６","E_COORD97":171992.79000000001,"N_COORD97":2561073,"ADDRESS":"謝厝寮４８號之１６","OBJECTID":155538},"geometry":{"x":171992.79000000004,"y":2561073}},{"attributes":{"ID":155540,"DIS_CODE":0,"TOWNNAME":"南區","LI":"府南里","LIN":"2鄰","STREET":"金華路","SECT":"一段","MAREA":" ","LANE":"４８４巷","ALLEY":"７１弄","HOUSE_NO":"２５號","E_COORD97":167225.16,"N_COORD97":2541487.7400000002,"ADDRESS":"金華路一段４８４巷７１弄２５號","OBJECTID":155539},"geometry":{"x":167225.16000000015,"y":2541487.7400000021}},{"attributes":{"ID":155541,"DIS_CODE":0,"TOWNNAME":"南區","LI":"府南里","LIN":"2鄰","STREET":"金華路","SECT":"一段","MAREA":" ","LANE":"４８４巷","ALLEY":"７１弄","HOUSE_NO":"２６號","E_COORD97":167242.76000000001,"N_COORD97":2541477.8599999999,"ADDRESS":"金華路一段４８４巷７１弄２６號","OBJECTID":155540},"geometry":{"x":167242.75999999978,"y":2541477.8599999994}},{"attributes":{"ID":155542,"DIS_CODE":0,"TOWNNAME":"新營區","LI":"新南里","LIN":"19鄰","STREET":"隋唐街","SECT":" ","MAREA":" ","LANE":"３１巷","ALLEY":" ","HOUSE_NO":"４０號","E_COORD97":178666,"N_COORD97":2578336.5499999998,"ADDRESS":"隋唐街３１巷４０號","OBJECTID":155541},"geometry":{"x":178666.00000000093,"y":2578336.5500000026}},{"attributes":{"ID":155543,"DIS_CODE":0,"TOWNNAME":"東區","LI":"關聖里","LIN":"15鄰","STREET":"裕英街","SECT":" ","MAREA":" ","LANE":" ","ALLEY":" ","HOUSE_NO":"９９號","E_COORD97":172371.22,"N_COORD97":2543031.0600000001,"ADDRESS":"裕英街９９號","OBJECTID":155542},"geometry":{"x":172371.21999999974,"y":2543031.0600000042}},{"attributes":{"ID":155544,"DIS_CODE":0,"TOWNNAME":"南區","LI":"府南里","LIN":"2鄰","STREET":"金華路","SECT":"一段","MAREA":" ","LANE":"４８４巷","ALLEY":"７１弄","HOUSE_NO":"２７號","E_COORD97":167225.82999999999,"N_COORD97":2541491.79,"ADDRESS":"金華路一段４８４巷７１弄２７號","OBJECTID":155543},"geometry":{"x":167225.83000000007,"y":2541491.7899999991}},{"attributes":{"ID":155545,"DIS_CODE":0,"TOWNNAME":"南區","LI":"建南里","LIN":"19鄰","STREET":"明興路","SECT":" ","MAREA":" ","LANE":" ","ALLEY":" ","HOUSE_NO":"２９１之１號","E_COORD97":166548.04000000001,"N_COORD97":2539112.0600000001,"ADDRESS":"明興路２９１之１號","OBJECTID":155544},"geometry":{"x":166548.04000000004,"y":2539112.0600000024}},{"attributes":{"ID":155546,"DIS_CODE":0,"TOWNNAME":"歸仁區","LI":"七甲里","LIN":"19鄰","STREET":"南潭三街","SECT":" ","MAREA":" ","LANE":" ","ALLEY":" ","HOUSE_NO":"１９０號","E_COORD97":176503.32999999999,"N_COORD97":2543211.8100000001,"ADDRESS":"南潭三街１９０號","OBJECTID":155545},"geometry":{"x":176503.33000000007,"y":2543211.8100000005}},{"attributes":{"ID":155547,"DIS_CODE":0,"TOWNNAME":"歸仁區","LI":"七甲里","LIN":"19鄰","STREET":"南潭三街","SECT":" ","MAREA":" ","LANE":" ","ALLEY":" ","HOUSE_NO":"１７８號","E_COORD97":176476.73000000001,"N_COORD97":2543210.8100000001,"ADDRESS":"南潭三街１７８號","OBJECTID":155546},"geometry":{"x":176476.73000000138,"y":2543210.8100000005}},{"attributes":{"ID":155548,"DIS_CODE":0,"TOWNNAME":"南區","LI":"府南里","LIN":"2鄰","STREET":"金華路","SECT":"一段","MAREA":" ","LANE":"４８４巷","ALLEY":"７１弄","HOUSE_NO":"２８號","E_COORD97":167243.98000000001,"N_COORD97":2541481.23,"ADDRESS":"金華路一段４８４巷７１弄２８號","OBJECTID":155547},"geometry":{"x":167243.98000000045,"y":2541481.2300000023}},{"attributes":{"ID":155549,"DIS_CODE":0,"TOWNNAME":"南區","LI":"府南里","LIN":"2鄰","STREET":"金華路","SECT":"一段","MAREA":" ","LANE":"４８４巷","ALLEY":"７１弄","HOUSE_NO":"２９號","E_COORD97":167228.87,"N_COORD97":2541495.2400000002,"ADDRESS":"金華路一段４８４巷７１弄２９號","OBJECTID":155548},"geometry":{"x":167228.87000000011,"y":2541495.2400000021}},{"attributes":{"ID":155550,"DIS_CODE":0,"TOWNNAME":"南區","LI":"府南里","LIN":"2鄰","STREET":"金華路","SECT":"一段","MAREA":" ","LANE":"４８４巷","ALLEY":"７１弄","HOUSE_NO":"２號","E_COORD97":167218.82000000001,"N_COORD97":2541435.4399999999,"ADDRESS":"金華路一段４８４巷７１弄２號","OBJECTID":155549},"geometry":{"x":167218.82000000123,"y":2541435.4400000013}},{"attributes":{"ID":155551,"DIS_CODE":0,"TOWNNAME":"麻豆區","LI":"謝安里","LIN":"5鄰","STREET":" ","SECT":" ","MAREA":"謝厝寮","LANE":" ","ALLEY":" ","HOUSE_NO":"４８號之１７","E_COORD97":171995.72,"N_COORD97":2561075.5600000001,"ADDRESS":"謝厝寮４８號之１７","OBJECTID":155550},"geometry":{"x":171995.72000000067,"y":2561075.5600000024}},{"attributes":{"ID":155552,"DIS_CODE":0,"TOWNNAME":"麻豆區","LI":"謝安里","LIN":"5鄰","STREET":" ","SECT":" ","MAREA":"謝厝寮","LANE":" ","ALLEY":" ","HOUSE_NO":"４８號之１","E_COORD97":172051.45999999999,"N_COORD97":2561080.1000000001,"ADDRESS":"謝厝寮４８號之１","OBJECTID":155551},"geometry":{"x":172051.46000000183,"y":2561080.1000000034}},{"attributes":{"ID":155553,"DIS_CODE":0,"TOWNNAME":"麻豆區","LI":"謝安里","LIN":"5鄰","STREET":" ","SECT":" ","MAREA":"謝厝寮","LANE":" ","ALLEY":" ","HOUSE_NO":"４８號之２","E_COORD97":172006.31,"N_COORD97":2561053.6400000001,"ADDRESS":"謝厝寮４８號之２","OBJECTID":155552},"geometry":{"x":172006.31000000145,"y":2561053.6399999987}},{"attributes":{"ID":155554,"DIS_CODE":0,"TOWNNAME":"麻豆區","LI":"謝安里","LIN":"5鄰","STREET":" ","SECT":" ","MAREA":"謝厝寮","LANE":" ","ALLEY":" ","HOUSE_NO":"４８號之３","E_COORD97":172002.39999999999,"N_COORD97":2561052.25,"ADDRESS":"謝厝寮４８號之３","OBJECTID":155553},"geometry":{"x":172002.40000000037,"y":2561052.2499999981}},{"attributes":{"ID":155555,"DIS_CODE":0,"TOWNNAME":"麻豆區","LI":"謝安里","LIN":"5鄰","STREET":" ","SECT":" ","MAREA":"謝厝寮","LANE":" ","ALLEY":" ","HOUSE_NO":"４８號之４","E_COORD97":171997.60999999999,"N_COORD97":2561053.0699999998,"ADDRESS":"謝厝寮４８號之４","OBJECTID":155554},"geometry":{"x":171997.61000000034,"y":2561053.0700000003}},{"attributes":{"ID":155556,"DIS_CODE":0,"TOWNNAME":"麻豆區","LI":"謝安里","LIN":"5鄰","STREET":" ","SECT":" ","MAREA":"謝厝寮","LANE":" ","ALLEY":" ","HOUSE_NO":"４８號之５","E_COORD97":171994.22,"N_COORD97":2561051.23,"ADDRESS":"謝厝寮４８號之５","OBJECTID":155555},"geometry":{"x":171994.22000000067,"y":2561051.2300000023}},{"attributes":{"ID":155557,"DIS_CODE":0,"TOWNNAME":"安定區","LI":"南安里","LIN":"5鄰","STREET":" ","SECT":" ","MAREA":"油車","LANE":" ","ALLEY":" ","HOUSE_NO":"５２號","E_COORD97":170615.44,"N_COORD97":2555611.25,"ADDRESS":"油車５２號","OBJECTID":155556},"geometry":{"x":170615.44000000041,"y":2555611.2500000019}},{"attributes":{"ID":155558,"DIS_CODE":0,"TOWNNAME":"南區","LI":"府南里","LIN":"2鄰","STREET":"金華路","SECT":"一段","MAREA":" ","LANE":"４８４巷","ALLEY":"７１弄","HOUSE_NO":"３０號","E_COORD97":167246.85000000001,"N_COORD97":2541484.52,"ADDRESS":"金華路一段４８４巷７１弄３０號","OBJECTID":155557},"geometry":{"x":167246.84999999963,"y":2541484.5200000014}},{"attributes":{"ID":155559,"DIS_CODE":0,"TOWNNAME":"南區","LI":"府南里","LIN":"2鄰","STREET":"金華路","SECT":"一段","MAREA":" ","LANE":"４８４巷","ALLEY":"７１弄","HOUSE_NO":"３１號","E_COORD97":167230.76999999999,"N_COORD97":2541498.4399999999,"ADDRESS":"金華路一段４８４巷７１弄３１號","OBJECTID":155558},"geometry":{"x":167230.76999999955,"y":2541498.4400000032}},{"attributes":{"ID":155560,"DIS_CODE":0,"TOWNNAME":"南區","LI":"府南里","LIN":"2鄰","STREET":"金華路","SECT":"一段","MAREA":" ","LANE":"４８４巷","ALLEY":"７１弄","HOUSE_NO":"３２號","E_COORD97":167248.78,"N_COORD97":2541488.3199999998,"ADDRESS":"金華路一段４８４巷７１弄３２號","OBJECTID":155559},"geometry":{"x":167248.78000000212,"y":2541488.3200000003}},{"attributes":{"ID":155561,"DIS_CODE":0,"TOWNNAME":"歸仁區","LI":"大廟里","LIN":"19鄰","STREET":"大廟一街","SECT":" ","MAREA":" ","LANE":" ","ALLEY":" ","HOUSE_NO":"１０號","E_COORD97":175871.07000000001,"N_COORD97":2544138.25,"ADDRESS":"大廟一街１０號","OBJECTID":155560},"geometry":{"x":175871.07000000123,"y":2544138.2500000019}},{"attributes":{"ID":155562,"DIS_CODE":0,"TOWNNAME":"麻豆區","LI":"謝安里","LIN":"5鄰","STREET":" ","SECT":" ","MAREA":"謝厝寮","LANE":" ","ALLEY":" ","HOUSE_NO":"４８號之６","E_COORD97":171990.48999999999,"N_COORD97":2561049.8700000001,"ADDRESS":"謝厝寮４８號之６","OBJECTID":155561},"geometry":{"x":171990.49000000209,"y":2561049.8700000029}},{"attributes":{"ID":155563,"DIS_CODE":0,"TOWNNAME":"麻豆區","LI":"謝安里","LIN":"5鄰","STREET":" ","SECT":" ","MAREA":"謝厝寮","LANE":" ","ALLEY":" ","HOUSE_NO":"４８號之７","E_COORD97":171986.73000000001,"N_COORD97":2561048.3999999999,"ADDRESS":"謝厝寮４８號之７","OBJECTID":155562},"geometry":{"x":171986.73000000045,"y":2561048.4000000041}},{"attributes":{"ID":155564,"DIS_CODE":0,"TOWNNAME":"歸仁區","LI":"大廟里","LIN":"19鄰","STREET":"保大路","SECT":"三段","MAREA":" ","LANE":" ","ALLEY":" ","HOUSE_NO":"２４９號","E_COORD97":175818.67000000001,"N_COORD97":2544233.2799999998,"ADDRESS":"保大路三段２４９號","OBJECTID":155563},"geometry":{"x":175818.67000000086,"y":2544233.2800000012}},{"attributes":{"ID":155565,"DIS_CODE":0,"TOWNNAME":"歸仁區","LI":"大廟里","LIN":"19鄰","STREET":"保大路","SECT":"三段","MAREA":" ","LANE":" ","ALLEY":" ","HOUSE_NO":"２４７號","E_COORD97":175821.76999999999,"N_COORD97":2544228.2799999998,"ADDRESS":"保大路三段２４７號","OBJECTID":155564},"geometry":{"x":175821.76999999955,"y":2544228.2799999975}},{"attributes":{"ID":155566,"DIS_CODE":0,"TOWNNAME":"歸仁區","LI":"大廟里","LIN":"19鄰","STREET":"保大路","SECT":"三段","MAREA":" ","LANE":" ","ALLEY":" ","HOUSE_NO":"２８５號","E_COORD97":175740.17000000001,"N_COORD97":2544311.2799999998,"ADDRESS":"保大路三段２８５號","OBJECTID":155565},"geometry":{"x":175740.16999999993,"y":2544311.2800000012}},{"attributes":{"ID":155567,"DIS_CODE":0,"TOWNNAME":"麻豆區","LI":"謝安里","LIN":"5鄰","STREET":" ","SECT":" ","MAREA":"謝厝寮","LANE":" ","ALLEY":" ","HOUSE_NO":"４８號之８","E_COORD97":171983.31,"N_COORD97":2561046.8300000001,"ADDRESS":"謝厝寮４８號之８","OBJECTID":155566},"geometry":{"x":171983.31000000052,"y":2561046.8300000019}},{"attributes":{"ID":155568,"DIS_CODE":0,"TOWNNAME":"麻豆區","LI":"謝安里","LIN":"5鄰","STREET":" ","SECT":" ","MAREA":"謝厝寮","LANE":" ","ALLEY":" ","HOUSE_NO":"４８號之９","E_COORD97":171979.70000000001,"N_COORD97":2561044.75,"ADDRESS":"謝厝寮４８號之９","OBJECTID":155567},"geometry":{"x":171979.70000000112,"y":2561044.75}},{"attributes":{"ID":155569,"DIS_CODE":0,"TOWNNAME":"麻豆區","LI":"謝安里","LIN":"5鄰","STREET":" ","SECT":" ","MAREA":"謝厝寮","LANE":" ","ALLEY":" ","HOUSE_NO":"４８號","E_COORD97":172013.97,"N_COORD97":2561083.46,"ADDRESS":"謝厝寮４８號","OBJECTID":155568},"geometry":{"x":172013.9700000016,"y":2561083.4600000028}},{"attributes":{"ID":155570,"DIS_CODE":0,"TOWNNAME":"麻豆區","LI":"謝安里","LIN":"5鄰","STREET":" ","SECT":" ","MAREA":"謝厝寮","LANE":" ","ALLEY":" ","HOUSE_NO":"４９號","E_COORD97":171974.10999999999,"N_COORD97":2561093.96,"ADDRESS":"謝厝寮４９號","OBJECTID":155569},"geometry":{"x":171974.11000000034,"y":2561093.9600000028}},{"attributes":{"ID":155571,"DIS_CODE":0,"TOWNNAME":"麻豆區","LI":"謝安里","LIN":"5鄰","STREET":" ","SECT":" ","MAREA":"謝厝寮","LANE":" ","ALLEY":" ","HOUSE_NO":"６３號之１","E_COORD97":171947.44,"N_COORD97":2561080.4700000002,"ADDRESS":"謝厝寮６３號之１","OBJECTID":155570},"geometry":{"x":171947.44000000134,"y":2561080.4700000007}},{"attributes":{"ID":155572,"DIS_CODE":0,"TOWNNAME":"麻豆區","LI":"謝安里","LIN":"5鄰","STREET":" ","SECT":" ","MAREA":"謝厝寮","LANE":" ","ALLEY":" ","HOUSE_NO":"６３號","E_COORD97":171954.10999999999,"N_COORD97":2561083.6000000001,"ADDRESS":"謝厝寮６３號","OBJECTID":155571},"geometry":{"x":171954.1099999994,"y":2561083.6000000034}},{"attributes":{"ID":155573,"DIS_CODE":0,"TOWNNAME":"麻豆區","LI":"謝安里","LIN":"5鄰","STREET":" ","SECT":" ","MAREA":"謝厝寮","LANE":" ","ALLEY":" ","HOUSE_NO":"６４號之１","E_COORD97":171963.64999999999,"N_COORD97":2561115.6499999999,"ADDRESS":"謝厝寮６４號之１","OBJECTID":155572},"geometry":{"x":171963.65000000037,"y":2561115.6500000022}},{"attributes":{"ID":155574,"DIS_CODE":0,"TOWNNAME":"麻豆區","LI":"謝安里","LIN":"5鄰","STREET":" ","SECT":" ","MAREA":"謝厝寮","LANE":" ","ALLEY":" ","HOUSE_NO":"６４號之３","E_COORD97":171953.70000000001,"N_COORD97":2561104.1400000001,"ADDRESS":"謝厝寮６４號之３","OBJECTID":155573},"geometry":{"x":171953.70000000112,"y":2561104.1400000006}},{"attributes":{"ID":155575,"DIS_CODE":0,"TOWNNAME":"麻豆區","LI":"謝安里","LIN":"5鄰","STREET":" ","SECT":" ","MAREA":"謝厝寮","LANE":" ","ALLEY":" ","HOUSE_NO":"６４號","E_COORD97":171936.48000000001,"N_COORD97":2561092.79,"ADDRESS":"謝厝寮６４號","OBJECTID":155574},"geometry":{"x":171936.48000000231,"y":2561092.790000001}},{"attributes":{"ID":155576,"DIS_CODE":0,"TOWNNAME":"麻豆區","LI":"謝安里","LIN":"5鄰","STREET":" ","SECT":" ","MAREA":"謝厝寮","LANE":" ","ALLEY":" ","HOUSE_NO":"６５號","E_COORD97":171925.54000000001,"N_COORD97":2561076.6099999999,"ADDRESS":"謝厝寮６５號","OBJECTID":155575},"geometry":{"x":171925.5400000019,"y":2561076.6100000031}},{"attributes":{"ID":155577,"DIS_CODE":0,"TOWNNAME":"麻豆區","LI":"謝安里","LIN":"5鄰","STREET":" ","SECT":" ","MAREA":"謝厝寮","LANE":" ","ALLEY":" ","HOUSE_NO":"６６號","E_COORD97":171909.78,"N_COORD97":2561058.9199999999,"ADDRESS":"謝厝寮６６號","OBJECTID":155576},"geometry":{"x":171909.78000000026,"y":2561058.9200000018}},{"attributes":{"ID":155578,"DIS_CODE":0,"TOWNNAME":"麻豆區","LI":"謝安里","LIN":"5鄰","STREET":" ","SECT":" ","MAREA":"謝厝寮","LANE":" ","ALLEY":" ","HOUSE_NO":"６７號之１","E_COORD97":171883.01999999999,"N_COORD97":2561040.0099999998,"ADDRESS":"謝厝寮６７號之１","OBJECTID":155577},"geometry":{"x":171883.02000000048,"y":2561040.0099999979}},{"attributes":{"ID":155579,"DIS_CODE":0,"TOWNNAME":"南區","LI":"府南里","LIN":"2鄰","STREET":"金華路","SECT":"一段","MAREA":" ","LANE":"４８４巷","ALLEY":"７１弄","HOUSE_NO":"３３號","E_COORD97":167232.79000000001,"N_COORD97":2541501.7799999998,"ADDRESS":"金華路一段４８４巷７１弄３３號","OBJECTID":155578},"geometry":{"x":167232.79000000004,"y":2541501.7799999993}},{"attributes":{"ID":155580,"DIS_CODE":0,"TOWNNAME":"南區","LI":"府南里","LIN":"2鄰","STREET":"金華路","SECT":"一段","MAREA":" ","LANE":"４８４巷","ALLEY":"７１弄","HOUSE_NO":"３４號","E_COORD97":167250.42999999999,"N_COORD97":2541491.6800000002,"ADDRESS":"金華路一段４８４巷７１弄３４號","OBJECTID":155579},"geometry":{"x":167250.4299999997,"y":2541491.6800000016}},{"attributes":{"ID":155581,"DIS_CODE":0,"TOWNNAME":"南區","LI":"府南里","LIN":"2鄰","STREET":"金華路","SECT":"一段","MAREA":" ","LANE":"４８４巷","ALLEY":"７１弄","HOUSE_NO":"３５號","E_COORD97":167235.28,"N_COORD97":2541505.2200000002,"ADDRESS":"金華路一段４８４巷７１弄３５號","OBJECTID":155580},"geometry":{"x":167235.28000000212,"y":2541505.2200000025}},{"attributes":{"ID":155582,"DIS_CODE":0,"TOWNNAME":"南區","LI":"府南里","LIN":"2鄰","STREET":"金華路","SECT":"一段","MAREA":" ","LANE":"４８４巷","ALLEY":"７１弄","HOUSE_NO":"３６號","E_COORD97":167252.35999999999,"N_COORD97":2541494.98,"ADDRESS":"金華路一段４８４巷７１弄３６號","OBJECTID":155581},"geometry":{"x":167252.36000000127,"y":2541494.9800000004}},{"attributes":{"ID":155583,"DIS_CODE":0,"TOWNNAME":"南區","LI":"府南里","LIN":"2鄰","STREET":"金華路","SECT":"一段","MAREA":" ","LANE":"４８４巷","ALLEY":"７１弄","HOUSE_NO":"３７號","E_COORD97":167237.35000000001,"N_COORD97":2541508.4199999999,"ADDRESS":"金華路一段４８４巷７１弄３７號","OBJECTID":155582},"geometry":{"x":167237.34999999963,"y":2541508.4199999999}},{"attributes":{"ID":155584,"DIS_CODE":0,"TOWNNAME":"東區","LI":"文聖里","LIN":"15鄰","STREET":"裕興街","SECT":" ","MAREA":" ","LANE":" ","ALLEY":" ","HOUSE_NO":"２８１號","E_COORD97":172546.17000000001,"N_COORD97":2542663.75,"ADDRESS":"裕興街２８１號","OBJECTID":155583},"geometry":{"x":172546.16999999993,"y":2542663.7500000019}},{"attributes":{"ID":155585,"DIS_CODE":0,"TOWNNAME":"東區","LI":"文聖里","LIN":"15鄰","STREET":"裕興街","SECT":" ","MAREA":" ","LANE":" ","ALLEY":" ","HOUSE_NO":"２８３號","E_COORD97":172550.88,"N_COORD97":2542661.1699999999,"ADDRESS":"裕興街２８３號","OBJECTID":155584},"geometry":{"x":172550.88000000082,"y":2542661.1700000018}},{"attributes":{"ID":155586,"DIS_CODE":0,"TOWNNAME":"麻豆區","LI":"謝安里","LIN":"5鄰","STREET":" ","SECT":" ","MAREA":"謝厝寮","LANE":" ","ALLEY":" ","HOUSE_NO":"６７號","E_COORD97":171895.82000000001,"N_COORD97":2561049.5299999998,"ADDRESS":"謝厝寮６７號","OBJECTID":155585},"geometry":{"x":171895.82000000123,"y":2561049.5299999993}},{"attributes":{"ID":155587,"DIS_CODE":0,"TOWNNAME":"麻豆區","LI":"謝安里","LIN":"5鄰","STREET":" ","SECT":" ","MAREA":"謝厝寮","LANE":" ","ALLEY":" ","HOUSE_NO":"７１號之１","E_COORD97":171891.42000000001,"N_COORD97":2561069.71,"ADDRESS":"謝厝寮７１號之１","OBJECTID":155586},"geometry":{"x":171891.42000000086,"y":2561069.7100000009}},{"attributes":{"ID":155588,"DIS_CODE":0,"TOWNNAME":"麻豆區","LI":"謝安里","LIN":"5鄰","STREET":" ","SECT":" ","MAREA":"謝厝寮","LANE":" ","ALLEY":" ","HOUSE_NO":"７１號之２","E_COORD97":171894.95000000001,"N_COORD97":2561071.4300000002,"ADDRESS":"謝厝寮７１號之２","OBJECTID":155587},"geometry":{"x":171894.95000000019,"y":2561071.4300000034}},{"attributes":{"ID":155589,"DIS_CODE":0,"TOWNNAME":"麻豆區","LI":"謝安里","LIN":"5鄰","STREET":" ","SECT":" ","MAREA":"謝厝寮","LANE":" ","ALLEY":" ","HOUSE_NO":"７１號之３","E_COORD97":171901.89999999999,"N_COORD97":2561078,"ADDRESS":"謝厝寮７１號之３","OBJECTID":155588},"geometry":{"x":171901.9000000013,"y":2561078.0000000037}},{"attributes":{"ID":155590,"DIS_CODE":0,"TOWNNAME":"麻豆區","LI":"謝安里","LIN":"5鄰","STREET":" ","SECT":" ","MAREA":"謝厝寮","LANE":" ","ALLEY":" ","HOUSE_NO":"７１號","E_COORD97":171886.19,"N_COORD97":2561065.1800000002,"ADDRESS":"謝厝寮７１號","OBJECTID":155589},"geometry":{"x":171886.19000000134,"y":2561065.1799999997}},{"attributes":{"ID":155591,"DIS_CODE":0,"TOWNNAME":"麻豆區","LI":"謝安里","LIN":"5鄰","STREET":" ","SECT":" ","MAREA":"謝厝寮","LANE":" ","ALLEY":" ","HOUSE_NO":"７２號","E_COORD97":171917.48999999999,"N_COORD97":2561092.9100000001,"ADDRESS":"謝厝寮７２號","OBJECTID":155590},"geometry":{"x":171917.48999999929,"y":2561092.910000002}},{"attributes":{"ID":155592,"DIS_CODE":0,"TOWNNAME":"安定區","LI":"安加里","LIN":"5鄰","STREET":" ","SECT":" ","MAREA":"安定","LANE":" ","ALLEY":" ","HOUSE_NO":"２０３號","E_COORD97":171800.22,"N_COORD97":2557651.3199999998,"ADDRESS":"安定２０３號","OBJECTID":155591},"geometry":{"x":171800.2200000016,"y":2557651.3200000003}},{"attributes":{"ID":155593,"DIS_CODE":0,"TOWNNAME":"安定區","LI":"南安里","LIN":"5鄰","STREET":" ","SECT":" ","MAREA":"油車","LANE":" ","ALLEY":" ","HOUSE_NO":"５５之５號","E_COORD97":170558.14000000001,"N_COORD97":2555536.2999999998,"ADDRESS":"油車５５之５號","OBJECTID":155592},"geometry":{"x":170558.14000000153,"y":2555536.3000000007}},{"attributes":{"ID":155594,"DIS_CODE":0,"TOWNNAME":"安定區","LI":"六嘉里","LIN":"5鄰","STREET":" ","SECT":" ","MAREA":"六塊寮","LANE":" ","ALLEY":" ","HOUSE_NO":"３９之１１號","E_COORD97":170240.51507600001,"N_COORD97":2553497.7378600002,"ADDRESS":"六塊寮３９之１１號","OBJECTID":155593},"geometry":{"x":170240.51507600211,"y":2553497.7378620002}},{"attributes":{"ID":155595,"DIS_CODE":0,"TOWNNAME":"安定區","LI":"安定里","LIN":"5鄰","STREET":" ","SECT":" ","MAREA":"安定","LANE":" ","ALLEY":" ","HOUSE_NO":"２６之１號","E_COORD97":172126.39999999999,"N_COORD97":2558005.3199999998,"ADDRESS":"安定２６號之１","OBJECTID":155594},"geometry":{"x":172126.40000000037,"y":2558005.3200000022}},{"attributes":{"ID":155596,"DIS_CODE":0,"TOWNNAME":"安定區","LI":"海寮里","LIN":"5鄰","STREET":" ","SECT":" ","MAREA":"海寮","LANE":" ","ALLEY":" ","HOUSE_NO":"５８之１號","E_COORD97":169411.09,"N_COORD97":2555440.2999999998,"ADDRESS":"海寮５８之１號","OBJECTID":155595},"geometry":{"x":169411.09000000171,"y":2555440.3000000007}},{"attributes":{"ID":155597,"DIS_CODE":0,"TOWNNAME":"安定區","LI":"安加里","LIN":"5鄰","STREET":" ","SECT":" ","MAREA":"安定","LANE":" ","ALLEY":" ","HOUSE_NO":"２０４號之７","E_COORD97":171826.23000000001,"N_COORD97":2557656.3199999998,"ADDRESS":"安定２０４號之７","OBJECTID":155596},"geometry":{"x":171826.22999999952,"y":2557656.3200000022}},{"attributes":{"ID":155598,"DIS_CODE":0,"TOWNNAME":"安定區","LI":"保西里","LIN":"5鄰","STREET":" ","SECT":" ","MAREA":"安定","LANE":" ","ALLEY":" ","HOUSE_NO":"３７２號","E_COORD97":171551.51999999999,"N_COORD97":2557638.3199999998,"ADDRESS":"安定３７２號","OBJECTID":155597},"geometry":{"x":171551.51999999955,"y":2557638.320000004}},{"attributes":{"ID":155599,"DIS_CODE":0,"TOWNNAME":"安定區","LI":"港南里","LIN":"5鄰","STREET":" ","SECT":" ","MAREA":"港口","LANE":" ","ALLEY":" ","HOUSE_NO":"３８之１號","E_COORD97":171546.84,"N_COORD97":2554234.2999999998,"ADDRESS":"港口３８之１號","OBJECTID":155598},"geometry":{"x":171546.83999999892,"y":2554234.3000000007}},{"attributes":{"ID":155600,"DIS_CODE":0,"TOWNNAME":"安定區","LI":"南安里","LIN":"5鄰","STREET":" ","SECT":" ","MAREA":"油車","LANE":" ","ALLEY":" ","HOUSE_NO":"５４之２號","E_COORD97":170553.04000000001,"N_COORD97":2555570.2999999998,"ADDRESS":"油車５４之２號","OBJECTID":155599},"geometry":{"x":170553.04000000097,"y":2555570.3000000007}},{"attributes":{"ID":155601,"DIS_CODE":0,"TOWNNAME":"安定區","LI":"港南里","LIN":"5鄰","STREET":" ","SECT":" ","MAREA":"港口","LANE":" ","ALLEY":" ","HOUSE_NO":"４１號之１","E_COORD97":171594.48000000001,"N_COORD97":2554160.2999999998,"ADDRESS":"港口４１號之１","OBJECTID":155600},"geometry":{"x":171594.48000000138,"y":2554160.3000000045}}]}