{"displayFieldName":"TOWNNAME","fieldAliases":{"ID":"ID","DIS_CODE":"DIS_CODE","TOWNNAME":"TOWNNAME","LI":"LI","LIN":"LIN","STREET":"STREET","SECT":"SECT","MAREA":"MAREA","LANE":"LANE","ALLEY":"ALLEY","HOUSE_NO":"HOUSE_NO","E_COORD97":"E_COORD97","N_COORD97":"N_COORD97","ADDRESS":"ADDRESS","OBJECTID":"OBJECTID"},"geometryType":"esriGeometryPoint","spatialReference":{"wkid":102443,"latestWkid":3826},"fields":[{"name":"ID","type":"esriFieldTypeDouble","alias":"ID"},{"name":"DIS_CODE","type":"esriFieldTypeInteger","alias":"DIS_CODE"},{"name":"TOWNNAME","type":"esriFieldTypeString","alias":"TOWNNAME","length":8},{"name":"LI","type":"esriFieldTypeString","alias":"LI","length":8},{"name":"LIN","type":"esriFieldTypeString","alias":"LIN","length":12},{"name":"STREET","type":"esriFieldTypeString","alias":"STREET","length":20},{"name":"SECT","type":"esriFieldTypeString","alias":"SECT","length":8},{"name":"MAREA","type":"esriFieldTypeString","alias":"MAREA","length":12},{"name":"LANE","type":"esriFieldTypeString","alias":"LANE","length":10},{"name":"ALLEY","type":"esriFieldTypeString","alias":"ALLEY","length":10},{"name":"HOUSE_NO","type":"esriFieldTypeString","alias":"HOUSE_NO","length":20},{"name":"E_COORD97","type":"esriFieldTypeDouble","alias":"E_COORD97"},{"name":"N_COORD97","type":"esriFieldTypeDouble","alias":"N_COORD97"},{"name":"ADDRESS","type":"esriFieldTypeString","alias":"ADDRESS","length":50},{"name":"OBJECTID","type":"esriFieldTypeOID","alias":"OBJECTID"}],"features":[{"attributes":{"ID":546228,"DIS_CODE":0,"TOWNNAME":"中西區","LI":"民權里","LIN":"10鄰","STREET":"民權路","SECT":"三段","MAREA":" ","LANE":" ","ALLEY":" ","HOUSE_NO":"１１２號","E_COORD97":167663.13,"N_COORD97":2544189.0699999998,"ADDRESS":"民權路三段１１２號","OBJECTID":546201},"geometry":{"x":167663.13000000175,"y":2544189.0700000003}},{"attributes":{"ID":546229,"DIS_CODE":0,"TOWNNAME":"中西區","LI":"民權里","LIN":"10鄰","STREET":"民權路","SECT":"三段","MAREA":" ","LANE":" ","ALLEY":" ","HOUSE_NO":"１１４號","E_COORD97":167658.69,"N_COORD97":2544190.5499999998,"ADDRESS":"民權路三段１１４號","OBJECTID":546202},"geometry":{"x":167658.69000000134,"y":2544190.5500000007}},{"attributes":{"ID":546230,"DIS_CODE":0,"TOWNNAME":"中西區","LI":"民權里","LIN":"10鄰","STREET":"民權路","SECT":"三段","MAREA":" ","LANE":" ","ALLEY":" ","HOUSE_NO":"１１６號","E_COORD97":167655.44,"N_COORD97":2544191.8900000001,"ADDRESS":"民權路三段１１６號","OBJECTID":546203},"geometry":{"x":167655.44000000134,"y":2544191.8900000043}},{"attributes":{"ID":546231,"DIS_CODE":0,"TOWNNAME":"中西區","LI":"民權里","LIN":"10鄰","STREET":"民權路","SECT":"三段","MAREA":" ","LANE":" ","ALLEY":" ","HOUSE_NO":"１１８號","E_COORD97":167652.63,"N_COORD97":2544194.2200000002,"ADDRESS":"民權路三段１１８號","OBJECTID":546204},"geometry":{"x":167652.62999999989,"y":2544194.2200000025}},{"attributes":{"ID":546232,"DIS_CODE":0,"TOWNNAME":"中西區","LI":"民權里","LIN":"10鄰","STREET":"民權路","SECT":"三段","MAREA":" ","LANE":" ","ALLEY":" ","HOUSE_NO":"１２０號","E_COORD97":167648.54000000001,"N_COORD97":2544194.71,"ADDRESS":"民權路三段１２０號","OBJECTID":546205},"geometry":{"x":167648.5400000019,"y":2544194.7100000028}},{"attributes":{"ID":546233,"DIS_CODE":0,"TOWNNAME":"中西區","LI":"民權里","LIN":"10鄰","STREET":"民權路","SECT":"三段","MAREA":" ","LANE":" ","ALLEY":" ","HOUSE_NO":"１２２號","E_COORD97":167643.81,"N_COORD97":2544193.7999999998,"ADDRESS":"民權路三段１２２號","OBJECTID":546206},"geometry":{"x":167643.80999999959,"y":2544193.8000000026}},{"attributes":{"ID":546234,"DIS_CODE":0,"TOWNNAME":"中西區","LI":"民權里","LIN":"10鄰","STREET":"民權路","SECT":"三段","MAREA":" ","LANE":" ","ALLEY":" ","HOUSE_NO":"１５０號","E_COORD97":167590.59,"N_COORD97":2544218.4100000001,"ADDRESS":"民權路三段１５０號","OBJECTID":546207},"geometry":{"x":167590.59000000078,"y":2544218.4100000039}},{"attributes":{"ID":546235,"DIS_CODE":0,"TOWNNAME":"永康區","LI":"西灣里","LIN":"14鄰","STREET":"大灣五街","SECT":" ","MAREA":" ","LANE":" ","ALLEY":" ","HOUSE_NO":"９６號","E_COORD97":174691.57000000001,"N_COORD97":2545300.5099999998,"ADDRESS":"大灣五街９６號","OBJECTID":546208},"geometry":{"x":174691.5700000003,"y":2545300.5099999998}},{"attributes":{"ID":546236,"DIS_CODE":0,"TOWNNAME":"永康區","LI":"西勢里","LIN":"10鄰","STREET":"西勢路","SECT":" ","MAREA":" ","LANE":" ","ALLEY":" ","HOUSE_NO":"１４７號","E_COORD97":175960.25,"N_COORD97":2546763.1299999999,"ADDRESS":"西勢路１４７號","OBJECTID":546209},"geometry":{"x":175960.25000000186,"y":2546763.1300000008}},{"attributes":{"ID":546237,"DIS_CODE":0,"TOWNNAME":"中西區","LI":"協和里","LIN":"10鄰","STREET":"中和街","SECT":" ","MAREA":" ","LANE":" ","ALLEY":" ","HOUSE_NO":"１００號","E_COORD97":167121.01000000001,"N_COORD97":2544620.7599999998,"ADDRESS":"中和街１００號","OBJECTID":546210},"geometry":{"x":167121.00999999978,"y":2544620.7599999998}},{"attributes":{"ID":546238,"DIS_CODE":0,"TOWNNAME":"中西區","LI":"協和里","LIN":"10鄰","STREET":"中和街","SECT":" ","MAREA":" ","LANE":" ","ALLEY":" ","HOUSE_NO":"１０２號","E_COORD97":167128.41,"N_COORD97":2544626.0899999999,"ADDRESS":"中和街１０２號","OBJECTID":546211},"geometry":{"x":167128.41000000015,"y":2544626.0899999999}},{"attributes":{"ID":546239,"DIS_CODE":0,"TOWNNAME":"中西區","LI":"協和里","LIN":"10鄰","STREET":"中和街","SECT":" ","MAREA":" ","LANE":" ","ALLEY":" ","HOUSE_NO":"１０８號","E_COORD97":167134.72,"N_COORD97":2544632.8999999999,"ADDRESS":"中和街１０８號","OBJECTID":546212},"geometry":{"x":167134.71999999974,"y":2544632.9000000022}},{"attributes":{"ID":546240,"DIS_CODE":0,"TOWNNAME":"中西區","LI":"協和里","LIN":"10鄰","STREET":"中和街","SECT":" ","MAREA":" ","LANE":" ","ALLEY":" ","HOUSE_NO":"１１０號","E_COORD97":167138.32000000001,"N_COORD97":2544635.6000000001,"ADDRESS":"中和街１１０號","OBJECTID":546213},"geometry":{"x":167138.31999999937,"y":2544635.5999999996}},{"attributes":{"ID":546241,"DIS_CODE":0,"TOWNNAME":"中西區","LI":"協和里","LIN":"10鄰","STREET":"中和街","SECT":" ","MAREA":" ","LANE":" ","ALLEY":" ","HOUSE_NO":"１１２號","E_COORD97":167141.60999999999,"N_COORD97":2544638.7999999998,"ADDRESS":"中和街１１２號","OBJECTID":546214},"geometry":{"x":167141.6100000022,"y":2544638.8000000007}},{"attributes":{"ID":546242,"DIS_CODE":0,"TOWNNAME":"中西區","LI":"協和里","LIN":"10鄰","STREET":"中和街","SECT":" ","MAREA":" ","LANE":" ","ALLEY":" ","HOUSE_NO":"１１４號","E_COORD97":167144.70999999999,"N_COORD97":2544642.4900000002,"ADDRESS":"中和街１１４號","OBJECTID":546215},"geometry":{"x":167144.71000000089,"y":2544642.4900000021}},{"attributes":{"ID":546243,"DIS_CODE":0,"TOWNNAME":"中西區","LI":"協和里","LIN":"10鄰","STREET":"中和街","SECT":" ","MAREA":" ","LANE":" ","ALLEY":" ","HOUSE_NO":"９０號","E_COORD97":167103.20000000001,"N_COORD97":2544606.4500000002,"ADDRESS":"中和街９０號","OBJECTID":546216},"geometry":{"x":167103.20000000019,"y":2544606.4499999993}},{"attributes":{"ID":546244,"DIS_CODE":0,"TOWNNAME":"中西區","LI":"協和里","LIN":"10鄰","STREET":"中和街","SECT":" ","MAREA":" ","LANE":" ","ALLEY":" ","HOUSE_NO":"９２號","E_COORD97":167106.29999999999,"N_COORD97":2544609.1400000001,"ADDRESS":"中和街９２號","OBJECTID":546217},"geometry":{"x":167106.30000000075,"y":2544609.1400000006}},{"attributes":{"ID":546245,"DIS_CODE":0,"TOWNNAME":"中西區","LI":"協和里","LIN":"10鄰","STREET":"中和街","SECT":" ","MAREA":" ","LANE":" ","ALLEY":" ","HOUSE_NO":"９４號","E_COORD97":167110.31,"N_COORD97":2544612.27,"ADDRESS":"中和街９４號","OBJECTID":546218},"geometry":{"x":167110.30999999959,"y":2544612.2700000014}},{"attributes":{"ID":546246,"DIS_CODE":0,"TOWNNAME":"中西區","LI":"協和里","LIN":"10鄰","STREET":"中和街","SECT":" ","MAREA":" ","LANE":" ","ALLEY":" ","HOUSE_NO":"９６號","E_COORD97":167113.70999999999,"N_COORD97":2544615.3599999999,"ADDRESS":"中和街９６號","OBJECTID":546219},"geometry":{"x":167113.71000000089,"y":2544615.3600000013}},{"attributes":{"ID":546247,"DIS_CODE":0,"TOWNNAME":"中西區","LI":"協和里","LIN":"10鄰","STREET":"中和街","SECT":" ","MAREA":" ","LANE":" ","ALLEY":" ","HOUSE_NO":"９８號","E_COORD97":167117.41,"N_COORD97":2544617.8599999999,"ADDRESS":"中和街９８號","OBJECTID":546220},"geometry":{"x":167117.41000000201,"y":2544617.8600000031}},{"attributes":{"ID":546248,"DIS_CODE":0,"TOWNNAME":"中西區","LI":"協和里","LIN":"10鄰","STREET":"協和街","SECT":" ","MAREA":" ","LANE":" ","ALLEY":" ","HOUSE_NO":"１０１號","E_COORD97":167128.70000000001,"N_COORD97":2544598.29,"ADDRESS":"協和街１０１號","OBJECTID":546221},"geometry":{"x":167128.70000000019,"y":2544598.290000001}},{"attributes":{"ID":546249,"DIS_CODE":0,"TOWNNAME":"中西區","LI":"協和里","LIN":"10鄰","STREET":"協和街","SECT":" ","MAREA":" ","LANE":" ","ALLEY":" ","HOUSE_NO":"１０３號","E_COORD97":167132.10000000001,"N_COORD97":2544601.3900000001,"ADDRESS":"協和街１０３號","OBJECTID":546222},"geometry":{"x":167132.09999999963,"y":2544601.3900000006}},{"attributes":{"ID":546250,"DIS_CODE":0,"TOWNNAME":"中西區","LI":"協和里","LIN":"10鄰","STREET":"協和街","SECT":" ","MAREA":" ","LANE":" ","ALLEY":" ","HOUSE_NO":"１０５號","E_COORD97":167135.70000000001,"N_COORD97":2544604.1800000002,"ADDRESS":"協和街１０５號","OBJECTID":546223},"geometry":{"x":167135.70000000205,"y":2544604.1799999997}},{"attributes":{"ID":546251,"DIS_CODE":0,"TOWNNAME":"中西區","LI":"協和里","LIN":"10鄰","STREET":"協和街","SECT":" ","MAREA":" ","LANE":" ","ALLEY":" ","HOUSE_NO":"１１３號","E_COORD97":167149.22,"N_COORD97":2544616.5099999998,"ADDRESS":"協和街１１３號","OBJECTID":546224},"geometry":{"x":167149.22000000067,"y":2544616.5099999998}},{"attributes":{"ID":546252,"DIS_CODE":0,"TOWNNAME":"中西區","LI":"協和里","LIN":"10鄰","STREET":"協和街","SECT":" ","MAREA":" ","LANE":" ","ALLEY":" ","HOUSE_NO":"１１３號之１","E_COORD97":167152.62,"N_COORD97":2544619.2000000002,"ADDRESS":"協和街１１３號之１","OBJECTID":546225},"geometry":{"x":167152.62000000011,"y":2544619.2000000011}},{"attributes":{"ID":546253,"DIS_CODE":0,"TOWNNAME":"中西區","LI":"協和里","LIN":"10鄰","STREET":"協和街","SECT":" ","MAREA":" ","LANE":" ","ALLEY":" ","HOUSE_NO":"１１３號之２","E_COORD97":167156.01999999999,"N_COORD97":2544622.2000000002,"ADDRESS":"協和街１１３號之２","OBJECTID":546226},"geometry":{"x":167156.01999999955,"y":2544622.200000003}},{"attributes":{"ID":546254,"DIS_CODE":0,"TOWNNAME":"中西區","LI":"協和里","LIN":"10鄰","STREET":"協和街","SECT":" ","MAREA":" ","LANE":" ","ALLEY":" ","HOUSE_NO":"１１５號","E_COORD97":167159.62,"N_COORD97":2544625.1000000001,"ADDRESS":"協和街１１５號","OBJECTID":546227},"geometry":{"x":167159.62000000011,"y":2544625.0999999996}},{"attributes":{"ID":546255,"DIS_CODE":0,"TOWNNAME":"中西區","LI":"協和里","LIN":"10鄰","STREET":"協和街","SECT":" ","MAREA":" ","LANE":" ","ALLEY":" ","HOUSE_NO":"９５號","E_COORD97":167118.60000000001,"N_COORD97":2544588.8799999999,"ADDRESS":"協和街９５號","OBJECTID":546228},"geometry":{"x":167118.59999999963,"y":2544588.879999999}},{"attributes":{"ID":546256,"DIS_CODE":0,"TOWNNAME":"中西區","LI":"協和里","LIN":"10鄰","STREET":"協和街","SECT":" ","MAREA":" ","LANE":" ","ALLEY":" ","HOUSE_NO":"９７號","E_COORD97":167121.98999999999,"N_COORD97":2544591.6699999999,"ADDRESS":"協和街９７號","OBJECTID":546229},"geometry":{"x":167121.99000000209,"y":2544591.6699999999}},{"attributes":{"ID":546257,"DIS_CODE":0,"TOWNNAME":"中西區","LI":"協和里","LIN":"10鄰","STREET":"協和街","SECT":" ","MAREA":" ","LANE":" ","ALLEY":" ","HOUSE_NO":"９９號","E_COORD97":167125.60000000001,"N_COORD97":2544595.2999999998,"ADDRESS":"協和街９９號","OBJECTID":546230},"geometry":{"x":167125.60000000149,"y":2544595.3000000007}},{"attributes":{"ID":546258,"DIS_CODE":0,"TOWNNAME":"中西區","LI":"協和里","LIN":"10鄰","STREET":"和善街","SECT":" ","MAREA":" ","LANE":" ","ALLEY":" ","HOUSE_NO":"１０號","E_COORD97":167116.22,"N_COORD97":2544576.8300000001,"ADDRESS":"和善街１０號","OBJECTID":546231},"geometry":{"x":167116.21999999974,"y":2544576.8300000001}},{"attributes":{"ID":546259,"DIS_CODE":0,"TOWNNAME":"中西區","LI":"協和里","LIN":"10鄰","STREET":"和善街","SECT":" ","MAREA":" ","LANE":" ","ALLEY":" ","HOUSE_NO":"１２號","E_COORD97":167112.56,"N_COORD97":2544579.7999999998,"ADDRESS":"和善街１２號","OBJECTID":546232},"geometry":{"x":167112.56000000052,"y":2544579.8000000026}},{"attributes":{"ID":546260,"DIS_CODE":0,"TOWNNAME":"中西區","LI":"協和里","LIN":"10鄰","STREET":"和善街","SECT":" ","MAREA":" ","LANE":" ","ALLEY":" ","HOUSE_NO":"１４號","E_COORD97":167109.76000000001,"N_COORD97":2544583.1099999999,"ADDRESS":"和善街１４號","OBJECTID":546233},"geometry":{"x":167109.76000000071,"y":2544583.1100000013}},{"attributes":{"ID":546261,"DIS_CODE":0,"TOWNNAME":"中西區","LI":"協和里","LIN":"10鄰","STREET":"和善街","SECT":" ","MAREA":" ","LANE":" ","ALLEY":" ","HOUSE_NO":"１６號","E_COORD97":167106.94,"N_COORD97":2544586.7000000002,"ADDRESS":"和善街１６號","OBJECTID":546234},"geometry":{"x":167106.94000000041,"y":2544586.6999999993}},{"attributes":{"ID":546262,"DIS_CODE":0,"TOWNNAME":"中西區","LI":"協和里","LIN":"10鄰","STREET":"和善街","SECT":" ","MAREA":" ","LANE":" ","ALLEY":" ","HOUSE_NO":"１８號","E_COORD97":167104.04999999999,"N_COORD97":2544590.2599999998,"ADDRESS":"和善街１８號","OBJECTID":546235},"geometry":{"x":167104.05000000168,"y":2544590.2599999998}},{"attributes":{"ID":546263,"DIS_CODE":0,"TOWNNAME":"中西區","LI":"協和里","LIN":"10鄰","STREET":"和善街","SECT":" ","MAREA":" ","LANE":" ","ALLEY":" ","HOUSE_NO":"２０號","E_COORD97":167100.82999999999,"N_COORD97":2544593.6600000001,"ADDRESS":"和善街２０號","OBJECTID":546236},"geometry":{"x":167100.83000000194,"y":2544593.660000002}},{"attributes":{"ID":546264,"DIS_CODE":0,"TOWNNAME":"永康區","LI":"西灣里","LIN":"20鄰","STREET":"大安街","SECT":" ","MAREA":" ","LANE":" ","ALLEY":" ","HOUSE_NO":"４０７號","E_COORD97":174564.39000000001,"N_COORD97":2545930.6000000001,"ADDRESS":"大安街４０７號","OBJECTID":546237},"geometry":{"x":174564.3900000006,"y":2545930.5999999996}},{"attributes":{"ID":546265,"DIS_CODE":0,"TOWNNAME":"永康區","LI":"西橋里","LIN":"15鄰","STREET":"中華西街","SECT":" ","MAREA":" ","LANE":" ","ALLEY":" ","HOUSE_NO":"２４１號","E_COORD97":170651.95999999999,"N_COORD97":2546408.25,"ADDRESS":"中華西街２４１號","OBJECTID":546238},"geometry":{"x":170651.96000000089,"y":2546408.25}},{"attributes":{"ID":546266,"DIS_CODE":0,"TOWNNAME":"中西區","LI":"協和里","LIN":"10鄰","STREET":"中和街","SECT":" ","MAREA":" ","LANE":" ","ALLEY":" ","HOUSE_NO":"１１８號","E_COORD97":167154.73999999999,"N_COORD97":2544649.9100000001,"ADDRESS":"中和街１１８號","OBJECTID":546239},"geometry":{"x":167154.74000000115,"y":2544649.910000002}},{"attributes":{"ID":546267,"DIS_CODE":0,"TOWNNAME":"中西區","LI":"協和里","LIN":"10鄰","STREET":"中和街","SECT":" ","MAREA":" ","LANE":" ","ALLEY":" ","HOUSE_NO":"１２０號","E_COORD97":167157.44,"N_COORD97":2544653.0099999998,"ADDRESS":"中和街１２０號","OBJECTID":546240},"geometry":{"x":167157.44000000041,"y":2544653.0099999998}},{"attributes":{"ID":546268,"DIS_CODE":0,"TOWNNAME":"中西區","LI":"協和里","LIN":"10鄰","STREET":"中和街","SECT":" ","MAREA":" ","LANE":" ","ALLEY":" ","HOUSE_NO":"１２２號","E_COORD97":167161.23999999999,"N_COORD97":2544655.7000000002,"ADDRESS":"中和街１２２號","OBJECTID":546241},"geometry":{"x":167161.24000000115,"y":2544655.6999999993}},{"attributes":{"ID":546269,"DIS_CODE":0,"TOWNNAME":"中西區","LI":"協和里","LIN":"10鄰","STREET":"中和街","SECT":" ","MAREA":" ","LANE":" ","ALLEY":" ","HOUSE_NO":"１２８號","E_COORD97":167172.06,"N_COORD97":2544664.71,"ADDRESS":"中和街１２８號","OBJECTID":546242},"geometry":{"x":167172.06000000052,"y":2544664.7100000046}},{"attributes":{"ID":546270,"DIS_CODE":0,"TOWNNAME":"中西區","LI":"協和里","LIN":"10鄰","STREET":"中和街","SECT":" ","MAREA":" ","LANE":" ","ALLEY":" ","HOUSE_NO":"１３０號","E_COORD97":167175.17000000001,"N_COORD97":2544667.52,"ADDRESS":"中和街１３０號","OBJECTID":546243},"geometry":{"x":167175.17000000086,"y":2544667.5199999996}},{"attributes":{"ID":546271,"DIS_CODE":0,"TOWNNAME":"中西區","LI":"協和里","LIN":"10鄰","STREET":"中和街","SECT":" ","MAREA":" ","LANE":" ","ALLEY":" ","HOUSE_NO":"１３２號","E_COORD97":167178.57000000001,"N_COORD97":2544671.02,"ADDRESS":"中和街１３２號","OBJECTID":546244},"geometry":{"x":167178.5700000003,"y":2544671.0199999977}},{"attributes":{"ID":546272,"DIS_CODE":0,"TOWNNAME":"中西區","LI":"協和里","LIN":"10鄰","STREET":"中和街","SECT":" ","MAREA":" ","LANE":" ","ALLEY":" ","HOUSE_NO":"１３８號","E_COORD97":167188.97,"N_COORD97":2544679.9399999999,"ADDRESS":"中和街１３８號","OBJECTID":546245},"geometry":{"x":167188.96999999974,"y":2544679.9400000013}},{"attributes":{"ID":546273,"DIS_CODE":0,"TOWNNAME":"中西區","LI":"協和里","LIN":"10鄰","STREET":"中和街","SECT":" ","MAREA":" ","LANE":" ","ALLEY":" ","HOUSE_NO":"１４０號","E_COORD97":167191.97,"N_COORD97":2544682.8300000001,"ADDRESS":"中和街１４０號","OBJECTID":546246},"geometry":{"x":167191.96999999974,"y":2544682.8300000001}},{"attributes":{"ID":546274,"DIS_CODE":0,"TOWNNAME":"中西區","LI":"協和里","LIN":"10鄰","STREET":"中和街","SECT":" ","MAREA":" ","LANE":" ","ALLEY":" ","HOUSE_NO":"１４２號","E_COORD97":167192.97,"N_COORD97":2544688.2599999998,"ADDRESS":"中和街１４２號","OBJECTID":546247},"geometry":{"x":167192.97000000067,"y":2544688.2600000016}},{"attributes":{"ID":546275,"DIS_CODE":0,"TOWNNAME":"佳里區","LI":"東寧里","LIN":"10鄰","STREET":"中山路","SECT":" ","MAREA":" ","LANE":" ","ALLEY":" ","HOUSE_NO":"３９４號","E_COORD97":165714.03,"N_COORD97":2562557.6600000001,"ADDRESS":"中山路３９４號","OBJECTID":546248},"geometry":{"x":165714.03000000026,"y":2562557.6600000001}},{"attributes":{"ID":546276,"DIS_CODE":0,"TOWNNAME":"中西區","LI":"協和里","LIN":"10鄰","STREET":"中和街","SECT":" ","MAREA":" ","LANE":" ","ALLEY":" ","HOUSE_NO":"１４２號之１","E_COORD97":167195.76999999999,"N_COORD97":2544690.2599999998,"ADDRESS":"中和街１４２號之１","OBJECTID":546249},"geometry":{"x":167195.77000000048,"y":2544690.2600000035}},{"attributes":{"ID":546277,"DIS_CODE":0,"TOWNNAME":"中西區","LI":"協和里","LIN":"10鄰","STREET":"中和街","SECT":" ","MAREA":" ","LANE":" ","ALLEY":" ","HOUSE_NO":"１４４號","E_COORD97":167199.07000000001,"N_COORD97":2544692.1600000001,"ADDRESS":"中和街１４４號","OBJECTID":546250},"geometry":{"x":167199.0700000003,"y":2544692.160000002}},{"attributes":{"ID":546278,"DIS_CODE":0,"TOWNNAME":"中西區","LI":"協和里","LIN":"10鄰","STREET":"協和街","SECT":" ","MAREA":" ","LANE":" ","ALLEY":" ","HOUSE_NO":"１１７號","E_COORD97":167165.44,"N_COORD97":2544630.8199999998,"ADDRESS":"協和街１１７號","OBJECTID":546251},"geometry":{"x":167165.44000000134,"y":2544630.8200000022}},{"attributes":{"ID":546279,"DIS_CODE":0,"TOWNNAME":"中西區","LI":"協和里","LIN":"10鄰","STREET":"協和街","SECT":" ","MAREA":" ","LANE":" ","ALLEY":" ","HOUSE_NO":"１１９號","E_COORD97":167168.94,"N_COORD97":2544633.6200000001,"ADDRESS":"協和街１１９號","OBJECTID":546252},"geometry":{"x":167168.94000000134,"y":2544633.620000001}},{"attributes":{"ID":546280,"DIS_CODE":0,"TOWNNAME":"中西區","LI":"協和里","LIN":"10鄰","STREET":"協和街","SECT":" ","MAREA":" ","LANE":" ","ALLEY":" ","HOUSE_NO":"１２１號","E_COORD97":167172.34,"N_COORD97":2544636.71,"ADDRESS":"協和街１２１號","OBJECTID":546253},"geometry":{"x":167172.34000000078,"y":2544636.7100000009}},{"attributes":{"ID":546281,"DIS_CODE":0,"TOWNNAME":"中西區","LI":"協和里","LIN":"10鄰","STREET":"協和街","SECT":" ","MAREA":" ","LANE":" ","ALLEY":" ","HOUSE_NO":"１２３號","E_COORD97":167175.84,"N_COORD97":2544639.6099999999,"ADDRESS":"協和街１２３號","OBJECTID":546254},"geometry":{"x":167175.84000000078,"y":2544639.6099999994}},{"attributes":{"ID":546282,"DIS_CODE":0,"TOWNNAME":"中西區","LI":"協和里","LIN":"10鄰","STREET":"協和街","SECT":" ","MAREA":" ","LANE":" ","ALLEY":" ","HOUSE_NO":"１２７號","E_COORD97":167183.35999999999,"N_COORD97":2544644.9399999999,"ADDRESS":"協和街１２７號","OBJECTID":546255},"geometry":{"x":167183.36000000034,"y":2544644.9400000013}},{"attributes":{"ID":546283,"DIS_CODE":0,"TOWNNAME":"中西區","LI":"協和里","LIN":"10鄰","STREET":"協和街","SECT":" ","MAREA":" ","LANE":" ","ALLEY":" ","HOUSE_NO":"１２９號","E_COORD97":167186.66,"N_COORD97":2544647.4399999999,"ADDRESS":"協和街１２９號","OBJECTID":546256},"geometry":{"x":167186.65999999922,"y":2544647.4399999995}},{"attributes":{"ID":546284,"DIS_CODE":0,"TOWNNAME":"中西區","LI":"協和里","LIN":"10鄰","STREET":"協和街","SECT":" ","MAREA":" ","LANE":" ","ALLEY":" ","HOUSE_NO":"１３１號","E_COORD97":167190.56,"N_COORD97":2544650.4300000002,"ADDRESS":"協和街１３１號","OBJECTID":546257},"geometry":{"x":167190.56000000052,"y":2544650.4299999997}},{"attributes":{"ID":546285,"DIS_CODE":0,"TOWNNAME":"中西區","LI":"協和里","LIN":"10鄰","STREET":"協和街","SECT":" ","MAREA":" ","LANE":" ","ALLEY":" ","HOUSE_NO":"１３３號","E_COORD97":167193.76000000001,"N_COORD97":2544653.23,"ADDRESS":"協和街１３３號","OBJECTID":546258},"geometry":{"x":167193.75999999978,"y":2544653.2300000004}},{"attributes":{"ID":546286,"DIS_CODE":0,"TOWNNAME":"中西區","LI":"協和里","LIN":"10鄰","STREET":"協和街","SECT":" ","MAREA":" ","LANE":" ","ALLEY":" ","HOUSE_NO":"１３５號","E_COORD97":167202.97,"N_COORD97":2544663.6600000001,"ADDRESS":"協和街１３５號","OBJECTID":546259},"geometry":{"x":167202.9700000016,"y":2544663.6600000001}},{"attributes":{"ID":546287,"DIS_CODE":0,"TOWNNAME":"中西區","LI":"協和里","LIN":"10鄰","STREET":"協和街","SECT":" ","MAREA":" ","LANE":" ","ALLEY":" ","HOUSE_NO":"１３７號","E_COORD97":167206.07000000001,"N_COORD97":2544666.7599999998,"ADDRESS":"協和街１３７號","OBJECTID":546260},"geometry":{"x":167206.06999999937,"y":2544666.7600000016}},{"attributes":{"ID":546288,"DIS_CODE":0,"TOWNNAME":"中西區","LI":"協和里","LIN":"10鄰","STREET":"協和街","SECT":" ","MAREA":" ","LANE":" ","ALLEY":" ","HOUSE_NO":"１３９號","E_COORD97":167216.07000000001,"N_COORD97":2544664.4199999999,"ADDRESS":"協和街１３９號","OBJECTID":546261},"geometry":{"x":167216.0700000003,"y":2544664.4199999999}},{"attributes":{"ID":546289,"DIS_CODE":0,"TOWNNAME":"中西區","LI":"協和里","LIN":"10鄰","STREET":"和美街","SECT":" ","MAREA":" ","LANE":" ","ALLEY":" ","HOUSE_NO":"１１號","E_COORD97":167209.79999999999,"N_COORD97":2544671.79,"ADDRESS":"和美街１１號","OBJECTID":546262},"geometry":{"x":167209.80000000075,"y":2544671.7899999991}},{"attributes":{"ID":546290,"DIS_CODE":0,"TOWNNAME":"中西區","LI":"協和里","LIN":"10鄰","STREET":"和美街","SECT":" ","MAREA":" ","LANE":" ","ALLEY":" ","HOUSE_NO":"１３號","E_COORD97":167206.70999999999,"N_COORD97":2544675.1600000001,"ADDRESS":"和美街１３號","OBJECTID":546263},"geometry":{"x":167206.71000000183,"y":2544675.160000002}},{"attributes":{"ID":546291,"DIS_CODE":0,"TOWNNAME":"中西區","LI":"協和里","LIN":"10鄰","STREET":"和美街","SECT":" ","MAREA":" ","LANE":" ","ALLEY":" ","HOUSE_NO":"１５號","E_COORD97":167203.91,"N_COORD97":2544677.96,"ADDRESS":"和美街１５號","OBJECTID":546264},"geometry":{"x":167203.91000000108,"y":2544677.9600000028}},{"attributes":{"ID":546292,"DIS_CODE":0,"TOWNNAME":"中西區","LI":"協和里","LIN":"10鄰","STREET":"和美街","SECT":" ","MAREA":" ","LANE":" ","ALLEY":" ","HOUSE_NO":"１７號","E_COORD97":167201.01000000001,"N_COORD97":2544681.6000000001,"ADDRESS":"和美街１７號","OBJECTID":546265},"geometry":{"x":167201.01000000164,"y":2544681.6000000015}},{"attributes":{"ID":546293,"DIS_CODE":0,"TOWNNAME":"中西區","LI":"協和里","LIN":"10鄰","STREET":"和美街","SECT":" ","MAREA":" ","LANE":" ","ALLEY":" ","HOUSE_NO":"９號","E_COORD97":167212.51000000001,"N_COORD97":2544668.4300000002,"ADDRESS":"和美街９號","OBJECTID":546266},"geometry":{"x":167212.50999999978,"y":2544668.4299999978}},{"attributes":{"ID":546294,"DIS_CODE":0,"TOWNNAME":"永康區","LI":"西橋里","LIN":"15鄰","STREET":"中華西街","SECT":" ","MAREA":" ","LANE":" ","ALLEY":" ","HOUSE_NO":"２５７號","E_COORD97":170673.89999999999,"N_COORD97":2546437.75,"ADDRESS":"中華西街２５７號","OBJECTID":546267},"geometry":{"x":170673.90000000037,"y":2546437.7500000019}},{"attributes":{"ID":546295,"DIS_CODE":0,"TOWNNAME":"永康區","LI":"西灣里","LIN":"30鄰","STREET":"大勇路","SECT":" ","MAREA":" ","LANE":" ","ALLEY":" ","HOUSE_NO":"２１１號","E_COORD97":174301.31,"N_COORD97":2545807.77,"ADDRESS":"大勇路２１１號","OBJECTID":546268},"geometry":{"x":174301.30999999959,"y":2545807.7699999996}},{"attributes":{"ID":546296,"DIS_CODE":0,"TOWNNAME":"永康區","LI":"大橋里","LIN":"10鄰","STREET":"大橋三街","SECT":" ","MAREA":" ","LANE":" ","ALLEY":" ","HOUSE_NO":"２３０號","E_COORD97":170928.26000000001,"N_COORD97":2546790.2400000002,"ADDRESS":"大橋三街２３０號","OBJECTID":546269},"geometry":{"x":170928.25999999978,"y":2546790.2400000021}},{"attributes":{"ID":546297,"DIS_CODE":0,"TOWNNAME":"永康區","LI":"東橋里","LIN":"10鄰","STREET":"東橋一路","SECT":" ","MAREA":" ","LANE":" ","ALLEY":" ","HOUSE_NO":"６７號","E_COORD97":171578.76999999999,"N_COORD97":2546348.4199999999,"ADDRESS":"東橋一路６７號","OBJECTID":546270},"geometry":{"x":171578.76999999955,"y":2546348.4200000018}},{"attributes":{"ID":546298,"DIS_CODE":0,"TOWNNAME":"佳里區","LI":"東寧里","LIN":"10鄰","STREET":"中山路","SECT":" ","MAREA":" ","LANE":" ","ALLEY":" ","HOUSE_NO":"３９２號","E_COORD97":165713.51000000001,"N_COORD97":2562553.8999999999,"ADDRESS":"中山路３９２號","OBJECTID":546271},"geometry":{"x":165713.50999999978,"y":2562553.9000000041}},{"attributes":{"ID":546299,"DIS_CODE":0,"TOWNNAME":"佳里區","LI":"東寧里","LIN":"10鄰","STREET":"中山路","SECT":" ","MAREA":" ","LANE":" ","ALLEY":" ","HOUSE_NO":"３９６號","E_COORD97":165714.72,"N_COORD97":2562561.5600000001,"ADDRESS":"中山路３９６號","OBJECTID":546272},"geometry":{"x":165714.72000000067,"y":2562561.5600000005}},{"attributes":{"ID":546300,"DIS_CODE":0,"TOWNNAME":"佳里區","LI":"東寧里","LIN":"10鄰","STREET":"中山路","SECT":" ","MAREA":" ","LANE":" ","ALLEY":" ","HOUSE_NO":"３９８號","E_COORD97":165715.26000000001,"N_COORD97":2562565.6800000002,"ADDRESS":"中山路３９８號","OBJECTID":546273},"geometry":{"x":165715.25999999978,"y":2562565.6800000016}},{"attributes":{"ID":546301,"DIS_CODE":0,"TOWNNAME":"佳里區","LI":"東寧里","LIN":"10鄰","STREET":"中山路","SECT":" ","MAREA":" ","LANE":" ","ALLEY":" ","HOUSE_NO":"４００號","E_COORD97":165716.32999999999,"N_COORD97":2562570.8500000001,"ADDRESS":"中山路４００號","OBJECTID":546274},"geometry":{"x":165716.33000000101,"y":2562570.8500000015}},{"attributes":{"ID":546302,"DIS_CODE":0,"TOWNNAME":"佳里區","LI":"東寧里","LIN":"10鄰","STREET":"中山路","SECT":" ","MAREA":" ","LANE":" ","ALLEY":" ","HOUSE_NO":"４１０號之１","E_COORD97":165726.23999999999,"N_COORD97":2562611.6699999999,"ADDRESS":"中山路４１０號之１","OBJECTID":546275},"geometry":{"x":165726.24000000022,"y":2562611.6699999999}},{"attributes":{"ID":546303,"DIS_CODE":0,"TOWNNAME":"佳里區","LI":"東寧里","LIN":"10鄰","STREET":"文化路","SECT":" ","MAREA":" ","LANE":" ","ALLEY":" ","HOUSE_NO":"１９８號","E_COORD97":165732.26999999999,"N_COORD97":2562602.1299999999,"ADDRESS":"文化路１９８號","OBJECTID":546276},"geometry":{"x":165732.26999999955,"y":2562602.1300000008}},{"attributes":{"ID":546304,"DIS_CODE":0,"TOWNNAME":"佳里區","LI":"建南里","LIN":"10鄰","STREET":"中和街","SECT":" ","MAREA":" ","LANE":" ","ALLEY":" ","HOUSE_NO":"１５號","E_COORD97":165606.44,"N_COORD97":2562095.54,"ADDRESS":"中和街１５號","OBJECTID":546277},"geometry":{"x":165606.44000000041,"y":2562095.5399999991}},{"attributes":{"ID":546305,"DIS_CODE":0,"TOWNNAME":"永康區","LI":"西勢里","LIN":"8鄰","STREET":"富強路","SECT":"一段","MAREA":" ","LANE":" ","ALLEY":" ","HOUSE_NO":"３１５號","E_COORD97":175710.79999999999,"N_COORD97":2546677.5499999998,"ADDRESS":"富強路一段３１５號","OBJECTID":546278},"geometry":{"x":175710.80000000075,"y":2546677.5500000026}},{"attributes":{"ID":546306,"DIS_CODE":0,"TOWNNAME":"永康區","LI":"西勢里","LIN":"10鄰","STREET":"西勢路","SECT":" ","MAREA":" ","LANE":" ","ALLEY":" ","HOUSE_NO":"１２７號","E_COORD97":176010.72,"N_COORD97":2546764.54,"ADDRESS":"西勢路１２７號","OBJECTID":546279},"geometry":{"x":176010.71999999974,"y":2546764.5399999991}},{"attributes":{"ID":546307,"DIS_CODE":0,"TOWNNAME":"佳里區","LI":"建南里","LIN":"10鄰","STREET":"中和街","SECT":" ","MAREA":" ","LANE":" ","ALLEY":" ","HOUSE_NO":"３９號","E_COORD97":165599.01999999999,"N_COORD97":2562168.5,"ADDRESS":"中和街３９號","OBJECTID":546280},"geometry":{"x":165599.02000000048,"y":2562168.5}},{"attributes":{"ID":546308,"DIS_CODE":0,"TOWNNAME":"佳里區","LI":"建南里","LIN":"10鄰","STREET":"中和街","SECT":" ","MAREA":" ","LANE":" ","ALLEY":" ","HOUSE_NO":"１９號","E_COORD97":165597.41,"N_COORD97":2562114.96,"ADDRESS":"中和街１９號","OBJECTID":546281},"geometry":{"x":165597.41000000108,"y":2562114.9600000009}},{"attributes":{"ID":546309,"DIS_CODE":0,"TOWNNAME":"佳里區","LI":"建南里","LIN":"10鄰","STREET":"中和街","SECT":" ","MAREA":" ","LANE":" ","ALLEY":" ","HOUSE_NO":"１號","E_COORD97":165607.95999999999,"N_COORD97":2562075.71,"ADDRESS":"中和街１號","OBJECTID":546282},"geometry":{"x":165607.95999999903,"y":2562075.7100000028}},{"attributes":{"ID":546310,"DIS_CODE":0,"TOWNNAME":"佳里區","LI":"建南里","LIN":"10鄰","STREET":"中和街","SECT":" ","MAREA":" ","LANE":" ","ALLEY":" ","HOUSE_NO":"２１號","E_COORD97":165596.95999999999,"N_COORD97":2562119.5800000001,"ADDRESS":"中和街２１號","OBJECTID":546283},"geometry":{"x":165596.96000000089,"y":2562119.5800000019}},{"attributes":{"ID":546311,"DIS_CODE":0,"TOWNNAME":"佳里區","LI":"建南里","LIN":"10鄰","STREET":"中和街","SECT":" ","MAREA":" ","LANE":" ","ALLEY":" ","HOUSE_NO":"２３號","E_COORD97":165596.29999999999,"N_COORD97":2562124.2599999998,"ADDRESS":"中和街２３號","OBJECTID":546284},"geometry":{"x":165596.29999999981,"y":2562124.2600000016}},{"attributes":{"ID":546312,"DIS_CODE":0,"TOWNNAME":"佳里區","LI":"建南里","LIN":"10鄰","STREET":"中和街","SECT":" ","MAREA":" ","LANE":" ","ALLEY":" ","HOUSE_NO":"２５號","E_COORD97":165596.10000000001,"N_COORD97":2562128.2400000002,"ADDRESS":"中和街２５號","OBJECTID":546285},"geometry":{"x":165596.09999999963,"y":2562128.2400000021}},{"attributes":{"ID":546313,"DIS_CODE":0,"TOWNNAME":"佳里區","LI":"建南里","LIN":"10鄰","STREET":"中和街","SECT":" ","MAREA":" ","LANE":" ","ALLEY":" ","HOUSE_NO":"２７號之１","E_COORD97":165595.35000000001,"N_COORD97":2562137.1499999999,"ADDRESS":"中和街２７號之１","OBJECTID":546286},"geometry":{"x":165595.35000000056,"y":2562137.1500000004}},{"attributes":{"ID":546314,"DIS_CODE":0,"TOWNNAME":"佳里區","LI":"建南里","LIN":"10鄰","STREET":"中和街","SECT":" ","MAREA":" ","LANE":" ","ALLEY":" ","HOUSE_NO":"２７號","E_COORD97":165595.59,"N_COORD97":2562133.0899999999,"ADDRESS":"中和街２７號","OBJECTID":546287},"geometry":{"x":165595.59000000078,"y":2562133.0900000017}},{"attributes":{"ID":546315,"DIS_CODE":0,"TOWNNAME":"永康區","LI":"西勢里","LIN":"4鄰","STREET":"西勢路","SECT":" ","MAREA":" ","LANE":" ","ALLEY":" ","HOUSE_NO":"２７５號","E_COORD97":175657.67999999999,"N_COORD97":2546767.79,"ADDRESS":"西勢路２７５號","OBJECTID":546288},"geometry":{"x":175657.68000000063,"y":2546767.7900000028}},{"attributes":{"ID":546316,"DIS_CODE":0,"TOWNNAME":"永康區","LI":"西勢里","LIN":"17鄰","STREET":"富強路","SECT":"一段","MAREA":" ","LANE":" ","ALLEY":" ","HOUSE_NO":"２５８號","E_COORD97":175687.04000000001,"N_COORD97":2546502.52,"ADDRESS":"富強路一段２５８號","OBJECTID":546289},"geometry":{"x":175687.03999999911,"y":2546502.5200000014}},{"attributes":{"ID":546317,"DIS_CODE":0,"TOWNNAME":"佳里區","LI":"建南里","LIN":"10鄰","STREET":"中和街","SECT":" ","MAREA":" ","LANE":" ","ALLEY":" ","HOUSE_NO":"３７號","E_COORD97":165599.82000000001,"N_COORD97":2562161.1200000001,"ADDRESS":"中和街３７號","OBJECTID":546290},"geometry":{"x":165599.82000000123,"y":2562161.1200000029}},{"attributes":{"ID":546318,"DIS_CODE":0,"TOWNNAME":"佳里區","LI":"建南里","LIN":"10鄰","STREET":"中和街","SECT":" ","MAREA":" ","LANE":" ","ALLEY":" ","HOUSE_NO":"５７號","E_COORD97":165591.42999999999,"N_COORD97":2562212.54,"ADDRESS":"中和街５７號","OBJECTID":546291},"geometry":{"x":165591.43000000063,"y":2562212.5400000028}},{"attributes":{"ID":546319,"DIS_CODE":0,"TOWNNAME":"佳里區","LI":"鎮山里","LIN":"10鄰","STREET":"中興街","SECT":" ","MAREA":" ","LANE":" ","ALLEY":" ","HOUSE_NO":"１９９號","E_COORD97":166175.92999999999,"N_COORD97":2561500.8999999999,"ADDRESS":"中興街１９９號","OBJECTID":546292},"geometry":{"x":166175.93000000156,"y":2561500.9000000022}},{"attributes":{"ID":546320,"DIS_CODE":0,"TOWNNAME":"佳里區","LI":"鎮山里","LIN":"10鄰","STREET":"中興街","SECT":" ","MAREA":" ","LANE":" ","ALLEY":" ","HOUSE_NO":"２０１號","E_COORD97":166175.51999999999,"N_COORD97":2561505.5099999998,"ADDRESS":"中興街２０１號","OBJECTID":546293},"geometry":{"x":166175.52000000048,"y":2561505.5100000016}},{"attributes":{"ID":546321,"DIS_CODE":0,"TOWNNAME":"佳里區","LI":"鎮山里","LIN":"10鄰","STREET":"中興街","SECT":" ","MAREA":" ","LANE":" ","ALLEY":" ","HOUSE_NO":"２０３號","E_COORD97":166174.16,"N_COORD97":2561510.3199999998,"ADDRESS":"中興街２０３號","OBJECTID":546294},"geometry":{"x":166174.16000000015,"y":2561510.3200000022}},{"attributes":{"ID":546322,"DIS_CODE":0,"TOWNNAME":"佳里區","LI":"鎮山里","LIN":"10鄰","STREET":"中興街","SECT":" ","MAREA":" ","LANE":" ","ALLEY":" ","HOUSE_NO":"２０５號","E_COORD97":166173.42999999999,"N_COORD97":2561514.8300000001,"ADDRESS":"中興街２０５號","OBJECTID":546295},"geometry":{"x":166173.4299999997,"y":2561514.8300000001}},{"attributes":{"ID":546323,"DIS_CODE":0,"TOWNNAME":"佳里區","LI":"鎮山里","LIN":"10鄰","STREET":"中興街","SECT":" ","MAREA":" ","LANE":" ","ALLEY":" ","HOUSE_NO":"２０７號","E_COORD97":166172.35999999999,"N_COORD97":2561518.8999999999,"ADDRESS":"中興街２０７號","OBJECTID":546296},"geometry":{"x":166172.36000000127,"y":2561518.9000000004}},{"attributes":{"ID":546324,"DIS_CODE":0,"TOWNNAME":"佳里區","LI":"鎮山里","LIN":"10鄰","STREET":"中興街","SECT":" ","MAREA":" ","LANE":" ","ALLEY":" ","HOUSE_NO":"２０９號","E_COORD97":166171.42000000001,"N_COORD97":2561523.46,"ADDRESS":"中興街２０９號","OBJECTID":546297},"geometry":{"x":166171.42000000086,"y":2561523.4600000046}},{"attributes":{"ID":546325,"DIS_CODE":0,"TOWNNAME":"佳里區","LI":"鎮山里","LIN":"10鄰","STREET":"中興街","SECT":" ","MAREA":" ","LANE":" ","ALLEY":" ","HOUSE_NO":"２１１號","E_COORD97":166170.92000000001,"N_COORD97":2561527.4300000002,"ADDRESS":"中興街２１１號","OBJECTID":546298},"geometry":{"x":166170.91999999993,"y":2561527.4299999997}},{"attributes":{"ID":546326,"DIS_CODE":0,"TOWNNAME":"佳里區","LI":"鎮山里","LIN":"10鄰","STREET":"中興街","SECT":" ","MAREA":" ","LANE":" ","ALLEY":" ","HOUSE_NO":"２１５號","E_COORD97":166164.10999999999,"N_COORD97":2561560.4100000001,"ADDRESS":"中興街２１５號","OBJECTID":546299},"geometry":{"x":166164.11000000127,"y":2561560.410000002}},{"attributes":{"ID":546327,"DIS_CODE":0,"TOWNNAME":"佳里區","LI":"鎮山里","LIN":"10鄰","STREET":"中興街","SECT":" ","MAREA":" ","LANE":" ","ALLEY":" ","HOUSE_NO":"２２９號","E_COORD97":166163.41,"N_COORD97":2561573.4900000002,"ADDRESS":"中興街２２９號","OBJECTID":546300},"geometry":{"x":166163.41000000108,"y":2561573.4900000021}},{"attributes":{"ID":546328,"DIS_CODE":0,"TOWNNAME":"佳里區","LI":"鎮山里","LIN":"10鄰","STREET":"中興街","SECT":" ","MAREA":" ","LANE":" ","ALLEY":" ","HOUSE_NO":"２３９號","E_COORD97":166157.51999999999,"N_COORD97":2561589.8199999998,"ADDRESS":"中興街２３９號","OBJECTID":546301},"geometry":{"x":166157.51999999955,"y":2561589.8200000003}},{"attributes":{"ID":546329,"DIS_CODE":0,"TOWNNAME":"佳里區","LI":"鎮山里","LIN":"10鄰","STREET":"中興街","SECT":" ","MAREA":" ","LANE":" ","ALLEY":" ","HOUSE_NO":"２４１號","E_COORD97":166156.81,"N_COORD97":2561593.73,"ADDRESS":"中興街２４１號","OBJECTID":546302},"geometry":{"x":166156.81000000052,"y":2561593.7300000023}},{"attributes":{"ID":546330,"DIS_CODE":0,"TOWNNAME":"佳里區","LI":"鎮山里","LIN":"10鄰","STREET":"中興街","SECT":" ","MAREA":" ","LANE":" ","ALLEY":" ","HOUSE_NO":"２４３號","E_COORD97":166156.10000000001,"N_COORD97":2561597.6499999999,"ADDRESS":"中興街２４３號","OBJECTID":546303},"geometry":{"x":166156.10000000149,"y":2561597.6500000022}},{"attributes":{"ID":546331,"DIS_CODE":0,"TOWNNAME":"佳里區","LI":"鎮山里","LIN":"10鄰","STREET":"中興街","SECT":" ","MAREA":" ","LANE":" ","ALLEY":" ","HOUSE_NO":"２４５號","E_COORD97":166155.39000000001,"N_COORD97":2561601.5699999998,"ADDRESS":"中興街２４５號","OBJECTID":546304},"geometry":{"x":166155.38999999966,"y":2561601.5700000003}},{"attributes":{"ID":546332,"DIS_CODE":0,"TOWNNAME":"佳里區","LI":"鎮山里","LIN":"10鄰","STREET":"中興街","SECT":" ","MAREA":" ","LANE":" ","ALLEY":" ","HOUSE_NO":"２４７號","E_COORD97":166154.67999999999,"N_COORD97":2561605.4900000002,"ADDRESS":"中興街２４７號","OBJECTID":546305},"geometry":{"x":166154.6799999997,"y":2561605.4900000002}},{"attributes":{"ID":546333,"DIS_CODE":0,"TOWNNAME":"佳里區","LI":"鎮山里","LIN":"10鄰","STREET":"中興街","SECT":" ","MAREA":" ","LANE":" ","ALLEY":" ","HOUSE_NO":"３１６號","E_COORD97":166183.76000000001,"N_COORD97":2561562.4199999999,"ADDRESS":"中興街３１６號","OBJECTID":546306},"geometry":{"x":166183.75999999885,"y":2561562.4199999999}},{"attributes":{"ID":546334,"DIS_CODE":0,"TOWNNAME":"佳里區","LI":"鎮山里","LIN":"10鄰","STREET":"中興街","SECT":" ","MAREA":" ","LANE":" ","ALLEY":" ","HOUSE_NO":"３１８號","E_COORD97":166183.13,"N_COORD97":2561566.79,"ADDRESS":"中興街３１８號","OBJECTID":546307},"geometry":{"x":166183.13000000175,"y":2561566.7900000028}},{"attributes":{"ID":546335,"DIS_CODE":0,"TOWNNAME":"佳里區","LI":"鎮山里","LIN":"10鄰","STREET":"中興街","SECT":" ","MAREA":" ","LANE":" ","ALLEY":" ","HOUSE_NO":"３２０號","E_COORD97":166182.20000000001,"N_COORD97":2561570.6000000001,"ADDRESS":"中興街３２０號","OBJECTID":546308},"geometry":{"x":166182.20000000019,"y":2561570.5999999996}},{"attributes":{"ID":546336,"DIS_CODE":0,"TOWNNAME":"佳里區","LI":"鎮山里","LIN":"10鄰","STREET":"中興街","SECT":" ","MAREA":" ","LANE":" ","ALLEY":" ","HOUSE_NO":"３２２號","E_COORD97":166181.51000000001,"N_COORD97":2561574.8700000001,"ADDRESS":"中興街３２２號","OBJECTID":546309},"geometry":{"x":166181.50999999978,"y":2561574.8700000048}},{"attributes":{"ID":546337,"DIS_CODE":0,"TOWNNAME":"佳里區","LI":"鎮山里","LIN":"10鄰","STREET":"中興街","SECT":" ","MAREA":" ","LANE":" ","ALLEY":" ","HOUSE_NO":"３２６號","E_COORD97":166181.51000000001,"N_COORD97":2561579.1200000001,"ADDRESS":"中興街３２６號","OBJECTID":546310},"geometry":{"x":166181.50999999978,"y":2561579.120000001}},{"attributes":{"ID":546338,"DIS_CODE":0,"TOWNNAME":"佳里區","LI":"鎮山里","LIN":"10鄰","STREET":"中興街","SECT":" ","MAREA":" ","LANE":" ","ALLEY":" ","HOUSE_NO":"３２８號","E_COORD97":166180.85000000001,"N_COORD97":2561583.4199999999,"ADDRESS":"中興街３２８號","OBJECTID":546311},"geometry":{"x":166180.84999999963,"y":2561583.4200000037}},{"attributes":{"ID":546339,"DIS_CODE":0,"TOWNNAME":"佳里區","LI":"鎮山里","LIN":"10鄰","STREET":"中興街","SECT":" ","MAREA":" ","LANE":" ","ALLEY":" ","HOUSE_NO":"３３８號","E_COORD97":166177.89000000001,"N_COORD97":2561601.9199999999,"ADDRESS":"中興街３３８號","OBJECTID":546312},"geometry":{"x":166177.89000000153,"y":2561601.9200000018}},{"attributes":{"ID":546340,"DIS_CODE":0,"TOWNNAME":"佳里區","LI":"鎮山里","LIN":"10鄰","STREET":"中興街","SECT":" ","MAREA":" ","LANE":" ","ALLEY":" ","HOUSE_NO":"３４０號","E_COORD97":166177.04999999999,"N_COORD97":2561606.29,"ADDRESS":"中興街３４０號","OBJECTID":546313},"geometry":{"x":166177.05000000075,"y":2561606.2899999991}},{"attributes":{"ID":546341,"DIS_CODE":0,"TOWNNAME":"新化區","LI":"護國里","LIN":"10鄰","STREET":"中山路","SECT":" ","MAREA":" ","LANE":" ","ALLEY":" ","HOUSE_NO":"１０２號之２２","E_COORD97":179362.91,"N_COORD97":2549179.2599999998,"ADDRESS":"中山路１０２號之２２","OBJECTID":546314},"geometry":{"x":179362.91000000015,"y":2549179.2600000035}},{"attributes":{"ID":546342,"DIS_CODE":0,"TOWNNAME":"新化區","LI":"太平里","LIN":"10鄰","STREET":"中正路","SECT":" ","MAREA":" ","LANE":" ","ALLEY":" ","HOUSE_NO":"８５５號之１１","E_COORD97":178552.19,"N_COORD97":2549526.2599999998,"ADDRESS":"中正路８５５號之１１","OBJECTID":546315},"geometry":{"x":178552.19000000134,"y":2549526.2600000016}},{"attributes":{"ID":546343,"DIS_CODE":0,"TOWNNAME":"新化區","LI":"協興里","LIN":"10鄰","STREET":"正新路","SECT":" ","MAREA":" ","LANE":" ","ALLEY":" ","HOUSE_NO":"３９１號","E_COORD97":178518.51999999999,"N_COORD97":2548962.25,"ADDRESS":"正新路３９１號","OBJECTID":546316},"geometry":{"x":178518.52000000048,"y":2548962.2500000037}},{"attributes":{"ID":546344,"DIS_CODE":0,"TOWNNAME":"永康區","LI":"西灣里","LIN":"8鄰","STREET":"大灣三街","SECT":" ","MAREA":" ","LANE":" ","ALLEY":" ","HOUSE_NO":"２１６號","E_COORD97":174475.73000000001,"N_COORD97":2545164.5,"ADDRESS":"大灣三街２１６號","OBJECTID":546317},"geometry":{"x":174475.73000000045,"y":2545164.5000000019}},{"attributes":{"ID":546345,"DIS_CODE":0,"TOWNNAME":"新化區","LI":"護國里","LIN":"10鄰","STREET":"中山路","SECT":" ","MAREA":" ","LANE":" ","ALLEY":" ","HOUSE_NO":"１００號之８","E_COORD97":179488.26999999999,"N_COORD97":2549109.2599999998,"ADDRESS":"中山路１００號之８","OBJECTID":546318},"geometry":{"x":179488.26999999955,"y":2549109.2600000016}},{"attributes":{"ID":546346,"DIS_CODE":0,"TOWNNAME":"新化區","LI":"豐榮里","LIN":"10鄰","STREET":"正新路","SECT":" ","MAREA":" ","LANE":" ","ALLEY":" ","HOUSE_NO":"２０１號","E_COORD97":178551.01999999999,"N_COORD97":2548318.25,"ADDRESS":"正新路２０１號","OBJECTID":546319},"geometry":{"x":178551.01999999955,"y":2548318.2500000037}},{"attributes":{"ID":546347,"DIS_CODE":0,"TOWNNAME":"新化區","LI":"太平里","LIN":"10鄰","STREET":"中正路","SECT":" ","MAREA":" ","LANE":" ","ALLEY":" ","HOUSE_NO":"８３３號","E_COORD97":178638.91,"N_COORD97":2549436.25,"ADDRESS":"中正路８３３號","OBJECTID":546320},"geometry":{"x":178638.91000000015,"y":2549436.25}},{"attributes":{"ID":546348,"DIS_CODE":0,"TOWNNAME":"新化區","LI":"太平里","LIN":"10鄰","STREET":"中正路","SECT":" ","MAREA":" ","LANE":" ","ALLEY":" ","HOUSE_NO":"８５５號之１","E_COORD97":178561.23999999999,"N_COORD97":2549506.2599999998,"ADDRESS":"中正路８５５號之１","OBJECTID":546321},"geometry":{"x":178561.24000000115,"y":2549506.2599999998}},{"attributes":{"ID":546349,"DIS_CODE":0,"TOWNNAME":"新化區","LI":"武安里","LIN":"10鄰","STREET":"和平街","SECT":" ","MAREA":" ","LANE":" ","ALLEY":" ","HOUSE_NO":"１３１號之１","E_COORD97":178910.14999999999,"N_COORD97":2548146.2599999998,"ADDRESS":"和平街１３１號之１","OBJECTID":546322},"geometry":{"x":178910.1500000013,"y":2548146.2600000016}},{"attributes":{"ID":546350,"DIS_CODE":0,"TOWNNAME":"新化區","LI":"太平里","LIN":"10鄰","STREET":"中正路","SECT":" ","MAREA":" ","LANE":" ","ALLEY":" ","HOUSE_NO":"８５５號之５","E_COORD97":178557.37,"N_COORD97":2549514.2599999998,"ADDRESS":"中正路８５５號之５","OBJECTID":546323},"geometry":{"x":178557.37000000104,"y":2549514.2599999998}},{"attributes":{"ID":546351,"DIS_CODE":0,"TOWNNAME":"新化區","LI":"太平里","LIN":"10鄰","STREET":"中正路","SECT":" ","MAREA":" ","LANE":" ","ALLEY":" ","HOUSE_NO":"８５５號之６","E_COORD97":178577.16,"N_COORD97":2549517.2599999998,"ADDRESS":"中正路８５５號之６","OBJECTID":546324},"geometry":{"x":178577.16000000108,"y":2549517.2599999998}},{"attributes":{"ID":546352,"DIS_CODE":0,"TOWNNAME":"新化區","LI":"太平里","LIN":"10鄰","STREET":"中正路","SECT":" ","MAREA":" ","LANE":" ","ALLEY":" ","HOUSE_NO":"９０１號","E_COORD97":178529.41,"N_COORD97":2549673.25,"ADDRESS":"中正路９０１號","OBJECTID":546325},"geometry":{"x":178529.41000000201,"y":2549673.25}},{"attributes":{"ID":546353,"DIS_CODE":0,"TOWNNAME":"新化區","LI":"太平里","LIN":"10鄰","STREET":"中正路","SECT":" ","MAREA":" ","LANE":" ","ALLEY":" ","HOUSE_NO":"８５５號之１２","E_COORD97":178570.60999999999,"N_COORD97":2549531.2599999998,"ADDRESS":"中正路８５５號之１２","OBJECTID":546326},"geometry":{"x":178570.6100000022,"y":2549531.2599999998}},{"attributes":{"ID":546354,"DIS_CODE":0,"TOWNNAME":"新化區","LI":"豐榮里","LIN":"10鄰","STREET":"信義路","SECT":" ","MAREA":" ","LANE":" ","ALLEY":" ","HOUSE_NO":"４８８號之１","E_COORD97":178385.06,"N_COORD97":2548287.2599999998,"ADDRESS":"信義路４８８號之１","OBJECTID":546327},"geometry":{"x":178385.05999999959,"y":2548287.2600000035}},{"attributes":{"ID":546355,"DIS_CODE":0,"TOWNNAME":"新化區","LI":"太平里","LIN":"10鄰","STREET":"中正路","SECT":" ","MAREA":" ","LANE":" ","ALLEY":" ","HOUSE_NO":"８５５號之１６","E_COORD97":178569.01000000001,"N_COORD97":2549534.2599999998,"ADDRESS":"中正路８５５號之１６","OBJECTID":546328},"geometry":{"x":178569.01000000164,"y":2549534.2599999998}},{"attributes":{"ID":546356,"DIS_CODE":0,"TOWNNAME":"新化區","LI":"武安里","LIN":"10鄰","STREET":"和平街","SECT":" ","MAREA":" ","LANE":" ","ALLEY":" ","HOUSE_NO":"１３１號之８","E_COORD97":178882.67999999999,"N_COORD97":2548153.2599999998,"ADDRESS":"和平街１３１號之８","OBJECTID":546329},"geometry":{"x":178882.6799999997,"y":2548153.2600000016}},{"attributes":{"ID":546357,"DIS_CODE":0,"TOWNNAME":"安南區","LI":"新順里","LIN":"10鄰","STREET":"安和路","SECT":"二段","MAREA":" ","LANE":" ","ALLEY":" ","HOUSE_NO":"２７５號","E_COORD97":169669.88,"N_COORD97":2549222.3399999999,"ADDRESS":"安和路二段２７５號","OBJECTID":546330},"geometry":{"x":169669.87999999989,"y":2549222.3399999999}},{"attributes":{"ID":546358,"DIS_CODE":0,"TOWNNAME":"安南區","LI":"頂安里","LIN":"10鄰","STREET":"怡安路","SECT":"一段","MAREA":" ","LANE":" ","ALLEY":" ","HOUSE_NO":"４６５號","E_COORD97":168526.32000000001,"N_COORD97":2549198.9199999999,"ADDRESS":"怡安路一段４６５號","OBJECTID":546331},"geometry":{"x":168526.3200000003,"y":2549198.9200000018}},{"attributes":{"ID":546359,"DIS_CODE":0,"TOWNNAME":"安南區","LI":"新順里","LIN":"10鄰","STREET":"安和路","SECT":"二段","MAREA":" ","LANE":" ","ALLEY":" ","HOUSE_NO":"２９７號","E_COORD97":169689.31,"N_COORD97":2549277.1299999999,"ADDRESS":"安和路二段２９７號","OBJECTID":546332},"geometry":{"x":169689.31000000052,"y":2549277.1299999971}},{"attributes":{"ID":546360,"DIS_CODE":0,"TOWNNAME":"永康區","LI":"尚頂里","LIN":"29鄰","STREET":"南台街","SECT":" ","MAREA":" ","LANE":" ","ALLEY":" ","HOUSE_NO":"１０１號","E_COORD97":170168.89999999999,"N_COORD97":2547026.1099999999,"ADDRESS":"南台街１０１號","OBJECTID":546333},"geometry":{"x":170168.90000000224,"y":2547026.1099999994}},{"attributes":{"ID":546361,"DIS_CODE":0,"TOWNNAME":"安南區","LI":"頂安里","LIN":"10鄰","STREET":"怡安路","SECT":"一段","MAREA":" ","LANE":" ","ALLEY":" ","HOUSE_NO":"４７７號","E_COORD97":168496.45999999999,"N_COORD97":2549206.1899999999,"ADDRESS":"怡安路一段４７７號","OBJECTID":546334},"geometry":{"x":168496.45999999996,"y":2549206.1900000032}},{"attributes":{"ID":546362,"DIS_CODE":0,"TOWNNAME":"安南區","LI":"頂安里","LIN":"10鄰","STREET":"怡安路","SECT":"一段","MAREA":" ","LANE":" ","ALLEY":" ","HOUSE_NO":"４７９號","E_COORD97":168492.23999999999,"N_COORD97":2549207.3399999999,"ADDRESS":"怡安路一段４７９號","OBJECTID":546335},"geometry":{"x":168492.24000000115,"y":2549207.3400000017}},{"attributes":{"ID":546363,"DIS_CODE":0,"TOWNNAME":"安南區","LI":"頂安里","LIN":"10鄰","STREET":"怡安路","SECT":"一段","MAREA":" ","LANE":" ","ALLEY":" ","HOUSE_NO":"４８１號","E_COORD97":168488.03,"N_COORD97":2549207.7200000002,"ADDRESS":"怡安路一段４８１號","OBJECTID":546336},"geometry":{"x":168488.03000000212,"y":2549207.7200000025}},{"attributes":{"ID":546364,"DIS_CODE":0,"TOWNNAME":"安南區","LI":"新順里","LIN":"10鄰","STREET":"怡安路","SECT":"一段","MAREA":" ","LANE":" ","ALLEY":" ","HOUSE_NO":"１０２號","E_COORD97":169310.73000000001,"N_COORD97":2549031.48,"ADDRESS":"怡安路一段１０２號","OBJECTID":546337},"geometry":{"x":169310.73000000231,"y":2549031.4800000004}},{"attributes":{"ID":546365,"DIS_CODE":0,"TOWNNAME":"安南區","LI":"新順里","LIN":"10鄰","STREET":"怡安路","SECT":"一段","MAREA":" ","LANE":" ","ALLEY":" ","HOUSE_NO":"７６號","E_COORD97":169385.85000000001,"N_COORD97":2549013.52,"ADDRESS":"怡安路一段７６號","OBJECTID":546338},"geometry":{"x":169385.85000000056,"y":2549013.5199999996}},{"attributes":{"ID":546366,"DIS_CODE":0,"TOWNNAME":"安南區","LI":"新順里","LIN":"10鄰","STREET":"怡安路","SECT":"一段","MAREA":" ","LANE":" ","ALLEY":" ","HOUSE_NO":"７８號","E_COORD97":169380.92000000001,"N_COORD97":2549011.7799999998,"ADDRESS":"怡安路一段７８號","OBJECTID":546339},"geometry":{"x":169380.91999999993,"y":2549011.7799999993}},{"attributes":{"ID":546367,"DIS_CODE":0,"TOWNNAME":"安南區","LI":"新順里","LIN":"10鄰","STREET":"怡安路","SECT":"一段","MAREA":" ","LANE":" ","ALLEY":" ","HOUSE_NO":"８０號","E_COORD97":169377.73000000001,"N_COORD97":2549015.2599999998,"ADDRESS":"怡安路一段８０號","OBJECTID":546340},"geometry":{"x":169377.73000000045,"y":2549015.2599999998}},{"attributes":{"ID":546368,"DIS_CODE":0,"TOWNNAME":"安南區","LI":"新順里","LIN":"10鄰","STREET":"怡安路","SECT":"一段","MAREA":" ","LANE":" ","ALLEY":" ","HOUSE_NO":"８２號","E_COORD97":169371.92999999999,"N_COORD97":2549013.23,"ADDRESS":"怡安路一段８２號","OBJECTID":546341},"geometry":{"x":169371.93000000063,"y":2549013.2300000004}},{"attributes":{"ID":546369,"DIS_CODE":0,"TOWNNAME":"安南區","LI":"新順里","LIN":"10鄰","STREET":"怡安路","SECT":"一段","MAREA":" ","LANE":" ","ALLEY":" ","HOUSE_NO":"８４號","E_COORD97":169368.45000000001,"N_COORD97":2549016.7000000002,"ADDRESS":"怡安路一段８４號","OBJECTID":546342},"geometry":{"x":169368.45000000112,"y":2549016.7000000011}},{"attributes":{"ID":546370,"DIS_CODE":0,"TOWNNAME":"安南區","LI":"新順里","LIN":"10鄰","STREET":"怡安路","SECT":"一段","MAREA":" ","LANE":" ","ALLEY":" ","HOUSE_NO":"９０號","E_COORD97":169353.07999999999,"N_COORD97":2549016.4100000001,"ADDRESS":"怡安路一段９０號","OBJECTID":546343},"geometry":{"x":169353.08000000007,"y":2549016.410000002}},{"attributes":{"ID":546371,"DIS_CODE":0,"TOWNNAME":"安南區","LI":"新順里","LIN":"10鄰","STREET":"怡安路","SECT":"一段","MAREA":" ","LANE":" ","ALLEY":" ","HOUSE_NO":"９２號","E_COORD97":169346.98999999999,"N_COORD97":2549018.1499999999,"ADDRESS":"怡安路一段９２號","OBJECTID":546344},"geometry":{"x":169346.99000000022,"y":2549018.1500000022}},{"attributes":{"ID":546372,"DIS_CODE":0,"TOWNNAME":"安南區","LI":"新順里","LIN":"10鄰","STREET":"怡安路","SECT":"一段","MAREA":" ","LANE":" ","ALLEY":" ","HOUSE_NO":"９６號","E_COORD97":169328.13,"N_COORD97":2549026.27,"ADDRESS":"怡安路一段９６號","OBJECTID":546345},"geometry":{"x":169328.13000000082,"y":2549026.2700000033}},{"attributes":{"ID":546373,"DIS_CODE":0,"TOWNNAME":"安南區","LI":"新順里","LIN":"10鄰","STREET":"怡安路","SECT":"一段","MAREA":" ","LANE":" ","ALLEY":" ","HOUSE_NO":"９８號","E_COORD97":169322.62,"N_COORD97":2549032.0600000001,"ADDRESS":"怡安路一段９８號","OBJECTID":546346},"geometry":{"x":169322.62000000011,"y":2549032.0600000042}},{"attributes":{"ID":546374,"DIS_CODE":0,"TOWNNAME":"安南區","LI":"新順里","LIN":"10鄰","STREET":"怡安路","SECT":"一段","MAREA":" ","LANE":" ","ALLEY":" ","HOUSE_NO":"８６號","E_COORD97":169362.94,"N_COORD97":2549014.9700000002,"ADDRESS":"怡安路一段８６號","OBJECTID":546347},"geometry":{"x":169362.94000000041,"y":2549014.9700000007}},{"attributes":{"ID":546375,"DIS_CODE":0,"TOWNNAME":"安南區","LI":"新順里","LIN":"10鄰","STREET":"怡安路","SECT":"一段","MAREA":" ","LANE":" ","ALLEY":" ","HOUSE_NO":"８８號","E_COORD97":169358.88,"N_COORD97":2549017.8599999999,"ADDRESS":"怡安路一段８８號","OBJECTID":546348},"geometry":{"x":169358.88000000082,"y":2549017.8599999994}},{"attributes":{"ID":546376,"DIS_CODE":0,"TOWNNAME":"安南區","LI":"新順里","LIN":"10鄰","STREET":"安和路","SECT":"二段","MAREA":" ","LANE":" ","ALLEY":" ","HOUSE_NO":"１８２號","E_COORD97":169622.88,"N_COORD97":2548989.8199999998,"ADDRESS":"安和路二段１８２號","OBJECTID":546349},"geometry":{"x":169622.88000000082,"y":2548989.8200000022}},{"attributes":{"ID":546377,"DIS_CODE":0,"TOWNNAME":"永康區","LI":"西勢里","LIN":"29鄰","STREET":"西勢路","SECT":" ","MAREA":" ","LANE":" ","ALLEY":" ","HOUSE_NO":"１６８號","E_COORD97":175901.60999999999,"N_COORD97":2546771.7799999998,"ADDRESS":"西勢路１６８號","OBJECTID":546350},"geometry":{"x":175901.61000000034,"y":2546771.7800000012}},{"attributes":{"ID":546378,"DIS_CODE":0,"TOWNNAME":"安南區","LI":"長安里","LIN":"10鄰","STREET":"公學路","SECT":"二段","MAREA":" ","LANE":" ","ALLEY":" ","HOUSE_NO":"１２７號","E_COORD97":167698.17999999999,"N_COORD97":2552253.5499999998,"ADDRESS":"公學路二段１２７號","OBJECTID":546351},"geometry":{"x":167698.18000000156,"y":2552253.5500000026}},{"attributes":{"ID":546379,"DIS_CODE":0,"TOWNNAME":"安南區","LI":"長安里","LIN":"10鄰","STREET":"公學路","SECT":"二段","MAREA":" ","LANE":" ","ALLEY":" ","HOUSE_NO":"１３９號","E_COORD97":167681.82000000001,"N_COORD97":2552232.0699999998,"ADDRESS":"公學路二段１３９號","OBJECTID":546352},"geometry":{"x":167681.8200000003,"y":2552232.070000004}},{"attributes":{"ID":546380,"DIS_CODE":0,"TOWNNAME":"安南區","LI":"長安里","LIN":"10鄰","STREET":"公學路","SECT":"二段","MAREA":" ","LANE":" ","ALLEY":" ","HOUSE_NO":"１４１號","E_COORD97":167693.95000000001,"N_COORD97":2552224.6800000002,"ADDRESS":"公學路二段１４１號","OBJECTID":546353},"geometry":{"x":167693.95000000112,"y":2552224.6800000016}},{"attributes":{"ID":546381,"DIS_CODE":0,"TOWNNAME":"安南區","LI":"長安里","LIN":"10鄰","STREET":"公學路","SECT":"二段","MAREA":" ","LANE":" ","ALLEY":" ","HOUSE_NO":"１４７號","E_COORD97":167676.85000000001,"N_COORD97":2552209.8100000001,"ADDRESS":"公學路二段１４７號","OBJECTID":546354},"geometry":{"x":167676.85000000056,"y":2552209.8100000005}},{"attributes":{"ID":546382,"DIS_CODE":0,"TOWNNAME":"安南區","LI":"長安里","LIN":"10鄰","STREET":"公學路","SECT":"二段","MAREA":" ","LANE":" ","ALLEY":" ","HOUSE_NO":"１４９號","E_COORD97":167672.57999999999,"N_COORD97":2552224,"ADDRESS":"公學路二段１４９號","OBJECTID":546355},"geometry":{"x":167672.58000000101,"y":2552224}},{"attributes":{"ID":546383,"DIS_CODE":0,"TOWNNAME":"安南區","LI":"長安里","LIN":"10鄰","STREET":"公學路","SECT":"二段","MAREA":" ","LANE":" ","ALLEY":" ","HOUSE_NO":"１５１號","E_COORD97":167669.59,"N_COORD97":2552219.9900000002,"ADDRESS":"公學路二段１５１號","OBJECTID":546356},"geometry":{"x":167669.58999999985,"y":2552219.9900000021}},{"attributes":{"ID":546384,"DIS_CODE":0,"TOWNNAME":"安南區","LI":"長安里","LIN":"10鄰","STREET":"公學路","SECT":"二段","MAREA":" ","LANE":" ","ALLEY":" ","HOUSE_NO":"１５３號","E_COORD97":167666.91,"N_COORD97":2552216.4500000002,"ADDRESS":"公學路二段１５３號","OBJECTID":546357},"geometry":{"x":167666.91000000108,"y":2552216.4500000011}},{"attributes":{"ID":546385,"DIS_CODE":0,"TOWNNAME":"安南區","LI":"長安里","LIN":"10鄰","STREET":"公學路","SECT":"二段","MAREA":" ","LANE":" ","ALLEY":" ","HOUSE_NO":"１５５號","E_COORD97":167663.20000000001,"N_COORD97":2552213.6099999999,"ADDRESS":"公學路二段１５５號","OBJECTID":546358},"geometry":{"x":167663.20000000112,"y":2552213.6099999994}},{"attributes":{"ID":546386,"DIS_CODE":0,"TOWNNAME":"安南區","LI":"長安里","LIN":"10鄰","STREET":"公學路","SECT":"二段","MAREA":" ","LANE":" ","ALLEY":" ","HOUSE_NO":"１５７號","E_COORD97":167659.97,"N_COORD97":2552210.54,"ADDRESS":"公學路二段１５７號","OBJECTID":546359},"geometry":{"x":167659.96999999974,"y":2552210.5399999972}},{"attributes":{"ID":546387,"DIS_CODE":0,"TOWNNAME":"安南區","LI":"長安里","LIN":"10鄰","STREET":"公學路","SECT":"二段","MAREA":" ","LANE":" ","ALLEY":" ","HOUSE_NO":"１５９號","E_COORD97":167656.73000000001,"N_COORD97":2552207.4399999999,"ADDRESS":"公學路二段１５９號","OBJECTID":546360},"geometry":{"x":167656.73000000138,"y":2552207.4399999995}},{"attributes":{"ID":546388,"DIS_CODE":0,"TOWNNAME":"安南區","LI":"長安里","LIN":"10鄰","STREET":"公學路","SECT":"二段","MAREA":" ","LANE":" ","ALLEY":" ","HOUSE_NO":"１６１號","E_COORD97":167653.42000000001,"N_COORD97":2552204.21,"ADDRESS":"公學路二段１６１號","OBJECTID":546361},"geometry":{"x":167653.42000000086,"y":2552204.2100000009}},{"attributes":{"ID":546389,"DIS_CODE":0,"TOWNNAME":"安南區","LI":"長安里","LIN":"10鄰","STREET":"公學路","SECT":"二段","MAREA":" ","LANE":" ","ALLEY":" ","HOUSE_NO":"１６５號","E_COORD97":167656.20000000001,"N_COORD97":2552191.5,"ADDRESS":"公學路二段１６５號","OBJECTID":546362},"geometry":{"x":167656.20000000205,"y":2552191.4999999981}},{"attributes":{"ID":546390,"DIS_CODE":0,"TOWNNAME":"安南區","LI":"長安里","LIN":"10鄰","STREET":"公學路","SECT":"二段","MAREA":" ","LANE":" ","ALLEY":" ","HOUSE_NO":"１６９號","E_COORD97":167636.32999999999,"N_COORD97":2552193.8100000001,"ADDRESS":"公學路二段１６９號","OBJECTID":546363},"geometry":{"x":167636.33000000007,"y":2552193.8100000024}},{"attributes":{"ID":546391,"DIS_CODE":0,"TOWNNAME":"安南區","LI":"長安里","LIN":"10鄰","STREET":"公學路","SECT":"二段","MAREA":" ","LANE":" ","ALLEY":" ","HOUSE_NO":"１７１號","E_COORD97":167631.20000000001,"N_COORD97":2552190.5600000001,"ADDRESS":"公學路二段１７１號","OBJECTID":546364},"geometry":{"x":167631.20000000112,"y":2552190.5600000005}},{"attributes":{"ID":546392,"DIS_CODE":0,"TOWNNAME":"安南區","LI":"長安里","LIN":"10鄰","STREET":"公學路","SECT":"二段","MAREA":" ","LANE":" ","ALLEY":" ","HOUSE_NO":"１７３號","E_COORD97":167628.35999999999,"N_COORD97":2552188.3799999999,"ADDRESS":"公學路二段１７３號","OBJECTID":546365},"geometry":{"x":167628.36000000127,"y":2552188.3800000008}},{"attributes":{"ID":546393,"DIS_CODE":0,"TOWNNAME":"安南區","LI":"長安里","LIN":"10鄰","STREET":"公學路","SECT":"二段","MAREA":" ","LANE":" ","ALLEY":" ","HOUSE_NO":"１７５號","E_COORD97":167625.92000000001,"N_COORD97":2552184.98,"ADDRESS":"公學路二段１７５號","OBJECTID":546366},"geometry":{"x":167625.92000000086,"y":2552184.9800000004}},{"attributes":{"ID":546394,"DIS_CODE":0,"TOWNNAME":"安南區","LI":"長安里","LIN":"10鄰","STREET":"公學路","SECT":"二段","MAREA":" ","LANE":" ","ALLEY":" ","HOUSE_NO":"１７７號","E_COORD97":167622.53,"N_COORD97":2552182.1400000001,"ADDRESS":"公學路二段１７７號","OBJECTID":546367},"geometry":{"x":167622.53000000119,"y":2552182.1400000025}},{"attributes":{"ID":546395,"DIS_CODE":0,"TOWNNAME":"安南區","LI":"長安里","LIN":"10鄰","STREET":"公學路","SECT":"二段","MAREA":" ","LANE":" ","ALLEY":" ","HOUSE_NO":"１７９號","E_COORD97":167618.92000000001,"N_COORD97":2552179.4500000002,"ADDRESS":"公學路二段１７９號","OBJECTID":546368},"geometry":{"x":167618.92000000086,"y":2552179.4499999993}},{"attributes":{"ID":546396,"DIS_CODE":0,"TOWNNAME":"安南區","LI":"長安里","LIN":"10鄰","STREET":"公學路","SECT":"二段","MAREA":" ","LANE":" ","ALLEY":" ","HOUSE_NO":"１８３號","E_COORD97":167611.87,"N_COORD97":2552174.4399999999,"ADDRESS":"公學路二段１８３號","OBJECTID":546369},"geometry":{"x":167611.87000000011,"y":2552174.4400000032}},{"attributes":{"ID":546397,"DIS_CODE":0,"TOWNNAME":"安南區","LI":"長安里","LIN":"10鄰","STREET":"公學路","SECT":"二段","MAREA":" ","LANE":" ","ALLEY":" ","HOUSE_NO":"１８７號","E_COORD97":167605.57000000001,"N_COORD97":2552168.9399999999,"ADDRESS":"公學路二段１８７號","OBJECTID":546370},"geometry":{"x":167605.5700000003,"y":2552168.9400000013}},{"attributes":{"ID":546398,"DIS_CODE":0,"TOWNNAME":"安南區","LI":"長安里","LIN":"10鄰","STREET":"公學路","SECT":"二段","MAREA":" ","LANE":" ","ALLEY":" ","HOUSE_NO":"１８９號","E_COORD97":167601.81,"N_COORD97":2552165.98,"ADDRESS":"公學路二段１８９號","OBJECTID":546371},"geometry":{"x":167601.80999999959,"y":2552165.9800000023}},{"attributes":{"ID":546399,"DIS_CODE":0,"TOWNNAME":"安南區","LI":"長安里","LIN":"10鄰","STREET":"公學路","SECT":"二段","MAREA":" ","LANE":" ","ALLEY":" ","HOUSE_NO":"１９１號","E_COORD97":167598.42000000001,"N_COORD97":2552163.2400000002,"ADDRESS":"公學路二段１９１號","OBJECTID":546372},"geometry":{"x":167598.42000000179,"y":2552163.2400000039}},{"attributes":{"ID":546400,"DIS_CODE":0,"TOWNNAME":"安南區","LI":"長安里","LIN":"10鄰","STREET":"公學路","SECT":"二段","MAREA":" ","LANE":" ","ALLEY":" ","HOUSE_NO":"１９５號","E_COORD97":167590.98000000001,"N_COORD97":2552157.8999999999,"ADDRESS":"公學路二段１９５號","OBJECTID":546373},"geometry":{"x":167590.98000000045,"y":2552157.9000000004}},{"attributes":{"ID":546401,"DIS_CODE":0,"TOWNNAME":"安南區","LI":"長安里","LIN":"10鄰","STREET":"公學路","SECT":"二段","MAREA":" ","LANE":" ","ALLEY":" ","HOUSE_NO":"１９７號","E_COORD97":167586.19,"N_COORD97":2552155.4199999999,"ADDRESS":"公學路二段１９７號","OBJECTID":546374},"geometry":{"x":167586.19000000041,"y":2552155.4200000018}},{"attributes":{"ID":546402,"DIS_CODE":0,"TOWNNAME":"永康區","LI":"尚頂里","LIN":"14鄰","STREET":"正南一街","SECT":" ","MAREA":" ","LANE":" ","ALLEY":" ","HOUSE_NO":"１７３號","E_COORD97":170705.20000000001,"N_COORD97":2547335.0099999998,"ADDRESS":"正南一街１７３號","OBJECTID":546375},"geometry":{"x":170705.20000000019,"y":2547335.0099999998}},{"attributes":{"ID":546403,"DIS_CODE":0,"TOWNNAME":"永康區","LI":"南灣里","LIN":"10鄰","STREET":"大灣東路","SECT":" ","MAREA":" ","LANE":" ","ALLEY":" ","HOUSE_NO":"２０號","E_COORD97":174100.82999999999,"N_COORD97":2544260.3500000001,"ADDRESS":"大灣東路２０號","OBJECTID":546376},"geometry":{"x":174100.83000000101,"y":2544260.3500000015}},{"attributes":{"ID":546404,"DIS_CODE":0,"TOWNNAME":"永康區","LI":"西勢里","LIN":"4鄰","STREET":"富強路","SECT":"一段","MAREA":" ","LANE":" ","ALLEY":" ","HOUSE_NO":"３５１號","E_COORD97":175701.04999999999,"N_COORD97":2546756.2000000002,"ADDRESS":"富強路一段３５１號","OBJECTID":546377},"geometry":{"x":175701.05000000075,"y":2546756.2000000011}},{"attributes":{"ID":546405,"DIS_CODE":0,"TOWNNAME":"永康區","LI":"西灣里","LIN":"8鄰","STREET":"大安街","SECT":" ","MAREA":" ","LANE":" ","ALLEY":" ","HOUSE_NO":"１０３號","E_COORD97":174522.91,"N_COORD97":2545049.46,"ADDRESS":"大安街１０３號","OBJECTID":546378},"geometry":{"x":174522.91000000015,"y":2545049.4600000046}},{"attributes":{"ID":546406,"DIS_CODE":0,"TOWNNAME":"中西區","LI":"赤嵌里","LIN":"10鄰","STREET":"觀亭街","SECT":" ","MAREA":" ","LANE":" ","ALLEY":" ","HOUSE_NO":"８２號","E_COORD97":168587.70999999999,"N_COORD97":2544199.6000000001,"ADDRESS":"觀亭街８２號","OBJECTID":546379},"geometry":{"x":168587.70999999996,"y":2544199.6000000034}},{"attributes":{"ID":546407,"DIS_CODE":0,"TOWNNAME":"東區","LI":"仁和里","LIN":"10鄰","STREET":"仁和路","SECT":" ","MAREA":" ","LANE":" ","ALLEY":" ","HOUSE_NO":"１３５號之５","E_COORD97":171523.48000000001,"N_COORD97":2541108.9900000002,"ADDRESS":"仁和路１３５號之５","OBJECTID":546380},"geometry":{"x":171523.48000000138,"y":2541108.9900000039}},{"attributes":{"ID":546408,"DIS_CODE":0,"TOWNNAME":"東區","LI":"仁和里","LIN":"10鄰","STREET":"仁和路","SECT":" ","MAREA":" ","LANE":" ","ALLEY":" ","HOUSE_NO":"１３５號之６","E_COORD97":171520.25,"N_COORD97":2541115.7599999998,"ADDRESS":"仁和路１３５號之６","OBJECTID":546381},"geometry":{"x":171520.25,"y":2541115.7599999998}},{"attributes":{"ID":546409,"DIS_CODE":0,"TOWNNAME":"東區","LI":"仁和里","LIN":"10鄰","STREET":"仁和路","SECT":" ","MAREA":" ","LANE":" ","ALLEY":" ","HOUSE_NO":"１３５號之７","E_COORD97":171519.92999999999,"N_COORD97":2541121.5600000001,"ADDRESS":"仁和路１３５號之７","OBJECTID":546382},"geometry":{"x":171519.9299999997,"y":2541121.5600000005}},{"attributes":{"ID":546410,"DIS_CODE":0,"TOWNNAME":"東區","LI":"仁和里","LIN":"10鄰","STREET":"仁和路","SECT":" ","MAREA":" ","LANE":" ","ALLEY":" ","HOUSE_NO":"１３５號之８","E_COORD97":171519.28,"N_COORD97":2541126.7200000002,"ADDRESS":"仁和路１３５號之８","OBJECTID":546383},"geometry":{"x":171519.28000000119,"y":2541126.7200000007}},{"attributes":{"ID":546411,"DIS_CODE":0,"TOWNNAME":"東區","LI":"仁和里","LIN":"10鄰","STREET":"仁和路","SECT":" ","MAREA":" ","LANE":" ","ALLEY":" ","HOUSE_NO":"１３７之２號","E_COORD97":171519.60000000001,"N_COORD97":2541072.2400000002,"ADDRESS":"仁和路１３７之２號","OBJECTID":546384},"geometry":{"x":171519.60000000149,"y":2541072.2400000002}},{"attributes":{"ID":546412,"DIS_CODE":0,"TOWNNAME":"安南區","LI":"溪墘里","LIN":"10鄰","STREET":"海佃路","SECT":"一段","MAREA":" ","LANE":" ","ALLEY":" ","HOUSE_NO":"２７６號","E_COORD97":167122.34,"N_COORD97":2547416.98,"ADDRESS":"海佃路一段２７６號","OBJECTID":546385},"geometry":{"x":167122.33999999985,"y":2547416.9800000004}},{"attributes":{"ID":546413,"DIS_CODE":0,"TOWNNAME":"安南區","LI":"新順里","LIN":"10鄰","STREET":"安和路","SECT":"二段","MAREA":" ","LANE":" ","ALLEY":" ","HOUSE_NO":"２８４之３號","E_COORD97":169698.12,"N_COORD97":2549195.8799999999,"ADDRESS":"安和路二段２８４之３號","OBJECTID":546386},"geometry":{"x":169698.12000000104,"y":2549195.8800000008}},{"attributes":{"ID":546414,"DIS_CODE":0,"TOWNNAME":"安南區","LI":"安西里","LIN":"10鄰","STREET":"安和路","SECT":"一段","MAREA":" ","LANE":" ","ALLEY":" ","HOUSE_NO":"３７７號","E_COORD97":169301.39999999999,"N_COORD97":2548307.3599999999,"ADDRESS":"安和路一段３７７號","OBJECTID":546387},"geometry":{"x":169301.4000000013,"y":2548307.3600000013}},{"attributes":{"ID":546415,"DIS_CODE":0,"TOWNNAME":"仁德區","LI":"新田里","LIN":"10鄰","STREET":"北保路","SECT":" ","MAREA":" ","LANE":" ","ALLEY":" ","HOUSE_NO":"９４號","E_COORD97":173252.47,"N_COORD97":2539525.9900000002,"ADDRESS":"北保路９４號","OBJECTID":546388},"geometry":{"x":173252.46999999974,"y":2539525.9900000021}},{"attributes":{"ID":546416,"DIS_CODE":0,"TOWNNAME":"仁德區","LI":"新田里","LIN":"10鄰","STREET":"中正路","SECT":"二段","MAREA":" ","LANE":" ","ALLEY":" ","HOUSE_NO":"４８７號","E_COORD97":173328.26000000001,"N_COORD97":2539576.0299999998,"ADDRESS":"中正路二段４８７號","OBJECTID":546389},"geometry":{"x":173328.25999999978,"y":2539576.0300000012}},{"attributes":{"ID":546417,"DIS_CODE":0,"TOWNNAME":"仁德區","LI":"新田里","LIN":"10鄰","STREET":"北保路","SECT":" ","MAREA":" ","LANE":" ","ALLEY":" ","HOUSE_NO":"８６號","E_COORD97":173231.67999999999,"N_COORD97":2539535.4900000002,"ADDRESS":"北保路８６號","OBJECTID":546390},"geometry":{"x":173231.68000000063,"y":2539535.4899999984}},{"attributes":{"ID":546418,"DIS_CODE":0,"TOWNNAME":"仁德區","LI":"新田里","LIN":"10鄰","STREET":"中正路","SECT":"二段","MAREA":" ","LANE":" ","ALLEY":" ","HOUSE_NO":"４５５號","E_COORD97":173330.85000000001,"N_COORD97":2539472.0299999998,"ADDRESS":"中正路二段４５５號","OBJECTID":546391},"geometry":{"x":173330.85000000056,"y":2539472.0299999993}},{"attributes":{"ID":546419,"DIS_CODE":0,"TOWNNAME":"仁德區","LI":"新田里","LIN":"10鄰","STREET":"北保一街","SECT":" ","MAREA":" ","LANE":" ","ALLEY":" ","HOUSE_NO":"４號","E_COORD97":173287.57000000001,"N_COORD97":2539436.9900000002,"ADDRESS":"北保一街４號","OBJECTID":546392},"geometry":{"x":173287.57000000123,"y":2539436.9900000002}},{"attributes":{"ID":546420,"DIS_CODE":0,"TOWNNAME":"仁德區","LI":"新田里","LIN":"10鄰","STREET":"北保一街","SECT":" ","MAREA":" ","LANE":" ","ALLEY":" ","HOUSE_NO":"２４號","E_COORD97":173251.82999999999,"N_COORD97":2539455.7400000002,"ADDRESS":"北保一街２４號","OBJECTID":546393},"geometry":{"x":173251.83000000007,"y":2539455.7400000002}},{"attributes":{"ID":546421,"DIS_CODE":0,"TOWNNAME":"仁德區","LI":"新田里","LIN":"10鄰","STREET":"北保一街","SECT":" ","MAREA":" ","LANE":" ","ALLEY":" ","HOUSE_NO":"２０號","E_COORD97":173259.56,"N_COORD97":2539452.7400000002,"ADDRESS":"北保一街２０號","OBJECTID":546394},"geometry":{"x":173259.56000000052,"y":2539452.7400000039}},{"attributes":{"ID":546422,"DIS_CODE":0,"TOWNNAME":"仁德區","LI":"新田里","LIN":"10鄰","STREET":"中正路","SECT":"二段","MAREA":" ","LANE":" ","ALLEY":" ","HOUSE_NO":"４５３號","E_COORD97":173329.10000000001,"N_COORD97":2539467.7799999998,"ADDRESS":"中正路二段４５３號","OBJECTID":546395},"geometry":{"x":173329.10000000056,"y":2539467.7799999993}},{"attributes":{"ID":546423,"DIS_CODE":0,"TOWNNAME":"仁德區","LI":"新田里","LIN":"10鄰","STREET":"中正路","SECT":"二段","MAREA":" ","LANE":" ","ALLEY":" ","HOUSE_NO":"４６３號","E_COORD97":173337.32999999999,"N_COORD97":2539490.5299999998,"ADDRESS":"中正路二段４６３號","OBJECTID":546396},"geometry":{"x":173337.33000000194,"y":2539490.5300000031}},{"attributes":{"ID":546424,"DIS_CODE":0,"TOWNNAME":"仁德區","LI":"新田里","LIN":"10鄰","STREET":"北保路","SECT":" ","MAREA":" ","LANE":" ","ALLEY":" ","HOUSE_NO":"８８號","E_COORD97":173237.64000000001,"N_COORD97":2539532.2400000002,"ADDRESS":"北保路８８號","OBJECTID":546397},"geometry":{"x":173237.63999999966,"y":2539532.2400000021}},{"attributes":{"ID":546425,"DIS_CODE":0,"TOWNNAME":"仁德區","LI":"新田里","LIN":"10鄰","STREET":"中正路","SECT":"二段","MAREA":" ","LANE":" ","ALLEY":" ","HOUSE_NO":"４６７號","E_COORD97":173345.87,"N_COORD97":2539513.2799999998,"ADDRESS":"中正路二段４６７號","OBJECTID":546398},"geometry":{"x":173345.87000000104,"y":2539513.2800000012}},{"attributes":{"ID":546426,"DIS_CODE":0,"TOWNNAME":"仁德區","LI":"新田里","LIN":"10鄰","STREET":"中正路","SECT":"二段","MAREA":" ","LANE":" ","ALLEY":" ","HOUSE_NO":"４４５號","E_COORD97":173319.06,"N_COORD97":2539452.27,"ADDRESS":"中正路二段４４５號","OBJECTID":546399},"geometry":{"x":173319.06000000052,"y":2539452.2700000014}},{"attributes":{"ID":546427,"DIS_CODE":0,"TOWNNAME":"仁德區","LI":"新田里","LIN":"10鄰","STREET":"中正路","SECT":"二段","MAREA":" ","LANE":" ","ALLEY":" ","HOUSE_NO":"５６９號","E_COORD97":173348.38,"N_COORD97":2539758.2599999998,"ADDRESS":"中正路二段５６９號","OBJECTID":546400},"geometry":{"x":173348.37999999989,"y":2539758.2600000016}}]}