{"displayFieldName":"TOWNNAME","fieldAliases":{"ID":"ID","DIS_CODE":"DIS_CODE","TOWNNAME":"TOWNNAME","LI":"LI","LIN":"LIN","STREET":"STREET","SECT":"SECT","MAREA":"MAREA","LANE":"LANE","ALLEY":"ALLEY","HOUSE_NO":"HOUSE_NO","E_COORD97":"E_COORD97","N_COORD97":"N_COORD97","ADDRESS":"ADDRESS","OBJECTID":"OBJECTID"},"geometryType":"esriGeometryPoint","spatialReference":{"wkid":102443,"latestWkid":3826},"fields":[{"name":"ID","type":"esriFieldTypeDouble","alias":"ID"},{"name":"DIS_CODE","type":"esriFieldTypeInteger","alias":"DIS_CODE"},{"name":"TOWNNAME","type":"esriFieldTypeString","alias":"TOWNNAME","length":8},{"name":"LI","type":"esriFieldTypeString","alias":"LI","length":8},{"name":"LIN","type":"esriFieldTypeString","alias":"LIN","length":12},{"name":"STREET","type":"esriFieldTypeString","alias":"STREET","length":20},{"name":"SECT","type":"esriFieldTypeString","alias":"SECT","length":8},{"name":"MAREA","type":"esriFieldTypeString","alias":"MAREA","length":12},{"name":"LANE","type":"esriFieldTypeString","alias":"LANE","length":10},{"name":"ALLEY","type":"esriFieldTypeString","alias":"ALLEY","length":10},{"name":"HOUSE_NO","type":"esriFieldTypeString","alias":"HOUSE_NO","length":20},{"name":"E_COORD97","type":"esriFieldTypeDouble","alias":"E_COORD97"},{"name":"N_COORD97","type":"esriFieldTypeDouble","alias":"N_COORD97"},{"name":"ADDRESS","type":"esriFieldTypeString","alias":"ADDRESS","length":50},{"name":"OBJECTID","type":"esriFieldTypeOID","alias":"OBJECTID"}],"features":[{"attributes":{"ID":7601,"DIS_CODE":0,"TOWNNAME":"新化區","LI":"知義里","LIN":"14鄰","STREET":"復興路","SECT":" ","MAREA":" ","LANE":" ","ALLEY":" ","HOUSE_NO":"１０２號","E_COORD97":179517.01999999999,"N_COORD97":2547656.25,"ADDRESS":"復興路１０２號","OBJECTID":7601},"geometry":{"x":179517.02000000048,"y":2547656.25}},{"attributes":{"ID":7602,"DIS_CODE":0,"TOWNNAME":"下營區","LI":"仁里里","LIN":"21鄰","STREET":"仁民街","SECT":" ","MAREA":" ","LANE":" ","ALLEY":" ","HOUSE_NO":"５號","E_COORD97":174307.23999999999,"N_COORD97":2569780.3900000001,"ADDRESS":"仁民街５號","OBJECTID":7602},"geometry":{"x":174307.24000000022,"y":2569780.3900000025}},{"attributes":{"ID":7603,"DIS_CODE":0,"TOWNNAME":"南區","LI":"南都里","LIN":"9鄰","STREET":"南和路","SECT":" ","MAREA":" ","LANE":" ","ALLEY":" ","HOUSE_NO":"１２號","E_COORD97":166670.23000000001,"N_COORD97":2540109.1299999999,"ADDRESS":"南和路１２號","OBJECTID":7603},"geometry":{"x":166670.23000000138,"y":2540109.129999999}},{"attributes":{"ID":7604,"DIS_CODE":0,"TOWNNAME":"麻豆區","LI":"穀興里","LIN":"9鄰","STREET":"中華街","SECT":" ","MAREA":" ","LANE":" ","ALLEY":" ","HOUSE_NO":"２號","E_COORD97":172925.03,"N_COORD97":2564901.8599999999,"ADDRESS":"中華街２號","OBJECTID":7604},"geometry":{"x":172925.03000000119,"y":2564901.8599999994}},{"attributes":{"ID":7605,"DIS_CODE":0,"TOWNNAME":"東區","LI":"崇善里","LIN":"9鄰","STREET":"仁和路","SECT":" ","MAREA":" ","LANE":" ","ALLEY":" ","HOUSE_NO":"９２號","E_COORD97":171229.14000000001,"N_COORD97":2541529.1800000002,"ADDRESS":"仁和路９２號","OBJECTID":7605},"geometry":{"x":171229.13999999966,"y":2541529.1799999997}},{"attributes":{"ID":7606,"DIS_CODE":0,"TOWNNAME":"關廟區","LI":"香洋里","LIN":"9鄰","STREET":"忠孝街","SECT":" ","MAREA":" ","LANE":" ","ALLEY":" ","HOUSE_NO":"８號","E_COORD97":180949.44,"N_COORD97":2540053.25,"ADDRESS":"忠孝街８號","OBJECTID":7606},"geometry":{"x":180949.44000000041,"y":2540053.2500000019}},{"attributes":{"ID":7607,"DIS_CODE":0,"TOWNNAME":"新化區","LI":"豐榮里","LIN":"9鄰","STREET":"大智路","SECT":" ","MAREA":" ","LANE":" ","ALLEY":" ","HOUSE_NO":"７號","E_COORD97":178389.92999999999,"N_COORD97":2548434.25,"ADDRESS":"大智路７號","OBJECTID":7607},"geometry":{"x":178389.93000000063,"y":2548434.2500000019}},{"attributes":{"ID":7608,"DIS_CODE":0,"TOWNNAME":"新營區","LI":"新南里","LIN":"28鄰","STREET":"明清街","SECT":" ","MAREA":" ","LANE":" ","ALLEY":" ","HOUSE_NO":"８號","E_COORD97":178196.62,"N_COORD97":2578621.2200000002,"ADDRESS":"明清街８號","OBJECTID":7608},"geometry":{"x":178196.62000000011,"y":2578621.2200000007}},{"attributes":{"ID":7609,"DIS_CODE":0,"TOWNNAME":"永康區","LI":"龍潭里","LIN":"29鄰","STREET":"龍潭街","SECT":" ","MAREA":" ","LANE":" ","ALLEY":" ","HOUSE_NO":"８號","E_COORD97":174719.01000000001,"N_COORD97":2547722.3100000001,"ADDRESS":"龍潭街８號","OBJECTID":7609},"geometry":{"x":174719.00999999885,"y":2547722.3100000024}},{"attributes":{"ID":7610,"DIS_CODE":0,"TOWNNAME":"官田區","LI":"隆田里","LIN":"23鄰","STREET":"隆西街","SECT":" ","MAREA":" ","LANE":" ","ALLEY":" ","HOUSE_NO":"６號","E_COORD97":179116.23000000001,"N_COORD97":2565903.3300000001,"ADDRESS":"隆西街６號","OBJECTID":7610},"geometry":{"x":179116.23000000138,"y":2565903.3299999982}},{"attributes":{"ID":7611,"DIS_CODE":0,"TOWNNAME":"東區","LI":"大智里","LIN":"23鄰","STREET":"文東街","SECT":" ","MAREA":" ","LANE":" ","ALLEY":" ","HOUSE_NO":"５號","E_COORD97":171299.10000000001,"N_COORD97":2540108.3300000001,"ADDRESS":"文東街５號","OBJECTID":7611},"geometry":{"x":171299.0999999987,"y":2540108.3300000001}},{"attributes":{"ID":7612,"DIS_CODE":0,"TOWNNAME":"楠西區","LI":"楠西里","LIN":"22鄰","STREET":"博愛路","SECT":" ","MAREA":" ","LANE":" ","ALLEY":" ","HOUSE_NO":"４２號","E_COORD97":197414.62,"N_COORD97":2563491.2799999998,"ADDRESS":"博愛路４２號","OBJECTID":7612},"geometry":{"x":197414.62000000104,"y":2563491.2799999993}},{"attributes":{"ID":7613,"DIS_CODE":0,"TOWNNAME":"下營區","LI":"營前里","LIN":"23鄰","STREET":"忠孝街","SECT":" ","MAREA":" ","LANE":" ","ALLEY":" ","HOUSE_NO":"３２號","E_COORD97":174697.39999999999,"N_COORD97":2569824.8900000001,"ADDRESS":"忠孝街３２號","OBJECTID":7613},"geometry":{"x":174697.4000000013,"y":2569824.8900000006}},{"attributes":{"ID":7614,"DIS_CODE":0,"TOWNNAME":"新營區","LI":"王公里","LIN":"16鄰","STREET":"大仁街","SECT":" ","MAREA":" ","LANE":" ","ALLEY":" ","HOUSE_NO":"６號","E_COORD97":180179.29000000001,"N_COORD97":2579367.02,"ADDRESS":"大仁街６號","OBJECTID":7614},"geometry":{"x":180179.28999999911,"y":2579367.0199999996}},{"attributes":{"ID":7615,"DIS_CODE":0,"TOWNNAME":"麻豆區","LI":"中興里","LIN":"16鄰","STREET":"和平路","SECT":" ","MAREA":" ","LANE":" ","ALLEY":" ","HOUSE_NO":"９號","E_COORD97":172816.48000000001,"N_COORD97":2564235.6400000001,"ADDRESS":"和平路９號","OBJECTID":7615},"geometry":{"x":172816.48000000231,"y":2564235.6400000025}},{"attributes":{"ID":7616,"DIS_CODE":0,"TOWNNAME":"麻豆區","LI":"東角里","LIN":"2鄰","STREET":"文昌路","SECT":" ","MAREA":" ","LANE":" ","ALLEY":" ","HOUSE_NO":"６號","E_COORD97":173452.34,"N_COORD97":2564911.21,"ADDRESS":"文昌路６號","OBJECTID":7616},"geometry":{"x":173452.34000000171,"y":2564911.2100000009}},{"attributes":{"ID":7617,"DIS_CODE":0,"TOWNNAME":"安南區","LI":"新順里","LIN":"16鄰","STREET":"頂安街","SECT":" ","MAREA":" ","LANE":" ","ALLEY":" ","HOUSE_NO":"２號","E_COORD97":169676.25,"N_COORD97":2549328.2599999998,"ADDRESS":"頂安街２號","OBJECTID":7617},"geometry":{"x":169676.25000000186,"y":2549328.2600000035}},{"attributes":{"ID":7618,"DIS_CODE":0,"TOWNNAME":"東區","LI":"東安里","LIN":"16鄰","STREET":"衛國街","SECT":" ","MAREA":" ","LANE":" ","ALLEY":" ","HOUSE_NO":"７號","E_COORD97":170233.92000000001,"N_COORD97":2542973.9700000002,"ADDRESS":"衛國街７號","OBJECTID":7618},"geometry":{"x":170233.91999999993,"y":2542973.9699999988}},{"attributes":{"ID":7619,"DIS_CODE":0,"TOWNNAME":"東區","LI":"東安里","LIN":"16鄰","STREET":"衛國街","SECT":" ","MAREA":" ","LANE":" ","ALLEY":" ","HOUSE_NO":"５號","E_COORD97":170232.78,"N_COORD97":2542969.8900000001,"ADDRESS":"衛國街５號","OBJECTID":7619},"geometry":{"x":170232.78000000119,"y":2542969.8900000006}},{"attributes":{"ID":7620,"DIS_CODE":0,"TOWNNAME":"中西區","LI":"郡王里","LIN":"8鄰","STREET":"建業街","SECT":" ","MAREA":" ","LANE":" ","ALLEY":" ","HOUSE_NO":"７號","E_COORD97":168644.45000000001,"N_COORD97":2543133.8100000001,"ADDRESS":"建業街７號","OBJECTID":7620},"geometry":{"x":168644.45000000205,"y":2543133.8100000005}},{"attributes":{"ID":7621,"DIS_CODE":0,"TOWNNAME":"仁德區","LI":"仁義里","LIN":"16鄰","STREET":"林頂街","SECT":" ","MAREA":" ","LANE":" ","ALLEY":" ","HOUSE_NO":"６號","E_COORD97":174433.66,"N_COORD97":2541227.8700000001,"ADDRESS":"林頂街６號","OBJECTID":7621},"geometry":{"x":174433.66000000201,"y":2541227.870000001}},{"attributes":{"ID":7622,"DIS_CODE":0,"TOWNNAME":"麻豆區","LI":"大埕里","LIN":"16鄰","STREET":"大同街","SECT":" ","MAREA":" ","LANE":" ","ALLEY":" ","HOUSE_NO":"６號之４","E_COORD97":172911.62,"N_COORD97":2565015.77,"ADDRESS":"大同街６號之４","OBJECTID":7622},"geometry":{"x":172911.62000000197,"y":2565015.7700000014}},{"attributes":{"ID":7623,"DIS_CODE":0,"TOWNNAME":"安南區","LI":"新順里","LIN":"16鄰","STREET":"安生街","SECT":" ","MAREA":" ","LANE":" ","ALLEY":" ","HOUSE_NO":"７號","E_COORD97":169708.48000000001,"N_COORD97":2549449.8300000001,"ADDRESS":"安生街７號","OBJECTID":7623},"geometry":{"x":169708.48000000045,"y":2549449.8299999982}},{"attributes":{"ID":7624,"DIS_CODE":0,"TOWNNAME":"永康區","LI":"復國里","LIN":"4鄰","STREET":"復國二路","SECT":" ","MAREA":" ","LANE":" ","ALLEY":" ","HOUSE_NO":"１９號","E_COORD97":172825.94,"N_COORD97":2544901.6699999999,"ADDRESS":"復國二路１９號","OBJECTID":7624},"geometry":{"x":172825.94000000041,"y":2544901.6700000018}},{"attributes":{"ID":7625,"DIS_CODE":0,"TOWNNAME":"永康區","LI":"五王里","LIN":"30鄰","STREET":"中山東路","SECT":" ","MAREA":" ","LANE":" ","ALLEY":" ","HOUSE_NO":"８０號","E_COORD97":171710.78,"N_COORD97":2545994.4399999999,"ADDRESS":"中山東路８０號","OBJECTID":7625},"geometry":{"x":171710.78000000119,"y":2545994.4400000013}},{"attributes":{"ID":7626,"DIS_CODE":0,"TOWNNAME":"歸仁區","LI":"後市里","LIN":"16鄰","STREET":"民族南街","SECT":" ","MAREA":" ","LANE":" ","ALLEY":" ","HOUSE_NO":"２號","E_COORD97":177412.44,"N_COORD97":2540765.5499999998,"ADDRESS":"民族南街２號","OBJECTID":7626},"geometry":{"x":177412.44000000134,"y":2540765.5500000007}},{"attributes":{"ID":7627,"DIS_CODE":0,"TOWNNAME":"新營區","LI":"王公里","LIN":"16鄰","STREET":"大仁街","SECT":" ","MAREA":" ","LANE":" ","ALLEY":" ","HOUSE_NO":"５號","E_COORD97":180184.47,"N_COORD97":2579378.0699999998,"ADDRESS":"大仁街５號","OBJECTID":7627},"geometry":{"x":180184.46999999974,"y":2579378.0700000003}},{"attributes":{"ID":7628,"DIS_CODE":0,"TOWNNAME":"學甲區","LI":"明宜里","LIN":"16鄰","STREET":"重信路","SECT":" ","MAREA":" ","LANE":" ","ALLEY":" ","HOUSE_NO":"３號之１","E_COORD97":166080.37,"N_COORD97":2570573.29,"ADDRESS":"重信路３號之１","OBJECTID":7628},"geometry":{"x":166080.37000000104,"y":2570573.2899999991}},{"attributes":{"ID":7629,"DIS_CODE":0,"TOWNNAME":"永康區","LI":"五王里","LIN":"42鄰","STREET":"中山東路","SECT":" ","MAREA":" ","LANE":" ","ALLEY":" ","HOUSE_NO":"４２號","E_COORD97":171682.23000000001,"N_COORD97":2546081.9900000002,"ADDRESS":"中山東路４２號","OBJECTID":7629},"geometry":{"x":171682.23000000231,"y":2546081.9900000002}},{"attributes":{"ID":7630,"DIS_CODE":0,"TOWNNAME":"仁德區","LI":"後壁里","LIN":"13鄰","STREET":"德善路","SECT":" ","MAREA":" ","LANE":" ","ALLEY":" ","HOUSE_NO":"１３０號","E_COORD97":173510.70000000001,"N_COORD97":2538836.0099999998,"ADDRESS":"德善路１３０號","OBJECTID":7630},"geometry":{"x":173510.70000000019,"y":2538836.0099999998}},{"attributes":{"ID":7631,"DIS_CODE":0,"TOWNNAME":"關廟區","LI":"北勢里","LIN":"11鄰","STREET":"成功路","SECT":" ","MAREA":" ","LANE":" ","ALLEY":" ","HOUSE_NO":"２３０號","E_COORD97":181524.26999999999,"N_COORD97":2540526.27,"ADDRESS":"成功路２３０號","OBJECTID":7631},"geometry":{"x":181524.26999999955,"y":2540526.2699999977}},{"attributes":{"ID":7632,"DIS_CODE":0,"TOWNNAME":"麻豆區","LI":"興農里","LIN":"11鄰","STREET":"新生南路","SECT":" ","MAREA":" ","LANE":" ","ALLEY":" ","HOUSE_NO":"８１號","E_COORD97":172345.85999999999,"N_COORD97":2564704.98,"ADDRESS":"新生南路８１號","OBJECTID":7632},"geometry":{"x":172345.8600000022,"y":2564704.9800000004}},{"attributes":{"ID":7633,"DIS_CODE":0,"TOWNNAME":"東區","LI":"崇善里","LIN":"6鄰","STREET":"崇善六街","SECT":" ","MAREA":" ","LANE":" ","ALLEY":" ","HOUSE_NO":"５５號","E_COORD97":171157.17999999999,"N_COORD97":2541562.9199999999,"ADDRESS":"崇善六街５５號","OBJECTID":7633},"geometry":{"x":171157.1799999997,"y":2541562.9199999999}},{"attributes":{"ID":7634,"DIS_CODE":0,"TOWNNAME":"新營區","LI":"民榮里","LIN":"11鄰","STREET":"濟安街","SECT":" ","MAREA":" ","LANE":" ","ALLEY":" ","HOUSE_NO":"１１８號","E_COORD97":179168.53,"N_COORD97":2577941,"ADDRESS":"濟安街１１８號","OBJECTID":7634},"geometry":{"x":179168.53000000119,"y":2577941}},{"attributes":{"ID":7635,"DIS_CODE":0,"TOWNNAME":"麻豆區","LI":"穀興里","LIN":"11鄰","STREET":"中山路","SECT":" ","MAREA":" ","LANE":" ","ALLEY":" ","HOUSE_NO":"２６號","E_COORD97":172987.31,"N_COORD97":2564832.6499999999,"ADDRESS":"中山路２６號","OBJECTID":7635},"geometry":{"x":172987.30999999959,"y":2564832.6500000004}},{"attributes":{"ID":7636,"DIS_CODE":0,"TOWNNAME":"仁德區","LI":"後壁里","LIN":"11鄰","STREET":"德善路","SECT":" ","MAREA":" ","LANE":" ","ALLEY":" ","HOUSE_NO":"２１７號","E_COORD97":173765.35000000001,"N_COORD97":2538750.27,"ADDRESS":"德善路２１７號","OBJECTID":7636},"geometry":{"x":173765.34999999963,"y":2538750.2700000014}},{"attributes":{"ID":7637,"DIS_CODE":0,"TOWNNAME":"永康區","LI":"北灣里","LIN":"1鄰","STREET":"大同街","SECT":" ","MAREA":" ","LANE":" ","ALLEY":" ","HOUSE_NO":"９０號","E_COORD97":175150.89000000001,"N_COORD97":2545465.3700000001,"ADDRESS":"大同街９０號","OBJECTID":7637},"geometry":{"x":175150.8900000006,"y":2545465.3700000029}},{"attributes":{"ID":7638,"DIS_CODE":0,"TOWNNAME":"永康區","LI":"王行里","LIN":"14鄰","STREET":"經建路","SECT":" ","MAREA":" ","LANE":" ","ALLEY":" ","HOUSE_NO":"７號","E_COORD97":175101.25,"N_COORD97":2549438.02,"ADDRESS":"經建路７號","OBJECTID":7638},"geometry":{"x":175101.25000000093,"y":2549438.0200000033}},{"attributes":{"ID":7639,"DIS_CODE":0,"TOWNNAME":"下營區","LI":"下營里","LIN":"11鄰","STREET":"中正北路","SECT":" ","MAREA":" ","LANE":" ","ALLEY":" ","HOUSE_NO":"５號","E_COORD97":174529.07000000001,"N_COORD97":2570536.75,"ADDRESS":"中正北路５號","OBJECTID":7639},"geometry":{"x":174529.0700000003,"y":2570536.7500000019}},{"attributes":{"ID":7640,"DIS_CODE":0,"TOWNNAME":"仁德區","LI":"仁義里","LIN":"49鄰","STREET":"中清路","SECT":" ","MAREA":" ","LANE":" ","ALLEY":" ","HOUSE_NO":"９號","E_COORD97":173681.95999999999,"N_COORD97":2541016.54,"ADDRESS":"中清路９號","OBJECTID":7640},"geometry":{"x":173681.95999999996,"y":2541016.540000001}},{"attributes":{"ID":7641,"DIS_CODE":0,"TOWNNAME":"北區","LI":"三德里","LIN":"11鄰","STREET":"裕民街","SECT":" ","MAREA":" ","LANE":" ","ALLEY":" ","HOUSE_NO":"５７號","E_COORD97":168487.39000000001,"N_COORD97":2544499.9300000002,"ADDRESS":"裕民街５７號","OBJECTID":7641},"geometry":{"x":168487.3900000006,"y":2544499.9300000016}},{"attributes":{"ID":7642,"DIS_CODE":0,"TOWNNAME":"東區","LI":"東智里","LIN":"6鄰","STREET":"德東街","SECT":" ","MAREA":" ","LANE":" ","ALLEY":" ","HOUSE_NO":"５號","E_COORD97":170815.38,"N_COORD97":2540252.6400000001,"ADDRESS":"德東街５號","OBJECTID":7642},"geometry":{"x":170815.37999999989,"y":2540252.6400000006}},{"attributes":{"ID":7643,"DIS_CODE":0,"TOWNNAME":"永康區","LI":"永康里","LIN":"11鄰","STREET":"永平街","SECT":" ","MAREA":" ","LANE":" ","ALLEY":" ","HOUSE_NO":"６９號","E_COORD97":173723.54000000001,"N_COORD97":2547081.4900000002,"ADDRESS":"永平街６９號","OBJECTID":7643},"geometry":{"x":173723.54000000004,"y":2547081.4900000002}},{"attributes":{"ID":7644,"DIS_CODE":0,"TOWNNAME":"永康區","LI":"二王里","LIN":"9鄰","STREET":"永二街","SECT":" ","MAREA":" ","LANE":" ","ALLEY":" ","HOUSE_NO":"４１６號","E_COORD97":172730.42999999999,"N_COORD97":2546672.1200000001,"ADDRESS":"永二街４１６號","OBJECTID":7644},"geometry":{"x":172730.4299999997,"y":2546672.120000001}},{"attributes":{"ID":7645,"DIS_CODE":0,"TOWNNAME":"新化區","LI":"東榮里","LIN":"27鄰","STREET":"護安街","SECT":" ","MAREA":" ","LANE":" ","ALLEY":" ","HOUSE_NO":"５號","E_COORD97":179253.42999999999,"N_COORD97":2548199.2599999998,"ADDRESS":"護安街５號","OBJECTID":7645},"geometry":{"x":179253.4299999997,"y":2548199.2600000035}},{"attributes":{"ID":7646,"DIS_CODE":0,"TOWNNAME":"中西區","LI":"藥王里","LIN":"14鄰","STREET":"和真街","SECT":" ","MAREA":" ","LANE":" ","ALLEY":" ","HOUSE_NO":"１號","E_COORD97":167003.07999999999,"N_COORD97":2544446.7400000002,"ADDRESS":"和真街１號","OBJECTID":7646},"geometry":{"x":167003.08000000101,"y":2544446.7400000039}},{"attributes":{"ID":7647,"DIS_CODE":0,"TOWNNAME":"永康區","LI":"崑山里","LIN":"2鄰","STREET":"大灣路","SECT":" ","MAREA":" ","LANE":" ","ALLEY":" ","HOUSE_NO":"８４７號","E_COORD97":173707.78,"N_COORD97":2544417.3999999999,"ADDRESS":"大灣路８４７號","OBJECTID":7647},"geometry":{"x":173707.78000000119,"y":2544417.4000000004}},{"attributes":{"ID":7648,"DIS_CODE":0,"TOWNNAME":"東區","LI":"德高里","LIN":"13鄰","STREET":"城東街","SECT":" ","MAREA":" ","LANE":" ","ALLEY":" ","HOUSE_NO":"２號","E_COORD97":171477.81,"N_COORD97":2540636.9300000002,"ADDRESS":"城東街２號","OBJECTID":7648},"geometry":{"x":171477.81000000052,"y":2540636.9299999997}},{"attributes":{"ID":7649,"DIS_CODE":0,"TOWNNAME":"關廟區","LI":"香洋里","LIN":"22鄰","STREET":"東安街","SECT":" ","MAREA":" ","LANE":" ","ALLEY":" ","HOUSE_NO":"９號","E_COORD97":181445.76999999999,"N_COORD97":2539831.3199999998,"ADDRESS":"東安街９號","OBJECTID":7649},"geometry":{"x":181445.77000000048,"y":2539831.3200000003}},{"attributes":{"ID":7650,"DIS_CODE":0,"TOWNNAME":"善化區","LI":"光文里","LIN":"22鄰","STREET":"光華路","SECT":" ","MAREA":" ","LANE":" ","ALLEY":" ","HOUSE_NO":"３號","E_COORD97":178639.62,"N_COORD97":2559225,"ADDRESS":"光華路３號","OBJECTID":7650},"geometry":{"x":178639.61999999918,"y":2559225.0000000019}},{"attributes":{"ID":7651,"DIS_CODE":0,"TOWNNAME":"麻豆區","LI":"油車里","LIN":"22鄰","STREET":"中山路","SECT":" ","MAREA":" ","LANE":" ","ALLEY":" ","HOUSE_NO":"１４０號","E_COORD97":172421.57000000001,"N_COORD97":2564937.4500000002,"ADDRESS":"中山路１４０號","OBJECTID":7651},"geometry":{"x":172421.5700000003,"y":2564937.4499999993}},{"attributes":{"ID":7652,"DIS_CODE":0,"TOWNNAME":"安南區","LI":"新順里","LIN":"22鄰","STREET":"培安路","SECT":" ","MAREA":" ","LANE":" ","ALLEY":" ","HOUSE_NO":"５５號","E_COORD97":169270.67999999999,"N_COORD97":2549733.77,"ADDRESS":"培安路５５號","OBJECTID":7652},"geometry":{"x":169270.6799999997,"y":2549733.7699999996}},{"attributes":{"ID":7653,"DIS_CODE":0,"TOWNNAME":"中西區","LI":"保安里","LIN":"3鄰","STREET":"保安路","SECT":" ","MAREA":" ","LANE":" ","ALLEY":" ","HOUSE_NO":"２號","E_COORD97":167717.66,"N_COORD97":2543432.6600000001,"ADDRESS":"保安路２號","OBJECTID":7653},"geometry":{"x":167717.66000000108,"y":2543432.6600000001}},{"attributes":{"ID":7654,"DIS_CODE":0,"TOWNNAME":"白河區","LI":"白河里","LIN":"3鄰","STREET":"康樂路","SECT":" ","MAREA":" ","LANE":" ","ALLEY":" ","HOUSE_NO":"７號","E_COORD97":190252.07999999999,"N_COORD97":2582839.71,"ADDRESS":"康樂路７號","OBJECTID":7654},"geometry":{"x":190252.08000000194,"y":2582839.7100000009}},{"attributes":{"ID":7655,"DIS_CODE":0,"TOWNNAME":"東區","LI":"龍山里","LIN":"21鄰","STREET":"富德街","SECT":" ","MAREA":" ","LANE":" ","ALLEY":" ","HOUSE_NO":"６０號","E_COORD97":170425.14000000001,"N_COORD97":2542794.5899999999,"ADDRESS":"富德街６０號","OBJECTID":7655},"geometry":{"x":170425.13999999966,"y":2542794.5899999999}},{"attributes":{"ID":7656,"DIS_CODE":0,"TOWNNAME":"麻豆區","LI":"巷口里","LIN":"3鄰","STREET":"信義路","SECT":" ","MAREA":" ","LANE":" ","ALLEY":" ","HOUSE_NO":"８號之１４","E_COORD97":173158.38,"N_COORD97":2564611.46,"ADDRESS":"信義路８號之１４","OBJECTID":7656},"geometry":{"x":173158.37999999989,"y":2564611.4600000009}},{"attributes":{"ID":7657,"DIS_CODE":0,"TOWNNAME":"善化區","LI":"北關里","LIN":"3鄰","STREET":"三民路","SECT":" ","MAREA":" ","LANE":" ","ALLEY":" ","HOUSE_NO":"９５號","E_COORD97":177090.62,"N_COORD97":2559226.7599999998,"ADDRESS":"三民路９５號","OBJECTID":7657},"geometry":{"x":177090.62000000104,"y":2559226.7599999998}},{"attributes":{"ID":7658,"DIS_CODE":0,"TOWNNAME":"永康區","LI":"三民里","LIN":"3鄰","STREET":"三民街","SECT":" ","MAREA":" ","LANE":" ","ALLEY":" ","HOUSE_NO":"５７號","E_COORD97":172915.17000000001,"N_COORD97":2550257.3999999999,"ADDRESS":"三民街５７號","OBJECTID":7658},"geometry":{"x":172915.17000000086,"y":2550257.4000000022}},{"attributes":{"ID":7659,"DIS_CODE":0,"TOWNNAME":"中西區","LI":"青年里","LIN":"3鄰","STREET":"興華街","SECT":" ","MAREA":" ","LANE":" ","ALLEY":" ","HOUSE_NO":"１號","E_COORD97":169022.64000000001,"N_COORD97":2543602.6000000001,"ADDRESS":"興華街１號","OBJECTID":7659},"geometry":{"x":169022.6400000006,"y":2543602.5999999978}},{"attributes":{"ID":7660,"DIS_CODE":0,"TOWNNAME":"仁德區","LI":"新田里","LIN":"3鄰","STREET":"新田二街","SECT":" ","MAREA":" ","LANE":" ","ALLEY":" ","HOUSE_NO":"９號","E_COORD97":174585.63,"N_COORD97":2539780.75,"ADDRESS":"新田二街９號","OBJECTID":7660},"geometry":{"x":174585.62999999989,"y":2539780.75}},{"attributes":{"ID":7661,"DIS_CODE":0,"TOWNNAME":"仁德區","LI":"後壁里","LIN":"3鄰","STREET":"德善路","SECT":" ","MAREA":" ","LANE":" ","ALLEY":" ","HOUSE_NO":"１號","E_COORD97":173247.20000000001,"N_COORD97":2538963.27,"ADDRESS":"德善路１號","OBJECTID":7661},"geometry":{"x":173247.20000000112,"y":2538963.2699999977}},{"attributes":{"ID":7662,"DIS_CODE":0,"TOWNNAME":"永康區","LI":"永康里","LIN":"3鄰","STREET":"中山路","SECT":" ","MAREA":" ","LANE":" ","ALLEY":" ","HOUSE_NO":"６號","E_COORD97":173878.10999999999,"N_COORD97":2547389.6000000001,"ADDRESS":"中山路６號","OBJECTID":7662},"geometry":{"x":173878.1099999994,"y":2547389.5999999978}},{"attributes":{"ID":7663,"DIS_CODE":0,"TOWNNAME":"麻豆區","LI":"保安里","LIN":"3鄰","STREET":"興中路","SECT":" ","MAREA":" ","LANE":" ","ALLEY":" ","HOUSE_NO":"９號","E_COORD97":173096.14000000001,"N_COORD97":2564832.7000000002,"ADDRESS":"興中路９號","OBJECTID":7663},"geometry":{"x":173096.1400000006,"y":2564832.7000000011}},{"attributes":{"ID":7664,"DIS_CODE":0,"TOWNNAME":"東區","LI":"小東里","LIN":"6鄰","STREET":"光明街","SECT":" ","MAREA":" ","LANE":" ","ALLEY":" ","HOUSE_NO":"７號","E_COORD97":170893.14000000001,"N_COORD97":2544438.1000000001,"ADDRESS":"光明街７號","OBJECTID":7664},"geometry":{"x":170893.13999999966,"y":2544438.1000000015}},{"attributes":{"ID":7665,"DIS_CODE":0,"TOWNNAME":"東區","LI":"仁和里","LIN":"25鄰","STREET":"利東街","SECT":" ","MAREA":" ","LANE":" ","ALLEY":" ","HOUSE_NO":"１號","E_COORD97":171643.39000000001,"N_COORD97":2541172.0600000001,"ADDRESS":"利東街１號","OBJECTID":7665},"geometry":{"x":171643.3900000006,"y":2541172.0600000005}},{"attributes":{"ID":7666,"DIS_CODE":0,"TOWNNAME":"永康區","LI":"永康里","LIN":"8鄰","STREET":"永康街","SECT":" ","MAREA":" ","LANE":" ","ALLEY":" ","HOUSE_NO":"２１號","E_COORD97":173793.76999999999,"N_COORD97":2547276.4500000002,"ADDRESS":"永康街２１號","OBJECTID":7666},"geometry":{"x":173793.77000000048,"y":2547276.4500000011}},{"attributes":{"ID":7667,"DIS_CODE":0,"TOWNNAME":"中西區","LI":"協進里","LIN":"2鄰","STREET":"西寧街","SECT":" ","MAREA":" ","LANE":" ","ALLEY":" ","HOUSE_NO":"１號二樓","E_COORD97":167194.10000000001,"N_COORD97":2544191.52,"ADDRESS":"西寧街１號二樓","OBJECTID":7667},"geometry":{"x":167194.10000000056,"y":2544191.5199999996}},{"attributes":{"ID":7668,"DIS_CODE":0,"TOWNNAME":"永康區","LI":"甲頂里","LIN":"15鄰","STREET":"正新街","SECT":" ","MAREA":" ","LANE":" ","ALLEY":" ","HOUSE_NO":"５號","E_COORD97":170430.09,"N_COORD97":2546619.6099999999,"ADDRESS":"正新街５號","OBJECTID":7668},"geometry":{"x":170430.09000000078,"y":2546619.6099999994}},{"attributes":{"ID":7669,"DIS_CODE":0,"TOWNNAME":"永康區","LI":"網寮里","LIN":"13鄰","STREET":"永勝街","SECT":" ","MAREA":" ","LANE":" ","ALLEY":" ","HOUSE_NO":"１９３號","E_COORD97":173336.85000000001,"N_COORD97":2546582.5,"ADDRESS":"永勝街１９３號","OBJECTID":7669},"geometry":{"x":173336.85000000149,"y":2546582.5}},{"attributes":{"ID":7670,"DIS_CODE":0,"TOWNNAME":"永康區","LI":"南灣里","LIN":"10鄰","STREET":"南興路","SECT":" ","MAREA":" ","LANE":" ","ALLEY":" ","HOUSE_NO":"９號","E_COORD97":173997.07000000001,"N_COORD97":2543923.75,"ADDRESS":"南興路９號","OBJECTID":7670},"geometry":{"x":173997.07000000216,"y":2543923.75}},{"attributes":{"ID":7671,"DIS_CODE":0,"TOWNNAME":"關廟區","LI":"關廟里","LIN":"2鄰","STREET":"忠孝街","SECT":" ","MAREA":" ","LANE":" ","ALLEY":" ","HOUSE_NO":"９號","E_COORD97":180936.04000000001,"N_COORD97":2540064.25,"ADDRESS":"忠孝街９號","OBJECTID":7671},"geometry":{"x":180936.04000000097,"y":2540064.2500000019}},{"attributes":{"ID":7672,"DIS_CODE":0,"TOWNNAME":"南區","LI":"同安里","LIN":"2鄰","STREET":"灣裡路","SECT":" ","MAREA":" ","LANE":" ","ALLEY":" ","HOUSE_NO":"４１０號","E_COORD97":166186.59,"N_COORD97":2536139.9199999999,"ADDRESS":"灣裡路４１０號","OBJECTID":7672},"geometry":{"x":166186.58999999985,"y":2536139.9200000018}},{"attributes":{"ID":7673,"DIS_CODE":0,"TOWNNAME":"歸仁區","LI":"看西里","LIN":"2鄰","STREET":"仁愛三街","SECT":" ","MAREA":" ","LANE":" ","ALLEY":" ","HOUSE_NO":"３８號","E_COORD97":178353,"N_COORD97":2540397.96,"ADDRESS":"仁愛三街３８號","OBJECTID":7673},"geometry":{"x":178353.00000000093,"y":2540397.9600000046}},{"attributes":{"ID":7674,"DIS_CODE":0,"TOWNNAME":"新化區","LI":"竹林里","LIN":"2鄰","STREET":"民權街","SECT":" ","MAREA":" ","LANE":" ","ALLEY":" ","HOUSE_NO":"５８號","E_COORD97":178758.56,"N_COORD97":2548548.25,"ADDRESS":"民權街５８號","OBJECTID":7674},"geometry":{"x":178758.56000000052,"y":2548548.25}},{"attributes":{"ID":7675,"DIS_CODE":0,"TOWNNAME":"麻豆區","LI":"巷口里","LIN":"2鄰","STREET":"信義路","SECT":" ","MAREA":" ","LANE":" ","ALLEY":" ","HOUSE_NO":"１號","E_COORD97":173085.16,"N_COORD97":2564634.9500000002,"ADDRESS":"信義路１號","OBJECTID":7675},"geometry":{"x":173085.16000000108,"y":2564634.9500000011}},{"attributes":{"ID":7676,"DIS_CODE":0,"TOWNNAME":"中西區","LI":"保安里","LIN":"2鄰","STREET":"西門路","SECT":"二段","MAREA":" ","LANE":" ","ALLEY":" ","HOUSE_NO":"９號","E_COORD97":167720.66,"N_COORD97":2543486.5800000001,"ADDRESS":"西門路二段９號","OBJECTID":7676},"geometry":{"x":167720.65999999922,"y":2543486.5800000001}},{"attributes":{"ID":7677,"DIS_CODE":0,"TOWNNAME":"東區","LI":"和平里","LIN":"2鄰","STREET":"文化二街","SECT":" ","MAREA":" ","LANE":" ","ALLEY":" ","HOUSE_NO":"８７號","E_COORD97":171295.42000000001,"N_COORD97":2542042.1200000001,"ADDRESS":"文化二街８７號","OBJECTID":7677},"geometry":{"x":171295.41999999993,"y":2542042.1200000029}},{"attributes":{"ID":7678,"DIS_CODE":0,"TOWNNAME":"永康區","LI":"龍潭里","LIN":"2鄰","STREET":"龍潭街","SECT":" ","MAREA":" ","LANE":" ","ALLEY":" ","HOUSE_NO":"８５號","E_COORD97":174821.75,"N_COORD97":2548072.3100000001,"ADDRESS":"龍潭街８５號","OBJECTID":7678},"geometry":{"x":174821.75000000093,"y":2548072.3100000024}},{"attributes":{"ID":7679,"DIS_CODE":0,"TOWNNAME":"麻豆區","LI":"新建里","LIN":"2鄰","STREET":"三民路","SECT":" ","MAREA":" ","LANE":" ","ALLEY":" ","HOUSE_NO":"８號","E_COORD97":172768.64000000001,"N_COORD97":2564870.9900000002,"ADDRESS":"三民路８號","OBJECTID":7679},"geometry":{"x":172768.64000000153,"y":2564870.9900000002}},{"attributes":{"ID":7680,"DIS_CODE":0,"TOWNNAME":"仁德區","LI":"太子里","LIN":"2鄰","STREET":"長興三街","SECT":" ","MAREA":" ","LANE":" ","ALLEY":" ","HOUSE_NO":"６號","E_COORD97":174239.31,"N_COORD97":2543543.21,"ADDRESS":"長興三街６號","OBJECTID":7680},"geometry":{"x":174239.31000000052,"y":2543543.2100000028}},{"attributes":{"ID":7681,"DIS_CODE":0,"TOWNNAME":"麻豆區","LI":"穀興里","LIN":"5鄰","STREET":"興民街","SECT":" ","MAREA":" ","LANE":" ","ALLEY":" ","HOUSE_NO":"８號","E_COORD97":172793.14999999999,"N_COORD97":2564946.0600000001,"ADDRESS":"興民街８號","OBJECTID":7681},"geometry":{"x":172793.15000000224,"y":2564946.0600000005}},{"attributes":{"ID":7682,"DIS_CODE":0,"TOWNNAME":"安南區","LI":"安順里","LIN":"18鄰","STREET":"安豐二街","SECT":" ","MAREA":" ","LANE":" ","ALLEY":" ","HOUSE_NO":"２號","E_COORD97":169658.89999999999,"N_COORD97":2549983.73,"ADDRESS":"安豐二街２號","OBJECTID":7682},"geometry":{"x":169658.9000000013,"y":2549983.7300000023}},{"attributes":{"ID":7683,"DIS_CODE":0,"TOWNNAME":"麻豆區","LI":"中興里","LIN":"1鄰","STREET":"中興街","SECT":" ","MAREA":" ","LANE":" ","ALLEY":" ","HOUSE_NO":"６號","E_COORD97":172974.14000000001,"N_COORD97":2564636.7599999998,"ADDRESS":"中興街６號","OBJECTID":7683},"geometry":{"x":172974.1400000006,"y":2564636.7600000016}},{"attributes":{"ID":7684,"DIS_CODE":0,"TOWNNAME":"新市區","LI":"新和里","LIN":"26鄰","STREET":"永福街","SECT":" ","MAREA":" ","LANE":" ","ALLEY":" ","HOUSE_NO":"８號","E_COORD97":177810.06,"N_COORD97":2552687.5,"ADDRESS":"永福街８號","OBJECTID":7684},"geometry":{"x":177810.05999999959,"y":2552687.5000000019}},{"attributes":{"ID":7685,"DIS_CODE":0,"TOWNNAME":"佳里區","LI":"建南里","LIN":"20鄰","STREET":"中山路","SECT":" ","MAREA":" ","LANE":" ","ALLEY":" ","HOUSE_NO":"１７號","E_COORD97":165818.04999999999,"N_COORD97":2561641.9199999999,"ADDRESS":"中山路１７號","OBJECTID":7685},"geometry":{"x":165818.05000000075,"y":2561641.9200000018}},{"attributes":{"ID":7686,"DIS_CODE":0,"TOWNNAME":"新市區","LI":"新市里","LIN":"18鄰","STREET":"和平街","SECT":" ","MAREA":" ","LANE":" ","ALLEY":" ","HOUSE_NO":"１號","E_COORD97":177781.20999999999,"N_COORD97":2553461.75,"ADDRESS":"和平街１號","OBJECTID":7686},"geometry":{"x":177781.21000000183,"y":2553461.7500000019}},{"attributes":{"ID":7687,"DIS_CODE":0,"TOWNNAME":"安南區","LI":"新順里","LIN":"25鄰","STREET":"慶安路","SECT":" ","MAREA":" ","LANE":" ","ALLEY":" ","HOUSE_NO":"７號","E_COORD97":169429.64999999999,"N_COORD97":2549032.3500000001,"ADDRESS":"慶安路７號","OBJECTID":7687},"geometry":{"x":169429.65000000037,"y":2549032.3500000034}},{"attributes":{"ID":7688,"DIS_CODE":0,"TOWNNAME":"中西區","LI":"民生里","LIN":"7鄰","STREET":"武英街","SECT":" ","MAREA":" ","LANE":" ","ALLEY":" ","HOUSE_NO":"２號","E_COORD97":167231.85999999999,"N_COORD97":2543309.3300000001,"ADDRESS":"武英街２號","OBJECTID":7688},"geometry":{"x":167231.86000000127,"y":2543309.3300000001}},{"attributes":{"ID":7689,"DIS_CODE":0,"TOWNNAME":"永康區","LI":"永康里","LIN":"26鄰","STREET":"永明街","SECT":" ","MAREA":" ","LANE":" ","ALLEY":" ","HOUSE_NO":"３號","E_COORD97":174033.28,"N_COORD97":2547379.6699999999,"ADDRESS":"永明街３號","OBJECTID":7689},"geometry":{"x":174033.28000000119,"y":2547379.6700000037}},{"attributes":{"ID":7690,"DIS_CODE":0,"TOWNNAME":"安南區","LI":"顯宮里","LIN":"4鄰","STREET":"媽祖宮路","SECT":" ","MAREA":" ","LANE":" ","ALLEY":" ","HOUSE_NO":"６２號","E_COORD97":160770.10000000001,"N_COORD97":2548944.0299999998,"ADDRESS":"媽祖宮路６２號","OBJECTID":7690},"geometry":{"x":160770.09999999963,"y":2548944.0300000012}},{"attributes":{"ID":7691,"DIS_CODE":0,"TOWNNAME":"北區","LI":"華興里","LIN":"1鄰","STREET":"開南街","SECT":" ","MAREA":" ","LANE":" ","ALLEY":" ","HOUSE_NO":"５號五樓","E_COORD97":170296.16,"N_COORD97":2545392.8599999999,"ADDRESS":"開南街５號五樓","OBJECTID":7691},"geometry":{"x":170296.16000000108,"y":2545392.8599999994}},{"attributes":{"ID":7692,"DIS_CODE":0,"TOWNNAME":"南區","LI":"彰南里","LIN":" ","STREET":"新平路","SECT":" ","MAREA":" ","LANE":" ","ALLEY":" ","HOUSE_NO":"８號之１二樓","E_COORD97":166055.51000000001,"N_COORD97":2540624.25,"ADDRESS":"新平路８號之１二樓","OBJECTID":7692},"geometry":{"x":166055.51000000071,"y":2540624.25}},{"attributes":{"ID":7693,"DIS_CODE":0,"TOWNNAME":"中西區","LI":"青年里","LIN":"4鄰","STREET":"武德街","SECT":" ","MAREA":" ","LANE":" ","ALLEY":" ","HOUSE_NO":"２號","E_COORD97":168974.39000000001,"N_COORD97":2543622.77,"ADDRESS":"武德街２號","OBJECTID":7693},"geometry":{"x":168974.38999999966,"y":2543622.7700000014}},{"attributes":{"ID":7694,"DIS_CODE":0,"TOWNNAME":"永康區","LI":"五王里","LIN":"20鄰","STREET":"中華路","SECT":" ","MAREA":" ","LANE":" ","ALLEY":" ","HOUSE_NO":"４９２號","E_COORD97":171289.79000000001,"N_COORD97":2545777.4900000002,"ADDRESS":"中華路４９２號","OBJECTID":7694},"geometry":{"x":171289.7900000019,"y":2545777.4900000039}},{"attributes":{"ID":7695,"DIS_CODE":0,"TOWNNAME":"仁德區","LI":"仁德里","LIN":"39鄰","STREET":"文宏二街","SECT":" ","MAREA":" ","LANE":" ","ALLEY":" ","HOUSE_NO":"９８號","E_COORD97":172486.53,"N_COORD97":2541762.3300000001,"ADDRESS":"文宏二街９８號","OBJECTID":7695},"geometry":{"x":172486.53000000026,"y":2541762.3300000019}},{"attributes":{"ID":7696,"DIS_CODE":0,"TOWNNAME":"中西區","LI":"銀同里","LIN":"6鄰","STREET":"府中街","SECT":" ","MAREA":" ","LANE":" ","ALLEY":" ","HOUSE_NO":"４５號","E_COORD97":168765.60000000001,"N_COORD97":2543454.1299999999,"ADDRESS":"府中街４５號","OBJECTID":7696},"geometry":{"x":168765.60000000056,"y":2543454.1300000008}},{"attributes":{"ID":7697,"DIS_CODE":0,"TOWNNAME":"白河區","LI":"永安里","LIN":"9鄰","STREET":"中正路","SECT":" ","MAREA":" ","LANE":" ","ALLEY":" ","HOUSE_NO":"６４號","E_COORD97":190121.91,"N_COORD97":2583141.52,"ADDRESS":"中正路６４號","OBJECTID":7697},"geometry":{"x":190121.91000000015,"y":2583141.5199999996}},{"attributes":{"ID":7698,"DIS_CODE":0,"TOWNNAME":"安南區","LI":"溪心里","LIN":"18鄰","STREET":"智安三街","SECT":" ","MAREA":" ","LANE":" ","ALLEY":" ","HOUSE_NO":"６號","E_COORD97":165911.81,"N_COORD97":2550117.5600000001,"ADDRESS":"智安三街６號","OBJECTID":7698},"geometry":{"x":165911.80999999959,"y":2550117.5600000024}},{"attributes":{"ID":7699,"DIS_CODE":0,"TOWNNAME":"佳里區","LI":"鎮山里","LIN":"7鄰","STREET":"崇德街","SECT":" ","MAREA":" ","LANE":" ","ALLEY":" ","HOUSE_NO":"１號","E_COORD97":166306.76999999999,"N_COORD97":2561672.3199999998,"ADDRESS":"崇德街１號","OBJECTID":7699},"geometry":{"x":166306.76999999955,"y":2561672.3200000003}},{"attributes":{"ID":7700,"DIS_CODE":0,"TOWNNAME":"楠西區","LI":"楠西里","LIN":"25鄰","STREET":"四維路","SECT":" ","MAREA":" ","LANE":" ","ALLEY":" ","HOUSE_NO":"５號","E_COORD97":197317.95999999999,"N_COORD97":2563476.25,"ADDRESS":"四維路５號","OBJECTID":7700},"geometry":{"x":197317.95999999996,"y":2563476.25}},{"attributes":{"ID":7701,"DIS_CODE":0,"TOWNNAME":"新營區","LI":"好平里","LIN":"13鄰","STREET":"和平路","SECT":" ","MAREA":" ","LANE":" ","ALLEY":" ","HOUSE_NO":"５號","E_COORD97":179447.73000000001,"N_COORD97":2578020.5,"ADDRESS":"和平路５號","OBJECTID":7701},"geometry":{"x":179447.73000000045,"y":2578020.5000000019}},{"attributes":{"ID":7702,"DIS_CODE":0,"TOWNNAME":"北區","LI":"五福里","LIN":"12鄰","STREET":"自強街","SECT":" ","MAREA":" ","LANE":" ","ALLEY":" ","HOUSE_NO":"３０號","E_COORD97":168244.63,"N_COORD97":2544509.2200000002,"ADDRESS":"自強街３０號","OBJECTID":7702},"geometry":{"x":168244.63000000175,"y":2544509.2200000025}},{"attributes":{"ID":7703,"DIS_CODE":0,"TOWNNAME":"安南區","LI":"溪北里","LIN":"24鄰","STREET":"敬安街","SECT":" ","MAREA":" ","LANE":" ","ALLEY":" ","HOUSE_NO":"３號七樓","E_COORD97":169164.79000000001,"N_COORD97":2547590.3700000001,"ADDRESS":"敬安街３號七樓","OBJECTID":7703},"geometry":{"x":169164.79000000097,"y":2547590.3700000029}},{"attributes":{"ID":7704,"DIS_CODE":0,"TOWNNAME":"東區","LI":"東光里","LIN":"35鄰","STREET":"莊敬路","SECT":" ","MAREA":" ","LANE":" ","ALLEY":" ","HOUSE_NO":"１號七樓","E_COORD97":171319.73000000001,"N_COORD97":2543718.73,"ADDRESS":"莊敬路１號七樓","OBJECTID":7704},"geometry":{"x":171319.73000000138,"y":2543718.7300000023}},{"attributes":{"ID":7705,"DIS_CODE":0,"TOWNNAME":"下營區","LI":"仁里里","LIN":"1鄰","STREET":"仁義街","SECT":" ","MAREA":" ","LANE":" ","ALLEY":" ","HOUSE_NO":"２號","E_COORD97":174608.14000000001,"N_COORD97":2569720.02,"ADDRESS":"仁義街２號","OBJECTID":7705},"geometry":{"x":174608.1400000006,"y":2569720.0200000014}},{"attributes":{"ID":7706,"DIS_CODE":0,"TOWNNAME":"佳里區","LI":"鎮山里","LIN":"19鄰","STREET":"佳南路","SECT":" ","MAREA":" ","LANE":" ","ALLEY":" ","HOUSE_NO":"１８６號","E_COORD97":166176.34,"N_COORD97":2561048.3399999999,"ADDRESS":"佳南路１８６號","OBJECTID":7706},"geometry":{"x":166176.33999999985,"y":2561048.3400000036}},{"attributes":{"ID":7707,"DIS_CODE":0,"TOWNNAME":"新營區","LI":"民榮里","LIN":"17鄰","STREET":"富強街","SECT":" ","MAREA":" ","LANE":" ","ALLEY":" ","HOUSE_NO":"３４號","E_COORD97":178985.66,"N_COORD97":2577803.4399999999,"ADDRESS":"富強街３４號","OBJECTID":7707},"geometry":{"x":178985.66000000108,"y":2577803.4400000013}},{"attributes":{"ID":7708,"DIS_CODE":0,"TOWNNAME":"柳營區","LI":"中埕里","LIN":"4鄰","STREET":"中興街","SECT":" ","MAREA":" ","LANE":" ","ALLEY":" ","HOUSE_NO":"３號","E_COORD97":179969.12,"N_COORD97":2575160.6400000001,"ADDRESS":"中興街３號","OBJECTID":7708},"geometry":{"x":179969.12000000104,"y":2575160.6400000006}},{"attributes":{"ID":7709,"DIS_CODE":0,"TOWNNAME":"麻豆區","LI":"保安里","LIN":" ","STREET":"博愛路","SECT":" ","MAREA":" ","LANE":" ","ALLEY":" ","HOUSE_NO":"２０號","E_COORD97":173327.75,"N_COORD97":2564885.0099999998,"ADDRESS":"博愛路２０號","OBJECTID":7709},"geometry":{"x":173327.75000000186,"y":2564885.0100000035}},{"attributes":{"ID":7710,"DIS_CODE":0,"TOWNNAME":"麻豆區","LI":"保安里","LIN":"12鄰","STREET":"民族路","SECT":" ","MAREA":" ","LANE":" ","ALLEY":" ","HOUSE_NO":"１號","E_COORD97":173191.07000000001,"N_COORD97":2564795.3300000001,"ADDRESS":"民族路１號","OBJECTID":7710},"geometry":{"x":173191.0700000003,"y":2564795.3300000019}},{"attributes":{"ID":7711,"DIS_CODE":0,"TOWNNAME":"新營區","LI":"嘉芳里","LIN":"14鄰","STREET":"忠孝路","SECT":" ","MAREA":" ","LANE":" ","ALLEY":" ","HOUSE_NO":"３號","E_COORD97":176731.17999999999,"N_COORD97":2577853.1699999999,"ADDRESS":"忠孝路３號","OBJECTID":7711},"geometry":{"x":176731.1799999997,"y":2577853.1700000018}},{"attributes":{"ID":7712,"DIS_CODE":0,"TOWNNAME":"新營區","LI":"中營里","LIN":" ","STREET":"東山路","SECT":" ","MAREA":" ","LANE":" ","ALLEY":" ","HOUSE_NO":"７０號","E_COORD97":181173.53,"N_COORD97":2578669.0899999999,"ADDRESS":"東山路７０號","OBJECTID":7712},"geometry":{"x":181173.53000000119,"y":2578669.0899999999}},{"attributes":{"ID":7713,"DIS_CODE":0,"TOWNNAME":"柳營區","LI":"光福里","LIN":"1鄰","STREET":"建安街","SECT":" ","MAREA":" ","LANE":" ","ALLEY":" ","HOUSE_NO":"１號","E_COORD97":179735.95000000001,"N_COORD97":2574983.5600000001,"ADDRESS":"建安街１號","OBJECTID":7713},"geometry":{"x":179735.94999999925,"y":2574983.5600000024}},{"attributes":{"ID":7714,"DIS_CODE":0,"TOWNNAME":"六甲區","LI":"甲東里","LIN":"17鄰","STREET":"裕農街","SECT":" ","MAREA":" ","LANE":" ","ALLEY":" ","HOUSE_NO":"７號","E_COORD97":183964.45000000001,"N_COORD97":2569656.46,"ADDRESS":"裕農街７號","OBJECTID":7714},"geometry":{"x":183964.45000000112,"y":2569656.459999999}},{"attributes":{"ID":7715,"DIS_CODE":0,"TOWNNAME":"關廟區","LI":"五甲里","LIN":"1鄰","STREET":"和平路","SECT":" ","MAREA":" ","LANE":" ","ALLEY":" ","HOUSE_NO":"７號","E_COORD97":181714.44,"N_COORD97":2539315.25,"ADDRESS":"和平路７號","OBJECTID":7715},"geometry":{"x":181714.44000000041,"y":2539315.25}},{"attributes":{"ID":7716,"DIS_CODE":0,"TOWNNAME":"北區","LI":"長榮里","LIN":"8鄰","STREET":"長勝路","SECT":" ","MAREA":" ","LANE":" ","ALLEY":" ","HOUSE_NO":"７號","E_COORD97":170058.89999999999,"N_COORD97":2545530.3599999999,"ADDRESS":"長勝路７號","OBJECTID":7716},"geometry":{"x":170058.9000000013,"y":2545530.3600000013}},{"attributes":{"ID":7717,"DIS_CODE":0,"TOWNNAME":"東山區","LI":"東中里","LIN":"2鄰","STREET":"中興路","SECT":" ","MAREA":" ","LANE":" ","ALLEY":" ","HOUSE_NO":"１號","E_COORD97":188963.12,"N_COORD97":2580061.1699999999,"ADDRESS":"中興路１號","OBJECTID":7717},"geometry":{"x":188963.12000000011,"y":2580061.1699999999}},{"attributes":{"ID":7718,"DIS_CODE":0,"TOWNNAME":"安平區","LI":"海頭里","LIN":"6鄰","STREET":"中興街","SECT":" ","MAREA":" ","LANE":" ","ALLEY":" ","HOUSE_NO":"８號","E_COORD97":164310.29999999999,"N_COORD97":2544676.9300000002,"ADDRESS":"中興街８號","OBJECTID":7718},"geometry":{"x":164310.29999999981,"y":2544676.9300000016}},{"attributes":{"ID":7719,"DIS_CODE":0,"TOWNNAME":"歸仁區","LI":"八甲里","LIN":"4鄰","STREET":"大明三街","SECT":" ","MAREA":" ","LANE":" ","ALLEY":" ","HOUSE_NO":"２０號","E_COORD97":178057.12,"N_COORD97":2541771.6099999999,"ADDRESS":"大明三街２０號","OBJECTID":7719},"geometry":{"x":178057.12000000104,"y":2541771.6100000031}},{"attributes":{"ID":7720,"DIS_CODE":0,"TOWNNAME":"新化區","LI":"武安里","LIN":" ","STREET":"大同街","SECT":" ","MAREA":" ","LANE":" ","ALLEY":" ","HOUSE_NO":"５０號","E_COORD97":179003.38,"N_COORD97":2548207.25,"ADDRESS":"大同街５０號","OBJECTID":7720},"geometry":{"x":179003.37999999989,"y":2548207.2500000019}},{"attributes":{"ID":7721,"DIS_CODE":0,"TOWNNAME":"鹽水區","LI":"水正里","LIN":"20鄰","STREET":"康樂路","SECT":" ","MAREA":" ","LANE":" ","ALLEY":" ","HOUSE_NO":"５４號","E_COORD97":175194.85000000001,"N_COORD97":2579847.6699999999,"ADDRESS":"康樂路５４號","OBJECTID":7721},"geometry":{"x":175194.85000000149,"y":2579847.6699999999}},{"attributes":{"ID":7722,"DIS_CODE":0,"TOWNNAME":"關廟區","LI":"關廟里","LIN":"4鄰","STREET":"正義街","SECT":" ","MAREA":" ","LANE":" ","ALLEY":" ","HOUSE_NO":"９號","E_COORD97":180812.41,"N_COORD97":2540121.27,"ADDRESS":"正義街９號","OBJECTID":7722},"geometry":{"x":180812.41000000015,"y":2540121.2700000014}},{"attributes":{"ID":7723,"DIS_CODE":0,"TOWNNAME":"關廟區","LI":"新埔里","LIN":"1鄰","STREET":"新埔一街","SECT":" ","MAREA":" ","LANE":" ","ALLEY":" ","HOUSE_NO":"２１號","E_COORD97":181241.07000000001,"N_COORD97":2540828.25,"ADDRESS":"新埔一街２１號","OBJECTID":7723},"geometry":{"x":181241.07000000123,"y":2540828.25}},{"attributes":{"ID":7724,"DIS_CODE":0,"TOWNNAME":"南區","LI":"彰南里","LIN":"18鄰","STREET":"新和二路","SECT":" ","MAREA":" ","LANE":" ","ALLEY":" ","HOUSE_NO":"９號之１","E_COORD97":165664.98000000001,"N_COORD97":2540705.5600000001,"ADDRESS":"新和二路９號之１","OBJECTID":7724},"geometry":{"x":165664.98000000138,"y":2540705.5600000024}},{"attributes":{"ID":7725,"DIS_CODE":0,"TOWNNAME":"安平區","LI":"西門里","LIN":"4鄰","STREET":"安平路","SECT":" ","MAREA":" ","LANE":" ","ALLEY":" ","HOUSE_NO":"８號","E_COORD97":166560.59,"N_COORD97":2544301.2400000002,"ADDRESS":"安平路８號","OBJECTID":7725},"geometry":{"x":166560.58999999985,"y":2544301.2400000021}},{"attributes":{"ID":7726,"DIS_CODE":0,"TOWNNAME":"歸仁區","LI":"辜厝里","LIN":"26鄰","STREET":"大順三街","SECT":" ","MAREA":" ","LANE":" ","ALLEY":" ","HOUSE_NO":"１號","E_COORD97":177369.17999999999,"N_COORD97":2540585.1499999999,"ADDRESS":"大順三街１號","OBJECTID":7726},"geometry":{"x":177369.18000000156,"y":2540585.1500000004}},{"attributes":{"ID":7727,"DIS_CODE":0,"TOWNNAME":"仁德區","LI":"上崙里","LIN":"6鄰","STREET":"德南路","SECT":" ","MAREA":" ","LANE":"３９９巷","ALLEY":"２６弄","HOUSE_NO":"１９號","E_COORD97":173998.25773700001,"N_COORD97":2538214.42503,"ADDRESS":"德南路３９９巷２６弄１９號","OBJECTID":7727},"geometry":{"x":173998.25773700047,"y":2538214.4250349998}},{"attributes":{"ID":7728,"DIS_CODE":0,"TOWNNAME":"仁德區","LI":"成功里","LIN":"13鄰","STREET":"全福路","SECT":" ","MAREA":" ","LANE":"３巷","ALLEY":"２弄","HOUSE_NO":"４號","E_COORD97":170838.92000000001,"N_COORD97":2539351.2400000002,"ADDRESS":"全福路３巷２弄４號","OBJECTID":7728},"geometry":{"x":170838.91999999993,"y":2539351.2400000021}},{"attributes":{"ID":7729,"DIS_CODE":0,"TOWNNAME":"仁德區","LI":"上崙里","LIN":"6鄰","STREET":"德南路","SECT":" ","MAREA":" ","LANE":"３９９巷","ALLEY":"２６弄","HOUSE_NO":"１８號","E_COORD97":173980.036723,"N_COORD97":2538220.6691999999,"ADDRESS":"德南路３９９巷２６弄１８號","OBJECTID":7729},"geometry":{"x":173980.036723,"y":2538220.6691979989}},{"attributes":{"ID":7730,"DIS_CODE":0,"TOWNNAME":"東區","LI":"文聖里","LIN":"20鄰","STREET":"裕信二街","SECT":" ","MAREA":" ","LANE":" ","ALLEY":" ","HOUSE_NO":"７８號","E_COORD97":172774,"N_COORD97":2542744.1600000001,"ADDRESS":"裕信二街７８號","OBJECTID":7730},"geometry":{"x":172774.00000000093,"y":2542744.1600000001}},{"attributes":{"ID":7731,"DIS_CODE":0,"TOWNNAME":"東區","LI":"文聖里","LIN":"20鄰","STREET":"裕信二街","SECT":" ","MAREA":" ","LANE":" ","ALLEY":" ","HOUSE_NO":"８０號","E_COORD97":172776.60000000001,"N_COORD97":2542744.3100000001,"ADDRESS":"裕信二街８０號","OBJECTID":7731},"geometry":{"x":172776.59999999963,"y":2542744.3099999987}},{"attributes":{"ID":7732,"DIS_CODE":0,"TOWNNAME":"仁德區","LI":"上崙里","LIN":"6鄰","STREET":"德南路","SECT":" ","MAREA":" ","LANE":"３９９巷","ALLEY":"２６弄","HOUSE_NO":"１２號","E_COORD97":173981.307956,"N_COORD97":2538229.77086,"ADDRESS":"德南路３９９巷２６弄１２號","OBJECTID":7732},"geometry":{"x":173981.30795599986,"y":2538229.7708600033}},{"attributes":{"ID":7733,"DIS_CODE":0,"TOWNNAME":"東區","LI":"文聖里","LIN":"20鄰","STREET":"裕信二街","SECT":" ","MAREA":" ","LANE":" ","ALLEY":" ","HOUSE_NO":"８２號","E_COORD97":172780.57999999999,"N_COORD97":2542744.3100000001,"ADDRESS":"裕信二街８２號","OBJECTID":7733},"geometry":{"x":172780.58000000007,"y":2542744.3099999987}},{"attributes":{"ID":7734,"DIS_CODE":0,"TOWNNAME":"學甲區","LI":"光華里","LIN":"1鄰","STREET":" ","SECT":" ","MAREA":"過港子","LANE":" ","ALLEY":" ","HOUSE_NO":"２號之１","E_COORD97":164565.37,"N_COORD97":2571379.0899999999,"ADDRESS":"過港子２號之１","OBJECTID":7734},"geometry":{"x":164565.37000000104,"y":2571379.0899999999}},{"attributes":{"ID":7735,"DIS_CODE":0,"TOWNNAME":"仁德區","LI":"上崙里","LIN":"6鄰","STREET":"德南路","SECT":" ","MAREA":" ","LANE":"３９９巷","ALLEY":"２６弄","HOUSE_NO":"１０號","E_COORD97":173981.09608399999,"N_COORD97":2538233.5808600001,"ADDRESS":"德南路３９９巷２６弄１０號","OBJECTID":7735},"geometry":{"x":173981.09608400054,"y":2538233.5808580015}},{"attributes":{"ID":7736,"DIS_CODE":0,"TOWNNAME":"仁德區","LI":"上崙里","LIN":"6鄰","STREET":"德南路","SECT":" ","MAREA":" ","LANE":"３９９巷","ALLEY":"２６弄","HOUSE_NO":"１７號","E_COORD97":173997.41024,"N_COORD97":2538219.3991899998,"ADDRESS":"德南路３９９巷２６弄１７號","OBJECTID":7736},"geometry":{"x":173997.41024000105,"y":2538219.3991899993}},{"attributes":{"ID":7737,"DIS_CODE":0,"TOWNNAME":"新營區","LI":"護鎮里","LIN":"1鄰","STREET":"建國路","SECT":" ","MAREA":" ","LANE":"１６９巷","ALLEY":"２６弄","HOUSE_NO":"３２號","E_COORD97":179305.40109,"N_COORD97":2580792.0542000001,"ADDRESS":"建國路１６９巷２６弄３２號","OBJECTID":7737},"geometry":{"x":179305.40108999982,"y":2580792.0542010013}},{"attributes":{"ID":7738,"DIS_CODE":0,"TOWNNAME":"安南區","LI":"東和里","LIN":"1鄰","STREET":"長和路","SECT":"一段","MAREA":" ","LANE":"８４５巷","ALLEY":"２４弄","HOUSE_NO":"１４號","E_COORD97":170769.07792099999,"N_COORD97":2551403.3082499998,"ADDRESS":"長和路一段８４５巷２４弄１４號","OBJECTID":7738},"geometry":{"x":170769.07792100031,"y":2551403.308247}},{"attributes":{"ID":7739,"DIS_CODE":0,"TOWNNAME":"安南區","LI":"佃西里","LIN":"6鄰","STREET":"公學路","SECT":"四段","MAREA":" ","LANE":"１２６巷","ALLEY":"１４１弄","HOUSE_NO":"９號","E_COORD97":165278.313841,"N_COORD97":2551830.7205400001,"ADDRESS":"公學路四段１２６巷１４１弄９號","OBJECTID":7739},"geometry":{"x":165278.3138410002,"y":2551830.7205420006}},{"attributes":{"ID":7740,"DIS_CODE":0,"TOWNNAME":"安南區","LI":"總頭里","LIN":"12鄰","STREET":"長溪路","SECT":"二段","MAREA":" ","LANE":"４８３巷","ALLEY":"４６弄","HOUSE_NO":"１３之２號","E_COORD97":168112.571604,"N_COORD97":2550456.4220099999,"ADDRESS":"長溪路二段４８３巷４６弄１３之２號","OBJECTID":7740},"geometry":{"x":168112.5716040004,"y":2550456.4220060017}},{"attributes":{"ID":7741,"DIS_CODE":0,"TOWNNAME":"南區","LI":"大恩里","LIN":"23鄰","STREET":"大同路","SECT":"二段","MAREA":" ","LANE":"７５０巷","ALLEY":"２８弄","HOUSE_NO":"１６號","E_COORD97":169558.20006199999,"N_COORD97":2540724.98979,"ADDRESS":"大同路二段７５０巷２８弄１６號","OBJECTID":7741},"geometry":{"x":169558.20006200112,"y":2540724.9897930007}},{"attributes":{"ID":7742,"DIS_CODE":0,"TOWNNAME":"安平區","LI":"平安里","LIN":"6鄰","STREET":"安平路","SECT":" ","MAREA":" ","LANE":"３７０巷","ALLEY":"１弄","HOUSE_NO":"１０號一樓","E_COORD97":165442.781812,"N_COORD97":2544353.7145199999,"ADDRESS":"安平路３７０巷１弄１０號一樓","OBJECTID":7742},"geometry":{"x":165442.78181200195,"y":2544353.7145170029}},{"attributes":{"ID":7743,"DIS_CODE":0,"TOWNNAME":"南區","LI":"興農里","LIN":"13鄰","STREET":"明興路","SECT":" ","MAREA":" ","LANE":"１０５５巷","ALLEY":"１８弄","HOUSE_NO":"３號","E_COORD97":166387.57999999999,"N_COORD97":2536822.4199999999,"ADDRESS":"明興路１０５５巷１８弄３號","OBJECTID":7743},"geometry":{"x":166387.58000000101,"y":2536822.4199999999}},{"attributes":{"ID":7744,"DIS_CODE":0,"TOWNNAME":"北區","LI":"文成里","LIN":"13鄰","STREET":"文賢路","SECT":" ","MAREA":" ","LANE":"２９２巷","ALLEY":"１１９弄","HOUSE_NO":"１號","E_COORD97":167665.79000000001,"N_COORD97":2545260.2599999998,"ADDRESS":"文賢路２９２巷１１９弄１號","OBJECTID":7744},"geometry":{"x":167665.79000000097,"y":2545260.2600000016}},{"attributes":{"ID":7745,"DIS_CODE":0,"TOWNNAME":"北區","LI":"文成里","LIN":"13鄰","STREET":"文賢路","SECT":" ","MAREA":" ","LANE":"２９２巷","ALLEY":"１１９弄","HOUSE_NO":"３號","E_COORD97":167665.57000000001,"N_COORD97":2545265.8900000001,"ADDRESS":"文賢路２９２巷１１９弄３號","OBJECTID":7745},"geometry":{"x":167665.57000000216,"y":2545265.8900000006}},{"attributes":{"ID":7746,"DIS_CODE":0,"TOWNNAME":"北區","LI":"文成里","LIN":"13鄰","STREET":"文賢路","SECT":" ","MAREA":" ","LANE":"２９２巷","ALLEY":"１１９弄","HOUSE_NO":"５號","E_COORD97":167666.64999999999,"N_COORD97":2545270.4300000002,"ADDRESS":"文賢路２９２巷１１９弄５號","OBJECTID":7746},"geometry":{"x":167666.65000000037,"y":2545270.4299999997}},{"attributes":{"ID":7747,"DIS_CODE":0,"TOWNNAME":"北區","LI":"文成里","LIN":"13鄰","STREET":"文賢路","SECT":" ","MAREA":" ","LANE":"２９２巷","ALLEY":"１１９弄","HOUSE_NO":"７號","E_COORD97":167666.87,"N_COORD97":2545274.7599999998,"ADDRESS":"文賢路２９２巷１１９弄７號","OBJECTID":7747},"geometry":{"x":167666.87000000197,"y":2545274.7600000016}},{"attributes":{"ID":7748,"DIS_CODE":0,"TOWNNAME":"北區","LI":"文成里","LIN":"13鄰","STREET":"文賢路","SECT":" ","MAREA":" ","LANE":"２９２巷","ALLEY":"１４１弄","HOUSE_NO":"１０號","E_COORD97":167722.35999999999,"N_COORD97":2545268.9199999999,"ADDRESS":"文賢路２９２巷１４１弄１０號","OBJECTID":7748},"geometry":{"x":167722.36000000034,"y":2545268.9200000037}},{"attributes":{"ID":7749,"DIS_CODE":0,"TOWNNAME":"北區","LI":"文成里","LIN":"13鄰","STREET":"文賢路","SECT":" ","MAREA":" ","LANE":"２９２巷","ALLEY":"１４１弄","HOUSE_NO":"１號","E_COORD97":167704.37,"N_COORD97":2545260.2599999998,"ADDRESS":"文賢路２９２巷１４１弄１號","OBJECTID":7749},"geometry":{"x":167704.37000000104,"y":2545260.2600000016}},{"attributes":{"ID":7750,"DIS_CODE":0,"TOWNNAME":"北區","LI":"文成里","LIN":"13鄰","STREET":"文賢路","SECT":" ","MAREA":" ","LANE":"２９２巷","ALLEY":"１４１弄","HOUSE_NO":"３號","E_COORD97":167704.14999999999,"N_COORD97":2545265.4500000002,"ADDRESS":"文賢路２９２巷１４１弄３號","OBJECTID":7750},"geometry":{"x":167704.15000000224,"y":2545265.4500000011}},{"attributes":{"ID":7751,"DIS_CODE":0,"TOWNNAME":"北區","LI":"文成里","LIN":"13鄰","STREET":"文賢路","SECT":" ","MAREA":" ","LANE":"２９２巷","ALLEY":"１４１弄","HOUSE_NO":"５號","E_COORD97":167704.14999999999,"N_COORD97":2545270.2200000002,"ADDRESS":"文賢路２９２巷１４１弄５號","OBJECTID":7751},"geometry":{"x":167704.15000000224,"y":2545270.2200000007}},{"attributes":{"ID":7752,"DIS_CODE":0,"TOWNNAME":"北區","LI":"文成里","LIN":"13鄰","STREET":"文賢路","SECT":" ","MAREA":" ","LANE":"２９２巷","ALLEY":"１４１弄","HOUSE_NO":"７號","E_COORD97":167704.14999999999,"N_COORD97":2545274.54,"ADDRESS":"文賢路２９２巷１４１弄７號","OBJECTID":7752},"geometry":{"x":167704.15000000224,"y":2545274.540000001}},{"attributes":{"ID":7753,"DIS_CODE":0,"TOWNNAME":"北區","LI":"中樓里","LIN":"13鄰","STREET":"開元路","SECT":" ","MAREA":" ","LANE":"６８巷","ALLEY":"３弄","HOUSE_NO":"１１號","E_COORD97":169788.06,"N_COORD97":2545114.96,"ADDRESS":"開元路６８巷３弄１１號","OBJECTID":7753},"geometry":{"x":169788.06000000052,"y":2545114.9600000028}},{"attributes":{"ID":7754,"DIS_CODE":0,"TOWNNAME":"北區","LI":"中樓里","LIN":"13鄰","STREET":"開元路","SECT":" ","MAREA":" ","LANE":"６８巷","ALLEY":"３弄","HOUSE_NO":"１３號","E_COORD97":169792.23000000001,"N_COORD97":2545116.5800000001,"ADDRESS":"開元路６８巷３弄１３號","OBJECTID":7754},"geometry":{"x":169792.23000000231,"y":2545116.5800000019}},{"attributes":{"ID":7755,"DIS_CODE":0,"TOWNNAME":"北區","LI":"中樓里","LIN":"13鄰","STREET":"開元路","SECT":" ","MAREA":" ","LANE":"６８巷","ALLEY":"３弄","HOUSE_NO":"１５號","E_COORD97":169795.85999999999,"N_COORD97":2545117.8900000001,"ADDRESS":"開元路６８巷３弄１５號","OBJECTID":7755},"geometry":{"x":169795.86000000034,"y":2545117.8900000025}},{"attributes":{"ID":7756,"DIS_CODE":0,"TOWNNAME":"北區","LI":"中樓里","LIN":"13鄰","STREET":"開元路","SECT":" ","MAREA":" ","LANE":"６８巷","ALLEY":"３弄","HOUSE_NO":"１７號","E_COORD97":169799.87,"N_COORD97":2545119.2000000002,"ADDRESS":"開元路６８巷３弄１７號","OBJECTID":7756},"geometry":{"x":169799.87000000104,"y":2545119.1999999993}},{"attributes":{"ID":7757,"DIS_CODE":0,"TOWNNAME":"北區","LI":"中樓里","LIN":"13鄰","STREET":"開元路","SECT":" ","MAREA":" ","LANE":"６８巷","ALLEY":"３弄","HOUSE_NO":"１號","E_COORD97":169769.47,"N_COORD97":2545107.6400000001,"ADDRESS":"開元路６８巷３弄１號","OBJECTID":7757},"geometry":{"x":169769.4700000016,"y":2545107.6400000006}},{"attributes":{"ID":7758,"DIS_CODE":0,"TOWNNAME":"安平區","LI":"平安里","LIN":"9鄰","STREET":"安平路","SECT":" ","MAREA":" ","LANE":"４２６巷","ALLEY":" ","HOUSE_NO":"２２號之２","E_COORD97":165369.794395,"N_COORD97":2544380.2933800002,"ADDRESS":"安平路４２６巷２２號之２","OBJECTID":7758},"geometry":{"x":165369.79439499881,"y":2544380.2933780011}},{"attributes":{"ID":7759,"DIS_CODE":0,"TOWNNAME":"歸仁區","LI":"媽廟里","LIN":"4鄰","STREET":"和順路","SECT":"一段","MAREA":" ","LANE":" ","ALLEY":" ","HOUSE_NO":"５之１號","E_COORD97":177526.47180299999,"N_COORD97":2543691.3123499998,"ADDRESS":"和順路一段５之１號","OBJECTID":7759},"geometry":{"x":177526.4718030002,"y":2543691.3123480007}},{"attributes":{"ID":7760,"DIS_CODE":0,"TOWNNAME":"仁德區","LI":"太子里","LIN":"9鄰","STREET":"長興一街","SECT":" ","MAREA":" ","LANE":" ","ALLEY":" ","HOUSE_NO":"７號","E_COORD97":174673.69360900001,"N_COORD97":2543708.2478100001,"ADDRESS":"長興一街７號","OBJECTID":7760},"geometry":{"x":174673.69360900018,"y":2543708.2478090022}},{"attributes":{"ID":7761,"DIS_CODE":0,"TOWNNAME":"永康區","LI":"崑山里","LIN":"13鄰","STREET":"大灣路","SECT":" ","MAREA":" ","LANE":" ","ALLEY":" ","HOUSE_NO":"９８０號","E_COORD97":173523.66,"N_COORD97":2544406,"ADDRESS":"大灣路９８０號","OBJECTID":7761},"geometry":{"x":173523.66000000108,"y":2544406}},{"attributes":{"ID":7762,"DIS_CODE":0,"TOWNNAME":"北區","LI":"成德里","LIN":"13鄰","STREET":"立賢路","SECT":"一段","MAREA":" ","LANE":"６５０巷","ALLEY":"１６弄","HOUSE_NO":"２號","E_COORD97":168302.72,"N_COORD97":2545610.0099999998,"ADDRESS":"立賢路一段６５０巷１６弄２號","OBJECTID":7762},"geometry":{"x":168302.71999999974,"y":2545610.0099999998}},{"attributes":{"ID":7763,"DIS_CODE":0,"TOWNNAME":"左鎮區","LI":"榮和里","LIN":"13鄰","STREET":" ","SECT":" ","MAREA":"菜寮","LANE":" ","ALLEY":" ","HOUSE_NO":"６１之１９號","E_COORD97":187494.71479,"N_COORD97":2551498.7663699999,"ADDRESS":"菜寮６１之１９號","OBJECTID":7763},"geometry":{"x":187494.71478999965,"y":2551498.766370004}},{"attributes":{"ID":7764,"DIS_CODE":0,"TOWNNAME":"北區","LI":"成德里","LIN":"13鄰","STREET":"立賢路","SECT":"一段","MAREA":" ","LANE":"６５０巷","ALLEY":"１６弄","HOUSE_NO":"６號","E_COORD97":168306.53,"N_COORD97":2545610.0099999998,"ADDRESS":"立賢路一段６５０巷１６弄６號","OBJECTID":7764},"geometry":{"x":168306.52999999933,"y":2545610.0099999998}},{"attributes":{"ID":7765,"DIS_CODE":0,"TOWNNAME":"北區","LI":"成德里","LIN":"13鄰","STREET":"立賢路","SECT":"一段","MAREA":" ","LANE":"６５０巷","ALLEY":"１６弄","HOUSE_NO":"８號","E_COORD97":168310.48999999999,"N_COORD97":2545610.1699999999,"ADDRESS":"立賢路一段６５０巷１６弄８號","OBJECTID":7765},"geometry":{"x":168310.49000000115,"y":2545610.1700000018}},{"attributes":{"ID":7766,"DIS_CODE":0,"TOWNNAME":"將軍區","LI":"平沙里","LIN":"6鄰","STREET":" ","SECT":" ","MAREA":"平沙","LANE":" ","ALLEY":" ","HOUSE_NO":"５３號","E_COORD97":157284.95499500001,"N_COORD97":2568545.0613299999,"ADDRESS":"平沙５３號","OBJECTID":7766},"geometry":{"x":157284.95499500073,"y":2568545.0613289997}},{"attributes":{"ID":7767,"DIS_CODE":0,"TOWNNAME":"北區","LI":"成德里","LIN":"13鄰","STREET":"立賢路","SECT":"一段","MAREA":" ","LANE":"６５０巷","ALLEY":"１６弄","HOUSE_NO":"１０號","E_COORD97":168314.62,"N_COORD97":2545610.1699999999,"ADDRESS":"立賢路一段６５０巷１６弄１０號","OBJECTID":7767},"geometry":{"x":168314.62000000104,"y":2545610.1700000018}},{"attributes":{"ID":7768,"DIS_CODE":0,"TOWNNAME":"大內區","LI":"石城里","LIN":"13鄰","STREET":" ","SECT":" ","MAREA":"石子瀨","LANE":" ","ALLEY":" ","HOUSE_NO":"１１２號","E_COORD97":184053.39570299999,"N_COORD97":2557965.36999,"ADDRESS":"石子瀨１１２號","OBJECTID":7768},"geometry":{"x":184053.39570300095,"y":2557965.3699880019}},{"attributes":{"ID":7769,"DIS_CODE":0,"TOWNNAME":"龍崎區","LI":"龍船里","LIN":"4鄰","STREET":" ","SECT":" ","MAREA":"五間","LANE":" ","ALLEY":" ","HOUSE_NO":"１號","E_COORD97":190906.51999999999,"N_COORD97":2538278.25,"ADDRESS":"五間１號","OBJECTID":7769},"geometry":{"x":190906.52000000048,"y":2538278.25}},{"attributes":{"ID":7770,"DIS_CODE":0,"TOWNNAME":"龍崎區","LI":"石\u25A0里","LIN":"4鄰","STREET":" ","SECT":" ","MAREA":"刺子崙","LANE":" ","ALLEY":" ","HOUSE_NO":"１８號","E_COORD97":189314.39000000001,"N_COORD97":2539159.25,"ADDRESS":"刺子崙１８號","OBJECTID":7770},"geometry":{"x":189314.3900000006,"y":2539159.25}},{"attributes":{"ID":7771,"DIS_CODE":0,"TOWNNAME":"佳里區","LI":"通興里","LIN":"1鄰","STREET":" ","SECT":" ","MAREA":"港墘","LANE":" ","ALLEY":" ","HOUSE_NO":"１１號","E_COORD97":163891.85000000001,"N_COORD97":2559716.77,"ADDRESS":"港墘１１號","OBJECTID":7771},"geometry":{"x":163891.85000000056,"y":2559716.7700000014}},{"attributes":{"ID":7772,"DIS_CODE":0,"TOWNNAME":"學甲區","LI":"新達里","LIN":"16鄰","STREET":" ","SECT":" ","MAREA":"山寮","LANE":" ","ALLEY":" ","HOUSE_NO":"２號之２","E_COORD97":167891.16,"N_COORD97":2571047.3900000001,"ADDRESS":"山寮２號之２","OBJECTID":7772},"geometry":{"x":167891.16000000015,"y":2571047.3900000025}},{"attributes":{"ID":7773,"DIS_CODE":0,"TOWNNAME":"玉井區","LI":"沙田里","LIN":"1鄰","STREET":" ","SECT":" ","MAREA":"沙田","LANE":" ","ALLEY":" ","HOUSE_NO":"８號","E_COORD97":195710.82000000001,"N_COORD97":2556750.2799999998,"ADDRESS":"沙田８號","OBJECTID":7773},"geometry":{"x":195710.82000000216,"y":2556750.2800000012}},{"attributes":{"ID":7774,"DIS_CODE":0,"TOWNNAME":"楠西區","LI":"灣丘里","LIN":"13鄰","STREET":" ","SECT":" ","MAREA":"鳳興","LANE":" ","ALLEY":" ","HOUSE_NO":"３號","E_COORD97":198569.82000000001,"N_COORD97":2562738.25,"ADDRESS":"鳳興３號","OBJECTID":7774},"geometry":{"x":198569.8200000003,"y":2562738.2500000019}},{"attributes":{"ID":7775,"DIS_CODE":0,"TOWNNAME":"歸仁區","LI":"媽廟里","LIN":"9鄰","STREET":"和順路","SECT":"一段","MAREA":" ","LANE":" ","ALLEY":" ","HOUSE_NO":"２０２號","E_COORD97":176897.74690200001,"N_COORD97":2543717.6976899998,"ADDRESS":"和順路一段２０２號","OBJECTID":7775},"geometry":{"x":176897.74690200109,"y":2543717.6976910029}},{"attributes":{"ID":7776,"DIS_CODE":0,"TOWNNAME":"楠西區","LI":"龜丹里","LIN":"1鄰","STREET":" ","SECT":" ","MAREA":"龜丹","LANE":" ","ALLEY":" ","HOUSE_NO":"２號","E_COORD97":197628.59,"N_COORD97":2559671.25,"ADDRESS":"龜丹２號","OBJECTID":7776},"geometry":{"x":197628.58999999985,"y":2559671.25}},{"attributes":{"ID":7777,"DIS_CODE":0,"TOWNNAME":"安南區","LI":"四草里","LIN":"4鄰","STREET":"大眾路","SECT":" ","MAREA":" ","LANE":" ","ALLEY":" ","HOUSE_NO":"６３３號","E_COORD97":160687.9129,"N_COORD97":2546418.6153000002,"ADDRESS":"大眾路６３３號","OBJECTID":7777},"geometry":{"x":160687.91290000081,"y":2546418.6153040025}},{"attributes":{"ID":7778,"DIS_CODE":0,"TOWNNAME":"佳里區","LI":"鎮山里","LIN":"13鄰","STREET":"勝利路","SECT":" ","MAREA":" ","LANE":" ","ALLEY":" ","HOUSE_NO":"１號","E_COORD97":165883.25,"N_COORD97":2561428.3799999999,"ADDRESS":"勝利路１號","OBJECTID":7778},"geometry":{"x":165883.25000000093,"y":2561428.3800000008}},{"attributes":{"ID":7779,"DIS_CODE":0,"TOWNNAME":"新營區","LI":"嘉芳里","LIN":"14鄰","STREET":"新嘉街","SECT":" ","MAREA":" ","LANE":" ","ALLEY":" ","HOUSE_NO":"６號","E_COORD97":176291.07000000001,"N_COORD97":2578640.54,"ADDRESS":"新嘉街６號","OBJECTID":7779},"geometry":{"x":176291.07000000123,"y":2578640.5399999991}},{"attributes":{"ID":7780,"DIS_CODE":0,"TOWNNAME":"歸仁區","LI":"八甲里","LIN":"18鄰","STREET":"大仁十街","SECT":" ","MAREA":" ","LANE":" ","ALLEY":" ","HOUSE_NO":"２５號","E_COORD97":178001.39000000001,"N_COORD97":2541481.25,"ADDRESS":"大仁十街２５號","OBJECTID":7780},"geometry":{"x":178001.38999999966,"y":2541481.2500000019}},{"attributes":{"ID":7781,"DIS_CODE":0,"TOWNNAME":"楠西區","LI":"東勢里","LIN":"20鄰","STREET":"忠孝路","SECT":" ","MAREA":" ","LANE":" ","ALLEY":" ","HOUSE_NO":"５９號","E_COORD97":197599.19,"N_COORD97":2564133.25,"ADDRESS":"忠孝路５９號","OBJECTID":7781},"geometry":{"x":197599.19000000134,"y":2564133.25}},{"attributes":{"ID":7782,"DIS_CODE":0,"TOWNNAME":"永康區","LI":"西灣里","LIN":"24鄰","STREET":"國光八街","SECT":" ","MAREA":" ","LANE":" ","ALLEY":" ","HOUSE_NO":"３號六樓","E_COORD97":174432.13,"N_COORD97":2545742,"ADDRESS":"國光八街３號六樓","OBJECTID":7782},"geometry":{"x":174432.13000000082,"y":2545742}},{"attributes":{"ID":7783,"DIS_CODE":0,"TOWNNAME":"南區","LI":"彰南里","LIN":"19鄰","STREET":"新樂路","SECT":" ","MAREA":" ","LANE":" ","ALLEY":" ","HOUSE_NO":"２８號","E_COORD97":165622.07000000001,"N_COORD97":2541840.6400000001,"ADDRESS":"新樂路２８號","OBJECTID":7783},"geometry":{"x":165622.0700000003,"y":2541840.6400000043}},{"attributes":{"ID":7784,"DIS_CODE":0,"TOWNNAME":"玉井區","LI":"玉田里","LIN":"15鄰","STREET":"中正路","SECT":" ","MAREA":" ","LANE":" ","ALLEY":" ","HOUSE_NO":"７號","E_COORD97":194585.35000000001,"N_COORD97":2557939.25,"ADDRESS":"中正路７號","OBJECTID":7784},"geometry":{"x":194585.34999999963,"y":2557939.25}},{"attributes":{"ID":7785,"DIS_CODE":0,"TOWNNAME":"六甲區","LI":"二甲里","LIN":"15鄰","STREET":"光明街","SECT":" ","MAREA":" ","LANE":" ","ALLEY":" ","HOUSE_NO":"７號","E_COORD97":183145.54999999999,"N_COORD97":2569752.5800000001,"ADDRESS":"光明街７號","OBJECTID":7785},"geometry":{"x":183145.54999999981,"y":2569752.5800000001}},{"attributes":{"ID":7786,"DIS_CODE":0,"TOWNNAME":"新營區","LI":"大宏里","LIN":"24鄰","STREET":"民治路","SECT":" ","MAREA":" ","LANE":" ","ALLEY":" ","HOUSE_NO":"３號之８","E_COORD97":180550.64000000001,"N_COORD97":2578879.1600000001,"ADDRESS":"民治路３號之８","OBJECTID":7786},"geometry":{"x":180550.63999999966,"y":2578879.1600000001}},{"attributes":{"ID":7787,"DIS_CODE":0,"TOWNNAME":"北區","LI":"成德里","LIN":"13鄰","STREET":"立賢路","SECT":"一段","MAREA":" ","LANE":"６５０巷","ALLEY":"１６弄","HOUSE_NO":"１２號","E_COORD97":168319.23000000001,"N_COORD97":2545610.1699999999,"ADDRESS":"立賢路一段６５０巷１６弄１２號","OBJECTID":7787},"geometry":{"x":168319.23000000138,"y":2545610.1700000018}},{"attributes":{"ID":7788,"DIS_CODE":0,"TOWNNAME":"安南區","LI":"淵中里","LIN":"3鄰","STREET":"本淵路","SECT":" ","MAREA":" ","LANE":"５７巷","ALLEY":"４８弄","HOUSE_NO":"３８號","E_COORD97":165116.42618099999,"N_COORD97":2549905.4671,"ADDRESS":"本淵路５７巷４８弄３８號","OBJECTID":7788},"geometry":{"x":165116.42618099973,"y":2549905.4671039991}},{"attributes":{"ID":7789,"DIS_CODE":0,"TOWNNAME":"北區","LI":"成德里","LIN":"13鄰","STREET":"立賢路","SECT":"一段","MAREA":" ","LANE":"６５０巷","ALLEY":"１６弄","HOUSE_NO":"１６號","E_COORD97":168323.82999999999,"N_COORD97":2545610.3300000001,"ADDRESS":"立賢路一段６５０巷１６弄１６號","OBJECTID":7789},"geometry":{"x":168323.83000000101,"y":2545610.3300000019}},{"attributes":{"ID":7790,"DIS_CODE":0,"TOWNNAME":"北區","LI":"成德里","LIN":"13鄰","STREET":"立賢路","SECT":"一段","MAREA":" ","LANE":"６５０巷","ALLEY":"１６弄","HOUSE_NO":"１號","E_COORD97":168303.51000000001,"N_COORD97":2545623.98,"ADDRESS":"立賢路一段６５０巷１６弄１號","OBJECTID":7790},"geometry":{"x":168303.51000000071,"y":2545623.9800000004}},{"attributes":{"ID":7791,"DIS_CODE":0,"TOWNNAME":"佳里區","LI":"營頂里","LIN":"8鄰","STREET":" ","SECT":" ","MAREA":"營頂","LANE":" ","ALLEY":" ","HOUSE_NO":"９０號","E_COORD97":167065.89335699999,"N_COORD97":2566578.9773400002,"ADDRESS":"營頂９０號","OBJECTID":7791},"geometry":{"x":167065.89335700125,"y":2566578.977341}},{"attributes":{"ID":7792,"DIS_CODE":0,"TOWNNAME":"新市區","LI":"三舍里","LIN":"3鄰","STREET":" ","SECT":" ","MAREA":"三舍","LANE":" ","ALLEY":" ","HOUSE_NO":"７４號","E_COORD97":177926.09701600001,"N_COORD97":2554492.4958299999,"ADDRESS":"三舍７４號","OBJECTID":7792},"geometry":{"x":177926.09701600112,"y":2554492.4958260003}},{"attributes":{"ID":7793,"DIS_CODE":0,"TOWNNAME":"歸仁區","LI":"看東里","LIN":"8鄰","STREET":"成功一街","SECT":" ","MAREA":" ","LANE":" ","ALLEY":" ","HOUSE_NO":"１１９號","E_COORD97":178516.400413,"N_COORD97":2539992.7710699998,"ADDRESS":"成功一街１１９號","OBJECTID":7793},"geometry":{"x":178516.40041300096,"y":2539992.7710650023}},{"attributes":{"ID":7794,"DIS_CODE":0,"TOWNNAME":"仁德區","LI":"中生里","LIN":"1鄰","STREET":" ","SECT":" ","MAREA":"中洲","LANE":" ","ALLEY":" ","HOUSE_NO":"７６之７０號","E_COORD97":172266.97616399999,"N_COORD97":2535402.7416599998,"ADDRESS":"中洲７６之７０號","OBJECTID":7794},"geometry":{"x":172266.97616400197,"y":2535402.7416580003}},{"attributes":{"ID":7795,"DIS_CODE":0,"TOWNNAME":"七股區","LI":"樹林里","LIN":"3鄰","STREET":" ","SECT":" ","MAREA":"樹林","LANE":" ","ALLEY":" ","HOUSE_NO":"２０號","E_COORD97":163919.605793,"N_COORD97":2557182.6238199999,"ADDRESS":"樹林２０號","OBJECTID":7795},"geometry":{"x":163919.60579300113,"y":2557182.6238209996}},{"attributes":{"ID":7796,"DIS_CODE":0,"TOWNNAME":"柳營區","LI":"光福里","LIN":"9鄰","STREET":"福安一街","SECT":" ","MAREA":" ","LANE":" ","ALLEY":" ","HOUSE_NO":"８號","E_COORD97":179781.72,"N_COORD97":2575157.2200000002,"ADDRESS":"福安一街８號","OBJECTID":7796},"geometry":{"x":179781.72000000067,"y":2575157.2200000044}},{"attributes":{"ID":7797,"DIS_CODE":0,"TOWNNAME":"下營區","LI":"大屯里","LIN":"2鄰","STREET":" ","SECT":" ","MAREA":"大屯寮","LANE":" ","ALLEY":" ","HOUSE_NO":"１５號之１","E_COORD97":172098.03607,"N_COORD97":2570508.4393500001,"ADDRESS":"大屯寮１５號之１","OBJECTID":7797},"geometry":{"x":172098.03606999945,"y":2570508.4393499997}},{"attributes":{"ID":7798,"DIS_CODE":0,"TOWNNAME":"仁德區","LI":"中生里","LIN":"15鄰","STREET":" ","SECT":" ","MAREA":"中洲","LANE":" ","ALLEY":" ","HOUSE_NO":"２４７號","E_COORD97":173190.69005999999,"N_COORD97":2533955.7022299999,"ADDRESS":"中洲２４７號","OBJECTID":7798},"geometry":{"x":173190.69006000087,"y":2533955.7022290025}},{"attributes":{"ID":7799,"DIS_CODE":0,"TOWNNAME":"白河區","LI":"仙草里","LIN":"7鄰","STREET":" ","SECT":" ","MAREA":"仙草","LANE":" ","ALLEY":" ","HOUSE_NO":"７９號","E_COORD97":196855.31570899999,"N_COORD97":2582084.3431299999,"ADDRESS":"仙草７９號","OBJECTID":7799},"geometry":{"x":196855.31570900138,"y":2582084.3431280032}},{"attributes":{"ID":7800,"DIS_CODE":0,"TOWNNAME":"南化區","LI":"中坑里","LIN":"4鄰","STREET":" ","SECT":" ","MAREA":"中坑","LANE":" ","ALLEY":" ","HOUSE_NO":"３３號","E_COORD97":193769.41467599999,"N_COORD97":2549364.5309700002,"ADDRESS":"中坑３３號","OBJECTID":7800},"geometry":{"x":193769.41467600036,"y":2549364.5309670009}}]}