{"displayFieldName":"TOWNNAME","fieldAliases":{"ID":"ID","DIS_CODE":"DIS_CODE","TOWNNAME":"TOWNNAME","LI":"LI","LIN":"LIN","STREET":"STREET","SECT":"SECT","MAREA":"MAREA","LANE":"LANE","ALLEY":"ALLEY","HOUSE_NO":"HOUSE_NO","E_COORD97":"E_COORD97","N_COORD97":"N_COORD97","ADDRESS":"ADDRESS","OBJECTID":"OBJECTID"},"geometryType":"esriGeometryPoint","spatialReference":{"wkid":102443,"latestWkid":3826},"fields":[{"name":"ID","type":"esriFieldTypeDouble","alias":"ID"},{"name":"DIS_CODE","type":"esriFieldTypeInteger","alias":"DIS_CODE"},{"name":"TOWNNAME","type":"esriFieldTypeString","alias":"TOWNNAME","length":8},{"name":"LI","type":"esriFieldTypeString","alias":"LI","length":8},{"name":"LIN","type":"esriFieldTypeString","alias":"LIN","length":12},{"name":"STREET","type":"esriFieldTypeString","alias":"STREET","length":20},{"name":"SECT","type":"esriFieldTypeString","alias":"SECT","length":8},{"name":"MAREA","type":"esriFieldTypeString","alias":"MAREA","length":12},{"name":"LANE","type":"esriFieldTypeString","alias":"LANE","length":10},{"name":"ALLEY","type":"esriFieldTypeString","alias":"ALLEY","length":10},{"name":"HOUSE_NO","type":"esriFieldTypeString","alias":"HOUSE_NO","length":20},{"name":"E_COORD97","type":"esriFieldTypeDouble","alias":"E_COORD97"},{"name":"N_COORD97","type":"esriFieldTypeDouble","alias":"N_COORD97"},{"name":"ADDRESS","type":"esriFieldTypeString","alias":"ADDRESS","length":50},{"name":"OBJECTID","type":"esriFieldTypeOID","alias":"OBJECTID"}],"features":[{"attributes":{"ID":467426,"DIS_CODE":0,"TOWNNAME":"北區","LI":"成德里","LIN":"5鄰","STREET":"育德路","SECT":" ","MAREA":" ","LANE":" ","ALLEY":" ","HOUSE_NO":"１２０號二樓","E_COORD97":168491.44,"N_COORD97":2545416.3700000001,"ADDRESS":"育德路１２０號二樓","OBJECTID":467401},"geometry":{"x":168491.44000000041,"y":2545416.3700000048}},{"attributes":{"ID":467427,"DIS_CODE":0,"TOWNNAME":"北區","LI":"成德里","LIN":"5鄰","STREET":"育德路","SECT":" ","MAREA":" ","LANE":" ","ALLEY":" ","HOUSE_NO":"１２０號三樓","E_COORD97":168491.44,"N_COORD97":2545416.3700000001,"ADDRESS":"育德路１２０號三樓","OBJECTID":467402},"geometry":{"x":168491.44000000041,"y":2545416.3700000048}},{"attributes":{"ID":467428,"DIS_CODE":0,"TOWNNAME":"北區","LI":"成德里","LIN":"5鄰","STREET":"育德路","SECT":" ","MAREA":" ","LANE":" ","ALLEY":" ","HOUSE_NO":"１２０號四樓","E_COORD97":168491.44,"N_COORD97":2545416.3700000001,"ADDRESS":"育德路１２０號四樓","OBJECTID":467403},"geometry":{"x":168491.44000000041,"y":2545416.3700000048}},{"attributes":{"ID":467429,"DIS_CODE":0,"TOWNNAME":"安平區","LI":"平安里","LIN":"5鄰","STREET":"安平路","SECT":" ","MAREA":" ","LANE":" ","ALLEY":" ","HOUSE_NO":"３０４號四樓之１","E_COORD97":165723.59,"N_COORD97":2544371.6400000001,"ADDRESS":"安平路３０４號四樓之１","OBJECTID":467404},"geometry":{"x":165723.58999999985,"y":2544371.6400000006}},{"attributes":{"ID":467430,"DIS_CODE":0,"TOWNNAME":"安平區","LI":"平安里","LIN":"5鄰","STREET":"安平路","SECT":" ","MAREA":" ","LANE":" ","ALLEY":" ","HOUSE_NO":"３０４號四樓之１０","E_COORD97":165723.59,"N_COORD97":2544371.6400000001,"ADDRESS":"安平路３０４號四樓之１０","OBJECTID":467405},"geometry":{"x":165723.58999999985,"y":2544371.6400000006}},{"attributes":{"ID":467431,"DIS_CODE":0,"TOWNNAME":"安平區","LI":"平安里","LIN":"5鄰","STREET":"安平路","SECT":" ","MAREA":" ","LANE":" ","ALLEY":" ","HOUSE_NO":"３０４號四樓之１１","E_COORD97":165723.59,"N_COORD97":2544371.6400000001,"ADDRESS":"安平路３０４號四樓之１１","OBJECTID":467406},"geometry":{"x":165723.58999999985,"y":2544371.6400000006}},{"attributes":{"ID":467432,"DIS_CODE":0,"TOWNNAME":"安平區","LI":"平安里","LIN":"5鄰","STREET":"安平路","SECT":" ","MAREA":" ","LANE":" ","ALLEY":" ","HOUSE_NO":"３０４號四樓之１２","E_COORD97":165723.59,"N_COORD97":2544371.6400000001,"ADDRESS":"安平路３０４號四樓之１２","OBJECTID":467407},"geometry":{"x":165723.58999999985,"y":2544371.6400000006}},{"attributes":{"ID":467433,"DIS_CODE":0,"TOWNNAME":"安平區","LI":"平安里","LIN":"5鄰","STREET":"安平路","SECT":" ","MAREA":" ","LANE":" ","ALLEY":" ","HOUSE_NO":"３０４號四樓之１３","E_COORD97":165723.59,"N_COORD97":2544371.6400000001,"ADDRESS":"安平路３０４號四樓之１３","OBJECTID":467408},"geometry":{"x":165723.58999999985,"y":2544371.6400000006}},{"attributes":{"ID":467434,"DIS_CODE":0,"TOWNNAME":"安平區","LI":"平安里","LIN":"5鄰","STREET":"安平路","SECT":" ","MAREA":" ","LANE":" ","ALLEY":" ","HOUSE_NO":"３０４號四樓之１４","E_COORD97":165723.59,"N_COORD97":2544371.6400000001,"ADDRESS":"安平路３０４號四樓之１４","OBJECTID":467409},"geometry":{"x":165723.58999999985,"y":2544371.6400000006}},{"attributes":{"ID":467435,"DIS_CODE":0,"TOWNNAME":"安平區","LI":"平安里","LIN":"5鄰","STREET":"安平路","SECT":" ","MAREA":" ","LANE":" ","ALLEY":" ","HOUSE_NO":"３０４號四樓之１５","E_COORD97":165723.59,"N_COORD97":2544371.6400000001,"ADDRESS":"安平路３０４號四樓之１５","OBJECTID":467410},"geometry":{"x":165723.58999999985,"y":2544371.6400000006}},{"attributes":{"ID":467436,"DIS_CODE":0,"TOWNNAME":"安平區","LI":"平安里","LIN":"5鄰","STREET":"安平路","SECT":" ","MAREA":" ","LANE":" ","ALLEY":" ","HOUSE_NO":"３０４號四樓之２","E_COORD97":165723.59,"N_COORD97":2544371.6400000001,"ADDRESS":"安平路３０４號四樓之２","OBJECTID":467411},"geometry":{"x":165723.58999999985,"y":2544371.6400000006}},{"attributes":{"ID":467437,"DIS_CODE":0,"TOWNNAME":"安平區","LI":"平安里","LIN":"5鄰","STREET":"安平路","SECT":" ","MAREA":" ","LANE":" ","ALLEY":" ","HOUSE_NO":"３０４號四樓之３","E_COORD97":165723.59,"N_COORD97":2544371.6400000001,"ADDRESS":"安平路３０４號四樓之３","OBJECTID":467412},"geometry":{"x":165723.58999999985,"y":2544371.6400000006}},{"attributes":{"ID":467438,"DIS_CODE":0,"TOWNNAME":"安平區","LI":"平安里","LIN":"5鄰","STREET":"安平路","SECT":" ","MAREA":" ","LANE":" ","ALLEY":" ","HOUSE_NO":"３０４號四樓之３之１","E_COORD97":165723.59,"N_COORD97":2544371.6400000001,"ADDRESS":"安平路３０４號四樓之３之１","OBJECTID":467413},"geometry":{"x":165723.58999999985,"y":2544371.6400000006}},{"attributes":{"ID":467439,"DIS_CODE":0,"TOWNNAME":"安平區","LI":"平安里","LIN":"5鄰","STREET":"安平路","SECT":" ","MAREA":" ","LANE":" ","ALLEY":" ","HOUSE_NO":"３０４號四樓之５","E_COORD97":165723.59,"N_COORD97":2544371.6400000001,"ADDRESS":"安平路３０４號四樓之５","OBJECTID":467414},"geometry":{"x":165723.58999999985,"y":2544371.6400000006}},{"attributes":{"ID":467440,"DIS_CODE":0,"TOWNNAME":"安平區","LI":"平安里","LIN":"5鄰","STREET":"安平路","SECT":" ","MAREA":" ","LANE":" ","ALLEY":" ","HOUSE_NO":"３０４號四樓之６","E_COORD97":165723.59,"N_COORD97":2544371.6400000001,"ADDRESS":"安平路３０４號四樓之６","OBJECTID":467415},"geometry":{"x":165723.58999999985,"y":2544371.6400000006}},{"attributes":{"ID":467441,"DIS_CODE":0,"TOWNNAME":"安平區","LI":"平安里","LIN":"5鄰","STREET":"安平路","SECT":" ","MAREA":" ","LANE":" ","ALLEY":" ","HOUSE_NO":"３０４號四樓之７","E_COORD97":165723.59,"N_COORD97":2544371.6400000001,"ADDRESS":"安平路３０４號四樓之７","OBJECTID":467416},"geometry":{"x":165723.58999999985,"y":2544371.6400000006}},{"attributes":{"ID":467442,"DIS_CODE":0,"TOWNNAME":"安平區","LI":"平安里","LIN":"5鄰","STREET":"安平路","SECT":" ","MAREA":" ","LANE":" ","ALLEY":" ","HOUSE_NO":"３０４號四樓之８","E_COORD97":165723.59,"N_COORD97":2544371.6400000001,"ADDRESS":"安平路３０４號四樓之８","OBJECTID":467417},"geometry":{"x":165723.58999999985,"y":2544371.6400000006}},{"attributes":{"ID":467443,"DIS_CODE":0,"TOWNNAME":"安平區","LI":"平安里","LIN":"5鄰","STREET":"安平路","SECT":" ","MAREA":" ","LANE":" ","ALLEY":" ","HOUSE_NO":"３０４號四樓之９","E_COORD97":165723.59,"N_COORD97":2544371.6400000001,"ADDRESS":"安平路３０４號四樓之９","OBJECTID":467418},"geometry":{"x":165723.58999999985,"y":2544371.6400000006}},{"attributes":{"ID":467444,"DIS_CODE":0,"TOWNNAME":"麻豆區","LI":"油車里","LIN":"5鄰","STREET":"新興街","SECT":" ","MAREA":" ","LANE":" ","ALLEY":" ","HOUSE_NO":"１６號二樓之１","E_COORD97":172576.04999999999,"N_COORD97":2565294.5499999998,"ADDRESS":"新興街１６號二樓之１","OBJECTID":467419},"geometry":{"x":172576.04999999888,"y":2565294.5500000007}},{"attributes":{"ID":467445,"DIS_CODE":0,"TOWNNAME":"麻豆區","LI":"油車里","LIN":"5鄰","STREET":"新興街","SECT":" ","MAREA":" ","LANE":" ","ALLEY":" ","HOUSE_NO":"１６號二樓之１０","E_COORD97":172576.04999999999,"N_COORD97":2565294.5499999998,"ADDRESS":"新興街１６號二樓之１０","OBJECTID":467420},"geometry":{"x":172576.04999999888,"y":2565294.5500000007}},{"attributes":{"ID":467446,"DIS_CODE":0,"TOWNNAME":"麻豆區","LI":"油車里","LIN":"5鄰","STREET":"新興街","SECT":" ","MAREA":" ","LANE":" ","ALLEY":" ","HOUSE_NO":"１６號二樓之１１","E_COORD97":172576.04999999999,"N_COORD97":2565294.5499999998,"ADDRESS":"新興街１６號二樓之１１","OBJECTID":467421},"geometry":{"x":172576.04999999888,"y":2565294.5500000007}},{"attributes":{"ID":467447,"DIS_CODE":0,"TOWNNAME":"麻豆區","LI":"油車里","LIN":"5鄰","STREET":"新興街","SECT":" ","MAREA":" ","LANE":" ","ALLEY":" ","HOUSE_NO":"１６號二樓之１２","E_COORD97":172576.04999999999,"N_COORD97":2565294.5499999998,"ADDRESS":"新興街１６號二樓之１２","OBJECTID":467422},"geometry":{"x":172576.04999999888,"y":2565294.5500000007}},{"attributes":{"ID":467448,"DIS_CODE":0,"TOWNNAME":"麻豆區","LI":"油車里","LIN":"5鄰","STREET":"新興街","SECT":" ","MAREA":" ","LANE":" ","ALLEY":" ","HOUSE_NO":"１６號二樓之１３","E_COORD97":172576.04999999999,"N_COORD97":2565294.5499999998,"ADDRESS":"新興街１６號二樓之１３","OBJECTID":467423},"geometry":{"x":172576.04999999888,"y":2565294.5500000007}},{"attributes":{"ID":467449,"DIS_CODE":0,"TOWNNAME":"麻豆區","LI":"油車里","LIN":"5鄰","STREET":"新興街","SECT":" ","MAREA":" ","LANE":" ","ALLEY":" ","HOUSE_NO":"１６號二樓之１５","E_COORD97":172576.04999999999,"N_COORD97":2565294.5499999998,"ADDRESS":"新興街１６號二樓之１５","OBJECTID":467424},"geometry":{"x":172576.04999999888,"y":2565294.5500000007}},{"attributes":{"ID":467450,"DIS_CODE":0,"TOWNNAME":"麻豆區","LI":"油車里","LIN":"5鄰","STREET":"新興街","SECT":" ","MAREA":" ","LANE":" ","ALLEY":" ","HOUSE_NO":"１６號二樓之１６","E_COORD97":172576.04999999999,"N_COORD97":2565294.5499999998,"ADDRESS":"新興街１６號二樓之１６","OBJECTID":467425},"geometry":{"x":172576.04999999888,"y":2565294.5500000007}},{"attributes":{"ID":467451,"DIS_CODE":0,"TOWNNAME":"麻豆區","LI":"油車里","LIN":"5鄰","STREET":"新興街","SECT":" ","MAREA":" ","LANE":" ","ALLEY":" ","HOUSE_NO":"１６號二樓之１７","E_COORD97":172576.04999999999,"N_COORD97":2565294.5499999998,"ADDRESS":"新興街１６號二樓之１７","OBJECTID":467426},"geometry":{"x":172576.04999999888,"y":2565294.5500000007}},{"attributes":{"ID":467452,"DIS_CODE":0,"TOWNNAME":"麻豆區","LI":"油車里","LIN":"5鄰","STREET":"新興街","SECT":" ","MAREA":" ","LANE":" ","ALLEY":" ","HOUSE_NO":"１６號二樓之１８","E_COORD97":172576.04999999999,"N_COORD97":2565294.5499999998,"ADDRESS":"新興街１６號二樓之１８","OBJECTID":467427},"geometry":{"x":172576.04999999888,"y":2565294.5500000007}},{"attributes":{"ID":467453,"DIS_CODE":0,"TOWNNAME":"麻豆區","LI":"油車里","LIN":"5鄰","STREET":"新興街","SECT":" ","MAREA":" ","LANE":" ","ALLEY":" ","HOUSE_NO":"１６號二樓之１９","E_COORD97":172576.04999999999,"N_COORD97":2565294.5499999998,"ADDRESS":"新興街１６號二樓之１９","OBJECTID":467428},"geometry":{"x":172576.04999999888,"y":2565294.5500000007}},{"attributes":{"ID":467454,"DIS_CODE":0,"TOWNNAME":"麻豆區","LI":"油車里","LIN":"5鄰","STREET":"新興街","SECT":" ","MAREA":" ","LANE":" ","ALLEY":" ","HOUSE_NO":"１６號二樓之２","E_COORD97":172576.04999999999,"N_COORD97":2565294.5499999998,"ADDRESS":"新興街１６號二樓之２","OBJECTID":467429},"geometry":{"x":172576.04999999888,"y":2565294.5500000007}},{"attributes":{"ID":467455,"DIS_CODE":0,"TOWNNAME":"下營區","LI":"仁里里","LIN":"5鄰","STREET":"仁南街","SECT":" ","MAREA":" ","LANE":" ","ALLEY":" ","HOUSE_NO":"２７號","E_COORD97":174579.42999999999,"N_COORD97":2569669.46,"ADDRESS":"仁南街２７號","OBJECTID":467430},"geometry":{"x":174579.43000000063,"y":2569669.4600000009}},{"attributes":{"ID":467456,"DIS_CODE":0,"TOWNNAME":"麻豆區","LI":"油車里","LIN":"5鄰","STREET":"新興街","SECT":" ","MAREA":" ","LANE":" ","ALLEY":" ","HOUSE_NO":"１６號二樓之２０","E_COORD97":172576.04999999999,"N_COORD97":2565294.5499999998,"ADDRESS":"新興街１６號二樓之２０","OBJECTID":467431},"geometry":{"x":172576.04999999888,"y":2565294.5500000007}},{"attributes":{"ID":467457,"DIS_CODE":0,"TOWNNAME":"麻豆區","LI":"油車里","LIN":"5鄰","STREET":"新興街","SECT":" ","MAREA":" ","LANE":" ","ALLEY":" ","HOUSE_NO":"１６號二樓之２１","E_COORD97":172576.04999999999,"N_COORD97":2565294.5499999998,"ADDRESS":"新興街１６號二樓之２１","OBJECTID":467432},"geometry":{"x":172576.04999999888,"y":2565294.5500000007}},{"attributes":{"ID":467458,"DIS_CODE":0,"TOWNNAME":"麻豆區","LI":"油車里","LIN":"5鄰","STREET":"新興街","SECT":" ","MAREA":" ","LANE":" ","ALLEY":" ","HOUSE_NO":"１６號二樓之２２","E_COORD97":172576.04999999999,"N_COORD97":2565294.5499999998,"ADDRESS":"新興街１６號二樓之２２","OBJECTID":467433},"geometry":{"x":172576.04999999888,"y":2565294.5500000007}},{"attributes":{"ID":467459,"DIS_CODE":0,"TOWNNAME":"麻豆區","LI":"油車里","LIN":"5鄰","STREET":"新興街","SECT":" ","MAREA":" ","LANE":" ","ALLEY":" ","HOUSE_NO":"１６號二樓之２３","E_COORD97":172576.04999999999,"N_COORD97":2565294.5499999998,"ADDRESS":"新興街１６號二樓之２３","OBJECTID":467434},"geometry":{"x":172576.04999999888,"y":2565294.5500000007}},{"attributes":{"ID":467460,"DIS_CODE":0,"TOWNNAME":"麻豆區","LI":"油車里","LIN":"5鄰","STREET":"新興街","SECT":" ","MAREA":" ","LANE":" ","ALLEY":" ","HOUSE_NO":"１６號二樓之２５","E_COORD97":172576.04999999999,"N_COORD97":2565294.5499999998,"ADDRESS":"新興街１６號二樓之２５","OBJECTID":467435},"geometry":{"x":172576.04999999888,"y":2565294.5500000007}},{"attributes":{"ID":467461,"DIS_CODE":0,"TOWNNAME":"麻豆區","LI":"油車里","LIN":"5鄰","STREET":"新興街","SECT":" ","MAREA":" ","LANE":" ","ALLEY":" ","HOUSE_NO":"１６號二樓之３","E_COORD97":172576.04999999999,"N_COORD97":2565294.5499999998,"ADDRESS":"新興街１６號二樓之３","OBJECTID":467436},"geometry":{"x":172576.04999999888,"y":2565294.5500000007}},{"attributes":{"ID":467462,"DIS_CODE":0,"TOWNNAME":"麻豆區","LI":"油車里","LIN":"5鄰","STREET":"新興街","SECT":" ","MAREA":" ","LANE":" ","ALLEY":" ","HOUSE_NO":"１６號二樓之５","E_COORD97":172576.04999999999,"N_COORD97":2565294.5499999998,"ADDRESS":"新興街１６號二樓之５","OBJECTID":467437},"geometry":{"x":172576.04999999888,"y":2565294.5500000007}},{"attributes":{"ID":467463,"DIS_CODE":0,"TOWNNAME":"麻豆區","LI":"油車里","LIN":"5鄰","STREET":"新興街","SECT":" ","MAREA":" ","LANE":" ","ALLEY":" ","HOUSE_NO":"１６號二樓之６","E_COORD97":172576.04999999999,"N_COORD97":2565294.5499999998,"ADDRESS":"新興街１６號二樓之６","OBJECTID":467438},"geometry":{"x":172576.04999999888,"y":2565294.5500000007}},{"attributes":{"ID":467464,"DIS_CODE":0,"TOWNNAME":"麻豆區","LI":"油車里","LIN":"5鄰","STREET":"新興街","SECT":" ","MAREA":" ","LANE":" ","ALLEY":" ","HOUSE_NO":"１６號二樓之９","E_COORD97":172576.04999999999,"N_COORD97":2565294.5499999998,"ADDRESS":"新興街１６號二樓之９","OBJECTID":467439},"geometry":{"x":172576.04999999888,"y":2565294.5500000007}},{"attributes":{"ID":467465,"DIS_CODE":0,"TOWNNAME":"麻豆區","LI":"油車里","LIN":"5鄰","STREET":"新興街","SECT":" ","MAREA":" ","LANE":" ","ALLEY":" ","HOUSE_NO":"１６號三樓之１","E_COORD97":172576.04999999999,"N_COORD97":2565294.5499999998,"ADDRESS":"新興街１６號三樓之１","OBJECTID":467440},"geometry":{"x":172576.04999999888,"y":2565294.5500000007}},{"attributes":{"ID":467466,"DIS_CODE":0,"TOWNNAME":"麻豆區","LI":"油車里","LIN":"5鄰","STREET":"新興街","SECT":" ","MAREA":" ","LANE":" ","ALLEY":" ","HOUSE_NO":"１６號三樓之１０","E_COORD97":172576.04999999999,"N_COORD97":2565294.5499999998,"ADDRESS":"新興街１６號三樓之１０","OBJECTID":467441},"geometry":{"x":172576.04999999888,"y":2565294.5500000007}},{"attributes":{"ID":467467,"DIS_CODE":0,"TOWNNAME":"麻豆區","LI":"油車里","LIN":"5鄰","STREET":"新興街","SECT":" ","MAREA":" ","LANE":" ","ALLEY":" ","HOUSE_NO":"１６號三樓之１１","E_COORD97":172576.04999999999,"N_COORD97":2565294.5499999998,"ADDRESS":"新興街１６號三樓之１１","OBJECTID":467442},"geometry":{"x":172576.04999999888,"y":2565294.5500000007}},{"attributes":{"ID":467468,"DIS_CODE":0,"TOWNNAME":"麻豆區","LI":"油車里","LIN":"5鄰","STREET":"新興街","SECT":" ","MAREA":" ","LANE":" ","ALLEY":" ","HOUSE_NO":"１６號三樓之１２","E_COORD97":172576.04999999999,"N_COORD97":2565294.5499999998,"ADDRESS":"新興街１６號三樓之１２","OBJECTID":467443},"geometry":{"x":172576.04999999888,"y":2565294.5500000007}},{"attributes":{"ID":467469,"DIS_CODE":0,"TOWNNAME":"麻豆區","LI":"油車里","LIN":"5鄰","STREET":"新興街","SECT":" ","MAREA":" ","LANE":" ","ALLEY":" ","HOUSE_NO":"１６號三樓之１３","E_COORD97":172576.04999999999,"N_COORD97":2565294.5499999998,"ADDRESS":"新興街１６號三樓之１３","OBJECTID":467444},"geometry":{"x":172576.04999999888,"y":2565294.5500000007}},{"attributes":{"ID":467470,"DIS_CODE":0,"TOWNNAME":"麻豆區","LI":"油車里","LIN":"5鄰","STREET":"新興街","SECT":" ","MAREA":" ","LANE":" ","ALLEY":" ","HOUSE_NO":"１６號三樓之１５","E_COORD97":172576.04999999999,"N_COORD97":2565294.5499999998,"ADDRESS":"新興街１６號三樓之１５","OBJECTID":467445},"geometry":{"x":172576.04999999888,"y":2565294.5500000007}},{"attributes":{"ID":467471,"DIS_CODE":0,"TOWNNAME":"麻豆區","LI":"油車里","LIN":"5鄰","STREET":"新興街","SECT":" ","MAREA":" ","LANE":" ","ALLEY":" ","HOUSE_NO":"１６號三樓之１６","E_COORD97":172576.04999999999,"N_COORD97":2565294.5499999998,"ADDRESS":"新興街１６號三樓之１６","OBJECTID":467446},"geometry":{"x":172576.04999999888,"y":2565294.5500000007}},{"attributes":{"ID":467472,"DIS_CODE":0,"TOWNNAME":"麻豆區","LI":"油車里","LIN":"5鄰","STREET":"新興街","SECT":" ","MAREA":" ","LANE":" ","ALLEY":" ","HOUSE_NO":"１６號三樓之１７","E_COORD97":172576.04999999999,"N_COORD97":2565294.5499999998,"ADDRESS":"新興街１６號三樓之１７","OBJECTID":467447},"geometry":{"x":172576.04999999888,"y":2565294.5500000007}},{"attributes":{"ID":467473,"DIS_CODE":0,"TOWNNAME":"麻豆區","LI":"油車里","LIN":"5鄰","STREET":"新興街","SECT":" ","MAREA":" ","LANE":" ","ALLEY":" ","HOUSE_NO":"１６號三樓之１８","E_COORD97":172576.04999999999,"N_COORD97":2565294.5499999998,"ADDRESS":"新興街１６號三樓之１８","OBJECTID":467448},"geometry":{"x":172576.04999999888,"y":2565294.5500000007}},{"attributes":{"ID":467474,"DIS_CODE":0,"TOWNNAME":"麻豆區","LI":"油車里","LIN":"5鄰","STREET":"新興街","SECT":" ","MAREA":" ","LANE":" ","ALLEY":" ","HOUSE_NO":"１６號三樓之１９","E_COORD97":172576.04999999999,"N_COORD97":2565294.5499999998,"ADDRESS":"新興街１６號三樓之１９","OBJECTID":467449},"geometry":{"x":172576.04999999888,"y":2565294.5500000007}},{"attributes":{"ID":467475,"DIS_CODE":0,"TOWNNAME":"麻豆區","LI":"油車里","LIN":"5鄰","STREET":"新興街","SECT":" ","MAREA":" ","LANE":" ","ALLEY":" ","HOUSE_NO":"１６號三樓之２","E_COORD97":172576.04999999999,"N_COORD97":2565294.5499999998,"ADDRESS":"新興街１６號三樓之２","OBJECTID":467450},"geometry":{"x":172576.04999999888,"y":2565294.5500000007}},{"attributes":{"ID":467476,"DIS_CODE":0,"TOWNNAME":"麻豆區","LI":"油車里","LIN":"5鄰","STREET":"新興街","SECT":" ","MAREA":" ","LANE":" ","ALLEY":" ","HOUSE_NO":"１６號三樓之２０","E_COORD97":172576.04999999999,"N_COORD97":2565294.5499999998,"ADDRESS":"新興街１６號三樓之２０","OBJECTID":467451},"geometry":{"x":172576.04999999888,"y":2565294.5500000007}},{"attributes":{"ID":467477,"DIS_CODE":0,"TOWNNAME":"麻豆區","LI":"油車里","LIN":"5鄰","STREET":"新興街","SECT":" ","MAREA":" ","LANE":" ","ALLEY":" ","HOUSE_NO":"１６號三樓之２１","E_COORD97":172576.04999999999,"N_COORD97":2565294.5499999998,"ADDRESS":"新興街１６號三樓之２１","OBJECTID":467452},"geometry":{"x":172576.04999999888,"y":2565294.5500000007}},{"attributes":{"ID":467478,"DIS_CODE":0,"TOWNNAME":"麻豆區","LI":"油車里","LIN":"5鄰","STREET":"新興街","SECT":" ","MAREA":" ","LANE":" ","ALLEY":" ","HOUSE_NO":"１６號三樓之２２","E_COORD97":172576.04999999999,"N_COORD97":2565294.5499999998,"ADDRESS":"新興街１６號三樓之２２","OBJECTID":467453},"geometry":{"x":172576.04999999888,"y":2565294.5500000007}},{"attributes":{"ID":467479,"DIS_CODE":0,"TOWNNAME":"麻豆區","LI":"油車里","LIN":"5鄰","STREET":"新興街","SECT":" ","MAREA":" ","LANE":" ","ALLEY":" ","HOUSE_NO":"１６號三樓之２３","E_COORD97":172576.04999999999,"N_COORD97":2565294.5499999998,"ADDRESS":"新興街１６號三樓之２３","OBJECTID":467454},"geometry":{"x":172576.04999999888,"y":2565294.5500000007}},{"attributes":{"ID":467480,"DIS_CODE":0,"TOWNNAME":"麻豆區","LI":"油車里","LIN":"5鄰","STREET":"新興街","SECT":" ","MAREA":" ","LANE":" ","ALLEY":" ","HOUSE_NO":"１６號三樓之２５","E_COORD97":172576.04999999999,"N_COORD97":2565294.5499999998,"ADDRESS":"新興街１６號三樓之２５","OBJECTID":467455},"geometry":{"x":172576.04999999888,"y":2565294.5500000007}},{"attributes":{"ID":467481,"DIS_CODE":0,"TOWNNAME":"麻豆區","LI":"油車里","LIN":"5鄰","STREET":"新興街","SECT":" ","MAREA":" ","LANE":" ","ALLEY":" ","HOUSE_NO":"１６號三樓之３","E_COORD97":172576.04999999999,"N_COORD97":2565294.5499999998,"ADDRESS":"新興街１６號三樓之３","OBJECTID":467456},"geometry":{"x":172576.04999999888,"y":2565294.5500000007}},{"attributes":{"ID":467482,"DIS_CODE":0,"TOWNNAME":"麻豆區","LI":"油車里","LIN":"5鄰","STREET":"新興街","SECT":" ","MAREA":" ","LANE":" ","ALLEY":" ","HOUSE_NO":"１６號三樓之５","E_COORD97":172576.04999999999,"N_COORD97":2565294.5499999998,"ADDRESS":"新興街１６號三樓之５","OBJECTID":467457},"geometry":{"x":172576.04999999888,"y":2565294.5500000007}},{"attributes":{"ID":467483,"DIS_CODE":0,"TOWNNAME":"麻豆區","LI":"油車里","LIN":"5鄰","STREET":"新興街","SECT":" ","MAREA":" ","LANE":" ","ALLEY":" ","HOUSE_NO":"１６號三樓之６","E_COORD97":172576.04999999999,"N_COORD97":2565294.5499999998,"ADDRESS":"新興街１６號三樓之６","OBJECTID":467458},"geometry":{"x":172576.04999999888,"y":2565294.5500000007}},{"attributes":{"ID":467484,"DIS_CODE":0,"TOWNNAME":"麻豆區","LI":"油車里","LIN":"5鄰","STREET":"新興街","SECT":" ","MAREA":" ","LANE":" ","ALLEY":" ","HOUSE_NO":"１６號三樓之７","E_COORD97":172576.04999999999,"N_COORD97":2565294.5499999998,"ADDRESS":"新興街１６號三樓之７","OBJECTID":467459},"geometry":{"x":172576.04999999888,"y":2565294.5500000007}},{"attributes":{"ID":467485,"DIS_CODE":0,"TOWNNAME":"麻豆區","LI":"油車里","LIN":"5鄰","STREET":"新興街","SECT":" ","MAREA":" ","LANE":" ","ALLEY":" ","HOUSE_NO":"１６號三樓之８","E_COORD97":172576.04999999999,"N_COORD97":2565294.5499999998,"ADDRESS":"新興街１６號三樓之８","OBJECTID":467460},"geometry":{"x":172576.04999999888,"y":2565294.5500000007}},{"attributes":{"ID":467486,"DIS_CODE":0,"TOWNNAME":"麻豆區","LI":"油車里","LIN":"5鄰","STREET":"新興街","SECT":" ","MAREA":" ","LANE":" ","ALLEY":" ","HOUSE_NO":"１６號三樓之９","E_COORD97":172576.04999999999,"N_COORD97":2565294.5499999998,"ADDRESS":"新興街１６號三樓之９","OBJECTID":467461},"geometry":{"x":172576.04999999888,"y":2565294.5500000007}},{"attributes":{"ID":467487,"DIS_CODE":0,"TOWNNAME":"下營區","LI":"仁里里","LIN":"5鄰","STREET":"仁南街","SECT":" ","MAREA":" ","LANE":" ","ALLEY":" ","HOUSE_NO":"８６號","E_COORD97":174396.64999999999,"N_COORD97":2569715.1400000001,"ADDRESS":"仁南街８６號","OBJECTID":467462},"geometry":{"x":174396.64999999944,"y":2569715.1400000006}},{"attributes":{"ID":467488,"DIS_CODE":0,"TOWNNAME":"安南區","LI":"溪心里","LIN":"5鄰","STREET":"本原街","SECT":"二段","MAREA":" ","LANE":" ","ALLEY":" ","HOUSE_NO":"９０號","E_COORD97":166838.57999999999,"N_COORD97":2550746.0600000001,"ADDRESS":"本原街二段９０號","OBJECTID":467463},"geometry":{"x":166838.58000000101,"y":2550746.0600000005}},{"attributes":{"ID":467489,"DIS_CODE":0,"TOWNNAME":"安南區","LI":"溪心里","LIN":"5鄰","STREET":"本原街","SECT":"二段","MAREA":" ","LANE":" ","ALLEY":" ","HOUSE_NO":"９２號","E_COORD97":166834.20000000001,"N_COORD97":2550747.2999999998,"ADDRESS":"本原街二段９２號","OBJECTID":467464},"geometry":{"x":166834.20000000112,"y":2550747.3000000026}},{"attributes":{"ID":467490,"DIS_CODE":0,"TOWNNAME":"安南區","LI":"溪心里","LIN":"5鄰","STREET":"本原街","SECT":"二段","MAREA":" ","LANE":" ","ALLEY":" ","HOUSE_NO":"９４號","E_COORD97":166827.91,"N_COORD97":2550748.79,"ADDRESS":"本原街二段９４號","OBJECTID":467465},"geometry":{"x":166827.91000000108,"y":2550748.790000001}},{"attributes":{"ID":467491,"DIS_CODE":0,"TOWNNAME":"安南區","LI":"溪心里","LIN":"5鄰","STREET":"本原街","SECT":"二段","MAREA":" ","LANE":" ","ALLEY":" ","HOUSE_NO":"９６號","E_COORD97":166822.81,"N_COORD97":2550749.7999999998,"ADDRESS":"本原街二段９６號","OBJECTID":467466},"geometry":{"x":166822.81000000052,"y":2550749.8000000026}},{"attributes":{"ID":467492,"DIS_CODE":0,"TOWNNAME":"安南區","LI":"原佃里","LIN":"5鄰","STREET":"本原街","SECT":"一段","MAREA":" ","LANE":" ","ALLEY":" ","HOUSE_NO":"２２４號","E_COORD97":167781.95999999999,"N_COORD97":2550384.75,"ADDRESS":"本原街一段２２４號","OBJECTID":467467},"geometry":{"x":167781.96000000089,"y":2550384.75}},{"attributes":{"ID":467493,"DIS_CODE":0,"TOWNNAME":"下營區","LI":"仁里里","LIN":"5鄰","STREET":"仁南街","SECT":" ","MAREA":" ","LANE":" ","ALLEY":" ","HOUSE_NO":"２９號","E_COORD97":174573.94,"N_COORD97":2569670.1699999999,"ADDRESS":"仁南街２９號","OBJECTID":467468},"geometry":{"x":174573.94000000041,"y":2569670.1699999999}},{"attributes":{"ID":467494,"DIS_CODE":0,"TOWNNAME":"安南區","LI":"原佃里","LIN":"5鄰","STREET":"本原街","SECT":"一段","MAREA":" ","LANE":" ","ALLEY":" ","HOUSE_NO":"２２５號","E_COORD97":167748.13,"N_COORD97":2550293.8999999999,"ADDRESS":"本原街一段２２５號","OBJECTID":467469},"geometry":{"x":167748.13000000082,"y":2550293.8999999985}},{"attributes":{"ID":467495,"DIS_CODE":0,"TOWNNAME":"安南區","LI":"原佃里","LIN":"5鄰","STREET":"本原街","SECT":"一段","MAREA":" ","LANE":" ","ALLEY":" ","HOUSE_NO":"２２７號","E_COORD97":167747.38,"N_COORD97":2550298.5899999999,"ADDRESS":"本原街一段２２７號","OBJECTID":467470},"geometry":{"x":167747.37999999989,"y":2550298.5899999999}},{"attributes":{"ID":467496,"DIS_CODE":0,"TOWNNAME":"安南區","LI":"原佃里","LIN":"5鄰","STREET":"本原街","SECT":"一段","MAREA":" ","LANE":" ","ALLEY":" ","HOUSE_NO":"２２９號","E_COORD97":167747.06,"N_COORD97":2550303.3999999999,"ADDRESS":"本原街一段２２９號","OBJECTID":467471},"geometry":{"x":167747.06000000052,"y":2550303.4000000004}},{"attributes":{"ID":467497,"DIS_CODE":0,"TOWNNAME":"安南區","LI":"原佃里","LIN":"5鄰","STREET":"本原街","SECT":"一段","MAREA":" ","LANE":" ","ALLEY":" ","HOUSE_NO":"２３１號","E_COORD97":167746.20999999999,"N_COORD97":2550308.4199999999,"ADDRESS":"本原街一段２３１號","OBJECTID":467472},"geometry":{"x":167746.21000000089,"y":2550308.4200000018}},{"attributes":{"ID":467498,"DIS_CODE":0,"TOWNNAME":"安南區","LI":"原佃里","LIN":"5鄰","STREET":"本原街","SECT":"一段","MAREA":" ","LANE":" ","ALLEY":" ","HOUSE_NO":"２３５號","E_COORD97":167743.10999999999,"N_COORD97":2550318.5600000001,"ADDRESS":"本原街一段２３５號","OBJECTID":467473},"geometry":{"x":167743.11000000034,"y":2550318.5600000024}},{"attributes":{"ID":467499,"DIS_CODE":0,"TOWNNAME":"安南區","LI":"原佃里","LIN":"5鄰","STREET":"本原街","SECT":"一段","MAREA":" ","LANE":" ","ALLEY":" ","HOUSE_NO":"２３７號","E_COORD97":167742.47,"N_COORD97":2550323.21,"ADDRESS":"本原街一段２３７號","OBJECTID":467474},"geometry":{"x":167742.47000000067,"y":2550323.2100000046}},{"attributes":{"ID":467500,"DIS_CODE":0,"TOWNNAME":"安南區","LI":"原佃里","LIN":"5鄰","STREET":"本原街","SECT":"一段","MAREA":" ","LANE":" ","ALLEY":" ","HOUSE_NO":"２６３號","E_COORD97":167728.20999999999,"N_COORD97":2550392.6600000001,"ADDRESS":"本原街一段２６３號","OBJECTID":467475},"geometry":{"x":167728.20999999996,"y":2550392.6600000001}},{"attributes":{"ID":467501,"DIS_CODE":0,"TOWNNAME":"安南區","LI":"原佃里","LIN":"5鄰","STREET":"本原街","SECT":"一段","MAREA":" ","LANE":" ","ALLEY":" ","HOUSE_NO":"２６５號","E_COORD97":167727.14000000001,"N_COORD97":2550397.1499999999,"ADDRESS":"本原街一段２６５號","OBJECTID":467476},"geometry":{"x":167727.14000000153,"y":2550397.1500000004}},{"attributes":{"ID":467502,"DIS_CODE":0,"TOWNNAME":"安南區","LI":"原佃里","LIN":"5鄰","STREET":"本原街","SECT":"一段","MAREA":" ","LANE":" ","ALLEY":" ","HOUSE_NO":"２６７號","E_COORD97":167725.87,"N_COORD97":2550401.3500000001,"ADDRESS":"本原街一段２６７號","OBJECTID":467477},"geometry":{"x":167725.87000000011,"y":2550401.3499999996}},{"attributes":{"ID":467503,"DIS_CODE":0,"TOWNNAME":"安南區","LI":"原佃里","LIN":"5鄰","STREET":"本原街","SECT":"一段","MAREA":" ","LANE":" ","ALLEY":" ","HOUSE_NO":"２６９號","E_COORD97":167724.76999999999,"N_COORD97":2550405.8100000001,"ADDRESS":"本原街一段２６９號","OBJECTID":467478},"geometry":{"x":167724.77000000048,"y":2550405.8100000005}},{"attributes":{"ID":467504,"DIS_CODE":0,"TOWNNAME":"安南區","LI":"原佃里","LIN":"5鄰","STREET":"本原街","SECT":"一段","MAREA":" ","LANE":" ","ALLEY":" ","HOUSE_NO":"２７１號","E_COORD97":167723.89000000001,"N_COORD97":2550410,"ADDRESS":"本原街一段２７１號","OBJECTID":467479},"geometry":{"x":167723.89000000153,"y":2550410.0000000019}},{"attributes":{"ID":467505,"DIS_CODE":0,"TOWNNAME":"安南區","LI":"原佃里","LIN":"5鄰","STREET":"本原街","SECT":"一段","MAREA":" ","LANE":" ","ALLEY":" ","HOUSE_NO":"２７３號","E_COORD97":167722.51999999999,"N_COORD97":2550414.2999999998,"ADDRESS":"本原街一段２７３號","OBJECTID":467480},"geometry":{"x":167722.51999999955,"y":2550414.3000000026}},{"attributes":{"ID":467506,"DIS_CODE":0,"TOWNNAME":"安南區","LI":"原佃里","LIN":"5鄰","STREET":"本原街","SECT":"一段","MAREA":" ","LANE":" ","ALLEY":" ","HOUSE_NO":"２７５號","E_COORD97":167721.35000000001,"N_COORD97":2550418.5899999999,"ADDRESS":"本原街一段２７５號","OBJECTID":467481},"geometry":{"x":167721.35000000056,"y":2550418.5900000017}},{"attributes":{"ID":467507,"DIS_CODE":0,"TOWNNAME":"安南區","LI":"原佃里","LIN":"5鄰","STREET":"本原街","SECT":"一段","MAREA":" ","LANE":" ","ALLEY":" ","HOUSE_NO":"２７７號","E_COORD97":167720.26999999999,"N_COORD97":2550422.5899999999,"ADDRESS":"本原街一段２７７號","OBJECTID":467482},"geometry":{"x":167720.26999999955,"y":2550422.5900000017}},{"attributes":{"ID":467508,"DIS_CODE":0,"TOWNNAME":"安南區","LI":"原佃里","LIN":"5鄰","STREET":"本原街","SECT":"一段","MAREA":" ","LANE":" ","ALLEY":" ","HOUSE_NO":"２７９號","E_COORD97":167718.91,"N_COORD97":2550426.98,"ADDRESS":"本原街一段２７９號","OBJECTID":467483},"geometry":{"x":167718.91000000015,"y":2550426.9800000023}},{"attributes":{"ID":467509,"DIS_CODE":0,"TOWNNAME":"安南區","LI":"安慶里","LIN":"5鄰","STREET":"怡安路","SECT":"一段","MAREA":" ","LANE":" ","ALLEY":" ","HOUSE_NO":"２７５號","E_COORD97":169007.20000000001,"N_COORD97":2549067.3500000001,"ADDRESS":"怡安路一段２７５號","OBJECTID":467484},"geometry":{"x":169007.20000000205,"y":2549067.3500000015}},{"attributes":{"ID":467510,"DIS_CODE":0,"TOWNNAME":"安南區","LI":"安慶里","LIN":"5鄰","STREET":"怡安路","SECT":"一段","MAREA":" ","LANE":" ","ALLEY":" ","HOUSE_NO":"２７７號","E_COORD97":169002.32000000001,"N_COORD97":2549067.2599999998,"ADDRESS":"怡安路一段２７７號","OBJECTID":467485},"geometry":{"x":169002.3200000003,"y":2549067.2600000035}},{"attributes":{"ID":467511,"DIS_CODE":0,"TOWNNAME":"安南區","LI":"安慶里","LIN":"5鄰","STREET":"怡安路","SECT":"一段","MAREA":" ","LANE":" ","ALLEY":" ","HOUSE_NO":"２８１號","E_COORD97":168993.88,"N_COORD97":2549071.98,"ADDRESS":"怡安路一段２８１號","OBJECTID":467486},"geometry":{"x":168993.88000000175,"y":2549071.9800000004}},{"attributes":{"ID":467512,"DIS_CODE":0,"TOWNNAME":"安南區","LI":"原佃里","LIN":"5鄰","STREET":"本原街","SECT":"一段","MAREA":" ","LANE":" ","ALLEY":" ","HOUSE_NO":"１８４號","E_COORD97":167804.59,"N_COORD97":2550219.6499999999,"ADDRESS":"本原街一段１８４號","OBJECTID":467487},"geometry":{"x":167804.59000000078,"y":2550219.6500000004}},{"attributes":{"ID":467513,"DIS_CODE":0,"TOWNNAME":"東區","LI":"崇文里","LIN":"5鄰","STREET":"崇德十六街","SECT":" ","MAREA":" ","LANE":" ","ALLEY":" ","HOUSE_NO":"６０號","E_COORD97":170963.92000000001,"N_COORD97":2541125.02,"ADDRESS":"崇德十六街６０號","OBJECTID":467488},"geometry":{"x":170963.92000000086,"y":2541125.0200000033}},{"attributes":{"ID":467514,"DIS_CODE":0,"TOWNNAME":"東區","LI":"崇文里","LIN":"5鄰","STREET":"崇德十七街","SECT":" ","MAREA":" ","LANE":" ","ALLEY":" ","HOUSE_NO":"７１號","E_COORD97":170963.22,"N_COORD97":2541087.1299999999,"ADDRESS":"崇德十七街７１號","OBJECTID":467489},"geometry":{"x":170963.22000000067,"y":2541087.1300000008}},{"attributes":{"ID":467515,"DIS_CODE":0,"TOWNNAME":"中西區","LI":"保安里","LIN":"5鄰","STREET":"友愛街","SECT":" ","MAREA":" ","LANE":" ","ALLEY":" ","HOUSE_NO":"２０３號","E_COORD97":167712.23000000001,"N_COORD97":2543602.8799999999,"ADDRESS":"友愛街２０３號","OBJECTID":467490},"geometry":{"x":167712.23000000231,"y":2543602.879999999}},{"attributes":{"ID":467516,"DIS_CODE":0,"TOWNNAME":"中西區","LI":"保安里","LIN":"5鄰","STREET":"友愛街","SECT":" ","MAREA":" ","LANE":" ","ALLEY":" ","HOUSE_NO":"２０７號","E_COORD97":167709.64000000001,"N_COORD97":2543605.98,"ADDRESS":"友愛街２０７號","OBJECTID":467491},"geometry":{"x":167709.63999999966,"y":2543605.9800000023}},{"attributes":{"ID":467517,"DIS_CODE":0,"TOWNNAME":"中西區","LI":"保安里","LIN":"5鄰","STREET":"友愛街","SECT":" ","MAREA":" ","LANE":" ","ALLEY":" ","HOUSE_NO":"２０９號","E_COORD97":167704.82999999999,"N_COORD97":2543605.1200000001,"ADDRESS":"友愛街２０９號","OBJECTID":467492},"geometry":{"x":167704.83000000101,"y":2543605.1200000029}},{"attributes":{"ID":467518,"DIS_CODE":0,"TOWNNAME":"中西區","LI":"保安里","LIN":"5鄰","STREET":"友愛街","SECT":" ","MAREA":" ","LANE":" ","ALLEY":" ","HOUSE_NO":"２１１號","E_COORD97":167701.89999999999,"N_COORD97":2543608.04,"ADDRESS":"友愛街２１１號","OBJECTID":467493},"geometry":{"x":167701.90000000037,"y":2543608.0399999991}},{"attributes":{"ID":467519,"DIS_CODE":0,"TOWNNAME":"中西區","LI":"保安里","LIN":"5鄰","STREET":"友愛街","SECT":" ","MAREA":" ","LANE":" ","ALLEY":" ","HOUSE_NO":"２１３之２號","E_COORD97":167694.5,"N_COORD97":2543609.7599999998,"ADDRESS":"友愛街２１３之２號","OBJECTID":467494},"geometry":{"x":167694.49999999907,"y":2543609.7600000016}},{"attributes":{"ID":467520,"DIS_CODE":0,"TOWNNAME":"中西區","LI":"保安里","LIN":"5鄰","STREET":"友愛街","SECT":" ","MAREA":" ","LANE":" ","ALLEY":" ","HOUSE_NO":"２１３號","E_COORD97":167698.29000000001,"N_COORD97":2543608.21,"ADDRESS":"友愛街２１３號","OBJECTID":467495},"geometry":{"x":167698.29000000097,"y":2543608.2100000028}},{"attributes":{"ID":467521,"DIS_CODE":0,"TOWNNAME":"中西區","LI":"保安里","LIN":"5鄰","STREET":"友愛街","SECT":" ","MAREA":" ","LANE":" ","ALLEY":" ","HOUSE_NO":"２２３號","E_COORD97":167680.79000000001,"N_COORD97":2543607.6899999999,"ADDRESS":"友愛街２２３號","OBJECTID":467496},"geometry":{"x":167680.7900000019,"y":2543607.6899999995}},{"attributes":{"ID":467522,"DIS_CODE":0,"TOWNNAME":"中西區","LI":"保安里","LIN":"5鄰","STREET":"友愛街","SECT":" ","MAREA":" ","LANE":" ","ALLEY":" ","HOUSE_NO":"２２５號","E_COORD97":167677.92999999999,"N_COORD97":2543610.3199999998,"ADDRESS":"友愛街２２５號","OBJECTID":467497},"geometry":{"x":167677.93000000063,"y":2543610.3200000022}},{"attributes":{"ID":467523,"DIS_CODE":0,"TOWNNAME":"中西區","LI":"保安里","LIN":"5鄰","STREET":"友愛街","SECT":" ","MAREA":" ","LANE":" ","ALLEY":" ","HOUSE_NO":"２２７號","E_COORD97":167674.85999999999,"N_COORD97":2543610.3199999998,"ADDRESS":"友愛街２２７號","OBJECTID":467498},"geometry":{"x":167674.86000000034,"y":2543610.3200000022}},{"attributes":{"ID":467524,"DIS_CODE":0,"TOWNNAME":"中西區","LI":"保安里","LIN":"5鄰","STREET":"友愛街","SECT":" ","MAREA":" ","LANE":" ","ALLEY":" ","HOUSE_NO":"２２９號","E_COORD97":167672.01000000001,"N_COORD97":2543610.7599999998,"ADDRESS":"友愛街２２９號","OBJECTID":467499},"geometry":{"x":167672.00999999978,"y":2543610.7599999998}},{"attributes":{"ID":467525,"DIS_CODE":0,"TOWNNAME":"中西區","LI":"保安里","LIN":"5鄰","STREET":"友愛街","SECT":" ","MAREA":" ","LANE":" ","ALLEY":" ","HOUSE_NO":"２３１號","E_COORD97":167668.72,"N_COORD97":2543612.2999999998,"ADDRESS":"友愛街２３１號","OBJECTID":467500},"geometry":{"x":167668.71999999974,"y":2543612.3000000007}},{"attributes":{"ID":467526,"DIS_CODE":0,"TOWNNAME":"中西區","LI":"保安里","LIN":"5鄰","STREET":"友愛街","SECT":" ","MAREA":" ","LANE":" ","ALLEY":" ","HOUSE_NO":"２３３號","E_COORD97":167664.98999999999,"N_COORD97":2543611.6400000001,"ADDRESS":"友愛街２３３號","OBJECTID":467501},"geometry":{"x":167664.99000000115,"y":2543611.6400000025}},{"attributes":{"ID":467527,"DIS_CODE":0,"TOWNNAME":"中西區","LI":"保安里","LIN":"5鄰","STREET":"友愛街","SECT":" ","MAREA":" ","LANE":" ","ALLEY":" ","HOUSE_NO":"２３５號","E_COORD97":167661.26000000001,"N_COORD97":2543611.8599999999,"ADDRESS":"友愛街２３５號","OBJECTID":467502},"geometry":{"x":167661.25999999978,"y":2543611.8600000013}},{"attributes":{"ID":467528,"DIS_CODE":0,"TOWNNAME":"中西區","LI":"保安里","LIN":"5鄰","STREET":"友愛街","SECT":" ","MAREA":" ","LANE":" ","ALLEY":" ","HOUSE_NO":"２３９號","E_COORD97":167653.714095,"N_COORD97":2543614.6714699999,"ADDRESS":"友愛街２３９號","OBJECTID":467503},"geometry":{"x":167653.71409500204,"y":2543614.6714699995}},{"attributes":{"ID":467529,"DIS_CODE":0,"TOWNNAME":"中西區","LI":"保安里","LIN":"5鄰","STREET":"友愛街","SECT":" ","MAREA":" ","LANE":" ","ALLEY":" ","HOUSE_NO":"２４１號","E_COORD97":167650.07000000001,"N_COORD97":2543614.0499999998,"ADDRESS":"友愛街２４１號","OBJECTID":467504},"geometry":{"x":167650.0700000003,"y":2543614.0500000007}},{"attributes":{"ID":467530,"DIS_CODE":0,"TOWNNAME":"中西區","LI":"保安里","LIN":"5鄰","STREET":"友愛街","SECT":" ","MAREA":" ","LANE":" ","ALLEY":" ","HOUSE_NO":"２４３號","E_COORD97":167646.56,"N_COORD97":2543616.02,"ADDRESS":"友愛街２４３號","OBJECTID":467505},"geometry":{"x":167646.56000000052,"y":2543616.0199999996}},{"attributes":{"ID":467531,"DIS_CODE":0,"TOWNNAME":"中西區","LI":"保安里","LIN":"5鄰","STREET":"友愛街","SECT":" ","MAREA":" ","LANE":" ","ALLEY":" ","HOUSE_NO":"２４５號","E_COORD97":167643.26999999999,"N_COORD97":2543616.02,"ADDRESS":"友愛街２４５號","OBJECTID":467506},"geometry":{"x":167643.27000000048,"y":2543616.0199999996}},{"attributes":{"ID":467532,"DIS_CODE":0,"TOWNNAME":"中西區","LI":"保安里","LIN":"5鄰","STREET":"友愛街","SECT":" ","MAREA":" ","LANE":" ","ALLEY":" ","HOUSE_NO":"２４７號","E_COORD97":167639.54000000001,"N_COORD97":2543616.8999999999,"ADDRESS":"友愛街２４７號","OBJECTID":467507},"geometry":{"x":167639.54000000004,"y":2543616.9000000004}},{"attributes":{"ID":467533,"DIS_CODE":0,"TOWNNAME":"中西區","LI":"保安里","LIN":"5鄰","STREET":"友愛街","SECT":" ","MAREA":" ","LANE":" ","ALLEY":" ","HOUSE_NO":"２４９號","E_COORD97":167637.34,"N_COORD97":2543620.8500000001,"ADDRESS":"友愛街２４９號","OBJECTID":467508},"geometry":{"x":167637.33999999985,"y":2543620.8499999996}},{"attributes":{"ID":467534,"DIS_CODE":0,"TOWNNAME":"中西區","LI":"保安里","LIN":"5鄰","STREET":"國華街","SECT":"二段","MAREA":" ","LANE":" ","ALLEY":" ","HOUSE_NO":"１５５號","E_COORD97":167675.39999999999,"N_COORD97":2543601.1099999999,"ADDRESS":"國華街二段１５５號","OBJECTID":467509},"geometry":{"x":167675.40000000224,"y":2543601.1099999994}},{"attributes":{"ID":467535,"DIS_CODE":0,"TOWNNAME":"中西區","LI":"保安里","LIN":"5鄰","STREET":"國華街","SECT":"二段","MAREA":" ","LANE":" ","ALLEY":" ","HOUSE_NO":"１６８號","E_COORD97":167695.35999999999,"N_COORD97":2543596.3599999999,"ADDRESS":"國華街二段１６８號","OBJECTID":467510},"geometry":{"x":167695.36000000034,"y":2543596.3599999994}},{"attributes":{"ID":467536,"DIS_CODE":0,"TOWNNAME":"中西區","LI":"保安里","LIN":"5鄰","STREET":"國華街","SECT":"二段","MAREA":" ","LANE":" ","ALLEY":" ","HOUSE_NO":"１７０號","E_COORD97":167690.20000000001,"N_COORD97":2543596.7000000002,"ADDRESS":"國華街二段１７０號","OBJECTID":467511},"geometry":{"x":167690.20000000112,"y":2543596.6999999993}},{"attributes":{"ID":467537,"DIS_CODE":0,"TOWNNAME":"中西區","LI":"保安里","LIN":"5鄰","STREET":"國華街","SECT":"二段","MAREA":" ","LANE":" ","ALLEY":" ","HOUSE_NO":"１７２號","E_COORD97":167691.39999999999,"N_COORD97":2543599.4500000002,"ADDRESS":"國華街二段１７２號","OBJECTID":467512},"geometry":{"x":167691.4000000013,"y":2543599.4499999993}},{"attributes":{"ID":467538,"DIS_CODE":0,"TOWNNAME":"中西區","LI":"保安里","LIN":"5鄰","STREET":"國華街","SECT":"二段","MAREA":" ","LANE":" ","ALLEY":" ","HOUSE_NO":"１７４號","E_COORD97":167692.26000000001,"N_COORD97":2543602.2000000002,"ADDRESS":"國華街二段１７４號","OBJECTID":467513},"geometry":{"x":167692.25999999978,"y":2543602.2000000011}},{"attributes":{"ID":467539,"DIS_CODE":0,"TOWNNAME":"中西區","LI":"保安里","LIN":"5鄰","STREET":"國華街","SECT":"二段","MAREA":" ","LANE":" ","ALLEY":" ","HOUSE_NO":"１７６號","E_COORD97":167692.60999999999,"N_COORD97":2543604.6099999999,"ADDRESS":"國華街二段１７６號","OBJECTID":467514},"geometry":{"x":167692.6100000022,"y":2543604.6099999994}},{"attributes":{"ID":467540,"DIS_CODE":0,"TOWNNAME":"中西區","LI":"保安里","LIN":"5鄰","STREET":"國華街","SECT":"二段","MAREA":" ","LANE":" ","ALLEY":" ","HOUSE_NO":"１７８號","E_COORD97":167692.95000000001,"N_COORD97":2543607.71,"ADDRESS":"國華街二段１７８號","OBJECTID":467515},"geometry":{"x":167692.95000000019,"y":2543607.7100000028}},{"attributes":{"ID":467541,"DIS_CODE":0,"TOWNNAME":"中西區","LI":"保安里","LIN":"5鄰","STREET":"友愛街","SECT":" ","MAREA":" ","LANE":" ","ALLEY":" ","HOUSE_NO":"２５３號","E_COORD97":167633.60999999999,"N_COORD97":2543619.75,"ADDRESS":"友愛街２５３號","OBJECTID":467516},"geometry":{"x":167633.61000000127,"y":2543619.7500000019}},{"attributes":{"ID":467542,"DIS_CODE":0,"TOWNNAME":"中西區","LI":"保安里","LIN":"5鄰","STREET":"友愛街","SECT":" ","MAREA":" ","LANE":" ","ALLEY":" ","HOUSE_NO":"２５５號","E_COORD97":167630.76000000001,"N_COORD97":2543621.29,"ADDRESS":"友愛街２５５號","OBJECTID":467517},"geometry":{"x":167630.75999999978,"y":2543621.2900000028}},{"attributes":{"ID":467543,"DIS_CODE":0,"TOWNNAME":"中西區","LI":"保安里","LIN":"5鄰","STREET":"友愛街","SECT":" ","MAREA":" ","LANE":" ","ALLEY":" ","HOUSE_NO":"２６９號","E_COORD97":167596.60999999999,"N_COORD97":2543626.6099999999,"ADDRESS":"友愛街２６９號","OBJECTID":467518},"geometry":{"x":167596.61000000127,"y":2543626.6100000013}},{"attributes":{"ID":467544,"DIS_CODE":0,"TOWNNAME":"中西區","LI":"保安里","LIN":"5鄰","STREET":"友愛街","SECT":" ","MAREA":" ","LANE":" ","ALLEY":" ","HOUSE_NO":"２７１號","E_COORD97":167592.67999999999,"N_COORD97":2543627.6000000001,"ADDRESS":"友愛街２７１號","OBJECTID":467519},"geometry":{"x":167592.6799999997,"y":2543627.6000000015}},{"attributes":{"ID":467545,"DIS_CODE":0,"TOWNNAME":"中西區","LI":"保安里","LIN":"5鄰","STREET":"友愛街","SECT":" ","MAREA":" ","LANE":" ","ALLEY":" ","HOUSE_NO":"２７３號","E_COORD97":167590.22,"N_COORD97":2543628.8199999998,"ADDRESS":"友愛街２７３號","OBJECTID":467520},"geometry":{"x":167590.22000000067,"y":2543628.8200000003}},{"attributes":{"ID":467546,"DIS_CODE":0,"TOWNNAME":"中西區","LI":"保安里","LIN":"5鄰","STREET":"友愛街","SECT":" ","MAREA":" ","LANE":" ","ALLEY":" ","HOUSE_NO":"２７５號","E_COORD97":167588,"N_COORD97":2543629.5600000001,"ADDRESS":"友愛街２７５號","OBJECTID":467521},"geometry":{"x":167588.00000000093,"y":2543629.5600000005}},{"attributes":{"ID":467547,"DIS_CODE":0,"TOWNNAME":"中西區","LI":"保安里","LIN":"5鄰","STREET":"友愛街","SECT":" ","MAREA":" ","LANE":" ","ALLEY":" ","HOUSE_NO":"２７７號","E_COORD97":167586.04000000001,"N_COORD97":2543630.54,"ADDRESS":"友愛街２７７號","OBJECTID":467522},"geometry":{"x":167586.04000000097,"y":2543630.540000001}},{"attributes":{"ID":467548,"DIS_CODE":0,"TOWNNAME":"中西區","LI":"保安里","LIN":"5鄰","STREET":"友愛街","SECT":" ","MAREA":" ","LANE":" ","ALLEY":" ","HOUSE_NO":"２７９號","E_COORD97":167582.60000000001,"N_COORD97":2543630.79,"ADDRESS":"友愛街２７９號","OBJECTID":467523},"geometry":{"x":167582.59999999963,"y":2543630.7899999991}},{"attributes":{"ID":467549,"DIS_CODE":0,"TOWNNAME":"中西區","LI":"保安里","LIN":"5鄰","STREET":"友愛街","SECT":" ","MAREA":" ","LANE":" ","ALLEY":" ","HOUSE_NO":"２８１號","E_COORD97":167577.70999999999,"N_COORD97":2543632.7400000002,"ADDRESS":"友愛街２８１號","OBJECTID":467524},"geometry":{"x":167577.70999999903,"y":2543632.7399999984}},{"attributes":{"ID":467550,"DIS_CODE":0,"TOWNNAME":"中西區","LI":"保安里","LIN":"5鄰","STREET":"友愛街","SECT":" ","MAREA":" ","LANE":" ","ALLEY":" ","HOUSE_NO":"２８３號","E_COORD97":167575.39999999999,"N_COORD97":2543634.6099999999,"ADDRESS":"友愛街２８３號","OBJECTID":467525},"geometry":{"x":167575.40000000224,"y":2543634.6100000013}},{"attributes":{"ID":467551,"DIS_CODE":0,"TOWNNAME":"中西區","LI":"保安里","LIN":"5鄰","STREET":"友愛街","SECT":" ","MAREA":" ","LANE":" ","ALLEY":" ","HOUSE_NO":"２８５號","E_COORD97":167573.23999999999,"N_COORD97":2543635.4700000002,"ADDRESS":"友愛街２８５號","OBJECTID":467526},"geometry":{"x":167573.24000000115,"y":2543635.4700000044}},{"attributes":{"ID":467552,"DIS_CODE":0,"TOWNNAME":"佳里區","LI":"鎮山里","LIN":"5鄰","STREET":"延平路","SECT":" ","MAREA":" ","LANE":" ","ALLEY":" ","HOUSE_NO":"１０６號","E_COORD97":165960.54999999999,"N_COORD97":2561792.9100000001,"ADDRESS":"延平路１０６號","OBJECTID":467527},"geometry":{"x":165960.55000000075,"y":2561792.9100000001}},{"attributes":{"ID":467553,"DIS_CODE":0,"TOWNNAME":"中西區","LI":"普濟里","LIN":"5鄰","STREET":"民族路","SECT":"三段","MAREA":" ","LANE":" ","ALLEY":" ","HOUSE_NO":"５０號","E_COORD97":167833.79000000001,"N_COORD97":2544294.1200000001,"ADDRESS":"民族路三段５０號","OBJECTID":467528},"geometry":{"x":167833.79000000097,"y":2544294.120000001}},{"attributes":{"ID":467554,"DIS_CODE":0,"TOWNNAME":"中西區","LI":"普濟里","LIN":"5鄰","STREET":"民族路","SECT":"三段","MAREA":" ","LANE":" ","ALLEY":" ","HOUSE_NO":"５２號","E_COORD97":167830.62,"N_COORD97":2544295.1400000001,"ADDRESS":"民族路三段５２號","OBJECTID":467529},"geometry":{"x":167830.62000000011,"y":2544295.1400000043}},{"attributes":{"ID":467555,"DIS_CODE":0,"TOWNNAME":"中西區","LI":"普濟里","LIN":"5鄰","STREET":"民族路","SECT":"三段","MAREA":" ","LANE":" ","ALLEY":" ","HOUSE_NO":"５４號","E_COORD97":167827.45000000001,"N_COORD97":2544296.02,"ADDRESS":"民族路三段５４號","OBJECTID":467530},"geometry":{"x":167827.45000000205,"y":2544296.0200000014}},{"attributes":{"ID":467556,"DIS_CODE":0,"TOWNNAME":"中西區","LI":"普濟里","LIN":"5鄰","STREET":"民族路","SECT":"三段","MAREA":" ","LANE":" ","ALLEY":" ","HOUSE_NO":"５６號","E_COORD97":167822.76000000001,"N_COORD97":2544298.1699999999,"ADDRESS":"民族路三段５６號","OBJECTID":467531},"geometry":{"x":167822.75999999978,"y":2544298.1700000018}},{"attributes":{"ID":467557,"DIS_CODE":0,"TOWNNAME":"中西區","LI":"普濟里","LIN":"5鄰","STREET":"民族路","SECT":"三段","MAREA":" ","LANE":" ","ALLEY":" ","HOUSE_NO":"５８號","E_COORD97":167818.95999999999,"N_COORD97":2544299.8199999998,"ADDRESS":"民族路三段５８號","OBJECTID":467532},"geometry":{"x":167818.96000000089,"y":2544299.8200000003}},{"attributes":{"ID":467558,"DIS_CODE":0,"TOWNNAME":"中西區","LI":"普濟里","LIN":"5鄰","STREET":"民族路","SECT":"三段","MAREA":" ","LANE":" ","ALLEY":" ","HOUSE_NO":"６０號","E_COORD97":167814.14000000001,"N_COORD97":2544301.0899999999,"ADDRESS":"民族路三段６０號","OBJECTID":467533},"geometry":{"x":167814.1400000006,"y":2544301.0899999999}},{"attributes":{"ID":467559,"DIS_CODE":0,"TOWNNAME":"中西區","LI":"普濟里","LIN":"5鄰","STREET":"民族路","SECT":"三段","MAREA":" ","LANE":" ","ALLEY":" ","HOUSE_NO":"６２號","E_COORD97":167810.72,"N_COORD97":2544303.8700000001,"ADDRESS":"民族路三段６２號","OBJECTID":467534},"geometry":{"x":167810.71999999974,"y":2544303.870000001}},{"attributes":{"ID":467560,"DIS_CODE":0,"TOWNNAME":"中西區","LI":"普濟里","LIN":"5鄰","STREET":"民族路","SECT":"三段","MAREA":" ","LANE":" ","ALLEY":" ","HOUSE_NO":"６４號","E_COORD97":167805.89999999999,"N_COORD97":2544304.8900000001,"ADDRESS":"民族路三段６４號","OBJECTID":467535},"geometry":{"x":167805.90000000224,"y":2544304.8900000025}},{"attributes":{"ID":467561,"DIS_CODE":0,"TOWNNAME":"中西區","LI":"普濟里","LIN":"5鄰","STREET":"民族路","SECT":"三段","MAREA":" ","LANE":" ","ALLEY":" ","HOUSE_NO":"６６號","E_COORD97":167800.82999999999,"N_COORD97":2544306.79,"ADDRESS":"民族路三段６６號","OBJECTID":467536},"geometry":{"x":167800.82999999914,"y":2544306.790000001}},{"attributes":{"ID":467562,"DIS_CODE":0,"TOWNNAME":"中西區","LI":"普濟里","LIN":"5鄰","STREET":"民族路","SECT":"三段","MAREA":" ","LANE":" ","ALLEY":" ","HOUSE_NO":"６８號","E_COORD97":167797.92000000001,"N_COORD97":2544308.9399999999,"ADDRESS":"民族路三段６８號","OBJECTID":467537},"geometry":{"x":167797.91999999993,"y":2544308.9400000032}},{"attributes":{"ID":467563,"DIS_CODE":0,"TOWNNAME":"中西區","LI":"普濟里","LIN":"5鄰","STREET":"普濟街","SECT":" ","MAREA":" ","LANE":" ","ALLEY":" ","HOUSE_NO":"３７號","E_COORD97":167834.04000000001,"N_COORD97":2544301.0899999999,"ADDRESS":"普濟街３７號","OBJECTID":467538},"geometry":{"x":167834.04000000097,"y":2544301.0899999999}},{"attributes":{"ID":467564,"DIS_CODE":0,"TOWNNAME":"中西區","LI":"普濟里","LIN":"5鄰","STREET":"民族路","SECT":"三段","MAREA":" ","LANE":" ","ALLEY":" ","HOUSE_NO":"７４號","E_COORD97":167784.35999999999,"N_COORD97":2544315.02,"ADDRESS":"民族路三段７４號","OBJECTID":467539},"geometry":{"x":167784.36000000127,"y":2544315.0199999977}},{"attributes":{"ID":467565,"DIS_CODE":0,"TOWNNAME":"中西區","LI":"水仙里","LIN":"5鄰","STREET":"國華街","SECT":"三段","MAREA":" ","LANE":" ","ALLEY":" ","HOUSE_NO":"１０５號","E_COORD97":167803.85999999999,"N_COORD97":2544061.8300000001,"ADDRESS":"國華街三段１０５號","OBJECTID":467540},"geometry":{"x":167803.86000000034,"y":2544061.8300000001}},{"attributes":{"ID":467566,"DIS_CODE":0,"TOWNNAME":"中西區","LI":"水仙里","LIN":"5鄰","STREET":"國華街","SECT":"三段","MAREA":" ","LANE":" ","ALLEY":" ","HOUSE_NO":"７９號","E_COORD97":167764.79000000001,"N_COORD97":2544002.9399999999,"ADDRESS":"國華街三段７９號","OBJECTID":467541},"geometry":{"x":167764.79000000004,"y":2544002.9399999995}},{"attributes":{"ID":467567,"DIS_CODE":0,"TOWNNAME":"中西區","LI":"水仙里","LIN":"5鄰","STREET":"國華街","SECT":"三段","MAREA":" ","LANE":" ","ALLEY":" ","HOUSE_NO":"８１號","E_COORD97":167780.23000000001,"N_COORD97":2544004.8500000001,"ADDRESS":"國華街三段８１號","OBJECTID":467542},"geometry":{"x":167780.23000000138,"y":2544004.8500000015}},{"attributes":{"ID":467568,"DIS_CODE":0,"TOWNNAME":"中西區","LI":"水仙里","LIN":"5鄰","STREET":"國華街","SECT":"三段","MAREA":" ","LANE":" ","ALLEY":" ","HOUSE_NO":"８３號","E_COORD97":167783.17999999999,"N_COORD97":2544010.0499999998,"ADDRESS":"國華街三段８３號","OBJECTID":467543},"geometry":{"x":167783.18000000063,"y":2544010.0500000007}},{"attributes":{"ID":467569,"DIS_CODE":0,"TOWNNAME":"中西區","LI":"水仙里","LIN":"5鄰","STREET":"國華街","SECT":"三段","MAREA":" ","LANE":" ","ALLEY":" ","HOUSE_NO":"８５號","E_COORD97":167785.07999999999,"N_COORD97":2544015.4199999999,"ADDRESS":"國華街三段８５號","OBJECTID":467544},"geometry":{"x":167785.08000000007,"y":2544015.4200000018}},{"attributes":{"ID":467570,"DIS_CODE":0,"TOWNNAME":"中西區","LI":"水仙里","LIN":"5鄰","STREET":"國華街","SECT":"三段","MAREA":" ","LANE":" ","ALLEY":" ","HOUSE_NO":"８８號","E_COORD97":167810.91,"N_COORD97":2544038.2799999998,"ADDRESS":"國華街三段８８號","OBJECTID":467545},"geometry":{"x":167810.91000000108,"y":2544038.2799999993}},{"attributes":{"ID":467571,"DIS_CODE":0,"TOWNNAME":"中西區","LI":"水仙里","LIN":"5鄰","STREET":"國華街","SECT":"三段","MAREA":" ","LANE":" ","ALLEY":" ","HOUSE_NO":"９０號","E_COORD97":167812.23000000001,"N_COORD97":2544042.6800000002,"ADDRESS":"國華街三段９０號","OBJECTID":467546},"geometry":{"x":167812.23000000231,"y":2544042.6799999997}},{"attributes":{"ID":467572,"DIS_CODE":0,"TOWNNAME":"中西區","LI":"水仙里","LIN":"5鄰","STREET":"國華街","SECT":"三段","MAREA":" ","LANE":" ","ALLEY":" ","HOUSE_NO":"９２號","E_COORD97":167812.67000000001,"N_COORD97":2544046.2000000002,"ADDRESS":"國華街三段９２號","OBJECTID":467547},"geometry":{"x":167812.67000000086,"y":2544046.2000000011}},{"attributes":{"ID":467573,"DIS_CODE":0,"TOWNNAME":"中西區","LI":"水仙里","LIN":"5鄰","STREET":"國華街","SECT":"三段","MAREA":" ","LANE":" ","ALLEY":" ","HOUSE_NO":"９４號","E_COORD97":167816.63,"N_COORD97":2544050.1699999999,"ADDRESS":"國華街三段９４號","OBJECTID":467548},"geometry":{"x":167816.62999999989,"y":2544050.1700000037}},{"attributes":{"ID":467574,"DIS_CODE":0,"TOWNNAME":"中西區","LI":"水仙里","LIN":"5鄰","STREET":"國華街","SECT":"三段","MAREA":" ","LANE":" ","ALLEY":" ","HOUSE_NO":"９６號","E_COORD97":167818.39999999999,"N_COORD97":2544054.1299999999,"ADDRESS":"國華街三段９６號","OBJECTID":467549},"geometry":{"x":167818.4000000013,"y":2544054.1300000008}},{"attributes":{"ID":467575,"DIS_CODE":0,"TOWNNAME":"中西區","LI":"水仙里","LIN":"5鄰","STREET":"國華街","SECT":"三段","MAREA":" ","LANE":" ","ALLEY":" ","HOUSE_NO":"９８號","E_COORD97":167820.16,"N_COORD97":2544058.9700000002,"ADDRESS":"國華街三段９８號","OBJECTID":467550},"geometry":{"x":167820.16000000015,"y":2544058.9700000044}},{"attributes":{"ID":467576,"DIS_CODE":0,"TOWNNAME":"下營區","LI":"仁里里","LIN":"5鄰","STREET":"仁南街","SECT":" ","MAREA":" ","LANE":" ","ALLEY":" ","HOUSE_NO":"２３號","E_COORD97":174589.53,"N_COORD97":2569668.04,"ADDRESS":"仁南街２３號","OBJECTID":467551},"geometry":{"x":174589.53000000119,"y":2569668.0400000028}},{"attributes":{"ID":467577,"DIS_CODE":0,"TOWNNAME":"下營區","LI":"仁里里","LIN":"5鄰","STREET":"仁南街","SECT":" ","MAREA":" ","LANE":" ","ALLEY":" ","HOUSE_NO":"２５號","E_COORD97":174583.51999999999,"N_COORD97":2569668.8399999999,"ADDRESS":"仁南街２５號","OBJECTID":467552},"geometry":{"x":174583.52000000048,"y":2569668.8399999999}},{"attributes":{"ID":467578,"DIS_CODE":0,"TOWNNAME":"下營區","LI":"仁里里","LIN":"5鄰","STREET":"仁南街","SECT":" ","MAREA":" ","LANE":" ","ALLEY":" ","HOUSE_NO":"７１號","E_COORD97":174440.60000000001,"N_COORD97":2569682.8100000001,"ADDRESS":"仁南街７１號","OBJECTID":467553},"geometry":{"x":174440.60000000056,"y":2569682.8100000005}},{"attributes":{"ID":467579,"DIS_CODE":0,"TOWNNAME":"下營區","LI":"營前里","LIN":"5鄰","STREET":"文明街","SECT":" ","MAREA":" ","LANE":" ","ALLEY":" ","HOUSE_NO":"１０１號","E_COORD97":174483.47,"N_COORD97":2570299.3199999998,"ADDRESS":"文明街１０１號","OBJECTID":467554},"geometry":{"x":174483.46999999974,"y":2570299.3200000022}},{"attributes":{"ID":467580,"DIS_CODE":0,"TOWNNAME":"下營區","LI":"下營里","LIN":"5鄰","STREET":"民生街","SECT":" ","MAREA":" ","LANE":" ","ALLEY":" ","HOUSE_NO":"１１號","E_COORD97":174529.63,"N_COORD97":2570433.48,"ADDRESS":"民生街１１號","OBJECTID":467555},"geometry":{"x":174529.62999999989,"y":2570433.4800000023}},{"attributes":{"ID":467581,"DIS_CODE":0,"TOWNNAME":"下營區","LI":"下營里","LIN":"5鄰","STREET":"民生街","SECT":" ","MAREA":" ","LANE":" ","ALLEY":" ","HOUSE_NO":"１號","E_COORD97":174551.57000000001,"N_COORD97":2570441.9199999999,"ADDRESS":"民生街１號","OBJECTID":467556},"geometry":{"x":174551.57000000216,"y":2570441.9199999999}},{"attributes":{"ID":467582,"DIS_CODE":0,"TOWNNAME":"下營區","LI":"下營里","LIN":"5鄰","STREET":"民生街","SECT":" ","MAREA":" ","LANE":" ","ALLEY":" ","HOUSE_NO":"３號","E_COORD97":174547.44,"N_COORD97":2570440.4100000001,"ADDRESS":"民生街３號","OBJECTID":467557},"geometry":{"x":174547.44000000227,"y":2570440.410000002}},{"attributes":{"ID":467583,"DIS_CODE":0,"TOWNNAME":"下營區","LI":"下營里","LIN":"5鄰","STREET":"民生街","SECT":" ","MAREA":" ","LANE":" ","ALLEY":" ","HOUSE_NO":"５號","E_COORD97":174543.26999999999,"N_COORD97":2570438.5600000001,"ADDRESS":"民生街５號","OBJECTID":467558},"geometry":{"x":174543.27000000048,"y":2570438.5599999987}},{"attributes":{"ID":467584,"DIS_CODE":0,"TOWNNAME":"下營區","LI":"下營里","LIN":"5鄰","STREET":"民生街","SECT":" ","MAREA":" ","LANE":" ","ALLEY":" ","HOUSE_NO":"７號","E_COORD97":174539.14000000001,"N_COORD97":2570436.8500000001,"ADDRESS":"民生街７號","OBJECTID":467559},"geometry":{"x":174539.1400000006,"y":2570436.8500000015}},{"attributes":{"ID":467585,"DIS_CODE":0,"TOWNNAME":"下營區","LI":"下營里","LIN":"5鄰","STREET":"民生街","SECT":" ","MAREA":" ","LANE":" ","ALLEY":" ","HOUSE_NO":"９號","E_COORD97":174534.35999999999,"N_COORD97":2570435.1400000001,"ADDRESS":"民生街９號","OBJECTID":467560},"geometry":{"x":174534.3600000022,"y":2570435.1400000043}},{"attributes":{"ID":467586,"DIS_CODE":0,"TOWNNAME":"下營區","LI":"下營里","LIN":"5鄰","STREET":"民權一街","SECT":" ","MAREA":" ","LANE":" ","ALLEY":" ","HOUSE_NO":"３２號","E_COORD97":174549.04000000001,"N_COORD97":2570391.7799999998,"ADDRESS":"民權一街３２號","OBJECTID":467561},"geometry":{"x":174549.04000000004,"y":2570391.7799999975}},{"attributes":{"ID":467587,"DIS_CODE":0,"TOWNNAME":"下營區","LI":"下營里","LIN":"5鄰","STREET":"民權一街","SECT":" ","MAREA":" ","LANE":" ","ALLEY":" ","HOUSE_NO":"３６號","E_COORD97":174530.70000000001,"N_COORD97":2570387.7599999998,"ADDRESS":"民權一街３６號","OBJECTID":467562},"geometry":{"x":174530.70000000112,"y":2570387.7599999998}},{"attributes":{"ID":467588,"DIS_CODE":0,"TOWNNAME":"下營區","LI":"下營里","LIN":"5鄰","STREET":"民權一街","SECT":" ","MAREA":" ","LANE":" ","ALLEY":" ","HOUSE_NO":"３８號","E_COORD97":174528.98000000001,"N_COORD97":2570396.23,"ADDRESS":"民權一街３８號","OBJECTID":467563},"geometry":{"x":174528.98000000138,"y":2570396.2300000004}},{"attributes":{"ID":467589,"DIS_CODE":0,"TOWNNAME":"下營區","LI":"下營里","LIN":"5鄰","STREET":"民權一街","SECT":" ","MAREA":" ","LANE":" ","ALLEY":" ","HOUSE_NO":"４０號之１","E_COORD97":174531.06,"N_COORD97":2570408.6899999999,"ADDRESS":"民權一街４０號之１","OBJECTID":467564},"geometry":{"x":174531.06000000052,"y":2570408.6899999995}},{"attributes":{"ID":467590,"DIS_CODE":0,"TOWNNAME":"下營區","LI":"下營里","LIN":"5鄰","STREET":"民權一街","SECT":" ","MAREA":" ","LANE":" ","ALLEY":" ","HOUSE_NO":"４６號","E_COORD97":174520.20999999999,"N_COORD97":2570424.7400000002,"ADDRESS":"民權一街４６號","OBJECTID":467565},"geometry":{"x":174520.21000000089,"y":2570424.7400000021}},{"attributes":{"ID":467591,"DIS_CODE":0,"TOWNNAME":"下營區","LI":"新興里","LIN":"5鄰","STREET":"自由街","SECT":" ","MAREA":" ","LANE":" ","ALLEY":" ","HOUSE_NO":"２號","E_COORD97":174803.12,"N_COORD97":2570643.4199999999,"ADDRESS":"自由街２號","OBJECTID":467566},"geometry":{"x":174803.12000000011,"y":2570643.4200000018}},{"attributes":{"ID":467592,"DIS_CODE":0,"TOWNNAME":"下營區","LI":"新興里","LIN":"5鄰","STREET":"自由街","SECT":" ","MAREA":" ","LANE":" ","ALLEY":" ","HOUSE_NO":"４６號","E_COORD97":174806.53,"N_COORD97":2570740.0299999998,"ADDRESS":"自由街４６號","OBJECTID":467567},"geometry":{"x":174806.53000000119,"y":2570740.0300000012}},{"attributes":{"ID":467593,"DIS_CODE":0,"TOWNNAME":"下營區","LI":"新興里","LIN":"5鄰","STREET":"自由街","SECT":" ","MAREA":" ","LANE":" ","ALLEY":" ","HOUSE_NO":"５２號","E_COORD97":174812,"N_COORD97":2570755.2799999998,"ADDRESS":"自由街５２號","OBJECTID":467568},"geometry":{"x":174812,"y":2570755.2800000012}},{"attributes":{"ID":467594,"DIS_CODE":0,"TOWNNAME":"下營區","LI":"新興里","LIN":"5鄰","STREET":"自由街","SECT":" ","MAREA":" ","LANE":" ","ALLEY":" ","HOUSE_NO":"６號","E_COORD97":174803.07000000001,"N_COORD97":2570649.0099999998,"ADDRESS":"自由街６號","OBJECTID":467569},"geometry":{"x":174803.07000000123,"y":2570649.0100000016}},{"attributes":{"ID":467595,"DIS_CODE":0,"TOWNNAME":"下營區","LI":"後街里","LIN":"5鄰","STREET":"東興二街","SECT":" ","MAREA":" ","LANE":" ","ALLEY":" ","HOUSE_NO":"１０１號","E_COORD97":174488.91,"N_COORD97":2570873.9300000002,"ADDRESS":"東興二街１０１號","OBJECTID":467570},"geometry":{"x":174488.91000000015,"y":2570873.9300000016}},{"attributes":{"ID":467596,"DIS_CODE":0,"TOWNNAME":"下營區","LI":"後街里","LIN":"5鄰","STREET":"東興二街","SECT":" ","MAREA":" ","LANE":" ","ALLEY":" ","HOUSE_NO":"７７號","E_COORD97":174531.01999999999,"N_COORD97":2570875.9100000001,"ADDRESS":"東興二街７７號","OBJECTID":467571},"geometry":{"x":174531.02000000048,"y":2570875.9100000001}},{"attributes":{"ID":467597,"DIS_CODE":0,"TOWNNAME":"下營區","LI":"後街里","LIN":"5鄰","STREET":"東興二街","SECT":" ","MAREA":" ","LANE":" ","ALLEY":" ","HOUSE_NO":"７９號","E_COORD97":174526.51000000001,"N_COORD97":2570875.9700000002,"ADDRESS":"東興二街７９號","OBJECTID":467572},"geometry":{"x":174526.51000000071,"y":2570875.9700000007}},{"attributes":{"ID":467598,"DIS_CODE":0,"TOWNNAME":"下營區","LI":"後街里","LIN":"5鄰","STREET":"東興二街","SECT":" ","MAREA":" ","LANE":" ","ALLEY":" ","HOUSE_NO":"８１號","E_COORD97":174522.07000000001,"N_COORD97":2570876.1299999999,"ADDRESS":"東興二街８１號","OBJECTID":467573},"geometry":{"x":174522.0700000003,"y":2570876.129999999}},{"attributes":{"ID":467599,"DIS_CODE":0,"TOWNNAME":"下營區","LI":"後街里","LIN":"5鄰","STREET":"東興二街","SECT":" ","MAREA":" ","LANE":" ","ALLEY":" ","HOUSE_NO":"８３號","E_COORD97":174517.91,"N_COORD97":2570876.29,"ADDRESS":"東興二街８３號","OBJECTID":467574},"geometry":{"x":174517.91000000015,"y":2570876.2899999972}},{"attributes":{"ID":467600,"DIS_CODE":0,"TOWNNAME":"下營區","LI":"後街里","LIN":"5鄰","STREET":"東興二街","SECT":" ","MAREA":" ","LANE":" ","ALLEY":" ","HOUSE_NO":"８９號","E_COORD97":174524.26000000001,"N_COORD97":2570852.73,"ADDRESS":"東興二街８９號","OBJECTID":467575},"geometry":{"x":174524.26000000164,"y":2570852.7300000023}},{"attributes":{"ID":467601,"DIS_CODE":0,"TOWNNAME":"下營區","LI":"後街里","LIN":"5鄰","STREET":"東興二街","SECT":" ","MAREA":" ","LANE":" ","ALLEY":" ","HOUSE_NO":"９９號","E_COORD97":174498.56,"N_COORD97":2570873.4500000002,"ADDRESS":"東興二街９９號","OBJECTID":467576},"geometry":{"x":174498.56000000052,"y":2570873.4500000011}},{"attributes":{"ID":467602,"DIS_CODE":0,"TOWNNAME":"麻豆區","LI":"巷口里","LIN":"6鄰","STREET":"興國路","SECT":" ","MAREA":" ","LANE":" ","ALLEY":" ","HOUSE_NO":"５１號之１","E_COORD97":173010.92999999999,"N_COORD97":2564196.0899999999,"ADDRESS":"興國路５１號之１","OBJECTID":467577},"geometry":{"x":173010.93000000156,"y":2564196.089999998}},{"attributes":{"ID":467603,"DIS_CODE":0,"TOWNNAME":"麻豆區","LI":"巷口里","LIN":"6鄰","STREET":"興國路","SECT":" ","MAREA":" ","LANE":" ","ALLEY":" ","HOUSE_NO":"５１號之２","E_COORD97":173010.32999999999,"N_COORD97":2564221.21,"ADDRESS":"興國路５１號之２","OBJECTID":467578},"geometry":{"x":173010.33000000194,"y":2564221.2100000028}},{"attributes":{"ID":467604,"DIS_CODE":0,"TOWNNAME":"麻豆區","LI":"巷口里","LIN":"6鄰","STREET":"興國路","SECT":" ","MAREA":" ","LANE":" ","ALLEY":" ","HOUSE_NO":"５１號","E_COORD97":173025.04999999999,"N_COORD97":2564165.4500000002,"ADDRESS":"興國路５１號","OBJECTID":467579},"geometry":{"x":173025.04999999981,"y":2564165.4499999993}},{"attributes":{"ID":467605,"DIS_CODE":0,"TOWNNAME":"永康區","LI":"復興里","LIN":"5鄰","STREET":"復興路","SECT":" ","MAREA":" ","LANE":" ","ALLEY":" ","HOUSE_NO":"４１５號","E_COORD97":172095.07000000001,"N_COORD97":2544284.6000000001,"ADDRESS":"復興路４１５號","OBJECTID":467580},"geometry":{"x":172095.07000000216,"y":2544284.6000000015}},{"attributes":{"ID":467606,"DIS_CODE":0,"TOWNNAME":"東區","LI":"崇德里","LIN":"5鄰","STREET":"崇善路","SECT":" ","MAREA":" ","LANE":" ","ALLEY":" ","HOUSE_NO":"２２４號","E_COORD97":170737.32000000001,"N_COORD97":2542017.9100000001,"ADDRESS":"崇善路２２４號","OBJECTID":467581},"geometry":{"x":170737.32000000216,"y":2542017.9100000039}},{"attributes":{"ID":467607,"DIS_CODE":0,"TOWNNAME":"東區","LI":"崇德里","LIN":"5鄰","STREET":"崇善路","SECT":" ","MAREA":" ","LANE":" ","ALLEY":" ","HOUSE_NO":"２２６號","E_COORD97":170740.42000000001,"N_COORD97":2542013.3199999998,"ADDRESS":"崇善路２２６號","OBJECTID":467582},"geometry":{"x":170740.42000000086,"y":2542013.3200000022}},{"attributes":{"ID":467608,"DIS_CODE":0,"TOWNNAME":"東區","LI":"崇德里","LIN":"5鄰","STREET":"崇善路","SECT":" ","MAREA":" ","LANE":" ","ALLEY":" ","HOUSE_NO":"２３０號","E_COORD97":170746.39999999999,"N_COORD97":2542007.3500000001,"ADDRESS":"崇善路２３０號","OBJECTID":467583},"geometry":{"x":170746.40000000037,"y":2542007.3499999978}},{"attributes":{"ID":467609,"DIS_CODE":0,"TOWNNAME":"白河區","LI":"庄內里","LIN":"5鄰","STREET":"長安路","SECT":" ","MAREA":" ","LANE":" ","ALLEY":" ","HOUSE_NO":"１１號","E_COORD97":190787.66,"N_COORD97":2583494.9900000002,"ADDRESS":"長安路１１號","OBJECTID":467584},"geometry":{"x":190787.66000000108,"y":2583494.9900000002}},{"attributes":{"ID":467610,"DIS_CODE":0,"TOWNNAME":"白河區","LI":"庄內里","LIN":"5鄰","STREET":"長安路","SECT":" ","MAREA":" ","LANE":" ","ALLEY":" ","HOUSE_NO":"１３號","E_COORD97":190783.98999999999,"N_COORD97":2583495.5899999999,"ADDRESS":"長安路１３號","OBJECTID":467585},"geometry":{"x":190783.99000000115,"y":2583495.5900000017}},{"attributes":{"ID":467611,"DIS_CODE":0,"TOWNNAME":"白河區","LI":"庄內里","LIN":"5鄰","STREET":"長安路","SECT":" ","MAREA":" ","LANE":" ","ALLEY":" ","HOUSE_NO":"１５號","E_COORD97":190780.32000000001,"N_COORD97":2583496.1800000002,"ADDRESS":"長安路１５號","OBJECTID":467586},"geometry":{"x":190780.32000000123,"y":2583496.1799999997}},{"attributes":{"ID":467612,"DIS_CODE":0,"TOWNNAME":"白河區","LI":"庄內里","LIN":"5鄰","STREET":"長安路","SECT":" ","MAREA":" ","LANE":" ","ALLEY":" ","HOUSE_NO":"１７號","E_COORD97":190776.64999999999,"N_COORD97":2583496.7799999998,"ADDRESS":"長安路１７號","OBJECTID":467587},"geometry":{"x":190776.65000000037,"y":2583496.7800000012}},{"attributes":{"ID":467613,"DIS_CODE":0,"TOWNNAME":"白河區","LI":"庄內里","LIN":"5鄰","STREET":"長安路","SECT":" ","MAREA":" ","LANE":" ","ALLEY":" ","HOUSE_NO":"９號","E_COORD97":190790.66,"N_COORD97":2583491.4399999999,"ADDRESS":"長安路９號","OBJECTID":467588},"geometry":{"x":190790.66000000201,"y":2583491.4400000032}},{"attributes":{"ID":467614,"DIS_CODE":0,"TOWNNAME":"白河區","LI":"白河里","LIN":"5鄰","STREET":"康樂路","SECT":" ","MAREA":" ","LANE":" ","ALLEY":" ","HOUSE_NO":"１２之１號","E_COORD97":190228.48000000001,"N_COORD97":2582918.9199999999,"ADDRESS":"康樂路１２之１號","OBJECTID":467589},"geometry":{"x":190228.48000000138,"y":2582918.9199999981}},{"attributes":{"ID":467615,"DIS_CODE":0,"TOWNNAME":"白河區","LI":"白河里","LIN":"5鄰","STREET":"康樂路","SECT":" ","MAREA":" ","LANE":" ","ALLEY":" ","HOUSE_NO":"１２號","E_COORD97":190230.98999999999,"N_COORD97":2582915.3700000001,"ADDRESS":"康樂路１２號","OBJECTID":467590},"geometry":{"x":190230.99000000115,"y":2582915.3700000029}},{"attributes":{"ID":467616,"DIS_CODE":0,"TOWNNAME":"白河區","LI":"白河里","LIN":"5鄰","STREET":"康樂路","SECT":" ","MAREA":" ","LANE":" ","ALLEY":" ","HOUSE_NO":"１４之１號","E_COORD97":190223.41,"N_COORD97":2582926.6200000001,"ADDRESS":"康樂路１４之１號","OBJECTID":467591},"geometry":{"x":190223.41000000108,"y":2582926.6200000029}},{"attributes":{"ID":467617,"DIS_CODE":0,"TOWNNAME":"白河區","LI":"白河里","LIN":"5鄰","STREET":"康樂路","SECT":" ","MAREA":" ","LANE":" ","ALLEY":" ","HOUSE_NO":"１４號","E_COORD97":190226.14999999999,"N_COORD97":2582923.0699999998,"ADDRESS":"康樂路１４號","OBJECTID":467592},"geometry":{"x":190226.15000000037,"y":2582923.0700000022}},{"attributes":{"ID":467618,"DIS_CODE":0,"TOWNNAME":"永康區","LI":"中華里","LIN":"14鄰","STREET":"忠義街","SECT":" ","MAREA":" ","LANE":"４４巷","ALLEY":" ","HOUSE_NO":"４號","E_COORD97":171737.67000000001,"N_COORD97":2544463.5899999999,"ADDRESS":"忠義街４４巷４號","OBJECTID":467593},"geometry":{"x":171737.66999999993,"y":2544463.5899999999}},{"attributes":{"ID":467619,"DIS_CODE":0,"TOWNNAME":"白河區","LI":"白河里","LIN":"5鄰","STREET":"康樂路","SECT":" ","MAREA":" ","LANE":" ","ALLEY":" ","HOUSE_NO":"１６之１號","E_COORD97":190220.48000000001,"N_COORD97":2582931.4300000002,"ADDRESS":"康樂路１６之１號","OBJECTID":467594},"geometry":{"x":190220.48000000045,"y":2582931.4299999997}},{"attributes":{"ID":467620,"DIS_CODE":0,"TOWNNAME":"白河區","LI":"白河里","LIN":"5鄰","STREET":"康樂路","SECT":" ","MAREA":" ","LANE":" ","ALLEY":" ","HOUSE_NO":"１６號","E_COORD97":190221.51000000001,"N_COORD97":2582929.4399999999,"ADDRESS":"康樂路１６號","OBJECTID":467595},"geometry":{"x":190221.50999999885,"y":2582929.4400000013}},{"attributes":{"ID":467621,"DIS_CODE":0,"TOWNNAME":"白河區","LI":"白河里","LIN":"5鄰","STREET":"康樂路","SECT":" ","MAREA":" ","LANE":" ","ALLEY":" ","HOUSE_NO":"１８號","E_COORD97":190218.45000000001,"N_COORD97":2582934.0899999999,"ADDRESS":"康樂路１８號","OBJECTID":467596},"geometry":{"x":190218.45000000019,"y":2582934.0899999999}},{"attributes":{"ID":467622,"DIS_CODE":0,"TOWNNAME":"白河區","LI":"白河里","LIN":"5鄰","STREET":"康樂路","SECT":" ","MAREA":" ","LANE":" ","ALLEY":" ","HOUSE_NO":"２０號","E_COORD97":190216.06,"N_COORD97":2582938.02,"ADDRESS":"康樂路２０號","OBJECTID":467597},"geometry":{"x":190216.06000000145,"y":2582938.0199999996}},{"attributes":{"ID":467623,"DIS_CODE":0,"TOWNNAME":"白河區","LI":"白河里","LIN":"5鄰","STREET":"康樂路","SECT":" ","MAREA":" ","LANE":" ","ALLEY":" ","HOUSE_NO":"２２號","E_COORD97":190213.82999999999,"N_COORD97":2582941.6099999999,"ADDRESS":"康樂路２２號","OBJECTID":467598},"geometry":{"x":190213.83000000101,"y":2582941.6100000013}},{"attributes":{"ID":467624,"DIS_CODE":0,"TOWNNAME":"白河區","LI":"白河里","LIN":"5鄰","STREET":"康樂路","SECT":" ","MAREA":" ","LANE":" ","ALLEY":" ","HOUSE_NO":"２４號","E_COORD97":190211.23000000001,"N_COORD97":2582944.3900000001,"ADDRESS":"康樂路２４號","OBJECTID":467599},"geometry":{"x":190211.23000000138,"y":2582944.3900000025}},{"attributes":{"ID":467625,"DIS_CODE":0,"TOWNNAME":"白河區","LI":"白河里","LIN":"5鄰","STREET":"康樂路","SECT":" ","MAREA":" ","LANE":" ","ALLEY":" ","HOUSE_NO":"２６號","E_COORD97":190209.72,"N_COORD97":2582947.48,"ADDRESS":"康樂路２６號","OBJECTID":467600},"geometry":{"x":190209.71999999974,"y":2582947.4800000023}}]}