{"displayFieldName":"TOWNNAME","fieldAliases":{"ID":"ID","DIS_CODE":"DIS_CODE","TOWNNAME":"TOWNNAME","LI":"LI","LIN":"LIN","STREET":"STREET","SECT":"SECT","MAREA":"MAREA","LANE":"LANE","ALLEY":"ALLEY","HOUSE_NO":"HOUSE_NO","E_COORD97":"E_COORD97","N_COORD97":"N_COORD97","ADDRESS":"ADDRESS","OBJECTID":"OBJECTID"},"geometryType":"esriGeometryPoint","spatialReference":{"wkid":102443,"latestWkid":3826},"fields":[{"name":"ID","type":"esriFieldTypeDouble","alias":"ID"},{"name":"DIS_CODE","type":"esriFieldTypeInteger","alias":"DIS_CODE"},{"name":"TOWNNAME","type":"esriFieldTypeString","alias":"TOWNNAME","length":8},{"name":"LI","type":"esriFieldTypeString","alias":"LI","length":8},{"name":"LIN","type":"esriFieldTypeString","alias":"LIN","length":12},{"name":"STREET","type":"esriFieldTypeString","alias":"STREET","length":20},{"name":"SECT","type":"esriFieldTypeString","alias":"SECT","length":8},{"name":"MAREA","type":"esriFieldTypeString","alias":"MAREA","length":12},{"name":"LANE","type":"esriFieldTypeString","alias":"LANE","length":10},{"name":"ALLEY","type":"esriFieldTypeString","alias":"ALLEY","length":10},{"name":"HOUSE_NO","type":"esriFieldTypeString","alias":"HOUSE_NO","length":20},{"name":"E_COORD97","type":"esriFieldTypeDouble","alias":"E_COORD97"},{"name":"N_COORD97","type":"esriFieldTypeDouble","alias":"N_COORD97"},{"name":"ADDRESS","type":"esriFieldTypeString","alias":"ADDRESS","length":50},{"name":"OBJECTID","type":"esriFieldTypeOID","alias":"OBJECTID"}],"features":[{"attributes":{"ID":388425,"DIS_CODE":0,"TOWNNAME":"安平區","LI":"平通里","LIN":"28鄰","STREET":"育平七街","SECT":" ","MAREA":" ","LANE":"８０巷","ALLEY":" ","HOUSE_NO":"２３號五樓之３","E_COORD97":164379.32000000001,"N_COORD97":2543830.0600000001,"ADDRESS":"育平七街８０巷２３號五樓之３","OBJECTID":388401},"geometry":{"x":164379.32000000123,"y":2543830.0600000005}},{"attributes":{"ID":388426,"DIS_CODE":0,"TOWNNAME":"安平區","LI":"平通里","LIN":"28鄰","STREET":"育平七街","SECT":" ","MAREA":" ","LANE":"８０巷","ALLEY":" ","HOUSE_NO":"２３號五樓之４","E_COORD97":164379.32000000001,"N_COORD97":2543830.0600000001,"ADDRESS":"育平七街８０巷２３號五樓之４","OBJECTID":388402},"geometry":{"x":164379.32000000123,"y":2543830.0600000005}},{"attributes":{"ID":388427,"DIS_CODE":0,"TOWNNAME":"安平區","LI":"平通里","LIN":"28鄰","STREET":"育平七街","SECT":" ","MAREA":" ","LANE":"８０巷","ALLEY":" ","HOUSE_NO":"２３號五樓之５","E_COORD97":164379.32000000001,"N_COORD97":2543830.0600000001,"ADDRESS":"育平七街８０巷２３號五樓之５","OBJECTID":388403},"geometry":{"x":164379.32000000123,"y":2543830.0600000005}},{"attributes":{"ID":388428,"DIS_CODE":0,"TOWNNAME":"安平區","LI":"平通里","LIN":"28鄰","STREET":"育平七街","SECT":" ","MAREA":" ","LANE":"８０巷","ALLEY":" ","HOUSE_NO":"２３號五樓之６","E_COORD97":164379.32000000001,"N_COORD97":2543830.0600000001,"ADDRESS":"育平七街８０巷２３號五樓之６","OBJECTID":388404},"geometry":{"x":164379.32000000123,"y":2543830.0600000005}},{"attributes":{"ID":388429,"DIS_CODE":0,"TOWNNAME":"安平區","LI":"平通里","LIN":"28鄰","STREET":"育平七街","SECT":" ","MAREA":" ","LANE":"８０巷","ALLEY":" ","HOUSE_NO":"２３號五樓之７","E_COORD97":164379.32000000001,"N_COORD97":2543830.0600000001,"ADDRESS":"育平七街８０巷２３號五樓之７","OBJECTID":388405},"geometry":{"x":164379.32000000123,"y":2543830.0600000005}},{"attributes":{"ID":388430,"DIS_CODE":0,"TOWNNAME":"安平區","LI":"平通里","LIN":"28鄰","STREET":"育平七街","SECT":" ","MAREA":" ","LANE":"８０巷","ALLEY":" ","HOUSE_NO":"２３號五樓之８","E_COORD97":164379.32000000001,"N_COORD97":2543830.0600000001,"ADDRESS":"育平七街８０巷２３號五樓之８","OBJECTID":388406},"geometry":{"x":164379.32000000123,"y":2543830.0600000005}},{"attributes":{"ID":388431,"DIS_CODE":0,"TOWNNAME":"安平區","LI":"平通里","LIN":"28鄰","STREET":"育平七街","SECT":" ","MAREA":" ","LANE":"８０巷","ALLEY":" ","HOUSE_NO":"２３號五樓之９","E_COORD97":164379.32000000001,"N_COORD97":2543830.0600000001,"ADDRESS":"育平七街８０巷２３號五樓之９","OBJECTID":388407},"geometry":{"x":164379.32000000123,"y":2543830.0600000005}},{"attributes":{"ID":388432,"DIS_CODE":0,"TOWNNAME":"安平區","LI":"平通里","LIN":"28鄰","STREET":"育平七街","SECT":" ","MAREA":" ","LANE":"８０巷","ALLEY":" ","HOUSE_NO":"２３號六樓之１","E_COORD97":164379.32000000001,"N_COORD97":2543830.0600000001,"ADDRESS":"育平七街８０巷２３號六樓之１","OBJECTID":388408},"geometry":{"x":164379.32000000123,"y":2543830.0600000005}},{"attributes":{"ID":388433,"DIS_CODE":0,"TOWNNAME":"安平區","LI":"平通里","LIN":"28鄰","STREET":"育平七街","SECT":" ","MAREA":" ","LANE":"８０巷","ALLEY":" ","HOUSE_NO":"２３號六樓之１０","E_COORD97":164379.32000000001,"N_COORD97":2543830.0600000001,"ADDRESS":"育平七街８０巷２３號六樓之１０","OBJECTID":388409},"geometry":{"x":164379.32000000123,"y":2543830.0600000005}},{"attributes":{"ID":388434,"DIS_CODE":0,"TOWNNAME":"安平區","LI":"平通里","LIN":"28鄰","STREET":"育平七街","SECT":" ","MAREA":" ","LANE":"８０巷","ALLEY":" ","HOUSE_NO":"２３號六樓之１１","E_COORD97":164379.32000000001,"N_COORD97":2543830.0600000001,"ADDRESS":"育平七街８０巷２３號六樓之１１","OBJECTID":388410},"geometry":{"x":164379.32000000123,"y":2543830.0600000005}},{"attributes":{"ID":388435,"DIS_CODE":0,"TOWNNAME":"安平區","LI":"平通里","LIN":"28鄰","STREET":"育平七街","SECT":" ","MAREA":" ","LANE":"８０巷","ALLEY":" ","HOUSE_NO":"２３號六樓之２","E_COORD97":164379.32000000001,"N_COORD97":2543830.0600000001,"ADDRESS":"育平七街８０巷２３號六樓之２","OBJECTID":388411},"geometry":{"x":164379.32000000123,"y":2543830.0600000005}},{"attributes":{"ID":388436,"DIS_CODE":0,"TOWNNAME":"安平區","LI":"平通里","LIN":"28鄰","STREET":"育平七街","SECT":" ","MAREA":" ","LANE":"８０巷","ALLEY":" ","HOUSE_NO":"２３號六樓之３","E_COORD97":164379.32000000001,"N_COORD97":2543830.0600000001,"ADDRESS":"育平七街８０巷２３號六樓之３","OBJECTID":388412},"geometry":{"x":164379.32000000123,"y":2543830.0600000005}},{"attributes":{"ID":388437,"DIS_CODE":0,"TOWNNAME":"安平區","LI":"平通里","LIN":"28鄰","STREET":"育平七街","SECT":" ","MAREA":" ","LANE":"８０巷","ALLEY":" ","HOUSE_NO":"２３號六樓之４","E_COORD97":164379.32000000001,"N_COORD97":2543830.0600000001,"ADDRESS":"育平七街８０巷２３號六樓之４","OBJECTID":388413},"geometry":{"x":164379.32000000123,"y":2543830.0600000005}},{"attributes":{"ID":388438,"DIS_CODE":0,"TOWNNAME":"安平區","LI":"平通里","LIN":"28鄰","STREET":"育平七街","SECT":" ","MAREA":" ","LANE":"８０巷","ALLEY":" ","HOUSE_NO":"２３號六樓之５","E_COORD97":164379.32000000001,"N_COORD97":2543830.0600000001,"ADDRESS":"育平七街８０巷２３號六樓之５","OBJECTID":388414},"geometry":{"x":164379.32000000123,"y":2543830.0600000005}},{"attributes":{"ID":388439,"DIS_CODE":0,"TOWNNAME":"安平區","LI":"平通里","LIN":"28鄰","STREET":"育平七街","SECT":" ","MAREA":" ","LANE":"８０巷","ALLEY":" ","HOUSE_NO":"２３號六樓之６","E_COORD97":164379.32000000001,"N_COORD97":2543830.0600000001,"ADDRESS":"育平七街８０巷２３號六樓之６","OBJECTID":388415},"geometry":{"x":164379.32000000123,"y":2543830.0600000005}},{"attributes":{"ID":388440,"DIS_CODE":0,"TOWNNAME":"安平區","LI":"平通里","LIN":"28鄰","STREET":"育平七街","SECT":" ","MAREA":" ","LANE":"８０巷","ALLEY":" ","HOUSE_NO":"２３號六樓之７","E_COORD97":164379.32000000001,"N_COORD97":2543830.0600000001,"ADDRESS":"育平七街８０巷２３號六樓之７","OBJECTID":388416},"geometry":{"x":164379.32000000123,"y":2543830.0600000005}},{"attributes":{"ID":388441,"DIS_CODE":0,"TOWNNAME":"安平區","LI":"平通里","LIN":"28鄰","STREET":"育平七街","SECT":" ","MAREA":" ","LANE":"８０巷","ALLEY":" ","HOUSE_NO":"２３號六樓之８","E_COORD97":164379.32000000001,"N_COORD97":2543830.0600000001,"ADDRESS":"育平七街８０巷２３號六樓之８","OBJECTID":388417},"geometry":{"x":164379.32000000123,"y":2543830.0600000005}},{"attributes":{"ID":388442,"DIS_CODE":0,"TOWNNAME":"安平區","LI":"平通里","LIN":"28鄰","STREET":"育平七街","SECT":" ","MAREA":" ","LANE":"８０巷","ALLEY":" ","HOUSE_NO":"２３號六樓之９","E_COORD97":164379.32000000001,"N_COORD97":2543830.0600000001,"ADDRESS":"育平七街８０巷２３號六樓之９","OBJECTID":388418},"geometry":{"x":164379.32000000123,"y":2543830.0600000005}},{"attributes":{"ID":388443,"DIS_CODE":0,"TOWNNAME":"新營區","LI":"護鎮里","LIN":"9鄰","STREET":"建國路","SECT":" ","MAREA":" ","LANE":"３１３巷","ALLEY":" ","HOUSE_NO":"５號","E_COORD97":178494.26706799999,"N_COORD97":2580989.1025800002,"ADDRESS":"建國路３１３巷５號","OBJECTID":388419},"geometry":{"x":178494.26706800144,"y":2580989.1025760025}},{"attributes":{"ID":388444,"DIS_CODE":0,"TOWNNAME":"安平區","LI":"平通里","LIN":"28鄰","STREET":"育平七街","SECT":" ","MAREA":" ","LANE":"８０巷","ALLEY":" ","HOUSE_NO":"２３號四樓之１","E_COORD97":164379.32000000001,"N_COORD97":2543830.0600000001,"ADDRESS":"育平七街８０巷２３號四樓之１","OBJECTID":388420},"geometry":{"x":164379.32000000123,"y":2543830.0600000005}},{"attributes":{"ID":388445,"DIS_CODE":0,"TOWNNAME":"安平區","LI":"平通里","LIN":"28鄰","STREET":"育平七街","SECT":" ","MAREA":" ","LANE":"８０巷","ALLEY":" ","HOUSE_NO":"２３號四樓之１０","E_COORD97":164379.32000000001,"N_COORD97":2543830.0600000001,"ADDRESS":"育平七街８０巷２３號四樓之１０","OBJECTID":388421},"geometry":{"x":164379.32000000123,"y":2543830.0600000005}},{"attributes":{"ID":388446,"DIS_CODE":0,"TOWNNAME":"安平區","LI":"平通里","LIN":"28鄰","STREET":"育平七街","SECT":" ","MAREA":" ","LANE":"８０巷","ALLEY":" ","HOUSE_NO":"２３號四樓之１１","E_COORD97":164379.32000000001,"N_COORD97":2543830.0600000001,"ADDRESS":"育平七街８０巷２３號四樓之１１","OBJECTID":388422},"geometry":{"x":164379.32000000123,"y":2543830.0600000005}},{"attributes":{"ID":388447,"DIS_CODE":0,"TOWNNAME":"安平區","LI":"平通里","LIN":"28鄰","STREET":"育平七街","SECT":" ","MAREA":" ","LANE":"８０巷","ALLEY":" ","HOUSE_NO":"２３號四樓之２","E_COORD97":164379.32000000001,"N_COORD97":2543830.0600000001,"ADDRESS":"育平七街８０巷２３號四樓之２","OBJECTID":388423},"geometry":{"x":164379.32000000123,"y":2543830.0600000005}},{"attributes":{"ID":388448,"DIS_CODE":0,"TOWNNAME":"安平區","LI":"平通里","LIN":"28鄰","STREET":"育平七街","SECT":" ","MAREA":" ","LANE":"８０巷","ALLEY":" ","HOUSE_NO":"２３號四樓之３","E_COORD97":164379.32000000001,"N_COORD97":2543830.0600000001,"ADDRESS":"育平七街８０巷２３號四樓之３","OBJECTID":388424},"geometry":{"x":164379.32000000123,"y":2543830.0600000005}},{"attributes":{"ID":388449,"DIS_CODE":0,"TOWNNAME":"安平區","LI":"平通里","LIN":"28鄰","STREET":"育平七街","SECT":" ","MAREA":" ","LANE":"８０巷","ALLEY":" ","HOUSE_NO":"２３號四樓之４","E_COORD97":164379.32000000001,"N_COORD97":2543830.0600000001,"ADDRESS":"育平七街８０巷２３號四樓之４","OBJECTID":388425},"geometry":{"x":164379.32000000123,"y":2543830.0600000005}},{"attributes":{"ID":388450,"DIS_CODE":0,"TOWNNAME":"安平區","LI":"平通里","LIN":"28鄰","STREET":"育平七街","SECT":" ","MAREA":" ","LANE":"８０巷","ALLEY":" ","HOUSE_NO":"２３號四樓之５","E_COORD97":164379.32000000001,"N_COORD97":2543830.0600000001,"ADDRESS":"育平七街８０巷２３號四樓之５","OBJECTID":388426},"geometry":{"x":164379.32000000123,"y":2543830.0600000005}},{"attributes":{"ID":388451,"DIS_CODE":0,"TOWNNAME":"安平區","LI":"平通里","LIN":"28鄰","STREET":"育平七街","SECT":" ","MAREA":" ","LANE":"８０巷","ALLEY":" ","HOUSE_NO":"２３號四樓之６","E_COORD97":164379.32000000001,"N_COORD97":2543830.0600000001,"ADDRESS":"育平七街８０巷２３號四樓之６","OBJECTID":388427},"geometry":{"x":164379.32000000123,"y":2543830.0600000005}},{"attributes":{"ID":388452,"DIS_CODE":0,"TOWNNAME":"安平區","LI":"平通里","LIN":"28鄰","STREET":"育平七街","SECT":" ","MAREA":" ","LANE":"８０巷","ALLEY":" ","HOUSE_NO":"２３號四樓之７","E_COORD97":164379.32000000001,"N_COORD97":2543830.0600000001,"ADDRESS":"育平七街８０巷２３號四樓之７","OBJECTID":388428},"geometry":{"x":164379.32000000123,"y":2543830.0600000005}},{"attributes":{"ID":388453,"DIS_CODE":0,"TOWNNAME":"安平區","LI":"平通里","LIN":"28鄰","STREET":"育平七街","SECT":" ","MAREA":" ","LANE":"８０巷","ALLEY":" ","HOUSE_NO":"２３號四樓之８","E_COORD97":164379.32000000001,"N_COORD97":2543830.0600000001,"ADDRESS":"育平七街８０巷２３號四樓之８","OBJECTID":388429},"geometry":{"x":164379.32000000123,"y":2543830.0600000005}},{"attributes":{"ID":388454,"DIS_CODE":0,"TOWNNAME":"安平區","LI":"平通里","LIN":"28鄰","STREET":"育平七街","SECT":" ","MAREA":" ","LANE":"８０巷","ALLEY":" ","HOUSE_NO":"２３號四樓之９","E_COORD97":164379.32000000001,"N_COORD97":2543830.0600000001,"ADDRESS":"育平七街８０巷２３號四樓之９","OBJECTID":388430},"geometry":{"x":164379.32000000123,"y":2543830.0600000005}},{"attributes":{"ID":388455,"DIS_CODE":0,"TOWNNAME":"南區","LI":"金華里","LIN":"28鄰","STREET":"健康路","SECT":"二段","MAREA":" ","LANE":"４０１巷","ALLEY":" ","HOUSE_NO":"１０號二樓","E_COORD97":166572.22,"N_COORD97":2542470.2999999998,"ADDRESS":"健康路二段４０１巷１０號二樓","OBJECTID":388431},"geometry":{"x":166572.2200000016,"y":2542470.3000000045}},{"attributes":{"ID":388456,"DIS_CODE":0,"TOWNNAME":"南區","LI":"金華里","LIN":"28鄰","STREET":"健康路","SECT":"二段","MAREA":" ","LANE":"４０１巷","ALLEY":" ","HOUSE_NO":"１０號三樓","E_COORD97":166572.22,"N_COORD97":2542470.2999999998,"ADDRESS":"健康路二段４０１巷１０號三樓","OBJECTID":388432},"geometry":{"x":166572.2200000016,"y":2542470.3000000045}},{"attributes":{"ID":388457,"DIS_CODE":0,"TOWNNAME":"南區","LI":"金華里","LIN":"28鄰","STREET":"健康路","SECT":"二段","MAREA":" ","LANE":"４０１巷","ALLEY":" ","HOUSE_NO":"１０號五樓","E_COORD97":166572.22,"N_COORD97":2542470.2999999998,"ADDRESS":"健康路二段４０１巷１０號五樓","OBJECTID":388433},"geometry":{"x":166572.2200000016,"y":2542470.3000000045}},{"attributes":{"ID":388458,"DIS_CODE":0,"TOWNNAME":"南區","LI":"金華里","LIN":"28鄰","STREET":"健康路","SECT":"二段","MAREA":" ","LANE":"４０１巷","ALLEY":" ","HOUSE_NO":"１０號四樓","E_COORD97":166572.22,"N_COORD97":2542470.2999999998,"ADDRESS":"健康路二段４０１巷１０號四樓","OBJECTID":388434},"geometry":{"x":166572.2200000016,"y":2542470.3000000045}},{"attributes":{"ID":388459,"DIS_CODE":0,"TOWNNAME":"南區","LI":"金華里","LIN":"28鄰","STREET":"健康路","SECT":"二段","MAREA":" ","LANE":"４０１巷","ALLEY":" ","HOUSE_NO":"１２號二樓","E_COORD97":166568.95000000001,"N_COORD97":2542461.7400000002,"ADDRESS":"健康路二段４０１巷１２號二樓","OBJECTID":388435},"geometry":{"x":166568.95000000019,"y":2542461.7400000002}},{"attributes":{"ID":388460,"DIS_CODE":0,"TOWNNAME":"南區","LI":"金華里","LIN":"28鄰","STREET":"健康路","SECT":"二段","MAREA":" ","LANE":"４０１巷","ALLEY":" ","HOUSE_NO":"１２號三樓","E_COORD97":166568.95000000001,"N_COORD97":2542461.7400000002,"ADDRESS":"健康路二段４０１巷１２號三樓","OBJECTID":388436},"geometry":{"x":166568.95000000019,"y":2542461.7400000002}},{"attributes":{"ID":388461,"DIS_CODE":0,"TOWNNAME":"南區","LI":"金華里","LIN":"28鄰","STREET":"健康路","SECT":"二段","MAREA":" ","LANE":"４０１巷","ALLEY":" ","HOUSE_NO":"１２號五樓","E_COORD97":166568.95000000001,"N_COORD97":2542461.7400000002,"ADDRESS":"健康路二段４０１巷１２號五樓","OBJECTID":388437},"geometry":{"x":166568.95000000019,"y":2542461.7400000002}},{"attributes":{"ID":388462,"DIS_CODE":0,"TOWNNAME":"南區","LI":"金華里","LIN":"28鄰","STREET":"健康路","SECT":"二段","MAREA":" ","LANE":"４０１巷","ALLEY":" ","HOUSE_NO":"１２號四樓","E_COORD97":166568.95000000001,"N_COORD97":2542461.7400000002,"ADDRESS":"健康路二段４０１巷１２號四樓","OBJECTID":388438},"geometry":{"x":166568.95000000019,"y":2542461.7400000002}},{"attributes":{"ID":388463,"DIS_CODE":0,"TOWNNAME":"南區","LI":"金華里","LIN":"28鄰","STREET":"健康路","SECT":"二段","MAREA":" ","LANE":"４０１巷","ALLEY":" ","HOUSE_NO":"１４號二樓","E_COORD97":166567.48999999999,"N_COORD97":2542454.5299999998,"ADDRESS":"健康路二段４０１巷１４號二樓","OBJECTID":388439},"geometry":{"x":166567.48999999929,"y":2542454.5300000012}},{"attributes":{"ID":388464,"DIS_CODE":0,"TOWNNAME":"南區","LI":"金華里","LIN":"28鄰","STREET":"健康路","SECT":"二段","MAREA":" ","LANE":"４０１巷","ALLEY":" ","HOUSE_NO":"１４號三樓","E_COORD97":166567.48999999999,"N_COORD97":2542454.5299999998,"ADDRESS":"健康路二段４０１巷１４號三樓","OBJECTID":388440},"geometry":{"x":166567.48999999929,"y":2542454.5300000012}},{"attributes":{"ID":388465,"DIS_CODE":0,"TOWNNAME":"南區","LI":"金華里","LIN":"28鄰","STREET":"健康路","SECT":"二段","MAREA":" ","LANE":"４０１巷","ALLEY":" ","HOUSE_NO":"１４號五樓","E_COORD97":166567.48999999999,"N_COORD97":2542454.5299999998,"ADDRESS":"健康路二段４０１巷１４號五樓","OBJECTID":388441},"geometry":{"x":166567.48999999929,"y":2542454.5300000012}},{"attributes":{"ID":388466,"DIS_CODE":0,"TOWNNAME":"南區","LI":"金華里","LIN":"28鄰","STREET":"健康路","SECT":"二段","MAREA":" ","LANE":"４０１巷","ALLEY":" ","HOUSE_NO":"１４號四樓","E_COORD97":166567.48999999999,"N_COORD97":2542454.5299999998,"ADDRESS":"健康路二段４０１巷１４號四樓","OBJECTID":388442},"geometry":{"x":166567.48999999929,"y":2542454.5300000012}},{"attributes":{"ID":388467,"DIS_CODE":0,"TOWNNAME":"南區","LI":"金華里","LIN":"28鄰","STREET":"健康路","SECT":"二段","MAREA":" ","LANE":"４０１巷","ALLEY":" ","HOUSE_NO":"１６號二樓","E_COORD97":166564.56,"N_COORD97":2542446.3599999999,"ADDRESS":"健康路二段４０１巷１６號二樓","OBJECTID":388443},"geometry":{"x":166564.55999999959,"y":2542446.3599999994}},{"attributes":{"ID":388468,"DIS_CODE":0,"TOWNNAME":"南區","LI":"金華里","LIN":"28鄰","STREET":"健康路","SECT":"二段","MAREA":" ","LANE":"４０１巷","ALLEY":" ","HOUSE_NO":"１６號三樓","E_COORD97":166564.56,"N_COORD97":2542446.3599999999,"ADDRESS":"健康路二段４０１巷１６號三樓","OBJECTID":388444},"geometry":{"x":166564.55999999959,"y":2542446.3599999994}},{"attributes":{"ID":388469,"DIS_CODE":0,"TOWNNAME":"南區","LI":"金華里","LIN":"28鄰","STREET":"健康路","SECT":"二段","MAREA":" ","LANE":"４０１巷","ALLEY":" ","HOUSE_NO":"１６號五樓","E_COORD97":166564.56,"N_COORD97":2542446.3599999999,"ADDRESS":"健康路二段４０１巷１６號五樓","OBJECTID":388445},"geometry":{"x":166564.55999999959,"y":2542446.3599999994}},{"attributes":{"ID":388470,"DIS_CODE":0,"TOWNNAME":"南區","LI":"金華里","LIN":"28鄰","STREET":"健康路","SECT":"二段","MAREA":" ","LANE":"４０１巷","ALLEY":" ","HOUSE_NO":"１６號四樓","E_COORD97":166564.56,"N_COORD97":2542446.3599999999,"ADDRESS":"健康路二段４０１巷１６號四樓","OBJECTID":388446},"geometry":{"x":166564.55999999959,"y":2542446.3599999994}},{"attributes":{"ID":388471,"DIS_CODE":0,"TOWNNAME":"善化區","LI":"南關里","LIN":"13鄰","STREET":"自由路","SECT":" ","MAREA":" ","LANE":" ","ALLEY":" ","HOUSE_NO":"１９５號","E_COORD97":176892.70999999999,"N_COORD97":2558919.5,"ADDRESS":"自由路１９５號","OBJECTID":388447},"geometry":{"x":176892.70999999996,"y":2558919.5000000019}},{"attributes":{"ID":388472,"DIS_CODE":0,"TOWNNAME":"新營區","LI":"護鎮里","LIN":"9鄰","STREET":"長榮路","SECT":" ","MAREA":" ","LANE":"４６８巷","ALLEY":" ","HOUSE_NO":"３０５號","E_COORD97":178482.29598,"N_COORD97":2579761.7662399998,"ADDRESS":"長榮路４６８巷３０５號","OBJECTID":388448},"geometry":{"x":178482.29598000087,"y":2579761.7662410028}},{"attributes":{"ID":388473,"DIS_CODE":0,"TOWNNAME":"南區","LI":"金華里","LIN":"28鄰","STREET":"健康路","SECT":"二段","MAREA":" ","LANE":"４０１巷","ALLEY":" ","HOUSE_NO":"１８號二樓","E_COORD97":166562.19,"N_COORD97":2542439.9399999999,"ADDRESS":"健康路二段４０１巷１８號二樓","OBJECTID":388449},"geometry":{"x":166562.19000000041,"y":2542439.9399999995}},{"attributes":{"ID":388474,"DIS_CODE":0,"TOWNNAME":"南區","LI":"金華里","LIN":"28鄰","STREET":"健康路","SECT":"二段","MAREA":" ","LANE":"４０１巷","ALLEY":" ","HOUSE_NO":"１８號三樓","E_COORD97":166562.19,"N_COORD97":2542439.9399999999,"ADDRESS":"健康路二段４０１巷１８號三樓","OBJECTID":388450},"geometry":{"x":166562.19000000041,"y":2542439.9399999995}},{"attributes":{"ID":388475,"DIS_CODE":0,"TOWNNAME":"南區","LI":"金華里","LIN":"28鄰","STREET":"健康路","SECT":"二段","MAREA":" ","LANE":"４０１巷","ALLEY":" ","HOUSE_NO":"１８號五樓","E_COORD97":166562.19,"N_COORD97":2542439.9399999999,"ADDRESS":"健康路二段４０１巷１８號五樓","OBJECTID":388451},"geometry":{"x":166562.19000000041,"y":2542439.9399999995}},{"attributes":{"ID":388476,"DIS_CODE":0,"TOWNNAME":"南區","LI":"金華里","LIN":"28鄰","STREET":"健康路","SECT":"二段","MAREA":" ","LANE":"４０１巷","ALLEY":" ","HOUSE_NO":"１８號四樓","E_COORD97":166562.19,"N_COORD97":2542439.9399999999,"ADDRESS":"健康路二段４０１巷１８號四樓","OBJECTID":388452},"geometry":{"x":166562.19000000041,"y":2542439.9399999995}},{"attributes":{"ID":388477,"DIS_CODE":0,"TOWNNAME":"南區","LI":"金華里","LIN":"28鄰","STREET":"健康路","SECT":"二段","MAREA":" ","LANE":"４０１巷","ALLEY":" ","HOUSE_NO":"２０號二樓","E_COORD97":166559.03,"N_COORD97":2542431.4399999999,"ADDRESS":"健康路二段４０１巷２０號二樓","OBJECTID":388453},"geometry":{"x":166559.03000000119,"y":2542431.4400000013}},{"attributes":{"ID":388478,"DIS_CODE":0,"TOWNNAME":"南區","LI":"金華里","LIN":"28鄰","STREET":"健康路","SECT":"二段","MAREA":" ","LANE":"４０１巷","ALLEY":" ","HOUSE_NO":"２０號三樓","E_COORD97":166559.03,"N_COORD97":2542431.4399999999,"ADDRESS":"健康路二段４０１巷２０號三樓","OBJECTID":388454},"geometry":{"x":166559.03000000119,"y":2542431.4400000013}},{"attributes":{"ID":388479,"DIS_CODE":0,"TOWNNAME":"南區","LI":"金華里","LIN":"28鄰","STREET":"健康路","SECT":"二段","MAREA":" ","LANE":"４０１巷","ALLEY":" ","HOUSE_NO":"２０號五樓","E_COORD97":166559.03,"N_COORD97":2542431.4399999999,"ADDRESS":"健康路二段４０１巷２０號五樓","OBJECTID":388455},"geometry":{"x":166559.03000000119,"y":2542431.4400000013}},{"attributes":{"ID":388480,"DIS_CODE":0,"TOWNNAME":"南區","LI":"金華里","LIN":"28鄰","STREET":"健康路","SECT":"二段","MAREA":" ","LANE":"４０１巷","ALLEY":" ","HOUSE_NO":"２０號四樓","E_COORD97":166559.03,"N_COORD97":2542431.4399999999,"ADDRESS":"健康路二段４０１巷２０號四樓","OBJECTID":388456},"geometry":{"x":166559.03000000119,"y":2542431.4400000013}},{"attributes":{"ID":388481,"DIS_CODE":0,"TOWNNAME":"南區","LI":"金華里","LIN":"28鄰","STREET":"健康路","SECT":"二段","MAREA":" ","LANE":"４０１巷","ALLEY":" ","HOUSE_NO":"２２號二樓","E_COORD97":166558.13,"N_COORD97":2542425.02,"ADDRESS":"健康路二段４０１巷２２號二樓","OBJECTID":388457},"geometry":{"x":166558.13000000082,"y":2542425.0200000014}},{"attributes":{"ID":388482,"DIS_CODE":0,"TOWNNAME":"南區","LI":"金華里","LIN":"28鄰","STREET":"健康路","SECT":"二段","MAREA":" ","LANE":"４０１巷","ALLEY":" ","HOUSE_NO":"２２號三樓","E_COORD97":166558.13,"N_COORD97":2542425.02,"ADDRESS":"健康路二段４０１巷２２號三樓","OBJECTID":388458},"geometry":{"x":166558.13000000082,"y":2542425.0200000014}},{"attributes":{"ID":388483,"DIS_CODE":0,"TOWNNAME":"南區","LI":"金華里","LIN":"28鄰","STREET":"健康路","SECT":"二段","MAREA":" ","LANE":"４０１巷","ALLEY":" ","HOUSE_NO":"２２號五樓","E_COORD97":166558.13,"N_COORD97":2542425.02,"ADDRESS":"健康路二段４０１巷２２號五樓","OBJECTID":388459},"geometry":{"x":166558.13000000082,"y":2542425.0200000014}},{"attributes":{"ID":388484,"DIS_CODE":0,"TOWNNAME":"南區","LI":"金華里","LIN":"28鄰","STREET":"健康路","SECT":"二段","MAREA":" ","LANE":"４０１巷","ALLEY":" ","HOUSE_NO":"２２號四樓","E_COORD97":166558.13,"N_COORD97":2542425.02,"ADDRESS":"健康路二段４０１巷２２號四樓","OBJECTID":388460},"geometry":{"x":166558.13000000082,"y":2542425.0200000014}},{"attributes":{"ID":388485,"DIS_CODE":0,"TOWNNAME":"南區","LI":"金華里","LIN":"28鄰","STREET":"健康路","SECT":"二段","MAREA":" ","LANE":"４０１巷","ALLEY":" ","HOUSE_NO":"２４號二樓","E_COORD97":166555.98000000001,"N_COORD97":2542417.3599999999,"ADDRESS":"健康路二段４０１巷２４號二樓","OBJECTID":388461},"geometry":{"x":166555.98000000231,"y":2542417.3599999975}},{"attributes":{"ID":388486,"DIS_CODE":0,"TOWNNAME":"南區","LI":"金華里","LIN":"28鄰","STREET":"健康路","SECT":"二段","MAREA":" ","LANE":"４０１巷","ALLEY":" ","HOUSE_NO":"２４號三樓","E_COORD97":166555.98000000001,"N_COORD97":2542417.3599999999,"ADDRESS":"健康路二段４０１巷２４號三樓","OBJECTID":388462},"geometry":{"x":166555.98000000231,"y":2542417.3599999975}},{"attributes":{"ID":388487,"DIS_CODE":0,"TOWNNAME":"南區","LI":"金華里","LIN":"28鄰","STREET":"健康路","SECT":"二段","MAREA":" ","LANE":"４０１巷","ALLEY":" ","HOUSE_NO":"２４號五樓","E_COORD97":166555.98000000001,"N_COORD97":2542417.3599999999,"ADDRESS":"健康路二段４０１巷２４號五樓","OBJECTID":388463},"geometry":{"x":166555.98000000231,"y":2542417.3599999975}},{"attributes":{"ID":388488,"DIS_CODE":0,"TOWNNAME":"南區","LI":"金華里","LIN":"28鄰","STREET":"健康路","SECT":"二段","MAREA":" ","LANE":"４０１巷","ALLEY":" ","HOUSE_NO":"２４號四樓","E_COORD97":166555.98000000001,"N_COORD97":2542417.3599999999,"ADDRESS":"健康路二段４０１巷２４號四樓","OBJECTID":388464},"geometry":{"x":166555.98000000231,"y":2542417.3599999975}},{"attributes":{"ID":388489,"DIS_CODE":0,"TOWNNAME":"南區","LI":"金華里","LIN":"28鄰","STREET":"健康路","SECT":"二段","MAREA":" ","LANE":"４０１巷","ALLEY":" ","HOUSE_NO":"２號二樓","E_COORD97":166579.10999999999,"N_COORD97":2542497.3999999999,"ADDRESS":"健康路二段４０１巷２號二樓","OBJECTID":388465},"geometry":{"x":166579.11000000127,"y":2542497.4000000022}},{"attributes":{"ID":388490,"DIS_CODE":0,"TOWNNAME":"南區","LI":"金華里","LIN":"28鄰","STREET":"健康路","SECT":"二段","MAREA":" ","LANE":"４０１巷","ALLEY":" ","HOUSE_NO":"２號五樓","E_COORD97":166579.10999999999,"N_COORD97":2542497.3999999999,"ADDRESS":"健康路二段４０１巷２號五樓","OBJECTID":388466},"geometry":{"x":166579.11000000127,"y":2542497.4000000022}},{"attributes":{"ID":388491,"DIS_CODE":0,"TOWNNAME":"南區","LI":"金華里","LIN":"28鄰","STREET":"健康路","SECT":"二段","MAREA":" ","LANE":"４０１巷","ALLEY":" ","HOUSE_NO":"２號四樓","E_COORD97":166579.10999999999,"N_COORD97":2542497.3999999999,"ADDRESS":"健康路二段４０１巷２號四樓","OBJECTID":388467},"geometry":{"x":166579.11000000127,"y":2542497.4000000022}},{"attributes":{"ID":388492,"DIS_CODE":0,"TOWNNAME":"南區","LI":"金華里","LIN":"28鄰","STREET":"健康路","SECT":"二段","MAREA":" ","LANE":"４０１巷","ALLEY":" ","HOUSE_NO":"４號二樓","E_COORD97":166577.20000000001,"N_COORD97":2542490.23,"ADDRESS":"健康路二段４０１巷４號二樓","OBJECTID":388468},"geometry":{"x":166577.20000000019,"y":2542490.2300000004}},{"attributes":{"ID":388493,"DIS_CODE":0,"TOWNNAME":"南區","LI":"金華里","LIN":"28鄰","STREET":"健康路","SECT":"二段","MAREA":" ","LANE":"４０１巷","ALLEY":" ","HOUSE_NO":"４號三樓","E_COORD97":166577.20000000001,"N_COORD97":2542490.23,"ADDRESS":"健康路二段４０１巷４號三樓","OBJECTID":388469},"geometry":{"x":166577.20000000019,"y":2542490.2300000004}},{"attributes":{"ID":388494,"DIS_CODE":0,"TOWNNAME":"南區","LI":"金華里","LIN":"28鄰","STREET":"健康路","SECT":"二段","MAREA":" ","LANE":"４０１巷","ALLEY":" ","HOUSE_NO":"４號五樓","E_COORD97":166577.20000000001,"N_COORD97":2542490.23,"ADDRESS":"健康路二段４０１巷４號五樓","OBJECTID":388470},"geometry":{"x":166577.20000000019,"y":2542490.2300000004}},{"attributes":{"ID":388495,"DIS_CODE":0,"TOWNNAME":"南區","LI":"金華里","LIN":"28鄰","STREET":"健康路","SECT":"二段","MAREA":" ","LANE":"４０１巷","ALLEY":" ","HOUSE_NO":"４號四樓","E_COORD97":166577.20000000001,"N_COORD97":2542490.23,"ADDRESS":"健康路二段４０１巷４號四樓","OBJECTID":388471},"geometry":{"x":166577.20000000019,"y":2542490.2300000004}},{"attributes":{"ID":388496,"DIS_CODE":0,"TOWNNAME":"南區","LI":"金華里","LIN":"28鄰","STREET":"健康路","SECT":"二段","MAREA":" ","LANE":"４０１巷","ALLEY":" ","HOUSE_NO":"６號二樓","E_COORD97":166576,"N_COORD97":2542484.7400000002,"ADDRESS":"健康路二段４０１巷６號二樓","OBJECTID":388472},"geometry":{"x":166576.00000000093,"y":2542484.7400000021}},{"attributes":{"ID":388497,"DIS_CODE":0,"TOWNNAME":"南區","LI":"金華里","LIN":"28鄰","STREET":"健康路","SECT":"二段","MAREA":" ","LANE":"４０１巷","ALLEY":" ","HOUSE_NO":"６號三樓","E_COORD97":166576,"N_COORD97":2542484.7400000002,"ADDRESS":"健康路二段４０１巷６號三樓","OBJECTID":388473},"geometry":{"x":166576.00000000093,"y":2542484.7400000021}},{"attributes":{"ID":388498,"DIS_CODE":0,"TOWNNAME":"南區","LI":"金華里","LIN":"28鄰","STREET":"健康路","SECT":"二段","MAREA":" ","LANE":"４０１巷","ALLEY":" ","HOUSE_NO":"６號五樓","E_COORD97":166576,"N_COORD97":2542484.7400000002,"ADDRESS":"健康路二段４０１巷６號五樓","OBJECTID":388474},"geometry":{"x":166576.00000000093,"y":2542484.7400000021}},{"attributes":{"ID":388499,"DIS_CODE":0,"TOWNNAME":"南區","LI":"金華里","LIN":"28鄰","STREET":"健康路","SECT":"二段","MAREA":" ","LANE":"４０１巷","ALLEY":" ","HOUSE_NO":"６號四樓","E_COORD97":166576,"N_COORD97":2542484.7400000002,"ADDRESS":"健康路二段４０１巷６號四樓","OBJECTID":388475},"geometry":{"x":166576.00000000093,"y":2542484.7400000021}},{"attributes":{"ID":388500,"DIS_CODE":0,"TOWNNAME":"南區","LI":"金華里","LIN":"28鄰","STREET":"健康路","SECT":"二段","MAREA":" ","LANE":"４０１巷","ALLEY":" ","HOUSE_NO":"８號二樓","E_COORD97":166573.37,"N_COORD97":2542474.71,"ADDRESS":"健康路二段４０１巷８號二樓","OBJECTID":388476},"geometry":{"x":166573.37000000197,"y":2542474.7100000028}},{"attributes":{"ID":388501,"DIS_CODE":0,"TOWNNAME":"善化區","LI":"南關里","LIN":"13鄰","STREET":"復興街","SECT":" ","MAREA":" ","LANE":" ","ALLEY":" ","HOUSE_NO":"７３之４號","E_COORD97":176891.57999999999,"N_COORD97":2559010.02,"ADDRESS":"復興街７３之４號","OBJECTID":388477},"geometry":{"x":176891.58000000007,"y":2559010.0200000014}},{"attributes":{"ID":388502,"DIS_CODE":0,"TOWNNAME":"仁德區","LI":"太子里","LIN":"15鄰","STREET":"太子北路","SECT":" ","MAREA":" ","LANE":"１２０巷","ALLEY":" ","HOUSE_NO":"２號","E_COORD97":174086.44986399999,"N_COORD97":2543700.5748999999,"ADDRESS":"太子北路１２０巷２號","OBJECTID":388478},"geometry":{"x":174086.44986400194,"y":2543700.5748970006}},{"attributes":{"ID":388503,"DIS_CODE":0,"TOWNNAME":"南區","LI":"金華里","LIN":"28鄰","STREET":"健康路","SECT":"二段","MAREA":" ","LANE":"４０１巷","ALLEY":" ","HOUSE_NO":"８號三樓","E_COORD97":166573.37,"N_COORD97":2542474.71,"ADDRESS":"健康路二段４０１巷８號三樓","OBJECTID":388479},"geometry":{"x":166573.37000000197,"y":2542474.7100000028}},{"attributes":{"ID":388504,"DIS_CODE":0,"TOWNNAME":"南區","LI":"金華里","LIN":"28鄰","STREET":"健康路","SECT":"二段","MAREA":" ","LANE":"４０１巷","ALLEY":" ","HOUSE_NO":"８號五樓","E_COORD97":166573.37,"N_COORD97":2542474.71,"ADDRESS":"健康路二段４０１巷８號五樓","OBJECTID":388480},"geometry":{"x":166573.37000000197,"y":2542474.7100000028}},{"attributes":{"ID":388505,"DIS_CODE":0,"TOWNNAME":"南區","LI":"金華里","LIN":"28鄰","STREET":"健康路","SECT":"二段","MAREA":" ","LANE":"４０１巷","ALLEY":" ","HOUSE_NO":"８號四樓","E_COORD97":166573.37,"N_COORD97":2542474.71,"ADDRESS":"健康路二段４０１巷８號四樓","OBJECTID":388481},"geometry":{"x":166573.37000000197,"y":2542474.7100000028}},{"attributes":{"ID":388506,"DIS_CODE":0,"TOWNNAME":"安南區","LI":"安富里","LIN":"1鄰","STREET":"郡安路","SECT":"五段","MAREA":" ","LANE":"１９２巷","ALLEY":" ","HOUSE_NO":"１７號","E_COORD97":167375.92999999999,"N_COORD97":2547723.5499999998,"ADDRESS":"郡安路五段１９２巷１７號","OBJECTID":388482},"geometry":{"x":167375.92999999877,"y":2547723.5500000045}},{"attributes":{"ID":388507,"DIS_CODE":0,"TOWNNAME":"永康區","LI":"復華里","LIN":"28鄰","STREET":"復華八街","SECT":" ","MAREA":" ","LANE":"４３巷","ALLEY":" ","HOUSE_NO":"１５號","E_COORD97":172706.62,"N_COORD97":2546305.2400000002,"ADDRESS":"復華八街４３巷１５號","OBJECTID":388483},"geometry":{"x":172706.62000000197,"y":2546305.2400000021}},{"attributes":{"ID":388508,"DIS_CODE":0,"TOWNNAME":"永康區","LI":"復興里","LIN":"28鄰","STREET":"興國街","SECT":" ","MAREA":" ","LANE":"１８７巷","ALLEY":" ","HOUSE_NO":"３號","E_COORD97":172324.45999999999,"N_COORD97":2544827.7400000002,"ADDRESS":"興國街１８７巷３號","OBJECTID":388484},"geometry":{"x":172324.46000000183,"y":2544827.7400000021}},{"attributes":{"ID":388509,"DIS_CODE":0,"TOWNNAME":"永康區","LI":"復華里","LIN":"28鄰","STREET":"復華八街","SECT":" ","MAREA":" ","LANE":"４３巷","ALLEY":" ","HOUSE_NO":"２０號","E_COORD97":172711.63,"N_COORD97":2546323.5299999998,"ADDRESS":"復華八街４３巷２０號","OBJECTID":388485},"geometry":{"x":172711.63000000082,"y":2546323.5300000012}},{"attributes":{"ID":388510,"DIS_CODE":0,"TOWNNAME":"永康區","LI":"勝利里","LIN":"28鄰","STREET":"勝利街","SECT":" ","MAREA":" ","LANE":"３２巷","ALLEY":" ","HOUSE_NO":"２１號","E_COORD97":171396.06,"N_COORD97":2544599.5,"ADDRESS":"勝利街３２巷２１號","OBJECTID":388486},"geometry":{"x":171396.06000000145,"y":2544599.5}},{"attributes":{"ID":388511,"DIS_CODE":0,"TOWNNAME":"東區","LI":"崇信里","LIN":"28鄰","STREET":"崇善一街","SECT":" ","MAREA":" ","LANE":"３巷","ALLEY":" ","HOUSE_NO":"１１號","E_COORD97":170659.73000000001,"N_COORD97":2542153.9399999999,"ADDRESS":"崇善一街３巷１１號","OBJECTID":388487},"geometry":{"x":170659.73000000045,"y":2542153.9400000013}},{"attributes":{"ID":388512,"DIS_CODE":0,"TOWNNAME":"東區","LI":"崇信里","LIN":"28鄰","STREET":"崇善一街","SECT":" ","MAREA":" ","LANE":"３巷","ALLEY":" ","HOUSE_NO":"１３號","E_COORD97":170656.48999999999,"N_COORD97":2542156.8199999998,"ADDRESS":"崇善一街３巷１３號","OBJECTID":388488},"geometry":{"x":170656.49000000209,"y":2542156.8200000003}},{"attributes":{"ID":388513,"DIS_CODE":0,"TOWNNAME":"東區","LI":"崇信里","LIN":"28鄰","STREET":"崇善一街","SECT":" ","MAREA":" ","LANE":"３巷","ALLEY":" ","HOUSE_NO":"１５號","E_COORD97":170652.88,"N_COORD97":2542158.2599999998,"ADDRESS":"崇善一街３巷１５號","OBJECTID":388489},"geometry":{"x":170652.87999999989,"y":2542158.2600000016}},{"attributes":{"ID":388514,"DIS_CODE":0,"TOWNNAME":"東區","LI":"崇信里","LIN":"28鄰","STREET":"崇善一街","SECT":" ","MAREA":" ","LANE":"３巷","ALLEY":" ","HOUSE_NO":"１７號","E_COORD97":170649.45000000001,"N_COORD97":2542161.1400000001,"ADDRESS":"崇善一街３巷１７號","OBJECTID":388490},"geometry":{"x":170649.45000000019,"y":2542161.1400000006}},{"attributes":{"ID":388515,"DIS_CODE":0,"TOWNNAME":"東區","LI":"崇信里","LIN":"28鄰","STREET":"崇善一街","SECT":" ","MAREA":" ","LANE":"３巷","ALLEY":" ","HOUSE_NO":"１９號","E_COORD97":170646.92999999999,"N_COORD97":2542163.8500000001,"ADDRESS":"崇善一街３巷１９號","OBJECTID":388491},"geometry":{"x":170646.9299999997,"y":2542163.8500000015}},{"attributes":{"ID":388516,"DIS_CODE":0,"TOWNNAME":"東區","LI":"崇信里","LIN":"28鄰","STREET":"崇善一街","SECT":" ","MAREA":" ","LANE":"３巷","ALLEY":" ","HOUSE_NO":"２１號","E_COORD97":170644.39999999999,"N_COORD97":2542166.9100000001,"ADDRESS":"崇善一街３巷２１號","OBJECTID":388492},"geometry":{"x":170644.4000000013,"y":2542166.9099999983}},{"attributes":{"ID":388517,"DIS_CODE":0,"TOWNNAME":"東區","LI":"崇信里","LIN":"28鄰","STREET":"崇善一街","SECT":" ","MAREA":" ","LANE":"３巷","ALLEY":" ","HOUSE_NO":"２３號","E_COORD97":170640.98000000001,"N_COORD97":2542169.4300000002,"ADDRESS":"崇善一街３巷２３號","OBJECTID":388493},"geometry":{"x":170640.98000000045,"y":2542169.4299999997}},{"attributes":{"ID":388518,"DIS_CODE":0,"TOWNNAME":"東區","LI":"崇信里","LIN":"28鄰","STREET":"崇善一街","SECT":" ","MAREA":" ","LANE":"３巷","ALLEY":" ","HOUSE_NO":"２５號","E_COORD97":170637.91,"N_COORD97":2542171.5899999999,"ADDRESS":"崇善一街３巷２５號","OBJECTID":388494},"geometry":{"x":170637.91000000015,"y":2542171.5899999999}},{"attributes":{"ID":388519,"DIS_CODE":0,"TOWNNAME":"東區","LI":"崇信里","LIN":"28鄰","STREET":"崇善一街","SECT":" ","MAREA":" ","LANE":"３巷","ALLEY":" ","HOUSE_NO":"２７號","E_COORD97":170632.5,"N_COORD97":2542171.5899999999,"ADDRESS":"崇善一街３巷２７號","OBJECTID":388495},"geometry":{"x":170632.50000000093,"y":2542171.5899999999}},{"attributes":{"ID":388520,"DIS_CODE":0,"TOWNNAME":"東區","LI":"崇信里","LIN":"28鄰","STREET":"崇善一街","SECT":" ","MAREA":" ","LANE":"３巷","ALLEY":" ","HOUSE_NO":"２９號","E_COORD97":170628.54000000001,"N_COORD97":2542173.75,"ADDRESS":"崇善一街３巷２９號","OBJECTID":388496},"geometry":{"x":170628.54000000004,"y":2542173.75}},{"attributes":{"ID":388521,"DIS_CODE":0,"TOWNNAME":"東區","LI":"崇信里","LIN":"28鄰","STREET":"崇善一街","SECT":" ","MAREA":" ","LANE":"３巷","ALLEY":" ","HOUSE_NO":"３１號","E_COORD97":170625.29000000001,"N_COORD97":2542176.6299999999,"ADDRESS":"崇善一街３巷３１號","OBJECTID":388497},"geometry":{"x":170625.2900000019,"y":2542176.629999999}},{"attributes":{"ID":388522,"DIS_CODE":0,"TOWNNAME":"東區","LI":"崇信里","LIN":"28鄰","STREET":"崇善一街","SECT":" ","MAREA":" ","LANE":"３巷","ALLEY":" ","HOUSE_NO":"３３號","E_COORD97":170622.76999999999,"N_COORD97":2542179.6899999999,"ADDRESS":"崇善一街３巷３３號","OBJECTID":388498},"geometry":{"x":170622.76999999955,"y":2542179.6900000013}},{"attributes":{"ID":388523,"DIS_CODE":0,"TOWNNAME":"東區","LI":"崇信里","LIN":"28鄰","STREET":"崇善一街","SECT":" ","MAREA":" ","LANE":"３巷","ALLEY":" ","HOUSE_NO":"３５號","E_COORD97":170619.51999999999,"N_COORD97":2542182.2200000002,"ADDRESS":"崇善一街３巷３５號","OBJECTID":388499},"geometry":{"x":170619.51999999955,"y":2542182.2199999988}},{"attributes":{"ID":388524,"DIS_CODE":0,"TOWNNAME":"東區","LI":"崇信里","LIN":"28鄰","STREET":"崇善一街","SECT":" ","MAREA":" ","LANE":"３巷","ALLEY":" ","HOUSE_NO":"３７號","E_COORD97":170615.91,"N_COORD97":2542185.1000000001,"ADDRESS":"崇善一街３巷３７號","OBJECTID":388500},"geometry":{"x":170615.91000000015,"y":2542185.0999999996}},{"attributes":{"ID":388525,"DIS_CODE":0,"TOWNNAME":"佳里區","LI":"安西里","LIN":"28鄰","STREET":"忠孝路","SECT":" ","MAREA":" ","LANE":"２２９巷","ALLEY":" ","HOUSE_NO":"１０號","E_COORD97":165218.13,"N_COORD97":2563125.25,"ADDRESS":"忠孝路２２９巷１０號","OBJECTID":388501},"geometry":{"x":165218.12999999989,"y":2563125.2500000019}},{"attributes":{"ID":388526,"DIS_CODE":0,"TOWNNAME":"佳里區","LI":"安西里","LIN":"28鄰","STREET":"忠孝路","SECT":" ","MAREA":" ","LANE":"２２９巷","ALLEY":" ","HOUSE_NO":"１２號","E_COORD97":165215.45000000001,"N_COORD97":2563121.8599999999,"ADDRESS":"忠孝路２２９巷１２號","OBJECTID":388502},"geometry":{"x":165215.45000000112,"y":2563121.8599999994}},{"attributes":{"ID":388527,"DIS_CODE":0,"TOWNNAME":"佳里區","LI":"安西里","LIN":"28鄰","STREET":"忠孝路","SECT":" ","MAREA":" ","LANE":"２２９巷","ALLEY":" ","HOUSE_NO":"１６號","E_COORD97":165212.57000000001,"N_COORD97":2563118.77,"ADDRESS":"忠孝路２２９巷１６號","OBJECTID":388503},"geometry":{"x":165212.56999999937,"y":2563118.7699999996}},{"attributes":{"ID":388528,"DIS_CODE":0,"TOWNNAME":"佳里區","LI":"安西里","LIN":"28鄰","STREET":"忠孝路","SECT":" ","MAREA":" ","LANE":"２２９巷","ALLEY":" ","HOUSE_NO":"１８號","E_COORD97":165210.10999999999,"N_COORD97":2563115.3399999999,"ADDRESS":"忠孝路２２９巷１８號","OBJECTID":388504},"geometry":{"x":165210.11000000034,"y":2563115.3399999999}},{"attributes":{"ID":388529,"DIS_CODE":0,"TOWNNAME":"佳里區","LI":"安西里","LIN":"28鄰","STREET":"忠孝路","SECT":" ","MAREA":" ","LANE":"２７９巷","ALLEY":" ","HOUSE_NO":"３２號","E_COORD97":165106.67999999999,"N_COORD97":2563113.1499999999,"ADDRESS":"忠孝路２７９巷３２號","OBJECTID":388505},"geometry":{"x":165106.68000000063,"y":2563113.1500000022}},{"attributes":{"ID":388530,"DIS_CODE":0,"TOWNNAME":"佳里區","LI":"安西里","LIN":"28鄰","STREET":"忠孝路","SECT":" ","MAREA":" ","LANE":"２７９巷","ALLEY":" ","HOUSE_NO":"８號","E_COORD97":165143.89999999999,"N_COORD97":2563166.8500000001,"ADDRESS":"忠孝路２７９巷８號","OBJECTID":388506},"geometry":{"x":165143.90000000037,"y":2563166.8500000034}},{"attributes":{"ID":388531,"DIS_CODE":0,"TOWNNAME":"新營區","LI":"大宏里","LIN":"28鄰","STREET":"新東街","SECT":" ","MAREA":" ","LANE":"３４巷","ALLEY":" ","HOUSE_NO":"２之１號","E_COORD97":180805.06,"N_COORD97":2578654.2000000002,"ADDRESS":"新東街３４巷２之１號","OBJECTID":388507},"geometry":{"x":180805.06000000052,"y":2578654.1999999993}},{"attributes":{"ID":388532,"DIS_CODE":0,"TOWNNAME":"新市區","LI":"港墘里","LIN":"28鄰","STREET":"華美街","SECT":" ","MAREA":" ","LANE":"６１巷","ALLEY":" ","HOUSE_NO":"１２號","E_COORD97":178110.95000000001,"N_COORD97":2553034.5499999998,"ADDRESS":"華美街６１巷１２號","OBJECTID":388508},"geometry":{"x":178110.95000000112,"y":2553034.5500000026}},{"attributes":{"ID":388533,"DIS_CODE":0,"TOWNNAME":"新市區","LI":"港墘里","LIN":"28鄰","STREET":"華美街","SECT":" ","MAREA":" ","LANE":"６１巷","ALLEY":" ","HOUSE_NO":"４號","E_COORD97":178125.60000000001,"N_COORD97":2553031.0499999998,"ADDRESS":"華美街６１巷４號","OBJECTID":388509},"geometry":{"x":178125.5999999987,"y":2553031.0500000026}},{"attributes":{"ID":388534,"DIS_CODE":0,"TOWNNAME":"永康區","LI":"甲頂里","LIN":"28鄰","STREET":"中央路","SECT":" ","MAREA":" ","LANE":"２３巷","ALLEY":" ","HOUSE_NO":"８號","E_COORD97":169577.04999999999,"N_COORD97":2547005.5600000001,"ADDRESS":"中央路２３巷８號","OBJECTID":388510},"geometry":{"x":169577.04999999981,"y":2547005.5600000024}},{"attributes":{"ID":388535,"DIS_CODE":0,"TOWNNAME":"永康區","LI":"永康里","LIN":"28鄰","STREET":"永康街","SECT":" ","MAREA":" ","LANE":"３１０巷","ALLEY":" ","HOUSE_NO":"３０號","E_COORD97":174210.79999999999,"N_COORD97":2546971.9700000002,"ADDRESS":"永康街３１０巷３０號","OBJECTID":388511},"geometry":{"x":174210.80000000075,"y":2546971.9700000025}},{"attributes":{"ID":388536,"DIS_CODE":0,"TOWNNAME":"善化區","LI":"光文里","LIN":"13鄰","STREET":"樹人路","SECT":" ","MAREA":" ","LANE":" ","ALLEY":" ","HOUSE_NO":"６４號","E_COORD97":178373.82999999999,"N_COORD97":2559074.25,"ADDRESS":"樹人路６４號","OBJECTID":388512},"geometry":{"x":178373.83000000194,"y":2559074.25}},{"attributes":{"ID":388537,"DIS_CODE":0,"TOWNNAME":"永康區","LI":"甲頂里","LIN":"28鄰","STREET":"中央路","SECT":" ","MAREA":" ","LANE":"２３巷","ALLEY":" ","HOUSE_NO":"２２號","E_COORD97":169540.01000000001,"N_COORD97":2546989.2200000002,"ADDRESS":"中央路２３巷２２號","OBJECTID":388513},"geometry":{"x":169540.00999999978,"y":2546989.2200000007}},{"attributes":{"ID":388538,"DIS_CODE":0,"TOWNNAME":"新營區","LI":"新東里","LIN":"28鄰","STREET":"東光街","SECT":" ","MAREA":" ","LANE":"８８巷","ALLEY":" ","HOUSE_NO":"２５號","E_COORD97":180664.91,"N_COORD97":2579696.9700000002,"ADDRESS":"東光街８８巷２５號","OBJECTID":388514},"geometry":{"x":180664.91000000015,"y":2579696.9700000025}},{"attributes":{"ID":388539,"DIS_CODE":0,"TOWNNAME":"新營區","LI":"南興里","LIN":"28鄰","STREET":"建業路","SECT":" ","MAREA":" ","LANE":"１３７巷","ALLEY":" ","HOUSE_NO":"２７號","E_COORD97":178437.5,"N_COORD97":2577409.6000000001,"ADDRESS":"建業路１３７巷２７號","OBJECTID":388515},"geometry":{"x":178437.50000000093,"y":2577409.6000000015}},{"attributes":{"ID":388540,"DIS_CODE":0,"TOWNNAME":"新營區","LI":"新東里","LIN":"28鄰","STREET":"東光街","SECT":" ","MAREA":" ","LANE":"５１巷","ALLEY":" ","HOUSE_NO":"６號","E_COORD97":180598.98000000001,"N_COORD97":2579657.4100000001,"ADDRESS":"東光街５１巷６號","OBJECTID":388516},"geometry":{"x":180598.98000000231,"y":2579657.4100000001}},{"attributes":{"ID":388541,"DIS_CODE":0,"TOWNNAME":"新營區","LI":"南興里","LIN":"28鄰","STREET":"建業路","SECT":" ","MAREA":" ","LANE":"１１１巷","ALLEY":" ","HOUSE_NO":"１４號","E_COORD97":178489.64000000001,"N_COORD97":2577416,"ADDRESS":"建業路１１１巷１４號","OBJECTID":388517},"geometry":{"x":178489.63999999966,"y":2577416.0000000037}},{"attributes":{"ID":388542,"DIS_CODE":0,"TOWNNAME":"安平區","LI":"建平里","LIN":"28鄰","STREET":"建平八街","SECT":" ","MAREA":" ","LANE":"１０８巷","ALLEY":" ","HOUSE_NO":"５號","E_COORD97":165823.94,"N_COORD97":2543548.2799999998,"ADDRESS":"建平八街１０８巷５號","OBJECTID":388518},"geometry":{"x":165823.94000000227,"y":2543548.2800000012}},{"attributes":{"ID":388543,"DIS_CODE":0,"TOWNNAME":"安平區","LI":"建平里","LIN":"28鄰","STREET":"建平八街","SECT":" ","MAREA":" ","LANE":"１０８巷","ALLEY":" ","HOUSE_NO":"７號","E_COORD97":165821.88,"N_COORD97":2543539.3900000001,"ADDRESS":"建平八街１０８巷７號","OBJECTID":388519},"geometry":{"x":165821.87999999989,"y":2543539.3900000006}},{"attributes":{"ID":388544,"DIS_CODE":0,"TOWNNAME":"安平區","LI":"建平里","LIN":"28鄰","STREET":"建平八街","SECT":" ","MAREA":" ","LANE":"１０８巷","ALLEY":" ","HOUSE_NO":"９號","E_COORD97":165819.97,"N_COORD97":2543533.6699999999,"ADDRESS":"建平八街１０８巷９號","OBJECTID":388520},"geometry":{"x":165819.97000000067,"y":2543533.6699999999}},{"attributes":{"ID":388545,"DIS_CODE":0,"TOWNNAME":"安平區","LI":"建平里","LIN":"28鄰","STREET":"建平八街","SECT":" ","MAREA":" ","LANE":"１０８巷","ALLEY":" ","HOUSE_NO":"１１號","E_COORD97":165824.26000000001,"N_COORD97":2543564.52,"ADDRESS":"建平八街１０８巷１１號","OBJECTID":388521},"geometry":{"x":165824.25999999978,"y":2543564.5199999996}},{"attributes":{"ID":388546,"DIS_CODE":0,"TOWNNAME":"安平區","LI":"建平里","LIN":"28鄰","STREET":"建平八街","SECT":" ","MAREA":" ","LANE":"１０８巷","ALLEY":" ","HOUSE_NO":"１１之２號","E_COORD97":165826.44,"N_COORD97":2543576.6200000001,"ADDRESS":"建平八街１０８巷１１之２號","OBJECTID":388522},"geometry":{"x":165826.44000000134,"y":2543576.620000001}},{"attributes":{"ID":388547,"DIS_CODE":0,"TOWNNAME":"安平區","LI":"建平里","LIN":"28鄰","STREET":"建平八街","SECT":" ","MAREA":" ","LANE":"１０８巷","ALLEY":" ","HOUSE_NO":"１１之３號","E_COORD97":165826.23999999999,"N_COORD97":2543585.3100000001,"ADDRESS":"建平八街１０８巷１１之３號","OBJECTID":388523},"geometry":{"x":165826.24000000022,"y":2543585.3100000042}},{"attributes":{"ID":388548,"DIS_CODE":0,"TOWNNAME":"安平區","LI":"建平里","LIN":"28鄰","STREET":"建平八街","SECT":" ","MAREA":" ","LANE":"１０８巷","ALLEY":" ","HOUSE_NO":"１１之５號","E_COORD97":165824.85000000001,"N_COORD97":2543594.8300000001,"ADDRESS":"建平八街１０８巷１１之５號","OBJECTID":388524},"geometry":{"x":165824.84999999963,"y":2543594.8300000038}},{"attributes":{"ID":388549,"DIS_CODE":0,"TOWNNAME":"柳營區","LI":"東昇里","LIN":"28鄰","STREET":"建國路","SECT":" ","MAREA":" ","LANE":"６巷","ALLEY":" ","HOUSE_NO":"３０號","E_COORD97":180666.09,"N_COORD97":2575253.1600000001,"ADDRESS":"建國路６巷３０號","OBJECTID":388525},"geometry":{"x":180666.09000000078,"y":2575253.160000002}},{"attributes":{"ID":388550,"DIS_CODE":0,"TOWNNAME":"安平區","LI":"建平里","LIN":"28鄰","STREET":"建平八街","SECT":" ","MAREA":" ","LANE":"１０８巷","ALLEY":" ","HOUSE_NO":"１１之１號","E_COORD97":165825.64999999999,"N_COORD97":2543570.6699999999,"ADDRESS":"建平八街１０８巷１１之１號","OBJECTID":388526},"geometry":{"x":165825.65000000037,"y":2543570.6699999999}},{"attributes":{"ID":388551,"DIS_CODE":0,"TOWNNAME":"新營區","LI":"新東里","LIN":"28鄰","STREET":"東興九街","SECT":" ","MAREA":" ","LANE":"１２巷","ALLEY":" ","HOUSE_NO":"７２號","E_COORD97":180610.28,"N_COORD97":2579832.3399999999,"ADDRESS":"東興九街１２巷７２號","OBJECTID":388527},"geometry":{"x":180610.28000000212,"y":2579832.3400000017}},{"attributes":{"ID":388552,"DIS_CODE":0,"TOWNNAME":"新營區","LI":"新東里","LIN":"28鄰","STREET":"東興九街","SECT":" ","MAREA":" ","LANE":"１２巷","ALLEY":" ","HOUSE_NO":"６號","E_COORD97":180710.14999999999,"N_COORD97":2579808.6000000001,"ADDRESS":"東興九街１２巷６號","OBJECTID":388528},"geometry":{"x":180710.1500000013,"y":2579808.6000000034}},{"attributes":{"ID":388553,"DIS_CODE":0,"TOWNNAME":"新營區","LI":"新東里","LIN":"28鄰","STREET":"東興九街","SECT":" ","MAREA":" ","LANE":"１２巷","ALLEY":" ","HOUSE_NO":"２號","E_COORD97":180710.19,"N_COORD97":2579804.1800000002,"ADDRESS":"東興九街１２巷２號","OBJECTID":388529},"geometry":{"x":180710.19000000134,"y":2579804.1799999997}},{"attributes":{"ID":388554,"DIS_CODE":0,"TOWNNAME":"新營區","LI":"新東里","LIN":"28鄰","STREET":"東興九街","SECT":" ","MAREA":" ","LANE":"１２巷","ALLEY":" ","HOUSE_NO":"１號","E_COORD97":180696.75,"N_COORD97":2579788.7400000002,"ADDRESS":"東興九街１２巷１號","OBJECTID":388530},"geometry":{"x":180696.75000000186,"y":2579788.7400000021}},{"attributes":{"ID":388555,"DIS_CODE":0,"TOWNNAME":"新營區","LI":"新東里","LIN":"28鄰","STREET":"東興九街","SECT":" ","MAREA":" ","LANE":"１２巷","ALLEY":" ","HOUSE_NO":"５０號","E_COORD97":180656.29999999999,"N_COORD97":2579834.3300000001,"ADDRESS":"東興九街１２巷５０號","OBJECTID":388531},"geometry":{"x":180656.30000000075,"y":2579834.3300000001}},{"attributes":{"ID":388556,"DIS_CODE":0,"TOWNNAME":"南區","LI":"府南里","LIN":"28鄰","STREET":"大成路","SECT":"二段","MAREA":" ","LANE":"２９巷","ALLEY":" ","HOUSE_NO":"３號","E_COORD97":167624.29000000001,"N_COORD97":2541699.4100000001,"ADDRESS":"大成路二段２９巷３號","OBJECTID":388532},"geometry":{"x":167624.29000000004,"y":2541699.4100000039}},{"attributes":{"ID":388557,"DIS_CODE":0,"TOWNNAME":"南區","LI":"府南里","LIN":"28鄰","STREET":"大成路","SECT":"二段","MAREA":" ","LANE":"２９巷","ALLEY":" ","HOUSE_NO":"４號","E_COORD97":167600.82000000001,"N_COORD97":2541699.5299999998,"ADDRESS":"大成路二段２９巷４號","OBJECTID":388533},"geometry":{"x":167600.8200000003,"y":2541699.5299999993}},{"attributes":{"ID":388558,"DIS_CODE":0,"TOWNNAME":"南區","LI":"府南里","LIN":"28鄰","STREET":"大成路","SECT":"二段","MAREA":" ","LANE":"２９巷","ALLEY":" ","HOUSE_NO":"６號","E_COORD97":167601.17000000001,"N_COORD97":2541695.2799999998,"ADDRESS":"大成路二段２９巷６號","OBJECTID":388534},"geometry":{"x":167601.16999999993,"y":2541695.2799999993}},{"attributes":{"ID":388559,"DIS_CODE":0,"TOWNNAME":"南區","LI":"府南里","LIN":"28鄰","STREET":"大成路","SECT":"二段","MAREA":" ","LANE":"２９巷","ALLEY":" ","HOUSE_NO":"８號","E_COORD97":167600.82000000001,"N_COORD97":2541691.29,"ADDRESS":"大成路二段２９巷８號","OBJECTID":388535},"geometry":{"x":167600.8200000003,"y":2541691.2899999991}},{"attributes":{"ID":388560,"DIS_CODE":0,"TOWNNAME":"南區","LI":"府南里","LIN":"28鄰","STREET":"大成路","SECT":"二段","MAREA":" ","LANE":"２９巷","ALLEY":" ","HOUSE_NO":"９號","E_COORD97":167624.62,"N_COORD97":2541686.6800000002,"ADDRESS":"大成路二段２９巷９號","OBJECTID":388536},"geometry":{"x":167624.62000000104,"y":2541686.6800000034}},{"attributes":{"ID":388561,"DIS_CODE":0,"TOWNNAME":"歸仁區","LI":"後市里","LIN":"28鄰","STREET":"民族北街","SECT":" ","MAREA":" ","LANE":"１７巷","ALLEY":" ","HOUSE_NO":"２號","E_COORD97":177399.63,"N_COORD97":2540892.75,"ADDRESS":"民族北街１７巷２號","OBJECTID":388537},"geometry":{"x":177399.62999999989,"y":2540892.75}},{"attributes":{"ID":388562,"DIS_CODE":0,"TOWNNAME":"歸仁區","LI":"南興里","LIN":"28鄰","STREET":"文化街","SECT":"三段","MAREA":" ","LANE":"７７６巷","ALLEY":" ","HOUSE_NO":"１１號","E_COORD97":175326.26999999999,"N_COORD97":2541245.7599999998,"ADDRESS":"文化街三段７７６巷１１號","OBJECTID":388538},"geometry":{"x":175326.27000000048,"y":2541245.7600000035}},{"attributes":{"ID":388563,"DIS_CODE":0,"TOWNNAME":"歸仁區","LI":"後市里","LIN":"28鄰","STREET":"民族北街","SECT":" ","MAREA":" ","LANE":"１７巷","ALLEY":" ","HOUSE_NO":"３４號","E_COORD97":177333.28,"N_COORD97":2540894.75,"ADDRESS":"民族北街１７巷３４號","OBJECTID":388539},"geometry":{"x":177333.28000000026,"y":2540894.7500000019}},{"attributes":{"ID":388564,"DIS_CODE":0,"TOWNNAME":"歸仁區","LI":"南保里","LIN":"28鄰","STREET":"民權北路","SECT":" ","MAREA":" ","LANE":"６１巷","ALLEY":" ","HOUSE_NO":"３０號","E_COORD97":176890.45999999999,"N_COORD97":2541045.25,"ADDRESS":"民權北路６１巷３０號","OBJECTID":388540},"geometry":{"x":176890.45999999996,"y":2541045.25}},{"attributes":{"ID":388565,"DIS_CODE":0,"TOWNNAME":"歸仁區","LI":"後市里","LIN":"28鄰","STREET":"民族北街","SECT":" ","MAREA":" ","LANE":"１７巷","ALLEY":" ","HOUSE_NO":"１６號","E_COORD97":177381.48000000001,"N_COORD97":2540893.75,"ADDRESS":"民族北街１７巷１６號","OBJECTID":388541},"geometry":{"x":177381.48000000231,"y":2540893.7500000019}},{"attributes":{"ID":388566,"DIS_CODE":0,"TOWNNAME":"歸仁區","LI":"後市里","LIN":"28鄰","STREET":"民族北街","SECT":" ","MAREA":" ","LANE":"１７巷","ALLEY":" ","HOUSE_NO":"１２號","E_COORD97":177390.67999999999,"N_COORD97":2540893.75,"ADDRESS":"民族北街１７巷１２號","OBJECTID":388542},"geometry":{"x":177390.6799999997,"y":2540893.7500000019}},{"attributes":{"ID":388567,"DIS_CODE":0,"TOWNNAME":"六甲區","LI":"甲東里","LIN":"28鄰","STREET":"珊瑚路","SECT":" ","MAREA":" ","LANE":"１２１巷","ALLEY":" ","HOUSE_NO":"１６號","E_COORD97":183964.73000000001,"N_COORD97":2569304.5499999998,"ADDRESS":"珊瑚路１２１巷１６號","OBJECTID":388543},"geometry":{"x":183964.73000000138,"y":2569304.5500000026}},{"attributes":{"ID":388568,"DIS_CODE":0,"TOWNNAME":"六甲區","LI":"甲東里","LIN":"28鄰","STREET":"珊瑚路","SECT":" ","MAREA":" ","LANE":"１２１巷","ALLEY":" ","HOUSE_NO":"１７號","E_COORD97":183953.56,"N_COORD97":2569336.4199999999,"ADDRESS":"珊瑚路１２１巷１７號","OBJECTID":388544},"geometry":{"x":183953.55999999959,"y":2569336.4199999999}},{"attributes":{"ID":388569,"DIS_CODE":0,"TOWNNAME":"六甲區","LI":"甲東里","LIN":"28鄰","STREET":"珊瑚路","SECT":" ","MAREA":" ","LANE":"１２１巷","ALLEY":" ","HOUSE_NO":"１９號","E_COORD97":183955.48999999999,"N_COORD97":2569340.4500000002,"ADDRESS":"珊瑚路１２１巷１９號","OBJECTID":388545},"geometry":{"x":183955.49000000115,"y":2569340.4500000011}},{"attributes":{"ID":388570,"DIS_CODE":0,"TOWNNAME":"六甲區","LI":"甲東里","LIN":"28鄰","STREET":"珊瑚路","SECT":" ","MAREA":" ","LANE":"１２１巷","ALLEY":" ","HOUSE_NO":"１號","E_COORD97":183919.78,"N_COORD97":2569262.54,"ADDRESS":"珊瑚路１２１巷１號","OBJECTID":388546},"geometry":{"x":183919.78000000119,"y":2569262.540000001}},{"attributes":{"ID":388571,"DIS_CODE":0,"TOWNNAME":"六甲區","LI":"甲東里","LIN":"28鄰","STREET":"珊瑚路","SECT":" ","MAREA":" ","LANE":"１２１巷","ALLEY":" ","HOUSE_NO":"２１號","E_COORD97":183957.26999999999,"N_COORD97":2569343.7599999998,"ADDRESS":"珊瑚路１２１巷２１號","OBJECTID":388547},"geometry":{"x":183957.26999999955,"y":2569343.7599999998}},{"attributes":{"ID":388572,"DIS_CODE":0,"TOWNNAME":"六甲區","LI":"甲東里","LIN":"28鄰","STREET":"珊瑚路","SECT":" ","MAREA":" ","LANE":"１２１巷","ALLEY":" ","HOUSE_NO":"２５號之２","E_COORD97":183966.64999999999,"N_COORD97":2569361.8900000001,"ADDRESS":"珊瑚路１２１巷２５號之２","OBJECTID":388548},"geometry":{"x":183966.6500000013,"y":2569361.8900000043}},{"attributes":{"ID":388573,"DIS_CODE":0,"TOWNNAME":"六甲區","LI":"甲東里","LIN":"28鄰","STREET":"珊瑚路","SECT":" ","MAREA":" ","LANE":"１２１巷","ALLEY":" ","HOUSE_NO":"２５號","E_COORD97":183963.42000000001,"N_COORD97":2569354.2599999998,"ADDRESS":"珊瑚路１２１巷２５號","OBJECTID":388549},"geometry":{"x":183963.41999999993,"y":2569354.2599999998}},{"attributes":{"ID":388574,"DIS_CODE":0,"TOWNNAME":"六甲區","LI":"甲東里","LIN":"28鄰","STREET":"珊瑚路","SECT":" ","MAREA":" ","LANE":"１２１巷","ALLEY":" ","HOUSE_NO":"２７號","E_COORD97":183968.51000000001,"N_COORD97":2569366.0299999998,"ADDRESS":"珊瑚路１２１巷２７號","OBJECTID":388550},"geometry":{"x":183968.51000000071,"y":2569366.0299999993}},{"attributes":{"ID":388575,"DIS_CODE":0,"TOWNNAME":"六甲區","LI":"甲東里","LIN":"28鄰","STREET":"珊瑚路","SECT":" ","MAREA":" ","LANE":"１２１巷","ALLEY":" ","HOUSE_NO":"２８號","E_COORD97":183990.89000000001,"N_COORD97":2569356.9700000002,"ADDRESS":"珊瑚路１２１巷２８號","OBJECTID":388551},"geometry":{"x":183990.89000000153,"y":2569356.9700000007}},{"attributes":{"ID":388576,"DIS_CODE":0,"TOWNNAME":"六甲區","LI":"甲東里","LIN":"28鄰","STREET":"珊瑚路","SECT":" ","MAREA":" ","LANE":"１２１巷","ALLEY":" ","HOUSE_NO":"２９號","E_COORD97":183972.10999999999,"N_COORD97":2569372.8300000001,"ADDRESS":"珊瑚路１２１巷２９號","OBJECTID":388552},"geometry":{"x":183972.11000000127,"y":2569372.8300000019}},{"attributes":{"ID":388577,"DIS_CODE":0,"TOWNNAME":"六甲區","LI":"甲東里","LIN":"28鄰","STREET":"珊瑚路","SECT":" ","MAREA":" ","LANE":"１２１巷","ALLEY":" ","HOUSE_NO":"２號","E_COORD97":183938.45000000001,"N_COORD97":2569233.9199999999,"ADDRESS":"珊瑚路１２１巷２號","OBJECTID":388553},"geometry":{"x":183938.45000000205,"y":2569233.9199999999}},{"attributes":{"ID":388578,"DIS_CODE":0,"TOWNNAME":"六甲區","LI":"甲東里","LIN":"28鄰","STREET":"珊瑚路","SECT":" ","MAREA":" ","LANE":"１２１巷","ALLEY":" ","HOUSE_NO":"３０之３號","E_COORD97":184002.54000000001,"N_COORD97":2569375.71,"ADDRESS":"珊瑚路１２１巷３０之３號","OBJECTID":388554},"geometry":{"x":184002.54000000097,"y":2569375.7100000009}},{"attributes":{"ID":388579,"DIS_CODE":0,"TOWNNAME":"六甲區","LI":"甲東里","LIN":"28鄰","STREET":"珊瑚路","SECT":" ","MAREA":" ","LANE":"１２１巷","ALLEY":" ","HOUSE_NO":"３０號","E_COORD97":183992.60000000001,"N_COORD97":2569362.77,"ADDRESS":"珊瑚路１２１巷３０號","OBJECTID":388555},"geometry":{"x":183992.59999999963,"y":2569362.7700000014}},{"attributes":{"ID":388580,"DIS_CODE":0,"TOWNNAME":"六甲區","LI":"甲東里","LIN":"28鄰","STREET":"珊瑚路","SECT":" ","MAREA":" ","LANE":"１２１巷","ALLEY":" ","HOUSE_NO":"３１號","E_COORD97":183977.67999999999,"N_COORD97":2569386.3900000001,"ADDRESS":"珊瑚路１２１巷３１號","OBJECTID":388556},"geometry":{"x":183977.68000000063,"y":2569386.3900000025}},{"attributes":{"ID":388581,"DIS_CODE":0,"TOWNNAME":"六甲區","LI":"甲東里","LIN":"28鄰","STREET":"珊瑚路","SECT":" ","MAREA":" ","LANE":"１２１巷","ALLEY":" ","HOUSE_NO":"３３號","E_COORD97":183979.79000000001,"N_COORD97":2569390.9300000002,"ADDRESS":"珊瑚路１２１巷３３號","OBJECTID":388557},"geometry":{"x":183979.79000000004,"y":2569390.9299999997}},{"attributes":{"ID":388582,"DIS_CODE":0,"TOWNNAME":"六甲區","LI":"甲東里","LIN":"28鄰","STREET":"珊瑚路","SECT":" ","MAREA":" ","LANE":"１２１巷","ALLEY":" ","HOUSE_NO":"３７號","E_COORD97":183984,"N_COORD97":2569398.1099999999,"ADDRESS":"珊瑚路１２１巷３７號","OBJECTID":388558},"geometry":{"x":183984.00000000093,"y":2569398.1100000013}},{"attributes":{"ID":388583,"DIS_CODE":0,"TOWNNAME":"六甲區","LI":"甲東里","LIN":"28鄰","STREET":"珊瑚路","SECT":" ","MAREA":" ","LANE":"１２１巷","ALLEY":" ","HOUSE_NO":"３８號","E_COORD97":184019.62,"N_COORD97":2569409.0699999998,"ADDRESS":"珊瑚路１２１巷３８號","OBJECTID":388559},"geometry":{"x":184019.62000000011,"y":2569409.0700000022}},{"attributes":{"ID":388584,"DIS_CODE":0,"TOWNNAME":"六甲區","LI":"甲東里","LIN":"28鄰","STREET":"珊瑚路","SECT":" ","MAREA":" ","LANE":"１２１巷","ALLEY":" ","HOUSE_NO":"３號","E_COORD97":183922,"N_COORD97":2569268.3700000001,"ADDRESS":"珊瑚路１２１巷３號","OBJECTID":388560},"geometry":{"x":183922,"y":2569268.3700000029}},{"attributes":{"ID":388585,"DIS_CODE":0,"TOWNNAME":"六甲區","LI":"甲東里","LIN":"28鄰","STREET":"珊瑚路","SECT":" ","MAREA":" ","LANE":"１２１巷","ALLEY":" ","HOUSE_NO":"４號","E_COORD97":183940.51999999999,"N_COORD97":2569239.5899999999,"ADDRESS":"珊瑚路１２１巷４號","OBJECTID":388561},"geometry":{"x":183940.51999999955,"y":2569239.5899999999}},{"attributes":{"ID":388586,"DIS_CODE":0,"TOWNNAME":"六甲區","LI":"甲東里","LIN":"28鄰","STREET":"珊瑚路","SECT":" ","MAREA":" ","LANE":"１２１巷","ALLEY":" ","HOUSE_NO":"５號之１","E_COORD97":183925.04999999999,"N_COORD97":2569276.9900000002,"ADDRESS":"珊瑚路１２１巷５號之１","OBJECTID":388562},"geometry":{"x":183925.04999999981,"y":2569276.9900000021}},{"attributes":{"ID":388587,"DIS_CODE":0,"TOWNNAME":"六甲區","LI":"甲東里","LIN":"28鄰","STREET":"珊瑚路","SECT":" ","MAREA":" ","LANE":"１２１巷","ALLEY":" ","HOUSE_NO":"５號","E_COORD97":183931.59,"N_COORD97":2569272.7000000002,"ADDRESS":"珊瑚路１２１巷５號","OBJECTID":388563},"geometry":{"x":183931.58999999985,"y":2569272.6999999993}},{"attributes":{"ID":388588,"DIS_CODE":0,"TOWNNAME":"六甲區","LI":"甲東里","LIN":"28鄰","STREET":"珊瑚路","SECT":" ","MAREA":" ","LANE":"１２１巷","ALLEY":" ","HOUSE_NO":"６號","E_COORD97":183957.45000000001,"N_COORD97":2569275.4500000002,"ADDRESS":"珊瑚路１２１巷６號","OBJECTID":388564},"geometry":{"x":183957.45000000112,"y":2569275.450000003}},{"attributes":{"ID":388589,"DIS_CODE":0,"TOWNNAME":"六甲區","LI":"甲東里","LIN":"28鄰","STREET":"珊瑚路","SECT":" ","MAREA":" ","LANE":"１２１巷","ALLEY":" ","HOUSE_NO":"７號","E_COORD97":183929.91,"N_COORD97":2569284.4700000002,"ADDRESS":"珊瑚路１２１巷７號","OBJECTID":388565},"geometry":{"x":183929.91000000015,"y":2569284.4700000025}},{"attributes":{"ID":388590,"DIS_CODE":0,"TOWNNAME":"六甲區","LI":"甲東里","LIN":"28鄰","STREET":"珊瑚路","SECT":" ","MAREA":" ","LANE":"１２１巷","ALLEY":" ","HOUSE_NO":"９號","E_COORD97":183936.25,"N_COORD97":2569292.6899999999,"ADDRESS":"珊瑚路１２１巷９號","OBJECTID":388566},"geometry":{"x":183936.25000000186,"y":2569292.6899999995}},{"attributes":{"ID":388591,"DIS_CODE":0,"TOWNNAME":"新營區","LI":"新東里","LIN":"28鄰","STREET":"東光街","SECT":" ","MAREA":" ","LANE":"８８巷","ALLEY":" ","HOUSE_NO":"２１號","E_COORD97":180655.70999999999,"N_COORD97":2579695.9100000001,"ADDRESS":"東光街８８巷２１號","OBJECTID":388567},"geometry":{"x":180655.70999999996,"y":2579695.910000002}},{"attributes":{"ID":388592,"DIS_CODE":0,"TOWNNAME":"新營區","LI":"大宏里","LIN":"28鄰","STREET":"新東街","SECT":" ","MAREA":" ","LANE":"３４巷","ALLEY":" ","HOUSE_NO":"９號","E_COORD97":180818.19,"N_COORD97":2578643.0699999998,"ADDRESS":"新東街３４巷９號","OBJECTID":388568},"geometry":{"x":180818.19000000134,"y":2578643.0699999984}},{"attributes":{"ID":388593,"DIS_CODE":0,"TOWNNAME":"新營區","LI":"新東里","LIN":"28鄰","STREET":"東光街","SECT":" ","MAREA":" ","LANE":"５１巷","ALLEY":" ","HOUSE_NO":"１０號","E_COORD97":180590,"N_COORD97":2579657.46,"ADDRESS":"東光街５１巷１０號","OBJECTID":388569},"geometry":{"x":180590.00000000186,"y":2579657.4600000009}},{"attributes":{"ID":388594,"DIS_CODE":0,"TOWNNAME":"新營區","LI":"新東里","LIN":"28鄰","STREET":"東光街","SECT":" ","MAREA":" ","LANE":"８６巷","ALLEY":" ","HOUSE_NO":"９號","E_COORD97":180636.82999999999,"N_COORD97":2579666.0899999999,"ADDRESS":"東光街８６巷９號","OBJECTID":388570},"geometry":{"x":180636.83000000194,"y":2579666.0899999999}},{"attributes":{"ID":388595,"DIS_CODE":0,"TOWNNAME":"新營區","LI":"新東里","LIN":"28鄰","STREET":"東光街","SECT":" ","MAREA":" ","LANE":"８６巷","ALLEY":" ","HOUSE_NO":"７號","E_COORD97":180631.76999999999,"N_COORD97":2579666.1200000001,"ADDRESS":"東光街８６巷７號","OBJECTID":388571},"geometry":{"x":180631.77000000142,"y":2579666.120000001}},{"attributes":{"ID":388596,"DIS_CODE":0,"TOWNNAME":"新營區","LI":"新東里","LIN":"28鄰","STREET":"東光街","SECT":" ","MAREA":" ","LANE":"８８巷","ALLEY":" ","HOUSE_NO":"１９號","E_COORD97":180651.54999999999,"N_COORD97":2579697.04,"ADDRESS":"東光街８８巷１９號","OBJECTID":388572},"geometry":{"x":180651.54999999981,"y":2579697.040000001}},{"attributes":{"ID":388597,"DIS_CODE":0,"TOWNNAME":"新營區","LI":"新東里","LIN":"28鄰","STREET":"東光街","SECT":" ","MAREA":" ","LANE":"８２巷","ALLEY":" ","HOUSE_NO":"７號","E_COORD97":180631.67000000001,"N_COORD97":2579642.8500000001,"ADDRESS":"東光街８２巷７號","OBJECTID":388573},"geometry":{"x":180631.67000000086,"y":2579642.8499999996}},{"attributes":{"ID":388598,"DIS_CODE":0,"TOWNNAME":"新營區","LI":"新東里","LIN":"28鄰","STREET":"東光街","SECT":" ","MAREA":" ","LANE":"５１巷","ALLEY":" ","HOUSE_NO":"８號","E_COORD97":180592.91,"N_COORD97":2579657.4399999999,"ADDRESS":"東光街５１巷８號","OBJECTID":388574},"geometry":{"x":180592.91000000108,"y":2579657.4400000013}},{"attributes":{"ID":388599,"DIS_CODE":0,"TOWNNAME":"新營區","LI":"南興里","LIN":"28鄰","STREET":"建業路","SECT":" ","MAREA":" ","LANE":"１３７巷","ALLEY":" ","HOUSE_NO":"５號","E_COORD97":178441.53,"N_COORD97":2577453.8700000001,"ADDRESS":"建業路１３７巷５號","OBJECTID":388575},"geometry":{"x":178441.53000000026,"y":2577453.870000001}},{"attributes":{"ID":388600,"DIS_CODE":0,"TOWNNAME":"新營區","LI":"新東里","LIN":"28鄰","STREET":"東光街","SECT":" ","MAREA":" ","LANE":"８８巷","ALLEY":" ","HOUSE_NO":"１２號","E_COORD97":180637.13,"N_COORD97":2579676.0600000001,"ADDRESS":"東光街８８巷１２號","OBJECTID":388576},"geometry":{"x":180637.13000000082,"y":2579676.0600000005}},{"attributes":{"ID":388601,"DIS_CODE":0,"TOWNNAME":"新營區","LI":"南興里","LIN":"28鄰","STREET":"建業路","SECT":" ","MAREA":" ","LANE":"１３７巷","ALLEY":" ","HOUSE_NO":"２５號","E_COORD97":178437.53,"N_COORD97":2577414.0299999998,"ADDRESS":"建業路１３７巷２５號","OBJECTID":388577},"geometry":{"x":178437.53000000119,"y":2577414.0299999993}},{"attributes":{"ID":388602,"DIS_CODE":0,"TOWNNAME":"新營區","LI":"新東里","LIN":"28鄰","STREET":"東光街","SECT":" ","MAREA":" ","LANE":"８８巷","ALLEY":" ","HOUSE_NO":"８號","E_COORD97":180625.72,"N_COORD97":2579675,"ADDRESS":"東光街８８巷８號","OBJECTID":388578},"geometry":{"x":180625.72000000067,"y":2579675.0000000019}},{"attributes":{"ID":388603,"DIS_CODE":0,"TOWNNAME":"新營區","LI":"新東里","LIN":"28鄰","STREET":"東光街","SECT":" ","MAREA":" ","LANE":"５１巷","ALLEY":" ","HOUSE_NO":"１號","E_COORD97":180603.01000000001,"N_COORD97":2579645.2000000002,"ADDRESS":"東光街５１巷１號","OBJECTID":388579},"geometry":{"x":180603.00999999885,"y":2579645.2000000011}},{"attributes":{"ID":388604,"DIS_CODE":0,"TOWNNAME":"善化區","LI":"坐駕里","LIN":"13鄰","STREET":"自強路","SECT":" ","MAREA":" ","LANE":" ","ALLEY":" ","HOUSE_NO":"３５號","E_COORD97":178247.89999999999,"N_COORD97":2558738.25,"ADDRESS":"自強路３５號","OBJECTID":388580},"geometry":{"x":178247.90000000037,"y":2558738.2500000019}},{"attributes":{"ID":388605,"DIS_CODE":0,"TOWNNAME":"新營區","LI":"南興里","LIN":"28鄰","STREET":"建業路","SECT":" ","MAREA":" ","LANE":"１３７巷","ALLEY":" ","HOUSE_NO":"１５號","E_COORD97":178440.62,"N_COORD97":2577433.9500000002,"ADDRESS":"建業路１３７巷１５號","OBJECTID":388581},"geometry":{"x":178440.62000000011,"y":2577433.9500000011}},{"attributes":{"ID":388606,"DIS_CODE":0,"TOWNNAME":"南區","LI":"光明里","LIN":"28鄰","STREET":"新建路","SECT":" ","MAREA":" ","LANE":"２７巷","ALLEY":" ","HOUSE_NO":"６號","E_COORD97":166547.53,"N_COORD97":2541273.2000000002,"ADDRESS":"新建路２７巷６號","OBJECTID":388582},"geometry":{"x":166547.53000000119,"y":2541273.2000000011}},{"attributes":{"ID":388607,"DIS_CODE":0,"TOWNNAME":"新營區","LI":"南興里","LIN":"28鄰","STREET":"建業路","SECT":" ","MAREA":" ","LANE":"１３７巷","ALLEY":" ","HOUSE_NO":"３１號","E_COORD97":178436.45999999999,"N_COORD97":2577401.8599999999,"ADDRESS":"建業路１３７巷３１號","OBJECTID":388583},"geometry":{"x":178436.45999999996,"y":2577401.8599999994}},{"attributes":{"ID":388608,"DIS_CODE":0,"TOWNNAME":"新營區","LI":"新東里","LIN":"28鄰","STREET":"東光街","SECT":" ","MAREA":" ","LANE":"８２巷","ALLEY":" ","HOUSE_NO":"１號","E_COORD97":180616.29999999999,"N_COORD97":2579642.9300000002,"ADDRESS":"東光街８２巷１號","OBJECTID":388584},"geometry":{"x":180616.29999999981,"y":2579642.9299999997}},{"attributes":{"ID":388609,"DIS_CODE":0,"TOWNNAME":"新營區","LI":"新東里","LIN":"28鄰","STREET":"東光街","SECT":" ","MAREA":" ","LANE":"８６巷","ALLEY":" ","HOUSE_NO":"５號","E_COORD97":180626.64999999999,"N_COORD97":2579666.1400000001,"ADDRESS":"東光街８６巷５號","OBJECTID":388585},"geometry":{"x":180626.65000000224,"y":2579666.1400000006}},{"attributes":{"ID":388610,"DIS_CODE":0,"TOWNNAME":"新營區","LI":"南興里","LIN":"28鄰","STREET":"建業路","SECT":" ","MAREA":" ","LANE":"１３７巷","ALLEY":" ","HOUSE_NO":"７號","E_COORD97":178441.51999999999,"N_COORD97":2577450.5499999998,"ADDRESS":"建業路１３７巷７號","OBJECTID":388586},"geometry":{"x":178441.52000000142,"y":2577450.5500000045}},{"attributes":{"ID":388611,"DIS_CODE":0,"TOWNNAME":"新營區","LI":"新東里","LIN":"28鄰","STREET":"東光街","SECT":" ","MAREA":" ","LANE":"８６巷","ALLEY":" ","HOUSE_NO":"１１號","E_COORD97":180642.20000000001,"N_COORD97":2579667.1800000002,"ADDRESS":"東光街８６巷１１號","OBJECTID":388587},"geometry":{"x":180642.20000000019,"y":2579667.1800000016}},{"attributes":{"ID":388612,"DIS_CODE":0,"TOWNNAME":"新營區","LI":"新東里","LIN":"28鄰","STREET":"東光街","SECT":" ","MAREA":" ","LANE":"８２巷","ALLEY":" ","HOUSE_NO":"１１號","E_COORD97":180643.12,"N_COORD97":2579642.8100000001,"ADDRESS":"東光街８２巷１１號","OBJECTID":388588},"geometry":{"x":180643.12000000011,"y":2579642.8100000024}},{"attributes":{"ID":388613,"DIS_CODE":0,"TOWNNAME":"新營區","LI":"新東里","LIN":"28鄰","STREET":"東光街","SECT":" ","MAREA":" ","LANE":"８８巷","ALLEY":" ","HOUSE_NO":"２７號","E_COORD97":180671.07000000001,"N_COORD97":2579701.3700000001,"ADDRESS":"東光街８８巷２７號","OBJECTID":388589},"geometry":{"x":180671.07000000216,"y":2579701.3700000029}},{"attributes":{"ID":388614,"DIS_CODE":0,"TOWNNAME":"新營區","LI":"新東里","LIN":"28鄰","STREET":"東光街","SECT":" ","MAREA":" ","LANE":"５１巷","ALLEY":" ","HOUSE_NO":"１６號","E_COORD97":180581.81,"N_COORD97":2579657.5,"ADDRESS":"東光街５１巷１６號","OBJECTID":388590},"geometry":{"x":180581.80999999959,"y":2579657.5000000019}},{"attributes":{"ID":388615,"DIS_CODE":0,"TOWNNAME":"新營區","LI":"新東里","LIN":"28鄰","STREET":"東光街","SECT":" ","MAREA":" ","LANE":"８８巷","ALLEY":" ","HOUSE_NO":"６號","E_COORD97":180620.54000000001,"N_COORD97":2579673.9199999999,"ADDRESS":"東光街８８巷６號","OBJECTID":388591},"geometry":{"x":180620.54000000097,"y":2579673.9199999999}},{"attributes":{"ID":388616,"DIS_CODE":0,"TOWNNAME":"新營區","LI":"新東里","LIN":"28鄰","STREET":"東光街","SECT":" ","MAREA":" ","LANE":"５１巷","ALLEY":" ","HOUSE_NO":"１２號","E_COORD97":180585.91,"N_COORD97":2579657.48,"ADDRESS":"東光街５１巷１２號","OBJECTID":388592},"geometry":{"x":180585.91000000108,"y":2579657.4799999986}},{"attributes":{"ID":388617,"DIS_CODE":0,"TOWNNAME":"新營區","LI":"新東里","LIN":"28鄰","STREET":"東興九街","SECT":" ","MAREA":" ","LANE":"１２巷","ALLEY":" ","HOUSE_NO":"１１號","E_COORD97":180697.09,"N_COORD97":2579813.1000000001,"ADDRESS":"東興九街１２巷１１號","OBJECTID":388593},"geometry":{"x":180697.08999999985,"y":2579813.1000000015}},{"attributes":{"ID":388618,"DIS_CODE":0,"TOWNNAME":"新營區","LI":"新東里","LIN":"28鄰","STREET":"東興九街","SECT":" ","MAREA":" ","LANE":"１２巷","ALLEY":" ","HOUSE_NO":"１３號","E_COORD97":180697.12,"N_COORD97":2579817.5299999998,"ADDRESS":"東興九街１２巷１３號","OBJECTID":388594},"geometry":{"x":180697.12000000011,"y":2579817.5299999993}},{"attributes":{"ID":388619,"DIS_CODE":0,"TOWNNAME":"新營區","LI":"新東里","LIN":"28鄰","STREET":"東興七街","SECT":" ","MAREA":" ","LANE":"９巷","ALLEY":" ","HOUSE_NO":"１８號","E_COORD97":180697.60000000001,"N_COORD97":2579702.3599999999,"ADDRESS":"東興七街９巷１８號","OBJECTID":388595},"geometry":{"x":180697.60000000056,"y":2579702.3600000013}},{"attributes":{"ID":388620,"DIS_CODE":0,"TOWNNAME":"新營區","LI":"南興里","LIN":"28鄰","STREET":"建業路","SECT":" ","MAREA":" ","LANE":"１３７巷","ALLEY":" ","HOUSE_NO":"１３號","E_COORD97":178440.64000000001,"N_COORD97":2577438.3799999999,"ADDRESS":"建業路１３７巷１３號","OBJECTID":388596},"geometry":{"x":178440.63999999873,"y":2577438.379999999}},{"attributes":{"ID":388621,"DIS_CODE":0,"TOWNNAME":"北區","LI":"和順里","LIN":"28鄰","STREET":"臨安路","SECT":"二段","MAREA":" ","LANE":"１９５巷","ALLEY":" ","HOUSE_NO":"６７號","E_COORD97":167893.39999999999,"N_COORD97":2545152.4700000002,"ADDRESS":"臨安路二段１９５巷６７號","OBJECTID":388597},"geometry":{"x":167893.40000000037,"y":2545152.4700000007}},{"attributes":{"ID":388622,"DIS_CODE":0,"TOWNNAME":"北區","LI":"和順里","LIN":"28鄰","STREET":"臨安路","SECT":"二段","MAREA":" ","LANE":"１９５巷","ALLEY":" ","HOUSE_NO":"７１號","E_COORD97":167892.10000000001,"N_COORD97":2545168.6600000001,"ADDRESS":"臨安路二段１９５巷７１號","OBJECTID":388598},"geometry":{"x":167892.10000000056,"y":2545168.6600000001}},{"attributes":{"ID":388623,"DIS_CODE":0,"TOWNNAME":"北區","LI":"和順里","LIN":"28鄰","STREET":"海安路","SECT":"三段","MAREA":" ","LANE":"２１９巷","ALLEY":" ","HOUSE_NO":"２１之１號","E_COORD97":167882.37,"N_COORD97":2545231.0899999999,"ADDRESS":"海安路三段２１９巷２１之１號","OBJECTID":388599},"geometry":{"x":167882.37000000104,"y":2545231.0900000017}},{"attributes":{"ID":388624,"DIS_CODE":0,"TOWNNAME":"柳營區","LI":"光福里","LIN":"28鄰","STREET":"建業路","SECT":" ","MAREA":" ","LANE":"１０１巷","ALLEY":" ","HOUSE_NO":"１６２號","E_COORD97":179914.81,"N_COORD97":2575769.8300000001,"ADDRESS":"建業路１０１巷１６２號","OBJECTID":388600},"geometry":{"x":179914.81000000052,"y":2575769.8300000038}}]}