{"displayFieldName":"TOWNNAME","fieldAliases":{"ID":"ID","DIS_CODE":"DIS_CODE","TOWNNAME":"TOWNNAME","LI":"LI","LIN":"LIN","STREET":"STREET","SECT":"SECT","MAREA":"MAREA","LANE":"LANE","ALLEY":"ALLEY","HOUSE_NO":"HOUSE_NO","E_COORD97":"E_COORD97","N_COORD97":"N_COORD97","ADDRESS":"ADDRESS","OBJECTID":"OBJECTID"},"geometryType":"esriGeometryPoint","spatialReference":{"wkid":102443,"latestWkid":3826},"fields":[{"name":"ID","type":"esriFieldTypeDouble","alias":"ID"},{"name":"DIS_CODE","type":"esriFieldTypeInteger","alias":"DIS_CODE"},{"name":"TOWNNAME","type":"esriFieldTypeString","alias":"TOWNNAME","length":8},{"name":"LI","type":"esriFieldTypeString","alias":"LI","length":8},{"name":"LIN","type":"esriFieldTypeString","alias":"LIN","length":12},{"name":"STREET","type":"esriFieldTypeString","alias":"STREET","length":20},{"name":"SECT","type":"esriFieldTypeString","alias":"SECT","length":8},{"name":"MAREA","type":"esriFieldTypeString","alias":"MAREA","length":12},{"name":"LANE","type":"esriFieldTypeString","alias":"LANE","length":10},{"name":"ALLEY","type":"esriFieldTypeString","alias":"ALLEY","length":10},{"name":"HOUSE_NO","type":"esriFieldTypeString","alias":"HOUSE_NO","length":20},{"name":"E_COORD97","type":"esriFieldTypeDouble","alias":"E_COORD97"},{"name":"N_COORD97","type":"esriFieldTypeDouble","alias":"N_COORD97"},{"name":"ADDRESS","type":"esriFieldTypeString","alias":"ADDRESS","length":50},{"name":"OBJECTID","type":"esriFieldTypeOID","alias":"OBJECTID"}],"features":[{"attributes":{"ID":647828,"DIS_CODE":0,"TOWNNAME":"新營區","LI":"新東里","LIN":"15鄰","STREET":"東智街","SECT":" ","MAREA":" ","LANE":" ","ALLEY":" ","HOUSE_NO":"２３號","E_COORD97":180983.48860499999,"N_COORD97":2579596.3687700001,"ADDRESS":"東智街２３號","OBJECTID":647801},"geometry":{"x":180983.48860500008,"y":2579596.3687700015}},{"attributes":{"ID":647829,"DIS_CODE":0,"TOWNNAME":"新營區","LI":"新東里","LIN":"15鄰","STREET":"東智街","SECT":" ","MAREA":" ","LANE":" ","ALLEY":" ","HOUSE_NO":"２５號","E_COORD97":180977.97966800001,"N_COORD97":2579595.9454399999,"ADDRESS":"東智街２５號","OBJECTID":647802},"geometry":{"x":180977.97966800071,"y":2579595.9454369992}},{"attributes":{"ID":647830,"DIS_CODE":0,"TOWNNAME":"新營區","LI":"新東里","LIN":"15鄰","STREET":"東智街","SECT":" ","MAREA":" ","LANE":" ","ALLEY":" ","HOUSE_NO":"２７號","E_COORD97":180972.682612,"N_COORD97":2579595.7337699998,"ADDRESS":"東智街２７號","OBJECTID":647803},"geometry":{"x":180972.68261200003,"y":2579595.7337700017}},{"attributes":{"ID":647831,"DIS_CODE":0,"TOWNNAME":"安南區","LI":"頂安里","LIN":"19鄰","STREET":"北安路","SECT":"三段","MAREA":" ","LANE":"３９４巷","ALLEY":"２０弄","HOUSE_NO":"２１號","E_COORD97":168780.98233100001,"N_COORD97":2549428.0718999999,"ADDRESS":"北安路三段３９４巷２０弄２１號","OBJECTID":647804},"geometry":{"x":168780.98233100213,"y":2549428.0719030015}},{"attributes":{"ID":647832,"DIS_CODE":0,"TOWNNAME":"安南區","LI":"頂安里","LIN":"19鄰","STREET":"北安路","SECT":"三段","MAREA":" ","LANE":"３９４巷","ALLEY":"２０弄","HOUSE_NO":"３１號","E_COORD97":168764.461217,"N_COORD97":2549448.3918900001,"ADDRESS":"北安路三段３９４巷２０弄３１號","OBJECTID":647805},"geometry":{"x":168764.46121700015,"y":2549448.3918920029}},{"attributes":{"ID":647833,"DIS_CODE":0,"TOWNNAME":"安南區","LI":"頂安里","LIN":"19鄰","STREET":"北安路","SECT":"三段","MAREA":" ","LANE":"３９４巷","ALLEY":"２０弄","HOUSE_NO":"２９號","E_COORD97":168767.42654499999,"N_COORD97":2549444.1585599999,"ADDRESS":"北安路三段３９４巷２０弄２９號","OBJECTID":647806},"geometry":{"x":168767.42654500064,"y":2549444.1585610006}},{"attributes":{"ID":647834,"DIS_CODE":0,"TOWNNAME":"安南區","LI":"頂安里","LIN":"19鄰","STREET":"北安路","SECT":"三段","MAREA":" ","LANE":"３９４巷","ALLEY":"２０弄","HOUSE_NO":"２７號","E_COORD97":168770.81549099999,"N_COORD97":2549440.1368999998,"ADDRESS":"北安路三段３９４巷２０弄２７號","OBJECTID":647807},"geometry":{"x":168770.81549100112,"y":2549440.1368969996}},{"attributes":{"ID":647835,"DIS_CODE":0,"TOWNNAME":"安南區","LI":"頂安里","LIN":"19鄰","STREET":"北安路","SECT":"三段","MAREA":" ","LANE":"３９４巷","ALLEY":"２０弄","HOUSE_NO":"２５號","E_COORD97":168773.99262899999,"N_COORD97":2549436.3269000002,"ADDRESS":"北安路三段３９４巷２０弄２５號","OBJECTID":647808},"geometry":{"x":168773.99262899999,"y":2549436.3268990014}},{"attributes":{"ID":647836,"DIS_CODE":0,"TOWNNAME":"安南區","LI":"頂安里","LIN":"19鄰","STREET":"北安路","SECT":"三段","MAREA":" ","LANE":"３９４巷","ALLEY":"２０弄","HOUSE_NO":"２３號","E_COORD97":168777.16976600001,"N_COORD97":2549432.5169000002,"ADDRESS":"北安路三段３９４巷２０弄２３號","OBJECTID":647809},"geometry":{"x":168777.16976599954,"y":2549432.5169010013}},{"attributes":{"ID":647837,"DIS_CODE":0,"TOWNNAME":"安南區","LI":"頂安里","LIN":"19鄰","STREET":"北安路","SECT":"三段","MAREA":" ","LANE":"３９４巷","ALLEY":"２０弄","HOUSE_NO":"３７號","E_COORD97":168754.71799599999,"N_COORD97":2549459.6102200001,"ADDRESS":"北安路三段３９４巷２０弄３７號","OBJECTID":647810},"geometry":{"x":168754.71799600031,"y":2549459.6102189999}},{"attributes":{"ID":647838,"DIS_CODE":0,"TOWNNAME":"新營區","LI":"新東里","LIN":"16鄰","STREET":"東泰七街","SECT":" ","MAREA":" ","LANE":" ","ALLEY":" ","HOUSE_NO":"４８號","E_COORD97":181027.560107,"N_COORD97":2579759.5636800001,"ADDRESS":"東泰七街４８號","OBJECTID":647811},"geometry":{"x":181027.5601070011,"y":2579759.5636820011}},{"attributes":{"ID":647839,"DIS_CODE":0,"TOWNNAME":"安南區","LI":"頂安里","LIN":"19鄰","STREET":"北安路","SECT":"三段","MAREA":" ","LANE":"３９４巷","ALLEY":"２０弄","HOUSE_NO":"３５號","E_COORD97":168757.89513300001,"N_COORD97":2549455.8002200001,"ADDRESS":"北安路三段３９４巷２０弄３５號","OBJECTID":647812},"geometry":{"x":168757.89513299987,"y":2549455.8002209999}},{"attributes":{"ID":647840,"DIS_CODE":0,"TOWNNAME":"安南區","LI":"頂安里","LIN":"19鄰","STREET":"北安路","SECT":"三段","MAREA":" ","LANE":"３９４巷","ALLEY":"２０弄","HOUSE_NO":"３３號","E_COORD97":168761.28408000001,"N_COORD97":2549451.99022,"ADDRESS":"北安路三段３９４巷２０弄３３號","OBJECTID":647813},"geometry":{"x":168761.28408000059,"y":2549451.9902240001}},{"attributes":{"ID":647841,"DIS_CODE":0,"TOWNNAME":"新營區","LI":"新東里","LIN":"16鄰","STREET":"東泰九街","SECT":" ","MAREA":" ","LANE":" ","ALLEY":" ","HOUSE_NO":"８號","E_COORD97":181084.98018899999,"N_COORD97":2579807.7178199999,"ADDRESS":"東泰九街８號","OBJECTID":647814},"geometry":{"x":181084.98018900119,"y":2579807.7178220004}},{"attributes":{"ID":647842,"DIS_CODE":0,"TOWNNAME":"新營區","LI":"新東里","LIN":"16鄰","STREET":"東泰九街","SECT":" ","MAREA":" ","LANE":" ","ALLEY":" ","HOUSE_NO":"６號","E_COORD97":181089.85347999999,"N_COORD97":2579807.92949,"ADDRESS":"東泰九街６號","OBJECTID":647815},"geometry":{"x":181089.85348000191,"y":2579807.9294890016}},{"attributes":{"ID":647843,"DIS_CODE":0,"TOWNNAME":"麻豆區","LI":"安東里","LIN":"1鄰","STREET":" ","SECT":" ","MAREA":"安業","LANE":" ","ALLEY":" ","HOUSE_NO":"９號之１","E_COORD97":172918.162331,"N_COORD97":2562979.0608999999,"ADDRESS":"安業９號之１","OBJECTID":647816},"geometry":{"x":172918.1623310009,"y":2562979.0609010011}},{"attributes":{"ID":647844,"DIS_CODE":0,"TOWNNAME":"新營區","LI":"新東里","LIN":"16鄰","STREET":"東泰路","SECT":" ","MAREA":" ","LANE":" ","ALLEY":" ","HOUSE_NO":"９３號","E_COORD97":181110.40605600001,"N_COORD97":2579809.19949,"ADDRESS":"東泰路９３號","OBJECTID":647817},"geometry":{"x":181110.40605600085,"y":2579809.1994880028}},{"attributes":{"ID":647845,"DIS_CODE":0,"TOWNNAME":"新營區","LI":"新東里","LIN":"16鄰","STREET":"東泰路","SECT":" ","MAREA":" ","LANE":" ","ALLEY":" ","HOUSE_NO":"９５號","E_COORD97":181110.194173,"N_COORD97":2579817.3486500001,"ADDRESS":"東泰路９５號","OBJECTID":647818},"geometry":{"x":181110.19417299982,"y":2579817.3486509994}},{"attributes":{"ID":647846,"DIS_CODE":0,"TOWNNAME":"新營區","LI":"新東里","LIN":"16鄰","STREET":"東泰路","SECT":" ","MAREA":" ","LANE":" ","ALLEY":" ","HOUSE_NO":"９７號","E_COORD97":181109.55852699999,"N_COORD97":2579823.0636499999,"ADDRESS":"東泰路９７號","OBJECTID":647819},"geometry":{"x":181109.55852700118,"y":2579823.0636470001}},{"attributes":{"ID":647847,"DIS_CODE":0,"TOWNNAME":"新營區","LI":"新東里","LIN":"16鄰","STREET":"東泰路","SECT":" ","MAREA":" ","LANE":" ","ALLEY":" ","HOUSE_NO":"９９號","E_COORD97":181108.49911599999,"N_COORD97":2579828.2494800002,"ADDRESS":"東泰路９９號","OBJECTID":647820},"geometry":{"x":181108.49911600072,"y":2579828.249478003}},{"attributes":{"ID":647848,"DIS_CODE":0,"TOWNNAME":"新營區","LI":"新東里","LIN":"16鄰","STREET":"東泰路","SECT":" ","MAREA":" ","LANE":" ","ALLEY":" ","HOUSE_NO":"１０１號","E_COORD97":181107.863469,"N_COORD97":2579832.8003099998,"ADDRESS":"東泰路１０１號","OBJECTID":647821},"geometry":{"x":181107.86346899997,"y":2579832.8003090024}},{"attributes":{"ID":647849,"DIS_CODE":0,"TOWNNAME":"新營區","LI":"新東里","LIN":"16鄰","STREET":"東泰路","SECT":" ","MAREA":" ","LANE":" ","ALLEY":" ","HOUSE_NO":"１０３號","E_COORD97":181107.439705,"N_COORD97":2579838.1978099998,"ADDRESS":"東泰路１０３號","OBJECTID":647822},"geometry":{"x":181107.43970500119,"y":2579838.1978060007}},{"attributes":{"ID":647850,"DIS_CODE":0,"TOWNNAME":"麻豆區","LI":"北勢里","LIN":"4鄰","STREET":" ","SECT":" ","MAREA":"加輦邦","LANE":" ","ALLEY":" ","HOUSE_NO":"３０號之５","E_COORD97":173079.20806100001,"N_COORD97":2566375.6918799998,"ADDRESS":"加輦邦３０號之５","OBJECTID":647823},"geometry":{"x":173079.20806100033,"y":2566375.6918810029}},{"attributes":{"ID":647851,"DIS_CODE":0,"TOWNNAME":"新營區","LI":"新東里","LIN":"16鄰","STREET":"東泰路","SECT":" ","MAREA":" ","LANE":" ","ALLEY":" ","HOUSE_NO":"１０５號","E_COORD97":181108.07535100001,"N_COORD97":2579842.9602999999,"ADDRESS":"東泰路１０５號","OBJECTID":647824},"geometry":{"x":181108.07535099983,"y":2579842.9603030011}},{"attributes":{"ID":647852,"DIS_CODE":0,"TOWNNAME":"新營區","LI":"新東里","LIN":"16鄰","STREET":"東泰路","SECT":" ","MAREA":" ","LANE":" ","ALLEY":" ","HOUSE_NO":"１０７號","E_COORD97":181108.07535100001,"N_COORD97":2579847.1936300001,"ADDRESS":"東泰路１０７號","OBJECTID":647825},"geometry":{"x":181108.07535099983,"y":2579847.1936339997}},{"attributes":{"ID":647853,"DIS_CODE":0,"TOWNNAME":"新營區","LI":"新東里","LIN":"16鄰","STREET":"東泰路","SECT":" ","MAREA":" ","LANE":" ","ALLEY":" ","HOUSE_NO":"１０９號","E_COORD97":181107.651587,"N_COORD97":2579852.2736300002,"ADDRESS":"東泰路１０９號","OBJECTID":647826},"geometry":{"x":181107.65158700105,"y":2579852.273632003}},{"attributes":{"ID":647854,"DIS_CODE":0,"TOWNNAME":"新營區","LI":"新東里","LIN":"16鄰","STREET":"東泰九街","SECT":" ","MAREA":" ","LANE":" ","ALLEY":" ","HOUSE_NO":"１０號","E_COORD97":181081.59007400001,"N_COORD97":2579810.99865,"ADDRESS":"東泰九街１０號","OBJECTID":647827},"geometry":{"x":181081.59007399995,"y":2579810.9986540005}},{"attributes":{"ID":647855,"DIS_CODE":0,"TOWNNAME":"新營區","LI":"新東里","LIN":"16鄰","STREET":"東泰九街","SECT":" ","MAREA":" ","LANE":"１６巷","ALLEY":" ","HOUSE_NO":"１６號","E_COORD97":181068.02961100001,"N_COORD97":2579852.90863,"ADDRESS":"東泰九街１６巷１６號","OBJECTID":647828},"geometry":{"x":181068.02961100079,"y":2579852.9086310025}},{"attributes":{"ID":647856,"DIS_CODE":0,"TOWNNAME":"新營區","LI":"新東里","LIN":"16鄰","STREET":"東泰九街","SECT":" ","MAREA":" ","LANE":"１６巷","ALLEY":" ","HOUSE_NO":"１０號","E_COORD97":181081.16630899999,"N_COORD97":2579845.0769699998,"ADDRESS":"東泰九街１６巷１０號","OBJECTID":647829},"geometry":{"x":181081.16630899999,"y":2579845.0769690033}},{"attributes":{"ID":647857,"DIS_CODE":0,"TOWNNAME":"新營區","LI":"新東里","LIN":"16鄰","STREET":"東泰九街","SECT":" ","MAREA":" ","LANE":" ","ALLEY":" ","HOUSE_NO":"２號","E_COORD97":181094.938654,"N_COORD97":2579809.72866,"ADDRESS":"東泰九街２號","OBJECTID":647830},"geometry":{"x":181094.93865400087,"y":2579809.7286550011}},{"attributes":{"ID":647858,"DIS_CODE":0,"TOWNNAME":"新營區","LI":"新東里","LIN":"16鄰","STREET":"東泰九街","SECT":" ","MAREA":" ","LANE":"１６巷","ALLEY":" ","HOUSE_NO":"２號","E_COORD97":181081.378191,"N_COORD97":2579837.03364,"ADDRESS":"東泰九街１６巷２號","OBJECTID":647831},"geometry":{"x":181081.37819099892,"y":2579837.033640001}},{"attributes":{"ID":647859,"DIS_CODE":0,"TOWNNAME":"新營區","LI":"新東里","LIN":"16鄰","STREET":"東泰九街","SECT":" ","MAREA":" ","LANE":"１６巷","ALLEY":" ","HOUSE_NO":"１６號","E_COORD97":181089.005951,"N_COORD97":2579837.2453100001,"ADDRESS":"東泰九街１６巷１６號","OBJECTID":647832},"geometry":{"x":181089.00595100224,"y":2579837.2453060038}},{"attributes":{"ID":647860,"DIS_CODE":0,"TOWNNAME":"新營區","LI":"新東里","LIN":"16鄰","STREET":"東泰九街","SECT":" ","MAREA":" ","LANE":"１６巷","ALLEY":" ","HOUSE_NO":"６號","E_COORD97":181089.005951,"N_COORD97":2579837.2453100001,"ADDRESS":"東泰九街１６巷６號","OBJECTID":647833},"geometry":{"x":181089.00595100224,"y":2579837.2453060038}},{"attributes":{"ID":647861,"DIS_CODE":0,"TOWNNAME":"新營區","LI":"新東里","LIN":"16鄰","STREET":"東泰九街","SECT":" ","MAREA":" ","LANE":"１６巷","ALLEY":" ","HOUSE_NO":"８號","E_COORD97":181088.37030499999,"N_COORD97":2579845.5003,"ADDRESS":"東泰九街１６巷８號","OBJECTID":647834},"geometry":{"x":181088.37030500174,"y":2579845.5003020018}},{"attributes":{"ID":647862,"DIS_CODE":0,"TOWNNAME":"仁德區","LI":"仁愛里","LIN":"19鄰","STREET":" ","SECT":" ","MAREA":"仁愛","LANE":" ","ALLEY":" ","HOUSE_NO":"３８７號","E_COORD97":170123.01589099999,"N_COORD97":2540208.7749700001,"ADDRESS":"仁愛３８７號","OBJECTID":647835},"geometry":{"x":170123.01589100063,"y":2540208.7749670018}},{"attributes":{"ID":647863,"DIS_CODE":0,"TOWNNAME":"仁德區","LI":"仁愛里","LIN":"19鄰","STREET":" ","SECT":" ","MAREA":"仁愛","LANE":" ","ALLEY":" ","HOUSE_NO":"３８１號","E_COORD97":170152.57240400001,"N_COORD97":2540205.65289,"ADDRESS":"仁愛３８１號","OBJECTID":647836},"geometry":{"x":170152.57240400091,"y":2540205.6528859995}},{"attributes":{"ID":647864,"DIS_CODE":0,"TOWNNAME":"仁德區","LI":"仁愛里","LIN":"19鄰","STREET":" ","SECT":" ","MAREA":"仁愛","LANE":" ","ALLEY":" ","HOUSE_NO":"３８２號","E_COORD97":170148.44084900001,"N_COORD97":2540205.4412199999,"ADDRESS":"仁愛３８２號","OBJECTID":647837},"geometry":{"x":170148.44084900059,"y":2540205.4412190039}},{"attributes":{"ID":647865,"DIS_CODE":0,"TOWNNAME":"仁德區","LI":"仁愛里","LIN":"19鄰","STREET":" ","SECT":" ","MAREA":"仁愛","LANE":" ","ALLEY":" ","HOUSE_NO":"３８３號","E_COORD97":170145.36866599999,"N_COORD97":2540204.7533,"ADDRESS":"仁愛３８３號","OBJECTID":647838},"geometry":{"x":170145.36866599973,"y":2540204.7533030007}},{"attributes":{"ID":647866,"DIS_CODE":0,"TOWNNAME":"山上區","LI":"山上里","LIN":"1鄰","STREET":" ","SECT":" ","MAREA":"山上","LANE":" ","ALLEY":" ","HOUSE_NO":"４０號之１１","E_COORD97":184050.412774,"N_COORD97":2555369.68157,"ADDRESS":"山上４０號之１１","OBJECTID":647839},"geometry":{"x":184050.41277400125,"y":2555369.6815730035}},{"attributes":{"ID":647867,"DIS_CODE":0,"TOWNNAME":"山上區","LI":"山上里","LIN":"1鄰","STREET":" ","SECT":" ","MAREA":"山上","LANE":" ","ALLEY":" ","HOUSE_NO":"４０號之１３","E_COORD97":184050.412774,"N_COORD97":2555358.3574100002,"ADDRESS":"山上４０號之１３","OBJECTID":647840},"geometry":{"x":184050.41277400125,"y":2555358.3574130014}},{"attributes":{"ID":647868,"DIS_CODE":0,"TOWNNAME":"安南區","LI":"州南里","LIN":"12鄰","STREET":"長和路","SECT":"二段","MAREA":" ","LANE":" ","ALLEY":" ","HOUSE_NO":"１７８之１號","E_COORD97":170005.95850199999,"N_COORD97":2551562.15093,"ADDRESS":"長和路二段１７８之１號","OBJECTID":647841},"geometry":{"x":170005.95850200113,"y":2551562.1509249993}},{"attributes":{"ID":647869,"DIS_CODE":0,"TOWNNAME":"山上區","LI":"山上里","LIN":"1鄰","STREET":" ","SECT":" ","MAREA":"山上","LANE":" ","ALLEY":" ","HOUSE_NO":"４０號之３","E_COORD97":184047.022895,"N_COORD97":2555404.5007199999,"ADDRESS":"山上４０號之３","OBJECTID":647842},"geometry":{"x":184047.02289499994,"y":2555404.5007210001}},{"attributes":{"ID":647870,"DIS_CODE":0,"TOWNNAME":"山上區","LI":"山上里","LIN":"1鄰","STREET":" ","SECT":" ","MAREA":"山上","LANE":" ","ALLEY":" ","HOUSE_NO":"４０號之９","E_COORD97":184048.92970199999,"N_COORD97":2555377.0899,"ADDRESS":"山上４０號之９","OBJECTID":647843},"geometry":{"x":184048.92970199883,"y":2555377.0899030007}},{"attributes":{"ID":647871,"DIS_CODE":0,"TOWNNAME":"新營區","LI":"新東里","LIN":"20鄰","STREET":"東明街","SECT":" ","MAREA":" ","LANE":"２８巷","ALLEY":" ","HOUSE_NO":"９號","E_COORD97":180843.01069299999,"N_COORD97":2579599.8083500001,"ADDRESS":"東明街２８巷９號","OBJECTID":647844},"geometry":{"x":180843.0106929997,"y":2579599.8083510008}},{"attributes":{"ID":647872,"DIS_CODE":0,"TOWNNAME":"新營區","LI":"新東里","LIN":"20鄰","STREET":"東明街","SECT":" ","MAREA":" ","LANE":"２８巷","ALLEY":" ","HOUSE_NO":"１１號","E_COORD97":180847.460219,"N_COORD97":2579600.9725199998,"ADDRESS":"東明街２８巷１１號","OBJECTID":647845},"geometry":{"x":180847.46021899953,"y":2579600.9725170005}},{"attributes":{"ID":647873,"DIS_CODE":0,"TOWNNAME":"新營區","LI":"新東里","LIN":"20鄰","STREET":"東明街","SECT":" ","MAREA":" ","LANE":"２８巷","ALLEY":" ","HOUSE_NO":"１３號","E_COORD97":180851.803805,"N_COORD97":2579601.39585,"ADDRESS":"東明街２８巷１３號","OBJECTID":647846},"geometry":{"x":180851.80380500108,"y":2579601.395849999}},{"attributes":{"ID":647874,"DIS_CODE":0,"TOWNNAME":"仁德區","LI":"仁愛里","LIN":"19鄰","STREET":" ","SECT":" ","MAREA":"仁愛","LANE":" ","ALLEY":" ","HOUSE_NO":"３９３號","E_COORD97":170082.60080300001,"N_COORD97":2540179.1945699998,"ADDRESS":"仁愛３９３號","OBJECTID":647847},"geometry":{"x":170082.60080299992,"y":2540179.1945670005}},{"attributes":{"ID":647875,"DIS_CODE":0,"TOWNNAME":"新營區","LI":"新東里","LIN":"20鄰","STREET":"東明街","SECT":" ","MAREA":" ","LANE":"２８巷","ALLEY":" ","HOUSE_NO":"１５號","E_COORD97":180856.04144900001,"N_COORD97":2579601.7133499999,"ADDRESS":"東明街２８巷１５號","OBJECTID":647848},"geometry":{"x":180856.04144900199,"y":2579601.7133499999}},{"attributes":{"ID":647876,"DIS_CODE":0,"TOWNNAME":"仁德區","LI":"仁愛里","LIN":"19鄰","STREET":" ","SECT":" ","MAREA":"仁愛","LANE":" ","ALLEY":" ","HOUSE_NO":"３９５號","E_COORD97":170079.104872,"N_COORD97":2540156.9695799998,"ADDRESS":"仁愛３９５號","OBJECTID":647849},"geometry":{"x":170079.10487200227,"y":2540156.969579}},{"attributes":{"ID":647877,"DIS_CODE":0,"TOWNNAME":"安南區","LI":"州南里","LIN":"12鄰","STREET":"長和路","SECT":"二段","MAREA":" ","LANE":"１８４巷","ALLEY":" ","HOUSE_NO":"１１號","E_COORD97":169985.61224799999,"N_COORD97":2551550.1058100001,"ADDRESS":"長和路二段１８４巷１１號","OBJECTID":647850},"geometry":{"x":169985.61224800069,"y":2551550.1058070008}},{"attributes":{"ID":647878,"DIS_CODE":0,"TOWNNAME":"麻豆區","LI":"港尾里","LIN":"3鄰","STREET":" ","SECT":" ","MAREA":"姓陳寮","LANE":" ","ALLEY":" ","HOUSE_NO":"２號之３","E_COORD97":168846.16343399999,"N_COORD97":2566964.4277300001,"ADDRESS":"姓陳寮２號之３","OBJECTID":647851},"geometry":{"x":168846.16343399975,"y":2566964.4277270008}},{"attributes":{"ID":647879,"DIS_CODE":0,"TOWNNAME":"新營區","LI":"新東里","LIN":"20鄰","STREET":"東明街","SECT":" ","MAREA":" ","LANE":"２８巷","ALLEY":" ","HOUSE_NO":"１６號","E_COORD97":180845.447338,"N_COORD97":2579583.51003,"ADDRESS":"東明街２８巷１６號","OBJECTID":647852},"geometry":{"x":180845.4473380018,"y":2579583.5100270007}},{"attributes":{"ID":647880,"DIS_CODE":0,"TOWNNAME":"新營區","LI":"新東里","LIN":"20鄰","STREET":"東明街","SECT":" ","MAREA":" ","LANE":"２８巷","ALLEY":" ","HOUSE_NO":"２０號","E_COORD97":180856.14739,"N_COORD97":2579582.5575299999,"ADDRESS":"東明街２８巷２０號","OBJECTID":647853},"geometry":{"x":180856.14738999959,"y":2579582.5575270038}},{"attributes":{"ID":647881,"DIS_CODE":0,"TOWNNAME":"楠西區","LI":"灣丘里","LIN":"12鄰","STREET":" ","SECT":" ","MAREA":"香蕉山","LANE":" ","ALLEY":" ","HOUSE_NO":"５０號之１","E_COORD97":203078.35046300001,"N_COORD97":2563721.23832,"ADDRESS":"香蕉山５０號之１","OBJECTID":647854},"geometry":{"x":203078.35046300013,"y":2563721.2383190021}},{"attributes":{"ID":647882,"DIS_CODE":0,"TOWNNAME":"新營區","LI":"新東里","LIN":"20鄰","STREET":"東明街","SECT":" ","MAREA":" ","LANE":"２８巷","ALLEY":" ","HOUSE_NO":"２２號","E_COORD97":180860.06721199999,"N_COORD97":2579582.7691899999,"ADDRESS":"東明街２８巷２２號","OBJECTID":647855},"geometry":{"x":180860.06721199956,"y":2579582.7691939995}},{"attributes":{"ID":647883,"DIS_CODE":0,"TOWNNAME":"新營區","LI":"新東里","LIN":"20鄰","STREET":"東明街","SECT":" ","MAREA":" ","LANE":"２８巷","ALLEY":" ","HOUSE_NO":"２６號","E_COORD97":180864.62267899999,"N_COORD97":2579582.6633600001,"ADDRESS":"東明街２８巷２６號","OBJECTID":647856},"geometry":{"x":180864.62267900165,"y":2579582.663360998}},{"attributes":{"ID":647884,"DIS_CODE":0,"TOWNNAME":"新營區","LI":"新東里","LIN":"21鄰","STREET":"東興路","SECT":" ","MAREA":" ","LANE":" ","ALLEY":" ","HOUSE_NO":"３６０號","E_COORD97":180766.73309299999,"N_COORD97":2579641.7977,"ADDRESS":"東興路３６０號","OBJECTID":647857},"geometry":{"x":180766.73309299909,"y":2579641.7977040019}},{"attributes":{"ID":647885,"DIS_CODE":0,"TOWNNAME":"仁德區","LI":"仁愛里","LIN":"24鄰","STREET":" ","SECT":" ","MAREA":"仁愛","LANE":" ","ALLEY":" ","HOUSE_NO":"４９５之１號","E_COORD97":170054.42147500001,"N_COORD97":2540138.44875,"ADDRESS":"仁愛４９５之１號","OBJECTID":647858},"geometry":{"x":170054.42147499975,"y":2540138.4487549998}},{"attributes":{"ID":647886,"DIS_CODE":0,"TOWNNAME":"仁德區","LI":"仁愛里","LIN":"24鄰","STREET":" ","SECT":" ","MAREA":"仁愛","LANE":" ","ALLEY":" ","HOUSE_NO":"４９６號","E_COORD97":170047.32367499999,"N_COORD97":2540136.4379199999,"ADDRESS":"仁愛４９６號","OBJECTID":647859},"geometry":{"x":170047.32367500011,"y":2540136.4379229993}},{"attributes":{"ID":647887,"DIS_CODE":0,"TOWNNAME":"新營區","LI":"新東里","LIN":"20鄰","STREET":"東興路","SECT":" ","MAREA":" ","LANE":" ","ALLEY":" ","HOUSE_NO":"３５８號","E_COORD97":180766.85027,"N_COORD97":2579636.7713500001,"ADDRESS":"東興路３５８號","OBJECTID":647860},"geometry":{"x":180766.85027000122,"y":2579636.7713500019}},{"attributes":{"ID":647888,"DIS_CODE":0,"TOWNNAME":"安南區","LI":"州南里","LIN":"22鄰","STREET":"長和路","SECT":"三段","MAREA":" ","LANE":"１３３巷","ALLEY":"６６弄","HOUSE_NO":"７號","E_COORD97":169738.05655400001,"N_COORD97":2551315.34773,"ADDRESS":"長和路三段１３３巷６６弄７號","OBJECTID":647861},"geometry":{"x":169738.05655400082,"y":2551315.3477250021}},{"attributes":{"ID":647889,"DIS_CODE":0,"TOWNNAME":"新營區","LI":"新東里","LIN":"20鄰","STREET":"東興路","SECT":" ","MAREA":" ","LANE":" ","ALLEY":" ","HOUSE_NO":"３５６號","E_COORD97":180766.63839000001,"N_COORD97":2579629.9980199998,"ADDRESS":"東興路３５６號","OBJECTID":647862},"geometry":{"x":180766.63839000091,"y":2579629.9980200008}},{"attributes":{"ID":647890,"DIS_CODE":0,"TOWNNAME":"新營區","LI":"新東里","LIN":"21鄰","STREET":"東興路","SECT":" ","MAREA":" ","LANE":" ","ALLEY":" ","HOUSE_NO":"３７８號","E_COORD97":180765.790866,"N_COORD97":2579674.2363399998,"ADDRESS":"東興路３７８號","OBJECTID":647863},"geometry":{"x":180765.79086599965,"y":2579674.2363370042}},{"attributes":{"ID":647891,"DIS_CODE":0,"TOWNNAME":"新營區","LI":"新東里","LIN":"21鄰","STREET":"東興路","SECT":" ","MAREA":" ","LANE":" ","ALLEY":" ","HOUSE_NO":"３８０號","E_COORD97":180764.731455,"N_COORD97":2579679.1046699998,"ADDRESS":"東興路３８０號","OBJECTID":647864},"geometry":{"x":180764.73145500105,"y":2579679.1046680007}},{"attributes":{"ID":647892,"DIS_CODE":0,"TOWNNAME":"仁德區","LI":"仁愛里","LIN":"24鄰","STREET":" ","SECT":" ","MAREA":"仁愛","LANE":" ","ALLEY":" ","HOUSE_NO":"５０６號","E_COORD97":170028.57276899999,"N_COORD97":2540094.4500000002,"ADDRESS":"仁愛５０６號","OBJECTID":647865},"geometry":{"x":170028.57276900113,"y":2540094.450000003}},{"attributes":{"ID":647893,"DIS_CODE":0,"TOWNNAME":"仁德區","LI":"二行里","LIN":"1鄰","STREET":"二仁路","SECT":"一段","MAREA":" ","LANE":" ","ALLEY":" ","HOUSE_NO":"１９５號","E_COORD97":170445.427505,"N_COORD97":2535784.3637600001,"ADDRESS":"二仁路一段１９５號","OBJECTID":647866},"geometry":{"x":170445.42750500143,"y":2535784.3637569994}},{"attributes":{"ID":647894,"DIS_CODE":0,"TOWNNAME":"仁德區","LI":"二行里","LIN":"1鄰","STREET":"二仁路","SECT":"一段","MAREA":" ","LANE":" ","ALLEY":" ","HOUSE_NO":"２６３號","E_COORD97":170380.35638899999,"N_COORD97":2535926.3920100001,"ADDRESS":"二仁路一段２６３號","OBJECTID":647867},"geometry":{"x":170380.35638900008,"y":2535926.3920130022}},{"attributes":{"ID":647895,"DIS_CODE":0,"TOWNNAME":"仁德區","LI":"二行里","LIN":"1鄰","STREET":"二仁路","SECT":"一段","MAREA":" ","LANE":"３１５巷","ALLEY":" ","HOUSE_NO":"１９３之１號","E_COORD97":169851.62707700001,"N_COORD97":2535942.05534,"ADDRESS":"二仁路一段３１５巷１９３之１號","OBJECTID":647868},"geometry":{"x":169851.62707700022,"y":2535942.0553380009}},{"attributes":{"ID":647896,"DIS_CODE":0,"TOWNNAME":"仁德區","LI":"二行里","LIN":"1鄰","STREET":"二仁路","SECT":"一段","MAREA":" ","LANE":"３１５巷","ALLEY":" ","HOUSE_NO":"１９３之２號","E_COORD97":169805.738163,"N_COORD97":2535972.8528200001,"ADDRESS":"二仁路一段３１５巷１９３之２號","OBJECTID":647869},"geometry":{"x":169805.73816299997,"y":2535972.8528210036}},{"attributes":{"ID":647897,"DIS_CODE":0,"TOWNNAME":"仁德區","LI":"二行里","LIN":"1鄰","STREET":"二仁路","SECT":"一段","MAREA":" ","LANE":"３１５巷","ALLEY":" ","HOUSE_NO":"１９３號","E_COORD97":169828.20571499999,"N_COORD97":2535991.9028099999,"ADDRESS":"二仁路一段３１５巷１９３號","OBJECTID":647870},"geometry":{"x":169828.20571500063,"y":2535991.9028110001}},{"attributes":{"ID":647898,"DIS_CODE":0,"TOWNNAME":"仁德區","LI":"二行里","LIN":"1鄰","STREET":"二仁路","SECT":"一段","MAREA":" ","LANE":"３１５巷","ALLEY":" ","HOUSE_NO":"２７３號","E_COORD97":169770.12921399999,"N_COORD97":2535984.0711500002,"ADDRESS":"二仁路一段３１５巷２７３號","OBJECTID":647871},"geometry":{"x":169770.12921400182,"y":2535984.071148999}},{"attributes":{"ID":647899,"DIS_CODE":0,"TOWNNAME":"仁德區","LI":"二行里","LIN":"1鄰","STREET":"二仁路","SECT":"一段","MAREA":" ","LANE":"３１５巷","ALLEY":" ","HOUSE_NO":"５９號","E_COORD97":170151.01779799999,"N_COORD97":2536042.0677800002,"ADDRESS":"二仁路一段３１５巷５９號","OBJECTID":647872},"geometry":{"x":170151.01779800188,"y":2536042.0677840002}},{"attributes":{"ID":647900,"DIS_CODE":0,"TOWNNAME":"新營區","LI":"新東里","LIN":"10鄰","STREET":"東昌街","SECT":" ","MAREA":" ","LANE":" ","ALLEY":" ","HOUSE_NO":"２號","E_COORD97":181300.823623,"N_COORD97":2579579.0419000001,"ADDRESS":"東昌街２號","OBJECTID":647873},"geometry":{"x":181300.82362299971,"y":2579579.0418959986}},{"attributes":{"ID":647901,"DIS_CODE":0,"TOWNNAME":"新營區","LI":"新東里","LIN":"10鄰","STREET":"東仁街","SECT":" ","MAREA":" ","LANE":" ","ALLEY":" ","HOUSE_NO":"１６號","E_COORD97":181279.211637,"N_COORD97":2579565.28357,"ADDRESS":"東仁街１６號","OBJECTID":647874},"geometry":{"x":181279.21163699962,"y":2579565.283569999}},{"attributes":{"ID":647902,"DIS_CODE":0,"TOWNNAME":"新營區","LI":"新東里","LIN":"10鄰","STREET":"東仁街","SECT":" ","MAREA":" ","LANE":" ","ALLEY":" ","HOUSE_NO":"１８號","E_COORD97":181280.48293,"N_COORD97":2579572.2685699998,"ADDRESS":"東仁街１８號","OBJECTID":647875},"geometry":{"x":181280.48293000087,"y":2579572.2685660031}},{"attributes":{"ID":647903,"DIS_CODE":0,"TOWNNAME":"新營區","LI":"新東里","LIN":"10鄰","STREET":"東仁街","SECT":" ","MAREA":" ","LANE":" ","ALLEY":" ","HOUSE_NO":"２０號","E_COORD97":181282.38987000001,"N_COORD97":2579577.3485599998,"ADDRESS":"東仁街２０號","OBJECTID":647876},"geometry":{"x":181282.389870001,"y":2579577.3485630024}},{"attributes":{"ID":647904,"DIS_CODE":0,"TOWNNAME":"新營區","LI":"新東里","LIN":"10鄰","STREET":"東仁街","SECT":" ","MAREA":" ","LANE":" ","ALLEY":" ","HOUSE_NO":"２２號","E_COORD97":181285.14433899999,"N_COORD97":2579583.2752299998,"ADDRESS":"東仁街２２號","OBJECTID":647877},"geometry":{"x":181285.14433899894,"y":2579583.2752270009}},{"attributes":{"ID":647905,"DIS_CODE":0,"TOWNNAME":"山上區","LI":"山上里","LIN":"2鄰","STREET":" ","SECT":" ","MAREA":"山上","LANE":" ","ALLEY":" ","HOUSE_NO":"３４號之１","E_COORD97":184226.527642,"N_COORD97":2555291.9469599999,"ADDRESS":"山上３４號之１","OBJECTID":647878},"geometry":{"x":184226.5276420014,"y":2555291.9469570015}},{"attributes":{"ID":647906,"DIS_CODE":0,"TOWNNAME":"山上區","LI":"山上里","LIN":"2鄰","STREET":" ","SECT":" ","MAREA":"山上","LANE":" ","ALLEY":" ","HOUSE_NO":"３４號之４","E_COORD97":184225.68017199999,"N_COORD97":2555308.3511100002,"ADDRESS":"山上３４號之４","OBJECTID":647879},"geometry":{"x":184225.68017200101,"y":2555308.351114003}},{"attributes":{"ID":647907,"DIS_CODE":0,"TOWNNAME":"官田區","LI":"隆本里","LIN":"1鄰","STREET":"中華路","SECT":"一段","MAREA":" ","LANE":" ","ALLEY":" ","HOUSE_NO":"２５７號","E_COORD97":180879.016401,"N_COORD97":2565799.4558199998,"ADDRESS":"中華路一段２５７號","OBJECTID":647880},"geometry":{"x":180879.01640100218,"y":2565799.4558230005}},{"attributes":{"ID":647908,"DIS_CODE":0,"TOWNNAME":"山上區","LI":"山上里","LIN":"2鄰","STREET":" ","SECT":" ","MAREA":"山上","LANE":" ","ALLEY":" ","HOUSE_NO":"３４號之６","E_COORD97":184235.849808,"N_COORD97":2555315.4419399998,"ADDRESS":"山上３４號之６","OBJECTID":647881},"geometry":{"x":184235.84980800189,"y":2555315.4419440012}},{"attributes":{"ID":647909,"DIS_CODE":0,"TOWNNAME":"山上區","LI":"山上里","LIN":"2鄰","STREET":" ","SECT":" ","MAREA":"山上","LANE":" ","ALLEY":" ","HOUSE_NO":"３４號之８","E_COORD97":184235.849808,"N_COORD97":2555323.80277,"ADDRESS":"山上３４號之８","OBJECTID":647882},"geometry":{"x":184235.84980800189,"y":2555323.8027730007}},{"attributes":{"ID":647910,"DIS_CODE":0,"TOWNNAME":"新營區","LI":"新東里","LIN":"10鄰","STREET":"東仁街","SECT":" ","MAREA":" ","LANE":"４２巷","ALLEY":" ","HOUSE_NO":"３３號","E_COORD97":181376.46557599999,"N_COORD97":2579632.2760299998,"ADDRESS":"東仁街４２巷３３號","OBJECTID":647883},"geometry":{"x":181376.46557599958,"y":2579632.2760339994}},{"attributes":{"ID":647911,"DIS_CODE":0,"TOWNNAME":"安南區","LI":"州南里","LIN":"9鄰","STREET":"長和路","SECT":"三段","MAREA":" ","LANE":"３８巷","ALLEY":" ","HOUSE_NO":"５６號","E_COORD97":169779.57611299999,"N_COORD97":2551600.48245,"ADDRESS":"長和路三段３８巷５６號","OBJECTID":647884},"geometry":{"x":169779.57611300051,"y":2551600.4824470021}},{"attributes":{"ID":647912,"DIS_CODE":0,"TOWNNAME":"新營區","LI":"新東里","LIN":"10鄰","STREET":"東仁街","SECT":" ","MAREA":" ","LANE":"４２巷","ALLEY":" ","HOUSE_NO":"３５號","E_COORD97":181383.66957200001,"N_COORD97":2579630.15937,"ADDRESS":"東仁街４２巷３５號","OBJECTID":647885},"geometry":{"x":181383.66957200132,"y":2579630.1593680028}},{"attributes":{"ID":647913,"DIS_CODE":0,"TOWNNAME":"安南區","LI":"州南里","LIN":"9鄰","STREET":"長和路","SECT":"三段","MAREA":" ","LANE":"３８巷","ALLEY":" ","HOUSE_NO":"５４號","E_COORD97":169785.50463800001,"N_COORD97":2551600.69411,"ADDRESS":"長和路三段３８巷５４號","OBJECTID":647886},"geometry":{"x":169785.50463800132,"y":2551600.6941129994}},{"attributes":{"ID":647914,"DIS_CODE":0,"TOWNNAME":"新營區","LI":"新東里","LIN":"10鄰","STREET":"東仁街","SECT":" ","MAREA":" ","LANE":"８２巷","ALLEY":"８弄","HOUSE_NO":"６０號","E_COORD97":181409.09543799999,"N_COORD97":2579653.65436,"ADDRESS":"東仁街８２巷８弄６０號","OBJECTID":647887},"geometry":{"x":181409.09543799981,"y":2579653.6543560028}},{"attributes":{"ID":647915,"DIS_CODE":0,"TOWNNAME":"新營區","LI":"埤寮里","LIN":"7鄰","STREET":" ","SECT":" ","MAREA":"埤寮","LANE":" ","ALLEY":" ","HOUSE_NO":"３２號","E_COORD97":180441.943256,"N_COORD97":2580966.61185,"ADDRESS":"埤寮３２號","OBJECTID":647888},"geometry":{"x":180441.94325600006,"y":2580966.611854}},{"attributes":{"ID":647916,"DIS_CODE":0,"TOWNNAME":"新營區","LI":"新東里","LIN":"10鄰","STREET":"東仁街","SECT":" ","MAREA":" ","LANE":"８２巷","ALLEY":"８弄","HOUSE_NO":"６２號","E_COORD97":181418.84202000001,"N_COORD97":2579650.4793600002,"ADDRESS":"東仁街８２巷８弄６２號","OBJECTID":647889},"geometry":{"x":181418.84202000033,"y":2579650.4793570042}},{"attributes":{"ID":647917,"DIS_CODE":0,"TOWNNAME":"新營區","LI":"新東里","LIN":"10鄰","STREET":"東仁街","SECT":" ","MAREA":" ","LANE":"８２巷","ALLEY":" ","HOUSE_NO":"４６號","E_COORD97":181423.079665,"N_COORD97":2579689.26725,"ADDRESS":"東仁街８２巷４６號","OBJECTID":647890},"geometry":{"x":181423.07966499962,"y":2579689.2672529984}},{"attributes":{"ID":647918,"DIS_CODE":0,"TOWNNAME":"新營區","LI":"新東里","LIN":"10鄰","STREET":"東仁街","SECT":" ","MAREA":" ","LANE":"８２巷","ALLEY":"８弄","HOUSE_NO":"４６號","E_COORD97":181383.88145399999,"N_COORD97":2579661.9093499999,"ADDRESS":"東仁街８２巷８弄４６號","OBJECTID":647891},"geometry":{"x":181383.88145400118,"y":2579661.9093510006}},{"attributes":{"ID":647919,"DIS_CODE":0,"TOWNNAME":"仁德區","LI":"二行里","LIN":"1鄰","STREET":"二仁路","SECT":"一段","MAREA":" ","LANE":" ","ALLEY":" ","HOUSE_NO":"３２１號","E_COORD97":170287.20083399999,"N_COORD97":2536124.8294099998,"ADDRESS":"二仁路一段３２１號","OBJECTID":647892},"geometry":{"x":170287.20083399955,"y":2536124.8294060007}},{"attributes":{"ID":647920,"DIS_CODE":0,"TOWNNAME":"新營區","LI":"新東里","LIN":"10鄰","STREET":"東仁街","SECT":" ","MAREA":" ","LANE":"８２巷","ALLEY":" ","HOUSE_NO":"４２號","E_COORD97":181417.994492,"N_COORD97":2579691.5426699999,"ADDRESS":"東仁街８２巷４２號","OBJECTID":647893},"geometry":{"x":181417.99449199997,"y":2579691.5426679999}},{"attributes":{"ID":647921,"DIS_CODE":0,"TOWNNAME":"新營區","LI":"新東里","LIN":"10鄰","STREET":"東仁街","SECT":" ","MAREA":" ","LANE":"８２巷","ALLEY":"８弄","HOUSE_NO":"４２號","E_COORD97":181380.49133799999,"N_COORD97":2579663.60268,"ADDRESS":"東仁街８２巷８弄４２號","OBJECTID":647894},"geometry":{"x":181380.49133800063,"y":2579663.6026830003}},{"attributes":{"ID":647922,"DIS_CODE":0,"TOWNNAME":"新營區","LI":"新東里","LIN":"10鄰","STREET":"東仁街","SECT":" ","MAREA":" ","LANE":"８２巷","ALLEY":" ","HOUSE_NO":"４０號","E_COORD97":181414.180612,"N_COORD97":2579692.6009999998,"ADDRESS":"東仁街８２巷４０號","OBJECTID":647895},"geometry":{"x":181414.18061200064,"y":2579692.6010010019}},{"attributes":{"ID":647923,"DIS_CODE":0,"TOWNNAME":"新營區","LI":"新東里","LIN":"10鄰","STREET":"東仁街","SECT":" ","MAREA":" ","LANE":"８２巷","ALLEY":"８弄","HOUSE_NO":"４０號","E_COORD97":181376.04181200001,"N_COORD97":2579664.87268,"ADDRESS":"東仁街８２巷８弄４０號","OBJECTID":647896},"geometry":{"x":181376.0418120008,"y":2579664.8726829998}},{"attributes":{"ID":647924,"DIS_CODE":0,"TOWNNAME":"新營區","LI":"新東里","LIN":"10鄰","STREET":"東仁街","SECT":" ","MAREA":" ","LANE":"８２巷","ALLEY":"８弄","HOUSE_NO":"３８號","E_COORD97":181372.43981400001,"N_COORD97":2579666.5660199998,"ADDRESS":"東仁街８２巷８弄３８號","OBJECTID":647897},"geometry":{"x":181372.43981400132,"y":2579666.5660150014}},{"attributes":{"ID":647925,"DIS_CODE":0,"TOWNNAME":"新營區","LI":"新東里","LIN":"10鄰","STREET":"東仁街","SECT":" ","MAREA":" ","LANE":"８２巷","ALLEY":" ","HOUSE_NO":"３８號","E_COORD97":181409.09543799999,"N_COORD97":2579694.2943299999,"ADDRESS":"東仁街８２巷３８號","OBJECTID":647898},"geometry":{"x":181409.09543799981,"y":2579694.294334}},{"attributes":{"ID":647926,"DIS_CODE":0,"TOWNNAME":"新營區","LI":"新東里","LIN":"10鄰","STREET":"東仁街","SECT":" ","MAREA":" ","LANE":"８２巷","ALLEY":"８弄","HOUSE_NO":"３６號","E_COORD97":181368.20217,"N_COORD97":2579668.2593499999,"ADDRESS":"東仁街８２巷８弄３６號","OBJECTID":647899},"geometry":{"x":181368.20217000041,"y":2579668.2593479995}},{"attributes":{"ID":647927,"DIS_CODE":0,"TOWNNAME":"新營區","LI":"新東里","LIN":"10鄰","STREET":"東仁街","SECT":" ","MAREA":" ","LANE":"８２巷","ALLEY":"８弄","HOUSE_NO":"３２號","E_COORD97":181363.96452499999,"N_COORD97":2579669.74101,"ADDRESS":"東仁街８２巷８弄３２號","OBJECTID":647900},"geometry":{"x":181363.96452500112,"y":2579669.7410130017}},{"attributes":{"ID":647928,"DIS_CODE":0,"TOWNNAME":"仁德區","LI":"二行里","LIN":"1鄰","STREET":"二仁路","SECT":"一段","MAREA":" ","LANE":" ","ALLEY":" ","HOUSE_NO":"３５３號","E_COORD97":170272.575729,"N_COORD97":2536150.4410600001,"ADDRESS":"二仁路一段３５３號","OBJECTID":647901},"geometry":{"x":170272.57572900131,"y":2536150.4410590027}},{"attributes":{"ID":647929,"DIS_CODE":0,"TOWNNAME":"仁德區","LI":"二行里","LIN":"1鄰","STREET":"二仁路","SECT":"一段","MAREA":" ","LANE":" ","ALLEY":" ","HOUSE_NO":"３５５號","E_COORD97":170260.282163,"N_COORD97":2536172.2427099999,"ADDRESS":"二仁路一段３５５號","OBJECTID":647902},"geometry":{"x":170260.28216299973,"y":2536172.2427140009}},{"attributes":{"ID":647930,"DIS_CODE":0,"TOWNNAME":"新營區","LI":"新東里","LIN":"10鄰","STREET":"東仁街","SECT":" ","MAREA":" ","LANE":"８２巷","ALLEY":"８弄","HOUSE_NO":"３３號","E_COORD97":181401.25579600001,"N_COORD97":2579670.3760099998,"ADDRESS":"東仁街８２巷８弄３３號","OBJECTID":647903},"geometry":{"x":181401.25579600222,"y":2579670.3760130014}},{"attributes":{"ID":647931,"DIS_CODE":0,"TOWNNAME":"新營區","LI":"新東里","LIN":"10鄰","STREET":"東仁街","SECT":" ","MAREA":" ","LANE":"８２巷","ALLEY":"８弄","HOUSE_NO":"３５號","E_COORD97":181409.30731999999,"N_COORD97":2579666.9893499999,"ADDRESS":"東仁街８２巷８弄３５號","OBJECTID":647904},"geometry":{"x":181409.30732000154,"y":2579666.9893479999}},{"attributes":{"ID":647932,"DIS_CODE":0,"TOWNNAME":"仁德區","LI":"二行里","LIN":"1鄰","STREET":"二仁路","SECT":"一段","MAREA":" ","LANE":" ","ALLEY":" ","HOUSE_NO":"３６１號","E_COORD97":170246.92880699999,"N_COORD97":2536200.8177,"ADDRESS":"二仁路一段３６１號","OBJECTID":647905},"geometry":{"x":170246.92880700063,"y":2536200.817698}},{"attributes":{"ID":647933,"DIS_CODE":0,"TOWNNAME":"仁德區","LI":"仁愛里","LIN":"23鄰","STREET":" ","SECT":" ","MAREA":"仁愛","LANE":" ","ALLEY":" ","HOUSE_NO":"４９４號","E_COORD97":170062.94708899999,"N_COORD97":2540074.7619099999,"ADDRESS":"仁愛４９４號","OBJECTID":647906},"geometry":{"x":170062.94708899967,"y":2540074.7619090024}},{"attributes":{"ID":647934,"DIS_CODE":0,"TOWNNAME":"永康區","LI":"\u25A0行里","LIN":"19鄰","STREET":"中正南路","SECT":" ","MAREA":" ","LANE":"６５４巷","ALLEY":" ","HOUSE_NO":"４５號之１","E_COORD97":171572.822331,"N_COORD97":2548729.0097400001,"ADDRESS":"中正南路６５４巷４５號之１","OBJECTID":647907},"geometry":{"x":171572.82233100105,"y":2548729.0097410008}},{"attributes":{"ID":647935,"DIS_CODE":0,"TOWNNAME":"新營區","LI":"埤寮里","LIN":"8鄰","STREET":" ","SECT":" ","MAREA":"埤寮","LANE":" ","ALLEY":" ","HOUSE_NO":"４７號","E_COORD97":180520.988476,"N_COORD97":2580969.3635200001,"ADDRESS":"埤寮４７號","OBJECTID":647908},"geometry":{"x":180520.98847599979,"y":2580969.3635190018}},{"attributes":{"ID":647936,"DIS_CODE":0,"TOWNNAME":"新營區","LI":"埤寮里","LIN":"8鄰","STREET":" ","SECT":" ","MAREA":"埤寮","LANE":" ","ALLEY":" ","HOUSE_NO":"５２號之１","E_COORD97":180566.762652,"N_COORD97":2580946.7152,"ADDRESS":"埤寮５２號之１","OBJECTID":647909},"geometry":{"x":180566.76265200134,"y":2580946.715197999}},{"attributes":{"ID":647937,"DIS_CODE":0,"TOWNNAME":"安南區","LI":"州南里","LIN":"10鄰","STREET":"長和路","SECT":"三段","MAREA":" ","LANE":"３８巷","ALLEY":" ","HOUSE_NO":"９號","E_COORD97":169825.73391700001,"N_COORD97":2551561.7474699998,"ADDRESS":"長和路三段３８巷９號","OBJECTID":647910},"geometry":{"x":169825.7339170007,"y":2551561.7474680003}},{"attributes":{"ID":647938,"DIS_CODE":0,"TOWNNAME":"永康區","LI":"埔園里","LIN":"31鄰","STREET":"八德街","SECT":" ","MAREA":" ","LANE":"３００巷","ALLEY":"２弄","HOUSE_NO":"１１號","E_COORD97":173713.31845200001,"N_COORD97":2548622.8060499998,"ADDRESS":"八德街３００巷２弄１１號","OBJECTID":647911},"geometry":{"x":173713.31845199969,"y":2548622.8060480021}},{"attributes":{"ID":647939,"DIS_CODE":0,"TOWNNAME":"永康區","LI":"埔園里","LIN":"31鄰","STREET":"八德街","SECT":" ","MAREA":" ","LANE":"３００巷","ALLEY":"２弄","HOUSE_NO":"１３號","E_COORD97":173715.64991599999,"N_COORD97":2548622.8060499998,"ADDRESS":"八德街３００巷２弄１３號","OBJECTID":647912},"geometry":{"x":173715.64991599973,"y":2548622.8060480021}},{"attributes":{"ID":647940,"DIS_CODE":0,"TOWNNAME":"永康區","LI":"埔園里","LIN":"31鄰","STREET":"八德街","SECT":" ","MAREA":" ","LANE":"３００巷","ALLEY":"２弄","HOUSE_NO":"１５號","E_COORD97":173717.557478,"N_COORD97":2548622.5943800001,"ADDRESS":"八德街３００巷２弄１５號","OBJECTID":647913},"geometry":{"x":173717.55747799948,"y":2548622.5943819992}},{"attributes":{"ID":647941,"DIS_CODE":0,"TOWNNAME":"北門區","LI":"錦湖里","LIN":"5鄰","STREET":" ","SECT":" ","MAREA":"渡子頭","LANE":" ","ALLEY":" ","HOUSE_NO":"３６之２１號","E_COORD97":165120.15466199999,"N_COORD97":2577271.784,"ADDRESS":"渡子頭３６之２１號","OBJECTID":647914},"geometry":{"x":165120.15466200002,"y":2577271.7839979995}},{"attributes":{"ID":647942,"DIS_CODE":0,"TOWNNAME":"新營區","LI":"埤寮里","LIN":"9鄰","STREET":" ","SECT":" ","MAREA":"埤寮","LANE":" ","ALLEY":" ","HOUSE_NO":"６２號","E_COORD97":180506.261539,"N_COORD97":2580907.4510499998,"ADDRESS":"埤寮６２號","OBJECTID":647915},"geometry":{"x":180506.26153900009,"y":2580907.451053001}},{"attributes":{"ID":647943,"DIS_CODE":0,"TOWNNAME":"北門區","LI":"錦湖里","LIN":"5鄰","STREET":" ","SECT":" ","MAREA":"渡子頭","LANE":" ","ALLEY":" ","HOUSE_NO":"３６之２６號","E_COORD97":165196.00319799999,"N_COORD97":2577195.16071,"ADDRESS":"渡子頭３６之２６號","OBJECTID":647916},"geometry":{"x":165196.00319799967,"y":2577195.1607060004}},{"attributes":{"ID":647944,"DIS_CODE":0,"TOWNNAME":"仁德區","LI":"二行里","LIN":"1鄰","STREET":"二仁路","SECT":"一段","MAREA":" ","LANE":"４９１巷","ALLEY":" ","HOUSE_NO":"３１號","E_COORD97":170038.574062,"N_COORD97":2536389.8359300001,"ADDRESS":"二仁路一段４９１巷３１號","OBJECTID":647917},"geometry":{"x":170038.57406200003,"y":2536389.8359300029}},{"attributes":{"ID":647945,"DIS_CODE":0,"TOWNNAME":"北門區","LI":"錦湖里","LIN":"5鄰","STREET":" ","SECT":" ","MAREA":"渡子頭","LANE":" ","ALLEY":" ","HOUSE_NO":"４３號之１","E_COORD97":165151.934775,"N_COORD97":2577495.6213799999,"ADDRESS":"渡子頭４３號之１","OBJECTID":647918},"geometry":{"x":165151.93477500044,"y":2577495.6213770043}},{"attributes":{"ID":647946,"DIS_CODE":0,"TOWNNAME":"仁德區","LI":"二行里","LIN":"1鄰","STREET":"二仁路","SECT":"一段","MAREA":" ","LANE":"４９１巷","ALLEY":" ","HOUSE_NO":"９５號","E_COORD97":169812.20288299999,"N_COORD97":2536314.4826400001,"ADDRESS":"二仁路一段４９１巷９５號","OBJECTID":647919},"geometry":{"x":169812.20288299955,"y":2536314.4826369993}},{"attributes":{"ID":647947,"DIS_CODE":0,"TOWNNAME":"仁德區","LI":"仁愛里","LIN":"22鄰","STREET":" ","SECT":" ","MAREA":"仁愛","LANE":" ","ALLEY":" ","HOUSE_NO":"４６８號","E_COORD97":170107.44076500001,"N_COORD97":2540095.5499999998,"ADDRESS":"仁愛４６８號","OBJECTID":647920},"geometry":{"x":170107.44076500088,"y":2540095.5500000026}},{"attributes":{"ID":647948,"DIS_CODE":0,"TOWNNAME":"新營區","LI":"王公里","LIN":"33鄰","STREET":"長榮路","SECT":"一段","MAREA":" ","LANE":" ","ALLEY":" ","HOUSE_NO":"４５１號","E_COORD97":180547.18361599999,"N_COORD97":2579842.7886800002,"ADDRESS":"長榮路一段４５１號","OBJECTID":647921},"geometry":{"x":180547.18361600116,"y":2579842.7886779997}},{"attributes":{"ID":647949,"DIS_CODE":0,"TOWNNAME":"新營區","LI":"王公里","LIN":"33鄰","STREET":"長榮路","SECT":"一段","MAREA":" ","LANE":" ","ALLEY":" ","HOUSE_NO":"４５３號","E_COORD97":180541.675854,"N_COORD97":2579842.7886800002,"ADDRESS":"長榮路一段４５３號","OBJECTID":647922},"geometry":{"x":180541.67585400026,"y":2579842.7886779997}},{"attributes":{"ID":647950,"DIS_CODE":0,"TOWNNAME":"仁德區","LI":"二行里","LIN":"1鄰","STREET":"二仁路","SECT":"一段","MAREA":" ","LANE":"４９１巷","ALLEY":" ","HOUSE_NO":"３００號","E_COORD97":169742.89260699999,"N_COORD97":2536436.8259000001,"ADDRESS":"二仁路一段４９１巷３００號","OBJECTID":647923},"geometry":{"x":169742.89260700066,"y":2536436.8259040043}},{"attributes":{"ID":647951,"DIS_CODE":0,"TOWNNAME":"安南區","LI":"州南里","LIN":"3鄰","STREET":"北安路","SECT":"三段","MAREA":" ","LANE":" ","ALLEY":" ","HOUSE_NO":"１０３之５號","E_COORD97":169432.75738600001,"N_COORD97":2551137.77936,"ADDRESS":"北安路三段１０３之５號","OBJECTID":647924},"geometry":{"x":169432.75738600083,"y":2551137.779362997}},{"attributes":{"ID":647952,"DIS_CODE":0,"TOWNNAME":"仁德區","LI":"仁愛里","LIN":"22鄰","STREET":" ","SECT":" ","MAREA":"仁愛","LANE":" ","ALLEY":" ","HOUSE_NO":"４６５號","E_COORD97":170125.87385900001,"N_COORD97":2540095.5499999998,"ADDRESS":"仁愛４６５號","OBJECTID":647925},"geometry":{"x":170125.87385900039,"y":2540095.5500000026}},{"attributes":{"ID":647953,"DIS_CODE":0,"TOWNNAME":"仁德區","LI":"仁愛里","LIN":"22鄰","STREET":" ","SECT":" ","MAREA":"仁愛","LANE":" ","ALLEY":" ","HOUSE_NO":"４６５之１號","E_COORD97":170122.16605199999,"N_COORD97":2540095.5499999998,"ADDRESS":"仁愛４６５之１號","OBJECTID":647926},"geometry":{"x":170122.1660520006,"y":2540095.5500000026}},{"attributes":{"ID":647954,"DIS_CODE":0,"TOWNNAME":"新營區","LI":"新東里","LIN":"28鄰","STREET":"東興九街","SECT":" ","MAREA":" ","LANE":"１２巷","ALLEY":" ","HOUSE_NO":"３５號","E_COORD97":180651.00203999999,"N_COORD97":2579823.0975100002,"ADDRESS":"東興九街１２巷３５號","OBJECTID":647927},"geometry":{"x":180651.00204000063,"y":2579823.0975130014}},{"attributes":{"ID":647955,"DIS_CODE":0,"TOWNNAME":"新營區","LI":"埤寮里","LIN":"9鄰","STREET":" ","SECT":" ","MAREA":"埤寮","LANE":" ","ALLEY":" ","HOUSE_NO":"６０之１號","E_COORD97":180515.16207399999,"N_COORD97":2580880.1460699998,"ADDRESS":"埤寮６０之１號","OBJECTID":647928},"geometry":{"x":180515.16207400151,"y":2580880.1460680012}},{"attributes":{"ID":647956,"DIS_CODE":0,"TOWNNAME":"新營區","LI":"新東里","LIN":"10鄰","STREET":"東仁街","SECT":" ","MAREA":" ","LANE":"８２巷","ALLEY":"８弄","HOUSE_NO":"１８號","E_COORD97":181336.229142,"N_COORD97":2579679.2700899998,"ADDRESS":"東仁街８２巷８弄１８號","OBJECTID":647929},"geometry":{"x":181336.2291420009,"y":2579679.2700900026}},{"attributes":{"ID":647957,"DIS_CODE":0,"TOWNNAME":"新營區","LI":"新東里","LIN":"10鄰","STREET":"東仁街","SECT":" ","MAREA":" ","LANE":"８２巷","ALLEY":"８弄","HOUSE_NO":"２０號","E_COORD97":181340.89055099999,"N_COORD97":2579678.2117599999,"ADDRESS":"東仁街８２巷８弄２０號","OBJECTID":647930},"geometry":{"x":181340.89055099897,"y":2579678.2117579989}},{"attributes":{"ID":647958,"DIS_CODE":0,"TOWNNAME":"山上區","LI":"山上里","LIN":"6鄰","STREET":" ","SECT":" ","MAREA":"山上","LANE":" ","ALLEY":" ","HOUSE_NO":"９５之１０號","E_COORD97":184355.448967,"N_COORD97":2555728.3240100001,"ADDRESS":"山上９５之１０號","OBJECTID":647931},"geometry":{"x":184355.4489670014,"y":2555728.3240130004}},{"attributes":{"ID":647959,"DIS_CODE":0,"TOWNNAME":"新營區","LI":"新東里","LIN":"10鄰","STREET":"東仁街","SECT":" ","MAREA":" ","LANE":"８２巷","ALLEY":"８弄","HOUSE_NO":"２２號","E_COORD97":181345.55196000001,"N_COORD97":2579676.3067600001,"ADDRESS":"東仁街８２巷８弄２２號","OBJECTID":647932},"geometry":{"x":181345.55195999984,"y":2579676.3067589998}},{"attributes":{"ID":647960,"DIS_CODE":0,"TOWNNAME":"新營區","LI":"新東里","LIN":"10鄰","STREET":"東仁街","SECT":" ","MAREA":" ","LANE":"８２巷","ALLEY":"８弄","HOUSE_NO":"２６號","E_COORD97":181350.63713300001,"N_COORD97":2579674.7192600002,"ADDRESS":"東仁街８２巷８弄２６號","OBJECTID":647933},"geometry":{"x":181350.63713300042,"y":2579674.7192600016}},{"attributes":{"ID":647961,"DIS_CODE":0,"TOWNNAME":"山上區","LI":"山上里","LIN":"6鄰","STREET":" ","SECT":" ","MAREA":"山上","LANE":" ","ALLEY":" ","HOUSE_NO":"９５號之５","E_COORD97":184331.29608100001,"N_COORD97":2555721.6565200002,"ADDRESS":"山上９５號之５","OBJECTID":647934},"geometry":{"x":184331.29608100001,"y":2555721.6565160006}},{"attributes":{"ID":647962,"DIS_CODE":0,"TOWNNAME":"北門區","LI":"錦湖里","LIN":"9鄰","STREET":" ","SECT":" ","MAREA":"渡子頭","LANE":" ","ALLEY":" ","HOUSE_NO":"８３之５號","E_COORD97":164607.223639,"N_COORD97":2577346.2906200001,"ADDRESS":"渡子頭８３之５號","OBJECTID":647935},"geometry":{"x":164607.22363900021,"y":2577346.2906250004}},{"attributes":{"ID":647963,"DIS_CODE":0,"TOWNNAME":"北門區","LI":"錦湖里","LIN":"9鄰","STREET":" ","SECT":" ","MAREA":"渡子頭","LANE":" ","ALLEY":" ","HOUSE_NO":"８３之６號","E_COORD97":164561.03654100001,"N_COORD97":2577330.2039700001,"ADDRESS":"渡子頭８３之６號","OBJECTID":647936},"geometry":{"x":164561.03654100001,"y":2577330.2039670032}},{"attributes":{"ID":647964,"DIS_CODE":0,"TOWNNAME":"安南區","LI":"州南里","LIN":"3鄰","STREET":"北安路","SECT":"三段","MAREA":" ","LANE":"１７５巷","ALLEY":" ","HOUSE_NO":"５１號","E_COORD97":169345.523372,"N_COORD97":2551326.5859300001,"ADDRESS":"北安路三段１７５巷５１號","OBJECTID":647937},"geometry":{"x":169345.52337200101,"y":2551326.5859280024}},{"attributes":{"ID":647965,"DIS_CODE":0,"TOWNNAME":"新營區","LI":"埤寮里","LIN":"9鄰","STREET":" ","SECT":" ","MAREA":"埤寮","LANE":" ","ALLEY":" ","HOUSE_NO":"６１號","E_COORD97":180493.334573,"N_COORD97":2580883.63857,"ADDRESS":"埤寮６１號","OBJECTID":647938},"geometry":{"x":180493.33457299974,"y":2580883.6385660022}},{"attributes":{"ID":647966,"DIS_CODE":0,"TOWNNAME":"北門區","LI":"錦湖里","LIN":"8鄰","STREET":" ","SECT":" ","MAREA":"渡子頭","LANE":" ","ALLEY":" ","HOUSE_NO":"８１之５號","E_COORD97":164740.064511,"N_COORD97":2577416.0347500001,"ADDRESS":"渡子頭８１之５號","OBJECTID":647939},"geometry":{"x":164740.06451100111,"y":2577416.0347540025}},{"attributes":{"ID":647967,"DIS_CODE":0,"TOWNNAME":"新營區","LI":"王公里","LIN":"9鄰","STREET":"義和街","SECT":" ","MAREA":" ","LANE":" ","ALLEY":" ","HOUSE_NO":"１３之１號","E_COORD97":180376.98439,"N_COORD97":2579041.2521000002,"ADDRESS":"義和街１３之１號","OBJECTID":647940},"geometry":{"x":180376.98438999988,"y":2579041.2521020025}},{"attributes":{"ID":647968,"DIS_CODE":0,"TOWNNAME":"新營區","LI":"王公里","LIN":"9鄰","STREET":"義和街","SECT":" ","MAREA":" ","LANE":" ","ALLEY":" ","HOUSE_NO":"１３之２號","E_COORD97":180371.68846500001,"N_COORD97":2579041.0404400001,"ADDRESS":"義和街１３之２號","OBJECTID":647941},"geometry":{"x":180371.68846500106,"y":2579041.0404360015}},{"attributes":{"ID":647969,"DIS_CODE":0,"TOWNNAME":"新營區","LI":"埤寮里","LIN":"9鄰","STREET":" ","SECT":" ","MAREA":"埤寮","LANE":" ","ALLEY":" ","HOUSE_NO":"５９之８號","E_COORD97":180581.06841000001,"N_COORD97":2580857.1802500002,"ADDRESS":"埤寮５９之８號","OBJECTID":647942},"geometry":{"x":180581.06841000076,"y":2580857.1802469995}},{"attributes":{"ID":647970,"DIS_CODE":0,"TOWNNAME":"官田區","LI":"隆本里","LIN":"5鄰","STREET":"中華路","SECT":"二段","MAREA":" ","LANE":" ","ALLEY":" ","HOUSE_NO":"８號","E_COORD97":180221.59714599999,"N_COORD97":2566337.3005300001,"ADDRESS":"中華路二段８號","OBJECTID":647943},"geometry":{"x":180221.59714600071,"y":2566337.300532002}},{"attributes":{"ID":647971,"DIS_CODE":0,"TOWNNAME":"新營區","LI":"新東里","LIN":"10鄰","STREET":"東仁街","SECT":" ","MAREA":" ","LANE":"８２巷","ALLEY":"８弄","HOUSE_NO":"３號","E_COORD97":181345.36028200001,"N_COORD97":2579704.1781799998,"ADDRESS":"東仁街８２巷８弄３號","OBJECTID":647944},"geometry":{"x":181345.36028200109,"y":2579704.1781780012}},{"attributes":{"ID":647972,"DIS_CODE":0,"TOWNNAME":"官田區","LI":"隆本里","LIN":"5鄰","STREET":"中華路","SECT":"二段","MAREA":" ","LANE":"１０８巷","ALLEY":"１弄","HOUSE_NO":"３號","E_COORD97":180080.54005099999,"N_COORD97":2566550.8720800001,"ADDRESS":"中華路二段１０８巷１弄３號","OBJECTID":647945},"geometry":{"x":180080.54005100019,"y":2566550.8720839992}},{"attributes":{"ID":647973,"DIS_CODE":0,"TOWNNAME":"新營區","LI":"新東里","LIN":"10鄰","STREET":"東仁街","SECT":" ","MAREA":" ","LANE":"８２巷","ALLEY":"８弄","HOUSE_NO":"７號","E_COORD97":181343.55928300001,"N_COORD97":2579693.2889200002,"ADDRESS":"東仁街８２巷８弄７號","OBJECTID":647946},"geometry":{"x":181343.55928300042,"y":2579693.2889169995}},{"attributes":{"ID":647974,"DIS_CODE":0,"TOWNNAME":"北門區","LI":"錦湖里","LIN":"9鄰","STREET":" ","SECT":" ","MAREA":"渡子頭","LANE":" ","ALLEY":" ","HOUSE_NO":"８８號","E_COORD97":164880.95634500001,"N_COORD97":2577554.8880099999,"ADDRESS":"渡子頭８８號","OBJECTID":647947},"geometry":{"x":164880.9563450003,"y":2577554.8880119994}},{"attributes":{"ID":647975,"DIS_CODE":0,"TOWNNAME":"北門區","LI":"錦湖里","LIN":"10鄰","STREET":" ","SECT":" ","MAREA":"渡子頭","LANE":" ","ALLEY":" ","HOUSE_NO":"９２之１號","E_COORD97":164925.024768,"N_COORD97":2577546.2096799999,"ADDRESS":"渡子頭９２之１號","OBJECTID":647948},"geometry":{"x":164925.0247680014,"y":2577546.2096840013}},{"attributes":{"ID":647976,"DIS_CODE":0,"TOWNNAME":"北門區","LI":"錦湖里","LIN":"10鄰","STREET":" ","SECT":" ","MAREA":"渡子頭","LANE":" ","ALLEY":" ","HOUSE_NO":"９２之２號","E_COORD97":164918.66874600001,"N_COORD97":2577541.9763500001,"ADDRESS":"渡子頭９２之２號","OBJECTID":647949},"geometry":{"x":164918.66874600202,"y":2577541.9763520006}},{"attributes":{"ID":647977,"DIS_CODE":0,"TOWNNAME":"北門區","LI":"錦湖里","LIN":"10鄰","STREET":" ","SECT":" ","MAREA":"渡子頭","LANE":" ","ALLEY":" ","HOUSE_NO":"９３號","E_COORD97":164933.28759699999,"N_COORD97":2577586.4263300002,"ADDRESS":"渡子頭９３號","OBJECTID":647950},"geometry":{"x":164933.2875970006,"y":2577586.4263280015}},{"attributes":{"ID":647978,"DIS_CODE":0,"TOWNNAME":"新營區","LI":"南紙里","LIN":"3鄰","STREET":"太子路","SECT":" ","MAREA":" ","LANE":" ","ALLEY":" ","HOUSE_NO":"１４３號","E_COORD97":177944.32388000001,"N_COORD97":2577868.7989699999,"ADDRESS":"太子路１４３號","OBJECTID":647951},"geometry":{"x":177944.32388000004,"y":2577868.7989740018}},{"attributes":{"ID":647979,"DIS_CODE":0,"TOWNNAME":"新營區","LI":"新東里","LIN":"10鄰","STREET":"東仁街","SECT":" ","MAREA":" ","LANE":"８２巷","ALLEY":"８弄","HOUSE_NO":"１５號","E_COORD97":181363.68809400001,"N_COORD97":2579683.19673,"ADDRESS":"東仁街８２巷８弄１５號","OBJECTID":647952},"geometry":{"x":181363.68809400126,"y":2579683.196731003}},{"attributes":{"ID":647980,"DIS_CODE":0,"TOWNNAME":"新營區","LI":"新東里","LIN":"10鄰","STREET":"東仁街","SECT":" ","MAREA":" ","LANE":"８２巷","ALLEY":"８弄","HOUSE_NO":"１７號","E_COORD97":181367.44900299999,"N_COORD97":2579681.6092300001,"ADDRESS":"東仁街８２巷８弄１７號","OBJECTID":647953},"geometry":{"x":181367.44900299981,"y":2579681.609232001}},{"attributes":{"ID":647981,"DIS_CODE":0,"TOWNNAME":"新營區","LI":"南紙里","LIN":"3鄰","STREET":"太子路","SECT":" ","MAREA":" ","LANE":"１５３巷","ALLEY":" ","HOUSE_NO":"１號","E_COORD97":177934.24865299999,"N_COORD97":2577843.0021099998,"ADDRESS":"太子路１５３巷１號","OBJECTID":647954},"geometry":{"x":177934.24865300115,"y":2577843.0021129996}},{"attributes":{"ID":647982,"DIS_CODE":0,"TOWNNAME":"北區","LI":"大山里","LIN":"12鄰","STREET":"和緯路","SECT":"一段","MAREA":" ","LANE":"１７６巷","ALLEY":" ","HOUSE_NO":"６號","E_COORD97":169323.234753,"N_COORD97":2545628.4638200002,"ADDRESS":"和緯路一段１７６巷６號","OBJECTID":647955},"geometry":{"x":169323.23475300055,"y":2545628.4638190009}},{"attributes":{"ID":647983,"DIS_CODE":0,"TOWNNAME":"新營區","LI":"南紙里","LIN":"3鄰","STREET":"太子路","SECT":" ","MAREA":" ","LANE":"１５３巷","ALLEY":" ","HOUSE_NO":"９號","E_COORD97":177939.76351399999,"N_COORD97":2577828.3971199999,"ADDRESS":"太子路１５３巷９號","OBJECTID":647956},"geometry":{"x":177939.76351399999,"y":2577828.397121001}},{"attributes":{"ID":647984,"DIS_CODE":0,"TOWNNAME":"北區","LI":"大山里","LIN":"12鄰","STREET":"和緯路","SECT":"一段","MAREA":" ","LANE":"１７６巷","ALLEY":" ","HOUSE_NO":"８號","E_COORD97":169326.094622,"N_COORD97":2545627.2996499999,"ADDRESS":"和緯路一段１７６巷８號","OBJECTID":647957},"geometry":{"x":169326.09462200012,"y":2545627.299653003}},{"attributes":{"ID":647985,"DIS_CODE":0,"TOWNNAME":"仁德區","LI":"仁愛里","LIN":"23鄰","STREET":" ","SECT":" ","MAREA":"仁愛","LANE":" ","ALLEY":" ","HOUSE_NO":"４７７之１號","E_COORD97":170081.06237,"N_COORD97":2540073.6506599998,"ADDRESS":"仁愛４７７之１號","OBJECTID":647958},"geometry":{"x":170081.06237000134,"y":2540073.6506600026}},{"attributes":{"ID":647986,"DIS_CODE":0,"TOWNNAME":"新營區","LI":"新東里","LIN":"15鄰","STREET":"東安街","SECT":" ","MAREA":" ","LANE":" ","ALLEY":" ","HOUSE_NO":"６６號","E_COORD97":180948.92864599999,"N_COORD97":2579650.7588300002,"ADDRESS":"東安街６６號","OBJECTID":647959},"geometry":{"x":180948.9286460001,"y":2579650.7588320002}},{"attributes":{"ID":647987,"DIS_CODE":0,"TOWNNAME":"新營區","LI":"新東里","LIN":"15鄰","STREET":"東安街","SECT":" ","MAREA":" ","LANE":" ","ALLEY":" ","HOUSE_NO":"８號","E_COORD97":180953.166291,"N_COORD97":2579561.96471,"ADDRESS":"東安街８號","OBJECTID":647960},"geometry":{"x":180953.16629100032,"y":2579561.9647129998}},{"attributes":{"ID":647988,"DIS_CODE":0,"TOWNNAME":"新營區","LI":"新東里","LIN":"15鄰","STREET":"東安街","SECT":" ","MAREA":" ","LANE":" ","ALLEY":" ","HOUSE_NO":"１０號","E_COORD97":180952.74252599999,"N_COORD97":2579566.6213799999,"ADDRESS":"東安街１０號","OBJECTID":647961},"geometry":{"x":180952.74252600223,"y":2579566.6213770006}},{"attributes":{"ID":647989,"DIS_CODE":0,"TOWNNAME":"新營區","LI":"新東里","LIN":"15鄰","STREET":"東安街","SECT":" ","MAREA":" ","LANE":" ","ALLEY":" ","HOUSE_NO":"１６號","E_COORD97":180952.74252599999,"N_COORD97":2579579.2155399998,"ADDRESS":"東安街１６號","OBJECTID":647962},"geometry":{"x":180952.74252600223,"y":2579579.2155370023}},{"attributes":{"ID":647990,"DIS_CODE":0,"TOWNNAME":"北區","LI":"大山里","LIN":"12鄰","STREET":"和緯路","SECT":"一段","MAREA":" ","LANE":"１７６巷","ALLEY":" ","HOUSE_NO":"１２號","E_COORD97":169332.73444100001,"N_COORD97":2545624.3363199998,"ADDRESS":"和緯路一段１７６巷１２號","OBJECTID":647963},"geometry":{"x":169332.73444100097,"y":2545624.336321}},{"attributes":{"ID":647991,"DIS_CODE":0,"TOWNNAME":"新營區","LI":"新東里","LIN":"15鄰","STREET":"東泰一街","SECT":" ","MAREA":" ","LANE":" ","ALLEY":" ","HOUSE_NO":"６６號","E_COORD97":180955.07323099999,"N_COORD97":2579546.4072199999,"ADDRESS":"東泰一街６６號","OBJECTID":647964},"geometry":{"x":180955.07323100045,"y":2579546.407221999}},{"attributes":{"ID":647992,"DIS_CODE":0,"TOWNNAME":"新營區","LI":"新東里","LIN":"15鄰","STREET":"東泰一街","SECT":" ","MAREA":" ","LANE":" ","ALLEY":" ","HOUSE_NO":"６２號","E_COORD97":180961.64157899999,"N_COORD97":2579546.4072199999,"ADDRESS":"東泰一街６２號","OBJECTID":647965},"geometry":{"x":180961.64157900028,"y":2579546.407221999}},{"attributes":{"ID":647993,"DIS_CODE":0,"TOWNNAME":"新營區","LI":"新東里","LIN":"15鄰","STREET":"東泰一街","SECT":" ","MAREA":" ","LANE":" ","ALLEY":" ","HOUSE_NO":"５２號","E_COORD97":180988.76250400001,"N_COORD97":2579547.67722,"ADDRESS":"東泰一街５２號","OBJECTID":647966},"geometry":{"x":180988.76250400208,"y":2579547.6772209983}},{"attributes":{"ID":647994,"DIS_CODE":0,"TOWNNAME":"新營區","LI":"新東里","LIN":"15鄰","STREET":"東泰一街","SECT":" ","MAREA":" ","LANE":" ","ALLEY":" ","HOUSE_NO":"５６號","E_COORD97":180981.982273,"N_COORD97":2579548.94722,"ADDRESS":"東泰一街５６號","OBJECTID":647967},"geometry":{"x":180981.98227300122,"y":2579548.9472199995}},{"attributes":{"ID":647995,"DIS_CODE":0,"TOWNNAME":"新營區","LI":"新東里","LIN":"15鄰","STREET":"東泰一街","SECT":" ","MAREA":" ","LANE":" ","ALLEY":" ","HOUSE_NO":"５８號","E_COORD97":180975.20204199999,"N_COORD97":2579548.7355499999,"ADDRESS":"東泰一街５８號","OBJECTID":647968},"geometry":{"x":180975.20204200223,"y":2579548.7355540022}},{"attributes":{"ID":647996,"DIS_CODE":0,"TOWNNAME":"官田區","LI":"隆本里","LIN":"12鄰","STREET":"中華路","SECT":"二段","MAREA":" ","LANE":"１５巷","ALLEY":" ","HOUSE_NO":"３３號","E_COORD97":179915.49689499999,"N_COORD97":2566477.9000400002,"ADDRESS":"中華路二段１５巷３３號","OBJECTID":647969},"geometry":{"x":179915.49689500127,"y":2566477.9000400007}},{"attributes":{"ID":647997,"DIS_CODE":0,"TOWNNAME":"新營區","LI":"新東里","LIN":"15鄰","STREET":"東智街","SECT":" ","MAREA":" ","LANE":" ","ALLEY":" ","HOUSE_NO":"１號","E_COORD97":180988.76250400001,"N_COORD97":2579565.8805499999,"ADDRESS":"東智街１號","OBJECTID":647970},"geometry":{"x":180988.76250400208,"y":2579565.8805449996}},{"attributes":{"ID":647998,"DIS_CODE":0,"TOWNNAME":"新營區","LI":"新東里","LIN":"15鄰","STREET":"東智街","SECT":" ","MAREA":" ","LANE":" ","ALLEY":" ","HOUSE_NO":"３號","E_COORD97":180987.91497499999,"N_COORD97":2579572.0188799999,"ADDRESS":"東智街３號","OBJECTID":647971},"geometry":{"x":180987.91497500055,"y":2579572.018875001}},{"attributes":{"ID":647999,"DIS_CODE":0,"TOWNNAME":"官田區","LI":"隆本里","LIN":"12鄰","STREET":"中華路","SECT":"二段","MAREA":" ","LANE":"１５巷","ALLEY":" ","HOUSE_NO":"３５號","E_COORD97":179915.49689499999,"N_COORD97":2566473.2433799999,"ADDRESS":"中華路二段１５巷３５號","OBJECTID":647972},"geometry":{"x":179915.49689500127,"y":2566473.2433759999}},{"attributes":{"ID":648000,"DIS_CODE":0,"TOWNNAME":"新營區","LI":"新東里","LIN":"15鄰","STREET":"東智街","SECT":" ","MAREA":" ","LANE":" ","ALLEY":" ","HOUSE_NO":"４９號","E_COORD97":180979.86345100001,"N_COORD97":2579674.2538200002,"ADDRESS":"東智街４９號","OBJECTID":647973},"geometry":{"x":180979.8634510003,"y":2579674.2538190018}},{"attributes":{"ID":648001,"DIS_CODE":0,"TOWNNAME":"新營區","LI":"南紙里","LIN":"4鄰","STREET":"南紙街","SECT":" ","MAREA":" ","LANE":"１５巷","ALLEY":" ","HOUSE_NO":"６號","E_COORD97":177852.37418099999,"N_COORD97":2577768.6013199999,"ADDRESS":"南紙街１５巷６號","OBJECTID":647974},"geometry":{"x":177852.37418100052,"y":2577768.6013200022}},{"attributes":{"ID":648002,"DIS_CODE":0,"TOWNNAME":"北門區","LI":"錦湖里","LIN":"8鄰","STREET":" ","SECT":" ","MAREA":"渡子頭","LANE":" ","ALLEY":" ","HOUSE_NO":"７８之３號","E_COORD97":164917.39754100001,"N_COORD97":2577521.6563599999,"ADDRESS":"渡子頭７８之３號","OBJECTID":647975},"geometry":{"x":164917.39754100051,"y":2577521.6563629992}},{"attributes":{"ID":648003,"DIS_CODE":0,"TOWNNAME":"仁德區","LI":"仁愛里","LIN":"23鄰","STREET":" ","SECT":" ","MAREA":"仁愛","LANE":" ","ALLEY":" ","HOUSE_NO":"４９０號","E_COORD97":170089.64329499999,"N_COORD97":2540049.52067,"ADDRESS":"仁愛４９０號","OBJECTID":647976},"geometry":{"x":170089.64329500031,"y":2540049.5206730012}},{"attributes":{"ID":648004,"DIS_CODE":0,"TOWNNAME":"北門區","LI":"錦湖里","LIN":"8鄰","STREET":" ","SECT":" ","MAREA":"渡子頭","LANE":" ","ALLEY":" ","HOUSE_NO":"７８號之２","E_COORD97":164912.736458,"N_COORD97":2577524.8313600002,"ADDRESS":"渡子頭７８號之２","OBJECTID":647977},"geometry":{"x":164912.73645800166,"y":2577524.8313620035}},{"attributes":{"ID":648005,"DIS_CODE":0,"TOWNNAME":"新營區","LI":"新東里","LIN":"15鄰","STREET":"東智街","SECT":" ","MAREA":" ","LANE":" ","ALLEY":" ","HOUSE_NO":"４３之１號","E_COORD97":180977.40857,"N_COORD97":2579644.8701900002,"ADDRESS":"東智街４３之１號","OBJECTID":647978},"geometry":{"x":180977.4085700009,"y":2579644.8701939993}},{"attributes":{"ID":648006,"DIS_CODE":0,"TOWNNAME":"官田區","LI":"隆本里","LIN":"29鄰","STREET":"中山路","SECT":"一段","MAREA":" ","LANE":" ","ALLEY":" ","HOUSE_NO":"４００號","E_COORD97":179152.178919,"N_COORD97":2566000.1686300002,"ADDRESS":"中山路一段４００號","OBJECTID":647979},"geometry":{"x":179152.17891900055,"y":2566000.1686310004}},{"attributes":{"ID":648007,"DIS_CODE":0,"TOWNNAME":"仁德區","LI":"仁愛里","LIN":"1鄰","STREET":" ","SECT":" ","MAREA":"仁愛","LANE":" ","ALLEY":" ","HOUSE_NO":"１２之１號","E_COORD97":170301.20012699999,"N_COORD97":2540160.2752,"ADDRESS":"仁愛１２之１號","OBJECTID":647980},"geometry":{"x":170301.20012699999,"y":2540160.2751960009}},{"attributes":{"ID":648008,"DIS_CODE":0,"TOWNNAME":"新營區","LI":"新東里","LIN":"15鄰","STREET":"東泰三街","SECT":" ","MAREA":" ","LANE":" ","ALLEY":" ","HOUSE_NO":"３２號","E_COORD97":181031.438536,"N_COORD97":2579606.4791700002,"ADDRESS":"東泰三街３２號","OBJECTID":647981},"geometry":{"x":181031.43853600044,"y":2579606.4791730009}},{"attributes":{"ID":648009,"DIS_CODE":0,"TOWNNAME":"新營區","LI":"新東里","LIN":"15鄰","STREET":"東泰三街","SECT":" ","MAREA":" ","LANE":" ","ALLEY":" ","HOUSE_NO":"３０號","E_COORD97":181035.88806299999,"N_COORD97":2579606.9025099999,"ADDRESS":"東泰三街３０號","OBJECTID":647982},"geometry":{"x":181035.88806299958,"y":2579606.9025059994}},{"attributes":{"ID":648010,"DIS_CODE":0,"TOWNNAME":"新營區","LI":"新東里","LIN":"15鄰","STREET":"東泰三街","SECT":" ","MAREA":" ","LANE":" ","ALLEY":" ","HOUSE_NO":"２８號","E_COORD97":181040.54947200001,"N_COORD97":2579607.5375000001,"ADDRESS":"東泰三街２８號","OBJECTID":647983},"geometry":{"x":181040.54947200045,"y":2579607.5375050008}},{"attributes":{"ID":648011,"DIS_CODE":0,"TOWNNAME":"安南區","LI":"砂崙里","LIN":"7鄰","STREET":"青砂街","SECT":"一段","MAREA":" ","LANE":" ","ALLEY":" ","HOUSE_NO":"６４４號","E_COORD97":159972.601585,"N_COORD97":2552728.6933300002,"ADDRESS":"青砂街一段６４４號","OBJECTID":647984},"geometry":{"x":159972.60158499982,"y":2552728.6933270004}},{"attributes":{"ID":648012,"DIS_CODE":0,"TOWNNAME":"北門區","LI":"錦湖里","LIN":"11鄰","STREET":" ","SECT":" ","MAREA":"渡子頭","LANE":" ","ALLEY":" ","HOUSE_NO":"１０９號","E_COORD97":164997.27155800001,"N_COORD97":2577615.2129799998,"ADDRESS":"渡子頭１０９號","OBJECTID":647985},"geometry":{"x":164997.27155799884,"y":2577615.2129800022}},{"attributes":{"ID":648013,"DIS_CODE":0,"TOWNNAME":"新營區","LI":"新東里","LIN":"15鄰","STREET":"東泰三街","SECT":" ","MAREA":" ","LANE":" ","ALLEY":" ","HOUSE_NO":"２４號","E_COORD97":181050.29605400001,"N_COORD97":2579612.6175000002,"ADDRESS":"東泰三街２４號","OBJECTID":647986},"geometry":{"x":181050.2960540019,"y":2579612.6175030041}},{"attributes":{"ID":648014,"DIS_CODE":0,"TOWNNAME":"新營區","LI":"新東里","LIN":"15鄰","STREET":"東泰三街","SECT":" ","MAREA":" ","LANE":" ","ALLEY":" ","HOUSE_NO":"２２號","E_COORD97":181054.10993400001,"N_COORD97":2579607.7491700002,"ADDRESS":"東泰三街２２號","OBJECTID":647987},"geometry":{"x":181054.1099340003,"y":2579607.7491720021}},{"attributes":{"ID":648015,"DIS_CODE":0,"TOWNNAME":"新營區","LI":"新東里","LIN":"15鄰","STREET":"東泰三街","SECT":" ","MAREA":" ","LANE":" ","ALLEY":" ","HOUSE_NO":"２０號","E_COORD97":181058.771343,"N_COORD97":2579608.38417,"ADDRESS":"東泰三街２０號","OBJECTID":647988},"geometry":{"x":181058.77134300116,"y":2579608.3841720019}},{"attributes":{"ID":648016,"DIS_CODE":0,"TOWNNAME":"新營區","LI":"新東里","LIN":"15鄰","STREET":"東泰三街","SECT":" ","MAREA":" ","LANE":" ","ALLEY":" ","HOUSE_NO":"１６號","E_COORD97":181067.670396,"N_COORD97":2579608.5958400001,"ADDRESS":"東泰三街１６號","OBJECTID":647989},"geometry":{"x":181067.67039600015,"y":2579608.5958379991}},{"attributes":{"ID":648017,"DIS_CODE":0,"TOWNNAME":"新營區","LI":"新東里","LIN":"15鄰","STREET":"東泰三街","SECT":" ","MAREA":" ","LANE":" ","ALLEY":" ","HOUSE_NO":"１４號","E_COORD97":181072.33180499999,"N_COORD97":2579609.65417,"ADDRESS":"東泰三街１４號","OBJECTID":647990},"geometry":{"x":181072.33180500101,"y":2579609.6541710012}},{"attributes":{"ID":648018,"DIS_CODE":0,"TOWNNAME":"安南區","LI":"砂崙里","LIN":"7鄰","STREET":"青砂街","SECT":"一段","MAREA":" ","LANE":"５７２巷","ALLEY":" ","HOUSE_NO":"２之１號","E_COORD97":160105.210242,"N_COORD97":2552595.5550699998,"ADDRESS":"青砂街一段５７２巷２之１號","OBJECTID":647991},"geometry":{"x":160105.21024200134,"y":2552595.5550650023}},{"attributes":{"ID":648019,"DIS_CODE":0,"TOWNNAME":"新營區","LI":"新東里","LIN":"15鄰","STREET":"東泰三街","SECT":" ","MAREA":" ","LANE":" ","ALLEY":" ","HOUSE_NO":"３５號","E_COORD97":181017.56025099999,"N_COORD97":2579592.0329300002,"ADDRESS":"東泰三街３５號","OBJECTID":647992},"geometry":{"x":181017.5602510022,"y":2579592.0329299979}},{"attributes":{"ID":648020,"DIS_CODE":0,"TOWNNAME":"新營區","LI":"新東里","LIN":"15鄰","STREET":"東泰三街","SECT":" ","MAREA":" ","LANE":" ","ALLEY":" ","HOUSE_NO":"２９號","E_COORD97":181053.368346,"N_COORD97":2579590.6571,"ADDRESS":"東泰三街２９號","OBJECTID":647993},"geometry":{"x":181053.36834600102,"y":2579590.6570980027}},{"attributes":{"ID":648021,"DIS_CODE":0,"TOWNNAME":"新營區","LI":"新東里","LIN":"15鄰","STREET":"東泰三街","SECT":" ","MAREA":" ","LANE":" ","ALLEY":" ","HOUSE_NO":"２５號","E_COORD97":181064.49216299999,"N_COORD97":2579594.9962599999,"ADDRESS":"東泰三街２５號","OBJECTID":647994},"geometry":{"x":181064.49216300156,"y":2579594.9962620009}},{"attributes":{"ID":648022,"DIS_CODE":0,"TOWNNAME":"新營區","LI":"新東里","LIN":"15鄰","STREET":"東泰三街","SECT":" ","MAREA":" ","LANE":" ","ALLEY":" ","HOUSE_NO":"２３號","E_COORD97":181071.69615800001,"N_COORD97":2579593.40876,"ADDRESS":"東泰三街２３號","OBJECTID":647995},"geometry":{"x":181071.6961580012,"y":2579593.4087629989}},{"attributes":{"ID":648023,"DIS_CODE":0,"TOWNNAME":"新營區","LI":"新東里","LIN":"15鄰","STREET":"東泰三街","SECT":" ","MAREA":" ","LANE":" ","ALLEY":" ","HOUSE_NO":"２１號","E_COORD97":181078.26450700001,"N_COORD97":2579592.3504300001,"ADDRESS":"東泰三街２１號","OBJECTID":647996},"geometry":{"x":181078.26450700033,"y":2579592.3504300006}},{"attributes":{"ID":648024,"DIS_CODE":0,"TOWNNAME":"安南區","LI":"砂崙里","LIN":"7鄰","STREET":"青砂街","SECT":"一段","MAREA":" ","LANE":"５７２巷","ALLEY":" ","HOUSE_NO":"９６號","E_COORD97":160146.72988599999,"N_COORD97":2552848.07326,"ADDRESS":"青砂街一段５７２巷９６號","OBJECTID":647997},"geometry":{"x":160146.72988600004,"y":2552848.0732620042}},{"attributes":{"ID":648025,"DIS_CODE":0,"TOWNNAME":"新營區","LI":"新東里","LIN":"15鄰","STREET":"東泰三街","SECT":" ","MAREA":" ","LANE":" ","ALLEY":" ","HOUSE_NO":"１９號","E_COORD97":181084.19720900001,"N_COORD97":2579593.0912600001,"ADDRESS":"東泰三街１９號","OBJECTID":647998},"geometry":{"x":181084.19720899966,"y":2579593.0912630018}},{"attributes":{"ID":648026,"DIS_CODE":0,"TOWNNAME":"楠西區","LI":"灣丘里","LIN":"12鄰","STREET":" ","SECT":" ","MAREA":"香蕉山","LANE":" ","ALLEY":" ","HOUSE_NO":"５３號","E_COORD97":203685.928147,"N_COORD97":2563362.6690699998,"ADDRESS":"香蕉山５３號","OBJECTID":647999},"geometry":{"x":203685.92814700119,"y":2563362.6690660026}},{"attributes":{"ID":648027,"DIS_CODE":0,"TOWNNAME":"新營區","LI":"王公里","LIN":"9鄰","STREET":"義和街","SECT":" ","MAREA":" ","LANE":" ","ALLEY":" ","HOUSE_NO":"１３之３號","E_COORD97":180365.54519100001,"N_COORD97":2579041.2521000002,"ADDRESS":"義和街１３之３號","OBJECTID":648000},"geometry":{"x":180365.54519100115,"y":2579041.2521020025}}]}