{"displayFieldName":"TOWNNAME","fieldAliases":{"ID":"ID","DIS_CODE":"DIS_CODE","TOWNNAME":"TOWNNAME","LI":"LI","LIN":"LIN","STREET":"STREET","SECT":"SECT","MAREA":"MAREA","LANE":"LANE","ALLEY":"ALLEY","HOUSE_NO":"HOUSE_NO","E_COORD97":"E_COORD97","N_COORD97":"N_COORD97","ADDRESS":"ADDRESS","OBJECTID":"OBJECTID"},"geometryType":"esriGeometryPoint","spatialReference":{"wkid":102443,"latestWkid":3826},"fields":[{"name":"ID","type":"esriFieldTypeDouble","alias":"ID"},{"name":"DIS_CODE","type":"esriFieldTypeInteger","alias":"DIS_CODE"},{"name":"TOWNNAME","type":"esriFieldTypeString","alias":"TOWNNAME","length":8},{"name":"LI","type":"esriFieldTypeString","alias":"LI","length":8},{"name":"LIN","type":"esriFieldTypeString","alias":"LIN","length":12},{"name":"STREET","type":"esriFieldTypeString","alias":"STREET","length":20},{"name":"SECT","type":"esriFieldTypeString","alias":"SECT","length":8},{"name":"MAREA","type":"esriFieldTypeString","alias":"MAREA","length":12},{"name":"LANE","type":"esriFieldTypeString","alias":"LANE","length":10},{"name":"ALLEY","type":"esriFieldTypeString","alias":"ALLEY","length":10},{"name":"HOUSE_NO","type":"esriFieldTypeString","alias":"HOUSE_NO","length":20},{"name":"E_COORD97","type":"esriFieldTypeDouble","alias":"E_COORD97"},{"name":"N_COORD97","type":"esriFieldTypeDouble","alias":"N_COORD97"},{"name":"ADDRESS","type":"esriFieldTypeString","alias":"ADDRESS","length":50},{"name":"OBJECTID","type":"esriFieldTypeOID","alias":"OBJECTID"}],"features":[{"attributes":{"ID":21401,"DIS_CODE":0,"TOWNNAME":"東山區","LI":"東山里","LIN":"17鄰","STREET":" ","SECT":" ","MAREA":"東山","LANE":" ","ALLEY":" ","HOUSE_NO":"２６０號","E_COORD97":189050.5,"N_COORD97":2580781.98,"ADDRESS":"東山２６０號","OBJECTID":21401},"geometry":{"x":189050.49999999907,"y":2580781.9800000004}},{"attributes":{"ID":21402,"DIS_CODE":0,"TOWNNAME":"東山區","LI":"東山里","LIN":"17鄰","STREET":" ","SECT":" ","MAREA":"東山","LANE":" ","ALLEY":" ","HOUSE_NO":"２６１號之１","E_COORD97":189049.95999999999,"N_COORD97":2580715.6200000001,"ADDRESS":"東山２６１號之１","OBJECTID":21402},"geometry":{"x":189049.95999999996,"y":2580715.6200000029}},{"attributes":{"ID":21403,"DIS_CODE":0,"TOWNNAME":"東山區","LI":"東山里","LIN":"17鄰","STREET":" ","SECT":" ","MAREA":"東山","LANE":" ","ALLEY":" ","HOUSE_NO":"２６１號","E_COORD97":189047.82000000001,"N_COORD97":2580727.0099999998,"ADDRESS":"東山２６１號","OBJECTID":21403},"geometry":{"x":189047.82000000123,"y":2580727.0099999998}},{"attributes":{"ID":21404,"DIS_CODE":0,"TOWNNAME":"東山區","LI":"東山里","LIN":"17鄰","STREET":" ","SECT":" ","MAREA":"東山","LANE":" ","ALLEY":" ","HOUSE_NO":"２６２號","E_COORD97":189043.42000000001,"N_COORD97":2580682.1699999999,"ADDRESS":"東山２６２號","OBJECTID":21404},"geometry":{"x":189043.41999999993,"y":2580682.1699999999}},{"attributes":{"ID":21405,"DIS_CODE":0,"TOWNNAME":"中西區","LI":"光賢里","LIN":"14鄰","STREET":"武聖路","SECT":" ","MAREA":" ","LANE":"６９巷","ALLEY":"４０弄","HOUSE_NO":"３０號七樓之１７","E_COORD97":166628.06,"N_COORD97":2545203.8599999999,"ADDRESS":"武聖路６９巷４０弄３０號七樓之１７","OBJECTID":21405},"geometry":{"x":166628.06000000052,"y":2545203.8599999994}},{"attributes":{"ID":21406,"DIS_CODE":0,"TOWNNAME":"中西區","LI":"光賢里","LIN":"14鄰","STREET":"武聖路","SECT":" ","MAREA":" ","LANE":"６９巷","ALLEY":"４０弄","HOUSE_NO":"３０號七樓之１８","E_COORD97":166628.06,"N_COORD97":2545203.8599999999,"ADDRESS":"武聖路６９巷４０弄３０號七樓之１８","OBJECTID":21406},"geometry":{"x":166628.06000000052,"y":2545203.8599999994}},{"attributes":{"ID":21407,"DIS_CODE":0,"TOWNNAME":"中西區","LI":"光賢里","LIN":"14鄰","STREET":"武聖路","SECT":" ","MAREA":" ","LANE":"６９巷","ALLEY":"４０弄","HOUSE_NO":"３０號七樓之１９","E_COORD97":166628.06,"N_COORD97":2545203.8599999999,"ADDRESS":"武聖路６９巷４０弄３０號七樓之１９","OBJECTID":21407},"geometry":{"x":166628.06000000052,"y":2545203.8599999994}},{"attributes":{"ID":21408,"DIS_CODE":0,"TOWNNAME":"東山區","LI":"東山里","LIN":"17鄰","STREET":" ","SECT":" ","MAREA":"東山","LANE":" ","ALLEY":" ","HOUSE_NO":"２６３號","E_COORD97":189013.64999999999,"N_COORD97":2580634.52,"ADDRESS":"東山２６３號","OBJECTID":21408},"geometry":{"x":189013.65000000037,"y":2580634.5200000014}},{"attributes":{"ID":21409,"DIS_CODE":0,"TOWNNAME":"東山區","LI":"東山里","LIN":"17鄰","STREET":" ","SECT":" ","MAREA":"東山","LANE":" ","ALLEY":" ","HOUSE_NO":"２６４號","E_COORD97":188999.28,"N_COORD97":2580651.73,"ADDRESS":"東山２６４號","OBJECTID":21409},"geometry":{"x":188999.28000000026,"y":2580651.7300000004}},{"attributes":{"ID":21410,"DIS_CODE":0,"TOWNNAME":"東山區","LI":"東正里","LIN":"17鄰","STREET":" ","SECT":" ","MAREA":"東勢","LANE":" ","ALLEY":" ","HOUSE_NO":"１１８號","E_COORD97":189189.59,"N_COORD97":2580365.23,"ADDRESS":"東勢１１８號","OBJECTID":21410},"geometry":{"x":189189.59000000078,"y":2580365.2300000023}},{"attributes":{"ID":21411,"DIS_CODE":0,"TOWNNAME":"東山區","LI":"東正里","LIN":"17鄰","STREET":" ","SECT":" ","MAREA":"東勢","LANE":" ","ALLEY":" ","HOUSE_NO":"１１９號","E_COORD97":189239.37,"N_COORD97":2580343.7999999998,"ADDRESS":"東勢１１９號","OBJECTID":21411},"geometry":{"x":189239.37000000011,"y":2580343.8000000007}},{"attributes":{"ID":21412,"DIS_CODE":0,"TOWNNAME":"東山區","LI":"聖賢里","LIN":"17鄰","STREET":" ","SECT":" ","MAREA":"頂窩","LANE":" ","ALLEY":" ","HOUSE_NO":"３０號之４","E_COORD97":183121.89000000001,"N_COORD97":2578509.8999999999,"ADDRESS":"頂窩３０號之４","OBJECTID":21412},"geometry":{"x":183121.8900000006,"y":2578509.9000000022}},{"attributes":{"ID":21413,"DIS_CODE":0,"TOWNNAME":"中西區","LI":"光賢里","LIN":"14鄰","STREET":"武聖路","SECT":" ","MAREA":" ","LANE":"６９巷","ALLEY":"４０弄","HOUSE_NO":"３０號七樓之２","E_COORD97":166628.06,"N_COORD97":2545203.8599999999,"ADDRESS":"武聖路６９巷４０弄３０號七樓之２","OBJECTID":21413},"geometry":{"x":166628.06000000052,"y":2545203.8599999994}},{"attributes":{"ID":21414,"DIS_CODE":0,"TOWNNAME":"永康區","LI":"埔園里","LIN":"24鄰","STREET":"中正路","SECT":" ","MAREA":" ","LANE":" ","ALLEY":" ","HOUSE_NO":"１１４號","E_COORD97":173558.87,"N_COORD97":2547877.2400000002,"ADDRESS":"中正路１１４號","OBJECTID":21414},"geometry":{"x":173558.87000000011,"y":2547877.2400000002}},{"attributes":{"ID":21415,"DIS_CODE":0,"TOWNNAME":"永康區","LI":"南灣里","LIN":"24鄰","STREET":"立興街","SECT":" ","MAREA":" ","LANE":" ","ALLEY":" ","HOUSE_NO":"１０８號","E_COORD97":174492.03,"N_COORD97":2544737.8300000001,"ADDRESS":"立興街１０８號","OBJECTID":21415},"geometry":{"x":174492.03000000026,"y":2544737.8300000019}},{"attributes":{"ID":21416,"DIS_CODE":0,"TOWNNAME":"東山區","LI":"聖賢里","LIN":"17鄰","STREET":" ","SECT":" ","MAREA":"頂窩","LANE":" ","ALLEY":" ","HOUSE_NO":"３０號之５","E_COORD97":183126.92999999999,"N_COORD97":2578509.6099999999,"ADDRESS":"頂窩３０號之５","OBJECTID":21416},"geometry":{"x":183126.9299999997,"y":2578509.6099999975}},{"attributes":{"ID":21417,"DIS_CODE":0,"TOWNNAME":"東山區","LI":"聖賢里","LIN":"17鄰","STREET":" ","SECT":" ","MAREA":"頂窩","LANE":" ","ALLEY":" ","HOUSE_NO":"３０號","E_COORD97":183106.79000000001,"N_COORD97":2578511.1400000001,"ADDRESS":"頂窩３０號","OBJECTID":21417},"geometry":{"x":183106.79000000004,"y":2578511.1400000025}},{"attributes":{"ID":21418,"DIS_CODE":0,"TOWNNAME":"東山區","LI":"聖賢里","LIN":"17鄰","STREET":" ","SECT":" ","MAREA":"頂窩","LANE":" ","ALLEY":" ","HOUSE_NO":"３１號之１０","E_COORD97":182994.04000000001,"N_COORD97":2578331.1400000001,"ADDRESS":"頂窩３１號之１０","OBJECTID":21418},"geometry":{"x":182994.04000000097,"y":2578331.1400000043}},{"attributes":{"ID":21419,"DIS_CODE":0,"TOWNNAME":"東山區","LI":"聖賢里","LIN":"17鄰","STREET":" ","SECT":" ","MAREA":"頂窩","LANE":" ","ALLEY":" ","HOUSE_NO":"３１之１１號","E_COORD97":182977.14999999999,"N_COORD97":2578300.3300000001,"ADDRESS":"頂窩３１之１１號","OBJECTID":21419},"geometry":{"x":182977.15000000037,"y":2578300.3300000019}},{"attributes":{"ID":21420,"DIS_CODE":0,"TOWNNAME":"東山區","LI":"聖賢里","LIN":"17鄰","STREET":" ","SECT":" ","MAREA":"頂窩","LANE":" ","ALLEY":" ","HOUSE_NO":"３１號之１","E_COORD97":183082.44,"N_COORD97":2578524.9399999999,"ADDRESS":"頂窩３１號之１","OBJECTID":21420},"geometry":{"x":183082.44000000041,"y":2578524.9400000013}},{"attributes":{"ID":21421,"DIS_CODE":0,"TOWNNAME":"永康區","LI":"埔園里","LIN":"24鄰","STREET":"中正路","SECT":" ","MAREA":" ","LANE":" ","ALLEY":" ","HOUSE_NO":"１０２號","E_COORD97":173575.95999999999,"N_COORD97":2547833.9900000002,"ADDRESS":"中正路１０２號","OBJECTID":21421},"geometry":{"x":173575.96000000089,"y":2547833.9900000002}},{"attributes":{"ID":21422,"DIS_CODE":0,"TOWNNAME":"永康區","LI":"南灣里","LIN":"24鄰","STREET":"立興街","SECT":" ","MAREA":" ","LANE":" ","ALLEY":" ","HOUSE_NO":"１０４號","E_COORD97":174505.57000000001,"N_COORD97":2544747.5,"ADDRESS":"立興街１０４號","OBJECTID":21422},"geometry":{"x":174505.56999999937,"y":2544747.5000000019}},{"attributes":{"ID":21423,"DIS_CODE":0,"TOWNNAME":"新營區","LI":"民生里","LIN":" ","STREET":"三民路","SECT":" ","MAREA":" ","LANE":" ","ALLEY":" ","HOUSE_NO":"２１０之１號","E_COORD97":179179.01999999999,"N_COORD97":2578099.3700000001,"ADDRESS":"三民路２１０之１號","OBJECTID":21423},"geometry":{"x":179179.02000000048,"y":2578099.3699999992}},{"attributes":{"ID":21424,"DIS_CODE":0,"TOWNNAME":"新營區","LI":"三仙里","LIN":" ","STREET":"民權路","SECT":" ","MAREA":" ","LANE":" ","ALLEY":" ","HOUSE_NO":"３之３號","E_COORD97":179755.04999999999,"N_COORD97":2578005.8100000001,"ADDRESS":"民權路３之３號","OBJECTID":21424},"geometry":{"x":179755.04999999981,"y":2578005.8100000024}},{"attributes":{"ID":21425,"DIS_CODE":0,"TOWNNAME":"中西區","LI":"光賢里","LIN":"14鄰","STREET":"武聖路","SECT":" ","MAREA":" ","LANE":"６９巷","ALLEY":"４０弄","HOUSE_NO":"３０號七樓之３","E_COORD97":166628.06,"N_COORD97":2545203.8599999999,"ADDRESS":"武聖路６９巷４０弄３０號七樓之３","OBJECTID":21425},"geometry":{"x":166628.06000000052,"y":2545203.8599999994}},{"attributes":{"ID":21426,"DIS_CODE":0,"TOWNNAME":"仁德區","LI":"仁愛里","LIN":"24鄰","STREET":" ","SECT":" ","MAREA":"仁愛","LANE":" ","ALLEY":" ","HOUSE_NO":"４９７號","E_COORD97":170035.034946,"N_COORD97":2540127.44209,"ADDRESS":"仁愛４９７號","OBJECTID":21426},"geometry":{"x":170035.03494599927,"y":2540127.442095004}},{"attributes":{"ID":21427,"DIS_CODE":0,"TOWNNAME":"中西區","LI":"光賢里","LIN":"14鄰","STREET":"武聖路","SECT":" ","MAREA":" ","LANE":"６９巷","ALLEY":"４０弄","HOUSE_NO":"３０號七樓之４","E_COORD97":166628.06,"N_COORD97":2545203.8599999999,"ADDRESS":"武聖路６９巷４０弄３０號七樓之４","OBJECTID":21427},"geometry":{"x":166628.06000000052,"y":2545203.8599999994}},{"attributes":{"ID":21428,"DIS_CODE":0,"TOWNNAME":"中西區","LI":"光賢里","LIN":"14鄰","STREET":"武聖路","SECT":" ","MAREA":" ","LANE":"６９巷","ALLEY":"４０弄","HOUSE_NO":"３０號七樓之５","E_COORD97":166628.06,"N_COORD97":2545203.8599999999,"ADDRESS":"武聖路６９巷４０弄３０號七樓之５","OBJECTID":21428},"geometry":{"x":166628.06000000052,"y":2545203.8599999994}},{"attributes":{"ID":21429,"DIS_CODE":0,"TOWNNAME":"仁德區","LI":"仁和里","LIN":"24鄰","STREET":" ","SECT":" ","MAREA":"仁和","LANE":" ","ALLEY":" ","HOUSE_NO":"４９１號","E_COORD97":170379.12859199999,"N_COORD97":2539772.25,"ADDRESS":"仁和４９１號","OBJECTID":21429},"geometry":{"x":170379.12859200127,"y":2539772.2500000019}},{"attributes":{"ID":21430,"DIS_CODE":0,"TOWNNAME":"仁德區","LI":"仁愛里","LIN":"24鄰","STREET":" ","SECT":" ","MAREA":"仁愛","LANE":" ","ALLEY":" ","HOUSE_NO":"５０２號","E_COORD97":170040.96743600001,"N_COORD97":2540107.9687700002,"ADDRESS":"仁愛５０２號","OBJECTID":21430},"geometry":{"x":170040.9674360007,"y":2540107.9687719997}},{"attributes":{"ID":21431,"DIS_CODE":0,"TOWNNAME":"仁德區","LI":"仁和里","LIN":"24鄰","STREET":" ","SECT":" ","MAREA":"仁和","LANE":" ","ALLEY":" ","HOUSE_NO":"４９６號","E_COORD97":170402.911521,"N_COORD97":2539772.25,"ADDRESS":"仁和４９６號","OBJECTID":21431},"geometry":{"x":170402.91152100079,"y":2539772.2500000019}},{"attributes":{"ID":21432,"DIS_CODE":0,"TOWNNAME":"新市區","LI":"港墘里","LIN":"14鄰","STREET":"長安街","SECT":" ","MAREA":" ","LANE":"３６巷","ALLEY":"３３弄","HOUSE_NO":"１號","E_COORD97":178263.35000000001,"N_COORD97":2552820.3199999998,"ADDRESS":"長安街３６巷３３弄１號","OBJECTID":21432},"geometry":{"x":178263.35000000056,"y":2552820.320000004}},{"attributes":{"ID":21433,"DIS_CODE":0,"TOWNNAME":"中西區","LI":"光賢里","LIN":"14鄰","STREET":"武聖路","SECT":" ","MAREA":" ","LANE":"６９巷","ALLEY":"４０弄","HOUSE_NO":"３０號七樓之６","E_COORD97":166628.06,"N_COORD97":2545203.8599999999,"ADDRESS":"武聖路６９巷４０弄３０號七樓之６","OBJECTID":21433},"geometry":{"x":166628.06000000052,"y":2545203.8599999994}},{"attributes":{"ID":21434,"DIS_CODE":0,"TOWNNAME":"東山區","LI":"聖賢里","LIN":"17鄰","STREET":" ","SECT":" ","MAREA":"頂窩","LANE":" ","ALLEY":" ","HOUSE_NO":"３１號之２","E_COORD97":183059.82999999999,"N_COORD97":2578468.3100000001,"ADDRESS":"頂窩３１號之２","OBJECTID":21434},"geometry":{"x":183059.83000000101,"y":2578468.3100000005}},{"attributes":{"ID":21435,"DIS_CODE":0,"TOWNNAME":"中西區","LI":"光賢里","LIN":"14鄰","STREET":"武聖路","SECT":" ","MAREA":" ","LANE":"６９巷","ALLEY":"４０弄","HOUSE_NO":"３０號七樓之７","E_COORD97":166628.06,"N_COORD97":2545203.8599999999,"ADDRESS":"武聖路６９巷４０弄３０號七樓之７","OBJECTID":21435},"geometry":{"x":166628.06000000052,"y":2545203.8599999994}},{"attributes":{"ID":21436,"DIS_CODE":0,"TOWNNAME":"中西區","LI":"光賢里","LIN":"14鄰","STREET":"武聖路","SECT":" ","MAREA":" ","LANE":"６９巷","ALLEY":"４０弄","HOUSE_NO":"３０號七樓之８","E_COORD97":166628.06,"N_COORD97":2545203.8599999999,"ADDRESS":"武聖路６９巷４０弄３０號七樓之８","OBJECTID":21436},"geometry":{"x":166628.06000000052,"y":2545203.8599999994}},{"attributes":{"ID":21437,"DIS_CODE":0,"TOWNNAME":"中西區","LI":"光賢里","LIN":"14鄰","STREET":"武聖路","SECT":" ","MAREA":" ","LANE":"６９巷","ALLEY":"４０弄","HOUSE_NO":"３０號七樓之９","E_COORD97":166628.06,"N_COORD97":2545203.8599999999,"ADDRESS":"武聖路６９巷４０弄３０號七樓之９","OBJECTID":21437},"geometry":{"x":166628.06000000052,"y":2545203.8599999994}},{"attributes":{"ID":21438,"DIS_CODE":0,"TOWNNAME":"麻豆區","LI":"油車里","LIN":"8鄰","STREET":" ","SECT":" ","MAREA":"油車","LANE":" ","ALLEY":" ","HOUSE_NO":"３４號","E_COORD97":172566.10000000001,"N_COORD97":2565470.0299999998,"ADDRESS":"油車３４號","OBJECTID":21438},"geometry":{"x":172566.10000000056,"y":2565470.0299999993}},{"attributes":{"ID":21439,"DIS_CODE":0,"TOWNNAME":"中西區","LI":"光賢里","LIN":"14鄰","STREET":"武聖路","SECT":" ","MAREA":" ","LANE":"６９巷","ALLEY":"４０弄","HOUSE_NO":"３０號九樓之１","E_COORD97":166628.06,"N_COORD97":2545203.8599999999,"ADDRESS":"武聖路６９巷４０弄３０號九樓之１","OBJECTID":21439},"geometry":{"x":166628.06000000052,"y":2545203.8599999994}},{"attributes":{"ID":21440,"DIS_CODE":0,"TOWNNAME":"中西區","LI":"光賢里","LIN":"14鄰","STREET":"武聖路","SECT":" ","MAREA":" ","LANE":"６９巷","ALLEY":"４０弄","HOUSE_NO":"３０號九樓之１０","E_COORD97":166628.06,"N_COORD97":2545203.8599999999,"ADDRESS":"武聖路６９巷４０弄３０號九樓之１０","OBJECTID":21440},"geometry":{"x":166628.06000000052,"y":2545203.8599999994}},{"attributes":{"ID":21441,"DIS_CODE":0,"TOWNNAME":"永康區","LI":"埔園里","LIN":"24鄰","STREET":"自強路","SECT":" ","MAREA":" ","LANE":"３７９巷","ALLEY":" ","HOUSE_NO":"９號","E_COORD97":173614.79000000001,"N_COORD97":2547906.2999999998,"ADDRESS":"自強路３７９巷９號","OBJECTID":21441},"geometry":{"x":173614.79000000097,"y":2547906.3000000026}},{"attributes":{"ID":21442,"DIS_CODE":0,"TOWNNAME":"新營區","LI":"中營里","LIN":" ","STREET":"中山路","SECT":" ","MAREA":" ","LANE":" ","ALLEY":" ","HOUSE_NO":"２６號","E_COORD97":180634.32999999999,"N_COORD97":2578408.04,"ADDRESS":"中山路２６號","OBJECTID":21442},"geometry":{"x":180634.33000000101,"y":2578408.0399999972}},{"attributes":{"ID":21443,"DIS_CODE":0,"TOWNNAME":"新營區","LI":"民榮里","LIN":"25鄰","STREET":"南昌街","SECT":" ","MAREA":" ","LANE":" ","ALLEY":" ","HOUSE_NO":"５０之３號","E_COORD97":179396.54999999999,"N_COORD97":2577656.4500000002,"ADDRESS":"南昌街５０之３號","OBJECTID":21443},"geometry":{"x":179396.55000000075,"y":2577656.450000003}},{"attributes":{"ID":21444,"DIS_CODE":0,"TOWNNAME":"東山區","LI":"聖賢里","LIN":"17鄰","STREET":" ","SECT":" ","MAREA":"頂窩","LANE":" ","ALLEY":" ","HOUSE_NO":"３１號之３","E_COORD97":183075.72,"N_COORD97":2578471,"ADDRESS":"頂窩３１號之３","OBJECTID":21444},"geometry":{"x":183075.72000000067,"y":2578471.0000000019}},{"attributes":{"ID":21445,"DIS_CODE":0,"TOWNNAME":"東山區","LI":"聖賢里","LIN":"17鄰","STREET":" ","SECT":" ","MAREA":"頂窩","LANE":" ","ALLEY":" ","HOUSE_NO":"３１號之５","E_COORD97":182996.92000000001,"N_COORD97":2578398.8700000001,"ADDRESS":"頂窩３１號之５","OBJECTID":21445},"geometry":{"x":182996.91999999993,"y":2578398.8700000029}},{"attributes":{"ID":21446,"DIS_CODE":0,"TOWNNAME":"東山區","LI":"聖賢里","LIN":"17鄰","STREET":" ","SECT":" ","MAREA":"頂窩","LANE":" ","ALLEY":" ","HOUSE_NO":"３１號之６","E_COORD97":182994.32999999999,"N_COORD97":2578407.8500000001,"ADDRESS":"頂窩３１號之６","OBJECTID":21446},"geometry":{"x":182994.33000000007,"y":2578407.8500000015}},{"attributes":{"ID":21447,"DIS_CODE":0,"TOWNNAME":"東山區","LI":"聖賢里","LIN":"17鄰","STREET":" ","SECT":" ","MAREA":"頂窩","LANE":" ","ALLEY":" ","HOUSE_NO":"３１號","E_COORD97":183102.51000000001,"N_COORD97":2578547.5600000001,"ADDRESS":"頂窩３１號","OBJECTID":21447},"geometry":{"x":183102.51000000071,"y":2578547.5600000005}},{"attributes":{"ID":21448,"DIS_CODE":0,"TOWNNAME":"東山區","LI":"聖賢里","LIN":"17鄰","STREET":" ","SECT":" ","MAREA":"頂窩","LANE":" ","ALLEY":" ","HOUSE_NO":"３２號之１０","E_COORD97":182887.17000000001,"N_COORD97":2578518.4500000002,"ADDRESS":"頂窩３２號之１０","OBJECTID":21448},"geometry":{"x":182887.16999999993,"y":2578518.4500000011}},{"attributes":{"ID":21449,"DIS_CODE":0,"TOWNNAME":"東山區","LI":"聖賢里","LIN":"17鄰","STREET":" ","SECT":" ","MAREA":"頂窩","LANE":" ","ALLEY":" ","HOUSE_NO":"３２號之１１","E_COORD97":182956.41,"N_COORD97":2578532.23,"ADDRESS":"頂窩３２號之１１","OBJECTID":21449},"geometry":{"x":182956.41000000015,"y":2578532.2300000004}},{"attributes":{"ID":21450,"DIS_CODE":0,"TOWNNAME":"善化區","LI":"光文里","LIN":"24鄰","STREET":"中山路","SECT":" ","MAREA":" ","LANE":" ","ALLEY":" ","HOUSE_NO":"２１６號之２","E_COORD97":178185.67000000001,"N_COORD97":2559130.27,"ADDRESS":"中山路２１６號之２","OBJECTID":21450},"geometry":{"x":178185.67000000086,"y":2559130.2700000014}},{"attributes":{"ID":21451,"DIS_CODE":0,"TOWNNAME":"善化區","LI":"光文里","LIN":"24鄰","STREET":"信義路","SECT":" ","MAREA":" ","LANE":" ","ALLEY":" ","HOUSE_NO":"１８３號","E_COORD97":178208.35000000001,"N_COORD97":2559170.5,"ADDRESS":"信義路１８３號","OBJECTID":21451},"geometry":{"x":178208.34999999963,"y":2559170.5000000019}},{"attributes":{"ID":21452,"DIS_CODE":0,"TOWNNAME":"東山區","LI":"聖賢里","LIN":"17鄰","STREET":" ","SECT":" ","MAREA":"頂窩","LANE":" ","ALLEY":" ","HOUSE_NO":"３２號之１６","E_COORD97":182742.23000000001,"N_COORD97":2578435.1499999999,"ADDRESS":"頂窩３２號之１６","OBJECTID":21452},"geometry":{"x":182742.23000000138,"y":2578435.1500000004}},{"attributes":{"ID":21453,"DIS_CODE":0,"TOWNNAME":"仁德區","LI":"仁德里","LIN":"24鄰","STREET":"文孝路","SECT":" ","MAREA":" ","LANE":" ","ALLEY":" ","HOUSE_NO":"２１號","E_COORD97":172081.98000000001,"N_COORD97":2541387.3199999998,"ADDRESS":"文孝路２１號","OBJECTID":21453},"geometry":{"x":172081.98000000045,"y":2541387.3200000003}},{"attributes":{"ID":21454,"DIS_CODE":0,"TOWNNAME":"中西區","LI":"光賢里","LIN":"14鄰","STREET":"武聖路","SECT":" ","MAREA":" ","LANE":"６９巷","ALLEY":"４０弄","HOUSE_NO":"３０號九樓之１１","E_COORD97":166628.06,"N_COORD97":2545203.8599999999,"ADDRESS":"武聖路６９巷４０弄３０號九樓之１１","OBJECTID":21454},"geometry":{"x":166628.06000000052,"y":2545203.8599999994}},{"attributes":{"ID":21455,"DIS_CODE":0,"TOWNNAME":"新營區","LI":"太北里","LIN":"6鄰","STREET":" ","SECT":" ","MAREA":"太子宮","LANE":" ","ALLEY":" ","HOUSE_NO":"４５號之３","E_COORD97":175788.44,"N_COORD97":2577183.4900000002,"ADDRESS":"太子宮４５號之３","OBJECTID":21455},"geometry":{"x":175788.44000000134,"y":2577183.4900000021}},{"attributes":{"ID":21456,"DIS_CODE":0,"TOWNNAME":"新營區","LI":"嘉芳里","LIN":"8鄰","STREET":" ","SECT":" ","MAREA":"茄苳腳","LANE":" ","ALLEY":" ","HOUSE_NO":"７８號之１３","E_COORD97":176851.94,"N_COORD97":2578522.6600000001,"ADDRESS":"茄苳腳７８之１３號","OBJECTID":21456},"geometry":{"x":176851.94000000134,"y":2578522.6600000001}},{"attributes":{"ID":21457,"DIS_CODE":0,"TOWNNAME":"中西區","LI":"光賢里","LIN":"14鄰","STREET":"武聖路","SECT":" ","MAREA":" ","LANE":"６９巷","ALLEY":"４０弄","HOUSE_NO":"３０號九樓之１２","E_COORD97":166628.06,"N_COORD97":2545203.8599999999,"ADDRESS":"武聖路６９巷４０弄３０號九樓之１２","OBJECTID":21457},"geometry":{"x":166628.06000000052,"y":2545203.8599999994}},{"attributes":{"ID":21458,"DIS_CODE":0,"TOWNNAME":"東山區","LI":"聖賢里","LIN":"17鄰","STREET":" ","SECT":" ","MAREA":"頂窩","LANE":" ","ALLEY":" ","HOUSE_NO":"３２號之１７","E_COORD97":182750.53,"N_COORD97":2578411.4399999999,"ADDRESS":"頂窩３２號之１７","OBJECTID":21458},"geometry":{"x":182750.53000000026,"y":2578411.4399999995}},{"attributes":{"ID":21459,"DIS_CODE":0,"TOWNNAME":"東山區","LI":"聖賢里","LIN":"17鄰","STREET":" ","SECT":" ","MAREA":"頂窩","LANE":" ","ALLEY":" ","HOUSE_NO":"３２之１８號","E_COORD97":182064.22,"N_COORD97":2578150.21,"ADDRESS":"頂窩３２之１８號","OBJECTID":21459},"geometry":{"x":182064.21999999974,"y":2578150.2100000009}},{"attributes":{"ID":21460,"DIS_CODE":0,"TOWNNAME":"東山區","LI":"聖賢里","LIN":"17鄰","STREET":" ","SECT":" ","MAREA":"頂窩","LANE":" ","ALLEY":" ","HOUSE_NO":"３２號之１","E_COORD97":183041.82000000001,"N_COORD97":2578570.5,"ADDRESS":"頂窩３２號之１","OBJECTID":21460},"geometry":{"x":183041.8200000003,"y":2578570.5000000019}},{"attributes":{"ID":21461,"DIS_CODE":0,"TOWNNAME":"東山區","LI":"聖賢里","LIN":"17鄰","STREET":" ","SECT":" ","MAREA":"頂窩","LANE":" ","ALLEY":" ","HOUSE_NO":"３２號之２","E_COORD97":182993.26999999999,"N_COORD97":2578531.0299999998,"ADDRESS":"頂窩３２號之２","OBJECTID":21461},"geometry":{"x":182993.27000000048,"y":2578531.0300000012}},{"attributes":{"ID":21462,"DIS_CODE":0,"TOWNNAME":"新化區","LI":"全興里","LIN":"17鄰","STREET":" ","SECT":" ","MAREA":"竹子\u25A0","LANE":" ","ALLEY":" ","HOUSE_NO":"２４７號之４８５","E_COORD97":178314.98999999999,"N_COORD97":2546662.2599999998,"ADDRESS":"竹子\u25A0２４７號之４８５","OBJECTID":21462},"geometry":{"x":178314.99000000022,"y":2546662.2599999998}},{"attributes":{"ID":21463,"DIS_CODE":0,"TOWNNAME":"新化區","LI":"全興里","LIN":"17鄰","STREET":" ","SECT":" ","MAREA":"竹子\u25A0","LANE":" ","ALLEY":" ","HOUSE_NO":"２４７號之６１３","E_COORD97":178363.98000000001,"N_COORD97":2546606.2599999998,"ADDRESS":"竹子\u25A0２４７號之６１３","OBJECTID":21463},"geometry":{"x":178363.98000000045,"y":2546606.2600000016}},{"attributes":{"ID":21464,"DIS_CODE":0,"TOWNNAME":"新化區","LI":"全興里","LIN":"17鄰","STREET":" ","SECT":" ","MAREA":"竹子\u25A0","LANE":" ","ALLEY":" ","HOUSE_NO":"２４７號之３７６","E_COORD97":178338.88,"N_COORD97":2546676.2599999998,"ADDRESS":"竹子\u25A0２４７號之３７６","OBJECTID":21464},"geometry":{"x":178338.87999999989,"y":2546676.2599999998}},{"attributes":{"ID":21465,"DIS_CODE":0,"TOWNNAME":"新化區","LI":"全興里","LIN":"17鄰","STREET":" ","SECT":" ","MAREA":"竹子\u25A0","LANE":" ","ALLEY":" ","HOUSE_NO":"２４７號之４８７","E_COORD97":178310.38,"N_COORD97":2546662.2599999998,"ADDRESS":"竹子\u25A0２４７號之４８７","OBJECTID":21465},"geometry":{"x":178310.37999999989,"y":2546662.2599999998}},{"attributes":{"ID":21466,"DIS_CODE":0,"TOWNNAME":"新化區","LI":"全興里","LIN":"17鄰","STREET":" ","SECT":" ","MAREA":"竹子\u25A0","LANE":" ","ALLEY":" ","HOUSE_NO":"２４７號之３８２","E_COORD97":178324.79000000001,"N_COORD97":2546676.2599999998,"ADDRESS":"竹子\u25A0２４７號之３８２","OBJECTID":21466},"geometry":{"x":178324.78999999911,"y":2546676.2599999998}},{"attributes":{"ID":21467,"DIS_CODE":0,"TOWNNAME":"新化區","LI":"全興里","LIN":"17鄰","STREET":" ","SECT":" ","MAREA":"竹子\u25A0","LANE":" ","ALLEY":" ","HOUSE_NO":"２４７號之４７７","E_COORD97":178333.67999999999,"N_COORD97":2546662.2599999998,"ADDRESS":"竹子\u25A0２４７號之４７７","OBJECTID":21467},"geometry":{"x":178333.68000000156,"y":2546662.2599999998}},{"attributes":{"ID":21468,"DIS_CODE":0,"TOWNNAME":"中西區","LI":"光賢里","LIN":"14鄰","STREET":"武聖路","SECT":" ","MAREA":" ","LANE":"６９巷","ALLEY":"４０弄","HOUSE_NO":"３０號九樓之１３","E_COORD97":166628.06,"N_COORD97":2545203.8599999999,"ADDRESS":"武聖路６９巷４０弄３０號九樓之１３","OBJECTID":21468},"geometry":{"x":166628.06000000052,"y":2545203.8599999994}},{"attributes":{"ID":21469,"DIS_CODE":0,"TOWNNAME":"中西區","LI":"光賢里","LIN":"14鄰","STREET":"武聖路","SECT":" ","MAREA":" ","LANE":"６９巷","ALLEY":"４０弄","HOUSE_NO":"３０號九樓之１４","E_COORD97":166628.06,"N_COORD97":2545203.8599999999,"ADDRESS":"武聖路６９巷４０弄３０號九樓之１４","OBJECTID":21469},"geometry":{"x":166628.06000000052,"y":2545203.8599999994}},{"attributes":{"ID":21470,"DIS_CODE":0,"TOWNNAME":"安定區","LI":"蘇林里","LIN":"17鄰","STREET":" ","SECT":" ","MAREA":"蘇厝","LANE":" ","ALLEY":" ","HOUSE_NO":"１９５號","E_COORD97":173271.42000000001,"N_COORD97":2558952.25,"ADDRESS":"蘇厝１９５號","OBJECTID":21470},"geometry":{"x":173271.41999999993,"y":2558952.25}},{"attributes":{"ID":21471,"DIS_CODE":0,"TOWNNAME":"中西區","LI":"光賢里","LIN":"14鄰","STREET":"武聖路","SECT":" ","MAREA":" ","LANE":"６９巷","ALLEY":"４０弄","HOUSE_NO":"３０號九樓之１５","E_COORD97":166628.06,"N_COORD97":2545203.8599999999,"ADDRESS":"武聖路６９巷４０弄３０號九樓之１５","OBJECTID":21471},"geometry":{"x":166628.06000000052,"y":2545203.8599999994}},{"attributes":{"ID":21472,"DIS_CODE":0,"TOWNNAME":"中西區","LI":"光賢里","LIN":"14鄰","STREET":"武聖路","SECT":" ","MAREA":" ","LANE":"６９巷","ALLEY":"４０弄","HOUSE_NO":"３０號九樓之１６","E_COORD97":166628.06,"N_COORD97":2545203.8599999999,"ADDRESS":"武聖路６９巷４０弄３０號九樓之１６","OBJECTID":21472},"geometry":{"x":166628.06000000052,"y":2545203.8599999994}},{"attributes":{"ID":21473,"DIS_CODE":0,"TOWNNAME":"安定區","LI":"新吉里","LIN":"17鄰","STREET":" ","SECT":" ","MAREA":"新吉","LANE":" ","ALLEY":" ","HOUSE_NO":"１８３號","E_COORD97":168995.01999999999,"N_COORD97":2554091.25,"ADDRESS":"新吉１８３號","OBJECTID":21473},"geometry":{"x":168995.02000000048,"y":2554091.25}},{"attributes":{"ID":21474,"DIS_CODE":0,"TOWNNAME":"安定區","LI":"港南里","LIN":"17鄰","STREET":" ","SECT":" ","MAREA":"港口","LANE":" ","ALLEY":" ","HOUSE_NO":"１４０之２１號","E_COORD97":171584.13318899999,"N_COORD97":2554448.55589,"ADDRESS":"港口１４０之２１號","OBJECTID":21474},"geometry":{"x":171584.13318900112,"y":2554448.5558880027}},{"attributes":{"ID":21475,"DIS_CODE":0,"TOWNNAME":"中西區","LI":"光賢里","LIN":"14鄰","STREET":"武聖路","SECT":" ","MAREA":" ","LANE":"６９巷","ALLEY":"４０弄","HOUSE_NO":"３０號九樓之１７","E_COORD97":166628.06,"N_COORD97":2545203.8599999999,"ADDRESS":"武聖路６９巷４０弄３０號九樓之１７","OBJECTID":21475},"geometry":{"x":166628.06000000052,"y":2545203.8599999994}},{"attributes":{"ID":21476,"DIS_CODE":0,"TOWNNAME":"安定區","LI":"港南里","LIN":"17鄰","STREET":" ","SECT":" ","MAREA":"港口","LANE":" ","ALLEY":" ","HOUSE_NO":"１４０之１１號","E_COORD97":171579.54000000001,"N_COORD97":2554492.2999999998,"ADDRESS":"港口１４０之１１號","OBJECTID":21476},"geometry":{"x":171579.54000000004,"y":2554492.2999999989}},{"attributes":{"ID":21477,"DIS_CODE":0,"TOWNNAME":"中西區","LI":"光賢里","LIN":"14鄰","STREET":"武聖路","SECT":" ","MAREA":" ","LANE":"６９巷","ALLEY":"４０弄","HOUSE_NO":"３０號九樓之１８","E_COORD97":166628.06,"N_COORD97":2545203.8599999999,"ADDRESS":"武聖路６９巷４０弄３０號九樓之１８","OBJECTID":21477},"geometry":{"x":166628.06000000052,"y":2545203.8599999994}},{"attributes":{"ID":21478,"DIS_CODE":0,"TOWNNAME":"安定區","LI":"港南里","LIN":"17鄰","STREET":" ","SECT":" ","MAREA":"港口","LANE":" ","ALLEY":" ","HOUSE_NO":"１４０號之１６","E_COORD97":171560.38,"N_COORD97":2554499.2999999998,"ADDRESS":"港口１４０號之１６","OBJECTID":21478},"geometry":{"x":171560.38000000175,"y":2554499.3000000045}},{"attributes":{"ID":21479,"DIS_CODE":0,"TOWNNAME":"安定區","LI":"蘇厝里","LIN":"17鄰","STREET":" ","SECT":" ","MAREA":"蘇厝","LANE":" ","ALLEY":" ","HOUSE_NO":"４４３之１號","E_COORD97":173267.22,"N_COORD97":2558673.2999999998,"ADDRESS":"蘇厝４４３之１號","OBJECTID":21479},"geometry":{"x":173267.22000000067,"y":2558673.3000000026}},{"attributes":{"ID":21480,"DIS_CODE":0,"TOWNNAME":"新營區","LI":"新北里","LIN":"4鄰","STREET":"三興街","SECT":" ","MAREA":" ","LANE":" ","ALLEY":" ","HOUSE_NO":"８９號","E_COORD97":179432.69,"N_COORD97":2579099.23,"ADDRESS":"三興街８９號","OBJECTID":21480},"geometry":{"x":179432.69000000041,"y":2579099.2300000004}},{"attributes":{"ID":21481,"DIS_CODE":0,"TOWNNAME":"新營區","LI":"王公里","LIN":"20鄰","STREET":"樂利街","SECT":" ","MAREA":" ","LANE":" ","ALLEY":" ","HOUSE_NO":"１２７號","E_COORD97":180488.72,"N_COORD97":2579277.6400000001,"ADDRESS":"樂利街１２７號","OBJECTID":21481},"geometry":{"x":180488.72000000067,"y":2579277.6400000025}},{"attributes":{"ID":21482,"DIS_CODE":0,"TOWNNAME":"南區","LI":"廣州里","LIN":"24鄰","STREET":"福吉五街","SECT":" ","MAREA":" ","LANE":" ","ALLEY":" ","HOUSE_NO":"４９號","E_COORD97":167174.92000000001,"N_COORD97":2542584.9700000002,"ADDRESS":"福吉五街４９號","OBJECTID":21482},"geometry":{"x":167174.92000000086,"y":2542584.9700000025}},{"attributes":{"ID":21483,"DIS_CODE":0,"TOWNNAME":"中西區","LI":"光賢里","LIN":"14鄰","STREET":"武聖路","SECT":" ","MAREA":" ","LANE":"６９巷","ALLEY":"４０弄","HOUSE_NO":"３０號九樓之１９","E_COORD97":166628.06,"N_COORD97":2545203.8599999999,"ADDRESS":"武聖路６９巷４０弄３０號九樓之１９","OBJECTID":21483},"geometry":{"x":166628.06000000052,"y":2545203.8599999994}},{"attributes":{"ID":21484,"DIS_CODE":0,"TOWNNAME":"中西區","LI":"光賢里","LIN":"14鄰","STREET":"武聖路","SECT":" ","MAREA":" ","LANE":"６９巷","ALLEY":"４０弄","HOUSE_NO":"３０號九樓之２","E_COORD97":166628.06,"N_COORD97":2545203.8599999999,"ADDRESS":"武聖路６９巷４０弄３０號九樓之２","OBJECTID":21484},"geometry":{"x":166628.06000000052,"y":2545203.8599999994}},{"attributes":{"ID":21485,"DIS_CODE":0,"TOWNNAME":"中西區","LI":"光賢里","LIN":"14鄰","STREET":"武聖路","SECT":" ","MAREA":" ","LANE":"６９巷","ALLEY":"４０弄","HOUSE_NO":"３０號九樓之３","E_COORD97":166628.06,"N_COORD97":2545203.8599999999,"ADDRESS":"武聖路６９巷４０弄３０號九樓之３","OBJECTID":21485},"geometry":{"x":166628.06000000052,"y":2545203.8599999994}},{"attributes":{"ID":21486,"DIS_CODE":0,"TOWNNAME":"中西區","LI":"光賢里","LIN":"14鄰","STREET":"武聖路","SECT":" ","MAREA":" ","LANE":"６９巷","ALLEY":"４０弄","HOUSE_NO":"３０號九樓之４","E_COORD97":166628.06,"N_COORD97":2545203.8599999999,"ADDRESS":"武聖路６９巷４０弄３０號九樓之４","OBJECTID":21486},"geometry":{"x":166628.06000000052,"y":2545203.8599999994}},{"attributes":{"ID":21487,"DIS_CODE":0,"TOWNNAME":"中西區","LI":"光賢里","LIN":"14鄰","STREET":"武聖路","SECT":" ","MAREA":" ","LANE":"６９巷","ALLEY":"４０弄","HOUSE_NO":"３０號九樓之５","E_COORD97":166628.06,"N_COORD97":2545203.8599999999,"ADDRESS":"武聖路６９巷４０弄３０號九樓之５","OBJECTID":21487},"geometry":{"x":166628.06000000052,"y":2545203.8599999994}},{"attributes":{"ID":21488,"DIS_CODE":0,"TOWNNAME":"中西區","LI":"光賢里","LIN":"14鄰","STREET":"武聖路","SECT":" ","MAREA":" ","LANE":"６９巷","ALLEY":"４０弄","HOUSE_NO":"３０號九樓之６","E_COORD97":166628.06,"N_COORD97":2545203.8599999999,"ADDRESS":"武聖路６９巷４０弄３０號九樓之６","OBJECTID":21488},"geometry":{"x":166628.06000000052,"y":2545203.8599999994}},{"attributes":{"ID":21489,"DIS_CODE":0,"TOWNNAME":"中西區","LI":"光賢里","LIN":"14鄰","STREET":"武聖路","SECT":" ","MAREA":" ","LANE":"６９巷","ALLEY":"４０弄","HOUSE_NO":"３０號九樓之７","E_COORD97":166628.06,"N_COORD97":2545203.8599999999,"ADDRESS":"武聖路６９巷４０弄３０號九樓之７","OBJECTID":21489},"geometry":{"x":166628.06000000052,"y":2545203.8599999994}},{"attributes":{"ID":21490,"DIS_CODE":0,"TOWNNAME":"中西區","LI":"光賢里","LIN":"14鄰","STREET":"武聖路","SECT":" ","MAREA":" ","LANE":"６９巷","ALLEY":"４０弄","HOUSE_NO":"３０號九樓之８","E_COORD97":166628.06,"N_COORD97":2545203.8599999999,"ADDRESS":"武聖路６９巷４０弄３０號九樓之８","OBJECTID":21490},"geometry":{"x":166628.06000000052,"y":2545203.8599999994}},{"attributes":{"ID":21491,"DIS_CODE":0,"TOWNNAME":"中西區","LI":"光賢里","LIN":"14鄰","STREET":"武聖路","SECT":" ","MAREA":" ","LANE":"６９巷","ALLEY":"４０弄","HOUSE_NO":"３０號九樓之９","E_COORD97":166628.06,"N_COORD97":2545203.8599999999,"ADDRESS":"武聖路６９巷４０弄３０號九樓之９","OBJECTID":21491},"geometry":{"x":166628.06000000052,"y":2545203.8599999994}},{"attributes":{"ID":21492,"DIS_CODE":0,"TOWNNAME":"中西區","LI":"光賢里","LIN":"14鄰","STREET":"武聖路","SECT":" ","MAREA":" ","LANE":"６９巷","ALLEY":"４０弄","HOUSE_NO":"３０號八樓之１","E_COORD97":166628.06,"N_COORD97":2545203.8599999999,"ADDRESS":"武聖路６９巷４０弄３０號八樓之１","OBJECTID":21492},"geometry":{"x":166628.06000000052,"y":2545203.8599999994}},{"attributes":{"ID":21493,"DIS_CODE":0,"TOWNNAME":"中西區","LI":"光賢里","LIN":"14鄰","STREET":"武聖路","SECT":" ","MAREA":" ","LANE":"６９巷","ALLEY":"４０弄","HOUSE_NO":"３０號八樓之１０","E_COORD97":166628.06,"N_COORD97":2545203.8599999999,"ADDRESS":"武聖路６９巷４０弄３０號八樓之１０","OBJECTID":21493},"geometry":{"x":166628.06000000052,"y":2545203.8599999994}},{"attributes":{"ID":21494,"DIS_CODE":0,"TOWNNAME":"安定區","LI":"海寮里","LIN":"17鄰","STREET":" ","SECT":" ","MAREA":"海寮","LANE":" ","ALLEY":" ","HOUSE_NO":"１６７號之２","E_COORD97":169365.31,"N_COORD97":2555484.2999999998,"ADDRESS":"海寮１６７號之２","OBJECTID":21494},"geometry":{"x":169365.31000000145,"y":2555484.3000000007}},{"attributes":{"ID":21495,"DIS_CODE":0,"TOWNNAME":"安定區","LI":"港南里","LIN":"17鄰","STREET":" ","SECT":" ","MAREA":"港口","LANE":" ","ALLEY":" ","HOUSE_NO":"１４０之２３號","E_COORD97":171586.56900700001,"N_COORD97":2554456.4933799999,"ADDRESS":"港口１４０之２３號","OBJECTID":21495},"geometry":{"x":171586.56900699995,"y":2554456.4933840018}},{"attributes":{"ID":21496,"DIS_CODE":0,"TOWNNAME":"中西區","LI":"光賢里","LIN":"14鄰","STREET":"武聖路","SECT":" ","MAREA":" ","LANE":"６９巷","ALLEY":"４０弄","HOUSE_NO":"３０號八樓之１１","E_COORD97":166628.06,"N_COORD97":2545203.8599999999,"ADDRESS":"武聖路６９巷４０弄３０號八樓之１１","OBJECTID":21496},"geometry":{"x":166628.06000000052,"y":2545203.8599999994}},{"attributes":{"ID":21497,"DIS_CODE":0,"TOWNNAME":"安定區","LI":"蘇林里","LIN":"17鄰","STREET":" ","SECT":" ","MAREA":"蘇厝","LANE":" ","ALLEY":" ","HOUSE_NO":"１８８號","E_COORD97":173293.92000000001,"N_COORD97":2558946.25,"ADDRESS":"蘇厝１８８號","OBJECTID":21497},"geometry":{"x":173293.91999999993,"y":2558946.25}},{"attributes":{"ID":21498,"DIS_CODE":0,"TOWNNAME":"安定區","LI":"港南里","LIN":"17鄰","STREET":" ","SECT":" ","MAREA":"港口","LANE":" ","ALLEY":" ","HOUSE_NO":"１４０之４６號","E_COORD97":171568.73999999999,"N_COORD97":2554410.2999999998,"ADDRESS":"港口１４０之４６號","OBJECTID":21498},"geometry":{"x":171568.74000000115,"y":2554410.3000000007}},{"attributes":{"ID":21499,"DIS_CODE":0,"TOWNNAME":"中西區","LI":"光賢里","LIN":"14鄰","STREET":"武聖路","SECT":" ","MAREA":" ","LANE":"６９巷","ALLEY":"４０弄","HOUSE_NO":"３０號八樓之１２","E_COORD97":166628.06,"N_COORD97":2545203.8599999999,"ADDRESS":"武聖路６９巷４０弄３０號八樓之１２","OBJECTID":21499},"geometry":{"x":166628.06000000052,"y":2545203.8599999994}},{"attributes":{"ID":21500,"DIS_CODE":0,"TOWNNAME":"永康區","LI":"西勢里","LIN":"24鄰","STREET":"廣興街","SECT":" ","MAREA":" ","LANE":"３８巷","ALLEY":" ","HOUSE_NO":"４１號","E_COORD97":176048.44,"N_COORD97":2546451.6600000001,"ADDRESS":"廣興街３８巷４１號","OBJECTID":21500},"geometry":{"x":176048.44000000134,"y":2546451.660000002}},{"attributes":{"ID":21501,"DIS_CODE":0,"TOWNNAME":"永康區","LI":"埔園里","LIN":"24鄰","STREET":"中正路","SECT":" ","MAREA":" ","LANE":" ","ALLEY":" ","HOUSE_NO":"１０６號","E_COORD97":173556.57000000001,"N_COORD97":2547846.2400000002,"ADDRESS":"中正路１０６號","OBJECTID":21501},"geometry":{"x":173556.57000000123,"y":2547846.2400000002}},{"attributes":{"ID":21502,"DIS_CODE":0,"TOWNNAME":"永康區","LI":"西勢里","LIN":"24鄰","STREET":"廣興街","SECT":" ","MAREA":" ","LANE":" ","ALLEY":" ","HOUSE_NO":"６０號","E_COORD97":176078.39999999999,"N_COORD97":2546575.1800000002,"ADDRESS":"廣興街６０號","OBJECTID":21502},"geometry":{"x":176078.40000000224,"y":2546575.1799999997}},{"attributes":{"ID":21503,"DIS_CODE":0,"TOWNNAME":"永康區","LI":"埔園里","LIN":"24鄰","STREET":"中正路","SECT":" ","MAREA":" ","LANE":" ","ALLEY":" ","HOUSE_NO":"１３４之２號","E_COORD97":173500.76999999999,"N_COORD97":2547898.0499999998,"ADDRESS":"中正路１３４之２號","OBJECTID":21503},"geometry":{"x":173500.77000000048,"y":2547898.0500000026}},{"attributes":{"ID":21504,"DIS_CODE":0,"TOWNNAME":"安定區","LI":"新吉里","LIN":"17鄰","STREET":" ","SECT":" ","MAREA":"新吉","LANE":" ","ALLEY":" ","HOUSE_NO":"２０７號","E_COORD97":168948.82000000001,"N_COORD97":2554087.25,"ADDRESS":"新吉２０７號","OBJECTID":21504},"geometry":{"x":168948.82000000216,"y":2554087.25}},{"attributes":{"ID":21505,"DIS_CODE":0,"TOWNNAME":"永康區","LI":"西勢里","LIN":"24鄰","STREET":"廣興街","SECT":" ","MAREA":" ","LANE":" ","ALLEY":" ","HOUSE_NO":"４８號","E_COORD97":175962.09,"N_COORD97":2546576.98,"ADDRESS":"廣興街４８號","OBJECTID":21505},"geometry":{"x":175962.09000000078,"y":2546576.9800000004}},{"attributes":{"ID":21506,"DIS_CODE":0,"TOWNNAME":"永康區","LI":"西勢里","LIN":"24鄰","STREET":"廣興街","SECT":" ","MAREA":" ","LANE":" ","ALLEY":" ","HOUSE_NO":"４０號","E_COORD97":175936.98999999999,"N_COORD97":2546571.6200000001,"ADDRESS":"廣興街４０號","OBJECTID":21506},"geometry":{"x":175936.99000000209,"y":2546571.6200000029}},{"attributes":{"ID":21507,"DIS_CODE":0,"TOWNNAME":"新營區","LI":"興安里","LIN":" ","STREET":"中興路","SECT":" ","MAREA":" ","LANE":" ","ALLEY":" ","HOUSE_NO":"４２號","E_COORD97":180069.35999999999,"N_COORD97":2577681.9900000002,"ADDRESS":"中興路４２號","OBJECTID":21507},"geometry":{"x":180069.36000000127,"y":2577681.9900000021}},{"attributes":{"ID":21508,"DIS_CODE":0,"TOWNNAME":"中西區","LI":"光賢里","LIN":"14鄰","STREET":"武聖路","SECT":" ","MAREA":" ","LANE":"６９巷","ALLEY":"４０弄","HOUSE_NO":"３０號八樓之１３","E_COORD97":166628.06,"N_COORD97":2545203.8599999999,"ADDRESS":"武聖路６９巷４０弄３０號八樓之１３","OBJECTID":21508},"geometry":{"x":166628.06000000052,"y":2545203.8599999994}},{"attributes":{"ID":21509,"DIS_CODE":0,"TOWNNAME":"中西區","LI":"光賢里","LIN":"14鄰","STREET":"武聖路","SECT":" ","MAREA":" ","LANE":"６９巷","ALLEY":"４０弄","HOUSE_NO":"３０號八樓之１４","E_COORD97":166628.06,"N_COORD97":2545203.8599999999,"ADDRESS":"武聖路６９巷４０弄３０號八樓之１４","OBJECTID":21509},"geometry":{"x":166628.06000000052,"y":2545203.8599999994}},{"attributes":{"ID":21510,"DIS_CODE":0,"TOWNNAME":"新營區","LI":"鐵線里","LIN":"1鄰","STREET":" ","SECT":" ","MAREA":"鐵線橋","LANE":" ","ALLEY":" ","HOUSE_NO":"３號","E_COORD97":176050.42000000001,"N_COORD97":2574056.8599999999,"ADDRESS":"鐵線橋３號","OBJECTID":21510},"geometry":{"x":176050.41999999993,"y":2574056.8600000013}},{"attributes":{"ID":21511,"DIS_CODE":0,"TOWNNAME":"新營區","LI":"角帶里","LIN":" ","STREET":" ","SECT":" ","MAREA":"角帶圍","LANE":" ","ALLEY":" ","HOUSE_NO":"５８之１號","E_COORD97":174809.25,"N_COORD97":2575740.9700000002,"ADDRESS":"角帶圍５８之１號","OBJECTID":21511},"geometry":{"x":174809.25000000186,"y":2575740.9700000007}},{"attributes":{"ID":21512,"DIS_CODE":0,"TOWNNAME":"中西區","LI":"光賢里","LIN":"14鄰","STREET":"武聖路","SECT":" ","MAREA":" ","LANE":"６９巷","ALLEY":"４０弄","HOUSE_NO":"３０號八樓之１５","E_COORD97":166628.06,"N_COORD97":2545203.8599999999,"ADDRESS":"武聖路６９巷４０弄３０號八樓之１５","OBJECTID":21512},"geometry":{"x":166628.06000000052,"y":2545203.8599999994}},{"attributes":{"ID":21513,"DIS_CODE":0,"TOWNNAME":"中西區","LI":"光賢里","LIN":"14鄰","STREET":"武聖路","SECT":" ","MAREA":" ","LANE":"６９巷","ALLEY":"４０弄","HOUSE_NO":"３０號八樓之１６","E_COORD97":166628.06,"N_COORD97":2545203.8599999999,"ADDRESS":"武聖路６９巷４０弄３０號八樓之１６","OBJECTID":21513},"geometry":{"x":166628.06000000052,"y":2545203.8599999994}},{"attributes":{"ID":21514,"DIS_CODE":0,"TOWNNAME":"新營區","LI":"鐵線里","LIN":" ","STREET":" ","SECT":" ","MAREA":"鐵線橋","LANE":" ","ALLEY":" ","HOUSE_NO":"１８之７號","E_COORD97":176125.64000000001,"N_COORD97":2573837.2799999998,"ADDRESS":"鐵線橋１８之７號","OBJECTID":21514},"geometry":{"x":176125.6400000006,"y":2573837.2800000012}},{"attributes":{"ID":21515,"DIS_CODE":0,"TOWNNAME":"新營區","LI":"嘉芳里","LIN":"4鄰","STREET":" ","SECT":" ","MAREA":"茄苳腳","LANE":" ","ALLEY":" ","HOUSE_NO":"３２號","E_COORD97":177009.07000000001,"N_COORD97":2578360.1299999999,"ADDRESS":"茄苳腳３２號","OBJECTID":21515},"geometry":{"x":177009.0700000003,"y":2578360.1300000027}},{"attributes":{"ID":21516,"DIS_CODE":0,"TOWNNAME":"新營區","LI":"太南里","LIN":"13鄰","STREET":" ","SECT":" ","MAREA":"太子宮","LANE":" ","ALLEY":" ","HOUSE_NO":"２７４號","E_COORD97":176185.98999999999,"N_COORD97":2576742.8900000001,"ADDRESS":"太子宮２７４號","OBJECTID":21516},"geometry":{"x":176185.98999999929,"y":2576742.8900000043}},{"attributes":{"ID":21517,"DIS_CODE":0,"TOWNNAME":"中西區","LI":"光賢里","LIN":"14鄰","STREET":"武聖路","SECT":" ","MAREA":" ","LANE":"６９巷","ALLEY":"４０弄","HOUSE_NO":"３０號八樓之１７","E_COORD97":166628.06,"N_COORD97":2545203.8599999999,"ADDRESS":"武聖路６９巷４０弄３０號八樓之１７","OBJECTID":21517},"geometry":{"x":166628.06000000052,"y":2545203.8599999994}},{"attributes":{"ID":21518,"DIS_CODE":0,"TOWNNAME":"中西區","LI":"光賢里","LIN":"14鄰","STREET":"武聖路","SECT":" ","MAREA":" ","LANE":"６９巷","ALLEY":"４０弄","HOUSE_NO":"３０號八樓之１８","E_COORD97":166628.06,"N_COORD97":2545203.8599999999,"ADDRESS":"武聖路６９巷４０弄３０號八樓之１８","OBJECTID":21518},"geometry":{"x":166628.06000000052,"y":2545203.8599999994}},{"attributes":{"ID":21519,"DIS_CODE":0,"TOWNNAME":"中西區","LI":"光賢里","LIN":"14鄰","STREET":"武聖路","SECT":" ","MAREA":" ","LANE":"６９巷","ALLEY":"４０弄","HOUSE_NO":"３０號八樓之１９","E_COORD97":166628.06,"N_COORD97":2545203.8599999999,"ADDRESS":"武聖路６９巷４０弄３０號八樓之１９","OBJECTID":21519},"geometry":{"x":166628.06000000052,"y":2545203.8599999994}},{"attributes":{"ID":21520,"DIS_CODE":0,"TOWNNAME":"中西區","LI":"光賢里","LIN":"14鄰","STREET":"武聖路","SECT":" ","MAREA":" ","LANE":"６９巷","ALLEY":"４０弄","HOUSE_NO":"３０號八樓之２","E_COORD97":166628.06,"N_COORD97":2545203.8599999999,"ADDRESS":"武聖路６９巷４０弄３０號八樓之２","OBJECTID":21520},"geometry":{"x":166628.06000000052,"y":2545203.8599999994}},{"attributes":{"ID":21521,"DIS_CODE":0,"TOWNNAME":"中西區","LI":"光賢里","LIN":"14鄰","STREET":"武聖路","SECT":" ","MAREA":" ","LANE":"６９巷","ALLEY":"４０弄","HOUSE_NO":"３０號八樓之３","E_COORD97":166628.06,"N_COORD97":2545203.8599999999,"ADDRESS":"武聖路６９巷４０弄３０號八樓之３","OBJECTID":21521},"geometry":{"x":166628.06000000052,"y":2545203.8599999994}},{"attributes":{"ID":21522,"DIS_CODE":0,"TOWNNAME":"永康區","LI":"西勢里","LIN":"24鄰","STREET":"廣興街","SECT":" ","MAREA":" ","LANE":"３８巷","ALLEY":" ","HOUSE_NO":"５號","E_COORD97":175946.07000000001,"N_COORD97":2546545.5499999998,"ADDRESS":"廣興街３８巷５號","OBJECTID":21522},"geometry":{"x":175946.0700000003,"y":2546545.5500000007}},{"attributes":{"ID":21523,"DIS_CODE":0,"TOWNNAME":"永康區","LI":"西勢里","LIN":"24鄰","STREET":"廣興街","SECT":" ","MAREA":" ","LANE":"２６巷","ALLEY":" ","HOUSE_NO":"１１號","E_COORD97":175914.10999999999,"N_COORD97":2546510.5899999999,"ADDRESS":"廣興街２６巷１１號","OBJECTID":21523},"geometry":{"x":175914.1100000022,"y":2546510.5899999999}},{"attributes":{"ID":21524,"DIS_CODE":0,"TOWNNAME":"西港區","LI":"慶安里","LIN":"24鄰","STREET":"慶安路","SECT":" ","MAREA":" ","LANE":" ","ALLEY":" ","HOUSE_NO":"４３號","E_COORD97":168292.03,"N_COORD97":2557905.5099999998,"ADDRESS":"慶安路４３號","OBJECTID":21524},"geometry":{"x":168292.03000000119,"y":2557905.5100000016}},{"attributes":{"ID":21525,"DIS_CODE":0,"TOWNNAME":"新營區","LI":"南興里","LIN":"32鄰","STREET":"延平路","SECT":" ","MAREA":" ","LANE":" ","ALLEY":" ","HOUSE_NO":"１４２之３０號","E_COORD97":179681.04000000001,"N_COORD97":2577374.9300000002,"ADDRESS":"延平路１４２之３０號","OBJECTID":21525},"geometry":{"x":179681.0400000019,"y":2577374.9299999997}},{"attributes":{"ID":21526,"DIS_CODE":0,"TOWNNAME":"永康區","LI":"西灣里","LIN":"24鄰","STREET":"永大路","SECT":"二段","MAREA":" ","LANE":" ","ALLEY":" ","HOUSE_NO":"２７５號","E_COORD97":174394.38,"N_COORD97":2545520.4199999999,"ADDRESS":"永大路二段２７５號","OBJECTID":21526},"geometry":{"x":174394.37999999989,"y":2545520.4200000018}},{"attributes":{"ID":21527,"DIS_CODE":0,"TOWNNAME":"新營區","LI":"民生里","LIN":" ","STREET":"復興路","SECT":" ","MAREA":" ","LANE":" ","ALLEY":" ","HOUSE_NO":"２２８之５號","E_COORD97":178928.29000000001,"N_COORD97":2578073.9900000002,"ADDRESS":"復興路２２８之５號","OBJECTID":21527},"geometry":{"x":178928.28999999911,"y":2578073.9900000039}},{"attributes":{"ID":21528,"DIS_CODE":0,"TOWNNAME":"麻豆區","LI":"油車里","LIN":"8鄰","STREET":" ","SECT":" ","MAREA":"油車","LANE":" ","ALLEY":" ","HOUSE_NO":"３５號","E_COORD97":172573.17999999999,"N_COORD97":2565450.8500000001,"ADDRESS":"油車３５號","OBJECTID":21528},"geometry":{"x":172573.1799999997,"y":2565450.8499999996}},{"attributes":{"ID":21529,"DIS_CODE":0,"TOWNNAME":"新營區","LI":"南興里","LIN":"32鄰","STREET":"延平路","SECT":" ","MAREA":" ","LANE":" ","ALLEY":" ","HOUSE_NO":"１５６號","E_COORD97":179722.22,"N_COORD97":2577356.9399999999,"ADDRESS":"延平路１５６號","OBJECTID":21529},"geometry":{"x":179722.22000000067,"y":2577356.9399999995}},{"attributes":{"ID":21530,"DIS_CODE":0,"TOWNNAME":"新營區","LI":"大宏里","LIN":"13鄰","STREET":"文昌街","SECT":" ","MAREA":" ","LANE":" ","ALLEY":" ","HOUSE_NO":"４８之１號","E_COORD97":180260.04999999999,"N_COORD97":2578327.9100000001,"ADDRESS":"文昌街４８之１號","OBJECTID":21530},"geometry":{"x":180260.04999999981,"y":2578327.9100000001}},{"attributes":{"ID":21531,"DIS_CODE":0,"TOWNNAME":"東區","LI":"文聖里","LIN":"20鄰","STREET":"裕信二街","SECT":" ","MAREA":" ","LANE":" ","ALLEY":" ","HOUSE_NO":"１５８號","E_COORD97":172780.89999999999,"N_COORD97":2542614.0800000001,"ADDRESS":"裕信二街１５８號","OBJECTID":21531},"geometry":{"x":172780.90000000037,"y":2542614.0800000019}},{"attributes":{"ID":21532,"DIS_CODE":0,"TOWNNAME":"東區","LI":"文聖里","LIN":"20鄰","STREET":"裕信二街","SECT":" ","MAREA":" ","LANE":" ","ALLEY":" ","HOUSE_NO":"１６０號","E_COORD97":172774.42000000001,"N_COORD97":2542614.4300000002,"ADDRESS":"裕信二街１６０號","OBJECTID":21532},"geometry":{"x":172774.42000000086,"y":2542614.4300000016}},{"attributes":{"ID":21533,"DIS_CODE":0,"TOWNNAME":"東區","LI":"文聖里","LIN":"20鄰","STREET":"裕信二街","SECT":" ","MAREA":" ","LANE":" ","ALLEY":" ","HOUSE_NO":"１６２號","E_COORD97":172774.42000000001,"N_COORD97":2542607.1499999999,"ADDRESS":"裕信二街１６２號","OBJECTID":21533},"geometry":{"x":172774.42000000086,"y":2542607.1500000022}},{"attributes":{"ID":21534,"DIS_CODE":0,"TOWNNAME":"東區","LI":"文聖里","LIN":"20鄰","STREET":"裕信二街","SECT":" ","MAREA":" ","LANE":" ","ALLEY":" ","HOUSE_NO":"１６６號","E_COORD97":172779.97,"N_COORD97":2542607.2599999998,"ADDRESS":"裕信二街１６６號","OBJECTID":21534},"geometry":{"x":172779.96999999881,"y":2542607.2599999998}},{"attributes":{"ID":21535,"DIS_CODE":0,"TOWNNAME":"東區","LI":"文聖里","LIN":"20鄰","STREET":"裕信二街","SECT":" ","MAREA":" ","LANE":" ","ALLEY":" ","HOUSE_NO":"１６８號","E_COORD97":172785.75,"N_COORD97":2542607.2599999998,"ADDRESS":"裕信二街１６８號","OBJECTID":21535},"geometry":{"x":172785.75000000093,"y":2542607.2599999998}},{"attributes":{"ID":21536,"DIS_CODE":0,"TOWNNAME":"中西區","LI":"光賢里","LIN":"14鄰","STREET":"武聖路","SECT":" ","MAREA":" ","LANE":"６９巷","ALLEY":"４０弄","HOUSE_NO":"３０號八樓之４","E_COORD97":166628.06,"N_COORD97":2545203.8599999999,"ADDRESS":"武聖路６９巷４０弄３０號八樓之４","OBJECTID":21536},"geometry":{"x":166628.06000000052,"y":2545203.8599999994}},{"attributes":{"ID":21537,"DIS_CODE":0,"TOWNNAME":"中西區","LI":"光賢里","LIN":"14鄰","STREET":"武聖路","SECT":" ","MAREA":" ","LANE":"６９巷","ALLEY":"４０弄","HOUSE_NO":"３０號八樓之５","E_COORD97":166628.06,"N_COORD97":2545203.8599999999,"ADDRESS":"武聖路６９巷４０弄３０號八樓之５","OBJECTID":21537},"geometry":{"x":166628.06000000052,"y":2545203.8599999994}},{"attributes":{"ID":21538,"DIS_CODE":0,"TOWNNAME":"安定區","LI":"港口里","LIN":"17鄰","STREET":" ","SECT":" ","MAREA":"港口","LANE":" ","ALLEY":" ","HOUSE_NO":"３６８號之２","E_COORD97":171460.66,"N_COORD97":2554938.2999999998,"ADDRESS":"港口３６８號之２","OBJECTID":21538},"geometry":{"x":171460.66000000108,"y":2554938.3000000026}},{"attributes":{"ID":21539,"DIS_CODE":0,"TOWNNAME":"中西區","LI":"光賢里","LIN":"14鄰","STREET":"武聖路","SECT":" ","MAREA":" ","LANE":"６９巷","ALLEY":"４０弄","HOUSE_NO":"３０號八樓之６","E_COORD97":166628.06,"N_COORD97":2545203.8599999999,"ADDRESS":"武聖路６９巷４０弄３０號八樓之６","OBJECTID":21539},"geometry":{"x":166628.06000000052,"y":2545203.8599999994}},{"attributes":{"ID":21540,"DIS_CODE":0,"TOWNNAME":"中西區","LI":"光賢里","LIN":"14鄰","STREET":"武聖路","SECT":" ","MAREA":" ","LANE":"６９巷","ALLEY":"４０弄","HOUSE_NO":"３０號八樓之７","E_COORD97":166628.06,"N_COORD97":2545203.8599999999,"ADDRESS":"武聖路６９巷４０弄３０號八樓之７","OBJECTID":21540},"geometry":{"x":166628.06000000052,"y":2545203.8599999994}},{"attributes":{"ID":21541,"DIS_CODE":0,"TOWNNAME":"中西區","LI":"光賢里","LIN":"14鄰","STREET":"武聖路","SECT":" ","MAREA":" ","LANE":"６９巷","ALLEY":"４０弄","HOUSE_NO":"３０號八樓之８","E_COORD97":166628.06,"N_COORD97":2545203.8599999999,"ADDRESS":"武聖路６９巷４０弄３０號八樓之８","OBJECTID":21541},"geometry":{"x":166628.06000000052,"y":2545203.8599999994}},{"attributes":{"ID":21542,"DIS_CODE":0,"TOWNNAME":"安定區","LI":"港口里","LIN":"17鄰","STREET":" ","SECT":" ","MAREA":"港口","LANE":" ","ALLEY":" ","HOUSE_NO":"３６８號","E_COORD97":171480.09,"N_COORD97":2554929.25,"ADDRESS":"港口３６８號","OBJECTID":21542},"geometry":{"x":171480.08999999985,"y":2554929.2499999981}},{"attributes":{"ID":21543,"DIS_CODE":0,"TOWNNAME":"安定區","LI":"港口里","LIN":"17鄰","STREET":" ","SECT":" ","MAREA":"港口","LANE":" ","ALLEY":" ","HOUSE_NO":"３６４之１５號","E_COORD97":171557.54000000001,"N_COORD97":2554884.2999999998,"ADDRESS":"港口３６４之１５號","OBJECTID":21543},"geometry":{"x":171557.54000000004,"y":2554884.3000000007}},{"attributes":{"ID":21544,"DIS_CODE":0,"TOWNNAME":"安定區","LI":"港口里","LIN":"17鄰","STREET":" ","SECT":" ","MAREA":"港口","LANE":" ","ALLEY":" ","HOUSE_NO":"３６９號","E_COORD97":171494.39000000001,"N_COORD97":2554947.25,"ADDRESS":"港口３６９號","OBJECTID":21544},"geometry":{"x":171494.3900000006,"y":2554947.2500000019}},{"attributes":{"ID":21545,"DIS_CODE":0,"TOWNNAME":"安定區","LI":"港口里","LIN":"17鄰","STREET":" ","SECT":" ","MAREA":"港口","LANE":" ","ALLEY":" ","HOUSE_NO":"３６７號","E_COORD97":171499.3314,"N_COORD97":2554924.0647999998,"ADDRESS":"港口３６７號","OBJECTID":21545},"geometry":{"x":171499.33140000049,"y":2554924.0647989996}},{"attributes":{"ID":21546,"DIS_CODE":0,"TOWNNAME":"安定區","LI":"港口里","LIN":"17鄰","STREET":" ","SECT":" ","MAREA":"港口","LANE":" ","ALLEY":" ","HOUSE_NO":"３７０號","E_COORD97":171442.69,"N_COORD97":2554890.25,"ADDRESS":"港口３７０號","OBJECTID":21546},"geometry":{"x":171442.69000000041,"y":2554890.2500000019}},{"attributes":{"ID":21547,"DIS_CODE":0,"TOWNNAME":"安定區","LI":"港口里","LIN":"17鄰","STREET":" ","SECT":" ","MAREA":"港口","LANE":" ","ALLEY":" ","HOUSE_NO":"３６４之１６號","E_COORD97":171550.48018700001,"N_COORD97":2554881.6630899999,"ADDRESS":"港口３６４之１６號","OBJECTID":21547},"geometry":{"x":171550.48018700164,"y":2554881.663091002}},{"attributes":{"ID":21548,"DIS_CODE":0,"TOWNNAME":"安定區","LI":"港口里","LIN":"17鄰","STREET":" ","SECT":" ","MAREA":"港口","LANE":" ","ALLEY":" ","HOUSE_NO":"３６３號之１","E_COORD97":171440.82999999999,"N_COORD97":2554799.2999999998,"ADDRESS":"港口３６３號之１","OBJECTID":21548},"geometry":{"x":171440.83000000101,"y":2554799.3000000026}},{"attributes":{"ID":21549,"DIS_CODE":0,"TOWNNAME":"安定區","LI":"港口里","LIN":"17鄰","STREET":" ","SECT":" ","MAREA":"港口","LANE":" ","ALLEY":" ","HOUSE_NO":"３６４之１２號","E_COORD97":171494.64000000001,"N_COORD97":2554868.2999999998,"ADDRESS":"港口３６４之１２號","OBJECTID":21549},"geometry":{"x":171494.6400000006,"y":2554868.3000000007}},{"attributes":{"ID":21550,"DIS_CODE":0,"TOWNNAME":"安定區","LI":"新吉里","LIN":"17鄰","STREET":" ","SECT":" ","MAREA":"新吉","LANE":" ","ALLEY":" ","HOUSE_NO":"２０９號","E_COORD97":168938.62,"N_COORD97":2554087.25,"ADDRESS":"新吉２０９號","OBJECTID":21550},"geometry":{"x":168938.62000000104,"y":2554087.25}},{"attributes":{"ID":21551,"DIS_CODE":0,"TOWNNAME":"安定區","LI":"港口里","LIN":"17鄰","STREET":" ","SECT":" ","MAREA":"港口","LANE":" ","ALLEY":" ","HOUSE_NO":"３６４之１８號","E_COORD97":171541.64000000001,"N_COORD97":2554877.2999999998,"ADDRESS":"港口３６４之１８號","OBJECTID":21551},"geometry":{"x":171541.6400000006,"y":2554877.3000000007}},{"attributes":{"ID":21552,"DIS_CODE":0,"TOWNNAME":"安定區","LI":"港口里","LIN":"17鄰","STREET":" ","SECT":" ","MAREA":"港口","LANE":" ","ALLEY":" ","HOUSE_NO":"３６４之２２號","E_COORD97":171517.14000000001,"N_COORD97":2554864.2999999998,"ADDRESS":"港口３６４之２２號","OBJECTID":21552},"geometry":{"x":171517.13999999966,"y":2554864.3000000007}},{"attributes":{"ID":21553,"DIS_CODE":0,"TOWNNAME":"安定區","LI":"港口里","LIN":"17鄰","STREET":" ","SECT":" ","MAREA":"港口","LANE":" ","ALLEY":" ","HOUSE_NO":"３６８號之１","E_COORD97":171463.92999999999,"N_COORD97":2554946.2999999998,"ADDRESS":"港口３６８號之１","OBJECTID":21553},"geometry":{"x":171463.93000000063,"y":2554946.3000000007}},{"attributes":{"ID":21554,"DIS_CODE":0,"TOWNNAME":"安定區","LI":"港口里","LIN":"17鄰","STREET":" ","SECT":" ","MAREA":"港口","LANE":" ","ALLEY":" ","HOUSE_NO":"３６４號之８","E_COORD97":171454.37,"N_COORD97":2554856.2999999998,"ADDRESS":"港口３６４號之８","OBJECTID":21554},"geometry":{"x":171454.37000000104,"y":2554856.3000000026}},{"attributes":{"ID":21555,"DIS_CODE":0,"TOWNNAME":"安定區","LI":"港口里","LIN":"17鄰","STREET":" ","SECT":" ","MAREA":"港口","LANE":" ","ALLEY":" ","HOUSE_NO":"３６４號之９","E_COORD97":171489.31,"N_COORD97":2554862.2999999998,"ADDRESS":"港口３６４號之９","OBJECTID":21555},"geometry":{"x":171489.31000000145,"y":2554862.3000000045}},{"attributes":{"ID":21556,"DIS_CODE":0,"TOWNNAME":"安定區","LI":"港口里","LIN":"17鄰","STREET":" ","SECT":" ","MAREA":"港口","LANE":" ","ALLEY":" ","HOUSE_NO":"３６３號","E_COORD97":171422.60322799999,"N_COORD97":2554847.6019799998,"ADDRESS":"港口３６３號","OBJECTID":21556},"geometry":{"x":171422.60322800186,"y":2554847.6019750014}},{"attributes":{"ID":21557,"DIS_CODE":0,"TOWNNAME":"新化區","LI":"全興里","LIN":"17鄰","STREET":" ","SECT":" ","MAREA":"竹子\u25A0","LANE":" ","ALLEY":" ","HOUSE_NO":"２４７號之６２１","E_COORD97":178347.35999999999,"N_COORD97":2546606.2599999998,"ADDRESS":"竹子\u25A0２４７號之６２１","OBJECTID":21557},"geometry":{"x":178347.36000000127,"y":2546606.2600000016}},{"attributes":{"ID":21558,"DIS_CODE":0,"TOWNNAME":"新化區","LI":"全興里","LIN":"17鄰","STREET":" ","SECT":" ","MAREA":"竹子\u25A0","LANE":" ","ALLEY":" ","HOUSE_NO":"２４７號之４９５","E_COORD97":178291.48999999999,"N_COORD97":2546663.2599999998,"ADDRESS":"竹子\u25A0２４７號之４９５","OBJECTID":21558},"geometry":{"x":178291.49000000209,"y":2546663.2600000035}},{"attributes":{"ID":21559,"DIS_CODE":0,"TOWNNAME":"新化區","LI":"全興里","LIN":"17鄰","STREET":" ","SECT":" ","MAREA":"竹子\u25A0","LANE":" ","ALLEY":" ","HOUSE_NO":"２４７號之６３３","E_COORD97":178319.98000000001,"N_COORD97":2546607.2599999998,"ADDRESS":"竹子\u25A0２４７號之６３３","OBJECTID":21559},"geometry":{"x":178319.98000000045,"y":2546607.2600000016}},{"attributes":{"ID":21560,"DIS_CODE":0,"TOWNNAME":"新化區","LI":"全興里","LIN":"17鄰","STREET":" ","SECT":" ","MAREA":"竹子\u25A0","LANE":" ","ALLEY":" ","HOUSE_NO":"２４７號之６１１","E_COORD97":178368.35999999999,"N_COORD97":2546606.2599999998,"ADDRESS":"竹子\u25A0２４７號之６１１","OBJECTID":21560},"geometry":{"x":178368.36000000034,"y":2546606.2600000016}},{"attributes":{"ID":21561,"DIS_CODE":0,"TOWNNAME":"東山區","LI":"青山里","LIN":"16鄰","STREET":" ","SECT":" ","MAREA":"青山","LANE":" ","ALLEY":" ","HOUSE_NO":"４６號之３３","E_COORD97":195630.63,"N_COORD97":2575232.1699999999,"ADDRESS":"青山４６號之３３","OBJECTID":21561},"geometry":{"x":195630.63000000082,"y":2575232.1700000018}},{"attributes":{"ID":21562,"DIS_CODE":0,"TOWNNAME":"新營區","LI":"王公里","LIN":"12鄰","STREET":"義和街","SECT":" ","MAREA":" ","LANE":" ","ALLEY":" ","HOUSE_NO":"３號之１３","E_COORD97":180569.28,"N_COORD97":2579049.6299999999,"ADDRESS":"義和街３號之１３","OBJECTID":21562},"geometry":{"x":180569.28000000026,"y":2579049.6300000008}},{"attributes":{"ID":21563,"DIS_CODE":0,"TOWNNAME":"西港區","LI":"慶安里","LIN":"24鄰","STREET":"慶安路","SECT":" ","MAREA":" ","LANE":" ","ALLEY":" ","HOUSE_NO":"３７號","E_COORD97":168303.91,"N_COORD97":2557906.98,"ADDRESS":"慶安路３７號","OBJECTID":21563},"geometry":{"x":168303.91000000201,"y":2557906.9800000004}},{"attributes":{"ID":21564,"DIS_CODE":0,"TOWNNAME":"西港區","LI":"慶安里","LIN":"24鄰","STREET":"慶安路","SECT":" ","MAREA":" ","LANE":" ","ALLEY":" ","HOUSE_NO":"３９號","E_COORD97":168299.92000000001,"N_COORD97":2557906.3300000001,"ADDRESS":"慶安路３９號","OBJECTID":21564},"geometry":{"x":168299.91999999993,"y":2557906.3300000019}},{"attributes":{"ID":21565,"DIS_CODE":0,"TOWNNAME":"西港區","LI":"慶安里","LIN":"24鄰","STREET":"慶安路","SECT":" ","MAREA":" ","LANE":" ","ALLEY":" ","HOUSE_NO":"４５號","E_COORD97":168288.22,"N_COORD97":2557904.6600000001,"ADDRESS":"慶安路４５號","OBJECTID":21565},"geometry":{"x":168288.22000000067,"y":2557904.660000002}},{"attributes":{"ID":21566,"DIS_CODE":0,"TOWNNAME":"西港區","LI":"慶安里","LIN":"24鄰","STREET":"慶安路","SECT":" ","MAREA":" ","LANE":" ","ALLEY":" ","HOUSE_NO":"４７號","E_COORD97":168295.13,"N_COORD97":2557888.8500000001,"ADDRESS":"慶安路４７號","OBJECTID":21566},"geometry":{"x":168295.12999999989,"y":2557888.8500000015}},{"attributes":{"ID":21567,"DIS_CODE":0,"TOWNNAME":"西港區","LI":"慶安里","LIN":"24鄰","STREET":"慶安路","SECT":" ","MAREA":" ","LANE":" ","ALLEY":" ","HOUSE_NO":"４９號","E_COORD97":168291.81,"N_COORD97":2557888.46,"ADDRESS":"慶安路４９號","OBJECTID":21567},"geometry":{"x":168291.80999999959,"y":2557888.459999999}},{"attributes":{"ID":21568,"DIS_CODE":0,"TOWNNAME":"西港區","LI":"慶安里","LIN":"24鄰","STREET":"慶安路","SECT":" ","MAREA":" ","LANE":" ","ALLEY":" ","HOUSE_NO":"５１號","E_COORD97":168286.91,"N_COORD97":2557887.5800000001,"ADDRESS":"慶安路５１號","OBJECTID":21568},"geometry":{"x":168286.91000000201,"y":2557887.5800000019}},{"attributes":{"ID":21569,"DIS_CODE":0,"TOWNNAME":"北區","LI":"六甲里","LIN":"17鄰","STREET":"公園路","SECT":" ","MAREA":" ","LANE":" ","ALLEY":" ","HOUSE_NO":"５８５號","E_COORD97":169100.82999999999,"N_COORD97":2545713.52,"ADDRESS":"公園路５８５號","OBJECTID":21569},"geometry":{"x":169100.83000000007,"y":2545713.5200000014}},{"attributes":{"ID":21570,"DIS_CODE":0,"TOWNNAME":"新營區","LI":"角帶里","LIN":"8鄰","STREET":" ","SECT":" ","MAREA":"角帶圍","LANE":" ","ALLEY":" ","HOUSE_NO":"９０號","E_COORD97":174839.72,"N_COORD97":2575594.5600000001,"ADDRESS":"角帶圍９０號","OBJECTID":21570},"geometry":{"x":174839.7200000016,"y":2575594.5600000005}},{"attributes":{"ID":21571,"DIS_CODE":0,"TOWNNAME":"新化區","LI":"全興里","LIN":"17鄰","STREET":" ","SECT":" ","MAREA":"竹子\u25A0","LANE":" ","ALLEY":" ","HOUSE_NO":"２４７號之５２６","E_COORD97":178318.88,"N_COORD97":2546634.2599999998,"ADDRESS":"竹子\u25A0２４７號之５２６","OBJECTID":21571},"geometry":{"x":178318.87999999989,"y":2546634.2600000016}},{"attributes":{"ID":21572,"DIS_CODE":0,"TOWNNAME":"新化區","LI":"全興里","LIN":"17鄰","STREET":" ","SECT":" ","MAREA":"竹子\u25A0","LANE":" ","ALLEY":" ","HOUSE_NO":"２４７號之５３０","E_COORD97":178309.47,"N_COORD97":2546634.2599999998,"ADDRESS":"竹子\u25A0２４７號之５３０","OBJECTID":21572},"geometry":{"x":178309.46999999974,"y":2546634.2600000016}},{"attributes":{"ID":21573,"DIS_CODE":0,"TOWNNAME":"南化區","LI":"東和里","LIN":"8鄰","STREET":" ","SECT":" ","MAREA":"東和","LANE":" ","ALLEY":" ","HOUSE_NO":"７６號","E_COORD97":197442.26999999999,"N_COORD97":2546890.75,"ADDRESS":"東和７６號","OBJECTID":21573},"geometry":{"x":197442.26999999955,"y":2546890.7500000037}},{"attributes":{"ID":21574,"DIS_CODE":0,"TOWNNAME":"中西區","LI":"光賢里","LIN":"14鄰","STREET":"武聖路","SECT":" ","MAREA":" ","LANE":"６９巷","ALLEY":"４０弄","HOUSE_NO":"３０號八樓之９","E_COORD97":166628.06,"N_COORD97":2545203.8599999999,"ADDRESS":"武聖路６９巷４０弄３０號八樓之９","OBJECTID":21574},"geometry":{"x":166628.06000000052,"y":2545203.8599999994}},{"attributes":{"ID":21575,"DIS_CODE":0,"TOWNNAME":"中西區","LI":"光賢里","LIN":"14鄰","STREET":"武聖路","SECT":" ","MAREA":" ","LANE":"６９巷","ALLEY":"４０弄","HOUSE_NO":"３０號十一樓之１","E_COORD97":166628.06,"N_COORD97":2545203.8599999999,"ADDRESS":"武聖路６９巷４０弄３０號十一樓之１","OBJECTID":21575},"geometry":{"x":166628.06000000052,"y":2545203.8599999994}},{"attributes":{"ID":21576,"DIS_CODE":0,"TOWNNAME":"中西區","LI":"光賢里","LIN":"14鄰","STREET":"武聖路","SECT":" ","MAREA":" ","LANE":"６９巷","ALLEY":"４０弄","HOUSE_NO":"３０號十一樓之１０","E_COORD97":166628.06,"N_COORD97":2545203.8599999999,"ADDRESS":"武聖路６９巷４０弄３０號十一樓之１０","OBJECTID":21576},"geometry":{"x":166628.06000000052,"y":2545203.8599999994}},{"attributes":{"ID":21577,"DIS_CODE":0,"TOWNNAME":"中西區","LI":"光賢里","LIN":"14鄰","STREET":"武聖路","SECT":" ","MAREA":" ","LANE":"６９巷","ALLEY":"４０弄","HOUSE_NO":"３０號十一樓之１１","E_COORD97":166628.06,"N_COORD97":2545203.8599999999,"ADDRESS":"武聖路６９巷４０弄３０號十一樓之１１","OBJECTID":21577},"geometry":{"x":166628.06000000052,"y":2545203.8599999994}},{"attributes":{"ID":21578,"DIS_CODE":0,"TOWNNAME":"新化區","LI":"全興里","LIN":"17鄰","STREET":" ","SECT":" ","MAREA":"竹子\u25A0","LANE":" ","ALLEY":" ","HOUSE_NO":"２４７號之５１６","E_COORD97":178341.98000000001,"N_COORD97":2546633.2599999998,"ADDRESS":"竹子\u25A0２４７號之５１６","OBJECTID":21578},"geometry":{"x":178341.98000000045,"y":2546633.2600000016}},{"attributes":{"ID":21579,"DIS_CODE":0,"TOWNNAME":"中西區","LI":"光賢里","LIN":"14鄰","STREET":"武聖路","SECT":" ","MAREA":" ","LANE":"６９巷","ALLEY":"４０弄","HOUSE_NO":"３０號十一樓之１２","E_COORD97":166628.06,"N_COORD97":2545203.8599999999,"ADDRESS":"武聖路６９巷４０弄３０號十一樓之１２","OBJECTID":21579},"geometry":{"x":166628.06000000052,"y":2545203.8599999994}},{"attributes":{"ID":21580,"DIS_CODE":0,"TOWNNAME":"中西區","LI":"光賢里","LIN":"14鄰","STREET":"武聖路","SECT":" ","MAREA":" ","LANE":"６９巷","ALLEY":"４０弄","HOUSE_NO":"３０號十一樓之１３","E_COORD97":166628.06,"N_COORD97":2545203.8599999999,"ADDRESS":"武聖路６９巷４０弄３０號十一樓之１３","OBJECTID":21580},"geometry":{"x":166628.06000000052,"y":2545203.8599999994}},{"attributes":{"ID":21581,"DIS_CODE":0,"TOWNNAME":"中西區","LI":"光賢里","LIN":"14鄰","STREET":"武聖路","SECT":" ","MAREA":" ","LANE":"６９巷","ALLEY":"４０弄","HOUSE_NO":"３０號十一樓之１４","E_COORD97":166628.06,"N_COORD97":2545203.8599999999,"ADDRESS":"武聖路６９巷４０弄３０號十一樓之１４","OBJECTID":21581},"geometry":{"x":166628.06000000052,"y":2545203.8599999994}},{"attributes":{"ID":21582,"DIS_CODE":0,"TOWNNAME":"中西區","LI":"光賢里","LIN":"14鄰","STREET":"武聖路","SECT":" ","MAREA":" ","LANE":"６９巷","ALLEY":"４０弄","HOUSE_NO":"３０號十一樓之１５","E_COORD97":166628.06,"N_COORD97":2545203.8599999999,"ADDRESS":"武聖路６９巷４０弄３０號十一樓之１５","OBJECTID":21582},"geometry":{"x":166628.06000000052,"y":2545203.8599999994}},{"attributes":{"ID":21583,"DIS_CODE":0,"TOWNNAME":"中西區","LI":"光賢里","LIN":"14鄰","STREET":"武聖路","SECT":" ","MAREA":" ","LANE":"６９巷","ALLEY":"４０弄","HOUSE_NO":"３０號十一樓之１６","E_COORD97":166628.06,"N_COORD97":2545203.8599999999,"ADDRESS":"武聖路６９巷４０弄３０號十一樓之１６","OBJECTID":21583},"geometry":{"x":166628.06000000052,"y":2545203.8599999994}},{"attributes":{"ID":21584,"DIS_CODE":0,"TOWNNAME":"新化區","LI":"全興里","LIN":"17鄰","STREET":" ","SECT":" ","MAREA":"竹子\u25A0","LANE":" ","ALLEY":" ","HOUSE_NO":"２４７號之５２２","E_COORD97":178328.29000000001,"N_COORD97":2546633.2599999998,"ADDRESS":"竹子\u25A0２４７號之５２２","OBJECTID":21584},"geometry":{"x":178328.2900000019,"y":2546633.2600000016}},{"attributes":{"ID":21585,"DIS_CODE":0,"TOWNNAME":"新化區","LI":"全興里","LIN":"17鄰","STREET":" ","SECT":" ","MAREA":"竹子\u25A0","LANE":" ","ALLEY":" ","HOUSE_NO":"２４７號之６１９","E_COORD97":178351.88,"N_COORD97":2546606.2599999998,"ADDRESS":"竹子\u25A0２４７號之６１９","OBJECTID":21585},"geometry":{"x":178351.88000000082,"y":2546606.2600000016}},{"attributes":{"ID":21586,"DIS_CODE":0,"TOWNNAME":"新化區","LI":"全興里","LIN":"17鄰","STREET":" ","SECT":" ","MAREA":"竹子\u25A0","LANE":" ","ALLEY":" ","HOUSE_NO":"２４７號之５３２","E_COORD97":178304.98999999999,"N_COORD97":2546634.2599999998,"ADDRESS":"竹子\u25A0２４７號之５３２","OBJECTID":21586},"geometry":{"x":178304.98999999929,"y":2546634.2600000016}},{"attributes":{"ID":21587,"DIS_CODE":0,"TOWNNAME":"新化區","LI":"全興里","LIN":"17鄰","STREET":" ","SECT":" ","MAREA":"竹子\u25A0","LANE":" ","ALLEY":" ","HOUSE_NO":"２４７號之４７１","E_COORD97":178347.66,"N_COORD97":2546662.2599999998,"ADDRESS":"竹子\u25A0２４７號之４７１","OBJECTID":21587},"geometry":{"x":178347.66000000015,"y":2546662.2599999998}},{"attributes":{"ID":21588,"DIS_CODE":0,"TOWNNAME":"西港區","LI":"南海里","LIN":"17鄰","STREET":" ","SECT":" ","MAREA":"東港","LANE":" ","ALLEY":" ","HOUSE_NO":"２２號","E_COORD97":167067.85000000001,"N_COORD97":2556366.6600000001,"ADDRESS":"東港２２號","OBJECTID":21588},"geometry":{"x":167067.8499999987,"y":2556366.6600000001}},{"attributes":{"ID":21589,"DIS_CODE":0,"TOWNNAME":"新營區","LI":"永生里","LIN":"4鄰","STREET":"光明街","SECT":" ","MAREA":" ","LANE":" ","ALLEY":" ","HOUSE_NO":"２１號","E_COORD97":180018.73999999999,"N_COORD97":2578012.2599999998,"ADDRESS":"光明街２１號","OBJECTID":21589},"geometry":{"x":180018.74000000022,"y":2578012.2600000016}},{"attributes":{"ID":21590,"DIS_CODE":0,"TOWNNAME":"安南區","LI":"海東里","LIN":"24鄰","STREET":"同安路","SECT":" ","MAREA":" ","LANE":" ","ALLEY":" ","HOUSE_NO":"１７３號","E_COORD97":167100.39999999999,"N_COORD97":2549109.02,"ADDRESS":"同安路１７３號","OBJECTID":21590},"geometry":{"x":167100.40000000037,"y":2549109.0199999977}},{"attributes":{"ID":21591,"DIS_CODE":0,"TOWNNAME":"安南區","LI":"海東里","LIN":"24鄰","STREET":"同安路","SECT":" ","MAREA":" ","LANE":" ","ALLEY":" ","HOUSE_NO":"１７５號","E_COORD97":167103.79999999999,"N_COORD97":2549111.6699999999,"ADDRESS":"同安路１７５號","OBJECTID":21591},"geometry":{"x":167103.79999999981,"y":2549111.6699999999}},{"attributes":{"ID":21592,"DIS_CODE":0,"TOWNNAME":"安南區","LI":"海東里","LIN":"24鄰","STREET":"同安路","SECT":" ","MAREA":" ","LANE":" ","ALLEY":" ","HOUSE_NO":"１７７號","E_COORD97":167106.95000000001,"N_COORD97":2549114.21,"ADDRESS":"同安路１７７號","OBJECTID":21592},"geometry":{"x":167106.95000000205,"y":2549114.2100000028}},{"attributes":{"ID":21593,"DIS_CODE":0,"TOWNNAME":"安南區","LI":"海東里","LIN":"24鄰","STREET":"同安路","SECT":" ","MAREA":" ","LANE":" ","ALLEY":" ","HOUSE_NO":"１７９號","E_COORD97":167109.98999999999,"N_COORD97":2549118.02,"ADDRESS":"同安路１７９號","OBJECTID":21593},"geometry":{"x":167109.99000000209,"y":2549118.0199999996}},{"attributes":{"ID":21594,"DIS_CODE":0,"TOWNNAME":"安南區","LI":"海東里","LIN":"24鄰","STREET":"同安路","SECT":" ","MAREA":" ","LANE":" ","ALLEY":" ","HOUSE_NO":"１８１號","E_COORD97":167113.47,"N_COORD97":2549120.29,"ADDRESS":"同安路１８１號","OBJECTID":21594},"geometry":{"x":167113.47000000067,"y":2549120.2899999972}},{"attributes":{"ID":21595,"DIS_CODE":0,"TOWNNAME":"安南區","LI":"海東里","LIN":"24鄰","STREET":"同安路","SECT":" ","MAREA":" ","LANE":" ","ALLEY":" ","HOUSE_NO":"１８５號","E_COORD97":167120.48999999999,"N_COORD97":2549126.25,"ADDRESS":"同安路１８５號","OBJECTID":21595},"geometry":{"x":167120.49000000115,"y":2549126.2500000019}},{"attributes":{"ID":21596,"DIS_CODE":0,"TOWNNAME":"安南區","LI":"海東里","LIN":"24鄰","STREET":"同安路","SECT":" ","MAREA":" ","LANE":" ","ALLEY":" ","HOUSE_NO":"１８９號","E_COORD97":167127.28,"N_COORD97":2549132.3300000001,"ADDRESS":"同安路１８９號","OBJECTID":21596},"geometry":{"x":167127.28000000119,"y":2549132.3300000019}},{"attributes":{"ID":21597,"DIS_CODE":0,"TOWNNAME":"安南區","LI":"海東里","LIN":"24鄰","STREET":"同安路","SECT":" ","MAREA":" ","LANE":" ","ALLEY":" ","HOUSE_NO":"１９１號","E_COORD97":167129.88,"N_COORD97":2549135.0299999998,"ADDRESS":"同安路１９１號","OBJECTID":21597},"geometry":{"x":167129.88000000082,"y":2549135.0299999993}},{"attributes":{"ID":21598,"DIS_CODE":0,"TOWNNAME":"安南區","LI":"海東里","LIN":"24鄰","STREET":"同安路","SECT":" ","MAREA":" ","LANE":" ","ALLEY":" ","HOUSE_NO":"１９３號","E_COORD97":167132.53,"N_COORD97":2549137.23,"ADDRESS":"同安路１９３號","OBJECTID":21598},"geometry":{"x":167132.53000000119,"y":2549137.2300000023}},{"attributes":{"ID":21599,"DIS_CODE":0,"TOWNNAME":"新營區","LI":"嘉芳里","LIN":"4鄰","STREET":" ","SECT":" ","MAREA":"茄苳腳","LANE":" ","ALLEY":" ","HOUSE_NO":"５０號之２０","E_COORD97":176872.69,"N_COORD97":2578376.3700000001,"ADDRESS":"茄苳腳５０之２０號","OBJECTID":21599},"geometry":{"x":176872.69000000041,"y":2578376.370000001}},{"attributes":{"ID":21600,"DIS_CODE":0,"TOWNNAME":"西港區","LI":"南海里","LIN":"17鄰","STREET":" ","SECT":" ","MAREA":"東港","LANE":" ","ALLEY":" ","HOUSE_NO":"２３號之１","E_COORD97":167123.29999999999,"N_COORD97":2556378.1000000001,"ADDRESS":"東港２３號之１","OBJECTID":21600},"geometry":{"x":167123.30000000075,"y":2556378.1000000015}}]}