{"displayFieldName":"TOWNNAME","fieldAliases":{"ID":"ID","DIS_CODE":"DIS_CODE","TOWNNAME":"TOWNNAME","LI":"LI","LIN":"LIN","STREET":"STREET","SECT":"SECT","MAREA":"MAREA","LANE":"LANE","ALLEY":"ALLEY","HOUSE_NO":"HOUSE_NO","E_COORD97":"E_COORD97","N_COORD97":"N_COORD97","ADDRESS":"ADDRESS","OBJECTID":"OBJECTID"},"geometryType":"esriGeometryPoint","spatialReference":{"wkid":102443,"latestWkid":3826},"fields":[{"name":"ID","type":"esriFieldTypeDouble","alias":"ID"},{"name":"DIS_CODE","type":"esriFieldTypeInteger","alias":"DIS_CODE"},{"name":"TOWNNAME","type":"esriFieldTypeString","alias":"TOWNNAME","length":8},{"name":"LI","type":"esriFieldTypeString","alias":"LI","length":8},{"name":"LIN","type":"esriFieldTypeString","alias":"LIN","length":12},{"name":"STREET","type":"esriFieldTypeString","alias":"STREET","length":20},{"name":"SECT","type":"esriFieldTypeString","alias":"SECT","length":8},{"name":"MAREA","type":"esriFieldTypeString","alias":"MAREA","length":12},{"name":"LANE","type":"esriFieldTypeString","alias":"LANE","length":10},{"name":"ALLEY","type":"esriFieldTypeString","alias":"ALLEY","length":10},{"name":"HOUSE_NO","type":"esriFieldTypeString","alias":"HOUSE_NO","length":20},{"name":"E_COORD97","type":"esriFieldTypeDouble","alias":"E_COORD97"},{"name":"N_COORD97","type":"esriFieldTypeDouble","alias":"N_COORD97"},{"name":"ADDRESS","type":"esriFieldTypeString","alias":"ADDRESS","length":50},{"name":"OBJECTID","type":"esriFieldTypeOID","alias":"OBJECTID"}],"features":[{"attributes":{"ID":249205,"DIS_CODE":0,"TOWNNAME":"永康區","LI":"北灣里","LIN":"14鄰","STREET":"大灣七街","SECT":" ","MAREA":" ","LANE":"９３巷","ALLEY":" ","HOUSE_NO":"１８號","E_COORD97":175010.07000000001,"N_COORD97":2545801.23,"ADDRESS":"大灣七街９３巷１８號","OBJECTID":249201},"geometry":{"x":175010.0700000003,"y":2545801.2300000023}},{"attributes":{"ID":249206,"DIS_CODE":0,"TOWNNAME":"永康區","LI":"西勢里","LIN":"14鄰","STREET":"西勢路","SECT":" ","MAREA":" ","LANE":"１９巷","ALLEY":" ","HOUSE_NO":"５３號","E_COORD97":176212.54000000001,"N_COORD97":2546609.02,"ADDRESS":"西勢路１９巷５３號","OBJECTID":249202},"geometry":{"x":176212.53999999911,"y":2546609.0199999996}},{"attributes":{"ID":249207,"DIS_CODE":0,"TOWNNAME":"永康區","LI":"西灣里","LIN":"14鄰","STREET":"民族路","SECT":" ","MAREA":" ","LANE":"４１５巷","ALLEY":" ","HOUSE_NO":"２號","E_COORD97":174765.32000000001,"N_COORD97":2545345.0299999998,"ADDRESS":"民族路４１５巷２號","OBJECTID":249203},"geometry":{"x":174765.32000000123,"y":2545345.0299999993}},{"attributes":{"ID":249208,"DIS_CODE":0,"TOWNNAME":"永康區","LI":"正強里","LIN":"14鄰","STREET":"自強路","SECT":" ","MAREA":" ","LANE":"１８８巷","ALLEY":" ","HOUSE_NO":"４３號","E_COORD97":173225.44,"N_COORD97":2547356.3399999999,"ADDRESS":"自強路１８８巷４３號","OBJECTID":249204},"geometry":{"x":173225.44000000134,"y":2547356.3399999999}},{"attributes":{"ID":249209,"DIS_CODE":0,"TOWNNAME":"永康區","LI":"西勢里","LIN":"14鄰","STREET":"西勢路","SECT":" ","MAREA":" ","LANE":"１９巷","ALLEY":" ","HOUSE_NO":"４９號","E_COORD97":176206.04000000001,"N_COORD97":2546615.5299999998,"ADDRESS":"西勢路１９巷４９號","OBJECTID":249205},"geometry":{"x":176206.04000000097,"y":2546615.5299999993}},{"attributes":{"ID":249210,"DIS_CODE":0,"TOWNNAME":"永康區","LI":"西橋里","LIN":"14鄰","STREET":"大橋一街","SECT":" ","MAREA":" ","LANE":"３１巷","ALLEY":" ","HOUSE_NO":"５６號","E_COORD97":170587.98999999999,"N_COORD97":2546375.7400000002,"ADDRESS":"大橋一街３１巷５６號","OBJECTID":249206},"geometry":{"x":170587.99000000022,"y":2546375.7400000039}},{"attributes":{"ID":249211,"DIS_CODE":0,"TOWNNAME":"永康區","LI":"安康里","LIN":"14鄰","STREET":"中華路","SECT":" ","MAREA":" ","LANE":"６１９巷","ALLEY":" ","HOUSE_NO":"８４號","E_COORD97":170877.67999999999,"N_COORD97":2546011.5,"ADDRESS":"中華路６１９巷８４號","OBJECTID":249207},"geometry":{"x":170877.6799999997,"y":2546011.5000000019}},{"attributes":{"ID":249212,"DIS_CODE":0,"TOWNNAME":"歸仁區","LI":"媽廟里","LIN":"26鄰","STREET":"保大路","SECT":"一段","MAREA":" ","LANE":" ","ALLEY":" ","HOUSE_NO":"２１６號","E_COORD97":177521.63,"N_COORD97":2544063.7200000002,"ADDRESS":"保大路一段２１６號","OBJECTID":249208},"geometry":{"x":177521.62999999989,"y":2544063.7200000007}},{"attributes":{"ID":249213,"DIS_CODE":0,"TOWNNAME":"歸仁區","LI":"辜厝里","LIN":"43鄰","STREET":"民權九街","SECT":" ","MAREA":" ","LANE":" ","ALLEY":" ","HOUSE_NO":"７號","E_COORD97":176984.95000000001,"N_COORD97":2540358.4900000002,"ADDRESS":"民權九街７號","OBJECTID":249209},"geometry":{"x":176984.95000000112,"y":2540358.4900000002}},{"attributes":{"ID":249214,"DIS_CODE":0,"TOWNNAME":"歸仁區","LI":"新厝里","LIN":"12鄰","STREET":"公園十街","SECT":" ","MAREA":" ","LANE":" ","ALLEY":" ","HOUSE_NO":"２９號","E_COORD97":177668.72,"N_COORD97":2540483.5800000001,"ADDRESS":"公園十街２９號","OBJECTID":249210},"geometry":{"x":177668.71999999974,"y":2540483.5800000001}},{"attributes":{"ID":249215,"DIS_CODE":0,"TOWNNAME":"歸仁區","LI":"後市里","LIN":"48鄰","STREET":"民權北路","SECT":" ","MAREA":" ","LANE":" ","ALLEY":" ","HOUSE_NO":"１２６號","E_COORD97":177016.622691,"N_COORD97":2541136.6327499999,"ADDRESS":"民權北路１２６號","OBJECTID":249211},"geometry":{"x":177016.62269099988,"y":2541136.6327500027}},{"attributes":{"ID":249216,"DIS_CODE":0,"TOWNNAME":"永康區","LI":"中興里","LIN":"5鄰","STREET":"中華一路","SECT":" ","MAREA":" ","LANE":"５８巷","ALLEY":" ","HOUSE_NO":"２３號","E_COORD97":171846.92999999999,"N_COORD97":2545052.7400000002,"ADDRESS":"中華一路５８巷２３號","OBJECTID":249212},"geometry":{"x":171846.93000000063,"y":2545052.7400000002}},{"attributes":{"ID":249217,"DIS_CODE":0,"TOWNNAME":"永康區","LI":"中興里","LIN":"25鄰","STREET":"中華路","SECT":" ","MAREA":" ","LANE":"２１６巷","ALLEY":" ","HOUSE_NO":"３號之１３","E_COORD97":171771.17000000001,"N_COORD97":2545154.79,"ADDRESS":"中華路２１６巷３號之１３","OBJECTID":249213},"geometry":{"x":171771.16999999993,"y":2545154.790000001}},{"attributes":{"ID":249218,"DIS_CODE":0,"TOWNNAME":"永康區","LI":"五王里","LIN":"19鄰","STREET":"成功路","SECT":" ","MAREA":" ","LANE":"１７２巷","ALLEY":" ","HOUSE_NO":"２１號","E_COORD97":171487.5,"N_COORD97":2545660.23,"ADDRESS":"成功路１７２巷２１號","OBJECTID":249214},"geometry":{"x":171487.50000000093,"y":2545660.2300000004}},{"attributes":{"ID":249219,"DIS_CODE":0,"TOWNNAME":"永康區","LI":"三合里","LIN":"22鄰","STREET":"南工街","SECT":" ","MAREA":" ","LANE":"３１１巷","ALLEY":" ","HOUSE_NO":"３３號","E_COORD97":171825.04000000001,"N_COORD97":2545956.7400000002,"ADDRESS":"南工街３１１巷３３號","OBJECTID":249215},"geometry":{"x":171825.04000000004,"y":2545956.7400000021}},{"attributes":{"ID":249220,"DIS_CODE":0,"TOWNNAME":"永康區","LI":"中興里","LIN":"5鄰","STREET":"中華路","SECT":" ","MAREA":" ","LANE":"２１４巷","ALLEY":" ","HOUSE_NO":"３０號","E_COORD97":171771.32000000001,"N_COORD97":2545052.2400000002,"ADDRESS":"中華路２１４巷３０號","OBJECTID":249216},"geometry":{"x":171771.32000000216,"y":2545052.2400000002}},{"attributes":{"ID":249221,"DIS_CODE":0,"TOWNNAME":"永康區","LI":"西灣里","LIN":"14鄰","STREET":"民族路","SECT":" ","MAREA":" ","LANE":"４１５巷","ALLEY":" ","HOUSE_NO":"４６號","E_COORD97":174756.31,"N_COORD97":2545257.1000000001,"ADDRESS":"民族路４１５巷４６號","OBJECTID":249217},"geometry":{"x":174756.31000000052,"y":2545257.0999999978}},{"attributes":{"ID":249222,"DIS_CODE":0,"TOWNNAME":"永康區","LI":"西橋里","LIN":"14鄰","STREET":"大橋一街","SECT":" ","MAREA":" ","LANE":"３１巷","ALLEY":" ","HOUSE_NO":"４２號","E_COORD97":170579.07000000001,"N_COORD97":2546347.75,"ADDRESS":"大橋一街３１巷４２號","OBJECTID":249218},"geometry":{"x":170579.0700000003,"y":2546347.75}},{"attributes":{"ID":249223,"DIS_CODE":0,"TOWNNAME":"永康區","LI":"甲頂里","LIN":"14鄰","STREET":"大武街","SECT":" ","MAREA":" ","LANE":"１８巷","ALLEY":" ","HOUSE_NO":"１７號","E_COORD97":170348.29000000001,"N_COORD97":2546645.1600000001,"ADDRESS":"大武街１８巷１７號","OBJECTID":249219},"geometry":{"x":170348.29000000004,"y":2546645.160000002}},{"attributes":{"ID":249224,"DIS_CODE":0,"TOWNNAME":"安南區","LI":"溪頂里","LIN":"14鄰","STREET":"惠安街","SECT":" ","MAREA":" ","LANE":"１６１巷","ALLEY":" ","HOUSE_NO":"４３號","E_COORD97":168921.35999999999,"N_COORD97":2547350.1299999999,"ADDRESS":"惠安街１６１巷４３號","OBJECTID":249220},"geometry":{"x":168921.36000000034,"y":2547350.129999999}},{"attributes":{"ID":249225,"DIS_CODE":0,"TOWNNAME":"歸仁區","LI":"歸南里","LIN":"10鄰","STREET":"民生九街","SECT":" ","MAREA":" ","LANE":" ","ALLEY":" ","HOUSE_NO":"１００號","E_COORD97":176205.35999999999,"N_COORD97":2540079.25,"ADDRESS":"民生九街１００號","OBJECTID":249221},"geometry":{"x":176205.36000000034,"y":2540079.25}},{"attributes":{"ID":249226,"DIS_CODE":0,"TOWNNAME":"永康區","LI":"埔園里","LIN":"14鄰","STREET":"中山路","SECT":" ","MAREA":" ","LANE":" ","ALLEY":" ","HOUSE_NO":"２５５號","E_COORD97":173649.64000000001,"N_COORD97":2548186.5,"ADDRESS":"中山路２５５號","OBJECTID":249222},"geometry":{"x":173649.63999999966,"y":2548186.5}},{"attributes":{"ID":249227,"DIS_CODE":0,"TOWNNAME":"永康區","LI":"龍潭里","LIN":"14鄰","STREET":"龍安街","SECT":" ","MAREA":" ","LANE":" ","ALLEY":" ","HOUSE_NO":"９５號","E_COORD97":174595.67000000001,"N_COORD97":2548314.7400000002,"ADDRESS":"龍安街９５號","OBJECTID":249223},"geometry":{"x":174595.66999999993,"y":2548314.7400000002}},{"attributes":{"ID":249228,"DIS_CODE":0,"TOWNNAME":"永康區","LI":"復國里","LIN":"14鄰","STREET":"復國二路","SECT":" ","MAREA":" ","LANE":" ","ALLEY":" ","HOUSE_NO":"１５４號","E_COORD97":172919.95000000001,"N_COORD97":2545652.02,"ADDRESS":"復國二路１５４號","OBJECTID":249224},"geometry":{"x":172919.95000000112,"y":2545652.0200000014}},{"attributes":{"ID":249229,"DIS_CODE":0,"TOWNNAME":"東區","LI":"崇明里","LIN":"14鄰","STREET":"大同路","SECT":"二段","MAREA":" ","LANE":" ","ALLEY":" ","HOUSE_NO":"７２３號","E_COORD97":169636.51000000001,"N_COORD97":2540787.7400000002,"ADDRESS":"大同路二段７２３號","OBJECTID":249225},"geometry":{"x":169636.50999999978,"y":2540787.7400000002}},{"attributes":{"ID":249230,"DIS_CODE":0,"TOWNNAME":"東區","LI":"崇明里","LIN":"14鄰","STREET":"大同路","SECT":"二段","MAREA":" ","LANE":" ","ALLEY":" ","HOUSE_NO":"７２５號","E_COORD97":169636.51000000001,"N_COORD97":2540782.98,"ADDRESS":"大同路二段７２５號","OBJECTID":249226},"geometry":{"x":169636.50999999978,"y":2540782.9800000004}},{"attributes":{"ID":249231,"DIS_CODE":0,"TOWNNAME":"永康區","LI":"五王里","LIN":"41鄰","STREET":"中華路","SECT":" ","MAREA":" ","LANE":"５７８巷","ALLEY":" ","HOUSE_NO":"２２號","E_COORD97":171387.64999999999,"N_COORD97":2545987.4900000002,"ADDRESS":"中華路５７８巷２２號","OBJECTID":249227},"geometry":{"x":171387.64999999944,"y":2545987.4900000039}},{"attributes":{"ID":249232,"DIS_CODE":0,"TOWNNAME":"永康區","LI":"中興里","LIN":"24鄰","STREET":"中華路","SECT":" ","MAREA":" ","LANE":"２１６巷","ALLEY":" ","HOUSE_NO":"１２號之１３","E_COORD97":171757.92000000001,"N_COORD97":2545138.5,"ADDRESS":"中華路２１６巷１２號之１３","OBJECTID":249228},"geometry":{"x":171757.91999999993,"y":2545138.5}},{"attributes":{"ID":249233,"DIS_CODE":0,"TOWNNAME":"永康區","LI":"五王里","LIN":"1鄰","STREET":"中華二路","SECT":" ","MAREA":" ","LANE":"２０６巷","ALLEY":" ","HOUSE_NO":"３１號","E_COORD97":171574.92999999999,"N_COORD97":2545546.4900000002,"ADDRESS":"中華二路２０６巷３１號","OBJECTID":249229},"geometry":{"x":171574.92999999877,"y":2545546.4900000002}},{"attributes":{"ID":249234,"DIS_CODE":0,"TOWNNAME":"中西區","LI":"協和里","LIN":"11鄰","STREET":"中和街","SECT":" ","MAREA":" ","LANE":" ","ALLEY":" ","HOUSE_NO":"１８４號","E_COORD97":167266.51000000001,"N_COORD97":2544739.5299999998,"ADDRESS":"中和街１８４號","OBJECTID":249230},"geometry":{"x":167266.50999999978,"y":2544739.5300000012}},{"attributes":{"ID":249235,"DIS_CODE":0,"TOWNNAME":"中西區","LI":"協和里","LIN":"11鄰","STREET":"中和街","SECT":" ","MAREA":" ","LANE":" ","ALLEY":" ","HOUSE_NO":"１８６號","E_COORD97":167263.26999999999,"N_COORD97":2544743.1499999999,"ADDRESS":"中和街１８６號","OBJECTID":249231},"geometry":{"x":167263.26999999862,"y":2544743.1500000022}},{"attributes":{"ID":249236,"DIS_CODE":0,"TOWNNAME":"中西區","LI":"協和里","LIN":"11鄰","STREET":"中和街","SECT":" ","MAREA":" ","LANE":" ","ALLEY":" ","HOUSE_NO":"１８８號","E_COORD97":167259.92000000001,"N_COORD97":2544748.8599999999,"ADDRESS":"中和街１８８號","OBJECTID":249232},"geometry":{"x":167259.92000000086,"y":2544748.8599999994}},{"attributes":{"ID":249237,"DIS_CODE":0,"TOWNNAME":"中西區","LI":"協和里","LIN":"11鄰","STREET":"中和街","SECT":" ","MAREA":" ","LANE":" ","ALLEY":" ","HOUSE_NO":"１９０號","E_COORD97":167267.29999999999,"N_COORD97":2544747.96,"ADDRESS":"中和街１９０號","OBJECTID":249233},"geometry":{"x":167267.30000000075,"y":2544747.9600000028}},{"attributes":{"ID":249238,"DIS_CODE":0,"TOWNNAME":"中西區","LI":"協和里","LIN":"11鄰","STREET":"中和街","SECT":" ","MAREA":" ","LANE":" ","ALLEY":" ","HOUSE_NO":"１９２號","E_COORD97":167270.92000000001,"N_COORD97":2544750.54,"ADDRESS":"中和街１９２號","OBJECTID":249234},"geometry":{"x":167270.91999999993,"y":2544750.5399999991}},{"attributes":{"ID":249239,"DIS_CODE":0,"TOWNNAME":"永康區","LI":"大橋里","LIN":"3鄰","STREET":"大橋三街","SECT":" ","MAREA":" ","LANE":"１２４巷","ALLEY":" ","HOUSE_NO":"１２號","E_COORD97":170781.34,"N_COORD97":2546660.75,"ADDRESS":"大橋三街１２４巷１２號","OBJECTID":249235},"geometry":{"x":170781.34000000078,"y":2546660.7500000019}},{"attributes":{"ID":249240,"DIS_CODE":0,"TOWNNAME":"永康區","LI":"中興里","LIN":"5鄰","STREET":"忠孝路","SECT":" ","MAREA":" ","LANE":"１９５巷","ALLEY":" ","HOUSE_NO":"１５５號","E_COORD97":171846.29999999999,"N_COORD97":2545057.75,"ADDRESS":"忠孝路１９５巷１５５號","OBJECTID":249236},"geometry":{"x":171846.30000000075,"y":2545057.7500000019}},{"attributes":{"ID":249241,"DIS_CODE":0,"TOWNNAME":"永康區","LI":"大灣里","LIN":"1鄰","STREET":"大同街","SECT":" ","MAREA":" ","LANE":"１７７巷","ALLEY":" ","HOUSE_NO":"５號","E_COORD97":174776.42000000001,"N_COORD97":2545652.52,"ADDRESS":"大同街１７７巷５號","OBJECTID":249237},"geometry":{"x":174776.42000000086,"y":2545652.5200000014}},{"attributes":{"ID":249242,"DIS_CODE":0,"TOWNNAME":"安南區","LI":"溪頂里","LIN":"14鄰","STREET":"惠安街","SECT":" ","MAREA":" ","LANE":"１６１巷","ALLEY":" ","HOUSE_NO":"４４號","E_COORD97":168886.23000000001,"N_COORD97":2547335.0899999999,"ADDRESS":"惠安街１６１巷４４號","OBJECTID":249238},"geometry":{"x":168886.23000000045,"y":2547335.0899999999}},{"attributes":{"ID":249243,"DIS_CODE":0,"TOWNNAME":"安南區","LI":"溪頂里","LIN":"14鄰","STREET":"惠安街","SECT":" ","MAREA":" ","LANE":"１６１巷","ALLEY":" ","HOUSE_NO":"４６號","E_COORD97":168894.01000000001,"N_COORD97":2547334.96,"ADDRESS":"惠安街１６１巷４６號","OBJECTID":249239},"geometry":{"x":168894.00999999978,"y":2547334.9600000028}},{"attributes":{"ID":249244,"DIS_CODE":0,"TOWNNAME":"安南區","LI":"溪頂里","LIN":"14鄰","STREET":"惠安街","SECT":" ","MAREA":" ","LANE":"１６１巷","ALLEY":" ","HOUSE_NO":"４７號","E_COORD97":168938.32000000001,"N_COORD97":2547350.6299999999,"ADDRESS":"惠安街１６１巷４７號","OBJECTID":249240},"geometry":{"x":168938.3200000003,"y":2547350.629999999}},{"attributes":{"ID":249245,"DIS_CODE":0,"TOWNNAME":"安南區","LI":"溪頂里","LIN":"14鄰","STREET":"惠安街","SECT":" ","MAREA":" ","LANE":"１６１巷","ALLEY":" ","HOUSE_NO":"４８號","E_COORD97":168902.06,"N_COORD97":2547334.96,"ADDRESS":"惠安街１６１巷４８號","OBJECTID":249241},"geometry":{"x":168902.05999999959,"y":2547334.9600000028}},{"attributes":{"ID":249246,"DIS_CODE":0,"TOWNNAME":"中西區","LI":"天后里","LIN":"14鄰","STREET":"赤嵌街","SECT":" ","MAREA":" ","LANE":"１５巷","ALLEY":" ","HOUSE_NO":"１８號","E_COORD97":168164.91,"N_COORD97":2544267.5,"ADDRESS":"赤嵌街１５巷１８號","OBJECTID":249242},"geometry":{"x":168164.91000000201,"y":2544267.5}},{"attributes":{"ID":249247,"DIS_CODE":0,"TOWNNAME":"中西區","LI":"天后里","LIN":"14鄰","STREET":"赤嵌街","SECT":" ","MAREA":" ","LANE":"１５巷","ALLEY":" ","HOUSE_NO":"２０號","E_COORD97":168161.29999999999,"N_COORD97":2544268.0800000001,"ADDRESS":"赤嵌街１５巷２０號","OBJECTID":249243},"geometry":{"x":168161.29999999981,"y":2544268.0800000038}},{"attributes":{"ID":249248,"DIS_CODE":0,"TOWNNAME":"中西區","LI":"天后里","LIN":"14鄰","STREET":"赤嵌街","SECT":" ","MAREA":" ","LANE":"１５巷","ALLEY":" ","HOUSE_NO":"２號之１","E_COORD97":168196.70000000001,"N_COORD97":2544258.6499999999,"ADDRESS":"赤嵌街１５巷２號之１","OBJECTID":249244},"geometry":{"x":168196.70000000019,"y":2544258.6500000022}},{"attributes":{"ID":249249,"DIS_CODE":0,"TOWNNAME":"中西區","LI":"天后里","LIN":"14鄰","STREET":"赤嵌街","SECT":" ","MAREA":" ","LANE":"１５巷","ALLEY":" ","HOUSE_NO":"２號之２","E_COORD97":168200.48000000001,"N_COORD97":2544264.46,"ADDRESS":"赤嵌街１５巷２號之２","OBJECTID":249245},"geometry":{"x":168200.48000000231,"y":2544264.4600000028}},{"attributes":{"ID":249250,"DIS_CODE":0,"TOWNNAME":"東區","LI":"崇明里","LIN":"14鄰","STREET":"大同路","SECT":"二段","MAREA":" ","LANE":" ","ALLEY":" ","HOUSE_NO":"７２７號","E_COORD97":169636.64000000001,"N_COORD97":2540778.2200000002,"ADDRESS":"大同路二段７２７號","OBJECTID":249246},"geometry":{"x":169636.6400000006,"y":2540778.2200000007}},{"attributes":{"ID":249251,"DIS_CODE":0,"TOWNNAME":"東區","LI":"崇明里","LIN":"14鄰","STREET":"大同路","SECT":"二段","MAREA":" ","LANE":" ","ALLEY":" ","HOUSE_NO":"７２９號","E_COORD97":169637.79999999999,"N_COORD97":2540773.98,"ADDRESS":"大同路二段７２９號","OBJECTID":249247},"geometry":{"x":169637.79999999981,"y":2540773.9800000023}},{"attributes":{"ID":249252,"DIS_CODE":0,"TOWNNAME":"東區","LI":"崇明里","LIN":"14鄰","STREET":"大同路","SECT":"二段","MAREA":" ","LANE":" ","ALLEY":" ","HOUSE_NO":"７３１號","E_COORD97":169638.57000000001,"N_COORD97":2540768.4399999999,"ADDRESS":"大同路二段７３１號","OBJECTID":249248},"geometry":{"x":169638.5700000003,"y":2540768.4399999995}},{"attributes":{"ID":249253,"DIS_CODE":0,"TOWNNAME":"永康區","LI":"五王里","LIN":"42鄰","STREET":"中山東路","SECT":" ","MAREA":" ","LANE":"２０巷","ALLEY":" ","HOUSE_NO":"６號","E_COORD97":171641.72,"N_COORD97":2546124.5,"ADDRESS":"中山東路２０巷６號","OBJECTID":249249},"geometry":{"x":171641.72000000067,"y":2546124.5000000019}},{"attributes":{"ID":249254,"DIS_CODE":0,"TOWNNAME":"永康區","LI":"中興里","LIN":"13鄰","STREET":"中興街","SECT":" ","MAREA":" ","LANE":"５５巷","ALLEY":" ","HOUSE_NO":"６號","E_COORD97":172049.97,"N_COORD97":2545248.8399999999,"ADDRESS":"中興街５５巷６號","OBJECTID":249250},"geometry":{"x":172049.97000000067,"y":2545248.839999998}},{"attributes":{"ID":249255,"DIS_CODE":0,"TOWNNAME":"永康區","LI":"五王里","LIN":"28鄰","STREET":"中山東路","SECT":" ","MAREA":" ","LANE":"６８巷","ALLEY":" ","HOUSE_NO":"３６號","E_COORD97":171622.94,"N_COORD97":2545983.96,"ADDRESS":"中山東路６８巷３６號","OBJECTID":249251},"geometry":{"x":171622.94000000041,"y":2545983.9600000009}},{"attributes":{"ID":249256,"DIS_CODE":0,"TOWNNAME":"中西區","LI":"天后里","LIN":"14鄰","STREET":"赤嵌街","SECT":" ","MAREA":" ","LANE":"１５巷","ALLEY":" ","HOUSE_NO":"２號之３","E_COORD97":168200.89000000001,"N_COORD97":2544268.52,"ADDRESS":"赤嵌街１５巷２號之３","OBJECTID":249252},"geometry":{"x":168200.8900000006,"y":2544268.5200000014}},{"attributes":{"ID":249257,"DIS_CODE":0,"TOWNNAME":"中西區","LI":"天后里","LIN":"14鄰","STREET":"赤嵌街","SECT":" ","MAREA":" ","LANE":"１５巷","ALLEY":" ","HOUSE_NO":"２號之４","E_COORD97":168200.60999999999,"N_COORD97":2544271.7599999998,"ADDRESS":"赤嵌街１５巷２號之４","OBJECTID":249253},"geometry":{"x":168200.61000000034,"y":2544271.7599999998}},{"attributes":{"ID":249258,"DIS_CODE":0,"TOWNNAME":"中西區","LI":"天后里","LIN":"14鄰","STREET":"赤嵌街","SECT":" ","MAREA":" ","LANE":"１５巷","ALLEY":" ","HOUSE_NO":"６號","E_COORD97":168187.48999999999,"N_COORD97":2544278.9300000002,"ADDRESS":"赤嵌街１５巷６號","OBJECTID":249254},"geometry":{"x":168187.49000000022,"y":2544278.9300000034}},{"attributes":{"ID":249259,"DIS_CODE":0,"TOWNNAME":"東區","LI":"崇明里","LIN":"14鄰","STREET":"大同路","SECT":"二段","MAREA":" ","LANE":" ","ALLEY":" ","HOUSE_NO":"７３５號","E_COORD97":169654.66,"N_COORD97":2540771.77,"ADDRESS":"大同路二段７３５號","OBJECTID":249255},"geometry":{"x":169654.66000000015,"y":2540771.7700000014}},{"attributes":{"ID":249260,"DIS_CODE":0,"TOWNNAME":"東區","LI":"崇明里","LIN":"14鄰","STREET":"大同路","SECT":"二段","MAREA":" ","LANE":" ","ALLEY":" ","HOUSE_NO":"７３７號","E_COORD97":169660.45000000001,"N_COORD97":2540772.2799999998,"ADDRESS":"大同路二段７３７號","OBJECTID":249256},"geometry":{"x":169660.45000000112,"y":2540772.2799999993}},{"attributes":{"ID":249261,"DIS_CODE":0,"TOWNNAME":"東區","LI":"東門里","LIN":"1鄰","STREET":"東門路","SECT":"一段","MAREA":" ","LANE":" ","ALLEY":" ","HOUSE_NO":"２９號","E_COORD97":169212.57999999999,"N_COORD97":2543283.1400000001,"ADDRESS":"東門路一段２９號","OBJECTID":249257},"geometry":{"x":169212.58000000007,"y":2543283.1400000006}},{"attributes":{"ID":249262,"DIS_CODE":0,"TOWNNAME":"後壁區","LI":"菁寮里","LIN":"11鄰","STREET":" ","SECT":" ","MAREA":"菁寮","LANE":" ","ALLEY":" ","HOUSE_NO":"１２１號之１","E_COORD97":182004.91,"N_COORD97":2586432.4300000002,"ADDRESS":"菁寮１２１號之１","OBJECTID":249258},"geometry":{"x":182004.91000000108,"y":2586432.4300000016}},{"attributes":{"ID":249263,"DIS_CODE":0,"TOWNNAME":"後壁區","LI":"菁寮里","LIN":"11鄰","STREET":" ","SECT":" ","MAREA":"菁寮","LANE":" ","ALLEY":" ","HOUSE_NO":"１２１號","E_COORD97":182023.20000000001,"N_COORD97":2586439.04,"ADDRESS":"菁寮１２１號","OBJECTID":249259},"geometry":{"x":182023.20000000112,"y":2586439.0399999991}},{"attributes":{"ID":249264,"DIS_CODE":0,"TOWNNAME":"後壁區","LI":"菁寮里","LIN":"11鄰","STREET":" ","SECT":" ","MAREA":"菁寮","LANE":" ","ALLEY":" ","HOUSE_NO":"１２３號","E_COORD97":182048.25,"N_COORD97":2586440.1400000001,"ADDRESS":"菁寮１２３號","OBJECTID":249260},"geometry":{"x":182048.25000000093,"y":2586440.1400000006}},{"attributes":{"ID":249265,"DIS_CODE":0,"TOWNNAME":"後壁區","LI":"菁寮里","LIN":"11鄰","STREET":" ","SECT":" ","MAREA":"菁寮","LANE":" ","ALLEY":" ","HOUSE_NO":"１２４號","E_COORD97":182032.67999999999,"N_COORD97":2586450.5,"ADDRESS":"菁寮１２４號","OBJECTID":249261},"geometry":{"x":182032.68000000156,"y":2586450.5}},{"attributes":{"ID":249266,"DIS_CODE":0,"TOWNNAME":"後壁區","LI":"菁寮里","LIN":"11鄰","STREET":" ","SECT":" ","MAREA":"菁寮","LANE":" ","ALLEY":" ","HOUSE_NO":"１２６號","E_COORD97":182028.95000000001,"N_COORD97":2586464.1600000001,"ADDRESS":"菁寮１２６號","OBJECTID":249262},"geometry":{"x":182028.95000000019,"y":2586464.1600000039}},{"attributes":{"ID":249267,"DIS_CODE":0,"TOWNNAME":"後壁區","LI":"菁寮里","LIN":"11鄰","STREET":" ","SECT":" ","MAREA":"菁寮","LANE":" ","ALLEY":" ","HOUSE_NO":"１２８號","E_COORD97":182058.01000000001,"N_COORD97":2586489.25,"ADDRESS":"菁寮１２８號","OBJECTID":249263},"geometry":{"x":182058.01000000071,"y":2586489.25}},{"attributes":{"ID":249268,"DIS_CODE":0,"TOWNNAME":"後壁區","LI":"菁寮里","LIN":"11鄰","STREET":" ","SECT":" ","MAREA":"菁寮","LANE":" ","ALLEY":" ","HOUSE_NO":"１２９號","E_COORD97":182069.88,"N_COORD97":2586477.6200000001,"ADDRESS":"菁寮１２９號","OBJECTID":249264},"geometry":{"x":182069.87999999989,"y":2586477.620000001}},{"attributes":{"ID":249269,"DIS_CODE":0,"TOWNNAME":"後壁區","LI":"菁寮里","LIN":"11鄰","STREET":" ","SECT":" ","MAREA":"菁寮","LANE":" ","ALLEY":" ","HOUSE_NO":"１３０號","E_COORD97":182064.98000000001,"N_COORD97":2586454.9399999999,"ADDRESS":"菁寮１３０號","OBJECTID":249265},"geometry":{"x":182064.98000000045,"y":2586454.9400000032}},{"attributes":{"ID":249270,"DIS_CODE":0,"TOWNNAME":"後壁區","LI":"菁寮里","LIN":"11鄰","STREET":" ","SECT":" ","MAREA":"菁寮","LANE":" ","ALLEY":" ","HOUSE_NO":"１３１號","E_COORD97":182069.26000000001,"N_COORD97":2586447.3599999999,"ADDRESS":"菁寮１３１號","OBJECTID":249266},"geometry":{"x":182069.25999999978,"y":2586447.3599999994}},{"attributes":{"ID":249271,"DIS_CODE":0,"TOWNNAME":"後壁區","LI":"墨林里","LIN":"11鄰","STREET":" ","SECT":" ","MAREA":"菁寮","LANE":" ","ALLEY":" ","HOUSE_NO":"２９６號","E_COORD97":182432.98999999999,"N_COORD97":2586283.2599999998,"ADDRESS":"菁寮２９６號","OBJECTID":249267},"geometry":{"x":182432.99000000209,"y":2586283.2600000035}},{"attributes":{"ID":249272,"DIS_CODE":0,"TOWNNAME":"中西區","LI":"天后里","LIN":"14鄰","STREET":"赤嵌街","SECT":" ","MAREA":" ","LANE":"１５巷","ALLEY":" ","HOUSE_NO":"６號之１","E_COORD97":168186.67999999999,"N_COORD97":2544274.8700000001,"ADDRESS":"赤嵌街１５巷６號之１","OBJECTID":249268},"geometry":{"x":168186.68000000063,"y":2544274.8700000029}},{"attributes":{"ID":249273,"DIS_CODE":0,"TOWNNAME":"後壁區","LI":"墨林里","LIN":"11鄰","STREET":" ","SECT":" ","MAREA":"菁寮","LANE":" ","ALLEY":" ","HOUSE_NO":"２９４號之５０","E_COORD97":182804.62,"N_COORD97":2586017.71,"ADDRESS":"菁寮２９４號之５０","OBJECTID":249269},"geometry":{"x":182804.62000000011,"y":2586017.7100000028}},{"attributes":{"ID":249274,"DIS_CODE":0,"TOWNNAME":"後壁區","LI":"墨林里","LIN":"11鄰","STREET":" ","SECT":" ","MAREA":"菁寮","LANE":" ","ALLEY":" ","HOUSE_NO":"２９４號","E_COORD97":182491.67000000001,"N_COORD97":2586309.1099999999,"ADDRESS":"菁寮２９４號","OBJECTID":249270},"geometry":{"x":182491.66999999993,"y":2586309.1100000013}},{"attributes":{"ID":249275,"DIS_CODE":0,"TOWNNAME":"後壁區","LI":"墨林里","LIN":"11鄰","STREET":" ","SECT":" ","MAREA":"菁寮","LANE":" ","ALLEY":" ","HOUSE_NO":"２９５號之１","E_COORD97":182460.69,"N_COORD97":2586354.23,"ADDRESS":"菁寮２９５號之１","OBJECTID":249271},"geometry":{"x":182460.69000000134,"y":2586354.2300000004}},{"attributes":{"ID":249276,"DIS_CODE":0,"TOWNNAME":"後壁區","LI":"墨林里","LIN":"11鄰","STREET":" ","SECT":" ","MAREA":"菁寮","LANE":" ","ALLEY":" ","HOUSE_NO":"２９５號","E_COORD97":182456.57000000001,"N_COORD97":2586354.1499999999,"ADDRESS":"菁寮２９５號","OBJECTID":249272},"geometry":{"x":182456.57000000123,"y":2586354.1500000022}},{"attributes":{"ID":249277,"DIS_CODE":0,"TOWNNAME":"七股區","LI":"七股里","LIN":"11鄰","STREET":" ","SECT":" ","MAREA":"七股","LANE":" ","ALLEY":" ","HOUSE_NO":"１０５號之１","E_COORD97":160634.07999999999,"N_COORD97":2559507.5,"ADDRESS":"七股１０５號之１","OBJECTID":249273},"geometry":{"x":160634.08000000101,"y":2559507.5}},{"attributes":{"ID":249278,"DIS_CODE":0,"TOWNNAME":"七股區","LI":"七股里","LIN":"11鄰","STREET":" ","SECT":" ","MAREA":"七股","LANE":" ","ALLEY":" ","HOUSE_NO":"１０５號之２","E_COORD97":160646.51000000001,"N_COORD97":2559504.8999999999,"ADDRESS":"七股１０５號之２","OBJECTID":249274},"geometry":{"x":160646.51000000071,"y":2559504.9000000004}},{"attributes":{"ID":249279,"DIS_CODE":0,"TOWNNAME":"中西區","LI":"天后里","LIN":"14鄰","STREET":"赤嵌街","SECT":" ","MAREA":" ","LANE":"１５巷","ALLEY":" ","HOUSE_NO":"６號之２","E_COORD97":168185.19,"N_COORD97":2544270.5499999998,"ADDRESS":"赤嵌街１５巷６號之２","OBJECTID":249275},"geometry":{"x":168185.18999999948,"y":2544270.5500000007}},{"attributes":{"ID":249280,"DIS_CODE":0,"TOWNNAME":"中西區","LI":"天后里","LIN":"14鄰","STREET":"赤嵌街","SECT":" ","MAREA":" ","LANE":"１５巷","ALLEY":" ","HOUSE_NO":"６號之３","E_COORD97":168183.57000000001,"N_COORD97":2544266.8999999999,"ADDRESS":"赤嵌街１５巷６號之３","OBJECTID":249276},"geometry":{"x":168183.5700000003,"y":2544266.9000000022}},{"attributes":{"ID":249281,"DIS_CODE":0,"TOWNNAME":"中西區","LI":"天后里","LIN":"14鄰","STREET":"赤嵌街","SECT":" ","MAREA":" ","LANE":"１５巷","ALLEY":" ","HOUSE_NO":"８號","E_COORD97":168186.45000000001,"N_COORD97":2544258.0699999998,"ADDRESS":"赤嵌街１５巷８號","OBJECTID":249277},"geometry":{"x":168186.45000000019,"y":2544258.070000004}},{"attributes":{"ID":249282,"DIS_CODE":0,"TOWNNAME":"仁德區","LI":"新田里","LIN":"14鄰","STREET":"北保路","SECT":" ","MAREA":" ","LANE":"１８０巷","ALLEY":" ","HOUSE_NO":"１２號","E_COORD97":173484.97,"N_COORD97":2539398.25,"ADDRESS":"北保路１８０巷１２號","OBJECTID":249278},"geometry":{"x":173484.96999999974,"y":2539398.2500000037}},{"attributes":{"ID":249283,"DIS_CODE":0,"TOWNNAME":"仁德區","LI":"新田里","LIN":"14鄰","STREET":"北保路","SECT":" ","MAREA":" ","LANE":"１８０巷","ALLEY":" ","HOUSE_NO":"６號","E_COORD97":173484.79999999999,"N_COORD97":2539410.75,"ADDRESS":"北保路１８０巷６號","OBJECTID":249279},"geometry":{"x":173484.80000000168,"y":2539410.75}},{"attributes":{"ID":249284,"DIS_CODE":0,"TOWNNAME":"仁德區","LI":"後壁里","LIN":"14鄰","STREET":"德善路","SECT":" ","MAREA":" ","LANE":"１０８巷","ALLEY":" ","HOUSE_NO":"４１號","E_COORD97":173565.23999999999,"N_COORD97":2538716.5099999998,"ADDRESS":"德善路１０８巷４１號","OBJECTID":249280},"geometry":{"x":173565.23999999929,"y":2538716.5099999998}},{"attributes":{"ID":249285,"DIS_CODE":0,"TOWNNAME":"仁德區","LI":"新田里","LIN":"14鄰","STREET":"北保路","SECT":" ","MAREA":" ","LANE":"１８０巷","ALLEY":" ","HOUSE_NO":"８號","E_COORD97":173484.70000000001,"N_COORD97":2539406.25,"ADDRESS":"北保路１８０巷８號","OBJECTID":249281},"geometry":{"x":173484.70000000112,"y":2539406.2500000019}},{"attributes":{"ID":249286,"DIS_CODE":0,"TOWNNAME":"仁德區","LI":"後壁里","LIN":"14鄰","STREET":"德善路","SECT":" ","MAREA":" ","LANE":"１０８巷","ALLEY":" ","HOUSE_NO":"４３號","E_COORD97":173568.70000000001,"N_COORD97":2538714.0099999998,"ADDRESS":"德善路１０８巷４３號","OBJECTID":249282},"geometry":{"x":173568.70000000019,"y":2538714.0099999998}},{"attributes":{"ID":249287,"DIS_CODE":0,"TOWNNAME":"仁德區","LI":"後壁里","LIN":"14鄰","STREET":"德南路","SECT":" ","MAREA":" ","LANE":"１３７巷","ALLEY":" ","HOUSE_NO":"５１號","E_COORD97":173613.12,"N_COORD97":2538701.2599999998,"ADDRESS":"德南路１３７巷５１號","OBJECTID":249283},"geometry":{"x":173613.12000000011,"y":2538701.2599999998}},{"attributes":{"ID":249288,"DIS_CODE":0,"TOWNNAME":"仁德區","LI":"後壁里","LIN":"14鄰","STREET":"德善路","SECT":" ","MAREA":" ","LANE":"１０８巷","ALLEY":" ","HOUSE_NO":"３７號","E_COORD97":173548.19,"N_COORD97":2538730.2599999998,"ADDRESS":"德善路１０８巷３７號","OBJECTID":249284},"geometry":{"x":173548.19000000041,"y":2538730.2600000016}},{"attributes":{"ID":249289,"DIS_CODE":0,"TOWNNAME":"仁德區","LI":"後壁里","LIN":"14鄰","STREET":"德善路","SECT":" ","MAREA":" ","LANE":"１３４巷","ALLEY":" ","HOUSE_NO":"５號","E_COORD97":173566.62,"N_COORD97":2538798.5099999998,"ADDRESS":"德善路１３４巷５號","OBJECTID":249285},"geometry":{"x":173566.62000000104,"y":2538798.5099999998}},{"attributes":{"ID":249290,"DIS_CODE":0,"TOWNNAME":"仁德區","LI":"後壁里","LIN":"14鄰","STREET":"德善路","SECT":" ","MAREA":" ","LANE":"１３４巷","ALLEY":" ","HOUSE_NO":"１５號","E_COORD97":173584.10999999999,"N_COORD97":2538779.77,"ADDRESS":"德善路１３４巷１５號","OBJECTID":249286},"geometry":{"x":173584.11000000127,"y":2538779.7699999996}},{"attributes":{"ID":249291,"DIS_CODE":0,"TOWNNAME":"仁德區","LI":"新田里","LIN":"14鄰","STREET":"北保路","SECT":" ","MAREA":" ","LANE":"１８０巷","ALLEY":" ","HOUSE_NO":"２號","E_COORD97":173485.44,"N_COORD97":2539418.4900000002,"ADDRESS":"北保路１８０巷２號","OBJECTID":249287},"geometry":{"x":173485.44000000041,"y":2539418.4900000021}},{"attributes":{"ID":249292,"DIS_CODE":0,"TOWNNAME":"下營區","LI":"宅內里","LIN":"14鄰","STREET":"人和三街","SECT":" ","MAREA":" ","LANE":"７１巷","ALLEY":" ","HOUSE_NO":"５１號","E_COORD97":174273.25,"N_COORD97":2570539.8599999999,"ADDRESS":"人和三街７１巷５１號","OBJECTID":249288},"geometry":{"x":174273.25,"y":2570539.8599999994}},{"attributes":{"ID":249293,"DIS_CODE":0,"TOWNNAME":"下營區","LI":"宅內里","LIN":"14鄰","STREET":"人和三街","SECT":" ","MAREA":" ","LANE":"７１巷","ALLEY":" ","HOUSE_NO":"５３號","E_COORD97":174274.81,"N_COORD97":2570534.6299999999,"ADDRESS":"人和三街７１巷５３號","OBJECTID":249289},"geometry":{"x":174274.81000000052,"y":2570534.629999999}},{"attributes":{"ID":249294,"DIS_CODE":0,"TOWNNAME":"新市區","LI":"港墘里","LIN":"14鄰","STREET":"長安街","SECT":" ","MAREA":" ","LANE":"３６巷","ALLEY":" ","HOUSE_NO":"１７號","E_COORD97":178285.84,"N_COORD97":2552735.8199999998,"ADDRESS":"長安街３６巷１７號","OBJECTID":249290},"geometry":{"x":178285.84000000078,"y":2552735.820000004}},{"attributes":{"ID":249295,"DIS_CODE":0,"TOWNNAME":"佳里區","LI":"子龍里","LIN":"11鄰","STREET":" ","SECT":" ","MAREA":"子良廟","LANE":" ","ALLEY":" ","HOUSE_NO":"１１４號","E_COORD97":169013.26000000001,"N_COORD97":2563770.3300000001,"ADDRESS":"子良廟１１４號","OBJECTID":249291},"geometry":{"x":169013.26000000164,"y":2563770.3300000001}},{"attributes":{"ID":249296,"DIS_CODE":0,"TOWNNAME":"佳里區","LI":"子龍里","LIN":"11鄰","STREET":" ","SECT":" ","MAREA":"子良廟","LANE":" ","ALLEY":" ","HOUSE_NO":"１１５號","E_COORD97":168996.29999999999,"N_COORD97":2563783.3599999999,"ADDRESS":"子良廟１１５號","OBJECTID":249292},"geometry":{"x":168996.30000000075,"y":2563783.3599999994}},{"attributes":{"ID":249297,"DIS_CODE":0,"TOWNNAME":"佳里區","LI":"子龍里","LIN":"11鄰","STREET":" ","SECT":" ","MAREA":"子良廟","LANE":" ","ALLEY":" ","HOUSE_NO":"１１６號","E_COORD97":169004.28,"N_COORD97":2563743.23,"ADDRESS":"子良廟１１６號","OBJECTID":249293},"geometry":{"x":169004.28000000026,"y":2563743.2300000023}},{"attributes":{"ID":249298,"DIS_CODE":0,"TOWNNAME":"佳里區","LI":"子龍里","LIN":"11鄰","STREET":" ","SECT":" ","MAREA":"子良廟","LANE":" ","ALLEY":" ","HOUSE_NO":"１１９號","E_COORD97":168968.92999999999,"N_COORD97":2563753.2999999998,"ADDRESS":"子良廟１１９號","OBJECTID":249294},"geometry":{"x":168968.9299999997,"y":2563753.3000000026}},{"attributes":{"ID":249299,"DIS_CODE":0,"TOWNNAME":"佳里區","LI":"子龍里","LIN":"11鄰","STREET":" ","SECT":" ","MAREA":"子良廟","LANE":" ","ALLEY":" ","HOUSE_NO":"１２０號","E_COORD97":168992.53,"N_COORD97":2563730.0299999998,"ADDRESS":"子良廟１２０號","OBJECTID":249295},"geometry":{"x":168992.53000000026,"y":2563730.0299999993}},{"attributes":{"ID":249300,"DIS_CODE":0,"TOWNNAME":"佳里區","LI":"子龍里","LIN":"11鄰","STREET":" ","SECT":" ","MAREA":"子良廟","LANE":" ","ALLEY":" ","HOUSE_NO":"１２１號","E_COORD97":168956.48000000001,"N_COORD97":2563720.27,"ADDRESS":"子良廟１２１號","OBJECTID":249296},"geometry":{"x":168956.48000000231,"y":2563720.2700000033}},{"attributes":{"ID":249301,"DIS_CODE":0,"TOWNNAME":"新市區","LI":"港墘里","LIN":"14鄰","STREET":"長安街","SECT":" ","MAREA":" ","LANE":"３６巷","ALLEY":" ","HOUSE_NO":"１８號","E_COORD97":178294.92000000001,"N_COORD97":2552792.8199999998,"ADDRESS":"長安街３６巷１８號","OBJECTID":249297},"geometry":{"x":178294.91999999993,"y":2552792.8200000003}},{"attributes":{"ID":249302,"DIS_CODE":0,"TOWNNAME":"永康區","LI":"三民里","LIN":"11鄰","STREET":"和平路","SECT":" ","MAREA":" ","LANE":" ","ALLEY":" ","HOUSE_NO":"２２６號","E_COORD97":174750.51999999999,"N_COORD97":2550679.9399999999,"ADDRESS":"和平路２２６號","OBJECTID":249298},"geometry":{"x":174750.51999999955,"y":2550679.9400000013}},{"attributes":{"ID":249303,"DIS_CODE":0,"TOWNNAME":"佳里區","LI":"鎮山里","LIN":"11鄰","STREET":"中興街","SECT":" ","MAREA":" ","LANE":"３４２巷","ALLEY":" ","HOUSE_NO":"１５號","E_COORD97":166217.70999999999,"N_COORD97":2561628.98,"ADDRESS":"中興街３４２巷１５號","OBJECTID":249299},"geometry":{"x":166217.70999999996,"y":2561628.9800000023}},{"attributes":{"ID":249304,"DIS_CODE":0,"TOWNNAME":"佳里區","LI":"鎮山里","LIN":"11鄰","STREET":"中興街","SECT":" ","MAREA":" ","LANE":"３４２巷","ALLEY":" ","HOUSE_NO":"１６號","E_COORD97":166211.54999999999,"N_COORD97":2561613.8399999999,"ADDRESS":"中興街３４２巷１６號","OBJECTID":249300},"geometry":{"x":166211.55000000075,"y":2561613.8399999999}},{"attributes":{"ID":249305,"DIS_CODE":0,"TOWNNAME":"新市區","LI":"港墘里","LIN":"14鄰","STREET":"長安街","SECT":" ","MAREA":" ","LANE":"３６巷","ALLEY":" ","HOUSE_NO":"１１號","E_COORD97":178287.04000000001,"N_COORD97":2552723.0699999998,"ADDRESS":"長安街３６巷１１號","OBJECTID":249301},"geometry":{"x":178287.04000000004,"y":2552723.0700000003}},{"attributes":{"ID":249306,"DIS_CODE":0,"TOWNNAME":"新市區","LI":"港墘里","LIN":"14鄰","STREET":"長安街","SECT":" ","MAREA":" ","LANE":"３６巷","ALLEY":" ","HOUSE_NO":"５號","E_COORD97":178287.10000000001,"N_COORD97":2552700.8199999998,"ADDRESS":"長安街３６巷５號","OBJECTID":249302},"geometry":{"x":178287.10000000056,"y":2552700.8200000003}},{"attributes":{"ID":249307,"DIS_CODE":0,"TOWNNAME":"新市區","LI":"港墘里","LIN":"14鄰","STREET":"長安街","SECT":" ","MAREA":" ","LANE":"３６巷","ALLEY":" ","HOUSE_NO":"１４號","E_COORD97":178308.92999999999,"N_COORD97":2552774.5699999998,"ADDRESS":"長安街３６巷１４號","OBJECTID":249303},"geometry":{"x":178308.93000000063,"y":2552774.570000004}},{"attributes":{"ID":249308,"DIS_CODE":0,"TOWNNAME":"官田區","LI":"南\u25A0里","LIN":"2鄰","STREET":" ","SECT":" ","MAREA":"南\u25A0","LANE":" ","ALLEY":" ","HOUSE_NO":"３３號之３５","E_COORD97":179032.12,"N_COORD97":2568100.2999999998,"ADDRESS":"南\u25A0３３號之３５","OBJECTID":249304},"geometry":{"x":179032.12000000104,"y":2568100.3000000007}},{"attributes":{"ID":249309,"DIS_CODE":0,"TOWNNAME":"新市區","LI":"港墘里","LIN":"14鄰","STREET":"長安街","SECT":" ","MAREA":" ","LANE":"３６巷","ALLEY":" ","HOUSE_NO":"１０之２號","E_COORD97":178302.95000000001,"N_COORD97":2552748.3199999998,"ADDRESS":"長安街３６巷１０之２號","OBJECTID":249305},"geometry":{"x":178302.95000000019,"y":2552748.3200000003}},{"attributes":{"ID":249310,"DIS_CODE":0,"TOWNNAME":"新市區","LI":"新市里","LIN":"14鄰","STREET":"中正路","SECT":" ","MAREA":" ","LANE":"３２３巷","ALLEY":" ","HOUSE_NO":"１９號","E_COORD97":177648.73000000001,"N_COORD97":2553352,"ADDRESS":"中正路３２３巷１９號","OBJECTID":249306},"geometry":{"x":177648.73000000045,"y":2553352.0000000019}},{"attributes":{"ID":249311,"DIS_CODE":0,"TOWNNAME":"新市區","LI":"港墘里","LIN":"14鄰","STREET":"長安街","SECT":" ","MAREA":" ","LANE":"３６巷","ALLEY":" ","HOUSE_NO":"１０號","E_COORD97":178307.81,"N_COORD97":2552736.8199999998,"ADDRESS":"長安街３６巷１０號","OBJECTID":249307},"geometry":{"x":178307.81000000052,"y":2552736.8200000022}},{"attributes":{"ID":249312,"DIS_CODE":0,"TOWNNAME":"新市區","LI":"港墘里","LIN":"14鄰","STREET":"長安街","SECT":" ","MAREA":" ","LANE":"３６巷","ALLEY":" ","HOUSE_NO":"１２號","E_COORD97":178299.29000000001,"N_COORD97":2552758.3199999998,"ADDRESS":"長安街３６巷１２號","OBJECTID":249308},"geometry":{"x":178299.29000000004,"y":2552758.3200000003}},{"attributes":{"ID":249313,"DIS_CODE":0,"TOWNNAME":"新市區","LI":"港墘里","LIN":"14鄰","STREET":"長安街","SECT":" ","MAREA":" ","LANE":"３６巷","ALLEY":" ","HOUSE_NO":"２２號","E_COORD97":178293.14999999999,"N_COORD97":2552801.5699999998,"ADDRESS":"長安街３６巷２２號","OBJECTID":249309},"geometry":{"x":178293.15000000037,"y":2552801.5699999984}},{"attributes":{"ID":249314,"DIS_CODE":0,"TOWNNAME":"新市區","LI":"港墘里","LIN":"14鄰","STREET":"長安街","SECT":" ","MAREA":" ","LANE":"３６巷","ALLEY":" ","HOUSE_NO":"１６號","E_COORD97":178294.95000000001,"N_COORD97":2552788.8199999998,"ADDRESS":"長安街３６巷１６號","OBJECTID":249310},"geometry":{"x":178294.95000000019,"y":2552788.8200000003}},{"attributes":{"ID":249315,"DIS_CODE":0,"TOWNNAME":"新市區","LI":"港墘里","LIN":"14鄰","STREET":"長安街","SECT":" ","MAREA":" ","LANE":"３６巷","ALLEY":" ","HOUSE_NO":"３０號","E_COORD97":178301.84,"N_COORD97":2552827.8199999998,"ADDRESS":"長安街３６巷３０號","OBJECTID":249311},"geometry":{"x":178301.83999999985,"y":2552827.8200000022}},{"attributes":{"ID":249316,"DIS_CODE":0,"TOWNNAME":"新市區","LI":"港墘里","LIN":"14鄰","STREET":"長安街","SECT":" ","MAREA":" ","LANE":"３６巷","ALLEY":" ","HOUSE_NO":"２３號","E_COORD97":178284.48000000001,"N_COORD97":2552748.0699999998,"ADDRESS":"長安街３６巷２３號","OBJECTID":249312},"geometry":{"x":178284.48000000045,"y":2552748.0700000022}},{"attributes":{"ID":249317,"DIS_CODE":0,"TOWNNAME":"安南區","LI":"海南里","LIN":"14鄰","STREET":"府安路","SECT":"七段","MAREA":" ","LANE":"６６巷","ALLEY":" ","HOUSE_NO":"１號","E_COORD97":165910.54999999999,"N_COORD97":2545898.7799999998,"ADDRESS":"府安路七段６６巷１號","OBJECTID":249313},"geometry":{"x":165910.54999999981,"y":2545898.7799999993}},{"attributes":{"ID":249318,"DIS_CODE":0,"TOWNNAME":"安南區","LI":"海南里","LIN":"14鄰","STREET":"府安路","SECT":"七段","MAREA":" ","LANE":"６６巷","ALLEY":" ","HOUSE_NO":"３號","E_COORD97":165908.57000000001,"N_COORD97":2545902.6400000001,"ADDRESS":"府安路七段６６巷３號","OBJECTID":249314},"geometry":{"x":165908.5700000003,"y":2545902.6400000025}},{"attributes":{"ID":249319,"DIS_CODE":0,"TOWNNAME":"新化區","LI":"\u25A0拔里","LIN":"11鄰","STREET":" ","SECT":" ","MAREA":"牧場","LANE":" ","ALLEY":" ","HOUSE_NO":"１３號之３","E_COORD97":181573.67999999999,"N_COORD97":2551109.2599999998,"ADDRESS":"牧場１３號之３","OBJECTID":249315},"geometry":{"x":181573.68000000063,"y":2551109.2600000016}},{"attributes":{"ID":249320,"DIS_CODE":0,"TOWNNAME":"新化區","LI":"\u25A0拔里","LIN":"11鄰","STREET":" ","SECT":" ","MAREA":"牧場","LANE":" ","ALLEY":" ","HOUSE_NO":"１３號之１３","E_COORD97":181785.23000000001,"N_COORD97":2551074.2599999998,"ADDRESS":"牧場１３號之１３","OBJECTID":249316},"geometry":{"x":181785.23000000045,"y":2551074.2600000035}},{"attributes":{"ID":249321,"DIS_CODE":0,"TOWNNAME":"安南區","LI":"新順里","LIN":"14鄰","STREET":"安和路","SECT":"二段","MAREA":" ","LANE":"３１８巷","ALLEY":" ","HOUSE_NO":"９８號","E_COORD97":170051.62,"N_COORD97":2549253.6299999999,"ADDRESS":"安和路二段３１８巷９８號","OBJECTID":249317},"geometry":{"x":170051.62000000011,"y":2549253.6300000027}},{"attributes":{"ID":249322,"DIS_CODE":0,"TOWNNAME":"安南區","LI":"淵東里","LIN":"14鄰","STREET":"仁安路","SECT":" ","MAREA":" ","LANE":"８３巷","ALLEY":" ","HOUSE_NO":"５８號","E_COORD97":165604.89000000001,"N_COORD97":2550258.2200000002,"ADDRESS":"仁安路８３巷５８號","OBJECTID":249318},"geometry":{"x":165604.89000000153,"y":2550258.2199999988}},{"attributes":{"ID":249323,"DIS_CODE":0,"TOWNNAME":"安南區","LI":"淵東里","LIN":"14鄰","STREET":"仁安路","SECT":" ","MAREA":" ","LANE":"８３巷","ALLEY":" ","HOUSE_NO":"６０號","E_COORD97":165603.67000000001,"N_COORD97":2550264.3399999999,"ADDRESS":"仁安路８３巷６０號","OBJECTID":249319},"geometry":{"x":165603.67000000086,"y":2550264.3400000017}},{"attributes":{"ID":249324,"DIS_CODE":0,"TOWNNAME":"東區","LI":"崇明里","LIN":"14鄰","STREET":"大同路","SECT":"二段","MAREA":" ","LANE":" ","ALLEY":" ","HOUSE_NO":"７３９號","E_COORD97":169670.48999999999,"N_COORD97":2540773.8300000001,"ADDRESS":"大同路二段７３９號","OBJECTID":249320},"geometry":{"x":169670.49000000115,"y":2540773.8300000001}},{"attributes":{"ID":249325,"DIS_CODE":0,"TOWNNAME":"東區","LI":"崇明里","LIN":"14鄰","STREET":"大同路","SECT":"二段","MAREA":" ","LANE":" ","ALLEY":" ","HOUSE_NO":"７４１號","E_COORD97":169676.54000000001,"N_COORD97":2540774.21,"ADDRESS":"大同路二段７４１號","OBJECTID":249321},"geometry":{"x":169676.54000000097,"y":2540774.2100000009}},{"attributes":{"ID":249326,"DIS_CODE":0,"TOWNNAME":"新化區","LI":"唪口里","LIN":"11鄰","STREET":" ","SECT":" ","MAREA":"唪口","LANE":" ","ALLEY":" ","HOUSE_NO":"１６０號之３","E_COORD97":177570.89000000001,"N_COORD97":2548828.2599999998,"ADDRESS":"唪口１６０號之３","OBJECTID":249322},"geometry":{"x":177570.88999999966,"y":2548828.2599999998}},{"attributes":{"ID":249327,"DIS_CODE":0,"TOWNNAME":"楠西區","LI":"東勢里","LIN":"21鄰","STREET":"民生路","SECT":" ","MAREA":" ","LANE":"１０６巷","ALLEY":" ","HOUSE_NO":"２號之２","E_COORD97":197392.87866700001,"N_COORD97":2564224.1896199998,"ADDRESS":"民生路１０６巷２號之２","OBJECTID":249323},"geometry":{"x":197392.87866699975,"y":2564224.1896209996}},{"attributes":{"ID":249328,"DIS_CODE":0,"TOWNNAME":"新化區","LI":"知義里","LIN":"11鄰","STREET":"中興路","SECT":" ","MAREA":" ","LANE":"８１巷","ALLEY":" ","HOUSE_NO":"１３號","E_COORD97":181817.51000000001,"N_COORD97":2547195.25,"ADDRESS":"中興路８１巷１３號","OBJECTID":249324},"geometry":{"x":181817.51000000071,"y":2547195.25}},{"attributes":{"ID":249329,"DIS_CODE":0,"TOWNNAME":"安南區","LI":"淵東里","LIN":"14鄰","STREET":"仁安路","SECT":" ","MAREA":" ","LANE":"８３巷","ALLEY":" ","HOUSE_NO":"６２號","E_COORD97":165602.44,"N_COORD97":2550269.6400000001,"ADDRESS":"仁安路８３巷６２號","OBJECTID":249325},"geometry":{"x":165602.44000000134,"y":2550269.6400000025}},{"attributes":{"ID":249330,"DIS_CODE":0,"TOWNNAME":"新化區","LI":"\u25A0拔里","LIN":"11鄰","STREET":" ","SECT":" ","MAREA":"牧場","LANE":" ","ALLEY":" ","HOUSE_NO":"４１號","E_COORD97":181791.03,"N_COORD97":2551206.25,"ADDRESS":"牧場４１號","OBJECTID":249326},"geometry":{"x":181791.03000000026,"y":2551206.25}},{"attributes":{"ID":249331,"DIS_CODE":0,"TOWNNAME":"東區","LI":"復興里","LIN":"14鄰","STREET":"裕學路","SECT":" ","MAREA":" ","LANE":"１８５巷","ALLEY":" ","HOUSE_NO":"１２７號","E_COORD97":171768.56,"N_COORD97":2542640.3599999999,"ADDRESS":"裕學路１８５巷１２７號","OBJECTID":249327},"geometry":{"x":171768.55999999959,"y":2542640.3599999994}},{"attributes":{"ID":249332,"DIS_CODE":0,"TOWNNAME":"新化區","LI":"\u25A0拔里","LIN":"11鄰","STREET":" ","SECT":" ","MAREA":"牧場","LANE":" ","ALLEY":" ","HOUSE_NO":"１３號之１２","E_COORD97":181761.04000000001,"N_COORD97":2551078.2599999998,"ADDRESS":"牧場１３號之１２","OBJECTID":249328},"geometry":{"x":181761.0400000019,"y":2551078.2600000016}},{"attributes":{"ID":249333,"DIS_CODE":0,"TOWNNAME":"東區","LI":"復興里","LIN":"14鄰","STREET":"裕學路","SECT":" ","MAREA":" ","LANE":"１８５巷","ALLEY":" ","HOUSE_NO":"１２９號","E_COORD97":171772.32999999999,"N_COORD97":2542641.1000000001,"ADDRESS":"裕學路１８５巷１２９號","OBJECTID":249329},"geometry":{"x":171772.33000000007,"y":2542641.1000000015}},{"attributes":{"ID":249334,"DIS_CODE":0,"TOWNNAME":"新化區","LI":"唪口里","LIN":"11鄰","STREET":" ","SECT":" ","MAREA":"唪口","LANE":" ","ALLEY":" ","HOUSE_NO":"１６０號之４","E_COORD97":177582.98000000001,"N_COORD97":2548817.2599999998,"ADDRESS":"唪口１６０號之４","OBJECTID":249330},"geometry":{"x":177582.98000000045,"y":2548817.2600000016}},{"attributes":{"ID":249335,"DIS_CODE":0,"TOWNNAME":"東區","LI":"復興里","LIN":"14鄰","STREET":"裕學路","SECT":" ","MAREA":" ","LANE":"１８５巷","ALLEY":" ","HOUSE_NO":"１３１號","E_COORD97":171776.47,"N_COORD97":2542641.9100000001,"ADDRESS":"裕學路１８５巷１３１號","OBJECTID":249331},"geometry":{"x":171776.4700000016,"y":2542641.9100000039}},{"attributes":{"ID":249336,"DIS_CODE":0,"TOWNNAME":"新化區","LI":"\u25A0拔里","LIN":"11鄰","STREET":" ","SECT":" ","MAREA":"牧場","LANE":" ","ALLEY":" ","HOUSE_NO":"２４號","E_COORD97":181615.32999999999,"N_COORD97":2551138.25,"ADDRESS":"牧場２４號","OBJECTID":249332},"geometry":{"x":181615.33000000101,"y":2551138.25}},{"attributes":{"ID":249337,"DIS_CODE":0,"TOWNNAME":"東區","LI":"復興里","LIN":"14鄰","STREET":"裕學路","SECT":" ","MAREA":" ","LANE":"１８５巷","ALLEY":" ","HOUSE_NO":"１３３號","E_COORD97":171780.09,"N_COORD97":2542642.21,"ADDRESS":"裕學路１８５巷１３３號","OBJECTID":249333},"geometry":{"x":171780.08999999985,"y":2542642.2100000009}},{"attributes":{"ID":249338,"DIS_CODE":0,"TOWNNAME":"東區","LI":"復興里","LIN":"14鄰","STREET":"裕學路","SECT":" ","MAREA":" ","LANE":"１８５巷","ALLEY":" ","HOUSE_NO":"１３５號","E_COORD97":171779.88,"N_COORD97":2542621.5499999998,"ADDRESS":"裕學路１８５巷１３５號","OBJECTID":249334},"geometry":{"x":171779.87999999989,"y":2542621.5500000026}},{"attributes":{"ID":249339,"DIS_CODE":0,"TOWNNAME":"新化區","LI":"山\u25A0里","LIN":"11鄰","STREET":" ","SECT":" ","MAREA":"五甲勢","LANE":" ","ALLEY":" ","HOUSE_NO":"７０號","E_COORD97":181814.38,"N_COORD97":2545486.2599999998,"ADDRESS":"五甲勢７０號","OBJECTID":249335},"geometry":{"x":181814.37999999896,"y":2545486.2599999998}},{"attributes":{"ID":249340,"DIS_CODE":0,"TOWNNAME":"新化區","LI":"\u25A0拔里","LIN":"11鄰","STREET":" ","SECT":" ","MAREA":"牧場","LANE":" ","ALLEY":" ","HOUSE_NO":"１１０號","E_COORD97":181857.48000000001,"N_COORD97":2551044.25,"ADDRESS":"牧場１１０號","OBJECTID":249336},"geometry":{"x":181857.48000000138,"y":2551044.2500000037}},{"attributes":{"ID":249341,"DIS_CODE":0,"TOWNNAME":"新化區","LI":"唪口里","LIN":"11鄰","STREET":" ","SECT":" ","MAREA":"唪口","LANE":" ","ALLEY":" ","HOUSE_NO":"１６３號之１３","E_COORD97":177621.64000000001,"N_COORD97":2548820.2599999998,"ADDRESS":"唪口１６３號之１３","OBJECTID":249337},"geometry":{"x":177621.63999999966,"y":2548820.2600000016}},{"attributes":{"ID":249342,"DIS_CODE":0,"TOWNNAME":"東區","LI":"復興里","LIN":"14鄰","STREET":"裕學路","SECT":" ","MAREA":" ","LANE":"１８５巷","ALLEY":" ","HOUSE_NO":"１３７號","E_COORD97":171775.10999999999,"N_COORD97":2542623.1299999999,"ADDRESS":"裕學路１８５巷１３７號","OBJECTID":249338},"geometry":{"x":171775.11000000127,"y":2542623.1300000008}},{"attributes":{"ID":249343,"DIS_CODE":0,"TOWNNAME":"新化區","LI":"唪口里","LIN":"11鄰","STREET":" ","SECT":" ","MAREA":"唪口","LANE":" ","ALLEY":" ","HOUSE_NO":"１６０號","E_COORD97":177568.95000000001,"N_COORD97":2548836.25,"ADDRESS":"唪口１６０號","OBJECTID":249339},"geometry":{"x":177568.95000000019,"y":2548836.25}},{"attributes":{"ID":249344,"DIS_CODE":0,"TOWNNAME":"東區","LI":"崇明里","LIN":"14鄰","STREET":"大同路","SECT":"二段","MAREA":" ","LANE":" ","ALLEY":" ","HOUSE_NO":"７４３號","E_COORD97":169679.63,"N_COORD97":2540747.1800000002,"ADDRESS":"大同路二段７４３號","OBJECTID":249340},"geometry":{"x":169679.62999999989,"y":2540747.1799999997}},{"attributes":{"ID":249345,"DIS_CODE":0,"TOWNNAME":"新化區","LI":"唪口里","LIN":"11鄰","STREET":" ","SECT":" ","MAREA":"唪口","LANE":" ","ALLEY":" ","HOUSE_NO":"１６０號之１","E_COORD97":177568.57999999999,"N_COORD97":2548841.2599999998,"ADDRESS":"唪口１６０號之１","OBJECTID":249341},"geometry":{"x":177568.58000000194,"y":2548841.2600000016}},{"attributes":{"ID":249346,"DIS_CODE":0,"TOWNNAME":"新化區","LI":"\u25A0拔里","LIN":"11鄰","STREET":" ","SECT":" ","MAREA":"牧場","LANE":" ","ALLEY":" ","HOUSE_NO":"１７號","E_COORD97":181732.32999999999,"N_COORD97":2551111.25,"ADDRESS":"牧場１７號","OBJECTID":249342},"geometry":{"x":181732.33000000101,"y":2551111.25}},{"attributes":{"ID":249347,"DIS_CODE":0,"TOWNNAME":"新化區","LI":"\u25A0拔里","LIN":"11鄰","STREET":" ","SECT":" ","MAREA":"牧場","LANE":" ","ALLEY":" ","HOUSE_NO":"２６號","E_COORD97":181658.53,"N_COORD97":2551161.25,"ADDRESS":"牧場２６號","OBJECTID":249343},"geometry":{"x":181658.53000000119,"y":2551161.25}},{"attributes":{"ID":249348,"DIS_CODE":0,"TOWNNAME":"新化區","LI":"\u25A0拔里","LIN":"11鄰","STREET":" ","SECT":" ","MAREA":"牧場","LANE":" ","ALLEY":" ","HOUSE_NO":"３５號","E_COORD97":181809.13,"N_COORD97":2551170.25,"ADDRESS":"牧場３５號","OBJECTID":249344},"geometry":{"x":181809.12999999989,"y":2551170.2500000019}},{"attributes":{"ID":249349,"DIS_CODE":0,"TOWNNAME":"東區","LI":"崇明里","LIN":"14鄰","STREET":"大同路","SECT":"二段","MAREA":" ","LANE":" ","ALLEY":" ","HOUSE_NO":"７４５號","E_COORD97":169674.60999999999,"N_COORD97":2540745.8999999999,"ADDRESS":"大同路二段７４５號","OBJECTID":249345},"geometry":{"x":169674.61000000127,"y":2540745.9000000004}},{"attributes":{"ID":249350,"DIS_CODE":0,"TOWNNAME":"安南區","LI":"幸福里","LIN":"11鄰","STREET":"府安路","SECT":"六段","MAREA":" ","LANE":"９４巷","ALLEY":" ","HOUSE_NO":"３８號之５","E_COORD97":166744.14999999999,"N_COORD97":2546674.1000000001,"ADDRESS":"府安路六段９４巷３８號之５","OBJECTID":249346},"geometry":{"x":166744.15000000037,"y":2546674.0999999996}},{"attributes":{"ID":249351,"DIS_CODE":0,"TOWNNAME":"安南區","LI":"南興里","LIN":"11鄰","STREET":"公學路","SECT":"五段","MAREA":" ","LANE":"６９７巷","ALLEY":" ","HOUSE_NO":"８２號","E_COORD97":163827.13,"N_COORD97":2552616.3999999999,"ADDRESS":"公學路五段６９７巷８２號","OBJECTID":249347},"geometry":{"x":163827.13000000082,"y":2552616.3999999985}},{"attributes":{"ID":249352,"DIS_CODE":0,"TOWNNAME":"安南區","LI":"海東里","LIN":"11鄰","STREET":"海佃路","SECT":"二段","MAREA":" ","LANE":"４８３巷","ALLEY":" ","HOUSE_NO":"８３號","E_COORD97":166457.73999999999,"N_COORD97":2549022.4500000002,"ADDRESS":"海佃路二段４８３巷８３號","OBJECTID":249348},"geometry":{"x":166457.74000000115,"y":2549022.4500000011}},{"attributes":{"ID":249353,"DIS_CODE":0,"TOWNNAME":"永康區","LI":"東橋里","LIN":"11鄰","STREET":"中山南路","SECT":" ","MAREA":" ","LANE":"１９５巷","ALLEY":" ","HOUSE_NO":"７號","E_COORD97":171567.20999999999,"N_COORD97":2546207.1000000001,"ADDRESS":"中山南路１９５巷７號","OBJECTID":249349},"geometry":{"x":171567.21000000089,"y":2546207.1000000015}},{"attributes":{"ID":249354,"DIS_CODE":0,"TOWNNAME":"東區","LI":"崇明里","LIN":"14鄰","STREET":"大同路","SECT":"二段","MAREA":" ","LANE":" ","ALLEY":" ","HOUSE_NO":"７４７號","E_COORD97":169665.73000000001,"N_COORD97":2540745.1200000001,"ADDRESS":"大同路二段７４７號","OBJECTID":249350},"geometry":{"x":169665.73000000138,"y":2540745.120000001}},{"attributes":{"ID":249355,"DIS_CODE":0,"TOWNNAME":"東區","LI":"崇明里","LIN":"14鄰","STREET":"大同路","SECT":"二段","MAREA":" ","LANE":" ","ALLEY":" ","HOUSE_NO":"７４９號","E_COORD97":169659.29000000001,"N_COORD97":2540744.0899999999,"ADDRESS":"大同路二段７４９號","OBJECTID":249351},"geometry":{"x":169659.29000000097,"y":2540744.0899999999}},{"attributes":{"ID":249356,"DIS_CODE":0,"TOWNNAME":"東區","LI":"崇明里","LIN":"14鄰","STREET":"大同路","SECT":"二段","MAREA":" ","LANE":" ","ALLEY":" ","HOUSE_NO":"７５１號","E_COORD97":169640.63,"N_COORD97":2540746.7799999998,"ADDRESS":"大同路二段７５１號","OBJECTID":249352},"geometry":{"x":169640.62999999989,"y":2540746.7800000031}},{"attributes":{"ID":249357,"DIS_CODE":0,"TOWNNAME":"東區","LI":"崇明里","LIN":"14鄰","STREET":"大同路","SECT":"二段","MAREA":" ","LANE":" ","ALLEY":" ","HOUSE_NO":"７５３號","E_COORD97":169641.26999999999,"N_COORD97":2540741.6299999999,"ADDRESS":"大同路二段７５３號","OBJECTID":249353},"geometry":{"x":169641.26999999955,"y":2540741.6300000008}},{"attributes":{"ID":249358,"DIS_CODE":0,"TOWNNAME":"東區","LI":"崇明里","LIN":"14鄰","STREET":"大同路","SECT":"二段","MAREA":" ","LANE":" ","ALLEY":" ","HOUSE_NO":"７５５號","E_COORD97":169641.66,"N_COORD97":2540737.2599999998,"ADDRESS":"大同路二段７５５號","OBJECTID":249354},"geometry":{"x":169641.66000000108,"y":2540737.2600000016}},{"attributes":{"ID":249359,"DIS_CODE":0,"TOWNNAME":"永康區","LI":"尚頂里","LIN":"11鄰","STREET":"正南一街","SECT":" ","MAREA":" ","LANE":"５７巷","ALLEY":" ","HOUSE_NO":"８號","E_COORD97":171113.95000000001,"N_COORD97":2547268.1899999999,"ADDRESS":"正南一街５７巷８號","OBJECTID":249355},"geometry":{"x":171113.95000000019,"y":2547268.1900000013}},{"attributes":{"ID":249360,"DIS_CODE":0,"TOWNNAME":"永康區","LI":"復國里","LIN":"11鄰","STREET":"復國一路","SECT":" ","MAREA":" ","LANE":"２７６巷","ALLEY":" ","HOUSE_NO":"１４號","E_COORD97":172820.70000000001,"N_COORD97":2545404.9199999999,"ADDRESS":"復國一路２７６巷１４號","OBJECTID":249356},"geometry":{"x":172820.70000000019,"y":2545404.9200000018}},{"attributes":{"ID":249361,"DIS_CODE":0,"TOWNNAME":"永康區","LI":"復國里","LIN":"11鄰","STREET":"復國一路","SECT":" ","MAREA":" ","LANE":"２７６巷","ALLEY":" ","HOUSE_NO":"９號","E_COORD97":172787.47,"N_COORD97":2545438.8900000001,"ADDRESS":"復國一路２７６巷９號","OBJECTID":249357},"geometry":{"x":172787.47000000067,"y":2545438.8900000006}},{"attributes":{"ID":249362,"DIS_CODE":0,"TOWNNAME":"東區","LI":"復興里","LIN":"14鄰","STREET":"裕學路","SECT":" ","MAREA":" ","LANE":"１８５巷","ALLEY":" ","HOUSE_NO":"１３９號","E_COORD97":171771.12,"N_COORD97":2542621.5499999998,"ADDRESS":"裕學路１８５巷１３９號","OBJECTID":249358},"geometry":{"x":171771.12000000104,"y":2542621.5500000026}},{"attributes":{"ID":249363,"DIS_CODE":0,"TOWNNAME":"東區","LI":"復興里","LIN":"14鄰","STREET":"裕學路","SECT":" ","MAREA":" ","LANE":"１８５巷","ALLEY":" ","HOUSE_NO":"１４１號","E_COORD97":171766.35000000001,"N_COORD97":2542623.1299999999,"ADDRESS":"裕學路１８５巷１４１號","OBJECTID":249359},"geometry":{"x":171766.34999999963,"y":2542623.1300000008}},{"attributes":{"ID":249364,"DIS_CODE":0,"TOWNNAME":"東區","LI":"復興里","LIN":"14鄰","STREET":"裕學路","SECT":" ","MAREA":" ","LANE":"１８５巷","ALLEY":" ","HOUSE_NO":"１４３號","E_COORD97":171763.16,"N_COORD97":2542620.3599999999,"ADDRESS":"裕學路１８５巷１４３號","OBJECTID":249360},"geometry":{"x":171763.16000000015,"y":2542620.3599999994}},{"attributes":{"ID":249365,"DIS_CODE":0,"TOWNNAME":"東區","LI":"復興里","LIN":"14鄰","STREET":"裕學路","SECT":" ","MAREA":" ","LANE":"１８５巷","ALLEY":" ","HOUSE_NO":"１４５號","E_COORD97":171759.17999999999,"N_COORD97":2542619.1699999999,"ADDRESS":"裕學路１８５巷１４５號","OBJECTID":249361},"geometry":{"x":171759.1799999997,"y":2542619.1699999981}},{"attributes":{"ID":249366,"DIS_CODE":0,"TOWNNAME":"東區","LI":"復興里","LIN":"14鄰","STREET":"裕學路","SECT":" ","MAREA":" ","LANE":"１８５巷","ALLEY":" ","HOUSE_NO":"１４７號","E_COORD97":171755.19,"N_COORD97":2542617.5699999998,"ADDRESS":"裕學路１８５巷１４７號","OBJECTID":249362},"geometry":{"x":171755.19000000041,"y":2542617.5700000022}},{"attributes":{"ID":249367,"DIS_CODE":0,"TOWNNAME":"東區","LI":"復興里","LIN":"14鄰","STREET":"裕學路","SECT":" ","MAREA":" ","LANE":"１８５巷","ALLEY":" ","HOUSE_NO":"１４９號","E_COORD97":171750.42000000001,"N_COORD97":2542618.3700000001,"ADDRESS":"裕學路１８５巷１４９號","OBJECTID":249363},"geometry":{"x":171750.42000000086,"y":2542618.370000001}},{"attributes":{"ID":249368,"DIS_CODE":0,"TOWNNAME":"東區","LI":"復興里","LIN":"14鄰","STREET":"裕學路","SECT":" ","MAREA":" ","LANE":"１８５巷","ALLEY":" ","HOUSE_NO":"１５１號","E_COORD97":171746.42999999999,"N_COORD97":2542617.1800000002,"ADDRESS":"裕學路１８５巷１５１號","OBJECTID":249364},"geometry":{"x":171746.43000000063,"y":2542617.1800000016}},{"attributes":{"ID":249369,"DIS_CODE":0,"TOWNNAME":"東區","LI":"復興里","LIN":"14鄰","STREET":"裕學路","SECT":" ","MAREA":" ","LANE":"１８５巷","ALLEY":" ","HOUSE_NO":"１５３號","E_COORD97":171742.85000000001,"N_COORD97":2542617.1800000002,"ADDRESS":"裕學路１８５巷１５３號","OBJECTID":249365},"geometry":{"x":171742.84999999963,"y":2542617.1800000016}},{"attributes":{"ID":249370,"DIS_CODE":0,"TOWNNAME":"東區","LI":"復興里","LIN":"14鄰","STREET":"裕學路","SECT":" ","MAREA":" ","LANE":"１８５巷","ALLEY":" ","HOUSE_NO":"１５５號","E_COORD97":171738.47,"N_COORD97":2542616.7799999998,"ADDRESS":"裕學路１８５巷１５５號","OBJECTID":249366},"geometry":{"x":171738.46999999974,"y":2542616.7799999993}},{"attributes":{"ID":249371,"DIS_CODE":0,"TOWNNAME":"東區","LI":"復興里","LIN":"14鄰","STREET":"裕學路","SECT":" ","MAREA":" ","LANE":"１８５巷","ALLEY":" ","HOUSE_NO":"１５７號","E_COORD97":171733.69,"N_COORD97":2542614.3900000001,"ADDRESS":"裕學路１８５巷１５７號","OBJECTID":249367},"geometry":{"x":171733.69000000134,"y":2542614.3900000006}},{"attributes":{"ID":249372,"DIS_CODE":0,"TOWNNAME":"東區","LI":"復興里","LIN":"14鄰","STREET":"裕學路","SECT":" ","MAREA":" ","LANE":"１８５巷","ALLEY":" ","HOUSE_NO":"１５９號","E_COORD97":171718.31,"N_COORD97":2542613.8100000001,"ADDRESS":"裕學路１８５巷１５９號","OBJECTID":249368},"geometry":{"x":171718.31000000052,"y":2542613.8100000024}},{"attributes":{"ID":249373,"DIS_CODE":0,"TOWNNAME":"東區","LI":"復興里","LIN":"14鄰","STREET":"裕學路","SECT":" ","MAREA":" ","LANE":"１８５巷","ALLEY":" ","HOUSE_NO":"１６１號","E_COORD97":171719.89999999999,"N_COORD97":2542607.04,"ADDRESS":"裕學路１８５巷１６１號","OBJECTID":249369},"geometry":{"x":171719.89999999944,"y":2542607.040000001}},{"attributes":{"ID":249374,"DIS_CODE":0,"TOWNNAME":"東區","LI":"復興里","LIN":"14鄰","STREET":"裕學路","SECT":" ","MAREA":" ","LANE":"１８５巷","ALLEY":" ","HOUSE_NO":"１６３號","E_COORD97":171722.29000000001,"N_COORD97":2542595.9100000001,"ADDRESS":"裕學路１８５巷１６３號","OBJECTID":249370},"geometry":{"x":171722.29000000097,"y":2542595.910000002}},{"attributes":{"ID":249375,"DIS_CODE":0,"TOWNNAME":"東區","LI":"復興里","LIN":"14鄰","STREET":"裕學路","SECT":" ","MAREA":" ","LANE":"１８５巷","ALLEY":" ","HOUSE_NO":"１６５號","E_COORD97":171721.98000000001,"N_COORD97":2542589.3300000001,"ADDRESS":"裕學路１８５巷１６５號","OBJECTID":249371},"geometry":{"x":171721.98000000138,"y":2542589.3300000019}},{"attributes":{"ID":249376,"DIS_CODE":0,"TOWNNAME":"東區","LI":"復興里","LIN":"14鄰","STREET":"富農街","SECT":"一段","MAREA":" ","LANE":"３００巷","ALLEY":" ","HOUSE_NO":"１６７號","E_COORD97":171726.14999999999,"N_COORD97":2542584.2000000002,"ADDRESS":"富農街一段３００巷１６７號","OBJECTID":249372},"geometry":{"x":171726.15000000037,"y":2542584.1999999993}},{"attributes":{"ID":249377,"DIS_CODE":0,"TOWNNAME":"東區","LI":"復興里","LIN":"14鄰","STREET":"裕學路","SECT":" ","MAREA":" ","LANE":"１８５巷","ALLEY":" ","HOUSE_NO":"１６９號","E_COORD97":171723.57999999999,"N_COORD97":2542580.3599999999,"ADDRESS":"裕學路１８５巷１６９號","OBJECTID":249373},"geometry":{"x":171723.58000000194,"y":2542580.3600000031}},{"attributes":{"ID":249378,"DIS_CODE":0,"TOWNNAME":"東區","LI":"復興里","LIN":"14鄰","STREET":"裕學路","SECT":" ","MAREA":" ","LANE":"１８５巷","ALLEY":" ","HOUSE_NO":"１７１號","E_COORD97":171723.38,"N_COORD97":2542575.4500000002,"ADDRESS":"裕學路１８５巷１７１號","OBJECTID":249374},"geometry":{"x":171723.38000000082,"y":2542575.4499999993}},{"attributes":{"ID":249379,"DIS_CODE":0,"TOWNNAME":"東區","LI":"復興里","LIN":"14鄰","STREET":"裕學路","SECT":" ","MAREA":" ","LANE":"１８５巷","ALLEY":" ","HOUSE_NO":"１７３號","E_COORD97":171724.22,"N_COORD97":2542571.0800000001,"ADDRESS":"裕學路１８５巷１７３號","OBJECTID":249375},"geometry":{"x":171724.22000000067,"y":2542571.0800000001}},{"attributes":{"ID":249380,"DIS_CODE":0,"TOWNNAME":"東區","LI":"復興里","LIN":"14鄰","STREET":"裕學路","SECT":" ","MAREA":" ","LANE":"１８５巷","ALLEY":" ","HOUSE_NO":"１７５號","E_COORD97":171724.34,"N_COORD97":2542567.21,"ADDRESS":"裕學路１８５巷１７５號","OBJECTID":249376},"geometry":{"x":171724.33999999985,"y":2542567.2100000028}},{"attributes":{"ID":249381,"DIS_CODE":0,"TOWNNAME":"東區","LI":"復興里","LIN":"14鄰","STREET":"裕學路","SECT":" ","MAREA":" ","LANE":"１８５巷","ALLEY":" ","HOUSE_NO":"１７７號","E_COORD97":171723.54000000001,"N_COORD97":2542561.6499999999,"ADDRESS":"裕學路１８５巷１７７號","OBJECTID":249377},"geometry":{"x":171723.54000000004,"y":2542561.6500000004}},{"attributes":{"ID":249382,"DIS_CODE":0,"TOWNNAME":"東區","LI":"復興里","LIN":"14鄰","STREET":"裕學路","SECT":" ","MAREA":" ","LANE":"１８５巷","ALLEY":" ","HOUSE_NO":"１７９號","E_COORD97":171725.14000000001,"N_COORD97":2542556.0800000001,"ADDRESS":"裕學路１８５巷１７９號","OBJECTID":249378},"geometry":{"x":171725.1400000006,"y":2542556.0800000019}},{"attributes":{"ID":249383,"DIS_CODE":0,"TOWNNAME":"東區","LI":"崇明里","LIN":"14鄰","STREET":"大同路","SECT":"二段","MAREA":" ","LANE":" ","ALLEY":" ","HOUSE_NO":"７５７號","E_COORD97":169644.88,"N_COORD97":2540732.6200000001,"ADDRESS":"大同路二段７５７號","OBJECTID":249379},"geometry":{"x":169644.88000000082,"y":2540732.6200000048}},{"attributes":{"ID":249384,"DIS_CODE":0,"TOWNNAME":"東區","LI":"崇明里","LIN":"14鄰","STREET":"大同路","SECT":"二段","MAREA":" ","LANE":" ","ALLEY":" ","HOUSE_NO":"７５９號","E_COORD97":169645,"N_COORD97":2540727.6099999999,"ADDRESS":"大同路二段７５９號","OBJECTID":249380},"geometry":{"x":169645,"y":2540727.6100000031}},{"attributes":{"ID":249385,"DIS_CODE":0,"TOWNNAME":"東區","LI":"崇明里","LIN":"14鄰","STREET":"大同路","SECT":"二段","MAREA":" ","LANE":" ","ALLEY":" ","HOUSE_NO":"７６１號","E_COORD97":169645.26000000001,"N_COORD97":2540722.7200000002,"ADDRESS":"大同路二段７６１號","OBJECTID":249381},"geometry":{"x":169645.25999999978,"y":2540722.7200000025}},{"attributes":{"ID":249386,"DIS_CODE":0,"TOWNNAME":"東區","LI":"小東里","LIN":"11鄰","STREET":"東安路","SECT":" ","MAREA":" ","LANE":"２５１巷","ALLEY":" ","HOUSE_NO":"５８號","E_COORD97":170636.10000000001,"N_COORD97":2544144.8900000001,"ADDRESS":"東安路２５１巷５８號","OBJECTID":249382},"geometry":{"x":170636.09999999963,"y":2544144.8900000025}},{"attributes":{"ID":249387,"DIS_CODE":0,"TOWNNAME":"東區","LI":"小東里","LIN":"11鄰","STREET":"東安路","SECT":" ","MAREA":" ","LANE":"２５１巷","ALLEY":" ","HOUSE_NO":"６０號","E_COORD97":170636.26999999999,"N_COORD97":2544147.8999999999,"ADDRESS":"東安路２５１巷６０號","OBJECTID":249383},"geometry":{"x":170636.26999999955,"y":2544147.9000000022}},{"attributes":{"ID":249388,"DIS_CODE":0,"TOWNNAME":"東區","LI":"小東里","LIN":"11鄰","STREET":"東安路","SECT":" ","MAREA":" ","LANE":"２５１巷","ALLEY":" ","HOUSE_NO":"６８號","E_COORD97":170689.95000000001,"N_COORD97":2544145.6200000001,"ADDRESS":"東安路２５１巷６８號","OBJECTID":249384},"geometry":{"x":170689.95000000019,"y":2544145.620000001}},{"attributes":{"ID":249389,"DIS_CODE":0,"TOWNNAME":"東區","LI":"小東里","LIN":"11鄰","STREET":"東安路","SECT":" ","MAREA":" ","LANE":"２５１巷","ALLEY":" ","HOUSE_NO":"７６號","E_COORD97":170685,"N_COORD97":2544165.23,"ADDRESS":"東安路２５１巷７６號","OBJECTID":249385},"geometry":{"x":170685.00000000186,"y":2544165.2300000004}},{"attributes":{"ID":249390,"DIS_CODE":0,"TOWNNAME":"東區","LI":"小東里","LIN":"11鄰","STREET":"東安路","SECT":" ","MAREA":" ","LANE":"２５１巷","ALLEY":" ","HOUSE_NO":"７８號","E_COORD97":170680.34,"N_COORD97":2544165.1400000001,"ADDRESS":"東安路２５１巷７８號","OBJECTID":249386},"geometry":{"x":170680.33999999985,"y":2544165.1400000006}},{"attributes":{"ID":249391,"DIS_CODE":0,"TOWNNAME":"東區","LI":"小東里","LIN":"11鄰","STREET":"東安路","SECT":" ","MAREA":" ","LANE":"２５１巷","ALLEY":" ","HOUSE_NO":"８０號","E_COORD97":170675.95000000001,"N_COORD97":2544165.3199999998,"ADDRESS":"東安路２５１巷８０號","OBJECTID":249387},"geometry":{"x":170675.95000000112,"y":2544165.3200000022}},{"attributes":{"ID":249392,"DIS_CODE":0,"TOWNNAME":"東區","LI":"小東里","LIN":"11鄰","STREET":"東安路","SECT":" ","MAREA":" ","LANE":"２５１巷","ALLEY":" ","HOUSE_NO":"８２號","E_COORD97":170671.20999999999,"N_COORD97":2544165.23,"ADDRESS":"東安路２５１巷８２號","OBJECTID":249388},"geometry":{"x":170671.20999999996,"y":2544165.2300000004}},{"attributes":{"ID":249393,"DIS_CODE":0,"TOWNNAME":"東區","LI":"小東里","LIN":"11鄰","STREET":"東安路","SECT":" ","MAREA":" ","LANE":"２５１巷","ALLEY":" ","HOUSE_NO":"８４號","E_COORD97":170666.28,"N_COORD97":2544165.23,"ADDRESS":"東安路２５１巷８４號","OBJECTID":249389},"geometry":{"x":170666.28000000212,"y":2544165.2300000004}},{"attributes":{"ID":249394,"DIS_CODE":0,"TOWNNAME":"東區","LI":"小東里","LIN":"11鄰","STREET":"東安路","SECT":" ","MAREA":" ","LANE":"２５１巷","ALLEY":" ","HOUSE_NO":"８６號","E_COORD97":170661.63,"N_COORD97":2544164.25,"ADDRESS":"東安路２５１巷８６號","OBJECTID":249390},"geometry":{"x":170661.62999999989,"y":2544164.25}},{"attributes":{"ID":249395,"DIS_CODE":0,"TOWNNAME":"東區","LI":"小東里","LIN":"11鄰","STREET":"東安路","SECT":" ","MAREA":" ","LANE":"２５１巷","ALLEY":" ","HOUSE_NO":"８８號","E_COORD97":170657.14999999999,"N_COORD97":2544163.98,"ADDRESS":"東安路２５１巷８８號","OBJECTID":249391},"geometry":{"x":170657.15000000224,"y":2544163.9800000042}},{"attributes":{"ID":249396,"DIS_CODE":0,"TOWNNAME":"東區","LI":"小東里","LIN":"11鄰","STREET":"東安路","SECT":" ","MAREA":" ","LANE":"２５１巷","ALLEY":" ","HOUSE_NO":"９０號","E_COORD97":170652.94,"N_COORD97":2544163.8900000001,"ADDRESS":"東安路２５１巷９０號","OBJECTID":249392},"geometry":{"x":170652.94000000041,"y":2544163.8900000006}},{"attributes":{"ID":249397,"DIS_CODE":0,"TOWNNAME":"東區","LI":"小東里","LIN":"11鄰","STREET":"東和路","SECT":" ","MAREA":" ","LANE":"１５９巷","ALLEY":" ","HOUSE_NO":"２６號","E_COORD97":170694.88,"N_COORD97":2544217.5299999998,"ADDRESS":"東和路１５９巷２６號","OBJECTID":249393},"geometry":{"x":170694.88000000082,"y":2544217.5300000012}},{"attributes":{"ID":249398,"DIS_CODE":0,"TOWNNAME":"東區","LI":"自強里","LIN":"11鄰","STREET":"中華東路","SECT":"二段","MAREA":" ","LANE":"２９５巷","ALLEY":" ","HOUSE_NO":"２８號","E_COORD97":171214.14000000001,"N_COORD97":2542482.25,"ADDRESS":"中華東路二段２９５巷２８號","OBJECTID":249394},"geometry":{"x":171214.14000000153,"y":2542482.25}},{"attributes":{"ID":249399,"DIS_CODE":0,"TOWNNAME":"永康區","LI":"龍潭里","LIN":"32鄰","STREET":"龍中街","SECT":" ","MAREA":" ","LANE":" ","ALLEY":" ","HOUSE_NO":"６２號之１","E_COORD97":174451.69,"N_COORD97":2547998.3500000001,"ADDRESS":"龍中街６２號之１","OBJECTID":249395},"geometry":{"x":174451.69000000041,"y":2547998.3500000034}},{"attributes":{"ID":249400,"DIS_CODE":0,"TOWNNAME":"東區","LI":"自強里","LIN":"11鄰","STREET":"中華東路","SECT":"二段","MAREA":" ","LANE":"２９５巷","ALLEY":" ","HOUSE_NO":"３０號","E_COORD97":171222.51999999999,"N_COORD97":2542474.3599999999,"ADDRESS":"中華東路二段２９５巷３０號","OBJECTID":249396},"geometry":{"x":171222.51999999955,"y":2542474.3599999994}},{"attributes":{"ID":249401,"DIS_CODE":0,"TOWNNAME":"永康區","LI":"龍潭里","LIN":"35鄰","STREET":"龍安街","SECT":" ","MAREA":" ","LANE":" ","ALLEY":" ","HOUSE_NO":"１６７號","E_COORD97":174616.89000000001,"N_COORD97":2548469.3100000001,"ADDRESS":"龍安街１６７號","OBJECTID":249397},"geometry":{"x":174616.8900000006,"y":2548469.3100000005}},{"attributes":{"ID":249402,"DIS_CODE":0,"TOWNNAME":"永康區","LI":"蔦松里","LIN":"4鄰","STREET":"蔦松二街","SECT":" ","MAREA":" ","LANE":" ","ALLEY":" ","HOUSE_NO":"１３２號","E_COORD97":173808.94,"N_COORD97":2549386.0600000001,"ADDRESS":"蔦松二街１３２號","OBJECTID":249398},"geometry":{"x":173808.94000000134,"y":2549386.0600000024}},{"attributes":{"ID":249403,"DIS_CODE":0,"TOWNNAME":"永康區","LI":"龍潭里","LIN":"39鄰","STREET":"永明街","SECT":" ","MAREA":" ","LANE":" ","ALLEY":" ","HOUSE_NO":"２０７號","E_COORD97":174505.42999999999,"N_COORD97":2547216.4900000002,"ADDRESS":"永明街２０７號","OBJECTID":249399},"geometry":{"x":174505.4299999997,"y":2547216.4900000021}},{"attributes":{"ID":249404,"DIS_CODE":0,"TOWNNAME":"永康區","LI":"蔦松里","LIN":"8鄰","STREET":"蔦松二街","SECT":" ","MAREA":" ","LANE":" ","ALLEY":" ","HOUSE_NO":"３２號","E_COORD97":173571.23000000001,"N_COORD97":2549021.5499999998,"ADDRESS":"蔦松二街３２號","OBJECTID":249400},"geometry":{"x":173571.23000000138,"y":2549021.5500000007}}]}