{"displayFieldName":"TOWNNAME","fieldAliases":{"ID":"ID","DIS_CODE":"DIS_CODE","TOWNNAME":"TOWNNAME","LI":"LI","LIN":"LIN","STREET":"STREET","SECT":"SECT","MAREA":"MAREA","LANE":"LANE","ALLEY":"ALLEY","HOUSE_NO":"HOUSE_NO","E_COORD97":"E_COORD97","N_COORD97":"N_COORD97","ADDRESS":"ADDRESS","OBJECTID":"OBJECTID"},"geometryType":"esriGeometryPoint","spatialReference":{"wkid":102443,"latestWkid":3826},"fields":[{"name":"ID","type":"esriFieldTypeDouble","alias":"ID"},{"name":"DIS_CODE","type":"esriFieldTypeInteger","alias":"DIS_CODE"},{"name":"TOWNNAME","type":"esriFieldTypeString","alias":"TOWNNAME","length":8},{"name":"LI","type":"esriFieldTypeString","alias":"LI","length":8},{"name":"LIN","type":"esriFieldTypeString","alias":"LIN","length":12},{"name":"STREET","type":"esriFieldTypeString","alias":"STREET","length":20},{"name":"SECT","type":"esriFieldTypeString","alias":"SECT","length":8},{"name":"MAREA","type":"esriFieldTypeString","alias":"MAREA","length":12},{"name":"LANE","type":"esriFieldTypeString","alias":"LANE","length":10},{"name":"ALLEY","type":"esriFieldTypeString","alias":"ALLEY","length":10},{"name":"HOUSE_NO","type":"esriFieldTypeString","alias":"HOUSE_NO","length":20},{"name":"E_COORD97","type":"esriFieldTypeDouble","alias":"E_COORD97"},{"name":"N_COORD97","type":"esriFieldTypeDouble","alias":"N_COORD97"},{"name":"ADDRESS","type":"esriFieldTypeString","alias":"ADDRESS","length":50},{"name":"OBJECTID","type":"esriFieldTypeOID","alias":"OBJECTID"}],"features":[{"attributes":{"ID":261205,"DIS_CODE":0,"TOWNNAME":"安南區","LI":"四草里","LIN":"3鄰","STREET":"大眾路","SECT":" ","MAREA":" ","LANE":" ","ALLEY":" ","HOUSE_NO":"３８７－２００號","E_COORD97":161509.21526900001,"N_COORD97":2546289.2335999999,"ADDRESS":"大眾路３８７－２００號","OBJECTID":261201},"geometry":{"x":161509.21526900027,"y":2546289.2336030006}},{"attributes":{"ID":261206,"DIS_CODE":0,"TOWNNAME":"仁德區","LI":"仁義里","LIN":"14鄰","STREET":"林頂街","SECT":" ","MAREA":" ","LANE":" ","ALLEY":" ","HOUSE_NO":"１３２號","E_COORD97":174681.51152199999,"N_COORD97":2541344.0658100001,"ADDRESS":"林頂街１３２號","OBJECTID":261202},"geometry":{"x":174681.51152200066,"y":2541344.065808}},{"attributes":{"ID":261207,"DIS_CODE":0,"TOWNNAME":"仁德區","LI":"土庫里","LIN":"1鄰","STREET":"太乙十二街","SECT":" ","MAREA":" ","LANE":" ","ALLEY":" ","HOUSE_NO":"１９號","E_COORD97":173153.66773300001,"N_COORD97":2542769.0446600001,"ADDRESS":"太乙十二街１９號","OBJECTID":261203},"geometry":{"x":173153.66773300059,"y":2542769.0446650013}},{"attributes":{"ID":261208,"DIS_CODE":0,"TOWNNAME":"安南區","LI":"四草里","LIN":"2鄰","STREET":"大眾六街","SECT":" ","MAREA":" ","LANE":" ","ALLEY":" ","HOUSE_NO":"２００號","E_COORD97":160290.92822900001,"N_COORD97":2546825.0422899998,"ADDRESS":"大眾六街２００號","OBJECTID":261204},"geometry":{"x":160290.92822900228,"y":2546825.0422879998}},{"attributes":{"ID":261209,"DIS_CODE":0,"TOWNNAME":"關廟區","LI":"布袋里","LIN":"2鄰","STREET":"長裕街","SECT":" ","MAREA":" ","LANE":" ","ALLEY":" ","HOUSE_NO":"１５２號","E_COORD97":182270.44,"N_COORD97":2535784.2999999998,"ADDRESS":"長裕街１５２號","OBJECTID":261205},"geometry":{"x":182270.44000000041,"y":2535784.3000000045}},{"attributes":{"ID":261210,"DIS_CODE":0,"TOWNNAME":"關廟區","LI":"下湖里","LIN":"2鄰","STREET":"關新路","SECT":"一段","MAREA":" ","LANE":" ","ALLEY":" ","HOUSE_NO":"４１０號","E_COORD97":179325.09,"N_COORD97":2542911.2999999998,"ADDRESS":"關新路一段４１０號","OBJECTID":261206},"geometry":{"x":179325.09000000078,"y":2542911.3000000026}},{"attributes":{"ID":261211,"DIS_CODE":0,"TOWNNAME":"關廟區","LI":"布袋里","LIN":"2鄰","STREET":"南雄南路","SECT":" ","MAREA":" ","LANE":" ","ALLEY":" ","HOUSE_NO":"３６號","E_COORD97":182779.98999999999,"N_COORD97":2536195.2999999998,"ADDRESS":"南雄南路３６號","OBJECTID":261207},"geometry":{"x":182779.99000000022,"y":2536195.3000000026}},{"attributes":{"ID":261212,"DIS_CODE":0,"TOWNNAME":"關廟區","LI":"下湖里","LIN":"2鄰","STREET":"下湖二街","SECT":" ","MAREA":" ","LANE":" ","ALLEY":" ","HOUSE_NO":"５２號","E_COORD97":179403.54000000001,"N_COORD97":2542964.2999999998,"ADDRESS":"下湖二街５２號","OBJECTID":261208},"geometry":{"x":179403.54000000097,"y":2542964.3000000007}},{"attributes":{"ID":261213,"DIS_CODE":0,"TOWNNAME":"關廟區","LI":"下湖里","LIN":"2鄰","STREET":"下湖二街","SECT":" ","MAREA":" ","LANE":" ","ALLEY":" ","HOUSE_NO":"１５號","E_COORD97":179378.48999999999,"N_COORD97":2542904.2999999998,"ADDRESS":"下湖二街１５號","OBJECTID":261209},"geometry":{"x":179378.49000000115,"y":2542904.3000000045}},{"attributes":{"ID":261214,"DIS_CODE":0,"TOWNNAME":"關廟區","LI":"田中里","LIN":"2鄰","STREET":"田大路","SECT":" ","MAREA":" ","LANE":" ","ALLEY":" ","HOUSE_NO":"５９號","E_COORD97":184208.29000000001,"N_COORD97":2533839.2999999998,"ADDRESS":"田大路５９號","OBJECTID":261210},"geometry":{"x":184208.29000000004,"y":2533839.3000000026}},{"attributes":{"ID":261215,"DIS_CODE":0,"TOWNNAME":"關廟區","LI":"龜洞里","LIN":"2鄰","STREET":"長榮街","SECT":" ","MAREA":" ","LANE":" ","ALLEY":" ","HOUSE_NO":"３０號","E_COORD97":183334.94,"N_COORD97":2533793.2999999998,"ADDRESS":"長榮街３０號","OBJECTID":261211},"geometry":{"x":183334.94000000041,"y":2533793.3000000007}},{"attributes":{"ID":261216,"DIS_CODE":0,"TOWNNAME":"關廟區","LI":"布袋里","LIN":"2鄰","STREET":"長裕街","SECT":" ","MAREA":" ","LANE":" ","ALLEY":" ","HOUSE_NO":"１５０號","E_COORD97":182272.84,"N_COORD97":2535795.2999999998,"ADDRESS":"長裕街１５０號","OBJECTID":261212},"geometry":{"x":182272.84000000078,"y":2535795.3000000026}},{"attributes":{"ID":261217,"DIS_CODE":0,"TOWNNAME":"關廟區","LI":"布袋里","LIN":"2鄰","STREET":"長裕街","SECT":" ","MAREA":" ","LANE":" ","ALLEY":" ","HOUSE_NO":"１０８號","E_COORD97":182432.84,"N_COORD97":2535930.2999999998,"ADDRESS":"長裕街１０８號","OBJECTID":261213},"geometry":{"x":182432.83999999985,"y":2535930.3000000045}},{"attributes":{"ID":261218,"DIS_CODE":0,"TOWNNAME":"關廟區","LI":"布袋里","LIN":"2鄰","STREET":"長裕街","SECT":" ","MAREA":" ","LANE":" ","ALLEY":" ","HOUSE_NO":"１８６號","E_COORD97":182172.23999999999,"N_COORD97":2535778.2999999998,"ADDRESS":"長裕街１８６號","OBJECTID":261214},"geometry":{"x":182172.24000000115,"y":2535778.3000000026}},{"attributes":{"ID":261219,"DIS_CODE":0,"TOWNNAME":"關廟區","LI":"下湖里","LIN":"2鄰","STREET":"下湖二街","SECT":" ","MAREA":" ","LANE":" ","ALLEY":" ","HOUSE_NO":"３號","E_COORD97":179353.19,"N_COORD97":2542892.2999999998,"ADDRESS":"下湖二街３號","OBJECTID":261215},"geometry":{"x":179353.19000000227,"y":2542892.3000000026}},{"attributes":{"ID":261220,"DIS_CODE":0,"TOWNNAME":"關廟區","LI":"田中里","LIN":"2鄰","STREET":"田大路","SECT":" ","MAREA":" ","LANE":" ","ALLEY":" ","HOUSE_NO":"８１號","E_COORD97":184235.19,"N_COORD97":2533814.2999999998,"ADDRESS":"田大路８１號","OBJECTID":261216},"geometry":{"x":184235.19000000041,"y":2533814.2999999989}},{"attributes":{"ID":261221,"DIS_CODE":0,"TOWNNAME":"關廟區","LI":"田中里","LIN":"2鄰","STREET":"田大路","SECT":" ","MAREA":" ","LANE":" ","ALLEY":" ","HOUSE_NO":"１４０號","E_COORD97":184378.84,"N_COORD97":2533728.2999999998,"ADDRESS":"田大路１４０號","OBJECTID":261217},"geometry":{"x":184378.83999999985,"y":2533728.3000000007}},{"attributes":{"ID":261222,"DIS_CODE":0,"TOWNNAME":"關廟區","LI":"布袋里","LIN":"2鄰","STREET":"長裕街","SECT":" ","MAREA":" ","LANE":" ","ALLEY":" ","HOUSE_NO":"１３２號","E_COORD97":182319.23999999999,"N_COORD97":2535854.2999999998,"ADDRESS":"長裕街１３２號","OBJECTID":261218},"geometry":{"x":182319.24000000209,"y":2535854.3000000007}},{"attributes":{"ID":261223,"DIS_CODE":0,"TOWNNAME":"關廟區","LI":"龜洞里","LIN":"2鄰","STREET":"長榮街","SECT":" ","MAREA":" ","LANE":" ","ALLEY":" ","HOUSE_NO":"１１８號","E_COORD97":183132.23999999999,"N_COORD97":2533894.2999999998,"ADDRESS":"長榮街１１８號","OBJECTID":261219},"geometry":{"x":183132.24000000022,"y":2533894.3000000007}},{"attributes":{"ID":261224,"DIS_CODE":0,"TOWNNAME":"關廟區","LI":"龜洞里","LIN":"2鄰","STREET":"長榮街","SECT":" ","MAREA":" ","LANE":" ","ALLEY":" ","HOUSE_NO":"１２０號","E_COORD97":183126.84,"N_COORD97":2533897.2999999998,"ADDRESS":"長榮街１２０號","OBJECTID":261220},"geometry":{"x":183126.84000000171,"y":2533897.3000000026}},{"attributes":{"ID":261225,"DIS_CODE":0,"TOWNNAME":"安南區","LI":"四草里","LIN":"2鄰","STREET":"大眾六街","SECT":" ","MAREA":" ","LANE":" ","ALLEY":" ","HOUSE_NO":"１６３號","E_COORD97":160334.33051500001,"N_COORD97":2546722.9206699999,"ADDRESS":"大眾六街１６３號","OBJECTID":261221},"geometry":{"x":160334.33051500097,"y":2546722.9206690006}},{"attributes":{"ID":261226,"DIS_CODE":0,"TOWNNAME":"新營區","LI":"大宏里","LIN":"10鄰","STREET":"民治路","SECT":" ","MAREA":" ","LANE":" ","ALLEY":" ","HOUSE_NO":"３５之１號","E_COORD97":180141.25520799999,"N_COORD97":2578861.4586900002,"ADDRESS":"民治路３５之１號","OBJECTID":261222},"geometry":{"x":180141.25520799961,"y":2578861.4586849995}},{"attributes":{"ID":261227,"DIS_CODE":0,"TOWNNAME":"仁德區","LI":"田厝里","LIN":"8鄰","STREET":"田厝二街","SECT":" ","MAREA":" ","LANE":" ","ALLEY":" ","HOUSE_NO":"６２號","E_COORD97":172412.408107,"N_COORD97":2537644.4128899998,"ADDRESS":"田厝二街６２號","OBJECTID":261223},"geometry":{"x":172412.40810700133,"y":2537644.4128940031}},{"attributes":{"ID":261228,"DIS_CODE":0,"TOWNNAME":"仁德區","LI":"仁德里","LIN":"38鄰","STREET":"文宏二街","SECT":" ","MAREA":" ","LANE":" ","ALLEY":" ","HOUSE_NO":"４１號","E_COORD97":172451.92312399999,"N_COORD97":2541749.0090399999,"ADDRESS":"文宏二街４１號","OBJECTID":261224},"geometry":{"x":172451.92312400136,"y":2541749.0090360008}},{"attributes":{"ID":261229,"DIS_CODE":0,"TOWNNAME":"仁德區","LI":"仁和里","LIN":"12鄰","STREET":"和愛街","SECT":" ","MAREA":" ","LANE":" ","ALLEY":" ","HOUSE_NO":"１６號二樓之１","E_COORD97":170434.37,"N_COORD97":2539982.9199999999,"ADDRESS":"和愛街１６號二樓之１","OBJECTID":261225},"geometry":{"x":170434.37000000011,"y":2539982.9199999999}},{"attributes":{"ID":261230,"DIS_CODE":0,"TOWNNAME":"歸仁區","LI":"新厝里","LIN":"4鄰","STREET":"復興路","SECT":" ","MAREA":" ","LANE":" ","ALLEY":" ","HOUSE_NO":"９８號","E_COORD97":177769.04514900001,"N_COORD97":2540648.4101800001,"ADDRESS":"復興路９８號","OBJECTID":261226},"geometry":{"x":177769.04514900036,"y":2540648.4101830013}},{"attributes":{"ID":261231,"DIS_CODE":0,"TOWNNAME":"關廟區","LI":"布袋里","LIN":"5鄰","STREET":"南雄南路","SECT":" ","MAREA":" ","LANE":" ","ALLEY":" ","HOUSE_NO":"１７１號","E_COORD97":183132.33507999999,"N_COORD97":2535616.7276099999,"ADDRESS":"南雄南路１７１號","OBJECTID":261227},"geometry":{"x":183132.33507999964,"y":2535616.7276140023}},{"attributes":{"ID":261232,"DIS_CODE":0,"TOWNNAME":"關廟區","LI":"布袋里","LIN":"7鄰","STREET":"南雄南路","SECT":" ","MAREA":" ","LANE":" ","ALLEY":" ","HOUSE_NO":"４８８號","E_COORD97":183809.48601600001,"N_COORD97":2534258.6220999998,"ADDRESS":"南雄南路４８８號","OBJECTID":261228},"geometry":{"x":183809.48601600062,"y":2534258.6220979989}},{"attributes":{"ID":261233,"DIS_CODE":0,"TOWNNAME":"關廟區","LI":"新埔里","LIN":"7鄰","STREET":"新埔三街","SECT":" ","MAREA":" ","LANE":" ","ALLEY":" ","HOUSE_NO":"７３號","E_COORD97":181119.52454000001,"N_COORD97":2541055.7237999998,"ADDRESS":"新埔三街７３號","OBJECTID":261229},"geometry":{"x":181119.5245400006,"y":2541055.7237979993}},{"attributes":{"ID":261234,"DIS_CODE":0,"TOWNNAME":"關廟區","LI":"布袋里","LIN":"7鄰","STREET":"南雄南路","SECT":" ","MAREA":" ","LANE":" ","ALLEY":" ","HOUSE_NO":"４９６號","E_COORD97":183811.39348299999,"N_COORD97":2534221.1571200001,"ADDRESS":"南雄南路４９６號","OBJECTID":261230},"geometry":{"x":183811.39348300081,"y":2534221.157118002}},{"attributes":{"ID":261235,"DIS_CODE":0,"TOWNNAME":"關廟區","LI":"布袋里","LIN":"7鄰","STREET":"南雄南路","SECT":" ","MAREA":" ","LANE":" ","ALLEY":" ","HOUSE_NO":"４６６號","E_COORD97":183784.053117,"N_COORD97":2534428.16701,"ADDRESS":"南雄南路４６６號","OBJECTID":261231},"geometry":{"x":183784.05311700143,"y":2534428.1670060027}},{"attributes":{"ID":261236,"DIS_CODE":0,"TOWNNAME":"關廟區","LI":"新埔里","LIN":"7鄰","STREET":"新埔三街","SECT":" ","MAREA":" ","LANE":" ","ALLEY":" ","HOUSE_NO":"７９號","E_COORD97":181108.61311899999,"N_COORD97":2541074.98545,"ADDRESS":"新埔三街７９號","OBJECTID":261232},"geometry":{"x":181108.61311900057,"y":2541074.9854540024}},{"attributes":{"ID":261237,"DIS_CODE":0,"TOWNNAME":"中西區","LI":"協和里","LIN":"13鄰","STREET":"西和路","SECT":" ","MAREA":" ","LANE":" ","ALLEY":" ","HOUSE_NO":"１７０號","E_COORD97":167037.376318,"N_COORD97":2544681.3534400002,"ADDRESS":"西和路１７０號","OBJECTID":261233},"geometry":{"x":167037.37631800212,"y":2544681.3534360025}},{"attributes":{"ID":261238,"DIS_CODE":0,"TOWNNAME":"新營區","LI":"王公里","LIN":"14鄰","STREET":"中正路","SECT":" ","MAREA":" ","LANE":" ","ALLEY":" ","HOUSE_NO":"８６之１號","E_COORD97":180124.758042,"N_COORD97":2579285.78945,"ADDRESS":"中正路８６之１號","OBJECTID":261234},"geometry":{"x":180124.75804200117,"y":2579285.7894540001}},{"attributes":{"ID":261239,"DIS_CODE":0,"TOWNNAME":"新營區","LI":"王公里","LIN":"14鄰","STREET":"中正路","SECT":" ","MAREA":" ","LANE":" ","ALLEY":" ","HOUSE_NO":"８８號","E_COORD97":180113.95204900001,"N_COORD97":2579291.92778,"ADDRESS":"中正路８８號","OBJECTID":261235},"geometry":{"x":180113.95204900205,"y":2579291.9277840015}},{"attributes":{"ID":261240,"DIS_CODE":0,"TOWNNAME":"安南區","LI":"總頭里","LIN":"13鄰","STREET":"長溪路","SECT":"二段","MAREA":" ","LANE":" ","ALLEY":" ","HOUSE_NO":"４５９號之６","E_COORD97":168207.647184,"N_COORD97":2550314.7641699999,"ADDRESS":"長溪路二段４５９號之６","OBJECTID":261236},"geometry":{"x":168207.64718400035,"y":2550314.7641659994}},{"attributes":{"ID":261241,"DIS_CODE":0,"TOWNNAME":"永康區","LI":"埔園里","LIN":"30鄰","STREET":"龍埔街","SECT":" ","MAREA":" ","LANE":" ","ALLEY":" ","HOUSE_NO":"４３４號之１","E_COORD97":173935.17991499999,"N_COORD97":2548378.76039,"ADDRESS":"龍埔街４３４號之１","OBJECTID":261237},"geometry":{"x":173935.17991499975,"y":2548378.7603880018}},{"attributes":{"ID":261242,"DIS_CODE":0,"TOWNNAME":"新營區","LI":"大宏里","LIN":"19鄰","STREET":"三民路","SECT":" ","MAREA":" ","LANE":" ","ALLEY":" ","HOUSE_NO":"３６號之５２","E_COORD97":180440.64334000001,"N_COORD97":2578521.2315099998,"ADDRESS":"三民路３６號之５２","OBJECTID":261238},"geometry":{"x":180440.64333999995,"y":2578521.2315100003}},{"attributes":{"ID":261243,"DIS_CODE":0,"TOWNNAME":"新營區","LI":"大宏里","LIN":"19鄰","STREET":"三民路","SECT":" ","MAREA":" ","LANE":" ","ALLEY":" ","HOUSE_NO":"３６之１７號","E_COORD97":180384.24549500001,"N_COORD97":2578512.4473600001,"ADDRESS":"三民路３６之１７號","OBJECTID":261239},"geometry":{"x":180384.24549500085,"y":2578512.447358001}},{"attributes":{"ID":261244,"DIS_CODE":0,"TOWNNAME":"歸仁區","LI":"媽廟里","LIN":"4鄰","STREET":"和順路","SECT":"一段","MAREA":" ","LANE":" ","ALLEY":" ","HOUSE_NO":"２５號","E_COORD97":177465.17000000001,"N_COORD97":2543694.7200000002,"ADDRESS":"和順路一段２５號","OBJECTID":261240},"geometry":{"x":177465.17000000086,"y":2543694.7200000044}},{"attributes":{"ID":261245,"DIS_CODE":0,"TOWNNAME":"新營區","LI":"大宏里","LIN":"19鄰","STREET":"三民路","SECT":" ","MAREA":" ","LANE":" ","ALLEY":" ","HOUSE_NO":"３６號之１９","E_COORD97":180392.62036,"N_COORD97":2578510.8598500001,"ADDRESS":"三民路３６號之１９","OBJECTID":261241},"geometry":{"x":180392.62036000006,"y":2578510.8598500006}},{"attributes":{"ID":261246,"DIS_CODE":0,"TOWNNAME":"歸仁區","LI":"媽廟里","LIN":"4鄰","STREET":"和順路","SECT":"一段","MAREA":" ","LANE":" ","ALLEY":" ","HOUSE_NO":"２７號","E_COORD97":177459.521698,"N_COORD97":2543691.1006800001,"ADDRESS":"和順路一段２７號","OBJECTID":261242},"geometry":{"x":177459.52169800177,"y":2543691.1006819978}},{"attributes":{"ID":261247,"DIS_CODE":0,"TOWNNAME":"仁德區","LI":"保安里","LIN":"22鄰","STREET":"文賢路","SECT":"一段","MAREA":" ","LANE":" ","ALLEY":" ","HOUSE_NO":"６９２號","E_COORD97":171237.64021700001,"N_COORD97":2536460.4066599999,"ADDRESS":"文賢路一段６９２號","OBJECTID":261243},"geometry":{"x":171237.64021700062,"y":2536460.4066620003}},{"attributes":{"ID":261248,"DIS_CODE":0,"TOWNNAME":"仁德區","LI":"保安里","LIN":"22鄰","STREET":"文賢路","SECT":"一段","MAREA":" ","LANE":" ","ALLEY":" ","HOUSE_NO":"６９４號","E_COORD97":171239.334825,"N_COORD97":2536455.75,"ADDRESS":"文賢路一段６９４號","OBJECTID":261244},"geometry":{"x":171239.33482500166,"y":2536455.7499979995}},{"attributes":{"ID":261249,"DIS_CODE":0,"TOWNNAME":"仁德區","LI":"保安里","LIN":"12鄰","STREET":"開發六路","SECT":" ","MAREA":" ","LANE":" ","ALLEY":" ","HOUSE_NO":"３６號","E_COORD97":173068.895288,"N_COORD97":2535754.9030499998,"ADDRESS":"開發六路３６號","OBJECTID":261245},"geometry":{"x":173068.89528799988,"y":2535754.903051002}},{"attributes":{"ID":261250,"DIS_CODE":0,"TOWNNAME":"仁德區","LI":"保安里","LIN":"12鄰","STREET":"開發六路","SECT":" ","MAREA":" ","LANE":" ","ALLEY":" ","HOUSE_NO":"３７號","E_COORD97":173281.607078,"N_COORD97":2536024.6623800001,"ADDRESS":"開發六路３７號","OBJECTID":261246},"geometry":{"x":173281.60707799997,"y":2536024.6623790041}},{"attributes":{"ID":261251,"DIS_CODE":0,"TOWNNAME":"仁德區","LI":"保安里","LIN":"12鄰","STREET":"開發六路","SECT":" ","MAREA":" ","LANE":" ","ALLEY":" ","HOUSE_NO":"４０號","E_COORD97":173233.94620999999,"N_COORD97":2535935.9740900001,"ADDRESS":"開發六路４０號","OBJECTID":261247},"geometry":{"x":173233.94620999973,"y":2535935.9740940016}},{"attributes":{"ID":261252,"DIS_CODE":0,"TOWNNAME":"仁德區","LI":"保安里","LIN":"12鄰","STREET":"開發四路","SECT":" ","MAREA":" ","LANE":" ","ALLEY":" ","HOUSE_NO":"１１號","E_COORD97":172699.93266399999,"N_COORD97":2535783.57418,"ADDRESS":"開發四路１１號","OBJECTID":261248},"geometry":{"x":172699.93266400043,"y":2535783.5741760004}},{"attributes":{"ID":261253,"DIS_CODE":0,"TOWNNAME":"仁德區","LI":"保安里","LIN":"12鄰","STREET":"開發四路","SECT":" ","MAREA":" ","LANE":" ","ALLEY":" ","HOUSE_NO":"１５號","E_COORD97":172742.50970600001,"N_COORD97":2535805.1641600002,"ADDRESS":"開發四路１５號","OBJECTID":261249},"geometry":{"x":172742.50970599987,"y":2535805.1641640011}},{"attributes":{"ID":261254,"DIS_CODE":0,"TOWNNAME":"中西區","LI":"福安里","LIN":"13鄰","STREET":"永福路","SECT":"二段","MAREA":" ","LANE":" ","ALLEY":" ","HOUSE_NO":"１１號底層","E_COORD97":168009.12,"N_COORD97":2543444.5600000001,"ADDRESS":"永福路二段１１號底層","OBJECTID":261250},"geometry":{"x":168009.12000000197,"y":2543444.5600000042}},{"attributes":{"ID":261255,"DIS_CODE":0,"TOWNNAME":"中西區","LI":"福安里","LIN":"13鄰","STREET":"永福路","SECT":"二段","MAREA":" ","LANE":" ","ALLEY":" ","HOUSE_NO":"１３號","E_COORD97":168013.60000000001,"N_COORD97":2543453.5099999998,"ADDRESS":"永福路二段１３號","OBJECTID":261251},"geometry":{"x":168013.59999999963,"y":2543453.5099999998}},{"attributes":{"ID":261256,"DIS_CODE":0,"TOWNNAME":"中西區","LI":"福安里","LIN":"13鄰","STREET":"永福路","SECT":"二段","MAREA":" ","LANE":" ","ALLEY":" ","HOUSE_NO":"１５號","E_COORD97":168015.20999999999,"N_COORD97":2543459.23,"ADDRESS":"永福路二段１５號","OBJECTID":261252},"geometry":{"x":168015.21000000183,"y":2543459.2300000004}},{"attributes":{"ID":261257,"DIS_CODE":0,"TOWNNAME":"中西區","LI":"福安里","LIN":"13鄰","STREET":"永福路","SECT":"二段","MAREA":" ","LANE":" ","ALLEY":" ","HOUSE_NO":"３號","E_COORD97":168008.22,"N_COORD97":2543421.46,"ADDRESS":"永福路二段３號","OBJECTID":261253},"geometry":{"x":168008.2200000016,"y":2543421.4600000009}},{"attributes":{"ID":261258,"DIS_CODE":0,"TOWNNAME":"中西區","LI":"福安里","LIN":"13鄰","STREET":"永福路","SECT":"二段","MAREA":" ","LANE":" ","ALLEY":" ","HOUSE_NO":"５號","E_COORD97":168011.09,"N_COORD97":2543427.9100000001,"ADDRESS":"永福路二段５號","OBJECTID":261254},"geometry":{"x":168011.09000000078,"y":2543427.9100000001}},{"attributes":{"ID":261259,"DIS_CODE":0,"TOWNNAME":"中西區","LI":"福安里","LIN":"13鄰","STREET":"永福路","SECT":"二段","MAREA":" ","LANE":" ","ALLEY":" ","HOUSE_NO":"７號","E_COORD97":168012.82999999999,"N_COORD97":2543431.4500000002,"ADDRESS":"永福路二段７號","OBJECTID":261255},"geometry":{"x":168012.83000000194,"y":2543431.4500000011}},{"attributes":{"ID":261260,"DIS_CODE":0,"TOWNNAME":"中西區","LI":"福安里","LIN":"13鄰","STREET":"永福路","SECT":"二段","MAREA":" ","LANE":" ","ALLEY":" ","HOUSE_NO":"９號","E_COORD97":168012.82999999999,"N_COORD97":2543435.6699999999,"ADDRESS":"永福路二段９號","OBJECTID":261256},"geometry":{"x":168012.83000000194,"y":2543435.6699999999}},{"attributes":{"ID":261261,"DIS_CODE":0,"TOWNNAME":"仁德區","LI":"仁和里","LIN":"10鄰","STREET":"和愛街","SECT":" ","MAREA":" ","LANE":" ","ALLEY":" ","HOUSE_NO":"１０號一樓","E_COORD97":170390.81,"N_COORD97":2539995.3999999999,"ADDRESS":"和愛街１０號一樓","OBJECTID":261257},"geometry":{"x":170390.81000000145,"y":2539995.4000000022}},{"attributes":{"ID":261262,"DIS_CODE":0,"TOWNNAME":"仁德區","LI":"仁和里","LIN":"8鄰","STREET":"和愛街","SECT":" ","MAREA":" ","LANE":" ","ALLEY":" ","HOUSE_NO":"６號一樓","E_COORD97":170386.70999999999,"N_COORD97":2540084.0899999999,"ADDRESS":"和愛街６號一樓","OBJECTID":261258},"geometry":{"x":170386.71000000183,"y":2540084.0900000036}},{"attributes":{"ID":261263,"DIS_CODE":0,"TOWNNAME":"安南區","LI":"\u25A0田里","LIN":"6鄰","STREET":"\u25A0田五街","SECT":" ","MAREA":" ","LANE":" ","ALLEY":" ","HOUSE_NO":"１２號","E_COORD97":162610.72,"N_COORD97":2548294.6899999999,"ADDRESS":"\u25A0田五街１２號","OBJECTID":261259},"geometry":{"x":162610.7200000016,"y":2548294.6900000013}},{"attributes":{"ID":261264,"DIS_CODE":0,"TOWNNAME":"新營區","LI":"興安里","LIN":"13鄰","STREET":"延平路","SECT":" ","MAREA":" ","LANE":" ","ALLEY":" ","HOUSE_NO":"８５號","E_COORD97":179787.423511,"N_COORD97":2577699.4331100001,"ADDRESS":"延平路８５號","OBJECTID":261260},"geometry":{"x":179787.42351100128,"y":2577699.4331100024}},{"attributes":{"ID":261265,"DIS_CODE":0,"TOWNNAME":"仁德區","LI":"仁和里","LIN":"17鄰","STREET":"保華路","SECT":" ","MAREA":" ","LANE":" ","ALLEY":" ","HOUSE_NO":"３６３號","E_COORD97":170433.85115,"N_COORD97":2539878.0109999999,"ADDRESS":"保華路３６３號","OBJECTID":261261},"geometry":{"x":170433.85115000047,"y":2539878.0110000018}},{"attributes":{"ID":261266,"DIS_CODE":0,"TOWNNAME":"仁德區","LI":"仁和里","LIN":"12鄰","STREET":"保華路","SECT":" ","MAREA":" ","LANE":" ","ALLEY":" ","HOUSE_NO":"１２６號","E_COORD97":170446.44886400001,"N_COORD97":2539973.6013699998,"ADDRESS":"保華路１２６號","OBJECTID":261262},"geometry":{"x":170446.44886400085,"y":2539973.6013730001}},{"attributes":{"ID":261267,"DIS_CODE":0,"TOWNNAME":"新營區","LI":"興安里","LIN":"6鄰","STREET":"工業街","SECT":" ","MAREA":" ","LANE":" ","ALLEY":" ","HOUSE_NO":"４５號之６","E_COORD97":180720.64999999999,"N_COORD97":2577955.8599999999,"ADDRESS":"工業街４５號之６","OBJECTID":261263},"geometry":{"x":180720.65000000037,"y":2577955.8600000013}},{"attributes":{"ID":261268,"DIS_CODE":0,"TOWNNAME":"新營區","LI":"興安里","LIN":"5鄰","STREET":"工業街","SECT":" ","MAREA":" ","LANE":" ","ALLEY":" ","HOUSE_NO":"６９號之１","E_COORD97":180638.06602999999,"N_COORD97":2577852.7949999999,"ADDRESS":"工業街６９號之１","OBJECTID":261264},"geometry":{"x":180638.06603000127,"y":2577852.7949999981}},{"attributes":{"ID":261269,"DIS_CODE":0,"TOWNNAME":"中西區","LI":"福安里","LIN":"14鄰","STREET":"永福路","SECT":"二段","MAREA":" ","LANE":" ","ALLEY":" ","HOUSE_NO":"１７號","E_COORD97":168018.07999999999,"N_COORD97":2543466.04,"ADDRESS":"永福路二段１７號","OBJECTID":261265},"geometry":{"x":168018.08000000101,"y":2543466.0399999991}},{"attributes":{"ID":261270,"DIS_CODE":0,"TOWNNAME":"關廟區","LI":"埤頭里","LIN":"5鄰","STREET":"關新路","SECT":"二段","MAREA":" ","LANE":" ","ALLEY":" ","HOUSE_NO":"４２號","E_COORD97":179137.73426699999,"N_COORD97":2544113.7773799999,"ADDRESS":"關新路二段４２號","OBJECTID":261266},"geometry":{"x":179137.73426700104,"y":2544113.7773830034}},{"attributes":{"ID":261271,"DIS_CODE":0,"TOWNNAME":"關廟區","LI":"埤頭里","LIN":"5鄰","STREET":"關新路","SECT":"二段","MAREA":" ","LANE":" ","ALLEY":" ","HOUSE_NO":"４０號","E_COORD97":179194.302868,"N_COORD97":2544127.1123799998,"ADDRESS":"關新路二段４０號","OBJECTID":261267},"geometry":{"x":179194.30286800023,"y":2544127.1123750005}},{"attributes":{"ID":261272,"DIS_CODE":0,"TOWNNAME":"安南區","LI":"\u25A0田里","LIN":"7鄰","STREET":"\u25A0田路","SECT":" ","MAREA":" ","LANE":" ","ALLEY":" ","HOUSE_NO":"１０９號","E_COORD97":162530.54999999999,"N_COORD97":2548260.3999999999,"ADDRESS":"\u25A0田路１０９號","OBJECTID":261268},"geometry":{"x":162530.55000000168,"y":2548260.4000000022}},{"attributes":{"ID":261273,"DIS_CODE":0,"TOWNNAME":"新營區","LI":"興安里","LIN":"6鄰","STREET":"工業街","SECT":" ","MAREA":" ","LANE":" ","ALLEY":" ","HOUSE_NO":"７１之１號","E_COORD97":180783.25685199999,"N_COORD97":2577854.7000000002,"ADDRESS":"工業街７１之１號","OBJECTID":261269},"geometry":{"x":180783.25685200095,"y":2577854.6999990027}},{"attributes":{"ID":261274,"DIS_CODE":0,"TOWNNAME":"新營區","LI":"興安里","LIN":"5鄰","STREET":"工業街","SECT":" ","MAREA":" ","LANE":" ","ALLEY":" ","HOUSE_NO":"６９號之３","E_COORD97":180632.38839099999,"N_COORD97":2577880.09999,"ADDRESS":"工業街６９號之３","OBJECTID":261270},"geometry":{"x":180632.38839100022,"y":2577880.0999849997}},{"attributes":{"ID":261275,"DIS_CODE":0,"TOWNNAME":"關廟區","LI":"埤頭里","LIN":"5鄰","STREET":"關新路","SECT":"二段","MAREA":" ","LANE":" ","ALLEY":" ","HOUSE_NO":"３６之１號","E_COORD97":179250.44773499999,"N_COORD97":2544057.0507499999,"ADDRESS":"關新路二段３６之１號","OBJECTID":261271},"geometry":{"x":179250.4477350004,"y":2544057.0507470015}},{"attributes":{"ID":261276,"DIS_CODE":0,"TOWNNAME":"新營區","LI":"興安里","LIN":"6鄰","STREET":"工業街","SECT":" ","MAREA":" ","LANE":" ","ALLEY":" ","HOUSE_NO":"７１號之４","E_COORD97":180749.77760999999,"N_COORD97":2577905.2883000001,"ADDRESS":"工業街７１號之４","OBJECTID":261272},"geometry":{"x":180749.77761000115,"y":2577905.2883000001}},{"attributes":{"ID":261277,"DIS_CODE":0,"TOWNNAME":"關廟區","LI":"埤頭里","LIN":"5鄰","STREET":"關新路","SECT":"二段","MAREA":" ","LANE":" ","ALLEY":" ","HOUSE_NO":"３６之２號","E_COORD97":179268.88020000001,"N_COORD97":2544058.32075,"ADDRESS":"關新路二段３６之２號","OBJECTID":261273},"geometry":{"x":179268.88020000048,"y":2544058.3207460009}},{"attributes":{"ID":261278,"DIS_CODE":0,"TOWNNAME":"關廟區","LI":"埤頭里","LIN":"5鄰","STREET":"關新路","SECT":"二段","MAREA":" ","LANE":" ","ALLEY":" ","HOUSE_NO":"３６之５號","E_COORD97":179302.35525200001,"N_COORD97":2544062.9774099998,"ADDRESS":"關新路二段３６之５號","OBJECTID":261274},"geometry":{"x":179302.3552520005,"y":2544062.9774100017}},{"attributes":{"ID":261279,"DIS_CODE":0,"TOWNNAME":"關廟區","LI":"埤頭里","LIN":"5鄰","STREET":"關新路","SECT":"二段","MAREA":" ","LANE":" ","ALLEY":" ","HOUSE_NO":"３６之６號","E_COORD97":179238.371292,"N_COORD97":2543991.6457799999,"ADDRESS":"關新路二段３６之６號","OBJECTID":261275},"geometry":{"x":179238.37129200157,"y":2543991.6457819995}},{"attributes":{"ID":261280,"DIS_CODE":0,"TOWNNAME":"新營區","LI":"興安里","LIN":"6鄰","STREET":"工業街","SECT":" ","MAREA":" ","LANE":" ","ALLEY":" ","HOUSE_NO":"７１號之９","E_COORD97":180705.81911000001,"N_COORD97":2577919.2582899998,"ADDRESS":"工業街７１號之９","OBJECTID":261276},"geometry":{"x":180705.81910999957,"y":2577919.2582900003}},{"attributes":{"ID":261281,"DIS_CODE":0,"TOWNNAME":"關廟區","LI":"埤頭里","LIN":"5鄰","STREET":"關新路","SECT":"二段","MAREA":" ","LANE":" ","ALLEY":" ","HOUSE_NO":"６號","E_COORD97":179097.26999999999,"N_COORD97":2544036.2999999998,"ADDRESS":"關新路二段６號","OBJECTID":261277},"geometry":{"x":179097.26999999955,"y":2544036.2999999989}},{"attributes":{"ID":261282,"DIS_CODE":0,"TOWNNAME":"關廟區","LI":"埤頭里","LIN":"5鄰","STREET":"關新路","SECT":"二段","MAREA":" ","LANE":" ","ALLEY":" ","HOUSE_NO":"２號","E_COORD97":179156.16673299999,"N_COORD97":2544021.2261800002,"ADDRESS":"關新路二段２號","OBJECTID":261278},"geometry":{"x":179156.16673300229,"y":2544021.2261830028}},{"attributes":{"ID":261283,"DIS_CODE":0,"TOWNNAME":"新營區","LI":"興安里","LIN":"5鄰","STREET":"工業街","SECT":" ","MAREA":" ","LANE":" ","ALLEY":" ","HOUSE_NO":"７３號","E_COORD97":180576.56382899999,"N_COORD97":2577880.31165,"ADDRESS":"工業街７３號","OBJECTID":261279},"geometry":{"x":180576.56382900011,"y":2577880.3116510008}},{"attributes":{"ID":261284,"DIS_CODE":0,"TOWNNAME":"南區","LI":"郡南里","LIN":"17鄰","STREET":"永成路","SECT":"三段","MAREA":" ","LANE":" ","ALLEY":" ","HOUSE_NO":"１１號","E_COORD97":167481.81569700001,"N_COORD97":2540379.23073,"ADDRESS":"永成路三段１１號","OBJECTID":261280},"geometry":{"x":167481.81569700036,"y":2540379.2307329997}},{"attributes":{"ID":261285,"DIS_CODE":0,"TOWNNAME":"關廟區","LI":"埤頭里","LIN":"5鄰","STREET":"關新路","SECT":"二段","MAREA":" ","LANE":" ","ALLEY":" ","HOUSE_NO":"１６號","E_COORD97":179100.657469,"N_COORD97":2544065.2528200001,"ADDRESS":"關新路二段１６號","OBJECTID":261281},"geometry":{"x":179100.65746900067,"y":2544065.2528249975}},{"attributes":{"ID":261286,"DIS_CODE":0,"TOWNNAME":"新營區","LI":"興安里","LIN":"10鄰","STREET":"廠前街","SECT":" ","MAREA":" ","LANE":" ","ALLEY":" ","HOUSE_NO":"５８號","E_COORD97":179943.31889,"N_COORD97":2577713.2009100001,"ADDRESS":"廠前街５８號","OBJECTID":261282},"geometry":{"x":179943.31888999976,"y":2577713.2009080015}},{"attributes":{"ID":261287,"DIS_CODE":0,"TOWNNAME":"新營區","LI":"興安里","LIN":"11鄰","STREET":"新進路","SECT":" ","MAREA":" ","LANE":" ","ALLEY":" ","HOUSE_NO":"３１９號","E_COORD97":179909.20397100001,"N_COORD97":2577777.4417099999,"ADDRESS":"新進路３１９號","OBJECTID":261283},"geometry":{"x":179909.20397099946,"y":2577777.4417070001}},{"attributes":{"ID":261288,"DIS_CODE":0,"TOWNNAME":"安南區","LI":"安東里","LIN":"15鄰","STREET":"安和路","SECT":"一段","MAREA":" ","LANE":" ","ALLEY":" ","HOUSE_NO":"１９８之１號","E_COORD97":169380.65740600001,"N_COORD97":2547865.5583600001,"ADDRESS":"安和路一段１９８之１號","OBJECTID":261284},"geometry":{"x":169380.65740600228,"y":2547865.5583590027}},{"attributes":{"ID":261289,"DIS_CODE":0,"TOWNNAME":"仁德區","LI":"仁和里","LIN":"3鄰","STREET":"二空路","SECT":" ","MAREA":" ","LANE":" ","ALLEY":" ","HOUSE_NO":"１２２號","E_COORD97":170375.78899999999,"N_COORD97":2540170.3377899998,"ADDRESS":"二空路１２２號","OBJECTID":261285},"geometry":{"x":170375.7890000008,"y":2540170.3377899993}},{"attributes":{"ID":261290,"DIS_CODE":0,"TOWNNAME":"仁德區","LI":"仁和里","LIN":"2鄰","STREET":"二空路","SECT":" ","MAREA":" ","LANE":" ","ALLEY":" ","HOUSE_NO":"１１２號","E_COORD97":170376.78899999999,"N_COORD97":2540134.3544800002,"ADDRESS":"二空路１１２號","OBJECTID":261286},"geometry":{"x":170376.78899999987,"y":2540134.3544800039}},{"attributes":{"ID":261291,"DIS_CODE":0,"TOWNNAME":"仁德區","LI":"仁和里","LIN":"8鄰","STREET":"二空路","SECT":" ","MAREA":" ","LANE":" ","ALLEY":" ","HOUSE_NO":"１０２號","E_COORD97":170379.33900000001,"N_COORD97":2540077.5296499999,"ADDRESS":"二空路１０２號","OBJECTID":261287},"geometry":{"x":170379.33899999969,"y":2540077.529649999}},{"attributes":{"ID":261292,"DIS_CODE":0,"TOWNNAME":"仁德區","LI":"仁和里","LIN":"4鄰","STREET":"二空路","SECT":" ","MAREA":" ","LANE":" ","ALLEY":" ","HOUSE_NO":"１２８號","E_COORD97":170375.03899999999,"N_COORD97":2540187.83005,"ADDRESS":"二空路１２８號","OBJECTID":261288},"geometry":{"x":170375.03899999987,"y":2540187.8300540019}},{"attributes":{"ID":261293,"DIS_CODE":0,"TOWNNAME":"仁德區","LI":"仁和里","LIN":"3鄰","STREET":"二空路","SECT":" ","MAREA":" ","LANE":" ","ALLEY":" ","HOUSE_NO":"１２０號","E_COORD97":170375.93900000001,"N_COORD97":2540162.29446,"ADDRESS":"二空路１２０號","OBJECTID":261289},"geometry":{"x":170375.93900000025,"y":2540162.2944600023}},{"attributes":{"ID":261294,"DIS_CODE":0,"TOWNNAME":"仁德區","LI":"仁和里","LIN":"2鄰","STREET":"二空路","SECT":" ","MAREA":" ","LANE":" ","ALLEY":" ","HOUSE_NO":"１１０號","E_COORD97":170376.93900000001,"N_COORD97":2540125.6761500002,"ADDRESS":"二空路１１０號","OBJECTID":261290},"geometry":{"x":170376.93900000118,"y":2540125.6761500034}},{"attributes":{"ID":261295,"DIS_CODE":0,"TOWNNAME":"仁德區","LI":"仁和里","LIN":"3鄰","STREET":"二空路","SECT":" ","MAREA":" ","LANE":" ","ALLEY":" ","HOUSE_NO":"１１６號","E_COORD97":170376.93900000001,"N_COORD97":2540139.4344700002,"ADDRESS":"二空路１１６號","OBJECTID":261291},"geometry":{"x":170376.93900000118,"y":2540139.4344699979}},{"attributes":{"ID":261296,"DIS_CODE":0,"TOWNNAME":"仁德區","LI":"仁和里","LIN":"8鄰","STREET":"二空路","SECT":" ","MAREA":" ","LANE":" ","ALLEY":" ","HOUSE_NO":"１０６號","E_COORD97":170378.44347999999,"N_COORD97":2540093.82797,"ADDRESS":"二空路１０６號","OBJECTID":261292},"geometry":{"x":170378.4434799999,"y":2540093.8279739991}},{"attributes":{"ID":261297,"DIS_CODE":0,"TOWNNAME":"仁德區","LI":"仁和里","LIN":"2鄰","STREET":"二空路","SECT":" ","MAREA":" ","LANE":" ","ALLEY":" ","HOUSE_NO":"１０８號","E_COORD97":170377.43900000001,"N_COORD97":2540110.2244899999,"ADDRESS":"二空路１０８號","OBJECTID":261293},"geometry":{"x":170377.43900000025,"y":2540110.2244899999}},{"attributes":{"ID":261298,"DIS_CODE":0,"TOWNNAME":"仁德區","LI":"仁和里","LIN":"3鄰","STREET":"二空路","SECT":" ","MAREA":" ","LANE":" ","ALLEY":" ","HOUSE_NO":"１１８號","E_COORD97":170376.43900000001,"N_COORD97":2540147.4778,"ADDRESS":"二空路１１８號","OBJECTID":261294},"geometry":{"x":170376.43900000211,"y":2540147.4778000005}},{"attributes":{"ID":261299,"DIS_CODE":0,"TOWNNAME":"仁德區","LI":"仁和里","LIN":"8鄰","STREET":"二空路","SECT":" ","MAREA":" ","LANE":" ","ALLEY":" ","HOUSE_NO":"１００號","E_COORD97":170379.739,"N_COORD97":2540067.7929799999,"ADDRESS":"二空路１００號","OBJECTID":261295},"geometry":{"x":170379.73900000099,"y":2540067.7929800004}},{"attributes":{"ID":261300,"DIS_CODE":0,"TOWNNAME":"關廟區","LI":"布袋里","LIN":"5鄰","STREET":"長文街","SECT":" ","MAREA":" ","LANE":" ","ALLEY":" ","HOUSE_NO":"１２３號","E_COORD97":182880.63667099999,"N_COORD97":2535403.5607400001,"ADDRESS":"長文街１２３號","OBJECTID":261296},"geometry":{"x":182880.63667100016,"y":2535403.5607410017}},{"attributes":{"ID":261301,"DIS_CODE":0,"TOWNNAME":"關廟區","LI":"布袋里","LIN":"5鄰","STREET":"長文街","SECT":" ","MAREA":" ","LANE":" ","ALLEY":" ","HOUSE_NO":"６５號","E_COORD97":182988.39000000001,"N_COORD97":2535464.2999999998,"ADDRESS":"長文街６５號","OBJECTID":261297},"geometry":{"x":182988.38999999966,"y":2535464.3000000007}},{"attributes":{"ID":261302,"DIS_CODE":0,"TOWNNAME":"新營區","LI":"興安里","LIN":"14鄰","STREET":"延平路","SECT":" ","MAREA":" ","LANE":" ","ALLEY":" ","HOUSE_NO":"１０７號之１","E_COORD97":179775.07511999999,"N_COORD97":2577616.68096,"ADDRESS":"延平路１０７號之１","OBJECTID":261298},"geometry":{"x":179775.07512000017,"y":2577616.6809599996}},{"attributes":{"ID":261303,"DIS_CODE":0,"TOWNNAME":"新營區","LI":"興安里","LIN":"14鄰","STREET":"廠前街","SECT":" ","MAREA":" ","LANE":" ","ALLEY":" ","HOUSE_NO":"９２號之１","E_COORD97":179844.36442999999,"N_COORD97":2577663.2475999999,"ADDRESS":"廠前街９２號之１","OBJECTID":261299},"geometry":{"x":179844.36443000007,"y":2577663.2476000041}},{"attributes":{"ID":261304,"DIS_CODE":0,"TOWNNAME":"新營區","LI":"興安里","LIN":"13鄰","STREET":"延平路","SECT":" ","MAREA":" ","LANE":" ","ALLEY":" ","HOUSE_NO":"７７號","E_COORD97":179787.259028,"N_COORD97":2577720.6092400001,"ADDRESS":"延平路７７號","OBJECTID":261300},"geometry":{"x":179787.25902800169,"y":2577720.6092380024}},{"attributes":{"ID":261305,"DIS_CODE":0,"TOWNNAME":"關廟區","LI":"布袋里","LIN":"5鄰","STREET":"長文街","SECT":" ","MAREA":" ","LANE":" ","ALLEY":" ","HOUSE_NO":"１０３號","E_COORD97":182916.507656,"N_COORD97":2535424.9390599998,"ADDRESS":"長文街１０３號","OBJECTID":261301},"geometry":{"x":182916.50765599869,"y":2535424.939062003}},{"attributes":{"ID":261306,"DIS_CODE":0,"TOWNNAME":"永康區","LI":"復國里","LIN":"17鄰","STREET":"國華街","SECT":" ","MAREA":" ","LANE":" ","ALLEY":" ","HOUSE_NO":"５８號","E_COORD97":172857.027229,"N_COORD97":2545751.8661099998,"ADDRESS":"國華街５８號","OBJECTID":261302},"geometry":{"x":172857.02722899895,"y":2545751.8661120012}},{"attributes":{"ID":261307,"DIS_CODE":0,"TOWNNAME":"仁德區","LI":"仁和里","LIN":"10鄰","STREET":"二空路","SECT":" ","MAREA":" ","LANE":" ","ALLEY":" ","HOUSE_NO":"９０號","E_COORD97":170381.739,"N_COORD97":2540004.7163499999,"ADDRESS":"二空路９０號","OBJECTID":261303},"geometry":{"x":170381.73900000099,"y":2540004.7163500041}},{"attributes":{"ID":261308,"DIS_CODE":0,"TOWNNAME":"仁德區","LI":"仁和里","LIN":"10鄰","STREET":"二空路","SECT":" ","MAREA":" ","LANE":" ","ALLEY":" ","HOUSE_NO":"８６號","E_COORD97":170382.739,"N_COORD97":2539980.1630299999,"ADDRESS":"二空路８６號","OBJECTID":261304},"geometry":{"x":170382.73900000192,"y":2539980.1630300004}},{"attributes":{"ID":261309,"DIS_CODE":0,"TOWNNAME":"仁德區","LI":"仁和里","LIN":"11鄰","STREET":"二空路","SECT":" ","MAREA":" ","LANE":" ","ALLEY":" ","HOUSE_NO":"８０號","E_COORD97":170383.73984900001,"N_COORD97":2539943.5447200001,"ADDRESS":"二空路８０號","OBJECTID":261305},"geometry":{"x":170383.73984900117,"y":2539943.5447220001}},{"attributes":{"ID":261310,"DIS_CODE":0,"TOWNNAME":"仁德區","LI":"仁和里","LIN":"10鄰","STREET":"二空路","SECT":" ","MAREA":" ","LANE":" ","ALLEY":" ","HOUSE_NO":"８８號","E_COORD97":170382.33900000001,"N_COORD97":2539990.11136,"ADDRESS":"二空路８８號","OBJECTID":261306},"geometry":{"x":170382.33900000062,"y":2539990.1113600004}},{"attributes":{"ID":261311,"DIS_CODE":0,"TOWNNAME":"仁德區","LI":"仁和里","LIN":"13鄰","STREET":"保華路","SECT":" ","MAREA":" ","LANE":" ","ALLEY":" ","HOUSE_NO":"１２０號","E_COORD97":170471.87143699999,"N_COORD97":2539987.3596999999,"ADDRESS":"保華路１２０號","OBJECTID":261307},"geometry":{"x":170471.87143700011,"y":2539987.3596980013}},{"attributes":{"ID":261312,"DIS_CODE":0,"TOWNNAME":"仁德區","LI":"仁和里","LIN":"4鄰","STREET":"二空路","SECT":" ","MAREA":" ","LANE":" ","ALLEY":" ","HOUSE_NO":"１２６號","E_COORD97":170375.639,"N_COORD97":2540180.6333900001,"ADDRESS":"二空路１２６號","OBJECTID":261308},"geometry":{"x":170375.63900000136,"y":2540180.6333920006}},{"attributes":{"ID":261313,"DIS_CODE":0,"TOWNNAME":"仁德區","LI":"仁和里","LIN":"4鄰","STREET":"二空路","SECT":" ","MAREA":" ","LANE":" ","ALLEY":" ","HOUSE_NO":"１３０號","E_COORD97":170375.03899999999,"N_COORD97":2540204.1283800001,"ADDRESS":"二空路１３０號","OBJECTID":261309},"geometry":{"x":170375.03899999987,"y":2540204.1283790004}},{"attributes":{"ID":261314,"DIS_CODE":0,"TOWNNAME":"仁德區","LI":"仁和里","LIN":"11鄰","STREET":"和愛街","SECT":" ","MAREA":" ","LANE":" ","ALLEY":" ","HOUSE_NO":"１２號二樓之１","E_COORD97":170392.85000000001,"N_COORD97":2539956.0299999998,"ADDRESS":"和愛街１２號二樓之１","OBJECTID":261310},"geometry":{"x":170392.85000000056,"y":2539956.0300000012}},{"attributes":{"ID":261315,"DIS_CODE":0,"TOWNNAME":"仁德區","LI":"仁和里","LIN":"11鄰","STREET":"二空路","SECT":" ","MAREA":" ","LANE":" ","ALLEY":" ","HOUSE_NO":"８２號","E_COORD97":170383.239,"N_COORD97":2539959.6313800002,"ADDRESS":"二空路８２號","OBJECTID":261311},"geometry":{"x":170383.23900000099,"y":2539959.6313800029}},{"attributes":{"ID":261316,"DIS_CODE":0,"TOWNNAME":"仁德區","LI":"仁和里","LIN":"9鄰","STREET":"二空路","SECT":" ","MAREA":" ","LANE":" ","ALLEY":" ","HOUSE_NO":"９８號","E_COORD97":170380.239,"N_COORD97":2540050.2246599998,"ADDRESS":"二空路９８號","OBJECTID":261312},"geometry":{"x":170380.23900000006,"y":2540050.2246600017}},{"attributes":{"ID":261317,"DIS_CODE":0,"TOWNNAME":"安南區","LI":"四草里","LIN":"3鄰","STREET":"大眾一街","SECT":" ","MAREA":" ","LANE":" ","ALLEY":" ","HOUSE_NO":"１３號","E_COORD97":160949.17000000001,"N_COORD97":2546524.1800000002,"ADDRESS":"大眾一街１３號","OBJECTID":261313},"geometry":{"x":160949.16999999993,"y":2546524.1799999997}},{"attributes":{"ID":261318,"DIS_CODE":0,"TOWNNAME":"安南區","LI":"新順里","LIN":"15鄰","STREET":"安豐三街","SECT":" ","MAREA":" ","LANE":" ","ALLEY":" ","HOUSE_NO":"４２號","E_COORD97":169435.18172699999,"N_COORD97":2549833.71845,"ADDRESS":"安豐三街４２號","OBJECTID":261314},"geometry":{"x":169435.18172699958,"y":2549833.7184469998}},{"attributes":{"ID":261319,"DIS_CODE":0,"TOWNNAME":"安南區","LI":"新順里","LIN":"15鄰","STREET":"安豐三街","SECT":" ","MAREA":" ","LANE":" ","ALLEY":" ","HOUSE_NO":"４０號","E_COORD97":169431.36947800001,"N_COORD97":2549830.9667799999,"ADDRESS":"安豐三街４０號","OBJECTID":261315},"geometry":{"x":169431.36947800219,"y":2549830.9667809997}},{"attributes":{"ID":261320,"DIS_CODE":0,"TOWNNAME":"安南區","LI":"新順里","LIN":"15鄰","STREET":"安豐三街","SECT":" ","MAREA":" ","LANE":" ","ALLEY":" ","HOUSE_NO":"３８號","E_COORD97":169425.11412899999,"N_COORD97":2549827.5801200001,"ADDRESS":"安豐三街３８號","OBJECTID":261316},"geometry":{"x":169425.11412900034,"y":2549827.580117004}},{"attributes":{"ID":261321,"DIS_CODE":0,"TOWNNAME":"安南區","LI":"新順里","LIN":"15鄰","STREET":"安豐三街","SECT":" ","MAREA":" ","LANE":" ","ALLEY":" ","HOUSE_NO":"３２號","E_COORD97":169413.46559099999,"N_COORD97":2549819.7484499998,"ADDRESS":"安豐三街３２號","OBJECTID":261317},"geometry":{"x":169413.46559100039,"y":2549819.7484540027}},{"attributes":{"ID":261322,"DIS_CODE":0,"TOWNNAME":"安南區","LI":"新順里","LIN":"15鄰","STREET":"安豐三街","SECT":" ","MAREA":" ","LANE":" ","ALLEY":" ","HOUSE_NO":"３６號","E_COORD97":169417.913214,"N_COORD97":2549823.77012,"ADDRESS":"安豐三街３６號","OBJECTID":261318},"geometry":{"x":169417.91321399994,"y":2549823.7701190002}},{"attributes":{"ID":261323,"DIS_CODE":0,"TOWNNAME":"安南區","LI":"四草里","LIN":"7鄰","STREET":"四草大道","SECT":" ","MAREA":" ","LANE":" ","ALLEY":" ","HOUSE_NO":"１２７號","E_COORD97":161232.42532099999,"N_COORD97":2544982.7340799998,"ADDRESS":"四草大道１２７號","OBJECTID":261319},"geometry":{"x":161232.42532100063,"y":2544982.7340769991}},{"attributes":{"ID":261324,"DIS_CODE":0,"TOWNNAME":"安南區","LI":"四草里","LIN":"7鄰","STREET":"四草大道","SECT":" ","MAREA":" ","LANE":" ","ALLEY":" ","HOUSE_NO":"１３８號","E_COORD97":161340.05388399999,"N_COORD97":2545091.0005800002,"ADDRESS":"四草大道１３８號","OBJECTID":261320},"geometry":{"x":161340.05388400052,"y":2545091.0005750041}},{"attributes":{"ID":261325,"DIS_CODE":0,"TOWNNAME":"關廟區","LI":"香洋里","LIN":"10鄰","STREET":"中正路","SECT":" ","MAREA":" ","LANE":" ","ALLEY":" ","HOUSE_NO":"９６５號","E_COORD97":181162.093719,"N_COORD97":2540271.2929400001,"ADDRESS":"中正路９６５號","OBJECTID":261321},"geometry":{"x":181162.093719,"y":2540271.2929430027}},{"attributes":{"ID":261326,"DIS_CODE":0,"TOWNNAME":"關廟區","LI":"下湖里","LIN":"1鄰","STREET":"南雄路","SECT":"二段","MAREA":" ","LANE":" ","ALLEY":" ","HOUSE_NO":"８８８號","E_COORD97":180466.483485,"N_COORD97":2541525.44514,"ADDRESS":"南雄路二段８８８號","OBJECTID":261322},"geometry":{"x":180466.48348500021,"y":2541525.4451390002}},{"attributes":{"ID":261327,"DIS_CODE":0,"TOWNNAME":"關廟區","LI":"下湖里","LIN":"1鄰","STREET":"南雄路","SECT":"二段","MAREA":" ","LANE":" ","ALLEY":" ","HOUSE_NO":"８８２號","E_COORD97":180516.071604,"N_COORD97":2541487.34516,"ADDRESS":"南雄路二段８８２號","OBJECTID":261323},"geometry":{"x":180516.0716040004,"y":2541487.3451590016}},{"attributes":{"ID":261328,"DIS_CODE":0,"TOWNNAME":"關廟區","LI":"下湖里","LIN":"1鄰","STREET":"南雄路","SECT":"二段","MAREA":" ","LANE":" ","ALLEY":" ","HOUSE_NO":"８８６號","E_COORD97":180481.74136799999,"N_COORD97":2541509.8876499999,"ADDRESS":"南雄路二段８８６號","OBJECTID":261324},"geometry":{"x":180481.7413680004,"y":2541509.8876470011}},{"attributes":{"ID":261329,"DIS_CODE":0,"TOWNNAME":"南區","LI":"建南里","LIN":"21鄰","STREET":"永成路","SECT":"二段","MAREA":" ","LANE":" ","ALLEY":" ","HOUSE_NO":"８７３號","E_COORD97":167473.86180899999,"N_COORD97":2540254.5426400001,"ADDRESS":"永成路二段８７３號","OBJECTID":261325},"geometry":{"x":167473.86180900037,"y":2540254.5426440034}},{"attributes":{"ID":261330,"DIS_CODE":0,"TOWNNAME":"鹽水區","LI":"橋南里","LIN":"22鄰","STREET":"新中路","SECT":" ","MAREA":" ","LANE":" ","ALLEY":" ","HOUSE_NO":"１０４號","E_COORD97":176015.76999999999,"N_COORD97":2578603.4100000001,"ADDRESS":"新中路１０４號","OBJECTID":261326},"geometry":{"x":176015.77000000142,"y":2578603.4100000039}},{"attributes":{"ID":261331,"DIS_CODE":0,"TOWNNAME":"中西區","LI":"五妃里","LIN":"1鄰","STREET":"南門路","SECT":" ","MAREA":" ","LANE":" ","ALLEY":" ","HOUSE_NO":"２５５號","E_COORD97":168372.935073,"N_COORD97":2542498.5973700001,"ADDRESS":"南門路２５５號","OBJECTID":261327},"geometry":{"x":168372.93507300131,"y":2542498.5973700024}},{"attributes":{"ID":261332,"DIS_CODE":0,"TOWNNAME":"南區","LI":"建南里","LIN":"21鄰","STREET":"永成路","SECT":"二段","MAREA":" ","LANE":" ","ALLEY":" ","HOUSE_NO":"８６９號","E_COORD97":167474.07360900001,"N_COORD97":2540226.65558,"ADDRESS":"永成路二段８６９號","OBJECTID":261328},"geometry":{"x":167474.073609001,"y":2540226.6555760019}},{"attributes":{"ID":261333,"DIS_CODE":0,"TOWNNAME":"南區","LI":"建南里","LIN":"22鄰","STREET":"永成路","SECT":"二段","MAREA":" ","LANE":" ","ALLEY":" ","HOUSE_NO":"８５９號","E_COORD97":167478.839094,"N_COORD97":2540204.2718400001,"ADDRESS":"永成路二段８５９號","OBJECTID":261329},"geometry":{"x":167478.8390940018,"y":2540204.2718380019}},{"attributes":{"ID":261334,"DIS_CODE":0,"TOWNNAME":"南區","LI":"建南里","LIN":"22鄰","STREET":"永成路","SECT":"二段","MAREA":" ","LANE":" ","ALLEY":" ","HOUSE_NO":"８５５號","E_COORD97":167478.46844600001,"N_COORD97":2540199.3505899999,"ADDRESS":"永成路二段８５５號","OBJECTID":261330},"geometry":{"x":167478.46844600141,"y":2540199.3505910002}},{"attributes":{"ID":261335,"DIS_CODE":0,"TOWNNAME":"關廟區","LI":"香洋里","LIN":"28鄰","STREET":"大富街","SECT":" ","MAREA":" ","LANE":" ","ALLEY":" ","HOUSE_NO":"３４５號","E_COORD97":180983.77240399999,"N_COORD97":2539880.6852099998,"ADDRESS":"大富街３４５號","OBJECTID":261331},"geometry":{"x":180983.77240400109,"y":2539880.6852130014}},{"attributes":{"ID":261336,"DIS_CODE":0,"TOWNNAME":"東區","LI":"關聖里","LIN":"11鄰","STREET":"裕農二街","SECT":" ","MAREA":" ","LANE":" ","ALLEY":" ","HOUSE_NO":"７６之１號","E_COORD97":171944.93594699999,"N_COORD97":2542999.5286599998,"ADDRESS":"裕農二街７６之１號","OBJECTID":261332},"geometry":{"x":171944.93594700098,"y":2542999.5286630001}},{"attributes":{"ID":261337,"DIS_CODE":0,"TOWNNAME":"關廟區","LI":"香洋里","LIN":"3鄰","STREET":"成功路","SECT":" ","MAREA":" ","LANE":" ","ALLEY":" ","HOUSE_NO":"３９７號","E_COORD97":181112.882239,"N_COORD97":2540553.5123899998,"ADDRESS":"成功路３９７號","OBJECTID":261333},"geometry":{"x":181112.88223900087,"y":2540553.5123880021}},{"attributes":{"ID":261338,"DIS_CODE":0,"TOWNNAME":"歸仁區","LI":"七甲里","LIN":"7鄰","STREET":"七甲三街","SECT":" ","MAREA":" ","LANE":" ","ALLEY":" ","HOUSE_NO":"３８號","E_COORD97":177536.38137300001,"N_COORD97":2542768.8424,"ADDRESS":"七甲三街３８號","OBJECTID":261334},"geometry":{"x":177536.38137300033,"y":2542768.8423999995}},{"attributes":{"ID":261339,"DIS_CODE":0,"TOWNNAME":"新營區","LI":"王公里","LIN":"30鄰","STREET":"大德街","SECT":" ","MAREA":" ","LANE":" ","ALLEY":" ","HOUSE_NO":"１０３號","E_COORD97":180497.159281,"N_COORD97":2579513.1606800002,"ADDRESS":"大德街１０３號","OBJECTID":261335},"geometry":{"x":180497.15928100049,"y":2579513.1606810018}},{"attributes":{"ID":261340,"DIS_CODE":0,"TOWNNAME":"歸仁區","LI":"七甲里","LIN":"7鄰","STREET":"七甲三街","SECT":" ","MAREA":" ","LANE":" ","ALLEY":" ","HOUSE_NO":"３８之１號","E_COORD97":177533.20086099999,"N_COORD97":2542772.4407299999,"ADDRESS":"七甲三街３８之１號","OBJECTID":261336},"geometry":{"x":177533.20086099952,"y":2542772.440731002}},{"attributes":{"ID":261341,"DIS_CODE":0,"TOWNNAME":"新營區","LI":"王公里","LIN":"30鄰","STREET":"大德街","SECT":" ","MAREA":" ","LANE":" ","ALLEY":" ","HOUSE_NO":"１０５號","E_COORD97":180500.973161,"N_COORD97":2579511.6790200002,"ADDRESS":"大德街１０５號","OBJECTID":261337},"geometry":{"x":180500.97316099983,"y":2579511.6790159997}},{"attributes":{"ID":261342,"DIS_CODE":0,"TOWNNAME":"安南區","LI":"\u25A0南里","LIN":"4鄰","STREET":"環福街","SECT":" ","MAREA":" ","LANE":" ","ALLEY":" ","HOUSE_NO":"２９號之１","E_COORD97":170194.81388199999,"N_COORD97":2552458.9162400002,"ADDRESS":"環福街２９號之１","OBJECTID":261338},"geometry":{"x":170194.81388199981,"y":2552458.9162379988}},{"attributes":{"ID":261343,"DIS_CODE":0,"TOWNNAME":"新營區","LI":"王公里","LIN":"31鄰","STREET":"大勇街","SECT":" ","MAREA":" ","LANE":" ","ALLEY":" ","HOUSE_NO":"５９之１號","E_COORD97":180313.66927700001,"N_COORD97":2579454.9523800001,"ADDRESS":"大勇街５９之１號","OBJECTID":261339},"geometry":{"x":180313.66927700117,"y":2579454.9523789994}},{"attributes":{"ID":261344,"DIS_CODE":0,"TOWNNAME":"關廟區","LI":"下湖里","LIN":"1鄰","STREET":"關新路","SECT":"一段","MAREA":" ","LANE":" ","ALLEY":" ","HOUSE_NO":"１２１號","E_COORD97":179745.152967,"N_COORD97":2541980.2920900001,"ADDRESS":"關新路一段１２１號","OBJECTID":261340},"geometry":{"x":179745.15296700131,"y":2541980.292090999}},{"attributes":{"ID":261345,"DIS_CODE":0,"TOWNNAME":"新營區","LI":"王公里","LIN":"31鄰","STREET":"大勇街","SECT":" ","MAREA":" ","LANE":" ","ALLEY":" ","HOUSE_NO":"５９之２號","E_COORD97":180315.15245299999,"N_COORD97":2579460.66738,"ADDRESS":"大勇街５９之２號","OBJECTID":261341},"geometry":{"x":180315.15245300066,"y":2579460.6673760023}},{"attributes":{"ID":261346,"DIS_CODE":0,"TOWNNAME":"新營區","LI":"王公里","LIN":"31鄰","STREET":"大勇街","SECT":" ","MAREA":" ","LANE":" ","ALLEY":" ","HOUSE_NO":"５９之３號","E_COORD97":180313.88115999999,"N_COORD97":2579465.53571,"ADDRESS":"大勇街５９之３號","OBJECTID":261342},"geometry":{"x":180313.8811600022,"y":2579465.5357070006}},{"attributes":{"ID":261347,"DIS_CODE":0,"TOWNNAME":"關廟區","LI":"新光里","LIN":"7鄰","STREET":"北寮街","SECT":" ","MAREA":" ","LANE":" ","ALLEY":" ","HOUSE_NO":"９３號","E_COORD97":184221.22453400001,"N_COORD97":2541894.2504099999,"ADDRESS":"北寮街９３號","OBJECTID":261343},"geometry":{"x":184221.22453400027,"y":2541894.250407001}},{"attributes":{"ID":261348,"DIS_CODE":0,"TOWNNAME":"歸仁區","LI":"新厝里","LIN":"24鄰","STREET":"大成路","SECT":" ","MAREA":" ","LANE":" ","ALLEY":" ","HOUSE_NO":"１５８號","E_COORD97":177719.23867799999,"N_COORD97":2540230.2813400002,"ADDRESS":"大成路１５８號","OBJECTID":261344},"geometry":{"x":177719.23867799994,"y":2540230.2813430019}},{"attributes":{"ID":261349,"DIS_CODE":0,"TOWNNAME":"仁德區","LI":"保安里","LIN":"12鄰","STREET":"開發四路","SECT":" ","MAREA":" ","LANE":" ","ALLEY":" ","HOUSE_NO":"９號","E_COORD97":172686.491408,"N_COORD97":2535765.3130899998,"ADDRESS":"開發四路９號","OBJECTID":261345},"geometry":{"x":172686.4914080007,"y":2535765.313090004}},{"attributes":{"ID":261350,"DIS_CODE":0,"TOWNNAME":"中西區","LI":"銀同里","LIN":"13鄰","STREET":"友愛東街","SECT":" ","MAREA":" ","LANE":" ","ALLEY":" ","HOUSE_NO":"４２號","E_COORD97":168618.04999999999,"N_COORD97":2543545.3799999999,"ADDRESS":"友愛東街４２號","OBJECTID":261346},"geometry":{"x":168618.05000000168,"y":2543545.379999999}},{"attributes":{"ID":261351,"DIS_CODE":0,"TOWNNAME":"歸仁區","LI":"七甲里","LIN":"11鄰","STREET":"大德路","SECT":" ","MAREA":" ","LANE":" ","ALLEY":" ","HOUSE_NO":"１２２０號","E_COORD97":175450.70680499999,"N_COORD97":2541534.7028800002,"ADDRESS":"大德路１２２０號","OBJECTID":261347},"geometry":{"x":175450.70680500101,"y":2541534.7028790023}},{"attributes":{"ID":261352,"DIS_CODE":0,"TOWNNAME":"新營區","LI":"興安里","LIN":"6鄰","STREET":"工業街","SECT":" ","MAREA":" ","LANE":" ","ALLEY":" ","HOUSE_NO":"４５之１０號","E_COORD97":180815.09947399999,"N_COORD97":2577932.6896500001,"ADDRESS":"工業街４５之１０號","OBJECTID":261348},"geometry":{"x":180815.09947400074,"y":2577932.6896509994}},{"attributes":{"ID":261353,"DIS_CODE":0,"TOWNNAME":"歸仁區","LI":"七甲里","LIN":"11鄰","STREET":"大德路","SECT":" ","MAREA":" ","LANE":" ","ALLEY":" ","HOUSE_NO":"１２２２號","E_COORD97":175444.981883,"N_COORD97":2541549.5195399998,"ADDRESS":"大德路１２２２號","OBJECTID":261349},"geometry":{"x":175444.98188299965,"y":2541549.5195370018}},{"attributes":{"ID":261354,"DIS_CODE":0,"TOWNNAME":"歸仁區","LI":"七甲里","LIN":"11鄰","STREET":"大德路","SECT":" ","MAREA":" ","LANE":" ","ALLEY":" ","HOUSE_NO":"１０５８號","E_COORD97":175832.89832400001,"N_COORD97":2541576.8245199998,"ADDRESS":"大德路１０５８號","OBJECTID":261350},"geometry":{"x":175832.89832399972,"y":2541576.824523}},{"attributes":{"ID":261355,"DIS_CODE":0,"TOWNNAME":"新營區","LI":"王公里","LIN":"34鄰","STREET":"長榮路","SECT":"一段","MAREA":" ","LANE":" ","ALLEY":" ","HOUSE_NO":"５４７號","E_COORD97":180194.23853500001,"N_COORD97":2579853.0264099999,"ADDRESS":"長榮路一段５４７號","OBJECTID":261351},"geometry":{"x":180194.23853500001,"y":2579853.0264079999}},{"attributes":{"ID":261356,"DIS_CODE":0,"TOWNNAME":"鹽水區","LI":"橋南里","LIN":"22鄰","STREET":"新中路","SECT":" ","MAREA":" ","LANE":"１０２巷","ALLEY":" ","HOUSE_NO":"８２號","E_COORD97":175835.94,"N_COORD97":2578629.3300000001,"ADDRESS":"新中路１０２巷８２號","OBJECTID":261352},"geometry":{"x":175835.94000000134,"y":2578629.3300000019}},{"attributes":{"ID":261357,"DIS_CODE":0,"TOWNNAME":"麻豆區","LI":"油車里","LIN":"22鄰","STREET":"中山路","SECT":" ","MAREA":" ","LANE":" ","ALLEY":" ","HOUSE_NO":"１４８號","E_COORD97":172398.85000000001,"N_COORD97":2564968.3700000001,"ADDRESS":"中山路１４８號","OBJECTID":261353},"geometry":{"x":172398.84999999963,"y":2564968.3699999992}},{"attributes":{"ID":261358,"DIS_CODE":0,"TOWNNAME":"中西區","LI":"銀同里","LIN":"6鄰","STREET":"府中街","SECT":" ","MAREA":" ","LANE":" ","ALLEY":" ","HOUSE_NO":"２５號","E_COORD97":168775.39000000001,"N_COORD97":2543484.96,"ADDRESS":"府中街２５號","OBJECTID":261354},"geometry":{"x":168775.3900000006,"y":2543484.9600000009}},{"attributes":{"ID":261359,"DIS_CODE":0,"TOWNNAME":"中西區","LI":"銀同里","LIN":"6鄰","STREET":"府中街","SECT":" ","MAREA":" ","LANE":" ","ALLEY":" ","HOUSE_NO":"２７號","E_COORD97":168770.31,"N_COORD97":2543478.25,"ADDRESS":"府中街２７號","OBJECTID":261355},"geometry":{"x":168770.31000000145,"y":2543478.2500000019}},{"attributes":{"ID":261360,"DIS_CODE":0,"TOWNNAME":"中西區","LI":"銀同里","LIN":"6鄰","STREET":"府中街","SECT":" ","MAREA":" ","LANE":" ","ALLEY":" ","HOUSE_NO":"２９號","E_COORD97":168767.82999999999,"N_COORD97":2543474.1200000001,"ADDRESS":"府中街２９號","OBJECTID":261356},"geometry":{"x":168767.83000000101,"y":2543474.120000001}},{"attributes":{"ID":261361,"DIS_CODE":0,"TOWNNAME":"中西區","LI":"銀同里","LIN":"6鄰","STREET":"府中街","SECT":" ","MAREA":" ","LANE":" ","ALLEY":" ","HOUSE_NO":"３１號","E_COORD97":168764.88,"N_COORD97":2543471.6600000001,"ADDRESS":"府中街３１號","OBJECTID":261357},"geometry":{"x":168764.88000000175,"y":2543471.660000002}},{"attributes":{"ID":261362,"DIS_CODE":0,"TOWNNAME":"中西區","LI":"銀同里","LIN":"6鄰","STREET":"府中街","SECT":" ","MAREA":" ","LANE":" ","ALLEY":" ","HOUSE_NO":"３３號","E_COORD97":168766.69,"N_COORD97":2543465.8900000001,"ADDRESS":"府中街３３號","OBJECTID":261358},"geometry":{"x":168766.68999999948,"y":2543465.8900000006}},{"attributes":{"ID":261363,"DIS_CODE":0,"TOWNNAME":"中西區","LI":"銀同里","LIN":"6鄰","STREET":"府中街","SECT":" ","MAREA":" ","LANE":" ","ALLEY":" ","HOUSE_NO":"３５號","E_COORD97":168767.26000000001,"N_COORD97":2543461.0099999998,"ADDRESS":"府中街３５號","OBJECTID":261359},"geometry":{"x":168767.26000000164,"y":2543461.0100000035}},{"attributes":{"ID":261364,"DIS_CODE":0,"TOWNNAME":"白河區","LI":"秀祐里","LIN":"3鄰","STREET":"舉人街","SECT":" ","MAREA":" ","LANE":" ","ALLEY":" ","HOUSE_NO":"１９５號","E_COORD97":188803.98999999999,"N_COORD97":2583505.1800000002,"ADDRESS":"舉人街１９５號","OBJECTID":261360},"geometry":{"x":188803.99000000115,"y":2583505.1800000016}},{"attributes":{"ID":261365,"DIS_CODE":0,"TOWNNAME":"白河區","LI":"秀祐里","LIN":"3鄰","STREET":"舉人街","SECT":" ","MAREA":" ","LANE":" ","ALLEY":" ","HOUSE_NO":"２２３號","E_COORD97":188771.20999999999,"N_COORD97":2583541.5800000001,"ADDRESS":"舉人街２２３號","OBJECTID":261361},"geometry":{"x":188771.21000000183,"y":2583541.5800000001}},{"attributes":{"ID":261366,"DIS_CODE":0,"TOWNNAME":"新營區","LI":"王公里","LIN":"34鄰","STREET":"長榮路","SECT":"一段","MAREA":" ","LANE":" ","ALLEY":" ","HOUSE_NO":"５３７號","E_COORD97":180217.33369699999,"N_COORD97":2579853.23807,"ADDRESS":"長榮路一段５３７號","OBJECTID":261362},"geometry":{"x":180217.33369699866,"y":2579853.2380750012}},{"attributes":{"ID":261367,"DIS_CODE":0,"TOWNNAME":"新營區","LI":"王公里","LIN":"34鄰","STREET":"長榮路","SECT":"一段","MAREA":" ","LANE":" ","ALLEY":" ","HOUSE_NO":"５４３號","E_COORD97":180202.07817699999,"N_COORD97":2579853.0264099999,"ADDRESS":"長榮路一段５４３號","OBJECTID":261363},"geometry":{"x":180202.0781770004,"y":2579853.0264079999}},{"attributes":{"ID":261368,"DIS_CODE":0,"TOWNNAME":"仁德區","LI":"保安里","LIN":"12鄰","STREET":"開發七路","SECT":" ","MAREA":" ","LANE":" ","ALLEY":" ","HOUSE_NO":"２００號","E_COORD97":173649.95323099999,"N_COORD97":2535663.7902899999,"ADDRESS":"開發七路２００號","OBJECTID":261364},"geometry":{"x":173649.95323100034,"y":2535663.7902930006}},{"attributes":{"ID":261369,"DIS_CODE":0,"TOWNNAME":"新營區","LI":"民榮里","LIN":"17鄰","STREET":"新進路","SECT":"二段","MAREA":" ","LANE":" ","ALLEY":" ","HOUSE_NO":"２５０號","E_COORD97":179001.344239,"N_COORD97":2577753.98716,"ADDRESS":"新進路二段２５０號","OBJECTID":261365},"geometry":{"x":179001.34423900116,"y":2577753.9871640019}},{"attributes":{"ID":261370,"DIS_CODE":0,"TOWNNAME":"新營區","LI":"大宏里","LIN":"1鄰","STREET":"民治路","SECT":" ","MAREA":" ","LANE":" ","ALLEY":" ","HOUSE_NO":"１９號之３","E_COORD97":180401.20264999999,"N_COORD97":2578873.19991,"ADDRESS":"民治路１９號之３","OBJECTID":261366},"geometry":{"x":180401.20265000127,"y":2578873.19991}},{"attributes":{"ID":261371,"DIS_CODE":0,"TOWNNAME":"新營區","LI":"大宏里","LIN":"1鄰","STREET":"民治路","SECT":" ","MAREA":" ","LANE":" ","ALLEY":" ","HOUSE_NO":"１９號之４","E_COORD97":180396.96476999999,"N_COORD97":2578873.4115800001,"ADDRESS":"民治路１９號之４","OBJECTID":261367},"geometry":{"x":180396.96477000229,"y":2578873.4115800001}},{"attributes":{"ID":261372,"DIS_CODE":0,"TOWNNAME":"下營區","LI":"仁里里","LIN":"1鄰","STREET":"中山路","SECT":"二段","MAREA":" ","LANE":" ","ALLEY":" ","HOUSE_NO":"２６０號","E_COORD97":174762.907859,"N_COORD97":2569420.8607999999,"ADDRESS":"中山路二段２６０號","OBJECTID":261368},"geometry":{"x":174762.90785900038,"y":2569420.8607950024}},{"attributes":{"ID":261373,"DIS_CODE":0,"TOWNNAME":"新營區","LI":"民榮里","LIN":"17鄰","STREET":"新進路","SECT":"二段","MAREA":" ","LANE":" ","ALLEY":" ","HOUSE_NO":"２５２號","E_COORD97":179001.821318,"N_COORD97":2577764.4910400002,"ADDRESS":"新進路二段２５２號","OBJECTID":261369},"geometry":{"x":179001.82131800056,"y":2577764.4910420012}},{"attributes":{"ID":261374,"DIS_CODE":0,"TOWNNAME":"新營區","LI":"大宏里","LIN":"1鄰","STREET":"民治路","SECT":" ","MAREA":" ","LANE":" ","ALLEY":" ","HOUSE_NO":"２１號之３","E_COORD97":180368.99478000001,"N_COORD97":2578872.0357499998,"ADDRESS":"民治路２１號之３","OBJECTID":261370},"geometry":{"x":180368.99478000123,"y":2578872.0357500017}},{"attributes":{"ID":261375,"DIS_CODE":0,"TOWNNAME":"新營區","LI":"王公里","LIN":"25鄰","STREET":"中正路","SECT":" ","MAREA":" ","LANE":" ","ALLEY":" ","HOUSE_NO":"１３８號之８","E_COORD97":180152.97977000001,"N_COORD97":2579630.15937,"ADDRESS":"中正路１３８號之８","OBJECTID":261371},"geometry":{"x":180152.97977000102,"y":2579630.1593680028}},{"attributes":{"ID":261376,"DIS_CODE":0,"TOWNNAME":"仁德區","LI":"保安里","LIN":"12鄰","STREET":"文賢路","SECT":"一段","MAREA":" ","LANE":" ","ALLEY":" ","HOUSE_NO":"６６７號","E_COORD97":171226.239229,"N_COORD97":2536532.89316,"ADDRESS":"文賢路一段６６７號","OBJECTID":261372},"geometry":{"x":171226.23922900017,"y":2536532.8931569997}},{"attributes":{"ID":261377,"DIS_CODE":0,"TOWNNAME":"仁德區","LI":"保安里","LIN":"14鄰","STREET":"文賢路","SECT":"一段","MAREA":" ","LANE":" ","ALLEY":" ","HOUSE_NO":"７０１號","E_COORD97":171387.01522299999,"N_COORD97":2536374.5665799999,"ADDRESS":"文賢路一段７０１號","OBJECTID":261373},"geometry":{"x":171387.01522299927,"y":2536374.5665750019}},{"attributes":{"ID":261378,"DIS_CODE":0,"TOWNNAME":"新營區","LI":"民榮里","LIN":"12鄰","STREET":"興農街","SECT":" ","MAREA":" ","LANE":" ","ALLEY":" ","HOUSE_NO":"３６號","E_COORD97":179257.75716099999,"N_COORD97":2577928.0034500002,"ADDRESS":"興農街３６號","OBJECTID":261374},"geometry":{"x":179257.75716100167,"y":2577928.0034529995}},{"attributes":{"ID":261379,"DIS_CODE":0,"TOWNNAME":"麻豆區","LI":"大埕里","LIN":"6鄰","STREET":"文昌路","SECT":" ","MAREA":" ","LANE":" ","ALLEY":" ","HOUSE_NO":"３１號之６","E_COORD97":173525.48000000001,"N_COORD97":2565141.7200000002,"ADDRESS":"文昌路３１號之６","OBJECTID":261375},"geometry":{"x":173525.48000000138,"y":2565141.7200000007}},{"attributes":{"ID":261380,"DIS_CODE":0,"TOWNNAME":"仁德區","LI":"中生里","LIN":"5鄰","STREET":" ","SECT":" ","MAREA":"中洲","LANE":" ","ALLEY":" ","HOUSE_NO":"１２５之４號","E_COORD97":172930.932038,"N_COORD97":2534297.3579000002,"ADDRESS":"中洲１２５之４號","OBJECTID":261376},"geometry":{"x":172930.93203799985,"y":2534297.357903}},{"attributes":{"ID":261381,"DIS_CODE":0,"TOWNNAME":"麻豆區","LI":"南勢里","LIN":"22鄰","STREET":" ","SECT":" ","MAREA":"南勢","LANE":" ","ALLEY":" ","HOUSE_NO":"５８號","E_COORD97":174550.76000000001,"N_COORD97":2564880.7000000002,"ADDRESS":"南勢５８號","OBJECTID":261377},"geometry":{"x":174550.75999999978,"y":2564880.7000000011}},{"attributes":{"ID":261382,"DIS_CODE":0,"TOWNNAME":"中西區","LI":"進學里","LIN":"7鄰","STREET":"永福路","SECT":"一段","MAREA":" ","LANE":" ","ALLEY":" ","HOUSE_NO":"３０號","E_COORD97":168003.315382,"N_COORD97":2542955.85543,"ADDRESS":"永福路一段３０號","OBJECTID":261378},"geometry":{"x":168003.31538200006,"y":2542955.8554280028}},{"attributes":{"ID":261383,"DIS_CODE":0,"TOWNNAME":"中西區","LI":"進學里","LIN":"11鄰","STREET":"永福路","SECT":"一段","MAREA":" ","LANE":" ","ALLEY":" ","HOUSE_NO":"４４號","E_COORD97":168005.43391399999,"N_COORD97":2543006.8670700002,"ADDRESS":"永福路一段４４號","OBJECTID":261379},"geometry":{"x":168005.43391400017,"y":2543006.8670680039}},{"attributes":{"ID":261384,"DIS_CODE":0,"TOWNNAME":"中西區","LI":"進學里","LIN":"11鄰","STREET":"永福路","SECT":"一段","MAREA":" ","LANE":" ","ALLEY":" ","HOUSE_NO":"５６號","E_COORD97":168006.70503300001,"N_COORD97":2543037.34705,"ADDRESS":"永福路一段５６號","OBJECTID":261380},"geometry":{"x":168006.7050329987,"y":2543037.3470510021}},{"attributes":{"ID":261385,"DIS_CODE":0,"TOWNNAME":"中西區","LI":"進學里","LIN":"11鄰","STREET":"永福路","SECT":"一段","MAREA":" ","LANE":" ","ALLEY":" ","HOUSE_NO":"５２號","E_COORD97":168006.91688599999,"N_COORD97":2543041.5803800002,"ADDRESS":"永福路一段５２號","OBJECTID":261381},"geometry":{"x":168006.91688600089,"y":2543041.5803820007}},{"attributes":{"ID":261386,"DIS_CODE":0,"TOWNNAME":"新營區","LI":"大宏里","LIN":"1鄰","STREET":"民族路","SECT":" ","MAREA":" ","LANE":" ","ALLEY":" ","HOUSE_NO":"６６號","E_COORD97":180311.879915,"N_COORD97":2578869.8988899998,"ADDRESS":"民族路６６號","OBJECTID":261382},"geometry":{"x":180311.87991500087,"y":2578869.8988889996}},{"attributes":{"ID":261387,"DIS_CODE":0,"TOWNNAME":"中西區","LI":"進學里","LIN":"13鄰","STREET":"忠義路","SECT":"一段","MAREA":" ","LANE":" ","ALLEY":" ","HOUSE_NO":"８７號","E_COORD97":168159.23933899999,"N_COORD97":2543080.52703,"ADDRESS":"忠義路一段８７號","OBJECTID":261383},"geometry":{"x":168159.23933900055,"y":2543080.527028}},{"attributes":{"ID":261388,"DIS_CODE":0,"TOWNNAME":"安南區","LI":"安慶里","LIN":"13鄰","STREET":"培安路","SECT":" ","MAREA":" ","LANE":" ","ALLEY":" ","HOUSE_NO":"２７５號","E_COORD97":169320.63104000001,"N_COORD97":2548901.5970399999,"ADDRESS":"培安路２７５號","OBJECTID":261384},"geometry":{"x":169320.63104000036,"y":2548901.5970400013}},{"attributes":{"ID":261389,"DIS_CODE":0,"TOWNNAME":"新營區","LI":"大宏里","LIN":"2鄰","STREET":"民族路","SECT":" ","MAREA":" ","LANE":" ","ALLEY":" ","HOUSE_NO":"３８號之１０","E_COORD97":180353.01217999999,"N_COORD97":2578777.17588,"ADDRESS":"民族路３８號之１０","OBJECTID":261385},"geometry":{"x":180353.01218000054,"y":2578777.1758800019}},{"attributes":{"ID":261390,"DIS_CODE":0,"TOWNNAME":"新營區","LI":"大宏里","LIN":"2鄰","STREET":"民族路","SECT":" ","MAREA":" ","LANE":" ","ALLEY":" ","HOUSE_NO":"３８號之９","E_COORD97":180342.6231,"N_COORD97":2578775.2708899998,"ADDRESS":"民族路３８號之９","OBJECTID":261386},"geometry":{"x":180342.6231000023,"y":2578775.2708899993}},{"attributes":{"ID":261391,"DIS_CODE":0,"TOWNNAME":"新營區","LI":"大宏里","LIN":"2鄰","STREET":"民族路","SECT":" ","MAREA":" ","LANE":" ","ALLEY":" ","HOUSE_NO":"４６號之１","E_COORD97":180344.5313,"N_COORD97":2578815.2229499999,"ADDRESS":"民族路４６號之１","OBJECTID":261387},"geometry":{"x":180344.53129999992,"y":2578815.2229500003}},{"attributes":{"ID":261392,"DIS_CODE":0,"TOWNNAME":"新營區","LI":"大宏里","LIN":"2鄰","STREET":"民族路","SECT":" ","MAREA":" ","LANE":" ","ALLEY":" ","HOUSE_NO":"５０號之１","E_COORD97":180335.20233,"N_COORD97":2578824.1129399999,"ADDRESS":"民族路５０號之１","OBJECTID":261388},"geometry":{"x":180335.20232999977,"y":2578824.1129400022}},{"attributes":{"ID":261393,"DIS_CODE":0,"TOWNNAME":"新營區","LI":"大宏里","LIN":"3鄰","STREET":"民族路","SECT":" ","MAREA":" ","LANE":" ","ALLEY":" ","HOUSE_NO":"３８號之４","E_COORD97":180344.89000000001,"N_COORD97":2578748.3399999999,"ADDRESS":"民族路３８號之４","OBJECTID":261389},"geometry":{"x":180344.8900000006,"y":2578748.3399999999}},{"attributes":{"ID":261394,"DIS_CODE":0,"TOWNNAME":"新營區","LI":"大宏里","LIN":"3鄰","STREET":"民族路","SECT":" ","MAREA":" ","LANE":" ","ALLEY":" ","HOUSE_NO":"３８號之５","E_COORD97":180337.73000000001,"N_COORD97":2578748.3700000001,"ADDRESS":"民族路３８號之５","OBJECTID":261390},"geometry":{"x":180337.73000000045,"y":2578748.3700000029}},{"attributes":{"ID":261395,"DIS_CODE":0,"TOWNNAME":"新營區","LI":"大宏里","LIN":"3鄰","STREET":"民族路","SECT":" ","MAREA":" ","LANE":" ","ALLEY":" ","HOUSE_NO":"３８號之６","E_COORD97":180349.72584,"N_COORD97":2578737.1973600001,"ADDRESS":"民族路３８號之６","OBJECTID":261391},"geometry":{"x":180349.72584000044,"y":2578737.1973599996}},{"attributes":{"ID":261396,"DIS_CODE":0,"TOWNNAME":"新營區","LI":"大宏里","LIN":"3鄰","STREET":"民族路","SECT":" ","MAREA":" ","LANE":" ","ALLEY":" ","HOUSE_NO":"３８號之７","E_COORD97":180355.06,"N_COORD97":2578737.2200000002,"ADDRESS":"民族路３８號之７","OBJECTID":261392},"geometry":{"x":180355.06000000145,"y":2578737.2200000007}},{"attributes":{"ID":261397,"DIS_CODE":0,"TOWNNAME":"新營區","LI":"大宏里","LIN":"3鄰","STREET":"民族路","SECT":" ","MAREA":" ","LANE":" ","ALLEY":" ","HOUSE_NO":"３８號之８","E_COORD97":180359.16081999999,"N_COORD97":2578737.06507,"ADDRESS":"民族路３８號之８","OBJECTID":261393},"geometry":{"x":180359.16081999987,"y":2578737.0650700014}},{"attributes":{"ID":261398,"DIS_CODE":0,"TOWNNAME":"新營區","LI":"大宏里","LIN":"3鄰","STREET":"民族路","SECT":" ","MAREA":" ","LANE":" ","ALLEY":" ","HOUSE_NO":"３０號之１","E_COORD97":180295.55421999999,"N_COORD97":2578688.3817699999,"ADDRESS":"民族路３０號之１","OBJECTID":261394},"geometry":{"x":180295.55422000028,"y":2578688.3817700017}},{"attributes":{"ID":261399,"DIS_CODE":0,"TOWNNAME":"新營區","LI":"大宏里","LIN":"3鄰","STREET":"民族路","SECT":" ","MAREA":" ","LANE":" ","ALLEY":" ","HOUSE_NO":"３４號之１","E_COORD97":180323.75313999999,"N_COORD97":2578736.32424,"ADDRESS":"民族路３４號之１","OBJECTID":261395},"geometry":{"x":180323.7531399997,"y":2578736.3242399991}},{"attributes":{"ID":261400,"DIS_CODE":0,"TOWNNAME":"新營區","LI":"大宏里","LIN":"3鄰","STREET":"民族路","SECT":" ","MAREA":" ","LANE":" ","ALLEY":" ","HOUSE_NO":"３４號之２","E_COORD97":180329.05369,"N_COORD97":2578736.3771600001,"ADDRESS":"民族路３４號之２","OBJECTID":261396},"geometry":{"x":180329.05369000137,"y":2578736.3771599997}},{"attributes":{"ID":261401,"DIS_CODE":0,"TOWNNAME":"中西區","LI":"銀同里","LIN":"1鄰","STREET":"城隍街","SECT":" ","MAREA":" ","LANE":" ","ALLEY":" ","HOUSE_NO":"１６號","E_COORD97":168816.72,"N_COORD97":2543316.5099999998,"ADDRESS":"城隍街１６號","OBJECTID":261397},"geometry":{"x":168816.7200000016,"y":2543316.5100000016}},{"attributes":{"ID":261402,"DIS_CODE":0,"TOWNNAME":"中西區","LI":"銀同里","LIN":"1鄰","STREET":"城隍街","SECT":" ","MAREA":" ","LANE":" ","ALLEY":" ","HOUSE_NO":"１８號","E_COORD97":168818.35000000001,"N_COORD97":2543328,"ADDRESS":"城隍街１８號","OBJECTID":261398},"geometry":{"x":168818.34999999963,"y":2543328}},{"attributes":{"ID":261403,"DIS_CODE":0,"TOWNNAME":"安定區","LI":"六嘉里","LIN":"5鄰","STREET":" ","SECT":" ","MAREA":"六塊寮","LANE":" ","ALLEY":" ","HOUSE_NO":"３９之９號","E_COORD97":170206.62,"N_COORD97":2553500.2999999998,"ADDRESS":"六塊寮３９之９號","OBJECTID":261399},"geometry":{"x":170206.62000000104,"y":2553500.3000000026}},{"attributes":{"ID":261404,"DIS_CODE":0,"TOWNNAME":"安定區","LI":"新吉里","LIN":"18鄰","STREET":" ","SECT":" ","MAREA":"新吉","LANE":" ","ALLEY":" ","HOUSE_NO":"２８３之１號","E_COORD97":168637.12,"N_COORD97":2554399.2999999998,"ADDRESS":"新吉２８３之１號","OBJECTID":261400},"geometry":{"x":168637.12000000104,"y":2554399.3000000007}}]}