{"displayFieldName":"TOWNNAME","fieldAliases":{"ID":"ID","DIS_CODE":"DIS_CODE","TOWNNAME":"TOWNNAME","LI":"LI","LIN":"LIN","STREET":"STREET","SECT":"SECT","MAREA":"MAREA","LANE":"LANE","ALLEY":"ALLEY","HOUSE_NO":"HOUSE_NO","E_COORD97":"E_COORD97","N_COORD97":"N_COORD97","ADDRESS":"ADDRESS","OBJECTID":"OBJECTID"},"geometryType":"esriGeometryPoint","spatialReference":{"wkid":102443,"latestWkid":3826},"fields":[{"name":"ID","type":"esriFieldTypeDouble","alias":"ID"},{"name":"DIS_CODE","type":"esriFieldTypeInteger","alias":"DIS_CODE"},{"name":"TOWNNAME","type":"esriFieldTypeString","alias":"TOWNNAME","length":8},{"name":"LI","type":"esriFieldTypeString","alias":"LI","length":8},{"name":"LIN","type":"esriFieldTypeString","alias":"LIN","length":12},{"name":"STREET","type":"esriFieldTypeString","alias":"STREET","length":20},{"name":"SECT","type":"esriFieldTypeString","alias":"SECT","length":8},{"name":"MAREA","type":"esriFieldTypeString","alias":"MAREA","length":12},{"name":"LANE","type":"esriFieldTypeString","alias":"LANE","length":10},{"name":"ALLEY","type":"esriFieldTypeString","alias":"ALLEY","length":10},{"name":"HOUSE_NO","type":"esriFieldTypeString","alias":"HOUSE_NO","length":20},{"name":"E_COORD97","type":"esriFieldTypeDouble","alias":"E_COORD97"},{"name":"N_COORD97","type":"esriFieldTypeDouble","alias":"N_COORD97"},{"name":"ADDRESS","type":"esriFieldTypeString","alias":"ADDRESS","length":50},{"name":"OBJECTID","type":"esriFieldTypeOID","alias":"OBJECTID"}],"features":[{"attributes":{"ID":17401,"DIS_CODE":0,"TOWNNAME":"永康區","LI":"埔園里","LIN":"34鄰","STREET":"永大路","SECT":"三段","MAREA":" ","LANE":"５６０巷","ALLEY":"１弄","HOUSE_NO":"１６號","E_COORD97":174117.76000000001,"N_COORD97":2548667.3599999999,"ADDRESS":"永大路三段５６０巷１弄１６號","OBJECTID":17401},"geometry":{"x":174117.76000000071,"y":2548667.3600000013}},{"attributes":{"ID":17402,"DIS_CODE":0,"TOWNNAME":"永康區","LI":"埔園里","LIN":"34鄰","STREET":"永大路","SECT":"三段","MAREA":" ","LANE":"５６０巷","ALLEY":"１弄","HOUSE_NO":"１８號","E_COORD97":174121.98999999999,"N_COORD97":2548667.2000000002,"ADDRESS":"永大路三段５６０巷１弄１８號","OBJECTID":17402},"geometry":{"x":174121.99000000115,"y":2548667.2000000011}},{"attributes":{"ID":17403,"DIS_CODE":0,"TOWNNAME":"永康區","LI":"埔園里","LIN":"34鄰","STREET":"永大路","SECT":"三段","MAREA":" ","LANE":"５６０巷","ALLEY":"１弄","HOUSE_NO":"２０號","E_COORD97":174126.26999999999,"N_COORD97":2548667.0499999998,"ADDRESS":"永大路三段５６０巷１弄２０號","OBJECTID":17403},"geometry":{"x":174126.27000000048,"y":2548667.0500000026}},{"attributes":{"ID":17404,"DIS_CODE":0,"TOWNNAME":"永康區","LI":"埔園里","LIN":"34鄰","STREET":"永大路","SECT":"三段","MAREA":" ","LANE":"５６０巷","ALLEY":"１弄","HOUSE_NO":"２２號","E_COORD97":174130.48999999999,"N_COORD97":2548692.1000000001,"ADDRESS":"永大路三段５６０巷１弄２２號","OBJECTID":17404},"geometry":{"x":174130.49000000115,"y":2548692.1000000015}},{"attributes":{"ID":17405,"DIS_CODE":0,"TOWNNAME":"永康區","LI":"埔園里","LIN":"34鄰","STREET":"永大路","SECT":"三段","MAREA":" ","LANE":"５６０巷","ALLEY":"１弄","HOUSE_NO":"２６號","E_COORD97":174125.44,"N_COORD97":2548692.77,"ADDRESS":"永大路三段５６０巷１弄２６號","OBJECTID":17405},"geometry":{"x":174125.44000000134,"y":2548692.7699999996}},{"attributes":{"ID":17406,"DIS_CODE":0,"TOWNNAME":"永康區","LI":"埔園里","LIN":"34鄰","STREET":"永大路","SECT":"三段","MAREA":" ","LANE":"５６０巷","ALLEY":"１弄","HOUSE_NO":"２８號","E_COORD97":174121.26000000001,"N_COORD97":2548693.3199999998,"ADDRESS":"永大路三段５６０巷１弄２８號","OBJECTID":17406},"geometry":{"x":174121.26000000071,"y":2548693.3200000003}},{"attributes":{"ID":17407,"DIS_CODE":0,"TOWNNAME":"永康區","LI":"埔園里","LIN":"34鄰","STREET":"永大路","SECT":"三段","MAREA":" ","LANE":"５６０巷","ALLEY":"１弄","HOUSE_NO":"３０號","E_COORD97":174117.07999999999,"N_COORD97":2548693.8700000001,"ADDRESS":"永大路三段５６０巷１弄３０號","OBJECTID":17407},"geometry":{"x":174117.07999999914,"y":2548693.870000001}},{"attributes":{"ID":17408,"DIS_CODE":0,"TOWNNAME":"永康區","LI":"埔園里","LIN":"34鄰","STREET":"永大路","SECT":"三段","MAREA":" ","LANE":"５６０巷","ALLEY":"１弄","HOUSE_NO":"３２號","E_COORD97":174113.03,"N_COORD97":2548692.96,"ADDRESS":"永大路三段５６０巷１弄３２號","OBJECTID":17408},"geometry":{"x":174113.03000000119,"y":2548692.9600000009}},{"attributes":{"ID":17409,"DIS_CODE":0,"TOWNNAME":"永康區","LI":"埔園里","LIN":"34鄰","STREET":"永大路","SECT":"三段","MAREA":" ","LANE":"５６０巷","ALLEY":"１弄","HOUSE_NO":"３６號","E_COORD97":174107.03,"N_COORD97":2548695.6099999999,"ADDRESS":"永大路三段５６０巷１弄３６號","OBJECTID":17409},"geometry":{"x":174107.03000000026,"y":2548695.6100000013}},{"attributes":{"ID":17410,"DIS_CODE":0,"TOWNNAME":"永康區","LI":"正強里","LIN":"34鄰","STREET":"四維街","SECT":" ","MAREA":" ","LANE":"１４９巷","ALLEY":"３７弄","HOUSE_NO":"７號","E_COORD97":173204.17999999999,"N_COORD97":2548326.2400000002,"ADDRESS":"四維街１４９巷３７弄７號","OBJECTID":17410},"geometry":{"x":173204.18000000156,"y":2548326.2400000021}},{"attributes":{"ID":17411,"DIS_CODE":0,"TOWNNAME":"永康區","LI":"北灣里","LIN":"34鄰","STREET":"大灣路","SECT":" ","MAREA":" ","LANE":"４０巷","ALLEY":"２６弄","HOUSE_NO":"１５號","E_COORD97":175203.17999999999,"N_COORD97":2546054.6800000002,"ADDRESS":"大灣路４０巷２６弄１５號","OBJECTID":17411},"geometry":{"x":175203.18000000063,"y":2546054.6800000016}},{"attributes":{"ID":17412,"DIS_CODE":0,"TOWNNAME":"東區","LI":"大同里","LIN":"34鄰","STREET":"大同路","SECT":"一段","MAREA":" ","LANE":"１７５巷","ALLEY":"１１６弄","HOUSE_NO":"１１號","E_COORD97":169327.63,"N_COORD97":2542637.3700000001,"ADDRESS":"大同路一段１７５巷１１６弄１１號","OBJECTID":17412},"geometry":{"x":169327.62999999896,"y":2542637.3700000029}},{"attributes":{"ID":17413,"DIS_CODE":0,"TOWNNAME":"東區","LI":"大同里","LIN":"34鄰","STREET":"大同路","SECT":"一段","MAREA":" ","LANE":"１７５巷","ALLEY":"１１６弄","HOUSE_NO":"１３號","E_COORD97":169322.54999999999,"N_COORD97":2542634.6099999999,"ADDRESS":"大同路一段１７５巷１１６弄１３號","OBJECTID":17413},"geometry":{"x":169322.54999999981,"y":2542634.6099999994}},{"attributes":{"ID":17414,"DIS_CODE":0,"TOWNNAME":"東區","LI":"大同里","LIN":"34鄰","STREET":"大同路","SECT":"一段","MAREA":" ","LANE":"１７５巷","ALLEY":"１１６弄","HOUSE_NO":"１５號","E_COORD97":169327.63,"N_COORD97":2542626.3500000001,"ADDRESS":"大同路一段１７５巷１１６弄１５號","OBJECTID":17414},"geometry":{"x":169327.62999999896,"y":2542626.3499999996}},{"attributes":{"ID":17415,"DIS_CODE":0,"TOWNNAME":"東區","LI":"大同里","LIN":"34鄰","STREET":"大同路","SECT":"一段","MAREA":" ","LANE":"１７５巷","ALLEY":"１１６弄","HOUSE_NO":"１７號","E_COORD97":169338.35999999999,"N_COORD97":2542634.0299999998,"ADDRESS":"大同路一段１７５巷１１６弄１７號","OBJECTID":17415},"geometry":{"x":169338.36000000034,"y":2542634.0300000012}},{"attributes":{"ID":17416,"DIS_CODE":0,"TOWNNAME":"東區","LI":"大同里","LIN":"34鄰","STREET":"大同路","SECT":"一段","MAREA":" ","LANE":"１７５巷","ALLEY":"１１６弄","HOUSE_NO":"１號","E_COORD97":169355.76999999999,"N_COORD97":2542656.3500000001,"ADDRESS":"大同路一段１７５巷１１６弄１號","OBJECTID":17416},"geometry":{"x":169355.77000000048,"y":2542656.3500000015}},{"attributes":{"ID":17417,"DIS_CODE":0,"TOWNNAME":"東區","LI":"大同里","LIN":"34鄰","STREET":"大同路","SECT":"一段","MAREA":" ","LANE":"１７５巷","ALLEY":"１１６弄","HOUSE_NO":"３號","E_COORD97":169352.42999999999,"N_COORD97":2542654.1800000002,"ADDRESS":"大同路一段１７５巷１１６弄３號","OBJECTID":17417},"geometry":{"x":169352.4299999997,"y":2542654.1800000016}},{"attributes":{"ID":17418,"DIS_CODE":0,"TOWNNAME":"東區","LI":"大同里","LIN":"34鄰","STREET":"大同路","SECT":"一段","MAREA":" ","LANE":"１７５巷","ALLEY":"１１６弄","HOUSE_NO":"４６號","E_COORD97":169295.41,"N_COORD97":2542617.5899999999,"ADDRESS":"大同路一段１７５巷１１６弄４６號","OBJECTID":17418},"geometry":{"x":169295.41000000015,"y":2542617.5900000017}},{"attributes":{"ID":17419,"DIS_CODE":0,"TOWNNAME":"東區","LI":"大同里","LIN":"34鄰","STREET":"大同路","SECT":"一段","MAREA":" ","LANE":"１７５巷","ALLEY":"１１６弄","HOUSE_NO":"４８號","E_COORD97":169301.79000000001,"N_COORD97":2542620.9199999999,"ADDRESS":"大同路一段１７５巷１１６弄４８號","OBJECTID":17419},"geometry":{"x":169301.79000000097,"y":2542620.9199999981}},{"attributes":{"ID":17420,"DIS_CODE":0,"TOWNNAME":"東區","LI":"大同里","LIN":"34鄰","STREET":"大同路","SECT":"一段","MAREA":" ","LANE":"１７５巷","ALLEY":"１１６弄","HOUSE_NO":"５０號","E_COORD97":169306.29000000001,"N_COORD97":2542624.6899999999,"ADDRESS":"大同路一段１７５巷１１６弄５０號","OBJECTID":17420},"geometry":{"x":169306.29000000004,"y":2542624.6899999995}},{"attributes":{"ID":17421,"DIS_CODE":0,"TOWNNAME":"東區","LI":"大同里","LIN":"34鄰","STREET":"大同路","SECT":"一段","MAREA":" ","LANE":"１７５巷","ALLEY":"１１６弄","HOUSE_NO":"５２號","E_COORD97":169312.67000000001,"N_COORD97":2542628.8999999999,"ADDRESS":"大同路一段１７５巷１１６弄５２號","OBJECTID":17421},"geometry":{"x":169312.67000000086,"y":2542628.9000000022}},{"attributes":{"ID":17422,"DIS_CODE":0,"TOWNNAME":"新營區","LI":"王公里","LIN":"28鄰","STREET":"大公街","SECT":" ","MAREA":" ","LANE":"４６巷","ALLEY":"４弄","HOUSE_NO":"１４號","E_COORD97":180198.78701999999,"N_COORD97":2579605.3697600001,"ADDRESS":"大公街４６巷４弄１４號","OBJECTID":17422},"geometry":{"x":180198.78702000063,"y":2579605.3697560038}},{"attributes":{"ID":17423,"DIS_CODE":0,"TOWNNAME":"東區","LI":"大同里","LIN":"34鄰","STREET":"大同路","SECT":"一段","MAREA":" ","LANE":"１７５巷","ALLEY":"１１６弄","HOUSE_NO":"５４號","E_COORD97":169317.01999999999,"N_COORD97":2542620.7799999998,"ADDRESS":"大同路一段１７５巷１１６弄５４號","OBJECTID":17423},"geometry":{"x":169317.02000000048,"y":2542620.7799999993}},{"attributes":{"ID":17424,"DIS_CODE":0,"TOWNNAME":"學甲區","LI":"新達里","LIN":"24鄰","STREET":" ","SECT":" ","MAREA":"瓦寮","LANE":" ","ALLEY":" ","HOUSE_NO":"１７號","E_COORD97":169426.5,"N_COORD97":2570179.7799999998,"ADDRESS":"瓦寮１７號","OBJECTID":17424},"geometry":{"x":169426.5,"y":2570179.7800000012}},{"attributes":{"ID":17425,"DIS_CODE":0,"TOWNNAME":"將軍區","LI":"忠興里","LIN":"14鄰","STREET":" ","SECT":" ","MAREA":"忠興","LANE":" ","ALLEY":" ","HOUSE_NO":"１３６之１７號","E_COORD97":163703.32000000001,"N_COORD97":2567133.5600000001,"ADDRESS":"忠興１３６之１７號","OBJECTID":17425},"geometry":{"x":163703.3200000003,"y":2567133.5600000024}},{"attributes":{"ID":17426,"DIS_CODE":0,"TOWNNAME":"將軍區","LI":"忠興里","LIN":"14鄰","STREET":" ","SECT":" ","MAREA":"忠興","LANE":" ","ALLEY":" ","HOUSE_NO":"１３６之１８號","E_COORD97":163702.34,"N_COORD97":2567139.3599999999,"ADDRESS":"忠興１３６之１８號","OBJECTID":17426},"geometry":{"x":163702.34000000078,"y":2567139.3599999994}},{"attributes":{"ID":17427,"DIS_CODE":0,"TOWNNAME":"將軍區","LI":"忠興里","LIN":"14鄰","STREET":" ","SECT":" ","MAREA":"忠興","LANE":" ","ALLEY":" ","HOUSE_NO":"１３６之１９號","E_COORD97":163701.44,"N_COORD97":2567144.9900000002,"ADDRESS":"忠興１３６之１９號","OBJECTID":17427},"geometry":{"x":163701.43999999948,"y":2567144.9900000021}},{"attributes":{"ID":17428,"DIS_CODE":0,"TOWNNAME":"東區","LI":"大同里","LIN":"34鄰","STREET":"大同路","SECT":"一段","MAREA":" ","LANE":"１７５巷","ALLEY":"１１６弄","HOUSE_NO":"５６號","E_COORD97":169311.51000000001,"N_COORD97":2542617.1600000001,"ADDRESS":"大同路一段１７５巷１１６弄５６號","OBJECTID":17428},"geometry":{"x":169311.51000000164,"y":2542617.160000002}},{"attributes":{"ID":17429,"DIS_CODE":0,"TOWNNAME":"將軍區","LI":"忠興里","LIN":"14鄰","STREET":" ","SECT":" ","MAREA":"忠興","LANE":" ","ALLEY":" ","HOUSE_NO":"１３６之１號","E_COORD97":163672.67999999999,"N_COORD97":2567083.79,"ADDRESS":"忠興１３６之１號","OBJECTID":17429},"geometry":{"x":163672.68000000063,"y":2567083.790000001}},{"attributes":{"ID":17430,"DIS_CODE":0,"TOWNNAME":"將軍區","LI":"忠興里","LIN":"14鄰","STREET":" ","SECT":" ","MAREA":"忠興","LANE":" ","ALLEY":" ","HOUSE_NO":"１３６之２０號","E_COORD97":163684.48999999999,"N_COORD97":2567139.1699999999,"ADDRESS":"忠興１３６之２０號","OBJECTID":17430},"geometry":{"x":163684.49000000115,"y":2567139.1700000018}},{"attributes":{"ID":17431,"DIS_CODE":0,"TOWNNAME":"將軍區","LI":"忠興里","LIN":"14鄰","STREET":" ","SECT":" ","MAREA":"忠興","LANE":" ","ALLEY":" ","HOUSE_NO":"１３６之２１號","E_COORD97":163686.59,"N_COORD97":2567129.1200000001,"ADDRESS":"忠興１３６之２１號","OBJECTID":17431},"geometry":{"x":163686.59000000078,"y":2567129.120000001}},{"attributes":{"ID":17432,"DIS_CODE":0,"TOWNNAME":"將軍區","LI":"忠興里","LIN":"14鄰","STREET":" ","SECT":" ","MAREA":"忠興","LANE":" ","ALLEY":" ","HOUSE_NO":"１３６之２２號","E_COORD97":163688.64999999999,"N_COORD97":2567115.2799999998,"ADDRESS":"忠興１３６之２２號","OBJECTID":17432},"geometry":{"x":163688.6500000013,"y":2567115.2799999993}},{"attributes":{"ID":17433,"DIS_CODE":0,"TOWNNAME":"將軍區","LI":"忠興里","LIN":"14鄰","STREET":" ","SECT":" ","MAREA":"忠興","LANE":" ","ALLEY":" ","HOUSE_NO":"１３６之２３號","E_COORD97":163689.91,"N_COORD97":2567109.9199999999,"ADDRESS":"忠興１３６之２３號","OBJECTID":17433},"geometry":{"x":163689.91000000108,"y":2567109.9200000037}},{"attributes":{"ID":17434,"DIS_CODE":0,"TOWNNAME":"將軍區","LI":"忠興里","LIN":"14鄰","STREET":" ","SECT":" ","MAREA":"忠興","LANE":" ","ALLEY":" ","HOUSE_NO":"１３６之２５號","E_COORD97":163692.26999999999,"N_COORD97":2567097.52,"ADDRESS":"忠興１３６之２５號","OBJECTID":17434},"geometry":{"x":163692.27000000048,"y":2567097.5199999996}},{"attributes":{"ID":17435,"DIS_CODE":0,"TOWNNAME":"將軍區","LI":"忠興里","LIN":"14鄰","STREET":" ","SECT":" ","MAREA":"忠興","LANE":" ","ALLEY":" ","HOUSE_NO":"１３６之２６號","E_COORD97":163670.26999999999,"N_COORD97":2567095.2400000002,"ADDRESS":"忠興１３６之２６號","OBJECTID":17435},"geometry":{"x":163670.27000000048,"y":2567095.2400000021}},{"attributes":{"ID":17436,"DIS_CODE":0,"TOWNNAME":"將軍區","LI":"忠興里","LIN":"14鄰","STREET":" ","SECT":" ","MAREA":"忠興","LANE":" ","ALLEY":" ","HOUSE_NO":"１３６之２７號","E_COORD97":163669.42999999999,"N_COORD97":2567105.3599999999,"ADDRESS":"忠興１３６之２７號","OBJECTID":17436},"geometry":{"x":163669.43000000063,"y":2567105.3599999994}},{"attributes":{"ID":17437,"DIS_CODE":0,"TOWNNAME":"將軍區","LI":"忠興里","LIN":"14鄰","STREET":" ","SECT":" ","MAREA":"忠興","LANE":" ","ALLEY":" ","HOUSE_NO":"１３６之２８號","E_COORD97":163668.76999999999,"N_COORD97":2567114.8399999999,"ADDRESS":"忠興１３６之２８號","OBJECTID":17437},"geometry":{"x":163668.76999999955,"y":2567114.8400000017}},{"attributes":{"ID":17438,"DIS_CODE":0,"TOWNNAME":"將軍區","LI":"忠興里","LIN":"14鄰","STREET":" ","SECT":" ","MAREA":"忠興","LANE":" ","ALLEY":" ","HOUSE_NO":"１３６之２９號","E_COORD97":163668.13,"N_COORD97":2567124.4199999999,"ADDRESS":"忠興１３６之２９號","OBJECTID":17438},"geometry":{"x":163668.13000000082,"y":2567124.4200000018}},{"attributes":{"ID":17439,"DIS_CODE":0,"TOWNNAME":"將軍區","LI":"忠興里","LIN":"14鄰","STREET":" ","SECT":" ","MAREA":"忠興","LANE":" ","ALLEY":" ","HOUSE_NO":"１３６之２號","E_COORD97":163676.89999999999,"N_COORD97":2567085.1800000002,"ADDRESS":"忠興１３６之２號","OBJECTID":17439},"geometry":{"x":163676.9000000013,"y":2567085.1800000016}},{"attributes":{"ID":17440,"DIS_CODE":0,"TOWNNAME":"將軍區","LI":"忠興里","LIN":"14鄰","STREET":" ","SECT":" ","MAREA":"忠興","LANE":" ","ALLEY":" ","HOUSE_NO":"１３６之３０號","E_COORD97":163668.23999999999,"N_COORD97":2567137.1200000001,"ADDRESS":"忠興１３６之３０號","OBJECTID":17440},"geometry":{"x":163668.24000000022,"y":2567137.1200000029}},{"attributes":{"ID":17441,"DIS_CODE":0,"TOWNNAME":"將軍區","LI":"忠興里","LIN":"14鄰","STREET":" ","SECT":" ","MAREA":"忠興","LANE":" ","ALLEY":" ","HOUSE_NO":"１３６之３號","E_COORD97":163680.98999999999,"N_COORD97":2567085.5800000001,"ADDRESS":"忠興１３６之３號","OBJECTID":17441},"geometry":{"x":163680.99000000115,"y":2567085.5800000019}},{"attributes":{"ID":17442,"DIS_CODE":0,"TOWNNAME":"東區","LI":"大同里","LIN":"34鄰","STREET":"大同路","SECT":"一段","MAREA":" ","LANE":"１７５巷","ALLEY":"１１６弄","HOUSE_NO":"５８號","E_COORD97":169305.70999999999,"N_COORD97":2542613.6800000002,"ADDRESS":"大同路一段１７５巷１１６弄５８號","OBJECTID":17442},"geometry":{"x":169305.71000000089,"y":2542613.6800000016}},{"attributes":{"ID":17443,"DIS_CODE":0,"TOWNNAME":"東區","LI":"大同里","LIN":"34鄰","STREET":"大同路","SECT":"一段","MAREA":" ","LANE":"１７５巷","ALLEY":"１１６弄","HOUSE_NO":"５號","E_COORD97":169348.79999999999,"N_COORD97":2542652.4399999999,"ADDRESS":"大同路一段１７５巷１１６弄５號","OBJECTID":17443},"geometry":{"x":169348.80000000075,"y":2542652.4400000013}},{"attributes":{"ID":17444,"DIS_CODE":0,"TOWNNAME":"將軍區","LI":"忠興里","LIN":"14鄰","STREET":" ","SECT":" ","MAREA":"忠興","LANE":" ","ALLEY":" ","HOUSE_NO":"１３６之４號","E_COORD97":163685.60000000001,"N_COORD97":2567086.6299999999,"ADDRESS":"忠興１３６之４號","OBJECTID":17444},"geometry":{"x":163685.59999999963,"y":2567086.629999999}},{"attributes":{"ID":17445,"DIS_CODE":0,"TOWNNAME":"東區","LI":"大同里","LIN":"34鄰","STREET":"大同路","SECT":"一段","MAREA":" ","LANE":"１７５巷","ALLEY":"１１６弄","HOUSE_NO":"５號之１","E_COORD97":169344.01999999999,"N_COORD97":2542646.9300000002,"ADDRESS":"大同路一段１７５巷１１６弄５號之１","OBJECTID":17445},"geometry":{"x":169344.02000000048,"y":2542646.9299999997}},{"attributes":{"ID":17446,"DIS_CODE":0,"TOWNNAME":"將軍區","LI":"忠興里","LIN":"14鄰","STREET":" ","SECT":" ","MAREA":"忠興","LANE":" ","ALLEY":" ","HOUSE_NO":"１３６之５號","E_COORD97":163693.01999999999,"N_COORD97":2567089,"ADDRESS":"忠興１３６之５號","OBJECTID":17446},"geometry":{"x":163693.01999999955,"y":2567089.0000000037}},{"attributes":{"ID":17447,"DIS_CODE":0,"TOWNNAME":"將軍區","LI":"忠興里","LIN":"14鄰","STREET":" ","SECT":" ","MAREA":"忠興","LANE":" ","ALLEY":" ","HOUSE_NO":"１３６之６號","E_COORD97":163700.10000000001,"N_COORD97":2567089.7000000002,"ADDRESS":"忠興１３６之６號","OBJECTID":17447},"geometry":{"x":163700.10000000056,"y":2567089.6999999993}},{"attributes":{"ID":17448,"DIS_CODE":0,"TOWNNAME":"將軍區","LI":"忠興里","LIN":"14鄰","STREET":" ","SECT":" ","MAREA":"忠興","LANE":" ","ALLEY":" ","HOUSE_NO":"１３６之７號","E_COORD97":163714.51000000001,"N_COORD97":2567083.8300000001,"ADDRESS":"忠興１３６之７號","OBJECTID":17448},"geometry":{"x":163714.51000000071,"y":2567083.8300000019}},{"attributes":{"ID":17449,"DIS_CODE":0,"TOWNNAME":"將軍區","LI":"忠興里","LIN":"14鄰","STREET":" ","SECT":" ","MAREA":"忠興","LANE":" ","ALLEY":" ","HOUSE_NO":"１３６之８號","E_COORD97":163713.01000000001,"N_COORD97":2567088.98,"ADDRESS":"忠興１３６之８號","OBJECTID":17449},"geometry":{"x":163713.01000000071,"y":2567088.9800000004}},{"attributes":{"ID":17450,"DIS_CODE":0,"TOWNNAME":"東區","LI":"大同里","LIN":"34鄰","STREET":"大同路","SECT":"一段","MAREA":" ","LANE":"１７５巷","ALLEY":"１１６弄","HOUSE_NO":"６０號","E_COORD97":169300.76999999999,"N_COORD97":2542609.1899999999,"ADDRESS":"大同路一段１７５巷１１６弄６０號","OBJECTID":17450},"geometry":{"x":169300.76999999955,"y":2542609.1900000013}},{"attributes":{"ID":17451,"DIS_CODE":0,"TOWNNAME":"歸仁區","LI":"許厝里","LIN":"24鄰","STREET":"大仁街","SECT":" ","MAREA":" ","LANE":" ","ALLEY":" ","HOUSE_NO":"１４６號","E_COORD97":178216.76999999999,"N_COORD97":2541037.1099999999,"ADDRESS":"大仁街１４６號","OBJECTID":17451},"geometry":{"x":178216.77000000048,"y":2541037.1100000013}},{"attributes":{"ID":17452,"DIS_CODE":0,"TOWNNAME":"將軍區","LI":"忠興里","LIN":"14鄰","STREET":" ","SECT":" ","MAREA":"忠興","LANE":" ","ALLEY":" ","HOUSE_NO":"１３６之９號","E_COORD97":163712.12,"N_COORD97":2567094.6000000001,"ADDRESS":"忠興１３６之９號","OBJECTID":17452},"geometry":{"x":163712.12000000104,"y":2567094.6000000034}},{"attributes":{"ID":17453,"DIS_CODE":0,"TOWNNAME":"學甲區","LI":"新達里","LIN":"24鄰","STREET":" ","SECT":" ","MAREA":"瓦寮","LANE":" ","ALLEY":" ","HOUSE_NO":"１０號","E_COORD97":169490.60999999999,"N_COORD97":2570440.04,"ADDRESS":"瓦寮１０號","OBJECTID":17453},"geometry":{"x":169490.61000000034,"y":2570440.0399999991}},{"attributes":{"ID":17454,"DIS_CODE":0,"TOWNNAME":"學甲區","LI":"新達里","LIN":"24鄰","STREET":" ","SECT":" ","MAREA":"瓦寮","LANE":" ","ALLEY":" ","HOUSE_NO":"１１號","E_COORD97":169470.07999999999,"N_COORD97":2570454.0499999998,"ADDRESS":"瓦寮１１號","OBJECTID":17454},"geometry":{"x":169470.08000000007,"y":2570454.0500000026}},{"attributes":{"ID":17455,"DIS_CODE":0,"TOWNNAME":"東區","LI":"大同里","LIN":"34鄰","STREET":"大同路","SECT":"一段","MAREA":" ","LANE":"１７５巷","ALLEY":"１１６弄","HOUSE_NO":"６２號","E_COORD97":169306,"N_COORD97":2542600.0600000001,"ADDRESS":"大同路一段１７５巷１１６弄６２號","OBJECTID":17455},"geometry":{"x":169306,"y":2542600.0600000005}},{"attributes":{"ID":17456,"DIS_CODE":0,"TOWNNAME":"玉井區","LI":"玉田里","LIN":"24鄰","STREET":"新興街","SECT":" ","MAREA":" ","LANE":" ","ALLEY":" ","HOUSE_NO":"２３號","E_COORD97":195065,"N_COORD97":2557852.2400000002,"ADDRESS":"新興街２３號","OBJECTID":17456},"geometry":{"x":195064.99999999907,"y":2557852.2400000039}},{"attributes":{"ID":17457,"DIS_CODE":0,"TOWNNAME":"東區","LI":"大同里","LIN":"34鄰","STREET":"大同路","SECT":"一段","MAREA":" ","LANE":"１７５巷","ALLEY":"１１６弄","HOUSE_NO":"６４號","E_COORD97":169311.79999999999,"N_COORD97":2542603.9700000002,"ADDRESS":"大同路一段１７５巷１１６弄６４號","OBJECTID":17457},"geometry":{"x":169311.80000000075,"y":2542603.9700000007}},{"attributes":{"ID":17458,"DIS_CODE":0,"TOWNNAME":"東區","LI":"和平里","LIN":"20鄰","STREET":"文化路","SECT":" ","MAREA":" ","LANE":" ","ALLEY":" ","HOUSE_NO":"７號","E_COORD97":171124.23999999999,"N_COORD97":2541931.3999999999,"ADDRESS":"文化路７號","OBJECTID":17458},"geometry":{"x":171124.24000000209,"y":2541931.4000000022}},{"attributes":{"ID":17459,"DIS_CODE":0,"TOWNNAME":"東區","LI":"和平里","LIN":"20鄰","STREET":"文化路","SECT":" ","MAREA":" ","LANE":" ","ALLEY":" ","HOUSE_NO":"１１號","E_COORD97":171132.76000000001,"N_COORD97":2541935.5699999998,"ADDRESS":"文化路１１號","OBJECTID":17459},"geometry":{"x":171132.76000000071,"y":2541935.570000004}},{"attributes":{"ID":17460,"DIS_CODE":0,"TOWNNAME":"東區","LI":"大同里","LIN":"34鄰","STREET":"大同路","SECT":"一段","MAREA":" ","LANE":"１７５巷","ALLEY":"１１６弄","HOUSE_NO":"６６號","E_COORD97":169317.89000000001,"N_COORD97":2542607.7400000002,"ADDRESS":"大同路一段１７５巷１１６弄６６號","OBJECTID":17460},"geometry":{"x":169317.8900000006,"y":2542607.7400000002}},{"attributes":{"ID":17461,"DIS_CODE":0,"TOWNNAME":"東區","LI":"大同里","LIN":"34鄰","STREET":"大同路","SECT":"一段","MAREA":" ","LANE":"１７５巷","ALLEY":"１１６弄","HOUSE_NO":"６８號","E_COORD97":169323.98000000001,"N_COORD97":2542612.6600000001,"ADDRESS":"大同路一段１７５巷１１６弄６８號","OBJECTID":17461},"geometry":{"x":169323.98000000045,"y":2542612.6599999983}},{"attributes":{"ID":17462,"DIS_CODE":0,"TOWNNAME":"東區","LI":"大同里","LIN":"34鄰","STREET":"大同路","SECT":"一段","MAREA":" ","LANE":"１７５巷","ALLEY":"１１６弄","HOUSE_NO":"７號","E_COORD97":169338.51000000001,"N_COORD97":2542644.7599999998,"ADDRESS":"大同路一段１７５巷１１６弄７號","OBJECTID":17462},"geometry":{"x":169338.50999999885,"y":2542644.7599999998}},{"attributes":{"ID":17463,"DIS_CODE":0,"TOWNNAME":"東區","LI":"大同里","LIN":"34鄰","STREET":"大同路","SECT":"一段","MAREA":" ","LANE":"１７５巷","ALLEY":"１１６弄","HOUSE_NO":"９號","E_COORD97":169332.70000000001,"N_COORD97":2542640.1200000001,"ADDRESS":"大同路一段１７５巷１１６弄９號","OBJECTID":17463},"geometry":{"x":169332.70000000205,"y":2542640.120000001}},{"attributes":{"ID":17464,"DIS_CODE":0,"TOWNNAME":"東區","LI":"大同里","LIN":"34鄰","STREET":"大同路","SECT":"一段","MAREA":" ","LANE":"１７５巷","ALLEY":"１３２弄","HOUSE_NO":"１０號","E_COORD97":169355.76999999999,"N_COORD97":2542625.0499999998,"ADDRESS":"大同路一段１７５巷１３２弄１０號","OBJECTID":17464},"geometry":{"x":169355.77000000048,"y":2542625.0500000026}},{"attributes":{"ID":17465,"DIS_CODE":0,"TOWNNAME":"東區","LI":"大同里","LIN":"34鄰","STREET":"大同路","SECT":"一段","MAREA":" ","LANE":"１７５巷","ALLEY":"１３２弄","HOUSE_NO":"１２號","E_COORD97":169352.29000000001,"N_COORD97":2542622.1499999999,"ADDRESS":"大同路一段１７５巷１３２弄１２號","OBJECTID":17465},"geometry":{"x":169352.2900000019,"y":2542622.1500000004}},{"attributes":{"ID":17466,"DIS_CODE":0,"TOWNNAME":"東區","LI":"大同里","LIN":"34鄰","STREET":"大同路","SECT":"一段","MAREA":" ","LANE":"１７５巷","ALLEY":"１３２弄","HOUSE_NO":"１４號","E_COORD97":169347.06,"N_COORD97":2542620.5600000001,"ADDRESS":"大同路一段１７５巷１３２弄１４號","OBJECTID":17466},"geometry":{"x":169347.06000000052,"y":2542620.5599999987}},{"attributes":{"ID":17467,"DIS_CODE":0,"TOWNNAME":"東區","LI":"大同里","LIN":"34鄰","STREET":"大同路","SECT":"一段","MAREA":" ","LANE":"１７５巷","ALLEY":"１３２弄","HOUSE_NO":"１６號","E_COORD97":169343.29000000001,"N_COORD97":2542617.3700000001,"ADDRESS":"大同路一段１７５巷１３２弄１６號","OBJECTID":17467},"geometry":{"x":169343.29000000004,"y":2542617.3700000029}},{"attributes":{"ID":17468,"DIS_CODE":0,"TOWNNAME":"東區","LI":"大同里","LIN":"34鄰","STREET":"大同路","SECT":"一段","MAREA":" ","LANE":"１７５巷","ALLEY":"１３２弄","HOUSE_NO":"１８號","E_COORD97":169339.81,"N_COORD97":2542615.1899999999,"ADDRESS":"大同路一段１７５巷１３２弄１８號","OBJECTID":17468},"geometry":{"x":169339.81000000145,"y":2542615.1899999976}},{"attributes":{"ID":17469,"DIS_CODE":0,"TOWNNAME":"東區","LI":"大同里","LIN":"34鄰","STREET":"大同路","SECT":"一段","MAREA":" ","LANE":"１７５巷","ALLEY":"１３２弄","HOUSE_NO":"２０號","E_COORD97":169335.32000000001,"N_COORD97":2542613.8900000001,"ADDRESS":"大同路一段１７５巷１３２弄２０號","OBJECTID":17469},"geometry":{"x":169335.32000000216,"y":2542613.8900000006}},{"attributes":{"ID":17470,"DIS_CODE":0,"TOWNNAME":"東區","LI":"和平里","LIN":"20鄰","STREET":"文化路","SECT":" ","MAREA":" ","LANE":" ","ALLEY":" ","HOUSE_NO":"１３號","E_COORD97":171137.91,"N_COORD97":2541936.3900000001,"ADDRESS":"文化路１３號","OBJECTID":17470},"geometry":{"x":171137.91000000015,"y":2541936.3900000006}},{"attributes":{"ID":17471,"DIS_CODE":0,"TOWNNAME":"東區","LI":"大同里","LIN":"34鄰","STREET":"大同路","SECT":"一段","MAREA":" ","LANE":"１７５巷","ALLEY":"１３２弄","HOUSE_NO":"２２號","E_COORD97":169328.92000000001,"N_COORD97":2542605.71,"ADDRESS":"大同路一段１７５巷１３２弄２２號","OBJECTID":17471},"geometry":{"x":169328.91999999993,"y":2542605.7100000009}},{"attributes":{"ID":17472,"DIS_CODE":0,"TOWNNAME":"東區","LI":"大同里","LIN":"34鄰","STREET":"大同路","SECT":"一段","MAREA":" ","LANE":"１７５巷","ALLEY":"１３２弄","HOUSE_NO":"２４號","E_COORD97":169322.98000000001,"N_COORD97":2542601.3599999999,"ADDRESS":"大同路一段１７５巷１３２弄２４號","OBJECTID":17472},"geometry":{"x":169322.98000000138,"y":2542601.3600000013}},{"attributes":{"ID":17473,"DIS_CODE":0,"TOWNNAME":"將軍區","LI":"忠興里","LIN":"14鄰","STREET":" ","SECT":" ","MAREA":"忠興","LANE":" ","ALLEY":" ","HOUSE_NO":"１３６號","E_COORD97":163665.17999999999,"N_COORD97":2567110.0600000001,"ADDRESS":"忠興１３６號","OBJECTID":17473},"geometry":{"x":163665.17999999877,"y":2567110.0600000024}},{"attributes":{"ID":17474,"DIS_CODE":0,"TOWNNAME":"將軍區","LI":"忠興里","LIN":"14鄰","STREET":" ","SECT":" ","MAREA":"忠興","LANE":" ","ALLEY":" ","HOUSE_NO":"１３７之１號","E_COORD97":163651.32999999999,"N_COORD97":2567078.3300000001,"ADDRESS":"忠興１３７之１號","OBJECTID":17474},"geometry":{"x":163651.33000000101,"y":2567078.3300000019}},{"attributes":{"ID":17475,"DIS_CODE":0,"TOWNNAME":"將軍區","LI":"忠興里","LIN":"14鄰","STREET":" ","SECT":" ","MAREA":"忠興","LANE":" ","ALLEY":" ","HOUSE_NO":"１３７之２號","E_COORD97":163626.57000000001,"N_COORD97":2567140.29,"ADDRESS":"忠興１３７之２號","OBJECTID":17475},"geometry":{"x":163626.57000000123,"y":2567140.2900000028}},{"attributes":{"ID":17476,"DIS_CODE":0,"TOWNNAME":"將軍區","LI":"忠興里","LIN":"14鄰","STREET":" ","SECT":" ","MAREA":"忠興","LANE":" ","ALLEY":" ","HOUSE_NO":"１３８之１號","E_COORD97":163638.23000000001,"N_COORD97":2567075.7200000002,"ADDRESS":"忠興１３８之１號","OBJECTID":17476},"geometry":{"x":163638.23000000045,"y":2567075.7200000025}},{"attributes":{"ID":17477,"DIS_CODE":0,"TOWNNAME":"將軍區","LI":"忠興里","LIN":"14鄰","STREET":" ","SECT":" ","MAREA":"忠興","LANE":" ","ALLEY":" ","HOUSE_NO":"１３８號","E_COORD97":163659.42999999999,"N_COORD97":2567140.4300000002,"ADDRESS":"忠興１３８號","OBJECTID":17477},"geometry":{"x":163659.4299999997,"y":2567140.4300000016}},{"attributes":{"ID":17478,"DIS_CODE":0,"TOWNNAME":"將軍區","LI":"忠興里","LIN":"14鄰","STREET":" ","SECT":" ","MAREA":"忠興","LANE":" ","ALLEY":" ","HOUSE_NO":"１３９號","E_COORD97":163603.38,"N_COORD97":2567078.27,"ADDRESS":"忠興１３９號","OBJECTID":17478},"geometry":{"x":163603.38000000082,"y":2567078.2699999996}},{"attributes":{"ID":17479,"DIS_CODE":0,"TOWNNAME":"將軍區","LI":"忠興里","LIN":"14鄰","STREET":" ","SECT":" ","MAREA":"忠興","LANE":" ","ALLEY":" ","HOUSE_NO":"１４０號","E_COORD97":163624.51999999999,"N_COORD97":2567071.3199999998,"ADDRESS":"忠興１４０號","OBJECTID":17479},"geometry":{"x":163624.52000000048,"y":2567071.3200000022}},{"attributes":{"ID":17480,"DIS_CODE":0,"TOWNNAME":"將軍區","LI":"忠興里","LIN":"14鄰","STREET":" ","SECT":" ","MAREA":"忠興","LANE":" ","ALLEY":" ","HOUSE_NO":"１４１之１０號","E_COORD97":163568.39999999999,"N_COORD97":2567154.7999999998,"ADDRESS":"忠興１４１之１０號","OBJECTID":17480},"geometry":{"x":163568.4000000013,"y":2567154.8000000007}},{"attributes":{"ID":17481,"DIS_CODE":0,"TOWNNAME":"東區","LI":"大同里","LIN":"34鄰","STREET":"大同路","SECT":"一段","MAREA":" ","LANE":"１７５巷","ALLEY":"１３２弄","HOUSE_NO":"２６號","E_COORD97":169316.01000000001,"N_COORD97":2542598.1699999999,"ADDRESS":"大同路一段１７５巷１３２弄２６號","OBJECTID":17481},"geometry":{"x":169316.00999999978,"y":2542598.1699999999}},{"attributes":{"ID":17482,"DIS_CODE":0,"TOWNNAME":"東區","LI":"大同里","LIN":"34鄰","STREET":"大同路","SECT":"一段","MAREA":" ","LANE":"１７５巷","ALLEY":"１３２弄","HOUSE_NO":"２８號","E_COORD97":169310.35999999999,"N_COORD97":2542593.6800000002,"ADDRESS":"大同路一段１７５巷１３２弄２８號","OBJECTID":17482},"geometry":{"x":169310.36000000127,"y":2542593.6799999997}},{"attributes":{"ID":17483,"DIS_CODE":0,"TOWNNAME":"東區","LI":"大同里","LIN":"34鄰","STREET":"大同路","SECT":"一段","MAREA":" ","LANE":"１７５巷","ALLEY":"１３２弄","HOUSE_NO":"２號","E_COORD97":169376.35999999999,"N_COORD97":2542637.3700000001,"ADDRESS":"大同路一段１７５巷１３２弄２號","OBJECTID":17483},"geometry":{"x":169376.36000000127,"y":2542637.3700000029}},{"attributes":{"ID":17484,"DIS_CODE":0,"TOWNNAME":"東區","LI":"大同里","LIN":"34鄰","STREET":"大同路","SECT":"一段","MAREA":" ","LANE":"１７５巷","ALLEY":"１３２弄","HOUSE_NO":"４號","E_COORD97":169371.14000000001,"N_COORD97":2542634.1800000002,"ADDRESS":"大同路一段１７５巷１３２弄４號","OBJECTID":17484},"geometry":{"x":169371.13999999966,"y":2542634.1800000016}},{"attributes":{"ID":17485,"DIS_CODE":0,"TOWNNAME":"東區","LI":"大同里","LIN":"34鄰","STREET":"大同路","SECT":"一段","MAREA":" ","LANE":"１７５巷","ALLEY":"１３２弄","HOUSE_NO":"６號","E_COORD97":169365.76999999999,"N_COORD97":2542630.4100000001,"ADDRESS":"大同路一段１７５巷１３２弄６號","OBJECTID":17485},"geometry":{"x":169365.77000000048,"y":2542630.4100000001}},{"attributes":{"ID":17486,"DIS_CODE":0,"TOWNNAME":"東區","LI":"大同里","LIN":"34鄰","STREET":"大同路","SECT":"一段","MAREA":" ","LANE":"１７５巷","ALLEY":"１３２弄","HOUSE_NO":"８號","E_COORD97":169359.54000000001,"N_COORD97":2542628.96,"ADDRESS":"大同路一段１７５巷１３２弄８號","OBJECTID":17486},"geometry":{"x":169359.54000000097,"y":2542628.9600000028}},{"attributes":{"ID":17487,"DIS_CODE":0,"TOWNNAME":"東區","LI":"大同里","LIN":"34鄰","STREET":"大同路","SECT":"一段","MAREA":" ","LANE":"１７５巷","ALLEY":"１１６弄","HOUSE_NO":"１０號","E_COORD97":169335.31,"N_COORD97":2542659.54,"ADDRESS":"大同路一段１７５巷１１６弄１０號","OBJECTID":17487},"geometry":{"x":169335.31000000052,"y":2542659.5399999991}},{"attributes":{"ID":17488,"DIS_CODE":0,"TOWNNAME":"東區","LI":"大同里","LIN":"34鄰","STREET":"大同路","SECT":"一段","MAREA":" ","LANE":"１７５巷","ALLEY":"１１６弄","HOUSE_NO":"１２號","E_COORD97":169328.78,"N_COORD97":2542655.0499999998,"ADDRESS":"大同路一段１７５巷１１６弄１２號","OBJECTID":17488},"geometry":{"x":169328.78000000212,"y":2542655.0500000045}},{"attributes":{"ID":17489,"DIS_CODE":0,"TOWNNAME":"東區","LI":"大同里","LIN":"34鄰","STREET":"大同路","SECT":"一段","MAREA":" ","LANE":"１７５巷","ALLEY":"１１６弄","HOUSE_NO":"１４號","E_COORD97":169325.88,"N_COORD97":2542653.02,"ADDRESS":"大同路一段１７５巷１１６弄１４號","OBJECTID":17489},"geometry":{"x":169325.87999999989,"y":2542653.0199999996}},{"attributes":{"ID":17490,"DIS_CODE":0,"TOWNNAME":"東區","LI":"大同里","LIN":"34鄰","STREET":"大同路","SECT":"一段","MAREA":" ","LANE":"１７５巷","ALLEY":"１１６弄","HOUSE_NO":"１６號","E_COORD97":169322.98000000001,"N_COORD97":2542650.7000000002,"ADDRESS":"大同路一段１７５巷１１６弄１６號","OBJECTID":17490},"geometry":{"x":169322.98000000138,"y":2542650.6999999993}},{"attributes":{"ID":17491,"DIS_CODE":0,"TOWNNAME":"歸仁區","LI":"南興里","LIN":"24鄰","STREET":"南興街","SECT":" ","MAREA":" ","LANE":" ","ALLEY":" ","HOUSE_NO":"２８２號","E_COORD97":175541.39000000001,"N_COORD97":2541333.25,"ADDRESS":"南興街２８２號","OBJECTID":17491},"geometry":{"x":175541.38999999966,"y":2541333.25}},{"attributes":{"ID":17492,"DIS_CODE":0,"TOWNNAME":"歸仁區","LI":"南興里","LIN":"24鄰","STREET":"文化二十街","SECT":" ","MAREA":" ","LANE":" ","ALLEY":" ","HOUSE_NO":"１０２號","E_COORD97":175491.54000000001,"N_COORD97":2541324.3300000001,"ADDRESS":"文化二十街１０２號","OBJECTID":17492},"geometry":{"x":175491.54000000004,"y":2541324.3300000019}},{"attributes":{"ID":17493,"DIS_CODE":0,"TOWNNAME":"歸仁區","LI":"六甲里","LIN":"24鄰","STREET":"中正十八街","SECT":" ","MAREA":" ","LANE":" ","ALLEY":" ","HOUSE_NO":"４２號","E_COORD97":176314.334634,"N_COORD97":2539586.06874,"ADDRESS":"中正十八街４２號","OBJECTID":17493},"geometry":{"x":176314.33463400044,"y":2539586.0687419996}},{"attributes":{"ID":17494,"DIS_CODE":0,"TOWNNAME":"歸仁區","LI":"六甲里","LIN":"24鄰","STREET":"中正十八街","SECT":" ","MAREA":" ","LANE":" ","ALLEY":" ","HOUSE_NO":"２８號","E_COORD97":176315.39397100001,"N_COORD97":2539635.91622,"ADDRESS":"中正十八街２８號","OBJECTID":17494},"geometry":{"x":176315.39397100173,"y":2539635.9162150025}},{"attributes":{"ID":17495,"DIS_CODE":0,"TOWNNAME":"歸仁區","LI":"南保里","LIN":"24鄰","STREET":"民權六街","SECT":" ","MAREA":" ","LANE":" ","ALLEY":" ","HOUSE_NO":"６７號","E_COORD97":176813.79000000001,"N_COORD97":2541100.29,"ADDRESS":"民權六街６７號","OBJECTID":17495},"geometry":{"x":176813.79000000004,"y":2541100.290000001}},{"attributes":{"ID":17496,"DIS_CODE":0,"TOWNNAME":"歸仁區","LI":"南保里","LIN":"24鄰","STREET":"民權六街","SECT":" ","MAREA":" ","LANE":" ","ALLEY":" ","HOUSE_NO":"７３號","E_COORD97":176801.48999999999,"N_COORD97":2541102.29,"ADDRESS":"民權六街７３號","OBJECTID":17496},"geometry":{"x":176801.49000000209,"y":2541102.2900000028}},{"attributes":{"ID":17497,"DIS_CODE":0,"TOWNNAME":"歸仁區","LI":"南保里","LIN":"24鄰","STREET":"民權六街","SECT":" ","MAREA":" ","LANE":" ","ALLEY":" ","HOUSE_NO":"７８號","E_COORD97":176794.39000000001,"N_COORD97":2541116.29,"ADDRESS":"民權六街７８號","OBJECTID":17497},"geometry":{"x":176794.38999999966,"y":2541116.290000001}},{"attributes":{"ID":17498,"DIS_CODE":0,"TOWNNAME":"將軍區","LI":"忠興里","LIN":"14鄰","STREET":" ","SECT":" ","MAREA":"忠興","LANE":" ","ALLEY":" ","HOUSE_NO":"１４１之１１號","E_COORD97":163568.98000000001,"N_COORD97":2567150.1200000001,"ADDRESS":"忠興１４１之１１號","OBJECTID":17498},"geometry":{"x":163568.97999999952,"y":2567150.1199999992}},{"attributes":{"ID":17499,"DIS_CODE":0,"TOWNNAME":"將軍區","LI":"苓和里","LIN":"14鄰","STREET":" ","SECT":" ","MAREA":"忠寮","LANE":" ","ALLEY":" ","HOUSE_NO":"１７號","E_COORD97":164209.57000000001,"N_COORD97":2569169.6499999999,"ADDRESS":"忠寮１７號","OBJECTID":17499},"geometry":{"x":164209.57000000123,"y":2569169.6500000004}},{"attributes":{"ID":17500,"DIS_CODE":0,"TOWNNAME":"歸仁區","LI":"八甲里","LIN":"24鄰","STREET":"大德路","SECT":" ","MAREA":" ","LANE":" ","ALLEY":" ","HOUSE_NO":"１３２號","E_COORD97":178055.19,"N_COORD97":2541365.25,"ADDRESS":"大德路１３２號","OBJECTID":17500},"geometry":{"x":178055.19000000134,"y":2541365.2500000019}},{"attributes":{"ID":17501,"DIS_CODE":0,"TOWNNAME":"歸仁區","LI":"大廟里","LIN":"24鄰","STREET":"大廟一街","SECT":" ","MAREA":" ","LANE":" ","ALLEY":" ","HOUSE_NO":"２０６號","E_COORD97":175597.22,"N_COORD97":2543652.25,"ADDRESS":"大廟一街２０６號","OBJECTID":17501},"geometry":{"x":175597.21999999974,"y":2543652.25}},{"attributes":{"ID":17502,"DIS_CODE":0,"TOWNNAME":"歸仁區","LI":"大廟里","LIN":"24鄰","STREET":"大廟一街","SECT":" ","MAREA":" ","LANE":" ","ALLEY":" ","HOUSE_NO":"２００號","E_COORD97":175594.22,"N_COORD97":2543666.25,"ADDRESS":"大廟一街２００號","OBJECTID":17502},"geometry":{"x":175594.2200000016,"y":2543666.25}},{"attributes":{"ID":17503,"DIS_CODE":0,"TOWNNAME":"學甲區","LI":"秀昌里","LIN":"24鄰","STREET":" ","SECT":" ","MAREA":"煥昌","LANE":" ","ALLEY":" ","HOUSE_NO":"２５號","E_COORD97":166287.76000000001,"N_COORD97":2570942.7000000002,"ADDRESS":"煥昌２５號","OBJECTID":17503},"geometry":{"x":166287.76000000071,"y":2570942.7000000011}},{"attributes":{"ID":17504,"DIS_CODE":0,"TOWNNAME":"學甲區","LI":"秀昌里","LIN":"24鄰","STREET":" ","SECT":" ","MAREA":"煥昌","LANE":" ","ALLEY":" ","HOUSE_NO":"２６號","E_COORD97":166319.91,"N_COORD97":2570933.2799999998,"ADDRESS":"煥昌２６號","OBJECTID":17504},"geometry":{"x":166319.91000000015,"y":2570933.2799999993}},{"attributes":{"ID":17505,"DIS_CODE":0,"TOWNNAME":"學甲區","LI":"秀昌里","LIN":"24鄰","STREET":" ","SECT":" ","MAREA":"煥昌","LANE":" ","ALLEY":" ","HOUSE_NO":"２７號","E_COORD97":166295.70000000001,"N_COORD97":2570966.6800000002,"ADDRESS":"煥昌２７號","OBJECTID":17505},"geometry":{"x":166295.70000000112,"y":2570966.6800000016}},{"attributes":{"ID":17506,"DIS_CODE":0,"TOWNNAME":"學甲區","LI":"秀昌里","LIN":"24鄰","STREET":" ","SECT":" ","MAREA":"煥昌","LANE":" ","ALLEY":" ","HOUSE_NO":"２８號","E_COORD97":166322.97,"N_COORD97":2570966.1699999999,"ADDRESS":"煥昌２８號","OBJECTID":17506},"geometry":{"x":166322.96999999881,"y":2570966.1699999981}},{"attributes":{"ID":17507,"DIS_CODE":0,"TOWNNAME":"學甲區","LI":"光華里","LIN":"24鄰","STREET":" ","SECT":" ","MAREA":"頭港子","LANE":" ","ALLEY":" ","HOUSE_NO":"６８號之１","E_COORD97":163281.73000000001,"N_COORD97":2573388.4399999999,"ADDRESS":"頭港子６８號之１","OBJECTID":17507},"geometry":{"x":163281.73000000138,"y":2573388.4400000032}},{"attributes":{"ID":17508,"DIS_CODE":0,"TOWNNAME":"學甲區","LI":"光華里","LIN":"24鄰","STREET":" ","SECT":" ","MAREA":"頭港子","LANE":" ","ALLEY":" ","HOUSE_NO":"６８號","E_COORD97":163284.57999999999,"N_COORD97":2573409.75,"ADDRESS":"頭港子６８號","OBJECTID":17508},"geometry":{"x":163284.58000000007,"y":2573409.75}},{"attributes":{"ID":17509,"DIS_CODE":0,"TOWNNAME":"學甲區","LI":"光華里","LIN":"24鄰","STREET":" ","SECT":" ","MAREA":"頭港子","LANE":" ","ALLEY":" ","HOUSE_NO":"７２號","E_COORD97":163269.84,"N_COORD97":2573343.5299999998,"ADDRESS":"頭港子７２號","OBJECTID":17509},"geometry":{"x":163269.84000000078,"y":2573343.5300000031}},{"attributes":{"ID":17510,"DIS_CODE":0,"TOWNNAME":"東區","LI":"大同里","LIN":"34鄰","STREET":"大同路","SECT":"一段","MAREA":" ","LANE":"１７５巷","ALLEY":"１１６弄","HOUSE_NO":"１８號","E_COORD97":169318.76999999999,"N_COORD97":2542648.0899999999,"ADDRESS":"大同路一段１７５巷１１６弄１８號","OBJECTID":17510},"geometry":{"x":169318.77000000048,"y":2542648.0900000017}},{"attributes":{"ID":17511,"DIS_CODE":0,"TOWNNAME":"學甲區","LI":"光華里","LIN":"24鄰","STREET":" ","SECT":" ","MAREA":"頭港子","LANE":" ","ALLEY":" ","HOUSE_NO":"７４號","E_COORD97":163241.89000000001,"N_COORD97":2573281.4300000002,"ADDRESS":"頭港子７４號","OBJECTID":17511},"geometry":{"x":163241.8900000006,"y":2573281.4300000016}},{"attributes":{"ID":17512,"DIS_CODE":0,"TOWNNAME":"東區","LI":"大同里","LIN":"34鄰","STREET":"大同路","SECT":"一段","MAREA":" ","LANE":"１７５巷","ALLEY":"１１６弄","HOUSE_NO":"２０號","E_COORD97":169314.85999999999,"N_COORD97":2542645.48,"ADDRESS":"大同路一段１７５巷１１６弄２０號","OBJECTID":17512},"geometry":{"x":169314.8600000022,"y":2542645.4800000023}},{"attributes":{"ID":17513,"DIS_CODE":0,"TOWNNAME":"學甲區","LI":"光華里","LIN":"24鄰","STREET":" ","SECT":" ","MAREA":"頭港子","LANE":" ","ALLEY":" ","HOUSE_NO":"７９號","E_COORD97":163349.14999999999,"N_COORD97":2573399.6499999999,"ADDRESS":"頭港子７９號","OBJECTID":17513},"geometry":{"x":163349.15000000224,"y":2573399.6500000004}},{"attributes":{"ID":17514,"DIS_CODE":0,"TOWNNAME":"東區","LI":"大同里","LIN":"34鄰","STREET":"大同路","SECT":"一段","MAREA":" ","LANE":"１７５巷","ALLEY":"１１６弄","HOUSE_NO":"２４號","E_COORD97":169299.89999999999,"N_COORD97":2542644.1099999999,"ADDRESS":"大同路一段１７５巷１１６弄２４號","OBJECTID":17514},"geometry":{"x":169299.9000000013,"y":2542644.1100000013}},{"attributes":{"ID":17515,"DIS_CODE":0,"TOWNNAME":"東區","LI":"大同里","LIN":"34鄰","STREET":"大同路","SECT":"一段","MAREA":" ","LANE":"１７５巷","ALLEY":"１１６弄","HOUSE_NO":"２６號","E_COORD97":169298.16,"N_COORD97":2542648.3100000001,"ADDRESS":"大同路一段１７５巷１１６弄２６號","OBJECTID":17515},"geometry":{"x":169298.16000000015,"y":2542648.3100000005}},{"attributes":{"ID":17516,"DIS_CODE":0,"TOWNNAME":"學甲區","LI":"光華里","LIN":"24鄰","STREET":" ","SECT":" ","MAREA":"頭港子","LANE":" ","ALLEY":" ","HOUSE_NO":"８０號之１０","E_COORD97":163382.20999999999,"N_COORD97":2573892.3199999998,"ADDRESS":"頭港子８０號之１０","OBJECTID":17516},"geometry":{"x":163382.21000000183,"y":2573892.3200000022}},{"attributes":{"ID":17517,"DIS_CODE":0,"TOWNNAME":"將軍區","LI":"苓和里","LIN":"14鄰","STREET":" ","SECT":" ","MAREA":"忠寮","LANE":" ","ALLEY":" ","HOUSE_NO":"１８號","E_COORD97":164185.20000000001,"N_COORD97":2569171.48,"ADDRESS":"忠寮１８號","OBJECTID":17517},"geometry":{"x":164185.20000000112,"y":2569171.4800000042}},{"attributes":{"ID":17518,"DIS_CODE":0,"TOWNNAME":"東區","LI":"大同里","LIN":"34鄰","STREET":"大同路","SECT":"一段","MAREA":" ","LANE":"１７５巷","ALLEY":"１１６弄","HOUSE_NO":"２８號","E_COORD97":169294.82999999999,"N_COORD97":2542642.52,"ADDRESS":"大同路一段１７５巷１１６弄２８號","OBJECTID":17518},"geometry":{"x":169294.83000000101,"y":2542642.5199999996}},{"attributes":{"ID":17519,"DIS_CODE":0,"TOWNNAME":"將軍區","LI":"苓和里","LIN":"14鄰","STREET":" ","SECT":" ","MAREA":"忠寮","LANE":" ","ALLEY":" ","HOUSE_NO":"１９號","E_COORD97":164154.39000000001,"N_COORD97":2569165.3100000001,"ADDRESS":"忠寮１９號","OBJECTID":17519},"geometry":{"x":164154.3900000006,"y":2569165.3100000005}},{"attributes":{"ID":17520,"DIS_CODE":0,"TOWNNAME":"新營區","LI":"新北里","LIN":"24鄰","STREET":"民生路","SECT":" ","MAREA":" ","LANE":"４２０巷","ALLEY":" ","HOUSE_NO":"４８號","E_COORD97":178921.51000000001,"N_COORD97":2579358.6099999999,"ADDRESS":"民生路４２０巷４８號","OBJECTID":17520},"geometry":{"x":178921.51000000164,"y":2579358.6100000013}},{"attributes":{"ID":17521,"DIS_CODE":0,"TOWNNAME":"將軍區","LI":"忠興里","LIN":"14鄰","STREET":" ","SECT":" ","MAREA":"忠興","LANE":" ","ALLEY":" ","HOUSE_NO":"１３６之１３號","E_COORD97":163706,"N_COORD97":2567116.7799999998,"ADDRESS":"忠興１３６之１３號","OBJECTID":17521},"geometry":{"x":163706.00000000093,"y":2567116.7800000031}},{"attributes":{"ID":17522,"DIS_CODE":0,"TOWNNAME":"新營區","LI":"民生里","LIN":"24鄰","STREET":"民生路","SECT":" ","MAREA":" ","LANE":" ","ALLEY":" ","HOUSE_NO":"１１７號","E_COORD97":179255.29000000001,"N_COORD97":2578544.1499999999,"ADDRESS":"民生路１１７號","OBJECTID":17522},"geometry":{"x":179255.29000000004,"y":2578544.1500000004}},{"attributes":{"ID":17523,"DIS_CODE":0,"TOWNNAME":"將軍區","LI":"忠興里","LIN":"14鄰","STREET":" ","SECT":" ","MAREA":"忠興","LANE":" ","ALLEY":" ","HOUSE_NO":"１３６之１５號","E_COORD97":163705.10999999999,"N_COORD97":2567122.3999999999,"ADDRESS":"忠興１３６之１５號","OBJECTID":17523},"geometry":{"x":163705.11000000034,"y":2567122.4000000004}},{"attributes":{"ID":17524,"DIS_CODE":0,"TOWNNAME":"將軍區","LI":"忠興里","LIN":"14鄰","STREET":" ","SECT":" ","MAREA":"忠興","LANE":" ","ALLEY":" ","HOUSE_NO":"１３６之１６號","E_COORD97":163704.20999999999,"N_COORD97":2567127.9399999999,"ADDRESS":"忠興１３６之１６號","OBJECTID":17524},"geometry":{"x":163704.20999999903,"y":2567127.9399999995}},{"attributes":{"ID":17525,"DIS_CODE":0,"TOWNNAME":"將軍區","LI":"忠興里","LIN":"14鄰","STREET":" ","SECT":" ","MAREA":"忠興","LANE":" ","ALLEY":" ","HOUSE_NO":"１４１號","E_COORD97":163607.64999999999,"N_COORD97":2567108.3300000001,"ADDRESS":"忠興１４１號","OBJECTID":17525},"geometry":{"x":163607.6500000013,"y":2567108.3300000019}},{"attributes":{"ID":17526,"DIS_CODE":0,"TOWNNAME":"將軍區","LI":"嘉昌里","LIN":"14鄰","STREET":" ","SECT":" ","MAREA":"昌平","LANE":" ","ALLEY":" ","HOUSE_NO":"１８號","E_COORD97":163316.62,"N_COORD97":2567352.0800000001,"ADDRESS":"昌平１８號","OBJECTID":17526},"geometry":{"x":163316.62000000011,"y":2567352.0800000001}},{"attributes":{"ID":17527,"DIS_CODE":0,"TOWNNAME":"將軍區","LI":"嘉昌里","LIN":"14鄰","STREET":" ","SECT":" ","MAREA":"昌平","LANE":" ","ALLEY":" ","HOUSE_NO":"２１號","E_COORD97":163321.97,"N_COORD97":2567380.9700000002,"ADDRESS":"昌平２１號","OBJECTID":17527},"geometry":{"x":163321.96999999974,"y":2567380.9700000007}},{"attributes":{"ID":17528,"DIS_CODE":0,"TOWNNAME":"將軍區","LI":"長沙里","LIN":"14鄰","STREET":" ","SECT":" ","MAREA":"長沙","LANE":" ","ALLEY":" ","HOUSE_NO":"１２１號","E_COORD97":157569.60000000001,"N_COORD97":2568470.77,"ADDRESS":"長沙１２１號","OBJECTID":17528},"geometry":{"x":157569.59999999963,"y":2568470.7700000014}},{"attributes":{"ID":17529,"DIS_CODE":0,"TOWNNAME":"學甲區","LI":"光華里","LIN":"24鄰","STREET":" ","SECT":" ","MAREA":"頭港子","LANE":" ","ALLEY":" ","HOUSE_NO":"８０號之１６","E_COORD97":163241.81,"N_COORD97":2573840.1600000001,"ADDRESS":"頭港子８０號之１６","OBJECTID":17529},"geometry":{"x":163241.80999999959,"y":2573840.1600000001}},{"attributes":{"ID":17530,"DIS_CODE":0,"TOWNNAME":"學甲區","LI":"光華里","LIN":"24鄰","STREET":" ","SECT":" ","MAREA":"頭港子","LANE":" ","ALLEY":" ","HOUSE_NO":"８０號之１７","E_COORD97":163068.01999999999,"N_COORD97":2573882.7200000002,"ADDRESS":"頭港子８０號之１７","OBJECTID":17530},"geometry":{"x":163068.02000000048,"y":2573882.7200000044}},{"attributes":{"ID":17531,"DIS_CODE":0,"TOWNNAME":"學甲區","LI":"光華里","LIN":"24鄰","STREET":" ","SECT":" ","MAREA":"頭港子","LANE":" ","ALLEY":" ","HOUSE_NO":"８０號之２","E_COORD97":163323.48999999999,"N_COORD97":2573763.71,"ADDRESS":"頭港子８０號之２","OBJECTID":17531},"geometry":{"x":163323.49000000115,"y":2573763.7100000009}},{"attributes":{"ID":17532,"DIS_CODE":0,"TOWNNAME":"學甲區","LI":"光華里","LIN":"24鄰","STREET":" ","SECT":" ","MAREA":"頭港子","LANE":" ","ALLEY":" ","HOUSE_NO":"８０號","E_COORD97":163443.35000000001,"N_COORD97":2573566.1499999999,"ADDRESS":"頭港子８０號","OBJECTID":17532},"geometry":{"x":163443.34999999963,"y":2573566.1500000004}},{"attributes":{"ID":17533,"DIS_CODE":0,"TOWNNAME":"學甲區","LI":"光華里","LIN":"24鄰","STREET":" ","SECT":" ","MAREA":"頭港子","LANE":" ","ALLEY":" ","HOUSE_NO":"８１號","E_COORD97":163468.42999999999,"N_COORD97":2573552.2599999998,"ADDRESS":"頭港子８１號","OBJECTID":17533},"geometry":{"x":163468.4299999997,"y":2573552.2599999979}},{"attributes":{"ID":17534,"DIS_CODE":0,"TOWNNAME":"東區","LI":"大同里","LIN":"34鄰","STREET":"大同路","SECT":"一段","MAREA":" ","LANE":"１７５巷","ALLEY":"１１６弄","HOUSE_NO":"３０號","E_COORD97":169290.76999999999,"N_COORD97":2542640.6299999999,"ADDRESS":"大同路一段１７５巷１１６弄３０號","OBJECTID":17534},"geometry":{"x":169290.77000000142,"y":2542640.6300000008}},{"attributes":{"ID":17535,"DIS_CODE":0,"TOWNNAME":"東區","LI":"大同里","LIN":"34鄰","STREET":"大同路","SECT":"一段","MAREA":" ","LANE":"１７５巷","ALLEY":"１１６弄","HOUSE_NO":"３２號","E_COORD97":169288.01000000001,"N_COORD97":2542638.3100000001,"ADDRESS":"大同路一段１７５巷１１６弄３２號","OBJECTID":17535},"geometry":{"x":169288.01000000071,"y":2542638.3100000005}},{"attributes":{"ID":17536,"DIS_CODE":0,"TOWNNAME":"東區","LI":"大同里","LIN":"34鄰","STREET":"大同路","SECT":"一段","MAREA":" ","LANE":"１７５巷","ALLEY":"１１６弄","HOUSE_NO":"３４號","E_COORD97":169283.51000000001,"N_COORD97":2542635.71,"ADDRESS":"大同路一段１７５巷１１６弄３４號","OBJECTID":17536},"geometry":{"x":169283.51000000071,"y":2542635.7100000009}},{"attributes":{"ID":17537,"DIS_CODE":0,"TOWNNAME":"東區","LI":"大同里","LIN":"34鄰","STREET":"大同路","SECT":"一段","MAREA":" ","LANE":"１７５巷","ALLEY":"１１６弄","HOUSE_NO":"３６號","E_COORD97":169282.64000000001,"N_COORD97":2542651.1400000001,"ADDRESS":"大同路一段１７５巷１１６弄３６號","OBJECTID":17537},"geometry":{"x":169282.63999999966,"y":2542651.1400000025}},{"attributes":{"ID":17538,"DIS_CODE":0,"TOWNNAME":"東區","LI":"大同里","LIN":"34鄰","STREET":"大同路","SECT":"一段","MAREA":" ","LANE":"１７５巷","ALLEY":"１１６弄","HOUSE_NO":"３８號","E_COORD97":169305.13,"N_COORD97":2542637.5899999999,"ADDRESS":"大同路一段１７５巷１１６弄３８號","OBJECTID":17538},"geometry":{"x":169305.12999999989,"y":2542637.5900000017}},{"attributes":{"ID":17539,"DIS_CODE":0,"TOWNNAME":"東區","LI":"大同里","LIN":"34鄰","STREET":"大同路","SECT":"一段","MAREA":" ","LANE":"１７５巷","ALLEY":"１１６弄","HOUSE_NO":"４０號","E_COORD97":169301.07000000001,"N_COORD97":2542634.5499999998,"ADDRESS":"大同路一段１７５巷１１６弄４０號","OBJECTID":17539},"geometry":{"x":169301.0700000003,"y":2542634.5500000045}},{"attributes":{"ID":17540,"DIS_CODE":0,"TOWNNAME":"東區","LI":"大同里","LIN":"34鄰","STREET":"大同路","SECT":"一段","MAREA":" ","LANE":"１７５巷","ALLEY":"１１６弄","HOUSE_NO":"４２號","E_COORD97":169295.54999999999,"N_COORD97":2542630.3399999999,"ADDRESS":"大同路一段１７５巷１１６弄４２號","OBJECTID":17540},"geometry":{"x":169295.54999999981,"y":2542630.3399999999}},{"attributes":{"ID":17541,"DIS_CODE":0,"TOWNNAME":"東區","LI":"大同里","LIN":"34鄰","STREET":"大同路","SECT":"一段","MAREA":" ","LANE":"１７５巷","ALLEY":"１１６弄","HOUSE_NO":"４４號","E_COORD97":169290.19,"N_COORD97":2542626.8700000001,"ADDRESS":"大同路一段１７５巷１１６弄４４號","OBJECTID":17541},"geometry":{"x":169290.19000000041,"y":2542626.8700000029}},{"attributes":{"ID":17542,"DIS_CODE":0,"TOWNNAME":"東區","LI":"大同里","LIN":"34鄰","STREET":"大同路","SECT":"一段","MAREA":" ","LANE":"１７５巷","ALLEY":"１１６弄","HOUSE_NO":"６號","E_COORD97":169344.29999999999,"N_COORD97":2542663.8300000001,"ADDRESS":"大同路一段１７５巷１１６弄６號","OBJECTID":17542},"geometry":{"x":169344.30000000075,"y":2542663.8300000019}},{"attributes":{"ID":17543,"DIS_CODE":0,"TOWNNAME":"東區","LI":"大同里","LIN":"34鄰","STREET":"大同路","SECT":"一段","MAREA":" ","LANE":"１７５巷","ALLEY":"１１６弄","HOUSE_NO":"８號","E_COORD97":169339.51999999999,"N_COORD97":2542661.0699999998,"ADDRESS":"大同路一段１７５巷１１６弄８號","OBJECTID":17543},"geometry":{"x":169339.51999999955,"y":2542661.070000004}},{"attributes":{"ID":17544,"DIS_CODE":0,"TOWNNAME":"永康區","LI":"永康里","LIN":"34鄰","STREET":"永大路","SECT":"二段","MAREA":" ","LANE":"１３１０巷","ALLEY":"１６弄","HOUSE_NO":"６號","E_COORD97":174343.23000000001,"N_COORD97":2547010.9199999999,"ADDRESS":"永大路二段１３１０巷１６弄６號","OBJECTID":17544},"geometry":{"x":174343.23000000045,"y":2547010.9199999999}},{"attributes":{"ID":17545,"DIS_CODE":0,"TOWNNAME":"永康區","LI":"北灣里","LIN":"34鄰","STREET":"大灣路","SECT":" ","MAREA":" ","LANE":"４０巷","ALLEY":"２６弄","HOUSE_NO":"１９號之９","E_COORD97":175215.04000000001,"N_COORD97":2546105.71,"ADDRESS":"大灣路４０巷２６弄１９號之９","OBJECTID":17545},"geometry":{"x":175215.04000000097,"y":2546105.7100000046}},{"attributes":{"ID":17546,"DIS_CODE":0,"TOWNNAME":"永康區","LI":"東灣里","LIN":"34鄰","STREET":"民族路","SECT":" ","MAREA":" ","LANE":"１８１巷","ALLEY":"３弄","HOUSE_NO":"３１號","E_COORD97":175253.42999999999,"N_COORD97":2544776.02,"ADDRESS":"民族路１８１巷３弄３１號","OBJECTID":17546},"geometry":{"x":175253.4299999997,"y":2544776.0199999996}},{"attributes":{"ID":17547,"DIS_CODE":0,"TOWNNAME":"六甲區","LI":"二甲里","LIN":"24鄰","STREET":"中山路","SECT":" ","MAREA":" ","LANE":" ","ALLEY":" ","HOUSE_NO":"１０３號","E_COORD97":183406.12,"N_COORD97":2570017.6000000001,"ADDRESS":"中山路１０３號","OBJECTID":17547},"geometry":{"x":183406.12000000011,"y":2570017.6000000015}},{"attributes":{"ID":17548,"DIS_CODE":0,"TOWNNAME":"北區","LI":"成德里","LIN":"24鄰","STREET":"文成一路","SECT":" ","MAREA":" ","LANE":" ","ALLEY":" ","HOUSE_NO":"２２０號","E_COORD97":168161.89000000001,"N_COORD97":2546058.8199999998,"ADDRESS":"文成一路２２０號","OBJECTID":17548},"geometry":{"x":168161.8900000006,"y":2546058.8200000003}},{"attributes":{"ID":17549,"DIS_CODE":0,"TOWNNAME":"北區","LI":"成德里","LIN":"24鄰","STREET":"文成一路","SECT":" ","MAREA":" ","LANE":" ","ALLEY":" ","HOUSE_NO":"２３６號","E_COORD97":168117.06,"N_COORD97":2546056.5299999998,"ADDRESS":"文成一路２３６號","OBJECTID":17549},"geometry":{"x":168117.05999999959,"y":2546056.5299999993}},{"attributes":{"ID":17550,"DIS_CODE":0,"TOWNNAME":"北區","LI":"成德里","LIN":"24鄰","STREET":"文成一路","SECT":" ","MAREA":" ","LANE":" ","ALLEY":" ","HOUSE_NO":"２４０號","E_COORD97":168104.35999999999,"N_COORD97":2546056.2799999998,"ADDRESS":"文成一路２４０號","OBJECTID":17550},"geometry":{"x":168104.3600000022,"y":2546056.2800000012}},{"attributes":{"ID":17551,"DIS_CODE":0,"TOWNNAME":"北區","LI":"五福里","LIN":"3鄰","STREET":"西門路","SECT":"三段","MAREA":" ","LANE":" ","ALLEY":" ","HOUSE_NO":"１２０號","E_COORD97":168305.06,"N_COORD97":2544708,"ADDRESS":"西門路三段１２０號","OBJECTID":17551},"geometry":{"x":168305.05999999959,"y":2544708}},{"attributes":{"ID":17552,"DIS_CODE":0,"TOWNNAME":"學甲區","LI":"光華里","LIN":"24鄰","STREET":" ","SECT":" ","MAREA":"頭港子","LANE":" ","ALLEY":" ","HOUSE_NO":"８５號","E_COORD97":163577.63,"N_COORD97":2573433.2799999998,"ADDRESS":"頭港子８５號","OBJECTID":17552},"geometry":{"x":163577.63000000175,"y":2573433.2800000031}},{"attributes":{"ID":17553,"DIS_CODE":0,"TOWNNAME":"永康區","LI":"北灣里","LIN":"34鄰","STREET":"大灣路","SECT":" ","MAREA":" ","LANE":"４０巷","ALLEY":"１４弄","HOUSE_NO":"１６號","E_COORD97":175283.26999999999,"N_COORD97":2545978.1699999999,"ADDRESS":"大灣路４０巷１４弄１６號","OBJECTID":17553},"geometry":{"x":175283.27000000142,"y":2545978.1699999999}},{"attributes":{"ID":17554,"DIS_CODE":0,"TOWNNAME":"永康區","LI":"復華里","LIN":"34鄰","STREET":"復國一路","SECT":" ","MAREA":" ","LANE":"４７５巷","ALLEY":"６０弄","HOUSE_NO":"３１號","E_COORD97":172504.26000000001,"N_COORD97":2546022.3399999999,"ADDRESS":"復國一路４７５巷６０弄３１號","OBJECTID":17554},"geometry":{"x":172504.26000000071,"y":2546022.3400000036}},{"attributes":{"ID":17555,"DIS_CODE":0,"TOWNNAME":"東區","LI":"和平里","LIN":"20鄰","STREET":"文化路","SECT":" ","MAREA":" ","LANE":" ","ALLEY":" ","HOUSE_NO":"１９號","E_COORD97":171152.32000000001,"N_COORD97":2541939.4199999999,"ADDRESS":"文化路１９號","OBJECTID":17555},"geometry":{"x":171152.3200000003,"y":2541939.4199999981}},{"attributes":{"ID":17556,"DIS_CODE":0,"TOWNNAME":"東區","LI":"和平里","LIN":"20鄰","STREET":"仁和路","SECT":" ","MAREA":" ","LANE":" ","ALLEY":" ","HOUSE_NO":"４５之１號","E_COORD97":171087.64999999999,"N_COORD97":2541976.2599999998,"ADDRESS":"仁和路４５之１號","OBJECTID":17556},"geometry":{"x":171087.64999999944,"y":2541976.2599999998}},{"attributes":{"ID":17557,"DIS_CODE":0,"TOWNNAME":"東區","LI":"和平里","LIN":"20鄰","STREET":"仁和路","SECT":" ","MAREA":" ","LANE":" ","ALLEY":" ","HOUSE_NO":"４５之２號","E_COORD97":171087.89999999999,"N_COORD97":2541971.4300000002,"ADDRESS":"仁和路４５之２號","OBJECTID":17557},"geometry":{"x":171087.9000000013,"y":2541971.4300000016}},{"attributes":{"ID":17558,"DIS_CODE":0,"TOWNNAME":"東區","LI":"和平里","LIN":"20鄰","STREET":"仁和路","SECT":" ","MAREA":" ","LANE":" ","ALLEY":" ","HOUSE_NO":"４５之３號","E_COORD97":171088.88,"N_COORD97":2541967.0899999999,"ADDRESS":"仁和路４５之３號","OBJECTID":17558},"geometry":{"x":171088.87999999989,"y":2541967.0900000017}},{"attributes":{"ID":17559,"DIS_CODE":0,"TOWNNAME":"東區","LI":"和平里","LIN":"20鄰","STREET":"仁和路","SECT":" ","MAREA":" ","LANE":" ","ALLEY":" ","HOUSE_NO":"４５之５號","E_COORD97":171102.79000000001,"N_COORD97":2541968.1499999999,"ADDRESS":"仁和路４５之５號","OBJECTID":17559},"geometry":{"x":171102.79000000004,"y":2541968.1500000004}},{"attributes":{"ID":17560,"DIS_CODE":0,"TOWNNAME":"將軍區","LI":"長沙里","LIN":"14鄰","STREET":" ","SECT":" ","MAREA":"長沙","LANE":" ","ALLEY":" ","HOUSE_NO":"１２２號","E_COORD97":157569.07000000001,"N_COORD97":2568478.3799999999,"ADDRESS":"長沙１２２號","OBJECTID":17560},"geometry":{"x":157569.07000000216,"y":2568478.379999999}},{"attributes":{"ID":17561,"DIS_CODE":0,"TOWNNAME":"將軍區","LI":"長沙里","LIN":"14鄰","STREET":" ","SECT":" ","MAREA":"長沙","LANE":" ","ALLEY":" ","HOUSE_NO":"１２３號","E_COORD97":157242.56,"N_COORD97":2568784.5699999998,"ADDRESS":"長沙１２３號","OBJECTID":17561},"geometry":{"x":157242.55999999959,"y":2568784.5700000022}},{"attributes":{"ID":17562,"DIS_CODE":0,"TOWNNAME":"將軍區","LI":"長沙里","LIN":"14鄰","STREET":" ","SECT":" ","MAREA":"長沙","LANE":" ","ALLEY":" ","HOUSE_NO":"１２６之５號","E_COORD97":157647.82000000001,"N_COORD97":2569247.6699999999,"ADDRESS":"長沙１２６之５號","OBJECTID":17562},"geometry":{"x":157647.82000000123,"y":2569247.6700000037}},{"attributes":{"ID":17563,"DIS_CODE":0,"TOWNNAME":"永康區","LI":"正強里","LIN":"34鄰","STREET":"四維街","SECT":" ","MAREA":" ","LANE":"１４９巷","ALLEY":"３７弄","HOUSE_NO":"２號","E_COORD97":173212.63,"N_COORD97":2548344.4900000002,"ADDRESS":"四維街１４９巷３７弄２號","OBJECTID":17563},"geometry":{"x":173212.62999999989,"y":2548344.4900000021}},{"attributes":{"ID":17564,"DIS_CODE":0,"TOWNNAME":"永康區","LI":"龍潭里","LIN":"34鄰","STREET":"龍埔街","SECT":" ","MAREA":" ","LANE":"１３９巷","ALLEY":"１０弄","HOUSE_NO":"１６號","E_COORD97":174516.13,"N_COORD97":2548150.3799999999,"ADDRESS":"龍埔街１３９巷１０弄１６號","OBJECTID":17564},"geometry":{"x":174516.12999999989,"y":2548150.3800000008}},{"attributes":{"ID":17565,"DIS_CODE":0,"TOWNNAME":"中西區","LI":"西湖里","LIN":"34鄰","STREET":"和緯路","SECT":"五段","MAREA":" ","LANE":"８９巷","ALLEY":"１１２弄","HOUSE_NO":"３號","E_COORD97":166381.01000000001,"N_COORD97":2544969.3500000001,"ADDRESS":"和緯路五段８９巷１１２弄３號","OBJECTID":17565},"geometry":{"x":166381.01000000071,"y":2544969.3499999996}},{"attributes":{"ID":17566,"DIS_CODE":0,"TOWNNAME":"中西區","LI":"西湖里","LIN":"34鄰","STREET":"和緯路","SECT":"五段","MAREA":" ","LANE":"８９巷","ALLEY":"１１２弄","HOUSE_NO":"５１號","E_COORD97":166340.23999999999,"N_COORD97":2544972.27,"ADDRESS":"和緯路五段８９巷１１２弄５１號","OBJECTID":17566},"geometry":{"x":166340.24000000022,"y":2544972.2700000014}},{"attributes":{"ID":17567,"DIS_CODE":0,"TOWNNAME":"中西區","LI":"西湖里","LIN":"34鄰","STREET":"和緯路","SECT":"五段","MAREA":" ","LANE":"８９巷","ALLEY":"１１２弄","HOUSE_NO":"５３號","E_COORD97":166339.60999999999,"N_COORD97":2544967.0699999998,"ADDRESS":"和緯路五段８９巷１１２弄５３號","OBJECTID":17567},"geometry":{"x":166339.6099999994,"y":2544967.0700000022}},{"attributes":{"ID":17568,"DIS_CODE":0,"TOWNNAME":"中西區","LI":"西湖里","LIN":"34鄰","STREET":"和緯路","SECT":"五段","MAREA":" ","LANE":"８９巷","ALLEY":"１１２弄","HOUSE_NO":"５５號","E_COORD97":166338.84,"N_COORD97":2544961.73,"ADDRESS":"和緯路五段８９巷１１２弄５５號","OBJECTID":17568},"geometry":{"x":166338.83999999985,"y":2544961.7300000004}},{"attributes":{"ID":17569,"DIS_CODE":0,"TOWNNAME":"中西區","LI":"西湖里","LIN":"34鄰","STREET":"和緯路","SECT":"五段","MAREA":" ","LANE":"８９巷","ALLEY":"１１２弄","HOUSE_NO":"５７號","E_COORD97":166338.59,"N_COORD97":2544957.1600000001,"ADDRESS":"和緯路五段８９巷１１２弄５７號","OBJECTID":17569},"geometry":{"x":166338.58999999985,"y":2544957.160000002}},{"attributes":{"ID":17570,"DIS_CODE":0,"TOWNNAME":"中西區","LI":"西湖里","LIN":"34鄰","STREET":"和緯路","SECT":"五段","MAREA":" ","LANE":"８９巷","ALLEY":"１１２弄","HOUSE_NO":"５９號","E_COORD97":166337.95000000001,"N_COORD97":2544952.5899999999,"ADDRESS":"和緯路五段８９巷１１２弄５９號","OBJECTID":17570},"geometry":{"x":166337.95000000112,"y":2544952.5900000036}},{"attributes":{"ID":17571,"DIS_CODE":0,"TOWNNAME":"中西區","LI":"西湖里","LIN":"34鄰","STREET":"和緯路","SECT":"五段","MAREA":" ","LANE":"８９巷","ALLEY":"１１２弄","HOUSE_NO":"６１號","E_COORD97":166329.19,"N_COORD97":2544953.1000000001,"ADDRESS":"和緯路五段８９巷１１２弄６１號","OBJECTID":17571},"geometry":{"x":166329.19000000227,"y":2544953.1000000015}},{"attributes":{"ID":17572,"DIS_CODE":0,"TOWNNAME":"中西區","LI":"西湖里","LIN":"34鄰","STREET":"和緯路","SECT":"五段","MAREA":" ","LANE":"８９巷","ALLEY":"１１２弄","HOUSE_NO":"６３號","E_COORD97":166329.70000000001,"N_COORD97":2544957.4100000001,"ADDRESS":"和緯路五段８９巷１１２弄６３號","OBJECTID":17572},"geometry":{"x":166329.70000000019,"y":2544957.4100000039}},{"attributes":{"ID":17573,"DIS_CODE":0,"TOWNNAME":"中西區","LI":"西湖里","LIN":"34鄰","STREET":"和緯路","SECT":"五段","MAREA":" ","LANE":"８９巷","ALLEY":"１１２弄","HOUSE_NO":"６５號","E_COORD97":166329.70000000001,"N_COORD97":2544961.8599999999,"ADDRESS":"和緯路五段８９巷１１２弄６５號","OBJECTID":17573},"geometry":{"x":166329.70000000019,"y":2544961.8600000013}},{"attributes":{"ID":17574,"DIS_CODE":0,"TOWNNAME":"中西區","LI":"西湖里","LIN":"34鄰","STREET":"和緯路","SECT":"五段","MAREA":" ","LANE":"８９巷","ALLEY":"１１２弄","HOUSE_NO":"６７號","E_COORD97":166330.07999999999,"N_COORD97":2544967.0699999998,"ADDRESS":"和緯路五段８９巷１１２弄６７號","OBJECTID":17574},"geometry":{"x":166330.08000000101,"y":2544967.0700000022}},{"attributes":{"ID":17575,"DIS_CODE":0,"TOWNNAME":"中西區","LI":"西湖里","LIN":"34鄰","STREET":"和緯路","SECT":"五段","MAREA":" ","LANE":"８９巷","ALLEY":"１１２弄","HOUSE_NO":"６９號","E_COORD97":166330.45999999999,"N_COORD97":2544973.1600000001,"ADDRESS":"和緯路五段８９巷１１２弄６９號","OBJECTID":17575},"geometry":{"x":166330.46000000089,"y":2544973.160000002}},{"attributes":{"ID":17576,"DIS_CODE":0,"TOWNNAME":"中西區","LI":"西湖里","LIN":"34鄰","STREET":"和緯路","SECT":"五段","MAREA":" ","LANE":"８９巷","ALLEY":"１１２弄","HOUSE_NO":"５０號","E_COORD97":166306.07999999999,"N_COORD97":2544987.5099999998,"ADDRESS":"和緯路五段８９巷１１２弄５０號","OBJECTID":17576},"geometry":{"x":166306.08000000101,"y":2544987.5100000016}},{"attributes":{"ID":17577,"DIS_CODE":0,"TOWNNAME":"中西區","LI":"西湖里","LIN":"34鄰","STREET":"和緯路","SECT":"五段","MAREA":" ","LANE":"８９巷","ALLEY":"１１２弄","HOUSE_NO":"５２號","E_COORD97":166299.73000000001,"N_COORD97":2544987.6400000001,"ADDRESS":"和緯路五段８９巷１１２弄５２號","OBJECTID":17577},"geometry":{"x":166299.73000000045,"y":2544987.6400000025}},{"attributes":{"ID":17578,"DIS_CODE":0,"TOWNNAME":"北區","LI":"成功里","LIN":"24鄰","STREET":"北成路","SECT":" ","MAREA":" ","LANE":" ","ALLEY":" ","HOUSE_NO":"１４６號","E_COORD97":168878.57999999999,"N_COORD97":2546705.8900000001,"ADDRESS":"北成路１４６號","OBJECTID":17578},"geometry":{"x":168878.58000000007,"y":2546705.8900000006}},{"attributes":{"ID":17579,"DIS_CODE":0,"TOWNNAME":"北區","LI":"成功里","LIN":"24鄰","STREET":"北成路","SECT":" ","MAREA":" ","LANE":" ","ALLEY":" ","HOUSE_NO":"１４８號","E_COORD97":168874.51000000001,"N_COORD97":2546708.0499999998,"ADDRESS":"北成路１４８號","OBJECTID":17579},"geometry":{"x":168874.51000000071,"y":2546708.0500000026}},{"attributes":{"ID":17580,"DIS_CODE":0,"TOWNNAME":"北區","LI":"成功里","LIN":"24鄰","STREET":"北成路","SECT":" ","MAREA":" ","LANE":" ","ALLEY":" ","HOUSE_NO":"１５０號","E_COORD97":168870.95999999999,"N_COORD97":2546710.5899999999,"ADDRESS":"北成路１５０號","OBJECTID":17580},"geometry":{"x":168870.95999999996,"y":2546710.5899999999}},{"attributes":{"ID":17581,"DIS_CODE":0,"TOWNNAME":"北區","LI":"成功里","LIN":"24鄰","STREET":"北成路","SECT":" ","MAREA":" ","LANE":" ","ALLEY":" ","HOUSE_NO":"１５２號","E_COORD97":168866.89000000001,"N_COORD97":2546712.75,"ADDRESS":"北成路１５２號","OBJECTID":17581},"geometry":{"x":168866.8900000006,"y":2546712.7500000019}},{"attributes":{"ID":17582,"DIS_CODE":0,"TOWNNAME":"將軍區","LI":"長沙里","LIN":"14鄰","STREET":" ","SECT":" ","MAREA":"長沙","LANE":" ","ALLEY":" ","HOUSE_NO":"１２６之６號","E_COORD97":157608.98000000001,"N_COORD97":2569115.04,"ADDRESS":"長沙１２６之６號","OBJECTID":17582},"geometry":{"x":157608.98000000138,"y":2569115.0399999972}},{"attributes":{"ID":17583,"DIS_CODE":0,"TOWNNAME":"中西區","LI":"西湖里","LIN":"34鄰","STREET":"和緯路","SECT":"五段","MAREA":" ","LANE":"８９巷","ALLEY":"１１２弄","HOUSE_NO":"５６號","E_COORD97":166294.01000000001,"N_COORD97":2544988.1499999999,"ADDRESS":"和緯路五段８９巷１１２弄５６號","OBJECTID":17583},"geometry":{"x":166294.01000000164,"y":2544988.1500000022}},{"attributes":{"ID":17584,"DIS_CODE":0,"TOWNNAME":"中西區","LI":"西湖里","LIN":"34鄰","STREET":"和緯路","SECT":"五段","MAREA":" ","LANE":"８９巷","ALLEY":"１１２弄","HOUSE_NO":"５８號","E_COORD97":166288.17000000001,"N_COORD97":2544988.6600000001,"ADDRESS":"和緯路五段８９巷１１２弄５８號","OBJECTID":17584},"geometry":{"x":166288.17000000086,"y":2544988.6600000001}},{"attributes":{"ID":17585,"DIS_CODE":0,"TOWNNAME":"永康區","LI":"永康里","LIN":"24鄰","STREET":"永正路","SECT":" ","MAREA":" ","LANE":" ","ALLEY":" ","HOUSE_NO":"３７號","E_COORD97":173553.37,"N_COORD97":2547348,"ADDRESS":"永正路３７號","OBJECTID":17585},"geometry":{"x":173553.37000000011,"y":2547348.0000000019}},{"attributes":{"ID":17586,"DIS_CODE":0,"TOWNNAME":"將軍區","LI":"長沙里","LIN":"14鄰","STREET":" ","SECT":" ","MAREA":"長沙","LANE":" ","ALLEY":" ","HOUSE_NO":"１２６之８號","E_COORD97":157451.23999999999,"N_COORD97":2569186.1099999999,"ADDRESS":"長沙１２６之８號","OBJECTID":17586},"geometry":{"x":157451.24000000115,"y":2569186.1099999975}},{"attributes":{"ID":17587,"DIS_CODE":0,"TOWNNAME":"將軍區","LI":"長沙里","LIN":"14鄰","STREET":" ","SECT":" ","MAREA":"長沙","LANE":" ","ALLEY":" ","HOUSE_NO":"１２９之４號","E_COORD97":157791.67000000001,"N_COORD97":2569054.1299999999,"ADDRESS":"長沙１２９之４號","OBJECTID":17587},"geometry":{"x":157791.66999999899,"y":2569054.1300000008}},{"attributes":{"ID":17588,"DIS_CODE":0,"TOWNNAME":"中西區","LI":"西湖里","LIN":"34鄰","STREET":"和緯路","SECT":"五段","MAREA":" ","LANE":"８９巷","ALLEY":"１３０弄","HOUSE_NO":"１號","E_COORD97":166376.22,"N_COORD97":2544935.9300000002,"ADDRESS":"和緯路五段８９巷１３０弄１號","OBJECTID":17588},"geometry":{"x":166376.22000000067,"y":2544935.9299999997}},{"attributes":{"ID":17589,"DIS_CODE":0,"TOWNNAME":"中西區","LI":"西湖里","LIN":"34鄰","STREET":"和緯路","SECT":"五段","MAREA":" ","LANE":"８９巷","ALLEY":"１３０弄","HOUSE_NO":"２７號","E_COORD97":166319.5,"N_COORD97":2544941.2200000002,"ADDRESS":"和緯路五段８９巷１３０弄２７號","OBJECTID":17589},"geometry":{"x":166319.5,"y":2544941.2200000007}},{"attributes":{"ID":17590,"DIS_CODE":0,"TOWNNAME":"將軍區","LI":"長沙里","LIN":"14鄰","STREET":" ","SECT":" ","MAREA":"長沙","LANE":" ","ALLEY":" ","HOUSE_NO":"１２９之５號","E_COORD97":157809.76000000001,"N_COORD97":2569050.6299999999,"ADDRESS":"長沙１２９之５號","OBJECTID":17590},"geometry":{"x":157809.76000000071,"y":2569050.6300000008}},{"attributes":{"ID":17591,"DIS_CODE":0,"TOWNNAME":"將軍區","LI":"長沙里","LIN":"14鄰","STREET":" ","SECT":" ","MAREA":"長沙","LANE":" ","ALLEY":" ","HOUSE_NO":"１２９之８號","E_COORD97":157812.76999999999,"N_COORD97":2569008.7000000002,"ADDRESS":"長沙１２９之８號","OBJECTID":17591},"geometry":{"x":157812.77000000142,"y":2569008.6999999993}},{"attributes":{"ID":17592,"DIS_CODE":0,"TOWNNAME":"中西區","LI":"西湖里","LIN":"34鄰","STREET":"和緯路","SECT":"五段","MAREA":" ","LANE":"８９巷","ALLEY":"１３０弄","HOUSE_NO":"１３號","E_COORD97":166349.76000000001,"N_COORD97":2544938.4700000002,"ADDRESS":"和緯路五段８９巷１３０弄１３號","OBJECTID":17592},"geometry":{"x":166349.75999999978,"y":2544938.4700000025}},{"attributes":{"ID":17593,"DIS_CODE":0,"TOWNNAME":"中西區","LI":"西湖里","LIN":"34鄰","STREET":"和緯路","SECT":"五段","MAREA":" ","LANE":"８９巷","ALLEY":"１３０弄","HOUSE_NO":"１５號","E_COORD97":166345.73999999999,"N_COORD97":2544938.8900000001,"ADDRESS":"和緯路五段８９巷１３０弄１５號","OBJECTID":17593},"geometry":{"x":166345.74000000115,"y":2544938.8900000025}},{"attributes":{"ID":17594,"DIS_CODE":0,"TOWNNAME":"中西區","LI":"西湖里","LIN":"34鄰","STREET":"和緯路","SECT":"五段","MAREA":" ","LANE":"８９巷","ALLEY":"１３０弄","HOUSE_NO":"１１號","E_COORD97":166354.42000000001,"N_COORD97":2544937.8399999999,"ADDRESS":"和緯路五段８９巷１３０弄１１號","OBJECTID":17594},"geometry":{"x":166354.42000000086,"y":2544937.8400000017}},{"attributes":{"ID":17595,"DIS_CODE":0,"TOWNNAME":"中西區","LI":"西湖里","LIN":"34鄰","STREET":"和緯路","SECT":"五段","MAREA":" ","LANE":"８９巷","ALLEY":"１３０弄","HOUSE_NO":"３號","E_COORD97":166372.20000000001,"N_COORD97":2544936.3500000001,"ADDRESS":"和緯路五段８９巷１３０弄３號","OBJECTID":17595},"geometry":{"x":166372.20000000019,"y":2544936.3499999996}},{"attributes":{"ID":17596,"DIS_CODE":0,"TOWNNAME":"中西區","LI":"西湖里","LIN":"34鄰","STREET":"和緯路","SECT":"五段","MAREA":" ","LANE":"８９巷","ALLEY":"１３０弄","HOUSE_NO":"５號","E_COORD97":166367.97,"N_COORD97":2544936.7799999998,"ADDRESS":"和緯路五段８９巷１３０弄５號","OBJECTID":17596},"geometry":{"x":166367.97000000067,"y":2544936.7799999975}},{"attributes":{"ID":17597,"DIS_CODE":0,"TOWNNAME":"中西區","LI":"西湖里","LIN":"34鄰","STREET":"和緯路","SECT":"五段","MAREA":" ","LANE":"８９巷","ALLEY":"１３０弄","HOUSE_NO":"７號","E_COORD97":166363.51999999999,"N_COORD97":2544937.2000000002,"ADDRESS":"和緯路五段８９巷１３０弄７號","OBJECTID":17597},"geometry":{"x":166363.52000000048,"y":2544937.1999999993}},{"attributes":{"ID":17598,"DIS_CODE":0,"TOWNNAME":"中西區","LI":"西湖里","LIN":"34鄰","STREET":"和緯路","SECT":"五段","MAREA":" ","LANE":"８９巷","ALLEY":"１３０弄","HOUSE_NO":"９號","E_COORD97":166359.07999999999,"N_COORD97":2544937.6200000001,"ADDRESS":"和緯路五段８９巷１３０弄９號","OBJECTID":17598},"geometry":{"x":166359.08000000101,"y":2544937.6200000029}},{"attributes":{"ID":17599,"DIS_CODE":0,"TOWNNAME":"中西區","LI":"西湖里","LIN":"34鄰","STREET":"和緯路","SECT":"五段","MAREA":" ","LANE":"８９巷","ALLEY":"１３０弄","HOUSE_NO":"１７號","E_COORD97":166341.29999999999,"N_COORD97":2544939.1099999999,"ADDRESS":"和緯路五段８９巷１３０弄１７號","OBJECTID":17599},"geometry":{"x":166341.30000000168,"y":2544939.1100000013}},{"attributes":{"ID":17600,"DIS_CODE":0,"TOWNNAME":"安定區","LI":"管寮里","LIN":"14鄰","STREET":" ","SECT":" ","MAREA":"管寮","LANE":" ","ALLEY":" ","HOUSE_NO":"１３２號","E_COORD97":169980.19,"N_COORD97":2556242.25,"ADDRESS":"管寮１３２號","OBJECTID":17600},"geometry":{"x":169980.19000000041,"y":2556242.2500000019}}]}