{"displayFieldName":"TOWNNAME","fieldAliases":{"ID":"ID","DIS_CODE":"DIS_CODE","TOWNNAME":"TOWNNAME","LI":"LI","LIN":"LIN","STREET":"STREET","SECT":"SECT","MAREA":"MAREA","LANE":"LANE","ALLEY":"ALLEY","HOUSE_NO":"HOUSE_NO","E_COORD97":"E_COORD97","N_COORD97":"N_COORD97","ADDRESS":"ADDRESS","OBJECTID":"OBJECTID"},"geometryType":"esriGeometryPoint","spatialReference":{"wkid":102443,"latestWkid":3826},"fields":[{"name":"ID","type":"esriFieldTypeDouble","alias":"ID"},{"name":"DIS_CODE","type":"esriFieldTypeInteger","alias":"DIS_CODE"},{"name":"TOWNNAME","type":"esriFieldTypeString","alias":"TOWNNAME","length":8},{"name":"LI","type":"esriFieldTypeString","alias":"LI","length":8},{"name":"LIN","type":"esriFieldTypeString","alias":"LIN","length":12},{"name":"STREET","type":"esriFieldTypeString","alias":"STREET","length":20},{"name":"SECT","type":"esriFieldTypeString","alias":"SECT","length":8},{"name":"MAREA","type":"esriFieldTypeString","alias":"MAREA","length":12},{"name":"LANE","type":"esriFieldTypeString","alias":"LANE","length":10},{"name":"ALLEY","type":"esriFieldTypeString","alias":"ALLEY","length":10},{"name":"HOUSE_NO","type":"esriFieldTypeString","alias":"HOUSE_NO","length":20},{"name":"E_COORD97","type":"esriFieldTypeDouble","alias":"E_COORD97"},{"name":"N_COORD97","type":"esriFieldTypeDouble","alias":"N_COORD97"},{"name":"ADDRESS","type":"esriFieldTypeString","alias":"ADDRESS","length":50},{"name":"OBJECTID","type":"esriFieldTypeOID","alias":"OBJECTID"}],"features":[{"attributes":{"ID":609428,"DIS_CODE":0,"TOWNNAME":"永康區","LI":"\u25A0行里","LIN":"3鄰","STREET":"中正路","SECT":" ","MAREA":" ","LANE":" ","ALLEY":" ","HOUSE_NO":"８５４號之３","E_COORD97":172122.17999999999,"N_COORD97":2548781.79,"ADDRESS":"中正路８５４號之３","OBJECTID":609401},"geometry":{"x":172122.1799999997,"y":2548781.790000001}},{"attributes":{"ID":609429,"DIS_CODE":0,"TOWNNAME":"永康區","LI":"龍潭里","LIN":"3鄰","STREET":"龍國街","SECT":" ","MAREA":" ","LANE":" ","ALLEY":" ","HOUSE_NO":"２５７號","E_COORD97":174548.47,"N_COORD97":2548040.1000000001,"ADDRESS":"龍國街２５７號","OBJECTID":609402},"geometry":{"x":174548.47000000067,"y":2548040.0999999996}},{"attributes":{"ID":609430,"DIS_CODE":0,"TOWNNAME":"永康區","LI":"網寮里","LIN":"3鄰","STREET":"永二街","SECT":" ","MAREA":" ","LANE":" ","ALLEY":" ","HOUSE_NO":"７０號","E_COORD97":173536.26000000001,"N_COORD97":2546599.8500000001,"ADDRESS":"永二街７０號","OBJECTID":609403},"geometry":{"x":173536.26000000071,"y":2546599.8500000015}},{"attributes":{"ID":609431,"DIS_CODE":0,"TOWNNAME":"永康區","LI":"\u25A0行里","LIN":"3鄰","STREET":"中正路","SECT":" ","MAREA":" ","LANE":" ","ALLEY":" ","HOUSE_NO":"８９８號","E_COORD97":172039.94,"N_COORD97":2548867.29,"ADDRESS":"中正路８９８號","OBJECTID":609404},"geometry":{"x":172039.94000000041,"y":2548867.290000001}},{"attributes":{"ID":609432,"DIS_CODE":0,"TOWNNAME":"永康區","LI":"\u25A0洲里","LIN":"3鄰","STREET":"\u25A0洲二街","SECT":" ","MAREA":" ","LANE":" ","ALLEY":" ","HOUSE_NO":"１７８號","E_COORD97":171685.72,"N_COORD97":2549354.96,"ADDRESS":"\u25A0洲二街１７８號","OBJECTID":609405},"geometry":{"x":171685.72000000067,"y":2549354.959999999}},{"attributes":{"ID":609433,"DIS_CODE":0,"TOWNNAME":"永康區","LI":"\u25A0行里","LIN":"3鄰","STREET":"中正路","SECT":" ","MAREA":" ","LANE":" ","ALLEY":" ","HOUSE_NO":"８３２之１號","E_COORD97":172157.63,"N_COORD97":2548748.04,"ADDRESS":"中正路８３２之１號","OBJECTID":609406},"geometry":{"x":172157.63000000082,"y":2548748.0399999991}},{"attributes":{"ID":609434,"DIS_CODE":0,"TOWNNAME":"永康區","LI":"\u25A0行里","LIN":"3鄰","STREET":"中正路","SECT":" ","MAREA":" ","LANE":" ","ALLEY":" ","HOUSE_NO":"８８０號","E_COORD97":172079.29000000001,"N_COORD97":2548828.2999999998,"ADDRESS":"中正路８８０號","OBJECTID":609407},"geometry":{"x":172079.29000000004,"y":2548828.3000000026}},{"attributes":{"ID":609435,"DIS_CODE":0,"TOWNNAME":"永康區","LI":"\u25A0行里","LIN":"3鄰","STREET":"中正路","SECT":" ","MAREA":" ","LANE":" ","ALLEY":" ","HOUSE_NO":"８８４號","E_COORD97":172073.35999999999,"N_COORD97":2548834.2999999998,"ADDRESS":"中正路８８４號","OBJECTID":609408},"geometry":{"x":172073.36000000127,"y":2548834.3000000026}},{"attributes":{"ID":609436,"DIS_CODE":0,"TOWNNAME":"永康區","LI":"新樹里","LIN":"3鄰","STREET":"富強路","SECT":"二段","MAREA":" ","LANE":" ","ALLEY":" ","HOUSE_NO":"３３５號","E_COORD97":175531.23000000001,"N_COORD97":2547589.4700000002,"ADDRESS":"富強路二段３３５號","OBJECTID":609409},"geometry":{"x":175531.23000000045,"y":2547589.4700000025}},{"attributes":{"ID":609437,"DIS_CODE":0,"TOWNNAME":"永康區","LI":"網寮里","LIN":"3鄰","STREET":"永二街","SECT":" ","MAREA":" ","LANE":" ","ALLEY":" ","HOUSE_NO":"５８號","E_COORD97":173607.06,"N_COORD97":2546671.4900000002,"ADDRESS":"永二街５８號","OBJECTID":609410},"geometry":{"x":173607.06000000052,"y":2546671.4900000002}},{"attributes":{"ID":609438,"DIS_CODE":0,"TOWNNAME":"東區","LI":"大同里","LIN":"27鄰","STREET":"林森路","SECT":"一段","MAREA":" ","LANE":" ","ALLEY":" ","HOUSE_NO":"１號","E_COORD97":169230.45999999999,"N_COORD97":2542442.8799999999,"ADDRESS":"林森路一段１號","OBJECTID":609411},"geometry":{"x":169230.45999999996,"y":2542442.879999999}},{"attributes":{"ID":609439,"DIS_CODE":0,"TOWNNAME":"永康區","LI":"蔦松里","LIN":"3鄰","STREET":"蔦松一街","SECT":" ","MAREA":" ","LANE":" ","ALLEY":" ","HOUSE_NO":"１５號","E_COORD97":174020.73000000001,"N_COORD97":2549346.8700000001,"ADDRESS":"蔦松一街１５號","OBJECTID":609412},"geometry":{"x":174020.73000000138,"y":2549346.8700000029}},{"attributes":{"ID":609440,"DIS_CODE":0,"TOWNNAME":"永康區","LI":"新樹里","LIN":"3鄰","STREET":"富強路","SECT":"二段","MAREA":" ","LANE":" ","ALLEY":" ","HOUSE_NO":"３５２號","E_COORD97":175578.70999999999,"N_COORD97":2547595.77,"ADDRESS":"富強路二段３５２號","OBJECTID":609413},"geometry":{"x":175578.70999999996,"y":2547595.7700000014}},{"attributes":{"ID":609441,"DIS_CODE":0,"TOWNNAME":"永康區","LI":"新樹里","LIN":"3鄰","STREET":"中山北路","SECT":" ","MAREA":" ","LANE":" ","ALLEY":" ","HOUSE_NO":"７４２號","E_COORD97":176172.39999999999,"N_COORD97":2547932.3599999999,"ADDRESS":"中山北路７４２號","OBJECTID":609414},"geometry":{"x":176172.4000000013,"y":2547932.3599999994}},{"attributes":{"ID":609442,"DIS_CODE":0,"TOWNNAME":"永康區","LI":"新樹里","LIN":"3鄰","STREET":"富強路","SECT":"二段","MAREA":" ","LANE":" ","ALLEY":" ","HOUSE_NO":"３７１號","E_COORD97":175560.16,"N_COORD97":2547672.7999999998,"ADDRESS":"富強路二段３７１號","OBJECTID":609415},"geometry":{"x":175560.16000000108,"y":2547672.8000000007}},{"attributes":{"ID":609443,"DIS_CODE":0,"TOWNNAME":"永康區","LI":"新樹里","LIN":"3鄰","STREET":"中山北路","SECT":" ","MAREA":" ","LANE":" ","ALLEY":" ","HOUSE_NO":"７０６號","E_COORD97":176092,"N_COORD97":2547910.6899999999,"ADDRESS":"中山北路７０６號","OBJECTID":609416},"geometry":{"x":176092,"y":2547910.6899999995}},{"attributes":{"ID":609444,"DIS_CODE":0,"TOWNNAME":"永康區","LI":"新樹里","LIN":"3鄰","STREET":"富強路","SECT":"二段","MAREA":" ","LANE":" ","ALLEY":" ","HOUSE_NO":"３０１之１號","E_COORD97":175575.42999999999,"N_COORD97":2547506.3999999999,"ADDRESS":"富強路二段３０１之１號","OBJECTID":609417},"geometry":{"x":175575.4299999997,"y":2547506.4000000004}},{"attributes":{"ID":609445,"DIS_CODE":0,"TOWNNAME":"永康區","LI":"新樹里","LIN":"3鄰","STREET":"中山北路","SECT":" ","MAREA":" ","LANE":" ","ALLEY":" ","HOUSE_NO":"７２６號","E_COORD97":176116.57999999999,"N_COORD97":2547909.9100000001,"ADDRESS":"中山北路７２６號","OBJECTID":609418},"geometry":{"x":176116.58000000101,"y":2547909.9100000001}},{"attributes":{"ID":609446,"DIS_CODE":0,"TOWNNAME":"永康區","LI":"蔦松里","LIN":"3鄰","STREET":"中正北路","SECT":" ","MAREA":" ","LANE":" ","ALLEY":" ","HOUSE_NO":"６２９號","E_COORD97":174050.01000000001,"N_COORD97":2549319.6499999999,"ADDRESS":"中正北路６２９號","OBJECTID":609419},"geometry":{"x":174050.01000000071,"y":2549319.6500000041}},{"attributes":{"ID":609447,"DIS_CODE":0,"TOWNNAME":"永康區","LI":"蔦松里","LIN":"3鄰","STREET":"蔦松一街","SECT":" ","MAREA":" ","LANE":" ","ALLEY":" ","HOUSE_NO":"１１號","E_COORD97":174029.92000000001,"N_COORD97":2549344.4700000002,"ADDRESS":"蔦松一街１１號","OBJECTID":609420},"geometry":{"x":174029.92000000179,"y":2549344.4699999988}},{"attributes":{"ID":609448,"DIS_CODE":0,"TOWNNAME":"永康區","LI":"新樹里","LIN":"3鄰","STREET":"富強路","SECT":"二段","MAREA":" ","LANE":" ","ALLEY":" ","HOUSE_NO":"３７５號","E_COORD97":175561.34,"N_COORD97":2547681.8500000001,"ADDRESS":"富強路二段３７５號","OBJECTID":609421},"geometry":{"x":175561.34000000078,"y":2547681.8499999996}},{"attributes":{"ID":609449,"DIS_CODE":0,"TOWNNAME":"永康區","LI":"新樹里","LIN":"3鄰","STREET":"中山北路","SECT":" ","MAREA":" ","LANE":" ","ALLEY":" ","HOUSE_NO":"５６２號","E_COORD97":175659.51000000001,"N_COORD97":2547794.5,"ADDRESS":"中山北路５６２號","OBJECTID":609422},"geometry":{"x":175659.50999999978,"y":2547794.5000000037}},{"attributes":{"ID":609450,"DIS_CODE":0,"TOWNNAME":"永康區","LI":"龍潭里","LIN":"3鄰","STREET":"龍安街","SECT":" ","MAREA":" ","LANE":" ","ALLEY":" ","HOUSE_NO":"６０號","E_COORD97":174596.04999999999,"N_COORD97":2548169.8199999998,"ADDRESS":"龍安街６０號","OBJECTID":609423},"geometry":{"x":174596.04999999981,"y":2548169.8200000022}},{"attributes":{"ID":609451,"DIS_CODE":0,"TOWNNAME":"永康區","LI":"新樹里","LIN":"3鄰","STREET":"中山北路","SECT":" ","MAREA":" ","LANE":" ","ALLEY":" ","HOUSE_NO":"５８８號","E_COORD97":175696.84,"N_COORD97":2547799.98,"ADDRESS":"中山北路５８８號","OBJECTID":609424},"geometry":{"x":175696.84000000171,"y":2547799.9800000023}},{"attributes":{"ID":609452,"DIS_CODE":0,"TOWNNAME":"永康區","LI":"新樹里","LIN":"3鄰","STREET":"富強路","SECT":"二段","MAREA":" ","LANE":" ","ALLEY":" ","HOUSE_NO":"３７６號","E_COORD97":175585.48999999999,"N_COORD97":2547658,"ADDRESS":"富強路二段３７６號","OBJECTID":609425},"geometry":{"x":175585.49000000022,"y":2547658}},{"attributes":{"ID":609453,"DIS_CODE":0,"TOWNNAME":"永康區","LI":"網寮里","LIN":"3鄰","STREET":"永二街","SECT":" ","MAREA":" ","LANE":" ","ALLEY":" ","HOUSE_NO":"９４號","E_COORD97":173539.94,"N_COORD97":2546531.1499999999,"ADDRESS":"永二街９４號","OBJECTID":609426},"geometry":{"x":173539.94000000041,"y":2546531.1500000004}},{"attributes":{"ID":609454,"DIS_CODE":0,"TOWNNAME":"永康區","LI":"新樹里","LIN":"3鄰","STREET":"富強路","SECT":"二段","MAREA":" ","LANE":" ","ALLEY":" ","HOUSE_NO":"３７３號","E_COORD97":175561,"N_COORD97":2547677.3500000001,"ADDRESS":"富強路二段３７３號","OBJECTID":609427},"geometry":{"x":175561.00000000093,"y":2547677.3500000015}},{"attributes":{"ID":609455,"DIS_CODE":0,"TOWNNAME":"永康區","LI":"新樹里","LIN":"3鄰","STREET":"中山北路","SECT":" ","MAREA":" ","LANE":" ","ALLEY":" ","HOUSE_NO":"５６０號","E_COORD97":175630.26999999999,"N_COORD97":2547776.2000000002,"ADDRESS":"中山北路５６０號","OBJECTID":609428},"geometry":{"x":175630.26999999955,"y":2547776.2000000011}},{"attributes":{"ID":609456,"DIS_CODE":0,"TOWNNAME":"永康區","LI":"新樹里","LIN":"3鄰","STREET":"富強路","SECT":"二段","MAREA":" ","LANE":" ","ALLEY":" ","HOUSE_NO":"３９３號","E_COORD97":175546.51999999999,"N_COORD97":2547726.8999999999,"ADDRESS":"富強路二段３９３號","OBJECTID":609429},"geometry":{"x":175546.52000000048,"y":2547726.9000000004}},{"attributes":{"ID":609457,"DIS_CODE":0,"TOWNNAME":"永康區","LI":"新樹里","LIN":"3鄰","STREET":"中山北路","SECT":" ","MAREA":" ","LANE":" ","ALLEY":" ","HOUSE_NO":"６３０號","E_COORD97":175907.29999999999,"N_COORD97":2547835.9500000002,"ADDRESS":"中山北路６３０號","OBJECTID":609430},"geometry":{"x":175907.30000000168,"y":2547835.9500000011}},{"attributes":{"ID":609458,"DIS_CODE":0,"TOWNNAME":"中西區","LI":"水仙里","LIN":"14鄰","STREET":"民族路","SECT":"三段","MAREA":" ","LANE":" ","ALLEY":" ","HOUSE_NO":"１９之１號","E_COORD97":167873.16,"N_COORD97":2544254.6699999999,"ADDRESS":"民族路三段１９之１號","OBJECTID":609431},"geometry":{"x":167873.16000000015,"y":2544254.6700000018}},{"attributes":{"ID":609459,"DIS_CODE":0,"TOWNNAME":"永康區","LI":"新樹里","LIN":"3鄰","STREET":"富強路","SECT":"二段","MAREA":" ","LANE":" ","ALLEY":" ","HOUSE_NO":"３８３號","E_COORD97":175558.79999999999,"N_COORD97":2547698.2400000002,"ADDRESS":"富強路二段３８３號","OBJECTID":609432},"geometry":{"x":175558.80000000075,"y":2547698.2400000039}},{"attributes":{"ID":609460,"DIS_CODE":0,"TOWNNAME":"永康區","LI":"網寮里","LIN":"3鄰","STREET":"永二街","SECT":" ","MAREA":" ","LANE":" ","ALLEY":" ","HOUSE_NO":"９６號","E_COORD97":173525.76000000001,"N_COORD97":2546533.25,"ADDRESS":"永二街９６號","OBJECTID":609433},"geometry":{"x":173525.76000000164,"y":2546533.25}},{"attributes":{"ID":609461,"DIS_CODE":0,"TOWNNAME":"永康區","LI":"龍潭里","LIN":"3鄰","STREET":"龍安街","SECT":" ","MAREA":" ","LANE":" ","ALLEY":" ","HOUSE_NO":"３５號","E_COORD97":174567.56,"N_COORD97":2548122.3300000001,"ADDRESS":"龍安街３５號","OBJECTID":609434},"geometry":{"x":174567.55999999959,"y":2548122.3300000019}},{"attributes":{"ID":609462,"DIS_CODE":0,"TOWNNAME":"永康區","LI":"新樹里","LIN":"3鄰","STREET":"中山北路","SECT":" ","MAREA":" ","LANE":" ","ALLEY":" ","HOUSE_NO":"７５４號","E_COORD97":176244.76999999999,"N_COORD97":2547939.6200000001,"ADDRESS":"中山北路７５４號","OBJECTID":609435},"geometry":{"x":176244.77000000048,"y":2547939.620000001}},{"attributes":{"ID":609463,"DIS_CODE":0,"TOWNNAME":"永康區","LI":"網寮里","LIN":"3鄰","STREET":"永二街","SECT":" ","MAREA":" ","LANE":" ","ALLEY":" ","HOUSE_NO":"８０號","E_COORD97":173560.04999999999,"N_COORD97":2546559.9399999999,"ADDRESS":"永二街８０號","OBJECTID":609436},"geometry":{"x":173560.05000000075,"y":2546559.9399999976}},{"attributes":{"ID":609464,"DIS_CODE":0,"TOWNNAME":"永康區","LI":"新樹里","LIN":"3鄰","STREET":"富強路","SECT":"二段","MAREA":" ","LANE":" ","ALLEY":" ","HOUSE_NO":"３５８號","E_COORD97":175581.29999999999,"N_COORD97":2547613.7200000002,"ADDRESS":"富強路二段３５８號","OBJECTID":609437},"geometry":{"x":175581.29999999981,"y":2547613.7199999988}},{"attributes":{"ID":609465,"DIS_CODE":0,"TOWNNAME":"永康區","LI":"新樹里","LIN":"3鄰","STREET":"富強路","SECT":"二段","MAREA":" ","LANE":" ","ALLEY":" ","HOUSE_NO":"３０５號","E_COORD97":175580.31,"N_COORD97":2547515.4399999999,"ADDRESS":"富強路二段３０５號","OBJECTID":609438},"geometry":{"x":175580.31000000052,"y":2547515.4399999995}},{"attributes":{"ID":609466,"DIS_CODE":0,"TOWNNAME":"永康區","LI":"龍潭里","LIN":"3鄰","STREET":"龍安街","SECT":" ","MAREA":" ","LANE":" ","ALLEY":" ","HOUSE_NO":"２９號","E_COORD97":174566.79999999999,"N_COORD97":2548109.52,"ADDRESS":"龍安街２９號","OBJECTID":609439},"geometry":{"x":174566.80000000075,"y":2548109.5200000014}},{"attributes":{"ID":609467,"DIS_CODE":0,"TOWNNAME":"永康區","LI":"新樹里","LIN":"3鄰","STREET":"富強路","SECT":"二段","MAREA":" ","LANE":" ","ALLEY":" ","HOUSE_NO":"３９４號","E_COORD97":175591.09,"N_COORD97":2547700.77,"ADDRESS":"富強路二段３９４號","OBJECTID":609440},"geometry":{"x":175591.08999999985,"y":2547700.7700000033}},{"attributes":{"ID":609468,"DIS_CODE":0,"TOWNNAME":"永康區","LI":"新樹里","LIN":"3鄰","STREET":"富強路","SECT":"二段","MAREA":" ","LANE":" ","ALLEY":" ","HOUSE_NO":"３０９號","E_COORD97":175574.32999999999,"N_COORD97":2547526.0299999998,"ADDRESS":"富強路二段３０９號","OBJECTID":609441},"geometry":{"x":175574.33000000007,"y":2547526.0300000012}},{"attributes":{"ID":609469,"DIS_CODE":0,"TOWNNAME":"永康區","LI":"新樹里","LIN":"3鄰","STREET":"富強路","SECT":"二段","MAREA":" ","LANE":" ","ALLEY":" ","HOUSE_NO":"３９４號之１","E_COORD97":175610.51000000001,"N_COORD97":2547677.0499999998,"ADDRESS":"富強路二段３９４號之１","OBJECTID":609442},"geometry":{"x":175610.50999999978,"y":2547677.0500000026}},{"attributes":{"ID":609470,"DIS_CODE":0,"TOWNNAME":"永康區","LI":"新樹里","LIN":"3鄰","STREET":"富強路","SECT":"二段","MAREA":" ","LANE":" ","ALLEY":" ","HOUSE_NO":"３４２號","E_COORD97":175582.32000000001,"N_COORD97":2547580.4100000001,"ADDRESS":"富強路二段３４２號","OBJECTID":609443},"geometry":{"x":175582.32000000123,"y":2547580.4100000001}},{"attributes":{"ID":609471,"DIS_CODE":0,"TOWNNAME":"永康區","LI":"蔦松里","LIN":"3鄰","STREET":"中正北路","SECT":" ","MAREA":" ","LANE":" ","ALLEY":" ","HOUSE_NO":"６０５號","E_COORD97":173976.57000000001,"N_COORD97":2549263.4900000002,"ADDRESS":"中正北路６０５號","OBJECTID":609444},"geometry":{"x":173976.5700000003,"y":2549263.4900000021}},{"attributes":{"ID":609472,"DIS_CODE":0,"TOWNNAME":"永康區","LI":"新樹里","LIN":"3鄰","STREET":"中山北路","SECT":" ","MAREA":" ","LANE":" ","ALLEY":" ","HOUSE_NO":"７４６號","E_COORD97":176196.17999999999,"N_COORD97":2547941.1800000002,"ADDRESS":"中山北路７４６號","OBJECTID":609445},"geometry":{"x":176196.18000000156,"y":2547941.1799999997}},{"attributes":{"ID":609473,"DIS_CODE":0,"TOWNNAME":"永康區","LI":"網寮里","LIN":"3鄰","STREET":"永二街","SECT":" ","MAREA":" ","LANE":" ","ALLEY":" ","HOUSE_NO":"９８號","E_COORD97":173526.09,"N_COORD97":2546518.0499999998,"ADDRESS":"永二街９８號","OBJECTID":609446},"geometry":{"x":173526.09000000078,"y":2546518.0500000026}},{"attributes":{"ID":609474,"DIS_CODE":0,"TOWNNAME":"永康區","LI":"龍潭里","LIN":"3鄰","STREET":"龍安街","SECT":" ","MAREA":" ","LANE":" ","ALLEY":" ","HOUSE_NO":"２３號","E_COORD97":174565.54999999999,"N_COORD97":2548096.52,"ADDRESS":"龍安街２３號","OBJECTID":609447},"geometry":{"x":174565.54999999981,"y":2548096.5200000014}},{"attributes":{"ID":609475,"DIS_CODE":0,"TOWNNAME":"永康區","LI":"新樹里","LIN":"3鄰","STREET":"富強路","SECT":"二段","MAREA":" ","LANE":" ","ALLEY":" ","HOUSE_NO":"４０２號","E_COORD97":175599.73000000001,"N_COORD97":2547722.7999999998,"ADDRESS":"富強路二段４０２號","OBJECTID":609448},"geometry":{"x":175599.72999999952,"y":2547722.8000000026}},{"attributes":{"ID":609476,"DIS_CODE":0,"TOWNNAME":"永康區","LI":"新樹里","LIN":"3鄰","STREET":"富強路","SECT":"二段","MAREA":" ","LANE":" ","ALLEY":" ","HOUSE_NO":"３３８號","E_COORD97":175585.97,"N_COORD97":2547569.9900000002,"ADDRESS":"富強路二段３３８號","OBJECTID":609449},"geometry":{"x":175585.97000000067,"y":2547569.9900000002}},{"attributes":{"ID":609477,"DIS_CODE":0,"TOWNNAME":"永康區","LI":"龍潭里","LIN":"3鄰","STREET":"龍安街","SECT":" ","MAREA":" ","LANE":" ","ALLEY":" ","HOUSE_NO":"１１號","E_COORD97":174561.06,"N_COORD97":2548065.1800000002,"ADDRESS":"龍安街１１號","OBJECTID":609450},"geometry":{"x":174561.06000000145,"y":2548065.1800000016}},{"attributes":{"ID":609478,"DIS_CODE":0,"TOWNNAME":"永康區","LI":"龍潭里","LIN":"3鄰","STREET":"龍安街","SECT":" ","MAREA":" ","LANE":" ","ALLEY":" ","HOUSE_NO":"１３號","E_COORD97":174561.57999999999,"N_COORD97":2548069.9300000002,"ADDRESS":"龍安街１３號","OBJECTID":609451},"geometry":{"x":174561.58000000101,"y":2548069.9300000016}},{"attributes":{"ID":609479,"DIS_CODE":0,"TOWNNAME":"永康區","LI":"新樹里","LIN":"3鄰","STREET":"富強路","SECT":"二段","MAREA":" ","LANE":" ","ALLEY":" ","HOUSE_NO":"３３３號之１","E_COORD97":175555.14999999999,"N_COORD97":2547575.8300000001,"ADDRESS":"富強路二段３３３號之１","OBJECTID":609452},"geometry":{"x":175555.1500000013,"y":2547575.8300000019}},{"attributes":{"ID":609480,"DIS_CODE":0,"TOWNNAME":"永康區","LI":"蔦松里","LIN":"3鄰","STREET":"蔦松一街","SECT":" ","MAREA":" ","LANE":" ","ALLEY":" ","HOUSE_NO":"１９號","E_COORD97":174015.35000000001,"N_COORD97":2549353.1200000001,"ADDRESS":"蔦松一街１９號","OBJECTID":609453},"geometry":{"x":174015.35000000056,"y":2549353.120000001}},{"attributes":{"ID":609481,"DIS_CODE":0,"TOWNNAME":"永康區","LI":"龍潭里","LIN":"3鄰","STREET":"龍安街","SECT":" ","MAREA":" ","LANE":" ","ALLEY":" ","HOUSE_NO":"３１號","E_COORD97":174566.25,"N_COORD97":2548113.8199999998,"ADDRESS":"龍安街３１號","OBJECTID":609454},"geometry":{"x":174566.25,"y":2548113.8200000003}},{"attributes":{"ID":609482,"DIS_CODE":0,"TOWNNAME":"永康區","LI":"龍潭里","LIN":"3鄰","STREET":"龍安街","SECT":" ","MAREA":" ","LANE":" ","ALLEY":" ","HOUSE_NO":"７號","E_COORD97":174558.72,"N_COORD97":2548055.9199999999,"ADDRESS":"龍安街７號","OBJECTID":609455},"geometry":{"x":174558.72000000067,"y":2548055.9200000037}},{"attributes":{"ID":609483,"DIS_CODE":0,"TOWNNAME":"仁德區","LI":"土庫里","LIN":"3鄰","STREET":"土庫三街","SECT":" ","MAREA":" ","LANE":" ","ALLEY":" ","HOUSE_NO":"７６號","E_COORD97":174304.247015,"N_COORD97":2543063.0323700001,"ADDRESS":"土庫三街７６號","OBJECTID":609456},"geometry":{"x":174304.24701500032,"y":2543063.0323709995}},{"attributes":{"ID":609484,"DIS_CODE":0,"TOWNNAME":"仁德區","LI":"土庫里","LIN":"3鄰","STREET":"土庫路","SECT":" ","MAREA":" ","LANE":" ","ALLEY":" ","HOUSE_NO":"１３６號之１","E_COORD97":174318.85999999999,"N_COORD97":2542974.79,"ADDRESS":"土庫路１３６號之１","OBJECTID":609457},"geometry":{"x":174318.8599999994,"y":2542974.790000001}},{"attributes":{"ID":609485,"DIS_CODE":0,"TOWNNAME":"仁德區","LI":"一甲里","LIN":"3鄰","STREET":"中正路","SECT":"三段","MAREA":" ","LANE":" ","ALLEY":" ","HOUSE_NO":"１３０號","E_COORD97":173439.89000000001,"N_COORD97":2541693.27,"ADDRESS":"中正路三段１３０號","OBJECTID":609458},"geometry":{"x":173439.88999999873,"y":2541693.2700000014}},{"attributes":{"ID":609486,"DIS_CODE":0,"TOWNNAME":"仁德區","LI":"土庫里","LIN":"3鄰","STREET":"土庫路","SECT":" ","MAREA":" ","LANE":" ","ALLEY":" ","HOUSE_NO":"２０８號","E_COORD97":174220.20000000001,"N_COORD97":2542851.4900000002,"ADDRESS":"土庫路２０８號","OBJECTID":609459},"geometry":{"x":174220.20000000112,"y":2542851.4900000039}},{"attributes":{"ID":609487,"DIS_CODE":0,"TOWNNAME":"仁德區","LI":"土庫里","LIN":"3鄰","STREET":"土庫路","SECT":" ","MAREA":" ","LANE":" ","ALLEY":" ","HOUSE_NO":"１２６號","E_COORD97":174345.23999999999,"N_COORD97":2543011.25,"ADDRESS":"土庫路１２６號","OBJECTID":609460},"geometry":{"x":174345.24000000209,"y":2543011.25}},{"attributes":{"ID":609488,"DIS_CODE":0,"TOWNNAME":"仁德區","LI":"土庫里","LIN":"3鄰","STREET":"土庫路","SECT":" ","MAREA":" ","LANE":" ","ALLEY":" ","HOUSE_NO":"１８０號","E_COORD97":174265.10000000001,"N_COORD97":2542896,"ADDRESS":"土庫路１８０號","OBJECTID":609461},"geometry":{"x":174265.09999999963,"y":2542896.0000000019}},{"attributes":{"ID":609489,"DIS_CODE":0,"TOWNNAME":"仁德區","LI":"一甲里","LIN":"3鄰","STREET":"中正路","SECT":"三段","MAREA":" ","LANE":" ","ALLEY":" ","HOUSE_NO":"１５４號","E_COORD97":173464.12,"N_COORD97":2541749.7799999998,"ADDRESS":"中正路三段１５４號","OBJECTID":609462},"geometry":{"x":173464.12000000011,"y":2541749.7799999993}},{"attributes":{"ID":609490,"DIS_CODE":0,"TOWNNAME":"仁德區","LI":"大甲里","LIN":"3鄰","STREET":"行大一街","SECT":" ","MAREA":" ","LANE":" ","ALLEY":" ","HOUSE_NO":"２１２號","E_COORD97":169772.75,"N_COORD97":2535063.7400000002,"ADDRESS":"行大一街２１２號","OBJECTID":609463},"geometry":{"x":169772.74999999907,"y":2535063.7400000021}},{"attributes":{"ID":609491,"DIS_CODE":0,"TOWNNAME":"仁德區","LI":"大甲里","LIN":"3鄰","STREET":"行大一街","SECT":" ","MAREA":" ","LANE":" ","ALLEY":" ","HOUSE_NO":"１９２號","E_COORD97":169805.92999999999,"N_COORD97":2535029.25,"ADDRESS":"行大一街１９２號","OBJECTID":609464},"geometry":{"x":169805.93000000063,"y":2535029.2500000019}},{"attributes":{"ID":609492,"DIS_CODE":0,"TOWNNAME":"仁德區","LI":"大甲里","LIN":"3鄰","STREET":"行大一街","SECT":" ","MAREA":" ","LANE":" ","ALLEY":" ","HOUSE_NO":"１８８之２號","E_COORD97":169834.95000000001,"N_COORD97":2535020.7999999998,"ADDRESS":"行大一街１８８之２號","OBJECTID":609465},"geometry":{"x":169834.95000000112,"y":2535020.8000000007}},{"attributes":{"ID":609493,"DIS_CODE":0,"TOWNNAME":"仁德區","LI":"大甲里","LIN":"3鄰","STREET":"行大街","SECT":" ","MAREA":" ","LANE":" ","ALLEY":" ","HOUSE_NO":"２４３號","E_COORD97":169838.57000000001,"N_COORD97":2535098.2400000002,"ADDRESS":"行大街２４３號","OBJECTID":609466},"geometry":{"x":169838.5700000003,"y":2535098.2400000002}},{"attributes":{"ID":609494,"DIS_CODE":0,"TOWNNAME":"仁德區","LI":"一甲里","LIN":"3鄰","STREET":"中正路","SECT":"三段","MAREA":" ","LANE":" ","ALLEY":" ","HOUSE_NO":"１１２號","E_COORD97":173418.23999999999,"N_COORD97":2541647.7799999998,"ADDRESS":"中正路三段１１２號","OBJECTID":609467},"geometry":{"x":173418.24000000115,"y":2541647.7799999993}},{"attributes":{"ID":609495,"DIS_CODE":0,"TOWNNAME":"仁德區","LI":"一甲里","LIN":"3鄰","STREET":"正義三街","SECT":" ","MAREA":" ","LANE":" ","ALLEY":" ","HOUSE_NO":"９號","E_COORD97":173437.87,"N_COORD97":2541621.0099999998,"ADDRESS":"正義三街９號","OBJECTID":609468},"geometry":{"x":173437.87000000104,"y":2541621.0100000016}},{"attributes":{"ID":609496,"DIS_CODE":0,"TOWNNAME":"仁德區","LI":"一甲里","LIN":"3鄰","STREET":"中正路","SECT":"三段","MAREA":" ","LANE":" ","ALLEY":" ","HOUSE_NO":"１３２號","E_COORD97":173440.98999999999,"N_COORD97":2541697.27,"ADDRESS":"中正路三段１３２號","OBJECTID":609469},"geometry":{"x":173440.99000000022,"y":2541697.2700000014}},{"attributes":{"ID":609497,"DIS_CODE":0,"TOWNNAME":"仁德區","LI":"土庫里","LIN":"3鄰","STREET":"土庫路","SECT":" ","MAREA":" ","LANE":" ","ALLEY":" ","HOUSE_NO":"１７８號","E_COORD97":174243.70999999999,"N_COORD97":2542933,"ADDRESS":"土庫路１７８號","OBJECTID":609470},"geometry":{"x":174243.71000000089,"y":2542933.0000000019}},{"attributes":{"ID":609498,"DIS_CODE":0,"TOWNNAME":"仁德區","LI":"土庫里","LIN":"3鄰","STREET":"土庫路","SECT":" ","MAREA":" ","LANE":" ","ALLEY":" ","HOUSE_NO":"２０６號","E_COORD97":174223.26999999999,"N_COORD97":2542853.7400000002,"ADDRESS":"土庫路２０６號","OBJECTID":609471},"geometry":{"x":174223.26999999955,"y":2542853.7400000021}},{"attributes":{"ID":609499,"DIS_CODE":0,"TOWNNAME":"仁德區","LI":"大甲里","LIN":"3鄰","STREET":"行大一街","SECT":" ","MAREA":" ","LANE":" ","ALLEY":" ","HOUSE_NO":"１７０號","E_COORD97":169817.20000000001,"N_COORD97":2535071.9900000002,"ADDRESS":"行大一街１７０號","OBJECTID":609472},"geometry":{"x":169817.20000000019,"y":2535071.9900000021}},{"attributes":{"ID":609500,"DIS_CODE":0,"TOWNNAME":"仁德區","LI":"大甲里","LIN":"3鄰","STREET":"行大一街","SECT":" ","MAREA":" ","LANE":" ","ALLEY":" ","HOUSE_NO":"１３８號","E_COORD97":169896.60000000001,"N_COORD97":2535021,"ADDRESS":"行大一街１３８號","OBJECTID":609473},"geometry":{"x":169896.59999999963,"y":2535021.0000000019}},{"attributes":{"ID":609501,"DIS_CODE":0,"TOWNNAME":"仁德區","LI":"一甲里","LIN":"3鄰","STREET":"中正路","SECT":"三段","MAREA":" ","LANE":" ","ALLEY":" ","HOUSE_NO":"１１０號","E_COORD97":173414.59,"N_COORD97":2541641.0299999998,"ADDRESS":"中正路三段１１０號","OBJECTID":609474},"geometry":{"x":173414.58999999985,"y":2541641.0300000012}},{"attributes":{"ID":609502,"DIS_CODE":0,"TOWNNAME":"仁德區","LI":"大甲里","LIN":"3鄰","STREET":"行大一街","SECT":" ","MAREA":" ","LANE":" ","ALLEY":" ","HOUSE_NO":"２０８號","E_COORD97":169789.98999999999,"N_COORD97":2535047.25,"ADDRESS":"行大一街２０８號","OBJECTID":609475},"geometry":{"x":169789.99000000022,"y":2535047.25}},{"attributes":{"ID":609503,"DIS_CODE":0,"TOWNNAME":"仁德區","LI":"土庫里","LIN":"3鄰","STREET":"土庫路","SECT":" ","MAREA":" ","LANE":" ","ALLEY":" ","HOUSE_NO":"１１４號","E_COORD97":174346.95999999999,"N_COORD97":2543048.2400000002,"ADDRESS":"土庫路１１４號","OBJECTID":609476},"geometry":{"x":174346.96000000089,"y":2543048.2400000002}},{"attributes":{"ID":609504,"DIS_CODE":0,"TOWNNAME":"仁德區","LI":"土庫里","LIN":"3鄰","STREET":"土庫路","SECT":" ","MAREA":" ","LANE":" ","ALLEY":" ","HOUSE_NO":"１２２號","E_COORD97":174342.70000000001,"N_COORD97":2543030.5,"ADDRESS":"土庫路１２２號","OBJECTID":609477},"geometry":{"x":174342.70000000112,"y":2543030.5}},{"attributes":{"ID":609505,"DIS_CODE":0,"TOWNNAME":"仁德區","LI":"土庫里","LIN":"3鄰","STREET":"土庫路","SECT":" ","MAREA":" ","LANE":" ","ALLEY":" ","HOUSE_NO":"２０２號","E_COORD97":174227.01000000001,"N_COORD97":2542855.9900000002,"ADDRESS":"土庫路２０２號","OBJECTID":609478},"geometry":{"x":174227.00999999978,"y":2542855.9900000021}},{"attributes":{"ID":609506,"DIS_CODE":0,"TOWNNAME":"仁德區","LI":"土庫里","LIN":"3鄰","STREET":"土庫路","SECT":" ","MAREA":" ","LANE":" ","ALLEY":" ","HOUSE_NO":"１４８號","E_COORD97":174298.35999999999,"N_COORD97":2542947.7400000002,"ADDRESS":"土庫路１４８號","OBJECTID":609479},"geometry":{"x":174298.36000000034,"y":2542947.7400000002}},{"attributes":{"ID":609507,"DIS_CODE":0,"TOWNNAME":"仁德區","LI":"土庫里","LIN":"3鄰","STREET":"土庫路","SECT":" ","MAREA":" ","LANE":" ","ALLEY":" ","HOUSE_NO":"２１０號","E_COORD97":174217.04000000001,"N_COORD97":2542848.9900000002,"ADDRESS":"土庫路２１０號","OBJECTID":609480},"geometry":{"x":174217.04000000004,"y":2542848.9900000021}},{"attributes":{"ID":609508,"DIS_CODE":0,"TOWNNAME":"仁德區","LI":"一甲里","LIN":"3鄰","STREET":"中正路","SECT":"三段","MAREA":" ","LANE":" ","ALLEY":" ","HOUSE_NO":"１５６號","E_COORD97":173466.29000000001,"N_COORD97":2541753.7799999998,"ADDRESS":"中正路三段１５６號","OBJECTID":609481},"geometry":{"x":173466.29000000004,"y":2541753.7800000012}},{"attributes":{"ID":609509,"DIS_CODE":0,"TOWNNAME":"仁德區","LI":"土庫里","LIN":"3鄰","STREET":"土庫路","SECT":" ","MAREA":" ","LANE":" ","ALLEY":" ","HOUSE_NO":"１１２號","E_COORD97":174345.45000000001,"N_COORD97":2543056.2400000002,"ADDRESS":"土庫路１１２號","OBJECTID":609482},"geometry":{"x":174345.45000000205,"y":2543056.2400000002}},{"attributes":{"ID":609510,"DIS_CODE":0,"TOWNNAME":"仁德區","LI":"土庫里","LIN":"3鄰","STREET":"土庫三街","SECT":" ","MAREA":" ","LANE":" ","ALLEY":" ","HOUSE_NO":"６８號","E_COORD97":174264.45000000001,"N_COORD97":2543061.7400000002,"ADDRESS":"土庫三街６８號","OBJECTID":609483},"geometry":{"x":174264.45000000112,"y":2543061.7400000002}},{"attributes":{"ID":609511,"DIS_CODE":0,"TOWNNAME":"仁德區","LI":"一甲里","LIN":"3鄰","STREET":"中正路","SECT":"三段","MAREA":" ","LANE":" ","ALLEY":" ","HOUSE_NO":"１５８號","E_COORD97":173468.12,"N_COORD97":2541758.5299999998,"ADDRESS":"中正路三段１５８號","OBJECTID":609484},"geometry":{"x":173468.12000000104,"y":2541758.5300000031}},{"attributes":{"ID":609512,"DIS_CODE":0,"TOWNNAME":"仁德區","LI":"土庫里","LIN":"3鄰","STREET":"土庫路","SECT":" ","MAREA":" ","LANE":" ","ALLEY":" ","HOUSE_NO":"１７２號","E_COORD97":174241.42000000001,"N_COORD97":2542967.9900000002,"ADDRESS":"土庫路１７２號","OBJECTID":609485},"geometry":{"x":174241.41999999993,"y":2542967.9900000021}},{"attributes":{"ID":609513,"DIS_CODE":0,"TOWNNAME":"仁德區","LI":"仁義里","LIN":"3鄰","STREET":"仁義路","SECT":" ","MAREA":" ","LANE":" ","ALLEY":" ","HOUSE_NO":"２２１號","E_COORD97":173939.35999999999,"N_COORD97":2541006.7599999998,"ADDRESS":"仁義路２２１號","OBJECTID":609486},"geometry":{"x":173939.3600000022,"y":2541006.7599999998}},{"attributes":{"ID":609514,"DIS_CODE":0,"TOWNNAME":"安南區","LI":"顯宮里","LIN":"3鄰","STREET":"科技二路","SECT":" ","MAREA":" ","LANE":" ","ALLEY":" ","HOUSE_NO":"５號","E_COORD97":162569.82999999999,"N_COORD97":2549123.3500000001,"ADDRESS":"科技二路５號","OBJECTID":609487},"geometry":{"x":162569.83000000101,"y":2549123.3499999996}},{"attributes":{"ID":609515,"DIS_CODE":0,"TOWNNAME":"仁德區","LI":"仁義里","LIN":"3鄰","STREET":"仁義路","SECT":" ","MAREA":" ","LANE":" ","ALLEY":" ","HOUSE_NO":"２１９號","E_COORD97":173931.10000000001,"N_COORD97":2541005.2599999998,"ADDRESS":"仁義路２１９號","OBJECTID":609488},"geometry":{"x":173931.09999999963,"y":2541005.2600000016}},{"attributes":{"ID":609516,"DIS_CODE":0,"TOWNNAME":"仁德區","LI":"仁德里","LIN":"3鄰","STREET":"仁中七街","SECT":" ","MAREA":" ","LANE":" ","ALLEY":" ","HOUSE_NO":"３６號","E_COORD97":173295.64999999999,"N_COORD97":2540340.7599999998,"ADDRESS":"仁中七街３６號","OBJECTID":609489},"geometry":{"x":173295.6500000013,"y":2540340.7600000016}},{"attributes":{"ID":609517,"DIS_CODE":0,"TOWNNAME":"仁德區","LI":"仁德里","LIN":"3鄰","STREET":"仁中七街","SECT":" ","MAREA":" ","LANE":" ","ALLEY":" ","HOUSE_NO":"１８６號","E_COORD97":173275.14999999999,"N_COORD97":2540389.25,"ADDRESS":"仁中七街１８６號","OBJECTID":609490},"geometry":{"x":173275.1500000013,"y":2540389.2500000019}},{"attributes":{"ID":609518,"DIS_CODE":0,"TOWNNAME":"仁德區","LI":"仁德里","LIN":"3鄰","STREET":"仁中七街","SECT":" ","MAREA":" ","LANE":" ","ALLEY":" ","HOUSE_NO":"１７０號","E_COORD97":173302.12,"N_COORD97":2540391,"ADDRESS":"仁中七街１７０號","OBJECTID":609491},"geometry":{"x":173302.12000000104,"y":2540391.0000000019}},{"attributes":{"ID":609519,"DIS_CODE":0,"TOWNNAME":"仁德區","LI":"仁德里","LIN":"3鄰","STREET":"仁中三街","SECT":" ","MAREA":" ","LANE":" ","ALLEY":" ","HOUSE_NO":"４５號","E_COORD97":173339.66,"N_COORD97":2540410.5,"ADDRESS":"仁中三街４５號","OBJECTID":609492},"geometry":{"x":173339.66000000015,"y":2540410.5000000019}},{"attributes":{"ID":609520,"DIS_CODE":0,"TOWNNAME":"仁德區","LI":"仁義里","LIN":"3鄰","STREET":"仁義三街","SECT":" ","MAREA":" ","LANE":" ","ALLEY":" ","HOUSE_NO":"２３３號","E_COORD97":173946.23999999999,"N_COORD97":2541124.52,"ADDRESS":"仁義三街２３３號","OBJECTID":609493},"geometry":{"x":173946.24000000022,"y":2541124.5199999996}},{"attributes":{"ID":609521,"DIS_CODE":0,"TOWNNAME":"仁德區","LI":"仁德里","LIN":"3鄰","STREET":"仁中七街","SECT":" ","MAREA":" ","LANE":" ","ALLEY":" ","HOUSE_NO":"６號","E_COORD97":173274,"N_COORD97":2540319.2599999998,"ADDRESS":"仁中七街６號","OBJECTID":609494},"geometry":{"x":173274.00000000093,"y":2540319.2599999998}},{"attributes":{"ID":609522,"DIS_CODE":0,"TOWNNAME":"仁德區","LI":"仁德里","LIN":"3鄰","STREET":"仁中七街","SECT":" ","MAREA":" ","LANE":" ","ALLEY":" ","HOUSE_NO":"４２號","E_COORD97":173309.19,"N_COORD97":2540340.2599999998,"ADDRESS":"仁中七街４２號","OBJECTID":609495},"geometry":{"x":173309.19000000041,"y":2540340.2600000035}},{"attributes":{"ID":609523,"DIS_CODE":0,"TOWNNAME":"仁德區","LI":"仁德里","LIN":"3鄰","STREET":"仁中七街","SECT":" ","MAREA":" ","LANE":" ","ALLEY":" ","HOUSE_NO":"２０號","E_COORD97":173269.45999999999,"N_COORD97":2540326.2599999998,"ADDRESS":"仁中七街２０號","OBJECTID":609496},"geometry":{"x":173269.45999999996,"y":2540326.2599999998}},{"attributes":{"ID":609524,"DIS_CODE":0,"TOWNNAME":"仁德區","LI":"仁德里","LIN":"3鄰","STREET":"仁中七街","SECT":" ","MAREA":" ","LANE":" ","ALLEY":" ","HOUSE_NO":"１７６號","E_COORD97":173292.59,"N_COORD97":2540388.75,"ADDRESS":"仁中七街１７６號","OBJECTID":609497},"geometry":{"x":173292.58999999985,"y":2540388.7500000019}},{"attributes":{"ID":609525,"DIS_CODE":0,"TOWNNAME":"仁德區","LI":"仁德里","LIN":"3鄰","STREET":"仁中七街","SECT":" ","MAREA":" ","LANE":" ","ALLEY":" ","HOUSE_NO":"６２號","E_COORD97":173344.79999999999,"N_COORD97":2540339.7599999998,"ADDRESS":"仁中七街６２號","OBJECTID":609498},"geometry":{"x":173344.80000000075,"y":2540339.7599999998}},{"attributes":{"ID":609526,"DIS_CODE":0,"TOWNNAME":"仁德區","LI":"仁義里","LIN":"3鄰","STREET":"仁義三街","SECT":" ","MAREA":" ","LANE":" ","ALLEY":" ","HOUSE_NO":"２３５號","E_COORD97":173950.57000000001,"N_COORD97":2541124.27,"ADDRESS":"仁義三街２３５號","OBJECTID":609499},"geometry":{"x":173950.5700000003,"y":2541124.2700000014}},{"attributes":{"ID":609527,"DIS_CODE":0,"TOWNNAME":"仁德區","LI":"仁德里","LIN":"3鄰","STREET":"仁中七街","SECT":" ","MAREA":" ","LANE":" ","ALLEY":" ","HOUSE_NO":"７０號","E_COORD97":173358.45000000001,"N_COORD97":2540340.2599999998,"ADDRESS":"仁中七街７０號","OBJECTID":609500},"geometry":{"x":173358.45000000019,"y":2540340.2600000035}},{"attributes":{"ID":609528,"DIS_CODE":0,"TOWNNAME":"仁德區","LI":"仁德里","LIN":"3鄰","STREET":"仁中七街","SECT":" ","MAREA":" ","LANE":" ","ALLEY":" ","HOUSE_NO":"４８號","E_COORD97":173317.60999999999,"N_COORD97":2540340.0099999998,"ADDRESS":"仁中七街４８號","OBJECTID":609501},"geometry":{"x":173317.61000000127,"y":2540340.0100000016}},{"attributes":{"ID":609529,"DIS_CODE":0,"TOWNNAME":"仁德區","LI":"仁德里","LIN":"3鄰","STREET":"仁中七街","SECT":" ","MAREA":" ","LANE":" ","ALLEY":" ","HOUSE_NO":"２號","E_COORD97":173267.85999999999,"N_COORD97":2540319.7599999998,"ADDRESS":"仁中七街２號","OBJECTID":609502},"geometry":{"x":173267.8599999994,"y":2540319.7599999979}},{"attributes":{"ID":609530,"DIS_CODE":0,"TOWNNAME":"仁德區","LI":"仁義里","LIN":"3鄰","STREET":"仁義三街","SECT":" ","MAREA":" ","LANE":" ","ALLEY":" ","HOUSE_NO":"２２１號","E_COORD97":173914.35999999999,"N_COORD97":2541133.02,"ADDRESS":"仁義三街２２１號","OBJECTID":609503},"geometry":{"x":173914.36000000127,"y":2541133.0200000014}},{"attributes":{"ID":609531,"DIS_CODE":0,"TOWNNAME":"仁德區","LI":"仁德里","LIN":"3鄰","STREET":"仁中七街","SECT":" ","MAREA":" ","LANE":" ","ALLEY":" ","HOUSE_NO":"３８號","E_COORD97":173300.04000000001,"N_COORD97":2540340.7599999998,"ADDRESS":"仁中七街３８號","OBJECTID":609504},"geometry":{"x":173300.04000000004,"y":2540340.7600000016}},{"attributes":{"ID":609532,"DIS_CODE":0,"TOWNNAME":"仁德區","LI":"仁德里","LIN":"3鄰","STREET":"仁中七街","SECT":" ","MAREA":" ","LANE":" ","ALLEY":" ","HOUSE_NO":"２２號","E_COORD97":173269.51000000001,"N_COORD97":2540343.2599999998,"ADDRESS":"仁中七街２２號","OBJECTID":609505},"geometry":{"x":173269.50999999978,"y":2540343.2599999998}},{"attributes":{"ID":609533,"DIS_CODE":0,"TOWNNAME":"仁德區","LI":"仁德里","LIN":"3鄰","STREET":"仁中七街","SECT":" ","MAREA":" ","LANE":" ","ALLEY":" ","HOUSE_NO":"９６號","E_COORD97":173363.78,"N_COORD97":2540359.75,"ADDRESS":"仁中七街９６號","OBJECTID":609506},"geometry":{"x":173363.78000000119,"y":2540359.75}},{"attributes":{"ID":609534,"DIS_CODE":0,"TOWNNAME":"仁德區","LI":"仁德里","LIN":"3鄰","STREET":"仁中七街","SECT":" ","MAREA":" ","LANE":" ","ALLEY":" ","HOUSE_NO":"３２號","E_COORD97":173290.85999999999,"N_COORD97":2540340.7599999998,"ADDRESS":"仁中七街３２號","OBJECTID":609507},"geometry":{"x":173290.86000000034,"y":2540340.7600000016}},{"attributes":{"ID":609535,"DIS_CODE":0,"TOWNNAME":"仁德區","LI":"仁德里","LIN":"3鄰","STREET":"仁中七街","SECT":" ","MAREA":" ","LANE":" ","ALLEY":" ","HOUSE_NO":"１２號","E_COORD97":173284.72,"N_COORD97":2540325.5099999998,"ADDRESS":"仁中七街１２號","OBJECTID":609508},"geometry":{"x":173284.71999999974,"y":2540325.5100000016}},{"attributes":{"ID":609536,"DIS_CODE":0,"TOWNNAME":"仁德區","LI":"仁德里","LIN":"3鄰","STREET":"仁中七街","SECT":" ","MAREA":" ","LANE":" ","ALLEY":" ","HOUSE_NO":"１８０號","E_COORD97":173284.17000000001,"N_COORD97":2540389.5,"ADDRESS":"仁中七街１８０號","OBJECTID":609509},"geometry":{"x":173284.17000000179,"y":2540389.4999999981}},{"attributes":{"ID":609537,"DIS_CODE":0,"TOWNNAME":"仁德區","LI":"仁德里","LIN":"3鄰","STREET":"仁中三街","SECT":" ","MAREA":" ","LANE":" ","ALLEY":" ","HOUSE_NO":"４３號","E_COORD97":173344.54000000001,"N_COORD97":2540410.5,"ADDRESS":"仁中三街４３號","OBJECTID":609510},"geometry":{"x":173344.5400000019,"y":2540410.5000000019}},{"attributes":{"ID":609538,"DIS_CODE":0,"TOWNNAME":"白河區","LI":"白河里","LIN":"3鄰","STREET":"十全街","SECT":" ","MAREA":" ","LANE":" ","ALLEY":" ","HOUSE_NO":"１之９號","E_COORD97":190342.10999999999,"N_COORD97":2582676.98,"ADDRESS":"十全街１之９號","OBJECTID":609511},"geometry":{"x":190342.11000000127,"y":2582676.9800000004}},{"attributes":{"ID":609539,"DIS_CODE":0,"TOWNNAME":"仁德區","LI":"仁義里","LIN":"3鄰","STREET":"仁義三街","SECT":" ","MAREA":" ","LANE":" ","ALLEY":" ","HOUSE_NO":"２０７號","E_COORD97":173885.81,"N_COORD97":2541127.77,"ADDRESS":"仁義三街２０７號","OBJECTID":609512},"geometry":{"x":173885.80999999959,"y":2541127.7700000014}},{"attributes":{"ID":609540,"DIS_CODE":0,"TOWNNAME":"仁德區","LI":"仁德里","LIN":"3鄰","STREET":"仁中三街","SECT":" ","MAREA":" ","LANE":" ","ALLEY":" ","HOUSE_NO":"４１號","E_COORD97":173349.42000000001,"N_COORD97":2540410.75,"ADDRESS":"仁中三街４１號","OBJECTID":609513},"geometry":{"x":173349.41999999993,"y":2540410.75}},{"attributes":{"ID":609541,"DIS_CODE":0,"TOWNNAME":"仁德區","LI":"仁德里","LIN":"3鄰","STREET":"仁中三街","SECT":" ","MAREA":" ","LANE":" ","ALLEY":" ","HOUSE_NO":"３９號","E_COORD97":173354.48000000001,"N_COORD97":2540411,"ADDRESS":"仁中三街３９號","OBJECTID":609514},"geometry":{"x":173354.48000000138,"y":2540411.0000000019}},{"attributes":{"ID":609542,"DIS_CODE":0,"TOWNNAME":"仁德區","LI":"仁義里","LIN":"3鄰","STREET":"仁義三街","SECT":" ","MAREA":" ","LANE":" ","ALLEY":" ","HOUSE_NO":"２３８號","E_COORD97":173944.75,"N_COORD97":2541103.0099999998,"ADDRESS":"仁義三街２３８號","OBJECTID":609515},"geometry":{"x":173944.75000000186,"y":2541103.0100000016}},{"attributes":{"ID":609543,"DIS_CODE":0,"TOWNNAME":"仁德區","LI":"仁德里","LIN":"3鄰","STREET":"仁中七街","SECT":" ","MAREA":" ","LANE":" ","ALLEY":" ","HOUSE_NO":"３０號","E_COORD97":173284.95999999999,"N_COORD97":2540343.2599999998,"ADDRESS":"仁中七街３０號","OBJECTID":609516},"geometry":{"x":173284.95999999996,"y":2540343.2599999998}},{"attributes":{"ID":609544,"DIS_CODE":0,"TOWNNAME":"仁德區","LI":"仁義里","LIN":"3鄰","STREET":"仁義三街","SECT":" ","MAREA":" ","LANE":" ","ALLEY":" ","HOUSE_NO":"２２２號","E_COORD97":173891,"N_COORD97":2541109.7599999998,"ADDRESS":"仁義三街２２２號","OBJECTID":609517},"geometry":{"x":173891.00000000093,"y":2541109.7599999979}},{"attributes":{"ID":609545,"DIS_CODE":0,"TOWNNAME":"仁德區","LI":"仁義里","LIN":"3鄰","STREET":"仁義三街","SECT":" ","MAREA":" ","LANE":" ","ALLEY":" ","HOUSE_NO":"２２６號","E_COORD97":173899.70999999999,"N_COORD97":2541109.0099999998,"ADDRESS":"仁義三街２２６號","OBJECTID":609518},"geometry":{"x":173899.71000000089,"y":2541109.0100000016}},{"attributes":{"ID":609546,"DIS_CODE":0,"TOWNNAME":"仁德區","LI":"仁德里","LIN":"3鄰","STREET":"仁中七街","SECT":" ","MAREA":" ","LANE":" ","ALLEY":" ","HOUSE_NO":"１０６號","E_COORD97":173346.5,"N_COORD97":2540359.75,"ADDRESS":"仁中七街１０６號","OBJECTID":609519},"geometry":{"x":173346.50000000093,"y":2540359.75}},{"attributes":{"ID":609547,"DIS_CODE":0,"TOWNNAME":"仁德區","LI":"仁德里","LIN":"3鄰","STREET":"仁中七街","SECT":" ","MAREA":" ","LANE":" ","ALLEY":" ","HOUSE_NO":"１６２號","E_COORD97":173292.64999999999,"N_COORD97":2540380.5,"ADDRESS":"仁中七街１６２號","OBJECTID":609520},"geometry":{"x":173292.65000000037,"y":2540380.5000000019}},{"attributes":{"ID":609548,"DIS_CODE":0,"TOWNNAME":"仁德區","LI":"仁德里","LIN":"3鄰","STREET":"仁中七街","SECT":" ","MAREA":" ","LANE":" ","ALLEY":" ","HOUSE_NO":"１６６號","E_COORD97":173297.48000000001,"N_COORD97":2540380.5,"ADDRESS":"仁中七街１６６號","OBJECTID":609521},"geometry":{"x":173297.48000000045,"y":2540380.5000000019}},{"attributes":{"ID":609549,"DIS_CODE":0,"TOWNNAME":"仁德區","LI":"仁義里","LIN":"3鄰","STREET":"仁義三街","SECT":" ","MAREA":" ","LANE":" ","ALLEY":" ","HOUSE_NO":"２３６號","E_COORD97":173939.92999999999,"N_COORD97":2541102.5099999998,"ADDRESS":"仁義三街２３６號","OBJECTID":609522},"geometry":{"x":173939.93000000156,"y":2541102.5100000016}},{"attributes":{"ID":609550,"DIS_CODE":0,"TOWNNAME":"安南區","LI":"顯宮里","LIN":"3鄰","STREET":"工業一路","SECT":" ","MAREA":" ","LANE":" ","ALLEY":" ","HOUSE_NO":"５０號","E_COORD97":163030.12,"N_COORD97":2549466.8799999999,"ADDRESS":"工業一路５０號","OBJECTID":609523},"geometry":{"x":163030.12000000011,"y":2549466.8800000008}},{"attributes":{"ID":609551,"DIS_CODE":0,"TOWNNAME":"安南區","LI":"顯宮里","LIN":"3鄰","STREET":"科技五路","SECT":" ","MAREA":" ","LANE":" ","ALLEY":" ","HOUSE_NO":"１９號","E_COORD97":162298.28,"N_COORD97":2549782.1600000001,"ADDRESS":"科技五路１９號","OBJECTID":609524},"geometry":{"x":162298.28000000026,"y":2549782.1600000001}},{"attributes":{"ID":609552,"DIS_CODE":0,"TOWNNAME":"安南區","LI":"顯宮里","LIN":"3鄰","STREET":"工業一路","SECT":" ","MAREA":" ","LANE":" ","ALLEY":" ","HOUSE_NO":"６０號","E_COORD97":162927.25,"N_COORD97":2549553.5499999998,"ADDRESS":"工業一路６０號","OBJECTID":609525},"geometry":{"x":162927.25,"y":2549553.5500000007}},{"attributes":{"ID":609553,"DIS_CODE":0,"TOWNNAME":"安南區","LI":"顯宮里","LIN":"3鄰","STREET":"工業一路","SECT":" ","MAREA":" ","LANE":" ","ALLEY":" ","HOUSE_NO":"３６號","E_COORD97":163115.51999999999,"N_COORD97":2549375.4300000002,"ADDRESS":"工業一路３６號","OBJECTID":609526},"geometry":{"x":163115.52000000048,"y":2549375.4300000016}},{"attributes":{"ID":609554,"DIS_CODE":0,"TOWNNAME":"安南區","LI":"顯宮里","LIN":"3鄰","STREET":"工業一路","SECT":" ","MAREA":" ","LANE":" ","ALLEY":" ","HOUSE_NO":"３２號","E_COORD97":163146.32000000001,"N_COORD97":2549349.7200000002,"ADDRESS":"工業一路３２號","OBJECTID":609527},"geometry":{"x":163146.32000000216,"y":2549349.7200000044}},{"attributes":{"ID":609555,"DIS_CODE":0,"TOWNNAME":"安南區","LI":"顯宮里","LIN":"3鄰","STREET":"科技一路","SECT":" ","MAREA":" ","LANE":" ","ALLEY":" ","HOUSE_NO":"１０號","E_COORD97":163073.60999999999,"N_COORD97":2549241.1299999999,"ADDRESS":"科技一路１０號","OBJECTID":609528},"geometry":{"x":163073.61000000127,"y":2549241.1300000008}},{"attributes":{"ID":609556,"DIS_CODE":0,"TOWNNAME":"安南區","LI":"顯宮里","LIN":"3鄰","STREET":"工業二路","SECT":" ","MAREA":" ","LANE":" ","ALLEY":" ","HOUSE_NO":"８２號","E_COORD97":162906.92000000001,"N_COORD97":2549211.6099999999,"ADDRESS":"工業二路８２號","OBJECTID":609529},"geometry":{"x":162906.92000000086,"y":2549211.6100000013}},{"attributes":{"ID":609557,"DIS_CODE":0,"TOWNNAME":"安南區","LI":"顯宮里","LIN":"3鄰","STREET":"工業二路","SECT":" ","MAREA":" ","LANE":" ","ALLEY":" ","HOUSE_NO":"５７號","E_COORD97":162911.04999999999,"N_COORD97":2549117.6200000001,"ADDRESS":"工業二路５７號","OBJECTID":609530},"geometry":{"x":162911.05000000075,"y":2549117.6200000029}},{"attributes":{"ID":609558,"DIS_CODE":0,"TOWNNAME":"安南區","LI":"顯宮里","LIN":"3鄰","STREET":"科技五路","SECT":" ","MAREA":" ","LANE":" ","ALLEY":" ","HOUSE_NO":"２１號","E_COORD97":162216.76999999999,"N_COORD97":2549678.98,"ADDRESS":"科技五路２１號","OBJECTID":609531},"geometry":{"x":162216.77000000142,"y":2549678.9800000004}},{"attributes":{"ID":609559,"DIS_CODE":0,"TOWNNAME":"安南區","LI":"顯宮里","LIN":"3鄰","STREET":"科技五路","SECT":" ","MAREA":" ","LANE":" ","ALLEY":" ","HOUSE_NO":"２３號","E_COORD97":162183.12,"N_COORD97":2549647.23,"ADDRESS":"科技五路２３號","OBJECTID":609532},"geometry":{"x":162183.12000000104,"y":2549647.2300000004}},{"attributes":{"ID":609560,"DIS_CODE":0,"TOWNNAME":"安南區","LI":"顯宮里","LIN":"3鄰","STREET":"工業二路","SECT":" ","MAREA":" ","LANE":" ","ALLEY":" ","HOUSE_NO":"７１號","E_COORD97":162703.17999999999,"N_COORD97":2549254.79,"ADDRESS":"工業二路７１號","OBJECTID":609533},"geometry":{"x":162703.18000000063,"y":2549254.7899999991}},{"attributes":{"ID":609561,"DIS_CODE":0,"TOWNNAME":"安南區","LI":"顯宮里","LIN":"3鄰","STREET":"科技一路","SECT":" ","MAREA":" ","LANE":" ","ALLEY":" ","HOUSE_NO":"２６號","E_COORD97":162869.54999999999,"N_COORD97":2549023.6499999999,"ADDRESS":"科技一路２６號","OBJECTID":609534},"geometry":{"x":162869.55000000168,"y":2549023.6500000004}},{"attributes":{"ID":609562,"DIS_CODE":0,"TOWNNAME":"安南區","LI":"顯宮里","LIN":"3鄰","STREET":"科技一路","SECT":" ","MAREA":" ","LANE":" ","ALLEY":" ","HOUSE_NO":"３０號","E_COORD97":162783.19,"N_COORD97":2548883.3199999998,"ADDRESS":"科技一路３０號","OBJECTID":609535},"geometry":{"x":162783.19000000134,"y":2548883.3200000003}},{"attributes":{"ID":609563,"DIS_CODE":0,"TOWNNAME":"麻豆區","LI":"大埕里","LIN":"13鄰","STREET":"平等路","SECT":" ","MAREA":" ","LANE":" ","ALLEY":" ","HOUSE_NO":"８５號","E_COORD97":173038.62,"N_COORD97":2565119.5600000001,"ADDRESS":"平等路８５號","OBJECTID":609536},"geometry":{"x":173038.62000000011,"y":2565119.5600000042}},{"attributes":{"ID":609564,"DIS_CODE":0,"TOWNNAME":"安南區","LI":"顯宮里","LIN":"3鄰","STREET":"科技一路","SECT":" ","MAREA":" ","LANE":" ","ALLEY":" ","HOUSE_NO":"２８號","E_COORD97":162813.04000000001,"N_COORD97":2548917.6099999999,"ADDRESS":"科技一路２８號","OBJECTID":609537},"geometry":{"x":162813.04000000097,"y":2548917.6099999994}},{"attributes":{"ID":609565,"DIS_CODE":0,"TOWNNAME":"安南區","LI":"顯宮里","LIN":"3鄰","STREET":"工業三路","SECT":" ","MAREA":" ","LANE":" ","ALLEY":" ","HOUSE_NO":"６０號","E_COORD97":162658.10000000001,"N_COORD97":2548925.8599999999,"ADDRESS":"工業三路６０號","OBJECTID":609538},"geometry":{"x":162658.09999999963,"y":2548925.8599999994}},{"attributes":{"ID":609566,"DIS_CODE":0,"TOWNNAME":"安南區","LI":"顯宮里","LIN":"3鄰","STREET":"工業三路","SECT":" ","MAREA":" ","LANE":" ","ALLEY":" ","HOUSE_NO":"５８號","E_COORD97":162745.09,"N_COORD97":2548839.5,"ADDRESS":"工業三路５８號","OBJECTID":609539},"geometry":{"x":162745.08999999985,"y":2548839.5000000019}},{"attributes":{"ID":609567,"DIS_CODE":0,"TOWNNAME":"安南區","LI":"顯宮里","LIN":"3鄰","STREET":"工業三路","SECT":" ","MAREA":" ","LANE":" ","ALLEY":" ","HOUSE_NO":"７０號","E_COORD97":162507.60000000001,"N_COORD97":2549030.6400000001,"ADDRESS":"工業三路７０號","OBJECTID":609540},"geometry":{"x":162507.59999999963,"y":2549030.6400000006}},{"attributes":{"ID":609568,"DIS_CODE":0,"TOWNNAME":"安南區","LI":"顯宮里","LIN":"3鄰","STREET":"科技五路","SECT":" ","MAREA":" ","LANE":" ","ALLEY":" ","HOUSE_NO":"３９號","E_COORD97":161969.75,"N_COORD97":2549327.8199999998,"ADDRESS":"科技五路３９號","OBJECTID":609541},"geometry":{"x":161969.75,"y":2549327.8200000003}},{"attributes":{"ID":609569,"DIS_CODE":0,"TOWNNAME":"安南區","LI":"顯宮里","LIN":"3鄰","STREET":"科技三路","SECT":" ","MAREA":" ","LANE":" ","ALLEY":" ","HOUSE_NO":"３６號","E_COORD97":162092.94,"N_COORD97":2549226.2200000002,"ADDRESS":"科技三路３６號","OBJECTID":609542},"geometry":{"x":162092.94000000227,"y":2549226.2200000007}},{"attributes":{"ID":609570,"DIS_CODE":0,"TOWNNAME":"安南區","LI":"顯宮里","LIN":"3鄰","STREET":"科技公園大道","SECT":" ","MAREA":" ","LANE":" ","ALLEY":" ","HOUSE_NO":"３０號","E_COORD97":162210.42000000001,"N_COORD97":2549150.02,"ADDRESS":"科技公園大道３０號","OBJECTID":609543},"geometry":{"x":162210.41999999993,"y":2549150.0200000033}},{"attributes":{"ID":609571,"DIS_CODE":0,"TOWNNAME":"安南區","LI":"顯宮里","LIN":"3鄰","STREET":"科技三路","SECT":" ","MAREA":" ","LANE":" ","ALLEY":" ","HOUSE_NO":"３８號","E_COORD97":162057.38,"N_COORD97":2549144.9399999999,"ADDRESS":"科技三路３８號","OBJECTID":609544},"geometry":{"x":162057.38000000082,"y":2549144.9400000013}},{"attributes":{"ID":609572,"DIS_CODE":0,"TOWNNAME":"安南區","LI":"顯宮里","LIN":"3鄰","STREET":"科技五路","SECT":" ","MAREA":" ","LANE":" ","ALLEY":" ","HOUSE_NO":"５９號","E_COORD97":161857.98999999999,"N_COORD97":2549222.4100000001,"ADDRESS":"科技五路５９號","OBJECTID":609545},"geometry":{"x":161857.99000000022,"y":2549222.4100000039}},{"attributes":{"ID":609573,"DIS_CODE":0,"TOWNNAME":"安南區","LI":"顯宮里","LIN":"3鄰","STREET":"科技三路","SECT":" ","MAREA":" ","LANE":" ","ALLEY":" ","HOUSE_NO":"６０號","E_COORD97":161966.57999999999,"N_COORD97":2549035.7200000002,"ADDRESS":"科技三路６０號","OBJECTID":609546},"geometry":{"x":161966.58000000101,"y":2549035.7200000025}},{"attributes":{"ID":609574,"DIS_CODE":0,"TOWNNAME":"安南區","LI":"顯宮里","LIN":"3鄰","STREET":"科技三路","SECT":" ","MAREA":" ","LANE":" ","ALLEY":" ","HOUSE_NO":"６６號","E_COORD97":161840.20999999999,"N_COORD97":2548890.9399999999,"ADDRESS":"科技三路６６號","OBJECTID":609547},"geometry":{"x":161840.21000000089,"y":2548890.9400000013}},{"attributes":{"ID":609575,"DIS_CODE":0,"TOWNNAME":"安南區","LI":"顯宮里","LIN":"3鄰","STREET":"科技公園大道","SECT":" ","MAREA":" ","LANE":" ","ALLEY":" ","HOUSE_NO":"５６號","E_COORD97":161999.60000000001,"N_COORD97":2548749.9700000002,"ADDRESS":"科技公園大道５６號","OBJECTID":609548},"geometry":{"x":161999.60000000056,"y":2548749.9700000007}},{"attributes":{"ID":609576,"DIS_CODE":0,"TOWNNAME":"安南區","LI":"顯宮里","LIN":"3鄰","STREET":"科技二路","SECT":" ","MAREA":" ","LANE":" ","ALLEY":" ","HOUSE_NO":"１５號","E_COORD97":162172.95000000001,"N_COORD97":2548618.52,"ADDRESS":"科技二路１５號","OBJECTID":609549},"geometry":{"x":162172.95000000112,"y":2548618.5200000014}},{"attributes":{"ID":609577,"DIS_CODE":0,"TOWNNAME":"安南區","LI":"顯宮里","LIN":"3鄰","STREET":"科技一路","SECT":" ","MAREA":" ","LANE":" ","ALLEY":" ","HOUSE_NO":"３６號","E_COORD97":162633.32999999999,"N_COORD97":2548750.6000000001,"ADDRESS":"科技一路３６號","OBJECTID":609550},"geometry":{"x":162633.33000000007,"y":2548750.6000000015}},{"attributes":{"ID":609578,"DIS_CODE":0,"TOWNNAME":"安南區","LI":"顯宮里","LIN":"3鄰","STREET":"工業五路","SECT":" ","MAREA":" ","LANE":" ","ALLEY":" ","HOUSE_NO":"２１號","E_COORD97":162297.41,"N_COORD97":2548789.9700000002,"ADDRESS":"工業五路２１號","OBJECTID":609551},"geometry":{"x":162297.41000000015,"y":2548789.9700000025}},{"attributes":{"ID":609579,"DIS_CODE":0,"TOWNNAME":"安南區","LI":"顯宮里","LIN":"3鄰","STREET":"科技二路","SECT":" ","MAREA":" ","LANE":" ","ALLEY":" ","HOUSE_NO":"５０號","E_COORD97":161972.92000000001,"N_COORD97":2548516.9199999999,"ADDRESS":"科技二路５０號","OBJECTID":609552},"geometry":{"x":161972.92000000086,"y":2548516.9200000037}},{"attributes":{"ID":609580,"DIS_CODE":0,"TOWNNAME":"安南區","LI":"顯宮里","LIN":"3鄰","STREET":"科技五路","SECT":" ","MAREA":" ","LANE":" ","ALLEY":" ","HOUSE_NO":"１６１號","E_COORD97":161599.54000000001,"N_COORD97":2548160.6899999999,"ADDRESS":"科技五路１６１號","OBJECTID":609553},"geometry":{"x":161599.54000000004,"y":2548160.6899999995}},{"attributes":{"ID":609581,"DIS_CODE":0,"TOWNNAME":"安南區","LI":"顯宮里","LIN":"3鄰","STREET":"科技五路","SECT":" ","MAREA":" ","LANE":" ","ALLEY":" ","HOUSE_NO":"１５９號","E_COORD97":161557.63,"N_COORD97":2548157.5099999998,"ADDRESS":"科技五路１５９號","OBJECTID":609554},"geometry":{"x":161557.63000000082,"y":2548157.5100000016}},{"attributes":{"ID":609582,"DIS_CODE":0,"TOWNNAME":"安南區","LI":"顯宮里","LIN":"3鄰","STREET":"科技五路","SECT":" ","MAREA":" ","LANE":" ","ALLEY":" ","HOUSE_NO":"１５７號","E_COORD97":161519.53,"N_COORD97":2548153.0699999998,"ADDRESS":"科技五路１５７號","OBJECTID":609555},"geometry":{"x":161519.53000000119,"y":2548153.0700000003}},{"attributes":{"ID":609583,"DIS_CODE":0,"TOWNNAME":"安南區","LI":"顯宮里","LIN":"3鄰","STREET":"科技五路","SECT":" ","MAREA":" ","LANE":" ","ALLEY":" ","HOUSE_NO":"１５５號","E_COORD97":161480.16,"N_COORD97":2548157.5099999998,"ADDRESS":"科技五路１５５號","OBJECTID":609556},"geometry":{"x":161480.16000000015,"y":2548157.5100000016}},{"attributes":{"ID":609584,"DIS_CODE":0,"TOWNNAME":"安南區","LI":"顯宮里","LIN":"3鄰","STREET":"科技五路","SECT":" ","MAREA":" ","LANE":" ","ALLEY":" ","HOUSE_NO":"１４７號","E_COORD97":161431.26000000001,"N_COORD97":2548153.7000000002,"ADDRESS":"科技五路１４７號","OBJECTID":609557},"geometry":{"x":161431.26000000071,"y":2548153.6999999993}},{"attributes":{"ID":609585,"DIS_CODE":0,"TOWNNAME":"安南區","LI":"顯宮里","LIN":"3鄰","STREET":"科技五路","SECT":" ","MAREA":" ","LANE":" ","ALLEY":" ","HOUSE_NO":"８５號","E_COORD97":161581.76000000001,"N_COORD97":2548871.8900000001,"ADDRESS":"科技五路８５號","OBJECTID":609558},"geometry":{"x":161581.76000000071,"y":2548871.8900000025}},{"attributes":{"ID":609586,"DIS_CODE":0,"TOWNNAME":"安南區","LI":"顯宮里","LIN":"3鄰","STREET":"工業七路","SECT":" ","MAREA":" ","LANE":" ","ALLEY":" ","HOUSE_NO":"２９號","E_COORD97":161269.98000000001,"N_COORD97":2548592.4900000002,"ADDRESS":"工業七路２９號","OBJECTID":609559},"geometry":{"x":161269.98000000045,"y":2548592.4900000021}},{"attributes":{"ID":609587,"DIS_CODE":0,"TOWNNAME":"安南區","LI":"顯宮里","LIN":"3鄰","STREET":"工業七路","SECT":" ","MAREA":" ","LANE":" ","ALLEY":" ","HOUSE_NO":"２５號","E_COORD97":161367.13,"N_COORD97":2548593.1299999999,"ADDRESS":"工業七路２５號","OBJECTID":609560},"geometry":{"x":161367.13000000175,"y":2548593.1300000008}},{"attributes":{"ID":609588,"DIS_CODE":0,"TOWNNAME":"安南區","LI":"顯宮里","LIN":"3鄰","STREET":"工業七路","SECT":" ","MAREA":" ","LANE":" ","ALLEY":" ","HOUSE_NO":"９號","E_COORD97":161590.64999999999,"N_COORD97":2548593.7599999998,"ADDRESS":"工業七路９號","OBJECTID":609561},"geometry":{"x":161590.65000000037,"y":2548593.7600000016}},{"attributes":{"ID":609589,"DIS_CODE":0,"TOWNNAME":"安南區","LI":"顯宮里","LIN":"3鄰","STREET":"工業七路","SECT":" ","MAREA":" ","LANE":" ","ALLEY":" ","HOUSE_NO":"１５號","E_COORD97":161485.88,"N_COORD97":2548591.2200000002,"ADDRESS":"工業七路１５號","OBJECTID":609562},"geometry":{"x":161485.88000000175,"y":2548591.2200000025}},{"attributes":{"ID":609590,"DIS_CODE":0,"TOWNNAME":"安南區","LI":"顯宮里","LIN":"3鄰","STREET":"工業七路","SECT":" ","MAREA":" ","LANE":" ","ALLEY":" ","HOUSE_NO":"３１號","E_COORD97":161218.54000000001,"N_COORD97":2548602.6499999999,"ADDRESS":"工業七路３１號","OBJECTID":609563},"geometry":{"x":161218.54000000004,"y":2548602.6500000004}},{"attributes":{"ID":609591,"DIS_CODE":0,"TOWNNAME":"安南區","LI":"顯宮里","LIN":"3鄰","STREET":"科技五路","SECT":" ","MAREA":" ","LANE":" ","ALLEY":" ","HOUSE_NO":"８６號","E_COORD97":161538.57999999999,"N_COORD97":2548920.79,"ADDRESS":"科技五路８６號","OBJECTID":609564},"geometry":{"x":161538.58000000007,"y":2548920.790000001}},{"attributes":{"ID":609592,"DIS_CODE":0,"TOWNNAME":"安南區","LI":"顯宮里","LIN":"3鄰","STREET":"工業六路","SECT":" ","MAREA":" ","LANE":" ","ALLEY":" ","HOUSE_NO":"３６號","E_COORD97":161643.35999999999,"N_COORD97":2548948.0899999999,"ADDRESS":"工業六路３６號","OBJECTID":609565},"geometry":{"x":161643.36000000034,"y":2548948.0899999999}},{"attributes":{"ID":609593,"DIS_CODE":0,"TOWNNAME":"安南區","LI":"顯宮里","LIN":"3鄰","STREET":"科技五路","SECT":" ","MAREA":" ","LANE":" ","ALLEY":" ","HOUSE_NO":"７１號","E_COORD97":161687.17999999999,"N_COORD97":2549008.4199999999,"ADDRESS":"科技五路７１號","OBJECTID":609566},"geometry":{"x":161687.18000000063,"y":2549008.4199999981}},{"attributes":{"ID":609594,"DIS_CODE":0,"TOWNNAME":"安南區","LI":"顯宮里","LIN":"3鄰","STREET":"工業五路","SECT":" ","MAREA":" ","LANE":" ","ALLEY":" ","HOUSE_NO":"５７號","E_COORD97":161822.42999999999,"N_COORD97":2549155.1000000001,"ADDRESS":"工業五路５７號","OBJECTID":609567},"geometry":{"x":161822.4299999997,"y":2549155.0999999996}},{"attributes":{"ID":609595,"DIS_CODE":0,"TOWNNAME":"安南區","LI":"顯宮里","LIN":"3鄰","STREET":"科技五路","SECT":" ","MAREA":" ","LANE":" ","ALLEY":" ","HOUSE_NO":"６３號","E_COORD97":161786.87,"N_COORD97":2549122.7200000002,"ADDRESS":"科技五路６３號","OBJECTID":609568},"geometry":{"x":161786.87000000104,"y":2549122.7200000044}},{"attributes":{"ID":609596,"DIS_CODE":0,"TOWNNAME":"安南區","LI":"安順里","LIN":"3鄰","STREET":"安豐四街","SECT":" ","MAREA":" ","LANE":" ","ALLEY":" ","HOUSE_NO":"９２號","E_COORD97":169572.67999999999,"N_COORD97":2549846.7200000002,"ADDRESS":"安豐四街９２號","OBJECTID":609569},"geometry":{"x":169572.6799999997,"y":2549846.7200000007}},{"attributes":{"ID":609597,"DIS_CODE":0,"TOWNNAME":"安南區","LI":"安順里","LIN":"3鄰","STREET":"安豐四街","SECT":" ","MAREA":" ","LANE":" ","ALLEY":" ","HOUSE_NO":"９６號","E_COORD97":169578.85999999999,"N_COORD97":2549846.3799999999,"ADDRESS":"安豐四街９６號","OBJECTID":609570},"geometry":{"x":169578.86000000034,"y":2549846.3800000008}},{"attributes":{"ID":609598,"DIS_CODE":0,"TOWNNAME":"中西區","LI":"西賢里","LIN":"26鄰","STREET":"西賢五街","SECT":" ","MAREA":" ","LANE":" ","ALLEY":" ","HOUSE_NO":"６２號","E_COORD97":165217.73999999999,"N_COORD97":2544663.5,"ADDRESS":"西賢五街６２號","OBJECTID":609571},"geometry":{"x":165217.74000000022,"y":2544663.5}},{"attributes":{"ID":609599,"DIS_CODE":0,"TOWNNAME":"中西區","LI":"民權里","LIN":"6鄰","STREET":"和平街","SECT":" ","MAREA":" ","LANE":" ","ALLEY":" ","HOUSE_NO":"７２號","E_COORD97":167630.98999999999,"N_COORD97":2544158.2000000002,"ADDRESS":"和平街７２號","OBJECTID":609572},"geometry":{"x":167630.99000000115,"y":2544158.2000000011}},{"attributes":{"ID":609600,"DIS_CODE":0,"TOWNNAME":"安南區","LI":"顯宮里","LIN":"3鄰","STREET":"工業三路","SECT":" ","MAREA":" ","LANE":" ","ALLEY":" ","HOUSE_NO":"１０１號","E_COORD97":162047.23000000001,"N_COORD97":2549335.3300000001,"ADDRESS":"工業三路１０１號","OBJECTID":609573},"geometry":{"x":162047.23000000138,"y":2549335.3300000019}},{"attributes":{"ID":609601,"DIS_CODE":0,"TOWNNAME":"東區","LI":"大德里","LIN":"3鄰","STREET":"大同路","SECT":"二段","MAREA":" ","LANE":" ","ALLEY":" ","HOUSE_NO":"１３７號","E_COORD97":169394.67000000001,"N_COORD97":2542014.2000000002,"ADDRESS":"大同路二段１３７號","OBJECTID":609574},"geometry":{"x":169394.66999999993,"y":2542014.1999999993}},{"attributes":{"ID":609602,"DIS_CODE":0,"TOWNNAME":"東區","LI":"大德里","LIN":"3鄰","STREET":"大同路","SECT":"二段","MAREA":" ","LANE":" ","ALLEY":" ","HOUSE_NO":"１４１號","E_COORD97":169396.92999999999,"N_COORD97":2542005.7999999998,"ADDRESS":"大同路二段１４１號","OBJECTID":609575},"geometry":{"x":169396.93000000063,"y":2542005.8000000045}},{"attributes":{"ID":609603,"DIS_CODE":0,"TOWNNAME":"東區","LI":"大德里","LIN":"3鄰","STREET":"大同路","SECT":"二段","MAREA":" ","LANE":" ","ALLEY":" ","HOUSE_NO":"１３３號","E_COORD97":169394.06,"N_COORD97":2542024.4399999999,"ADDRESS":"大同路二段１３３號","OBJECTID":609576},"geometry":{"x":169394.06000000145,"y":2542024.4400000013}},{"attributes":{"ID":609604,"DIS_CODE":0,"TOWNNAME":"東區","LI":"大德里","LIN":"3鄰","STREET":"大同路","SECT":"二段","MAREA":" ","LANE":" ","ALLEY":" ","HOUSE_NO":"１３５號","E_COORD97":169395.07999999999,"N_COORD97":2542018.0899999999,"ADDRESS":"大同路二段１３５號","OBJECTID":609577},"geometry":{"x":169395.08000000101,"y":2542018.0899999999}},{"attributes":{"ID":609605,"DIS_CODE":0,"TOWNNAME":"東區","LI":"大德里","LIN":"3鄰","STREET":"大同路","SECT":"二段","MAREA":" ","LANE":" ","ALLEY":" ","HOUSE_NO":"１３９號","E_COORD97":169395.89999999999,"N_COORD97":2542010.5099999998,"ADDRESS":"大同路二段１３９號","OBJECTID":609578},"geometry":{"x":169395.90000000224,"y":2542010.5100000016}},{"attributes":{"ID":609606,"DIS_CODE":0,"TOWNNAME":"東區","LI":"大德里","LIN":"3鄰","STREET":"大同路","SECT":"二段","MAREA":" ","LANE":" ","ALLEY":" ","HOUSE_NO":"１４３號","E_COORD97":169397.95999999999,"N_COORD97":2542002.7200000002,"ADDRESS":"大同路二段１４３號","OBJECTID":609579},"geometry":{"x":169397.95999999996,"y":2542002.7200000044}},{"attributes":{"ID":609607,"DIS_CODE":0,"TOWNNAME":"東區","LI":"大德里","LIN":"3鄰","STREET":"大同路","SECT":"二段","MAREA":" ","LANE":" ","ALLEY":" ","HOUSE_NO":"１４５號","E_COORD97":169398.37,"N_COORD97":2541999.4500000002,"ADDRESS":"大同路二段１４５號","OBJECTID":609580},"geometry":{"x":169398.37000000104,"y":2541999.4499999993}},{"attributes":{"ID":609608,"DIS_CODE":0,"TOWNNAME":"東區","LI":"大德里","LIN":"3鄰","STREET":"大同路","SECT":"二段","MAREA":" ","LANE":" ","ALLEY":" ","HOUSE_NO":"１４７號","E_COORD97":169400.42000000001,"N_COORD97":2541994.73,"ADDRESS":"大同路二段１４７號","OBJECTID":609581},"geometry":{"x":169400.42000000179,"y":2541994.7300000004}},{"attributes":{"ID":609609,"DIS_CODE":0,"TOWNNAME":"東區","LI":"大德里","LIN":"3鄰","STREET":"大同路","SECT":"二段","MAREA":" ","LANE":" ","ALLEY":" ","HOUSE_NO":"１４９號","E_COORD97":169399.92999999999,"N_COORD97":2541988.9700000002,"ADDRESS":"大同路二段１４９號","OBJECTID":609582},"geometry":{"x":169399.9299999997,"y":2541988.9700000025}},{"attributes":{"ID":609610,"DIS_CODE":0,"TOWNNAME":"東區","LI":"大德里","LIN":"3鄰","STREET":"大同路","SECT":"二段","MAREA":" ","LANE":" ","ALLEY":" ","HOUSE_NO":"１５１號","E_COORD97":169400.91,"N_COORD97":2541984.3300000001,"ADDRESS":"大同路二段１５１號","OBJECTID":609583},"geometry":{"x":169400.91000000108,"y":2541984.3299999982}},{"attributes":{"ID":609611,"DIS_CODE":0,"TOWNNAME":"東區","LI":"大德里","LIN":"3鄰","STREET":"大同路","SECT":"二段","MAREA":" ","LANE":" ","ALLEY":" ","HOUSE_NO":"１５３號","E_COORD97":169403.60000000001,"N_COORD97":2541980.4199999999,"ADDRESS":"大同路二段１５３號","OBJECTID":609584},"geometry":{"x":169403.59999999963,"y":2541980.4200000037}},{"attributes":{"ID":609612,"DIS_CODE":0,"TOWNNAME":"東區","LI":"大德里","LIN":"3鄰","STREET":"大同路","SECT":"二段","MAREA":" ","LANE":" ","ALLEY":" ","HOUSE_NO":"１５５號","E_COORD97":169404.09,"N_COORD97":2541976.27,"ADDRESS":"大同路二段１５５號","OBJECTID":609585},"geometry":{"x":169404.08999999985,"y":2541976.2699999996}},{"attributes":{"ID":609613,"DIS_CODE":0,"TOWNNAME":"東區","LI":"大德里","LIN":"3鄰","STREET":"大同路","SECT":"二段","MAREA":" ","LANE":" ","ALLEY":" ","HOUSE_NO":"１５７號","E_COORD97":169404.57999999999,"N_COORD97":2541972.6000000001,"ADDRESS":"大同路二段１５７號","OBJECTID":609586},"geometry":{"x":169404.58000000194,"y":2541972.6000000015}},{"attributes":{"ID":609614,"DIS_CODE":0,"TOWNNAME":"東區","LI":"大德里","LIN":"3鄰","STREET":"大同路","SECT":"二段","MAREA":" ","LANE":" ","ALLEY":" ","HOUSE_NO":"１７７號","E_COORD97":169414.12,"N_COORD97":2541927.4199999999,"ADDRESS":"大同路二段１７７號","OBJECTID":609587},"geometry":{"x":169414.12000000011,"y":2541927.4200000018}},{"attributes":{"ID":609615,"DIS_CODE":0,"TOWNNAME":"東區","LI":"大德里","LIN":"3鄰","STREET":"大同路","SECT":"二段","MAREA":" ","LANE":" ","ALLEY":" ","HOUSE_NO":"１７９號","E_COORD97":169414.60000000001,"N_COORD97":2541923.7599999998,"ADDRESS":"大同路二段１７９號","OBJECTID":609588},"geometry":{"x":169414.60000000056,"y":2541923.7600000035}},{"attributes":{"ID":609616,"DIS_CODE":0,"TOWNNAME":"東區","LI":"大德里","LIN":"3鄰","STREET":"大同路","SECT":"二段","MAREA":" ","LANE":" ","ALLEY":" ","HOUSE_NO":"１８１號","E_COORD97":169414.35999999999,"N_COORD97":2541918.3799999999,"ADDRESS":"大同路二段１８１號","OBJECTID":609589},"geometry":{"x":169414.36000000034,"y":2541918.3799999971}},{"attributes":{"ID":609617,"DIS_CODE":0,"TOWNNAME":"安南區","LI":"顯宮里","LIN":"3鄰","STREET":"北汕尾三路","SECT":" ","MAREA":" ","LANE":" ","ALLEY":" ","HOUSE_NO":"５４８號","E_COORD97":162154.91,"N_COORD97":2551058.9500000002,"ADDRESS":"北汕尾三路５４８號","OBJECTID":609590},"geometry":{"x":162154.91000000015,"y":2551058.950000003}},{"attributes":{"ID":609618,"DIS_CODE":0,"TOWNNAME":"安南區","LI":"顯宮里","LIN":"3鄰","STREET":"科技五路","SECT":" ","MAREA":" ","LANE":" ","ALLEY":" ","HOUSE_NO":"２００號","E_COORD97":161306.72,"N_COORD97":2548254.2999999998,"ADDRESS":"科技五路２００號","OBJECTID":609591},"geometry":{"x":161306.71999999974,"y":2548254.3000000045}},{"attributes":{"ID":609619,"DIS_CODE":0,"TOWNNAME":"白河區","LI":"白河里","LIN":"3鄰","STREET":"九龍街","SECT":" ","MAREA":" ","LANE":" ","ALLEY":" ","HOUSE_NO":"１０號","E_COORD97":190181.28,"N_COORD97":2582879.9300000002,"ADDRESS":"九龍街１０號","OBJECTID":609592},"geometry":{"x":190181.28000000212,"y":2582879.9299999997}},{"attributes":{"ID":609620,"DIS_CODE":0,"TOWNNAME":"白河區","LI":"白河里","LIN":"3鄰","STREET":"九龍街","SECT":" ","MAREA":" ","LANE":" ","ALLEY":" ","HOUSE_NO":"１２號","E_COORD97":190178.60999999999,"N_COORD97":2582883.29,"ADDRESS":"九龍街１２號","OBJECTID":609593},"geometry":{"x":190178.61000000034,"y":2582883.290000001}},{"attributes":{"ID":609621,"DIS_CODE":0,"TOWNNAME":"白河區","LI":"白河里","LIN":"3鄰","STREET":"九龍街","SECT":" ","MAREA":" ","LANE":" ","ALLEY":" ","HOUSE_NO":"１４號","E_COORD97":190176.82000000001,"N_COORD97":2582886.5099999998,"ADDRESS":"九龍街１４號","OBJECTID":609594},"geometry":{"x":190176.82000000123,"y":2582886.5099999998}},{"attributes":{"ID":609622,"DIS_CODE":0,"TOWNNAME":"白河區","LI":"白河里","LIN":"3鄰","STREET":"九龍街","SECT":" ","MAREA":" ","LANE":" ","ALLEY":" ","HOUSE_NO":"１６號","E_COORD97":190174.60000000001,"N_COORD97":2582889.9100000001,"ADDRESS":"九龍街１６號","OBJECTID":609595},"geometry":{"x":190174.59999999963,"y":2582889.910000002}},{"attributes":{"ID":609623,"DIS_CODE":0,"TOWNNAME":"白河區","LI":"白河里","LIN":"3鄰","STREET":"九龍街","SECT":" ","MAREA":" ","LANE":" ","ALLEY":" ","HOUSE_NO":"１８號","E_COORD97":190171.54999999999,"N_COORD97":2582893.9199999999,"ADDRESS":"九龍街１８號","OBJECTID":609596},"geometry":{"x":190171.54999999981,"y":2582893.9199999999}},{"attributes":{"ID":609624,"DIS_CODE":0,"TOWNNAME":"白河區","LI":"白河里","LIN":"3鄰","STREET":"十全街","SECT":" ","MAREA":" ","LANE":" ","ALLEY":" ","HOUSE_NO":"１０號","E_COORD97":190299.64000000001,"N_COORD97":2582715.3799999999,"ADDRESS":"十全街１０號","OBJECTID":609597},"geometry":{"x":190299.63999999966,"y":2582715.3800000008}},{"attributes":{"ID":609625,"DIS_CODE":0,"TOWNNAME":"白河區","LI":"白河里","LIN":"3鄰","STREET":"十全街","SECT":" ","MAREA":" ","LANE":" ","ALLEY":" ","HOUSE_NO":"１１號","E_COORD97":190316.87,"N_COORD97":2582710.04,"ADDRESS":"十全街１１號","OBJECTID":609598},"geometry":{"x":190316.87000000104,"y":2582710.0399999991}},{"attributes":{"ID":609626,"DIS_CODE":0,"TOWNNAME":"白河區","LI":"白河里","LIN":"3鄰","STREET":"十全街","SECT":" ","MAREA":" ","LANE":" ","ALLEY":" ","HOUSE_NO":"１２號","E_COORD97":190298.75,"N_COORD97":2582711.6400000001,"ADDRESS":"十全街１２號","OBJECTID":609599},"geometry":{"x":190298.75000000093,"y":2582711.6400000043}},{"attributes":{"ID":609627,"DIS_CODE":0,"TOWNNAME":"白河區","LI":"白河里","LIN":"3鄰","STREET":"十全街","SECT":" ","MAREA":" ","LANE":" ","ALLEY":" ","HOUSE_NO":"１３號","E_COORD97":190316.12,"N_COORD97":2582706.5299999998,"ADDRESS":"十全街１３號","OBJECTID":609600},"geometry":{"x":190316.12000000197,"y":2582706.5299999993}}]}