{"displayFieldName":"TOWNNAME","fieldAliases":{"ID":"ID","DIS_CODE":"DIS_CODE","TOWNNAME":"TOWNNAME","LI":"LI","LIN":"LIN","STREET":"STREET","SECT":"SECT","MAREA":"MAREA","LANE":"LANE","ALLEY":"ALLEY","HOUSE_NO":"HOUSE_NO","E_COORD97":"E_COORD97","N_COORD97":"N_COORD97","ADDRESS":"ADDRESS","OBJECTID":"OBJECTID"},"geometryType":"esriGeometryPoint","spatialReference":{"wkid":102443,"latestWkid":3826},"fields":[{"name":"ID","type":"esriFieldTypeDouble","alias":"ID"},{"name":"DIS_CODE","type":"esriFieldTypeInteger","alias":"DIS_CODE"},{"name":"TOWNNAME","type":"esriFieldTypeString","alias":"TOWNNAME","length":8},{"name":"LI","type":"esriFieldTypeString","alias":"LI","length":8},{"name":"LIN","type":"esriFieldTypeString","alias":"LIN","length":12},{"name":"STREET","type":"esriFieldTypeString","alias":"STREET","length":20},{"name":"SECT","type":"esriFieldTypeString","alias":"SECT","length":8},{"name":"MAREA","type":"esriFieldTypeString","alias":"MAREA","length":12},{"name":"LANE","type":"esriFieldTypeString","alias":"LANE","length":10},{"name":"ALLEY","type":"esriFieldTypeString","alias":"ALLEY","length":10},{"name":"HOUSE_NO","type":"esriFieldTypeString","alias":"HOUSE_NO","length":20},{"name":"E_COORD97","type":"esriFieldTypeDouble","alias":"E_COORD97"},{"name":"N_COORD97","type":"esriFieldTypeDouble","alias":"N_COORD97"},{"name":"ADDRESS","type":"esriFieldTypeString","alias":"ADDRESS","length":50},{"name":"OBJECTID","type":"esriFieldTypeOID","alias":"OBJECTID"}],"features":[{"attributes":{"ID":647028,"DIS_CODE":0,"TOWNNAME":"仁德區","LI":"仁和里","LIN":"15鄰","STREET":"和愛街","SECT":" ","MAREA":" ","LANE":" ","ALLEY":" ","HOUSE_NO":"２２號七樓之２","E_COORD97":170453.64999999999,"N_COORD97":2540084.0899999999,"ADDRESS":"和愛街２２號七樓之２","OBJECTID":647001},"geometry":{"x":170453.64999999944,"y":2540084.0900000036}},{"attributes":{"ID":647029,"DIS_CODE":0,"TOWNNAME":"仁德區","LI":"仁和里","LIN":"15鄰","STREET":"和愛街","SECT":" ","MAREA":" ","LANE":" ","ALLEY":" ","HOUSE_NO":"２２號七樓之３","E_COORD97":170453.64999999999,"N_COORD97":2540084.0899999999,"ADDRESS":"和愛街２２號七樓之３","OBJECTID":647002},"geometry":{"x":170453.64999999944,"y":2540084.0900000036}},{"attributes":{"ID":647030,"DIS_CODE":0,"TOWNNAME":"仁德區","LI":"仁和里","LIN":"15鄰","STREET":"和愛街","SECT":" ","MAREA":" ","LANE":" ","ALLEY":" ","HOUSE_NO":"２２號七樓之５","E_COORD97":170453.64999999999,"N_COORD97":2540084.0899999999,"ADDRESS":"和愛街２２號七樓之５","OBJECTID":647003},"geometry":{"x":170453.64999999944,"y":2540084.0900000036}},{"attributes":{"ID":647031,"DIS_CODE":0,"TOWNNAME":"仁德區","LI":"仁和里","LIN":"15鄰","STREET":"和愛街","SECT":" ","MAREA":" ","LANE":" ","ALLEY":" ","HOUSE_NO":"２２號八樓之１","E_COORD97":170453.64999999999,"N_COORD97":2540084.0899999999,"ADDRESS":"和愛街２２號八樓之１","OBJECTID":647004},"geometry":{"x":170453.64999999944,"y":2540084.0900000036}},{"attributes":{"ID":647032,"DIS_CODE":0,"TOWNNAME":"仁德區","LI":"仁和里","LIN":"15鄰","STREET":"和愛街","SECT":" ","MAREA":" ","LANE":" ","ALLEY":" ","HOUSE_NO":"２２號八樓之２","E_COORD97":170453.64999999999,"N_COORD97":2540084.0899999999,"ADDRESS":"和愛街２２號八樓之２","OBJECTID":647005},"geometry":{"x":170453.64999999944,"y":2540084.0900000036}},{"attributes":{"ID":647033,"DIS_CODE":0,"TOWNNAME":"仁德區","LI":"仁和里","LIN":"15鄰","STREET":"和愛街","SECT":" ","MAREA":" ","LANE":" ","ALLEY":" ","HOUSE_NO":"２２號八樓之３","E_COORD97":170453.64999999999,"N_COORD97":2540084.0899999999,"ADDRESS":"和愛街２２號八樓之３","OBJECTID":647006},"geometry":{"x":170453.64999999944,"y":2540084.0900000036}},{"attributes":{"ID":647034,"DIS_CODE":0,"TOWNNAME":"仁德區","LI":"仁和里","LIN":"15鄰","STREET":"和愛街","SECT":" ","MAREA":" ","LANE":" ","ALLEY":" ","HOUSE_NO":"２２號八樓之５","E_COORD97":170453.64999999999,"N_COORD97":2540084.0899999999,"ADDRESS":"和愛街２２號八樓之５","OBJECTID":647007},"geometry":{"x":170453.64999999944,"y":2540084.0900000036}},{"attributes":{"ID":647035,"DIS_CODE":0,"TOWNNAME":"仁德區","LI":"仁和里","LIN":"15鄰","STREET":"和愛街","SECT":" ","MAREA":" ","LANE":" ","ALLEY":" ","HOUSE_NO":"２２號九樓之１","E_COORD97":170453.64999999999,"N_COORD97":2540084.0899999999,"ADDRESS":"和愛街２２號九樓之１","OBJECTID":647008},"geometry":{"x":170453.64999999944,"y":2540084.0900000036}},{"attributes":{"ID":647036,"DIS_CODE":0,"TOWNNAME":"仁德區","LI":"仁和里","LIN":"15鄰","STREET":"和愛街","SECT":" ","MAREA":" ","LANE":" ","ALLEY":" ","HOUSE_NO":"２２號九樓之２","E_COORD97":170453.64999999999,"N_COORD97":2540084.0899999999,"ADDRESS":"和愛街２２號九樓之２","OBJECTID":647009},"geometry":{"x":170453.64999999944,"y":2540084.0900000036}},{"attributes":{"ID":647037,"DIS_CODE":0,"TOWNNAME":"仁德區","LI":"仁和里","LIN":"15鄰","STREET":"和愛街","SECT":" ","MAREA":" ","LANE":" ","ALLEY":" ","HOUSE_NO":"２２號九樓之３","E_COORD97":170453.64999999999,"N_COORD97":2540084.0899999999,"ADDRESS":"和愛街２２號九樓之３","OBJECTID":647010},"geometry":{"x":170453.64999999944,"y":2540084.0900000036}},{"attributes":{"ID":647038,"DIS_CODE":0,"TOWNNAME":"仁德區","LI":"仁和里","LIN":"15鄰","STREET":"和愛街","SECT":" ","MAREA":" ","LANE":" ","ALLEY":" ","HOUSE_NO":"２２號九樓之５","E_COORD97":170453.64999999999,"N_COORD97":2540084.0899999999,"ADDRESS":"和愛街２２號九樓之５","OBJECTID":647011},"geometry":{"x":170453.64999999944,"y":2540084.0900000036}},{"attributes":{"ID":647039,"DIS_CODE":0,"TOWNNAME":"仁德區","LI":"仁和里","LIN":"15鄰","STREET":"和愛街","SECT":" ","MAREA":" ","LANE":" ","ALLEY":" ","HOUSE_NO":"２２號十樓之１","E_COORD97":170453.64999999999,"N_COORD97":2540084.0899999999,"ADDRESS":"和愛街２２號十樓之１","OBJECTID":647012},"geometry":{"x":170453.64999999944,"y":2540084.0900000036}},{"attributes":{"ID":647040,"DIS_CODE":0,"TOWNNAME":"仁德區","LI":"仁和里","LIN":"15鄰","STREET":"和愛街","SECT":" ","MAREA":" ","LANE":" ","ALLEY":" ","HOUSE_NO":"２２號十樓之２","E_COORD97":170453.64999999999,"N_COORD97":2540084.0899999999,"ADDRESS":"和愛街２２號十樓之２","OBJECTID":647013},"geometry":{"x":170453.64999999944,"y":2540084.0900000036}},{"attributes":{"ID":647041,"DIS_CODE":0,"TOWNNAME":"仁德區","LI":"仁和里","LIN":"15鄰","STREET":"和愛街","SECT":" ","MAREA":" ","LANE":" ","ALLEY":" ","HOUSE_NO":"２２號十樓之３","E_COORD97":170453.64999999999,"N_COORD97":2540084.0899999999,"ADDRESS":"和愛街２２號十樓之３","OBJECTID":647014},"geometry":{"x":170453.64999999944,"y":2540084.0900000036}},{"attributes":{"ID":647042,"DIS_CODE":0,"TOWNNAME":"仁德區","LI":"仁和里","LIN":"15鄰","STREET":"和愛街","SECT":" ","MAREA":" ","LANE":" ","ALLEY":" ","HOUSE_NO":"２２號十樓之５","E_COORD97":170453.64999999999,"N_COORD97":2540084.0899999999,"ADDRESS":"和愛街２２號十樓之５","OBJECTID":647015},"geometry":{"x":170453.64999999944,"y":2540084.0900000036}},{"attributes":{"ID":647043,"DIS_CODE":0,"TOWNNAME":"仁德區","LI":"仁和里","LIN":"15鄰","STREET":"和愛街","SECT":" ","MAREA":" ","LANE":" ","ALLEY":" ","HOUSE_NO":"２２號十一樓之１","E_COORD97":170453.64999999999,"N_COORD97":2540084.0899999999,"ADDRESS":"和愛街２２號十一樓之１","OBJECTID":647016},"geometry":{"x":170453.64999999944,"y":2540084.0900000036}},{"attributes":{"ID":647044,"DIS_CODE":0,"TOWNNAME":"仁德區","LI":"仁和里","LIN":"15鄰","STREET":"和愛街","SECT":" ","MAREA":" ","LANE":" ","ALLEY":" ","HOUSE_NO":"２２號十一樓之２","E_COORD97":170453.64999999999,"N_COORD97":2540084.0899999999,"ADDRESS":"和愛街２２號十一樓之２","OBJECTID":647017},"geometry":{"x":170453.64999999944,"y":2540084.0900000036}},{"attributes":{"ID":647045,"DIS_CODE":0,"TOWNNAME":"仁德區","LI":"仁和里","LIN":"15鄰","STREET":"和愛街","SECT":" ","MAREA":" ","LANE":" ","ALLEY":" ","HOUSE_NO":"２２號十一樓之３","E_COORD97":170453.64999999999,"N_COORD97":2540084.0899999999,"ADDRESS":"和愛街２２號十一樓之３","OBJECTID":647018},"geometry":{"x":170453.64999999944,"y":2540084.0900000036}},{"attributes":{"ID":647046,"DIS_CODE":0,"TOWNNAME":"仁德區","LI":"仁和里","LIN":"15鄰","STREET":"和愛街","SECT":" ","MAREA":" ","LANE":" ","ALLEY":" ","HOUSE_NO":"２２號十一樓之５","E_COORD97":170453.64999999999,"N_COORD97":2540084.0899999999,"ADDRESS":"和愛街２２號十一樓之５","OBJECTID":647019},"geometry":{"x":170453.64999999944,"y":2540084.0900000036}},{"attributes":{"ID":647047,"DIS_CODE":0,"TOWNNAME":"仁德區","LI":"新田里","LIN":"4鄰","STREET":"新田路","SECT":" ","MAREA":" ","LANE":" ","ALLEY":" ","HOUSE_NO":"２１２號","E_COORD97":174512.68473099999,"N_COORD97":2539469.69575,"ADDRESS":"新田路２１２號","OBJECTID":647020},"geometry":{"x":174512.6847310001,"y":2539469.6957450025}},{"attributes":{"ID":647048,"DIS_CODE":0,"TOWNNAME":"仁德區","LI":"仁和里","LIN":"15鄰","STREET":"和愛街","SECT":" ","MAREA":" ","LANE":" ","ALLEY":" ","HOUSE_NO":"２２號十二樓之１","E_COORD97":170453.64999999999,"N_COORD97":2540084.0899999999,"ADDRESS":"和愛街２２號十二樓之１","OBJECTID":647021},"geometry":{"x":170453.64999999944,"y":2540084.0900000036}},{"attributes":{"ID":647049,"DIS_CODE":0,"TOWNNAME":"仁德區","LI":"仁和里","LIN":"15鄰","STREET":"和愛街","SECT":" ","MAREA":" ","LANE":" ","ALLEY":" ","HOUSE_NO":"２２號十二樓之２","E_COORD97":170453.64999999999,"N_COORD97":2540084.0899999999,"ADDRESS":"和愛街２２號十二樓之２","OBJECTID":647022},"geometry":{"x":170453.64999999944,"y":2540084.0900000036}},{"attributes":{"ID":647050,"DIS_CODE":0,"TOWNNAME":"仁德區","LI":"仁和里","LIN":"15鄰","STREET":"和愛街","SECT":" ","MAREA":" ","LANE":" ","ALLEY":" ","HOUSE_NO":"２２號十二樓之３","E_COORD97":170453.64999999999,"N_COORD97":2540084.0899999999,"ADDRESS":"和愛街２２號十二樓之３","OBJECTID":647023},"geometry":{"x":170453.64999999944,"y":2540084.0900000036}},{"attributes":{"ID":647051,"DIS_CODE":0,"TOWNNAME":"仁德區","LI":"仁和里","LIN":"15鄰","STREET":"和愛街","SECT":" ","MAREA":" ","LANE":" ","ALLEY":" ","HOUSE_NO":"２２號十二樓之５","E_COORD97":170453.64999999999,"N_COORD97":2540084.0899999999,"ADDRESS":"和愛街２２號十二樓之５","OBJECTID":647024},"geometry":{"x":170453.64999999944,"y":2540084.0900000036}},{"attributes":{"ID":647052,"DIS_CODE":0,"TOWNNAME":"仁德區","LI":"仁和里","LIN":"15鄰","STREET":"和愛街","SECT":" ","MAREA":" ","LANE":" ","ALLEY":" ","HOUSE_NO":"２２號十三樓之１","E_COORD97":170453.64999999999,"N_COORD97":2540084.0899999999,"ADDRESS":"和愛街２２號十三樓之１","OBJECTID":647025},"geometry":{"x":170453.64999999944,"y":2540084.0900000036}},{"attributes":{"ID":647053,"DIS_CODE":0,"TOWNNAME":"仁德區","LI":"仁和里","LIN":"15鄰","STREET":"和愛街","SECT":" ","MAREA":" ","LANE":" ","ALLEY":" ","HOUSE_NO":"２２號十三樓之２","E_COORD97":170453.64999999999,"N_COORD97":2540084.0899999999,"ADDRESS":"和愛街２２號十三樓之２","OBJECTID":647026},"geometry":{"x":170453.64999999944,"y":2540084.0900000036}},{"attributes":{"ID":647054,"DIS_CODE":0,"TOWNNAME":"仁德區","LI":"仁和里","LIN":"15鄰","STREET":"和愛街","SECT":" ","MAREA":" ","LANE":" ","ALLEY":" ","HOUSE_NO":"２２號十三樓之３","E_COORD97":170453.64999999999,"N_COORD97":2540084.0899999999,"ADDRESS":"和愛街２２號十三樓之３","OBJECTID":647027},"geometry":{"x":170453.64999999944,"y":2540084.0900000036}},{"attributes":{"ID":647055,"DIS_CODE":0,"TOWNNAME":"仁德區","LI":"仁和里","LIN":"15鄰","STREET":"和愛街","SECT":" ","MAREA":" ","LANE":" ","ALLEY":" ","HOUSE_NO":"２２號十三樓之５","E_COORD97":170453.64999999999,"N_COORD97":2540084.0899999999,"ADDRESS":"和愛街２２號十三樓之５","OBJECTID":647028},"geometry":{"x":170453.64999999944,"y":2540084.0900000036}},{"attributes":{"ID":647056,"DIS_CODE":0,"TOWNNAME":"仁德區","LI":"仁和里","LIN":"15鄰","STREET":"和愛街","SECT":" ","MAREA":" ","LANE":" ","ALLEY":" ","HOUSE_NO":"２２號十四樓之１","E_COORD97":170453.64999999999,"N_COORD97":2540084.0899999999,"ADDRESS":"和愛街２２號十四樓之１","OBJECTID":647029},"geometry":{"x":170453.64999999944,"y":2540084.0900000036}},{"attributes":{"ID":647057,"DIS_CODE":0,"TOWNNAME":"仁德區","LI":"仁和里","LIN":"15鄰","STREET":"和愛街","SECT":" ","MAREA":" ","LANE":" ","ALLEY":" ","HOUSE_NO":"２２號十四樓之２","E_COORD97":170453.64999999999,"N_COORD97":2540084.0899999999,"ADDRESS":"和愛街２２號十四樓之２","OBJECTID":647030},"geometry":{"x":170453.64999999944,"y":2540084.0900000036}},{"attributes":{"ID":647058,"DIS_CODE":0,"TOWNNAME":"仁德區","LI":"仁和里","LIN":"15鄰","STREET":"和愛街","SECT":" ","MAREA":" ","LANE":" ","ALLEY":" ","HOUSE_NO":"２２號十四樓之３","E_COORD97":170453.64999999999,"N_COORD97":2540084.0899999999,"ADDRESS":"和愛街２２號十四樓之３","OBJECTID":647031},"geometry":{"x":170453.64999999944,"y":2540084.0900000036}},{"attributes":{"ID":647059,"DIS_CODE":0,"TOWNNAME":"仁德區","LI":"仁和里","LIN":"15鄰","STREET":"和愛街","SECT":" ","MAREA":" ","LANE":" ","ALLEY":" ","HOUSE_NO":"２２號十四樓之５","E_COORD97":170453.64999999999,"N_COORD97":2540084.0899999999,"ADDRESS":"和愛街２２號十四樓之５","OBJECTID":647032},"geometry":{"x":170453.64999999944,"y":2540084.0900000036}},{"attributes":{"ID":647060,"DIS_CODE":0,"TOWNNAME":"東山區","LI":"東山里","LIN":"9鄰","STREET":"中興路","SECT":" ","MAREA":" ","LANE":" ","ALLEY":" ","HOUSE_NO":"１７２號之１","E_COORD97":189005.41172,"N_COORD97":2580412.9172899998,"ADDRESS":"中興路１７２號之１","OBJECTID":647033},"geometry":{"x":189005.41172000021,"y":2580412.9172900021}},{"attributes":{"ID":647061,"DIS_CODE":0,"TOWNNAME":"仁德區","LI":"仁和里","LIN":"17鄰","STREET":"保華路","SECT":" ","MAREA":" ","LANE":" ","ALLEY":" ","HOUSE_NO":"３６１號二樓之２","E_COORD97":170429.35000000001,"N_COORD97":2539884.5699999998,"ADDRESS":"保華路３６１號二樓之２","OBJECTID":647034},"geometry":{"x":170429.34999999963,"y":2539884.570000004}},{"attributes":{"ID":647062,"DIS_CODE":0,"TOWNNAME":"仁德區","LI":"仁和里","LIN":"17鄰","STREET":"保華路","SECT":" ","MAREA":" ","LANE":" ","ALLEY":" ","HOUSE_NO":"３６１號二樓之３","E_COORD97":170429.35000000001,"N_COORD97":2539884.5699999998,"ADDRESS":"保華路３６１號二樓之３","OBJECTID":647035},"geometry":{"x":170429.34999999963,"y":2539884.570000004}},{"attributes":{"ID":647063,"DIS_CODE":0,"TOWNNAME":"仁德區","LI":"仁和里","LIN":"17鄰","STREET":"保華路","SECT":" ","MAREA":" ","LANE":" ","ALLEY":" ","HOUSE_NO":"３６１號二樓之５","E_COORD97":170429.35000000001,"N_COORD97":2539884.5699999998,"ADDRESS":"保華路３６１號二樓之５","OBJECTID":647036},"geometry":{"x":170429.34999999963,"y":2539884.570000004}},{"attributes":{"ID":647064,"DIS_CODE":0,"TOWNNAME":"仁德區","LI":"仁義里","LIN":"16鄰","STREET":"中山路","SECT":" ","MAREA":" ","LANE":" ","ALLEY":" ","HOUSE_NO":"１９６號","E_COORD97":174441.476474,"N_COORD97":2541201.0839900002,"ADDRESS":"中山路１９６號","OBJECTID":647037},"geometry":{"x":174441.476474002,"y":2541201.0839880016}},{"attributes":{"ID":647065,"DIS_CODE":0,"TOWNNAME":"仁德區","LI":"仁和里","LIN":"17鄰","STREET":"保華路","SECT":" ","MAREA":" ","LANE":" ","ALLEY":" ","HOUSE_NO":"３６１號三樓之１","E_COORD97":170429.35000000001,"N_COORD97":2539884.5699999998,"ADDRESS":"保華路３６１號三樓之１","OBJECTID":647038},"geometry":{"x":170429.34999999963,"y":2539884.570000004}},{"attributes":{"ID":647066,"DIS_CODE":0,"TOWNNAME":"仁德區","LI":"仁和里","LIN":"17鄰","STREET":"保華路","SECT":" ","MAREA":" ","LANE":" ","ALLEY":" ","HOUSE_NO":"３６１號三樓之２","E_COORD97":170429.35000000001,"N_COORD97":2539884.5699999998,"ADDRESS":"保華路３６１號三樓之２","OBJECTID":647039},"geometry":{"x":170429.34999999963,"y":2539884.570000004}},{"attributes":{"ID":647067,"DIS_CODE":0,"TOWNNAME":"仁德區","LI":"仁和里","LIN":"17鄰","STREET":"保華路","SECT":" ","MAREA":" ","LANE":" ","ALLEY":" ","HOUSE_NO":"３６１號三樓之３","E_COORD97":170429.35000000001,"N_COORD97":2539884.5699999998,"ADDRESS":"保華路３６１號三樓之３","OBJECTID":647040},"geometry":{"x":170429.34999999963,"y":2539884.570000004}},{"attributes":{"ID":647068,"DIS_CODE":0,"TOWNNAME":"仁德區","LI":"仁和里","LIN":"17鄰","STREET":"保華路","SECT":" ","MAREA":" ","LANE":" ","ALLEY":" ","HOUSE_NO":"３６１號三樓之５","E_COORD97":170429.35000000001,"N_COORD97":2539884.5699999998,"ADDRESS":"保華路３６１號三樓之５","OBJECTID":647041},"geometry":{"x":170429.34999999963,"y":2539884.570000004}},{"attributes":{"ID":647069,"DIS_CODE":0,"TOWNNAME":"仁德區","LI":"仁和里","LIN":"17鄰","STREET":"保華路","SECT":" ","MAREA":" ","LANE":" ","ALLEY":" ","HOUSE_NO":"３６１號四樓之１","E_COORD97":170429.35000000001,"N_COORD97":2539884.5699999998,"ADDRESS":"保華路３６１號四樓之１","OBJECTID":647042},"geometry":{"x":170429.34999999963,"y":2539884.570000004}},{"attributes":{"ID":647070,"DIS_CODE":0,"TOWNNAME":"仁德區","LI":"仁和里","LIN":"17鄰","STREET":"保華路","SECT":" ","MAREA":" ","LANE":" ","ALLEY":" ","HOUSE_NO":"３６１號四樓之２","E_COORD97":170429.35000000001,"N_COORD97":2539884.5699999998,"ADDRESS":"保華路３６１號四樓之２","OBJECTID":647043},"geometry":{"x":170429.34999999963,"y":2539884.570000004}},{"attributes":{"ID":647071,"DIS_CODE":0,"TOWNNAME":"仁德區","LI":"仁和里","LIN":"17鄰","STREET":"保華路","SECT":" ","MAREA":" ","LANE":" ","ALLEY":" ","HOUSE_NO":"３６１號四樓之３","E_COORD97":170429.35000000001,"N_COORD97":2539884.5699999998,"ADDRESS":"保華路３６１號四樓之３","OBJECTID":647044},"geometry":{"x":170429.34999999963,"y":2539884.570000004}},{"attributes":{"ID":647072,"DIS_CODE":0,"TOWNNAME":"仁德區","LI":"仁和里","LIN":"17鄰","STREET":"保華路","SECT":" ","MAREA":" ","LANE":" ","ALLEY":" ","HOUSE_NO":"３６１號四樓之５","E_COORD97":170429.35000000001,"N_COORD97":2539884.5699999998,"ADDRESS":"保華路３６１號四樓之５","OBJECTID":647045},"geometry":{"x":170429.34999999963,"y":2539884.570000004}},{"attributes":{"ID":647073,"DIS_CODE":0,"TOWNNAME":"仁德區","LI":"仁和里","LIN":"17鄰","STREET":"保華路","SECT":" ","MAREA":" ","LANE":" ","ALLEY":" ","HOUSE_NO":"３６１號五樓之１","E_COORD97":170429.35000000001,"N_COORD97":2539884.5699999998,"ADDRESS":"保華路３６１號五樓之１","OBJECTID":647046},"geometry":{"x":170429.34999999963,"y":2539884.570000004}},{"attributes":{"ID":647074,"DIS_CODE":0,"TOWNNAME":"仁德區","LI":"仁和里","LIN":"17鄰","STREET":"保華路","SECT":" ","MAREA":" ","LANE":" ","ALLEY":" ","HOUSE_NO":"３６１號五樓之２","E_COORD97":170429.35000000001,"N_COORD97":2539884.5699999998,"ADDRESS":"保華路３６１號五樓之２","OBJECTID":647047},"geometry":{"x":170429.34999999963,"y":2539884.570000004}},{"attributes":{"ID":647075,"DIS_CODE":0,"TOWNNAME":"仁德區","LI":"仁和里","LIN":"17鄰","STREET":"保華路","SECT":" ","MAREA":" ","LANE":" ","ALLEY":" ","HOUSE_NO":"３６１號五樓之３","E_COORD97":170429.35000000001,"N_COORD97":2539884.5699999998,"ADDRESS":"保華路３６１號五樓之３","OBJECTID":647048},"geometry":{"x":170429.34999999963,"y":2539884.570000004}},{"attributes":{"ID":647076,"DIS_CODE":0,"TOWNNAME":"仁德區","LI":"仁和里","LIN":"17鄰","STREET":"保華路","SECT":" ","MAREA":" ","LANE":" ","ALLEY":" ","HOUSE_NO":"３６１號五樓之５","E_COORD97":170429.35000000001,"N_COORD97":2539884.5699999998,"ADDRESS":"保華路３６１號五樓之５","OBJECTID":647049},"geometry":{"x":170429.34999999963,"y":2539884.570000004}},{"attributes":{"ID":647077,"DIS_CODE":0,"TOWNNAME":"仁德區","LI":"上崙里","LIN":"3鄰","STREET":"德崙路","SECT":" ","MAREA":" ","LANE":" ","ALLEY":" ","HOUSE_NO":"２３７之１號","E_COORD97":173781.25490999999,"N_COORD97":2538210.9325299999,"ADDRESS":"德崙路２３７之１號","OBJECTID":647050},"geometry":{"x":173781.25490999967,"y":2538210.9325300027}},{"attributes":{"ID":647078,"DIS_CODE":0,"TOWNNAME":"仁德區","LI":"仁和里","LIN":"17鄰","STREET":"保華路","SECT":" ","MAREA":" ","LANE":" ","ALLEY":" ","HOUSE_NO":"３６１號六樓之１","E_COORD97":170429.35000000001,"N_COORD97":2539884.5699999998,"ADDRESS":"保華路３６１號六樓之１","OBJECTID":647051},"geometry":{"x":170429.34999999963,"y":2539884.570000004}},{"attributes":{"ID":647079,"DIS_CODE":0,"TOWNNAME":"仁德區","LI":"仁和里","LIN":"17鄰","STREET":"保華路","SECT":" ","MAREA":" ","LANE":" ","ALLEY":" ","HOUSE_NO":"３６１號六樓之２","E_COORD97":170429.35000000001,"N_COORD97":2539884.5699999998,"ADDRESS":"保華路３６１號六樓之２","OBJECTID":647052},"geometry":{"x":170429.34999999963,"y":2539884.570000004}},{"attributes":{"ID":647080,"DIS_CODE":0,"TOWNNAME":"仁德區","LI":"仁和里","LIN":"17鄰","STREET":"保華路","SECT":" ","MAREA":" ","LANE":" ","ALLEY":" ","HOUSE_NO":"３６１號六樓之３","E_COORD97":170429.35000000001,"N_COORD97":2539884.5699999998,"ADDRESS":"保華路３６１號六樓之３","OBJECTID":647053},"geometry":{"x":170429.34999999963,"y":2539884.570000004}},{"attributes":{"ID":647081,"DIS_CODE":0,"TOWNNAME":"仁德區","LI":"仁和里","LIN":"17鄰","STREET":"保華路","SECT":" ","MAREA":" ","LANE":" ","ALLEY":" ","HOUSE_NO":"３６１號六樓之５","E_COORD97":170429.35000000001,"N_COORD97":2539884.5699999998,"ADDRESS":"保華路３６１號六樓之５","OBJECTID":647054},"geometry":{"x":170429.34999999963,"y":2539884.570000004}},{"attributes":{"ID":647082,"DIS_CODE":0,"TOWNNAME":"仁德區","LI":"仁和里","LIN":"17鄰","STREET":"保華路","SECT":" ","MAREA":" ","LANE":" ","ALLEY":" ","HOUSE_NO":"３６１號七樓之２","E_COORD97":170429.35000000001,"N_COORD97":2539884.5699999998,"ADDRESS":"保華路３６１號七樓之２","OBJECTID":647055},"geometry":{"x":170429.34999999963,"y":2539884.570000004}},{"attributes":{"ID":647083,"DIS_CODE":0,"TOWNNAME":"仁德區","LI":"仁和里","LIN":"17鄰","STREET":"保華路","SECT":" ","MAREA":" ","LANE":" ","ALLEY":" ","HOUSE_NO":"３６１號七樓之３","E_COORD97":170429.35000000001,"N_COORD97":2539884.5699999998,"ADDRESS":"保華路３６１號七樓之３","OBJECTID":647056},"geometry":{"x":170429.34999999963,"y":2539884.570000004}},{"attributes":{"ID":647084,"DIS_CODE":0,"TOWNNAME":"仁德區","LI":"仁和里","LIN":"17鄰","STREET":"保華路","SECT":" ","MAREA":" ","LANE":" ","ALLEY":" ","HOUSE_NO":"３６１號七樓之５","E_COORD97":170429.35000000001,"N_COORD97":2539884.5699999998,"ADDRESS":"保華路３６１號七樓之５","OBJECTID":647057},"geometry":{"x":170429.34999999963,"y":2539884.570000004}},{"attributes":{"ID":647085,"DIS_CODE":0,"TOWNNAME":"仁德區","LI":"仁和里","LIN":"17鄰","STREET":"保華路","SECT":" ","MAREA":" ","LANE":" ","ALLEY":" ","HOUSE_NO":"３６１號八樓之１","E_COORD97":170429.35000000001,"N_COORD97":2539884.5699999998,"ADDRESS":"保華路３６１號八樓之１","OBJECTID":647058},"geometry":{"x":170429.34999999963,"y":2539884.570000004}},{"attributes":{"ID":647086,"DIS_CODE":0,"TOWNNAME":"仁德區","LI":"仁和里","LIN":"17鄰","STREET":"保華路","SECT":" ","MAREA":" ","LANE":" ","ALLEY":" ","HOUSE_NO":"３６１號八樓之２","E_COORD97":170429.35000000001,"N_COORD97":2539884.5699999998,"ADDRESS":"保華路３６１號八樓之２","OBJECTID":647059},"geometry":{"x":170429.34999999963,"y":2539884.570000004}},{"attributes":{"ID":647087,"DIS_CODE":0,"TOWNNAME":"仁德區","LI":"仁和里","LIN":"17鄰","STREET":"保華路","SECT":" ","MAREA":" ","LANE":" ","ALLEY":" ","HOUSE_NO":"３６１號八樓之３","E_COORD97":170429.35000000001,"N_COORD97":2539884.5699999998,"ADDRESS":"保華路３６１號八樓之３","OBJECTID":647060},"geometry":{"x":170429.34999999963,"y":2539884.570000004}},{"attributes":{"ID":647088,"DIS_CODE":0,"TOWNNAME":"仁德區","LI":"仁和里","LIN":"17鄰","STREET":"保華路","SECT":" ","MAREA":" ","LANE":" ","ALLEY":" ","HOUSE_NO":"３６１號八樓之５","E_COORD97":170429.35000000001,"N_COORD97":2539884.5699999998,"ADDRESS":"保華路３６１號八樓之５","OBJECTID":647061},"geometry":{"x":170429.34999999963,"y":2539884.570000004}},{"attributes":{"ID":647089,"DIS_CODE":0,"TOWNNAME":"仁德區","LI":"仁和里","LIN":"17鄰","STREET":"保華路","SECT":" ","MAREA":" ","LANE":" ","ALLEY":" ","HOUSE_NO":"３６１號九樓之１","E_COORD97":170429.35000000001,"N_COORD97":2539884.5699999998,"ADDRESS":"保華路３６１號九樓之１","OBJECTID":647062},"geometry":{"x":170429.34999999963,"y":2539884.570000004}},{"attributes":{"ID":647090,"DIS_CODE":0,"TOWNNAME":"仁德區","LI":"仁和里","LIN":"17鄰","STREET":"保華路","SECT":" ","MAREA":" ","LANE":" ","ALLEY":" ","HOUSE_NO":"３６１號九樓之２","E_COORD97":170429.35000000001,"N_COORD97":2539884.5699999998,"ADDRESS":"保華路３６１號九樓之２","OBJECTID":647063},"geometry":{"x":170429.34999999963,"y":2539884.570000004}},{"attributes":{"ID":647091,"DIS_CODE":0,"TOWNNAME":"仁德區","LI":"仁和里","LIN":"17鄰","STREET":"保華路","SECT":" ","MAREA":" ","LANE":" ","ALLEY":" ","HOUSE_NO":"３６１號九樓之３","E_COORD97":170429.35000000001,"N_COORD97":2539884.5699999998,"ADDRESS":"保華路３６１號九樓之３","OBJECTID":647064},"geometry":{"x":170429.34999999963,"y":2539884.570000004}},{"attributes":{"ID":647092,"DIS_CODE":0,"TOWNNAME":"仁德區","LI":"仁和里","LIN":"17鄰","STREET":"保華路","SECT":" ","MAREA":" ","LANE":" ","ALLEY":" ","HOUSE_NO":"３６１號九樓之５","E_COORD97":170429.35000000001,"N_COORD97":2539884.5699999998,"ADDRESS":"保華路３６１號九樓之５","OBJECTID":647065},"geometry":{"x":170429.34999999963,"y":2539884.570000004}},{"attributes":{"ID":647093,"DIS_CODE":0,"TOWNNAME":"仁德區","LI":"仁和里","LIN":"17鄰","STREET":"保華路","SECT":" ","MAREA":" ","LANE":" ","ALLEY":" ","HOUSE_NO":"３６１號十樓之１","E_COORD97":170429.35000000001,"N_COORD97":2539884.5699999998,"ADDRESS":"保華路３６１號十樓之１","OBJECTID":647066},"geometry":{"x":170429.34999999963,"y":2539884.570000004}},{"attributes":{"ID":647094,"DIS_CODE":0,"TOWNNAME":"仁德區","LI":"仁和里","LIN":"17鄰","STREET":"保華路","SECT":" ","MAREA":" ","LANE":" ","ALLEY":" ","HOUSE_NO":"３６１號十樓之２","E_COORD97":170429.35000000001,"N_COORD97":2539884.5699999998,"ADDRESS":"保華路３６１號十樓之２","OBJECTID":647067},"geometry":{"x":170429.34999999963,"y":2539884.570000004}},{"attributes":{"ID":647095,"DIS_CODE":0,"TOWNNAME":"仁德區","LI":"仁和里","LIN":"17鄰","STREET":"保華路","SECT":" ","MAREA":" ","LANE":" ","ALLEY":" ","HOUSE_NO":"３６１號十樓之３","E_COORD97":170429.35000000001,"N_COORD97":2539884.5699999998,"ADDRESS":"保華路３６１號十樓之３","OBJECTID":647068},"geometry":{"x":170429.34999999963,"y":2539884.570000004}},{"attributes":{"ID":647096,"DIS_CODE":0,"TOWNNAME":"仁德區","LI":"仁和里","LIN":"17鄰","STREET":"保華路","SECT":" ","MAREA":" ","LANE":" ","ALLEY":" ","HOUSE_NO":"３６１號十樓之５","E_COORD97":170429.35000000001,"N_COORD97":2539884.5699999998,"ADDRESS":"保華路３６１號十樓之５","OBJECTID":647069},"geometry":{"x":170429.34999999963,"y":2539884.570000004}},{"attributes":{"ID":647097,"DIS_CODE":0,"TOWNNAME":"仁德區","LI":"仁和里","LIN":"17鄰","STREET":"保華路","SECT":" ","MAREA":" ","LANE":" ","ALLEY":" ","HOUSE_NO":"３６１號十一樓之１","E_COORD97":170429.35000000001,"N_COORD97":2539884.5699999998,"ADDRESS":"保華路３６１號十一樓之１","OBJECTID":647070},"geometry":{"x":170429.34999999963,"y":2539884.570000004}},{"attributes":{"ID":647098,"DIS_CODE":0,"TOWNNAME":"仁德區","LI":"仁和里","LIN":"17鄰","STREET":"保華路","SECT":" ","MAREA":" ","LANE":" ","ALLEY":" ","HOUSE_NO":"３６１號十一樓之２","E_COORD97":170429.35000000001,"N_COORD97":2539884.5699999998,"ADDRESS":"保華路３６１號十一樓之２","OBJECTID":647071},"geometry":{"x":170429.34999999963,"y":2539884.570000004}},{"attributes":{"ID":647099,"DIS_CODE":0,"TOWNNAME":"仁德區","LI":"仁和里","LIN":"17鄰","STREET":"保華路","SECT":" ","MAREA":" ","LANE":" ","ALLEY":" ","HOUSE_NO":"３６１號十一樓之３","E_COORD97":170429.35000000001,"N_COORD97":2539884.5699999998,"ADDRESS":"保華路３６１號十一樓之３","OBJECTID":647072},"geometry":{"x":170429.34999999963,"y":2539884.570000004}},{"attributes":{"ID":647100,"DIS_CODE":0,"TOWNNAME":"仁德區","LI":"仁和里","LIN":"17鄰","STREET":"保華路","SECT":" ","MAREA":" ","LANE":" ","ALLEY":" ","HOUSE_NO":"３６１號十一樓之５","E_COORD97":170429.35000000001,"N_COORD97":2539884.5699999998,"ADDRESS":"保華路３６１號十一樓之５","OBJECTID":647073},"geometry":{"x":170429.34999999963,"y":2539884.570000004}},{"attributes":{"ID":647101,"DIS_CODE":0,"TOWNNAME":"仁德區","LI":"仁和里","LIN":"17鄰","STREET":"保華路","SECT":" ","MAREA":" ","LANE":" ","ALLEY":" ","HOUSE_NO":"３６１號十二樓之１","E_COORD97":170429.35000000001,"N_COORD97":2539884.5699999998,"ADDRESS":"保華路３６１號十二樓之１","OBJECTID":647074},"geometry":{"x":170429.34999999963,"y":2539884.570000004}},{"attributes":{"ID":647102,"DIS_CODE":0,"TOWNNAME":"仁德區","LI":"仁和里","LIN":"17鄰","STREET":"保華路","SECT":" ","MAREA":" ","LANE":" ","ALLEY":" ","HOUSE_NO":"３６１號十二樓之２","E_COORD97":170429.35000000001,"N_COORD97":2539884.5699999998,"ADDRESS":"保華路３６１號十二樓之２","OBJECTID":647075},"geometry":{"x":170429.34999999963,"y":2539884.570000004}},{"attributes":{"ID":647103,"DIS_CODE":0,"TOWNNAME":"仁德區","LI":"仁和里","LIN":"17鄰","STREET":"保華路","SECT":" ","MAREA":" ","LANE":" ","ALLEY":" ","HOUSE_NO":"３６１號十二樓之３","E_COORD97":170429.35000000001,"N_COORD97":2539884.5699999998,"ADDRESS":"保華路３６１號十二樓之３","OBJECTID":647076},"geometry":{"x":170429.34999999963,"y":2539884.570000004}},{"attributes":{"ID":647104,"DIS_CODE":0,"TOWNNAME":"仁德區","LI":"仁和里","LIN":"17鄰","STREET":"保華路","SECT":" ","MAREA":" ","LANE":" ","ALLEY":" ","HOUSE_NO":"３６１號十二樓之５","E_COORD97":170429.35000000001,"N_COORD97":2539884.5699999998,"ADDRESS":"保華路３６１號十二樓之５","OBJECTID":647077},"geometry":{"x":170429.34999999963,"y":2539884.570000004}},{"attributes":{"ID":647105,"DIS_CODE":0,"TOWNNAME":"仁德區","LI":"仁和里","LIN":"17鄰","STREET":"保華路","SECT":" ","MAREA":" ","LANE":" ","ALLEY":" ","HOUSE_NO":"３６１號十三樓之１","E_COORD97":170429.35000000001,"N_COORD97":2539884.5699999998,"ADDRESS":"保華路３６１號十三樓之１","OBJECTID":647078},"geometry":{"x":170429.34999999963,"y":2539884.570000004}},{"attributes":{"ID":647106,"DIS_CODE":0,"TOWNNAME":"仁德區","LI":"仁和里","LIN":"17鄰","STREET":"保華路","SECT":" ","MAREA":" ","LANE":" ","ALLEY":" ","HOUSE_NO":"３６１號十三樓之２","E_COORD97":170429.35000000001,"N_COORD97":2539884.5699999998,"ADDRESS":"保華路３６１號十三樓之２","OBJECTID":647079},"geometry":{"x":170429.34999999963,"y":2539884.570000004}},{"attributes":{"ID":647107,"DIS_CODE":0,"TOWNNAME":"仁德區","LI":"仁和里","LIN":"17鄰","STREET":"保華路","SECT":" ","MAREA":" ","LANE":" ","ALLEY":" ","HOUSE_NO":"３６１號十三樓之３","E_COORD97":170429.35000000001,"N_COORD97":2539884.5699999998,"ADDRESS":"保華路３６１號十三樓之３","OBJECTID":647080},"geometry":{"x":170429.34999999963,"y":2539884.570000004}},{"attributes":{"ID":647108,"DIS_CODE":0,"TOWNNAME":"仁德區","LI":"仁和里","LIN":"17鄰","STREET":"保華路","SECT":" ","MAREA":" ","LANE":" ","ALLEY":" ","HOUSE_NO":"３６１號十三樓之５","E_COORD97":170429.35000000001,"N_COORD97":2539884.5699999998,"ADDRESS":"保華路３６１號十三樓之５","OBJECTID":647081},"geometry":{"x":170429.34999999963,"y":2539884.570000004}},{"attributes":{"ID":647109,"DIS_CODE":0,"TOWNNAME":"仁德區","LI":"新田里","LIN":"5鄰","STREET":"勝利二街","SECT":" ","MAREA":" ","LANE":"３９巷","ALLEY":" ","HOUSE_NO":"１６號","E_COORD97":174946.33111500001,"N_COORD97":2539258.1726199999,"ADDRESS":"勝利二街３９巷１６號","OBJECTID":647082},"geometry":{"x":174946.33111500088,"y":2539258.1726190019}},{"attributes":{"ID":647110,"DIS_CODE":0,"TOWNNAME":"仁德區","LI":"仁和里","LIN":"16鄰","STREET":"保華路","SECT":" ","MAREA":" ","LANE":" ","ALLEY":" ","HOUSE_NO":"３６９號二樓之２","E_COORD97":170388.09,"N_COORD97":2539871.2400000002,"ADDRESS":"保華路３６９號二樓之２","OBJECTID":647083},"geometry":{"x":170388.09000000078,"y":2539871.2400000021}},{"attributes":{"ID":647111,"DIS_CODE":0,"TOWNNAME":"仁德區","LI":"仁和里","LIN":"16鄰","STREET":"保華路","SECT":" ","MAREA":" ","LANE":" ","ALLEY":" ","HOUSE_NO":"３６９號二樓之３","E_COORD97":170388.09,"N_COORD97":2539871.2400000002,"ADDRESS":"保華路３６９號二樓之３","OBJECTID":647084},"geometry":{"x":170388.09000000078,"y":2539871.2400000021}},{"attributes":{"ID":647112,"DIS_CODE":0,"TOWNNAME":"仁德區","LI":"仁和里","LIN":"16鄰","STREET":"保華路","SECT":" ","MAREA":" ","LANE":" ","ALLEY":" ","HOUSE_NO":"３６９號二樓之５","E_COORD97":170388.09,"N_COORD97":2539871.2400000002,"ADDRESS":"保華路３６９號二樓之５","OBJECTID":647085},"geometry":{"x":170388.09000000078,"y":2539871.2400000021}},{"attributes":{"ID":647113,"DIS_CODE":0,"TOWNNAME":"仁德區","LI":"仁和里","LIN":"16鄰","STREET":"保華路","SECT":" ","MAREA":" ","LANE":" ","ALLEY":" ","HOUSE_NO":"３６９號三樓之１","E_COORD97":170388.09,"N_COORD97":2539871.2400000002,"ADDRESS":"保華路３６９號三樓之１","OBJECTID":647086},"geometry":{"x":170388.09000000078,"y":2539871.2400000021}},{"attributes":{"ID":647114,"DIS_CODE":0,"TOWNNAME":"東山區","LI":"東山里","LIN":"4鄰","STREET":" ","SECT":" ","MAREA":"東山","LANE":" ","ALLEY":" ","HOUSE_NO":"１３９號之５","E_COORD97":189048.20894099999,"N_COORD97":2580314.3336,"ADDRESS":"東山１３９號之５","OBJECTID":647087},"geometry":{"x":189048.20894099958,"y":2580314.3335960004}},{"attributes":{"ID":647115,"DIS_CODE":0,"TOWNNAME":"仁德區","LI":"仁和里","LIN":"16鄰","STREET":"保華路","SECT":" ","MAREA":" ","LANE":" ","ALLEY":" ","HOUSE_NO":"３６９號三樓之２","E_COORD97":170388.09,"N_COORD97":2539871.2400000002,"ADDRESS":"保華路３６９號三樓之２","OBJECTID":647088},"geometry":{"x":170388.09000000078,"y":2539871.2400000021}},{"attributes":{"ID":647116,"DIS_CODE":0,"TOWNNAME":"仁德區","LI":"仁和里","LIN":"16鄰","STREET":"保華路","SECT":" ","MAREA":" ","LANE":" ","ALLEY":" ","HOUSE_NO":"３６９號三樓之３","E_COORD97":170388.09,"N_COORD97":2539871.2400000002,"ADDRESS":"保華路３６９號三樓之３","OBJECTID":647089},"geometry":{"x":170388.09000000078,"y":2539871.2400000021}},{"attributes":{"ID":647117,"DIS_CODE":0,"TOWNNAME":"仁德區","LI":"仁和里","LIN":"16鄰","STREET":"保華路","SECT":" ","MAREA":" ","LANE":" ","ALLEY":" ","HOUSE_NO":"３６９號三樓之５","E_COORD97":170388.09,"N_COORD97":2539871.2400000002,"ADDRESS":"保華路３６９號三樓之５","OBJECTID":647090},"geometry":{"x":170388.09000000078,"y":2539871.2400000021}},{"attributes":{"ID":647118,"DIS_CODE":0,"TOWNNAME":"仁德區","LI":"仁和里","LIN":"16鄰","STREET":"保華路","SECT":" ","MAREA":" ","LANE":" ","ALLEY":" ","HOUSE_NO":"３６９號四樓之１","E_COORD97":170388.09,"N_COORD97":2539871.2400000002,"ADDRESS":"保華路３６９號四樓之１","OBJECTID":647091},"geometry":{"x":170388.09000000078,"y":2539871.2400000021}},{"attributes":{"ID":647119,"DIS_CODE":0,"TOWNNAME":"仁德區","LI":"仁和里","LIN":"16鄰","STREET":"保華路","SECT":" ","MAREA":" ","LANE":" ","ALLEY":" ","HOUSE_NO":"３６９號四樓之２","E_COORD97":170388.09,"N_COORD97":2539871.2400000002,"ADDRESS":"保華路３６９號四樓之２","OBJECTID":647092},"geometry":{"x":170388.09000000078,"y":2539871.2400000021}},{"attributes":{"ID":647120,"DIS_CODE":0,"TOWNNAME":"仁德區","LI":"仁和里","LIN":"16鄰","STREET":"保華路","SECT":" ","MAREA":" ","LANE":" ","ALLEY":" ","HOUSE_NO":"３６９號四樓之３","E_COORD97":170388.09,"N_COORD97":2539871.2400000002,"ADDRESS":"保華路３６９號四樓之３","OBJECTID":647093},"geometry":{"x":170388.09000000078,"y":2539871.2400000021}},{"attributes":{"ID":647121,"DIS_CODE":0,"TOWNNAME":"仁德區","LI":"仁和里","LIN":"16鄰","STREET":"保華路","SECT":" ","MAREA":" ","LANE":" ","ALLEY":" ","HOUSE_NO":"３６９號四樓之５","E_COORD97":170388.09,"N_COORD97":2539871.2400000002,"ADDRESS":"保華路３６９號四樓之５","OBJECTID":647094},"geometry":{"x":170388.09000000078,"y":2539871.2400000021}},{"attributes":{"ID":647122,"DIS_CODE":0,"TOWNNAME":"仁德區","LI":"仁和里","LIN":"16鄰","STREET":"保華路","SECT":" ","MAREA":" ","LANE":" ","ALLEY":" ","HOUSE_NO":"３６９號五樓之１","E_COORD97":170388.09,"N_COORD97":2539871.2400000002,"ADDRESS":"保華路３６９號五樓之１","OBJECTID":647095},"geometry":{"x":170388.09000000078,"y":2539871.2400000021}},{"attributes":{"ID":647123,"DIS_CODE":0,"TOWNNAME":"仁德區","LI":"仁和里","LIN":"16鄰","STREET":"保華路","SECT":" ","MAREA":" ","LANE":" ","ALLEY":" ","HOUSE_NO":"３６９號五樓之２","E_COORD97":170388.09,"N_COORD97":2539871.2400000002,"ADDRESS":"保華路３６９號五樓之２","OBJECTID":647096},"geometry":{"x":170388.09000000078,"y":2539871.2400000021}},{"attributes":{"ID":647124,"DIS_CODE":0,"TOWNNAME":"仁德區","LI":"仁和里","LIN":"16鄰","STREET":"保華路","SECT":" ","MAREA":" ","LANE":" ","ALLEY":" ","HOUSE_NO":"３６９號五樓之３","E_COORD97":170388.09,"N_COORD97":2539871.2400000002,"ADDRESS":"保華路３６９號五樓之３","OBJECTID":647097},"geometry":{"x":170388.09000000078,"y":2539871.2400000021}},{"attributes":{"ID":647125,"DIS_CODE":0,"TOWNNAME":"仁德區","LI":"仁和里","LIN":"16鄰","STREET":"保華路","SECT":" ","MAREA":" ","LANE":" ","ALLEY":" ","HOUSE_NO":"３６９號五樓之５","E_COORD97":170388.09,"N_COORD97":2539871.2400000002,"ADDRESS":"保華路３６９號五樓之５","OBJECTID":647098},"geometry":{"x":170388.09000000078,"y":2539871.2400000021}},{"attributes":{"ID":647126,"DIS_CODE":0,"TOWNNAME":"仁德區","LI":"仁和里","LIN":"16鄰","STREET":"保華路","SECT":" ","MAREA":" ","LANE":" ","ALLEY":" ","HOUSE_NO":"３６９號六樓之１","E_COORD97":170388.09,"N_COORD97":2539871.2400000002,"ADDRESS":"保華路３６９號六樓之１","OBJECTID":647099},"geometry":{"x":170388.09000000078,"y":2539871.2400000021}},{"attributes":{"ID":647127,"DIS_CODE":0,"TOWNNAME":"仁德區","LI":"仁和里","LIN":"16鄰","STREET":"保華路","SECT":" ","MAREA":" ","LANE":" ","ALLEY":" ","HOUSE_NO":"３６９號六樓之２","E_COORD97":170388.09,"N_COORD97":2539871.2400000002,"ADDRESS":"保華路３６９號六樓之２","OBJECTID":647100},"geometry":{"x":170388.09000000078,"y":2539871.2400000021}},{"attributes":{"ID":647128,"DIS_CODE":0,"TOWNNAME":"仁德區","LI":"仁和里","LIN":"16鄰","STREET":"保華路","SECT":" ","MAREA":" ","LANE":" ","ALLEY":" ","HOUSE_NO":"３６９號六樓之３","E_COORD97":170388.09,"N_COORD97":2539871.2400000002,"ADDRESS":"保華路３６９號六樓之３","OBJECTID":647101},"geometry":{"x":170388.09000000078,"y":2539871.2400000021}},{"attributes":{"ID":647129,"DIS_CODE":0,"TOWNNAME":"仁德區","LI":"仁和里","LIN":"16鄰","STREET":"保華路","SECT":" ","MAREA":" ","LANE":" ","ALLEY":" ","HOUSE_NO":"３６９號六樓之５","E_COORD97":170388.09,"N_COORD97":2539871.2400000002,"ADDRESS":"保華路３６９號六樓之５","OBJECTID":647102},"geometry":{"x":170388.09000000078,"y":2539871.2400000021}},{"attributes":{"ID":647130,"DIS_CODE":0,"TOWNNAME":"仁德區","LI":"仁和里","LIN":"16鄰","STREET":"保華路","SECT":" ","MAREA":" ","LANE":" ","ALLEY":" ","HOUSE_NO":"３６９號七樓之１","E_COORD97":170388.09,"N_COORD97":2539871.2400000002,"ADDRESS":"保華路３６９號七樓之１","OBJECTID":647103},"geometry":{"x":170388.09000000078,"y":2539871.2400000021}},{"attributes":{"ID":647131,"DIS_CODE":0,"TOWNNAME":"仁德區","LI":"仁和里","LIN":"16鄰","STREET":"保華路","SECT":" ","MAREA":" ","LANE":" ","ALLEY":" ","HOUSE_NO":"３６９號七樓之２","E_COORD97":170388.09,"N_COORD97":2539871.2400000002,"ADDRESS":"保華路３６９號七樓之２","OBJECTID":647104},"geometry":{"x":170388.09000000078,"y":2539871.2400000021}},{"attributes":{"ID":647132,"DIS_CODE":0,"TOWNNAME":"仁德區","LI":"仁和里","LIN":"16鄰","STREET":"保華路","SECT":" ","MAREA":" ","LANE":" ","ALLEY":" ","HOUSE_NO":"３６９號七樓之３","E_COORD97":170388.09,"N_COORD97":2539871.2400000002,"ADDRESS":"保華路３６９號七樓之３","OBJECTID":647105},"geometry":{"x":170388.09000000078,"y":2539871.2400000021}},{"attributes":{"ID":647133,"DIS_CODE":0,"TOWNNAME":"仁德區","LI":"仁和里","LIN":"16鄰","STREET":"保華路","SECT":" ","MAREA":" ","LANE":" ","ALLEY":" ","HOUSE_NO":"３６９號七樓之５","E_COORD97":170388.09,"N_COORD97":2539871.2400000002,"ADDRESS":"保華路３６９號七樓之５","OBJECTID":647106},"geometry":{"x":170388.09000000078,"y":2539871.2400000021}},{"attributes":{"ID":647134,"DIS_CODE":0,"TOWNNAME":"仁德區","LI":"仁和里","LIN":"16鄰","STREET":"保華路","SECT":" ","MAREA":" ","LANE":" ","ALLEY":" ","HOUSE_NO":"３６９號八樓之１","E_COORD97":170388.09,"N_COORD97":2539871.2400000002,"ADDRESS":"保華路３６９號八樓之１","OBJECTID":647107},"geometry":{"x":170388.09000000078,"y":2539871.2400000021}},{"attributes":{"ID":647135,"DIS_CODE":0,"TOWNNAME":"仁德區","LI":"仁和里","LIN":"16鄰","STREET":"保華路","SECT":" ","MAREA":" ","LANE":" ","ALLEY":" ","HOUSE_NO":"３６９號八樓之２","E_COORD97":170388.09,"N_COORD97":2539871.2400000002,"ADDRESS":"保華路３６９號八樓之２","OBJECTID":647108},"geometry":{"x":170388.09000000078,"y":2539871.2400000021}},{"attributes":{"ID":647136,"DIS_CODE":0,"TOWNNAME":"仁德區","LI":"仁和里","LIN":"16鄰","STREET":"保華路","SECT":" ","MAREA":" ","LANE":" ","ALLEY":" ","HOUSE_NO":"３６９號八樓之３","E_COORD97":170388.09,"N_COORD97":2539871.2400000002,"ADDRESS":"保華路３６９號八樓之３","OBJECTID":647109},"geometry":{"x":170388.09000000078,"y":2539871.2400000021}},{"attributes":{"ID":647137,"DIS_CODE":0,"TOWNNAME":"仁德區","LI":"仁和里","LIN":"16鄰","STREET":"保華路","SECT":" ","MAREA":" ","LANE":" ","ALLEY":" ","HOUSE_NO":"３６９號八樓之５","E_COORD97":170388.09,"N_COORD97":2539871.2400000002,"ADDRESS":"保華路３６９號八樓之５","OBJECTID":647110},"geometry":{"x":170388.09000000078,"y":2539871.2400000021}},{"attributes":{"ID":647138,"DIS_CODE":0,"TOWNNAME":"仁德區","LI":"仁和里","LIN":"16鄰","STREET":"保華路","SECT":" ","MAREA":" ","LANE":" ","ALLEY":" ","HOUSE_NO":"３６９號九樓之１","E_COORD97":170388.09,"N_COORD97":2539871.2400000002,"ADDRESS":"保華路３６９號九樓之１","OBJECTID":647111},"geometry":{"x":170388.09000000078,"y":2539871.2400000021}},{"attributes":{"ID":647139,"DIS_CODE":0,"TOWNNAME":"仁德區","LI":"仁和里","LIN":"16鄰","STREET":"保華路","SECT":" ","MAREA":" ","LANE":" ","ALLEY":" ","HOUSE_NO":"３６９號九樓之２","E_COORD97":170388.09,"N_COORD97":2539871.2400000002,"ADDRESS":"保華路３６９號九樓之２","OBJECTID":647112},"geometry":{"x":170388.09000000078,"y":2539871.2400000021}},{"attributes":{"ID":647140,"DIS_CODE":0,"TOWNNAME":"仁德區","LI":"仁和里","LIN":"16鄰","STREET":"保華路","SECT":" ","MAREA":" ","LANE":" ","ALLEY":" ","HOUSE_NO":"３６９號九樓之３","E_COORD97":170388.09,"N_COORD97":2539871.2400000002,"ADDRESS":"保華路３６９號九樓之３","OBJECTID":647113},"geometry":{"x":170388.09000000078,"y":2539871.2400000021}},{"attributes":{"ID":647141,"DIS_CODE":0,"TOWNNAME":"仁德區","LI":"仁和里","LIN":"16鄰","STREET":"保華路","SECT":" ","MAREA":" ","LANE":" ","ALLEY":" ","HOUSE_NO":"３６９號九樓之５","E_COORD97":170388.09,"N_COORD97":2539871.2400000002,"ADDRESS":"保華路３６９號九樓之５","OBJECTID":647114},"geometry":{"x":170388.09000000078,"y":2539871.2400000021}},{"attributes":{"ID":647142,"DIS_CODE":0,"TOWNNAME":"仁德區","LI":"仁和里","LIN":"16鄰","STREET":"保華路","SECT":" ","MAREA":" ","LANE":" ","ALLEY":" ","HOUSE_NO":"３６９號十樓之１","E_COORD97":170388.09,"N_COORD97":2539871.2400000002,"ADDRESS":"保華路３６９號十樓之１","OBJECTID":647115},"geometry":{"x":170388.09000000078,"y":2539871.2400000021}},{"attributes":{"ID":647143,"DIS_CODE":0,"TOWNNAME":"仁德區","LI":"仁和里","LIN":"16鄰","STREET":"保華路","SECT":" ","MAREA":" ","LANE":" ","ALLEY":" ","HOUSE_NO":"３６９號十樓之２","E_COORD97":170388.09,"N_COORD97":2539871.2400000002,"ADDRESS":"保華路３６９號十樓之２","OBJECTID":647116},"geometry":{"x":170388.09000000078,"y":2539871.2400000021}},{"attributes":{"ID":647144,"DIS_CODE":0,"TOWNNAME":"仁德區","LI":"仁和里","LIN":"16鄰","STREET":"保華路","SECT":" ","MAREA":" ","LANE":" ","ALLEY":" ","HOUSE_NO":"３６９號十樓之３","E_COORD97":170388.09,"N_COORD97":2539871.2400000002,"ADDRESS":"保華路３６９號十樓之３","OBJECTID":647117},"geometry":{"x":170388.09000000078,"y":2539871.2400000021}},{"attributes":{"ID":647145,"DIS_CODE":0,"TOWNNAME":"仁德區","LI":"仁和里","LIN":"16鄰","STREET":"保華路","SECT":" ","MAREA":" ","LANE":" ","ALLEY":" ","HOUSE_NO":"３６９號十樓之５","E_COORD97":170388.09,"N_COORD97":2539871.2400000002,"ADDRESS":"保華路３６９號十樓之５","OBJECTID":647118},"geometry":{"x":170388.09000000078,"y":2539871.2400000021}},{"attributes":{"ID":647146,"DIS_CODE":0,"TOWNNAME":"安南區","LI":"頂安里","LIN":"19鄰","STREET":"北安路","SECT":"三段","MAREA":" ","LANE":" ","ALLEY":" ","HOUSE_NO":"３９０號","E_COORD97":168721.328847,"N_COORD97":2549490.4254999999,"ADDRESS":"北安路三段３９０號","OBJECTID":647119},"geometry":{"x":168721.32884700131,"y":2549490.4254960027}},{"attributes":{"ID":647147,"DIS_CODE":0,"TOWNNAME":"安南區","LI":"頂安里","LIN":"19鄰","STREET":"北安路","SECT":"三段","MAREA":" ","LANE":" ","ALLEY":" ","HOUSE_NO":"３９２號","E_COORD97":168723.872302,"N_COORD97":2549494.44716,"ADDRESS":"北安路三段３９２號","OBJECTID":647120},"geometry":{"x":168723.87230200134,"y":2549494.4471599981}},{"attributes":{"ID":647148,"DIS_CODE":0,"TOWNNAME":"安平區","LI":"億載里","LIN":"14鄰","STREET":"平豐路","SECT":" ","MAREA":" ","LANE":" ","ALLEY":" ","HOUSE_NO":"９９號","E_COORD97":164304.95620700001,"N_COORD97":2543254.01278,"ADDRESS":"平豐路９９號","OBJECTID":647121},"geometry":{"x":164304.95620699972,"y":2543254.0127770025}},{"attributes":{"ID":647149,"DIS_CODE":0,"TOWNNAME":"七股區","LI":"大埕里","LIN":"17鄰","STREET":" ","SECT":" ","MAREA":"大埕","LANE":" ","ALLEY":" ","HOUSE_NO":"４７０號","E_COORD97":162336.30125600001,"N_COORD97":2559611.7050299998,"ADDRESS":"大埕４７０號","OBJECTID":647122},"geometry":{"x":162336.301256001,"y":2559611.7050310019}},{"attributes":{"ID":647150,"DIS_CODE":0,"TOWNNAME":"仁德區","LI":"新田里","LIN":"6鄰","STREET":"勝利二街","SECT":" ","MAREA":" ","LANE":"２０巷","ALLEY":" ","HOUSE_NO":"１１號","E_COORD97":174814.80554500001,"N_COORD97":2539375.4358899998,"ADDRESS":"勝利二街２０巷１１號","OBJECTID":647123},"geometry":{"x":174814.80554500129,"y":2539375.4358890001}},{"attributes":{"ID":647151,"DIS_CODE":0,"TOWNNAME":"新營區","LI":"延平里","LIN":"1鄰","STREET":"延平路","SECT":" ","MAREA":" ","LANE":" ","ALLEY":" ","HOUSE_NO":"４６之６７號","E_COORD97":179752.65378699999,"N_COORD97":2577788.6303099999,"ADDRESS":"延平路４６之６７號","OBJECTID":647124},"geometry":{"x":179752.65378699917,"y":2577788.6303120032}},{"attributes":{"ID":647152,"DIS_CODE":0,"TOWNNAME":"新營區","LI":"延平里","LIN":"1鄰","STREET":"延平路","SECT":" ","MAREA":" ","LANE":" ","ALLEY":" ","HOUSE_NO":"４６之６８號","E_COORD97":179749.47493699999,"N_COORD97":2577788.4186499999,"ADDRESS":"延平路４６之６８號","OBJECTID":647125},"geometry":{"x":179749.47493700124,"y":2577788.4186460003}},{"attributes":{"ID":647153,"DIS_CODE":0,"TOWNNAME":"安平區","LI":"億載里","LIN":"9鄰","STREET":"永華十一街","SECT":" ","MAREA":" ","LANE":"１７巷","ALLEY":" ","HOUSE_NO":"２５號四樓之４","E_COORD97":164032.01931599999,"N_COORD97":2543418.6893500001,"ADDRESS":"永華十一街１７巷２５號四樓之４","OBJECTID":647126},"geometry":{"x":164032.01931599993,"y":2543418.6893550027}},{"attributes":{"ID":647154,"DIS_CODE":0,"TOWNNAME":"安平區","LI":"億載里","LIN":"2鄰","STREET":"光州七街","SECT":" ","MAREA":" ","LANE":" ","ALLEY":" ","HOUSE_NO":"１３６號","E_COORD97":163921.191681,"N_COORD97":2543728.7808500002,"ADDRESS":"光州七街１３６號","OBJECTID":647127},"geometry":{"x":163921.19168100134,"y":2543728.7808540016}},{"attributes":{"ID":647155,"DIS_CODE":0,"TOWNNAME":"新營區","LI":"延平里","LIN":"1鄰","STREET":"延平路","SECT":" ","MAREA":" ","LANE":" ","ALLEY":" ","HOUSE_NO":"４６之６９號","E_COORD97":179746.296087,"N_COORD97":2577788.6303099999,"ADDRESS":"延平路４６之６９號","OBJECTID":647128},"geometry":{"x":179746.29608699959,"y":2577788.6303120032}},{"attributes":{"ID":647156,"DIS_CODE":0,"TOWNNAME":"新營區","LI":"延平里","LIN":"1鄰","STREET":"延平路","SECT":" ","MAREA":" ","LANE":" ","ALLEY":" ","HOUSE_NO":"４６之７０號","E_COORD97":179741.845696,"N_COORD97":2577788.6303099999,"ADDRESS":"延平路４６之７０號","OBJECTID":647129},"geometry":{"x":179741.84569600038,"y":2577788.6303120032}},{"attributes":{"ID":647157,"DIS_CODE":0,"TOWNNAME":"安南區","LI":"安東里","LIN":"22鄰","STREET":"安和路","SECT":"二段","MAREA":" ","LANE":" ","ALLEY":" ","HOUSE_NO":"１３０之７號","E_COORD97":169569.30674999999,"N_COORD97":2548877.3854700001,"ADDRESS":"安和路二段１３０之７號","OBJECTID":647130},"geometry":{"x":169569.30675000045,"y":2548877.3854730017}},{"attributes":{"ID":647158,"DIS_CODE":0,"TOWNNAME":"七股區","LI":"大埕里","LIN":"18鄰","STREET":" ","SECT":" ","MAREA":"大埕","LANE":" ","ALLEY":" ","HOUSE_NO":"４７６號之１","E_COORD97":162397.77586200001,"N_COORD97":2559528.9434099998,"ADDRESS":"大埕４７６號之１","OBJECTID":647131},"geometry":{"x":162397.77586199995,"y":2559528.9434090015}},{"attributes":{"ID":647159,"DIS_CODE":0,"TOWNNAME":"仁德區","LI":"仁義里","LIN":"22鄰","STREET":"正義路","SECT":" ","MAREA":" ","LANE":" ","ALLEY":" ","HOUSE_NO":"１２８號","E_COORD97":173736.739107,"N_COORD97":2541410.42221,"ADDRESS":"正義路１２８號","OBJECTID":647132},"geometry":{"x":173736.73910699971,"y":2541410.422208}},{"attributes":{"ID":647160,"DIS_CODE":0,"TOWNNAME":"安平區","LI":"億載里","LIN":"15鄰","STREET":"光州四街","SECT":" ","MAREA":" ","LANE":" ","ALLEY":" ","HOUSE_NO":"８０號","E_COORD97":164123.987181,"N_COORD97":2543186.4911500001,"ADDRESS":"光州四街８０號","OBJECTID":647133},"geometry":{"x":164123.98718100041,"y":2543186.4911470003}},{"attributes":{"ID":647161,"DIS_CODE":0,"TOWNNAME":"安平區","LI":"億載里","LIN":"15鄰","STREET":"光州四街","SECT":" ","MAREA":" ","LANE":" ","ALLEY":" ","HOUSE_NO":"８２號","E_COORD97":164127.80151700001,"N_COORD97":2543187.1261499999,"ADDRESS":"光州四街８２號","OBJECTID":647134},"geometry":{"x":164127.80151700135,"y":2543187.1261459999}},{"attributes":{"ID":647162,"DIS_CODE":0,"TOWNNAME":"東山區","LI":"東山里","LIN":"15鄰","STREET":" ","SECT":" ","MAREA":"東山","LANE":" ","ALLEY":" ","HOUSE_NO":"２４３號","E_COORD97":189190.266046,"N_COORD97":2580622.7317599999,"ADDRESS":"東山２４３號","OBJECTID":647135},"geometry":{"x":189190.26604600064,"y":2580622.7317629997}},{"attributes":{"ID":647163,"DIS_CODE":0,"TOWNNAME":"安平區","LI":"億載里","LIN":"16鄰","STREET":"府平路","SECT":" ","MAREA":" ","LANE":" ","ALLEY":" ","HOUSE_NO":"５５１號","E_COORD97":164107.246487,"N_COORD97":2543079.1762000001,"ADDRESS":"府平路５５１號","OBJECTID":647136},"geometry":{"x":164107.24648700096,"y":2543079.1762049999}},{"attributes":{"ID":647164,"DIS_CODE":0,"TOWNNAME":"仁德區","LI":"新田里","LIN":"6鄰","STREET":"勝利路","SECT":" ","MAREA":" ","LANE":" ","ALLEY":" ","HOUSE_NO":"３７８號","E_COORD97":175001.82177400001,"N_COORD97":2539355.96257,"ADDRESS":"勝利路３７８號","OBJECTID":647137},"geometry":{"x":175001.82177400123,"y":2539355.9625659995}},{"attributes":{"ID":647165,"DIS_CODE":0,"TOWNNAME":"安平區","LI":"億載里","LIN":"16鄰","STREET":"府平路","SECT":" ","MAREA":" ","LANE":" ","ALLEY":" ","HOUSE_NO":"５５５號","E_COORD97":164098.34637099999,"N_COORD97":2543077.9062000001,"ADDRESS":"府平路５５５號","OBJECTID":647138},"geometry":{"x":164098.3463709997,"y":2543077.9062050004}},{"attributes":{"ID":647166,"DIS_CODE":0,"TOWNNAME":"楠西區","LI":"灣丘里","LIN":"12鄰","STREET":" ","SECT":" ","MAREA":"香蕉山","LANE":" ","ALLEY":" ","HOUSE_NO":"５０號之３","E_COORD97":203119.90327899999,"N_COORD97":2563662.85782,"ADDRESS":"香蕉山５０號之３","OBJECTID":647139},"geometry":{"x":203119.90327899996,"y":2563662.857819004}},{"attributes":{"ID":647167,"DIS_CODE":0,"TOWNNAME":"安平區","LI":"億載里","LIN":"2鄰","STREET":"安億路","SECT":" ","MAREA":" ","LANE":" ","ALLEY":" ","HOUSE_NO":"３３６號","E_COORD97":164007.86185799999,"N_COORD97":2543889.8591,"ADDRESS":"安億路３３６號","OBJECTID":647140},"geometry":{"x":164007.86185800191,"y":2543889.8591000009}},{"attributes":{"ID":647168,"DIS_CODE":0,"TOWNNAME":"安南區","LI":"四草里","LIN":"7鄰","STREET":"四草大道","SECT":" ","MAREA":" ","LANE":" ","ALLEY":" ","HOUSE_NO":"１３８號","E_COORD97":161466.917055,"N_COORD97":2545186.8930199998,"ADDRESS":"四草大道１３８號","OBJECTID":647141},"geometry":{"x":161466.91705499962,"y":2545186.8930160012}},{"attributes":{"ID":647169,"DIS_CODE":0,"TOWNNAME":"安平區","LI":"億載里","LIN":"1鄰","STREET":"安億路","SECT":" ","MAREA":" ","LANE":" ","ALLEY":" ","HOUSE_NO":"４０２號","E_COORD97":164089.65816200001,"N_COORD97":2543910.6024199999,"ADDRESS":"安億路４０２號","OBJECTID":647142},"geometry":{"x":164089.65816200059,"y":2543910.602421999}},{"attributes":{"ID":647170,"DIS_CODE":0,"TOWNNAME":"安南區","LI":"四草里","LIN":"7鄰","STREET":"四草大道","SECT":" ","MAREA":" ","LANE":" ","ALLEY":" ","HOUSE_NO":"１３８之８號","E_COORD97":161440.65489599999,"N_COORD97":2545269.0196400001,"ADDRESS":"四草大道１３８之８號","OBJECTID":647143},"geometry":{"x":161440.65489600226,"y":2545269.0196380019}},{"attributes":{"ID":647171,"DIS_CODE":0,"TOWNNAME":"安南區","LI":"四草里","LIN":"7鄰","STREET":"四草大道","SECT":" ","MAREA":" ","LANE":" ","ALLEY":" ","HOUSE_NO":"１３８之８號","E_COORD97":161440.65489599999,"N_COORD97":2545269.0196400001,"ADDRESS":"四草大道１３８之８號","OBJECTID":647144},"geometry":{"x":161440.65489600226,"y":2545269.0196380019}},{"attributes":{"ID":647172,"DIS_CODE":0,"TOWNNAME":"安平區","LI":"億載里","LIN":"1鄰","STREET":"安億路","SECT":" ","MAREA":" ","LANE":" ","ALLEY":" ","HOUSE_NO":"４６０號","E_COORD97":164241.17204199999,"N_COORD97":2543947.0090700001,"ADDRESS":"安億路４６０號","OBJECTID":647145},"geometry":{"x":164241.17204200011,"y":2543947.0090689994}},{"attributes":{"ID":647173,"DIS_CODE":0,"TOWNNAME":"佳里區","LI":"龍安里","LIN":"16鄰","STREET":" ","SECT":" ","MAREA":"外渡頭","LANE":" ","ALLEY":" ","HOUSE_NO":"１２號之１８","E_COORD97":164684.02663000001,"N_COORD97":2559133.2224699999,"ADDRESS":"外渡頭１２號之１８","OBJECTID":647146},"geometry":{"x":164684.02663000021,"y":2559133.2224700041}},{"attributes":{"ID":647174,"DIS_CODE":0,"TOWNNAME":"仁德區","LI":"新田里","LIN":"6鄰","STREET":"勝利路","SECT":" ","MAREA":" ","LANE":" ","ALLEY":" ","HOUSE_NO":"２３７號","E_COORD97":174817.77069500001,"N_COORD97":2539572.07412,"ADDRESS":"勝利路２３７號","OBJECTID":647147},"geometry":{"x":174817.77069500089,"y":2539572.0741160009}},{"attributes":{"ID":647175,"DIS_CODE":0,"TOWNNAME":"仁德區","LI":"中洲里","LIN":"1鄰","STREET":" ","SECT":" ","MAREA":"中洲","LANE":" ","ALLEY":" ","HOUSE_NO":"３３１號","E_COORD97":173271.91156400001,"N_COORD97":2534154.4829799999,"ADDRESS":"中洲３３１號","OBJECTID":647148},"geometry":{"x":173271.91156400181,"y":2534154.4829800017}},{"attributes":{"ID":647176,"DIS_CODE":0,"TOWNNAME":"仁德區","LI":"新田里","LIN":"6鄰","STREET":"勝利路","SECT":" ","MAREA":" ","LANE":" ","ALLEY":" ","HOUSE_NO":"２３９號","E_COORD97":174817.135305,"N_COORD97":2539452.27085,"ADDRESS":"勝利路２３９號","OBJECTID":647149},"geometry":{"x":174817.1353050014,"y":2539452.2708480041}},{"attributes":{"ID":647177,"DIS_CODE":0,"TOWNNAME":"仁德區","LI":"中洲里","LIN":"1鄰","STREET":" ","SECT":" ","MAREA":"中洲","LANE":" ","ALLEY":" ","HOUSE_NO":"３３２號","E_COORD97":173285.47085099999,"N_COORD97":2534184.53963,"ADDRESS":"中洲３３２號","OBJECTID":647150},"geometry":{"x":173285.4708510004,"y":2534184.5396310035}},{"attributes":{"ID":647178,"DIS_CODE":0,"TOWNNAME":"仁德區","LI":"新田里","LIN":"6鄰","STREET":"勝利路","SECT":" ","MAREA":" ","LANE":" ","ALLEY":" ","HOUSE_NO":"２４１號","E_COORD97":174830.26668299999,"N_COORD97":2539445.9208499999,"ADDRESS":"勝利路２４１號","OBJECTID":647151},"geometry":{"x":174830.26668300107,"y":2539445.9208509997}},{"attributes":{"ID":647179,"DIS_CODE":0,"TOWNNAME":"仁德區","LI":"中洲里","LIN":"1鄰","STREET":" ","SECT":" ","MAREA":"中洲","LANE":" ","ALLEY":" ","HOUSE_NO":"３３６之１６號","E_COORD97":173244.36926400001,"N_COORD97":2534282.9645799999,"ADDRESS":"中洲３３６之１６號","OBJECTID":647152},"geometry":{"x":173244.3692640001,"y":2534282.964577999}},{"attributes":{"ID":647180,"DIS_CODE":0,"TOWNNAME":"仁德區","LI":"新田里","LIN":"6鄰","STREET":"勝利路","SECT":" ","MAREA":" ","LANE":" ","ALLEY":" ","HOUSE_NO":"２６１號","E_COORD97":174911.172911,"N_COORD97":2539453.3291799999,"ADDRESS":"勝利路２６１號","OBJECTID":647153},"geometry":{"x":174911.17291100044,"y":2539453.3291800022}},{"attributes":{"ID":647181,"DIS_CODE":0,"TOWNNAME":"仁德區","LI":"中洲里","LIN":"1鄰","STREET":" ","SECT":" ","MAREA":"中洲","LANE":" ","ALLEY":" ","HOUSE_NO":"３３６號之１","E_COORD97":173254.750593,"N_COORD97":2534227.9312700001,"ADDRESS":"中洲３３６號之１","OBJECTID":647154},"geometry":{"x":173254.75059300102,"y":2534227.9312740024}},{"attributes":{"ID":647182,"DIS_CODE":0,"TOWNNAME":"善化區","LI":"小新里","LIN":"20鄰","STREET":" ","SECT":" ","MAREA":"小新營","LANE":" ","ALLEY":" ","HOUSE_NO":"３９９之３６號","E_COORD97":180163.37971000001,"N_COORD97":2557943.4446200002,"ADDRESS":"小新營３９９之３６號","OBJECTID":647155},"geometry":{"x":180163.37971000187,"y":2557943.4446200002}},{"attributes":{"ID":647183,"DIS_CODE":0,"TOWNNAME":"善化區","LI":"小新里","LIN":"20鄰","STREET":" ","SECT":" ","MAREA":"小新營","LANE":" ","ALLEY":" ","HOUSE_NO":"３９９之３７號","E_COORD97":180154.27176,"N_COORD97":2557941.1162899998,"ADDRESS":"小新營３９９之３７號","OBJECTID":647156},"geometry":{"x":180154.27175999992,"y":2557941.1162900012}},{"attributes":{"ID":647184,"DIS_CODE":0,"TOWNNAME":"善化區","LI":"小新里","LIN":"20鄰","STREET":" ","SECT":" ","MAREA":"小新營","LANE":" ","ALLEY":" ","HOUSE_NO":"３９９之３８號","E_COORD97":180162.10883000001,"N_COORD97":2557848.4063400002,"ADDRESS":"小新營３９９之３８號","OBJECTID":647157},"geometry":{"x":180162.10883000027,"y":2557848.406340003}},{"attributes":{"ID":647185,"DIS_CODE":0,"TOWNNAME":"善化區","LI":"小新里","LIN":"20鄰","STREET":" ","SECT":" ","MAREA":"小新營","LANE":" ","ALLEY":" ","HOUSE_NO":"３９９之３９號","E_COORD97":180155.96625999999,"N_COORD97":2557849.04134,"ADDRESS":"小新營３９９之３９號","OBJECTID":647158},"geometry":{"x":180155.96626000106,"y":2557849.0413400028}},{"attributes":{"ID":647186,"DIS_CODE":0,"TOWNNAME":"善化區","LI":"東關里","LIN":"16鄰","STREET":"中和街","SECT":" ","MAREA":" ","LANE":" ","ALLEY":" ","HOUSE_NO":"１１號三樓","E_COORD97":177483.88871699999,"N_COORD97":2558958.5171400001,"ADDRESS":"中和街１１號三樓","OBJECTID":647159},"geometry":{"x":177483.88871700037,"y":2558958.5171429999}},{"attributes":{"ID":647187,"DIS_CODE":0,"TOWNNAME":"善化區","LI":"東關里","LIN":"16鄰","STREET":"中和街","SECT":" ","MAREA":" ","LANE":" ","ALLEY":" ","HOUSE_NO":"１１號五樓","E_COORD97":177483.88871699999,"N_COORD97":2558958.5171400001,"ADDRESS":"中和街１１號五樓","OBJECTID":647160},"geometry":{"x":177483.88871700037,"y":2558958.5171429999}},{"attributes":{"ID":647188,"DIS_CODE":0,"TOWNNAME":"善化區","LI":"東關里","LIN":"16鄰","STREET":"中和街","SECT":" ","MAREA":" ","LANE":" ","ALLEY":" ","HOUSE_NO":"１１號一樓","E_COORD97":177483.88871699999,"N_COORD97":2558958.5171400001,"ADDRESS":"中和街１１號一樓","OBJECTID":647161},"geometry":{"x":177483.88871700037,"y":2558958.5171429999}},{"attributes":{"ID":647189,"DIS_CODE":0,"TOWNNAME":"善化區","LI":"東關里","LIN":"16鄰","STREET":"中和街","SECT":" ","MAREA":" ","LANE":" ","ALLEY":" ","HOUSE_NO":"１１號二樓","E_COORD97":177483.88871699999,"N_COORD97":2558958.5171400001,"ADDRESS":"中和街１１號二樓","OBJECTID":647162},"geometry":{"x":177483.88871700037,"y":2558958.5171429999}},{"attributes":{"ID":647190,"DIS_CODE":0,"TOWNNAME":"善化區","LI":"東關里","LIN":"16鄰","STREET":"中和街","SECT":" ","MAREA":" ","LANE":" ","ALLEY":" ","HOUSE_NO":"１１號四樓","E_COORD97":177483.88871699999,"N_COORD97":2558958.5171400001,"ADDRESS":"中和街１１號四樓","OBJECTID":647163},"geometry":{"x":177483.88871700037,"y":2558958.5171429999}},{"attributes":{"ID":647191,"DIS_CODE":0,"TOWNNAME":"東區","LI":"成大里","LIN":"24鄰","STREET":"育樂街","SECT":" ","MAREA":" ","LANE":"１１７巷","ALLEY":" ","HOUSE_NO":"２之１號","E_COORD97":169516.09831500001,"N_COORD97":2543969.4931800002,"ADDRESS":"育樂街１１７巷２之１號","OBJECTID":647164},"geometry":{"x":169516.09831500147,"y":2543969.4931780025}},{"attributes":{"ID":647192,"DIS_CODE":0,"TOWNNAME":"安南區","LI":"溪心里","LIN":"17鄰","STREET":"海佃路","SECT":"三段","MAREA":" ","LANE":" ","ALLEY":" ","HOUSE_NO":"２８８號","E_COORD97":165933.56951,"N_COORD97":2550306.7940699998,"ADDRESS":"海佃路三段２８８號","OBJECTID":647165},"geometry":{"x":165933.5695099989,"y":2550306.7940689996}},{"attributes":{"ID":647193,"DIS_CODE":0,"TOWNNAME":"安南區","LI":"溪心里","LIN":"18鄰","STREET":"功安一街","SECT":" ","MAREA":" ","LANE":" ","ALLEY":" ","HOUSE_NO":"１２８號","E_COORD97":166043.359991,"N_COORD97":2549957.6654500002,"ADDRESS":"功安一街１２８號","OBJECTID":647166},"geometry":{"x":166043.35999100097,"y":2549957.6654510014}},{"attributes":{"ID":647194,"DIS_CODE":0,"TOWNNAME":"安南區","LI":"溪心里","LIN":"18鄰","STREET":"功安一街","SECT":" ","MAREA":" ","LANE":" ","ALLEY":" ","HOUSE_NO":"１３０號","E_COORD97":166039.177497,"N_COORD97":2549960.1044700001,"ADDRESS":"功安一街１３０號","OBJECTID":647167},"geometry":{"x":166039.17749700043,"y":2549960.1044740006}},{"attributes":{"ID":647195,"DIS_CODE":0,"TOWNNAME":"安南區","LI":"溪心里","LIN":"18鄰","STREET":"功安一街","SECT":" ","MAREA":" ","LANE":" ","ALLEY":" ","HOUSE_NO":"１３２號","E_COORD97":166037.43479100001,"N_COORD97":2549963.9372200002,"ADDRESS":"功安一街１３２號","OBJECTID":647168},"geometry":{"x":166037.43479099963,"y":2549963.9372230023}},{"attributes":{"ID":647196,"DIS_CODE":0,"TOWNNAME":"安南區","LI":"溪心里","LIN":"19鄰","STREET":"安中路","SECT":"三段","MAREA":" ","LANE":" ","ALLEY":" ","HOUSE_NO":"１３６號","E_COORD97":166009.15052900001,"N_COORD97":2549836.68805,"ADDRESS":"安中路三段１３６號","OBJECTID":647169},"geometry":{"x":166009.15052900091,"y":2549836.6880550031}},{"attributes":{"ID":647197,"DIS_CODE":0,"TOWNNAME":"安南區","LI":"溪心里","LIN":"19鄰","STREET":"安中路","SECT":"三段","MAREA":" ","LANE":" ","ALLEY":" ","HOUSE_NO":"１３６之１號","E_COORD97":166012.96172399999,"N_COORD97":2549835.8413900002,"ADDRESS":"安中路三段１３６之１號","OBJECTID":647170},"geometry":{"x":166012.96172400098,"y":2549835.8413890004}},{"attributes":{"ID":647198,"DIS_CODE":0,"TOWNNAME":"安南區","LI":"溪心里","LIN":"19鄰","STREET":"安中路","SECT":"三段","MAREA":" ","LANE":" ","ALLEY":" ","HOUSE_NO":"１３６之２號","E_COORD97":166016.13771899999,"N_COORD97":2549834.14806,"ADDRESS":"安中路三段１３６之２號","OBJECTID":647171},"geometry":{"x":166016.13771899976,"y":2549834.1480569988}},{"attributes":{"ID":647199,"DIS_CODE":0,"TOWNNAME":"安南區","LI":"溪心里","LIN":"19鄰","STREET":"安中路","SECT":"三段","MAREA":" ","LANE":" ","ALLEY":" ","HOUSE_NO":"１３６之３號","E_COORD97":166018.46678300001,"N_COORD97":2549833.7247199998,"ADDRESS":"安中路三段１３６之３號","OBJECTID":647172},"geometry":{"x":166018.46678300016,"y":2549833.7247230001}},{"attributes":{"ID":647200,"DIS_CODE":0,"TOWNNAME":"仁德區","LI":"中洲里","LIN":"12鄰","STREET":" ","SECT":" ","MAREA":"中洲","LANE":" ","ALLEY":" ","HOUSE_NO":"３４２號之２","E_COORD97":173307.87665300001,"N_COORD97":2534213.5250200001,"ADDRESS":"中洲３４２號之２","OBJECTID":647173},"geometry":{"x":173307.87665299978,"y":2534213.5250190012}},{"attributes":{"ID":647201,"DIS_CODE":0,"TOWNNAME":"仁德區","LI":"中洲里","LIN":"12鄰","STREET":" ","SECT":" ","MAREA":"中洲","LANE":" ","ALLEY":" ","HOUSE_NO":"３４２號之３","E_COORD97":173285.63094800001,"N_COORD97":2534213.5250200001,"ADDRESS":"中洲３４２號之３","OBJECTID":647174},"geometry":{"x":173285.63094800152,"y":2534213.5250190012}},{"attributes":{"ID":647202,"DIS_CODE":0,"TOWNNAME":"安南區","LI":"溪心里","LIN":"19鄰","STREET":"安中路","SECT":"三段","MAREA":" ","LANE":" ","ALLEY":" ","HOUSE_NO":"１３２之７號","E_COORD97":166032.86463,"N_COORD97":2549830.9730600002,"ADDRESS":"安中路三段１３２之７號","OBJECTID":647175},"geometry":{"x":166032.8646300016,"y":2549830.9730580039}},{"attributes":{"ID":647203,"DIS_CODE":0,"TOWNNAME":"安南區","LI":"溪心里","LIN":"19鄰","STREET":"安中路","SECT":"三段","MAREA":" ","LANE":" ","ALLEY":" ","HOUSE_NO":"１３２之８號","E_COORD97":166029.26516800001,"N_COORD97":2549831.3963899999,"ADDRESS":"安中路三段１３２之８號","OBJECTID":647176},"geometry":{"x":166029.26516800094,"y":2549831.3963910025}},{"attributes":{"ID":647204,"DIS_CODE":0,"TOWNNAME":"仁德區","LI":"中洲里","LIN":"12鄰","STREET":" ","SECT":" ","MAREA":"中洲","LANE":" ","ALLEY":" ","HOUSE_NO":"３４０號","E_COORD97":173299.19023499999,"N_COORD97":2534200.6133599998,"ADDRESS":"中洲３４０號","OBJECTID":647177},"geometry":{"x":173299.1902350001,"y":2534200.6133590005}},{"attributes":{"ID":647205,"DIS_CODE":0,"TOWNNAME":"北門區","LI":"錦湖里","LIN":"1鄰","STREET":" ","SECT":" ","MAREA":"渡子頭","LANE":" ","ALLEY":" ","HOUSE_NO":"５號之２","E_COORD97":164922.42916,"N_COORD97":2575755.1394000002,"ADDRESS":"渡子頭５號之２","OBJECTID":647178},"geometry":{"x":164922.42915999983,"y":2575755.1393999998}},{"attributes":{"ID":647206,"DIS_CODE":0,"TOWNNAME":"仁德區","LI":"中洲里","LIN":"12鄰","STREET":" ","SECT":" ","MAREA":"中洲","LANE":" ","ALLEY":" ","HOUSE_NO":"３４５號之１","E_COORD97":173313.17324900001,"N_COORD97":2534213.9483500002,"ADDRESS":"中洲３４５號之１","OBJECTID":647179},"geometry":{"x":173313.17324899975,"y":2534213.9483519997}},{"attributes":{"ID":647207,"DIS_CODE":0,"TOWNNAME":"仁德區","LI":"中洲里","LIN":"12鄰","STREET":" ","SECT":" ","MAREA":"中洲","LANE":" ","ALLEY":" ","HOUSE_NO":"３４３號之１","E_COORD97":173300.88514599999,"N_COORD97":2534136.2667299998,"ADDRESS":"中洲３４３號之１","OBJECTID":647180},"geometry":{"x":173300.88514600135,"y":2534136.2667270023}},{"attributes":{"ID":647208,"DIS_CODE":0,"TOWNNAME":"北門區","LI":"錦湖里","LIN":"1鄰","STREET":" ","SECT":" ","MAREA":"渡子頭","LANE":" ","ALLEY":" ","HOUSE_NO":"５號","E_COORD97":164894.14486599999,"N_COORD97":2575666.9273700002,"ADDRESS":"渡子頭５號","OBJECTID":647181},"geometry":{"x":164894.14486600086,"y":2575666.9273700044}},{"attributes":{"ID":647209,"DIS_CODE":0,"TOWNNAME":"中西區","LI":"普濟里","LIN":"13鄰","STREET":"普濟街","SECT":" ","MAREA":" ","LANE":"７７巷","ALLEY":" ","HOUSE_NO":"１號","E_COORD97":167885.51576400001,"N_COORD97":2544392.5636100001,"ADDRESS":"普濟街７７巷１號","OBJECTID":647182},"geometry":{"x":167885.51576400083,"y":2544392.5636140015}},{"attributes":{"ID":647210,"DIS_CODE":0,"TOWNNAME":"中西區","LI":"普濟里","LIN":"4鄰","STREET":"普濟街","SECT":" ","MAREA":" ","LANE":" ","ALLEY":" ","HOUSE_NO":"９４號","E_COORD97":167924.742837,"N_COORD97":2544372.8786200001,"ADDRESS":"普濟街９４號","OBJECTID":647183},"geometry":{"x":167924.74283700157,"y":2544372.8786240015}},{"attributes":{"ID":647211,"DIS_CODE":0,"TOWNNAME":"中西區","LI":"普濟里","LIN":"4鄰","STREET":"普濟街","SECT":" ","MAREA":" ","LANE":" ","ALLEY":" ","HOUSE_NO":"９６號","E_COORD97":167921.98634,"N_COORD97":2544370.4444599999,"ADDRESS":"普濟街９６號","OBJECTID":647184},"geometry":{"x":167921.98634000029,"y":2544370.4444590006}},{"attributes":{"ID":647212,"DIS_CODE":0,"TOWNNAME":"佳里區","LI":"六安里","LIN":"4鄰","STREET":" ","SECT":" ","MAREA":"六安","LANE":" ","ALLEY":" ","HOUSE_NO":"２２號之２６","E_COORD97":166723.46211399999,"N_COORD97":2563505.7248800001,"ADDRESS":"六安２２號之２６","OBJECTID":647185},"geometry":{"x":166723.46211400069,"y":2563505.7248830032}},{"attributes":{"ID":647213,"DIS_CODE":0,"TOWNNAME":"歸仁區","LI":"歸仁里","LIN":"24鄰","STREET":"忠孝北路","SECT":" ","MAREA":" ","LANE":" ","ALLEY":" ","HOUSE_NO":"２１２之１號","E_COORD97":178104.244542,"N_COORD97":2541238.7620100002,"ADDRESS":"忠孝北路２１２之１號","OBJECTID":647186},"geometry":{"x":178104.24454200082,"y":2541238.7620120011}},{"attributes":{"ID":647214,"DIS_CODE":0,"TOWNNAME":"北門區","LI":"錦湖里","LIN":"2鄰","STREET":" ","SECT":" ","MAREA":"渡子頭","LANE":" ","ALLEY":" ","HOUSE_NO":"１６號之８","E_COORD97":165339.91391599999,"N_COORD97":2576104.4421299999,"ADDRESS":"渡子頭１６號之８","OBJECTID":647187},"geometry":{"x":165339.9139160011,"y":2576104.442133002}},{"attributes":{"ID":647215,"DIS_CODE":0,"TOWNNAME":"新營區","LI":"舊部里","LIN":"1鄰","STREET":" ","SECT":" ","MAREA":"舊部","LANE":" ","ALLEY":" ","HOUSE_NO":"１２之１號","E_COORD97":177045.83439,"N_COORD97":2575377.74334,"ADDRESS":"舊部１２之１號","OBJECTID":647188},"geometry":{"x":177045.83439000044,"y":2575377.7433400005}},{"attributes":{"ID":647216,"DIS_CODE":0,"TOWNNAME":"仁德區","LI":"大甲里","LIN":"23鄰","STREET":"中正西路","SECT":" ","MAREA":" ","LANE":"１０１１巷","ALLEY":" ","HOUSE_NO":"３９８號","E_COORD97":168282.02486100001,"N_COORD97":2535546.2283000001,"ADDRESS":"中正西路１０１１巷３９８號","OBJECTID":647189},"geometry":{"x":168282.02486100141,"y":2535546.2283020038}},{"attributes":{"ID":647217,"DIS_CODE":0,"TOWNNAME":"仁德區","LI":"大甲里","LIN":"23鄰","STREET":"中正西路","SECT":" ","MAREA":" ","LANE":"１０１１巷","ALLEY":" ","HOUSE_NO":"３５８號","E_COORD97":168165.02402700001,"N_COORD97":2535644.86491,"ADDRESS":"中正西路１０１１巷３５８號","OBJECTID":647190},"geometry":{"x":168165.02402700111,"y":2535644.8649150021}},{"attributes":{"ID":647218,"DIS_CODE":0,"TOWNNAME":"仁德區","LI":"大甲里","LIN":"23鄰","STREET":"中正西路","SECT":" ","MAREA":" ","LANE":"１０１１巷","ALLEY":" ","HOUSE_NO":"３５６號","E_COORD97":168161.84465700001,"N_COORD97":2535659.46991,"ADDRESS":"中正西路１０１１巷３５６號","OBJECTID":647191},"geometry":{"x":168161.84465700015,"y":2535659.4699070025}},{"attributes":{"ID":647219,"DIS_CODE":0,"TOWNNAME":"仁德區","LI":"大甲里","LIN":"23鄰","STREET":"中正西路","SECT":" ","MAREA":" ","LANE":"１０１１巷","ALLEY":" ","HOUSE_NO":"１２２號","E_COORD97":168123.69221099999,"N_COORD97":2535725.5098700002,"ADDRESS":"中正西路１０１１巷１２２號","OBJECTID":647192},"geometry":{"x":168123.69221099932,"y":2535725.5098720007}},{"attributes":{"ID":647220,"DIS_CODE":0,"TOWNNAME":"仁德區","LI":"大甲里","LIN":"23鄰","STREET":"中正西路","SECT":" ","MAREA":" ","LANE":" ","ALLEY":" ","HOUSE_NO":"１０２７號","E_COORD97":168080.664731,"N_COORD97":2535787.9515,"ADDRESS":"中正西路１０２７號","OBJECTID":647193},"geometry":{"x":168080.66473099962,"y":2535787.9515049998}},{"attributes":{"ID":647221,"DIS_CODE":0,"TOWNNAME":"佳里區","LI":"六安里","LIN":"2鄰","STREET":"中山路","SECT":" ","MAREA":" ","LANE":" ","ALLEY":" ","HOUSE_NO":"４５２號","E_COORD97":165780.440229,"N_COORD97":2562738.85696,"ADDRESS":"中山路４５２號","OBJECTID":647194},"geometry":{"x":165780.44022900146,"y":2562738.8569630012}},{"attributes":{"ID":647222,"DIS_CODE":0,"TOWNNAME":"仁德區","LI":"中洲里","LIN":"12鄰","STREET":" ","SECT":" ","MAREA":"中洲","LANE":" ","ALLEY":" ","HOUSE_NO":"３５５號","E_COORD97":173341.13927700001,"N_COORD97":2534168.0167100001,"ADDRESS":"中洲３５５號","OBJECTID":647195},"geometry":{"x":173341.13927700091,"y":2534168.0167100001}},{"attributes":{"ID":647223,"DIS_CODE":0,"TOWNNAME":"佳里區","LI":"六安里","LIN":"2鄰","STREET":"中山路","SECT":" ","MAREA":" ","LANE":" ","ALLEY":" ","HOUSE_NO":"４５６號","E_COORD97":165782.87625199999,"N_COORD97":2562744.4656799999,"ADDRESS":"中山路４５６號","OBJECTID":647196},"geometry":{"x":165782.87625200022,"y":2562744.4656750001}},{"attributes":{"ID":647224,"DIS_CODE":0,"TOWNNAME":"新營區","LI":"舊部里","LIN":"1鄰","STREET":" ","SECT":" ","MAREA":"舊部","LANE":" ","ALLEY":" ","HOUSE_NO":"１２號","E_COORD97":177019.34911499999,"N_COORD97":2575395.6291700001,"ADDRESS":"舊部１２號","OBJECTID":647197},"geometry":{"x":177019.34911500011,"y":2575395.6291730013}},{"attributes":{"ID":647225,"DIS_CODE":0,"TOWNNAME":"仁德區","LI":"中洲里","LIN":"12鄰","STREET":" ","SECT":" ","MAREA":"中洲","LANE":" ","ALLEY":" ","HOUSE_NO":"３５９號","E_COORD97":173366.98666699999,"N_COORD97":2534193.8400300001,"ADDRESS":"中洲３５９號","OBJECTID":647198},"geometry":{"x":173366.98666700069,"y":2534193.8400299996}},{"attributes":{"ID":647226,"DIS_CODE":0,"TOWNNAME":"仁德區","LI":"仁和里","LIN":"10鄰","STREET":"仁愛街","SECT":" ","MAREA":" ","LANE":" ","ALLEY":" ","HOUSE_NO":"１０號七樓之１","E_COORD97":170390.81,"N_COORD97":2539995.3999999999,"ADDRESS":"仁愛街１０號七樓之１","OBJECTID":647199},"geometry":{"x":170390.81000000145,"y":2539995.4000000022}},{"attributes":{"ID":647227,"DIS_CODE":0,"TOWNNAME":"仁德區","LI":"中洲里","LIN":"12鄰","STREET":" ","SECT":" ","MAREA":"中洲","LANE":" ","ALLEY":" ","HOUSE_NO":"３６３號","E_COORD97":173372.70699100001,"N_COORD97":2534206.9633599999,"ADDRESS":"中洲３６３號","OBJECTID":647200},"geometry":{"x":173372.70699100103,"y":2534206.9633559994}}]}