{"displayFieldName":"TOWNNAME","fieldAliases":{"ID":"ID","DIS_CODE":"DIS_CODE","TOWNNAME":"TOWNNAME","LI":"LI","LIN":"LIN","STREET":"STREET","SECT":"SECT","MAREA":"MAREA","LANE":"LANE","ALLEY":"ALLEY","HOUSE_NO":"HOUSE_NO","E_COORD97":"E_COORD97","N_COORD97":"N_COORD97","ADDRESS":"ADDRESS","OBJECTID":"OBJECTID"},"geometryType":"esriGeometryPoint","spatialReference":{"wkid":102443,"latestWkid":3826},"fields":[{"name":"ID","type":"esriFieldTypeDouble","alias":"ID"},{"name":"DIS_CODE","type":"esriFieldTypeInteger","alias":"DIS_CODE"},{"name":"TOWNNAME","type":"esriFieldTypeString","alias":"TOWNNAME","length":8},{"name":"LI","type":"esriFieldTypeString","alias":"LI","length":8},{"name":"LIN","type":"esriFieldTypeString","alias":"LIN","length":12},{"name":"STREET","type":"esriFieldTypeString","alias":"STREET","length":20},{"name":"SECT","type":"esriFieldTypeString","alias":"SECT","length":8},{"name":"MAREA","type":"esriFieldTypeString","alias":"MAREA","length":12},{"name":"LANE","type":"esriFieldTypeString","alias":"LANE","length":10},{"name":"ALLEY","type":"esriFieldTypeString","alias":"ALLEY","length":10},{"name":"HOUSE_NO","type":"esriFieldTypeString","alias":"HOUSE_NO","length":20},{"name":"E_COORD97","type":"esriFieldTypeDouble","alias":"E_COORD97"},{"name":"N_COORD97","type":"esriFieldTypeDouble","alias":"N_COORD97"},{"name":"ADDRESS","type":"esriFieldTypeString","alias":"ADDRESS","length":50},{"name":"OBJECTID","type":"esriFieldTypeOID","alias":"OBJECTID"}],"features":[{"attributes":{"ID":603428,"DIS_CODE":0,"TOWNNAME":"安南區","LI":"長安里","LIN":"22鄰","STREET":"公學路","SECT":"二段","MAREA":" ","LANE":" ","ALLEY":" ","HOUSE_NO":"１３號","E_COORD97":167822,"N_COORD97":2552566.21,"ADDRESS":"公學路二段１３號","OBJECTID":603401},"geometry":{"x":167822.00000000093,"y":2552566.2100000009}},{"attributes":{"ID":603429,"DIS_CODE":0,"TOWNNAME":"安南區","LI":"長安里","LIN":"22鄰","STREET":"公學路","SECT":"二段","MAREA":" ","LANE":" ","ALLEY":" ","HOUSE_NO":"１５號","E_COORD97":167819.79000000001,"N_COORD97":2552562.2599999998,"ADDRESS":"公學路二段１５號","OBJECTID":603402},"geometry":{"x":167819.7900000019,"y":2552562.2599999998}},{"attributes":{"ID":603430,"DIS_CODE":0,"TOWNNAME":"安南區","LI":"長安里","LIN":"22鄰","STREET":"公學路","SECT":"二段","MAREA":" ","LANE":" ","ALLEY":" ","HOUSE_NO":"１７號","E_COORD97":167818.17000000001,"N_COORD97":2552557.5,"ADDRESS":"公學路二段１７號","OBJECTID":603403},"geometry":{"x":167818.16999999993,"y":2552557.5}},{"attributes":{"ID":603431,"DIS_CODE":0,"TOWNNAME":"安南區","LI":"長安里","LIN":"22鄰","STREET":"公學路","SECT":"二段","MAREA":" ","LANE":" ","ALLEY":" ","HOUSE_NO":"１９號","E_COORD97":167817.23999999999,"N_COORD97":2552553.0899999999,"ADDRESS":"公學路二段１９號","OBJECTID":603404},"geometry":{"x":167817.24000000115,"y":2552553.0899999999}},{"attributes":{"ID":603432,"DIS_CODE":0,"TOWNNAME":"安南區","LI":"長安里","LIN":"22鄰","STREET":"公學路","SECT":"二段","MAREA":" ","LANE":" ","ALLEY":" ","HOUSE_NO":"２１號","E_COORD97":167815.26000000001,"N_COORD97":2552548.6699999999,"ADDRESS":"公學路二段２１號","OBJECTID":603405},"geometry":{"x":167815.26000000071,"y":2552548.6699999999}},{"attributes":{"ID":603433,"DIS_CODE":0,"TOWNNAME":"安南區","LI":"長安里","LIN":"22鄰","STREET":"公學路","SECT":"二段","MAREA":" ","LANE":" ","ALLEY":" ","HOUSE_NO":"２３號","E_COORD97":167813.51999999999,"N_COORD97":2552544.1400000001,"ADDRESS":"公學路二段２３號","OBJECTID":603406},"geometry":{"x":167813.51999999955,"y":2552544.1400000043}},{"attributes":{"ID":603434,"DIS_CODE":0,"TOWNNAME":"安南區","LI":"長安里","LIN":"22鄰","STREET":"公學路","SECT":"二段","MAREA":" ","LANE":" ","ALLEY":" ","HOUSE_NO":"２５號","E_COORD97":167810.84,"N_COORD97":2552539.8500000001,"ADDRESS":"公學路二段２５號","OBJECTID":603407},"geometry":{"x":167810.84000000171,"y":2552539.8499999996}},{"attributes":{"ID":603435,"DIS_CODE":0,"TOWNNAME":"安南區","LI":"長安里","LIN":"22鄰","STREET":"公學路","SECT":"二段","MAREA":" ","LANE":" ","ALLEY":" ","HOUSE_NO":"２７號","E_COORD97":167809.10000000001,"N_COORD97":2552535.4399999999,"ADDRESS":"公學路二段２７號","OBJECTID":603408},"geometry":{"x":167809.10000000056,"y":2552535.4400000013}},{"attributes":{"ID":603436,"DIS_CODE":0,"TOWNNAME":"安南區","LI":"長安里","LIN":"22鄰","STREET":"公學路","SECT":"二段","MAREA":" ","LANE":" ","ALLEY":" ","HOUSE_NO":"２９號","E_COORD97":167807.57999999999,"N_COORD97":2552530.6299999999,"ADDRESS":"公學路二段２９號","OBJECTID":603409},"geometry":{"x":167807.57999999914,"y":2552530.629999999}},{"attributes":{"ID":603437,"DIS_CODE":0,"TOWNNAME":"安南區","LI":"長安里","LIN":"22鄰","STREET":"公學路","SECT":"二段","MAREA":" ","LANE":" ","ALLEY":" ","HOUSE_NO":"３１號","E_COORD97":167805.95000000001,"N_COORD97":2552526.6800000002,"ADDRESS":"公學路二段３１號","OBJECTID":603410},"geometry":{"x":167805.95000000112,"y":2552526.6800000016}},{"attributes":{"ID":603438,"DIS_CODE":0,"TOWNNAME":"安南區","LI":"長安里","LIN":"22鄰","STREET":"公學路","SECT":"二段","MAREA":" ","LANE":" ","ALLEY":" ","HOUSE_NO":"３３號","E_COORD97":167803.16,"N_COORD97":2552522.1499999999,"ADDRESS":"公學路二段３３號","OBJECTID":603411},"geometry":{"x":167803.16000000015,"y":2552522.1500000004}},{"attributes":{"ID":603439,"DIS_CODE":0,"TOWNNAME":"安南區","LI":"長安里","LIN":"22鄰","STREET":"公學路","SECT":"二段","MAREA":" ","LANE":" ","ALLEY":" ","HOUSE_NO":"３５號","E_COORD97":167801.42000000001,"N_COORD97":2552517.5099999998,"ADDRESS":"公學路二段３５號","OBJECTID":603412},"geometry":{"x":167801.41999999993,"y":2552517.5100000016}},{"attributes":{"ID":603440,"DIS_CODE":0,"TOWNNAME":"安南區","LI":"長安里","LIN":"22鄰","STREET":"公學路","SECT":"二段","MAREA":" ","LANE":" ","ALLEY":" ","HOUSE_NO":"３７號","E_COORD97":167799.67000000001,"N_COORD97":2552513.1800000002,"ADDRESS":"公學路二段３７號","OBJECTID":603413},"geometry":{"x":167799.66999999993,"y":2552513.1800000016}},{"attributes":{"ID":603441,"DIS_CODE":0,"TOWNNAME":"安南區","LI":"長安里","LIN":"22鄰","STREET":"公學路","SECT":"二段","MAREA":" ","LANE":" ","ALLEY":" ","HOUSE_NO":"３９號","E_COORD97":167798.62,"N_COORD97":2552507.96,"ADDRESS":"公學路二段３９號","OBJECTID":603414},"geometry":{"x":167798.62000000011,"y":2552507.959999999}},{"attributes":{"ID":603442,"DIS_CODE":0,"TOWNNAME":"安南區","LI":"長安里","LIN":"22鄰","STREET":"公學路","SECT":"二段","MAREA":" ","LANE":" ","ALLEY":" ","HOUSE_NO":"４１號","E_COORD97":167796.53,"N_COORD97":2552504.0099999998,"ADDRESS":"公學路二段４１號","OBJECTID":603415},"geometry":{"x":167796.53000000119,"y":2552504.0100000016}},{"attributes":{"ID":603443,"DIS_CODE":0,"TOWNNAME":"安南區","LI":"長安里","LIN":"22鄰","STREET":"公學路","SECT":"二段","MAREA":" ","LANE":" ","ALLEY":" ","HOUSE_NO":"４３號","E_COORD97":167795.01999999999,"N_COORD97":2552499.6000000001,"ADDRESS":"公學路二段４３號","OBJECTID":603416},"geometry":{"x":167795.01999999955,"y":2552499.6000000015}},{"attributes":{"ID":603444,"DIS_CODE":0,"TOWNNAME":"永康區","LI":"勝利里","LIN":"33鄰","STREET":"中華路","SECT":" ","MAREA":" ","LANE":" ","ALLEY":" ","HOUSE_NO":"１號之２４","E_COORD97":171501.88,"N_COORD97":2544353.0499999998,"ADDRESS":"中華路１號之２４","OBJECTID":603417},"geometry":{"x":171501.87999999989,"y":2544353.0500000007}},{"attributes":{"ID":603445,"DIS_CODE":0,"TOWNNAME":"永康區","LI":"勝利里","LIN":"21鄰","STREET":"勝利街","SECT":" ","MAREA":" ","LANE":" ","ALLEY":" ","HOUSE_NO":"１５５號","E_COORD97":171360.51999999999,"N_COORD97":2545020.5,"ADDRESS":"勝利街１５５號","OBJECTID":603418},"geometry":{"x":171360.51999999955,"y":2545020.5}},{"attributes":{"ID":603446,"DIS_CODE":0,"TOWNNAME":"安南區","LI":"長安里","LIN":"22鄰","STREET":"公學路","SECT":"二段","MAREA":" ","LANE":" ","ALLEY":" ","HOUSE_NO":"５３號","E_COORD97":167786.28,"N_COORD97":2552476.77,"ADDRESS":"公學路二段５３號","OBJECTID":603419},"geometry":{"x":167786.28000000212,"y":2552476.7699999996}},{"attributes":{"ID":603447,"DIS_CODE":0,"TOWNNAME":"安南區","LI":"長安里","LIN":"22鄰","STREET":"公學路","SECT":"二段","MAREA":" ","LANE":" ","ALLEY":" ","HOUSE_NO":"５５號","E_COORD97":167784.12,"N_COORD97":2552472.3799999999,"ADDRESS":"公學路二段５５號","OBJECTID":603420},"geometry":{"x":167784.12000000104,"y":2552472.379999999}},{"attributes":{"ID":603448,"DIS_CODE":0,"TOWNNAME":"安南區","LI":"長安里","LIN":"22鄰","STREET":"公學路","SECT":"二段","MAREA":" ","LANE":" ","ALLEY":" ","HOUSE_NO":"５７號","E_COORD97":167782.12,"N_COORD97":2552467.9900000002,"ADDRESS":"公學路二段５７號","OBJECTID":603421},"geometry":{"x":167782.12000000197,"y":2552467.9900000021}},{"attributes":{"ID":603449,"DIS_CODE":0,"TOWNNAME":"安南區","LI":"長安里","LIN":"22鄰","STREET":"公學路","SECT":"二段","MAREA":" ","LANE":" ","ALLEY":" ","HOUSE_NO":"５９號","E_COORD97":167780.26999999999,"N_COORD97":2552463.3599999999,"ADDRESS":"公學路二段５９號","OBJECTID":603422},"geometry":{"x":167780.26999999955,"y":2552463.3600000031}},{"attributes":{"ID":603450,"DIS_CODE":0,"TOWNNAME":"安南區","LI":"長安里","LIN":"22鄰","STREET":"公學路","SECT":"二段","MAREA":" ","LANE":" ","ALLEY":" ","HOUSE_NO":"６１號","E_COORD97":167777.79999999999,"N_COORD97":2552458.29,"ADDRESS":"公學路二段６１號","OBJECTID":603423},"geometry":{"x":167777.80000000075,"y":2552458.290000001}},{"attributes":{"ID":603451,"DIS_CODE":0,"TOWNNAME":"安南區","LI":"長安里","LIN":"22鄰","STREET":"公學路","SECT":"二段","MAREA":" ","LANE":" ","ALLEY":" ","HOUSE_NO":"６５號","E_COORD97":167770.76000000001,"N_COORD97":2552443.04,"ADDRESS":"公學路二段６５號","OBJECTID":603424},"geometry":{"x":167770.76000000071,"y":2552443.0399999991}},{"attributes":{"ID":603452,"DIS_CODE":0,"TOWNNAME":"安南區","LI":"長安里","LIN":"22鄰","STREET":"公學路","SECT":"二段","MAREA":" ","LANE":" ","ALLEY":" ","HOUSE_NO":"６７號","E_COORD97":167768.20000000001,"N_COORD97":2552437.9100000001,"ADDRESS":"公學路二段６７號","OBJECTID":603425},"geometry":{"x":167768.20000000112,"y":2552437.910000002}},{"attributes":{"ID":603453,"DIS_CODE":0,"TOWNNAME":"安南區","LI":"長安里","LIN":"22鄰","STREET":"公學路","SECT":"二段","MAREA":" ","LANE":" ","ALLEY":" ","HOUSE_NO":"６９號","E_COORD97":167767.17000000001,"N_COORD97":2552433.75,"ADDRESS":"公學路二段６９號","OBJECTID":603426},"geometry":{"x":167767.16999999993,"y":2552433.75}},{"attributes":{"ID":603454,"DIS_CODE":0,"TOWNNAME":"安南區","LI":"長安里","LIN":"22鄰","STREET":"公學路","SECT":"二段","MAREA":" ","LANE":" ","ALLEY":" ","HOUSE_NO":"７１號","E_COORD97":167765.64000000001,"N_COORD97":2552428.9100000001,"ADDRESS":"公學路二段７１號","OBJECTID":603427},"geometry":{"x":167765.63999999966,"y":2552428.9100000001}},{"attributes":{"ID":603455,"DIS_CODE":0,"TOWNNAME":"安南區","LI":"長安里","LIN":"22鄰","STREET":"公學路","SECT":"二段","MAREA":" ","LANE":" ","ALLEY":" ","HOUSE_NO":"７３號","E_COORD97":167764.53,"N_COORD97":2552424.0099999998,"ADDRESS":"公學路二段７３號","OBJECTID":603428},"geometry":{"x":167764.53000000119,"y":2552424.0099999998}},{"attributes":{"ID":603456,"DIS_CODE":0,"TOWNNAME":"安南區","LI":"長安里","LIN":"22鄰","STREET":"公學路","SECT":"二段","MAREA":" ","LANE":" ","ALLEY":" ","HOUSE_NO":"７５號","E_COORD97":167761.51999999999,"N_COORD97":2552420.0299999998,"ADDRESS":"公學路二段７５號","OBJECTID":603429},"geometry":{"x":167761.51999999955,"y":2552420.0299999993}},{"attributes":{"ID":603457,"DIS_CODE":0,"TOWNNAME":"安南區","LI":"長安里","LIN":"22鄰","STREET":"公學路","SECT":"二段","MAREA":" ","LANE":" ","ALLEY":" ","HOUSE_NO":"７９號","E_COORD97":167750.88,"N_COORD97":2552391.5099999998,"ADDRESS":"公學路二段７９號","OBJECTID":603430},"geometry":{"x":167750.87999999989,"y":2552391.5100000035}},{"attributes":{"ID":603458,"DIS_CODE":0,"TOWNNAME":"安南區","LI":"長安里","LIN":"22鄰","STREET":"公學路","SECT":"二段","MAREA":" ","LANE":" ","ALLEY":" ","HOUSE_NO":"８１號","E_COORD97":167749.41,"N_COORD97":2552387.5,"ADDRESS":"公學路二段８１號","OBJECTID":603431},"geometry":{"x":167749.41000000015,"y":2552387.5}},{"attributes":{"ID":603459,"DIS_CODE":0,"TOWNNAME":"安南區","LI":"長安里","LIN":"22鄰","STREET":"公學路","SECT":"二段","MAREA":" ","LANE":" ","ALLEY":" ","HOUSE_NO":"８３號","E_COORD97":167747.67999999999,"N_COORD97":2552383.1099999999,"ADDRESS":"公學路二段８３號","OBJECTID":603432},"geometry":{"x":167747.68000000063,"y":2552383.1099999994}},{"attributes":{"ID":603460,"DIS_CODE":0,"TOWNNAME":"安南區","LI":"長安里","LIN":"22鄰","STREET":"公學路","SECT":"二段","MAREA":" ","LANE":" ","ALLEY":" ","HOUSE_NO":"９７號","E_COORD97":167735.92999999999,"N_COORD97":2552358.5499999998,"ADDRESS":"公學路二段９７號","OBJECTID":603433},"geometry":{"x":167735.93000000063,"y":2552358.5500000026}},{"attributes":{"ID":603461,"DIS_CODE":0,"TOWNNAME":"安南區","LI":"長安里","LIN":"22鄰","STREET":"公學路","SECT":"二段","MAREA":" ","LANE":" ","ALLEY":" ","HOUSE_NO":"９９號","E_COORD97":167734.22,"N_COORD97":2552353.4100000001,"ADDRESS":"公學路二段９９號","OBJECTID":603434},"geometry":{"x":167734.22000000067,"y":2552353.410000002}},{"attributes":{"ID":603462,"DIS_CODE":0,"TOWNNAME":"善化區","LI":"光文里","LIN":"22鄰","STREET":"光華路","SECT":" ","MAREA":" ","LANE":" ","ALLEY":" ","HOUSE_NO":"６０號","E_COORD97":178644.07999999999,"N_COORD97":2559346.5,"ADDRESS":"光華路６０號","OBJECTID":603435},"geometry":{"x":178644.08000000101,"y":2559346.5000000019}},{"attributes":{"ID":603463,"DIS_CODE":0,"TOWNNAME":"永康區","LI":"崑山里","LIN":"39鄰","STREET":"永大路","SECT":"二段","MAREA":" ","LANE":" ","ALLEY":" ","HOUSE_NO":"６７號","E_COORD97":174176.70000000001,"N_COORD97":2544862.25,"ADDRESS":"永大路二段６７號","OBJECTID":603436},"geometry":{"x":174176.70000000019,"y":2544862.25}},{"attributes":{"ID":603464,"DIS_CODE":0,"TOWNNAME":"永康區","LI":"勝利里","LIN":"7鄰","STREET":"勝利街","SECT":" ","MAREA":" ","LANE":" ","ALLEY":" ","HOUSE_NO":"２０號之２","E_COORD97":171235.06,"N_COORD97":2544578.2999999998,"ADDRESS":"勝利街２０號之２","OBJECTID":603437},"geometry":{"x":171235.06000000145,"y":2544578.3000000007}},{"attributes":{"ID":603465,"DIS_CODE":0,"TOWNNAME":"永康區","LI":"崑山里","LIN":"6鄰","STREET":"永大路","SECT":"一段","MAREA":" ","LANE":" ","ALLEY":" ","HOUSE_NO":"３號","E_COORD97":173756.42000000001,"N_COORD97":2543761.29,"ADDRESS":"永大路一段３號","OBJECTID":603438},"geometry":{"x":173756.41999999993,"y":2543761.290000001}},{"attributes":{"ID":603466,"DIS_CODE":0,"TOWNNAME":"永康區","LI":"崑山里","LIN":"11鄰","STREET":"大灣路","SECT":" ","MAREA":" ","LANE":" ","ALLEY":" ","HOUSE_NO":"１０４８號","E_COORD97":173364.64000000001,"N_COORD97":2544371.6899999999,"ADDRESS":"大灣路１０４８號","OBJECTID":603439},"geometry":{"x":173364.63999999966,"y":2544371.6900000032}},{"attributes":{"ID":603467,"DIS_CODE":0,"TOWNNAME":"善化區","LI":"光文里","LIN":"22鄰","STREET":"中山路","SECT":" ","MAREA":" ","LANE":" ","ALLEY":" ","HOUSE_NO":"１２０號","E_COORD97":178552.45999999999,"N_COORD97":2559187.5,"ADDRESS":"中山路１２０號","OBJECTID":603440},"geometry":{"x":178552.46000000183,"y":2559187.5000000019}},{"attributes":{"ID":603468,"DIS_CODE":0,"TOWNNAME":"善化區","LI":"光文里","LIN":"22鄰","STREET":"光華路","SECT":" ","MAREA":" ","LANE":" ","ALLEY":" ","HOUSE_NO":"１０２號","E_COORD97":178632.67000000001,"N_COORD97":2559434.75,"ADDRESS":"光華路１０２號","OBJECTID":603441},"geometry":{"x":178632.67000000086,"y":2559434.75}},{"attributes":{"ID":603469,"DIS_CODE":0,"TOWNNAME":"善化區","LI":"光文里","LIN":"22鄰","STREET":"光華路","SECT":" ","MAREA":" ","LANE":" ","ALLEY":" ","HOUSE_NO":"４６號","E_COORD97":178653.81,"N_COORD97":2559321.5,"ADDRESS":"光華路４６號","OBJECTID":603442},"geometry":{"x":178653.81000000052,"y":2559321.5000000037}},{"attributes":{"ID":603470,"DIS_CODE":0,"TOWNNAME":"善化區","LI":"光文里","LIN":"22鄰","STREET":"中山路","SECT":" ","MAREA":" ","LANE":" ","ALLEY":" ","HOUSE_NO":"４８號","E_COORD97":178828.35999999999,"N_COORD97":2559229.25,"ADDRESS":"中山路４８號","OBJECTID":603443},"geometry":{"x":178828.36000000127,"y":2559229.2500000019}},{"attributes":{"ID":603471,"DIS_CODE":0,"TOWNNAME":"永康區","LI":"勝利里","LIN":"33鄰","STREET":"中華路","SECT":" ","MAREA":" ","LANE":" ","ALLEY":" ","HOUSE_NO":"１號之７","E_COORD97":171500.69,"N_COORD97":2544353.0499999998,"ADDRESS":"中華路１號之７","OBJECTID":603444},"geometry":{"x":171500.69000000041,"y":2544353.0500000007}},{"attributes":{"ID":603472,"DIS_CODE":0,"TOWNNAME":"善化區","LI":"光文里","LIN":"22鄰","STREET":"中山路","SECT":" ","MAREA":" ","LANE":" ","ALLEY":" ","HOUSE_NO":"９０號之１","E_COORD97":178712.01999999999,"N_COORD97":2559216.02,"ADDRESS":"中山路９０號之１","OBJECTID":603445},"geometry":{"x":178712.01999999955,"y":2559216.0200000033}},{"attributes":{"ID":603473,"DIS_CODE":0,"TOWNNAME":"善化區","LI":"光文里","LIN":"22鄰","STREET":"光華路","SECT":" ","MAREA":" ","LANE":" ","ALLEY":" ","HOUSE_NO":"１２４號","E_COORD97":178625.70999999999,"N_COORD97":2559480.5,"ADDRESS":"光華路１２４號","OBJECTID":603446},"geometry":{"x":178625.71000000089,"y":2559480.5}},{"attributes":{"ID":603474,"DIS_CODE":0,"TOWNNAME":"永康區","LI":"崑山里","LIN":"44鄰","STREET":"國光六街","SECT":" ","MAREA":" ","LANE":" ","ALLEY":" ","HOUSE_NO":"９１號","E_COORD97":174029.63,"N_COORD97":2545337.3100000001,"ADDRESS":"國光六街９１號","OBJECTID":603447},"geometry":{"x":174029.62999999989,"y":2545337.3100000005}},{"attributes":{"ID":603475,"DIS_CODE":0,"TOWNNAME":"永康區","LI":"網寮里","LIN":"22鄰","STREET":"永勝街","SECT":" ","MAREA":" ","LANE":" ","ALLEY":" ","HOUSE_NO":"３６號","E_COORD97":173637.23000000001,"N_COORD97":2546228.1800000002,"ADDRESS":"永勝街３６號","OBJECTID":603448},"geometry":{"x":173637.23000000138,"y":2546228.1799999997}},{"attributes":{"ID":603476,"DIS_CODE":0,"TOWNNAME":"永康區","LI":"埔園里","LIN":"29鄰","STREET":"龍埔街","SECT":" ","MAREA":" ","LANE":" ","ALLEY":" ","HOUSE_NO":"２９９號","E_COORD97":173925.06,"N_COORD97":2548319.9900000002,"ADDRESS":"龍埔街２９９號","OBJECTID":603449},"geometry":{"x":173925.05999999959,"y":2548319.9899999984}},{"attributes":{"ID":603477,"DIS_CODE":0,"TOWNNAME":"永康區","LI":"勝利里","LIN":"23鄰","STREET":"中華路","SECT":" ","MAREA":" ","LANE":" ","ALLEY":" ","HOUSE_NO":"１８１號","E_COORD97":171585.25,"N_COORD97":2544937.7400000002,"ADDRESS":"中華路１８１號","OBJECTID":603450},"geometry":{"x":171585.25000000093,"y":2544937.7400000002}},{"attributes":{"ID":603478,"DIS_CODE":0,"TOWNNAME":"永康區","LI":"五王里","LIN":"22鄰","STREET":"成功路","SECT":" ","MAREA":" ","LANE":" ","ALLEY":" ","HOUSE_NO":"２２４號","E_COORD97":171358.73999999999,"N_COORD97":2545763.5099999998,"ADDRESS":"成功路２２４號","OBJECTID":603451},"geometry":{"x":171358.74000000115,"y":2545763.5100000016}},{"attributes":{"ID":603479,"DIS_CODE":0,"TOWNNAME":"永康區","LI":"龍潭里","LIN":"22鄰","STREET":"自強路","SECT":" ","MAREA":" ","LANE":" ","ALLEY":" ","HOUSE_NO":"８７０號","E_COORD97":174726.29999999999,"N_COORD97":2548720.23,"ADDRESS":"自強路８７０號","OBJECTID":603452},"geometry":{"x":174726.30000000075,"y":2548720.2300000023}},{"attributes":{"ID":603480,"DIS_CODE":0,"TOWNNAME":"永康區","LI":"中興里","LIN":"22鄰","STREET":"中華路","SECT":" ","MAREA":" ","LANE":" ","ALLEY":" ","HOUSE_NO":"１９８號之１９","E_COORD97":171636.38,"N_COORD97":2545003.2999999998,"ADDRESS":"中華路１９８號之１９","OBJECTID":603453},"geometry":{"x":171636.37999999989,"y":2545003.3000000026}},{"attributes":{"ID":603481,"DIS_CODE":0,"TOWNNAME":"永康區","LI":"大灣里","LIN":"22鄰","STREET":"民族路","SECT":" ","MAREA":" ","LANE":" ","ALLEY":" ","HOUSE_NO":"２７２號","E_COORD97":175009,"N_COORD97":2545208.5499999998,"ADDRESS":"民族路２７２號","OBJECTID":603454},"geometry":{"x":175009,"y":2545208.5500000026}},{"attributes":{"ID":603482,"DIS_CODE":0,"TOWNNAME":"永康區","LI":"二王里","LIN":"22鄰","STREET":"中山南路","SECT":" ","MAREA":" ","LANE":" ","ALLEY":" ","HOUSE_NO":"６０２號","E_COORD97":172293.70999999999,"N_COORD97":2546622.1200000001,"ADDRESS":"中山南路６０２號","OBJECTID":603455},"geometry":{"x":172293.70999999996,"y":2546622.1200000029}},{"attributes":{"ID":603483,"DIS_CODE":0,"TOWNNAME":"永康區","LI":"二王里","LIN":"22鄰","STREET":"中山南路","SECT":" ","MAREA":" ","LANE":" ","ALLEY":" ","HOUSE_NO":"６１４號之１","E_COORD97":172322.64999999999,"N_COORD97":2546638.4199999999,"ADDRESS":"中山南路６１４號之１","OBJECTID":603456},"geometry":{"x":172322.6500000013,"y":2546638.4199999981}},{"attributes":{"ID":603484,"DIS_CODE":0,"TOWNNAME":"永康區","LI":"二王里","LIN":"22鄰","STREET":"中山南路","SECT":" ","MAREA":" ","LANE":" ","ALLEY":" ","HOUSE_NO":"５７２號","E_COORD97":172242.60000000001,"N_COORD97":2546586.6099999999,"ADDRESS":"中山南路５７２號","OBJECTID":603457},"geometry":{"x":172242.59999999963,"y":2546586.6100000013}},{"attributes":{"ID":603485,"DIS_CODE":0,"TOWNNAME":"永康區","LI":"崑山里","LIN":"7鄰","STREET":"大灣路","SECT":" ","MAREA":" ","LANE":" ","ALLEY":" ","HOUSE_NO":"９３７號","E_COORD97":173487.17999999999,"N_COORD97":2544371.5600000001,"ADDRESS":"大灣路９３７號","OBJECTID":603458},"geometry":{"x":173487.18000000156,"y":2544371.5600000024}},{"attributes":{"ID":603486,"DIS_CODE":0,"TOWNNAME":"永康區","LI":"二王里","LIN":"22鄰","STREET":"中山南路","SECT":" ","MAREA":" ","LANE":" ","ALLEY":" ","HOUSE_NO":"５８８號","E_COORD97":172269.75,"N_COORD97":2546605.8599999999,"ADDRESS":"中山南路５８８號","OBJECTID":603459},"geometry":{"x":172269.75,"y":2546605.8600000013}},{"attributes":{"ID":603487,"DIS_CODE":0,"TOWNNAME":"永康區","LI":"二王里","LIN":"22鄰","STREET":"中山南路","SECT":" ","MAREA":" ","LANE":" ","ALLEY":" ","HOUSE_NO":"５９４號","E_COORD97":172280.10000000001,"N_COORD97":2546612.6200000001,"ADDRESS":"中山南路５９４號","OBJECTID":603460},"geometry":{"x":172280.09999999963,"y":2546612.6200000029}},{"attributes":{"ID":603488,"DIS_CODE":0,"TOWNNAME":"永康區","LI":"二王里","LIN":"22鄰","STREET":"中山南路","SECT":" ","MAREA":" ","LANE":" ","ALLEY":" ","HOUSE_NO":"６００號","E_COORD97":172290.19,"N_COORD97":2546619.8700000001,"ADDRESS":"中山南路６００號","OBJECTID":603461},"geometry":{"x":172290.19000000134,"y":2546619.8700000048}},{"attributes":{"ID":603489,"DIS_CODE":0,"TOWNNAME":"永康區","LI":"二王里","LIN":"22鄰","STREET":"中山南路","SECT":" ","MAREA":" ","LANE":" ","ALLEY":" ","HOUSE_NO":"６０６號","E_COORD97":172300.79999999999,"N_COORD97":2546627.1200000001,"ADDRESS":"中山南路６０６號","OBJECTID":603462},"geometry":{"x":172300.79999999981,"y":2546627.120000001}},{"attributes":{"ID":603490,"DIS_CODE":0,"TOWNNAME":"永康區","LI":"二王里","LIN":"22鄰","STREET":"中山南路","SECT":" ","MAREA":" ","LANE":" ","ALLEY":" ","HOUSE_NO":"６１０號","E_COORD97":172307.29999999999,"N_COORD97":2546631.8700000001,"ADDRESS":"中山南路６１０號","OBJECTID":603463},"geometry":{"x":172307.30000000075,"y":2546631.870000001}},{"attributes":{"ID":603491,"DIS_CODE":0,"TOWNNAME":"永康區","LI":"二王里","LIN":"22鄰","STREET":"中山南路","SECT":" ","MAREA":" ","LANE":" ","ALLEY":" ","HOUSE_NO":"６１２號","E_COORD97":172310.60000000001,"N_COORD97":2546634.1200000001,"ADDRESS":"中山南路６１２號","OBJECTID":603464},"geometry":{"x":172310.59999999963,"y":2546634.120000001}},{"attributes":{"ID":603492,"DIS_CODE":0,"TOWNNAME":"永康區","LI":"二王里","LIN":"22鄰","STREET":"中山南路","SECT":" ","MAREA":" ","LANE":" ","ALLEY":" ","HOUSE_NO":"５７０號","E_COORD97":172239.20999999999,"N_COORD97":2546580.8599999999,"ADDRESS":"中山南路５７０號","OBJECTID":603465},"geometry":{"x":172239.20999999996,"y":2546580.8600000031}},{"attributes":{"ID":603493,"DIS_CODE":0,"TOWNNAME":"永康區","LI":"二王里","LIN":"22鄰","STREET":"中山南路","SECT":" ","MAREA":" ","LANE":" ","ALLEY":" ","HOUSE_NO":"５７４號","E_COORD97":172246.06,"N_COORD97":2546589.1099999999,"ADDRESS":"中山南路５７４號","OBJECTID":603466},"geometry":{"x":172246.06000000052,"y":2546589.1099999994}},{"attributes":{"ID":603494,"DIS_CODE":0,"TOWNNAME":"永康區","LI":"二王里","LIN":"22鄰","STREET":"中山南路","SECT":" ","MAREA":" ","LANE":" ","ALLEY":" ","HOUSE_NO":"６０４號","E_COORD97":172297.25,"N_COORD97":2546624.6200000001,"ADDRESS":"中山南路６０４號","OBJECTID":603467},"geometry":{"x":172297.25000000093,"y":2546624.620000001}},{"attributes":{"ID":603495,"DIS_CODE":0,"TOWNNAME":"永康區","LI":"二王里","LIN":"22鄰","STREET":"中山南路","SECT":" ","MAREA":" ","LANE":" ","ALLEY":" ","HOUSE_NO":"６１４號","E_COORD97":172314.25,"N_COORD97":2546636.6200000001,"ADDRESS":"中山南路６１４號","OBJECTID":603468},"geometry":{"x":172314.25000000093,"y":2546636.6200000029}},{"attributes":{"ID":603496,"DIS_CODE":0,"TOWNNAME":"永康區","LI":"二王里","LIN":"22鄰","STREET":"中山南路","SECT":" ","MAREA":" ","LANE":" ","ALLEY":" ","HOUSE_NO":"５７６號","E_COORD97":172249.45999999999,"N_COORD97":2546591.3599999999,"ADDRESS":"中山南路５７６號","OBJECTID":603469},"geometry":{"x":172249.45999999996,"y":2546591.3600000013}},{"attributes":{"ID":603497,"DIS_CODE":0,"TOWNNAME":"永康區","LI":"二王里","LIN":"22鄰","STREET":"中山南路","SECT":" ","MAREA":" ","LANE":" ","ALLEY":" ","HOUSE_NO":"５９２號","E_COORD97":172276.60000000001,"N_COORD97":2546610.3599999999,"ADDRESS":"中山南路５９２號","OBJECTID":603470},"geometry":{"x":172276.59999999963,"y":2546610.3599999994}},{"attributes":{"ID":603498,"DIS_CODE":0,"TOWNNAME":"永康區","LI":"二王里","LIN":"22鄰","STREET":"中山南路","SECT":" ","MAREA":" ","LANE":" ","ALLEY":" ","HOUSE_NO":"５８４號","E_COORD97":172263.01000000001,"N_COORD97":2546600.8599999999,"ADDRESS":"中山南路５８４號","OBJECTID":603471},"geometry":{"x":172263.01000000071,"y":2546600.8599999994}},{"attributes":{"ID":603499,"DIS_CODE":0,"TOWNNAME":"東區","LI":"大福里","LIN":"22鄰","STREET":"大同路","SECT":"二段","MAREA":" ","LANE":" ","ALLEY":" ","HOUSE_NO":"１９１號","E_COORD97":169420.01999999999,"N_COORD97":2541892.02,"ADDRESS":"大同路二段１９１號","OBJECTID":603472},"geometry":{"x":169420.02000000048,"y":2541892.0200000014}},{"attributes":{"ID":603500,"DIS_CODE":0,"TOWNNAME":"東區","LI":"大福里","LIN":"22鄰","STREET":"大同路","SECT":"二段","MAREA":" ","LANE":" ","ALLEY":" ","HOUSE_NO":"２０５號","E_COORD97":169427.34,"N_COORD97":2541866.9399999999,"ADDRESS":"大同路二段２０５號","OBJECTID":603473},"geometry":{"x":169427.33999999985,"y":2541866.9399999995}},{"attributes":{"ID":603501,"DIS_CODE":0,"TOWNNAME":"東區","LI":"大福里","LIN":"22鄰","STREET":"大同路","SECT":"二段","MAREA":" ","LANE":" ","ALLEY":" ","HOUSE_NO":"２０９號","E_COORD97":169434.67000000001,"N_COORD97":2541846.3900000001,"ADDRESS":"大同路二段２０９號","OBJECTID":603474},"geometry":{"x":169434.67000000086,"y":2541846.3900000025}},{"attributes":{"ID":603502,"DIS_CODE":0,"TOWNNAME":"東區","LI":"大福里","LIN":"22鄰","STREET":"大同路","SECT":"二段","MAREA":" ","LANE":" ","ALLEY":" ","HOUSE_NO":"２１５號","E_COORD97":169433.12,"N_COORD97":2541831.4900000002,"ADDRESS":"大同路二段２１５號","OBJECTID":603475},"geometry":{"x":169433.12000000197,"y":2541831.4900000021}},{"attributes":{"ID":603503,"DIS_CODE":0,"TOWNNAME":"東區","LI":"大福里","LIN":"22鄰","STREET":"立德八路","SECT":" ","MAREA":" ","LANE":" ","ALLEY":" ","HOUSE_NO":"１２號","E_COORD97":169439.73000000001,"N_COORD97":2541908.2599999998,"ADDRESS":"立德八路１２號","OBJECTID":603476},"geometry":{"x":169439.73000000138,"y":2541908.2600000016}},{"attributes":{"ID":603504,"DIS_CODE":0,"TOWNNAME":"麻豆區","LI":"油車里","LIN":"22鄰","STREET":"中山路","SECT":" ","MAREA":" ","LANE":" ","ALLEY":" ","HOUSE_NO":"１４０號之１０","E_COORD97":172424.98000000001,"N_COORD97":2564983.0600000001,"ADDRESS":"中山路１４０號之１０","OBJECTID":603477},"geometry":{"x":172424.98000000138,"y":2564983.0600000005}},{"attributes":{"ID":603505,"DIS_CODE":0,"TOWNNAME":"麻豆區","LI":"油車里","LIN":"22鄰","STREET":"中山路","SECT":" ","MAREA":" ","LANE":" ","ALLEY":" ","HOUSE_NO":"１４０號之１１","E_COORD97":172425.04999999999,"N_COORD97":2564988.3799999999,"ADDRESS":"中山路１４０號之１１","OBJECTID":603478},"geometry":{"x":172425.04999999981,"y":2564988.379999999}},{"attributes":{"ID":603506,"DIS_CODE":0,"TOWNNAME":"麻豆區","LI":"油車里","LIN":"22鄰","STREET":"中山路","SECT":" ","MAREA":" ","LANE":" ","ALLEY":" ","HOUSE_NO":"１４０號之１２","E_COORD97":172425.73000000001,"N_COORD97":2564994.4399999999,"ADDRESS":"中山路１４０號之１２","OBJECTID":603479},"geometry":{"x":172425.73000000045,"y":2564994.4400000013}},{"attributes":{"ID":603507,"DIS_CODE":0,"TOWNNAME":"麻豆區","LI":"油車里","LIN":"22鄰","STREET":"中山路","SECT":" ","MAREA":" ","LANE":" ","ALLEY":" ","HOUSE_NO":"１４０號之１３","E_COORD97":172424.73999999999,"N_COORD97":2565001.3700000001,"ADDRESS":"中山路１４０號之１３","OBJECTID":603480},"geometry":{"x":172424.74000000115,"y":2565001.370000001}},{"attributes":{"ID":603508,"DIS_CODE":0,"TOWNNAME":"麻豆區","LI":"油車里","LIN":"22鄰","STREET":"中山路","SECT":" ","MAREA":" ","LANE":" ","ALLEY":" ","HOUSE_NO":"１４０號之１４","E_COORD97":172425.20999999999,"N_COORD97":2565007.8900000001,"ADDRESS":"中山路１４０號之１４","OBJECTID":603481},"geometry":{"x":172425.21000000089,"y":2565007.8900000006}},{"attributes":{"ID":603509,"DIS_CODE":0,"TOWNNAME":"麻豆區","LI":"油車里","LIN":"22鄰","STREET":"中山路","SECT":" ","MAREA":" ","LANE":" ","ALLEY":" ","HOUSE_NO":"１４０號之１５","E_COORD97":172425.62,"N_COORD97":2565017.6099999999,"ADDRESS":"中山路１４０號之１５","OBJECTID":603482},"geometry":{"x":172425.62000000104,"y":2565017.6100000013}},{"attributes":{"ID":603510,"DIS_CODE":0,"TOWNNAME":"麻豆區","LI":"油車里","LIN":"22鄰","STREET":"中山路","SECT":" ","MAREA":" ","LANE":" ","ALLEY":" ","HOUSE_NO":"１４０號之１","E_COORD97":172416.89000000001,"N_COORD97":2564941.29,"ADDRESS":"中山路１４０號之１","OBJECTID":603483},"geometry":{"x":172416.8900000006,"y":2564941.290000001}},{"attributes":{"ID":603511,"DIS_CODE":0,"TOWNNAME":"麻豆區","LI":"油車里","LIN":"22鄰","STREET":"中山路","SECT":" ","MAREA":" ","LANE":" ","ALLEY":" ","HOUSE_NO":"１４０號之２","E_COORD97":172425.17999999999,"N_COORD97":2564935.1600000001,"ADDRESS":"中山路１４０號之２","OBJECTID":603484},"geometry":{"x":172425.1799999997,"y":2564935.1600000039}},{"attributes":{"ID":603512,"DIS_CODE":0,"TOWNNAME":"麻豆區","LI":"油車里","LIN":"22鄰","STREET":"中山路","SECT":" ","MAREA":" ","LANE":" ","ALLEY":" ","HOUSE_NO":"１４０號之３","E_COORD97":172410.59,"N_COORD97":2564944.0800000001,"ADDRESS":"中山路１４０號之３","OBJECTID":603485},"geometry":{"x":172410.59000000078,"y":2564944.0800000019}},{"attributes":{"ID":603513,"DIS_CODE":0,"TOWNNAME":"麻豆區","LI":"油車里","LIN":"22鄰","STREET":"中山路","SECT":" ","MAREA":" ","LANE":" ","ALLEY":" ","HOUSE_NO":"１４０號之５","E_COORD97":172417.67999999999,"N_COORD97":2564957.6299999999,"ADDRESS":"中山路１４０號之５","OBJECTID":603486},"geometry":{"x":172417.68000000063,"y":2564957.6299999971}},{"attributes":{"ID":603514,"DIS_CODE":0,"TOWNNAME":"麻豆區","LI":"油車里","LIN":"22鄰","STREET":"中山路","SECT":" ","MAREA":" ","LANE":" ","ALLEY":" ","HOUSE_NO":"１４０號之６","E_COORD97":172417.79999999999,"N_COORD97":2564962,"ADDRESS":"中山路１４０號之６","OBJECTID":603487},"geometry":{"x":172417.79999999981,"y":2564962}},{"attributes":{"ID":603515,"DIS_CODE":0,"TOWNNAME":"麻豆區","LI":"油車里","LIN":"22鄰","STREET":"中山路","SECT":" ","MAREA":" ","LANE":" ","ALLEY":" ","HOUSE_NO":"１４０號之７","E_COORD97":172417.92000000001,"N_COORD97":2564966.3599999999,"ADDRESS":"中山路１４０號之７","OBJECTID":603488},"geometry":{"x":172417.92000000179,"y":2564966.3599999994}},{"attributes":{"ID":603516,"DIS_CODE":0,"TOWNNAME":"麻豆區","LI":"油車里","LIN":"22鄰","STREET":"中山路","SECT":" ","MAREA":" ","LANE":" ","ALLEY":" ","HOUSE_NO":"１４０號之８","E_COORD97":172418.04000000001,"N_COORD97":2564970.73,"ADDRESS":"中山路１４０號之８","OBJECTID":603489},"geometry":{"x":172418.04000000004,"y":2564970.7300000004}},{"attributes":{"ID":603517,"DIS_CODE":0,"TOWNNAME":"麻豆區","LI":"油車里","LIN":"22鄰","STREET":"中山路","SECT":" ","MAREA":" ","LANE":" ","ALLEY":" ","HOUSE_NO":"１４０號之９","E_COORD97":172424.38,"N_COORD97":2564974.5899999999,"ADDRESS":"中山路１４０號之９","OBJECTID":603490},"geometry":{"x":172424.37999999989,"y":2564974.5899999999}},{"attributes":{"ID":603518,"DIS_CODE":0,"TOWNNAME":"麻豆區","LI":"油車里","LIN":"22鄰","STREET":"中山路","SECT":" ","MAREA":" ","LANE":" ","ALLEY":" ","HOUSE_NO":"１４４號之１","E_COORD97":172402.13,"N_COORD97":2564982.6099999999,"ADDRESS":"中山路１４４號之１","OBJECTID":603491},"geometry":{"x":172402.12999999989,"y":2564982.6100000013}},{"attributes":{"ID":603519,"DIS_CODE":0,"TOWNNAME":"麻豆區","LI":"油車里","LIN":"22鄰","STREET":"中山路","SECT":" ","MAREA":" ","LANE":" ","ALLEY":" ","HOUSE_NO":"１４４號之２","E_COORD97":172402.97,"N_COORD97":2564988.25,"ADDRESS":"中山路１４４號之２","OBJECTID":603492},"geometry":{"x":172402.96999999974,"y":2564988.25}},{"attributes":{"ID":603520,"DIS_CODE":0,"TOWNNAME":"麻豆區","LI":"油車里","LIN":"22鄰","STREET":"中山路","SECT":" ","MAREA":" ","LANE":" ","ALLEY":" ","HOUSE_NO":"１４４號之３","E_COORD97":172403.10000000001,"N_COORD97":2564994.1099999999,"ADDRESS":"中山路１４４號之３","OBJECTID":603493},"geometry":{"x":172403.10000000056,"y":2564994.1099999994}},{"attributes":{"ID":603521,"DIS_CODE":0,"TOWNNAME":"麻豆區","LI":"油車里","LIN":"22鄰","STREET":"中山路","SECT":" ","MAREA":" ","LANE":" ","ALLEY":" ","HOUSE_NO":"１４４號之４","E_COORD97":172403.59,"N_COORD97":2565000.25,"ADDRESS":"中山路１４４號之４","OBJECTID":603494},"geometry":{"x":172403.59000000078,"y":2565000.2500000019}},{"attributes":{"ID":603522,"DIS_CODE":0,"TOWNNAME":"麻豆區","LI":"油車里","LIN":"22鄰","STREET":"中山路","SECT":" ","MAREA":" ","LANE":" ","ALLEY":" ","HOUSE_NO":"１４４號之５","E_COORD97":172404.10000000001,"N_COORD97":2565005.46,"ADDRESS":"中山路１４４號之５","OBJECTID":603495},"geometry":{"x":172404.09999999963,"y":2565005.4600000028}},{"attributes":{"ID":603523,"DIS_CODE":0,"TOWNNAME":"麻豆區","LI":"油車里","LIN":"22鄰","STREET":"中山路","SECT":" ","MAREA":" ","LANE":" ","ALLEY":" ","HOUSE_NO":"１４４號之６","E_COORD97":172404.20999999999,"N_COORD97":2565010.9900000002,"ADDRESS":"中山路１４４號之６","OBJECTID":603496},"geometry":{"x":172404.21000000089,"y":2565010.9900000039}},{"attributes":{"ID":603524,"DIS_CODE":0,"TOWNNAME":"麻豆區","LI":"油車里","LIN":"22鄰","STREET":"中山路","SECT":" ","MAREA":" ","LANE":" ","ALLEY":" ","HOUSE_NO":"１４４號之７","E_COORD97":172404.42000000001,"N_COORD97":2565016.73,"ADDRESS":"中山路１４４號之７","OBJECTID":603497},"geometry":{"x":172404.42000000086,"y":2565016.7300000023}},{"attributes":{"ID":603525,"DIS_CODE":0,"TOWNNAME":"麻豆區","LI":"油車里","LIN":"22鄰","STREET":"中山路","SECT":" ","MAREA":" ","LANE":" ","ALLEY":" ","HOUSE_NO":"１４４號","E_COORD97":172403.70999999999,"N_COORD97":2564977.0099999998,"ADDRESS":"中山路１４４號","OBJECTID":603498},"geometry":{"x":172403.70999999996,"y":2564977.0100000016}},{"attributes":{"ID":603526,"DIS_CODE":0,"TOWNNAME":"麻豆區","LI":"油車里","LIN":"22鄰","STREET":"中山路","SECT":" ","MAREA":" ","LANE":" ","ALLEY":" ","HOUSE_NO":"１４８號之１","E_COORD97":172396.32000000001,"N_COORD97":2564951.96,"ADDRESS":"中山路１４８號之１","OBJECTID":603499},"geometry":{"x":172396.3200000003,"y":2564951.9600000028}},{"attributes":{"ID":603527,"DIS_CODE":0,"TOWNNAME":"麻豆區","LI":"油車里","LIN":"22鄰","STREET":"中山路","SECT":" ","MAREA":" ","LANE":" ","ALLEY":" ","HOUSE_NO":"１５０號之２","E_COORD97":172359.89999999999,"N_COORD97":2564968.6099999999,"ADDRESS":"中山路１５０號之２","OBJECTID":603500},"geometry":{"x":172359.9000000013,"y":2564968.6100000031}},{"attributes":{"ID":603528,"DIS_CODE":0,"TOWNNAME":"麻豆區","LI":"油車里","LIN":"22鄰","STREET":"中山路","SECT":" ","MAREA":" ","LANE":" ","ALLEY":" ","HOUSE_NO":"１５０號之３","E_COORD97":172356.07000000001,"N_COORD97":2564970.6800000002,"ADDRESS":"中山路１５０號之３","OBJECTID":603501},"geometry":{"x":172356.06999999937,"y":2564970.6799999997}},{"attributes":{"ID":603529,"DIS_CODE":0,"TOWNNAME":"麻豆區","LI":"油車里","LIN":"22鄰","STREET":"中山路","SECT":" ","MAREA":" ","LANE":" ","ALLEY":" ","HOUSE_NO":"１５０號之４","E_COORD97":172354.82999999999,"N_COORD97":2564977.1099999999,"ADDRESS":"中山路１５０號之４","OBJECTID":603502},"geometry":{"x":172354.83000000101,"y":2564977.1099999994}},{"attributes":{"ID":603530,"DIS_CODE":0,"TOWNNAME":"麻豆區","LI":"油車里","LIN":"22鄰","STREET":"中山路","SECT":" ","MAREA":" ","LANE":" ","ALLEY":" ","HOUSE_NO":"１５０號之５","E_COORD97":172350.56,"N_COORD97":2564979.8300000001,"ADDRESS":"中山路１５０號之５","OBJECTID":603503},"geometry":{"x":172350.56000000052,"y":2564979.8300000001}},{"attributes":{"ID":603531,"DIS_CODE":0,"TOWNNAME":"麻豆區","LI":"油車里","LIN":"22鄰","STREET":"中山路","SECT":" ","MAREA":" ","LANE":" ","ALLEY":" ","HOUSE_NO":"１５０號之７","E_COORD97":172385.10000000001,"N_COORD97":2564956.27,"ADDRESS":"中山路１５０號之７","OBJECTID":603504},"geometry":{"x":172385.09999999963,"y":2564956.2699999996}},{"attributes":{"ID":603532,"DIS_CODE":0,"TOWNNAME":"麻豆區","LI":"油車里","LIN":"22鄰","STREET":"中山路","SECT":" ","MAREA":" ","LANE":" ","ALLEY":" ","HOUSE_NO":"１５０號之８","E_COORD97":172388.95999999999,"N_COORD97":2564954.98,"ADDRESS":"中山路１５０號之８","OBJECTID":603505},"geometry":{"x":172388.96000000089,"y":2564954.9800000023}},{"attributes":{"ID":603533,"DIS_CODE":0,"TOWNNAME":"麻豆區","LI":"油車里","LIN":"22鄰","STREET":"中山路","SECT":" ","MAREA":" ","LANE":" ","ALLEY":" ","HOUSE_NO":"１５０號","E_COORD97":172370.82999999999,"N_COORD97":2564970.3199999998,"ADDRESS":"中山路１５０號","OBJECTID":603506},"geometry":{"x":172370.83000000007,"y":2564970.3200000003}},{"attributes":{"ID":603534,"DIS_CODE":0,"TOWNNAME":"中西區","LI":"法華里","LIN":"22鄰","STREET":"健康路","SECT":"一段","MAREA":" ","LANE":" ","ALLEY":" ","HOUSE_NO":"１７８號","E_COORD97":168669.82999999999,"N_COORD97":2542448.3500000001,"ADDRESS":"健康路一段１７８號","OBJECTID":603507},"geometry":{"x":168669.83000000007,"y":2542448.3500000034}},{"attributes":{"ID":603535,"DIS_CODE":0,"TOWNNAME":"中西區","LI":"法華里","LIN":"22鄰","STREET":"健康路","SECT":"一段","MAREA":" ","LANE":" ","ALLEY":" ","HOUSE_NO":"１８０號","E_COORD97":168662.87,"N_COORD97":2542449.3399999999,"ADDRESS":"健康路一段１８０號","OBJECTID":603508},"geometry":{"x":168662.87000000011,"y":2542449.3400000017}},{"attributes":{"ID":603536,"DIS_CODE":0,"TOWNNAME":"中西區","LI":"法華里","LIN":"22鄰","STREET":"健康路","SECT":"一段","MAREA":" ","LANE":" ","ALLEY":" ","HOUSE_NO":"２１２號","E_COORD97":168584.07999999999,"N_COORD97":2542454.96,"ADDRESS":"健康路一段２１２號","OBJECTID":603509},"geometry":{"x":168584.08000000194,"y":2542454.9600000009}},{"attributes":{"ID":603537,"DIS_CODE":0,"TOWNNAME":"中西區","LI":"法華里","LIN":"22鄰","STREET":"健康路","SECT":"一段","MAREA":" ","LANE":" ","ALLEY":" ","HOUSE_NO":"２１４號","E_COORD97":168579.76999999999,"N_COORD97":2542457.9399999999,"ADDRESS":"健康路一段２１４號","OBJECTID":603510},"geometry":{"x":168579.76999999955,"y":2542457.9400000032}},{"attributes":{"ID":603538,"DIS_CODE":0,"TOWNNAME":"中西區","LI":"法華里","LIN":"22鄰","STREET":"健康路","SECT":"一段","MAREA":" ","LANE":" ","ALLEY":" ","HOUSE_NO":"２１６號","E_COORD97":168575.14000000001,"N_COORD97":2542455.6299999999,"ADDRESS":"健康路一段２１６號","OBJECTID":603511},"geometry":{"x":168575.1400000006,"y":2542455.629999999}},{"attributes":{"ID":603539,"DIS_CODE":0,"TOWNNAME":"中西區","LI":"法華里","LIN":"22鄰","STREET":"健康路","SECT":"一段","MAREA":" ","LANE":" ","ALLEY":" ","HOUSE_NO":"２１８號","E_COORD97":168571.16,"N_COORD97":2542458.27,"ADDRESS":"健康路一段２１８號","OBJECTID":603512},"geometry":{"x":168571.16000000015,"y":2542458.2699999996}},{"attributes":{"ID":603540,"DIS_CODE":0,"TOWNNAME":"中西區","LI":"法華里","LIN":"22鄰","STREET":"健康路","SECT":"一段","MAREA":" ","LANE":" ","ALLEY":" ","HOUSE_NO":"２２２號","E_COORD97":168555.26999999999,"N_COORD97":2542458.9300000002,"ADDRESS":"健康路一段２２２號","OBJECTID":603513},"geometry":{"x":168555.27000000048,"y":2542458.9300000016}},{"attributes":{"ID":603541,"DIS_CODE":0,"TOWNNAME":"仁德區","LI":"仁德里","LIN":"22鄰","STREET":"文南街","SECT":" ","MAREA":" ","LANE":" ","ALLEY":" ","HOUSE_NO":"３９號","E_COORD97":172284.39999999999,"N_COORD97":2541189.5699999998,"ADDRESS":"文南街３９號","OBJECTID":603514},"geometry":{"x":172284.39999999944,"y":2541189.5699999984}},{"attributes":{"ID":603542,"DIS_CODE":0,"TOWNNAME":"仁德區","LI":"後壁里","LIN":"22鄰","STREET":"中正路","SECT":"二段","MAREA":" ","LANE":" ","ALLEY":" ","HOUSE_NO":"１１９號","E_COORD97":173172.85000000001,"N_COORD97":2538539.7799999998,"ADDRESS":"中正路二段１１９號","OBJECTID":603515},"geometry":{"x":173172.85000000056,"y":2538539.7800000012}},{"attributes":{"ID":603543,"DIS_CODE":0,"TOWNNAME":"仁德區","LI":"後壁里","LIN":"22鄰","STREET":"中正路","SECT":"二段","MAREA":" ","LANE":" ","ALLEY":" ","HOUSE_NO":"１７９號","E_COORD97":173203.01000000001,"N_COORD97":2538686.2799999998,"ADDRESS":"中正路二段１７９號","OBJECTID":603516},"geometry":{"x":173203.00999999978,"y":2538686.2800000012}},{"attributes":{"ID":603544,"DIS_CODE":0,"TOWNNAME":"仁德區","LI":"後壁里","LIN":"22鄰","STREET":"中正路","SECT":"二段","MAREA":" ","LANE":" ","ALLEY":" ","HOUSE_NO":"１７５號","E_COORD97":173199.62,"N_COORD97":2538674.7799999998,"ADDRESS":"中正路二段１７５號","OBJECTID":603517},"geometry":{"x":173199.62000000011,"y":2538674.7799999975}},{"attributes":{"ID":603545,"DIS_CODE":0,"TOWNNAME":"仁德區","LI":"後壁里","LIN":"22鄰","STREET":"中正路","SECT":"二段","MAREA":" ","LANE":" ","ALLEY":" ","HOUSE_NO":"１０９號","E_COORD97":173165.64999999999,"N_COORD97":2538521.27,"ADDRESS":"中正路二段１０９號","OBJECTID":603518},"geometry":{"x":173165.65000000037,"y":2538521.2699999996}},{"attributes":{"ID":603546,"DIS_CODE":0,"TOWNNAME":"仁德區","LI":"保安里","LIN":"22鄰","STREET":"文賢路","SECT":"一段","MAREA":" ","LANE":" ","ALLEY":" ","HOUSE_NO":"７１６號","E_COORD97":171271.38,"N_COORD97":2536421.0699999998,"ADDRESS":"文賢路一段７１６號","OBJECTID":603519},"geometry":{"x":171271.37999999989,"y":2536421.0700000022}},{"attributes":{"ID":603547,"DIS_CODE":0,"TOWNNAME":"仁德區","LI":"後壁里","LIN":"22鄰","STREET":"中正路","SECT":"二段","MAREA":" ","LANE":" ","ALLEY":" ","HOUSE_NO":"１６１號","E_COORD97":173187.54999999999,"N_COORD97":2538646.0299999998,"ADDRESS":"中正路二段１６１號","OBJECTID":603520},"geometry":{"x":173187.54999999981,"y":2538646.0299999975}},{"attributes":{"ID":603548,"DIS_CODE":0,"TOWNNAME":"仁德區","LI":"後壁里","LIN":"22鄰","STREET":"中正路","SECT":"二段","MAREA":" ","LANE":" ","ALLEY":" ","HOUSE_NO":"１２９號","E_COORD97":173181,"N_COORD97":2538567.5299999998,"ADDRESS":"中正路二段１２９號","OBJECTID":603521},"geometry":{"x":173181.00000000093,"y":2538567.5299999993}},{"attributes":{"ID":603549,"DIS_CODE":0,"TOWNNAME":"仁德區","LI":"保安里","LIN":"22鄰","STREET":"文賢路","SECT":"一段","MAREA":" ","LANE":" ","ALLEY":" ","HOUSE_NO":"６８６號","E_COORD97":171234.34,"N_COORD97":2536471.5800000001,"ADDRESS":"文賢路一段６８６號","OBJECTID":603522},"geometry":{"x":171234.33999999985,"y":2536471.5800000019}},{"attributes":{"ID":603550,"DIS_CODE":0,"TOWNNAME":"仁德區","LI":"保安里","LIN":"22鄰","STREET":"文賢路","SECT":"一段","MAREA":" ","LANE":" ","ALLEY":" ","HOUSE_NO":"７０２號","E_COORD97":171250.92000000001,"N_COORD97":2536440.8199999998,"ADDRESS":"文賢路一段７０２號","OBJECTID":603523},"geometry":{"x":171250.91999999993,"y":2536440.8200000003}},{"attributes":{"ID":603551,"DIS_CODE":0,"TOWNNAME":"仁德區","LI":"後壁里","LIN":"22鄰","STREET":"中正路","SECT":"二段","MAREA":" ","LANE":" ","ALLEY":" ","HOUSE_NO":"１４１號","E_COORD97":173190.51999999999,"N_COORD97":2538595.27,"ADDRESS":"中正路二段１４１號","OBJECTID":603524},"geometry":{"x":173190.52000000048,"y":2538595.2700000014}},{"attributes":{"ID":603552,"DIS_CODE":0,"TOWNNAME":"仁德區","LI":"後壁里","LIN":"22鄰","STREET":"中正路","SECT":"二段","MAREA":" ","LANE":" ","ALLEY":" ","HOUSE_NO":"２０１號","E_COORD97":173206.63,"N_COORD97":2538732.27,"ADDRESS":"中正路二段２０１號","OBJECTID":603525},"geometry":{"x":173206.63000000082,"y":2538732.2699999996}},{"attributes":{"ID":603553,"DIS_CODE":0,"TOWNNAME":"仁德區","LI":"太子里","LIN":"22鄰","STREET":"長興四街","SECT":" ","MAREA":" ","LANE":" ","ALLEY":" ","HOUSE_NO":"７８號","E_COORD97":173874.59,"N_COORD97":2543582.5,"ADDRESS":"長興四街７８號","OBJECTID":603526},"geometry":{"x":173874.59000000171,"y":2543582.5}},{"attributes":{"ID":603554,"DIS_CODE":0,"TOWNNAME":"仁德區","LI":"太子里","LIN":"22鄰","STREET":"長興四街","SECT":" ","MAREA":" ","LANE":" ","ALLEY":" ","HOUSE_NO":"８０號","E_COORD97":173867.51999999999,"N_COORD97":2543570.5,"ADDRESS":"長興四街８０號","OBJECTID":603527},"geometry":{"x":173867.51999999955,"y":2543570.5000000019}},{"attributes":{"ID":603555,"DIS_CODE":0,"TOWNNAME":"仁德區","LI":"成功里","LIN":"22鄰","STREET":"保生路","SECT":" ","MAREA":" ","LANE":" ","ALLEY":" ","HOUSE_NO":"５３號","E_COORD97":170780.13,"N_COORD97":2539776,"ADDRESS":"保生路５３號","OBJECTID":603528},"geometry":{"x":170780.12999999989,"y":2539776.0000000037}},{"attributes":{"ID":603556,"DIS_CODE":0,"TOWNNAME":"仁德區","LI":"保安里","LIN":"22鄰","STREET":"文賢路","SECT":"一段","MAREA":" ","LANE":" ","ALLEY":" ","HOUSE_NO":"７３８號","E_COORD97":171316.51000000001,"N_COORD97":2536380.0800000001,"ADDRESS":"文賢路一段７３８號","OBJECTID":603529},"geometry":{"x":171316.50999999978,"y":2536380.0800000019}},{"attributes":{"ID":603557,"DIS_CODE":0,"TOWNNAME":"仁德區","LI":"後壁里","LIN":"22鄰","STREET":"中正路","SECT":"二段","MAREA":" ","LANE":" ","ALLEY":" ","HOUSE_NO":"１１５號","E_COORD97":173170.29000000001,"N_COORD97":2538532.5299999998,"ADDRESS":"中正路二段１１５號","OBJECTID":603530},"geometry":{"x":173170.29000000097,"y":2538532.5300000012}},{"attributes":{"ID":603558,"DIS_CODE":0,"TOWNNAME":"仁德區","LI":"保安里","LIN":"22鄰","STREET":"文賢路","SECT":"一段","MAREA":" ","LANE":" ","ALLEY":" ","HOUSE_NO":"７４０號","E_COORD97":171321.34,"N_COORD97":2536375.8300000001,"ADDRESS":"文賢路一段７４０號","OBJECTID":603531},"geometry":{"x":171321.33999999985,"y":2536375.8300000001}},{"attributes":{"ID":603559,"DIS_CODE":0,"TOWNNAME":"仁德區","LI":"後壁里","LIN":"22鄰","STREET":"中正路","SECT":"二段","MAREA":" ","LANE":" ","ALLEY":" ","HOUSE_NO":"１４３號","E_COORD97":173191.62,"N_COORD97":2538599.52,"ADDRESS":"中正路二段１４３號","OBJECTID":603532},"geometry":{"x":173191.62000000104,"y":2538599.5200000014}},{"attributes":{"ID":603560,"DIS_CODE":0,"TOWNNAME":"仁德區","LI":"後壁里","LIN":"22鄰","STREET":"中正路","SECT":"二段","MAREA":" ","LANE":" ","ALLEY":" ","HOUSE_NO":"１３３號","E_COORD97":173183.92999999999,"N_COORD97":2538576.2799999998,"ADDRESS":"中正路二段１３３號","OBJECTID":603533},"geometry":{"x":173183.93000000063,"y":2538576.2799999993}},{"attributes":{"ID":603561,"DIS_CODE":0,"TOWNNAME":"仁德區","LI":"保安里","LIN":"22鄰","STREET":"文賢路","SECT":"一段","MAREA":" ","LANE":" ","ALLEY":" ","HOUSE_NO":"７０６號","E_COORD97":171257.28,"N_COORD97":2536435.3199999998,"ADDRESS":"文賢路一段７０６號","OBJECTID":603534},"geometry":{"x":171257.28000000026,"y":2536435.3200000022}},{"attributes":{"ID":603562,"DIS_CODE":0,"TOWNNAME":"仁德區","LI":"保安里","LIN":"22鄰","STREET":"文賢路","SECT":"一段","MAREA":" ","LANE":" ","ALLEY":" ","HOUSE_NO":"６８０號","E_COORD97":171229.32999999999,"N_COORD97":2536483.3300000001,"ADDRESS":"文賢路一段６８０號","OBJECTID":603535},"geometry":{"x":171229.33000000101,"y":2536483.3300000019}},{"attributes":{"ID":603563,"DIS_CODE":0,"TOWNNAME":"白河區","LI":"永安里","LIN":"22鄰","STREET":"民安路","SECT":" ","MAREA":" ","LANE":" ","ALLEY":" ","HOUSE_NO":"１００號","E_COORD97":189920.94,"N_COORD97":2582901.9500000002,"ADDRESS":"民安路１００號","OBJECTID":603536},"geometry":{"x":189920.93999999948,"y":2582901.9500000011}},{"attributes":{"ID":603564,"DIS_CODE":0,"TOWNNAME":"白河區","LI":"永安里","LIN":"22鄰","STREET":"民安路","SECT":" ","MAREA":" ","LANE":" ","ALLEY":" ","HOUSE_NO":"１０２號","E_COORD97":189923.48999999999,"N_COORD97":2582905.75,"ADDRESS":"民安路１０２號","OBJECTID":603537},"geometry":{"x":189923.49000000022,"y":2582905.75}},{"attributes":{"ID":603565,"DIS_CODE":0,"TOWNNAME":"白河區","LI":"永安里","LIN":"22鄰","STREET":"民安路","SECT":" ","MAREA":" ","LANE":" ","ALLEY":" ","HOUSE_NO":"１０號","E_COORD97":189814.63,"N_COORD97":2582731.0800000001,"ADDRESS":"民安路１０號","OBJECTID":603538},"geometry":{"x":189814.63000000082,"y":2582731.0800000001}},{"attributes":{"ID":603566,"DIS_CODE":0,"TOWNNAME":"白河區","LI":"永安里","LIN":"22鄰","STREET":"民安路","SECT":" ","MAREA":" ","LANE":" ","ALLEY":" ","HOUSE_NO":"１２號","E_COORD97":189816.73999999999,"N_COORD97":2582734.7799999998,"ADDRESS":"民安路１２號","OBJECTID":603539},"geometry":{"x":189816.74000000022,"y":2582734.7799999993}},{"attributes":{"ID":603567,"DIS_CODE":0,"TOWNNAME":"白河區","LI":"永安里","LIN":"22鄰","STREET":"民安路","SECT":" ","MAREA":" ","LANE":" ","ALLEY":" ","HOUSE_NO":"１６號","E_COORD97":189818.70000000001,"N_COORD97":2582738.7000000002,"ADDRESS":"民安路１６號","OBJECTID":603540},"geometry":{"x":189818.70000000019,"y":2582738.6999999993}},{"attributes":{"ID":603568,"DIS_CODE":0,"TOWNNAME":"白河區","LI":"永安里","LIN":"22鄰","STREET":"民安路","SECT":" ","MAREA":" ","LANE":" ","ALLEY":" ","HOUSE_NO":"１８號","E_COORD97":189820.82000000001,"N_COORD97":2582742.6200000001,"ADDRESS":"民安路１８號","OBJECTID":603541},"geometry":{"x":189820.82000000123,"y":2582742.6200000048}},{"attributes":{"ID":603569,"DIS_CODE":0,"TOWNNAME":"白河區","LI":"永安里","LIN":"22鄰","STREET":"民安路","SECT":" ","MAREA":" ","LANE":" ","ALLEY":" ","HOUSE_NO":"１９號","E_COORD97":189809.12,"N_COORD97":2582772.5,"ADDRESS":"民安路１９號","OBJECTID":603542},"geometry":{"x":189809.12000000011,"y":2582772.5}},{"attributes":{"ID":603570,"DIS_CODE":0,"TOWNNAME":"白河區","LI":"永安里","LIN":"22鄰","STREET":"民安路","SECT":" ","MAREA":" ","LANE":" ","ALLEY":" ","HOUSE_NO":"１號","E_COORD97":189795.56,"N_COORD97":2582751.8700000001,"ADDRESS":"民安路１號","OBJECTID":603543},"geometry":{"x":189795.56000000145,"y":2582751.8700000029}},{"attributes":{"ID":603571,"DIS_CODE":0,"TOWNNAME":"白河區","LI":"永安里","LIN":"22鄰","STREET":"民安路","SECT":" ","MAREA":" ","LANE":" ","ALLEY":" ","HOUSE_NO":"２０號","E_COORD97":189822.88,"N_COORD97":2582746.4399999999,"ADDRESS":"民安路２０號","OBJECTID":603544},"geometry":{"x":189822.88000000082,"y":2582746.4400000013}},{"attributes":{"ID":603572,"DIS_CODE":0,"TOWNNAME":"白河區","LI":"永安里","LIN":"22鄰","STREET":"民安路","SECT":" ","MAREA":" ","LANE":" ","ALLEY":" ","HOUSE_NO":"２１號","E_COORD97":189811.41,"N_COORD97":2582776.3999999999,"ADDRESS":"民安路２１號","OBJECTID":603545},"geometry":{"x":189811.41000000108,"y":2582776.4000000004}},{"attributes":{"ID":603573,"DIS_CODE":0,"TOWNNAME":"白河區","LI":"永安里","LIN":"22鄰","STREET":"民安路","SECT":" ","MAREA":" ","LANE":" ","ALLEY":" ","HOUSE_NO":"２２號","E_COORD97":189826.07000000001,"N_COORD97":2582749.1600000001,"ADDRESS":"民安路２２號","OBJECTID":603546},"geometry":{"x":189826.0700000003,"y":2582749.160000002}},{"attributes":{"ID":603574,"DIS_CODE":0,"TOWNNAME":"白河區","LI":"永安里","LIN":"22鄰","STREET":"民安路","SECT":" ","MAREA":" ","LANE":" ","ALLEY":" ","HOUSE_NO":"２３號","E_COORD97":189813.69,"N_COORD97":2582780.2999999998,"ADDRESS":"民安路２３號","OBJECTID":603547},"geometry":{"x":189813.69000000041,"y":2582780.3000000007}},{"attributes":{"ID":603575,"DIS_CODE":0,"TOWNNAME":"白河區","LI":"永安里","LIN":"22鄰","STREET":"民安路","SECT":" ","MAREA":" ","LANE":" ","ALLEY":" ","HOUSE_NO":"２５號","E_COORD97":189815.97,"N_COORD97":2582784.2000000002,"ADDRESS":"民安路２５號","OBJECTID":603548},"geometry":{"x":189815.96999999974,"y":2582784.200000003}},{"attributes":{"ID":603576,"DIS_CODE":0,"TOWNNAME":"白河區","LI":"永安里","LIN":"22鄰","STREET":"民安路","SECT":" ","MAREA":" ","LANE":" ","ALLEY":" ","HOUSE_NO":"２７號","E_COORD97":189818.26000000001,"N_COORD97":2582788.1000000001,"ADDRESS":"民安路２７號","OBJECTID":603549},"geometry":{"x":189818.26000000164,"y":2582788.0999999996}},{"attributes":{"ID":603577,"DIS_CODE":0,"TOWNNAME":"白河區","LI":"永安里","LIN":"22鄰","STREET":"民安路","SECT":" ","MAREA":" ","LANE":" ","ALLEY":" ","HOUSE_NO":"２９號","E_COORD97":189820.54000000001,"N_COORD97":2582792.0099999998,"ADDRESS":"民安路２９號","OBJECTID":603550},"geometry":{"x":189820.54000000097,"y":2582792.0099999998}},{"attributes":{"ID":603578,"DIS_CODE":0,"TOWNNAME":"白河區","LI":"永安里","LIN":"22鄰","STREET":"民安路","SECT":" ","MAREA":" ","LANE":" ","ALLEY":" ","HOUSE_NO":"３１號","E_COORD97":189822.82000000001,"N_COORD97":2582795.9100000001,"ADDRESS":"民安路３１號","OBJECTID":603551},"geometry":{"x":189822.8200000003,"y":2582795.9100000001}},{"attributes":{"ID":603579,"DIS_CODE":0,"TOWNNAME":"白河區","LI":"永安里","LIN":"22鄰","STREET":"民安路","SECT":" ","MAREA":" ","LANE":" ","ALLEY":" ","HOUSE_NO":"３３號","E_COORD97":189825.10999999999,"N_COORD97":2582799.8100000001,"ADDRESS":"民安路３３號","OBJECTID":603552},"geometry":{"x":189825.11000000127,"y":2582799.8100000024}},{"attributes":{"ID":603580,"DIS_CODE":0,"TOWNNAME":"白河區","LI":"永安里","LIN":"22鄰","STREET":"民安路","SECT":" ","MAREA":" ","LANE":" ","ALLEY":" ","HOUSE_NO":"３５號","E_COORD97":189827.39000000001,"N_COORD97":2582803.71,"ADDRESS":"民安路３５號","OBJECTID":603553},"geometry":{"x":189827.39000000153,"y":2582803.7100000028}},{"attributes":{"ID":603581,"DIS_CODE":0,"TOWNNAME":"白河區","LI":"永安里","LIN":"22鄰","STREET":"民安路","SECT":" ","MAREA":" ","LANE":" ","ALLEY":" ","HOUSE_NO":"３７號","E_COORD97":189829.67999999999,"N_COORD97":2582807.6099999999,"ADDRESS":"民安路３７號","OBJECTID":603554},"geometry":{"x":189829.6799999997,"y":2582807.6099999994}},{"attributes":{"ID":603582,"DIS_CODE":0,"TOWNNAME":"白河區","LI":"永安里","LIN":"22鄰","STREET":"民安路","SECT":" ","MAREA":" ","LANE":" ","ALLEY":" ","HOUSE_NO":"３９號","E_COORD97":189831.95999999999,"N_COORD97":2582811.5099999998,"ADDRESS":"民安路３９號","OBJECTID":603555},"geometry":{"x":189831.95999999996,"y":2582811.5100000016}},{"attributes":{"ID":603583,"DIS_CODE":0,"TOWNNAME":"白河區","LI":"永安里","LIN":"22鄰","STREET":"民安路","SECT":" ","MAREA":" ","LANE":" ","ALLEY":" ","HOUSE_NO":"７８號","E_COORD97":189891.48999999999,"N_COORD97":2582862.3900000001,"ADDRESS":"民安路７８號","OBJECTID":603556},"geometry":{"x":189891.49000000022,"y":2582862.3900000043}},{"attributes":{"ID":603584,"DIS_CODE":0,"TOWNNAME":"白河區","LI":"永安里","LIN":"22鄰","STREET":"民安路","SECT":" ","MAREA":" ","LANE":" ","ALLEY":" ","HOUSE_NO":"８０號","E_COORD97":189894.10000000001,"N_COORD97":2582866.2000000002,"ADDRESS":"民安路８０號","OBJECTID":603557},"geometry":{"x":189894.10000000056,"y":2582866.2000000011}},{"attributes":{"ID":603585,"DIS_CODE":0,"TOWNNAME":"白河區","LI":"永安里","LIN":"22鄰","STREET":"民安路","SECT":" ","MAREA":" ","LANE":" ","ALLEY":" ","HOUSE_NO":"８２號","E_COORD97":189896.84,"N_COORD97":2582869.6400000001,"ADDRESS":"民安路８２號","OBJECTID":603558},"geometry":{"x":189896.83999999985,"y":2582869.6400000006}},{"attributes":{"ID":603586,"DIS_CODE":0,"TOWNNAME":"白河區","LI":"永安里","LIN":"22鄰","STREET":"民安路","SECT":" ","MAREA":" ","LANE":" ","ALLEY":" ","HOUSE_NO":"８４號","E_COORD97":189899.42000000001,"N_COORD97":2582873.46,"ADDRESS":"民安路８４號","OBJECTID":603559},"geometry":{"x":189899.42000000086,"y":2582873.4600000028}},{"attributes":{"ID":603587,"DIS_CODE":0,"TOWNNAME":"白河區","LI":"永安里","LIN":"22鄰","STREET":"民安路","SECT":" ","MAREA":" ","LANE":" ","ALLEY":" ","HOUSE_NO":"８６號","E_COORD97":189901.85999999999,"N_COORD97":2582876.9300000002,"ADDRESS":"民安路８６號","OBJECTID":603560},"geometry":{"x":189901.86000000127,"y":2582876.9299999997}},{"attributes":{"ID":603588,"DIS_CODE":0,"TOWNNAME":"白河區","LI":"永安里","LIN":"22鄰","STREET":"民安路","SECT":" ","MAREA":" ","LANE":" ","ALLEY":" ","HOUSE_NO":"８８號","E_COORD97":189904.51999999999,"N_COORD97":2582881.1699999999,"ADDRESS":"民安路８８號","OBJECTID":603561},"geometry":{"x":189904.52000000048,"y":2582881.1700000018}},{"attributes":{"ID":603589,"DIS_CODE":0,"TOWNNAME":"白河區","LI":"永安里","LIN":"22鄰","STREET":"民安路","SECT":" ","MAREA":" ","LANE":" ","ALLEY":" ","HOUSE_NO":"８號","E_COORD97":189811.73999999999,"N_COORD97":2582727.25,"ADDRESS":"民安路８號","OBJECTID":603562},"geometry":{"x":189811.74000000022,"y":2582727.2500000037}},{"attributes":{"ID":603590,"DIS_CODE":0,"TOWNNAME":"白河區","LI":"永安里","LIN":"22鄰","STREET":"民安路","SECT":" ","MAREA":" ","LANE":" ","ALLEY":" ","HOUSE_NO":"９０號","E_COORD97":189907.70000000001,"N_COORD97":2582884.5499999998,"ADDRESS":"民安路９０號","OBJECTID":603563},"geometry":{"x":189907.70000000112,"y":2582884.5500000007}},{"attributes":{"ID":603591,"DIS_CODE":0,"TOWNNAME":"白河區","LI":"永安里","LIN":"22鄰","STREET":"民安路","SECT":" ","MAREA":" ","LANE":" ","ALLEY":" ","HOUSE_NO":"９２號","E_COORD97":189910.10000000001,"N_COORD97":2582888.1000000001,"ADDRESS":"民安路９２號","OBJECTID":603564},"geometry":{"x":189910.09999999963,"y":2582888.1000000015}},{"attributes":{"ID":603592,"DIS_CODE":0,"TOWNNAME":"白河區","LI":"永安里","LIN":"22鄰","STREET":"民安路","SECT":" ","MAREA":" ","LANE":" ","ALLEY":" ","HOUSE_NO":"９４號","E_COORD97":189912.94,"N_COORD97":2582891.3999999999,"ADDRESS":"民安路９４號","OBJECTID":603565},"geometry":{"x":189912.94000000134,"y":2582891.4000000004}},{"attributes":{"ID":603593,"DIS_CODE":0,"TOWNNAME":"白河區","LI":"永安里","LIN":"22鄰","STREET":"民安路","SECT":" ","MAREA":" ","LANE":" ","ALLEY":" ","HOUSE_NO":"９６號","E_COORD97":189915.72,"N_COORD97":2582894.5899999999,"ADDRESS":"民安路９６號","OBJECTID":603566},"geometry":{"x":189915.72000000067,"y":2582894.5900000017}},{"attributes":{"ID":603594,"DIS_CODE":0,"TOWNNAME":"白河區","LI":"永安里","LIN":"22鄰","STREET":"民安路","SECT":" ","MAREA":" ","LANE":" ","ALLEY":" ","HOUSE_NO":"９８號","E_COORD97":189918.51999999999,"N_COORD97":2582898.1800000002,"ADDRESS":"民安路９８號","OBJECTID":603567},"geometry":{"x":189918.52000000048,"y":2582898.1800000016}},{"attributes":{"ID":603595,"DIS_CODE":0,"TOWNNAME":"官田區","LI":"隆田里","LIN":"22鄰","STREET":"隆西街","SECT":" ","MAREA":" ","LANE":" ","ALLEY":" ","HOUSE_NO":"５３號","E_COORD97":178925.23999999999,"N_COORD97":2565646.46,"ADDRESS":"隆西街５３號","OBJECTID":603568},"geometry":{"x":178925.24000000022,"y":2565646.4600000028}},{"attributes":{"ID":603596,"DIS_CODE":0,"TOWNNAME":"官田區","LI":"隆田里","LIN":"22鄰","STREET":"隆西街","SECT":" ","MAREA":" ","LANE":" ","ALLEY":" ","HOUSE_NO":"１７號","E_COORD97":179098.98000000001,"N_COORD97":2565812.9300000002,"ADDRESS":"隆西街１７號","OBJECTID":603569},"geometry":{"x":179098.98000000138,"y":2565812.9299999997}},{"attributes":{"ID":603597,"DIS_CODE":0,"TOWNNAME":"官田區","LI":"隆田里","LIN":"22鄰","STREET":"隆西街","SECT":" ","MAREA":" ","LANE":" ","ALLEY":" ","HOUSE_NO":"２１號之３","E_COORD97":179048.03,"N_COORD97":2565789.2000000002,"ADDRESS":"隆西街２１號之３","OBJECTID":603570},"geometry":{"x":179048.03000000119,"y":2565789.2000000011}},{"attributes":{"ID":603598,"DIS_CODE":0,"TOWNNAME":"官田區","LI":"隆田里","LIN":"22鄰","STREET":"隆西街","SECT":" ","MAREA":" ","LANE":" ","ALLEY":" ","HOUSE_NO":"２１號之４","E_COORD97":179037.87,"N_COORD97":2565785.1099999999,"ADDRESS":"隆西街２１號之４","OBJECTID":603571},"geometry":{"x":179037.87000000011,"y":2565785.1099999994}},{"attributes":{"ID":603599,"DIS_CODE":0,"TOWNNAME":"官田區","LI":"隆田里","LIN":"22鄰","STREET":"隆西街","SECT":" ","MAREA":" ","LANE":" ","ALLEY":" ","HOUSE_NO":"２１號","E_COORD97":179069.17999999999,"N_COORD97":2565790.0600000001,"ADDRESS":"隆西街２１號","OBJECTID":603572},"geometry":{"x":179069.1799999997,"y":2565790.0600000005}},{"attributes":{"ID":603600,"DIS_CODE":0,"TOWNNAME":"官田區","LI":"隆田里","LIN":"22鄰","STREET":"隆西街","SECT":" ","MAREA":" ","LANE":" ","ALLEY":" ","HOUSE_NO":"２３號","E_COORD97":179035.72,"N_COORD97":2565778.1499999999,"ADDRESS":"隆西街２３號","OBJECTID":603573},"geometry":{"x":179035.72000000067,"y":2565778.1500000004}},{"attributes":{"ID":603601,"DIS_CODE":0,"TOWNNAME":"官田區","LI":"隆田里","LIN":"22鄰","STREET":"隆西街","SECT":" ","MAREA":" ","LANE":" ","ALLEY":" ","HOUSE_NO":"２５號","E_COORD97":179030.76999999999,"N_COORD97":2565772.2599999998,"ADDRESS":"隆西街２５號","OBJECTID":603574},"geometry":{"x":179030.76999999955,"y":2565772.2600000016}},{"attributes":{"ID":603602,"DIS_CODE":0,"TOWNNAME":"官田區","LI":"隆田里","LIN":"22鄰","STREET":"隆西街","SECT":" ","MAREA":" ","LANE":" ","ALLEY":" ","HOUSE_NO":"２７號之２","E_COORD97":179019.32999999999,"N_COORD97":2565766.8900000001,"ADDRESS":"隆西街２７號之２","OBJECTID":603575},"geometry":{"x":179019.33000000007,"y":2565766.8900000006}},{"attributes":{"ID":603603,"DIS_CODE":0,"TOWNNAME":"官田區","LI":"隆田里","LIN":"22鄰","STREET":"隆西街","SECT":" ","MAREA":" ","LANE":" ","ALLEY":" ","HOUSE_NO":"２７號","E_COORD97":179022.45999999999,"N_COORD97":2565770.27,"ADDRESS":"隆西街２７號","OBJECTID":603576},"geometry":{"x":179022.46000000089,"y":2565770.2699999996}},{"attributes":{"ID":603604,"DIS_CODE":0,"TOWNNAME":"官田區","LI":"隆田里","LIN":"22鄰","STREET":"隆西街","SECT":" ","MAREA":" ","LANE":" ","ALLEY":" ","HOUSE_NO":"２９號之１","E_COORD97":179012.57999999999,"N_COORD97":2565760.1800000002,"ADDRESS":"隆西街２９號之１","OBJECTID":603577},"geometry":{"x":179012.58000000007,"y":2565760.1799999997}},{"attributes":{"ID":603605,"DIS_CODE":0,"TOWNNAME":"官田區","LI":"隆田里","LIN":"22鄰","STREET":"隆西街","SECT":" ","MAREA":" ","LANE":" ","ALLEY":" ","HOUSE_NO":"２９號之２","E_COORD97":179008.89000000001,"N_COORD97":2565757,"ADDRESS":"隆西街２９號之２","OBJECTID":603578},"geometry":{"x":179008.8900000006,"y":2565757.0000000019}},{"attributes":{"ID":603606,"DIS_CODE":0,"TOWNNAME":"官田區","LI":"隆田里","LIN":"22鄰","STREET":"隆西街","SECT":" ","MAREA":" ","LANE":" ","ALLEY":" ","HOUSE_NO":"２９號之３","E_COORD97":179006.23000000001,"N_COORD97":2565753.71,"ADDRESS":"隆西街２９號之３","OBJECTID":603579},"geometry":{"x":179006.23000000138,"y":2565753.7100000028}},{"attributes":{"ID":603607,"DIS_CODE":0,"TOWNNAME":"官田區","LI":"隆田里","LIN":"22鄰","STREET":"隆西街","SECT":" ","MAREA":" ","LANE":" ","ALLEY":" ","HOUSE_NO":"２９號之４","E_COORD97":179003.17000000001,"N_COORD97":2565750.5800000001,"ADDRESS":"隆西街２９號之４","OBJECTID":603580},"geometry":{"x":179003.16999999993,"y":2565750.5800000019}},{"attributes":{"ID":603608,"DIS_CODE":0,"TOWNNAME":"官田區","LI":"隆田里","LIN":"22鄰","STREET":"隆西街","SECT":" ","MAREA":" ","LANE":" ","ALLEY":" ","HOUSE_NO":"２９號之８","E_COORD97":178992.81,"N_COORD97":2565738.4700000002,"ADDRESS":"隆西街２９號之８","OBJECTID":603581},"geometry":{"x":178992.81000000052,"y":2565738.4700000025}},{"attributes":{"ID":603609,"DIS_CODE":0,"TOWNNAME":"官田區","LI":"隆田里","LIN":"22鄰","STREET":"隆西街","SECT":" ","MAREA":" ","LANE":" ","ALLEY":" ","HOUSE_NO":"２９號","E_COORD97":179015.82999999999,"N_COORD97":2565763.6000000001,"ADDRESS":"隆西街２９號","OBJECTID":603582},"geometry":{"x":179015.83000000007,"y":2565763.6000000015}},{"attributes":{"ID":603610,"DIS_CODE":0,"TOWNNAME":"官田區","LI":"隆田里","LIN":"22鄰","STREET":"隆西街","SECT":" ","MAREA":" ","LANE":" ","ALLEY":" ","HOUSE_NO":"３３號之１","E_COORD97":178949.60000000001,"N_COORD97":2565692.3500000001,"ADDRESS":"隆西街３３號之１","OBJECTID":603583},"geometry":{"x":178949.60000000149,"y":2565692.3499999996}},{"attributes":{"ID":603611,"DIS_CODE":0,"TOWNNAME":"官田區","LI":"隆田里","LIN":"22鄰","STREET":"隆西街","SECT":" ","MAREA":" ","LANE":" ","ALLEY":" ","HOUSE_NO":"３９號","E_COORD97":178929.17999999999,"N_COORD97":2565669.29,"ADDRESS":"隆西街３９號","OBJECTID":603584},"geometry":{"x":178929.18000000063,"y":2565669.290000001}},{"attributes":{"ID":603612,"DIS_CODE":0,"TOWNNAME":"官田區","LI":"隆田里","LIN":"22鄰","STREET":"隆西街","SECT":" ","MAREA":" ","LANE":" ","ALLEY":" ","HOUSE_NO":"４１號","E_COORD97":178926.23999999999,"N_COORD97":2565666.75,"ADDRESS":"隆西街４１號","OBJECTID":603585},"geometry":{"x":178926.24000000115,"y":2565666.7500000037}},{"attributes":{"ID":603613,"DIS_CODE":0,"TOWNNAME":"官田區","LI":"隆田里","LIN":"22鄰","STREET":"隆西街","SECT":" ","MAREA":" ","LANE":" ","ALLEY":" ","HOUSE_NO":"４３號","E_COORD97":178923.32999999999,"N_COORD97":2565664.0099999998,"ADDRESS":"隆西街４３號","OBJECTID":603586},"geometry":{"x":178923.33000000101,"y":2565664.0099999998}},{"attributes":{"ID":603614,"DIS_CODE":0,"TOWNNAME":"官田區","LI":"隆田里","LIN":"22鄰","STREET":"隆西街","SECT":" ","MAREA":" ","LANE":" ","ALLEY":" ","HOUSE_NO":"４５號","E_COORD97":178920.39999999999,"N_COORD97":2565660.6699999999,"ADDRESS":"隆西街４５號","OBJECTID":603587},"geometry":{"x":178920.40000000037,"y":2565660.6700000037}},{"attributes":{"ID":603615,"DIS_CODE":0,"TOWNNAME":"官田區","LI":"隆田里","LIN":"22鄰","STREET":"隆西街","SECT":" ","MAREA":" ","LANE":" ","ALLEY":" ","HOUSE_NO":"４７號","E_COORD97":178917.73999999999,"N_COORD97":2565657.4500000002,"ADDRESS":"隆西街４７號","OBJECTID":603588},"geometry":{"x":178917.74000000115,"y":2565657.4499999993}},{"attributes":{"ID":603616,"DIS_CODE":0,"TOWNNAME":"官田區","LI":"隆田里","LIN":"22鄰","STREET":"隆西街","SECT":" ","MAREA":" ","LANE":" ","ALLEY":" ","HOUSE_NO":"４９號","E_COORD97":178914.64000000001,"N_COORD97":2565654.9100000001,"ADDRESS":"隆西街４９號","OBJECTID":603589},"geometry":{"x":178914.63999999966,"y":2565654.9100000001}},{"attributes":{"ID":603617,"DIS_CODE":0,"TOWNNAME":"官田區","LI":"隆田里","LIN":"22鄰","STREET":"隆西街","SECT":" ","MAREA":" ","LANE":" ","ALLEY":" ","HOUSE_NO":"５１號","E_COORD97":178912.35000000001,"N_COORD97":2565652.27,"ADDRESS":"隆西街５１號","OBJECTID":603590},"geometry":{"x":178912.35000000149,"y":2565652.2699999996}},{"attributes":{"ID":603618,"DIS_CODE":0,"TOWNNAME":"官田區","LI":"隆田里","LIN":"22鄰","STREET":"隆西街","SECT":" ","MAREA":" ","LANE":" ","ALLEY":" ","HOUSE_NO":"５５號","E_COORD97":178928.17999999999,"N_COORD97":2565643.7000000002,"ADDRESS":"隆西街５５號","OBJECTID":603591},"geometry":{"x":178928.1799999997,"y":2565643.7000000011}},{"attributes":{"ID":603619,"DIS_CODE":0,"TOWNNAME":"官田區","LI":"隆田里","LIN":"22鄰","STREET":"隆西街","SECT":" ","MAREA":" ","LANE":" ","ALLEY":" ","HOUSE_NO":"５７號","E_COORD97":178932.57000000001,"N_COORD97":2565638.77,"ADDRESS":"隆西街５７號","OBJECTID":603592},"geometry":{"x":178932.57000000123,"y":2565638.7699999977}},{"attributes":{"ID":603620,"DIS_CODE":0,"TOWNNAME":"官田區","LI":"隆田里","LIN":"22鄰","STREET":"隆西街","SECT":" ","MAREA":" ","LANE":" ","ALLEY":" ","HOUSE_NO":"５９號","E_COORD97":178904.64999999999,"N_COORD97":2565646.5499999998,"ADDRESS":"隆西街５９號","OBJECTID":603593},"geometry":{"x":178904.6500000013,"y":2565646.5500000026}},{"attributes":{"ID":603621,"DIS_CODE":0,"TOWNNAME":"官田區","LI":"隆田里","LIN":"22鄰","STREET":"裕農路","SECT":" ","MAREA":" ","LANE":" ","ALLEY":" ","HOUSE_NO":"１９８號","E_COORD97":179663.45999999999,"N_COORD97":2565044.0600000001,"ADDRESS":"裕農路１９８號","OBJECTID":603594},"geometry":{"x":179663.46000000089,"y":2565044.0600000005}},{"attributes":{"ID":603622,"DIS_CODE":0,"TOWNNAME":"東區","LI":"大同里","LIN":"22鄰","STREET":"大同路","SECT":"一段","MAREA":" ","LANE":" ","ALLEY":" ","HOUSE_NO":"２０１號","E_COORD97":169141.57000000001,"N_COORD97":2542718.6800000002,"ADDRESS":"大同路一段２０１號","OBJECTID":603595},"geometry":{"x":169141.5700000003,"y":2542718.6800000016}},{"attributes":{"ID":603623,"DIS_CODE":0,"TOWNNAME":"東區","LI":"大同里","LIN":"22鄰","STREET":"大同路","SECT":"一段","MAREA":" ","LANE":" ","ALLEY":" ","HOUSE_NO":"２０５號","E_COORD97":169139.67999999999,"N_COORD97":2542711.52,"ADDRESS":"大同路一段２０５號","OBJECTID":603596},"geometry":{"x":169139.68000000063,"y":2542711.5200000033}},{"attributes":{"ID":603624,"DIS_CODE":0,"TOWNNAME":"東區","LI":"大同里","LIN":"22鄰","STREET":"大同路","SECT":"一段","MAREA":" ","LANE":" ","ALLEY":" ","HOUSE_NO":"２１７號","E_COORD97":169139.31,"N_COORD97":2542691.0299999998,"ADDRESS":"大同路一段２１７號","OBJECTID":603597},"geometry":{"x":169139.30999999959,"y":2542691.0300000031}},{"attributes":{"ID":603625,"DIS_CODE":0,"TOWNNAME":"東區","LI":"大同里","LIN":"22鄰","STREET":"大同路","SECT":"一段","MAREA":" ","LANE":" ","ALLEY":" ","HOUSE_NO":"２１９號","E_COORD97":169139.92999999999,"N_COORD97":2542686.2599999998,"ADDRESS":"大同路一段２１９號","OBJECTID":603598},"geometry":{"x":169139.9299999997,"y":2542686.2599999979}},{"attributes":{"ID":603626,"DIS_CODE":0,"TOWNNAME":"東區","LI":"大同里","LIN":"22鄰","STREET":"大同路","SECT":"一段","MAREA":" ","LANE":" ","ALLEY":" ","HOUSE_NO":"２２１號","E_COORD97":169139.67999999999,"N_COORD97":2542681.54,"ADDRESS":"大同路一段２２１號","OBJECTID":603599},"geometry":{"x":169139.68000000063,"y":2542681.540000001}},{"attributes":{"ID":603627,"DIS_CODE":0,"TOWNNAME":"東區","LI":"大同里","LIN":"22鄰","STREET":"大同路","SECT":"一段","MAREA":" ","LANE":" ","ALLEY":" ","HOUSE_NO":"２２１號之１","E_COORD97":169139.17999999999,"N_COORD97":2542676.8900000001,"ADDRESS":"大同路一段２２１號之１","OBJECTID":603600},"geometry":{"x":169139.18000000063,"y":2542676.8900000025}}]}