{"displayFieldName":"TOWNNAME","fieldAliases":{"ID":"ID","DIS_CODE":"DIS_CODE","TOWNNAME":"TOWNNAME","LI":"LI","LIN":"LIN","STREET":"STREET","SECT":"SECT","MAREA":"MAREA","LANE":"LANE","ALLEY":"ALLEY","HOUSE_NO":"HOUSE_NO","E_COORD97":"E_COORD97","N_COORD97":"N_COORD97","ADDRESS":"ADDRESS","OBJECTID":"OBJECTID"},"geometryType":"esriGeometryPoint","spatialReference":{"wkid":102443,"latestWkid":3826},"fields":[{"name":"ID","type":"esriFieldTypeDouble","alias":"ID"},{"name":"DIS_CODE","type":"esriFieldTypeInteger","alias":"DIS_CODE"},{"name":"TOWNNAME","type":"esriFieldTypeString","alias":"TOWNNAME","length":8},{"name":"LI","type":"esriFieldTypeString","alias":"LI","length":8},{"name":"LIN","type":"esriFieldTypeString","alias":"LIN","length":12},{"name":"STREET","type":"esriFieldTypeString","alias":"STREET","length":20},{"name":"SECT","type":"esriFieldTypeString","alias":"SECT","length":8},{"name":"MAREA","type":"esriFieldTypeString","alias":"MAREA","length":12},{"name":"LANE","type":"esriFieldTypeString","alias":"LANE","length":10},{"name":"ALLEY","type":"esriFieldTypeString","alias":"ALLEY","length":10},{"name":"HOUSE_NO","type":"esriFieldTypeString","alias":"HOUSE_NO","length":20},{"name":"E_COORD97","type":"esriFieldTypeDouble","alias":"E_COORD97"},{"name":"N_COORD97","type":"esriFieldTypeDouble","alias":"N_COORD97"},{"name":"ADDRESS","type":"esriFieldTypeString","alias":"ADDRESS","length":50},{"name":"OBJECTID","type":"esriFieldTypeOID","alias":"OBJECTID"}],"features":[{"attributes":{"ID":273806,"DIS_CODE":0,"TOWNNAME":"東區","LI":"崇明里","LIN":"7鄰","STREET":"大同路","SECT":"二段","MAREA":" ","LANE":"４４９巷","ALLEY":" ","HOUSE_NO":"１６號","E_COORD97":169671.48999999999,"N_COORD97":2541321.2799999998,"ADDRESS":"大同路二段４４９巷１６號","OBJECTID":273801},"geometry":{"x":169671.49000000209,"y":2541321.2799999993}},{"attributes":{"ID":273807,"DIS_CODE":0,"TOWNNAME":"東區","LI":"崇明里","LIN":"7鄰","STREET":"大同路","SECT":"二段","MAREA":" ","LANE":"４４９巷","ALLEY":" ","HOUSE_NO":"２４號","E_COORD97":169711.67000000001,"N_COORD97":2541348.2200000002,"ADDRESS":"大同路二段４４９巷２４號","OBJECTID":273802},"geometry":{"x":169711.66999999993,"y":2541348.2199999988}},{"attributes":{"ID":273808,"DIS_CODE":0,"TOWNNAME":"新化區","LI":"\u25A0拔里","LIN":"3鄰","STREET":" ","SECT":" ","MAREA":"\u25A0拔林","LANE":" ","ALLEY":" ","HOUSE_NO":"１１８號","E_COORD97":183649.72,"N_COORD97":2552136.25,"ADDRESS":"\u25A0拔林１１８號","OBJECTID":273803},"geometry":{"x":183649.7200000016,"y":2552136.2500000019}},{"attributes":{"ID":273809,"DIS_CODE":0,"TOWNNAME":"東區","LI":"崇明里","LIN":"7鄰","STREET":"大同路","SECT":"二段","MAREA":" ","LANE":"４４９巷","ALLEY":" ","HOUSE_NO":"３４號","E_COORD97":169746.42999999999,"N_COORD97":2541372.9100000001,"ADDRESS":"大同路二段４４９巷３４號","OBJECTID":273804},"geometry":{"x":169746.43000000063,"y":2541372.9100000001}},{"attributes":{"ID":273810,"DIS_CODE":0,"TOWNNAME":"東區","LI":"崇明里","LIN":"7鄰","STREET":"大同路","SECT":"二段","MAREA":" ","LANE":"４４９巷","ALLEY":" ","HOUSE_NO":"３６號","E_COORD97":169752.12,"N_COORD97":2541377.9300000002,"ADDRESS":"大同路二段４４９巷３６號","OBJECTID":273805},"geometry":{"x":169752.12000000104,"y":2541377.9300000016}},{"attributes":{"ID":273811,"DIS_CODE":0,"TOWNNAME":"東區","LI":"崇明里","LIN":"7鄰","STREET":"大同路","SECT":"二段","MAREA":" ","LANE":"４４９巷","ALLEY":" ","HOUSE_NO":"３８號","E_COORD97":169754.63,"N_COORD97":2541380.4300000002,"ADDRESS":"大同路二段４４９巷３８號","OBJECTID":273806},"geometry":{"x":169754.62999999989,"y":2541380.4300000016}},{"attributes":{"ID":273812,"DIS_CODE":0,"TOWNNAME":"東區","LI":"崇明里","LIN":"7鄰","STREET":"大同路","SECT":"二段","MAREA":" ","LANE":"４４９巷","ALLEY":" ","HOUSE_NO":"４０號","E_COORD97":169758.64999999999,"N_COORD97":2541383.6200000001,"ADDRESS":"大同路二段４４９巷４０號","OBJECTID":273807},"geometry":{"x":169758.65000000224,"y":2541383.6200000048}},{"attributes":{"ID":273813,"DIS_CODE":0,"TOWNNAME":"東區","LI":"崇明里","LIN":"7鄰","STREET":"大同路","SECT":"二段","MAREA":" ","LANE":"４４９巷","ALLEY":" ","HOUSE_NO":"４２號","E_COORD97":169763,"N_COORD97":2541387.1299999999,"ADDRESS":"大同路二段４４９巷４２號","OBJECTID":273808},"geometry":{"x":169763.00000000093,"y":2541387.129999999}},{"attributes":{"ID":273814,"DIS_CODE":0,"TOWNNAME":"安南區","LI":"溪心里","LIN":"7鄰","STREET":"台江大道","SECT":"三段","MAREA":" ","LANE":"１４５巷","ALLEY":" ","HOUSE_NO":"５０號","E_COORD97":166410.54000000001,"N_COORD97":2551147.0800000001,"ADDRESS":"台江大道三段１４５巷５０號","OBJECTID":273809},"geometry":{"x":166410.54000000004,"y":2551147.0800000038}},{"attributes":{"ID":273815,"DIS_CODE":0,"TOWNNAME":"南區","LI":"同安里","LIN":"8鄰","STREET":"灣裡路","SECT":" ","MAREA":" ","LANE":"３５１巷","ALLEY":" ","HOUSE_NO":"１１號之２","E_COORD97":166260.48999999999,"N_COORD97":2536209.0499999998,"ADDRESS":"灣裡路３５１巷１１號之２","OBJECTID":273810},"geometry":{"x":166260.49000000022,"y":2536209.0500000007}},{"attributes":{"ID":273816,"DIS_CODE":0,"TOWNNAME":"南區","LI":"白雪里","LIN":"4鄰","STREET":"鹽埕路","SECT":" ","MAREA":" ","LANE":"１９３巷","ALLEY":" ","HOUSE_NO":"３號之１","E_COORD97":166828.54000000001,"N_COORD97":2541120,"ADDRESS":"鹽埕路１９３巷３號之１","OBJECTID":273811},"geometry":{"x":166828.54000000097,"y":2541120.0000000019}},{"attributes":{"ID":273817,"DIS_CODE":0,"TOWNNAME":"南區","LI":"白雪里","LIN":"4鄰","STREET":"鹽埕路","SECT":" ","MAREA":" ","LANE":"１９３巷","ALLEY":" ","HOUSE_NO":"３號之２","E_COORD97":166833.53,"N_COORD97":2541118.96,"ADDRESS":"鹽埕路１９３巷３號之２","OBJECTID":273812},"geometry":{"x":166833.53000000212,"y":2541118.9600000009}},{"attributes":{"ID":273818,"DIS_CODE":0,"TOWNNAME":"南區","LI":"日新里","LIN":"8鄰","STREET":"金華路","SECT":"一段","MAREA":" ","LANE":"５０３巷","ALLEY":" ","HOUSE_NO":"６５號","E_COORD97":166910.35999999999,"N_COORD97":2541585.0299999998,"ADDRESS":"金華路一段５０３巷６５號","OBJECTID":273813},"geometry":{"x":166910.36000000034,"y":2541585.0299999993}},{"attributes":{"ID":273819,"DIS_CODE":0,"TOWNNAME":"安南區","LI":"東和里","LIN":"7鄰","STREET":"環館三路","SECT":" ","MAREA":" ","LANE":"１３巷","ALLEY":" ","HOUSE_NO":"３２號","E_COORD97":171457.32999999999,"N_COORD97":2551600.48,"ADDRESS":"環館三路１３巷３２號","OBJECTID":273814},"geometry":{"x":171457.32999999914,"y":2551600.4800000023}},{"attributes":{"ID":273820,"DIS_CODE":0,"TOWNNAME":"永康區","LI":"埔園里","LIN":"3鄰","STREET":"聖龍街","SECT":" ","MAREA":" ","LANE":" ","ALLEY":" ","HOUSE_NO":"５２號","E_COORD97":173908.37,"N_COORD97":2547796,"ADDRESS":"聖龍街５２號","OBJECTID":273815},"geometry":{"x":173908.36999999918,"y":2547796.0000000019}},{"attributes":{"ID":273821,"DIS_CODE":0,"TOWNNAME":"新營區","LI":"埤寮里","LIN":"1鄰","STREET":"中正路","SECT":" ","MAREA":" ","LANE":" ","ALLEY":" ","HOUSE_NO":"５７９之３號","E_COORD97":180072.99226599999,"N_COORD97":2580966.1885199999,"ADDRESS":"中正路５７９之３號","OBJECTID":273816},"geometry":{"x":180072.99226600118,"y":2580966.1885210015}},{"attributes":{"ID":273822,"DIS_CODE":0,"TOWNNAME":"安南區","LI":"東和里","LIN":"7鄰","STREET":"環館三路","SECT":" ","MAREA":" ","LANE":"１３巷","ALLEY":" ","HOUSE_NO":"３６號","E_COORD97":171449.92000000001,"N_COORD97":2551597.5099999998,"ADDRESS":"環館三路１３巷３６號","OBJECTID":273817},"geometry":{"x":171449.92000000179,"y":2551597.5099999998}},{"attributes":{"ID":273823,"DIS_CODE":0,"TOWNNAME":"安南區","LI":"東和里","LIN":"7鄰","STREET":"環館三路","SECT":" ","MAREA":" ","LANE":"１３巷","ALLEY":" ","HOUSE_NO":"３８號","E_COORD97":171442.72,"N_COORD97":2551597.5099999998,"ADDRESS":"環館三路１３巷３８號","OBJECTID":273818},"geometry":{"x":171442.72000000067,"y":2551597.5099999998}},{"attributes":{"ID":273824,"DIS_CODE":0,"TOWNNAME":"南區","LI":"松安里","LIN":"3鄰","STREET":"省躬三街","SECT":" ","MAREA":" ","LANE":" ","ALLEY":" ","HOUSE_NO":"３１３號","E_COORD97":165835.06,"N_COORD97":2536247.2000000002,"ADDRESS":"省躬三街３１３號","OBJECTID":273819},"geometry":{"x":165835.05999999959,"y":2536247.1999999993}},{"attributes":{"ID":273825,"DIS_CODE":0,"TOWNNAME":"安南區","LI":"東和里","LIN":"7鄰","STREET":"環館三路","SECT":" ","MAREA":" ","LANE":"１３巷","ALLEY":" ","HOUSE_NO":"４０號","E_COORD97":171436.19,"N_COORD97":2551595.1800000002,"ADDRESS":"環館三路１３巷４０號","OBJECTID":273820},"geometry":{"x":171436.19000000041,"y":2551595.1799999997}},{"attributes":{"ID":273826,"DIS_CODE":0,"TOWNNAME":"永康區","LI":"尚頂里","LIN":"3鄰","STREET":"中正二街","SECT":" ","MAREA":" ","LANE":"１８２巷","ALLEY":" ","HOUSE_NO":"５３號","E_COORD97":171467.88,"N_COORD97":2547589,"ADDRESS":"中正二街１８２巷５３號","OBJECTID":273821},"geometry":{"x":171467.88000000082,"y":2547589.0000000019}},{"attributes":{"ID":273827,"DIS_CODE":0,"TOWNNAME":"新化區","LI":"全興里","LIN":"3鄰","STREET":" ","SECT":" ","MAREA":"竹子\u25A0","LANE":" ","ALLEY":" ","HOUSE_NO":"３９號之１","E_COORD97":177624.60999999999,"N_COORD97":2547844.2599999998,"ADDRESS":"竹子\u25A0３９號之１","OBJECTID":273822},"geometry":{"x":177624.6100000022,"y":2547844.2600000016}},{"attributes":{"ID":273828,"DIS_CODE":0,"TOWNNAME":"新化區","LI":"竹林里","LIN":"3鄰","STREET":"民權街","SECT":" ","MAREA":" ","LANE":" ","ALLEY":" ","HOUSE_NO":"２號","E_COORD97":178768.51000000001,"N_COORD97":2548437.25,"ADDRESS":"民權街２號","OBJECTID":273823},"geometry":{"x":178768.50999999978,"y":2548437.2500000019}},{"attributes":{"ID":273829,"DIS_CODE":0,"TOWNNAME":"新化區","LI":"全興里","LIN":"3鄰","STREET":" ","SECT":" ","MAREA":"竹子\u25A0","LANE":" ","ALLEY":" ","HOUSE_NO":"５４號之１","E_COORD97":177613.31,"N_COORD97":2547796.2599999998,"ADDRESS":"竹子\u25A0５４號之１","OBJECTID":273824},"geometry":{"x":177613.30999999959,"y":2547796.2600000016}},{"attributes":{"ID":273830,"DIS_CODE":0,"TOWNNAME":"西港區","LI":"新復里","LIN":"3鄰","STREET":" ","SECT":" ","MAREA":"新港","LANE":" ","ALLEY":" ","HOUSE_NO":"１９號之１","E_COORD97":166615.85000000001,"N_COORD97":2556376.6099999999,"ADDRESS":"新港１９號之１","OBJECTID":273825},"geometry":{"x":166615.85000000056,"y":2556376.6099999994}},{"attributes":{"ID":273831,"DIS_CODE":0,"TOWNNAME":"白河區","LI":"關嶺里","LIN":"3鄰","STREET":" ","SECT":" ","MAREA":"關子嶺","LANE":" ","ALLEY":" ","HOUSE_NO":"４５之２０號","E_COORD97":199170.95000000001,"N_COORD97":2581565.71,"ADDRESS":"關子嶺４５之２０號","OBJECTID":273826},"geometry":{"x":199170.95000000019,"y":2581565.7100000028}},{"attributes":{"ID":273832,"DIS_CODE":0,"TOWNNAME":"白河區","LI":"關嶺里","LIN":"3鄰","STREET":" ","SECT":" ","MAREA":"關子嶺","LANE":" ","ALLEY":" ","HOUSE_NO":"４５之２１號","E_COORD97":199166.34,"N_COORD97":2581569.73,"ADDRESS":"關子嶺４５之２１號","OBJECTID":273827},"geometry":{"x":199166.33999999985,"y":2581569.7300000023}},{"attributes":{"ID":273833,"DIS_CODE":0,"TOWNNAME":"白河區","LI":"關嶺里","LIN":"3鄰","STREET":" ","SECT":" ","MAREA":"關子嶺","LANE":" ","ALLEY":" ","HOUSE_NO":"４５之２２號","E_COORD97":199161.89000000001,"N_COORD97":2581573.5899999999,"ADDRESS":"關子嶺４５之２２號","OBJECTID":273828},"geometry":{"x":199161.8900000006,"y":2581573.5900000017}},{"attributes":{"ID":273834,"DIS_CODE":0,"TOWNNAME":"白河區","LI":"關嶺里","LIN":"3鄰","STREET":" ","SECT":" ","MAREA":"關子嶺","LANE":" ","ALLEY":" ","HOUSE_NO":"４５號","E_COORD97":199237.91,"N_COORD97":2581536.8199999998,"ADDRESS":"關子嶺４５號","OBJECTID":273829},"geometry":{"x":199237.91000000108,"y":2581536.820000004}},{"attributes":{"ID":273835,"DIS_CODE":0,"TOWNNAME":"新營區","LI":"三仙里","LIN":"25鄰","STREET":"育德一街","SECT":" ","MAREA":" ","LANE":" ","ALLEY":" ","HOUSE_NO":"１２號","E_COORD97":179573.01999999999,"N_COORD97":2578942.4199999999,"ADDRESS":"育德一街１２號","OBJECTID":273830},"geometry":{"x":179573.01999999955,"y":2578942.4200000037}},{"attributes":{"ID":273836,"DIS_CODE":0,"TOWNNAME":"東區","LI":"龍山里","LIN":"3鄰","STREET":"崇仁街","SECT":" ","MAREA":" ","LANE":" ","ALLEY":" ","HOUSE_NO":"１之１號","E_COORD97":170289.85999999999,"N_COORD97":2542803.6699999999,"ADDRESS":"崇仁街１之１號","OBJECTID":273831},"geometry":{"x":170289.86000000127,"y":2542803.6700000018}},{"attributes":{"ID":273837,"DIS_CODE":0,"TOWNNAME":"永康區","LI":"\u25A0行里","LIN":"3鄰","STREET":"中正路","SECT":" ","MAREA":" ","LANE":" ","ALLEY":" ","HOUSE_NO":"８７６號","E_COORD97":172087.54000000001,"N_COORD97":2548820.5499999998,"ADDRESS":"中正路８７６號","OBJECTID":273832},"geometry":{"x":172087.54000000004,"y":2548820.5500000007}},{"attributes":{"ID":273838,"DIS_CODE":0,"TOWNNAME":"永康區","LI":"\u25A0洲里","LIN":"3鄰","STREET":"\u25A0洲二街","SECT":" ","MAREA":" ","LANE":" ","ALLEY":" ","HOUSE_NO":"１７０號","E_COORD97":171676.26000000001,"N_COORD97":2549345.46,"ADDRESS":"\u25A0洲二街１７０號","OBJECTID":273833},"geometry":{"x":171676.26000000164,"y":2549345.4600000028}},{"attributes":{"ID":273839,"DIS_CODE":0,"TOWNNAME":"安南區","LI":"東和里","LIN":"7鄰","STREET":"環館三路","SECT":" ","MAREA":" ","LANE":"１３巷","ALLEY":" ","HOUSE_NO":"４６號","E_COORD97":171422.32000000001,"N_COORD97":2551592.8199999998,"ADDRESS":"環館三路１３巷４６號","OBJECTID":273834},"geometry":{"x":171422.32000000123,"y":2551592.8200000003}},{"attributes":{"ID":273840,"DIS_CODE":0,"TOWNNAME":"永康區","LI":"龍潭里","LIN":"3鄰","STREET":"龍國街","SECT":" ","MAREA":" ","LANE":" ","ALLEY":" ","HOUSE_NO":"２３９號","E_COORD97":174515.51000000001,"N_COORD97":2548049,"ADDRESS":"龍國街２３９號","OBJECTID":273835},"geometry":{"x":174515.50999999978,"y":2548049.0000000019}},{"attributes":{"ID":273841,"DIS_CODE":0,"TOWNNAME":"安南區","LI":"東和里","LIN":"7鄰","STREET":"環館三路","SECT":" ","MAREA":" ","LANE":"１３巷","ALLEY":" ","HOUSE_NO":"５０號","E_COORD97":171407.48000000001,"N_COORD97":2551590.2999999998,"ADDRESS":"環館三路１３巷５０號","OBJECTID":273836},"geometry":{"x":171407.48000000045,"y":2551590.3000000045}},{"attributes":{"ID":273842,"DIS_CODE":0,"TOWNNAME":"安南區","LI":"大安里","LIN":"7鄰","STREET":"大安街","SECT":" ","MAREA":" ","LANE":"１６６巷","ALLEY":" ","HOUSE_NO":"１３號","E_COORD97":167396.04000000001,"N_COORD97":2548193.4300000002,"ADDRESS":"大安街１６６巷１３號","OBJECTID":273837},"geometry":{"x":167396.0400000019,"y":2548193.4299999997}},{"attributes":{"ID":273843,"DIS_CODE":0,"TOWNNAME":"善化區","LI":"光文里","LIN":"7鄰","STREET":"光文路","SECT":" ","MAREA":" ","LANE":"３９巷","ALLEY":" ","HOUSE_NO":"２９號","E_COORD97":178936.29000000001,"N_COORD97":2559497.7799999998,"ADDRESS":"光文路３９巷２９號","OBJECTID":273838},"geometry":{"x":178936.29000000004,"y":2559497.7799999993}},{"attributes":{"ID":273844,"DIS_CODE":0,"TOWNNAME":"善化區","LI":"南關里","LIN":"7鄰","STREET":"三民路","SECT":" ","MAREA":" ","LANE":"南興巷","ALLEY":" ","HOUSE_NO":"２５號","E_COORD97":176909.73000000001,"N_COORD97":2558606.2599999998,"ADDRESS":"三民路南興巷２５號","OBJECTID":273839},"geometry":{"x":176909.73000000045,"y":2558606.2599999998}},{"attributes":{"ID":273845,"DIS_CODE":0,"TOWNNAME":"永康區","LI":"蔦松里","LIN":"7鄰","STREET":"蔦松一街","SECT":" ","MAREA":" ","LANE":"２２巷","ALLEY":" ","HOUSE_NO":"１５號","E_COORD97":174066.25,"N_COORD97":2549454.9199999999,"ADDRESS":"蔦松一街２２巷１５號","OBJECTID":273840},"geometry":{"x":174066.25,"y":2549454.9199999999}},{"attributes":{"ID":273846,"DIS_CODE":0,"TOWNNAME":"永康區","LI":"蔦松里","LIN":"7鄰","STREET":"蔦松一街","SECT":" ","MAREA":" ","LANE":"１４巷","ALLEY":" ","HOUSE_NO":"１０號","E_COORD97":174056.54999999999,"N_COORD97":2549381.7599999998,"ADDRESS":"蔦松一街１４巷１０號","OBJECTID":273841},"geometry":{"x":174056.55000000075,"y":2549381.7599999998}},{"attributes":{"ID":273847,"DIS_CODE":0,"TOWNNAME":"永康區","LI":"龍潭里","LIN":"7鄰","STREET":"龍潭街","SECT":" ","MAREA":" ","LANE":"１５１巷","ALLEY":" ","HOUSE_NO":"２４號","E_COORD97":174814.69,"N_COORD97":2548273.96,"ADDRESS":"龍潭街１５１巷２４號","OBJECTID":273842},"geometry":{"x":174814.69000000041,"y":2548273.9600000028}},{"attributes":{"ID":273848,"DIS_CODE":0,"TOWNNAME":"永康區","LI":"龍潭里","LIN":"7鄰","STREET":"龍潭街","SECT":" ","MAREA":" ","LANE":"１３９巷","ALLEY":" ","HOUSE_NO":"５號","E_COORD97":174828.41,"N_COORD97":2548229.1400000001,"ADDRESS":"龍潭街１３９巷５號","OBJECTID":273843},"geometry":{"x":174828.41000000015,"y":2548229.1400000025}},{"attributes":{"ID":273849,"DIS_CODE":0,"TOWNNAME":"永康區","LI":"蔦松里","LIN":"7鄰","STREET":"蔦松一街","SECT":" ","MAREA":" ","LANE":"２２巷","ALLEY":" ","HOUSE_NO":"１４號","E_COORD97":174049.01999999999,"N_COORD97":2549414.98,"ADDRESS":"蔦松一街２２巷１４號","OBJECTID":273844},"geometry":{"x":174049.01999999955,"y":2549414.9800000004}},{"attributes":{"ID":273850,"DIS_CODE":0,"TOWNNAME":"永康區","LI":"\u25A0行里","LIN":"7鄰","STREET":"中正五街","SECT":" ","MAREA":" ","LANE":"１１巷","ALLEY":" ","HOUSE_NO":"８號","E_COORD97":172579.35000000001,"N_COORD97":2548627.5,"ADDRESS":"中正五街１１巷８號","OBJECTID":273845},"geometry":{"x":172579.35000000056,"y":2548627.5}},{"attributes":{"ID":273851,"DIS_CODE":0,"TOWNNAME":"永康區","LI":"\u25A0行里","LIN":"7鄰","STREET":"中正路","SECT":" ","MAREA":" ","LANE":"５４２巷","ALLEY":" ","HOUSE_NO":"５號","E_COORD97":172626.42999999999,"N_COORD97":2548423.25,"ADDRESS":"中正路５４２巷５號","OBJECTID":273846},"geometry":{"x":172626.43000000063,"y":2548423.2500000037}},{"attributes":{"ID":273852,"DIS_CODE":0,"TOWNNAME":"永康區","LI":"龍潭里","LIN":"3鄰","STREET":"龍國街","SECT":" ","MAREA":" ","LANE":" ","ALLEY":" ","HOUSE_NO":"３０１號","E_COORD97":174659.01999999999,"N_COORD97":2548025.1000000001,"ADDRESS":"龍國街３０１號","OBJECTID":273847},"geometry":{"x":174659.01999999955,"y":2548025.1000000015}},{"attributes":{"ID":273853,"DIS_CODE":0,"TOWNNAME":"善化區","LI":"六分里","LIN":"3鄰","STREET":" ","SECT":" ","MAREA":"東勢宅","LANE":" ","ALLEY":" ","HOUSE_NO":"６號","E_COORD97":177900.12,"N_COORD97":2561083.0099999998,"ADDRESS":"東勢宅６號","OBJECTID":273848},"geometry":{"x":177900.12000000011,"y":2561083.0099999998}},{"attributes":{"ID":273854,"DIS_CODE":0,"TOWNNAME":"官田區","LI":"官田里","LIN":"3鄰","STREET":" ","SECT":" ","MAREA":"官田","LANE":" ","ALLEY":" ","HOUSE_NO":"２２號之３","E_COORD97":182550.87,"N_COORD97":2565220.0299999998,"ADDRESS":"官田２２號之３","OBJECTID":273849},"geometry":{"x":182550.87000000104,"y":2565220.0300000031}},{"attributes":{"ID":273855,"DIS_CODE":0,"TOWNNAME":"仁德區","LI":"三甲里","LIN":"3鄰","STREET":" ","SECT":" ","MAREA":"三甲子","LANE":" ","ALLEY":" ","HOUSE_NO":"２８號","E_COORD97":171831.64000000001,"N_COORD97":2536847.4900000002,"ADDRESS":"三甲子２８號","OBJECTID":273850},"geometry":{"x":171831.6400000006,"y":2536847.4900000021}},{"attributes":{"ID":273856,"DIS_CODE":0,"TOWNNAME":"仁德區","LI":"中洲里","LIN":"3鄰","STREET":" ","SECT":" ","MAREA":"中洲","LANE":" ","ALLEY":" ","HOUSE_NO":"２８之８號","E_COORD97":173251.14999999999,"N_COORD97":2534397.2999999998,"ADDRESS":"中洲２８之８號","OBJECTID":273851},"geometry":{"x":173251.1500000013,"y":2534397.3000000007}},{"attributes":{"ID":273857,"DIS_CODE":0,"TOWNNAME":"永康區","LI":"\u25A0行里","LIN":"7鄰","STREET":"中正五街","SECT":" ","MAREA":" ","LANE":"５３巷","ALLEY":" ","HOUSE_NO":"６號","E_COORD97":172691.48000000001,"N_COORD97":2548519.75,"ADDRESS":"中正五街５３巷６號","OBJECTID":273852},"geometry":{"x":172691.48000000138,"y":2548519.7500000019}},{"attributes":{"ID":273858,"DIS_CODE":0,"TOWNNAME":"永康區","LI":"\u25A0行里","LIN":"7鄰","STREET":"中正五街","SECT":" ","MAREA":" ","LANE":"１１巷","ALLEY":" ","HOUSE_NO":"１６號","E_COORD97":172644.26999999999,"N_COORD97":2548644.4900000002,"ADDRESS":"中正五街１１巷１６號","OBJECTID":273853},"geometry":{"x":172644.27000000048,"y":2548644.4900000002}},{"attributes":{"ID":273859,"DIS_CODE":0,"TOWNNAME":"東區","LI":"和平里","LIN":"7鄰","STREET":"東門路","SECT":"三段","MAREA":" ","LANE":"２２６巷","ALLEY":" ","HOUSE_NO":"７７號","E_COORD97":171528.32999999999,"N_COORD97":2541854.7400000002,"ADDRESS":"東門路三段２２６巷７７號","OBJECTID":273854},"geometry":{"x":171528.33000000007,"y":2541854.7400000002}},{"attributes":{"ID":273860,"DIS_CODE":0,"TOWNNAME":"東區","LI":"和平里","LIN":"7鄰","STREET":"東門路","SECT":"三段","MAREA":" ","LANE":"２２６巷","ALLEY":" ","HOUSE_NO":"７９號","E_COORD97":171523.07000000001,"N_COORD97":2541855.6899999999,"ADDRESS":"東門路三段２２６巷７９號","OBJECTID":273855},"geometry":{"x":171523.0700000003,"y":2541855.6899999976}},{"attributes":{"ID":273861,"DIS_CODE":0,"TOWNNAME":"白河區","LI":"甘宅里","LIN":"3鄰","STREET":" ","SECT":" ","MAREA":"甘宅","LANE":" ","ALLEY":" ","HOUSE_NO":"２７號","E_COORD97":192827.17999999999,"N_COORD97":2586746.52,"ADDRESS":"甘宅２７號","OBJECTID":273856},"geometry":{"x":192827.1799999997,"y":2586746.5200000014}},{"attributes":{"ID":273862,"DIS_CODE":0,"TOWNNAME":"安南區","LI":"東和里","LIN":"7鄰","STREET":"環館三路","SECT":" ","MAREA":" ","LANE":"１３巷","ALLEY":" ","HOUSE_NO":"３１號","E_COORD97":171442.226906,"N_COORD97":2551570.6220800001,"ADDRESS":"環館三路１３巷３１號","OBJECTID":273857},"geometry":{"x":171442.22690599971,"y":2551570.6220769994}},{"attributes":{"ID":273863,"DIS_CODE":0,"TOWNNAME":"東區","LI":"和平里","LIN":"7鄰","STREET":"東門路","SECT":"三段","MAREA":" ","LANE":"２６２巷","ALLEY":" ","HOUSE_NO":"６號","E_COORD97":171624.73000000001,"N_COORD97":2541834.2000000002,"ADDRESS":"東門路三段２６２巷６號","OBJECTID":273858},"geometry":{"x":171624.73000000231,"y":2541834.1999999993}},{"attributes":{"ID":273864,"DIS_CODE":0,"TOWNNAME":"新化區","LI":"崙頂里","LIN":"3鄰","STREET":" ","SECT":" ","MAREA":"崙子頂","LANE":" ","ALLEY":" ","HOUSE_NO":"１１１號","E_COORD97":176797.63,"N_COORD97":2546748.25,"ADDRESS":"崙子頂１１１號","OBJECTID":273859},"geometry":{"x":176797.62999999989,"y":2546748.2499999981}},{"attributes":{"ID":273865,"DIS_CODE":0,"TOWNNAME":"新化區","LI":"崙頂里","LIN":"3鄰","STREET":" ","SECT":" ","MAREA":"崙子頂","LANE":" ","ALLEY":" ","HOUSE_NO":"１５２號之２","E_COORD97":176709.38,"N_COORD97":2546753.2599999998,"ADDRESS":"崙子頂１５２號之２","OBJECTID":273860},"geometry":{"x":176709.38000000082,"y":2546753.2599999998}},{"attributes":{"ID":273866,"DIS_CODE":0,"TOWNNAME":"新化區","LI":"崙頂里","LIN":"3鄰","STREET":" ","SECT":" ","MAREA":"崙子頂","LANE":" ","ALLEY":" ","HOUSE_NO":"１３８號","E_COORD97":176782.53,"N_COORD97":2546739.25,"ADDRESS":"崙子頂１３８號","OBJECTID":273861},"geometry":{"x":176782.53000000212,"y":2546739.2500000019}},{"attributes":{"ID":273867,"DIS_CODE":0,"TOWNNAME":"新化區","LI":"崙頂里","LIN":"3鄰","STREET":" ","SECT":" ","MAREA":"崙子頂","LANE":" ","ALLEY":" ","HOUSE_NO":"１１７號","E_COORD97":176823.42999999999,"N_COORD97":2546669.25,"ADDRESS":"崙子頂１１７號","OBJECTID":273862},"geometry":{"x":176823.43000000156,"y":2546669.25}},{"attributes":{"ID":273868,"DIS_CODE":0,"TOWNNAME":"新化區","LI":"崙頂里","LIN":"3鄰","STREET":" ","SECT":" ","MAREA":"崙子頂","LANE":" ","ALLEY":" ","HOUSE_NO":"１１６號","E_COORD97":176814.73000000001,"N_COORD97":2546684.25,"ADDRESS":"崙子頂１１６號","OBJECTID":273863},"geometry":{"x":176814.73000000045,"y":2546684.2500000037}},{"attributes":{"ID":273869,"DIS_CODE":0,"TOWNNAME":"新化區","LI":"羊林里","LIN":"3鄰","STREET":" ","SECT":" ","MAREA":"\u25A0拔林","LANE":" ","ALLEY":" ","HOUSE_NO":"４２５號之３","E_COORD97":183748.67000000001,"N_COORD97":2551694.2599999998,"ADDRESS":"\u25A0拔林４２５號之３","OBJECTID":273864},"geometry":{"x":183748.67000000086,"y":2551694.2599999998}},{"attributes":{"ID":273870,"DIS_CODE":0,"TOWNNAME":"東區","LI":"和平里","LIN":"7鄰","STREET":"東門路","SECT":"三段","MAREA":" ","LANE":"２６２巷","ALLEY":" ","HOUSE_NO":"８號","E_COORD97":171607.78,"N_COORD97":2541836.8500000001,"ADDRESS":"東門路三段２６２巷８號","OBJECTID":273865},"geometry":{"x":171607.78000000119,"y":2541836.8499999996}},{"attributes":{"ID":273871,"DIS_CODE":0,"TOWNNAME":"東區","LI":"富強里","LIN":"7鄰","STREET":"裕農路","SECT":" ","MAREA":" ","LANE":"４４６巷","ALLEY":" ","HOUSE_NO":"１２５號","E_COORD97":171263.35999999999,"N_COORD97":2542891.0499999998,"ADDRESS":"裕農路４４６巷１２５號","OBJECTID":273866},"geometry":{"x":171263.36000000127,"y":2542891.0500000007}},{"attributes":{"ID":273872,"DIS_CODE":0,"TOWNNAME":"東區","LI":"富強里","LIN":"7鄰","STREET":"裕農路","SECT":" ","MAREA":" ","LANE":"４４６巷","ALLEY":" ","HOUSE_NO":"１２５號之１","E_COORD97":171263.48999999999,"N_COORD97":2542895.23,"ADDRESS":"裕農路４４６巷１２５號之１","OBJECTID":273867},"geometry":{"x":171263.49000000115,"y":2542895.2300000023}},{"attributes":{"ID":273873,"DIS_CODE":0,"TOWNNAME":"東區","LI":"富強里","LIN":"7鄰","STREET":"裕農路","SECT":" ","MAREA":" ","LANE":"４４６巷","ALLEY":" ","HOUSE_NO":"１２５號之１０","E_COORD97":171262.95999999999,"N_COORD97":2542922.8700000001,"ADDRESS":"裕農路４４６巷１２５號之１０","OBJECTID":273868},"geometry":{"x":171262.95999999996,"y":2542922.870000001}},{"attributes":{"ID":273874,"DIS_CODE":0,"TOWNNAME":"東區","LI":"富強里","LIN":"7鄰","STREET":"裕農路","SECT":" ","MAREA":" ","LANE":"４４６巷","ALLEY":" ","HOUSE_NO":"１２５號之１１","E_COORD97":171262.04999999999,"N_COORD97":2542927.1899999999,"ADDRESS":"裕農路４４６巷１２５號之１１","OBJECTID":273869},"geometry":{"x":171262.04999999981,"y":2542927.1900000032}},{"attributes":{"ID":273875,"DIS_CODE":0,"TOWNNAME":"東區","LI":"虎尾里","LIN":"7鄰","STREET":"東成街","SECT":" ","MAREA":" ","LANE":"１１４巷","ALLEY":" ","HOUSE_NO":"１１號","E_COORD97":171614.60000000001,"N_COORD97":2542218.3900000001,"ADDRESS":"東成街１１４巷１１號","OBJECTID":273870},"geometry":{"x":171614.60000000149,"y":2542218.3899999987}},{"attributes":{"ID":273876,"DIS_CODE":0,"TOWNNAME":"永康區","LI":"勝利里","LIN":"7鄰","STREET":"勝利街","SECT":" ","MAREA":" ","LANE":"２２巷","ALLEY":" ","HOUSE_NO":"２９號","E_COORD97":171262.20000000001,"N_COORD97":2544651.5099999998,"ADDRESS":"勝利街２２巷２９號","OBJECTID":273871},"geometry":{"x":171262.20000000112,"y":2544651.5100000016}},{"attributes":{"ID":273877,"DIS_CODE":0,"TOWNNAME":"仁德區","LI":"中生里","LIN":"3鄰","STREET":" ","SECT":" ","MAREA":"中洲","LANE":" ","ALLEY":" ","HOUSE_NO":"９４號之４","E_COORD97":173070.73000000001,"N_COORD97":2534350.29,"ADDRESS":"中洲９４號之４","OBJECTID":273872},"geometry":{"x":173070.73000000231,"y":2534350.2899999991}},{"attributes":{"ID":273878,"DIS_CODE":0,"TOWNNAME":"永康區","LI":"\u25A0洲里","LIN":"7鄰","STREET":"\u25A0洲二街","SECT":" ","MAREA":" ","LANE":"２２１巷","ALLEY":" ","HOUSE_NO":"３６號","E_COORD97":171783.84,"N_COORD97":2549580.8500000001,"ADDRESS":"\u25A0洲二街２２１巷３６號","OBJECTID":273873},"geometry":{"x":171783.83999999985,"y":2549580.8499999996}},{"attributes":{"ID":273879,"DIS_CODE":0,"TOWNNAME":"仁德區","LI":"三甲里","LIN":"3鄰","STREET":" ","SECT":" ","MAREA":"三甲子","LANE":" ","ALLEY":" ","HOUSE_NO":"２４號之２","E_COORD97":171778.48999999999,"N_COORD97":2536893.2999999998,"ADDRESS":"三甲子２４號之２","OBJECTID":273874},"geometry":{"x":171778.48999999929,"y":2536893.3000000045}},{"attributes":{"ID":273880,"DIS_CODE":0,"TOWNNAME":"永康區","LI":"正強里","LIN":"7鄰","STREET":"自強路","SECT":" ","MAREA":" ","LANE":"３６８巷","ALLEY":" ","HOUSE_NO":"２０號","E_COORD97":173543.76999999999,"N_COORD97":2547662.5299999998,"ADDRESS":"自強路３６８巷２０號","OBJECTID":273875},"geometry":{"x":173543.76999999955,"y":2547662.5300000012}},{"attributes":{"ID":273881,"DIS_CODE":0,"TOWNNAME":"仁德區","LI":"上崙里","LIN":"7鄰","STREET":"德南路","SECT":" ","MAREA":" ","LANE":"３７３巷","ALLEY":" ","HOUSE_NO":"２８之１號","E_COORD97":173966.38,"N_COORD97":2538324.79,"ADDRESS":"德南路３７３巷２８之１號","OBJECTID":273876},"geometry":{"x":173966.38000000082,"y":2538324.7899999991}},{"attributes":{"ID":273882,"DIS_CODE":0,"TOWNNAME":"北區","LI":"興北里","LIN":"7鄰","STREET":"公園北路","SECT":" ","MAREA":" ","LANE":"８８巷","ALLEY":" ","HOUSE_NO":"１９之２號","E_COORD97":169114.41177599999,"N_COORD97":2545062.8241900001,"ADDRESS":"公園北路８８巷１９之２號","OBJECTID":273877},"geometry":{"x":169114.41177600063,"y":2545062.8241939992}},{"attributes":{"ID":273883,"DIS_CODE":0,"TOWNNAME":"歸仁區","LI":"大廟里","LIN":"7鄰","STREET":"大廟一街","SECT":" ","MAREA":" ","LANE":"１０３巷","ALLEY":" ","HOUSE_NO":"２８號","E_COORD97":175846.07000000001,"N_COORD97":2543878.25,"ADDRESS":"大廟一街１０３巷２８號","OBJECTID":273878},"geometry":{"x":175846.0700000003,"y":2543878.2500000019}},{"attributes":{"ID":273884,"DIS_CODE":0,"TOWNNAME":"楠西區","LI":"楠西里","LIN":"7鄰","STREET":"中興路","SECT":" ","MAREA":" ","LANE":"７４巷","ALLEY":" ","HOUSE_NO":"４號","E_COORD97":197281.20999999999,"N_COORD97":2564318.25,"ADDRESS":"中興路７４巷４號","OBJECTID":273879},"geometry":{"x":197281.21000000089,"y":2564318.2500000019}},{"attributes":{"ID":273885,"DIS_CODE":0,"TOWNNAME":"新營區","LI":"延平里","LIN":"7鄰","STREET":"復興路","SECT":" ","MAREA":" ","LANE":"２９巷","ALLEY":" ","HOUSE_NO":"１１號","E_COORD97":179700.32000000001,"N_COORD97":2577963.9300000002,"ADDRESS":"復興路２９巷１１號","OBJECTID":273880},"geometry":{"x":179700.32000000123,"y":2577963.9299999997}},{"attributes":{"ID":273886,"DIS_CODE":0,"TOWNNAME":"永康區","LI":"尚頂里","LIN":"3鄰","STREET":"中正二街","SECT":" ","MAREA":" ","LANE":" ","ALLEY":" ","HOUSE_NO":"１５２號","E_COORD97":171321.35000000001,"N_COORD97":2547670.8999999999,"ADDRESS":"中正二街１５２號","OBJECTID":273881},"geometry":{"x":171321.35000000056,"y":2547670.9000000022}},{"attributes":{"ID":273887,"DIS_CODE":0,"TOWNNAME":"東區","LI":"大德里","LIN":"3鄰","STREET":"大同路","SECT":"二段","MAREA":" ","LANE":" ","ALLEY":" ","HOUSE_NO":"１６５號","E_COORD97":169407.76000000001,"N_COORD97":2541953.5499999998,"ADDRESS":"大同路二段１６５號","OBJECTID":273882},"geometry":{"x":169407.75999999978,"y":2541953.5500000026}},{"attributes":{"ID":273888,"DIS_CODE":0,"TOWNNAME":"東區","LI":"南聖里","LIN":"3鄰","STREET":"富農街","SECT":"二段","MAREA":" ","LANE":" ","ALLEY":" ","HOUSE_NO":"１１６號","E_COORD97":171641.10999999999,"N_COORD97":2543108.3799999999,"ADDRESS":"富農街二段１１６號","OBJECTID":273883},"geometry":{"x":171641.11000000127,"y":2543108.3799999971}},{"attributes":{"ID":273889,"DIS_CODE":0,"TOWNNAME":"東區","LI":"南聖里","LIN":"3鄰","STREET":"富農街","SECT":"二段","MAREA":" ","LANE":" ","ALLEY":" ","HOUSE_NO":"１１８號","E_COORD97":171641.10999999999,"N_COORD97":2543113.3799999999,"ADDRESS":"富農街二段１１８號","OBJECTID":273884},"geometry":{"x":171641.11000000127,"y":2543113.3800000008}},{"attributes":{"ID":273890,"DIS_CODE":0,"TOWNNAME":"永康區","LI":"\u25A0洲里","LIN":"3鄰","STREET":"\u25A0行路","SECT":" ","MAREA":" ","LANE":" ","ALLEY":" ","HOUSE_NO":"７８號","E_COORD97":171583.92999999999,"N_COORD97":2549246.6699999999,"ADDRESS":"\u25A0行路７８號","OBJECTID":273885},"geometry":{"x":171583.93000000063,"y":2549246.6699999999}},{"attributes":{"ID":273891,"DIS_CODE":0,"TOWNNAME":"安平區","LI":"億載里","LIN":"7鄰","STREET":"永華十一街","SECT":" ","MAREA":" ","LANE":"１７巷","ALLEY":" ","HOUSE_NO":"３９號","E_COORD97":163990.04999999999,"N_COORD97":2543419.8900000001,"ADDRESS":"永華十一街１７巷３９號","OBJECTID":273886},"geometry":{"x":163990.05000000168,"y":2543419.8900000025}},{"attributes":{"ID":273892,"DIS_CODE":0,"TOWNNAME":"安平區","LI":"金城里","LIN":"7鄰","STREET":"同平路","SECT":" ","MAREA":" ","LANE":"９６巷","ALLEY":" ","HOUSE_NO":"３２號","E_COORD97":163053.31,"N_COORD97":2544228.6699999999,"ADDRESS":"同平路９６巷３２號","OBJECTID":273887},"geometry":{"x":163053.30999999959,"y":2544228.6699999999}},{"attributes":{"ID":273893,"DIS_CODE":0,"TOWNNAME":"安平區","LI":"國平里","LIN":"7鄰","STREET":"文平路","SECT":" ","MAREA":" ","LANE":"１８７巷","ALLEY":" ","HOUSE_NO":"８９號","E_COORD97":165461.29999999999,"N_COORD97":2543078.5,"ADDRESS":"文平路１８７巷８９號","OBJECTID":273888},"geometry":{"x":165461.29999999981,"y":2543078.5000000037}},{"attributes":{"ID":273894,"DIS_CODE":0,"TOWNNAME":"安平區","LI":"國平里","LIN":"7鄰","STREET":"文平路","SECT":" ","MAREA":" ","LANE":"１８７巷","ALLEY":" ","HOUSE_NO":"９１號","E_COORD97":165457.98000000001,"N_COORD97":2543079.29,"ADDRESS":"文平路１８７巷９１號","OBJECTID":273889},"geometry":{"x":165457.98000000138,"y":2543079.290000001}},{"attributes":{"ID":273895,"DIS_CODE":0,"TOWNNAME":"安平區","LI":"國平里","LIN":"7鄰","STREET":"文平路","SECT":" ","MAREA":" ","LANE":"１８７巷","ALLEY":" ","HOUSE_NO":"９３號","E_COORD97":165452.89999999999,"N_COORD97":2543079.6800000002,"ADDRESS":"文平路１８７巷９３號","OBJECTID":273890},"geometry":{"x":165452.90000000224,"y":2543079.6799999997}},{"attributes":{"ID":273896,"DIS_CODE":0,"TOWNNAME":"安平區","LI":"國平里","LIN":"7鄰","STREET":"文平路","SECT":" ","MAREA":" ","LANE":"１８７巷","ALLEY":" ","HOUSE_NO":"９５號","E_COORD97":165448.39999999999,"N_COORD97":2543080.2599999998,"ADDRESS":"文平路１８７巷９５號","OBJECTID":273891},"geometry":{"x":165448.4000000013,"y":2543080.2600000016}},{"attributes":{"ID":273897,"DIS_CODE":0,"TOWNNAME":"安平區","LI":"國平里","LIN":"7鄰","STREET":"文平路","SECT":" ","MAREA":" ","LANE":"１８７巷","ALLEY":" ","HOUSE_NO":"９７號","E_COORD97":165442.73999999999,"N_COORD97":2543080.8500000001,"ADDRESS":"文平路１８７巷９７號","OBJECTID":273892},"geometry":{"x":165442.74000000115,"y":2543080.8499999996}},{"attributes":{"ID":273898,"DIS_CODE":0,"TOWNNAME":"安平區","LI":"國平里","LIN":"7鄰","STREET":"文平路","SECT":" ","MAREA":" ","LANE":"１８７巷","ALLEY":" ","HOUSE_NO":"９９號","E_COORD97":165437.85000000001,"N_COORD97":2543081.4300000002,"ADDRESS":"文平路１８７巷９９號","OBJECTID":273893},"geometry":{"x":165437.85000000056,"y":2543081.4299999997}},{"attributes":{"ID":273899,"DIS_CODE":0,"TOWNNAME":"北區","LI":"光武里","LIN":"7鄰","STREET":"北門路","SECT":"二段","MAREA":" ","LANE":"５４７巷","ALLEY":" ","HOUSE_NO":"１２號","E_COORD97":169624.26000000001,"N_COORD97":2545702.8799999999,"ADDRESS":"北門路二段５４７巷１２號","OBJECTID":273894},"geometry":{"x":169624.25999999978,"y":2545702.8800000008}},{"attributes":{"ID":273900,"DIS_CODE":0,"TOWNNAME":"北區","LI":"光武里","LIN":"7鄰","STREET":"北門路","SECT":"二段","MAREA":" ","LANE":"５４７巷","ALLEY":" ","HOUSE_NO":"１６號","E_COORD97":169619.17999999999,"N_COORD97":2545704.4700000002,"ADDRESS":"北門路二段５４７巷１６號","OBJECTID":273895},"geometry":{"x":169619.18000000063,"y":2545704.4700000025}},{"attributes":{"ID":273901,"DIS_CODE":0,"TOWNNAME":"北區","LI":"光武里","LIN":"7鄰","STREET":"北門路","SECT":"二段","MAREA":" ","LANE":"５４７巷","ALLEY":" ","HOUSE_NO":"１８號","E_COORD97":169614.57999999999,"N_COORD97":2545706.0600000001,"ADDRESS":"北門路二段５４７巷１８號","OBJECTID":273896},"geometry":{"x":169614.58000000007,"y":2545706.0600000042}},{"attributes":{"ID":273902,"DIS_CODE":0,"TOWNNAME":"北區","LI":"光武里","LIN":"7鄰","STREET":"北門路","SECT":"二段","MAREA":" ","LANE":"５４７巷","ALLEY":" ","HOUSE_NO":"２０號","E_COORD97":169610.13,"N_COORD97":2545707.7999999998,"ADDRESS":"北門路二段５４７巷２０號","OBJECTID":273897},"geometry":{"x":169610.12999999989,"y":2545707.7999999989}},{"attributes":{"ID":273903,"DIS_CODE":0,"TOWNNAME":"北區","LI":"光武里","LIN":"7鄰","STREET":"北門路","SECT":"二段","MAREA":" ","LANE":"５４７巷","ALLEY":" ","HOUSE_NO":"２２號","E_COORD97":169605.53,"N_COORD97":2545709.3900000001,"ADDRESS":"北門路二段５４７巷２２號","OBJECTID":273898},"geometry":{"x":169605.53000000119,"y":2545709.3900000006}},{"attributes":{"ID":273904,"DIS_CODE":0,"TOWNNAME":"善化區","LI":"田寮里","LIN":"3鄰","STREET":" ","SECT":" ","MAREA":"六分寮","LANE":" ","ALLEY":" ","HOUSE_NO":"３７號之９","E_COORD97":178302.60000000001,"N_COORD97":2561131.52,"ADDRESS":"六分寮３７號之９","OBJECTID":273899},"geometry":{"x":178302.60000000056,"y":2561131.5200000033}},{"attributes":{"ID":273905,"DIS_CODE":0,"TOWNNAME":"北區","LI":"光武里","LIN":"7鄰","STREET":"北門路","SECT":"二段","MAREA":" ","LANE":"５４７巷","ALLEY":" ","HOUSE_NO":"２６號","E_COORD97":169600.45000000001,"N_COORD97":2545711.1400000001,"ADDRESS":"北門路二段５４７巷２６號","OBJECTID":273900},"geometry":{"x":169600.45000000205,"y":2545711.1400000006}},{"attributes":{"ID":273906,"DIS_CODE":0,"TOWNNAME":"北區","LI":"五福里","LIN":"7鄰","STREET":"長北街","SECT":" ","MAREA":" ","LANE":"２１巷","ALLEY":" ","HOUSE_NO":"１號","E_COORD97":168345.37,"N_COORD97":2544486.8100000001,"ADDRESS":"長北街２１巷１號","OBJECTID":273901},"geometry":{"x":168345.37000000104,"y":2544486.8100000005}},{"attributes":{"ID":273907,"DIS_CODE":0,"TOWNNAME":"北區","LI":"五福里","LIN":"7鄰","STREET":"長北街","SECT":" ","MAREA":" ","LANE":"２１巷","ALLEY":" ","HOUSE_NO":"２號","E_COORD97":168352.67000000001,"N_COORD97":2544494.3599999999,"ADDRESS":"長北街２１巷２號","OBJECTID":273902},"geometry":{"x":168352.66999999899,"y":2544494.3599999994}},{"attributes":{"ID":273908,"DIS_CODE":0,"TOWNNAME":"北區","LI":"六甲里","LIN":"7鄰","STREET":"西門路","SECT":"四段","MAREA":" ","LANE":"２００巷","ALLEY":" ","HOUSE_NO":"２８號","E_COORD97":168960.35000000001,"N_COORD97":2545603.6699999999,"ADDRESS":"西門路四段２００巷２８號","OBJECTID":273903},"geometry":{"x":168960.35000000056,"y":2545603.6700000018}},{"attributes":{"ID":273909,"DIS_CODE":0,"TOWNNAME":"北區","LI":"六甲里","LIN":"7鄰","STREET":"西門路","SECT":"四段","MAREA":" ","LANE":"２００巷","ALLEY":" ","HOUSE_NO":"３０號","E_COORD97":168970.89999999999,"N_COORD97":2545602.3999999999,"ADDRESS":"西門路四段２００巷３０號","OBJECTID":273904},"geometry":{"x":168970.9000000013,"y":2545602.4000000022}},{"attributes":{"ID":273910,"DIS_CODE":0,"TOWNNAME":"東區","LI":"富強里","LIN":"3鄰","STREET":"中華東路","SECT":"二段","MAREA":" ","LANE":" ","ALLEY":" ","HOUSE_NO":"１２號","E_COORD97":171391.76000000001,"N_COORD97":2543126.3500000001,"ADDRESS":"中華東路二段１２號","OBJECTID":273905},"geometry":{"x":171391.76000000071,"y":2543126.3500000034}},{"attributes":{"ID":273911,"DIS_CODE":0,"TOWNNAME":"東區","LI":"中西里","LIN":"3鄰","STREET":"東門路","SECT":"一段","MAREA":" ","LANE":" ","ALLEY":" ","HOUSE_NO":"２６５號","E_COORD97":169835.42999999999,"N_COORD97":2543071.46,"ADDRESS":"東門路一段２６５號","OBJECTID":273906},"geometry":{"x":169835.4299999997,"y":2543071.4600000009}},{"attributes":{"ID":273912,"DIS_CODE":0,"TOWNNAME":"永康區","LI":"新樹里","LIN":"3鄰","STREET":"中山北路","SECT":" ","MAREA":" ","LANE":" ","ALLEY":" ","HOUSE_NO":"６６４之３號","E_COORD97":176036.03,"N_COORD97":2547880.23,"ADDRESS":"中山北路６６４之３號","OBJECTID":273907},"geometry":{"x":176036.03000000026,"y":2547880.2300000004}},{"attributes":{"ID":273913,"DIS_CODE":0,"TOWNNAME":"永康區","LI":"新樹里","LIN":"3鄰","STREET":"富強路","SECT":"二段","MAREA":" ","LANE":" ","ALLEY":" ","HOUSE_NO":"４０６號","E_COORD97":175599.23999999999,"N_COORD97":2547738.0499999998,"ADDRESS":"富強路二段４０６號","OBJECTID":273908},"geometry":{"x":175599.24000000022,"y":2547738.0500000026}},{"attributes":{"ID":273914,"DIS_CODE":0,"TOWNNAME":"北區","LI":"六甲里","LIN":"7鄰","STREET":"西門路","SECT":"四段","MAREA":" ","LANE":"２００巷","ALLEY":" ","HOUSE_NO":"３２號","E_COORD97":168972.59,"N_COORD97":2545615.46,"ADDRESS":"西門路四段２００巷３２號","OBJECTID":273909},"geometry":{"x":168972.59000000078,"y":2545615.4600000046}},{"attributes":{"ID":273915,"DIS_CODE":0,"TOWNNAME":"中西區","LI":"永福里","LIN":"3鄰","STREET":"永福路","SECT":"二段","MAREA":" ","LANE":" ","ALLEY":" ","HOUSE_NO":"３０號","E_COORD97":168055.82000000001,"N_COORD97":2543549.0499999998,"ADDRESS":"永福路二段３０號","OBJECTID":273910},"geometry":{"x":168055.82000000123,"y":2543549.0500000007}},{"attributes":{"ID":273916,"DIS_CODE":0,"TOWNNAME":"北區","LI":"六甲里","LIN":"7鄰","STREET":"西門路","SECT":"四段","MAREA":" ","LANE":"２００巷","ALLEY":" ","HOUSE_NO":"３４號","E_COORD97":168962.67000000001,"N_COORD97":2545614.8300000001,"ADDRESS":"西門路四段２００巷３４號","OBJECTID":273911},"geometry":{"x":168962.66999999993,"y":2545614.8300000001}},{"attributes":{"ID":273917,"DIS_CODE":0,"TOWNNAME":"北區","LI":"六甲里","LIN":"7鄰","STREET":"西門路","SECT":"四段","MAREA":" ","LANE":"２００巷","ALLEY":" ","HOUSE_NO":"３６號","E_COORD97":168968.29000000001,"N_COORD97":2545583.6699999999,"ADDRESS":"西門路四段２００巷３６號","OBJECTID":273912},"geometry":{"x":168968.29000000004,"y":2545583.6700000018}},{"attributes":{"ID":273918,"DIS_CODE":0,"TOWNNAME":"北區","LI":"六甲里","LIN":"7鄰","STREET":"西門路","SECT":"四段","MAREA":" ","LANE":"２００巷","ALLEY":" ","HOUSE_NO":"３８號","E_COORD97":168956.60999999999,"N_COORD97":2545585.1499999999,"ADDRESS":"西門路四段２００巷３８號","OBJECTID":273913},"geometry":{"x":168956.61000000034,"y":2545585.1500000004}},{"attributes":{"ID":273919,"DIS_CODE":0,"TOWNNAME":"安平區","LI":"文平里","LIN":"7鄰","STREET":"建平六街","SECT":" ","MAREA":" ","LANE":"１１０巷","ALLEY":" ","HOUSE_NO":"３５號","E_COORD97":166209.84,"N_COORD97":2543223.0499999998,"ADDRESS":"建平六街１１０巷３５號","OBJECTID":273914},"geometry":{"x":166209.83999999985,"y":2543223.0500000007}},{"attributes":{"ID":273920,"DIS_CODE":0,"TOWNNAME":"安平區","LI":"國平里","LIN":"7鄰","STREET":"建平三街","SECT":" ","MAREA":" ","LANE":"１７８巷","ALLEY":" ","HOUSE_NO":"１７號","E_COORD97":165460.41,"N_COORD97":2543005.5099999998,"ADDRESS":"建平三街１７８巷１７號","OBJECTID":273915},"geometry":{"x":165460.41000000015,"y":2543005.5099999998}},{"attributes":{"ID":273921,"DIS_CODE":0,"TOWNNAME":"北區","LI":"國姓里","LIN":"7鄰","STREET":"小北路","SECT":" ","MAREA":" ","LANE":"２７巷","ALLEY":" ","HOUSE_NO":"１０號","E_COORD97":168800.78,"N_COORD97":2545292.7999999998,"ADDRESS":"小北路２７巷１０號","OBJECTID":273916},"geometry":{"x":168800.78000000026,"y":2545292.8000000007}},{"attributes":{"ID":273922,"DIS_CODE":0,"TOWNNAME":"中西區","LI":"永福里","LIN":"3鄰","STREET":"永福路","SECT":"二段","MAREA":" ","LANE":" ","ALLEY":" ","HOUSE_NO":"３２號","E_COORD97":168057.13,"N_COORD97":2543553.8399999999,"ADDRESS":"永福路二段３２號","OBJECTID":273917},"geometry":{"x":168057.13000000082,"y":2543553.8400000036}},{"attributes":{"ID":273923,"DIS_CODE":0,"TOWNNAME":"中西區","LI":"永福里","LIN":"3鄰","STREET":"永福路","SECT":"二段","MAREA":" ","LANE":" ","ALLEY":" ","HOUSE_NO":"３４號","E_COORD97":168058.01000000001,"N_COORD97":2543559.1800000002,"ADDRESS":"永福路二段３４號","OBJECTID":273918},"geometry":{"x":168058.00999999978,"y":2543559.1800000016}},{"attributes":{"ID":273924,"DIS_CODE":0,"TOWNNAME":"中西區","LI":"永福里","LIN":"3鄰","STREET":"永福路","SECT":"二段","MAREA":" ","LANE":" ","ALLEY":" ","HOUSE_NO":"３６號","E_COORD97":168059.32000000001,"N_COORD97":2543563.3199999998,"ADDRESS":"永福路二段３６號","OBJECTID":273919},"geometry":{"x":168059.32000000123,"y":2543563.3200000003}},{"attributes":{"ID":273925,"DIS_CODE":0,"TOWNNAME":"中西區","LI":"永福里","LIN":"3鄰","STREET":"永福路","SECT":"二段","MAREA":" ","LANE":" ","ALLEY":" ","HOUSE_NO":"３８號","E_COORD97":168060.07999999999,"N_COORD97":2543567.73,"ADDRESS":"永福路二段３８號","OBJECTID":273920},"geometry":{"x":168060.08000000007,"y":2543567.7300000004}},{"attributes":{"ID":273926,"DIS_CODE":0,"TOWNNAME":"永康區","LI":"中華里","LIN":"3鄰","STREET":"小東路","SECT":" ","MAREA":" ","LANE":" ","ALLEY":" ","HOUSE_NO":"６６５號","E_COORD97":171983.70000000001,"N_COORD97":2544340.8700000001,"ADDRESS":"小東路６６５號","OBJECTID":273921},"geometry":{"x":171983.70000000019,"y":2544340.870000001}},{"attributes":{"ID":273927,"DIS_CODE":0,"TOWNNAME":"永康區","LI":"二王里","LIN":"3鄰","STREET":"永二街","SECT":" ","MAREA":" ","LANE":" ","ALLEY":" ","HOUSE_NO":"３３６號之３","E_COORD97":172997.91,"N_COORD97":2546621.9700000002,"ADDRESS":"永二街３３６號之３","OBJECTID":273922},"geometry":{"x":172997.91000000201,"y":2546621.9699999988}},{"attributes":{"ID":273928,"DIS_CODE":0,"TOWNNAME":"永康區","LI":"二王里","LIN":"3鄰","STREET":"永二街","SECT":" ","MAREA":" ","LANE":" ","ALLEY":" ","HOUSE_NO":"３３８號","E_COORD97":172987.12,"N_COORD97":2546631.0299999998,"ADDRESS":"永二街３３８號","OBJECTID":273923},"geometry":{"x":172987.12000000011,"y":2546631.0300000012}},{"attributes":{"ID":273929,"DIS_CODE":0,"TOWNNAME":"中西區","LI":"協進里","LIN":"4鄰","STREET":"西寧街","SECT":" ","MAREA":" ","LANE":" ","ALLEY":" ","HOUSE_NO":"２４號","E_COORD97":167129.85000000001,"N_COORD97":2544228.7000000002,"ADDRESS":"西寧街２４號","OBJECTID":273924},"geometry":{"x":167129.85000000056,"y":2544228.6999999974}},{"attributes":{"ID":273930,"DIS_CODE":0,"TOWNNAME":"北區","LI":"國姓里","LIN":"7鄰","STREET":"小北路","SECT":" ","MAREA":" ","LANE":"２７巷","ALLEY":" ","HOUSE_NO":"１２號","E_COORD97":168806.01000000001,"N_COORD97":2545302.5600000001,"ADDRESS":"小北路２７巷１２號","OBJECTID":273925},"geometry":{"x":168806.00999999978,"y":2545302.5600000042}},{"attributes":{"ID":273931,"DIS_CODE":0,"TOWNNAME":"北區","LI":"國姓里","LIN":"7鄰","STREET":"小北路","SECT":" ","MAREA":" ","LANE":"２７巷","ALLEY":" ","HOUSE_NO":"１４號","E_COORD97":168807.06,"N_COORD97":2545307.79,"ADDRESS":"小北路２７巷１４號","OBJECTID":273926},"geometry":{"x":168807.05999999959,"y":2545307.790000001}},{"attributes":{"ID":273932,"DIS_CODE":0,"TOWNNAME":"北區","LI":"國姓里","LIN":"7鄰","STREET":"小北路","SECT":" ","MAREA":" ","LANE":"２７巷","ALLEY":" ","HOUSE_NO":"６號","E_COORD97":168784.01999999999,"N_COORD97":2545273.6000000001,"ADDRESS":"小北路２７巷６號","OBJECTID":273927},"geometry":{"x":168784.02000000142,"y":2545273.5999999996}},{"attributes":{"ID":273933,"DIS_CODE":0,"TOWNNAME":"北區","LI":"國姓里","LIN":"7鄰","STREET":"小北路","SECT":" ","MAREA":" ","LANE":"２７巷","ALLEY":" ","HOUSE_NO":"８號","E_COORD97":168795.54000000001,"N_COORD97":2545283.3599999999,"ADDRESS":"小北路２７巷８號","OBJECTID":273928},"geometry":{"x":168795.54000000004,"y":2545283.3600000013}},{"attributes":{"ID":273934,"DIS_CODE":0,"TOWNNAME":"北區","LI":"元寶里","LIN":"14鄰","STREET":"北園街","SECT":" ","MAREA":" ","LANE":"８巷","ALLEY":" ","HOUSE_NO":"７０號","E_COORD97":170449.09,"N_COORD97":2545722.1000000001,"ADDRESS":"北園街８巷７０號","OBJECTID":273929},"geometry":{"x":170449.09000000078,"y":2545722.1000000015}},{"attributes":{"ID":273935,"DIS_CODE":0,"TOWNNAME":"歸仁區","LI":"新厝里","LIN":"7鄰","STREET":"中正三街","SECT":" ","MAREA":" ","LANE":"４３巷","ALLEY":" ","HOUSE_NO":"１４號","E_COORD97":177707.53,"N_COORD97":2540589.9300000002,"ADDRESS":"中正三街４３巷１４號","OBJECTID":273930},"geometry":{"x":177707.53000000026,"y":2540589.9300000034}},{"attributes":{"ID":273936,"DIS_CODE":0,"TOWNNAME":"中西區","LI":"協進里","LIN":"5鄰","STREET":"民權路","SECT":"三段","MAREA":" ","LANE":" ","ALLEY":" ","HOUSE_NO":"３４７號","E_COORD97":166995.42000000001,"N_COORD97":2544311.6099999999,"ADDRESS":"民權路三段３４７號","OBJECTID":273931},"geometry":{"x":166995.42000000086,"y":2544311.6100000013}},{"attributes":{"ID":273937,"DIS_CODE":0,"TOWNNAME":"中西區","LI":"協進里","LIN":"5鄰","STREET":"民權路","SECT":"三段","MAREA":" ","LANE":" ","ALLEY":" ","HOUSE_NO":"３５１號","E_COORD97":166988.12,"N_COORD97":2544312.6800000002,"ADDRESS":"民權路三段３５１號","OBJECTID":273932},"geometry":{"x":166988.12000000011,"y":2544312.6799999997}},{"attributes":{"ID":273938,"DIS_CODE":0,"TOWNNAME":"仁德區","LI":"仁德里","LIN":"3鄰","STREET":"仁中七街","SECT":" ","MAREA":" ","LANE":" ","ALLEY":" ","HOUSE_NO":"１６０號","E_COORD97":173288.39000000001,"N_COORD97":2540380.5,"ADDRESS":"仁中七街１６０號","OBJECTID":273933},"geometry":{"x":173288.38999999966,"y":2540380.5000000019}},{"attributes":{"ID":273939,"DIS_CODE":0,"TOWNNAME":"仁德區","LI":"仁德里","LIN":"3鄰","STREET":"仁中七街","SECT":" ","MAREA":" ","LANE":" ","ALLEY":" ","HOUSE_NO":"１８８號","E_COORD97":173270.79999999999,"N_COORD97":2540389.25,"ADDRESS":"仁中七街１８８號","OBJECTID":273934},"geometry":{"x":173270.79999999981,"y":2540389.2500000019}},{"attributes":{"ID":273940,"DIS_CODE":0,"TOWNNAME":"仁德區","LI":"仁德里","LIN":"3鄰","STREET":"仁中六街","SECT":" ","MAREA":" ","LANE":" ","ALLEY":" ","HOUSE_NO":"９１號","E_COORD97":173335.56,"N_COORD97":2540388.7400000002,"ADDRESS":"仁中六街９１號","OBJECTID":273935},"geometry":{"x":173335.56000000052,"y":2540388.7400000021}},{"attributes":{"ID":273941,"DIS_CODE":0,"TOWNNAME":"北區","LI":"玉皇里","LIN":"7鄰","STREET":"崇安街","SECT":" ","MAREA":" ","LANE":"７０巷","ALLEY":" ","HOUSE_NO":"７號","E_COORD97":168748.79000000001,"N_COORD97":2544538.8100000001,"ADDRESS":"崇安街７０巷７號","OBJECTID":273936},"geometry":{"x":168748.7900000019,"y":2544538.8100000024}},{"attributes":{"ID":273942,"DIS_CODE":0,"TOWNNAME":"仁德區","LI":"中洲里","LIN":"3鄰","STREET":" ","SECT":" ","MAREA":"中洲","LANE":" ","ALLEY":" ","HOUSE_NO":"２３號","E_COORD97":173252.60999999999,"N_COORD97":2534428,"ADDRESS":"中洲２３號","OBJECTID":273937},"geometry":{"x":173252.6099999994,"y":2534428}},{"attributes":{"ID":273943,"DIS_CODE":0,"TOWNNAME":"歸仁區","LI":"大潭里","LIN":"7鄰","STREET":"中正南路","SECT":"三段","MAREA":" ","LANE":"２８７巷","ALLEY":" ","HOUSE_NO":"１０號","E_COORD97":175177.16,"N_COORD97":2534627.2799999998,"ADDRESS":"中正南路三段２８７巷１０號","OBJECTID":273938},"geometry":{"x":175177.16000000015,"y":2534627.2800000012}},{"attributes":{"ID":273944,"DIS_CODE":0,"TOWNNAME":"善化區","LI":"田寮里","LIN":"3鄰","STREET":" ","SECT":" ","MAREA":"六分寮","LANE":" ","ALLEY":" ","HOUSE_NO":"３９號","E_COORD97":178346.95999999999,"N_COORD97":2561111.5,"ADDRESS":"六分寮３９號","OBJECTID":273939},"geometry":{"x":178346.95999999996,"y":2561111.4999999981}},{"attributes":{"ID":273945,"DIS_CODE":0,"TOWNNAME":"南區","LI":"金華里","LIN":"7鄰","STREET":"金華路","SECT":"二段","MAREA":" ","LANE":"５１巷","ALLEY":" ","HOUSE_NO":"５０號","E_COORD97":166920.29000000001,"N_COORD97":2542097.1299999999,"ADDRESS":"金華路二段５１巷５０號","OBJECTID":273940},"geometry":{"x":166920.29000000097,"y":2542097.1300000008}},{"attributes":{"ID":273946,"DIS_CODE":0,"TOWNNAME":"仁德區","LI":"田厝里","LIN":"3鄰","STREET":"田厝三街","SECT":" ","MAREA":" ","LANE":" ","ALLEY":" ","HOUSE_NO":"１０４號","E_COORD97":172642.12,"N_COORD97":2537472.4900000002,"ADDRESS":"田厝三街１０４號","OBJECTID":273941},"geometry":{"x":172642.12000000197,"y":2537472.4900000021}},{"attributes":{"ID":273947,"DIS_CODE":0,"TOWNNAME":"東區","LI":"東明里","LIN":"3鄰","STREET":"怡東路","SECT":" ","MAREA":" ","LANE":" ","ALLEY":" ","HOUSE_NO":"６２號","E_COORD97":170852.31,"N_COORD97":2543602.6499999999,"ADDRESS":"怡東路６２號","OBJECTID":273942},"geometry":{"x":170852.31000000052,"y":2543602.6500000004}},{"attributes":{"ID":273948,"DIS_CODE":0,"TOWNNAME":"麻豆區","LI":"油車里","LIN":"3鄰","STREET":"大同街","SECT":" ","MAREA":" ","LANE":" ","ALLEY":" ","HOUSE_NO":"１１號之２","E_COORD97":172817.51999999999,"N_COORD97":2565214.1299999999,"ADDRESS":"大同街１１號之２","OBJECTID":273943},"geometry":{"x":172817.52000000048,"y":2565214.129999999}},{"attributes":{"ID":273949,"DIS_CODE":0,"TOWNNAME":"麻豆區","LI":"油車里","LIN":"3鄰","STREET":"大同街","SECT":" ","MAREA":" ","LANE":" ","ALLEY":" ","HOUSE_NO":"１１號之３","E_COORD97":172806.76000000001,"N_COORD97":2565215.96,"ADDRESS":"大同街１１號之３","OBJECTID":273944},"geometry":{"x":172806.75999999978,"y":2565215.9600000028}},{"attributes":{"ID":273950,"DIS_CODE":0,"TOWNNAME":"麻豆區","LI":"油車里","LIN":"3鄰","STREET":"大同街","SECT":" ","MAREA":" ","LANE":" ","ALLEY":" ","HOUSE_NO":"１１號之４","E_COORD97":172794.66,"N_COORD97":2565215.8100000001,"ADDRESS":"大同街１１號之４","OBJECTID":273945},"geometry":{"x":172794.66000000108,"y":2565215.8099999987}},{"attributes":{"ID":273951,"DIS_CODE":0,"TOWNNAME":"麻豆區","LI":"油車里","LIN":"3鄰","STREET":"大同街","SECT":" ","MAREA":" ","LANE":" ","ALLEY":" ","HOUSE_NO":"１１號之５","E_COORD97":172785.95999999999,"N_COORD97":2565215.8100000001,"ADDRESS":"大同街１１號之５","OBJECTID":273946},"geometry":{"x":172785.96000000089,"y":2565215.8099999987}},{"attributes":{"ID":273952,"DIS_CODE":0,"TOWNNAME":"麻豆區","LI":"油車里","LIN":"3鄰","STREET":"大同街","SECT":" ","MAREA":" ","LANE":" ","ALLEY":" ","HOUSE_NO":"１１號之６","E_COORD97":172776.14000000001,"N_COORD97":2565216.21,"ADDRESS":"大同街１１號之６","OBJECTID":273947},"geometry":{"x":172776.1400000006,"y":2565216.2100000009}},{"attributes":{"ID":273953,"DIS_CODE":0,"TOWNNAME":"麻豆區","LI":"油車里","LIN":"3鄰","STREET":"大同街","SECT":" ","MAREA":" ","LANE":" ","ALLEY":" ","HOUSE_NO":"１１號之７","E_COORD97":172782.73999999999,"N_COORD97":2565201.8300000001,"ADDRESS":"大同街１１號之７","OBJECTID":273948},"geometry":{"x":172782.74000000115,"y":2565201.8300000038}},{"attributes":{"ID":273954,"DIS_CODE":0,"TOWNNAME":"善化區","LI":"嘉北里","LIN":"3鄰","STREET":" ","SECT":" ","MAREA":"茄拔","LANE":" ","ALLEY":" ","HOUSE_NO":"２５號之３","E_COORD97":181123.35000000001,"N_COORD97":2559851.02,"ADDRESS":"茄拔２５號之３","OBJECTID":273949},"geometry":{"x":181123.35000000056,"y":2559851.0200000014}},{"attributes":{"ID":273955,"DIS_CODE":0,"TOWNNAME":"北區","LI":"元寶里","LIN":"12鄰","STREET":"北園街","SECT":" ","MAREA":" ","LANE":"８巷","ALLEY":" ","HOUSE_NO":"６９號","E_COORD97":170416.22,"N_COORD97":2545726.1299999999,"ADDRESS":"北園街８巷６９號","OBJECTID":273950},"geometry":{"x":170416.21999999974,"y":2545726.129999999}},{"attributes":{"ID":273956,"DIS_CODE":0,"TOWNNAME":"北區","LI":"長榮里","LIN":"7鄰","STREET":"長榮路","SECT":"五段","MAREA":" ","LANE":"４１巷","ALLEY":" ","HOUSE_NO":"１６號","E_COORD97":170015.07999999999,"N_COORD97":2545549.6499999999,"ADDRESS":"長榮路五段４１巷１６號","OBJECTID":273951},"geometry":{"x":170015.08000000101,"y":2545549.6500000022}},{"attributes":{"ID":273957,"DIS_CODE":0,"TOWNNAME":"北區","LI":"元寶里","LIN":"8鄰","STREET":"北園街","SECT":" ","MAREA":" ","LANE":"８巷","ALLEY":" ","HOUSE_NO":"１６號","E_COORD97":170409.92000000001,"N_COORD97":2545614.27,"ADDRESS":"北園街８巷１６號","OBJECTID":273952},"geometry":{"x":170409.91999999993,"y":2545614.2699999996}},{"attributes":{"ID":273958,"DIS_CODE":0,"TOWNNAME":"北區","LI":"長榮里","LIN":"7鄰","STREET":"長榮路","SECT":"五段","MAREA":" ","LANE":"４１巷","ALLEY":" ","HOUSE_NO":"１８號","E_COORD97":170004.13,"N_COORD97":2545557.7400000002,"ADDRESS":"長榮路五段４１巷１８號","OBJECTID":273953},"geometry":{"x":170004.13000000175,"y":2545557.7400000002}},{"attributes":{"ID":273959,"DIS_CODE":0,"TOWNNAME":"新營區","LI":"延平里","LIN":"7鄰","STREET":"復興路","SECT":" ","MAREA":" ","LANE":"２９巷","ALLEY":" ","HOUSE_NO":"１３號","E_COORD97":179699.29000000001,"N_COORD97":2577962.8199999998,"ADDRESS":"復興路２９巷１３號","OBJECTID":273954},"geometry":{"x":179699.29000000004,"y":2577962.8200000003}},{"attributes":{"ID":273960,"DIS_CODE":0,"TOWNNAME":"新營區","LI":"忠政里","LIN":"7鄰","STREET":"中正路","SECT":" ","MAREA":" ","LANE":"３５巷","ALLEY":" ","HOUSE_NO":"３３號","E_COORD97":179915.48999999999,"N_COORD97":2579101.3700000001,"ADDRESS":"中正路３５巷３３號","OBJECTID":273955},"geometry":{"x":179915.49000000209,"y":2579101.3700000029}},{"attributes":{"ID":273961,"DIS_CODE":0,"TOWNNAME":"新營區","LI":"忠政里","LIN":"7鄰","STREET":"中正路","SECT":" ","MAREA":" ","LANE":"３５巷","ALLEY":" ","HOUSE_NO":"２８號","E_COORD97":179971.81,"N_COORD97":2579121.0299999998,"ADDRESS":"中正路３５巷２８號","OBJECTID":273956},"geometry":{"x":179971.80999999959,"y":2579121.0300000012}},{"attributes":{"ID":273962,"DIS_CODE":0,"TOWNNAME":"善化區","LI":"嘉北里","LIN":"3鄰","STREET":" ","SECT":" ","MAREA":"茄拔","LANE":" ","ALLEY":" ","HOUSE_NO":"２１號之５","E_COORD97":181119.09,"N_COORD97":2559908.02,"ADDRESS":"茄拔２１號之５","OBJECTID":273957},"geometry":{"x":181119.08999999985,"y":2559908.0200000014}},{"attributes":{"ID":273963,"DIS_CODE":0,"TOWNNAME":"新營區","LI":"忠政里","LIN":"7鄰","STREET":"中正路","SECT":" ","MAREA":" ","LANE":"３５巷","ALLEY":" ","HOUSE_NO":"２９號","E_COORD97":179933.88,"N_COORD97":2579101.2799999998,"ADDRESS":"中正路３５巷２９號","OBJECTID":273958},"geometry":{"x":179933.87999999989,"y":2579101.2799999993}},{"attributes":{"ID":273964,"DIS_CODE":0,"TOWNNAME":"善化區","LI":"嘉南里","LIN":"3鄰","STREET":" ","SECT":" ","MAREA":"茄拔","LANE":" ","ALLEY":" ","HOUSE_NO":"７６之５號","E_COORD97":181047.04000000001,"N_COORD97":2559395.77,"ADDRESS":"茄拔７６之５號","OBJECTID":273959},"geometry":{"x":181047.04000000004,"y":2559395.7699999996}},{"attributes":{"ID":273965,"DIS_CODE":0,"TOWNNAME":"善化區","LI":"嘉南里","LIN":"3鄰","STREET":" ","SECT":" ","MAREA":"茄拔","LANE":" ","ALLEY":" ","HOUSE_NO":"７６號之９","E_COORD97":181030.64000000001,"N_COORD97":2559395.77,"ADDRESS":"茄拔７６號之９","OBJECTID":273960},"geometry":{"x":181030.63999999966,"y":2559395.7699999996}},{"attributes":{"ID":273966,"DIS_CODE":0,"TOWNNAME":"善化區","LI":"嘉南里","LIN":"3鄰","STREET":" ","SECT":" ","MAREA":"茄拔","LANE":" ","ALLEY":" ","HOUSE_NO":"７２號之８","E_COORD97":180867.20000000001,"N_COORD97":2559414.27,"ADDRESS":"茄拔７２號之８","OBJECTID":273961},"geometry":{"x":180867.20000000112,"y":2559414.2700000033}},{"attributes":{"ID":273967,"DIS_CODE":0,"TOWNNAME":"善化區","LI":"嘉南里","LIN":"3鄰","STREET":" ","SECT":" ","MAREA":"茄拔","LANE":" ","ALLEY":" ","HOUSE_NO":"８０號","E_COORD97":181044.64000000001,"N_COORD97":2559422.7599999998,"ADDRESS":"茄拔８０號","OBJECTID":273962},"geometry":{"x":181044.64000000153,"y":2559422.7600000016}},{"attributes":{"ID":273968,"DIS_CODE":0,"TOWNNAME":"善化區","LI":"嘉南里","LIN":"3鄰","STREET":" ","SECT":" ","MAREA":"茄拔","LANE":" ","ALLEY":" ","HOUSE_NO":"７４號","E_COORD97":180957.39000000001,"N_COORD97":2559414.7599999998,"ADDRESS":"茄拔７４號","OBJECTID":273963},"geometry":{"x":180957.38999999966,"y":2559414.7600000035}},{"attributes":{"ID":273969,"DIS_CODE":0,"TOWNNAME":"善化區","LI":"嘉南里","LIN":"3鄰","STREET":" ","SECT":" ","MAREA":"茄拔","LANE":" ","ALLEY":" ","HOUSE_NO":"７２之１０號","E_COORD97":180888.26999999999,"N_COORD97":2559400.77,"ADDRESS":"茄拔７２之１０號","OBJECTID":273964},"geometry":{"x":180888.27000000048,"y":2559400.7700000033}},{"attributes":{"ID":273970,"DIS_CODE":0,"TOWNNAME":"善化區","LI":"嘉南里","LIN":"3鄰","STREET":" ","SECT":" ","MAREA":"茄拔","LANE":" ","ALLEY":" ","HOUSE_NO":"７６號之３","E_COORD97":181055.25,"N_COORD97":2559395.77,"ADDRESS":"茄拔７６號之３","OBJECTID":273965},"geometry":{"x":181055.25,"y":2559395.7699999996}},{"attributes":{"ID":273971,"DIS_CODE":0,"TOWNNAME":"善化區","LI":"嘉南里","LIN":"3鄰","STREET":" ","SECT":" ","MAREA":"茄拔","LANE":" ","ALLEY":" ","HOUSE_NO":"７６號之６","E_COORD97":181043.04000000001,"N_COORD97":2559395.77,"ADDRESS":"茄拔７６號之６","OBJECTID":273966},"geometry":{"x":181043.04000000097,"y":2559395.7699999996}},{"attributes":{"ID":273972,"DIS_CODE":0,"TOWNNAME":"善化區","LI":"嘉南里","LIN":"3鄰","STREET":" ","SECT":" ","MAREA":"茄拔","LANE":" ","ALLEY":" ","HOUSE_NO":"７２號之９","E_COORD97":180872.56,"N_COORD97":2559414.02,"ADDRESS":"茄拔７２號之９","OBJECTID":273967},"geometry":{"x":180872.56000000052,"y":2559414.0200000014}},{"attributes":{"ID":273973,"DIS_CODE":0,"TOWNNAME":"新營區","LI":"新南里","LIN":"24鄰","STREET":"隋唐街","SECT":" ","MAREA":" ","LANE":" ","ALLEY":" ","HOUSE_NO":"２０７號","E_COORD97":178356.35999999999,"N_COORD97":2578562.8599999999,"ADDRESS":"隋唐街２０７號","OBJECTID":273968},"geometry":{"x":178356.36000000034,"y":2578562.8600000013}},{"attributes":{"ID":273974,"DIS_CODE":0,"TOWNNAME":"善化區","LI":"嘉南里","LIN":"3鄰","STREET":" ","SECT":" ","MAREA":"茄拔","LANE":" ","ALLEY":" ","HOUSE_NO":"７６號之１０","E_COORD97":181027.04000000001,"N_COORD97":2559395.77,"ADDRESS":"茄拔７６號之１０","OBJECTID":273969},"geometry":{"x":181027.0400000019,"y":2559395.7699999996}},{"attributes":{"ID":273975,"DIS_CODE":0,"TOWNNAME":"善化區","LI":"嘉南里","LIN":"3鄰","STREET":" ","SECT":" ","MAREA":"茄拔","LANE":" ","ALLEY":" ","HOUSE_NO":"７３之１號","E_COORD97":180938.60999999999,"N_COORD97":2559414.02,"ADDRESS":"茄拔７３之１號","OBJECTID":273970},"geometry":{"x":180938.6099999994,"y":2559414.0200000014}},{"attributes":{"ID":273976,"DIS_CODE":0,"TOWNNAME":"善化區","LI":"嘉南里","LIN":"3鄰","STREET":" ","SECT":" ","MAREA":"茄拔","LANE":" ","ALLEY":" ","HOUSE_NO":"７２號之１","E_COORD97":180908.64999999999,"N_COORD97":2559381.52,"ADDRESS":"茄拔７２號之１","OBJECTID":273971},"geometry":{"x":180908.6500000013,"y":2559381.5199999996}},{"attributes":{"ID":273977,"DIS_CODE":0,"TOWNNAME":"善化區","LI":"嘉北里","LIN":"3鄰","STREET":" ","SECT":" ","MAREA":"茄拔","LANE":" ","ALLEY":" ","HOUSE_NO":"２５號之６","E_COORD97":181109.84,"N_COORD97":2559846.27,"ADDRESS":"茄拔２５號之６","OBJECTID":273972},"geometry":{"x":181109.84000000078,"y":2559846.2700000014}},{"attributes":{"ID":273978,"DIS_CODE":0,"TOWNNAME":"善化區","LI":"胡厝里","LIN":"3鄰","STREET":" ","SECT":" ","MAREA":"胡厝寮","LANE":" ","ALLEY":" ","HOUSE_NO":"１８３號之１","E_COORD97":175188.13,"N_COORD97":2560486.52,"ADDRESS":"胡厝寮１８３號之１","OBJECTID":273973},"geometry":{"x":175188.13000000175,"y":2560486.5199999996}},{"attributes":{"ID":273979,"DIS_CODE":0,"TOWNNAME":"善化區","LI":"嘉北里","LIN":"3鄰","STREET":" ","SECT":" ","MAREA":"茄拔","LANE":" ","ALLEY":" ","HOUSE_NO":"２６號","E_COORD97":181106.59,"N_COORD97":2559830.2599999998,"ADDRESS":"茄拔２６號","OBJECTID":273974},"geometry":{"x":181106.59000000078,"y":2559830.2599999998}},{"attributes":{"ID":273980,"DIS_CODE":0,"TOWNNAME":"善化區","LI":"東隆里","LIN":"3鄰","STREET":" ","SECT":" ","MAREA":"東勢寮","LANE":" ","ALLEY":" ","HOUSE_NO":"１４１之２號","E_COORD97":180199.79999999999,"N_COORD97":2561874.02,"ADDRESS":"東勢寮１４１之２號","OBJECTID":273975},"geometry":{"x":180199.80000000075,"y":2561874.0200000033}},{"attributes":{"ID":273981,"DIS_CODE":0,"TOWNNAME":"善化區","LI":"東昌里","LIN":"3鄰","STREET":" ","SECT":" ","MAREA":"東勢寮","LANE":" ","ALLEY":" ","HOUSE_NO":"３２號","E_COORD97":180803.75,"N_COORD97":2561924.0099999998,"ADDRESS":"東勢寮３２號","OBJECTID":273976},"geometry":{"x":180803.75000000093,"y":2561924.0099999998}},{"attributes":{"ID":273982,"DIS_CODE":0,"TOWNNAME":"善化區","LI":"胡厝里","LIN":"3鄰","STREET":" ","SECT":" ","MAREA":"胡厝寮","LANE":" ","ALLEY":" ","HOUSE_NO":"１８３號","E_COORD97":175178.10999999999,"N_COORD97":2560511.25,"ADDRESS":"胡厝寮１８３號","OBJECTID":273977},"geometry":{"x":175178.11000000034,"y":2560511.2500000019}},{"attributes":{"ID":273983,"DIS_CODE":0,"TOWNNAME":"安定區","LI":"港尾里","LIN":"3鄰","STREET":" ","SECT":" ","MAREA":"港子尾","LANE":" ","ALLEY":" ","HOUSE_NO":"２號","E_COORD97":171601.73999999999,"N_COORD97":2556222.2599999998,"ADDRESS":"港子尾２號","OBJECTID":273978},"geometry":{"x":171601.74000000022,"y":2556222.2600000016}},{"attributes":{"ID":273984,"DIS_CODE":0,"TOWNNAME":"中西區","LI":"青年里","LIN":"3鄰","STREET":"興華街","SECT":" ","MAREA":" ","LANE":" ","ALLEY":" ","HOUSE_NO":"１０號","E_COORD97":169055.26000000001,"N_COORD97":2543604.6600000001,"ADDRESS":"興華街１０號","OBJECTID":273979},"geometry":{"x":169055.25999999978,"y":2543604.6600000001}},{"attributes":{"ID":273985,"DIS_CODE":0,"TOWNNAME":"中西區","LI":"青年里","LIN":"3鄰","STREET":"興華街","SECT":" ","MAREA":" ","LANE":" ","ALLEY":" ","HOUSE_NO":"６號","E_COORD97":169046.17999999999,"N_COORD97":2543597.5699999998,"ADDRESS":"興華街６號","OBJECTID":273980},"geometry":{"x":169046.18000000063,"y":2543597.5700000022}},{"attributes":{"ID":273986,"DIS_CODE":0,"TOWNNAME":"仁德區","LI":"仁德里","LIN":"3鄰","STREET":"仁中五街","SECT":" ","MAREA":" ","LANE":" ","ALLEY":" ","HOUSE_NO":"５６號","E_COORD97":173379.25,"N_COORD97":2540300.25,"ADDRESS":"仁中五街５６號","OBJECTID":273981},"geometry":{"x":173379.25000000093,"y":2540300.2500000019}},{"attributes":{"ID":273987,"DIS_CODE":0,"TOWNNAME":"仁德區","LI":"仁德里","LIN":"3鄰","STREET":"仁中五街","SECT":" ","MAREA":" ","LANE":" ","ALLEY":" ","HOUSE_NO":"５３號","E_COORD97":173395.66,"N_COORD97":2540280.9900000002,"ADDRESS":"仁中五街５３號","OBJECTID":273982},"geometry":{"x":173395.66000000015,"y":2540280.9900000002}},{"attributes":{"ID":273988,"DIS_CODE":0,"TOWNNAME":"永康區","LI":"復國里","LIN":"3鄰","STREET":"復國一路","SECT":" ","MAREA":" ","LANE":" ","ALLEY":" ","HOUSE_NO":"３６號","E_COORD97":172726.87,"N_COORD97":2544778.5299999998,"ADDRESS":"復國一路３６號","OBJECTID":273983},"geometry":{"x":172726.87000000197,"y":2544778.5299999993}},{"attributes":{"ID":273989,"DIS_CODE":0,"TOWNNAME":"永康區","LI":"大橋里","LIN":"3鄰","STREET":"大橋二街","SECT":" ","MAREA":" ","LANE":" ","ALLEY":" ","HOUSE_NO":"１１１號","E_COORD97":170835.29999999999,"N_COORD97":2546624.0699999998,"ADDRESS":"大橋二街１１１號","OBJECTID":273984},"geometry":{"x":170835.30000000168,"y":2546624.0700000003}},{"attributes":{"ID":273990,"DIS_CODE":0,"TOWNNAME":"新營區","LI":"南紙里","LIN":"7鄰","STREET":"建業路","SECT":" ","MAREA":" ","LANE":"２６９巷","ALLEY":" ","HOUSE_NO":"３０號","E_COORD97":177965.76000000001,"N_COORD97":2577370.9100000001,"ADDRESS":"建業路２６９巷３０號","OBJECTID":273985},"geometry":{"x":177965.76000000071,"y":2577370.910000002}},{"attributes":{"ID":273991,"DIS_CODE":0,"TOWNNAME":"永康區","LI":"大橋里","LIN":"3鄰","STREET":"大橋二街","SECT":" ","MAREA":" ","LANE":" ","ALLEY":" ","HOUSE_NO":"９５號","E_COORD97":170805.82000000001,"N_COORD97":2546597.0600000001,"ADDRESS":"大橋二街９５號","OBJECTID":273986},"geometry":{"x":170805.82000000123,"y":2546597.0600000005}},{"attributes":{"ID":273992,"DIS_CODE":0,"TOWNNAME":"關廟區","LI":"東勢里","LIN":"7鄰","STREET":"旺萊路","SECT":" ","MAREA":" ","LANE":"１９７巷","ALLEY":" ","HOUSE_NO":"２號","E_COORD97":181911.44,"N_COORD97":2539433.25,"ADDRESS":"旺萊路１９７巷２號","OBJECTID":273987},"geometry":{"x":181911.44000000134,"y":2539433.2500000019}},{"attributes":{"ID":273993,"DIS_CODE":0,"TOWNNAME":"永康區","LI":"大橋里","LIN":"3鄰","STREET":"大橋三街","SECT":" ","MAREA":" ","LANE":" ","ALLEY":" ","HOUSE_NO":"１０４號","E_COORD97":170736.63,"N_COORD97":2546641.75,"ADDRESS":"大橋三街１０４號","OBJECTID":273988},"geometry":{"x":170736.63000000082,"y":2546641.75}},{"attributes":{"ID":273994,"DIS_CODE":0,"TOWNNAME":"鹽水區","LI":"橋南里","LIN":"7鄰","STREET":"四維路","SECT":" ","MAREA":" ","LANE":"２０６巷","ALLEY":" ","HOUSE_NO":"５號","E_COORD97":175599.64999999999,"N_COORD97":2578733.9300000002,"ADDRESS":"四維路２０６巷５號","OBJECTID":273989},"geometry":{"x":175599.65000000037,"y":2578733.9299999997}},{"attributes":{"ID":273995,"DIS_CODE":0,"TOWNNAME":"北區","LI":"大仁里","LIN":"7鄰","STREET":"北門路","SECT":"二段","MAREA":" ","LANE":"２３７巷","ALLEY":" ","HOUSE_NO":"８號","E_COORD97":169481.70999999999,"N_COORD97":2545333.3900000001,"ADDRESS":"北門路二段２３７巷８號","OBJECTID":273990},"geometry":{"x":169481.71000000089,"y":2545333.3900000006}},{"attributes":{"ID":273996,"DIS_CODE":0,"TOWNNAME":"北區","LI":"大仁里","LIN":"7鄰","STREET":"北門路","SECT":"二段","MAREA":" ","LANE":"２４７巷","ALLEY":" ","HOUSE_NO":"２１號","E_COORD97":169492.13,"N_COORD97":2545382.4700000002,"ADDRESS":"北門路二段２４７巷２１號","OBJECTID":273991},"geometry":{"x":169492.13000000175,"y":2545382.4700000025}},{"attributes":{"ID":273997,"DIS_CODE":0,"TOWNNAME":"北區","LI":"大仁里","LIN":"7鄰","STREET":"北門路","SECT":"二段","MAREA":" ","LANE":"２４７巷","ALLEY":" ","HOUSE_NO":"２３號","E_COORD97":169470.76000000001,"N_COORD97":2545377.8199999998,"ADDRESS":"北門路二段２４７巷２３號","OBJECTID":273992},"geometry":{"x":169470.75999999885,"y":2545377.8200000003}},{"attributes":{"ID":273998,"DIS_CODE":0,"TOWNNAME":"北區","LI":"大仁里","LIN":"7鄰","STREET":"北門路","SECT":"二段","MAREA":" ","LANE":"２４７巷","ALLEY":" ","HOUSE_NO":"２５號","E_COORD97":169465.16,"N_COORD97":2545376.6899999999,"ADDRESS":"北門路二段２４７巷２５號","OBJECTID":273993},"geometry":{"x":169465.16000000201,"y":2545376.6900000013}},{"attributes":{"ID":273999,"DIS_CODE":0,"TOWNNAME":"新市區","LI":"新和里","LIN":"3鄰","STREET":"中正路","SECT":" ","MAREA":" ","LANE":" ","ALLEY":" ","HOUSE_NO":"７號","E_COORD97":177495.73000000001,"N_COORD97":2552151,"ADDRESS":"中正路７號","OBJECTID":273994},"geometry":{"x":177495.73000000138,"y":2552151.0000000037}},{"attributes":{"ID":274000,"DIS_CODE":0,"TOWNNAME":"安平區","LI":"西門里","LIN":"7鄰","STREET":"安北路","SECT":" ","MAREA":" ","LANE":"２３３巷","ALLEY":" ","HOUSE_NO":"３號","E_COORD97":163769.16,"N_COORD97":2544723.3500000001,"ADDRESS":"安北路２３３巷３號","OBJECTID":273995},"geometry":{"x":163769.15999999922,"y":2544723.3500000034}},{"attributes":{"ID":274001,"DIS_CODE":0,"TOWNNAME":"永康區","LI":"大橋里","LIN":"3鄰","STREET":"大橋三街","SECT":" ","MAREA":" ","LANE":" ","ALLEY":" ","HOUSE_NO":"１０６號","E_COORD97":170745.10000000001,"N_COORD97":2546641,"ADDRESS":"大橋三街１０６號","OBJECTID":273996},"geometry":{"x":170745.10000000056,"y":2546641}},{"attributes":{"ID":274002,"DIS_CODE":0,"TOWNNAME":"歸仁區","LI":"許厝里","LIN":"7鄰","STREET":"仁愛八街","SECT":" ","MAREA":" ","LANE":"１７巷","ALLEY":" ","HOUSE_NO":"１０號","E_COORD97":178202.81,"N_COORD97":2540600.4199999999,"ADDRESS":"仁愛八街１７巷１０號","OBJECTID":273997},"geometry":{"x":178202.81000000052,"y":2540600.4200000037}},{"attributes":{"ID":274003,"DIS_CODE":0,"TOWNNAME":"新營區","LI":"新東里","LIN":"7鄰","STREET":"東大街","SECT":" ","MAREA":" ","LANE":"６６巷","ALLEY":" ","HOUSE_NO":"４９號","E_COORD97":181152.62,"N_COORD97":2579221.8100000001,"ADDRESS":"東大街６６巷４９號","OBJECTID":273998},"geometry":{"x":181152.62000000104,"y":2579221.8100000042}},{"attributes":{"ID":274004,"DIS_CODE":0,"TOWNNAME":"歸仁區","LI":"歸南里","LIN":"7鄰","STREET":"中正十六街","SECT":" ","MAREA":" ","LANE":"２巷","ALLEY":" ","HOUSE_NO":"３２號","E_COORD97":176580.60999999999,"N_COORD97":2539885.9500000002,"ADDRESS":"中正十六街２巷３２號","OBJECTID":273999},"geometry":{"x":176580.61000000127,"y":2539885.9499999993}},{"attributes":{"ID":274005,"DIS_CODE":0,"TOWNNAME":"歸仁區","LI":"南保里","LIN":"64鄰","STREET":"中山九街","SECT":" ","MAREA":" ","LANE":"７巷","ALLEY":" ","HOUSE_NO":"２３號","E_COORD97":176539.69228700001,"N_COORD97":2540849.7091999999,"ADDRESS":"中山九街７巷２３號","OBJECTID":274000},"geometry":{"x":176539.69228700176,"y":2540849.7092010006}}]}