{"displayFieldName":"TOWNNAME","fieldAliases":{"ID":"ID","DIS_CODE":"DIS_CODE","TOWNNAME":"TOWNNAME","LI":"LI","LIN":"LIN","STREET":"STREET","SECT":"SECT","MAREA":"MAREA","LANE":"LANE","ALLEY":"ALLEY","HOUSE_NO":"HOUSE_NO","E_COORD97":"E_COORD97","N_COORD97":"N_COORD97","ADDRESS":"ADDRESS","OBJECTID":"OBJECTID"},"geometryType":"esriGeometryPoint","spatialReference":{"wkid":102443,"latestWkid":3826},"fields":[{"name":"ID","type":"esriFieldTypeDouble","alias":"ID"},{"name":"DIS_CODE","type":"esriFieldTypeInteger","alias":"DIS_CODE"},{"name":"TOWNNAME","type":"esriFieldTypeString","alias":"TOWNNAME","length":8},{"name":"LI","type":"esriFieldTypeString","alias":"LI","length":8},{"name":"LIN","type":"esriFieldTypeString","alias":"LIN","length":12},{"name":"STREET","type":"esriFieldTypeString","alias":"STREET","length":20},{"name":"SECT","type":"esriFieldTypeString","alias":"SECT","length":8},{"name":"MAREA","type":"esriFieldTypeString","alias":"MAREA","length":12},{"name":"LANE","type":"esriFieldTypeString","alias":"LANE","length":10},{"name":"ALLEY","type":"esriFieldTypeString","alias":"ALLEY","length":10},{"name":"HOUSE_NO","type":"esriFieldTypeString","alias":"HOUSE_NO","length":20},{"name":"E_COORD97","type":"esriFieldTypeDouble","alias":"E_COORD97"},{"name":"N_COORD97","type":"esriFieldTypeDouble","alias":"N_COORD97"},{"name":"ADDRESS","type":"esriFieldTypeString","alias":"ADDRESS","length":50},{"name":"OBJECTID","type":"esriFieldTypeOID","alias":"OBJECTID"}],"features":[{"attributes":{"ID":77601,"DIS_CODE":0,"TOWNNAME":"善化區","LI":"六分里","LIN":"6鄰","STREET":" ","SECT":" ","MAREA":"東勢宅","LANE":" ","ALLEY":" ","HOUSE_NO":"４７號之１","E_COORD97":177607.16,"N_COORD97":2561072.77,"ADDRESS":"東勢宅４７號之１","OBJECTID":77601},"geometry":{"x":177607.16000000201,"y":2561072.7700000014}},{"attributes":{"ID":77602,"DIS_CODE":0,"TOWNNAME":"善化區","LI":"六分里","LIN":"6鄰","STREET":" ","SECT":" ","MAREA":"東勢宅","LANE":" ","ALLEY":" ","HOUSE_NO":"４７號","E_COORD97":177644.95999999999,"N_COORD97":2561098.0099999998,"ADDRESS":"東勢宅４７號","OBJECTID":77602},"geometry":{"x":177644.95999999996,"y":2561098.0100000035}},{"attributes":{"ID":77603,"DIS_CODE":0,"TOWNNAME":"善化區","LI":"六分里","LIN":"6鄰","STREET":" ","SECT":" ","MAREA":"東勢宅","LANE":" ","ALLEY":" ","HOUSE_NO":"３６之３號","E_COORD97":177668.04000000001,"N_COORD97":2561118.52,"ADDRESS":"東勢宅３６之３號","OBJECTID":77603},"geometry":{"x":177668.04000000004,"y":2561118.5200000014}},{"attributes":{"ID":77604,"DIS_CODE":0,"TOWNNAME":"善化區","LI":"六德里","LIN":"6鄰","STREET":" ","SECT":" ","MAREA":"六分寮","LANE":" ","ALLEY":" ","HOUSE_NO":"２４９號之２","E_COORD97":178825.39999999999,"N_COORD97":2561631.27,"ADDRESS":"六分寮２４９號之２","OBJECTID":77604},"geometry":{"x":178825.4000000013,"y":2561631.2699999996}},{"attributes":{"ID":77605,"DIS_CODE":0,"TOWNNAME":"善化區","LI":"牛庄里","LIN":"6鄰","STREET":" ","SECT":" ","MAREA":"牛庄","LANE":" ","ALLEY":" ","HOUSE_NO":"６９號","E_COORD97":180200.13,"N_COORD97":2560094,"ADDRESS":"牛庄６９號","OBJECTID":77605},"geometry":{"x":180200.12999999989,"y":2560094}},{"attributes":{"ID":77606,"DIS_CODE":0,"TOWNNAME":"善化區","LI":"六分里","LIN":"6鄰","STREET":" ","SECT":" ","MAREA":"東勢宅","LANE":" ","ALLEY":" ","HOUSE_NO":"４８號","E_COORD97":177546.51000000001,"N_COORD97":2561069.7599999998,"ADDRESS":"東勢宅４８號","OBJECTID":77606},"geometry":{"x":177546.50999999978,"y":2561069.7600000016}},{"attributes":{"ID":77607,"DIS_CODE":0,"TOWNNAME":"善化區","LI":"六分里","LIN":"6鄰","STREET":" ","SECT":" ","MAREA":"東勢宅","LANE":" ","ALLEY":" ","HOUSE_NO":"８１號","E_COORD97":177602.19,"N_COORD97":2561324.5099999998,"ADDRESS":"東勢宅８１號","OBJECTID":77607},"geometry":{"x":177602.19000000227,"y":2561324.5099999998}},{"attributes":{"ID":77608,"DIS_CODE":0,"TOWNNAME":"善化區","LI":"六分里","LIN":"6鄰","STREET":" ","SECT":" ","MAREA":"東勢宅","LANE":" ","ALLEY":" ","HOUSE_NO":"３９號","E_COORD97":177683.20999999999,"N_COORD97":2561064.0099999998,"ADDRESS":"東勢宅３９號","OBJECTID":77608},"geometry":{"x":177683.21000000089,"y":2561064.0100000035}},{"attributes":{"ID":77609,"DIS_CODE":0,"TOWNNAME":"善化區","LI":"什乃里","LIN":"6鄰","STREET":" ","SECT":" ","MAREA":"什乃","LANE":" ","ALLEY":" ","HOUSE_NO":"５０號","E_COORD97":176161.26999999999,"N_COORD97":2560454.5,"ADDRESS":"什乃５０號","OBJECTID":77609},"geometry":{"x":176161.26999999955,"y":2560454.5000000019}},{"attributes":{"ID":77610,"DIS_CODE":0,"TOWNNAME":"善化區","LI":"六分里","LIN":"6鄰","STREET":" ","SECT":" ","MAREA":"東勢宅","LANE":" ","ALLEY":" ","HOUSE_NO":"３６之５號","E_COORD97":177676.17000000001,"N_COORD97":2561121.27,"ADDRESS":"東勢宅３６之５號","OBJECTID":77610},"geometry":{"x":177676.16999999993,"y":2561121.2700000014}},{"attributes":{"ID":77611,"DIS_CODE":0,"TOWNNAME":"善化區","LI":"六分里","LIN":"6鄰","STREET":" ","SECT":" ","MAREA":"東勢宅","LANE":" ","ALLEY":" ","HOUSE_NO":"７５號","E_COORD97":177719.57999999999,"N_COORD97":2561310.2599999998,"ADDRESS":"東勢宅７５號","OBJECTID":77611},"geometry":{"x":177719.58000000194,"y":2561310.2600000016}},{"attributes":{"ID":77612,"DIS_CODE":0,"TOWNNAME":"善化區","LI":"六分里","LIN":"6鄰","STREET":" ","SECT":" ","MAREA":"東勢宅","LANE":" ","ALLEY":" ","HOUSE_NO":"３７號之２","E_COORD97":177600.04999999999,"N_COORD97":2561100.52,"ADDRESS":"東勢宅３７號之２","OBJECTID":77612},"geometry":{"x":177600.04999999981,"y":2561100.5199999996}},{"attributes":{"ID":77613,"DIS_CODE":0,"TOWNNAME":"新營區","LI":"新南里","LIN":"19鄰","STREET":"隋唐街","SECT":" ","MAREA":" ","LANE":"３１巷","ALLEY":"３８弄","HOUSE_NO":"８號","E_COORD97":178640.29999999999,"N_COORD97":2578358.8199999998,"ADDRESS":"隋唐街３１巷３８弄８號","OBJECTID":77613},"geometry":{"x":178640.30000000075,"y":2578358.8200000003}},{"attributes":{"ID":77614,"DIS_CODE":0,"TOWNNAME":"新營區","LI":"新南里","LIN":"19鄰","STREET":"隋唐街","SECT":" ","MAREA":" ","LANE":"３１巷","ALLEY":"２８弄","HOUSE_NO":"９號","E_COORD97":178643.35000000001,"N_COORD97":2578375.4100000001,"ADDRESS":"隋唐街３１巷２８弄９號","OBJECTID":77614},"geometry":{"x":178643.35000000056,"y":2578375.4100000001}},{"attributes":{"ID":77615,"DIS_CODE":0,"TOWNNAME":"新營區","LI":"新南里","LIN":"19鄰","STREET":"隋唐街","SECT":" ","MAREA":" ","LANE":"３１巷","ALLEY":"４８弄","HOUSE_NO":"８號","E_COORD97":178629.89999999999,"N_COORD97":2578323.4300000002,"ADDRESS":"隋唐街３１巷４８弄８號","OBJECTID":77615},"geometry":{"x":178629.9000000013,"y":2578323.4299999997}},{"attributes":{"ID":77616,"DIS_CODE":0,"TOWNNAME":"北區","LI":"東興里","LIN":"19鄰","STREET":"小東路","SECT":" ","MAREA":" ","LANE":"２９９巷","ALLEY":"２７弄","HOUSE_NO":"１０號","E_COORD97":171033.01000000001,"N_COORD97":2544550.8999999999,"ADDRESS":"小東路２９９巷２７弄１０號","OBJECTID":77616},"geometry":{"x":171033.00999999978,"y":2544550.9000000041}},{"attributes":{"ID":77617,"DIS_CODE":0,"TOWNNAME":"北區","LI":"東興里","LIN":"19鄰","STREET":"小東路","SECT":" ","MAREA":" ","LANE":"２９９巷","ALLEY":"２７弄","HOUSE_NO":"１２號","E_COORD97":171030.19,"N_COORD97":2544554.21,"ADDRESS":"小東路２９９巷２７弄１２號","OBJECTID":77617},"geometry":{"x":171030.19000000134,"y":2544554.2100000028}},{"attributes":{"ID":77618,"DIS_CODE":0,"TOWNNAME":"北區","LI":"東興里","LIN":"19鄰","STREET":"小東路","SECT":" ","MAREA":" ","LANE":"２９９巷","ALLEY":"２７弄","HOUSE_NO":"１４號","E_COORD97":171043.22,"N_COORD97":2544556.1499999999,"ADDRESS":"小東路２９９巷２７弄１４號","OBJECTID":77618},"geometry":{"x":171043.22000000067,"y":2544556.1500000041}},{"attributes":{"ID":77619,"DIS_CODE":0,"TOWNNAME":"北區","LI":"東興里","LIN":"19鄰","STREET":"小東路","SECT":" ","MAREA":" ","LANE":"２９９巷","ALLEY":"２７弄","HOUSE_NO":"１６號","E_COORD97":171047.31,"N_COORD97":2544559.0699999998,"ADDRESS":"小東路２９９巷２７弄１６號","OBJECTID":77619},"geometry":{"x":171047.31000000052,"y":2544559.0700000003}},{"attributes":{"ID":77620,"DIS_CODE":0,"TOWNNAME":"柳營區","LI":"重溪里","LIN":"1鄰","STREET":" ","SECT":" ","MAREA":"小腳腿","LANE":" ","ALLEY":" ","HOUSE_NO":"７號","E_COORD97":185189.57000000001,"N_COORD97":2576257.0800000001,"ADDRESS":"小腳腿７號","OBJECTID":77620},"geometry":{"x":185189.57000000123,"y":2576257.0800000019}},{"attributes":{"ID":77621,"DIS_CODE":0,"TOWNNAME":"北區","LI":"東興里","LIN":"19鄰","STREET":"小東路","SECT":" ","MAREA":" ","LANE":"２９９巷","ALLEY":"２７弄","HOUSE_NO":"１８號","E_COORD97":171050.81,"N_COORD97":2544562.3700000001,"ADDRESS":"小東路２９９巷２７弄１８號","OBJECTID":77621},"geometry":{"x":171050.81000000052,"y":2544562.3700000029}},{"attributes":{"ID":77622,"DIS_CODE":0,"TOWNNAME":"北區","LI":"東興里","LIN":"19鄰","STREET":"小東路","SECT":" ","MAREA":" ","LANE":"２９９巷","ALLEY":"２７弄","HOUSE_NO":"２０號","E_COORD97":171053.92999999999,"N_COORD97":2544565.3799999999,"ADDRESS":"小東路２９９巷２７弄２０號","OBJECTID":77622},"geometry":{"x":171053.9299999997,"y":2544565.379999999}},{"attributes":{"ID":77623,"DIS_CODE":0,"TOWNNAME":"北區","LI":"東興里","LIN":"19鄰","STREET":"小東路","SECT":" ","MAREA":" ","LANE":"２９９巷","ALLEY":"２７弄","HOUSE_NO":"２２號","E_COORD97":171035.14999999999,"N_COORD97":2544583.9700000002,"ADDRESS":"小東路２９９巷２７弄２２號","OBJECTID":77623},"geometry":{"x":171035.15000000224,"y":2544583.9700000007}},{"attributes":{"ID":77624,"DIS_CODE":0,"TOWNNAME":"北區","LI":"東興里","LIN":"19鄰","STREET":"小東路","SECT":" ","MAREA":" ","LANE":"２９９巷","ALLEY":"２７弄","HOUSE_NO":"２４號","E_COORD97":171032.42000000001,"N_COORD97":2544580.8599999999,"ADDRESS":"小東路２９９巷２７弄２４號","OBJECTID":77624},"geometry":{"x":171032.41999999993,"y":2544580.8600000031}},{"attributes":{"ID":77625,"DIS_CODE":0,"TOWNNAME":"北區","LI":"東興里","LIN":"19鄰","STREET":"小東路","SECT":" ","MAREA":" ","LANE":"２９９巷","ALLEY":"２７弄","HOUSE_NO":"３８號","E_COORD97":171009.45999999999,"N_COORD97":2544574.6400000001,"ADDRESS":"小東路２９９巷２７弄３８號","OBJECTID":77625},"geometry":{"x":171009.46000000089,"y":2544574.6400000025}},{"attributes":{"ID":77626,"DIS_CODE":0,"TOWNNAME":"南區","LI":"明德里","LIN":"7鄰","STREET":"新都路","SECT":" ","MAREA":" ","LANE":" ","ALLEY":" ","HOUSE_NO":"２２２號之１","E_COORD97":167982.32999999999,"N_COORD97":2541156.2000000002,"ADDRESS":"新都路２２２號之１","OBJECTID":77626},"geometry":{"x":167982.33000000194,"y":2541156.1999999993}},{"attributes":{"ID":77627,"DIS_CODE":0,"TOWNNAME":"南區","LI":"明德里","LIN":"7鄰","STREET":"新都路","SECT":" ","MAREA":" ","LANE":" ","ALLEY":" ","HOUSE_NO":"２２４號","E_COORD97":167992.57999999999,"N_COORD97":2541177.48,"ADDRESS":"新都路２２４號","OBJECTID":77627},"geometry":{"x":167992.58000000194,"y":2541177.4800000023}},{"attributes":{"ID":77628,"DIS_CODE":0,"TOWNNAME":"南區","LI":"明德里","LIN":"7鄰","STREET":"新都路","SECT":" ","MAREA":" ","LANE":" ","ALLEY":" ","HOUSE_NO":"２２６號","E_COORD97":167988.53,"N_COORD97":2541177.7599999998,"ADDRESS":"新都路２２６號","OBJECTID":77628},"geometry":{"x":167988.53000000119,"y":2541177.7600000035}},{"attributes":{"ID":77629,"DIS_CODE":0,"TOWNNAME":"北區","LI":"東興里","LIN":"19鄰","STREET":"小東路","SECT":" ","MAREA":" ","LANE":"２９９巷","ALLEY":"２７弄","HOUSE_NO":"４０號","E_COORD97":171006.16,"N_COORD97":2544578.3300000001,"ADDRESS":"小東路２９９巷２７弄４０號","OBJECTID":77629},"geometry":{"x":171006.16000000201,"y":2544578.3300000038}},{"attributes":{"ID":77630,"DIS_CODE":0,"TOWNNAME":"北區","LI":"東興里","LIN":"19鄰","STREET":"小東路","SECT":" ","MAREA":" ","LANE":"２９９巷","ALLEY":"２７弄","HOUSE_NO":"４２號","E_COORD97":171002.85000000001,"N_COORD97":2544581.6400000001,"ADDRESS":"小東路２９９巷２７弄４２號","OBJECTID":77630},"geometry":{"x":171002.85000000056,"y":2544581.6400000025}},{"attributes":{"ID":77631,"DIS_CODE":0,"TOWNNAME":"北區","LI":"東興里","LIN":"19鄰","STREET":"小東路","SECT":" ","MAREA":" ","LANE":"２９９巷","ALLEY":"２７弄","HOUSE_NO":"４６號","E_COORD97":171000.12,"N_COORD97":2544585.5299999998,"ADDRESS":"小東路２９９巷２７弄４６號","OBJECTID":77631},"geometry":{"x":171000.12000000104,"y":2544585.5299999993}},{"attributes":{"ID":77632,"DIS_CODE":0,"TOWNNAME":"北區","LI":"東興里","LIN":"19鄰","STREET":"小東路","SECT":" ","MAREA":" ","LANE":"２９９巷","ALLEY":"２７弄","HOUSE_NO":"４號","E_COORD97":171042.73999999999,"N_COORD97":2544540.5,"ADDRESS":"小東路２９９巷２７弄４號","OBJECTID":77632},"geometry":{"x":171042.74000000022,"y":2544540.5000000019}},{"attributes":{"ID":77633,"DIS_CODE":0,"TOWNNAME":"北區","LI":"東興里","LIN":"19鄰","STREET":"小東路","SECT":" ","MAREA":" ","LANE":"２９９巷","ALLEY":"２７弄","HOUSE_NO":"６號","E_COORD97":171039.53,"N_COORD97":2544544.3900000001,"ADDRESS":"小東路２９９巷２７弄６號","OBJECTID":77633},"geometry":{"x":171039.53000000119,"y":2544544.3900000043}},{"attributes":{"ID":77634,"DIS_CODE":0,"TOWNNAME":"北區","LI":"東興里","LIN":"19鄰","STREET":"小東路","SECT":" ","MAREA":" ","LANE":"２９９巷","ALLEY":"２７弄","HOUSE_NO":"８號","E_COORD97":171036.12,"N_COORD97":2544547.5,"ADDRESS":"小東路２９９巷２７弄８號","OBJECTID":77634},"geometry":{"x":171036.12000000011,"y":2544547.5000000019}},{"attributes":{"ID":77635,"DIS_CODE":0,"TOWNNAME":"北區","LI":"東興里","LIN":"19鄰","STREET":"小東路","SECT":" ","MAREA":" ","LANE":"３０７巷","ALLEY":"１２９弄","HOUSE_NO":"１號","E_COORD97":171021.82000000001,"N_COORD97":2544596.8999999999,"ADDRESS":"小東路３０７巷１２９弄１號","OBJECTID":77635},"geometry":{"x":171021.8200000003,"y":2544596.9000000004}},{"attributes":{"ID":77636,"DIS_CODE":0,"TOWNNAME":"北區","LI":"東興里","LIN":"19鄰","STREET":"小東路","SECT":" ","MAREA":" ","LANE":"３０７巷","ALLEY":"１２９弄","HOUSE_NO":"３號","E_COORD97":171018.79999999999,"N_COORD97":2544593.5,"ADDRESS":"小東路３０７巷１２９弄３號","OBJECTID":77636},"geometry":{"x":171018.80000000075,"y":2544593.5}},{"attributes":{"ID":77637,"DIS_CODE":0,"TOWNNAME":"北區","LI":"東興里","LIN":"19鄰","STREET":"小東路","SECT":" ","MAREA":" ","LANE":"３０７巷","ALLEY":"１２９弄","HOUSE_NO":"５號","E_COORD97":171016.57000000001,"N_COORD97":2544590.1899999999,"ADDRESS":"小東路３０７巷１２９弄５號","OBJECTID":77637},"geometry":{"x":171016.5700000003,"y":2544590.1900000013}},{"attributes":{"ID":77638,"DIS_CODE":0,"TOWNNAME":"北區","LI":"東興里","LIN":"19鄰","STREET":"小東路","SECT":" ","MAREA":" ","LANE":"３０７巷","ALLEY":"１２９弄","HOUSE_NO":"７號","E_COORD97":171013.35999999999,"N_COORD97":2544587.6600000001,"ADDRESS":"小東路３０７巷１２９弄７號","OBJECTID":77638},"geometry":{"x":171013.3600000022,"y":2544587.660000002}},{"attributes":{"ID":77639,"DIS_CODE":0,"TOWNNAME":"北區","LI":"東興里","LIN":"19鄰","STREET":"小東路","SECT":" ","MAREA":" ","LANE":"３０７巷","ALLEY":"９１弄","HOUSE_NO":"１０號","E_COORD97":171054.89999999999,"N_COORD97":2544533.9900000002,"ADDRESS":"小東路３０７巷９１弄１０號","OBJECTID":77639},"geometry":{"x":171054.90000000037,"y":2544533.9900000021}},{"attributes":{"ID":77640,"DIS_CODE":0,"TOWNNAME":"下營區","LI":"營前里","LIN":"10鄰","STREET":"健康路","SECT":" ","MAREA":" ","LANE":" ","ALLEY":" ","HOUSE_NO":"３００號","E_COORD97":174858.48999999999,"N_COORD97":2570273.3700000001,"ADDRESS":"健康路３００號","OBJECTID":77640},"geometry":{"x":174858.49000000022,"y":2570273.370000001}},{"attributes":{"ID":77641,"DIS_CODE":0,"TOWNNAME":"北區","LI":"東興里","LIN":"19鄰","STREET":"小東路","SECT":" ","MAREA":" ","LANE":"３０７巷","ALLEY":"９１弄","HOUSE_NO":"１２號","E_COORD97":171049.84,"N_COORD97":2544528.54,"ADDRESS":"小東路３０７巷９１弄１２號","OBJECTID":77641},"geometry":{"x":171049.83999999985,"y":2544528.540000001}},{"attributes":{"ID":77642,"DIS_CODE":0,"TOWNNAME":"北區","LI":"東興里","LIN":"19鄰","STREET":"小東路","SECT":" ","MAREA":" ","LANE":"３０７巷","ALLEY":"９１弄","HOUSE_NO":"２號","E_COORD97":171063.64999999999,"N_COORD97":2544554.6899999999,"ADDRESS":"小東路３０７巷９１弄２號","OBJECTID":77642},"geometry":{"x":171063.65000000037,"y":2544554.6900000032}},{"attributes":{"ID":77643,"DIS_CODE":0,"TOWNNAME":"北區","LI":"東興里","LIN":"19鄰","STREET":"小東路","SECT":" ","MAREA":" ","LANE":"３０７巷","ALLEY":"９１弄","HOUSE_NO":"４號","E_COORD97":171060.73999999999,"N_COORD97":2544551.1899999999,"ADDRESS":"小東路３０７巷９１弄４號","OBJECTID":77643},"geometry":{"x":171060.74000000022,"y":2544551.1900000032}},{"attributes":{"ID":77644,"DIS_CODE":0,"TOWNNAME":"官田區","LI":"官田里","LIN":"6鄰","STREET":" ","SECT":" ","MAREA":"官田","LANE":" ","ALLEY":" ","HOUSE_NO":"５８號之２５","E_COORD97":182764.70000000001,"N_COORD97":2565029.6600000001,"ADDRESS":"官田５８號之２５","OBJECTID":77644},"geometry":{"x":182764.70000000019,"y":2565029.6600000001}},{"attributes":{"ID":77645,"DIS_CODE":0,"TOWNNAME":"歸仁區","LI":"七甲里","LIN":"19鄰","STREET":"南潭三街","SECT":" ","MAREA":" ","LANE":"１６２巷","ALLEY":"６弄","HOUSE_NO":"９號","E_COORD97":176412.57999999999,"N_COORD97":2543175.0299999998,"ADDRESS":"南潭三街１６２巷６弄９號","OBJECTID":77645},"geometry":{"x":176412.58000000194,"y":2543175.0299999993}},{"attributes":{"ID":77646,"DIS_CODE":0,"TOWNNAME":"歸仁區","LI":"歸南里","LIN":"19鄰","STREET":"民生八街","SECT":" ","MAREA":" ","LANE":"２８巷","ALLEY":"１弄","HOUSE_NO":"５號","E_COORD97":176114.89000000001,"N_COORD97":2540375.29,"ADDRESS":"民生八街２８巷１弄５號","OBJECTID":77646},"geometry":{"x":176114.88999999873,"y":2540375.2899999991}},{"attributes":{"ID":77647,"DIS_CODE":0,"TOWNNAME":"歸仁區","LI":"七甲里","LIN":"19鄰","STREET":"南潭三街","SECT":" ","MAREA":" ","LANE":"１６２巷","ALLEY":"６弄","HOUSE_NO":"１４號","E_COORD97":176408.82999999999,"N_COORD97":2543183.0299999998,"ADDRESS":"南潭三街１６２巷６弄１４號","OBJECTID":77647},"geometry":{"x":176408.83000000007,"y":2543183.0300000012}},{"attributes":{"ID":77648,"DIS_CODE":0,"TOWNNAME":"歸仁區","LI":"媽廟里","LIN":"19鄰","STREET":"媽廟二街","SECT":" ","MAREA":" ","LANE":"３１巷","ALLEY":"４２弄","HOUSE_NO":"７號","E_COORD97":177741.67999999999,"N_COORD97":2543841.7200000002,"ADDRESS":"媽廟二街３１巷４２弄７號","OBJECTID":77648},"geometry":{"x":177741.6799999997,"y":2543841.7200000025}},{"attributes":{"ID":77649,"DIS_CODE":0,"TOWNNAME":"歸仁區","LI":"歸南里","LIN":"19鄰","STREET":"民生八街","SECT":" ","MAREA":" ","LANE":"２８巷","ALLEY":"１弄","HOUSE_NO":"１５號","E_COORD97":176095.54000000001,"N_COORD97":2540375.29,"ADDRESS":"民生八街２８巷１弄１５號","OBJECTID":77649},"geometry":{"x":176095.54000000004,"y":2540375.2899999991}},{"attributes":{"ID":77650,"DIS_CODE":0,"TOWNNAME":"歸仁區","LI":"歸南里","LIN":"19鄰","STREET":"民生八街","SECT":" ","MAREA":" ","LANE":"２８巷","ALLEY":"１弄","HOUSE_NO":"３１號","E_COORD97":176060.73999999999,"N_COORD97":2540375.29,"ADDRESS":"民生八街２８巷１弄３１號","OBJECTID":77650},"geometry":{"x":176060.74000000209,"y":2540375.2899999991}},{"attributes":{"ID":77651,"DIS_CODE":0,"TOWNNAME":"歸仁區","LI":"七甲里","LIN":"19鄰","STREET":"南潭三街","SECT":" ","MAREA":" ","LANE":"１６２巷","ALLEY":"６弄","HOUSE_NO":"３號","E_COORD97":176427.98000000001,"N_COORD97":2543174.0299999998,"ADDRESS":"南潭三街１６２巷６弄３號","OBJECTID":77651},"geometry":{"x":176427.98000000045,"y":2543174.0300000012}},{"attributes":{"ID":77652,"DIS_CODE":0,"TOWNNAME":"北區","LI":"文元里","LIN":"19鄰","STREET":"文賢路","SECT":" ","MAREA":" ","LANE":"１０３０巷","ALLEY":"４８弄","HOUSE_NO":"７號","E_COORD97":167512.31,"N_COORD97":2546027.4199999999,"ADDRESS":"文賢路１０３０巷４８弄７號","OBJECTID":77652},"geometry":{"x":167512.31000000145,"y":2546027.4199999999}},{"attributes":{"ID":77653,"DIS_CODE":0,"TOWNNAME":"安南區","LI":"理想里","LIN":"7鄰","STREET":"海佃路","SECT":"二段","MAREA":" ","LANE":" ","ALLEY":" ","HOUSE_NO":"１８４號","E_COORD97":166975.94701,"N_COORD97":2548219.6540600001,"ADDRESS":"海佃路二段１８４號","OBJECTID":77653},"geometry":{"x":166975.94701000024,"y":2548219.6540600006}},{"attributes":{"ID":77654,"DIS_CODE":0,"TOWNNAME":"北區","LI":"文元里","LIN":"19鄰","STREET":"文賢路","SECT":" ","MAREA":" ","LANE":"１０３０巷","ALLEY":"６６弄","HOUSE_NO":"３號","E_COORD97":167556.60999999999,"N_COORD97":2546037.9700000002,"ADDRESS":"文賢路１０３０巷６６弄３號","OBJECTID":77654},"geometry":{"x":167556.61000000034,"y":2546037.9700000007}},{"attributes":{"ID":77655,"DIS_CODE":0,"TOWNNAME":"北區","LI":"文元里","LIN":"19鄰","STREET":"文賢路","SECT":" ","MAREA":" ","LANE":"１０３０巷","ALLEY":"６６弄","HOUSE_NO":"７號","E_COORD97":167557.29999999999,"N_COORD97":2546025.5899999999,"ADDRESS":"文賢路１０３０巷６６弄７號","OBJECTID":77655},"geometry":{"x":167557.30000000075,"y":2546025.5899999999}},{"attributes":{"ID":77656,"DIS_CODE":0,"TOWNNAME":"歸仁區","LI":"大潭里","LIN":"19鄰","STREET":"中正南路","SECT":"三段","MAREA":" ","LANE":"９６巷","ALLEY":"５１弄","HOUSE_NO":"３號","E_COORD97":175162.70999999999,"N_COORD97":2534987.2799999998,"ADDRESS":"中正南路三段９６巷５１弄３號","OBJECTID":77656},"geometry":{"x":175162.71000000089,"y":2534987.2800000012}},{"attributes":{"ID":77657,"DIS_CODE":0,"TOWNNAME":"歸仁區","LI":"七甲里","LIN":"19鄰","STREET":"南潭三街","SECT":" ","MAREA":" ","LANE":"１６２巷","ALLEY":"３弄","HOUSE_NO":"７號","E_COORD97":176460.88,"N_COORD97":2543185.0299999998,"ADDRESS":"南潭三街１６２巷３弄７號","OBJECTID":77657},"geometry":{"x":176460.87999999989,"y":2543185.0299999993}},{"attributes":{"ID":77658,"DIS_CODE":0,"TOWNNAME":"歸仁區","LI":"大廟里","LIN":"19鄰","STREET":"大廟一街","SECT":" ","MAREA":" ","LANE":"２８巷","ALLEY":"２１弄","HOUSE_NO":"２１號","E_COORD97":175760.98999999999,"N_COORD97":2544112.1200000001,"ADDRESS":"大廟一街２８巷２１弄２１號","OBJECTID":77658},"geometry":{"x":175760.99000000115,"y":2544112.120000001}},{"attributes":{"ID":77659,"DIS_CODE":0,"TOWNNAME":"新營區","LI":"南紙里","LIN":"4鄰","STREET":"南紙街","SECT":" ","MAREA":" ","LANE":"２９巷","ALLEY":" ","HOUSE_NO":"９號","E_COORD97":177876.16,"N_COORD97":2577737.9100000001,"ADDRESS":"南紙街２９巷９號","OBJECTID":77659},"geometry":{"x":177876.16000000015,"y":2577737.9100000001}},{"attributes":{"ID":77660,"DIS_CODE":0,"TOWNNAME":"新營區","LI":"忠政里","LIN":"4鄰","STREET":"中正路","SECT":" ","MAREA":" ","LANE":" ","ALLEY":" ","HOUSE_NO":"３７之１號","E_COORD97":180092.09,"N_COORD97":2579149.3300000001,"ADDRESS":"中正路３７之１號","OBJECTID":77660},"geometry":{"x":180092.08999999985,"y":2579149.3300000001}},{"attributes":{"ID":77661,"DIS_CODE":0,"TOWNNAME":"新營區","LI":"太南里","LIN":"20鄰","STREET":" ","SECT":" ","MAREA":"太子宮","LANE":" ","ALLEY":" ","HOUSE_NO":"３４０號","E_COORD97":176377.57000000001,"N_COORD97":2577002.1899999999,"ADDRESS":"太子宮３４０號","OBJECTID":77661},"geometry":{"x":176377.57000000123,"y":2577002.1900000013}},{"attributes":{"ID":77662,"DIS_CODE":0,"TOWNNAME":"歸仁區","LI":"大潭里","LIN":"19鄰","STREET":"中正南路","SECT":"三段","MAREA":" ","LANE":"９６巷","ALLEY":"５１弄","HOUSE_NO":"１４號","E_COORD97":175143.45999999999,"N_COORD97":2534980.2799999998,"ADDRESS":"中正南路三段９６巷５１弄１４號","OBJECTID":77662},"geometry":{"x":175143.46000000183,"y":2534980.2800000012}},{"attributes":{"ID":77663,"DIS_CODE":0,"TOWNNAME":"歸仁區","LI":"大潭里","LIN":"19鄰","STREET":"中正南路","SECT":"三段","MAREA":" ","LANE":"９６巷","ALLEY":"５１弄","HOUSE_NO":"２４號","E_COORD97":175139.26000000001,"N_COORD97":2534960.2799999998,"ADDRESS":"中正南路三段９６巷５１弄２４號","OBJECTID":77663},"geometry":{"x":175139.25999999978,"y":2534960.2800000012}},{"attributes":{"ID":77664,"DIS_CODE":0,"TOWNNAME":"歸仁區","LI":"七甲里","LIN":"19鄰","STREET":"南潭三街","SECT":" ","MAREA":" ","LANE":"１６２巷","ALLEY":"３弄","HOUSE_NO":"２０號","E_COORD97":176488.73000000001,"N_COORD97":2543176.0299999998,"ADDRESS":"南潭三街１６２巷３弄２０號","OBJECTID":77664},"geometry":{"x":176488.73000000138,"y":2543176.0300000012}},{"attributes":{"ID":77665,"DIS_CODE":0,"TOWNNAME":"歸仁區","LI":"七甲里","LIN":"19鄰","STREET":"南潭三街","SECT":" ","MAREA":" ","LANE":"１６２巷","ALLEY":"３弄","HOUSE_NO":"８號","E_COORD97":176457.78,"N_COORD97":2543175.0299999998,"ADDRESS":"南潭三街１６２巷３弄８號","OBJECTID":77665},"geometry":{"x":176457.78000000119,"y":2543175.0299999993}},{"attributes":{"ID":77666,"DIS_CODE":0,"TOWNNAME":"善化區","LI":"什乃里","LIN":"6鄰","STREET":" ","SECT":" ","MAREA":"什乃","LANE":" ","ALLEY":" ","HOUSE_NO":"５１號","E_COORD97":176144.5,"N_COORD97":2560436.5,"ADDRESS":"什乃５１號","OBJECTID":77666},"geometry":{"x":176144.5,"y":2560436.5}},{"attributes":{"ID":77667,"DIS_CODE":0,"TOWNNAME":"歸仁區","LI":"七甲里","LIN":"19鄰","STREET":"南潭三街","SECT":" ","MAREA":" ","LANE":"１６２巷","ALLEY":"３弄","HOUSE_NO":"１１號","E_COORD97":176472.32999999999,"N_COORD97":2543186.0299999998,"ADDRESS":"南潭三街１６２巷３弄１１號","OBJECTID":77667},"geometry":{"x":176472.33000000101,"y":2543186.0300000031}},{"attributes":{"ID":77668,"DIS_CODE":0,"TOWNNAME":"善化區","LI":"什乃里","LIN":"6鄰","STREET":" ","SECT":" ","MAREA":"什乃","LANE":" ","ALLEY":" ","HOUSE_NO":"４８號","E_COORD97":176173.63,"N_COORD97":2560455,"ADDRESS":"什乃４８號","OBJECTID":77668},"geometry":{"x":176173.63000000082,"y":2560455.0000000019}},{"attributes":{"ID":77669,"DIS_CODE":0,"TOWNNAME":"善化區","LI":"田寮里","LIN":"6鄰","STREET":" ","SECT":" ","MAREA":"六分寮","LANE":" ","ALLEY":" ","HOUSE_NO":"６５號","E_COORD97":178516.39999999999,"N_COORD97":2561254,"ADDRESS":"六分寮６５號","OBJECTID":77669},"geometry":{"x":178516.4000000013,"y":2561253.9999999981}},{"attributes":{"ID":77670,"DIS_CODE":0,"TOWNNAME":"白河區","LI":"甘宅里","LIN":"6鄰","STREET":" ","SECT":" ","MAREA":"甘宅","LANE":" ","ALLEY":" ","HOUSE_NO":"６０號","E_COORD97":192570.79000000001,"N_COORD97":2586830.3199999998,"ADDRESS":"甘宅６０號","OBJECTID":77670},"geometry":{"x":192570.79000000004,"y":2586830.3200000022}},{"attributes":{"ID":77671,"DIS_CODE":0,"TOWNNAME":"白河區","LI":"玉豐里","LIN":"6鄰","STREET":" ","SECT":" ","MAREA":"海豐厝","LANE":" ","ALLEY":" ","HOUSE_NO":"２２之９號","E_COORD97":190337.35999999999,"N_COORD97":2586547.04,"ADDRESS":"海豐厝２２之９號","OBJECTID":77671},"geometry":{"x":190337.36000000127,"y":2586547.0399999991}},{"attributes":{"ID":77672,"DIS_CODE":0,"TOWNNAME":"歸仁區","LI":"七甲里","LIN":"19鄰","STREET":"南潭三街","SECT":" ","MAREA":" ","LANE":"１６２巷","ALLEY":"６弄","HOUSE_NO":"５號","E_COORD97":176421.88,"N_COORD97":2543175.0299999998,"ADDRESS":"南潭三街１６２巷６弄５號","OBJECTID":77672},"geometry":{"x":176421.87999999989,"y":2543175.0299999993}},{"attributes":{"ID":77673,"DIS_CODE":0,"TOWNNAME":"歸仁區","LI":"七甲里","LIN":"19鄰","STREET":"南潭三街","SECT":" ","MAREA":" ","LANE":"１６２巷","ALLEY":"６弄","HOUSE_NO":"１６號","E_COORD97":176401.63,"N_COORD97":2543182.0299999998,"ADDRESS":"南潭三街１６２巷６弄１６號","OBJECTID":77673},"geometry":{"x":176401.62999999896,"y":2543182.0299999993}},{"attributes":{"ID":77674,"DIS_CODE":0,"TOWNNAME":"歸仁區","LI":"七甲里","LIN":"19鄰","STREET":"南潭三街","SECT":" ","MAREA":" ","LANE":"１６２巷","ALLEY":"３弄","HOUSE_NO":"１６號","E_COORD97":176478.42999999999,"N_COORD97":2543176.0299999998,"ADDRESS":"南潭三街１６２巷３弄１６號","OBJECTID":77674},"geometry":{"x":176478.4299999997,"y":2543176.0300000012}},{"attributes":{"ID":77675,"DIS_CODE":0,"TOWNNAME":"歸仁區","LI":"七甲里","LIN":"19鄰","STREET":"南潭三街","SECT":" ","MAREA":" ","LANE":"１６２巷","ALLEY":"３弄","HOUSE_NO":"６號","E_COORD97":176453.67999999999,"N_COORD97":2543175.0299999998,"ADDRESS":"南潭三街１６２巷３弄６號","OBJECTID":77675},"geometry":{"x":176453.67999999877,"y":2543175.0299999993}},{"attributes":{"ID":77676,"DIS_CODE":0,"TOWNNAME":"歸仁區","LI":"七甲里","LIN":"19鄰","STREET":"南潭三街","SECT":" ","MAREA":" ","LANE":"１６２巷","ALLEY":"６弄","HOUSE_NO":"１號","E_COORD97":176432.07999999999,"N_COORD97":2543174.0299999998,"ADDRESS":"南潭三街１６２巷６弄１號","OBJECTID":77676},"geometry":{"x":176432.08000000007,"y":2543174.0300000012}},{"attributes":{"ID":77677,"DIS_CODE":0,"TOWNNAME":"官田區","LI":"社子里","LIN":"6鄰","STREET":" ","SECT":" ","MAREA":"社子","LANE":" ","ALLEY":" ","HOUSE_NO":"４５號","E_COORD97":184764.85999999999,"N_COORD97":2564557.25,"ADDRESS":"社子４５號","OBJECTID":77677},"geometry":{"x":184764.8600000022,"y":2564557.25}},{"attributes":{"ID":77678,"DIS_CODE":0,"TOWNNAME":"歸仁區","LI":"七甲里","LIN":"19鄰","STREET":"南潭三街","SECT":" ","MAREA":" ","LANE":"１６２巷","ALLEY":"３弄","HOUSE_NO":"１５號","E_COORD97":176482.63,"N_COORD97":2543186.0299999998,"ADDRESS":"南潭三街１６２巷３弄１５號","OBJECTID":77678},"geometry":{"x":176482.62999999989,"y":2543186.0300000031}},{"attributes":{"ID":77679,"DIS_CODE":0,"TOWNNAME":"歸仁區","LI":"七甲里","LIN":"19鄰","STREET":"南潭三街","SECT":" ","MAREA":" ","LANE":"１６２巷","ALLEY":"３弄","HOUSE_NO":"１８號","E_COORD97":176483.63,"N_COORD97":2543176.0299999998,"ADDRESS":"南潭三街１６２巷３弄１８號","OBJECTID":77679},"geometry":{"x":176483.63000000082,"y":2543176.0300000012}},{"attributes":{"ID":77680,"DIS_CODE":0,"TOWNNAME":"歸仁區","LI":"七甲里","LIN":"19鄰","STREET":"南潭三街","SECT":" ","MAREA":" ","LANE":"１６２巷","ALLEY":"３弄","HOUSE_NO":"３號","E_COORD97":176451.67999999999,"N_COORD97":2543185.0299999998,"ADDRESS":"南潭三街１６２巷３弄３號","OBJECTID":77680},"geometry":{"x":176451.6799999997,"y":2543185.0299999993}},{"attributes":{"ID":77681,"DIS_CODE":0,"TOWNNAME":"官田區","LI":"東庄里","LIN":"6鄰","STREET":" ","SECT":" ","MAREA":"西庄","LANE":" ","ALLEY":" ","HOUSE_NO":"１３９號之３３","E_COORD97":178259.95000000001,"N_COORD97":2565236.6000000001,"ADDRESS":"西庄１３９號之３３","OBJECTID":77681},"geometry":{"x":178259.95000000112,"y":2565236.5999999978}},{"attributes":{"ID":77682,"DIS_CODE":0,"TOWNNAME":"歸仁區","LI":"七甲里","LIN":"19鄰","STREET":"南潭三街","SECT":" ","MAREA":" ","LANE":"１６２巷","ALLEY":"６弄","HOUSE_NO":"１０號","E_COORD97":176419.03,"N_COORD97":2543184.0299999998,"ADDRESS":"南潭三街１６２巷６弄１０號","OBJECTID":77682},"geometry":{"x":176419.03000000026,"y":2543184.0300000012}},{"attributes":{"ID":77683,"DIS_CODE":0,"TOWNNAME":"歸仁區","LI":"七甲里","LIN":"19鄰","STREET":"南潭三街","SECT":" ","MAREA":" ","LANE":"１６２巷","ALLEY":"６弄","HOUSE_NO":"１３號","E_COORD97":176401.53,"N_COORD97":2543174.0299999998,"ADDRESS":"南潭三街１６２巷６弄１３號","OBJECTID":77683},"geometry":{"x":176401.53000000119,"y":2543174.0300000012}},{"attributes":{"ID":77684,"DIS_CODE":0,"TOWNNAME":"官田區","LI":"東庄里","LIN":"6鄰","STREET":" ","SECT":" ","MAREA":"西庄","LANE":" ","ALLEY":" ","HOUSE_NO":"１３９號之３５","E_COORD97":178200,"N_COORD97":2565219.7000000002,"ADDRESS":"西庄１３９號之３５","OBJECTID":77684},"geometry":{"x":178200.00000000093,"y":2565219.7000000011}},{"attributes":{"ID":77685,"DIS_CODE":0,"TOWNNAME":"官田區","LI":"東庄里","LIN":"6鄰","STREET":" ","SECT":" ","MAREA":"西庄","LANE":" ","ALLEY":" ","HOUSE_NO":"１３９號之３７","E_COORD97":178234.62,"N_COORD97":2565242.1200000001,"ADDRESS":"西庄１３９號之３７","OBJECTID":77685},"geometry":{"x":178234.62000000197,"y":2565242.1200000029}},{"attributes":{"ID":77686,"DIS_CODE":0,"TOWNNAME":"官田區","LI":"官田里","LIN":"6鄰","STREET":" ","SECT":" ","MAREA":"官田","LANE":" ","ALLEY":" ","HOUSE_NO":"５０號之１","E_COORD97":182639.39000000001,"N_COORD97":2565073.23,"ADDRESS":"官田５０號之１","OBJECTID":77686},"geometry":{"x":182639.38999999966,"y":2565073.2300000004}},{"attributes":{"ID":77687,"DIS_CODE":0,"TOWNNAME":"官田區","LI":"東庄里","LIN":"6鄰","STREET":" ","SECT":" ","MAREA":"西庄","LANE":" ","ALLEY":" ","HOUSE_NO":"１３９號之３９","E_COORD97":178113.98000000001,"N_COORD97":2565286.3399999999,"ADDRESS":"西庄１３９號之３９","OBJECTID":77687},"geometry":{"x":178113.98000000138,"y":2565286.3400000036}},{"attributes":{"ID":77688,"DIS_CODE":0,"TOWNNAME":"歸仁區","LI":"七甲里","LIN":"19鄰","STREET":"南潭三街","SECT":" ","MAREA":" ","LANE":"１６２巷","ALLEY":"３弄","HOUSE_NO":"２２號","E_COORD97":176492.82999999999,"N_COORD97":2543176.0299999998,"ADDRESS":"南潭三街１６２巷３弄２２號","OBJECTID":77688},"geometry":{"x":176492.83000000101,"y":2543176.0300000012}},{"attributes":{"ID":77689,"DIS_CODE":0,"TOWNNAME":"官田區","LI":"東庄里","LIN":"6鄰","STREET":" ","SECT":" ","MAREA":"西庄","LANE":" ","ALLEY":" ","HOUSE_NO":"１３９號之３","E_COORD97":178194.28,"N_COORD97":2565264.4900000002,"ADDRESS":"西庄１３９號之３","OBJECTID":77689},"geometry":{"x":178194.28000000026,"y":2565264.4900000002}},{"attributes":{"ID":77690,"DIS_CODE":0,"TOWNNAME":"官田區","LI":"東庄里","LIN":"6鄰","STREET":" ","SECT":" ","MAREA":"西庄","LANE":" ","ALLEY":" ","HOUSE_NO":"１３９號之４","E_COORD97":178188.10000000001,"N_COORD97":2565255.2599999998,"ADDRESS":"西庄１３９號之４","OBJECTID":77690},"geometry":{"x":178188.09999999963,"y":2565255.2599999998}},{"attributes":{"ID":77691,"DIS_CODE":0,"TOWNNAME":"新營區","LI":"新北里","LIN":"30鄰","STREET":"新北四街","SECT":" ","MAREA":" ","LANE":" ","ALLEY":" ","HOUSE_NO":"１８號","E_COORD97":178755.66,"N_COORD97":2578917.5299999998,"ADDRESS":"新北四街１８號","OBJECTID":77691},"geometry":{"x":178755.66000000015,"y":2578917.5300000012}},{"attributes":{"ID":77692,"DIS_CODE":0,"TOWNNAME":"新營區","LI":"忠政里","LIN":"5鄰","STREET":"中正路","SECT":" ","MAREA":" ","LANE":" ","ALLEY":" ","HOUSE_NO":"３９之７號","E_COORD97":180092.5,"N_COORD97":2579234.5899999999,"ADDRESS":"中正路３９之７號","OBJECTID":77692},"geometry":{"x":180092.5,"y":2579234.5899999999}},{"attributes":{"ID":77693,"DIS_CODE":0,"TOWNNAME":"歸仁區","LI":"大潭里","LIN":"7鄰","STREET":"長榮路","SECT":"一段","MAREA":" ","LANE":" ","ALLEY":" ","HOUSE_NO":"２１７號","E_COORD97":175114.47,"N_COORD97":2534565.2799999998,"ADDRESS":"長榮路一段２１７號","OBJECTID":77693},"geometry":{"x":175114.4700000016,"y":2534565.2799999993}},{"attributes":{"ID":77694,"DIS_CODE":0,"TOWNNAME":"歸仁區","LI":"文化里","LIN":"7鄰","STREET":"文化街","SECT":"二段","MAREA":" ","LANE":" ","ALLEY":" ","HOUSE_NO":"１３２號","E_COORD97":177213.92000000001,"N_COORD97":2541196.2599999998,"ADDRESS":"文化街二段１３２號","OBJECTID":77694},"geometry":{"x":177213.92000000086,"y":2541196.2600000016}},{"attributes":{"ID":77695,"DIS_CODE":0,"TOWNNAME":"歸仁區","LI":"大潭里","LIN":"7鄰","STREET":"中正南路","SECT":"三段","MAREA":" ","LANE":" ","ALLEY":" ","HOUSE_NO":"２９７號","E_COORD97":175131.41,"N_COORD97":2534639.2799999998,"ADDRESS":"中正南路三段２９７號","OBJECTID":77695},"geometry":{"x":175131.41000000015,"y":2534639.2799999993}},{"attributes":{"ID":77696,"DIS_CODE":0,"TOWNNAME":"歸仁區","LI":"七甲里","LIN":"19鄰","STREET":"南潭三街","SECT":" ","MAREA":" ","LANE":"１６２巷","ALLEY":"３弄","HOUSE_NO":"１０號","E_COORD97":176464.13,"N_COORD97":2543175.0299999998,"ADDRESS":"南潭三街１６２巷３弄１０號","OBJECTID":77696},"geometry":{"x":176464.12999999989,"y":2543175.0299999993}},{"attributes":{"ID":77697,"DIS_CODE":0,"TOWNNAME":"新營區","LI":"鐵線里","LIN":"14鄰","STREET":" ","SECT":" ","MAREA":"秀才","LANE":" ","ALLEY":" ","HOUSE_NO":"１７號","E_COORD97":174713.42000000001,"N_COORD97":2573885.29,"ADDRESS":"秀才１７號","OBJECTID":77697},"geometry":{"x":174713.42000000086,"y":2573885.290000001}},{"attributes":{"ID":77698,"DIS_CODE":0,"TOWNNAME":"歸仁區","LI":"七甲里","LIN":"19鄰","STREET":"南潭三街","SECT":" ","MAREA":" ","LANE":"１６２巷","ALLEY":"３弄","HOUSE_NO":"１２號","E_COORD97":176469.23000000001,"N_COORD97":2543175.0299999998,"ADDRESS":"南潭三街１６２巷３弄１２號","OBJECTID":77698},"geometry":{"x":176469.23000000045,"y":2543175.0299999993}},{"attributes":{"ID":77699,"DIS_CODE":0,"TOWNNAME":"官田區","LI":"東庄里","LIN":"6鄰","STREET":" ","SECT":" ","MAREA":"西庄","LANE":" ","ALLEY":" ","HOUSE_NO":"１３９號之５３","E_COORD97":178284.63,"N_COORD97":2565282.8700000001,"ADDRESS":"西庄１３９號之５３","OBJECTID":77699},"geometry":{"x":178284.62999999989,"y":2565282.870000001}},{"attributes":{"ID":77700,"DIS_CODE":0,"TOWNNAME":"歸仁區","LI":"七甲里","LIN":"19鄰","STREET":"南潭三街","SECT":" ","MAREA":" ","LANE":"１６２巷","ALLEY":"６弄","HOUSE_NO":"２號","E_COORD97":176431.07999999999,"N_COORD97":2543184.0299999998,"ADDRESS":"南潭三街１６２巷６弄２號","OBJECTID":77700},"geometry":{"x":176431.08000000194,"y":2543184.0300000012}},{"attributes":{"ID":77701,"DIS_CODE":0,"TOWNNAME":"官田區","LI":"東庄里","LIN":"6鄰","STREET":" ","SECT":" ","MAREA":"西庄","LANE":" ","ALLEY":" ","HOUSE_NO":"１３９號之５５","E_COORD97":178220.35000000001,"N_COORD97":2565203.3199999998,"ADDRESS":"西庄１３９號之５５","OBJECTID":77701},"geometry":{"x":178220.34999999963,"y":2565203.3200000022}},{"attributes":{"ID":77702,"DIS_CODE":0,"TOWNNAME":"官田區","LI":"東庄里","LIN":"6鄰","STREET":" ","SECT":" ","MAREA":"西庄","LANE":" ","ALLEY":" ","HOUSE_NO":"１３９號之６","E_COORD97":178238.54000000001,"N_COORD97":2565234.1699999999,"ADDRESS":"西庄１３９號之６","OBJECTID":77702},"geometry":{"x":178238.5400000019,"y":2565234.1700000018}},{"attributes":{"ID":77703,"DIS_CODE":0,"TOWNNAME":"官田區","LI":"東庄里","LIN":"6鄰","STREET":" ","SECT":" ","MAREA":"西庄","LANE":" ","ALLEY":" ","HOUSE_NO":"１３９號之７","E_COORD97":178195.23999999999,"N_COORD97":2565234.0800000001,"ADDRESS":"西庄１３９號之７","OBJECTID":77703},"geometry":{"x":178195.24000000115,"y":2565234.0800000038}},{"attributes":{"ID":77704,"DIS_CODE":0,"TOWNNAME":"歸仁區","LI":"七甲里","LIN":"19鄰","STREET":"南潭三街","SECT":" ","MAREA":" ","LANE":"１６２巷","ALLEY":"３弄","HOUSE_NO":"５號","E_COORD97":176456.78,"N_COORD97":2543185.0299999998,"ADDRESS":"南潭三街１６２巷３弄５號","OBJECTID":77704},"geometry":{"x":176456.78000000026,"y":2543185.0299999993}},{"attributes":{"ID":77705,"DIS_CODE":0,"TOWNNAME":"歸仁區","LI":"七甲里","LIN":"19鄰","STREET":"南潭三街","SECT":" ","MAREA":" ","LANE":"１６２巷","ALLEY":"３弄","HOUSE_NO":"２１號","E_COORD97":176499.03,"N_COORD97":2543186.0299999998,"ADDRESS":"南潭三街１６２巷３弄２１號","OBJECTID":77705},"geometry":{"x":176499.03000000026,"y":2543186.0300000031}},{"attributes":{"ID":77706,"DIS_CODE":0,"TOWNNAME":"歸仁區","LI":"七甲里","LIN":"19鄰","STREET":"南潭三街","SECT":" ","MAREA":" ","LANE":"１６２巷","ALLEY":"３弄","HOUSE_NO":"２６號","E_COORD97":176503.13,"N_COORD97":2543177.0299999998,"ADDRESS":"南潭三街１６２巷３弄２６號","OBJECTID":77706},"geometry":{"x":176503.12999999989,"y":2543177.0300000012}},{"attributes":{"ID":77707,"DIS_CODE":0,"TOWNNAME":"歸仁區","LI":"七甲里","LIN":"19鄰","STREET":"南潭三街","SECT":" ","MAREA":" ","LANE":"１６２巷","ALLEY":"３弄","HOUSE_NO":"１９號","E_COORD97":176492.82999999999,"N_COORD97":2543186.0299999998,"ADDRESS":"南潭三街１６２巷３弄１９號","OBJECTID":77707},"geometry":{"x":176492.83000000101,"y":2543186.0300000031}},{"attributes":{"ID":77708,"DIS_CODE":0,"TOWNNAME":"歸仁區","LI":"七甲里","LIN":"19鄰","STREET":"南潭三街","SECT":" ","MAREA":" ","LANE":"１６２巷","ALLEY":"３弄","HOUSE_NO":"１３號","E_COORD97":176477.53,"N_COORD97":2543186.0299999998,"ADDRESS":"南潭三街１６２巷３弄１３號","OBJECTID":77708},"geometry":{"x":176477.53000000212,"y":2543186.0300000031}},{"attributes":{"ID":77709,"DIS_CODE":0,"TOWNNAME":"官田區","LI":"官田里","LIN":"6鄰","STREET":" ","SECT":" ","MAREA":"官田","LANE":" ","ALLEY":" ","HOUSE_NO":"５８號之３４","E_COORD97":182753.84,"N_COORD97":2565009.04,"ADDRESS":"官田５８號之３４","OBJECTID":77709},"geometry":{"x":182753.84000000171,"y":2565009.0399999991}},{"attributes":{"ID":77710,"DIS_CODE":0,"TOWNNAME":"歸仁區","LI":"七甲里","LIN":"19鄰","STREET":"南潭三街","SECT":" ","MAREA":" ","LANE":"１６２巷","ALLEY":"６弄","HOUSE_NO":"１１號","E_COORD97":176409.73000000001,"N_COORD97":2543173.0299999998,"ADDRESS":"南潭三街１６２巷６弄１１號","OBJECTID":77710},"geometry":{"x":176409.73000000045,"y":2543173.0300000012}},{"attributes":{"ID":77711,"DIS_CODE":0,"TOWNNAME":"歸仁區","LI":"七甲里","LIN":"19鄰","STREET":"南潭三街","SECT":" ","MAREA":" ","LANE":"１６２巷","ALLEY":"３弄","HOUSE_NO":"２３號","E_COORD97":176503.13,"N_COORD97":2543186.0299999998,"ADDRESS":"南潭三街１６２巷３弄２３號","OBJECTID":77711},"geometry":{"x":176503.12999999989,"y":2543186.0300000031}},{"attributes":{"ID":77712,"DIS_CODE":0,"TOWNNAME":"歸仁區","LI":"七甲里","LIN":"19鄰","STREET":"南潭三街","SECT":" ","MAREA":" ","LANE":"１６２巷","ALLEY":"６弄","HOUSE_NO":"８號","E_COORD97":176421.88,"N_COORD97":2543184.0299999998,"ADDRESS":"南潭三街１６２巷６弄８號","OBJECTID":77712},"geometry":{"x":176421.87999999989,"y":2543184.0300000012}},{"attributes":{"ID":77713,"DIS_CODE":0,"TOWNNAME":"歸仁區","LI":"七甲里","LIN":"19鄰","STREET":"南潭三街","SECT":" ","MAREA":" ","LANE":"１６２巷","ALLEY":"３弄","HOUSE_NO":"１號","E_COORD97":176446.48000000001,"N_COORD97":2543185.0299999998,"ADDRESS":"南潭三街１６２巷３弄１號","OBJECTID":77713},"geometry":{"x":176446.48000000138,"y":2543185.0299999993}},{"attributes":{"ID":77714,"DIS_CODE":0,"TOWNNAME":"歸仁區","LI":"大潭里","LIN":"19鄰","STREET":"中正南路","SECT":"三段","MAREA":" ","LANE":"９６巷","ALLEY":"５１弄","HOUSE_NO":"６號","E_COORD97":175149.41,"N_COORD97":2534995.2799999998,"ADDRESS":"中正南路三段９６巷５１弄６號","OBJECTID":77714},"geometry":{"x":175149.41000000108,"y":2534995.2799999993}},{"attributes":{"ID":77715,"DIS_CODE":0,"TOWNNAME":"歸仁區","LI":"大廟里","LIN":"19鄰","STREET":"大廟一街","SECT":" ","MAREA":" ","LANE":"２８巷","ALLEY":"２１弄","HOUSE_NO":"１號","E_COORD97":175775.14000000001,"N_COORD97":2544131.1200000001,"ADDRESS":"大廟一街２８巷２１弄１號","OBJECTID":77715},"geometry":{"x":175775.13999999966,"y":2544131.1200000029}},{"attributes":{"ID":77716,"DIS_CODE":0,"TOWNNAME":"南區","LI":"鯤鯓里","LIN":"19鄰","STREET":"鯤鯓路","SECT":" ","MAREA":" ","LANE":"１０２巷","ALLEY":"４３弄","HOUSE_NO":"９號","E_COORD97":165040.94,"N_COORD97":2540198.8399999999,"ADDRESS":"鯤鯓路１０２巷４３弄９號","OBJECTID":77716},"geometry":{"x":165040.94000000134,"y":2540198.8400000017}},{"attributes":{"ID":77717,"DIS_CODE":0,"TOWNNAME":"南區","LI":"鯤鯓里","LIN":"19鄰","STREET":"鯤鯓路","SECT":" ","MAREA":" ","LANE":"１０４巷","ALLEY":"１２弄","HOUSE_NO":"１２號","E_COORD97":165046.67999999999,"N_COORD97":2540159.4300000002,"ADDRESS":"鯤鯓路１０４巷１２弄１２號","OBJECTID":77717},"geometry":{"x":165046.6799999997,"y":2540159.4300000034}},{"attributes":{"ID":77718,"DIS_CODE":0,"TOWNNAME":"南區","LI":"鯤鯓里","LIN":"19鄰","STREET":"鯤鯓路","SECT":" ","MAREA":" ","LANE":"１０４巷","ALLEY":"１２弄","HOUSE_NO":"１４號","E_COORD97":165036.29999999999,"N_COORD97":2540185.7400000002,"ADDRESS":"鯤鯓路１０４巷１２弄１４號","OBJECTID":77718},"geometry":{"x":165036.30000000075,"y":2540185.7400000021}},{"attributes":{"ID":77719,"DIS_CODE":0,"TOWNNAME":"南區","LI":"鯤鯓里","LIN":"19鄰","STREET":"鯤鯓路","SECT":" ","MAREA":" ","LANE":"１０４巷","ALLEY":"１２弄","HOUSE_NO":"１６號","E_COORD97":165029.59,"N_COORD97":2540195.8199999998,"ADDRESS":"鯤鯓路１０４巷１２弄１６號","OBJECTID":77719},"geometry":{"x":165029.59000000078,"y":2540195.8200000022}},{"attributes":{"ID":77720,"DIS_CODE":0,"TOWNNAME":"南區","LI":"鯤鯓里","LIN":"19鄰","STREET":"鯤鯓路","SECT":" ","MAREA":" ","LANE":"１０４巷","ALLEY":"１２弄","HOUSE_NO":"１８號","E_COORD97":165030.42999999999,"N_COORD97":2540204.0299999998,"ADDRESS":"鯤鯓路１０４巷１２弄１８號","OBJECTID":77720},"geometry":{"x":165030.43000000063,"y":2540204.0300000012}},{"attributes":{"ID":77721,"DIS_CODE":0,"TOWNNAME":"新營區","LI":"忠政里","LIN":"18鄰","STREET":"中正路","SECT":" ","MAREA":" ","LANE":" ","ALLEY":" ","HOUSE_NO":"２３１號","E_COORD97":180063.42000000001,"N_COORD97":2579843.77,"ADDRESS":"中正路２３１號","OBJECTID":77721},"geometry":{"x":180063.42000000086,"y":2579843.7699999996}},{"attributes":{"ID":77722,"DIS_CODE":0,"TOWNNAME":"新營區","LI":"民榮里","LIN":"32鄰","STREET":"太子路","SECT":" ","MAREA":" ","LANE":" ","ALLEY":" ","HOUSE_NO":"７７號","E_COORD97":178256.39999999999,"N_COORD97":2578042.8399999999,"ADDRESS":"太子路７７號","OBJECTID":77722},"geometry":{"x":178256.40000000037,"y":2578042.8399999999}},{"attributes":{"ID":77723,"DIS_CODE":0,"TOWNNAME":"南區","LI":"文華里","LIN":"7鄰","STREET":"金華路","SECT":"二段","MAREA":" ","LANE":" ","ALLEY":" ","HOUSE_NO":"３１７號","E_COORD97":167118.95999999999,"N_COORD97":2542864.4300000002,"ADDRESS":"金華路二段３１７號","OBJECTID":77723},"geometry":{"x":167118.96000000089,"y":2542864.4299999997}},{"attributes":{"ID":77724,"DIS_CODE":0,"TOWNNAME":"南區","LI":"文華里","LIN":"7鄰","STREET":"金華路","SECT":"二段","MAREA":" ","LANE":" ","ALLEY":" ","HOUSE_NO":"３２９號","E_COORD97":167122.25,"N_COORD97":2542888.5899999999,"ADDRESS":"金華路二段３２９號","OBJECTID":77724},"geometry":{"x":167122.25000000093,"y":2542888.5900000017}},{"attributes":{"ID":77725,"DIS_CODE":0,"TOWNNAME":"官田區","LI":"東庄里","LIN":"6鄰","STREET":" ","SECT":" ","MAREA":"西庄","LANE":" ","ALLEY":" ","HOUSE_NO":"１３９號之８","E_COORD97":178298.01000000001,"N_COORD97":2565288.46,"ADDRESS":"西庄１３９號之８","OBJECTID":77725},"geometry":{"x":178298.01000000071,"y":2565288.4600000009}},{"attributes":{"ID":77726,"DIS_CODE":0,"TOWNNAME":"官田區","LI":"東庄里","LIN":"6鄰","STREET":" ","SECT":" ","MAREA":"西庄","LANE":" ","ALLEY":" ","HOUSE_NO":"１３９號之９","E_COORD97":178286.91,"N_COORD97":2565245.5,"ADDRESS":"西庄１３９號之９","OBJECTID":77726},"geometry":{"x":178286.91000000201,"y":2565245.5000000019}},{"attributes":{"ID":77727,"DIS_CODE":0,"TOWNNAME":"官田區","LI":"西庄里","LIN":"6鄰","STREET":" ","SECT":" ","MAREA":"西庄","LANE":" ","ALLEY":" ","HOUSE_NO":"３８號","E_COORD97":177834.45000000001,"N_COORD97":2565179.9100000001,"ADDRESS":"西庄３８號","OBJECTID":77727},"geometry":{"x":177834.45000000112,"y":2565179.9100000001}},{"attributes":{"ID":77728,"DIS_CODE":0,"TOWNNAME":"官田區","LI":"西庄里","LIN":"6鄰","STREET":" ","SECT":" ","MAREA":"西庄","LANE":" ","ALLEY":" ","HOUSE_NO":"３９號","E_COORD97":177815.04000000001,"N_COORD97":2565194.6800000002,"ADDRESS":"西庄３９號","OBJECTID":77728},"geometry":{"x":177815.04000000097,"y":2565194.6799999997}},{"attributes":{"ID":77729,"DIS_CODE":0,"TOWNNAME":"鹽水區","LI":"飯店里","LIN":"7鄰","STREET":" ","SECT":" ","MAREA":"麻油寮","LANE":" ","ALLEY":" ","HOUSE_NO":"１６號","E_COORD97":169336.76000000001,"N_COORD97":2573824.02,"ADDRESS":"麻油寮１６號","OBJECTID":77729},"geometry":{"x":169336.75999999978,"y":2573824.0199999996}},{"attributes":{"ID":77730,"DIS_CODE":0,"TOWNNAME":"官田區","LI":"西庄里","LIN":"6鄰","STREET":" ","SECT":" ","MAREA":"西庄","LANE":" ","ALLEY":" ","HOUSE_NO":"４０號之１","E_COORD97":177836.48999999999,"N_COORD97":2565202.0600000001,"ADDRESS":"西庄４０號之１","OBJECTID":77730},"geometry":{"x":177836.49000000022,"y":2565202.0600000024}},{"attributes":{"ID":77731,"DIS_CODE":0,"TOWNNAME":"南區","LI":"大忠里","LIN":"19鄰","STREET":"大同路","SECT":"二段","MAREA":" ","LANE":"６４０巷","ALLEY":"１０８弄","HOUSE_NO":"１３號","E_COORD97":169187.89000000001,"N_COORD97":2541069.6000000001,"ADDRESS":"大同路二段６４０巷１０８弄１３號","OBJECTID":77731},"geometry":{"x":169187.88999999966,"y":2541069.5999999996}},{"attributes":{"ID":77732,"DIS_CODE":0,"TOWNNAME":"南區","LI":"大忠里","LIN":"19鄰","STREET":"大同路","SECT":"二段","MAREA":" ","LANE":"６４０巷","ALLEY":"１０８弄","HOUSE_NO":"１５號","E_COORD97":169198.69,"N_COORD97":2541077.0499999998,"ADDRESS":"大同路二段６４０巷１０８弄１５號","OBJECTID":77732},"geometry":{"x":169198.69000000041,"y":2541077.0500000007}},{"attributes":{"ID":77733,"DIS_CODE":0,"TOWNNAME":"南區","LI":"大忠里","LIN":"19鄰","STREET":"大同路","SECT":"二段","MAREA":" ","LANE":"６４０巷","ALLEY":"１０８弄","HOUSE_NO":"１號","E_COORD97":169173.73999999999,"N_COORD97":2541023.79,"ADDRESS":"大同路二段６４０巷１０８弄１號","OBJECTID":77733},"geometry":{"x":169173.74000000115,"y":2541023.7899999991}},{"attributes":{"ID":77734,"DIS_CODE":0,"TOWNNAME":"南區","LI":"大忠里","LIN":"19鄰","STREET":"大同路","SECT":"二段","MAREA":" ","LANE":"６４０巷","ALLEY":"１０８弄","HOUSE_NO":"２號","E_COORD97":169208.31,"N_COORD97":2541063.73,"ADDRESS":"大同路二段６４０巷１０８弄２號","OBJECTID":77734},"geometry":{"x":169208.31000000052,"y":2541063.7300000023}},{"attributes":{"ID":77735,"DIS_CODE":0,"TOWNNAME":"官田區","LI":"西庄里","LIN":"6鄰","STREET":" ","SECT":" ","MAREA":"西庄","LANE":" ","ALLEY":" ","HOUSE_NO":"４０號","E_COORD97":177828.22,"N_COORD97":2565197.0299999998,"ADDRESS":"西庄４０號","OBJECTID":77735},"geometry":{"x":177828.21999999881,"y":2565197.0300000012}},{"attributes":{"ID":77736,"DIS_CODE":0,"TOWNNAME":"官田區","LI":"西庄里","LIN":"6鄰","STREET":" ","SECT":" ","MAREA":"西庄","LANE":" ","ALLEY":" ","HOUSE_NO":"４１號之１","E_COORD97":177846,"N_COORD97":2565191.8500000001,"ADDRESS":"西庄４１號之１","OBJECTID":77736},"geometry":{"x":177846.00000000093,"y":2565191.8500000015}},{"attributes":{"ID":77737,"DIS_CODE":0,"TOWNNAME":"官田區","LI":"西庄里","LIN":"6鄰","STREET":" ","SECT":" ","MAREA":"西庄","LANE":" ","ALLEY":" ","HOUSE_NO":"４１號之２","E_COORD97":177853.25,"N_COORD97":2565189.5699999998,"ADDRESS":"西庄４１號之２","OBJECTID":77737},"geometry":{"x":177853.25,"y":2565189.5700000003}},{"attributes":{"ID":77738,"DIS_CODE":0,"TOWNNAME":"官田區","LI":"西庄里","LIN":"6鄰","STREET":" ","SECT":" ","MAREA":"西庄","LANE":" ","ALLEY":" ","HOUSE_NO":"４１號","E_COORD97":177841.57999999999,"N_COORD97":2565193.5899999999,"ADDRESS":"西庄４１號","OBJECTID":77738},"geometry":{"x":177841.58000000194,"y":2565193.5900000017}},{"attributes":{"ID":77739,"DIS_CODE":0,"TOWNNAME":"官田區","LI":"西庄里","LIN":"6鄰","STREET":" ","SECT":" ","MAREA":"西庄","LANE":" ","ALLEY":" ","HOUSE_NO":"４４號之１","E_COORD97":177889.13,"N_COORD97":2565161.8500000001,"ADDRESS":"西庄４４號之１","OBJECTID":77739},"geometry":{"x":177889.13000000082,"y":2565161.8500000015}},{"attributes":{"ID":77740,"DIS_CODE":0,"TOWNNAME":"官田區","LI":"西庄里","LIN":"6鄰","STREET":" ","SECT":" ","MAREA":"西庄","LANE":" ","ALLEY":" ","HOUSE_NO":"４４號之３","E_COORD97":177883.41,"N_COORD97":2565177.6499999999,"ADDRESS":"西庄４４號之３","OBJECTID":77740},"geometry":{"x":177883.41000000201,"y":2565177.6500000022}},{"attributes":{"ID":77741,"DIS_CODE":0,"TOWNNAME":"官田區","LI":"西庄里","LIN":"6鄰","STREET":" ","SECT":" ","MAREA":"西庄","LANE":" ","ALLEY":" ","HOUSE_NO":"４４號之５","E_COORD97":177868.103669,"N_COORD97":2565174.0040000002,"ADDRESS":"西庄４４號之５","OBJECTID":77741},"geometry":{"x":177868.10366900079,"y":2565174.0040000025}},{"attributes":{"ID":77742,"DIS_CODE":0,"TOWNNAME":"南區","LI":"大忠里","LIN":"19鄰","STREET":"大同路","SECT":"二段","MAREA":" ","LANE":"６４０巷","ALLEY":"１０８弄","HOUSE_NO":"３號","E_COORD97":169176.48999999999,"N_COORD97":2541032.3999999999,"ADDRESS":"大同路二段６４０巷１０８弄３號","OBJECTID":77742},"geometry":{"x":169176.49000000209,"y":2541032.4000000022}},{"attributes":{"ID":77743,"DIS_CODE":0,"TOWNNAME":"南區","LI":"大忠里","LIN":"19鄰","STREET":"大同路","SECT":"二段","MAREA":" ","LANE":"６４０巷","ALLEY":"１０８弄","HOUSE_NO":"４號","E_COORD97":169208.70999999999,"N_COORD97":2541067.8500000001,"ADDRESS":"大同路二段６４０巷１０８弄４號","OBJECTID":77743},"geometry":{"x":169208.71000000183,"y":2541067.8499999996}},{"attributes":{"ID":77744,"DIS_CODE":0,"TOWNNAME":"南區","LI":"大忠里","LIN":"19鄰","STREET":"大同路","SECT":"二段","MAREA":" ","LANE":"６４０巷","ALLEY":"１０８弄","HOUSE_NO":"６號","E_COORD97":169209.29999999999,"N_COORD97":2541072.7400000002,"ADDRESS":"大同路二段６４０巷１０８弄６號","OBJECTID":77744},"geometry":{"x":169209.29999999981,"y":2541072.7400000002}},{"attributes":{"ID":77745,"DIS_CODE":0,"TOWNNAME":"南區","LI":"大忠里","LIN":"19鄰","STREET":"大同路","SECT":"二段","MAREA":" ","LANE":"６４０巷","ALLEY":"１１８弄","HOUSE_NO":"１０號","E_COORD97":169157.44,"N_COORD97":2541030.4500000002,"ADDRESS":"大同路二段６４０巷１１８弄１０號","OBJECTID":77745},"geometry":{"x":169157.44000000134,"y":2541030.4500000011}},{"attributes":{"ID":77746,"DIS_CODE":0,"TOWNNAME":"官田區","LI":"西庄里","LIN":"6鄰","STREET":" ","SECT":" ","MAREA":"西庄","LANE":" ","ALLEY":" ","HOUSE_NO":"４７號之１","E_COORD97":177885.62,"N_COORD97":2565149.1699999999,"ADDRESS":"西庄４７號之１","OBJECTID":77746},"geometry":{"x":177885.62000000104,"y":2565149.1700000018}},{"attributes":{"ID":77747,"DIS_CODE":0,"TOWNNAME":"安平區","LI":"建平里","LIN":"7鄰","STREET":"建平十一街","SECT":" ","MAREA":" ","LANE":" ","ALLEY":" ","HOUSE_NO":"８號","E_COORD97":166394.51000000001,"N_COORD97":2543894.7599999998,"ADDRESS":"建平十一街８號","OBJECTID":77747},"geometry":{"x":166394.51000000071,"y":2543894.7600000016}},{"attributes":{"ID":77748,"DIS_CODE":0,"TOWNNAME":"仁德區","LI":"三甲里","LIN":"6鄰","STREET":" ","SECT":" ","MAREA":"三甲子","LANE":" ","ALLEY":" ","HOUSE_NO":"５３號之７","E_COORD97":171965.34,"N_COORD97":2536704.0499999998,"ADDRESS":"三甲子５３號之７","OBJECTID":77748},"geometry":{"x":171965.33999999985,"y":2536704.0500000007}},{"attributes":{"ID":77749,"DIS_CODE":0,"TOWNNAME":"仁德區","LI":"三甲里","LIN":"6鄰","STREET":" ","SECT":" ","MAREA":"三甲子","LANE":" ","ALLEY":" ","HOUSE_NO":"５１號之４","E_COORD97":171926.20000000001,"N_COORD97":2536720.79,"ADDRESS":"三甲子５１號之４","OBJECTID":77749},"geometry":{"x":171926.19999999925,"y":2536720.7899999991}},{"attributes":{"ID":77750,"DIS_CODE":0,"TOWNNAME":"官田區","LI":"官田里","LIN":"6鄰","STREET":" ","SECT":" ","MAREA":"官田","LANE":" ","ALLEY":" ","HOUSE_NO":"５０號之２","E_COORD97":182640.82999999999,"N_COORD97":2565060.8900000001,"ADDRESS":"官田５０號之２","OBJECTID":77750},"geometry":{"x":182640.83000000101,"y":2565060.8900000025}},{"attributes":{"ID":77751,"DIS_CODE":0,"TOWNNAME":"麻豆區","LI":"安正里","LIN":"6鄰","STREET":" ","SECT":" ","MAREA":"方厝寮","LANE":" ","ALLEY":" ","HOUSE_NO":"３２號之２","E_COORD97":171477.97,"N_COORD97":2561637.9399999999,"ADDRESS":"方厝寮３２號之２","OBJECTID":77751},"geometry":{"x":171477.96999999974,"y":2561637.9400000013}},{"attributes":{"ID":77752,"DIS_CODE":0,"TOWNNAME":"麻豆區","LI":"安正里","LIN":"6鄰","STREET":" ","SECT":" ","MAREA":"方厝寮","LANE":" ","ALLEY":" ","HOUSE_NO":"３３號","E_COORD97":171476.14999999999,"N_COORD97":2561673.5,"ADDRESS":"方厝寮３３號","OBJECTID":77752},"geometry":{"x":171476.1500000013,"y":2561673.5}},{"attributes":{"ID":77753,"DIS_CODE":0,"TOWNNAME":"官田區","LI":"官田里","LIN":"6鄰","STREET":" ","SECT":" ","MAREA":"官田","LANE":" ","ALLEY":" ","HOUSE_NO":"５１號","E_COORD97":182625.10000000001,"N_COORD97":2565053.8700000001,"ADDRESS":"官田５１號","OBJECTID":77753},"geometry":{"x":182625.10000000056,"y":2565053.8700000029}},{"attributes":{"ID":77754,"DIS_CODE":0,"TOWNNAME":"官田區","LI":"官田里","LIN":"6鄰","STREET":" ","SECT":" ","MAREA":"官田","LANE":" ","ALLEY":" ","HOUSE_NO":"５６號之１０","E_COORD97":182651.23999999999,"N_COORD97":2565123.1000000001,"ADDRESS":"官田５６號之１０","OBJECTID":77754},"geometry":{"x":182651.24000000022,"y":2565123.1000000015}},{"attributes":{"ID":77755,"DIS_CODE":0,"TOWNNAME":"官田區","LI":"官田里","LIN":"6鄰","STREET":" ","SECT":" ","MAREA":"官田","LANE":" ","ALLEY":" ","HOUSE_NO":"５６號之１１","E_COORD97":182650.10999999999,"N_COORD97":2565126.9900000002,"ADDRESS":"官田５６號之１１","OBJECTID":77755},"geometry":{"x":182650.11000000034,"y":2565126.9900000021}},{"attributes":{"ID":77756,"DIS_CODE":0,"TOWNNAME":"東區","LI":"德光里","LIN":"17鄰","STREET":"崇善路","SECT":" ","MAREA":" ","LANE":" ","ALLEY":" ","HOUSE_NO":"５４號","E_COORD97":170246.09,"N_COORD97":2542418.71,"ADDRESS":"崇善路５４號","OBJECTID":77756},"geometry":{"x":170246.08999999985,"y":2542418.7100000009}},{"attributes":{"ID":77757,"DIS_CODE":0,"TOWNNAME":"東區","LI":"德高里","LIN":"6鄰","STREET":"德高街","SECT":" ","MAREA":" ","LANE":" ","ALLEY":" ","HOUSE_NO":"４５號","E_COORD97":171457.85999999999,"N_COORD97":2540870.7599999998,"ADDRESS":"德高街４５號","OBJECTID":77757},"geometry":{"x":171457.86000000127,"y":2540870.7600000016}},{"attributes":{"ID":77758,"DIS_CODE":0,"TOWNNAME":"東區","LI":"德高里","LIN":"6鄰","STREET":"德高街","SECT":" ","MAREA":" ","LANE":" ","ALLEY":" ","HOUSE_NO":"４７號","E_COORD97":171460.5,"N_COORD97":2540893.4700000002,"ADDRESS":"德高街４７號","OBJECTID":77758},"geometry":{"x":171460.5,"y":2540893.4700000025}},{"attributes":{"ID":77759,"DIS_CODE":0,"TOWNNAME":"東區","LI":"德光里","LIN":"20鄰","STREET":"崇明六街","SECT":" ","MAREA":" ","LANE":" ","ALLEY":" ","HOUSE_NO":"５２號","E_COORD97":169806.32999999999,"N_COORD97":2542240.7799999998,"ADDRESS":"崇明六街５２號","OBJECTID":77759},"geometry":{"x":169806.33000000194,"y":2542240.7799999993}},{"attributes":{"ID":77760,"DIS_CODE":0,"TOWNNAME":"東區","LI":"德光里","LIN":"20鄰","STREET":"崇明六街","SECT":" ","MAREA":" ","LANE":" ","ALLEY":" ","HOUSE_NO":"５４號","E_COORD97":169811.98000000001,"N_COORD97":2542243.7999999998,"ADDRESS":"崇明六街５４號","OBJECTID":77760},"geometry":{"x":169811.98000000045,"y":2542243.8000000026}},{"attributes":{"ID":77761,"DIS_CODE":0,"TOWNNAME":"官田區","LI":"官田里","LIN":"6鄰","STREET":" ","SECT":" ","MAREA":"官田","LANE":" ","ALLEY":" ","HOUSE_NO":"５６號之１２","E_COORD97":182648.98000000001,"N_COORD97":2565130.8900000001,"ADDRESS":"官田５６號之１２","OBJECTID":77761},"geometry":{"x":182648.98000000138,"y":2565130.8900000043}},{"attributes":{"ID":77762,"DIS_CODE":0,"TOWNNAME":"官田區","LI":"官田里","LIN":"6鄰","STREET":" ","SECT":" ","MAREA":"官田","LANE":" ","ALLEY":" ","HOUSE_NO":"５６號之１３","E_COORD97":182647.85000000001,"N_COORD97":2565134.79,"ADDRESS":"官田５６號之１３","OBJECTID":77762},"geometry":{"x":182647.84999999963,"y":2565134.790000001}},{"attributes":{"ID":77763,"DIS_CODE":0,"TOWNNAME":"官田區","LI":"官田里","LIN":"6鄰","STREET":" ","SECT":" ","MAREA":"官田","LANE":" ","ALLEY":" ","HOUSE_NO":"５６號之１４","E_COORD97":182646.72,"N_COORD97":2565138.6800000002,"ADDRESS":"官田５６號之１４","OBJECTID":77763},"geometry":{"x":182646.72000000067,"y":2565138.6800000016}},{"attributes":{"ID":77764,"DIS_CODE":0,"TOWNNAME":"官田區","LI":"官田里","LIN":"6鄰","STREET":" ","SECT":" ","MAREA":"官田","LANE":" ","ALLEY":" ","HOUSE_NO":"５６號之１５","E_COORD97":182645.57999999999,"N_COORD97":2565142.5800000001,"ADDRESS":"官田５６號之１５","OBJECTID":77764},"geometry":{"x":182645.57999999914,"y":2565142.5800000038}},{"attributes":{"ID":77765,"DIS_CODE":0,"TOWNNAME":"南區","LI":"大忠里","LIN":"19鄰","STREET":"大同路","SECT":"二段","MAREA":" ","LANE":"６４０巷","ALLEY":"１１８弄","HOUSE_NO":"１１號","E_COORD97":169135.03,"N_COORD97":2541036.6499999999,"ADDRESS":"大同路二段６４０巷１１８弄１１號","OBJECTID":77765},"geometry":{"x":169135.03000000026,"y":2541036.6500000041}},{"attributes":{"ID":77766,"DIS_CODE":0,"TOWNNAME":"佳里區","LI":"六安里","LIN":"19鄰","STREET":"延平路","SECT":" ","MAREA":" ","LANE":"５７７巷","ALLEY":"１弄","HOUSE_NO":"１５號","E_COORD97":165870.26000000001,"N_COORD97":2563483.1299999999,"ADDRESS":"延平路５７７巷１弄１５號","OBJECTID":77766},"geometry":{"x":165870.26000000164,"y":2563483.1300000027}},{"attributes":{"ID":77767,"DIS_CODE":0,"TOWNNAME":"南區","LI":"大忠里","LIN":"19鄰","STREET":"大同路","SECT":"二段","MAREA":" ","LANE":"６４０巷","ALLEY":"１１８弄","HOUSE_NO":"１２號","E_COORD97":169158.82000000001,"N_COORD97":2541034.75,"ADDRESS":"大同路二段６４０巷１１８弄１２號","OBJECTID":77767},"geometry":{"x":169158.8200000003,"y":2541034.75}},{"attributes":{"ID":77768,"DIS_CODE":0,"TOWNNAME":"南區","LI":"大忠里","LIN":"19鄰","STREET":"大同路","SECT":"二段","MAREA":" ","LANE":"６４０巷","ALLEY":"１１８弄","HOUSE_NO":"１３號","E_COORD97":169135.39000000001,"N_COORD97":2541040.6299999999,"ADDRESS":"大同路二段６４０巷１１８弄１３號","OBJECTID":77768},"geometry":{"x":169135.38999999966,"y":2541040.629999999}},{"attributes":{"ID":77769,"DIS_CODE":0,"TOWNNAME":"南區","LI":"大忠里","LIN":"19鄰","STREET":"大同路","SECT":"二段","MAREA":" ","LANE":"６４０巷","ALLEY":"１１８弄","HOUSE_NO":"１４號","E_COORD97":169159.60000000001,"N_COORD97":2541039.2599999998,"ADDRESS":"大同路二段６４０巷１１８弄１４號","OBJECTID":77769},"geometry":{"x":169159.59999999963,"y":2541039.2600000016}},{"attributes":{"ID":77770,"DIS_CODE":0,"TOWNNAME":"南區","LI":"大忠里","LIN":"19鄰","STREET":"大同路","SECT":"二段","MAREA":" ","LANE":"６４０巷","ALLEY":"１１８弄","HOUSE_NO":"１５號","E_COORD97":169136.66,"N_COORD97":2541044.4300000002,"ADDRESS":"大同路二段６４０巷１１８弄１５號","OBJECTID":77770},"geometry":{"x":169136.66000000108,"y":2541044.4300000034}},{"attributes":{"ID":77771,"DIS_CODE":0,"TOWNNAME":"新營區","LI":"新南里","LIN":"19鄰","STREET":"隋唐街","SECT":" ","MAREA":" ","LANE":"３１巷","ALLEY":"３８弄","HOUSE_NO":"１２號","E_COORD97":178629.20999999999,"N_COORD97":2578359.98,"ADDRESS":"隋唐街３１巷３８弄１２號","OBJECTID":77771},"geometry":{"x":178629.21000000089,"y":2578359.9800000023}},{"attributes":{"ID":77772,"DIS_CODE":0,"TOWNNAME":"仁德區","LI":"仁愛里","LIN":"6鄰","STREET":" ","SECT":" ","MAREA":"仁愛","LANE":" ","ALLEY":" ","HOUSE_NO":"９５號","E_COORD97":170333.42434,"N_COORD97":2539805.8799999999,"ADDRESS":"仁愛９５號","OBJECTID":77772},"geometry":{"x":170333.42434000038,"y":2539805.879999999}},{"attributes":{"ID":77773,"DIS_CODE":0,"TOWNNAME":"仁德區","LI":"仁愛里","LIN":"6鄰","STREET":" ","SECT":" ","MAREA":"仁愛","LANE":" ","ALLEY":" ","HOUSE_NO":"９３號","E_COORD97":170342.64002300001,"N_COORD97":2539805.8799999999,"ADDRESS":"仁愛９３號","OBJECTID":77773},"geometry":{"x":170342.64002300147,"y":2539805.879999999}},{"attributes":{"ID":77774,"DIS_CODE":0,"TOWNNAME":"仁德區","LI":"仁愛里","LIN":"6鄰","STREET":" ","SECT":" ","MAREA":"仁愛","LANE":" ","ALLEY":" ","HOUSE_NO":"１１３號","E_COORD97":170330.98801,"N_COORD97":2539769.5099999998,"ADDRESS":"仁愛１１３號","OBJECTID":77774},"geometry":{"x":170330.98801000137,"y":2539769.5100000016}},{"attributes":{"ID":77775,"DIS_CODE":0,"TOWNNAME":"南區","LI":"大忠里","LIN":"19鄰","STREET":"大同路","SECT":"二段","MAREA":" ","LANE":"６４０巷","ALLEY":"１１８弄","HOUSE_NO":"１６號","E_COORD97":169160.39000000001,"N_COORD97":2541043.5699999998,"ADDRESS":"大同路二段６４０巷１１８弄１６號","OBJECTID":77775},"geometry":{"x":169160.3900000006,"y":2541043.5700000003}},{"attributes":{"ID":77776,"DIS_CODE":0,"TOWNNAME":"南區","LI":"大忠里","LIN":"19鄰","STREET":"大同路","SECT":"二段","MAREA":" ","LANE":"６４０巷","ALLEY":"１１８弄","HOUSE_NO":"１７號","E_COORD97":169137.20999999999,"N_COORD97":2541049.3199999998,"ADDRESS":"大同路二段６４０巷１１８弄１７號","OBJECTID":77776},"geometry":{"x":169137.20999999996,"y":2541049.3200000022}},{"attributes":{"ID":77777,"DIS_CODE":0,"TOWNNAME":"南區","LI":"大忠里","LIN":"19鄰","STREET":"大同路","SECT":"二段","MAREA":" ","LANE":"６４０巷","ALLEY":"１１８弄","HOUSE_NO":"１８號","E_COORD97":169161.57000000001,"N_COORD97":2541047.6800000002,"ADDRESS":"大同路二段６４０巷１１８弄１８號","OBJECTID":77777},"geometry":{"x":169161.57000000123,"y":2541047.6799999997}},{"attributes":{"ID":77778,"DIS_CODE":0,"TOWNNAME":"南區","LI":"大忠里","LIN":"19鄰","STREET":"大同路","SECT":"二段","MAREA":" ","LANE":"６４０巷","ALLEY":"１１８弄","HOUSE_NO":"１９號","E_COORD97":169138.29999999999,"N_COORD97":2541053.4900000002,"ADDRESS":"大同路二段６４０巷１１８弄１９號","OBJECTID":77778},"geometry":{"x":169138.30000000168,"y":2541053.4900000002}},{"attributes":{"ID":77779,"DIS_CODE":0,"TOWNNAME":"南區","LI":"大忠里","LIN":"19鄰","STREET":"大同路","SECT":"二段","MAREA":" ","LANE":"６４０巷","ALLEY":"１１８弄","HOUSE_NO":"２０號","E_COORD97":169164.12,"N_COORD97":2541056.8799999999,"ADDRESS":"大同路二段６４０巷１１８弄２０號","OBJECTID":77779},"geometry":{"x":169164.12000000104,"y":2541056.879999999}},{"attributes":{"ID":77780,"DIS_CODE":0,"TOWNNAME":"南區","LI":"大忠里","LIN":"19鄰","STREET":"大同路","SECT":"二段","MAREA":" ","LANE":"６４０巷","ALLEY":"１１８弄","HOUSE_NO":"２１號","E_COORD97":169141.01999999999,"N_COORD97":2541057.8399999999,"ADDRESS":"大同路二段６４０巷１１８弄２１號","OBJECTID":77780},"geometry":{"x":169141.01999999955,"y":2541057.8399999999}},{"attributes":{"ID":77781,"DIS_CODE":0,"TOWNNAME":"南區","LI":"大忠里","LIN":"19鄰","STREET":"大同路","SECT":"二段","MAREA":" ","LANE":"６４０巷","ALLEY":"１１８弄","HOUSE_NO":"２２號","E_COORD97":169165.29999999999,"N_COORD97":2541060.7999999998,"ADDRESS":"大同路二段６４０巷１１８弄２２號","OBJECTID":77781},"geometry":{"x":169165.29999999981,"y":2541060.8000000026}},{"attributes":{"ID":77782,"DIS_CODE":0,"TOWNNAME":"南區","LI":"大忠里","LIN":"19鄰","STREET":"大同路","SECT":"二段","MAREA":" ","LANE":"６４０巷","ALLEY":"１１８弄","HOUSE_NO":"２３號","E_COORD97":169141.75,"N_COORD97":2541065.0800000001,"ADDRESS":"大同路二段６４０巷１１８弄２３號","OBJECTID":77782},"geometry":{"x":169141.75,"y":2541065.0800000019}},{"attributes":{"ID":77783,"DIS_CODE":0,"TOWNNAME":"南區","LI":"大忠里","LIN":"19鄰","STREET":"大同路","SECT":"二段","MAREA":" ","LANE":"６４０巷","ALLEY":"１１８弄","HOUSE_NO":"２４號","E_COORD97":169166.28,"N_COORD97":2541066.2799999998,"ADDRESS":"大同路二段６４０巷１１８弄２４號","OBJECTID":77783},"geometry":{"x":169166.28000000119,"y":2541066.2800000012}},{"attributes":{"ID":77784,"DIS_CODE":0,"TOWNNAME":"南區","LI":"大忠里","LIN":"19鄰","STREET":"大同路","SECT":"二段","MAREA":" ","LANE":"６４０巷","ALLEY":"１１８弄","HOUSE_NO":"３號","E_COORD97":169131.75,"N_COORD97":2541016.7200000002,"ADDRESS":"大同路二段６４０巷１１８弄３號","OBJECTID":77784},"geometry":{"x":169131.75,"y":2541016.7200000025}},{"attributes":{"ID":77785,"DIS_CODE":0,"TOWNNAME":"南區","LI":"大忠里","LIN":"19鄰","STREET":"大同路","SECT":"二段","MAREA":" ","LANE":"６４０巷","ALLEY":"１１８弄","HOUSE_NO":"５號","E_COORD97":169133.39000000001,"N_COORD97":2541022.3399999999,"ADDRESS":"大同路二段６４０巷１１８弄５號","OBJECTID":77785},"geometry":{"x":169133.38999999966,"y":2541022.3400000017}},{"attributes":{"ID":77786,"DIS_CODE":0,"TOWNNAME":"南區","LI":"竹溪里","LIN":"7鄰","STREET":"體育路","SECT":" ","MAREA":" ","LANE":" ","ALLEY":" ","HOUSE_NO":"１號","E_COORD97":168717.28,"N_COORD97":2542408.9900000002,"ADDRESS":"體育路１號","OBJECTID":77786},"geometry":{"x":168717.28000000119,"y":2542408.9900000021}},{"attributes":{"ID":77787,"DIS_CODE":0,"TOWNNAME":"南區","LI":"竹溪里","LIN":"7鄰","STREET":"體育路","SECT":" ","MAREA":" ","LANE":" ","ALLEY":" ","HOUSE_NO":"３號","E_COORD97":168716.51000000001,"N_COORD97":2542406.1600000001,"ADDRESS":"體育路３號","OBJECTID":77787},"geometry":{"x":168716.51000000164,"y":2542406.1600000039}},{"attributes":{"ID":77788,"DIS_CODE":0,"TOWNNAME":"新營區","LI":"民生里","LIN":" ","STREET":"復興路","SECT":" ","MAREA":" ","LANE":" ","ALLEY":" ","HOUSE_NO":"２６４之７號","E_COORD97":178830.60000000001,"N_COORD97":2578179.6699999999,"ADDRESS":"復興路２６４之７號","OBJECTID":77788},"geometry":{"x":178830.59999999963,"y":2578179.6699999999}},{"attributes":{"ID":77789,"DIS_CODE":0,"TOWNNAME":"新營區","LI":"新北里","LIN":"7鄰","STREET":"三興街","SECT":" ","MAREA":" ","LANE":" ","ALLEY":" ","HOUSE_NO":"２８７號","E_COORD97":179310.98000000001,"N_COORD97":2579696.7400000002,"ADDRESS":"三興街２８７號","OBJECTID":77789},"geometry":{"x":179310.98000000138,"y":2579696.7400000021}},{"attributes":{"ID":77790,"DIS_CODE":0,"TOWNNAME":"南區","LI":"竹溪里","LIN":"7鄰","STREET":"體育路","SECT":" ","MAREA":" ","LANE":" ","ALLEY":" ","HOUSE_NO":"７號","E_COORD97":168720.64000000001,"N_COORD97":2542400.6600000001,"ADDRESS":"體育路７號","OBJECTID":77790},"geometry":{"x":168720.64000000153,"y":2542400.660000002}},{"attributes":{"ID":77791,"DIS_CODE":0,"TOWNNAME":"南區","LI":"大忠里","LIN":"19鄰","STREET":"大同路","SECT":"二段","MAREA":" ","LANE":"６４０巷","ALLEY":"１１８弄","HOUSE_NO":"７號","E_COORD97":169133.94,"N_COORD97":2541027.23,"ADDRESS":"大同路二段６４０巷１１８弄７號","OBJECTID":77791},"geometry":{"x":169133.94000000041,"y":2541027.2300000023}},{"attributes":{"ID":77792,"DIS_CODE":0,"TOWNNAME":"南區","LI":"大恩里","LIN":"19鄰","STREET":"大同路","SECT":"二段","MAREA":" ","LANE":"７５０巷","ALLEY":"１６４弄","HOUSE_NO":"１１號","E_COORD97":169045.79999999999,"N_COORD97":2540746.4300000002,"ADDRESS":"大同路二段７５０巷１６４弄１１號","OBJECTID":77792},"geometry":{"x":169045.80000000075,"y":2540746.4300000016}},{"attributes":{"ID":77793,"DIS_CODE":0,"TOWNNAME":"南區","LI":"大恩里","LIN":"19鄰","STREET":"大同路","SECT":"二段","MAREA":" ","LANE":"７５０巷","ALLEY":"１６４弄","HOUSE_NO":"１號","E_COORD97":169039.79000000001,"N_COORD97":2540726.0499999998,"ADDRESS":"大同路二段７５０巷１６４弄１號","OBJECTID":77793},"geometry":{"x":169039.79000000004,"y":2540726.0500000045}},{"attributes":{"ID":77794,"DIS_CODE":0,"TOWNNAME":"南區","LI":"大恩里","LIN":"19鄰","STREET":"大同路","SECT":"二段","MAREA":" ","LANE":"７５０巷","ALLEY":"１６４弄","HOUSE_NO":"３號","E_COORD97":169041.29000000001,"N_COORD97":2540730.5499999998,"ADDRESS":"大同路二段７５０巷１６４弄３號","OBJECTID":77794},"geometry":{"x":169041.29000000004,"y":2540730.5500000026}},{"attributes":{"ID":77795,"DIS_CODE":0,"TOWNNAME":"官田區","LI":"官田里","LIN":"6鄰","STREET":" ","SECT":" ","MAREA":"官田","LANE":" ","ALLEY":" ","HOUSE_NO":"５６號之１６","E_COORD97":182644.45000000001,"N_COORD97":2565146.48,"ADDRESS":"官田５６號之１６","OBJECTID":77795},"geometry":{"x":182644.45000000019,"y":2565146.4800000004}},{"attributes":{"ID":77796,"DIS_CODE":0,"TOWNNAME":"官田區","LI":"官田里","LIN":"6鄰","STREET":" ","SECT":" ","MAREA":"官田","LANE":" ","ALLEY":" ","HOUSE_NO":"５６號之１７","E_COORD97":182643.32000000001,"N_COORD97":2565150.3700000001,"ADDRESS":"官田５６號之１７","OBJECTID":77796},"geometry":{"x":182643.32000000123,"y":2565150.370000001}},{"attributes":{"ID":77797,"DIS_CODE":0,"TOWNNAME":"官田區","LI":"官田里","LIN":"6鄰","STREET":" ","SECT":" ","MAREA":"官田","LANE":" ","ALLEY":" ","HOUSE_NO":"５６號之１８","E_COORD97":182642.19,"N_COORD97":2565154.27,"ADDRESS":"官田５６號之１８","OBJECTID":77797},"geometry":{"x":182642.19000000134,"y":2565154.2700000033}},{"attributes":{"ID":77798,"DIS_CODE":0,"TOWNNAME":"官田區","LI":"官田里","LIN":"6鄰","STREET":" ","SECT":" ","MAREA":"官田","LANE":" ","ALLEY":" ","HOUSE_NO":"５６號之１","E_COORD97":182661.67999999999,"N_COORD97":2565087.6899999999,"ADDRESS":"官田５６號之１","OBJECTID":77798},"geometry":{"x":182661.68000000156,"y":2565087.6900000013}},{"attributes":{"ID":77799,"DIS_CODE":0,"TOWNNAME":"南區","LI":"大恩里","LIN":"19鄰","STREET":"大同路","SECT":"二段","MAREA":" ","LANE":"７５０巷","ALLEY":"１６４弄","HOUSE_NO":"５號","E_COORD97":169042.79999999999,"N_COORD97":2540734.3100000001,"ADDRESS":"大同路二段７５０巷１６４弄５號","OBJECTID":77799},"geometry":{"x":169042.79999999981,"y":2540734.3100000024}},{"attributes":{"ID":77800,"DIS_CODE":0,"TOWNNAME":"官田區","LI":"官田里","LIN":"6鄰","STREET":" ","SECT":" ","MAREA":"官田","LANE":" ","ALLEY":" ","HOUSE_NO":"５６號之２","E_COORD97":182660.29000000001,"N_COORD97":2565091.5499999998,"ADDRESS":"官田５６號之２","OBJECTID":77800},"geometry":{"x":182660.29000000097,"y":2565091.5500000007}}]}