{"displayFieldName":"TOWNNAME","fieldAliases":{"ID":"ID","DIS_CODE":"DIS_CODE","TOWNNAME":"TOWNNAME","LI":"LI","LIN":"LIN","STREET":"STREET","SECT":"SECT","MAREA":"MAREA","LANE":"LANE","ALLEY":"ALLEY","HOUSE_NO":"HOUSE_NO","E_COORD97":"E_COORD97","N_COORD97":"N_COORD97","ADDRESS":"ADDRESS","OBJECTID":"OBJECTID"},"geometryType":"esriGeometryPoint","spatialReference":{"wkid":102443,"latestWkid":3826},"fields":[{"name":"ID","type":"esriFieldTypeDouble","alias":"ID"},{"name":"DIS_CODE","type":"esriFieldTypeInteger","alias":"DIS_CODE"},{"name":"TOWNNAME","type":"esriFieldTypeString","alias":"TOWNNAME","length":8},{"name":"LI","type":"esriFieldTypeString","alias":"LI","length":8},{"name":"LIN","type":"esriFieldTypeString","alias":"LIN","length":12},{"name":"STREET","type":"esriFieldTypeString","alias":"STREET","length":20},{"name":"SECT","type":"esriFieldTypeString","alias":"SECT","length":8},{"name":"MAREA","type":"esriFieldTypeString","alias":"MAREA","length":12},{"name":"LANE","type":"esriFieldTypeString","alias":"LANE","length":10},{"name":"ALLEY","type":"esriFieldTypeString","alias":"ALLEY","length":10},{"name":"HOUSE_NO","type":"esriFieldTypeString","alias":"HOUSE_NO","length":20},{"name":"E_COORD97","type":"esriFieldTypeDouble","alias":"E_COORD97"},{"name":"N_COORD97","type":"esriFieldTypeDouble","alias":"N_COORD97"},{"name":"ADDRESS","type":"esriFieldTypeString","alias":"ADDRESS","length":50},{"name":"OBJECTID","type":"esriFieldTypeOID","alias":"OBJECTID"}],"features":[{"attributes":{"ID":535628,"DIS_CODE":0,"TOWNNAME":"南區","LI":"大林里","LIN":"19鄰","STREET":"大林路","SECT":" ","MAREA":" ","LANE":" ","ALLEY":" ","HOUSE_NO":"１０５號三樓之１","E_COORD97":169160.35999999999,"N_COORD97":2541780.4399999999,"ADDRESS":"大林路１０５號三樓之１","OBJECTID":535601},"geometry":{"x":169160.36000000034,"y":2541780.4400000013}},{"attributes":{"ID":535629,"DIS_CODE":0,"TOWNNAME":"南區","LI":"大林里","LIN":"19鄰","STREET":"大林路","SECT":" ","MAREA":" ","LANE":" ","ALLEY":" ","HOUSE_NO":"１０５號三樓之２","E_COORD97":169160.35999999999,"N_COORD97":2541780.4399999999,"ADDRESS":"大林路１０５號三樓之２","OBJECTID":535602},"geometry":{"x":169160.36000000034,"y":2541780.4400000013}},{"attributes":{"ID":535630,"DIS_CODE":0,"TOWNNAME":"南區","LI":"大林里","LIN":"19鄰","STREET":"大林路","SECT":" ","MAREA":" ","LANE":" ","ALLEY":" ","HOUSE_NO":"１０５號五樓之１","E_COORD97":169160.35999999999,"N_COORD97":2541780.4399999999,"ADDRESS":"大林路１０５號五樓之１","OBJECTID":535603},"geometry":{"x":169160.36000000034,"y":2541780.4400000013}},{"attributes":{"ID":535631,"DIS_CODE":0,"TOWNNAME":"南區","LI":"大林里","LIN":"19鄰","STREET":"大林路","SECT":" ","MAREA":" ","LANE":" ","ALLEY":" ","HOUSE_NO":"１０５號五樓之２","E_COORD97":169160.35999999999,"N_COORD97":2541780.4399999999,"ADDRESS":"大林路１０５號五樓之２","OBJECTID":535604},"geometry":{"x":169160.36000000034,"y":2541780.4400000013}},{"attributes":{"ID":535632,"DIS_CODE":0,"TOWNNAME":"南區","LI":"大林里","LIN":"19鄰","STREET":"大林路","SECT":" ","MAREA":" ","LANE":" ","ALLEY":" ","HOUSE_NO":"１０５號六樓之１","E_COORD97":169160.35999999999,"N_COORD97":2541780.4399999999,"ADDRESS":"大林路１０５號六樓之１","OBJECTID":535605},"geometry":{"x":169160.36000000034,"y":2541780.4400000013}},{"attributes":{"ID":535633,"DIS_CODE":0,"TOWNNAME":"南區","LI":"大林里","LIN":"19鄰","STREET":"大林路","SECT":" ","MAREA":" ","LANE":" ","ALLEY":" ","HOUSE_NO":"１０５號六樓之２","E_COORD97":169160.35999999999,"N_COORD97":2541780.4399999999,"ADDRESS":"大林路１０５號六樓之２","OBJECTID":535606},"geometry":{"x":169160.36000000034,"y":2541780.4400000013}},{"attributes":{"ID":535634,"DIS_CODE":0,"TOWNNAME":"南區","LI":"大林里","LIN":"19鄰","STREET":"大林路","SECT":" ","MAREA":" ","LANE":" ","ALLEY":" ","HOUSE_NO":"１０５號四樓之１","E_COORD97":169160.35999999999,"N_COORD97":2541780.4399999999,"ADDRESS":"大林路１０５號四樓之１","OBJECTID":535607},"geometry":{"x":169160.36000000034,"y":2541780.4400000013}},{"attributes":{"ID":535635,"DIS_CODE":0,"TOWNNAME":"南區","LI":"大林里","LIN":"19鄰","STREET":"大林路","SECT":" ","MAREA":" ","LANE":" ","ALLEY":" ","HOUSE_NO":"１０５號四樓之２","E_COORD97":169160.35999999999,"N_COORD97":2541780.4399999999,"ADDRESS":"大林路１０５號四樓之２","OBJECTID":535608},"geometry":{"x":169160.36000000034,"y":2541780.4400000013}},{"attributes":{"ID":535636,"DIS_CODE":0,"TOWNNAME":"南區","LI":"大林里","LIN":"19鄰","STREET":"大林路","SECT":" ","MAREA":" ","LANE":" ","ALLEY":" ","HOUSE_NO":"１０５號七樓之１","E_COORD97":169160.35999999999,"N_COORD97":2541780.4399999999,"ADDRESS":"大林路１０５號七樓之１","OBJECTID":535609},"geometry":{"x":169160.36000000034,"y":2541780.4400000013}},{"attributes":{"ID":535637,"DIS_CODE":0,"TOWNNAME":"南區","LI":"大林里","LIN":"19鄰","STREET":"大林路","SECT":" ","MAREA":" ","LANE":" ","ALLEY":" ","HOUSE_NO":"１０５號七樓之２","E_COORD97":169160.35999999999,"N_COORD97":2541780.4399999999,"ADDRESS":"大林路１０５號七樓之２","OBJECTID":535610},"geometry":{"x":169160.36000000034,"y":2541780.4400000013}},{"attributes":{"ID":535638,"DIS_CODE":0,"TOWNNAME":"南區","LI":"大林里","LIN":"19鄰","STREET":"大林路","SECT":" ","MAREA":" ","LANE":" ","ALLEY":" ","HOUSE_NO":"１０５號九樓之１","E_COORD97":169160.35999999999,"N_COORD97":2541780.4399999999,"ADDRESS":"大林路１０５號九樓之１","OBJECTID":535611},"geometry":{"x":169160.36000000034,"y":2541780.4400000013}},{"attributes":{"ID":535639,"DIS_CODE":0,"TOWNNAME":"南區","LI":"大林里","LIN":"19鄰","STREET":"大林路","SECT":" ","MAREA":" ","LANE":" ","ALLEY":" ","HOUSE_NO":"１０７號七樓之１","E_COORD97":169154.32999999999,"N_COORD97":2541779.4300000002,"ADDRESS":"大林路１０７號七樓之１","OBJECTID":535612},"geometry":{"x":169154.33000000101,"y":2541779.4299999997}},{"attributes":{"ID":535640,"DIS_CODE":0,"TOWNNAME":"南區","LI":"大林里","LIN":"19鄰","STREET":"大林路","SECT":" ","MAREA":" ","LANE":" ","ALLEY":" ","HOUSE_NO":"１０７號七樓之２","E_COORD97":169154.32999999999,"N_COORD97":2541779.4300000002,"ADDRESS":"大林路１０７號七樓之２","OBJECTID":535613},"geometry":{"x":169154.33000000101,"y":2541779.4299999997}},{"attributes":{"ID":535641,"DIS_CODE":0,"TOWNNAME":"南區","LI":"大林里","LIN":"19鄰","STREET":"大林路","SECT":" ","MAREA":" ","LANE":" ","ALLEY":" ","HOUSE_NO":"１０７號九樓之１","E_COORD97":169154.32999999999,"N_COORD97":2541779.4300000002,"ADDRESS":"大林路１０７號九樓之１","OBJECTID":535614},"geometry":{"x":169154.33000000101,"y":2541779.4299999997}},{"attributes":{"ID":535642,"DIS_CODE":0,"TOWNNAME":"南區","LI":"大林里","LIN":"19鄰","STREET":"大林路","SECT":" ","MAREA":" ","LANE":" ","ALLEY":" ","HOUSE_NO":"１０７號九樓之２","E_COORD97":169154.32999999999,"N_COORD97":2541779.4300000002,"ADDRESS":"大林路１０７號九樓之２","OBJECTID":535615},"geometry":{"x":169154.33000000101,"y":2541779.4299999997}},{"attributes":{"ID":535643,"DIS_CODE":0,"TOWNNAME":"南區","LI":"大林里","LIN":"19鄰","STREET":"大林路","SECT":" ","MAREA":" ","LANE":" ","ALLEY":" ","HOUSE_NO":"１０７號八樓之２","E_COORD97":169154.32999999999,"N_COORD97":2541779.4300000002,"ADDRESS":"大林路１０７號八樓之２","OBJECTID":535616},"geometry":{"x":169154.33000000101,"y":2541779.4299999997}},{"attributes":{"ID":535644,"DIS_CODE":0,"TOWNNAME":"南區","LI":"大林里","LIN":"19鄰","STREET":"大林路","SECT":" ","MAREA":" ","LANE":" ","ALLEY":" ","HOUSE_NO":"１０７號十樓之１","E_COORD97":169154.32999999999,"N_COORD97":2541779.4300000002,"ADDRESS":"大林路１０７號十樓之１","OBJECTID":535617},"geometry":{"x":169154.33000000101,"y":2541779.4299999997}},{"attributes":{"ID":535645,"DIS_CODE":0,"TOWNNAME":"南區","LI":"大林里","LIN":"19鄰","STREET":"大林路","SECT":" ","MAREA":" ","LANE":" ","ALLEY":" ","HOUSE_NO":"１０７號十樓之２","E_COORD97":169154.32999999999,"N_COORD97":2541779.4300000002,"ADDRESS":"大林路１０７號十樓之２","OBJECTID":535618},"geometry":{"x":169154.33000000101,"y":2541779.4299999997}},{"attributes":{"ID":535646,"DIS_CODE":0,"TOWNNAME":"南區","LI":"大林里","LIN":"19鄰","STREET":"大林路","SECT":" ","MAREA":" ","LANE":" ","ALLEY":" ","HOUSE_NO":"１０７號三樓之１","E_COORD97":169154.32999999999,"N_COORD97":2541779.4300000002,"ADDRESS":"大林路１０７號三樓之１","OBJECTID":535619},"geometry":{"x":169154.33000000101,"y":2541779.4299999997}},{"attributes":{"ID":535647,"DIS_CODE":0,"TOWNNAME":"南區","LI":"大林里","LIN":"19鄰","STREET":"大林路","SECT":" ","MAREA":" ","LANE":" ","ALLEY":" ","HOUSE_NO":"１０７號三樓之２","E_COORD97":169154.32999999999,"N_COORD97":2541779.4300000002,"ADDRESS":"大林路１０７號三樓之２","OBJECTID":535620},"geometry":{"x":169154.33000000101,"y":2541779.4299999997}},{"attributes":{"ID":535648,"DIS_CODE":0,"TOWNNAME":"南區","LI":"大林里","LIN":"19鄰","STREET":"大林路","SECT":" ","MAREA":" ","LANE":" ","ALLEY":" ","HOUSE_NO":"１０７號五樓之１","E_COORD97":169154.32999999999,"N_COORD97":2541779.4300000002,"ADDRESS":"大林路１０７號五樓之１","OBJECTID":535621},"geometry":{"x":169154.33000000101,"y":2541779.4299999997}},{"attributes":{"ID":535649,"DIS_CODE":0,"TOWNNAME":"南區","LI":"大林里","LIN":"19鄰","STREET":"大林路","SECT":" ","MAREA":" ","LANE":" ","ALLEY":" ","HOUSE_NO":"１０７號六樓之１","E_COORD97":169154.32999999999,"N_COORD97":2541779.4300000002,"ADDRESS":"大林路１０７號六樓之１","OBJECTID":535622},"geometry":{"x":169154.33000000101,"y":2541779.4299999997}},{"attributes":{"ID":535650,"DIS_CODE":0,"TOWNNAME":"南區","LI":"大林里","LIN":"19鄰","STREET":"大林路","SECT":" ","MAREA":" ","LANE":" ","ALLEY":" ","HOUSE_NO":"１０７號六樓之２","E_COORD97":169154.32999999999,"N_COORD97":2541779.4300000002,"ADDRESS":"大林路１０７號六樓之２","OBJECTID":535623},"geometry":{"x":169154.33000000101,"y":2541779.4299999997}},{"attributes":{"ID":535651,"DIS_CODE":0,"TOWNNAME":"南區","LI":"大林里","LIN":"19鄰","STREET":"大林路","SECT":" ","MAREA":" ","LANE":" ","ALLEY":" ","HOUSE_NO":"１０７號四樓之１","E_COORD97":169154.32999999999,"N_COORD97":2541779.4300000002,"ADDRESS":"大林路１０７號四樓之１","OBJECTID":535624},"geometry":{"x":169154.33000000101,"y":2541779.4299999997}},{"attributes":{"ID":535652,"DIS_CODE":0,"TOWNNAME":"南區","LI":"大林里","LIN":"19鄰","STREET":"大林路","SECT":" ","MAREA":" ","LANE":" ","ALLEY":" ","HOUSE_NO":"１０７號四樓之２","E_COORD97":169154.32999999999,"N_COORD97":2541779.4300000002,"ADDRESS":"大林路１０７號四樓之２","OBJECTID":535625},"geometry":{"x":169154.33000000101,"y":2541779.4299999997}},{"attributes":{"ID":535653,"DIS_CODE":0,"TOWNNAME":"南區","LI":"大林里","LIN":"19鄰","STREET":"大林路","SECT":" ","MAREA":" ","LANE":" ","ALLEY":" ","HOUSE_NO":"１０９號七樓之１","E_COORD97":169146.59,"N_COORD97":2541775.1299999999,"ADDRESS":"大林路１０９號七樓之１","OBJECTID":535626},"geometry":{"x":169146.59000000171,"y":2541775.1300000008}},{"attributes":{"ID":535654,"DIS_CODE":0,"TOWNNAME":"歸仁區","LI":"辜厝里","LIN":"19鄰","STREET":"大順一街","SECT":" ","MAREA":" ","LANE":" ","ALLEY":" ","HOUSE_NO":"３號十四樓","E_COORD97":177457.92999999999,"N_COORD97":2540505.9500000002,"ADDRESS":"大順一街３號十四樓","OBJECTID":535627},"geometry":{"x":177457.93000000063,"y":2540505.9500000011}},{"attributes":{"ID":535655,"DIS_CODE":0,"TOWNNAME":"歸仁區","LI":"辜厝里","LIN":"19鄰","STREET":"大順一街","SECT":" ","MAREA":" ","LANE":" ","ALLEY":" ","HOUSE_NO":"３號八樓之２","E_COORD97":177458.13,"N_COORD97":2540505.9500000002,"ADDRESS":"大順一街３號八樓之２","OBJECTID":535628},"geometry":{"x":177458.13000000082,"y":2540505.9500000011}},{"attributes":{"ID":535656,"DIS_CODE":0,"TOWNNAME":"歸仁區","LI":"許厝里","LIN":"19鄰","STREET":"忠孝北路","SECT":" ","MAREA":" ","LANE":" ","ALLEY":" ","HOUSE_NO":"８１號七樓","E_COORD97":178342.32000000001,"N_COORD97":2540859.25,"ADDRESS":"忠孝北路８１號七樓","OBJECTID":535629},"geometry":{"x":178342.32000000123,"y":2540859.2500000037}},{"attributes":{"ID":535657,"DIS_CODE":0,"TOWNNAME":"歸仁區","LI":"許厝里","LIN":"19鄰","STREET":"忠孝北路","SECT":" ","MAREA":" ","LANE":" ","ALLEY":" ","HOUSE_NO":"８１號五樓","E_COORD97":178342.32000000001,"N_COORD97":2540859.25,"ADDRESS":"忠孝北路８１號五樓","OBJECTID":535630},"geometry":{"x":178342.32000000123,"y":2540859.2500000037}},{"attributes":{"ID":535658,"DIS_CODE":0,"TOWNNAME":"歸仁區","LI":"辜厝里","LIN":"19鄰","STREET":"大順一街","SECT":" ","MAREA":" ","LANE":" ","ALLEY":" ","HOUSE_NO":"３號三樓之２","E_COORD97":177458.13,"N_COORD97":2540505.9500000002,"ADDRESS":"大順一街３號三樓之２","OBJECTID":535631},"geometry":{"x":177458.13000000082,"y":2540505.9500000011}},{"attributes":{"ID":535659,"DIS_CODE":0,"TOWNNAME":"歸仁區","LI":"辜厝里","LIN":"19鄰","STREET":"大順一街","SECT":" ","MAREA":" ","LANE":" ","ALLEY":" ","HOUSE_NO":"３號十二樓","E_COORD97":177457.92999999999,"N_COORD97":2540505.9500000002,"ADDRESS":"大順一街３號十二樓","OBJECTID":535632},"geometry":{"x":177457.93000000063,"y":2540505.9500000011}},{"attributes":{"ID":535660,"DIS_CODE":0,"TOWNNAME":"歸仁區","LI":"辜厝里","LIN":"19鄰","STREET":"大順一街","SECT":" ","MAREA":" ","LANE":" ","ALLEY":" ","HOUSE_NO":"３號十四樓之２","E_COORD97":177458.38,"N_COORD97":2540505.9500000002,"ADDRESS":"大順一街３號十四樓之２","OBJECTID":535633},"geometry":{"x":177458.38000000082,"y":2540505.9500000011}},{"attributes":{"ID":535661,"DIS_CODE":0,"TOWNNAME":"歸仁區","LI":"許厝里","LIN":"19鄰","STREET":"忠孝北路","SECT":" ","MAREA":" ","LANE":" ","ALLEY":" ","HOUSE_NO":"８９號四樓","E_COORD97":178335.62,"N_COORD97":2540876.25,"ADDRESS":"忠孝北路８９號四樓","OBJECTID":535634},"geometry":{"x":178335.62000000011,"y":2540876.2500000037}},{"attributes":{"ID":535662,"DIS_CODE":0,"TOWNNAME":"歸仁區","LI":"許厝里","LIN":"19鄰","STREET":"忠孝北路","SECT":" ","MAREA":" ","LANE":" ","ALLEY":" ","HOUSE_NO":"８９號八樓","E_COORD97":178335.62,"N_COORD97":2540876.25,"ADDRESS":"忠孝北路８９號八樓","OBJECTID":535635},"geometry":{"x":178335.62000000011,"y":2540876.2500000037}},{"attributes":{"ID":535663,"DIS_CODE":0,"TOWNNAME":"南區","LI":"大林里","LIN":"19鄰","STREET":"大林路","SECT":" ","MAREA":" ","LANE":" ","ALLEY":" ","HOUSE_NO":"１０９號七樓之２","E_COORD97":169146.59,"N_COORD97":2541775.1299999999,"ADDRESS":"大林路１０９號七樓之２","OBJECTID":535636},"geometry":{"x":169146.59000000171,"y":2541775.1300000008}},{"attributes":{"ID":535664,"DIS_CODE":0,"TOWNNAME":"南區","LI":"大林里","LIN":"19鄰","STREET":"大林路","SECT":" ","MAREA":" ","LANE":" ","ALLEY":" ","HOUSE_NO":"１０９號九樓之１","E_COORD97":169146.59,"N_COORD97":2541775.1299999999,"ADDRESS":"大林路１０９號九樓之１","OBJECTID":535637},"geometry":{"x":169146.59000000171,"y":2541775.1300000008}},{"attributes":{"ID":535665,"DIS_CODE":0,"TOWNNAME":"南區","LI":"大林里","LIN":"19鄰","STREET":"大林路","SECT":" ","MAREA":" ","LANE":" ","ALLEY":" ","HOUSE_NO":"１０９號九樓之２","E_COORD97":169146.59,"N_COORD97":2541775.1299999999,"ADDRESS":"大林路１０９號九樓之２","OBJECTID":535638},"geometry":{"x":169146.59000000171,"y":2541775.1300000008}},{"attributes":{"ID":535666,"DIS_CODE":0,"TOWNNAME":"南區","LI":"大林里","LIN":"19鄰","STREET":"大林路","SECT":" ","MAREA":" ","LANE":" ","ALLEY":" ","HOUSE_NO":"１０９號八樓之１","E_COORD97":169146.59,"N_COORD97":2541775.1299999999,"ADDRESS":"大林路１０９號八樓之１","OBJECTID":535639},"geometry":{"x":169146.59000000171,"y":2541775.1300000008}},{"attributes":{"ID":535667,"DIS_CODE":0,"TOWNNAME":"南區","LI":"大林里","LIN":"19鄰","STREET":"大林路","SECT":" ","MAREA":" ","LANE":" ","ALLEY":" ","HOUSE_NO":"１０９號八樓之２","E_COORD97":169146.59,"N_COORD97":2541775.1299999999,"ADDRESS":"大林路１０９號八樓之２","OBJECTID":535640},"geometry":{"x":169146.59000000171,"y":2541775.1300000008}},{"attributes":{"ID":535668,"DIS_CODE":0,"TOWNNAME":"南區","LI":"大林里","LIN":"19鄰","STREET":"大林路","SECT":" ","MAREA":" ","LANE":" ","ALLEY":" ","HOUSE_NO":"１０９號十樓","E_COORD97":169146.59,"N_COORD97":2541775.1299999999,"ADDRESS":"大林路１０９號十樓","OBJECTID":535641},"geometry":{"x":169146.59000000171,"y":2541775.1300000008}},{"attributes":{"ID":535669,"DIS_CODE":0,"TOWNNAME":"南區","LI":"大林里","LIN":"19鄰","STREET":"大林路","SECT":" ","MAREA":" ","LANE":" ","ALLEY":" ","HOUSE_NO":"１０９號三樓之１","E_COORD97":169146.59,"N_COORD97":2541775.1299999999,"ADDRESS":"大林路１０９號三樓之１","OBJECTID":535642},"geometry":{"x":169146.59000000171,"y":2541775.1300000008}},{"attributes":{"ID":535670,"DIS_CODE":0,"TOWNNAME":"南區","LI":"大林里","LIN":"19鄰","STREET":"大林路","SECT":" ","MAREA":" ","LANE":" ","ALLEY":" ","HOUSE_NO":"１０９號三樓之２","E_COORD97":169146.59,"N_COORD97":2541775.1299999999,"ADDRESS":"大林路１０９號三樓之２","OBJECTID":535643},"geometry":{"x":169146.59000000171,"y":2541775.1300000008}},{"attributes":{"ID":535671,"DIS_CODE":0,"TOWNNAME":"南區","LI":"大林里","LIN":"19鄰","STREET":"大林路","SECT":" ","MAREA":" ","LANE":" ","ALLEY":" ","HOUSE_NO":"１０９號五樓之１","E_COORD97":169146.59,"N_COORD97":2541775.1299999999,"ADDRESS":"大林路１０９號五樓之１","OBJECTID":535644},"geometry":{"x":169146.59000000171,"y":2541775.1300000008}},{"attributes":{"ID":535672,"DIS_CODE":0,"TOWNNAME":"南區","LI":"大林里","LIN":"19鄰","STREET":"大林路","SECT":" ","MAREA":" ","LANE":" ","ALLEY":" ","HOUSE_NO":"１０９號五樓之２","E_COORD97":169146.59,"N_COORD97":2541775.1299999999,"ADDRESS":"大林路１０９號五樓之２","OBJECTID":535645},"geometry":{"x":169146.59000000171,"y":2541775.1300000008}},{"attributes":{"ID":535673,"DIS_CODE":0,"TOWNNAME":"南區","LI":"大林里","LIN":"19鄰","STREET":"大林路","SECT":" ","MAREA":" ","LANE":" ","ALLEY":" ","HOUSE_NO":"１０９號六樓之１","E_COORD97":169146.59,"N_COORD97":2541775.1299999999,"ADDRESS":"大林路１０９號六樓之１","OBJECTID":535646},"geometry":{"x":169146.59000000171,"y":2541775.1300000008}},{"attributes":{"ID":535674,"DIS_CODE":0,"TOWNNAME":"南區","LI":"大林里","LIN":"19鄰","STREET":"大林路","SECT":" ","MAREA":" ","LANE":" ","ALLEY":" ","HOUSE_NO":"１０９號六樓之２","E_COORD97":169146.59,"N_COORD97":2541775.1299999999,"ADDRESS":"大林路１０９號六樓之２","OBJECTID":535647},"geometry":{"x":169146.59000000171,"y":2541775.1300000008}},{"attributes":{"ID":535675,"DIS_CODE":0,"TOWNNAME":"南區","LI":"大林里","LIN":"19鄰","STREET":"大林路","SECT":" ","MAREA":" ","LANE":" ","ALLEY":" ","HOUSE_NO":"１０９號四樓之１","E_COORD97":169146.59,"N_COORD97":2541775.1299999999,"ADDRESS":"大林路１０９號四樓之１","OBJECTID":535648},"geometry":{"x":169146.59000000171,"y":2541775.1300000008}},{"attributes":{"ID":535676,"DIS_CODE":0,"TOWNNAME":"南區","LI":"大林里","LIN":"19鄰","STREET":"大林路","SECT":" ","MAREA":" ","LANE":" ","ALLEY":" ","HOUSE_NO":"１０９號四樓之２","E_COORD97":169146.59,"N_COORD97":2541775.1299999999,"ADDRESS":"大林路１０９號四樓之２","OBJECTID":535649},"geometry":{"x":169146.59000000171,"y":2541775.1300000008}},{"attributes":{"ID":535677,"DIS_CODE":0,"TOWNNAME":"新營區","LI":"王公里","LIN":"19鄰","STREET":"民族路","SECT":" ","MAREA":" ","LANE":" ","ALLEY":" ","HOUSE_NO":"１１２號四樓之２","E_COORD97":180353.54999999999,"N_COORD97":2579207.9100000001,"ADDRESS":"民族路１１２號四樓之２","OBJECTID":535650},"geometry":{"x":180353.54999999981,"y":2579207.910000002}},{"attributes":{"ID":535678,"DIS_CODE":0,"TOWNNAME":"新營區","LI":"王公里","LIN":"19鄰","STREET":"民族路","SECT":" ","MAREA":" ","LANE":" ","ALLEY":" ","HOUSE_NO":"１１２號七樓之３","E_COORD97":180353.51000000001,"N_COORD97":2579207.9100000001,"ADDRESS":"民族路１１２號七樓之３","OBJECTID":535651},"geometry":{"x":180353.50999999978,"y":2579207.910000002}},{"attributes":{"ID":535679,"DIS_CODE":0,"TOWNNAME":"新營區","LI":"王公里","LIN":"19鄰","STREET":"民族路","SECT":" ","MAREA":" ","LANE":" ","ALLEY":" ","HOUSE_NO":"１１２號三樓之１","E_COORD97":180353.42000000001,"N_COORD97":2579207.9100000001,"ADDRESS":"民族路１１２號三樓之１","OBJECTID":535652},"geometry":{"x":180353.42000000086,"y":2579207.910000002}},{"attributes":{"ID":535680,"DIS_CODE":0,"TOWNNAME":"安平區","LI":"平通里","LIN":"19鄰","STREET":"慶平路","SECT":" ","MAREA":" ","LANE":" ","ALLEY":" ","HOUSE_NO":"７０５號二樓之１","E_COORD97":164590.81,"N_COORD97":2544263.6200000001,"ADDRESS":"慶平路７０５號二樓之１","OBJECTID":535653},"geometry":{"x":164590.80999999959,"y":2544263.620000001}},{"attributes":{"ID":535681,"DIS_CODE":0,"TOWNNAME":"安平區","LI":"平通里","LIN":"19鄰","STREET":"慶平路","SECT":" ","MAREA":" ","LANE":" ","ALLEY":" ","HOUSE_NO":"７０５號二樓之１０","E_COORD97":164590.81,"N_COORD97":2544263.6200000001,"ADDRESS":"慶平路７０５號二樓之１０","OBJECTID":535654},"geometry":{"x":164590.80999999959,"y":2544263.620000001}},{"attributes":{"ID":535682,"DIS_CODE":0,"TOWNNAME":"安平區","LI":"平通里","LIN":"19鄰","STREET":"慶平路","SECT":" ","MAREA":" ","LANE":" ","ALLEY":" ","HOUSE_NO":"７０５號二樓之１１","E_COORD97":164590.81,"N_COORD97":2544263.6200000001,"ADDRESS":"慶平路７０５號二樓之１１","OBJECTID":535655},"geometry":{"x":164590.80999999959,"y":2544263.620000001}},{"attributes":{"ID":535683,"DIS_CODE":0,"TOWNNAME":"安平區","LI":"平通里","LIN":"19鄰","STREET":"慶平路","SECT":" ","MAREA":" ","LANE":" ","ALLEY":" ","HOUSE_NO":"７０５號二樓之１２","E_COORD97":164590.81,"N_COORD97":2544263.6200000001,"ADDRESS":"慶平路７０５號二樓之１２","OBJECTID":535656},"geometry":{"x":164590.80999999959,"y":2544263.620000001}},{"attributes":{"ID":535684,"DIS_CODE":0,"TOWNNAME":"南區","LI":"荔宅里","LIN":"10鄰","STREET":"西門路","SECT":"一段","MAREA":" ","LANE":" ","ALLEY":" ","HOUSE_NO":"１６１號","E_COORD97":167726.76999999999,"N_COORD97":2541628.25,"ADDRESS":"西門路一段１６１號","OBJECTID":535657},"geometry":{"x":167726.77000000048,"y":2541628.25}},{"attributes":{"ID":535685,"DIS_CODE":0,"TOWNNAME":"安平區","LI":"平通里","LIN":"19鄰","STREET":"慶平路","SECT":" ","MAREA":" ","LANE":" ","ALLEY":" ","HOUSE_NO":"７０５號二樓之１３","E_COORD97":164590.81,"N_COORD97":2544263.6200000001,"ADDRESS":"慶平路７０５號二樓之１３","OBJECTID":535658},"geometry":{"x":164590.80999999959,"y":2544263.620000001}},{"attributes":{"ID":535686,"DIS_CODE":0,"TOWNNAME":"安平區","LI":"平通里","LIN":"19鄰","STREET":"慶平路","SECT":" ","MAREA":" ","LANE":" ","ALLEY":" ","HOUSE_NO":"７０５號二樓之１４","E_COORD97":164590.81,"N_COORD97":2544263.6200000001,"ADDRESS":"慶平路７０５號二樓之１４","OBJECTID":535659},"geometry":{"x":164590.80999999959,"y":2544263.620000001}},{"attributes":{"ID":535687,"DIS_CODE":0,"TOWNNAME":"安平區","LI":"平通里","LIN":"19鄰","STREET":"慶平路","SECT":" ","MAREA":" ","LANE":" ","ALLEY":" ","HOUSE_NO":"７０５號二樓之１５","E_COORD97":164590.81,"N_COORD97":2544263.6200000001,"ADDRESS":"慶平路７０５號二樓之１５","OBJECTID":535660},"geometry":{"x":164590.80999999959,"y":2544263.620000001}},{"attributes":{"ID":535688,"DIS_CODE":0,"TOWNNAME":"安平區","LI":"平通里","LIN":"19鄰","STREET":"慶平路","SECT":" ","MAREA":" ","LANE":" ","ALLEY":" ","HOUSE_NO":"７０５號二樓之１６","E_COORD97":164590.81,"N_COORD97":2544263.6200000001,"ADDRESS":"慶平路７０５號二樓之１６","OBJECTID":535661},"geometry":{"x":164590.80999999959,"y":2544263.620000001}},{"attributes":{"ID":535689,"DIS_CODE":0,"TOWNNAME":"安平區","LI":"平通里","LIN":"19鄰","STREET":"慶平路","SECT":" ","MAREA":" ","LANE":" ","ALLEY":" ","HOUSE_NO":"７０５號二樓之１７","E_COORD97":164590.81,"N_COORD97":2544263.6200000001,"ADDRESS":"慶平路７０５號二樓之１７","OBJECTID":535662},"geometry":{"x":164590.80999999959,"y":2544263.620000001}},{"attributes":{"ID":535690,"DIS_CODE":0,"TOWNNAME":"安平區","LI":"平通里","LIN":"19鄰","STREET":"慶平路","SECT":" ","MAREA":" ","LANE":" ","ALLEY":" ","HOUSE_NO":"７０５號二樓之２","E_COORD97":164590.81,"N_COORD97":2544263.6200000001,"ADDRESS":"慶平路７０５號二樓之２","OBJECTID":535663},"geometry":{"x":164590.80999999959,"y":2544263.620000001}},{"attributes":{"ID":535691,"DIS_CODE":0,"TOWNNAME":"安平區","LI":"平通里","LIN":"19鄰","STREET":"慶平路","SECT":" ","MAREA":" ","LANE":" ","ALLEY":" ","HOUSE_NO":"７０５號二樓之３","E_COORD97":164590.81,"N_COORD97":2544263.6200000001,"ADDRESS":"慶平路７０５號二樓之３","OBJECTID":535664},"geometry":{"x":164590.80999999959,"y":2544263.620000001}},{"attributes":{"ID":535692,"DIS_CODE":0,"TOWNNAME":"安平區","LI":"平通里","LIN":"19鄰","STREET":"慶平路","SECT":" ","MAREA":" ","LANE":" ","ALLEY":" ","HOUSE_NO":"７０５號二樓之４","E_COORD97":164590.81,"N_COORD97":2544263.6200000001,"ADDRESS":"慶平路７０５號二樓之４","OBJECTID":535665},"geometry":{"x":164590.80999999959,"y":2544263.620000001}},{"attributes":{"ID":535693,"DIS_CODE":0,"TOWNNAME":"安平區","LI":"平通里","LIN":"19鄰","STREET":"慶平路","SECT":" ","MAREA":" ","LANE":" ","ALLEY":" ","HOUSE_NO":"７０５號二樓之５","E_COORD97":164590.81,"N_COORD97":2544263.6200000001,"ADDRESS":"慶平路７０５號二樓之５","OBJECTID":535666},"geometry":{"x":164590.80999999959,"y":2544263.620000001}},{"attributes":{"ID":535694,"DIS_CODE":0,"TOWNNAME":"安平區","LI":"平通里","LIN":"19鄰","STREET":"慶平路","SECT":" ","MAREA":" ","LANE":" ","ALLEY":" ","HOUSE_NO":"７０５號二樓之６","E_COORD97":164590.81,"N_COORD97":2544263.6200000001,"ADDRESS":"慶平路７０５號二樓之６","OBJECTID":535667},"geometry":{"x":164590.80999999959,"y":2544263.620000001}},{"attributes":{"ID":535695,"DIS_CODE":0,"TOWNNAME":"安平區","LI":"平通里","LIN":"19鄰","STREET":"慶平路","SECT":" ","MAREA":" ","LANE":" ","ALLEY":" ","HOUSE_NO":"７０５號二樓之７","E_COORD97":164590.81,"N_COORD97":2544263.6200000001,"ADDRESS":"慶平路７０５號二樓之７","OBJECTID":535668},"geometry":{"x":164590.80999999959,"y":2544263.620000001}},{"attributes":{"ID":535696,"DIS_CODE":0,"TOWNNAME":"安平區","LI":"平通里","LIN":"19鄰","STREET":"慶平路","SECT":" ","MAREA":" ","LANE":" ","ALLEY":" ","HOUSE_NO":"７０５號二樓之８","E_COORD97":164590.81,"N_COORD97":2544263.6200000001,"ADDRESS":"慶平路７０５號二樓之８","OBJECTID":535669},"geometry":{"x":164590.80999999959,"y":2544263.620000001}},{"attributes":{"ID":535697,"DIS_CODE":0,"TOWNNAME":"安平區","LI":"平通里","LIN":"19鄰","STREET":"慶平路","SECT":" ","MAREA":" ","LANE":" ","ALLEY":" ","HOUSE_NO":"７０５號二樓之９","E_COORD97":164590.81,"N_COORD97":2544263.6200000001,"ADDRESS":"慶平路７０５號二樓之９","OBJECTID":535670},"geometry":{"x":164590.80999999959,"y":2544263.620000001}},{"attributes":{"ID":535698,"DIS_CODE":0,"TOWNNAME":"安平區","LI":"平通里","LIN":"19鄰","STREET":"慶平路","SECT":" ","MAREA":" ","LANE":" ","ALLEY":" ","HOUSE_NO":"７０５號三樓之１","E_COORD97":164590.81,"N_COORD97":2544263.6200000001,"ADDRESS":"慶平路７０５號三樓之１","OBJECTID":535671},"geometry":{"x":164590.80999999959,"y":2544263.620000001}},{"attributes":{"ID":535699,"DIS_CODE":0,"TOWNNAME":"安平區","LI":"平通里","LIN":"19鄰","STREET":"慶平路","SECT":" ","MAREA":" ","LANE":" ","ALLEY":" ","HOUSE_NO":"７０５號三樓之１０","E_COORD97":164590.81,"N_COORD97":2544263.6200000001,"ADDRESS":"慶平路７０５號三樓之１０","OBJECTID":535672},"geometry":{"x":164590.80999999959,"y":2544263.620000001}},{"attributes":{"ID":535700,"DIS_CODE":0,"TOWNNAME":"安平區","LI":"平通里","LIN":"19鄰","STREET":"慶平路","SECT":" ","MAREA":" ","LANE":" ","ALLEY":" ","HOUSE_NO":"７０５號三樓之１１","E_COORD97":164590.81,"N_COORD97":2544263.6200000001,"ADDRESS":"慶平路７０５號三樓之１１","OBJECTID":535673},"geometry":{"x":164590.80999999959,"y":2544263.620000001}},{"attributes":{"ID":535701,"DIS_CODE":0,"TOWNNAME":"安平區","LI":"平通里","LIN":"19鄰","STREET":"慶平路","SECT":" ","MAREA":" ","LANE":" ","ALLEY":" ","HOUSE_NO":"７０５號三樓之１２","E_COORD97":164590.81,"N_COORD97":2544263.6200000001,"ADDRESS":"慶平路７０５號三樓之１２","OBJECTID":535674},"geometry":{"x":164590.80999999959,"y":2544263.620000001}},{"attributes":{"ID":535702,"DIS_CODE":0,"TOWNNAME":"安平區","LI":"平通里","LIN":"19鄰","STREET":"慶平路","SECT":" ","MAREA":" ","LANE":" ","ALLEY":" ","HOUSE_NO":"７０５號三樓之１３","E_COORD97":164590.81,"N_COORD97":2544263.6200000001,"ADDRESS":"慶平路７０５號三樓之１３","OBJECTID":535675},"geometry":{"x":164590.80999999959,"y":2544263.620000001}},{"attributes":{"ID":535703,"DIS_CODE":0,"TOWNNAME":"安平區","LI":"平通里","LIN":"19鄰","STREET":"慶平路","SECT":" ","MAREA":" ","LANE":" ","ALLEY":" ","HOUSE_NO":"７０５號三樓之１４","E_COORD97":164590.81,"N_COORD97":2544263.6200000001,"ADDRESS":"慶平路７０５號三樓之１４","OBJECTID":535676},"geometry":{"x":164590.80999999959,"y":2544263.620000001}},{"attributes":{"ID":535704,"DIS_CODE":0,"TOWNNAME":"安平區","LI":"平通里","LIN":"19鄰","STREET":"慶平路","SECT":" ","MAREA":" ","LANE":" ","ALLEY":" ","HOUSE_NO":"７０５號三樓之１５","E_COORD97":164590.81,"N_COORD97":2544263.6200000001,"ADDRESS":"慶平路７０５號三樓之１５","OBJECTID":535677},"geometry":{"x":164590.80999999959,"y":2544263.620000001}},{"attributes":{"ID":535705,"DIS_CODE":0,"TOWNNAME":"安平區","LI":"平通里","LIN":"19鄰","STREET":"慶平路","SECT":" ","MAREA":" ","LANE":" ","ALLEY":" ","HOUSE_NO":"７０５號三樓之１６","E_COORD97":164590.81,"N_COORD97":2544263.6200000001,"ADDRESS":"慶平路７０５號三樓之１６","OBJECTID":535678},"geometry":{"x":164590.80999999959,"y":2544263.620000001}},{"attributes":{"ID":535706,"DIS_CODE":0,"TOWNNAME":"安平區","LI":"平通里","LIN":"19鄰","STREET":"慶平路","SECT":" ","MAREA":" ","LANE":" ","ALLEY":" ","HOUSE_NO":"７０５號三樓之１７","E_COORD97":164590.81,"N_COORD97":2544263.6200000001,"ADDRESS":"慶平路７０５號三樓之１７","OBJECTID":535679},"geometry":{"x":164590.80999999959,"y":2544263.620000001}},{"attributes":{"ID":535707,"DIS_CODE":0,"TOWNNAME":"安平區","LI":"平通里","LIN":"19鄰","STREET":"慶平路","SECT":" ","MAREA":" ","LANE":" ","ALLEY":" ","HOUSE_NO":"７０５號三樓之２","E_COORD97":164590.81,"N_COORD97":2544263.6200000001,"ADDRESS":"慶平路７０５號三樓之２","OBJECTID":535680},"geometry":{"x":164590.80999999959,"y":2544263.620000001}},{"attributes":{"ID":535708,"DIS_CODE":0,"TOWNNAME":"安平區","LI":"平通里","LIN":"19鄰","STREET":"慶平路","SECT":" ","MAREA":" ","LANE":" ","ALLEY":" ","HOUSE_NO":"７０５號三樓之３","E_COORD97":164590.81,"N_COORD97":2544263.6200000001,"ADDRESS":"慶平路７０５號三樓之３","OBJECTID":535681},"geometry":{"x":164590.80999999959,"y":2544263.620000001}},{"attributes":{"ID":535709,"DIS_CODE":0,"TOWNNAME":"安平區","LI":"平通里","LIN":"19鄰","STREET":"慶平路","SECT":" ","MAREA":" ","LANE":" ","ALLEY":" ","HOUSE_NO":"７０５號三樓之４","E_COORD97":164590.81,"N_COORD97":2544263.6200000001,"ADDRESS":"慶平路７０５號三樓之４","OBJECTID":535682},"geometry":{"x":164590.80999999959,"y":2544263.620000001}},{"attributes":{"ID":535710,"DIS_CODE":0,"TOWNNAME":"安平區","LI":"平通里","LIN":"19鄰","STREET":"慶平路","SECT":" ","MAREA":" ","LANE":" ","ALLEY":" ","HOUSE_NO":"７０５號三樓之５","E_COORD97":164590.81,"N_COORD97":2544263.6200000001,"ADDRESS":"慶平路７０５號三樓之５","OBJECTID":535683},"geometry":{"x":164590.80999999959,"y":2544263.620000001}},{"attributes":{"ID":535711,"DIS_CODE":0,"TOWNNAME":"安平區","LI":"平通里","LIN":"19鄰","STREET":"慶平路","SECT":" ","MAREA":" ","LANE":" ","ALLEY":" ","HOUSE_NO":"７０５號三樓之６","E_COORD97":164590.81,"N_COORD97":2544263.6200000001,"ADDRESS":"慶平路７０５號三樓之６","OBJECTID":535684},"geometry":{"x":164590.80999999959,"y":2544263.620000001}},{"attributes":{"ID":535712,"DIS_CODE":0,"TOWNNAME":"安平區","LI":"平通里","LIN":"19鄰","STREET":"慶平路","SECT":" ","MAREA":" ","LANE":" ","ALLEY":" ","HOUSE_NO":"７０５號三樓之７","E_COORD97":164590.81,"N_COORD97":2544263.6200000001,"ADDRESS":"慶平路７０５號三樓之７","OBJECTID":535685},"geometry":{"x":164590.80999999959,"y":2544263.620000001}},{"attributes":{"ID":535713,"DIS_CODE":0,"TOWNNAME":"安平區","LI":"平通里","LIN":"19鄰","STREET":"慶平路","SECT":" ","MAREA":" ","LANE":" ","ALLEY":" ","HOUSE_NO":"７０５號三樓之８","E_COORD97":164590.81,"N_COORD97":2544263.6200000001,"ADDRESS":"慶平路７０５號三樓之８","OBJECTID":535686},"geometry":{"x":164590.80999999959,"y":2544263.620000001}},{"attributes":{"ID":535714,"DIS_CODE":0,"TOWNNAME":"安平區","LI":"平通里","LIN":"19鄰","STREET":"慶平路","SECT":" ","MAREA":" ","LANE":" ","ALLEY":" ","HOUSE_NO":"７０５號三樓之９","E_COORD97":164590.81,"N_COORD97":2544263.6200000001,"ADDRESS":"慶平路７０５號三樓之９","OBJECTID":535687},"geometry":{"x":164590.80999999959,"y":2544263.620000001}},{"attributes":{"ID":535715,"DIS_CODE":0,"TOWNNAME":"安平區","LI":"平通里","LIN":"19鄰","STREET":"慶平路","SECT":" ","MAREA":" ","LANE":" ","ALLEY":" ","HOUSE_NO":"７０５號五樓之１","E_COORD97":164590.81,"N_COORD97":2544263.6200000001,"ADDRESS":"慶平路７０５號五樓之１","OBJECTID":535688},"geometry":{"x":164590.80999999959,"y":2544263.620000001}},{"attributes":{"ID":535716,"DIS_CODE":0,"TOWNNAME":"安平區","LI":"平通里","LIN":"19鄰","STREET":"慶平路","SECT":" ","MAREA":" ","LANE":" ","ALLEY":" ","HOUSE_NO":"７０５號五樓之１０","E_COORD97":164590.81,"N_COORD97":2544263.6200000001,"ADDRESS":"慶平路７０５號五樓之１０","OBJECTID":535689},"geometry":{"x":164590.80999999959,"y":2544263.620000001}},{"attributes":{"ID":535717,"DIS_CODE":0,"TOWNNAME":"安平區","LI":"平通里","LIN":"19鄰","STREET":"慶平路","SECT":" ","MAREA":" ","LANE":" ","ALLEY":" ","HOUSE_NO":"７０５號五樓之１１","E_COORD97":164590.81,"N_COORD97":2544263.6200000001,"ADDRESS":"慶平路７０５號五樓之１１","OBJECTID":535690},"geometry":{"x":164590.80999999959,"y":2544263.620000001}},{"attributes":{"ID":535718,"DIS_CODE":0,"TOWNNAME":"安平區","LI":"平通里","LIN":"19鄰","STREET":"慶平路","SECT":" ","MAREA":" ","LANE":" ","ALLEY":" ","HOUSE_NO":"７０５號五樓之１２","E_COORD97":164590.81,"N_COORD97":2544263.6200000001,"ADDRESS":"慶平路７０５號五樓之１２","OBJECTID":535691},"geometry":{"x":164590.80999999959,"y":2544263.620000001}},{"attributes":{"ID":535719,"DIS_CODE":0,"TOWNNAME":"安平區","LI":"平通里","LIN":"19鄰","STREET":"慶平路","SECT":" ","MAREA":" ","LANE":" ","ALLEY":" ","HOUSE_NO":"７０５號五樓之１３","E_COORD97":164590.81,"N_COORD97":2544263.6200000001,"ADDRESS":"慶平路７０５號五樓之１３","OBJECTID":535692},"geometry":{"x":164590.80999999959,"y":2544263.620000001}},{"attributes":{"ID":535720,"DIS_CODE":0,"TOWNNAME":"安平區","LI":"平通里","LIN":"19鄰","STREET":"慶平路","SECT":" ","MAREA":" ","LANE":" ","ALLEY":" ","HOUSE_NO":"７０５號五樓之１４","E_COORD97":164590.81,"N_COORD97":2544263.6200000001,"ADDRESS":"慶平路７０５號五樓之１４","OBJECTID":535693},"geometry":{"x":164590.80999999959,"y":2544263.620000001}},{"attributes":{"ID":535721,"DIS_CODE":0,"TOWNNAME":"安平區","LI":"平通里","LIN":"19鄰","STREET":"慶平路","SECT":" ","MAREA":" ","LANE":" ","ALLEY":" ","HOUSE_NO":"７０５號五樓之１５","E_COORD97":164590.81,"N_COORD97":2544263.6200000001,"ADDRESS":"慶平路７０５號五樓之１５","OBJECTID":535694},"geometry":{"x":164590.80999999959,"y":2544263.620000001}},{"attributes":{"ID":535722,"DIS_CODE":0,"TOWNNAME":"安平區","LI":"平通里","LIN":"19鄰","STREET":"慶平路","SECT":" ","MAREA":" ","LANE":" ","ALLEY":" ","HOUSE_NO":"７０５號五樓之１６","E_COORD97":164590.81,"N_COORD97":2544263.6200000001,"ADDRESS":"慶平路７０５號五樓之１６","OBJECTID":535695},"geometry":{"x":164590.80999999959,"y":2544263.620000001}},{"attributes":{"ID":535723,"DIS_CODE":0,"TOWNNAME":"安平區","LI":"平通里","LIN":"19鄰","STREET":"慶平路","SECT":" ","MAREA":" ","LANE":" ","ALLEY":" ","HOUSE_NO":"７０５號五樓之１７","E_COORD97":164590.81,"N_COORD97":2544263.6200000001,"ADDRESS":"慶平路７０５號五樓之１７","OBJECTID":535696},"geometry":{"x":164590.80999999959,"y":2544263.620000001}},{"attributes":{"ID":535724,"DIS_CODE":0,"TOWNNAME":"安平區","LI":"平通里","LIN":"19鄰","STREET":"慶平路","SECT":" ","MAREA":" ","LANE":" ","ALLEY":" ","HOUSE_NO":"７０５號五樓之２","E_COORD97":164590.81,"N_COORD97":2544263.6200000001,"ADDRESS":"慶平路７０５號五樓之２","OBJECTID":535697},"geometry":{"x":164590.80999999959,"y":2544263.620000001}},{"attributes":{"ID":535725,"DIS_CODE":0,"TOWNNAME":"安平區","LI":"平通里","LIN":"19鄰","STREET":"慶平路","SECT":" ","MAREA":" ","LANE":" ","ALLEY":" ","HOUSE_NO":"７０５號五樓之３","E_COORD97":164590.81,"N_COORD97":2544263.6200000001,"ADDRESS":"慶平路７０５號五樓之３","OBJECTID":535698},"geometry":{"x":164590.80999999959,"y":2544263.620000001}},{"attributes":{"ID":535726,"DIS_CODE":0,"TOWNNAME":"安平區","LI":"平通里","LIN":"19鄰","STREET":"慶平路","SECT":" ","MAREA":" ","LANE":" ","ALLEY":" ","HOUSE_NO":"７０５號五樓之４","E_COORD97":164590.81,"N_COORD97":2544263.6200000001,"ADDRESS":"慶平路７０５號五樓之４","OBJECTID":535699},"geometry":{"x":164590.80999999959,"y":2544263.620000001}},{"attributes":{"ID":535727,"DIS_CODE":0,"TOWNNAME":"安平區","LI":"平通里","LIN":"19鄰","STREET":"慶平路","SECT":" ","MAREA":" ","LANE":" ","ALLEY":" ","HOUSE_NO":"７０５號五樓之５","E_COORD97":164590.81,"N_COORD97":2544263.6200000001,"ADDRESS":"慶平路７０５號五樓之５","OBJECTID":535700},"geometry":{"x":164590.80999999959,"y":2544263.620000001}},{"attributes":{"ID":535728,"DIS_CODE":0,"TOWNNAME":"安平區","LI":"平通里","LIN":"19鄰","STREET":"慶平路","SECT":" ","MAREA":" ","LANE":" ","ALLEY":" ","HOUSE_NO":"７０５號五樓之６","E_COORD97":164590.81,"N_COORD97":2544263.6200000001,"ADDRESS":"慶平路７０５號五樓之６","OBJECTID":535701},"geometry":{"x":164590.80999999959,"y":2544263.620000001}},{"attributes":{"ID":535729,"DIS_CODE":0,"TOWNNAME":"安平區","LI":"平通里","LIN":"19鄰","STREET":"慶平路","SECT":" ","MAREA":" ","LANE":" ","ALLEY":" ","HOUSE_NO":"７０５號五樓之７","E_COORD97":164590.81,"N_COORD97":2544263.6200000001,"ADDRESS":"慶平路７０５號五樓之７","OBJECTID":535702},"geometry":{"x":164590.80999999959,"y":2544263.620000001}},{"attributes":{"ID":535730,"DIS_CODE":0,"TOWNNAME":"安平區","LI":"平通里","LIN":"19鄰","STREET":"慶平路","SECT":" ","MAREA":" ","LANE":" ","ALLEY":" ","HOUSE_NO":"７０５號五樓之８","E_COORD97":164590.81,"N_COORD97":2544263.6200000001,"ADDRESS":"慶平路７０５號五樓之８","OBJECTID":535703},"geometry":{"x":164590.80999999959,"y":2544263.620000001}},{"attributes":{"ID":535731,"DIS_CODE":0,"TOWNNAME":"安平區","LI":"平通里","LIN":"19鄰","STREET":"慶平路","SECT":" ","MAREA":" ","LANE":" ","ALLEY":" ","HOUSE_NO":"７０５號五樓之９","E_COORD97":164590.81,"N_COORD97":2544263.6200000001,"ADDRESS":"慶平路７０５號五樓之９","OBJECTID":535704},"geometry":{"x":164590.80999999959,"y":2544263.620000001}},{"attributes":{"ID":535732,"DIS_CODE":0,"TOWNNAME":"安平區","LI":"平通里","LIN":"19鄰","STREET":"慶平路","SECT":" ","MAREA":" ","LANE":" ","ALLEY":" ","HOUSE_NO":"７０５號六樓之１","E_COORD97":164590.81,"N_COORD97":2544263.6200000001,"ADDRESS":"慶平路７０５號六樓之１","OBJECTID":535705},"geometry":{"x":164590.80999999959,"y":2544263.620000001}},{"attributes":{"ID":535733,"DIS_CODE":0,"TOWNNAME":"安平區","LI":"平通里","LIN":"19鄰","STREET":"慶平路","SECT":" ","MAREA":" ","LANE":" ","ALLEY":" ","HOUSE_NO":"７０５號六樓之１０","E_COORD97":164590.81,"N_COORD97":2544263.6200000001,"ADDRESS":"慶平路７０５號六樓之１０","OBJECTID":535706},"geometry":{"x":164590.80999999959,"y":2544263.620000001}},{"attributes":{"ID":535734,"DIS_CODE":0,"TOWNNAME":"安平區","LI":"平通里","LIN":"19鄰","STREET":"慶平路","SECT":" ","MAREA":" ","LANE":" ","ALLEY":" ","HOUSE_NO":"７０５號六樓之１１","E_COORD97":164590.81,"N_COORD97":2544263.6200000001,"ADDRESS":"慶平路７０５號六樓之１１","OBJECTID":535707},"geometry":{"x":164590.80999999959,"y":2544263.620000001}},{"attributes":{"ID":535735,"DIS_CODE":0,"TOWNNAME":"安平區","LI":"平通里","LIN":"19鄰","STREET":"慶平路","SECT":" ","MAREA":" ","LANE":" ","ALLEY":" ","HOUSE_NO":"７０５號六樓之１２","E_COORD97":164590.81,"N_COORD97":2544263.6200000001,"ADDRESS":"慶平路７０５號六樓之１２","OBJECTID":535708},"geometry":{"x":164590.80999999959,"y":2544263.620000001}},{"attributes":{"ID":535736,"DIS_CODE":0,"TOWNNAME":"安平區","LI":"平通里","LIN":"19鄰","STREET":"慶平路","SECT":" ","MAREA":" ","LANE":" ","ALLEY":" ","HOUSE_NO":"７０５號六樓之１３","E_COORD97":164590.81,"N_COORD97":2544263.6200000001,"ADDRESS":"慶平路７０５號六樓之１３","OBJECTID":535709},"geometry":{"x":164590.80999999959,"y":2544263.620000001}},{"attributes":{"ID":535737,"DIS_CODE":0,"TOWNNAME":"安平區","LI":"平通里","LIN":"19鄰","STREET":"慶平路","SECT":" ","MAREA":" ","LANE":" ","ALLEY":" ","HOUSE_NO":"７０５號六樓之１４","E_COORD97":164590.81,"N_COORD97":2544263.6200000001,"ADDRESS":"慶平路７０５號六樓之１４","OBJECTID":535710},"geometry":{"x":164590.80999999959,"y":2544263.620000001}},{"attributes":{"ID":535738,"DIS_CODE":0,"TOWNNAME":"安平區","LI":"平通里","LIN":"19鄰","STREET":"慶平路","SECT":" ","MAREA":" ","LANE":" ","ALLEY":" ","HOUSE_NO":"７０５號六樓之１５","E_COORD97":164590.81,"N_COORD97":2544263.6200000001,"ADDRESS":"慶平路７０５號六樓之１５","OBJECTID":535711},"geometry":{"x":164590.80999999959,"y":2544263.620000001}},{"attributes":{"ID":535739,"DIS_CODE":0,"TOWNNAME":"安平區","LI":"平通里","LIN":"19鄰","STREET":"慶平路","SECT":" ","MAREA":" ","LANE":" ","ALLEY":" ","HOUSE_NO":"７０５號六樓之１６","E_COORD97":164590.81,"N_COORD97":2544263.6200000001,"ADDRESS":"慶平路７０５號六樓之１６","OBJECTID":535712},"geometry":{"x":164590.80999999959,"y":2544263.620000001}},{"attributes":{"ID":535740,"DIS_CODE":0,"TOWNNAME":"安平區","LI":"平通里","LIN":"19鄰","STREET":"慶平路","SECT":" ","MAREA":" ","LANE":" ","ALLEY":" ","HOUSE_NO":"７０５號六樓之１７","E_COORD97":164590.81,"N_COORD97":2544263.6200000001,"ADDRESS":"慶平路７０５號六樓之１７","OBJECTID":535713},"geometry":{"x":164590.80999999959,"y":2544263.620000001}},{"attributes":{"ID":535741,"DIS_CODE":0,"TOWNNAME":"安平區","LI":"平通里","LIN":"19鄰","STREET":"慶平路","SECT":" ","MAREA":" ","LANE":" ","ALLEY":" ","HOUSE_NO":"７０５號六樓之２","E_COORD97":164590.81,"N_COORD97":2544263.6200000001,"ADDRESS":"慶平路７０５號六樓之２","OBJECTID":535714},"geometry":{"x":164590.80999999959,"y":2544263.620000001}},{"attributes":{"ID":535742,"DIS_CODE":0,"TOWNNAME":"安平區","LI":"平通里","LIN":"19鄰","STREET":"慶平路","SECT":" ","MAREA":" ","LANE":" ","ALLEY":" ","HOUSE_NO":"７０５號六樓之３","E_COORD97":164590.81,"N_COORD97":2544263.6200000001,"ADDRESS":"慶平路７０５號六樓之３","OBJECTID":535715},"geometry":{"x":164590.80999999959,"y":2544263.620000001}},{"attributes":{"ID":535743,"DIS_CODE":0,"TOWNNAME":"安平區","LI":"平通里","LIN":"19鄰","STREET":"慶平路","SECT":" ","MAREA":" ","LANE":" ","ALLEY":" ","HOUSE_NO":"７０５號六樓之４","E_COORD97":164590.81,"N_COORD97":2544263.6200000001,"ADDRESS":"慶平路７０５號六樓之４","OBJECTID":535716},"geometry":{"x":164590.80999999959,"y":2544263.620000001}},{"attributes":{"ID":535744,"DIS_CODE":0,"TOWNNAME":"安平區","LI":"平通里","LIN":"19鄰","STREET":"慶平路","SECT":" ","MAREA":" ","LANE":" ","ALLEY":" ","HOUSE_NO":"７０５號六樓之５","E_COORD97":164590.81,"N_COORD97":2544263.6200000001,"ADDRESS":"慶平路７０５號六樓之５","OBJECTID":535717},"geometry":{"x":164590.80999999959,"y":2544263.620000001}},{"attributes":{"ID":535745,"DIS_CODE":0,"TOWNNAME":"安平區","LI":"平通里","LIN":"19鄰","STREET":"慶平路","SECT":" ","MAREA":" ","LANE":" ","ALLEY":" ","HOUSE_NO":"７０５號六樓之６","E_COORD97":164590.81,"N_COORD97":2544263.6200000001,"ADDRESS":"慶平路７０５號六樓之６","OBJECTID":535718},"geometry":{"x":164590.80999999959,"y":2544263.620000001}},{"attributes":{"ID":535746,"DIS_CODE":0,"TOWNNAME":"安平區","LI":"平通里","LIN":"19鄰","STREET":"慶平路","SECT":" ","MAREA":" ","LANE":" ","ALLEY":" ","HOUSE_NO":"７０５號六樓之７","E_COORD97":164590.81,"N_COORD97":2544263.6200000001,"ADDRESS":"慶平路７０５號六樓之７","OBJECTID":535719},"geometry":{"x":164590.80999999959,"y":2544263.620000001}},{"attributes":{"ID":535747,"DIS_CODE":0,"TOWNNAME":"安平區","LI":"平通里","LIN":"19鄰","STREET":"慶平路","SECT":" ","MAREA":" ","LANE":" ","ALLEY":" ","HOUSE_NO":"７０５號六樓之８","E_COORD97":164590.81,"N_COORD97":2544263.6200000001,"ADDRESS":"慶平路７０５號六樓之８","OBJECTID":535720},"geometry":{"x":164590.80999999959,"y":2544263.620000001}},{"attributes":{"ID":535748,"DIS_CODE":0,"TOWNNAME":"安平區","LI":"平通里","LIN":"19鄰","STREET":"慶平路","SECT":" ","MAREA":" ","LANE":" ","ALLEY":" ","HOUSE_NO":"７０５號六樓之９","E_COORD97":164590.81,"N_COORD97":2544263.6200000001,"ADDRESS":"慶平路７０５號六樓之９","OBJECTID":535721},"geometry":{"x":164590.80999999959,"y":2544263.620000001}},{"attributes":{"ID":535749,"DIS_CODE":0,"TOWNNAME":"安平區","LI":"平通里","LIN":"19鄰","STREET":"慶平路","SECT":" ","MAREA":" ","LANE":" ","ALLEY":" ","HOUSE_NO":"７０５號四樓之１","E_COORD97":164590.81,"N_COORD97":2544263.6200000001,"ADDRESS":"慶平路７０５號四樓之１","OBJECTID":535722},"geometry":{"x":164590.80999999959,"y":2544263.620000001}},{"attributes":{"ID":535750,"DIS_CODE":0,"TOWNNAME":"安平區","LI":"平通里","LIN":"19鄰","STREET":"慶平路","SECT":" ","MAREA":" ","LANE":" ","ALLEY":" ","HOUSE_NO":"７０５號四樓之１０","E_COORD97":164590.81,"N_COORD97":2544263.6200000001,"ADDRESS":"慶平路７０５號四樓之１０","OBJECTID":535723},"geometry":{"x":164590.80999999959,"y":2544263.620000001}},{"attributes":{"ID":535751,"DIS_CODE":0,"TOWNNAME":"安平區","LI":"平通里","LIN":"19鄰","STREET":"慶平路","SECT":" ","MAREA":" ","LANE":" ","ALLEY":" ","HOUSE_NO":"７０５號四樓之１１","E_COORD97":164590.81,"N_COORD97":2544263.6200000001,"ADDRESS":"慶平路７０５號四樓之１１","OBJECTID":535724},"geometry":{"x":164590.80999999959,"y":2544263.620000001}},{"attributes":{"ID":535752,"DIS_CODE":0,"TOWNNAME":"安平區","LI":"平通里","LIN":"19鄰","STREET":"慶平路","SECT":" ","MAREA":" ","LANE":" ","ALLEY":" ","HOUSE_NO":"７０５號四樓之１２","E_COORD97":164590.81,"N_COORD97":2544263.6200000001,"ADDRESS":"慶平路７０５號四樓之１２","OBJECTID":535725},"geometry":{"x":164590.80999999959,"y":2544263.620000001}},{"attributes":{"ID":535753,"DIS_CODE":0,"TOWNNAME":"安平區","LI":"平通里","LIN":"19鄰","STREET":"慶平路","SECT":" ","MAREA":" ","LANE":" ","ALLEY":" ","HOUSE_NO":"７０５號四樓之１３","E_COORD97":164590.81,"N_COORD97":2544263.6200000001,"ADDRESS":"慶平路７０５號四樓之１３","OBJECTID":535726},"geometry":{"x":164590.80999999959,"y":2544263.620000001}},{"attributes":{"ID":535754,"DIS_CODE":0,"TOWNNAME":"安平區","LI":"平通里","LIN":"19鄰","STREET":"慶平路","SECT":" ","MAREA":" ","LANE":" ","ALLEY":" ","HOUSE_NO":"７０５號四樓之１５","E_COORD97":164590.81,"N_COORD97":2544263.6200000001,"ADDRESS":"慶平路７０５號四樓之１５","OBJECTID":535727},"geometry":{"x":164590.80999999959,"y":2544263.620000001}},{"attributes":{"ID":535755,"DIS_CODE":0,"TOWNNAME":"安平區","LI":"平通里","LIN":"19鄰","STREET":"慶平路","SECT":" ","MAREA":" ","LANE":" ","ALLEY":" ","HOUSE_NO":"７０５號四樓之１６","E_COORD97":164590.81,"N_COORD97":2544263.6200000001,"ADDRESS":"慶平路７０５號四樓之１６","OBJECTID":535728},"geometry":{"x":164590.80999999959,"y":2544263.620000001}},{"attributes":{"ID":535756,"DIS_CODE":0,"TOWNNAME":"安平區","LI":"平通里","LIN":"19鄰","STREET":"慶平路","SECT":" ","MAREA":" ","LANE":" ","ALLEY":" ","HOUSE_NO":"７０５號四樓之１７","E_COORD97":164590.81,"N_COORD97":2544263.6200000001,"ADDRESS":"慶平路７０５號四樓之１７","OBJECTID":535729},"geometry":{"x":164590.80999999959,"y":2544263.620000001}},{"attributes":{"ID":535757,"DIS_CODE":0,"TOWNNAME":"安平區","LI":"平通里","LIN":"19鄰","STREET":"慶平路","SECT":" ","MAREA":" ","LANE":" ","ALLEY":" ","HOUSE_NO":"７０５號四樓之２","E_COORD97":164590.81,"N_COORD97":2544263.6200000001,"ADDRESS":"慶平路７０５號四樓之２","OBJECTID":535730},"geometry":{"x":164590.80999999959,"y":2544263.620000001}},{"attributes":{"ID":535758,"DIS_CODE":0,"TOWNNAME":"安平區","LI":"平通里","LIN":"19鄰","STREET":"慶平路","SECT":" ","MAREA":" ","LANE":" ","ALLEY":" ","HOUSE_NO":"７０５號四樓之３","E_COORD97":164590.81,"N_COORD97":2544263.6200000001,"ADDRESS":"慶平路７０５號四樓之３","OBJECTID":535731},"geometry":{"x":164590.80999999959,"y":2544263.620000001}},{"attributes":{"ID":535759,"DIS_CODE":0,"TOWNNAME":"安平區","LI":"平通里","LIN":"19鄰","STREET":"慶平路","SECT":" ","MAREA":" ","LANE":" ","ALLEY":" ","HOUSE_NO":"７０５號四樓之５","E_COORD97":164590.81,"N_COORD97":2544263.6200000001,"ADDRESS":"慶平路７０５號四樓之５","OBJECTID":535732},"geometry":{"x":164590.80999999959,"y":2544263.620000001}},{"attributes":{"ID":535760,"DIS_CODE":0,"TOWNNAME":"安平區","LI":"平通里","LIN":"19鄰","STREET":"慶平路","SECT":" ","MAREA":" ","LANE":" ","ALLEY":" ","HOUSE_NO":"７０５號四樓之６","E_COORD97":164590.81,"N_COORD97":2544263.6200000001,"ADDRESS":"慶平路７０５號四樓之６","OBJECTID":535733},"geometry":{"x":164590.80999999959,"y":2544263.620000001}},{"attributes":{"ID":535761,"DIS_CODE":0,"TOWNNAME":"安平區","LI":"平通里","LIN":"19鄰","STREET":"慶平路","SECT":" ","MAREA":" ","LANE":" ","ALLEY":" ","HOUSE_NO":"７０５號四樓之７","E_COORD97":164590.81,"N_COORD97":2544263.6200000001,"ADDRESS":"慶平路７０５號四樓之７","OBJECTID":535734},"geometry":{"x":164590.80999999959,"y":2544263.620000001}},{"attributes":{"ID":535762,"DIS_CODE":0,"TOWNNAME":"安平區","LI":"平通里","LIN":"19鄰","STREET":"慶平路","SECT":" ","MAREA":" ","LANE":" ","ALLEY":" ","HOUSE_NO":"７０５號四樓之８","E_COORD97":164590.81,"N_COORD97":2544263.6200000001,"ADDRESS":"慶平路７０５號四樓之８","OBJECTID":535735},"geometry":{"x":164590.80999999959,"y":2544263.620000001}},{"attributes":{"ID":535763,"DIS_CODE":0,"TOWNNAME":"安平區","LI":"育平里","LIN":"19鄰","STREET":"郡平路","SECT":" ","MAREA":" ","LANE":" ","ALLEY":" ","HOUSE_NO":"１８８號九樓之３３","E_COORD97":164673.29000000001,"N_COORD97":2543361.6800000002,"ADDRESS":"郡平路１８８號九樓之３３","OBJECTID":535736},"geometry":{"x":164673.29000000004,"y":2543361.6800000034}},{"attributes":{"ID":535764,"DIS_CODE":0,"TOWNNAME":"安平區","LI":"育平里","LIN":"19鄰","STREET":"郡平路","SECT":" ","MAREA":" ","LANE":" ","ALLEY":" ","HOUSE_NO":"１８８號九樓之３４","E_COORD97":164673.29000000001,"N_COORD97":2543361.6800000002,"ADDRESS":"郡平路１８８號九樓之３４","OBJECTID":535737},"geometry":{"x":164673.29000000004,"y":2543361.6800000034}},{"attributes":{"ID":535765,"DIS_CODE":0,"TOWNNAME":"安平區","LI":"育平里","LIN":"19鄰","STREET":"郡平路","SECT":" ","MAREA":" ","LANE":" ","ALLEY":" ","HOUSE_NO":"１８８號九樓之３５","E_COORD97":164673.29000000001,"N_COORD97":2543361.6800000002,"ADDRESS":"郡平路１８８號九樓之３５","OBJECTID":535738},"geometry":{"x":164673.29000000004,"y":2543361.6800000034}},{"attributes":{"ID":535766,"DIS_CODE":0,"TOWNNAME":"安平區","LI":"育平里","LIN":"19鄰","STREET":"郡平路","SECT":" ","MAREA":" ","LANE":" ","ALLEY":" ","HOUSE_NO":"１８８號九樓之３６","E_COORD97":164673.29000000001,"N_COORD97":2543361.6800000002,"ADDRESS":"郡平路１８８號九樓之３６","OBJECTID":535739},"geometry":{"x":164673.29000000004,"y":2543361.6800000034}},{"attributes":{"ID":535767,"DIS_CODE":0,"TOWNNAME":"安平區","LI":"育平里","LIN":"19鄰","STREET":"郡平路","SECT":" ","MAREA":" ","LANE":" ","ALLEY":" ","HOUSE_NO":"１８８號八樓之２６","E_COORD97":164673.29000000001,"N_COORD97":2543361.6800000002,"ADDRESS":"郡平路１８８號八樓之２６","OBJECTID":535740},"geometry":{"x":164673.29000000004,"y":2543361.6800000034}},{"attributes":{"ID":535768,"DIS_CODE":0,"TOWNNAME":"安平區","LI":"育平里","LIN":"19鄰","STREET":"郡平路","SECT":" ","MAREA":" ","LANE":" ","ALLEY":" ","HOUSE_NO":"１８８號八樓之２７","E_COORD97":164673.29000000001,"N_COORD97":2543361.6800000002,"ADDRESS":"郡平路１８８號八樓之２７","OBJECTID":535741},"geometry":{"x":164673.29000000004,"y":2543361.6800000034}},{"attributes":{"ID":535769,"DIS_CODE":0,"TOWNNAME":"安平區","LI":"育平里","LIN":"19鄰","STREET":"郡平路","SECT":" ","MAREA":" ","LANE":" ","ALLEY":" ","HOUSE_NO":"１８８號八樓之２８","E_COORD97":164673.29000000001,"N_COORD97":2543361.6800000002,"ADDRESS":"郡平路１８８號八樓之２８","OBJECTID":535742},"geometry":{"x":164673.29000000004,"y":2543361.6800000034}},{"attributes":{"ID":535770,"DIS_CODE":0,"TOWNNAME":"安平區","LI":"育平里","LIN":"19鄰","STREET":"郡平路","SECT":" ","MAREA":" ","LANE":" ","ALLEY":" ","HOUSE_NO":"１８８號八樓之２９","E_COORD97":164673.29000000001,"N_COORD97":2543361.6800000002,"ADDRESS":"郡平路１８８號八樓之２９","OBJECTID":535743},"geometry":{"x":164673.29000000004,"y":2543361.6800000034}},{"attributes":{"ID":535771,"DIS_CODE":0,"TOWNNAME":"安平區","LI":"育平里","LIN":"19鄰","STREET":"郡平路","SECT":" ","MAREA":" ","LANE":" ","ALLEY":" ","HOUSE_NO":"１８８號八樓之３０","E_COORD97":164673.29000000001,"N_COORD97":2543361.6800000002,"ADDRESS":"郡平路１８８號八樓之３０","OBJECTID":535744},"geometry":{"x":164673.29000000004,"y":2543361.6800000034}},{"attributes":{"ID":535772,"DIS_CODE":0,"TOWNNAME":"安平區","LI":"育平里","LIN":"19鄰","STREET":"郡平路","SECT":" ","MAREA":" ","LANE":" ","ALLEY":" ","HOUSE_NO":"１８８號十一樓之２９","E_COORD97":164673.29000000001,"N_COORD97":2543361.6800000002,"ADDRESS":"郡平路１８８號十一樓之２９","OBJECTID":535745},"geometry":{"x":164673.29000000004,"y":2543361.6800000034}},{"attributes":{"ID":535773,"DIS_CODE":0,"TOWNNAME":"安平區","LI":"育平里","LIN":"19鄰","STREET":"郡平路","SECT":" ","MAREA":" ","LANE":" ","ALLEY":" ","HOUSE_NO":"１８８號十一樓之３０","E_COORD97":164673.29000000001,"N_COORD97":2543361.6800000002,"ADDRESS":"郡平路１８８號十一樓之３０","OBJECTID":535746},"geometry":{"x":164673.29000000004,"y":2543361.6800000034}},{"attributes":{"ID":535774,"DIS_CODE":0,"TOWNNAME":"安平區","LI":"育平里","LIN":"19鄰","STREET":"郡平路","SECT":" ","MAREA":" ","LANE":" ","ALLEY":" ","HOUSE_NO":"１８８號十一樓之３１","E_COORD97":164673.29000000001,"N_COORD97":2543361.6800000002,"ADDRESS":"郡平路１８８號十一樓之３１","OBJECTID":535747},"geometry":{"x":164673.29000000004,"y":2543361.6800000034}},{"attributes":{"ID":535775,"DIS_CODE":0,"TOWNNAME":"安平區","LI":"育平里","LIN":"19鄰","STREET":"郡平路","SECT":" ","MAREA":" ","LANE":" ","ALLEY":" ","HOUSE_NO":"１８８號十一樓之３２","E_COORD97":164673.29000000001,"N_COORD97":2543361.6800000002,"ADDRESS":"郡平路１８８號十一樓之３２","OBJECTID":535748},"geometry":{"x":164673.29000000004,"y":2543361.6800000034}},{"attributes":{"ID":535776,"DIS_CODE":0,"TOWNNAME":"安平區","LI":"育平里","LIN":"19鄰","STREET":"郡平路","SECT":" ","MAREA":" ","LANE":" ","ALLEY":" ","HOUSE_NO":"１８８號十一樓之３３","E_COORD97":164673.29000000001,"N_COORD97":2543361.6800000002,"ADDRESS":"郡平路１８８號十一樓之３３","OBJECTID":535749},"geometry":{"x":164673.29000000004,"y":2543361.6800000034}},{"attributes":{"ID":535777,"DIS_CODE":0,"TOWNNAME":"安平區","LI":"育平里","LIN":"19鄰","STREET":"郡平路","SECT":" ","MAREA":" ","LANE":" ","ALLEY":" ","HOUSE_NO":"１８８號十一樓之３４","E_COORD97":164673.29000000001,"N_COORD97":2543361.6800000002,"ADDRESS":"郡平路１８８號十一樓之３４","OBJECTID":535750},"geometry":{"x":164673.29000000004,"y":2543361.6800000034}},{"attributes":{"ID":535778,"DIS_CODE":0,"TOWNNAME":"安平區","LI":"育平里","LIN":"19鄰","STREET":"郡平路","SECT":" ","MAREA":" ","LANE":" ","ALLEY":" ","HOUSE_NO":"１８８號十一樓之３５","E_COORD97":164673.29000000001,"N_COORD97":2543361.6800000002,"ADDRESS":"郡平路１８８號十一樓之３５","OBJECTID":535751},"geometry":{"x":164673.29000000004,"y":2543361.6800000034}},{"attributes":{"ID":535779,"DIS_CODE":0,"TOWNNAME":"安平區","LI":"育平里","LIN":"19鄰","STREET":"郡平路","SECT":" ","MAREA":" ","LANE":" ","ALLEY":" ","HOUSE_NO":"１８８號十一樓之３６","E_COORD97":164673.29000000001,"N_COORD97":2543361.6800000002,"ADDRESS":"郡平路１８８號十一樓之３６","OBJECTID":535752},"geometry":{"x":164673.29000000004,"y":2543361.6800000034}},{"attributes":{"ID":535780,"DIS_CODE":0,"TOWNNAME":"安平區","LI":"育平里","LIN":"19鄰","STREET":"郡平路","SECT":" ","MAREA":" ","LANE":" ","ALLEY":" ","HOUSE_NO":"１８８號十七樓之２６","E_COORD97":164673.29000000001,"N_COORD97":2543361.6800000002,"ADDRESS":"郡平路１８８號十七樓之２６","OBJECTID":535753},"geometry":{"x":164673.29000000004,"y":2543361.6800000034}},{"attributes":{"ID":535781,"DIS_CODE":0,"TOWNNAME":"安平區","LI":"育平里","LIN":"19鄰","STREET":"郡平路","SECT":" ","MAREA":" ","LANE":" ","ALLEY":" ","HOUSE_NO":"１８８號十七樓之２７","E_COORD97":164673.29000000001,"N_COORD97":2543361.6800000002,"ADDRESS":"郡平路１８８號十七樓之２７","OBJECTID":535754},"geometry":{"x":164673.29000000004,"y":2543361.6800000034}},{"attributes":{"ID":535782,"DIS_CODE":0,"TOWNNAME":"安平區","LI":"育平里","LIN":"19鄰","STREET":"郡平路","SECT":" ","MAREA":" ","LANE":" ","ALLEY":" ","HOUSE_NO":"１８８號十七樓之２８","E_COORD97":164673.29000000001,"N_COORD97":2543361.6800000002,"ADDRESS":"郡平路１８８號十七樓之２８","OBJECTID":535755},"geometry":{"x":164673.29000000004,"y":2543361.6800000034}},{"attributes":{"ID":535783,"DIS_CODE":0,"TOWNNAME":"安平區","LI":"育平里","LIN":"19鄰","STREET":"郡平路","SECT":" ","MAREA":" ","LANE":" ","ALLEY":" ","HOUSE_NO":"１８８號十二樓之２９","E_COORD97":164673.29000000001,"N_COORD97":2543361.6800000002,"ADDRESS":"郡平路１８８號十二樓之２９","OBJECTID":535756},"geometry":{"x":164673.29000000004,"y":2543361.6800000034}},{"attributes":{"ID":535784,"DIS_CODE":0,"TOWNNAME":"安平區","LI":"育平里","LIN":"19鄰","STREET":"郡平路","SECT":" ","MAREA":" ","LANE":" ","ALLEY":" ","HOUSE_NO":"１８８號十二樓之３０","E_COORD97":164673.29000000001,"N_COORD97":2543361.6800000002,"ADDRESS":"郡平路１８８號十二樓之３０","OBJECTID":535757},"geometry":{"x":164673.29000000004,"y":2543361.6800000034}},{"attributes":{"ID":535785,"DIS_CODE":0,"TOWNNAME":"安平區","LI":"育平里","LIN":"19鄰","STREET":"郡平路","SECT":" ","MAREA":" ","LANE":" ","ALLEY":" ","HOUSE_NO":"１８８號十三樓之２９","E_COORD97":164673.29000000001,"N_COORD97":2543361.6800000002,"ADDRESS":"郡平路１８８號十三樓之２９","OBJECTID":535758},"geometry":{"x":164673.29000000004,"y":2543361.6800000034}},{"attributes":{"ID":535786,"DIS_CODE":0,"TOWNNAME":"安平區","LI":"育平里","LIN":"19鄰","STREET":"郡平路","SECT":" ","MAREA":" ","LANE":" ","ALLEY":" ","HOUSE_NO":"１８８號十三樓之３０","E_COORD97":164673.29000000001,"N_COORD97":2543361.6800000002,"ADDRESS":"郡平路１８８號十三樓之３０","OBJECTID":535759},"geometry":{"x":164673.29000000004,"y":2543361.6800000034}},{"attributes":{"ID":535787,"DIS_CODE":0,"TOWNNAME":"安平區","LI":"育平里","LIN":"19鄰","STREET":"郡平路","SECT":" ","MAREA":" ","LANE":" ","ALLEY":" ","HOUSE_NO":"１８８號十三樓之３１","E_COORD97":164673.29000000001,"N_COORD97":2543361.6800000002,"ADDRESS":"郡平路１８８號十三樓之３１","OBJECTID":535760},"geometry":{"x":164673.29000000004,"y":2543361.6800000034}},{"attributes":{"ID":535788,"DIS_CODE":0,"TOWNNAME":"安平區","LI":"育平里","LIN":"19鄰","STREET":"郡平路","SECT":" ","MAREA":" ","LANE":" ","ALLEY":" ","HOUSE_NO":"１８８號十三樓之３２","E_COORD97":164673.29000000001,"N_COORD97":2543361.6800000002,"ADDRESS":"郡平路１８８號十三樓之３２","OBJECTID":535761},"geometry":{"x":164673.29000000004,"y":2543361.6800000034}},{"attributes":{"ID":535789,"DIS_CODE":0,"TOWNNAME":"安平區","LI":"育平里","LIN":"19鄰","STREET":"郡平路","SECT":" ","MAREA":" ","LANE":" ","ALLEY":" ","HOUSE_NO":"１８８號十三樓之３３","E_COORD97":164673.29000000001,"N_COORD97":2543361.6800000002,"ADDRESS":"郡平路１８８號十三樓之３３","OBJECTID":535762},"geometry":{"x":164673.29000000004,"y":2543361.6800000034}},{"attributes":{"ID":535790,"DIS_CODE":0,"TOWNNAME":"安平區","LI":"育平里","LIN":"19鄰","STREET":"郡平路","SECT":" ","MAREA":" ","LANE":" ","ALLEY":" ","HOUSE_NO":"１８８號十三樓之３４","E_COORD97":164673.29000000001,"N_COORD97":2543361.6800000002,"ADDRESS":"郡平路１８８號十三樓之３４","OBJECTID":535763},"geometry":{"x":164673.29000000004,"y":2543361.6800000034}},{"attributes":{"ID":535791,"DIS_CODE":0,"TOWNNAME":"安平區","LI":"育平里","LIN":"19鄰","STREET":"郡平路","SECT":" ","MAREA":" ","LANE":" ","ALLEY":" ","HOUSE_NO":"１８８號十三樓之３５","E_COORD97":164673.29000000001,"N_COORD97":2543361.6800000002,"ADDRESS":"郡平路１８８號十三樓之３５","OBJECTID":535764},"geometry":{"x":164673.29000000004,"y":2543361.6800000034}},{"attributes":{"ID":535792,"DIS_CODE":0,"TOWNNAME":"安平區","LI":"育平里","LIN":"19鄰","STREET":"郡平路","SECT":" ","MAREA":" ","LANE":" ","ALLEY":" ","HOUSE_NO":"１８８號十三樓之３６","E_COORD97":164673.29000000001,"N_COORD97":2543361.6800000002,"ADDRESS":"郡平路１８８號十三樓之３６","OBJECTID":535765},"geometry":{"x":164673.29000000004,"y":2543361.6800000034}},{"attributes":{"ID":535793,"DIS_CODE":0,"TOWNNAME":"安平區","LI":"育平里","LIN":"19鄰","STREET":"郡平路","SECT":" ","MAREA":" ","LANE":" ","ALLEY":" ","HOUSE_NO":"１８８號十五樓之２９","E_COORD97":164673.29000000001,"N_COORD97":2543361.6800000002,"ADDRESS":"郡平路１８８號十五樓之２９","OBJECTID":535766},"geometry":{"x":164673.29000000004,"y":2543361.6800000034}},{"attributes":{"ID":535794,"DIS_CODE":0,"TOWNNAME":"安平區","LI":"育平里","LIN":"19鄰","STREET":"郡平路","SECT":" ","MAREA":" ","LANE":" ","ALLEY":" ","HOUSE_NO":"１８８號十五樓之３０","E_COORD97":164673.29000000001,"N_COORD97":2543361.6800000002,"ADDRESS":"郡平路１８８號十五樓之３０","OBJECTID":535767},"geometry":{"x":164673.29000000004,"y":2543361.6800000034}},{"attributes":{"ID":535795,"DIS_CODE":0,"TOWNNAME":"安平區","LI":"育平里","LIN":"19鄰","STREET":"郡平路","SECT":" ","MAREA":" ","LANE":" ","ALLEY":" ","HOUSE_NO":"１８８號十五樓之３１","E_COORD97":164673.29000000001,"N_COORD97":2543361.6800000002,"ADDRESS":"郡平路１８８號十五樓之３１","OBJECTID":535768},"geometry":{"x":164673.29000000004,"y":2543361.6800000034}},{"attributes":{"ID":535796,"DIS_CODE":0,"TOWNNAME":"安平區","LI":"育平里","LIN":"19鄰","STREET":"郡平路","SECT":" ","MAREA":" ","LANE":" ","ALLEY":" ","HOUSE_NO":"１８８號十五樓之３２","E_COORD97":164673.29000000001,"N_COORD97":2543361.6800000002,"ADDRESS":"郡平路１８８號十五樓之３２","OBJECTID":535769},"geometry":{"x":164673.29000000004,"y":2543361.6800000034}},{"attributes":{"ID":535797,"DIS_CODE":0,"TOWNNAME":"安平區","LI":"育平里","LIN":"19鄰","STREET":"郡平路","SECT":" ","MAREA":" ","LANE":" ","ALLEY":" ","HOUSE_NO":"１８８號十五樓之３３","E_COORD97":164673.29000000001,"N_COORD97":2543361.6800000002,"ADDRESS":"郡平路１８８號十五樓之３３","OBJECTID":535770},"geometry":{"x":164673.29000000004,"y":2543361.6800000034}},{"attributes":{"ID":535798,"DIS_CODE":0,"TOWNNAME":"安平區","LI":"育平里","LIN":"19鄰","STREET":"郡平路","SECT":" ","MAREA":" ","LANE":" ","ALLEY":" ","HOUSE_NO":"１８８號十五樓之３４","E_COORD97":164673.29000000001,"N_COORD97":2543361.6800000002,"ADDRESS":"郡平路１８８號十五樓之３４","OBJECTID":535771},"geometry":{"x":164673.29000000004,"y":2543361.6800000034}},{"attributes":{"ID":535799,"DIS_CODE":0,"TOWNNAME":"安平區","LI":"育平里","LIN":"19鄰","STREET":"郡平路","SECT":" ","MAREA":" ","LANE":" ","ALLEY":" ","HOUSE_NO":"１８８號十五樓之３５","E_COORD97":164673.29000000001,"N_COORD97":2543361.6800000002,"ADDRESS":"郡平路１８８號十五樓之３５","OBJECTID":535772},"geometry":{"x":164673.29000000004,"y":2543361.6800000034}},{"attributes":{"ID":535800,"DIS_CODE":0,"TOWNNAME":"安平區","LI":"育平里","LIN":"19鄰","STREET":"郡平路","SECT":" ","MAREA":" ","LANE":" ","ALLEY":" ","HOUSE_NO":"１８８號十五樓之３６","E_COORD97":164673.29000000001,"N_COORD97":2543361.6800000002,"ADDRESS":"郡平路１８８號十五樓之３６","OBJECTID":535773},"geometry":{"x":164673.29000000004,"y":2543361.6800000034}},{"attributes":{"ID":535801,"DIS_CODE":0,"TOWNNAME":"安平區","LI":"育平里","LIN":"19鄰","STREET":"郡平路","SECT":" ","MAREA":" ","LANE":" ","ALLEY":" ","HOUSE_NO":"１８８號十六樓之２６","E_COORD97":164673.29000000001,"N_COORD97":2543361.6800000002,"ADDRESS":"郡平路１８８號十六樓之２６","OBJECTID":535774},"geometry":{"x":164673.29000000004,"y":2543361.6800000034}},{"attributes":{"ID":535802,"DIS_CODE":0,"TOWNNAME":"安平區","LI":"育平里","LIN":"19鄰","STREET":"郡平路","SECT":" ","MAREA":" ","LANE":" ","ALLEY":" ","HOUSE_NO":"１８８號十六樓之２７","E_COORD97":164673.29000000001,"N_COORD97":2543361.6800000002,"ADDRESS":"郡平路１８８號十六樓之２７","OBJECTID":535775},"geometry":{"x":164673.29000000004,"y":2543361.6800000034}},{"attributes":{"ID":535803,"DIS_CODE":0,"TOWNNAME":"安平區","LI":"育平里","LIN":"19鄰","STREET":"郡平路","SECT":" ","MAREA":" ","LANE":" ","ALLEY":" ","HOUSE_NO":"１８８號十六樓之２８","E_COORD97":164673.29000000001,"N_COORD97":2543361.6800000002,"ADDRESS":"郡平路１８８號十六樓之２８","OBJECTID":535776},"geometry":{"x":164673.29000000004,"y":2543361.6800000034}},{"attributes":{"ID":535804,"DIS_CODE":0,"TOWNNAME":"安平區","LI":"育平里","LIN":"19鄰","STREET":"郡平路","SECT":" ","MAREA":" ","LANE":" ","ALLEY":" ","HOUSE_NO":"１８８號十六樓之２９","E_COORD97":164673.29000000001,"N_COORD97":2543361.6800000002,"ADDRESS":"郡平路１８８號十六樓之２９","OBJECTID":535777},"geometry":{"x":164673.29000000004,"y":2543361.6800000034}},{"attributes":{"ID":535805,"DIS_CODE":0,"TOWNNAME":"安平區","LI":"育平里","LIN":"19鄰","STREET":"郡平路","SECT":" ","MAREA":" ","LANE":" ","ALLEY":" ","HOUSE_NO":"１８８號十六樓之３０","E_COORD97":164673.29000000001,"N_COORD97":2543361.6800000002,"ADDRESS":"郡平路１８８號十六樓之３０","OBJECTID":535778},"geometry":{"x":164673.29000000004,"y":2543361.6800000034}},{"attributes":{"ID":535806,"DIS_CODE":0,"TOWNNAME":"安平區","LI":"育平里","LIN":"19鄰","STREET":"郡平路","SECT":" ","MAREA":" ","LANE":" ","ALLEY":" ","HOUSE_NO":"１８８號十四樓之２６","E_COORD97":164673.29000000001,"N_COORD97":2543361.6800000002,"ADDRESS":"郡平路１８８號十四樓之２６","OBJECTID":535779},"geometry":{"x":164673.29000000004,"y":2543361.6800000034}},{"attributes":{"ID":535807,"DIS_CODE":0,"TOWNNAME":"安平區","LI":"育平里","LIN":"19鄰","STREET":"郡平路","SECT":" ","MAREA":" ","LANE":" ","ALLEY":" ","HOUSE_NO":"１８８號十四樓之２７","E_COORD97":164673.29000000001,"N_COORD97":2543361.6800000002,"ADDRESS":"郡平路１８８號十四樓之２７","OBJECTID":535780},"geometry":{"x":164673.29000000004,"y":2543361.6800000034}},{"attributes":{"ID":535808,"DIS_CODE":0,"TOWNNAME":"安平區","LI":"育平里","LIN":"19鄰","STREET":"郡平路","SECT":" ","MAREA":" ","LANE":" ","ALLEY":" ","HOUSE_NO":"１８８號十四樓之２８","E_COORD97":164673.29000000001,"N_COORD97":2543361.6800000002,"ADDRESS":"郡平路１８８號十四樓之２８","OBJECTID":535781},"geometry":{"x":164673.29000000004,"y":2543361.6800000034}},{"attributes":{"ID":535809,"DIS_CODE":0,"TOWNNAME":"東區","LI":"成大里","LIN":" ","STREET":"育樂街","SECT":" ","MAREA":" ","LANE":" ","ALLEY":" ","HOUSE_NO":"７１號","E_COORD97":169636.22,"N_COORD97":2544005.5800000001,"ADDRESS":"育樂街７１號","OBJECTID":535782},"geometry":{"x":169636.22000000067,"y":2544005.5800000001}},{"attributes":{"ID":535810,"DIS_CODE":0,"TOWNNAME":"東區","LI":"成大里","LIN":" ","STREET":"前鋒路","SECT":" ","MAREA":" ","LANE":" ","ALLEY":" ","HOUSE_NO":"１４４號","E_COORD97":169359.48000000001,"N_COORD97":2543942.29,"ADDRESS":"前鋒路１４４號","OBJECTID":535783},"geometry":{"x":169359.48000000045,"y":2543942.2899999991}},{"attributes":{"ID":535811,"DIS_CODE":0,"TOWNNAME":"東區","LI":"和平里","LIN":"1鄰","STREET":"仁和路","SECT":" ","MAREA":" ","LANE":" ","ALLEY":" ","HOUSE_NO":"３號","E_COORD97":171020.5,"N_COORD97":2542347.1099999999,"ADDRESS":"仁和路３號","OBJECTID":535784},"geometry":{"x":171020.50000000186,"y":2542347.1099999994}},{"attributes":{"ID":535812,"DIS_CODE":0,"TOWNNAME":"安平區","LI":"育平里","LIN":"19鄰","STREET":"郡平路","SECT":" ","MAREA":" ","LANE":" ","ALLEY":" ","HOUSE_NO":"１８８號十四樓之２９","E_COORD97":164673.29000000001,"N_COORD97":2543361.6800000002,"ADDRESS":"郡平路１８８號十四樓之２９","OBJECTID":535785},"geometry":{"x":164673.29000000004,"y":2543361.6800000034}},{"attributes":{"ID":535813,"DIS_CODE":0,"TOWNNAME":"安平區","LI":"育平里","LIN":"19鄰","STREET":"郡平路","SECT":" ","MAREA":" ","LANE":" ","ALLEY":" ","HOUSE_NO":"１８８號十四樓之３０","E_COORD97":164673.29000000001,"N_COORD97":2543361.6800000002,"ADDRESS":"郡平路１８８號十四樓之３０","OBJECTID":535786},"geometry":{"x":164673.29000000004,"y":2543361.6800000034}},{"attributes":{"ID":535814,"DIS_CODE":0,"TOWNNAME":"安平區","LI":"育平里","LIN":"19鄰","STREET":"郡平路","SECT":" ","MAREA":" ","LANE":" ","ALLEY":" ","HOUSE_NO":"１８８號十樓之２６","E_COORD97":164673.29000000001,"N_COORD97":2543361.6800000002,"ADDRESS":"郡平路１８８號十樓之２６","OBJECTID":535787},"geometry":{"x":164673.29000000004,"y":2543361.6800000034}},{"attributes":{"ID":535815,"DIS_CODE":0,"TOWNNAME":"安平區","LI":"育平里","LIN":"19鄰","STREET":"郡平路","SECT":" ","MAREA":" ","LANE":" ","ALLEY":" ","HOUSE_NO":"１８８號十樓之２７","E_COORD97":164673.29000000001,"N_COORD97":2543361.6800000002,"ADDRESS":"郡平路１８８號十樓之２７","OBJECTID":535788},"geometry":{"x":164673.29000000004,"y":2543361.6800000034}},{"attributes":{"ID":535816,"DIS_CODE":0,"TOWNNAME":"安平區","LI":"育平里","LIN":"19鄰","STREET":"郡平路","SECT":" ","MAREA":" ","LANE":" ","ALLEY":" ","HOUSE_NO":"１８８號十樓之２８","E_COORD97":164673.29000000001,"N_COORD97":2543361.6800000002,"ADDRESS":"郡平路１８８號十樓之２８","OBJECTID":535789},"geometry":{"x":164673.29000000004,"y":2543361.6800000034}},{"attributes":{"ID":535817,"DIS_CODE":0,"TOWNNAME":"安平區","LI":"育平里","LIN":"19鄰","STREET":"郡平路","SECT":" ","MAREA":" ","LANE":" ","ALLEY":" ","HOUSE_NO":"１８８號十樓之２９","E_COORD97":164673.29000000001,"N_COORD97":2543361.6800000002,"ADDRESS":"郡平路１８８號十樓之２９","OBJECTID":535790},"geometry":{"x":164673.29000000004,"y":2543361.6800000034}},{"attributes":{"ID":535818,"DIS_CODE":0,"TOWNNAME":"安平區","LI":"育平里","LIN":"19鄰","STREET":"郡平路","SECT":" ","MAREA":" ","LANE":" ","ALLEY":" ","HOUSE_NO":"１８８號十樓之３０","E_COORD97":164673.29000000001,"N_COORD97":2543361.6800000002,"ADDRESS":"郡平路１８８號十樓之３０","OBJECTID":535791},"geometry":{"x":164673.29000000004,"y":2543361.6800000034}},{"attributes":{"ID":535819,"DIS_CODE":0,"TOWNNAME":"安平區","LI":"育平里","LIN":"19鄰","STREET":"郡平路","SECT":" ","MAREA":" ","LANE":" ","ALLEY":" ","HOUSE_NO":"１８８號三樓之１１","E_COORD97":164673.29000000001,"N_COORD97":2543361.6800000002,"ADDRESS":"郡平路１８８號三樓之１１","OBJECTID":535792},"geometry":{"x":164673.29000000004,"y":2543361.6800000034}},{"attributes":{"ID":535820,"DIS_CODE":0,"TOWNNAME":"安平區","LI":"育平里","LIN":"19鄰","STREET":"郡平路","SECT":" ","MAREA":" ","LANE":" ","ALLEY":" ","HOUSE_NO":"１８８號三樓之１２","E_COORD97":164673.29000000001,"N_COORD97":2543361.6800000002,"ADDRESS":"郡平路１８８號三樓之１２","OBJECTID":535793},"geometry":{"x":164673.29000000004,"y":2543361.6800000034}},{"attributes":{"ID":535821,"DIS_CODE":0,"TOWNNAME":"安平區","LI":"育平里","LIN":"19鄰","STREET":"郡平路","SECT":" ","MAREA":" ","LANE":" ","ALLEY":" ","HOUSE_NO":"１８８號五樓之２９","E_COORD97":164673.29000000001,"N_COORD97":2543361.6800000002,"ADDRESS":"郡平路１８８號五樓之２９","OBJECTID":535794},"geometry":{"x":164673.29000000004,"y":2543361.6800000034}},{"attributes":{"ID":535822,"DIS_CODE":0,"TOWNNAME":"安平區","LI":"育平里","LIN":"19鄰","STREET":"郡平路","SECT":" ","MAREA":" ","LANE":" ","ALLEY":" ","HOUSE_NO":"１８８號五樓之３０","E_COORD97":164673.29000000001,"N_COORD97":2543361.6800000002,"ADDRESS":"郡平路１８８號五樓之３０","OBJECTID":535795},"geometry":{"x":164673.29000000004,"y":2543361.6800000034}},{"attributes":{"ID":535823,"DIS_CODE":0,"TOWNNAME":"安平區","LI":"育平里","LIN":"19鄰","STREET":"郡平路","SECT":" ","MAREA":" ","LANE":" ","ALLEY":" ","HOUSE_NO":"１８８號五樓之３１","E_COORD97":164673.29000000001,"N_COORD97":2543361.6800000002,"ADDRESS":"郡平路１８８號五樓之３１","OBJECTID":535796},"geometry":{"x":164673.29000000004,"y":2543361.6800000034}},{"attributes":{"ID":535824,"DIS_CODE":0,"TOWNNAME":"安平區","LI":"育平里","LIN":"19鄰","STREET":"郡平路","SECT":" ","MAREA":" ","LANE":" ","ALLEY":" ","HOUSE_NO":"１８８號五樓之３２","E_COORD97":164673.29000000001,"N_COORD97":2543361.6800000002,"ADDRESS":"郡平路１８８號五樓之３２","OBJECTID":535797},"geometry":{"x":164673.29000000004,"y":2543361.6800000034}},{"attributes":{"ID":535825,"DIS_CODE":0,"TOWNNAME":"安平區","LI":"育平里","LIN":"19鄰","STREET":"郡平路","SECT":" ","MAREA":" ","LANE":" ","ALLEY":" ","HOUSE_NO":"１８８號五樓之３３","E_COORD97":164673.29000000001,"N_COORD97":2543361.6800000002,"ADDRESS":"郡平路１８８號五樓之３３","OBJECTID":535798},"geometry":{"x":164673.29000000004,"y":2543361.6800000034}},{"attributes":{"ID":535826,"DIS_CODE":0,"TOWNNAME":"安平區","LI":"育平里","LIN":"19鄰","STREET":"郡平路","SECT":" ","MAREA":" ","LANE":" ","ALLEY":" ","HOUSE_NO":"１８８號五樓之３４","E_COORD97":164673.29000000001,"N_COORD97":2543361.6800000002,"ADDRESS":"郡平路１８８號五樓之３４","OBJECTID":535799},"geometry":{"x":164673.29000000004,"y":2543361.6800000034}},{"attributes":{"ID":535827,"DIS_CODE":0,"TOWNNAME":"安平區","LI":"育平里","LIN":"19鄰","STREET":"郡平路","SECT":" ","MAREA":" ","LANE":" ","ALLEY":" ","HOUSE_NO":"１８８號五樓之３５","E_COORD97":164673.29000000001,"N_COORD97":2543361.6800000002,"ADDRESS":"郡平路１８８號五樓之３５","OBJECTID":535800},"geometry":{"x":164673.29000000004,"y":2543361.6800000034}}]}