{"displayFieldName":"TOWNNAME","fieldAliases":{"ID":"ID","DIS_CODE":"DIS_CODE","TOWNNAME":"TOWNNAME","LI":"LI","LIN":"LIN","STREET":"STREET","SECT":"SECT","MAREA":"MAREA","LANE":"LANE","ALLEY":"ALLEY","HOUSE_NO":"HOUSE_NO","E_COORD97":"E_COORD97","N_COORD97":"N_COORD97","ADDRESS":"ADDRESS","OBJECTID":"OBJECTID"},"geometryType":"esriGeometryPoint","spatialReference":{"wkid":102443,"latestWkid":3826},"fields":[{"name":"ID","type":"esriFieldTypeDouble","alias":"ID"},{"name":"DIS_CODE","type":"esriFieldTypeInteger","alias":"DIS_CODE"},{"name":"TOWNNAME","type":"esriFieldTypeString","alias":"TOWNNAME","length":8},{"name":"LI","type":"esriFieldTypeString","alias":"LI","length":8},{"name":"LIN","type":"esriFieldTypeString","alias":"LIN","length":12},{"name":"STREET","type":"esriFieldTypeString","alias":"STREET","length":20},{"name":"SECT","type":"esriFieldTypeString","alias":"SECT","length":8},{"name":"MAREA","type":"esriFieldTypeString","alias":"MAREA","length":12},{"name":"LANE","type":"esriFieldTypeString","alias":"LANE","length":10},{"name":"ALLEY","type":"esriFieldTypeString","alias":"ALLEY","length":10},{"name":"HOUSE_NO","type":"esriFieldTypeString","alias":"HOUSE_NO","length":20},{"name":"E_COORD97","type":"esriFieldTypeDouble","alias":"E_COORD97"},{"name":"N_COORD97","type":"esriFieldTypeDouble","alias":"N_COORD97"},{"name":"ADDRESS","type":"esriFieldTypeString","alias":"ADDRESS","length":50},{"name":"OBJECTID","type":"esriFieldTypeOID","alias":"OBJECTID"}],"features":[{"attributes":{"ID":452626,"DIS_CODE":0,"TOWNNAME":"北區","LI":"大豐里","LIN":"20鄰","STREET":"大興街","SECT":" ","MAREA":" ","LANE":"２３３巷","ALLEY":" ","HOUSE_NO":"５６號四樓之１","E_COORD97":166846.79999999999,"N_COORD97":2545498.4500000002,"ADDRESS":"大興街２３３巷５６號四樓之１","OBJECTID":452601},"geometry":{"x":166846.80000000075,"y":2545498.4499999974}},{"attributes":{"ID":452627,"DIS_CODE":0,"TOWNNAME":"佳里區","LI":"鎮山里","LIN":"20鄰","STREET":"鎮山街","SECT":" ","MAREA":" ","LANE":"１６０巷","ALLEY":" ","HOUSE_NO":"５１號","E_COORD97":166144.59,"N_COORD97":2560940.1400000001,"ADDRESS":"鎮山街１６０巷５１號","OBJECTID":452602},"geometry":{"x":166144.59000000078,"y":2560940.1400000025}},{"attributes":{"ID":452628,"DIS_CODE":0,"TOWNNAME":"官田區","LI":"隆本里","LIN":"20鄰","STREET":"忠孝街","SECT":" ","MAREA":" ","LANE":"６０巷","ALLEY":" ","HOUSE_NO":"５號","E_COORD97":180084.59,"N_COORD97":2566224.1800000002,"ADDRESS":"忠孝街６０巷５號","OBJECTID":452603},"geometry":{"x":180084.59000000078,"y":2566224.1800000016}},{"attributes":{"ID":452629,"DIS_CODE":0,"TOWNNAME":"官田區","LI":"隆本里","LIN":"20鄰","STREET":"忠孝街","SECT":" ","MAREA":" ","LANE":"６０巷","ALLEY":" ","HOUSE_NO":"６號","E_COORD97":180086.85000000001,"N_COORD97":2566204.9300000002,"ADDRESS":"忠孝街６０巷６號","OBJECTID":452604},"geometry":{"x":180086.84999999963,"y":2566204.9300000016}},{"attributes":{"ID":452630,"DIS_CODE":0,"TOWNNAME":"官田區","LI":"隆本里","LIN":"20鄰","STREET":"忠孝街","SECT":" ","MAREA":" ","LANE":"７８巷","ALLEY":" ","HOUSE_NO":"１１號","E_COORD97":180067.89000000001,"N_COORD97":2566259.6099999999,"ADDRESS":"忠孝街７８巷１１號","OBJECTID":452605},"geometry":{"x":180067.88999999966,"y":2566259.6099999994}},{"attributes":{"ID":452631,"DIS_CODE":0,"TOWNNAME":"官田區","LI":"隆本里","LIN":"20鄰","STREET":"忠孝街","SECT":" ","MAREA":" ","LANE":"７８巷","ALLEY":" ","HOUSE_NO":"１３號","E_COORD97":180071.62,"N_COORD97":2566259.8900000001,"ADDRESS":"忠孝街７８巷１３號","OBJECTID":452606},"geometry":{"x":180071.62000000011,"y":2566259.8900000043}},{"attributes":{"ID":452632,"DIS_CODE":0,"TOWNNAME":"官田區","LI":"隆本里","LIN":"20鄰","STREET":"忠孝街","SECT":" ","MAREA":" ","LANE":"７８巷","ALLEY":" ","HOUSE_NO":"１５號","E_COORD97":180075.97,"N_COORD97":2566260.0499999998,"ADDRESS":"忠孝街７８巷１５號","OBJECTID":452607},"geometry":{"x":180075.96999999974,"y":2566260.0500000026}},{"attributes":{"ID":452633,"DIS_CODE":0,"TOWNNAME":"官田區","LI":"隆本里","LIN":"20鄰","STREET":"忠孝街","SECT":" ","MAREA":" ","LANE":"７８巷","ALLEY":" ","HOUSE_NO":"１７號","E_COORD97":180080.79000000001,"N_COORD97":2566260.1200000001,"ADDRESS":"忠孝街７８巷１７號","OBJECTID":452608},"geometry":{"x":180080.79000000004,"y":2566260.1200000029}},{"attributes":{"ID":452634,"DIS_CODE":0,"TOWNNAME":"官田區","LI":"隆本里","LIN":"20鄰","STREET":"忠孝街","SECT":" ","MAREA":" ","LANE":"７８巷","ALLEY":" ","HOUSE_NO":"１９號","E_COORD97":180088.59,"N_COORD97":2566255.3799999999,"ADDRESS":"忠孝街７８巷１９號","OBJECTID":452609},"geometry":{"x":180088.58999999985,"y":2566255.3800000008}},{"attributes":{"ID":452635,"DIS_CODE":0,"TOWNNAME":"新營區","LI":"護鎮里","LIN":"1鄰","STREET":"中正路","SECT":" ","MAREA":" ","LANE":"４３９巷","ALLEY":" ","HOUSE_NO":"２２之１號","E_COORD97":179706.82999999999,"N_COORD97":2580300.6899999999,"ADDRESS":"中正路４３９巷２２之１號","OBJECTID":452610},"geometry":{"x":179706.83000000101,"y":2580300.6900000013}},{"attributes":{"ID":452636,"DIS_CODE":0,"TOWNNAME":"官田區","LI":"隆本里","LIN":"20鄰","STREET":"忠孝街","SECT":" ","MAREA":" ","LANE":"７８巷","ALLEY":" ","HOUSE_NO":"２號","E_COORD97":180068.82000000001,"N_COORD97":2566236.3500000001,"ADDRESS":"忠孝街７８巷２號","OBJECTID":452611},"geometry":{"x":180068.8200000003,"y":2566236.3500000015}},{"attributes":{"ID":452637,"DIS_CODE":0,"TOWNNAME":"官田區","LI":"隆本里","LIN":"20鄰","STREET":"忠孝街","SECT":" ","MAREA":" ","LANE":"７８巷","ALLEY":" ","HOUSE_NO":"６號","E_COORD97":180076.54999999999,"N_COORD97":2566236.8599999999,"ADDRESS":"忠孝街７８巷６號","OBJECTID":452612},"geometry":{"x":180076.54999999981,"y":2566236.8599999994}},{"attributes":{"ID":452638,"DIS_CODE":0,"TOWNNAME":"官田區","LI":"隆本里","LIN":"20鄰","STREET":"忠孝街","SECT":" ","MAREA":" ","LANE":"７８巷","ALLEY":" ","HOUSE_NO":"７號","E_COORD97":180059.26000000001,"N_COORD97":2566259.9300000002,"ADDRESS":"忠孝街７８巷７號","OBJECTID":452613},"geometry":{"x":180059.26000000071,"y":2566259.9300000016}},{"attributes":{"ID":452639,"DIS_CODE":0,"TOWNNAME":"官田區","LI":"隆本里","LIN":"20鄰","STREET":"忠孝街","SECT":" ","MAREA":" ","LANE":"７８巷","ALLEY":" ","HOUSE_NO":"８號","E_COORD97":180083.75,"N_COORD97":2566236.5099999998,"ADDRESS":"忠孝街７８巷８號","OBJECTID":452614},"geometry":{"x":180083.75000000093,"y":2566236.5099999998}},{"attributes":{"ID":452640,"DIS_CODE":0,"TOWNNAME":"善化區","LI":"文昌里","LIN":"20鄰","STREET":"中正路","SECT":" ","MAREA":" ","LANE":"２１２巷","ALLEY":" ","HOUSE_NO":"１０號","E_COORD97":177781.87,"N_COORD97":2558306.75,"ADDRESS":"中正路２１２巷１０號","OBJECTID":452615},"geometry":{"x":177781.86999999918,"y":2558306.7500000019}},{"attributes":{"ID":452641,"DIS_CODE":0,"TOWNNAME":"善化區","LI":"文昌里","LIN":"20鄰","STREET":"中正路","SECT":" ","MAREA":" ","LANE":"２１２巷","ALLEY":" ","HOUSE_NO":"４８號","E_COORD97":177771.62,"N_COORD97":2558254.25,"ADDRESS":"中正路２１２巷４８號","OBJECTID":452616},"geometry":{"x":177771.62000000011,"y":2558254.25}},{"attributes":{"ID":452642,"DIS_CODE":0,"TOWNNAME":"善化區","LI":"文昌里","LIN":"20鄰","STREET":"中正路","SECT":" ","MAREA":" ","LANE":"２１２巷","ALLEY":" ","HOUSE_NO":"１７號","E_COORD97":177785.64000000001,"N_COORD97":2558292.5,"ADDRESS":"中正路２１２巷１７號","OBJECTID":452617},"geometry":{"x":177785.63999999966,"y":2558292.5000000019}},{"attributes":{"ID":452643,"DIS_CODE":0,"TOWNNAME":"善化區","LI":"文昌里","LIN":"20鄰","STREET":"中正路","SECT":" ","MAREA":" ","LANE":"２１２巷","ALLEY":" ","HOUSE_NO":"２７號","E_COORD97":177754.48000000001,"N_COORD97":2558264.4900000002,"ADDRESS":"中正路２１２巷２７號","OBJECTID":452618},"geometry":{"x":177754.48000000231,"y":2558264.4900000021}},{"attributes":{"ID":452644,"DIS_CODE":0,"TOWNNAME":"善化區","LI":"文昌里","LIN":"20鄰","STREET":"中正路","SECT":" ","MAREA":" ","LANE":"２１２巷","ALLEY":" ","HOUSE_NO":"４０號","E_COORD97":177804.69,"N_COORD97":2558260.5,"ADDRESS":"中正路２１２巷４０號","OBJECTID":452619},"geometry":{"x":177804.69000000041,"y":2558260.5000000037}},{"attributes":{"ID":452645,"DIS_CODE":0,"TOWNNAME":"善化區","LI":"文昌里","LIN":"20鄰","STREET":"中正路","SECT":" ","MAREA":" ","LANE":"２１２巷","ALLEY":" ","HOUSE_NO":"１４號","E_COORD97":177798.04999999999,"N_COORD97":2558295,"ADDRESS":"中正路２１２巷１４號","OBJECTID":452620},"geometry":{"x":177798.05000000075,"y":2558295.0000000019}},{"attributes":{"ID":452646,"DIS_CODE":0,"TOWNNAME":"新營區","LI":"忠政里","LIN":"7鄰","STREET":"中正路","SECT":" ","MAREA":" ","LANE":"３５巷","ALLEY":" ","HOUSE_NO":"３８號","E_COORD97":179927.85000000001,"N_COORD97":2579121.2400000002,"ADDRESS":"中正路３５巷３８號","OBJECTID":452621},"geometry":{"x":179927.85000000056,"y":2579121.2400000021}},{"attributes":{"ID":452647,"DIS_CODE":0,"TOWNNAME":"新營區","LI":"南興里","LIN":" ","STREET":"興農街","SECT":" ","MAREA":" ","LANE":"１４０巷","ALLEY":" ","HOUSE_NO":"９之１號","E_COORD97":179214.59,"N_COORD97":2577524.4199999999,"ADDRESS":"興農街１４０巷９之１號","OBJECTID":452622},"geometry":{"x":179214.59000000078,"y":2577524.4199999999}},{"attributes":{"ID":452648,"DIS_CODE":0,"TOWNNAME":"善化區","LI":"光文里","LIN":"20鄰","STREET":"大成路","SECT":" ","MAREA":" ","LANE":"３１６巷","ALLEY":" ","HOUSE_NO":"１５號","E_COORD97":178108.12,"N_COORD97":2558871.25,"ADDRESS":"大成路３１６巷１５號","OBJECTID":452623},"geometry":{"x":178108.12000000104,"y":2558871.25}},{"attributes":{"ID":452649,"DIS_CODE":0,"TOWNNAME":"東區","LI":"裕農里","LIN":"20鄰","STREET":"裕豐街","SECT":" ","MAREA":" ","LANE":"２２２巷","ALLEY":" ","HOUSE_NO":"３５號","E_COORD97":170845.78,"N_COORD97":2543235.75,"ADDRESS":"裕豐街２２２巷３５號","OBJECTID":452624},"geometry":{"x":170845.78000000026,"y":2543235.7499999981}},{"attributes":{"ID":452650,"DIS_CODE":0,"TOWNNAME":"東區","LI":"裕農里","LIN":"20鄰","STREET":"裕豐街","SECT":" ","MAREA":" ","LANE":"２２２巷","ALLEY":" ","HOUSE_NO":"４號","E_COORD97":170820.64000000001,"N_COORD97":2543201.71,"ADDRESS":"裕豐街２２２巷４號","OBJECTID":452625},"geometry":{"x":170820.63999999966,"y":2543201.7100000009}},{"attributes":{"ID":452651,"DIS_CODE":0,"TOWNNAME":"東區","LI":"裕農里","LIN":"20鄰","STREET":"裕豐街","SECT":" ","MAREA":" ","LANE":"２２２巷","ALLEY":" ","HOUSE_NO":"５號","E_COORD97":170818.67000000001,"N_COORD97":2543217.8500000001,"ADDRESS":"裕豐街２２２巷５號","OBJECTID":452626},"geometry":{"x":170818.66999999993,"y":2543217.8500000034}},{"attributes":{"ID":452652,"DIS_CODE":0,"TOWNNAME":"東區","LI":"崇誨里","LIN":"20鄰","STREET":"林森路","SECT":"二段","MAREA":" ","LANE":"１９２巷","ALLEY":" ","HOUSE_NO":"７２號","E_COORD97":170703.10999999999,"N_COORD97":2543336.1899999999,"ADDRESS":"林森路二段１９２巷７２號","OBJECTID":452627},"geometry":{"x":170703.1100000022,"y":2543336.1899999995}},{"attributes":{"ID":452653,"DIS_CODE":0,"TOWNNAME":"東區","LI":"崇誨里","LIN":"20鄰","STREET":"林森路","SECT":"二段","MAREA":" ","LANE":"１９２巷","ALLEY":" ","HOUSE_NO":"７４號","E_COORD97":170708.26999999999,"N_COORD97":2543337.48,"ADDRESS":"林森路二段１９２巷７４號","OBJECTID":452628},"geometry":{"x":170708.27000000048,"y":2543337.4800000023}},{"attributes":{"ID":452654,"DIS_CODE":0,"TOWNNAME":"東區","LI":"崇誨里","LIN":"20鄰","STREET":"林森路","SECT":"二段","MAREA":" ","LANE":"１９２巷","ALLEY":" ","HOUSE_NO":"７６號","E_COORD97":170712.42000000001,"N_COORD97":2543339.48,"ADDRESS":"林森路二段１９２巷７６號","OBJECTID":452629},"geometry":{"x":170712.42000000179,"y":2543339.4800000004}},{"attributes":{"ID":452655,"DIS_CODE":0,"TOWNNAME":"東區","LI":"崇誨里","LIN":"20鄰","STREET":"林森路","SECT":"二段","MAREA":" ","LANE":"１９２巷","ALLEY":" ","HOUSE_NO":"７８號","E_COORD97":170717.42000000001,"N_COORD97":2543340.1899999999,"ADDRESS":"林森路二段１９２巷７８號","OBJECTID":452630},"geometry":{"x":170717.41999999993,"y":2543340.1899999995}},{"attributes":{"ID":452656,"DIS_CODE":0,"TOWNNAME":"東區","LI":"崇誨里","LIN":"20鄰","STREET":"林森路","SECT":"二段","MAREA":" ","LANE":"１９２巷","ALLEY":" ","HOUSE_NO":"８０號","E_COORD97":170723.44,"N_COORD97":2543338.48,"ADDRESS":"林森路二段１９２巷８０號","OBJECTID":452631},"geometry":{"x":170723.44000000134,"y":2543338.4800000004}},{"attributes":{"ID":452657,"DIS_CODE":0,"TOWNNAME":"東區","LI":"崇誨里","LIN":"20鄰","STREET":"林森路","SECT":"二段","MAREA":" ","LANE":"１９２巷","ALLEY":" ","HOUSE_NO":"８２號","E_COORD97":170727.44,"N_COORD97":2543338.9100000001,"ADDRESS":"林森路二段１９２巷８２號","OBJECTID":452632},"geometry":{"x":170727.44000000041,"y":2543338.9100000001}},{"attributes":{"ID":452658,"DIS_CODE":0,"TOWNNAME":"東區","LI":"德高里","LIN":"20鄰","STREET":"仁和路","SECT":" ","MAREA":" ","LANE":"１３９巷","ALLEY":" ","HOUSE_NO":"５２號","E_COORD97":171622.92999999999,"N_COORD97":2541081.5499999998,"ADDRESS":"仁和路１３９巷５２號","OBJECTID":452633},"geometry":{"x":171622.93000000063,"y":2541081.5500000007}},{"attributes":{"ID":452659,"DIS_CODE":0,"TOWNNAME":"東區","LI":"裕農里","LIN":"20鄰","STREET":"裕豐街","SECT":" ","MAREA":" ","LANE":"２２２巷","ALLEY":" ","HOUSE_NO":"１６號","E_COORD97":170850.39999999999,"N_COORD97":2543199.1299999999,"ADDRESS":"裕豐街２２２巷１６號","OBJECTID":452634},"geometry":{"x":170850.40000000224,"y":2543199.1300000008}},{"attributes":{"ID":452660,"DIS_CODE":0,"TOWNNAME":"永康區","LI":"\u25A0行里","LIN":"20鄰","STREET":"正南五街","SECT":" ","MAREA":" ","LANE":"２８９巷","ALLEY":" ","HOUSE_NO":"９８號","E_COORD97":171819.26999999999,"N_COORD97":2548310.6099999999,"ADDRESS":"正南五街２８９巷９８號","OBJECTID":452635},"geometry":{"x":171819.26999999955,"y":2548310.6099999994}},{"attributes":{"ID":452661,"DIS_CODE":0,"TOWNNAME":"永康區","LI":"\u25A0行里","LIN":"20鄰","STREET":"正南五街","SECT":" ","MAREA":" ","LANE":"２８９巷","ALLEY":" ","HOUSE_NO":"１１２號","E_COORD97":171829.70999999999,"N_COORD97":2548315.8599999999,"ADDRESS":"正南五街２８９巷１１２號","OBJECTID":452636},"geometry":{"x":171829.71000000089,"y":2548315.8599999994}},{"attributes":{"ID":452662,"DIS_CODE":0,"TOWNNAME":"永康區","LI":"\u25A0行里","LIN":"20鄰","STREET":"正南五街","SECT":" ","MAREA":" ","LANE":"２８９巷","ALLEY":" ","HOUSE_NO":"５６號","E_COORD97":171768.45000000001,"N_COORD97":2548345.3500000001,"ADDRESS":"正南五街２８９巷５６號","OBJECTID":452637},"geometry":{"x":171768.45000000019,"y":2548345.3500000015}},{"attributes":{"ID":452663,"DIS_CODE":0,"TOWNNAME":"永康區","LI":"網寮里","LIN":"20鄰","STREET":"永二街","SECT":" ","MAREA":" ","LANE":"２４５巷","ALLEY":" ","HOUSE_NO":"３號","E_COORD97":173329.79000000001,"N_COORD97":2546190.2400000002,"ADDRESS":"永二街２４５巷３號","OBJECTID":452638},"geometry":{"x":173329.79000000097,"y":2546190.2400000021}},{"attributes":{"ID":452664,"DIS_CODE":0,"TOWNNAME":"永康區","LI":"網寮里","LIN":"20鄰","STREET":"永二街","SECT":" ","MAREA":" ","LANE":"２４５巷","ALLEY":" ","HOUSE_NO":"２０號","E_COORD97":173302.84,"N_COORD97":2546201.75,"ADDRESS":"永二街２４５巷２０號","OBJECTID":452639},"geometry":{"x":173302.83999999985,"y":2546201.75}},{"attributes":{"ID":452665,"DIS_CODE":0,"TOWNNAME":"新營區","LI":"民榮里","LIN":" ","STREET":"興農街","SECT":" ","MAREA":" ","LANE":"４７巷","ALLEY":" ","HOUSE_NO":"４１之１號","E_COORD97":179309.17999999999,"N_COORD97":2577768.7200000002,"ADDRESS":"興農街４７巷４１之１號","OBJECTID":452640},"geometry":{"x":179309.18000000063,"y":2577768.7200000025}},{"attributes":{"ID":452666,"DIS_CODE":0,"TOWNNAME":"新營區","LI":"南紙里","LIN":"20鄰","STREET":"南紙街","SECT":" ","MAREA":" ","LANE":"１１７巷","ALLEY":" ","HOUSE_NO":"３３號","E_COORD97":177929.54000000001,"N_COORD97":2577495.1299999999,"ADDRESS":"南紙街１１７巷３３號","OBJECTID":452641},"geometry":{"x":177929.54000000004,"y":2577495.129999999}},{"attributes":{"ID":452667,"DIS_CODE":0,"TOWNNAME":"仁德區","LI":"大甲里","LIN":"20鄰","STREET":"行大街","SECT":" ","MAREA":" ","LANE":"４８０巷","ALLEY":" ","HOUSE_NO":"２２號","E_COORD97":169331.17000000001,"N_COORD97":2535401.7400000002,"ADDRESS":"行大街４８０巷２２號","OBJECTID":452642},"geometry":{"x":169331.17000000086,"y":2535401.7400000021}},{"attributes":{"ID":452668,"DIS_CODE":0,"TOWNNAME":"仁德區","LI":"大甲里","LIN":"20鄰","STREET":"中正西路","SECT":" ","MAREA":" ","LANE":"４９５巷","ALLEY":" ","HOUSE_NO":"３３號","E_COORD97":169395.45999999999,"N_COORD97":2535353.25,"ADDRESS":"中正西路４９５巷３３號","OBJECTID":452643},"geometry":{"x":169395.46000000089,"y":2535353.2500000037}},{"attributes":{"ID":452669,"DIS_CODE":0,"TOWNNAME":"東區","LI":"新東里","LIN":"20鄰","STREET":"裕豐街","SECT":" ","MAREA":" ","LANE":"１６３巷","ALLEY":" ","HOUSE_NO":"１５號","E_COORD97":170659.54000000001,"N_COORD97":2543124.6699999999,"ADDRESS":"裕豐街１６３巷１５號","OBJECTID":452644},"geometry":{"x":170659.54000000097,"y":2543124.6700000037}},{"attributes":{"ID":452670,"DIS_CODE":0,"TOWNNAME":"東區","LI":"小東里","LIN":"20鄰","STREET":"東興路","SECT":" ","MAREA":" ","LANE":"２８４巷","ALLEY":" ","HOUSE_NO":"１１號","E_COORD97":171101.22,"N_COORD97":2544014.8700000001,"ADDRESS":"東興路２８４巷１１號","OBJECTID":452645},"geometry":{"x":171101.21999999974,"y":2544014.870000001}},{"attributes":{"ID":452671,"DIS_CODE":0,"TOWNNAME":"東區","LI":"小東里","LIN":"20鄰","STREET":"東興路","SECT":" ","MAREA":" ","LANE":"２８４巷","ALLEY":" ","HOUSE_NO":"１３號","E_COORD97":171105.37,"N_COORD97":2544014.3500000001,"ADDRESS":"東興路２８４巷１３號","OBJECTID":452646},"geometry":{"x":171105.37000000104,"y":2544014.3499999996}},{"attributes":{"ID":452672,"DIS_CODE":0,"TOWNNAME":"鹽水區","LI":"橋南里","LIN":"1鄰","STREET":"橋南街","SECT":" ","MAREA":" ","LANE":" ","ALLEY":" ","HOUSE_NO":"７號","E_COORD97":175111.98000000001,"N_COORD97":2579559.6499999999,"ADDRESS":"橋南街７號","OBJECTID":452647},"geometry":{"x":175111.98000000138,"y":2579559.6500000022}},{"attributes":{"ID":452673,"DIS_CODE":0,"TOWNNAME":"東區","LI":"小東里","LIN":"20鄰","STREET":"東興路","SECT":" ","MAREA":" ","LANE":"２８４巷","ALLEY":" ","HOUSE_NO":"１５號","E_COORD97":171108.98999999999,"N_COORD97":2544014.3500000001,"ADDRESS":"東興路２８４巷１５號","OBJECTID":452648},"geometry":{"x":171108.99000000209,"y":2544014.3499999996}},{"attributes":{"ID":452674,"DIS_CODE":0,"TOWNNAME":"東區","LI":"小東里","LIN":"20鄰","STREET":"東興路","SECT":" ","MAREA":" ","LANE":"２８４巷","ALLEY":" ","HOUSE_NO":"１７號","E_COORD97":171112.62,"N_COORD97":2544013.3199999998,"ADDRESS":"東興路２８４巷１７號","OBJECTID":452649},"geometry":{"x":171112.62000000011,"y":2544013.3200000022}},{"attributes":{"ID":452675,"DIS_CODE":0,"TOWNNAME":"東區","LI":"小東里","LIN":"20鄰","STREET":"東興路","SECT":" ","MAREA":" ","LANE":"２８４巷","ALLEY":" ","HOUSE_NO":"１９號","E_COORD97":171116.23999999999,"N_COORD97":2544013.0600000001,"ADDRESS":"東興路２８４巷１９號","OBJECTID":452650},"geometry":{"x":171116.24000000115,"y":2544013.0600000005}},{"attributes":{"ID":452676,"DIS_CODE":0,"TOWNNAME":"東區","LI":"小東里","LIN":"20鄰","STREET":"東興路","SECT":" ","MAREA":" ","LANE":"２８４巷","ALLEY":" ","HOUSE_NO":"１號","E_COORD97":171076.63,"N_COORD97":2544018.75,"ADDRESS":"東興路２８４巷１號","OBJECTID":452651},"geometry":{"x":171076.62999999989,"y":2544018.75}},{"attributes":{"ID":452677,"DIS_CODE":0,"TOWNNAME":"東區","LI":"小東里","LIN":"20鄰","STREET":"東興路","SECT":" ","MAREA":" ","LANE":"２８４巷","ALLEY":" ","HOUSE_NO":"２１號","E_COORD97":171120.64000000001,"N_COORD97":2544012.54,"ADDRESS":"東興路２８４巷２１號","OBJECTID":452652},"geometry":{"x":171120.63999999966,"y":2544012.5399999991}},{"attributes":{"ID":452678,"DIS_CODE":0,"TOWNNAME":"東區","LI":"小東里","LIN":"20鄰","STREET":"東興路","SECT":" ","MAREA":" ","LANE":"２８４巷","ALLEY":" ","HOUSE_NO":"２３號","E_COORD97":171124.26999999999,"N_COORD97":2544012.0299999998,"ADDRESS":"東興路２８４巷２３號","OBJECTID":452653},"geometry":{"x":171124.26999999955,"y":2544012.0299999993}},{"attributes":{"ID":452679,"DIS_CODE":0,"TOWNNAME":"東區","LI":"小東里","LIN":"20鄰","STREET":"東興路","SECT":" ","MAREA":" ","LANE":"２８４巷","ALLEY":" ","HOUSE_NO":"２５號","E_COORD97":171128.41,"N_COORD97":2544010.9900000002,"ADDRESS":"東興路２８４巷２５號","OBJECTID":452654},"geometry":{"x":171128.41000000108,"y":2544010.9900000039}},{"attributes":{"ID":452680,"DIS_CODE":0,"TOWNNAME":"東區","LI":"小東里","LIN":"20鄰","STREET":"東興路","SECT":" ","MAREA":" ","LANE":"２８４巷","ALLEY":" ","HOUSE_NO":"２７號","E_COORD97":171132.54999999999,"N_COORD97":2544010.9900000002,"ADDRESS":"東興路２８４巷２７號","OBJECTID":452655},"geometry":{"x":171132.55000000075,"y":2544010.9900000039}},{"attributes":{"ID":452681,"DIS_CODE":0,"TOWNNAME":"東區","LI":"小東里","LIN":"20鄰","STREET":"東興路","SECT":" ","MAREA":" ","LANE":"２８４巷","ALLEY":" ","HOUSE_NO":"２９號","E_COORD97":171136.95000000001,"N_COORD97":2544010.4700000002,"ADDRESS":"東興路２８４巷２９號","OBJECTID":452656},"geometry":{"x":171136.95000000112,"y":2544010.4700000007}},{"attributes":{"ID":452682,"DIS_CODE":0,"TOWNNAME":"東區","LI":"小東里","LIN":"20鄰","STREET":"東興路","SECT":" ","MAREA":" ","LANE":"２８４巷","ALLEY":" ","HOUSE_NO":"３１號","E_COORD97":171143.17000000001,"N_COORD97":2544007.8900000001,"ADDRESS":"東興路２８４巷３１號","OBJECTID":452657},"geometry":{"x":171143.17000000179,"y":2544007.8900000006}},{"attributes":{"ID":452683,"DIS_CODE":0,"TOWNNAME":"東區","LI":"小東里","LIN":"20鄰","STREET":"東興路","SECT":" ","MAREA":" ","LANE":"２８４巷","ALLEY":" ","HOUSE_NO":"３號","E_COORD97":171081.03,"N_COORD97":2544017.46,"ADDRESS":"東興路２８４巷３號","OBJECTID":452658},"geometry":{"x":171081.03000000026,"y":2544017.4600000009}},{"attributes":{"ID":452684,"DIS_CODE":0,"TOWNNAME":"東區","LI":"小東里","LIN":"20鄰","STREET":"東興路","SECT":" ","MAREA":" ","LANE":"２８４巷","ALLEY":" ","HOUSE_NO":"７號","E_COORD97":171091.89999999999,"N_COORD97":2544016.1600000001,"ADDRESS":"東興路２８４巷７號","OBJECTID":452659},"geometry":{"x":171091.9000000013,"y":2544016.1600000001}},{"attributes":{"ID":452685,"DIS_CODE":0,"TOWNNAME":"東區","LI":"小東里","LIN":"20鄰","STREET":"東興路","SECT":" ","MAREA":" ","LANE":"２８４巷","ALLEY":" ","HOUSE_NO":"９號","E_COORD97":171097.34,"N_COORD97":2544015.6499999999,"ADDRESS":"東興路２８４巷９號","OBJECTID":452660},"geometry":{"x":171097.33999999985,"y":2544015.6500000004}},{"attributes":{"ID":452686,"DIS_CODE":0,"TOWNNAME":"東區","LI":"小東里","LIN":"20鄰","STREET":"東興路","SECT":" ","MAREA":" ","LANE":"２９６巷","ALLEY":" ","HOUSE_NO":"１０號","E_COORD97":171095.01000000001,"N_COORD97":2544031.9399999999,"ADDRESS":"東興路２９６巷１０號","OBJECTID":452661},"geometry":{"x":171095.01000000071,"y":2544031.9400000013}},{"attributes":{"ID":452687,"DIS_CODE":0,"TOWNNAME":"東區","LI":"小東里","LIN":"20鄰","STREET":"東興路","SECT":" ","MAREA":" ","LANE":"２９６巷","ALLEY":" ","HOUSE_NO":"１２號","E_COORD97":171099.41,"N_COORD97":2544031.1699999999,"ADDRESS":"東興路２９６巷１２號","OBJECTID":452662},"geometry":{"x":171099.41000000201,"y":2544031.1700000018}},{"attributes":{"ID":452688,"DIS_CODE":0,"TOWNNAME":"東區","LI":"小東里","LIN":"20鄰","STREET":"東興路","SECT":" ","MAREA":" ","LANE":"２９６巷","ALLEY":" ","HOUSE_NO":"１４號","E_COORD97":171105.88,"N_COORD97":2544030.9100000001,"ADDRESS":"東興路２９６巷１４號","OBJECTID":452663},"geometry":{"x":171105.87999999896,"y":2544030.9100000001}},{"attributes":{"ID":452689,"DIS_CODE":0,"TOWNNAME":"東區","LI":"小東里","LIN":"20鄰","STREET":"東興路","SECT":" ","MAREA":" ","LANE":"２９６巷","ALLEY":" ","HOUSE_NO":"１５號","E_COORD97":171114.17000000001,"N_COORD97":2544050.5600000001,"ADDRESS":"東興路２９６巷１５號","OBJECTID":452664},"geometry":{"x":171114.17000000179,"y":2544050.5600000005}},{"attributes":{"ID":452690,"DIS_CODE":0,"TOWNNAME":"東區","LI":"小東里","LIN":"20鄰","STREET":"東興路","SECT":" ","MAREA":" ","LANE":"２９６巷","ALLEY":" ","HOUSE_NO":"１６號","E_COORD97":171110.29000000001,"N_COORD97":2544029.6200000001,"ADDRESS":"東興路２９６巷１６號","OBJECTID":452665},"geometry":{"x":171110.29000000097,"y":2544029.6200000029}},{"attributes":{"ID":452691,"DIS_CODE":0,"TOWNNAME":"新營區","LI":"南紙里","LIN":"18鄰","STREET":"南紙街","SECT":" ","MAREA":" ","LANE":"４４巷","ALLEY":" ","HOUSE_NO":"６號","E_COORD97":177761.45000000001,"N_COORD97":2577700.8199999998,"ADDRESS":"南紙街４４巷６號","OBJECTID":452666},"geometry":{"x":177761.45000000112,"y":2577700.8200000003}},{"attributes":{"ID":452692,"DIS_CODE":0,"TOWNNAME":"東區","LI":"小東里","LIN":"20鄰","STREET":"東興路","SECT":" ","MAREA":" ","LANE":"２９６巷","ALLEY":" ","HOUSE_NO":"１７號","E_COORD97":171120.12,"N_COORD97":2544049.79,"ADDRESS":"東興路２９６巷１７號","OBJECTID":452667},"geometry":{"x":171120.12000000104,"y":2544049.790000001}},{"attributes":{"ID":452693,"DIS_CODE":0,"TOWNNAME":"東區","LI":"小東里","LIN":"20鄰","STREET":"東興路","SECT":" ","MAREA":" ","LANE":"２９６巷","ALLEY":" ","HOUSE_NO":"１８號","E_COORD97":171116.23999999999,"N_COORD97":2544028.8399999999,"ADDRESS":"東興路２９６巷１８號","OBJECTID":452668},"geometry":{"x":171116.24000000115,"y":2544028.8400000017}},{"attributes":{"ID":452694,"DIS_CODE":0,"TOWNNAME":"東區","LI":"小東里","LIN":"20鄰","STREET":"東興路","SECT":" ","MAREA":" ","LANE":"２９６巷","ALLEY":" ","HOUSE_NO":"１９號","E_COORD97":171126.60000000001,"N_COORD97":2544049.27,"ADDRESS":"東興路２９６巷１９號","OBJECTID":452669},"geometry":{"x":171126.60000000056,"y":2544049.2700000033}},{"attributes":{"ID":452695,"DIS_CODE":0,"TOWNNAME":"東區","LI":"小東里","LIN":"20鄰","STREET":"東興路","SECT":" ","MAREA":" ","LANE":"２９６巷","ALLEY":" ","HOUSE_NO":"１號","E_COORD97":171078.95999999999,"N_COORD97":2544055.4700000002,"ADDRESS":"東興路２９６巷１號","OBJECTID":452670},"geometry":{"x":171078.96000000089,"y":2544055.4699999988}},{"attributes":{"ID":452696,"DIS_CODE":0,"TOWNNAME":"東區","LI":"小東里","LIN":"20鄰","STREET":"東興路","SECT":" ","MAREA":" ","LANE":"２９６巷","ALLEY":" ","HOUSE_NO":"２０號","E_COORD97":171121.94,"N_COORD97":2544028.0699999998,"ADDRESS":"東興路２９６巷２０號","OBJECTID":452671},"geometry":{"x":171121.94000000134,"y":2544028.0700000022}},{"attributes":{"ID":452697,"DIS_CODE":0,"TOWNNAME":"東區","LI":"小東里","LIN":"20鄰","STREET":"東興路","SECT":" ","MAREA":" ","LANE":"２９６巷","ALLEY":" ","HOUSE_NO":"２２號","E_COORD97":171128.41,"N_COORD97":2544026.77,"ADDRESS":"東興路２９６巷２２號","OBJECTID":452672},"geometry":{"x":171128.41000000108,"y":2544026.7700000014}},{"attributes":{"ID":452698,"DIS_CODE":0,"TOWNNAME":"東區","LI":"小東里","LIN":"20鄰","STREET":"東興路","SECT":" ","MAREA":" ","LANE":"２９６巷","ALLEY":" ","HOUSE_NO":"２４號","E_COORD97":171132.81,"N_COORD97":2544026.5099999998,"ADDRESS":"東興路２９６巷２４號","OBJECTID":452673},"geometry":{"x":171132.80999999959,"y":2544026.5099999998}},{"attributes":{"ID":452699,"DIS_CODE":0,"TOWNNAME":"東區","LI":"小東里","LIN":"20鄰","STREET":"東興路","SECT":" ","MAREA":" ","LANE":"２９６巷","ALLEY":" ","HOUSE_NO":"２６號","E_COORD97":171138.51000000001,"N_COORD97":2544024.7000000002,"ADDRESS":"東興路２９６巷２６號","OBJECTID":452674},"geometry":{"x":171138.50999999978,"y":2544024.6999999993}},{"attributes":{"ID":452700,"DIS_CODE":0,"TOWNNAME":"東區","LI":"小東里","LIN":"20鄰","STREET":"東興路","SECT":" ","MAREA":" ","LANE":"２９６巷","ALLEY":" ","HOUSE_NO":"４號","E_COORD97":171079.22,"N_COORD97":2544034.79,"ADDRESS":"東興路２９６巷４號","OBJECTID":452675},"geometry":{"x":171079.21999999974,"y":2544034.7900000028}},{"attributes":{"ID":452701,"DIS_CODE":0,"TOWNNAME":"東區","LI":"小東里","LIN":"20鄰","STREET":"東興路","SECT":" ","MAREA":" ","LANE":"２９６巷","ALLEY":" ","HOUSE_NO":"５號","E_COORD97":171087.5,"N_COORD97":2544053.1499999999,"ADDRESS":"東興路２９６巷５號","OBJECTID":452676},"geometry":{"x":171087.5,"y":2544053.1500000004}},{"attributes":{"ID":452702,"DIS_CODE":0,"TOWNNAME":"永康區","LI":"\u25A0行里","LIN":"20鄰","STREET":"正南五街","SECT":" ","MAREA":" ","LANE":"２８９巷","ALLEY":" ","HOUSE_NO":"５９號","E_COORD97":171792.85000000001,"N_COORD97":2548368.1000000001,"ADDRESS":"正南五街２８９巷５９號","OBJECTID":452677},"geometry":{"x":171792.85000000056,"y":2548368.0999999996}},{"attributes":{"ID":452703,"DIS_CODE":0,"TOWNNAME":"永康區","LI":"龍潭里","LIN":"20鄰","STREET":"龍潭街","SECT":" ","MAREA":" ","LANE":"２１５巷","ALLEY":" ","HOUSE_NO":"８號","E_COORD97":174926.79999999999,"N_COORD97":2548417.4700000002,"ADDRESS":"龍潭街２１５巷８號","OBJECTID":452678},"geometry":{"x":174926.79999999981,"y":2548417.4700000007}},{"attributes":{"ID":452704,"DIS_CODE":0,"TOWNNAME":"安南區","LI":"安富里","LIN":"20鄰","STREET":"郡安路","SECT":"五段","MAREA":" ","LANE":"１７８巷","ALLEY":" ","HOUSE_NO":"９５號","E_COORD97":167574.29999999999,"N_COORD97":2547508.1299999999,"ADDRESS":"郡安路五段１７８巷９５號","OBJECTID":452679},"geometry":{"x":167574.30000000075,"y":2547508.1300000008}},{"attributes":{"ID":452705,"DIS_CODE":0,"TOWNNAME":"安南區","LI":"安富里","LIN":"20鄰","STREET":"郡安路","SECT":"五段","MAREA":" ","LANE":"１７８巷","ALLEY":" ","HOUSE_NO":"９７號","E_COORD97":167575.54999999999,"N_COORD97":2547503.1299999999,"ADDRESS":"郡安路五段１７８巷９７號","OBJECTID":452680},"geometry":{"x":167575.55000000075,"y":2547503.129999999}},{"attributes":{"ID":452706,"DIS_CODE":0,"TOWNNAME":"學甲區","LI":"仁得里","LIN":"1鄰","STREET":"八德街","SECT":" ","MAREA":" ","LANE":" ","ALLEY":" ","HOUSE_NO":"５號","E_COORD97":166337.75,"N_COORD97":2569685.4900000002,"ADDRESS":"八德街５號","OBJECTID":452681},"geometry":{"x":166337.75,"y":2569685.4900000002}},{"attributes":{"ID":452707,"DIS_CODE":0,"TOWNNAME":"安南區","LI":"安富里","LIN":"20鄰","STREET":"郡安路","SECT":"五段","MAREA":" ","LANE":"１７８巷","ALLEY":" ","HOUSE_NO":"１０４號","E_COORD97":167555.85999999999,"N_COORD97":2547483.2200000002,"ADDRESS":"郡安路五段１７８巷１０４號","OBJECTID":452682},"geometry":{"x":167555.86000000127,"y":2547483.2200000025}},{"attributes":{"ID":452708,"DIS_CODE":0,"TOWNNAME":"善化區","LI":"光文里","LIN":"20鄰","STREET":"大成路","SECT":" ","MAREA":" ","LANE":"３１６巷","ALLEY":" ","HOUSE_NO":"７號","E_COORD97":178075.41,"N_COORD97":2558869,"ADDRESS":"大成路３１６巷７號","OBJECTID":452683},"geometry":{"x":178075.41000000108,"y":2558869.0000000019}},{"attributes":{"ID":452709,"DIS_CODE":0,"TOWNNAME":"善化區","LI":"光文里","LIN":"20鄰","STREET":"民權路","SECT":" ","MAREA":" ","LANE":"２４５巷","ALLEY":" ","HOUSE_NO":"１之３號","E_COORD97":178048.92999999999,"N_COORD97":2558947.52,"ADDRESS":"民權路２４５巷１之３號","OBJECTID":452684},"geometry":{"x":178048.93000000156,"y":2558947.5199999996}},{"attributes":{"ID":452710,"DIS_CODE":0,"TOWNNAME":"善化區","LI":"文昌里","LIN":"20鄰","STREET":"中正路","SECT":" ","MAREA":" ","LANE":"２１２巷","ALLEY":" ","HOUSE_NO":"５０號","E_COORD97":177763.32999999999,"N_COORD97":2558252.75,"ADDRESS":"中正路２１２巷５０號","OBJECTID":452685},"geometry":{"x":177763.33000000007,"y":2558252.7500000019}},{"attributes":{"ID":452711,"DIS_CODE":0,"TOWNNAME":"新營區","LI":"南紙里","LIN":"24鄰","STREET":"建業路","SECT":" ","MAREA":" ","LANE":"２６９巷","ALLEY":" ","HOUSE_NO":"１４號","E_COORD97":177974.10999999999,"N_COORD97":2577424.0299999998,"ADDRESS":"建業路２６９巷１４號","OBJECTID":452686},"geometry":{"x":177974.11000000127,"y":2577424.0299999993}},{"attributes":{"ID":452712,"DIS_CODE":0,"TOWNNAME":"新營區","LI":"民生里","LIN":"18鄰","STREET":"民治路","SECT":" ","MAREA":" ","LANE":"１８３巷","ALLEY":" ","HOUSE_NO":"３２號","E_COORD97":178879.92000000001,"N_COORD97":2578363.21,"ADDRESS":"民治路１８３巷３２號","OBJECTID":452687},"geometry":{"x":178879.92000000179,"y":2578363.2100000028}},{"attributes":{"ID":452713,"DIS_CODE":0,"TOWNNAME":"新營區","LI":"南紙里","LIN":"4鄰","STREET":"南紙街","SECT":" ","MAREA":" ","LANE":"１５巷","ALLEY":" ","HOUSE_NO":"１號","E_COORD97":177848.76999999999,"N_COORD97":2577780.1200000001,"ADDRESS":"南紙街１５巷１號","OBJECTID":452688},"geometry":{"x":177848.77000000048,"y":2577780.1200000029}},{"attributes":{"ID":452714,"DIS_CODE":0,"TOWNNAME":"中西區","LI":"仙草里","LIN":"20鄰","STREET":"健康路","SECT":"一段","MAREA":" ","LANE":"４１０巷","ALLEY":" ","HOUSE_NO":"１４號","E_COORD97":167809.51000000001,"N_COORD97":2542497.77,"ADDRESS":"健康路一段４１０巷１４號","OBJECTID":452689},"geometry":{"x":167809.51000000164,"y":2542497.7700000014}},{"attributes":{"ID":452715,"DIS_CODE":0,"TOWNNAME":"中西區","LI":"仙草里","LIN":"20鄰","STREET":"健康路","SECT":"一段","MAREA":" ","LANE":"４１０巷","ALLEY":" ","HOUSE_NO":"２４號","E_COORD97":167819.72,"N_COORD97":2542515.7599999998,"ADDRESS":"健康路一段４１０巷２４號","OBJECTID":452690},"geometry":{"x":167819.71999999974,"y":2542515.7599999998}},{"attributes":{"ID":452716,"DIS_CODE":0,"TOWNNAME":"中西區","LI":"仙草里","LIN":"20鄰","STREET":"健康路","SECT":"一段","MAREA":" ","LANE":"４１０巷","ALLEY":" ","HOUSE_NO":"２６號","E_COORD97":167819.92000000001,"N_COORD97":2542518.7000000002,"ADDRESS":"健康路一段４１０巷２６號","OBJECTID":452691},"geometry":{"x":167819.91999999993,"y":2542518.6999999993}},{"attributes":{"ID":452717,"DIS_CODE":0,"TOWNNAME":"中西區","LI":"仙草里","LIN":"20鄰","STREET":"健康路","SECT":"一段","MAREA":" ","LANE":"４１０巷","ALLEY":" ","HOUSE_NO":"２８號","E_COORD97":167820.31,"N_COORD97":2542523.02,"ADDRESS":"健康路一段４１０巷２８號","OBJECTID":452692},"geometry":{"x":167820.30999999959,"y":2542523.0200000014}},{"attributes":{"ID":452718,"DIS_CODE":0,"TOWNNAME":"中西區","LI":"仙草里","LIN":"20鄰","STREET":"健康路","SECT":"一段","MAREA":" ","LANE":"４１０巷","ALLEY":" ","HOUSE_NO":"３０號","E_COORD97":167820.89999999999,"N_COORD97":2542527.1400000001,"ADDRESS":"健康路一段４１０巷３０號","OBJECTID":452693},"geometry":{"x":167820.90000000037,"y":2542527.1400000006}},{"attributes":{"ID":452719,"DIS_CODE":0,"TOWNNAME":"中西區","LI":"仙草里","LIN":"20鄰","STREET":"健康路","SECT":"一段","MAREA":" ","LANE":"４１０巷","ALLEY":" ","HOUSE_NO":"３２號","E_COORD97":167820.51000000001,"N_COORD97":2542530.0800000001,"ADDRESS":"健康路一段４１０巷３２號","OBJECTID":452694},"geometry":{"x":167820.51000000071,"y":2542530.0800000019}},{"attributes":{"ID":452720,"DIS_CODE":0,"TOWNNAME":"中西區","LI":"仙草里","LIN":"20鄰","STREET":"健康路","SECT":"一段","MAREA":" ","LANE":"４１０巷","ALLEY":" ","HOUSE_NO":"３４號","E_COORD97":167820.70999999999,"N_COORD97":2542535.3799999999,"ADDRESS":"健康路一段４１０巷３４號","OBJECTID":452695},"geometry":{"x":167820.71000000089,"y":2542535.3799999971}},{"attributes":{"ID":452721,"DIS_CODE":0,"TOWNNAME":"中西區","LI":"仙草里","LIN":"20鄰","STREET":"健康路","SECT":"一段","MAREA":" ","LANE":"４１０巷","ALLEY":" ","HOUSE_NO":"３６號","E_COORD97":167821.69,"N_COORD97":2542540.8799999999,"ADDRESS":"健康路一段４１０巷３６號","OBJECTID":452696},"geometry":{"x":167821.69000000134,"y":2542540.879999999}},{"attributes":{"ID":452722,"DIS_CODE":0,"TOWNNAME":"中西區","LI":"仙草里","LIN":"20鄰","STREET":"健康路","SECT":"一段","MAREA":" ","LANE":"４１０巷","ALLEY":" ","HOUSE_NO":"３８號","E_COORD97":167822.28,"N_COORD97":2542544.6099999999,"ADDRESS":"健康路一段４１０巷３８號","OBJECTID":452697},"geometry":{"x":167822.28000000119,"y":2542544.6100000031}},{"attributes":{"ID":452723,"DIS_CODE":0,"TOWNNAME":"永康區","LI":"復興里","LIN":"20鄰","STREET":"復興路","SECT":" ","MAREA":" ","LANE":"３５６巷","ALLEY":" ","HOUSE_NO":"４８號","E_COORD97":172315.72,"N_COORD97":2544444.3399999999,"ADDRESS":"復興路３５６巷４８號","OBJECTID":452698},"geometry":{"x":172315.7200000016,"y":2544444.3399999999}},{"attributes":{"ID":452724,"DIS_CODE":0,"TOWNNAME":"東區","LI":"崇信里","LIN":"20鄰","STREET":"中華東路","SECT":"三段","MAREA":" ","LANE":"４４巷","ALLEY":" ","HOUSE_NO":"８４號","E_COORD97":170759.53,"N_COORD97":2542521.04,"ADDRESS":"中華東路三段４４巷８４號","OBJECTID":452699},"geometry":{"x":170759.53000000212,"y":2542521.0400000028}},{"attributes":{"ID":452725,"DIS_CODE":0,"TOWNNAME":"東區","LI":"崇信里","LIN":"20鄰","STREET":"中華東路","SECT":"三段","MAREA":" ","LANE":"４４巷","ALLEY":" ","HOUSE_NO":"８６號","E_COORD97":170756.32999999999,"N_COORD97":2542526.6400000001,"ADDRESS":"中華東路三段４４巷８６號","OBJECTID":452700},"geometry":{"x":170756.33000000101,"y":2542526.6400000025}},{"attributes":{"ID":452726,"DIS_CODE":0,"TOWNNAME":"東區","LI":"崇信里","LIN":"20鄰","STREET":"中華東路","SECT":"三段","MAREA":" ","LANE":"４４巷","ALLEY":" ","HOUSE_NO":"８８號","E_COORD97":170752.12,"N_COORD97":2542532.6400000001,"ADDRESS":"中華東路三段４４巷８８號","OBJECTID":452701},"geometry":{"x":170752.12000000197,"y":2542532.6400000025}},{"attributes":{"ID":452727,"DIS_CODE":0,"TOWNNAME":"東區","LI":"崇信里","LIN":"20鄰","STREET":"中華東路","SECT":"三段","MAREA":" ","LANE":"４４巷","ALLEY":" ","HOUSE_NO":"９０號","E_COORD97":170749.32000000001,"N_COORD97":2542536.04,"ADDRESS":"中華東路三段４４巷９０號","OBJECTID":452702},"geometry":{"x":170749.32000000123,"y":2542536.040000001}},{"attributes":{"ID":452728,"DIS_CODE":0,"TOWNNAME":"東區","LI":"崇信里","LIN":"20鄰","STREET":"中華東路","SECT":"三段","MAREA":" ","LANE":"４４巷","ALLEY":" ","HOUSE_NO":"９２號","E_COORD97":170746.51999999999,"N_COORD97":2542539.2400000002,"ADDRESS":"中華東路三段４４巷９２號","OBJECTID":452703},"geometry":{"x":170746.51999999955,"y":2542539.2400000021}},{"attributes":{"ID":452729,"DIS_CODE":0,"TOWNNAME":"東區","LI":"崇信里","LIN":"20鄰","STREET":"中華東路","SECT":"三段","MAREA":" ","LANE":"４４巷","ALLEY":" ","HOUSE_NO":"９４號","E_COORD97":170743.31,"N_COORD97":2542542.8399999999,"ADDRESS":"中華東路三段４４巷９４號","OBJECTID":452704},"geometry":{"x":170743.30999999866,"y":2542542.8399999999}},{"attributes":{"ID":452730,"DIS_CODE":0,"TOWNNAME":"東區","LI":"崇信里","LIN":"20鄰","STREET":"中華東路","SECT":"三段","MAREA":" ","LANE":"４４巷","ALLEY":" ","HOUSE_NO":"９６號","E_COORD97":170741.10999999999,"N_COORD97":2542546.6400000001,"ADDRESS":"中華東路三段４４巷９６號","OBJECTID":452705},"geometry":{"x":170741.11000000127,"y":2542546.6400000025}},{"attributes":{"ID":452731,"DIS_CODE":0,"TOWNNAME":"東區","LI":"崇信里","LIN":"20鄰","STREET":"中華東路","SECT":"三段","MAREA":" ","LANE":"４４巷","ALLEY":" ","HOUSE_NO":"９８號","E_COORD97":170739.10999999999,"N_COORD97":2542550.04,"ADDRESS":"中華東路三段４４巷９８號","OBJECTID":452706},"geometry":{"x":170739.11000000127,"y":2542550.0399999991}},{"attributes":{"ID":452732,"DIS_CODE":0,"TOWNNAME":"東區","LI":"崇信里","LIN":"20鄰","STREET":"中華東路","SECT":"三段","MAREA":" ","LANE":"４４巷","ALLEY":" ","HOUSE_NO":"６９號","E_COORD97":170758.47,"N_COORD97":2542498.96,"ADDRESS":"中華東路三段４４巷６９號","OBJECTID":452707},"geometry":{"x":170758.47000000067,"y":2542498.9600000009}},{"attributes":{"ID":452733,"DIS_CODE":0,"TOWNNAME":"東區","LI":"崇信里","LIN":"20鄰","STREET":"中華東路","SECT":"三段","MAREA":" ","LANE":"４４巷","ALLEY":" ","HOUSE_NO":"７１號","E_COORD97":170753.70000000001,"N_COORD97":2542505.6699999999,"ADDRESS":"中華東路三段４４巷７１號","OBJECTID":452708},"geometry":{"x":170753.70000000112,"y":2542505.6700000018}},{"attributes":{"ID":452734,"DIS_CODE":0,"TOWNNAME":"東區","LI":"崇信里","LIN":"20鄰","STREET":"中華東路","SECT":"三段","MAREA":" ","LANE":"４４巷","ALLEY":" ","HOUSE_NO":"７３號","E_COORD97":170750.54999999999,"N_COORD97":2542508.3199999998,"ADDRESS":"中華東路三段４４巷７３號","OBJECTID":452709},"geometry":{"x":170750.55000000168,"y":2542508.3200000022}},{"attributes":{"ID":452735,"DIS_CODE":0,"TOWNNAME":"東區","LI":"崇信里","LIN":"20鄰","STREET":"中華東路","SECT":"三段","MAREA":" ","LANE":"４４巷","ALLEY":" ","HOUSE_NO":"７５號","E_COORD97":170748.37,"N_COORD97":2542511.23,"ADDRESS":"中華東路三段４４巷７５號","OBJECTID":452710},"geometry":{"x":170748.37000000011,"y":2542511.2300000042}},{"attributes":{"ID":452736,"DIS_CODE":0,"TOWNNAME":"東區","LI":"崇信里","LIN":"20鄰","STREET":"崇信街","SECT":" ","MAREA":" ","LANE":"５１巷","ALLEY":" ","HOUSE_NO":"１１號","E_COORD97":170769.70000000001,"N_COORD97":2542477.4900000002,"ADDRESS":"崇信街５１巷１１號","OBJECTID":452711},"geometry":{"x":170769.70000000019,"y":2542477.4900000002}},{"attributes":{"ID":452737,"DIS_CODE":0,"TOWNNAME":"東區","LI":"崇信里","LIN":"20鄰","STREET":"崇信街","SECT":" ","MAREA":" ","LANE":"５１巷","ALLEY":" ","HOUSE_NO":"１３號","E_COORD97":170774.42999999999,"N_COORD97":2542483.79,"ADDRESS":"崇信街５１巷１３號","OBJECTID":452712},"geometry":{"x":170774.4299999997,"y":2542483.790000001}},{"attributes":{"ID":452738,"DIS_CODE":0,"TOWNNAME":"東區","LI":"崇信里","LIN":"20鄰","STREET":"崇信街","SECT":" ","MAREA":" ","LANE":"５１巷","ALLEY":" ","HOUSE_NO":"７號","E_COORD97":170764.17999999999,"N_COORD97":2542470.3999999999,"ADDRESS":"崇信街５１巷７號","OBJECTID":452713},"geometry":{"x":170764.1799999997,"y":2542470.4000000022}},{"attributes":{"ID":452739,"DIS_CODE":0,"TOWNNAME":"永康區","LI":"勝利里","LIN":"20鄰","STREET":"勝學路","SECT":" ","MAREA":" ","LANE":"２６９巷","ALLEY":" ","HOUSE_NO":"１９號","E_COORD97":171149.10000000001,"N_COORD97":2545263.5,"ADDRESS":"勝學路２６９巷１９號","OBJECTID":452714},"geometry":{"x":171149.10000000056,"y":2545263.5}},{"attributes":{"ID":452740,"DIS_CODE":0,"TOWNNAME":"永康區","LI":"\u25A0行里","LIN":"20鄰","STREET":"正南五街","SECT":" ","MAREA":" ","LANE":"２８９巷","ALLEY":" ","HOUSE_NO":"６９號","E_COORD97":171798.79999999999,"N_COORD97":2548358.3500000001,"ADDRESS":"正南五街２８９巷６９號","OBJECTID":452715},"geometry":{"x":171798.80000000075,"y":2548358.3500000015}},{"attributes":{"ID":452741,"DIS_CODE":0,"TOWNNAME":"永康區","LI":"\u25A0行里","LIN":"20鄰","STREET":"正南五街","SECT":" ","MAREA":" ","LANE":"２８９巷","ALLEY":" ","HOUSE_NO":"６１號","E_COORD97":171785.35000000001,"N_COORD97":2548363.1000000001,"ADDRESS":"正南五街２８９巷６１號","OBJECTID":452716},"geometry":{"x":171785.34999999963,"y":2548363.1000000034}},{"attributes":{"ID":452742,"DIS_CODE":0,"TOWNNAME":"新營區","LI":"興業里","LIN":" ","STREET":"中興路","SECT":" ","MAREA":" ","LANE":"１３巷","ALLEY":" ","HOUSE_NO":"２７之１號","E_COORD97":180265.54999999999,"N_COORD97":2577977.9300000002,"ADDRESS":"中興路１３巷２７之１號","OBJECTID":452717},"geometry":{"x":180265.55000000168,"y":2577977.9299999997}},{"attributes":{"ID":452743,"DIS_CODE":0,"TOWNNAME":"鹽水區","LI":"岸內里","LIN":"20鄰","STREET":"清泉路","SECT":" ","MAREA":" ","LANE":"１７５巷","ALLEY":" ","HOUSE_NO":"６號","E_COORD97":175142.35999999999,"N_COORD97":2580495.6200000001,"ADDRESS":"清泉路１７５巷６號","OBJECTID":452718},"geometry":{"x":175142.36000000034,"y":2580495.6200000029}},{"attributes":{"ID":452744,"DIS_CODE":0,"TOWNNAME":"鹽水區","LI":"岸內里","LIN":"20鄰","STREET":"清泉路","SECT":" ","MAREA":" ","LANE":"１７５巷","ALLEY":" ","HOUSE_NO":"８號","E_COORD97":175135.60999999999,"N_COORD97":2580507.8399999999,"ADDRESS":"清泉路１７５巷８號","OBJECTID":452719},"geometry":{"x":175135.61000000034,"y":2580507.8399999999}},{"attributes":{"ID":452745,"DIS_CODE":0,"TOWNNAME":"南區","LI":"廣州里","LIN":"17鄰","STREET":"福吉三街","SECT":" ","MAREA":" ","LANE":"８０巷","ALLEY":" ","HOUSE_NO":"６號","E_COORD97":167233.59,"N_COORD97":2542788.4199999999,"ADDRESS":"福吉三街８０巷６號","OBJECTID":452720},"geometry":{"x":167233.58999999985,"y":2542788.4200000018}},{"attributes":{"ID":452746,"DIS_CODE":0,"TOWNNAME":"安平區","LI":"平安里","LIN":"9鄰","STREET":"安平路","SECT":" ","MAREA":" ","LANE":"４２６巷","ALLEY":" ","HOUSE_NO":"１９號","E_COORD97":165335.35000000001,"N_COORD97":2544386.8500000001,"ADDRESS":"安平路４２６巷１９號","OBJECTID":452721},"geometry":{"x":165335.34999999963,"y":2544386.8499999996}},{"attributes":{"ID":452747,"DIS_CODE":0,"TOWNNAME":"安平區","LI":"平安里","LIN":"9鄰","STREET":"安平路","SECT":" ","MAREA":" ","LANE":"４２６巷","ALLEY":" ","HOUSE_NO":"８號","E_COORD97":165344.04999999999,"N_COORD97":2544357.5800000001,"ADDRESS":"安平路４２６巷８號","OBJECTID":452722},"geometry":{"x":165344.04999999981,"y":2544357.5800000019}},{"attributes":{"ID":452748,"DIS_CODE":0,"TOWNNAME":"安平區","LI":"平安里","LIN":"9鄰","STREET":"安平路","SECT":" ","MAREA":" ","LANE":"４２６巷","ALLEY":" ","HOUSE_NO":"６號","E_COORD97":165343.29000000001,"N_COORD97":2544355.29,"ADDRESS":"安平路４２６巷６號","OBJECTID":452723},"geometry":{"x":165343.29000000097,"y":2544355.2899999991}},{"attributes":{"ID":452749,"DIS_CODE":0,"TOWNNAME":"安平區","LI":"平安里","LIN":"9鄰","STREET":"安平路","SECT":" ","MAREA":" ","LANE":"４２６巷","ALLEY":" ","HOUSE_NO":"１０號","E_COORD97":165344.31,"N_COORD97":2544360.1099999999,"ADDRESS":"安平路４２６巷１０號","OBJECTID":452724},"geometry":{"x":165344.31000000145,"y":2544360.1100000013}},{"attributes":{"ID":452750,"DIS_CODE":0,"TOWNNAME":"安平區","LI":"平安里","LIN":"9鄰","STREET":"安平路","SECT":" ","MAREA":" ","LANE":"４２６巷","ALLEY":" ","HOUSE_NO":"４號","E_COORD97":165344.04999999999,"N_COORD97":2544353.0099999998,"ADDRESS":"安平路４２６巷４號","OBJECTID":452725},"geometry":{"x":165344.04999999981,"y":2544353.0100000035}},{"attributes":{"ID":452751,"DIS_CODE":0,"TOWNNAME":"安平區","LI":"平安里","LIN":"9鄰","STREET":"安平路","SECT":" ","MAREA":" ","LANE":"４２６巷","ALLEY":" ","HOUSE_NO":"１號","E_COORD97":165327.82000000001,"N_COORD97":2544342.6099999999,"ADDRESS":"安平路４２６巷１號","OBJECTID":452726},"geometry":{"x":165327.81999999937,"y":2544342.6100000013}},{"attributes":{"ID":452752,"DIS_CODE":0,"TOWNNAME":"南區","LI":"田寮里","LIN":"9鄰","STREET":"新興路","SECT":" ","MAREA":" ","LANE":"１６１巷","ALLEY":" ","HOUSE_NO":"８號","E_COORD97":167472.92999999999,"N_COORD97":2541996.6899999999,"ADDRESS":"新興路１６１巷８號","OBJECTID":452727},"geometry":{"x":167472.93000000063,"y":2541996.6899999995}},{"attributes":{"ID":452753,"DIS_CODE":0,"TOWNNAME":"安南區","LI":"溪東里","LIN":"9鄰","STREET":"府安路","SECT":"五段","MAREA":" ","LANE":"１１巷","ALLEY":" ","HOUSE_NO":"２９號","E_COORD97":168447.89999999999,"N_COORD97":2547299.3100000001,"ADDRESS":"府安路五段１１巷２９號","OBJECTID":452728},"geometry":{"x":168447.90000000037,"y":2547299.3100000024}},{"attributes":{"ID":452754,"DIS_CODE":0,"TOWNNAME":"安南區","LI":"溪東里","LIN":"9鄰","STREET":"府安路","SECT":"五段","MAREA":" ","LANE":"１１巷","ALLEY":" ","HOUSE_NO":"３０號","E_COORD97":168462.41,"N_COORD97":2547328.54,"ADDRESS":"府安路五段１１巷３０號","OBJECTID":452729},"geometry":{"x":168462.41000000108,"y":2547328.5400000028}},{"attributes":{"ID":452755,"DIS_CODE":0,"TOWNNAME":"安南區","LI":"溪東里","LIN":"9鄰","STREET":"府安路","SECT":"五段","MAREA":" ","LANE":"１１巷","ALLEY":" ","HOUSE_NO":"３２號","E_COORD97":168462.25,"N_COORD97":2547330.9300000002,"ADDRESS":"府安路五段１１巷３２號","OBJECTID":452730},"geometry":{"x":168462.25,"y":2547330.9300000016}},{"attributes":{"ID":452756,"DIS_CODE":0,"TOWNNAME":"安南區","LI":"佃西里","LIN":"9鄰","STREET":"公學路","SECT":"四段","MAREA":" ","LANE":"３２４巷","ALLEY":" ","HOUSE_NO":"５號","E_COORD97":165272.31,"N_COORD97":2551836.75,"ADDRESS":"公學路四段３２４巷５號","OBJECTID":452731},"geometry":{"x":165272.30999999959,"y":2551836.75}},{"attributes":{"ID":452757,"DIS_CODE":0,"TOWNNAME":"安南區","LI":"鹿耳里","LIN":"9鄰","STREET":"北汕尾二路","SECT":" ","MAREA":" ","LANE":"５５０巷","ALLEY":" ","HOUSE_NO":"１２號","E_COORD97":160544.51000000001,"N_COORD97":2548023.71,"ADDRESS":"北汕尾二路５５０巷１２號","OBJECTID":452732},"geometry":{"x":160544.51000000071,"y":2548023.7100000009}},{"attributes":{"ID":452758,"DIS_CODE":0,"TOWNNAME":"安南區","LI":"鹿耳里","LIN":"9鄰","STREET":"北汕尾二路","SECT":" ","MAREA":" ","LANE":"５５０巷","ALLEY":" ","HOUSE_NO":"１４號","E_COORD97":160547.23000000001,"N_COORD97":2548019.6200000001,"ADDRESS":"北汕尾二路５５０巷１４號","OBJECTID":452733},"geometry":{"x":160547.23000000138,"y":2548019.6200000029}},{"attributes":{"ID":452759,"DIS_CODE":0,"TOWNNAME":"安南區","LI":"鹿耳里","LIN":"9鄰","STREET":"北汕尾二路","SECT":" ","MAREA":" ","LANE":"５５０巷","ALLEY":" ","HOUSE_NO":"１６號","E_COORD97":160549.28,"N_COORD97":2548017.9199999999,"ADDRESS":"北汕尾二路５５０巷１６號","OBJECTID":452734},"geometry":{"x":160549.28000000026,"y":2548017.9199999999}},{"attributes":{"ID":452760,"DIS_CODE":0,"TOWNNAME":"安南區","LI":"鹿耳里","LIN":"9鄰","STREET":"北汕尾二路","SECT":" ","MAREA":" ","LANE":"５５０巷","ALLEY":" ","HOUSE_NO":"１８號","E_COORD97":160551.66,"N_COORD97":2548016.2200000002,"ADDRESS":"北汕尾二路５５０巷１８號","OBJECTID":452735},"geometry":{"x":160551.66000000015,"y":2548016.2200000007}},{"attributes":{"ID":452761,"DIS_CODE":0,"TOWNNAME":"安南區","LI":"鹿耳里","LIN":"9鄰","STREET":"北汕尾二路","SECT":" ","MAREA":" ","LANE":"５５０巷","ALLEY":" ","HOUSE_NO":"２０號","E_COORD97":160554.72,"N_COORD97":2548013.8399999999,"ADDRESS":"北汕尾二路５５０巷２０號","OBJECTID":452736},"geometry":{"x":160554.72000000067,"y":2548013.8400000017}},{"attributes":{"ID":452762,"DIS_CODE":0,"TOWNNAME":"安南區","LI":"鹿耳里","LIN":"9鄰","STREET":"北汕尾二路","SECT":" ","MAREA":" ","LANE":"５５０巷","ALLEY":" ","HOUSE_NO":"２２號","E_COORD97":160558.13,"N_COORD97":2548012.1400000001,"ADDRESS":"北汕尾二路５５０巷２２號","OBJECTID":452737},"geometry":{"x":160558.12999999989,"y":2548012.1400000025}},{"attributes":{"ID":452763,"DIS_CODE":0,"TOWNNAME":"安南區","LI":"鹿耳里","LIN":"9鄰","STREET":"北汕尾二路","SECT":" ","MAREA":" ","LANE":"５５０巷","ALLEY":" ","HOUSE_NO":"３２號","E_COORD97":160575.16,"N_COORD97":2547996.1400000001,"ADDRESS":"北汕尾二路５５０巷３２號","OBJECTID":452738},"geometry":{"x":160575.16000000015,"y":2547996.1400000006}},{"attributes":{"ID":452764,"DIS_CODE":0,"TOWNNAME":"安南區","LI":"鹿耳里","LIN":"9鄰","STREET":"北汕尾二路","SECT":" ","MAREA":" ","LANE":"５５０巷","ALLEY":" ","HOUSE_NO":"３４號","E_COORD97":160577.54000000001,"N_COORD97":2547994.1000000001,"ADDRESS":"北汕尾二路５５０巷３４號","OBJECTID":452739},"geometry":{"x":160577.54000000004,"y":2547994.1000000015}},{"attributes":{"ID":452765,"DIS_CODE":0,"TOWNNAME":"安南區","LI":"鹿耳里","LIN":"9鄰","STREET":"北汕尾二路","SECT":" ","MAREA":" ","LANE":"５５０巷","ALLEY":" ","HOUSE_NO":"３６號","E_COORD97":160580.26000000001,"N_COORD97":2547992.7400000002,"ADDRESS":"北汕尾二路５５０巷３６號","OBJECTID":452740},"geometry":{"x":160580.26000000071,"y":2547992.7399999984}},{"attributes":{"ID":452766,"DIS_CODE":0,"TOWNNAME":"安南區","LI":"鹿耳里","LIN":"9鄰","STREET":"北汕尾二路","SECT":" ","MAREA":" ","LANE":"５５０巷","ALLEY":" ","HOUSE_NO":"３８號","E_COORD97":160583.67000000001,"N_COORD97":2547991.04,"ADDRESS":"北汕尾二路５５０巷３８號","OBJECTID":452741},"geometry":{"x":160583.67000000179,"y":2547991.040000001}},{"attributes":{"ID":452767,"DIS_CODE":0,"TOWNNAME":"安南區","LI":"鹿耳里","LIN":"9鄰","STREET":"北汕尾二路","SECT":" ","MAREA":" ","LANE":"５５０巷","ALLEY":" ","HOUSE_NO":"４０號","E_COORD97":160587.07000000001,"N_COORD97":2547988.6600000001,"ADDRESS":"北汕尾二路５５０巷４０號","OBJECTID":452742},"geometry":{"x":160587.07000000123,"y":2547988.6600000001}},{"attributes":{"ID":452768,"DIS_CODE":0,"TOWNNAME":"安南區","LI":"鹿耳里","LIN":"9鄰","STREET":"北汕尾二路","SECT":" ","MAREA":" ","LANE":"５５０巷","ALLEY":" ","HOUSE_NO":"４６號","E_COORD97":160596.26999999999,"N_COORD97":2547980.1499999999,"ADDRESS":"北汕尾二路５５０巷４６號","OBJECTID":452743},"geometry":{"x":160596.27000000142,"y":2547980.1500000041}},{"attributes":{"ID":452769,"DIS_CODE":0,"TOWNNAME":"安平區","LI":"平安里","LIN":"7鄰","STREET":"華平路","SECT":" ","MAREA":" ","LANE":" ","ALLEY":" ","HOUSE_NO":"７２１號","E_COORD97":165504.29999999999,"N_COORD97":2544384.6200000001,"ADDRESS":"華平路７２１號","OBJECTID":452744},"geometry":{"x":165504.30000000075,"y":2544384.6200000029}},{"attributes":{"ID":452770,"DIS_CODE":0,"TOWNNAME":"永康區","LI":"網寮里","LIN":"26鄰","STREET":"永大一路","SECT":" ","MAREA":" ","LANE":"１０８巷","ALLEY":" ","HOUSE_NO":"２１號十樓之２","E_COORD97":174022.76000000001,"N_COORD97":2546453.4300000002,"ADDRESS":"永大一路１０８巷２１號十樓之２","OBJECTID":452745},"geometry":{"x":174022.76000000071,"y":2546453.4300000016}},{"attributes":{"ID":452771,"DIS_CODE":0,"TOWNNAME":"永康區","LI":"網寮里","LIN":"26鄰","STREET":"永大一路","SECT":" ","MAREA":" ","LANE":"１０８巷","ALLEY":" ","HOUSE_NO":"２１號七樓之２","E_COORD97":174022.76000000001,"N_COORD97":2546453.4300000002,"ADDRESS":"永大一路１０８巷２１號七樓之２","OBJECTID":452746},"geometry":{"x":174022.76000000071,"y":2546453.4300000016}},{"attributes":{"ID":452772,"DIS_CODE":0,"TOWNNAME":"永康區","LI":"網寮里","LIN":"26鄰","STREET":"永大一路","SECT":" ","MAREA":" ","LANE":"１０８巷","ALLEY":" ","HOUSE_NO":"２３號三樓之２","E_COORD97":174019.75,"N_COORD97":2546467.1699999999,"ADDRESS":"永大一路１０８巷２３號三樓之２","OBJECTID":452747},"geometry":{"x":174019.75000000093,"y":2546467.1699999999}},{"attributes":{"ID":452773,"DIS_CODE":0,"TOWNNAME":"永康區","LI":"網寮里","LIN":"26鄰","STREET":"永大一路","SECT":" ","MAREA":" ","LANE":"１０８巷","ALLEY":" ","HOUSE_NO":"２１號七樓之１","E_COORD97":174022.63,"N_COORD97":2546453.4300000002,"ADDRESS":"永大一路１０８巷２１號七樓之１","OBJECTID":452748},"geometry":{"x":174022.62999999989,"y":2546453.4300000016}},{"attributes":{"ID":452774,"DIS_CODE":0,"TOWNNAME":"永康區","LI":"網寮里","LIN":"26鄰","STREET":"永大一路","SECT":" ","MAREA":" ","LANE":"１０８巷","ALLEY":" ","HOUSE_NO":"２１號八樓之２","E_COORD97":174022.76000000001,"N_COORD97":2546453.4300000002,"ADDRESS":"永大一路１０８巷２１號八樓之２","OBJECTID":452749},"geometry":{"x":174022.76000000071,"y":2546453.4300000016}},{"attributes":{"ID":452775,"DIS_CODE":0,"TOWNNAME":"南區","LI":"開南里","LIN":"24鄰","STREET":"新建路","SECT":" ","MAREA":" ","LANE":"４９巷","ALLEY":" ","HOUSE_NO":"３號","E_COORD97":166524.32999999999,"N_COORD97":2540848.98,"ADDRESS":"新建路４９巷３號","OBJECTID":452750},"geometry":{"x":166524.32999999914,"y":2540848.9800000023}},{"attributes":{"ID":452776,"DIS_CODE":0,"TOWNNAME":"永康區","LI":"網寮里","LIN":"26鄰","STREET":"永大一路","SECT":" ","MAREA":" ","LANE":"１０８巷","ALLEY":" ","HOUSE_NO":"２３號六樓之３","E_COORD97":174019.72,"N_COORD97":2546467.1699999999,"ADDRESS":"永大一路１０８巷２３號六樓之３","OBJECTID":452751},"geometry":{"x":174019.72000000067,"y":2546467.1699999999}},{"attributes":{"ID":452777,"DIS_CODE":0,"TOWNNAME":"永康區","LI":"網寮里","LIN":"26鄰","STREET":"永大一路","SECT":" ","MAREA":" ","LANE":"１０８巷","ALLEY":" ","HOUSE_NO":"２３號七樓之１","E_COORD97":174019.62,"N_COORD97":2546467.1699999999,"ADDRESS":"永大一路１０８巷２３號七樓之１","OBJECTID":452752},"geometry":{"x":174019.62000000011,"y":2546467.1699999999}},{"attributes":{"ID":452778,"DIS_CODE":0,"TOWNNAME":"永康區","LI":"網寮里","LIN":"26鄰","STREET":"永大一路","SECT":" ","MAREA":" ","LANE":"１０８巷","ALLEY":" ","HOUSE_NO":"２３號四樓之５","E_COORD97":174019.76999999999,"N_COORD97":2546467.1699999999,"ADDRESS":"永大一路１０８巷２３號四樓之５","OBJECTID":452753},"geometry":{"x":174019.76999999955,"y":2546467.1699999999}},{"attributes":{"ID":452779,"DIS_CODE":0,"TOWNNAME":"永康區","LI":"網寮里","LIN":"26鄰","STREET":"永大一路","SECT":" ","MAREA":" ","LANE":"１０８巷","ALLEY":" ","HOUSE_NO":"２３號三樓之１","E_COORD97":174019.62,"N_COORD97":2546467.1699999999,"ADDRESS":"永大一路１０８巷２３號三樓之１","OBJECTID":452754},"geometry":{"x":174019.62000000011,"y":2546467.1699999999}},{"attributes":{"ID":452780,"DIS_CODE":0,"TOWNNAME":"永康區","LI":"網寮里","LIN":"26鄰","STREET":"永大一路","SECT":" ","MAREA":" ","LANE":"１０８巷","ALLEY":" ","HOUSE_NO":"２３號五樓之２","E_COORD97":174019.75,"N_COORD97":2546467.1699999999,"ADDRESS":"永大一路１０８巷２３號五樓之２","OBJECTID":452755},"geometry":{"x":174019.75000000093,"y":2546467.1699999999}},{"attributes":{"ID":452781,"DIS_CODE":0,"TOWNNAME":"安南區","LI":"鹿耳里","LIN":"9鄰","STREET":"北汕尾二路","SECT":" ","MAREA":" ","LANE":"５５０巷","ALLEY":" ","HOUSE_NO":"６號","E_COORD97":160538.38,"N_COORD97":2548027.79,"ADDRESS":"北汕尾二路５５０巷６號","OBJECTID":452756},"geometry":{"x":160538.38000000082,"y":2548027.7899999991}},{"attributes":{"ID":452782,"DIS_CODE":0,"TOWNNAME":"安南區","LI":"鹿耳里","LIN":"9鄰","STREET":"北汕尾二路","SECT":" ","MAREA":" ","LANE":"５５０巷","ALLEY":" ","HOUSE_NO":"４號","E_COORD97":160536.67999999999,"N_COORD97":2548028.8100000001,"ADDRESS":"北汕尾二路５５０巷４號","OBJECTID":452757},"geometry":{"x":160536.68000000063,"y":2548028.8100000005}},{"attributes":{"ID":452783,"DIS_CODE":0,"TOWNNAME":"安南區","LI":"鹿耳里","LIN":"9鄰","STREET":"北汕尾二路","SECT":" ","MAREA":" ","LANE":"５５０巷","ALLEY":" ","HOUSE_NO":"５２號","E_COORD97":160609.54999999999,"N_COORD97":2547969.6000000001,"ADDRESS":"北汕尾二路５５０巷５２號","OBJECTID":452758},"geometry":{"x":160609.54999999981,"y":2547969.6000000034}},{"attributes":{"ID":452784,"DIS_CODE":0,"TOWNNAME":"安南區","LI":"鹿耳里","LIN":"9鄰","STREET":"北汕尾二路","SECT":" ","MAREA":" ","LANE":"５５０巷","ALLEY":" ","HOUSE_NO":"４８號","E_COORD97":160601.38,"N_COORD97":2547976.0699999998,"ADDRESS":"北汕尾二路５５０巷４８號","OBJECTID":452759},"geometry":{"x":160601.38000000082,"y":2547976.0700000003}},{"attributes":{"ID":452785,"DIS_CODE":0,"TOWNNAME":"安南區","LI":"鹿耳里","LIN":"9鄰","STREET":"北汕尾二路","SECT":" ","MAREA":" ","LANE":"５５０巷","ALLEY":" ","HOUSE_NO":"５４號","E_COORD97":160612.60999999999,"N_COORD97":2547967.5600000001,"ADDRESS":"北汕尾二路５５０巷５４號","OBJECTID":452760},"geometry":{"x":160612.61000000034,"y":2547967.5600000042}},{"attributes":{"ID":452786,"DIS_CODE":0,"TOWNNAME":"安南區","LI":"鹿耳里","LIN":"9鄰","STREET":"北汕尾二路","SECT":" ","MAREA":" ","LANE":"５５０巷","ALLEY":" ","HOUSE_NO":"５６號","E_COORD97":160614.66,"N_COORD97":2547965.52,"ADDRESS":"北汕尾二路５５０巷５６號","OBJECTID":452761},"geometry":{"x":160614.66000000201,"y":2547965.5199999996}},{"attributes":{"ID":452787,"DIS_CODE":0,"TOWNNAME":"安南區","LI":"鹿耳里","LIN":"9鄰","STREET":"北汕尾二路","SECT":" ","MAREA":" ","LANE":"５５０巷","ALLEY":" ","HOUSE_NO":"５８號","E_COORD97":160617.04000000001,"N_COORD97":2547963.48,"ADDRESS":"北汕尾二路５５０巷５８號","OBJECTID":452762},"geometry":{"x":160617.0400000019,"y":2547963.4800000004}},{"attributes":{"ID":452788,"DIS_CODE":0,"TOWNNAME":"安南區","LI":"鹿耳里","LIN":"9鄰","STREET":"北汕尾二路","SECT":" ","MAREA":" ","LANE":"５５０巷","ALLEY":" ","HOUSE_NO":"６０號","E_COORD97":160619.42000000001,"N_COORD97":2547960.7599999998,"ADDRESS":"北汕尾二路５５０巷６０號","OBJECTID":452763},"geometry":{"x":160619.42000000179,"y":2547960.7599999998}},{"attributes":{"ID":452789,"DIS_CODE":0,"TOWNNAME":"安南區","LI":"鹿耳里","LIN":"9鄰","STREET":"北汕尾二路","SECT":" ","MAREA":" ","LANE":"５５０巷","ALLEY":" ","HOUSE_NO":"６２號","E_COORD97":160621.81,"N_COORD97":2547958.3799999999,"ADDRESS":"北汕尾二路５５０巷６２號","OBJECTID":452764},"geometry":{"x":160621.81000000052,"y":2547958.3800000008}},{"attributes":{"ID":452790,"DIS_CODE":0,"TOWNNAME":"安南區","LI":"鹿耳里","LIN":"9鄰","STREET":"北汕尾二路","SECT":" ","MAREA":" ","LANE":"５５０巷","ALLEY":" ","HOUSE_NO":"６４號","E_COORD97":160624.19,"N_COORD97":2547956.3300000001,"ADDRESS":"北汕尾二路５５０巷６４號","OBJECTID":452765},"geometry":{"x":160624.19000000041,"y":2547956.3300000019}},{"attributes":{"ID":452791,"DIS_CODE":0,"TOWNNAME":"安南區","LI":"鹿耳里","LIN":"9鄰","STREET":"北汕尾二路","SECT":" ","MAREA":" ","LANE":"５５０巷","ALLEY":" ","HOUSE_NO":"６６號","E_COORD97":160626.92000000001,"N_COORD97":2547954.6299999999,"ADDRESS":"北汕尾二路５５０巷６６號","OBJECTID":452766},"geometry":{"x":160626.92000000086,"y":2547954.629999999}},{"attributes":{"ID":452792,"DIS_CODE":0,"TOWNNAME":"安南區","LI":"鹿耳里","LIN":"9鄰","STREET":"北汕尾二路","SECT":" ","MAREA":" ","LANE":"５５０巷","ALLEY":" ","HOUSE_NO":"７０號","E_COORD97":160632.35999999999,"N_COORD97":2547947.4900000002,"ADDRESS":"北汕尾二路５５０巷７０號","OBJECTID":452767},"geometry":{"x":160632.36000000127,"y":2547947.4900000039}},{"attributes":{"ID":452793,"DIS_CODE":0,"TOWNNAME":"安南區","LI":"鹿耳里","LIN":"9鄰","STREET":"北汕尾二路","SECT":" ","MAREA":" ","LANE":"５５０巷","ALLEY":" ","HOUSE_NO":"７２號","E_COORD97":160635.09,"N_COORD97":2547946.8100000001,"ADDRESS":"北汕尾二路５５０巷７２號","OBJECTID":452768},"geometry":{"x":160635.09000000171,"y":2547946.8100000024}},{"attributes":{"ID":452794,"DIS_CODE":0,"TOWNNAME":"安南區","LI":"鹿耳里","LIN":"9鄰","STREET":"北汕尾二路","SECT":" ","MAREA":" ","LANE":"５５０巷","ALLEY":" ","HOUSE_NO":"７４號","E_COORD97":160637.47,"N_COORD97":2547945.1099999999,"ADDRESS":"北汕尾二路５５０巷７４號","OBJECTID":452769},"geometry":{"x":160637.4700000016,"y":2547945.1099999994}},{"attributes":{"ID":452795,"DIS_CODE":0,"TOWNNAME":"安南區","LI":"鹿耳里","LIN":"9鄰","STREET":"北汕尾二路","SECT":" ","MAREA":" ","LANE":"５５０巷","ALLEY":" ","HOUSE_NO":"７６號","E_COORD97":160639.51000000001,"N_COORD97":2547942.3799999999,"ADDRESS":"北汕尾二路５５０巷７６號","OBJECTID":452770},"geometry":{"x":160639.51000000071,"y":2547942.379999999}},{"attributes":{"ID":452796,"DIS_CODE":0,"TOWNNAME":"安南區","LI":"鹿耳里","LIN":"9鄰","STREET":"北汕尾二路","SECT":" ","MAREA":" ","LANE":"５５０巷","ALLEY":" ","HOUSE_NO":"７８號","E_COORD97":160642.57999999999,"N_COORD97":2547939.6600000001,"ADDRESS":"北汕尾二路５５０巷７８號","OBJECTID":452771},"geometry":{"x":160642.58000000101,"y":2547939.660000002}},{"attributes":{"ID":452797,"DIS_CODE":0,"TOWNNAME":"安南區","LI":"溪墘里","LIN":"26鄰","STREET":"安寧街","SECT":" ","MAREA":" ","LANE":"５１巷","ALLEY":" ","HOUSE_NO":"２號","E_COORD97":167393.67999999999,"N_COORD97":2547006.5,"ADDRESS":"安寧街５１巷２號","OBJECTID":452772},"geometry":{"x":167393.68000000063,"y":2547006.5}},{"attributes":{"ID":452798,"DIS_CODE":0,"TOWNNAME":"永康區","LI":"網寮里","LIN":"26鄰","STREET":"永大一路","SECT":" ","MAREA":" ","LANE":"１０８巷","ALLEY":" ","HOUSE_NO":"２１號六樓之２","E_COORD97":174022.76000000001,"N_COORD97":2546453.4300000002,"ADDRESS":"永大一路１０８巷２１號六樓之２","OBJECTID":452773},"geometry":{"x":174022.76000000071,"y":2546453.4300000016}},{"attributes":{"ID":452799,"DIS_CODE":0,"TOWNNAME":"安南區","LI":"溪墘里","LIN":"26鄰","STREET":"安寧街","SECT":" ","MAREA":" ","LANE":"５１巷","ALLEY":" ","HOUSE_NO":"１３號","E_COORD97":167365.39999999999,"N_COORD97":2546977.04,"ADDRESS":"安寧街５１巷１３號","OBJECTID":452774},"geometry":{"x":167365.4000000013,"y":2546977.040000001}},{"attributes":{"ID":452800,"DIS_CODE":0,"TOWNNAME":"永康區","LI":"網寮里","LIN":"26鄰","STREET":"永大一路","SECT":" ","MAREA":" ","LANE":"１０８巷","ALLEY":" ","HOUSE_NO":"２１號三樓之２","E_COORD97":174022.76000000001,"N_COORD97":2546453.4300000002,"ADDRESS":"永大一路１０８巷２１號三樓之２","OBJECTID":452775},"geometry":{"x":174022.76000000071,"y":2546453.4300000016}},{"attributes":{"ID":452801,"DIS_CODE":0,"TOWNNAME":"永康區","LI":"復華里","LIN":"26鄰","STREET":"復華八街","SECT":" ","MAREA":" ","LANE":"４７巷","ALLEY":" ","HOUSE_NO":"３４號六樓之１","E_COORD97":172703.03,"N_COORD97":2546385.9500000002,"ADDRESS":"復華八街４７巷３４號六樓之１","OBJECTID":452776},"geometry":{"x":172703.03000000119,"y":2546385.9499999993}},{"attributes":{"ID":452802,"DIS_CODE":0,"TOWNNAME":"永康區","LI":"復華里","LIN":"26鄰","STREET":"復華八街","SECT":" ","MAREA":" ","LANE":"４７巷","ALLEY":" ","HOUSE_NO":"３６號四樓之３","E_COORD97":172690.37,"N_COORD97":2546385.6800000002,"ADDRESS":"復華八街４７巷３６號四樓之３","OBJECTID":452777},"geometry":{"x":172690.37000000104,"y":2546385.6800000034}},{"attributes":{"ID":452803,"DIS_CODE":0,"TOWNNAME":"安平區","LI":"平安里","LIN":"7鄰","STREET":"華平路","SECT":" ","MAREA":" ","LANE":" ","ALLEY":" ","HOUSE_NO":"７２３號","E_COORD97":165503.17999999999,"N_COORD97":2544388.8999999999,"ADDRESS":"華平路７２３號","OBJECTID":452778},"geometry":{"x":165503.18000000063,"y":2544388.9000000022}},{"attributes":{"ID":452804,"DIS_CODE":0,"TOWNNAME":"永康區","LI":"復華里","LIN":"26鄰","STREET":"復華八街","SECT":" ","MAREA":" ","LANE":"４７巷","ALLEY":" ","HOUSE_NO":"３６號二樓之２","E_COORD97":172690.41,"N_COORD97":2546385.6800000002,"ADDRESS":"復華八街４７巷３６號二樓之２","OBJECTID":452779},"geometry":{"x":172690.41000000015,"y":2546385.6800000034}},{"attributes":{"ID":452805,"DIS_CODE":0,"TOWNNAME":"永康區","LI":"復華里","LIN":"26鄰","STREET":"復華八街","SECT":" ","MAREA":" ","LANE":"４７巷","ALLEY":" ","HOUSE_NO":"３４號十樓之３","E_COORD97":172703.12,"N_COORD97":2546385.9500000002,"ADDRESS":"復華八街４７巷３４號十樓之３","OBJECTID":452780},"geometry":{"x":172703.12000000197,"y":2546385.9499999993}},{"attributes":{"ID":452806,"DIS_CODE":0,"TOWNNAME":"永康區","LI":"復華里","LIN":"26鄰","STREET":"復華八街","SECT":" ","MAREA":" ","LANE":"４７巷","ALLEY":" ","HOUSE_NO":"３６號四樓之７","E_COORD97":172690.35000000001,"N_COORD97":2546385.6800000002,"ADDRESS":"復華八街４７巷３６號四樓之７","OBJECTID":452781},"geometry":{"x":172690.34999999963,"y":2546385.6800000034}},{"attributes":{"ID":452807,"DIS_CODE":0,"TOWNNAME":"永康區","LI":"復華里","LIN":"26鄰","STREET":"復華八街","SECT":" ","MAREA":" ","LANE":"４７巷","ALLEY":" ","HOUSE_NO":"３６號十樓之３","E_COORD97":172690.37,"N_COORD97":2546385.6800000002,"ADDRESS":"復華八街４７巷３６號十樓之３","OBJECTID":452782},"geometry":{"x":172690.37000000104,"y":2546385.6800000034}},{"attributes":{"ID":452808,"DIS_CODE":0,"TOWNNAME":"永康區","LI":"復華里","LIN":"26鄰","STREET":"復華八街","SECT":" ","MAREA":" ","LANE":"４７巷","ALLEY":" ","HOUSE_NO":"３４號七樓之６","E_COORD97":172703.13,"N_COORD97":2546385.9500000002,"ADDRESS":"復華八街４７巷３４號七樓之６","OBJECTID":452783},"geometry":{"x":172703.13000000082,"y":2546385.9499999993}},{"attributes":{"ID":452809,"DIS_CODE":0,"TOWNNAME":"永康區","LI":"復華里","LIN":"26鄰","STREET":"復華八街","SECT":" ","MAREA":" ","LANE":"４７巷","ALLEY":" ","HOUSE_NO":"３４號十樓之２","E_COORD97":172703.16,"N_COORD97":2546385.9500000002,"ADDRESS":"復華八街４７巷３４號十樓之２","OBJECTID":452784},"geometry":{"x":172703.16000000108,"y":2546385.9499999993}},{"attributes":{"ID":452810,"DIS_CODE":0,"TOWNNAME":"永康區","LI":"復華里","LIN":"26鄰","STREET":"復華八街","SECT":" ","MAREA":" ","LANE":"４７巷","ALLEY":" ","HOUSE_NO":"３４號十樓之１","E_COORD97":172703.03,"N_COORD97":2546385.9500000002,"ADDRESS":"復華八街４７巷３４號十樓之１","OBJECTID":452785},"geometry":{"x":172703.03000000119,"y":2546385.9499999993}},{"attributes":{"ID":452811,"DIS_CODE":0,"TOWNNAME":"永康區","LI":"復華里","LIN":"26鄰","STREET":"復華八街","SECT":" ","MAREA":" ","LANE":"４７巷","ALLEY":" ","HOUSE_NO":"３４號八樓之５","E_COORD97":172703.17999999999,"N_COORD97":2546385.9500000002,"ADDRESS":"復華八街４７巷３４號八樓之５","OBJECTID":452786},"geometry":{"x":172703.1799999997,"y":2546385.9499999993}},{"attributes":{"ID":452812,"DIS_CODE":0,"TOWNNAME":"永康區","LI":"復華里","LIN":"26鄰","STREET":"復華八街","SECT":" ","MAREA":" ","LANE":"４７巷","ALLEY":" ","HOUSE_NO":"３６號五樓之５","E_COORD97":172690.42999999999,"N_COORD97":2546385.6800000002,"ADDRESS":"復華八街４７巷３６號五樓之５","OBJECTID":452787},"geometry":{"x":172690.43000000156,"y":2546385.6800000034}},{"attributes":{"ID":452813,"DIS_CODE":0,"TOWNNAME":"永康區","LI":"復華里","LIN":"26鄰","STREET":"復華八街","SECT":" ","MAREA":" ","LANE":"４７巷","ALLEY":" ","HOUSE_NO":"３６號七樓之２","E_COORD97":172690.41,"N_COORD97":2546385.6800000002,"ADDRESS":"復華八街４７巷３６號七樓之２","OBJECTID":452788},"geometry":{"x":172690.41000000015,"y":2546385.6800000034}},{"attributes":{"ID":452814,"DIS_CODE":0,"TOWNNAME":"永康區","LI":"復華里","LIN":"26鄰","STREET":"復華八街","SECT":" ","MAREA":" ","LANE":"４７巷","ALLEY":" ","HOUSE_NO":"３４號九樓之６","E_COORD97":172703.13,"N_COORD97":2546385.9500000002,"ADDRESS":"復華八街４７巷３４號九樓之６","OBJECTID":452789},"geometry":{"x":172703.13000000082,"y":2546385.9499999993}},{"attributes":{"ID":452815,"DIS_CODE":0,"TOWNNAME":"永康區","LI":"大橋里","LIN":"26鄰","STREET":"大橋一街","SECT":" ","MAREA":" ","LANE":"２４７巷","ALLEY":" ","HOUSE_NO":"７０號","E_COORD97":171207.06,"N_COORD97":2546820.5,"ADDRESS":"大橋一街２４７巷７０號","OBJECTID":452790},"geometry":{"x":171207.05999999959,"y":2546820.5}},{"attributes":{"ID":452816,"DIS_CODE":0,"TOWNNAME":"官田區","LI":"隆本里","LIN":"26鄰","STREET":"信義街","SECT":"二段","MAREA":" ","LANE":"６１巷","ALLEY":" ","HOUSE_NO":"６號","E_COORD97":179739.10000000001,"N_COORD97":2566039.1099999999,"ADDRESS":"信義街二段６１巷６號","OBJECTID":452791},"geometry":{"x":179739.09999999963,"y":2566039.1099999994}},{"attributes":{"ID":452817,"DIS_CODE":0,"TOWNNAME":"官田區","LI":"隆本里","LIN":"26鄰","STREET":"信義街","SECT":"二段","MAREA":" ","LANE":"６５巷","ALLEY":" ","HOUSE_NO":"１０號","E_COORD97":179729.79999999999,"N_COORD97":2566072.8799999999,"ADDRESS":"信義街二段６５巷１０號","OBJECTID":452792},"geometry":{"x":179729.79999999888,"y":2566072.8800000008}},{"attributes":{"ID":452818,"DIS_CODE":0,"TOWNNAME":"官田區","LI":"隆本里","LIN":"26鄰","STREET":"信義街","SECT":"二段","MAREA":" ","LANE":"６５巷","ALLEY":" ","HOUSE_NO":"１１號","E_COORD97":179715.14999999999,"N_COORD97":2566063.54,"ADDRESS":"信義街二段６５巷１１號","OBJECTID":452793},"geometry":{"x":179715.1500000013,"y":2566063.5399999991}},{"attributes":{"ID":452819,"DIS_CODE":0,"TOWNNAME":"官田區","LI":"隆本里","LIN":"26鄰","STREET":"信義街","SECT":"二段","MAREA":" ","LANE":"６５巷","ALLEY":" ","HOUSE_NO":"１２號","E_COORD97":179722.84,"N_COORD97":2566072.9399999999,"ADDRESS":"信義街二段６５巷１２號","OBJECTID":452794},"geometry":{"x":179722.84000000171,"y":2566072.9400000013}},{"attributes":{"ID":452820,"DIS_CODE":0,"TOWNNAME":"官田區","LI":"隆本里","LIN":"26鄰","STREET":"信義街","SECT":"二段","MAREA":" ","LANE":"６５巷","ALLEY":" ","HOUSE_NO":"１６號","E_COORD97":179716,"N_COORD97":2566073.3799999999,"ADDRESS":"信義街二段６５巷１６號","OBJECTID":452795},"geometry":{"x":179716.00000000093,"y":2566073.379999999}},{"attributes":{"ID":452821,"DIS_CODE":0,"TOWNNAME":"永康區","LI":"五王里","LIN":"26鄰","STREET":"五福街","SECT":" ","MAREA":" ","LANE":"８２巷","ALLEY":" ","HOUSE_NO":"５７號","E_COORD97":171556.60000000001,"N_COORD97":2545822.7400000002,"ADDRESS":"五福街８２巷５７號","OBJECTID":452796},"geometry":{"x":171556.59999999963,"y":2545822.7400000002}},{"attributes":{"ID":452822,"DIS_CODE":0,"TOWNNAME":"永康區","LI":"五王里","LIN":"26鄰","STREET":"五福街","SECT":" ","MAREA":" ","LANE":"８２巷","ALLEY":" ","HOUSE_NO":"４７號","E_COORD97":171540.16,"N_COORD97":2545878.8199999998,"ADDRESS":"五福街８２巷４７號","OBJECTID":452797},"geometry":{"x":171540.16000000201,"y":2545878.8200000003}},{"attributes":{"ID":452823,"DIS_CODE":0,"TOWNNAME":"安南區","LI":"安富里","LIN":"26鄰","STREET":"郡安路","SECT":"五段","MAREA":" ","LANE":"１７８巷","ALLEY":" ","HOUSE_NO":"２１號","E_COORD97":167539.37,"N_COORD97":2547684.0299999998,"ADDRESS":"郡安路五段１７８巷２１號","OBJECTID":452798},"geometry":{"x":167539.37000000011,"y":2547684.0299999993}},{"attributes":{"ID":452824,"DIS_CODE":0,"TOWNNAME":"安南區","LI":"安富里","LIN":"26鄰","STREET":"郡安路","SECT":"五段","MAREA":" ","LANE":"１７８巷","ALLEY":" ","HOUSE_NO":"３號","E_COORD97":167529.60999999999,"N_COORD97":2547724.4399999999,"ADDRESS":"郡安路五段１７８巷３號","OBJECTID":452799},"geometry":{"x":167529.61000000034,"y":2547724.4400000013}},{"attributes":{"ID":452825,"DIS_CODE":0,"TOWNNAME":"安南區","LI":"安富里","LIN":"26鄰","STREET":"郡安路","SECT":"五段","MAREA":" ","LANE":"１７８巷","ALLEY":" ","HOUSE_NO":"５號","E_COORD97":167530.51999999999,"N_COORD97":2547721.0099999998,"ADDRESS":"郡安路五段１７８巷５號","OBJECTID":452800},"geometry":{"x":167530.51999999955,"y":2547721.0100000016}}]}