{"displayFieldName":"TOWNNAME","fieldAliases":{"ID":"ID","DIS_CODE":"DIS_CODE","TOWNNAME":"TOWNNAME","LI":"LI","LIN":"LIN","STREET":"STREET","SECT":"SECT","MAREA":"MAREA","LANE":"LANE","ALLEY":"ALLEY","HOUSE_NO":"HOUSE_NO","E_COORD97":"E_COORD97","N_COORD97":"N_COORD97","ADDRESS":"ADDRESS","OBJECTID":"OBJECTID"},"geometryType":"esriGeometryPoint","spatialReference":{"wkid":102443,"latestWkid":3826},"fields":[{"name":"ID","type":"esriFieldTypeDouble","alias":"ID"},{"name":"DIS_CODE","type":"esriFieldTypeInteger","alias":"DIS_CODE"},{"name":"TOWNNAME","type":"esriFieldTypeString","alias":"TOWNNAME","length":8},{"name":"LI","type":"esriFieldTypeString","alias":"LI","length":8},{"name":"LIN","type":"esriFieldTypeString","alias":"LIN","length":12},{"name":"STREET","type":"esriFieldTypeString","alias":"STREET","length":20},{"name":"SECT","type":"esriFieldTypeString","alias":"SECT","length":8},{"name":"MAREA","type":"esriFieldTypeString","alias":"MAREA","length":12},{"name":"LANE","type":"esriFieldTypeString","alias":"LANE","length":10},{"name":"ALLEY","type":"esriFieldTypeString","alias":"ALLEY","length":10},{"name":"HOUSE_NO","type":"esriFieldTypeString","alias":"HOUSE_NO","length":20},{"name":"E_COORD97","type":"esriFieldTypeDouble","alias":"E_COORD97"},{"name":"N_COORD97","type":"esriFieldTypeDouble","alias":"N_COORD97"},{"name":"ADDRESS","type":"esriFieldTypeString","alias":"ADDRESS","length":50},{"name":"OBJECTID","type":"esriFieldTypeOID","alias":"OBJECTID"}],"features":[{"attributes":{"ID":520428,"DIS_CODE":0,"TOWNNAME":"北區","LI":"和順里","LIN":"31鄰","STREET":"臨安路","SECT":"二段","MAREA":" ","LANE":" ","ALLEY":" ","HOUSE_NO":"１５１號","E_COORD97":167793.64999999999,"N_COORD97":2544883.52,"ADDRESS":"臨安路二段１５１號","OBJECTID":520401},"geometry":{"x":167793.65000000037,"y":2544883.5199999996}},{"attributes":{"ID":520429,"DIS_CODE":0,"TOWNNAME":"北區","LI":"和順里","LIN":"31鄰","STREET":"臨安路","SECT":"二段","MAREA":" ","LANE":" ","ALLEY":" ","HOUSE_NO":"１５３號","E_COORD97":167797.32999999999,"N_COORD97":2544885.27,"ADDRESS":"臨安路二段１５３號","OBJECTID":520402},"geometry":{"x":167797.33000000007,"y":2544885.2699999996}},{"attributes":{"ID":520430,"DIS_CODE":0,"TOWNNAME":"北區","LI":"和順里","LIN":"31鄰","STREET":"臨安路","SECT":"二段","MAREA":" ","LANE":" ","ALLEY":" ","HOUSE_NO":"１５５號","E_COORD97":167801.98000000001,"N_COORD97":2544886.8100000001,"ADDRESS":"臨安路二段１５５號","OBJECTID":520403},"geometry":{"x":167801.98000000231,"y":2544886.8100000005}},{"attributes":{"ID":520431,"DIS_CODE":0,"TOWNNAME":"北區","LI":"和順里","LIN":"31鄰","STREET":"臨安路","SECT":"二段","MAREA":" ","LANE":" ","ALLEY":" ","HOUSE_NO":"１５７號","E_COORD97":167806.04999999999,"N_COORD97":2544888.75,"ADDRESS":"臨安路二段１５７號","OBJECTID":520404},"geometry":{"x":167806.05000000168,"y":2544888.7500000019}},{"attributes":{"ID":520432,"DIS_CODE":0,"TOWNNAME":"北區","LI":"和順里","LIN":"31鄰","STREET":"臨安路","SECT":"二段","MAREA":" ","LANE":" ","ALLEY":" ","HOUSE_NO":"１７１號","E_COORD97":167847.92999999999,"N_COORD97":2544907.48,"ADDRESS":"臨安路二段１７１號","OBJECTID":520405},"geometry":{"x":167847.93000000063,"y":2544907.4800000023}},{"attributes":{"ID":520433,"DIS_CODE":0,"TOWNNAME":"北區","LI":"和順里","LIN":"31鄰","STREET":"臨安路","SECT":"二段","MAREA":" ","LANE":" ","ALLEY":" ","HOUSE_NO":"１７１號地下一層","E_COORD97":167847.92999999999,"N_COORD97":2544907.48,"ADDRESS":"臨安路二段１７１號地下一層","OBJECTID":520406},"geometry":{"x":167847.93000000063,"y":2544907.4800000023}},{"attributes":{"ID":520434,"DIS_CODE":0,"TOWNNAME":"北區","LI":"和順里","LIN":"31鄰","STREET":"臨安路","SECT":"二段","MAREA":" ","LANE":" ","ALLEY":" ","HOUSE_NO":"１７３號","E_COORD97":167852.29000000001,"N_COORD97":2544909.1899999999,"ADDRESS":"臨安路二段１７３號","OBJECTID":520407},"geometry":{"x":167852.29000000097,"y":2544909.1899999995}},{"attributes":{"ID":520435,"DIS_CODE":0,"TOWNNAME":"北區","LI":"和順里","LIN":"31鄰","STREET":"臨安路","SECT":"二段","MAREA":" ","LANE":" ","ALLEY":" ","HOUSE_NO":"１７５號","E_COORD97":167857.23999999999,"N_COORD97":2544910.7200000002,"ADDRESS":"臨安路二段１７５號","OBJECTID":520408},"geometry":{"x":167857.24000000022,"y":2544910.7200000007}},{"attributes":{"ID":520436,"DIS_CODE":0,"TOWNNAME":"北區","LI":"和順里","LIN":"31鄰","STREET":"臨安路","SECT":"二段","MAREA":" ","LANE":" ","ALLEY":" ","HOUSE_NO":"１７７號","E_COORD97":167861.85000000001,"N_COORD97":2544912.46,"ADDRESS":"臨安路二段１７７號","OBJECTID":520409},"geometry":{"x":167861.85000000056,"y":2544912.4600000009}},{"attributes":{"ID":520437,"DIS_CODE":0,"TOWNNAME":"北區","LI":"和順里","LIN":"31鄰","STREET":"臨安路","SECT":"二段","MAREA":" ","LANE":" ","ALLEY":" ","HOUSE_NO":"１９３號","E_COORD97":167895.41,"N_COORD97":2544923.25,"ADDRESS":"臨安路二段１９３號","OBJECTID":520410},"geometry":{"x":167895.41000000201,"y":2544923.25}},{"attributes":{"ID":520438,"DIS_CODE":0,"TOWNNAME":"新營區","LI":"大宏里","LIN":"31鄰","STREET":"三民路","SECT":" ","MAREA":" ","LANE":" ","ALLEY":" ","HOUSE_NO":"３８之１號","E_COORD97":180428.91,"N_COORD97":2578563,"ADDRESS":"三民路３８之１號","OBJECTID":520411},"geometry":{"x":180428.91000000015,"y":2578563.0000000019}},{"attributes":{"ID":520439,"DIS_CODE":0,"TOWNNAME":"新營區","LI":"大宏里","LIN":"31鄰","STREET":"三民路","SECT":" ","MAREA":" ","LANE":" ","ALLEY":" ","HOUSE_NO":"３８之２號","E_COORD97":180437.10000000001,"N_COORD97":2578562.9700000002,"ADDRESS":"三民路３８之２號","OBJECTID":520412},"geometry":{"x":180437.09999999963,"y":2578562.9700000044}},{"attributes":{"ID":520440,"DIS_CODE":0,"TOWNNAME":"新營區","LI":"新北里","LIN":"31鄰","STREET":"新北六街","SECT":" ","MAREA":" ","LANE":" ","ALLEY":" ","HOUSE_NO":"５５號","E_COORD97":178765.5,"N_COORD97":2579045.9500000002,"ADDRESS":"新北六街５５號","OBJECTID":520413},"geometry":{"x":178765.5,"y":2579045.9499999993}},{"attributes":{"ID":520441,"DIS_CODE":0,"TOWNNAME":"新營區","LI":"新北里","LIN":"31鄰","STREET":"新北六街","SECT":" ","MAREA":" ","LANE":" ","ALLEY":" ","HOUSE_NO":"４５號","E_COORD97":178745.10999999999,"N_COORD97":2579046.0499999998,"ADDRESS":"新北六街４５號","OBJECTID":520414},"geometry":{"x":178745.1100000022,"y":2579046.0500000007}},{"attributes":{"ID":520442,"DIS_CODE":0,"TOWNNAME":"歸仁區","LI":"六甲里","LIN":"31鄰","STREET":"六甲六街","SECT":" ","MAREA":" ","LANE":" ","ALLEY":" ","HOUSE_NO":"５８號","E_COORD97":175639.48355899999,"N_COORD97":2539399.85494,"ADDRESS":"六甲六街５８號","OBJECTID":520415},"geometry":{"x":175639.48355900124,"y":2539399.8549419995}},{"attributes":{"ID":520443,"DIS_CODE":0,"TOWNNAME":"新營區","LI":"新北里","LIN":"31鄰","STREET":"新北六街","SECT":" ","MAREA":" ","LANE":" ","ALLEY":" ","HOUSE_NO":"４１號","E_COORD97":178737.95000000001,"N_COORD97":2579046.0800000001,"ADDRESS":"新北六街４１號","OBJECTID":520416},"geometry":{"x":178737.95000000112,"y":2579046.0800000001}},{"attributes":{"ID":520444,"DIS_CODE":0,"TOWNNAME":"新營區","LI":"新北里","LIN":"31鄰","STREET":"新北六街","SECT":" ","MAREA":" ","LANE":" ","ALLEY":" ","HOUSE_NO":"２３號","E_COORD97":178720.64000000001,"N_COORD97":2579064.9900000002,"ADDRESS":"新北六街２３號","OBJECTID":520417},"geometry":{"x":178720.6400000006,"y":2579064.9900000021}},{"attributes":{"ID":520445,"DIS_CODE":0,"TOWNNAME":"新營區","LI":"王公里","LIN":"31鄰","STREET":"大勇街","SECT":" ","MAREA":" ","LANE":" ","ALLEY":" ","HOUSE_NO":"２１號","E_COORD97":180233.10999999999,"N_COORD97":2579439.8500000001,"ADDRESS":"大勇街２１號","OBJECTID":520418},"geometry":{"x":180233.11000000034,"y":2579439.8499999996}},{"attributes":{"ID":520446,"DIS_CODE":0,"TOWNNAME":"新營區","LI":"新北里","LIN":"31鄰","STREET":"新北六街","SECT":" ","MAREA":" ","LANE":" ","ALLEY":" ","HOUSE_NO":"３５號","E_COORD97":178728.84,"N_COORD97":2579064.9500000002,"ADDRESS":"新北六街３５號","OBJECTID":520419},"geometry":{"x":178728.83999999985,"y":2579064.9500000011}},{"attributes":{"ID":520447,"DIS_CODE":0,"TOWNNAME":"安平區","LI":"平通里","LIN":"31鄰","STREET":"育平七街","SECT":" ","MAREA":" ","LANE":" ","ALLEY":" ","HOUSE_NO":"１８號","E_COORD97":164616.57000000001,"N_COORD97":2543774.7999999998,"ADDRESS":"育平七街１８號","OBJECTID":520420},"geometry":{"x":164616.57000000123,"y":2543774.8000000007}},{"attributes":{"ID":520448,"DIS_CODE":0,"TOWNNAME":"安平區","LI":"平通里","LIN":"31鄰","STREET":"育平七街","SECT":" ","MAREA":" ","LANE":" ","ALLEY":" ","HOUSE_NO":"２０號","E_COORD97":164611.95000000001,"N_COORD97":2543775.1600000001,"ADDRESS":"育平七街２０號","OBJECTID":520421},"geometry":{"x":164611.95000000112,"y":2543775.1600000001}},{"attributes":{"ID":520449,"DIS_CODE":0,"TOWNNAME":"安平區","LI":"平通里","LIN":"31鄰","STREET":"育平七街","SECT":" ","MAREA":" ","LANE":" ","ALLEY":" ","HOUSE_NO":"２２號","E_COORD97":164604.57999999999,"N_COORD97":2543775.9500000002,"ADDRESS":"育平七街２２號","OBJECTID":520422},"geometry":{"x":164604.58000000101,"y":2543775.9499999993}},{"attributes":{"ID":520450,"DIS_CODE":0,"TOWNNAME":"安平區","LI":"平通里","LIN":"31鄰","STREET":"育平七街","SECT":" ","MAREA":" ","LANE":" ","ALLEY":" ","HOUSE_NO":"４８號","E_COORD97":164516.25,"N_COORD97":2543780.0699999998,"ADDRESS":"育平七街４８號","OBJECTID":520423},"geometry":{"x":164516.25000000093,"y":2543780.070000004}},{"attributes":{"ID":520451,"DIS_CODE":0,"TOWNNAME":"安平區","LI":"平通里","LIN":"31鄰","STREET":"育平七街","SECT":" ","MAREA":" ","LANE":" ","ALLEY":" ","HOUSE_NO":"５６號","E_COORD97":164485.73000000001,"N_COORD97":2543782.1099999999,"ADDRESS":"育平七街５６號","OBJECTID":520424},"geometry":{"x":164485.73000000045,"y":2543782.1100000031}},{"attributes":{"ID":520452,"DIS_CODE":0,"TOWNNAME":"安平區","LI":"平通里","LIN":"31鄰","STREET":"育平七街","SECT":" ","MAREA":" ","LANE":" ","ALLEY":" ","HOUSE_NO":"５６號之１","E_COORD97":164481.01000000001,"N_COORD97":2543782.54,"ADDRESS":"育平七街５６號之１","OBJECTID":520425},"geometry":{"x":164481.01000000071,"y":2543782.5400000028}},{"attributes":{"ID":520453,"DIS_CODE":0,"TOWNNAME":"新營區","LI":"新北里","LIN":"31鄰","STREET":"新北六街","SECT":" ","MAREA":" ","LANE":" ","ALLEY":" ","HOUSE_NO":"５９號","E_COORD97":178773.69,"N_COORD97":2579045.9100000001,"ADDRESS":"新北六街５９號","OBJECTID":520426},"geometry":{"x":178773.69000000134,"y":2579045.910000002}},{"attributes":{"ID":520454,"DIS_CODE":0,"TOWNNAME":"新化區","LI":"東榮里","LIN":"31鄰","STREET":"信義路","SECT":" ","MAREA":" ","LANE":" ","ALLEY":" ","HOUSE_NO":"２２１號","E_COORD97":179134.768274,"N_COORD97":2548322.6102900002,"ADDRESS":"信義路２２１號","OBJECTID":520427},"geometry":{"x":179134.76827400085,"y":2548322.6102869995}},{"attributes":{"ID":520455,"DIS_CODE":0,"TOWNNAME":"安平區","LI":"國平里","LIN":"31鄰","STREET":"健康路","SECT":"三段","MAREA":" ","LANE":" ","ALLEY":" ","HOUSE_NO":"３６０號","E_COORD97":164771.32000000001,"N_COORD97":2542844.0699999998,"ADDRESS":"健康路三段３６０號","OBJECTID":520428},"geometry":{"x":164771.3200000003,"y":2542844.0699999984}},{"attributes":{"ID":520456,"DIS_CODE":0,"TOWNNAME":"安平區","LI":"國平里","LIN":"31鄰","STREET":"健康路","SECT":"三段","MAREA":" ","LANE":" ","ALLEY":" ","HOUSE_NO":"３６６號","E_COORD97":164760.13,"N_COORD97":2542847.96,"ADDRESS":"健康路三段３６６號","OBJECTID":520429},"geometry":{"x":164760.12999999989,"y":2542847.9600000009}},{"attributes":{"ID":520457,"DIS_CODE":0,"TOWNNAME":"安平區","LI":"國平里","LIN":"31鄰","STREET":"健康路","SECT":"三段","MAREA":" ","LANE":" ","ALLEY":" ","HOUSE_NO":"３６８號","E_COORD97":164754.13,"N_COORD97":2542849.1400000001,"ADDRESS":"健康路三段３６８號","OBJECTID":520430},"geometry":{"x":164754.13000000175,"y":2542849.1400000025}},{"attributes":{"ID":520458,"DIS_CODE":0,"TOWNNAME":"安平區","LI":"國平里","LIN":"31鄰","STREET":"健康路","SECT":"三段","MAREA":" ","LANE":" ","ALLEY":" ","HOUSE_NO":"３７０號","E_COORD97":164747.57000000001,"N_COORD97":2542848.75,"ADDRESS":"健康路三段３７０號","OBJECTID":520431},"geometry":{"x":164747.5700000003,"y":2542848.75}},{"attributes":{"ID":520459,"DIS_CODE":0,"TOWNNAME":"安平區","LI":"國平里","LIN":"31鄰","STREET":"健康路","SECT":"三段","MAREA":" ","LANE":" ","ALLEY":" ","HOUSE_NO":"３７２號","E_COORD97":164741.70000000001,"N_COORD97":2542851.5899999999,"ADDRESS":"健康路三段３７２號","OBJECTID":520432},"geometry":{"x":164741.70000000019,"y":2542851.5900000017}},{"attributes":{"ID":520460,"DIS_CODE":0,"TOWNNAME":"安平區","LI":"國平里","LIN":"31鄰","STREET":"健康路","SECT":"三段","MAREA":" ","LANE":" ","ALLEY":" ","HOUSE_NO":"３７６號","E_COORD97":164735.70000000001,"N_COORD97":2542851.0899999999,"ADDRESS":"健康路三段３７６號","OBJECTID":520433},"geometry":{"x":164735.70000000112,"y":2542851.0900000017}},{"attributes":{"ID":520461,"DIS_CODE":0,"TOWNNAME":"安平區","LI":"國平里","LIN":"31鄰","STREET":"健康路","SECT":"三段","MAREA":" ","LANE":" ","ALLEY":" ","HOUSE_NO":"３７８號","E_COORD97":164729.76999999999,"N_COORD97":2542852.2599999998,"ADDRESS":"健康路三段３７８號","OBJECTID":520434},"geometry":{"x":164729.77000000048,"y":2542852.2599999998}},{"attributes":{"ID":520462,"DIS_CODE":0,"TOWNNAME":"安平區","LI":"國平里","LIN":"31鄰","STREET":"健康路","SECT":"三段","MAREA":" ","LANE":" ","ALLEY":" ","HOUSE_NO":"３８０號","E_COORD97":164724.32999999999,"N_COORD97":2542855.02,"ADDRESS":"健康路三段３８０號","OBJECTID":520435},"geometry":{"x":164724.33000000101,"y":2542855.0200000014}},{"attributes":{"ID":520463,"DIS_CODE":0,"TOWNNAME":"安平區","LI":"國平里","LIN":"31鄰","STREET":"健康路","SECT":"三段","MAREA":" ","LANE":" ","ALLEY":" ","HOUSE_NO":"３８２號","E_COORD97":164718.34,"N_COORD97":2542856.2000000002,"ADDRESS":"健康路三段３８２號","OBJECTID":520436},"geometry":{"x":164718.33999999985,"y":2542856.2000000011}},{"attributes":{"ID":520464,"DIS_CODE":0,"TOWNNAME":"安平區","LI":"國平里","LIN":"31鄰","STREET":"健康路","SECT":"三段","MAREA":" ","LANE":" ","ALLEY":" ","HOUSE_NO":"３８６號","E_COORD97":164711.95999999999,"N_COORD97":2542855.77,"ADDRESS":"健康路三段３８６號","OBJECTID":520437},"geometry":{"x":164711.96000000089,"y":2542855.7700000033}},{"attributes":{"ID":520465,"DIS_CODE":0,"TOWNNAME":"安平區","LI":"國平里","LIN":"31鄰","STREET":"健康路","SECT":"三段","MAREA":" ","LANE":" ","ALLEY":" ","HOUSE_NO":"３８８號","E_COORD97":164706.01999999999,"N_COORD97":2542856.9399999999,"ADDRESS":"健康路三段３８８號","OBJECTID":520438},"geometry":{"x":164706.02000000048,"y":2542856.9399999995}},{"attributes":{"ID":520466,"DIS_CODE":0,"TOWNNAME":"安平區","LI":"國平里","LIN":"31鄰","STREET":"健康路","SECT":"三段","MAREA":" ","LANE":" ","ALLEY":" ","HOUSE_NO":"３９０號","E_COORD97":164700.38,"N_COORD97":2542860.6800000002,"ADDRESS":"健康路三段３９０號","OBJECTID":520439},"geometry":{"x":164700.38000000082,"y":2542860.6800000016}},{"attributes":{"ID":520467,"DIS_CODE":0,"TOWNNAME":"安平區","LI":"國平里","LIN":"31鄰","STREET":"健康路","SECT":"三段","MAREA":" ","LANE":" ","ALLEY":" ","HOUSE_NO":"３９２號","E_COORD97":164695.20999999999,"N_COORD97":2542861.7000000002,"ADDRESS":"健康路三段３９２號","OBJECTID":520440},"geometry":{"x":164695.20999999996,"y":2542861.6999999993}},{"attributes":{"ID":520468,"DIS_CODE":0,"TOWNNAME":"永康區","LI":"復國里","LIN":"31鄰","STREET":"復國一路","SECT":" ","MAREA":" ","LANE":" ","ALLEY":" ","HOUSE_NO":"１６１號","E_COORD97":172708.29000000001,"N_COORD97":2545197.5299999998,"ADDRESS":"復國一路１６１號","OBJECTID":520441},"geometry":{"x":172708.29000000004,"y":2545197.5300000012}},{"attributes":{"ID":520469,"DIS_CODE":0,"TOWNNAME":"永康區","LI":"復國里","LIN":"31鄰","STREET":"復國一路","SECT":" ","MAREA":" ","LANE":" ","ALLEY":" ","HOUSE_NO":"１５７號","E_COORD97":172706.42999999999,"N_COORD97":2545164.23,"ADDRESS":"復國一路１５７號","OBJECTID":520442},"geometry":{"x":172706.43000000063,"y":2545164.2300000004}},{"attributes":{"ID":520470,"DIS_CODE":0,"TOWNNAME":"永康區","LI":"復國里","LIN":"31鄰","STREET":"復國一路","SECT":" ","MAREA":" ","LANE":" ","ALLEY":" ","HOUSE_NO":"１３７號","E_COORD97":172707,"N_COORD97":2545119.27,"ADDRESS":"復國一路１３７號","OBJECTID":520443},"geometry":{"x":172707,"y":2545119.2699999996}},{"attributes":{"ID":520471,"DIS_CODE":0,"TOWNNAME":"永康區","LI":"龍潭里","LIN":"31鄰","STREET":"龍中街","SECT":" ","MAREA":" ","LANE":" ","ALLEY":" ","HOUSE_NO":"３８號","E_COORD97":174469.04999999999,"N_COORD97":2547917.71,"ADDRESS":"龍中街３８號","OBJECTID":520444},"geometry":{"x":174469.04999999981,"y":2547917.7100000009}},{"attributes":{"ID":520472,"DIS_CODE":0,"TOWNNAME":"永康區","LI":"龍潭里","LIN":"31鄰","STREET":"中山北路","SECT":" ","MAREA":" ","LANE":" ","ALLEY":" ","HOUSE_NO":"２０１號","E_COORD97":174321.85999999999,"N_COORD97":2547556.1899999999,"ADDRESS":"中山北路２０１號","OBJECTID":520445},"geometry":{"x":174321.86000000034,"y":2547556.1900000013}},{"attributes":{"ID":520473,"DIS_CODE":0,"TOWNNAME":"永康區","LI":"龍潭里","LIN":"31鄰","STREET":"中山北路","SECT":" ","MAREA":" ","LANE":" ","ALLEY":" ","HOUSE_NO":"２３２號","E_COORD97":174568.53,"N_COORD97":2547541.4900000002,"ADDRESS":"中山北路２３２號","OBJECTID":520446},"geometry":{"x":174568.52999999933,"y":2547541.4900000021}},{"attributes":{"ID":520474,"DIS_CODE":0,"TOWNNAME":"永康區","LI":"龍潭里","LIN":"31鄰","STREET":"中山北路","SECT":" ","MAREA":" ","LANE":" ","ALLEY":" ","HOUSE_NO":"２１６號","E_COORD97":174438.32999999999,"N_COORD97":2547538.73,"ADDRESS":"中山北路２１６號","OBJECTID":520447},"geometry":{"x":174438.33000000101,"y":2547538.7299999986}},{"attributes":{"ID":520475,"DIS_CODE":0,"TOWNNAME":"永康區","LI":"二王里","LIN":"31鄰","STREET":"中山南路","SECT":" ","MAREA":" ","LANE":" ","ALLEY":" ","HOUSE_NO":"５００號","E_COORD97":172082.57000000001,"N_COORD97":2546478.27,"ADDRESS":"中山南路５００號","OBJECTID":520448},"geometry":{"x":172082.5700000003,"y":2546478.2700000014}},{"attributes":{"ID":520476,"DIS_CODE":0,"TOWNNAME":"永康區","LI":"二王里","LIN":"31鄰","STREET":"中山南路","SECT":" ","MAREA":" ","LANE":" ","ALLEY":" ","HOUSE_NO":"４９６號","E_COORD97":172074.82000000001,"N_COORD97":2546472.02,"ADDRESS":"中山南路４９６號","OBJECTID":520449},"geometry":{"x":172074.82000000216,"y":2546472.0200000014}},{"attributes":{"ID":520477,"DIS_CODE":0,"TOWNNAME":"永康區","LI":"二王里","LIN":"31鄰","STREET":"中山南路","SECT":" ","MAREA":" ","LANE":" ","ALLEY":" ","HOUSE_NO":"４９４號","E_COORD97":172070.64999999999,"N_COORD97":2546469.52,"ADDRESS":"中山南路４９４號","OBJECTID":520450},"geometry":{"x":172070.65000000037,"y":2546469.5200000014}},{"attributes":{"ID":520478,"DIS_CODE":0,"TOWNNAME":"永康區","LI":"二王里","LIN":"31鄰","STREET":"中山南路","SECT":" ","MAREA":" ","LANE":" ","ALLEY":" ","HOUSE_NO":"４９８號","E_COORD97":172078.67999999999,"N_COORD97":2546475.52,"ADDRESS":"中山南路４９８號","OBJECTID":520451},"geometry":{"x":172078.68000000063,"y":2546475.5200000014}},{"attributes":{"ID":520479,"DIS_CODE":0,"TOWNNAME":"永康區","LI":"尚頂里","LIN":"31鄰","STREET":"中正南路","SECT":" ","MAREA":" ","LANE":" ","ALLEY":" ","HOUSE_NO":"２９３號","E_COORD97":170136.70000000001,"N_COORD97":2547476.75,"ADDRESS":"中正南路２９３號","OBJECTID":520452},"geometry":{"x":170136.70000000112,"y":2547476.75}},{"attributes":{"ID":520480,"DIS_CODE":0,"TOWNNAME":"永康區","LI":"東灣里","LIN":"31鄰","STREET":"大灣二街","SECT":" ","MAREA":" ","LANE":" ","ALLEY":" ","HOUSE_NO":"５３號","E_COORD97":174866.92999999999,"N_COORD97":2544726.8900000001,"ADDRESS":"大灣二街５３號","OBJECTID":520453},"geometry":{"x":174866.9299999997,"y":2544726.8900000006}},{"attributes":{"ID":520481,"DIS_CODE":0,"TOWNNAME":"仁德區","LI":"太子里","LIN":"31鄰","STREET":"太子路","SECT":" ","MAREA":" ","LANE":" ","ALLEY":" ","HOUSE_NO":"５３３號","E_COORD97":173932.95000000001,"N_COORD97":2543504.7599999998,"ADDRESS":"太子路５３３號","OBJECTID":520454},"geometry":{"x":173932.95000000019,"y":2543504.7600000016}},{"attributes":{"ID":520482,"DIS_CODE":0,"TOWNNAME":"仁德區","LI":"太子里","LIN":"31鄰","STREET":"太子路","SECT":" ","MAREA":" ","LANE":" ","ALLEY":" ","HOUSE_NO":"５６１號","E_COORD97":173873.87,"N_COORD97":2543508.2599999998,"ADDRESS":"太子路５６１號","OBJECTID":520455},"geometry":{"x":173873.87000000011,"y":2543508.2600000016}},{"attributes":{"ID":520483,"DIS_CODE":0,"TOWNNAME":"仁德區","LI":"太子里","LIN":"31鄰","STREET":"土庫五街","SECT":" ","MAREA":" ","LANE":" ","ALLEY":" ","HOUSE_NO":"１７號","E_COORD97":174010.01000000001,"N_COORD97":2543123.25,"ADDRESS":"土庫五街１７號","OBJECTID":520456},"geometry":{"x":174010.00999999978,"y":2543123.25}},{"attributes":{"ID":520484,"DIS_CODE":0,"TOWNNAME":"仁德區","LI":"太子里","LIN":"31鄰","STREET":"太子南路","SECT":" ","MAREA":" ","LANE":" ","ALLEY":" ","HOUSE_NO":"１６８號","E_COORD97":173889.72,"N_COORD97":2543493,"ADDRESS":"太子南路１６８號","OBJECTID":520457},"geometry":{"x":173889.71999999974,"y":2543493.0000000019}},{"attributes":{"ID":520485,"DIS_CODE":0,"TOWNNAME":"仁德區","LI":"太子里","LIN":"31鄰","STREET":"太子南路","SECT":" ","MAREA":" ","LANE":" ","ALLEY":" ","HOUSE_NO":"１５８號","E_COORD97":173897.35999999999,"N_COORD97":2543482.75,"ADDRESS":"太子南路１５８號","OBJECTID":520458},"geometry":{"x":173897.36000000127,"y":2543482.75}},{"attributes":{"ID":520486,"DIS_CODE":0,"TOWNNAME":"仁德區","LI":"太子里","LIN":"31鄰","STREET":"太子路","SECT":" ","MAREA":" ","LANE":" ","ALLEY":" ","HOUSE_NO":"５４５號","E_COORD97":173908.23000000001,"N_COORD97":2543505.5099999998,"ADDRESS":"太子路５４５號","OBJECTID":520459},"geometry":{"x":173908.23000000138,"y":2543505.5100000016}},{"attributes":{"ID":520487,"DIS_CODE":0,"TOWNNAME":"仁德區","LI":"太子里","LIN":"31鄰","STREET":"太子路","SECT":" ","MAREA":" ","LANE":" ","ALLEY":" ","HOUSE_NO":"５６９號","E_COORD97":173855.42999999999,"N_COORD97":2543507.7599999998,"ADDRESS":"太子路５６９號","OBJECTID":520460},"geometry":{"x":173855.43000000063,"y":2543507.7600000016}},{"attributes":{"ID":520488,"DIS_CODE":0,"TOWNNAME":"仁德區","LI":"太子里","LIN":"10鄰","STREET":"長興路","SECT":" ","MAREA":" ","LANE":" ","ALLEY":" ","HOUSE_NO":"５６號","E_COORD97":174150.57000000001,"N_COORD97":2543722.7599999998,"ADDRESS":"長興路５６號","OBJECTID":520461},"geometry":{"x":174150.5700000003,"y":2543722.7599999998}},{"attributes":{"ID":520489,"DIS_CODE":0,"TOWNNAME":"仁德區","LI":"一甲里","LIN":"10鄰","STREET":"忠義路","SECT":" ","MAREA":" ","LANE":" ","ALLEY":" ","HOUSE_NO":"２２８號","E_COORD97":173695.32000000001,"N_COORD97":2541883.77,"ADDRESS":"忠義路２２８號","OBJECTID":520462},"geometry":{"x":173695.32000000216,"y":2541883.7700000014}},{"attributes":{"ID":520490,"DIS_CODE":0,"TOWNNAME":"仁德區","LI":"上崙里","LIN":"10鄰","STREET":"德善路","SECT":" ","MAREA":" ","LANE":" ","ALLEY":" ","HOUSE_NO":"４２７號","E_COORD97":174041.78,"N_COORD97":2538256.77,"ADDRESS":"德善路４２７號","OBJECTID":520463},"geometry":{"x":174041.78000000119,"y":2538256.7699999996}},{"attributes":{"ID":520491,"DIS_CODE":0,"TOWNNAME":"仁德區","LI":"上崙里","LIN":"10鄰","STREET":"德善路","SECT":" ","MAREA":" ","LANE":" ","ALLEY":" ","HOUSE_NO":"４０７號","E_COORD97":174029.44,"N_COORD97":2538299.0099999998,"ADDRESS":"德善路４０７號","OBJECTID":520464},"geometry":{"x":174029.44000000134,"y":2538299.0100000016}},{"attributes":{"ID":520492,"DIS_CODE":0,"TOWNNAME":"仁德區","LI":"上崙里","LIN":"10鄰","STREET":"德善路","SECT":" ","MAREA":" ","LANE":" ","ALLEY":" ","HOUSE_NO":"３９７號","E_COORD97":174023.29000000001,"N_COORD97":2538320.2599999998,"ADDRESS":"德善路３９７號","OBJECTID":520465},"geometry":{"x":174023.29000000097,"y":2538320.2600000016}},{"attributes":{"ID":520493,"DIS_CODE":0,"TOWNNAME":"仁德區","LI":"上崙里","LIN":"10鄰","STREET":"德善路","SECT":" ","MAREA":" ","LANE":" ","ALLEY":" ","HOUSE_NO":"３９１號","E_COORD97":174017.20000000001,"N_COORD97":2538338.27,"ADDRESS":"德善路３９１號","OBJECTID":520466},"geometry":{"x":174017.20000000112,"y":2538338.2699999996}},{"attributes":{"ID":520494,"DIS_CODE":0,"TOWNNAME":"仁德區","LI":"大甲里","LIN":"10鄰","STREET":"行大一街","SECT":" ","MAREA":" ","LANE":" ","ALLEY":" ","HOUSE_NO":"３２９號","E_COORD97":169580.17000000001,"N_COORD97":2535050.5,"ADDRESS":"行大一街３２９號","OBJECTID":520467},"geometry":{"x":169580.17000000179,"y":2535050.5000000019}},{"attributes":{"ID":520495,"DIS_CODE":0,"TOWNNAME":"仁德區","LI":"上崙里","LIN":"10鄰","STREET":"德善路","SECT":" ","MAREA":" ","LANE":" ","ALLEY":" ","HOUSE_NO":"４１５號","E_COORD97":174034.60000000001,"N_COORD97":2538281.5099999998,"ADDRESS":"德善路４１５號","OBJECTID":520468},"geometry":{"x":174034.59999999963,"y":2538281.5100000016}},{"attributes":{"ID":520496,"DIS_CODE":0,"TOWNNAME":"仁德區","LI":"新田里","LIN":"10鄰","STREET":"中正路","SECT":"二段","MAREA":" ","LANE":" ","ALLEY":" ","HOUSE_NO":"４６１號","E_COORD97":173335.67000000001,"N_COORD97":2539484.7799999998,"ADDRESS":"中正路二段４６１號","OBJECTID":520469},"geometry":{"x":173335.67000000086,"y":2539484.7799999993}},{"attributes":{"ID":520497,"DIS_CODE":0,"TOWNNAME":"仁德區","LI":"仁義里","LIN":"10鄰","STREET":"仁義三街","SECT":" ","MAREA":" ","LANE":" ","ALLEY":" ","HOUSE_NO":"４５號","E_COORD97":173416.38,"N_COORD97":2541139.52,"ADDRESS":"仁義三街４５號","OBJECTID":520470},"geometry":{"x":173416.37999999989,"y":2541139.5200000014}},{"attributes":{"ID":520498,"DIS_CODE":0,"TOWNNAME":"仁德區","LI":"太子里","LIN":"10鄰","STREET":"長興路","SECT":" ","MAREA":" ","LANE":" ","ALLEY":" ","HOUSE_NO":"１６號","E_COORD97":174130.19,"N_COORD97":2543565,"ADDRESS":"長興路１６號","OBJECTID":520471},"geometry":{"x":174130.19000000041,"y":2543565}},{"attributes":{"ID":520499,"DIS_CODE":0,"TOWNNAME":"仁德區","LI":"新田里","LIN":"10鄰","STREET":"中正路","SECT":"二段","MAREA":" ","LANE":" ","ALLEY":" ","HOUSE_NO":"４４３號","E_COORD97":173320.28,"N_COORD97":2539444.02,"ADDRESS":"中正路二段４４３號","OBJECTID":520472},"geometry":{"x":173320.28000000026,"y":2539444.0200000014}},{"attributes":{"ID":520500,"DIS_CODE":0,"TOWNNAME":"永康區","LI":"北灣里","LIN":"31鄰","STREET":"大同街","SECT":" ","MAREA":" ","LANE":" ","ALLEY":" ","HOUSE_NO":"３２號","E_COORD97":175268.89999999999,"N_COORD97":2545423.2400000002,"ADDRESS":"大同街３２號","OBJECTID":520473},"geometry":{"x":175268.9000000013,"y":2545423.2400000039}},{"attributes":{"ID":520501,"DIS_CODE":0,"TOWNNAME":"永康區","LI":"東灣里","LIN":"31鄰","STREET":"大灣二街","SECT":" ","MAREA":" ","LANE":" ","ALLEY":" ","HOUSE_NO":"６１號","E_COORD97":174848.89000000001,"N_COORD97":2544730.6400000001,"ADDRESS":"大灣二街６１號","OBJECTID":520474},"geometry":{"x":174848.8900000006,"y":2544730.6400000025}},{"attributes":{"ID":520502,"DIS_CODE":0,"TOWNNAME":"中西區","LI":"西賢里","LIN":"31鄰","STREET":"民權路","SECT":"四段","MAREA":" ","LANE":" ","ALLEY":" ","HOUSE_NO":"７５０號","E_COORD97":164558.22,"N_COORD97":2544799.9900000002,"ADDRESS":"民權路四段７５０號","OBJECTID":520475},"geometry":{"x":164558.21999999974,"y":2544799.9900000002}},{"attributes":{"ID":520503,"DIS_CODE":0,"TOWNNAME":"中西區","LI":"西賢里","LIN":"31鄰","STREET":"西賢六街","SECT":" ","MAREA":" ","LANE":" ","ALLEY":" ","HOUSE_NO":"１１號","E_COORD97":165049.85999999999,"N_COORD97":2544638.73,"ADDRESS":"西賢六街１１號","OBJECTID":520476},"geometry":{"x":165049.86000000127,"y":2544638.7300000004}},{"attributes":{"ID":520504,"DIS_CODE":0,"TOWNNAME":"中西區","LI":"西賢里","LIN":"31鄰","STREET":"西賢六街","SECT":" ","MAREA":" ","LANE":" ","ALLEY":" ","HOUSE_NO":"１５號","E_COORD97":165055.26999999999,"N_COORD97":2544650.8999999999,"ADDRESS":"西賢六街１５號","OBJECTID":520477},"geometry":{"x":165055.27000000048,"y":2544650.9000000004}},{"attributes":{"ID":520505,"DIS_CODE":0,"TOWNNAME":"中西區","LI":"西賢里","LIN":"31鄰","STREET":"西賢六街","SECT":" ","MAREA":" ","LANE":" ","ALLEY":" ","HOUSE_NO":"１７號","E_COORD97":165056.89999999999,"N_COORD97":2544654.3100000001,"ADDRESS":"西賢六街１７號","OBJECTID":520478},"geometry":{"x":165056.9000000013,"y":2544654.3100000024}},{"attributes":{"ID":520506,"DIS_CODE":0,"TOWNNAME":"中西區","LI":"西賢里","LIN":"31鄰","STREET":"西賢六街","SECT":" ","MAREA":" ","LANE":" ","ALLEY":" ","HOUSE_NO":"１９號","E_COORD97":165057.70999999999,"N_COORD97":2544659.02,"ADDRESS":"西賢六街１９號","OBJECTID":520479},"geometry":{"x":165057.71000000089,"y":2544659.0200000014}},{"attributes":{"ID":520507,"DIS_CODE":0,"TOWNNAME":"中西區","LI":"西賢里","LIN":"31鄰","STREET":"西賢六街","SECT":" ","MAREA":" ","LANE":" ","ALLEY":" ","HOUSE_NO":"２１號","E_COORD97":165058.20000000001,"N_COORD97":2544662.7599999998,"ADDRESS":"西賢六街２１號","OBJECTID":520480},"geometry":{"x":165058.20000000112,"y":2544662.7599999979}},{"attributes":{"ID":520508,"DIS_CODE":0,"TOWNNAME":"中西區","LI":"西賢里","LIN":"31鄰","STREET":"西賢六街","SECT":" ","MAREA":" ","LANE":" ","ALLEY":" ","HOUSE_NO":"２３號","E_COORD97":165058.85000000001,"N_COORD97":2544667.2999999998,"ADDRESS":"西賢六街２３號","OBJECTID":520481},"geometry":{"x":165058.84999999963,"y":2544667.3000000045}},{"attributes":{"ID":520509,"DIS_CODE":0,"TOWNNAME":"中西區","LI":"西賢里","LIN":"31鄰","STREET":"西賢六街","SECT":" ","MAREA":" ","LANE":" ","ALLEY":" ","HOUSE_NO":"２５號","E_COORD97":165059.66,"N_COORD97":2544671.2000000002,"ADDRESS":"西賢六街２５號","OBJECTID":520482},"geometry":{"x":165059.66000000108,"y":2544671.2000000011}},{"attributes":{"ID":520510,"DIS_CODE":0,"TOWNNAME":"中西區","LI":"西賢里","LIN":"31鄰","STREET":"西賢六街","SECT":" ","MAREA":" ","LANE":" ","ALLEY":" ","HOUSE_NO":"２７號","E_COORD97":165059.66,"N_COORD97":2544675.4199999999,"ADDRESS":"西賢六街２７號","OBJECTID":520483},"geometry":{"x":165059.66000000108,"y":2544675.4199999981}},{"attributes":{"ID":520511,"DIS_CODE":0,"TOWNNAME":"中西區","LI":"西賢里","LIN":"31鄰","STREET":"西賢六街","SECT":" ","MAREA":" ","LANE":" ","ALLEY":" ","HOUSE_NO":"２９號","E_COORD97":165060.64000000001,"N_COORD97":2544679.1600000001,"ADDRESS":"西賢六街２９號","OBJECTID":520484},"geometry":{"x":165060.64000000153,"y":2544679.160000002}},{"attributes":{"ID":520512,"DIS_CODE":0,"TOWNNAME":"中西區","LI":"西賢里","LIN":"31鄰","STREET":"西賢六街","SECT":" ","MAREA":" ","LANE":" ","ALLEY":" ","HOUSE_NO":"３１號","E_COORD97":165061.45000000001,"N_COORD97":2544683.0499999998,"ADDRESS":"西賢六街３１號","OBJECTID":520485},"geometry":{"x":165061.45000000112,"y":2544683.0500000026}},{"attributes":{"ID":520513,"DIS_CODE":0,"TOWNNAME":"中西區","LI":"西賢里","LIN":"31鄰","STREET":"西賢六街","SECT":" ","MAREA":" ","LANE":" ","ALLEY":" ","HOUSE_NO":"３３號","E_COORD97":165061.45000000001,"N_COORD97":2544686.6299999999,"ADDRESS":"西賢六街３３號","OBJECTID":520486},"geometry":{"x":165061.45000000112,"y":2544686.6299999971}},{"attributes":{"ID":520514,"DIS_CODE":0,"TOWNNAME":"中西區","LI":"西賢里","LIN":"31鄰","STREET":"西賢六街","SECT":" ","MAREA":" ","LANE":" ","ALLEY":" ","HOUSE_NO":"３５號","E_COORD97":165062.26999999999,"N_COORD97":2544691.6600000001,"ADDRESS":"西賢六街３５號","OBJECTID":520487},"geometry":{"x":165062.26999999955,"y":2544691.660000002}},{"attributes":{"ID":520515,"DIS_CODE":0,"TOWNNAME":"永康區","LI":"永康里","LIN":"31鄰","STREET":"永大路","SECT":"三段","MAREA":" ","LANE":" ","ALLEY":" ","HOUSE_NO":"７２號","E_COORD97":174195.88,"N_COORD97":2547744.23,"ADDRESS":"永大路三段７２號","OBJECTID":520488},"geometry":{"x":174195.87999999989,"y":2547744.2300000004}},{"attributes":{"ID":520516,"DIS_CODE":0,"TOWNNAME":"永康區","LI":"永康里","LIN":"31鄰","STREET":"永大路","SECT":"三段","MAREA":" ","LANE":" ","ALLEY":" ","HOUSE_NO":"７６號","E_COORD97":174193.79999999999,"N_COORD97":2547751.9300000002,"ADDRESS":"永大路三段７６號","OBJECTID":520489},"geometry":{"x":174193.80000000075,"y":2547751.9300000016}},{"attributes":{"ID":520517,"DIS_CODE":0,"TOWNNAME":"永康區","LI":"永康里","LIN":"31鄰","STREET":"龍中街","SECT":" ","MAREA":" ","LANE":" ","ALLEY":" ","HOUSE_NO":"８９號","E_COORD97":174367.51999999999,"N_COORD97":2547801.3399999999,"ADDRESS":"龍中街８９號","OBJECTID":520490},"geometry":{"x":174367.51999999955,"y":2547801.3399999999}},{"attributes":{"ID":520518,"DIS_CODE":0,"TOWNNAME":"永康區","LI":"永康里","LIN":"31鄰","STREET":"永大路","SECT":"三段","MAREA":" ","LANE":" ","ALLEY":" ","HOUSE_NO":"３６號","E_COORD97":174222.29999999999,"N_COORD97":2547583.9700000002,"ADDRESS":"永大路三段３６號","OBJECTID":520491},"geometry":{"x":174222.30000000168,"y":2547583.9700000007}},{"attributes":{"ID":520519,"DIS_CODE":0,"TOWNNAME":"永康區","LI":"崑山里","LIN":"31鄰","STREET":"國光二街","SECT":" ","MAREA":" ","LANE":" ","ALLEY":" ","HOUSE_NO":"１８號","E_COORD97":174035.70999999999,"N_COORD97":2544686.6000000001,"ADDRESS":"國光二街１８號","OBJECTID":520492},"geometry":{"x":174035.70999999996,"y":2544686.5999999996}},{"attributes":{"ID":520520,"DIS_CODE":0,"TOWNNAME":"永康區","LI":"永康里","LIN":"31鄰","STREET":"龍中街","SECT":" ","MAREA":" ","LANE":" ","ALLEY":" ","HOUSE_NO":"７１號","E_COORD97":174351.42999999999,"N_COORD97":2547762.3399999999,"ADDRESS":"龍中街７１號","OBJECTID":520493},"geometry":{"x":174351.4299999997,"y":2547762.3400000017}},{"attributes":{"ID":520521,"DIS_CODE":0,"TOWNNAME":"永康區","LI":"正強里","LIN":"31鄰","STREET":"自強路","SECT":" ","MAREA":" ","LANE":" ","ALLEY":" ","HOUSE_NO":"２０５號","E_COORD97":173173.06,"N_COORD97":2547530.02,"ADDRESS":"自強路２０５號","OBJECTID":520494},"geometry":{"x":173173.06000000052,"y":2547530.0200000014}},{"attributes":{"ID":520522,"DIS_CODE":0,"TOWNNAME":"永康區","LI":"尚頂里","LIN":"31鄰","STREET":"中正南路","SECT":" ","MAREA":" ","LANE":" ","ALLEY":" ","HOUSE_NO":"３０７號","E_COORD97":170181.29999999999,"N_COORD97":2547447.4700000002,"ADDRESS":"中正南路３０７號","OBJECTID":520495},"geometry":{"x":170181.30000000075,"y":2547447.4700000025}},{"attributes":{"ID":520523,"DIS_CODE":0,"TOWNNAME":"永康區","LI":"永康里","LIN":"31鄰","STREET":"龍中街","SECT":" ","MAREA":" ","LANE":" ","ALLEY":" ","HOUSE_NO":"７９號","E_COORD97":174359.51999999999,"N_COORD97":2547781.5899999999,"ADDRESS":"龍中街７９號","OBJECTID":520496},"geometry":{"x":174359.52000000142,"y":2547781.5900000017}},{"attributes":{"ID":520524,"DIS_CODE":0,"TOWNNAME":"永康區","LI":"大灣里","LIN":"31鄰","STREET":"文賢街","SECT":" ","MAREA":" ","LANE":" ","ALLEY":" ","HOUSE_NO":"６６號","E_COORD97":175321.87,"N_COORD97":2545085.8300000001,"ADDRESS":"文賢街６６號","OBJECTID":520497},"geometry":{"x":175321.87000000011,"y":2545085.8300000001}},{"attributes":{"ID":520525,"DIS_CODE":0,"TOWNNAME":"永康區","LI":"崑山里","LIN":"31鄰","STREET":"國光二街","SECT":" ","MAREA":" ","LANE":" ","ALLEY":" ","HOUSE_NO":"１４號","E_COORD97":174044.85000000001,"N_COORD97":2544683.6000000001,"ADDRESS":"國光二街１４號","OBJECTID":520498},"geometry":{"x":174044.84999999963,"y":2544683.5999999996}},{"attributes":{"ID":520526,"DIS_CODE":0,"TOWNNAME":"永康區","LI":"尚頂里","LIN":"31鄰","STREET":"中正南路","SECT":" ","MAREA":" ","LANE":" ","ALLEY":" ","HOUSE_NO":"３３３號","E_COORD97":170413.73999999999,"N_COORD97":2547681.75,"ADDRESS":"中正南路３３３號","OBJECTID":520499},"geometry":{"x":170413.74000000022,"y":2547681.7500000019}},{"attributes":{"ID":520527,"DIS_CODE":0,"TOWNNAME":"永康區","LI":"尚頂里","LIN":"31鄰","STREET":"中正南路","SECT":" ","MAREA":" ","LANE":" ","ALLEY":" ","HOUSE_NO":"３４１號","E_COORD97":170482.45999999999,"N_COORD97":2547739.9100000001,"ADDRESS":"中正南路３４１號","OBJECTID":520500},"geometry":{"x":170482.46000000089,"y":2547739.9100000001}},{"attributes":{"ID":520528,"DIS_CODE":0,"TOWNNAME":"永康區","LI":"尚頂里","LIN":"31鄰","STREET":"中正南路","SECT":" ","MAREA":" ","LANE":" ","ALLEY":" ","HOUSE_NO":"３４３號","E_COORD97":170488.32000000001,"N_COORD97":2547744,"ADDRESS":"中正南路３４３號","OBJECTID":520501},"geometry":{"x":170488.32000000123,"y":2547744.0000000019}},{"attributes":{"ID":520529,"DIS_CODE":0,"TOWNNAME":"永康區","LI":"南灣里","LIN":"31鄰","STREET":"大安街","SECT":" ","MAREA":" ","LANE":" ","ALLEY":" ","HOUSE_NO":"２９號","E_COORD97":174427.39999999999,"N_COORD97":2544813.3100000001,"ADDRESS":"大安街２９號","OBJECTID":520502},"geometry":{"x":174427.4000000013,"y":2544813.3100000024}},{"attributes":{"ID":520530,"DIS_CODE":0,"TOWNNAME":"佳里區","LI":"安西里","LIN":"31鄰","STREET":"光明街","SECT":" ","MAREA":" ","LANE":" ","ALLEY":" ","HOUSE_NO":"１９號","E_COORD97":165119.95000000001,"N_COORD97":2562932.6400000001,"ADDRESS":"光明街１９號","OBJECTID":520503},"geometry":{"x":165119.95000000019,"y":2562932.6400000025}},{"attributes":{"ID":520531,"DIS_CODE":0,"TOWNNAME":"永康區","LI":"南灣里","LIN":"31鄰","STREET":"大灣一街","SECT":" ","MAREA":" ","LANE":" ","ALLEY":" ","HOUSE_NO":"５１號","E_COORD97":174318.14000000001,"N_COORD97":2544788.0699999998,"ADDRESS":"大灣一街５１號","OBJECTID":520504},"geometry":{"x":174318.14000000153,"y":2544788.0700000022}},{"attributes":{"ID":520532,"DIS_CODE":0,"TOWNNAME":"永康區","LI":"南灣里","LIN":"31鄰","STREET":"大安街","SECT":" ","MAREA":" ","LANE":" ","ALLEY":" ","HOUSE_NO":"３９號","E_COORD97":174433.79000000001,"N_COORD97":2544840.3100000001,"ADDRESS":"大安街３９號","OBJECTID":520505},"geometry":{"x":174433.79000000004,"y":2544840.3100000024}},{"attributes":{"ID":520533,"DIS_CODE":0,"TOWNNAME":"永康區","LI":"南灣里","LIN":"31鄰","STREET":"大安街","SECT":" ","MAREA":" ","LANE":" ","ALLEY":" ","HOUSE_NO":"３７號","E_COORD97":174442.78,"N_COORD97":2544827,"ADDRESS":"大安街３７號","OBJECTID":520506},"geometry":{"x":174442.78000000026,"y":2544827}},{"attributes":{"ID":520534,"DIS_CODE":0,"TOWNNAME":"佳里區","LI":"安西里","LIN":"31鄰","STREET":"光明街","SECT":" ","MAREA":" ","LANE":" ","ALLEY":" ","HOUSE_NO":"２０號","E_COORD97":165126.95999999999,"N_COORD97":2562947.3300000001,"ADDRESS":"光明街２０號","OBJECTID":520507},"geometry":{"x":165126.96000000089,"y":2562947.3300000038}},{"attributes":{"ID":520535,"DIS_CODE":0,"TOWNNAME":"永康區","LI":"東灣里","LIN":"31鄰","STREET":"大灣二街","SECT":" ","MAREA":" ","LANE":" ","ALLEY":" ","HOUSE_NO":"２５號","E_COORD97":174927.94,"N_COORD97":2544707.5099999998,"ADDRESS":"大灣二街２５號","OBJECTID":520508},"geometry":{"x":174927.94000000134,"y":2544707.5099999998}},{"attributes":{"ID":520536,"DIS_CODE":0,"TOWNNAME":"永康區","LI":"東灣里","LIN":"31鄰","STREET":"大灣二街","SECT":" ","MAREA":" ","LANE":" ","ALLEY":" ","HOUSE_NO":"４１號","E_COORD97":174893.29999999999,"N_COORD97":2544720.8900000001,"ADDRESS":"大灣二街４１號","OBJECTID":520509},"geometry":{"x":174893.29999999981,"y":2544720.8900000043}},{"attributes":{"ID":520537,"DIS_CODE":0,"TOWNNAME":"佳里區","LI":"安西里","LIN":"31鄰","STREET":"光明街","SECT":" ","MAREA":" ","LANE":" ","ALLEY":" ","HOUSE_NO":"２１號","E_COORD97":165116.39000000001,"N_COORD97":2562933.5299999998,"ADDRESS":"光明街２１號","OBJECTID":520510},"geometry":{"x":165116.38999999966,"y":2562933.5299999993}},{"attributes":{"ID":520538,"DIS_CODE":0,"TOWNNAME":"佳里區","LI":"安西里","LIN":"31鄰","STREET":"光明街","SECT":" ","MAREA":" ","LANE":" ","ALLEY":" ","HOUSE_NO":"２２號","E_COORD97":165123.16,"N_COORD97":2562948.4500000002,"ADDRESS":"光明街２２號","OBJECTID":520511},"geometry":{"x":165123.16000000015,"y":2562948.4499999993}},{"attributes":{"ID":520539,"DIS_CODE":0,"TOWNNAME":"永康區","LI":"東灣里","LIN":"31鄰","STREET":"大灣二街","SECT":" ","MAREA":" ","LANE":" ","ALLEY":" ","HOUSE_NO":"２３號","E_COORD97":174932.54000000001,"N_COORD97":2544705.2599999998,"ADDRESS":"大灣二街２３號","OBJECTID":520512},"geometry":{"x":174932.54000000004,"y":2544705.2600000016}},{"attributes":{"ID":520540,"DIS_CODE":0,"TOWNNAME":"永康區","LI":"東灣里","LIN":"31鄰","STREET":"大灣二街","SECT":" ","MAREA":" ","LANE":" ","ALLEY":" ","HOUSE_NO":"４７號","E_COORD97":174879.85000000001,"N_COORD97":2544723.8900000001,"ADDRESS":"大灣二街４７號","OBJECTID":520513},"geometry":{"x":174879.85000000056,"y":2544723.8899999987}},{"attributes":{"ID":520541,"DIS_CODE":0,"TOWNNAME":"佳里區","LI":"安西里","LIN":"31鄰","STREET":"光明街","SECT":" ","MAREA":" ","LANE":" ","ALLEY":" ","HOUSE_NO":"２３號","E_COORD97":165112.67999999999,"N_COORD97":2562934.2799999998,"ADDRESS":"光明街２３號","OBJECTID":520514},"geometry":{"x":165112.6799999997,"y":2562934.2800000012}},{"attributes":{"ID":520542,"DIS_CODE":0,"TOWNNAME":"永康區","LI":"東灣里","LIN":"31鄰","STREET":"大灣二街","SECT":" ","MAREA":" ","LANE":" ","ALLEY":" ","HOUSE_NO":"４５號","E_COORD97":174884.29999999999,"N_COORD97":2544722.8900000001,"ADDRESS":"大灣二街４５號","OBJECTID":520515},"geometry":{"x":174884.29999999981,"y":2544722.8900000006}},{"attributes":{"ID":520543,"DIS_CODE":0,"TOWNNAME":"永康區","LI":"東灣里","LIN":"31鄰","STREET":"大灣二街","SECT":" ","MAREA":" ","LANE":" ","ALLEY":" ","HOUSE_NO":"５５號","E_COORD97":174862.39999999999,"N_COORD97":2544727.6400000001,"ADDRESS":"大灣二街５５號","OBJECTID":520516},"geometry":{"x":174862.40000000037,"y":2544727.6400000006}},{"attributes":{"ID":520544,"DIS_CODE":0,"TOWNNAME":"永康區","LI":"南灣里","LIN":"31鄰","STREET":"大灣一街","SECT":" ","MAREA":" ","LANE":" ","ALLEY":" ","HOUSE_NO":"６３號","E_COORD97":174343.35999999999,"N_COORD97":2544772.3199999998,"ADDRESS":"大灣一街６３號","OBJECTID":520517},"geometry":{"x":174343.36000000127,"y":2544772.3200000022}},{"attributes":{"ID":520545,"DIS_CODE":0,"TOWNNAME":"永康區","LI":"東灣里","LIN":"31鄰","STREET":"大灣二街","SECT":" ","MAREA":" ","LANE":" ","ALLEY":" ","HOUSE_NO":"４３號","E_COORD97":174888.89999999999,"N_COORD97":2544721.8900000001,"ADDRESS":"大灣二街４３號","OBJECTID":520518},"geometry":{"x":174888.9000000013,"y":2544721.8900000025}},{"attributes":{"ID":520546,"DIS_CODE":0,"TOWNNAME":"佳里區","LI":"安西里","LIN":"31鄰","STREET":"光明街","SECT":" ","MAREA":" ","LANE":" ","ALLEY":" ","HOUSE_NO":"１７號","E_COORD97":165125.88,"N_COORD97":2562930.7200000002,"ADDRESS":"光明街１７號","OBJECTID":520519},"geometry":{"x":165125.88000000082,"y":2562930.7200000007}},{"attributes":{"ID":520547,"DIS_CODE":0,"TOWNNAME":"永康區","LI":"南灣里","LIN":"31鄰","STREET":"大灣一街","SECT":" ","MAREA":" ","LANE":" ","ALLEY":" ","HOUSE_NO":"５９號","E_COORD97":174336.04999999999,"N_COORD97":2544775.3199999998,"ADDRESS":"大灣一街５９號","OBJECTID":520520},"geometry":{"x":174336.05000000075,"y":2544775.320000004}},{"attributes":{"ID":520548,"DIS_CODE":0,"TOWNNAME":"佳里區","LI":"安西里","LIN":"31鄰","STREET":"光明街","SECT":" ","MAREA":" ","LANE":" ","ALLEY":" ","HOUSE_NO":"１０號","E_COORD97":165141.95000000001,"N_COORD97":2562941.3300000001,"ADDRESS":"光明街１０號","OBJECTID":520521},"geometry":{"x":165141.95000000019,"y":2562941.3300000019}},{"attributes":{"ID":520549,"DIS_CODE":0,"TOWNNAME":"佳里區","LI":"安西里","LIN":"31鄰","STREET":"光明街","SECT":" ","MAREA":" ","LANE":" ","ALLEY":" ","HOUSE_NO":"１１號","E_COORD97":165119.37,"N_COORD97":2562908.2200000002,"ADDRESS":"光明街１１號","OBJECTID":520522},"geometry":{"x":165119.37000000104,"y":2562908.2200000025}},{"attributes":{"ID":520550,"DIS_CODE":0,"TOWNNAME":"佳里區","LI":"安西里","LIN":"31鄰","STREET":"光明街","SECT":" ","MAREA":" ","LANE":" ","ALLEY":" ","HOUSE_NO":"１２號","E_COORD97":165138.48999999999,"N_COORD97":2562943.0299999998,"ADDRESS":"光明街１２號","OBJECTID":520523},"geometry":{"x":165138.49000000209,"y":2562943.0300000012}},{"attributes":{"ID":520551,"DIS_CODE":0,"TOWNNAME":"佳里區","LI":"安西里","LIN":"31鄰","STREET":"光明街","SECT":" ","MAREA":" ","LANE":" ","ALLEY":" ","HOUSE_NO":"１３號","E_COORD97":165118.87,"N_COORD97":2562914.5499999998,"ADDRESS":"光明街１３號","OBJECTID":520524},"geometry":{"x":165118.87000000197,"y":2562914.5500000007}},{"attributes":{"ID":520552,"DIS_CODE":0,"TOWNNAME":"佳里區","LI":"安西里","LIN":"31鄰","STREET":"光明街","SECT":" ","MAREA":" ","LANE":" ","ALLEY":" ","HOUSE_NO":"１５號","E_COORD97":165119.14000000001,"N_COORD97":2562920.21,"ADDRESS":"光明街１５號","OBJECTID":520525},"geometry":{"x":165119.13999999966,"y":2562920.2100000009}},{"attributes":{"ID":520553,"DIS_CODE":0,"TOWNNAME":"佳里區","LI":"安西里","LIN":"31鄰","STREET":"光明街","SECT":" ","MAREA":" ","LANE":" ","ALLEY":" ","HOUSE_NO":"１６號","E_COORD97":165135.23999999999,"N_COORD97":2562944.7200000002,"ADDRESS":"光明街１６號","OBJECTID":520526},"geometry":{"x":165135.24000000209,"y":2562944.7200000007}},{"attributes":{"ID":520554,"DIS_CODE":0,"TOWNNAME":"佳里區","LI":"安西里","LIN":"31鄰","STREET":"光明街","SECT":" ","MAREA":" ","LANE":" ","ALLEY":" ","HOUSE_NO":"２５號","E_COORD97":165108.88,"N_COORD97":2562935.23,"ADDRESS":"光明街２５號","OBJECTID":520527},"geometry":{"x":165108.88000000082,"y":2562935.2300000023}},{"attributes":{"ID":520555,"DIS_CODE":0,"TOWNNAME":"佳里區","LI":"安西里","LIN":"31鄰","STREET":"光明街","SECT":" ","MAREA":" ","LANE":" ","ALLEY":" ","HOUSE_NO":"２６號","E_COORD97":165119.37,"N_COORD97":2562949.2999999998,"ADDRESS":"光明街２６號","OBJECTID":520528},"geometry":{"x":165119.37000000104,"y":2562949.3000000026}},{"attributes":{"ID":520556,"DIS_CODE":0,"TOWNNAME":"佳里區","LI":"安西里","LIN":"31鄰","STREET":"光明街","SECT":" ","MAREA":" ","LANE":" ","ALLEY":" ","HOUSE_NO":"２７號","E_COORD97":165105.13,"N_COORD97":2562935.3799999999,"ADDRESS":"光明街２７號","OBJECTID":520529},"geometry":{"x":165105.13000000175,"y":2562935.3800000027}},{"attributes":{"ID":520557,"DIS_CODE":0,"TOWNNAME":"佳里區","LI":"安西里","LIN":"31鄰","STREET":"光明街","SECT":" ","MAREA":" ","LANE":" ","ALLEY":" ","HOUSE_NO":"２８號","E_COORD97":165115.06,"N_COORD97":2562950.3900000001,"ADDRESS":"光明街２８號","OBJECTID":520530},"geometry":{"x":165115.05999999959,"y":2562950.3900000006}},{"attributes":{"ID":520558,"DIS_CODE":0,"TOWNNAME":"佳里區","LI":"安西里","LIN":"31鄰","STREET":"光明街","SECT":" ","MAREA":" ","LANE":" ","ALLEY":" ","HOUSE_NO":"２９號","E_COORD97":165100.48000000001,"N_COORD97":2562936.1400000001,"ADDRESS":"光明街２９號","OBJECTID":520531},"geometry":{"x":165100.48000000138,"y":2562936.1400000025}},{"attributes":{"ID":520559,"DIS_CODE":0,"TOWNNAME":"佳里區","LI":"安西里","LIN":"31鄰","STREET":"光明街","SECT":" ","MAREA":" ","LANE":" ","ALLEY":" ","HOUSE_NO":"２號","E_COORD97":165153.60999999999,"N_COORD97":2562935.2599999998,"ADDRESS":"光明街２號","OBJECTID":520532},"geometry":{"x":165153.61000000127,"y":2562935.2600000016}},{"attributes":{"ID":520560,"DIS_CODE":0,"TOWNNAME":"佳里區","LI":"安西里","LIN":"31鄰","STREET":"光明街","SECT":" ","MAREA":" ","LANE":" ","ALLEY":" ","HOUSE_NO":"３０號","E_COORD97":165111.34,"N_COORD97":2562951.29,"ADDRESS":"光明街３０號","OBJECTID":520533},"geometry":{"x":165111.33999999985,"y":2562951.290000001}},{"attributes":{"ID":520561,"DIS_CODE":0,"TOWNNAME":"佳里區","LI":"安西里","LIN":"31鄰","STREET":"光明街","SECT":" ","MAREA":" ","LANE":" ","ALLEY":" ","HOUSE_NO":"３１號","E_COORD97":165095.92999999999,"N_COORD97":2562936.6000000001,"ADDRESS":"光明街３１號","OBJECTID":520534},"geometry":{"x":165095.92999999877,"y":2562936.5999999996}},{"attributes":{"ID":520562,"DIS_CODE":0,"TOWNNAME":"佳里區","LI":"安西里","LIN":"31鄰","STREET":"光明街","SECT":" ","MAREA":" ","LANE":" ","ALLEY":" ","HOUSE_NO":"３２號","E_COORD97":165106.98000000001,"N_COORD97":2562952.1699999999,"ADDRESS":"光明街３２號","OBJECTID":520535},"geometry":{"x":165106.98000000138,"y":2562952.1700000018}},{"attributes":{"ID":520563,"DIS_CODE":0,"TOWNNAME":"佳里區","LI":"安西里","LIN":"31鄰","STREET":"光明街","SECT":" ","MAREA":" ","LANE":" ","ALLEY":" ","HOUSE_NO":"３３號","E_COORD97":165091.59,"N_COORD97":2562936.3100000001,"ADDRESS":"光明街３３號","OBJECTID":520536},"geometry":{"x":165091.58999999892,"y":2562936.3100000005}},{"attributes":{"ID":520564,"DIS_CODE":0,"TOWNNAME":"佳里區","LI":"安西里","LIN":"31鄰","STREET":"光明街","SECT":" ","MAREA":" ","LANE":" ","ALLEY":" ","HOUSE_NO":"３５號","E_COORD97":165087.91,"N_COORD97":2562936.2999999998,"ADDRESS":"光明街３５號","OBJECTID":520537},"geometry":{"x":165087.91000000015,"y":2562936.3000000007}},{"attributes":{"ID":520565,"DIS_CODE":0,"TOWNNAME":"佳里區","LI":"安西里","LIN":"31鄰","STREET":"光明街","SECT":" ","MAREA":" ","LANE":" ","ALLEY":" ","HOUSE_NO":"３６號","E_COORD97":165103.20999999999,"N_COORD97":2562952.5600000001,"ADDRESS":"光明街３６號","OBJECTID":520538},"geometry":{"x":165103.21000000089,"y":2562952.5600000005}},{"attributes":{"ID":520566,"DIS_CODE":0,"TOWNNAME":"佳里區","LI":"安西里","LIN":"31鄰","STREET":"光明街","SECT":" ","MAREA":" ","LANE":" ","ALLEY":" ","HOUSE_NO":"３７號","E_COORD97":165083.42999999999,"N_COORD97":2562936.3300000001,"ADDRESS":"光明街３７號","OBJECTID":520539},"geometry":{"x":165083.4299999997,"y":2562936.3300000001}},{"attributes":{"ID":520567,"DIS_CODE":0,"TOWNNAME":"佳里區","LI":"安西里","LIN":"31鄰","STREET":"光明街","SECT":" ","MAREA":" ","LANE":" ","ALLEY":" ","HOUSE_NO":"３８號","E_COORD97":165099.06,"N_COORD97":2562952.8700000001,"ADDRESS":"光明街３８號","OBJECTID":520540},"geometry":{"x":165099.06000000052,"y":2562952.8700000029}},{"attributes":{"ID":520568,"DIS_CODE":0,"TOWNNAME":"佳里區","LI":"安西里","LIN":"31鄰","STREET":"光明街","SECT":" ","MAREA":" ","LANE":" ","ALLEY":" ","HOUSE_NO":"３９號","E_COORD97":165078.76999999999,"N_COORD97":2562936.2000000002,"ADDRESS":"光明街３９號","OBJECTID":520541},"geometry":{"x":165078.77000000048,"y":2562936.1999999993}},{"attributes":{"ID":520569,"DIS_CODE":0,"TOWNNAME":"佳里區","LI":"安西里","LIN":"31鄰","STREET":"光明街","SECT":" ","MAREA":" ","LANE":" ","ALLEY":" ","HOUSE_NO":"３號","E_COORD97":165142.57000000001,"N_COORD97":2562924.8599999999,"ADDRESS":"光明街３號","OBJECTID":520542},"geometry":{"x":165142.5700000003,"y":2562924.8599999994}},{"attributes":{"ID":520570,"DIS_CODE":0,"TOWNNAME":"佳里區","LI":"安西里","LIN":"31鄰","STREET":"光明街","SECT":" ","MAREA":" ","LANE":" ","ALLEY":" ","HOUSE_NO":"４０號","E_COORD97":165095.09,"N_COORD97":2562953.27,"ADDRESS":"光明街４０號","OBJECTID":520543},"geometry":{"x":165095.09000000171,"y":2562953.2699999996}},{"attributes":{"ID":520571,"DIS_CODE":0,"TOWNNAME":"佳里區","LI":"安西里","LIN":"31鄰","STREET":"光明街","SECT":" ","MAREA":" ","LANE":" ","ALLEY":" ","HOUSE_NO":"４２號","E_COORD97":165091.04999999999,"N_COORD97":2562953.4500000002,"ADDRESS":"光明街４２號","OBJECTID":520544},"geometry":{"x":165091.05000000075,"y":2562953.4500000011}},{"attributes":{"ID":520572,"DIS_CODE":0,"TOWNNAME":"佳里區","LI":"安西里","LIN":"31鄰","STREET":"光明街","SECT":" ","MAREA":" ","LANE":" ","ALLEY":" ","HOUSE_NO":"４６號","E_COORD97":165086.95999999999,"N_COORD97":2562953.75,"ADDRESS":"光明街４６號","OBJECTID":520545},"geometry":{"x":165086.95999999996,"y":2562953.75}},{"attributes":{"ID":520573,"DIS_CODE":0,"TOWNNAME":"佳里區","LI":"安西里","LIN":"31鄰","STREET":"光明街","SECT":" ","MAREA":" ","LANE":" ","ALLEY":" ","HOUSE_NO":"４８號","E_COORD97":165083.10000000001,"N_COORD97":2562953.98,"ADDRESS":"光明街４８號","OBJECTID":520546},"geometry":{"x":165083.10000000056,"y":2562953.9800000023}},{"attributes":{"ID":520574,"DIS_CODE":0,"TOWNNAME":"佳里區","LI":"安西里","LIN":"31鄰","STREET":"光明街","SECT":" ","MAREA":" ","LANE":" ","ALLEY":" ","HOUSE_NO":"５０號","E_COORD97":165079.07999999999,"N_COORD97":2562954.3100000001,"ADDRESS":"光明街５０號","OBJECTID":520547},"geometry":{"x":165079.08000000101,"y":2562954.3099999987}},{"attributes":{"ID":520575,"DIS_CODE":0,"TOWNNAME":"佳里區","LI":"安西里","LIN":"31鄰","STREET":"光明街","SECT":" ","MAREA":" ","LANE":" ","ALLEY":" ","HOUSE_NO":"５２號","E_COORD97":165075,"N_COORD97":2562954.54,"ADDRESS":"光明街５２號","OBJECTID":520548},"geometry":{"x":165075,"y":2562954.5399999991}},{"attributes":{"ID":520576,"DIS_CODE":0,"TOWNNAME":"佳里區","LI":"安西里","LIN":"31鄰","STREET":"光明街","SECT":" ","MAREA":" ","LANE":" ","ALLEY":" ","HOUSE_NO":"５６號","E_COORD97":165071.14000000001,"N_COORD97":2562954.5800000001,"ADDRESS":"光明街５６號","OBJECTID":520549},"geometry":{"x":165071.1400000006,"y":2562954.5800000001}},{"attributes":{"ID":520577,"DIS_CODE":0,"TOWNNAME":"佳里區","LI":"安西里","LIN":"31鄰","STREET":"光明街","SECT":" ","MAREA":" ","LANE":" ","ALLEY":" ","HOUSE_NO":"５８號","E_COORD97":165065.89000000001,"N_COORD97":2562955.1600000001,"ADDRESS":"光明街５８號","OBJECTID":520550},"geometry":{"x":165065.8900000006,"y":2562955.1600000039}},{"attributes":{"ID":520578,"DIS_CODE":0,"TOWNNAME":"佳里區","LI":"安西里","LIN":"31鄰","STREET":"光明街","SECT":" ","MAREA":" ","LANE":" ","ALLEY":" ","HOUSE_NO":"５號","E_COORD97":165138.42999999999,"N_COORD97":2562926.7799999998,"ADDRESS":"光明街５號","OBJECTID":520551},"geometry":{"x":165138.43000000156,"y":2562926.7800000012}},{"attributes":{"ID":520579,"DIS_CODE":0,"TOWNNAME":"佳里區","LI":"安西里","LIN":"31鄰","STREET":"光明街","SECT":" ","MAREA":" ","LANE":" ","ALLEY":" ","HOUSE_NO":"６號","E_COORD97":165149.70999999999,"N_COORD97":2562937.5299999998,"ADDRESS":"光明街６號","OBJECTID":520552},"geometry":{"x":165149.70999999996,"y":2562937.5299999993}},{"attributes":{"ID":520580,"DIS_CODE":0,"TOWNNAME":"佳里區","LI":"安西里","LIN":"31鄰","STREET":"光明街","SECT":" ","MAREA":" ","LANE":" ","ALLEY":" ","HOUSE_NO":"７號","E_COORD97":165134.75,"N_COORD97":2562928.6499999999,"ADDRESS":"光明街７號","OBJECTID":520553},"geometry":{"x":165134.74999999907,"y":2562928.6500000022}},{"attributes":{"ID":520581,"DIS_CODE":0,"TOWNNAME":"佳里區","LI":"安西里","LIN":"31鄰","STREET":"光明街","SECT":" ","MAREA":" ","LANE":" ","ALLEY":" ","HOUSE_NO":"８號","E_COORD97":165146,"N_COORD97":2562939.8500000001,"ADDRESS":"光明街８號","OBJECTID":520554},"geometry":{"x":165146,"y":2562939.8500000034}},{"attributes":{"ID":520582,"DIS_CODE":0,"TOWNNAME":"佳里區","LI":"安西里","LIN":"31鄰","STREET":"光明街","SECT":" ","MAREA":" ","LANE":" ","ALLEY":" ","HOUSE_NO":"９號","E_COORD97":165133.37,"N_COORD97":2562908.7999999998,"ADDRESS":"光明街９號","OBJECTID":520555},"geometry":{"x":165133.37000000011,"y":2562908.8000000026}},{"attributes":{"ID":520583,"DIS_CODE":0,"TOWNNAME":"永康區","LI":"埔園里","LIN":"31鄰","STREET":"中山路","SECT":" ","MAREA":" ","LANE":" ","ALLEY":" ","HOUSE_NO":"４９２號","E_COORD97":173591.39000000001,"N_COORD97":2548591.75,"ADDRESS":"中山路４９２號","OBJECTID":520556},"geometry":{"x":173591.3900000006,"y":2548591.75}},{"attributes":{"ID":520584,"DIS_CODE":0,"TOWNNAME":"永康區","LI":"尚頂里","LIN":"31鄰","STREET":"中正南路","SECT":" ","MAREA":" ","LANE":" ","ALLEY":" ","HOUSE_NO":"３３７號","E_COORD97":170472.26000000001,"N_COORD97":2547729.6699999999,"ADDRESS":"中正南路３３７號","OBJECTID":520557},"geometry":{"x":170472.25999999978,"y":2547729.6700000018}},{"attributes":{"ID":520585,"DIS_CODE":0,"TOWNNAME":"永康區","LI":"尚頂里","LIN":"31鄰","STREET":"中正南路","SECT":" ","MAREA":" ","LANE":" ","ALLEY":" ","HOUSE_NO":"３５１號","E_COORD97":170500.14999999999,"N_COORD97":2547762.6000000001,"ADDRESS":"中正南路３５１號","OBJECTID":520558},"geometry":{"x":170500.1500000013,"y":2547762.5999999978}},{"attributes":{"ID":520586,"DIS_CODE":0,"TOWNNAME":"永康區","LI":"尚頂里","LIN":"31鄰","STREET":"中正南路","SECT":" ","MAREA":" ","LANE":" ","ALLEY":" ","HOUSE_NO":"３３１號","E_COORD97":170375.69,"N_COORD97":2547667.75,"ADDRESS":"中正南路３３１號","OBJECTID":520559},"geometry":{"x":170375.69000000134,"y":2547667.7500000019}},{"attributes":{"ID":520587,"DIS_CODE":0,"TOWNNAME":"永康區","LI":"尚頂里","LIN":"31鄰","STREET":"中正南路","SECT":" ","MAREA":" ","LANE":" ","ALLEY":" ","HOUSE_NO":"２４７號","E_COORD97":170081.47,"N_COORD97":2547344.0299999998,"ADDRESS":"中正南路２４７號","OBJECTID":520560},"geometry":{"x":170081.47000000067,"y":2547344.0300000012}},{"attributes":{"ID":520588,"DIS_CODE":0,"TOWNNAME":"永康區","LI":"尚頂里","LIN":"31鄰","STREET":"中正南路","SECT":" ","MAREA":" ","LANE":" ","ALLEY":" ","HOUSE_NO":"３２７號","E_COORD97":170370.84,"N_COORD97":2547630.3100000001,"ADDRESS":"中正南路３２７號","OBJECTID":520561},"geometry":{"x":170370.84000000078,"y":2547630.3100000042}},{"attributes":{"ID":520589,"DIS_CODE":0,"TOWNNAME":"永康區","LI":"尚頂里","LIN":"31鄰","STREET":"中正南路","SECT":" ","MAREA":" ","LANE":" ","ALLEY":" ","HOUSE_NO":"３４７號","E_COORD97":170478.41,"N_COORD97":2547757.8799999999,"ADDRESS":"中正南路３４７號","OBJECTID":520562},"geometry":{"x":170478.41000000015,"y":2547757.8800000008}},{"attributes":{"ID":520590,"DIS_CODE":0,"TOWNNAME":"永康區","LI":"尚頂里","LIN":"31鄰","STREET":"中正南路","SECT":" ","MAREA":" ","LANE":" ","ALLEY":" ","HOUSE_NO":"２４５號","E_COORD97":170076.79000000001,"N_COORD97":2547342.2999999998,"ADDRESS":"中正南路２４５號","OBJECTID":520563},"geometry":{"x":170076.79000000097,"y":2547342.3000000045}},{"attributes":{"ID":520591,"DIS_CODE":0,"TOWNNAME":"永康區","LI":"尚頂里","LIN":"31鄰","STREET":"中正南路","SECT":" ","MAREA":" ","LANE":" ","ALLEY":" ","HOUSE_NO":"２４３號","E_COORD97":170073.13,"N_COORD97":2547338.75,"ADDRESS":"中正南路２４３號","OBJECTID":520564},"geometry":{"x":170073.12999999989,"y":2547338.7500000019}},{"attributes":{"ID":520592,"DIS_CODE":0,"TOWNNAME":"永康區","LI":"尚頂里","LIN":"31鄰","STREET":"中正南路","SECT":" ","MAREA":" ","LANE":" ","ALLEY":" ","HOUSE_NO":"３４５號","E_COORD97":170480.92000000001,"N_COORD97":2547755.1299999999,"ADDRESS":"中正南路３４５號","OBJECTID":520565},"geometry":{"x":170480.92000000086,"y":2547755.1300000027}},{"attributes":{"ID":520593,"DIS_CODE":0,"TOWNNAME":"永康區","LI":"尚頂里","LIN":"31鄰","STREET":"中正南路","SECT":" ","MAREA":" ","LANE":" ","ALLEY":" ","HOUSE_NO":"３１１號","E_COORD97":170207.76999999999,"N_COORD97":2547497.3199999998,"ADDRESS":"中正南路３１１號","OBJECTID":520566},"geometry":{"x":170207.76999999955,"y":2547497.3199999984}},{"attributes":{"ID":520594,"DIS_CODE":0,"TOWNNAME":"永康區","LI":"尚頂里","LIN":"31鄰","STREET":"中正南路","SECT":" ","MAREA":" ","LANE":" ","ALLEY":" ","HOUSE_NO":"３２１號","E_COORD97":170280.98999999999,"N_COORD97":2547550.8199999998,"ADDRESS":"中正南路３２１號","OBJECTID":520567},"geometry":{"x":170280.99000000022,"y":2547550.8200000003}},{"attributes":{"ID":520595,"DIS_CODE":0,"TOWNNAME":"永康區","LI":"尚頂里","LIN":"31鄰","STREET":"中正南路","SECT":" ","MAREA":" ","LANE":" ","ALLEY":" ","HOUSE_NO":"２８１號","E_COORD97":170149.10000000001,"N_COORD97":2547418.1000000001,"ADDRESS":"中正南路２８１號","OBJECTID":520568},"geometry":{"x":170149.09999999963,"y":2547418.1000000015}},{"attributes":{"ID":520596,"DIS_CODE":0,"TOWNNAME":"永康區","LI":"尚頂里","LIN":"31鄰","STREET":"中正南路","SECT":" ","MAREA":" ","LANE":" ","ALLEY":" ","HOUSE_NO":"３５３號","E_COORD97":170505.25,"N_COORD97":2547766.7000000002,"ADDRESS":"中正南路３５３號","OBJECTID":520569},"geometry":{"x":170505.25000000186,"y":2547766.7000000011}},{"attributes":{"ID":520597,"DIS_CODE":0,"TOWNNAME":"永康區","LI":"尚頂里","LIN":"31鄰","STREET":"中正南路","SECT":" ","MAREA":" ","LANE":" ","ALLEY":" ","HOUSE_NO":"２９３號之１","E_COORD97":170143.67999999999,"N_COORD97":2547499.04,"ADDRESS":"中正南路２９３號之１","OBJECTID":520570},"geometry":{"x":170143.6799999997,"y":2547499.040000001}},{"attributes":{"ID":520598,"DIS_CODE":0,"TOWNNAME":"永康區","LI":"尚頂里","LIN":"31鄰","STREET":"中正南路","SECT":" ","MAREA":" ","LANE":" ","ALLEY":" ","HOUSE_NO":"２９５號","E_COORD97":170175.97,"N_COORD97":2547441.2200000002,"ADDRESS":"中正南路２９５號","OBJECTID":520571},"geometry":{"x":170175.96999999974,"y":2547441.2200000044}},{"attributes":{"ID":520599,"DIS_CODE":0,"TOWNNAME":"永康區","LI":"尚頂里","LIN":"31鄰","STREET":"中正南路","SECT":" ","MAREA":" ","LANE":" ","ALLEY":" ","HOUSE_NO":"２７９號","E_COORD97":170107.03,"N_COORD97":2547416.3500000001,"ADDRESS":"中正南路２７９號","OBJECTID":520572},"geometry":{"x":170107.03000000212,"y":2547416.3500000015}},{"attributes":{"ID":520600,"DIS_CODE":0,"TOWNNAME":"永康區","LI":"尚頂里","LIN":"31鄰","STREET":"中正南路","SECT":" ","MAREA":" ","LANE":" ","ALLEY":" ","HOUSE_NO":"３５５號","E_COORD97":170511.10999999999,"N_COORD97":2547769.9399999999,"ADDRESS":"中正南路３５５號","OBJECTID":520573},"geometry":{"x":170511.11000000034,"y":2547769.9399999995}},{"attributes":{"ID":520601,"DIS_CODE":0,"TOWNNAME":"永康區","LI":"尚頂里","LIN":"31鄰","STREET":"中正南路","SECT":" ","MAREA":" ","LANE":" ","ALLEY":" ","HOUSE_NO":"３３５號","E_COORD97":170466.95999999999,"N_COORD97":2547721.5,"ADDRESS":"中正南路３３５號","OBJECTID":520574},"geometry":{"x":170466.96000000089,"y":2547721.5}},{"attributes":{"ID":520602,"DIS_CODE":0,"TOWNNAME":"佳里區","LI":"安西里","LIN":"31鄰","STREET":"安西路","SECT":" ","MAREA":" ","LANE":" ","ALLEY":" ","HOUSE_NO":"２７９號","E_COORD97":165147.75,"N_COORD97":2562908.75,"ADDRESS":"安西路２７９號","OBJECTID":520575},"geometry":{"x":165147.75,"y":2562908.75}},{"attributes":{"ID":520603,"DIS_CODE":0,"TOWNNAME":"佳里區","LI":"安西里","LIN":"31鄰","STREET":"安西路","SECT":" ","MAREA":" ","LANE":" ","ALLEY":" ","HOUSE_NO":"２８１號","E_COORD97":165150.29000000001,"N_COORD97":2562912.0600000001,"ADDRESS":"安西路２８１號","OBJECTID":520576},"geometry":{"x":165150.29000000097,"y":2562912.0600000042}},{"attributes":{"ID":520604,"DIS_CODE":0,"TOWNNAME":"佳里區","LI":"安西里","LIN":"31鄰","STREET":"安西路","SECT":" ","MAREA":" ","LANE":" ","ALLEY":" ","HOUSE_NO":"２８３號","E_COORD97":165153.10000000001,"N_COORD97":2562916.48,"ADDRESS":"安西路２８３號","OBJECTID":520577},"geometry":{"x":165153.10000000056,"y":2562916.4800000023}},{"attributes":{"ID":520605,"DIS_CODE":0,"TOWNNAME":"佳里區","LI":"安西里","LIN":"31鄰","STREET":"安西路","SECT":" ","MAREA":" ","LANE":" ","ALLEY":" ","HOUSE_NO":"２８５號","E_COORD97":165165.06,"N_COORD97":2562930.54,"ADDRESS":"安西路２８５號","OBJECTID":520578},"geometry":{"x":165165.06000000052,"y":2562930.5399999991}},{"attributes":{"ID":520606,"DIS_CODE":0,"TOWNNAME":"佳里區","LI":"安西里","LIN":"31鄰","STREET":"安西路","SECT":" ","MAREA":" ","LANE":" ","ALLEY":" ","HOUSE_NO":"２８７號","E_COORD97":165169.44,"N_COORD97":2562934.23,"ADDRESS":"安西路２８７號","OBJECTID":520579},"geometry":{"x":165169.44000000041,"y":2562934.2300000004}},{"attributes":{"ID":520607,"DIS_CODE":0,"TOWNNAME":"佳里區","LI":"安西里","LIN":"31鄰","STREET":"安西路","SECT":" ","MAREA":" ","LANE":" ","ALLEY":" ","HOUSE_NO":"２８９號","E_COORD97":165171.92000000001,"N_COORD97":2562937.8999999999,"ADDRESS":"安西路２８９號","OBJECTID":520580},"geometry":{"x":165171.91999999993,"y":2562937.9000000022}},{"attributes":{"ID":520608,"DIS_CODE":0,"TOWNNAME":"佳里區","LI":"安西里","LIN":"31鄰","STREET":"安西路","SECT":" ","MAREA":" ","LANE":" ","ALLEY":" ","HOUSE_NO":"２９１號","E_COORD97":165174.95999999999,"N_COORD97":2562941.1200000001,"ADDRESS":"安西路２９１號","OBJECTID":520581},"geometry":{"x":165174.95999999996,"y":2562941.1200000029}},{"attributes":{"ID":520609,"DIS_CODE":0,"TOWNNAME":"佳里區","LI":"安西里","LIN":"31鄰","STREET":"安西路","SECT":" ","MAREA":" ","LANE":" ","ALLEY":" ","HOUSE_NO":"２９３號","E_COORD97":165177.54999999999,"N_COORD97":2562944.3100000001,"ADDRESS":"安西路２９３號","OBJECTID":520582},"geometry":{"x":165177.54999999981,"y":2562944.3100000042}},{"attributes":{"ID":520610,"DIS_CODE":0,"TOWNNAME":"佳里區","LI":"安西里","LIN":"31鄰","STREET":"安西路","SECT":" ","MAREA":" ","LANE":" ","ALLEY":" ","HOUSE_NO":"２９５號","E_COORD97":165180.06,"N_COORD97":2562947.0600000001,"ADDRESS":"安西路２９５號","OBJECTID":520583},"geometry":{"x":165180.06000000052,"y":2562947.0600000024}},{"attributes":{"ID":520611,"DIS_CODE":0,"TOWNNAME":"佳里區","LI":"安西里","LIN":"31鄰","STREET":"安西路","SECT":" ","MAREA":" ","LANE":" ","ALLEY":" ","HOUSE_NO":"２９７號","E_COORD97":165182.10000000001,"N_COORD97":2562950.5099999998,"ADDRESS":"安西路２９７號","OBJECTID":520584},"geometry":{"x":165182.09999999963,"y":2562950.5100000016}},{"attributes":{"ID":520612,"DIS_CODE":0,"TOWNNAME":"佳里區","LI":"安西里","LIN":"31鄰","STREET":"安西路","SECT":" ","MAREA":" ","LANE":" ","ALLEY":" ","HOUSE_NO":"２９９號","E_COORD97":165184.51999999999,"N_COORD97":2562953.6699999999,"ADDRESS":"安西路２９９號","OBJECTID":520585},"geometry":{"x":165184.51999999955,"y":2562953.6699999999}},{"attributes":{"ID":520613,"DIS_CODE":0,"TOWNNAME":"佳里區","LI":"安西里","LIN":"31鄰","STREET":"安西路","SECT":" ","MAREA":" ","LANE":" ","ALLEY":" ","HOUSE_NO":"３０１號","E_COORD97":165187.01000000001,"N_COORD97":2562956.9100000001,"ADDRESS":"安西路３０１號","OBJECTID":520586},"geometry":{"x":165187.00999999885,"y":2562956.9100000039}},{"attributes":{"ID":520614,"DIS_CODE":0,"TOWNNAME":"佳里區","LI":"安西里","LIN":"31鄰","STREET":"安西路","SECT":" ","MAREA":" ","LANE":" ","ALLEY":" ","HOUSE_NO":"３０３號","E_COORD97":165189.39999999999,"N_COORD97":2562960.4399999999,"ADDRESS":"安西路３０３號","OBJECTID":520587},"geometry":{"x":165189.40000000037,"y":2562960.4400000013}},{"attributes":{"ID":520615,"DIS_CODE":0,"TOWNNAME":"佳里區","LI":"安西里","LIN":"31鄰","STREET":"安西路","SECT":" ","MAREA":" ","LANE":" ","ALLEY":" ","HOUSE_NO":"３０５號","E_COORD97":165191.76000000001,"N_COORD97":2562963.5,"ADDRESS":"安西路３０５號","OBJECTID":520588},"geometry":{"x":165191.75999999978,"y":2562963.5000000019}},{"attributes":{"ID":520616,"DIS_CODE":0,"TOWNNAME":"佳里區","LI":"安西里","LIN":"31鄰","STREET":"安西路","SECT":" ","MAREA":" ","LANE":" ","ALLEY":" ","HOUSE_NO":"３０７號","E_COORD97":165193.97,"N_COORD97":2562966.7200000002,"ADDRESS":"安西路３０７號","OBJECTID":520589},"geometry":{"x":165193.96999999881,"y":2562966.7200000025}},{"attributes":{"ID":520617,"DIS_CODE":0,"TOWNNAME":"中西區","LI":"西湖里","LIN":"31鄰","STREET":"西湖街","SECT":" ","MAREA":" ","LANE":" ","ALLEY":" ","HOUSE_NO":"２１１號","E_COORD97":166218.23999999999,"N_COORD97":2544905.7599999998,"ADDRESS":"西湖街２１１號","OBJECTID":520590},"geometry":{"x":166218.23999999929,"y":2544905.7599999998}},{"attributes":{"ID":520618,"DIS_CODE":0,"TOWNNAME":"歸仁區","LI":"後市里","LIN":"31鄰","STREET":"民族北街","SECT":" ","MAREA":" ","LANE":" ","ALLEY":" ","HOUSE_NO":"４７號六樓之６","E_COORD97":177417.78,"N_COORD97":2540947.75,"ADDRESS":"民族北街４７號六樓之６","OBJECTID":520591},"geometry":{"x":177417.78000000026,"y":2540947.7500000037}},{"attributes":{"ID":520619,"DIS_CODE":0,"TOWNNAME":"歸仁區","LI":"後市里","LIN":"31鄰","STREET":"民族北街","SECT":" ","MAREA":" ","LANE":" ","ALLEY":" ","HOUSE_NO":"４７號四樓之５","E_COORD97":177417.79000000001,"N_COORD97":2540947.75,"ADDRESS":"民族北街４７號四樓之５","OBJECTID":520592},"geometry":{"x":177417.79000000004,"y":2540947.7500000037}},{"attributes":{"ID":520620,"DIS_CODE":0,"TOWNNAME":"歸仁區","LI":"後市里","LIN":"31鄰","STREET":"民族北街","SECT":" ","MAREA":" ","LANE":" ","ALLEY":" ","HOUSE_NO":"４７號五樓之６","E_COORD97":177417.78,"N_COORD97":2540947.75,"ADDRESS":"民族北街４７號五樓之６","OBJECTID":520593},"geometry":{"x":177417.78000000026,"y":2540947.7500000037}},{"attributes":{"ID":520621,"DIS_CODE":0,"TOWNNAME":"歸仁區","LI":"後市里","LIN":"31鄰","STREET":"民族北街","SECT":" ","MAREA":" ","LANE":" ","ALLEY":" ","HOUSE_NO":"４７號四樓之６","E_COORD97":177417.78,"N_COORD97":2540947.75,"ADDRESS":"民族北街４７號四樓之６","OBJECTID":520594},"geometry":{"x":177417.78000000026,"y":2540947.7500000037}},{"attributes":{"ID":520622,"DIS_CODE":0,"TOWNNAME":"永康區","LI":"\u25A0行里","LIN":"31鄰","STREET":"仁愛街","SECT":" ","MAREA":" ","LANE":" ","ALLEY":" ","HOUSE_NO":"４６號之１七樓","E_COORD97":171944.47,"N_COORD97":2549189.9700000002,"ADDRESS":"仁愛街４６號之１七樓","OBJECTID":520595},"geometry":{"x":171944.4700000016,"y":2549189.9700000025}},{"attributes":{"ID":520623,"DIS_CODE":0,"TOWNNAME":"永康區","LI":"\u25A0行里","LIN":"31鄰","STREET":"仁愛街","SECT":" ","MAREA":" ","LANE":" ","ALLEY":" ","HOUSE_NO":"４８號之２五樓","E_COORD97":171957.32999999999,"N_COORD97":2549210.48,"ADDRESS":"仁愛街４８號之２五樓","OBJECTID":520596},"geometry":{"x":171957.33000000007,"y":2549210.4800000004}},{"attributes":{"ID":520624,"DIS_CODE":0,"TOWNNAME":"永康區","LI":"\u25A0行里","LIN":"31鄰","STREET":"仁愛街","SECT":" ","MAREA":" ","LANE":" ","ALLEY":" ","HOUSE_NO":"４８號五樓","E_COORD97":171949.97,"N_COORD97":2549202.7200000002,"ADDRESS":"仁愛街４８號五樓","OBJECTID":520597},"geometry":{"x":171949.97000000067,"y":2549202.7200000007}},{"attributes":{"ID":520625,"DIS_CODE":0,"TOWNNAME":"永康區","LI":"\u25A0行里","LIN":"31鄰","STREET":"仁愛街","SECT":" ","MAREA":" ","LANE":" ","ALLEY":" ","HOUSE_NO":"４６號之７四樓","E_COORD97":171986.92999999999,"N_COORD97":2549218.9500000002,"ADDRESS":"仁愛街４６號之７四樓","OBJECTID":520598},"geometry":{"x":171986.93000000156,"y":2549218.9500000011}},{"attributes":{"ID":520626,"DIS_CODE":0,"TOWNNAME":"永康區","LI":"\u25A0行里","LIN":"31鄰","STREET":"仁愛街","SECT":" ","MAREA":" ","LANE":" ","ALLEY":" ","HOUSE_NO":"４８號之２六樓","E_COORD97":171957.32999999999,"N_COORD97":2549210.48,"ADDRESS":"仁愛街４８號之２六樓","OBJECTID":520599},"geometry":{"x":171957.33000000007,"y":2549210.4800000004}},{"attributes":{"ID":520627,"DIS_CODE":0,"TOWNNAME":"永康區","LI":"\u25A0行里","LIN":"31鄰","STREET":"仁愛街","SECT":" ","MAREA":" ","LANE":" ","ALLEY":" ","HOUSE_NO":"４８號之２四樓","E_COORD97":171957.32999999999,"N_COORD97":2549210.48,"ADDRESS":"仁愛街４８號之２四樓","OBJECTID":520600},"geometry":{"x":171957.33000000007,"y":2549210.4800000004}}]}