{"displayFieldName":"TOWNNAME","fieldAliases":{"ID":"ID","DIS_CODE":"DIS_CODE","TOWNNAME":"TOWNNAME","LI":"LI","LIN":"LIN","STREET":"STREET","SECT":"SECT","MAREA":"MAREA","LANE":"LANE","ALLEY":"ALLEY","HOUSE_NO":"HOUSE_NO","E_COORD97":"E_COORD97","N_COORD97":"N_COORD97","ADDRESS":"ADDRESS","OBJECTID":"OBJECTID"},"geometryType":"esriGeometryPoint","spatialReference":{"wkid":102443,"latestWkid":3826},"fields":[{"name":"ID","type":"esriFieldTypeDouble","alias":"ID"},{"name":"DIS_CODE","type":"esriFieldTypeInteger","alias":"DIS_CODE"},{"name":"TOWNNAME","type":"esriFieldTypeString","alias":"TOWNNAME","length":8},{"name":"LI","type":"esriFieldTypeString","alias":"LI","length":8},{"name":"LIN","type":"esriFieldTypeString","alias":"LIN","length":12},{"name":"STREET","type":"esriFieldTypeString","alias":"STREET","length":20},{"name":"SECT","type":"esriFieldTypeString","alias":"SECT","length":8},{"name":"MAREA","type":"esriFieldTypeString","alias":"MAREA","length":12},{"name":"LANE","type":"esriFieldTypeString","alias":"LANE","length":10},{"name":"ALLEY","type":"esriFieldTypeString","alias":"ALLEY","length":10},{"name":"HOUSE_NO","type":"esriFieldTypeString","alias":"HOUSE_NO","length":20},{"name":"E_COORD97","type":"esriFieldTypeDouble","alias":"E_COORD97"},{"name":"N_COORD97","type":"esriFieldTypeDouble","alias":"N_COORD97"},{"name":"ADDRESS","type":"esriFieldTypeString","alias":"ADDRESS","length":50},{"name":"OBJECTID","type":"esriFieldTypeOID","alias":"OBJECTID"}],"features":[{"attributes":{"ID":610228,"DIS_CODE":0,"TOWNNAME":"東區","LI":"後甲里","LIN":"3鄰","STREET":"裕農路","SECT":" ","MAREA":" ","LANE":" ","ALLEY":" ","HOUSE_NO":"６５５號","E_COORD97":171703.67999999999,"N_COORD97":2543244.9700000002,"ADDRESS":"裕農路６５５號","OBJECTID":610201},"geometry":{"x":171703.6799999997,"y":2543244.9700000007}},{"attributes":{"ID":610229,"DIS_CODE":0,"TOWNNAME":"東區","LI":"後甲里","LIN":"3鄰","STREET":"裕農路","SECT":" ","MAREA":" ","LANE":" ","ALLEY":" ","HOUSE_NO":"６５７號","E_COORD97":171710.20000000001,"N_COORD97":2543245.46,"ADDRESS":"裕農路６５７號","OBJECTID":610202},"geometry":{"x":171710.20000000019,"y":2543245.459999999}},{"attributes":{"ID":610230,"DIS_CODE":0,"TOWNNAME":"中西區","LI":"永華里","LIN":"3鄰","STREET":"府前路","SECT":"一段","MAREA":" ","LANE":" ","ALLEY":" ","HOUSE_NO":"１９８號","E_COORD97":168530.87,"N_COORD97":2543300.1499999999,"ADDRESS":"府前路一段１９８號","OBJECTID":610203},"geometry":{"x":168530.87000000011,"y":2543300.1500000004}},{"attributes":{"ID":610231,"DIS_CODE":0,"TOWNNAME":"中西區","LI":"永華里","LIN":"3鄰","STREET":"府前路","SECT":"一段","MAREA":" ","LANE":" ","ALLEY":" ","HOUSE_NO":"２００號","E_COORD97":168526.94,"N_COORD97":2543299.6299999999,"ADDRESS":"府前路一段２００號","OBJECTID":610204},"geometry":{"x":168526.94000000041,"y":2543299.629999999}},{"attributes":{"ID":610232,"DIS_CODE":0,"TOWNNAME":"中西區","LI":"永華里","LIN":"3鄰","STREET":"府前路","SECT":"一段","MAREA":" ","LANE":" ","ALLEY":" ","HOUSE_NO":"２０２號","E_COORD97":168521.29999999999,"N_COORD97":2543299.3300000001,"ADDRESS":"府前路一段２０２號","OBJECTID":610205},"geometry":{"x":168521.30000000168,"y":2543299.3300000001}},{"attributes":{"ID":610233,"DIS_CODE":0,"TOWNNAME":"中西區","LI":"永華里","LIN":"3鄰","STREET":"府前路","SECT":"一段","MAREA":" ","LANE":" ","ALLEY":" ","HOUSE_NO":"２０４號","E_COORD97":168518.39999999999,"N_COORD97":2543299.8500000001,"ADDRESS":"府前路一段２０４號","OBJECTID":610206},"geometry":{"x":168518.4000000013,"y":2543299.8500000015}},{"attributes":{"ID":610234,"DIS_CODE":0,"TOWNNAME":"中西區","LI":"永華里","LIN":"3鄰","STREET":"府前路","SECT":"一段","MAREA":" ","LANE":" ","ALLEY":" ","HOUSE_NO":"２０６號","E_COORD97":168513.64999999999,"N_COORD97":2543299.9300000002,"ADDRESS":"府前路一段２０６號","OBJECTID":610207},"geometry":{"x":168513.65000000037,"y":2543299.9300000016}},{"attributes":{"ID":610235,"DIS_CODE":0,"TOWNNAME":"中西區","LI":"永華里","LIN":"3鄰","STREET":"府前路","SECT":"一段","MAREA":" ","LANE":" ","ALLEY":" ","HOUSE_NO":"２０８號","E_COORD97":168509.42000000001,"N_COORD97":2543300.2200000002,"ADDRESS":"府前路一段２０８號","OBJECTID":610208},"geometry":{"x":168509.42000000086,"y":2543300.2200000007}},{"attributes":{"ID":610236,"DIS_CODE":0,"TOWNNAME":"中西區","LI":"永華里","LIN":"3鄰","STREET":"府前路","SECT":"一段","MAREA":" ","LANE":" ","ALLEY":" ","HOUSE_NO":"２１０號","E_COORD97":168501.69,"N_COORD97":2543300.6699999999,"ADDRESS":"府前路一段２１０號","OBJECTID":610209},"geometry":{"x":168501.69000000041,"y":2543300.6699999981}},{"attributes":{"ID":610237,"DIS_CODE":0,"TOWNNAME":"中西區","LI":"永華里","LIN":"3鄰","STREET":"府前路","SECT":"一段","MAREA":" ","LANE":" ","ALLEY":" ","HOUSE_NO":"２１４號","E_COORD97":168495.19,"N_COORD97":2543300.3700000001,"ADDRESS":"府前路一段２１４號","OBJECTID":610210},"geometry":{"x":168495.19000000041,"y":2543300.370000001}},{"attributes":{"ID":610238,"DIS_CODE":0,"TOWNNAME":"中西區","LI":"永華里","LIN":"3鄰","STREET":"府前路","SECT":"一段","MAREA":" ","LANE":" ","ALLEY":" ","HOUSE_NO":"２１６號","E_COORD97":168491.85000000001,"N_COORD97":2543301.1899999999,"ADDRESS":"府前路一段２１６號","OBJECTID":610211},"geometry":{"x":168491.8499999987,"y":2543301.1900000013}},{"attributes":{"ID":610239,"DIS_CODE":0,"TOWNNAME":"中西區","LI":"永華里","LIN":"3鄰","STREET":"府前路","SECT":"一段","MAREA":" ","LANE":" ","ALLEY":" ","HOUSE_NO":"２１８號","E_COORD97":168473.73000000001,"N_COORD97":2543300.8199999998,"ADDRESS":"府前路一段２１８號","OBJECTID":610212},"geometry":{"x":168473.73000000138,"y":2543300.8200000022}},{"attributes":{"ID":610240,"DIS_CODE":0,"TOWNNAME":"中西區","LI":"永華里","LIN":"3鄰","STREET":"南門路","SECT":" ","MAREA":" ","LANE":" ","ALLEY":" ","HOUSE_NO":"８１號","E_COORD97":168469.23000000001,"N_COORD97":2543323.2000000002,"ADDRESS":"南門路８１號","OBJECTID":610213},"geometry":{"x":168469.23000000045,"y":2543323.1999999993}},{"attributes":{"ID":610241,"DIS_CODE":0,"TOWNNAME":"中西區","LI":"永華里","LIN":"3鄰","STREET":"南門路","SECT":" ","MAREA":" ","LANE":" ","ALLEY":" ","HOUSE_NO":"８３號","E_COORD97":168468.01999999999,"N_COORD97":2543310.8300000001,"ADDRESS":"南門路８３號","OBJECTID":610214},"geometry":{"x":168468.01999999955,"y":2543310.8300000019}},{"attributes":{"ID":610242,"DIS_CODE":0,"TOWNNAME":"中西區","LI":"青年里","LIN":"3鄰","STREET":"青年路","SECT":" ","MAREA":" ","LANE":" ","ALLEY":" ","HOUSE_NO":"１４９號","E_COORD97":168971.51999999999,"N_COORD97":2543611.6299999999,"ADDRESS":"青年路１４９號","OBJECTID":610215},"geometry":{"x":168971.51999999955,"y":2543611.629999999}},{"attributes":{"ID":610243,"DIS_CODE":0,"TOWNNAME":"中西區","LI":"青年里","LIN":"3鄰","STREET":"青年路","SECT":" ","MAREA":" ","LANE":" ","ALLEY":" ","HOUSE_NO":"１５１號","E_COORD97":168975.01999999999,"N_COORD97":2543609.7200000002,"ADDRESS":"青年路１５１號","OBJECTID":610216},"geometry":{"x":168975.01999999955,"y":2543609.7200000044}},{"attributes":{"ID":610244,"DIS_CODE":0,"TOWNNAME":"中西區","LI":"青年里","LIN":"3鄰","STREET":"青年路","SECT":" ","MAREA":" ","LANE":" ","ALLEY":" ","HOUSE_NO":"１５３號","E_COORD97":168978.85000000001,"N_COORD97":2543609.7200000002,"ADDRESS":"青年路１５３號","OBJECTID":610217},"geometry":{"x":168978.85000000056,"y":2543609.7200000044}},{"attributes":{"ID":610245,"DIS_CODE":0,"TOWNNAME":"中西區","LI":"青年里","LIN":"3鄰","STREET":"青年路","SECT":" ","MAREA":" ","LANE":" ","ALLEY":" ","HOUSE_NO":"１５５號","E_COORD97":168984.26999999999,"N_COORD97":2543614.1699999999,"ADDRESS":"青年路１５５號","OBJECTID":610218},"geometry":{"x":168984.27000000048,"y":2543614.1700000018}},{"attributes":{"ID":610246,"DIS_CODE":0,"TOWNNAME":"中西區","LI":"青年里","LIN":"3鄰","STREET":"青年路","SECT":" ","MAREA":" ","LANE":" ","ALLEY":" ","HOUSE_NO":"１５７號","E_COORD97":169000.56,"N_COORD97":2543637.1000000001,"ADDRESS":"青年路１５７號","OBJECTID":610219},"geometry":{"x":169000.55999999959,"y":2543637.1000000015}},{"attributes":{"ID":610247,"DIS_CODE":0,"TOWNNAME":"中西區","LI":"青年里","LIN":"3鄰","STREET":"青年路","SECT":" ","MAREA":" ","LANE":" ","ALLEY":" ","HOUSE_NO":"１５９號","E_COORD97":168998.29999999999,"N_COORD97":2543627.8599999999,"ADDRESS":"青年路１５９號","OBJECTID":610220},"geometry":{"x":168998.30000000075,"y":2543627.8600000031}},{"attributes":{"ID":610248,"DIS_CODE":0,"TOWNNAME":"中西區","LI":"青年里","LIN":"3鄰","STREET":"青年路","SECT":" ","MAREA":" ","LANE":" ","ALLEY":" ","HOUSE_NO":"１６１號","E_COORD97":168998.94,"N_COORD97":2543621.8199999998,"ADDRESS":"青年路１６１號","OBJECTID":610221},"geometry":{"x":168998.93999999948,"y":2543621.8200000003}},{"attributes":{"ID":610249,"DIS_CODE":0,"TOWNNAME":"中西區","LI":"青年里","LIN":"3鄰","STREET":"青年路","SECT":" ","MAREA":" ","LANE":" ","ALLEY":" ","HOUSE_NO":"１７５號","E_COORD97":169050.92000000001,"N_COORD97":2543596.3900000001,"ADDRESS":"青年路１７５號","OBJECTID":610222},"geometry":{"x":169050.91999999993,"y":2543596.3900000025}},{"attributes":{"ID":610250,"DIS_CODE":0,"TOWNNAME":"中西區","LI":"青年里","LIN":"3鄰","STREET":"青年路","SECT":" ","MAREA":" ","LANE":" ","ALLEY":" ","HOUSE_NO":"１７７號","E_COORD97":169055.26000000001,"N_COORD97":2543599.1499999999,"ADDRESS":"青年路１７７號","OBJECTID":610223},"geometry":{"x":169055.25999999978,"y":2543599.1500000004}},{"attributes":{"ID":610251,"DIS_CODE":0,"TOWNNAME":"永康區","LI":"大橋里","LIN":"3鄰","STREET":"大橋三街","SECT":" ","MAREA":" ","LANE":" ","ALLEY":" ","HOUSE_NO":"９８號","E_COORD97":170722,"N_COORD97":2546660.75,"ADDRESS":"大橋三街９８號","OBJECTID":610224},"geometry":{"x":170722,"y":2546660.7500000019}},{"attributes":{"ID":610252,"DIS_CODE":0,"TOWNNAME":"東區","LI":"南聖里","LIN":"3鄰","STREET":"富農街","SECT":"二段","MAREA":" ","LANE":" ","ALLEY":" ","HOUSE_NO":"１１２號","E_COORD97":171639.94,"N_COORD97":2543102.5499999998,"ADDRESS":"富農街二段１１２號","OBJECTID":610225},"geometry":{"x":171639.94000000041,"y":2543102.5500000045}},{"attributes":{"ID":610253,"DIS_CODE":0,"TOWNNAME":"東區","LI":"圍下里","LIN":"3鄰","STREET":"東榮街","SECT":" ","MAREA":" ","LANE":" ","ALLEY":" ","HOUSE_NO":"５３號","E_COORD97":169556.95999999999,"N_COORD97":2543380.3700000001,"ADDRESS":"東榮街５３號","OBJECTID":610226},"geometry":{"x":169556.96000000089,"y":2543380.370000001}},{"attributes":{"ID":610254,"DIS_CODE":0,"TOWNNAME":"東區","LI":"崇德里","LIN":"3鄰","STREET":"崇德六街","SECT":" ","MAREA":" ","LANE":" ","ALLEY":" ","HOUSE_NO":"４５號","E_COORD97":170759.66,"N_COORD97":2541791.6000000001,"ADDRESS":"崇德六街４５號","OBJECTID":610227},"geometry":{"x":170759.66000000015,"y":2541791.5999999996}},{"attributes":{"ID":610255,"DIS_CODE":0,"TOWNNAME":"東區","LI":"中西里","LIN":"3鄰","STREET":"東門路","SECT":"一段","MAREA":" ","LANE":" ","ALLEY":" ","HOUSE_NO":"２５７號","E_COORD97":169820.73000000001,"N_COORD97":2543078.6600000001,"ADDRESS":"東門路一段２５７號","OBJECTID":610228},"geometry":{"x":169820.73000000045,"y":2543078.660000002}},{"attributes":{"ID":610256,"DIS_CODE":0,"TOWNNAME":"中西區","LI":"協進里","LIN":"10鄰","STREET":"民生路","SECT":"二段","MAREA":" ","LANE":" ","ALLEY":" ","HOUSE_NO":"３６８號","E_COORD97":166872.56,"N_COORD97":2544255.4700000002,"ADDRESS":"民生路二段３６８號","OBJECTID":610229},"geometry":{"x":166872.55999999959,"y":2544255.4699999988}},{"attributes":{"ID":610257,"DIS_CODE":0,"TOWNNAME":"中西區","LI":"協進里","LIN":"10鄰","STREET":"民生路","SECT":"二段","MAREA":" ","LANE":" ","ALLEY":" ","HOUSE_NO":"３７０號","E_COORD97":166866.87,"N_COORD97":2544255.4700000002,"ADDRESS":"民生路二段３７０號","OBJECTID":610230},"geometry":{"x":166866.87000000104,"y":2544255.4699999988}},{"attributes":{"ID":610258,"DIS_CODE":0,"TOWNNAME":"中西區","LI":"協進里","LIN":"10鄰","STREET":"民生路","SECT":"二段","MAREA":" ","LANE":" ","ALLEY":" ","HOUSE_NO":"３７２號","E_COORD97":166861.72,"N_COORD97":2544255.3599999999,"ADDRESS":"民生路二段３７２號","OBJECTID":610231},"geometry":{"x":166861.71999999974,"y":2544255.3600000031}},{"attributes":{"ID":610259,"DIS_CODE":0,"TOWNNAME":"中西區","LI":"協進里","LIN":"10鄰","STREET":"民生路","SECT":"二段","MAREA":" ","LANE":" ","ALLEY":" ","HOUSE_NO":"３７４號","E_COORD97":166857.20999999999,"N_COORD97":2544255.6899999999,"ADDRESS":"民生路二段３７４號","OBJECTID":610232},"geometry":{"x":166857.20999999996,"y":2544255.6899999995}},{"attributes":{"ID":610260,"DIS_CODE":0,"TOWNNAME":"中西區","LI":"協進里","LIN":"10鄰","STREET":"民生路","SECT":"二段","MAREA":" ","LANE":" ","ALLEY":" ","HOUSE_NO":"３８６號","E_COORD97":166831.66,"N_COORD97":2544257.0800000001,"ADDRESS":"民生路二段３８６號","OBJECTID":610233},"geometry":{"x":166831.66000000015,"y":2544257.0800000001}},{"attributes":{"ID":610261,"DIS_CODE":0,"TOWNNAME":"中西區","LI":"協進里","LIN":"10鄰","STREET":"民生路","SECT":"二段","MAREA":" ","LANE":" ","ALLEY":" ","HOUSE_NO":"３８８之１號","E_COORD97":166818.82000000001,"N_COORD97":2544274.6000000001,"ADDRESS":"民生路二段３８８之１號","OBJECTID":610234},"geometry":{"x":166818.82000000123,"y":2544274.6000000015}},{"attributes":{"ID":610262,"DIS_CODE":0,"TOWNNAME":"中西區","LI":"協進里","LIN":"10鄰","STREET":"民生路","SECT":"二段","MAREA":" ","LANE":" ","ALLEY":" ","HOUSE_NO":"３８８之１號底一層","E_COORD97":166817.10000000001,"N_COORD97":2544266.1800000002,"ADDRESS":"民生路二段３８８之１號底一層","OBJECTID":610235},"geometry":{"x":166817.10000000149,"y":2544266.1799999997}},{"attributes":{"ID":610263,"DIS_CODE":0,"TOWNNAME":"中西區","LI":"協進里","LIN":"10鄰","STREET":"民生路","SECT":"二段","MAREA":" ","LANE":" ","ALLEY":" ","HOUSE_NO":"３９０號","E_COORD97":166819.03,"N_COORD97":2544269.8199999998,"ADDRESS":"民生路二段３９０號","OBJECTID":610236},"geometry":{"x":166819.03000000119,"y":2544269.820000004}},{"attributes":{"ID":610264,"DIS_CODE":0,"TOWNNAME":"中西區","LI":"協進里","LIN":"10鄰","STREET":"民生路","SECT":"二段","MAREA":" ","LANE":" ","ALLEY":" ","HOUSE_NO":"３９２之１號","E_COORD97":166821.92999999999,"N_COORD97":2544281.5099999998,"ADDRESS":"民生路二段３９２之１號","OBJECTID":610237},"geometry":{"x":166821.93000000063,"y":2544281.5100000035}},{"attributes":{"ID":610265,"DIS_CODE":0,"TOWNNAME":"中西區","LI":"協進里","LIN":"10鄰","STREET":"民生路","SECT":"二段","MAREA":" ","LANE":" ","ALLEY":" ","HOUSE_NO":"３９２號","E_COORD97":166820.85000000001,"N_COORD97":2544277.2200000002,"ADDRESS":"民生路二段３９２號","OBJECTID":610238},"geometry":{"x":166820.85000000056,"y":2544277.2200000007}},{"attributes":{"ID":610266,"DIS_CODE":0,"TOWNNAME":"中西區","LI":"協進里","LIN":"10鄰","STREET":"臨安路","SECT":"一段","MAREA":" ","LANE":" ","ALLEY":" ","HOUSE_NO":"１１號","E_COORD97":166881.59,"N_COORD97":2544278.8999999999,"ADDRESS":"臨安路一段１１號","OBJECTID":610239},"geometry":{"x":166881.58999999985,"y":2544278.9000000004}},{"attributes":{"ID":610267,"DIS_CODE":0,"TOWNNAME":"中西區","LI":"協進里","LIN":"10鄰","STREET":"臨安路","SECT":"一段","MAREA":" ","LANE":" ","ALLEY":" ","HOUSE_NO":"１３號","E_COORD97":166882.34,"N_COORD97":2544283.6099999999,"ADDRESS":"臨安路一段１３號","OBJECTID":610240},"geometry":{"x":166882.34000000078,"y":2544283.6099999994}},{"attributes":{"ID":610268,"DIS_CODE":0,"TOWNNAME":"中西區","LI":"協進里","LIN":"10鄰","STREET":"臨安路","SECT":"一段","MAREA":" ","LANE":" ","ALLEY":" ","HOUSE_NO":"７號","E_COORD97":166879.54999999999,"N_COORD97":2544268.9300000002,"ADDRESS":"臨安路一段７號","OBJECTID":610241},"geometry":{"x":166879.54999999981,"y":2544268.9300000016}},{"attributes":{"ID":610269,"DIS_CODE":0,"TOWNNAME":"中西區","LI":"協進里","LIN":"11鄰","STREET":"民生路","SECT":"二段","MAREA":" ","LANE":" ","ALLEY":" ","HOUSE_NO":"３９６之１號","E_COORD97":166824.92999999999,"N_COORD97":2544294.1600000001,"ADDRESS":"民生路二段３９６之１號","OBJECTID":610242},"geometry":{"x":166824.9299999997,"y":2544294.1600000001}},{"attributes":{"ID":610270,"DIS_CODE":0,"TOWNNAME":"中西區","LI":"協進里","LIN":"11鄰","STREET":"民生路","SECT":"二段","MAREA":" ","LANE":" ","ALLEY":" ","HOUSE_NO":"３９６號","E_COORD97":166823.54000000001,"N_COORD97":2544289.7599999998,"ADDRESS":"民生路二段３９６號","OBJECTID":610243},"geometry":{"x":166823.54000000097,"y":2544289.7599999998}},{"attributes":{"ID":610271,"DIS_CODE":0,"TOWNNAME":"中西區","LI":"文賢里","LIN":"3鄰","STREET":"文和街","SECT":" ","MAREA":" ","LANE":" ","ALLEY":" ","HOUSE_NO":"９３號","E_COORD97":167149.92000000001,"N_COORD97":2544832.5600000001,"ADDRESS":"文和街９３號","OBJECTID":610244},"geometry":{"x":167149.92000000086,"y":2544832.5600000024}},{"attributes":{"ID":610272,"DIS_CODE":0,"TOWNNAME":"永康區","LI":"大灣里","LIN":"3鄰","STREET":"信義二街","SECT":" ","MAREA":" ","LANE":" ","ALLEY":" ","HOUSE_NO":"１２３號","E_COORD97":174836.48000000001,"N_COORD97":2545720.7400000002,"ADDRESS":"信義二街１２３號","OBJECTID":610245},"geometry":{"x":174836.48000000045,"y":2545720.7400000002}},{"attributes":{"ID":610273,"DIS_CODE":0,"TOWNNAME":"永康區","LI":"大橋里","LIN":"3鄰","STREET":"大橋三街","SECT":" ","MAREA":" ","LANE":" ","ALLEY":" ","HOUSE_NO":"１２８號","E_COORD97":170771.82000000001,"N_COORD97":2546697.9900000002,"ADDRESS":"大橋三街１２８號","OBJECTID":610246},"geometry":{"x":170771.82000000123,"y":2546697.9900000002}},{"attributes":{"ID":610274,"DIS_CODE":0,"TOWNNAME":"永康區","LI":"大灣里","LIN":"3鄰","STREET":"信義二街","SECT":" ","MAREA":" ","LANE":" ","ALLEY":" ","HOUSE_NO":"１１３號","E_COORD97":174858.44,"N_COORD97":2545726.5899999999,"ADDRESS":"信義二街１１３號","OBJECTID":610247},"geometry":{"x":174858.44000000041,"y":2545726.5900000017}},{"attributes":{"ID":610275,"DIS_CODE":0,"TOWNNAME":"永康區","LI":"大橋里","LIN":"3鄰","STREET":"大橋二街","SECT":" ","MAREA":" ","LANE":" ","ALLEY":" ","HOUSE_NO":"１０７號","E_COORD97":170825.35999999999,"N_COORD97":2546613.8199999998,"ADDRESS":"大橋二街１０７號","OBJECTID":610248},"geometry":{"x":170825.36000000127,"y":2546613.8200000022}},{"attributes":{"ID":610276,"DIS_CODE":0,"TOWNNAME":"仁德區","LI":"仁德里","LIN":"3鄰","STREET":"仁中六街","SECT":" ","MAREA":" ","LANE":" ","ALLEY":" ","HOUSE_NO":"７５號","E_COORD97":173311.13,"N_COORD97":2540380.2400000002,"ADDRESS":"仁中六街７５號","OBJECTID":610249},"geometry":{"x":173311.12999999989,"y":2540380.2400000002}},{"attributes":{"ID":610277,"DIS_CODE":0,"TOWNNAME":"仁德區","LI":"仁德里","LIN":"3鄰","STREET":"仁中七街","SECT":" ","MAREA":" ","LANE":" ","ALLEY":" ","HOUSE_NO":"１２６號","E_COORD97":173310.60000000001,"N_COORD97":2540360,"ADDRESS":"仁中七街１２６號","OBJECTID":610250},"geometry":{"x":173310.59999999963,"y":2540360.0000000019}},{"attributes":{"ID":610278,"DIS_CODE":0,"TOWNNAME":"仁德區","LI":"仁德里","LIN":"3鄰","STREET":"仁中五街","SECT":" ","MAREA":" ","LANE":" ","ALLEY":" ","HOUSE_NO":"７２號","E_COORD97":173341.78,"N_COORD97":2540303,"ADDRESS":"仁中五街７２號","OBJECTID":610251},"geometry":{"x":173341.78000000119,"y":2540303.0000000019}},{"attributes":{"ID":610279,"DIS_CODE":0,"TOWNNAME":"中西區","LI":"協和里","LIN":"3鄰","STREET":"文賢路","SECT":" ","MAREA":" ","LANE":" ","ALLEY":" ","HOUSE_NO":"３１號","E_COORD97":167404.14000000001,"N_COORD97":2544498.8700000001,"ADDRESS":"文賢路３１號","OBJECTID":610252},"geometry":{"x":167404.1400000006,"y":2544498.8700000029}},{"attributes":{"ID":610280,"DIS_CODE":0,"TOWNNAME":"中西區","LI":"協進里","LIN":"11鄰","STREET":"民生路","SECT":"二段","MAREA":" ","LANE":" ","ALLEY":" ","HOUSE_NO":"３９８之１號","E_COORD97":166829.12,"N_COORD97":2544309.0699999998,"ADDRESS":"民生路二段３９８之１號","OBJECTID":610253},"geometry":{"x":166829.12000000011,"y":2544309.070000004}},{"attributes":{"ID":610281,"DIS_CODE":0,"TOWNNAME":"中西區","LI":"協進里","LIN":"11鄰","STREET":"民生路","SECT":"二段","MAREA":" ","LANE":" ","ALLEY":" ","HOUSE_NO":"３９８號","E_COORD97":166827.19,"N_COORD97":2544304.0299999998,"ADDRESS":"民生路二段３９８號","OBJECTID":610254},"geometry":{"x":166827.19000000041,"y":2544304.0299999993}},{"attributes":{"ID":610282,"DIS_CODE":0,"TOWNNAME":"中西區","LI":"文賢里","LIN":"3鄰","STREET":"文和街","SECT":" ","MAREA":" ","LANE":" ","ALLEY":" ","HOUSE_NO":"９９號","E_COORD97":167139.60000000001,"N_COORD97":2544823.5699999998,"ADDRESS":"文和街９９號","OBJECTID":610255},"geometry":{"x":167139.60000000056,"y":2544823.5700000003}},{"attributes":{"ID":610283,"DIS_CODE":0,"TOWNNAME":"中西區","LI":"文賢里","LIN":"3鄰","STREET":"文和街","SECT":" ","MAREA":" ","LANE":" ","ALLEY":" ","HOUSE_NO":"８１號","E_COORD97":167169.28,"N_COORD97":2544851.7999999998,"ADDRESS":"文和街８１號","OBJECTID":610256},"geometry":{"x":167169.28000000119,"y":2544851.8000000026}},{"attributes":{"ID":610284,"DIS_CODE":0,"TOWNNAME":"中西區","LI":"文賢里","LIN":"3鄰","STREET":"文和街","SECT":" ","MAREA":" ","LANE":" ","ALLEY":" ","HOUSE_NO":"８７號","E_COORD97":167158.82000000001,"N_COORD97":2544842.2200000002,"ADDRESS":"文和街８７號","OBJECTID":610257},"geometry":{"x":167158.82000000216,"y":2544842.2200000025}},{"attributes":{"ID":610285,"DIS_CODE":0,"TOWNNAME":"中西區","LI":"開山里","LIN":"3鄰","STREET":"府前路","SECT":"一段","MAREA":" ","LANE":" ","ALLEY":" ","HOUSE_NO":"１３１號","E_COORD97":168824.73000000001,"N_COORD97":2543269.71,"ADDRESS":"府前路一段１３１號","OBJECTID":610258},"geometry":{"x":168824.73000000138,"y":2543269.7100000009}},{"attributes":{"ID":610286,"DIS_CODE":0,"TOWNNAME":"中西區","LI":"開山里","LIN":"3鄰","STREET":"府前路","SECT":"一段","MAREA":" ","LANE":" ","ALLEY":" ","HOUSE_NO":"１３３號","E_COORD97":168820.73000000001,"N_COORD97":2543268.0499999998,"ADDRESS":"府前路一段１３３號","OBJECTID":610259},"geometry":{"x":168820.73000000231,"y":2543268.0500000007}},{"attributes":{"ID":610287,"DIS_CODE":0,"TOWNNAME":"中西區","LI":"開山里","LIN":"3鄰","STREET":"府前路","SECT":"一段","MAREA":" ","LANE":" ","ALLEY":" ","HOUSE_NO":"１３５號","E_COORD97":168817,"N_COORD97":2543270.8399999999,"ADDRESS":"府前路一段１３５號","OBJECTID":610260},"geometry":{"x":168817.00000000093,"y":2543270.8399999999}},{"attributes":{"ID":610288,"DIS_CODE":0,"TOWNNAME":"中西區","LI":"開山里","LIN":"3鄰","STREET":"府前路","SECT":"一段","MAREA":" ","LANE":" ","ALLEY":" ","HOUSE_NO":"１３７號","E_COORD97":168812.73999999999,"N_COORD97":2543268.98,"ADDRESS":"府前路一段１３７號","OBJECTID":610261},"geometry":{"x":168812.74000000115,"y":2543268.9800000042}},{"attributes":{"ID":610289,"DIS_CODE":0,"TOWNNAME":"中西區","LI":"開山里","LIN":"3鄰","STREET":"府前路","SECT":"一段","MAREA":" ","LANE":" ","ALLEY":" ","HOUSE_NO":"１３９號","E_COORD97":168804.14999999999,"N_COORD97":2543270.3100000001,"ADDRESS":"府前路一段１３９號","OBJECTID":610262},"geometry":{"x":168804.15000000037,"y":2543270.3100000024}},{"attributes":{"ID":610290,"DIS_CODE":0,"TOWNNAME":"中西區","LI":"開山里","LIN":"3鄰","STREET":"府前路","SECT":"一段","MAREA":" ","LANE":" ","ALLEY":" ","HOUSE_NO":"１３９號之１","E_COORD97":168793.62,"N_COORD97":2543271.3799999999,"ADDRESS":"府前路一段１３９號之１","OBJECTID":610263},"geometry":{"x":168793.62000000011,"y":2543271.3800000027}},{"attributes":{"ID":610291,"DIS_CODE":0,"TOWNNAME":"中西區","LI":"開山里","LIN":"3鄰","STREET":"府前路","SECT":"一段","MAREA":" ","LANE":" ","ALLEY":" ","HOUSE_NO":"９９號","E_COORD97":168907.57000000001,"N_COORD97":2543260.6099999999,"ADDRESS":"府前路一段９９號","OBJECTID":610264},"geometry":{"x":168907.5700000003,"y":2543260.6100000013}},{"attributes":{"ID":610292,"DIS_CODE":0,"TOWNNAME":"仁德區","LI":"仁德里","LIN":"3鄰","STREET":"仁中六街","SECT":" ","MAREA":" ","LANE":" ","ALLEY":" ","HOUSE_NO":"１０６號","E_COORD97":173398.04000000001,"N_COORD97":2540460.7400000002,"ADDRESS":"仁中六街１０６號","OBJECTID":610265},"geometry":{"x":173398.04000000004,"y":2540460.7400000021}},{"attributes":{"ID":610293,"DIS_CODE":0,"TOWNNAME":"中西區","LI":"三合里","LIN":"13鄰","STREET":"信義街","SECT":" ","MAREA":" ","LANE":" ","ALLEY":" ","HOUSE_NO":"８４號","E_COORD97":167508.95000000001,"N_COORD97":2544547.27,"ADDRESS":"信義街８４號","OBJECTID":610266},"geometry":{"x":167508.95000000112,"y":2544547.2699999977}},{"attributes":{"ID":610294,"DIS_CODE":0,"TOWNNAME":"中西區","LI":"三合里","LIN":"13鄰","STREET":"信義街","SECT":" ","MAREA":" ","LANE":" ","ALLEY":" ","HOUSE_NO":"８６號","E_COORD97":167505.01999999999,"N_COORD97":2544549.4399999999,"ADDRESS":"信義街８６號","OBJECTID":610267},"geometry":{"x":167505.01999999955,"y":2544549.4399999976}},{"attributes":{"ID":610295,"DIS_CODE":0,"TOWNNAME":"中西區","LI":"三合里","LIN":"13鄰","STREET":"信義街","SECT":" ","MAREA":" ","LANE":" ","ALLEY":" ","HOUSE_NO":"８８號","E_COORD97":167500.89000000001,"N_COORD97":2544551.21,"ADDRESS":"信義街８８號","OBJECTID":610268},"geometry":{"x":167500.88999999966,"y":2544551.2100000009}},{"attributes":{"ID":610296,"DIS_CODE":0,"TOWNNAME":"中西區","LI":"三合里","LIN":"13鄰","STREET":"信義街","SECT":" ","MAREA":" ","LANE":" ","ALLEY":" ","HOUSE_NO":"９０號","E_COORD97":167498.53,"N_COORD97":2544557.6899999999,"ADDRESS":"信義街９０號","OBJECTID":610269},"geometry":{"x":167498.53000000119,"y":2544557.6899999995}},{"attributes":{"ID":610297,"DIS_CODE":0,"TOWNNAME":"中西區","LI":"三合里","LIN":"13鄰","STREET":"信義街","SECT":" ","MAREA":" ","LANE":" ","ALLEY":" ","HOUSE_NO":"９２號","E_COORD97":167494.06,"N_COORD97":2544558.6600000001,"ADDRESS":"信義街９２號","OBJECTID":610270},"geometry":{"x":167494.06000000052,"y":2544558.6600000001}},{"attributes":{"ID":610298,"DIS_CODE":0,"TOWNNAME":"東區","LI":"圍下里","LIN":"3鄰","STREET":"東榮街","SECT":" ","MAREA":" ","LANE":" ","ALLEY":" ","HOUSE_NO":"７號","E_COORD97":169565.85999999999,"N_COORD97":2543471.3700000001,"ADDRESS":"東榮街７號","OBJECTID":610271},"geometry":{"x":169565.86000000127,"y":2543471.3700000029}},{"attributes":{"ID":610299,"DIS_CODE":0,"TOWNNAME":"東區","LI":"圍下里","LIN":"3鄰","STREET":"東榮街","SECT":" ","MAREA":" ","LANE":" ","ALLEY":" ","HOUSE_NO":"１１號","E_COORD97":169582.03,"N_COORD97":2543471.8399999999,"ADDRESS":"東榮街１１號","OBJECTID":610272},"geometry":{"x":169582.03000000119,"y":2543471.8399999999}},{"attributes":{"ID":610300,"DIS_CODE":0,"TOWNNAME":"東區","LI":"圍下里","LIN":"3鄰","STREET":"東榮街","SECT":" ","MAREA":" ","LANE":" ","ALLEY":" ","HOUSE_NO":"９號","E_COORD97":169565.22,"N_COORD97":2543467.4100000001,"ADDRESS":"東榮街９號","OBJECTID":610273},"geometry":{"x":169565.21999999974,"y":2543467.4100000001}},{"attributes":{"ID":610301,"DIS_CODE":0,"TOWNNAME":"東區","LI":"圍下里","LIN":"3鄰","STREET":"東榮街","SECT":" ","MAREA":" ","LANE":" ","ALLEY":" ","HOUSE_NO":"１３號之１","E_COORD97":169585.67999999999,"N_COORD97":2543466.46,"ADDRESS":"東榮街１３號之１","OBJECTID":610274},"geometry":{"x":169585.68000000063,"y":2543466.4600000028}},{"attributes":{"ID":610302,"DIS_CODE":0,"TOWNNAME":"東區","LI":"崇德里","LIN":"3鄰","STREET":"崇德路","SECT":" ","MAREA":" ","LANE":" ","ALLEY":" ","HOUSE_NO":"４７１號","E_COORD97":170679.57999999999,"N_COORD97":2541722.6000000001,"ADDRESS":"崇德路４７１號","OBJECTID":610275},"geometry":{"x":170679.58000000101,"y":2541722.6000000015}},{"attributes":{"ID":610303,"DIS_CODE":0,"TOWNNAME":"東區","LI":"崇德里","LIN":"3鄰","STREET":"崇德路","SECT":" ","MAREA":" ","LANE":" ","ALLEY":" ","HOUSE_NO":"４７１號之１","E_COORD97":170684.44,"N_COORD97":2541719.46,"ADDRESS":"崇德路４７１號之１","OBJECTID":610276},"geometry":{"x":170684.44000000134,"y":2541719.4600000009}},{"attributes":{"ID":610304,"DIS_CODE":0,"TOWNNAME":"東區","LI":"崇德里","LIN":"3鄰","STREET":"崇德路","SECT":" ","MAREA":" ","LANE":" ","ALLEY":" ","HOUSE_NO":"４７１號之２","E_COORD97":170689.92999999999,"N_COORD97":2541715.3799999999,"ADDRESS":"崇德路４７１號之２","OBJECTID":610277},"geometry":{"x":170689.9299999997,"y":2541715.3800000027}},{"attributes":{"ID":610305,"DIS_CODE":0,"TOWNNAME":"東區","LI":"崇德里","LIN":"3鄰","STREET":"崇德路","SECT":" ","MAREA":" ","LANE":" ","ALLEY":" ","HOUSE_NO":"４７１號之３","E_COORD97":170694.95000000001,"N_COORD97":2541711.9399999999,"ADDRESS":"崇德路４７１號之３","OBJECTID":610278},"geometry":{"x":170694.95000000019,"y":2541711.9400000032}},{"attributes":{"ID":610306,"DIS_CODE":0,"TOWNNAME":"東區","LI":"崇德里","LIN":"3鄰","STREET":"崇德路","SECT":" ","MAREA":" ","LANE":" ","ALLEY":" ","HOUSE_NO":"４６７號","E_COORD97":170671.42000000001,"N_COORD97":2541728.3999999999,"ADDRESS":"崇德路４６７號","OBJECTID":610279},"geometry":{"x":170671.41999999993,"y":2541728.4000000004}},{"attributes":{"ID":610307,"DIS_CODE":0,"TOWNNAME":"東區","LI":"崇德里","LIN":"3鄰","STREET":"崇德路","SECT":" ","MAREA":" ","LANE":" ","ALLEY":" ","HOUSE_NO":"４６９號","E_COORD97":170675.34,"N_COORD97":2541725.2599999998,"ADDRESS":"崇德路４６９號","OBJECTID":610280},"geometry":{"x":170675.33999999985,"y":2541725.2600000016}},{"attributes":{"ID":610308,"DIS_CODE":0,"TOWNNAME":"東區","LI":"富裕里","LIN":"3鄰","STREET":"裕農路","SECT":" ","MAREA":" ","LANE":" ","ALLEY":" ","HOUSE_NO":"１０號","E_COORD97":170523.54000000001,"N_COORD97":2542827.0699999998,"ADDRESS":"裕農路１０號","OBJECTID":610281},"geometry":{"x":170523.53999999911,"y":2542827.0699999984}},{"attributes":{"ID":610309,"DIS_CODE":0,"TOWNNAME":"東區","LI":"大智里","LIN":"3鄰","STREET":"崇善十四街","SECT":" ","MAREA":" ","LANE":" ","ALLEY":" ","HOUSE_NO":"１００號","E_COORD97":171176.31,"N_COORD97":2540565.6400000001,"ADDRESS":"崇善十四街１００號","OBJECTID":610282},"geometry":{"x":171176.31000000052,"y":2540565.6400000043}},{"attributes":{"ID":610310,"DIS_CODE":0,"TOWNNAME":"東區","LI":"大智里","LIN":"3鄰","STREET":"崇善十四街","SECT":" ","MAREA":" ","LANE":" ","ALLEY":" ","HOUSE_NO":"１０２號","E_COORD97":171171.79999999999,"N_COORD97":2540562.3199999998,"ADDRESS":"崇善十四街１０２號","OBJECTID":610283},"geometry":{"x":171171.79999999981,"y":2540562.3200000022}},{"attributes":{"ID":610311,"DIS_CODE":0,"TOWNNAME":"東區","LI":"大智里","LIN":"3鄰","STREET":"崇善十四街","SECT":" ","MAREA":" ","LANE":" ","ALLEY":" ","HOUSE_NO":"１０４號","E_COORD97":171165.85999999999,"N_COORD97":2540564.6899999999,"ADDRESS":"崇善十四街１０４號","OBJECTID":610284},"geometry":{"x":171165.8599999994,"y":2540564.6900000013}},{"attributes":{"ID":610312,"DIS_CODE":0,"TOWNNAME":"東區","LI":"大智里","LIN":"3鄰","STREET":"崇善十四街","SECT":" ","MAREA":" ","LANE":" ","ALLEY":" ","HOUSE_NO":"１０６號","E_COORD97":171161.35000000001,"N_COORD97":2540561.3700000001,"ADDRESS":"崇善十四街１０６號","OBJECTID":610285},"geometry":{"x":171161.34999999963,"y":2540561.3700000048}},{"attributes":{"ID":610313,"DIS_CODE":0,"TOWNNAME":"東區","LI":"大智里","LIN":"3鄰","STREET":"崇善十四街","SECT":" ","MAREA":" ","LANE":" ","ALLEY":" ","HOUSE_NO":"１０８號","E_COORD97":171160.98999999999,"N_COORD97":2540553.8999999999,"ADDRESS":"崇善十四街１０８號","OBJECTID":610286},"geometry":{"x":171160.99000000022,"y":2540553.9000000022}},{"attributes":{"ID":610314,"DIS_CODE":0,"TOWNNAME":"永康區","LI":"大橋里","LIN":"3鄰","STREET":"大橋三街","SECT":" ","MAREA":" ","LANE":" ","ALLEY":" ","HOUSE_NO":"１４２號","E_COORD97":170795.91,"N_COORD97":2546722,"ADDRESS":"大橋三街１４２號","OBJECTID":610287},"geometry":{"x":170795.91000000201,"y":2546722}},{"attributes":{"ID":610315,"DIS_CODE":0,"TOWNNAME":"永康區","LI":"三民里","LIN":"3鄰","STREET":"三民街","SECT":" ","MAREA":" ","LANE":" ","ALLEY":" ","HOUSE_NO":"５５號之１","E_COORD97":172923,"N_COORD97":2550252.9199999999,"ADDRESS":"三民街５５號之１","OBJECTID":610288},"geometry":{"x":172923.00000000093,"y":2550252.9200000037}},{"attributes":{"ID":610316,"DIS_CODE":0,"TOWNNAME":"永康區","LI":"三民里","LIN":"3鄰","STREET":"三民街","SECT":" ","MAREA":" ","LANE":" ","ALLEY":" ","HOUSE_NO":"４３號","E_COORD97":172970.19,"N_COORD97":2550235.6099999999,"ADDRESS":"三民街４３號","OBJECTID":610289},"geometry":{"x":172970.19000000041,"y":2550235.6100000013}},{"attributes":{"ID":610317,"DIS_CODE":0,"TOWNNAME":"永康區","LI":"二王里","LIN":"3鄰","STREET":"二王路","SECT":" ","MAREA":" ","LANE":" ","ALLEY":" ","HOUSE_NO":"９２號","E_COORD97":173017.78,"N_COORD97":2546645.02,"ADDRESS":"二王路９２號","OBJECTID":610290},"geometry":{"x":173017.78000000119,"y":2546645.0200000014}},{"attributes":{"ID":610318,"DIS_CODE":0,"TOWNNAME":"東區","LI":"大智里","LIN":"3鄰","STREET":"崇善十四街","SECT":" ","MAREA":" ","LANE":" ","ALLEY":" ","HOUSE_NO":"７１號","E_COORD97":171195.67000000001,"N_COORD97":2540540.5499999998,"ADDRESS":"崇善十四街７１號","OBJECTID":610291},"geometry":{"x":171195.67000000179,"y":2540540.5500000026}},{"attributes":{"ID":610319,"DIS_CODE":0,"TOWNNAME":"東區","LI":"大智里","LIN":"3鄰","STREET":"崇善十四街","SECT":" ","MAREA":" ","LANE":" ","ALLEY":" ","HOUSE_NO":"１１０號","E_COORD97":171174.64999999999,"N_COORD97":2540554.0099999998,"ADDRESS":"崇善十四街１１０號","OBJECTID":610292},"geometry":{"x":171174.6500000013,"y":2540554.0099999998}},{"attributes":{"ID":610320,"DIS_CODE":0,"TOWNNAME":"仁德區","LI":"後壁里","LIN":"3鄰","STREET":"德善路","SECT":" ","MAREA":" ","LANE":" ","ALLEY":" ","HOUSE_NO":"５號","E_COORD97":173262.51999999999,"N_COORD97":2538958.77,"ADDRESS":"德善路５號","OBJECTID":610293},"geometry":{"x":173262.51999999955,"y":2538958.7699999996}},{"attributes":{"ID":610321,"DIS_CODE":0,"TOWNNAME":"官田區","LI":"隆田里","LIN":"3鄰","STREET":"新生街","SECT":" ","MAREA":" ","LANE":" ","ALLEY":" ","HOUSE_NO":"１２０號","E_COORD97":180220.39000000001,"N_COORD97":2565729.6699999999,"ADDRESS":"新生街１２０號","OBJECTID":610294},"geometry":{"x":180220.38999999966,"y":2565729.6700000018}},{"attributes":{"ID":610322,"DIS_CODE":0,"TOWNNAME":"官田區","LI":"隆田里","LIN":"3鄰","STREET":"新生街","SECT":" ","MAREA":" ","LANE":" ","ALLEY":" ","HOUSE_NO":"１２２號","E_COORD97":180220.60000000001,"N_COORD97":2565738.48,"ADDRESS":"新生街１２２號","OBJECTID":610295},"geometry":{"x":180220.59999999963,"y":2565738.4800000023}},{"attributes":{"ID":610323,"DIS_CODE":0,"TOWNNAME":"官田區","LI":"隆田里","LIN":"3鄰","STREET":"新生街","SECT":" ","MAREA":" ","LANE":" ","ALLEY":" ","HOUSE_NO":"１２６號之１","E_COORD97":180221.04000000001,"N_COORD97":2565747.1499999999,"ADDRESS":"新生街１２６號之１","OBJECTID":610296},"geometry":{"x":180221.04000000004,"y":2565747.1500000022}},{"attributes":{"ID":610324,"DIS_CODE":0,"TOWNNAME":"官田區","LI":"隆田里","LIN":"3鄰","STREET":"新生街","SECT":" ","MAREA":" ","LANE":" ","ALLEY":" ","HOUSE_NO":"１２６號","E_COORD97":180221.20999999999,"N_COORD97":2565751.98,"ADDRESS":"新生街１２６號","OBJECTID":610297},"geometry":{"x":180221.21000000089,"y":2565751.9800000023}},{"attributes":{"ID":610325,"DIS_CODE":0,"TOWNNAME":"永康區","LI":"北灣里","LIN":"3鄰","STREET":"文賢街","SECT":" ","MAREA":" ","LANE":" ","ALLEY":" ","HOUSE_NO":"１４０號","E_COORD97":175387.78,"N_COORD97":2545580.2799999998,"ADDRESS":"文賢街１４０號","OBJECTID":610298},"geometry":{"x":175387.78000000119,"y":2545580.2799999993}},{"attributes":{"ID":610326,"DIS_CODE":0,"TOWNNAME":"永康區","LI":"北灣里","LIN":"3鄰","STREET":"信義街","SECT":" ","MAREA":" ","LANE":" ","ALLEY":" ","HOUSE_NO":"８７號","E_COORD97":175293.35999999999,"N_COORD97":2545638.46,"ADDRESS":"信義街８７號","OBJECTID":610299},"geometry":{"x":175293.36000000034,"y":2545638.4600000009}},{"attributes":{"ID":610327,"DIS_CODE":0,"TOWNNAME":"新市區","LI":"新和里","LIN":"3鄰","STREET":"延平街","SECT":" ","MAREA":" ","LANE":" ","ALLEY":" ","HOUSE_NO":"２２號","E_COORD97":177410.22,"N_COORD97":2552062.0800000001,"ADDRESS":"延平街２２號","OBJECTID":610300},"geometry":{"x":177410.22000000067,"y":2552062.0800000001}},{"attributes":{"ID":610328,"DIS_CODE":0,"TOWNNAME":"東區","LI":"富裕里","LIN":"3鄰","STREET":"裕農路","SECT":" ","MAREA":" ","LANE":" ","ALLEY":" ","HOUSE_NO":"６號","E_COORD97":170513.14000000001,"N_COORD97":2542823.1800000002,"ADDRESS":"裕農路６號","OBJECTID":610301},"geometry":{"x":170513.1400000006,"y":2542823.1800000016}},{"attributes":{"ID":610329,"DIS_CODE":0,"TOWNNAME":"東區","LI":"大學里","LIN":"3鄰","STREET":"長榮路","SECT":"三段","MAREA":" ","LANE":" ","ALLEY":" ","HOUSE_NO":"８８號","E_COORD97":170376.14000000001,"N_COORD97":2543894.5800000001,"ADDRESS":"長榮路三段８８號","OBJECTID":610302},"geometry":{"x":170376.13999999966,"y":2543894.5800000001}},{"attributes":{"ID":610330,"DIS_CODE":0,"TOWNNAME":"東區","LI":"大學里","LIN":"3鄰","STREET":"長榮路","SECT":"三段","MAREA":" ","LANE":" ","ALLEY":" ","HOUSE_NO":"８８號之１","E_COORD97":170379.67999999999,"N_COORD97":2543888.0800000001,"ADDRESS":"長榮路三段８８號之１","OBJECTID":610303},"geometry":{"x":170379.6799999997,"y":2543888.0800000038}},{"attributes":{"ID":610331,"DIS_CODE":0,"TOWNNAME":"中西區","LI":"民權里","LIN":"3鄰","STREET":"忠明街","SECT":" ","MAREA":" ","LANE":" ","ALLEY":" ","HOUSE_NO":"６７號","E_COORD97":167517.16,"N_COORD97":2544120.5899999999,"ADDRESS":"忠明街６７號","OBJECTID":610304},"geometry":{"x":167517.16000000015,"y":2544120.5899999999}},{"attributes":{"ID":610332,"DIS_CODE":0,"TOWNNAME":"中西區","LI":"民權里","LIN":"3鄰","STREET":"忠明街","SECT":" ","MAREA":" ","LANE":" ","ALLEY":" ","HOUSE_NO":"６９號","E_COORD97":167507.48999999999,"N_COORD97":2544122.3500000001,"ADDRESS":"忠明街６９號","OBJECTID":610305},"geometry":{"x":167507.49000000115,"y":2544122.3499999996}},{"attributes":{"ID":610333,"DIS_CODE":0,"TOWNNAME":"中西區","LI":"民權里","LIN":"3鄰","STREET":"康樂街","SECT":" ","MAREA":" ","LANE":" ","ALLEY":" ","HOUSE_NO":"２６７號","E_COORD97":167524.70999999999,"N_COORD97":2544118.5499999998,"ADDRESS":"康樂街２６７號","OBJECTID":610306},"geometry":{"x":167524.70999999996,"y":2544118.5500000007}},{"attributes":{"ID":610334,"DIS_CODE":0,"TOWNNAME":"中西區","LI":"協進里","LIN":"3鄰","STREET":"西寧街","SECT":" ","MAREA":" ","LANE":" ","ALLEY":" ","HOUSE_NO":"１２號","E_COORD97":167165.64000000001,"N_COORD97":2544211.2599999998,"ADDRESS":"西寧街１２號","OBJECTID":610307},"geometry":{"x":167165.63999999966,"y":2544211.2599999998}},{"attributes":{"ID":610335,"DIS_CODE":0,"TOWNNAME":"中西區","LI":"協進里","LIN":"3鄰","STREET":"西寧街","SECT":" ","MAREA":" ","LANE":" ","ALLEY":" ","HOUSE_NO":"１４號","E_COORD97":167160.72,"N_COORD97":2544211.71,"ADDRESS":"西寧街１４號","OBJECTID":610308},"geometry":{"x":167160.72000000067,"y":2544211.7100000028}},{"attributes":{"ID":610336,"DIS_CODE":0,"TOWNNAME":"中西區","LI":"協進里","LIN":"3鄰","STREET":"西寧街","SECT":" ","MAREA":" ","LANE":" ","ALLEY":" ","HOUSE_NO":"２２號","E_COORD97":167149.25,"N_COORD97":2544223.9100000001,"ADDRESS":"西寧街２２號","OBJECTID":610309},"geometry":{"x":167149.25000000093,"y":2544223.9100000001}},{"attributes":{"ID":610337,"DIS_CODE":0,"TOWNNAME":"東區","LI":"東安里","LIN":"3鄰","STREET":"東門路","SECT":"二段","MAREA":" ","LANE":" ","ALLEY":" ","HOUSE_NO":"２７號","E_COORD97":169984.23000000001,"N_COORD97":2543002.8100000001,"ADDRESS":"東門路二段２７號","OBJECTID":610310},"geometry":{"x":169984.23000000138,"y":2543002.8100000024}},{"attributes":{"ID":610338,"DIS_CODE":0,"TOWNNAME":"東區","LI":"中西里","LIN":"3鄰","STREET":"東門路","SECT":"一段","MAREA":" ","LANE":" ","ALLEY":" ","HOUSE_NO":"２４５號","E_COORD97":169791.45000000001,"N_COORD97":2543089.3599999999,"ADDRESS":"東門路一段２４５號","OBJECTID":610311},"geometry":{"x":169791.45000000019,"y":2543089.3600000013}},{"attributes":{"ID":610339,"DIS_CODE":0,"TOWNNAME":"東區","LI":"中西里","LIN":"3鄰","STREET":"東門路","SECT":"一段","MAREA":" ","LANE":" ","ALLEY":" ","HOUSE_NO":"２５１號","E_COORD97":169803.34,"N_COORD97":2543085.27,"ADDRESS":"東門路一段２５１號","OBJECTID":610312},"geometry":{"x":169803.34000000078,"y":2543085.2699999996}},{"attributes":{"ID":610340,"DIS_CODE":0,"TOWNNAME":"東區","LI":"中西里","LIN":"3鄰","STREET":"東門路","SECT":"一段","MAREA":" ","LANE":" ","ALLEY":" ","HOUSE_NO":"２５９號","E_COORD97":169824.91,"N_COORD97":2543077.0099999998,"ADDRESS":"東門路一段２５９號","OBJECTID":610313},"geometry":{"x":169824.91000000108,"y":2543077.0099999998}},{"attributes":{"ID":610341,"DIS_CODE":0,"TOWNNAME":"東區","LI":"自強里","LIN":"3鄰","STREET":"東門路","SECT":"三段","MAREA":" ","LANE":" ","ALLEY":" ","HOUSE_NO":"５５號","E_COORD97":171173.69,"N_COORD97":2542271.2599999998,"ADDRESS":"東門路三段５５號","OBJECTID":610314},"geometry":{"x":171173.69000000041,"y":2542271.2599999998}},{"attributes":{"ID":610342,"DIS_CODE":0,"TOWNNAME":"東區","LI":"自強里","LIN":"3鄰","STREET":"東門路","SECT":"三段","MAREA":" ","LANE":" ","ALLEY":" ","HOUSE_NO":"４１號","E_COORD97":171154.41,"N_COORD97":2542292.77,"ADDRESS":"東門路三段４１號","OBJECTID":610315},"geometry":{"x":171154.41000000015,"y":2542292.7700000033}},{"attributes":{"ID":610343,"DIS_CODE":0,"TOWNNAME":"東區","LI":"自強里","LIN":"3鄰","STREET":"東門路","SECT":"三段","MAREA":" ","LANE":" ","ALLEY":" ","HOUSE_NO":"４５號","E_COORD97":171158.04999999999,"N_COORD97":2542284.1000000001,"ADDRESS":"東門路三段４５號","OBJECTID":610316},"geometry":{"x":171158.05000000075,"y":2542284.1000000034}},{"attributes":{"ID":610344,"DIS_CODE":0,"TOWNNAME":"中西區","LI":"永福里","LIN":"3鄰","STREET":"永福路","SECT":"二段","MAREA":" ","LANE":" ","ALLEY":" ","HOUSE_NO":"５０號","E_COORD97":168064.67999999999,"N_COORD97":2543588.71,"ADDRESS":"永福路二段５０號","OBJECTID":610317},"geometry":{"x":168064.68000000063,"y":2543588.7100000009}},{"attributes":{"ID":610345,"DIS_CODE":0,"TOWNNAME":"中西區","LI":"永福里","LIN":"3鄰","STREET":"永福路","SECT":"二段","MAREA":" ","LANE":" ","ALLEY":" ","HOUSE_NO":"５２號","E_COORD97":168065.76999999999,"N_COORD97":2543593.0699999998,"ADDRESS":"永福路二段５２號","OBJECTID":610318},"geometry":{"x":168065.77000000048,"y":2543593.0700000003}},{"attributes":{"ID":610346,"DIS_CODE":0,"TOWNNAME":"中西區","LI":"永福里","LIN":"3鄰","STREET":"永福路","SECT":"二段","MAREA":" ","LANE":" ","ALLEY":" ","HOUSE_NO":"５６號","E_COORD97":168066.76000000001,"N_COORD97":2543597.98,"ADDRESS":"永福路二段５６號","OBJECTID":610319},"geometry":{"x":168066.75999999978,"y":2543597.9800000023}},{"attributes":{"ID":610347,"DIS_CODE":0,"TOWNNAME":"中西區","LI":"永福里","LIN":"3鄰","STREET":"永福路","SECT":"二段","MAREA":" ","LANE":" ","ALLEY":" ","HOUSE_NO":"５８號","E_COORD97":168067.85999999999,"N_COORD97":2543602.0600000001,"ADDRESS":"永福路二段５８號","OBJECTID":610320},"geometry":{"x":168067.86000000127,"y":2543602.0600000024}},{"attributes":{"ID":610348,"DIS_CODE":0,"TOWNNAME":"中西區","LI":"永福里","LIN":"3鄰","STREET":"永福路","SECT":"二段","MAREA":" ","LANE":" ","ALLEY":" ","HOUSE_NO":"６０號","E_COORD97":168068.51000000001,"N_COORD97":2543605.2200000002,"ADDRESS":"永福路二段６０號","OBJECTID":610321},"geometry":{"x":168068.50999999978,"y":2543605.2200000007}},{"attributes":{"ID":610349,"DIS_CODE":0,"TOWNNAME":"中西區","LI":"永福里","LIN":"3鄰","STREET":"永福路","SECT":"二段","MAREA":" ","LANE":" ","ALLEY":" ","HOUSE_NO":"６２號","E_COORD97":168069.28,"N_COORD97":2543608.6000000001,"ADDRESS":"永福路二段６２號","OBJECTID":610322},"geometry":{"x":168069.28000000212,"y":2543608.5999999996}},{"attributes":{"ID":610350,"DIS_CODE":0,"TOWNNAME":"中西區","LI":"永福里","LIN":"3鄰","STREET":"永福路","SECT":"二段","MAREA":" ","LANE":" ","ALLEY":" ","HOUSE_NO":"６４號","E_COORD97":168070.37,"N_COORD97":2543612.6299999999,"ADDRESS":"永福路二段６４號","OBJECTID":610323},"geometry":{"x":168070.37000000104,"y":2543612.6300000008}},{"attributes":{"ID":610351,"DIS_CODE":0,"TOWNNAME":"中西區","LI":"永福里","LIN":"3鄰","STREET":"永福路","SECT":"二段","MAREA":" ","LANE":" ","ALLEY":" ","HOUSE_NO":"６６號","E_COORD97":168071.79000000001,"N_COORD97":2543619.7200000002,"ADDRESS":"永福路二段６６號","OBJECTID":610324},"geometry":{"x":168071.79000000004,"y":2543619.7200000007}},{"attributes":{"ID":610352,"DIS_CODE":0,"TOWNNAME":"中西區","LI":"永福里","LIN":"3鄰","STREET":"永福路","SECT":"二段","MAREA":" ","LANE":" ","ALLEY":" ","HOUSE_NO":"６８號","E_COORD97":168073.10000000001,"N_COORD97":2543624.29,"ADDRESS":"永福路二段６８號","OBJECTID":610325},"geometry":{"x":168073.0999999987,"y":2543624.2899999991}},{"attributes":{"ID":610353,"DIS_CODE":0,"TOWNNAME":"安南區","LI":"顯宮里","LIN":"3鄰","STREET":"安中路","SECT":"五段","MAREA":" ","LANE":" ","ALLEY":" ","HOUSE_NO":"４６７號","E_COORD97":162328.78,"N_COORD97":2551185.8500000001,"ADDRESS":"安中路五段４６７號","OBJECTID":610326},"geometry":{"x":162328.78000000026,"y":2551185.8500000015}},{"attributes":{"ID":610354,"DIS_CODE":0,"TOWNNAME":"安南區","LI":"顯宮里","LIN":"3鄰","STREET":"安中路","SECT":"五段","MAREA":" ","LANE":" ","ALLEY":" ","HOUSE_NO":"４６３號","E_COORD97":162357.20999999999,"N_COORD97":2551171.4100000001,"ADDRESS":"安中路五段４６３號","OBJECTID":610327},"geometry":{"x":162357.21000000089,"y":2551171.4100000001}},{"attributes":{"ID":610355,"DIS_CODE":0,"TOWNNAME":"安南區","LI":"顯宮里","LIN":"3鄰","STREET":"安中路","SECT":"五段","MAREA":" ","LANE":" ","ALLEY":" ","HOUSE_NO":"４４５號","E_COORD97":162420.01000000001,"N_COORD97":2551144.0800000001,"ADDRESS":"安中路五段４４５號","OBJECTID":610328},"geometry":{"x":162420.00999999978,"y":2551144.0800000019}},{"attributes":{"ID":610356,"DIS_CODE":0,"TOWNNAME":"安南區","LI":"城東里","LIN":"3鄰","STREET":"城北路","SECT":" ","MAREA":" ","LANE":" ","ALLEY":" ","HOUSE_NO":"１９８號","E_COORD97":160998.41,"N_COORD97":2551795.02,"ADDRESS":"城北路１９８號","OBJECTID":610329},"geometry":{"x":160998.41000000108,"y":2551795.0200000014}},{"attributes":{"ID":610357,"DIS_CODE":0,"TOWNNAME":"安南區","LI":"城南里","LIN":"3鄰","STREET":"城西街","SECT":"一段","MAREA":" ","LANE":" ","ALLEY":" ","HOUSE_NO":"１０５號","E_COORD97":160627.38,"N_COORD97":2551366.6499999999,"ADDRESS":"城西街一段１０５號","OBJECTID":610330},"geometry":{"x":160627.37999999989,"y":2551366.6500000004}},{"attributes":{"ID":610358,"DIS_CODE":0,"TOWNNAME":"安南區","LI":"海東里","LIN":"3鄰","STREET":"海環街","SECT":" ","MAREA":" ","LANE":" ","ALLEY":" ","HOUSE_NO":"５６２號","E_COORD97":166344.78,"N_COORD97":2549246.3199999998,"ADDRESS":"海環街５６２號","OBJECTID":610331},"geometry":{"x":166344.78000000026,"y":2549246.3200000003}},{"attributes":{"ID":610359,"DIS_CODE":0,"TOWNNAME":"安南區","LI":"海東里","LIN":"3鄰","STREET":"海環街","SECT":" ","MAREA":" ","LANE":" ","ALLEY":" ","HOUSE_NO":"５６０號","E_COORD97":166340.87,"N_COORD97":2549245.6800000002,"ADDRESS":"海環街５６０號","OBJECTID":610332},"geometry":{"x":166340.87000000011,"y":2549245.6799999997}},{"attributes":{"ID":610360,"DIS_CODE":0,"TOWNNAME":"安南區","LI":"海東里","LIN":"3鄰","STREET":"海環街","SECT":" ","MAREA":" ","LANE":" ","ALLEY":" ","HOUSE_NO":"５５４號","E_COORD97":166327.85000000001,"N_COORD97":2549246.3399999999,"ADDRESS":"海環街５５４號","OBJECTID":610333},"geometry":{"x":166327.85000000056,"y":2549246.3400000036}},{"attributes":{"ID":610361,"DIS_CODE":0,"TOWNNAME":"安南區","LI":"海東里","LIN":"3鄰","STREET":"海環街","SECT":" ","MAREA":" ","LANE":" ","ALLEY":" ","HOUSE_NO":"５５６號","E_COORD97":166332.19,"N_COORD97":2549243.98,"ADDRESS":"海環街５５６號","OBJECTID":610334},"geometry":{"x":166332.19000000041,"y":2549243.9800000023}},{"attributes":{"ID":610362,"DIS_CODE":0,"TOWNNAME":"安南區","LI":"海東里","LIN":"3鄰","STREET":"海環街","SECT":" ","MAREA":" ","LANE":" ","ALLEY":" ","HOUSE_NO":"５５８號","E_COORD97":166336.73000000001,"N_COORD97":2549244.79,"ADDRESS":"海環街５５８號","OBJECTID":610335},"geometry":{"x":166336.73000000045,"y":2549244.7899999991}},{"attributes":{"ID":610363,"DIS_CODE":0,"TOWNNAME":"安南區","LI":"海東里","LIN":"3鄰","STREET":"海環街","SECT":" ","MAREA":" ","LANE":" ","ALLEY":" ","HOUSE_NO":"５６４號","E_COORD97":166349.09,"N_COORD97":2549247.2200000002,"ADDRESS":"海環街５６４號","OBJECTID":610336},"geometry":{"x":166349.08999999985,"y":2549247.2200000007}},{"attributes":{"ID":610364,"DIS_CODE":0,"TOWNNAME":"安南區","LI":"海東里","LIN":"3鄰","STREET":"海環街","SECT":" ","MAREA":" ","LANE":" ","ALLEY":" ","HOUSE_NO":"５６６號","E_COORD97":166353.32000000001,"N_COORD97":2549248.02,"ADDRESS":"海環街５６６號","OBJECTID":610337},"geometry":{"x":166353.3200000003,"y":2549248.0199999977}},{"attributes":{"ID":610365,"DIS_CODE":0,"TOWNNAME":"安南區","LI":"海東里","LIN":"3鄰","STREET":"海環街","SECT":" ","MAREA":" ","LANE":" ","ALLEY":" ","HOUSE_NO":"５６８號","E_COORD97":166357.76999999999,"N_COORD97":2549248.79,"ADDRESS":"海環街５６８號","OBJECTID":610338},"geometry":{"x":166357.76999999955,"y":2549248.7899999991}},{"attributes":{"ID":610366,"DIS_CODE":0,"TOWNNAME":"中西區","LI":"協和里","LIN":"3鄰","STREET":"文賢路","SECT":" ","MAREA":" ","LANE":" ","ALLEY":" ","HOUSE_NO":"３５號之１","E_COORD97":167393.64000000001,"N_COORD97":2544505.79,"ADDRESS":"文賢路３５號之１","OBJECTID":610339},"geometry":{"x":167393.6400000006,"y":2544505.7899999991}},{"attributes":{"ID":610367,"DIS_CODE":0,"TOWNNAME":"仁德區","LI":"仁義里","LIN":"3鄰","STREET":"仁義三街","SECT":" ","MAREA":" ","LANE":" ","ALLEY":" ","HOUSE_NO":"２３７號","E_COORD97":173954.98000000001,"N_COORD97":2541124.52,"ADDRESS":"仁義三街２３７號","OBJECTID":610340},"geometry":{"x":173954.98000000045,"y":2541124.5199999996}},{"attributes":{"ID":610368,"DIS_CODE":0,"TOWNNAME":"仁德區","LI":"仁德里","LIN":"3鄰","STREET":"仁中七街","SECT":" ","MAREA":" ","LANE":" ","ALLEY":" ","HOUSE_NO":"１１２號","E_COORD97":173333.09,"N_COORD97":2540359.75,"ADDRESS":"仁中七街１１２號","OBJECTID":610341},"geometry":{"x":173333.08999999985,"y":2540359.75}},{"attributes":{"ID":610369,"DIS_CODE":0,"TOWNNAME":"仁德區","LI":"仁義里","LIN":"3鄰","STREET":"仁義三街","SECT":" ","MAREA":" ","LANE":" ","ALLEY":" ","HOUSE_NO":"２２４號","E_COORD97":173895.51999999999,"N_COORD97":2541109.5099999998,"ADDRESS":"仁義三街２２４號","OBJECTID":610342},"geometry":{"x":173895.52000000048,"y":2541109.5100000016}},{"attributes":{"ID":610370,"DIS_CODE":0,"TOWNNAME":"仁德區","LI":"仁德里","LIN":"3鄰","STREET":"仁中七街","SECT":" ","MAREA":" ","LANE":" ","ALLEY":" ","HOUSE_NO":"１１８號","E_COORD97":173324.82000000001,"N_COORD97":2540359.5,"ADDRESS":"仁中七街１１８號","OBJECTID":610343},"geometry":{"x":173324.82000000123,"y":2540359.5000000037}},{"attributes":{"ID":610371,"DIS_CODE":0,"TOWNNAME":"仁德區","LI":"仁義里","LIN":"3鄰","STREET":"仁義二街","SECT":" ","MAREA":" ","LANE":" ","ALLEY":" ","HOUSE_NO":"７２號","E_COORD97":173887.79000000001,"N_COORD97":2541185.2599999998,"ADDRESS":"仁義二街７２號","OBJECTID":610344},"geometry":{"x":173887.79000000004,"y":2541185.2600000016}},{"attributes":{"ID":610372,"DIS_CODE":0,"TOWNNAME":"仁德區","LI":"仁德里","LIN":"3鄰","STREET":"仁中七街","SECT":" ","MAREA":" ","LANE":" ","ALLEY":" ","HOUSE_NO":"５０號","E_COORD97":173321.92999999999,"N_COORD97":2540340.0099999998,"ADDRESS":"仁中七街５０號","OBJECTID":610345},"geometry":{"x":173321.9299999997,"y":2540340.0100000016}},{"attributes":{"ID":610373,"DIS_CODE":0,"TOWNNAME":"仁德區","LI":"大甲里","LIN":"3鄰","STREET":"行大一街","SECT":" ","MAREA":" ","LANE":" ","ALLEY":" ","HOUSE_NO":"２０２號","E_COORD97":169793.19,"N_COORD97":2535064.2400000002,"ADDRESS":"行大一街２０２號","OBJECTID":610346},"geometry":{"x":169793.19000000134,"y":2535064.2400000002}},{"attributes":{"ID":610374,"DIS_CODE":0,"TOWNNAME":"仁德區","LI":"仁義里","LIN":"3鄰","STREET":"仁義二街","SECT":" ","MAREA":" ","LANE":" ","ALLEY":" ","HOUSE_NO":"７４號","E_COORD97":173891.48000000001,"N_COORD97":2541184.7599999998,"ADDRESS":"仁義二街７４號","OBJECTID":610347},"geometry":{"x":173891.48000000138,"y":2541184.7600000035}},{"attributes":{"ID":610375,"DIS_CODE":0,"TOWNNAME":"仁德區","LI":"仁義里","LIN":"3鄰","STREET":"仁義二街","SECT":" ","MAREA":" ","LANE":" ","ALLEY":" ","HOUSE_NO":"９６號","E_COORD97":173927.75,"N_COORD97":2541163.02,"ADDRESS":"仁義二街９６號","OBJECTID":610348},"geometry":{"x":173927.75000000186,"y":2541163.0200000014}},{"attributes":{"ID":610376,"DIS_CODE":0,"TOWNNAME":"仁德區","LI":"大甲里","LIN":"3鄰","STREET":"行大一街","SECT":" ","MAREA":" ","LANE":" ","ALLEY":" ","HOUSE_NO":"１９８號","E_COORD97":169813.87,"N_COORD97":2535047.5,"ADDRESS":"行大一街１９８號","OBJECTID":610349},"geometry":{"x":169813.87000000011,"y":2535047.5000000019}},{"attributes":{"ID":610377,"DIS_CODE":0,"TOWNNAME":"仁德區","LI":"仁義里","LIN":"3鄰","STREET":"仁義四街","SECT":" ","MAREA":" ","LANE":" ","ALLEY":" ","HOUSE_NO":"９０號","E_COORD97":173915.92000000001,"N_COORD97":2541069.7599999998,"ADDRESS":"仁義四街９０號","OBJECTID":610350},"geometry":{"x":173915.91999999993,"y":2541069.7600000016}},{"attributes":{"ID":610378,"DIS_CODE":0,"TOWNNAME":"仁德區","LI":"仁德里","LIN":"3鄰","STREET":"仁中七街","SECT":" ","MAREA":" ","LANE":" ","ALLEY":" ","HOUSE_NO":"６０號","E_COORD97":173340.39999999999,"N_COORD97":2540340.0099999998,"ADDRESS":"仁中七街６０號","OBJECTID":610351},"geometry":{"x":173340.40000000037,"y":2540340.0100000016}},{"attributes":{"ID":610379,"DIS_CODE":0,"TOWNNAME":"仁德區","LI":"仁德里","LIN":"3鄰","STREET":"仁中三街","SECT":" ","MAREA":" ","LANE":" ","ALLEY":" ","HOUSE_NO":"５３號","E_COORD97":173320.04000000001,"N_COORD97":2540411,"ADDRESS":"仁中三街５３號","OBJECTID":610352},"geometry":{"x":173320.04000000004,"y":2540411.0000000019}},{"attributes":{"ID":610380,"DIS_CODE":0,"TOWNNAME":"仁德區","LI":"仁德里","LIN":"3鄰","STREET":"仁中七街","SECT":" ","MAREA":" ","LANE":" ","ALLEY":" ","HOUSE_NO":"６６號","E_COORD97":173349.32000000001,"N_COORD97":2540339.7599999998,"ADDRESS":"仁中七街６６號","OBJECTID":610353},"geometry":{"x":173349.3200000003,"y":2540339.7599999998}},{"attributes":{"ID":610381,"DIS_CODE":0,"TOWNNAME":"仁德區","LI":"大甲里","LIN":"3鄰","STREET":"行大一街","SECT":" ","MAREA":" ","LANE":" ","ALLEY":" ","HOUSE_NO":"１３２號","E_COORD97":169902.53,"N_COORD97":2534999.4900000002,"ADDRESS":"行大一街１３２號","OBJECTID":610354},"geometry":{"x":169902.53000000119,"y":2534999.4900000039}},{"attributes":{"ID":610382,"DIS_CODE":0,"TOWNNAME":"仁德區","LI":"仁德里","LIN":"3鄰","STREET":"仁中三街","SECT":" ","MAREA":" ","LANE":" ","ALLEY":" ","HOUSE_NO":"４７號","E_COORD97":173334.20000000001,"N_COORD97":2540410.5,"ADDRESS":"仁中三街４７號","OBJECTID":610355},"geometry":{"x":173334.20000000019,"y":2540410.5000000019}},{"attributes":{"ID":610383,"DIS_CODE":0,"TOWNNAME":"仁德區","LI":"仁德里","LIN":"3鄰","STREET":"仁中七街","SECT":" ","MAREA":" ","LANE":" ","ALLEY":" ","HOUSE_NO":"５６號","E_COORD97":173331.28,"N_COORD97":2540340.2599999998,"ADDRESS":"仁中七街５６號","OBJECTID":610356},"geometry":{"x":173331.28000000212,"y":2540340.2600000035}},{"attributes":{"ID":610384,"DIS_CODE":0,"TOWNNAME":"仁德區","LI":"仁德里","LIN":"3鄰","STREET":"仁中三街","SECT":" ","MAREA":" ","LANE":" ","ALLEY":" ","HOUSE_NO":"３５號","E_COORD97":173364.98000000001,"N_COORD97":2540411.25,"ADDRESS":"仁中三街３５號","OBJECTID":610357},"geometry":{"x":173364.98000000045,"y":2540411.25}},{"attributes":{"ID":610385,"DIS_CODE":0,"TOWNNAME":"仁德區","LI":"仁德里","LIN":"3鄰","STREET":"仁中三街","SECT":" ","MAREA":" ","LANE":" ","ALLEY":" ","HOUSE_NO":"５５號","E_COORD97":173315.85000000001,"N_COORD97":2540411,"ADDRESS":"仁中三街５５號","OBJECTID":610358},"geometry":{"x":173315.84999999963,"y":2540411.0000000019}},{"attributes":{"ID":610386,"DIS_CODE":0,"TOWNNAME":"仁德區","LI":"仁德里","LIN":"3鄰","STREET":"仁中七街","SECT":" ","MAREA":" ","LANE":" ","ALLEY":" ","HOUSE_NO":"１６號","E_COORD97":173280.09,"N_COORD97":2540325.2599999998,"ADDRESS":"仁中七街１６號","OBJECTID":610359},"geometry":{"x":173280.09000000078,"y":2540325.2599999998}},{"attributes":{"ID":610387,"DIS_CODE":0,"TOWNNAME":"仁德區","LI":"仁德里","LIN":"3鄰","STREET":"仁中六街","SECT":" ","MAREA":" ","LANE":" ","ALLEY":" ","HOUSE_NO":"５９號","E_COORD97":173350.54999999999,"N_COORD97":2540381.2400000002,"ADDRESS":"仁中六街５９號","OBJECTID":610360},"geometry":{"x":173350.54999999981,"y":2540381.2400000002}},{"attributes":{"ID":610388,"DIS_CODE":0,"TOWNNAME":"仁德區","LI":"仁德里","LIN":"3鄰","STREET":"仁中六街","SECT":" ","MAREA":" ","LANE":" ","ALLEY":" ","HOUSE_NO":"１２２號","E_COORD97":173398.13,"N_COORD97":2540469.4900000002,"ADDRESS":"仁中六街１２２號","OBJECTID":610361},"geometry":{"x":173398.13000000082,"y":2540469.4900000021}},{"attributes":{"ID":610389,"DIS_CODE":0,"TOWNNAME":"仁德區","LI":"田厝里","LIN":"3鄰","STREET":"田厝三街","SECT":" ","MAREA":" ","LANE":" ","ALLEY":" ","HOUSE_NO":"１００號","E_COORD97":172643.97,"N_COORD97":2537463.4900000002,"ADDRESS":"田厝三街１００號","OBJECTID":610362},"geometry":{"x":172643.96999999974,"y":2537463.4900000002}},{"attributes":{"ID":610390,"DIS_CODE":0,"TOWNNAME":"仁德區","LI":"仁德里","LIN":"3鄰","STREET":"仁中六街","SECT":" ","MAREA":" ","LANE":" ","ALLEY":" ","HOUSE_NO":"９８號","E_COORD97":173411.07999999999,"N_COORD97":2540461.9900000002,"ADDRESS":"仁中六街９８號","OBJECTID":610363},"geometry":{"x":173411.08000000101,"y":2540461.9900000021}},{"attributes":{"ID":610391,"DIS_CODE":0,"TOWNNAME":"仁德區","LI":"仁德里","LIN":"3鄰","STREET":"仁中六街","SECT":" ","MAREA":" ","LANE":" ","ALLEY":" ","HOUSE_NO":"１０號","E_COORD97":173395.69,"N_COORD97":2540318.5,"ADDRESS":"仁中六街１０號","OBJECTID":610364},"geometry":{"x":173395.69000000041,"y":2540318.5000000037}},{"attributes":{"ID":610392,"DIS_CODE":0,"TOWNNAME":"仁德區","LI":"後壁里","LIN":"3鄰","STREET":"中正路","SECT":"二段","MAREA":" ","LANE":" ","ALLEY":" ","HOUSE_NO":"３２６號","E_COORD97":173264.34,"N_COORD97":2539066.7799999998,"ADDRESS":"中正路二段３２６號","OBJECTID":610365},"geometry":{"x":173264.34000000078,"y":2539066.7799999993}},{"attributes":{"ID":610393,"DIS_CODE":0,"TOWNNAME":"仁德區","LI":"保安里","LIN":"3鄰","STREET":"保安路","SECT":"一段","MAREA":" ","LANE":" ","ALLEY":" ","HOUSE_NO":"８４號","E_COORD97":170673.85000000001,"N_COORD97":2536375.3199999998,"ADDRESS":"保安路一段８４號","OBJECTID":610366},"geometry":{"x":170673.85000000056,"y":2536375.3200000022}},{"attributes":{"ID":610394,"DIS_CODE":0,"TOWNNAME":"仁德區","LI":"仁德里","LIN":"3鄰","STREET":"仁中六街","SECT":" ","MAREA":" ","LANE":" ","ALLEY":" ","HOUSE_NO":"５８號","E_COORD97":173405.44,"N_COORD97":2540394.2400000002,"ADDRESS":"仁中六街５８號","OBJECTID":610367},"geometry":{"x":173405.44000000134,"y":2540394.2400000002}},{"attributes":{"ID":610395,"DIS_CODE":0,"TOWNNAME":"仁德區","LI":"後壁里","LIN":"3鄰","STREET":"中正路","SECT":"二段","MAREA":" ","LANE":" ","ALLEY":" ","HOUSE_NO":"３２０號","E_COORD97":173269.64999999999,"N_COORD97":2539059.7799999998,"ADDRESS":"中正路二段３２０號","OBJECTID":610368},"geometry":{"x":173269.6500000013,"y":2539059.7800000012}},{"attributes":{"ID":610396,"DIS_CODE":0,"TOWNNAME":"仁德區","LI":"仁德里","LIN":"3鄰","STREET":"中正路","SECT":"二段","MAREA":" ","LANE":" ","ALLEY":" ","HOUSE_NO":"７５７之２號","E_COORD97":173457.60000000001,"N_COORD97":2540290.54,"ADDRESS":"中正路二段７５７之２號","OBJECTID":610369},"geometry":{"x":173457.60000000056,"y":2540290.540000001}},{"attributes":{"ID":610397,"DIS_CODE":0,"TOWNNAME":"仁德區","LI":"保安里","LIN":"3鄰","STREET":"保安路","SECT":"一段","MAREA":" ","LANE":" ","ALLEY":" ","HOUSE_NO":"２４號","E_COORD97":170470.04000000001,"N_COORD97":2536005.3100000001,"ADDRESS":"保安路一段２４號","OBJECTID":610370},"geometry":{"x":170470.04000000097,"y":2536005.3100000024}},{"attributes":{"ID":610398,"DIS_CODE":0,"TOWNNAME":"仁德區","LI":"仁德里","LIN":"3鄰","STREET":"仁中六街","SECT":" ","MAREA":" ","LANE":" ","ALLEY":" ","HOUSE_NO":"３８號","E_COORD97":173391.17000000001,"N_COORD97":2540365.2400000002,"ADDRESS":"仁中六街３８號","OBJECTID":610371},"geometry":{"x":173391.17000000086,"y":2540365.2400000021}},{"attributes":{"ID":610399,"DIS_CODE":0,"TOWNNAME":"仁德區","LI":"保安里","LIN":"3鄰","STREET":"文賢路","SECT":"一段","MAREA":" ","LANE":" ","ALLEY":" ","HOUSE_NO":"５６７號","E_COORD97":171141.89999999999,"N_COORD97":2536896.8300000001,"ADDRESS":"文賢路一段５６７號","OBJECTID":610372},"geometry":{"x":171141.90000000224,"y":2536896.8300000019}},{"attributes":{"ID":610400,"DIS_CODE":0,"TOWNNAME":"仁德區","LI":"保安里","LIN":"3鄰","STREET":"保安路","SECT":"一段","MAREA":" ","LANE":" ","ALLEY":" ","HOUSE_NO":"１０６號","E_COORD97":170849.35999999999,"N_COORD97":2536676.5699999998,"ADDRESS":"保安路一段１０６號","OBJECTID":610373},"geometry":{"x":170849.36000000127,"y":2536676.5700000003}},{"attributes":{"ID":610401,"DIS_CODE":0,"TOWNNAME":"仁德區","LI":"田厝里","LIN":"3鄰","STREET":"田厝三街","SECT":" ","MAREA":" ","LANE":" ","ALLEY":" ","HOUSE_NO":"１１９號","E_COORD97":172625.35999999999,"N_COORD97":2537479.7400000002,"ADDRESS":"田厝三街１１９號","OBJECTID":610374},"geometry":{"x":172625.3599999994,"y":2537479.7400000021}},{"attributes":{"ID":610402,"DIS_CODE":0,"TOWNNAME":"仁德區","LI":"仁德里","LIN":"3鄰","STREET":"仁中六街","SECT":" ","MAREA":" ","LANE":" ","ALLEY":" ","HOUSE_NO":"８３號","E_COORD97":173315.69,"N_COORD97":2540390.9900000002,"ADDRESS":"仁中六街８３號","OBJECTID":610375},"geometry":{"x":173315.69000000134,"y":2540390.9900000021}},{"attributes":{"ID":610403,"DIS_CODE":0,"TOWNNAME":"仁德區","LI":"田厝里","LIN":"3鄰","STREET":"田厝三街","SECT":" ","MAREA":" ","LANE":" ","ALLEY":" ","HOUSE_NO":"１２３號","E_COORD97":172622.14999999999,"N_COORD97":2537492.4900000002,"ADDRESS":"田厝三街１２３號","OBJECTID":610376},"geometry":{"x":172622.1500000013,"y":2537492.4900000021}},{"attributes":{"ID":610404,"DIS_CODE":0,"TOWNNAME":"仁德區","LI":"仁德里","LIN":"3鄰","STREET":"中正路","SECT":"二段","MAREA":" ","LANE":" ","ALLEY":" ","HOUSE_NO":"７３７號","E_COORD97":173459.48999999999,"N_COORD97":2540221.0299999998,"ADDRESS":"中正路二段７３７號","OBJECTID":610377},"geometry":{"x":173459.49000000022,"y":2540221.0299999993}},{"attributes":{"ID":610405,"DIS_CODE":0,"TOWNNAME":"仁德區","LI":"仁德里","LIN":"3鄰","STREET":"仁中六街","SECT":" ","MAREA":" ","LANE":" ","ALLEY":" ","HOUSE_NO":"２２號","E_COORD97":173393.42000000001,"N_COORD97":2540339.5,"ADDRESS":"仁中六街２２號","OBJECTID":610378},"geometry":{"x":173393.41999999993,"y":2540339.5000000019}},{"attributes":{"ID":610406,"DIS_CODE":0,"TOWNNAME":"東區","LI":"中西里","LIN":"3鄰","STREET":"勝利路","SECT":" ","MAREA":" ","LANE":" ","ALLEY":" ","HOUSE_NO":"８號之１","E_COORD97":169781.47,"N_COORD97":2543134,"ADDRESS":"勝利路８號之１","OBJECTID":610379},"geometry":{"x":169781.47000000067,"y":2543134.0000000019}},{"attributes":{"ID":610407,"DIS_CODE":0,"TOWNNAME":"東區","LI":"中西里","LIN":"3鄰","STREET":"勝利路","SECT":" ","MAREA":" ","LANE":" ","ALLEY":" ","HOUSE_NO":"８號之２","E_COORD97":169788.95999999999,"N_COORD97":2543136.04,"ADDRESS":"勝利路８號之２","OBJECTID":610380},"geometry":{"x":169788.96000000089,"y":2543136.040000001}},{"attributes":{"ID":610408,"DIS_CODE":0,"TOWNNAME":"東區","LI":"中西里","LIN":"3鄰","STREET":"勝利路","SECT":" ","MAREA":" ","LANE":" ","ALLEY":" ","HOUSE_NO":"８號之２底層","E_COORD97":169788.95999999999,"N_COORD97":2543136.04,"ADDRESS":"勝利路８號之２底層","OBJECTID":610381},"geometry":{"x":169788.96000000089,"y":2543136.040000001}},{"attributes":{"ID":610409,"DIS_CODE":0,"TOWNNAME":"東區","LI":"中西里","LIN":"3鄰","STREET":"勝利路","SECT":" ","MAREA":" ","LANE":" ","ALLEY":" ","HOUSE_NO":"８號之３","E_COORD97":169800.94,"N_COORD97":2543132.25,"ADDRESS":"勝利路８號之３","OBJECTID":610382},"geometry":{"x":169800.94000000227,"y":2543132.2500000019}},{"attributes":{"ID":610410,"DIS_CODE":0,"TOWNNAME":"東區","LI":"泉南里","LIN":"3鄰","STREET":"慶東街","SECT":" ","MAREA":" ","LANE":" ","ALLEY":" ","HOUSE_NO":"６８號","E_COORD97":169622.35999999999,"N_COORD97":2543041.75,"ADDRESS":"慶東街６８號","OBJECTID":610383},"geometry":{"x":169622.36000000127,"y":2543041.75}},{"attributes":{"ID":610411,"DIS_CODE":0,"TOWNNAME":"東區","LI":"泉南里","LIN":"3鄰","STREET":"慶東街","SECT":" ","MAREA":" ","LANE":" ","ALLEY":" ","HOUSE_NO":"７０號","E_COORD97":169623.54999999999,"N_COORD97":2543044.7200000002,"ADDRESS":"慶東街７０號","OBJECTID":610384},"geometry":{"x":169623.55000000075,"y":2543044.7200000025}},{"attributes":{"ID":610412,"DIS_CODE":0,"TOWNNAME":"東區","LI":"泉南里","LIN":"3鄰","STREET":"慶東街","SECT":" ","MAREA":" ","LANE":" ","ALLEY":" ","HOUSE_NO":"７２號","E_COORD97":169624.70000000001,"N_COORD97":2543048.8100000001,"ADDRESS":"慶東街７２號","OBJECTID":610385},"geometry":{"x":169624.70000000112,"y":2543048.8100000005}},{"attributes":{"ID":610413,"DIS_CODE":0,"TOWNNAME":"東區","LI":"泉南里","LIN":"3鄰","STREET":"慶東街","SECT":" ","MAREA":" ","LANE":" ","ALLEY":" ","HOUSE_NO":"６１號","E_COORD97":169608.39000000001,"N_COORD97":2543045.8999999999,"ADDRESS":"慶東街６１號","OBJECTID":610386},"geometry":{"x":169608.38999999966,"y":2543045.9000000022}},{"attributes":{"ID":610414,"DIS_CODE":0,"TOWNNAME":"東區","LI":"泉南里","LIN":"3鄰","STREET":"慶東街","SECT":" ","MAREA":" ","LANE":" ","ALLEY":" ","HOUSE_NO":"６３號","E_COORD97":169608.98999999999,"N_COORD97":2543049.9100000001,"ADDRESS":"慶東街６３號","OBJECTID":610387},"geometry":{"x":169608.99000000115,"y":2543049.910000002}},{"attributes":{"ID":610415,"DIS_CODE":0,"TOWNNAME":"東區","LI":"泉南里","LIN":"3鄰","STREET":"慶東街","SECT":" ","MAREA":" ","LANE":" ","ALLEY":" ","HOUSE_NO":"６９號","E_COORD97":169613.59,"N_COORD97":2543064.02,"ADDRESS":"慶東街６９號","OBJECTID":610388},"geometry":{"x":169613.59000000078,"y":2543064.0199999977}},{"attributes":{"ID":610416,"DIS_CODE":0,"TOWNNAME":"東區","LI":"泉南里","LIN":"3鄰","STREET":"慶東街","SECT":" ","MAREA":" ","LANE":" ","ALLEY":" ","HOUSE_NO":"７１號","E_COORD97":169616.57000000001,"N_COORD97":2543068.9199999999,"ADDRESS":"慶東街７１號","OBJECTID":610389},"geometry":{"x":169616.5700000003,"y":2543068.9200000018}},{"attributes":{"ID":610417,"DIS_CODE":0,"TOWNNAME":"東區","LI":"崇德里","LIN":"3鄰","STREET":"崇德六街","SECT":" ","MAREA":" ","LANE":" ","ALLEY":" ","HOUSE_NO":"１１號","E_COORD97":170699.19,"N_COORD97":2541726.3599999999,"ADDRESS":"崇德六街１１號","OBJECTID":610390},"geometry":{"x":170699.18999999948,"y":2541726.3600000013}},{"attributes":{"ID":610418,"DIS_CODE":0,"TOWNNAME":"東區","LI":"崇德里","LIN":"3鄰","STREET":"崇德六街","SECT":" ","MAREA":" ","LANE":" ","ALLEY":" ","HOUSE_NO":"１３號","E_COORD97":170702.79000000001,"N_COORD97":2541729.4900000002,"ADDRESS":"崇德六街１３號","OBJECTID":610391},"geometry":{"x":170702.79000000004,"y":2541729.4900000039}},{"attributes":{"ID":610419,"DIS_CODE":0,"TOWNNAME":"東區","LI":"崇德里","LIN":"3鄰","STREET":"崇德六街","SECT":" ","MAREA":" ","LANE":" ","ALLEY":" ","HOUSE_NO":"１５號","E_COORD97":170705.92999999999,"N_COORD97":2541732.6299999999,"ADDRESS":"崇德六街１５號","OBJECTID":610392},"geometry":{"x":170705.93000000063,"y":2541732.629999999}},{"attributes":{"ID":610420,"DIS_CODE":0,"TOWNNAME":"東區","LI":"崇德里","LIN":"3鄰","STREET":"崇德六街","SECT":" ","MAREA":" ","LANE":" ","ALLEY":" ","HOUSE_NO":"１７號","E_COORD97":170709.38,"N_COORD97":2541736.5499999998,"ADDRESS":"崇德六街１７號","OBJECTID":610393},"geometry":{"x":170709.38000000175,"y":2541736.5500000026}},{"attributes":{"ID":610421,"DIS_CODE":0,"TOWNNAME":"東區","LI":"崇德里","LIN":"3鄰","STREET":"崇德六街","SECT":" ","MAREA":" ","LANE":" ","ALLEY":" ","HOUSE_NO":"２９號","E_COORD97":170731.42999999999,"N_COORD97":2541766.71,"ADDRESS":"崇德六街２９號","OBJECTID":610394},"geometry":{"x":170731.43000000063,"y":2541766.7100000028}},{"attributes":{"ID":610422,"DIS_CODE":0,"TOWNNAME":"東區","LI":"崇德里","LIN":"3鄰","STREET":"崇德六街","SECT":" ","MAREA":" ","LANE":" ","ALLEY":" ","HOUSE_NO":"３１號","E_COORD97":170735.12,"N_COORD97":2541772.7999999998,"ADDRESS":"崇德六街３１號","OBJECTID":610395},"geometry":{"x":170735.12000000197,"y":2541772.8000000026}},{"attributes":{"ID":610423,"DIS_CODE":0,"TOWNNAME":"東區","LI":"崇德里","LIN":"3鄰","STREET":"崇德六街","SECT":" ","MAREA":" ","LANE":" ","ALLEY":" ","HOUSE_NO":"３５號","E_COORD97":170741.57999999999,"N_COORD97":2541778.8799999999,"ADDRESS":"崇德六街３５號","OBJECTID":610396},"geometry":{"x":170741.58000000007,"y":2541778.879999999}},{"attributes":{"ID":610424,"DIS_CODE":0,"TOWNNAME":"東區","LI":"崇德里","LIN":"3鄰","STREET":"崇德六街","SECT":" ","MAREA":" ","LANE":" ","ALLEY":" ","HOUSE_NO":"３７號","E_COORD97":170745.64000000001,"N_COORD97":2541781.0899999999,"ADDRESS":"崇德六街３７號","OBJECTID":610397},"geometry":{"x":170745.63999999966,"y":2541781.0899999999}},{"attributes":{"ID":610425,"DIS_CODE":0,"TOWNNAME":"東區","LI":"崇德里","LIN":"3鄰","STREET":"崇德六街","SECT":" ","MAREA":" ","LANE":" ","ALLEY":" ","HOUSE_NO":"３９號","E_COORD97":170748.95999999999,"N_COORD97":2541785.1499999999,"ADDRESS":"崇德六街３９號","OBJECTID":610398},"geometry":{"x":170748.95999999996,"y":2541785.1500000004}},{"attributes":{"ID":610426,"DIS_CODE":0,"TOWNNAME":"東區","LI":"崇德里","LIN":"3鄰","STREET":"崇德六街","SECT":" ","MAREA":" ","LANE":" ","ALLEY":" ","HOUSE_NO":"４１號","E_COORD97":170751.73000000001,"N_COORD97":2541788.1000000001,"ADDRESS":"崇德六街４１號","OBJECTID":610399},"geometry":{"x":170751.73000000231,"y":2541788.0999999996}},{"attributes":{"ID":610427,"DIS_CODE":0,"TOWNNAME":"東區","LI":"崇德里","LIN":"3鄰","STREET":"崇德六街","SECT":" ","MAREA":" ","LANE":" ","ALLEY":" ","HOUSE_NO":"５３號","E_COORD97":170776.07999999999,"N_COORD97":2541822.5699999998,"ADDRESS":"崇德六街５３號","OBJECTID":610400},"geometry":{"x":170776.08000000194,"y":2541822.5700000003}}]}