{"displayFieldName":"TOWNNAME","fieldAliases":{"ID":"ID","DIS_CODE":"DIS_CODE","TOWNNAME":"TOWNNAME","LI":"LI","LIN":"LIN","STREET":"STREET","SECT":"SECT","MAREA":"MAREA","LANE":"LANE","ALLEY":"ALLEY","HOUSE_NO":"HOUSE_NO","E_COORD97":"E_COORD97","N_COORD97":"N_COORD97","ADDRESS":"ADDRESS","OBJECTID":"OBJECTID"},"geometryType":"esriGeometryPoint","spatialReference":{"wkid":102443,"latestWkid":3826},"fields":[{"name":"ID","type":"esriFieldTypeDouble","alias":"ID"},{"name":"DIS_CODE","type":"esriFieldTypeInteger","alias":"DIS_CODE"},{"name":"TOWNNAME","type":"esriFieldTypeString","alias":"TOWNNAME","length":8},{"name":"LI","type":"esriFieldTypeString","alias":"LI","length":8},{"name":"LIN","type":"esriFieldTypeString","alias":"LIN","length":12},{"name":"STREET","type":"esriFieldTypeString","alias":"STREET","length":20},{"name":"SECT","type":"esriFieldTypeString","alias":"SECT","length":8},{"name":"MAREA","type":"esriFieldTypeString","alias":"MAREA","length":12},{"name":"LANE","type":"esriFieldTypeString","alias":"LANE","length":10},{"name":"ALLEY","type":"esriFieldTypeString","alias":"ALLEY","length":10},{"name":"HOUSE_NO","type":"esriFieldTypeString","alias":"HOUSE_NO","length":20},{"name":"E_COORD97","type":"esriFieldTypeDouble","alias":"E_COORD97"},{"name":"N_COORD97","type":"esriFieldTypeDouble","alias":"N_COORD97"},{"name":"ADDRESS","type":"esriFieldTypeString","alias":"ADDRESS","length":50},{"name":"OBJECTID","type":"esriFieldTypeOID","alias":"OBJECTID"}],"features":[{"attributes":{"ID":590028,"DIS_CODE":0,"TOWNNAME":"永康區","LI":"二王里","LIN":"11鄰","STREET":"永二街","SECT":" ","MAREA":" ","LANE":" ","ALLEY":" ","HOUSE_NO":"３９１號","E_COORD97":172909.51000000001,"N_COORD97":2546631.6000000001,"ADDRESS":"永二街３９１號","OBJECTID":590001},"geometry":{"x":172909.51000000071,"y":2546631.6000000015}},{"attributes":{"ID":590029,"DIS_CODE":0,"TOWNNAME":"東區","LI":"崇德里","LIN":"11鄰","STREET":"崇德十街","SECT":" ","MAREA":" ","LANE":" ","ALLEY":" ","HOUSE_NO":"２９號","E_COORD97":170882.95999999999,"N_COORD97":2541525.8999999999,"ADDRESS":"崇德十街２９號","OBJECTID":590002},"geometry":{"x":170882.95999999996,"y":2541525.9000000004}},{"attributes":{"ID":590030,"DIS_CODE":0,"TOWNNAME":"永康區","LI":"二王里","LIN":"47鄰","STREET":"南工街","SECT":" ","MAREA":" ","LANE":" ","ALLEY":" ","HOUSE_NO":"２４８號","E_COORD97":171933.07000000001,"N_COORD97":2545968.4900000002,"ADDRESS":"南工街２４８號","OBJECTID":590003},"geometry":{"x":171933.07000000123,"y":2545968.4900000021}},{"attributes":{"ID":590031,"DIS_CODE":0,"TOWNNAME":"永康區","LI":"大橋里","LIN":"23鄰","STREET":"大橋一街","SECT":" ","MAREA":" ","LANE":" ","ALLEY":" ","HOUSE_NO":"２１７號","E_COORD97":171224.04000000001,"N_COORD97":2546620,"ADDRESS":"大橋一街２１７號","OBJECTID":590004},"geometry":{"x":171224.04000000097,"y":2546620}},{"attributes":{"ID":590032,"DIS_CODE":0,"TOWNNAME":"永康區","LI":"三民里","LIN":"11鄰","STREET":"和平路","SECT":" ","MAREA":" ","LANE":" ","ALLEY":" ","HOUSE_NO":"２３６號","E_COORD97":174748.66,"N_COORD97":2550720.4100000001,"ADDRESS":"和平路２３６號","OBJECTID":590005},"geometry":{"x":174748.66000000015,"y":2550720.4100000001}},{"attributes":{"ID":590033,"DIS_CODE":0,"TOWNNAME":"永康區","LI":"三民里","LIN":"11鄰","STREET":"和平路","SECT":" ","MAREA":" ","LANE":" ","ALLEY":" ","HOUSE_NO":"２１８號","E_COORD97":174751.54000000001,"N_COORD97":2550655.5,"ADDRESS":"和平路２１８號","OBJECTID":590006},"geometry":{"x":174751.5400000019,"y":2550655.5}},{"attributes":{"ID":590034,"DIS_CODE":0,"TOWNNAME":"永康區","LI":"五王里","LIN":"11鄰","STREET":"中山東路","SECT":" ","MAREA":" ","LANE":" ","ALLEY":" ","HOUSE_NO":"２３８號","E_COORD97":171785.59,"N_COORD97":2545708.3999999999,"ADDRESS":"中山東路２３８號","OBJECTID":590007},"geometry":{"x":171785.58999999985,"y":2545708.4000000022}},{"attributes":{"ID":590035,"DIS_CODE":0,"TOWNNAME":"永康區","LI":"大橋里","LIN":"11鄰","STREET":"大橋二街","SECT":" ","MAREA":" ","LANE":" ","ALLEY":" ","HOUSE_NO":"１３９號之３","E_COORD97":170890.95000000001,"N_COORD97":2546661.0499999998,"ADDRESS":"大橋二街１３９號之３","OBJECTID":590008},"geometry":{"x":170890.95000000112,"y":2546661.0500000007}},{"attributes":{"ID":590036,"DIS_CODE":0,"TOWNNAME":"永康區","LI":"復興里","LIN":"11鄰","STREET":"復興路","SECT":" ","MAREA":" ","LANE":" ","ALLEY":" ","HOUSE_NO":"３７０號","E_COORD97":172186.57000000001,"N_COORD97":2544345.7999999998,"ADDRESS":"復興路３７０號","OBJECTID":590009},"geometry":{"x":172186.56999999937,"y":2544345.8000000026}},{"attributes":{"ID":590037,"DIS_CODE":0,"TOWNNAME":"永康區","LI":"\u25A0洲里","LIN":"11鄰","STREET":"\u25A0行路","SECT":" ","MAREA":" ","LANE":" ","ALLEY":" ","HOUSE_NO":"１５２號","E_COORD97":171417.64999999999,"N_COORD97":2549224.9399999999,"ADDRESS":"\u25A0行路１５２號","OBJECTID":590010},"geometry":{"x":171417.65000000037,"y":2549224.9400000032}},{"attributes":{"ID":590038,"DIS_CODE":0,"TOWNNAME":"永康區","LI":"二王里","LIN":"11鄰","STREET":"二王路","SECT":" ","MAREA":" ","LANE":" ","ALLEY":" ","HOUSE_NO":"１７３號","E_COORD97":172966.29999999999,"N_COORD97":2546454.8599999999,"ADDRESS":"二王路１７３號","OBJECTID":590011},"geometry":{"x":172966.30000000075,"y":2546454.8599999994}},{"attributes":{"ID":590039,"DIS_CODE":0,"TOWNNAME":"永康區","LI":"二王里","LIN":"11鄰","STREET":"二王路","SECT":" ","MAREA":" ","LANE":" ","ALLEY":" ","HOUSE_NO":"１６７號","E_COORD97":172970.04000000001,"N_COORD97":2546467.8599999999,"ADDRESS":"二王路１６７號","OBJECTID":590012},"geometry":{"x":172970.04000000097,"y":2546467.8599999994}},{"attributes":{"ID":590040,"DIS_CODE":0,"TOWNNAME":"永康區","LI":"二王里","LIN":"11鄰","STREET":"二王路","SECT":" ","MAREA":" ","LANE":" ","ALLEY":" ","HOUSE_NO":"１５９號","E_COORD97":172974.23000000001,"N_COORD97":2546484.8599999999,"ADDRESS":"二王路１５９號","OBJECTID":590013},"geometry":{"x":172974.23000000138,"y":2546484.8599999994}},{"attributes":{"ID":590041,"DIS_CODE":0,"TOWNNAME":"麻豆區","LI":"興農里","LIN":"11鄰","STREET":"仁愛路","SECT":" ","MAREA":" ","LANE":" ","ALLEY":" ","HOUSE_NO":"７７號","E_COORD97":172361.94,"N_COORD97":2564694.6899999999,"ADDRESS":"仁愛路７７號","OBJECTID":590014},"geometry":{"x":172361.94000000041,"y":2564694.6900000013}},{"attributes":{"ID":590042,"DIS_CODE":0,"TOWNNAME":"永康區","LI":"大橋里","LIN":"3鄰","STREET":"大橋二街","SECT":" ","MAREA":" ","LANE":" ","ALLEY":" ","HOUSE_NO":"１２９號","E_COORD97":170841.19,"N_COORD97":2546626.5699999998,"ADDRESS":"大橋二街１２９號","OBJECTID":590015},"geometry":{"x":170841.19000000041,"y":2546626.5700000003}},{"attributes":{"ID":590043,"DIS_CODE":0,"TOWNNAME":"永康區","LI":"大橋里","LIN":"4鄰","STREET":"大橋五街","SECT":" ","MAREA":" ","LANE":" ","ALLEY":" ","HOUSE_NO":"５５號","E_COORD97":170838.45000000001,"N_COORD97":2546917.4199999999,"ADDRESS":"大橋五街５５號","OBJECTID":590016},"geometry":{"x":170838.45000000112,"y":2546917.4200000018}},{"attributes":{"ID":590044,"DIS_CODE":0,"TOWNNAME":"永康區","LI":"大橋里","LIN":"8鄰","STREET":"大橋三街","SECT":" ","MAREA":" ","LANE":" ","ALLEY":" ","HOUSE_NO":"２１５號之３","E_COORD97":174371.92999999999,"N_COORD97":2547362.2000000002,"ADDRESS":"大橋三街２１５號之３","OBJECTID":590017},"geometry":{"x":174371.9299999997,"y":2547362.2000000011}},{"attributes":{"ID":590045,"DIS_CODE":0,"TOWNNAME":"官田區","LI":"二鎮里","LIN":"1鄰","STREET":"建業路","SECT":" ","MAREA":" ","LANE":" ","ALLEY":" ","HOUSE_NO":"２９號","E_COORD97":181136.17999999999,"N_COORD97":2567691.75,"ADDRESS":"建業路２９號","OBJECTID":590018},"geometry":{"x":181136.18000000063,"y":2567691.7500000019}},{"attributes":{"ID":590046,"DIS_CODE":0,"TOWNNAME":"永康區","LI":"大灣里","LIN":"1鄰","STREET":"大安街","SECT":" ","MAREA":" ","LANE":" ","ALLEY":" ","HOUSE_NO":"３９８號","E_COORD97":174641.62,"N_COORD97":2545747.5899999999,"ADDRESS":"大安街３９８號","OBJECTID":590019},"geometry":{"x":174641.62000000011,"y":2545747.5899999999}},{"attributes":{"ID":590047,"DIS_CODE":0,"TOWNNAME":"永康區","LI":"二王里","LIN":"11鄰","STREET":"二王路","SECT":" ","MAREA":" ","LANE":" ","ALLEY":" ","HOUSE_NO":"１７０號","E_COORD97":172954.37,"N_COORD97":2546463.6099999999,"ADDRESS":"二王路１７０號","OBJECTID":590020},"geometry":{"x":172954.37000000104,"y":2546463.6099999994}},{"attributes":{"ID":590048,"DIS_CODE":0,"TOWNNAME":"麻豆區","LI":"興農里","LIN":"11鄰","STREET":"仁愛路","SECT":" ","MAREA":" ","LANE":" ","ALLEY":" ","HOUSE_NO":"７９號","E_COORD97":172361.62,"N_COORD97":2564673.27,"ADDRESS":"仁愛路７９號","OBJECTID":590021},"geometry":{"x":172361.62000000011,"y":2564673.2700000014}},{"attributes":{"ID":590049,"DIS_CODE":0,"TOWNNAME":"安南區","LI":"幸福里","LIN":"11鄰","STREET":"府安路","SECT":"六段","MAREA":" ","LANE":" ","ALLEY":" ","HOUSE_NO":"１００號","E_COORD97":166741.51000000001,"N_COORD97":2546491.29,"ADDRESS":"府安路六段１００號","OBJECTID":590022},"geometry":{"x":166741.51000000164,"y":2546491.2899999991}},{"attributes":{"ID":590050,"DIS_CODE":0,"TOWNNAME":"安南區","LI":"幸福里","LIN":"11鄰","STREET":"府安路","SECT":"六段","MAREA":" ","LANE":" ","ALLEY":" ","HOUSE_NO":"１０１號","E_COORD97":166737.69,"N_COORD97":2546487.9900000002,"ADDRESS":"府安路六段１０１號","OBJECTID":590023},"geometry":{"x":166737.69000000227,"y":2546487.9900000002}},{"attributes":{"ID":590051,"DIS_CODE":0,"TOWNNAME":"東區","LI":"崇德里","LIN":"11鄰","STREET":"崇德十一街","SECT":" ","MAREA":" ","LANE":" ","ALLEY":" ","HOUSE_NO":"２９號","E_COORD97":170885.51000000001,"N_COORD97":2541472.5,"ADDRESS":"崇德十一街２９號","OBJECTID":590024},"geometry":{"x":170885.50999999978,"y":2541472.5000000019}},{"attributes":{"ID":590052,"DIS_CODE":0,"TOWNNAME":"安南區","LI":"幸福里","LIN":"11鄰","STREET":"府安路","SECT":"六段","MAREA":" ","LANE":" ","ALLEY":" ","HOUSE_NO":"９０號","E_COORD97":166784.97,"N_COORD97":2546516.8300000001,"ADDRESS":"府安路六段９０號","OBJECTID":590025},"geometry":{"x":166784.97000000067,"y":2546516.8300000001}},{"attributes":{"ID":590053,"DIS_CODE":0,"TOWNNAME":"安南區","LI":"幸福里","LIN":"11鄰","STREET":"府安路","SECT":"六段","MAREA":" ","LANE":" ","ALLEY":" ","HOUSE_NO":"９１號","E_COORD97":166781.20000000001,"N_COORD97":2546513.3300000001,"ADDRESS":"府安路六段９１號","OBJECTID":590026},"geometry":{"x":166781.20000000019,"y":2546513.3300000001}},{"attributes":{"ID":590054,"DIS_CODE":0,"TOWNNAME":"安南區","LI":"幸福里","LIN":"11鄰","STREET":"府安路","SECT":"六段","MAREA":" ","LANE":" ","ALLEY":" ","HOUSE_NO":"９２號","E_COORD97":166777.04999999999,"N_COORD97":2546510.29,"ADDRESS":"府安路六段９２號","OBJECTID":590027},"geometry":{"x":166777.05000000168,"y":2546510.290000001}},{"attributes":{"ID":590055,"DIS_CODE":0,"TOWNNAME":"安南區","LI":"幸福里","LIN":"11鄰","STREET":"府安路","SECT":"六段","MAREA":" ","LANE":" ","ALLEY":" ","HOUSE_NO":"９３號","E_COORD97":166772.70999999999,"N_COORD97":2546507.3799999999,"ADDRESS":"府安路六段９３號","OBJECTID":590028},"geometry":{"x":166772.71000000183,"y":2546507.3800000008}},{"attributes":{"ID":590056,"DIS_CODE":0,"TOWNNAME":"永康區","LI":"中興里","LIN":"22鄰","STREET":"中華路","SECT":" ","MAREA":" ","LANE":" ","ALLEY":" ","HOUSE_NO":"２１０號之７","E_COORD97":171688.48999999999,"N_COORD97":2545041.52,"ADDRESS":"中華路２１０號之７","OBJECTID":590029},"geometry":{"x":171688.49000000022,"y":2545041.5200000014}},{"attributes":{"ID":590057,"DIS_CODE":0,"TOWNNAME":"永康區","LI":"五王里","LIN":"2鄰","STREET":"中華路","SECT":" ","MAREA":" ","LANE":" ","ALLEY":" ","HOUSE_NO":"３７４號","E_COORD97":171448.97,"N_COORD97":2545507.3999999999,"ADDRESS":"中華路３７４號","OBJECTID":590030},"geometry":{"x":171448.96999999974,"y":2545507.4000000022}},{"attributes":{"ID":590058,"DIS_CODE":0,"TOWNNAME":"永康區","LI":"五王里","LIN":"20鄰","STREET":"成功路","SECT":" ","MAREA":" ","LANE":" ","ALLEY":" ","HOUSE_NO":"１４７號","E_COORD97":171362.92999999999,"N_COORD97":2545714.52,"ADDRESS":"成功路１４７號","OBJECTID":590031},"geometry":{"x":171362.9299999997,"y":2545714.5199999996}},{"attributes":{"ID":590059,"DIS_CODE":0,"TOWNNAME":"永康區","LI":"王行里","LIN":"14鄰","STREET":"興工路","SECT":" ","MAREA":" ","LANE":" ","ALLEY":" ","HOUSE_NO":"１３號","E_COORD97":175315.28,"N_COORD97":2549690.02,"ADDRESS":"興工路１３號","OBJECTID":590032},"geometry":{"x":175315.28000000119,"y":2549690.0200000014}},{"attributes":{"ID":590060,"DIS_CODE":0,"TOWNNAME":"安南區","LI":"幸福里","LIN":"11鄰","STREET":"府安路","SECT":"六段","MAREA":" ","LANE":" ","ALLEY":" ","HOUSE_NO":"９５號","E_COORD97":166762.48999999999,"N_COORD97":2546503.23,"ADDRESS":"府安路六段９５號","OBJECTID":590033},"geometry":{"x":166762.49000000209,"y":2546503.2300000004}},{"attributes":{"ID":590061,"DIS_CODE":0,"TOWNNAME":"安南區","LI":"幸福里","LIN":"11鄰","STREET":"府安路","SECT":"六段","MAREA":" ","LANE":" ","ALLEY":" ","HOUSE_NO":"９６號","E_COORD97":166758.42000000001,"N_COORD97":2546500.8199999998,"ADDRESS":"府安路六段９６號","OBJECTID":590034},"geometry":{"x":166758.42000000086,"y":2546500.820000004}},{"attributes":{"ID":590062,"DIS_CODE":0,"TOWNNAME":"安南區","LI":"幸福里","LIN":"11鄰","STREET":"府安路","SECT":"六段","MAREA":" ","LANE":" ","ALLEY":" ","HOUSE_NO":"９７號","E_COORD97":166754.22,"N_COORD97":2546497.3900000001,"ADDRESS":"府安路六段９７號","OBJECTID":590035},"geometry":{"x":166754.22000000067,"y":2546497.3900000043}},{"attributes":{"ID":590063,"DIS_CODE":0,"TOWNNAME":"安南區","LI":"幸福里","LIN":"11鄰","STREET":"府安路","SECT":"六段","MAREA":" ","LANE":" ","ALLEY":" ","HOUSE_NO":"９８號","E_COORD97":166750.79000000001,"N_COORD97":2546492.4300000002,"ADDRESS":"府安路六段９８號","OBJECTID":590036},"geometry":{"x":166750.79000000097,"y":2546492.4299999978}},{"attributes":{"ID":590064,"DIS_CODE":0,"TOWNNAME":"安南區","LI":"幸福里","LIN":"11鄰","STREET":"府安路","SECT":"六段","MAREA":" ","LANE":" ","ALLEY":" ","HOUSE_NO":"９９號","E_COORD97":166745.82999999999,"N_COORD97":2546494.3399999999,"ADDRESS":"府安路六段９９號","OBJECTID":590037},"geometry":{"x":166745.83000000007,"y":2546494.3400000017}},{"attributes":{"ID":590065,"DIS_CODE":0,"TOWNNAME":"安南區","LI":"海南里","LIN":"11鄰","STREET":"府安路","SECT":"七段","MAREA":" ","LANE":" ","ALLEY":" ","HOUSE_NO":"２７號","E_COORD97":166062.37,"N_COORD97":2545991.0600000001,"ADDRESS":"府安路七段２７號","OBJECTID":590038},"geometry":{"x":166062.37000000011,"y":2545991.0600000042}},{"attributes":{"ID":590066,"DIS_CODE":0,"TOWNNAME":"安南區","LI":"海南里","LIN":"11鄰","STREET":"府安路","SECT":"七段","MAREA":" ","LANE":" ","ALLEY":" ","HOUSE_NO":"２２號","E_COORD97":166079.98999999999,"N_COORD97":2546003.1200000001,"ADDRESS":"府安路七段２２號","OBJECTID":590039},"geometry":{"x":166079.99000000115,"y":2546003.120000001}},{"attributes":{"ID":590067,"DIS_CODE":0,"TOWNNAME":"安南區","LI":"幸福里","LIN":"11鄰","STREET":"府安路","SECT":"六段","MAREA":" ","LANE":" ","ALLEY":" ","HOUSE_NO":"１０２號","E_COORD97":166733.5,"N_COORD97":2546485.5800000001,"ADDRESS":"府安路六段１０２號","OBJECTID":590040},"geometry":{"x":166733.50000000186,"y":2546485.5800000019}},{"attributes":{"ID":590068,"DIS_CODE":0,"TOWNNAME":"永康區","LI":"大橋里","LIN":"30鄰","STREET":"大橋一街","SECT":" ","MAREA":" ","LANE":" ","ALLEY":" ","HOUSE_NO":"３１６號之９","E_COORD97":171263.42999999999,"N_COORD97":2546628.0499999998,"ADDRESS":"大橋一街３１６號之９","OBJECTID":590041},"geometry":{"x":171263.43000000063,"y":2546628.0500000007}},{"attributes":{"ID":590069,"DIS_CODE":0,"TOWNNAME":"安南區","LI":"海南里","LIN":"11鄰","STREET":"府安路","SECT":"七段","MAREA":" ","LANE":" ","ALLEY":" ","HOUSE_NO":"２６號","E_COORD97":166066.22,"N_COORD97":2545993.6699999999,"ADDRESS":"府安路七段２６號","OBJECTID":590042},"geometry":{"x":166066.22000000067,"y":2545993.6700000018}},{"attributes":{"ID":590070,"DIS_CODE":0,"TOWNNAME":"安南區","LI":"州南里","LIN":"11鄰","STREET":"安和路","SECT":"四段","MAREA":" ","LANE":" ","ALLEY":" ","HOUSE_NO":"５４０號","E_COORD97":169956.20999999999,"N_COORD97":2551320.4300000002,"ADDRESS":"安和路四段５４０號","OBJECTID":590043},"geometry":{"x":169956.21000000183,"y":2551320.4300000034}},{"attributes":{"ID":590071,"DIS_CODE":0,"TOWNNAME":"安南區","LI":"州南里","LIN":"11鄰","STREET":"安和路","SECT":"四段","MAREA":" ","LANE":" ","ALLEY":" ","HOUSE_NO":"５４２號","E_COORD97":169957.07999999999,"N_COORD97":2551327.6499999999,"ADDRESS":"安和路四段５４２號","OBJECTID":590044},"geometry":{"x":169957.07999999914,"y":2551327.6500000022}},{"attributes":{"ID":590072,"DIS_CODE":0,"TOWNNAME":"安南區","LI":"州南里","LIN":"11鄰","STREET":"安和路","SECT":"四段","MAREA":" ","LANE":" ","ALLEY":" ","HOUSE_NO":"５４４號","E_COORD97":169958.17999999999,"N_COORD97":2551332.4700000002,"ADDRESS":"安和路四段５４４號","OBJECTID":590045},"geometry":{"x":169958.18000000063,"y":2551332.4700000025}},{"attributes":{"ID":590073,"DIS_CODE":0,"TOWNNAME":"安南區","LI":"州南里","LIN":"11鄰","STREET":"安和路","SECT":"四段","MAREA":" ","LANE":" ","ALLEY":" ","HOUSE_NO":"５４６號","E_COORD97":169957.73999999999,"N_COORD97":2551336.1899999999,"ADDRESS":"安和路四段５４６號","OBJECTID":590046},"geometry":{"x":169957.74000000022,"y":2551336.1900000013}},{"attributes":{"ID":590074,"DIS_CODE":0,"TOWNNAME":"安南區","LI":"州南里","LIN":"11鄰","STREET":"安和路","SECT":"四段","MAREA":" ","LANE":" ","ALLEY":" ","HOUSE_NO":"５４８號","E_COORD97":169958.62,"N_COORD97":2551340.3399999999,"ADDRESS":"安和路四段５４８號","OBJECTID":590047},"geometry":{"x":169958.62000000197,"y":2551340.3399999999}},{"attributes":{"ID":590075,"DIS_CODE":0,"TOWNNAME":"安南區","LI":"州南里","LIN":"11鄰","STREET":"安和路","SECT":"四段","MAREA":" ","LANE":" ","ALLEY":" ","HOUSE_NO":"５５０號","E_COORD97":169958.62,"N_COORD97":2551344.5,"ADDRESS":"安和路四段５５０號","OBJECTID":590048},"geometry":{"x":169958.62000000197,"y":2551344.5000000019}},{"attributes":{"ID":590076,"DIS_CODE":0,"TOWNNAME":"安南區","LI":"州南里","LIN":"11鄰","STREET":"安和路","SECT":"四段","MAREA":" ","LANE":" ","ALLEY":" ","HOUSE_NO":"５５２號","E_COORD97":169959.70999999999,"N_COORD97":2551348.8799999999,"ADDRESS":"安和路四段５５２號","OBJECTID":590049},"geometry":{"x":169959.71000000183,"y":2551348.879999999}},{"attributes":{"ID":590077,"DIS_CODE":0,"TOWNNAME":"安南區","LI":"州南里","LIN":"11鄰","STREET":"安和路","SECT":"四段","MAREA":" ","LANE":" ","ALLEY":" ","HOUSE_NO":"５５４號","E_COORD97":169960.79999999999,"N_COORD97":2551354.23,"ADDRESS":"安和路四段５５４號","OBJECTID":590050},"geometry":{"x":169960.80000000075,"y":2551354.2300000023}},{"attributes":{"ID":590078,"DIS_CODE":0,"TOWNNAME":"安南區","LI":"州南里","LIN":"11鄰","STREET":"安和路","SECT":"四段","MAREA":" ","LANE":" ","ALLEY":" ","HOUSE_NO":"５５６號之１","E_COORD97":169959.92999999999,"N_COORD97":2551361.0099999998,"ADDRESS":"安和路四段５５６號之１","OBJECTID":590051},"geometry":{"x":169959.93000000063,"y":2551361.0100000016}},{"attributes":{"ID":590079,"DIS_CODE":0,"TOWNNAME":"安南區","LI":"州南里","LIN":"11鄰","STREET":"安和路","SECT":"四段","MAREA":" ","LANE":" ","ALLEY":" ","HOUSE_NO":"５５６號之２","E_COORD97":169961.01999999999,"N_COORD97":2551365.8199999998,"ADDRESS":"安和路四段５５６號之２","OBJECTID":590052},"geometry":{"x":169961.02000000048,"y":2551365.820000004}},{"attributes":{"ID":590080,"DIS_CODE":0,"TOWNNAME":"安南區","LI":"州南里","LIN":"11鄰","STREET":"安和路","SECT":"四段","MAREA":" ","LANE":" ","ALLEY":" ","HOUSE_NO":"５５６號","E_COORD97":169961.01999999999,"N_COORD97":2551357.9500000002,"ADDRESS":"安和路四段５５６號","OBJECTID":590053},"geometry":{"x":169961.02000000048,"y":2551357.9500000011}},{"attributes":{"ID":590081,"DIS_CODE":0,"TOWNNAME":"安南區","LI":"安西里","LIN":"11鄰","STREET":"安中路","SECT":"一段","MAREA":" ","LANE":" ","ALLEY":" ","HOUSE_NO":"３４號","E_COORD97":169152.120153,"N_COORD97":2548269.8468999998,"ADDRESS":"安中路一段３４號","OBJECTID":590054},"geometry":{"x":169152.12015299965,"y":2548269.8468999993}},{"attributes":{"ID":590082,"DIS_CODE":0,"TOWNNAME":"安南區","LI":"安西里","LIN":"11鄰","STREET":"安中路","SECT":"一段","MAREA":" ","LANE":" ","ALLEY":" ","HOUSE_NO":"３６號","E_COORD97":169145.97287,"N_COORD97":2548272.1752300002,"ADDRESS":"安中路一段３６號","OBJECTID":590055},"geometry":{"x":169145.97287000064,"y":2548272.1752320006}},{"attributes":{"ID":590083,"DIS_CODE":0,"TOWNNAME":"安南區","LI":"學東里","LIN":"11鄰","STREET":"公學路","SECT":"六段","MAREA":" ","LANE":" ","ALLEY":" ","HOUSE_NO":"６４６號","E_COORD97":162272.85999999999,"N_COORD97":2553266.0299999998,"ADDRESS":"公學路六段６４６號","OBJECTID":590056},"geometry":{"x":162272.8599999994,"y":2553266.0300000012}},{"attributes":{"ID":590084,"DIS_CODE":0,"TOWNNAME":"安南區","LI":"城南里","LIN":"11鄰","STREET":"城西街","SECT":"二段","MAREA":" ","LANE":" ","ALLEY":" ","HOUSE_NO":"１８２號","E_COORD97":159879.28,"N_COORD97":2551051.79,"ADDRESS":"城西街二段１８２號","OBJECTID":590057},"geometry":{"x":159879.28000000026,"y":2551051.7899999991}},{"attributes":{"ID":590085,"DIS_CODE":0,"TOWNNAME":"安南區","LI":"\u25A0南里","LIN":"11鄰","STREET":"環福街","SECT":" ","MAREA":" ","LANE":" ","ALLEY":" ","HOUSE_NO":"２０３號","E_COORD97":170258.60000000001,"N_COORD97":2552646.23,"ADDRESS":"環福街２０３號","OBJECTID":590058},"geometry":{"x":170258.60000000056,"y":2552646.2300000023}},{"attributes":{"ID":590086,"DIS_CODE":0,"TOWNNAME":"安南區","LI":"\u25A0南里","LIN":"11鄰","STREET":"環福街","SECT":" ","MAREA":" ","LANE":" ","ALLEY":" ","HOUSE_NO":"２０１號","E_COORD97":170263.41,"N_COORD97":2552644.9700000002,"ADDRESS":"環福街２０１號","OBJECTID":590059},"geometry":{"x":170263.41000000015,"y":2552644.9700000025}},{"attributes":{"ID":590087,"DIS_CODE":0,"TOWNNAME":"東區","LI":"崇德里","LIN":"11鄰","STREET":"崇德十街","SECT":" ","MAREA":" ","LANE":" ","ALLEY":" ","HOUSE_NO":"７號","E_COORD97":170837.89999999999,"N_COORD97":2541525.5899999999,"ADDRESS":"崇德十街７號","OBJECTID":590060},"geometry":{"x":170837.90000000037,"y":2541525.5900000017}},{"attributes":{"ID":590088,"DIS_CODE":0,"TOWNNAME":"安南區","LI":"新順里","LIN":"11鄰","STREET":"安和路","SECT":"三段","MAREA":" ","LANE":" ","ALLEY":" ","HOUSE_NO":"９５號","E_COORD97":169817.12,"N_COORD97":2549588.1899999999,"ADDRESS":"安和路三段９５號","OBJECTID":590061},"geometry":{"x":169817.12000000011,"y":2549588.1899999995}},{"attributes":{"ID":590089,"DIS_CODE":0,"TOWNNAME":"安南區","LI":"新順里","LIN":"11鄰","STREET":"安和路","SECT":"三段","MAREA":" ","LANE":" ","ALLEY":" ","HOUSE_NO":"９９號","E_COORD97":169819.12,"N_COORD97":2549596.4700000002,"ADDRESS":"安和路三段９９號","OBJECTID":590062},"geometry":{"x":169819.12000000011,"y":2549596.4700000025}},{"attributes":{"ID":590090,"DIS_CODE":0,"TOWNNAME":"安南區","LI":"新順里","LIN":"11鄰","STREET":"安和路","SECT":"三段","MAREA":" ","LANE":" ","ALLEY":" ","HOUSE_NO":"９７號","E_COORD97":169817.98000000001,"N_COORD97":2549591.9100000001,"ADDRESS":"安和路三段９７號","OBJECTID":590063},"geometry":{"x":169817.98000000138,"y":2549591.9100000039}},{"attributes":{"ID":590091,"DIS_CODE":0,"TOWNNAME":"安南區","LI":"新順里","LIN":"11鄰","STREET":"安和路","SECT":"三段","MAREA":" ","LANE":" ","ALLEY":" ","HOUSE_NO":"１０１號","E_COORD97":169819.69,"N_COORD97":2549599.8999999999,"ADDRESS":"安和路三段１０１號","OBJECTID":590064},"geometry":{"x":169819.69000000134,"y":2549599.9000000022}},{"attributes":{"ID":590092,"DIS_CODE":0,"TOWNNAME":"安南區","LI":"新順里","LIN":"11鄰","STREET":"安和路","SECT":"三段","MAREA":" ","LANE":" ","ALLEY":" ","HOUSE_NO":"１０３號","E_COORD97":169821.12,"N_COORD97":2549604.4700000002,"ADDRESS":"安和路三段１０３號","OBJECTID":590065},"geometry":{"x":169821.12000000011,"y":2549604.4700000007}},{"attributes":{"ID":590093,"DIS_CODE":0,"TOWNNAME":"安南區","LI":"新順里","LIN":"11鄰","STREET":"安和路","SECT":"三段","MAREA":" ","LANE":" ","ALLEY":" ","HOUSE_NO":"１０５號","E_COORD97":169822.84,"N_COORD97":2549609.04,"ADDRESS":"安和路三段１０５號","OBJECTID":590066},"geometry":{"x":169822.83999999892,"y":2549609.0399999991}},{"attributes":{"ID":590094,"DIS_CODE":0,"TOWNNAME":"安南區","LI":"新順里","LIN":"11鄰","STREET":"安和路","SECT":"三段","MAREA":" ","LANE":" ","ALLEY":" ","HOUSE_NO":"１０７號","E_COORD97":169823.69,"N_COORD97":2549612.75,"ADDRESS":"安和路三段１０７號","OBJECTID":590067},"geometry":{"x":169823.69000000134,"y":2549612.75}},{"attributes":{"ID":590095,"DIS_CODE":0,"TOWNNAME":"安南區","LI":"新順里","LIN":"11鄰","STREET":"安和路","SECT":"三段","MAREA":" ","LANE":" ","ALLEY":" ","HOUSE_NO":"１０９號","E_COORD97":169825.12,"N_COORD97":2549616.75,"ADDRESS":"安和路三段１０９號","OBJECTID":590068},"geometry":{"x":169825.12000000104,"y":2549616.7500000037}},{"attributes":{"ID":590096,"DIS_CODE":0,"TOWNNAME":"安南區","LI":"新順里","LIN":"11鄰","STREET":"安和路","SECT":"三段","MAREA":" ","LANE":" ","ALLEY":" ","HOUSE_NO":"１１１號","E_COORD97":169826.54999999999,"N_COORD97":2549621.6000000001,"ADDRESS":"安和路三段１１１號","OBJECTID":590069},"geometry":{"x":169826.55000000168,"y":2549621.6000000015}},{"attributes":{"ID":590097,"DIS_CODE":0,"TOWNNAME":"安南區","LI":"新順里","LIN":"11鄰","STREET":"安和路","SECT":"三段","MAREA":" ","LANE":" ","ALLEY":" ","HOUSE_NO":"１１３號","E_COORD97":169827.41,"N_COORD97":2549625.6000000001,"ADDRESS":"安和路三段１１３號","OBJECTID":590070},"geometry":{"x":169827.41000000015,"y":2549625.6000000015}},{"attributes":{"ID":590098,"DIS_CODE":0,"TOWNNAME":"安南區","LI":"新順里","LIN":"11鄰","STREET":"安和路","SECT":"三段","MAREA":" ","LANE":" ","ALLEY":" ","HOUSE_NO":"１１７號","E_COORD97":169833.14999999999,"N_COORD97":2549643.2400000002,"ADDRESS":"安和路三段１１７號","OBJECTID":590071},"geometry":{"x":169833.14999999944,"y":2549643.2400000002}},{"attributes":{"ID":590099,"DIS_CODE":0,"TOWNNAME":"安南區","LI":"新順里","LIN":"11鄰","STREET":"安和路","SECT":"三段","MAREA":" ","LANE":" ","ALLEY":" ","HOUSE_NO":"１１９號","E_COORD97":169835.44,"N_COORD97":2549647.5299999998,"ADDRESS":"安和路三段１１９號","OBJECTID":590072},"geometry":{"x":169835.44000000134,"y":2549647.5299999993}},{"attributes":{"ID":590100,"DIS_CODE":0,"TOWNNAME":"安南區","LI":"新順里","LIN":"11鄰","STREET":"安和路","SECT":"三段","MAREA":" ","LANE":" ","ALLEY":" ","HOUSE_NO":"１２１號","E_COORD97":169836.57999999999,"N_COORD97":2549651.2400000002,"ADDRESS":"安和路三段１２１號","OBJECTID":590073},"geometry":{"x":169836.58000000007,"y":2549651.2400000021}},{"attributes":{"ID":590101,"DIS_CODE":0,"TOWNNAME":"安南區","LI":"新順里","LIN":"11鄰","STREET":"安和路","SECT":"三段","MAREA":" ","LANE":" ","ALLEY":" ","HOUSE_NO":"１２３號","E_COORD97":169838.01000000001,"N_COORD97":2549656.3799999999,"ADDRESS":"安和路三段１２３號","OBJECTID":590074},"geometry":{"x":169838.00999999978,"y":2549656.3800000008}},{"attributes":{"ID":590102,"DIS_CODE":0,"TOWNNAME":"安南區","LI":"新順里","LIN":"11鄰","STREET":"安和路","SECT":"三段","MAREA":" ","LANE":" ","ALLEY":" ","HOUSE_NO":"１２５號","E_COORD97":169839.44,"N_COORD97":2549660.3799999999,"ADDRESS":"安和路三段１２５號","OBJECTID":590075},"geometry":{"x":169839.44000000041,"y":2549660.3800000008}},{"attributes":{"ID":590103,"DIS_CODE":0,"TOWNNAME":"安南區","LI":"新順里","LIN":"11鄰","STREET":"安和路","SECT":"三段","MAREA":" ","LANE":" ","ALLEY":" ","HOUSE_NO":"１２７號","E_COORD97":169839.73000000001,"N_COORD97":2549664.3700000001,"ADDRESS":"安和路三段１２７號","OBJECTID":590076},"geometry":{"x":169839.73000000231,"y":2549664.3700000048}},{"attributes":{"ID":590104,"DIS_CODE":0,"TOWNNAME":"東區","LI":"崇德里","LIN":"11鄰","STREET":"崇德十街","SECT":" ","MAREA":" ","LANE":" ","ALLEY":" ","HOUSE_NO":"９號","E_COORD97":170841.89000000001,"N_COORD97":2541523.9900000002,"ADDRESS":"崇德十街９號","OBJECTID":590077},"geometry":{"x":170841.8900000006,"y":2541523.9900000021}},{"attributes":{"ID":590105,"DIS_CODE":0,"TOWNNAME":"東區","LI":"崇德里","LIN":"11鄰","STREET":"崇德十一街","SECT":" ","MAREA":" ","LANE":" ","ALLEY":" ","HOUSE_NO":"１１號","E_COORD97":170846.67000000001,"N_COORD97":2541471.7200000002,"ADDRESS":"崇德十一街１１號","OBJECTID":590078},"geometry":{"x":170846.67000000086,"y":2541471.7200000025}},{"attributes":{"ID":590106,"DIS_CODE":0,"TOWNNAME":"永康區","LI":"中興里","LIN":"22鄰","STREET":"中華路","SECT":" ","MAREA":" ","LANE":" ","ALLEY":" ","HOUSE_NO":"２００號之２","E_COORD97":171636.28,"N_COORD97":2545014.54,"ADDRESS":"中華路２００號之２","OBJECTID":590079},"geometry":{"x":171636.28000000119,"y":2545014.540000001}},{"attributes":{"ID":590107,"DIS_CODE":0,"TOWNNAME":"東區","LI":"崇德里","LIN":"11鄰","STREET":"崇德十一街","SECT":" ","MAREA":" ","LANE":" ","ALLEY":" ","HOUSE_NO":"１３號","E_COORD97":170851.14000000001,"N_COORD97":2541473.7599999998,"ADDRESS":"崇德十一街１３號","OBJECTID":590080},"geometry":{"x":170851.13999999966,"y":2541473.7600000016}},{"attributes":{"ID":590108,"DIS_CODE":0,"TOWNNAME":"永康區","LI":"五王里","LIN":"42鄰","STREET":"五福街","SECT":" ","MAREA":" ","LANE":" ","ALLEY":" ","HOUSE_NO":"１８７號","E_COORD97":171681,"N_COORD97":2546065.8399999999,"ADDRESS":"五福街１８７號","OBJECTID":590081},"geometry":{"x":171681,"y":2546065.8399999999}},{"attributes":{"ID":590109,"DIS_CODE":0,"TOWNNAME":"永康區","LI":"五王里","LIN":"41鄰","STREET":"中山南路","SECT":" ","MAREA":" ","LANE":" ","ALLEY":" ","HOUSE_NO":"２３６號","E_COORD97":171443.73000000001,"N_COORD97":2546061.9100000001,"ADDRESS":"中山南路２３６號","OBJECTID":590082},"geometry":{"x":171443.73000000138,"y":2546061.9100000001}},{"attributes":{"ID":590110,"DIS_CODE":0,"TOWNNAME":"東區","LI":"崇德里","LIN":"11鄰","STREET":"崇德十一街","SECT":" ","MAREA":" ","LANE":" ","ALLEY":" ","HOUSE_NO":"１５號","E_COORD97":170855.69,"N_COORD97":2541471.5600000001,"ADDRESS":"崇德十一街１５號","OBJECTID":590083},"geometry":{"x":170855.69000000134,"y":2541471.5600000042}},{"attributes":{"ID":590111,"DIS_CODE":0,"TOWNNAME":"東區","LI":"崇德里","LIN":"11鄰","STREET":"崇德十一街","SECT":" ","MAREA":" ","LANE":" ","ALLEY":" ","HOUSE_NO":"１７號","E_COORD97":170860.01000000001,"N_COORD97":2541474.1499999999,"ADDRESS":"崇德十一街１７號","OBJECTID":590084},"geometry":{"x":170860.01000000071,"y":2541474.1500000041}},{"attributes":{"ID":590112,"DIS_CODE":0,"TOWNNAME":"東區","LI":"崇德里","LIN":"11鄰","STREET":"崇德十一街","SECT":" ","MAREA":" ","LANE":" ","ALLEY":" ","HOUSE_NO":"１９號","E_COORD97":170864.56,"N_COORD97":2541471.9500000002,"ADDRESS":"崇德十一街１９號","OBJECTID":590085},"geometry":{"x":170864.56000000052,"y":2541471.9500000011}},{"attributes":{"ID":590113,"DIS_CODE":0,"TOWNNAME":"東區","LI":"崇德里","LIN":"11鄰","STREET":"崇德十一街","SECT":" ","MAREA":" ","LANE":" ","ALLEY":" ","HOUSE_NO":"３１號","E_COORD97":170889.95000000001,"N_COORD97":2541472.9500000002,"ADDRESS":"崇德十一街３１號","OBJECTID":590086},"geometry":{"x":170889.95000000019,"y":2541472.9499999993}},{"attributes":{"ID":590114,"DIS_CODE":0,"TOWNNAME":"東區","LI":"崇德里","LIN":"11鄰","STREET":"崇德十一街","SECT":" ","MAREA":" ","LANE":" ","ALLEY":" ","HOUSE_NO":"７號","E_COORD97":170838.59,"N_COORD97":2541472.3199999998,"ADDRESS":"崇德十一街７號","OBJECTID":590087},"geometry":{"x":170838.59000000078,"y":2541472.3200000003}},{"attributes":{"ID":590115,"DIS_CODE":0,"TOWNNAME":"東區","LI":"崇德里","LIN":"11鄰","STREET":"崇德十一街","SECT":" ","MAREA":" ","LANE":" ","ALLEY":" ","HOUSE_NO":"９號","E_COORD97":170842.85000000001,"N_COORD97":2541474.0499999998,"ADDRESS":"崇德十一街９號","OBJECTID":590088},"geometry":{"x":170842.84999999963,"y":2541474.0500000007}},{"attributes":{"ID":590116,"DIS_CODE":0,"TOWNNAME":"東區","LI":"崇德里","LIN":"11鄰","STREET":"崇德十街","SECT":" ","MAREA":" ","LANE":" ","ALLEY":" ","HOUSE_NO":"１０號","E_COORD97":170841.67000000001,"N_COORD97":2541496.25,"ADDRESS":"崇德十街１０號","OBJECTID":590089},"geometry":{"x":170841.67000000086,"y":2541496.25}},{"attributes":{"ID":590117,"DIS_CODE":0,"TOWNNAME":"東區","LI":"崇德里","LIN":"11鄰","STREET":"崇德十街","SECT":" ","MAREA":" ","LANE":" ","ALLEY":" ","HOUSE_NO":"１１號","E_COORD97":170845.89000000001,"N_COORD97":2541525.8999999999,"ADDRESS":"崇德十街１１號","OBJECTID":590090},"geometry":{"x":170845.88999999966,"y":2541525.9000000004}},{"attributes":{"ID":590118,"DIS_CODE":0,"TOWNNAME":"東區","LI":"崇德里","LIN":"11鄰","STREET":"崇德十街","SECT":" ","MAREA":" ","LANE":" ","ALLEY":" ","HOUSE_NO":"１３號","E_COORD97":170850.20000000001,"N_COORD97":2541523.6699999999,"ADDRESS":"崇德十街１３號","OBJECTID":590091},"geometry":{"x":170850.20000000112,"y":2541523.6699999999}},{"attributes":{"ID":590119,"DIS_CODE":0,"TOWNNAME":"東區","LI":"崇德里","LIN":"11鄰","STREET":"崇德十街","SECT":" ","MAREA":" ","LANE":" ","ALLEY":" ","HOUSE_NO":"１４號","E_COORD97":170850.01999999999,"N_COORD97":2541497.0099999998,"ADDRESS":"崇德十街１４號","OBJECTID":590092},"geometry":{"x":170850.01999999955,"y":2541497.0099999998}},{"attributes":{"ID":590120,"DIS_CODE":0,"TOWNNAME":"東區","LI":"崇德里","LIN":"11鄰","STREET":"崇德十街","SECT":" ","MAREA":" ","LANE":" ","ALLEY":" ","HOUSE_NO":"１５號","E_COORD97":170854.67999999999,"N_COORD97":2541525.5899999999,"ADDRESS":"崇德十街１５號","OBJECTID":590093},"geometry":{"x":170854.68000000156,"y":2541525.5900000017}},{"attributes":{"ID":590121,"DIS_CODE":0,"TOWNNAME":"東區","LI":"崇德里","LIN":"11鄰","STREET":"崇德十街","SECT":" ","MAREA":" ","LANE":" ","ALLEY":" ","HOUSE_NO":"１６號","E_COORD97":170853.67000000001,"N_COORD97":2541499.6000000001,"ADDRESS":"崇德十街１６號","OBJECTID":590094},"geometry":{"x":170853.67000000086,"y":2541499.5999999996}},{"attributes":{"ID":590122,"DIS_CODE":0,"TOWNNAME":"東區","LI":"崇德里","LIN":"11鄰","STREET":"崇德十街","SECT":" ","MAREA":" ","LANE":" ","ALLEY":" ","HOUSE_NO":"１７號","E_COORD97":170858.19,"N_COORD97":2541525.5899999999,"ADDRESS":"崇德十街１７號","OBJECTID":590095},"geometry":{"x":170858.19000000041,"y":2541525.5900000017}},{"attributes":{"ID":590123,"DIS_CODE":0,"TOWNNAME":"東區","LI":"崇德里","LIN":"11鄰","STREET":"崇德十街","SECT":" ","MAREA":" ","LANE":" ","ALLEY":" ","HOUSE_NO":"１８號","E_COORD97":170857.98999999999,"N_COORD97":2541497.8799999999,"ADDRESS":"崇德十街１８號","OBJECTID":590096},"geometry":{"x":170857.98999999929,"y":2541497.8799999971}},{"attributes":{"ID":590124,"DIS_CODE":0,"TOWNNAME":"永康區","LI":"五王里","LIN":"11鄰","STREET":"中山東路","SECT":" ","MAREA":" ","LANE":" ","ALLEY":" ","HOUSE_NO":"２４０號","E_COORD97":171786.63,"N_COORD97":2545704.3999999999,"ADDRESS":"中山東路２４０號","OBJECTID":590097},"geometry":{"x":171786.62999999989,"y":2545704.4000000022}},{"attributes":{"ID":590125,"DIS_CODE":0,"TOWNNAME":"東區","LI":"崇德里","LIN":"11鄰","STREET":"崇德十街","SECT":" ","MAREA":" ","LANE":" ","ALLEY":" ","HOUSE_NO":"１９號","E_COORD97":170862.51000000001,"N_COORD97":2541523.6699999999,"ADDRESS":"崇德十街１９號","OBJECTID":590098},"geometry":{"x":170862.50999999885,"y":2541523.6699999999}},{"attributes":{"ID":590126,"DIS_CODE":0,"TOWNNAME":"東區","LI":"崇德里","LIN":"11鄰","STREET":"崇德十街","SECT":" ","MAREA":" ","LANE":" ","ALLEY":" ","HOUSE_NO":"２１號","E_COORD97":170866.98000000001,"N_COORD97":2541525.5899999999,"ADDRESS":"崇德十街２１號","OBJECTID":590099},"geometry":{"x":170866.98000000231,"y":2541525.5900000017}},{"attributes":{"ID":590127,"DIS_CODE":0,"TOWNNAME":"東區","LI":"崇德里","LIN":"11鄰","STREET":"崇德十街","SECT":" ","MAREA":" ","LANE":" ","ALLEY":" ","HOUSE_NO":"２２號","E_COORD97":170866.63,"N_COORD97":2541497.6800000002,"ADDRESS":"崇德十街２２號","OBJECTID":590100},"geometry":{"x":170866.62999999989,"y":2541497.6800000016}},{"attributes":{"ID":590128,"DIS_CODE":0,"TOWNNAME":"東區","LI":"崇德里","LIN":"11鄰","STREET":"崇德十街","SECT":" ","MAREA":" ","LANE":" ","ALLEY":" ","HOUSE_NO":"２３號","E_COORD97":170870.66,"N_COORD97":2541523.6699999999,"ADDRESS":"崇德十街２３號","OBJECTID":590101},"geometry":{"x":170870.66000000108,"y":2541523.6699999999}},{"attributes":{"ID":590129,"DIS_CODE":0,"TOWNNAME":"東區","LI":"崇德里","LIN":"11鄰","STREET":"崇德十街","SECT":" ","MAREA":" ","LANE":" ","ALLEY":" ","HOUSE_NO":"２４號","E_COORD97":170870.5,"N_COORD97":2541499.1800000002,"ADDRESS":"崇德十街２４號","OBJECTID":590102},"geometry":{"x":170870.50000000093,"y":2541499.1799999997}},{"attributes":{"ID":590130,"DIS_CODE":0,"TOWNNAME":"東區","LI":"崇德里","LIN":"11鄰","STREET":"崇德十街","SECT":" ","MAREA":" ","LANE":" ","ALLEY":" ","HOUSE_NO":"２５號","E_COORD97":170874.64999999999,"N_COORD97":2541525.5800000001,"ADDRESS":"崇德十街２５號","OBJECTID":590103},"geometry":{"x":170874.6500000013,"y":2541525.5800000019}},{"attributes":{"ID":590131,"DIS_CODE":0,"TOWNNAME":"東區","LI":"崇德里","LIN":"11鄰","STREET":"崇德十街","SECT":" ","MAREA":" ","LANE":" ","ALLEY":" ","HOUSE_NO":"２６號","E_COORD97":170874.37,"N_COORD97":2541500.0099999998,"ADDRESS":"崇德十街２６號","OBJECTID":590104},"geometry":{"x":170874.37000000104,"y":2541500.0099999998}},{"attributes":{"ID":590132,"DIS_CODE":0,"TOWNNAME":"東區","LI":"崇德里","LIN":"11鄰","STREET":"崇德十街","SECT":" ","MAREA":" ","LANE":" ","ALLEY":" ","HOUSE_NO":"２７號","E_COORD97":170878.95999999999,"N_COORD97":2541525.5800000001,"ADDRESS":"崇德十街２７號","OBJECTID":590105},"geometry":{"x":170878.96000000089,"y":2541525.5800000019}},{"attributes":{"ID":590133,"DIS_CODE":0,"TOWNNAME":"東區","LI":"崇德里","LIN":"11鄰","STREET":"崇德十街","SECT":" ","MAREA":" ","LANE":" ","ALLEY":" ","HOUSE_NO":"２８號","E_COORD97":170878.29000000001,"N_COORD97":2541498.71,"ADDRESS":"崇德十街２８號","OBJECTID":590106},"geometry":{"x":170878.29000000097,"y":2541498.7100000028}},{"attributes":{"ID":590134,"DIS_CODE":0,"TOWNNAME":"東區","LI":"崇德里","LIN":"11鄰","STREET":"崇德路","SECT":" ","MAREA":" ","LANE":" ","ALLEY":" ","HOUSE_NO":"５７７號","E_COORD97":170804.73999999999,"N_COORD97":2541471.6800000002,"ADDRESS":"崇德路５７７號","OBJECTID":590107},"geometry":{"x":170804.74000000022,"y":2541471.6799999997}},{"attributes":{"ID":590135,"DIS_CODE":0,"TOWNNAME":"東區","LI":"崇德里","LIN":"11鄰","STREET":"崇德十街","SECT":" ","MAREA":" ","LANE":" ","ALLEY":" ","HOUSE_NO":"２０號","E_COORD97":170862.5,"N_COORD97":2541500.0800000001,"ADDRESS":"崇德十街２０號","OBJECTID":590108},"geometry":{"x":170862.5,"y":2541500.0800000001}},{"attributes":{"ID":590136,"DIS_CODE":0,"TOWNNAME":"永康區","LI":"中興里","LIN":"12鄰","STREET":"中興街","SECT":" ","MAREA":" ","LANE":" ","ALLEY":" ","HOUSE_NO":"３８號","E_COORD97":172094.04999999999,"N_COORD97":2545209.79,"ADDRESS":"中興街３８號","OBJECTID":590109},"geometry":{"x":172094.04999999981,"y":2545209.7899999991}},{"attributes":{"ID":590137,"DIS_CODE":0,"TOWNNAME":"麻豆區","LI":"興農里","LIN":"11鄰","STREET":"仁愛路","SECT":" ","MAREA":" ","LANE":" ","ALLEY":" ","HOUSE_NO":"６１號之２","E_COORD97":172411.37,"N_COORD97":2564700.8500000001,"ADDRESS":"仁愛路６１號之２","OBJECTID":590110},"geometry":{"x":172411.37000000011,"y":2564700.8500000015}},{"attributes":{"ID":590138,"DIS_CODE":0,"TOWNNAME":"麻豆區","LI":"穀興里","LIN":"11鄰","STREET":"中山路","SECT":" ","MAREA":" ","LANE":" ","ALLEY":" ","HOUSE_NO":"１１號之１","E_COORD97":172997.16,"N_COORD97":2564809.79,"ADDRESS":"中山路１１號之１","OBJECTID":590111},"geometry":{"x":172997.16000000015,"y":2564809.7899999991}},{"attributes":{"ID":590139,"DIS_CODE":0,"TOWNNAME":"麻豆區","LI":"穀興里","LIN":"11鄰","STREET":"中山路","SECT":" ","MAREA":" ","LANE":" ","ALLEY":" ","HOUSE_NO":"１１號之２","E_COORD97":172993.57999999999,"N_COORD97":2564809.6600000001,"ADDRESS":"中山路１１號之２","OBJECTID":590112},"geometry":{"x":172993.58000000101,"y":2564809.6600000039}},{"attributes":{"ID":590140,"DIS_CODE":0,"TOWNNAME":"麻豆區","LI":"穀興里","LIN":"11鄰","STREET":"中山路","SECT":" ","MAREA":" ","LANE":" ","ALLEY":" ","HOUSE_NO":"１１號之３","E_COORD97":172989.85000000001,"N_COORD97":2564810.0800000001,"ADDRESS":"中山路１１號之３","OBJECTID":590113},"geometry":{"x":172989.85000000056,"y":2564810.0800000038}},{"attributes":{"ID":590141,"DIS_CODE":0,"TOWNNAME":"麻豆區","LI":"穀興里","LIN":"11鄰","STREET":"中山路","SECT":" ","MAREA":" ","LANE":" ","ALLEY":" ","HOUSE_NO":"１１號之４","E_COORD97":172986.39000000001,"N_COORD97":2564810.2000000002,"ADDRESS":"中山路１１號之４","OBJECTID":590114},"geometry":{"x":172986.3900000006,"y":2564810.2000000011}},{"attributes":{"ID":590142,"DIS_CODE":0,"TOWNNAME":"麻豆區","LI":"穀興里","LIN":"11鄰","STREET":"中山路","SECT":" ","MAREA":" ","LANE":" ","ALLEY":" ","HOUSE_NO":"１３號","E_COORD97":172968.57999999999,"N_COORD97":2564809.8999999999,"ADDRESS":"中山路１３號","OBJECTID":590115},"geometry":{"x":172968.58000000101,"y":2564809.9000000022}},{"attributes":{"ID":590143,"DIS_CODE":0,"TOWNNAME":"麻豆區","LI":"穀興里","LIN":"11鄰","STREET":"中山路","SECT":" ","MAREA":" ","LANE":" ","ALLEY":" ","HOUSE_NO":"１４號","E_COORD97":173018.17000000001,"N_COORD97":2564833.7999999998,"ADDRESS":"中山路１４號","OBJECTID":590116},"geometry":{"x":173018.17000000086,"y":2564833.8000000026}},{"attributes":{"ID":590144,"DIS_CODE":0,"TOWNNAME":"麻豆區","LI":"穀興里","LIN":"11鄰","STREET":"中山路","SECT":" ","MAREA":" ","LANE":" ","ALLEY":" ","HOUSE_NO":"１６號","E_COORD97":173009.89000000001,"N_COORD97":2564831.5099999998,"ADDRESS":"中山路１６號","OBJECTID":590117},"geometry":{"x":173009.8900000006,"y":2564831.5100000016}},{"attributes":{"ID":590145,"DIS_CODE":0,"TOWNNAME":"麻豆區","LI":"穀興里","LIN":"11鄰","STREET":"中山路","SECT":" ","MAREA":" ","LANE":" ","ALLEY":" ","HOUSE_NO":"１８號","E_COORD97":173004.70000000001,"N_COORD97":2564831.7200000002,"ADDRESS":"中山路１８號","OBJECTID":590118},"geometry":{"x":173004.70000000112,"y":2564831.7200000025}},{"attributes":{"ID":590146,"DIS_CODE":0,"TOWNNAME":"麻豆區","LI":"穀興里","LIN":"11鄰","STREET":"中山路","SECT":" ","MAREA":" ","LANE":" ","ALLEY":" ","HOUSE_NO":"４號","E_COORD97":173040.94,"N_COORD97":2564832.2799999998,"ADDRESS":"中山路４號","OBJECTID":590119},"geometry":{"x":173040.94000000134,"y":2564832.2800000012}},{"attributes":{"ID":590147,"DIS_CODE":0,"TOWNNAME":"永康區","LI":"中興里","LIN":"22鄰","STREET":"中華路","SECT":" ","MAREA":" ","LANE":" ","ALLEY":" ","HOUSE_NO":"２０２號之１２","E_COORD97":171638.81,"N_COORD97":2545025.54,"ADDRESS":"中華路２０２號之１２","OBJECTID":590120},"geometry":{"x":171638.81000000052,"y":2545025.5399999991}},{"attributes":{"ID":590148,"DIS_CODE":0,"TOWNNAME":"永康區","LI":"中興里","LIN":"22鄰","STREET":"中華路","SECT":" ","MAREA":" ","LANE":" ","ALLEY":" ","HOUSE_NO":"２００號之１","E_COORD97":171636.14999999999,"N_COORD97":2545014.54,"ADDRESS":"中華路２００號之１","OBJECTID":590121},"geometry":{"x":171636.15000000037,"y":2545014.540000001}},{"attributes":{"ID":590149,"DIS_CODE":0,"TOWNNAME":"麻豆區","LI":"穀興里","LIN":"11鄰","STREET":"中山路","SECT":" ","MAREA":" ","LANE":" ","ALLEY":" ","HOUSE_NO":"６號","E_COORD97":173035.95000000001,"N_COORD97":2564832.4500000002,"ADDRESS":"中山路６號","OBJECTID":590122},"geometry":{"x":173035.95000000019,"y":2564832.4499999993}},{"attributes":{"ID":590150,"DIS_CODE":0,"TOWNNAME":"永康區","LI":"五王里","LIN":"41鄰","STREET":"中山南路","SECT":" ","MAREA":" ","LANE":" ","ALLEY":" ","HOUSE_NO":"２４４號","E_COORD97":171461,"N_COORD97":2546067.6600000001,"ADDRESS":"中山南路２４４號","OBJECTID":590123},"geometry":{"x":171461,"y":2546067.6600000039}},{"attributes":{"ID":590151,"DIS_CODE":0,"TOWNNAME":"永康區","LI":"五王里","LIN":"30鄰","STREET":"五福街","SECT":" ","MAREA":" ","LANE":" ","ALLEY":" ","HOUSE_NO":"１９０號","E_COORD97":171675.92000000001,"N_COORD97":2546047.5,"ADDRESS":"五福街１９０號","OBJECTID":590124},"geometry":{"x":171675.92000000086,"y":2546047.5}},{"attributes":{"ID":590152,"DIS_CODE":0,"TOWNNAME":"永康區","LI":"北灣里","LIN":"37鄰","STREET":"大同街","SECT":" ","MAREA":" ","LANE":" ","ALLEY":" ","HOUSE_NO":"６００號","E_COORD97":174730.17999999999,"N_COORD97":2546181.0899999999,"ADDRESS":"大同街６００號","OBJECTID":590125},"geometry":{"x":174730.18000000063,"y":2546181.0900000017}},{"attributes":{"ID":590153,"DIS_CODE":0,"TOWNNAME":"麻豆區","LI":"穀興里","LIN":"11鄰","STREET":"中山路","SECT":" ","MAREA":" ","LANE":" ","ALLEY":" ","HOUSE_NO":"８號","E_COORD97":173031.64000000001,"N_COORD97":2564832.3599999999,"ADDRESS":"中山路８號","OBJECTID":590126},"geometry":{"x":173031.6400000006,"y":2564832.3600000013}},{"attributes":{"ID":590154,"DIS_CODE":0,"TOWNNAME":"麻豆區","LI":"興農里","LIN":"11鄰","STREET":"中興街","SECT":" ","MAREA":" ","LANE":" ","ALLEY":" ","HOUSE_NO":"２７７號","E_COORD97":172372.23999999999,"N_COORD97":2564522.9399999999,"ADDRESS":"中興街２７７號","OBJECTID":590127},"geometry":{"x":172372.24000000115,"y":2564522.9400000013}},{"attributes":{"ID":590155,"DIS_CODE":0,"TOWNNAME":"麻豆區","LI":"興農里","LIN":"11鄰","STREET":"中興街","SECT":" ","MAREA":" ","LANE":" ","ALLEY":" ","HOUSE_NO":"２７８號","E_COORD97":172451.47,"N_COORD97":2564557.3999999999,"ADDRESS":"中興街２７８號","OBJECTID":590128},"geometry":{"x":172451.47000000067,"y":2564557.4000000041}},{"attributes":{"ID":590156,"DIS_CODE":0,"TOWNNAME":"麻豆區","LI":"興農里","LIN":"11鄰","STREET":"中興街","SECT":" ","MAREA":" ","LANE":" ","ALLEY":" ","HOUSE_NO":"２８０號","E_COORD97":172446.66,"N_COORD97":2564556.8799999999,"ADDRESS":"中興街２８０號","OBJECTID":590129},"geometry":{"x":172446.66000000015,"y":2564556.8800000008}},{"attributes":{"ID":590157,"DIS_CODE":0,"TOWNNAME":"麻豆區","LI":"興農里","LIN":"11鄰","STREET":"中興街","SECT":" ","MAREA":" ","LANE":" ","ALLEY":" ","HOUSE_NO":"２８２號","E_COORD97":172441.78,"N_COORD97":2564556.1299999999,"ADDRESS":"中興街２８２號","OBJECTID":590130},"geometry":{"x":172441.78000000119,"y":2564556.129999999}},{"attributes":{"ID":590158,"DIS_CODE":0,"TOWNNAME":"麻豆區","LI":"興農里","LIN":"11鄰","STREET":"中興街","SECT":" ","MAREA":" ","LANE":" ","ALLEY":" ","HOUSE_NO":"２８４號","E_COORD97":172437.95000000001,"N_COORD97":2564555.8300000001,"ADDRESS":"中興街２８４號","OBJECTID":590131},"geometry":{"x":172437.95000000019,"y":2564555.8300000019}},{"attributes":{"ID":590159,"DIS_CODE":0,"TOWNNAME":"麻豆區","LI":"興農里","LIN":"11鄰","STREET":"中興街","SECT":" ","MAREA":" ","LANE":" ","ALLEY":" ","HOUSE_NO":"２８６號","E_COORD97":172433.75,"N_COORD97":2564555.6600000001,"ADDRESS":"中興街２８６號","OBJECTID":590132},"geometry":{"x":172433.75,"y":2564555.6600000039}},{"attributes":{"ID":590160,"DIS_CODE":0,"TOWNNAME":"麻豆區","LI":"興農里","LIN":"11鄰","STREET":"中興街","SECT":" ","MAREA":" ","LANE":" ","ALLEY":" ","HOUSE_NO":"２８８號","E_COORD97":172428.20999999999,"N_COORD97":2564555.7400000002,"ADDRESS":"中興街２８８號","OBJECTID":590133},"geometry":{"x":172428.21000000089,"y":2564555.7400000021}},{"attributes":{"ID":590161,"DIS_CODE":0,"TOWNNAME":"麻豆區","LI":"興農里","LIN":"11鄰","STREET":"中興街","SECT":" ","MAREA":" ","LANE":" ","ALLEY":" ","HOUSE_NO":"２９０號","E_COORD97":172423.59,"N_COORD97":2564555.71,"ADDRESS":"中興街２９０號","OBJECTID":590134},"geometry":{"x":172423.59000000078,"y":2564555.709999999}},{"attributes":{"ID":590162,"DIS_CODE":0,"TOWNNAME":"麻豆區","LI":"興農里","LIN":"11鄰","STREET":"中興街","SECT":" ","MAREA":" ","LANE":" ","ALLEY":" ","HOUSE_NO":"２９２號","E_COORD97":172419.60000000001,"N_COORD97":2564555.2200000002,"ADDRESS":"中興街２９２號","OBJECTID":590135},"geometry":{"x":172419.5999999987,"y":2564555.2200000007}},{"attributes":{"ID":590163,"DIS_CODE":0,"TOWNNAME":"麻豆區","LI":"興農里","LIN":"11鄰","STREET":"中興街","SECT":" ","MAREA":" ","LANE":" ","ALLEY":" ","HOUSE_NO":"２９４號","E_COORD97":172414.72,"N_COORD97":2564555.25,"ADDRESS":"中興街２９４號","OBJECTID":590136},"geometry":{"x":172414.72000000067,"y":2564555.2500000019}},{"attributes":{"ID":590164,"DIS_CODE":0,"TOWNNAME":"麻豆區","LI":"興農里","LIN":"11鄰","STREET":"中興街","SECT":" ","MAREA":" ","LANE":" ","ALLEY":" ","HOUSE_NO":"２９６號","E_COORD97":172410.14999999999,"N_COORD97":2564555.0800000001,"ADDRESS":"中興街２９６號","OBJECTID":590137},"geometry":{"x":172410.1500000013,"y":2564555.0800000001}},{"attributes":{"ID":590165,"DIS_CODE":0,"TOWNNAME":"麻豆區","LI":"興農里","LIN":"11鄰","STREET":"中興街","SECT":" ","MAREA":" ","LANE":" ","ALLEY":" ","HOUSE_NO":"２９８號","E_COORD97":172405.69,"N_COORD97":2564554.8700000001,"ADDRESS":"中興街２９８號","OBJECTID":590138},"geometry":{"x":172405.69000000041,"y":2564554.8700000048}},{"attributes":{"ID":590166,"DIS_CODE":0,"TOWNNAME":"麻豆區","LI":"興農里","LIN":"11鄰","STREET":"中興街","SECT":" ","MAREA":" ","LANE":" ","ALLEY":" ","HOUSE_NO":"３００號","E_COORD97":172401.09,"N_COORD97":2564554.9700000002,"ADDRESS":"中興街３００號","OBJECTID":590139},"geometry":{"x":172401.08999999985,"y":2564554.9700000025}},{"attributes":{"ID":590167,"DIS_CODE":0,"TOWNNAME":"麻豆區","LI":"興農里","LIN":"11鄰","STREET":"中興街","SECT":" ","MAREA":" ","LANE":" ","ALLEY":" ","HOUSE_NO":"３０４號","E_COORD97":172391.64000000001,"N_COORD97":2564554.4900000002,"ADDRESS":"中興街３０４號","OBJECTID":590140},"geometry":{"x":172391.63999999966,"y":2564554.4900000021}},{"attributes":{"ID":590168,"DIS_CODE":0,"TOWNNAME":"麻豆區","LI":"興農里","LIN":"11鄰","STREET":"中興街","SECT":" ","MAREA":" ","LANE":" ","ALLEY":" ","HOUSE_NO":"３０６號","E_COORD97":172386.48000000001,"N_COORD97":2564554.1200000001,"ADDRESS":"中興街３０６號","OBJECTID":590141},"geometry":{"x":172386.48000000138,"y":2564554.1200000029}},{"attributes":{"ID":590169,"DIS_CODE":0,"TOWNNAME":"麻豆區","LI":"興農里","LIN":"11鄰","STREET":"中興街","SECT":" ","MAREA":" ","LANE":" ","ALLEY":" ","HOUSE_NO":"３０８號","E_COORD97":172380.04999999999,"N_COORD97":2564553.4300000002,"ADDRESS":"中興街３０８號","OBJECTID":590142},"geometry":{"x":172380.05000000075,"y":2564553.4300000016}},{"attributes":{"ID":590170,"DIS_CODE":0,"TOWNNAME":"麻豆區","LI":"興農里","LIN":"11鄰","STREET":"仁愛路","SECT":" ","MAREA":" ","LANE":" ","ALLEY":" ","HOUSE_NO":"６１號之１","E_COORD97":172405.57000000001,"N_COORD97":2564659.2200000002,"ADDRESS":"仁愛路６１號之１","OBJECTID":590143},"geometry":{"x":172405.57000000123,"y":2564659.2200000007}},{"attributes":{"ID":590171,"DIS_CODE":0,"TOWNNAME":"麻豆區","LI":"興農里","LIN":"11鄰","STREET":"仁愛路","SECT":" ","MAREA":" ","LANE":" ","ALLEY":" ","HOUSE_NO":"６１號之３","E_COORD97":172417.10000000001,"N_COORD97":2564687.5299999998,"ADDRESS":"仁愛路６１號之３","OBJECTID":590144},"geometry":{"x":172417.10000000056,"y":2564687.5299999975}},{"attributes":{"ID":590172,"DIS_CODE":0,"TOWNNAME":"麻豆區","LI":"興農里","LIN":"11鄰","STREET":"仁愛路","SECT":" ","MAREA":" ","LANE":" ","ALLEY":" ","HOUSE_NO":"６１號之５","E_COORD97":172422.66,"N_COORD97":2564661.5299999998,"ADDRESS":"仁愛路６１號之５","OBJECTID":590145},"geometry":{"x":172422.66000000015,"y":2564661.5300000012}},{"attributes":{"ID":590173,"DIS_CODE":0,"TOWNNAME":"永康區","LI":"北灣里","LIN":"39鄰","STREET":"大同街","SECT":" ","MAREA":" ","LANE":" ","ALLEY":" ","HOUSE_NO":"４２３號","E_COORD97":174621.28,"N_COORD97":2546320.8500000001,"ADDRESS":"大同街４２３號","OBJECTID":590146},"geometry":{"x":174621.28000000212,"y":2546320.8500000015}},{"attributes":{"ID":590174,"DIS_CODE":0,"TOWNNAME":"永康區","LI":"中興里","LIN":"17鄰","STREET":"中華路","SECT":" ","MAREA":" ","LANE":" ","ALLEY":" ","HOUSE_NO":"３２０號","E_COORD97":171512.26000000001,"N_COORD97":2545391.5,"ADDRESS":"中華路３２０號","OBJECTID":590147},"geometry":{"x":171512.26000000071,"y":2545391.5000000019}},{"attributes":{"ID":590175,"DIS_CODE":0,"TOWNNAME":"永康區","LI":"大灣里","LIN":"10鄰","STREET":"大灣六街","SECT":" ","MAREA":" ","LANE":" ","ALLEY":" ","HOUSE_NO":"１６６號","E_COORD97":174894.26000000001,"N_COORD97":2545445.3799999999,"ADDRESS":"大灣六街１６６號","OBJECTID":590148},"geometry":{"x":174894.26000000071,"y":2545445.3800000008}},{"attributes":{"ID":590176,"DIS_CODE":0,"TOWNNAME":"永康區","LI":"五王里","LIN":"11鄰","STREET":"中山東路","SECT":" ","MAREA":" ","LANE":" ","ALLEY":" ","HOUSE_NO":"２２８號","E_COORD97":171781.66,"N_COORD97":2545724.8999999999,"ADDRESS":"中山東路２２８號","OBJECTID":590149},"geometry":{"x":171781.66000000015,"y":2545724.9000000022}},{"attributes":{"ID":590177,"DIS_CODE":0,"TOWNNAME":"麻豆區","LI":"興農里","LIN":"11鄰","STREET":"仁愛路","SECT":" ","MAREA":" ","LANE":" ","ALLEY":" ","HOUSE_NO":"６１號之６","E_COORD97":172425.89999999999,"N_COORD97":2564653.8599999999,"ADDRESS":"仁愛路６１號之６","OBJECTID":590150},"geometry":{"x":172425.9000000013,"y":2564653.8599999994}},{"attributes":{"ID":590178,"DIS_CODE":0,"TOWNNAME":"麻豆區","LI":"興農里","LIN":"11鄰","STREET":"仁愛路","SECT":" ","MAREA":" ","LANE":" ","ALLEY":" ","HOUSE_NO":"６１號之７","E_COORD97":172411.95999999999,"N_COORD97":2564677.1000000001,"ADDRESS":"仁愛路６１號之７","OBJECTID":590151},"geometry":{"x":172411.95999999996,"y":2564677.0999999978}},{"attributes":{"ID":590179,"DIS_CODE":0,"TOWNNAME":"麻豆區","LI":"興農里","LIN":"11鄰","STREET":"仁愛路","SECT":" ","MAREA":" ","LANE":" ","ALLEY":" ","HOUSE_NO":"６１號","E_COORD97":172387.26000000001,"N_COORD97":2564665.3999999999,"ADDRESS":"仁愛路６１號","OBJECTID":590152},"geometry":{"x":172387.26000000071,"y":2564665.4000000004}},{"attributes":{"ID":590180,"DIS_CODE":0,"TOWNNAME":"麻豆區","LI":"興農里","LIN":"11鄰","STREET":"仁愛路","SECT":" ","MAREA":" ","LANE":" ","ALLEY":" ","HOUSE_NO":"６３號之１","E_COORD97":172437.67999999999,"N_COORD97":2564627.29,"ADDRESS":"仁愛路６３號之１","OBJECTID":590153},"geometry":{"x":172437.6799999997,"y":2564627.2899999991}},{"attributes":{"ID":590181,"DIS_CODE":0,"TOWNNAME":"麻豆區","LI":"興農里","LIN":"11鄰","STREET":"仁愛路","SECT":" ","MAREA":" ","LANE":" ","ALLEY":" ","HOUSE_NO":"６３號","E_COORD97":172406,"N_COORD97":2564637.04,"ADDRESS":"仁愛路６３號","OBJECTID":590154},"geometry":{"x":172406.00000000093,"y":2564637.040000001}},{"attributes":{"ID":590182,"DIS_CODE":0,"TOWNNAME":"麻豆區","LI":"興農里","LIN":"11鄰","STREET":"仁愛路","SECT":" ","MAREA":" ","LANE":" ","ALLEY":" ","HOUSE_NO":"６５號之１","E_COORD97":172386.32999999999,"N_COORD97":2564692.23,"ADDRESS":"仁愛路６５號之１","OBJECTID":590155},"geometry":{"x":172386.33000000194,"y":2564692.2300000023}},{"attributes":{"ID":590183,"DIS_CODE":0,"TOWNNAME":"麻豆區","LI":"興農里","LIN":"11鄰","STREET":"仁愛路","SECT":" ","MAREA":" ","LANE":" ","ALLEY":" ","HOUSE_NO":"６５號","E_COORD97":172391.63,"N_COORD97":2564715.4900000002,"ADDRESS":"仁愛路６５號","OBJECTID":590156},"geometry":{"x":172391.63000000082,"y":2564715.4900000002}},{"attributes":{"ID":590184,"DIS_CODE":0,"TOWNNAME":"麻豆區","LI":"興農里","LIN":"11鄰","STREET":"仁愛路","SECT":" ","MAREA":" ","LANE":" ","ALLEY":" ","HOUSE_NO":"６７號","E_COORD97":172411.04999999999,"N_COORD97":2564727.2000000002,"ADDRESS":"仁愛路６７號","OBJECTID":590157},"geometry":{"x":172411.04999999981,"y":2564727.200000003}},{"attributes":{"ID":590185,"DIS_CODE":0,"TOWNNAME":"麻豆區","LI":"興農里","LIN":"11鄰","STREET":"仁愛路","SECT":" ","MAREA":" ","LANE":" ","ALLEY":" ","HOUSE_NO":"６９號","E_COORD97":172405.66,"N_COORD97":2564726.7999999998,"ADDRESS":"仁愛路６９號","OBJECTID":590158},"geometry":{"x":172405.66000000015,"y":2564726.8000000007}},{"attributes":{"ID":590186,"DIS_CODE":0,"TOWNNAME":"麻豆區","LI":"穀興里","LIN":"11鄰","STREET":"仁愛路","SECT":" ","MAREA":" ","LANE":" ","ALLEY":" ","HOUSE_NO":"６號之１","E_COORD97":172954.60999999999,"N_COORD97":2564773.4500000002,"ADDRESS":"仁愛路６號之１","OBJECTID":590159},"geometry":{"x":172954.61000000127,"y":2564773.4500000011}},{"attributes":{"ID":590187,"DIS_CODE":0,"TOWNNAME":"麻豆區","LI":"穀興里","LIN":"11鄰","STREET":"仁愛路","SECT":" ","MAREA":" ","LANE":" ","ALLEY":" ","HOUSE_NO":"６號之２","E_COORD97":172958.82999999999,"N_COORD97":2564774.0499999998,"ADDRESS":"仁愛路６號之２","OBJECTID":590160},"geometry":{"x":172958.83000000007,"y":2564774.0500000045}},{"attributes":{"ID":590188,"DIS_CODE":0,"TOWNNAME":"麻豆區","LI":"興農里","LIN":"11鄰","STREET":"仁愛路","SECT":" ","MAREA":" ","LANE":" ","ALLEY":" ","HOUSE_NO":"８１號","E_COORD97":172347.57999999999,"N_COORD97":2564724.5299999998,"ADDRESS":"仁愛路８１號","OBJECTID":590161},"geometry":{"x":172347.58000000101,"y":2564724.5299999993}},{"attributes":{"ID":590189,"DIS_CODE":0,"TOWNNAME":"永康區","LI":"北灣里","LIN":"39鄰","STREET":"大同街","SECT":" ","MAREA":" ","LANE":" ","ALLEY":" ","HOUSE_NO":"４１５號","E_COORD97":174631.35000000001,"N_COORD97":2546306.8500000001,"ADDRESS":"大同街４１５號","OBJECTID":590162},"geometry":{"x":174631.34999999963,"y":2546306.8500000034}},{"attributes":{"ID":590190,"DIS_CODE":0,"TOWNNAME":"永康區","LI":"北灣里","LIN":"39鄰","STREET":"大同街","SECT":" ","MAREA":" ","LANE":" ","ALLEY":" ","HOUSE_NO":"４２９號","E_COORD97":174609.98000000001,"N_COORD97":2546340.5499999998,"ADDRESS":"大同街４２９號","OBJECTID":590163},"geometry":{"x":174609.98000000231,"y":2546340.5500000045}},{"attributes":{"ID":590191,"DIS_CODE":0,"TOWNNAME":"永康區","LI":"中興里","LIN":"17鄰","STREET":"中華路","SECT":" ","MAREA":" ","LANE":" ","ALLEY":" ","HOUSE_NO":"３１０號","E_COORD97":171525.70999999999,"N_COORD97":2545369.5,"ADDRESS":"中華路３１０號","OBJECTID":590164},"geometry":{"x":171525.70999999996,"y":2545369.5}},{"attributes":{"ID":590192,"DIS_CODE":0,"TOWNNAME":"永康區","LI":"北灣里","LIN":"1鄰","STREET":"大同街","SECT":" ","MAREA":" ","LANE":" ","ALLEY":" ","HOUSE_NO":"９２號","E_COORD97":175146.85000000001,"N_COORD97":2545467.6200000001,"ADDRESS":"大同街９２號","OBJECTID":590165},"geometry":{"x":175146.84999999963,"y":2545467.620000001}},{"attributes":{"ID":590193,"DIS_CODE":0,"TOWNNAME":"永康區","LI":"王行里","LIN":"6鄰","STREET":"育樂街","SECT":" ","MAREA":" ","LANE":" ","ALLEY":" ","HOUSE_NO":"３號之１","E_COORD97":175485.09,"N_COORD97":2548346.46,"ADDRESS":"育樂街３號之１","OBJECTID":590166},"geometry":{"x":175485.09000000078,"y":2548346.4600000028}},{"attributes":{"ID":590194,"DIS_CODE":0,"TOWNNAME":"新市區","LI":"新市里","LIN":"11鄰","STREET":"中正路","SECT":" ","MAREA":" ","LANE":" ","ALLEY":" ","HOUSE_NO":"３３２號","E_COORD97":177549.48000000001,"N_COORD97":2553200.5,"ADDRESS":"中正路３３２號","OBJECTID":590167},"geometry":{"x":177549.48000000138,"y":2553200.5}},{"attributes":{"ID":590195,"DIS_CODE":0,"TOWNNAME":"新市區","LI":"新和里","LIN":"11鄰","STREET":"仁愛街","SECT":" ","MAREA":" ","LANE":" ","ALLEY":" ","HOUSE_NO":"１２７號","E_COORD97":177552.45000000001,"N_COORD97":2552591.7799999998,"ADDRESS":"仁愛街１２７號","OBJECTID":590168},"geometry":{"x":177552.45000000019,"y":2552591.7799999993}},{"attributes":{"ID":590196,"DIS_CODE":0,"TOWNNAME":"新市區","LI":"新和里","LIN":"11鄰","STREET":"仁愛街","SECT":" ","MAREA":" ","LANE":" ","ALLEY":" ","HOUSE_NO":"１４７號","E_COORD97":177559.79000000001,"N_COORD97":2552640.5299999998,"ADDRESS":"仁愛街１４７號","OBJECTID":590169},"geometry":{"x":177559.79000000004,"y":2552640.5299999993}},{"attributes":{"ID":590197,"DIS_CODE":0,"TOWNNAME":"新市區","LI":"新和里","LIN":"11鄰","STREET":"仁愛街","SECT":" ","MAREA":" ","LANE":" ","ALLEY":" ","HOUSE_NO":"１４２號","E_COORD97":177567.04000000001,"N_COORD97":2552577.0299999998,"ADDRESS":"仁愛街１４２號","OBJECTID":590170},"geometry":{"x":177567.03999999911,"y":2552577.0299999975}},{"attributes":{"ID":590198,"DIS_CODE":0,"TOWNNAME":"新市區","LI":"新和里","LIN":"11鄰","STREET":"仁愛街","SECT":" ","MAREA":" ","LANE":" ","ALLEY":" ","HOUSE_NO":"１３６號","E_COORD97":177564.29000000001,"N_COORD97":2552562.5299999998,"ADDRESS":"仁愛街１３６號","OBJECTID":590171},"geometry":{"x":177564.29000000097,"y":2552562.5299999993}},{"attributes":{"ID":590199,"DIS_CODE":0,"TOWNNAME":"永康區","LI":"王行里","LIN":"6鄰","STREET":"育樂街","SECT":" ","MAREA":" ","LANE":" ","ALLEY":" ","HOUSE_NO":"１４５號","E_COORD97":175056.32000000001,"N_COORD97":2548329.77,"ADDRESS":"育樂街１４５號","OBJECTID":590172},"geometry":{"x":175056.3200000003,"y":2548329.7699999996}},{"attributes":{"ID":590200,"DIS_CODE":0,"TOWNNAME":"永康區","LI":"北灣里","LIN":"37鄰","STREET":"大同街","SECT":" ","MAREA":" ","LANE":" ","ALLEY":" ","HOUSE_NO":"３５６號","E_COORD97":174758.62,"N_COORD97":2546070.8799999999,"ADDRESS":"大同街３５６號","OBJECTID":590173},"geometry":{"x":174758.62000000011,"y":2546070.879999999}},{"attributes":{"ID":590201,"DIS_CODE":0,"TOWNNAME":"永康區","LI":"五王里","LIN":"11鄰","STREET":"中山東路","SECT":" ","MAREA":" ","LANE":" ","ALLEY":" ","HOUSE_NO":"２６６號","E_COORD97":171797.23999999999,"N_COORD97":2545663.8900000001,"ADDRESS":"中山東路２６６號","OBJECTID":590174},"geometry":{"x":171797.24000000209,"y":2545663.8900000025}},{"attributes":{"ID":590202,"DIS_CODE":0,"TOWNNAME":"永康區","LI":"中興里","LIN":"22鄰","STREET":"中華路","SECT":" ","MAREA":" ","LANE":" ","ALLEY":" ","HOUSE_NO":"１９８號之１６","E_COORD97":171636.39999999999,"N_COORD97":2545003.2999999998,"ADDRESS":"中華路１９８號之１６","OBJECTID":590175},"geometry":{"x":171636.40000000037,"y":2545003.3000000026}},{"attributes":{"ID":590203,"DIS_CODE":0,"TOWNNAME":"永康區","LI":"五王里","LIN":"41鄰","STREET":"中山南路","SECT":" ","MAREA":" ","LANE":" ","ALLEY":" ","HOUSE_NO":"２２６號","E_COORD97":171421.87,"N_COORD97":2546057.4900000002,"ADDRESS":"中山南路２２６號","OBJECTID":590176},"geometry":{"x":171421.87000000104,"y":2546057.4900000002}},{"attributes":{"ID":590204,"DIS_CODE":0,"TOWNNAME":"永康區","LI":"中興里","LIN":"13鄰","STREET":"中興街","SECT":" ","MAREA":" ","LANE":" ","ALLEY":" ","HOUSE_NO":"６０號","E_COORD97":172089.92999999999,"N_COORD97":2545261.7400000002,"ADDRESS":"中興街６０號","OBJECTID":590177},"geometry":{"x":172089.9299999997,"y":2545261.7400000021}},{"attributes":{"ID":590205,"DIS_CODE":0,"TOWNNAME":"永康區","LI":"中興里","LIN":"13鄰","STREET":"中興街","SECT":" ","MAREA":" ","LANE":" ","ALLEY":" ","HOUSE_NO":"４６號","E_COORD97":172090.79999999999,"N_COORD97":2545228.9300000002,"ADDRESS":"中興街４６號","OBJECTID":590178},"geometry":{"x":172090.79999999981,"y":2545228.9300000016}},{"attributes":{"ID":590206,"DIS_CODE":0,"TOWNNAME":"永康區","LI":"北灣里","LIN":"17鄰","STREET":"大同街","SECT":" ","MAREA":" ","LANE":" ","ALLEY":" ","HOUSE_NO":"２４６號","E_COORD97":174791.64999999999,"N_COORD97":2545753.96,"ADDRESS":"大同街２４６號","OBJECTID":590179},"geometry":{"x":174791.65000000224,"y":2545753.9600000009}},{"attributes":{"ID":590207,"DIS_CODE":0,"TOWNNAME":"永康區","LI":"北灣里","LIN":"37鄰","STREET":"大同街","SECT":" ","MAREA":" ","LANE":" ","ALLEY":" ","HOUSE_NO":"３６２號","E_COORD97":174740.72,"N_COORD97":2546080.2000000002,"ADDRESS":"大同街３６２號","OBJECTID":590180},"geometry":{"x":174740.71999999974,"y":2546080.200000003}},{"attributes":{"ID":590208,"DIS_CODE":0,"TOWNNAME":"永康區","LI":"王行里","LIN":"16鄰","STREET":"中山北路","SECT":" ","MAREA":" ","LANE":" ","ALLEY":" ","HOUSE_NO":"８１５號","E_COORD97":176185.54999999999,"N_COORD97":2547996.5299999998,"ADDRESS":"中山北路８１５號","OBJECTID":590181},"geometry":{"x":176185.55000000075,"y":2547996.5299999993}},{"attributes":{"ID":590209,"DIS_CODE":0,"TOWNNAME":"永康區","LI":"王行里","LIN":"4鄰","STREET":"育樂街","SECT":" ","MAREA":" ","LANE":" ","ALLEY":" ","HOUSE_NO":"２０２號","E_COORD97":175023.12,"N_COORD97":2548351.9100000001,"ADDRESS":"育樂街２０２號","OBJECTID":590182},"geometry":{"x":175023.12000000011,"y":2548351.910000002}},{"attributes":{"ID":590210,"DIS_CODE":0,"TOWNNAME":"永康區","LI":"中興里","LIN":"22鄰","STREET":"中華路","SECT":" ","MAREA":" ","LANE":" ","ALLEY":" ","HOUSE_NO":"１９８號之９","E_COORD97":171635.13,"N_COORD97":2545003.2999999998,"ADDRESS":"中華路１９８號之９","OBJECTID":590183},"geometry":{"x":171635.13000000082,"y":2545003.3000000026}},{"attributes":{"ID":590211,"DIS_CODE":0,"TOWNNAME":"永康區","LI":"中興里","LIN":"13鄰","STREET":"中興街","SECT":" ","MAREA":" ","LANE":" ","ALLEY":" ","HOUSE_NO":"８４號","E_COORD97":172088.64999999999,"N_COORD97":2545321.9900000002,"ADDRESS":"中興街８４號","OBJECTID":590184},"geometry":{"x":172088.6500000013,"y":2545321.9900000002}},{"attributes":{"ID":590212,"DIS_CODE":0,"TOWNNAME":"永康區","LI":"王行里","LIN":"8鄰","STREET":"育樂街","SECT":" ","MAREA":" ","LANE":" ","ALLEY":" ","HOUSE_NO":"２號","E_COORD97":175486.20000000001,"N_COORD97":2548395.7000000002,"ADDRESS":"育樂街２號","OBJECTID":590185},"geometry":{"x":175486.20000000205,"y":2548395.700000003}},{"attributes":{"ID":590213,"DIS_CODE":0,"TOWNNAME":"永康區","LI":"北灣里","LIN":"19鄰","STREET":"大同街","SECT":" ","MAREA":" ","LANE":" ","ALLEY":" ","HOUSE_NO":"２７３號","E_COORD97":174768.98000000001,"N_COORD97":2545894.7000000002,"ADDRESS":"大同街２７３號","OBJECTID":590186},"geometry":{"x":174768.98000000045,"y":2545894.7000000011}},{"attributes":{"ID":590214,"DIS_CODE":0,"TOWNNAME":"永康區","LI":"王行里","LIN":"16鄰","STREET":"中山北路","SECT":" ","MAREA":" ","LANE":" ","ALLEY":" ","HOUSE_NO":"７６７號","E_COORD97":175922.85999999999,"N_COORD97":2548009.3199999998,"ADDRESS":"中山北路７６７號","OBJECTID":590187},"geometry":{"x":175922.86000000127,"y":2548009.3199999984}},{"attributes":{"ID":590215,"DIS_CODE":0,"TOWNNAME":"永康區","LI":"中興里","LIN":"22鄰","STREET":"中華路","SECT":" ","MAREA":" ","LANE":" ","ALLEY":" ","HOUSE_NO":"２０２號之１６","E_COORD97":171638.78,"N_COORD97":2545025.54,"ADDRESS":"中華路２０２號之１６","OBJECTID":590188},"geometry":{"x":171638.78000000026,"y":2545025.5399999991}},{"attributes":{"ID":590216,"DIS_CODE":0,"TOWNNAME":"永康區","LI":"中興里","LIN":"22鄰","STREET":"中華路","SECT":" ","MAREA":" ","LANE":" ","ALLEY":" ","HOUSE_NO":"１９８號之２","E_COORD97":171635.17999999999,"N_COORD97":2545003.2999999998,"ADDRESS":"中華路１９８號之２","OBJECTID":590189},"geometry":{"x":171635.18000000063,"y":2545003.3000000026}},{"attributes":{"ID":590217,"DIS_CODE":0,"TOWNNAME":"永康區","LI":"中興里","LIN":"12鄰","STREET":"中興街","SECT":" ","MAREA":" ","LANE":" ","ALLEY":" ","HOUSE_NO":"４９號","E_COORD97":172070.39000000001,"N_COORD97":2545230.8900000001,"ADDRESS":"中興街４９號","OBJECTID":590190},"geometry":{"x":172070.3900000006,"y":2545230.8900000025}},{"attributes":{"ID":590218,"DIS_CODE":0,"TOWNNAME":"永康區","LI":"中興里","LIN":"22鄰","STREET":"中華路","SECT":" ","MAREA":" ","LANE":" ","ALLEY":" ","HOUSE_NO":"２０２號之１９","E_COORD97":171638.76000000001,"N_COORD97":2545025.54,"ADDRESS":"中華路２０２號之１９","OBJECTID":590191},"geometry":{"x":171638.75999999978,"y":2545025.5399999991}},{"attributes":{"ID":590219,"DIS_CODE":0,"TOWNNAME":"永康區","LI":"北灣里","LIN":"39鄰","STREET":"大同街","SECT":" ","MAREA":" ","LANE":" ","ALLEY":" ","HOUSE_NO":"４１７號","E_COORD97":174628.5,"N_COORD97":2546310.6000000001,"ADDRESS":"大同街４１７號","OBJECTID":590192},"geometry":{"x":174628.50000000093,"y":2546310.5999999996}},{"attributes":{"ID":590220,"DIS_CODE":0,"TOWNNAME":"永康區","LI":"中興里","LIN":"13鄰","STREET":"中興街","SECT":" ","MAREA":" ","LANE":" ","ALLEY":" ","HOUSE_NO":"９４號","E_COORD97":172091.07999999999,"N_COORD97":2545351.4900000002,"ADDRESS":"中興街９４號","OBJECTID":590193},"geometry":{"x":172091.08000000007,"y":2545351.4900000021}},{"attributes":{"ID":590221,"DIS_CODE":0,"TOWNNAME":"永康區","LI":"北灣里","LIN":"8鄰","STREET":"大同街","SECT":" ","MAREA":" ","LANE":" ","ALLEY":" ","HOUSE_NO":"１３２號","E_COORD97":174988.38,"N_COORD97":2545548.4900000002,"ADDRESS":"大同街１３２號","OBJECTID":590194},"geometry":{"x":174988.38000000082,"y":2545548.4900000021}},{"attributes":{"ID":590222,"DIS_CODE":0,"TOWNNAME":"永康區","LI":"王行里","LIN":"6鄰","STREET":"育樂街","SECT":" ","MAREA":" ","LANE":" ","ALLEY":" ","HOUSE_NO":"１４７號","E_COORD97":175059.25,"N_COORD97":2548320.0499999998,"ADDRESS":"育樂街１４７號","OBJECTID":590195},"geometry":{"x":175059.25000000093,"y":2548320.0499999989}},{"attributes":{"ID":590223,"DIS_CODE":0,"TOWNNAME":"永康區","LI":"大灣里","LIN":"12鄰","STREET":"大灣路","SECT":" ","MAREA":" ","LANE":" ","ALLEY":" ","HOUSE_NO":"２７４號","E_COORD97":174948.10000000001,"N_COORD97":2545318.3700000001,"ADDRESS":"大灣路２７４號","OBJECTID":590196},"geometry":{"x":174948.09999999963,"y":2545318.3700000029}},{"attributes":{"ID":590224,"DIS_CODE":0,"TOWNNAME":"永康區","LI":"北灣里","LIN":"37鄰","STREET":"大同街","SECT":" ","MAREA":" ","LANE":" ","ALLEY":" ","HOUSE_NO":"２９９號","E_COORD97":174758.35999999999,"N_COORD97":2545968.4399999999,"ADDRESS":"大同街２９９號","OBJECTID":590197},"geometry":{"x":174758.36000000127,"y":2545968.4400000013}},{"attributes":{"ID":590225,"DIS_CODE":0,"TOWNNAME":"永康區","LI":"北灣里","LIN":"37鄰","STREET":"大同街","SECT":" ","MAREA":" ","LANE":" ","ALLEY":" ","HOUSE_NO":"３１９號","E_COORD97":174728.79000000001,"N_COORD97":2546044.0099999998,"ADDRESS":"大同街３１９號","OBJECTID":590198},"geometry":{"x":174728.79000000004,"y":2546044.0099999998}},{"attributes":{"ID":590226,"DIS_CODE":0,"TOWNNAME":"永康區","LI":"王行里","LIN":"16鄰","STREET":"中山北路","SECT":" ","MAREA":" ","LANE":" ","ALLEY":" ","HOUSE_NO":"６０９號","E_COORD97":175507.85000000001,"N_COORD97":2547788.2799999998,"ADDRESS":"中山北路６０９號","OBJECTID":590199},"geometry":{"x":175507.84999999963,"y":2547788.2800000031}},{"attributes":{"ID":590227,"DIS_CODE":0,"TOWNNAME":"永康區","LI":"王行里","LIN":"16鄰","STREET":"中山北路","SECT":" ","MAREA":" ","LANE":" ","ALLEY":" ","HOUSE_NO":"７８７號","E_COORD97":176023.14000000001,"N_COORD97":2547929.8100000001,"ADDRESS":"中山北路７８７號","OBJECTID":590200},"geometry":{"x":176023.13999999966,"y":2547929.8100000024}}]}