{"displayFieldName":"TOWNNAME","fieldAliases":{"ID":"ID","DIS_CODE":"DIS_CODE","TOWNNAME":"TOWNNAME","LI":"LI","LIN":"LIN","STREET":"STREET","SECT":"SECT","MAREA":"MAREA","LANE":"LANE","ALLEY":"ALLEY","HOUSE_NO":"HOUSE_NO","E_COORD97":"E_COORD97","N_COORD97":"N_COORD97","ADDRESS":"ADDRESS","OBJECTID":"OBJECTID"},"geometryType":"esriGeometryPoint","spatialReference":{"wkid":102443,"latestWkid":3826},"fields":[{"name":"ID","type":"esriFieldTypeDouble","alias":"ID"},{"name":"DIS_CODE","type":"esriFieldTypeInteger","alias":"DIS_CODE"},{"name":"TOWNNAME","type":"esriFieldTypeString","alias":"TOWNNAME","length":8},{"name":"LI","type":"esriFieldTypeString","alias":"LI","length":8},{"name":"LIN","type":"esriFieldTypeString","alias":"LIN","length":12},{"name":"STREET","type":"esriFieldTypeString","alias":"STREET","length":20},{"name":"SECT","type":"esriFieldTypeString","alias":"SECT","length":8},{"name":"MAREA","type":"esriFieldTypeString","alias":"MAREA","length":12},{"name":"LANE","type":"esriFieldTypeString","alias":"LANE","length":10},{"name":"ALLEY","type":"esriFieldTypeString","alias":"ALLEY","length":10},{"name":"HOUSE_NO","type":"esriFieldTypeString","alias":"HOUSE_NO","length":20},{"name":"E_COORD97","type":"esriFieldTypeDouble","alias":"E_COORD97"},{"name":"N_COORD97","type":"esriFieldTypeDouble","alias":"N_COORD97"},{"name":"ADDRESS","type":"esriFieldTypeString","alias":"ADDRESS","length":50},{"name":"OBJECTID","type":"esriFieldTypeOID","alias":"OBJECTID"}],"features":[{"attributes":{"ID":184202,"DIS_CODE":0,"TOWNNAME":"鹽水區","LI":"岸內里","LIN":"20鄰","STREET":"北門路","SECT":" ","MAREA":" ","LANE":"１巷","ALLEY":"７弄","HOUSE_NO":"６０號","E_COORD97":175087.73999999999,"N_COORD97":2580522.8799999999,"ADDRESS":"北門路１巷７弄６０號","OBJECTID":184201},"geometry":{"x":175087.74000000115,"y":2580522.8800000008}},{"attributes":{"ID":184203,"DIS_CODE":0,"TOWNNAME":"鹽水區","LI":"岸內里","LIN":"20鄰","STREET":"北門路","SECT":" ","MAREA":" ","LANE":"１巷","ALLEY":"７弄","HOUSE_NO":"６１號","E_COORD97":175111.67000000001,"N_COORD97":2580511.1699999999,"ADDRESS":"北門路１巷７弄６１號","OBJECTID":184202},"geometry":{"x":175111.67000000086,"y":2580511.1700000018}},{"attributes":{"ID":184204,"DIS_CODE":0,"TOWNNAME":"鹽水區","LI":"岸內里","LIN":"20鄰","STREET":"北門路","SECT":" ","MAREA":" ","LANE":"１巷","ALLEY":"７弄","HOUSE_NO":"６２號","E_COORD97":175111.34,"N_COORD97":2580515.5499999998,"ADDRESS":"北門路１巷７弄６２號","OBJECTID":184203},"geometry":{"x":175111.33999999985,"y":2580515.5500000045}},{"attributes":{"ID":184205,"DIS_CODE":0,"TOWNNAME":"安南區","LI":"州北里","LIN":"1鄰","STREET":"安和路","SECT":"五段","MAREA":" ","LANE":"８１巷","ALLEY":"４０弄","HOUSE_NO":"２３號之１","E_COORD97":169762.065821,"N_COORD97":2551688.2565700002,"ADDRESS":"安和路五段８１巷４０弄２３號之１","OBJECTID":184204},"geometry":{"x":169762.06582100131,"y":2551688.2565720025}},{"attributes":{"ID":184206,"DIS_CODE":0,"TOWNNAME":"關廟區","LI":"布袋里","LIN":"11鄰","STREET":"南雄南路","SECT":" ","MAREA":" ","LANE":"８５２巷","ALLEY":"３１弄","HOUSE_NO":"５８號","E_COORD97":182143.43176000001,"N_COORD97":2533341.1941399998,"ADDRESS":"南雄南路８５２巷３１弄５８號","OBJECTID":184205},"geometry":{"x":182143.43176000006,"y":2533341.1941400021}},{"attributes":{"ID":184207,"DIS_CODE":0,"TOWNNAME":"仁德區","LI":"土庫里","LIN":"18鄰","STREET":"土庫一街","SECT":" ","MAREA":" ","LANE":" ","ALLEY":" ","HOUSE_NO":"２４號","E_COORD97":174469.14000000001,"N_COORD97":2543090,"ADDRESS":"土庫一街２４號","OBJECTID":184206},"geometry":{"x":174469.1400000006,"y":2543090.0000000019}},{"attributes":{"ID":184208,"DIS_CODE":0,"TOWNNAME":"永康區","LI":"建國里","LIN":"8鄰","STREET":"復國一路","SECT":" ","MAREA":" ","LANE":"６巷","ALLEY":"６６弄","HOUSE_NO":"４８號","E_COORD97":172797.57571599999,"N_COORD97":2544647.0561799998,"ADDRESS":"復國一路６巷６６弄４８號","OBJECTID":184207},"geometry":{"x":172797.57571600005,"y":2544647.0561790019}},{"attributes":{"ID":184209,"DIS_CODE":0,"TOWNNAME":"仁德區","LI":"仁德里","LIN":"39鄰","STREET":"文宏二街","SECT":" ","MAREA":" ","LANE":" ","ALLEY":" ","HOUSE_NO":"５７號","E_COORD97":172445.38,"N_COORD97":2541780.8300000001,"ADDRESS":"文宏二街５７號","OBJECTID":184208},"geometry":{"x":172445.38000000082,"y":2541780.8299999982}},{"attributes":{"ID":184210,"DIS_CODE":0,"TOWNNAME":"仁德區","LI":"田厝里","LIN":"4鄰","STREET":"保安路","SECT":"二段","MAREA":" ","LANE":" ","ALLEY":" ","HOUSE_NO":"４６８號","E_COORD97":172424.39999999999,"N_COORD97":2537505.3199999998,"ADDRESS":"保安路二段４６８號","OBJECTID":184209},"geometry":{"x":172424.40000000037,"y":2537505.3200000003}},{"attributes":{"ID":184211,"DIS_CODE":0,"TOWNNAME":"安南區","LI":"州北里","LIN":"6鄰","STREET":"安和路","SECT":"五段","MAREA":" ","LANE":"１７１巷","ALLEY":"４７弄","HOUSE_NO":"４６號","E_COORD97":169663.77729999999,"N_COORD97":2551715.6673900001,"ADDRESS":"安和路五段１７１巷４７弄４６號","OBJECTID":184210},"geometry":{"x":169663.77730000112,"y":2551715.6673900001}},{"attributes":{"ID":184212,"DIS_CODE":0,"TOWNNAME":"永康區","LI":"建國里","LIN":"8鄰","STREET":"復國一路","SECT":" ","MAREA":" ","LANE":"６巷","ALLEY":"６６弄","HOUSE_NO":"５０號","E_COORD97":172804.14498000001,"N_COORD97":2544649.3845099998,"ADDRESS":"復國一路６巷６６弄５０號","OBJECTID":184211},"geometry":{"x":172804.14498000126,"y":2544649.3845109995}},{"attributes":{"ID":184213,"DIS_CODE":0,"TOWNNAME":"永康區","LI":"建國里","LIN":"8鄰","STREET":"復國一路","SECT":" ","MAREA":" ","LANE":"６巷","ALLEY":"６６弄","HOUSE_NO":"５２號","E_COORD97":172809.442774,"N_COORD97":2544652.5595100001,"ADDRESS":"復國一路６巷６６弄５２號","OBJECTID":184212},"geometry":{"x":172809.44277399965,"y":2544652.5595089998}},{"attributes":{"ID":184214,"DIS_CODE":0,"TOWNNAME":"仁德區","LI":"保安里","LIN":"20鄰","STREET":"保安路","SECT":"一段","MAREA":" ","LANE":" ","ALLEY":" ","HOUSE_NO":"１７號之２","E_COORD97":170493.10999999999,"N_COORD97":2536049.3199999998,"ADDRESS":"保安路一段１７號之２","OBJECTID":184213},"geometry":{"x":170493.11000000127,"y":2536049.3200000022}},{"attributes":{"ID":184215,"DIS_CODE":0,"TOWNNAME":"仁德區","LI":"新田里","LIN":"4鄰","STREET":"勝利一街","SECT":" ","MAREA":" ","LANE":" ","ALLEY":" ","HOUSE_NO":"２９號之１","E_COORD97":173993.14999999999,"N_COORD97":2539489.7999999998,"ADDRESS":"勝利一街２９號之１","OBJECTID":184214},"geometry":{"x":173993.14999999944,"y":2539489.7999999989}},{"attributes":{"ID":184216,"DIS_CODE":0,"TOWNNAME":"永康區","LI":"建國里","LIN":"8鄰","STREET":"復國一路","SECT":" ","MAREA":" ","LANE":"６巷","ALLEY":"６６弄","HOUSE_NO":"３０號","E_COORD97":172759.64351299999,"N_COORD97":2544678.8061600002,"ADDRESS":"復國一路６巷６６弄３０號","OBJECTID":184215},"geometry":{"x":172759.64351300057,"y":2544678.8061619997}},{"attributes":{"ID":184217,"DIS_CODE":0,"TOWNNAME":"鹽水區","LI":"岸內里","LIN":"20鄰","STREET":"北門路","SECT":" ","MAREA":" ","LANE":"１巷","ALLEY":"７弄","HOUSE_NO":"６３號","E_COORD97":175111.42999999999,"N_COORD97":2580519.9500000002,"ADDRESS":"北門路１巷７弄６３號","OBJECTID":184216},"geometry":{"x":175111.43000000063,"y":2580519.9499999993}},{"attributes":{"ID":184218,"DIS_CODE":0,"TOWNNAME":"仁德區","LI":"保安里","LIN":"4鄰","STREET":"文賢路","SECT":"一段","MAREA":" ","LANE":" ","ALLEY":" ","HOUSE_NO":"８７６號","E_COORD97":171605.32000000001,"N_COORD97":2536010.5699999998,"ADDRESS":"文賢路一段８７６號","OBJECTID":184217},"geometry":{"x":171605.32000000216,"y":2536010.5700000022}},{"attributes":{"ID":184219,"DIS_CODE":0,"TOWNNAME":"鹽水區","LI":"岸內里","LIN":"20鄰","STREET":"北門路","SECT":" ","MAREA":" ","LANE":"１巷","ALLEY":"７弄","HOUSE_NO":"６４號","E_COORD97":175110.98000000001,"N_COORD97":2580524.3399999999,"ADDRESS":"北門路１巷７弄６４號","OBJECTID":184218},"geometry":{"x":175110.98000000045,"y":2580524.3399999999}},{"attributes":{"ID":184220,"DIS_CODE":0,"TOWNNAME":"關廟區","LI":"北花里","LIN":"20鄰","STREET":"中正路","SECT":" ","MAREA":" ","LANE":"７３巷","ALLEY":"３８弄","HOUSE_NO":"１８號","E_COORD97":183647.59,"N_COORD97":2540812.8799999999,"ADDRESS":"中正路７３巷３８弄１８號","OBJECTID":184219},"geometry":{"x":183647.59000000078,"y":2540812.879999999}},{"attributes":{"ID":184221,"DIS_CODE":0,"TOWNNAME":"關廟區","LI":"山西里","LIN":"20鄰","STREET":"崇平路","SECT":" ","MAREA":" ","LANE":"１０７巷","ALLEY":"３弄","HOUSE_NO":"１７號","E_COORD97":180742.01999999999,"N_COORD97":2540350.46,"ADDRESS":"崇平路１０７巷３弄１７號","OBJECTID":184220},"geometry":{"x":180742.02000000048,"y":2540350.4600000046}},{"attributes":{"ID":184222,"DIS_CODE":0,"TOWNNAME":"關廟區","LI":"五甲里","LIN":"20鄰","STREET":"五智街","SECT":" ","MAREA":" ","LANE":"５０巷","ALLEY":"７弄","HOUSE_NO":"２號","E_COORD97":181158.42000000001,"N_COORD97":2539197.25,"ADDRESS":"五智街５０巷７弄２號","OBJECTID":184221},"geometry":{"x":181158.42000000086,"y":2539197.25}},{"attributes":{"ID":184223,"DIS_CODE":0,"TOWNNAME":"仁德區","LI":"仁義里","LIN":"20鄰","STREET":"中山路","SECT":" ","MAREA":" ","LANE":" ","ALLEY":" ","HOUSE_NO":"３３６號","E_COORD97":173928.64999999999,"N_COORD97":2541266.25,"ADDRESS":"中山路３３６號","OBJECTID":184222},"geometry":{"x":173928.65000000037,"y":2541266.2500000037}},{"attributes":{"ID":184224,"DIS_CODE":0,"TOWNNAME":"仁德區","LI":"仁義里","LIN":"25鄰","STREET":"中山路","SECT":" ","MAREA":" ","LANE":" ","ALLEY":" ","HOUSE_NO":"５００號","E_COORD97":173501.26000000001,"N_COORD97":2541321.4900000002,"ADDRESS":"中山路５００號","OBJECTID":184223},"geometry":{"x":173501.25999999978,"y":2541321.4900000002}},{"attributes":{"ID":184225,"DIS_CODE":0,"TOWNNAME":"仁德區","LI":"仁義里","LIN":"25鄰","STREET":"中山路","SECT":" ","MAREA":" ","LANE":" ","ALLEY":" ","HOUSE_NO":"５０６號之１","E_COORD97":173483.47,"N_COORD97":2541323.29,"ADDRESS":"中山路５０６號之１","OBJECTID":184224},"geometry":{"x":173483.46999999881,"y":2541323.290000001}},{"attributes":{"ID":184226,"DIS_CODE":0,"TOWNNAME":"北門區","LI":"中樞里","LIN":"11鄰","STREET":" ","SECT":" ","MAREA":"溪底寮","LANE":" ","ALLEY":" ","HOUSE_NO":"９３號","E_COORD97":161160.35000000001,"N_COORD97":2571297.23,"ADDRESS":"溪底寮９３號","OBJECTID":184225},"geometry":{"x":161160.35000000149,"y":2571297.2300000004}},{"attributes":{"ID":184227,"DIS_CODE":0,"TOWNNAME":"北門區","LI":"中樞里","LIN":"11鄰","STREET":" ","SECT":" ","MAREA":"溪底寮","LANE":" ","ALLEY":" ","HOUSE_NO":"９４號之１","E_COORD97":161195.81,"N_COORD97":2571310.25,"ADDRESS":"溪底寮９４號之１","OBJECTID":184226},"geometry":{"x":161195.80999999959,"y":2571310.25}},{"attributes":{"ID":184228,"DIS_CODE":0,"TOWNNAME":"北門區","LI":"中樞里","LIN":"11鄰","STREET":" ","SECT":" ","MAREA":"溪底寮","LANE":" ","ALLEY":" ","HOUSE_NO":"９４號","E_COORD97":161178.62,"N_COORD97":2571306.1200000001,"ADDRESS":"溪底寮９４號","OBJECTID":184227},"geometry":{"x":161178.62000000011,"y":2571306.120000001}},{"attributes":{"ID":184229,"DIS_CODE":0,"TOWNNAME":"安平區","LI":"平安里","LIN":"20鄰","STREET":"安平路","SECT":" ","MAREA":" ","LANE":"６０６巷","ALLEY":"５３弄","HOUSE_NO":"１１號","E_COORD97":164838.78,"N_COORD97":2544576.8900000001,"ADDRESS":"安平路６０６巷５３弄１１號","OBJECTID":184228},"geometry":{"x":164838.78000000119,"y":2544576.8900000006}},{"attributes":{"ID":184230,"DIS_CODE":0,"TOWNNAME":"安平區","LI":"平安里","LIN":"20鄰","STREET":"安平路","SECT":" ","MAREA":" ","LANE":"６０６巷","ALLEY":"５３弄","HOUSE_NO":"１２號","E_COORD97":164854.48000000001,"N_COORD97":2544584.4100000001,"ADDRESS":"安平路６０６巷５３弄１２號","OBJECTID":184229},"geometry":{"x":164854.48000000138,"y":2544584.4100000039}},{"attributes":{"ID":184231,"DIS_CODE":0,"TOWNNAME":"東區","LI":"崇德里","LIN":"10鄰","STREET":"崇德八街","SECT":" ","MAREA":" ","LANE":" ","ALLEY":" ","HOUSE_NO":"３２號","E_COORD97":170869.88,"N_COORD97":2541608.25,"ADDRESS":"崇德八街３２號","OBJECTID":184230},"geometry":{"x":170869.87999999989,"y":2541608.25}},{"attributes":{"ID":184232,"DIS_CODE":0,"TOWNNAME":"安平區","LI":"平安里","LIN":"20鄰","STREET":"安平路","SECT":" ","MAREA":" ","LANE":"６０６巷","ALLEY":"５３弄","HOUSE_NO":"１３號","E_COORD97":164835.44,"N_COORD97":2544578.3199999998,"ADDRESS":"安平路６０６巷５３弄１３號","OBJECTID":184231},"geometry":{"x":164835.44000000041,"y":2544578.320000004}},{"attributes":{"ID":184233,"DIS_CODE":0,"TOWNNAME":"安平區","LI":"平安里","LIN":"20鄰","STREET":"安平路","SECT":" ","MAREA":" ","LANE":"６０６巷","ALLEY":"５３弄","HOUSE_NO":"１４號","E_COORD97":164850.95999999999,"N_COORD97":2544585.48,"ADDRESS":"安平路６０６巷５３弄１４號","OBJECTID":184232},"geometry":{"x":164850.96000000089,"y":2544585.4800000023}},{"attributes":{"ID":184234,"DIS_CODE":0,"TOWNNAME":"安平區","LI":"平安里","LIN":"20鄰","STREET":"安平路","SECT":" ","MAREA":" ","LANE":"６０６巷","ALLEY":"５３弄","HOUSE_NO":"１５號","E_COORD97":164831.95000000001,"N_COORD97":2544579.5899999999,"ADDRESS":"安平路６０６巷５３弄１５號","OBJECTID":184233},"geometry":{"x":164831.95000000205,"y":2544579.5900000036}},{"attributes":{"ID":184235,"DIS_CODE":0,"TOWNNAME":"永康區","LI":"永康里","LIN":"10鄰","STREET":"永康街","SECT":" ","MAREA":" ","LANE":" ","ALLEY":" ","HOUSE_NO":"６２號","E_COORD97":173776.63,"N_COORD97":2547212.5899999999,"ADDRESS":"永康街６２號","OBJECTID":184234},"geometry":{"x":173776.63000000082,"y":2547212.5899999999}},{"attributes":{"ID":184236,"DIS_CODE":0,"TOWNNAME":"安平區","LI":"平安里","LIN":"20鄰","STREET":"安平路","SECT":" ","MAREA":" ","LANE":"６０６巷","ALLEY":"５３弄","HOUSE_NO":"１６號","E_COORD97":164847.89999999999,"N_COORD97":2544587.0099999998,"ADDRESS":"安平路６０６巷５３弄１６號","OBJECTID":184235},"geometry":{"x":164847.9000000013,"y":2544587.0100000035}},{"attributes":{"ID":184237,"DIS_CODE":0,"TOWNNAME":"安平區","LI":"平安里","LIN":"20鄰","STREET":"安平路","SECT":" ","MAREA":" ","LANE":"６０６巷","ALLEY":"５３弄","HOUSE_NO":"１７號","E_COORD97":164826.54999999999,"N_COORD97":2544581.1699999999,"ADDRESS":"安平路６０６巷５３弄１７號","OBJECTID":184236},"geometry":{"x":164826.55000000075,"y":2544581.1699999999}},{"attributes":{"ID":184238,"DIS_CODE":0,"TOWNNAME":"安平區","LI":"平安里","LIN":"20鄰","STREET":"安平路","SECT":" ","MAREA":" ","LANE":"６０６巷","ALLEY":"５３弄","HOUSE_NO":"１８號","E_COORD97":164845.45000000001,"N_COORD97":2544588.0800000001,"ADDRESS":"安平路６０６巷５３弄１８號","OBJECTID":184237},"geometry":{"x":164845.45000000205,"y":2544588.0800000019}},{"attributes":{"ID":184239,"DIS_CODE":0,"TOWNNAME":"鹽水區","LI":"桐寮里","LIN":"3鄰","STREET":" ","SECT":" ","MAREA":"桐寮","LANE":" ","ALLEY":" ","HOUSE_NO":"７號","E_COORD97":173989.54999999999,"N_COORD97":2576634.71,"ADDRESS":"桐寮７號","OBJECTID":184238},"geometry":{"x":173989.54999999981,"y":2576634.7100000009}},{"attributes":{"ID":184240,"DIS_CODE":0,"TOWNNAME":"安平區","LI":"平安里","LIN":"20鄰","STREET":"安平路","SECT":" ","MAREA":" ","LANE":"６０６巷","ALLEY":"５３弄","HOUSE_NO":"１９號","E_COORD97":164823.38,"N_COORD97":2544582.6000000001,"ADDRESS":"安平路６０６巷５３弄１９號","OBJECTID":184239},"geometry":{"x":164823.37999999989,"y":2544582.6000000034}},{"attributes":{"ID":184241,"DIS_CODE":0,"TOWNNAME":"永康區","LI":"永康里","LIN":"10鄰","STREET":"永康街","SECT":" ","MAREA":" ","LANE":" ","ALLEY":" ","HOUSE_NO":"５２號","E_COORD97":173776.84,"N_COORD97":2547223.7400000002,"ADDRESS":"永康街５２號","OBJECTID":184240},"geometry":{"x":173776.84000000078,"y":2547223.7400000021}},{"attributes":{"ID":184242,"DIS_CODE":0,"TOWNNAME":"東區","LI":"崇德里","LIN":"10鄰","STREET":"崇德八街","SECT":" ","MAREA":" ","LANE":" ","ALLEY":" ","HOUSE_NO":"３４號","E_COORD97":170874.20000000001,"N_COORD97":2541609.8300000001,"ADDRESS":"崇德八街３４號","OBJECTID":184241},"geometry":{"x":170874.20000000112,"y":2541609.8300000019}},{"attributes":{"ID":184243,"DIS_CODE":0,"TOWNNAME":"永康區","LI":"永康里","LIN":"10鄰","STREET":"中山南路","SECT":" ","MAREA":" ","LANE":" ","ALLEY":" ","HOUSE_NO":"１０７２號","E_COORD97":173762.87,"N_COORD97":2547315.9900000002,"ADDRESS":"中山南路１０７２號","OBJECTID":184242},"geometry":{"x":173762.87000000104,"y":2547315.9900000002}},{"attributes":{"ID":184244,"DIS_CODE":0,"TOWNNAME":"永康區","LI":"永康里","LIN":"10鄰","STREET":"中山南路","SECT":" ","MAREA":" ","LANE":" ","ALLEY":" ","HOUSE_NO":"１０６０號","E_COORD97":173734.13,"N_COORD97":2547304.1800000002,"ADDRESS":"中山南路１０６０號","OBJECTID":184243},"geometry":{"x":173734.13000000082,"y":2547304.1799999997}},{"attributes":{"ID":184245,"DIS_CODE":0,"TOWNNAME":"東區","LI":"崇德里","LIN":"10鄰","STREET":"崇德八街","SECT":" ","MAREA":" ","LANE":" ","ALLEY":" ","HOUSE_NO":"３６號","E_COORD97":170878.51000000001,"N_COORD97":2541607.5299999998,"ADDRESS":"崇德八街３６號","OBJECTID":184244},"geometry":{"x":170878.51000000071,"y":2541607.5300000012}},{"attributes":{"ID":184246,"DIS_CODE":0,"TOWNNAME":"中西區","LI":"文賢里","LIN":"10鄰","STREET":"西和路","SECT":" ","MAREA":" ","LANE":" ","ALLEY":" ","HOUSE_NO":"１３７號","E_COORD97":166920.79000000001,"N_COORD97":2544645.1099999999,"ADDRESS":"西和路１３７號","OBJECTID":184245},"geometry":{"x":166920.79000000004,"y":2544645.1099999994}},{"attributes":{"ID":184247,"DIS_CODE":0,"TOWNNAME":"中西區","LI":"文賢里","LIN":"10鄰","STREET":"和真街","SECT":" ","MAREA":" ","LANE":" ","ALLEY":" ","HOUSE_NO":"９２號","E_COORD97":166853.98000000001,"N_COORD97":2544667.8900000001,"ADDRESS":"和真街９２號","OBJECTID":184246},"geometry":{"x":166853.98000000045,"y":2544667.8900000025}},{"attributes":{"ID":184248,"DIS_CODE":0,"TOWNNAME":"中西區","LI":"文賢里","LIN":"10鄰","STREET":"和真街","SECT":" ","MAREA":" ","LANE":" ","ALLEY":" ","HOUSE_NO":"９０號","E_COORD97":166856.38,"N_COORD97":2544659.8999999999,"ADDRESS":"和真街９０號","OBJECTID":184247},"geometry":{"x":166856.38000000082,"y":2544659.9000000022}},{"attributes":{"ID":184249,"DIS_CODE":0,"TOWNNAME":"中西區","LI":"文賢里","LIN":"10鄰","STREET":"和真街","SECT":" ","MAREA":" ","LANE":" ","ALLEY":" ","HOUSE_NO":"８０號","E_COORD97":166870.20999999999,"N_COORD97":2544641.2799999998,"ADDRESS":"和真街８０號","OBJECTID":184248},"geometry":{"x":166870.20999999996,"y":2544641.2799999993}},{"attributes":{"ID":184250,"DIS_CODE":0,"TOWNNAME":"中西區","LI":"民生里","LIN":"10鄰","STREET":"大勇街","SECT":" ","MAREA":" ","LANE":" ","ALLEY":" ","HOUSE_NO":"９０號","E_COORD97":167183.04999999999,"N_COORD97":2543380.75,"ADDRESS":"大勇街９０號","OBJECTID":184249},"geometry":{"x":167183.04999999981,"y":2543380.75}},{"attributes":{"ID":184251,"DIS_CODE":0,"TOWNNAME":"安定區","LI":"蘇林里","LIN":"10鄰","STREET":" ","SECT":" ","MAREA":"蘇厝","LANE":" ","ALLEY":" ","HOUSE_NO":"１１１之１２號","E_COORD97":173724.37,"N_COORD97":2558880.2999999998,"ADDRESS":"蘇厝１１１之１２號","OBJECTID":184250},"geometry":{"x":173724.37000000104,"y":2558880.3000000026}},{"attributes":{"ID":184252,"DIS_CODE":0,"TOWNNAME":"安定區","LI":"港口里","LIN":"10鄰","STREET":" ","SECT":" ","MAREA":"港口","LANE":" ","ALLEY":" ","HOUSE_NO":"３１１號之１","E_COORD97":171324.82999999999,"N_COORD97":2554617.2999999998,"ADDRESS":"港口３１１號之１","OBJECTID":184251},"geometry":{"x":171324.83000000007,"y":2554617.3000000007}},{"attributes":{"ID":184253,"DIS_CODE":0,"TOWNNAME":"北門區","LI":"中樞里","LIN":"11鄰","STREET":" ","SECT":" ","MAREA":"溪底寮","LANE":" ","ALLEY":" ","HOUSE_NO":"９５號之１","E_COORD97":161232.60999999999,"N_COORD97":2571310.0499999998,"ADDRESS":"溪底寮９５號之１","OBJECTID":184252},"geometry":{"x":161232.61000000127,"y":2571310.0500000007}},{"attributes":{"ID":184254,"DIS_CODE":0,"TOWNNAME":"北門區","LI":"中樞里","LIN":"11鄰","STREET":" ","SECT":" ","MAREA":"溪底寮","LANE":" ","ALLEY":" ","HOUSE_NO":"９５號","E_COORD97":161215.51000000001,"N_COORD97":2571308.0299999998,"ADDRESS":"溪底寮９５號","OBJECTID":184253},"geometry":{"x":161215.51000000071,"y":2571308.0299999993}},{"attributes":{"ID":184255,"DIS_CODE":0,"TOWNNAME":"北門區","LI":"中樞里","LIN":"11鄰","STREET":" ","SECT":" ","MAREA":"溪底寮","LANE":" ","ALLEY":" ","HOUSE_NO":"９６號","E_COORD97":161229.79999999999,"N_COORD97":2571309.77,"ADDRESS":"溪底寮９６號","OBJECTID":184254},"geometry":{"x":161229.79999999981,"y":2571309.7699999996}},{"attributes":{"ID":184256,"DIS_CODE":0,"TOWNNAME":"北門區","LI":"中樞里","LIN":"11鄰","STREET":" ","SECT":" ","MAREA":"溪底寮","LANE":" ","ALLEY":" ","HOUSE_NO":"９７號之１","E_COORD97":161251.54999999999,"N_COORD97":2571312.2599999998,"ADDRESS":"溪底寮９７號之１","OBJECTID":184255},"geometry":{"x":161251.54999999981,"y":2571312.2600000016}},{"attributes":{"ID":184257,"DIS_CODE":0,"TOWNNAME":"北門區","LI":"中樞里","LIN":"11鄰","STREET":" ","SECT":" ","MAREA":"溪底寮","LANE":" ","ALLEY":" ","HOUSE_NO":"９７之６號","E_COORD97":161235.07000000001,"N_COORD97":2571346.52,"ADDRESS":"溪底寮９７之６號","OBJECTID":184256},"geometry":{"x":161235.0700000003,"y":2571346.5199999977}},{"attributes":{"ID":184258,"DIS_CODE":0,"TOWNNAME":"北門區","LI":"中樞里","LIN":"11鄰","STREET":" ","SECT":" ","MAREA":"溪底寮","LANE":" ","ALLEY":" ","HOUSE_NO":"９７號","E_COORD97":161248.20000000001,"N_COORD97":2571312.2200000002,"ADDRESS":"溪底寮９７號","OBJECTID":184257},"geometry":{"x":161248.19999999925,"y":2571312.2200000007}},{"attributes":{"ID":184259,"DIS_CODE":0,"TOWNNAME":"北門區","LI":"中樞里","LIN":"11鄰","STREET":" ","SECT":" ","MAREA":"溪底寮","LANE":" ","ALLEY":" ","HOUSE_NO":"９８之１５號","E_COORD97":161127.82000000001,"N_COORD97":2571668.4500000002,"ADDRESS":"溪底寮９８之１５號","OBJECTID":184258},"geometry":{"x":161127.82000000123,"y":2571668.4499999993}},{"attributes":{"ID":184260,"DIS_CODE":0,"TOWNNAME":"北門區","LI":"中樞里","LIN":"11鄰","STREET":" ","SECT":" ","MAREA":"溪底寮","LANE":" ","ALLEY":" ","HOUSE_NO":"９８號之１５","E_COORD97":161127.82000000001,"N_COORD97":2571668.4500000002,"ADDRESS":"溪底寮９８號之１５","OBJECTID":184259},"geometry":{"x":161127.82000000123,"y":2571668.4499999993}},{"attributes":{"ID":184261,"DIS_CODE":0,"TOWNNAME":"官田區","LI":"二鎮里","LIN":"11鄰","STREET":" ","SECT":" ","MAREA":"二鎮","LANE":" ","ALLEY":" ","HOUSE_NO":"９３號之１","E_COORD97":181471.20999999999,"N_COORD97":2568296.2799999998,"ADDRESS":"二鎮９３號之１","OBJECTID":184260},"geometry":{"x":181471.20999999996,"y":2568296.2799999993}},{"attributes":{"ID":184262,"DIS_CODE":0,"TOWNNAME":"安定區","LI":"蘇厝里","LIN":"10鄰","STREET":" ","SECT":" ","MAREA":"蘇厝","LANE":" ","ALLEY":" ","HOUSE_NO":"３７６之１號","E_COORD97":173170.62,"N_COORD97":2558881.2999999998,"ADDRESS":"蘇厝３７６之１號","OBJECTID":184261},"geometry":{"x":173170.62000000011,"y":2558881.3000000026}},{"attributes":{"ID":184263,"DIS_CODE":0,"TOWNNAME":"安定區","LI":"安定里","LIN":"10鄰","STREET":" ","SECT":" ","MAREA":"安定","LANE":" ","ALLEY":" ","HOUSE_NO":"９６號之４","E_COORD97":172120.82999999999,"N_COORD97":2557697.3199999998,"ADDRESS":"安定９６號之４","OBJECTID":184262},"geometry":{"x":172120.83000000101,"y":2557697.3200000022}},{"attributes":{"ID":184264,"DIS_CODE":0,"TOWNNAME":"安平區","LI":"平安里","LIN":"20鄰","STREET":"安平路","SECT":" ","MAREA":" ","LANE":"６０６巷","ALLEY":"５３弄","HOUSE_NO":"１號","E_COORD97":164856.62,"N_COORD97":2544571.3999999999,"ADDRESS":"安平路６０６巷５３弄１號","OBJECTID":184263},"geometry":{"x":164856.62000000104,"y":2544571.4000000041}},{"attributes":{"ID":184265,"DIS_CODE":0,"TOWNNAME":"安平區","LI":"平安里","LIN":"20鄰","STREET":"安平路","SECT":" ","MAREA":" ","LANE":"６０６巷","ALLEY":"５３弄","HOUSE_NO":"２０號","E_COORD97":164842.07999999999,"N_COORD97":2544589,"ADDRESS":"安平路６０６巷５３弄２０號","OBJECTID":184264},"geometry":{"x":164842.08000000007,"y":2544589}},{"attributes":{"ID":184266,"DIS_CODE":0,"TOWNNAME":"仁德區","LI":"仁義里","LIN":"17鄰","STREET":"義林十街","SECT":" ","MAREA":" ","LANE":" ","ALLEY":" ","HOUSE_NO":"８號","E_COORD97":174279.20999999999,"N_COORD97":2541409.2599999998,"ADDRESS":"義林十街８號","OBJECTID":184265},"geometry":{"x":174279.21000000089,"y":2541409.2600000016}},{"attributes":{"ID":184267,"DIS_CODE":0,"TOWNNAME":"安定區","LI":"海寮里","LIN":"10鄰","STREET":" ","SECT":" ","MAREA":"海寮","LANE":" ","ALLEY":" ","HOUSE_NO":"９９之５號","E_COORD97":169217.48999999999,"N_COORD97":2555305.2999999998,"ADDRESS":"海寮９９之５號","OBJECTID":184266},"geometry":{"x":169217.49000000115,"y":2555305.3000000007}},{"attributes":{"ID":184268,"DIS_CODE":0,"TOWNNAME":"安定區","LI":"海寮里","LIN":"10鄰","STREET":" ","SECT":" ","MAREA":"海寮","LANE":" ","ALLEY":" ","HOUSE_NO":"９８號","E_COORD97":169194.89000000001,"N_COORD97":2555286.25,"ADDRESS":"海寮９８號","OBJECTID":184267},"geometry":{"x":169194.88999999966,"y":2555286.2500000019}},{"attributes":{"ID":184269,"DIS_CODE":0,"TOWNNAME":"安南區","LI":"州北里","LIN":"9鄰","STREET":"安和路","SECT":"五段","MAREA":" ","LANE":"１７１巷","ALLEY":"１４６弄","HOUSE_NO":"１６號","E_COORD97":169564.05893599999,"N_COORD97":2551658.0411700001,"ADDRESS":"安和路五段１７１巷１４６弄１６號","OBJECTID":184268},"geometry":{"x":169564.0589360008,"y":2551658.0411709994}},{"attributes":{"ID":184270,"DIS_CODE":0,"TOWNNAME":"仁德區","LI":"仁愛里","LIN":"4鄰","STREET":" ","SECT":" ","MAREA":"仁愛","LANE":" ","ALLEY":" ","HOUSE_NO":"６９號","E_COORD97":170345.06849999999,"N_COORD97":2539978.5679000001,"ADDRESS":"仁愛６９號","OBJECTID":184269},"geometry":{"x":170345.06850000005,"y":2539978.5678980015}},{"attributes":{"ID":184271,"DIS_CODE":0,"TOWNNAME":"安定區","LI":"安加里","LIN":"10鄰","STREET":" ","SECT":" ","MAREA":"安定","LANE":" ","ALLEY":" ","HOUSE_NO":"２５９號","E_COORD97":171696.82000000001,"N_COORD97":2557332.3199999998,"ADDRESS":"安定２５９號","OBJECTID":184270},"geometry":{"x":171696.82000000216,"y":2557332.3200000003}},{"attributes":{"ID":184272,"DIS_CODE":0,"TOWNNAME":"安平區","LI":"平安里","LIN":"20鄰","STREET":"安平路","SECT":" ","MAREA":" ","LANE":"６０６巷","ALLEY":"５３弄","HOUSE_NO":"２２號","E_COORD97":164838.10000000001,"N_COORD97":2544589.9199999999,"ADDRESS":"安平路６０６巷５３弄２２號","OBJECTID":184271},"geometry":{"x":164838.09999999963,"y":2544589.9199999999}},{"attributes":{"ID":184273,"DIS_CODE":0,"TOWNNAME":"安平區","LI":"平安里","LIN":"20鄰","STREET":"安平路","SECT":" ","MAREA":" ","LANE":"６０６巷","ALLEY":"５３弄","HOUSE_NO":"２４號","E_COORD97":164835.04000000001,"N_COORD97":2544590.9900000002,"ADDRESS":"安平路６０６巷５３弄２４號","OBJECTID":184272},"geometry":{"x":164835.04000000097,"y":2544590.9900000039}},{"attributes":{"ID":184274,"DIS_CODE":0,"TOWNNAME":"安定區","LI":"安加里","LIN":"10鄰","STREET":" ","SECT":" ","MAREA":"安定","LANE":" ","ALLEY":" ","HOUSE_NO":"２５８之４１號","E_COORD97":171709.57000000001,"N_COORD97":2557021.3199999998,"ADDRESS":"安定２５８之４１號","OBJECTID":184273},"geometry":{"x":171709.5700000003,"y":2557021.320000004}},{"attributes":{"ID":184275,"DIS_CODE":0,"TOWNNAME":"仁德區","LI":"仁義里","LIN":"13鄰","STREET":"中山路","SECT":" ","MAREA":" ","LANE":" ","ALLEY":" ","HOUSE_NO":"１００號","E_COORD97":174704.76000000001,"N_COORD97":2541166.75,"ADDRESS":"中山路１００號","OBJECTID":184274},"geometry":{"x":174704.75999999978,"y":2541166.75}},{"attributes":{"ID":184276,"DIS_CODE":0,"TOWNNAME":"安定區","LI":"安加里","LIN":"10鄰","STREET":" ","SECT":" ","MAREA":"安定","LANE":" ","ALLEY":" ","HOUSE_NO":"２５８之１０號","E_COORD97":171820.47,"N_COORD97":2556791.3199999998,"ADDRESS":"安定２５８之１０號","OBJECTID":184275},"geometry":{"x":171820.46999999881,"y":2556791.3200000022}},{"attributes":{"ID":184277,"DIS_CODE":0,"TOWNNAME":"下營區","LI":"中營里","LIN":"11鄰","STREET":" ","SECT":" ","MAREA":"中營","LANE":" ","ALLEY":" ","HOUSE_NO":"１１２１號","E_COORD97":176017.72,"N_COORD97":2568398.6099999999,"ADDRESS":"中營１１２１號","OBJECTID":184276},"geometry":{"x":176017.71999999974,"y":2568398.6099999994}},{"attributes":{"ID":184278,"DIS_CODE":0,"TOWNNAME":"安平區","LI":"平安里","LIN":"20鄰","STREET":"安平路","SECT":" ","MAREA":" ","LANE":"６０６巷","ALLEY":"５３弄","HOUSE_NO":"２６號","E_COORD97":164832.14000000001,"N_COORD97":2544592.0600000001,"ADDRESS":"安平路６０６巷５３弄２６號","OBJECTID":184277},"geometry":{"x":164832.1400000006,"y":2544592.0600000024}},{"attributes":{"ID":184279,"DIS_CODE":0,"TOWNNAME":"安平區","LI":"平安里","LIN":"20鄰","STREET":"安平路","SECT":" ","MAREA":" ","LANE":"６０６巷","ALLEY":"５３弄","HOUSE_NO":"２８號","E_COORD97":164828.92000000001,"N_COORD97":2544593.1299999999,"ADDRESS":"安平路６０６巷５３弄２８號","OBJECTID":184278},"geometry":{"x":164828.92000000086,"y":2544593.1300000008}},{"attributes":{"ID":184280,"DIS_CODE":0,"TOWNNAME":"安平區","LI":"平安里","LIN":"20鄰","STREET":"安平路","SECT":" ","MAREA":" ","LANE":"６０６巷","ALLEY":"５３弄","HOUSE_NO":"３０號","E_COORD97":164826.17000000001,"N_COORD97":2544594.21,"ADDRESS":"安平路６０６巷５３弄３０號","OBJECTID":184279},"geometry":{"x":164826.16999999993,"y":2544594.2100000028}},{"attributes":{"ID":184281,"DIS_CODE":0,"TOWNNAME":"安平區","LI":"平安里","LIN":"20鄰","STREET":"安平路","SECT":" ","MAREA":" ","LANE":"６０６巷","ALLEY":"５３弄","HOUSE_NO":"３２號","E_COORD97":164823.26000000001,"N_COORD97":2544595.4300000002,"ADDRESS":"安平路６０６巷５３弄３２號","OBJECTID":184280},"geometry":{"x":164823.26000000071,"y":2544595.4300000016}},{"attributes":{"ID":184282,"DIS_CODE":0,"TOWNNAME":"安定區","LI":"六嘉里","LIN":"10鄰","STREET":" ","SECT":" ","MAREA":"六塊寮","LANE":" ","ALLEY":" ","HOUSE_NO":"８５之６號","E_COORD97":170264.51999999999,"N_COORD97":2553232.2999999998,"ADDRESS":"六塊寮８５之６號","OBJECTID":184281},"geometry":{"x":170264.52000000048,"y":2553232.3000000026}},{"attributes":{"ID":184283,"DIS_CODE":0,"TOWNNAME":"安平區","LI":"平安里","LIN":"20鄰","STREET":"安平路","SECT":" ","MAREA":" ","LANE":"６０６巷","ALLEY":"５３弄","HOUSE_NO":"３４號","E_COORD97":164809.60000000001,"N_COORD97":2544615.5699999998,"ADDRESS":"安平路６０６巷５３弄３４號","OBJECTID":184282},"geometry":{"x":164809.59999999963,"y":2544615.5700000022}},{"attributes":{"ID":184284,"DIS_CODE":0,"TOWNNAME":"安定區","LI":"安定里","LIN":"10鄰","STREET":" ","SECT":" ","MAREA":"安定","LANE":" ","ALLEY":" ","HOUSE_NO":"４３之２號","E_COORD97":172078.57000000001,"N_COORD97":2557793.3199999998,"ADDRESS":"安定４３之２號","OBJECTID":184283},"geometry":{"x":172078.57000000123,"y":2557793.3200000003}},{"attributes":{"ID":184285,"DIS_CODE":0,"TOWNNAME":"安平區","LI":"平安里","LIN":"20鄰","STREET":"安平路","SECT":" ","MAREA":" ","LANE":"６０６巷","ALLEY":"５３弄","HOUSE_NO":"３４號之１","E_COORD97":164816.17999999999,"N_COORD97":2544613.9199999999,"ADDRESS":"安平路６０６巷５３弄３４號之１","OBJECTID":184284},"geometry":{"x":164816.17999999877,"y":2544613.9199999999}},{"attributes":{"ID":184286,"DIS_CODE":0,"TOWNNAME":"安平區","LI":"平安里","LIN":"20鄰","STREET":"安平路","SECT":" ","MAREA":" ","LANE":"６０６巷","ALLEY":"５３弄","HOUSE_NO":"３４號之２","E_COORD97":164823.45999999999,"N_COORD97":2544610.8700000001,"ADDRESS":"安平路６０６巷５３弄３４號之２","OBJECTID":184285},"geometry":{"x":164823.46000000089,"y":2544610.8700000029}},{"attributes":{"ID":184287,"DIS_CODE":0,"TOWNNAME":"安定區","LI":"安加里","LIN":"10鄰","STREET":" ","SECT":" ","MAREA":"安定","LANE":" ","ALLEY":" ","HOUSE_NO":"２６０之１６號","E_COORD97":171691.67000000001,"N_COORD97":2557344.3199999998,"ADDRESS":"安定２６０之１６號","OBJECTID":184286},"geometry":{"x":171691.66999999993,"y":2557344.3200000022}},{"attributes":{"ID":184288,"DIS_CODE":0,"TOWNNAME":"安定區","LI":"港尾里","LIN":"10鄰","STREET":" ","SECT":" ","MAREA":"港子尾","LANE":" ","ALLEY":" ","HOUSE_NO":"５４之３號","E_COORD97":171695.98999999999,"N_COORD97":2555787.2999999998,"ADDRESS":"港子尾５４之３號","OBJECTID":184287},"geometry":{"x":171695.99000000115,"y":2555787.3000000007}},{"attributes":{"ID":184289,"DIS_CODE":0,"TOWNNAME":"安定區","LI":"六嘉里","LIN":"10鄰","STREET":" ","SECT":" ","MAREA":"六塊寮","LANE":" ","ALLEY":" ","HOUSE_NO":"８３號","E_COORD97":170240.72,"N_COORD97":2553237.27,"ADDRESS":"六塊寮８３號","OBJECTID":184288},"geometry":{"x":170240.7200000016,"y":2553237.2700000014}},{"attributes":{"ID":184290,"DIS_CODE":0,"TOWNNAME":"安定區","LI":"安加里","LIN":"10鄰","STREET":" ","SECT":" ","MAREA":"安定","LANE":" ","ALLEY":" ","HOUSE_NO":"２６４號之１","E_COORD97":171661.95000000001,"N_COORD97":2557339.3199999998,"ADDRESS":"安定２６４號之１","OBJECTID":184289},"geometry":{"x":171661.95000000205,"y":2557339.3200000003}},{"attributes":{"ID":184291,"DIS_CODE":0,"TOWNNAME":"安定區","LI":"安定里","LIN":"10鄰","STREET":" ","SECT":" ","MAREA":"安定","LANE":" ","ALLEY":" ","HOUSE_NO":"９４之１號","E_COORD97":172077.17770199999,"N_COORD97":2557780.69092,"ADDRESS":"安定９４之１號","OBJECTID":184290},"geometry":{"x":172077.1777020013,"y":2557780.6909160018}},{"attributes":{"ID":184292,"DIS_CODE":0,"TOWNNAME":"安定區","LI":"六嘉里","LIN":"10鄰","STREET":" ","SECT":" ","MAREA":"六塊寮","LANE":" ","ALLEY":" ","HOUSE_NO":"８１之９號","E_COORD97":170208.92000000001,"N_COORD97":2553099.2999999998,"ADDRESS":"六塊寮８１之９號","OBJECTID":184291},"geometry":{"x":170208.91999999899,"y":2553099.3000000045}},{"attributes":{"ID":184293,"DIS_CODE":0,"TOWNNAME":"新化區","LI":"全興里","LIN":"10鄰","STREET":" ","SECT":" ","MAREA":"竹子\u25A0","LANE":" ","ALLEY":" ","HOUSE_NO":"１３０號之１","E_COORD97":177502.35999999999,"N_COORD97":2547608.2599999998,"ADDRESS":"竹子\u25A0１３０號之１","OBJECTID":184292},"geometry":{"x":177502.36000000034,"y":2547608.2599999998}},{"attributes":{"ID":184294,"DIS_CODE":0,"TOWNNAME":"安平區","LI":"平安里","LIN":"20鄰","STREET":"安平路","SECT":" ","MAREA":" ","LANE":"６０６巷","ALLEY":"５３弄","HOUSE_NO":"３６號","E_COORD97":164820.20000000001,"N_COORD97":2544596.3500000001,"ADDRESS":"安平路６０６巷５３弄３６號","OBJECTID":184293},"geometry":{"x":164820.20000000205,"y":2544596.3499999996}},{"attributes":{"ID":184295,"DIS_CODE":0,"TOWNNAME":"安平區","LI":"平安里","LIN":"20鄰","STREET":"安平路","SECT":" ","MAREA":" ","LANE":"６０６巷","ALLEY":"５３弄","HOUSE_NO":"３８號","E_COORD97":164816.98999999999,"N_COORD97":2544597.5699999998,"ADDRESS":"安平路６０６巷５３弄３８號","OBJECTID":184294},"geometry":{"x":164816.99000000115,"y":2544597.5700000022}},{"attributes":{"ID":184296,"DIS_CODE":0,"TOWNNAME":"官田區","LI":"二鎮里","LIN":"11鄰","STREET":" ","SECT":" ","MAREA":"二鎮","LANE":" ","ALLEY":" ","HOUSE_NO":"９３號","E_COORD97":181473.63,"N_COORD97":2568301.52,"ADDRESS":"二鎮９３號","OBJECTID":184295},"geometry":{"x":181473.62999999989,"y":2568301.5199999996}},{"attributes":{"ID":184297,"DIS_CODE":0,"TOWNNAME":"官田區","LI":"二鎮里","LIN":"11鄰","STREET":" ","SECT":" ","MAREA":"二鎮","LANE":" ","ALLEY":" ","HOUSE_NO":"９５號之１","E_COORD97":181562.54000000001,"N_COORD97":2568246.2999999998,"ADDRESS":"二鎮９５號之１","OBJECTID":184296},"geometry":{"x":181562.54000000004,"y":2568246.3000000007}},{"attributes":{"ID":184298,"DIS_CODE":0,"TOWNNAME":"官田區","LI":"二鎮里","LIN":"11鄰","STREET":" ","SECT":" ","MAREA":"二鎮","LANE":" ","ALLEY":" ","HOUSE_NO":"９５號之２","E_COORD97":181526.79999999999,"N_COORD97":2568282.0499999998,"ADDRESS":"二鎮９５號之２","OBJECTID":184297},"geometry":{"x":181526.80000000168,"y":2568282.0500000007}},{"attributes":{"ID":184299,"DIS_CODE":0,"TOWNNAME":"安平區","LI":"平安里","LIN":"20鄰","STREET":"安平路","SECT":" ","MAREA":" ","LANE":"６０６巷","ALLEY":"５３弄","HOUSE_NO":"３號","E_COORD97":164853.10000000001,"N_COORD97":2544572.3199999998,"ADDRESS":"安平路６０６巷５３弄３號","OBJECTID":184298},"geometry":{"x":164853.10000000056,"y":2544572.3200000022}},{"attributes":{"ID":184300,"DIS_CODE":0,"TOWNNAME":"官田區","LI":"二鎮里","LIN":"11鄰","STREET":" ","SECT":" ","MAREA":"二鎮","LANE":" ","ALLEY":" ","HOUSE_NO":"９５號之３","E_COORD97":181556.04000000001,"N_COORD97":2568233.6499999999,"ADDRESS":"二鎮９５號之３","OBJECTID":184299},"geometry":{"x":181556.0400000019,"y":2568233.6500000004}},{"attributes":{"ID":184301,"DIS_CODE":0,"TOWNNAME":"官田區","LI":"二鎮里","LIN":"11鄰","STREET":" ","SECT":" ","MAREA":"二鎮","LANE":" ","ALLEY":" ","HOUSE_NO":"９６號之１","E_COORD97":181523.04999999999,"N_COORD97":2568251.3500000001,"ADDRESS":"二鎮９６號之１","OBJECTID":184300},"geometry":{"x":181523.04999999981,"y":2568251.3499999996}},{"attributes":{"ID":184302,"DIS_CODE":0,"TOWNNAME":"官田區","LI":"二鎮里","LIN":"11鄰","STREET":" ","SECT":" ","MAREA":"二鎮","LANE":" ","ALLEY":" ","HOUSE_NO":"９６號之２","E_COORD97":181526.460613,"N_COORD97":2568187.8912800001,"ADDRESS":"二鎮９６號之２","OBJECTID":184301},"geometry":{"x":181526.46061300021,"y":2568187.8912820015}},{"attributes":{"ID":184303,"DIS_CODE":0,"TOWNNAME":"官田區","LI":"二鎮里","LIN":"11鄰","STREET":" ","SECT":" ","MAREA":"二鎮","LANE":" ","ALLEY":" ","HOUSE_NO":"９６號","E_COORD97":181526.60999999999,"N_COORD97":2568237.5,"ADDRESS":"二鎮９６號","OBJECTID":184302},"geometry":{"x":181526.61000000034,"y":2568237.5}},{"attributes":{"ID":184304,"DIS_CODE":0,"TOWNNAME":"官田區","LI":"二鎮里","LIN":"11鄰","STREET":" ","SECT":" ","MAREA":"二鎮","LANE":" ","ALLEY":" ","HOUSE_NO":"９７號之１","E_COORD97":181504.88,"N_COORD97":2568230.7599999998,"ADDRESS":"二鎮９７號之１","OBJECTID":184303},"geometry":{"x":181504.88000000082,"y":2568230.7600000016}},{"attributes":{"ID":184305,"DIS_CODE":0,"TOWNNAME":"官田區","LI":"二鎮里","LIN":"11鄰","STREET":" ","SECT":" ","MAREA":"二鎮","LANE":" ","ALLEY":" ","HOUSE_NO":"９７號","E_COORD97":181503.73999999999,"N_COORD97":2568255.4700000002,"ADDRESS":"二鎮９７號","OBJECTID":184304},"geometry":{"x":181503.74000000022,"y":2568255.4700000007}},{"attributes":{"ID":184306,"DIS_CODE":0,"TOWNNAME":"官田區","LI":"南\u25A0里","LIN":"11鄰","STREET":" ","SECT":" ","MAREA":"三結義","LANE":" ","ALLEY":" ","HOUSE_NO":"１號之１","E_COORD97":179845.04999999999,"N_COORD97":2568110.1099999999,"ADDRESS":"三結義１號之１","OBJECTID":184305},"geometry":{"x":179845.04999999888,"y":2568110.1099999994}},{"attributes":{"ID":184307,"DIS_CODE":0,"TOWNNAME":"官田區","LI":"南\u25A0里","LIN":"11鄰","STREET":" ","SECT":" ","MAREA":"三結義","LANE":" ","ALLEY":" ","HOUSE_NO":"１號","E_COORD97":179813.51999999999,"N_COORD97":2568109.6600000001,"ADDRESS":"三結義１號","OBJECTID":184306},"geometry":{"x":179813.52000000048,"y":2568109.660000002}},{"attributes":{"ID":184308,"DIS_CODE":0,"TOWNNAME":"官田區","LI":"南\u25A0里","LIN":"11鄰","STREET":" ","SECT":" ","MAREA":"三結義","LANE":" ","ALLEY":" ","HOUSE_NO":"２號","E_COORD97":179835.47,"N_COORD97":2568091.3799999999,"ADDRESS":"三結義２號","OBJECTID":184307},"geometry":{"x":179835.4700000016,"y":2568091.379999999}},{"attributes":{"ID":184309,"DIS_CODE":0,"TOWNNAME":"官田區","LI":"南\u25A0里","LIN":"11鄰","STREET":" ","SECT":" ","MAREA":"三結義","LANE":" ","ALLEY":" ","HOUSE_NO":"３號之３","E_COORD97":179821.82999999999,"N_COORD97":2568065.79,"ADDRESS":"三結義３號之３","OBJECTID":184308},"geometry":{"x":179821.83000000101,"y":2568065.7900000028}},{"attributes":{"ID":184310,"DIS_CODE":0,"TOWNNAME":"下營區","LI":"中營里","LIN":"11鄰","STREET":" ","SECT":" ","MAREA":"中營","LANE":" ","ALLEY":" ","HOUSE_NO":"１１１８號","E_COORD97":176013.51999999999,"N_COORD97":2568380.71,"ADDRESS":"中營１１１８號","OBJECTID":184309},"geometry":{"x":176013.51999999955,"y":2568380.7100000028}},{"attributes":{"ID":184311,"DIS_CODE":0,"TOWNNAME":"下營區","LI":"中營里","LIN":"11鄰","STREET":" ","SECT":" ","MAREA":"中營","LANE":" ","ALLEY":" ","HOUSE_NO":"１１２０號","E_COORD97":176015.16,"N_COORD97":2568390.77,"ADDRESS":"中營１１２０號","OBJECTID":184310},"geometry":{"x":176015.16000000015,"y":2568390.7699999996}},{"attributes":{"ID":184312,"DIS_CODE":0,"TOWNNAME":"下營區","LI":"中營里","LIN":"11鄰","STREET":" ","SECT":" ","MAREA":"中營","LANE":" ","ALLEY":" ","HOUSE_NO":"１１２２號","E_COORD97":176014.23999999999,"N_COORD97":2568414.7400000002,"ADDRESS":"中營１１２２號","OBJECTID":184311},"geometry":{"x":176014.24000000022,"y":2568414.7400000021}},{"attributes":{"ID":184313,"DIS_CODE":0,"TOWNNAME":"下營區","LI":"中營里","LIN":"11鄰","STREET":" ","SECT":" ","MAREA":"中營","LANE":" ","ALLEY":" ","HOUSE_NO":"１１２３號","E_COORD97":176014.92000000001,"N_COORD97":2568411.0800000001,"ADDRESS":"中營１１２３號","OBJECTID":184312},"geometry":{"x":176014.91999999899,"y":2568411.0800000019}},{"attributes":{"ID":184314,"DIS_CODE":0,"TOWNNAME":"下營區","LI":"中營里","LIN":"11鄰","STREET":" ","SECT":" ","MAREA":"中營","LANE":" ","ALLEY":" ","HOUSE_NO":"１１２４號","E_COORD97":176015.82000000001,"N_COORD97":2568406.7200000002,"ADDRESS":"中營１１２４號","OBJECTID":184313},"geometry":{"x":176015.8200000003,"y":2568406.7200000007}},{"attributes":{"ID":184315,"DIS_CODE":0,"TOWNNAME":"下營區","LI":"中營里","LIN":"11鄰","STREET":" ","SECT":" ","MAREA":"中營","LANE":" ","ALLEY":" ","HOUSE_NO":"１１２５號","E_COORD97":176029.76999999999,"N_COORD97":2568387.4500000002,"ADDRESS":"中營１１２５號","OBJECTID":184314},"geometry":{"x":176029.77000000048,"y":2568387.4500000011}},{"attributes":{"ID":184316,"DIS_CODE":0,"TOWNNAME":"下營區","LI":"中營里","LIN":"11鄰","STREET":" ","SECT":" ","MAREA":"中營","LANE":" ","ALLEY":" ","HOUSE_NO":"１１２６號","E_COORD97":176034.48999999999,"N_COORD97":2568387.8999999999,"ADDRESS":"中營１１２６號","OBJECTID":184315},"geometry":{"x":176034.49000000022,"y":2568387.9000000004}},{"attributes":{"ID":184317,"DIS_CODE":0,"TOWNNAME":"下營區","LI":"開化里","LIN":"11鄰","STREET":" ","SECT":" ","MAREA":"中營","LANE":" ","ALLEY":" ","HOUSE_NO":"５６８號","E_COORD97":176137.64000000001,"N_COORD97":2568320.1400000001,"ADDRESS":"中營５６８號","OBJECTID":184316},"geometry":{"x":176137.6400000006,"y":2568320.1400000025}},{"attributes":{"ID":184318,"DIS_CODE":0,"TOWNNAME":"下營區","LI":"開化里","LIN":"11鄰","STREET":" ","SECT":" ","MAREA":"中營","LANE":" ","ALLEY":" ","HOUSE_NO":"５６９號","E_COORD97":176133.82999999999,"N_COORD97":2568319.5,"ADDRESS":"中營５６９號","OBJECTID":184317},"geometry":{"x":176133.83000000007,"y":2568319.4999999981}},{"attributes":{"ID":184319,"DIS_CODE":0,"TOWNNAME":"下營區","LI":"開化里","LIN":"11鄰","STREET":" ","SECT":" ","MAREA":"中營","LANE":" ","ALLEY":" ","HOUSE_NO":"５７１號","E_COORD97":176125.94,"N_COORD97":2568318.1200000001,"ADDRESS":"中營５７１號","OBJECTID":184318},"geometry":{"x":176125.94000000134,"y":2568318.1200000029}},{"attributes":{"ID":184320,"DIS_CODE":0,"TOWNNAME":"下營區","LI":"開化里","LIN":"11鄰","STREET":" ","SECT":" ","MAREA":"中營","LANE":" ","ALLEY":" ","HOUSE_NO":"５７２號","E_COORD97":176122.13,"N_COORD97":2568317.48,"ADDRESS":"中營５７２號","OBJECTID":184319},"geometry":{"x":176122.13000000175,"y":2568317.4800000023}},{"attributes":{"ID":184321,"DIS_CODE":0,"TOWNNAME":"下營區","LI":"開化里","LIN":"11鄰","STREET":" ","SECT":" ","MAREA":"中營","LANE":" ","ALLEY":" ","HOUSE_NO":"５７３號","E_COORD97":176118.32000000001,"N_COORD97":2568316.8300000001,"ADDRESS":"中營５７３號","OBJECTID":184320},"geometry":{"x":176118.32000000123,"y":2568316.8300000001}},{"attributes":{"ID":184322,"DIS_CODE":0,"TOWNNAME":"下營區","LI":"開化里","LIN":"11鄰","STREET":" ","SECT":" ","MAREA":"中營","LANE":" ","ALLEY":" ","HOUSE_NO":"５７４號","E_COORD97":176114.51000000001,"N_COORD97":2568316.1899999999,"ADDRESS":"中營５７４號","OBJECTID":184321},"geometry":{"x":176114.51000000071,"y":2568316.1899999995}},{"attributes":{"ID":184323,"DIS_CODE":0,"TOWNNAME":"下營區","LI":"開化里","LIN":"11鄰","STREET":" ","SECT":" ","MAREA":"中營","LANE":" ","ALLEY":" ","HOUSE_NO":"５７５號","E_COORD97":176121.04999999999,"N_COORD97":2568325.4700000002,"ADDRESS":"中營５７５號","OBJECTID":184322},"geometry":{"x":176121.05000000075,"y":2568325.4700000025}},{"attributes":{"ID":184324,"DIS_CODE":0,"TOWNNAME":"下營區","LI":"開化里","LIN":"11鄰","STREET":" ","SECT":" ","MAREA":"中營","LANE":" ","ALLEY":" ","HOUSE_NO":"５７８號","E_COORD97":176096.59,"N_COORD97":2568318.6600000001,"ADDRESS":"中營５７８號","OBJECTID":184323},"geometry":{"x":176096.58999999985,"y":2568318.6600000039}},{"attributes":{"ID":184325,"DIS_CODE":0,"TOWNNAME":"下營區","LI":"開化里","LIN":"11鄰","STREET":" ","SECT":" ","MAREA":"中營","LANE":" ","ALLEY":" ","HOUSE_NO":"５８０號","E_COORD97":176092.29999999999,"N_COORD97":2568326.9300000002,"ADDRESS":"中營５８０號","OBJECTID":184324},"geometry":{"x":176092.30000000075,"y":2568326.9300000016}},{"attributes":{"ID":184326,"DIS_CODE":0,"TOWNNAME":"仁德區","LI":"仁愛里","LIN":"13鄰","STREET":" ","SECT":" ","MAREA":"仁愛","LANE":" ","ALLEY":" ","HOUSE_NO":"２８６號","E_COORD97":170255.36178000001,"N_COORD97":2539936.4309999999,"ADDRESS":"仁愛２８６號","OBJECTID":184325},"geometry":{"x":170255.36178000085,"y":2539936.4310000017}},{"attributes":{"ID":184327,"DIS_CODE":0,"TOWNNAME":"下營區","LI":"開化里","LIN":"11鄰","STREET":" ","SECT":" ","MAREA":"中營","LANE":" ","ALLEY":" ","HOUSE_NO":"５８７號","E_COORD97":176120.73000000001,"N_COORD97":2568348.7599999998,"ADDRESS":"中營５８７號","OBJECTID":184326},"geometry":{"x":176120.73000000138,"y":2568348.7600000016}},{"attributes":{"ID":184328,"DIS_CODE":0,"TOWNNAME":"下營區","LI":"開化里","LIN":"11鄰","STREET":" ","SECT":" ","MAREA":"中營","LANE":" ","ALLEY":" ","HOUSE_NO":"５９１號","E_COORD97":176135.73999999999,"N_COORD97":2568353.02,"ADDRESS":"中營５９１號","OBJECTID":184327},"geometry":{"x":176135.74000000115,"y":2568353.0200000033}},{"attributes":{"ID":184329,"DIS_CODE":0,"TOWNNAME":"下營區","LI":"茅港里","LIN":"11鄰","STREET":" ","SECT":" ","MAREA":"中營","LANE":" ","ALLEY":" ","HOUSE_NO":"６６１號","E_COORD97":176453.88,"N_COORD97":2568508.5299999998,"ADDRESS":"中營６６１號","OBJECTID":184328},"geometry":{"x":176453.87999999989,"y":2568508.5300000031}},{"attributes":{"ID":184330,"DIS_CODE":0,"TOWNNAME":"下營區","LI":"茅港里","LIN":"11鄰","STREET":" ","SECT":" ","MAREA":"中營","LANE":" ","ALLEY":" ","HOUSE_NO":"６６２之２號","E_COORD97":176431.69,"N_COORD97":2568646.1200000001,"ADDRESS":"中營６６２之２號","OBJECTID":184329},"geometry":{"x":176431.69000000041,"y":2568646.1200000029}},{"attributes":{"ID":184331,"DIS_CODE":0,"TOWNNAME":"下營區","LI":"茅港里","LIN":"11鄰","STREET":" ","SECT":" ","MAREA":"中營","LANE":" ","ALLEY":" ","HOUSE_NO":"６６２號","E_COORD97":176418.10000000001,"N_COORD97":2568611.27,"ADDRESS":"中營６６２號","OBJECTID":184330},"geometry":{"x":176418.09999999963,"y":2568611.2699999996}},{"attributes":{"ID":184332,"DIS_CODE":0,"TOWNNAME":"下營區","LI":"茅港里","LIN":"11鄰","STREET":" ","SECT":" ","MAREA":"中營","LANE":" ","ALLEY":" ","HOUSE_NO":"６６３號","E_COORD97":176408.87,"N_COORD97":2568621.2400000002,"ADDRESS":"中營６６３號","OBJECTID":184331},"geometry":{"x":176408.87000000197,"y":2568621.2400000021}},{"attributes":{"ID":184333,"DIS_CODE":0,"TOWNNAME":"下營區","LI":"茅港里","LIN":"11鄰","STREET":" ","SECT":" ","MAREA":"中營","LANE":" ","ALLEY":" ","HOUSE_NO":"６６４號","E_COORD97":176399.82000000001,"N_COORD97":2568624,"ADDRESS":"中營６６４號","OBJECTID":184332},"geometry":{"x":176399.82000000123,"y":2568624}},{"attributes":{"ID":184334,"DIS_CODE":0,"TOWNNAME":"下營區","LI":"茅港里","LIN":"11鄰","STREET":" ","SECT":" ","MAREA":"中營","LANE":" ","ALLEY":" ","HOUSE_NO":"６６５號","E_COORD97":176444.66,"N_COORD97":2568704.25,"ADDRESS":"中營６６５號","OBJECTID":184333},"geometry":{"x":176444.66000000108,"y":2568704.2499999981}},{"attributes":{"ID":184335,"DIS_CODE":0,"TOWNNAME":"下營區","LI":"茅港里","LIN":"11鄰","STREET":" ","SECT":" ","MAREA":"中營","LANE":" ","ALLEY":" ","HOUSE_NO":"６６６號","E_COORD97":176395.10999999999,"N_COORD97":2568695.1400000001,"ADDRESS":"中營６６６號","OBJECTID":184334},"geometry":{"x":176395.11000000034,"y":2568695.1400000006}},{"attributes":{"ID":184336,"DIS_CODE":0,"TOWNNAME":"下營區","LI":"茅港里","LIN":"11鄰","STREET":" ","SECT":" ","MAREA":"中營","LANE":" ","ALLEY":" ","HOUSE_NO":"６６７號","E_COORD97":176409.97,"N_COORD97":2568701.2000000002,"ADDRESS":"中營６６７號","OBJECTID":184335},"geometry":{"x":176409.97000000067,"y":2568701.2000000011}},{"attributes":{"ID":184337,"DIS_CODE":0,"TOWNNAME":"下營區","LI":"茅港里","LIN":"11鄰","STREET":" ","SECT":" ","MAREA":"中營","LANE":" ","ALLEY":" ","HOUSE_NO":"６７１號","E_COORD97":176416.04999999999,"N_COORD97":2568469.9700000002,"ADDRESS":"中營６７１號","OBJECTID":184336},"geometry":{"x":176416.05000000075,"y":2568469.9700000044}},{"attributes":{"ID":184338,"DIS_CODE":0,"TOWNNAME":"下營區","LI":"茅港里","LIN":"11鄰","STREET":" ","SECT":" ","MAREA":"中營","LANE":" ","ALLEY":" ","HOUSE_NO":"６７２號","E_COORD97":176411.89000000001,"N_COORD97":2568468.7200000002,"ADDRESS":"中營６７２號","OBJECTID":184337},"geometry":{"x":176411.8900000006,"y":2568468.7200000025}},{"attributes":{"ID":184339,"DIS_CODE":0,"TOWNNAME":"下營區","LI":"茅港里","LIN":"11鄰","STREET":" ","SECT":" ","MAREA":"中營","LANE":" ","ALLEY":" ","HOUSE_NO":"６７３號","E_COORD97":176407.82999999999,"N_COORD97":2568467.7400000002,"ADDRESS":"中營６７３號","OBJECTID":184338},"geometry":{"x":176407.83000000101,"y":2568467.7400000039}},{"attributes":{"ID":184340,"DIS_CODE":0,"TOWNNAME":"下營區","LI":"茅港里","LIN":"11鄰","STREET":" ","SECT":" ","MAREA":"中營","LANE":" ","ALLEY":" ","HOUSE_NO":"６７４號","E_COORD97":176376.44,"N_COORD97":2568494.6200000001,"ADDRESS":"中營６７４號","OBJECTID":184339},"geometry":{"x":176376.44000000227,"y":2568494.620000001}},{"attributes":{"ID":184341,"DIS_CODE":0,"TOWNNAME":"下營區","LI":"茅港里","LIN":"11鄰","STREET":" ","SECT":" ","MAREA":"中營","LANE":" ","ALLEY":" ","HOUSE_NO":"６７６號","E_COORD97":176327.67999999999,"N_COORD97":2568486.4700000002,"ADDRESS":"中營６７６號","OBJECTID":184340},"geometry":{"x":176327.6799999997,"y":2568486.4699999988}},{"attributes":{"ID":184342,"DIS_CODE":0,"TOWNNAME":"下營區","LI":"茅港里","LIN":"11鄰","STREET":" ","SECT":" ","MAREA":"中營","LANE":" ","ALLEY":" ","HOUSE_NO":"６８１號之１","E_COORD97":176268.89000000001,"N_COORD97":2568446.2000000002,"ADDRESS":"中營６８１號之１","OBJECTID":184341},"geometry":{"x":176268.88999999966,"y":2568446.1999999974}},{"attributes":{"ID":184343,"DIS_CODE":0,"TOWNNAME":"下營區","LI":"茅港里","LIN":"11鄰","STREET":" ","SECT":" ","MAREA":"中營","LANE":" ","ALLEY":" ","HOUSE_NO":"６８２號","E_COORD97":176256.45999999999,"N_COORD97":2568431.9500000002,"ADDRESS":"中營６８２號","OBJECTID":184342},"geometry":{"x":176256.45999999996,"y":2568431.9500000011}},{"attributes":{"ID":184344,"DIS_CODE":0,"TOWNNAME":"下營區","LI":"茅港里","LIN":"11鄰","STREET":" ","SECT":" ","MAREA":"中營","LANE":" ","ALLEY":" ","HOUSE_NO":"６８３號","E_COORD97":176246.39999999999,"N_COORD97":2568428.29,"ADDRESS":"中營６８３號","OBJECTID":184343},"geometry":{"x":176246.4000000013,"y":2568428.2899999991}},{"attributes":{"ID":184345,"DIS_CODE":0,"TOWNNAME":"下營區","LI":"茅港里","LIN":"11鄰","STREET":" ","SECT":" ","MAREA":"中營","LANE":" ","ALLEY":" ","HOUSE_NO":"６８４號","E_COORD97":176296.10999999999,"N_COORD97":2568448.04,"ADDRESS":"中營６８４號","OBJECTID":184344},"geometry":{"x":176296.11000000127,"y":2568448.040000001}},{"attributes":{"ID":184346,"DIS_CODE":0,"TOWNNAME":"下營區","LI":"茅港里","LIN":"11鄰","STREET":" ","SECT":" ","MAREA":"中營","LANE":" ","ALLEY":" ","HOUSE_NO":"６８６號","E_COORD97":176234.67999999999,"N_COORD97":2568439.1000000001,"ADDRESS":"中營６８６號","OBJECTID":184345},"geometry":{"x":176234.6799999997,"y":2568439.0999999996}},{"attributes":{"ID":184347,"DIS_CODE":0,"TOWNNAME":"下營區","LI":"茅港里","LIN":"11鄰","STREET":" ","SECT":" ","MAREA":"中營","LANE":" ","ALLEY":" ","HOUSE_NO":"６８７號","E_COORD97":176245.92000000001,"N_COORD97":2568454.0499999998,"ADDRESS":"中營６８７號","OBJECTID":184346},"geometry":{"x":176245.92000000086,"y":2568454.0500000026}},{"attributes":{"ID":184348,"DIS_CODE":0,"TOWNNAME":"下營區","LI":"茅港里","LIN":"11鄰","STREET":" ","SECT":" ","MAREA":"中營","LANE":" ","ALLEY":" ","HOUSE_NO":"６８８號","E_COORD97":176269.17000000001,"N_COORD97":2568460.1800000002,"ADDRESS":"中營６８８號","OBJECTID":184347},"geometry":{"x":176269.16999999899,"y":2568460.1799999997}},{"attributes":{"ID":184349,"DIS_CODE":0,"TOWNNAME":"官田區","LI":"南\u25A0里","LIN":"11鄰","STREET":" ","SECT":" ","MAREA":"三結義","LANE":" ","ALLEY":" ","HOUSE_NO":"４號之１","E_COORD97":179853.60999999999,"N_COORD97":2568058.46,"ADDRESS":"三結義４號之１","OBJECTID":184348},"geometry":{"x":179853.61000000034,"y":2568058.4600000009}},{"attributes":{"ID":184350,"DIS_CODE":0,"TOWNNAME":"官田區","LI":"南\u25A0里","LIN":"11鄰","STREET":" ","SECT":" ","MAREA":"三結義","LANE":" ","ALLEY":" ","HOUSE_NO":"４號之２","E_COORD97":179854.67000000001,"N_COORD97":2568080.6899999999,"ADDRESS":"三結義４號之２","OBJECTID":184349},"geometry":{"x":179854.67000000179,"y":2568080.6900000032}},{"attributes":{"ID":184351,"DIS_CODE":0,"TOWNNAME":"官田區","LI":"南\u25A0里","LIN":"11鄰","STREET":" ","SECT":" ","MAREA":"三結義","LANE":" ","ALLEY":" ","HOUSE_NO":"５號之１","E_COORD97":179872.09,"N_COORD97":2568097.7200000002,"ADDRESS":"三結義５號之１","OBJECTID":184350},"geometry":{"x":179872.09000000171,"y":2568097.7200000007}},{"attributes":{"ID":184352,"DIS_CODE":0,"TOWNNAME":"七股區","LI":"竹橋里","LIN":"11鄰","STREET":" ","SECT":" ","MAREA":"竹橋","LANE":" ","ALLEY":" ","HOUSE_NO":"１２１號之１","E_COORD97":164002.26999999999,"N_COORD97":2555774.0299999998,"ADDRESS":"竹橋１２１號之１","OBJECTID":184351},"geometry":{"x":164002.27000000048,"y":2555774.0299999993}},{"attributes":{"ID":184353,"DIS_CODE":0,"TOWNNAME":"七股區","LI":"竹橋里","LIN":"11鄰","STREET":" ","SECT":" ","MAREA":"竹橋","LANE":" ","ALLEY":" ","HOUSE_NO":"１２１號之２","E_COORD97":164001.73000000001,"N_COORD97":2555747.4100000001,"ADDRESS":"竹橋１２１號之２","OBJECTID":184352},"geometry":{"x":164001.73000000138,"y":2555747.4100000001}},{"attributes":{"ID":184354,"DIS_CODE":0,"TOWNNAME":"七股區","LI":"竹橋里","LIN":"11鄰","STREET":" ","SECT":" ","MAREA":"竹橋","LANE":" ","ALLEY":" ","HOUSE_NO":"１２５號","E_COORD97":163923.70999999999,"N_COORD97":2555765.1099999999,"ADDRESS":"竹橋１２５號","OBJECTID":184353},"geometry":{"x":163923.71000000089,"y":2555765.1100000013}},{"attributes":{"ID":184355,"DIS_CODE":0,"TOWNNAME":"七股區","LI":"竹橋里","LIN":"11鄰","STREET":" ","SECT":" ","MAREA":"竹橋","LANE":" ","ALLEY":" ","HOUSE_NO":"１２６號","E_COORD97":163909.39000000001,"N_COORD97":2555739.8799999999,"ADDRESS":"竹橋１２６號","OBJECTID":184354},"geometry":{"x":163909.38999999966,"y":2555739.879999999}},{"attributes":{"ID":184356,"DIS_CODE":0,"TOWNNAME":"七股區","LI":"竹橋里","LIN":"11鄰","STREET":" ","SECT":" ","MAREA":"竹橋","LANE":" ","ALLEY":" ","HOUSE_NO":"１２７號","E_COORD97":163892.53,"N_COORD97":2555737.2999999998,"ADDRESS":"竹橋１２７號","OBJECTID":184355},"geometry":{"x":163892.53000000119,"y":2555737.3000000026}},{"attributes":{"ID":184357,"DIS_CODE":0,"TOWNNAME":"七股區","LI":"竹橋里","LIN":"11鄰","STREET":" ","SECT":" ","MAREA":"竹橋","LANE":" ","ALLEY":" ","HOUSE_NO":"１２９號之１００","E_COORD97":163476.57999999999,"N_COORD97":2555001.29,"ADDRESS":"竹橋１２９號之１００","OBJECTID":184356},"geometry":{"x":163476.58000000194,"y":2555001.2899999991}},{"attributes":{"ID":184358,"DIS_CODE":0,"TOWNNAME":"七股區","LI":"竹橋里","LIN":"11鄰","STREET":" ","SECT":" ","MAREA":"竹橋","LANE":" ","ALLEY":" ","HOUSE_NO":"１２９號之１０１","E_COORD97":163410.76000000001,"N_COORD97":2555095.54,"ADDRESS":"竹橋１２９號之１０１","OBJECTID":184357},"geometry":{"x":163410.76000000071,"y":2555095.5399999991}},{"attributes":{"ID":184359,"DIS_CODE":0,"TOWNNAME":"七股區","LI":"竹橋里","LIN":"11鄰","STREET":" ","SECT":" ","MAREA":"竹橋","LANE":" ","ALLEY":" ","HOUSE_NO":"１２９號之１０３","E_COORD97":163209.79999999999,"N_COORD97":2555155.5499999998,"ADDRESS":"竹橋１２９號之１０３","OBJECTID":184358},"geometry":{"x":163209.79999999981,"y":2555155.5500000045}},{"attributes":{"ID":184360,"DIS_CODE":0,"TOWNNAME":"七股區","LI":"竹橋里","LIN":"11鄰","STREET":" ","SECT":" ","MAREA":"竹橋","LANE":" ","ALLEY":" ","HOUSE_NO":"１２９號之１０５","E_COORD97":163114.26999999999,"N_COORD97":2555147.6800000002,"ADDRESS":"竹橋１２９號之１０５","OBJECTID":184359},"geometry":{"x":163114.27000000048,"y":2555147.6800000016}},{"attributes":{"ID":184361,"DIS_CODE":0,"TOWNNAME":"七股區","LI":"竹橋里","LIN":"11鄰","STREET":" ","SECT":" ","MAREA":"竹橋","LANE":" ","ALLEY":" ","HOUSE_NO":"１２９號之１","E_COORD97":163829.69,"N_COORD97":2555724.9100000001,"ADDRESS":"竹橋１２９號之１","OBJECTID":184360},"geometry":{"x":163829.69000000041,"y":2555724.9100000001}},{"attributes":{"ID":184362,"DIS_CODE":0,"TOWNNAME":"七股區","LI":"竹橋里","LIN":"11鄰","STREET":" ","SECT":" ","MAREA":"竹橋","LANE":" ","ALLEY":" ","HOUSE_NO":"１２９號之２０","E_COORD97":163602.73000000001,"N_COORD97":2555584.3500000001,"ADDRESS":"竹橋１２９號之２０","OBJECTID":184361},"geometry":{"x":163602.73000000045,"y":2555584.3500000015}},{"attributes":{"ID":184363,"DIS_CODE":0,"TOWNNAME":"七股區","LI":"竹橋里","LIN":"11鄰","STREET":" ","SECT":" ","MAREA":"竹橋","LANE":" ","ALLEY":" ","HOUSE_NO":"１２９號之９８","E_COORD97":163664.04000000001,"N_COORD97":2554999.6000000001,"ADDRESS":"竹橋１２９號之９８","OBJECTID":184362},"geometry":{"x":163664.04000000004,"y":2554999.5999999996}},{"attributes":{"ID":184364,"DIS_CODE":0,"TOWNNAME":"七股區","LI":"竹橋里","LIN":"11鄰","STREET":" ","SECT":" ","MAREA":"竹橋","LANE":" ","ALLEY":" ","HOUSE_NO":"１２９號","E_COORD97":163871.59,"N_COORD97":2555723.75,"ADDRESS":"竹橋１２９號","OBJECTID":184363},"geometry":{"x":163871.59000000078,"y":2555723.7500000019}},{"attributes":{"ID":184365,"DIS_CODE":0,"TOWNNAME":"七股區","LI":"竹橋里","LIN":"11鄰","STREET":" ","SECT":" ","MAREA":"竹橋","LANE":" ","ALLEY":" ","HOUSE_NO":"１３０號之２０","E_COORD97":163611.92999999999,"N_COORD97":2555862.0499999998,"ADDRESS":"竹橋１３０號之２０","OBJECTID":184364},"geometry":{"x":163611.9299999997,"y":2555862.0500000026}},{"attributes":{"ID":184366,"DIS_CODE":0,"TOWNNAME":"七股區","LI":"竹橋里","LIN":"11鄰","STREET":" ","SECT":" ","MAREA":"竹橋","LANE":" ","ALLEY":" ","HOUSE_NO":"１３０號之５０","E_COORD97":163292.16,"N_COORD97":2555947.54,"ADDRESS":"竹橋１３０號之５０","OBJECTID":184365},"geometry":{"x":163292.16000000015,"y":2555947.540000001}},{"attributes":{"ID":184367,"DIS_CODE":0,"TOWNNAME":"七股區","LI":"竹橋里","LIN":"11鄰","STREET":" ","SECT":" ","MAREA":"竹橋","LANE":" ","ALLEY":" ","HOUSE_NO":"１３０號","E_COORD97":163837.88,"N_COORD97":2555798.25,"ADDRESS":"竹橋１３０號","OBJECTID":184366},"geometry":{"x":163837.87999999989,"y":2555798.2500000019}},{"attributes":{"ID":184368,"DIS_CODE":0,"TOWNNAME":"七股區","LI":"城內里","LIN":"11鄰","STREET":" ","SECT":" ","MAREA":"城內","LANE":" ","ALLEY":" ","HOUSE_NO":"８３號之２","E_COORD97":161857.47,"N_COORD97":2564196.8300000001,"ADDRESS":"城內８３號之２","OBJECTID":184367},"geometry":{"x":161857.46999999974,"y":2564196.8300000001}},{"attributes":{"ID":184369,"DIS_CODE":0,"TOWNNAME":"七股區","LI":"城內里","LIN":"11鄰","STREET":" ","SECT":" ","MAREA":"城內","LANE":" ","ALLEY":" ","HOUSE_NO":"８３號","E_COORD97":161839.95999999999,"N_COORD97":2564068.29,"ADDRESS":"城內８３號","OBJECTID":184368},"geometry":{"x":161839.96000000089,"y":2564068.2899999991}},{"attributes":{"ID":184370,"DIS_CODE":0,"TOWNNAME":"七股區","LI":"城內里","LIN":"11鄰","STREET":" ","SECT":" ","MAREA":"城內","LANE":" ","ALLEY":" ","HOUSE_NO":"８４號","E_COORD97":161849.26000000001,"N_COORD97":2564054.5699999998,"ADDRESS":"城內８４號","OBJECTID":184369},"geometry":{"x":161849.26000000164,"y":2564054.570000004}},{"attributes":{"ID":184371,"DIS_CODE":0,"TOWNNAME":"七股區","LI":"城內里","LIN":"11鄰","STREET":" ","SECT":" ","MAREA":"城內","LANE":" ","ALLEY":" ","HOUSE_NO":"８６號","E_COORD97":161806.45999999999,"N_COORD97":2564048.46,"ADDRESS":"城內８６號","OBJECTID":184370},"geometry":{"x":161806.46000000089,"y":2564048.4600000009}},{"attributes":{"ID":184372,"DIS_CODE":0,"TOWNNAME":"七股區","LI":"城內里","LIN":"11鄰","STREET":" ","SECT":" ","MAREA":"城內","LANE":" ","ALLEY":" ","HOUSE_NO":"８７號之１","E_COORD97":161829.67000000001,"N_COORD97":2564023.3700000001,"ADDRESS":"城內８７號之１","OBJECTID":184371},"geometry":{"x":161829.67000000179,"y":2564023.3700000029}},{"attributes":{"ID":184373,"DIS_CODE":0,"TOWNNAME":"七股區","LI":"城內里","LIN":"11鄰","STREET":" ","SECT":" ","MAREA":"城內","LANE":" ","ALLEY":" ","HOUSE_NO":"８７號","E_COORD97":161826.85999999999,"N_COORD97":2564033.7999999998,"ADDRESS":"城內８７號","OBJECTID":184372},"geometry":{"x":161826.86000000034,"y":2564033.8000000026}},{"attributes":{"ID":184374,"DIS_CODE":0,"TOWNNAME":"七股區","LI":"城內里","LIN":"11鄰","STREET":" ","SECT":" ","MAREA":"城內","LANE":" ","ALLEY":" ","HOUSE_NO":"８８號之１","E_COORD97":161868.56,"N_COORD97":2564063.46,"ADDRESS":"城內８８號之１","OBJECTID":184373},"geometry":{"x":161868.55999999959,"y":2564063.4600000028}},{"attributes":{"ID":184375,"DIS_CODE":0,"TOWNNAME":"七股區","LI":"城內里","LIN":"11鄰","STREET":" ","SECT":" ","MAREA":"城內","LANE":" ","ALLEY":" ","HOUSE_NO":"８８號","E_COORD97":161860.51999999999,"N_COORD97":2564043.46,"ADDRESS":"城內８８號","OBJECTID":184374},"geometry":{"x":161860.51999999955,"y":2564043.4600000028}},{"attributes":{"ID":184376,"DIS_CODE":0,"TOWNNAME":"七股區","LI":"城內里","LIN":"11鄰","STREET":" ","SECT":" ","MAREA":"城內","LANE":" ","ALLEY":" ","HOUSE_NO":"８９號","E_COORD97":161822.5,"N_COORD97":2564005.3799999999,"ADDRESS":"城內８９號","OBJECTID":184375},"geometry":{"x":161822.50000000186,"y":2564005.379999999}},{"attributes":{"ID":184377,"DIS_CODE":0,"TOWNNAME":"七股區","LI":"頂山里","LIN":"11鄰","STREET":" ","SECT":" ","MAREA":"頂山","LANE":" ","ALLEY":" ","HOUSE_NO":"１０５號","E_COORD97":158956.63,"N_COORD97":2564441.6200000001,"ADDRESS":"頂山１０５號","OBJECTID":184376},"geometry":{"x":158956.63000000175,"y":2564441.6200000048}},{"attributes":{"ID":184378,"DIS_CODE":0,"TOWNNAME":"安平區","LI":"平安里","LIN":"20鄰","STREET":"安平路","SECT":" ","MAREA":" ","LANE":"６０６巷","ALLEY":"５３弄","HOUSE_NO":"４３號","E_COORD97":164793.69,"N_COORD97":2544597.0499999998,"ADDRESS":"安平路６０６巷５３弄４３號","OBJECTID":184377},"geometry":{"x":164793.69000000134,"y":2544597.0500000007}},{"attributes":{"ID":184379,"DIS_CODE":0,"TOWNNAME":"安南區","LI":"安順里","LIN":"10鄰","STREET":"開安四街","SECT":" ","MAREA":" ","LANE":" ","ALLEY":" ","HOUSE_NO":"３６號","E_COORD97":170755.29999999999,"N_COORD97":2549781.96,"ADDRESS":"開安四街３６號","OBJECTID":184378},"geometry":{"x":170755.29999999981,"y":2549781.9600000009}},{"attributes":{"ID":184380,"DIS_CODE":0,"TOWNNAME":"七股區","LI":"頂山里","LIN":"11鄰","STREET":" ","SECT":" ","MAREA":"頂山","LANE":" ","ALLEY":" ","HOUSE_NO":"１１０號之１","E_COORD97":158903.16,"N_COORD97":2564464.77,"ADDRESS":"頂山１１０號之１","OBJECTID":184379},"geometry":{"x":158903.16000000108,"y":2564464.7699999996}},{"attributes":{"ID":184381,"DIS_CODE":0,"TOWNNAME":"七股區","LI":"頂山里","LIN":"11鄰","STREET":" ","SECT":" ","MAREA":"頂山","LANE":" ","ALLEY":" ","HOUSE_NO":"１１２號之１","E_COORD97":158957.67000000001,"N_COORD97":2564479.1800000002,"ADDRESS":"頂山１１２號之１","OBJECTID":184380},"geometry":{"x":158957.66999999993,"y":2564479.1799999997}},{"attributes":{"ID":184382,"DIS_CODE":0,"TOWNNAME":"七股區","LI":"頂山里","LIN":"11鄰","STREET":" ","SECT":" ","MAREA":"頂山","LANE":" ","ALLEY":" ","HOUSE_NO":"１１２號","E_COORD97":158958.5,"N_COORD97":2564486.4500000002,"ADDRESS":"頂山１１２號","OBJECTID":184381},"geometry":{"x":158958.5,"y":2564486.4499999993}},{"attributes":{"ID":184383,"DIS_CODE":0,"TOWNNAME":"七股區","LI":"頂山里","LIN":"11鄰","STREET":" ","SECT":" ","MAREA":"頂山","LANE":" ","ALLEY":" ","HOUSE_NO":"１１３號","E_COORD97":158956.29999999999,"N_COORD97":2564519.29,"ADDRESS":"頂山１１３號","OBJECTID":184382},"geometry":{"x":158956.29999999981,"y":2564519.2899999991}},{"attributes":{"ID":184384,"DIS_CODE":0,"TOWNNAME":"七股區","LI":"頂山里","LIN":"11鄰","STREET":" ","SECT":" ","MAREA":"頂山","LANE":" ","ALLEY":" ","HOUSE_NO":"１１４號","E_COORD97":158944.76999999999,"N_COORD97":2564529.8799999999,"ADDRESS":"頂山１１４號","OBJECTID":184383},"geometry":{"x":158944.76999999955,"y":2564529.8800000008}},{"attributes":{"ID":184385,"DIS_CODE":0,"TOWNNAME":"七股區","LI":"頂山里","LIN":"11鄰","STREET":" ","SECT":" ","MAREA":"頂山","LANE":" ","ALLEY":" ","HOUSE_NO":"１１５號之１","E_COORD97":158929.45000000001,"N_COORD97":2564508.1699999999,"ADDRESS":"頂山１１５號之１","OBJECTID":184384},"geometry":{"x":158929.45000000112,"y":2564508.1700000018}},{"attributes":{"ID":184386,"DIS_CODE":0,"TOWNNAME":"七股區","LI":"頂山里","LIN":"11鄰","STREET":" ","SECT":" ","MAREA":"頂山","LANE":" ","ALLEY":" ","HOUSE_NO":"１１５號之２","E_COORD97":158928.23000000001,"N_COORD97":2564512.2599999998,"ADDRESS":"頂山１１５號之２","OBJECTID":184385},"geometry":{"x":158928.23000000138,"y":2564512.2599999998}},{"attributes":{"ID":184387,"DIS_CODE":0,"TOWNNAME":"七股區","LI":"頂山里","LIN":"11鄰","STREET":" ","SECT":" ","MAREA":"頂山","LANE":" ","ALLEY":" ","HOUSE_NO":"１１５號之３","E_COORD97":158927.22,"N_COORD97":2564517.1800000002,"ADDRESS":"頂山１１５號之３","OBJECTID":184386},"geometry":{"x":158927.22000000067,"y":2564517.1799999997}},{"attributes":{"ID":184388,"DIS_CODE":0,"TOWNNAME":"七股區","LI":"頂山里","LIN":"11鄰","STREET":" ","SECT":" ","MAREA":"頂山","LANE":" ","ALLEY":" ","HOUSE_NO":"１１５號","E_COORD97":158930.20999999999,"N_COORD97":2564504.1899999999,"ADDRESS":"頂山１１５號","OBJECTID":184387},"geometry":{"x":158930.20999999996,"y":2564504.1900000013}},{"attributes":{"ID":184389,"DIS_CODE":0,"TOWNNAME":"七股區","LI":"頂山里","LIN":"11鄰","STREET":" ","SECT":" ","MAREA":"頂山","LANE":" ","ALLEY":" ","HOUSE_NO":"１１６號","E_COORD97":158932.45999999999,"N_COORD97":2564529.4500000002,"ADDRESS":"頂山１１６號","OBJECTID":184388},"geometry":{"x":158932.46000000183,"y":2564529.4500000011}},{"attributes":{"ID":184390,"DIS_CODE":0,"TOWNNAME":"七股區","LI":"後港里","LIN":"11鄰","STREET":" ","SECT":" ","MAREA":"港西","LANE":" ","ALLEY":" ","HOUSE_NO":"１５號之１","E_COORD97":162434.85999999999,"N_COORD97":2564884.21,"ADDRESS":"港西１５號之１","OBJECTID":184389},"geometry":{"x":162434.86000000034,"y":2564884.2100000009}},{"attributes":{"ID":184391,"DIS_CODE":0,"TOWNNAME":"七股區","LI":"後港里","LIN":"11鄰","STREET":" ","SECT":" ","MAREA":"港西","LANE":" ","ALLEY":" ","HOUSE_NO":"１６號之２","E_COORD97":162419.19,"N_COORD97":2564946.8199999998,"ADDRESS":"港西１６號之２","OBJECTID":184390},"geometry":{"x":162419.19000000041,"y":2564946.8200000003}},{"attributes":{"ID":184392,"DIS_CODE":0,"TOWNNAME":"七股區","LI":"後港里","LIN":"11鄰","STREET":" ","SECT":" ","MAREA":"港西","LANE":" ","ALLEY":" ","HOUSE_NO":"１７號","E_COORD97":162356.42999999999,"N_COORD97":2564879.4300000002,"ADDRESS":"港西１７號","OBJECTID":184391},"geometry":{"x":162356.4299999997,"y":2564879.4300000016}},{"attributes":{"ID":184393,"DIS_CODE":0,"TOWNNAME":"七股區","LI":"後港里","LIN":"11鄰","STREET":" ","SECT":" ","MAREA":"港西","LANE":" ","ALLEY":" ","HOUSE_NO":"１８號","E_COORD97":162407.35000000001,"N_COORD97":2564934.6699999999,"ADDRESS":"港西１８號","OBJECTID":184392},"geometry":{"x":162407.34999999963,"y":2564934.6699999981}},{"attributes":{"ID":184394,"DIS_CODE":0,"TOWNNAME":"七股區","LI":"義合里","LIN":"11鄰","STREET":" ","SECT":" ","MAREA":"義合","LANE":" ","ALLEY":" ","HOUSE_NO":"８２號之１","E_COORD97":161752.88,"N_COORD97":2555691.5299999998,"ADDRESS":"義合８２號之１","OBJECTID":184393},"geometry":{"x":161752.87999999989,"y":2555691.5299999993}},{"attributes":{"ID":184395,"DIS_CODE":0,"TOWNNAME":"七股區","LI":"義合里","LIN":"11鄰","STREET":" ","SECT":" ","MAREA":"義合","LANE":" ","ALLEY":" ","HOUSE_NO":"８２號之２","E_COORD97":161771.37,"N_COORD97":2555733.0899999999,"ADDRESS":"義合８２號之２","OBJECTID":184394},"geometry":{"x":161771.37000000104,"y":2555733.0899999999}},{"attributes":{"ID":184396,"DIS_CODE":0,"TOWNNAME":"七股區","LI":"義合里","LIN":"11鄰","STREET":" ","SECT":" ","MAREA":"義合","LANE":" ","ALLEY":" ","HOUSE_NO":"８２號","E_COORD97":161765.47,"N_COORD97":2555696.1400000001,"ADDRESS":"義合８２號","OBJECTID":184395},"geometry":{"x":161765.47000000067,"y":2555696.1400000006}},{"attributes":{"ID":184397,"DIS_CODE":0,"TOWNNAME":"七股區","LI":"義合里","LIN":"11鄰","STREET":" ","SECT":" ","MAREA":"義合","LANE":" ","ALLEY":" ","HOUSE_NO":"８３號之１","E_COORD97":161741.64000000001,"N_COORD97":2555701.79,"ADDRESS":"義合８３號之１","OBJECTID":184396},"geometry":{"x":161741.6400000006,"y":2555701.790000001}},{"attributes":{"ID":184398,"DIS_CODE":0,"TOWNNAME":"七股區","LI":"義合里","LIN":"11鄰","STREET":" ","SECT":" ","MAREA":"義合","LANE":" ","ALLEY":" ","HOUSE_NO":"８３號之２","E_COORD97":161726.28,"N_COORD97":2555697.7999999998,"ADDRESS":"義合８３號之２","OBJECTID":184397},"geometry":{"x":161726.28000000119,"y":2555697.8000000007}},{"attributes":{"ID":184399,"DIS_CODE":0,"TOWNNAME":"七股區","LI":"義合里","LIN":"11鄰","STREET":" ","SECT":" ","MAREA":"義合","LANE":" ","ALLEY":" ","HOUSE_NO":"８３號之４","E_COORD97":161717.82000000001,"N_COORD97":2555702.5299999998,"ADDRESS":"義合８３號之４","OBJECTID":184398},"geometry":{"x":161717.82000000123,"y":2555702.5299999993}},{"attributes":{"ID":184400,"DIS_CODE":0,"TOWNNAME":"七股區","LI":"義合里","LIN":"11鄰","STREET":" ","SECT":" ","MAREA":"義合","LANE":" ","ALLEY":" ","HOUSE_NO":"８３號之５","E_COORD97":161710.04999999999,"N_COORD97":2555706.0899999999,"ADDRESS":"義合８３號之５","OBJECTID":184399},"geometry":{"x":161710.05000000168,"y":2555706.0899999999}},{"attributes":{"ID":184401,"DIS_CODE":0,"TOWNNAME":"七股區","LI":"義合里","LIN":"11鄰","STREET":" ","SECT":" ","MAREA":"義合","LANE":" ","ALLEY":" ","HOUSE_NO":"８３號","E_COORD97":161736.60000000001,"N_COORD97":2555711.3700000001,"ADDRESS":"義合８３號","OBJECTID":184400},"geometry":{"x":161736.60000000149,"y":2555711.370000001}}]}