{"displayFieldName":"TOWNNAME","fieldAliases":{"ID":"ID","DIS_CODE":"DIS_CODE","TOWNNAME":"TOWNNAME","LI":"LI","LIN":"LIN","STREET":"STREET","SECT":"SECT","MAREA":"MAREA","LANE":"LANE","ALLEY":"ALLEY","HOUSE_NO":"HOUSE_NO","E_COORD97":"E_COORD97","N_COORD97":"N_COORD97","ADDRESS":"ADDRESS","OBJECTID":"OBJECTID"},"geometryType":"esriGeometryPoint","spatialReference":{"wkid":102443,"latestWkid":3826},"fields":[{"name":"ID","type":"esriFieldTypeDouble","alias":"ID"},{"name":"DIS_CODE","type":"esriFieldTypeInteger","alias":"DIS_CODE"},{"name":"TOWNNAME","type":"esriFieldTypeString","alias":"TOWNNAME","length":8},{"name":"LI","type":"esriFieldTypeString","alias":"LI","length":8},{"name":"LIN","type":"esriFieldTypeString","alias":"LIN","length":12},{"name":"STREET","type":"esriFieldTypeString","alias":"STREET","length":20},{"name":"SECT","type":"esriFieldTypeString","alias":"SECT","length":8},{"name":"MAREA","type":"esriFieldTypeString","alias":"MAREA","length":12},{"name":"LANE","type":"esriFieldTypeString","alias":"LANE","length":10},{"name":"ALLEY","type":"esriFieldTypeString","alias":"ALLEY","length":10},{"name":"HOUSE_NO","type":"esriFieldTypeString","alias":"HOUSE_NO","length":20},{"name":"E_COORD97","type":"esriFieldTypeDouble","alias":"E_COORD97"},{"name":"N_COORD97","type":"esriFieldTypeDouble","alias":"N_COORD97"},{"name":"ADDRESS","type":"esriFieldTypeString","alias":"ADDRESS","length":50},{"name":"OBJECTID","type":"esriFieldTypeOID","alias":"OBJECTID"}],"features":[{"attributes":{"ID":48201,"DIS_CODE":0,"TOWNNAME":"北區","LI":"賢北里","LIN":"15鄰","STREET":"賢北街","SECT":" ","MAREA":" ","LANE":"５７巷","ALLEY":"４６弄","HOUSE_NO":"７號","E_COORD97":166066.92999999999,"N_COORD97":2545415.8700000001,"ADDRESS":"賢北街５７巷４６弄７號","OBJECTID":48201},"geometry":{"x":166066.9299999997,"y":2545415.870000001}},{"attributes":{"ID":48202,"DIS_CODE":0,"TOWNNAME":"北區","LI":"賢北里","LIN":"15鄰","STREET":"賢北街","SECT":" ","MAREA":" ","LANE":"５７巷","ALLEY":"４６弄","HOUSE_NO":"８號","E_COORD97":166085.67999999999,"N_COORD97":2545423.3799999999,"ADDRESS":"賢北街５７巷４６弄８號","OBJECTID":48202},"geometry":{"x":166085.6799999997,"y":2545423.379999999}},{"attributes":{"ID":48203,"DIS_CODE":0,"TOWNNAME":"北區","LI":"賢北里","LIN":"15鄰","STREET":"賢北街","SECT":" ","MAREA":" ","LANE":"５７巷","ALLEY":"４６弄","HOUSE_NO":"９號","E_COORD97":166066.51999999999,"N_COORD97":2545419.2799999998,"ADDRESS":"賢北街５７巷４６弄９號","OBJECTID":48203},"geometry":{"x":166066.52000000142,"y":2545419.2800000012}},{"attributes":{"ID":48204,"DIS_CODE":0,"TOWNNAME":"北區","LI":"賢北里","LIN":"15鄰","STREET":"賢北街","SECT":" ","MAREA":" ","LANE":"５７巷","ALLEY":"４８弄","HOUSE_NO":"１０號","E_COORD97":166119.92999999999,"N_COORD97":2545442.71,"ADDRESS":"賢北街５７巷４８弄１０號","OBJECTID":48204},"geometry":{"x":166119.93000000156,"y":2545442.7100000009}},{"attributes":{"ID":48205,"DIS_CODE":0,"TOWNNAME":"北區","LI":"賢北里","LIN":"15鄰","STREET":"賢北街","SECT":" ","MAREA":" ","LANE":"５７巷","ALLEY":"４８弄","HOUSE_NO":"１１號","E_COORD97":166099.5,"N_COORD97":2545439.7799999998,"ADDRESS":"賢北街５７巷４８弄１１號","OBJECTID":48205},"geometry":{"x":166099.50000000186,"y":2545439.7800000012}},{"attributes":{"ID":48206,"DIS_CODE":0,"TOWNNAME":"北區","LI":"賢北里","LIN":"15鄰","STREET":"賢北街","SECT":" ","MAREA":" ","LANE":"５７巷","ALLEY":"４８弄","HOUSE_NO":"１２號","E_COORD97":166118.42999999999,"N_COORD97":2545447.2200000002,"ADDRESS":"賢北街５７巷４８弄１２號","OBJECTID":48206},"geometry":{"x":166118.43000000063,"y":2545447.2199999988}},{"attributes":{"ID":48207,"DIS_CODE":0,"TOWNNAME":"北區","LI":"賢北里","LIN":"15鄰","STREET":"賢北街","SECT":" ","MAREA":" ","LANE":"５７巷","ALLEY":"４８弄","HOUSE_NO":"１號","E_COORD97":166107.70999999999,"N_COORD97":2545417.3700000001,"ADDRESS":"賢北街５７巷４８弄１號","OBJECTID":48207},"geometry":{"x":166107.70999999996,"y":2545417.3700000029}},{"attributes":{"ID":48208,"DIS_CODE":0,"TOWNNAME":"北區","LI":"賢北里","LIN":"15鄰","STREET":"賢北街","SECT":" ","MAREA":" ","LANE":"５７巷","ALLEY":"４８弄","HOUSE_NO":"２號","E_COORD97":166126.64000000001,"N_COORD97":2545424.9399999999,"ADDRESS":"賢北街５７巷４８弄２號","OBJECTID":48208},"geometry":{"x":166126.63999999966,"y":2545424.9400000013}},{"attributes":{"ID":48209,"DIS_CODE":0,"TOWNNAME":"北區","LI":"賢北里","LIN":"15鄰","STREET":"賢北街","SECT":" ","MAREA":" ","LANE":"５７巷","ALLEY":"４８弄","HOUSE_NO":"３號","E_COORD97":166105.92999999999,"N_COORD97":2545421.8799999999,"ADDRESS":"賢北街５７巷４８弄３號","OBJECTID":48209},"geometry":{"x":166105.9299999997,"y":2545421.8800000008}},{"attributes":{"ID":48210,"DIS_CODE":0,"TOWNNAME":"北區","LI":"賢北里","LIN":"15鄰","STREET":"賢北街","SECT":" ","MAREA":" ","LANE":"５７巷","ALLEY":"４８弄","HOUSE_NO":"４號","E_COORD97":166125.13,"N_COORD97":2545429.73,"ADDRESS":"賢北街５７巷４８弄４號","OBJECTID":48210},"geometry":{"x":166125.12999999989,"y":2545429.7300000004}},{"attributes":{"ID":48211,"DIS_CODE":0,"TOWNNAME":"北區","LI":"賢北里","LIN":"15鄰","STREET":"賢北街","SECT":" ","MAREA":" ","LANE":"５７巷","ALLEY":"４８弄","HOUSE_NO":"５號","E_COORD97":166104.01000000001,"N_COORD97":2545427.0699999998,"ADDRESS":"賢北街５７巷４８弄５號","OBJECTID":48211},"geometry":{"x":166104.00999999978,"y":2545427.0700000003}},{"attributes":{"ID":48212,"DIS_CODE":0,"TOWNNAME":"北區","LI":"賢北里","LIN":"15鄰","STREET":"賢北街","SECT":" ","MAREA":" ","LANE":"５７巷","ALLEY":"４８弄","HOUSE_NO":"６號","E_COORD97":166124.45000000001,"N_COORD97":2545433.6899999999,"ADDRESS":"賢北街５７巷４８弄６號","OBJECTID":48212},"geometry":{"x":166124.45000000112,"y":2545433.6900000013}},{"attributes":{"ID":48213,"DIS_CODE":0,"TOWNNAME":"北區","LI":"賢北里","LIN":"15鄰","STREET":"賢北街","SECT":" ","MAREA":" ","LANE":"５７巷","ALLEY":"４８弄","HOUSE_NO":"７號","E_COORD97":166102.92000000001,"N_COORD97":2545431.3100000001,"ADDRESS":"賢北街５７巷４８弄７號","OBJECTID":48213},"geometry":{"x":166102.91999999993,"y":2545431.3100000024}},{"attributes":{"ID":48214,"DIS_CODE":0,"TOWNNAME":"北區","LI":"永祥里","LIN":"15鄰","STREET":"實踐街","SECT":" ","MAREA":" ","LANE":"１０３巷","ALLEY":"２７弄","HOUSE_NO":"１０號","E_COORD97":170171.82999999999,"N_COORD97":2546239.3199999998,"ADDRESS":"實踐街１０３巷２７弄１０號","OBJECTID":48214},"geometry":{"x":170171.83000000007,"y":2546239.3200000003}},{"attributes":{"ID":48215,"DIS_CODE":0,"TOWNNAME":"仁德區","LI":"中生里","LIN":"15鄰","STREET":" ","SECT":" ","MAREA":"中洲","LANE":" ","ALLEY":" ","HOUSE_NO":"２５１號之２２","E_COORD97":173252.92000000001,"N_COORD97":2533971.54,"ADDRESS":"中洲２５１號之２２","OBJECTID":48215},"geometry":{"x":173252.91999999993,"y":2533971.540000001}},{"attributes":{"ID":48216,"DIS_CODE":0,"TOWNNAME":"仁德區","LI":"中生里","LIN":"15鄰","STREET":" ","SECT":" ","MAREA":"中洲","LANE":" ","ALLEY":" ","HOUSE_NO":"２５１之３２號","E_COORD97":173248.17999999999,"N_COORD97":2534024.7999999998,"ADDRESS":"中洲２５１之３２號","OBJECTID":48216},"geometry":{"x":173248.18000000156,"y":2534024.8000000045}},{"attributes":{"ID":48217,"DIS_CODE":0,"TOWNNAME":"仁德區","LI":"中生里","LIN":"15鄰","STREET":" ","SECT":" ","MAREA":"中洲","LANE":" ","ALLEY":" ","HOUSE_NO":"２３８號","E_COORD97":173192.94,"N_COORD97":2533939.7400000002,"ADDRESS":"中洲２３８號","OBJECTID":48217},"geometry":{"x":173192.94000000227,"y":2533939.7400000039}},{"attributes":{"ID":48218,"DIS_CODE":0,"TOWNNAME":"仁德區","LI":"中生里","LIN":"15鄰","STREET":" ","SECT":" ","MAREA":"中洲","LANE":" ","ALLEY":" ","HOUSE_NO":"２５１之２８號","E_COORD97":173247.76999999999,"N_COORD97":2533996.7999999998,"ADDRESS":"中洲２５１之２８號","OBJECTID":48218},"geometry":{"x":173247.77000000048,"y":2533996.8000000007}},{"attributes":{"ID":48219,"DIS_CODE":0,"TOWNNAME":"仁德區","LI":"中洲里","LIN":"15鄰","STREET":" ","SECT":" ","MAREA":"中洲","LANE":" ","ALLEY":" ","HOUSE_NO":"３７５號之１","E_COORD97":173442.16,"N_COORD97":2534133.79,"ADDRESS":"中洲３７５號之１","OBJECTID":48219},"geometry":{"x":173442.16000000201,"y":2534133.7899999991}},{"attributes":{"ID":48220,"DIS_CODE":0,"TOWNNAME":"仁德區","LI":"中生里","LIN":"15鄰","STREET":" ","SECT":" ","MAREA":"中洲","LANE":" ","ALLEY":" ","HOUSE_NO":"２５１之５７號","E_COORD97":173232.76999999999,"N_COORD97":2534001.2999999998,"ADDRESS":"中洲２５１之５７號","OBJECTID":48220},"geometry":{"x":173232.77000000048,"y":2534001.3000000045}},{"attributes":{"ID":48221,"DIS_CODE":0,"TOWNNAME":"仁德區","LI":"中生里","LIN":"15鄰","STREET":" ","SECT":" ","MAREA":"中洲","LANE":" ","ALLEY":" ","HOUSE_NO":"２５１號之２４","E_COORD97":173256.54000000001,"N_COORD97":2533981.7999999998,"ADDRESS":"中洲２５１號之２４","OBJECTID":48221},"geometry":{"x":173256.54000000097,"y":2533981.8000000026}},{"attributes":{"ID":48222,"DIS_CODE":0,"TOWNNAME":"仁德區","LI":"中洲里","LIN":"15鄰","STREET":" ","SECT":" ","MAREA":"中洲","LANE":" ","ALLEY":" ","HOUSE_NO":"３７４號之２","E_COORD97":173417.34,"N_COORD97":2534127.7999999998,"ADDRESS":"中洲３７４號之２","OBJECTID":48222},"geometry":{"x":173417.34000000078,"y":2534127.8000000026}},{"attributes":{"ID":48223,"DIS_CODE":0,"TOWNNAME":"仁德區","LI":"中洲里","LIN":"15鄰","STREET":" ","SECT":" ","MAREA":"中洲","LANE":" ","ALLEY":" ","HOUSE_NO":"３７３之２號","E_COORD97":173402.38,"N_COORD97":2534160.29,"ADDRESS":"中洲３７３之２號","OBJECTID":48223},"geometry":{"x":173402.37999999989,"y":2534160.290000001}},{"attributes":{"ID":48224,"DIS_CODE":0,"TOWNNAME":"北區","LI":"永祥里","LIN":"15鄰","STREET":"實踐街","SECT":" ","MAREA":" ","LANE":"１０３巷","ALLEY":"２７弄","HOUSE_NO":"１２號","E_COORD97":170165.87,"N_COORD97":2546239.2200000002,"ADDRESS":"實踐街１０３巷２７弄１２號","OBJECTID":48224},"geometry":{"x":170165.87000000104,"y":2546239.2200000007}},{"attributes":{"ID":48225,"DIS_CODE":0,"TOWNNAME":"北區","LI":"永祥里","LIN":"15鄰","STREET":"實踐街","SECT":" ","MAREA":" ","LANE":"１０３巷","ALLEY":"２７弄","HOUSE_NO":"１４號","E_COORD97":170159.81,"N_COORD97":2546239.3199999998,"ADDRESS":"實踐街１０３巷２７弄１４號","OBJECTID":48225},"geometry":{"x":170159.80999999959,"y":2546239.3200000003}},{"attributes":{"ID":48226,"DIS_CODE":0,"TOWNNAME":"北區","LI":"永祥里","LIN":"15鄰","STREET":"實踐街","SECT":" ","MAREA":" ","LANE":"１０３巷","ALLEY":"２７弄","HOUSE_NO":"１６號","E_COORD97":170154.76999999999,"N_COORD97":2546239.3199999998,"ADDRESS":"實踐街１０３巷２７弄１６號","OBJECTID":48226},"geometry":{"x":170154.76999999955,"y":2546239.3200000003}},{"attributes":{"ID":48227,"DIS_CODE":0,"TOWNNAME":"白河區","LI":"外角里","LIN":"1鄰","STREET":" ","SECT":" ","MAREA":"崎子頭","LANE":" ","ALLEY":" ","HOUSE_NO":"８號","E_COORD97":190801.03,"N_COORD97":2583192.0299999998,"ADDRESS":"崎子頭８號","OBJECTID":48227},"geometry":{"x":190801.03000000026,"y":2583192.0299999993}},{"attributes":{"ID":48228,"DIS_CODE":0,"TOWNNAME":"安南區","LI":"州南里","LIN":"17鄰","STREET":"州南五街","SECT":" ","MAREA":" ","LANE":" ","ALLEY":" ","HOUSE_NO":"１２號","E_COORD97":169887.946528,"N_COORD97":2550668.8398099998,"ADDRESS":"州南五街１２號","OBJECTID":48228},"geometry":{"x":169887.94652799983,"y":2550668.8398130015}},{"attributes":{"ID":48229,"DIS_CODE":0,"TOWNNAME":"安南區","LI":"州南里","LIN":"17鄰","STREET":"安和路","SECT":"四段","MAREA":" ","LANE":" ","ALLEY":" ","HOUSE_NO":"３０７號","E_COORD97":169908.89000000001,"N_COORD97":2550843,"ADDRESS":"安和路四段３０７號","OBJECTID":48229},"geometry":{"x":169908.89000000153,"y":2550843.0000000019}},{"attributes":{"ID":48230,"DIS_CODE":0,"TOWNNAME":"安南區","LI":"州北里","LIN":"17鄰","STREET":"安和路","SECT":"六段","MAREA":" ","LANE":" ","ALLEY":" ","HOUSE_NO":"１２０號","E_COORD97":169527.73999999999,"N_COORD97":2552565.7400000002,"ADDRESS":"安和路六段１２０號","OBJECTID":48230},"geometry":{"x":169527.74000000115,"y":2552565.7400000002}},{"attributes":{"ID":48231,"DIS_CODE":0,"TOWNNAME":"安南區","LI":"州北里","LIN":"17鄰","STREET":"安和路","SECT":"六段","MAREA":" ","LANE":" ","ALLEY":" ","HOUSE_NO":"１２９號","E_COORD97":169435.85000000001,"N_COORD97":2552581.5499999998,"ADDRESS":"安和路六段１２９號","OBJECTID":48231},"geometry":{"x":169435.84999999963,"y":2552581.5500000007}},{"attributes":{"ID":48232,"DIS_CODE":0,"TOWNNAME":"北區","LI":"永祥里","LIN":"15鄰","STREET":"實踐街","SECT":" ","MAREA":" ","LANE":"１０３巷","ALLEY":"２７弄","HOUSE_NO":"１８號","E_COORD97":170148.70999999999,"N_COORD97":2546239.2200000002,"ADDRESS":"實踐街１０３巷２７弄１８號","OBJECTID":48232},"geometry":{"x":170148.70999999996,"y":2546239.2200000007}},{"attributes":{"ID":48233,"DIS_CODE":0,"TOWNNAME":"北區","LI":"永祥里","LIN":"15鄰","STREET":"實踐街","SECT":" ","MAREA":" ","LANE":"１０３巷","ALLEY":"２７弄","HOUSE_NO":"２０號","E_COORD97":170143.14999999999,"N_COORD97":2546239.52,"ADDRESS":"實踐街１０３巷２７弄２０號","OBJECTID":48233},"geometry":{"x":170143.15000000037,"y":2546239.5199999996}},{"attributes":{"ID":48234,"DIS_CODE":0,"TOWNNAME":"北區","LI":"永祥里","LIN":"15鄰","STREET":"實踐街","SECT":" ","MAREA":" ","LANE":"１０３巷","ALLEY":"２７弄","HOUSE_NO":"２２號","E_COORD97":170137.39999999999,"N_COORD97":2546239.4199999999,"ADDRESS":"實踐街１０３巷２７弄２２號","OBJECTID":48234},"geometry":{"x":170137.4000000013,"y":2546239.4200000018}},{"attributes":{"ID":48235,"DIS_CODE":0,"TOWNNAME":"北區","LI":"永祥里","LIN":"15鄰","STREET":"實踐街","SECT":" ","MAREA":" ","LANE":"１０３巷","ALLEY":"２７弄","HOUSE_NO":"２４號","E_COORD97":170131.72,"N_COORD97":2546239.3900000001,"ADDRESS":"實踐街１０３巷２７弄２４號","OBJECTID":48235},"geometry":{"x":170131.71999999974,"y":2546239.3899999987}},{"attributes":{"ID":48236,"DIS_CODE":0,"TOWNNAME":"北區","LI":"永祥里","LIN":"15鄰","STREET":"實踐街","SECT":" ","MAREA":" ","LANE":"１０３巷","ALLEY":"２７弄","HOUSE_NO":"２６號","E_COORD97":170125.75,"N_COORD97":2546239.6899999999,"ADDRESS":"實踐街１０３巷２７弄２６號","OBJECTID":48236},"geometry":{"x":170125.75000000093,"y":2546239.6900000032}},{"attributes":{"ID":48237,"DIS_CODE":0,"TOWNNAME":"北區","LI":"永祥里","LIN":"15鄰","STREET":"實踐街","SECT":" ","MAREA":" ","LANE":"１０３巷","ALLEY":"２７弄","HOUSE_NO":"２８號","E_COORD97":170119.67000000001,"N_COORD97":2546238.8100000001,"ADDRESS":"實踐街１０３巷２７弄２８號","OBJECTID":48237},"geometry":{"x":170119.67000000086,"y":2546238.8100000005}},{"attributes":{"ID":48238,"DIS_CODE":0,"TOWNNAME":"北區","LI":"永祥里","LIN":"15鄰","STREET":"實踐街","SECT":" ","MAREA":" ","LANE":"１０３巷","ALLEY":"２７弄","HOUSE_NO":"３０號","E_COORD97":170113.70000000001,"N_COORD97":2546238.71,"ADDRESS":"實踐街１０３巷２７弄３０號","OBJECTID":48238},"geometry":{"x":170113.70000000019,"y":2546238.7100000028}},{"attributes":{"ID":48239,"DIS_CODE":0,"TOWNNAME":"北區","LI":"永祥里","LIN":"15鄰","STREET":"實踐街","SECT":" ","MAREA":" ","LANE":"１０３巷","ALLEY":"２７弄","HOUSE_NO":"３２號","E_COORD97":170106.91,"N_COORD97":2546239.5800000001,"ADDRESS":"實踐街１０３巷２７弄３２號","OBJECTID":48239},"geometry":{"x":170106.91000000015,"y":2546239.5800000001}},{"attributes":{"ID":48240,"DIS_CODE":0,"TOWNNAME":"北區","LI":"永祥里","LIN":"15鄰","STREET":"實踐街","SECT":" ","MAREA":" ","LANE":"１０３巷","ALLEY":"２７弄","HOUSE_NO":"３４號","E_COORD97":170100.73999999999,"N_COORD97":2546238.8900000001,"ADDRESS":"實踐街１０３巷２７弄３４號","OBJECTID":48240},"geometry":{"x":170100.74000000115,"y":2546238.8900000006}},{"attributes":{"ID":48241,"DIS_CODE":0,"TOWNNAME":"北區","LI":"永祥里","LIN":"15鄰","STREET":"實踐街","SECT":" ","MAREA":" ","LANE":"１０３巷","ALLEY":"２７弄","HOUSE_NO":"４號","E_COORD97":170189.41,"N_COORD97":2546239.4199999999,"ADDRESS":"實踐街１０３巷２７弄４號","OBJECTID":48241},"geometry":{"x":170189.41000000108,"y":2546239.4200000018}},{"attributes":{"ID":48242,"DIS_CODE":0,"TOWNNAME":"北區","LI":"永祥里","LIN":"15鄰","STREET":"實踐街","SECT":" ","MAREA":" ","LANE":"１０３巷","ALLEY":"２７弄","HOUSE_NO":"６號","E_COORD97":170183.45000000001,"N_COORD97":2546239.52,"ADDRESS":"實踐街１０３巷２７弄６號","OBJECTID":48242},"geometry":{"x":170183.45000000019,"y":2546239.5199999996}},{"attributes":{"ID":48243,"DIS_CODE":0,"TOWNNAME":"仁德區","LI":"田厝里","LIN":"2鄰","STREET":"保安路","SECT":"二段","MAREA":" ","LANE":" ","ALLEY":" ","HOUSE_NO":"５２６號","E_COORD97":172538.33822400001,"N_COORD97":2537549.2490500002,"ADDRESS":"保安路二段５２６號","OBJECTID":48243},"geometry":{"x":172538.3382240003,"y":2537549.249047}},{"attributes":{"ID":48244,"DIS_CODE":0,"TOWNNAME":"仁德區","LI":"田厝里","LIN":" ","STREET":"保安路","SECT":"二段","MAREA":" ","LANE":" ","ALLEY":" ","HOUSE_NO":"５３１號","E_COORD97":172561.95999999999,"N_COORD97":2537574.0600000001,"ADDRESS":"保安路二段５３１號","OBJECTID":48244},"geometry":{"x":172561.96000000089,"y":2537574.0600000024}},{"attributes":{"ID":48245,"DIS_CODE":0,"TOWNNAME":"北區","LI":"永祥里","LIN":"15鄰","STREET":"實踐街","SECT":" ","MAREA":" ","LANE":"１０３巷","ALLEY":"２７弄","HOUSE_NO":"８號","E_COORD97":170178,"N_COORD97":2546239.4199999999,"ADDRESS":"實踐街１０３巷２７弄８號","OBJECTID":48245},"geometry":{"x":170178.00000000186,"y":2546239.4200000018}},{"attributes":{"ID":48246,"DIS_CODE":0,"TOWNNAME":"北區","LI":"永祥里","LIN":"15鄰","STREET":"實踐街","SECT":" ","MAREA":" ","LANE":"１０３巷","ALLEY":"３９弄","HOUSE_NO":"１１號","E_COORD97":170165.31,"N_COORD97":2546262.5499999998,"ADDRESS":"實踐街１０３巷３９弄１１號","OBJECTID":48246},"geometry":{"x":170165.31000000145,"y":2546262.5500000045}},{"attributes":{"ID":48247,"DIS_CODE":0,"TOWNNAME":"仁德區","LI":"保安里","LIN":" ","STREET":"中正路","SECT":"一段","MAREA":" ","LANE":" ","ALLEY":" ","HOUSE_NO":"２４２號","E_COORD97":171664.29999999999,"N_COORD97":2535851.5299999998,"ADDRESS":"中正路一段２４２號","OBJECTID":48247},"geometry":{"x":171664.30000000168,"y":2535851.5299999993}},{"attributes":{"ID":48248,"DIS_CODE":0,"TOWNNAME":"仁德區","LI":"後壁里","LIN":" ","STREET":"中正路","SECT":"二段","MAREA":" ","LANE":" ","ALLEY":" ","HOUSE_NO":"２６２號","E_COORD97":173246.95000000001,"N_COORD97":2538912.52,"ADDRESS":"中正路二段２６２號","OBJECTID":48248},"geometry":{"x":173246.95000000205,"y":2538912.5200000014}},{"attributes":{"ID":48249,"DIS_CODE":0,"TOWNNAME":"新營區","LI":"角帶里","LIN":"3鄰","STREET":" ","SECT":" ","MAREA":"角帶圍","LANE":" ","ALLEY":" ","HOUSE_NO":"３８號之１","E_COORD97":174852.95000000001,"N_COORD97":2575872.54,"ADDRESS":"角帶圍３８號之１","OBJECTID":48249},"geometry":{"x":174852.95000000112,"y":2575872.540000001}},{"attributes":{"ID":48250,"DIS_CODE":0,"TOWNNAME":"新營區","LI":"角帶里","LIN":"7鄰","STREET":" ","SECT":" ","MAREA":"角帶圍","LANE":" ","ALLEY":" ","HOUSE_NO":"８１號之１","E_COORD97":174819.16,"N_COORD97":2575667.8300000001,"ADDRESS":"角帶圍８１號之１","OBJECTID":48250},"geometry":{"x":174819.16000000108,"y":2575667.8300000038}},{"attributes":{"ID":48251,"DIS_CODE":0,"TOWNNAME":"新營區","LI":"角帶里","LIN":" ","STREET":" ","SECT":" ","MAREA":"角帶圍","LANE":" ","ALLEY":" ","HOUSE_NO":"８０號","E_COORD97":174762.32000000001,"N_COORD97":2575644.7999999998,"ADDRESS":"角帶圍８０號","OBJECTID":48251},"geometry":{"x":174762.32000000123,"y":2575644.7999999989}},{"attributes":{"ID":48252,"DIS_CODE":0,"TOWNNAME":"新營區","LI":"五興里","LIN":"7鄰","STREET":" ","SECT":" ","MAREA":"五間厝","LANE":" ","ALLEY":" ","HOUSE_NO":"７８號之１","E_COORD97":175732.59,"N_COORD97":2574622.21,"ADDRESS":"五間厝７８之１號","OBJECTID":48252},"geometry":{"x":175732.59000000078,"y":2574622.2100000028}},{"attributes":{"ID":48253,"DIS_CODE":0,"TOWNNAME":"仁德區","LI":"中生里","LIN":"15鄰","STREET":" ","SECT":" ","MAREA":"中洲","LANE":" ","ALLEY":" ","HOUSE_NO":"２５１號之１６","E_COORD97":173260.53,"N_COORD97":2533947.29,"ADDRESS":"中洲２５１號之１６","OBJECTID":48253},"geometry":{"x":173260.53000000119,"y":2533947.2899999991}},{"attributes":{"ID":48254,"DIS_CODE":0,"TOWNNAME":"仁德區","LI":"中洲里","LIN":"15鄰","STREET":" ","SECT":" ","MAREA":"中洲","LANE":" ","ALLEY":" ","HOUSE_NO":"３８４號","E_COORD97":173373.45999999999,"N_COORD97":2534238.4900000002,"ADDRESS":"中洲３８４號","OBJECTID":48254},"geometry":{"x":173373.45999999996,"y":2534238.4900000002}},{"attributes":{"ID":48255,"DIS_CODE":0,"TOWNNAME":"仁德區","LI":"中洲里","LIN":"15鄰","STREET":" ","SECT":" ","MAREA":"中洲","LANE":" ","ALLEY":" ","HOUSE_NO":"３８５號之４","E_COORD97":173403.10999999999,"N_COORD97":2534284.29,"ADDRESS":"中洲３８５號之４","OBJECTID":48255},"geometry":{"x":173403.11000000034,"y":2534284.2900000028}},{"attributes":{"ID":48256,"DIS_CODE":0,"TOWNNAME":"安南區","LI":"安東里","LIN":"17鄰","STREET":"安和路","SECT":"一段","MAREA":" ","LANE":" ","ALLEY":" ","HOUSE_NO":"４８４號","E_COORD97":169406.94,"N_COORD97":2548460.2799999998,"ADDRESS":"安和路一段４８４號","OBJECTID":48256},"geometry":{"x":169406.94000000041,"y":2548460.2800000012}},{"attributes":{"ID":48257,"DIS_CODE":0,"TOWNNAME":"安南區","LI":"安東里","LIN":"17鄰","STREET":"安和路","SECT":"一段","MAREA":" ","LANE":" ","ALLEY":" ","HOUSE_NO":"４８８號","E_COORD97":169409.17999999999,"N_COORD97":2548469.77,"ADDRESS":"安和路一段４８８號","OBJECTID":48257},"geometry":{"x":169409.18000000063,"y":2548469.7699999996}},{"attributes":{"ID":48258,"DIS_CODE":0,"TOWNNAME":"安南區","LI":"安東里","LIN":"17鄰","STREET":"安和路","SECT":"一段","MAREA":" ","LANE":" ","ALLEY":" ","HOUSE_NO":"４９０號","E_COORD97":169413.64999999999,"N_COORD97":2548477.5899999999,"ADDRESS":"安和路一段４９０號","OBJECTID":48258},"geometry":{"x":169413.6500000013,"y":2548477.5899999999}},{"attributes":{"ID":48259,"DIS_CODE":0,"TOWNNAME":"安南區","LI":"安東里","LIN":"17鄰","STREET":"安和路","SECT":"一段","MAREA":" ","LANE":" ","ALLEY":" ","HOUSE_NO":"４９４號","E_COORD97":169417.14000000001,"N_COORD97":2548486.6699999999,"ADDRESS":"安和路一段４９４號","OBJECTID":48259},"geometry":{"x":169417.13999999966,"y":2548486.6699999999}},{"attributes":{"ID":48260,"DIS_CODE":0,"TOWNNAME":"安南區","LI":"溪墘里","LIN":"17鄰","STREET":"海佃路","SECT":"一段","MAREA":" ","LANE":" ","ALLEY":" ","HOUSE_NO":"３５４號","E_COORD97":167093.97,"N_COORD97":2547555.1600000001,"ADDRESS":"海佃路一段３５４號","OBJECTID":48260},"geometry":{"x":167093.96999999974,"y":2547555.1600000001}},{"attributes":{"ID":48261,"DIS_CODE":0,"TOWNNAME":"安南區","LI":"溪墘里","LIN":"17鄰","STREET":"海佃路","SECT":"一段","MAREA":" ","LANE":" ","ALLEY":" ","HOUSE_NO":"３５６號","E_COORD97":167092.54999999999,"N_COORD97":2547559.6299999999,"ADDRESS":"海佃路一段３５６號","OBJECTID":48261},"geometry":{"x":167092.55000000075,"y":2547559.6300000008}},{"attributes":{"ID":48262,"DIS_CODE":0,"TOWNNAME":"安南區","LI":"溪墘里","LIN":"17鄰","STREET":"海佃路","SECT":"一段","MAREA":" ","LANE":" ","ALLEY":" ","HOUSE_NO":"３５８號","E_COORD97":167091.91,"N_COORD97":2547564.4500000002,"ADDRESS":"海佃路一段３５８號","OBJECTID":48262},"geometry":{"x":167091.91000000201,"y":2547564.4500000011}},{"attributes":{"ID":48263,"DIS_CODE":0,"TOWNNAME":"仁德區","LI":"中洲里","LIN":"15鄰","STREET":" ","SECT":" ","MAREA":"中洲","LANE":" ","ALLEY":" ","HOUSE_NO":"３８１之２６號","E_COORD97":173700.04999999999,"N_COORD97":2534276.04,"ADDRESS":"中洲３８１之２６號","OBJECTID":48263},"geometry":{"x":173700.05000000168,"y":2534276.040000001}},{"attributes":{"ID":48264,"DIS_CODE":0,"TOWNNAME":"北區","LI":"永祥里","LIN":"15鄰","STREET":"實踐街","SECT":" ","MAREA":" ","LANE":"１０３巷","ALLEY":"３９弄","HOUSE_NO":"１３號","E_COORD97":170160.70999999999,"N_COORD97":2546262.0600000001,"ADDRESS":"實踐街１０３巷３９弄１３號","OBJECTID":48264},"geometry":{"x":170160.70999999996,"y":2546262.0600000042}},{"attributes":{"ID":48265,"DIS_CODE":0,"TOWNNAME":"北區","LI":"永祥里","LIN":"15鄰","STREET":"實踐街","SECT":" ","MAREA":" ","LANE":"１０３巷","ALLEY":"３９弄","HOUSE_NO":"１５號","E_COORD97":170156.5,"N_COORD97":2546262.25,"ADDRESS":"實踐街１０３巷３９弄１５號","OBJECTID":48265},"geometry":{"x":170156.50000000093,"y":2546262.25}},{"attributes":{"ID":48266,"DIS_CODE":0,"TOWNNAME":"北區","LI":"永祥里","LIN":"15鄰","STREET":"實踐街","SECT":" ","MAREA":" ","LANE":"１０３巷","ALLEY":"３９弄","HOUSE_NO":"１７號","E_COORD97":170152.38,"N_COORD97":2546261.96,"ADDRESS":"實踐街１０３巷３９弄１７號","OBJECTID":48266},"geometry":{"x":170152.38000000082,"y":2546261.9600000009}},{"attributes":{"ID":48267,"DIS_CODE":0,"TOWNNAME":"北區","LI":"永祥里","LIN":"15鄰","STREET":"實踐街","SECT":" ","MAREA":" ","LANE":"１０３巷","ALLEY":"３９弄","HOUSE_NO":"１９號","E_COORD97":170148.17000000001,"N_COORD97":2546261.7599999998,"ADDRESS":"實踐街１０３巷３９弄１９號","OBJECTID":48267},"geometry":{"x":170148.17000000086,"y":2546261.7599999998}},{"attributes":{"ID":48268,"DIS_CODE":0,"TOWNNAME":"北區","LI":"永祥里","LIN":"15鄰","STREET":"實踐街","SECT":" ","MAREA":" ","LANE":"１０３巷","ALLEY":"３９弄","HOUSE_NO":"１號","E_COORD97":170188.34,"N_COORD97":2546263.8700000001,"ADDRESS":"實踐街１０３巷３９弄１號","OBJECTID":48268},"geometry":{"x":170188.33999999985,"y":2546263.8700000048}},{"attributes":{"ID":48269,"DIS_CODE":0,"TOWNNAME":"北區","LI":"永祥里","LIN":"15鄰","STREET":"實踐街","SECT":" ","MAREA":" ","LANE":"１０３巷","ALLEY":"３９弄","HOUSE_NO":"２１號","E_COORD97":170144.14999999999,"N_COORD97":2546261.8599999999,"ADDRESS":"實踐街１０３巷３９弄２１號","OBJECTID":48269},"geometry":{"x":170144.1500000013,"y":2546261.8599999994}},{"attributes":{"ID":48270,"DIS_CODE":0,"TOWNNAME":"北區","LI":"永祥里","LIN":"15鄰","STREET":"實踐街","SECT":" ","MAREA":" ","LANE":"１０３巷","ALLEY":"３９弄","HOUSE_NO":"２３號","E_COORD97":170140.62,"N_COORD97":2546261.7599999998,"ADDRESS":"實踐街１０３巷３９弄２３號","OBJECTID":48270},"geometry":{"x":170140.62000000104,"y":2546261.7599999998}},{"attributes":{"ID":48271,"DIS_CODE":0,"TOWNNAME":"仁德區","LI":"中洲里","LIN":"15鄰","STREET":" ","SECT":" ","MAREA":"中洲","LANE":" ","ALLEY":" ","HOUSE_NO":"３８４號之１","E_COORD97":173383.73000000001,"N_COORD97":2534246.54,"ADDRESS":"中洲３８４號之１","OBJECTID":48271},"geometry":{"x":173383.73000000045,"y":2534246.540000001}},{"attributes":{"ID":48272,"DIS_CODE":0,"TOWNNAME":"善化區","LI":"牛庄里","LIN":"15鄰","STREET":" ","SECT":" ","MAREA":"牛庄","LANE":" ","ALLEY":" ","HOUSE_NO":"１３５號之１７","E_COORD97":179895.23999999999,"N_COORD97":2559987.27,"ADDRESS":"牛庄１３５號之１７","OBJECTID":48272},"geometry":{"x":179895.24000000209,"y":2559987.2700000033}},{"attributes":{"ID":48273,"DIS_CODE":0,"TOWNNAME":"善化區","LI":"小新里","LIN":"15鄰","STREET":" ","SECT":" ","MAREA":"小新營","LANE":" ","ALLEY":" ","HOUSE_NO":"１１２號之１","E_COORD97":179806.45999999999,"N_COORD97":2558100.02,"ADDRESS":"小新營１１２號之１","OBJECTID":48273},"geometry":{"x":179806.45999999996,"y":2558100.0199999996}},{"attributes":{"ID":48274,"DIS_CODE":0,"TOWNNAME":"善化區","LI":"六德里","LIN":"15鄰","STREET":" ","SECT":" ","MAREA":"六分寮","LANE":" ","ALLEY":" ","HOUSE_NO":"３２５之９號","E_COORD97":178438.19,"N_COORD97":2561459.27,"ADDRESS":"六分寮３２５之９號","OBJECTID":48274},"geometry":{"x":178438.19000000134,"y":2561459.2700000014}},{"attributes":{"ID":48275,"DIS_CODE":0,"TOWNNAME":"北區","LI":"永祥里","LIN":"15鄰","STREET":"實踐街","SECT":" ","MAREA":" ","LANE":"１０３巷","ALLEY":"３９弄","HOUSE_NO":"２５號","E_COORD97":170136.60999999999,"N_COORD97":2546261.6600000001,"ADDRESS":"實踐街１０３巷３９弄２５號","OBJECTID":48275},"geometry":{"x":170136.61000000034,"y":2546261.660000002}},{"attributes":{"ID":48276,"DIS_CODE":0,"TOWNNAME":"北區","LI":"永祥里","LIN":"15鄰","STREET":"實踐街","SECT":" ","MAREA":" ","LANE":"１０３巷","ALLEY":"３９弄","HOUSE_NO":"２７號","E_COORD97":170132.48999999999,"N_COORD97":2546261.8599999999,"ADDRESS":"實踐街１０３巷３９弄２７號","OBJECTID":48276},"geometry":{"x":170132.48999999929,"y":2546261.8599999994}},{"attributes":{"ID":48277,"DIS_CODE":0,"TOWNNAME":"北區","LI":"永祥里","LIN":"15鄰","STREET":"實踐街","SECT":" ","MAREA":" ","LANE":"１０３巷","ALLEY":"３９弄","HOUSE_NO":"２９號","E_COORD97":170128.17999999999,"N_COORD97":2546262.0600000001,"ADDRESS":"實踐街１０３巷３９弄２９號","OBJECTID":48277},"geometry":{"x":170128.1799999997,"y":2546262.0600000042}},{"attributes":{"ID":48278,"DIS_CODE":0,"TOWNNAME":"北區","LI":"永祥里","LIN":"15鄰","STREET":"實踐街","SECT":" ","MAREA":" ","LANE":"１０３巷","ALLEY":"３９弄","HOUSE_NO":"３１號","E_COORD97":170124.45999999999,"N_COORD97":2546262.1499999999,"ADDRESS":"實踐街１０３巷３９弄３１號","OBJECTID":48278},"geometry":{"x":170124.46000000089,"y":2546262.1500000022}},{"attributes":{"ID":48279,"DIS_CODE":0,"TOWNNAME":"北區","LI":"永祥里","LIN":"15鄰","STREET":"實踐街","SECT":" ","MAREA":" ","LANE":"１０３巷","ALLEY":"３９弄","HOUSE_NO":"３３號","E_COORD97":170119.95000000001,"N_COORD97":2546262.1499999999,"ADDRESS":"實踐街１０３巷３９弄３３號","OBJECTID":48279},"geometry":{"x":170119.95000000112,"y":2546262.1500000022}},{"attributes":{"ID":48280,"DIS_CODE":0,"TOWNNAME":"北區","LI":"永祥里","LIN":"15鄰","STREET":"實踐街","SECT":" ","MAREA":" ","LANE":"１０３巷","ALLEY":"３９弄","HOUSE_NO":"３５號","E_COORD97":170116.13,"N_COORD97":2546262.1499999999,"ADDRESS":"實踐街１０３巷３９弄３５號","OBJECTID":48280},"geometry":{"x":170116.13000000175,"y":2546262.1500000022}},{"attributes":{"ID":48281,"DIS_CODE":0,"TOWNNAME":"北區","LI":"永祥里","LIN":"15鄰","STREET":"實踐街","SECT":" ","MAREA":" ","LANE":"１０３巷","ALLEY":"３９弄","HOUSE_NO":"３７號","E_COORD97":170111.23000000001,"N_COORD97":2546261.96,"ADDRESS":"實踐街１０３巷３９弄３７號","OBJECTID":48281},"geometry":{"x":170111.23000000138,"y":2546261.9600000009}},{"attributes":{"ID":48282,"DIS_CODE":0,"TOWNNAME":"北區","LI":"永祥里","LIN":"15鄰","STREET":"實踐街","SECT":" ","MAREA":" ","LANE":"１０３巷","ALLEY":"３９弄","HOUSE_NO":"３９號","E_COORD97":170107.12,"N_COORD97":2546261.96,"ADDRESS":"實踐街１０３巷３９弄３９號","OBJECTID":48282},"geometry":{"x":170107.12000000011,"y":2546261.9600000009}},{"attributes":{"ID":48283,"DIS_CODE":0,"TOWNNAME":"北區","LI":"永祥里","LIN":"15鄰","STREET":"實踐街","SECT":" ","MAREA":" ","LANE":"１０３巷","ALLEY":"３９弄","HOUSE_NO":"３號","E_COORD97":170183.95000000001,"N_COORD97":2546262.75,"ADDRESS":"實踐街１０３巷３９弄３號","OBJECTID":48283},"geometry":{"x":170183.95000000112,"y":2546262.75}},{"attributes":{"ID":48284,"DIS_CODE":0,"TOWNNAME":"北區","LI":"永祥里","LIN":"15鄰","STREET":"實踐街","SECT":" ","MAREA":" ","LANE":"１０３巷","ALLEY":"３９弄","HOUSE_NO":"５號","E_COORD97":170179.14999999999,"N_COORD97":2546262.75,"ADDRESS":"實踐街１０３巷３９弄５號","OBJECTID":48284},"geometry":{"x":170179.15000000224,"y":2546262.75}},{"attributes":{"ID":48285,"DIS_CODE":0,"TOWNNAME":"北區","LI":"永祥里","LIN":"15鄰","STREET":"實踐街","SECT":" ","MAREA":" ","LANE":"１０３巷","ALLEY":"３９弄","HOUSE_NO":"７號","E_COORD97":170174.32999999999,"N_COORD97":2546262.4500000002,"ADDRESS":"實踐街１０３巷３９弄７號","OBJECTID":48285},"geometry":{"x":170174.33000000101,"y":2546262.4500000011}},{"attributes":{"ID":48286,"DIS_CODE":0,"TOWNNAME":"北區","LI":"永祥里","LIN":"15鄰","STREET":"實踐街","SECT":" ","MAREA":" ","LANE":"１０３巷","ALLEY":"３９弄","HOUSE_NO":"９號","E_COORD97":170169.92000000001,"N_COORD97":2546262.25,"ADDRESS":"實踐街１０３巷３９弄９號","OBJECTID":48286},"geometry":{"x":170169.91999999899,"y":2546262.25}},{"attributes":{"ID":48287,"DIS_CODE":0,"TOWNNAME":"北區","LI":"小康里","LIN":"15鄰","STREET":"大武街","SECT":" ","MAREA":" ","LANE":"３３７巷","ALLEY":"１０弄","HOUSE_NO":"１號","E_COORD97":169760.20000000001,"N_COORD97":2546444.8900000001,"ADDRESS":"大武街３３７巷１０弄１號","OBJECTID":48287},"geometry":{"x":169760.20000000112,"y":2546444.8900000006}},{"attributes":{"ID":48288,"DIS_CODE":0,"TOWNNAME":"北區","LI":"小康里","LIN":"15鄰","STREET":"大武街","SECT":" ","MAREA":" ","LANE":"３３７巷","ALLEY":"１０弄","HOUSE_NO":"３號","E_COORD97":169767.72,"N_COORD97":2546443.96,"ADDRESS":"大武街３３７巷１０弄３號","OBJECTID":48288},"geometry":{"x":169767.7200000016,"y":2546443.9600000028}},{"attributes":{"ID":48289,"DIS_CODE":0,"TOWNNAME":"北區","LI":"小康里","LIN":"15鄰","STREET":"大武街","SECT":" ","MAREA":" ","LANE":"３３７巷","ALLEY":"２弄","HOUSE_NO":"１１號","E_COORD97":169757.37,"N_COORD97":2546412.7200000002,"ADDRESS":"大武街３３７巷２弄１１號","OBJECTID":48289},"geometry":{"x":169757.37000000104,"y":2546412.7200000007}},{"attributes":{"ID":48290,"DIS_CODE":0,"TOWNNAME":"北區","LI":"小康里","LIN":"15鄰","STREET":"大武街","SECT":" ","MAREA":" ","LANE":"３３７巷","ALLEY":"２弄","HOUSE_NO":"１３號","E_COORD97":169761.73000000001,"N_COORD97":2546414.2799999998,"ADDRESS":"大武街３３７巷２弄１３號","OBJECTID":48290},"geometry":{"x":169761.73000000231,"y":2546414.2799999993}},{"attributes":{"ID":48291,"DIS_CODE":0,"TOWNNAME":"北區","LI":"小康里","LIN":"15鄰","STREET":"大武街","SECT":" ","MAREA":" ","LANE":"３３７巷","ALLEY":"２弄","HOUSE_NO":"１５號","E_COORD97":169765.60999999999,"N_COORD97":2546415.3599999999,"ADDRESS":"大武街３３７巷２弄１５號","OBJECTID":48291},"geometry":{"x":169765.6099999994,"y":2546415.3600000013}},{"attributes":{"ID":48292,"DIS_CODE":0,"TOWNNAME":"北區","LI":"小康里","LIN":"15鄰","STREET":"大武街","SECT":" ","MAREA":" ","LANE":"３３７巷","ALLEY":"２弄","HOUSE_NO":"１７號","E_COORD97":169769.64999999999,"N_COORD97":2546416.2999999998,"ADDRESS":"大武街３３７巷２弄１７號","OBJECTID":48292},"geometry":{"x":169769.6500000013,"y":2546416.3000000007}},{"attributes":{"ID":48293,"DIS_CODE":0,"TOWNNAME":"新營區","LI":"太北里","LIN":"17鄰","STREET":" ","SECT":" ","MAREA":"太子宮","LANE":" ","ALLEY":" ","HOUSE_NO":"１４７之２０號","E_COORD97":175442.67000000001,"N_COORD97":2577106.6000000001,"ADDRESS":"太子宮１４７之２０號","OBJECTID":48293},"geometry":{"x":175442.67000000086,"y":2577106.6000000034}},{"attributes":{"ID":48294,"DIS_CODE":0,"TOWNNAME":"善化區","LI":"六德里","LIN":"15鄰","STREET":" ","SECT":" ","MAREA":"六分寮","LANE":" ","ALLEY":" ","HOUSE_NO":"３２５之１８號","E_COORD97":178407.64999999999,"N_COORD97":2561469.77,"ADDRESS":"六分寮３２５之１８號","OBJECTID":48294},"geometry":{"x":178407.65000000224,"y":2561469.7700000014}},{"attributes":{"ID":48295,"DIS_CODE":0,"TOWNNAME":"北區","LI":"小康里","LIN":"15鄰","STREET":"大武街","SECT":" ","MAREA":" ","LANE":"３３７巷","ALLEY":"２弄","HOUSE_NO":"１９號","E_COORD97":169773.70000000001,"N_COORD97":2546417.54,"ADDRESS":"大武街３３７巷２弄１９號","OBJECTID":48295},"geometry":{"x":169773.70000000112,"y":2546417.540000001}},{"attributes":{"ID":48296,"DIS_CODE":0,"TOWNNAME":"北區","LI":"小康里","LIN":"15鄰","STREET":"大武街","SECT":" ","MAREA":" ","LANE":"３３７巷","ALLEY":"２弄","HOUSE_NO":"１號","E_COORD97":169733.42999999999,"N_COORD97":2546408.6800000002,"ADDRESS":"大武街３３７巷２弄１號","OBJECTID":48296},"geometry":{"x":169733.4299999997,"y":2546408.6799999997}},{"attributes":{"ID":48297,"DIS_CODE":0,"TOWNNAME":"北區","LI":"小康里","LIN":"15鄰","STREET":"大武街","SECT":" ","MAREA":" ","LANE":"３３７巷","ALLEY":"２弄","HOUSE_NO":"２１號","E_COORD97":169779.60000000001,"N_COORD97":2546418.9399999999,"ADDRESS":"大武街３３７巷２弄２１號","OBJECTID":48297},"geometry":{"x":169779.59999999963,"y":2546418.9400000013}},{"attributes":{"ID":48298,"DIS_CODE":0,"TOWNNAME":"北區","LI":"小康里","LIN":"15鄰","STREET":"大武街","SECT":" ","MAREA":" ","LANE":"３３７巷","ALLEY":"２弄","HOUSE_NO":"２３號","E_COORD97":169785.04000000001,"N_COORD97":2546420.3399999999,"ADDRESS":"大武街３３７巷２弄２３號","OBJECTID":48298},"geometry":{"x":169785.04000000097,"y":2546420.3400000017}},{"attributes":{"ID":48299,"DIS_CODE":0,"TOWNNAME":"北區","LI":"小康里","LIN":"15鄰","STREET":"大武街","SECT":" ","MAREA":" ","LANE":"３３７巷","ALLEY":"２弄","HOUSE_NO":"２５號","E_COORD97":169790.17000000001,"N_COORD97":2546422.2000000002,"ADDRESS":"大武街３３７巷２弄２５號","OBJECTID":48299},"geometry":{"x":169790.16999999899,"y":2546422.1999999993}},{"attributes":{"ID":48300,"DIS_CODE":0,"TOWNNAME":"北區","LI":"小康里","LIN":"15鄰","STREET":"大武街","SECT":" ","MAREA":" ","LANE":"３３７巷","ALLEY":"２弄","HOUSE_NO":"２７號","E_COORD97":169795.29999999999,"N_COORD97":2546422.98,"ADDRESS":"大武街３３７巷２弄２７號","OBJECTID":48300},"geometry":{"x":169795.29999999981,"y":2546422.9800000023}},{"attributes":{"ID":48301,"DIS_CODE":0,"TOWNNAME":"北區","LI":"小康里","LIN":"15鄰","STREET":"大武街","SECT":" ","MAREA":" ","LANE":"３３７巷","ALLEY":"２弄","HOUSE_NO":"２９號","E_COORD97":169800.28,"N_COORD97":2546424.0600000001,"ADDRESS":"大武街３３７巷２弄２９號","OBJECTID":48301},"geometry":{"x":169800.28000000119,"y":2546424.0600000005}},{"attributes":{"ID":48302,"DIS_CODE":0,"TOWNNAME":"北區","LI":"小康里","LIN":"15鄰","STREET":"大武街","SECT":" ","MAREA":" ","LANE":"３３７巷","ALLEY":"２弄","HOUSE_NO":"３１號","E_COORD97":169804.48000000001,"N_COORD97":2546424.8399999999,"ADDRESS":"大武街３３７巷２弄３１號","OBJECTID":48302},"geometry":{"x":169804.48000000138,"y":2546424.8399999999}},{"attributes":{"ID":48303,"DIS_CODE":0,"TOWNNAME":"北區","LI":"小康里","LIN":"15鄰","STREET":"大武街","SECT":" ","MAREA":" ","LANE":"３３７巷","ALLEY":"２弄","HOUSE_NO":"３３號","E_COORD97":169808.82999999999,"N_COORD97":2546426.0800000001,"ADDRESS":"大武街３３７巷２弄３３號","OBJECTID":48303},"geometry":{"x":169808.83000000101,"y":2546426.0800000001}},{"attributes":{"ID":48304,"DIS_CODE":0,"TOWNNAME":"北區","LI":"小康里","LIN":"15鄰","STREET":"大武街","SECT":" ","MAREA":" ","LANE":"３３７巷","ALLEY":"２弄","HOUSE_NO":"３５號","E_COORD97":169812.87,"N_COORD97":2546425,"ADDRESS":"大武街３３７巷２弄３５號","OBJECTID":48304},"geometry":{"x":169812.87000000197,"y":2546425.0000000019}},{"attributes":{"ID":48305,"DIS_CODE":0,"TOWNNAME":"北區","LI":"小康里","LIN":"15鄰","STREET":"大武街","SECT":" ","MAREA":" ","LANE":"３３７巷","ALLEY":"２弄","HOUSE_NO":"３號","E_COORD97":169739.34,"N_COORD97":2546409.6200000001,"ADDRESS":"大武街３３７巷２弄３號","OBJECTID":48305},"geometry":{"x":169739.33999999985,"y":2546409.6200000029}},{"attributes":{"ID":48306,"DIS_CODE":0,"TOWNNAME":"北區","LI":"小康里","LIN":"15鄰","STREET":"大武街","SECT":" ","MAREA":" ","LANE":"３３７巷","ALLEY":"２弄","HOUSE_NO":"５號","E_COORD97":169744,"N_COORD97":2546411.48,"ADDRESS":"大武街３３７巷２弄５號","OBJECTID":48306},"geometry":{"x":169744.00000000186,"y":2546411.4799999986}},{"attributes":{"ID":48307,"DIS_CODE":0,"TOWNNAME":"善化區","LI":"六德里","LIN":"15鄰","STREET":" ","SECT":" ","MAREA":"六分寮","LANE":" ","ALLEY":" ","HOUSE_NO":"３２５之８號","E_COORD97":178420.70000000001,"N_COORD97":2561442.77,"ADDRESS":"六分寮３２５之８號","OBJECTID":48307},"geometry":{"x":178420.70000000205,"y":2561442.7700000014}},{"attributes":{"ID":48308,"DIS_CODE":0,"TOWNNAME":"北區","LI":"小康里","LIN":"15鄰","STREET":"大武街","SECT":" ","MAREA":" ","LANE":"３３７巷","ALLEY":"２弄","HOUSE_NO":"７號","E_COORD97":169748.51000000001,"N_COORD97":2546411.3300000001,"ADDRESS":"大武街３３７巷２弄７號","OBJECTID":48308},"geometry":{"x":169748.50999999978,"y":2546411.3300000001}},{"attributes":{"ID":48309,"DIS_CODE":0,"TOWNNAME":"北區","LI":"小康里","LIN":"15鄰","STREET":"大武街","SECT":" ","MAREA":" ","LANE":"３３７巷","ALLEY":"２弄","HOUSE_NO":"９號","E_COORD97":169752.85999999999,"N_COORD97":2546411.9500000002,"ADDRESS":"大武街３３７巷２弄９號","OBJECTID":48309},"geometry":{"x":169752.86000000127,"y":2546411.9500000011}},{"attributes":{"ID":48310,"DIS_CODE":0,"TOWNNAME":"安平區","LI":"國平里","LIN":"15鄰","STREET":"華平路","SECT":" ","MAREA":" ","LANE":"２１巷","ALLEY":"１８弄","HOUSE_NO":"４１號","E_COORD97":165272.67999999999,"N_COORD97":2542903.4399999999,"ADDRESS":"華平路２１巷１８弄４１號","OBJECTID":48310},"geometry":{"x":165272.68000000063,"y":2542903.4400000013}},{"attributes":{"ID":48311,"DIS_CODE":0,"TOWNNAME":"新營區","LI":"南興里","LIN":"17鄰","STREET":"建業路","SECT":" ","MAREA":" ","LANE":" ","ALLEY":" ","HOUSE_NO":"１４６號","E_COORD97":179122.42999999999,"N_COORD97":2577498.2400000002,"ADDRESS":"建業路１４６號","OBJECTID":48311},"geometry":{"x":179122.43000000063,"y":2577498.2400000002}},{"attributes":{"ID":48312,"DIS_CODE":0,"TOWNNAME":"新營區","LI":"新南里","LIN":"17鄰","STREET":"隋唐街","SECT":" ","MAREA":" ","LANE":" ","ALLEY":" ","HOUSE_NO":"１９７號","E_COORD97":178405.09,"N_COORD97":2578500.6000000001,"ADDRESS":"隋唐街１９７號","OBJECTID":48312},"geometry":{"x":178405.08999999985,"y":2578500.6000000015}},{"attributes":{"ID":48313,"DIS_CODE":0,"TOWNNAME":"善化區","LI":"六德里","LIN":"15鄰","STREET":" ","SECT":" ","MAREA":"六分寮","LANE":" ","ALLEY":" ","HOUSE_NO":"３２５之１６號","E_COORD97":178410.54000000001,"N_COORD97":2561464.27,"ADDRESS":"六分寮３２５之１６號","OBJECTID":48313},"geometry":{"x":178410.54000000004,"y":2561464.2699999996}},{"attributes":{"ID":48314,"DIS_CODE":0,"TOWNNAME":"善化區","LI":"六德里","LIN":"15鄰","STREET":" ","SECT":" ","MAREA":"六分寮","LANE":" ","ALLEY":" ","HOUSE_NO":"３２５之１３號","E_COORD97":178435.29000000001,"N_COORD97":2561470.77,"ADDRESS":"六分寮３２５之１３號","OBJECTID":48314},"geometry":{"x":178435.29000000097,"y":2561470.7699999996}},{"attributes":{"ID":48315,"DIS_CODE":0,"TOWNNAME":"善化區","LI":"六德里","LIN":"15鄰","STREET":" ","SECT":" ","MAREA":"六分寮","LANE":" ","ALLEY":" ","HOUSE_NO":"３２５之２８號","E_COORD97":178390.20999999999,"N_COORD97":2561482.52,"ADDRESS":"六分寮３２５之２８號","OBJECTID":48315},"geometry":{"x":178390.21000000089,"y":2561482.5199999996}},{"attributes":{"ID":48316,"DIS_CODE":0,"TOWNNAME":"善化區","LI":"六德里","LIN":"15鄰","STREET":" ","SECT":" ","MAREA":"六分寮","LANE":" ","ALLEY":" ","HOUSE_NO":"３２２號之２","E_COORD97":178491.25,"N_COORD97":2561447.27,"ADDRESS":"六分寮３２２號之２","OBJECTID":48316},"geometry":{"x":178491.25000000186,"y":2561447.2699999996}},{"attributes":{"ID":48317,"DIS_CODE":0,"TOWNNAME":"善化區","LI":"六德里","LIN":"15鄰","STREET":" ","SECT":" ","MAREA":"六分寮","LANE":" ","ALLEY":" ","HOUSE_NO":"３２５之３號","E_COORD97":178435.5,"N_COORD97":2561417.77,"ADDRESS":"六分寮３２５之３號","OBJECTID":48317},"geometry":{"x":178435.50000000093,"y":2561417.7699999977}},{"attributes":{"ID":48318,"DIS_CODE":0,"TOWNNAME":"善化區","LI":"六德里","LIN":"15鄰","STREET":" ","SECT":" ","MAREA":"六分寮","LANE":" ","ALLEY":" ","HOUSE_NO":"３２５之１７號","E_COORD97":178432.73999999999,"N_COORD97":2561482.77,"ADDRESS":"六分寮３２５之１７號","OBJECTID":48318},"geometry":{"x":178432.74000000115,"y":2561482.7700000014}},{"attributes":{"ID":48319,"DIS_CODE":0,"TOWNNAME":"善化區","LI":"六德里","LIN":"15鄰","STREET":" ","SECT":" ","MAREA":"六分寮","LANE":" ","ALLEY":" ","HOUSE_NO":"３２５之２４號","E_COORD97":178375.23999999999,"N_COORD97":2561512.77,"ADDRESS":"六分寮３２５之２４號","OBJECTID":48319},"geometry":{"x":178375.24000000115,"y":2561512.7699999977}},{"attributes":{"ID":48320,"DIS_CODE":0,"TOWNNAME":"新營區","LI":"姑爺里","LIN":"8鄰","STREET":" ","SECT":" ","MAREA":"挖仔","LANE":" ","ALLEY":" ","HOUSE_NO":"１６號","E_COORD97":173832.48999999999,"N_COORD97":2575487.8500000001,"ADDRESS":"挖仔１６號","OBJECTID":48320},"geometry":{"x":173832.49000000022,"y":2575487.8500000034}},{"attributes":{"ID":48321,"DIS_CODE":0,"TOWNNAME":"大內區","LI":"石城里","LIN":"15鄰","STREET":" ","SECT":" ","MAREA":"石子瀨","LANE":" ","ALLEY":" ","HOUSE_NO":"１２２號之８４","E_COORD97":183894.78,"N_COORD97":2557812.2999999998,"ADDRESS":"石子瀨１２２號之８４","OBJECTID":48321},"geometry":{"x":183894.78000000026,"y":2557812.3000000026}},{"attributes":{"ID":48322,"DIS_CODE":0,"TOWNNAME":"大內區","LI":"石城里","LIN":"15鄰","STREET":" ","SECT":" ","MAREA":"石子瀨","LANE":" ","ALLEY":" ","HOUSE_NO":"１２２號之２０１","E_COORD97":183948.5,"N_COORD97":2557635.2999999998,"ADDRESS":"石子瀨１２２號之２０１","OBJECTID":48322},"geometry":{"x":183948.50000000093,"y":2557635.3000000045}},{"attributes":{"ID":48323,"DIS_CODE":0,"TOWNNAME":"大內區","LI":"石城里","LIN":"15鄰","STREET":" ","SECT":" ","MAREA":"石子瀨","LANE":" ","ALLEY":" ","HOUSE_NO":"１２２號之８５","E_COORD97":183898.20999999999,"N_COORD97":2557814.2999999998,"ADDRESS":"石子瀨１２２號之８５","OBJECTID":48323},"geometry":{"x":183898.21000000089,"y":2557814.3000000007}},{"attributes":{"ID":48324,"DIS_CODE":0,"TOWNNAME":"安平區","LI":"國平里","LIN":"15鄰","STREET":"華平路","SECT":" ","MAREA":" ","LANE":"２１巷","ALLEY":"１８弄","HOUSE_NO":"４２號","E_COORD97":165287.42000000001,"N_COORD97":2542914.9399999999,"ADDRESS":"華平路２１巷１８弄４２號","OBJECTID":48324},"geometry":{"x":165287.41999999993,"y":2542914.9399999995}},{"attributes":{"ID":48325,"DIS_CODE":0,"TOWNNAME":"安平區","LI":"國平里","LIN":"15鄰","STREET":"華平路","SECT":" ","MAREA":" ","LANE":"２１巷","ALLEY":"１８弄","HOUSE_NO":"４２號之１","E_COORD97":165285.60999999999,"N_COORD97":2542908.48,"ADDRESS":"華平路２１巷１８弄４２號之１","OBJECTID":48325},"geometry":{"x":165285.61000000127,"y":2542908.4800000004}},{"attributes":{"ID":48326,"DIS_CODE":0,"TOWNNAME":"安平區","LI":"國平里","LIN":"15鄰","STREET":"華平路","SECT":" ","MAREA":" ","LANE":"２１巷","ALLEY":"１８弄","HOUSE_NO":"４３號","E_COORD97":165274.89999999999,"N_COORD97":2542911.71,"ADDRESS":"華平路２１巷１８弄４３號","OBJECTID":48326},"geometry":{"x":165274.90000000224,"y":2542911.7100000046}},{"attributes":{"ID":48327,"DIS_CODE":0,"TOWNNAME":"安平區","LI":"國平里","LIN":"15鄰","STREET":"華平路","SECT":" ","MAREA":" ","LANE":"２１巷","ALLEY":"１８弄","HOUSE_NO":"４５號","E_COORD97":165276.10999999999,"N_COORD97":2542917.5600000001,"ADDRESS":"華平路２１巷１８弄４５號","OBJECTID":48327},"geometry":{"x":165276.11000000034,"y":2542917.5600000005}},{"attributes":{"ID":48328,"DIS_CODE":0,"TOWNNAME":"安平區","LI":"國平里","LIN":"15鄰","STREET":"華平路","SECT":" ","MAREA":" ","LANE":"２１巷","ALLEY":"１８弄","HOUSE_NO":"４６號","E_COORD97":165284.79999999999,"N_COORD97":2542901.6200000001,"ADDRESS":"華平路２１巷１８弄４６號","OBJECTID":48328},"geometry":{"x":165284.79999999981,"y":2542901.620000001}},{"attributes":{"ID":48329,"DIS_CODE":0,"TOWNNAME":"安平區","LI":"國平里","LIN":"15鄰","STREET":"華平路","SECT":" ","MAREA":" ","LANE":"２１巷","ALLEY":"１８弄","HOUSE_NO":"４７號","E_COORD97":165278.73999999999,"N_COORD97":2542927.4500000002,"ADDRESS":"華平路２１巷１８弄４７號","OBJECTID":48329},"geometry":{"x":165278.74000000022,"y":2542927.4499999993}},{"attributes":{"ID":48330,"DIS_CODE":0,"TOWNNAME":"安平區","LI":"國平里","LIN":"15鄰","STREET":"華平路","SECT":" ","MAREA":" ","LANE":"２１巷","ALLEY":"１８弄","HOUSE_NO":"４８號","E_COORD97":165283.59,"N_COORD97":2542896.3799999999,"ADDRESS":"華平路２１巷１８弄４８號","OBJECTID":48330},"geometry":{"x":165283.59000000078,"y":2542896.3800000008}},{"attributes":{"ID":48331,"DIS_CODE":0,"TOWNNAME":"安平區","LI":"國平里","LIN":"15鄰","STREET":"華平路","SECT":" ","MAREA":" ","LANE":"２１巷","ALLEY":"１８弄","HOUSE_NO":"４９號","E_COORD97":165279.95000000001,"N_COORD97":2542933.71,"ADDRESS":"華平路２１巷１８弄４９號","OBJECTID":48331},"geometry":{"x":165279.95000000112,"y":2542933.7100000028}},{"attributes":{"ID":48332,"DIS_CODE":0,"TOWNNAME":"歸仁區","LI":"西埔里","LIN":"15鄰","STREET":"西埔二街","SECT":" ","MAREA":" ","LANE":"１１０巷","ALLEY":"８０弄","HOUSE_NO":"１００號","E_COORD97":176965.54000000001,"N_COORD97":2544941.25,"ADDRESS":"西埔二街１１０巷８０弄１００號","OBJECTID":48332},"geometry":{"x":176965.54000000097,"y":2544941.2500000037}},{"attributes":{"ID":48333,"DIS_CODE":0,"TOWNNAME":"歸仁區","LI":"西埔里","LIN":"15鄰","STREET":"西埔二街","SECT":" ","MAREA":" ","LANE":"１１０巷","ALLEY":"８０弄","HOUSE_NO":"３０號","E_COORD97":176795.19,"N_COORD97":2544896.3700000001,"ADDRESS":"西埔二街１１０巷８０弄３０號","OBJECTID":48333},"geometry":{"x":176795.19000000227,"y":2544896.370000001}},{"attributes":{"ID":48334,"DIS_CODE":0,"TOWNNAME":"歸仁區","LI":"七甲里","LIN":"15鄰","STREET":"南丁路","SECT":" ","MAREA":" ","LANE":"７０５巷","ALLEY":"９０弄","HOUSE_NO":"２０號","E_COORD97":175915.59,"N_COORD97":2543342.25,"ADDRESS":"南丁路７０５巷９０弄２０號","OBJECTID":48334},"geometry":{"x":175915.59000000171,"y":2543342.2500000019}},{"attributes":{"ID":48335,"DIS_CODE":0,"TOWNNAME":"北區","LI":"六甲里","LIN":"15鄰","STREET":"西門路","SECT":"四段","MAREA":" ","LANE":"２８０巷","ALLEY":"２９弄","HOUSE_NO":"１１號","E_COORD97":169007.76000000001,"N_COORD97":2545902.3300000001,"ADDRESS":"西門路四段２８０巷２９弄１１號","OBJECTID":48335},"geometry":{"x":169007.75999999978,"y":2545902.3300000001}},{"attributes":{"ID":48336,"DIS_CODE":0,"TOWNNAME":"新營區","LI":"土庫里","LIN":"17鄰","STREET":" ","SECT":" ","MAREA":"卯舍","LANE":" ","ALLEY":" ","HOUSE_NO":"１５號","E_COORD97":181623,"N_COORD97":2580100.0600000001,"ADDRESS":"卯舍１５號","OBJECTID":48336},"geometry":{"x":181623.00000000093,"y":2580100.0600000005}},{"attributes":{"ID":48337,"DIS_CODE":0,"TOWNNAME":"大內區","LI":"石城里","LIN":"15鄰","STREET":" ","SECT":" ","MAREA":"石子瀨","LANE":" ","ALLEY":" ","HOUSE_NO":"１２２號之２０５","E_COORD97":183924.76000000001,"N_COORD97":2557632.2999999998,"ADDRESS":"石子瀨１２２號之２０５","OBJECTID":48337},"geometry":{"x":183924.76000000071,"y":2557632.3000000026}},{"attributes":{"ID":48338,"DIS_CODE":0,"TOWNNAME":"大內區","LI":"石城里","LIN":"15鄰","STREET":" ","SECT":" ","MAREA":"石子瀨","LANE":" ","ALLEY":" ","HOUSE_NO":"１２２號之２１３","E_COORD97":183934.79999999999,"N_COORD97":2557669.2999999998,"ADDRESS":"石子瀨１２２號之２１３","OBJECTID":48338},"geometry":{"x":183934.80000000075,"y":2557669.3000000045}},{"attributes":{"ID":48339,"DIS_CODE":0,"TOWNNAME":"大內區","LI":"石城里","LIN":"15鄰","STREET":" ","SECT":" ","MAREA":"石子瀨","LANE":" ","ALLEY":" ","HOUSE_NO":"１２２號之７８","E_COORD97":183880.60000000001,"N_COORD97":2557802.2999999998,"ADDRESS":"石子瀨１２２號之７８","OBJECTID":48339},"geometry":{"x":183880.59999999963,"y":2557802.3000000026}},{"attributes":{"ID":48340,"DIS_CODE":0,"TOWNNAME":"大內區","LI":"石城里","LIN":"15鄰","STREET":" ","SECT":" ","MAREA":"石子瀨","LANE":" ","ALLEY":" ","HOUSE_NO":"１２２號之８８","E_COORD97":183877.89999999999,"N_COORD97":2557828.2999999998,"ADDRESS":"石子瀨１２２號之８８","OBJECTID":48340},"geometry":{"x":183877.90000000224,"y":2557828.3000000007}},{"attributes":{"ID":48341,"DIS_CODE":0,"TOWNNAME":"大內區","LI":"石城里","LIN":"15鄰","STREET":" ","SECT":" ","MAREA":"石子瀨","LANE":" ","ALLEY":" ","HOUSE_NO":"１２２號之２０７","E_COORD97":183924.38,"N_COORD97":2557646.2999999998,"ADDRESS":"石子瀨１２２號之２０７","OBJECTID":48341},"geometry":{"x":183924.37999999989,"y":2557646.3000000026}},{"attributes":{"ID":48342,"DIS_CODE":0,"TOWNNAME":"大內區","LI":"石城里","LIN":"15鄰","STREET":" ","SECT":" ","MAREA":"石子瀨","LANE":" ","ALLEY":" ","HOUSE_NO":"１２２號之２１１","E_COORD97":183938.60000000001,"N_COORD97":2557661.2999999998,"ADDRESS":"石子瀨１２２號之２１１","OBJECTID":48342},"geometry":{"x":183938.60000000149,"y":2557661.3000000007}},{"attributes":{"ID":48343,"DIS_CODE":0,"TOWNNAME":"大內區","LI":"石城里","LIN":"15鄰","STREET":" ","SECT":" ","MAREA":"石子瀨","LANE":" ","ALLEY":" ","HOUSE_NO":"１２２號之９０","E_COORD97":183896,"N_COORD97":2557885.2999999998,"ADDRESS":"石子瀨１２２號之９０","OBJECTID":48343},"geometry":{"x":183896.00000000093,"y":2557885.3000000007}},{"attributes":{"ID":48344,"DIS_CODE":0,"TOWNNAME":"北門區","LI":"永隆里","LIN":"1鄰","STREET":" ","SECT":" ","MAREA":"北門","LANE":" ","ALLEY":" ","HOUSE_NO":"１２號","E_COORD97":160331.01999999999,"N_COORD97":2574337.21,"ADDRESS":"北門１２號","OBJECTID":48344},"geometry":{"x":160331.01999999955,"y":2574337.2100000046}},{"attributes":{"ID":48345,"DIS_CODE":0,"TOWNNAME":"大內區","LI":"石城里","LIN":"15鄰","STREET":" ","SECT":" ","MAREA":"石子瀨","LANE":" ","ALLEY":" ","HOUSE_NO":"１２２號之２０８","E_COORD97":183918.25,"N_COORD97":2557643.2999999998,"ADDRESS":"石子瀨１２２號之２０８","OBJECTID":48345},"geometry":{"x":183918.25000000093,"y":2557643.3000000026}},{"attributes":{"ID":48346,"DIS_CODE":0,"TOWNNAME":"大內區","LI":"石城里","LIN":"15鄰","STREET":" ","SECT":" ","MAREA":"石子瀨","LANE":" ","ALLEY":" ","HOUSE_NO":"１２２號之２１４","E_COORD97":183932.63,"N_COORD97":2557674.2999999998,"ADDRESS":"石子瀨１２２號之２１４","OBJECTID":48346},"geometry":{"x":183932.63000000082,"y":2557674.3000000026}},{"attributes":{"ID":48347,"DIS_CODE":0,"TOWNNAME":"大內區","LI":"石城里","LIN":"15鄰","STREET":" ","SECT":" ","MAREA":"石子瀨","LANE":" ","ALLEY":" ","HOUSE_NO":"１２２號之８","E_COORD97":183841.64999999999,"N_COORD97":2557894.2999999998,"ADDRESS":"石子瀨１２２號之８","OBJECTID":48347},"geometry":{"x":183841.65000000037,"y":2557894.3000000026}},{"attributes":{"ID":48348,"DIS_CODE":0,"TOWNNAME":"北區","LI":"六甲里","LIN":"15鄰","STREET":"西門路","SECT":"四段","MAREA":" ","LANE":"２８０巷","ALLEY":"２９弄","HOUSE_NO":"１號","E_COORD97":169008.07999999999,"N_COORD97":2545882.6499999999,"ADDRESS":"西門路四段２８０巷２９弄１號","OBJECTID":48348},"geometry":{"x":169008.08000000101,"y":2545882.6500000022}},{"attributes":{"ID":48349,"DIS_CODE":0,"TOWNNAME":"新營區","LI":"新東里","LIN":"17鄰","STREET":"東興四街","SECT":" ","MAREA":" ","LANE":"３２巷","ALLEY":" ","HOUSE_NO":"１號","E_COORD97":180902.5,"N_COORD97":2579168.71,"ADDRESS":"東興四街３２巷１號","OBJECTID":48349},"geometry":{"x":180902.50000000093,"y":2579168.7100000028}},{"attributes":{"ID":48350,"DIS_CODE":0,"TOWNNAME":"安平區","LI":"國平里","LIN":"17鄰","STREET":"健康路","SECT":"三段","MAREA":" ","LANE":" ","ALLEY":" ","HOUSE_NO":"３０８號","E_COORD97":165066.23999999999,"N_COORD97":2542783.1400000001,"ADDRESS":"健康路三段３０８號","OBJECTID":48350},"geometry":{"x":165066.24000000115,"y":2542783.1400000043}},{"attributes":{"ID":48351,"DIS_CODE":0,"TOWNNAME":"新營區","LI":"三仙里","LIN":"17鄰","STREET":"三民路","SECT":" ","MAREA":" ","LANE":" ","ALLEY":" ","HOUSE_NO":"１０７號之２","E_COORD97":179541.14999999999,"N_COORD97":2578382.2599999998,"ADDRESS":"三民路１０７號之２","OBJECTID":48351},"geometry":{"x":179541.15000000037,"y":2578382.2599999998}},{"attributes":{"ID":48352,"DIS_CODE":0,"TOWNNAME":"新營區","LI":"王公里","LIN":"17鄰","STREET":"大智街","SECT":" ","MAREA":" ","LANE":" ","ALLEY":" ","HOUSE_NO":"５６號","E_COORD97":180314.29999999999,"N_COORD97":2579315.4399999999,"ADDRESS":"大智街５６號","OBJECTID":48352},"geometry":{"x":180314.29999999981,"y":2579315.4400000013}},{"attributes":{"ID":48353,"DIS_CODE":0,"TOWNNAME":"新營區","LI":"民榮里","LIN":"17鄰","STREET":"富強街","SECT":" ","MAREA":" ","LANE":" ","ALLEY":" ","HOUSE_NO":"２６號","E_COORD97":178985.64000000001,"N_COORD97":2577803.4399999999,"ADDRESS":"富強街２６號","OBJECTID":48353},"geometry":{"x":178985.6400000006,"y":2577803.4400000013}},{"attributes":{"ID":48354,"DIS_CODE":0,"TOWNNAME":"新營區","LI":"新南里","LIN":"17鄰","STREET":"隋唐街","SECT":" ","MAREA":" ","LANE":" ","ALLEY":" ","HOUSE_NO":"６５號","E_COORD97":178633.07999999999,"N_COORD97":2578524.98,"ADDRESS":"隋唐街６５號","OBJECTID":48354},"geometry":{"x":178633.07999999914,"y":2578524.9800000004}},{"attributes":{"ID":48355,"DIS_CODE":0,"TOWNNAME":"新營區","LI":"民權里","LIN":"17鄰","STREET":"文化街","SECT":" ","MAREA":" ","LANE":" ","ALLEY":" ","HOUSE_NO":"１１號之２","E_COORD97":179824.53,"N_COORD97":2578009.9199999999,"ADDRESS":"文化街１１號之２","OBJECTID":48355},"geometry":{"x":179824.53000000119,"y":2578009.9200000037}},{"attributes":{"ID":48356,"DIS_CODE":0,"TOWNNAME":"大內區","LI":"石城里","LIN":"15鄰","STREET":" ","SECT":" ","MAREA":"石子瀨","LANE":" ","ALLEY":" ","HOUSE_NO":"１２２號之９１","E_COORD97":183899.75,"N_COORD97":2557878.2999999998,"ADDRESS":"石子瀨１２２號之９１","OBJECTID":48356},"geometry":{"x":183899.75,"y":2557878.3000000007}},{"attributes":{"ID":48357,"DIS_CODE":0,"TOWNNAME":"大內區","LI":"石城里","LIN":"15鄰","STREET":" ","SECT":" ","MAREA":"石子瀨","LANE":" ","ALLEY":" ","HOUSE_NO":"１２２號之６３","E_COORD97":183878.64999999999,"N_COORD97":2557770.2999999998,"ADDRESS":"石子瀨１２２號之６３","OBJECTID":48357},"geometry":{"x":183878.6500000013,"y":2557770.3000000007}},{"attributes":{"ID":48358,"DIS_CODE":0,"TOWNNAME":"大內區","LI":"石城里","LIN":"15鄰","STREET":" ","SECT":" ","MAREA":"石子瀨","LANE":" ","ALLEY":" ","HOUSE_NO":"１２２號之９９","E_COORD97":183849.84,"N_COORD97":2557950.2999999998,"ADDRESS":"石子瀨１２２號之９９","OBJECTID":48358},"geometry":{"x":183849.83999999985,"y":2557950.3000000007}},{"attributes":{"ID":48359,"DIS_CODE":0,"TOWNNAME":"大內區","LI":"石城里","LIN":"15鄰","STREET":" ","SECT":" ","MAREA":"石子瀨","LANE":" ","ALLEY":" ","HOUSE_NO":"１２２號之７４","E_COORD97":183881.38,"N_COORD97":2557783.2999999998,"ADDRESS":"石子瀨１２２號之７４","OBJECTID":48359},"geometry":{"x":183881.38000000082,"y":2557783.3000000007}},{"attributes":{"ID":48360,"DIS_CODE":0,"TOWNNAME":"北區","LI":"六甲里","LIN":"15鄰","STREET":"西門路","SECT":"四段","MAREA":" ","LANE":"２８０巷","ALLEY":"２９弄","HOUSE_NO":"３號","E_COORD97":169008.23000000001,"N_COORD97":2545886.0499999998,"ADDRESS":"西門路四段２８０巷２９弄３號","OBJECTID":48360},"geometry":{"x":169008.23000000045,"y":2545886.0500000045}},{"attributes":{"ID":48361,"DIS_CODE":0,"TOWNNAME":"北區","LI":"六甲里","LIN":"15鄰","STREET":"西門路","SECT":"四段","MAREA":" ","LANE":"２８０巷","ALLEY":"２９弄","HOUSE_NO":"５號","E_COORD97":169008.53,"N_COORD97":2545889.8999999999,"ADDRESS":"西門路四段２８０巷２９弄５號","OBJECTID":48361},"geometry":{"x":169008.53000000212,"y":2545889.9000000041}},{"attributes":{"ID":48362,"DIS_CODE":0,"TOWNNAME":"北區","LI":"六甲里","LIN":"15鄰","STREET":"西門路","SECT":"四段","MAREA":" ","LANE":"２８０巷","ALLEY":"２９弄","HOUSE_NO":"７號","E_COORD97":169007.04999999999,"N_COORD97":2545893.8199999998,"ADDRESS":"西門路四段２８０巷２９弄７號","OBJECTID":48362},"geometry":{"x":169007.04999999981,"y":2545893.820000004}},{"attributes":{"ID":48363,"DIS_CODE":0,"TOWNNAME":"北區","LI":"六甲里","LIN":"15鄰","STREET":"西門路","SECT":"四段","MAREA":" ","LANE":"２８０巷","ALLEY":"２９弄","HOUSE_NO":"９號","E_COORD97":169007.62,"N_COORD97":2545898.0699999998,"ADDRESS":"西門路四段２８０巷２９弄９號","OBJECTID":48363},"geometry":{"x":169007.62000000197,"y":2545898.0700000003}},{"attributes":{"ID":48364,"DIS_CODE":0,"TOWNNAME":"歸仁區","LI":"七甲里","LIN":"15鄰","STREET":"南丁路","SECT":" ","MAREA":" ","LANE":"７０５巷","ALLEY":"９０弄","HOUSE_NO":"１２號","E_COORD97":175913.79000000001,"N_COORD97":2543399.25,"ADDRESS":"南丁路７０５巷９０弄１２號","OBJECTID":48364},"geometry":{"x":175913.79000000004,"y":2543399.2500000019}},{"attributes":{"ID":48365,"DIS_CODE":0,"TOWNNAME":"歸仁區","LI":"七甲里","LIN":"15鄰","STREET":"南丁路","SECT":" ","MAREA":" ","LANE":"７０５巷","ALLEY":"９０弄","HOUSE_NO":"１７號","E_COORD97":175930.09,"N_COORD97":2543373.25,"ADDRESS":"南丁路７０５巷９０弄１７號","OBJECTID":48365},"geometry":{"x":175930.08999999985,"y":2543373.2500000019}},{"attributes":{"ID":48366,"DIS_CODE":0,"TOWNNAME":"歸仁區","LI":"七甲里","LIN":"15鄰","STREET":"南丁路","SECT":" ","MAREA":" ","LANE":"７０５巷","ALLEY":"９０弄","HOUSE_NO":"２２號","E_COORD97":175915.48999999999,"N_COORD97":2543327.25,"ADDRESS":"南丁路７０５巷９０弄２２號","OBJECTID":48366},"geometry":{"x":175915.49000000115,"y":2543327.25}},{"attributes":{"ID":48367,"DIS_CODE":0,"TOWNNAME":"歸仁區","LI":"七甲里","LIN":"15鄰","STREET":"南丁路","SECT":" ","MAREA":" ","LANE":"７０５巷","ALLEY":"９０弄","HOUSE_NO":"５號","E_COORD97":175928.14000000001,"N_COORD97":2543429.25,"ADDRESS":"南丁路７０５巷９０弄５號","OBJECTID":48367},"geometry":{"x":175928.13999999966,"y":2543429.2500000037}},{"attributes":{"ID":48368,"DIS_CODE":0,"TOWNNAME":"歸仁區","LI":"七甲里","LIN":"15鄰","STREET":"南丁路","SECT":" ","MAREA":" ","LANE":"７０５巷","ALLEY":"９０弄","HOUSE_NO":"１３號","E_COORD97":175929.19,"N_COORD97":2543392.25,"ADDRESS":"南丁路７０５巷９０弄１３號","OBJECTID":48368},"geometry":{"x":175929.19000000134,"y":2543392.2500000019}},{"attributes":{"ID":48369,"DIS_CODE":0,"TOWNNAME":"歸仁區","LI":"七甲里","LIN":"15鄰","STREET":"南丁路","SECT":" ","MAREA":" ","LANE":"７０５巷","ALLEY":"９０弄","HOUSE_NO":"９號","E_COORD97":175928.04000000001,"N_COORD97":2543412.25,"ADDRESS":"南丁路７０５巷９０弄９號","OBJECTID":48369},"geometry":{"x":175928.04000000097,"y":2543412.2500000037}},{"attributes":{"ID":48370,"DIS_CODE":0,"TOWNNAME":"歸仁區","LI":"七甲里","LIN":"15鄰","STREET":"南丁路","SECT":" ","MAREA":" ","LANE":"７０５巷","ALLEY":"９０弄","HOUSE_NO":"８號","E_COORD97":175911.64000000001,"N_COORD97":2543428.25,"ADDRESS":"南丁路７０５巷９０弄８號","OBJECTID":48370},"geometry":{"x":175911.64000000153,"y":2543428.25}},{"attributes":{"ID":48371,"DIS_CODE":0,"TOWNNAME":"歸仁區","LI":"七甲里","LIN":"15鄰","STREET":"南丁路","SECT":" ","MAREA":" ","LANE":"７０５巷","ALLEY":"９０弄","HOUSE_NO":"１６號","E_COORD97":175915.69,"N_COORD97":2543371.25,"ADDRESS":"南丁路７０５巷９０弄１６號","OBJECTID":48371},"geometry":{"x":175915.69000000134,"y":2543371.25}},{"attributes":{"ID":48372,"DIS_CODE":0,"TOWNNAME":"歸仁區","LI":"七甲里","LIN":"15鄰","STREET":"南丁路","SECT":" ","MAREA":" ","LANE":"５９１巷","ALLEY":"３６弄","HOUSE_NO":"６號","E_COORD97":175924.54000000001,"N_COORD97":2543126.25,"ADDRESS":"南丁路５９１巷３６弄６號","OBJECTID":48372},"geometry":{"x":175924.5400000019,"y":2543126.25}},{"attributes":{"ID":48373,"DIS_CODE":0,"TOWNNAME":"歸仁區","LI":"武東里","LIN":"15鄰","STREET":"中正南路","SECT":"二段","MAREA":" ","LANE":"９３巷","ALLEY":"７弄","HOUSE_NO":"３號","E_COORD97":175846.26999999999,"N_COORD97":2536252.3500000001,"ADDRESS":"中正南路二段９３巷７弄３號","OBJECTID":48373},"geometry":{"x":175846.27000000048,"y":2536252.3500000015}},{"attributes":{"ID":48374,"DIS_CODE":0,"TOWNNAME":"南區","LI":"佛壇里","LIN":"15鄰","STREET":"興南街","SECT":" ","MAREA":" ","LANE":"１０１巷","ALLEY":"８弄","HOUSE_NO":"１４號","E_COORD97":166158.88,"N_COORD97":2535801.4900000002,"ADDRESS":"興南街１０１巷８弄１４號","OBJECTID":48374},"geometry":{"x":166158.87999999989,"y":2535801.4900000002}},{"attributes":{"ID":48375,"DIS_CODE":0,"TOWNNAME":"南區","LI":"大林里","LIN":"15鄰","STREET":"大同路","SECT":"二段","MAREA":" ","LANE":"４３０巷","ALLEY":"７弄","HOUSE_NO":"１號","E_COORD97":169397.84,"N_COORD97":2541567.5899999999,"ADDRESS":"大同路二段４３０巷７弄１號","OBJECTID":48375},"geometry":{"x":169397.84000000078,"y":2541567.5899999999}},{"attributes":{"ID":48376,"DIS_CODE":0,"TOWNNAME":"南區","LI":"大林里","LIN":"15鄰","STREET":"大同路","SECT":"二段","MAREA":" ","LANE":"４３０巷","ALLEY":"７弄","HOUSE_NO":"２號","E_COORD97":169394.54999999999,"N_COORD97":2541584.96,"ADDRESS":"大同路二段４３０巷７弄２號","OBJECTID":48376},"geometry":{"x":169394.55000000075,"y":2541584.9600000028}},{"attributes":{"ID":48377,"DIS_CODE":0,"TOWNNAME":"南區","LI":"大林里","LIN":"15鄰","STREET":"大同路","SECT":"二段","MAREA":" ","LANE":"４３０巷","ALLEY":"７弄","HOUSE_NO":"３號","E_COORD97":169383.32000000001,"N_COORD97":2541564.8500000001,"ADDRESS":"大同路二段４３０巷７弄３號","OBJECTID":48377},"geometry":{"x":169383.32000000123,"y":2541564.8500000015}},{"attributes":{"ID":48378,"DIS_CODE":0,"TOWNNAME":"南區","LI":"大林里","LIN":"15鄰","STREET":"大同路","SECT":"二段","MAREA":" ","LANE":"４３０巷","ALLEY":"７弄","HOUSE_NO":"４號","E_COORD97":169380.17000000001,"N_COORD97":2541582.3599999999,"ADDRESS":"大同路二段４３０巷７弄４號","OBJECTID":48378},"geometry":{"x":169380.17000000179,"y":2541582.3599999994}},{"attributes":{"ID":48379,"DIS_CODE":0,"TOWNNAME":"新營區","LI":"新北里","LIN":"17鄰","STREET":"南新街","SECT":" ","MAREA":" ","LANE":" ","ALLEY":" ","HOUSE_NO":"１４０號之１","E_COORD97":179290,"N_COORD97":2578937.1899999999,"ADDRESS":"南新街１４０號之１","OBJECTID":48379},"geometry":{"x":179290.00000000093,"y":2578937.1900000013}},{"attributes":{"ID":48380,"DIS_CODE":0,"TOWNNAME":"新營區","LI":"南興里","LIN":"17鄰","STREET":"建業路","SECT":" ","MAREA":" ","LANE":" ","ALLEY":" ","HOUSE_NO":"１５０號","E_COORD97":179113.23000000001,"N_COORD97":2577499.3900000001,"ADDRESS":"建業路１５０號","OBJECTID":48380},"geometry":{"x":179113.23000000045,"y":2577499.3900000025}},{"attributes":{"ID":48381,"DIS_CODE":0,"TOWNNAME":"新營區","LI":"新北里","LIN":"17鄰","STREET":"南新街","SECT":" ","MAREA":" ","LANE":" ","ALLEY":" ","HOUSE_NO":"１２４號","E_COORD97":179249.94,"N_COORD97":2578922.9100000001,"ADDRESS":"南新街１２４號","OBJECTID":48381},"geometry":{"x":179249.94000000227,"y":2578922.910000002}},{"attributes":{"ID":48382,"DIS_CODE":0,"TOWNNAME":"新營區","LI":"新北里","LIN":"17鄰","STREET":"南新街","SECT":" ","MAREA":" ","LANE":" ","ALLEY":" ","HOUSE_NO":"１２１號","E_COORD97":179201.87,"N_COORD97":2578923.1400000001,"ADDRESS":"南新街１２１號","OBJECTID":48382},"geometry":{"x":179201.87000000011,"y":2578923.1400000006}},{"attributes":{"ID":48383,"DIS_CODE":0,"TOWNNAME":"柳營區","LI":"光福里","LIN":"17鄰","STREET":"光福七街","SECT":" ","MAREA":" ","LANE":" ","ALLEY":" ","HOUSE_NO":"６６號","E_COORD97":179722.79999999999,"N_COORD97":2575618.9199999999,"ADDRESS":"光福七街６６號","OBJECTID":48383},"geometry":{"x":179722.79999999981,"y":2575618.9199999999}},{"attributes":{"ID":48384,"DIS_CODE":0,"TOWNNAME":"大內區","LI":"石城里","LIN":"15鄰","STREET":" ","SECT":" ","MAREA":"石子瀨","LANE":" ","ALLEY":" ","HOUSE_NO":"１２２號之２１５","E_COORD97":183930.76000000001,"N_COORD97":2557678.2999999998,"ADDRESS":"石子瀨１２２號之２１５","OBJECTID":48384},"geometry":{"x":183930.76000000164,"y":2557678.3000000007}},{"attributes":{"ID":48385,"DIS_CODE":0,"TOWNNAME":"大內區","LI":"石城里","LIN":"15鄰","STREET":" ","SECT":" ","MAREA":"石子瀨","LANE":" ","ALLEY":" ","HOUSE_NO":"１２２號之８１","E_COORD97":183870.95000000001,"N_COORD97":2557824.2999999998,"ADDRESS":"石子瀨１２２號之８１","OBJECTID":48385},"geometry":{"x":183870.95000000112,"y":2557824.3000000007}},{"attributes":{"ID":48386,"DIS_CODE":0,"TOWNNAME":"大內區","LI":"石城里","LIN":"15鄰","STREET":" ","SECT":" ","MAREA":"石子瀨","LANE":" ","ALLEY":" ","HOUSE_NO":"１２２號之８０","E_COORD97":183873.89999999999,"N_COORD97":2557821.2999999998,"ADDRESS":"石子瀨１２２號之８０","OBJECTID":48386},"geometry":{"x":183873.90000000037,"y":2557821.3000000007}},{"attributes":{"ID":48387,"DIS_CODE":0,"TOWNNAME":"柳營區","LI":"太康里","LIN":"17鄰","STREET":" ","SECT":" ","MAREA":"太康","LANE":" ","ALLEY":" ","HOUSE_NO":"１５５號之１","E_COORD97":181937.47,"N_COORD97":2576433.02,"ADDRESS":"太康１５５號之１","OBJECTID":48387},"geometry":{"x":181937.4700000016,"y":2576433.0200000014}},{"attributes":{"ID":48388,"DIS_CODE":0,"TOWNNAME":"柳營區","LI":"太康里","LIN":"17鄰","STREET":" ","SECT":" ","MAREA":"太康","LANE":" ","ALLEY":" ","HOUSE_NO":"１５５號之２","E_COORD97":181933.04000000001,"N_COORD97":2576430.71,"ADDRESS":"太康１５５號之２","OBJECTID":48388},"geometry":{"x":181933.04000000097,"y":2576430.7100000009}},{"attributes":{"ID":48389,"DIS_CODE":0,"TOWNNAME":"柳營區","LI":"太康里","LIN":"17鄰","STREET":" ","SECT":" ","MAREA":"太康","LANE":" ","ALLEY":" ","HOUSE_NO":"１５５號之３","E_COORD97":181914.01000000001,"N_COORD97":2576449.75,"ADDRESS":"太康１５５號之３","OBJECTID":48389},"geometry":{"x":181914.01000000071,"y":2576449.7500000019}},{"attributes":{"ID":48390,"DIS_CODE":0,"TOWNNAME":"柳營區","LI":"太康里","LIN":"17鄰","STREET":" ","SECT":" ","MAREA":"太康","LANE":" ","ALLEY":" ","HOUSE_NO":"１５５號","E_COORD97":181915.19,"N_COORD97":2576441.1000000001,"ADDRESS":"太康１５５號","OBJECTID":48390},"geometry":{"x":181915.19000000134,"y":2576441.0999999996}},{"attributes":{"ID":48391,"DIS_CODE":0,"TOWNNAME":"柳營區","LI":"太康里","LIN":"17鄰","STREET":" ","SECT":" ","MAREA":"太康","LANE":" ","ALLEY":" ","HOUSE_NO":"１５６號","E_COORD97":181940.23000000001,"N_COORD97":2576454.9399999999,"ADDRESS":"太康１５６號","OBJECTID":48391},"geometry":{"x":181940.23000000138,"y":2576454.9399999995}},{"attributes":{"ID":48392,"DIS_CODE":0,"TOWNNAME":"柳營區","LI":"太康里","LIN":"17鄰","STREET":" ","SECT":" ","MAREA":"太康","LANE":" ","ALLEY":" ","HOUSE_NO":"１５７號","E_COORD97":181944.35999999999,"N_COORD97":2576456.3599999999,"ADDRESS":"太康１５７號","OBJECTID":48392},"geometry":{"x":181944.36000000127,"y":2576456.3599999994}},{"attributes":{"ID":48393,"DIS_CODE":0,"TOWNNAME":"柳營區","LI":"太康里","LIN":"17鄰","STREET":" ","SECT":" ","MAREA":"太康","LANE":" ","ALLEY":" ","HOUSE_NO":"１６０號之２","E_COORD97":181963.75,"N_COORD97":2576436.6299999999,"ADDRESS":"太康１６０號之２","OBJECTID":48393},"geometry":{"x":181963.75000000093,"y":2576436.629999999}},{"attributes":{"ID":48394,"DIS_CODE":0,"TOWNNAME":"南區","LI":"大林里","LIN":"15鄰","STREET":"大同路","SECT":"二段","MAREA":" ","LANE":"４３０巷","ALLEY":"７弄","HOUSE_NO":"５號","E_COORD97":169371,"N_COORD97":2541562.5299999998,"ADDRESS":"大同路二段４３０巷７弄５號","OBJECTID":48394},"geometry":{"x":169370.99999999907,"y":2541562.5300000012}},{"attributes":{"ID":48395,"DIS_CODE":0,"TOWNNAME":"柳營區","LI":"光福里","LIN":"17鄰","STREET":"光福五街","SECT":" ","MAREA":" ","LANE":" ","ALLEY":" ","HOUSE_NO":"７號","E_COORD97":179750.64000000001,"N_COORD97":2575539.9300000002,"ADDRESS":"光福五街７號","OBJECTID":48395},"geometry":{"x":179750.63999999966,"y":2575539.9299999997}},{"attributes":{"ID":48396,"DIS_CODE":0,"TOWNNAME":"大內區","LI":"石城里","LIN":"15鄰","STREET":" ","SECT":" ","MAREA":"石子瀨","LANE":" ","ALLEY":" ","HOUSE_NO":"１２２號之２１８","E_COORD97":183925.14999999999,"N_COORD97":2557691.2999999998,"ADDRESS":"石子瀨１２２號之２１８","OBJECTID":48396},"geometry":{"x":183925.15000000037,"y":2557691.3000000026}},{"attributes":{"ID":48397,"DIS_CODE":0,"TOWNNAME":"大內區","LI":"石城里","LIN":"15鄰","STREET":" ","SECT":" ","MAREA":"石子瀨","LANE":" ","ALLEY":" ","HOUSE_NO":"１２２號之７３","E_COORD97":183942.25,"N_COORD97":2557617.2999999998,"ADDRESS":"石子瀨１２２號之７３","OBJECTID":48397},"geometry":{"x":183942.25,"y":2557617.3000000007}},{"attributes":{"ID":48398,"DIS_CODE":0,"TOWNNAME":"大內區","LI":"石城里","LIN":"15鄰","STREET":" ","SECT":" ","MAREA":"石子瀨","LANE":" ","ALLEY":" ","HOUSE_NO":"１２２號之２１０","E_COORD97":183940.35000000001,"N_COORD97":2557658.2999999998,"ADDRESS":"石子瀨１２２號之２１０","OBJECTID":48398},"geometry":{"x":183940.35000000056,"y":2557658.3000000007}},{"attributes":{"ID":48399,"DIS_CODE":0,"TOWNNAME":"大內區","LI":"石城里","LIN":"15鄰","STREET":" ","SECT":" ","MAREA":"石子瀨","LANE":" ","ALLEY":" ","HOUSE_NO":"１２２號之７９","E_COORD97":183884.73999999999,"N_COORD97":2557805.2999999998,"ADDRESS":"石子瀨１２２號之７９","OBJECTID":48399},"geometry":{"x":183884.74000000115,"y":2557805.3000000026}},{"attributes":{"ID":48400,"DIS_CODE":0,"TOWNNAME":"大內區","LI":"石城里","LIN":"15鄰","STREET":" ","SECT":" ","MAREA":"石子瀨","LANE":" ","ALLEY":" ","HOUSE_NO":"１２２號之２１７","E_COORD97":183926.78,"N_COORD97":2557687.2999999998,"ADDRESS":"石子瀨１２２號之２１７","OBJECTID":48400},"geometry":{"x":183926.78000000119,"y":2557687.3000000026}}]}