{"displayFieldName":"TOWNNAME","fieldAliases":{"ID":"ID","DIS_CODE":"DIS_CODE","TOWNNAME":"TOWNNAME","LI":"LI","LIN":"LIN","STREET":"STREET","SECT":"SECT","MAREA":"MAREA","LANE":"LANE","ALLEY":"ALLEY","HOUSE_NO":"HOUSE_NO","E_COORD97":"E_COORD97","N_COORD97":"N_COORD97","ADDRESS":"ADDRESS","OBJECTID":"OBJECTID"},"geometryType":"esriGeometryPoint","spatialReference":{"wkid":102443,"latestWkid":3826},"fields":[{"name":"ID","type":"esriFieldTypeDouble","alias":"ID"},{"name":"DIS_CODE","type":"esriFieldTypeInteger","alias":"DIS_CODE"},{"name":"TOWNNAME","type":"esriFieldTypeString","alias":"TOWNNAME","length":8},{"name":"LI","type":"esriFieldTypeString","alias":"LI","length":8},{"name":"LIN","type":"esriFieldTypeString","alias":"LIN","length":12},{"name":"STREET","type":"esriFieldTypeString","alias":"STREET","length":20},{"name":"SECT","type":"esriFieldTypeString","alias":"SECT","length":8},{"name":"MAREA","type":"esriFieldTypeString","alias":"MAREA","length":12},{"name":"LANE","type":"esriFieldTypeString","alias":"LANE","length":10},{"name":"ALLEY","type":"esriFieldTypeString","alias":"ALLEY","length":10},{"name":"HOUSE_NO","type":"esriFieldTypeString","alias":"HOUSE_NO","length":20},{"name":"E_COORD97","type":"esriFieldTypeDouble","alias":"E_COORD97"},{"name":"N_COORD97","type":"esriFieldTypeDouble","alias":"N_COORD97"},{"name":"ADDRESS","type":"esriFieldTypeString","alias":"ADDRESS","length":50},{"name":"OBJECTID","type":"esriFieldTypeOID","alias":"OBJECTID"}],"features":[{"attributes":{"ID":291007,"DIS_CODE":0,"TOWNNAME":"仁德區","LI":"成功里","LIN":"21鄰","STREET":"保生路","SECT":" ","MAREA":" ","LANE":"６３巷","ALLEY":" ","HOUSE_NO":"９號","E_COORD97":170750.20000000001,"N_COORD97":2539756.4900000002,"ADDRESS":"保生路６３巷９號","OBJECTID":291001},"geometry":{"x":170750.20000000112,"y":2539756.4900000021}},{"attributes":{"ID":291008,"DIS_CODE":0,"TOWNNAME":"仁德區","LI":"太子里","LIN":"21鄰","STREET":"長興路","SECT":" ","MAREA":" ","LANE":"８７巷","ALLEY":" ","HOUSE_NO":"４９號","E_COORD97":173953.81,"N_COORD97":2543768.75,"ADDRESS":"長興路８７巷４９號","OBJECTID":291002},"geometry":{"x":173953.80999999959,"y":2543768.7500000019}},{"attributes":{"ID":291009,"DIS_CODE":0,"TOWNNAME":"仁德區","LI":"太子里","LIN":"21鄰","STREET":"長興路","SECT":" ","MAREA":" ","LANE":"８７巷","ALLEY":" ","HOUSE_NO":"６３之２號","E_COORD97":173884.67999999999,"N_COORD97":2543694.79,"ADDRESS":"長興路８７巷６３之２號","OBJECTID":291003},"geometry":{"x":173884.68000000063,"y":2543694.7899999991}},{"attributes":{"ID":291010,"DIS_CODE":0,"TOWNNAME":"仁德區","LI":"保安里","LIN":"21鄰","STREET":"文賢一街","SECT":" ","MAREA":" ","LANE":"１巷","ALLEY":" ","HOUSE_NO":"９號","E_COORD97":171102.35000000001,"N_COORD97":2536690.0800000001,"ADDRESS":"文賢一街１巷９號","OBJECTID":291004},"geometry":{"x":171102.34999999963,"y":2536690.0800000001}},{"attributes":{"ID":291011,"DIS_CODE":0,"TOWNNAME":"仁德區","LI":"保安里","LIN":"21鄰","STREET":"文賢一街","SECT":" ","MAREA":" ","LANE":"１巷","ALLEY":" ","HOUSE_NO":"１號","E_COORD97":171100.67999999999,"N_COORD97":2536707.5800000001,"ADDRESS":"文賢一街１巷１號","OBJECTID":291005},"geometry":{"x":171100.68000000063,"y":2536707.5800000038}},{"attributes":{"ID":291012,"DIS_CODE":0,"TOWNNAME":"仁德區","LI":"保安里","LIN":"21鄰","STREET":"文賢一街","SECT":" ","MAREA":" ","LANE":"１巷","ALLEY":" ","HOUSE_NO":"６號","E_COORD97":171091.07000000001,"N_COORD97":2536693.5800000001,"ADDRESS":"文賢一街１巷６號","OBJECTID":291006},"geometry":{"x":171091.0700000003,"y":2536693.5799999982}},{"attributes":{"ID":291013,"DIS_CODE":0,"TOWNNAME":"安南區","LI":"幸福里","LIN":" ","STREET":"海佃路","SECT":"一段","MAREA":" ","LANE":" ","ALLEY":" ","HOUSE_NO":"１０７之２號","E_COORD97":167153.26000000001,"N_COORD97":2546986.21,"ADDRESS":"海佃路一段１０７之２號","OBJECTID":291007},"geometry":{"x":167153.25999999978,"y":2546986.2100000009}},{"attributes":{"ID":291014,"DIS_CODE":0,"TOWNNAME":"仁德區","LI":"保安里","LIN":"21鄰","STREET":"文賢一街","SECT":" ","MAREA":" ","LANE":"１巷","ALLEY":" ","HOUSE_NO":"１４號","E_COORD97":171093.37,"N_COORD97":2536675.0800000001,"ADDRESS":"文賢一街１巷１４號","OBJECTID":291008},"geometry":{"x":171093.37000000104,"y":2536675.0800000019}},{"attributes":{"ID":291015,"DIS_CODE":0,"TOWNNAME":"安南區","LI":"幸福里","LIN":" ","STREET":"海佃路","SECT":"一段","MAREA":" ","LANE":" ","ALLEY":" ","HOUSE_NO":"１２１號","E_COORD97":167144.76000000001,"N_COORD97":2547024.3500000001,"ADDRESS":"海佃路一段１２１號","OBJECTID":291009},"geometry":{"x":167144.75999999978,"y":2547024.3499999996}},{"attributes":{"ID":291016,"DIS_CODE":0,"TOWNNAME":"安南區","LI":"幸福里","LIN":" ","STREET":"海佃路","SECT":"一段","MAREA":" ","LANE":" ","ALLEY":" ","HOUSE_NO":"１２３號","E_COORD97":167144.41,"N_COORD97":2547028.9900000002,"ADDRESS":"海佃路一段１２３號","OBJECTID":291010},"geometry":{"x":167144.41000000201,"y":2547028.9900000021}},{"attributes":{"ID":291017,"DIS_CODE":0,"TOWNNAME":"安南區","LI":"幸福里","LIN":"1鄰","STREET":"海佃路","SECT":"一段","MAREA":" ","LANE":" ","ALLEY":" ","HOUSE_NO":"１１９號","E_COORD97":167145.47,"N_COORD97":2547020.48,"ADDRESS":"海佃路一段１１９號","OBJECTID":291011},"geometry":{"x":167145.47000000067,"y":2547020.4800000004}},{"attributes":{"ID":291018,"DIS_CODE":0,"TOWNNAME":"安南區","LI":"幸福里","LIN":"4鄰","STREET":"國安街","SECT":" ","MAREA":" ","LANE":" ","ALLEY":" ","HOUSE_NO":"９７號","E_COORD97":166897.12,"N_COORD97":2546978.6600000001,"ADDRESS":"國安街９７號","OBJECTID":291012},"geometry":{"x":166897.12000000197,"y":2546978.6600000001}},{"attributes":{"ID":291019,"DIS_CODE":0,"TOWNNAME":"安南區","LI":"幸福里","LIN":" ","STREET":"府安路","SECT":"六段","MAREA":" ","LANE":" ","ALLEY":" ","HOUSE_NO":"２４號","E_COORD97":167072.42999999999,"N_COORD97":2546696.0499999998,"ADDRESS":"府安路六段２４號","OBJECTID":291013},"geometry":{"x":167072.4299999997,"y":2546696.0499999989}},{"attributes":{"ID":291020,"DIS_CODE":0,"TOWNNAME":"善化區","LI":"坐駕里","LIN":"4鄰","STREET":"中正路","SECT":" ","MAREA":" ","LANE":" ","ALLEY":" ","HOUSE_NO":"４５０號","E_COORD97":177699.14000000001,"N_COORD97":2558966.25,"ADDRESS":"中正路４５０號","OBJECTID":291014},"geometry":{"x":177699.13999999966,"y":2558966.25}},{"attributes":{"ID":291021,"DIS_CODE":0,"TOWNNAME":"善化區","LI":"坐駕里","LIN":"18鄰","STREET":"興華路","SECT":" ","MAREA":" ","LANE":" ","ALLEY":" ","HOUSE_NO":"２３８之８號","E_COORD97":178133.82000000001,"N_COORD97":2558577.77,"ADDRESS":"興華路２３８之８號","OBJECTID":291015},"geometry":{"x":178133.82000000123,"y":2558577.7700000014}},{"attributes":{"ID":291022,"DIS_CODE":0,"TOWNNAME":"善化區","LI":"光文里","LIN":"20鄰","STREET":"民生路","SECT":" ","MAREA":" ","LANE":" ","ALLEY":" ","HOUSE_NO":"３４６號","E_COORD97":178062.85000000001,"N_COORD97":2558908.2599999998,"ADDRESS":"民生路３４６號","OBJECTID":291016},"geometry":{"x":178062.8499999987,"y":2558908.2599999998}},{"attributes":{"ID":291023,"DIS_CODE":0,"TOWNNAME":"仁德區","LI":"成功里","LIN":"21鄰","STREET":"保生路","SECT":" ","MAREA":" ","LANE":"６３巷","ALLEY":" ","HOUSE_NO":"５號","E_COORD97":170753.69,"N_COORD97":2539769.4900000002,"ADDRESS":"保生路６３巷５號","OBJECTID":291017},"geometry":{"x":170753.69000000134,"y":2539769.4900000039}},{"attributes":{"ID":291024,"DIS_CODE":0,"TOWNNAME":"仁德區","LI":"後壁里","LIN":"21鄰","STREET":"中正路","SECT":"二段","MAREA":" ","LANE":"９７巷","ALLEY":" ","HOUSE_NO":"５４號","E_COORD97":173116.53,"N_COORD97":2538530.27,"ADDRESS":"中正路二段９７巷５４號","OBJECTID":291018},"geometry":{"x":173116.53000000119,"y":2538530.2700000014}},{"attributes":{"ID":291025,"DIS_CODE":0,"TOWNNAME":"仁德區","LI":"保安里","LIN":"21鄰","STREET":"文賢一街","SECT":" ","MAREA":" ","LANE":"３巷","ALLEY":" ","HOUSE_NO":"５號","E_COORD97":171072.26999999999,"N_COORD97":2536686.8300000001,"ADDRESS":"文賢一街３巷５號","OBJECTID":291019},"geometry":{"x":171072.26999999955,"y":2536686.8300000019}},{"attributes":{"ID":291026,"DIS_CODE":0,"TOWNNAME":"仁德區","LI":"成功里","LIN":"21鄰","STREET":"保生路","SECT":" ","MAREA":" ","LANE":"６３巷","ALLEY":" ","HOUSE_NO":"１３號","E_COORD97":170747.64999999999,"N_COORD97":2539742.9900000002,"ADDRESS":"保生路６３巷１３號","OBJECTID":291020},"geometry":{"x":170747.6500000013,"y":2539742.9900000021}},{"attributes":{"ID":291027,"DIS_CODE":0,"TOWNNAME":"仁德區","LI":"太子里","LIN":"21鄰","STREET":"長興路","SECT":" ","MAREA":" ","LANE":"８７巷","ALLEY":" ","HOUSE_NO":"５６號","E_COORD97":173920.29000000001,"N_COORD97":2543772,"ADDRESS":"長興路８７巷５６號","OBJECTID":291021},"geometry":{"x":173920.29000000004,"y":2543772}},{"attributes":{"ID":291028,"DIS_CODE":0,"TOWNNAME":"永康區","LI":"網寮里","LIN":"21鄰","STREET":"文化路","SECT":" ","MAREA":" ","LANE":"２４２巷","ALLEY":" ","HOUSE_NO":"３２之１１號","E_COORD97":173563.42999999999,"N_COORD97":2546197.79,"ADDRESS":"文化路２４２巷３２之１１號","OBJECTID":291022},"geometry":{"x":173563.43000000156,"y":2546197.7899999972}},{"attributes":{"ID":291029,"DIS_CODE":0,"TOWNNAME":"永康區","LI":"西勢里","LIN":"21鄰","STREET":"富強路","SECT":"一段","MAREA":" ","LANE":"１４９巷","ALLEY":" ","HOUSE_NO":"３０號","E_COORD97":175500.19,"N_COORD97":2546391.6499999999,"ADDRESS":"富強路一段１４９巷３０號","OBJECTID":291023},"geometry":{"x":175500.19000000227,"y":2546391.6500000022}},{"attributes":{"ID":291030,"DIS_CODE":0,"TOWNNAME":"善化區","LI":"光文里","LIN":"20鄰","STREET":"和平路","SECT":" ","MAREA":" ","LANE":" ","ALLEY":" ","HOUSE_NO":"１１７號","E_COORD97":178117.82000000001,"N_COORD97":2558873.5,"ADDRESS":"和平路１１７號","OBJECTID":291024},"geometry":{"x":178117.8200000003,"y":2558873.5}},{"attributes":{"ID":291031,"DIS_CODE":0,"TOWNNAME":"安南區","LI":"幸福里","LIN":"13鄰","STREET":"府安路","SECT":"六段","MAREA":" ","LANE":" ","ALLEY":" ","HOUSE_NO":"６７號","E_COORD97":166875.73999999999,"N_COORD97":2546587.7200000002,"ADDRESS":"府安路六段６７號","OBJECTID":291025},"geometry":{"x":166875.74000000022,"y":2546587.7200000025}},{"attributes":{"ID":291032,"DIS_CODE":0,"TOWNNAME":"安南區","LI":"幸福里","LIN":"14鄰","STREET":"府安路","SECT":"六段","MAREA":" ","LANE":" ","ALLEY":" ","HOUSE_NO":"４８號","E_COORD97":166952.42999999999,"N_COORD97":2546648.4399999999,"ADDRESS":"府安路六段４８號","OBJECTID":291026},"geometry":{"x":166952.43000000063,"y":2546648.4400000032}},{"attributes":{"ID":291033,"DIS_CODE":0,"TOWNNAME":"永康區","LI":"網寮里","LIN":"21鄰","STREET":"文化路","SECT":" ","MAREA":" ","LANE":"２４２巷","ALLEY":" ","HOUSE_NO":"３０之５號","E_COORD97":173571.28,"N_COORD97":2546192.0299999998,"ADDRESS":"文化路２４２巷３０之５號","OBJECTID":291027},"geometry":{"x":173571.28000000026,"y":2546192.0299999993}},{"attributes":{"ID":291034,"DIS_CODE":0,"TOWNNAME":"永康區","LI":"龍潭里","LIN":"21鄰","STREET":"龍潭街","SECT":" ","MAREA":" ","LANE":"２８６巷","ALLEY":" ","HOUSE_NO":"２號","E_COORD97":174982.23000000001,"N_COORD97":2548476.6800000002,"ADDRESS":"龍潭街２８６巷２號","OBJECTID":291028},"geometry":{"x":174982.23000000045,"y":2548476.6799999997}},{"attributes":{"ID":291035,"DIS_CODE":0,"TOWNNAME":"永康區","LI":"西勢里","LIN":"21鄰","STREET":"富強路","SECT":"一段","MAREA":" ","LANE":"１４３巷","ALLEY":" ","HOUSE_NO":"１３號","E_COORD97":175500.10999999999,"N_COORD97":2546327.7799999998,"ADDRESS":"富強路一段１４３巷１３號","OBJECTID":291029},"geometry":{"x":175500.11000000034,"y":2546327.7800000012}},{"attributes":{"ID":291036,"DIS_CODE":0,"TOWNNAME":"永康區","LI":"尚頂里","LIN":"21鄰","STREET":"南台街","SECT":" ","MAREA":" ","LANE":"１３巷","ALLEY":" ","HOUSE_NO":"２號","E_COORD97":170402.48999999999,"N_COORD97":2546927,"ADDRESS":"南台街１３巷２號","OBJECTID":291030},"geometry":{"x":170402.49000000115,"y":2546927.0000000019}},{"attributes":{"ID":291037,"DIS_CODE":0,"TOWNNAME":"永康區","LI":"正強里","LIN":"21鄰","STREET":"自強路","SECT":" ","MAREA":" ","LANE":"３５３巷","ALLEY":" ","HOUSE_NO":"５號之２","E_COORD97":173486.79000000001,"N_COORD97":2547817.04,"ADDRESS":"自強路３５３巷５號之２","OBJECTID":291031},"geometry":{"x":173486.7900000019,"y":2547817.0400000028}},{"attributes":{"ID":291038,"DIS_CODE":0,"TOWNNAME":"永康區","LI":"崑山里","LIN":"21鄰","STREET":"大仁街","SECT":" ","MAREA":" ","LANE":"１１巷","ALLEY":" ","HOUSE_NO":"３６號","E_COORD97":173686.97,"N_COORD97":2544582.0899999999,"ADDRESS":"大仁街１１巷３６號","OBJECTID":291032},"geometry":{"x":173686.9700000016,"y":2544582.0899999999}},{"attributes":{"ID":291039,"DIS_CODE":0,"TOWNNAME":"永康區","LI":"西勢里","LIN":"21鄰","STREET":"富強路","SECT":"一段","MAREA":" ","LANE":"１５５巷","ALLEY":" ","HOUSE_NO":"４８號","E_COORD97":175495.75,"N_COORD97":2546440.0499999998,"ADDRESS":"富強路一段１５５巷４８號","OBJECTID":291033},"geometry":{"x":175495.74999999907,"y":2546440.0500000026}},{"attributes":{"ID":291040,"DIS_CODE":0,"TOWNNAME":"大內區","LI":"內郭里","LIN":"4鄰","STREET":" ","SECT":" ","MAREA":"內庄","LANE":" ","ALLEY":" ","HOUSE_NO":"１７９號","E_COORD97":184720.98000000001,"N_COORD97":2557338.25,"ADDRESS":"內庄１７９號","OBJECTID":291034},"geometry":{"x":184720.98000000045,"y":2557338.2500000019}},{"attributes":{"ID":291041,"DIS_CODE":0,"TOWNNAME":"永康區","LI":"北灣里","LIN":"21鄰","STREET":"大灣路","SECT":" ","MAREA":" ","LANE":"４０巷","ALLEY":" ","HOUSE_NO":"１０７號","E_COORD97":174952.35999999999,"N_COORD97":2546159.8999999999,"ADDRESS":"大灣路４０巷１０７號","OBJECTID":291035},"geometry":{"x":174952.36000000034,"y":2546159.9000000004}},{"attributes":{"ID":291042,"DIS_CODE":0,"TOWNNAME":"永康區","LI":"中興里","LIN":"21鄰","STREET":"中華路","SECT":" ","MAREA":" ","LANE":"２１６巷","ALLEY":" ","HOUSE_NO":"５６號","E_COORD97":171882.87,"N_COORD97":2545148.5699999998,"ADDRESS":"中華路２１６巷５６號","OBJECTID":291036},"geometry":{"x":171882.87000000104,"y":2545148.5700000003}},{"attributes":{"ID":291043,"DIS_CODE":0,"TOWNNAME":"永康區","LI":"西灣里","LIN":"21鄰","STREET":"國光七街","SECT":" ","MAREA":" ","LANE":"３巷","ALLEY":" ","HOUSE_NO":"７１號","E_COORD97":174315.10999999999,"N_COORD97":2545342.04,"ADDRESS":"國光七街３巷７１號","OBJECTID":291037},"geometry":{"x":174315.11000000034,"y":2545342.0400000028}},{"attributes":{"ID":291044,"DIS_CODE":0,"TOWNNAME":"永康區","LI":"東橋里","LIN":"21鄰","STREET":"自強路","SECT":" ","MAREA":" ","LANE":"１４４巷","ALLEY":" ","HOUSE_NO":"３號","E_COORD97":173021.60999999999,"N_COORD97":2547367.5600000001,"ADDRESS":"自強路１４４巷３號","OBJECTID":291038},"geometry":{"x":173021.61000000034,"y":2547367.5600000042}},{"attributes":{"ID":291045,"DIS_CODE":0,"TOWNNAME":"永康區","LI":"東橋里","LIN":"21鄰","STREET":"自強路","SECT":" ","MAREA":" ","LANE":"１４４巷","ALLEY":" ","HOUSE_NO":"６號","E_COORD97":173028.59,"N_COORD97":2547353.25,"ADDRESS":"自強路１４４巷６號","OBJECTID":291039},"geometry":{"x":173028.59000000171,"y":2547353.2500000019}},{"attributes":{"ID":291046,"DIS_CODE":0,"TOWNNAME":"永康區","LI":"烏竹里","LIN":"21鄰","STREET":"自強路","SECT":" ","MAREA":" ","LANE":"７７３巷","ALLEY":" ","HOUSE_NO":"２２號","E_COORD97":174470.20000000001,"N_COORD97":2548635.7200000002,"ADDRESS":"自強路７７３巷２２號","OBJECTID":291040},"geometry":{"x":174470.20000000019,"y":2548635.7200000025}},{"attributes":{"ID":291047,"DIS_CODE":0,"TOWNNAME":"永康區","LI":"東橋里","LIN":"21鄰","STREET":"自強路","SECT":" ","MAREA":" ","LANE":"１４４巷","ALLEY":" ","HOUSE_NO":"８號","E_COORD97":173028.95999999999,"N_COORD97":2547339,"ADDRESS":"自強路１４４巷８號","OBJECTID":291041},"geometry":{"x":173028.95999999996,"y":2547339}},{"attributes":{"ID":291048,"DIS_CODE":0,"TOWNNAME":"南區","LI":"明亮里","LIN":"21鄰","STREET":"金華路","SECT":"一段","MAREA":" ","LANE":"３５２巷","ALLEY":" ","HOUSE_NO":"３６號","E_COORD97":167111.59,"N_COORD97":2541163.3399999999,"ADDRESS":"金華路一段３５２巷３６號","OBJECTID":291042},"geometry":{"x":167111.58999999985,"y":2541163.3399999999}},{"attributes":{"ID":291049,"DIS_CODE":0,"TOWNNAME":"安南區","LI":"南興里","LIN":" ","STREET":"安興街","SECT":" ","MAREA":" ","LANE":" ","ALLEY":" ","HOUSE_NO":"４２５號","E_COORD97":163582.54999999999,"N_COORD97":2552327.9100000001,"ADDRESS":"安興街４２５號","OBJECTID":291043},"geometry":{"x":163582.54999999981,"y":2552327.9099999983}},{"attributes":{"ID":291050,"DIS_CODE":0,"TOWNNAME":"安南區","LI":"南興里","LIN":" ","STREET":"安興街","SECT":" ","MAREA":" ","LANE":" ","ALLEY":" ","HOUSE_NO":"３５０號","E_COORD97":163814.23000000001,"N_COORD97":2552327.5800000001,"ADDRESS":"安興街３５０號","OBJECTID":291044},"geometry":{"x":163814.23000000045,"y":2552327.5800000019}},{"attributes":{"ID":291051,"DIS_CODE":0,"TOWNNAME":"南區","LI":"明亮里","LIN":"21鄰","STREET":"金華路","SECT":"一段","MAREA":" ","LANE":"３５２巷","ALLEY":" ","HOUSE_NO":"３８號","E_COORD97":167119.88,"N_COORD97":2541163.9500000002,"ADDRESS":"金華路一段３５２巷３８號","OBJECTID":291045},"geometry":{"x":167119.87999999989,"y":2541163.9500000011}},{"attributes":{"ID":291052,"DIS_CODE":0,"TOWNNAME":"南區","LI":"明亮里","LIN":"21鄰","STREET":"金華路","SECT":"一段","MAREA":" ","LANE":"３５２巷","ALLEY":" ","HOUSE_NO":"４０號","E_COORD97":167124.17999999999,"N_COORD97":2541163.0299999998,"ADDRESS":"金華路一段３５２巷４０號","OBJECTID":291046},"geometry":{"x":167124.18000000063,"y":2541163.0300000012}},{"attributes":{"ID":291053,"DIS_CODE":0,"TOWNNAME":"南區","LI":"明亮里","LIN":"21鄰","STREET":"金華路","SECT":"一段","MAREA":" ","LANE":"３５２巷","ALLEY":" ","HOUSE_NO":"４２號","E_COORD97":167127.56,"N_COORD97":2541161.8100000001,"ADDRESS":"金華路一段３５２巷４２號","OBJECTID":291047},"geometry":{"x":167127.56000000145,"y":2541161.8100000024}},{"attributes":{"ID":291054,"DIS_CODE":0,"TOWNNAME":"南區","LI":"明亮里","LIN":"21鄰","STREET":"金華路","SECT":"一段","MAREA":" ","LANE":"３５２巷","ALLEY":" ","HOUSE_NO":"４４號","E_COORD97":167120.79999999999,"N_COORD97":2541148.9199999999,"ADDRESS":"金華路一段３５２巷４４號","OBJECTID":291048},"geometry":{"x":167120.79999999981,"y":2541148.9199999999}},{"attributes":{"ID":291055,"DIS_CODE":0,"TOWNNAME":"南區","LI":"明亮里","LIN":"21鄰","STREET":"金華路","SECT":"一段","MAREA":" ","LANE":"３５２巷","ALLEY":" ","HOUSE_NO":"４６號","E_COORD97":167117.73000000001,"N_COORD97":2541144.9300000002,"ADDRESS":"金華路一段３５２巷４６號","OBJECTID":291049},"geometry":{"x":167117.73000000138,"y":2541144.9299999997}},{"attributes":{"ID":291056,"DIS_CODE":0,"TOWNNAME":"南區","LI":"明亮里","LIN":"21鄰","STREET":"金華路","SECT":"一段","MAREA":" ","LANE":"３５２巷","ALLEY":" ","HOUSE_NO":"４８號","E_COORD97":167116.81,"N_COORD97":2541142.48,"ADDRESS":"金華路一段３５２巷４８號","OBJECTID":291050},"geometry":{"x":167116.80999999959,"y":2541142.4800000004}},{"attributes":{"ID":291057,"DIS_CODE":0,"TOWNNAME":"新市區","LI":"新市里","LIN":"21鄰","STREET":"和平街","SECT":" ","MAREA":" ","LANE":"５０巷","ALLEY":" ","HOUSE_NO":"６號","E_COORD97":177675.32000000001,"N_COORD97":2553478.75,"ADDRESS":"和平街５０巷６號","OBJECTID":291051},"geometry":{"x":177675.3200000003,"y":2553478.7500000019}},{"attributes":{"ID":291058,"DIS_CODE":0,"TOWNNAME":"安南區","LI":"海佃里","LIN":"21鄰","STREET":"海佃路","SECT":"一段","MAREA":" ","LANE":"２４３巷","ALLEY":" ","HOUSE_NO":"２９號","E_COORD97":167000.20999999999,"N_COORD97":2547327.8999999999,"ADDRESS":"海佃路一段２４３巷２９號","OBJECTID":291052},"geometry":{"x":167000.21000000089,"y":2547327.9000000022}},{"attributes":{"ID":291059,"DIS_CODE":0,"TOWNNAME":"安南區","LI":"海佃里","LIN":"21鄰","STREET":"海佃路","SECT":"一段","MAREA":" ","LANE":"２４３巷","ALLEY":" ","HOUSE_NO":"２號","E_COORD97":167059.39999999999,"N_COORD97":2547362.4399999999,"ADDRESS":"海佃路一段２４３巷２號","OBJECTID":291053},"geometry":{"x":167059.40000000037,"y":2547362.4399999995}},{"attributes":{"ID":291060,"DIS_CODE":0,"TOWNNAME":"安南區","LI":"海佃里","LIN":"21鄰","STREET":"海佃路","SECT":"一段","MAREA":" ","LANE":"２４３巷","ALLEY":" ","HOUSE_NO":"３０號","E_COORD97":166996.88,"N_COORD97":2547351.1499999999,"ADDRESS":"海佃路一段２４３巷３０號","OBJECTID":291054},"geometry":{"x":166996.88000000175,"y":2547351.1500000022}},{"attributes":{"ID":291061,"DIS_CODE":0,"TOWNNAME":"安南區","LI":"\u25A0南里","LIN":"21鄰","STREET":"環福街","SECT":" ","MAREA":" ","LANE":"２１６巷","ALLEY":" ","HOUSE_NO":"６３號","E_COORD97":170446.38,"N_COORD97":2552707.3199999998,"ADDRESS":"環福街２１６巷６３號","OBJECTID":291055},"geometry":{"x":170446.37999999989,"y":2552707.3200000003}},{"attributes":{"ID":291062,"DIS_CODE":0,"TOWNNAME":"安南區","LI":"\u25A0南里","LIN":"21鄰","STREET":"環福街","SECT":" ","MAREA":" ","LANE":"２１６巷","ALLEY":" ","HOUSE_NO":"７１號","E_COORD97":170455.91,"N_COORD97":2552707.9199999999,"ADDRESS":"環福街２１６巷７１號","OBJECTID":291056},"geometry":{"x":170455.91000000108,"y":2552707.9200000018}},{"attributes":{"ID":291063,"DIS_CODE":0,"TOWNNAME":"永康區","LI":"東橋里","LIN":"21鄰","STREET":"自強路","SECT":" ","MAREA":" ","LANE":"１４４巷","ALLEY":" ","HOUSE_NO":"１號","E_COORD97":173019.57999999999,"N_COORD97":2547377.5600000001,"ADDRESS":"自強路１４４巷１號","OBJECTID":291057},"geometry":{"x":173019.58000000007,"y":2547377.5600000042}},{"attributes":{"ID":291064,"DIS_CODE":0,"TOWNNAME":"安南區","LI":"南興里","LIN":" ","STREET":"公學路","SECT":"五段","MAREA":" ","LANE":" ","ALLEY":" ","HOUSE_NO":"６２７號","E_COORD97":163939.82000000001,"N_COORD97":2552710.1400000001,"ADDRESS":"公學路五段６２７號","OBJECTID":291058},"geometry":{"x":163939.82000000123,"y":2552710.1400000043}},{"attributes":{"ID":291065,"DIS_CODE":0,"TOWNNAME":"安南區","LI":"城北里","LIN":"7鄰","STREET":"安中路","SECT":"六段","MAREA":" ","LANE":" ","ALLEY":" ","HOUSE_NO":"４６６號","E_COORD97":161067.10000000001,"N_COORD97":2551332.46,"ADDRESS":"安中路六段４６６號","OBJECTID":291059},"geometry":{"x":161067.10000000149,"y":2551332.4600000028}},{"attributes":{"ID":291066,"DIS_CODE":0,"TOWNNAME":"永康區","LI":"東橋里","LIN":"21鄰","STREET":"自強路","SECT":" ","MAREA":" ","LANE":"１４４巷","ALLEY":" ","HOUSE_NO":"５號","E_COORD97":173023.41,"N_COORD97":2547357.3100000001,"ADDRESS":"自強路１４４巷５號","OBJECTID":291060},"geometry":{"x":173023.41000000201,"y":2547357.3100000005}},{"attributes":{"ID":291067,"DIS_CODE":0,"TOWNNAME":"安南區","LI":"城北里","LIN":"7鄰","STREET":"安中路","SECT":"六段","MAREA":" ","LANE":" ","ALLEY":" ","HOUSE_NO":"５０６號","E_COORD97":160976.26999999999,"N_COORD97":2551341.1000000001,"ADDRESS":"安中路六段５０６號","OBJECTID":291061},"geometry":{"x":160976.27000000048,"y":2551341.1000000015}},{"attributes":{"ID":291068,"DIS_CODE":0,"TOWNNAME":"安南區","LI":"城北里","LIN":" ","STREET":"安中路","SECT":"六段","MAREA":" ","LANE":" ","ALLEY":" ","HOUSE_NO":"４４６之１８號","E_COORD97":161226.22,"N_COORD97":2551327.1000000001,"ADDRESS":"安中路六段４４６之１８號","OBJECTID":291062},"geometry":{"x":161226.22000000067,"y":2551327.1000000015}},{"attributes":{"ID":291069,"DIS_CODE":0,"TOWNNAME":"安南區","LI":"城北里","LIN":" ","STREET":"安中路","SECT":"六段","MAREA":" ","LANE":" ","ALLEY":" ","HOUSE_NO":"２１７號","E_COORD97":161527.26000000001,"N_COORD97":2551264.52,"ADDRESS":"安中路六段２１７號","OBJECTID":291063},"geometry":{"x":161527.26000000164,"y":2551264.5199999996}},{"attributes":{"ID":291070,"DIS_CODE":0,"TOWNNAME":"安南區","LI":"城北里","LIN":" ","STREET":"安中路","SECT":"六段","MAREA":" ","LANE":" ","ALLEY":" ","HOUSE_NO":"６５２號","E_COORD97":160748.73999999999,"N_COORD97":2551639.2599999998,"ADDRESS":"安中路六段６５２號","OBJECTID":291064},"geometry":{"x":160748.74000000115,"y":2551639.2599999998}},{"attributes":{"ID":291071,"DIS_CODE":0,"TOWNNAME":"永康區","LI":"東橋里","LIN":"21鄰","STREET":"自強路","SECT":" ","MAREA":" ","LANE":"１４０巷","ALLEY":" ","HOUSE_NO":"４５號","E_COORD97":173029.29000000001,"N_COORD97":2547196.2599999998,"ADDRESS":"自強路１４０巷４５號","OBJECTID":291065},"geometry":{"x":173029.29000000097,"y":2547196.2600000016}},{"attributes":{"ID":291072,"DIS_CODE":0,"TOWNNAME":"永康區","LI":"東橋里","LIN":"21鄰","STREET":"自強路","SECT":" ","MAREA":" ","LANE":"１４４巷","ALLEY":" ","HOUSE_NO":"７號","E_COORD97":173028.64000000001,"N_COORD97":2547346.5,"ADDRESS":"自強路１４４巷７號","OBJECTID":291066},"geometry":{"x":173028.6400000006,"y":2547346.5}},{"attributes":{"ID":291073,"DIS_CODE":0,"TOWNNAME":"永康區","LI":"東橋里","LIN":"21鄰","STREET":"自強路","SECT":" ","MAREA":" ","LANE":"１４４巷","ALLEY":" ","HOUSE_NO":"１０號","E_COORD97":173030.41,"N_COORD97":2547324.4900000002,"ADDRESS":"自強路１４４巷１０號","OBJECTID":291067},"geometry":{"x":173030.41000000108,"y":2547324.4900000021}},{"attributes":{"ID":291074,"DIS_CODE":0,"TOWNNAME":"永康區","LI":"烏竹里","LIN":"21鄰","STREET":"自強路","SECT":" ","MAREA":" ","LANE":"７７３巷","ALLEY":" ","HOUSE_NO":"３８號","E_COORD97":174451.48999999999,"N_COORD97":2548721.0099999998,"ADDRESS":"自強路７７３巷３８號","OBJECTID":291068},"geometry":{"x":174451.49000000022,"y":2548721.0100000016}},{"attributes":{"ID":291075,"DIS_CODE":0,"TOWNNAME":"永康區","LI":"埔園里","LIN":"21鄰","STREET":"四維街","SECT":" ","MAREA":" ","LANE":"１０２巷","ALLEY":" ","HOUSE_NO":"２１號","E_COORD97":173403.13,"N_COORD97":2548260.2400000002,"ADDRESS":"四維街１０２巷２１號","OBJECTID":291069},"geometry":{"x":173403.13000000082,"y":2548260.2400000002}},{"attributes":{"ID":291076,"DIS_CODE":0,"TOWNNAME":"安南區","LI":"理想里","LIN":"21鄰","STREET":"海佃路","SECT":"二段","MAREA":" ","LANE":"１５０巷","ALLEY":" ","HOUSE_NO":"１２２號之４５","E_COORD97":167288.14000000001,"N_COORD97":2548613.1400000001,"ADDRESS":"海佃路二段１５０巷１２２號之４５","OBJECTID":291070},"geometry":{"x":167288.14000000153,"y":2548613.1400000006}},{"attributes":{"ID":291077,"DIS_CODE":0,"TOWNNAME":"安南區","LI":"理想里","LIN":"21鄰","STREET":"海佃路","SECT":"二段","MAREA":" ","LANE":"１５０巷","ALLEY":" ","HOUSE_NO":"１２２號之４７","E_COORD97":167290.39000000001,"N_COORD97":2548617.2599999998,"ADDRESS":"海佃路二段１５０巷１２２號之４７","OBJECTID":291071},"geometry":{"x":167290.3900000006,"y":2548617.2600000016}},{"attributes":{"ID":291078,"DIS_CODE":0,"TOWNNAME":"安南區","LI":"理想里","LIN":"21鄰","STREET":"海佃路","SECT":"二段","MAREA":" ","LANE":"１５０巷","ALLEY":" ","HOUSE_NO":"１２２號之３５","E_COORD97":167204.100068,"N_COORD97":2548582.3024200001,"ADDRESS":"海佃路二段１５０巷１２２號之３５","OBJECTID":291072},"geometry":{"x":167204.10006800015,"y":2548582.3024220001}},{"attributes":{"ID":291079,"DIS_CODE":0,"TOWNNAME":"安南區","LI":"理想里","LIN":"21鄰","STREET":"同安路","SECT":" ","MAREA":" ","LANE":"８０巷","ALLEY":" ","HOUSE_NO":"７８號","E_COORD97":167114.62,"N_COORD97":2548761.46,"ADDRESS":"同安路８０巷７８號","OBJECTID":291073},"geometry":{"x":167114.62000000104,"y":2548761.4600000009}},{"attributes":{"ID":291080,"DIS_CODE":0,"TOWNNAME":"永康區","LI":"東橋里","LIN":"21鄰","STREET":"自強路","SECT":" ","MAREA":" ","LANE":"１４４巷","ALLEY":" ","HOUSE_NO":"１２號","E_COORD97":173031.31,"N_COORD97":2547307.9900000002,"ADDRESS":"自強路１４４巷１２號","OBJECTID":291074},"geometry":{"x":173031.30999999959,"y":2547307.9900000021}},{"attributes":{"ID":291081,"DIS_CODE":0,"TOWNNAME":"永康區","LI":"東灣里","LIN":"21鄰","STREET":"大灣二街","SECT":" ","MAREA":" ","LANE":"３８巷","ALLEY":" ","HOUSE_NO":"３３之２號","E_COORD97":174936.51000000001,"N_COORD97":2544855.98,"ADDRESS":"大灣二街３８巷３３之２號","OBJECTID":291075},"geometry":{"x":174936.51000000071,"y":2544855.9800000023}},{"attributes":{"ID":291082,"DIS_CODE":0,"TOWNNAME":"永康區","LI":"東灣里","LIN":"21鄰","STREET":"大灣三街","SECT":" ","MAREA":" ","LANE":"７３巷","ALLEY":" ","HOUSE_NO":"８１號","E_COORD97":174870.26999999999,"N_COORD97":2544833.7400000002,"ADDRESS":"大灣三街７３巷８１號","OBJECTID":291076},"geometry":{"x":174870.27000000048,"y":2544833.7400000021}},{"attributes":{"ID":291083,"DIS_CODE":0,"TOWNNAME":"安南區","LI":"城東里","LIN":" ","STREET":"城安一街","SECT":" ","MAREA":" ","LANE":" ","ALLEY":" ","HOUSE_NO":"６６號","E_COORD97":160659.64000000001,"N_COORD97":2551868.3100000001,"ADDRESS":"城安一街６６號","OBJECTID":291077},"geometry":{"x":160659.63999999966,"y":2551868.3100000024}},{"attributes":{"ID":291084,"DIS_CODE":0,"TOWNNAME":"永康區","LI":"烏竹里","LIN":"21鄰","STREET":"自強路","SECT":" ","MAREA":" ","LANE":"７７３巷","ALLEY":" ","HOUSE_NO":"２０號","E_COORD97":174473.48999999999,"N_COORD97":2548627.54,"ADDRESS":"自強路７７３巷２０號","OBJECTID":291078},"geometry":{"x":174473.49000000022,"y":2548627.540000001}},{"attributes":{"ID":291085,"DIS_CODE":0,"TOWNNAME":"安南區","LI":"城東里","LIN":" ","STREET":"城北路","SECT":" ","MAREA":" ","LANE":" ","ALLEY":" ","HOUSE_NO":"１５４號","E_COORD97":161022.04999999999,"N_COORD97":2551699.5099999998,"ADDRESS":"城北路１５４號","OBJECTID":291079},"geometry":{"x":161022.05000000075,"y":2551699.5099999979}},{"attributes":{"ID":291086,"DIS_CODE":0,"TOWNNAME":"安南區","LI":"城南里","LIN":"4鄰","STREET":"城西街","SECT":"一段","MAREA":" ","LANE":" ","ALLEY":" ","HOUSE_NO":"１３５號","E_COORD97":160585.35999999999,"N_COORD97":2551331.6600000001,"ADDRESS":"城西街一段１３５號","OBJECTID":291080},"geometry":{"x":160585.36000000127,"y":2551331.6600000001}},{"attributes":{"ID":291087,"DIS_CODE":0,"TOWNNAME":"安南區","LI":"城南里","LIN":"4鄰","STREET":"城西街","SECT":"一段","MAREA":" ","LANE":" ","ALLEY":" ","HOUSE_NO":"１５１號","E_COORD97":160557.17000000001,"N_COORD97":2551306.3799999999,"ADDRESS":"城西街一段１５１號","OBJECTID":291081},"geometry":{"x":160557.17000000086,"y":2551306.3800000027}},{"attributes":{"ID":291088,"DIS_CODE":0,"TOWNNAME":"永康區","LI":"西勢里","LIN":"21鄰","STREET":"富強路","SECT":"一段","MAREA":" ","LANE":"１４９巷","ALLEY":" ","HOUSE_NO":"２８號","E_COORD97":175503.87,"N_COORD97":2546388.8999999999,"ADDRESS":"富強路一段１４９巷２８號","OBJECTID":291082},"geometry":{"x":175503.87000000104,"y":2546388.9000000022}},{"attributes":{"ID":291089,"DIS_CODE":0,"TOWNNAME":"永康區","LI":"甲頂里","LIN":"21鄰","STREET":"中正南路","SECT":" ","MAREA":" ","LANE":"５２巷","ALLEY":" ","HOUSE_NO":"６號","E_COORD97":169700.23000000001,"N_COORD97":2546736.25,"ADDRESS":"中正南路５２巷６號","OBJECTID":291083},"geometry":{"x":169700.23000000045,"y":2546736.2500000019}},{"attributes":{"ID":291090,"DIS_CODE":0,"TOWNNAME":"永康區","LI":"西勢里","LIN":"21鄰","STREET":"富強路","SECT":"一段","MAREA":" ","LANE":"１４９巷","ALLEY":" ","HOUSE_NO":"４２號","E_COORD97":175482.54000000001,"N_COORD97":2546407.6600000001,"ADDRESS":"富強路一段１４９巷４２號","OBJECTID":291084},"geometry":{"x":175482.54000000097,"y":2546407.660000002}},{"attributes":{"ID":291091,"DIS_CODE":0,"TOWNNAME":"永康區","LI":"甲頂里","LIN":"21鄰","STREET":"中正南路","SECT":" ","MAREA":" ","LANE":"５２巷","ALLEY":" ","HOUSE_NO":"１７號","E_COORD97":169745.51000000001,"N_COORD97":2546783.8199999998,"ADDRESS":"中正南路５２巷１７號","OBJECTID":291085},"geometry":{"x":169745.51000000164,"y":2546783.8200000022}},{"attributes":{"ID":291092,"DIS_CODE":0,"TOWNNAME":"安南區","LI":"城東里","LIN":" ","STREET":"安明街","SECT":"四段","MAREA":" ","LANE":" ","ALLEY":" ","HOUSE_NO":"７０７之４號","E_COORD97":161267.73000000001,"N_COORD97":2551889.2599999998,"ADDRESS":"安明街四段７０７之４號","OBJECTID":291086},"geometry":{"x":161267.73000000138,"y":2551889.2600000016}},{"attributes":{"ID":291093,"DIS_CODE":0,"TOWNNAME":"安南區","LI":"城東里","LIN":" ","STREET":"安明街","SECT":"四段","MAREA":" ","LANE":" ","ALLEY":" ","HOUSE_NO":"６７２之１號","E_COORD97":161295.76000000001,"N_COORD97":2551661.23,"ADDRESS":"安明街四段６７２之１號","OBJECTID":291087},"geometry":{"x":161295.76000000071,"y":2551661.2300000004}},{"attributes":{"ID":291094,"DIS_CODE":0,"TOWNNAME":"安南區","LI":"城南里","LIN":" ","STREET":"青砂街","SECT":"一段","MAREA":" ","LANE":" ","ALLEY":" ","HOUSE_NO":"６９號","E_COORD97":160605.39000000001,"N_COORD97":2551605.46,"ADDRESS":"青砂街一段６９號","OBJECTID":291088},"geometry":{"x":160605.38999999966,"y":2551605.4600000009}},{"attributes":{"ID":291095,"DIS_CODE":0,"TOWNNAME":"永康區","LI":"西勢里","LIN":"21鄰","STREET":"富強路","SECT":"一段","MAREA":" ","LANE":"１５５巷","ALLEY":" ","HOUSE_NO":"２號","E_COORD97":175561.91,"N_COORD97":2546379.3700000001,"ADDRESS":"富強路一段１５５巷２號","OBJECTID":291089},"geometry":{"x":175561.91000000015,"y":2546379.3700000048}},{"attributes":{"ID":291096,"DIS_CODE":0,"TOWNNAME":"善化區","LI":"小新里","LIN":"21鄰","STREET":"成功路","SECT":" ","MAREA":" ","LANE":"３巷","ALLEY":" ","HOUSE_NO":"１９號","E_COORD97":180148.17999999999,"N_COORD97":2558452,"ADDRESS":"成功路３巷１９號","OBJECTID":291090},"geometry":{"x":180148.18000000063,"y":2558452.0000000019}},{"attributes":{"ID":291097,"DIS_CODE":0,"TOWNNAME":"永康區","LI":"西勢里","LIN":"21鄰","STREET":"富強路","SECT":"一段","MAREA":" ","LANE":"１５５巷","ALLEY":" ","HOUSE_NO":"４６號","E_COORD97":175499.20999999999,"N_COORD97":2546436.7999999998,"ADDRESS":"富強路一段１５５巷４６號","OBJECTID":291091},"geometry":{"x":175499.20999999996,"y":2546436.7999999989}},{"attributes":{"ID":291098,"DIS_CODE":0,"TOWNNAME":"安南區","LI":"原佃里","LIN":" ","STREET":"本原街","SECT":"一段","MAREA":" ","LANE":" ","ALLEY":" ","HOUSE_NO":"１２３號","E_COORD97":167940.53,"N_COORD97":2550136.0800000001,"ADDRESS":"本原街一段１２３號","OBJECTID":291092},"geometry":{"x":167940.53000000212,"y":2550136.0800000001}},{"attributes":{"ID":291099,"DIS_CODE":0,"TOWNNAME":"永康區","LI":"西勢里","LIN":"21鄰","STREET":"富強路","SECT":"一段","MAREA":" ","LANE":"１５５巷","ALLEY":" ","HOUSE_NO":"２５號","E_COORD97":175512.37,"N_COORD97":2546402.9300000002,"ADDRESS":"富強路一段１５５巷２５號","OBJECTID":291093},"geometry":{"x":175512.37000000104,"y":2546402.9299999997}},{"attributes":{"ID":291100,"DIS_CODE":0,"TOWNNAME":"安南區","LI":"原佃里","LIN":" ","STREET":"本原街","SECT":"一段","MAREA":" ","LANE":" ","ALLEY":" ","HOUSE_NO":"７７號","E_COORD97":168045.98999999999,"N_COORD97":2550139.6000000001,"ADDRESS":"本原街一段７７號","OBJECTID":291094},"geometry":{"x":168045.99000000115,"y":2550139.6000000034}},{"attributes":{"ID":291101,"DIS_CODE":0,"TOWNNAME":"永康區","LI":"西勢里","LIN":"21鄰","STREET":"富強路","SECT":"一段","MAREA":" ","LANE":"１５５巷","ALLEY":" ","HOUSE_NO":"２９號","E_COORD97":175505.73000000001,"N_COORD97":2546409.4300000002,"ADDRESS":"富強路一段１５５巷２９號","OBJECTID":291095},"geometry":{"x":175505.73000000138,"y":2546409.4300000016}},{"attributes":{"ID":291102,"DIS_CODE":0,"TOWNNAME":"永康區","LI":"西勢里","LIN":"21鄰","STREET":"富強路","SECT":"一段","MAREA":" ","LANE":"９８巷","ALLEY":" ","HOUSE_NO":"２４號","E_COORD97":175530.51999999999,"N_COORD97":2546122.5299999998,"ADDRESS":"富強路一段９８巷２４號","OBJECTID":291096},"geometry":{"x":175530.51999999955,"y":2546122.5300000012}},{"attributes":{"ID":291103,"DIS_CODE":0,"TOWNNAME":"安南區","LI":"原佃里","LIN":" ","STREET":"本原街","SECT":"一段","MAREA":" ","LANE":" ","ALLEY":" ","HOUSE_NO":"４７號之１","E_COORD97":168116.12,"N_COORD97":2550148.9300000002,"ADDRESS":"本原街一段４７號之１","OBJECTID":291097},"geometry":{"x":168116.12000000104,"y":2550148.9300000016}},{"attributes":{"ID":291104,"DIS_CODE":0,"TOWNNAME":"永康區","LI":"西勢里","LIN":"21鄰","STREET":"富強路","SECT":"一段","MAREA":" ","LANE":"１４３巷","ALLEY":" ","HOUSE_NO":"４０號","E_COORD97":175469.79000000001,"N_COORD97":2546372.46,"ADDRESS":"富強路一段１４３巷４０號","OBJECTID":291098},"geometry":{"x":175469.79000000004,"y":2546372.4600000028}},{"attributes":{"ID":291105,"DIS_CODE":0,"TOWNNAME":"永康區","LI":"西勢里","LIN":"21鄰","STREET":"富強路","SECT":"一段","MAREA":" ","LANE":"１５５巷","ALLEY":" ","HOUSE_NO":"３７號","E_COORD97":175492.26000000001,"N_COORD97":2546421.9300000002,"ADDRESS":"富強路一段１５５巷３７號","OBJECTID":291099},"geometry":{"x":175492.26000000164,"y":2546421.9300000016}},{"attributes":{"ID":291106,"DIS_CODE":0,"TOWNNAME":"永康區","LI":"西勢里","LIN":"21鄰","STREET":"富強路","SECT":"一段","MAREA":" ","LANE":"９８巷","ALLEY":" ","HOUSE_NO":"３６之１號","E_COORD97":175575.48999999999,"N_COORD97":2546085.0299999998,"ADDRESS":"富強路一段９８巷３６之１號","OBJECTID":291100},"geometry":{"x":175575.49000000022,"y":2546085.0300000012}},{"attributes":{"ID":291107,"DIS_CODE":0,"TOWNNAME":"安南區","LI":"原佃里","LIN":" ","STREET":"本原街","SECT":"一段","MAREA":" ","LANE":" ","ALLEY":" ","HOUSE_NO":"１６３號之６","E_COORD97":167851.44,"N_COORD97":2550050.5,"ADDRESS":"本原街一段１６３號之６","OBJECTID":291101},"geometry":{"x":167851.44000000227,"y":2550050.5000000019}},{"attributes":{"ID":291108,"DIS_CODE":0,"TOWNNAME":"安南區","LI":"海西里","LIN":" ","STREET":"海環街","SECT":" ","MAREA":" ","LANE":" ","ALLEY":" ","HOUSE_NO":"１２６號","E_COORD97":166491.35999999999,"N_COORD97":2548762.54,"ADDRESS":"海環街１２６號","OBJECTID":291102},"geometry":{"x":166491.36000000127,"y":2548762.5399999972}},{"attributes":{"ID":291109,"DIS_CODE":0,"TOWNNAME":"安南區","LI":"溪墘里","LIN":"5鄰","STREET":"海佃路","SECT":"一段","MAREA":" ","LANE":" ","ALLEY":" ","HOUSE_NO":"２３８號","E_COORD97":167147.64999999999,"N_COORD97":2547299.8900000001,"ADDRESS":"海佃路一段２３８號","OBJECTID":291103},"geometry":{"x":167147.65000000037,"y":2547299.8900000006}},{"attributes":{"ID":291110,"DIS_CODE":0,"TOWNNAME":"永康區","LI":"西勢里","LIN":"21鄰","STREET":"富強路","SECT":"一段","MAREA":" ","LANE":"１５５巷","ALLEY":" ","HOUSE_NO":"３８號","E_COORD97":175509.51999999999,"N_COORD97":2546428.2999999998,"ADDRESS":"富強路一段１５５巷３８號","OBJECTID":291104},"geometry":{"x":175509.52000000048,"y":2546428.3000000026}},{"attributes":{"ID":291111,"DIS_CODE":0,"TOWNNAME":"永康區","LI":"西勢里","LIN":"21鄰","STREET":"富強路","SECT":"一段","MAREA":" ","LANE":"１５５巷","ALLEY":" ","HOUSE_NO":"２１號","E_COORD97":175519.62,"N_COORD97":2546396.9199999999,"ADDRESS":"富強路一段１５５巷２１號","OBJECTID":291105},"geometry":{"x":175519.62000000104,"y":2546396.9199999999}},{"attributes":{"ID":291112,"DIS_CODE":0,"TOWNNAME":"永康區","LI":"西勢里","LIN":"21鄰","STREET":"富強路","SECT":"一段","MAREA":" ","LANE":"１５５巷","ALLEY":" ","HOUSE_NO":"３２號","E_COORD97":175516.16,"N_COORD97":2546422.0499999998,"ADDRESS":"富強路一段１５５巷３２號","OBJECTID":291106},"geometry":{"x":175516.16000000015,"y":2546422.0500000026}},{"attributes":{"ID":291113,"DIS_CODE":0,"TOWNNAME":"永康區","LI":"西勢里","LIN":"21鄰","STREET":"富強路","SECT":"一段","MAREA":" ","LANE":"１５５巷","ALLEY":" ","HOUSE_NO":"３９號","E_COORD97":175488.5,"N_COORD97":2546425.1800000002,"ADDRESS":"富強路一段１５５巷３９號","OBJECTID":291107},"geometry":{"x":175488.5,"y":2546425.1799999997}},{"attributes":{"ID":291114,"DIS_CODE":0,"TOWNNAME":"永康區","LI":"西勢里","LIN":"21鄰","STREET":"富強路","SECT":"一段","MAREA":" ","LANE":"１５５巷","ALLEY":" ","HOUSE_NO":"２７號","E_COORD97":175508.88,"N_COORD97":2546405.8500000001,"ADDRESS":"富強路一段１５５巷２７號","OBJECTID":291108},"geometry":{"x":175508.88000000082,"y":2546405.8500000015}},{"attributes":{"ID":291115,"DIS_CODE":0,"TOWNNAME":"永康區","LI":"西勢里","LIN":"21鄰","STREET":"富強路","SECT":"一段","MAREA":" ","LANE":"１５５巷","ALLEY":" ","HOUSE_NO":"３３號","E_COORD97":175495.84,"N_COORD97":2546418.6800000002,"ADDRESS":"富強路一段１５５巷３３號","OBJECTID":291109},"geometry":{"x":175495.84000000078,"y":2546418.6799999997}},{"attributes":{"ID":291116,"DIS_CODE":0,"TOWNNAME":"永康區","LI":"西勢里","LIN":"21鄰","STREET":"富強路","SECT":"一段","MAREA":" ","LANE":"１４９巷","ALLEY":" ","HOUSE_NO":"１０號","E_COORD97":175537.51000000001,"N_COORD97":2546357.9900000002,"ADDRESS":"富強路一段１４９巷１０號","OBJECTID":291110},"geometry":{"x":175537.50999999978,"y":2546357.9900000021}},{"attributes":{"ID":291117,"DIS_CODE":0,"TOWNNAME":"永康區","LI":"西勢里","LIN":"21鄰","STREET":"富強路","SECT":"一段","MAREA":" ","LANE":"１５５巷","ALLEY":" ","HOUSE_NO":"４０號","E_COORD97":175505.64000000001,"N_COORD97":2546431.5499999998,"ADDRESS":"富強路一段１５５巷４０號","OBJECTID":291111},"geometry":{"x":175505.63999999966,"y":2546431.5500000007}},{"attributes":{"ID":291118,"DIS_CODE":0,"TOWNNAME":"永康區","LI":"西勢里","LIN":"21鄰","STREET":"富強路","SECT":"一段","MAREA":" ","LANE":"９８巷","ALLEY":" ","HOUSE_NO":"３２號","E_COORD97":175543.57000000001,"N_COORD97":2546110.5299999998,"ADDRESS":"富強路一段９８巷３２號","OBJECTID":291112},"geometry":{"x":175543.57000000123,"y":2546110.5299999993}},{"attributes":{"ID":291119,"DIS_CODE":0,"TOWNNAME":"永康區","LI":"西勢里","LIN":"21鄰","STREET":"富強路","SECT":"一段","MAREA":" ","LANE":"１５５巷","ALLEY":" ","HOUSE_NO":"３６號","E_COORD97":175512.78,"N_COORD97":2546425.0499999998,"ADDRESS":"富強路一段１５５巷３６號","OBJECTID":291113},"geometry":{"x":175512.77999999933,"y":2546425.0500000045}},{"attributes":{"ID":291120,"DIS_CODE":0,"TOWNNAME":"安南區","LI":"安順里","LIN":"20鄰","STREET":"育安一街","SECT":" ","MAREA":" ","LANE":" ","ALLEY":" ","HOUSE_NO":"１１８號","E_COORD97":169456.76999999999,"N_COORD97":2549916.5099999998,"ADDRESS":"育安一街１１８號","OBJECTID":291114},"geometry":{"x":169456.76999999955,"y":2549916.5100000035}},{"attributes":{"ID":291121,"DIS_CODE":0,"TOWNNAME":"安南區","LI":"州北里","LIN":"17鄰","STREET":"安和路","SECT":"六段","MAREA":" ","LANE":" ","ALLEY":" ","HOUSE_NO":"２６號之３","E_COORD97":169616.04999999999,"N_COORD97":2552389.77,"ADDRESS":"安和路六段２６號之３","OBJECTID":291115},"geometry":{"x":169616.04999999981,"y":2552389.7700000014}},{"attributes":{"ID":291122,"DIS_CODE":0,"TOWNNAME":"永康區","LI":"西勢里","LIN":"21鄰","STREET":"富強路","SECT":"一段","MAREA":" ","LANE":"１４３巷","ALLEY":" ","HOUSE_NO":"４８號","E_COORD97":175452.17000000001,"N_COORD97":2546396.77,"ADDRESS":"富強路一段１４３巷４８號","OBJECTID":291116},"geometry":{"x":175452.17000000179,"y":2546396.7700000014}},{"attributes":{"ID":291123,"DIS_CODE":0,"TOWNNAME":"永康區","LI":"西勢里","LIN":"21鄰","STREET":"富強路","SECT":"一段","MAREA":" ","LANE":"１４９巷","ALLEY":" ","HOUSE_NO":"１５號","E_COORD97":175513.44,"N_COORD97":2546362.46,"ADDRESS":"富強路一段１４９巷１５號","OBJECTID":291117},"geometry":{"x":175513.44000000041,"y":2546362.4600000028}},{"attributes":{"ID":291124,"DIS_CODE":0,"TOWNNAME":"善化區","LI":"小新里","LIN":"21鄰","STREET":"成功路","SECT":" ","MAREA":" ","LANE":"３巷","ALLEY":" ","HOUSE_NO":"５號","E_COORD97":180174.34,"N_COORD97":2558483,"ADDRESS":"成功路３巷５號","OBJECTID":291118},"geometry":{"x":180174.34000000078,"y":2558483}},{"attributes":{"ID":291125,"DIS_CODE":0,"TOWNNAME":"安南區","LI":"新順里","LIN":"13鄰","STREET":"開安一街","SECT":" ","MAREA":" ","LANE":" ","ALLEY":" ","HOUSE_NO":"１５號","E_COORD97":170519.06,"N_COORD97":2549678.21,"ADDRESS":"開安一街１５號","OBJECTID":291119},"geometry":{"x":170519.05999999959,"y":2549678.2100000009}},{"attributes":{"ID":291126,"DIS_CODE":0,"TOWNNAME":"大內區","LI":"內郭里","LIN":"4鄰","STREET":" ","SECT":" ","MAREA":"內庄","LANE":" ","ALLEY":" ","HOUSE_NO":"１８４號","E_COORD97":184760.38,"N_COORD97":2557344.25,"ADDRESS":"內庄１８４號","OBJECTID":291120},"geometry":{"x":184760.37999999989,"y":2557344.2500000019}},{"attributes":{"ID":291127,"DIS_CODE":0,"TOWNNAME":"永康區","LI":"西勢里","LIN":"21鄰","STREET":"富強路","SECT":"一段","MAREA":" ","LANE":"１４３巷","ALLEY":" ","HOUSE_NO":"２２號","E_COORD97":175497.78,"N_COORD97":2546347.2999999998,"ADDRESS":"富強路一段１４３巷２２號","OBJECTID":291121},"geometry":{"x":175497.78000000119,"y":2546347.3000000007}},{"attributes":{"ID":291128,"DIS_CODE":0,"TOWNNAME":"永康區","LI":"西勢里","LIN":"21鄰","STREET":"富強路","SECT":"一段","MAREA":" ","LANE":"１４９巷","ALLEY":" ","HOUSE_NO":"１號","E_COORD97":175539.22,"N_COORD97":2546337.9700000002,"ADDRESS":"富強路一段１４９巷１號","OBJECTID":291122},"geometry":{"x":175539.21999999974,"y":2546337.9700000025}},{"attributes":{"ID":291129,"DIS_CODE":0,"TOWNNAME":"永康區","LI":"西勢里","LIN":"21鄰","STREET":"富強路","SECT":"一段","MAREA":" ","LANE":"１４３巷","ALLEY":" ","HOUSE_NO":"２０號","E_COORD97":175501.60999999999,"N_COORD97":2546343.7200000002,"ADDRESS":"富強路一段１４３巷２０號","OBJECTID":291123},"geometry":{"x":175501.61000000034,"y":2546343.7200000025}},{"attributes":{"ID":291130,"DIS_CODE":0,"TOWNNAME":"永康區","LI":"西勢里","LIN":"21鄰","STREET":"富強路","SECT":"一段","MAREA":" ","LANE":"１４３巷","ALLEY":" ","HOUSE_NO":"２１號","E_COORD97":175484.79000000001,"N_COORD97":2546341.7799999998,"ADDRESS":"富強路一段１４３巷２１號","OBJECTID":291124},"geometry":{"x":175484.79000000004,"y":2546341.7800000012}},{"attributes":{"ID":291131,"DIS_CODE":0,"TOWNNAME":"永康區","LI":"西勢里","LIN":"21鄰","STREET":"富強路","SECT":"一段","MAREA":" ","LANE":"１４３巷","ALLEY":" ","HOUSE_NO":"３１號","E_COORD97":175462.12,"N_COORD97":2546359.02,"ADDRESS":"富強路一段１４３巷３１號","OBJECTID":291125},"geometry":{"x":175462.12000000011,"y":2546359.0199999996}},{"attributes":{"ID":291132,"DIS_CODE":0,"TOWNNAME":"永康區","LI":"西勢里","LIN":"21鄰","STREET":"富強路","SECT":"一段","MAREA":" ","LANE":"１４９巷","ALLEY":" ","HOUSE_NO":"１１號","E_COORD97":175520.59,"N_COORD97":2546356.21,"ADDRESS":"富強路一段１４９巷１１號","OBJECTID":291126},"geometry":{"x":175520.59000000171,"y":2546356.209999999}},{"attributes":{"ID":291133,"DIS_CODE":0,"TOWNNAME":"永康區","LI":"西勢里","LIN":"21鄰","STREET":"富強路","SECT":"一段","MAREA":" ","LANE":"１４３巷","ALLEY":" ","HOUSE_NO":"６號","E_COORD97":175524.20999999999,"N_COORD97":2546322.6099999999,"ADDRESS":"富強路一段１４３巷６號","OBJECTID":291127},"geometry":{"x":175524.20999999996,"y":2546322.6100000013}},{"attributes":{"ID":291134,"DIS_CODE":0,"TOWNNAME":"永康區","LI":"西灣里","LIN":"21鄰","STREET":"國光七街","SECT":" ","MAREA":" ","LANE":"３巷","ALLEY":" ","HOUSE_NO":"５５號","E_COORD97":174325.51000000001,"N_COORD97":2545378.71,"ADDRESS":"國光七街３巷５５號","OBJECTID":291128},"geometry":{"x":174325.50999999978,"y":2545378.7100000009}},{"attributes":{"ID":291135,"DIS_CODE":0,"TOWNNAME":"永康區","LI":"西勢里","LIN":"21鄰","STREET":"富強路","SECT":"一段","MAREA":" ","LANE":"１４３巷","ALLEY":" ","HOUSE_NO":"３２號","E_COORD97":175481.01000000001,"N_COORD97":2546361.96,"ADDRESS":"富強路一段１４３巷３２號","OBJECTID":291129},"geometry":{"x":175481.01000000071,"y":2546361.9600000028}},{"attributes":{"ID":291136,"DIS_CODE":0,"TOWNNAME":"永康區","LI":"西勢里","LIN":"21鄰","STREET":"富強路","SECT":"一段","MAREA":" ","LANE":"１４３巷","ALLEY":" ","HOUSE_NO":"１７號","E_COORD97":175492.64999999999,"N_COORD97":2546334.7799999998,"ADDRESS":"富強路一段１４３巷１７號","OBJECTID":291130},"geometry":{"x":175492.6500000013,"y":2546334.7800000012}},{"attributes":{"ID":291137,"DIS_CODE":0,"TOWNNAME":"永康區","LI":"西勢里","LIN":"21鄰","STREET":"富強路","SECT":"一段","MAREA":" ","LANE":"１４９巷","ALLEY":" ","HOUSE_NO":"１６號","E_COORD97":175529.25,"N_COORD97":2546364.9900000002,"ADDRESS":"富強路一段１４９巷１６號","OBJECTID":291131},"geometry":{"x":175529.25,"y":2546364.9900000021}},{"attributes":{"ID":291138,"DIS_CODE":0,"TOWNNAME":"永康區","LI":"西勢里","LIN":"21鄰","STREET":"富強路","SECT":"一段","MAREA":" ","LANE":"１４９巷","ALLEY":" ","HOUSE_NO":"７號","E_COORD97":175527.29000000001,"N_COORD97":2546348.7200000002,"ADDRESS":"富強路一段１４９巷７號","OBJECTID":291132},"geometry":{"x":175527.29000000004,"y":2546348.7200000007}},{"attributes":{"ID":291139,"DIS_CODE":0,"TOWNNAME":"南化區","LI":"中坑里","LIN":"6鄰","STREET":" ","SECT":" ","MAREA":"中坑","LANE":" ","ALLEY":" ","HOUSE_NO":"４７號","E_COORD97":193736.23948300001,"N_COORD97":2549862.9792399998,"ADDRESS":"中坑４７號","OBJECTID":291133},"geometry":{"x":193736.23948300071,"y":2549862.979240004}},{"attributes":{"ID":291140,"DIS_CODE":0,"TOWNNAME":"安南區","LI":"布袋里","LIN":"4鄰","STREET":"長和路","SECT":"四段","MAREA":" ","LANE":"２３１巷","ALLEY":" ","HOUSE_NO":"６２號","E_COORD97":168774.76000000001,"N_COORD97":2551585.3599999999,"ADDRESS":"長和路四段２３１巷６２號","OBJECTID":291134},"geometry":{"x":168774.76000000071,"y":2551585.3600000031}},{"attributes":{"ID":291141,"DIS_CODE":0,"TOWNNAME":"永康區","LI":"西勢里","LIN":"21鄰","STREET":"富強路","SECT":"一段","MAREA":" ","LANE":"１４９巷","ALLEY":" ","HOUSE_NO":"２號","E_COORD97":175547.29999999999,"N_COORD97":2546348,"ADDRESS":"富強路一段１４９巷２號","OBJECTID":291135},"geometry":{"x":175547.29999999981,"y":2546348.0000000019}},{"attributes":{"ID":291142,"DIS_CODE":0,"TOWNNAME":"永康區","LI":"西灣里","LIN":"21鄰","STREET":"國光七街","SECT":" ","MAREA":" ","LANE":"３巷","ALLEY":" ","HOUSE_NO":"３１號","E_COORD97":174333.06,"N_COORD97":2545418.2599999998,"ADDRESS":"國光七街３巷３１號","OBJECTID":291136},"geometry":{"x":174333.05999999959,"y":2545418.2599999998}},{"attributes":{"ID":291143,"DIS_CODE":0,"TOWNNAME":"永康區","LI":"西勢里","LIN":"21鄰","STREET":"富強路","SECT":"一段","MAREA":" ","LANE":"１４３巷","ALLEY":" ","HOUSE_NO":"１５號","E_COORD97":175496.72,"N_COORD97":2546331.5299999998,"ADDRESS":"富強路一段１４３巷１５號","OBJECTID":291137},"geometry":{"x":175496.71999999974,"y":2546331.5299999993}},{"attributes":{"ID":291144,"DIS_CODE":0,"TOWNNAME":"永康區","LI":"西勢里","LIN":"21鄰","STREET":"富強路","SECT":"一段","MAREA":" ","LANE":"１４３巷","ALLEY":" ","HOUSE_NO":"２號","E_COORD97":175528.01000000001,"N_COORD97":2546318.9700000002,"ADDRESS":"富強路一段１４３巷２號","OBJECTID":291138},"geometry":{"x":175528.01000000071,"y":2546318.9700000007}},{"attributes":{"ID":291145,"DIS_CODE":0,"TOWNNAME":"永康區","LI":"西勢里","LIN":"21鄰","STREET":"富強路","SECT":"一段","MAREA":" ","LANE":"１４９巷","ALLEY":" ","HOUSE_NO":"６號","E_COORD97":175543.31,"N_COORD97":2546350.75,"ADDRESS":"富強路一段１４９巷６號","OBJECTID":291139},"geometry":{"x":175543.30999999959,"y":2546350.75}},{"attributes":{"ID":291146,"DIS_CODE":0,"TOWNNAME":"永康區","LI":"西勢里","LIN":"21鄰","STREET":"富強路","SECT":"一段","MAREA":" ","LANE":"１４３巷","ALLEY":" ","HOUSE_NO":"３號","E_COORD97":175519.26000000001,"N_COORD97":2546310.7799999998,"ADDRESS":"富強路一段１４３巷３號","OBJECTID":291140},"geometry":{"x":175519.26000000164,"y":2546310.7800000012}},{"attributes":{"ID":291147,"DIS_CODE":0,"TOWNNAME":"東區","LI":"圍下里","LIN":"21鄰","STREET":"前鋒路","SECT":" ","MAREA":" ","LANE":"１１５巷","ALLEY":" ","HOUSE_NO":"１號","E_COORD97":169304.79999999999,"N_COORD97":2543758.25,"ADDRESS":"前鋒路１１５巷１號","OBJECTID":291141},"geometry":{"x":169304.80000000075,"y":2543758.2500000037}},{"attributes":{"ID":291148,"DIS_CODE":0,"TOWNNAME":"安南區","LI":"幸福里","LIN":"21鄰","STREET":"府安路","SECT":"六段","MAREA":" ","LANE":"１０３巷","ALLEY":" ","HOUSE_NO":"１４６號","E_COORD97":166664.47,"N_COORD97":2546899.0299999998,"ADDRESS":"府安路六段１０３巷１４６號","OBJECTID":291142},"geometry":{"x":166664.47000000067,"y":2546899.0300000012}},{"attributes":{"ID":291149,"DIS_CODE":0,"TOWNNAME":"安南區","LI":"幸福里","LIN":"21鄰","STREET":"府安路","SECT":"六段","MAREA":" ","LANE":"１０３巷","ALLEY":" ","HOUSE_NO":"１４８號","E_COORD97":166663.37,"N_COORD97":2546903.04,"ADDRESS":"府安路六段１０３巷１４８號","OBJECTID":291143},"geometry":{"x":166663.37000000104,"y":2546903.040000001}},{"attributes":{"ID":291150,"DIS_CODE":0,"TOWNNAME":"安南區","LI":"幸福里","LIN":"21鄰","STREET":"府安路","SECT":"六段","MAREA":" ","LANE":"１０３巷","ALLEY":" ","HOUSE_NO":"１５０號","E_COORD97":166662.51000000001,"N_COORD97":2546907.23,"ADDRESS":"府安路六段１０３巷１５０號","OBJECTID":291144},"geometry":{"x":166662.51000000071,"y":2546907.2300000004}},{"attributes":{"ID":291151,"DIS_CODE":0,"TOWNNAME":"安南區","LI":"幸福里","LIN":"21鄰","STREET":"府安路","SECT":"六段","MAREA":" ","LANE":"１０３巷","ALLEY":" ","HOUSE_NO":"１５２號","E_COORD97":166662.03,"N_COORD97":2546910.8700000001,"ADDRESS":"府安路六段１０３巷１５２號","OBJECTID":291145},"geometry":{"x":166662.03000000026,"y":2546910.870000001}},{"attributes":{"ID":291152,"DIS_CODE":0,"TOWNNAME":"安南區","LI":"國安里","LIN":"4鄰","STREET":"國安街","SECT":" ","MAREA":" ","LANE":"１５６巷","ALLEY":" ","HOUSE_NO":"１６５號","E_COORD97":166639.01999999999,"N_COORD97":2547404.5699999998,"ADDRESS":"國安街１５６巷１６５號","OBJECTID":291146},"geometry":{"x":166639.01999999955,"y":2547404.5700000022}},{"attributes":{"ID":291153,"DIS_CODE":0,"TOWNNAME":"安南區","LI":"溪墘里","LIN":"26鄰","STREET":"安寧街","SECT":" ","MAREA":" ","LANE":"６５巷","ALLEY":" ","HOUSE_NO":"１３號","E_COORD97":167358.57000000001,"N_COORD97":2547013.8900000001,"ADDRESS":"安寧街６５巷１３號","OBJECTID":291147},"geometry":{"x":167358.5700000003,"y":2547013.8900000025}},{"attributes":{"ID":291154,"DIS_CODE":0,"TOWNNAME":"南區","LI":"明興里","LIN":"1鄰","STREET":"新都路","SECT":" ","MAREA":" ","LANE":" ","ALLEY":" ","HOUSE_NO":"５２９號","E_COORD97":167025.32999999999,"N_COORD97":2540875.6800000002,"ADDRESS":"新都路５２９號","OBJECTID":291148},"geometry":{"x":167025.33000000101,"y":2540875.6799999997}},{"attributes":{"ID":291155,"DIS_CODE":0,"TOWNNAME":"南區","LI":"明興里","LIN":"1鄰","STREET":"新都路","SECT":" ","MAREA":" ","LANE":" ","ALLEY":" ","HOUSE_NO":"５３１號","E_COORD97":167021.89000000001,"N_COORD97":2540876.1200000001,"ADDRESS":"新都路５３１號","OBJECTID":291149},"geometry":{"x":167021.88999999873,"y":2540876.1200000029}},{"attributes":{"ID":291156,"DIS_CODE":0,"TOWNNAME":"南區","LI":"明興里","LIN":"1鄰","STREET":"新都路","SECT":" ","MAREA":" ","LANE":" ","ALLEY":" ","HOUSE_NO":"５２３號","E_COORD97":167056.45999999999,"N_COORD97":2540874.29,"ADDRESS":"新都路５２３號","OBJECTID":291150},"geometry":{"x":167056.46000000089,"y":2540874.2899999991}},{"attributes":{"ID":291157,"DIS_CODE":0,"TOWNNAME":"南區","LI":"明興里","LIN":"1鄰","STREET":"新都路","SECT":" ","MAREA":" ","LANE":" ","ALLEY":" ","HOUSE_NO":"５２３號之１","E_COORD97":167051.28,"N_COORD97":2540874.3799999999,"ADDRESS":"新都路５２３號之１","OBJECTID":291151},"geometry":{"x":167051.28000000119,"y":2540874.3800000027}},{"attributes":{"ID":291158,"DIS_CODE":0,"TOWNNAME":"南區","LI":"明興里","LIN":"1鄰","STREET":"新都路","SECT":" ","MAREA":" ","LANE":" ","ALLEY":" ","HOUSE_NO":"５２３號之２","E_COORD97":167045.84,"N_COORD97":2540874.5499999998,"ADDRESS":"新都路５２３號之２","OBJECTID":291152},"geometry":{"x":167045.83999999985,"y":2540874.5500000007}},{"attributes":{"ID":291159,"DIS_CODE":0,"TOWNNAME":"南區","LI":"明興里","LIN":"1鄰","STREET":"新都路","SECT":" ","MAREA":" ","LANE":" ","ALLEY":" ","HOUSE_NO":"５２３號之３","E_COORD97":167041.34,"N_COORD97":2540875.3999999999,"ADDRESS":"新都路５２３號之３","OBJECTID":291153},"geometry":{"x":167041.34000000078,"y":2540875.3999999985}},{"attributes":{"ID":291160,"DIS_CODE":0,"TOWNNAME":"南區","LI":"光明里","LIN":"1鄰","STREET":"利南街","SECT":" ","MAREA":" ","LANE":" ","ALLEY":" ","HOUSE_NO":"２１１號之１","E_COORD97":166764.69,"N_COORD97":2541553.1200000001,"ADDRESS":"利南街２１１號之１","OBJECTID":291154},"geometry":{"x":166764.69000000227,"y":2541553.1200000048}},{"attributes":{"ID":291161,"DIS_CODE":0,"TOWNNAME":"歸仁區","LI":"六甲里","LIN":"1鄰","STREET":"中正南路","SECT":"一段","MAREA":" ","LANE":" ","ALLEY":" ","HOUSE_NO":"５２７號","E_COORD97":176830.42000000001,"N_COORD97":2539979.1800000002,"ADDRESS":"中正南路一段５２７號","OBJECTID":291155},"geometry":{"x":176830.42000000179,"y":2539979.1800000016}},{"attributes":{"ID":291162,"DIS_CODE":0,"TOWNNAME":"大內區","LI":"大內里","LIN":"4鄰","STREET":" ","SECT":" ","MAREA":"內庄","LANE":" ","ALLEY":" ","HOUSE_NO":"５４號","E_COORD97":184547.63,"N_COORD97":2557528.25,"ADDRESS":"內庄５４號","OBJECTID":291156},"geometry":{"x":184547.63000000082,"y":2557528.25}},{"attributes":{"ID":291163,"DIS_CODE":0,"TOWNNAME":"大內區","LI":"大內里","LIN":"4鄰","STREET":" ","SECT":" ","MAREA":"內庄","LANE":" ","ALLEY":" ","HOUSE_NO":"５３號","E_COORD97":184558.42999999999,"N_COORD97":2557531.25,"ADDRESS":"內庄５３號","OBJECTID":291157},"geometry":{"x":184558.43000000156,"y":2557531.2500000019}},{"attributes":{"ID":291164,"DIS_CODE":0,"TOWNNAME":"安南區","LI":"幸福里","LIN":"21鄰","STREET":"府安路","SECT":"六段","MAREA":" ","LANE":"１０３巷","ALLEY":" ","HOUSE_NO":"１５４號","E_COORD97":166661.06,"N_COORD97":2546914.8700000001,"ADDRESS":"府安路六段１０３巷１５４號","OBJECTID":291158},"geometry":{"x":166661.05999999959,"y":2546914.8700000048}},{"attributes":{"ID":291165,"DIS_CODE":0,"TOWNNAME":"安南區","LI":"溪東里","LIN":"8鄰","STREET":"府安路","SECT":"五段","MAREA":" ","LANE":" ","ALLEY":" ","HOUSE_NO":"３１號","E_COORD97":168386.88,"N_COORD97":2547210.4399999999,"ADDRESS":"府安路五段３１號","OBJECTID":291159},"geometry":{"x":168386.88000000175,"y":2547210.4399999995}},{"attributes":{"ID":291166,"DIS_CODE":0,"TOWNNAME":"大內區","LI":"二溪里","LIN":"4鄰","STREET":" ","SECT":" ","MAREA":"二重溪","LANE":" ","ALLEY":" ","HOUSE_NO":"１７０號","E_COORD97":187701.54000000001,"N_COORD97":2558130.3100000001,"ADDRESS":"二重溪１７０號","OBJECTID":291160},"geometry":{"x":187701.54000000097,"y":2558130.3100000042}},{"attributes":{"ID":291167,"DIS_CODE":0,"TOWNNAME":"大內區","LI":"內江里","LIN":"4鄰","STREET":" ","SECT":" ","MAREA":"內庄","LANE":" ","ALLEY":" ","HOUSE_NO":"２４９號之１５","E_COORD97":184547.22,"N_COORD97":2557354.2999999998,"ADDRESS":"內庄２４９號之１５","OBJECTID":291161},"geometry":{"x":184547.22000000067,"y":2557354.3000000026}},{"attributes":{"ID":291168,"DIS_CODE":0,"TOWNNAME":"安南區","LI":"幸福里","LIN":"21鄰","STREET":"府安路","SECT":"六段","MAREA":" ","LANE":"１０３巷","ALLEY":" ","HOUSE_NO":"１５６號","E_COORD97":166660.81,"N_COORD97":2546919,"ADDRESS":"府安路六段１０３巷１５６號","OBJECTID":291162},"geometry":{"x":166660.80999999959,"y":2546919}},{"attributes":{"ID":291169,"DIS_CODE":0,"TOWNNAME":"安南區","LI":"幸福里","LIN":"21鄰","STREET":"府安路","SECT":"六段","MAREA":" ","LANE":"１０３巷","ALLEY":" ","HOUSE_NO":"１５８號","E_COORD97":166659.48000000001,"N_COORD97":2546923.2400000002,"ADDRESS":"府安路六段１０３巷１５８號","OBJECTID":291163},"geometry":{"x":166659.48000000231,"y":2546923.2400000021}},{"attributes":{"ID":291170,"DIS_CODE":0,"TOWNNAME":"大內區","LI":"二溪里","LIN":"4鄰","STREET":" ","SECT":" ","MAREA":"二重溪","LANE":" ","ALLEY":" ","HOUSE_NO":"１６９號之１","E_COORD97":187702.98000000001,"N_COORD97":2558107.3100000001,"ADDRESS":"二重溪１６９號之１","OBJECTID":291164},"geometry":{"x":187702.98000000045,"y":2558107.3100000024}},{"attributes":{"ID":291171,"DIS_CODE":0,"TOWNNAME":"大內區","LI":"大內里","LIN":"4鄰","STREET":" ","SECT":" ","MAREA":"內庄","LANE":" ","ALLEY":" ","HOUSE_NO":"４３號","E_COORD97":184581.32999999999,"N_COORD97":2557498.25,"ADDRESS":"內庄４３號","OBJECTID":291165},"geometry":{"x":184581.33000000007,"y":2557498.25}},{"attributes":{"ID":291172,"DIS_CODE":0,"TOWNNAME":"大內區","LI":"大內里","LIN":"4鄰","STREET":" ","SECT":" ","MAREA":"內庄","LANE":" ","ALLEY":" ","HOUSE_NO":"４５號","E_COORD97":184570.23000000001,"N_COORD97":2557507.25,"ADDRESS":"內庄４５號","OBJECTID":291166},"geometry":{"x":184570.23000000045,"y":2557507.2500000019}},{"attributes":{"ID":291173,"DIS_CODE":0,"TOWNNAME":"大內區","LI":"大內里","LIN":"4鄰","STREET":" ","SECT":" ","MAREA":"內庄","LANE":" ","ALLEY":" ","HOUSE_NO":"５８號","E_COORD97":184594.03,"N_COORD97":2557542.25,"ADDRESS":"內庄５８號","OBJECTID":291167},"geometry":{"x":184594.03000000212,"y":2557542.25}},{"attributes":{"ID":291174,"DIS_CODE":0,"TOWNNAME":"大內區","LI":"二溪里","LIN":"4鄰","STREET":" ","SECT":" ","MAREA":"二重溪","LANE":" ","ALLEY":" ","HOUSE_NO":"１７２號之３","E_COORD97":187659.26999999999,"N_COORD97":2558146.3100000001,"ADDRESS":"二重溪１７２號之３","OBJECTID":291168},"geometry":{"x":187659.26999999955,"y":2558146.3100000005}},{"attributes":{"ID":291175,"DIS_CODE":0,"TOWNNAME":"安南區","LI":"幸福里","LIN":"21鄰","STREET":"國安街","SECT":" ","MAREA":" ","LANE":"１７３巷","ALLEY":" ","HOUSE_NO":"１０號","E_COORD97":166703.07999999999,"N_COORD97":2546914.9399999999,"ADDRESS":"國安街１７３巷１０號","OBJECTID":291169},"geometry":{"x":166703.08000000101,"y":2546914.9399999995}},{"attributes":{"ID":291176,"DIS_CODE":0,"TOWNNAME":"大內區","LI":"二溪里","LIN":"4鄰","STREET":" ","SECT":" ","MAREA":"二重溪","LANE":" ","ALLEY":" ","HOUSE_NO":"１６９號","E_COORD97":187679.94,"N_COORD97":2558105.3100000001,"ADDRESS":"二重溪１６９號","OBJECTID":291170},"geometry":{"x":187679.94000000227,"y":2558105.3100000005}},{"attributes":{"ID":291177,"DIS_CODE":0,"TOWNNAME":"大內區","LI":"二溪里","LIN":"14鄰","STREET":" ","SECT":" ","MAREA":"其子瓦","LANE":" ","ALLEY":" ","HOUSE_NO":"４１號","E_COORD97":190586.72,"N_COORD97":2558005.25,"ADDRESS":"其子瓦４１號","OBJECTID":291171},"geometry":{"x":190586.72000000067,"y":2558005.2500000019}},{"attributes":{"ID":291178,"DIS_CODE":0,"TOWNNAME":"大內區","LI":"內郭里","LIN":"8鄰","STREET":" ","SECT":" ","MAREA":"後堀","LANE":" ","ALLEY":" ","HOUSE_NO":"１３號","E_COORD97":185588.16,"N_COORD97":2557499.3199999998,"ADDRESS":"後堀１３號","OBJECTID":291172},"geometry":{"x":185588.16000000201,"y":2557499.320000004}},{"attributes":{"ID":291179,"DIS_CODE":0,"TOWNNAME":"大內區","LI":"內江里","LIN":"7鄰","STREET":" ","SECT":" ","MAREA":"內庄","LANE":" ","ALLEY":" ","HOUSE_NO":"２８５號之２","E_COORD97":184443.85000000001,"N_COORD97":2557495.2999999998,"ADDRESS":"內庄２８５號之２","OBJECTID":291173},"geometry":{"x":184443.85000000056,"y":2557495.3000000007}},{"attributes":{"ID":291180,"DIS_CODE":0,"TOWNNAME":"大內區","LI":"大內里","LIN":"7鄰","STREET":" ","SECT":" ","MAREA":"內庄","LANE":" ","ALLEY":" ","HOUSE_NO":"８２號之１","E_COORD97":184818.85999999999,"N_COORD97":2557646.2999999998,"ADDRESS":"內庄８２號之１","OBJECTID":291174},"geometry":{"x":184818.8599999994,"y":2557646.3000000026}},{"attributes":{"ID":291181,"DIS_CODE":0,"TOWNNAME":"大內區","LI":"大內里","LIN":"5鄰","STREET":" ","SECT":" ","MAREA":"內庄","LANE":" ","ALLEY":" ","HOUSE_NO":"７０之２號","E_COORD97":184346.26000000001,"N_COORD97":2557778.9399999999,"ADDRESS":"內庄７０之２號","OBJECTID":291175},"geometry":{"x":184346.26000000071,"y":2557778.9400000032}},{"attributes":{"ID":291182,"DIS_CODE":0,"TOWNNAME":"大內區","LI":"環湖里","LIN":"5鄰","STREET":" ","SECT":" ","MAREA":"環湖","LANE":" ","ALLEY":" ","HOUSE_NO":"６５之２號","E_COORD97":190483.39999999999,"N_COORD97":2560595.8599999999,"ADDRESS":"環湖６５之２號","OBJECTID":291176},"geometry":{"x":190483.40000000037,"y":2560595.8599999994}},{"attributes":{"ID":291183,"DIS_CODE":0,"TOWNNAME":"大內區","LI":"石城里","LIN":"13鄰","STREET":" ","SECT":" ","MAREA":"石子瀨","LANE":" ","ALLEY":" ","HOUSE_NO":"１１２之１號","E_COORD97":184032.85000000001,"N_COORD97":2557951.8300000001,"ADDRESS":"石子瀨１１２之１號","OBJECTID":291177},"geometry":{"x":184032.84999999963,"y":2557951.8300000001}},{"attributes":{"ID":291184,"DIS_CODE":0,"TOWNNAME":"大內區","LI":"石城里","LIN":"13鄰","STREET":" ","SECT":" ","MAREA":"石子瀨","LANE":" ","ALLEY":" ","HOUSE_NO":"１１４之６５號","E_COORD97":183876.82999999999,"N_COORD97":2557948.1600000001,"ADDRESS":"石子瀨１１４之６５號","OBJECTID":291178},"geometry":{"x":183876.83000000101,"y":2557948.160000002}},{"attributes":{"ID":291185,"DIS_CODE":0,"TOWNNAME":"大內區","LI":"石城里","LIN":"13鄰","STREET":" ","SECT":" ","MAREA":"石子瀨","LANE":" ","ALLEY":" ","HOUSE_NO":"１１４之６６號","E_COORD97":183872.04000000001,"N_COORD97":2557957,"ADDRESS":"石子瀨１１４之６６號","OBJECTID":291179},"geometry":{"x":183872.04000000097,"y":2557957.0000000019}},{"attributes":{"ID":291186,"DIS_CODE":0,"TOWNNAME":"大內區","LI":"石湖里","LIN":"17鄰","STREET":" ","SECT":" ","MAREA":"新厝子","LANE":" ","ALLEY":" ","HOUSE_NO":"３１之１號","E_COORD97":184158.64000000001,"N_COORD97":2560673.46,"ADDRESS":"新厝子３１之１號","OBJECTID":291180},"geometry":{"x":184158.64000000153,"y":2560673.4600000028}},{"attributes":{"ID":291187,"DIS_CODE":0,"TOWNNAME":"中西區","LI":"光賢里","LIN":"4鄰","STREET":"武聖路","SECT":" ","MAREA":" ","LANE":" ","ALLEY":" ","HOUSE_NO":"５５號","E_COORD97":167186.29999999999,"N_COORD97":2545109.1699999999,"ADDRESS":"武聖路５５號","OBJECTID":291181},"geometry":{"x":167186.30000000075,"y":2545109.1700000018}},{"attributes":{"ID":291188,"DIS_CODE":0,"TOWNNAME":"中西區","LI":"光賢里","LIN":"4鄰","STREET":"武聖路","SECT":" ","MAREA":" ","LANE":" ","ALLEY":" ","HOUSE_NO":"５７號","E_COORD97":167177.41,"N_COORD97":2545090.1299999999,"ADDRESS":"武聖路５７號","OBJECTID":291182},"geometry":{"x":167177.41000000108,"y":2545090.1300000027}},{"attributes":{"ID":291189,"DIS_CODE":0,"TOWNNAME":"中西區","LI":"光賢里","LIN":"4鄰","STREET":"武聖路","SECT":" ","MAREA":" ","LANE":" ","ALLEY":" ","HOUSE_NO":"５９號","E_COORD97":167181.42999999999,"N_COORD97":2545111.5099999998,"ADDRESS":"武聖路５９號","OBJECTID":291183},"geometry":{"x":167181.43000000063,"y":2545111.5099999998}},{"attributes":{"ID":291190,"DIS_CODE":0,"TOWNNAME":"中西區","LI":"光賢里","LIN":"4鄰","STREET":"武聖路","SECT":" ","MAREA":" ","LANE":" ","ALLEY":" ","HOUSE_NO":"６１號","E_COORD97":167177.20000000001,"N_COORD97":2545113.4100000001,"ADDRESS":"武聖路６１號","OBJECTID":291184},"geometry":{"x":167177.20000000112,"y":2545113.4100000039}},{"attributes":{"ID":291191,"DIS_CODE":0,"TOWNNAME":"中西區","LI":"光賢里","LIN":"4鄰","STREET":"武聖路","SECT":" ","MAREA":" ","LANE":" ","ALLEY":" ","HOUSE_NO":"６５號","E_COORD97":167167.67000000001,"N_COORD97":2545118.0699999998,"ADDRESS":"武聖路６５號","OBJECTID":291185},"geometry":{"x":167167.66999999993,"y":2545118.0700000003}},{"attributes":{"ID":291192,"DIS_CODE":0,"TOWNNAME":"中西區","LI":"光賢里","LIN":"4鄰","STREET":"武聖路","SECT":" ","MAREA":" ","LANE":" ","ALLEY":" ","HOUSE_NO":"６７號","E_COORD97":167161.54000000001,"N_COORD97":2545121.46,"ADDRESS":"武聖路６７號","OBJECTID":291186},"geometry":{"x":167161.54000000004,"y":2545121.4600000028}},{"attributes":{"ID":291193,"DIS_CODE":0,"TOWNNAME":"安南區","LI":"幸福里","LIN":"21鄰","STREET":"國安街","SECT":" ","MAREA":" ","LANE":"１７３巷","ALLEY":" ","HOUSE_NO":"１４號","E_COORD97":166704.26999999999,"N_COORD97":2546906.7999999998,"ADDRESS":"國安街１７３巷１４號","OBJECTID":291187},"geometry":{"x":166704.27000000048,"y":2546906.8000000007}},{"attributes":{"ID":291194,"DIS_CODE":0,"TOWNNAME":"安南區","LI":"幸福里","LIN":"21鄰","STREET":"國安街","SECT":" ","MAREA":" ","LANE":"１７３巷","ALLEY":" ","HOUSE_NO":"１６號","E_COORD97":166704.95999999999,"N_COORD97":2546903.1499999999,"ADDRESS":"國安街１７３巷１６號","OBJECTID":291188},"geometry":{"x":166704.96000000089,"y":2546903.1500000022}},{"attributes":{"ID":291195,"DIS_CODE":0,"TOWNNAME":"仁德區","LI":"仁義里","LIN":"18鄰","STREET":"正義路","SECT":" ","MAREA":" ","LANE":" ","ALLEY":" ","HOUSE_NO":"１９９號","E_COORD97":173901.17999999999,"N_COORD97":2541410.2599999998,"ADDRESS":"正義路１９９號","OBJECTID":291189},"geometry":{"x":173901.18000000063,"y":2541410.2599999998}},{"attributes":{"ID":291196,"DIS_CODE":0,"TOWNNAME":"善化區","LI":"光文里","LIN":"24鄰","STREET":"中山路","SECT":" ","MAREA":" ","LANE":" ","ALLEY":" ","HOUSE_NO":"１９８號之８","E_COORD97":178290.07999999999,"N_COORD97":2559199.77,"ADDRESS":"中山路１９８號之８","OBJECTID":291190},"geometry":{"x":178290.08000000007,"y":2559199.7699999996}},{"attributes":{"ID":291197,"DIS_CODE":0,"TOWNNAME":"善化區","LI":"光文里","LIN":"20鄰","STREET":"和平路","SECT":" ","MAREA":" ","LANE":" ","ALLEY":" ","HOUSE_NO":"１３３號","E_COORD97":178113.17999999999,"N_COORD97":2558943.75,"ADDRESS":"和平路１３３號","OBJECTID":291191},"geometry":{"x":178113.1799999997,"y":2558943.7500000037}},{"attributes":{"ID":291198,"DIS_CODE":0,"TOWNNAME":"善化區","LI":"光文里","LIN":"20鄰","STREET":"民生路","SECT":" ","MAREA":" ","LANE":" ","ALLEY":" ","HOUSE_NO":"３６６號","E_COORD97":178017.03,"N_COORD97":2558901.5099999998,"ADDRESS":"民生路３６６號","OBJECTID":291192},"geometry":{"x":178017.03000000119,"y":2558901.5100000016}},{"attributes":{"ID":291199,"DIS_CODE":0,"TOWNNAME":"善化區","LI":"光文里","LIN":"20鄰","STREET":"民生路","SECT":" ","MAREA":" ","LANE":" ","ALLEY":" ","HOUSE_NO":"３５４號","E_COORD97":178045.14000000001,"N_COORD97":2558905.7599999998,"ADDRESS":"民生路３５４號","OBJECTID":291193},"geometry":{"x":178045.13999999966,"y":2558905.7599999979}},{"attributes":{"ID":291200,"DIS_CODE":0,"TOWNNAME":"善化區","LI":"坐駕里","LIN":"4鄰","STREET":"中正路","SECT":" ","MAREA":" ","LANE":" ","ALLEY":" ","HOUSE_NO":"４４２號","E_COORD97":177698.94,"N_COORD97":2558952.25,"ADDRESS":"中正路４４２號","OBJECTID":291194},"geometry":{"x":177698.94000000134,"y":2558952.25}},{"attributes":{"ID":291201,"DIS_CODE":0,"TOWNNAME":"善化區","LI":"西關里","LIN":" ","STREET":"興農路","SECT":" ","MAREA":" ","LANE":" ","ALLEY":" ","HOUSE_NO":"３１５之１號","E_COORD97":175636.64999999999,"N_COORD97":2558995.77,"ADDRESS":"興農路３１５之１號","OBJECTID":291195},"geometry":{"x":175636.6500000013,"y":2558995.7699999996}},{"attributes":{"ID":291202,"DIS_CODE":0,"TOWNNAME":"善化區","LI":"光文里","LIN":"25鄰","STREET":"公園路","SECT":" ","MAREA":" ","LANE":" ","ALLEY":" ","HOUSE_NO":"８６號","E_COORD97":178120.06,"N_COORD97":2559212.5,"ADDRESS":"公園路８６號","OBJECTID":291196},"geometry":{"x":178120.05999999959,"y":2559212.5}},{"attributes":{"ID":291203,"DIS_CODE":0,"TOWNNAME":"善化區","LI":"光文里","LIN":"24鄰","STREET":"中山路","SECT":" ","MAREA":" ","LANE":" ","ALLEY":" ","HOUSE_NO":"２１０號","E_COORD97":178261.92999999999,"N_COORD97":2559143.25,"ADDRESS":"中山路２１０號","OBJECTID":291197},"geometry":{"x":178261.9299999997,"y":2559143.25}},{"attributes":{"ID":291204,"DIS_CODE":0,"TOWNNAME":"安南區","LI":"幸福里","LIN":"21鄰","STREET":"國安街","SECT":" ","MAREA":" ","LANE":"１７３巷","ALLEY":" ","HOUSE_NO":"２號","E_COORD97":166700.25,"N_COORD97":2546930.04,"ADDRESS":"國安街１７３巷２號","OBJECTID":291198},"geometry":{"x":166700.25000000093,"y":2546930.040000001}},{"attributes":{"ID":291205,"DIS_CODE":0,"TOWNNAME":"安南區","LI":"梅花里","LIN":"21鄰","STREET":"同安路","SECT":" ","MAREA":" ","LANE":"２６２巷","ALLEY":" ","HOUSE_NO":"１號","E_COORD97":167194.51000000001,"N_COORD97":2549135.4399999999,"ADDRESS":"同安路２６２巷１號","OBJECTID":291199},"geometry":{"x":167194.51000000071,"y":2549135.4399999995}},{"attributes":{"ID":291206,"DIS_CODE":0,"TOWNNAME":"安南區","LI":"梅花里","LIN":"21鄰","STREET":"同安路","SECT":" ","MAREA":" ","LANE":"２６２巷","ALLEY":" ","HOUSE_NO":"３號","E_COORD97":167197.84,"N_COORD97":2549131.9199999999,"ADDRESS":"同安路２６２巷３號","OBJECTID":291200},"geometry":{"x":167197.84000000078,"y":2549131.9200000018}}]}