{"displayFieldName":"TOWNNAME","fieldAliases":{"ID":"ID","DIS_CODE":"DIS_CODE","TOWNNAME":"TOWNNAME","LI":"LI","LIN":"LIN","STREET":"STREET","SECT":"SECT","MAREA":"MAREA","LANE":"LANE","ALLEY":"ALLEY","HOUSE_NO":"HOUSE_NO","E_COORD97":"E_COORD97","N_COORD97":"N_COORD97","ADDRESS":"ADDRESS","OBJECTID":"OBJECTID"},"geometryType":"esriGeometryPoint","spatialReference":{"wkid":102443,"latestWkid":3826},"fields":[{"name":"ID","type":"esriFieldTypeDouble","alias":"ID"},{"name":"DIS_CODE","type":"esriFieldTypeInteger","alias":"DIS_CODE"},{"name":"TOWNNAME","type":"esriFieldTypeString","alias":"TOWNNAME","length":8},{"name":"LI","type":"esriFieldTypeString","alias":"LI","length":8},{"name":"LIN","type":"esriFieldTypeString","alias":"LIN","length":12},{"name":"STREET","type":"esriFieldTypeString","alias":"STREET","length":20},{"name":"SECT","type":"esriFieldTypeString","alias":"SECT","length":8},{"name":"MAREA","type":"esriFieldTypeString","alias":"MAREA","length":12},{"name":"LANE","type":"esriFieldTypeString","alias":"LANE","length":10},{"name":"ALLEY","type":"esriFieldTypeString","alias":"ALLEY","length":10},{"name":"HOUSE_NO","type":"esriFieldTypeString","alias":"HOUSE_NO","length":20},{"name":"E_COORD97","type":"esriFieldTypeDouble","alias":"E_COORD97"},{"name":"N_COORD97","type":"esriFieldTypeDouble","alias":"N_COORD97"},{"name":"ADDRESS","type":"esriFieldTypeString","alias":"ADDRESS","length":50},{"name":"OBJECTID","type":"esriFieldTypeOID","alias":"OBJECTID"}],"features":[{"attributes":{"ID":315209,"DIS_CODE":0,"TOWNNAME":"南區","LI":"明亮里","LIN":"7鄰","STREET":"新都路","SECT":" ","MAREA":" ","LANE":"５０６巷","ALLEY":" ","HOUSE_NO":"２１號","E_COORD97":167159.35000000001,"N_COORD97":2540948.48,"ADDRESS":"新都路５０６巷２１號","OBJECTID":315201},"geometry":{"x":167159.34999999963,"y":2540948.4800000004}},{"attributes":{"ID":315210,"DIS_CODE":0,"TOWNNAME":"南區","LI":"明亮里","LIN":"7鄰","STREET":"新都路","SECT":" ","MAREA":" ","LANE":"５０６巷","ALLEY":" ","HOUSE_NO":"２２號","E_COORD97":167181.69,"N_COORD97":2540946.54,"ADDRESS":"新都路５０６巷２２號","OBJECTID":315202},"geometry":{"x":167181.68999999948,"y":2540946.5399999991}},{"attributes":{"ID":315211,"DIS_CODE":0,"TOWNNAME":"南區","LI":"明亮里","LIN":"7鄰","STREET":"新都路","SECT":" ","MAREA":" ","LANE":"５０６巷","ALLEY":" ","HOUSE_NO":"２３號","E_COORD97":167160.48000000001,"N_COORD97":2540952.6099999999,"ADDRESS":"新都路５０６巷２３號","OBJECTID":315203},"geometry":{"x":167160.48000000045,"y":2540952.6100000013}},{"attributes":{"ID":315212,"DIS_CODE":0,"TOWNNAME":"楠西區","LI":"東勢里","LIN":"17鄰","STREET":"信義路","SECT":" ","MAREA":" ","LANE":" ","ALLEY":" ","HOUSE_NO":"４８號","E_COORD97":197599.51999999999,"N_COORD97":2563457.27,"ADDRESS":"信義路４８號","OBJECTID":315204},"geometry":{"x":197599.52000000048,"y":2563457.2700000014}},{"attributes":{"ID":315213,"DIS_CODE":0,"TOWNNAME":"新營區","LI":"嘉芳里","LIN":" ","STREET":" ","SECT":" ","MAREA":"茄苳腳","LANE":" ","ALLEY":" ","HOUSE_NO":"７８之１０號","E_COORD97":176839.64999999999,"N_COORD97":2578519.3999999999,"ADDRESS":"茄苳腳７８之１０號","OBJECTID":315205},"geometry":{"x":176839.6500000013,"y":2578519.4000000022}},{"attributes":{"ID":315214,"DIS_CODE":0,"TOWNNAME":"新營區","LI":"嘉芳里","LIN":" ","STREET":" ","SECT":" ","MAREA":"茄苳腳","LANE":" ","ALLEY":" ","HOUSE_NO":"８號","E_COORD97":177177.01000000001,"N_COORD97":2578241.8999999999,"ADDRESS":"茄苳腳８號","OBJECTID":315206},"geometry":{"x":177177.00999999978,"y":2578241.9000000022}},{"attributes":{"ID":315215,"DIS_CODE":0,"TOWNNAME":"新營區","LI":"嘉芳里","LIN":"5鄰","STREET":" ","SECT":" ","MAREA":"茄苳腳","LANE":" ","ALLEY":" ","HOUSE_NO":"６０號之１８","E_COORD97":176897.67999999999,"N_COORD97":2578467.0600000001,"ADDRESS":"茄苳腳６０之１８號","OBJECTID":315207},"geometry":{"x":176897.6799999997,"y":2578467.0599999987}},{"attributes":{"ID":315216,"DIS_CODE":0,"TOWNNAME":"新營區","LI":"太南里","LIN":"4鄰","STREET":" ","SECT":" ","MAREA":"太子宮","LANE":" ","ALLEY":" ","HOUSE_NO":"３３２之２號","E_COORD97":176326.31,"N_COORD97":2577094.4300000002,"ADDRESS":"太子宮３３２之２號","OBJECTID":315208},"geometry":{"x":176326.31000000052,"y":2577094.4300000034}},{"attributes":{"ID":315217,"DIS_CODE":0,"TOWNNAME":"新營區","LI":"王公里","LIN":"1","STREET":"民治路","SECT":" ","MAREA":" ","LANE":" ","ALLEY":" ","HOUSE_NO":"２８號之１１","E_COORD97":180137.07000000001,"N_COORD97":2578884.4399999999,"ADDRESS":"民治路２８號之１１","OBJECTID":315209},"geometry":{"x":180137.07000000216,"y":2578884.4400000013}},{"attributes":{"ID":315218,"DIS_CODE":0,"TOWNNAME":"新營區","LI":"嘉芳里","LIN":" ","STREET":" ","SECT":" ","MAREA":"茄苳腳","LANE":" ","ALLEY":" ","HOUSE_NO":"５２之２號","E_COORD97":176947.72,"N_COORD97":2578286.29,"ADDRESS":"茄苳腳５２之２號","OBJECTID":315210},"geometry":{"x":176947.71999999974,"y":2578286.2899999991}},{"attributes":{"ID":315219,"DIS_CODE":0,"TOWNNAME":"新營區","LI":"太北里","LIN":"18鄰","STREET":" ","SECT":" ","MAREA":"太子宮","LANE":" ","ALLEY":" ","HOUSE_NO":"８之２３號","E_COORD97":176208.25,"N_COORD97":2577264.4399999999,"ADDRESS":"太子宮８之２３號","OBJECTID":315211},"geometry":{"x":176208.25000000093,"y":2577264.4400000013}},{"attributes":{"ID":315220,"DIS_CODE":0,"TOWNNAME":"新營區","LI":"護鎮里","LIN":" ","STREET":" ","SECT":" ","MAREA":"後鎮","LANE":" ","ALLEY":" ","HOUSE_NO":"９６之４號","E_COORD97":179107.32000000001,"N_COORD97":2580924.8300000001,"ADDRESS":"後鎮９６之４號","OBJECTID":315212},"geometry":{"x":179107.3200000003,"y":2580924.8300000001}},{"attributes":{"ID":315221,"DIS_CODE":0,"TOWNNAME":"新營區","LI":"嘉芳里","LIN":"5鄰","STREET":" ","SECT":" ","MAREA":"茄苳腳","LANE":" ","ALLEY":" ","HOUSE_NO":"６０號之１２","E_COORD97":176925.32000000001,"N_COORD97":2578473.5699999998,"ADDRESS":"茄苳腳６０之１２號","OBJECTID":315213},"geometry":{"x":176925.32000000123,"y":2578473.5699999984}},{"attributes":{"ID":315222,"DIS_CODE":0,"TOWNNAME":"新營區","LI":"大宏里","LIN":"25鄰","STREET":"同濟街","SECT":" ","MAREA":" ","LANE":"１３６巷","ALLEY":" ","HOUSE_NO":"１８號","E_COORD97":180512.07000000001,"N_COORD97":2578744.1800000002,"ADDRESS":"同濟街１３６巷１８號","OBJECTID":315214},"geometry":{"x":180512.07000000123,"y":2578744.1800000016}},{"attributes":{"ID":315223,"DIS_CODE":0,"TOWNNAME":"新營區","LI":"嘉芳里","LIN":" ","STREET":"復興路","SECT":" ","MAREA":" ","LANE":"１０７０巷","ALLEY":" ","HOUSE_NO":"２號","E_COORD97":176156.20999999999,"N_COORD97":2578864.9199999999,"ADDRESS":"復興路１０７０巷２號","OBJECTID":315215},"geometry":{"x":176156.21000000089,"y":2578864.9200000018}},{"attributes":{"ID":315224,"DIS_CODE":0,"TOWNNAME":"永康區","LI":"北灣里","LIN":"4鄰","STREET":"信義街","SECT":" ","MAREA":" ","LANE":"６２巷","ALLEY":" ","HOUSE_NO":"８號","E_COORD97":175436.72,"N_COORD97":2545690.02,"ADDRESS":"信義街６２巷８號","OBJECTID":315216},"geometry":{"x":175436.72000000067,"y":2545690.0199999996}},{"attributes":{"ID":315225,"DIS_CODE":0,"TOWNNAME":"南區","LI":"明亮里","LIN":"7鄰","STREET":"新都路","SECT":" ","MAREA":" ","LANE":"５０６巷","ALLEY":" ","HOUSE_NO":"２４號","E_COORD97":167182.60999999999,"N_COORD97":2540951.1400000001,"ADDRESS":"新都路５０６巷２４號","OBJECTID":315217},"geometry":{"x":167182.61000000127,"y":2540951.1400000006}},{"attributes":{"ID":315226,"DIS_CODE":0,"TOWNNAME":"楠西區","LI":"東勢里","LIN":"17鄰","STREET":"信義路","SECT":" ","MAREA":" ","LANE":" ","ALLEY":" ","HOUSE_NO":"５１號","E_COORD97":197592.12,"N_COORD97":2563500.27,"ADDRESS":"信義路５１號","OBJECTID":315218},"geometry":{"x":197592.12000000104,"y":2563500.2700000014}},{"attributes":{"ID":315227,"DIS_CODE":0,"TOWNNAME":"柳營區","LI":"光福里","LIN":"17鄰","STREET":"十美街","SECT":" ","MAREA":" ","LANE":" ","ALLEY":" ","HOUSE_NO":"５９６號","E_COORD97":179753.29999999999,"N_COORD97":2575505.1000000001,"ADDRESS":"十美街５９６號","OBJECTID":315219},"geometry":{"x":179753.29999999981,"y":2575505.0999999996}},{"attributes":{"ID":315228,"DIS_CODE":0,"TOWNNAME":"柳營區","LI":"光福里","LIN":"17鄰","STREET":"十美街","SECT":" ","MAREA":" ","LANE":" ","ALLEY":" ","HOUSE_NO":"６０２號","E_COORD97":179737.03,"N_COORD97":2575504.3300000001,"ADDRESS":"十美街６０２號","OBJECTID":315220},"geometry":{"x":179737.03000000026,"y":2575504.3300000001}},{"attributes":{"ID":315229,"DIS_CODE":0,"TOWNNAME":"新營區","LI":"新東里","LIN":"24鄰","STREET":"民治路","SECT":" ","MAREA":" ","LANE":"６巷","ALLEY":" ","HOUSE_NO":"１８號","E_COORD97":180642.37,"N_COORD97":2578950.7200000002,"ADDRESS":"民治路６巷１８號","OBJECTID":315221},"geometry":{"x":180642.37000000104,"y":2578950.7200000007}},{"attributes":{"ID":315230,"DIS_CODE":0,"TOWNNAME":"新營區","LI":"忠政里","LIN":"20鄰","STREET":"府西路","SECT":" ","MAREA":" ","LANE":"２５７巷","ALLEY":" ","HOUSE_NO":"３４號","E_COORD97":179716.76999999999,"N_COORD97":2579687.0499999998,"ADDRESS":"府西路２５７巷３４號","OBJECTID":315222},"geometry":{"x":179716.77000000048,"y":2579687.0500000007}},{"attributes":{"ID":315231,"DIS_CODE":0,"TOWNNAME":"新營區","LI":"土庫里","LIN":"4鄰","STREET":" ","SECT":" ","MAREA":"土庫","LANE":" ","ALLEY":" ","HOUSE_NO":"３３之２號","E_COORD97":183257.39999999999,"N_COORD97":2579990.7799999998,"ADDRESS":"土庫３３之２號","OBJECTID":315223},"geometry":{"x":183257.39999999944,"y":2579990.7800000012}},{"attributes":{"ID":315232,"DIS_CODE":0,"TOWNNAME":"新營區","LI":"嘉芳里","LIN":"5鄰","STREET":" ","SECT":" ","MAREA":"茄苳腳","LANE":" ","ALLEY":" ","HOUSE_NO":"５７號之２１","E_COORD97":176881.20000000001,"N_COORD97":2578441.6699999999,"ADDRESS":"茄苳腳５７之２１號","OBJECTID":315224},"geometry":{"x":176881.20000000019,"y":2578441.6699999999}},{"attributes":{"ID":315233,"DIS_CODE":0,"TOWNNAME":"南區","LI":"明亮里","LIN":"7鄰","STREET":"新都路","SECT":" ","MAREA":" ","LANE":"５０６巷","ALLEY":" ","HOUSE_NO":"２５號","E_COORD97":167161.10999999999,"N_COORD97":2540956.0499999998,"ADDRESS":"新都路５０６巷２５號","OBJECTID":315225},"geometry":{"x":167161.11000000034,"y":2540956.0500000007}},{"attributes":{"ID":315234,"DIS_CODE":0,"TOWNNAME":"南區","LI":"明亮里","LIN":"7鄰","STREET":"新都路","SECT":" ","MAREA":" ","LANE":"５０６巷","ALLEY":" ","HOUSE_NO":"２６號","E_COORD97":167184.14999999999,"N_COORD97":2540955.4300000002,"ADDRESS":"新都路５０６巷２６號","OBJECTID":315226},"geometry":{"x":167184.1500000013,"y":2540955.4299999997}},{"attributes":{"ID":315235,"DIS_CODE":0,"TOWNNAME":"新營區","LI":"嘉芳里","LIN":"5鄰","STREET":" ","SECT":" ","MAREA":"茄苳腳","LANE":" ","ALLEY":" ","HOUSE_NO":"５８號之１１","E_COORD97":176918.98000000001,"N_COORD97":2578427.0899999999,"ADDRESS":"茄苳腳５８之１１號","OBJECTID":315227},"geometry":{"x":176918.98000000138,"y":2578427.0900000017}},{"attributes":{"ID":315236,"DIS_CODE":0,"TOWNNAME":"南區","LI":"明亮里","LIN":"7鄰","STREET":"新都路","SECT":" ","MAREA":" ","LANE":"５０６巷","ALLEY":" ","HOUSE_NO":"２７號","E_COORD97":167162.95000000001,"N_COORD97":2540960.96,"ADDRESS":"新都路５０６巷２７號","OBJECTID":315228},"geometry":{"x":167162.95000000205,"y":2540960.9600000028}},{"attributes":{"ID":315237,"DIS_CODE":0,"TOWNNAME":"南區","LI":"明亮里","LIN":"7鄰","STREET":"新都路","SECT":" ","MAREA":" ","LANE":"５０６巷","ALLEY":" ","HOUSE_NO":"２８號","E_COORD97":167185.38,"N_COORD97":2540959.4199999999,"ADDRESS":"新都路５０６巷２８號","OBJECTID":315229},"geometry":{"x":167185.38000000082,"y":2540959.4199999999}},{"attributes":{"ID":315238,"DIS_CODE":0,"TOWNNAME":"南區","LI":"明亮里","LIN":"7鄰","STREET":"新都路","SECT":" ","MAREA":" ","LANE":"５０６巷","ALLEY":" ","HOUSE_NO":"２９號","E_COORD97":167164.48999999999,"N_COORD97":2540964.3300000001,"ADDRESS":"新都路５０６巷２９號","OBJECTID":315230},"geometry":{"x":167164.49000000115,"y":2540964.3300000019}},{"attributes":{"ID":315239,"DIS_CODE":0,"TOWNNAME":"新營區","LI":"護鎮里","LIN":" ","STREET":" ","SECT":" ","MAREA":"後鎮","LANE":" ","ALLEY":" ","HOUSE_NO":"９６之２號","E_COORD97":179092.92999999999,"N_COORD97":2580908.29,"ADDRESS":"後鎮９６之２號","OBJECTID":315231},"geometry":{"x":179092.9299999997,"y":2580908.2899999991}},{"attributes":{"ID":315240,"DIS_CODE":0,"TOWNNAME":"柳營區","LI":"光福里","LIN":"17鄰","STREET":"十美街","SECT":" ","MAREA":" ","LANE":" ","ALLEY":" ","HOUSE_NO":"６１２號","E_COORD97":179717.98000000001,"N_COORD97":2575494.7400000002,"ADDRESS":"十美街６１２號","OBJECTID":315232},"geometry":{"x":179717.98000000138,"y":2575494.7400000002}},{"attributes":{"ID":315241,"DIS_CODE":0,"TOWNNAME":"新營區","LI":"護鎮里","LIN":" ","STREET":" ","SECT":" ","MAREA":"後鎮","LANE":" ","ALLEY":" ","HOUSE_NO":"９６之５號","E_COORD97":179107.35000000001,"N_COORD97":2580929.2599999998,"ADDRESS":"後鎮９６之５號","OBJECTID":315233},"geometry":{"x":179107.35000000056,"y":2580929.2599999998}},{"attributes":{"ID":315242,"DIS_CODE":0,"TOWNNAME":"新營區","LI":"土庫里","LIN":"13鄰","STREET":" ","SECT":" ","MAREA":"土庫","LANE":" ","ALLEY":" ","HOUSE_NO":"１０５號","E_COORD97":183342.17000000001,"N_COORD97":2579808.7000000002,"ADDRESS":"土庫１０５號","OBJECTID":315234},"geometry":{"x":183342.17000000086,"y":2579808.7000000011}},{"attributes":{"ID":315243,"DIS_CODE":0,"TOWNNAME":"新營區","LI":"新北里","LIN":"17鄰","STREET":"南新街","SECT":" ","MAREA":" ","LANE":" ","ALLEY":" ","HOUSE_NO":"１１７號","E_COORD97":179192.64000000001,"N_COORD97":2578917.6499999999,"ADDRESS":"南新街１１７號","OBJECTID":315235},"geometry":{"x":179192.63999999966,"y":2578917.6500000041}},{"attributes":{"ID":315244,"DIS_CODE":0,"TOWNNAME":"新營區","LI":"大宏里","LIN":"14鄰","STREET":"中正路","SECT":" ","MAREA":" ","LANE":" ","ALLEY":" ","HOUSE_NO":"８號","E_COORD97":180067.32000000001,"N_COORD97":2578600.0699999998,"ADDRESS":"中正路８號","OBJECTID":315236},"geometry":{"x":180067.3200000003,"y":2578600.0700000022}},{"attributes":{"ID":315245,"DIS_CODE":0,"TOWNNAME":"新營區","LI":"大宏里","LIN":"10鄰","STREET":"民治路","SECT":" ","MAREA":" ","LANE":"２９巷","ALLEY":" ","HOUSE_NO":"２６號之８","E_COORD97":180141.46723000001,"N_COORD97":2578739.2477099998,"ADDRESS":"民治路２９巷２６號之８","OBJECTID":315237},"geometry":{"x":180141.4672299996,"y":2578739.2477090023}},{"attributes":{"ID":315246,"DIS_CODE":0,"TOWNNAME":"新營區","LI":"大宏里","LIN":"15鄰","STREET":"大同路","SECT":" ","MAREA":" ","LANE":" ","ALLEY":" ","HOUSE_NO":"３９號之６","E_COORD97":180697.07999999999,"N_COORD97":2578818.6699999999,"ADDRESS":"大同路３９號之６","OBJECTID":315238},"geometry":{"x":180697.08000000007,"y":2578818.6700000037}},{"attributes":{"ID":315247,"DIS_CODE":0,"TOWNNAME":"歸仁區","LI":"沙崙里","LIN":"7鄰","STREET":" ","SECT":" ","MAREA":"沙崙","LANE":" ","ALLEY":" ","HOUSE_NO":"２５１號","E_COORD97":179537.422456,"N_COORD97":2537803.04164,"ADDRESS":"沙崙２５１號","OBJECTID":315239},"geometry":{"x":179537.42245600093,"y":2537803.0416420009}},{"attributes":{"ID":315248,"DIS_CODE":0,"TOWNNAME":"新營區","LI":"大宏里","LIN":"15鄰","STREET":"大同路","SECT":" ","MAREA":" ","LANE":" ","ALLEY":" ","HOUSE_NO":"３９號之５","E_COORD97":180697.03,"N_COORD97":2578810.9199999999,"ADDRESS":"大同路３９號之５","OBJECTID":315240},"geometry":{"x":180697.03000000119,"y":2578810.9200000018}},{"attributes":{"ID":315249,"DIS_CODE":0,"TOWNNAME":"新營區","LI":"王公里","LIN":"1","STREET":"民治路","SECT":" ","MAREA":" ","LANE":" ","ALLEY":" ","HOUSE_NO":"２８號之３","E_COORD97":180163.45999999999,"N_COORD97":2578886.52,"ADDRESS":"民治路２８號之３","OBJECTID":315241},"geometry":{"x":180163.46000000089,"y":2578886.5199999996}},{"attributes":{"ID":315250,"DIS_CODE":0,"TOWNNAME":"新營區","LI":"鐵線里","LIN":"13鄰","STREET":" ","SECT":" ","MAREA":"秀才","LANE":" ","ALLEY":" ","HOUSE_NO":"３號","E_COORD97":175076.97,"N_COORD97":2573772.7000000002,"ADDRESS":"秀才３號","OBJECTID":315242},"geometry":{"x":175076.96999999881,"y":2573772.700000003}},{"attributes":{"ID":315251,"DIS_CODE":0,"TOWNNAME":"新營區","LI":"埤寮里","LIN":"4鄰","STREET":" ","SECT":" ","MAREA":"許丑","LANE":" ","ALLEY":" ","HOUSE_NO":"４５之２０號","E_COORD97":179761.23000000001,"N_COORD97":2580940.54,"ADDRESS":"許丑４５之２０號","OBJECTID":315243},"geometry":{"x":179761.23000000045,"y":2580940.5399999991}},{"attributes":{"ID":315252,"DIS_CODE":0,"TOWNNAME":"新營區","LI":"嘉芳里","LIN":"15鄰","STREET":"復興路","SECT":" ","MAREA":" ","LANE":"１０００巷","ALLEY":" ","HOUSE_NO":"１號之１１","E_COORD97":176323.84,"N_COORD97":2578925.0600000001,"ADDRESS":"復興路１０００巷１之１１號","OBJECTID":315244},"geometry":{"x":176323.83999999985,"y":2578925.0600000042}},{"attributes":{"ID":315253,"DIS_CODE":0,"TOWNNAME":"新營區","LI":"土庫里","LIN":"4鄰","STREET":" ","SECT":" ","MAREA":"土庫","LANE":" ","ALLEY":" ","HOUSE_NO":"３３號","E_COORD97":183265.10000000001,"N_COORD97":2579985.1400000001,"ADDRESS":"土庫３３號","OBJECTID":315245},"geometry":{"x":183265.09999999963,"y":2579985.1400000006}},{"attributes":{"ID":315254,"DIS_CODE":0,"TOWNNAME":"新營區","LI":"嘉芳里","LIN":"5鄰","STREET":" ","SECT":" ","MAREA":"茄苳腳","LANE":" ","ALLEY":" ","HOUSE_NO":"５７之２３號","E_COORD97":176880.22,"N_COORD97":2578451.6400000001,"ADDRESS":"茄苳腳５７之２３號","OBJECTID":315246},"geometry":{"x":176880.21999999974,"y":2578451.6400000006}},{"attributes":{"ID":315255,"DIS_CODE":0,"TOWNNAME":"新營區","LI":"鐵線里","LIN":"13鄰","STREET":" ","SECT":" ","MAREA":"秀才","LANE":" ","ALLEY":" ","HOUSE_NO":"９號","E_COORD97":174865.37,"N_COORD97":2573836.8900000001,"ADDRESS":"秀才９號","OBJECTID":315247},"geometry":{"x":174865.37000000104,"y":2573836.8900000006}},{"attributes":{"ID":315256,"DIS_CODE":0,"TOWNNAME":"南區","LI":"明亮里","LIN":"7鄰","STREET":"新都路","SECT":" ","MAREA":" ","LANE":"５０６巷","ALLEY":" ","HOUSE_NO":"３０號","E_COORD97":167187.22,"N_COORD97":2540963.4100000001,"ADDRESS":"新都路５０６巷３０號","OBJECTID":315248},"geometry":{"x":167187.21999999974,"y":2540963.4100000039}},{"attributes":{"ID":315257,"DIS_CODE":0,"TOWNNAME":"新營區","LI":"新東里","LIN":"17鄰","STREET":"東興四街","SECT":" ","MAREA":" ","LANE":" ","ALLEY":" ","HOUSE_NO":"７２號","E_COORD97":180975.19,"N_COORD97":2579128.5,"ADDRESS":"東興四街７２號","OBJECTID":315249},"geometry":{"x":180975.19000000041,"y":2579128.5000000037}},{"attributes":{"ID":315258,"DIS_CODE":0,"TOWNNAME":"新營區","LI":"民榮里","LIN":"17鄰","STREET":"新進路","SECT":"二段","MAREA":" ","LANE":" ","ALLEY":" ","HOUSE_NO":"３２４號","E_COORD97":178755.69,"N_COORD97":2577794.5800000001,"ADDRESS":"新進路二段３２４號","OBJECTID":315250},"geometry":{"x":178755.69000000041,"y":2577794.5800000001}},{"attributes":{"ID":315259,"DIS_CODE":0,"TOWNNAME":"南區","LI":"明亮里","LIN":"7鄰","STREET":"新都路","SECT":" ","MAREA":" ","LANE":"５０６巷","ALLEY":" ","HOUSE_NO":"３１號","E_COORD97":167165.10000000001,"N_COORD97":2540968.6299999999,"ADDRESS":"新都路５０６巷３１號","OBJECTID":315251},"geometry":{"x":167165.10000000056,"y":2540968.6300000008}},{"attributes":{"ID":315260,"DIS_CODE":0,"TOWNNAME":"南區","LI":"明亮里","LIN":"7鄰","STREET":"新都路","SECT":" ","MAREA":" ","LANE":"５０６巷","ALLEY":" ","HOUSE_NO":"３２號","E_COORD97":167187.53,"N_COORD97":2540967.3999999999,"ADDRESS":"新都路５０６巷３２號","OBJECTID":315252},"geometry":{"x":167187.53000000026,"y":2540967.4000000041}},{"attributes":{"ID":315261,"DIS_CODE":0,"TOWNNAME":"南區","LI":"明亮里","LIN":"7鄰","STREET":"新都路","SECT":" ","MAREA":" ","LANE":"５０６巷","ALLEY":" ","HOUSE_NO":"３３號","E_COORD97":167166.64000000001,"N_COORD97":2540972.6200000001,"ADDRESS":"新都路５０６巷３３號","OBJECTID":315253},"geometry":{"x":167166.6400000006,"y":2540972.620000001}},{"attributes":{"ID":315262,"DIS_CODE":0,"TOWNNAME":"新營區","LI":"王公里","LIN":"17鄰","STREET":"大智街","SECT":" ","MAREA":" ","LANE":" ","ALLEY":" ","HOUSE_NO":"３７號","E_COORD97":180260.29999999999,"N_COORD97":2579345.6000000001,"ADDRESS":"大智街３７號","OBJECTID":315254},"geometry":{"x":180260.29999999981,"y":2579345.6000000015}},{"attributes":{"ID":315263,"DIS_CODE":0,"TOWNNAME":"鹽水區","LI":"河南里","LIN":"7鄰","STREET":" ","SECT":" ","MAREA":"?頭港","LANE":" ","ALLEY":" ","HOUSE_NO":"５６號","E_COORD97":172899.53,"N_COORD97":2572712.27,"ADDRESS":"?頭港５６號","OBJECTID":315255},"geometry":{"x":172899.53000000119,"y":2572712.2700000014}},{"attributes":{"ID":315264,"DIS_CODE":0,"TOWNNAME":"新營區","LI":"太北里","LIN":"17鄰","STREET":" ","SECT":" ","MAREA":"太子宮","LANE":" ","ALLEY":" ","HOUSE_NO":"１４８號之２","E_COORD97":175348.60999999999,"N_COORD97":2577162.4399999999,"ADDRESS":"太子宮１４８號之２","OBJECTID":315256},"geometry":{"x":175348.61000000127,"y":2577162.4400000013}},{"attributes":{"ID":315265,"DIS_CODE":0,"TOWNNAME":"新營區","LI":"鐵線里","LIN":"13鄰","STREET":" ","SECT":" ","MAREA":"秀才","LANE":" ","ALLEY":" ","HOUSE_NO":"４號","E_COORD97":175096.32000000001,"N_COORD97":2573755.9900000002,"ADDRESS":"秀才４號","OBJECTID":315257},"geometry":{"x":175096.32000000123,"y":2573755.9900000021}},{"attributes":{"ID":315266,"DIS_CODE":0,"TOWNNAME":"新營區","LI":"大宏里","LIN":"12鄰","STREET":"開元路","SECT":" ","MAREA":" ","LANE":"５９巷","ALLEY":" ","HOUSE_NO":"１２號之２","E_COORD97":180859.54999999999,"N_COORD97":2578805.73,"ADDRESS":"開元路５９巷１２號之２","OBJECTID":315258},"geometry":{"x":180859.55000000075,"y":2578805.7300000023}},{"attributes":{"ID":315267,"DIS_CODE":0,"TOWNNAME":"新營區","LI":"鐵線里","LIN":"4鄰","STREET":" ","SECT":" ","MAREA":"鐵線橋","LANE":" ","ALLEY":" ","HOUSE_NO":"３４之８號","E_COORD97":176267.07999999999,"N_COORD97":2573867.5899999999,"ADDRESS":"鐵線橋３４之８號","OBJECTID":315259},"geometry":{"x":176267.08000000101,"y":2573867.5899999999}},{"attributes":{"ID":315268,"DIS_CODE":0,"TOWNNAME":"新營區","LI":"大宏里","LIN":"19鄰","STREET":"三民路","SECT":" ","MAREA":" ","LANE":" ","ALLEY":" ","HOUSE_NO":"３６號之６","E_COORD97":180434.76000000001,"N_COORD97":2578502.0600000001,"ADDRESS":"三民路３６號之６","OBJECTID":315260},"geometry":{"x":180434.75999999978,"y":2578502.0600000024}},{"attributes":{"ID":315269,"DIS_CODE":0,"TOWNNAME":"新營區","LI":"埤寮里","LIN":"4鄰","STREET":" ","SECT":" ","MAREA":"許丑","LANE":" ","ALLEY":" ","HOUSE_NO":"５１之２號","E_COORD97":179755.07999999999,"N_COORD97":2580997.04,"ADDRESS":"許丑５１之２號","OBJECTID":315261},"geometry":{"x":179755.08000000007,"y":2580997.0399999991}},{"attributes":{"ID":315270,"DIS_CODE":0,"TOWNNAME":"新營區","LI":"大宏里","LIN":"15鄰","STREET":"大同路","SECT":" ","MAREA":" ","LANE":" ","ALLEY":" ","HOUSE_NO":"４１號之９","E_COORD97":180669.57000000001,"N_COORD97":2578846.4900000002,"ADDRESS":"大同路４１號之９","OBJECTID":315262},"geometry":{"x":180669.57000000123,"y":2578846.4900000002}},{"attributes":{"ID":315271,"DIS_CODE":0,"TOWNNAME":"新營區","LI":"鐵線里","LIN":" ","STREET":" ","SECT":" ","MAREA":"鐵線橋","LANE":" ","ALLEY":" ","HOUSE_NO":"４０號","E_COORD97":175983.82000000001,"N_COORD97":2573789.2000000002,"ADDRESS":"鐵線橋４０號","OBJECTID":315263},"geometry":{"x":175983.81999999937,"y":2573789.1999999993}},{"attributes":{"ID":315272,"DIS_CODE":0,"TOWNNAME":"新營區","LI":"鐵線里","LIN":" ","STREET":" ","SECT":" ","MAREA":"鐵線橋","LANE":" ","ALLEY":" ","HOUSE_NO":"１０８之１號","E_COORD97":175930.82999999999,"N_COORD97":2573916.8799999999,"ADDRESS":"鐵線橋１０８之１號","OBJECTID":315264},"geometry":{"x":175930.83000000007,"y":2573916.8800000027}},{"attributes":{"ID":315273,"DIS_CODE":0,"TOWNNAME":"新營區","LI":"埤寮里","LIN":"4鄰","STREET":" ","SECT":" ","MAREA":"許丑","LANE":" ","ALLEY":" ","HOUSE_NO":"４８之６號","E_COORD97":179719.32999999999,"N_COORD97":2580992.7799999998,"ADDRESS":"許丑４８之６號","OBJECTID":315265},"geometry":{"x":179719.33000000007,"y":2580992.7799999993}},{"attributes":{"ID":315274,"DIS_CODE":0,"TOWNNAME":"新營區","LI":"鐵線里","LIN":"4鄰","STREET":" ","SECT":" ","MAREA":"鐵線橋","LANE":" ","ALLEY":" ","HOUSE_NO":"４３號","E_COORD97":175994.82999999999,"N_COORD97":2573740.4100000001,"ADDRESS":"鐵線橋４３號","OBJECTID":315266},"geometry":{"x":175994.83000000007,"y":2573740.4100000001}},{"attributes":{"ID":315275,"DIS_CODE":0,"TOWNNAME":"新營區","LI":"民生里","LIN":"20鄰","STREET":"進修街","SECT":" ","MAREA":" ","LANE":"２９巷","ALLEY":" ","HOUSE_NO":"４２號","E_COORD97":178906.14000000001,"N_COORD97":2578501.5099999998,"ADDRESS":"進修街２９巷４２號","OBJECTID":315267},"geometry":{"x":178906.13999999966,"y":2578501.5100000016}},{"attributes":{"ID":315276,"DIS_CODE":0,"TOWNNAME":"新營區","LI":"鐵線里","LIN":"4鄰","STREET":" ","SECT":" ","MAREA":"鐵線橋","LANE":" ","ALLEY":" ","HOUSE_NO":"４６號","E_COORD97":176036.88,"N_COORD97":2573759.0299999998,"ADDRESS":"鐵線橋４６號","OBJECTID":315268},"geometry":{"x":176036.87999999989,"y":2573759.0299999993}},{"attributes":{"ID":315277,"DIS_CODE":0,"TOWNNAME":"南區","LI":"明興里","LIN":"7鄰","STREET":"金華路","SECT":"一段","MAREA":" ","LANE":"１５４巷","ALLEY":" ","HOUSE_NO":"６號","E_COORD97":166961.38,"N_COORD97":2540642.4199999999,"ADDRESS":"金華路一段１５４巷６號","OBJECTID":315269},"geometry":{"x":166961.38000000175,"y":2540642.4200000018}},{"attributes":{"ID":315278,"DIS_CODE":0,"TOWNNAME":"南區","LI":"明興里","LIN":"7鄰","STREET":"金華路","SECT":"一段","MAREA":" ","LANE":"１５４巷","ALLEY":" ","HOUSE_NO":"４號","E_COORD97":166957.22,"N_COORD97":2540643.6899999999,"ADDRESS":"金華路一段１５４巷４號","OBJECTID":315270},"geometry":{"x":166957.2200000016,"y":2540643.6900000013}},{"attributes":{"ID":315279,"DIS_CODE":0,"TOWNNAME":"新營區","LI":"太北里","LIN":"4鄰","STREET":" ","SECT":" ","MAREA":"太子宮","LANE":" ","ALLEY":" ","HOUSE_NO":"２９之２號","E_COORD97":175984.04999999999,"N_COORD97":2577230.1299999999,"ADDRESS":"太子宮２９之２號","OBJECTID":315271},"geometry":{"x":175984.05000000075,"y":2577230.129999999}},{"attributes":{"ID":315280,"DIS_CODE":0,"TOWNNAME":"南區","LI":"明興里","LIN":"7鄰","STREET":"金華路","SECT":"一段","MAREA":" ","LANE":"１５４巷","ALLEY":" ","HOUSE_NO":"５號","E_COORD97":166966.79000000001,"N_COORD97":2540653.98,"ADDRESS":"金華路一段１５４巷５號","OBJECTID":315272},"geometry":{"x":166966.79000000004,"y":2540653.9800000004}},{"attributes":{"ID":315281,"DIS_CODE":0,"TOWNNAME":"新營區","LI":"大宏里","LIN":"17鄰","STREET":"三民路","SECT":" ","MAREA":" ","LANE":" ","ALLEY":" ","HOUSE_NO":"４６之６６號","E_COORD97":180346.14999999999,"N_COORD97":2578536.8199999998,"ADDRESS":"三民路４６之６６號","OBJECTID":315273},"geometry":{"x":180346.15000000037,"y":2578536.8200000022}},{"attributes":{"ID":315282,"DIS_CODE":0,"TOWNNAME":"新營區","LI":"三仙里","LIN":"17鄰","STREET":"三民路","SECT":" ","MAREA":" ","LANE":" ","ALLEY":" ","HOUSE_NO":"１１５號","E_COORD97":179492.51999999999,"N_COORD97":2578357.1800000002,"ADDRESS":"三民路１１５號","OBJECTID":315274},"geometry":{"x":179492.52000000142,"y":2578357.1800000034}},{"attributes":{"ID":315283,"DIS_CODE":0,"TOWNNAME":"新營區","LI":"南興里","LIN":"17鄰","STREET":"建業路","SECT":" ","MAREA":" ","LANE":" ","ALLEY":" ","HOUSE_NO":"１２６號","E_COORD97":179185.82999999999,"N_COORD97":2577493.5099999998,"ADDRESS":"建業路１２６號","OBJECTID":315275},"geometry":{"x":179185.83000000194,"y":2577493.5099999979}},{"attributes":{"ID":315284,"DIS_CODE":0,"TOWNNAME":"新營區","LI":"三仙里","LIN":"17鄰","STREET":"三民路","SECT":" ","MAREA":" ","LANE":" ","ALLEY":" ","HOUSE_NO":"１０１之１５號","E_COORD97":179614.85999999999,"N_COORD97":2578354.7400000002,"ADDRESS":"三民路１０１之１５號","OBJECTID":315276},"geometry":{"x":179614.8600000022,"y":2578354.7400000021}},{"attributes":{"ID":315285,"DIS_CODE":0,"TOWNNAME":"新營區","LI":"埤寮里","LIN":"2鄰","STREET":" ","SECT":" ","MAREA":"許丑","LANE":" ","ALLEY":" ","HOUSE_NO":"２４號之２","E_COORD97":179956.51000000001,"N_COORD97":2580977.2599999998,"ADDRESS":"許丑２４號之２","OBJECTID":315277},"geometry":{"x":179956.50999999978,"y":2580977.2600000035}},{"attributes":{"ID":315286,"DIS_CODE":0,"TOWNNAME":"新營區","LI":"鐵線里","LIN":" ","STREET":" ","SECT":" ","MAREA":"鐵線橋","LANE":" ","ALLEY":" ","HOUSE_NO":"１８之１０號","E_COORD97":176102.35999999999,"N_COORD97":2573845.1499999999,"ADDRESS":"鐵線橋１８之１０號","OBJECTID":315278},"geometry":{"x":176102.3600000022,"y":2573845.1499999985}},{"attributes":{"ID":315287,"DIS_CODE":0,"TOWNNAME":"新營區","LI":"南紙里","LIN":"17鄰","STREET":"南紙街","SECT":" ","MAREA":" ","LANE":"１６２巷","ALLEY":" ","HOUSE_NO":"６５號","E_COORD97":177885.56,"N_COORD97":2577303.75,"ADDRESS":"南紙街１６２巷６５號","OBJECTID":315279},"geometry":{"x":177885.56000000052,"y":2577303.7500000019}},{"attributes":{"ID":315288,"DIS_CODE":0,"TOWNNAME":"新營區","LI":"鐵線里","LIN":"4鄰","STREET":" ","SECT":" ","MAREA":"鐵線橋","LANE":" ","ALLEY":" ","HOUSE_NO":"３７號","E_COORD97":176088.14000000001,"N_COORD97":2573776.5,"ADDRESS":"鐵線橋３７號","OBJECTID":315280},"geometry":{"x":176088.1400000006,"y":2573776.5000000019}},{"attributes":{"ID":315289,"DIS_CODE":0,"TOWNNAME":"新營區","LI":"鐵線里","LIN":" ","STREET":" ","SECT":" ","MAREA":"秀才","LANE":" ","ALLEY":" ","HOUSE_NO":"１９之１號","E_COORD97":174687.48999999999,"N_COORD97":2573928.6699999999,"ADDRESS":"秀才１９之１號","OBJECTID":315281},"geometry":{"x":174687.49000000209,"y":2573928.6699999999}},{"attributes":{"ID":315290,"DIS_CODE":0,"TOWNNAME":"新營區","LI":"鐵線里","LIN":" ","STREET":" ","SECT":" ","MAREA":"鐵線橋","LANE":" ","ALLEY":" ","HOUSE_NO":"４８之２號","E_COORD97":176080.09,"N_COORD97":2573715.6800000002,"ADDRESS":"鐵線橋４８之２號","OBJECTID":315282},"geometry":{"x":176080.09000000078,"y":2573715.6800000034}},{"attributes":{"ID":315291,"DIS_CODE":0,"TOWNNAME":"新營區","LI":"太北里","LIN":"18鄰","STREET":" ","SECT":" ","MAREA":"太子宮","LANE":" ","ALLEY":" ","HOUSE_NO":"６號之３","E_COORD97":176263.78,"N_COORD97":2577229.8300000001,"ADDRESS":"太子宮６號之３","OBJECTID":315283},"geometry":{"x":176263.78000000212,"y":2577229.8300000001}},{"attributes":{"ID":315292,"DIS_CODE":0,"TOWNNAME":"新營區","LI":"嘉芳里","LIN":" ","STREET":" ","SECT":" ","MAREA":"茄苳腳","LANE":" ","ALLEY":" ","HOUSE_NO":"５０之３１號","E_COORD97":176831.67000000001,"N_COORD97":2578355.5299999998,"ADDRESS":"茄苳腳５０之３１號","OBJECTID":315284},"geometry":{"x":176831.66999999993,"y":2578355.5300000012}},{"attributes":{"ID":315293,"DIS_CODE":0,"TOWNNAME":"新營區","LI":"南紙里","LIN":"5鄰","STREET":"南紙街","SECT":" ","MAREA":" ","LANE":"２９巷","ALLEY":" ","HOUSE_NO":"１０號","E_COORD97":177868.16,"N_COORD97":2577723.5600000001,"ADDRESS":"南紙街２９巷１０號","OBJECTID":315285},"geometry":{"x":177868.16000000201,"y":2577723.5600000005}},{"attributes":{"ID":315294,"DIS_CODE":0,"TOWNNAME":"新營區","LI":"嘉芳里","LIN":" ","STREET":" ","SECT":" ","MAREA":"茄苳腳","LANE":" ","ALLEY":" ","HOUSE_NO":"２０號","E_COORD97":177100.26999999999,"N_COORD97":2578397.3300000001,"ADDRESS":"茄苳腳２０號","OBJECTID":315286},"geometry":{"x":177100.26999999955,"y":2578397.3300000038}},{"attributes":{"ID":315295,"DIS_CODE":0,"TOWNNAME":"新營區","LI":"護鎮里","LIN":" ","STREET":" ","SECT":" ","MAREA":"後鎮","LANE":" ","ALLEY":" ","HOUSE_NO":"９７之７號","E_COORD97":179057.31,"N_COORD97":2580945,"ADDRESS":"後鎮９７之７號","OBJECTID":315287},"geometry":{"x":179057.31000000052,"y":2580945}},{"attributes":{"ID":315296,"DIS_CODE":0,"TOWNNAME":"新營區","LI":"太北里","LIN":"20鄰","STREET":" ","SECT":" ","MAREA":"太子宮","LANE":" ","ALLEY":" ","HOUSE_NO":"１４０號之３４","E_COORD97":175287.04999999999,"N_COORD97":2576473.9199999999,"ADDRESS":"太子宮１４０號之３４","OBJECTID":315288},"geometry":{"x":175287.05000000075,"y":2576473.9200000037}},{"attributes":{"ID":315297,"DIS_CODE":0,"TOWNNAME":"新營區","LI":"民榮里","LIN":"20鄰","STREET":"裕民路","SECT":" ","MAREA":" ","LANE":"３４巷","ALLEY":" ","HOUSE_NO":"３２之２號","E_COORD97":179033.59,"N_COORD97":2577890.75,"ADDRESS":"裕民路３４巷３２之２號","OBJECTID":315289},"geometry":{"x":179033.59000000078,"y":2577890.75}},{"attributes":{"ID":315298,"DIS_CODE":0,"TOWNNAME":"新營區","LI":"新東里","LIN":"26鄰","STREET":"東興五街","SECT":" ","MAREA":" ","LANE":"２１巷","ALLEY":" ","HOUSE_NO":"４１號","E_COORD97":180643.32000000001,"N_COORD97":2579452.3300000001,"ADDRESS":"東興五街２１巷４１號","OBJECTID":315290},"geometry":{"x":180643.3200000003,"y":2579452.3300000019}},{"attributes":{"ID":315299,"DIS_CODE":0,"TOWNNAME":"南區","LI":"明興里","LIN":"7鄰","STREET":"金華路","SECT":"一段","MAREA":" ","LANE":"１５４巷","ALLEY":" ","HOUSE_NO":"７號","E_COORD97":166970.87,"N_COORD97":2540652.96,"ADDRESS":"金華路一段１５４巷７號","OBJECTID":315291},"geometry":{"x":166970.87000000104,"y":2540652.9600000028}},{"attributes":{"ID":315300,"DIS_CODE":0,"TOWNNAME":"南區","LI":"明興里","LIN":"7鄰","STREET":"金華路","SECT":"一段","MAREA":" ","LANE":"１５４巷","ALLEY":" ","HOUSE_NO":"８號","E_COORD97":166965.88,"N_COORD97":2540644.2799999998,"ADDRESS":"金華路一段１５４巷８號","OBJECTID":315292},"geometry":{"x":166965.87999999989,"y":2540644.2799999993}},{"attributes":{"ID":315301,"DIS_CODE":0,"TOWNNAME":"南區","LI":"明興里","LIN":"7鄰","STREET":"金華路","SECT":"一段","MAREA":" ","LANE":"１５４巷","ALLEY":" ","HOUSE_NO":"９號","E_COORD97":166975.20000000001,"N_COORD97":2540653.73,"ADDRESS":"金華路一段１５４巷９號","OBJECTID":315293},"geometry":{"x":166975.20000000112,"y":2540653.7300000023}},{"attributes":{"ID":315302,"DIS_CODE":0,"TOWNNAME":"南區","LI":"明興里","LIN":"7鄰","STREET":"金華路","SECT":"一段","MAREA":" ","LANE":"１５４巷","ALLEY":" ","HOUSE_NO":"１０號","E_COORD97":166970.22,"N_COORD97":2540642.8399999999,"ADDRESS":"金華路一段１５４巷１０號","OBJECTID":315294},"geometry":{"x":166970.21999999974,"y":2540642.8400000017}},{"attributes":{"ID":315303,"DIS_CODE":0,"TOWNNAME":"南區","LI":"明興里","LIN":"7鄰","STREET":"金華路","SECT":"一段","MAREA":" ","LANE":"１５４巷","ALLEY":" ","HOUSE_NO":"１１號","E_COORD97":166978.85999999999,"N_COORD97":2540652.8799999999,"ADDRESS":"金華路一段１５４巷１１號","OBJECTID":315295},"geometry":{"x":166978.8600000022,"y":2540652.879999999}},{"attributes":{"ID":315304,"DIS_CODE":0,"TOWNNAME":"南區","LI":"明興里","LIN":"7鄰","STREET":"金華路","SECT":"一段","MAREA":" ","LANE":"１５４巷","ALLEY":" ","HOUSE_NO":"１２號","E_COORD97":166973.95999999999,"N_COORD97":2540641.9100000001,"ADDRESS":"金華路一段１５４巷１２號","OBJECTID":315296},"geometry":{"x":166973.95999999996,"y":2540641.910000002}},{"attributes":{"ID":315305,"DIS_CODE":0,"TOWNNAME":"南區","LI":"明興里","LIN":"7鄰","STREET":"金華路","SECT":"一段","MAREA":" ","LANE":"１５４巷","ALLEY":" ","HOUSE_NO":"１３號","E_COORD97":166982.42999999999,"N_COORD97":2540652.6200000001,"ADDRESS":"金華路一段１５４巷１３號","OBJECTID":315297},"geometry":{"x":166982.4299999997,"y":2540652.6200000029}},{"attributes":{"ID":315306,"DIS_CODE":0,"TOWNNAME":"新營區","LI":"南興里","LIN":"17鄰","STREET":"建業路","SECT":" ","MAREA":" ","LANE":" ","ALLEY":" ","HOUSE_NO":"１３２號","E_COORD97":179170.48999999999,"N_COORD97":2577494.6899999999,"ADDRESS":"建業路１３２號","OBJECTID":315298},"geometry":{"x":179170.49000000022,"y":2577494.6899999995}},{"attributes":{"ID":315307,"DIS_CODE":0,"TOWNNAME":"新營區","LI":"民榮里","LIN":"17鄰","STREET":"富強街","SECT":" ","MAREA":" ","LANE":" ","ALLEY":" ","HOUSE_NO":"１２號","E_COORD97":178970.20000000001,"N_COORD97":2577797.98,"ADDRESS":"富強街１２號","OBJECTID":315299},"geometry":{"x":178970.20000000112,"y":2577797.9800000023}},{"attributes":{"ID":315308,"DIS_CODE":0,"TOWNNAME":"新營區","LI":"三仙里","LIN":"17鄰","STREET":"三民路","SECT":" ","MAREA":" ","LANE":" ","ALLEY":" ","HOUSE_NO":"１０５號","E_COORD97":179552.19,"N_COORD97":2578386.5699999998,"ADDRESS":"三民路１０５號","OBJECTID":315300},"geometry":{"x":179552.19000000134,"y":2578386.5700000022}},{"attributes":{"ID":315309,"DIS_CODE":0,"TOWNNAME":"新營區","LI":"大宏里","LIN":"17鄰","STREET":"三民路","SECT":" ","MAREA":" ","LANE":" ","ALLEY":" ","HOUSE_NO":"４６之５３號","E_COORD97":180346.14999999999,"N_COORD97":2578536.8199999998,"ADDRESS":"三民路４６之５３號","OBJECTID":315301},"geometry":{"x":180346.15000000037,"y":2578536.8200000022}},{"attributes":{"ID":315310,"DIS_CODE":0,"TOWNNAME":"新營區","LI":"新東里","LIN":"20鄰","STREET":"東興八街","SECT":" ","MAREA":" ","LANE":" ","ALLEY":" ","HOUSE_NO":"６５號","E_COORD97":180906.29999999999,"N_COORD97":2579492.0699999998,"ADDRESS":"東興八街６５號","OBJECTID":315302},"geometry":{"x":180906.30000000168,"y":2579492.0700000022}},{"attributes":{"ID":315311,"DIS_CODE":0,"TOWNNAME":"新營區","LI":"嘉芳里","LIN":" ","STREET":" ","SECT":" ","MAREA":"茄苳腳","LANE":" ","ALLEY":" ","HOUSE_NO":"７９之３號","E_COORD97":176790.42000000001,"N_COORD97":2578538.46,"ADDRESS":"茄苳腳７９之３號","OBJECTID":315303},"geometry":{"x":176790.42000000086,"y":2578538.4600000009}},{"attributes":{"ID":315312,"DIS_CODE":0,"TOWNNAME":"新營區","LI":"嘉芳里","LIN":" ","STREET":" ","SECT":" ","MAREA":"茄苳腳","LANE":" ","ALLEY":" ","HOUSE_NO":"５０之３０號","E_COORD97":176830.67000000001,"N_COORD97":2578358.8599999999,"ADDRESS":"茄苳腳５０之３０號","OBJECTID":315304},"geometry":{"x":176830.67000000086,"y":2578358.8600000031}},{"attributes":{"ID":315313,"DIS_CODE":0,"TOWNNAME":"新營區","LI":"嘉芳里","LIN":"9鄰","STREET":" ","SECT":" ","MAREA":"茄苳腳","LANE":" ","ALLEY":" ","HOUSE_NO":"８４號之１","E_COORD97":176724.53,"N_COORD97":2578648.4199999999,"ADDRESS":"茄苳腳８４之１號","OBJECTID":315305},"geometry":{"x":176724.53000000026,"y":2578648.4200000018}},{"attributes":{"ID":315314,"DIS_CODE":0,"TOWNNAME":"新營區","LI":"太南里","LIN":" ","STREET":" ","SECT":" ","MAREA":"太子宮","LANE":" ","ALLEY":" ","HOUSE_NO":"２７０號","E_COORD97":176141.28,"N_COORD97":2576805.1299999999,"ADDRESS":"太子宮２７０號","OBJECTID":315306},"geometry":{"x":176141.28000000026,"y":2576805.1300000008}},{"attributes":{"ID":315315,"DIS_CODE":0,"TOWNNAME":"新營區","LI":"嘉芳里","LIN":" ","STREET":" ","SECT":" ","MAREA":"茄苳腳","LANE":" ","ALLEY":" ","HOUSE_NO":"４２號","E_COORD97":176895.54000000001,"N_COORD97":2578571.1000000001,"ADDRESS":"茄苳腳４２號","OBJECTID":315307},"geometry":{"x":176895.54000000004,"y":2578571.1000000034}},{"attributes":{"ID":315316,"DIS_CODE":0,"TOWNNAME":"新營區","LI":"嘉芳里","LIN":" ","STREET":" ","SECT":" ","MAREA":"茄苳腳","LANE":" ","ALLEY":" ","HOUSE_NO":"５７之３１號","E_COORD97":176861.94,"N_COORD97":2578477.2000000002,"ADDRESS":"茄苳腳５７之３１號","OBJECTID":315308},"geometry":{"x":176861.94000000134,"y":2578477.1999999993}},{"attributes":{"ID":315317,"DIS_CODE":0,"TOWNNAME":"新營區","LI":"王公里","LIN":"24鄰","STREET":"公正街","SECT":" ","MAREA":" ","LANE":" ","ALLEY":" ","HOUSE_NO":"７８號之１","E_COORD97":180166.01000000001,"N_COORD97":2579436.9100000001,"ADDRESS":"公正街７８號之１","OBJECTID":315309},"geometry":{"x":180166.01000000071,"y":2579436.9100000001}},{"attributes":{"ID":315318,"DIS_CODE":0,"TOWNNAME":"新營區","LI":"大宏里","LIN":"8鄰","STREET":"文昌街","SECT":" ","MAREA":" ","LANE":" ","ALLEY":" ","HOUSE_NO":"２２號之２","E_COORD97":180419.04000000001,"N_COORD97":2578425.73,"ADDRESS":"文昌街２２號之２","OBJECTID":315310},"geometry":{"x":180419.04000000097,"y":2578425.7300000023}},{"attributes":{"ID":315319,"DIS_CODE":0,"TOWNNAME":"新營區","LI":"王公里","LIN":"24鄰","STREET":"公正街","SECT":" ","MAREA":" ","LANE":" ","ALLEY":" ","HOUSE_NO":"８１號之１","E_COORD97":180139.44,"N_COORD97":2579432.6099999999,"ADDRESS":"公正街８１號之１","OBJECTID":315311},"geometry":{"x":180139.44000000041,"y":2579432.6100000013}},{"attributes":{"ID":315320,"DIS_CODE":0,"TOWNNAME":"新營區","LI":"嘉芳里","LIN":" ","STREET":" ","SECT":" ","MAREA":"茄苳腳","LANE":" ","ALLEY":" ","HOUSE_NO":"８８之１號","E_COORD97":176692.88,"N_COORD97":2578662.98,"ADDRESS":"茄苳腳８８之１號","OBJECTID":315312},"geometry":{"x":176692.87999999989,"y":2578662.9800000004}},{"attributes":{"ID":315321,"DIS_CODE":0,"TOWNNAME":"新營區","LI":"新東里","LIN":"4鄰","STREET":"東大街","SECT":" ","MAREA":" ","LANE":"５２巷","ALLEY":" ","HOUSE_NO":"２８號","E_COORD97":181120.51000000001,"N_COORD97":2579136.7000000002,"ADDRESS":"東大街５２巷２８號","OBJECTID":315313},"geometry":{"x":181120.51000000071,"y":2579136.7000000011}},{"attributes":{"ID":315322,"DIS_CODE":0,"TOWNNAME":"新營區","LI":"嘉芳里","LIN":" ","STREET":" ","SECT":" ","MAREA":"茄苳腳","LANE":" ","ALLEY":" ","HOUSE_NO":"８７號","E_COORD97":176723.26999999999,"N_COORD97":2578694.8799999999,"ADDRESS":"茄苳腳８７號","OBJECTID":315314},"geometry":{"x":176723.27000000048,"y":2578694.8800000008}},{"attributes":{"ID":315323,"DIS_CODE":0,"TOWNNAME":"南區","LI":"明興里","LIN":"7鄰","STREET":"金華路","SECT":"一段","MAREA":" ","LANE":"１５４巷","ALLEY":" ","HOUSE_NO":"１４號","E_COORD97":166978.63,"N_COORD97":2540643.4399999999,"ADDRESS":"金華路一段１５４巷１４號","OBJECTID":315315},"geometry":{"x":166978.63000000082,"y":2540643.4399999995}},{"attributes":{"ID":315324,"DIS_CODE":0,"TOWNNAME":"南區","LI":"明興里","LIN":"7鄰","STREET":"金華路","SECT":"一段","MAREA":" ","LANE":"１５４巷","ALLEY":" ","HOUSE_NO":"１５號","E_COORD97":166987.35000000001,"N_COORD97":2540653.3900000001,"ADDRESS":"金華路一段１５４巷１５號","OBJECTID":315316},"geometry":{"x":166987.35000000056,"y":2540653.3900000025}},{"attributes":{"ID":315325,"DIS_CODE":0,"TOWNNAME":"南區","LI":"明興里","LIN":"7鄰","STREET":"金華路","SECT":"一段","MAREA":" ","LANE":"１５４巷","ALLEY":" ","HOUSE_NO":"１６號","E_COORD97":166983.10999999999,"N_COORD97":2540642.1600000001,"ADDRESS":"金華路一段１５４巷１６號","OBJECTID":315317},"geometry":{"x":166983.11000000034,"y":2540642.1600000001}},{"attributes":{"ID":315326,"DIS_CODE":0,"TOWNNAME":"南區","LI":"明興里","LIN":"7鄰","STREET":"金華路","SECT":"一段","MAREA":" ","LANE":"１５４巷","ALLEY":" ","HOUSE_NO":"１７號","E_COORD97":166992.03,"N_COORD97":2540653.2200000002,"ADDRESS":"金華路一段１５４巷１７號","OBJECTID":315318},"geometry":{"x":166992.03000000026,"y":2540653.2199999988}},{"attributes":{"ID":315327,"DIS_CODE":0,"TOWNNAME":"南區","LI":"明興里","LIN":"7鄰","STREET":"金華路","SECT":"一段","MAREA":" ","LANE":"１５４巷","ALLEY":" ","HOUSE_NO":"１８號","E_COORD97":166987.10000000001,"N_COORD97":2540641.3999999999,"ADDRESS":"金華路一段１５４巷１８號","OBJECTID":315319},"geometry":{"x":166987.10000000056,"y":2540641.4000000004}},{"attributes":{"ID":315328,"DIS_CODE":0,"TOWNNAME":"南區","LI":"明興里","LIN":"7鄰","STREET":"金華路","SECT":"一段","MAREA":" ","LANE":"１５４巷","ALLEY":" ","HOUSE_NO":"１９號","E_COORD97":166995.85000000001,"N_COORD97":2540653.0499999998,"ADDRESS":"金華路一段１５４巷１９號","OBJECTID":315320},"geometry":{"x":166995.85000000056,"y":2540653.0500000007}},{"attributes":{"ID":315329,"DIS_CODE":0,"TOWNNAME":"南區","LI":"明興里","LIN":"7鄰","STREET":"金華路","SECT":"一段","MAREA":" ","LANE":"１５４巷","ALLEY":" ","HOUSE_NO":"２０號","E_COORD97":166991.17999999999,"N_COORD97":2540642.6699999999,"ADDRESS":"金華路一段１５４巷２０號","OBJECTID":315321},"geometry":{"x":166991.18000000156,"y":2540642.6699999981}},{"attributes":{"ID":315330,"DIS_CODE":0,"TOWNNAME":"南區","LI":"明興里","LIN":"7鄰","STREET":"金華路","SECT":"一段","MAREA":" ","LANE":"１５４巷","ALLEY":" ","HOUSE_NO":"２１號","E_COORD97":167000.01999999999,"N_COORD97":2540652.79,"ADDRESS":"金華路一段１５４巷２１號","OBJECTID":315322},"geometry":{"x":167000.01999999955,"y":2540652.790000001}},{"attributes":{"ID":315331,"DIS_CODE":0,"TOWNNAME":"南區","LI":"明興里","LIN":"7鄰","STREET":"金華路","SECT":"一段","MAREA":" ","LANE":"１５４巷","ALLEY":" ","HOUSE_NO":"２２號","E_COORD97":167000.44,"N_COORD97":2540641.0600000001,"ADDRESS":"金華路一段１５４巷２２號","OBJECTID":315323},"geometry":{"x":167000.44000000227,"y":2540641.0600000042}},{"attributes":{"ID":315332,"DIS_CODE":0,"TOWNNAME":"南區","LI":"明興里","LIN":"7鄰","STREET":"金華路","SECT":"一段","MAREA":" ","LANE":"１５４巷","ALLEY":" ","HOUSE_NO":"２３號","E_COORD97":167003.92000000001,"N_COORD97":2540651.4300000002,"ADDRESS":"金華路一段１５４巷２３號","OBJECTID":315324},"geometry":{"x":167003.92000000086,"y":2540651.4300000016}},{"attributes":{"ID":315333,"DIS_CODE":0,"TOWNNAME":"新營區","LI":"南興里","LIN":"17鄰","STREET":"建業路","SECT":" ","MAREA":" ","LANE":" ","ALLEY":" ","HOUSE_NO":"１４２號","E_COORD97":179144.92999999999,"N_COORD97":2577497.02,"ADDRESS":"建業路１４２號","OBJECTID":315325},"geometry":{"x":179144.9299999997,"y":2577497.0200000033}},{"attributes":{"ID":315334,"DIS_CODE":0,"TOWNNAME":"新營區","LI":"永生里","LIN":"17鄰","STREET":"康樂街","SECT":" ","MAREA":" ","LANE":" ","ALLEY":" ","HOUSE_NO":"３６號","E_COORD97":179891.26000000001,"N_COORD97":2577871.1000000001,"ADDRESS":"康樂街３６號","OBJECTID":315326},"geometry":{"x":179891.26000000164,"y":2577871.0999999996}},{"attributes":{"ID":315335,"DIS_CODE":0,"TOWNNAME":"新營區","LI":"新北里","LIN":"17鄰","STREET":"南新街","SECT":" ","MAREA":" ","LANE":" ","ALLEY":" ","HOUSE_NO":"１２２號","E_COORD97":179245.82000000001,"N_COORD97":2578917.3999999999,"ADDRESS":"南新街１２２號","OBJECTID":315327},"geometry":{"x":179245.82000000123,"y":2578917.4000000022}},{"attributes":{"ID":315336,"DIS_CODE":0,"TOWNNAME":"新營區","LI":"太北里","LIN":"17鄰","STREET":"新太路","SECT":" ","MAREA":" ","LANE":" ","ALLEY":" ","HOUSE_NO":"３１０號","E_COORD97":175637.13,"N_COORD97":2577856.4100000001,"ADDRESS":"新太路３１０號","OBJECTID":315328},"geometry":{"x":175637.12999999896,"y":2577856.4100000001}},{"attributes":{"ID":315337,"DIS_CODE":0,"TOWNNAME":"將軍區","LI":"長沙里","LIN":"9鄰","STREET":" ","SECT":" ","MAREA":"長沙","LANE":" ","ALLEY":" ","HOUSE_NO":"８１之３號","E_COORD97":157247.55539299999,"N_COORD97":2568744.5762399998,"ADDRESS":"長沙８１之３號","OBJECTID":315329},"geometry":{"x":157247.55539300013,"y":2568744.576243002}},{"attributes":{"ID":315338,"DIS_CODE":0,"TOWNNAME":"新營區","LI":"民榮里","LIN":"4鄰","STREET":"和平路","SECT":" ","MAREA":" ","LANE":"８巷","ALLEY":" ","HOUSE_NO":"３號","E_COORD97":179372.94,"N_COORD97":2577979.8700000001,"ADDRESS":"和平路８巷３號","OBJECTID":315330},"geometry":{"x":179372.94000000041,"y":2577979.870000001}},{"attributes":{"ID":315339,"DIS_CODE":0,"TOWNNAME":"新營區","LI":"護鎮里","LIN":" ","STREET":" ","SECT":" ","MAREA":"後鎮","LANE":" ","ALLEY":" ","HOUSE_NO":"９７之１號","E_COORD97":179057.19,"N_COORD97":2580920.6400000001,"ADDRESS":"後鎮９７之１號","OBJECTID":315331},"geometry":{"x":179057.19000000134,"y":2580920.6400000006}},{"attributes":{"ID":315340,"DIS_CODE":0,"TOWNNAME":"新營區","LI":"護鎮里","LIN":" ","STREET":" ","SECT":" ","MAREA":"後鎮","LANE":" ","ALLEY":" ","HOUSE_NO":"９７之５號","E_COORD97":179056.23999999999,"N_COORD97":2580935.04,"ADDRESS":"後鎮９７之５號","OBJECTID":315332},"geometry":{"x":179056.24000000115,"y":2580935.040000001}},{"attributes":{"ID":315341,"DIS_CODE":0,"TOWNNAME":"南區","LI":"明興里","LIN":"7鄰","STREET":"金華路","SECT":"一段","MAREA":" ","LANE":"１５４巷","ALLEY":" ","HOUSE_NO":"２４號","E_COORD97":167003.92999999999,"N_COORD97":2540626.0099999998,"ADDRESS":"金華路一段１５４巷２４號","OBJECTID":315333},"geometry":{"x":167003.93000000063,"y":2540626.0099999998}},{"attributes":{"ID":315342,"DIS_CODE":0,"TOWNNAME":"南區","LI":"明興里","LIN":"7鄰","STREET":"金華路","SECT":"一段","MAREA":" ","LANE":"１５４巷","ALLEY":" ","HOUSE_NO":"２５號","E_COORD97":167008.73999999999,"N_COORD97":2540650.0800000001,"ADDRESS":"金華路一段１５４巷２５號","OBJECTID":315334},"geometry":{"x":167008.74000000115,"y":2540650.0800000001}},{"attributes":{"ID":315343,"DIS_CODE":0,"TOWNNAME":"新營區","LI":"嘉芳里","LIN":" ","STREET":" ","SECT":" ","MAREA":"茄苳腳","LANE":" ","ALLEY":" ","HOUSE_NO":"４３號","E_COORD97":176874.25,"N_COORD97":2578609.96,"ADDRESS":"茄苳腳４３號","OBJECTID":315335},"geometry":{"x":176874.25000000093,"y":2578609.9600000009}},{"attributes":{"ID":315344,"DIS_CODE":0,"TOWNNAME":"南區","LI":"明興里","LIN":"7鄰","STREET":"金華路","SECT":"一段","MAREA":" ","LANE":"１５４巷","ALLEY":" ","HOUSE_NO":"２７號","E_COORD97":167012.98999999999,"N_COORD97":2540651.2599999998,"ADDRESS":"金華路一段１５４巷２７號","OBJECTID":315336},"geometry":{"x":167012.99000000022,"y":2540651.2599999998}},{"attributes":{"ID":315345,"DIS_CODE":0,"TOWNNAME":"新營區","LI":"嘉芳里","LIN":" ","STREET":" ","SECT":" ","MAREA":"茄苳腳","LANE":" ","ALLEY":" ","HOUSE_NO":"６１之５號","E_COORD97":176769.19,"N_COORD97":2578384.6299999999,"ADDRESS":"茄苳腳６１之５號","OBJECTID":315337},"geometry":{"x":176769.19000000041,"y":2578384.6300000008}},{"attributes":{"ID":315346,"DIS_CODE":0,"TOWNNAME":"南區","LI":"明興里","LIN":"7鄰","STREET":"金華路","SECT":"一段","MAREA":" ","LANE":"１５４巷","ALLEY":" ","HOUSE_NO":"２９號","E_COORD97":167016.81,"N_COORD97":2540649.1400000001,"ADDRESS":"金華路一段１５４巷２９號","OBJECTID":315338},"geometry":{"x":167016.80999999959,"y":2540649.1400000006}},{"attributes":{"ID":315347,"DIS_CODE":0,"TOWNNAME":"新營區","LI":"土庫里","LIN":"4鄰","STREET":" ","SECT":" ","MAREA":"土庫","LANE":" ","ALLEY":" ","HOUSE_NO":"３０之２號","E_COORD97":183249.82000000001,"N_COORD97":2579897.7799999998,"ADDRESS":"土庫３０之２號","OBJECTID":315339},"geometry":{"x":183249.82000000123,"y":2579897.7799999993}},{"attributes":{"ID":315348,"DIS_CODE":0,"TOWNNAME":"新營區","LI":"嘉芳里","LIN":"10鄰","STREET":" ","SECT":" ","MAREA":"茄苳腳","LANE":" ","ALLEY":" ","HOUSE_NO":"３８號之１","E_COORD97":177014.22,"N_COORD97":2578483.0899999999,"ADDRESS":"茄苳腳３８之１號","OBJECTID":315340},"geometry":{"x":177014.21999999974,"y":2578483.089999998}},{"attributes":{"ID":315349,"DIS_CODE":0,"TOWNNAME":"新營區","LI":"嘉芳里","LIN":" ","STREET":" ","SECT":" ","MAREA":"茄苳腳","LANE":" ","ALLEY":" ","HOUSE_NO":"７８之１７號","E_COORD97":176844.94,"N_COORD97":2578553.7000000002,"ADDRESS":"茄苳腳７８之１７號","OBJECTID":315341},"geometry":{"x":176844.94000000134,"y":2578553.7000000011}},{"attributes":{"ID":315350,"DIS_CODE":0,"TOWNNAME":"南區","LI":"明興里","LIN":"7鄰","STREET":"金華路","SECT":"一段","MAREA":" ","LANE":"１５４巷","ALLEY":" ","HOUSE_NO":"３１號","E_COORD97":167021.73999999999,"N_COORD97":2540648.1200000001,"ADDRESS":"金華路一段１５４巷３１號","OBJECTID":315342},"geometry":{"x":167021.74000000022,"y":2540648.1200000029}},{"attributes":{"ID":315351,"DIS_CODE":0,"TOWNNAME":"新營區","LI":"嘉芳里","LIN":" ","STREET":" ","SECT":" ","MAREA":"茄苳腳","LANE":" ","ALLEY":" ","HOUSE_NO":"１號","E_COORD97":177223.41,"N_COORD97":2578330.27,"ADDRESS":"茄苳腳１號","OBJECTID":315343},"geometry":{"x":177223.41000000015,"y":2578330.2700000014}},{"attributes":{"ID":315352,"DIS_CODE":0,"TOWNNAME":"南區","LI":"建南里","LIN":"7鄰","STREET":"德興路","SECT":" ","MAREA":" ","LANE":"１９０巷","ALLEY":" ","HOUSE_NO":"１０號","E_COORD97":167162.82999999999,"N_COORD97":2540217.98,"ADDRESS":"德興路１９０巷１０號","OBJECTID":315344},"geometry":{"x":167162.83000000007,"y":2540217.9800000023}},{"attributes":{"ID":315353,"DIS_CODE":0,"TOWNNAME":"南區","LI":"建南里","LIN":"7鄰","STREET":"德興路","SECT":" ","MAREA":" ","LANE":"１９０巷","ALLEY":" ","HOUSE_NO":"１２號","E_COORD97":167159.06,"N_COORD97":2540217.2400000002,"ADDRESS":"德興路１９０巷１２號","OBJECTID":315345},"geometry":{"x":167159.05999999959,"y":2540217.2400000002}},{"attributes":{"ID":315354,"DIS_CODE":0,"TOWNNAME":"南區","LI":"建南里","LIN":"7鄰","STREET":"德興路","SECT":" ","MAREA":" ","LANE":"１９０巷","ALLEY":" ","HOUSE_NO":"１４號","E_COORD97":167153.78,"N_COORD97":2540215.8500000001,"ADDRESS":"德興路１９０巷１４號","OBJECTID":315346},"geometry":{"x":167153.77999999933,"y":2540215.8499999996}},{"attributes":{"ID":315355,"DIS_CODE":0,"TOWNNAME":"南區","LI":"建南里","LIN":"7鄰","STREET":"德興路","SECT":" ","MAREA":" ","LANE":"１９０巷","ALLEY":" ","HOUSE_NO":"１６號","E_COORD97":167150.35999999999,"N_COORD97":2540215.3799999999,"ADDRESS":"德興路１９０巷１６號","OBJECTID":315347},"geometry":{"x":167150.36000000127,"y":2540215.379999999}},{"attributes":{"ID":315356,"DIS_CODE":0,"TOWNNAME":"南區","LI":"建南里","LIN":"7鄰","STREET":"德興路","SECT":" ","MAREA":" ","LANE":"１９０巷","ALLEY":" ","HOUSE_NO":"１８號","E_COORD97":167145.54000000001,"N_COORD97":2540215.54,"ADDRESS":"德興路１９０巷１８號","OBJECTID":315348},"geometry":{"x":167145.54000000097,"y":2540215.5400000028}},{"attributes":{"ID":315357,"DIS_CODE":0,"TOWNNAME":"南區","LI":"建南里","LIN":"7鄰","STREET":"德興路","SECT":" ","MAREA":" ","LANE":"１９０巷","ALLEY":" ","HOUSE_NO":"２０號","E_COORD97":167141.97,"N_COORD97":2540215.23,"ADDRESS":"德興路１９０巷２０號","OBJECTID":315349},"geometry":{"x":167141.9700000016,"y":2540215.2300000004}},{"attributes":{"ID":315358,"DIS_CODE":0,"TOWNNAME":"南區","LI":"建南里","LIN":"7鄰","STREET":"德興路","SECT":" ","MAREA":" ","LANE":"１９０巷","ALLEY":" ","HOUSE_NO":"２１號","E_COORD97":167138.85000000001,"N_COORD97":2540194.6600000001,"ADDRESS":"德興路１９０巷２１號","OBJECTID":315350},"geometry":{"x":167138.84999999963,"y":2540194.6600000001}},{"attributes":{"ID":315359,"DIS_CODE":0,"TOWNNAME":"新營區","LI":"王公里","LIN":"17鄰","STREET":"大智街","SECT":" ","MAREA":" ","LANE":" ","ALLEY":" ","HOUSE_NO":"５３號","E_COORD97":180290.82999999999,"N_COORD97":2579326.6200000001,"ADDRESS":"大智街５３號","OBJECTID":315351},"geometry":{"x":180290.83000000007,"y":2579326.6200000029}},{"attributes":{"ID":315360,"DIS_CODE":0,"TOWNNAME":"將軍區","LI":"長沙里","LIN":"10鄰","STREET":" ","SECT":" ","MAREA":"長沙","LANE":" ","ALLEY":" ","HOUSE_NO":"８４號","E_COORD97":157222.55169200001,"N_COORD97":2568678.32461,"ADDRESS":"長沙８４號","OBJECTID":315352},"geometry":{"x":157222.55169200152,"y":2568678.3246130012}},{"attributes":{"ID":315361,"DIS_CODE":0,"TOWNNAME":"新營區","LI":"興業里","LIN":"4鄰","STREET":"公誠街","SECT":" ","MAREA":" ","LANE":"７巷","ALLEY":" ","HOUSE_NO":"１０之２號","E_COORD97":180327.12,"N_COORD97":2578035.23,"ADDRESS":"公誠街７巷１０之２號","OBJECTID":315353},"geometry":{"x":180327.12000000104,"y":2578035.2299999986}},{"attributes":{"ID":315362,"DIS_CODE":0,"TOWNNAME":"南區","LI":"建南里","LIN":"7鄰","STREET":"德興路","SECT":" ","MAREA":" ","LANE":"１９０巷","ALLEY":" ","HOUSE_NO":"２２號","E_COORD97":167136.84,"N_COORD97":2540213.52,"ADDRESS":"德興路１９０巷２２號","OBJECTID":315354},"geometry":{"x":167136.84000000078,"y":2540213.5200000014}},{"attributes":{"ID":315363,"DIS_CODE":0,"TOWNNAME":"大內區","LI":"石城里","LIN":"4鄰","STREET":" ","SECT":" ","MAREA":"石子瀨","LANE":" ","ALLEY":" ","HOUSE_NO":"３８號","E_COORD97":184239.83695,"N_COORD97":2558067.6739500002,"ADDRESS":"石子瀨３８號","OBJECTID":315355},"geometry":{"x":184239.83695000224,"y":2558067.6739540026}},{"attributes":{"ID":315364,"DIS_CODE":0,"TOWNNAME":"南區","LI":"建南里","LIN":"7鄰","STREET":"德興路","SECT":" ","MAREA":" ","LANE":"１９０巷","ALLEY":" ","HOUSE_NO":"２３號","E_COORD97":167131.70000000001,"N_COORD97":2540193.2599999998,"ADDRESS":"德興路１９０巷２３號","OBJECTID":315356},"geometry":{"x":167131.70000000019,"y":2540193.2599999998}},{"attributes":{"ID":315365,"DIS_CODE":0,"TOWNNAME":"南區","LI":"建南里","LIN":"7鄰","STREET":"德興路","SECT":" ","MAREA":" ","LANE":"１９０巷","ALLEY":" ","HOUSE_NO":"２４號","E_COORD97":167132.79999999999,"N_COORD97":2540212.1200000001,"ADDRESS":"德興路１９０巷２４號","OBJECTID":315357},"geometry":{"x":167132.79999999888,"y":2540212.120000001}},{"attributes":{"ID":315366,"DIS_CODE":0,"TOWNNAME":"新營區","LI":"嘉芳里","LIN":"8鄰","STREET":" ","SECT":" ","MAREA":"茄苳腳","LANE":" ","ALLEY":" ","HOUSE_NO":"７８號之１８","E_COORD97":176842.91,"N_COORD97":2578557.0299999998,"ADDRESS":"茄苳腳７８之１８號","OBJECTID":315358},"geometry":{"x":176842.91000000108,"y":2578557.0299999993}},{"attributes":{"ID":315367,"DIS_CODE":0,"TOWNNAME":"南區","LI":"建南里","LIN":"7鄰","STREET":"德興路","SECT":" ","MAREA":" ","LANE":"１９０巷","ALLEY":" ","HOUSE_NO":"２５號","E_COORD97":167127.19,"N_COORD97":2540191.3999999999,"ADDRESS":"德興路１９０巷２５號","OBJECTID":315359},"geometry":{"x":167127.19000000041,"y":2540191.4000000022}},{"attributes":{"ID":315368,"DIS_CODE":0,"TOWNNAME":"南區","LI":"建南里","LIN":"7鄰","STREET":"德興路","SECT":" ","MAREA":" ","LANE":"１９０巷","ALLEY":" ","HOUSE_NO":"２６號","E_COORD97":167128.60000000001,"N_COORD97":2540211.6600000001,"ADDRESS":"德興路１９０巷２６號","OBJECTID":315360},"geometry":{"x":167128.59999999963,"y":2540211.6600000001}},{"attributes":{"ID":315369,"DIS_CODE":0,"TOWNNAME":"南區","LI":"建南里","LIN":"7鄰","STREET":"德興路","SECT":" ","MAREA":" ","LANE":"１９０巷","ALLEY":" ","HOUSE_NO":"２７號","E_COORD97":167121.07999999999,"N_COORD97":2540186.6499999999,"ADDRESS":"德興路１９０巷２７號","OBJECTID":315361},"geometry":{"x":167121.08000000194,"y":2540186.6500000022}},{"attributes":{"ID":315370,"DIS_CODE":0,"TOWNNAME":"南區","LI":"建南里","LIN":"7鄰","STREET":"德興路","SECT":" ","MAREA":" ","LANE":"１９０巷","ALLEY":" ","HOUSE_NO":"２８號","E_COORD97":167125.17999999999,"N_COORD97":2540211.3500000001,"ADDRESS":"德興路１９０巷２８號","OBJECTID":315362},"geometry":{"x":167125.18000000156,"y":2540211.3500000015}},{"attributes":{"ID":315371,"DIS_CODE":0,"TOWNNAME":"新化區","LI":"太平里","LIN":"7鄰","STREET":"民生路","SECT":" ","MAREA":" ","LANE":"３１４巷","ALLEY":" ","HOUSE_NO":"６７號之１５","E_COORD97":179168.87,"N_COORD97":2549390.2599999998,"ADDRESS":"民生路３１４巷６７號之１５","OBJECTID":315363},"geometry":{"x":179168.87000000104,"y":2549390.2600000016}},{"attributes":{"ID":315372,"DIS_CODE":0,"TOWNNAME":"新化區","LI":"觀音里","LIN":"7鄰","STREET":"中正路","SECT":" ","MAREA":" ","LANE":"５４９巷","ALLEY":" ","HOUSE_NO":"７號之２","E_COORD97":178921.56,"N_COORD97":2548644.2599999998,"ADDRESS":"中正路５４９巷７號之２","OBJECTID":315364},"geometry":{"x":178921.56000000052,"y":2548644.2600000016}},{"attributes":{"ID":315373,"DIS_CODE":0,"TOWNNAME":"新化區","LI":"太平里","LIN":"7鄰","STREET":"民生路","SECT":" ","MAREA":" ","LANE":"３１４巷","ALLEY":" ","HOUSE_NO":"６７號之１７","E_COORD97":179149.16,"N_COORD97":2549422.2599999998,"ADDRESS":"民生路３１４巷６７號之１７","OBJECTID":315365},"geometry":{"x":179149.16000000015,"y":2549422.2599999998}},{"attributes":{"ID":315374,"DIS_CODE":0,"TOWNNAME":"新化區","LI":"豐榮里","LIN":"7鄰","STREET":"大智路","SECT":" ","MAREA":" ","LANE":"２３９巷","ALLEY":" ","HOUSE_NO":"６２號","E_COORD97":178029.82999999999,"N_COORD97":2547898.25,"ADDRESS":"大智路２３９巷６２號","OBJECTID":315366},"geometry":{"x":178029.83000000101,"y":2547898.2500000019}},{"attributes":{"ID":315375,"DIS_CODE":0,"TOWNNAME":"新營區","LI":"嘉芳里","LIN":"4鄰","STREET":" ","SECT":" ","MAREA":"茄苳腳","LANE":" ","ALLEY":" ","HOUSE_NO":"５０之１３號","E_COORD97":176916.67999999999,"N_COORD97":2578378.3700000001,"ADDRESS":"茄苳腳５０之１３號","OBJECTID":315367},"geometry":{"x":176916.68000000156,"y":2578378.3700000029}},{"attributes":{"ID":315376,"DIS_CODE":0,"TOWNNAME":"新營區","LI":"嘉芳里","LIN":" ","STREET":" ","SECT":" ","MAREA":"茄苳腳","LANE":" ","ALLEY":" ","HOUSE_NO":"１１之４號","E_COORD97":177198.38,"N_COORD97":2578302.77,"ADDRESS":"茄苳腳１１之４號","OBJECTID":315368},"geometry":{"x":177198.37999999896,"y":2578302.7700000014}},{"attributes":{"ID":315377,"DIS_CODE":0,"TOWNNAME":"新營區","LI":"太南里","LIN":" ","STREET":" ","SECT":" ","MAREA":"太子宮","LANE":" ","ALLEY":" ","HOUSE_NO":"２７９之１號","E_COORD97":176108.32000000001,"N_COORD97":2576669.1400000001,"ADDRESS":"太子宮２７９之１號","OBJECTID":315369},"geometry":{"x":176108.32000000123,"y":2576669.1400000006}},{"attributes":{"ID":315378,"DIS_CODE":0,"TOWNNAME":"新化區","LI":"護國里","LIN":"7鄰","STREET":"中山路","SECT":" ","MAREA":" ","LANE":"２０９巷","ALLEY":" ","HOUSE_NO":"１號之１","E_COORD97":179258.94,"N_COORD97":2548434.2599999998,"ADDRESS":"中山路２０９巷１號之１","OBJECTID":315370},"geometry":{"x":179258.94000000134,"y":2548434.2600000016}},{"attributes":{"ID":315379,"DIS_CODE":0,"TOWNNAME":"新化區","LI":"觀音里","LIN":"7鄰","STREET":"中正路","SECT":" ","MAREA":" ","LANE":"５４９巷","ALLEY":" ","HOUSE_NO":"２９號","E_COORD97":178952.66,"N_COORD97":2548638.25,"ADDRESS":"中正路５４９巷２９號","OBJECTID":315371},"geometry":{"x":178952.66000000015,"y":2548638.2500000019}},{"attributes":{"ID":315380,"DIS_CODE":0,"TOWNNAME":"新化區","LI":"武安里","LIN":"7鄰","STREET":"大同街","SECT":" ","MAREA":" ","LANE":"２３巷","ALLEY":" ","HOUSE_NO":"２號","E_COORD97":178986.78,"N_COORD97":2548111.25,"ADDRESS":"大同街２３巷２號","OBJECTID":315372},"geometry":{"x":178986.78000000119,"y":2548111.2500000037}},{"attributes":{"ID":315381,"DIS_CODE":0,"TOWNNAME":"新營區","LI":"嘉芳里","LIN":" ","STREET":" ","SECT":" ","MAREA":"茄苳腳","LANE":" ","ALLEY":" ","HOUSE_NO":"２號","E_COORD97":177228.45000000001,"N_COORD97":2578301.4500000002,"ADDRESS":"茄苳腳２號","OBJECTID":315373},"geometry":{"x":177228.45000000019,"y":2578301.4500000011}},{"attributes":{"ID":315382,"DIS_CODE":0,"TOWNNAME":"西港區","LI":"西港里","LIN":"7鄰","STREET":"文化路","SECT":" ","MAREA":" ","LANE":"３６巷","ALLEY":" ","HOUSE_NO":"１號之１","E_COORD97":168605.45000000001,"N_COORD97":2558157.48,"ADDRESS":"文化路３６巷１號之１","OBJECTID":315374},"geometry":{"x":168605.45000000205,"y":2558157.4800000023}},{"attributes":{"ID":315383,"DIS_CODE":0,"TOWNNAME":"西港區","LI":"西港里","LIN":"7鄰","STREET":"文化路","SECT":" ","MAREA":" ","LANE":"３６巷","ALLEY":" ","HOUSE_NO":"１號之２","E_COORD97":168606.47,"N_COORD97":2558153.2400000002,"ADDRESS":"文化路３６巷１號之２","OBJECTID":315375},"geometry":{"x":168606.4700000016,"y":2558153.2400000002}},{"attributes":{"ID":315384,"DIS_CODE":0,"TOWNNAME":"新營區","LI":"嘉芳里","LIN":"4鄰","STREET":" ","SECT":" ","MAREA":"茄苳腳","LANE":" ","ALLEY":" ","HOUSE_NO":"５０之３６號","E_COORD97":176814.35000000001,"N_COORD97":2578367.7999999998,"ADDRESS":"茄苳腳５０之３６號","OBJECTID":315376},"geometry":{"x":176814.35000000056,"y":2578367.8000000045}},{"attributes":{"ID":315385,"DIS_CODE":0,"TOWNNAME":"新營區","LI":"民榮里","LIN":"17鄰","STREET":"富強街","SECT":" ","MAREA":" ","LANE":" ","ALLEY":" ","HOUSE_NO":"５１之１號","E_COORD97":178917.60999999999,"N_COORD97":2577825.9700000002,"ADDRESS":"富強街５１之１號","OBJECTID":315377},"geometry":{"x":178917.61000000034,"y":2577825.9700000007}},{"attributes":{"ID":315386,"DIS_CODE":0,"TOWNNAME":"新營區","LI":"嘉芳里","LIN":" ","STREET":" ","SECT":" ","MAREA":"茄苳腳","LANE":" ","ALLEY":" ","HOUSE_NO":"６０之１７號","E_COORD97":176901.78,"N_COORD97":2578468.1499999999,"ADDRESS":"茄苳腳６０之１７號","OBJECTID":315378},"geometry":{"x":176901.78000000119,"y":2578468.1500000022}},{"attributes":{"ID":315387,"DIS_CODE":0,"TOWNNAME":"新營區","LI":"鐵線里","LIN":" ","STREET":" ","SECT":" ","MAREA":"鐵線橋","LANE":" ","ALLEY":" ","HOUSE_NO":"２之２號","E_COORD97":176007.82999999999,"N_COORD97":2574047.1699999999,"ADDRESS":"鐵線橋２之２號","OBJECTID":315379},"geometry":{"x":176007.83000000101,"y":2574047.1699999999}},{"attributes":{"ID":315388,"DIS_CODE":0,"TOWNNAME":"新營區","LI":"鐵線里","LIN":" ","STREET":" ","SECT":" ","MAREA":"鐵線橋","LANE":" ","ALLEY":" ","HOUSE_NO":"４８之１１號","E_COORD97":176089.39000000001,"N_COORD97":2573689.0699999998,"ADDRESS":"鐵線橋４８之１１號","OBJECTID":315380},"geometry":{"x":176089.38999999966,"y":2573689.0700000003}},{"attributes":{"ID":315389,"DIS_CODE":0,"TOWNNAME":"新營區","LI":"太北里","LIN":"18鄰","STREET":" ","SECT":" ","MAREA":"太子宮","LANE":" ","ALLEY":" ","HOUSE_NO":"８之３９號","E_COORD97":176193.84,"N_COORD97":2577246.7999999998,"ADDRESS":"太子宮８之３９號","OBJECTID":315381},"geometry":{"x":176193.84000000078,"y":2577246.8000000026}},{"attributes":{"ID":315390,"DIS_CODE":0,"TOWNNAME":"新營區","LI":"南紙里","LIN":"20鄰","STREET":"南紙街","SECT":" ","MAREA":" ","LANE":"１１７巷","ALLEY":" ","HOUSE_NO":"１５號","E_COORD97":177865.01999999999,"N_COORD97":2577499.8700000001,"ADDRESS":"南紙街１１７巷１５號","OBJECTID":315382},"geometry":{"x":177865.01999999862,"y":2577499.8700000029}},{"attributes":{"ID":315391,"DIS_CODE":0,"TOWNNAME":"新營區","LI":"民榮里","LIN":" ","STREET":"復興路","SECT":" ","MAREA":" ","LANE":"３０５巷","ALLEY":" ","HOUSE_NO":"２１之４號","E_COORD97":178574.09,"N_COORD97":2578063.5099999998,"ADDRESS":"復興路３０５巷２１之４號","OBJECTID":315383},"geometry":{"x":178574.09000000078,"y":2578063.5100000035}},{"attributes":{"ID":315392,"DIS_CODE":0,"TOWNNAME":"新營區","LI":"土庫里","LIN":" ","STREET":" ","SECT":" ","MAREA":"土庫","LANE":" ","ALLEY":" ","HOUSE_NO":"５９之２號","E_COORD97":183218.63,"N_COORD97":2579801.5800000001,"ADDRESS":"土庫５９之２號","OBJECTID":315384},"geometry":{"x":183218.63000000082,"y":2579801.5800000001}},{"attributes":{"ID":315393,"DIS_CODE":0,"TOWNNAME":"新營區","LI":"嘉芳里","LIN":"1鄰","STREET":" ","SECT":" ","MAREA":"茄苳腳","LANE":" ","ALLEY":" ","HOUSE_NO":"１１號之１８","E_COORD97":177155.79999999999,"N_COORD97":2578334,"ADDRESS":"茄苳腳１１之１８號","OBJECTID":315385},"geometry":{"x":177155.79999999981,"y":2578334}},{"attributes":{"ID":315394,"DIS_CODE":0,"TOWNNAME":"西港區","LI":"西港里","LIN":"7鄰","STREET":"文化路","SECT":" ","MAREA":" ","LANE":"３６巷","ALLEY":" ","HOUSE_NO":"１號","E_COORD97":168604.53,"N_COORD97":2558162.3399999999,"ADDRESS":"文化路３６巷１號","OBJECTID":315386},"geometry":{"x":168604.53000000026,"y":2558162.3399999999}},{"attributes":{"ID":315395,"DIS_CODE":0,"TOWNNAME":"東區","LI":"大德里","LIN":"7鄰","STREET":"立德十路","SECT":" ","MAREA":" ","LANE":"４６巷","ALLEY":" ","HOUSE_NO":"２１號","E_COORD97":169522.39000000001,"N_COORD97":2541981.7400000002,"ADDRESS":"立德十路４６巷２１號","OBJECTID":315387},"geometry":{"x":169522.39000000153,"y":2541981.7400000039}},{"attributes":{"ID":315396,"DIS_CODE":0,"TOWNNAME":"東區","LI":"大德里","LIN":"7鄰","STREET":"立德十路","SECT":" ","MAREA":" ","LANE":"４６巷","ALLEY":" ","HOUSE_NO":"１９號","E_COORD97":169519.95000000001,"N_COORD97":2541986.21,"ADDRESS":"立德十路４６巷１９號","OBJECTID":315388},"geometry":{"x":169519.95000000112,"y":2541986.2100000046}},{"attributes":{"ID":315397,"DIS_CODE":0,"TOWNNAME":"東區","LI":"大德里","LIN":"7鄰","STREET":"立德十路","SECT":" ","MAREA":" ","LANE":"４６巷","ALLEY":" ","HOUSE_NO":"１４號","E_COORD97":169507.57999999999,"N_COORD97":2541987.75,"ADDRESS":"立德十路４６巷１４號","OBJECTID":315389},"geometry":{"x":169507.58000000007,"y":2541987.75}},{"attributes":{"ID":315398,"DIS_CODE":0,"TOWNNAME":"東區","LI":"大德里","LIN":"7鄰","STREET":"立德十路","SECT":" ","MAREA":" ","LANE":"４６巷","ALLEY":" ","HOUSE_NO":"１５號","E_COORD97":169518.89000000001,"N_COORD97":2541996.6699999999,"ADDRESS":"立德十路４６巷１５號","OBJECTID":315390},"geometry":{"x":169518.88999999873,"y":2541996.6700000018}},{"attributes":{"ID":315399,"DIS_CODE":0,"TOWNNAME":"新營區","LI":"太北里","LIN":"18鄰","STREET":" ","SECT":" ","MAREA":"太子宮","LANE":" ","ALLEY":" ","HOUSE_NO":"７號之２","E_COORD97":176263.78,"N_COORD97":2577218.75,"ADDRESS":"太子宮７號之２","OBJECTID":315391},"geometry":{"x":176263.78000000212,"y":2577218.7500000019}},{"attributes":{"ID":315400,"DIS_CODE":0,"TOWNNAME":"東區","LI":"大德里","LIN":"7鄰","STREET":"立德十路","SECT":" ","MAREA":" ","LANE":"４６巷","ALLEY":" ","HOUSE_NO":"１２號","E_COORD97":169505.12,"N_COORD97":2541994.8599999999,"ADDRESS":"立德十路４６巷１２號","OBJECTID":315392},"geometry":{"x":169505.12000000104,"y":2541994.8600000013}},{"attributes":{"ID":315401,"DIS_CODE":0,"TOWNNAME":"東區","LI":"大德里","LIN":"7鄰","STREET":"立德十路","SECT":" ","MAREA":" ","LANE":"４６巷","ALLEY":" ","HOUSE_NO":"１０號","E_COORD97":169505.04999999999,"N_COORD97":2542000.3100000001,"ADDRESS":"立德十路４６巷１０號","OBJECTID":315393},"geometry":{"x":169505.05000000075,"y":2542000.3100000024}},{"attributes":{"ID":315402,"DIS_CODE":0,"TOWNNAME":"東區","LI":"大德里","LIN":"7鄰","STREET":"立德十路","SECT":" ","MAREA":" ","LANE":"４６巷","ALLEY":" ","HOUSE_NO":"１１號","E_COORD97":169517.07999999999,"N_COORD97":2542005.4100000001,"ADDRESS":"立德十路４６巷１１號","OBJECTID":315394},"geometry":{"x":169517.08000000101,"y":2542005.410000002}},{"attributes":{"ID":315403,"DIS_CODE":0,"TOWNNAME":"東區","LI":"大德里","LIN":"7鄰","STREET":"立德十路","SECT":" ","MAREA":" ","LANE":"４６巷","ALLEY":" ","HOUSE_NO":"８號","E_COORD97":169503.31,"N_COORD97":2542007.0099999998,"ADDRESS":"立德十路４６巷８號","OBJECTID":315395},"geometry":{"x":169503.31000000052,"y":2542007.0100000016}},{"attributes":{"ID":315404,"DIS_CODE":0,"TOWNNAME":"東區","LI":"大德里","LIN":"7鄰","STREET":"立德十路","SECT":" ","MAREA":" ","LANE":"４６巷","ALLEY":" ","HOUSE_NO":"６號","E_COORD97":169501,"N_COORD97":2542013.7799999998,"ADDRESS":"立德十路４６巷６號","OBJECTID":315396},"geometry":{"x":169501,"y":2542013.7799999993}},{"attributes":{"ID":315405,"DIS_CODE":0,"TOWNNAME":"東區","LI":"仁和里","LIN":"7鄰","STREET":"仁和路","SECT":" ","MAREA":" ","LANE":"１１３巷","ALLEY":" ","HOUSE_NO":"７號","E_COORD97":171405.28,"N_COORD97":2541277.6299999999,"ADDRESS":"仁和路１１３巷７號","OBJECTID":315397},"geometry":{"x":171405.28000000026,"y":2541277.6300000008}},{"attributes":{"ID":315406,"DIS_CODE":0,"TOWNNAME":"新營區","LI":"大宏里","LIN":"17鄰","STREET":"三民路","SECT":" ","MAREA":" ","LANE":" ","ALLEY":" ","HOUSE_NO":"４６之３９號","E_COORD97":180346.14999999999,"N_COORD97":2578536.8199999998,"ADDRESS":"三民路４６之３９號","OBJECTID":315398},"geometry":{"x":180346.15000000037,"y":2578536.8200000022}},{"attributes":{"ID":315407,"DIS_CODE":0,"TOWNNAME":"新營區","LI":"民生里","LIN":"17鄰","STREET":"三民路","SECT":" ","MAREA":" ","LANE":" ","ALLEY":" ","HOUSE_NO":"２００號","E_COORD97":179120.53,"N_COORD97":2578156.0699999998,"ADDRESS":"三民路２００號","OBJECTID":315399},"geometry":{"x":179120.53000000119,"y":2578156.0700000022}},{"attributes":{"ID":315408,"DIS_CODE":0,"TOWNNAME":"新營區","LI":"新東里","LIN":"17鄰","STREET":"東興二街","SECT":" ","MAREA":" ","LANE":" ","ALLEY":" ","HOUSE_NO":"４３號","E_COORD97":180937.03,"N_COORD97":2579051.1699999999,"ADDRESS":"東興二街４３號","OBJECTID":315400},"geometry":{"x":180937.03000000026,"y":2579051.1699999999}}]}