{"displayFieldName":"TOWNNAME","fieldAliases":{"ID":"ID","DIS_CODE":"DIS_CODE","TOWNNAME":"TOWNNAME","LI":"LI","LIN":"LIN","STREET":"STREET","SECT":"SECT","MAREA":"MAREA","LANE":"LANE","ALLEY":"ALLEY","HOUSE_NO":"HOUSE_NO","E_COORD97":"E_COORD97","N_COORD97":"N_COORD97","ADDRESS":"ADDRESS","OBJECTID":"OBJECTID"},"geometryType":"esriGeometryPoint","spatialReference":{"wkid":102443,"latestWkid":3826},"fields":[{"name":"ID","type":"esriFieldTypeDouble","alias":"ID"},{"name":"DIS_CODE","type":"esriFieldTypeInteger","alias":"DIS_CODE"},{"name":"TOWNNAME","type":"esriFieldTypeString","alias":"TOWNNAME","length":8},{"name":"LI","type":"esriFieldTypeString","alias":"LI","length":8},{"name":"LIN","type":"esriFieldTypeString","alias":"LIN","length":12},{"name":"STREET","type":"esriFieldTypeString","alias":"STREET","length":20},{"name":"SECT","type":"esriFieldTypeString","alias":"SECT","length":8},{"name":"MAREA","type":"esriFieldTypeString","alias":"MAREA","length":12},{"name":"LANE","type":"esriFieldTypeString","alias":"LANE","length":10},{"name":"ALLEY","type":"esriFieldTypeString","alias":"ALLEY","length":10},{"name":"HOUSE_NO","type":"esriFieldTypeString","alias":"HOUSE_NO","length":20},{"name":"E_COORD97","type":"esriFieldTypeDouble","alias":"E_COORD97"},{"name":"N_COORD97","type":"esriFieldTypeDouble","alias":"N_COORD97"},{"name":"ADDRESS","type":"esriFieldTypeString","alias":"ADDRESS","length":50},{"name":"OBJECTID","type":"esriFieldTypeOID","alias":"OBJECTID"}],"features":[{"attributes":{"ID":209202,"DIS_CODE":0,"TOWNNAME":"永康區","LI":"\u25A0行里","LIN":"32鄰","STREET":"三村一街","SECT":" ","MAREA":" ","LANE":"１３８巷","ALLEY":"９２弄","HOUSE_NO":"５６號","E_COORD97":172167.57000000001,"N_COORD97":2549377.6699999999,"ADDRESS":"三村一街１３８巷９２弄５６號","OBJECTID":209201},"geometry":{"x":172167.5700000003,"y":2549377.6700000018}},{"attributes":{"ID":209203,"DIS_CODE":0,"TOWNNAME":"北區","LI":"文元里","LIN":"5鄰","STREET":"文賢路","SECT":" ","MAREA":" ","LANE":"１１２２巷","ALLEY":"５９弄","HOUSE_NO":"２２號","E_COORD97":167509.26000000001,"N_COORD97":2546441.1699999999,"ADDRESS":"文賢路１１２２巷５９弄２２號","OBJECTID":209202},"geometry":{"x":167509.25999999978,"y":2546441.1700000018}},{"attributes":{"ID":209204,"DIS_CODE":0,"TOWNNAME":"永康區","LI":"\u25A0行里","LIN":"32鄰","STREET":"三村一街","SECT":" ","MAREA":" ","LANE":"１３８巷","ALLEY":"９２弄","HOUSE_NO":"５８號","E_COORD97":172171.42999999999,"N_COORD97":2549372.5099999998,"ADDRESS":"三村一街１３８巷９２弄５８號","OBJECTID":209203},"geometry":{"x":172171.4299999997,"y":2549372.5099999998}},{"attributes":{"ID":209205,"DIS_CODE":0,"TOWNNAME":"六甲區","LI":"王爺里","LIN":"9鄰","STREET":" ","SECT":" ","MAREA":"王爺宮","LANE":" ","ALLEY":" ","HOUSE_NO":"６號","E_COORD97":188435.17999999999,"N_COORD97":2568994.96,"ADDRESS":"王爺宮６號","OBJECTID":209204},"geometry":{"x":188435.1799999997,"y":2568994.9600000009}},{"attributes":{"ID":209206,"DIS_CODE":0,"TOWNNAME":"新營區","LI":"護鎮里","LIN":"9鄰","STREET":" ","SECT":" ","MAREA":"後鎮","LANE":" ","ALLEY":" ","HOUSE_NO":"９６之３６號","E_COORD97":179171.70000000001,"N_COORD97":2580652.0899999999,"ADDRESS":"後鎮９６之３６號","OBJECTID":209205},"geometry":{"x":179171.70000000112,"y":2580652.0899999999}},{"attributes":{"ID":209207,"DIS_CODE":0,"TOWNNAME":"善化區","LI":"什乃里","LIN":"2鄰","STREET":" ","SECT":" ","MAREA":"什乃","LANE":" ","ALLEY":" ","HOUSE_NO":"２１之２３號","E_COORD97":176104.92999999999,"N_COORD97":2560663.52,"ADDRESS":"什乃２１之２３號","OBJECTID":209206},"geometry":{"x":176104.93000000063,"y":2560663.5200000033}},{"attributes":{"ID":209208,"DIS_CODE":0,"TOWNNAME":"善化區","LI":"牛庄里","LIN":"2鄰","STREET":" ","SECT":" ","MAREA":"牛庄","LANE":" ","ALLEY":" ","HOUSE_NO":"２７之４３號","E_COORD97":180632.01999999999,"N_COORD97":2559812.02,"ADDRESS":"牛庄２７之４３號","OBJECTID":209207},"geometry":{"x":180632.02000000048,"y":2559812.0199999996}},{"attributes":{"ID":209209,"DIS_CODE":0,"TOWNNAME":"善化區","LI":"小新里","LIN":"2鄰","STREET":" ","SECT":" ","MAREA":"小新營","LANE":" ","ALLEY":" ","HOUSE_NO":"１３號之２０","E_COORD97":179850.54999999999,"N_COORD97":2558548.77,"ADDRESS":"小新營１３號之２０","OBJECTID":209208},"geometry":{"x":179850.55000000075,"y":2558548.7699999996}},{"attributes":{"ID":209210,"DIS_CODE":0,"TOWNNAME":"善化區","LI":"光文里","LIN":"2鄰","STREET":" ","SECT":" ","MAREA":"北子店","LANE":" ","ALLEY":" ","HOUSE_NO":"１０４之２號","E_COORD97":179571.07999999999,"N_COORD97":2559633.52,"ADDRESS":"北子店１０４之２號","OBJECTID":209209},"geometry":{"x":179571.08000000101,"y":2559633.5200000014}},{"attributes":{"ID":209211,"DIS_CODE":0,"TOWNNAME":"善化區","LI":"光文里","LIN":"2鄰","STREET":" ","SECT":" ","MAREA":"北子店","LANE":" ","ALLEY":" ","HOUSE_NO":"８４號之２","E_COORD97":179659.67000000001,"N_COORD97":2559603.27,"ADDRESS":"北子店８４號之２","OBJECTID":209210},"geometry":{"x":179659.67000000179,"y":2559603.2699999996}},{"attributes":{"ID":209212,"DIS_CODE":0,"TOWNNAME":"善化區","LI":"牛庄里","LIN":"2鄰","STREET":" ","SECT":" ","MAREA":"牛庄","LANE":" ","ALLEY":" ","HOUSE_NO":"４７號之２","E_COORD97":180264.73999999999,"N_COORD97":2559895.52,"ADDRESS":"牛庄４７號之２","OBJECTID":209211},"geometry":{"x":180264.74000000209,"y":2559895.5200000014}},{"attributes":{"ID":209213,"DIS_CODE":0,"TOWNNAME":"善化區","LI":"田寮里","LIN":"2鄰","STREET":" ","SECT":" ","MAREA":"六分寮","LANE":" ","ALLEY":" ","HOUSE_NO":"３１號","E_COORD97":178376.70999999999,"N_COORD97":2561293.5,"ADDRESS":"六分寮３１號","OBJECTID":209212},"geometry":{"x":178376.71000000089,"y":2561293.5}},{"attributes":{"ID":209214,"DIS_CODE":0,"TOWNNAME":"善化區","LI":"光文里","LIN":"2鄰","STREET":" ","SECT":" ","MAREA":"北子店","LANE":" ","ALLEY":" ","HOUSE_NO":"２３號","E_COORD97":179674.60999999999,"N_COORD97":2559705.25,"ADDRESS":"北子店２３號","OBJECTID":209213},"geometry":{"x":179674.61000000127,"y":2559705.25}},{"attributes":{"ID":209215,"DIS_CODE":0,"TOWNNAME":"永康區","LI":"\u25A0行里","LIN":"32鄰","STREET":"三村一街","SECT":" ","MAREA":" ","LANE":"１３８巷","ALLEY":"９２弄","HOUSE_NO":"６０號","E_COORD97":172176.34,"N_COORD97":2549369.8199999998,"ADDRESS":"三村一街１３８巷９２弄６０號","OBJECTID":209214},"geometry":{"x":172176.34000000078,"y":2549369.8200000022}},{"attributes":{"ID":209216,"DIS_CODE":0,"TOWNNAME":"永康區","LI":"\u25A0行里","LIN":"32鄰","STREET":"三村一街","SECT":" ","MAREA":" ","LANE":"１３８巷","ALLEY":"９２弄","HOUSE_NO":"６２號","E_COORD97":172181.26000000001,"N_COORD97":2549367.1200000001,"ADDRESS":"三村一街１３８巷９２弄６２號","OBJECTID":209215},"geometry":{"x":172181.25999999978,"y":2549367.120000001}},{"attributes":{"ID":209217,"DIS_CODE":0,"TOWNNAME":"永康區","LI":"\u25A0行里","LIN":"32鄰","STREET":"三村一街","SECT":" ","MAREA":" ","LANE":"１３８巷","ALLEY":"９２弄","HOUSE_NO":"６６號","E_COORD97":172187.97,"N_COORD97":2549366.0800000001,"ADDRESS":"三村一街１３８巷９２弄６６號","OBJECTID":209216},"geometry":{"x":172187.96999999974,"y":2549366.0800000001}},{"attributes":{"ID":209218,"DIS_CODE":0,"TOWNNAME":"永康區","LI":"\u25A0行里","LIN":"32鄰","STREET":"三村一街","SECT":" ","MAREA":" ","LANE":"１３８巷","ALLEY":"９２弄","HOUSE_NO":"６８號","E_COORD97":172171.60000000001,"N_COORD97":2549363.6099999999,"ADDRESS":"三村一街１３８巷９２弄６８號","OBJECTID":209217},"geometry":{"x":172171.59999999963,"y":2549363.6100000013}},{"attributes":{"ID":209219,"DIS_CODE":0,"TOWNNAME":"善化區","LI":"溪美里","LIN":"2鄰","STREET":" ","SECT":" ","MAREA":"溪尾","LANE":" ","ALLEY":" ","HOUSE_NO":"６５２號之４","E_COORD97":177043.78,"N_COORD97":2560860.02,"ADDRESS":"溪尾６５２號之４","OBJECTID":209218},"geometry":{"x":177043.78000000119,"y":2560860.0199999977}},{"attributes":{"ID":209220,"DIS_CODE":0,"TOWNNAME":"永康區","LI":"\u25A0行里","LIN":"32鄰","STREET":"三村一街","SECT":" ","MAREA":" ","LANE":"１３８巷","ALLEY":"９２弄","HOUSE_NO":"７０號","E_COORD97":172168.10999999999,"N_COORD97":2549359.7000000002,"ADDRESS":"三村一街１３８巷９２弄７０號","OBJECTID":209219},"geometry":{"x":172168.11000000127,"y":2549359.7000000011}},{"attributes":{"ID":209221,"DIS_CODE":0,"TOWNNAME":"永康區","LI":"\u25A0行里","LIN":"32鄰","STREET":"三村一街","SECT":" ","MAREA":" ","LANE":"１３８巷","ALLEY":"９２弄","HOUSE_NO":"７２號","E_COORD97":172167.62,"N_COORD97":2549355.2999999998,"ADDRESS":"三村一街１３８巷９２弄７２號","OBJECTID":209220},"geometry":{"x":172167.62000000197,"y":2549355.3000000007}},{"attributes":{"ID":209222,"DIS_CODE":0,"TOWNNAME":"安平區","LI":"國平里","LIN":"32鄰","STREET":"健康三街","SECT":" ","MAREA":" ","LANE":"１２巷","ALLEY":"６０弄","HOUSE_NO":"２號","E_COORD97":164795.5,"N_COORD97":2542873.2999999998,"ADDRESS":"健康三街１２巷６０弄２號","OBJECTID":209221},"geometry":{"x":164795.5,"y":2542873.3000000007}},{"attributes":{"ID":209223,"DIS_CODE":0,"TOWNNAME":"安平區","LI":"國平里","LIN":"32鄰","STREET":"健康三街","SECT":" ","MAREA":" ","LANE":"１２巷","ALLEY":"６０弄","HOUSE_NO":"３號","E_COORD97":164802.06,"N_COORD97":2542867.3100000001,"ADDRESS":"健康三街１２巷６０弄３號","OBJECTID":209222},"geometry":{"x":164802.06000000052,"y":2542867.3100000024}},{"attributes":{"ID":209224,"DIS_CODE":0,"TOWNNAME":"安平區","LI":"國平里","LIN":"32鄰","STREET":"健康三街","SECT":" ","MAREA":" ","LANE":"１２巷","ALLEY":"６０弄","HOUSE_NO":"５號","E_COORD97":164801.10000000001,"N_COORD97":2542862.71,"ADDRESS":"健康三街１２巷６０弄５號","OBJECTID":209223},"geometry":{"x":164801.09999999963,"y":2542862.7100000009}},{"attributes":{"ID":209225,"DIS_CODE":0,"TOWNNAME":"六甲區","LI":"六甲里","LIN":"9鄰","STREET":"中興街","SECT":" ","MAREA":" ","LANE":" ","ALLEY":" ","HOUSE_NO":"１５號","E_COORD97":183620.98000000001,"N_COORD97":2569661.8799999999,"ADDRESS":"中興街１５號","OBJECTID":209224},"geometry":{"x":183620.98000000045,"y":2569661.8800000027}},{"attributes":{"ID":209226,"DIS_CODE":0,"TOWNNAME":"善化區","LI":"牛庄里","LIN":"2鄰","STREET":" ","SECT":" ","MAREA":"牛庄","LANE":" ","ALLEY":" ","HOUSE_NO":"２７號之４７","E_COORD97":180660.91,"N_COORD97":2559820.27,"ADDRESS":"牛庄２７號之４７","OBJECTID":209225},"geometry":{"x":180660.91000000108,"y":2559820.2699999996}},{"attributes":{"ID":209227,"DIS_CODE":0,"TOWNNAME":"善化區","LI":"溪美里","LIN":"2鄰","STREET":" ","SECT":" ","MAREA":"溪尾","LANE":" ","ALLEY":" ","HOUSE_NO":"６５２號之５","E_COORD97":177035.95999999999,"N_COORD97":2560859.02,"ADDRESS":"溪尾６５２號之５","OBJECTID":209226},"geometry":{"x":177035.96000000089,"y":2560859.0199999996}},{"attributes":{"ID":209228,"DIS_CODE":0,"TOWNNAME":"柳營區","LI":"旭山里","LIN":"9鄰","STREET":" ","SECT":" ","MAREA":"尖山","LANE":" ","ALLEY":" ","HOUSE_NO":"１２號","E_COORD97":189151.92999999999,"N_COORD97":2570485.3500000001,"ADDRESS":"尖山１２號","OBJECTID":209227},"geometry":{"x":189151.9299999997,"y":2570485.3499999996}},{"attributes":{"ID":209229,"DIS_CODE":0,"TOWNNAME":"柳營區","LI":"旭山里","LIN":"9鄰","STREET":" ","SECT":" ","MAREA":"尖山","LANE":" ","ALLEY":" ","HOUSE_NO":"１３號","E_COORD97":188866.79999999999,"N_COORD97":2570676.6099999999,"ADDRESS":"尖山１３號","OBJECTID":209228},"geometry":{"x":188866.79999999981,"y":2570676.6099999994}},{"attributes":{"ID":209230,"DIS_CODE":0,"TOWNNAME":"柳營區","LI":"旭山里","LIN":"9鄰","STREET":" ","SECT":" ","MAREA":"尖山","LANE":" ","ALLEY":" ","HOUSE_NO":"１４號之１","E_COORD97":189086.76999999999,"N_COORD97":2570431.5,"ADDRESS":"尖山１４號之１","OBJECTID":209229},"geometry":{"x":189086.76999999955,"y":2570431.5}},{"attributes":{"ID":209231,"DIS_CODE":0,"TOWNNAME":"柳營區","LI":"旭山里","LIN":"9鄰","STREET":" ","SECT":" ","MAREA":"尖山","LANE":" ","ALLEY":" ","HOUSE_NO":"１４號之６","E_COORD97":189465.79000000001,"N_COORD97":2570431.77,"ADDRESS":"尖山１４號之６","OBJECTID":209230},"geometry":{"x":189465.7900000019,"y":2570431.7699999996}},{"attributes":{"ID":209232,"DIS_CODE":0,"TOWNNAME":"安平區","LI":"國平里","LIN":"32鄰","STREET":"健康三街","SECT":" ","MAREA":" ","LANE":"１２巷","ALLEY":"６０弄","HOUSE_NO":"７號","E_COORD97":164800.14999999999,"N_COORD97":2542857.6299999999,"ADDRESS":"健康三街１２巷６０弄７號","OBJECTID":209231},"geometry":{"x":164800.14999999944,"y":2542857.6300000008}},{"attributes":{"ID":209233,"DIS_CODE":0,"TOWNNAME":"柳營區","LI":"旭山里","LIN":"9鄰","STREET":" ","SECT":" ","MAREA":"尖山","LANE":" ","ALLEY":" ","HOUSE_NO":"１４號","E_COORD97":188863.73999999999,"N_COORD97":2570649.71,"ADDRESS":"尖山１４號","OBJECTID":209232},"geometry":{"x":188863.74000000022,"y":2570649.7100000028}},{"attributes":{"ID":209234,"DIS_CODE":0,"TOWNNAME":"安平區","LI":"國平里","LIN":"32鄰","STREET":"健康三街","SECT":" ","MAREA":" ","LANE":"１２巷","ALLEY":"６０弄","HOUSE_NO":"９號","E_COORD97":164798.72,"N_COORD97":2542852.71,"ADDRESS":"健康三街１２巷６０弄９號","OBJECTID":209233},"geometry":{"x":164798.71999999974,"y":2542852.7100000009}},{"attributes":{"ID":209235,"DIS_CODE":0,"TOWNNAME":"柳營區","LI":"旭山里","LIN":"9鄰","STREET":" ","SECT":" ","MAREA":"尖山","LANE":" ","ALLEY":" ","HOUSE_NO":"１５號","E_COORD97":188928.13,"N_COORD97":2570558.29,"ADDRESS":"尖山１５號","OBJECTID":209234},"geometry":{"x":188928.13000000082,"y":2570558.290000001}},{"attributes":{"ID":209236,"DIS_CODE":0,"TOWNNAME":"安平區","LI":"國平里","LIN":"32鄰","STREET":"健康三街","SECT":" ","MAREA":" ","LANE":"１２巷","ALLEY":"６０弄","HOUSE_NO":"１１號","E_COORD97":164797.60999999999,"N_COORD97":2542848.2599999998,"ADDRESS":"健康三街１２巷６０弄１１號","OBJECTID":209235},"geometry":{"x":164797.61000000127,"y":2542848.2599999998}},{"attributes":{"ID":209237,"DIS_CODE":0,"TOWNNAME":"安平區","LI":"國平里","LIN":"32鄰","STREET":"健康三街","SECT":" ","MAREA":" ","LANE":"１２巷","ALLEY":"６０弄","HOUSE_NO":"６號","E_COORD97":164794.75,"N_COORD97":2542868.7400000002,"ADDRESS":"健康三街１２巷６０弄６號","OBJECTID":209236},"geometry":{"x":164794.75000000093,"y":2542868.7400000002}},{"attributes":{"ID":209238,"DIS_CODE":0,"TOWNNAME":"安平區","LI":"國平里","LIN":"32鄰","STREET":"健康三街","SECT":" ","MAREA":" ","LANE":"１２巷","ALLEY":"６０弄","HOUSE_NO":"８號","E_COORD97":164793.64000000001,"N_COORD97":2542863.8199999998,"ADDRESS":"健康三街１２巷６０弄８號","OBJECTID":209237},"geometry":{"x":164793.6400000006,"y":2542863.8200000022}},{"attributes":{"ID":209239,"DIS_CODE":0,"TOWNNAME":"柳營區","LI":"太康里","LIN":"9鄰","STREET":" ","SECT":" ","MAREA":"太康","LANE":" ","ALLEY":" ","HOUSE_NO":"８８之７號","E_COORD97":181620.09,"N_COORD97":2576316.0099999998,"ADDRESS":"太康８８之７號","OBJECTID":209238},"geometry":{"x":181620.09000000078,"y":2576316.0099999998}},{"attributes":{"ID":209240,"DIS_CODE":0,"TOWNNAME":"柳營區","LI":"太康里","LIN":"9鄰","STREET":" ","SECT":" ","MAREA":"太康","LANE":" ","ALLEY":" ","HOUSE_NO":"８８號之７","E_COORD97":181620.09,"N_COORD97":2576316.0099999998,"ADDRESS":"太康８８號之７","OBJECTID":209239},"geometry":{"x":181620.09000000078,"y":2576316.0099999998}},{"attributes":{"ID":209241,"DIS_CODE":0,"TOWNNAME":"柳營區","LI":"太康里","LIN":"9鄰","STREET":" ","SECT":" ","MAREA":"太康","LANE":" ","ALLEY":" ","HOUSE_NO":"８８之８號","E_COORD97":181608.44,"N_COORD97":2576341.8399999999,"ADDRESS":"太康８８之８號","OBJECTID":209240},"geometry":{"x":181608.44000000134,"y":2576341.8399999999}},{"attributes":{"ID":209242,"DIS_CODE":0,"TOWNNAME":"柳營區","LI":"太康里","LIN":"9鄰","STREET":" ","SECT":" ","MAREA":"太康","LANE":" ","ALLEY":" ","HOUSE_NO":"８８號","E_COORD97":181613.73000000001,"N_COORD97":2576355.8599999999,"ADDRESS":"太康８８號","OBJECTID":209241},"geometry":{"x":181613.73000000045,"y":2576355.8600000013}},{"attributes":{"ID":209243,"DIS_CODE":0,"TOWNNAME":"東區","LI":"虎尾里","LIN":"18鄰","STREET":"富農街","SECT":"一段","MAREA":" ","LANE":" ","ALLEY":" ","HOUSE_NO":"１４６號","E_COORD97":171530.72,"N_COORD97":2542380.5800000001,"ADDRESS":"富農街一段１４６號","OBJECTID":209242},"geometry":{"x":171530.7200000016,"y":2542380.5800000019}},{"attributes":{"ID":209244,"DIS_CODE":0,"TOWNNAME":"安平區","LI":"國平里","LIN":"32鄰","STREET":"健康三街","SECT":" ","MAREA":" ","LANE":"１２巷","ALLEY":"６２弄","HOUSE_NO":"１０號","E_COORD97":164792.69,"N_COORD97":2542858.4199999999,"ADDRESS":"健康三街１２巷６２弄１０號","OBJECTID":209243},"geometry":{"x":164792.69000000041,"y":2542858.4200000037}},{"attributes":{"ID":209245,"DIS_CODE":0,"TOWNNAME":"安平區","LI":"國平里","LIN":"32鄰","STREET":"健康三街","SECT":" ","MAREA":" ","LANE":"１２巷","ALLEY":"６０弄","HOUSE_NO":"１２號","E_COORD97":164791.73999999999,"N_COORD97":2542853.02,"ADDRESS":"健康三街１２巷６０弄１２號","OBJECTID":209244},"geometry":{"x":164791.74000000115,"y":2542853.0199999996}},{"attributes":{"ID":209246,"DIS_CODE":0,"TOWNNAME":"安平區","LI":"國平里","LIN":"32鄰","STREET":"健康三街","SECT":" ","MAREA":" ","LANE":"１２巷","ALLEY":"６０弄","HOUSE_NO":"１６號","E_COORD97":164790.79000000001,"N_COORD97":2542848.4199999999,"ADDRESS":"健康三街１２巷６０弄１６號","OBJECTID":209245},"geometry":{"x":164790.79000000097,"y":2542848.4200000037}},{"attributes":{"ID":209247,"DIS_CODE":0,"TOWNNAME":"安平區","LI":"國平里","LIN":"32鄰","STREET":"健康三街","SECT":" ","MAREA":" ","LANE":"１２巷","ALLEY":"６２弄","HOUSE_NO":"２號","E_COORD97":164811.22,"N_COORD97":2542871.71,"ADDRESS":"健康三街１２巷６２弄２號","OBJECTID":209246},"geometry":{"x":164811.22000000067,"y":2542871.7100000028}},{"attributes":{"ID":209248,"DIS_CODE":0,"TOWNNAME":"安平區","LI":"國平里","LIN":"32鄰","STREET":"健康三街","SECT":" ","MAREA":" ","LANE":"１２巷","ALLEY":"６２弄","HOUSE_NO":"１號","E_COORD97":164817.72,"N_COORD97":2542870.6000000001,"ADDRESS":"健康三街１２巷６２弄１號","OBJECTID":209247},"geometry":{"x":164817.7200000016,"y":2542870.6000000034}},{"attributes":{"ID":209249,"DIS_CODE":0,"TOWNNAME":"安平區","LI":"國平里","LIN":"32鄰","STREET":"健康三街","SECT":" ","MAREA":" ","LANE":"１２巷","ALLEY":"６２弄","HOUSE_NO":"３號","E_COORD97":164816.98000000001,"N_COORD97":2542866.2000000002,"ADDRESS":"健康三街１２巷６２弄３號","OBJECTID":209248},"geometry":{"x":164816.98000000138,"y":2542866.200000003}},{"attributes":{"ID":209250,"DIS_CODE":0,"TOWNNAME":"柳營區","LI":"太康里","LIN":"9鄰","STREET":" ","SECT":" ","MAREA":"太康","LANE":" ","ALLEY":" ","HOUSE_NO":"８９之１號","E_COORD97":181646.85999999999,"N_COORD97":2576350.8799999999,"ADDRESS":"太康８９之１號","OBJECTID":209249},"geometry":{"x":181646.86000000034,"y":2576350.879999999}},{"attributes":{"ID":209251,"DIS_CODE":0,"TOWNNAME":"柳營區","LI":"太康里","LIN":"9鄰","STREET":" ","SECT":" ","MAREA":"太康","LANE":" ","ALLEY":" ","HOUSE_NO":"８９之２號","E_COORD97":181641.78,"N_COORD97":2576349.79,"ADDRESS":"太康８９之２號","OBJECTID":209250},"geometry":{"x":181641.78000000119,"y":2576349.790000001}},{"attributes":{"ID":209252,"DIS_CODE":0,"TOWNNAME":"柳營區","LI":"太康里","LIN":"9鄰","STREET":" ","SECT":" ","MAREA":"太康","LANE":" ","ALLEY":" ","HOUSE_NO":"８９之３號","E_COORD97":181630.28,"N_COORD97":2576312.8999999999,"ADDRESS":"太康８９之３號","OBJECTID":209251},"geometry":{"x":181630.28000000026,"y":2576312.9000000022}},{"attributes":{"ID":209253,"DIS_CODE":0,"TOWNNAME":"北區","LI":"國姓里","LIN":"9鄰","STREET":"小北路","SECT":" ","MAREA":" ","LANE":" ","ALLEY":" ","HOUSE_NO":"１１２號","E_COORD97":168955.64999999999,"N_COORD97":2545305.7999999998,"ADDRESS":"小北路１１２號","OBJECTID":209252},"geometry":{"x":168955.6500000013,"y":2545305.8000000026}},{"attributes":{"ID":209254,"DIS_CODE":0,"TOWNNAME":"北區","LI":"國姓里","LIN":"9鄰","STREET":"小北路","SECT":" ","MAREA":" ","LANE":" ","ALLEY":" ","HOUSE_NO":"１１４號","E_COORD97":168960.19,"N_COORD97":2545308.7999999998,"ADDRESS":"小北路１１４號","OBJECTID":209253},"geometry":{"x":168960.19000000134,"y":2545308.8000000026}},{"attributes":{"ID":209255,"DIS_CODE":0,"TOWNNAME":"安平區","LI":"國平里","LIN":"32鄰","STREET":"健康三街","SECT":" ","MAREA":" ","LANE":"１２巷","ALLEY":"６２弄","HOUSE_NO":"５號","E_COORD97":164815.87,"N_COORD97":2542860.96,"ADDRESS":"健康三街１２巷６２弄５號","OBJECTID":209254},"geometry":{"x":164815.87000000104,"y":2542860.9600000009}},{"attributes":{"ID":209256,"DIS_CODE":0,"TOWNNAME":"安平區","LI":"國平里","LIN":"32鄰","STREET":"健康三街","SECT":" ","MAREA":" ","LANE":"１２巷","ALLEY":"６２弄","HOUSE_NO":"７號","E_COORD97":164814.76000000001,"N_COORD97":2542855.25,"ADDRESS":"健康三街１２巷６２弄７號","OBJECTID":209255},"geometry":{"x":164814.76000000071,"y":2542855.25}},{"attributes":{"ID":209257,"DIS_CODE":0,"TOWNNAME":"安平區","LI":"國平里","LIN":"32鄰","STREET":"健康三街","SECT":" ","MAREA":" ","LANE":"１２巷","ALLEY":"６２弄","HOUSE_NO":"６號","E_COORD97":164810.31,"N_COORD97":2542867.3100000001,"ADDRESS":"健康三街１２巷６２弄６號","OBJECTID":209256},"geometry":{"x":164810.31000000145,"y":2542867.3100000024}},{"attributes":{"ID":209258,"DIS_CODE":0,"TOWNNAME":"安平區","LI":"國平里","LIN":"32鄰","STREET":"健康三街","SECT":" ","MAREA":" ","LANE":"１２巷","ALLEY":"６２弄","HOUSE_NO":"８號","E_COORD97":164809.20000000001,"N_COORD97":2542861.9100000001,"ADDRESS":"健康三街１２巷６２弄８號","OBJECTID":209257},"geometry":{"x":164809.20000000019,"y":2542861.9099999983}},{"attributes":{"ID":209259,"DIS_CODE":0,"TOWNNAME":"大內區","LI":"大內里","LIN":"2鄰","STREET":" ","SECT":" ","MAREA":"內庄","LANE":" ","ALLEY":" ","HOUSE_NO":"１１號之２","E_COORD97":184509.10000000001,"N_COORD97":2557545.2999999998,"ADDRESS":"內庄１１號之２","OBJECTID":209258},"geometry":{"x":184509.09999999963,"y":2557545.3000000026}},{"attributes":{"ID":209260,"DIS_CODE":0,"TOWNNAME":"安平區","LI":"國平里","LIN":"32鄰","STREET":"健康三街","SECT":" ","MAREA":" ","LANE":"１２巷","ALLEY":"６０弄","HOUSE_NO":"１０號","E_COORD97":164807.76999999999,"N_COORD97":2542856.3599999999,"ADDRESS":"健康三街１２巷６０弄１０號","OBJECTID":209259},"geometry":{"x":164807.77000000048,"y":2542856.3600000013}},{"attributes":{"ID":209261,"DIS_CODE":0,"TOWNNAME":"安平區","LI":"國平里","LIN":"32鄰","STREET":"健康三街","SECT":" ","MAREA":" ","LANE":"１２巷","ALLEY":"６２弄","HOUSE_NO":"１２號","E_COORD97":164807.14000000001,"N_COORD97":2542851.75,"ADDRESS":"健康三街１２巷６２弄１２號","OBJECTID":209260},"geometry":{"x":164807.1400000006,"y":2542851.75}},{"attributes":{"ID":209262,"DIS_CODE":0,"TOWNNAME":"安平區","LI":"國平里","LIN":"32鄰","STREET":"健康三街","SECT":" ","MAREA":" ","LANE":"１２巷","ALLEY":"６２弄","HOUSE_NO":"１６號","E_COORD97":164805.87,"N_COORD97":2542847.3100000001,"ADDRESS":"健康三街１２巷６２弄１６號","OBJECTID":209261},"geometry":{"x":164805.87000000104,"y":2542847.3100000024}},{"attributes":{"ID":209263,"DIS_CODE":0,"TOWNNAME":"北區","LI":"國姓里","LIN":"9鄰","STREET":"小北路","SECT":" ","MAREA":" ","LANE":" ","ALLEY":" ","HOUSE_NO":"１１６號","E_COORD97":168964.57000000001,"N_COORD97":2545310.7999999998,"ADDRESS":"小北路１１６號","OBJECTID":209262},"geometry":{"x":168964.57000000123,"y":2545310.8000000007}},{"attributes":{"ID":209264,"DIS_CODE":0,"TOWNNAME":"北區","LI":"國姓里","LIN":"9鄰","STREET":"小北路","SECT":" ","MAREA":" ","LANE":" ","ALLEY":" ","HOUSE_NO":"１００號","E_COORD97":168908.06,"N_COORD97":2545280.0600000001,"ADDRESS":"小北路１００號","OBJECTID":209263},"geometry":{"x":168908.06000000052,"y":2545280.0600000024}},{"attributes":{"ID":209265,"DIS_CODE":0,"TOWNNAME":"北區","LI":"國姓里","LIN":"9鄰","STREET":"小北路","SECT":" ","MAREA":" ","LANE":" ","ALLEY":" ","HOUSE_NO":"１０８號","E_COORD97":168936.78,"N_COORD97":2545293.0600000001,"ADDRESS":"小北路１０８號","OBJECTID":209264},"geometry":{"x":168936.78000000026,"y":2545293.0600000024}},{"attributes":{"ID":209266,"DIS_CODE":0,"TOWNNAME":"北區","LI":"國姓里","LIN":"9鄰","STREET":"小北路","SECT":" ","MAREA":" ","LANE":" ","ALLEY":" ","HOUSE_NO":"７２號","E_COORD97":168843.29999999999,"N_COORD97":2545255.7799999998,"ADDRESS":"小北路７２號","OBJECTID":209265},"geometry":{"x":168843.29999999888,"y":2545255.7800000031}},{"attributes":{"ID":209267,"DIS_CODE":0,"TOWNNAME":"北區","LI":"國姓里","LIN":"9鄰","STREET":"小北路","SECT":" ","MAREA":" ","LANE":" ","ALLEY":" ","HOUSE_NO":"７４號","E_COORD97":168846.41,"N_COORD97":2545257.1899999999,"ADDRESS":"小北路７４號","OBJECTID":209266},"geometry":{"x":168846.41000000201,"y":2545257.1900000013}},{"attributes":{"ID":209268,"DIS_CODE":0,"TOWNNAME":"柳營區","LI":"果毅里","LIN":"9鄰","STREET":" ","SECT":" ","MAREA":"果毅後","LANE":" ","ALLEY":" ","HOUSE_NO":"１１２號","E_COORD97":185681.75,"N_COORD97":2572799.98,"ADDRESS":"果毅後１１２號","OBJECTID":209267},"geometry":{"x":185681.75,"y":2572799.9800000023}},{"attributes":{"ID":209269,"DIS_CODE":0,"TOWNNAME":"柳營區","LI":"果毅里","LIN":"9鄰","STREET":" ","SECT":" ","MAREA":"果毅後","LANE":" ","ALLEY":" ","HOUSE_NO":"１１３號","E_COORD97":185643.85999999999,"N_COORD97":2572800.98,"ADDRESS":"果毅後１１３號","OBJECTID":209268},"geometry":{"x":185643.86000000034,"y":2572800.9800000004}},{"attributes":{"ID":209270,"DIS_CODE":0,"TOWNNAME":"柳營區","LI":"果毅里","LIN":"9鄰","STREET":" ","SECT":" ","MAREA":"果毅後","LANE":" ","ALLEY":" ","HOUSE_NO":"１１４號","E_COORD97":185616.73000000001,"N_COORD97":2572807.71,"ADDRESS":"果毅後１１４號","OBJECTID":209269},"geometry":{"x":185616.73000000231,"y":2572807.7100000009}},{"attributes":{"ID":209271,"DIS_CODE":0,"TOWNNAME":"白河區","LI":"甘宅里","LIN":"2鄰","STREET":" ","SECT":" ","MAREA":"甘宅","LANE":" ","ALLEY":" ","HOUSE_NO":"１７號","E_COORD97":192675.20000000001,"N_COORD97":2586591.8500000001,"ADDRESS":"甘宅１７號","OBJECTID":209270},"geometry":{"x":192675.20000000019,"y":2586591.8500000015}},{"attributes":{"ID":209272,"DIS_CODE":0,"TOWNNAME":"柳營區","LI":"果毅里","LIN":"9鄰","STREET":" ","SECT":" ","MAREA":"果毅後","LANE":" ","ALLEY":" ","HOUSE_NO":"１１５號","E_COORD97":185654.72,"N_COORD97":2572831.3100000001,"ADDRESS":"果毅後１１５號","OBJECTID":209271},"geometry":{"x":185654.71999999974,"y":2572831.3100000024}},{"attributes":{"ID":209273,"DIS_CODE":0,"TOWNNAME":"柳營區","LI":"果毅里","LIN":"9鄰","STREET":" ","SECT":" ","MAREA":"果毅後","LANE":" ","ALLEY":" ","HOUSE_NO":"１１６號","E_COORD97":185665.04000000001,"N_COORD97":2572853.6099999999,"ADDRESS":"果毅後１１６號","OBJECTID":209272},"geometry":{"x":185665.0400000019,"y":2572853.6099999994}},{"attributes":{"ID":209274,"DIS_CODE":0,"TOWNNAME":"柳營區","LI":"神農里","LIN":"9鄰","STREET":" ","SECT":" ","MAREA":"果毅後","LANE":" ","ALLEY":" ","HOUSE_NO":"３１５號","E_COORD97":185418.84,"N_COORD97":2572959.4199999999,"ADDRESS":"果毅後３１５號","OBJECTID":209273},"geometry":{"x":185418.84000000171,"y":2572959.4200000018}},{"attributes":{"ID":209275,"DIS_CODE":0,"TOWNNAME":"柳營區","LI":"神農里","LIN":"9鄰","STREET":" ","SECT":" ","MAREA":"果毅後","LANE":" ","ALLEY":" ","HOUSE_NO":"３１６號","E_COORD97":185414.25,"N_COORD97":2572971.9300000002,"ADDRESS":"果毅後３１６號","OBJECTID":209274},"geometry":{"x":185414.25,"y":2572971.9300000016}},{"attributes":{"ID":209276,"DIS_CODE":0,"TOWNNAME":"善化區","LI":"田寮里","LIN":"2鄰","STREET":" ","SECT":" ","MAREA":"六分寮","LANE":" ","ALLEY":" ","HOUSE_NO":"３０號","E_COORD97":178397.51999999999,"N_COORD97":2561297.25,"ADDRESS":"六分寮３０號","OBJECTID":209275},"geometry":{"x":178397.52000000142,"y":2561297.2500000019}},{"attributes":{"ID":209277,"DIS_CODE":0,"TOWNNAME":"善化區","LI":"東隆里","LIN":"2鄰","STREET":" ","SECT":" ","MAREA":"東勢寮","LANE":" ","ALLEY":" ","HOUSE_NO":"８８號之２","E_COORD97":180362.64000000001,"N_COORD97":2561953.27,"ADDRESS":"東勢寮８８號之２","OBJECTID":209276},"geometry":{"x":180362.63999999966,"y":2561953.2699999996}},{"attributes":{"ID":209278,"DIS_CODE":0,"TOWNNAME":"善化區","LI":"牛庄里","LIN":"2鄰","STREET":" ","SECT":" ","MAREA":"牛庄","LANE":" ","ALLEY":" ","HOUSE_NO":"２８之９號","E_COORD97":180409.69,"N_COORD97":2559828.52,"ADDRESS":"牛庄２８之９號","OBJECTID":209277},"geometry":{"x":180409.69000000134,"y":2559828.5199999996}},{"attributes":{"ID":209279,"DIS_CODE":0,"TOWNNAME":"善化區","LI":"嘉北里","LIN":"2鄰","STREET":" ","SECT":" ","MAREA":"茄拔","LANE":" ","ALLEY":" ","HOUSE_NO":"９號","E_COORD97":181174.39999999999,"N_COORD97":2560082.2599999998,"ADDRESS":"茄拔９號","OBJECTID":209278},"geometry":{"x":181174.4000000013,"y":2560082.2599999979}},{"attributes":{"ID":209280,"DIS_CODE":0,"TOWNNAME":"大內區","LI":"二溪里","LIN":"2鄰","STREET":" ","SECT":" ","MAREA":"二重溪","LANE":" ","ALLEY":" ","HOUSE_NO":"１４９號之３","E_COORD97":187657.76999999999,"N_COORD97":2557920.3100000001,"ADDRESS":"二重溪１４９號之３","OBJECTID":209279},"geometry":{"x":187657.76999999955,"y":2557920.3100000024}},{"attributes":{"ID":209281,"DIS_CODE":0,"TOWNNAME":"大內區","LI":"石城里","LIN":"2鄰","STREET":" ","SECT":" ","MAREA":"石子瀨","LANE":" ","ALLEY":" ","HOUSE_NO":"２１號","E_COORD97":184265.92000000001,"N_COORD97":2557896.25,"ADDRESS":"石子瀨２１號","OBJECTID":209280},"geometry":{"x":184265.92000000086,"y":2557896.2500000037}},{"attributes":{"ID":209282,"DIS_CODE":0,"TOWNNAME":"大內區","LI":"環湖里","LIN":"2鄰","STREET":" ","SECT":" ","MAREA":"環湖","LANE":" ","ALLEY":" ","HOUSE_NO":"１９號之１","E_COORD97":190660.88,"N_COORD97":2560032.2999999998,"ADDRESS":"環湖１９號之１","OBJECTID":209281},"geometry":{"x":190660.87999999989,"y":2560032.3000000045}},{"attributes":{"ID":209283,"DIS_CODE":0,"TOWNNAME":"大內區","LI":"石城里","LIN":"2鄰","STREET":" ","SECT":" ","MAREA":"石子瀨","LANE":" ","ALLEY":" ","HOUSE_NO":"１５號","E_COORD97":184381.22,"N_COORD97":2557860.25,"ADDRESS":"石子瀨１５號","OBJECTID":209282},"geometry":{"x":184381.21999999974,"y":2557860.2500000019}},{"attributes":{"ID":209284,"DIS_CODE":0,"TOWNNAME":"麻豆區","LI":"海埔里","LIN":"1鄰","STREET":" ","SECT":" ","MAREA":"埤子尾","LANE":" ","ALLEY":" ","HOUSE_NO":"１１號","E_COORD97":169798.47,"N_COORD97":2566280.6099999999,"ADDRESS":"埤子尾１１號","OBJECTID":209283},"geometry":{"x":169798.47000000067,"y":2566280.6100000031}},{"attributes":{"ID":209285,"DIS_CODE":0,"TOWNNAME":"大內區","LI":"環湖里","LIN":"2鄰","STREET":" ","SECT":" ","MAREA":"環湖","LANE":" ","ALLEY":" ","HOUSE_NO":"１４號","E_COORD97":190705.44,"N_COORD97":2560015.25,"ADDRESS":"環湖１４號","OBJECTID":209284},"geometry":{"x":190705.44000000041,"y":2560015.2500000019}},{"attributes":{"ID":209286,"DIS_CODE":0,"TOWNNAME":"大內區","LI":"大內里","LIN":"2鄰","STREET":" ","SECT":" ","MAREA":"內庄","LANE":" ","ALLEY":" ","HOUSE_NO":"１４號之３","E_COORD97":184502.56,"N_COORD97":2557491.2999999998,"ADDRESS":"內庄１４號之３","OBJECTID":209285},"geometry":{"x":184502.55999999959,"y":2557491.3000000007}},{"attributes":{"ID":209287,"DIS_CODE":0,"TOWNNAME":"大內區","LI":"內郭里","LIN":"2鄰","STREET":" ","SECT":" ","MAREA":"內庄","LANE":" ","ALLEY":" ","HOUSE_NO":"１６４號","E_COORD97":184863.98000000001,"N_COORD97":2557340.25,"ADDRESS":"內庄１６４號","OBJECTID":209286},"geometry":{"x":184863.97999999952,"y":2557340.2500000019}},{"attributes":{"ID":209288,"DIS_CODE":0,"TOWNNAME":"安平區","LI":"國平里","LIN":"32鄰","STREET":"健康三街","SECT":" ","MAREA":" ","LANE":"１２巷","ALLEY":"６２弄","HOUSE_NO":"１１號","E_COORD97":164812.22,"N_COORD97":2542846.8300000001,"ADDRESS":"健康三街１２巷６２弄１１號","OBJECTID":209287},"geometry":{"x":164812.21999999974,"y":2542846.8300000019}},{"attributes":{"ID":209289,"DIS_CODE":0,"TOWNNAME":"安平區","LI":"國平里","LIN":"32鄰","STREET":"健康三街","SECT":" ","MAREA":" ","LANE":"１２巷","ALLEY":"６２弄","HOUSE_NO":"９號","E_COORD97":164813.48999999999,"N_COORD97":2542850.7999999998,"ADDRESS":"健康三街１２巷６２弄９號","OBJECTID":209288},"geometry":{"x":164813.49000000115,"y":2542850.8000000026}},{"attributes":{"ID":209290,"DIS_CODE":0,"TOWNNAME":"新營區","LI":"三仙里","LIN":"32鄰","STREET":"三興街","SECT":" ","MAREA":" ","LANE":"１４４巷","ALLEY":"１弄","HOUSE_NO":"９號","E_COORD97":179454.89000000001,"N_COORD97":2579320.6099999999,"ADDRESS":"三興街１４４巷１弄９號","OBJECTID":209289},"geometry":{"x":179454.8900000006,"y":2579320.6100000013}},{"attributes":{"ID":209291,"DIS_CODE":0,"TOWNNAME":"永康區","LI":"南灣里","LIN":"32鄰","STREET":"大灣一街","SECT":" ","MAREA":" ","LANE":"３７巷","ALLEY":"７弄","HOUSE_NO":"１２號二樓之１","E_COORD97":174283.26000000001,"N_COORD97":2544862.8900000001,"ADDRESS":"大灣一街３７巷７弄１２號二樓之１","OBJECTID":209290},"geometry":{"x":174283.25999999978,"y":2544862.8899999987}},{"attributes":{"ID":209292,"DIS_CODE":0,"TOWNNAME":"永康區","LI":"永康里","LIN":"32鄰","STREET":"永大路","SECT":"二段","MAREA":" ","LANE":"１５２６巷","ALLEY":"２弄","HOUSE_NO":"２號十二樓之８","E_COORD97":174283.95000000001,"N_COORD97":2547262.98,"ADDRESS":"永大路二段１５２６巷２弄２號十二樓之８","OBJECTID":209291},"geometry":{"x":174283.95000000019,"y":2547262.9800000023}},{"attributes":{"ID":209293,"DIS_CODE":0,"TOWNNAME":"永康區","LI":"永康里","LIN":"32鄰","STREET":"永大路","SECT":"二段","MAREA":" ","LANE":"１５２６巷","ALLEY":"２弄","HOUSE_NO":"３號六樓之２","E_COORD97":174316.04999999999,"N_COORD97":2547285.5600000001,"ADDRESS":"永大路二段１５２６巷２弄３號六樓之２","OBJECTID":209292},"geometry":{"x":174316.05000000075,"y":2547285.5600000005}},{"attributes":{"ID":209294,"DIS_CODE":0,"TOWNNAME":"柳營區","LI":"士林里","LIN":"9鄰","STREET":" ","SECT":" ","MAREA":"柳營","LANE":" ","ALLEY":" ","HOUSE_NO":"７８號","E_COORD97":179563.22,"N_COORD97":2575136.6499999999,"ADDRESS":"柳營７８號","OBJECTID":209293},"geometry":{"x":179563.22000000067,"y":2575136.6500000004}},{"attributes":{"ID":209295,"DIS_CODE":0,"TOWNNAME":"永康區","LI":"永康里","LIN":"32鄰","STREET":"永大路","SECT":"二段","MAREA":" ","LANE":"１５２６巷","ALLEY":"２弄","HOUSE_NO":"２號八樓之７","E_COORD97":174282.70000000001,"N_COORD97":2547262.98,"ADDRESS":"永大路二段１５２６巷２弄２號八樓之７","OBJECTID":209294},"geometry":{"x":174282.70000000205,"y":2547262.9800000023}},{"attributes":{"ID":209296,"DIS_CODE":0,"TOWNNAME":"永康區","LI":"永康里","LIN":"32鄰","STREET":"永大路","SECT":"二段","MAREA":" ","LANE":"１５２６巷","ALLEY":"２弄","HOUSE_NO":"２號五樓之７","E_COORD97":174282.70000000001,"N_COORD97":2547262.98,"ADDRESS":"永大路二段１５２６巷２弄２號五樓之７","OBJECTID":209295},"geometry":{"x":174282.70000000205,"y":2547262.9800000023}},{"attributes":{"ID":209297,"DIS_CODE":0,"TOWNNAME":"永康區","LI":"永康里","LIN":"32鄰","STREET":"永大路","SECT":"二段","MAREA":" ","LANE":"１５２６巷","ALLEY":"２弄","HOUSE_NO":"２號五樓之１","E_COORD97":174282.73000000001,"N_COORD97":2547262.98,"ADDRESS":"永大路二段１５２６巷２弄２號五樓之１","OBJECTID":209296},"geometry":{"x":174282.73000000231,"y":2547262.9800000023}},{"attributes":{"ID":209298,"DIS_CODE":0,"TOWNNAME":"永康區","LI":"永康里","LIN":"32鄰","STREET":"永大路","SECT":"二段","MAREA":" ","LANE":"１５２６巷","ALLEY":"２弄","HOUSE_NO":"２號十四樓之６","E_COORD97":174283.95000000001,"N_COORD97":2547262.98,"ADDRESS":"永大路二段１５２６巷２弄２號十四樓之６","OBJECTID":209297},"geometry":{"x":174283.95000000019,"y":2547262.9800000023}},{"attributes":{"ID":209299,"DIS_CODE":0,"TOWNNAME":"永康區","LI":"永康里","LIN":"32鄰","STREET":"永大路","SECT":"二段","MAREA":" ","LANE":"１５２６巷","ALLEY":"２弄","HOUSE_NO":"２號九樓之３","E_COORD97":174282.82999999999,"N_COORD97":2547262.98,"ADDRESS":"永大路二段１５２６巷２弄２號九樓之３","OBJECTID":209298},"geometry":{"x":174282.83000000007,"y":2547262.9800000023}},{"attributes":{"ID":209300,"DIS_CODE":0,"TOWNNAME":"永康區","LI":"永康里","LIN":"32鄰","STREET":"永大路","SECT":"二段","MAREA":" ","LANE":"１５２６巷","ALLEY":"２弄","HOUSE_NO":"２號六樓之３","E_COORD97":174282.82999999999,"N_COORD97":2547262.98,"ADDRESS":"永大路二段１５２６巷２弄２號六樓之３","OBJECTID":209299},"geometry":{"x":174282.83000000007,"y":2547262.9800000023}},{"attributes":{"ID":209301,"DIS_CODE":0,"TOWNNAME":"永康區","LI":"永康里","LIN":"32鄰","STREET":"永大路","SECT":"二段","MAREA":" ","LANE":"１５２６巷","ALLEY":"２弄","HOUSE_NO":"２號四樓之１","E_COORD97":174282.73000000001,"N_COORD97":2547262.98,"ADDRESS":"永大路二段１５２６巷２弄２號四樓之１","OBJECTID":209300},"geometry":{"x":174282.73000000231,"y":2547262.9800000023}},{"attributes":{"ID":209302,"DIS_CODE":0,"TOWNNAME":"永康區","LI":"永康里","LIN":"32鄰","STREET":"永大路","SECT":"二段","MAREA":" ","LANE":"１５２６巷","ALLEY":"２弄","HOUSE_NO":"２號十二樓之７","E_COORD97":174283.95000000001,"N_COORD97":2547262.98,"ADDRESS":"永大路二段１５２６巷２弄２號十二樓之７","OBJECTID":209301},"geometry":{"x":174283.95000000019,"y":2547262.9800000023}},{"attributes":{"ID":209303,"DIS_CODE":0,"TOWNNAME":"永康區","LI":"永康里","LIN":"32鄰","STREET":"永大路","SECT":"二段","MAREA":" ","LANE":"１５２６巷","ALLEY":"２弄","HOUSE_NO":"２號七樓之５","E_COORD97":174282.88,"N_COORD97":2547262.98,"ADDRESS":"永大路二段１５２６巷２弄２號七樓之５","OBJECTID":209302},"geometry":{"x":174282.88000000175,"y":2547262.9800000023}},{"attributes":{"ID":209304,"DIS_CODE":0,"TOWNNAME":"新市區","LI":"豐華里","LIN":"2鄰","STREET":" ","SECT":" ","MAREA":"豐華","LANE":" ","ALLEY":" ","HOUSE_NO":"１２號","E_COORD97":173855.10000000001,"N_COORD97":2554064,"ADDRESS":"豐華１２號","OBJECTID":209303},"geometry":{"x":173855.09999999963,"y":2554064.0000000019}},{"attributes":{"ID":209305,"DIS_CODE":0,"TOWNNAME":"永康區","LI":"永康里","LIN":"32鄰","STREET":"永大路","SECT":"二段","MAREA":" ","LANE":"１５２６巷","ALLEY":"２弄","HOUSE_NO":"２號十二樓之２","E_COORD97":174284.10999999999,"N_COORD97":2547262.98,"ADDRESS":"永大路二段１５２６巷２弄２號十二樓之２","OBJECTID":209304},"geometry":{"x":174284.11000000127,"y":2547262.9800000023}},{"attributes":{"ID":209306,"DIS_CODE":0,"TOWNNAME":"永康區","LI":"永康里","LIN":"32鄰","STREET":"永大路","SECT":"二段","MAREA":" ","LANE":"１５２６巷","ALLEY":"２弄","HOUSE_NO":"３號八樓之１","E_COORD97":174315.92000000001,"N_COORD97":2547285.5600000001,"ADDRESS":"永大路二段１５２６巷２弄３號八樓之１","OBJECTID":209305},"geometry":{"x":174315.91999999993,"y":2547285.5600000005}},{"attributes":{"ID":209307,"DIS_CODE":0,"TOWNNAME":"北區","LI":"國姓里","LIN":"9鄰","STREET":"公園路","SECT":" ","MAREA":" ","LANE":"４２７巷","ALLEY":" ","HOUSE_NO":"１０號","E_COORD97":168931.51000000001,"N_COORD97":2545288.6200000001,"ADDRESS":"公園路４２７巷１０號","OBJECTID":209306},"geometry":{"x":168931.50999999978,"y":2545288.620000001}},{"attributes":{"ID":209308,"DIS_CODE":0,"TOWNNAME":"大內區","LI":"內江里","LIN":"2鄰","STREET":" ","SECT":" ","MAREA":"內庄","LANE":" ","ALLEY":" ","HOUSE_NO":"２３３號","E_COORD97":184695.48000000001,"N_COORD97":2557327.25,"ADDRESS":"內庄２３３號","OBJECTID":209307},"geometry":{"x":184695.48000000045,"y":2557327.2500000019}},{"attributes":{"ID":209309,"DIS_CODE":0,"TOWNNAME":"永康區","LI":"勝利里","LIN":"24鄰","STREET":"勝利街","SECT":" ","MAREA":" ","LANE":" ","ALLEY":" ","HOUSE_NO":"９２之２號","E_COORD97":171368.48000000001,"N_COORD97":2544772.6000000001,"ADDRESS":"勝利街９２之２號","OBJECTID":209308},"geometry":{"x":171368.48000000045,"y":2544772.6000000034}},{"attributes":{"ID":209310,"DIS_CODE":0,"TOWNNAME":"永康區","LI":"勝利里","LIN":"24鄰","STREET":"勝利街","SECT":" ","MAREA":" ","LANE":" ","ALLEY":" ","HOUSE_NO":"９２之３號","E_COORD97":171371.04000000001,"N_COORD97":2544776.0899999999,"ADDRESS":"勝利街９２之３號","OBJECTID":209309},"geometry":{"x":171371.04000000004,"y":2544776.0900000036}},{"attributes":{"ID":209311,"DIS_CODE":0,"TOWNNAME":"永康區","LI":"勝利里","LIN":"24鄰","STREET":"勝利街","SECT":" ","MAREA":" ","LANE":" ","ALLEY":" ","HOUSE_NO":"９２之５號","E_COORD97":171371.42999999999,"N_COORD97":2544779.8599999999,"ADDRESS":"勝利街９２之５號","OBJECTID":209310},"geometry":{"x":171371.4299999997,"y":2544779.8599999994}},{"attributes":{"ID":209312,"DIS_CODE":0,"TOWNNAME":"大內區","LI":"大內里","LIN":"2鄰","STREET":" ","SECT":" ","MAREA":"內庄","LANE":" ","ALLEY":" ","HOUSE_NO":"１７號","E_COORD97":184540.23000000001,"N_COORD97":2557489.25,"ADDRESS":"內庄１７號","OBJECTID":209311},"geometry":{"x":184540.23000000231,"y":2557489.2500000037}},{"attributes":{"ID":209313,"DIS_CODE":0,"TOWNNAME":"大內區","LI":"曲溪里","LIN":"2鄰","STREET":" ","SECT":" ","MAREA":"二重溪","LANE":" ","ALLEY":" ","HOUSE_NO":"２４號","E_COORD97":187380.19,"N_COORD97":2557567.2999999998,"ADDRESS":"二重溪２４號","OBJECTID":209312},"geometry":{"x":187380.19000000134,"y":2557567.2999999989}},{"attributes":{"ID":209314,"DIS_CODE":0,"TOWNNAME":"大內區","LI":"內江里","LIN":"2鄰","STREET":" ","SECT":" ","MAREA":"內庄","LANE":" ","ALLEY":" ","HOUSE_NO":"２３５號","E_COORD97":184693.07999999999,"N_COORD97":2557369.25,"ADDRESS":"內庄２３５號","OBJECTID":209313},"geometry":{"x":184693.08000000007,"y":2557369.25}},{"attributes":{"ID":209315,"DIS_CODE":0,"TOWNNAME":"永康區","LI":"永康里","LIN":"32鄰","STREET":"永大路","SECT":"二段","MAREA":" ","LANE":"１５２６巷","ALLEY":"２弄","HOUSE_NO":"３號五樓之５","E_COORD97":174316.07000000001,"N_COORD97":2547285.5600000001,"ADDRESS":"永大路二段１５２６巷２弄３號五樓之５","OBJECTID":209314},"geometry":{"x":174316.07000000123,"y":2547285.5600000005}},{"attributes":{"ID":209316,"DIS_CODE":0,"TOWNNAME":"永康區","LI":"永康里","LIN":"32鄰","STREET":"永大路","SECT":"二段","MAREA":" ","LANE":"１５２６巷","ALLEY":"２弄","HOUSE_NO":"３號三樓之１","E_COORD97":174315.92000000001,"N_COORD97":2547285.5600000001,"ADDRESS":"永大路二段１５２６巷２弄３號三樓之１","OBJECTID":209315},"geometry":{"x":174315.91999999993,"y":2547285.5600000005}},{"attributes":{"ID":209317,"DIS_CODE":0,"TOWNNAME":"永康區","LI":"永康里","LIN":"32鄰","STREET":"永大路","SECT":"二段","MAREA":" ","LANE":"１５２６巷","ALLEY":"２弄","HOUSE_NO":"２號四樓之１１","E_COORD97":174283.98000000001,"N_COORD97":2547262.98,"ADDRESS":"永大路二段１５２６巷２弄２號四樓之１１","OBJECTID":209316},"geometry":{"x":174283.98000000045,"y":2547262.9800000023}},{"attributes":{"ID":209318,"DIS_CODE":0,"TOWNNAME":"永康區","LI":"永康里","LIN":"32鄰","STREET":"永大路","SECT":"二段","MAREA":" ","LANE":"１５２６巷","ALLEY":"２弄","HOUSE_NO":"２號十樓之５","E_COORD97":174282.88,"N_COORD97":2547262.98,"ADDRESS":"永大路二段１５２６巷２弄２號十樓之５","OBJECTID":209317},"geometry":{"x":174282.88000000175,"y":2547262.9800000023}},{"attributes":{"ID":209319,"DIS_CODE":0,"TOWNNAME":"永康區","LI":"永康里","LIN":"32鄰","STREET":"永大路","SECT":"二段","MAREA":" ","LANE":"１５２６巷","ALLEY":"２弄","HOUSE_NO":"３號五樓之３","E_COORD97":174316.01999999999,"N_COORD97":2547285.5600000001,"ADDRESS":"永大路二段１５２６巷２弄３號五樓之３","OBJECTID":209318},"geometry":{"x":174316.02000000048,"y":2547285.5600000005}},{"attributes":{"ID":209320,"DIS_CODE":0,"TOWNNAME":"永康區","LI":"永康里","LIN":"32鄰","STREET":"永大路","SECT":"二段","MAREA":" ","LANE":"１５２６巷","ALLEY":"２弄","HOUSE_NO":"２號十三樓之１","E_COORD97":174283.98000000001,"N_COORD97":2547262.98,"ADDRESS":"永大路二段１５２６巷２弄２號十三樓之１","OBJECTID":209319},"geometry":{"x":174283.98000000045,"y":2547262.9800000023}},{"attributes":{"ID":209321,"DIS_CODE":0,"TOWNNAME":"永康區","LI":"永康里","LIN":"32鄰","STREET":"永大路","SECT":"二段","MAREA":" ","LANE":"１５２６巷","ALLEY":"２弄","HOUSE_NO":"２號四樓之５","E_COORD97":174282.88,"N_COORD97":2547262.98,"ADDRESS":"永大路二段１５２６巷２弄２號四樓之５","OBJECTID":209320},"geometry":{"x":174282.88000000175,"y":2547262.9800000023}},{"attributes":{"ID":209322,"DIS_CODE":0,"TOWNNAME":"佳里區","LI":"安西里","LIN":"42鄰","STREET":"安西路","SECT":" ","MAREA":" ","LANE":"９３巷","ALLEY":"８弄","HOUSE_NO":"１８號","E_COORD97":165079.54999999999,"N_COORD97":2562467.4300000002,"ADDRESS":"安西路９３巷８弄１８號","OBJECTID":209321},"geometry":{"x":165079.54999999981,"y":2562467.4299999997}},{"attributes":{"ID":209323,"DIS_CODE":0,"TOWNNAME":"玉井區","LI":"層林里","LIN":"9鄰","STREET":" ","SECT":" ","MAREA":"層林","LANE":" ","ALLEY":" ","HOUSE_NO":"１０２號","E_COORD97":191558.32000000001,"N_COORD97":2552879.2400000002,"ADDRESS":"層林１０２號","OBJECTID":209322},"geometry":{"x":191558.32000000123,"y":2552879.2400000021}},{"attributes":{"ID":209324,"DIS_CODE":0,"TOWNNAME":"大內區","LI":"二溪里","LIN":"2鄰","STREET":" ","SECT":" ","MAREA":"二重溪","LANE":" ","ALLEY":" ","HOUSE_NO":"１４２號之１","E_COORD97":187669.98000000001,"N_COORD97":2557856.3100000001,"ADDRESS":"二重溪１４２號之１","OBJECTID":209323},"geometry":{"x":187669.98000000138,"y":2557856.3100000024}},{"attributes":{"ID":209325,"DIS_CODE":0,"TOWNNAME":"大內區","LI":"石城里","LIN":"2鄰","STREET":" ","SECT":" ","MAREA":"石子瀨","LANE":" ","ALLEY":" ","HOUSE_NO":"１７號","E_COORD97":184314.32000000001,"N_COORD97":2557880.25,"ADDRESS":"石子瀨１７號","OBJECTID":209324},"geometry":{"x":184314.32000000123,"y":2557880.2500000019}},{"attributes":{"ID":209326,"DIS_CODE":0,"TOWNNAME":"永康區","LI":"永康里","LIN":"32鄰","STREET":"永大路","SECT":"二段","MAREA":" ","LANE":"１５２６巷","ALLEY":"２弄","HOUSE_NO":"２號十一樓之１","E_COORD97":174283.98000000001,"N_COORD97":2547262.98,"ADDRESS":"永大路二段１５２６巷２弄２號十一樓之１","OBJECTID":209325},"geometry":{"x":174283.98000000045,"y":2547262.9800000023}},{"attributes":{"ID":209327,"DIS_CODE":0,"TOWNNAME":"大內區","LI":"二溪里","LIN":"2鄰","STREET":" ","SECT":" ","MAREA":"二重溪","LANE":" ","ALLEY":" ","HOUSE_NO":"１３８號之３","E_COORD97":187588.17000000001,"N_COORD97":2557902.3100000001,"ADDRESS":"二重溪１３８號之３","OBJECTID":209326},"geometry":{"x":187588.17000000179,"y":2557902.3100000005}},{"attributes":{"ID":209328,"DIS_CODE":0,"TOWNNAME":"大內區","LI":"曲溪里","LIN":"2鄰","STREET":" ","SECT":" ","MAREA":"二重溪","LANE":" ","ALLEY":" ","HOUSE_NO":"１９號","E_COORD97":187387.79000000001,"N_COORD97":2557599.3100000001,"ADDRESS":"二重溪１９號","OBJECTID":209327},"geometry":{"x":187387.79000000097,"y":2557599.3100000024}},{"attributes":{"ID":209329,"DIS_CODE":0,"TOWNNAME":"大內區","LI":"大內里","LIN":"2鄰","STREET":" ","SECT":" ","MAREA":"內庄","LANE":" ","ALLEY":" ","HOUSE_NO":"２１號","E_COORD97":184551.23000000001,"N_COORD97":2557500.25,"ADDRESS":"內庄２１號","OBJECTID":209328},"geometry":{"x":184551.23000000138,"y":2557500.2500000019}},{"attributes":{"ID":209330,"DIS_CODE":0,"TOWNNAME":"大內區","LI":"二溪里","LIN":"2鄰","STREET":" ","SECT":" ","MAREA":"二重溪","LANE":" ","ALLEY":" ","HOUSE_NO":"１４７號之１","E_COORD97":187618.48000000001,"N_COORD97":2557942.3100000001,"ADDRESS":"二重溪１４７號之１","OBJECTID":209329},"geometry":{"x":187618.48000000045,"y":2557942.3100000005}},{"attributes":{"ID":209331,"DIS_CODE":0,"TOWNNAME":"永康區","LI":"永康里","LIN":"32鄰","STREET":"永大路","SECT":"二段","MAREA":" ","LANE":"１５２６巷","ALLEY":"２弄","HOUSE_NO":"２號十一樓之３","E_COORD97":174283.95000000001,"N_COORD97":2547262.98,"ADDRESS":"永大路二段１５２６巷２弄２號十一樓之３","OBJECTID":209330},"geometry":{"x":174283.95000000019,"y":2547262.9800000023}},{"attributes":{"ID":209332,"DIS_CODE":0,"TOWNNAME":"永康區","LI":"永康里","LIN":"32鄰","STREET":"永大路","SECT":"二段","MAREA":" ","LANE":"１５２６巷","ALLEY":"２弄","HOUSE_NO":"２號七樓之３","E_COORD97":174282.82999999999,"N_COORD97":2547262.98,"ADDRESS":"永大路二段１５２６巷２弄２號七樓之３","OBJECTID":209331},"geometry":{"x":174282.83000000007,"y":2547262.9800000023}},{"attributes":{"ID":209333,"DIS_CODE":0,"TOWNNAME":"永康區","LI":"南灣里","LIN":"32鄰","STREET":"大灣一街","SECT":" ","MAREA":" ","LANE":"３７巷","ALLEY":"７弄","HOUSE_NO":"１２號四樓之１","E_COORD97":174283.26000000001,"N_COORD97":2544862.8900000001,"ADDRESS":"大灣一街３７巷７弄１２號四樓之１","OBJECTID":209332},"geometry":{"x":174283.25999999978,"y":2544862.8899999987}},{"attributes":{"ID":209334,"DIS_CODE":0,"TOWNNAME":"大內區","LI":"曲溪里","LIN":"2鄰","STREET":" ","SECT":" ","MAREA":"二重溪","LANE":" ","ALLEY":" ","HOUSE_NO":"１６號之１","E_COORD97":187355.82999999999,"N_COORD97":2557602.3100000001,"ADDRESS":"二重溪１６號之１","OBJECTID":209333},"geometry":{"x":187355.83000000007,"y":2557602.3100000024}},{"attributes":{"ID":209335,"DIS_CODE":0,"TOWNNAME":"安南區","LI":"淵中里","LIN":"18鄰","STREET":"安中路","SECT":"四段","MAREA":" ","LANE":"１９７巷","ALLEY":"５弄","HOUSE_NO":"３０號","E_COORD97":164836.62,"N_COORD97":2550040.8900000001,"ADDRESS":"安中路四段１９７巷５弄３０號","OBJECTID":209334},"geometry":{"x":164836.62000000104,"y":2550040.8900000025}},{"attributes":{"ID":209336,"DIS_CODE":0,"TOWNNAME":"安南區","LI":"淵中里","LIN":"18鄰","STREET":"安中路","SECT":"四段","MAREA":" ","LANE":"１９７巷","ALLEY":"５弄","HOUSE_NO":"３２號","E_COORD97":164840.73999999999,"N_COORD97":2550038.9900000002,"ADDRESS":"安中路四段１９７巷５弄３２號","OBJECTID":209335},"geometry":{"x":164840.74000000115,"y":2550038.9900000039}},{"attributes":{"ID":209337,"DIS_CODE":0,"TOWNNAME":"安南區","LI":"淵中里","LIN":"18鄰","STREET":"安中路","SECT":"四段","MAREA":" ","LANE":"１９７巷","ALLEY":"５弄","HOUSE_NO":"３６號","E_COORD97":164845.19,"N_COORD97":2550037.5600000001,"ADDRESS":"安中路四段１９７巷５弄３６號","OBJECTID":209336},"geometry":{"x":164845.19000000041,"y":2550037.5600000005}},{"attributes":{"ID":209338,"DIS_CODE":0,"TOWNNAME":"安南區","LI":"淵中里","LIN":"18鄰","STREET":"安中路","SECT":"四段","MAREA":" ","LANE":"１９７巷","ALLEY":"５弄","HOUSE_NO":"３８號","E_COORD97":164849.32000000001,"N_COORD97":2550036.1299999999,"ADDRESS":"安中路四段１９７巷５弄３８號","OBJECTID":209337},"geometry":{"x":164849.3200000003,"y":2550036.129999999}},{"attributes":{"ID":209339,"DIS_CODE":0,"TOWNNAME":"安南區","LI":"淵中里","LIN":"18鄰","STREET":"安中路","SECT":"四段","MAREA":" ","LANE":"１９７巷","ALLEY":"５弄","HOUSE_NO":"４０號","E_COORD97":164853.92000000001,"N_COORD97":2550033.75,"ADDRESS":"安中路四段１９７巷５弄４０號","OBJECTID":209338},"geometry":{"x":164853.92000000179,"y":2550033.7500000037}},{"attributes":{"ID":209340,"DIS_CODE":0,"TOWNNAME":"新營區","LI":"新北里","LIN":"15鄰","STREET":"南新街","SECT":" ","MAREA":" ","LANE":" ","ALLEY":" ","HOUSE_NO":"４３號","E_COORD97":179299.67000000001,"N_COORD97":2578871.73,"ADDRESS":"南新街４３號","OBJECTID":209339},"geometry":{"x":179299.66999999993,"y":2578871.7300000004}},{"attributes":{"ID":209341,"DIS_CODE":0,"TOWNNAME":"大內區","LI":"內江里","LIN":"2鄰","STREET":" ","SECT":" ","MAREA":"內庄","LANE":" ","ALLEY":" ","HOUSE_NO":"２２５號之４","E_COORD97":184593.34,"N_COORD97":2557349.2999999998,"ADDRESS":"內庄２２５號之４","OBJECTID":209340},"geometry":{"x":184593.34000000078,"y":2557349.3000000007}},{"attributes":{"ID":209342,"DIS_CODE":0,"TOWNNAME":"大內區","LI":"石林里","LIN":"2鄰","STREET":" ","SECT":" ","MAREA":"石子瀨","LANE":" ","ALLEY":" ","HOUSE_NO":"１３５號","E_COORD97":183992.97,"N_COORD97":2558063.25,"ADDRESS":"石子瀨１３５號","OBJECTID":209341},"geometry":{"x":183992.96999999974,"y":2558063.2500000019}},{"attributes":{"ID":209343,"DIS_CODE":0,"TOWNNAME":"大內區","LI":"環湖里","LIN":"2鄰","STREET":" ","SECT":" ","MAREA":"環湖","LANE":" ","ALLEY":" ","HOUSE_NO":"２１號","E_COORD97":190602.14000000001,"N_COORD97":2560049.25,"ADDRESS":"環湖２１號","OBJECTID":209342},"geometry":{"x":190602.14000000153,"y":2560049.2500000019}},{"attributes":{"ID":209344,"DIS_CODE":0,"TOWNNAME":"玉井區","LI":"望明里","LIN":"9鄰","STREET":" ","SECT":" ","MAREA":"劉陳","LANE":" ","ALLEY":" ","HOUSE_NO":"３２號","E_COORD97":193438.31,"N_COORD97":2556038.25,"ADDRESS":"劉陳３２號","OBJECTID":209343},"geometry":{"x":193438.30999999959,"y":2556038.2500000037}},{"attributes":{"ID":209345,"DIS_CODE":0,"TOWNNAME":"安南區","LI":"淵中里","LIN":"18鄰","STREET":"安中路","SECT":"四段","MAREA":" ","LANE":"１９７巷","ALLEY":"５弄","HOUSE_NO":"４２號","E_COORD97":164857.57000000001,"N_COORD97":2550031.6800000002,"ADDRESS":"安中路四段１９７巷５弄４２號","OBJECTID":209344},"geometry":{"x":164857.5700000003,"y":2550031.6800000016}},{"attributes":{"ID":209346,"DIS_CODE":0,"TOWNNAME":"歸仁區","LI":"後市里","LIN":"9鄰","STREET":"民權七街","SECT":" ","MAREA":" ","LANE":" ","ALLEY":" ","HOUSE_NO":"１６號","E_COORD97":177076.09,"N_COORD97":2540714.25,"ADDRESS":"民權七街１６號","OBJECTID":209345},"geometry":{"x":177076.08999999985,"y":2540714.2500000019}},{"attributes":{"ID":209347,"DIS_CODE":0,"TOWNNAME":"玉井區","LI":"望明里","LIN":"9鄰","STREET":" ","SECT":" ","MAREA":"劉陳","LANE":" ","ALLEY":" ","HOUSE_NO":"７２號","E_COORD97":193469.70000000001,"N_COORD97":2556136.2400000002,"ADDRESS":"劉陳７２號","OBJECTID":209346},"geometry":{"x":193469.70000000019,"y":2556136.2400000002}},{"attributes":{"ID":209348,"DIS_CODE":0,"TOWNNAME":"玉井區","LI":"豐里里","LIN":"9鄰","STREET":" ","SECT":" ","MAREA":"豐里","LANE":" ","ALLEY":" ","HOUSE_NO":"８５號之１","E_COORD97":192445.39000000001,"N_COORD97":2559599.2999999998,"ADDRESS":"豐里８５號之１","OBJECTID":209347},"geometry":{"x":192445.3900000006,"y":2559599.3000000026}},{"attributes":{"ID":209349,"DIS_CODE":0,"TOWNNAME":"學甲區","LI":"新達里","LIN":"16鄰","STREET":" ","SECT":" ","MAREA":"山寮","LANE":" ","ALLEY":" ","HOUSE_NO":"４號","E_COORD97":167851.51000000001,"N_COORD97":2570662.0800000001,"ADDRESS":"山寮４號","OBJECTID":209348},"geometry":{"x":167851.50999999978,"y":2570662.0800000038}},{"attributes":{"ID":209350,"DIS_CODE":0,"TOWNNAME":"大內區","LI":"頭社里","LIN":"2鄰","STREET":" ","SECT":" ","MAREA":"頭社","LANE":" ","ALLEY":" ","HOUSE_NO":"２８號之８","E_COORD97":187055.12,"N_COORD97":2560511.2999999998,"ADDRESS":"頭社２８號之８","OBJECTID":209349},"geometry":{"x":187055.12000000104,"y":2560511.3000000026}},{"attributes":{"ID":209351,"DIS_CODE":0,"TOWNNAME":"大內區","LI":"大內里","LIN":"2鄰","STREET":" ","SECT":" ","MAREA":"內庄","LANE":" ","ALLEY":" ","HOUSE_NO":"２２號","E_COORD97":184554.82999999999,"N_COORD97":2557503.25,"ADDRESS":"內庄２２號","OBJECTID":209350},"geometry":{"x":184554.83000000101,"y":2557503.2500000019}},{"attributes":{"ID":209352,"DIS_CODE":0,"TOWNNAME":"大內區","LI":"二溪里","LIN":"2鄰","STREET":" ","SECT":" ","MAREA":"二重溪","LANE":" ","ALLEY":" ","HOUSE_NO":"１３９號","E_COORD97":187607.73999999999,"N_COORD97":2557872.3100000001,"ADDRESS":"二重溪１３９號","OBJECTID":209351},"geometry":{"x":187607.74000000022,"y":2557872.3100000042}},{"attributes":{"ID":209353,"DIS_CODE":0,"TOWNNAME":"大內區","LI":"石林里","LIN":"2鄰","STREET":" ","SECT":" ","MAREA":"石子瀨","LANE":" ","ALLEY":" ","HOUSE_NO":"１３８號","E_COORD97":184055.67000000001,"N_COORD97":2558059.25,"ADDRESS":"石子瀨１３８號","OBJECTID":209352},"geometry":{"x":184055.67000000086,"y":2558059.2500000019}},{"attributes":{"ID":209354,"DIS_CODE":0,"TOWNNAME":"大內區","LI":"內江里","LIN":"2鄰","STREET":" ","SECT":" ","MAREA":"內庄","LANE":" ","ALLEY":" ","HOUSE_NO":"２３３號之１","E_COORD97":184684.41,"N_COORD97":2557328.2999999998,"ADDRESS":"內庄２３３號之１","OBJECTID":209353},"geometry":{"x":184684.40999999922,"y":2557328.3000000026}},{"attributes":{"ID":209355,"DIS_CODE":0,"TOWNNAME":"大內區","LI":"曲溪里","LIN":"2鄰","STREET":" ","SECT":" ","MAREA":"二重溪","LANE":" ","ALLEY":" ","HOUSE_NO":"１８號","E_COORD97":187370.79000000001,"N_COORD97":2557597.3100000001,"ADDRESS":"二重溪１８號","OBJECTID":209354},"geometry":{"x":187370.79000000097,"y":2557597.3100000005}},{"attributes":{"ID":209356,"DIS_CODE":0,"TOWNNAME":"安南區","LI":"淵中里","LIN":"18鄰","STREET":"安中路","SECT":"四段","MAREA":" ","LANE":"１９７巷","ALLEY":"５弄","HOUSE_NO":"４６號","E_COORD97":164862.32999999999,"N_COORD97":2550030.4100000001,"ADDRESS":"安中路四段１９７巷５弄４６號","OBJECTID":209355},"geometry":{"x":164862.33000000007,"y":2550030.410000002}},{"attributes":{"ID":209357,"DIS_CODE":0,"TOWNNAME":"大內區","LI":"石城里","LIN":"2鄰","STREET":" ","SECT":" ","MAREA":"石子瀨","LANE":" ","ALLEY":" ","HOUSE_NO":"１２號之３","E_COORD97":184326.25,"N_COORD97":2557892.2999999998,"ADDRESS":"石子瀨１２號之３","OBJECTID":209356},"geometry":{"x":184326.25000000093,"y":2557892.3000000007}},{"attributes":{"ID":209358,"DIS_CODE":0,"TOWNNAME":"大內區","LI":"頭社里","LIN":"2鄰","STREET":" ","SECT":" ","MAREA":"頭社","LANE":" ","ALLEY":" ","HOUSE_NO":"２８號之７","E_COORD97":187055.04999999999,"N_COORD97":2560515.2999999998,"ADDRESS":"頭社２８號之７","OBJECTID":209357},"geometry":{"x":187055.05000000075,"y":2560515.3000000026}},{"attributes":{"ID":209359,"DIS_CODE":0,"TOWNNAME":"大內區","LI":"頭社里","LIN":"2鄰","STREET":" ","SECT":" ","MAREA":"頭社","LANE":" ","ALLEY":" ","HOUSE_NO":"２６號","E_COORD97":187073.04000000001,"N_COORD97":2560382.25,"ADDRESS":"頭社２６號","OBJECTID":209358},"geometry":{"x":187073.04000000004,"y":2560382.2500000019}},{"attributes":{"ID":209360,"DIS_CODE":0,"TOWNNAME":"安南區","LI":"淵中里","LIN":"18鄰","STREET":"安中路","SECT":"四段","MAREA":" ","LANE":"１９７巷","ALLEY":"５弄","HOUSE_NO":"５０號","E_COORD97":164866.94,"N_COORD97":2550028.5099999998,"ADDRESS":"安中路四段１９７巷５弄５０號","OBJECTID":209359},"geometry":{"x":164866.94000000134,"y":2550028.5100000035}},{"attributes":{"ID":209361,"DIS_CODE":0,"TOWNNAME":"安南區","LI":"淵中里","LIN":"18鄰","STREET":"安中路","SECT":"四段","MAREA":" ","LANE":"１９７巷","ALLEY":"５弄","HOUSE_NO":"５２號","E_COORD97":164871.22,"N_COORD97":2550026.9199999999,"ADDRESS":"安中路四段１９７巷５弄５２號","OBJECTID":209360},"geometry":{"x":164871.21999999974,"y":2550026.9200000018}},{"attributes":{"ID":209362,"DIS_CODE":0,"TOWNNAME":"大內區","LI":"石城里","LIN":"2鄰","STREET":" ","SECT":" ","MAREA":"石子瀨","LANE":" ","ALLEY":" ","HOUSE_NO":"１５號之２","E_COORD97":184349.59,"N_COORD97":2557877.2999999998,"ADDRESS":"石子瀨１５號之２","OBJECTID":209361},"geometry":{"x":184349.59000000078,"y":2557877.3000000026}},{"attributes":{"ID":209363,"DIS_CODE":0,"TOWNNAME":"安南區","LI":"淵中里","LIN":"18鄰","STREET":"安中路","SECT":"四段","MAREA":" ","LANE":"１９７巷","ALLEY":"５弄","HOUSE_NO":"５６號","E_COORD97":164875.19,"N_COORD97":2550025.1699999999,"ADDRESS":"安中路四段１９７巷５弄５６號","OBJECTID":209362},"geometry":{"x":164875.19000000134,"y":2550025.1700000018}},{"attributes":{"ID":209364,"DIS_CODE":0,"TOWNNAME":"大內區","LI":"石城里","LIN":"2鄰","STREET":" ","SECT":" ","MAREA":"石子瀨","LANE":" ","ALLEY":" ","HOUSE_NO":"１７號之１","E_COORD97":184305.85000000001,"N_COORD97":2557903.2999999998,"ADDRESS":"石子瀨１７號之１","OBJECTID":209363},"geometry":{"x":184305.84999999963,"y":2557903.3000000045}},{"attributes":{"ID":209365,"DIS_CODE":0,"TOWNNAME":"大內區","LI":"環湖里","LIN":"2鄰","STREET":" ","SECT":" ","MAREA":"環湖","LANE":" ","ALLEY":" ","HOUSE_NO":"１３號","E_COORD97":190676.84,"N_COORD97":2560014.25,"ADDRESS":"環湖１３號","OBJECTID":209364},"geometry":{"x":190676.83999999985,"y":2560014.25}},{"attributes":{"ID":209366,"DIS_CODE":0,"TOWNNAME":"安南區","LI":"淵中里","LIN":"18鄰","STREET":"安中路","SECT":"四段","MAREA":" ","LANE":"１９７巷","ALLEY":"５弄","HOUSE_NO":"２號","E_COORD97":164789.31,"N_COORD97":2550061.6899999999,"ADDRESS":"安中路四段１９７巷５弄２號","OBJECTID":209365},"geometry":{"x":164789.30999999959,"y":2550061.6900000013}},{"attributes":{"ID":209367,"DIS_CODE":0,"TOWNNAME":"大內區","LI":"石城里","LIN":"2鄰","STREET":" ","SECT":" ","MAREA":"石子瀨","LANE":" ","ALLEY":" ","HOUSE_NO":"１２號之２","E_COORD97":184327.39000000001,"N_COORD97":2557885.2999999998,"ADDRESS":"石子瀨１２號之２","OBJECTID":209366},"geometry":{"x":184327.38999999966,"y":2557885.3000000007}},{"attributes":{"ID":209368,"DIS_CODE":0,"TOWNNAME":"大內區","LI":"石城里","LIN":"2鄰","STREET":" ","SECT":" ","MAREA":"石子瀨","LANE":" ","ALLEY":" ","HOUSE_NO":"１２號之１","E_COORD97":184347.25,"N_COORD97":2557860.2999999998,"ADDRESS":"石子瀨１２號之１","OBJECTID":209367},"geometry":{"x":184347.25000000093,"y":2557860.3000000026}},{"attributes":{"ID":209369,"DIS_CODE":0,"TOWNNAME":"下營區","LI":"開化里","LIN":"2鄰","STREET":" ","SECT":" ","MAREA":"中營","LANE":" ","ALLEY":" ","HOUSE_NO":"６４號","E_COORD97":175615.42000000001,"N_COORD97":2568124.0899999999,"ADDRESS":"中營６４號","OBJECTID":209368},"geometry":{"x":175615.42000000086,"y":2568124.0899999999}},{"attributes":{"ID":209370,"DIS_CODE":0,"TOWNNAME":"安南區","LI":"淵中里","LIN":"18鄰","STREET":"安中路","SECT":"四段","MAREA":" ","LANE":"１９７巷","ALLEY":"５弄","HOUSE_NO":"６號","E_COORD97":164793.12,"N_COORD97":2550060.2599999998,"ADDRESS":"安中路四段１９７巷５弄６號","OBJECTID":209369},"geometry":{"x":164793.12000000011,"y":2550060.2599999979}},{"attributes":{"ID":209371,"DIS_CODE":0,"TOWNNAME":"麻豆區","LI":"北勢里","LIN":"2鄰","STREET":" ","SECT":" ","MAREA":"加輦邦","LANE":" ","ALLEY":" ","HOUSE_NO":"２１號","E_COORD97":173351.54999999999,"N_COORD97":2566377.6299999999,"ADDRESS":"加輦邦２１號","OBJECTID":209370},"geometry":{"x":173351.55000000075,"y":2566377.629999999}},{"attributes":{"ID":209372,"DIS_CODE":0,"TOWNNAME":"大內區","LI":"環湖里","LIN":"2鄰","STREET":" ","SECT":" ","MAREA":"環湖","LANE":" ","ALLEY":" ","HOUSE_NO":"２０號之１","E_COORD97":190620.98000000001,"N_COORD97":2560021.2999999998,"ADDRESS":"環湖２０號之１","OBJECTID":209371},"geometry":{"x":190620.98000000231,"y":2560021.3000000007}},{"attributes":{"ID":209373,"DIS_CODE":0,"TOWNNAME":"大內區","LI":"環湖里","LIN":"2鄰","STREET":" ","SECT":" ","MAREA":"環湖","LANE":" ","ALLEY":" ","HOUSE_NO":"２０號之６","E_COORD97":190639.17999999999,"N_COORD97":2560025.2999999998,"ADDRESS":"環湖２０號之６","OBJECTID":209372},"geometry":{"x":190639.18000000156,"y":2560025.3000000007}},{"attributes":{"ID":209374,"DIS_CODE":0,"TOWNNAME":"麻豆區","LI":"北勢里","LIN":"2鄰","STREET":" ","SECT":" ","MAREA":"加輦邦","LANE":" ","ALLEY":" ","HOUSE_NO":"２２號之１","E_COORD97":173354.89999999999,"N_COORD97":2566419.3300000001,"ADDRESS":"加輦邦２２號之１","OBJECTID":209373},"geometry":{"x":173354.9000000013,"y":2566419.3300000019}},{"attributes":{"ID":209375,"DIS_CODE":0,"TOWNNAME":"大內區","LI":"頭社里","LIN":"2鄰","STREET":" ","SECT":" ","MAREA":"頭社","LANE":" ","ALLEY":" ","HOUSE_NO":"２８號","E_COORD97":187070.84,"N_COORD97":2560424.25,"ADDRESS":"頭社２８號","OBJECTID":209374},"geometry":{"x":187070.83999999985,"y":2560424.25}},{"attributes":{"ID":209376,"DIS_CODE":0,"TOWNNAME":"安南區","LI":"淵中里","LIN":"18鄰","STREET":"安中路","SECT":"四段","MAREA":" ","LANE":"１９７巷","ALLEY":"５弄","HOUSE_NO":"８號","E_COORD97":164797.25,"N_COORD97":2550058.5099999998,"ADDRESS":"安中路四段１９７巷５弄８號","OBJECTID":209375},"geometry":{"x":164797.25,"y":2550058.5099999998}},{"attributes":{"ID":209377,"DIS_CODE":0,"TOWNNAME":"麻豆區","LI":"北勢里","LIN":"2鄰","STREET":" ","SECT":" ","MAREA":"加輦邦","LANE":" ","ALLEY":" ","HOUSE_NO":"２２號","E_COORD97":173353.72,"N_COORD97":2566396.5299999998,"ADDRESS":"加輦邦２２號","OBJECTID":209376},"geometry":{"x":173353.72000000067,"y":2566396.5300000031}},{"attributes":{"ID":209378,"DIS_CODE":0,"TOWNNAME":"大內區","LI":"大內里","LIN":"2鄰","STREET":" ","SECT":" ","MAREA":"內庄","LANE":" ","ALLEY":" ","HOUSE_NO":"１８號","E_COORD97":184543.23000000001,"N_COORD97":2557492.25,"ADDRESS":"內庄１８號","OBJECTID":209377},"geometry":{"x":184543.23000000045,"y":2557492.25}},{"attributes":{"ID":209379,"DIS_CODE":0,"TOWNNAME":"麻豆區","LI":"北勢里","LIN":"2鄰","STREET":" ","SECT":" ","MAREA":"加輦邦","LANE":" ","ALLEY":" ","HOUSE_NO":"２３號之６","E_COORD97":173459.01000000001,"N_COORD97":2566395.5,"ADDRESS":"加輦邦２３號之６","OBJECTID":209378},"geometry":{"x":173459.00999999978,"y":2566395.5000000019}},{"attributes":{"ID":209380,"DIS_CODE":0,"TOWNNAME":"麻豆區","LI":"北勢里","LIN":"2鄰","STREET":" ","SECT":" ","MAREA":"加輦邦","LANE":" ","ALLEY":" ","HOUSE_NO":"２３號","E_COORD97":173370.73000000001,"N_COORD97":2566402.1400000001,"ADDRESS":"加輦邦２３號","OBJECTID":209379},"geometry":{"x":173370.73000000231,"y":2566402.1400000006}},{"attributes":{"ID":209381,"DIS_CODE":0,"TOWNNAME":"大內區","LI":"曲溪里","LIN":"2鄰","STREET":" ","SECT":" ","MAREA":"二重溪","LANE":" ","ALLEY":" ","HOUSE_NO":"２１號","E_COORD97":187419.79000000001,"N_COORD97":2557615.3100000001,"ADDRESS":"二重溪２１號","OBJECTID":209380},"geometry":{"x":187419.79000000097,"y":2557615.3100000024}},{"attributes":{"ID":209382,"DIS_CODE":0,"TOWNNAME":"大內區","LI":"石城里","LIN":"2鄰","STREET":" ","SECT":" ","MAREA":"石子瀨","LANE":" ","ALLEY":" ","HOUSE_NO":"１５號之１","E_COORD97":184388.45000000001,"N_COORD97":2557852.2999999998,"ADDRESS":"石子瀨１５號之１","OBJECTID":209381},"geometry":{"x":184388.45000000112,"y":2557852.3000000045}},{"attributes":{"ID":209383,"DIS_CODE":0,"TOWNNAME":"大內區","LI":"曲溪里","LIN":"2鄰","STREET":" ","SECT":" ","MAREA":"二重溪","LANE":" ","ALLEY":" ","HOUSE_NO":"２２號","E_COORD97":187408.48999999999,"N_COORD97":2557599.3100000001,"ADDRESS":"二重溪２２號","OBJECTID":209382},"geometry":{"x":187408.49000000115,"y":2557599.3100000024}},{"attributes":{"ID":209384,"DIS_CODE":0,"TOWNNAME":"大內區","LI":"頭社里","LIN":"2鄰","STREET":" ","SECT":" ","MAREA":"頭社","LANE":" ","ALLEY":" ","HOUSE_NO":"２８號之３","E_COORD97":187057.97,"N_COORD97":2560484.2999999998,"ADDRESS":"頭社２８號之３","OBJECTID":209383},"geometry":{"x":187057.96999999974,"y":2560484.3000000026}},{"attributes":{"ID":209385,"DIS_CODE":0,"TOWNNAME":"大內區","LI":"石林里","LIN":"2鄰","STREET":" ","SECT":" ","MAREA":"石子瀨","LANE":" ","ALLEY":" ","HOUSE_NO":"１３９號之１","E_COORD97":183996,"N_COORD97":2558078.2999999998,"ADDRESS":"石子瀨１３９號之１","OBJECTID":209384},"geometry":{"x":183996.00000000093,"y":2558078.3000000007}},{"attributes":{"ID":209386,"DIS_CODE":0,"TOWNNAME":"大內區","LI":"頭社里","LIN":"2鄰","STREET":" ","SECT":" ","MAREA":"頭社","LANE":" ","ALLEY":" ","HOUSE_NO":"２８號之１０","E_COORD97":187057.38,"N_COORD97":2560504.2999999998,"ADDRESS":"頭社２８號之１０","OBJECTID":209385},"geometry":{"x":187057.37999999989,"y":2560504.3000000026}},{"attributes":{"ID":209387,"DIS_CODE":0,"TOWNNAME":"東區","LI":"莊敬里","LIN":"12鄰","STREET":"東光路","SECT":"二段","MAREA":" ","LANE":" ","ALLEY":" ","HOUSE_NO":"１６號","E_COORD97":171220.35000000001,"N_COORD97":2544015.29,"ADDRESS":"東光路二段１６號","OBJECTID":209386},"geometry":{"x":171220.34999999963,"y":2544015.290000001}},{"attributes":{"ID":209388,"DIS_CODE":0,"TOWNNAME":"大內區","LI":"曲溪里","LIN":"2鄰","STREET":" ","SECT":" ","MAREA":"二重溪","LANE":" ","ALLEY":" ","HOUSE_NO":"１５號","E_COORD97":187340.09,"N_COORD97":2557604.3100000001,"ADDRESS":"二重溪１５號","OBJECTID":209387},"geometry":{"x":187340.09000000078,"y":2557604.3099999987}},{"attributes":{"ID":209389,"DIS_CODE":0,"TOWNNAME":"大內區","LI":"石城里","LIN":"2鄰","STREET":" ","SECT":" ","MAREA":"石子瀨","LANE":" ","ALLEY":" ","HOUSE_NO":"１５號之５","E_COORD97":184388.91,"N_COORD97":2557837.2999999998,"ADDRESS":"石子瀨１５號之５","OBJECTID":209388},"geometry":{"x":184388.91000000015,"y":2557837.3000000007}},{"attributes":{"ID":209390,"DIS_CODE":0,"TOWNNAME":"大內區","LI":"石城里","LIN":"2鄰","STREET":" ","SECT":" ","MAREA":"石子瀨","LANE":" ","ALLEY":" ","HOUSE_NO":"１９號","E_COORD97":184257.62,"N_COORD97":2557876.25,"ADDRESS":"石子瀨１９號","OBJECTID":209389},"geometry":{"x":184257.62000000197,"y":2557876.2500000019}},{"attributes":{"ID":209391,"DIS_CODE":0,"TOWNNAME":"東區","LI":"莊敬里","LIN":"12鄰","STREET":"東光路","SECT":"二段","MAREA":" ","LANE":" ","ALLEY":" ","HOUSE_NO":"１８號","E_COORD97":171220.64999999999,"N_COORD97":2544019.1899999999,"ADDRESS":"東光路二段１８號","OBJECTID":209390},"geometry":{"x":171220.6500000013,"y":2544019.1900000032}},{"attributes":{"ID":209392,"DIS_CODE":0,"TOWNNAME":"大內區","LI":"頭社里","LIN":"2鄰","STREET":" ","SECT":" ","MAREA":"頭社","LANE":" ","ALLEY":" ","HOUSE_NO":"２８號之６","E_COORD97":187055.07999999999,"N_COORD97":2560518.2999999998,"ADDRESS":"頭社２８號之６","OBJECTID":209391},"geometry":{"x":187055.08000000101,"y":2560518.3000000026}},{"attributes":{"ID":209393,"DIS_CODE":0,"TOWNNAME":"安南區","LI":"淵中里","LIN":"18鄰","STREET":"安中路","SECT":"四段","MAREA":" ","LANE":"１９７巷","ALLEY":"５弄","HOUSE_NO":"１０號","E_COORD97":164801.37,"N_COORD97":2550056.29,"ADDRESS":"安中路四段１９７巷５弄１０號","OBJECTID":209392},"geometry":{"x":164801.37000000011,"y":2550056.2900000028}},{"attributes":{"ID":209394,"DIS_CODE":0,"TOWNNAME":"大內區","LI":"石城里","LIN":"2鄰","STREET":" ","SECT":" ","MAREA":"石子瀨","LANE":" ","ALLEY":" ","HOUSE_NO":"１３號之３","E_COORD97":184373.64999999999,"N_COORD97":2557817.2999999998,"ADDRESS":"石子瀨１３號之３","OBJECTID":209393},"geometry":{"x":184373.6500000013,"y":2557817.3000000007}},{"attributes":{"ID":209395,"DIS_CODE":0,"TOWNNAME":"大內區","LI":"頭社里","LIN":"2鄰","STREET":" ","SECT":" ","MAREA":"頭社","LANE":" ","ALLEY":" ","HOUSE_NO":"２８號之１３","E_COORD97":187058.72,"N_COORD97":2560491.2999999998,"ADDRESS":"頭社２８號之１３","OBJECTID":209394},"geometry":{"x":187058.7200000016,"y":2560491.3000000026}},{"attributes":{"ID":209396,"DIS_CODE":0,"TOWNNAME":"安南區","LI":"淵中里","LIN":"18鄰","STREET":"安中路","SECT":"四段","MAREA":" ","LANE":"１９７巷","ALLEY":"５弄","HOUSE_NO":"１２號","E_COORD97":164806.29000000001,"N_COORD97":2550054.23,"ADDRESS":"安中路四段１９７巷５弄１２號","OBJECTID":209395},"geometry":{"x":164806.29000000097,"y":2550054.2300000004}},{"attributes":{"ID":209397,"DIS_CODE":0,"TOWNNAME":"安南區","LI":"淵中里","LIN":"18鄰","STREET":"安中路","SECT":"四段","MAREA":" ","LANE":"１９７巷","ALLEY":"５弄","HOUSE_NO":"１６號","E_COORD97":164810.42000000001,"N_COORD97":2550052.6400000001,"ADDRESS":"安中路四段１９７巷５弄１６號","OBJECTID":209396},"geometry":{"x":164810.42000000086,"y":2550052.6400000025}},{"attributes":{"ID":209398,"DIS_CODE":0,"TOWNNAME":"安南區","LI":"淵中里","LIN":"18鄰","STREET":"安中路","SECT":"四段","MAREA":" ","LANE":"１９７巷","ALLEY":"５弄","HOUSE_NO":"１８號","E_COORD97":164814.70999999999,"N_COORD97":2550050.73,"ADDRESS":"安中路四段１９７巷５弄１８號","OBJECTID":209397},"geometry":{"x":164814.71000000183,"y":2550050.7300000004}},{"attributes":{"ID":209399,"DIS_CODE":0,"TOWNNAME":"安南區","LI":"淵中里","LIN":"18鄰","STREET":"安中路","SECT":"四段","MAREA":" ","LANE":"１９７巷","ALLEY":"５弄","HOUSE_NO":"２０號","E_COORD97":164819.47,"N_COORD97":2550048.6699999999,"ADDRESS":"安中路四段１９７巷５弄２０號","OBJECTID":209398},"geometry":{"x":164819.4700000016,"y":2550048.6700000018}},{"attributes":{"ID":209400,"DIS_CODE":0,"TOWNNAME":"安南區","LI":"淵中里","LIN":"18鄰","STREET":"安中路","SECT":"四段","MAREA":" ","LANE":"１９７巷","ALLEY":"５弄","HOUSE_NO":"２２號","E_COORD97":164823.60000000001,"N_COORD97":2550046.6099999999,"ADDRESS":"安中路四段１９７巷５弄２２號","OBJECTID":209399},"geometry":{"x":164823.60000000149,"y":2550046.6099999994}},{"attributes":{"ID":209401,"DIS_CODE":0,"TOWNNAME":"大內區","LI":"石城里","LIN":"2鄰","STREET":" ","SECT":" ","MAREA":"石子瀨","LANE":" ","ALLEY":" ","HOUSE_NO":"２１號之２","E_COORD97":184255.79000000001,"N_COORD97":2557881.2999999998,"ADDRESS":"石子瀨２１號之２","OBJECTID":209400},"geometry":{"x":184255.79000000004,"y":2557881.3000000007}}]}