{"displayFieldName":"TOWNNAME","fieldAliases":{"ID":"ID","DIS_CODE":"DIS_CODE","TOWNNAME":"TOWNNAME","LI":"LI","LIN":"LIN","STREET":"STREET","SECT":"SECT","MAREA":"MAREA","LANE":"LANE","ALLEY":"ALLEY","HOUSE_NO":"HOUSE_NO","E_COORD97":"E_COORD97","N_COORD97":"N_COORD97","ADDRESS":"ADDRESS","OBJECTID":"OBJECTID"},"geometryType":"esriGeometryPoint","spatialReference":{"wkid":102443,"latestWkid":3826},"fields":[{"name":"ID","type":"esriFieldTypeDouble","alias":"ID"},{"name":"DIS_CODE","type":"esriFieldTypeInteger","alias":"DIS_CODE"},{"name":"TOWNNAME","type":"esriFieldTypeString","alias":"TOWNNAME","length":8},{"name":"LI","type":"esriFieldTypeString","alias":"LI","length":8},{"name":"LIN","type":"esriFieldTypeString","alias":"LIN","length":12},{"name":"STREET","type":"esriFieldTypeString","alias":"STREET","length":20},{"name":"SECT","type":"esriFieldTypeString","alias":"SECT","length":8},{"name":"MAREA","type":"esriFieldTypeString","alias":"MAREA","length":12},{"name":"LANE","type":"esriFieldTypeString","alias":"LANE","length":10},{"name":"ALLEY","type":"esriFieldTypeString","alias":"ALLEY","length":10},{"name":"HOUSE_NO","type":"esriFieldTypeString","alias":"HOUSE_NO","length":20},{"name":"E_COORD97","type":"esriFieldTypeDouble","alias":"E_COORD97"},{"name":"N_COORD97","type":"esriFieldTypeDouble","alias":"N_COORD97"},{"name":"ADDRESS","type":"esriFieldTypeString","alias":"ADDRESS","length":50},{"name":"OBJECTID","type":"esriFieldTypeOID","alias":"OBJECTID"}],"features":[{"attributes":{"ID":580628,"DIS_CODE":0,"TOWNNAME":"善化區","LI":"文昌里","LIN":"16鄰","STREET":"中正路","SECT":" ","MAREA":" ","LANE":" ","ALLEY":" ","HOUSE_NO":"３８２之６號","E_COORD97":177707.51999999999,"N_COORD97":2558705.77,"ADDRESS":"中正路３８２之６號","OBJECTID":580601},"geometry":{"x":177707.52000000142,"y":2558705.7700000033}},{"attributes":{"ID":580629,"DIS_CODE":0,"TOWNNAME":"善化區","LI":"文昌里","LIN":"16鄰","STREET":"中正路","SECT":" ","MAREA":" ","LANE":" ","ALLEY":" ","HOUSE_NO":"４０５號","E_COORD97":177686.42000000001,"N_COORD97":2558677.5,"ADDRESS":"中正路４０５號","OBJECTID":580602},"geometry":{"x":177686.42000000179,"y":2558677.5000000037}},{"attributes":{"ID":580630,"DIS_CODE":0,"TOWNNAME":"善化區","LI":"文昌里","LIN":"16鄰","STREET":"中正路","SECT":" ","MAREA":" ","LANE":" ","ALLEY":" ","HOUSE_NO":"４９５號","E_COORD97":177678.32000000001,"N_COORD97":2558986.75,"ADDRESS":"中正路４９５號","OBJECTID":580603},"geometry":{"x":177678.3200000003,"y":2558986.75}},{"attributes":{"ID":580631,"DIS_CODE":0,"TOWNNAME":"善化區","LI":"光文里","LIN":"16鄰","STREET":"中山路","SECT":" ","MAREA":" ","LANE":" ","ALLEY":" ","HOUSE_NO":"２２９號","E_COORD97":178161.85999999999,"N_COORD97":2559105.25,"ADDRESS":"中山路２２９號","OBJECTID":580604},"geometry":{"x":178161.8599999994,"y":2559105.25}},{"attributes":{"ID":580632,"DIS_CODE":0,"TOWNNAME":"善化區","LI":"光文里","LIN":"16鄰","STREET":"中山路","SECT":" ","MAREA":" ","LANE":" ","ALLEY":" ","HOUSE_NO":"２１９號之２","E_COORD97":178198.81,"N_COORD97":2559111.77,"ADDRESS":"中山路２１９號之２","OBJECTID":580605},"geometry":{"x":178198.81000000145,"y":2559111.7699999996}},{"attributes":{"ID":580633,"DIS_CODE":0,"TOWNNAME":"善化區","LI":"光文里","LIN":"16鄰","STREET":"中山路","SECT":" ","MAREA":" ","LANE":" ","ALLEY":" ","HOUSE_NO":"２２１號","E_COORD97":178184.31,"N_COORD97":2559108,"ADDRESS":"中山路２２１號","OBJECTID":580606},"geometry":{"x":178184.31000000052,"y":2559108.0000000037}},{"attributes":{"ID":580634,"DIS_CODE":0,"TOWNNAME":"善化區","LI":"光文里","LIN":"16鄰","STREET":"中山路","SECT":" ","MAREA":" ","LANE":" ","ALLEY":" ","HOUSE_NO":"２１５之１號","E_COORD97":178246.39999999999,"N_COORD97":2559117.02,"ADDRESS":"中山路２１５之１號","OBJECTID":580607},"geometry":{"x":178246.39999999944,"y":2559117.0199999996}},{"attributes":{"ID":580635,"DIS_CODE":0,"TOWNNAME":"善化區","LI":"光文里","LIN":"16鄰","STREET":"民族路","SECT":" ","MAREA":" ","LANE":" ","ALLEY":" ","HOUSE_NO":"１４３號","E_COORD97":178212.73000000001,"N_COORD97":2559081.2599999998,"ADDRESS":"民族路１４３號","OBJECTID":580608},"geometry":{"x":178212.73000000138,"y":2559081.2599999998}},{"attributes":{"ID":580636,"DIS_CODE":0,"TOWNNAME":"善化區","LI":"文昌里","LIN":"16鄰","STREET":"中正路","SECT":" ","MAREA":" ","LANE":" ","ALLEY":" ","HOUSE_NO":"３４０號","E_COORD97":177706.01000000001,"N_COORD97":2558582.25,"ADDRESS":"中正路３４０號","OBJECTID":580609},"geometry":{"x":177706.01000000164,"y":2558582.2500000019}},{"attributes":{"ID":580637,"DIS_CODE":0,"TOWNNAME":"善化區","LI":"光文里","LIN":"16鄰","STREET":"和平路","SECT":" ","MAREA":" ","LANE":" ","ALLEY":" ","HOUSE_NO":"１７８號","E_COORD97":178113.20000000001,"N_COORD97":2559047.5,"ADDRESS":"和平路１７８號","OBJECTID":580610},"geometry":{"x":178113.20000000019,"y":2559047.5000000019}},{"attributes":{"ID":580638,"DIS_CODE":0,"TOWNNAME":"善化區","LI":"光文里","LIN":"16鄰","STREET":"中山路","SECT":" ","MAREA":" ","LANE":" ","ALLEY":" ","HOUSE_NO":"２３１之６號","E_COORD97":178112.14000000001,"N_COORD97":2559097.52,"ADDRESS":"中山路２３１之６號","OBJECTID":580611},"geometry":{"x":178112.1400000006,"y":2559097.5200000033}},{"attributes":{"ID":580639,"DIS_CODE":0,"TOWNNAME":"善化區","LI":"光文里","LIN":"16鄰","STREET":"中山路","SECT":" ","MAREA":" ","LANE":" ","ALLEY":" ","HOUSE_NO":"２２１號之１","E_COORD97":178181.26999999999,"N_COORD97":2559108.52,"ADDRESS":"中山路２２１號之１","OBJECTID":580612},"geometry":{"x":178181.26999999955,"y":2559108.5200000014}},{"attributes":{"ID":580640,"DIS_CODE":0,"TOWNNAME":"善化區","LI":"光文里","LIN":"16鄰","STREET":"和平路","SECT":" ","MAREA":" ","LANE":" ","ALLEY":" ","HOUSE_NO":"１８０號","E_COORD97":178112.29999999999,"N_COORD97":2559052.5,"ADDRESS":"和平路１８０號","OBJECTID":580613},"geometry":{"x":178112.29999999981,"y":2559052.5}},{"attributes":{"ID":580641,"DIS_CODE":0,"TOWNNAME":"善化區","LI":"文昌里","LIN":"16鄰","STREET":"光復路","SECT":" ","MAREA":" ","LANE":" ","ALLEY":" ","HOUSE_NO":"１２號","E_COORD97":177649.57999999999,"N_COORD97":2558749.7599999998,"ADDRESS":"光復路１２號","OBJECTID":580614},"geometry":{"x":177649.58000000007,"y":2558749.7599999998}},{"attributes":{"ID":580642,"DIS_CODE":0,"TOWNNAME":"善化區","LI":"文昌里","LIN":"16鄰","STREET":"中正路","SECT":" ","MAREA":" ","LANE":" ","ALLEY":" ","HOUSE_NO":"３５０號","E_COORD97":177708.56,"N_COORD97":2558606.5,"ADDRESS":"中正路３５０號","OBJECTID":580615},"geometry":{"x":177708.55999999959,"y":2558606.5000000037}},{"attributes":{"ID":580643,"DIS_CODE":0,"TOWNNAME":"善化區","LI":"文昌里","LIN":"16鄰","STREET":"中正路","SECT":" ","MAREA":" ","LANE":" ","ALLEY":" ","HOUSE_NO":"４７９號之２","E_COORD97":177677.5,"N_COORD97":2558951.77,"ADDRESS":"中正路４７９號之２","OBJECTID":580616},"geometry":{"x":177677.50000000186,"y":2558951.7699999996}},{"attributes":{"ID":580644,"DIS_CODE":0,"TOWNNAME":"善化區","LI":"文昌里","LIN":"16鄰","STREET":"中正路","SECT":" ","MAREA":" ","LANE":" ","ALLEY":" ","HOUSE_NO":"３５２號","E_COORD97":177708.56,"N_COORD97":2558610.75,"ADDRESS":"中正路３５２號","OBJECTID":580617},"geometry":{"x":177708.55999999959,"y":2558610.75}},{"attributes":{"ID":580645,"DIS_CODE":0,"TOWNNAME":"善化區","LI":"文昌里","LIN":"16鄰","STREET":"中正路","SECT":" ","MAREA":" ","LANE":" ","ALLEY":" ","HOUSE_NO":"４４３號","E_COORD97":177680.75,"N_COORD97":2558782.25,"ADDRESS":"中正路４４３號","OBJECTID":580618},"geometry":{"x":177680.75,"y":2558782.2500000019}},{"attributes":{"ID":580646,"DIS_CODE":0,"TOWNNAME":"善化區","LI":"文昌里","LIN":"16鄰","STREET":"中正路","SECT":" ","MAREA":" ","LANE":" ","ALLEY":" ","HOUSE_NO":"３５６號","E_COORD97":177708.10999999999,"N_COORD97":2558619.75,"ADDRESS":"中正路３５６號","OBJECTID":580619},"geometry":{"x":177708.11000000127,"y":2558619.7500000019}},{"attributes":{"ID":580647,"DIS_CODE":0,"TOWNNAME":"善化區","LI":"文昌里","LIN":"16鄰","STREET":"中正路","SECT":" ","MAREA":" ","LANE":" ","ALLEY":" ","HOUSE_NO":"３７２號","E_COORD97":177707.10999999999,"N_COORD97":2558656,"ADDRESS":"中正路３７２號","OBJECTID":580620},"geometry":{"x":177707.11000000034,"y":2558656}},{"attributes":{"ID":580648,"DIS_CODE":0,"TOWNNAME":"善化區","LI":"光文里","LIN":"16鄰","STREET":"信義路","SECT":" ","MAREA":" ","LANE":" ","ALLEY":" ","HOUSE_NO":"１６５號","E_COORD97":178223.85000000001,"N_COORD97":2559062.75,"ADDRESS":"信義路１６５號","OBJECTID":580621},"geometry":{"x":178223.84999999963,"y":2559062.7500000019}},{"attributes":{"ID":580649,"DIS_CODE":0,"TOWNNAME":"善化區","LI":"文昌里","LIN":"16鄰","STREET":"中正路","SECT":" ","MAREA":" ","LANE":" ","ALLEY":" ","HOUSE_NO":"４３７號","E_COORD97":177678.76000000001,"N_COORD97":2558762.5,"ADDRESS":"中正路４３７號","OBJECTID":580622},"geometry":{"x":177678.75999999978,"y":2558762.5000000019}},{"attributes":{"ID":580650,"DIS_CODE":0,"TOWNNAME":"善化區","LI":"文昌里","LIN":"16鄰","STREET":"中正路","SECT":" ","MAREA":" ","LANE":" ","ALLEY":" ","HOUSE_NO":"３８３號","E_COORD97":177684.20000000001,"N_COORD97":2558592.25,"ADDRESS":"中正路３８３號","OBJECTID":580623},"geometry":{"x":177684.20000000019,"y":2558592.2500000019}},{"attributes":{"ID":580651,"DIS_CODE":0,"TOWNNAME":"善化區","LI":"文昌里","LIN":"16鄰","STREET":"中正路","SECT":" ","MAREA":" ","LANE":" ","ALLEY":" ","HOUSE_NO":"３８２之８號","E_COORD97":177704.26999999999,"N_COORD97":2558714.27,"ADDRESS":"中正路３８２之８號","OBJECTID":580624},"geometry":{"x":177704.27000000048,"y":2558714.2699999996}},{"attributes":{"ID":580652,"DIS_CODE":0,"TOWNNAME":"善化區","LI":"文昌里","LIN":"16鄰","STREET":"中正路","SECT":" ","MAREA":" ","LANE":" ","ALLEY":" ","HOUSE_NO":"３８２之５號","E_COORD97":177707.66,"N_COORD97":2558701.77,"ADDRESS":"中正路３８２之５號","OBJECTID":580625},"geometry":{"x":177707.66000000108,"y":2558701.7699999996}},{"attributes":{"ID":580653,"DIS_CODE":0,"TOWNNAME":"善化區","LI":"文昌里","LIN":"16鄰","STREET":"中正路","SECT":" ","MAREA":" ","LANE":" ","ALLEY":" ","HOUSE_NO":"３９７號","E_COORD97":177685.12,"N_COORD97":2558658.25,"ADDRESS":"中正路３９７號","OBJECTID":580626},"geometry":{"x":177685.12000000011,"y":2558658.25}},{"attributes":{"ID":580654,"DIS_CODE":0,"TOWNNAME":"善化區","LI":"文昌里","LIN":"16鄰","STREET":"中正路","SECT":" ","MAREA":" ","LANE":" ","ALLEY":" ","HOUSE_NO":"４９７號","E_COORD97":177678.09,"N_COORD97":2558991,"ADDRESS":"中正路４９７號","OBJECTID":580627},"geometry":{"x":177678.08999999985,"y":2558991.0000000019}},{"attributes":{"ID":580655,"DIS_CODE":0,"TOWNNAME":"善化區","LI":"文昌里","LIN":"16鄰","STREET":"中正路","SECT":" ","MAREA":" ","LANE":" ","ALLEY":" ","HOUSE_NO":"３６８號","E_COORD97":177707.51000000001,"N_COORD97":2558647,"ADDRESS":"中正路３６８號","OBJECTID":580628},"geometry":{"x":177707.50999999978,"y":2558647.0000000037}},{"attributes":{"ID":580656,"DIS_CODE":0,"TOWNNAME":"善化區","LI":"文昌里","LIN":"16鄰","STREET":"中正路","SECT":" ","MAREA":" ","LANE":" ","ALLEY":" ","HOUSE_NO":"３７４號","E_COORD97":177706.70000000001,"N_COORD97":2558661,"ADDRESS":"中正路３７４號","OBJECTID":580629},"geometry":{"x":177706.70000000019,"y":2558661.0000000019}},{"attributes":{"ID":580657,"DIS_CODE":0,"TOWNNAME":"善化區","LI":"文昌里","LIN":"16鄰","STREET":"中正路","SECT":" ","MAREA":" ","LANE":" ","ALLEY":" ","HOUSE_NO":"４４７號","E_COORD97":177680.92000000001,"N_COORD97":2558791.5,"ADDRESS":"中正路４４７號","OBJECTID":580630},"geometry":{"x":177680.91999999993,"y":2558791.5}},{"attributes":{"ID":580658,"DIS_CODE":0,"TOWNNAME":"善化區","LI":"文昌里","LIN":"16鄰","STREET":"中正路","SECT":" ","MAREA":" ","LANE":" ","ALLEY":" ","HOUSE_NO":"３８４號之２","E_COORD97":177706.42000000001,"N_COORD97":2558727.77,"ADDRESS":"中正路３８４號之２","OBJECTID":580631},"geometry":{"x":177706.41999999993,"y":2558727.7699999996}},{"attributes":{"ID":580659,"DIS_CODE":0,"TOWNNAME":"善化區","LI":"文昌里","LIN":"16鄰","STREET":"中正路","SECT":" ","MAREA":" ","LANE":" ","ALLEY":" ","HOUSE_NO":"３８２之４號","E_COORD97":177707.70000000001,"N_COORD97":2558697.77,"ADDRESS":"中正路３８２之４號","OBJECTID":580632},"geometry":{"x":177707.70000000112,"y":2558697.7699999996}},{"attributes":{"ID":580660,"DIS_CODE":0,"TOWNNAME":"善化區","LI":"文昌里","LIN":"16鄰","STREET":"中正路","SECT":" ","MAREA":" ","LANE":" ","ALLEY":" ","HOUSE_NO":"４０７號","E_COORD97":177684.60999999999,"N_COORD97":2558681.25,"ADDRESS":"中正路４０７號","OBJECTID":580633},"geometry":{"x":177684.61000000127,"y":2558681.25}},{"attributes":{"ID":580661,"DIS_CODE":0,"TOWNNAME":"善化區","LI":"光文里","LIN":"16鄰","STREET":"信義路","SECT":" ","MAREA":" ","LANE":" ","ALLEY":" ","HOUSE_NO":"１５８號","E_COORD97":178247.48999999999,"N_COORD97":2559036.5,"ADDRESS":"信義路１５８號","OBJECTID":580634},"geometry":{"x":178247.49000000209,"y":2559036.5}},{"attributes":{"ID":580662,"DIS_CODE":0,"TOWNNAME":"善化區","LI":"文昌里","LIN":"16鄰","STREET":"中正路","SECT":" ","MAREA":" ","LANE":" ","ALLEY":" ","HOUSE_NO":"４８９號","E_COORD97":177678.53,"N_COORD97":2558974.75,"ADDRESS":"中正路４８９號","OBJECTID":580635},"geometry":{"x":177678.53000000026,"y":2558974.7500000019}},{"attributes":{"ID":580663,"DIS_CODE":0,"TOWNNAME":"善化區","LI":"文昌里","LIN":"16鄰","STREET":"光復路","SECT":" ","MAREA":" ","LANE":" ","ALLEY":" ","HOUSE_NO":"８號","E_COORD97":177657.01000000001,"N_COORD97":2558753.0099999998,"ADDRESS":"光復路８號","OBJECTID":580636},"geometry":{"x":177657.01000000164,"y":2558753.0100000016}},{"attributes":{"ID":580664,"DIS_CODE":0,"TOWNNAME":"善化區","LI":"文昌里","LIN":"16鄰","STREET":"中正路","SECT":" ","MAREA":" ","LANE":" ","ALLEY":" ","HOUSE_NO":"４１５號","E_COORD97":177684.37,"N_COORD97":2558701.25,"ADDRESS":"中正路４１５號","OBJECTID":580637},"geometry":{"x":177684.37000000104,"y":2558701.25}},{"attributes":{"ID":580665,"DIS_CODE":0,"TOWNNAME":"善化區","LI":"文昌里","LIN":"16鄰","STREET":"中正路","SECT":" ","MAREA":" ","LANE":" ","ALLEY":" ","HOUSE_NO":"３９９號","E_COORD97":177685.17000000001,"N_COORD97":2558662.75,"ADDRESS":"中正路３９９號","OBJECTID":580638},"geometry":{"x":177685.17000000086,"y":2558662.7500000019}},{"attributes":{"ID":580666,"DIS_CODE":0,"TOWNNAME":"善化區","LI":"文昌里","LIN":"16鄰","STREET":"中正路","SECT":" ","MAREA":" ","LANE":" ","ALLEY":" ","HOUSE_NO":"３８４號之１","E_COORD97":177706.82000000001,"N_COORD97":2558723.27,"ADDRESS":"中正路３８４號之１","OBJECTID":580639},"geometry":{"x":177706.82000000123,"y":2558723.2700000014}},{"attributes":{"ID":580667,"DIS_CODE":0,"TOWNNAME":"善化區","LI":"文昌里","LIN":"16鄰","STREET":"中正路","SECT":" ","MAREA":" ","LANE":" ","ALLEY":" ","HOUSE_NO":"３９３號","E_COORD97":177685.51999999999,"N_COORD97":2558649,"ADDRESS":"中正路３９３號","OBJECTID":580640},"geometry":{"x":177685.52000000142,"y":2558649}},{"attributes":{"ID":580668,"DIS_CODE":0,"TOWNNAME":"善化區","LI":"文昌里","LIN":"16鄰","STREET":"中正路","SECT":" ","MAREA":" ","LANE":" ","ALLEY":" ","HOUSE_NO":"４５１號之１","E_COORD97":177680.09,"N_COORD97":2558795.27,"ADDRESS":"中正路４５１號之１","OBJECTID":580641},"geometry":{"x":177680.08999999892,"y":2558795.2700000014}},{"attributes":{"ID":580669,"DIS_CODE":0,"TOWNNAME":"善化區","LI":"文昌里","LIN":"16鄰","STREET":"中正路","SECT":" ","MAREA":" ","LANE":" ","ALLEY":" ","HOUSE_NO":"３７６號","E_COORD97":177706.56,"N_COORD97":2558665.5,"ADDRESS":"中正路３７６號","OBJECTID":580642},"geometry":{"x":177706.55999999959,"y":2558665.5000000019}},{"attributes":{"ID":580670,"DIS_CODE":0,"TOWNNAME":"善化區","LI":"文昌里","LIN":"16鄰","STREET":"中正路","SECT":" ","MAREA":" ","LANE":" ","ALLEY":" ","HOUSE_NO":"４４３號之２","E_COORD97":177650.12,"N_COORD97":2558781.77,"ADDRESS":"中正路４４３號之２","OBJECTID":580643},"geometry":{"x":177650.12000000104,"y":2558781.7700000014}},{"attributes":{"ID":580671,"DIS_CODE":0,"TOWNNAME":"善化區","LI":"文昌里","LIN":"16鄰","STREET":"中正路","SECT":" ","MAREA":" ","LANE":" ","ALLEY":" ","HOUSE_NO":"３８２號","E_COORD97":177705.67000000001,"N_COORD97":2558675.25,"ADDRESS":"中正路３８２號","OBJECTID":580644},"geometry":{"x":177705.67000000086,"y":2558675.25}},{"attributes":{"ID":580672,"DIS_CODE":0,"TOWNNAME":"善化區","LI":"文昌里","LIN":"16鄰","STREET":"中正路","SECT":" ","MAREA":" ","LANE":" ","ALLEY":" ","HOUSE_NO":"３６６號","E_COORD97":177707.75,"N_COORD97":2558642.5,"ADDRESS":"中正路３６６號","OBJECTID":580645},"geometry":{"x":177707.75,"y":2558642.5}},{"attributes":{"ID":580673,"DIS_CODE":0,"TOWNNAME":"善化區","LI":"文昌里","LIN":"16鄰","STREET":"中正路","SECT":" ","MAREA":" ","LANE":" ","ALLEY":" ","HOUSE_NO":"３７８號","E_COORD97":177706.45000000001,"N_COORD97":2558670.25,"ADDRESS":"中正路３７８號","OBJECTID":580646},"geometry":{"x":177706.45000000019,"y":2558670.2500000019}},{"attributes":{"ID":580674,"DIS_CODE":0,"TOWNNAME":"善化區","LI":"文昌里","LIN":"16鄰","STREET":"中正路","SECT":" ","MAREA":" ","LANE":" ","ALLEY":" ","HOUSE_NO":"４１９號","E_COORD97":177676.39999999999,"N_COORD97":2558726.5,"ADDRESS":"中正路４１９號","OBJECTID":580647},"geometry":{"x":177676.40000000037,"y":2558726.5000000019}},{"attributes":{"ID":580675,"DIS_CODE":0,"TOWNNAME":"善化區","LI":"文昌里","LIN":"16鄰","STREET":"中正路","SECT":" ","MAREA":" ","LANE":" ","ALLEY":" ","HOUSE_NO":"４３９號","E_COORD97":177682.78,"N_COORD97":2558772.75,"ADDRESS":"中正路４３９號","OBJECTID":580648},"geometry":{"x":177682.78000000212,"y":2558772.75}},{"attributes":{"ID":580676,"DIS_CODE":0,"TOWNNAME":"善化區","LI":"文昌里","LIN":"16鄰","STREET":"文賢街","SECT":" ","MAREA":" ","LANE":" ","ALLEY":" ","HOUSE_NO":"３１號","E_COORD97":177645.56,"N_COORD97":2558961.7799999998,"ADDRESS":"文賢街３１號","OBJECTID":580649},"geometry":{"x":177645.55999999959,"y":2558961.7799999993}},{"attributes":{"ID":580677,"DIS_CODE":0,"TOWNNAME":"善化區","LI":"文昌里","LIN":"16鄰","STREET":"中正路","SECT":" ","MAREA":" ","LANE":" ","ALLEY":" ","HOUSE_NO":"４８７號","E_COORD97":177678.53,"N_COORD97":2558970,"ADDRESS":"中正路４８７號","OBJECTID":580650},"geometry":{"x":177678.53000000026,"y":2558970.0000000019}},{"attributes":{"ID":580678,"DIS_CODE":0,"TOWNNAME":"善化區","LI":"文昌里","LIN":"16鄰","STREET":"中正路","SECT":" ","MAREA":" ","LANE":" ","ALLEY":" ","HOUSE_NO":"４０１號","E_COORD97":177685.12,"N_COORD97":2558667.4900000002,"ADDRESS":"中正路４０１號","OBJECTID":580651},"geometry":{"x":177685.12000000011,"y":2558667.4900000039}},{"attributes":{"ID":580679,"DIS_CODE":0,"TOWNNAME":"善化區","LI":"文昌里","LIN":"16鄰","STREET":"中正路","SECT":" ","MAREA":" ","LANE":" ","ALLEY":" ","HOUSE_NO":"４９１號","E_COORD97":177678.32000000001,"N_COORD97":2558978.25,"ADDRESS":"中正路４９１號","OBJECTID":580652},"geometry":{"x":177678.3200000003,"y":2558978.2500000019}},{"attributes":{"ID":580680,"DIS_CODE":0,"TOWNNAME":"善化區","LI":"文昌里","LIN":"16鄰","STREET":"文賢街","SECT":" ","MAREA":" ","LANE":" ","ALLEY":" ","HOUSE_NO":"５號","E_COORD97":177661.38,"N_COORD97":2558904.2799999998,"ADDRESS":"文賢街５號","OBJECTID":580653},"geometry":{"x":177661.38000000175,"y":2558904.2799999993}},{"attributes":{"ID":580681,"DIS_CODE":0,"TOWNNAME":"善化區","LI":"文昌里","LIN":"16鄰","STREET":"文賢街","SECT":" ","MAREA":" ","LANE":" ","ALLEY":" ","HOUSE_NO":"３號","E_COORD97":177664.23000000001,"N_COORD97":2558899.5299999998,"ADDRESS":"文賢街３號","OBJECTID":580654},"geometry":{"x":177664.23000000045,"y":2558899.5299999993}},{"attributes":{"ID":580682,"DIS_CODE":0,"TOWNNAME":"善化區","LI":"光文里","LIN":"16鄰","STREET":"信義路","SECT":" ","MAREA":" ","LANE":" ","ALLEY":" ","HOUSE_NO":"１６６號","E_COORD97":178241.60000000001,"N_COORD97":2559069,"ADDRESS":"信義路１６６號","OBJECTID":580655},"geometry":{"x":178241.60000000056,"y":2559069.0000000019}},{"attributes":{"ID":580683,"DIS_CODE":0,"TOWNNAME":"善化區","LI":"文昌里","LIN":"16鄰","STREET":"中正路","SECT":" ","MAREA":" ","LANE":" ","ALLEY":" ","HOUSE_NO":"３５８號","E_COORD97":177708.10999999999,"N_COORD97":2558624.5,"ADDRESS":"中正路３５８號","OBJECTID":580656},"geometry":{"x":177708.11000000127,"y":2558624.5000000019}},{"attributes":{"ID":580684,"DIS_CODE":0,"TOWNNAME":"善化區","LI":"文昌里","LIN":"16鄰","STREET":"中正路","SECT":" ","MAREA":" ","LANE":" ","ALLEY":" ","HOUSE_NO":"３８２之７號","E_COORD97":177704.29000000001,"N_COORD97":2558709.77,"ADDRESS":"中正路３８２之７號","OBJECTID":580657},"geometry":{"x":177704.29000000004,"y":2558709.7700000014}},{"attributes":{"ID":580685,"DIS_CODE":0,"TOWNNAME":"善化區","LI":"文昌里","LIN":"16鄰","STREET":"中正路","SECT":" ","MAREA":" ","LANE":" ","ALLEY":" ","HOUSE_NO":"４７９號","E_COORD97":177679.53,"N_COORD97":2558945.75,"ADDRESS":"中正路４７９號","OBJECTID":580658},"geometry":{"x":177679.53000000119,"y":2558945.75}},{"attributes":{"ID":580686,"DIS_CODE":0,"TOWNNAME":"善化區","LI":"文昌里","LIN":"16鄰","STREET":"中正路","SECT":" ","MAREA":" ","LANE":" ","ALLEY":" ","HOUSE_NO":"４４５號","E_COORD97":177679.67999999999,"N_COORD97":2558785.75,"ADDRESS":"中正路４４５號","OBJECTID":580659},"geometry":{"x":177679.68000000063,"y":2558785.7500000019}},{"attributes":{"ID":580687,"DIS_CODE":0,"TOWNNAME":"善化區","LI":"坐駕里","LIN":"16鄰","STREET":"大成路","SECT":" ","MAREA":" ","LANE":" ","ALLEY":" ","HOUSE_NO":"１１７號之７","E_COORD97":178608.5,"N_COORD97":2558824.27,"ADDRESS":"大成路１１７號之７","OBJECTID":580660},"geometry":{"x":178608.50000000093,"y":2558824.2700000033}},{"attributes":{"ID":580688,"DIS_CODE":0,"TOWNNAME":"善化區","LI":"光文里","LIN":"16鄰","STREET":"民權路","SECT":" ","MAREA":" ","LANE":" ","ALLEY":" ","HOUSE_NO":"２００號","E_COORD97":178184.92999999999,"N_COORD97":2559012.7599999998,"ADDRESS":"民權路２００號","OBJECTID":580661},"geometry":{"x":178184.93000000063,"y":2559012.7600000016}},{"attributes":{"ID":580689,"DIS_CODE":0,"TOWNNAME":"善化區","LI":"光文里","LIN":"16鄰","STREET":"民權路","SECT":" ","MAREA":" ","LANE":" ","ALLEY":" ","HOUSE_NO":"２２０號","E_COORD97":178135.20999999999,"N_COORD97":2559005.2599999998,"ADDRESS":"民權路２２０號","OBJECTID":580662},"geometry":{"x":178135.20999999996,"y":2559005.2600000016}},{"attributes":{"ID":580690,"DIS_CODE":0,"TOWNNAME":"善化區","LI":"光文里","LIN":"16鄰","STREET":"民權路","SECT":" ","MAREA":" ","LANE":" ","ALLEY":" ","HOUSE_NO":"１７８號之１","E_COORD97":178224.17999999999,"N_COORD97":2559019.27,"ADDRESS":"民權路１７８號之１","OBJECTID":580663},"geometry":{"x":178224.18000000063,"y":2559019.2700000014}},{"attributes":{"ID":580691,"DIS_CODE":0,"TOWNNAME":"善化區","LI":"光文里","LIN":"16鄰","STREET":"樹人路","SECT":" ","MAREA":" ","LANE":" ","ALLEY":" ","HOUSE_NO":"６７號","E_COORD97":178357.60999999999,"N_COORD97":2559066.5,"ADDRESS":"樹人路６７號","OBJECTID":580664},"geometry":{"x":178357.61000000127,"y":2559066.5}},{"attributes":{"ID":580692,"DIS_CODE":0,"TOWNNAME":"善化區","LI":"光文里","LIN":"16鄰","STREET":"民族路","SECT":" ","MAREA":" ","LANE":" ","ALLEY":" ","HOUSE_NO":"１２８之１號","E_COORD97":178303.92999999999,"N_COORD97":2559078.77,"ADDRESS":"民族路１２８之１號","OBJECTID":580665},"geometry":{"x":178303.93000000063,"y":2559078.7700000033}},{"attributes":{"ID":580693,"DIS_CODE":0,"TOWNNAME":"善化區","LI":"光文里","LIN":"16鄰","STREET":"中山路","SECT":" ","MAREA":" ","LANE":" ","ALLEY":" ","HOUSE_NO":"１９５號","E_COORD97":178305.72,"N_COORD97":2559128.25,"ADDRESS":"中山路１９５號","OBJECTID":580666},"geometry":{"x":178305.71999999974,"y":2559128.2500000019}},{"attributes":{"ID":580694,"DIS_CODE":0,"TOWNNAME":"善化區","LI":"光文里","LIN":"16鄰","STREET":"中山路","SECT":" ","MAREA":" ","LANE":" ","ALLEY":" ","HOUSE_NO":"２１３號","E_COORD97":178254.35999999999,"N_COORD97":2559120.5,"ADDRESS":"中山路２１３號","OBJECTID":580667},"geometry":{"x":178254.36000000127,"y":2559120.5}},{"attributes":{"ID":580695,"DIS_CODE":0,"TOWNNAME":"善化區","LI":"光文里","LIN":"16鄰","STREET":"民族路","SECT":" ","MAREA":" ","LANE":" ","ALLEY":" ","HOUSE_NO":"１３０號","E_COORD97":178293.57000000001,"N_COORD97":2559091.2599999998,"ADDRESS":"民族路１３０號","OBJECTID":580668},"geometry":{"x":178293.57000000123,"y":2559091.2599999998}},{"attributes":{"ID":580696,"DIS_CODE":0,"TOWNNAME":"善化區","LI":"光文里","LIN":"16鄰","STREET":"民族路","SECT":" ","MAREA":" ","LANE":" ","ALLEY":" ","HOUSE_NO":"１２８號","E_COORD97":178303.01999999999,"N_COORD97":2559092.0099999998,"ADDRESS":"民族路１２８號","OBJECTID":580669},"geometry":{"x":178303.02000000048,"y":2559092.0100000016}},{"attributes":{"ID":580697,"DIS_CODE":0,"TOWNNAME":"善化區","LI":"光文里","LIN":"16鄰","STREET":"民族路","SECT":" ","MAREA":" ","LANE":" ","ALLEY":" ","HOUSE_NO":"１２６號之１","E_COORD97":178313.32000000001,"N_COORD97":2559072.27,"ADDRESS":"民族路１２６號之１","OBJECTID":580670},"geometry":{"x":178313.32000000123,"y":2559072.2700000014}},{"attributes":{"ID":580698,"DIS_CODE":0,"TOWNNAME":"善化區","LI":"光文里","LIN":"16鄰","STREET":"民族路","SECT":" ","MAREA":" ","LANE":" ","ALLEY":" ","HOUSE_NO":"１３３號","E_COORD97":178279.45000000001,"N_COORD97":2559090.2599999998,"ADDRESS":"民族路１３３號","OBJECTID":580671},"geometry":{"x":178279.45000000019,"y":2559090.2600000016}},{"attributes":{"ID":580699,"DIS_CODE":0,"TOWNNAME":"善化區","LI":"光文里","LIN":"16鄰","STREET":"民族路","SECT":" ","MAREA":" ","LANE":" ","ALLEY":" ","HOUSE_NO":"１２９號","E_COORD97":178298.17999999999,"N_COORD97":2559092.0099999998,"ADDRESS":"民族路１２９號","OBJECTID":580672},"geometry":{"x":178298.18000000156,"y":2559092.0100000016}},{"attributes":{"ID":580700,"DIS_CODE":0,"TOWNNAME":"東區","LI":"大學里","LIN":"16鄰","STREET":"長榮路","SECT":"三段","MAREA":" ","LANE":" ","ALLEY":" ","HOUSE_NO":"１８號","E_COORD97":170212.34,"N_COORD97":2543674.3799999999,"ADDRESS":"長榮路三段１８號","OBJECTID":580673},"geometry":{"x":170212.33999999985,"y":2543674.379999999}},{"attributes":{"ID":580701,"DIS_CODE":0,"TOWNNAME":"東區","LI":"大學里","LIN":"16鄰","STREET":"長榮路","SECT":"三段","MAREA":" ","LANE":" ","ALLEY":" ","HOUSE_NO":"４號","E_COORD97":170209.13,"N_COORD97":2543630.25,"ADDRESS":"長榮路三段４號","OBJECTID":580674},"geometry":{"x":170209.12999999896,"y":2543630.2500000019}},{"attributes":{"ID":580702,"DIS_CODE":0,"TOWNNAME":"東區","LI":"大學里","LIN":"16鄰","STREET":"長榮路","SECT":"三段","MAREA":" ","LANE":" ","ALLEY":" ","HOUSE_NO":"６號","E_COORD97":170210.66,"N_COORD97":2543640.6200000001,"ADDRESS":"長榮路三段６號","OBJECTID":580675},"geometry":{"x":170210.66000000015,"y":2543640.620000001}},{"attributes":{"ID":580703,"DIS_CODE":0,"TOWNNAME":"東區","LI":"大學里","LIN":"16鄰","STREET":"長榮路","SECT":"三段","MAREA":" ","LANE":" ","ALLEY":" ","HOUSE_NO":"８號","E_COORD97":170211.22,"N_COORD97":2543645.9700000002,"ADDRESS":"長榮路三段８號","OBJECTID":580676},"geometry":{"x":170211.21999999974,"y":2543645.9700000025}},{"attributes":{"ID":580704,"DIS_CODE":0,"TOWNNAME":"東區","LI":"和平里","LIN":"16鄰","STREET":"仁和路","SECT":" ","MAREA":" ","LANE":" ","ALLEY":" ","HOUSE_NO":"７３號之４９","E_COORD97":171375.20999999999,"N_COORD97":2541638.0699999998,"ADDRESS":"仁和路７３號之４９","OBJECTID":580677},"geometry":{"x":171375.21000000089,"y":2541638.0700000022}},{"attributes":{"ID":580705,"DIS_CODE":0,"TOWNNAME":"東區","LI":"和平里","LIN":"16鄰","STREET":"仁和路","SECT":" ","MAREA":" ","LANE":" ","ALLEY":" ","HOUSE_NO":"７３號之４７","E_COORD97":171367.20000000001,"N_COORD97":2541637.6499999999,"ADDRESS":"仁和路７３號之４７","OBJECTID":580678},"geometry":{"x":171367.20000000112,"y":2541637.6500000022}},{"attributes":{"ID":580706,"DIS_CODE":0,"TOWNNAME":"東區","LI":"和平里","LIN":"16鄰","STREET":"仁和路","SECT":" ","MAREA":" ","LANE":" ","ALLEY":" ","HOUSE_NO":"７３號之５１","E_COORD97":171324.09,"N_COORD97":2541619.25,"ADDRESS":"仁和路７３號之５１","OBJECTID":580679},"geometry":{"x":171324.08999999985,"y":2541619.2500000019}},{"attributes":{"ID":580707,"DIS_CODE":0,"TOWNNAME":"東區","LI":"和平里","LIN":"16鄰","STREET":"仁和路","SECT":" ","MAREA":" ","LANE":" ","ALLEY":" ","HOUSE_NO":"７３號之５９","E_COORD97":171356.12,"N_COORD97":2541621.7799999998,"ADDRESS":"仁和路７３號之５９","OBJECTID":580680},"geometry":{"x":171356.12000000104,"y":2541621.7800000012}},{"attributes":{"ID":580708,"DIS_CODE":0,"TOWNNAME":"東區","LI":"和平里","LIN":"16鄰","STREET":"仁和路","SECT":" ","MAREA":" ","LANE":" ","ALLEY":" ","HOUSE_NO":"７３號之６１","E_COORD97":171363.91,"N_COORD97":2541622.2000000002,"ADDRESS":"仁和路７３號之６１","OBJECTID":580681},"geometry":{"x":171363.91000000108,"y":2541622.2000000011}},{"attributes":{"ID":580709,"DIS_CODE":0,"TOWNNAME":"東區","LI":"和平里","LIN":"16鄰","STREET":"仁和路","SECT":" ","MAREA":" ","LANE":" ","ALLEY":" ","HOUSE_NO":"７３號之６６","E_COORD97":171325.76999999999,"N_COORD97":2541597.98,"ADDRESS":"仁和路７３號之６６","OBJECTID":580682},"geometry":{"x":171325.77000000048,"y":2541597.9800000023}},{"attributes":{"ID":580710,"DIS_CODE":0,"TOWNNAME":"東區","LI":"和平里","LIN":"16鄰","STREET":"仁和路","SECT":" ","MAREA":" ","LANE":" ","ALLEY":" ","HOUSE_NO":"７３號之６９","E_COORD97":171337.72,"N_COORD97":2541598.3999999999,"ADDRESS":"仁和路７３號之６９","OBJECTID":580683},"geometry":{"x":171337.72000000067,"y":2541598.4000000022}},{"attributes":{"ID":580711,"DIS_CODE":0,"TOWNNAME":"東區","LI":"大學里","LIN":"16鄰","STREET":"長榮路","SECT":"三段","MAREA":" ","LANE":" ","ALLEY":" ","HOUSE_NO":"２０號","E_COORD97":170213.38,"N_COORD97":2543679.25,"ADDRESS":"長榮路三段２０號","OBJECTID":580684},"geometry":{"x":170213.38000000082,"y":2543679.25}},{"attributes":{"ID":580712,"DIS_CODE":0,"TOWNNAME":"東區","LI":"大學里","LIN":"16鄰","STREET":"長榮路","SECT":"三段","MAREA":" ","LANE":" ","ALLEY":" ","HOUSE_NO":"２２號","E_COORD97":170212.94,"N_COORD97":2543685.2000000002,"ADDRESS":"長榮路三段２２號","OBJECTID":580685},"geometry":{"x":170212.94000000134,"y":2543685.1999999993}},{"attributes":{"ID":580713,"DIS_CODE":0,"TOWNNAME":"麻豆區","LI":"\u25A0江里","LIN":"16鄰","STREET":"信義路","SECT":" ","MAREA":" ","LANE":" ","ALLEY":" ","HOUSE_NO":"２０號之３","E_COORD97":173482.06,"N_COORD97":2564608.1699999999,"ADDRESS":"信義路２０號之３","OBJECTID":580686},"geometry":{"x":173482.05999999959,"y":2564608.1699999999}},{"attributes":{"ID":580714,"DIS_CODE":0,"TOWNNAME":"東區","LI":"崇誨里","LIN":"16鄰","STREET":"林森路","SECT":"二段","MAREA":" ","LANE":" ","ALLEY":" ","HOUSE_NO":"２１４號","E_COORD97":170478.89999999999,"N_COORD97":2543397.27,"ADDRESS":"林森路二段２１４號","OBJECTID":580687},"geometry":{"x":170478.90000000037,"y":2543397.2699999996}},{"attributes":{"ID":580715,"DIS_CODE":0,"TOWNNAME":"東區","LI":"崇誨里","LIN":"16鄰","STREET":"林森路","SECT":"二段","MAREA":" ","LANE":" ","ALLEY":" ","HOUSE_NO":"２１６號","E_COORD97":170481.81,"N_COORD97":2543405.3799999999,"ADDRESS":"林森路二段２１６號","OBJECTID":580688},"geometry":{"x":170481.80999999959,"y":2543405.379999999}},{"attributes":{"ID":580716,"DIS_CODE":0,"TOWNNAME":"東區","LI":"大學里","LIN":"16鄰","STREET":"東寧路","SECT":" ","MAREA":" ","LANE":" ","ALLEY":" ","HOUSE_NO":"６１號之１","E_COORD97":170237.85999999999,"N_COORD97":2543611.6800000002,"ADDRESS":"東寧路６１號之１","OBJECTID":580689},"geometry":{"x":170237.86000000034,"y":2543611.6799999997}},{"attributes":{"ID":580717,"DIS_CODE":0,"TOWNNAME":"東區","LI":"裕聖里","LIN":"16鄰","STREET":"裕孝路","SECT":" ","MAREA":" ","LANE":" ","ALLEY":" ","HOUSE_NO":"６８２號","E_COORD97":172424.32999999999,"N_COORD97":2542197.0499999998,"ADDRESS":"裕孝路６８２號","OBJECTID":580690},"geometry":{"x":172424.33000000101,"y":2542197.0499999989}},{"attributes":{"ID":580718,"DIS_CODE":0,"TOWNNAME":"東區","LI":"裕聖里","LIN":"16鄰","STREET":"裕孝路","SECT":" ","MAREA":" ","LANE":" ","ALLEY":" ","HOUSE_NO":"６８６號","E_COORD97":172417.09,"N_COORD97":2542197.6000000001,"ADDRESS":"裕孝路６８６號","OBJECTID":580691},"geometry":{"x":172417.09000000078,"y":2542197.5999999996}},{"attributes":{"ID":580719,"DIS_CODE":0,"TOWNNAME":"東區","LI":"裕聖里","LIN":"16鄰","STREET":"裕孝路","SECT":" ","MAREA":" ","LANE":" ","ALLEY":" ","HOUSE_NO":"６８８號","E_COORD97":172412.29000000001,"N_COORD97":2542197.6200000001,"ADDRESS":"裕孝路６８８號","OBJECTID":580692},"geometry":{"x":172412.29000000097,"y":2542197.6200000029}},{"attributes":{"ID":580720,"DIS_CODE":0,"TOWNNAME":"東區","LI":"裕聖里","LIN":"16鄰","STREET":"裕孝路","SECT":" ","MAREA":" ","LANE":" ","ALLEY":" ","HOUSE_NO":"６９０號","E_COORD97":172407.48999999999,"N_COORD97":2542197.6400000001,"ADDRESS":"裕孝路６９０號","OBJECTID":580693},"geometry":{"x":172407.49000000209,"y":2542197.6400000025}},{"attributes":{"ID":580721,"DIS_CODE":0,"TOWNNAME":"東區","LI":"裕聖里","LIN":"16鄰","STREET":"裕孝路","SECT":" ","MAREA":" ","LANE":" ","ALLEY":" ","HOUSE_NO":"６９２號","E_COORD97":172402.69,"N_COORD97":2542197.6600000001,"ADDRESS":"裕孝路６９２號","OBJECTID":580694},"geometry":{"x":172402.69000000041,"y":2542197.6600000001}},{"attributes":{"ID":580722,"DIS_CODE":0,"TOWNNAME":"東區","LI":"路東里","LIN":"16鄰","STREET":"林森路","SECT":"一段","MAREA":" ","LANE":" ","ALLEY":" ","HOUSE_NO":"１４２號","E_COORD97":169464.95000000001,"N_COORD97":2542433.9300000002,"ADDRESS":"林森路一段１４２號","OBJECTID":580695},"geometry":{"x":169464.95000000205,"y":2542433.9299999997}},{"attributes":{"ID":580723,"DIS_CODE":0,"TOWNNAME":"永康區","LI":"復華里","LIN":"16鄰","STREET":"復華七街","SECT":" ","MAREA":" ","LANE":" ","ALLEY":" ","HOUSE_NO":"８８號","E_COORD97":172832.85999999999,"N_COORD97":2546129.6800000002,"ADDRESS":"復華七街８８號","OBJECTID":580696},"geometry":{"x":172832.86000000127,"y":2546129.6800000016}},{"attributes":{"ID":580724,"DIS_CODE":0,"TOWNNAME":"永康區","LI":"尚頂里","LIN":"16鄰","STREET":"中正南路","SECT":" ","MAREA":" ","LANE":" ","ALLEY":" ","HOUSE_NO":"２３８號","E_COORD97":170285.45999999999,"N_COORD97":2547441.0600000001,"ADDRESS":"中正南路２３８號","OBJECTID":580697},"geometry":{"x":170285.46000000089,"y":2547441.0600000005}},{"attributes":{"ID":580725,"DIS_CODE":0,"TOWNNAME":"永康區","LI":"西灣里","LIN":"16鄰","STREET":"民族路","SECT":" ","MAREA":" ","LANE":" ","ALLEY":" ","HOUSE_NO":"４４１號","E_COORD97":174678.98999999999,"N_COORD97":2545403.4300000002,"ADDRESS":"民族路４４１號","OBJECTID":580698},"geometry":{"x":174678.98999999929,"y":2545403.4299999997}},{"attributes":{"ID":580726,"DIS_CODE":0,"TOWNNAME":"永康區","LI":"西灣里","LIN":"16鄰","STREET":"民族路","SECT":" ","MAREA":" ","LANE":" ","ALLEY":" ","HOUSE_NO":"４４３號","E_COORD97":174674.75,"N_COORD97":2545404.3100000001,"ADDRESS":"民族路４４３號","OBJECTID":580699},"geometry":{"x":174674.75,"y":2545404.3100000005}},{"attributes":{"ID":580727,"DIS_CODE":0,"TOWNNAME":"永康區","LI":"西灣里","LIN":"16鄰","STREET":"民族路","SECT":" ","MAREA":" ","LANE":" ","ALLEY":" ","HOUSE_NO":"４３５號","E_COORD97":174694.57999999999,"N_COORD97":2545399.4300000002,"ADDRESS":"民族路４３５號","OBJECTID":580700},"geometry":{"x":174694.58000000007,"y":2545399.4299999997}},{"attributes":{"ID":580728,"DIS_CODE":0,"TOWNNAME":"永康區","LI":"西灣里","LIN":"16鄰","STREET":"民族路","SECT":" ","MAREA":" ","LANE":" ","ALLEY":" ","HOUSE_NO":"４３７號","E_COORD97":174689.23000000001,"N_COORD97":2545400.9300000002,"ADDRESS":"民族路４３７號","OBJECTID":580701},"geometry":{"x":174689.23000000045,"y":2545400.9300000034}},{"attributes":{"ID":580729,"DIS_CODE":0,"TOWNNAME":"永康區","LI":"西灣里","LIN":"16鄰","STREET":"民族路","SECT":" ","MAREA":" ","LANE":" ","ALLEY":" ","HOUSE_NO":"４４７號","E_COORD97":174665.89999999999,"N_COORD97":2545408.04,"ADDRESS":"民族路４４７號","OBJECTID":580702},"geometry":{"x":174665.90000000037,"y":2545408.0399999991}},{"attributes":{"ID":580730,"DIS_CODE":0,"TOWNNAME":"永康區","LI":"西灣里","LIN":"16鄰","STREET":"民族路","SECT":" ","MAREA":" ","LANE":" ","ALLEY":" ","HOUSE_NO":"４４９號","E_COORD97":174662.72,"N_COORD97":2545384.3700000001,"ADDRESS":"民族路４４９號","OBJECTID":580703},"geometry":{"x":174662.71999999974,"y":2545384.370000001}},{"attributes":{"ID":580731,"DIS_CODE":0,"TOWNNAME":"麻豆區","LI":"\u25A0江里","LIN":"16鄰","STREET":"信義路","SECT":" ","MAREA":" ","LANE":" ","ALLEY":" ","HOUSE_NO":"１８號之１０","E_COORD97":173447.42000000001,"N_COORD97":2564571.98,"ADDRESS":"信義路１８號之１０","OBJECTID":580704},"geometry":{"x":173447.42000000086,"y":2564571.9800000023}},{"attributes":{"ID":580732,"DIS_CODE":0,"TOWNNAME":"麻豆區","LI":"\u25A0江里","LIN":"16鄰","STREET":"信義路","SECT":" ","MAREA":" ","LANE":" ","ALLEY":" ","HOUSE_NO":"１８號之１１","E_COORD97":173447.73999999999,"N_COORD97":2564567.1099999999,"ADDRESS":"信義路１８號之１１","OBJECTID":580705},"geometry":{"x":173447.74000000022,"y":2564567.1099999994}},{"attributes":{"ID":580733,"DIS_CODE":0,"TOWNNAME":"麻豆區","LI":"\u25A0江里","LIN":"16鄰","STREET":"信義路","SECT":" ","MAREA":" ","LANE":" ","ALLEY":" ","HOUSE_NO":"１８號之１２","E_COORD97":173447.62,"N_COORD97":2564563.0499999998,"ADDRESS":"信義路１８號之１２","OBJECTID":580706},"geometry":{"x":173447.62000000104,"y":2564563.0500000007}},{"attributes":{"ID":580734,"DIS_CODE":0,"TOWNNAME":"麻豆區","LI":"\u25A0江里","LIN":"16鄰","STREET":"信義路","SECT":" ","MAREA":" ","LANE":" ","ALLEY":" ","HOUSE_NO":"１８號之１３","E_COORD97":173447.5,"N_COORD97":2564558.9900000002,"ADDRESS":"信義路１８號之１３","OBJECTID":580707},"geometry":{"x":173447.5,"y":2564558.9900000002}},{"attributes":{"ID":580735,"DIS_CODE":0,"TOWNNAME":"麻豆區","LI":"\u25A0江里","LIN":"16鄰","STREET":"信義路","SECT":" ","MAREA":" ","LANE":" ","ALLEY":" ","HOUSE_NO":"１８號之１４","E_COORD97":173447.78,"N_COORD97":2564555.0499999998,"ADDRESS":"信義路１８號之１４","OBJECTID":580708},"geometry":{"x":173447.78000000026,"y":2564555.0500000026}},{"attributes":{"ID":580736,"DIS_CODE":0,"TOWNNAME":"麻豆區","LI":"\u25A0江里","LIN":"16鄰","STREET":"信義路","SECT":" ","MAREA":" ","LANE":" ","ALLEY":" ","HOUSE_NO":"１８號之１５","E_COORD97":173447.73999999999,"N_COORD97":2564550.7400000002,"ADDRESS":"信義路１８號之１５","OBJECTID":580709},"geometry":{"x":173447.74000000022,"y":2564550.7400000002}},{"attributes":{"ID":580737,"DIS_CODE":0,"TOWNNAME":"麻豆區","LI":"\u25A0江里","LIN":"16鄰","STREET":"信義路","SECT":" ","MAREA":" ","LANE":" ","ALLEY":" ","HOUSE_NO":"１８號之１６","E_COORD97":173447.60000000001,"N_COORD97":2564546.8500000001,"ADDRESS":"信義路１８號之１６","OBJECTID":580710},"geometry":{"x":173447.60000000056,"y":2564546.8500000034}},{"attributes":{"ID":580738,"DIS_CODE":0,"TOWNNAME":"麻豆區","LI":"\u25A0江里","LIN":"16鄰","STREET":"信義路","SECT":" ","MAREA":" ","LANE":" ","ALLEY":" ","HOUSE_NO":"１８號之１７","E_COORD97":173447.69,"N_COORD97":2564542.52,"ADDRESS":"信義路１８號之１７","OBJECTID":580711},"geometry":{"x":173447.69000000134,"y":2564542.5200000014}},{"attributes":{"ID":580739,"DIS_CODE":0,"TOWNNAME":"麻豆區","LI":"\u25A0江里","LIN":"16鄰","STREET":"信義路","SECT":" ","MAREA":" ","LANE":" ","ALLEY":" ","HOUSE_NO":"１８號之１８","E_COORD97":173447.38,"N_COORD97":2564538.4500000002,"ADDRESS":"信義路１８號之１８","OBJECTID":580712},"geometry":{"x":173447.38000000082,"y":2564538.4499999993}},{"attributes":{"ID":580740,"DIS_CODE":0,"TOWNNAME":"麻豆區","LI":"\u25A0江里","LIN":"16鄰","STREET":"信義路","SECT":" ","MAREA":" ","LANE":" ","ALLEY":" ","HOUSE_NO":"１８號之１","E_COORD97":173439.59,"N_COORD97":2564609.7999999998,"ADDRESS":"信義路１８號之１","OBJECTID":580713},"geometry":{"x":173439.59000000078,"y":2564609.8000000026}},{"attributes":{"ID":580741,"DIS_CODE":0,"TOWNNAME":"麻豆區","LI":"\u25A0江里","LIN":"16鄰","STREET":"信義路","SECT":" ","MAREA":" ","LANE":" ","ALLEY":" ","HOUSE_NO":"１８號之２０","E_COORD97":173447.45999999999,"N_COORD97":2564529.8799999999,"ADDRESS":"信義路１８號之２０","OBJECTID":580714},"geometry":{"x":173447.45999999996,"y":2564529.8800000008}},{"attributes":{"ID":580742,"DIS_CODE":0,"TOWNNAME":"麻豆區","LI":"\u25A0江里","LIN":"16鄰","STREET":"信義路","SECT":" ","MAREA":" ","LANE":" ","ALLEY":" ","HOUSE_NO":"１８號之２１","E_COORD97":173447.54999999999,"N_COORD97":2564525.7599999998,"ADDRESS":"信義路１８號之２１","OBJECTID":580715},"geometry":{"x":173447.55000000168,"y":2564525.7599999998}},{"attributes":{"ID":580743,"DIS_CODE":0,"TOWNNAME":"麻豆區","LI":"\u25A0江里","LIN":"16鄰","STREET":"信義路","SECT":" ","MAREA":" ","LANE":" ","ALLEY":" ","HOUSE_NO":"１８號之２２","E_COORD97":173447.28,"N_COORD97":2564521.25,"ADDRESS":"信義路１８號之２２","OBJECTID":580716},"geometry":{"x":173447.28000000026,"y":2564521.2500000019}},{"attributes":{"ID":580744,"DIS_CODE":0,"TOWNNAME":"麻豆區","LI":"\u25A0江里","LIN":"16鄰","STREET":"信義路","SECT":" ","MAREA":" ","LANE":" ","ALLEY":" ","HOUSE_NO":"１８號之２３","E_COORD97":173447.34,"N_COORD97":2564517.3700000001,"ADDRESS":"信義路１８號之２３","OBJECTID":580717},"geometry":{"x":173447.34000000171,"y":2564517.370000001}},{"attributes":{"ID":580745,"DIS_CODE":0,"TOWNNAME":"麻豆區","LI":"\u25A0江里","LIN":"16鄰","STREET":"信義路","SECT":" ","MAREA":" ","LANE":" ","ALLEY":" ","HOUSE_NO":"１８號之２４","E_COORD97":173447.64000000001,"N_COORD97":2564513.23,"ADDRESS":"信義路１８號之２４","OBJECTID":580718},"geometry":{"x":173447.63999999966,"y":2564513.2300000004}},{"attributes":{"ID":580746,"DIS_CODE":0,"TOWNNAME":"麻豆區","LI":"\u25A0江里","LIN":"16鄰","STREET":"信義路","SECT":" ","MAREA":" ","LANE":" ","ALLEY":" ","HOUSE_NO":"１８號之２","E_COORD97":173443.92999999999,"N_COORD97":2564609.5800000001,"ADDRESS":"信義路１８號之２","OBJECTID":580719},"geometry":{"x":173443.93000000063,"y":2564609.5800000001}},{"attributes":{"ID":580747,"DIS_CODE":0,"TOWNNAME":"麻豆區","LI":"\u25A0江里","LIN":"16鄰","STREET":"信義路","SECT":" ","MAREA":" ","LANE":" ","ALLEY":" ","HOUSE_NO":"１８號之３","E_COORD97":173448.32999999999,"N_COORD97":2564609.5699999998,"ADDRESS":"信義路１８號之３","OBJECTID":580720},"geometry":{"x":173448.33000000101,"y":2564609.5700000003}},{"attributes":{"ID":580748,"DIS_CODE":0,"TOWNNAME":"麻豆區","LI":"\u25A0江里","LIN":"16鄰","STREET":"信義路","SECT":" ","MAREA":" ","LANE":" ","ALLEY":" ","HOUSE_NO":"１８號之４","E_COORD97":173453.67999999999,"N_COORD97":2564609.5499999998,"ADDRESS":"信義路１８號之４","OBJECTID":580721},"geometry":{"x":173453.68000000063,"y":2564609.5500000007}},{"attributes":{"ID":580749,"DIS_CODE":0,"TOWNNAME":"麻豆區","LI":"\u25A0江里","LIN":"16鄰","STREET":"信義路","SECT":" ","MAREA":" ","LANE":" ","ALLEY":" ","HOUSE_NO":"１８號之５","E_COORD97":173446.87,"N_COORD97":2564592.0299999998,"ADDRESS":"信義路１８號之５","OBJECTID":580722},"geometry":{"x":173446.87000000011,"y":2564592.0299999993}},{"attributes":{"ID":580750,"DIS_CODE":0,"TOWNNAME":"麻豆區","LI":"\u25A0江里","LIN":"16鄰","STREET":"信義路","SECT":" ","MAREA":" ","LANE":" ","ALLEY":" ","HOUSE_NO":"１８號之６","E_COORD97":173447.17000000001,"N_COORD97":2564588.25,"ADDRESS":"信義路１８號之６","OBJECTID":580723},"geometry":{"x":173447.17000000086,"y":2564588.25}},{"attributes":{"ID":580751,"DIS_CODE":0,"TOWNNAME":"麻豆區","LI":"\u25A0江里","LIN":"16鄰","STREET":"信義路","SECT":" ","MAREA":" ","LANE":" ","ALLEY":" ","HOUSE_NO":"１８號之７","E_COORD97":173446.82000000001,"N_COORD97":2564584.27,"ADDRESS":"信義路１８號之７","OBJECTID":580724},"geometry":{"x":173446.82000000123,"y":2564584.2699999996}},{"attributes":{"ID":580752,"DIS_CODE":0,"TOWNNAME":"麻豆區","LI":"\u25A0江里","LIN":"16鄰","STREET":"信義路","SECT":" ","MAREA":" ","LANE":" ","ALLEY":" ","HOUSE_NO":"１８號之８","E_COORD97":173446.92999999999,"N_COORD97":2564579.96,"ADDRESS":"信義路１８號之８","OBJECTID":580725},"geometry":{"x":173446.93000000063,"y":2564579.9600000009}},{"attributes":{"ID":580753,"DIS_CODE":0,"TOWNNAME":"麻豆區","LI":"\u25A0江里","LIN":"16鄰","STREET":"信義路","SECT":" ","MAREA":" ","LANE":" ","ALLEY":" ","HOUSE_NO":"１８號之９","E_COORD97":173447.13,"N_COORD97":2564575.8799999999,"ADDRESS":"信義路１８號之９","OBJECTID":580726},"geometry":{"x":173447.13000000175,"y":2564575.879999999}},{"attributes":{"ID":580754,"DIS_CODE":0,"TOWNNAME":"麻豆區","LI":"\u25A0江里","LIN":"16鄰","STREET":"信義路","SECT":" ","MAREA":" ","LANE":" ","ALLEY":" ","HOUSE_NO":"２０號之１０","E_COORD97":173469.54000000001,"N_COORD97":2564569.6400000001,"ADDRESS":"信義路２０號之１０","OBJECTID":580727},"geometry":{"x":173469.54000000004,"y":2564569.6400000043}},{"attributes":{"ID":580755,"DIS_CODE":0,"TOWNNAME":"麻豆區","LI":"\u25A0江里","LIN":"16鄰","STREET":"信義路","SECT":" ","MAREA":" ","LANE":" ","ALLEY":" ","HOUSE_NO":"２０號之１１","E_COORD97":173469.64000000001,"N_COORD97":2564565.5699999998,"ADDRESS":"信義路２０號之１１","OBJECTID":580728},"geometry":{"x":173469.63999999966,"y":2564565.5700000003}},{"attributes":{"ID":580756,"DIS_CODE":0,"TOWNNAME":"麻豆區","LI":"\u25A0江里","LIN":"16鄰","STREET":"信義路","SECT":" ","MAREA":" ","LANE":" ","ALLEY":" ","HOUSE_NO":"２０號之１２","E_COORD97":173469.60999999999,"N_COORD97":2564561.5299999998,"ADDRESS":"信義路２０號之１２","OBJECTID":580729},"geometry":{"x":173469.6099999994,"y":2564561.5299999993}},{"attributes":{"ID":580757,"DIS_CODE":0,"TOWNNAME":"麻豆區","LI":"\u25A0江里","LIN":"16鄰","STREET":"信義路","SECT":" ","MAREA":" ","LANE":" ","ALLEY":" ","HOUSE_NO":"２０號之１３","E_COORD97":173469.88,"N_COORD97":2564557.8900000001,"ADDRESS":"信義路２０號之１３","OBJECTID":580730},"geometry":{"x":173469.88000000082,"y":2564557.8900000043}},{"attributes":{"ID":580758,"DIS_CODE":0,"TOWNNAME":"麻豆區","LI":"\u25A0江里","LIN":"16鄰","STREET":"信義路","SECT":" ","MAREA":" ","LANE":" ","ALLEY":" ","HOUSE_NO":"２０號之１４","E_COORD97":173469.34,"N_COORD97":2564553.4900000002,"ADDRESS":"信義路２０號之１４","OBJECTID":580731},"geometry":{"x":173469.34000000171,"y":2564553.4900000039}},{"attributes":{"ID":580759,"DIS_CODE":0,"TOWNNAME":"麻豆區","LI":"\u25A0江里","LIN":"16鄰","STREET":"信義路","SECT":" ","MAREA":" ","LANE":" ","ALLEY":" ","HOUSE_NO":"２０號之１５","E_COORD97":173469.19,"N_COORD97":2564549.5499999998,"ADDRESS":"信義路２０號之１５","OBJECTID":580732},"geometry":{"x":173469.19000000227,"y":2564549.5500000007}},{"attributes":{"ID":580760,"DIS_CODE":0,"TOWNNAME":"麻豆區","LI":"\u25A0江里","LIN":"16鄰","STREET":"信義路","SECT":" ","MAREA":" ","LANE":" ","ALLEY":" ","HOUSE_NO":"２０號之１６","E_COORD97":173469.42999999999,"N_COORD97":2564545.27,"ADDRESS":"信義路２０號之１６","OBJECTID":580733},"geometry":{"x":173469.4299999997,"y":2564545.2700000014}},{"attributes":{"ID":580761,"DIS_CODE":0,"TOWNNAME":"麻豆區","LI":"\u25A0江里","LIN":"16鄰","STREET":"信義路","SECT":" ","MAREA":" ","LANE":" ","ALLEY":" ","HOUSE_NO":"２０號之１７","E_COORD97":173469.48000000001,"N_COORD97":2564541.27,"ADDRESS":"信義路２０號之１７","OBJECTID":580734},"geometry":{"x":173469.48000000138,"y":2564541.2700000014}},{"attributes":{"ID":580762,"DIS_CODE":0,"TOWNNAME":"麻豆區","LI":"\u25A0江里","LIN":"16鄰","STREET":"信義路","SECT":" ","MAREA":" ","LANE":" ","ALLEY":" ","HOUSE_NO":"２０號之１８","E_COORD97":173469.23999999999,"N_COORD97":2564537.2000000002,"ADDRESS":"信義路２０號之１８","OBJECTID":580735},"geometry":{"x":173469.24000000115,"y":2564537.200000003}},{"attributes":{"ID":580763,"DIS_CODE":0,"TOWNNAME":"麻豆區","LI":"\u25A0江里","LIN":"16鄰","STREET":"信義路","SECT":" ","MAREA":" ","LANE":" ","ALLEY":" ","HOUSE_NO":"２０號之１９","E_COORD97":173469.23000000001,"N_COORD97":2564533.3300000001,"ADDRESS":"信義路２０號之１９","OBJECTID":580736},"geometry":{"x":173469.23000000138,"y":2564533.3300000001}},{"attributes":{"ID":580764,"DIS_CODE":0,"TOWNNAME":"麻豆區","LI":"\u25A0江里","LIN":"16鄰","STREET":"信義路","SECT":" ","MAREA":" ","LANE":" ","ALLEY":" ","HOUSE_NO":"２０號之１","E_COORD97":173474,"N_COORD97":2564608.1699999999,"ADDRESS":"信義路２０號之１","OBJECTID":580737},"geometry":{"x":173474.00000000093,"y":2564608.1699999999}},{"attributes":{"ID":580765,"DIS_CODE":0,"TOWNNAME":"麻豆區","LI":"\u25A0江里","LIN":"16鄰","STREET":"信義路","SECT":" ","MAREA":" ","LANE":" ","ALLEY":" ","HOUSE_NO":"２０號之２０","E_COORD97":173469.32999999999,"N_COORD97":2564529.4700000002,"ADDRESS":"信義路２０號之２０","OBJECTID":580738},"geometry":{"x":173469.33000000007,"y":2564529.4700000007}},{"attributes":{"ID":580766,"DIS_CODE":0,"TOWNNAME":"麻豆區","LI":"\u25A0江里","LIN":"16鄰","STREET":"信義路","SECT":" ","MAREA":" ","LANE":" ","ALLEY":" ","HOUSE_NO":"２０號之２１","E_COORD97":173469.48000000001,"N_COORD97":2564525.1800000002,"ADDRESS":"信義路２０號之２１","OBJECTID":580739},"geometry":{"x":173469.48000000138,"y":2564525.1800000016}},{"attributes":{"ID":580767,"DIS_CODE":0,"TOWNNAME":"麻豆區","LI":"\u25A0江里","LIN":"16鄰","STREET":"信義路","SECT":" ","MAREA":" ","LANE":" ","ALLEY":" ","HOUSE_NO":"２０號之２２","E_COORD97":173469.45999999999,"N_COORD97":2564521.0499999998,"ADDRESS":"信義路２０號之２２","OBJECTID":580740},"geometry":{"x":173469.46000000089,"y":2564521.0500000026}},{"attributes":{"ID":580768,"DIS_CODE":0,"TOWNNAME":"麻豆區","LI":"\u25A0江里","LIN":"16鄰","STREET":"信義路","SECT":" ","MAREA":" ","LANE":" ","ALLEY":" ","HOUSE_NO":"２０號之２３","E_COORD97":173469.56,"N_COORD97":2564517.0899999999,"ADDRESS":"信義路２０號之２３","OBJECTID":580741},"geometry":{"x":173469.56000000052,"y":2564517.0899999999}},{"attributes":{"ID":580769,"DIS_CODE":0,"TOWNNAME":"麻豆區","LI":"\u25A0江里","LIN":"16鄰","STREET":"信義路","SECT":" ","MAREA":" ","LANE":" ","ALLEY":" ","HOUSE_NO":"２０號之２４","E_COORD97":173489.98999999999,"N_COORD97":2564525.54,"ADDRESS":"信義路２０號之２４","OBJECTID":580742},"geometry":{"x":173489.99000000022,"y":2564525.540000001}},{"attributes":{"ID":580770,"DIS_CODE":0,"TOWNNAME":"麻豆區","LI":"\u25A0江里","LIN":"16鄰","STREET":"信義路","SECT":" ","MAREA":" ","LANE":" ","ALLEY":" ","HOUSE_NO":"２０號之２５","E_COORD97":173494.01999999999,"N_COORD97":2564526.46,"ADDRESS":"信義路２０號之２５","OBJECTID":580743},"geometry":{"x":173494.02000000048,"y":2564526.4600000009}},{"attributes":{"ID":580771,"DIS_CODE":0,"TOWNNAME":"麻豆區","LI":"\u25A0江里","LIN":"16鄰","STREET":"信義路","SECT":" ","MAREA":" ","LANE":" ","ALLEY":" ","HOUSE_NO":"２０號之２","E_COORD97":173478.12,"N_COORD97":2564608.21,"ADDRESS":"信義路２０號之２","OBJECTID":580744},"geometry":{"x":173478.12000000104,"y":2564608.2100000028}},{"attributes":{"ID":580772,"DIS_CODE":0,"TOWNNAME":"麻豆區","LI":"\u25A0江里","LIN":"16鄰","STREET":"信義路","SECT":" ","MAREA":" ","LANE":" ","ALLEY":" ","HOUSE_NO":"２０號之４","E_COORD97":173486.26000000001,"N_COORD97":2564608.21,"ADDRESS":"信義路２０號之４","OBJECTID":580745},"geometry":{"x":173486.25999999978,"y":2564608.2100000028}},{"attributes":{"ID":580773,"DIS_CODE":0,"TOWNNAME":"麻豆區","LI":"\u25A0江里","LIN":"16鄰","STREET":"信義路","SECT":" ","MAREA":" ","LANE":" ","ALLEY":" ","HOUSE_NO":"２０號之５","E_COORD97":173468.60000000001,"N_COORD97":2564590.5899999999,"ADDRESS":"信義路２０號之５","OBJECTID":580746},"geometry":{"x":173468.59999999963,"y":2564590.5900000017}},{"attributes":{"ID":580774,"DIS_CODE":0,"TOWNNAME":"麻豆區","LI":"\u25A0江里","LIN":"16鄰","STREET":"信義路","SECT":" ","MAREA":" ","LANE":" ","ALLEY":" ","HOUSE_NO":"２０號之６","E_COORD97":173468.75,"N_COORD97":2564586.52,"ADDRESS":"信義路２０號之６","OBJECTID":580747},"geometry":{"x":173468.75000000093,"y":2564586.5200000033}},{"attributes":{"ID":580775,"DIS_CODE":0,"TOWNNAME":"麻豆區","LI":"\u25A0江里","LIN":"16鄰","STREET":"信義路","SECT":" ","MAREA":" ","LANE":" ","ALLEY":" ","HOUSE_NO":"２０號之７","E_COORD97":173468.84,"N_COORD97":2564582.23,"ADDRESS":"信義路２０號之７","OBJECTID":580748},"geometry":{"x":173468.83999999985,"y":2564582.2299999986}},{"attributes":{"ID":580776,"DIS_CODE":0,"TOWNNAME":"麻豆區","LI":"\u25A0江里","LIN":"16鄰","STREET":"信義路","SECT":" ","MAREA":" ","LANE":" ","ALLEY":" ","HOUSE_NO":"２０號之８","E_COORD97":173469.04999999999,"N_COORD97":2564578.04,"ADDRESS":"信義路２０號之８","OBJECTID":580749},"geometry":{"x":173469.04999999981,"y":2564578.0399999991}},{"attributes":{"ID":580777,"DIS_CODE":0,"TOWNNAME":"麻豆區","LI":"\u25A0江里","LIN":"16鄰","STREET":"信義路","SECT":" ","MAREA":" ","LANE":" ","ALLEY":" ","HOUSE_NO":"２０號之９","E_COORD97":173469.31,"N_COORD97":2564574.1299999999,"ADDRESS":"信義路２０號之９","OBJECTID":580750},"geometry":{"x":173469.31000000145,"y":2564574.129999999}},{"attributes":{"ID":580778,"DIS_CODE":0,"TOWNNAME":"麻豆區","LI":"\u25A0江里","LIN":"16鄰","STREET":"信義路","SECT":" ","MAREA":" ","LANE":" ","ALLEY":" ","HOUSE_NO":"２０號","E_COORD97":173468.81,"N_COORD97":2564608.04,"ADDRESS":"信義路２０號","OBJECTID":580751},"geometry":{"x":173468.80999999959,"y":2564608.0399999991}},{"attributes":{"ID":580779,"DIS_CODE":0,"TOWNNAME":"麻豆區","LI":"\u25A0江里","LIN":"16鄰","STREET":"信義路","SECT":" ","MAREA":" ","LANE":" ","ALLEY":" ","HOUSE_NO":"２４號","E_COORD97":173576.89000000001,"N_COORD97":2564637.5299999998,"ADDRESS":"信義路２４號","OBJECTID":580752},"geometry":{"x":173576.88999999966,"y":2564637.5300000012}},{"attributes":{"ID":580780,"DIS_CODE":0,"TOWNNAME":"麻豆區","LI":"\u25A0江里","LIN":"16鄰","STREET":"信義路","SECT":" ","MAREA":" ","LANE":" ","ALLEY":" ","HOUSE_NO":"２６號","E_COORD97":173537.37,"N_COORD97":2564577.3700000001,"ADDRESS":"信義路２６號","OBJECTID":580753},"geometry":{"x":173537.37000000104,"y":2564577.370000001}},{"attributes":{"ID":580781,"DIS_CODE":0,"TOWNNAME":"麻豆區","LI":"\u25A0江里","LIN":"16鄰","STREET":"信義路","SECT":" ","MAREA":" ","LANE":" ","ALLEY":" ","HOUSE_NO":"２８號之１","E_COORD97":173498.85999999999,"N_COORD97":2564556.46,"ADDRESS":"信義路２８號之１","OBJECTID":580754},"geometry":{"x":173498.86000000127,"y":2564556.4600000009}},{"attributes":{"ID":580782,"DIS_CODE":0,"TOWNNAME":"麻豆區","LI":"\u25A0江里","LIN":"16鄰","STREET":"信義路","SECT":" ","MAREA":" ","LANE":" ","ALLEY":" ","HOUSE_NO":"２８號之２","E_COORD97":173500.10999999999,"N_COORD97":2564551.3999999999,"ADDRESS":"信義路２８號之２","OBJECTID":580755},"geometry":{"x":173500.1099999994,"y":2564551.4000000022}},{"attributes":{"ID":580783,"DIS_CODE":0,"TOWNNAME":"麻豆區","LI":"\u25A0江里","LIN":"16鄰","STREET":"信義路","SECT":" ","MAREA":" ","LANE":" ","ALLEY":" ","HOUSE_NO":"２８號之３","E_COORD97":173499.48000000001,"N_COORD97":2564546.3500000001,"ADDRESS":"信義路２８號之３","OBJECTID":580756},"geometry":{"x":173499.48000000231,"y":2564546.3499999996}},{"attributes":{"ID":580784,"DIS_CODE":0,"TOWNNAME":"麻豆區","LI":"\u25A0江里","LIN":"16鄰","STREET":"信義路","SECT":" ","MAREA":" ","LANE":" ","ALLEY":" ","HOUSE_NO":"２８號之４","E_COORD97":173500.29999999999,"N_COORD97":2564541.4700000002,"ADDRESS":"信義路２８號之４","OBJECTID":580757},"geometry":{"x":173500.30000000075,"y":2564541.4700000025}},{"attributes":{"ID":580785,"DIS_CODE":0,"TOWNNAME":"麻豆區","LI":"\u25A0江里","LIN":"16鄰","STREET":"信義路","SECT":" ","MAREA":" ","LANE":" ","ALLEY":" ","HOUSE_NO":"２８號之５","E_COORD97":173501.42999999999,"N_COORD97":2564536.6699999999,"ADDRESS":"信義路２８號之５","OBJECTID":580758},"geometry":{"x":173501.43000000063,"y":2564536.6699999999}},{"attributes":{"ID":580786,"DIS_CODE":0,"TOWNNAME":"麻豆區","LI":"\u25A0江里","LIN":"16鄰","STREET":"信義路","SECT":" ","MAREA":" ","LANE":" ","ALLEY":" ","HOUSE_NO":"２８號","E_COORD97":173498.01999999999,"N_COORD97":2564561.1600000001,"ADDRESS":"信義路２８號","OBJECTID":580759},"geometry":{"x":173498.01999999955,"y":2564561.1600000001}},{"attributes":{"ID":580787,"DIS_CODE":0,"TOWNNAME":"麻豆區","LI":"\u25A0江里","LIN":"16鄰","STREET":"信義路","SECT":" ","MAREA":" ","LANE":" ","ALLEY":" ","HOUSE_NO":"３０號之１","E_COORD97":173503.76999999999,"N_COORD97":2564527.9500000002,"ADDRESS":"信義路３０號之１","OBJECTID":580760},"geometry":{"x":173503.77000000048,"y":2564527.9499999993}},{"attributes":{"ID":580788,"DIS_CODE":0,"TOWNNAME":"麻豆區","LI":"\u25A0江里","LIN":"16鄰","STREET":"信義路","SECT":" ","MAREA":" ","LANE":" ","ALLEY":" ","HOUSE_NO":"３０號之２","E_COORD97":173508.60999999999,"N_COORD97":2564528.6400000001,"ADDRESS":"信義路３０號之２","OBJECTID":580761},"geometry":{"x":173508.6099999994,"y":2564528.6400000006}},{"attributes":{"ID":580789,"DIS_CODE":0,"TOWNNAME":"麻豆區","LI":"\u25A0江里","LIN":"16鄰","STREET":"信義路","SECT":" ","MAREA":" ","LANE":" ","ALLEY":" ","HOUSE_NO":"３０號之３","E_COORD97":173512.32000000001,"N_COORD97":2564529.48,"ADDRESS":"信義路３０號之３","OBJECTID":580762},"geometry":{"x":173512.32000000216,"y":2564529.4800000004}},{"attributes":{"ID":580790,"DIS_CODE":0,"TOWNNAME":"麻豆區","LI":"\u25A0江里","LIN":"16鄰","STREET":"信義路","SECT":" ","MAREA":" ","LANE":" ","ALLEY":" ","HOUSE_NO":"３０號之５","E_COORD97":173521.92000000001,"N_COORD97":2564530.1600000001,"ADDRESS":"信義路３０號之５","OBJECTID":580763},"geometry":{"x":173521.92000000086,"y":2564530.1600000001}},{"attributes":{"ID":580791,"DIS_CODE":0,"TOWNNAME":"麻豆區","LI":"\u25A0江里","LIN":"16鄰","STREET":"信義路","SECT":" ","MAREA":" ","LANE":" ","ALLEY":" ","HOUSE_NO":"３０號之６","E_COORD97":173526.16,"N_COORD97":2564530.7400000002,"ADDRESS":"信義路３０號之６","OBJECTID":580764},"geometry":{"x":173526.16000000015,"y":2564530.7400000002}},{"attributes":{"ID":580792,"DIS_CODE":0,"TOWNNAME":"麻豆區","LI":"\u25A0江里","LIN":"16鄰","STREET":"信義路","SECT":" ","MAREA":" ","LANE":" ","ALLEY":" ","HOUSE_NO":"３２號之１","E_COORD97":173534.07000000001,"N_COORD97":2564541.6699999999,"ADDRESS":"信義路３２號之１","OBJECTID":580765},"geometry":{"x":173534.0700000003,"y":2564541.6700000037}},{"attributes":{"ID":580793,"DIS_CODE":0,"TOWNNAME":"麻豆區","LI":"\u25A0江里","LIN":"16鄰","STREET":"信義路","SECT":" ","MAREA":" ","LANE":" ","ALLEY":" ","HOUSE_NO":"３２號之２","E_COORD97":173534.89999999999,"N_COORD97":2564538.3199999998,"ADDRESS":"信義路３２號之２","OBJECTID":580766},"geometry":{"x":173534.90000000037,"y":2564538.3200000022}},{"attributes":{"ID":580794,"DIS_CODE":0,"TOWNNAME":"麻豆區","LI":"\u25A0江里","LIN":"16鄰","STREET":"信義路","SECT":" ","MAREA":" ","LANE":" ","ALLEY":" ","HOUSE_NO":"３２號之３","E_COORD97":173536.01999999999,"N_COORD97":2564533.6400000001,"ADDRESS":"信義路３２號之３","OBJECTID":580767},"geometry":{"x":173536.02000000048,"y":2564533.6400000025}},{"attributes":{"ID":580795,"DIS_CODE":0,"TOWNNAME":"麻豆區","LI":"\u25A0江里","LIN":"16鄰","STREET":"信義路","SECT":" ","MAREA":" ","LANE":" ","ALLEY":" ","HOUSE_NO":"３２號之４","E_COORD97":173536.82000000001,"N_COORD97":2564529.5,"ADDRESS":"信義路３２號之４","OBJECTID":580768},"geometry":{"x":173536.82000000123,"y":2564529.5000000037}},{"attributes":{"ID":580796,"DIS_CODE":0,"TOWNNAME":"麻豆區","LI":"\u25A0江里","LIN":"16鄰","STREET":"信義路","SECT":" ","MAREA":" ","LANE":" ","ALLEY":" ","HOUSE_NO":"３２號之５","E_COORD97":173537.41,"N_COORD97":2564524.96,"ADDRESS":"信義路３２號之５","OBJECTID":580769},"geometry":{"x":173537.41000000108,"y":2564524.9600000028}},{"attributes":{"ID":580797,"DIS_CODE":0,"TOWNNAME":"麻豆區","LI":"\u25A0江里","LIN":"16鄰","STREET":"信義路","SECT":" ","MAREA":" ","LANE":" ","ALLEY":" ","HOUSE_NO":"３４號之４","E_COORD97":173518.29000000001,"N_COORD97":2564611.6699999999,"ADDRESS":"信義路３４號之４","OBJECTID":580770},"geometry":{"x":173518.29000000004,"y":2564611.6699999999}},{"attributes":{"ID":580798,"DIS_CODE":0,"TOWNNAME":"麻豆區","LI":"\u25A0江里","LIN":"16鄰","STREET":"信義路","SECT":" ","MAREA":" ","LANE":" ","ALLEY":" ","HOUSE_NO":"３４號之５","E_COORD97":173522.73000000001,"N_COORD97":2564611.6200000001,"ADDRESS":"信義路３４號之５","OBJECTID":580771},"geometry":{"x":173522.73000000045,"y":2564611.6200000029}},{"attributes":{"ID":580799,"DIS_CODE":0,"TOWNNAME":"麻豆區","LI":"\u25A0江里","LIN":"16鄰","STREET":"信義路","SECT":" ","MAREA":" ","LANE":" ","ALLEY":" ","HOUSE_NO":"３４號之６","E_COORD97":173527.39999999999,"N_COORD97":2564611.46,"ADDRESS":"信義路３４號之６","OBJECTID":580772},"geometry":{"x":173527.4000000013,"y":2564611.4600000009}},{"attributes":{"ID":580800,"DIS_CODE":0,"TOWNNAME":"麻豆區","LI":"\u25A0江里","LIN":"16鄰","STREET":"信義路","SECT":" ","MAREA":" ","LANE":" ","ALLEY":" ","HOUSE_NO":"３４號之７","E_COORD97":173535.04999999999,"N_COORD97":2564611.1699999999,"ADDRESS":"信義路３４號之７","OBJECTID":580773},"geometry":{"x":173535.04999999981,"y":2564611.1699999999}},{"attributes":{"ID":580801,"DIS_CODE":0,"TOWNNAME":"麻豆區","LI":"\u25A0江里","LIN":"16鄰","STREET":"信義路","SECT":" ","MAREA":" ","LANE":" ","ALLEY":" ","HOUSE_NO":"３４號之８","E_COORD97":173533.20999999999,"N_COORD97":2564592.52,"ADDRESS":"信義路３４號之８","OBJECTID":580774},"geometry":{"x":173533.21000000089,"y":2564592.5199999996}},{"attributes":{"ID":580802,"DIS_CODE":0,"TOWNNAME":"麻豆區","LI":"\u25A0江里","LIN":"16鄰","STREET":"信義路","SECT":" ","MAREA":" ","LANE":" ","ALLEY":" ","HOUSE_NO":"３４號之９","E_COORD97":173533.57000000001,"N_COORD97":2564586.0899999999,"ADDRESS":"信義路３４號之９","OBJECTID":580775},"geometry":{"x":173533.5700000003,"y":2564586.0900000036}},{"attributes":{"ID":580803,"DIS_CODE":0,"TOWNNAME":"永康區","LI":"\u25A0行里","LIN":"16鄰","STREET":"中正六街","SECT":" ","MAREA":" ","LANE":" ","ALLEY":" ","HOUSE_NO":"２４２號","E_COORD97":171903.73000000001,"N_COORD97":2548874.0699999998,"ADDRESS":"中正六街２４２號","OBJECTID":580776},"geometry":{"x":171903.73000000045,"y":2548874.0700000003}},{"attributes":{"ID":580804,"DIS_CODE":0,"TOWNNAME":"永康區","LI":"\u25A0行里","LIN":"16鄰","STREET":"中正六街","SECT":" ","MAREA":" ","LANE":" ","ALLEY":" ","HOUSE_NO":"２５６號","E_COORD97":171919.82000000001,"N_COORD97":2548892.3300000001,"ADDRESS":"中正六街２５６號","OBJECTID":580777},"geometry":{"x":171919.8200000003,"y":2548892.3300000019}},{"attributes":{"ID":580805,"DIS_CODE":0,"TOWNNAME":"永康區","LI":"\u25A0行里","LIN":"16鄰","STREET":"中正六街","SECT":" ","MAREA":" ","LANE":" ","ALLEY":" ","HOUSE_NO":"２４６號","E_COORD97":171906.47,"N_COORD97":2548877.3199999998,"ADDRESS":"中正六街２４６號","OBJECTID":580778},"geometry":{"x":171906.46999999974,"y":2548877.320000004}},{"attributes":{"ID":580806,"DIS_CODE":0,"TOWNNAME":"永康區","LI":"網寮里","LIN":"16鄰","STREET":"永勝街","SECT":" ","MAREA":" ","LANE":" ","ALLEY":" ","HOUSE_NO":"２５３號","E_COORD97":173407.98999999999,"N_COORD97":2546739.7599999998,"ADDRESS":"永勝街２５３號","OBJECTID":580779},"geometry":{"x":173407.99000000115,"y":2546739.7599999998}},{"attributes":{"ID":580807,"DIS_CODE":0,"TOWNNAME":"永康區","LI":"網寮里","LIN":"16鄰","STREET":"永勝街","SECT":" ","MAREA":" ","LANE":" ","ALLEY":" ","HOUSE_NO":"２５１號","E_COORD97":173405.72,"N_COORD97":2546733.2599999998,"ADDRESS":"永勝街２５１號","OBJECTID":580780},"geometry":{"x":173405.7200000016,"y":2546733.2599999998}},{"attributes":{"ID":580808,"DIS_CODE":0,"TOWNNAME":"永康區","LI":"網寮里","LIN":"16鄰","STREET":"永勝街","SECT":" ","MAREA":" ","LANE":" ","ALLEY":" ","HOUSE_NO":"２３７號","E_COORD97":173394.78,"N_COORD97":2546698.5,"ADDRESS":"永勝街２３７號","OBJECTID":580781},"geometry":{"x":173394.78000000026,"y":2546698.5}},{"attributes":{"ID":580809,"DIS_CODE":0,"TOWNNAME":"仁德區","LI":"大甲里","LIN":"16鄰","STREET":"行大街","SECT":" ","MAREA":" ","LANE":" ","ALLEY":" ","HOUSE_NO":"４０９號","E_COORD97":169493.82000000001,"N_COORD97":2535229.5,"ADDRESS":"行大街４０９號","OBJECTID":580782},"geometry":{"x":169493.82000000123,"y":2535229.5000000037}},{"attributes":{"ID":580810,"DIS_CODE":0,"TOWNNAME":"仁德區","LI":"大甲里","LIN":"16鄰","STREET":"行大街","SECT":" ","MAREA":" ","LANE":" ","ALLEY":" ","HOUSE_NO":"３９７號","E_COORD97":169502.25,"N_COORD97":2535206.7400000002,"ADDRESS":"行大街３９７號","OBJECTID":580783},"geometry":{"x":169502.25000000093,"y":2535206.7400000002}},{"attributes":{"ID":580811,"DIS_CODE":0,"TOWNNAME":"仁德區","LI":"一甲里","LIN":"16鄰","STREET":"中清路","SECT":" ","MAREA":" ","LANE":" ","ALLEY":" ","HOUSE_NO":"２４７號","E_COORD97":173727.62,"N_COORD97":2541752.5499999998,"ADDRESS":"中清路２４７號","OBJECTID":580784},"geometry":{"x":173727.62000000104,"y":2541752.5500000007}},{"attributes":{"ID":580812,"DIS_CODE":0,"TOWNNAME":"仁德區","LI":"土庫里","LIN":"16鄰","STREET":"土庫一街","SECT":" ","MAREA":" ","LANE":" ","ALLEY":" ","HOUSE_NO":"７８號","E_COORD97":174591.85999999999,"N_COORD97":2543052.9900000002,"ADDRESS":"土庫一街７８號","OBJECTID":580785},"geometry":{"x":174591.8600000022,"y":2543052.9900000021}},{"attributes":{"ID":580813,"DIS_CODE":0,"TOWNNAME":"仁德區","LI":"一甲里","LIN":"16鄰","STREET":"中清路","SECT":" ","MAREA":" ","LANE":" ","ALLEY":" ","HOUSE_NO":"２７３號","E_COORD97":173737.76000000001,"N_COORD97":2541819.04,"ADDRESS":"中清路２７３號","OBJECTID":580786},"geometry":{"x":173737.76000000071,"y":2541819.0399999972}},{"attributes":{"ID":580814,"DIS_CODE":0,"TOWNNAME":"仁德區","LI":"大甲里","LIN":"16鄰","STREET":"行大街","SECT":" ","MAREA":" ","LANE":" ","ALLEY":" ","HOUSE_NO":"４１３號","E_COORD97":169484.29000000001,"N_COORD97":2535237.25,"ADDRESS":"行大街４１３號","OBJECTID":580787},"geometry":{"x":169484.29000000004,"y":2535237.25}},{"attributes":{"ID":580815,"DIS_CODE":0,"TOWNNAME":"仁德區","LI":"仁義里","LIN":"16鄰","STREET":"林頂街","SECT":" ","MAREA":" ","LANE":" ","ALLEY":" ","HOUSE_NO":"１０號","E_COORD97":174435.73000000001,"N_COORD97":2541236.6200000001,"ADDRESS":"林頂街１０號","OBJECTID":580788},"geometry":{"x":174435.73000000138,"y":2541236.620000001}},{"attributes":{"ID":580816,"DIS_CODE":0,"TOWNNAME":"仁德區","LI":"仁德里","LIN":"16鄰","STREET":"中山路","SECT":" ","MAREA":" ","LANE":" ","ALLEY":" ","HOUSE_NO":"７９９號","E_COORD97":172525.82000000001,"N_COORD97":2541546.5,"ADDRESS":"中山路７９９號","OBJECTID":580789},"geometry":{"x":172525.82000000216,"y":2541546.5000000019}},{"attributes":{"ID":580817,"DIS_CODE":0,"TOWNNAME":"仁德區","LI":"仁德里","LIN":"16鄰","STREET":"中山路","SECT":" ","MAREA":" ","LANE":" ","ALLEY":" ","HOUSE_NO":"６７９號","E_COORD97":173121.82000000001,"N_COORD97":2541356,"ADDRESS":"中山路６７９號","OBJECTID":580790},"geometry":{"x":173121.8200000003,"y":2541356.0000000037}},{"attributes":{"ID":580818,"DIS_CODE":0,"TOWNNAME":"仁德區","LI":"仁德里","LIN":"16鄰","STREET":"中山路","SECT":" ","MAREA":" ","LANE":" ","ALLEY":" ","HOUSE_NO":"７１１號","E_COORD97":172784.73000000001,"N_COORD97":2541445.75,"ADDRESS":"中山路７１１號","OBJECTID":580791},"geometry":{"x":172784.73000000138,"y":2541445.7500000037}},{"attributes":{"ID":580819,"DIS_CODE":0,"TOWNNAME":"仁德區","LI":"太子里","LIN":"16鄰","STREET":"太興路","SECT":" ","MAREA":" ","LANE":" ","ALLEY":" ","HOUSE_NO":"１３７號","E_COORD97":174102.92999999999,"N_COORD97":2543628.2599999998,"ADDRESS":"太興路１３７號","OBJECTID":580792},"geometry":{"x":174102.93000000063,"y":2543628.2599999998}},{"attributes":{"ID":580820,"DIS_CODE":0,"TOWNNAME":"仁德區","LI":"仁德里","LIN":"16鄰","STREET":"中山路","SECT":" ","MAREA":" ","LANE":" ","ALLEY":" ","HOUSE_NO":"６７１號","E_COORD97":173142.12,"N_COORD97":2541349.25,"ADDRESS":"中山路６７１號","OBJECTID":580793},"geometry":{"x":173142.11999999918,"y":2541349.25}},{"attributes":{"ID":580821,"DIS_CODE":0,"TOWNNAME":"仁德區","LI":"仁德里","LIN":"16鄰","STREET":"中山路","SECT":" ","MAREA":" ","LANE":" ","ALLEY":" ","HOUSE_NO":"６８３號","E_COORD97":173113.07000000001,"N_COORD97":2541357.5,"ADDRESS":"中山路６８３號","OBJECTID":580794},"geometry":{"x":173113.07000000123,"y":2541357.5000000019}},{"attributes":{"ID":580822,"DIS_CODE":0,"TOWNNAME":"仁德區","LI":"太子里","LIN":"16鄰","STREET":"太子北路","SECT":" ","MAREA":" ","LANE":" ","ALLEY":" ","HOUSE_NO":"７９號","E_COORD97":174110.54999999999,"N_COORD97":2543650.7599999998,"ADDRESS":"太子北路７９號","OBJECTID":580795},"geometry":{"x":174110.55000000075,"y":2543650.7600000016}},{"attributes":{"ID":580823,"DIS_CODE":0,"TOWNNAME":"安南區","LI":"溪心里","LIN":"16鄰","STREET":"安吉路","SECT":"一段","MAREA":" ","LANE":" ","ALLEY":" ","HOUSE_NO":"２０８號","E_COORD97":166855.20000000001,"N_COORD97":2549601.8300000001,"ADDRESS":"安吉路一段２０８號","OBJECTID":580796},"geometry":{"x":166855.20000000019,"y":2549601.8300000001}},{"attributes":{"ID":580824,"DIS_CODE":0,"TOWNNAME":"安南區","LI":"州北里","LIN":"16鄰","STREET":"安昌街","SECT":" ","MAREA":" ","LANE":" ","ALLEY":" ","HOUSE_NO":"２２號","E_COORD97":169880.54000000001,"N_COORD97":2552000.7599999998,"ADDRESS":"安昌街２２號","OBJECTID":580797},"geometry":{"x":169880.54000000004,"y":2552000.7600000016}},{"attributes":{"ID":580825,"DIS_CODE":0,"TOWNNAME":"東區","LI":"東安里","LIN":"16鄰","STREET":"衛國街","SECT":" ","MAREA":" ","LANE":" ","ALLEY":" ","HOUSE_NO":"１號之２","E_COORD97":170227.54999999999,"N_COORD97":2542947.77,"ADDRESS":"衛國街１號之２","OBJECTID":580798},"geometry":{"x":170227.54999999981,"y":2542947.7700000014}},{"attributes":{"ID":580826,"DIS_CODE":0,"TOWNNAME":"東區","LI":"東安里","LIN":"16鄰","STREET":"衛國街","SECT":" ","MAREA":" ","LANE":" ","ALLEY":" ","HOUSE_NO":"１號之３","E_COORD97":170228.88,"N_COORD97":2542951.2799999998,"ADDRESS":"衛國街１號之３","OBJECTID":580799},"geometry":{"x":170228.87999999989,"y":2542951.2800000012}},{"attributes":{"ID":580827,"DIS_CODE":0,"TOWNNAME":"東區","LI":"東安里","LIN":"16鄰","STREET":"衛國街","SECT":" ","MAREA":" ","LANE":" ","ALLEY":" ","HOUSE_NO":"１號之５","E_COORD97":170230.12,"N_COORD97":2542959.73,"ADDRESS":"衛國街１號之５","OBJECTID":580800},"geometry":{"x":170230.12000000104,"y":2542959.7300000023}}]}