{"displayFieldName":"TOWNNAME","fieldAliases":{"ID":"ID","DIS_CODE":"DIS_CODE","TOWNNAME":"TOWNNAME","LI":"LI","LIN":"LIN","STREET":"STREET","SECT":"SECT","MAREA":"MAREA","LANE":"LANE","ALLEY":"ALLEY","HOUSE_NO":"HOUSE_NO","E_COORD97":"E_COORD97","N_COORD97":"N_COORD97","ADDRESS":"ADDRESS","OBJECTID":"OBJECTID"},"geometryType":"esriGeometryPoint","spatialReference":{"wkid":102443,"latestWkid":3826},"fields":[{"name":"ID","type":"esriFieldTypeDouble","alias":"ID"},{"name":"DIS_CODE","type":"esriFieldTypeInteger","alias":"DIS_CODE"},{"name":"TOWNNAME","type":"esriFieldTypeString","alias":"TOWNNAME","length":8},{"name":"LI","type":"esriFieldTypeString","alias":"LI","length":8},{"name":"LIN","type":"esriFieldTypeString","alias":"LIN","length":12},{"name":"STREET","type":"esriFieldTypeString","alias":"STREET","length":20},{"name":"SECT","type":"esriFieldTypeString","alias":"SECT","length":8},{"name":"MAREA","type":"esriFieldTypeString","alias":"MAREA","length":12},{"name":"LANE","type":"esriFieldTypeString","alias":"LANE","length":10},{"name":"ALLEY","type":"esriFieldTypeString","alias":"ALLEY","length":10},{"name":"HOUSE_NO","type":"esriFieldTypeString","alias":"HOUSE_NO","length":20},{"name":"E_COORD97","type":"esriFieldTypeDouble","alias":"E_COORD97"},{"name":"N_COORD97","type":"esriFieldTypeDouble","alias":"N_COORD97"},{"name":"ADDRESS","type":"esriFieldTypeString","alias":"ADDRESS","length":50},{"name":"OBJECTID","type":"esriFieldTypeOID","alias":"OBJECTID"}],"features":[{"attributes":{"ID":6001,"DIS_CODE":0,"TOWNNAME":"永康區","LI":"王行里","LIN":"16鄰","STREET":"永科南路","SECT":" ","MAREA":" ","LANE":" ","ALLEY":" ","HOUSE_NO":"１０７號","E_COORD97":176343.960746,"N_COORD97":2548210.95585,"ADDRESS":"永科南路１０７號","OBJECTID":6001},"geometry":{"x":176343.96074599959,"y":2548210.9558539987}},{"attributes":{"ID":6002,"DIS_CODE":0,"TOWNNAME":"永康區","LI":"王行里","LIN":"2鄰","STREET":"永科南路","SECT":" ","MAREA":" ","LANE":" ","ALLEY":" ","HOUSE_NO":"１０６號","E_COORD97":176186.05703200001,"N_COORD97":2548205.6641899999,"ADDRESS":"永科南路１０６號","OBJECTID":6002},"geometry":{"x":176186.05703200027,"y":2548205.6641899999}},{"attributes":{"ID":6003,"DIS_CODE":0,"TOWNNAME":"永康區","LI":"\u25A0洲里","LIN":" ","STREET":"鹽洲一街","SECT":" ","MAREA":" ","LANE":" ","ALLEY":" ","HOUSE_NO":"１６號","E_COORD97":171580.17999999999,"N_COORD97":2548929.75,"ADDRESS":"鹽洲一街１６號","OBJECTID":6003},"geometry":{"x":171580.18000000156,"y":2548929.7500000019}},{"attributes":{"ID":6004,"DIS_CODE":0,"TOWNNAME":"永康區","LI":"\u25A0洲里","LIN":" ","STREET":"鹽洲一街","SECT":" ","MAREA":" ","LANE":" ","ALLEY":" ","HOUSE_NO":"１４號","E_COORD97":171583.67999999999,"N_COORD97":2548927.75,"ADDRESS":"鹽洲一街１４號","OBJECTID":6004},"geometry":{"x":171583.68000000063,"y":2548927.75}},{"attributes":{"ID":6005,"DIS_CODE":0,"TOWNNAME":"永康區","LI":"\u25A0洲里","LIN":" ","STREET":"鹽行路","SECT":" ","MAREA":" ","LANE":" ","ALLEY":" ","HOUSE_NO":"６３號","E_COORD97":171601.84,"N_COORD97":2549210.4399999999,"ADDRESS":"鹽行路６３號","OBJECTID":6005},"geometry":{"x":171601.84000000078,"y":2549210.4399999995}},{"attributes":{"ID":6006,"DIS_CODE":0,"TOWNNAME":"永康區","LI":"\u25A0洲里","LIN":" ","STREET":"洲尾街","SECT":" ","MAREA":" ","LANE":"１４６巷","ALLEY":" ","HOUSE_NO":"１９號","E_COORD97":171030.04999999999,"N_COORD97":2549075.0899999999,"ADDRESS":"洲尾街１４６巷１９號","OBJECTID":6006},"geometry":{"x":171030.04999999888,"y":2549075.0900000036}},{"attributes":{"ID":6007,"DIS_CODE":0,"TOWNNAME":"永康區","LI":"\u25A0洲里","LIN":" ","STREET":"鹽洲二街","SECT":" ","MAREA":" ","LANE":"１１１巷","ALLEY":" ","HOUSE_NO":"１之３號","E_COORD97":171571.06,"N_COORD97":2549306.98,"ADDRESS":"鹽洲二街１１１巷１之３號","OBJECTID":6007},"geometry":{"x":171571.06000000052,"y":2549306.9800000042}},{"attributes":{"ID":6008,"DIS_CODE":0,"TOWNNAME":"永康區","LI":"\u25A0洲里","LIN":" ","STREET":"國聖街","SECT":" ","MAREA":" ","LANE":" ","ALLEY":" ","HOUSE_NO":"２４２號","E_COORD97":170725.45999999999,"N_COORD97":2548297.54,"ADDRESS":"國聖街２４２號","OBJECTID":6008},"geometry":{"x":170725.45999999996,"y":2548297.5399999991}},{"attributes":{"ID":6009,"DIS_CODE":0,"TOWNNAME":"永康區","LI":"\u25A0洲里","LIN":" ","STREET":"鹽行路","SECT":" ","MAREA":" ","LANE":"１２１巷","ALLEY":" ","HOUSE_NO":"４號","E_COORD97":171453.84,"N_COORD97":2549181.2400000002,"ADDRESS":"鹽行路１２１巷４號","OBJECTID":6009},"geometry":{"x":171453.84000000171,"y":2549181.2400000021}},{"attributes":{"ID":6010,"DIS_CODE":0,"TOWNNAME":"永康區","LI":"\u25A0洲里","LIN":" ","STREET":"鹽行路","SECT":" ","MAREA":" ","LANE":"９６巷","ALLEY":" ","HOUSE_NO":"４號","E_COORD97":171496.57000000001,"N_COORD97":2549213.25,"ADDRESS":"鹽行路９６巷４號","OBJECTID":6010},"geometry":{"x":171496.5700000003,"y":2549213.2500000037}},{"attributes":{"ID":6011,"DIS_CODE":0,"TOWNNAME":"永康區","LI":"\u25A0洲里","LIN":" ","STREET":"鹽行路","SECT":" ","MAREA":" ","LANE":"２２巷","ALLEY":" ","HOUSE_NO":"５５號","E_COORD97":171690.56,"N_COORD97":2549208.75,"ADDRESS":"鹽行路２２巷５５號","OBJECTID":6011},"geometry":{"x":171690.55999999959,"y":2549208.75}},{"attributes":{"ID":6012,"DIS_CODE":0,"TOWNNAME":"永康區","LI":"\u25A0洲里","LIN":" ","STREET":"鹽行路","SECT":" ","MAREA":" ","LANE":"１８８巷","ALLEY":" ","HOUSE_NO":"３８號","E_COORD97":171317.73999999999,"N_COORD97":2549275.98,"ADDRESS":"鹽行路１８８巷３８號","OBJECTID":6012},"geometry":{"x":171317.74000000115,"y":2549275.9800000004}},{"attributes":{"ID":6013,"DIS_CODE":0,"TOWNNAME":"永康區","LI":"\u25A0洲里","LIN":" ","STREET":"鹽洲二街","SECT":" ","MAREA":" ","LANE":"１１１巷","ALLEY":" ","HOUSE_NO":"１之５號","E_COORD97":171586.22,"N_COORD97":2549320.73,"ADDRESS":"鹽洲二街１１１巷１之５號","OBJECTID":6013},"geometry":{"x":171586.21999999974,"y":2549320.7300000004}},{"attributes":{"ID":6014,"DIS_CODE":0,"TOWNNAME":"永康區","LI":"\u25A0洲里","LIN":" ","STREET":"鹽洲二街","SECT":" ","MAREA":" ","LANE":"１１１巷","ALLEY":" ","HOUSE_NO":"１之４號","E_COORD97":171576.20000000001,"N_COORD97":2549310.23,"ADDRESS":"鹽洲二街１１１巷１之４號","OBJECTID":6014},"geometry":{"x":171576.20000000112,"y":2549310.2300000023}},{"attributes":{"ID":6015,"DIS_CODE":0,"TOWNNAME":"永康區","LI":"\u25A0洲里","LIN":" ","STREET":"鹽行路","SECT":" ","MAREA":" ","LANE":"２５巷","ALLEY":" ","HOUSE_NO":"２７號","E_COORD97":171691.73999999999,"N_COORD97":2549115.75,"ADDRESS":"鹽行路２５巷２７號","OBJECTID":6015},"geometry":{"x":171691.74000000022,"y":2549115.7500000019}},{"attributes":{"ID":6016,"DIS_CODE":0,"TOWNNAME":"永康區","LI":"\u25A0洲里","LIN":" ","STREET":"鹽洲一街","SECT":" ","MAREA":" ","LANE":" ","ALLEY":" ","HOUSE_NO":"３４號","E_COORD97":171543.89999999999,"N_COORD97":2548995.5,"ADDRESS":"鹽洲一街３４號","OBJECTID":6016},"geometry":{"x":171543.9000000013,"y":2548995.5000000019}},{"attributes":{"ID":6017,"DIS_CODE":0,"TOWNNAME":"永康區","LI":"\u25A0洲里","LIN":" ","STREET":"鹽洲一街","SECT":" ","MAREA":" ","LANE":" ","ALLEY":" ","HOUSE_NO":"２４號","E_COORD97":171592.32000000001,"N_COORD97":2548988.4900000002,"ADDRESS":"鹽洲一街２４號","OBJECTID":6017},"geometry":{"x":171592.32000000123,"y":2548988.4900000021}},{"attributes":{"ID":6018,"DIS_CODE":0,"TOWNNAME":"永康區","LI":"\u25A0洲里","LIN":" ","STREET":"洲工街","SECT":" ","MAREA":" ","LANE":" ","ALLEY":" ","HOUSE_NO":"２號","E_COORD97":170606.95999999999,"N_COORD97":2548045.7400000002,"ADDRESS":"洲工街２號","OBJECTID":6018},"geometry":{"x":170606.95999999996,"y":2548045.7400000002}},{"attributes":{"ID":6019,"DIS_CODE":0,"TOWNNAME":"永康區","LI":"\u25A0洲里","LIN":" ","STREET":"國聖街","SECT":" ","MAREA":" ","LANE":" ","ALLEY":" ","HOUSE_NO":"２１３之１號","E_COORD97":170790.23999999999,"N_COORD97":2548396.2999999998,"ADDRESS":"國聖街２１３之１號","OBJECTID":6019},"geometry":{"x":170790.24000000209,"y":2548396.3000000007}},{"attributes":{"ID":6020,"DIS_CODE":0,"TOWNNAME":"永康區","LI":"\u25A0洲里","LIN":" ","STREET":"洲尾街","SECT":" ","MAREA":" ","LANE":" ","ALLEY":" ","HOUSE_NO":"３３號","E_COORD97":170957.38,"N_COORD97":2549069.1200000001,"ADDRESS":"洲尾街３３號","OBJECTID":6020},"geometry":{"x":170957.38000000082,"y":2549069.120000001}},{"attributes":{"ID":6021,"DIS_CODE":0,"TOWNNAME":"永康區","LI":"\u25A0洲里","LIN":" ","STREET":"鹽洲二街","SECT":" ","MAREA":" ","LANE":" ","ALLEY":" ","HOUSE_NO":"１１１號","E_COORD97":171645.85000000001,"N_COORD97":2549531,"ADDRESS":"鹽洲二街１１１號","OBJECTID":6021},"geometry":{"x":171645.84999999963,"y":2549531.0000000019}},{"attributes":{"ID":6022,"DIS_CODE":0,"TOWNNAME":"永康區","LI":"\u25A0洲里","LIN":" ","STREET":"鹽忠街","SECT":" ","MAREA":" ","LANE":" ","ALLEY":" ","HOUSE_NO":"３６號","E_COORD97":171535.57000000001,"N_COORD97":2548944.1899999999,"ADDRESS":"鹽忠街３６號","OBJECTID":6022},"geometry":{"x":171535.5700000003,"y":2548944.1899999995}},{"attributes":{"ID":6023,"DIS_CODE":0,"TOWNNAME":"永康區","LI":"\u25A0洲里","LIN":" ","STREET":"國聖街","SECT":" ","MAREA":" ","LANE":" ","ALLEY":" ","HOUSE_NO":"２３７號","E_COORD97":170856.89000000001,"N_COORD97":2548466.7400000002,"ADDRESS":"國聖街２３７號","OBJECTID":6023},"geometry":{"x":170856.8900000006,"y":2548466.7400000002}},{"attributes":{"ID":6024,"DIS_CODE":0,"TOWNNAME":"永康區","LI":"\u25A0洲里","LIN":" ","STREET":"洲工街","SECT":" ","MAREA":" ","LANE":" ","ALLEY":" ","HOUSE_NO":"１４９號","E_COORD97":170682.22,"N_COORD97":2548599.7799999998,"ADDRESS":"洲工街１４９號","OBJECTID":6024},"geometry":{"x":170682.22000000067,"y":2548599.7800000012}},{"attributes":{"ID":6025,"DIS_CODE":0,"TOWNNAME":"新營區","LI":"永生里","LIN":"8鄰","STREET":"康樂街","SECT":" ","MAREA":" ","LANE":" ","ALLEY":" ","HOUSE_NO":"８號","E_COORD97":180038.521978,"N_COORD97":2577934.1496000001,"ADDRESS":"康樂街８號","OBJECTID":6025},"geometry":{"x":180038.52197800111,"y":2577934.1496009994}},{"attributes":{"ID":6026,"DIS_CODE":0,"TOWNNAME":"山上區","LI":"豐德里","LIN":"3鄰","STREET":" ","SECT":" ","MAREA":"隙子口","LANE":" ","ALLEY":" ","HOUSE_NO":"４９之２號","E_COORD97":184543.48128099999,"N_COORD97":2552993.5309199998,"ADDRESS":"隙子口４９之２號","OBJECTID":6026},"geometry":{"x":184543.48128100112,"y":2552993.5309240017}},{"attributes":{"ID":6027,"DIS_CODE":0,"TOWNNAME":"仁德區","LI":"太子里","LIN":"39鄰","STREET":"太子路","SECT":" ","MAREA":" ","LANE":"８６巷","ALLEY":" ","HOUSE_NO":"１號","E_COORD97":175043.526988,"N_COORD97":2543566.2856700001,"ADDRESS":"太子路８６巷１號","OBJECTID":6027},"geometry":{"x":175043.52698799968,"y":2543566.2856680006}},{"attributes":{"ID":6028,"DIS_CODE":0,"TOWNNAME":"新市區","LI":"新和里","LIN":"23鄰","STREET":"綠園二街","SECT":" ","MAREA":" ","LANE":" ","ALLEY":" ","HOUSE_NO":"３１號","E_COORD97":177247.881398,"N_COORD97":2552726.01382,"ADDRESS":"綠園二街３１號","OBJECTID":6028},"geometry":{"x":177247.88139800169,"y":2552726.01382}},{"attributes":{"ID":6029,"DIS_CODE":0,"TOWNNAME":"中西區","LI":"普濟里","LIN":"16鄰","STREET":"海安路","SECT":"二段","MAREA":" ","LANE":"３３０巷","ALLEY":" ","HOUSE_NO":"３號","E_COORD97":167843.87067400001,"N_COORD97":2544453.8728399999,"ADDRESS":"海安路二段３３０巷３號","OBJECTID":6029},"geometry":{"x":167843.87067400012,"y":2544453.8728419989}},{"attributes":{"ID":6030,"DIS_CODE":0,"TOWNNAME":"新營區","LI":"永生里","LIN":"8鄰","STREET":"富源街","SECT":" ","MAREA":" ","LANE":" ","ALLEY":" ","HOUSE_NO":"２３號","E_COORD97":180020.51199,"N_COORD97":2577965.1587499999,"ADDRESS":"富源街２３號","OBJECTID":6030},"geometry":{"x":180020.51199000143,"y":2577965.1587510016}},{"attributes":{"ID":6031,"DIS_CODE":0,"TOWNNAME":"永康區","LI":"王行里","LIN":"2鄰","STREET":"永科南路","SECT":" ","MAREA":" ","LANE":" ","ALLEY":" ","HOUSE_NO":"１１８號","E_COORD97":176082.33628700001,"N_COORD97":2548169.9542800002,"ADDRESS":"永科南路１１８號","OBJECTID":6031},"geometry":{"x":176082.33628700208,"y":2548169.954284003}},{"attributes":{"ID":6032,"DIS_CODE":0,"TOWNNAME":"仁德區","LI":"太子里","LIN":"39鄰","STREET":"太子路","SECT":" ","MAREA":" ","LANE":"８６巷","ALLEY":" ","HOUSE_NO":"１之１號","E_COORD97":175038.23268799999,"N_COORD97":2543587.55816,"ADDRESS":"太子路８６巷１之１號","OBJECTID":6032},"geometry":{"x":175038.23268800136,"y":2543587.5581570026}},{"attributes":{"ID":6033,"DIS_CODE":0,"TOWNNAME":"新市區","LI":"新和里","LIN":"23鄰","STREET":"綠園二街","SECT":" ","MAREA":" ","LANE":" ","ALLEY":" ","HOUSE_NO":"１號","E_COORD97":177338.346143,"N_COORD97":2552727.6013199999,"ADDRESS":"綠園二街１號","OBJECTID":6033},"geometry":{"x":177338.34614300076,"y":2552727.601319002}},{"attributes":{"ID":6034,"DIS_CODE":0,"TOWNNAME":"新營區","LI":"永生里","LIN":"8鄰","STREET":"富源街","SECT":" ","MAREA":" ","LANE":" ","ALLEY":" ","HOUSE_NO":"２５號","E_COORD97":180016.06246300001,"N_COORD97":2577965.5820800001,"ADDRESS":"富源街２５號","OBJECTID":6034},"geometry":{"x":180016.06246299949,"y":2577965.5820840001}},{"attributes":{"ID":6035,"DIS_CODE":0,"TOWNNAME":"永康區","LI":"王行里","LIN":"16鄰","STREET":"永科南路","SECT":" ","MAREA":" ","LANE":" ","ALLEY":" ","HOUSE_NO":"１２７號","E_COORD97":176206.53974499999,"N_COORD97":2548185.40594,"ADDRESS":"永科南路１２７號","OBJECTID":6035},"geometry":{"x":176206.53974500112,"y":2548185.4059420023}},{"attributes":{"ID":6036,"DIS_CODE":0,"TOWNNAME":"山上區","LI":"豐德里","LIN":"3鄰","STREET":" ","SECT":" ","MAREA":"隙子口","LANE":" ","ALLEY":" ","HOUSE_NO":"４７號之１５","E_COORD97":184647.18393900001,"N_COORD97":2553049.8342300002,"ADDRESS":"隙子口４７號之１５","OBJECTID":6036},"geometry":{"x":184647.18393900059,"y":2553049.8342269994}},{"attributes":{"ID":6037,"DIS_CODE":0,"TOWNNAME":"新市區","LI":"新和里","LIN":"23鄰","STREET":"綠園二街","SECT":" ","MAREA":" ","LANE":" ","ALLEY":" ","HOUSE_NO":"２９號","E_COORD97":177252.75420600001,"N_COORD97":2552726.3313199999,"ADDRESS":"綠園二街２９號","OBJECTID":6037},"geometry":{"x":177252.75420600176,"y":2552726.3313200027}},{"attributes":{"ID":6038,"DIS_CODE":0,"TOWNNAME":"仁德區","LI":"太子里","LIN":"39鄰","STREET":"太子路","SECT":" ","MAREA":" ","LANE":"８６巷","ALLEY":" ","HOUSE_NO":"３號","E_COORD97":175017.79000000001,"N_COORD97":2543640.2599999998,"ADDRESS":"太子路８６巷３號","OBJECTID":6038},"geometry":{"x":175017.79000000097,"y":2543640.2600000016}},{"attributes":{"ID":6039,"DIS_CODE":0,"TOWNNAME":"新市區","LI":"新和里","LIN":"23鄰","STREET":"綠園二街","SECT":" ","MAREA":" ","LANE":" ","ALLEY":" ","HOUSE_NO":"２７號","E_COORD97":177256.991431,"N_COORD97":2552726.3313199999,"ADDRESS":"綠園二街２７號","OBJECTID":6039},"geometry":{"x":177256.99143099971,"y":2552726.3313200027}},{"attributes":{"ID":6040,"DIS_CODE":0,"TOWNNAME":"新市區","LI":"新和里","LIN":"23鄰","STREET":"綠園二街","SECT":" ","MAREA":" ","LANE":" ","ALLEY":" ","HOUSE_NO":"２５號","E_COORD97":177262.07610000001,"N_COORD97":2552726.54299,"ADDRESS":"綠園二街２５號","OBJECTID":6040},"geometry":{"x":177262.07610000018,"y":2552726.542986}},{"attributes":{"ID":6041,"DIS_CODE":0,"TOWNNAME":"仁德區","LI":"太子里","LIN":"39鄰","STREET":"太子路","SECT":" ","MAREA":" ","LANE":"８６巷","ALLEY":" ","HOUSE_NO":"５號","E_COORD97":175018.64999999999,"N_COORD97":2543653.2599999998,"ADDRESS":"太子路８６巷５號","OBJECTID":6041},"geometry":{"x":175018.65000000037,"y":2543653.2600000016}},{"attributes":{"ID":6042,"DIS_CODE":0,"TOWNNAME":"新市區","LI":"新和里","LIN":"23鄰","STREET":"綠園二街","SECT":" ","MAREA":" ","LANE":" ","ALLEY":" ","HOUSE_NO":"２１號","E_COORD97":177271.82171700001,"N_COORD97":2552726.54299,"ADDRESS":"綠園二街２１號","OBJECTID":6042},"geometry":{"x":177271.82171700057,"y":2552726.542986}},{"attributes":{"ID":6043,"DIS_CODE":0,"TOWNNAME":"永康區","LI":"\u25A0行里","LIN":" ","STREET":"\u25A0平街","SECT":" ","MAREA":" ","LANE":"２２８巷","ALLEY":" ","HOUSE_NO":"７１號","E_COORD97":172029.12,"N_COORD97":2548128.9900000002,"ADDRESS":"\u25A0平街２２８巷７１號","OBJECTID":6043},"geometry":{"x":172029.12000000104,"y":2548128.9900000002}},{"attributes":{"ID":6044,"DIS_CODE":0,"TOWNNAME":"永康區","LI":"\u25A0行里","LIN":" ","STREET":"\u25A0平街","SECT":" ","MAREA":" ","LANE":" ","ALLEY":" ","HOUSE_NO":"４２８號","E_COORD97":172020.64000000001,"N_COORD97":2548055.4900000002,"ADDRESS":"\u25A0平街４２８號","OBJECTID":6044},"geometry":{"x":172020.63999999966,"y":2548055.4899999984}},{"attributes":{"ID":6045,"DIS_CODE":0,"TOWNNAME":"永康區","LI":"\u25A0行里","LIN":" ","STREET":"\u25A0平街","SECT":" ","MAREA":" ","LANE":"１５８巷","ALLEY":" ","HOUSE_NO":"３號","E_COORD97":171845.26000000001,"N_COORD97":2548164.9900000002,"ADDRESS":"\u25A0平街１５８巷３號","OBJECTID":6045},"geometry":{"x":171845.25999999978,"y":2548164.9900000021}},{"attributes":{"ID":6046,"DIS_CODE":0,"TOWNNAME":"新市區","LI":"新和里","LIN":"23鄰","STREET":"綠園二街","SECT":" ","MAREA":" ","LANE":" ","ALLEY":" ","HOUSE_NO":"１９號","E_COORD97":177277.11824700001,"N_COORD97":2552726.54299,"ADDRESS":"綠園二街１９號","OBJECTID":6046},"geometry":{"x":177277.11824699957,"y":2552726.542986}},{"attributes":{"ID":6047,"DIS_CODE":0,"TOWNNAME":"永康區","LI":"王行里","LIN":"16鄰","STREET":"中山北路","SECT":" ","MAREA":" ","LANE":" ","ALLEY":" ","HOUSE_NO":"１０２３號","E_COORD97":176438.62641299999,"N_COORD97":2548062.53351,"ADDRESS":"中山北路１０２３號","OBJECTID":6047},"geometry":{"x":176438.62641300075,"y":2548062.533509003}},{"attributes":{"ID":6048,"DIS_CODE":0,"TOWNNAME":"新市區","LI":"新和里","LIN":"23鄰","STREET":"綠園二街","SECT":" ","MAREA":" ","LANE":" ","ALLEY":" ","HOUSE_NO":"１７號","E_COORD97":177282.62663899999,"N_COORD97":2552726.75465,"ADDRESS":"綠園二街１７號","OBJECTID":6048},"geometry":{"x":177282.62663900107,"y":2552726.7546530012}},{"attributes":{"ID":6049,"DIS_CODE":0,"TOWNNAME":"新營區","LI":"永生里","LIN":"8鄰","STREET":"富源街","SECT":" ","MAREA":" ","LANE":" ","ALLEY":" ","HOUSE_NO":"２７號之１","E_COORD97":180008.64658500001,"N_COORD97":2577960.9254200002,"ADDRESS":"富源街２７號之１","OBJECTID":6049},"geometry":{"x":180008.64658500068,"y":2577960.925420003}},{"attributes":{"ID":6050,"DIS_CODE":0,"TOWNNAME":"新市區","LI":"新和里","LIN":"23鄰","STREET":"綠園二街","SECT":" ","MAREA":" ","LANE":" ","ALLEY":" ","HOUSE_NO":"１５號","E_COORD97":177287.92316999999,"N_COORD97":2552726.54299,"ADDRESS":"綠園二街１５號","OBJECTID":6050},"geometry":{"x":177287.92317000125,"y":2552726.542986}},{"attributes":{"ID":6051,"DIS_CODE":0,"TOWNNAME":"新市區","LI":"新和里","LIN":"23鄰","STREET":"綠園二街","SECT":" ","MAREA":" ","LANE":" ","ALLEY":" ","HOUSE_NO":"１３號","E_COORD97":177293.43156200001,"N_COORD97":2552726.9663200001,"ADDRESS":"綠園二街１３號","OBJECTID":6051},"geometry":{"x":177293.43156200089,"y":2552726.9663200025}},{"attributes":{"ID":6052,"DIS_CODE":0,"TOWNNAME":"永康區","LI":"\u25A0行里","LIN":" ","STREET":"\u25A0和街","SECT":" ","MAREA":" ","LANE":"１６６巷","ALLEY":" ","HOUSE_NO":"２３號","E_COORD97":172033.89999999999,"N_COORD97":2547892.25,"ADDRESS":"\u25A0和街１６６巷２３號","OBJECTID":6052},"geometry":{"x":172033.9000000013,"y":2547892.2500000019}},{"attributes":{"ID":6053,"DIS_CODE":0,"TOWNNAME":"永康區","LI":"\u25A0行里","LIN":" ","STREET":"\u25A0和街","SECT":" ","MAREA":" ","LANE":"２５６巷","ALLEY":" ","HOUSE_NO":"１５號","E_COORD97":171685.57000000001,"N_COORD97":2548425.7400000002,"ADDRESS":"\u25A0和街２５６巷１５號","OBJECTID":6053},"geometry":{"x":171685.57000000123,"y":2548425.7400000002}},{"attributes":{"ID":6054,"DIS_CODE":0,"TOWNNAME":"新市區","LI":"新和里","LIN":"23鄰","STREET":"綠園二街","SECT":" ","MAREA":" ","LANE":" ","ALLEY":" ","HOUSE_NO":"１１號","E_COORD97":177299.575538,"N_COORD97":2552727.3896499998,"ADDRESS":"綠園二街１１號","OBJECTID":6054},"geometry":{"x":177299.57553800102,"y":2552727.389653001}},{"attributes":{"ID":6055,"DIS_CODE":0,"TOWNNAME":"六甲區","LI":"二甲里","LIN":"18鄰","STREET":"和平街","SECT":" ","MAREA":" ","LANE":"３４７巷","ALLEY":" ","HOUSE_NO":"２９９號","E_COORD97":181863.281973,"N_COORD97":2570034.7963,"ADDRESS":"和平街３４７巷２９９號","OBJECTID":6055},"geometry":{"x":181863.28197300062,"y":2570034.7962960023}},{"attributes":{"ID":6056,"DIS_CODE":0,"TOWNNAME":"新營區","LI":"永生里","LIN":"8鄰","STREET":"富源街","SECT":" ","MAREA":" ","LANE":" ","ALLEY":" ","HOUSE_NO":"２９號之２","E_COORD97":179996.569299,"N_COORD97":2577950.55376,"ADDRESS":"富源街２９號之２","OBJECTID":6056},"geometry":{"x":179996.56929900125,"y":2577950.5537589993}},{"attributes":{"ID":6057,"DIS_CODE":0,"TOWNNAME":"新市區","LI":"新和里","LIN":"23鄰","STREET":"綠園二街","SECT":" ","MAREA":" ","LANE":" ","ALLEY":" ","HOUSE_NO":"９號","E_COORD97":177305.93137499999,"N_COORD97":2552727.1779900002,"ADDRESS":"綠園二街９號","OBJECTID":6057},"geometry":{"x":177305.93137499969,"y":2552727.1779859997}},{"attributes":{"ID":6058,"DIS_CODE":0,"TOWNNAME":"新市區","LI":"新和里","LIN":"23鄰","STREET":"綠園二街","SECT":" ","MAREA":" ","LANE":" ","ALLEY":" ","HOUSE_NO":"７號","E_COORD97":177311.65162799999,"N_COORD97":2552727.1779900002,"ADDRESS":"綠園二街７號","OBJECTID":6058},"geometry":{"x":177311.65162799973,"y":2552727.1779859997}},{"attributes":{"ID":6059,"DIS_CODE":0,"TOWNNAME":"永康區","LI":"王行里","LIN":"16鄰","STREET":"永科環路","SECT":" ","MAREA":" ","LANE":" ","ALLEY":" ","HOUSE_NO":"１０５號","E_COORD97":176174.74705100001,"N_COORD97":2548333.7842000001,"ADDRESS":"永科環路１０５號","OBJECTID":6059},"geometry":{"x":176174.74705099966,"y":2548333.7841960024}},{"attributes":{"ID":6060,"DIS_CODE":0,"TOWNNAME":"新市區","LI":"新和里","LIN":"23鄰","STREET":"綠園二街","SECT":" ","MAREA":" ","LANE":" ","ALLEY":" ","HOUSE_NO":"５號","E_COORD97":177319.70235499999,"N_COORD97":2552727.6013199999,"ADDRESS":"綠園二街５號","OBJECTID":6060},"geometry":{"x":177319.70235500019,"y":2552727.601319002}},{"attributes":{"ID":6061,"DIS_CODE":0,"TOWNNAME":"新市區","LI":"新和里","LIN":"23鄰","STREET":"綠園二街","SECT":" ","MAREA":" ","LANE":" ","ALLEY":" ","HOUSE_NO":"３號","E_COORD97":177329.02424900001,"N_COORD97":2552727.6013199999,"ADDRESS":"綠園二街３號","OBJECTID":6061},"geometry":{"x":177329.02424900141,"y":2552727.601319002}},{"attributes":{"ID":6062,"DIS_CODE":0,"TOWNNAME":"山上區","LI":"豐德里","LIN":"1鄰","STREET":" ","SECT":" ","MAREA":"隙子口","LANE":" ","ALLEY":" ","HOUSE_NO":"２號之２２","E_COORD97":185353.87732100001,"N_COORD97":2553177.3102299999,"ADDRESS":"隙子口２號之２２","OBJECTID":6062},"geometry":{"x":185353.87732100114,"y":2553177.3102260027}},{"attributes":{"ID":6063,"DIS_CODE":0,"TOWNNAME":"仁德區","LI":"太子里","LIN":"39鄰","STREET":"太子路","SECT":" ","MAREA":" ","LANE":"８６巷","ALLEY":" ","HOUSE_NO":"７號","E_COORD97":174995.24297299999,"N_COORD97":2543724.71808,"ADDRESS":"太子路８６巷７號","OBJECTID":6063},"geometry":{"x":174995.24297300074,"y":2543724.7180830017}},{"attributes":{"ID":6064,"DIS_CODE":0,"TOWNNAME":"仁德區","LI":"中洲里","LIN":"1鄰","STREET":" ","SECT":" ","MAREA":"中洲","LANE":" ","ALLEY":" ","HOUSE_NO":"１號之４","E_COORD97":173964.91821900001,"N_COORD97":2534419.2907699998,"ADDRESS":"中洲１號之４","OBJECTID":6064},"geometry":{"x":173964.9182190001,"y":2534419.2907669991}},{"attributes":{"ID":6065,"DIS_CODE":0,"TOWNNAME":"山上區","LI":"豐德里","LIN":"1鄰","STREET":" ","SECT":" ","MAREA":"隙子口","LANE":" ","ALLEY":" ","HOUSE_NO":"２之２１號","E_COORD97":185345.77335,"N_COORD97":2553181.2791599999,"ADDRESS":"隙子口２之２１號","OBJECTID":6065},"geometry":{"x":185345.77335000131,"y":2553181.2791559994}},{"attributes":{"ID":6066,"DIS_CODE":0,"TOWNNAME":"仁德區","LI":"太子里","LIN":"39鄰","STREET":"太子路","SECT":" ","MAREA":" ","LANE":"８６巷","ALLEY":"９弄","HOUSE_NO":"１號","E_COORD97":174954.37097799999,"N_COORD97":2543722.8130800002,"ADDRESS":"太子路８６巷９弄１號","OBJECTID":6066},"geometry":{"x":174954.37097800057,"y":2543722.8130839989}},{"attributes":{"ID":6067,"DIS_CODE":0,"TOWNNAME":"山上區","LI":"豐德里","LIN":"1鄰","STREET":" ","SECT":" ","MAREA":"隙子口","LANE":" ","ALLEY":" ","HOUSE_NO":"２號之２１","E_COORD97":185346.780203,"N_COORD97":2553177.7335600001,"ADDRESS":"隙子口２號之２１","OBJECTID":6067},"geometry":{"x":185346.78020299971,"y":2553177.7335599996}},{"attributes":{"ID":6068,"DIS_CODE":0,"TOWNNAME":"新營區","LI":"永生里","LIN":"9鄰","STREET":"新進路","SECT":" ","MAREA":" ","LANE":" ","ALLEY":" ","HOUSE_NO":"２７８號","E_COORD97":180084.28852999999,"N_COORD97":2577879.75129,"ADDRESS":"新進路２７８號","OBJECTID":6068},"geometry":{"x":180084.28853000049,"y":2577879.751290001}},{"attributes":{"ID":6069,"DIS_CODE":0,"TOWNNAME":"仁德區","LI":"中洲里","LIN":"1鄰","STREET":" ","SECT":" ","MAREA":"中洲","LANE":" ","ALLEY":" ","HOUSE_NO":"１號之６０","E_COORD97":173918.520036,"N_COORD97":2534384.3657900002,"ADDRESS":"中洲１號之６０","OBJECTID":6069},"geometry":{"x":173918.52003600076,"y":2534384.3657860048}},{"attributes":{"ID":6070,"DIS_CODE":0,"TOWNNAME":"安南區","LI":"學東里","LIN":"16鄰","STREET":"安明路","SECT":"四段","MAREA":" ","LANE":" ","ALLEY":" ","HOUSE_NO":"１２６３號","E_COORD97":161404.20406399999,"N_COORD97":2553317.4009600002,"ADDRESS":"安明路四段１２６３號","OBJECTID":6070},"geometry":{"x":161404.2040640004,"y":2553317.4009590019}},{"attributes":{"ID":6071,"DIS_CODE":0,"TOWNNAME":"安南區","LI":"公親里","LIN":"9鄰","STREET":"公學路","SECT":"一段","MAREA":" ","LANE":" ","ALLEY":" ","HOUSE_NO":"１９７號","E_COORD97":168049.98678400001,"N_COORD97":2553046.56171,"ADDRESS":"公學路一段１９７號","OBJECTID":6071},"geometry":{"x":168049.98678400181,"y":2553046.5617140029}},{"attributes":{"ID":6072,"DIS_CODE":0,"TOWNNAME":"新營區","LI":"永生里","LIN":"9鄰","STREET":"中興路","SECT":" ","MAREA":" ","LANE":" ","ALLEY":" ","HOUSE_NO":"３２號之１","E_COORD97":180126.13,"N_COORD97":2577908.8199999998,"ADDRESS":"中興路３２號之１","OBJECTID":6072},"geometry":{"x":180126.13000000175,"y":2577908.8200000003}},{"attributes":{"ID":6073,"DIS_CODE":0,"TOWNNAME":"新市區","LI":"新和里","LIN":"23鄰","STREET":"綠園二街","SECT":" ","MAREA":" ","LANE":" ","ALLEY":" ","HOUSE_NO":"２３號","E_COORD97":177267.37263100001,"N_COORD97":2552726.54299,"ADDRESS":"綠園二街２３號","OBJECTID":6073},"geometry":{"x":177267.37263100129,"y":2552726.542986}},{"attributes":{"ID":6074,"DIS_CODE":0,"TOWNNAME":"新營區","LI":"永生里","LIN":"8鄰","STREET":"富源街","SECT":" ","MAREA":" ","LANE":" ","ALLEY":" ","HOUSE_NO":"２７號","E_COORD97":180012.88423,"N_COORD97":2577963.4654199998,"ADDRESS":"富源街２７號","OBJECTID":6074},"geometry":{"x":180012.8842300009,"y":2577963.4654190037}},{"attributes":{"ID":6075,"DIS_CODE":0,"TOWNNAME":"新營區","LI":"永生里","LIN":"9鄰","STREET":"中興路","SECT":" ","MAREA":" ","LANE":" ","ALLEY":" ","HOUSE_NO":"３２號之２","E_COORD97":180125.06,"N_COORD97":2577899.9700000002,"ADDRESS":"中興路３２號之２","OBJECTID":6075},"geometry":{"x":180125.06000000052,"y":2577899.9700000025}},{"attributes":{"ID":6076,"DIS_CODE":0,"TOWNNAME":"新市區","LI":"大洲里","LIN":"9鄰","STREET":" ","SECT":" ","MAREA":"大洲","LANE":" ","ALLEY":" ","HOUSE_NO":"８５之３０號","E_COORD97":174335.465092,"N_COORD97":2551820.8218100001,"ADDRESS":"大洲８５之３０號","OBJECTID":6076},"geometry":{"x":174335.46509199962,"y":2551820.8218089994}},{"attributes":{"ID":6077,"DIS_CODE":0,"TOWNNAME":"新市區","LI":"社內里","LIN":"21鄰","STREET":" ","SECT":" ","MAREA":"社內","LANE":" ","ALLEY":" ","HOUSE_NO":"２１８之５號","E_COORD97":175712.24033100001,"N_COORD97":2553464.8654399998,"ADDRESS":"社內２１８之５號","OBJECTID":6077},"geometry":{"x":175712.24033100158,"y":2553464.8654380012}},{"attributes":{"ID":6078,"DIS_CODE":0,"TOWNNAME":"新市區","LI":"社內里","LIN":"7鄰","STREET":" ","SECT":" ","MAREA":"社內","LANE":" ","ALLEY":" ","HOUSE_NO":"７２之６１號","E_COORD97":176600.106574,"N_COORD97":2552911.2515699998,"ADDRESS":"社內７２之６１號","OBJECTID":6078},"geometry":{"x":176600.10657399986,"y":2552911.2515710015}},{"attributes":{"ID":6079,"DIS_CODE":0,"TOWNNAME":"新營區","LI":"永生里","LIN":"9鄰","STREET":"康樂街","SECT":" ","MAREA":" ","LANE":" ","ALLEY":" ","HOUSE_NO":"１１號","E_COORD97":180026.65657399999,"N_COORD97":2577907.2679499998,"ADDRESS":"康樂街１１號","OBJECTID":6079},"geometry":{"x":180026.65657399967,"y":2577907.2679490019}},{"attributes":{"ID":6080,"DIS_CODE":0,"TOWNNAME":"安南區","LI":"學東里","LIN":"17鄰","STREET":"安明路","SECT":"四段","MAREA":" ","LANE":"１２７５巷","ALLEY":" ","HOUSE_NO":"３號","E_COORD97":161402.50931600001,"N_COORD97":2553362.9092700002,"ADDRESS":"安明路四段１２７５巷３號","OBJECTID":6080},"geometry":{"x":161402.50931600109,"y":2553362.9092680011}},{"attributes":{"ID":6081,"DIS_CODE":0,"TOWNNAME":"永康區","LI":"王行里","LIN":"16鄰","STREET":"永科南路","SECT":" ","MAREA":" ","LANE":" ","ALLEY":" ","HOUSE_NO":"１６３號","E_COORD97":176105.650929,"N_COORD97":2548130.6901400001,"ADDRESS":"永科南路１６３號","OBJECTID":6081},"geometry":{"x":176105.65092900116,"y":2548130.6901390012}},{"attributes":{"ID":6082,"DIS_CODE":0,"TOWNNAME":"新市區","LI":"社內里","LIN":"13鄰","STREET":" ","SECT":" ","MAREA":"社內","LANE":" ","ALLEY":" ","HOUSE_NO":"１３９之１號","E_COORD97":176333.360189,"N_COORD97":2552658.2042100001,"ADDRESS":"社內１３９之１號","OBJECTID":6082},"geometry":{"x":176333.36018900014,"y":2552658.2042070013}},{"attributes":{"ID":6083,"DIS_CODE":0,"TOWNNAME":"白河區","LI":"秀祐里","LIN":"3鄰","STREET":"三民路","SECT":" ","MAREA":" ","LANE":" ","ALLEY":" ","HOUSE_NO":"８０５號","E_COORD97":188660.121323,"N_COORD97":2583799.5837900001,"ADDRESS":"三民路８０５號","OBJECTID":6083},"geometry":{"x":188660.12132299971,"y":2583799.583788}},{"attributes":{"ID":6084,"DIS_CODE":0,"TOWNNAME":"後壁區","LI":"嘉民里","LIN":"10鄰","STREET":" ","SECT":" ","MAREA":" ","LANE":" ","ALLEY":" ","HOUSE_NO":"２１４之７號","E_COORD97":186483.59206699999,"N_COORD97":2586768.3248899998,"ADDRESS":"２１４之７號","OBJECTID":6084},"geometry":{"x":186483.59206699952,"y":2586768.3248880003}},{"attributes":{"ID":6085,"DIS_CODE":0,"TOWNNAME":"新市區","LI":"社內里","LIN":"8鄰","STREET":" ","SECT":" ","MAREA":"社內","LANE":" ","ALLEY":" ","HOUSE_NO":"７５之５２號","E_COORD97":176732.36788199999,"N_COORD97":2553503.9179199999,"ADDRESS":"社內７５之５２號","OBJECTID":6085},"geometry":{"x":176732.36788200121,"y":2553503.9179170001}},{"attributes":{"ID":6086,"DIS_CODE":0,"TOWNNAME":"仁德區","LI":"太子里","LIN":"39鄰","STREET":"太子路","SECT":" ","MAREA":" ","LANE":"８６巷","ALLEY":" ","HOUSE_NO":"８號","E_COORD97":175036.95000000001,"N_COORD97":2543645.5099999998,"ADDRESS":"太子路８６巷８號","OBJECTID":6086},"geometry":{"x":175036.95000000205,"y":2543645.5100000016}},{"attributes":{"ID":6087,"DIS_CODE":0,"TOWNNAME":"安南區","LI":"學東里","LIN":"5鄰","STREET":"公學路","SECT":"六段","MAREA":" ","LANE":"４６９巷","ALLEY":"５２弄","HOUSE_NO":"３０號","E_COORD97":162514.899301,"N_COORD97":2553116.5293999999,"ADDRESS":"公學路六段４６９巷５２弄３０號","OBJECTID":6087},"geometry":{"x":162514.89930099994,"y":2553116.5294010025}},{"attributes":{"ID":6088,"DIS_CODE":0,"TOWNNAME":"仁德區","LI":"太子里","LIN":"39鄰","STREET":"太子路","SECT":" ","MAREA":" ","LANE":"８６巷","ALLEY":" ","HOUSE_NO":"６號","E_COORD97":175043.51000000001,"N_COORD97":2543626.7599999998,"ADDRESS":"太子路８６巷６號","OBJECTID":6088},"geometry":{"x":175043.51000000071,"y":2543626.7600000016}},{"attributes":{"ID":6089,"DIS_CODE":0,"TOWNNAME":"白河區","LI":"秀祐里","LIN":"1鄰","STREET":"三民路","SECT":" ","MAREA":" ","LANE":" ","ALLEY":" ","HOUSE_NO":"６６８之３號","E_COORD97":189278.98605599999,"N_COORD97":2583696.8196800002,"ADDRESS":"三民路６６８之３號","OBJECTID":6089},"geometry":{"x":189278.98605600093,"y":2583696.819676999}},{"attributes":{"ID":6090,"DIS_CODE":0,"TOWNNAME":"仁德區","LI":"太子里","LIN":"39鄰","STREET":"太子路","SECT":" ","MAREA":" ","LANE":"８６巷","ALLEY":" ","HOUSE_NO":"４號","E_COORD97":175047.85999999999,"N_COORD97":2543606.5,"ADDRESS":"太子路８６巷４號","OBJECTID":6090},"geometry":{"x":175047.8600000022,"y":2543606.5}},{"attributes":{"ID":6091,"DIS_CODE":0,"TOWNNAME":"永康區","LI":"\u25A0行里","LIN":"43鄰","STREET":"正南三路","SECT":" ","MAREA":" ","LANE":" ","ALLEY":" ","HOUSE_NO":"１０２號","E_COORD97":171710.628891,"N_COORD97":2547642.9045699998,"ADDRESS":"正南三路１０２號","OBJECTID":6091},"geometry":{"x":171710.62889100052,"y":2547642.9045690019}},{"attributes":{"ID":6092,"DIS_CODE":0,"TOWNNAME":"安南區","LI":"學東里","LIN":"8鄰","STREET":"公學路","SECT":"六段","MAREA":" ","LANE":" ","ALLEY":" ","HOUSE_NO":"４８０號","E_COORD97":162669.75686699999,"N_COORD97":2553219.8226800002,"ADDRESS":"公學路六段４８０號","OBJECTID":6092},"geometry":{"x":162669.7568669999,"y":2553219.8226780016}},{"attributes":{"ID":6093,"DIS_CODE":0,"TOWNNAME":"仁德區","LI":"太子里","LIN":"39鄰","STREET":"太子路","SECT":" ","MAREA":" ","LANE":"８６巷","ALLEY":" ","HOUSE_NO":"２號","E_COORD97":175051.36255200001,"N_COORD97":2543593.3789900001,"ADDRESS":"太子路８６巷２號","OBJECTID":6093},"geometry":{"x":175051.36255200114,"y":2543593.3789869994}},{"attributes":{"ID":6094,"DIS_CODE":0,"TOWNNAME":"永康區","LI":"\u25A0行里","LIN":"43鄰","STREET":"正南三路","SECT":" ","MAREA":" ","LANE":" ","ALLEY":" ","HOUSE_NO":"１０６號","E_COORD97":171716.56352699999,"N_COORD97":2547647.7729000002,"ADDRESS":"正南三路１０６號","OBJECTID":6094},"geometry":{"x":171716.56352700107,"y":2547647.772899}},{"attributes":{"ID":6095,"DIS_CODE":0,"TOWNNAME":"安南區","LI":"學東里","LIN":"8鄰","STREET":"公學路","SECT":"六段","MAREA":" ","LANE":" ","ALLEY":" ","HOUSE_NO":"４８６號","E_COORD97":162657.469946,"N_COORD97":2553219.39934,"ADDRESS":"公學路六段４８６號","OBJECTID":6095},"geometry":{"x":162657.46994599979,"y":2553219.3993449993}},{"attributes":{"ID":6096,"DIS_CODE":0,"TOWNNAME":"永康區","LI":"王行里","LIN":"16鄰","STREET":"永科南路","SECT":" ","MAREA":" ","LANE":" ","ALLEY":" ","HOUSE_NO":"１６９號","E_COORD97":176070.67896600001,"N_COORD97":2548129.20847,"ADDRESS":"永科南路１６９號","OBJECTID":6096},"geometry":{"x":176070.67896600161,"y":2548129.2084730007}},{"attributes":{"ID":6097,"DIS_CODE":0,"TOWNNAME":"新市區","LI":"社內里","LIN":"7鄰","STREET":" ","SECT":" ","MAREA":"社內","LANE":" ","ALLEY":" ","HOUSE_NO":"７２之５９號","E_COORD97":176641.14040599999,"N_COORD97":2552913.1565700001,"ADDRESS":"社內７２之５９號","OBJECTID":6097},"geometry":{"x":176641.14040600043,"y":2552913.1565690003}},{"attributes":{"ID":6098,"DIS_CODE":0,"TOWNNAME":"龍崎區","LI":"龍船里","LIN":"9鄰","STREET":" ","SECT":" ","MAREA":"埤子","LANE":" ","ALLEY":" ","HOUSE_NO":"３號","E_COORD97":190944.930177,"N_COORD97":2539279.6521100001,"ADDRESS":"埤子３號","OBJECTID":6098},"geometry":{"x":190944.93017700035,"y":2539279.6521150041}},{"attributes":{"ID":6099,"DIS_CODE":0,"TOWNNAME":"安南區","LI":"學東里","LIN":"9鄰","STREET":"公學路","SECT":"六段","MAREA":" ","LANE":" ","ALLEY":" ","HOUSE_NO":"５９２號","E_COORD97":162499.011042,"N_COORD97":2553222.3626799998,"ADDRESS":"公學路六段５９２號","OBJECTID":6099},"geometry":{"x":162499.01104199979,"y":2553222.3626770005}},{"attributes":{"ID":6100,"DIS_CODE":0,"TOWNNAME":"龍崎區","LI":"龍船里","LIN":"9鄰","STREET":" ","SECT":" ","MAREA":"埤子","LANE":" ","ALLEY":" ","HOUSE_NO":"１之１號","E_COORD97":190944.930177,"N_COORD97":2539279.6521100001,"ADDRESS":"埤子１之１號","OBJECTID":6100},"geometry":{"x":190944.93017700035,"y":2539279.6521150041}},{"attributes":{"ID":6101,"DIS_CODE":0,"TOWNNAME":"新市區","LI":"社內里","LIN":"7鄰","STREET":" ","SECT":" ","MAREA":"社內","LANE":" ","ALLEY":" ","HOUSE_NO":"６８之５號","E_COORD97":176645.27026300001,"N_COORD97":2552770.4933099998,"ADDRESS":"社內６８之５號","OBJECTID":6101},"geometry":{"x":176645.27026300132,"y":2552770.4933129996}},{"attributes":{"ID":6102,"DIS_CODE":0,"TOWNNAME":"仁德區","LI":"太子里","LIN":"39鄰","STREET":"太子路","SECT":" ","MAREA":" ","LANE":"８６巷","ALLEY":" ","HOUSE_NO":"４２號","E_COORD97":175002.019677,"N_COORD97":2543804.0930400002,"ADDRESS":"太子路８６巷４２號","OBJECTID":6102},"geometry":{"x":175002.01967700198,"y":2543804.0930400025}},{"attributes":{"ID":6103,"DIS_CODE":0,"TOWNNAME":"龍崎區","LI":"龍船里","LIN":"9鄰","STREET":" ","SECT":" ","MAREA":"埤子","LANE":" ","ALLEY":" ","HOUSE_NO":"１之１號","E_COORD97":190954.46176400001,"N_COORD97":2539236.0488,"ADDRESS":"埤子１之１號","OBJECTID":6103},"geometry":{"x":190954.46176400036,"y":2539236.048805004}},{"attributes":{"ID":6104,"DIS_CODE":0,"TOWNNAME":"安南區","LI":"學東里","LIN":"9鄰","STREET":"公學路","SECT":"六段","MAREA":" ","LANE":"６４２巷","ALLEY":" ","HOUSE_NO":"８之１０號","E_COORD97":162306.23349700001,"N_COORD97":2553293.27097,"ADDRESS":"公學路六段６４２巷８之１０號","OBJECTID":6104},"geometry":{"x":162306.2334970003,"y":2553293.2709720004}},{"attributes":{"ID":6105,"DIS_CODE":0,"TOWNNAME":"安南區","LI":"學東里","LIN":"9鄰","STREET":"公學路","SECT":"六段","MAREA":" ","LANE":"６４２巷","ALLEY":" ","HOUSE_NO":"３２號","E_COORD97":162292.88735899999,"N_COORD97":2553314.6492900001,"ADDRESS":"公學路六段６４２巷３２號","OBJECTID":6105},"geometry":{"x":162292.88735899981,"y":2553314.6492940001}},{"attributes":{"ID":6106,"DIS_CODE":0,"TOWNNAME":"永康區","LI":"六合里","LIN":"3鄰","STREET":"中山南路","SECT":" ","MAREA":" ","LANE":" ","ALLEY":" ","HOUSE_NO":"１０６號","E_COORD97":170995.54943799999,"N_COORD97":2545917.5811299998,"ADDRESS":"中山南路１０６號","OBJECTID":6106},"geometry":{"x":170995.54943800159,"y":2545917.5811260026}},{"attributes":{"ID":6107,"DIS_CODE":0,"TOWNNAME":"安南區","LI":"學東里","LIN":"9鄰","STREET":"公學路","SECT":"六段","MAREA":" ","LANE":"６４２巷","ALLEY":" ","HOUSE_NO":"３０號","E_COORD97":162291.19261200001,"N_COORD97":2553310.8393000001,"ADDRESS":"公學路六段６４２巷３０號","OBJECTID":6107},"geometry":{"x":162291.19261199981,"y":2553310.8392960001}},{"attributes":{"ID":6108,"DIS_CODE":0,"TOWNNAME":"白河區","LI":"永安里","LIN":"16鄰","STREET":"國泰路","SECT":" ","MAREA":" ","LANE":" ","ALLEY":" ","HOUSE_NO":"２７２號","E_COORD97":189957.59740100001,"N_COORD97":2583408.1065000002,"ADDRESS":"國泰路２７２號","OBJECTID":6108},"geometry":{"x":189957.59740099963,"y":2583408.1064990014}},{"attributes":{"ID":6109,"DIS_CODE":0,"TOWNNAME":"安南區","LI":"理想里","LIN":"13鄰","STREET":"海佃路","SECT":"二段","MAREA":" ","LANE":"１０２巷","ALLEY":" ","HOUSE_NO":"２１號","E_COORD97":167081.440821,"N_COORD97":2548034.3229499999,"ADDRESS":"海佃路二段１０２巷２１號","OBJECTID":6109},"geometry":{"x":167081.44082100037,"y":2548034.3229489978}},{"attributes":{"ID":6110,"DIS_CODE":0,"TOWNNAME":"安南區","LI":"理想里","LIN":"13鄰","STREET":"海佃路","SECT":"二段","MAREA":" ","LANE":"１０２巷","ALLEY":" ","HOUSE_NO":"２７號","E_COORD97":167099.47193,"N_COORD97":2548024.6938,"ADDRESS":"海佃路二段１０２巷２７號","OBJECTID":6110},"geometry":{"x":167099.47193000093,"y":2548024.6938039977}},{"attributes":{"ID":6111,"DIS_CODE":0,"TOWNNAME":"關廟區","LI":"北花里","LIN":"5鄰","STREET":"四維街","SECT":" ","MAREA":" ","LANE":"３５０巷","ALLEY":" ","HOUSE_NO":"３６號","E_COORD97":182002.15091999999,"N_COORD97":2540229.2828099998,"ADDRESS":"四維街３５０巷３６號","OBJECTID":6111},"geometry":{"x":182002.15091999993,"y":2540229.2828140017}},{"attributes":{"ID":6112,"DIS_CODE":0,"TOWNNAME":"安南區","LI":"學東里","LIN":"10鄰","STREET":"公學路","SECT":"六段","MAREA":" ","LANE":"６６０巷","ALLEY":" ","HOUSE_NO":"３７號","E_COORD97":162238.01990399999,"N_COORD97":2553396.1409200002,"ADDRESS":"公學路六段６６０巷３７號","OBJECTID":6112},"geometry":{"x":162238.01990399975,"y":2553396.1409160011}},{"attributes":{"ID":6113,"DIS_CODE":0,"TOWNNAME":"新市區","LI":"新和里","LIN":"21鄰","STREET":"中正路","SECT":" ","MAREA":" ","LANE":"６６巷","ALLEY":" ","HOUSE_NO":"２１號","E_COORD97":177504.48345999999,"N_COORD97":2552416.1626400002,"ADDRESS":"中正路６６巷２１號","OBJECTID":6113},"geometry":{"x":177504.48346000072,"y":2552416.1626360007}},{"attributes":{"ID":6114,"DIS_CODE":0,"TOWNNAME":"白河區","LI":"永安里","LIN":"15鄰","STREET":"國泰路","SECT":" ","MAREA":" ","LANE":" ","ALLEY":" ","HOUSE_NO":"３２５號","E_COORD97":190011.83546,"N_COORD97":2583508.5422800002,"ADDRESS":"國泰路３２５號","OBJECTID":6114},"geometry":{"x":190011.83546000067,"y":2583508.5422790013}},{"attributes":{"ID":6115,"DIS_CODE":0,"TOWNNAME":"關廟區","LI":"北花里","LIN":"5鄰","STREET":"四維街","SECT":" ","MAREA":" ","LANE":"３５０巷","ALLEY":" ","HOUSE_NO":"３８號","E_COORD97":182006.602056,"N_COORD97":2540228.64781,"ADDRESS":"四維街３５０巷３８號","OBJECTID":6115},"geometry":{"x":182006.60205599945,"y":2540228.6478150021}},{"attributes":{"ID":6116,"DIS_CODE":0,"TOWNNAME":"安南區","LI":"學東里","LIN":"11鄰","STREET":"公學路","SECT":"六段","MAREA":" ","LANE":"６７２巷","ALLEY":" ","HOUSE_NO":"２號","E_COORD97":162197.76964799999,"N_COORD97":2553291.7893099999,"ADDRESS":"公學路六段６７２巷２號","OBJECTID":6116},"geometry":{"x":162197.76964799967,"y":2553291.7893059999}},{"attributes":{"ID":6117,"DIS_CODE":0,"TOWNNAME":"新營區","LI":"永生里","LIN":"9鄰","STREET":"康樂街","SECT":" ","MAREA":" ","LANE":" ","ALLEY":" ","HOUSE_NO":"１號之１","E_COORD97":180104.41,"N_COORD97":2577924.4199999999,"ADDRESS":"康樂街１號之１","OBJECTID":6117},"geometry":{"x":180104.41000000108,"y":2577924.4199999999}},{"attributes":{"ID":6118,"DIS_CODE":0,"TOWNNAME":"白河區","LI":"永安里","LIN":"15鄰","STREET":"國泰路","SECT":" ","MAREA":" ","LANE":"３２３巷","ALLEY":" ","HOUSE_NO":"２號","E_COORD97":189997.85221099999,"N_COORD97":2583516.6914400002,"ADDRESS":"國泰路３２３巷２號","OBJECTID":6118},"geometry":{"x":189997.85221100133,"y":2583516.6914409995}},{"attributes":{"ID":6119,"DIS_CODE":0,"TOWNNAME":"安南區","LI":"學東里","LIN":"9鄰","STREET":"公學路","SECT":"六段","MAREA":" ","LANE":" ","ALLEY":" ","HOUSE_NO":"６０４號","E_COORD97":162413.002599,"N_COORD97":2553235.6976700001,"ADDRESS":"公學路六段６０４號","OBJECTID":6119},"geometry":{"x":162413.00259900093,"y":2553235.6976700034}},{"attributes":{"ID":6120,"DIS_CODE":0,"TOWNNAME":"新營區","LI":"永生里","LIN":"9鄰","STREET":"康樂街","SECT":" ","MAREA":" ","LANE":" ","ALLEY":" ","HOUSE_NO":"１號之３","E_COORD97":180095.19,"N_COORD97":2577923.3599999999,"ADDRESS":"康樂街１號之３","OBJECTID":6120},"geometry":{"x":180095.19000000041,"y":2577923.3599999994}},{"attributes":{"ID":6121,"DIS_CODE":0,"TOWNNAME":"新市區","LI":"新和里","LIN":"21鄰","STREET":"中正路","SECT":" ","MAREA":" ","LANE":"６６巷","ALLEY":" ","HOUSE_NO":"１７號","E_COORD97":177497.490739,"N_COORD97":2552414.25764,"ADDRESS":"中正路６６巷１７號","OBJECTID":6121},"geometry":{"x":177497.4907389991,"y":2552414.2576370016}},{"attributes":{"ID":6122,"DIS_CODE":0,"TOWNNAME":"白河區","LI":"永安里","LIN":"15鄰","STREET":"國泰路","SECT":" ","MAREA":" ","LANE":"３２３巷","ALLEY":" ","HOUSE_NO":"６號","E_COORD97":189991.708055,"N_COORD97":2583516.79727,"ADDRESS":"國泰路３２３巷６號","OBJECTID":6122},"geometry":{"x":189991.70805500075,"y":2583516.7972740009}},{"attributes":{"ID":6123,"DIS_CODE":0,"TOWNNAME":"新營區","LI":"永生里","LIN":"9鄰","STREET":"康樂街","SECT":" ","MAREA":" ","LANE":" ","ALLEY":" ","HOUSE_NO":"１號之５","E_COORD97":180088.10241799999,"N_COORD97":2577918.0629400001,"ADDRESS":"康樂街１號之５","OBJECTID":6123},"geometry":{"x":180088.10241800081,"y":2577918.0629430003}},{"attributes":{"ID":6124,"DIS_CODE":0,"TOWNNAME":"白河區","LI":"永安里","LIN":"15鄰","STREET":"國泰路","SECT":" ","MAREA":" ","LANE":"３２３巷","ALLEY":" ","HOUSE_NO":"８號","E_COORD97":189987.89444199999,"N_COORD97":2583516.2681100001,"ADDRESS":"國泰路３２３巷８號","OBJECTID":6124},"geometry":{"x":189987.89444200229,"y":2583516.268108001}},{"attributes":{"ID":6125,"DIS_CODE":0,"TOWNNAME":"白河區","LI":"永安里","LIN":"15鄰","STREET":"國泰路","SECT":" ","MAREA":" ","LANE":"３２３巷","ALLEY":" ","HOUSE_NO":"１０號","E_COORD97":189982.597756,"N_COORD97":2583516.3739399998,"ADDRESS":"國泰路３２３巷１０號","OBJECTID":6125},"geometry":{"x":189982.59775600117,"y":2583516.3739410024}},{"attributes":{"ID":6126,"DIS_CODE":0,"TOWNNAME":"永康區","LI":"\u25A0行里","LIN":"34鄰","STREET":"三村一街","SECT":" ","MAREA":" ","LANE":" ","ALLEY":" ","HOUSE_NO":"８１號","E_COORD97":172034.32273099999,"N_COORD97":2549232.8084999998,"ADDRESS":"三村一街８１號","OBJECTID":6126},"geometry":{"x":172034.32273099944,"y":2549232.8085030019}},{"attributes":{"ID":6127,"DIS_CODE":0,"TOWNNAME":"白河區","LI":"永安里","LIN":"15鄰","STREET":"國泰路","SECT":" ","MAREA":" ","LANE":"３２３巷","ALLEY":" ","HOUSE_NO":"１２號","E_COORD97":189977.72480600001,"N_COORD97":2583515.6331099998,"ADDRESS":"國泰路３２３巷１２號","OBJECTID":6127},"geometry":{"x":189977.72480599955,"y":2583515.6331080012}},{"attributes":{"ID":6128,"DIS_CODE":0,"TOWNNAME":"白河區","LI":"永安里","LIN":"15鄰","STREET":"國泰路","SECT":" ","MAREA":" ","LANE":"３２３巷","ALLEY":" ","HOUSE_NO":"１６號","E_COORD97":189973.48745700001,"N_COORD97":2583515.9506100002,"ADDRESS":"國泰路３２３巷１６號","OBJECTID":6128},"geometry":{"x":189973.48745699972,"y":2583515.9506080002}},{"attributes":{"ID":6129,"DIS_CODE":0,"TOWNNAME":"白河區","LI":"永安里","LIN":"15鄰","STREET":"國泰路","SECT":" ","MAREA":" ","LANE":"３２３巷","ALLEY":" ","HOUSE_NO":"１８號","E_COORD97":189968.826374,"N_COORD97":2583515.2097700001,"ADDRESS":"國泰路３２３巷１８號","OBJECTID":6129},"geometry":{"x":189968.82637400087,"y":2583515.2097750027}},{"attributes":{"ID":6130,"DIS_CODE":0,"TOWNNAME":"白河區","LI":"永安里","LIN":"15鄰","STREET":"國泰路","SECT":" ","MAREA":" ","LANE":" ","ALLEY":" ","HOUSE_NO":"３２７號","E_COORD97":190015.437206,"N_COORD97":2583510.9764399999,"ADDRESS":"國泰路３２７號","OBJECTID":6130},"geometry":{"x":190015.43720600102,"y":2583510.9764440004}},{"attributes":{"ID":6131,"DIS_CODE":0,"TOWNNAME":"新市區","LI":"社內里","LIN":"4鄰","STREET":" ","SECT":" ","MAREA":"社內","LANE":" ","ALLEY":" ","HOUSE_NO":"５０之８０號","E_COORD97":176500.40759700001,"N_COORD97":2552067.5486900001,"ADDRESS":"社內５０之８０號","OBJECTID":6131},"geometry":{"x":176500.40759700164,"y":2552067.5486930013}},{"attributes":{"ID":6132,"DIS_CODE":0,"TOWNNAME":"安南區","LI":"理想里","LIN":"13鄰","STREET":"海佃路","SECT":"二段","MAREA":" ","LANE":"１０２巷","ALLEY":" ","HOUSE_NO":"２８號","E_COORD97":167070.398093,"N_COORD97":2548016.9951399998,"ADDRESS":"海佃路二段１０２巷２８號","OBJECTID":6132},"geometry":{"x":167070.39809300192,"y":2548016.9951400012}},{"attributes":{"ID":6133,"DIS_CODE":0,"TOWNNAME":"仁德區","LI":"太子里","LIN":"39鄰","STREET":"太子路","SECT":" ","MAREA":" ","LANE":"８６巷","ALLEY":" ","HOUSE_NO":"４９號","E_COORD97":174915.97409800001,"N_COORD97":2543855.4355000001,"ADDRESS":"太子路８６巷４９號","OBJECTID":6133},"geometry":{"x":174915.97409800068,"y":2543855.4354980011}},{"attributes":{"ID":6134,"DIS_CODE":0,"TOWNNAME":"永康區","LI":"\u25A0行里","LIN":"34鄰","STREET":"三村一街","SECT":" ","MAREA":" ","LANE":" ","ALLEY":" ","HOUSE_NO":"７５號","E_COORD97":172052.12664,"N_COORD97":2549233.8668399998,"ADDRESS":"三村一街７５號","OBJECTID":6134},"geometry":{"x":172052.12664000131,"y":2549233.866835}},{"attributes":{"ID":6135,"DIS_CODE":0,"TOWNNAME":"安南區","LI":"學東里","LIN":"2鄰","STREET":"公學路","SECT":"六段","MAREA":" ","LANE":"４６９巷","ALLEY":"３３弄","HOUSE_NO":"３０號","E_COORD97":162640.31062599999,"N_COORD97":2553042.2344399998,"ADDRESS":"公學路六段４６９巷３３弄３０號","OBJECTID":6135},"geometry":{"x":162640.31062600017,"y":2553042.234441001}},{"attributes":{"ID":6136,"DIS_CODE":0,"TOWNNAME":"永康區","LI":"\u25A0行里","LIN":"34鄰","STREET":"三村一街","SECT":" ","MAREA":" ","LANE":" ","ALLEY":" ","HOUSE_NO":"７７號","E_COORD97":172046.192003,"N_COORD97":2549234.0784999998,"ADDRESS":"三村一街７７號","OBJECTID":6136},"geometry":{"x":172046.19200300146,"y":2549234.0785020012}},{"attributes":{"ID":6137,"DIS_CODE":0,"TOWNNAME":"永康區","LI":"\u25A0行里","LIN":"34鄰","STREET":"三村一街","SECT":" ","MAREA":" ","LANE":" ","ALLEY":" ","HOUSE_NO":"７９號","E_COORD97":172040.68127,"N_COORD97":2549233.8668399998,"ADDRESS":"三村一街７９號","OBJECTID":6137},"geometry":{"x":172040.68126999959,"y":2549233.866835}},{"attributes":{"ID":6138,"DIS_CODE":0,"TOWNNAME":"新營區","LI":"永生里","LIN":"9鄰","STREET":"康樂街","SECT":" ","MAREA":" ","LANE":" ","ALLEY":" ","HOUSE_NO":"９號","E_COORD97":180044.24279799999,"N_COORD97":2577907.4796199999,"ADDRESS":"康樂街９號","OBJECTID":6138},"geometry":{"x":180044.24279800057,"y":2577907.4796159994}},{"attributes":{"ID":6139,"DIS_CODE":0,"TOWNNAME":"新營區","LI":"永生里","LIN":"9鄰","STREET":"康樂街","SECT":" ","MAREA":" ","LANE":" ","ALLEY":" ","HOUSE_NO":"９號之１","E_COORD97":180039.15762499999,"N_COORD97":2577910.4429500001,"ADDRESS":"康樂街９號之１","OBJECTID":6139},"geometry":{"x":180039.15762500092,"y":2577910.4429470021}},{"attributes":{"ID":6140,"DIS_CODE":0,"TOWNNAME":"新營區","LI":"永生里","LIN":"9鄰","STREET":"康樂街","SECT":" ","MAREA":" ","LANE":" ","ALLEY":" ","HOUSE_NO":"２６２號","E_COORD97":180115.858989,"N_COORD97":2577886.3129599998,"ADDRESS":"康樂街２６２號","OBJECTID":6140},"geometry":{"x":180115.85898900032,"y":2577886.3129600007}},{"attributes":{"ID":6141,"DIS_CODE":0,"TOWNNAME":"安南區","LI":"學東里","LIN":"5鄰","STREET":"公學路","SECT":"六段","MAREA":" ","LANE":"４６９巷","ALLEY":" ","HOUSE_NO":"４８號","E_COORD97":162649.261012,"N_COORD97":2553120.4981499999,"ADDRESS":"公學路六段４６９巷４８號","OBJECTID":6141},"geometry":{"x":162649.26101200096,"y":2553120.4981490001}},{"attributes":{"ID":6142,"DIS_CODE":0,"TOWNNAME":"仁德區","LI":"太子里","LIN":"39鄰","STREET":"太子路","SECT":" ","MAREA":" ","LANE":"６６巷","ALLEY":"２７弄","HOUSE_NO":"８號","E_COORD97":175235.961583,"N_COORD97":2543782.5163699999,"ADDRESS":"太子路６６巷２７弄８號","OBJECTID":6142},"geometry":{"x":175235.96158299968,"y":2543782.5163710006}},{"attributes":{"ID":6143,"DIS_CODE":0,"TOWNNAME":"安南區","LI":"學東里","LIN":"4鄰","STREET":"公學路","SECT":"六段","MAREA":" ","LANE":"４６９巷","ALLEY":" ","HOUSE_NO":"３２號","E_COORD97":162672.351949,"N_COORD97":2553126.0014800001,"ADDRESS":"公學路六段４６９巷３２號","OBJECTID":6143},"geometry":{"x":162672.35194900073,"y":2553126.0014790017}},{"attributes":{"ID":6144,"DIS_CODE":0,"TOWNNAME":"仁德區","LI":"太子里","LIN":"39鄰","STREET":"太子路","SECT":" ","MAREA":" ","LANE":"６６巷","ALLEY":"２７弄","HOUSE_NO":"３２號","E_COORD97":175133.040393,"N_COORD97":2543780.0822100001,"ADDRESS":"太子路６６巷２７弄３２號","OBJECTID":6144},"geometry":{"x":175133.0403930014,"y":2543780.0822060015}},{"attributes":{"ID":6145,"DIS_CODE":0,"TOWNNAME":"安南區","LI":"理想里","LIN":"13鄰","STREET":"海佃路","SECT":"二段","MAREA":" ","LANE":"１０２巷","ALLEY":" ","HOUSE_NO":"２９號","E_COORD97":167105.54180800001,"N_COORD97":2548021.8407200002,"ADDRESS":"海佃路二段１０２巷２９號","OBJECTID":6145},"geometry":{"x":167105.54180799983,"y":2548021.8407240026}},{"attributes":{"ID":6146,"DIS_CODE":0,"TOWNNAME":"新營區","LI":"永生里","LIN":"9鄰","STREET":"康樂街","SECT":" ","MAREA":" ","LANE":" ","ALLEY":" ","HOUSE_NO":"１號之２","E_COORD97":180100.31,"N_COORD97":2577923.3300000001,"ADDRESS":"康樂街１號之２","OBJECTID":6146},"geometry":{"x":180100.30999999959,"y":2577923.3300000019}},{"attributes":{"ID":6147,"DIS_CODE":0,"TOWNNAME":"安南區","LI":"淵中里","LIN":"2鄰","STREET":"安中路","SECT":"三段","MAREA":" ","LANE":"４０７巷","ALLEY":" ","HOUSE_NO":"２號","E_COORD97":165349.74776,"N_COORD97":2550022.81256,"ADDRESS":"安中路三段４０７巷２號","OBJECTID":6147},"geometry":{"x":165349.74776000064,"y":2550022.8125620019}},{"attributes":{"ID":6148,"DIS_CODE":0,"TOWNNAME":"安南區","LI":"淵中里","LIN":"2鄰","STREET":"安中路","SECT":"三段","MAREA":" ","LANE":"４０７巷","ALLEY":" ","HOUSE_NO":"６號","E_COORD97":165344.24181000001,"N_COORD97":2550019.4259000001,"ADDRESS":"安中路三段４０７巷６號","OBJECTID":6148},"geometry":{"x":165344.24180999864,"y":2550019.4258970004}},{"attributes":{"ID":6149,"DIS_CODE":0,"TOWNNAME":"安南區","LI":"淵中里","LIN":"2鄰","STREET":"安中路","SECT":"三段","MAREA":" ","LANE":"４０７巷","ALLEY":" ","HOUSE_NO":"８號","E_COORD97":165339.794697,"N_COORD97":2550016.46257,"ADDRESS":"安中路三段４０７巷８號","OBJECTID":6149},"geometry":{"x":165339.79469700158,"y":2550016.462565003}},{"attributes":{"ID":6150,"DIS_CODE":0,"TOWNNAME":"安南區","LI":"淵中里","LIN":"2鄰","STREET":"安中路","SECT":"三段","MAREA":" ","LANE":"４０７巷","ALLEY":" ","HOUSE_NO":"９號","E_COORD97":165341.700603,"N_COORD97":2550000.3759099999,"ADDRESS":"安中路三段４０７巷９號","OBJECTID":6150},"geometry":{"x":165341.70060299989,"y":2550000.3759070002}},{"attributes":{"ID":6151,"DIS_CODE":0,"TOWNNAME":"安南區","LI":"淵中里","LIN":"2鄰","STREET":"安中路","SECT":"三段","MAREA":" ","LANE":"４０７巷","ALLEY":" ","HOUSE_NO":"１號","E_COORD97":165361.39496100001,"N_COORD97":2550014.3459000001,"ADDRESS":"安中路三段４０７巷１號","OBJECTID":6151},"geometry":{"x":165361.39496100042,"y":2550014.345900001}},{"attributes":{"ID":6152,"DIS_CODE":0,"TOWNNAME":"新營區","LI":"永生里","LIN":"10鄰","STREET":"康樂街","SECT":" ","MAREA":" ","LANE":" ","ALLEY":" ","HOUSE_NO":"１２之１號","E_COORD97":180015.21493399999,"N_COORD97":2577927.1646099999,"ADDRESS":"康樂街１２之１號","OBJECTID":6152},"geometry":{"x":180015.21493400075,"y":2577927.1646049991}},{"attributes":{"ID":6153,"DIS_CODE":0,"TOWNNAME":"安南區","LI":"淵中里","LIN":"2鄰","STREET":"安中路","SECT":"三段","MAREA":" ","LANE":"４０７巷","ALLEY":" ","HOUSE_NO":"３號","E_COORD97":165355.88901099999,"N_COORD97":2550010.1125699999,"ADDRESS":"安中路三段４０７巷３號","OBJECTID":6153},"geometry":{"x":165355.88901100121,"y":2550010.1125689987}},{"attributes":{"ID":6154,"DIS_CODE":0,"TOWNNAME":"安南區","LI":"淵中里","LIN":"2鄰","STREET":"安中路","SECT":"三段","MAREA":" ","LANE":"４０７巷","ALLEY":" ","HOUSE_NO":"５號","E_COORD97":165351.23013099999,"N_COORD97":2550005.8792400002,"ADDRESS":"安中路三段４０７巷５號","OBJECTID":6154},"geometry":{"x":165351.23013100028,"y":2550005.879238002}},{"attributes":{"ID":6155,"DIS_CODE":0,"TOWNNAME":"安南區","LI":"淵中里","LIN":"2鄰","STREET":"安中路","SECT":"三段","MAREA":" ","LANE":"４０７巷","ALLEY":" ","HOUSE_NO":"７號","E_COORD97":165347.41832,"N_COORD97":2550002.91591,"ADDRESS":"安中路三段４０７巷７號","OBJECTID":6155},"geometry":{"x":165347.41832000017,"y":2550002.9159060046}},{"attributes":{"ID":6156,"DIS_CODE":0,"TOWNNAME":"關廟區","LI":"北花里","LIN":"5鄰","STREET":"四維街","SECT":" ","MAREA":" ","LANE":" ","ALLEY":" ","HOUSE_NO":"４１０號","E_COORD97":181886.20941499999,"N_COORD97":2540360.72774,"ADDRESS":"四維街４１０號","OBJECTID":6156},"geometry":{"x":181886.209414999,"y":2540360.7277430017}},{"attributes":{"ID":6157,"DIS_CODE":0,"TOWNNAME":"關廟區","LI":"北花里","LIN":"5鄰","STREET":"四維街","SECT":" ","MAREA":" ","LANE":" ","ALLEY":" ","HOUSE_NO":"４１６號","E_COORD97":181886.84529100001,"N_COORD97":2540366.65441,"ADDRESS":"四維街４１６號","OBJECTID":6157},"geometry":{"x":181886.84529100172,"y":2540366.654407002}},{"attributes":{"ID":6158,"DIS_CODE":0,"TOWNNAME":"新營區","LI":"永生里","LIN":"10鄰","STREET":"康樂街","SECT":" ","MAREA":" ","LANE":" ","ALLEY":" ","HOUSE_NO":"１２號之２","E_COORD97":180010.12976099999,"N_COORD97":2577926.31794,"ADDRESS":"康樂街１２號之２","OBJECTID":6158},"geometry":{"x":180010.12976100016,"y":2577926.3179390021}},{"attributes":{"ID":6159,"DIS_CODE":0,"TOWNNAME":"安南區","LI":"淵中里","LIN":"2鄰","STREET":"安中路","SECT":"三段","MAREA":" ","LANE":"４０７巷","ALLEY":" ","HOUSE_NO":"１３號","E_COORD97":165330.26517,"N_COORD97":2549991.2742499998,"ADDRESS":"安中路三段４０７巷１３號","OBJECTID":6159},"geometry":{"x":165330.26517000049,"y":2549991.2742449995}},{"attributes":{"ID":6160,"DIS_CODE":0,"TOWNNAME":"安南區","LI":"理想里","LIN":"13鄰","STREET":"海佃路","SECT":"二段","MAREA":" ","LANE":"１０２巷","ALLEY":" ","HOUSE_NO":"３０號","E_COORD97":167074.75257099999,"N_COORD97":2548015.06207,"ADDRESS":"海佃路二段１０２巷３０號","OBJECTID":6160},"geometry":{"x":167074.75257100072,"y":2548015.062074}},{"attributes":{"ID":6161,"DIS_CODE":0,"TOWNNAME":"新營區","LI":"永生里","LIN":"10鄰","STREET":"康樂街","SECT":" ","MAREA":" ","LANE":" ","ALLEY":" ","HOUSE_NO":"１６號之１","E_COORD97":179974.74543000001,"N_COORD97":2577917.8512800001,"ADDRESS":"康樂街１６號之１","OBJECTID":6161},"geometry":{"x":179974.74543000013,"y":2577917.8512769975}},{"attributes":{"ID":6162,"DIS_CODE":0,"TOWNNAME":"歸仁區","LI":"西埔里","LIN":"2鄰","STREET":"保大路","SECT":"二段","MAREA":" ","LANE":" ","ALLEY":" ","HOUSE_NO":"１７７號","E_COORD97":176803.26403200001,"N_COORD97":2544114.4455300001,"ADDRESS":"保大路二段１７７號","OBJECTID":6162},"geometry":{"x":176803.26403200161,"y":2544114.4455320016}},{"attributes":{"ID":6163,"DIS_CODE":0,"TOWNNAME":"新營區","LI":"永生里","LIN":"10鄰","STREET":"富源街","SECT":" ","MAREA":" ","LANE":" ","ALLEY":" ","HOUSE_NO":"３１號","E_COORD97":179986.18707000001,"N_COORD97":2577953.0937600001,"ADDRESS":"富源街３１號","OBJECTID":6163},"geometry":{"x":179986.18706999999,"y":2577953.0937579982}},{"attributes":{"ID":6164,"DIS_CODE":0,"TOWNNAME":"歸仁區","LI":"西埔里","LIN":"2鄰","STREET":"保大路","SECT":"二段","MAREA":" ","LANE":" ","ALLEY":" ","HOUSE_NO":"１９０之１號","E_COORD97":176835.904259,"N_COORD97":2544166.0921700001,"ADDRESS":"保大路二段１９０之１號","OBJECTID":6164},"geometry":{"x":176835.90425899997,"y":2544166.0921710022}},{"attributes":{"ID":6165,"DIS_CODE":0,"TOWNNAME":"新營區","LI":"太北里","LIN":"20鄰","STREET":" ","SECT":" ","MAREA":"太子宮","LANE":" ","ALLEY":" ","HOUSE_NO":"１４０號之５０","E_COORD97":175146.14000000001,"N_COORD97":2576324.0099999998,"ADDRESS":"太子宮１４０號之５０","OBJECTID":6165},"geometry":{"x":175146.1400000006,"y":2576324.0100000035}},{"attributes":{"ID":6166,"DIS_CODE":0,"TOWNNAME":"關廟區","LI":"北花里","LIN":"9鄰","STREET":"中正路","SECT":" ","MAREA":" ","LANE":"７４７巷","ALLEY":" ","HOUSE_NO":"５號","E_COORD97":181814.14339700001,"N_COORD97":2540342.8948400002,"ADDRESS":"中正路７４７巷５號","OBJECTID":6166},"geometry":{"x":181814.14339699969,"y":2540342.894836003}},{"attributes":{"ID":6167,"DIS_CODE":0,"TOWNNAME":"新營區","LI":"永生里","LIN":"10鄰","STREET":"富源街","SECT":" ","MAREA":" ","LANE":" ","ALLEY":" ","HOUSE_NO":"３７號","E_COORD97":179966.905788,"N_COORD97":2577943.9920999999,"ADDRESS":"富源街３７號","OBJECTID":6167},"geometry":{"x":179966.90578800067,"y":2577943.9920959994}},{"attributes":{"ID":6168,"DIS_CODE":0,"TOWNNAME":"新營區","LI":"永生里","LIN":"10鄰","STREET":"康樂街","SECT":" ","MAREA":" ","LANE":" ","ALLEY":" ","HOUSE_NO":"１４之３號","E_COORD97":179991.90789,"N_COORD97":2577921.4495999999,"ADDRESS":"康樂街１４之３號","OBJECTID":6168},"geometry":{"x":179991.90789000038,"y":2577921.4496000018}},{"attributes":{"ID":6169,"DIS_CODE":0,"TOWNNAME":"永康區","LI":"\u25A0行里","LIN":"34鄰","STREET":"三村一街","SECT":" ","MAREA":" ","LANE":"８３巷","ALLEY":" ","HOUSE_NO":"１號","E_COORD97":172029.93944799999,"N_COORD97":2549226.3643999998,"ADDRESS":"三村一街８３巷１號","OBJECTID":6169},"geometry":{"x":172029.93944800086,"y":2549226.3643979989}},{"attributes":{"ID":6170,"DIS_CODE":0,"TOWNNAME":"新營區","LI":"永生里","LIN":"10鄰","STREET":"富源街","SECT":" ","MAREA":" ","LANE":" ","ALLEY":" ","HOUSE_NO":"４３號","E_COORD97":179954.82850100001,"N_COORD97":2577937.4304300002,"ADDRESS":"富源街４３號","OBJECTID":6170},"geometry":{"x":179954.828501001,"y":2577937.4304329995}},{"attributes":{"ID":6171,"DIS_CODE":0,"TOWNNAME":"新營區","LI":"永生里","LIN":"10鄰","STREET":"富源街","SECT":" ","MAREA":" ","LANE":" ","ALLEY":" ","HOUSE_NO":"４５號","E_COORD97":179950.16709199999,"N_COORD97":2577933.6204300001,"ADDRESS":"富源街４５號","OBJECTID":6171},"geometry":{"x":179950.16709200013,"y":2577933.6204349995}},{"attributes":{"ID":6172,"DIS_CODE":0,"TOWNNAME":"安南區","LI":"溪心里","LIN":"17鄰","STREET":"海佃路","SECT":"三段","MAREA":" ","LANE":" ","ALLEY":" ","HOUSE_NO":"１８２號","E_COORD97":166099.571662,"N_COORD97":2550113.40643,"ADDRESS":"海佃路三段１８２號","OBJECTID":6172},"geometry":{"x":166099.57166200131,"y":2550113.4064350016}},{"attributes":{"ID":6173,"DIS_CODE":0,"TOWNNAME":"永康區","LI":"\u25A0行里","LIN":"34鄰","STREET":"三村一街","SECT":" ","MAREA":" ","LANE":"８３巷","ALLEY":" ","HOUSE_NO":"７號","E_COORD97":172029.72749700001,"N_COORD97":2549216.4160699998,"ADDRESS":"三村一街８３巷７號","OBJECTID":6173},"geometry":{"x":172029.72749700025,"y":2549216.4160700012}},{"attributes":{"ID":6174,"DIS_CODE":0,"TOWNNAME":"安南區","LI":"州北里","LIN":"17鄰","STREET":"北安路","SECT":"四段","MAREA":" ","LANE":" ","ALLEY":" ","HOUSE_NO":"６０７號","E_COORD97":169528.36017100001,"N_COORD97":2552068.3628699998,"ADDRESS":"北安路四段６０７號","OBJECTID":6174},"geometry":{"x":169528.36017099954,"y":2552068.3628739994}},{"attributes":{"ID":6175,"DIS_CODE":0,"TOWNNAME":"永康區","LI":"\u25A0行里","LIN":"34鄰","STREET":"三村一街","SECT":" ","MAREA":" ","LANE":"８３巷","ALLEY":"９弄","HOUSE_NO":"７號","E_COORD97":172050.498724,"N_COORD97":2549215.9927400001,"ADDRESS":"三村一街８３巷９弄７號","OBJECTID":6175},"geometry":{"x":172050.49872400053,"y":2549215.9927369989}},{"attributes":{"ID":6176,"DIS_CODE":0,"TOWNNAME":"安南區","LI":"溪心里","LIN":"7鄰","STREET":"本原街","SECT":"二段","MAREA":" ","LANE":"１３２巷","ALLEY":" ","HOUSE_NO":"１２０號","E_COORD97":166526.35589000001,"N_COORD97":2550978.8462999999,"ADDRESS":"本原街二段１３２巷１２０號","OBJECTID":6176},"geometry":{"x":166526.35589000117,"y":2550978.8462999985}},{"attributes":{"ID":6177,"DIS_CODE":0,"TOWNNAME":"關廟區","LI":"北花里","LIN":"5鄰","STREET":"四維街","SECT":" ","MAREA":" ","LANE":"３５０巷","ALLEY":"２６弄","HOUSE_NO":"１號","E_COORD97":181983.560639,"N_COORD97":2540232.6074600001,"ADDRESS":"四維街３５０巷２６弄１號","OBJECTID":6177},"geometry":{"x":181983.56063900143,"y":2540232.6074650008}},{"attributes":{"ID":6178,"DIS_CODE":0,"TOWNNAME":"仁德區","LI":"中洲里","LIN":"1鄰","STREET":" ","SECT":" ","MAREA":"中洲","LANE":" ","ALLEY":" ","HOUSE_NO":"２之６２號","E_COORD97":173119.71567000001,"N_COORD97":2535234.48331,"ADDRESS":"中洲２之６２號","OBJECTID":6178},"geometry":{"x":173119.71567000076,"y":2535234.4833080005}},{"attributes":{"ID":6179,"DIS_CODE":0,"TOWNNAME":"永康區","LI":"\u25A0行里","LIN":"34鄰","STREET":"三村一街","SECT":" ","MAREA":" ","LANE":"８３巷","ALLEY":"９弄","HOUSE_NO":"５號","E_COORD97":172045.41189300001,"N_COORD97":2549215.78107,"ADDRESS":"三村一街８３巷９弄５號","OBJECTID":6179},"geometry":{"x":172045.41189299989,"y":2549215.7810700014}},{"attributes":{"ID":6180,"DIS_CODE":0,"TOWNNAME":"仁德區","LI":"中洲里","LIN":"1鄰","STREET":" ","SECT":" ","MAREA":"中洲","LANE":" ","ALLEY":" ","HOUSE_NO":"２之５８號","E_COORD97":173132.63936500001,"N_COORD97":2535278.72162,"ADDRESS":"中洲２之５８號","OBJECTID":6180},"geometry":{"x":173132.63936499972,"y":2535278.7216170002}},{"attributes":{"ID":6181,"DIS_CODE":0,"TOWNNAME":"安南區","LI":"溪心里","LIN":"11鄰","STREET":"安吉路","SECT":"一段","MAREA":" ","LANE":"９９９巷","ALLEY":" ","HOUSE_NO":"１２５之６號","E_COORD97":166782.26289300001,"N_COORD97":2550504.8042199998,"ADDRESS":"安吉路一段９９９巷１２５之６號","OBJECTID":6181},"geometry":{"x":166782.26289300155,"y":2550504.8042240012}},{"attributes":{"ID":6182,"DIS_CODE":0,"TOWNNAME":"永康區","LI":"\u25A0行里","LIN":"34鄰","STREET":"三村一街","SECT":" ","MAREA":" ","LANE":"８３巷","ALLEY":" ","HOUSE_NO":"１１號","E_COORD97":172030.1514,"N_COORD97":2549209.4310699999,"ADDRESS":"三村一街８３巷１１號","OBJECTID":6182},"geometry":{"x":172030.15140000079,"y":2549209.4310730025}},{"attributes":{"ID":6183,"DIS_CODE":0,"TOWNNAME":"永康區","LI":"\u25A0行里","LIN":"34鄰","STREET":"三村一街","SECT":" ","MAREA":" ","LANE":"８３巷","ALLEY":"９弄","HOUSE_NO":"２號","E_COORD97":172036.72188999999,"N_COORD97":2549209.2194099999,"ADDRESS":"三村一街８３巷９弄２號","OBJECTID":6183},"geometry":{"x":172036.72189000063,"y":2549209.2194070015}},{"attributes":{"ID":6184,"DIS_CODE":0,"TOWNNAME":"六甲區","LI":"二甲里","LIN":"18鄰","STREET":"建工街","SECT":" ","MAREA":" ","LANE":" ","ALLEY":" ","HOUSE_NO":"７７號","E_COORD97":183102.002683,"N_COORD97":2569427.80767,"ADDRESS":"建工街７７號","OBJECTID":6184},"geometry":{"x":183102.00268299971,"y":2569427.8076649997}},{"attributes":{"ID":6185,"DIS_CODE":0,"TOWNNAME":"關廟區","LI":"北花里","LIN":"9鄰","STREET":"中正路","SECT":" ","MAREA":" ","LANE":"７４７巷","ALLEY":" ","HOUSE_NO":"３號","E_COORD97":181816.26298500001,"N_COORD97":2540355.7006600001,"ADDRESS":"中正路７４７巷３號","OBJECTID":6185},"geometry":{"x":181816.26298500039,"y":2540355.7006630003}},{"attributes":{"ID":6186,"DIS_CODE":0,"TOWNNAME":"仁德區","LI":"中洲里","LIN":"1鄰","STREET":" ","SECT":" ","MAREA":"中洲","LANE":" ","ALLEY":" ","HOUSE_NO":"２之６０號","E_COORD97":173113.147891,"N_COORD97":2535196.5949900001,"ADDRESS":"中洲２之６０號","OBJECTID":6186},"geometry":{"x":173113.14789099991,"y":2535196.5949949995}},{"attributes":{"ID":6187,"DIS_CODE":0,"TOWNNAME":"永康區","LI":"\u25A0行里","LIN":"34鄰","STREET":"三村一街","SECT":" ","MAREA":" ","LANE":"８３巷","ALLEY":"９弄","HOUSE_NO":"６號","E_COORD97":172039.47725699999,"N_COORD97":2549209.2194099999,"ADDRESS":"三村一街８３巷９弄６號","OBJECTID":6187},"geometry":{"x":172039.47725700121,"y":2549209.2194070015}},{"attributes":{"ID":6188,"DIS_CODE":0,"TOWNNAME":"六甲區","LI":"中社里","LIN":"16鄰","STREET":" ","SECT":" ","MAREA":"林鳳營","LANE":" ","ALLEY":" ","HOUSE_NO":"２７９號","E_COORD97":180183.42000000001,"N_COORD97":2570341.3999999999,"ADDRESS":"林鳳營２７９號","OBJECTID":6188},"geometry":{"x":180183.41999999899,"y":2570341.4000000041}},{"attributes":{"ID":6189,"DIS_CODE":0,"TOWNNAME":"永康區","LI":"\u25A0行里","LIN":"34鄰","STREET":"三村一街","SECT":" ","MAREA":" ","LANE":"８３巷","ALLEY":" ","HOUSE_NO":"３號","E_COORD97":172041.17286699999,"N_COORD97":2549215.78107,"ADDRESS":"三村一街８３巷３號","OBJECTID":6189},"geometry":{"x":172041.1728670001,"y":2549215.7810700014}},{"attributes":{"ID":6190,"DIS_CODE":0,"TOWNNAME":"仁德區","LI":"仁德里","LIN":"4鄰","STREET":"仁中一街","SECT":" ","MAREA":" ","LANE":" ","ALLEY":" ","HOUSE_NO":"９９號","E_COORD97":173223.65381700001,"N_COORD97":2540598.36387,"ADDRESS":"仁中一街９９號","OBJECTID":6190},"geometry":{"x":173223.65381699987,"y":2540598.3638739996}},{"attributes":{"ID":6191,"DIS_CODE":0,"TOWNNAME":"歸仁區","LI":"七甲里","LIN":"15鄰","STREET":"南丁路","SECT":" ","MAREA":" ","LANE":"７０５巷","ALLEY":"１０２弄","HOUSE_NO":"１８號","E_COORD97":175881.55891600001,"N_COORD97":2543419.3016300001,"ADDRESS":"南丁路７０５巷１０２弄１８號","OBJECTID":6191},"geometry":{"x":175881.55891599972,"y":2543419.3016330022}},{"attributes":{"ID":6192,"DIS_CODE":0,"TOWNNAME":"仁德區","LI":"仁德里","LIN":"4鄰","STREET":"仁中一街","SECT":" ","MAREA":" ","LANE":" ","ALLEY":" ","HOUSE_NO":"９７號","E_COORD97":173228.31490699999,"N_COORD97":2540598.36387,"ADDRESS":"仁中一街９７號","OBJECTID":6192},"geometry":{"x":173228.3149070004,"y":2540598.3638739996}},{"attributes":{"ID":6193,"DIS_CODE":0,"TOWNNAME":"仁德區","LI":"中洲里","LIN":"1鄰","STREET":" ","SECT":" ","MAREA":"中洲","LANE":" ","ALLEY":" ","HOUSE_NO":"２號之１","E_COORD97":173593.44323999999,"N_COORD97":2534366.65044,"ADDRESS":"中洲２號之１","OBJECTID":6193},"geometry":{"x":173593.44323999994,"y":2534366.6504430026}},{"attributes":{"ID":6194,"DIS_CODE":0,"TOWNNAME":"永康區","LI":"\u25A0行里","LIN":"34鄰","STREET":"三村一街","SECT":" ","MAREA":" ","LANE":"８３巷","ALLEY":"９弄","HOUSE_NO":"３號","E_COORD97":172038.841403,"N_COORD97":2549215.9927400001,"ADDRESS":"三村一街８３巷９弄３號","OBJECTID":6194},"geometry":{"x":172038.84140300006,"y":2549215.9927369989}},{"attributes":{"ID":6195,"DIS_CODE":0,"TOWNNAME":"永康區","LI":"\u25A0行里","LIN":"34鄰","STREET":"三村一街","SECT":" ","MAREA":" ","LANE":"８３巷","ALLEY":"９弄","HOUSE_NO":"１０號","E_COORD97":172045.62384399999,"N_COORD97":2549209.4310699999,"ADDRESS":"三村一街８３巷９弄１０號","OBJECTID":6195},"geometry":{"x":172045.62384400051,"y":2549209.4310730025}},{"attributes":{"ID":6196,"DIS_CODE":0,"TOWNNAME":"永康區","LI":"\u25A0行里","LIN":"34鄰","STREET":"三村一街","SECT":" ","MAREA":" ","LANE":"８３巷","ALLEY":"９弄","HOUSE_NO":"１２號","E_COORD97":172048.37921099999,"N_COORD97":2549208.7960700002,"ADDRESS":"三村一街８３巷９弄１２號","OBJECTID":6196},"geometry":{"x":172048.3792110011,"y":2549208.7960739993}},{"attributes":{"ID":6197,"DIS_CODE":0,"TOWNNAME":"安南區","LI":"州北里","LIN":"7鄰","STREET":"安和路","SECT":"五段","MAREA":" ","LANE":" ","ALLEY":" ","HOUSE_NO":"３５２號","E_COORD97":169677.186208,"N_COORD97":2552217.5683200001,"ADDRESS":"安和路五段３５２號","OBJECTID":6197},"geometry":{"x":169677.18620800041,"y":2552217.5683160014}},{"attributes":{"ID":6198,"DIS_CODE":0,"TOWNNAME":"永康區","LI":"\u25A0行里","LIN":"34鄰","STREET":"三村一街","SECT":" ","MAREA":" ","LANE":"８３巷","ALLEY":" ","HOUSE_NO":"１３號","E_COORD97":172030.1514,"N_COORD97":2549205.4094099998,"ADDRESS":"三村一街８３巷１３號","OBJECTID":6198},"geometry":{"x":172030.15140000079,"y":2549205.4094090015}},{"attributes":{"ID":6199,"DIS_CODE":0,"TOWNNAME":"龍崎區","LI":"龍船里","LIN":"9鄰","STREET":" ","SECT":" ","MAREA":"水堀坪","LANE":" ","ALLEY":" ","HOUSE_NO":"１５號","E_COORD97":191913.970783,"N_COORD97":2539942.44887,"ADDRESS":"水堀坪１５號","OBJECTID":6199},"geometry":{"x":191913.97078300081,"y":2539942.448865002}},{"attributes":{"ID":6200,"DIS_CODE":0,"TOWNNAME":"龍崎區","LI":"龍船里","LIN":"9鄰","STREET":" ","SECT":" ","MAREA":"水堀坪","LANE":" ","ALLEY":" ","HOUSE_NO":"１７號","E_COORD97":191892.367722,"N_COORD97":2539940.9671999998,"ADDRESS":"水堀坪１７號","OBJECTID":6200},"geometry":{"x":191892.367722,"y":2539940.9671990015}}]}