{"displayFieldName":"TOWNNAME","fieldAliases":{"ID":"ID","DIS_CODE":"DIS_CODE","TOWNNAME":"TOWNNAME","LI":"LI","LIN":"LIN","STREET":"STREET","SECT":"SECT","MAREA":"MAREA","LANE":"LANE","ALLEY":"ALLEY","HOUSE_NO":"HOUSE_NO","E_COORD97":"E_COORD97","N_COORD97":"N_COORD97","ADDRESS":"ADDRESS","OBJECTID":"OBJECTID"},"geometryType":"esriGeometryPoint","spatialReference":{"wkid":102443,"latestWkid":3826},"fields":[{"name":"ID","type":"esriFieldTypeDouble","alias":"ID"},{"name":"DIS_CODE","type":"esriFieldTypeInteger","alias":"DIS_CODE"},{"name":"TOWNNAME","type":"esriFieldTypeString","alias":"TOWNNAME","length":8},{"name":"LI","type":"esriFieldTypeString","alias":"LI","length":8},{"name":"LIN","type":"esriFieldTypeString","alias":"LIN","length":12},{"name":"STREET","type":"esriFieldTypeString","alias":"STREET","length":20},{"name":"SECT","type":"esriFieldTypeString","alias":"SECT","length":8},{"name":"MAREA","type":"esriFieldTypeString","alias":"MAREA","length":12},{"name":"LANE","type":"esriFieldTypeString","alias":"LANE","length":10},{"name":"ALLEY","type":"esriFieldTypeString","alias":"ALLEY","length":10},{"name":"HOUSE_NO","type":"esriFieldTypeString","alias":"HOUSE_NO","length":20},{"name":"E_COORD97","type":"esriFieldTypeDouble","alias":"E_COORD97"},{"name":"N_COORD97","type":"esriFieldTypeDouble","alias":"N_COORD97"},{"name":"ADDRESS","type":"esriFieldTypeString","alias":"ADDRESS","length":50},{"name":"OBJECTID","type":"esriFieldTypeOID","alias":"OBJECTID"}],"features":[{"attributes":{"ID":409425,"DIS_CODE":0,"TOWNNAME":"永康區","LI":"南灣里","LIN":"22鄰","STREET":"大灣路","SECT":" ","MAREA":" ","LANE":"７６４巷","ALLEY":" ","HOUSE_NO":"４１號","E_COORD97":174182.13,"N_COORD97":2544637.2599999998,"ADDRESS":"大灣路７６４巷４１號","OBJECTID":409401},"geometry":{"x":174182.12999999989,"y":2544637.2600000016}},{"attributes":{"ID":409426,"DIS_CODE":0,"TOWNNAME":"永康區","LI":"南灣里","LIN":"22鄰","STREET":"大灣路","SECT":" ","MAREA":" ","LANE":"７６４巷","ALLEY":" ","HOUSE_NO":"７號","E_COORD97":174150.17999999999,"N_COORD97":2544592.9900000002,"ADDRESS":"大灣路７６４巷７號","OBJECTID":409402},"geometry":{"x":174150.18000000063,"y":2544592.9900000002}},{"attributes":{"ID":409427,"DIS_CODE":0,"TOWNNAME":"永康區","LI":"南灣里","LIN":"22鄰","STREET":"大灣路","SECT":" ","MAREA":" ","LANE":"７６４巷","ALLEY":" ","HOUSE_NO":"３１號","E_COORD97":174147.54000000001,"N_COORD97":2544634.79,"ADDRESS":"大灣路７６４巷３１號","OBJECTID":409403},"geometry":{"x":174147.54000000004,"y":2544634.7899999972}},{"attributes":{"ID":409428,"DIS_CODE":0,"TOWNNAME":"永康區","LI":"南灣里","LIN":"22鄰","STREET":"大灣路","SECT":" ","MAREA":" ","LANE":"７６４巷","ALLEY":" ","HOUSE_NO":"２５號","E_COORD97":174173.37,"N_COORD97":2544619.8199999998,"ADDRESS":"大灣路７６４巷２５號","OBJECTID":409404},"geometry":{"x":174173.37000000104,"y":2544619.8200000022}},{"attributes":{"ID":409429,"DIS_CODE":0,"TOWNNAME":"永康區","LI":"東橋里","LIN":"22鄰","STREET":"自強路","SECT":" ","MAREA":" ","LANE":"１２３巷","ALLEY":" ","HOUSE_NO":"１號","E_COORD97":172899.69,"N_COORD97":2547361,"ADDRESS":"自強路１２３巷１號","OBJECTID":409405},"geometry":{"x":172899.69000000227,"y":2547361.0000000019}},{"attributes":{"ID":409430,"DIS_CODE":0,"TOWNNAME":"永康區","LI":"南灣里","LIN":"22鄰","STREET":"大灣路","SECT":" ","MAREA":" ","LANE":"７６４巷","ALLEY":" ","HOUSE_NO":"３３號","E_COORD97":174149.47,"N_COORD97":2544643.1099999999,"ADDRESS":"大灣路７６４巷３３號","OBJECTID":409406},"geometry":{"x":174149.46999999974,"y":2544643.1099999975}},{"attributes":{"ID":409431,"DIS_CODE":0,"TOWNNAME":"永康區","LI":"東灣里","LIN":"22鄰","STREET":"大灣三街","SECT":" ","MAREA":" ","LANE":"７３巷","ALLEY":" ","HOUSE_NO":"１３１號","E_COORD97":174839.26999999999,"N_COORD97":2544768.7799999998,"ADDRESS":"大灣三街７３巷１３１號","OBJECTID":409407},"geometry":{"x":174839.27000000142,"y":2544768.7800000012}},{"attributes":{"ID":409432,"DIS_CODE":0,"TOWNNAME":"永康區","LI":"西灣里","LIN":"22鄰","STREET":"永大路","SECT":"二段","MAREA":" ","LANE":"１９７巷","ALLEY":" ","HOUSE_NO":"４８號","E_COORD97":174231.91,"N_COORD97":2545340.1200000001,"ADDRESS":"永大路二段１９７巷４８號","OBJECTID":409408},"geometry":{"x":174231.90999999922,"y":2545340.1200000048}},{"attributes":{"ID":409433,"DIS_CODE":0,"TOWNNAME":"永康區","LI":"西灣里","LIN":"22鄰","STREET":"永大路","SECT":"二段","MAREA":" ","LANE":"１９７巷","ALLEY":" ","HOUSE_NO":"５６號","E_COORD97":174219.5,"N_COORD97":2545344.6200000001,"ADDRESS":"永大路二段１９７巷５６號","OBJECTID":409409},"geometry":{"x":174219.50000000093,"y":2545344.6200000029}},{"attributes":{"ID":409434,"DIS_CODE":0,"TOWNNAME":"永康區","LI":"南灣里","LIN":"22鄰","STREET":"大灣路","SECT":" ","MAREA":" ","LANE":"７６４巷","ALLEY":" ","HOUSE_NO":"１７號","E_COORD97":174140.63,"N_COORD97":2544622.3300000001,"ADDRESS":"大灣路７６４巷１７號","OBJECTID":409410},"geometry":{"x":174140.63000000082,"y":2544622.3300000038}},{"attributes":{"ID":409435,"DIS_CODE":0,"TOWNNAME":"永康區","LI":"東橋里","LIN":"22鄰","STREET":"自強路","SECT":" ","MAREA":" ","LANE":"１３９巷","ALLEY":" ","HOUSE_NO":"２號","E_COORD97":172984.70999999999,"N_COORD97":2547415.9900000002,"ADDRESS":"自強路１３９巷２號","OBJECTID":409411},"geometry":{"x":172984.70999999996,"y":2547415.9900000021}},{"attributes":{"ID":409436,"DIS_CODE":0,"TOWNNAME":"永康區","LI":"南灣里","LIN":"22鄰","STREET":"大灣路","SECT":" ","MAREA":" ","LANE":"７６４巷","ALLEY":" ","HOUSE_NO":"５號","E_COORD97":174158.82999999999,"N_COORD97":2544583.0600000001,"ADDRESS":"大灣路７６４巷５號","OBJECTID":409412},"geometry":{"x":174158.83000000007,"y":2544583.0600000005}},{"attributes":{"ID":409437,"DIS_CODE":0,"TOWNNAME":"永康區","LI":"南灣里","LIN":"22鄰","STREET":"大灣路","SECT":" ","MAREA":" ","LANE":"７６４巷","ALLEY":" ","HOUSE_NO":"２７號","E_COORD97":174174.78,"N_COORD97":2544623.8199999998,"ADDRESS":"大灣路７６４巷２７號","OBJECTID":409413},"geometry":{"x":174174.78000000026,"y":2544623.8200000022}},{"attributes":{"ID":409438,"DIS_CODE":0,"TOWNNAME":"永康區","LI":"東橋里","LIN":"22鄰","STREET":"自強路","SECT":" ","MAREA":" ","LANE":"１３９巷","ALLEY":" ","HOUSE_NO":"５號","E_COORD97":172997.60999999999,"N_COORD97":2547421.9900000002,"ADDRESS":"自強路１３９巷５號","OBJECTID":409414},"geometry":{"x":172997.61000000034,"y":2547421.9900000021}},{"attributes":{"ID":409439,"DIS_CODE":0,"TOWNNAME":"永康區","LI":"東橋里","LIN":"22鄰","STREET":"中山南路","SECT":" ","MAREA":" ","LANE":"３６５巷","ALLEY":" ","HOUSE_NO":"２２號","E_COORD97":172584.01000000001,"N_COORD97":2547569.5,"ADDRESS":"中山南路３６５巷２２號","OBJECTID":409415},"geometry":{"x":172584.01000000071,"y":2547569.5}},{"attributes":{"ID":409440,"DIS_CODE":0,"TOWNNAME":"永康區","LI":"南灣里","LIN":"22鄰","STREET":"大灣路","SECT":" ","MAREA":" ","LANE":"７６４巷","ALLEY":" ","HOUSE_NO":"２３號","E_COORD97":174171.97,"N_COORD97":2544616.0699999998,"ADDRESS":"大灣路７６４巷２３號","OBJECTID":409416},"geometry":{"x":174171.97000000067,"y":2544616.0700000003}},{"attributes":{"ID":409441,"DIS_CODE":0,"TOWNNAME":"永康區","LI":"南灣里","LIN":"22鄰","STREET":"大灣路","SECT":" ","MAREA":" ","LANE":"７６４巷","ALLEY":" ","HOUSE_NO":"２９號","E_COORD97":174156.44,"N_COORD97":2544631.54,"ADDRESS":"大灣路７６４巷２９號","OBJECTID":409417},"geometry":{"x":174156.44000000134,"y":2544631.540000001}},{"attributes":{"ID":409442,"DIS_CODE":0,"TOWNNAME":"永康區","LI":"南灣里","LIN":"22鄰","STREET":"大灣路","SECT":" ","MAREA":" ","LANE":"７６４巷","ALLEY":" ","HOUSE_NO":"１３號","E_COORD97":174167.76000000001,"N_COORD97":2544596.4900000002,"ADDRESS":"大灣路７６４巷１３號","OBJECTID":409418},"geometry":{"x":174167.75999999978,"y":2544596.4900000002}},{"attributes":{"ID":409443,"DIS_CODE":0,"TOWNNAME":"永康區","LI":"東橋里","LIN":"22鄰","STREET":"自強路","SECT":" ","MAREA":" ","LANE":"１３９巷","ALLEY":" ","HOUSE_NO":"３號","E_COORD97":172989.17999999999,"N_COORD97":2547418.4900000002,"ADDRESS":"自強路１３９巷３號","OBJECTID":409419},"geometry":{"x":172989.18000000063,"y":2547418.4900000039}},{"attributes":{"ID":409444,"DIS_CODE":0,"TOWNNAME":"永康區","LI":"東橋里","LIN":"22鄰","STREET":"自強路","SECT":" ","MAREA":" ","LANE":"１３９巷","ALLEY":" ","HOUSE_NO":"１號","E_COORD97":172980.85999999999,"N_COORD97":2547414.4900000002,"ADDRESS":"自強路１３９巷１號","OBJECTID":409420},"geometry":{"x":172980.86000000034,"y":2547414.4900000002}},{"attributes":{"ID":409445,"DIS_CODE":0,"TOWNNAME":"永康區","LI":"南灣里","LIN":"22鄰","STREET":"大灣路","SECT":" ","MAREA":" ","LANE":"７６４巷","ALLEY":" ","HOUSE_NO":"３５號","E_COORD97":174158.28,"N_COORD97":2544640.1099999999,"ADDRESS":"大灣路７６４巷３５號","OBJECTID":409421},"geometry":{"x":174158.27999999933,"y":2544640.1100000031}},{"attributes":{"ID":409446,"DIS_CODE":0,"TOWNNAME":"永康區","LI":"南灣里","LIN":"22鄰","STREET":"大灣路","SECT":" ","MAREA":" ","LANE":"７６４巷","ALLEY":" ","HOUSE_NO":"３７號","E_COORD97":174178.67000000001,"N_COORD97":2544630.0099999998,"ADDRESS":"大灣路７６４巷３７號","OBJECTID":409422},"geometry":{"x":174178.66999999993,"y":2544630.0099999998}},{"attributes":{"ID":409447,"DIS_CODE":0,"TOWNNAME":"永康區","LI":"東橋里","LIN":"22鄰","STREET":"中山南路","SECT":" ","MAREA":" ","LANE":"３６５巷","ALLEY":" ","HOUSE_NO":"７號","E_COORD97":172646.89999999999,"N_COORD97":2547181.2400000002,"ADDRESS":"中山南路３６５巷７號","OBJECTID":409423},"geometry":{"x":172646.90000000037,"y":2547181.2400000002}},{"attributes":{"ID":409448,"DIS_CODE":0,"TOWNNAME":"永康區","LI":"建國里","LIN":"22鄰","STREET":"興國街","SECT":" ","MAREA":" ","LANE":"５巷","ALLEY":" ","HOUSE_NO":"６號","E_COORD97":172668.16,"N_COORD97":2544675.25,"ADDRESS":"興國街５巷６號","OBJECTID":409424},"geometry":{"x":172668.16000000108,"y":2544675.25}},{"attributes":{"ID":409449,"DIS_CODE":0,"TOWNNAME":"安南區","LI":"海東里","LIN":"22鄰","STREET":"同安路","SECT":" ","MAREA":" ","LANE":"１７巷","ALLEY":" ","HOUSE_NO":"１８號","E_COORD97":166845.19,"N_COORD97":2548932.3700000001,"ADDRESS":"同安路１７巷１８號","OBJECTID":409425},"geometry":{"x":166845.19000000134,"y":2548932.3700000048}},{"attributes":{"ID":409450,"DIS_CODE":0,"TOWNNAME":"安南區","LI":"海東里","LIN":"22鄰","STREET":"海佃路","SECT":"二段","MAREA":" ","LANE":"４９２巷","ALLEY":" ","HOUSE_NO":"５號","E_COORD97":166795.39000000001,"N_COORD97":2548964.1299999999,"ADDRESS":"海佃路二段４９２巷５號","OBJECTID":409426},"geometry":{"x":166795.3900000006,"y":2548964.129999999}},{"attributes":{"ID":409451,"DIS_CODE":0,"TOWNNAME":"東區","LI":"崇學里","LIN":"13鄰","STREET":"崇明九街","SECT":" ","MAREA":" ","LANE":" ","ALLEY":" ","HOUSE_NO":"１２０號","E_COORD97":170207.53,"N_COORD97":2541926.3199999998,"ADDRESS":"崇明九街１２０號","OBJECTID":409427},"geometry":{"x":170207.53000000119,"y":2541926.3200000003}},{"attributes":{"ID":409452,"DIS_CODE":0,"TOWNNAME":"新市區","LI":"港墘里","LIN":"22鄰","STREET":"南港街","SECT":" ","MAREA":" ","LANE":"２６巷","ALLEY":" ","HOUSE_NO":"２４號","E_COORD97":178185.14999999999,"N_COORD97":2552834.5,"ADDRESS":"南港街２６巷２４號","OBJECTID":409428},"geometry":{"x":178185.15000000037,"y":2552834.5}},{"attributes":{"ID":409453,"DIS_CODE":0,"TOWNNAME":"新市區","LI":"港墘里","LIN":"22鄰","STREET":"南港街","SECT":" ","MAREA":" ","LANE":"２６巷","ALLEY":" ","HOUSE_NO":"３號","E_COORD97":178182.73000000001,"N_COORD97":2552790,"ADDRESS":"南港街２６巷３號","OBJECTID":409429},"geometry":{"x":178182.73000000045,"y":2552790.0000000019}},{"attributes":{"ID":409454,"DIS_CODE":0,"TOWNNAME":"新市區","LI":"港墘里","LIN":"22鄰","STREET":"華美街","SECT":" ","MAREA":" ","LANE":"１３巷","ALLEY":" ","HOUSE_NO":"４號","E_COORD97":178109.06,"N_COORD97":2552838.5499999998,"ADDRESS":"華美街１３巷４號","OBJECTID":409430},"geometry":{"x":178109.06000000145,"y":2552838.5500000007}},{"attributes":{"ID":409455,"DIS_CODE":0,"TOWNNAME":"新市區","LI":"港墘里","LIN":"22鄰","STREET":"南港街","SECT":" ","MAREA":" ","LANE":"２６巷","ALLEY":" ","HOUSE_NO":"２３號","E_COORD97":178167.73999999999,"N_COORD97":2552838.25,"ADDRESS":"南港街２６巷２３號","OBJECTID":409431},"geometry":{"x":178167.74000000209,"y":2552838.2500000019}},{"attributes":{"ID":409456,"DIS_CODE":0,"TOWNNAME":"新市區","LI":"港墘里","LIN":"22鄰","STREET":"南港街","SECT":" ","MAREA":" ","LANE":"２６巷","ALLEY":" ","HOUSE_NO":"７號","E_COORD97":178180.82000000001,"N_COORD97":2552798.5,"ADDRESS":"南港街２６巷７號","OBJECTID":409432},"geometry":{"x":178180.82000000216,"y":2552798.5000000037}},{"attributes":{"ID":409457,"DIS_CODE":0,"TOWNNAME":"東區","LI":"復興里","LIN":"22鄰","STREET":"富農街","SECT":"一段","MAREA":" ","LANE":"１８８巷","ALLEY":" ","HOUSE_NO":"１０８號","E_COORD97":171670.98000000001,"N_COORD97":2542510.3500000001,"ADDRESS":"富農街一段１８８巷１０８號","OBJECTID":409433},"geometry":{"x":171670.98000000138,"y":2542510.3500000015}},{"attributes":{"ID":409458,"DIS_CODE":0,"TOWNNAME":"東區","LI":"復興里","LIN":"22鄰","STREET":"富農街","SECT":"一段","MAREA":" ","LANE":"１８８巷","ALLEY":" ","HOUSE_NO":"１１０號","E_COORD97":171670.57999999999,"N_COORD97":2542515.1200000001,"ADDRESS":"富農街一段１８８巷１１０號","OBJECTID":409434},"geometry":{"x":171670.58000000007,"y":2542515.120000001}},{"attributes":{"ID":409459,"DIS_CODE":0,"TOWNNAME":"永康區","LI":"三合里","LIN":"22鄰","STREET":"南工街","SECT":" ","MAREA":" ","LANE":"３１１巷","ALLEY":" ","HOUSE_NO":"１號","E_COORD97":171835.89000000001,"N_COORD97":2546040.75,"ADDRESS":"南工街３１１巷１號","OBJECTID":409435},"geometry":{"x":171835.88999999966,"y":2546040.7500000019}},{"attributes":{"ID":409460,"DIS_CODE":0,"TOWNNAME":"東區","LI":"復興里","LIN":"22鄰","STREET":"富農街","SECT":"一段","MAREA":" ","LANE":"１８８巷","ALLEY":" ","HOUSE_NO":"１１２號","E_COORD97":171670.57999999999,"N_COORD97":2542519.8799999999,"ADDRESS":"富農街一段１８８巷１１２號","OBJECTID":409436},"geometry":{"x":171670.58000000007,"y":2542519.8800000008}},{"attributes":{"ID":409461,"DIS_CODE":0,"TOWNNAME":"東區","LI":"復興里","LIN":"22鄰","STREET":"富農街","SECT":"一段","MAREA":" ","LANE":"１８８巷","ALLEY":" ","HOUSE_NO":"１１４號","E_COORD97":171670.17999999999,"N_COORD97":2542525.0600000001,"ADDRESS":"富農街一段１８８巷１１４號","OBJECTID":409437},"geometry":{"x":171670.18000000063,"y":2542525.0600000005}},{"attributes":{"ID":409462,"DIS_CODE":0,"TOWNNAME":"東區","LI":"復興里","LIN":"22鄰","STREET":"富農街","SECT":"一段","MAREA":" ","LANE":"１８８巷","ALLEY":" ","HOUSE_NO":"１１６號","E_COORD97":171684.51999999999,"N_COORD97":2542526.6499999999,"ADDRESS":"富農街一段１８８巷１１６號","OBJECTID":409438},"geometry":{"x":171684.52000000142,"y":2542526.6500000022}},{"attributes":{"ID":409463,"DIS_CODE":0,"TOWNNAME":"東區","LI":"復興里","LIN":"22鄰","STREET":"富農街","SECT":"一段","MAREA":" ","LANE":"１８８巷","ALLEY":" ","HOUSE_NO":"１１８號","E_COORD97":171689.69,"N_COORD97":2542526.6499999999,"ADDRESS":"富農街一段１８８巷１１８號","OBJECTID":409439},"geometry":{"x":171689.69000000134,"y":2542526.6500000022}},{"attributes":{"ID":409464,"DIS_CODE":0,"TOWNNAME":"東區","LI":"復興里","LIN":"22鄰","STREET":"富農街","SECT":"一段","MAREA":" ","LANE":"１８８巷","ALLEY":" ","HOUSE_NO":"１２０號","E_COORD97":171694.07000000001,"N_COORD97":2542527.8399999999,"ADDRESS":"富農街一段１８８巷１２０號","OBJECTID":409440},"geometry":{"x":171694.07000000123,"y":2542527.8400000017}},{"attributes":{"ID":409465,"DIS_CODE":0,"TOWNNAME":"東區","LI":"復興里","LIN":"22鄰","STREET":"富農街","SECT":"一段","MAREA":" ","LANE":"１８８巷","ALLEY":" ","HOUSE_NO":"１２２號","E_COORD97":171698.45999999999,"N_COORD97":2542525.8599999999,"ADDRESS":"富農街一段１８８巷１２２號","OBJECTID":409441},"geometry":{"x":171698.45999999996,"y":2542525.8599999975}},{"attributes":{"ID":409466,"DIS_CODE":0,"TOWNNAME":"東區","LI":"復興里","LIN":"22鄰","STREET":"富農街","SECT":"一段","MAREA":" ","LANE":"１８８巷","ALLEY":" ","HOUSE_NO":"１２４號","E_COORD97":171702.04000000001,"N_COORD97":2542529.04,"ADDRESS":"富農街一段１８８巷１２４號","OBJECTID":409442},"geometry":{"x":171702.04000000097,"y":2542529.040000001}},{"attributes":{"ID":409467,"DIS_CODE":0,"TOWNNAME":"東區","LI":"復興里","LIN":"22鄰","STREET":"富農街","SECT":"一段","MAREA":" ","LANE":"１８８巷","ALLEY":" ","HOUSE_NO":"１２６號","E_COORD97":171707.22,"N_COORD97":2542527.4500000002,"ADDRESS":"富農街一段１８８巷１２６號","OBJECTID":409443},"geometry":{"x":171707.22000000067,"y":2542527.4499999993}},{"attributes":{"ID":409468,"DIS_CODE":0,"TOWNNAME":"東區","LI":"復興里","LIN":"22鄰","STREET":"富農街","SECT":"一段","MAREA":" ","LANE":"１８８巷","ALLEY":" ","HOUSE_NO":"１２８號","E_COORD97":171711.20000000001,"N_COORD97":2542527.8399999999,"ADDRESS":"富農街一段１８８巷１２８號","OBJECTID":409444},"geometry":{"x":171711.20000000112,"y":2542527.8400000017}},{"attributes":{"ID":409469,"DIS_CODE":0,"TOWNNAME":"東區","LI":"復興里","LIN":"22鄰","STREET":"富農街","SECT":"一段","MAREA":" ","LANE":"１８８巷","ALLEY":" ","HOUSE_NO":"１３０號","E_COORD97":171709.20999999999,"N_COORD97":2542512.3300000001,"ADDRESS":"富農街一段１８８巷１３０號","OBJECTID":409445},"geometry":{"x":171709.21000000089,"y":2542512.3300000001}},{"attributes":{"ID":409470,"DIS_CODE":0,"TOWNNAME":"東區","LI":"復興里","LIN":"22鄰","STREET":"富農街","SECT":"一段","MAREA":" ","LANE":"１８８巷","ALLEY":" ","HOUSE_NO":"１３２號","E_COORD97":171710,"N_COORD97":2542507.1600000001,"ADDRESS":"富農街一段１８８巷１３２號","OBJECTID":409446},"geometry":{"x":171710,"y":2542507.1600000001}},{"attributes":{"ID":409471,"DIS_CODE":0,"TOWNNAME":"東區","LI":"復興里","LIN":"22鄰","STREET":"富農街","SECT":"一段","MAREA":" ","LANE":"１８８巷","ALLEY":" ","HOUSE_NO":"１３４號","E_COORD97":171710.79999999999,"N_COORD97":2542503.1899999999,"ADDRESS":"富農街一段１８８巷１３４號","OBJECTID":409447},"geometry":{"x":171710.79999999981,"y":2542503.1899999995}},{"attributes":{"ID":409472,"DIS_CODE":0,"TOWNNAME":"東區","LI":"復興里","LIN":"22鄰","STREET":"富農街","SECT":"一段","MAREA":" ","LANE":"１８８巷","ALLEY":" ","HOUSE_NO":"１３６號","E_COORD97":171710.79999999999,"N_COORD97":2542498.8100000001,"ADDRESS":"富農街一段１８８巷１３６號","OBJECTID":409448},"geometry":{"x":171710.79999999981,"y":2542498.8100000005}},{"attributes":{"ID":409473,"DIS_CODE":0,"TOWNNAME":"東區","LI":"復興里","LIN":"22鄰","STREET":"富農街","SECT":"一段","MAREA":" ","LANE":"１８８巷","ALLEY":" ","HOUSE_NO":"１３８號","E_COORD97":171710.39999999999,"N_COORD97":2542494.04,"ADDRESS":"富農街一段１８８巷１３８號","OBJECTID":409449},"geometry":{"x":171710.4000000013,"y":2542494.0400000028}},{"attributes":{"ID":409474,"DIS_CODE":0,"TOWNNAME":"東區","LI":"復興里","LIN":"22鄰","STREET":"富農街","SECT":"一段","MAREA":" ","LANE":"１８８巷","ALLEY":" ","HOUSE_NO":"１４０號","E_COORD97":171711.60000000001,"N_COORD97":2542490.0600000001,"ADDRESS":"富農街一段１８８巷１４０號","OBJECTID":409450},"geometry":{"x":171711.60000000056,"y":2542490.0600000024}},{"attributes":{"ID":409475,"DIS_CODE":0,"TOWNNAME":"東區","LI":"復興里","LIN":"22鄰","STREET":"富農街","SECT":"一段","MAREA":" ","LANE":"１８８巷","ALLEY":" ","HOUSE_NO":"１４２號","E_COORD97":171711.20000000001,"N_COORD97":2542484.8900000001,"ADDRESS":"富農街一段１８８巷１４２號","OBJECTID":409451},"geometry":{"x":171711.20000000112,"y":2542484.8900000006}},{"attributes":{"ID":409476,"DIS_CODE":0,"TOWNNAME":"東區","LI":"復興里","LIN":"22鄰","STREET":"富農街","SECT":"一段","MAREA":" ","LANE":"１８８巷","ALLEY":" ","HOUSE_NO":"１４４號","E_COORD97":171711.60000000001,"N_COORD97":2542479.73,"ADDRESS":"富農街一段１８８巷１４４號","OBJECTID":409452},"geometry":{"x":171711.60000000056,"y":2542479.7300000004}},{"attributes":{"ID":409477,"DIS_CODE":0,"TOWNNAME":"東區","LI":"復興里","LIN":"22鄰","STREET":"富農街","SECT":"一段","MAREA":" ","LANE":"１８８巷","ALLEY":" ","HOUSE_NO":"１４６號","E_COORD97":171711.60000000001,"N_COORD97":2542474.1600000001,"ADDRESS":"富農街一段１８８巷１４６號","OBJECTID":409453},"geometry":{"x":171711.60000000056,"y":2542474.1600000039}},{"attributes":{"ID":409478,"DIS_CODE":0,"TOWNNAME":"東區","LI":"復興里","LIN":"22鄰","STREET":"富農街","SECT":"一段","MAREA":" ","LANE":"１８８巷","ALLEY":" ","HOUSE_NO":"１４８號","E_COORD97":171712.39000000001,"N_COORD97":2542467.7999999998,"ADDRESS":"富農街一段１８８巷１４８號","OBJECTID":409454},"geometry":{"x":171712.38999999966,"y":2542467.8000000026}},{"attributes":{"ID":409479,"DIS_CODE":0,"TOWNNAME":"東區","LI":"復興里","LIN":"22鄰","STREET":"富農街","SECT":"一段","MAREA":" ","LANE":"１８８巷","ALLEY":" ","HOUSE_NO":"１５０號","E_COORD97":171711.98999999999,"N_COORD97":2542463.4199999999,"ADDRESS":"富農街一段１８８巷１５０號","OBJECTID":409455},"geometry":{"x":171711.99000000022,"y":2542463.4200000018}},{"attributes":{"ID":409480,"DIS_CODE":0,"TOWNNAME":"東區","LI":"復興里","LIN":"22鄰","STREET":"富農街","SECT":"一段","MAREA":" ","LANE":"１８８巷","ALLEY":" ","HOUSE_NO":"１５２號","E_COORD97":171712.39000000001,"N_COORD97":2542459.4399999999,"ADDRESS":"富農街一段１８８巷１５２號","OBJECTID":409456},"geometry":{"x":171712.38999999966,"y":2542459.4400000013}},{"attributes":{"ID":409481,"DIS_CODE":0,"TOWNNAME":"東區","LI":"復興里","LIN":"22鄰","STREET":"富農街","SECT":"一段","MAREA":" ","LANE":"１８８巷","ALLEY":" ","HOUSE_NO":"１５４號","E_COORD97":171713.59,"N_COORD97":2542455.0699999998,"ADDRESS":"富農街一段１８８巷１５４號","OBJECTID":409457},"geometry":{"x":171713.59000000078,"y":2542455.0700000022}},{"attributes":{"ID":409482,"DIS_CODE":0,"TOWNNAME":"東區","LI":"復興里","LIN":"22鄰","STREET":"富農街","SECT":"一段","MAREA":" ","LANE":"１８８巷","ALLEY":" ","HOUSE_NO":"１５６號","E_COORD97":171713.59,"N_COORD97":2542450.8700000001,"ADDRESS":"富農街一段１８８巷１５６號","OBJECTID":409458},"geometry":{"x":171713.59000000078,"y":2542450.8700000029}},{"attributes":{"ID":409483,"DIS_CODE":0,"TOWNNAME":"東區","LI":"復興里","LIN":"22鄰","STREET":"富農街","SECT":"一段","MAREA":" ","LANE":"１８８巷","ALLEY":" ","HOUSE_NO":"１５８號","E_COORD97":171713.98999999999,"N_COORD97":2542446.5,"ADDRESS":"富農街一段１８８巷１５８號","OBJECTID":409459},"geometry":{"x":171713.99000000022,"y":2542446.5}},{"attributes":{"ID":409484,"DIS_CODE":0,"TOWNNAME":"東區","LI":"復興里","LIN":"22鄰","STREET":"富農街","SECT":"一段","MAREA":" ","LANE":"１８８巷","ALLEY":" ","HOUSE_NO":"１６０號","E_COORD97":171714.78,"N_COORD97":2542442.1299999999,"ADDRESS":"富農街一段１８８巷１６０號","OBJECTID":409460},"geometry":{"x":171714.78000000119,"y":2542442.1299999971}},{"attributes":{"ID":409485,"DIS_CODE":0,"TOWNNAME":"東區","LI":"復興里","LIN":"22鄰","STREET":"富農街","SECT":"一段","MAREA":" ","LANE":"１８８巷","ALLEY":" ","HOUSE_NO":"１６２號","E_COORD97":171714.78,"N_COORD97":2542436.96,"ADDRESS":"富農街一段１８８巷１６２號","OBJECTID":409461},"geometry":{"x":171714.78000000119,"y":2542436.9600000028}},{"attributes":{"ID":409486,"DIS_CODE":0,"TOWNNAME":"東區","LI":"復興里","LIN":"22鄰","STREET":"富農街","SECT":"一段","MAREA":" ","LANE":"１８８巷","ALLEY":" ","HOUSE_NO":"１６４號","E_COORD97":171715.98000000001,"N_COORD97":2542432.1800000002,"ADDRESS":"富農街一段１８８巷１６４號","OBJECTID":409462},"geometry":{"x":171715.98000000045,"y":2542432.1799999997}},{"attributes":{"ID":409487,"DIS_CODE":0,"TOWNNAME":"東區","LI":"復興里","LIN":"22鄰","STREET":"富農街","SECT":"一段","MAREA":" ","LANE":"１８８巷","ALLEY":" ","HOUSE_NO":"８８號","E_COORD97":171675.35999999999,"N_COORD97":2542475.3500000001,"ADDRESS":"富農街一段１８８巷８８號","OBJECTID":409463},"geometry":{"x":171675.36000000034,"y":2542475.3500000034}},{"attributes":{"ID":409488,"DIS_CODE":0,"TOWNNAME":"東區","LI":"東光里","LIN":"8鄰","STREET":"東興路","SECT":" ","MAREA":" ","LANE":"１９９巷","ALLEY":" ","HOUSE_NO":"９號","E_COORD97":170948.06,"N_COORD97":2543857.6899999999,"ADDRESS":"東興路１９９巷９號","OBJECTID":409464},"geometry":{"x":170948.05999999959,"y":2543857.6900000013}},{"attributes":{"ID":409489,"DIS_CODE":0,"TOWNNAME":"東區","LI":"復興里","LIN":"22鄰","STREET":"富農街","SECT":"一段","MAREA":" ","LANE":"１８８巷","ALLEY":" ","HOUSE_NO":"９０號","E_COORD97":171674.56,"N_COORD97":2542480.52,"ADDRESS":"富農街一段１８８巷９０號","OBJECTID":409465},"geometry":{"x":171674.56000000052,"y":2542480.5199999996}},{"attributes":{"ID":409490,"DIS_CODE":0,"TOWNNAME":"東區","LI":"復興里","LIN":"22鄰","STREET":"富農街","SECT":"一段","MAREA":" ","LANE":"１８８巷","ALLEY":" ","HOUSE_NO":"９２號","E_COORD97":171675.76000000001,"N_COORD97":2542485.6899999999,"ADDRESS":"富農街一段１８８巷９２號","OBJECTID":409466},"geometry":{"x":171675.75999999978,"y":2542485.6899999995}},{"attributes":{"ID":409491,"DIS_CODE":0,"TOWNNAME":"東區","LI":"復興里","LIN":"22鄰","STREET":"富農街","SECT":"一段","MAREA":" ","LANE":"１８８巷","ALLEY":" ","HOUSE_NO":"９４號","E_COORD97":171692.07999999999,"N_COORD97":2542482.9100000001,"ADDRESS":"富農街一段１８８巷９４號","OBJECTID":409467},"geometry":{"x":171692.08000000101,"y":2542482.910000002}},{"attributes":{"ID":409492,"DIS_CODE":0,"TOWNNAME":"東區","LI":"復興里","LIN":"22鄰","STREET":"富農街","SECT":"一段","MAREA":" ","LANE":"１８８巷","ALLEY":" ","HOUSE_NO":"９６號","E_COORD97":171698.45000000001,"N_COORD97":2542484.1000000001,"ADDRESS":"富農街一段１８８巷９６號","OBJECTID":409468},"geometry":{"x":171698.45000000019,"y":2542484.1000000034}},{"attributes":{"ID":409493,"DIS_CODE":0,"TOWNNAME":"東區","LI":"復興里","LIN":"22鄰","STREET":"富農街","SECT":"一段","MAREA":" ","LANE":"１８８巷","ALLEY":" ","HOUSE_NO":"９８號","E_COORD97":171695.26999999999,"N_COORD97":2542506.3700000001,"ADDRESS":"富農街一段１８８巷９８號","OBJECTID":409469},"geometry":{"x":171695.27000000048,"y":2542506.370000001}},{"attributes":{"ID":409494,"DIS_CODE":0,"TOWNNAME":"下營區","LI":"營前里","LIN":"22鄰","STREET":"中正南路","SECT":" ","MAREA":" ","LANE":"２３６巷","ALLEY":" ","HOUSE_NO":"１０號","E_COORD97":174666.29999999999,"N_COORD97":2569964.4300000002,"ADDRESS":"中正南路２３６巷１０號","OBJECTID":409470},"geometry":{"x":174666.30000000168,"y":2569964.4300000034}},{"attributes":{"ID":409495,"DIS_CODE":0,"TOWNNAME":"下營區","LI":"營前里","LIN":"22鄰","STREET":"中正南路","SECT":" ","MAREA":" ","LANE":"２３６巷","ALLEY":" ","HOUSE_NO":"１１號","E_COORD97":174661.79999999999,"N_COORD97":2569964.1000000001,"ADDRESS":"中正南路２３６巷１１號","OBJECTID":409471},"geometry":{"x":174661.80000000075,"y":2569964.1000000015}},{"attributes":{"ID":409496,"DIS_CODE":0,"TOWNNAME":"下營區","LI":"營前里","LIN":"22鄰","STREET":"中正南路","SECT":" ","MAREA":" ","LANE":"２３６巷","ALLEY":" ","HOUSE_NO":"１２號","E_COORD97":174657.44,"N_COORD97":2569963.6299999999,"ADDRESS":"中正南路２３６巷１２號","OBJECTID":409472},"geometry":{"x":174657.43999999948,"y":2569963.6300000008}},{"attributes":{"ID":409497,"DIS_CODE":0,"TOWNNAME":"下營區","LI":"營前里","LIN":"22鄰","STREET":"中正南路","SECT":" ","MAREA":" ","LANE":"２３６巷","ALLEY":" ","HOUSE_NO":"１３號","E_COORD97":174653.26999999999,"N_COORD97":2569963.0800000001,"ADDRESS":"中正南路２３６巷１３號","OBJECTID":409473},"geometry":{"x":174653.27000000048,"y":2569963.0800000001}},{"attributes":{"ID":409498,"DIS_CODE":0,"TOWNNAME":"下營區","LI":"營前里","LIN":"22鄰","STREET":"中正南路","SECT":" ","MAREA":" ","LANE":"２３６巷","ALLEY":" ","HOUSE_NO":"１５號","E_COORD97":174649.07000000001,"N_COORD97":2569962.5299999998,"ADDRESS":"中正南路２３６巷１５號","OBJECTID":409474},"geometry":{"x":174649.0700000003,"y":2569962.5299999993}},{"attributes":{"ID":409499,"DIS_CODE":0,"TOWNNAME":"下營區","LI":"營前里","LIN":"22鄰","STREET":"中正南路","SECT":" ","MAREA":" ","LANE":"２３６巷","ALLEY":" ","HOUSE_NO":"１６號","E_COORD97":174644.22,"N_COORD97":2569962.2400000002,"ADDRESS":"中正南路２３６巷１６號","OBJECTID":409475},"geometry":{"x":174644.21999999974,"y":2569962.2400000002}},{"attributes":{"ID":409500,"DIS_CODE":0,"TOWNNAME":"下營區","LI":"營前里","LIN":"22鄰","STREET":"中正南路","SECT":" ","MAREA":" ","LANE":"２３６巷","ALLEY":" ","HOUSE_NO":"１７號","E_COORD97":174639.76999999999,"N_COORD97":2569961.8300000001,"ADDRESS":"中正南路２３６巷１７號","OBJECTID":409476},"geometry":{"x":174639.77000000048,"y":2569961.8300000038}},{"attributes":{"ID":409501,"DIS_CODE":0,"TOWNNAME":"下營區","LI":"營前里","LIN":"22鄰","STREET":"中正南路","SECT":" ","MAREA":" ","LANE":"２３６巷","ALLEY":" ","HOUSE_NO":"１８號","E_COORD97":174635.19,"N_COORD97":2569961.0499999998,"ADDRESS":"中正南路２３６巷１８號","OBJECTID":409477},"geometry":{"x":174635.19000000041,"y":2569961.0500000045}},{"attributes":{"ID":409502,"DIS_CODE":0,"TOWNNAME":"下營區","LI":"營前里","LIN":"22鄰","STREET":"中正南路","SECT":" ","MAREA":" ","LANE":"２３６巷","ALLEY":" ","HOUSE_NO":"１９號","E_COORD97":174630.51000000001,"N_COORD97":2569960.75,"ADDRESS":"中正南路２３６巷１９號","OBJECTID":409478},"geometry":{"x":174630.50999999978,"y":2569960.75}},{"attributes":{"ID":409503,"DIS_CODE":0,"TOWNNAME":"下營區","LI":"營前里","LIN":"22鄰","STREET":"中正南路","SECT":" ","MAREA":" ","LANE":"２３６巷","ALLEY":" ","HOUSE_NO":"２０號","E_COORD97":174691.39999999999,"N_COORD97":2569948.4399999999,"ADDRESS":"中正南路２３６巷２０號","OBJECTID":409479},"geometry":{"x":174691.40000000037,"y":2569948.4400000013}},{"attributes":{"ID":409504,"DIS_CODE":0,"TOWNNAME":"下營區","LI":"營前里","LIN":"22鄰","STREET":"中正南路","SECT":" ","MAREA":" ","LANE":"２３６巷","ALLEY":" ","HOUSE_NO":"２號","E_COORD97":174701.67000000001,"N_COORD97":2569954.1600000001,"ADDRESS":"中正南路２３６巷２號","OBJECTID":409480},"geometry":{"x":174701.67000000086,"y":2569954.160000002}},{"attributes":{"ID":409505,"DIS_CODE":0,"TOWNNAME":"下營區","LI":"營前里","LIN":"22鄰","STREET":"中正南路","SECT":" ","MAREA":" ","LANE":"２３６巷","ALLEY":" ","HOUSE_NO":"３號","E_COORD97":174692.48000000001,"N_COORD97":2569969.0499999998,"ADDRESS":"中正南路２３６巷３號","OBJECTID":409481},"geometry":{"x":174692.48000000045,"y":2569969.0500000026}},{"attributes":{"ID":409506,"DIS_CODE":0,"TOWNNAME":"下營區","LI":"營前里","LIN":"22鄰","STREET":"中正南路","SECT":" ","MAREA":" ","LANE":"２３６巷","ALLEY":" ","HOUSE_NO":"５號","E_COORD97":174688.34,"N_COORD97":2569967.4900000002,"ADDRESS":"中正南路２３６巷５號","OBJECTID":409482},"geometry":{"x":174688.34000000078,"y":2569967.4899999984}},{"attributes":{"ID":409507,"DIS_CODE":0,"TOWNNAME":"下營區","LI":"營前里","LIN":"22鄰","STREET":"中正南路","SECT":" ","MAREA":" ","LANE":"２３６巷","ALLEY":" ","HOUSE_NO":"６號","E_COORD97":174684.28,"N_COORD97":2569967,"ADDRESS":"中正南路２３６巷６號","OBJECTID":409483},"geometry":{"x":174684.28000000119,"y":2569967}},{"attributes":{"ID":409508,"DIS_CODE":0,"TOWNNAME":"下營區","LI":"營前里","LIN":"22鄰","STREET":"中正南路","SECT":" ","MAREA":" ","LANE":"２３６巷","ALLEY":" ","HOUSE_NO":"７號","E_COORD97":174680.42000000001,"N_COORD97":2569965.6800000002,"ADDRESS":"中正南路２３６巷７號","OBJECTID":409484},"geometry":{"x":174680.41999999993,"y":2569965.6799999978}},{"attributes":{"ID":409509,"DIS_CODE":0,"TOWNNAME":"下營區","LI":"營前里","LIN":"22鄰","STREET":"中正南路","SECT":" ","MAREA":" ","LANE":"２３６巷","ALLEY":" ","HOUSE_NO":"８號","E_COORD97":174675.76999999999,"N_COORD97":2569965.2999999998,"ADDRESS":"中正南路２３６巷８號","OBJECTID":409485},"geometry":{"x":174675.76999999955,"y":2569965.3000000007}},{"attributes":{"ID":409510,"DIS_CODE":0,"TOWNNAME":"下營區","LI":"營前里","LIN":"22鄰","STREET":"中正南路","SECT":" ","MAREA":" ","LANE":"２３６巷","ALLEY":" ","HOUSE_NO":"９號","E_COORD97":174671.01999999999,"N_COORD97":2569964.96,"ADDRESS":"中正南路２３６巷９號","OBJECTID":409486},"geometry":{"x":174671.01999999955,"y":2569964.9600000009}},{"attributes":{"ID":409511,"DIS_CODE":0,"TOWNNAME":"永康區","LI":"東灣里","LIN":"22鄰","STREET":"大灣三街","SECT":" ","MAREA":" ","LANE":"７３巷","ALLEY":" ","HOUSE_NO":"１１１號","E_COORD97":174878.12,"N_COORD97":2544806.4900000002,"ADDRESS":"大灣三街７３巷１１１號","OBJECTID":409487},"geometry":{"x":174878.12000000197,"y":2544806.4900000002}},{"attributes":{"ID":409512,"DIS_CODE":0,"TOWNNAME":"永康區","LI":"建國里","LIN":"22鄰","STREET":"興國街","SECT":" ","MAREA":" ","LANE":"５巷","ALLEY":" ","HOUSE_NO":"３號","E_COORD97":172672.37,"N_COORD97":2544677.25,"ADDRESS":"興國街５巷３號","OBJECTID":409488},"geometry":{"x":172672.37000000011,"y":2544677.2500000019}},{"attributes":{"ID":409513,"DIS_CODE":0,"TOWNNAME":"永康區","LI":"西灣里","LIN":"22鄰","STREET":"永大路","SECT":"二段","MAREA":" ","LANE":"１９７巷","ALLEY":" ","HOUSE_NO":"２０號","E_COORD97":174268.34,"N_COORD97":2545327.2200000002,"ADDRESS":"永大路二段１９７巷２０號","OBJECTID":409489},"geometry":{"x":174268.34000000078,"y":2545327.2200000007}},{"attributes":{"ID":409514,"DIS_CODE":0,"TOWNNAME":"永康區","LI":"尚頂里","LIN":"22鄰","STREET":"南台街","SECT":" ","MAREA":" ","LANE":"１３巷","ALLEY":" ","HOUSE_NO":"３４號","E_COORD97":170381.88,"N_COORD97":2546855.25,"ADDRESS":"南台街１３巷３４號","OBJECTID":409490},"geometry":{"x":170381.87999999989,"y":2546855.25}},{"attributes":{"ID":409515,"DIS_CODE":0,"TOWNNAME":"永康區","LI":"尚頂里","LIN":"22鄰","STREET":"南台街","SECT":" ","MAREA":" ","LANE":"１３巷","ALLEY":" ","HOUSE_NO":"２８號","E_COORD97":170401.38,"N_COORD97":2546867.25,"ADDRESS":"南台街１３巷２８號","OBJECTID":409491},"geometry":{"x":170401.38000000082,"y":2546867.2500000037}},{"attributes":{"ID":409516,"DIS_CODE":0,"TOWNNAME":"永康區","LI":"東灣里","LIN":"22鄰","STREET":"大灣三街","SECT":" ","MAREA":" ","LANE":"７３巷","ALLEY":" ","HOUSE_NO":"１２９號","E_COORD97":174841.41,"N_COORD97":2544774.5299999998,"ADDRESS":"大灣三街７３巷１２９號","OBJECTID":409492},"geometry":{"x":174841.41000000108,"y":2544774.5299999993}},{"attributes":{"ID":409517,"DIS_CODE":0,"TOWNNAME":"永康區","LI":"尚頂里","LIN":"22鄰","STREET":"南台街","SECT":" ","MAREA":" ","LANE":"１３巷","ALLEY":" ","HOUSE_NO":"４６號","E_COORD97":170344.60999999999,"N_COORD97":2546841.7200000002,"ADDRESS":"南台街１３巷４６號","OBJECTID":409493},"geometry":{"x":170344.61000000127,"y":2546841.7200000025}},{"attributes":{"ID":409518,"DIS_CODE":0,"TOWNNAME":"永康區","LI":"東灣里","LIN":"22鄰","STREET":"大灣三街","SECT":" ","MAREA":" ","LANE":"７３巷","ALLEY":" ","HOUSE_NO":"１２５號","E_COORD97":174843.95000000001,"N_COORD97":2544783.8500000001,"ADDRESS":"大灣三街７３巷１２５號","OBJECTID":409494},"geometry":{"x":174843.95000000112,"y":2544783.8499999996}},{"attributes":{"ID":409519,"DIS_CODE":0,"TOWNNAME":"永康區","LI":"尚頂里","LIN":"22鄰","STREET":"南台街","SECT":" ","MAREA":" ","LANE":"１３巷","ALLEY":" ","HOUSE_NO":"５４號","E_COORD97":170326.81,"N_COORD97":2546839.9700000002,"ADDRESS":"南台街１３巷５４號","OBJECTID":409495},"geometry":{"x":170326.81000000052,"y":2546839.9700000025}},{"attributes":{"ID":409520,"DIS_CODE":0,"TOWNNAME":"永康區","LI":"西灣里","LIN":"22鄰","STREET":"永大路","SECT":"二段","MAREA":" ","LANE":"１９７巷","ALLEY":" ","HOUSE_NO":"４６號","E_COORD97":174238.13,"N_COORD97":2545338.1200000001,"ADDRESS":"永大路二段１９７巷４６號","OBJECTID":409496},"geometry":{"x":174238.12999999989,"y":2545338.1200000029}},{"attributes":{"ID":409521,"DIS_CODE":0,"TOWNNAME":"永康區","LI":"尚頂里","LIN":"22鄰","STREET":"南台街","SECT":" ","MAREA":" ","LANE":"１３巷","ALLEY":" ","HOUSE_NO":"６０號","E_COORD97":170309.45999999999,"N_COORD97":2546840.7200000002,"ADDRESS":"南台街１３巷６０號","OBJECTID":409497},"geometry":{"x":170309.46000000089,"y":2546840.7199999988}},{"attributes":{"ID":409522,"DIS_CODE":0,"TOWNNAME":"永康區","LI":"尚頂里","LIN":"22鄰","STREET":"南台街","SECT":" ","MAREA":" ","LANE":"１３巷","ALLEY":" ","HOUSE_NO":"３２號","E_COORD97":170385.95000000001,"N_COORD97":2546857,"ADDRESS":"南台街１３巷３２號","OBJECTID":409498},"geometry":{"x":170385.95000000112,"y":2546857}},{"attributes":{"ID":409523,"DIS_CODE":0,"TOWNNAME":"永康區","LI":"尚頂里","LIN":"22鄰","STREET":"南台街","SECT":" ","MAREA":" ","LANE":"１３巷","ALLEY":" ","HOUSE_NO":"５２號","E_COORD97":170330.81,"N_COORD97":2546839.9700000002,"ADDRESS":"南台街１３巷５２號","OBJECTID":409499},"geometry":{"x":170330.80999999959,"y":2546839.9700000025}},{"attributes":{"ID":409524,"DIS_CODE":0,"TOWNNAME":"永康區","LI":"尚頂里","LIN":"22鄰","STREET":"南台街","SECT":" ","MAREA":" ","LANE":"１３巷","ALLEY":" ","HOUSE_NO":"２０號","E_COORD97":170402.09,"N_COORD97":2546887.2400000002,"ADDRESS":"南台街１３巷２０號","OBJECTID":409500},"geometry":{"x":170402.08999999985,"y":2546887.2400000002}},{"attributes":{"ID":409525,"DIS_CODE":0,"TOWNNAME":"永康區","LI":"東灣里","LIN":"22鄰","STREET":"大灣三街","SECT":" ","MAREA":" ","LANE":"７３巷","ALLEY":" ","HOUSE_NO":"１２３號","E_COORD97":174844.95000000001,"N_COORD97":2544787.6200000001,"ADDRESS":"大灣三街７３巷１２３號","OBJECTID":409501},"geometry":{"x":174844.95000000019,"y":2544787.6200000048}},{"attributes":{"ID":409526,"DIS_CODE":0,"TOWNNAME":"永康區","LI":"尚頂里","LIN":"22鄰","STREET":"南台街","SECT":" ","MAREA":" ","LANE":"１３巷","ALLEY":" ","HOUSE_NO":"３６號","E_COORD97":170371.76000000001,"N_COORD97":2546856,"ADDRESS":"南台街１３巷３６號","OBJECTID":409502},"geometry":{"x":170371.76000000071,"y":2546856.0000000019}},{"attributes":{"ID":409527,"DIS_CODE":0,"TOWNNAME":"永康區","LI":"尚頂里","LIN":"22鄰","STREET":"南台街","SECT":" ","MAREA":" ","LANE":"１３巷","ALLEY":" ","HOUSE_NO":"３０號","E_COORD97":170389.97,"N_COORD97":2546858.5,"ADDRESS":"南台街１３巷３０號","OBJECTID":409503},"geometry":{"x":170389.9700000016,"y":2546858.5000000037}},{"attributes":{"ID":409528,"DIS_CODE":0,"TOWNNAME":"永康區","LI":"尚頂里","LIN":"22鄰","STREET":"南台街","SECT":" ","MAREA":" ","LANE":"１３巷","ALLEY":" ","HOUSE_NO":"５８號","E_COORD97":170317.91,"N_COORD97":2546840.4700000002,"ADDRESS":"南台街１３巷５８號","OBJECTID":409504},"geometry":{"x":170317.91000000201,"y":2546840.4700000025}},{"attributes":{"ID":409529,"DIS_CODE":0,"TOWNNAME":"永康區","LI":"永康里","LIN":"22鄰","STREET":"中山南路","SECT":" ","MAREA":" ","LANE":"４７１巷","ALLEY":" ","HOUSE_NO":"４２號","E_COORD97":173177.39999999999,"N_COORD97":2547154.5,"ADDRESS":"中山南路４７１巷４２號","OBJECTID":409505},"geometry":{"x":173177.40000000037,"y":2547154.5000000019}},{"attributes":{"ID":409530,"DIS_CODE":0,"TOWNNAME":"永康區","LI":"正強里","LIN":"22鄰","STREET":"自強路","SECT":" ","MAREA":" ","LANE":"３２１巷","ALLEY":" ","HOUSE_NO":"２之１號","E_COORD97":173446.35999999999,"N_COORD97":2547763.5499999998,"ADDRESS":"自強路３２１巷２之１號","OBJECTID":409506},"geometry":{"x":173446.36000000127,"y":2547763.5500000007}},{"attributes":{"ID":409531,"DIS_CODE":0,"TOWNNAME":"永康區","LI":"北灣里","LIN":"22鄰","STREET":"大灣路","SECT":" ","MAREA":" ","LANE":"４０巷","ALLEY":" ","HOUSE_NO":"１００號","E_COORD97":174951.57000000001,"N_COORD97":2546222.3399999999,"ADDRESS":"大灣路４０巷１００號","OBJECTID":409507},"geometry":{"x":174951.57000000216,"y":2546222.3400000036}},{"attributes":{"ID":409532,"DIS_CODE":0,"TOWNNAME":"永康區","LI":"永康里","LIN":"22鄰","STREET":"中山南路","SECT":" ","MAREA":" ","LANE":"４７１巷","ALLEY":" ","HOUSE_NO":"４０號","E_COORD97":173173.09,"N_COORD97":2547153.5,"ADDRESS":"中山南路４７１巷４０號","OBJECTID":409508},"geometry":{"x":173173.09000000078,"y":2547153.5000000037}},{"attributes":{"ID":409533,"DIS_CODE":0,"TOWNNAME":"永康區","LI":"正強里","LIN":"22鄰","STREET":"自強路","SECT":" ","MAREA":" ","LANE":"３２１巷","ALLEY":" ","HOUSE_NO":"３號","E_COORD97":173435.60000000001,"N_COORD97":2547752.25,"ADDRESS":"自強路３２１巷３號","OBJECTID":409509},"geometry":{"x":173435.60000000056,"y":2547752.2500000019}},{"attributes":{"ID":409534,"DIS_CODE":0,"TOWNNAME":"永康區","LI":"正強里","LIN":"22鄰","STREET":"自強路","SECT":" ","MAREA":" ","LANE":"３２１巷","ALLEY":" ","HOUSE_NO":"１５號","E_COORD97":173429.67000000001,"N_COORD97":2547778.25,"ADDRESS":"自強路３２１巷１５號","OBJECTID":409510},"geometry":{"x":173429.66999999993,"y":2547778.25}},{"attributes":{"ID":409535,"DIS_CODE":0,"TOWNNAME":"永康區","LI":"正強里","LIN":"22鄰","STREET":"自強路","SECT":" ","MAREA":" ","LANE":"３２１巷","ALLEY":" ","HOUSE_NO":"１３號","E_COORD97":173430.76999999999,"N_COORD97":2547774,"ADDRESS":"自強路３２１巷１３號","OBJECTID":409511},"geometry":{"x":173430.77000000048,"y":2547774.0000000037}},{"attributes":{"ID":409536,"DIS_CODE":0,"TOWNNAME":"安南區","LI":"新順里","LIN":"22鄰","STREET":"安豐六街","SECT":" ","MAREA":" ","LANE":"２５巷","ALLEY":" ","HOUSE_NO":"１１號","E_COORD97":169317.62,"N_COORD97":2549745.8999999999,"ADDRESS":"安豐六街２５巷１１號","OBJECTID":409512},"geometry":{"x":169317.62000000011,"y":2549745.9000000022}},{"attributes":{"ID":409537,"DIS_CODE":0,"TOWNNAME":"安南區","LI":"新順里","LIN":"22鄰","STREET":"安豐六街","SECT":" ","MAREA":" ","LANE":"２５巷","ALLEY":" ","HOUSE_NO":"９號","E_COORD97":169320.79999999999,"N_COORD97":2549742.5899999999,"ADDRESS":"安豐六街２５巷９號","OBJECTID":409513},"geometry":{"x":169320.79999999981,"y":2549742.5899999999}},{"attributes":{"ID":409538,"DIS_CODE":0,"TOWNNAME":"安南區","LI":"新順里","LIN":"22鄰","STREET":"安豐六街","SECT":" ","MAREA":" ","LANE":"２５巷","ALLEY":" ","HOUSE_NO":"１３號","E_COORD97":169315.07999999999,"N_COORD97":2549749.96,"ADDRESS":"安豐六街２５巷１３號","OBJECTID":409514},"geometry":{"x":169315.08000000101,"y":2549749.9600000028}},{"attributes":{"ID":409539,"DIS_CODE":0,"TOWNNAME":"安南區","LI":"新順里","LIN":"22鄰","STREET":"安豐六街","SECT":" ","MAREA":" ","LANE":"２５巷","ALLEY":" ","HOUSE_NO":"１５號","E_COORD97":169311.91,"N_COORD97":2549753.2599999998,"ADDRESS":"安豐六街２５巷１５號","OBJECTID":409515},"geometry":{"x":169311.91000000015,"y":2549753.2600000016}},{"attributes":{"ID":409540,"DIS_CODE":0,"TOWNNAME":"安南區","LI":"新順里","LIN":"22鄰","STREET":"安豐六街","SECT":" ","MAREA":" ","LANE":"２５巷","ALLEY":" ","HOUSE_NO":"２３號","E_COORD97":169302.76999999999,"N_COORD97":2549764.5699999998,"ADDRESS":"安豐六街２５巷２３號","OBJECTID":409516},"geometry":{"x":169302.77000000142,"y":2549764.5700000022}},{"attributes":{"ID":409541,"DIS_CODE":0,"TOWNNAME":"安南區","LI":"新順里","LIN":"22鄰","STREET":"安豐六街","SECT":" ","MAREA":" ","LANE":"２５巷","ALLEY":" ","HOUSE_NO":"２５號","E_COORD97":169299.97,"N_COORD97":2549767.4900000002,"ADDRESS":"安豐六街２５巷２５號","OBJECTID":409517},"geometry":{"x":169299.9700000016,"y":2549767.4900000002}},{"attributes":{"ID":409542,"DIS_CODE":0,"TOWNNAME":"安南區","LI":"新順里","LIN":"22鄰","STREET":"安豐六街","SECT":" ","MAREA":" ","LANE":"２５巷","ALLEY":" ","HOUSE_NO":"２７號","E_COORD97":169297.42999999999,"N_COORD97":2549770.6600000001,"ADDRESS":"安豐六街２５巷２７號","OBJECTID":409518},"geometry":{"x":169297.43000000063,"y":2549770.660000002}},{"attributes":{"ID":409543,"DIS_CODE":0,"TOWNNAME":"佳里區","LI":"安西里","LIN":"22鄰","STREET":"光華街","SECT":" ","MAREA":" ","LANE":"９０巷","ALLEY":" ","HOUSE_NO":"１９號","E_COORD97":165225.95999999999,"N_COORD97":2562869.54,"ADDRESS":"光華街９０巷１９號","OBJECTID":409519},"geometry":{"x":165225.95999999996,"y":2562869.5399999991}},{"attributes":{"ID":409544,"DIS_CODE":0,"TOWNNAME":"佳里區","LI":"安西里","LIN":"22鄰","STREET":"光華街","SECT":" ","MAREA":" ","LANE":"９０巷","ALLEY":" ","HOUSE_NO":"１號","E_COORD97":165216.60999999999,"N_COORD97":2562832.0899999999,"ADDRESS":"光華街９０巷１號","OBJECTID":409520},"geometry":{"x":165216.61000000127,"y":2562832.0899999999}},{"attributes":{"ID":409545,"DIS_CODE":0,"TOWNNAME":"佳里區","LI":"安西里","LIN":"22鄰","STREET":"光華街","SECT":" ","MAREA":" ","LANE":"９０巷","ALLEY":" ","HOUSE_NO":"２１號","E_COORD97":165226.35000000001,"N_COORD97":2562873.6400000001,"ADDRESS":"光華街９０巷２１號","OBJECTID":409521},"geometry":{"x":165226.34999999963,"y":2562873.6400000006}},{"attributes":{"ID":409546,"DIS_CODE":0,"TOWNNAME":"佳里區","LI":"安西里","LIN":"22鄰","STREET":"光華街","SECT":" ","MAREA":" ","LANE":"９０巷","ALLEY":" ","HOUSE_NO":"２５號","E_COORD97":165234.5,"N_COORD97":2562882.6899999999,"ADDRESS":"光華街９０巷２５號","OBJECTID":409522},"geometry":{"x":165234.5,"y":2562882.6899999995}},{"attributes":{"ID":409547,"DIS_CODE":0,"TOWNNAME":"佳里區","LI":"安西里","LIN":"22鄰","STREET":"光華街","SECT":" ","MAREA":" ","LANE":"９０巷","ALLEY":" ","HOUSE_NO":"２７號","E_COORD97":165236.48999999999,"N_COORD97":2562887.2200000002,"ADDRESS":"光華街９０巷２７號","OBJECTID":409523},"geometry":{"x":165236.49000000022,"y":2562887.2200000007}},{"attributes":{"ID":409548,"DIS_CODE":0,"TOWNNAME":"佳里區","LI":"安西里","LIN":"22鄰","STREET":"光華街","SECT":" ","MAREA":" ","LANE":"９０巷","ALLEY":" ","HOUSE_NO":"２９號","E_COORD97":165238.39000000001,"N_COORD97":2562891.1499999999,"ADDRESS":"光華街９０巷２９號","OBJECTID":409524},"geometry":{"x":165238.38999999966,"y":2562891.1500000041}},{"attributes":{"ID":409549,"DIS_CODE":0,"TOWNNAME":"佳里區","LI":"安西里","LIN":"22鄰","STREET":"光華街","SECT":" ","MAREA":" ","LANE":"９０巷","ALLEY":" ","HOUSE_NO":"３號","E_COORD97":165217.19,"N_COORD97":2562836.25,"ADDRESS":"光華街９０巷３號","OBJECTID":409525},"geometry":{"x":165217.19000000134,"y":2562836.2500000019}},{"attributes":{"ID":409550,"DIS_CODE":0,"TOWNNAME":"佳里區","LI":"安西里","LIN":"22鄰","STREET":"光華街","SECT":" ","MAREA":" ","LANE":"９０巷","ALLEY":" ","HOUSE_NO":"５號","E_COORD97":165217.85000000001,"N_COORD97":2562840.54,"ADDRESS":"光華街９０巷５號","OBJECTID":409526},"geometry":{"x":165217.84999999963,"y":2562840.540000001}},{"attributes":{"ID":409551,"DIS_CODE":0,"TOWNNAME":"佳里區","LI":"安西里","LIN":"22鄰","STREET":"光華街","SECT":" ","MAREA":" ","LANE":"９０巷","ALLEY":" ","HOUSE_NO":"７號","E_COORD97":165218.95000000001,"N_COORD97":2562844.9900000002,"ADDRESS":"光華街９０巷７號","OBJECTID":409527},"geometry":{"x":165218.95000000112,"y":2562844.9900000021}},{"attributes":{"ID":409552,"DIS_CODE":0,"TOWNNAME":"佳里區","LI":"安西里","LIN":"22鄰","STREET":"光華街","SECT":" ","MAREA":" ","LANE":"９０巷","ALLEY":" ","HOUSE_NO":"９號","E_COORD97":165219.26000000001,"N_COORD97":2562849.1400000001,"ADDRESS":"光華街９０巷９號","OBJECTID":409528},"geometry":{"x":165219.26000000164,"y":2562849.1400000006}},{"attributes":{"ID":409553,"DIS_CODE":0,"TOWNNAME":"佳里區","LI":"安西里","LIN":"22鄰","STREET":"安西路","SECT":" ","MAREA":" ","LANE":"３３０巷","ALLEY":" ","HOUSE_NO":"１１號","E_COORD97":165197.76000000001,"N_COORD97":2562866.0099999998,"ADDRESS":"安西路３３０巷１１號","OBJECTID":409529},"geometry":{"x":165197.76000000071,"y":2562866.0099999998}},{"attributes":{"ID":409554,"DIS_CODE":0,"TOWNNAME":"佳里區","LI":"安西里","LIN":"22鄰","STREET":"安西路","SECT":" ","MAREA":" ","LANE":"３３０巷","ALLEY":" ","HOUSE_NO":"１３號","E_COORD97":165202.60999999999,"N_COORD97":2562865.7400000002,"ADDRESS":"安西路３３０巷１３號","OBJECTID":409530},"geometry":{"x":165202.61000000127,"y":2562865.7400000002}},{"attributes":{"ID":409555,"DIS_CODE":0,"TOWNNAME":"佳里區","LI":"安西里","LIN":"22鄰","STREET":"安西路","SECT":" ","MAREA":" ","LANE":"３３０巷","ALLEY":" ","HOUSE_NO":"１５號","E_COORD97":165207.37,"N_COORD97":2562865.54,"ADDRESS":"安西路３３０巷１５號","OBJECTID":409531},"geometry":{"x":165207.37000000104,"y":2562865.5399999991}},{"attributes":{"ID":409556,"DIS_CODE":0,"TOWNNAME":"佳里區","LI":"安西里","LIN":"22鄰","STREET":"安西路","SECT":" ","MAREA":" ","LANE":"３３０巷","ALLEY":" ","HOUSE_NO":"１６號","E_COORD97":165199.20999999999,"N_COORD97":2562851.98,"ADDRESS":"安西路３３０巷１６號","OBJECTID":409532},"geometry":{"x":165199.20999999996,"y":2562851.9800000023}},{"attributes":{"ID":409557,"DIS_CODE":0,"TOWNNAME":"佳里區","LI":"安西里","LIN":"22鄰","STREET":"安西路","SECT":" ","MAREA":" ","LANE":"３３０巷","ALLEY":" ","HOUSE_NO":"１７號","E_COORD97":165211.45999999999,"N_COORD97":2562865.3500000001,"ADDRESS":"安西路３３０巷１７號","OBJECTID":409533},"geometry":{"x":165211.46000000183,"y":2562865.3500000034}},{"attributes":{"ID":409558,"DIS_CODE":0,"TOWNNAME":"佳里區","LI":"安西里","LIN":"22鄰","STREET":"安西路","SECT":" ","MAREA":" ","LANE":"３３０巷","ALLEY":" ","HOUSE_NO":"１８號","E_COORD97":165198.95999999999,"N_COORD97":2562843.3999999999,"ADDRESS":"安西路３３０巷１８號","OBJECTID":409534},"geometry":{"x":165198.95999999996,"y":2562843.4000000022}},{"attributes":{"ID":409559,"DIS_CODE":0,"TOWNNAME":"佳里區","LI":"安西里","LIN":"22鄰","STREET":"安西路","SECT":" ","MAREA":" ","LANE":"３３０巷","ALLEY":" ","HOUSE_NO":"１號","E_COORD97":165175.12,"N_COORD97":2562866.2000000002,"ADDRESS":"安西路３３０巷１號","OBJECTID":409535},"geometry":{"x":165175.12000000104,"y":2562866.2000000011}},{"attributes":{"ID":409560,"DIS_CODE":0,"TOWNNAME":"佳里區","LI":"安西里","LIN":"22鄰","STREET":"安西路","SECT":" ","MAREA":" ","LANE":"３３０巷","ALLEY":" ","HOUSE_NO":"２０號","E_COORD97":165198.70000000001,"N_COORD97":2562834.5699999998,"ADDRESS":"安西路３３０巷２０號","OBJECTID":409536},"geometry":{"x":165198.70000000112,"y":2562834.5700000022}},{"attributes":{"ID":409561,"DIS_CODE":0,"TOWNNAME":"佳里區","LI":"安西里","LIN":"22鄰","STREET":"安西路","SECT":" ","MAREA":" ","LANE":"３３０巷","ALLEY":" ","HOUSE_NO":"３號","E_COORD97":165179.69,"N_COORD97":2562866.2999999998,"ADDRESS":"安西路３３０巷３號","OBJECTID":409537},"geometry":{"x":165179.69000000227,"y":2562866.3000000007}},{"attributes":{"ID":409562,"DIS_CODE":0,"TOWNNAME":"佳里區","LI":"安西里","LIN":"22鄰","STREET":"安西路","SECT":" ","MAREA":" ","LANE":"３３０巷","ALLEY":" ","HOUSE_NO":"５號","E_COORD97":165184.23000000001,"N_COORD97":2562866.2200000002,"ADDRESS":"安西路３３０巷５號","OBJECTID":409538},"geometry":{"x":165184.23000000045,"y":2562866.2200000007}},{"attributes":{"ID":409563,"DIS_CODE":0,"TOWNNAME":"佳里區","LI":"安西里","LIN":"22鄰","STREET":"安西路","SECT":" ","MAREA":" ","LANE":"３３０巷","ALLEY":" ","HOUSE_NO":"７號","E_COORD97":165188.88,"N_COORD97":2562866.2000000002,"ADDRESS":"安西路３３０巷７號","OBJECTID":409539},"geometry":{"x":165188.88000000082,"y":2562866.2000000011}},{"attributes":{"ID":409564,"DIS_CODE":0,"TOWNNAME":"佳里區","LI":"安西里","LIN":"22鄰","STREET":"安西路","SECT":" ","MAREA":" ","LANE":"３５０巷","ALLEY":" ","HOUSE_NO":"１０號","E_COORD97":165201.85000000001,"N_COORD97":2562887.3999999999,"ADDRESS":"安西路３５０巷１０號","OBJECTID":409540},"geometry":{"x":165201.85000000056,"y":2562887.4000000022}},{"attributes":{"ID":409565,"DIS_CODE":0,"TOWNNAME":"佳里區","LI":"安西里","LIN":"22鄰","STREET":"安西路","SECT":" ","MAREA":" ","LANE":"３５０巷","ALLEY":" ","HOUSE_NO":"１１號","E_COORD97":165233.26999999999,"N_COORD97":2562906.0600000001,"ADDRESS":"安西路３５０巷１１號","OBJECTID":409541},"geometry":{"x":165233.27000000048,"y":2562906.0600000024}},{"attributes":{"ID":409566,"DIS_CODE":0,"TOWNNAME":"佳里區","LI":"安西里","LIN":"22鄰","STREET":"安西路","SECT":" ","MAREA":" ","LANE":"３５０巷","ALLEY":" ","HOUSE_NO":"１２號","E_COORD97":165206.95000000001,"N_COORD97":2562887.9100000001,"ADDRESS":"安西路３５０巷１２號","OBJECTID":409542},"geometry":{"x":165206.95000000112,"y":2562887.9100000001}},{"attributes":{"ID":409567,"DIS_CODE":0,"TOWNNAME":"佳里區","LI":"安西里","LIN":"22鄰","STREET":"安西路","SECT":" ","MAREA":" ","LANE":"３５０巷","ALLEY":" ","HOUSE_NO":"１號","E_COORD97":165210.48999999999,"N_COORD97":2562908.4300000002,"ADDRESS":"安西路３５０巷１號","OBJECTID":409543},"geometry":{"x":165210.49000000115,"y":2562908.4299999997}},{"attributes":{"ID":409568,"DIS_CODE":0,"TOWNNAME":"佳里區","LI":"安西里","LIN":"22鄰","STREET":"安西路","SECT":" ","MAREA":" ","LANE":"３５０巷","ALLEY":" ","HOUSE_NO":"２號","E_COORD97":165185.54999999999,"N_COORD97":2562888.7200000002,"ADDRESS":"安西路３５０巷２號","OBJECTID":409544},"geometry":{"x":165185.55000000075,"y":2562888.7200000025}},{"attributes":{"ID":409569,"DIS_CODE":0,"TOWNNAME":"佳里區","LI":"安西里","LIN":"22鄰","STREET":"安西路","SECT":" ","MAREA":" ","LANE":"３５０巷","ALLEY":" ","HOUSE_NO":"３號","E_COORD97":165214.41,"N_COORD97":2562908.27,"ADDRESS":"安西路３５０巷３號","OBJECTID":409545},"geometry":{"x":165214.41000000108,"y":2562908.2699999996}},{"attributes":{"ID":409570,"DIS_CODE":0,"TOWNNAME":"佳里區","LI":"安西里","LIN":"22鄰","STREET":"安西路","SECT":" ","MAREA":" ","LANE":"３５０巷","ALLEY":" ","HOUSE_NO":"５號","E_COORD97":165219.48999999999,"N_COORD97":2562906.1600000001,"ADDRESS":"安西路３５０巷５號","OBJECTID":409546},"geometry":{"x":165219.49000000022,"y":2562906.1600000001}},{"attributes":{"ID":409571,"DIS_CODE":0,"TOWNNAME":"佳里區","LI":"安西里","LIN":"22鄰","STREET":"安西路","SECT":" ","MAREA":" ","LANE":"３５０巷","ALLEY":" ","HOUSE_NO":"６號","E_COORD97":165191.44,"N_COORD97":2562888.2799999998,"ADDRESS":"安西路３５０巷６號","OBJECTID":409547},"geometry":{"x":165191.44000000041,"y":2562888.2799999993}},{"attributes":{"ID":409572,"DIS_CODE":0,"TOWNNAME":"佳里區","LI":"安西里","LIN":"22鄰","STREET":"安西路","SECT":" ","MAREA":" ","LANE":"３５０巷","ALLEY":" ","HOUSE_NO":"７號","E_COORD97":165224.57999999999,"N_COORD97":2562906.0699999998,"ADDRESS":"安西路３５０巷７號","OBJECTID":409548},"geometry":{"x":165224.58000000101,"y":2562906.0700000022}},{"attributes":{"ID":409573,"DIS_CODE":0,"TOWNNAME":"佳里區","LI":"安西里","LIN":"22鄰","STREET":"安西路","SECT":" ","MAREA":" ","LANE":"３５０巷","ALLEY":" ","HOUSE_NO":"８號","E_COORD97":165196.76000000001,"N_COORD97":2562887.9500000002,"ADDRESS":"安西路３５０巷８號","OBJECTID":409549},"geometry":{"x":165196.75999999978,"y":2562887.950000003}},{"attributes":{"ID":409574,"DIS_CODE":0,"TOWNNAME":"佳里區","LI":"安西里","LIN":"22鄰","STREET":"安西路","SECT":" ","MAREA":" ","LANE":"３５０巷","ALLEY":" ","HOUSE_NO":"９號","E_COORD97":165228.64999999999,"N_COORD97":2562905.9199999999,"ADDRESS":"安西路３５０巷９號","OBJECTID":409550},"geometry":{"x":165228.65000000037,"y":2562905.9200000037}},{"attributes":{"ID":409575,"DIS_CODE":0,"TOWNNAME":"佳里區","LI":"六安里","LIN":"22鄰","STREET":"佳北路","SECT":" ","MAREA":" ","LANE":"３８３巷","ALLEY":" ","HOUSE_NO":"８號","E_COORD97":165308.60999999999,"N_COORD97":2563390.7200000002,"ADDRESS":"佳北路３８３巷８號","OBJECTID":409551},"geometry":{"x":165308.61000000034,"y":2563390.7200000025}},{"attributes":{"ID":409576,"DIS_CODE":0,"TOWNNAME":"安南區","LI":"\u25A0南里","LIN":"22鄰","STREET":"長和路","SECT":"二段","MAREA":" ","LANE":"１２巷","ALLEY":" ","HOUSE_NO":"９６之１６號","E_COORD97":170415.89000000001,"N_COORD97":2552106.71,"ADDRESS":"長和路二段１２巷９６之１６號","OBJECTID":409552},"geometry":{"x":170415.8900000006,"y":2552106.7100000028}},{"attributes":{"ID":409577,"DIS_CODE":0,"TOWNNAME":"東區","LI":"東門里","LIN":"22鄰","STREET":"東榮街","SECT":" ","MAREA":" ","LANE":"１１５巷","ALLEY":" ","HOUSE_NO":"２號","E_COORD97":169561.89999999999,"N_COORD97":2543218.4100000001,"ADDRESS":"東榮街１１５巷２號","OBJECTID":409553},"geometry":{"x":169561.90000000037,"y":2543218.410000002}},{"attributes":{"ID":409578,"DIS_CODE":0,"TOWNNAME":"東區","LI":"東門里","LIN":"22鄰","STREET":"東榮街","SECT":" ","MAREA":" ","LANE":"１１５巷","ALLEY":" ","HOUSE_NO":"２５號","E_COORD97":169588.17000000001,"N_COORD97":2543275.96,"ADDRESS":"東榮街１１５巷２５號","OBJECTID":409554},"geometry":{"x":169588.16999999993,"y":2543275.959999999}},{"attributes":{"ID":409579,"DIS_CODE":0,"TOWNNAME":"東區","LI":"東門里","LIN":"22鄰","STREET":"東榮街","SECT":" ","MAREA":" ","LANE":"１１５巷","ALLEY":" ","HOUSE_NO":"２７號","E_COORD97":169586.88,"N_COORD97":2543271.75,"ADDRESS":"東榮街１１５巷２７號","OBJECTID":409555},"geometry":{"x":169586.87999999989,"y":2543271.75}},{"attributes":{"ID":409580,"DIS_CODE":0,"TOWNNAME":"東區","LI":"東門里","LIN":"22鄰","STREET":"東榮街","SECT":" ","MAREA":" ","LANE":"１１５巷","ALLEY":" ","HOUSE_NO":"２９號","E_COORD97":169585.92999999999,"N_COORD97":2543266.4199999999,"ADDRESS":"東榮街１１５巷２９號","OBJECTID":409556},"geometry":{"x":169585.9299999997,"y":2543266.4200000018}},{"attributes":{"ID":409581,"DIS_CODE":0,"TOWNNAME":"東區","LI":"東門里","LIN":"22鄰","STREET":"東榮街","SECT":" ","MAREA":" ","LANE":"１１５巷","ALLEY":" ","HOUSE_NO":"３１號","E_COORD97":169584.47,"N_COORD97":2543260.4900000002,"ADDRESS":"東榮街１１５巷３１號","OBJECTID":409557},"geometry":{"x":169584.46999999974,"y":2543260.4900000002}},{"attributes":{"ID":409582,"DIS_CODE":0,"TOWNNAME":"東區","LI":"東門里","LIN":"22鄰","STREET":"東榮街","SECT":" ","MAREA":" ","LANE":"１１５巷","ALLEY":" ","HOUSE_NO":"３３號","E_COORD97":169580.94,"N_COORD97":2543250.3900000001,"ADDRESS":"東榮街１１５巷３３號","OBJECTID":409558},"geometry":{"x":169580.94000000134,"y":2543250.3900000025}},{"attributes":{"ID":409583,"DIS_CODE":0,"TOWNNAME":"東區","LI":"東門里","LIN":"22鄰","STREET":"東榮街","SECT":" ","MAREA":" ","LANE":"１１５巷","ALLEY":" ","HOUSE_NO":"３５號","E_COORD97":169580.34,"N_COORD97":2543245.6600000001,"ADDRESS":"東榮街１１５巷３５號","OBJECTID":409559},"geometry":{"x":169580.33999999985,"y":2543245.6600000001}},{"attributes":{"ID":409584,"DIS_CODE":0,"TOWNNAME":"東區","LI":"東門里","LIN":"22鄰","STREET":"東榮街","SECT":" ","MAREA":" ","LANE":"１１５巷","ALLEY":" ","HOUSE_NO":"３７號","E_COORD97":169579.31,"N_COORD97":2543239.2999999998,"ADDRESS":"東榮街１１５巷３７號","OBJECTID":409560},"geometry":{"x":169579.31000000052,"y":2543239.3000000007}},{"attributes":{"ID":409585,"DIS_CODE":0,"TOWNNAME":"東區","LI":"東門里","LIN":"22鄰","STREET":"東榮街","SECT":" ","MAREA":" ","LANE":"１１５巷","ALLEY":" ","HOUSE_NO":"３９號","E_COORD97":169574.92000000001,"N_COORD97":2543231.1899999999,"ADDRESS":"東榮街１１５巷３９號","OBJECTID":409561},"geometry":{"x":169574.91999999899,"y":2543231.1899999995}},{"attributes":{"ID":409586,"DIS_CODE":0,"TOWNNAME":"東區","LI":"東門里","LIN":"22鄰","STREET":"東榮街","SECT":" ","MAREA":" ","LANE":"１１５巷","ALLEY":" ","HOUSE_NO":"３號","E_COORD97":169564.06,"N_COORD97":2543236.0099999998,"ADDRESS":"東榮街１１５巷３號","OBJECTID":409562},"geometry":{"x":169564.06000000052,"y":2543236.0099999998}},{"attributes":{"ID":409587,"DIS_CODE":0,"TOWNNAME":"東區","LI":"東門里","LIN":"22鄰","STREET":"東榮街","SECT":" ","MAREA":" ","LANE":"１１５巷","ALLEY":" ","HOUSE_NO":"４１號","E_COORD97":169579.91,"N_COORD97":2543229.3900000001,"ADDRESS":"東榮街１１５巷４１號","OBJECTID":409563},"geometry":{"x":169579.91000000015,"y":2543229.3900000025}},{"attributes":{"ID":409588,"DIS_CODE":0,"TOWNNAME":"東區","LI":"東門里","LIN":"22鄰","STREET":"東榮街","SECT":" ","MAREA":" ","LANE":"１１５巷","ALLEY":" ","HOUSE_NO":"４３號","E_COORD97":169598.67000000001,"N_COORD97":2543274.1099999999,"ADDRESS":"東榮街１１５巷４３號","OBJECTID":409564},"geometry":{"x":169598.67000000179,"y":2543274.1100000013}},{"attributes":{"ID":409589,"DIS_CODE":0,"TOWNNAME":"東區","LI":"東門里","LIN":"22鄰","STREET":"東榮街","SECT":" ","MAREA":" ","LANE":"１１５巷","ALLEY":" ","HOUSE_NO":"４５號","E_COORD97":169597.38,"N_COORD97":2543267.0600000001,"ADDRESS":"東榮街１１５巷４５號","OBJECTID":409565},"geometry":{"x":169597.38000000175,"y":2543267.0600000005}},{"attributes":{"ID":409590,"DIS_CODE":0,"TOWNNAME":"東區","LI":"東門里","LIN":"22鄰","STREET":"東榮街","SECT":" ","MAREA":" ","LANE":"１１５巷","ALLEY":" ","HOUSE_NO":"４７號","E_COORD97":169593.76000000001,"N_COORD97":2543255.3500000001,"ADDRESS":"東榮街１１５巷４７號","OBJECTID":409566},"geometry":{"x":169593.75999999978,"y":2543255.3500000034}},{"attributes":{"ID":409591,"DIS_CODE":0,"TOWNNAME":"東區","LI":"東門里","LIN":"22鄰","STREET":"東榮街","SECT":" ","MAREA":" ","LANE":"１１５巷","ALLEY":" ","HOUSE_NO":"４９號","E_COORD97":169592.38,"N_COORD97":2543248.6400000001,"ADDRESS":"東榮街１１５巷４９號","OBJECTID":409567},"geometry":{"x":169592.38000000082,"y":2543248.6400000025}},{"attributes":{"ID":409592,"DIS_CODE":0,"TOWNNAME":"東區","LI":"東門里","LIN":"22鄰","STREET":"東榮街","SECT":" ","MAREA":" ","LANE":"１１５巷","ALLEY":" ","HOUSE_NO":"５１號","E_COORD97":169592.98000000001,"N_COORD97":2543241.1600000001,"ADDRESS":"東榮街１１５巷５１號","OBJECTID":409568},"geometry":{"x":169592.98000000045,"y":2543241.160000002}},{"attributes":{"ID":409593,"DIS_CODE":0,"TOWNNAME":"東區","LI":"東門里","LIN":"22鄰","STREET":"東榮街","SECT":" ","MAREA":" ","LANE":"１１５巷","ALLEY":" ","HOUSE_NO":"５３號","E_COORD97":169591.01000000001,"N_COORD97":2543231.6899999999,"ADDRESS":"東榮街１１５巷５３號","OBJECTID":409569},"geometry":{"x":169591.00999999978,"y":2543231.6899999995}},{"attributes":{"ID":409594,"DIS_CODE":0,"TOWNNAME":"東區","LI":"東門里","LIN":"22鄰","STREET":"東榮街","SECT":" ","MAREA":" ","LANE":"１１５巷","ALLEY":" ","HOUSE_NO":"５５號","E_COORD97":169588.25,"N_COORD97":2543225.8399999999,"ADDRESS":"東榮街１１５巷５５號","OBJECTID":409570},"geometry":{"x":169588.25000000093,"y":2543225.8400000017}},{"attributes":{"ID":409595,"DIS_CODE":0,"TOWNNAME":"東區","LI":"東門里","LIN":"22鄰","STREET":"東榮街","SECT":" ","MAREA":" ","LANE":"１１５巷","ALLEY":" ","HOUSE_NO":"５７號","E_COORD97":169584.82000000001,"N_COORD97":2543218.6200000001,"ADDRESS":"東榮街１１５巷５７號","OBJECTID":409571},"geometry":{"x":169584.82000000123,"y":2543218.6200000029}},{"attributes":{"ID":409596,"DIS_CODE":0,"TOWNNAME":"東區","LI":"東門里","LIN":"22鄰","STREET":"東榮街","SECT":" ","MAREA":" ","LANE":"１１５巷","ALLEY":" ","HOUSE_NO":"５９號","E_COORD97":169591.26999999999,"N_COORD97":2543215.5299999998,"ADDRESS":"東榮街１１５巷５９號","OBJECTID":409572},"geometry":{"x":169591.27000000048,"y":2543215.5299999993}},{"attributes":{"ID":409597,"DIS_CODE":0,"TOWNNAME":"東區","LI":"東門里","LIN":"22鄰","STREET":"東榮街","SECT":" ","MAREA":" ","LANE":"１１５巷","ALLEY":" ","HOUSE_NO":"５號","E_COORD97":169564.67000000001,"N_COORD97":2543242.46,"ADDRESS":"東榮街１１５巷５號","OBJECTID":409573},"geometry":{"x":169564.66999999993,"y":2543242.4600000046}},{"attributes":{"ID":409598,"DIS_CODE":0,"TOWNNAME":"東區","LI":"東門里","LIN":"22鄰","STREET":"東榮街","SECT":" ","MAREA":" ","LANE":"１１５巷","ALLEY":" ","HOUSE_NO":"６１號","E_COORD97":169596.95000000001,"N_COORD97":2543213.5499999998,"ADDRESS":"東榮街１１５巷６１號","OBJECTID":409574},"geometry":{"x":169596.95000000019,"y":2543213.5500000007}},{"attributes":{"ID":409599,"DIS_CODE":0,"TOWNNAME":"東區","LI":"東門里","LIN":"22鄰","STREET":"東榮街","SECT":" ","MAREA":" ","LANE":"１１５巷","ALLEY":" ","HOUSE_NO":"７號","E_COORD97":169565.60999999999,"N_COORD97":2543247.02,"ADDRESS":"東榮街１１５巷７號","OBJECTID":409575},"geometry":{"x":169565.6100000022,"y":2543247.0199999977}},{"attributes":{"ID":409600,"DIS_CODE":0,"TOWNNAME":"東區","LI":"東門里","LIN":"22鄰","STREET":"東榮街","SECT":" ","MAREA":" ","LANE":"１１５巷","ALLEY":" ","HOUSE_NO":"９號","E_COORD97":169566.48999999999,"N_COORD97":2543252.21,"ADDRESS":"東榮街１１５巷９號","OBJECTID":409576},"geometry":{"x":169566.49000000209,"y":2543252.2100000028}},{"attributes":{"ID":409601,"DIS_CODE":0,"TOWNNAME":"官田區","LI":"二鎮里","LIN":"22鄰","STREET":"工社西街","SECT":" ","MAREA":" ","LANE":"１１巷","ALLEY":" ","HOUSE_NO":"１０號","E_COORD97":180898.48999999999,"N_COORD97":2568641.8999999999,"ADDRESS":"工社西街１１巷１０號","OBJECTID":409577},"geometry":{"x":180898.49000000022,"y":2568641.9000000004}},{"attributes":{"ID":409602,"DIS_CODE":0,"TOWNNAME":"官田區","LI":"二鎮里","LIN":"22鄰","STREET":"工社西街","SECT":" ","MAREA":" ","LANE":"１１巷","ALLEY":" ","HOUSE_NO":"１１號","E_COORD97":180904.37,"N_COORD97":2568643.73,"ADDRESS":"工社西街１１巷１１號","OBJECTID":409578},"geometry":{"x":180904.36999999918,"y":2568643.7300000004}},{"attributes":{"ID":409603,"DIS_CODE":0,"TOWNNAME":"官田區","LI":"二鎮里","LIN":"22鄰","STREET":"工社西街","SECT":" ","MAREA":" ","LANE":"１１巷","ALLEY":" ","HOUSE_NO":"１２號","E_COORD97":180910.28,"N_COORD97":2568645.1800000002,"ADDRESS":"工社西街１１巷１２號","OBJECTID":409579},"geometry":{"x":180910.28000000212,"y":2568645.1800000016}},{"attributes":{"ID":409604,"DIS_CODE":0,"TOWNNAME":"官田區","LI":"二鎮里","LIN":"22鄰","STREET":"工社西街","SECT":" ","MAREA":" ","LANE":"１１巷","ALLEY":" ","HOUSE_NO":"１３號","E_COORD97":180916.17000000001,"N_COORD97":2568646.8999999999,"ADDRESS":"工社西街１１巷１３號","OBJECTID":409580},"geometry":{"x":180916.17000000086,"y":2568646.9000000022}},{"attributes":{"ID":409605,"DIS_CODE":0,"TOWNNAME":"官田區","LI":"二鎮里","LIN":"22鄰","STREET":"工社西街","SECT":" ","MAREA":" ","LANE":"１１巷","ALLEY":" ","HOUSE_NO":"１５號","E_COORD97":180925.53,"N_COORD97":2568648.6299999999,"ADDRESS":"工社西街１１巷１５號","OBJECTID":409581},"geometry":{"x":180925.52999999933,"y":2568648.629999999}},{"attributes":{"ID":409606,"DIS_CODE":0,"TOWNNAME":"官田區","LI":"二鎮里","LIN":"22鄰","STREET":"工社西街","SECT":" ","MAREA":" ","LANE":"１１巷","ALLEY":" ","HOUSE_NO":"１６號","E_COORD97":180930.39999999999,"N_COORD97":2568649.7999999998,"ADDRESS":"工社西街１１巷１６號","OBJECTID":409582},"geometry":{"x":180930.4000000013,"y":2568649.8000000007}},{"attributes":{"ID":409607,"DIS_CODE":0,"TOWNNAME":"官田區","LI":"二鎮里","LIN":"22鄰","STREET":"工社西街","SECT":" ","MAREA":" ","LANE":"１１巷","ALLEY":" ","HOUSE_NO":"１７號","E_COORD97":180940.29999999999,"N_COORD97":2568654.3799999999,"ADDRESS":"工社西街１１巷１７號","OBJECTID":409583},"geometry":{"x":180940.30000000168,"y":2568654.379999999}},{"attributes":{"ID":409608,"DIS_CODE":0,"TOWNNAME":"官田區","LI":"二鎮里","LIN":"22鄰","STREET":"工社西街","SECT":" ","MAREA":" ","LANE":"１１巷","ALLEY":" ","HOUSE_NO":"６１號","E_COORD97":181381.01000000001,"N_COORD97":2568766.1000000001,"ADDRESS":"工社西街１１巷６１號","OBJECTID":409584},"geometry":{"x":181381.00999999978,"y":2568766.1000000034}},{"attributes":{"ID":409609,"DIS_CODE":0,"TOWNNAME":"官田區","LI":"二鎮里","LIN":"22鄰","STREET":"工社西街","SECT":" ","MAREA":" ","LANE":"１１巷","ALLEY":" ","HOUSE_NO":"６２號","E_COORD97":181390.14999999999,"N_COORD97":2568767.5699999998,"ADDRESS":"工社西街１１巷６２號","OBJECTID":409585},"geometry":{"x":181390.1500000013,"y":2568767.5700000022}},{"attributes":{"ID":409610,"DIS_CODE":0,"TOWNNAME":"官田區","LI":"二鎮里","LIN":"22鄰","STREET":"工社西街","SECT":" ","MAREA":" ","LANE":"１１巷","ALLEY":" ","HOUSE_NO":"６３號","E_COORD97":181396.5,"N_COORD97":2568768.54,"ADDRESS":"工社西街１１巷６３號","OBJECTID":409586},"geometry":{"x":181396.5,"y":2568768.5399999991}},{"attributes":{"ID":409611,"DIS_CODE":0,"TOWNNAME":"官田區","LI":"二鎮里","LIN":"22鄰","STREET":"工社西街","SECT":" ","MAREA":" ","LANE":"１１巷","ALLEY":" ","HOUSE_NO":"６５號","E_COORD97":181406.92999999999,"N_COORD97":2568770.79,"ADDRESS":"工社西街１１巷６５號","OBJECTID":409587},"geometry":{"x":181406.9299999997,"y":2568770.7899999991}},{"attributes":{"ID":409612,"DIS_CODE":0,"TOWNNAME":"官田區","LI":"二鎮里","LIN":"22鄰","STREET":"工社西街","SECT":" ","MAREA":" ","LANE":"１１巷","ALLEY":" ","HOUSE_NO":"６號","E_COORD97":180863.01999999999,"N_COORD97":2568632.9300000002,"ADDRESS":"工社西街１１巷６號","OBJECTID":409588},"geometry":{"x":180863.02000000048,"y":2568632.9300000016}},{"attributes":{"ID":409613,"DIS_CODE":0,"TOWNNAME":"安南區","LI":"安慶里","LIN":"22鄰","STREET":"安通一街","SECT":" ","MAREA":" ","LANE":"１９２巷","ALLEY":" ","HOUSE_NO":"３０號","E_COORD97":168848.60999999999,"N_COORD97":2548236.9500000002,"ADDRESS":"安通一街１９２巷３０號","OBJECTID":409589},"geometry":{"x":168848.6100000022,"y":2548236.9499999993}},{"attributes":{"ID":409614,"DIS_CODE":0,"TOWNNAME":"安南區","LI":"安慶里","LIN":"22鄰","STREET":"安通一街","SECT":" ","MAREA":" ","LANE":"１９２巷","ALLEY":" ","HOUSE_NO":"３２號","E_COORD97":168852.57999999999,"N_COORD97":2548237.9100000001,"ADDRESS":"安通一街１９２巷３２號","OBJECTID":409590},"geometry":{"x":168852.58000000101,"y":2548237.9100000001}},{"attributes":{"ID":409615,"DIS_CODE":0,"TOWNNAME":"安南區","LI":"安慶里","LIN":"22鄰","STREET":"安通一街","SECT":" ","MAREA":" ","LANE":"１９２巷","ALLEY":" ","HOUSE_NO":"３６號","E_COORD97":168856.87,"N_COORD97":2548238.54,"ADDRESS":"安通一街１９２巷３６號","OBJECTID":409591},"geometry":{"x":168856.87000000197,"y":2548238.540000001}},{"attributes":{"ID":409616,"DIS_CODE":0,"TOWNNAME":"安南區","LI":"\u25A0南里","LIN":"22鄰","STREET":"長和路","SECT":"二段","MAREA":" ","LANE":"１２巷","ALLEY":" ","HOUSE_NO":"２６６號","E_COORD97":170401.07000000001,"N_COORD97":2552233.4900000002,"ADDRESS":"長和路二段１２巷２６６號","OBJECTID":409592},"geometry":{"x":170401.0700000003,"y":2552233.4900000021}},{"attributes":{"ID":409617,"DIS_CODE":0,"TOWNNAME":"安南區","LI":"安順里","LIN":"22鄰","STREET":"總安街","SECT":"一段","MAREA":" ","LANE":"２２６巷","ALLEY":" ","HOUSE_NO":"１２號","E_COORD97":169459.98999999999,"N_COORD97":2550284.46,"ADDRESS":"總安街一段２２６巷１２號","OBJECTID":409593},"geometry":{"x":169459.99000000115,"y":2550284.4600000028}},{"attributes":{"ID":409618,"DIS_CODE":0,"TOWNNAME":"安南區","LI":"安順里","LIN":"22鄰","STREET":"總安街","SECT":"一段","MAREA":" ","LANE":"２２６巷","ALLEY":" ","HOUSE_NO":"６號","E_COORD97":169459.04000000001,"N_COORD97":2550259.8599999999,"ADDRESS":"總安街一段２２６巷６號","OBJECTID":409594},"geometry":{"x":169459.0400000019,"y":2550259.8600000013}},{"attributes":{"ID":409619,"DIS_CODE":0,"TOWNNAME":"安南區","LI":"安順里","LIN":"22鄰","STREET":"總安街","SECT":"一段","MAREA":" ","LANE":"２２６巷","ALLEY":" ","HOUSE_NO":"８號","E_COORD97":169459.35000000001,"N_COORD97":2550272.8799999999,"ADDRESS":"總安街一段２２６巷８號","OBJECTID":409595},"geometry":{"x":169459.34999999963,"y":2550272.8800000008}},{"attributes":{"ID":409620,"DIS_CODE":0,"TOWNNAME":"安南區","LI":"安順里","LIN":"22鄰","STREET":"總安街","SECT":"一段","MAREA":" ","LANE":"２２６巷","ALLEY":" ","HOUSE_NO":"１６號","E_COORD97":169460.14999999999,"N_COORD97":2550289.3900000001,"ADDRESS":"總安街一段２２６巷１６號","OBJECTID":409596},"geometry":{"x":169460.15000000037,"y":2550289.3900000006}},{"attributes":{"ID":409621,"DIS_CODE":0,"TOWNNAME":"安南區","LI":"安順里","LIN":"22鄰","STREET":"總安街","SECT":"一段","MAREA":" ","LANE":"２２６巷","ALLEY":" ","HOUSE_NO":"１０號","E_COORD97":169459.51000000001,"N_COORD97":2550279.0699999998,"ADDRESS":"總安街一段２２６巷１０號","OBJECTID":409597},"geometry":{"x":169459.51000000071,"y":2550279.0699999984}},{"attributes":{"ID":409622,"DIS_CODE":0,"TOWNNAME":"白河區","LI":"永安里","LIN":"22鄰","STREET":"西安街","SECT":" ","MAREA":" ","LANE":"４８巷","ALLEY":" ","HOUSE_NO":"１０號","E_COORD97":189800.10000000001,"N_COORD97":2582795.02,"ADDRESS":"西安街４８巷１０號","OBJECTID":409598},"geometry":{"x":189800.09999999963,"y":2582795.0199999996}},{"attributes":{"ID":409623,"DIS_CODE":0,"TOWNNAME":"白河區","LI":"永安里","LIN":"22鄰","STREET":"西安街","SECT":" ","MAREA":" ","LANE":"４８巷","ALLEY":" ","HOUSE_NO":"１１號","E_COORD97":189783.19,"N_COORD97":2582818.6099999999,"ADDRESS":"西安街４８巷１１號","OBJECTID":409599},"geometry":{"x":189783.19000000041,"y":2582818.6099999994}},{"attributes":{"ID":409624,"DIS_CODE":0,"TOWNNAME":"白河區","LI":"永安里","LIN":"22鄰","STREET":"西安街","SECT":" ","MAREA":" ","LANE":"４８巷","ALLEY":" ","HOUSE_NO":"１２號","E_COORD97":189802.73999999999,"N_COORD97":2582799.54,"ADDRESS":"西安街４８巷１２號","OBJECTID":409600},"geometry":{"x":189802.74000000022,"y":2582799.540000001}}]}