{"displayFieldName":"TOWNNAME","fieldAliases":{"ID":"ID","DIS_CODE":"DIS_CODE","TOWNNAME":"TOWNNAME","LI":"LI","LIN":"LIN","STREET":"STREET","SECT":"SECT","MAREA":"MAREA","LANE":"LANE","ALLEY":"ALLEY","HOUSE_NO":"HOUSE_NO","E_COORD97":"E_COORD97","N_COORD97":"N_COORD97","ADDRESS":"ADDRESS","OBJECTID":"OBJECTID"},"geometryType":"esriGeometryPoint","spatialReference":{"wkid":102443,"latestWkid":3826},"fields":[{"name":"ID","type":"esriFieldTypeDouble","alias":"ID"},{"name":"DIS_CODE","type":"esriFieldTypeInteger","alias":"DIS_CODE"},{"name":"TOWNNAME","type":"esriFieldTypeString","alias":"TOWNNAME","length":8},{"name":"LI","type":"esriFieldTypeString","alias":"LI","length":8},{"name":"LIN","type":"esriFieldTypeString","alias":"LIN","length":12},{"name":"STREET","type":"esriFieldTypeString","alias":"STREET","length":20},{"name":"SECT","type":"esriFieldTypeString","alias":"SECT","length":8},{"name":"MAREA","type":"esriFieldTypeString","alias":"MAREA","length":12},{"name":"LANE","type":"esriFieldTypeString","alias":"LANE","length":10},{"name":"ALLEY","type":"esriFieldTypeString","alias":"ALLEY","length":10},{"name":"HOUSE_NO","type":"esriFieldTypeString","alias":"HOUSE_NO","length":20},{"name":"E_COORD97","type":"esriFieldTypeDouble","alias":"E_COORD97"},{"name":"N_COORD97","type":"esriFieldTypeDouble","alias":"N_COORD97"},{"name":"ADDRESS","type":"esriFieldTypeString","alias":"ADDRESS","length":50},{"name":"OBJECTID","type":"esriFieldTypeOID","alias":"OBJECTID"}],"features":[{"attributes":{"ID":284207,"DIS_CODE":0,"TOWNNAME":"鹽水區","LI":"岸內里","LIN":"19鄰","STREET":"北門路","SECT":" ","MAREA":" ","LANE":"１巷","ALLEY":" ","HOUSE_NO":"４３號","E_COORD97":175049.04999999999,"N_COORD97":2580469.79,"ADDRESS":"北門路１巷４３號","OBJECTID":284201},"geometry":{"x":175049.04999999981,"y":2580469.7899999991}},{"attributes":{"ID":284208,"DIS_CODE":0,"TOWNNAME":"仁德區","LI":"中洲里","LIN":"2鄰","STREET":" ","SECT":" ","MAREA":"中洲","LANE":" ","ALLEY":" ","HOUSE_NO":"１４號之１","E_COORD97":173293.5,"N_COORD97":2534346.04,"ADDRESS":"中洲１４號之１","OBJECTID":284202},"geometry":{"x":173293.5,"y":2534346.0399999991}},{"attributes":{"ID":284209,"DIS_CODE":0,"TOWNNAME":"鹽水區","LI":"岸內里","LIN":"19鄰","STREET":"北門路","SECT":" ","MAREA":" ","LANE":"１巷","ALLEY":" ","HOUSE_NO":"４５號","E_COORD97":175048.59,"N_COORD97":2580474.1499999999,"ADDRESS":"北門路１巷４５號","OBJECTID":284203},"geometry":{"x":175048.58999999985,"y":2580474.1500000022}},{"attributes":{"ID":284210,"DIS_CODE":0,"TOWNNAME":"鹽水區","LI":"岸內里","LIN":"19鄰","STREET":"北門路","SECT":" ","MAREA":" ","LANE":"１巷","ALLEY":" ","HOUSE_NO":"５１號","E_COORD97":175085.45000000001,"N_COORD97":2580320.5099999998,"ADDRESS":"北門路１巷５１號","OBJECTID":284204},"geometry":{"x":175085.45000000019,"y":2580320.5099999998}},{"attributes":{"ID":284211,"DIS_CODE":0,"TOWNNAME":"關廟區","LI":"山西里","LIN":"19鄰","STREET":"文衡路","SECT":" ","MAREA":" ","LANE":"１１９巷","ALLEY":" ","HOUSE_NO":"３６號","E_COORD97":180696.98999999999,"N_COORD97":2540436.3300000001,"ADDRESS":"文衡路１１９巷３６號","OBJECTID":284205},"geometry":{"x":180696.99000000209,"y":2540436.3300000019}},{"attributes":{"ID":284212,"DIS_CODE":0,"TOWNNAME":"關廟區","LI":"山西里","LIN":"19鄰","STREET":"文衡路","SECT":" ","MAREA":" ","LANE":"１１９巷","ALLEY":" ","HOUSE_NO":"２３號","E_COORD97":180692.39000000001,"N_COORD97":2540426.3300000001,"ADDRESS":"文衡路１１９巷２３號","OBJECTID":284206},"geometry":{"x":180692.3900000006,"y":2540426.3300000019}},{"attributes":{"ID":284213,"DIS_CODE":0,"TOWNNAME":"關廟區","LI":"北勢里","LIN":"19鄰","STREET":"成功路","SECT":" ","MAREA":" ","LANE":"３９２巷","ALLEY":" ","HOUSE_NO":"２２號","E_COORD97":181212.92000000001,"N_COORD97":2540601.27,"ADDRESS":"成功路３９２巷２２號","OBJECTID":284207},"geometry":{"x":181212.92000000086,"y":2540601.2700000033}},{"attributes":{"ID":284214,"DIS_CODE":0,"TOWNNAME":"關廟區","LI":"北花里","LIN":"19鄰","STREET":"花園三街","SECT":" ","MAREA":" ","LANE":"５２巷","ALLEY":" ","HOUSE_NO":"３號","E_COORD97":181929.84,"N_COORD97":2540491.25,"ADDRESS":"花園三街５２巷３號","OBJECTID":284208},"geometry":{"x":181929.83999999985,"y":2540491.2500000019}},{"attributes":{"ID":284215,"DIS_CODE":0,"TOWNNAME":"關廟區","LI":"北勢里","LIN":"19鄰","STREET":"成功路","SECT":" ","MAREA":" ","LANE":"３９２巷","ALLEY":" ","HOUSE_NO":"２６號","E_COORD97":181214.12,"N_COORD97":2540604.27,"ADDRESS":"成功路３９２巷２６號","OBJECTID":284209},"geometry":{"x":181214.12000000011,"y":2540604.2699999977}},{"attributes":{"ID":284216,"DIS_CODE":0,"TOWNNAME":"關廟區","LI":"山西里","LIN":"19鄰","STREET":"文衡路","SECT":" ","MAREA":" ","LANE":"１１９巷","ALLEY":" ","HOUSE_NO":"３７號","E_COORD97":180648.98999999999,"N_COORD97":2540431.3300000001,"ADDRESS":"文衡路１１９巷３７號","OBJECTID":284210},"geometry":{"x":180648.99000000022,"y":2540431.3300000001}},{"attributes":{"ID":284217,"DIS_CODE":0,"TOWNNAME":"關廟區","LI":"東勢里","LIN":"19鄰","STREET":"東仁街","SECT":" ","MAREA":" ","LANE":"７６巷","ALLEY":" ","HOUSE_NO":"１號","E_COORD97":181799.22,"N_COORD97":2539237.25,"ADDRESS":"東仁街７６巷１號","OBJECTID":284211},"geometry":{"x":181799.22000000067,"y":2539237.25}},{"attributes":{"ID":284218,"DIS_CODE":0,"TOWNNAME":"仁德區","LI":"中洲里","LIN":"2鄰","STREET":" ","SECT":" ","MAREA":"中洲","LANE":" ","ALLEY":" ","HOUSE_NO":"１６號之１","E_COORD97":173313.94,"N_COORD97":2534407.2999999998,"ADDRESS":"中洲１６號之１","OBJECTID":284212},"geometry":{"x":173313.94000000134,"y":2534407.3000000007}},{"attributes":{"ID":284219,"DIS_CODE":0,"TOWNNAME":"仁德區","LI":"土庫里","LIN":"2鄰","STREET":"太乙九街","SECT":" ","MAREA":" ","LANE":" ","ALLEY":" ","HOUSE_NO":"１３號","E_COORD97":173323.95999999999,"N_COORD97":2542649.25,"ADDRESS":"太乙九街１３號","OBJECTID":284213},"geometry":{"x":173323.95999999996,"y":2542649.2499999981}},{"attributes":{"ID":284220,"DIS_CODE":0,"TOWNNAME":"仁德區","LI":"土庫里","LIN":"2鄰","STREET":"太乙路","SECT":" ","MAREA":" ","LANE":" ","ALLEY":" ","HOUSE_NO":"６０號","E_COORD97":173269.14000000001,"N_COORD97":2542547.25,"ADDRESS":"太乙路６０號","OBJECTID":284214},"geometry":{"x":173269.1400000006,"y":2542547.25}},{"attributes":{"ID":284221,"DIS_CODE":0,"TOWNNAME":"仁德區","LI":"一甲里","LIN":"2鄰","STREET":"中正路","SECT":"三段","MAREA":" ","LANE":" ","ALLEY":" ","HOUSE_NO":"１９７之１號","E_COORD97":173422.67999999999,"N_COORD97":2541937.79,"ADDRESS":"中正路三段１９７之１號","OBJECTID":284215},"geometry":{"x":173422.67999999877,"y":2541937.790000001}},{"attributes":{"ID":284222,"DIS_CODE":0,"TOWNNAME":"仁德區","LI":"土庫里","LIN":"2鄰","STREET":"太乙八街","SECT":" ","MAREA":" ","LANE":" ","ALLEY":" ","HOUSE_NO":"１８號","E_COORD97":173517.84,"N_COORD97":2542635,"ADDRESS":"太乙八街１８號","OBJECTID":284216},"geometry":{"x":173517.83999999985,"y":2542635.0000000019}},{"attributes":{"ID":284223,"DIS_CODE":0,"TOWNNAME":"關廟區","LI":"東勢里","LIN":"19鄰","STREET":"東仁街","SECT":" ","MAREA":" ","LANE":"７６巷","ALLEY":" ","HOUSE_NO":"１８號","E_COORD97":181785.17000000001,"N_COORD97":2539254.25,"ADDRESS":"東仁街７６巷１８號","OBJECTID":284217},"geometry":{"x":181785.16999999993,"y":2539254.25}},{"attributes":{"ID":284224,"DIS_CODE":0,"TOWNNAME":"關廟區","LI":"北花里","LIN":"19鄰","STREET":"花園三街","SECT":" ","MAREA":" ","LANE":"５２巷","ALLEY":" ","HOUSE_NO":"１８號","E_COORD97":181948.69,"N_COORD97":2540509.25,"ADDRESS":"花園三街５２巷１８號","OBJECTID":284218},"geometry":{"x":181948.69000000227,"y":2540509.25}},{"attributes":{"ID":284225,"DIS_CODE":0,"TOWNNAME":"關廟區","LI":"北花里","LIN":"19鄰","STREET":"花園三街","SECT":" ","MAREA":" ","LANE":"２８巷","ALLEY":" ","HOUSE_NO":"２號","E_COORD97":182007.34,"N_COORD97":2540472.25,"ADDRESS":"花園三街２８巷２號","OBJECTID":284219},"geometry":{"x":182007.33999999985,"y":2540472.25}},{"attributes":{"ID":284226,"DIS_CODE":0,"TOWNNAME":"關廟區","LI":"北花里","LIN":"19鄰","STREET":"中正路","SECT":" ","MAREA":" ","LANE":"５６２巷","ALLEY":" ","HOUSE_NO":"１２號","E_COORD97":182036.60999999999,"N_COORD97":2540469.25,"ADDRESS":"中正路５６２巷１２號","OBJECTID":284220},"geometry":{"x":182036.61000000034,"y":2540469.2499999981}},{"attributes":{"ID":284227,"DIS_CODE":0,"TOWNNAME":"仁德區","LI":"仁愛里","LIN":"2鄰","STREET":" ","SECT":" ","MAREA":"仁愛","LANE":" ","ALLEY":" ","HOUSE_NO":"２１號","E_COORD97":170345.06849999999,"N_COORD97":2540164.9479399999,"ADDRESS":"仁愛２１號","OBJECTID":284221},"geometry":{"x":170345.06850000005,"y":2540164.9479360003}},{"attributes":{"ID":284228,"DIS_CODE":0,"TOWNNAME":"仁德區","LI":"仁愛里","LIN":"2鄰","STREET":" ","SECT":" ","MAREA":"仁愛","LANE":" ","ALLEY":" ","HOUSE_NO":"２４號","E_COORD97":170345.06849999999,"N_COORD97":2540152.9887799998,"ADDRESS":"仁愛２４號","OBJECTID":284222},"geometry":{"x":170345.06850000005,"y":2540152.9887760021}},{"attributes":{"ID":284229,"DIS_CODE":0,"TOWNNAME":"仁德區","LI":"仁義里","LIN":"2鄰","STREET":"中山路","SECT":" ","MAREA":" ","LANE":" ","ALLEY":" ","HOUSE_NO":"３０１號","E_COORD97":174117.67000000001,"N_COORD97":2541212.7400000002,"ADDRESS":"中山路３０１號","OBJECTID":284223},"geometry":{"x":174117.66999999993,"y":2541212.7400000021}},{"attributes":{"ID":284230,"DIS_CODE":0,"TOWNNAME":"仁德區","LI":"中洲里","LIN":"2鄰","STREET":" ","SECT":" ","MAREA":"中洲","LANE":" ","ALLEY":" ","HOUSE_NO":"１１號","E_COORD97":173345.59,"N_COORD97":2534361.9900000002,"ADDRESS":"中洲１１號","OBJECTID":284224},"geometry":{"x":173345.59000000171,"y":2534361.9900000039}},{"attributes":{"ID":284231,"DIS_CODE":0,"TOWNNAME":"關廟區","LI":"北花里","LIN":"19鄰","STREET":"中正路","SECT":" ","MAREA":" ","LANE":"５６２巷","ALLEY":" ","HOUSE_NO":"１７號","E_COORD97":182029.31,"N_COORD97":2540489.25,"ADDRESS":"中正路５６２巷１７號","OBJECTID":284225},"geometry":{"x":182029.30999999959,"y":2540489.25}},{"attributes":{"ID":284232,"DIS_CODE":0,"TOWNNAME":"仁德區","LI":"中洲里","LIN":"2鄰","STREET":" ","SECT":" ","MAREA":"中洲","LANE":" ","ALLEY":" ","HOUSE_NO":"１２號之３","E_COORD97":173306.14000000001,"N_COORD97":2534316.0499999998,"ADDRESS":"中洲１２號之３","OBJECTID":284226},"geometry":{"x":173306.14000000153,"y":2534316.0500000026}},{"attributes":{"ID":284233,"DIS_CODE":0,"TOWNNAME":"關廟區","LI":"北勢里","LIN":"19鄰","STREET":"北安三街","SECT":" ","MAREA":" ","LANE":"４７６巷","ALLEY":" ","HOUSE_NO":"１２號","E_COORD97":181217.69,"N_COORD97":2540718.3199999998,"ADDRESS":"北安三街４７６巷１２號","OBJECTID":284227},"geometry":{"x":181217.69000000041,"y":2540718.3200000022}},{"attributes":{"ID":284234,"DIS_CODE":0,"TOWNNAME":"關廟區","LI":"山西里","LIN":"19鄰","STREET":"文衡路","SECT":" ","MAREA":" ","LANE":"１１９巷","ALLEY":" ","HOUSE_NO":"３３號","E_COORD97":180663.59,"N_COORD97":2540430.3300000001,"ADDRESS":"文衡路１１９巷３３號","OBJECTID":284228},"geometry":{"x":180663.58999999892,"y":2540430.3300000001}},{"attributes":{"ID":284235,"DIS_CODE":0,"TOWNNAME":"北區","LI":"力行里","LIN":"19鄰","STREET":"南園街","SECT":" ","MAREA":" ","LANE":"１２７巷","ALLEY":" ","HOUSE_NO":"１５３號","E_COORD97":170953.32000000001,"N_COORD97":2545538.46,"ADDRESS":"南園街１２７巷１５３號","OBJECTID":284229},"geometry":{"x":170953.32000000123,"y":2545538.4600000028}},{"attributes":{"ID":284236,"DIS_CODE":0,"TOWNNAME":"北區","LI":"力行里","LIN":"19鄰","STREET":"南園街","SECT":" ","MAREA":" ","LANE":"１２７巷","ALLEY":" ","HOUSE_NO":"１５５號","E_COORD97":170957.66,"N_COORD97":2545543.5699999998,"ADDRESS":"南園街１２７巷１５５號","OBJECTID":284230},"geometry":{"x":170957.66000000108,"y":2545543.5700000022}},{"attributes":{"ID":284237,"DIS_CODE":0,"TOWNNAME":"麻豆區","LI":"油車里","LIN":"19鄰","STREET":"新生北路","SECT":" ","MAREA":" ","LANE":"８２巷","ALLEY":" ","HOUSE_NO":"３９號","E_COORD97":172368.32999999999,"N_COORD97":2565243.02,"ADDRESS":"新生北路８２巷３９號","OBJECTID":284231},"geometry":{"x":172368.33000000101,"y":2565243.0199999996}},{"attributes":{"ID":284238,"DIS_CODE":0,"TOWNNAME":"麻豆區","LI":"油車里","LIN":"19鄰","STREET":"新生北路","SECT":" ","MAREA":" ","LANE":"８２巷","ALLEY":" ","HOUSE_NO":"４１號","E_COORD97":172368.09,"N_COORD97":2565251.25,"ADDRESS":"新生北路８２巷４１號","OBJECTID":284232},"geometry":{"x":172368.09000000078,"y":2565251.2500000019}},{"attributes":{"ID":284239,"DIS_CODE":0,"TOWNNAME":"麻豆區","LI":"油車里","LIN":"19鄰","STREET":"新生北路","SECT":" ","MAREA":" ","LANE":"８２巷","ALLEY":" ","HOUSE_NO":"４３號","E_COORD97":172367.92000000001,"N_COORD97":2565255.3399999999,"ADDRESS":"新生北路８２巷４３號","OBJECTID":284233},"geometry":{"x":172367.91999999993,"y":2565255.3399999999}},{"attributes":{"ID":284240,"DIS_CODE":0,"TOWNNAME":"麻豆區","LI":"油車里","LIN":"19鄰","STREET":"新生北路","SECT":" ","MAREA":" ","LANE":"８２巷","ALLEY":" ","HOUSE_NO":"５１號","E_COORD97":172353.70999999999,"N_COORD97":2565264.7400000002,"ADDRESS":"新生北路８２巷５１號","OBJECTID":284234},"geometry":{"x":172353.71000000089,"y":2565264.7400000021}},{"attributes":{"ID":284241,"DIS_CODE":0,"TOWNNAME":"歸仁區","LI":"南保里","LIN":"19鄰","STREET":"文化街","SECT":"三段","MAREA":" ","LANE":"６１巷","ALLEY":" ","HOUSE_NO":"１７號","E_COORD97":176911.44,"N_COORD97":2541174.3300000001,"ADDRESS":"文化街三段６１巷１７號","OBJECTID":284235},"geometry":{"x":176911.44000000041,"y":2541174.3300000038}},{"attributes":{"ID":284242,"DIS_CODE":0,"TOWNNAME":"歸仁區","LI":"後市里","LIN":"19鄰","STREET":"中正北路","SECT":"一段","MAREA":" ","LANE":"３巷","ALLEY":" ","HOUSE_NO":"２２號","E_COORD97":177547.47,"N_COORD97":2540868.25,"ADDRESS":"中正北路一段３巷２２號","OBJECTID":284236},"geometry":{"x":177547.47000000067,"y":2540868.25}},{"attributes":{"ID":284243,"DIS_CODE":0,"TOWNNAME":"七股區","LI":"西寮里","LIN":"1鄰","STREET":" ","SECT":" ","MAREA":"西寮","LANE":" ","ALLEY":" ","HOUSE_NO":"６號","E_COORD97":157489.70000000001,"N_COORD97":2563428.5699999998,"ADDRESS":"西寮６號","OBJECTID":284237},"geometry":{"x":157489.70000000019,"y":2563428.5700000022}},{"attributes":{"ID":284244,"DIS_CODE":0,"TOWNNAME":"歸仁區","LI":"媽廟里","LIN":"19鄰","STREET":"保大路","SECT":"一段","MAREA":" ","LANE":"１３３巷","ALLEY":" ","HOUSE_NO":"４７號","E_COORD97":177778.78,"N_COORD97":2543885.7200000002,"ADDRESS":"保大路一段１３３巷４７號","OBJECTID":284238},"geometry":{"x":177778.78000000026,"y":2543885.7200000025}},{"attributes":{"ID":284245,"DIS_CODE":0,"TOWNNAME":"仁德區","LI":"中洲里","LIN":"2鄰","STREET":" ","SECT":" ","MAREA":"中洲","LANE":" ","ALLEY":" ","HOUSE_NO":"１８號","E_COORD97":173279.03,"N_COORD97":2534383.7400000002,"ADDRESS":"中洲１８號","OBJECTID":284239},"geometry":{"x":173279.03000000119,"y":2534383.7399999984}},{"attributes":{"ID":284246,"DIS_CODE":0,"TOWNNAME":"仁德區","LI":"土庫里","LIN":"2鄰","STREET":"太乙路","SECT":" ","MAREA":" ","LANE":" ","ALLEY":" ","HOUSE_NO":"６號","E_COORD97":173830.64999999999,"N_COORD97":2542480.0099999998,"ADDRESS":"太乙路６號","OBJECTID":284240},"geometry":{"x":173830.65000000224,"y":2542480.0099999998}},{"attributes":{"ID":284247,"DIS_CODE":0,"TOWNNAME":"歸仁區","LI":"媽廟里","LIN":"19鄰","STREET":"媽廟二街","SECT":" ","MAREA":" ","LANE":"４５巷","ALLEY":" ","HOUSE_NO":"５２號","E_COORD97":177817.17999999999,"N_COORD97":2543864.7200000002,"ADDRESS":"媽廟二街４５巷５２號","OBJECTID":284241},"geometry":{"x":177817.18000000063,"y":2543864.7200000025}},{"attributes":{"ID":284248,"DIS_CODE":0,"TOWNNAME":"歸仁區","LI":"媽廟里","LIN":"19鄰","STREET":"保大路","SECT":"一段","MAREA":" ","LANE":"１５１巷","ALLEY":" ","HOUSE_NO":"３５號","E_COORD97":177725.48000000001,"N_COORD97":2543886.7200000002,"ADDRESS":"保大路一段１５１巷３５號","OBJECTID":284242},"geometry":{"x":177725.48000000045,"y":2543886.7200000007}},{"attributes":{"ID":284249,"DIS_CODE":0,"TOWNNAME":"歸仁區","LI":"媽廟里","LIN":"19鄰","STREET":"媽廟二街","SECT":" ","MAREA":" ","LANE":"４５巷","ALLEY":" ","HOUSE_NO":"４９號","E_COORD97":177775.17999999999,"N_COORD97":2543872.7200000002,"ADDRESS":"媽廟二街４５巷４９號","OBJECTID":284243},"geometry":{"x":177775.1799999997,"y":2543872.7200000007}},{"attributes":{"ID":284250,"DIS_CODE":0,"TOWNNAME":"歸仁區","LI":"媽廟里","LIN":"19鄰","STREET":"媽廟二街","SECT":" ","MAREA":" ","LANE":"３１巷","ALLEY":" ","HOUSE_NO":"５０號","E_COORD97":177735.17999999999,"N_COORD97":2543875.7200000002,"ADDRESS":"媽廟二街３１巷５０號","OBJECTID":284244},"geometry":{"x":177735.1799999997,"y":2543875.7200000025}},{"attributes":{"ID":284251,"DIS_CODE":0,"TOWNNAME":"歸仁區","LI":"媽廟里","LIN":"19鄰","STREET":"媽廟二街","SECT":" ","MAREA":" ","LANE":"４５巷","ALLEY":" ","HOUSE_NO":"４２號","E_COORD97":177784.28,"N_COORD97":2543851.7200000002,"ADDRESS":"媽廟二街４５巷４２號","OBJECTID":284245},"geometry":{"x":177784.27999999933,"y":2543851.7200000025}},{"attributes":{"ID":284252,"DIS_CODE":0,"TOWNNAME":"東區","LI":"南聖里","LIN":"2鄰","STREET":"裕農路","SECT":" ","MAREA":" ","LANE":" ","ALLEY":" ","HOUSE_NO":"６５８號之１","E_COORD97":171701.48999999999,"N_COORD97":2543214.8900000001,"ADDRESS":"裕農路６５８號之１","OBJECTID":284246},"geometry":{"x":171701.49000000022,"y":2543214.8900000006}},{"attributes":{"ID":284253,"DIS_CODE":0,"TOWNNAME":"歸仁區","LI":"媽廟里","LIN":"19鄰","STREET":"保大路","SECT":"一段","MAREA":" ","LANE":"１３３巷","ALLEY":" ","HOUSE_NO":"４３號","E_COORD97":177799.48000000001,"N_COORD97":2543909.7200000002,"ADDRESS":"保大路一段１３３巷４３號","OBJECTID":284247},"geometry":{"x":177799.48000000045,"y":2543909.7200000025}},{"attributes":{"ID":284254,"DIS_CODE":0,"TOWNNAME":"歸仁區","LI":"後市里","LIN":"19鄰","STREET":"中正北路","SECT":"一段","MAREA":" ","LANE":"３巷","ALLEY":" ","HOUSE_NO":"２６號","E_COORD97":177537.17000000001,"N_COORD97":2540872.25,"ADDRESS":"中正北路一段３巷２６號","OBJECTID":284248},"geometry":{"x":177537.16999999993,"y":2540872.25}},{"attributes":{"ID":284255,"DIS_CODE":0,"TOWNNAME":"新營區","LI":"新南里","LIN":"19鄰","STREET":"隋唐街","SECT":" ","MAREA":" ","LANE":"３１巷","ALLEY":" ","HOUSE_NO":"４２號","E_COORD97":178664.94,"N_COORD97":2578328.7999999998,"ADDRESS":"隋唐街３１巷４２號","OBJECTID":284249},"geometry":{"x":178664.94000000227,"y":2578328.8000000007}},{"attributes":{"ID":284256,"DIS_CODE":0,"TOWNNAME":"關廟區","LI":"北勢里","LIN":"19鄰","STREET":"南雄路","SECT":"二段","MAREA":" ","LANE":"２４８巷","ALLEY":" ","HOUSE_NO":"８號","E_COORD97":181193.79000000001,"N_COORD97":2540620.2799999998,"ADDRESS":"南雄路二段２４８巷８號","OBJECTID":284250},"geometry":{"x":181193.79000000097,"y":2540620.2799999993}},{"attributes":{"ID":284257,"DIS_CODE":0,"TOWNNAME":"東區","LI":"南聖里","LIN":"2鄰","STREET":"裕農路","SECT":" ","MAREA":" ","LANE":" ","ALLEY":" ","HOUSE_NO":"６５２號","E_COORD97":171686.19,"N_COORD97":2543213.7599999998,"ADDRESS":"裕農路６５２號","OBJECTID":284251},"geometry":{"x":171686.19000000134,"y":2543213.7599999998}},{"attributes":{"ID":284258,"DIS_CODE":0,"TOWNNAME":"東區","LI":"南聖里","LIN":"2鄰","STREET":"裕農路","SECT":" ","MAREA":" ","LANE":" ","ALLEY":" ","HOUSE_NO":"６５４號","E_COORD97":171689.64000000001,"N_COORD97":2543216.3500000001,"ADDRESS":"裕農路６５４號","OBJECTID":284252},"geometry":{"x":171689.6400000006,"y":2543216.3499999996}},{"attributes":{"ID":284259,"DIS_CODE":0,"TOWNNAME":"東區","LI":"南聖里","LIN":"2鄰","STREET":"裕農路","SECT":" ","MAREA":" ","LANE":" ","ALLEY":" ","HOUSE_NO":"６５８號","E_COORD97":171697.76999999999,"N_COORD97":2543216.6099999999,"ADDRESS":"裕農路６５８號","OBJECTID":284253},"geometry":{"x":171697.76999999955,"y":2543216.6100000013}},{"attributes":{"ID":284260,"DIS_CODE":0,"TOWNNAME":"東區","LI":"南聖里","LIN":"2鄰","STREET":"裕農路","SECT":" ","MAREA":" ","LANE":" ","ALLEY":" ","HOUSE_NO":"６５６號","E_COORD97":171693.70999999999,"N_COORD97":2543214.71,"ADDRESS":"裕農路６５６號","OBJECTID":284254},"geometry":{"x":171693.71000000183,"y":2543214.7100000028}},{"attributes":{"ID":284261,"DIS_CODE":0,"TOWNNAME":"關廟區","LI":"東勢里","LIN":"19鄰","STREET":"東仁街","SECT":" ","MAREA":" ","LANE":"７６巷","ALLEY":" ","HOUSE_NO":"１０號","E_COORD97":181798.17000000001,"N_COORD97":2539263.25,"ADDRESS":"東仁街７６巷１０號","OBJECTID":284255},"geometry":{"x":181798.16999999993,"y":2539263.2500000019}},{"attributes":{"ID":284262,"DIS_CODE":0,"TOWNNAME":"鹽水區","LI":"橋南里","LIN":"19鄰","STREET":"忠孝路","SECT":" ","MAREA":" ","LANE":"４３巷","ALLEY":" ","HOUSE_NO":"９號","E_COORD97":175913.85000000001,"N_COORD97":2578818.9900000002,"ADDRESS":"忠孝路４３巷９號","OBJECTID":284256},"geometry":{"x":175913.85000000056,"y":2578818.9900000002}},{"attributes":{"ID":284263,"DIS_CODE":0,"TOWNNAME":"安平區","LI":"西門里","LIN":"19鄰","STREET":"安平路","SECT":" ","MAREA":" ","LANE":"９９０巷","ALLEY":" ","HOUSE_NO":"２３號","E_COORD97":163260.39999999999,"N_COORD97":2544501.1299999999,"ADDRESS":"安平路９９０巷２３號","OBJECTID":284257},"geometry":{"x":163260.40000000037,"y":2544501.1300000008}},{"attributes":{"ID":284264,"DIS_CODE":0,"TOWNNAME":"東區","LI":"大德里","LIN":"2鄰","STREET":"立德八路","SECT":" ","MAREA":" ","LANE":" ","ALLEY":" ","HOUSE_NO":"２７號之２","E_COORD97":169483.01999999999,"N_COORD97":2541934.3599999999,"ADDRESS":"立德八路２７號之２","OBJECTID":284258},"geometry":{"x":169483.02000000048,"y":2541934.3600000013}},{"attributes":{"ID":284265,"DIS_CODE":0,"TOWNNAME":"安平區","LI":"西門里","LIN":"19鄰","STREET":"安平路","SECT":" ","MAREA":" ","LANE":"９９０巷","ALLEY":" ","HOUSE_NO":"２５號","E_COORD97":163259.32000000001,"N_COORD97":2544505.8799999999,"ADDRESS":"安平路９９０巷２５號","OBJECTID":284259},"geometry":{"x":163259.3200000003,"y":2544505.8800000008}},{"attributes":{"ID":284266,"DIS_CODE":0,"TOWNNAME":"安平區","LI":"西門里","LIN":"19鄰","STREET":"安平路","SECT":" ","MAREA":" ","LANE":"９９０巷","ALLEY":" ","HOUSE_NO":"２７號","E_COORD97":163260.82999999999,"N_COORD97":2544509.98,"ADDRESS":"安平路９９０巷２７號","OBJECTID":284260},"geometry":{"x":163260.83000000007,"y":2544509.9800000023}},{"attributes":{"ID":284267,"DIS_CODE":0,"TOWNNAME":"東區","LI":"富強里","LIN":"2鄰","STREET":"裕農路","SECT":" ","MAREA":" ","LANE":" ","ALLEY":" ","HOUSE_NO":"４５０號之１１","E_COORD97":171321.13,"N_COORD97":2543147.5099999998,"ADDRESS":"裕農路４５０號之１１","OBJECTID":284261},"geometry":{"x":171321.12999999989,"y":2543147.5100000016}},{"attributes":{"ID":284268,"DIS_CODE":0,"TOWNNAME":"東區","LI":"富強里","LIN":"2鄰","STREET":"裕農路","SECT":" ","MAREA":" ","LANE":" ","ALLEY":" ","HOUSE_NO":"４５０號之１２","E_COORD97":171316.54999999999,"N_COORD97":2543148.75,"ADDRESS":"裕農路４５０號之１２","OBJECTID":284262},"geometry":{"x":171316.54999999888,"y":2543148.7500000019}},{"attributes":{"ID":284269,"DIS_CODE":0,"TOWNNAME":"安平區","LI":"西門里","LIN":"19鄰","STREET":"安平路","SECT":" ","MAREA":" ","LANE":"９９０巷","ALLEY":" ","HOUSE_NO":"２９號","E_COORD97":163262.34,"N_COORD97":2544513.4300000002,"ADDRESS":"安平路９９０巷２９號","OBJECTID":284263},"geometry":{"x":163262.33999999985,"y":2544513.4300000016}},{"attributes":{"ID":284270,"DIS_CODE":0,"TOWNNAME":"安平區","LI":"西門里","LIN":"19鄰","STREET":"安平路","SECT":" ","MAREA":" ","LANE":"９９０巷","ALLEY":" ","HOUSE_NO":"３１號","E_COORD97":163263.20000000001,"N_COORD97":2544518.1800000002,"ADDRESS":"安平路９９０巷３１號","OBJECTID":284264},"geometry":{"x":163263.20000000019,"y":2544518.1800000016}},{"attributes":{"ID":284271,"DIS_CODE":0,"TOWNNAME":"安平區","LI":"西門里","LIN":"19鄰","STREET":"安平路","SECT":" ","MAREA":" ","LANE":"９９０巷","ALLEY":" ","HOUSE_NO":"３３號","E_COORD97":163264.28,"N_COORD97":2544522.0600000001,"ADDRESS":"安平路９９０巷３３號","OBJECTID":284265},"geometry":{"x":163264.28000000026,"y":2544522.0600000005}},{"attributes":{"ID":284272,"DIS_CODE":0,"TOWNNAME":"安平區","LI":"西門里","LIN":"19鄰","STREET":"安平路","SECT":" ","MAREA":" ","LANE":"９９０巷","ALLEY":" ","HOUSE_NO":"３５號","E_COORD97":163264.92999999999,"N_COORD97":2544526.5899999999,"ADDRESS":"安平路９９０巷３５號","OBJECTID":284266},"geometry":{"x":163264.9299999997,"y":2544526.5900000017}},{"attributes":{"ID":284273,"DIS_CODE":0,"TOWNNAME":"安平區","LI":"西門里","LIN":"19鄰","STREET":"安平路","SECT":" ","MAREA":" ","LANE":"９９０巷","ALLEY":" ","HOUSE_NO":"３７號","E_COORD97":163267.73999999999,"N_COORD97":2544530.4700000002,"ADDRESS":"安平路９９０巷３７號","OBJECTID":284267},"geometry":{"x":163267.74000000115,"y":2544530.4700000044}},{"attributes":{"ID":284274,"DIS_CODE":0,"TOWNNAME":"永康區","LI":"正強里","LIN":"19鄰","STREET":"中山南路","SECT":" ","MAREA":" ","LANE":"４７１巷","ALLEY":" ","HOUSE_NO":"４７號","E_COORD97":173194.06,"N_COORD97":2547176.1000000001,"ADDRESS":"中山南路４７１巷４７號","OBJECTID":284268},"geometry":{"x":173194.05999999959,"y":2547176.1000000034}},{"attributes":{"ID":284275,"DIS_CODE":0,"TOWNNAME":"安平區","LI":"石門里","LIN":"19鄰","STREET":"安平路","SECT":" ","MAREA":" ","LANE":"６８６巷","ALLEY":" ","HOUSE_NO":"３號","E_COORD97":164588.20999999999,"N_COORD97":2544494.9500000002,"ADDRESS":"安平路６８６巷３號","OBJECTID":284269},"geometry":{"x":164588.21000000089,"y":2544494.950000003}},{"attributes":{"ID":284276,"DIS_CODE":0,"TOWNNAME":"北區","LI":"文元里","LIN":"19鄰","STREET":"文賢路","SECT":" ","MAREA":" ","LANE":"１０３０巷","ALLEY":" ","HOUSE_NO":"４２號","E_COORD97":167495.92000000001,"N_COORD97":2546061.4399999999,"ADDRESS":"文賢路１０３０巷４２號","OBJECTID":284270},"geometry":{"x":167495.91999999993,"y":2546061.4399999995}},{"attributes":{"ID":284277,"DIS_CODE":0,"TOWNNAME":"北區","LI":"文元里","LIN":"19鄰","STREET":"文賢路","SECT":" ","MAREA":" ","LANE":"１０３０巷","ALLEY":" ","HOUSE_NO":"４６號","E_COORD97":167501,"N_COORD97":2546062.3999999999,"ADDRESS":"文賢路１０３０巷４６號","OBJECTID":284271},"geometry":{"x":167501,"y":2546062.4000000004}},{"attributes":{"ID":284278,"DIS_CODE":0,"TOWNNAME":"北區","LI":"大和里","LIN":"19鄰","STREET":"文賢路","SECT":" ","MAREA":" ","LANE":"８３３巷","ALLEY":" ","HOUSE_NO":"５７號","E_COORD97":167134.60000000001,"N_COORD97":2546337.3999999999,"ADDRESS":"文賢路８３３巷５７號","OBJECTID":284272},"geometry":{"x":167134.60000000056,"y":2546337.3999999985}},{"attributes":{"ID":284279,"DIS_CODE":0,"TOWNNAME":"北區","LI":"大和里","LIN":"19鄰","STREET":"文賢路","SECT":" ","MAREA":" ","LANE":"８３３巷","ALLEY":" ","HOUSE_NO":"３７號","E_COORD97":167183.59,"N_COORD97":2546347.21,"ADDRESS":"文賢路８３３巷３７號","OBJECTID":284273},"geometry":{"x":167183.59000000171,"y":2546347.2100000028}},{"attributes":{"ID":284280,"DIS_CODE":0,"TOWNNAME":"北區","LI":"大和里","LIN":"19鄰","STREET":"文賢路","SECT":" ","MAREA":" ","LANE":"８３３巷","ALLEY":" ","HOUSE_NO":"３９號","E_COORD97":167178.35999999999,"N_COORD97":2546346.1800000002,"ADDRESS":"文賢路８３３巷３９號","OBJECTID":284274},"geometry":{"x":167178.36000000034,"y":2546346.1800000016}},{"attributes":{"ID":284281,"DIS_CODE":0,"TOWNNAME":"北區","LI":"大和里","LIN":"19鄰","STREET":"文賢路","SECT":" ","MAREA":" ","LANE":"８３３巷","ALLEY":" ","HOUSE_NO":"４１號","E_COORD97":167173.28,"N_COORD97":2546345.3700000001,"ADDRESS":"文賢路８３３巷４１號","OBJECTID":284275},"geometry":{"x":167173.28000000119,"y":2546345.3700000048}},{"attributes":{"ID":284282,"DIS_CODE":0,"TOWNNAME":"北區","LI":"大和里","LIN":"19鄰","STREET":"文賢路","SECT":" ","MAREA":" ","LANE":"８３３巷","ALLEY":" ","HOUSE_NO":"４３號","E_COORD97":167168.78,"N_COORD97":2546344.3399999999,"ADDRESS":"文賢路８３３巷４３號","OBJECTID":284276},"geometry":{"x":167168.78000000026,"y":2546344.3400000036}},{"attributes":{"ID":284283,"DIS_CODE":0,"TOWNNAME":"北區","LI":"大和里","LIN":"19鄰","STREET":"文賢路","SECT":" ","MAREA":" ","LANE":"８３３巷","ALLEY":" ","HOUSE_NO":"４５號","E_COORD97":167164.22,"N_COORD97":2546343.0899999999,"ADDRESS":"文賢路８３３巷４５號","OBJECTID":284277},"geometry":{"x":167164.22000000067,"y":2546343.0900000017}},{"attributes":{"ID":284284,"DIS_CODE":0,"TOWNNAME":"北區","LI":"大和里","LIN":"19鄰","STREET":"文賢路","SECT":" ","MAREA":" ","LANE":"８３３巷","ALLEY":" ","HOUSE_NO":"４７號","E_COORD97":167158.91,"N_COORD97":2546341.9199999999,"ADDRESS":"文賢路８３３巷４７號","OBJECTID":284278},"geometry":{"x":167158.91000000015,"y":2546341.9200000018}},{"attributes":{"ID":284285,"DIS_CODE":0,"TOWNNAME":"北區","LI":"大和里","LIN":"19鄰","STREET":"文賢路","SECT":" ","MAREA":" ","LANE":"８３３巷","ALLEY":" ","HOUSE_NO":"４９號","E_COORD97":167153.98000000001,"N_COORD97":2546340.5899999999,"ADDRESS":"文賢路８３３巷４９號","OBJECTID":284279},"geometry":{"x":167153.98000000045,"y":2546340.5900000017}},{"attributes":{"ID":284286,"DIS_CODE":0,"TOWNNAME":"北區","LI":"大和里","LIN":"19鄰","STREET":"文賢路","SECT":" ","MAREA":" ","LANE":"８３３巷","ALLEY":" ","HOUSE_NO":"５１號","E_COORD97":167149.41,"N_COORD97":2546339.7799999998,"ADDRESS":"文賢路８３３巷５１號","OBJECTID":284280},"geometry":{"x":167149.40999999922,"y":2546339.7799999993}},{"attributes":{"ID":284287,"DIS_CODE":0,"TOWNNAME":"東區","LI":"大智里","LIN":"2鄰","STREET":"生產路","SECT":" ","MAREA":" ","LANE":" ","ALLEY":" ","HOUSE_NO":"５５８號","E_COORD97":171137.48999999999,"N_COORD97":2540677.8799999999,"ADDRESS":"生產路５５８號","OBJECTID":284281},"geometry":{"x":171137.49000000022,"y":2540677.8800000027}},{"attributes":{"ID":284288,"DIS_CODE":0,"TOWNNAME":"北區","LI":"大和里","LIN":"19鄰","STREET":"文賢路","SECT":" ","MAREA":" ","LANE":"８３３巷","ALLEY":" ","HOUSE_NO":"５３號","E_COORD97":167144.32999999999,"N_COORD97":2546338.6000000001,"ADDRESS":"文賢路８３３巷５３號","OBJECTID":284282},"geometry":{"x":167144.33000000007,"y":2546338.5999999978}},{"attributes":{"ID":284289,"DIS_CODE":0,"TOWNNAME":"北區","LI":"大和里","LIN":"19鄰","STREET":"文賢路","SECT":" ","MAREA":" ","LANE":"８３３巷","ALLEY":" ","HOUSE_NO":"５５號","E_COORD97":167139.32000000001,"N_COORD97":2546337.5699999998,"ADDRESS":"文賢路８３３巷５５號","OBJECTID":284283},"geometry":{"x":167139.3200000003,"y":2546337.5700000022}},{"attributes":{"ID":284290,"DIS_CODE":0,"TOWNNAME":"北區","LI":"大和里","LIN":"19鄰","STREET":"文賢路","SECT":" ","MAREA":" ","LANE":"８３３巷","ALLEY":" ","HOUSE_NO":"５９號","E_COORD97":167129.67000000001,"N_COORD97":2546336.8799999999,"ADDRESS":"文賢路８３３巷５９號","OBJECTID":284284},"geometry":{"x":167129.67000000086,"y":2546336.8800000008}},{"attributes":{"ID":284291,"DIS_CODE":0,"TOWNNAME":"北區","LI":"大和里","LIN":"19鄰","STREET":"文賢路","SECT":" ","MAREA":" ","LANE":"８３３巷","ALLEY":" ","HOUSE_NO":"４２號","E_COORD97":167178.98000000001,"N_COORD97":2546369.1299999999,"ADDRESS":"文賢路８３３巷４２號","OBJECTID":284285},"geometry":{"x":167178.98000000138,"y":2546369.1300000008}},{"attributes":{"ID":284292,"DIS_CODE":0,"TOWNNAME":"北區","LI":"大和里","LIN":"19鄰","STREET":"文賢路","SECT":" ","MAREA":" ","LANE":"８３３巷","ALLEY":" ","HOUSE_NO":"４６號","E_COORD97":167171.67999999999,"N_COORD97":2546367.3599999999,"ADDRESS":"文賢路８３３巷４６號","OBJECTID":284286},"geometry":{"x":167171.68000000063,"y":2546367.3600000031}},{"attributes":{"ID":284293,"DIS_CODE":0,"TOWNNAME":"北區","LI":"大和里","LIN":"19鄰","STREET":"文賢路","SECT":" ","MAREA":" ","LANE":"８３３巷","ALLEY":" ","HOUSE_NO":"４８號","E_COORD97":167166.75,"N_COORD97":2546368.9100000001,"ADDRESS":"文賢路８３３巷４８號","OBJECTID":284287},"geometry":{"x":167166.75,"y":2546368.910000002}},{"attributes":{"ID":284294,"DIS_CODE":0,"TOWNNAME":"北區","LI":"大和里","LIN":"19鄰","STREET":"文賢路","SECT":" ","MAREA":" ","LANE":"８３３巷","ALLEY":" ","HOUSE_NO":"５０號","E_COORD97":167162.92000000001,"N_COORD97":2546365.8900000001,"ADDRESS":"文賢路８３３巷５０號","OBJECTID":284288},"geometry":{"x":167162.92000000086,"y":2546365.8900000025}},{"attributes":{"ID":284295,"DIS_CODE":0,"TOWNNAME":"北區","LI":"大和里","LIN":"19鄰","STREET":"文賢路","SECT":" ","MAREA":" ","LANE":"８３３巷","ALLEY":" ","HOUSE_NO":"５２號","E_COORD97":167158.20999999999,"N_COORD97":2546367.1400000001,"ADDRESS":"文賢路８３３巷５２號","OBJECTID":284289},"geometry":{"x":167158.21000000089,"y":2546367.1400000025}},{"attributes":{"ID":284296,"DIS_CODE":0,"TOWNNAME":"北區","LI":"大和里","LIN":"19鄰","STREET":"文賢路","SECT":" ","MAREA":" ","LANE":"８３３巷","ALLEY":" ","HOUSE_NO":"５４號","E_COORD97":167154.29000000001,"N_COORD97":2546364.27,"ADDRESS":"文賢路８３３巷５４號","OBJECTID":284290},"geometry":{"x":167154.29000000097,"y":2546364.2699999996}},{"attributes":{"ID":284297,"DIS_CODE":0,"TOWNNAME":"關廟區","LI":"北勢里","LIN":"19鄰","STREET":"南雄路","SECT":"二段","MAREA":" ","LANE":"２４８巷","ALLEY":" ","HOUSE_NO":"２號","E_COORD97":181183.79000000001,"N_COORD97":2540622.2799999998,"ADDRESS":"南雄路二段２４８巷２號","OBJECTID":284291},"geometry":{"x":181183.79000000097,"y":2540622.2800000012}},{"attributes":{"ID":284298,"DIS_CODE":0,"TOWNNAME":"關廟區","LI":"香洋里","LIN":"19鄰","STREET":"中央路","SECT":" ","MAREA":" ","LANE":"１０１巷","ALLEY":" ","HOUSE_NO":"３號","E_COORD97":181410.35999999999,"N_COORD97":2539977.3199999998,"ADDRESS":"中央路１０１巷３號","OBJECTID":284292},"geometry":{"x":181410.36000000127,"y":2539977.3200000003}},{"attributes":{"ID":284299,"DIS_CODE":0,"TOWNNAME":"關廟區","LI":"香洋里","LIN":"19鄰","STREET":"中央路","SECT":" ","MAREA":" ","LANE":"７９巷","ALLEY":" ","HOUSE_NO":"１０號","E_COORD97":181452.66,"N_COORD97":2539951.3199999998,"ADDRESS":"中央路７９巷１０號","OBJECTID":284293},"geometry":{"x":181452.66000000015,"y":2539951.3200000022}},{"attributes":{"ID":284300,"DIS_CODE":0,"TOWNNAME":"新營區","LI":"新南里","LIN":"19鄰","STREET":"隋唐街","SECT":" ","MAREA":" ","LANE":"３１巷","ALLEY":" ","HOUSE_NO":"３２號","E_COORD97":178677.39000000001,"N_COORD97":2578364.1800000002,"ADDRESS":"隋唐街３１巷３２號","OBJECTID":284294},"geometry":{"x":178677.38999999966,"y":2578364.1800000016}},{"attributes":{"ID":284301,"DIS_CODE":0,"TOWNNAME":"南區","LI":"建南里","LIN":"19鄰","STREET":"明興路","SECT":" ","MAREA":" ","LANE":"３２１巷","ALLEY":" ","HOUSE_NO":"４１號","E_COORD97":166771.35999999999,"N_COORD97":2539092.1600000001,"ADDRESS":"明興路３２１巷４１號","OBJECTID":284295},"geometry":{"x":166771.36000000034,"y":2539092.1600000001}},{"attributes":{"ID":284302,"DIS_CODE":0,"TOWNNAME":"東區","LI":"大智里","LIN":"2鄰","STREET":"生產路","SECT":" ","MAREA":" ","LANE":" ","ALLEY":" ","HOUSE_NO":"５６０號","E_COORD97":171153.64000000001,"N_COORD97":2540668.0099999998,"ADDRESS":"生產路５６０號","OBJECTID":284296},"geometry":{"x":171153.6400000006,"y":2540668.0100000016}},{"attributes":{"ID":284303,"DIS_CODE":0,"TOWNNAME":"東區","LI":"自強里","LIN":"30鄰","STREET":"中華東路","SECT":"二段","MAREA":" ","LANE":" ","ALLEY":" ","HOUSE_NO":"１９５號之１","E_COORD97":171318.5,"N_COORD97":2542768.5499999998,"ADDRESS":"中華東路二段１９５號之１","OBJECTID":284297},"geometry":{"x":171318.5,"y":2542768.5500000026}},{"attributes":{"ID":284304,"DIS_CODE":0,"TOWNNAME":"麻豆區","LI":"東角里","LIN":"2鄰","STREET":"文昌路","SECT":" ","MAREA":" ","LANE":" ","ALLEY":" ","HOUSE_NO":"６號之１０","E_COORD97":173491.03,"N_COORD97":2564903.2799999998,"ADDRESS":"文昌路６號之１０","OBJECTID":284298},"geometry":{"x":173491.03000000119,"y":2564903.2800000012}},{"attributes":{"ID":284305,"DIS_CODE":0,"TOWNNAME":"東區","LI":"大福里","LIN":"2鄰","STREET":"榮譽街","SECT":" ","MAREA":" ","LANE":" ","ALLEY":" ","HOUSE_NO":"１５號","E_COORD97":169542.64000000001,"N_COORD97":2541619.5600000001,"ADDRESS":"榮譽街１５號","OBJECTID":284299},"geometry":{"x":169542.63999999873,"y":2541619.5600000005}},{"attributes":{"ID":284306,"DIS_CODE":0,"TOWNNAME":"南區","LI":"郡南里","LIN":"19鄰","STREET":"德興路","SECT":" ","MAREA":" ","LANE":"１７７巷","ALLEY":" ","HOUSE_NO":"７５號","E_COORD97":167330.25,"N_COORD97":2540353.6800000002,"ADDRESS":"德興路１７７巷７５號","OBJECTID":284300},"geometry":{"x":167330.25000000093,"y":2540353.6799999997}},{"attributes":{"ID":284307,"DIS_CODE":0,"TOWNNAME":"南區","LI":"明興里","LIN":"19鄰","STREET":"德興路","SECT":" ","MAREA":" ","LANE":"１６４巷","ALLEY":" ","HOUSE_NO":"３４號","E_COORD97":167088.76000000001,"N_COORD97":2540341.5499999998,"ADDRESS":"德興路１６４巷３４號","OBJECTID":284301},"geometry":{"x":167088.75999999978,"y":2540341.5500000007}},{"attributes":{"ID":284308,"DIS_CODE":0,"TOWNNAME":"南區","LI":"建南里","LIN":"19鄰","STREET":"明興路","SECT":" ","MAREA":" ","LANE":"９９巷","ALLEY":" ","HOUSE_NO":"１１號","E_COORD97":166684.63,"N_COORD97":2539926.8399999999,"ADDRESS":"明興路９９巷１１號","OBJECTID":284302},"geometry":{"x":166684.62999999989,"y":2539926.8400000017}},{"attributes":{"ID":284309,"DIS_CODE":0,"TOWNNAME":"南區","LI":"建南里","LIN":"19鄰","STREET":"明興路","SECT":" ","MAREA":" ","LANE":"９９巷","ALLEY":" ","HOUSE_NO":"１３號","E_COORD97":166683.03,"N_COORD97":2539917.0800000001,"ADDRESS":"明興路９９巷１３號","OBJECTID":284303},"geometry":{"x":166683.03000000119,"y":2539917.0800000001}},{"attributes":{"ID":284310,"DIS_CODE":0,"TOWNNAME":"南區","LI":"建南里","LIN":"19鄰","STREET":"明興路","SECT":" ","MAREA":" ","LANE":"９９巷","ALLEY":" ","HOUSE_NO":"１號","E_COORD97":166663,"N_COORD97":2539916.8799999999,"ADDRESS":"明興路９９巷１號","OBJECTID":284304},"geometry":{"x":166663.00000000093,"y":2539916.879999999}},{"attributes":{"ID":284311,"DIS_CODE":0,"TOWNNAME":"安平區","LI":"文平里","LIN":"19鄰","STREET":"健康一街","SECT":" ","MAREA":" ","LANE":"５７巷","ALLEY":" ","HOUSE_NO":"７號","E_COORD97":165914.82999999999,"N_COORD97":2542663.77,"ADDRESS":"健康一街５７巷７號","OBJECTID":284305},"geometry":{"x":165914.83000000101,"y":2542663.7700000014}},{"attributes":{"ID":284312,"DIS_CODE":0,"TOWNNAME":"安平區","LI":"文平里","LIN":"19鄰","STREET":"健康一街","SECT":" ","MAREA":" ","LANE":"５７巷","ALLEY":" ","HOUSE_NO":"９號","E_COORD97":165891.37,"N_COORD97":2542792.9399999999,"ADDRESS":"健康一街５７巷９號","OBJECTID":284306},"geometry":{"x":165891.37000000011,"y":2542792.9399999995}},{"attributes":{"ID":284313,"DIS_CODE":0,"TOWNNAME":"安平區","LI":"文平里","LIN":"19鄰","STREET":"健康一街","SECT":" ","MAREA":" ","LANE":"５７巷","ALLEY":" ","HOUSE_NO":"１１號","E_COORD97":165886.45000000001,"N_COORD97":2542793.8900000001,"ADDRESS":"健康一街５７巷１１號","OBJECTID":284307},"geometry":{"x":165886.45000000205,"y":2542793.8900000006}},{"attributes":{"ID":284314,"DIS_CODE":0,"TOWNNAME":"安平區","LI":"文平里","LIN":"19鄰","STREET":"健康一街","SECT":" ","MAREA":" ","LANE":"５７巷","ALLEY":" ","HOUSE_NO":"１３號","E_COORD97":165882.95999999999,"N_COORD97":2542794.5299999998,"ADDRESS":"健康一街５７巷１３號","OBJECTID":284308},"geometry":{"x":165882.96000000089,"y":2542794.5299999993}},{"attributes":{"ID":284315,"DIS_CODE":0,"TOWNNAME":"安平區","LI":"文平里","LIN":"19鄰","STREET":"健康一街","SECT":" ","MAREA":" ","LANE":"５７巷","ALLEY":" ","HOUSE_NO":"１５號","E_COORD97":165877.72,"N_COORD97":2542794.6899999999,"ADDRESS":"健康一街５７巷１５號","OBJECTID":284309},"geometry":{"x":165877.72000000067,"y":2542794.6899999995}},{"attributes":{"ID":284316,"DIS_CODE":0,"TOWNNAME":"安平區","LI":"文平里","LIN":"19鄰","STREET":"健康一街","SECT":" ","MAREA":" ","LANE":"５７巷","ALLEY":" ","HOUSE_NO":"１７號","E_COORD97":165873.12,"N_COORD97":2542795.6400000001,"ADDRESS":"健康一街５７巷１７號","OBJECTID":284310},"geometry":{"x":165873.11999999918,"y":2542795.6400000006}},{"attributes":{"ID":284317,"DIS_CODE":0,"TOWNNAME":"安平區","LI":"文平里","LIN":"19鄰","STREET":"健康一街","SECT":" ","MAREA":" ","LANE":"５７巷","ALLEY":" ","HOUSE_NO":"１９號","E_COORD97":165868.35999999999,"N_COORD97":2542796.1200000001,"ADDRESS":"健康一街５７巷１９號","OBJECTID":284311},"geometry":{"x":165868.3599999994,"y":2542796.120000001}},{"attributes":{"ID":284318,"DIS_CODE":0,"TOWNNAME":"安平區","LI":"文平里","LIN":"19鄰","STREET":"健康一街","SECT":" ","MAREA":" ","LANE":"５７巷","ALLEY":" ","HOUSE_NO":"２１號","E_COORD97":165864.07000000001,"N_COORD97":2542797.23,"ADDRESS":"健康一街５７巷２１號","OBJECTID":284312},"geometry":{"x":165864.07000000123,"y":2542797.2300000023}},{"attributes":{"ID":284319,"DIS_CODE":0,"TOWNNAME":"安平區","LI":"文平里","LIN":"19鄰","STREET":"健康一街","SECT":" ","MAREA":" ","LANE":"５７巷","ALLEY":" ","HOUSE_NO":"２３號","E_COORD97":165859.62,"N_COORD97":2542797.8599999999,"ADDRESS":"健康一街５７巷２３號","OBJECTID":284313},"geometry":{"x":165859.62000000197,"y":2542797.8600000013}},{"attributes":{"ID":284320,"DIS_CODE":0,"TOWNNAME":"安平區","LI":"文平里","LIN":"19鄰","STREET":"健康一街","SECT":" ","MAREA":" ","LANE":"５７巷","ALLEY":" ","HOUSE_NO":"２５號","E_COORD97":165854.85999999999,"N_COORD97":2542798.6600000001,"ADDRESS":"健康一街５７巷２５號","OBJECTID":284314},"geometry":{"x":165854.8600000022,"y":2542798.6600000001}},{"attributes":{"ID":284321,"DIS_CODE":0,"TOWNNAME":"安平區","LI":"文平里","LIN":"19鄰","STREET":"健康一街","SECT":" ","MAREA":" ","LANE":"５７巷","ALLEY":" ","HOUSE_NO":"２７號","E_COORD97":165850.10000000001,"N_COORD97":2542799.29,"ADDRESS":"健康一街５７巷２７號","OBJECTID":284315},"geometry":{"x":165850.09999999963,"y":2542799.2899999991}},{"attributes":{"ID":284322,"DIS_CODE":0,"TOWNNAME":"安平區","LI":"文平里","LIN":"19鄰","STREET":"健康一街","SECT":" ","MAREA":" ","LANE":"５７巷","ALLEY":" ","HOUSE_NO":"２９號","E_COORD97":165845.81,"N_COORD97":2542799.9300000002,"ADDRESS":"健康一街５７巷２９號","OBJECTID":284316},"geometry":{"x":165845.80999999959,"y":2542799.9299999997}},{"attributes":{"ID":284323,"DIS_CODE":0,"TOWNNAME":"安平區","LI":"文平里","LIN":"19鄰","STREET":"健康一街","SECT":" ","MAREA":" ","LANE":"５７巷","ALLEY":" ","HOUSE_NO":"３１號","E_COORD97":165840.57000000001,"N_COORD97":2542800.2400000002,"ADDRESS":"健康一街５７巷３１號","OBJECTID":284317},"geometry":{"x":165840.57000000123,"y":2542800.2400000021}},{"attributes":{"ID":284324,"DIS_CODE":0,"TOWNNAME":"安平區","LI":"文平里","LIN":"19鄰","STREET":"健康一街","SECT":" ","MAREA":" ","LANE":"５７巷","ALLEY":" ","HOUSE_NO":"３３號","E_COORD97":165836.60999999999,"N_COORD97":2542801.2000000002,"ADDRESS":"健康一街５７巷３３號","OBJECTID":284318},"geometry":{"x":165836.61000000127,"y":2542801.1999999993}},{"attributes":{"ID":284325,"DIS_CODE":0,"TOWNNAME":"南區","LI":"大忠里","LIN":"19鄰","STREET":"大同路","SECT":"二段","MAREA":" ","LANE":"６４０巷","ALLEY":" ","HOUSE_NO":"７４號","E_COORD97":169291.81,"N_COORD97":2541027.3900000001,"ADDRESS":"大同路二段６４０巷７４號","OBJECTID":284319},"geometry":{"x":169291.80999999959,"y":2541027.3900000006}},{"attributes":{"ID":284326,"DIS_CODE":0,"TOWNNAME":"南區","LI":"大忠里","LIN":"19鄰","STREET":"大同路","SECT":"二段","MAREA":" ","LANE":"６４０巷","ALLEY":" ","HOUSE_NO":"７６號","E_COORD97":169287.32999999999,"N_COORD97":2541026.8300000001,"ADDRESS":"大同路二段６４０巷７６號","OBJECTID":284320},"geometry":{"x":169287.33000000007,"y":2541026.8300000001}},{"attributes":{"ID":284327,"DIS_CODE":0,"TOWNNAME":"南區","LI":"大忠里","LIN":"19鄰","STREET":"大同路","SECT":"二段","MAREA":" ","LANE":"６４０巷","ALLEY":" ","HOUSE_NO":"７８號","E_COORD97":169282.85000000001,"N_COORD97":2541026,"ADDRESS":"大同路二段６４０巷７８號","OBJECTID":284321},"geometry":{"x":169282.84999999963,"y":2541026}},{"attributes":{"ID":284328,"DIS_CODE":0,"TOWNNAME":"南區","LI":"大忠里","LIN":"19鄰","STREET":"大同路","SECT":"二段","MAREA":" ","LANE":"６４０巷","ALLEY":" ","HOUSE_NO":"８０號","E_COORD97":169277.81,"N_COORD97":2541025.1600000001,"ADDRESS":"大同路二段６４０巷８０號","OBJECTID":284322},"geometry":{"x":169277.81000000052,"y":2541025.1600000001}},{"attributes":{"ID":284329,"DIS_CODE":0,"TOWNNAME":"南區","LI":"大忠里","LIN":"19鄰","STREET":"大同路","SECT":"二段","MAREA":" ","LANE":"６４０巷","ALLEY":" ","HOUSE_NO":"８４號","E_COORD97":169261.82999999999,"N_COORD97":2541019.9100000001,"ADDRESS":"大同路二段６４０巷８４號","OBJECTID":284323},"geometry":{"x":169261.83000000007,"y":2541019.9100000001}},{"attributes":{"ID":284330,"DIS_CODE":0,"TOWNNAME":"南區","LI":"大忠里","LIN":"19鄰","STREET":"大同路","SECT":"二段","MAREA":" ","LANE":"６４０巷","ALLEY":" ","HOUSE_NO":"８６號","E_COORD97":169252.89999999999,"N_COORD97":2541020.7799999998,"ADDRESS":"大同路二段６４０巷８６號","OBJECTID":284324},"geometry":{"x":169252.90000000037,"y":2541020.7799999993}},{"attributes":{"ID":284331,"DIS_CODE":0,"TOWNNAME":"南區","LI":"大忠里","LIN":"19鄰","STREET":"大同路","SECT":"二段","MAREA":" ","LANE":"６４０巷","ALLEY":" ","HOUSE_NO":"８８號","E_COORD97":169246.42000000001,"N_COORD97":2541020.6099999999,"ADDRESS":"大同路二段６４０巷８８號","OBJECTID":284325},"geometry":{"x":169246.42000000086,"y":2541020.6100000013}},{"attributes":{"ID":284332,"DIS_CODE":0,"TOWNNAME":"南區","LI":"大忠里","LIN":"19鄰","STREET":"大同路","SECT":"二段","MAREA":" ","LANE":"６４０巷","ALLEY":" ","HOUSE_NO":"９６號","E_COORD97":169222.07999999999,"N_COORD97":2541018.1099999999,"ADDRESS":"大同路二段６４０巷９６號","OBJECTID":284326},"geometry":{"x":169222.08000000101,"y":2541018.1099999994}},{"attributes":{"ID":284333,"DIS_CODE":0,"TOWNNAME":"南區","LI":"大忠里","LIN":"19鄰","STREET":"大同路","SECT":"二段","MAREA":" ","LANE":"６４０巷","ALLEY":" ","HOUSE_NO":"９８號","E_COORD97":169217.56,"N_COORD97":2541019.2799999998,"ADDRESS":"大同路二段６４０巷９８號","OBJECTID":284327},"geometry":{"x":169217.55999999959,"y":2541019.2800000012}},{"attributes":{"ID":284334,"DIS_CODE":0,"TOWNNAME":"歸仁區","LI":"南保里","LIN":"19鄰","STREET":"文化街","SECT":"三段","MAREA":" ","LANE":"６１巷","ALLEY":" ","HOUSE_NO":"９號","E_COORD97":176894.26999999999,"N_COORD97":2541200.2599999998,"ADDRESS":"文化街三段６１巷９號","OBJECTID":284328},"geometry":{"x":176894.27000000048,"y":2541200.2599999998}},{"attributes":{"ID":284335,"DIS_CODE":0,"TOWNNAME":"歸仁區","LI":"後市里","LIN":"19鄰","STREET":"中正北路","SECT":"一段","MAREA":" ","LANE":"３巷","ALLEY":" ","HOUSE_NO":"１８號","E_COORD97":177554.57000000001,"N_COORD97":2540867.25,"ADDRESS":"中正北路一段３巷１８號","OBJECTID":284329},"geometry":{"x":177554.5700000003,"y":2540867.2500000019}},{"attributes":{"ID":284336,"DIS_CODE":0,"TOWNNAME":"北區","LI":"大港里","LIN":"19鄰","STREET":"大和路","SECT":" ","MAREA":" ","LANE":"２７９巷","ALLEY":" ","HOUSE_NO":"８號","E_COORD97":166891.98999999999,"N_COORD97":2546118.9399999999,"ADDRESS":"大和路２７９巷８號","OBJECTID":284330},"geometry":{"x":166891.99000000115,"y":2546118.9399999995}},{"attributes":{"ID":284337,"DIS_CODE":0,"TOWNNAME":"北區","LI":"大豐里","LIN":"19鄰","STREET":"大興街","SECT":" ","MAREA":" ","LANE":"２３３巷","ALLEY":" ","HOUSE_NO":"２２號","E_COORD97":166849.32000000001,"N_COORD97":2545619.1499999999,"ADDRESS":"大興街２３３巷２２號","OBJECTID":284331},"geometry":{"x":166849.32000000123,"y":2545619.1500000004}},{"attributes":{"ID":284338,"DIS_CODE":0,"TOWNNAME":"北區","LI":"大豐里","LIN":"19鄰","STREET":"大興街","SECT":" ","MAREA":" ","LANE":"２３３巷","ALLEY":" ","HOUSE_NO":"２４號","E_COORD97":166849.48000000001,"N_COORD97":2545615.6000000001,"ADDRESS":"大興街２３３巷２４號","OBJECTID":284332},"geometry":{"x":166849.48000000138,"y":2545615.5999999996}},{"attributes":{"ID":284339,"DIS_CODE":0,"TOWNNAME":"北區","LI":"大豐里","LIN":"19鄰","STREET":"大興街","SECT":" ","MAREA":" ","LANE":"２３３巷","ALLEY":" ","HOUSE_NO":"２６號","E_COORD97":166849.81,"N_COORD97":2545611.02,"ADDRESS":"大興街２３３巷２６號","OBJECTID":284333},"geometry":{"x":166849.81000000052,"y":2545611.0200000014}},{"attributes":{"ID":284340,"DIS_CODE":0,"TOWNNAME":"北區","LI":"大豐里","LIN":"19鄰","STREET":"大興街","SECT":" ","MAREA":" ","LANE":"２３３巷","ALLEY":" ","HOUSE_NO":"２８號","E_COORD97":166850.45000000001,"N_COORD97":2545606.8300000001,"ADDRESS":"大興街２３３巷２８號","OBJECTID":284334},"geometry":{"x":166850.45000000019,"y":2545606.8300000019}},{"attributes":{"ID":284341,"DIS_CODE":0,"TOWNNAME":"北區","LI":"大豐里","LIN":"19鄰","STREET":"大興街","SECT":" ","MAREA":" ","LANE":"２３３巷","ALLEY":" ","HOUSE_NO":"３０號","E_COORD97":166850.89999999999,"N_COORD97":2545602.8900000001,"ADDRESS":"大興街２３３巷３０號","OBJECTID":284335},"geometry":{"x":166850.90000000037,"y":2545602.8900000025}},{"attributes":{"ID":284342,"DIS_CODE":0,"TOWNNAME":"北區","LI":"文成里","LIN":"19鄰","STREET":"文賢路","SECT":" ","MAREA":" ","LANE":"２４２巷","ALLEY":" ","HOUSE_NO":"４６號","E_COORD97":167482.51999999999,"N_COORD97":2545034.1800000002,"ADDRESS":"文賢路２４２巷４６號","OBJECTID":284336},"geometry":{"x":167482.52000000048,"y":2545034.1800000016}},{"attributes":{"ID":284343,"DIS_CODE":0,"TOWNNAME":"北區","LI":"大港里","LIN":"19鄰","STREET":"大和路","SECT":" ","MAREA":" ","LANE":"２７９巷","ALLEY":" ","HOUSE_NO":"６號","E_COORD97":166896.09,"N_COORD97":2546119.9199999999,"ADDRESS":"大和路２７９巷６號","OBJECTID":284337},"geometry":{"x":166896.09000000078,"y":2546119.9200000037}},{"attributes":{"ID":284344,"DIS_CODE":0,"TOWNNAME":"楠西區","LI":"楠西里","LIN":"19鄰","STREET":"中正路","SECT":" ","MAREA":" ","LANE":"９６巷","ALLEY":" ","HOUSE_NO":"４號","E_COORD97":197248.41,"N_COORD97":2563970.25,"ADDRESS":"中正路９６巷４號","OBJECTID":284338},"geometry":{"x":197248.41000000108,"y":2563970.25}},{"attributes":{"ID":284345,"DIS_CODE":0,"TOWNNAME":"東區","LI":"自強里","LIN":"31鄰","STREET":"中華東路","SECT":"二段","MAREA":" ","LANE":" ","ALLEY":" ","HOUSE_NO":"１９７號","E_COORD97":171303.89000000001,"N_COORD97":2542749.1699999999,"ADDRESS":"中華東路二段１９７號","OBJECTID":284339},"geometry":{"x":171303.88999999873,"y":2542749.1700000018}},{"attributes":{"ID":284346,"DIS_CODE":0,"TOWNNAME":"新化區","LI":"東榮里","LIN":"19鄰","STREET":"中興路","SECT":" ","MAREA":" ","LANE":"７１９巷","ALLEY":" ","HOUSE_NO":"１５號","E_COORD97":179480.66,"N_COORD97":2548083.25,"ADDRESS":"中興路７１９巷１５號","OBJECTID":284340},"geometry":{"x":179480.66000000108,"y":2548083.25}},{"attributes":{"ID":284347,"DIS_CODE":0,"TOWNNAME":"新化區","LI":"東榮里","LIN":"19鄰","STREET":"中興路","SECT":" ","MAREA":" ","LANE":"７１９巷","ALLEY":" ","HOUSE_NO":"２７號","E_COORD97":179478.45999999999,"N_COORD97":2548067.25,"ADDRESS":"中興路７１９巷２７號","OBJECTID":284341},"geometry":{"x":179478.46000000089,"y":2548067.2500000037}},{"attributes":{"ID":284348,"DIS_CODE":0,"TOWNNAME":"永康區","LI":"安康里","LIN":"19鄰","STREET":"中華西街","SECT":" ","MAREA":" ","LANE":"１２２巷","ALLEY":" ","HOUSE_NO":"１２號","E_COORD97":170751.67000000001,"N_COORD97":2546143.1200000001,"ADDRESS":"中華西街１２２巷１２號","OBJECTID":284342},"geometry":{"x":170751.67000000086,"y":2546143.120000001}},{"attributes":{"ID":284349,"DIS_CODE":0,"TOWNNAME":"安平區","LI":"海頭里","LIN":"19鄰","STREET":"古堡街","SECT":" ","MAREA":" ","LANE":"６４巷","ALLEY":" ","HOUSE_NO":"１號","E_COORD97":164012.39999999999,"N_COORD97":2544880.7599999998,"ADDRESS":"古堡街６４巷１號","OBJECTID":284343},"geometry":{"x":164012.4000000013,"y":2544880.7600000016}},{"attributes":{"ID":284350,"DIS_CODE":0,"TOWNNAME":"東區","LI":"後甲里","LIN":"2鄰","STREET":"裕農路","SECT":" ","MAREA":" ","LANE":" ","ALLEY":" ","HOUSE_NO":"７１３號","E_COORD97":171870.57999999999,"N_COORD97":2543265.3799999999,"ADDRESS":"裕農路７１３號","OBJECTID":284344},"geometry":{"x":171870.58000000007,"y":2543265.3800000008}},{"attributes":{"ID":284351,"DIS_CODE":0,"TOWNNAME":"東區","LI":"東光里","LIN":"2鄰","STREET":"東光路","SECT":"一段","MAREA":" ","LANE":" ","ALLEY":" ","HOUSE_NO":"２９號","E_COORD97":171128.82999999999,"N_COORD97":2543410.6400000001,"ADDRESS":"東光路一段２９號","OBJECTID":284345},"geometry":{"x":171128.83000000101,"y":2543410.6400000025}},{"attributes":{"ID":284352,"DIS_CODE":0,"TOWNNAME":"東區","LI":"東光里","LIN":"2鄰","STREET":"東光路","SECT":"一段","MAREA":" ","LANE":" ","ALLEY":" ","HOUSE_NO":"３１號","E_COORD97":171126.76000000001,"N_COORD97":2543423.6600000001,"ADDRESS":"東光路一段３１號","OBJECTID":284346},"geometry":{"x":171126.75999999978,"y":2543423.660000002}},{"attributes":{"ID":284353,"DIS_CODE":0,"TOWNNAME":"東區","LI":"富強里","LIN":"2鄰","STREET":"裕農路","SECT":" ","MAREA":" ","LANE":" ","ALLEY":" ","HOUSE_NO":"４５０號","E_COORD97":171295.45999999999,"N_COORD97":2543172.1000000001,"ADDRESS":"裕農路４５０號","OBJECTID":284347},"geometry":{"x":171295.46000000183,"y":2543172.1000000034}},{"attributes":{"ID":284354,"DIS_CODE":0,"TOWNNAME":"永康區","LI":"\u25A0行里","LIN":"43鄰","STREET":"\u25A0平街","SECT":" ","MAREA":" ","LANE":" ","ALLEY":" ","HOUSE_NO":"２７號","E_COORD97":171571.73999999999,"N_COORD97":2548030.2599999998,"ADDRESS":"\u25A0平街２７號","OBJECTID":284348},"geometry":{"x":171571.74000000209,"y":2548030.2600000016}},{"attributes":{"ID":284355,"DIS_CODE":0,"TOWNNAME":"永康區","LI":"\u25A0洲里","LIN":"4鄰","STREET":"\u25A0洲二街","SECT":" ","MAREA":" ","LANE":" ","ALLEY":" ","HOUSE_NO":"１２１號","E_COORD97":171661.37,"N_COORD97":2549516.8799999999,"ADDRESS":"\u25A0洲二街１２１號","OBJECTID":284349},"geometry":{"x":171661.37000000104,"y":2549516.8800000008}},{"attributes":{"ID":284356,"DIS_CODE":0,"TOWNNAME":"永康區","LI":"西灣里","LIN":"19鄰","STREET":"大安街","SECT":" ","MAREA":" ","LANE":"３３３巷","ALLEY":" ","HOUSE_NO":"１３號","E_COORD97":174567.45999999999,"N_COORD97":2545733.5899999999,"ADDRESS":"大安街３３３巷１３號","OBJECTID":284350},"geometry":{"x":174567.46000000089,"y":2545733.5900000017}},{"attributes":{"ID":284357,"DIS_CODE":0,"TOWNNAME":"永康區","LI":"西灣里","LIN":"19鄰","STREET":"大安街","SECT":" ","MAREA":" ","LANE":"３３３巷","ALLEY":" ","HOUSE_NO":"２５號","E_COORD97":174539.16,"N_COORD97":2545743.3300000001,"ADDRESS":"大安街３３３巷２５號","OBJECTID":284351},"geometry":{"x":174539.16000000108,"y":2545743.3300000001}},{"attributes":{"ID":284358,"DIS_CODE":0,"TOWNNAME":"永康區","LI":"西灣里","LIN":"19鄰","STREET":"大安街","SECT":" ","MAREA":" ","LANE":"３３３巷","ALLEY":" ","HOUSE_NO":"２１號","E_COORD97":174549.26999999999,"N_COORD97":2545739.8599999999,"ADDRESS":"大安街３３３巷２１號","OBJECTID":284352},"geometry":{"x":174549.27000000142,"y":2545739.8599999975}},{"attributes":{"ID":284359,"DIS_CODE":0,"TOWNNAME":"中西區","LI":"五妃里","LIN":"17鄰","STREET":"南門路","SECT":" ","MAREA":" ","LANE":" ","ALLEY":" ","HOUSE_NO":"１９７號","E_COORD97":168417.09,"N_COORD97":2542876.5800000001,"ADDRESS":"南門路１９７號","OBJECTID":284353},"geometry":{"x":168417.08999999985,"y":2542876.5800000001}},{"attributes":{"ID":284360,"DIS_CODE":0,"TOWNNAME":"中西區","LI":"公正里","LIN":"6鄰","STREET":"西華南街","SECT":" ","MAREA":" ","LANE":" ","ALLEY":" ","HOUSE_NO":"６９號","E_COORD97":168961.98000000001,"N_COORD97":2543926.8100000001,"ADDRESS":"西華南街６９號","OBJECTID":284354},"geometry":{"x":168961.98000000138,"y":2543926.8100000005}},{"attributes":{"ID":284361,"DIS_CODE":0,"TOWNNAME":"中西區","LI":"公正里","LIN":"6鄰","STREET":"西華南街","SECT":" ","MAREA":" ","LANE":" ","ALLEY":" ","HOUSE_NO":"７１號","E_COORD97":168962.38,"N_COORD97":2543930.6499999999,"ADDRESS":"西華南街７１號","OBJECTID":284355},"geometry":{"x":168962.38000000082,"y":2543930.6500000004}},{"attributes":{"ID":284362,"DIS_CODE":0,"TOWNNAME":"中西區","LI":"公正里","LIN":"6鄰","STREET":"西華南街","SECT":" ","MAREA":" ","LANE":" ","ALLEY":" ","HOUSE_NO":"７３號","E_COORD97":168962.95000000001,"N_COORD97":2543934.1800000002,"ADDRESS":"西華南街７３號","OBJECTID":284356},"geometry":{"x":168962.95000000019,"y":2543934.1799999997}},{"attributes":{"ID":284363,"DIS_CODE":0,"TOWNNAME":"永康區","LI":"永康里","LIN":"19鄰","STREET":"永中街","SECT":" ","MAREA":" ","LANE":"１３８巷","ALLEY":" ","HOUSE_NO":"１１號","E_COORD97":174036.10999999999,"N_COORD97":2547262.0099999998,"ADDRESS":"永中街１３８巷１１號","OBJECTID":284357},"geometry":{"x":174036.11000000127,"y":2547262.0100000035}},{"attributes":{"ID":284364,"DIS_CODE":0,"TOWNNAME":"永康區","LI":"西灣里","LIN":"19鄰","STREET":"大安街","SECT":" ","MAREA":" ","LANE":"３３３巷","ALLEY":" ","HOUSE_NO":"１７號","E_COORD97":174559.23999999999,"N_COORD97":2545737.1099999999,"ADDRESS":"大安街３３３巷１７號","OBJECTID":284358},"geometry":{"x":174559.24000000115,"y":2545737.1099999994}},{"attributes":{"ID":284365,"DIS_CODE":0,"TOWNNAME":"永康區","LI":"安康里","LIN":"19鄰","STREET":"中華西街","SECT":" ","MAREA":" ","LANE":"１０４巷","ALLEY":" ","HOUSE_NO":"９號","E_COORD97":170762.23999999999,"N_COORD97":2546129.25,"ADDRESS":"中華西街１０４巷９號","OBJECTID":284359},"geometry":{"x":170762.24000000115,"y":2546129.2500000019}},{"attributes":{"ID":284366,"DIS_CODE":0,"TOWNNAME":"永康區","LI":"安康里","LIN":"19鄰","STREET":"中華西街","SECT":" ","MAREA":" ","LANE":"１０４巷","ALLEY":" ","HOUSE_NO":"２９號","E_COORD97":170804.82999999999,"N_COORD97":2546153.9900000002,"ADDRESS":"中華西街１０４巷２９號","OBJECTID":284360},"geometry":{"x":170804.83000000194,"y":2546153.9900000021}},{"attributes":{"ID":284367,"DIS_CODE":0,"TOWNNAME":"永康區","LI":"永康里","LIN":"19鄰","STREET":"永中街","SECT":" ","MAREA":" ","LANE":"１６６巷","ALLEY":" ","HOUSE_NO":"２２號","E_COORD97":174067.28,"N_COORD97":2547270.4900000002,"ADDRESS":"永中街１６６巷２２號","OBJECTID":284361},"geometry":{"x":174067.28000000119,"y":2547270.4900000021}},{"attributes":{"ID":284368,"DIS_CODE":0,"TOWNNAME":"永康區","LI":"永康里","LIN":"19鄰","STREET":"永中街","SECT":" ","MAREA":" ","LANE":"１５２巷","ALLEY":" ","HOUSE_NO":"９號","E_COORD97":174062.14000000001,"N_COORD97":2547260,"ADDRESS":"永中街１５２巷９號","OBJECTID":284362},"geometry":{"x":174062.14000000153,"y":2547260.0000000019}},{"attributes":{"ID":284369,"DIS_CODE":0,"TOWNNAME":"中西區","LI":"公正里","LIN":"6鄰","STREET":"西華南街","SECT":" ","MAREA":" ","LANE":" ","ALLEY":" ","HOUSE_NO":"７５號","E_COORD97":168963.91,"N_COORD97":2543937.4700000002,"ADDRESS":"西華南街７５號","OBJECTID":284363},"geometry":{"x":168963.91000000108,"y":2543937.4700000025}},{"attributes":{"ID":284370,"DIS_CODE":0,"TOWNNAME":"永康區","LI":"西勢里","LIN":"2鄰","STREET":"富強路","SECT":"二段","MAREA":" ","LANE":" ","ALLEY":" ","HOUSE_NO":"１號","E_COORD97":175691.19,"N_COORD97":2546803.8399999999,"ADDRESS":"富強路二段１號","OBJECTID":284364},"geometry":{"x":175691.19000000041,"y":2546803.8399999999}},{"attributes":{"ID":284371,"DIS_CODE":0,"TOWNNAME":"安南區","LI":"溪墘里","LIN":"19鄰","STREET":"海佃路","SECT":"一段","MAREA":" ","LANE":"４００巷","ALLEY":" ","HOUSE_NO":"６２號","E_COORD97":167242.25,"N_COORD97":2547692.29,"ADDRESS":"海佃路一段４００巷６２號","OBJECTID":284365},"geometry":{"x":167242.25000000093,"y":2547692.2899999991}},{"attributes":{"ID":284372,"DIS_CODE":0,"TOWNNAME":"東區","LI":"和平里","LIN":"2鄰","STREET":"文化一街","SECT":" ","MAREA":" ","LANE":" ","ALLEY":" ","HOUSE_NO":"７７號","E_COORD97":171247.09,"N_COORD97":2542001.4199999999,"ADDRESS":"文化一街７７號","OBJECTID":284366},"geometry":{"x":171247.09000000078,"y":2542001.4200000018}},{"attributes":{"ID":284373,"DIS_CODE":0,"TOWNNAME":"永康區","LI":"西橋里","LIN":"2鄰","STREET":"中山南路","SECT":" ","MAREA":" ","LANE":" ","ALLEY":" ","HOUSE_NO":"４５號","E_COORD97":170768.47,"N_COORD97":2545832.5,"ADDRESS":"中山南路４５號","OBJECTID":284367},"geometry":{"x":170768.47000000067,"y":2545832.5000000019}},{"attributes":{"ID":284374,"DIS_CODE":0,"TOWNNAME":"安南區","LI":"新順里","LIN":"19鄰","STREET":"安豐六街","SECT":" ","MAREA":" ","LANE":"１０巷","ALLEY":" ","HOUSE_NO":"３號","E_COORD97":169299.82999999999,"N_COORD97":2549662.46,"ADDRESS":"安豐六街１０巷３號","OBJECTID":284368},"geometry":{"x":169299.83000000101,"y":2549662.4600000009}},{"attributes":{"ID":284375,"DIS_CODE":0,"TOWNNAME":"仁德區","LI":"後壁里","LIN":"19鄰","STREET":"中正路","SECT":"二段","MAREA":" ","LANE":"１８８巷","ALLEY":" ","HOUSE_NO":"４號","E_COORD97":173250.79999999999,"N_COORD97":2538708.27,"ADDRESS":"中正路二段１８８巷４號","OBJECTID":284369},"geometry":{"x":173250.79999999888,"y":2538708.2699999996}},{"attributes":{"ID":284376,"DIS_CODE":0,"TOWNNAME":"官田區","LI":"社子里","LIN":"2鄰","STREET":" ","SECT":" ","MAREA":"社子","LANE":" ","ALLEY":" ","HOUSE_NO":"３號之１","E_COORD97":184326.53,"N_COORD97":2564549.21,"ADDRESS":"社子３號之１","OBJECTID":284370},"geometry":{"x":184326.53000000119,"y":2564549.2100000046}},{"attributes":{"ID":284377,"DIS_CODE":0,"TOWNNAME":"官田區","LI":"社子里","LIN":"2鄰","STREET":" ","SECT":" ","MAREA":"社子","LANE":" ","ALLEY":" ","HOUSE_NO":"３號之６","E_COORD97":184293.10999999999,"N_COORD97":2564588.5299999998,"ADDRESS":"社子３號之６","OBJECTID":284371},"geometry":{"x":184293.11000000034,"y":2564588.5299999993}},{"attributes":{"ID":284378,"DIS_CODE":0,"TOWNNAME":"仁德區","LI":"成功里","LIN":"19鄰","STREET":"保生路","SECT":" ","MAREA":" ","LANE":"８９巷","ALLEY":" ","HOUSE_NO":"１８號","E_COORD97":170623.85000000001,"N_COORD97":2539743.4900000002,"ADDRESS":"保生路８９巷１８號","OBJECTID":284372},"geometry":{"x":170623.84999999963,"y":2539743.4900000021}},{"attributes":{"ID":284379,"DIS_CODE":0,"TOWNNAME":"仁德區","LI":"土庫里","LIN":"19鄰","STREET":"太子二街","SECT":" ","MAREA":" ","LANE":"８８巷","ALLEY":" ","HOUSE_NO":"４９號","E_COORD97":174420.87,"N_COORD97":2543176.5,"ADDRESS":"太子二街８８巷４９號","OBJECTID":284373},"geometry":{"x":174420.87000000104,"y":2543176.4999999981}},{"attributes":{"ID":284380,"DIS_CODE":0,"TOWNNAME":"仁德區","LI":"土庫里","LIN":"19鄰","STREET":"太子二街","SECT":" ","MAREA":" ","LANE":"１６６巷","ALLEY":" ","HOUSE_NO":"５號","E_COORD97":174465.57000000001,"N_COORD97":2543176.5,"ADDRESS":"太子二街１６６巷５號","OBJECTID":284374},"geometry":{"x":174465.57000000123,"y":2543176.4999999981}},{"attributes":{"ID":284381,"DIS_CODE":0,"TOWNNAME":"仁德區","LI":"土庫里","LIN":"19鄰","STREET":"太子二街","SECT":" ","MAREA":" ","LANE":"１５６巷","ALLEY":" ","HOUSE_NO":"１號","E_COORD97":174492.87,"N_COORD97":2543197.7599999998,"ADDRESS":"太子二街１５６巷１號","OBJECTID":284375},"geometry":{"x":174492.87000000011,"y":2543197.7599999998}},{"attributes":{"ID":284382,"DIS_CODE":0,"TOWNNAME":"永康區","LI":"網寮里","LIN":"19鄰","STREET":"永大一路","SECT":" ","MAREA":" ","LANE":"３８０巷","ALLEY":" ","HOUSE_NO":"３號","E_COORD97":173486.82999999999,"N_COORD97":2546177.8700000001,"ADDRESS":"永大一路３８０巷３號","OBJECTID":284376},"geometry":{"x":173486.83000000101,"y":2546177.870000001}},{"attributes":{"ID":284383,"DIS_CODE":0,"TOWNNAME":"永康區","LI":"網寮里","LIN":"19鄰","STREET":"永二街","SECT":" ","MAREA":" ","LANE":"２２９巷","ALLEY":" ","HOUSE_NO":"１５號","E_COORD97":173459.85999999999,"N_COORD97":2546264.1099999999,"ADDRESS":"永二街２２９巷１５號","OBJECTID":284377},"geometry":{"x":173459.86000000127,"y":2546264.1100000031}},{"attributes":{"ID":284384,"DIS_CODE":0,"TOWNNAME":"永康區","LI":"復興里","LIN":"19鄰","STREET":"復興路","SECT":" ","MAREA":" ","LANE":"３５６巷","ALLEY":" ","HOUSE_NO":"２０號","E_COORD97":172270.89999999999,"N_COORD97":2544403.02,"ADDRESS":"復興路３５６巷２０號","OBJECTID":284378},"geometry":{"x":172270.90000000224,"y":2544403.0199999996}},{"attributes":{"ID":284385,"DIS_CODE":0,"TOWNNAME":"永康區","LI":"安康里","LIN":"19鄰","STREET":"中華西街","SECT":" ","MAREA":" ","LANE":"１２２巷","ALLEY":" ","HOUSE_NO":"３０號","E_COORD97":170786.45000000001,"N_COORD97":2546172.4900000002,"ADDRESS":"中華西街１２２巷３０號","OBJECTID":284379},"geometry":{"x":170786.45000000019,"y":2546172.4900000002}},{"attributes":{"ID":284386,"DIS_CODE":0,"TOWNNAME":"永康區","LI":"東灣里","LIN":"19鄰","STREET":"大灣三街","SECT":" ","MAREA":" ","LANE":"７３巷","ALLEY":" ","HOUSE_NO":"１９號","E_COORD97":174867.23999999999,"N_COORD97":2544899.7999999998,"ADDRESS":"大灣三街７３巷１９號","OBJECTID":284380},"geometry":{"x":174867.24000000209,"y":2544899.8000000007}},{"attributes":{"ID":284387,"DIS_CODE":0,"TOWNNAME":"永康區","LI":"東灣里","LIN":"19鄰","STREET":"大灣二街","SECT":" ","MAREA":" ","LANE":"３８巷","ALLEY":" ","HOUSE_NO":"４３號","E_COORD97":174954.07000000001,"N_COORD97":2544844.5899999999,"ADDRESS":"大灣二街３８巷４３號","OBJECTID":284381},"geometry":{"x":174954.0700000003,"y":2544844.5900000017}},{"attributes":{"ID":284388,"DIS_CODE":0,"TOWNNAME":"永康區","LI":"勝利里","LIN":"19鄰","STREET":"勝利街","SECT":" ","MAREA":" ","LANE":"１９７巷","ALLEY":" ","HOUSE_NO":"３８號","E_COORD97":171247.48999999999,"N_COORD97":2545141,"ADDRESS":"勝利街１９７巷３８號","OBJECTID":284382},"geometry":{"x":171247.49000000022,"y":2545141.0000000019}},{"attributes":{"ID":284389,"DIS_CODE":0,"TOWNNAME":"南區","LI":"明亮里","LIN":"19鄰","STREET":"金華路","SECT":"一段","MAREA":" ","LANE":"３５２巷","ALLEY":" ","HOUSE_NO":"３２號","E_COORD97":167097.76000000001,"N_COORD97":2541163.0299999998,"ADDRESS":"金華路一段３５２巷３２號","OBJECTID":284383},"geometry":{"x":167097.76000000071,"y":2541163.0300000012}},{"attributes":{"ID":284390,"DIS_CODE":0,"TOWNNAME":"南區","LI":"明興里","LIN":"19鄰","STREET":"德興路","SECT":" ","MAREA":" ","LANE":"１３０巷","ALLEY":" ","HOUSE_NO":"５９號","E_COORD97":167135.25,"N_COORD97":2540399.4500000002,"ADDRESS":"德興路１３０巷５９號","OBJECTID":284384},"geometry":{"x":167135.25000000186,"y":2540399.450000003}},{"attributes":{"ID":284391,"DIS_CODE":0,"TOWNNAME":"南區","LI":"明興里","LIN":"19鄰","STREET":"德興路","SECT":" ","MAREA":" ","LANE":"１３０巷","ALLEY":" ","HOUSE_NO":"６１號","E_COORD97":167138.95000000001,"N_COORD97":2540401.5899999999,"ADDRESS":"德興路１３０巷６１號","OBJECTID":284385},"geometry":{"x":167138.95000000019,"y":2540401.5899999999}},{"attributes":{"ID":284392,"DIS_CODE":0,"TOWNNAME":"南區","LI":"明興里","LIN":"19鄰","STREET":"德興路","SECT":" ","MAREA":" ","LANE":"１３０巷","ALLEY":" ","HOUSE_NO":"６３號","E_COORD97":167144.23000000001,"N_COORD97":2540401.5899999999,"ADDRESS":"德興路１３０巷６３號","OBJECTID":284386},"geometry":{"x":167144.23000000231,"y":2540401.5899999999}},{"attributes":{"ID":284393,"DIS_CODE":0,"TOWNNAME":"南區","LI":"明興里","LIN":"19鄰","STREET":"德興路","SECT":" ","MAREA":" ","LANE":"１３０巷","ALLEY":" ","HOUSE_NO":"６５號","E_COORD97":167147.62,"N_COORD97":2540402.9100000001,"ADDRESS":"德興路１３０巷６５號","OBJECTID":284387},"geometry":{"x":167147.62000000011,"y":2540402.9100000001}},{"attributes":{"ID":284394,"DIS_CODE":0,"TOWNNAME":"南區","LI":"明興里","LIN":"19鄰","STREET":"德興路","SECT":" ","MAREA":" ","LANE":"１３０巷","ALLEY":" ","HOUSE_NO":"７６號","E_COORD97":167075.69,"N_COORD97":2540384.8599999999,"ADDRESS":"德興路１３０巷７６號","OBJECTID":284388},"geometry":{"x":167075.69000000134,"y":2540384.8600000013}},{"attributes":{"ID":284395,"DIS_CODE":0,"TOWNNAME":"南區","LI":"明興里","LIN":"19鄰","STREET":"德興路","SECT":" ","MAREA":" ","LANE":"１３０巷","ALLEY":" ","HOUSE_NO":"９４號","E_COORD97":167129.92999999999,"N_COORD97":2540386.5899999999,"ADDRESS":"德興路１３０巷９４號","OBJECTID":284389},"geometry":{"x":167129.9299999997,"y":2540386.5900000017}},{"attributes":{"ID":284396,"DIS_CODE":0,"TOWNNAME":"南區","LI":"明興里","LIN":"19鄰","STREET":"德興路","SECT":" ","MAREA":" ","LANE":"１３０巷","ALLEY":" ","HOUSE_NO":"９６號","E_COORD97":167134.97,"N_COORD97":2540386.3399999999,"ADDRESS":"德興路１３０巷９６號","OBJECTID":284390},"geometry":{"x":167134.96999999881,"y":2540386.3399999999}},{"attributes":{"ID":284397,"DIS_CODE":0,"TOWNNAME":"東區","LI":"成大里","LIN":"29鄰","STREET":"大學路","SECT":"西段","MAREA":" ","LANE":" ","ALLEY":" ","HOUSE_NO":"１號","E_COORD97":169828.95000000001,"N_COORD97":2544073.73,"ADDRESS":"大學路西段１號","OBJECTID":284391},"geometry":{"x":169828.95000000019,"y":2544073.7300000004}},{"attributes":{"ID":284398,"DIS_CODE":0,"TOWNNAME":"安南區","LI":"四草里","LIN":"3鄰","STREET":"大眾路","SECT":" ","MAREA":" ","LANE":"３０１巷","ALLEY":" ","HOUSE_NO":"２４２號","E_COORD97":162127.96363499999,"N_COORD97":2546518.2541,"ADDRESS":"大眾路３０１巷２４２號","OBJECTID":284392},"geometry":{"x":162127.9636350004,"y":2546518.2540970035}},{"attributes":{"ID":284399,"DIS_CODE":0,"TOWNNAME":"南區","LI":"明興里","LIN":"19鄰","STREET":"德興路","SECT":" ","MAREA":" ","LANE":"１３０巷","ALLEY":" ","HOUSE_NO":"９８號","E_COORD97":167138.76999999999,"N_COORD97":2540385.1000000001,"ADDRESS":"德興路１３０巷９８號","OBJECTID":284393},"geometry":{"x":167138.77000000048,"y":2540385.0999999978}},{"attributes":{"ID":284400,"DIS_CODE":0,"TOWNNAME":"南區","LI":"明興里","LIN":"19鄰","STREET":"德興路","SECT":" ","MAREA":" ","LANE":"１３０巷","ALLEY":" ","HOUSE_NO":"１００號","E_COORD97":167142.91,"N_COORD97":2540386.9199999999,"ADDRESS":"德興路１３０巷１００號","OBJECTID":284394},"geometry":{"x":167142.91000000108,"y":2540386.9200000037}},{"attributes":{"ID":284401,"DIS_CODE":0,"TOWNNAME":"南區","LI":"明興里","LIN":"19鄰","STREET":"德興路","SECT":" ","MAREA":" ","LANE":"１３０巷","ALLEY":" ","HOUSE_NO":"１０２號","E_COORD97":167146.95999999999,"N_COORD97":2540387.7400000002,"ADDRESS":"德興路１３０巷１０２號","OBJECTID":284395},"geometry":{"x":167146.95999999996,"y":2540387.7400000002}},{"attributes":{"ID":284402,"DIS_CODE":0,"TOWNNAME":"南區","LI":"明興里","LIN":"19鄰","STREET":"德興路","SECT":" ","MAREA":" ","LANE":"１３０巷","ALLEY":" ","HOUSE_NO":"１０４號","E_COORD97":167150.60000000001,"N_COORD97":2540388.3999999999,"ADDRESS":"德興路１３０巷１０４號","OBJECTID":284396},"geometry":{"x":167150.59999999963,"y":2540388.4000000022}},{"attributes":{"ID":284403,"DIS_CODE":0,"TOWNNAME":"新市區","LI":"新市里","LIN":"19鄰","STREET":"和平街","SECT":" ","MAREA":" ","LANE":"１５巷","ALLEY":" ","HOUSE_NO":"８號","E_COORD97":177747.45000000001,"N_COORD97":2553415.25,"ADDRESS":"和平街１５巷８號","OBJECTID":284397},"geometry":{"x":177747.44999999925,"y":2553415.2500000019}},{"attributes":{"ID":284404,"DIS_CODE":0,"TOWNNAME":"安南區","LI":"海佃里","LIN":"19鄰","STREET":"海佃路","SECT":"一段","MAREA":" ","LANE":"２１３巷","ALLEY":" ","HOUSE_NO":"１０號","E_COORD97":167068.04000000001,"N_COORD97":2547262.3399999999,"ADDRESS":"海佃路一段２１３巷１０號","OBJECTID":284398},"geometry":{"x":167068.04000000004,"y":2547262.3399999999}},{"attributes":{"ID":284405,"DIS_CODE":0,"TOWNNAME":"安南區","LI":"海佃里","LIN":"19鄰","STREET":"海佃路","SECT":"一段","MAREA":" ","LANE":"２１３巷","ALLEY":" ","HOUSE_NO":"３６號","E_COORD97":167010.17999999999,"N_COORD97":2547251.04,"ADDRESS":"海佃路一段２１３巷３６號","OBJECTID":284399},"geometry":{"x":167010.18000000063,"y":2547251.040000001}},{"attributes":{"ID":284406,"DIS_CODE":0,"TOWNNAME":"安南區","LI":"海佃里","LIN":"19鄰","STREET":"海佃路","SECT":"一段","MAREA":" ","LANE":"２１３巷","ALLEY":" ","HOUSE_NO":"４６號","E_COORD97":166988.23999999999,"N_COORD97":2547247.7200000002,"ADDRESS":"海佃路一段２１３巷４６號","OBJECTID":284400},"geometry":{"x":166988.24000000115,"y":2547247.7200000044}}]}