{"displayFieldName":"TOWNNAME","fieldAliases":{"ID":"ID","DIS_CODE":"DIS_CODE","TOWNNAME":"TOWNNAME","LI":"LI","LIN":"LIN","STREET":"STREET","SECT":"SECT","MAREA":"MAREA","LANE":"LANE","ALLEY":"ALLEY","HOUSE_NO":"HOUSE_NO","E_COORD97":"E_COORD97","N_COORD97":"N_COORD97","ADDRESS":"ADDRESS","OBJECTID":"OBJECTID"},"geometryType":"esriGeometryPoint","spatialReference":{"wkid":102443,"latestWkid":3826},"fields":[{"name":"ID","type":"esriFieldTypeDouble","alias":"ID"},{"name":"DIS_CODE","type":"esriFieldTypeInteger","alias":"DIS_CODE"},{"name":"TOWNNAME","type":"esriFieldTypeString","alias":"TOWNNAME","length":8},{"name":"LI","type":"esriFieldTypeString","alias":"LI","length":8},{"name":"LIN","type":"esriFieldTypeString","alias":"LIN","length":12},{"name":"STREET","type":"esriFieldTypeString","alias":"STREET","length":20},{"name":"SECT","type":"esriFieldTypeString","alias":"SECT","length":8},{"name":"MAREA","type":"esriFieldTypeString","alias":"MAREA","length":12},{"name":"LANE","type":"esriFieldTypeString","alias":"LANE","length":10},{"name":"ALLEY","type":"esriFieldTypeString","alias":"ALLEY","length":10},{"name":"HOUSE_NO","type":"esriFieldTypeString","alias":"HOUSE_NO","length":20},{"name":"E_COORD97","type":"esriFieldTypeDouble","alias":"E_COORD97"},{"name":"N_COORD97","type":"esriFieldTypeDouble","alias":"N_COORD97"},{"name":"ADDRESS","type":"esriFieldTypeString","alias":"ADDRESS","length":50},{"name":"OBJECTID","type":"esriFieldTypeOID","alias":"OBJECTID"}],"features":[{"attributes":{"ID":570028,"DIS_CODE":0,"TOWNNAME":"新營區","LI":"新南里","LIN":"28鄰","STREET":"明清二街","SECT":" ","MAREA":" ","LANE":" ","ALLEY":" ","HOUSE_NO":"８５號","E_COORD97":178402.79999999999,"N_COORD97":2578645.1200000001,"ADDRESS":"明清二街８５號","OBJECTID":570001},"geometry":{"x":178402.80000000075,"y":2578645.1200000029}},{"attributes":{"ID":570029,"DIS_CODE":0,"TOWNNAME":"新營區","LI":"新南里","LIN":"28鄰","STREET":"明清二街","SECT":" ","MAREA":" ","LANE":" ","ALLEY":" ","HOUSE_NO":"８７號","E_COORD97":178408.91,"N_COORD97":2578644.73,"ADDRESS":"明清二街８７號","OBJECTID":570002},"geometry":{"x":178408.91000000201,"y":2578644.7300000004}},{"attributes":{"ID":570030,"DIS_CODE":0,"TOWNNAME":"新營區","LI":"新南里","LIN":"28鄰","STREET":"明清二街","SECT":" ","MAREA":" ","LANE":" ","ALLEY":" ","HOUSE_NO":"８９號","E_COORD97":178414.91,"N_COORD97":2578644.2000000002,"ADDRESS":"明清二街８９號","OBJECTID":570003},"geometry":{"x":178414.91000000015,"y":2578644.1999999993}},{"attributes":{"ID":570031,"DIS_CODE":0,"TOWNNAME":"新營區","LI":"新南里","LIN":"28鄰","STREET":"明清二街","SECT":" ","MAREA":" ","LANE":" ","ALLEY":" ","HOUSE_NO":"９１號","E_COORD97":178420.32000000001,"N_COORD97":2578644.2799999998,"ADDRESS":"明清二街９１號","OBJECTID":570004},"geometry":{"x":178420.32000000123,"y":2578644.2800000031}},{"attributes":{"ID":570032,"DIS_CODE":0,"TOWNNAME":"新營區","LI":"新南里","LIN":"28鄰","STREET":"明清二街","SECT":" ","MAREA":" ","LANE":" ","ALLEY":" ","HOUSE_NO":"９３號","E_COORD97":178423.16,"N_COORD97":2578658.8700000001,"ADDRESS":"明清二街９３號","OBJECTID":570005},"geometry":{"x":178423.16000000108,"y":2578658.8700000048}},{"attributes":{"ID":570033,"DIS_CODE":0,"TOWNNAME":"新營區","LI":"新南里","LIN":"28鄰","STREET":"明清二街","SECT":" ","MAREA":" ","LANE":" ","ALLEY":" ","HOUSE_NO":"９５號","E_COORD97":178423.39999999999,"N_COORD97":2578662.9900000002,"ADDRESS":"明清二街９５號","OBJECTID":570006},"geometry":{"x":178423.4000000013,"y":2578662.9900000002}},{"attributes":{"ID":570034,"DIS_CODE":0,"TOWNNAME":"新營區","LI":"新南里","LIN":"28鄰","STREET":"明清二街","SECT":" ","MAREA":" ","LANE":" ","ALLEY":" ","HOUSE_NO":"９７號","E_COORD97":178423.56,"N_COORD97":2578667.5899999999,"ADDRESS":"明清二街９７號","OBJECTID":570007},"geometry":{"x":178423.55999999959,"y":2578667.5900000017}},{"attributes":{"ID":570035,"DIS_CODE":0,"TOWNNAME":"新營區","LI":"新南里","LIN":"28鄰","STREET":"明清二街","SECT":" ","MAREA":" ","LANE":" ","ALLEY":" ","HOUSE_NO":"９９號","E_COORD97":178423.62,"N_COORD97":2578672.54,"ADDRESS":"明清二街９９號","OBJECTID":570008},"geometry":{"x":178423.62000000011,"y":2578672.5399999972}},{"attributes":{"ID":570036,"DIS_CODE":0,"TOWNNAME":"新營區","LI":"新南里","LIN":"28鄰","STREET":"明清街","SECT":" ","MAREA":" ","LANE":" ","ALLEY":" ","HOUSE_NO":"１２之２號","E_COORD97":178202.62,"N_COORD97":2578641.3199999998,"ADDRESS":"明清街１２之２號","OBJECTID":570009},"geometry":{"x":178202.62000000104,"y":2578641.3199999984}},{"attributes":{"ID":570037,"DIS_CODE":0,"TOWNNAME":"新營區","LI":"新南里","LIN":"28鄰","STREET":"明清街","SECT":" ","MAREA":" ","LANE":" ","ALLEY":" ","HOUSE_NO":"１２之３號","E_COORD97":178203.44,"N_COORD97":2578647.4199999999,"ADDRESS":"明清街１２之３號","OBJECTID":570010},"geometry":{"x":178203.44000000041,"y":2578647.4200000037}},{"attributes":{"ID":570038,"DIS_CODE":0,"TOWNNAME":"新營區","LI":"新東里","LIN":"28鄰","STREET":"東光街","SECT":" ","MAREA":" ","LANE":" ","ALLEY":" ","HOUSE_NO":"５５號","E_COORD97":180602.29999999999,"N_COORD97":2579682.2599999998,"ADDRESS":"東光街５５號","OBJECTID":570011},"geometry":{"x":180602.29999999981,"y":2579682.2600000035}},{"attributes":{"ID":570039,"DIS_CODE":0,"TOWNNAME":"新營區","LI":"新東里","LIN":"28鄰","STREET":"東光街","SECT":" ","MAREA":" ","LANE":" ","ALLEY":" ","HOUSE_NO":"９５號","E_COORD97":180576.62,"N_COORD97":2579754.6200000001,"ADDRESS":"東光街９５號","OBJECTID":570012},"geometry":{"x":180576.62000000011,"y":2579754.620000001}},{"attributes":{"ID":570040,"DIS_CODE":0,"TOWNNAME":"新營區","LI":"新東里","LIN":"28鄰","STREET":"東興七街","SECT":" ","MAREA":" ","LANE":" ","ALLEY":" ","HOUSE_NO":"３２號","E_COORD97":180660.37,"N_COORD97":2579744.0600000001,"ADDRESS":"東興七街３２號","OBJECTID":570013},"geometry":{"x":180660.37000000197,"y":2579744.0600000005}},{"attributes":{"ID":570041,"DIS_CODE":0,"TOWNNAME":"新營區","LI":"新東里","LIN":"28鄰","STREET":"東興七街","SECT":" ","MAREA":" ","LANE":" ","ALLEY":" ","HOUSE_NO":"３６號","E_COORD97":180655.28,"N_COORD97":2579743.9300000002,"ADDRESS":"東興七街３６號","OBJECTID":570014},"geometry":{"x":180655.28000000026,"y":2579743.9299999997}},{"attributes":{"ID":570042,"DIS_CODE":0,"TOWNNAME":"新營區","LI":"新東里","LIN":"28鄰","STREET":"東興路","SECT":" ","MAREA":" ","LANE":" ","ALLEY":" ","HOUSE_NO":"２４５號","E_COORD97":180744.45000000001,"N_COORD97":2579658.3799999999,"ADDRESS":"東興路２４５號","OBJECTID":570015},"geometry":{"x":180744.45000000019,"y":2579658.3800000008}},{"attributes":{"ID":570043,"DIS_CODE":0,"TOWNNAME":"新營區","LI":"新東里","LIN":"28鄰","STREET":"東興路","SECT":" ","MAREA":" ","LANE":" ","ALLEY":" ","HOUSE_NO":"２４７號","E_COORD97":180744.5,"N_COORD97":2579665.4199999999,"ADDRESS":"東興路２４７號","OBJECTID":570016},"geometry":{"x":180744.50000000093,"y":2579665.4200000018}},{"attributes":{"ID":570044,"DIS_CODE":0,"TOWNNAME":"新營區","LI":"新東里","LIN":"28鄰","STREET":"東興路","SECT":" ","MAREA":" ","LANE":" ","ALLEY":" ","HOUSE_NO":"２７７號","E_COORD97":180733.37,"N_COORD97":2579729.98,"ADDRESS":"東興路２７７號","OBJECTID":570017},"geometry":{"x":180733.37000000197,"y":2579729.9800000023}},{"attributes":{"ID":570045,"DIS_CODE":0,"TOWNNAME":"新營區","LI":"三仙里","LIN":"28鄰","STREET":"健康路","SECT":" ","MAREA":" ","LANE":" ","ALLEY":" ","HOUSE_NO":"１２１號","E_COORD97":179635.17000000001,"N_COORD97":2579227.8100000001,"ADDRESS":"健康路１２１號","OBJECTID":570018},"geometry":{"x":179635.16999999993,"y":2579227.8100000005}},{"attributes":{"ID":570046,"DIS_CODE":0,"TOWNNAME":"新營區","LI":"三仙里","LIN":"28鄰","STREET":"健康路","SECT":" ","MAREA":" ","LANE":" ","ALLEY":" ","HOUSE_NO":"１２３號","E_COORD97":179634.69,"N_COORD97":2579231.9500000002,"ADDRESS":"健康路１２３號","OBJECTID":570019},"geometry":{"x":179634.69000000227,"y":2579231.9499999993}},{"attributes":{"ID":570047,"DIS_CODE":0,"TOWNNAME":"新營區","LI":"三仙里","LIN":"28鄰","STREET":"健康路","SECT":" ","MAREA":" ","LANE":" ","ALLEY":" ","HOUSE_NO":"１２５號","E_COORD97":179634.76999999999,"N_COORD97":2579238.0699999998,"ADDRESS":"健康路１２５號","OBJECTID":570020},"geometry":{"x":179634.76999999862,"y":2579238.0700000022}},{"attributes":{"ID":570048,"DIS_CODE":0,"TOWNNAME":"新營區","LI":"三仙里","LIN":"28鄰","STREET":"健康路","SECT":" ","MAREA":" ","LANE":" ","ALLEY":" ","HOUSE_NO":"１２７號","E_COORD97":179634.51000000001,"N_COORD97":2579244.9399999999,"ADDRESS":"健康路１２７號","OBJECTID":570021},"geometry":{"x":179634.50999999978,"y":2579244.9400000013}},{"attributes":{"ID":570049,"DIS_CODE":0,"TOWNNAME":"新營區","LI":"三仙里","LIN":"28鄰","STREET":"健康路","SECT":" ","MAREA":" ","LANE":" ","ALLEY":" ","HOUSE_NO":"１２９號","E_COORD97":179634.98999999999,"N_COORD97":2579249.5299999998,"ADDRESS":"健康路１２９號","OBJECTID":570022},"geometry":{"x":179634.99000000022,"y":2579249.5300000031}},{"attributes":{"ID":570050,"DIS_CODE":0,"TOWNNAME":"新營區","LI":"三仙里","LIN":"28鄰","STREET":"健康路","SECT":" ","MAREA":" ","LANE":" ","ALLEY":" ","HOUSE_NO":"１３１號","E_COORD97":179634.79999999999,"N_COORD97":2579253.5299999998,"ADDRESS":"健康路１３１號","OBJECTID":570023},"geometry":{"x":179634.79999999981,"y":2579253.5300000012}},{"attributes":{"ID":570051,"DIS_CODE":0,"TOWNNAME":"新營區","LI":"三仙里","LIN":"28鄰","STREET":"健康路","SECT":" ","MAREA":" ","LANE":" ","ALLEY":" ","HOUSE_NO":"１３３號","E_COORD97":179634.48999999999,"N_COORD97":2579257.7799999998,"ADDRESS":"健康路１３３號","OBJECTID":570024},"geometry":{"x":179634.49000000115,"y":2579257.7800000031}},{"attributes":{"ID":570052,"DIS_CODE":0,"TOWNNAME":"新營區","LI":"三仙里","LIN":"28鄰","STREET":"健康路","SECT":" ","MAREA":" ","LANE":" ","ALLEY":" ","HOUSE_NO":"１３５號","E_COORD97":179634.12,"N_COORD97":2579262.6499999999,"ADDRESS":"健康路１３５號","OBJECTID":570025},"geometry":{"x":179634.12000000011,"y":2579262.6500000004}},{"attributes":{"ID":570053,"DIS_CODE":0,"TOWNNAME":"新營區","LI":"三仙里","LIN":"28鄰","STREET":"健康路","SECT":" ","MAREA":" ","LANE":" ","ALLEY":" ","HOUSE_NO":"１３７號","E_COORD97":179633.76999999999,"N_COORD97":2579266.9700000002,"ADDRESS":"健康路１３７號","OBJECTID":570026},"geometry":{"x":179633.77000000048,"y":2579266.9700000007}},{"attributes":{"ID":570054,"DIS_CODE":0,"TOWNNAME":"新營區","LI":"新南里","LIN":"28鄰","STREET":"明清二街","SECT":" ","MAREA":" ","LANE":" ","ALLEY":" ","HOUSE_NO":"６０號","E_COORD97":178436.51999999999,"N_COORD97":2578658.02,"ADDRESS":"明清二街６０號","OBJECTID":570027},"geometry":{"x":178436.52000000048,"y":2578658.0200000014}},{"attributes":{"ID":570055,"DIS_CODE":0,"TOWNNAME":"新營區","LI":"新南里","LIN":"28鄰","STREET":"明清二街","SECT":" ","MAREA":" ","LANE":" ","ALLEY":" ","HOUSE_NO":"６２號","E_COORD97":178439.57999999999,"N_COORD97":2578661.3399999999,"ADDRESS":"明清二街６２號","OBJECTID":570028},"geometry":{"x":178439.58000000007,"y":2578661.3400000036}},{"attributes":{"ID":570056,"DIS_CODE":0,"TOWNNAME":"新營區","LI":"新南里","LIN":"28鄰","STREET":"明清二街","SECT":" ","MAREA":" ","LANE":" ","ALLEY":" ","HOUSE_NO":"６６號","E_COORD97":178443.32000000001,"N_COORD97":2578664.48,"ADDRESS":"明清二街６６號","OBJECTID":570029},"geometry":{"x":178443.3200000003,"y":2578664.4800000042}},{"attributes":{"ID":570057,"DIS_CODE":0,"TOWNNAME":"新營區","LI":"新南里","LIN":"28鄰","STREET":"明清二街","SECT":" ","MAREA":" ","LANE":" ","ALLEY":" ","HOUSE_NO":"６８號","E_COORD97":178446.64999999999,"N_COORD97":2578667.8799999999,"ADDRESS":"明清二街６８號","OBJECTID":570030},"geometry":{"x":178446.65000000224,"y":2578667.8800000008}},{"attributes":{"ID":570058,"DIS_CODE":0,"TOWNNAME":"新營區","LI":"新南里","LIN":"28鄰","STREET":"明清二街","SECT":" ","MAREA":" ","LANE":" ","ALLEY":" ","HOUSE_NO":"７０號","E_COORD97":178450.20999999999,"N_COORD97":2578671.3399999999,"ADDRESS":"明清二街７０號","OBJECTID":570031},"geometry":{"x":178450.20999999996,"y":2578671.3400000036}},{"attributes":{"ID":570059,"DIS_CODE":0,"TOWNNAME":"新營區","LI":"新南里","LIN":"28鄰","STREET":"明清二街","SECT":" ","MAREA":" ","LANE":" ","ALLEY":" ","HOUSE_NO":"７２號","E_COORD97":178453.48000000001,"N_COORD97":2578674.6099999999,"ADDRESS":"明清二街７２號","OBJECTID":570032},"geometry":{"x":178453.48000000138,"y":2578674.6099999994}},{"attributes":{"ID":570060,"DIS_CODE":0,"TOWNNAME":"新營區","LI":"新南里","LIN":"28鄰","STREET":"明清二街","SECT":" ","MAREA":" ","LANE":" ","ALLEY":" ","HOUSE_NO":"７６號","E_COORD97":178456.67999999999,"N_COORD97":2578677.8700000001,"ADDRESS":"明清二街７６號","OBJECTID":570033},"geometry":{"x":178456.6799999997,"y":2578677.870000001}},{"attributes":{"ID":570061,"DIS_CODE":0,"TOWNNAME":"新營區","LI":"新南里","LIN":"28鄰","STREET":"明清二街","SECT":" ","MAREA":" ","LANE":" ","ALLEY":" ","HOUSE_NO":"７８號","E_COORD97":178460.07999999999,"N_COORD97":2578680.9399999999,"ADDRESS":"明清二街７８號","OBJECTID":570034},"geometry":{"x":178460.08000000007,"y":2578680.9400000013}},{"attributes":{"ID":570062,"DIS_CODE":0,"TOWNNAME":"新營區","LI":"新南里","LIN":"28鄰","STREET":"明清二街","SECT":" ","MAREA":" ","LANE":" ","ALLEY":" ","HOUSE_NO":"８０號","E_COORD97":178463.12,"N_COORD97":2578684.1099999999,"ADDRESS":"明清二街８０號","OBJECTID":570035},"geometry":{"x":178463.12000000011,"y":2578684.1100000013}},{"attributes":{"ID":570063,"DIS_CODE":0,"TOWNNAME":"新營區","LI":"新南里","LIN":"28鄰","STREET":"明清二街","SECT":" ","MAREA":" ","LANE":" ","ALLEY":" ","HOUSE_NO":"８２號","E_COORD97":178466.39000000001,"N_COORD97":2578687.3799999999,"ADDRESS":"明清二街８２號","OBJECTID":570036},"geometry":{"x":178466.3900000006,"y":2578687.3800000027}},{"attributes":{"ID":570064,"DIS_CODE":0,"TOWNNAME":"新化區","LI":"東榮里","LIN":"28鄰","STREET":"中興路","SECT":" ","MAREA":" ","LANE":" ","ALLEY":" ","HOUSE_NO":"８２３號","E_COORD97":179167.60999999999,"N_COORD97":2548246.25,"ADDRESS":"中興路８２３號","OBJECTID":570037},"geometry":{"x":179167.61000000127,"y":2548246.25}},{"attributes":{"ID":570065,"DIS_CODE":0,"TOWNNAME":"新化區","LI":"東榮里","LIN":"28鄰","STREET":"護安街","SECT":" ","MAREA":" ","LANE":" ","ALLEY":" ","HOUSE_NO":"２９號","E_COORD97":179241.57999999999,"N_COORD97":2548248.2599999998,"ADDRESS":"護安街２９號","OBJECTID":570038},"geometry":{"x":179241.58000000007,"y":2548248.2600000016}},{"attributes":{"ID":570066,"DIS_CODE":0,"TOWNNAME":"新化區","LI":"東榮里","LIN":"28鄰","STREET":"中興路","SECT":" ","MAREA":" ","LANE":" ","ALLEY":" ","HOUSE_NO":"７９５號","E_COORD97":179825.41,"N_COORD97":2546814.25,"ADDRESS":"中興路７９５號","OBJECTID":570039},"geometry":{"x":179825.41000000015,"y":2546814.2500000019}},{"attributes":{"ID":570067,"DIS_CODE":0,"TOWNNAME":"新化區","LI":"東榮里","LIN":"28鄰","STREET":"中興路","SECT":" ","MAREA":" ","LANE":" ","ALLEY":" ","HOUSE_NO":"７９７號","E_COORD97":179217.51000000001,"N_COORD97":2548260.25,"ADDRESS":"中興路７９７號","OBJECTID":570040},"geometry":{"x":179217.50999999978,"y":2548260.25}},{"attributes":{"ID":570068,"DIS_CODE":0,"TOWNNAME":"永康區","LI":"\u25A0洲里","LIN":"1鄰","STREET":"仁愛街","SECT":" ","MAREA":" ","LANE":" ","ALLEY":" ","HOUSE_NO":"１１號","E_COORD97":171939.60999999999,"N_COORD97":2549228.71,"ADDRESS":"仁愛街１１號","OBJECTID":570041},"geometry":{"x":171939.61000000127,"y":2549228.7100000028}},{"attributes":{"ID":570069,"DIS_CODE":0,"TOWNNAME":"新化區","LI":"東榮里","LIN":"28鄰","STREET":"護安街","SECT":" ","MAREA":" ","LANE":" ","ALLEY":" ","HOUSE_NO":"３３號","E_COORD97":179239.07999999999,"N_COORD97":2548258.2599999998,"ADDRESS":"護安街３３號","OBJECTID":570042},"geometry":{"x":179239.08000000101,"y":2548258.2600000016}},{"attributes":{"ID":570070,"DIS_CODE":0,"TOWNNAME":"新化區","LI":"東榮里","LIN":"28鄰","STREET":"中興路","SECT":" ","MAREA":" ","LANE":" ","ALLEY":" ","HOUSE_NO":"８０１號","E_COORD97":179209.10999999999,"N_COORD97":2548258.25,"ADDRESS":"中興路８０１號","OBJECTID":570043},"geometry":{"x":179209.11000000034,"y":2548258.2500000019}},{"attributes":{"ID":570071,"DIS_CODE":0,"TOWNNAME":"新化區","LI":"東榮里","LIN":"28鄰","STREET":"護安街","SECT":" ","MAREA":" ","LANE":" ","ALLEY":" ","HOUSE_NO":"２３號","E_COORD97":179244.28,"N_COORD97":2548237.2599999998,"ADDRESS":"護安街２３號","OBJECTID":570044},"geometry":{"x":179244.28000000119,"y":2548237.2600000016}},{"attributes":{"ID":570072,"DIS_CODE":0,"TOWNNAME":"安平區","LI":"育平里","LIN":"28鄰","STREET":"健康三街","SECT":" ","MAREA":" ","LANE":" ","ALLEY":" ","HOUSE_NO":"１７５號","E_COORD97":164738.548006,"N_COORD97":2543232.17876,"ADDRESS":"健康三街１７５號","OBJECTID":570045},"geometry":{"x":164738.548006,"y":2543232.1787620001}},{"attributes":{"ID":570073,"DIS_CODE":0,"TOWNNAME":"永康區","LI":"大灣里","LIN":"28鄰","STREET":"文賢街","SECT":" ","MAREA":" ","LANE":" ","ALLEY":" ","HOUSE_NO":"９９號","E_COORD97":175319.92000000001,"N_COORD97":2545192.8700000001,"ADDRESS":"文賢街９９號","OBJECTID":570046},"geometry":{"x":175319.91999999899,"y":2545192.8700000029}},{"attributes":{"ID":570074,"DIS_CODE":0,"TOWNNAME":"永康區","LI":"\u25A0行里","LIN":"28鄰","STREET":"中正三街","SECT":" ","MAREA":" ","LANE":" ","ALLEY":" ","HOUSE_NO":"５００號","E_COORD97":172994.42999999999,"N_COORD97":2548593.1899999999,"ADDRESS":"中正三街５００號","OBJECTID":570047},"geometry":{"x":172994.43000000063,"y":2548593.1900000013}},{"attributes":{"ID":570075,"DIS_CODE":0,"TOWNNAME":"永康區","LI":"永康里","LIN":"28鄰","STREET":"永平街","SECT":" ","MAREA":" ","LANE":" ","ALLEY":" ","HOUSE_NO":"４２５號","E_COORD97":174086.98999999999,"N_COORD97":2546908.23,"ADDRESS":"永平街４２５號","OBJECTID":570048},"geometry":{"x":174086.99000000022,"y":2546908.2299999986}},{"attributes":{"ID":570076,"DIS_CODE":0,"TOWNNAME":"歸仁區","LI":"歸仁里","LIN":"28鄰","STREET":"忠孝北路","SECT":" ","MAREA":" ","LANE":" ","ALLEY":" ","HOUSE_NO":"２號","E_COORD97":178522.89000000001,"N_COORD97":2540668.5800000001,"ADDRESS":"忠孝北路２號","OBJECTID":570049},"geometry":{"x":178522.8900000006,"y":2540668.5800000019}},{"attributes":{"ID":570077,"DIS_CODE":0,"TOWNNAME":"歸仁區","LI":"歸仁里","LIN":"28鄰","STREET":"忠孝北路","SECT":" ","MAREA":" ","LANE":" ","ALLEY":" ","HOUSE_NO":"６號","E_COORD97":178515.89999999999,"N_COORD97":2540678.1099999999,"ADDRESS":"忠孝北路６號","OBJECTID":570050},"geometry":{"x":178515.90000000037,"y":2540678.1100000013}},{"attributes":{"ID":570078,"DIS_CODE":0,"TOWNNAME":"中西區","LI":"大涼里","LIN":"28鄰","STREET":"永華一街","SECT":" ","MAREA":" ","LANE":" ","ALLEY":" ","HOUSE_NO":"１３１號","E_COORD97":166877.04000000001,"N_COORD97":2543531.3799999999,"ADDRESS":"永華一街１３１號","OBJECTID":570051},"geometry":{"x":166877.04000000004,"y":2543531.379999999}},{"attributes":{"ID":570079,"DIS_CODE":0,"TOWNNAME":"中西區","LI":"大涼里","LIN":"28鄰","STREET":"永華一街","SECT":" ","MAREA":" ","LANE":" ","ALLEY":" ","HOUSE_NO":"１３３號","E_COORD97":166880.10000000001,"N_COORD97":2543536.1099999999,"ADDRESS":"永華一街１３３號","OBJECTID":570052},"geometry":{"x":166880.10000000056,"y":2543536.1100000013}},{"attributes":{"ID":570080,"DIS_CODE":0,"TOWNNAME":"中西區","LI":"大涼里","LIN":"28鄰","STREET":"永華一街","SECT":" ","MAREA":" ","LANE":" ","ALLEY":" ","HOUSE_NO":"１３５號","E_COORD97":166881.22,"N_COORD97":2543539.73,"ADDRESS":"永華一街１３５號","OBJECTID":570053},"geometry":{"x":166881.22000000067,"y":2543539.7300000023}},{"attributes":{"ID":570081,"DIS_CODE":0,"TOWNNAME":"中西區","LI":"大涼里","LIN":"28鄰","STREET":"永華一街","SECT":" ","MAREA":" ","LANE":" ","ALLEY":" ","HOUSE_NO":"１６５號","E_COORD97":166895.70999999999,"N_COORD97":2543608.5,"ADDRESS":"永華一街１６５號","OBJECTID":570054},"geometry":{"x":166895.70999999996,"y":2543608.5000000019}},{"attributes":{"ID":570082,"DIS_CODE":0,"TOWNNAME":"中西區","LI":"大涼里","LIN":"28鄰","STREET":"永華一街","SECT":" ","MAREA":" ","LANE":" ","ALLEY":" ","HOUSE_NO":"３５號","E_COORD97":166847.14999999999,"N_COORD97":2543394.0299999998,"ADDRESS":"永華一街３５號","OBJECTID":570055},"geometry":{"x":166847.1500000013,"y":2543394.0300000012}},{"attributes":{"ID":570083,"DIS_CODE":0,"TOWNNAME":"中西區","LI":"大涼里","LIN":"28鄰","STREET":"永華一街","SECT":" ","MAREA":" ","LANE":" ","ALLEY":" ","HOUSE_NO":"４２號","E_COORD97":166870.42000000001,"N_COORD97":2543348.6400000001,"ADDRESS":"永華一街４２號","OBJECTID":570056},"geometry":{"x":166870.41999999993,"y":2543348.6400000006}},{"attributes":{"ID":570084,"DIS_CODE":0,"TOWNNAME":"中西區","LI":"大涼里","LIN":"28鄰","STREET":"永華一街","SECT":" ","MAREA":" ","LANE":" ","ALLEY":" ","HOUSE_NO":"５１號","E_COORD97":166849.92999999999,"N_COORD97":2543402.73,"ADDRESS":"永華一街５１號","OBJECTID":570057},"geometry":{"x":166849.9299999997,"y":2543402.7300000042}},{"attributes":{"ID":570085,"DIS_CODE":0,"TOWNNAME":"中西區","LI":"大涼里","LIN":"28鄰","STREET":"永華一街","SECT":" ","MAREA":" ","LANE":" ","ALLEY":" ","HOUSE_NO":"５３號","E_COORD97":166849.92999999999,"N_COORD97":2543407.0699999998,"ADDRESS":"永華一街５３號","OBJECTID":570058},"geometry":{"x":166849.9299999997,"y":2543407.070000004}},{"attributes":{"ID":570086,"DIS_CODE":0,"TOWNNAME":"中西區","LI":"大涼里","LIN":"28鄰","STREET":"永華一街","SECT":" ","MAREA":" ","LANE":" ","ALLEY":" ","HOUSE_NO":"５５號","E_COORD97":166850.67999999999,"N_COORD97":2543412.3500000001,"ADDRESS":"永華一街５５號","OBJECTID":570059},"geometry":{"x":166850.68000000063,"y":2543412.3500000015}},{"attributes":{"ID":570087,"DIS_CODE":0,"TOWNNAME":"中西區","LI":"大涼里","LIN":"28鄰","STREET":"永華一街","SECT":" ","MAREA":" ","LANE":" ","ALLEY":" ","HOUSE_NO":"５７號","E_COORD97":166850.67999999999,"N_COORD97":2543419.7200000002,"ADDRESS":"永華一街５７號","OBJECTID":570060},"geometry":{"x":166850.68000000063,"y":2543419.7199999988}},{"attributes":{"ID":570088,"DIS_CODE":0,"TOWNNAME":"中西區","LI":"大涼里","LIN":"28鄰","STREET":"永華一街","SECT":" ","MAREA":" ","LANE":" ","ALLEY":" ","HOUSE_NO":"５號","E_COORD97":166843.32999999999,"N_COORD97":2543345.0600000001,"ADDRESS":"永華一街５號","OBJECTID":570061},"geometry":{"x":166843.33000000101,"y":2543345.0600000005}},{"attributes":{"ID":570089,"DIS_CODE":0,"TOWNNAME":"中西區","LI":"大涼里","LIN":"28鄰","STREET":"永華一街","SECT":" ","MAREA":" ","LANE":" ","ALLEY":" ","HOUSE_NO":"７１號","E_COORD97":166859.19,"N_COORD97":2543442.5600000001,"ADDRESS":"永華一街７１號","OBJECTID":570062},"geometry":{"x":166859.19000000041,"y":2543442.5600000024}},{"attributes":{"ID":570090,"DIS_CODE":0,"TOWNNAME":"中西區","LI":"大涼里","LIN":"28鄰","STREET":"永華一街","SECT":" ","MAREA":" ","LANE":" ","ALLEY":" ","HOUSE_NO":"７３號","E_COORD97":166857.67999999999,"N_COORD97":2543448.6000000001,"ADDRESS":"永華一街７３號","OBJECTID":570063},"geometry":{"x":166857.68000000063,"y":2543448.5999999996}},{"attributes":{"ID":570091,"DIS_CODE":0,"TOWNNAME":"中西區","LI":"大涼里","LIN":"28鄰","STREET":"永華一街","SECT":" ","MAREA":" ","LANE":" ","ALLEY":" ","HOUSE_NO":"７５號","E_COORD97":166859.76000000001,"N_COORD97":2543459.3599999999,"ADDRESS":"永華一街７５號","OBJECTID":570064},"geometry":{"x":166859.75999999978,"y":2543459.3600000013}},{"attributes":{"ID":570092,"DIS_CODE":0,"TOWNNAME":"中西區","LI":"大涼里","LIN":"28鄰","STREET":"永華一街","SECT":" ","MAREA":" ","LANE":" ","ALLEY":" ","HOUSE_NO":"７號","E_COORD97":166843.81,"N_COORD97":2543350.8999999999,"ADDRESS":"永華一街７號","OBJECTID":570065},"geometry":{"x":166843.80999999959,"y":2543350.9000000041}},{"attributes":{"ID":570093,"DIS_CODE":0,"TOWNNAME":"中西區","LI":"大涼里","LIN":"28鄰","STREET":"永華一街","SECT":" ","MAREA":" ","LANE":" ","ALLEY":" ","HOUSE_NO":"８３號","E_COORD97":166875.29000000001,"N_COORD97":2543471.3900000001,"ADDRESS":"永華一街８３號","OBJECTID":570066},"geometry":{"x":166875.29000000004,"y":2543471.3900000006}},{"attributes":{"ID":570094,"DIS_CODE":0,"TOWNNAME":"永康區","LI":"甲頂里","LIN":"28鄰","STREET":"中華路","SECT":" ","MAREA":" ","LANE":" ","ALLEY":" ","HOUSE_NO":"１０２１號","E_COORD97":169423.92999999999,"N_COORD97":2547026.25,"ADDRESS":"中華路１０２１號","OBJECTID":570067},"geometry":{"x":169423.93000000156,"y":2547026.2499999981}},{"attributes":{"ID":570095,"DIS_CODE":0,"TOWNNAME":"永康區","LI":"永康里","LIN":"28鄰","STREET":"永康街","SECT":" ","MAREA":" ","LANE":" ","ALLEY":" ","HOUSE_NO":"２８６號","E_COORD97":174178.39000000001,"N_COORD97":2547018.96,"ADDRESS":"永康街２８６號","OBJECTID":570068},"geometry":{"x":174178.38999999966,"y":2547018.959999999}},{"attributes":{"ID":570096,"DIS_CODE":0,"TOWNNAME":"新化區","LI":"東榮里","LIN":"28鄰","STREET":"中興路","SECT":" ","MAREA":" ","LANE":" ","ALLEY":" ","HOUSE_NO":"８１９號","E_COORD97":179170.91,"N_COORD97":2548247.25,"ADDRESS":"中興路８１９號","OBJECTID":570069},"geometry":{"x":179170.91000000108,"y":2548247.2500000019}},{"attributes":{"ID":570097,"DIS_CODE":0,"TOWNNAME":"新化區","LI":"東榮里","LIN":"28鄰","STREET":"中興路","SECT":" ","MAREA":" ","LANE":" ","ALLEY":" ","HOUSE_NO":"８１１號","E_COORD97":179190.01000000001,"N_COORD97":2548252.25,"ADDRESS":"中興路８１１號","OBJECTID":570070},"geometry":{"x":179190.01000000071,"y":2548252.25}},{"attributes":{"ID":570098,"DIS_CODE":0,"TOWNNAME":"新化區","LI":"東榮里","LIN":"28鄰","STREET":"護安街","SECT":" ","MAREA":" ","LANE":" ","ALLEY":" ","HOUSE_NO":"２５號","E_COORD97":179243.67999999999,"N_COORD97":2548240.2599999998,"ADDRESS":"護安街２５號","OBJECTID":570071},"geometry":{"x":179243.6799999997,"y":2548240.2600000016}},{"attributes":{"ID":570099,"DIS_CODE":0,"TOWNNAME":"安南區","LI":"鳳凰里","LIN":"28鄰","STREET":"安中路","SECT":"一段","MAREA":" ","LANE":" ","ALLEY":" ","HOUSE_NO":"５５２號","E_COORD97":168010.35999999999,"N_COORD97":2549003.1200000001,"ADDRESS":"安中路一段５５２號","OBJECTID":570072},"geometry":{"x":168010.36000000034,"y":2549003.1200000029}},{"attributes":{"ID":570100,"DIS_CODE":0,"TOWNNAME":"新化區","LI":"東榮里","LIN":"28鄰","STREET":"中興路","SECT":" ","MAREA":" ","LANE":" ","ALLEY":" ","HOUSE_NO":"８１３號","E_COORD97":179184.01000000001,"N_COORD97":2548251.25,"ADDRESS":"中興路８１３號","OBJECTID":570073},"geometry":{"x":179184.00999999978,"y":2548251.2500000019}},{"attributes":{"ID":570101,"DIS_CODE":0,"TOWNNAME":"新化區","LI":"東榮里","LIN":"28鄰","STREET":"中興路","SECT":" ","MAREA":" ","LANE":" ","ALLEY":" ","HOUSE_NO":"８０７號","E_COORD97":179196.81,"N_COORD97":2548255.25,"ADDRESS":"中興路８０７號","OBJECTID":570074},"geometry":{"x":179196.80999999959,"y":2548255.2500000019}},{"attributes":{"ID":570102,"DIS_CODE":0,"TOWNNAME":"新化區","LI":"東榮里","LIN":"28鄰","STREET":"中興路","SECT":" ","MAREA":" ","LANE":" ","ALLEY":" ","HOUSE_NO":"７９９號","E_COORD97":179212.81,"N_COORD97":2548259.25,"ADDRESS":"中興路７９９號","OBJECTID":570075},"geometry":{"x":179212.81000000052,"y":2548259.25}},{"attributes":{"ID":570103,"DIS_CODE":0,"TOWNNAME":"新化區","LI":"東榮里","LIN":"28鄰","STREET":"護安街","SECT":" ","MAREA":" ","LANE":" ","ALLEY":" ","HOUSE_NO":"２１號","E_COORD97":179245.17999999999,"N_COORD97":2548233.2599999998,"ADDRESS":"護安街２１號","OBJECTID":570076},"geometry":{"x":179245.1799999997,"y":2548233.2600000035}},{"attributes":{"ID":570104,"DIS_CODE":0,"TOWNNAME":"新化區","LI":"東榮里","LIN":"28鄰","STREET":"護安街","SECT":" ","MAREA":" ","LANE":" ","ALLEY":" ","HOUSE_NO":"２７號","E_COORD97":179242.57999999999,"N_COORD97":2548244.2599999998,"ADDRESS":"護安街２７號","OBJECTID":570077},"geometry":{"x":179242.58000000101,"y":2548244.2600000016}},{"attributes":{"ID":570105,"DIS_CODE":0,"TOWNNAME":"新化區","LI":"東榮里","LIN":"28鄰","STREET":"中興路","SECT":" ","MAREA":" ","LANE":" ","ALLEY":" ","HOUSE_NO":"８０３號","E_COORD97":179204.81,"N_COORD97":2548257.25,"ADDRESS":"中興路８０３號","OBJECTID":570078},"geometry":{"x":179204.81000000052,"y":2548257.2500000037}},{"attributes":{"ID":570106,"DIS_CODE":0,"TOWNNAME":"新化區","LI":"東榮里","LIN":"28鄰","STREET":"中興路","SECT":" ","MAREA":" ","LANE":" ","ALLEY":" ","HOUSE_NO":"８１５號","E_COORD97":179179.91,"N_COORD97":2548250.25,"ADDRESS":"中興路８１５號","OBJECTID":570079},"geometry":{"x":179179.91000000015,"y":2548250.2500000037}},{"attributes":{"ID":570107,"DIS_CODE":0,"TOWNNAME":"新化區","LI":"東榮里","LIN":"28鄰","STREET":"中興路","SECT":" ","MAREA":" ","LANE":" ","ALLEY":" ","HOUSE_NO":"８１７號","E_COORD97":179175.31,"N_COORD97":2548248.25,"ADDRESS":"中興路８１７號","OBJECTID":570080},"geometry":{"x":179175.31000000145,"y":2548248.2500000019}},{"attributes":{"ID":570108,"DIS_CODE":0,"TOWNNAME":"新化區","LI":"東榮里","LIN":"28鄰","STREET":"護安街","SECT":" ","MAREA":" ","LANE":" ","ALLEY":" ","HOUSE_NO":"３１號","E_COORD97":179240.88,"N_COORD97":2548252.2599999998,"ADDRESS":"護安街３１號","OBJECTID":570081},"geometry":{"x":179240.87999999989,"y":2548252.2599999998}},{"attributes":{"ID":570109,"DIS_CODE":0,"TOWNNAME":"東區","LI":"後甲里","LIN":"28鄰","STREET":"裕永一街","SECT":" ","MAREA":" ","LANE":" ","ALLEY":" ","HOUSE_NO":"１９１號","E_COORD97":172372.89999999999,"N_COORD97":2543433.27,"ADDRESS":"裕永一街１９１號","OBJECTID":570082},"geometry":{"x":172372.9000000013,"y":2543433.2700000014}},{"attributes":{"ID":570110,"DIS_CODE":0,"TOWNNAME":"東區","LI":"後甲里","LIN":"28鄰","STREET":"裕永一街","SECT":" ","MAREA":" ","LANE":" ","ALLEY":" ","HOUSE_NO":"１９３號","E_COORD97":172373.88,"N_COORD97":2543427.6299999999,"ADDRESS":"裕永一街１９３號","OBJECTID":570083},"geometry":{"x":172373.87999999896,"y":2543427.629999999}},{"attributes":{"ID":570111,"DIS_CODE":0,"TOWNNAME":"東區","LI":"後甲里","LIN":"28鄰","STREET":"裕永一街","SECT":" ","MAREA":" ","LANE":" ","ALLEY":" ","HOUSE_NO":"１９５號","E_COORD97":172375.10999999999,"N_COORD97":2543422.25,"ADDRESS":"裕永一街１９５號","OBJECTID":570084},"geometry":{"x":172375.11000000127,"y":2543422.2499999981}},{"attributes":{"ID":570112,"DIS_CODE":0,"TOWNNAME":"東區","LI":"後甲里","LIN":"28鄰","STREET":"裕永一街","SECT":" ","MAREA":" ","LANE":" ","ALLEY":" ","HOUSE_NO":"１７１號","E_COORD97":172362.85000000001,"N_COORD97":2543416.1299999999,"ADDRESS":"裕永一街１７１號","OBJECTID":570085},"geometry":{"x":172362.85000000056,"y":2543416.1300000008}},{"attributes":{"ID":570113,"DIS_CODE":0,"TOWNNAME":"東區","LI":"後甲里","LIN":"28鄰","STREET":"裕永一街","SECT":" ","MAREA":" ","LANE":" ","ALLEY":" ","HOUSE_NO":"１７３號","E_COORD97":172362.10999999999,"N_COORD97":2543421.5099999998,"ADDRESS":"裕永一街１７３號","OBJECTID":570086},"geometry":{"x":172362.11000000034,"y":2543421.5100000016}},{"attributes":{"ID":570114,"DIS_CODE":0,"TOWNNAME":"東區","LI":"後甲里","LIN":"28鄰","STREET":"裕永一街","SECT":" ","MAREA":" ","LANE":" ","ALLEY":" ","HOUSE_NO":"１７５號","E_COORD97":172361.38,"N_COORD97":2543426.6499999999,"ADDRESS":"裕永一街１７５號","OBJECTID":570087},"geometry":{"x":172361.37999999989,"y":2543426.6499999985}},{"attributes":{"ID":570115,"DIS_CODE":0,"TOWNNAME":"東區","LI":"後甲里","LIN":"28鄰","STREET":"裕永一街","SECT":" ","MAREA":" ","LANE":" ","ALLEY":" ","HOUSE_NO":"１７７號","E_COORD97":172359.17000000001,"N_COORD97":2543432.7799999998,"ADDRESS":"裕永一街１７７號","OBJECTID":570088},"geometry":{"x":172359.17000000086,"y":2543432.7800000012}},{"attributes":{"ID":570116,"DIS_CODE":0,"TOWNNAME":"東區","LI":"後甲里","LIN":"28鄰","STREET":"裕永一街","SECT":" ","MAREA":" ","LANE":" ","ALLEY":" ","HOUSE_NO":"１７９號","E_COORD97":172357.95000000001,"N_COORD97":2543437.9199999999,"ADDRESS":"裕永一街１７９號","OBJECTID":570089},"geometry":{"x":172357.95000000019,"y":2543437.9199999981}},{"attributes":{"ID":570117,"DIS_CODE":0,"TOWNNAME":"東區","LI":"後甲里","LIN":"28鄰","STREET":"裕永一街","SECT":" ","MAREA":" ","LANE":" ","ALLEY":" ","HOUSE_NO":"１８１號","E_COORD97":172357.20999999999,"N_COORD97":2543443.2999999998,"ADDRESS":"裕永一街１８１號","OBJECTID":570090},"geometry":{"x":172357.21000000089,"y":2543443.3000000045}},{"attributes":{"ID":570118,"DIS_CODE":0,"TOWNNAME":"東區","LI":"後甲里","LIN":"28鄰","STREET":"裕永一街","SECT":" ","MAREA":" ","LANE":" ","ALLEY":" ","HOUSE_NO":"１８３號","E_COORD97":172356.23000000001,"N_COORD97":2543449.1800000002,"ADDRESS":"裕永一街１８３號","OBJECTID":570091},"geometry":{"x":172356.23000000045,"y":2543449.1799999997}},{"attributes":{"ID":570119,"DIS_CODE":0,"TOWNNAME":"東區","LI":"後甲里","LIN":"28鄰","STREET":"裕永一街","SECT":" ","MAREA":" ","LANE":" ","ALLEY":" ","HOUSE_NO":"１８５號","E_COORD97":172369.70999999999,"N_COORD97":2543450.6499999999,"ADDRESS":"裕永一街１８５號","OBJECTID":570092},"geometry":{"x":172369.70999999996,"y":2543450.6500000041}},{"attributes":{"ID":570120,"DIS_CODE":0,"TOWNNAME":"東區","LI":"後甲里","LIN":"28鄰","STREET":"裕永一街","SECT":" ","MAREA":" ","LANE":" ","ALLEY":" ","HOUSE_NO":"１８７號","E_COORD97":172370.69,"N_COORD97":2543444.04,"ADDRESS":"裕永一街１８７號","OBJECTID":570093},"geometry":{"x":172370.69000000227,"y":2543444.040000001}},{"attributes":{"ID":570121,"DIS_CODE":0,"TOWNNAME":"東區","LI":"後甲里","LIN":"28鄰","STREET":"裕永一街","SECT":" ","MAREA":" ","LANE":" ","ALLEY":" ","HOUSE_NO":"１８９號","E_COORD97":172371.67999999999,"N_COORD97":2543438.6499999999,"ADDRESS":"裕永一街１８９號","OBJECTID":570094},"geometry":{"x":172371.67999999877,"y":2543438.6500000022}},{"attributes":{"ID":570122,"DIS_CODE":0,"TOWNNAME":"東區","LI":"後甲里","LIN":"28鄰","STREET":"裕永一街","SECT":" ","MAREA":" ","LANE":" ","ALLEY":" ","HOUSE_NO":"１９７號","E_COORD97":172376.82000000001,"N_COORD97":2543417.8399999999,"ADDRESS":"裕永一街１９７號","OBJECTID":570095},"geometry":{"x":172376.82000000123,"y":2543417.8399999999}},{"attributes":{"ID":570123,"DIS_CODE":0,"TOWNNAME":"東區","LI":"後甲里","LIN":"28鄰","STREET":"裕永一街","SECT":" ","MAREA":" ","LANE":" ","ALLEY":" ","HOUSE_NO":"５１號","E_COORD97":172266.97,"N_COORD97":2543394.5299999998,"ADDRESS":"裕永一街５１號","OBJECTID":570096},"geometry":{"x":172266.97000000067,"y":2543394.5299999993}},{"attributes":{"ID":570124,"DIS_CODE":0,"TOWNNAME":"東區","LI":"後甲里","LIN":"28鄰","STREET":"裕永一街","SECT":" ","MAREA":" ","LANE":" ","ALLEY":" ","HOUSE_NO":"５３號","E_COORD97":172273.28,"N_COORD97":2543395.79,"ADDRESS":"裕永一街５３號","OBJECTID":570097},"geometry":{"x":172273.27999999933,"y":2543395.790000001}},{"attributes":{"ID":570125,"DIS_CODE":0,"TOWNNAME":"麻豆區","LI":"中興里","LIN":"15鄰","STREET":"三民路","SECT":" ","MAREA":" ","LANE":" ","ALLEY":" ","HOUSE_NO":"５６號","E_COORD97":172691.98000000001,"N_COORD97":2564488.5,"ADDRESS":"三民路５６號","OBJECTID":570098},"geometry":{"x":172691.98000000045,"y":2564488.5000000037}},{"attributes":{"ID":570126,"DIS_CODE":0,"TOWNNAME":"中西區","LI":"大涼里","LIN":"1鄰","STREET":"環河街","SECT":" ","MAREA":" ","LANE":" ","ALLEY":" ","HOUSE_NO":"７２號","E_COORD97":167211.57999999999,"N_COORD97":2543832.8399999999,"ADDRESS":"環河街７２號","OBJECTID":570099},"geometry":{"x":167211.58000000101,"y":2543832.8400000017}},{"attributes":{"ID":570127,"DIS_CODE":0,"TOWNNAME":"東區","LI":"後甲里","LIN":"28鄰","STREET":"裕永一街","SECT":" ","MAREA":" ","LANE":" ","ALLEY":" ","HOUSE_NO":"５５號","E_COORD97":172270.76000000001,"N_COORD97":2543408.3999999999,"ADDRESS":"裕永一街５５號","OBJECTID":570100},"geometry":{"x":172270.75999999978,"y":2543408.4000000041}},{"attributes":{"ID":570128,"DIS_CODE":0,"TOWNNAME":"東區","LI":"後甲里","LIN":"28鄰","STREET":"裕永一街","SECT":" ","MAREA":" ","LANE":" ","ALLEY":" ","HOUSE_NO":"５７號","E_COORD97":172269.48999999999,"N_COORD97":2543413.4500000002,"ADDRESS":"裕永一街５７號","OBJECTID":570101},"geometry":{"x":172269.49000000022,"y":2543413.450000003}},{"attributes":{"ID":570129,"DIS_CODE":0,"TOWNNAME":"東區","LI":"後甲里","LIN":"28鄰","STREET":"裕永一街","SECT":" ","MAREA":" ","LANE":" ","ALLEY":" ","HOUSE_NO":"５９號","E_COORD97":172268.54999999999,"N_COORD97":2543417.8599999999,"ADDRESS":"裕永一街５９號","OBJECTID":570102},"geometry":{"x":172268.54999999981,"y":2543417.8600000031}},{"attributes":{"ID":570130,"DIS_CODE":0,"TOWNNAME":"東區","LI":"後甲里","LIN":"28鄰","STREET":"裕永一街","SECT":" ","MAREA":" ","LANE":" ","ALLEY":" ","HOUSE_NO":"６１號","E_COORD97":172268.85999999999,"N_COORD97":2543422.2799999998,"ADDRESS":"裕永一街６１號","OBJECTID":570103},"geometry":{"x":172268.86000000034,"y":2543422.2800000012}},{"attributes":{"ID":570131,"DIS_CODE":0,"TOWNNAME":"東區","LI":"後甲里","LIN":"28鄰","STREET":"裕永一街","SECT":" ","MAREA":" ","LANE":" ","ALLEY":" ","HOUSE_NO":"６３號","E_COORD97":172266.97,"N_COORD97":2543426.0600000001,"ADDRESS":"裕永一街６３號","OBJECTID":570104},"geometry":{"x":172266.97000000067,"y":2543426.0600000005}},{"attributes":{"ID":570132,"DIS_CODE":0,"TOWNNAME":"東區","LI":"後甲里","LIN":"28鄰","STREET":"裕永一街","SECT":" ","MAREA":" ","LANE":" ","ALLEY":" ","HOUSE_NO":"６５號","E_COORD97":172266.01999999999,"N_COORD97":2543430.4700000002,"ADDRESS":"裕永一街６５號","OBJECTID":570105},"geometry":{"x":172266.02000000142,"y":2543430.4700000007}},{"attributes":{"ID":570133,"DIS_CODE":0,"TOWNNAME":"東區","LI":"後甲里","LIN":"28鄰","STREET":"裕永一街","SECT":" ","MAREA":" ","LANE":" ","ALLEY":" ","HOUSE_NO":"６７號","E_COORD97":172276.12,"N_COORD97":2543431.7400000002,"ADDRESS":"裕永一街６７號","OBJECTID":570106},"geometry":{"x":172276.12000000104,"y":2543431.7400000002}},{"attributes":{"ID":570134,"DIS_CODE":0,"TOWNNAME":"東區","LI":"後甲里","LIN":"28鄰","STREET":"裕永一街","SECT":" ","MAREA":" ","LANE":" ","ALLEY":" ","HOUSE_NO":"６９號","E_COORD97":172276.76000000001,"N_COORD97":2543427.9500000002,"ADDRESS":"裕永一街６９號","OBJECTID":570107},"geometry":{"x":172276.76000000071,"y":2543427.9500000011}},{"attributes":{"ID":570135,"DIS_CODE":0,"TOWNNAME":"東區","LI":"後甲里","LIN":"28鄰","STREET":"裕永一街","SECT":" ","MAREA":" ","LANE":" ","ALLEY":" ","HOUSE_NO":"７１號","E_COORD97":172278.01999999999,"N_COORD97":2543423.8500000001,"ADDRESS":"裕永一街７１號","OBJECTID":570108},"geometry":{"x":172278.02000000048,"y":2543423.8499999996}},{"attributes":{"ID":570136,"DIS_CODE":0,"TOWNNAME":"東區","LI":"後甲里","LIN":"28鄰","STREET":"裕永一街","SECT":" ","MAREA":" ","LANE":" ","ALLEY":" ","HOUSE_NO":"７３號","E_COORD97":172278.64999999999,"N_COORD97":2543419.75,"ADDRESS":"裕永一街７３號","OBJECTID":570109},"geometry":{"x":172278.65000000037,"y":2543419.7500000019}},{"attributes":{"ID":570137,"DIS_CODE":0,"TOWNNAME":"東區","LI":"後甲里","LIN":"28鄰","STREET":"裕永一街","SECT":" ","MAREA":" ","LANE":" ","ALLEY":" ","HOUSE_NO":"７５號","E_COORD97":172279.28,"N_COORD97":2543415.3399999999,"ADDRESS":"裕永一街７５號","OBJECTID":570110},"geometry":{"x":172279.28000000119,"y":2543415.3400000017}},{"attributes":{"ID":570138,"DIS_CODE":0,"TOWNNAME":"東區","LI":"後甲里","LIN":"28鄰","STREET":"裕永一街","SECT":" ","MAREA":" ","LANE":" ","ALLEY":" ","HOUSE_NO":"７７號","E_COORD97":172280.85999999999,"N_COORD97":2543410.6099999999,"ADDRESS":"裕永一街７７號","OBJECTID":570111},"geometry":{"x":172280.86000000034,"y":2543410.6100000013}},{"attributes":{"ID":570139,"DIS_CODE":0,"TOWNNAME":"東區","LI":"後甲里","LIN":"28鄰","STREET":"裕永一街","SECT":" ","MAREA":" ","LANE":" ","ALLEY":" ","HOUSE_NO":"７９號","E_COORD97":172284.01999999999,"N_COORD97":2543398.3100000001,"ADDRESS":"裕永一街７９號","OBJECTID":570112},"geometry":{"x":172284.01999999955,"y":2543398.3100000005}},{"attributes":{"ID":570140,"DIS_CODE":0,"TOWNNAME":"東區","LI":"後甲里","LIN":"28鄰","STREET":"裕永一街","SECT":" ","MAREA":" ","LANE":" ","ALLEY":" ","HOUSE_NO":"８１號","E_COORD97":172290.64999999999,"N_COORD97":2543399.5699999998,"ADDRESS":"裕永一街８１號","OBJECTID":570113},"geometry":{"x":172290.65000000037,"y":2543399.5700000003}},{"attributes":{"ID":570141,"DIS_CODE":0,"TOWNNAME":"東區","LI":"後甲里","LIN":"28鄰","STREET":"裕永一街","SECT":" ","MAREA":" ","LANE":" ","ALLEY":" ","HOUSE_NO":"８３號","E_COORD97":172296.01999999999,"N_COORD97":2543400.2000000002,"ADDRESS":"裕永一街８３號","OBJECTID":570114},"geometry":{"x":172296.01999999955,"y":2543400.1999999993}},{"attributes":{"ID":570142,"DIS_CODE":0,"TOWNNAME":"東區","LI":"後甲里","LIN":"28鄰","STREET":"裕永一街","SECT":" ","MAREA":" ","LANE":" ","ALLEY":" ","HOUSE_NO":"８５號","E_COORD97":172301.07000000001,"N_COORD97":2543401.1499999999,"ADDRESS":"裕永一街８５號","OBJECTID":570115},"geometry":{"x":172301.07000000123,"y":2543401.1500000022}},{"attributes":{"ID":570143,"DIS_CODE":0,"TOWNNAME":"東區","LI":"後甲里","LIN":"28鄰","STREET":"裕永一街","SECT":" ","MAREA":" ","LANE":" ","ALLEY":" ","HOUSE_NO":"８７號","E_COORD97":172297.91,"N_COORD97":2543416.9100000001,"ADDRESS":"裕永一街８７號","OBJECTID":570116},"geometry":{"x":172297.91000000201,"y":2543416.9100000001}},{"attributes":{"ID":570144,"DIS_CODE":0,"TOWNNAME":"東區","LI":"後甲里","LIN":"28鄰","STREET":"裕永一街","SECT":" ","MAREA":" ","LANE":" ","ALLEY":" ","HOUSE_NO":"８９號","E_COORD97":172296.95999999999,"N_COORD97":2543423.8500000001,"ADDRESS":"裕永一街８９號","OBJECTID":570117},"geometry":{"x":172296.95999999996,"y":2543423.8499999996}},{"attributes":{"ID":570145,"DIS_CODE":0,"TOWNNAME":"東區","LI":"後甲里","LIN":"28鄰","STREET":"裕永一街","SECT":" ","MAREA":" ","LANE":" ","ALLEY":" ","HOUSE_NO":"９１號","E_COORD97":172296.64999999999,"N_COORD97":2543427.9500000002,"ADDRESS":"裕永一街９１號","OBJECTID":570118},"geometry":{"x":172296.6500000013,"y":2543427.9500000011}},{"attributes":{"ID":570146,"DIS_CODE":0,"TOWNNAME":"東區","LI":"後甲里","LIN":"28鄰","STREET":"裕永一街","SECT":" ","MAREA":" ","LANE":" ","ALLEY":" ","HOUSE_NO":"９３號","E_COORD97":172295.70000000001,"N_COORD97":2543432.0499999998,"ADDRESS":"裕永一街９３號","OBJECTID":570119},"geometry":{"x":172295.70000000019,"y":2543432.0500000026}},{"attributes":{"ID":570147,"DIS_CODE":0,"TOWNNAME":"東區","LI":"後甲里","LIN":"28鄰","STREET":"裕永一街","SECT":" ","MAREA":" ","LANE":" ","ALLEY":" ","HOUSE_NO":"９５號","E_COORD97":172295.38,"N_COORD97":2543436.7799999998,"ADDRESS":"裕永一街９５號","OBJECTID":570120},"geometry":{"x":172295.37999999989,"y":2543436.7800000012}},{"attributes":{"ID":570148,"DIS_CODE":0,"TOWNNAME":"東區","LI":"後甲里","LIN":"28鄰","STREET":"裕永一街","SECT":" ","MAREA":" ","LANE":" ","ALLEY":" ","HOUSE_NO":"９７號","E_COORD97":172304.54000000001,"N_COORD97":2543438.3599999999,"ADDRESS":"裕永一街９７號","OBJECTID":570121},"geometry":{"x":172304.54000000004,"y":2543438.3600000013}},{"attributes":{"ID":570149,"DIS_CODE":0,"TOWNNAME":"東區","LI":"後甲里","LIN":"28鄰","STREET":"裕永一街","SECT":" ","MAREA":" ","LANE":" ","ALLEY":" ","HOUSE_NO":"９９號","E_COORD97":172305.79999999999,"N_COORD97":2543433.6299999999,"ADDRESS":"裕永一街９９號","OBJECTID":570122},"geometry":{"x":172305.80000000075,"y":2543433.6300000008}},{"attributes":{"ID":570150,"DIS_CODE":0,"TOWNNAME":"東區","LI":"後甲里","LIN":"28鄰","STREET":"裕永一街","SECT":" ","MAREA":" ","LANE":" ","ALLEY":" ","HOUSE_NO":"１０１號","E_COORD97":172306.12,"N_COORD97":2543429.8399999999,"ADDRESS":"裕永一街１０１號","OBJECTID":570123},"geometry":{"x":172306.12000000011,"y":2543429.8400000017}},{"attributes":{"ID":570151,"DIS_CODE":0,"TOWNNAME":"東區","LI":"後甲里","LIN":"28鄰","STREET":"裕永一街","SECT":" ","MAREA":" ","LANE":" ","ALLEY":" ","HOUSE_NO":"１０３號","E_COORD97":172307.38,"N_COORD97":2543425.7400000002,"ADDRESS":"裕永一街１０３號","OBJECTID":570124},"geometry":{"x":172307.37999999989,"y":2543425.7400000002}},{"attributes":{"ID":570152,"DIS_CODE":0,"TOWNNAME":"東區","LI":"後甲里","LIN":"28鄰","STREET":"裕永一街","SECT":" ","MAREA":" ","LANE":" ","ALLEY":" ","HOUSE_NO":"１０５號","E_COORD97":172308.01000000001,"N_COORD97":2543421.6400000001,"ADDRESS":"裕永一街１０５號","OBJECTID":570125},"geometry":{"x":172308.00999999978,"y":2543421.6400000025}},{"attributes":{"ID":570153,"DIS_CODE":0,"TOWNNAME":"東區","LI":"後甲里","LIN":"28鄰","STREET":"裕永一街","SECT":" ","MAREA":" ","LANE":" ","ALLEY":" ","HOUSE_NO":"１０７號","E_COORD97":172308.64999999999,"N_COORD97":2543416.2799999998,"ADDRESS":"裕永一街１０７號","OBJECTID":570126},"geometry":{"x":172308.6500000013,"y":2543416.2800000012}},{"attributes":{"ID":570154,"DIS_CODE":0,"TOWNNAME":"東區","LI":"後甲里","LIN":"28鄰","STREET":"裕永一街","SECT":" ","MAREA":" ","LANE":" ","ALLEY":" ","HOUSE_NO":"１０９號","E_COORD97":172312.12,"N_COORD97":2543403.6699999999,"ADDRESS":"裕永一街１０９號","OBJECTID":570127},"geometry":{"x":172312.12000000104,"y":2543403.6700000018}},{"attributes":{"ID":570155,"DIS_CODE":0,"TOWNNAME":"東區","LI":"後甲里","LIN":"28鄰","STREET":"裕永一街","SECT":" ","MAREA":" ","LANE":" ","ALLEY":" ","HOUSE_NO":"１１１號","E_COORD97":172317.79999999999,"N_COORD97":2543404.6200000001,"ADDRESS":"裕永一街１１１號","OBJECTID":570128},"geometry":{"x":172317.79999999981,"y":2543404.6200000029}},{"attributes":{"ID":570156,"DIS_CODE":0,"TOWNNAME":"東區","LI":"大智里","LIN":"28鄰","STREET":"德東街","SECT":" ","MAREA":" ","LANE":" ","ALLEY":" ","HOUSE_NO":"２８２號","E_COORD97":171512.03,"N_COORD97":2540244.5099999998,"ADDRESS":"德東街２８２號","OBJECTID":570129},"geometry":{"x":171512.03000000026,"y":2540244.5100000016}},{"attributes":{"ID":570157,"DIS_CODE":0,"TOWNNAME":"東區","LI":"大智里","LIN":"28鄰","STREET":"德東街","SECT":" ","MAREA":" ","LANE":" ","ALLEY":" ","HOUSE_NO":"２７７號","E_COORD97":171483.25,"N_COORD97":2540265.3599999999,"ADDRESS":"德東街２７７號","OBJECTID":570130},"geometry":{"x":171483.24999999907,"y":2540265.3600000013}},{"attributes":{"ID":570158,"DIS_CODE":0,"TOWNNAME":"東區","LI":"大智里","LIN":"28鄰","STREET":"德東街","SECT":" ","MAREA":" ","LANE":" ","ALLEY":" ","HOUSE_NO":"２６１號","E_COORD97":171450.69,"N_COORD97":2540264.3300000001,"ADDRESS":"德東街２６１號","OBJECTID":570131},"geometry":{"x":171450.69000000134,"y":2540264.3300000001}},{"attributes":{"ID":570159,"DIS_CODE":0,"TOWNNAME":"仁德區","LI":"後壁里","LIN":"28鄰","STREET":"德洋路","SECT":" ","MAREA":" ","LANE":" ","ALLEY":" ","HOUSE_NO":"６５號","E_COORD97":173027.42000000001,"N_COORD97":2539082.02,"ADDRESS":"德洋路６５號","OBJECTID":570132},"geometry":{"x":173027.41999999993,"y":2539082.0200000014}},{"attributes":{"ID":570160,"DIS_CODE":0,"TOWNNAME":"仁德區","LI":"上崙里","LIN":"28鄰","STREET":"中正路","SECT":"一段","MAREA":" ","LANE":" ","ALLEY":" ","HOUSE_NO":"６８０號","E_COORD97":172878.45999999999,"N_COORD97":2537590.77,"ADDRESS":"中正路一段６８０號","OBJECTID":570133},"geometry":{"x":172878.45999999996,"y":2537590.7700000014}},{"attributes":{"ID":570161,"DIS_CODE":0,"TOWNNAME":"仁德區","LI":"仁愛里","LIN":"28鄰","STREET":"大同路","SECT":"三段","MAREA":" ","LANE":" ","ALLEY":" ","HOUSE_NO":"８５８號","E_COORD97":169689.78,"N_COORD97":2538622.02,"ADDRESS":"大同路三段８５８號","OBJECTID":570134},"geometry":{"x":169689.77999999933,"y":2538622.0199999996}},{"attributes":{"ID":570162,"DIS_CODE":0,"TOWNNAME":"中西區","LI":"大涼里","LIN":"2鄰","STREET":"金華路","SECT":"三段","MAREA":" ","LANE":" ","ALLEY":" ","HOUSE_NO":"１５７號","E_COORD97":167245.19,"N_COORD97":2543665.6800000002,"ADDRESS":"金華路三段１５７號","OBJECTID":570135},"geometry":{"x":167245.19000000134,"y":2543665.6799999997}},{"attributes":{"ID":570163,"DIS_CODE":0,"TOWNNAME":"中西區","LI":"大涼里","LIN":"2鄰","STREET":"金華路","SECT":"三段","MAREA":" ","LANE":" ","ALLEY":" ","HOUSE_NO":"１５９號","E_COORD97":167246.26999999999,"N_COORD97":2543668.8599999999,"ADDRESS":"金華路三段１５９號","OBJECTID":570136},"geometry":{"x":167246.26999999955,"y":2543668.8600000013}},{"attributes":{"ID":570164,"DIS_CODE":0,"TOWNNAME":"新化區","LI":"東榮里","LIN":"28鄰","STREET":"中興路","SECT":" ","MAREA":" ","LANE":" ","ALLEY":" ","HOUSE_NO":"７９１號","E_COORD97":179233.51000000001,"N_COORD97":2548264.25,"ADDRESS":"中興路７９１號","OBJECTID":570137},"geometry":{"x":179233.51000000164,"y":2548264.2500000019}},{"attributes":{"ID":570165,"DIS_CODE":0,"TOWNNAME":"東區","LI":"莊敬里","LIN":"28鄰","STREET":"中華東路","SECT":"一段","MAREA":" ","LANE":" ","ALLEY":" ","HOUSE_NO":"６６號","E_COORD97":171487.25,"N_COORD97":2544076.27,"ADDRESS":"中華東路一段６６號","OBJECTID":570138},"geometry":{"x":171487.25000000093,"y":2544076.2700000033}},{"attributes":{"ID":570166,"DIS_CODE":0,"TOWNNAME":"東區","LI":"中西里","LIN":"28鄰","STREET":"東寧路","SECT":" ","MAREA":" ","LANE":" ","ALLEY":" ","HOUSE_NO":"１５８號","E_COORD97":170390.85999999999,"N_COORD97":2543529.5299999998,"ADDRESS":"東寧路１５８號","OBJECTID":570139},"geometry":{"x":170390.86000000034,"y":2543529.5300000012}},{"attributes":{"ID":570167,"DIS_CODE":0,"TOWNNAME":"東區","LI":"中西里","LIN":"28鄰","STREET":"東寧路","SECT":" ","MAREA":" ","LANE":" ","ALLEY":" ","HOUSE_NO":"１６０號","E_COORD97":170395.22,"N_COORD97":2543528.1200000001,"ADDRESS":"東寧路１６０號","OBJECTID":570140},"geometry":{"x":170395.22000000067,"y":2543528.120000001}},{"attributes":{"ID":570168,"DIS_CODE":0,"TOWNNAME":"東區","LI":"中西里","LIN":"28鄰","STREET":"東寧路","SECT":" ","MAREA":" ","LANE":" ","ALLEY":" ","HOUSE_NO":"１６２號","E_COORD97":170400.01000000001,"N_COORD97":2543526.8599999999,"ADDRESS":"東寧路１６２號","OBJECTID":570141},"geometry":{"x":170400.01000000071,"y":2543526.8600000013}},{"attributes":{"ID":570169,"DIS_CODE":0,"TOWNNAME":"東區","LI":"中西里","LIN":"28鄰","STREET":"東寧路","SECT":" ","MAREA":" ","LANE":" ","ALLEY":" ","HOUSE_NO":"１６４號","E_COORD97":170403.81,"N_COORD97":2543525.5899999999,"ADDRESS":"東寧路１６４號","OBJECTID":570142},"geometry":{"x":170403.80999999959,"y":2543525.5900000017}},{"attributes":{"ID":570170,"DIS_CODE":0,"TOWNNAME":"東區","LI":"中西里","LIN":"28鄰","STREET":"東寧路","SECT":" ","MAREA":" ","LANE":" ","ALLEY":" ","HOUSE_NO":"１６６號","E_COORD97":170408.73000000001,"N_COORD97":2543523.7599999998,"ADDRESS":"東寧路１６６號","OBJECTID":570143},"geometry":{"x":170408.73000000045,"y":2543523.7600000035}},{"attributes":{"ID":570171,"DIS_CODE":0,"TOWNNAME":"東區","LI":"中西里","LIN":"28鄰","STREET":"東寧路","SECT":" ","MAREA":" ","LANE":" ","ALLEY":" ","HOUSE_NO":"１６８號","E_COORD97":170412.81,"N_COORD97":2543521.52,"ADDRESS":"東寧路１６８號","OBJECTID":570144},"geometry":{"x":170412.81000000145,"y":2543521.5199999996}},{"attributes":{"ID":570172,"DIS_CODE":0,"TOWNNAME":"東區","LI":"東光里","LIN":"28鄰","STREET":"凱旋路","SECT":" ","MAREA":" ","LANE":" ","ALLEY":" ","HOUSE_NO":"３２４號","E_COORD97":170693.76000000001,"N_COORD97":2543794.1899999999,"ADDRESS":"凱旋路３２４號","OBJECTID":570145},"geometry":{"x":170693.76000000071,"y":2543794.1899999995}},{"attributes":{"ID":570173,"DIS_CODE":0,"TOWNNAME":"中西區","LI":"安海里","LIN":"1鄰","STREET":"民生路","SECT":"二段","MAREA":" ","LANE":" ","ALLEY":" ","HOUSE_NO":"１６３號","E_COORD97":167486.25,"N_COORD97":2544023.6400000001,"ADDRESS":"民生路二段１６３號","OBJECTID":570146},"geometry":{"x":167486.25000000093,"y":2544023.6400000006}},{"attributes":{"ID":570174,"DIS_CODE":0,"TOWNNAME":"中西區","LI":"安海里","LIN":"1鄰","STREET":"民生路","SECT":"二段","MAREA":" ","LANE":" ","ALLEY":" ","HOUSE_NO":"１６５號","E_COORD97":167479.48999999999,"N_COORD97":2544029.0800000001,"ADDRESS":"民生路二段１６５號","OBJECTID":570147},"geometry":{"x":167479.48999999929,"y":2544029.0800000001}},{"attributes":{"ID":570175,"DIS_CODE":0,"TOWNNAME":"中西區","LI":"安海里","LIN":"1鄰","STREET":"民生路","SECT":"二段","MAREA":" ","LANE":" ","ALLEY":" ","HOUSE_NO":"１６９號","E_COORD97":167466.14999999999,"N_COORD97":2544030.21,"ADDRESS":"民生路二段１６９號","OBJECTID":570148},"geometry":{"x":167466.15000000037,"y":2544030.2100000009}},{"attributes":{"ID":570176,"DIS_CODE":0,"TOWNNAME":"中西區","LI":"安海里","LIN":"21鄰","STREET":"民生路","SECT":"二段","MAREA":" ","LANE":" ","ALLEY":" ","HOUSE_NO":"４６１號","E_COORD97":166764.66,"N_COORD97":2544238.5099999998,"ADDRESS":"民生路二段４６１號","OBJECTID":570149},"geometry":{"x":166764.66000000201,"y":2544238.5100000016}},{"attributes":{"ID":570177,"DIS_CODE":0,"TOWNNAME":"中西區","LI":"協進里","LIN":"1鄰","STREET":"金華路","SECT":"四段","MAREA":" ","LANE":" ","ALLEY":" ","HOUSE_NO":"９號","E_COORD97":167365.25,"N_COORD97":2544130.3199999998,"ADDRESS":"金華路四段９號","OBJECTID":570150},"geometry":{"x":167365.25,"y":2544130.3200000003}},{"attributes":{"ID":570178,"DIS_CODE":0,"TOWNNAME":"中西區","LI":"協進里","LIN":"1鄰","STREET":"金華路","SECT":"四段","MAREA":" ","LANE":" ","ALLEY":" ","HOUSE_NO":"１１號","E_COORD97":167361.45999999999,"N_COORD97":2544137.6099999999,"ADDRESS":"金華路四段１１號","OBJECTID":570151},"geometry":{"x":167361.46000000089,"y":2544137.6099999994}},{"attributes":{"ID":570179,"DIS_CODE":0,"TOWNNAME":"中西區","LI":"協進里","LIN":"1鄰","STREET":"金華路","SECT":"四段","MAREA":" ","LANE":" ","ALLEY":" ","HOUSE_NO":"１１號底一層之１","E_COORD97":167361.45999999999,"N_COORD97":2544137.6099999999,"ADDRESS":"金華路四段１１號底一層之１","OBJECTID":570152},"geometry":{"x":167361.46000000089,"y":2544137.6099999994}},{"attributes":{"ID":570180,"DIS_CODE":0,"TOWNNAME":"中西區","LI":"民主里","LIN":"9鄰","STREET":"府前路","SECT":"二段","MAREA":" ","LANE":" ","ALLEY":" ","HOUSE_NO":"１８０號","E_COORD97":167304.88,"N_COORD97":2543573.4300000002,"ADDRESS":"府前路二段１８０號","OBJECTID":570153},"geometry":{"x":167304.87999999989,"y":2543573.4300000034}},{"attributes":{"ID":570181,"DIS_CODE":0,"TOWNNAME":"仁德區","LI":"上崙里","LIN":"28鄰","STREET":"上崙街","SECT":" ","MAREA":" ","LANE":" ","ALLEY":" ","HOUSE_NO":"４６３號","E_COORD97":172926.54999999999,"N_COORD97":2537605.75,"ADDRESS":"上崙街４６３號","OBJECTID":570154},"geometry":{"x":172926.54999999981,"y":2537605.7500000019}},{"attributes":{"ID":570182,"DIS_CODE":0,"TOWNNAME":"新市區","LI":"新市里","LIN":"28鄰","STREET":"復興路","SECT":" ","MAREA":" ","LANE":" ","ALLEY":" ","HOUSE_NO":"３８號","E_COORD97":177828.37,"N_COORD97":2553417.0299999998,"ADDRESS":"復興路３８號","OBJECTID":570155},"geometry":{"x":177828.37000000104,"y":2553417.0299999993}},{"attributes":{"ID":570183,"DIS_CODE":0,"TOWNNAME":"中西區","LI":"民主里","LIN":"9鄰","STREET":"府前路","SECT":"二段","MAREA":" ","LANE":" ","ALLEY":" ","HOUSE_NO":"１８２號","E_COORD97":167299.19,"N_COORD97":2543574.5600000001,"ADDRESS":"府前路二段１８２號","OBJECTID":570156},"geometry":{"x":167299.19000000134,"y":2543574.5600000024}},{"attributes":{"ID":570184,"DIS_CODE":0,"TOWNNAME":"永康區","LI":"埔園里","LIN":"28鄰","STREET":"中山路","SECT":" ","MAREA":" ","LANE":" ","ALLEY":" ","HOUSE_NO":"３５４號底一層","E_COORD97":173655.66,"N_COORD97":2548283.2400000002,"ADDRESS":"中山路３５４號底一層","OBJECTID":570157},"geometry":{"x":173655.66000000201,"y":2548283.2400000002}},{"attributes":{"ID":570185,"DIS_CODE":0,"TOWNNAME":"永康區","LI":"埔園里","LIN":"28鄰","STREET":"中山路","SECT":" ","MAREA":" ","LANE":" ","ALLEY":" ","HOUSE_NO":"３５４號","E_COORD97":173650.66,"N_COORD97":2548283.23,"ADDRESS":"中山路３５４號","OBJECTID":570158},"geometry":{"x":173650.66000000201,"y":2548283.2300000004}},{"attributes":{"ID":570186,"DIS_CODE":0,"TOWNNAME":"永康區","LI":"埔園里","LIN":"28鄰","STREET":"中山路","SECT":" ","MAREA":" ","LANE":" ","ALLEY":" ","HOUSE_NO":"３５６號","E_COORD97":173647.67000000001,"N_COORD97":2548292.98,"ADDRESS":"中山路３５６號","OBJECTID":570159},"geometry":{"x":173647.67000000086,"y":2548292.9800000004}},{"attributes":{"ID":570187,"DIS_CODE":0,"TOWNNAME":"永康區","LI":"東灣里","LIN":"28鄰","STREET":"民族路","SECT":" ","MAREA":" ","LANE":" ","ALLEY":" ","HOUSE_NO":"１４１號","E_COORD97":175324.82999999999,"N_COORD97":2544800.21,"ADDRESS":"民族路１４１號","OBJECTID":570160},"geometry":{"x":175324.83000000101,"y":2544800.2100000046}},{"attributes":{"ID":570188,"DIS_CODE":0,"TOWNNAME":"永康區","LI":"埔園里","LIN":"28鄰","STREET":"中山路","SECT":" ","MAREA":" ","LANE":" ","ALLEY":" ","HOUSE_NO":"３５８號","E_COORD97":173647.20000000001,"N_COORD97":2548296.23,"ADDRESS":"中山路３５８號","OBJECTID":570161},"geometry":{"x":173647.20000000112,"y":2548296.2300000023}},{"attributes":{"ID":570189,"DIS_CODE":0,"TOWNNAME":"永康區","LI":"埔園里","LIN":"28鄰","STREET":"中山路","SECT":" ","MAREA":" ","LANE":" ","ALLEY":" ","HOUSE_NO":"３６２號","E_COORD97":173644.14999999999,"N_COORD97":2548303.6000000001,"ADDRESS":"中山路３６２號","OBJECTID":570162},"geometry":{"x":173644.15000000224,"y":2548303.5999999996}},{"attributes":{"ID":570190,"DIS_CODE":0,"TOWNNAME":"東區","LI":"小東里","LIN":"28鄰","STREET":"東和路","SECT":" ","MAREA":" ","LANE":" ","ALLEY":" ","HOUSE_NO":"１５７號","E_COORD97":170709.13,"N_COORD97":2544307.02,"ADDRESS":"東和路１５７號","OBJECTID":570163},"geometry":{"x":170709.12999999989,"y":2544307.0199999996}},{"attributes":{"ID":570191,"DIS_CODE":0,"TOWNNAME":"東區","LI":"小東里","LIN":"28鄰","STREET":"東和路","SECT":" ","MAREA":" ","LANE":" ","ALLEY":" ","HOUSE_NO":"１６１號","E_COORD97":170688.82999999999,"N_COORD97":2544311.4399999999,"ADDRESS":"東和路１６１號","OBJECTID":570164},"geometry":{"x":170688.83000000007,"y":2544311.4399999995}},{"attributes":{"ID":570192,"DIS_CODE":0,"TOWNNAME":"東區","LI":"後甲里","LIN":"28鄰","STREET":"裕永路","SECT":" ","MAREA":" ","LANE":" ","ALLEY":" ","HOUSE_NO":"２０號","E_COORD97":172209.20999999999,"N_COORD97":2543406.5099999998,"ADDRESS":"裕永路２０號","OBJECTID":570165},"geometry":{"x":172209.21000000183,"y":2543406.5099999998}},{"attributes":{"ID":570193,"DIS_CODE":0,"TOWNNAME":"東區","LI":"崇信里","LIN":"28鄰","STREET":"崇善路","SECT":" ","MAREA":" ","LANE":" ","ALLEY":" ","HOUSE_NO":"２３３之１號","E_COORD97":170598.92999999999,"N_COORD97":2542163.3599999999,"ADDRESS":"崇善路２３３之１號","OBJECTID":570166},"geometry":{"x":170598.93000000063,"y":2542163.3600000031}},{"attributes":{"ID":570194,"DIS_CODE":0,"TOWNNAME":"東區","LI":"崇信里","LIN":"28鄰","STREET":"崇善路","SECT":" ","MAREA":" ","LANE":" ","ALLEY":" ","HOUSE_NO":"２３３之５號","E_COORD97":170610.88,"N_COORD97":2542154.52,"ADDRESS":"崇善路２３３之５號","OBJECTID":570167},"geometry":{"x":170610.87999999896,"y":2542154.5199999996}},{"attributes":{"ID":570195,"DIS_CODE":0,"TOWNNAME":"東區","LI":"崇信里","LIN":"28鄰","STREET":"崇善路","SECT":" ","MAREA":" ","LANE":" ","ALLEY":" ","HOUSE_NO":"２３３之２號","E_COORD97":170603.01999999999,"N_COORD97":2542160.25,"ADDRESS":"崇善路２３３之２號","OBJECTID":570168},"geometry":{"x":170603.02000000142,"y":2542160.25}},{"attributes":{"ID":570196,"DIS_CODE":0,"TOWNNAME":"東區","LI":"崇信里","LIN":"28鄰","STREET":"崇善路","SECT":" ","MAREA":" ","LANE":" ","ALLEY":" ","HOUSE_NO":"２３３之３號","E_COORD97":170608.26000000001,"N_COORD97":2542156.6499999999,"ADDRESS":"崇善路２３３之３號","OBJECTID":570169},"geometry":{"x":170608.26000000164,"y":2542156.6500000022}},{"attributes":{"ID":570197,"DIS_CODE":0,"TOWNNAME":"東區","LI":"崇信里","LIN":"28鄰","STREET":"崇善路","SECT":" ","MAREA":" ","LANE":" ","ALLEY":" ","HOUSE_NO":"２３３之６號","E_COORD97":170614.32000000001,"N_COORD97":2542152.0600000001,"ADDRESS":"崇善路２３３之６號","OBJECTID":570170},"geometry":{"x":170614.32000000123,"y":2542152.0600000005}},{"attributes":{"ID":570198,"DIS_CODE":0,"TOWNNAME":"東區","LI":"後甲里","LIN":"28鄰","STREET":"裕永一街","SECT":" ","MAREA":" ","LANE":" ","ALLEY":" ","HOUSE_NO":"１號","E_COORD97":172216.45000000001,"N_COORD97":2543388.8599999999,"ADDRESS":"裕永一街１號","OBJECTID":570171},"geometry":{"x":172216.45000000112,"y":2543388.8600000013}},{"attributes":{"ID":570199,"DIS_CODE":0,"TOWNNAME":"東區","LI":"後甲里","LIN":"28鄰","STREET":"裕永路","SECT":" ","MAREA":" ","LANE":" ","ALLEY":" ","HOUSE_NO":"１８號","E_COORD97":172209.42999999999,"N_COORD97":2543402.21,"ADDRESS":"裕永路１８號","OBJECTID":570172},"geometry":{"x":172209.43000000063,"y":2543402.2100000009}},{"attributes":{"ID":570200,"DIS_CODE":0,"TOWNNAME":"東區","LI":"後甲里","LIN":"28鄰","STREET":"裕永路","SECT":" ","MAREA":" ","LANE":" ","ALLEY":" ","HOUSE_NO":"２６號","E_COORD97":172207.39999999999,"N_COORD97":2543414.8799999999,"ADDRESS":"裕永路２６號","OBJECTID":570173},"geometry":{"x":172207.40000000037,"y":2543414.8800000008}},{"attributes":{"ID":570201,"DIS_CODE":0,"TOWNNAME":"東區","LI":"後甲里","LIN":"28鄰","STREET":"裕永路","SECT":" ","MAREA":" ","LANE":" ","ALLEY":" ","HOUSE_NO":"２２號","E_COORD97":172208.07999999999,"N_COORD97":2543410.8100000001,"ADDRESS":"裕永路２２號","OBJECTID":570174},"geometry":{"x":172208.08000000007,"y":2543410.8100000005}},{"attributes":{"ID":570202,"DIS_CODE":0,"TOWNNAME":"東區","LI":"後甲里","LIN":"28鄰","STREET":"裕永路","SECT":" ","MAREA":" ","LANE":" ","ALLEY":" ","HOUSE_NO":"５５號","E_COORD97":172178.20000000001,"N_COORD97":2543462.6400000001,"ADDRESS":"裕永路５５號","OBJECTID":570175},"geometry":{"x":172178.20000000019,"y":2543462.6400000025}},{"attributes":{"ID":570203,"DIS_CODE":0,"TOWNNAME":"東區","LI":"後甲里","LIN":"28鄰","STREET":"裕永路","SECT":" ","MAREA":" ","LANE":" ","ALLEY":" ","HOUSE_NO":"５９號","E_COORD97":172134.07000000001,"N_COORD97":2543497.7200000002,"ADDRESS":"裕永路５９號","OBJECTID":570176},"geometry":{"x":172134.07000000216,"y":2543497.7199999988}},{"attributes":{"ID":570204,"DIS_CODE":0,"TOWNNAME":"東區","LI":"後甲里","LIN":"28鄰","STREET":"裕永一街","SECT":" ","MAREA":" ","LANE":" ","ALLEY":" ","HOUSE_NO":"９２號","E_COORD97":172468.92000000001,"N_COORD97":2543415.29,"ADDRESS":"裕永一街９２號","OBJECTID":570177},"geometry":{"x":172468.92000000086,"y":2543415.290000001}},{"attributes":{"ID":570205,"DIS_CODE":0,"TOWNNAME":"仁德區","LI":"上崙里","LIN":"28鄰","STREET":"中正路","SECT":"一段","MAREA":" ","LANE":" ","ALLEY":" ","HOUSE_NO":"６７４號","E_COORD97":172875.14999999999,"N_COORD97":2537578.52,"ADDRESS":"中正路一段６７４號","OBJECTID":570178},"geometry":{"x":172875.1500000013,"y":2537578.5200000033}},{"attributes":{"ID":570206,"DIS_CODE":0,"TOWNNAME":"仁德區","LI":"上崙里","LIN":"28鄰","STREET":"中正路","SECT":"一段","MAREA":" ","LANE":" ","ALLEY":" ","HOUSE_NO":"６６４號","E_COORD97":172868.89999999999,"N_COORD97":2537557.77,"ADDRESS":"中正路一段６６４號","OBJECTID":570179},"geometry":{"x":172868.90000000037,"y":2537557.7700000014}},{"attributes":{"ID":570207,"DIS_CODE":0,"TOWNNAME":"仁德區","LI":"上崙里","LIN":"28鄰","STREET":"上崙街","SECT":" ","MAREA":" ","LANE":" ","ALLEY":" ","HOUSE_NO":"４６５號","E_COORD97":172919.29999999999,"N_COORD97":2537601.75,"ADDRESS":"上崙街４６５號","OBJECTID":570180},"geometry":{"x":172919.30000000075,"y":2537601.7500000019}},{"attributes":{"ID":570208,"DIS_CODE":0,"TOWNNAME":"白河區","LI":"白河里","LIN":"16鄰","STREET":"三民路","SECT":" ","MAREA":" ","LANE":" ","ALLEY":" ","HOUSE_NO":"３９２號","E_COORD97":190384.17999999999,"N_COORD97":2583286.1899999999,"ADDRESS":"三民路３９２號","OBJECTID":570181},"geometry":{"x":190384.1799999997,"y":2583286.1899999976}},{"attributes":{"ID":570209,"DIS_CODE":0,"TOWNNAME":"永康區","LI":"龍潭里","LIN":" ","STREET":"龍潭街","SECT":" ","MAREA":" ","LANE":" ","ALLEY":" ","HOUSE_NO":"１１１號","E_COORD97":174855.32000000001,"N_COORD97":2548132.96,"ADDRESS":"龍潭街１１１號","OBJECTID":570182},"geometry":{"x":174855.32000000123,"y":2548132.9600000009}},{"attributes":{"ID":570210,"DIS_CODE":0,"TOWNNAME":"永康區","LI":"新樹里","LIN":" ","STREET":"富強路","SECT":"二段","MAREA":" ","LANE":" ","ALLEY":" ","HOUSE_NO":"４１１號","E_COORD97":175574.51999999999,"N_COORD97":2547766.29,"ADDRESS":"富強路二段４１１號","OBJECTID":570183},"geometry":{"x":175574.51999999955,"y":2547766.2899999991}},{"attributes":{"ID":570211,"DIS_CODE":0,"TOWNNAME":"新營區","LI":"王公里","LIN":"22鄰","STREET":"大仁街","SECT":" ","MAREA":" ","LANE":" ","ALLEY":" ","HOUSE_NO":"７３號","E_COORD97":180452.73000000001,"N_COORD97":2579388.9900000002,"ADDRESS":"大仁街７３號","OBJECTID":570184},"geometry":{"x":180452.73000000045,"y":2579388.9900000002}},{"attributes":{"ID":570212,"DIS_CODE":0,"TOWNNAME":"新營區","LI":"民權里","LIN":"22鄰","STREET":"民權路","SECT":" ","MAREA":" ","LANE":" ","ALLEY":" ","HOUSE_NO":"９０之１號","E_COORD97":179681.67999999999,"N_COORD97":2578472.3999999999,"ADDRESS":"民權路９０之１號","OBJECTID":570185},"geometry":{"x":179681.68000000063,"y":2578472.4000000022}},{"attributes":{"ID":570213,"DIS_CODE":0,"TOWNNAME":"新營區","LI":"民權里","LIN":"22鄰","STREET":"民權路","SECT":" ","MAREA":" ","LANE":" ","ALLEY":" ","HOUSE_NO":"９０號之３","E_COORD97":179680.45000000001,"N_COORD97":2578482.3700000001,"ADDRESS":"民權路９０號之３","OBJECTID":570186},"geometry":{"x":179680.45000000112,"y":2578482.370000001}},{"attributes":{"ID":570214,"DIS_CODE":0,"TOWNNAME":"新營區","LI":"三仙里","LIN":"22鄰","STREET":"育德街","SECT":" ","MAREA":" ","LANE":" ","ALLEY":" ","HOUSE_NO":"３６號","E_COORD97":179610.04999999999,"N_COORD97":2578968.8199999998,"ADDRESS":"育德街３６號","OBJECTID":570187},"geometry":{"x":179610.05000000075,"y":2578968.8200000003}},{"attributes":{"ID":570215,"DIS_CODE":0,"TOWNNAME":"新營區","LI":"民權里","LIN":"22鄰","STREET":"仁愛街","SECT":" ","MAREA":" ","LANE":" ","ALLEY":" ","HOUSE_NO":"１２７號","E_COORD97":179738.07999999999,"N_COORD97":2578544.0600000001,"ADDRESS":"仁愛街１２７號","OBJECTID":570188},"geometry":{"x":179738.08000000007,"y":2578544.0600000005}},{"attributes":{"ID":570216,"DIS_CODE":0,"TOWNNAME":"新營區","LI":"民權里","LIN":"22鄰","STREET":"仁愛街","SECT":" ","MAREA":" ","LANE":" ","ALLEY":" ","HOUSE_NO":"１１９號","E_COORD97":179743.10999999999,"N_COORD97":2578527.4300000002,"ADDRESS":"仁愛街１１９號","OBJECTID":570189},"geometry":{"x":179743.11000000034,"y":2578527.4299999997}},{"attributes":{"ID":570217,"DIS_CODE":0,"TOWNNAME":"新營區","LI":"民權里","LIN":"22鄰","STREET":"仁愛街","SECT":" ","MAREA":" ","LANE":" ","ALLEY":" ","HOUSE_NO":"１２５號","E_COORD97":179741.13,"N_COORD97":2578539.6200000001,"ADDRESS":"仁愛街１２５號","OBJECTID":570190},"geometry":{"x":179741.12999999989,"y":2578539.6200000029}},{"attributes":{"ID":570218,"DIS_CODE":0,"TOWNNAME":"新營區","LI":"三仙里","LIN":"22鄰","STREET":"健康路","SECT":" ","MAREA":" ","LANE":" ","ALLEY":" ","HOUSE_NO":"１１號","E_COORD97":179653.59,"N_COORD97":2578893.2999999998,"ADDRESS":"健康路１１號","OBJECTID":570191},"geometry":{"x":179653.59000000078,"y":2578893.3000000045}},{"attributes":{"ID":570219,"DIS_CODE":0,"TOWNNAME":"新營區","LI":"興業里","LIN":"22鄰","STREET":"中山路","SECT":" ","MAREA":" ","LANE":" ","ALLEY":" ","HOUSE_NO":"１２５號","E_COORD97":180155.67999999999,"N_COORD97":2578168.8700000001,"ADDRESS":"中山路１２５號","OBJECTID":570192},"geometry":{"x":180155.6799999997,"y":2578168.8700000029}},{"attributes":{"ID":570220,"DIS_CODE":0,"TOWNNAME":"新營區","LI":"興業里","LIN":"22鄰","STREET":"中山路","SECT":" ","MAREA":" ","LANE":" ","ALLEY":" ","HOUSE_NO":"１２３號","E_COORD97":180182.29000000001,"N_COORD97":2578173.1800000002,"ADDRESS":"中山路１２３號","OBJECTID":570193},"geometry":{"x":180182.29000000004,"y":2578173.1799999997}},{"attributes":{"ID":570221,"DIS_CODE":0,"TOWNNAME":"新營區","LI":"興業里","LIN":"22鄰","STREET":"中山路","SECT":" ","MAREA":" ","LANE":" ","ALLEY":" ","HOUSE_NO":"１２７號","E_COORD97":180155.62,"N_COORD97":2578155.5800000001,"ADDRESS":"中山路１２７號","OBJECTID":570194},"geometry":{"x":180155.62000000104,"y":2578155.5800000019}},{"attributes":{"ID":570222,"DIS_CODE":0,"TOWNNAME":"新營區","LI":"民權里","LIN":"22鄰","STREET":"仁愛街","SECT":" ","MAREA":" ","LANE":" ","ALLEY":" ","HOUSE_NO":"１２１號","E_COORD97":179742.10999999999,"N_COORD97":2578530.7599999998,"ADDRESS":"仁愛街１２１號","OBJECTID":570195},"geometry":{"x":179742.11000000127,"y":2578530.7600000016}},{"attributes":{"ID":570223,"DIS_CODE":0,"TOWNNAME":"新營區","LI":"王公里","LIN":"22鄰","STREET":"大勇街","SECT":" ","MAREA":" ","LANE":" ","ALLEY":" ","HOUSE_NO":"１０２號","E_COORD97":180474.62,"N_COORD97":2579434.29,"ADDRESS":"大勇街１０２號","OBJECTID":570196},"geometry":{"x":180474.62000000104,"y":2579434.290000001}},{"attributes":{"ID":570224,"DIS_CODE":0,"TOWNNAME":"新營區","LI":"王公里","LIN":"22鄰","STREET":"大仁街","SECT":" ","MAREA":" ","LANE":" ","ALLEY":" ","HOUSE_NO":"８１號","E_COORD97":180471.20000000001,"N_COORD97":2579392.23,"ADDRESS":"大仁街８１號","OBJECTID":570197},"geometry":{"x":180471.20000000019,"y":2579392.2300000023}},{"attributes":{"ID":570225,"DIS_CODE":0,"TOWNNAME":"新營區","LI":"大宏里","LIN":"22鄰","STREET":"開元路","SECT":" ","MAREA":" ","LANE":" ","ALLEY":" ","HOUSE_NO":"７３號之２","E_COORD97":180920.64999999999,"N_COORD97":2578791.0499999998,"ADDRESS":"開元路７３號之２","OBJECTID":570198},"geometry":{"x":180920.6500000013,"y":2578791.0500000026}},{"attributes":{"ID":570226,"DIS_CODE":0,"TOWNNAME":"新營區","LI":"大宏里","LIN":"22鄰","STREET":"開元路","SECT":" ","MAREA":" ","LANE":" ","ALLEY":" ","HOUSE_NO":"７１之１號","E_COORD97":180922.76000000001,"N_COORD97":2578755.6099999999,"ADDRESS":"開元路７１之１號","OBJECTID":570199},"geometry":{"x":180922.75999999978,"y":2578755.6099999994}},{"attributes":{"ID":570227,"DIS_CODE":0,"TOWNNAME":"新營區","LI":"民生里","LIN":"22鄰","STREET":"進修街","SECT":" ","MAREA":" ","LANE":" ","ALLEY":" ","HOUSE_NO":"１７之５號","E_COORD97":179076.07000000001,"N_COORD97":2578449.8199999998,"ADDRESS":"進修街１７之５號","OBJECTID":570200},"geometry":{"x":179076.07000000123,"y":2578449.8200000022}}]}