{"displayFieldName":"TOWNNAME","fieldAliases":{"ID":"ID","DIS_CODE":"DIS_CODE","TOWNNAME":"TOWNNAME","LI":"LI","LIN":"LIN","STREET":"STREET","SECT":"SECT","MAREA":"MAREA","LANE":"LANE","ALLEY":"ALLEY","HOUSE_NO":"HOUSE_NO","E_COORD97":"E_COORD97","N_COORD97":"N_COORD97","ADDRESS":"ADDRESS","OBJECTID":"OBJECTID"},"geometryType":"esriGeometryPoint","spatialReference":{"wkid":102443,"latestWkid":3826},"fields":[{"name":"ID","type":"esriFieldTypeDouble","alias":"ID"},{"name":"DIS_CODE","type":"esriFieldTypeInteger","alias":"DIS_CODE"},{"name":"TOWNNAME","type":"esriFieldTypeString","alias":"TOWNNAME","length":8},{"name":"LI","type":"esriFieldTypeString","alias":"LI","length":8},{"name":"LIN","type":"esriFieldTypeString","alias":"LIN","length":12},{"name":"STREET","type":"esriFieldTypeString","alias":"STREET","length":20},{"name":"SECT","type":"esriFieldTypeString","alias":"SECT","length":8},{"name":"MAREA","type":"esriFieldTypeString","alias":"MAREA","length":12},{"name":"LANE","type":"esriFieldTypeString","alias":"LANE","length":10},{"name":"ALLEY","type":"esriFieldTypeString","alias":"ALLEY","length":10},{"name":"HOUSE_NO","type":"esriFieldTypeString","alias":"HOUSE_NO","length":20},{"name":"E_COORD97","type":"esriFieldTypeDouble","alias":"E_COORD97"},{"name":"N_COORD97","type":"esriFieldTypeDouble","alias":"N_COORD97"},{"name":"ADDRESS","type":"esriFieldTypeString","alias":"ADDRESS","length":50},{"name":"OBJECTID","type":"esriFieldTypeOID","alias":"OBJECTID"}],"features":[{"attributes":{"ID":121201,"DIS_CODE":0,"TOWNNAME":"仁德區","LI":"後壁里","LIN":"31鄰","STREET":"德洋路","SECT":" ","MAREA":" ","LANE":"１８０巷","ALLEY":" ","HOUSE_NO":"９號","E_COORD97":172530.41,"N_COORD97":2539446.5099999998,"ADDRESS":"德洋路１８０巷９號","OBJECTID":121201},"geometry":{"x":172530.41000000108,"y":2539446.5099999998}},{"attributes":{"ID":121202,"DIS_CODE":0,"TOWNNAME":"北區","LI":"玉皇里","LIN":"15鄰","STREET":"佑民街","SECT":" ","MAREA":" ","LANE":" ","ALLEY":" ","HOUSE_NO":"８號之４","E_COORD97":168587.42999999999,"N_COORD97":2544377.2799999998,"ADDRESS":"佑民街８號之４","OBJECTID":121202},"geometry":{"x":168587.4299999997,"y":2544377.2799999993}},{"attributes":{"ID":121203,"DIS_CODE":0,"TOWNNAME":"北區","LI":"玉皇里","LIN":"15鄰","STREET":"佑民街","SECT":" ","MAREA":" ","LANE":" ","ALLEY":" ","HOUSE_NO":"３０號","E_COORD97":168608.13,"N_COORD97":2544409.27,"ADDRESS":"佑民街３０號","OBJECTID":121203},"geometry":{"x":168608.13000000082,"y":2544409.2700000014}},{"attributes":{"ID":121204,"DIS_CODE":0,"TOWNNAME":"北區","LI":"玉皇里","LIN":"15鄰","STREET":"佑民街","SECT":" ","MAREA":" ","LANE":" ","ALLEY":" ","HOUSE_NO":"３２號","E_COORD97":168611.04000000001,"N_COORD97":2544413.8599999999,"ADDRESS":"佑民街３２號","OBJECTID":121204},"geometry":{"x":168611.04000000004,"y":2544413.8599999994}},{"attributes":{"ID":121205,"DIS_CODE":0,"TOWNNAME":"北區","LI":"玉皇里","LIN":"15鄰","STREET":"佑民街","SECT":" ","MAREA":" ","LANE":" ","ALLEY":" ","HOUSE_NO":"３４號","E_COORD97":168613.29999999999,"N_COORD97":2544417.6699999999,"ADDRESS":"佑民街３４號","OBJECTID":121205},"geometry":{"x":168613.30000000075,"y":2544417.6700000018}},{"attributes":{"ID":121206,"DIS_CODE":0,"TOWNNAME":"北區","LI":"玉皇里","LIN":"15鄰","STREET":"佑民街","SECT":" ","MAREA":" ","LANE":" ","ALLEY":" ","HOUSE_NO":"３６號","E_COORD97":168615.44,"N_COORD97":2544420.4500000002,"ADDRESS":"佑民街３６號","OBJECTID":121206},"geometry":{"x":168615.44000000041,"y":2544420.450000003}},{"attributes":{"ID":121207,"DIS_CODE":0,"TOWNNAME":"北區","LI":"玉皇里","LIN":"15鄰","STREET":"佑民街","SECT":" ","MAREA":" ","LANE":" ","ALLEY":" ","HOUSE_NO":"３８號","E_COORD97":168618.35999999999,"N_COORD97":2544424.48,"ADDRESS":"佑民街３８號","OBJECTID":121207},"geometry":{"x":168618.36000000127,"y":2544424.4800000004}},{"attributes":{"ID":121208,"DIS_CODE":0,"TOWNNAME":"北區","LI":"玉皇里","LIN":"15鄰","STREET":"佑民街","SECT":" ","MAREA":" ","LANE":" ","ALLEY":" ","HOUSE_NO":"４０號","E_COORD97":168624.57000000001,"N_COORD97":2544430.8799999999,"ADDRESS":"佑民街４０號","OBJECTID":121208},"geometry":{"x":168624.5700000003,"y":2544430.8800000027}},{"attributes":{"ID":121209,"DIS_CODE":0,"TOWNNAME":"麻豆區","LI":"北勢里","LIN":"9鄰","STREET":" ","SECT":" ","MAREA":"\u25A0祖\u25A0","LANE":" ","ALLEY":" ","HOUSE_NO":"７１號","E_COORD97":172689.75,"N_COORD97":2565972.9199999999,"ADDRESS":"\u25A0祖\u25A0７１號","OBJECTID":121209},"geometry":{"x":172689.75,"y":2565972.9199999999}},{"attributes":{"ID":121210,"DIS_CODE":0,"TOWNNAME":"安平區","LI":"石門里","LIN":"15鄰","STREET":"民權路","SECT":"四段","MAREA":" ","LANE":" ","ALLEY":" ","HOUSE_NO":"７５７號","E_COORD97":164724.54999999999,"N_COORD97":2544686.04,"ADDRESS":"民權路四段７５７號","OBJECTID":121210},"geometry":{"x":164724.55000000075,"y":2544686.0399999991}},{"attributes":{"ID":121211,"DIS_CODE":0,"TOWNNAME":"安平區","LI":"石門里","LIN":"15鄰","STREET":"民權路","SECT":"四段","MAREA":" ","LANE":" ","ALLEY":" ","HOUSE_NO":"７５９號","E_COORD97":164721.35999999999,"N_COORD97":2544687.2999999998,"ADDRESS":"民權路四段７５９號","OBJECTID":121211},"geometry":{"x":164721.36000000127,"y":2544687.2999999989}},{"attributes":{"ID":121212,"DIS_CODE":0,"TOWNNAME":"安平區","LI":"石門里","LIN":"15鄰","STREET":"民權路","SECT":"四段","MAREA":" ","LANE":" ","ALLEY":" ","HOUSE_NO":"７６１號","E_COORD97":164717.31,"N_COORD97":2544688.8799999999,"ADDRESS":"民權路四段７６１號","OBJECTID":121212},"geometry":{"x":164717.31000000052,"y":2544688.8800000008}},{"attributes":{"ID":121213,"DIS_CODE":0,"TOWNNAME":"安平區","LI":"石門里","LIN":"15鄰","STREET":"民權路","SECT":"四段","MAREA":" ","LANE":" ","ALLEY":" ","HOUSE_NO":"７６３號","E_COORD97":164713.78,"N_COORD97":2544690.6400000001,"ADDRESS":"民權路四段７６３號","OBJECTID":121213},"geometry":{"x":164713.78000000026,"y":2544690.6400000006}},{"attributes":{"ID":121214,"DIS_CODE":0,"TOWNNAME":"永康區","LI":"五王里","LIN":"31鄰","STREET":"五福街","SECT":" ","MAREA":" ","LANE":" ","ALLEY":" ","HOUSE_NO":"１１號","E_COORD97":171283.67000000001,"N_COORD97":2545874.6299999999,"ADDRESS":"五福街１１號","OBJECTID":121214},"geometry":{"x":171283.66999999899,"y":2545874.6300000008}},{"attributes":{"ID":121215,"DIS_CODE":0,"TOWNNAME":"永康區","LI":"五王里","LIN":"31鄰","STREET":"五福街","SECT":" ","MAREA":" ","LANE":" ","ALLEY":" ","HOUSE_NO":"１３號","E_COORD97":171287.92000000001,"N_COORD97":2545876.6299999999,"ADDRESS":"五福街１３號","OBJECTID":121215},"geometry":{"x":171287.92000000086,"y":2545876.6299999971}},{"attributes":{"ID":121216,"DIS_CODE":0,"TOWNNAME":"永康區","LI":"二王里","LIN":"31鄰","STREET":"中山南路","SECT":" ","MAREA":" ","LANE":" ","ALLEY":" ","HOUSE_NO":"５０４號","E_COORD97":172086.56,"N_COORD97":2546480.52,"ADDRESS":"中山南路５０４號","OBJECTID":121216},"geometry":{"x":172086.56000000052,"y":2546480.5199999996}},{"attributes":{"ID":121217,"DIS_CODE":0,"TOWNNAME":"永康區","LI":"大灣里","LIN":"31鄰","STREET":"文賢街","SECT":" ","MAREA":" ","LANE":" ","ALLEY":" ","HOUSE_NO":"５６號","E_COORD97":175315.76000000001,"N_COORD97":2545043.3199999998,"ADDRESS":"文賢街５６號","OBJECTID":121217},"geometry":{"x":175315.75999999885,"y":2545043.3200000022}},{"attributes":{"ID":121218,"DIS_CODE":0,"TOWNNAME":"永康區","LI":"崑山里","LIN":"31鄰","STREET":"永大路","SECT":"二段","MAREA":" ","LANE":" ","ALLEY":" ","HOUSE_NO":"２１號","E_COORD97":174106.28,"N_COORD97":2544672.1200000001,"ADDRESS":"永大路二段２１號","OBJECTID":121218},"geometry":{"x":174106.28000000119,"y":2544672.1200000048}},{"attributes":{"ID":121219,"DIS_CODE":0,"TOWNNAME":"仁德區","LI":"太子里","LIN":"26鄰","STREET":"太子路","SECT":" ","MAREA":" ","LANE":" ","ALLEY":" ","HOUSE_NO":"３８８號","E_COORD97":173649.04000000001,"N_COORD97":2543545.0099999998,"ADDRESS":"太子路３８８號","OBJECTID":121219},"geometry":{"x":173649.04000000004,"y":2543545.0099999998}},{"attributes":{"ID":121220,"DIS_CODE":0,"TOWNNAME":"仁德區","LI":"土庫里","LIN":"16鄰","STREET":"土庫一街","SECT":" ","MAREA":" ","LANE":"２２巷","ALLEY":"２３弄","HOUSE_NO":"１０號","E_COORD97":174523.32000000001,"N_COORD97":2543015.75,"ADDRESS":"土庫一街２２巷２３弄１０號","OBJECTID":121220},"geometry":{"x":174523.32000000123,"y":2543015.7500000037}},{"attributes":{"ID":121221,"DIS_CODE":0,"TOWNNAME":"仁德區","LI":"仁義里","LIN":"16鄰","STREET":"義林路","SECT":" ","MAREA":" ","LANE":"２４１巷","ALLEY":"２弄","HOUSE_NO":"４號","E_COORD97":174532.20000000001,"N_COORD97":2541284.0099999998,"ADDRESS":"義林路２４１巷２弄４號","OBJECTID":121221},"geometry":{"x":174532.20000000112,"y":2541284.0099999998}},{"attributes":{"ID":121222,"DIS_CODE":0,"TOWNNAME":"仁德區","LI":"土庫里","LIN":"16鄰","STREET":"土庫一街","SECT":" ","MAREA":" ","LANE":"２２巷","ALLEY":"２３弄","HOUSE_NO":"１９號","E_COORD97":174547.37,"N_COORD97":2543029,"ADDRESS":"土庫一街２２巷２３弄１９號","OBJECTID":121222},"geometry":{"x":174547.37000000011,"y":2543029.0000000019}},{"attributes":{"ID":121223,"DIS_CODE":0,"TOWNNAME":"仁德區","LI":"仁義里","LIN":"16鄰","STREET":"義林路","SECT":" ","MAREA":" ","LANE":"２４１巷","ALLEY":"２弄","HOUSE_NO":"９號","E_COORD97":174516.81,"N_COORD97":2541303.9700000002,"ADDRESS":"義林路２４１巷２弄９號","OBJECTID":121223},"geometry":{"x":174516.81000000145,"y":2541303.9700000025}},{"attributes":{"ID":121224,"DIS_CODE":0,"TOWNNAME":"仁德區","LI":"成功里","LIN":"4鄰","STREET":"成功三街","SECT":" ","MAREA":" ","LANE":" ","ALLEY":" ","HOUSE_NO":"８７號","E_COORD97":171182.69,"N_COORD97":2539815.27,"ADDRESS":"成功三街８７號","OBJECTID":121224},"geometry":{"x":171182.69000000134,"y":2539815.2700000014}},{"attributes":{"ID":121225,"DIS_CODE":0,"TOWNNAME":"佳里區","LI":"東寧里","LIN":"20鄰","STREET":"進學路","SECT":" ","MAREA":" ","LANE":" ","ALLEY":" ","HOUSE_NO":"７５號","E_COORD97":166161.98000000001,"N_COORD97":2562657.1099999999,"ADDRESS":"進學路７５號","OBJECTID":121225},"geometry":{"x":166161.98000000045,"y":2562657.1100000013}},{"attributes":{"ID":121226,"DIS_CODE":0,"TOWNNAME":"仁德區","LI":"太子里","LIN":"26鄰","STREET":"太子路","SECT":" ","MAREA":" ","LANE":" ","ALLEY":" ","HOUSE_NO":"４００號","E_COORD97":173622.10000000001,"N_COORD97":2543546.5099999998,"ADDRESS":"太子路４００號","OBJECTID":121226},"geometry":{"x":173622.10000000056,"y":2543546.5100000016}},{"attributes":{"ID":121227,"DIS_CODE":0,"TOWNNAME":"仁德區","LI":"成功里","LIN":"4鄰","STREET":"成功三街","SECT":" ","MAREA":" ","LANE":" ","ALLEY":" ","HOUSE_NO":"９９號","E_COORD97":171181.94,"N_COORD97":2539783.52,"ADDRESS":"成功三街９９號","OBJECTID":121227},"geometry":{"x":171181.94000000041,"y":2539783.5200000014}},{"attributes":{"ID":121228,"DIS_CODE":0,"TOWNNAME":"仁德區","LI":"仁義里","LIN":"16鄰","STREET":"義林路","SECT":" ","MAREA":" ","LANE":"２４１巷","ALLEY":"２弄","HOUSE_NO":"１號","E_COORD97":174514.35000000001,"N_COORD97":2541287.9700000002,"ADDRESS":"義林路２４１巷２弄１號","OBJECTID":121228},"geometry":{"x":174514.34999999963,"y":2541287.9700000007}},{"attributes":{"ID":121229,"DIS_CODE":0,"TOWNNAME":"仁德區","LI":"上崙里","LIN":"16鄰","STREET":"德崙路","SECT":" ","MAREA":" ","LANE":"３７０巷","ALLEY":"４９弄","HOUSE_NO":"６號","E_COORD97":174030.56,"N_COORD97":2537932.27,"ADDRESS":"德崙路３７０巷４９弄６號","OBJECTID":121229},"geometry":{"x":174030.56000000052,"y":2537932.2699999996}},{"attributes":{"ID":121230,"DIS_CODE":0,"TOWNNAME":"東區","LI":"莊敬里","LIN":"16鄰","STREET":"莊敬路","SECT":" ","MAREA":" ","LANE":"１８１巷","ALLEY":"２弄","HOUSE_NO":"１０號","E_COORD97":171291.45999999999,"N_COORD97":2544138.71,"ADDRESS":"莊敬路１８１巷２弄１０號","OBJECTID":121230},"geometry":{"x":171291.45999999996,"y":2544138.7100000009}},{"attributes":{"ID":121231,"DIS_CODE":0,"TOWNNAME":"東區","LI":"莊敬里","LIN":"16鄰","STREET":"莊敬路","SECT":" ","MAREA":" ","LANE":"１８１巷","ALLEY":"２弄","HOUSE_NO":"４號","E_COORD97":171329.41,"N_COORD97":2544133.2200000002,"ADDRESS":"莊敬路１８１巷２弄４號","OBJECTID":121231},"geometry":{"x":171329.41000000015,"y":2544133.2200000025}},{"attributes":{"ID":121232,"DIS_CODE":0,"TOWNNAME":"東區","LI":"莊敬里","LIN":"16鄰","STREET":"莊敬路","SECT":" ","MAREA":" ","LANE":"１８１巷","ALLEY":"２弄","HOUSE_NO":"５號","E_COORD97":171322.70999999999,"N_COORD97":2544133.4100000001,"ADDRESS":"莊敬路１８１巷２弄５號","OBJECTID":121232},"geometry":{"x":171322.71000000089,"y":2544133.4100000039}},{"attributes":{"ID":121233,"DIS_CODE":0,"TOWNNAME":"東區","LI":"莊敬里","LIN":"16鄰","STREET":"莊敬路","SECT":" ","MAREA":" ","LANE":"１８１巷","ALLEY":"２弄","HOUSE_NO":"６號","E_COORD97":171316.48000000001,"N_COORD97":2544134.3399999999,"ADDRESS":"莊敬路１８１巷２弄６號","OBJECTID":121233},"geometry":{"x":171316.48000000138,"y":2544134.3400000017}},{"attributes":{"ID":121234,"DIS_CODE":0,"TOWNNAME":"東區","LI":"莊敬里","LIN":"16鄰","STREET":"莊敬路","SECT":" ","MAREA":" ","LANE":"１８１巷","ALLEY":"２弄","HOUSE_NO":"７號","E_COORD97":171310.91,"N_COORD97":2544135.73,"ADDRESS":"莊敬路１８１巷２弄７號","OBJECTID":121234},"geometry":{"x":171310.91000000015,"y":2544135.7300000023}},{"attributes":{"ID":121235,"DIS_CODE":0,"TOWNNAME":"東區","LI":"莊敬里","LIN":"16鄰","STREET":"莊敬路","SECT":" ","MAREA":" ","LANE":"１８１巷","ALLEY":"２弄","HOUSE_NO":"８號","E_COORD97":171303.73999999999,"N_COORD97":2544136.2999999998,"ADDRESS":"莊敬路１８１巷２弄８號","OBJECTID":121235},"geometry":{"x":171303.74000000022,"y":2544136.3000000026}},{"attributes":{"ID":121236,"DIS_CODE":0,"TOWNNAME":"東區","LI":"莊敬里","LIN":"16鄰","STREET":"莊敬路","SECT":" ","MAREA":" ","LANE":"１８１巷","ALLEY":"２弄","HOUSE_NO":"９號","E_COORD97":171297.41,"N_COORD97":2544137.6899999999,"ADDRESS":"莊敬路１８１巷２弄９號","OBJECTID":121236},"geometry":{"x":171297.41000000015,"y":2544137.6900000032}},{"attributes":{"ID":121237,"DIS_CODE":0,"TOWNNAME":"永康區","LI":"勝利里","LIN":"16鄰","STREET":"勝利街","SECT":" ","MAREA":" ","LANE":"１０７巷","ALLEY":"６１弄","HOUSE_NO":"６號","E_COORD97":171214.14999999999,"N_COORD97":2544911.5,"ADDRESS":"勝利街１０７巷６１弄６號","OBJECTID":121237},"geometry":{"x":171214.15000000037,"y":2544911.5}},{"attributes":{"ID":121238,"DIS_CODE":0,"TOWNNAME":"仁德區","LI":"後壁里","LIN":"5鄰","STREET":"德善路","SECT":" ","MAREA":" ","LANE":" ","ALLEY":" ","HOUSE_NO":"９１號","E_COORD97":173378.35000000001,"N_COORD97":2538883.02,"ADDRESS":"德善路９１號","OBJECTID":121238},"geometry":{"x":173378.34999999963,"y":2538883.0199999996}},{"attributes":{"ID":121239,"DIS_CODE":0,"TOWNNAME":"仁德區","LI":"成功里","LIN":"13鄰","STREET":"全福路","SECT":" ","MAREA":" ","LANE":" ","ALLEY":" ","HOUSE_NO":"２１號","E_COORD97":170863.78,"N_COORD97":2539322.2400000002,"ADDRESS":"全福路２１號","OBJECTID":121239},"geometry":{"x":170863.78000000119,"y":2539322.2400000002}},{"attributes":{"ID":121240,"DIS_CODE":0,"TOWNNAME":"麻豆區","LI":"北勢里","LIN":"9鄰","STREET":" ","SECT":" ","MAREA":"\u25A0祖\u25A0","LANE":" ","ALLEY":" ","HOUSE_NO":"６８號","E_COORD97":172657.32999999999,"N_COORD97":2565952.02,"ADDRESS":"\u25A0祖\u25A0６８號","OBJECTID":121240},"geometry":{"x":172657.33000000007,"y":2565952.0199999996}},{"attributes":{"ID":121241,"DIS_CODE":0,"TOWNNAME":"麻豆區","LI":"北勢里","LIN":"9鄰","STREET":" ","SECT":" ","MAREA":"\u25A0祖\u25A0","LANE":" ","ALLEY":" ","HOUSE_NO":"６９號之１","E_COORD97":172679.39999999999,"N_COORD97":2565934.77,"ADDRESS":"\u25A0祖\u25A0６９號之１","OBJECTID":121241},"geometry":{"x":172679.39999999944,"y":2565934.7700000014}},{"attributes":{"ID":121242,"DIS_CODE":0,"TOWNNAME":"麻豆區","LI":"北勢里","LIN":"9鄰","STREET":" ","SECT":" ","MAREA":"\u25A0祖\u25A0","LANE":" ","ALLEY":" ","HOUSE_NO":"６９號","E_COORD97":172673.09,"N_COORD97":2565952.0800000001,"ADDRESS":"\u25A0祖\u25A0６９號","OBJECTID":121242},"geometry":{"x":172673.09000000078,"y":2565952.0800000001}},{"attributes":{"ID":121243,"DIS_CODE":0,"TOWNNAME":"麻豆區","LI":"北勢里","LIN":"9鄰","STREET":" ","SECT":" ","MAREA":"\u25A0祖\u25A0","LANE":" ","ALLEY":" ","HOUSE_NO":"７０號","E_COORD97":172663.37,"N_COORD97":2565967.2200000002,"ADDRESS":"\u25A0祖\u25A0７０號","OBJECTID":121243},"geometry":{"x":172663.37000000011,"y":2565967.2200000025}},{"attributes":{"ID":121244,"DIS_CODE":0,"TOWNNAME":"永康區","LI":"勝利里","LIN":"16鄰","STREET":"勝利街","SECT":" ","MAREA":" ","LANE":"１０７巷","ALLEY":"６３弄","HOUSE_NO":"２號","E_COORD97":171179.95999999999,"N_COORD97":2544927.1200000001,"ADDRESS":"勝利街１０７巷６３弄２號","OBJECTID":121244},"geometry":{"x":171179.95999999996,"y":2544927.1200000029}},{"attributes":{"ID":121245,"DIS_CODE":0,"TOWNNAME":"永康區","LI":"勝利里","LIN":"16鄰","STREET":"勝利街","SECT":" ","MAREA":" ","LANE":"１０７巷","ALLEY":"６１弄","HOUSE_NO":"７號","E_COORD97":171224.17000000001,"N_COORD97":2544906,"ADDRESS":"勝利街１０７巷６１弄７號","OBJECTID":121245},"geometry":{"x":171224.16999999993,"y":2544906.0000000037}},{"attributes":{"ID":121246,"DIS_CODE":0,"TOWNNAME":"安南區","LI":"安和里","LIN":"16鄰","STREET":"安和路","SECT":"一段","MAREA":" ","LANE":"１５０巷","ALLEY":"２０弄","HOUSE_NO":"１５號","E_COORD97":169592.01999999999,"N_COORD97":2547716.3900000001,"ADDRESS":"安和路一段１５０巷２０弄１５號","OBJECTID":121246},"geometry":{"x":169592.01999999955,"y":2547716.3900000006}},{"attributes":{"ID":121247,"DIS_CODE":0,"TOWNNAME":"善化區","LI":"坐駕里","LIN":"16鄰","STREET":"大成路","SECT":" ","MAREA":" ","LANE":"１巷","ALLEY":"１弄","HOUSE_NO":"６號","E_COORD97":178908.78,"N_COORD97":2558845.75,"ADDRESS":"大成路１巷１弄６號","OBJECTID":121247},"geometry":{"x":178908.78000000119,"y":2558845.7500000019}},{"attributes":{"ID":121248,"DIS_CODE":0,"TOWNNAME":"永康區","LI":"網寮里","LIN":"16鄰","STREET":"永勝街","SECT":" ","MAREA":" ","LANE":"２２５巷","ALLEY":"８弄","HOUSE_NO":"２號","E_COORD97":173381.79999999999,"N_COORD97":2546707.9399999999,"ADDRESS":"永勝街２２５巷８弄２號","OBJECTID":121248},"geometry":{"x":173381.80000000075,"y":2546707.9399999995}},{"attributes":{"ID":121249,"DIS_CODE":0,"TOWNNAME":"永康區","LI":"崑山里","LIN":"31鄰","STREET":"崑山街","SECT":" ","MAREA":" ","LANE":" ","ALLEY":" ","HOUSE_NO":"１０６號","E_COORD97":173998.57999999999,"N_COORD97":2544777.2200000002,"ADDRESS":"崑山街１０６號","OBJECTID":121249},"geometry":{"x":173998.58000000194,"y":2544777.2200000025}},{"attributes":{"ID":121250,"DIS_CODE":0,"TOWNNAME":"永康區","LI":"崑山里","LIN":"31鄰","STREET":"國光二街","SECT":" ","MAREA":" ","LANE":" ","ALLEY":" ","HOUSE_NO":"２８號","E_COORD97":174011.92999999999,"N_COORD97":2544694.5899999999,"ADDRESS":"國光二街２８號","OBJECTID":121250},"geometry":{"x":174011.9299999997,"y":2544694.589999998}},{"attributes":{"ID":121251,"DIS_CODE":0,"TOWNNAME":"仁德區","LI":"後壁里","LIN":"5鄰","STREET":"德善路","SECT":" ","MAREA":" ","LANE":" ","ALLEY":" ","HOUSE_NO":"９５號","E_COORD97":173384.06,"N_COORD97":2538877.77,"ADDRESS":"德善路９５號","OBJECTID":121251},"geometry":{"x":173384.05999999959,"y":2538877.7699999996}},{"attributes":{"ID":121252,"DIS_CODE":0,"TOWNNAME":"永康區","LI":"網寮里","LIN":"16鄰","STREET":"永勝街","SECT":" ","MAREA":" ","LANE":"２２５巷","ALLEY":"８弄","HOUSE_NO":"１８號","E_COORD97":173390.23000000001,"N_COORD97":2546740.2000000002,"ADDRESS":"永勝街２２５巷８弄１８號","OBJECTID":121252},"geometry":{"x":173390.23000000045,"y":2546740.1999999993}},{"attributes":{"ID":121253,"DIS_CODE":0,"TOWNNAME":"永康區","LI":"網寮里","LIN":"16鄰","STREET":"永勝街","SECT":" ","MAREA":" ","LANE":"２２５巷","ALLEY":"８弄","HOUSE_NO":"１３號","E_COORD97":173379.04000000001,"N_COORD97":2546741.2799999998,"ADDRESS":"永勝街２２５巷８弄１３號","OBJECTID":121253},"geometry":{"x":173379.04000000097,"y":2546741.2800000012}},{"attributes":{"ID":121254,"DIS_CODE":0,"TOWNNAME":"仁德區","LI":"仁義里","LIN":"38鄰","STREET":"仁義五街","SECT":" ","MAREA":" ","LANE":" ","ALLEY":" ","HOUSE_NO":"１４號","E_COORD97":173516.92000000001,"N_COORD97":2540427.27,"ADDRESS":"仁義五街１４號","OBJECTID":121254},"geometry":{"x":173516.92000000086,"y":2540427.2699999996}},{"attributes":{"ID":121255,"DIS_CODE":0,"TOWNNAME":"仁德區","LI":"保安里","LIN":"18鄰","STREET":"中正路","SECT":"一段","MAREA":" ","LANE":" ","ALLEY":" ","HOUSE_NO":"６１號","E_COORD97":170836.59,"N_COORD97":2535541.7799999998,"ADDRESS":"中正路一段６１號","OBJECTID":121255},"geometry":{"x":170836.58999999892,"y":2535541.7799999993}},{"attributes":{"ID":121256,"DIS_CODE":0,"TOWNNAME":"仁德區","LI":"保安里","LIN":"18鄰","STREET":"中正路","SECT":"一段","MAREA":" ","LANE":" ","ALLEY":" ","HOUSE_NO":"５７號","E_COORD97":170827.01000000001,"N_COORD97":2535542.0299999998,"ADDRESS":"中正路一段５７號","OBJECTID":121256},"geometry":{"x":170827.01000000164,"y":2535542.0300000012}},{"attributes":{"ID":121257,"DIS_CODE":0,"TOWNNAME":"仁德區","LI":"後壁里","LIN":"20鄰","STREET":"中正路","SECT":"二段","MAREA":" ","LANE":" ","ALLEY":" ","HOUSE_NO":"１１８號","E_COORD97":173190.79000000001,"N_COORD97":2538519.77,"ADDRESS":"中正路二段１１８號","OBJECTID":121257},"geometry":{"x":173190.79000000097,"y":2538519.7700000014}},{"attributes":{"ID":121258,"DIS_CODE":0,"TOWNNAME":"仁德區","LI":"後壁里","LIN":"26鄰","STREET":"民安路","SECT":"一段","MAREA":" ","LANE":" ","ALLEY":" ","HOUSE_NO":"４３０號","E_COORD97":173248.01000000001,"N_COORD97":2539303.3199999998,"ADDRESS":"民安路一段４３０號","OBJECTID":121258},"geometry":{"x":173248.01000000071,"y":2539303.3200000022}},{"attributes":{"ID":121259,"DIS_CODE":0,"TOWNNAME":"仁德區","LI":"仁德里","LIN":"4鄰","STREET":"仁中六街","SECT":" ","MAREA":" ","LANE":" ","ALLEY":" ","HOUSE_NO":"１５３號","E_COORD97":173349.76999999999,"N_COORD97":2540458.9900000002,"ADDRESS":"仁中六街１５３號","OBJECTID":121259},"geometry":{"x":173349.77000000048,"y":2540458.9900000021}},{"attributes":{"ID":121260,"DIS_CODE":0,"TOWNNAME":"永康區","LI":"網寮里","LIN":"16鄰","STREET":"永勝街","SECT":" ","MAREA":" ","LANE":"２２５巷","ALLEY":"８弄","HOUSE_NO":"１７號","E_COORD97":173383.20000000001,"N_COORD97":2546750.0299999998,"ADDRESS":"永勝街２２５巷８弄１７號","OBJECTID":121260},"geometry":{"x":173383.20000000112,"y":2546750.0300000012}},{"attributes":{"ID":121261,"DIS_CODE":0,"TOWNNAME":"永康區","LI":"網寮里","LIN":"16鄰","STREET":"永勝街","SECT":" ","MAREA":" ","LANE":"２２５巷","ALLEY":"８弄","HOUSE_NO":"６號","E_COORD97":173380.28,"N_COORD97":2546714.1899999999,"ADDRESS":"永勝街２２５巷８弄６號","OBJECTID":121261},"geometry":{"x":173380.28000000212,"y":2546714.1899999976}},{"attributes":{"ID":121262,"DIS_CODE":0,"TOWNNAME":"永康區","LI":"復興里","LIN":"16鄰","STREET":"復興路","SECT":" ","MAREA":" ","LANE":"３５６巷","ALLEY":"４１弄","HOUSE_NO":"７號","E_COORD97":172270.67000000001,"N_COORD97":2544447.2799999998,"ADDRESS":"復興路３５６巷４１弄７號","OBJECTID":121262},"geometry":{"x":172270.67000000086,"y":2544447.2799999993}},{"attributes":{"ID":121263,"DIS_CODE":0,"TOWNNAME":"永康區","LI":"復興里","LIN":"16鄰","STREET":"復興路","SECT":" ","MAREA":" ","LANE":"３５６巷","ALLEY":"４１弄","HOUSE_NO":"１２號","E_COORD97":172259.45999999999,"N_COORD97":2544426.02,"ADDRESS":"復興路３５６巷４１弄１２號","OBJECTID":121263},"geometry":{"x":172259.45999999996,"y":2544426.0199999996}},{"attributes":{"ID":121264,"DIS_CODE":0,"TOWNNAME":"永康區","LI":"復興里","LIN":"16鄰","STREET":"復興路","SECT":" ","MAREA":" ","LANE":"３５６巷","ALLEY":"４１弄","HOUSE_NO":"１４號","E_COORD97":172250.20000000001,"N_COORD97":2544407.77,"ADDRESS":"復興路３５６巷４１弄１４號","OBJECTID":121264},"geometry":{"x":172250.20000000205,"y":2544407.7699999996}},{"attributes":{"ID":121265,"DIS_CODE":0,"TOWNNAME":"永康區","LI":"網寮里","LIN":"16鄰","STREET":"永勝街","SECT":" ","MAREA":" ","LANE":"２２５巷","ALLEY":"８弄","HOUSE_NO":"１６號","E_COORD97":173387.35000000001,"N_COORD97":2546733.9500000002,"ADDRESS":"永勝街２２５巷８弄１６號","OBJECTID":121265},"geometry":{"x":173387.34999999963,"y":2546733.9500000011}},{"attributes":{"ID":121266,"DIS_CODE":0,"TOWNNAME":"永康區","LI":"網寮里","LIN":"16鄰","STREET":"永勝街","SECT":" ","MAREA":" ","LANE":"２２５巷","ALLEY":"８弄","HOUSE_NO":"８號","E_COORD97":173380.28,"N_COORD97":2546719.2000000002,"ADDRESS":"永勝街２２５巷８弄８號","OBJECTID":121266},"geometry":{"x":173380.28000000212,"y":2546719.1999999993}},{"attributes":{"ID":121267,"DIS_CODE":0,"TOWNNAME":"永康區","LI":"網寮里","LIN":"16鄰","STREET":"永二街","SECT":" ","MAREA":" ","LANE":"２４４巷","ALLEY":"４８弄","HOUSE_NO":"３號","E_COORD97":173286.29999999999,"N_COORD97":2546636.5,"ADDRESS":"永二街２４４巷４８弄３號","OBJECTID":121267},"geometry":{"x":173286.29999999981,"y":2546636.5000000019}},{"attributes":{"ID":121268,"DIS_CODE":0,"TOWNNAME":"東區","LI":"虎尾里","LIN":"16鄰","STREET":"東成街","SECT":" ","MAREA":" ","LANE":"４６巷","ALLEY":"１０弄","HOUSE_NO":"１１號","E_COORD97":171324.78,"N_COORD97":2542185.8700000001,"ADDRESS":"東成街４６巷１０弄１１號","OBJECTID":121268},"geometry":{"x":171324.78000000119,"y":2542185.8700000029}},{"attributes":{"ID":121269,"DIS_CODE":0,"TOWNNAME":"東區","LI":"虎尾里","LIN":"16鄰","STREET":"東成街","SECT":" ","MAREA":" ","LANE":"４６巷","ALLEY":"１０弄","HOUSE_NO":"１３號","E_COORD97":171323.34,"N_COORD97":2542190.7000000002,"ADDRESS":"東成街４６巷１０弄１３號","OBJECTID":121269},"geometry":{"x":171323.34000000171,"y":2542190.6999999993}},{"attributes":{"ID":121270,"DIS_CODE":0,"TOWNNAME":"東區","LI":"虎尾里","LIN":"16鄰","STREET":"東成街","SECT":" ","MAREA":" ","LANE":"４６巷","ALLEY":"１０弄","HOUSE_NO":"１號","E_COORD97":171341.14999999999,"N_COORD97":2542173.9300000002,"ADDRESS":"東成街４６巷１０弄１號","OBJECTID":121270},"geometry":{"x":171341.1500000013,"y":2542173.9300000016}},{"attributes":{"ID":121271,"DIS_CODE":0,"TOWNNAME":"東區","LI":"虎尾里","LIN":"16鄰","STREET":"東成街","SECT":" ","MAREA":" ","LANE":"４６巷","ALLEY":"１０弄","HOUSE_NO":"３號","E_COORD97":171338.06,"N_COORD97":2542176.2599999998,"ADDRESS":"東成街４６巷１０弄３號","OBJECTID":121271},"geometry":{"x":171338.05999999959,"y":2542176.2599999998}},{"attributes":{"ID":121272,"DIS_CODE":0,"TOWNNAME":"仁德區","LI":"後壁里","LIN":"5鄰","STREET":"德善路","SECT":" ","MAREA":" ","LANE":" ","ALLEY":" ","HOUSE_NO":"１０３之１號","E_COORD97":173438.92999999999,"N_COORD97":2538893.5499999998,"ADDRESS":"德善路１０３之１號","OBJECTID":121272},"geometry":{"x":173438.9299999997,"y":2538893.5500000007}},{"attributes":{"ID":121273,"DIS_CODE":0,"TOWNNAME":"仁德區","LI":"太子里","LIN":"39鄰","STREET":"太子路","SECT":" ","MAREA":" ","LANE":" ","ALLEY":" ","HOUSE_NO":"７８號","E_COORD97":175112.64413299999,"N_COORD97":2543588.1931599998,"ADDRESS":"太子路７８號","OBJECTID":121273},"geometry":{"x":175112.6441329997,"y":2543588.1931570023}},{"attributes":{"ID":121274,"DIS_CODE":0,"TOWNNAME":"麻豆區","LI":"北勢里","LIN":"9鄰","STREET":" ","SECT":" ","MAREA":"\u25A0祖\u25A0","LANE":" ","ALLEY":" ","HOUSE_NO":"７２號之１","E_COORD97":172697.85999999999,"N_COORD97":2565990.9700000002,"ADDRESS":"\u25A0祖\u25A0７２號之１","OBJECTID":121274},"geometry":{"x":172697.86000000034,"y":2565990.9700000007}},{"attributes":{"ID":121275,"DIS_CODE":0,"TOWNNAME":"麻豆區","LI":"北勢里","LIN":"9鄰","STREET":" ","SECT":" ","MAREA":"\u25A0祖\u25A0","LANE":" ","ALLEY":" ","HOUSE_NO":"７２號","E_COORD97":172638.82000000001,"N_COORD97":2565986.9700000002,"ADDRESS":"\u25A0祖\u25A0７２號","OBJECTID":121275},"geometry":{"x":172638.8200000003,"y":2565986.9700000007}},{"attributes":{"ID":121276,"DIS_CODE":0,"TOWNNAME":"東區","LI":"虎尾里","LIN":"16鄰","STREET":"東成街","SECT":" ","MAREA":" ","LANE":"４６巷","ALLEY":"１０弄","HOUSE_NO":"５號","E_COORD97":171334.41,"N_COORD97":2542178.6899999999,"ADDRESS":"東成街４６巷１０弄５號","OBJECTID":121276},"geometry":{"x":171334.41000000015,"y":2542178.6900000013}},{"attributes":{"ID":121277,"DIS_CODE":0,"TOWNNAME":"東區","LI":"虎尾里","LIN":"16鄰","STREET":"東成街","SECT":" ","MAREA":" ","LANE":"４６巷","ALLEY":"１０弄","HOUSE_NO":"７號","E_COORD97":171331.53,"N_COORD97":2542181.4500000002,"ADDRESS":"東成街４６巷１０弄７號","OBJECTID":121277},"geometry":{"x":171331.53000000119,"y":2542181.4499999993}},{"attributes":{"ID":121278,"DIS_CODE":0,"TOWNNAME":"東區","LI":"虎尾里","LIN":"16鄰","STREET":"東成街","SECT":" ","MAREA":" ","LANE":"４６巷","ALLEY":"１０弄","HOUSE_NO":"９號","E_COORD97":171328.42999999999,"N_COORD97":2542183.3300000001,"ADDRESS":"東成街４６巷１０弄９號","OBJECTID":121278},"geometry":{"x":171328.4299999997,"y":2542183.3300000001}},{"attributes":{"ID":121279,"DIS_CODE":0,"TOWNNAME":"永康區","LI":"永康里","LIN":"16鄰","STREET":"永中街","SECT":" ","MAREA":" ","LANE":"１１８巷","ALLEY":"８弄","HOUSE_NO":"７號","E_COORD97":173976.63,"N_COORD97":2547208.9900000002,"ADDRESS":"永中街１１８巷８弄７號","OBJECTID":121279},"geometry":{"x":173976.63000000082,"y":2547208.9900000021}},{"attributes":{"ID":121280,"DIS_CODE":0,"TOWNNAME":"中西區","LI":"大涼里","LIN":"16鄰","STREET":"府前一街","SECT":" ","MAREA":" ","LANE":"９巷","ALLEY":"１２弄","HOUSE_NO":"７６號","E_COORD97":166731.42000000001,"N_COORD97":2543887.71,"ADDRESS":"府前一街９巷１２弄７６號","OBJECTID":121280},"geometry":{"x":166731.41999999993,"y":2543887.7100000009}},{"attributes":{"ID":121281,"DIS_CODE":0,"TOWNNAME":"永康區","LI":"中華里","LIN":"16鄰","STREET":"小東路","SECT":" ","MAREA":" ","LANE":"４７７巷","ALLEY":"２８弄","HOUSE_NO":"２號","E_COORD97":171641.85999999999,"N_COORD97":2544419.4199999999,"ADDRESS":"小東路４７７巷２８弄２號","OBJECTID":121281},"geometry":{"x":171641.86000000034,"y":2544419.4200000018}},{"attributes":{"ID":121282,"DIS_CODE":0,"TOWNNAME":"永康區","LI":"崑山里","LIN":"16鄰","STREET":"大灣路","SECT":" ","MAREA":" ","LANE":"９４２巷","ALLEY":"７１弄","HOUSE_NO":"８１號","E_COORD97":173601.14000000001,"N_COORD97":2544576.25,"ADDRESS":"大灣路９４２巷７１弄８１號","OBJECTID":121282},"geometry":{"x":173601.14000000153,"y":2544576.2500000019}},{"attributes":{"ID":121283,"DIS_CODE":0,"TOWNNAME":"安南區","LI":"安東里","LIN":"16鄰","STREET":"安和路","SECT":"一段","MAREA":" ","LANE":"４７８巷","ALLEY":"３８弄","HOUSE_NO":"２號地下一層","E_COORD97":169514.79000000001,"N_COORD97":2548366.6499999999,"ADDRESS":"安和路一段４７８巷３８弄２號地下一層","OBJECTID":121283},"geometry":{"x":169514.79000000004,"y":2548366.6500000041}},{"attributes":{"ID":121284,"DIS_CODE":0,"TOWNNAME":"安南區","LI":"安東里","LIN":"16鄰","STREET":"安和路","SECT":"一段","MAREA":" ","LANE":"４７８巷","ALLEY":"３８弄","HOUSE_NO":"３１號","E_COORD97":169451.5,"N_COORD97":2548342.6800000002,"ADDRESS":"安和路一段４７８巷３８弄３１號","OBJECTID":121284},"geometry":{"x":169451.50000000093,"y":2548342.6800000016}},{"attributes":{"ID":121285,"DIS_CODE":0,"TOWNNAME":"安南區","LI":"安東里","LIN":"16鄰","STREET":"安和路","SECT":"一段","MAREA":" ","LANE":"４７８巷","ALLEY":"３８弄","HOUSE_NO":"３３號","E_COORD97":169445.20999999999,"N_COORD97":2548342.54,"ADDRESS":"安和路一段４７８巷３８弄３３號","OBJECTID":121285},"geometry":{"x":169445.20999999996,"y":2548342.5400000028}},{"attributes":{"ID":121286,"DIS_CODE":0,"TOWNNAME":"安南區","LI":"安東里","LIN":"16鄰","STREET":"安和路","SECT":"一段","MAREA":" ","LANE":"４７８巷","ALLEY":"３８弄","HOUSE_NO":"３號","E_COORD97":169530.72,"N_COORD97":2548340.7200000002,"ADDRESS":"安和路一段４７８巷３８弄３號","OBJECTID":121286},"geometry":{"x":169530.72000000067,"y":2548340.7200000025}},{"attributes":{"ID":121287,"DIS_CODE":0,"TOWNNAME":"安南區","LI":"安東里","LIN":"16鄰","STREET":"安和路","SECT":"一段","MAREA":" ","LANE":"４７８巷","ALLEY":"３８弄","HOUSE_NO":"４號","E_COORD97":169504.87,"N_COORD97":2548366.6499999999,"ADDRESS":"安和路一段４７８巷３８弄４號","OBJECTID":121287},"geometry":{"x":169504.87000000104,"y":2548366.6500000041}},{"attributes":{"ID":121288,"DIS_CODE":0,"TOWNNAME":"安南區","LI":"安東里","LIN":"16鄰","STREET":"安和路","SECT":"一段","MAREA":" ","LANE":"４７８巷","ALLEY":"３８弄","HOUSE_NO":"５號","E_COORD97":169525.41,"N_COORD97":2548340.8599999999,"ADDRESS":"安和路一段４７８巷３８弄５號","OBJECTID":121288},"geometry":{"x":169525.41000000015,"y":2548340.8600000013}},{"attributes":{"ID":121289,"DIS_CODE":0,"TOWNNAME":"安南區","LI":"安東里","LIN":"16鄰","STREET":"安和路","SECT":"一段","MAREA":" ","LANE":"４７８巷","ALLEY":"３８弄","HOUSE_NO":"６號","E_COORD97":169499.56,"N_COORD97":2548366.9199999999,"ADDRESS":"安和路一段４７８巷３８弄６號","OBJECTID":121289},"geometry":{"x":169499.56000000052,"y":2548366.9199999999}},{"attributes":{"ID":121290,"DIS_CODE":0,"TOWNNAME":"永康區","LI":"埔園里","LIN":"31鄰","STREET":"八德街","SECT":" ","MAREA":" ","LANE":" ","ALLEY":" ","HOUSE_NO":"１４２號","E_COORD97":173977.56,"N_COORD97":2548551.7599999998,"ADDRESS":"八德街１４２號","OBJECTID":121290},"geometry":{"x":173977.55999999959,"y":2548551.7600000035}},{"attributes":{"ID":121291,"DIS_CODE":0,"TOWNNAME":"永康區","LI":"埔園里","LIN":"31鄰","STREET":"八德街","SECT":" ","MAREA":" ","LANE":" ","ALLEY":" ","HOUSE_NO":"１４６號","E_COORD97":173973.48000000001,"N_COORD97":2548552.6699999999,"ADDRESS":"八德街１４６號","OBJECTID":121291},"geometry":{"x":173973.48000000045,"y":2548552.6700000037}},{"attributes":{"ID":121292,"DIS_CODE":0,"TOWNNAME":"永康區","LI":"埔園里","LIN":"31鄰","STREET":"八德街","SECT":" ","MAREA":" ","LANE":" ","ALLEY":" ","HOUSE_NO":"１５０號","E_COORD97":173968.98000000001,"N_COORD97":2548553.25,"ADDRESS":"八德街１５０號","OBJECTID":121292},"geometry":{"x":173968.97999999952,"y":2548553.2500000019}},{"attributes":{"ID":121293,"DIS_CODE":0,"TOWNNAME":"永康區","LI":"埔園里","LIN":"31鄰","STREET":"八德街","SECT":" ","MAREA":" ","LANE":" ","ALLEY":" ","HOUSE_NO":"１５２號","E_COORD97":173964.07000000001,"N_COORD97":2548553.6099999999,"ADDRESS":"八德街１５２號","OBJECTID":121293},"geometry":{"x":173964.07000000123,"y":2548553.6100000013}},{"attributes":{"ID":121294,"DIS_CODE":0,"TOWNNAME":"永康區","LI":"埔園里","LIN":"31鄰","STREET":"八德街","SECT":" ","MAREA":" ","LANE":" ","ALLEY":" ","HOUSE_NO":"１５６號","E_COORD97":173959.48000000001,"N_COORD97":2548554.1699999999,"ADDRESS":"八德街１５６號","OBJECTID":121294},"geometry":{"x":173959.48000000138,"y":2548554.1700000018}},{"attributes":{"ID":121295,"DIS_CODE":0,"TOWNNAME":"永康區","LI":"埔園里","LIN":"31鄰","STREET":"八德街","SECT":" ","MAREA":" ","LANE":" ","ALLEY":" ","HOUSE_NO":"１５８號","E_COORD97":173955.10999999999,"N_COORD97":2548554.6400000001,"ADDRESS":"八德街１５８號","OBJECTID":121295},"geometry":{"x":173955.11000000127,"y":2548554.6400000025}},{"attributes":{"ID":121296,"DIS_CODE":0,"TOWNNAME":"永康區","LI":"埔園里","LIN":"31鄰","STREET":"八德街","SECT":" ","MAREA":" ","LANE":" ","ALLEY":" ","HOUSE_NO":"１６０號","E_COORD97":173950.39999999999,"N_COORD97":2548554.8999999999,"ADDRESS":"八德街１６０號","OBJECTID":121296},"geometry":{"x":173950.40000000037,"y":2548554.9000000041}},{"attributes":{"ID":121297,"DIS_CODE":0,"TOWNNAME":"永康區","LI":"埔園里","LIN":"31鄰","STREET":"八德街","SECT":" ","MAREA":" ","LANE":" ","ALLEY":" ","HOUSE_NO":"１６２號","E_COORD97":173945.47,"N_COORD97":2548555.5099999998,"ADDRESS":"八德街１６２號","OBJECTID":121297},"geometry":{"x":173945.47000000067,"y":2548555.5099999998}},{"attributes":{"ID":121298,"DIS_CODE":0,"TOWNNAME":"仁德區","LI":"上崙里","LIN":"18鄰","STREET":"德崙路","SECT":" ","MAREA":" ","LANE":" ","ALLEY":" ","HOUSE_NO":"３３６號","E_COORD97":173936.70000000001,"N_COORD97":2538111.5099999998,"ADDRESS":"德崙路３３６號","OBJECTID":121298},"geometry":{"x":173936.69999999925,"y":2538111.5100000016}},{"attributes":{"ID":121299,"DIS_CODE":0,"TOWNNAME":"仁德區","LI":"上崙里","LIN":"18鄰","STREET":"德崙路","SECT":" ","MAREA":" ","LANE":" ","ALLEY":" ","HOUSE_NO":"３３０號","E_COORD97":173924.29000000001,"N_COORD97":2538111.5099999998,"ADDRESS":"德崙路３３０號","OBJECTID":121299},"geometry":{"x":173924.2900000019,"y":2538111.5100000016}},{"attributes":{"ID":121300,"DIS_CODE":0,"TOWNNAME":"仁德區","LI":"一甲里","LIN":"20鄰","STREET":"太乙五街","SECT":" ","MAREA":" ","LANE":" ","ALLEY":" ","HOUSE_NO":"３１號","E_COORD97":173234.12,"N_COORD97":2542122.5,"ADDRESS":"太乙五街３１號","OBJECTID":121300},"geometry":{"x":173234.12000000104,"y":2542122.5000000037}},{"attributes":{"ID":121301,"DIS_CODE":0,"TOWNNAME":"麻豆區","LI":"北勢里","LIN":"9鄰","STREET":" ","SECT":" ","MAREA":"\u25A0祖\u25A0","LANE":" ","ALLEY":" ","HOUSE_NO":"７３號","E_COORD97":172621.45999999999,"N_COORD97":2566096.4300000002,"ADDRESS":"\u25A0祖\u25A0７３號","OBJECTID":121301},"geometry":{"x":172621.46000000089,"y":2566096.4300000016}},{"attributes":{"ID":121302,"DIS_CODE":0,"TOWNNAME":"麻豆區","LI":"北勢里","LIN":"9鄰","STREET":" ","SECT":" ","MAREA":"\u25A0祖\u25A0","LANE":" ","ALLEY":" ","HOUSE_NO":"７４號","E_COORD97":172636.45999999999,"N_COORD97":2566068.3799999999,"ADDRESS":"\u25A0祖\u25A0７４號","OBJECTID":121302},"geometry":{"x":172636.46000000089,"y":2566068.3800000027}},{"attributes":{"ID":121303,"DIS_CODE":0,"TOWNNAME":"麻豆區","LI":"北勢里","LIN":"9鄰","STREET":" ","SECT":" ","MAREA":"\u25A0祖\u25A0","LANE":" ","ALLEY":" ","HOUSE_NO":"７５號","E_COORD97":172616.32999999999,"N_COORD97":2566083.7599999998,"ADDRESS":"\u25A0祖\u25A0７５號","OBJECTID":121303},"geometry":{"x":172616.33000000007,"y":2566083.7600000016}},{"attributes":{"ID":121304,"DIS_CODE":0,"TOWNNAME":"麻豆區","LI":"北勢里","LIN":"9鄰","STREET":" ","SECT":" ","MAREA":"\u25A0祖\u25A0","LANE":" ","ALLEY":" ","HOUSE_NO":"７６號","E_COORD97":172603.01000000001,"N_COORD97":2566067.5899999999,"ADDRESS":"\u25A0祖\u25A0７６號","OBJECTID":121304},"geometry":{"x":172603.00999999978,"y":2566067.5900000036}},{"attributes":{"ID":121305,"DIS_CODE":0,"TOWNNAME":"麻豆區","LI":"北勢里","LIN":"9鄰","STREET":" ","SECT":" ","MAREA":"\u25A0祖\u25A0","LANE":" ","ALLEY":" ","HOUSE_NO":"７７號","E_COORD97":172345.22,"N_COORD97":2566400.5499999998,"ADDRESS":"\u25A0祖\u25A0７７號","OBJECTID":121305},"geometry":{"x":172345.22000000067,"y":2566400.5500000007}},{"attributes":{"ID":121306,"DIS_CODE":0,"TOWNNAME":"麻豆區","LI":"總榮里","LIN":"3鄰","STREET":" ","SECT":" ","MAREA":"總爺\u25A0","LANE":" ","ALLEY":" ","HOUSE_NO":"２１號之２","E_COORD97":175141.84,"N_COORD97":2564528.3599999999,"ADDRESS":"總爺\u25A0２１號之２","OBJECTID":121306},"geometry":{"x":175141.83999999985,"y":2564528.3599999994}},{"attributes":{"ID":121307,"DIS_CODE":0,"TOWNNAME":"麻豆區","LI":"總榮里","LIN":"3鄰","STREET":" ","SECT":" ","MAREA":"總爺\u25A0","LANE":" ","ALLEY":" ","HOUSE_NO":"２１號","E_COORD97":175144.92999999999,"N_COORD97":2564508.7200000002,"ADDRESS":"總爺\u25A0２１號","OBJECTID":121307},"geometry":{"x":175144.9299999997,"y":2564508.7200000025}},{"attributes":{"ID":121308,"DIS_CODE":0,"TOWNNAME":"安南區","LI":"安東里","LIN":"16鄰","STREET":"安和路","SECT":"一段","MAREA":" ","LANE":"４７８巷","ALLEY":"３８弄","HOUSE_NO":"７號","E_COORD97":169520.38,"N_COORD97":2548340.5800000001,"ADDRESS":"安和路一段４７８巷３８弄７號","OBJECTID":121308},"geometry":{"x":169520.37999999989,"y":2548340.5800000019}},{"attributes":{"ID":121309,"DIS_CODE":0,"TOWNNAME":"安南區","LI":"安東里","LIN":"16鄰","STREET":"安和路","SECT":"一段","MAREA":" ","LANE":"４７８巷","ALLEY":"３８弄","HOUSE_NO":"８號","E_COORD97":169494.95000000001,"N_COORD97":2548367.0600000001,"ADDRESS":"安和路一段４７８巷３８弄８號","OBJECTID":121309},"geometry":{"x":169494.95000000019,"y":2548367.0600000005}},{"attributes":{"ID":121310,"DIS_CODE":0,"TOWNNAME":"安南區","LI":"安東里","LIN":"16鄰","STREET":"安和路","SECT":"一段","MAREA":" ","LANE":"４７８巷","ALLEY":"３８弄","HOUSE_NO":"９號","E_COORD97":169515.63,"N_COORD97":2548340.7200000002,"ADDRESS":"安和路一段４７８巷３８弄９號","OBJECTID":121310},"geometry":{"x":169515.62999999989,"y":2548340.7200000025}},{"attributes":{"ID":121311,"DIS_CODE":0,"TOWNNAME":"永康區","LI":"中華里","LIN":"16鄰","STREET":"小東路","SECT":" ","MAREA":" ","LANE":"４７７巷","ALLEY":"２８弄","HOUSE_NO":"２４號","E_COORD97":171690.89999999999,"N_COORD97":2544420.3500000001,"ADDRESS":"小東路４７７巷２８弄２４號","OBJECTID":121311},"geometry":{"x":171690.90000000037,"y":2544420.3499999996}},{"attributes":{"ID":121312,"DIS_CODE":0,"TOWNNAME":"永康區","LI":"中華里","LIN":"16鄰","STREET":"小東路","SECT":" ","MAREA":" ","LANE":"４７７巷","ALLEY":"２８弄","HOUSE_NO":"１２號","E_COORD97":171664.39999999999,"N_COORD97":2544419.21,"ADDRESS":"小東路４７７巷２８弄１２號","OBJECTID":121312},"geometry":{"x":171664.4000000013,"y":2544419.2100000009}},{"attributes":{"ID":121313,"DIS_CODE":0,"TOWNNAME":"永康區","LI":"網寮里","LIN":"16鄰","STREET":"永勝街","SECT":" ","MAREA":" ","LANE":"２２５巷","ALLEY":"８弄","HOUSE_NO":"３號","E_COORD97":173367.88,"N_COORD97":2546720.0299999998,"ADDRESS":"永勝街２２５巷８弄３號","OBJECTID":121313},"geometry":{"x":173367.88000000082,"y":2546720.0300000012}},{"attributes":{"ID":121314,"DIS_CODE":0,"TOWNNAME":"永康區","LI":"正強里","LIN":"16鄰","STREET":"自強路","SECT":" ","MAREA":" ","LANE":"１８８巷","ALLEY":"２弄","HOUSE_NO":"１０號","E_COORD97":173163.53,"N_COORD97":2547470.46,"ADDRESS":"自強路１８８巷２弄１０號","OBJECTID":121314},"geometry":{"x":173163.53000000119,"y":2547470.4600000028}},{"attributes":{"ID":121315,"DIS_CODE":0,"TOWNNAME":"永康區","LI":"安康里","LIN":"16鄰","STREET":"中華路","SECT":" ","MAREA":" ","LANE":"６１９巷","ALLEY":"２２弄","HOUSE_NO":"１９號","E_COORD97":170958.12,"N_COORD97":2546145.7400000002,"ADDRESS":"中華路６１９巷２２弄１９號","OBJECTID":121315},"geometry":{"x":170958.12000000011,"y":2546145.7400000021}},{"attributes":{"ID":121316,"DIS_CODE":0,"TOWNNAME":"歸仁區","LI":"看東里","LIN":"16鄰","STREET":"成功路","SECT":"一段","MAREA":" ","LANE":"２７巷","ALLEY":"６０弄","HOUSE_NO":"１３５號","E_COORD97":179003.23000000001,"N_COORD97":2539555.25,"ADDRESS":"成功路一段２７巷６０弄１３５號","OBJECTID":121316},"geometry":{"x":179003.23000000045,"y":2539555.2500000019}},{"attributes":{"ID":121317,"DIS_CODE":0,"TOWNNAME":"北區","LI":"賢北里","LIN":"16鄰","STREET":"和緯路","SECT":"五段","MAREA":" ","LANE":"２３４巷","ALLEY":"４弄","HOUSE_NO":"１１號","E_COORD97":166079.87,"N_COORD97":2545178.6000000001,"ADDRESS":"和緯路五段２３４巷４弄１１號","OBJECTID":121317},"geometry":{"x":166079.87000000011,"y":2545178.5999999996}},{"attributes":{"ID":121318,"DIS_CODE":0,"TOWNNAME":"北區","LI":"賢北里","LIN":"16鄰","STREET":"和緯路","SECT":"五段","MAREA":" ","LANE":"２３４巷","ALLEY":"４弄","HOUSE_NO":"１３號","E_COORD97":166078.64999999999,"N_COORD97":2545183.2799999998,"ADDRESS":"和緯路五段２３４巷４弄１３號","OBJECTID":121318},"geometry":{"x":166078.6500000013,"y":2545183.2799999993}},{"attributes":{"ID":121319,"DIS_CODE":0,"TOWNNAME":"北區","LI":"賢北里","LIN":"16鄰","STREET":"和緯路","SECT":"五段","MAREA":" ","LANE":"２３４巷","ALLEY":"４弄","HOUSE_NO":"１５號","E_COORD97":166077.01999999999,"N_COORD97":2545187.3500000001,"ADDRESS":"和緯路五段２３４巷４弄１５號","OBJECTID":121319},"geometry":{"x":166077.02000000048,"y":2545187.3499999996}},{"attributes":{"ID":121320,"DIS_CODE":0,"TOWNNAME":"北區","LI":"賢北里","LIN":"16鄰","STREET":"和緯路","SECT":"五段","MAREA":" ","LANE":"２３４巷","ALLEY":"４弄","HOUSE_NO":"１７號","E_COORD97":166075.39000000001,"N_COORD97":2545192.02,"ADDRESS":"和緯路五段２３４巷４弄１７號","OBJECTID":121320},"geometry":{"x":166075.38999999966,"y":2545192.0199999996}},{"attributes":{"ID":121321,"DIS_CODE":0,"TOWNNAME":"北區","LI":"賢北里","LIN":"16鄰","STREET":"和緯路","SECT":"五段","MAREA":" ","LANE":"２３４巷","ALLEY":"４弄","HOUSE_NO":"１９號","E_COORD97":166073.56,"N_COORD97":2545197.3100000001,"ADDRESS":"和緯路五段２３４巷４弄１９號","OBJECTID":121321},"geometry":{"x":166073.56000000052,"y":2545197.3100000024}},{"attributes":{"ID":121322,"DIS_CODE":0,"TOWNNAME":"北區","LI":"賢北里","LIN":"16鄰","STREET":"和緯路","SECT":"五段","MAREA":" ","LANE":"２３４巷","ALLEY":"４弄","HOUSE_NO":"１號","E_COORD97":166090.13,"N_COORD97":2545155.9100000001,"ADDRESS":"和緯路五段２３４巷４弄１號","OBJECTID":121322},"geometry":{"x":166090.13000000082,"y":2545155.9100000001}},{"attributes":{"ID":121323,"DIS_CODE":0,"TOWNNAME":"北區","LI":"賢北里","LIN":"16鄰","STREET":"和緯路","SECT":"五段","MAREA":" ","LANE":"２３４巷","ALLEY":"４弄","HOUSE_NO":"２１號","E_COORD97":166071.10000000001,"N_COORD97":2545201.2599999998,"ADDRESS":"和緯路五段２３４巷４弄２１號","OBJECTID":121323},"geometry":{"x":166071.0999999987,"y":2545201.2599999998}},{"attributes":{"ID":121324,"DIS_CODE":0,"TOWNNAME":"新營區","LI":"忠政里","LIN":"16鄰","STREET":"府西路","SECT":" ","MAREA":" ","LANE":"２５７巷","ALLEY":"４０弄","HOUSE_NO":"５號","E_COORD97":179695.04999999999,"N_COORD97":2579698.2200000002,"ADDRESS":"府西路２５７巷４０弄５號","OBJECTID":121324},"geometry":{"x":179695.05000000075,"y":2579698.2200000025}},{"attributes":{"ID":121325,"DIS_CODE":0,"TOWNNAME":"安平區","LI":"國平里","LIN":"16鄰","STREET":"華平路","SECT":" ","MAREA":" ","LANE":"２１巷","ALLEY":"３２弄","HOUSE_NO":"１０號","E_COORD97":165224.45999999999,"N_COORD97":2542836.25,"ADDRESS":"華平路２１巷３２弄１０號","OBJECTID":121325},"geometry":{"x":165224.45999999996,"y":2542836.2500000019}},{"attributes":{"ID":121326,"DIS_CODE":0,"TOWNNAME":"安平區","LI":"國平里","LIN":"16鄰","STREET":"華平路","SECT":" ","MAREA":" ","LANE":"２１巷","ALLEY":"３２弄","HOUSE_NO":"２２號","E_COORD97":165232.16,"N_COORD97":2542877.79,"ADDRESS":"華平路２１巷３２弄２２號","OBJECTID":121326},"geometry":{"x":165232.15999999922,"y":2542877.7899999991}},{"attributes":{"ID":121327,"DIS_CODE":0,"TOWNNAME":"安平區","LI":"國平里","LIN":"16鄰","STREET":"華平路","SECT":" ","MAREA":" ","LANE":"２１巷","ALLEY":"３２弄","HOUSE_NO":"２２號之１","E_COORD97":165239.64000000001,"N_COORD97":2542876.5800000001,"ADDRESS":"華平路２１巷３２弄２２號之１","OBJECTID":121327},"geometry":{"x":165239.63999999966,"y":2542876.5800000001}},{"attributes":{"ID":121328,"DIS_CODE":0,"TOWNNAME":"安平區","LI":"國平里","LIN":"16鄰","STREET":"華平路","SECT":" ","MAREA":" ","LANE":"２１巷","ALLEY":"３２弄","HOUSE_NO":"２２號之２","E_COORD97":165241.45999999999,"N_COORD97":2542883.4399999999,"ADDRESS":"華平路２１巷３２弄２２號之２","OBJECTID":121328},"geometry":{"x":165241.45999999996,"y":2542883.4399999995}},{"attributes":{"ID":121329,"DIS_CODE":0,"TOWNNAME":"安平區","LI":"國平里","LIN":"16鄰","STREET":"華平路","SECT":" ","MAREA":" ","LANE":"２１巷","ALLEY":"３２弄","HOUSE_NO":"２２號之３","E_COORD97":165243.28,"N_COORD97":2542891.5099999998,"ADDRESS":"華平路２１巷３２弄２２號之３","OBJECTID":121329},"geometry":{"x":165243.27999999933,"y":2542891.5100000035}},{"attributes":{"ID":121330,"DIS_CODE":0,"TOWNNAME":"安平區","LI":"國平里","LIN":"16鄰","STREET":"華平路","SECT":" ","MAREA":" ","LANE":"２１巷","ALLEY":"３２弄","HOUSE_NO":"２２號之４","E_COORD97":165243.69,"N_COORD97":2542898.0299999998,"ADDRESS":"華平路２１巷３２弄２２號之４","OBJECTID":121330},"geometry":{"x":165243.69000000041,"y":2542898.0300000012}},{"attributes":{"ID":121331,"DIS_CODE":0,"TOWNNAME":"永康區","LI":"埔園里","LIN":"31鄰","STREET":"永大路","SECT":"三段","MAREA":" ","LANE":"４６９巷","ALLEY":" ","HOUSE_NO":"３２號","E_COORD97":173938.97,"N_COORD97":2548773.4100000001,"ADDRESS":"永大路三段４６９巷３２號","OBJECTID":121331},"geometry":{"x":173938.96999999974,"y":2548773.4100000001}},{"attributes":{"ID":121332,"DIS_CODE":0,"TOWNNAME":"永康區","LI":"五王里","LIN":"24鄰","STREET":"成功路","SECT":" ","MAREA":" ","LANE":" ","ALLEY":" ","HOUSE_NO":"２５８號五樓之５","E_COORD97":171313.89000000001,"N_COORD97":2545846.04,"ADDRESS":"成功路２５８號五樓之５","OBJECTID":121332},"geometry":{"x":171313.88999999966,"y":2545846.0399999991}},{"attributes":{"ID":121333,"DIS_CODE":0,"TOWNNAME":"永康區","LI":"五王里","LIN":"24鄰","STREET":"成功路","SECT":" ","MAREA":" ","LANE":" ","ALLEY":" ","HOUSE_NO":"２５８號五樓之１４","E_COORD97":171315.01000000001,"N_COORD97":2545846.04,"ADDRESS":"成功路２５８號五樓之１４","OBJECTID":121333},"geometry":{"x":171315.00999999978,"y":2545846.0399999991}},{"attributes":{"ID":121334,"DIS_CODE":0,"TOWNNAME":"永康區","LI":"五王里","LIN":"24鄰","STREET":"成功路","SECT":" ","MAREA":" ","LANE":" ","ALLEY":" ","HOUSE_NO":"２５８號四樓之４","E_COORD97":171313.76000000001,"N_COORD97":2545846.04,"ADDRESS":"成功路２５８號四樓之４","OBJECTID":121334},"geometry":{"x":171313.76000000071,"y":2545846.0399999991}},{"attributes":{"ID":121335,"DIS_CODE":0,"TOWNNAME":"永康區","LI":"五王里","LIN":"24鄰","STREET":"成功路","SECT":" ","MAREA":" ","LANE":" ","ALLEY":" ","HOUSE_NO":"２５８號六樓之８","E_COORD97":171313.88,"N_COORD97":2545846.04,"ADDRESS":"成功路２５８號六樓之８","OBJECTID":121335},"geometry":{"x":171313.87999999989,"y":2545846.0399999991}},{"attributes":{"ID":121336,"DIS_CODE":0,"TOWNNAME":"永康區","LI":"五王里","LIN":"24鄰","STREET":"成功路","SECT":" ","MAREA":" ","LANE":" ","ALLEY":" ","HOUSE_NO":"２５８號五樓之８","E_COORD97":171313.88,"N_COORD97":2545846.04,"ADDRESS":"成功路２５８號五樓之８","OBJECTID":121336},"geometry":{"x":171313.87999999989,"y":2545846.0399999991}},{"attributes":{"ID":121337,"DIS_CODE":0,"TOWNNAME":"關廟區","LI":"東勢里","LIN":"15鄰","STREET":"東興路","SECT":" ","MAREA":" ","LANE":" ","ALLEY":" ","HOUSE_NO":"１９６號","E_COORD97":181631.07000000001,"N_COORD97":2539553.25,"ADDRESS":"東興路１９６號","OBJECTID":121337},"geometry":{"x":181631.07000000123,"y":2539553.25}},{"attributes":{"ID":121338,"DIS_CODE":0,"TOWNNAME":"永康區","LI":"\u25A0行里","LIN":"31鄰","STREET":"仁愛街","SECT":" ","MAREA":" ","LANE":" ","ALLEY":" ","HOUSE_NO":"４８之１號","E_COORD97":171952.42000000001,"N_COORD97":2549206.73,"ADDRESS":"仁愛街４８之１號","OBJECTID":121338},"geometry":{"x":171952.42000000086,"y":2549206.7300000004}},{"attributes":{"ID":121339,"DIS_CODE":0,"TOWNNAME":"永康區","LI":"埔園里","LIN":"31鄰","STREET":"中山路","SECT":" ","MAREA":" ","LANE":" ","ALLEY":" ","HOUSE_NO":"５００號","E_COORD97":173554.89000000001,"N_COORD97":2548644.4900000002,"ADDRESS":"中山路５００號","OBJECTID":121339},"geometry":{"x":173554.88999999966,"y":2548644.4900000002}},{"attributes":{"ID":121340,"DIS_CODE":0,"TOWNNAME":"永康區","LI":"尚頂里","LIN":"31鄰","STREET":"中正南路","SECT":" ","MAREA":" ","LANE":" ","ALLEY":" ","HOUSE_NO":"３２７號之２","E_COORD97":170377.75,"N_COORD97":2547636.1099999999,"ADDRESS":"中正南路３２７號之２","OBJECTID":121340},"geometry":{"x":170377.75,"y":2547636.1099999994}},{"attributes":{"ID":121341,"DIS_CODE":0,"TOWNNAME":"安平區","LI":"國平里","LIN":"16鄰","STREET":"華平路","SECT":" ","MAREA":" ","LANE":"２１巷","ALLEY":"３２弄","HOUSE_NO":"４０號","E_COORD97":165241.07000000001,"N_COORD97":2542915.79,"ADDRESS":"華平路２１巷３２弄４０號","OBJECTID":121341},"geometry":{"x":165241.0700000003,"y":2542915.7899999991}},{"attributes":{"ID":121342,"DIS_CODE":0,"TOWNNAME":"安平區","LI":"國平里","LIN":"16鄰","STREET":"華平路","SECT":" ","MAREA":" ","LANE":"２１巷","ALLEY":"３２弄","HOUSE_NO":"８號","E_COORD97":165222.23999999999,"N_COORD97":2542826.77,"ADDRESS":"華平路２１巷３２弄８號","OBJECTID":121342},"geometry":{"x":165222.24000000115,"y":2542826.7700000014}},{"attributes":{"ID":121343,"DIS_CODE":0,"TOWNNAME":"歸仁區","LI":"七甲里","LIN":"16鄰","STREET":"南潭二街","SECT":" ","MAREA":" ","LANE":"１３０巷","ALLEY":"７弄","HOUSE_NO":"６號","E_COORD97":176453.48000000001,"N_COORD97":2542934.02,"ADDRESS":"南潭二街１３０巷７弄６號","OBJECTID":121343},"geometry":{"x":176453.48000000045,"y":2542934.0199999996}},{"attributes":{"ID":121344,"DIS_CODE":0,"TOWNNAME":"北區","LI":"六甲里","LIN":"16鄰","STREET":"西門路","SECT":"四段","MAREA":" ","LANE":"３１６巷","ALLEY":"６弄","HOUSE_NO":"１１號","E_COORD97":169015.16,"N_COORD97":2545924.3999999999,"ADDRESS":"西門路四段３１６巷６弄１１號","OBJECTID":121344},"geometry":{"x":169015.16000000015,"y":2545924.4000000022}},{"attributes":{"ID":121345,"DIS_CODE":0,"TOWNNAME":"北門區","LI":"玉港里","LIN":"14鄰","STREET":" ","SECT":" ","MAREA":"西埔內","LANE":" ","ALLEY":" ","HOUSE_NO":"５號","E_COORD97":162178.76000000001,"N_COORD97":2573865.6499999999,"ADDRESS":"西埔內５號","OBJECTID":121345},"geometry":{"x":162178.76000000071,"y":2573865.6500000041}},{"attributes":{"ID":121346,"DIS_CODE":0,"TOWNNAME":"歸仁區","LI":"七甲里","LIN":"16鄰","STREET":"南潭二街","SECT":" ","MAREA":" ","LANE":"１３０巷","ALLEY":"７弄","HOUSE_NO":"２７號","E_COORD97":176508.13,"N_COORD97":2542947.0299999998,"ADDRESS":"南潭二街１３０巷７弄２７號","OBJECTID":121346},"geometry":{"x":176508.12999999989,"y":2542947.0299999993}},{"attributes":{"ID":121347,"DIS_CODE":0,"TOWNNAME":"南區","LI":"南都里","LIN":"16鄰","STREET":"中華南路","SECT":"二段","MAREA":" ","LANE":"３１５巷","ALLEY":"５弄","HOUSE_NO":"１０號","E_COORD97":166514.79999999999,"N_COORD97":2540115.1499999999,"ADDRESS":"中華南路二段３１５巷５弄１０號","OBJECTID":121347},"geometry":{"x":166514.80000000075,"y":2540115.1500000022}},{"attributes":{"ID":121348,"DIS_CODE":0,"TOWNNAME":"南區","LI":"南都里","LIN":"16鄰","STREET":"中華南路","SECT":"二段","MAREA":" ","LANE":"３１５巷","ALLEY":"５弄","HOUSE_NO":"１２號","E_COORD97":166522.47,"N_COORD97":2540115.1499999999,"ADDRESS":"中華南路二段３１５巷５弄１２號","OBJECTID":121348},"geometry":{"x":166522.46999999974,"y":2540115.1500000022}},{"attributes":{"ID":121349,"DIS_CODE":0,"TOWNNAME":"南區","LI":"南都里","LIN":"16鄰","STREET":"中華南路","SECT":"二段","MAREA":" ","LANE":"３１５巷","ALLEY":"５弄","HOUSE_NO":"２號","E_COORD97":166501.20999999999,"N_COORD97":2540134.9399999999,"ADDRESS":"中華南路二段３１５巷５弄２號","OBJECTID":121349},"geometry":{"x":166501.20999999996,"y":2540134.9399999995}},{"attributes":{"ID":121350,"DIS_CODE":0,"TOWNNAME":"南區","LI":"南都里","LIN":"16鄰","STREET":"中華南路","SECT":"二段","MAREA":" ","LANE":"３１５巷","ALLEY":"５弄","HOUSE_NO":"４號","E_COORD97":166508.17999999999,"N_COORD97":2540134.9399999999,"ADDRESS":"中華南路二段３１５巷５弄４號","OBJECTID":121350},"geometry":{"x":166508.18000000156,"y":2540134.9399999995}},{"attributes":{"ID":121351,"DIS_CODE":0,"TOWNNAME":"南區","LI":"南都里","LIN":"16鄰","STREET":"中華南路","SECT":"二段","MAREA":" ","LANE":"３１５巷","ALLEY":"５弄","HOUSE_NO":"６號","E_COORD97":166516.89000000001,"N_COORD97":2540134.9399999999,"ADDRESS":"中華南路二段３１５巷５弄６號","OBJECTID":121351},"geometry":{"x":166516.89000000153,"y":2540134.9399999995}},{"attributes":{"ID":121352,"DIS_CODE":0,"TOWNNAME":"永康區","LI":"崑山里","LIN":"31鄰","STREET":"永大路","SECT":"二段","MAREA":" ","LANE":" ","ALLEY":" ","HOUSE_NO":"２５號","E_COORD97":174110,"N_COORD97":2544706.8700000001,"ADDRESS":"永大路二段２５號","OBJECTID":121352},"geometry":{"x":174110.00000000093,"y":2544706.870000001}},{"attributes":{"ID":121353,"DIS_CODE":0,"TOWNNAME":"南區","LI":"南都里","LIN":"16鄰","STREET":"中華南路","SECT":"二段","MAREA":" ","LANE":"３１５巷","ALLEY":"５弄","HOUSE_NO":"８號","E_COORD97":166525.26000000001,"N_COORD97":2540134.9399999999,"ADDRESS":"中華南路二段３１５巷５弄８號","OBJECTID":121353},"geometry":{"x":166525.26000000071,"y":2540134.9399999995}},{"attributes":{"ID":121354,"DIS_CODE":0,"TOWNNAME":"南區","LI":"大林里","LIN":"16鄰","STREET":"大林路","SECT":" ","MAREA":" ","LANE":"５５巷","ALLEY":"６弄","HOUSE_NO":"１０號","E_COORD97":169233.44,"N_COORD97":2541768.8999999999,"ADDRESS":"大林路５５巷６弄１０號","OBJECTID":121354},"geometry":{"x":169233.44000000134,"y":2541768.9000000022}},{"attributes":{"ID":121355,"DIS_CODE":0,"TOWNNAME":"仁德區","LI":"一甲里","LIN":"20鄰","STREET":"太乙五街","SECT":" ","MAREA":" ","LANE":" ","ALLEY":" ","HOUSE_NO":"５８號","E_COORD97":173188.07000000001,"N_COORD97":2542031.25,"ADDRESS":"太乙五街５８號","OBJECTID":121355},"geometry":{"x":173188.0700000003,"y":2542031.25}},{"attributes":{"ID":121356,"DIS_CODE":0,"TOWNNAME":"南區","LI":"大林里","LIN":"16鄰","STREET":"大林路","SECT":" ","MAREA":" ","LANE":"５５巷","ALLEY":"６弄","HOUSE_NO":"１２號","E_COORD97":169229.20000000001,"N_COORD97":2541767.3500000001,"ADDRESS":"大林路５５巷６弄１２號","OBJECTID":121356},"geometry":{"x":169229.20000000205,"y":2541767.3500000015}},{"attributes":{"ID":121357,"DIS_CODE":0,"TOWNNAME":"仁德區","LI":"一甲里","LIN":"20鄰","STREET":"太乙路","SECT":" ","MAREA":" ","LANE":" ","ALLEY":" ","HOUSE_NO":"５９號","E_COORD97":173394.88,"N_COORD97":2542500.5099999998,"ADDRESS":"太乙路５９號","OBJECTID":121357},"geometry":{"x":173394.88000000082,"y":2542500.5099999998}},{"attributes":{"ID":121358,"DIS_CODE":0,"TOWNNAME":"南區","LI":"新生里","LIN":"16鄰","STREET":"大同路","SECT":"二段","MAREA":" ","LANE":"１１２巷","ALLEY":"５弄","HOUSE_NO":"２號","E_COORD97":169208.62,"N_COORD97":2542240.9500000002,"ADDRESS":"大同路二段１１２巷５弄２號","OBJECTID":121358},"geometry":{"x":169208.62000000011,"y":2542240.9500000011}},{"attributes":{"ID":121359,"DIS_CODE":0,"TOWNNAME":"仁德區","LI":"新田里","LIN":"14鄰","STREET":"北保路","SECT":" ","MAREA":" ","LANE":" ","ALLEY":" ","HOUSE_NO":"１７４號","E_COORD97":173471.70999999999,"N_COORD97":2539438.7400000002,"ADDRESS":"北保路１７４號","OBJECTID":121359},"geometry":{"x":173471.70999999996,"y":2539438.7400000002}},{"attributes":{"ID":121360,"DIS_CODE":0,"TOWNNAME":"仁德區","LI":"二行里","LIN":"20鄰","STREET":"行大街","SECT":" ","MAREA":" ","LANE":" ","ALLEY":" ","HOUSE_NO":"２２６號","E_COORD97":169837.63,"N_COORD97":2535118,"ADDRESS":"行大街２２６號","OBJECTID":121360},"geometry":{"x":169837.62999999989,"y":2535118.0000000019}},{"attributes":{"ID":121361,"DIS_CODE":0,"TOWNNAME":"南區","LI":"新生里","LIN":"16鄰","STREET":"大同路","SECT":"二段","MAREA":" ","LANE":"１１２巷","ALLEY":"５弄","HOUSE_NO":"６號","E_COORD97":169211.42999999999,"N_COORD97":2542234.5299999998,"ADDRESS":"大同路二段１１２巷５弄６號","OBJECTID":121361},"geometry":{"x":169211.4299999997,"y":2542234.5300000012}},{"attributes":{"ID":121362,"DIS_CODE":0,"TOWNNAME":"仁德區","LI":"土庫里","LIN":"8鄰","STREET":"土庫六街","SECT":" ","MAREA":" ","LANE":" ","ALLEY":" ","HOUSE_NO":"８９號","E_COORD97":174092.37,"N_COORD97":2543251.9900000002,"ADDRESS":"土庫六街８９號","OBJECTID":121362},"geometry":{"x":174092.37000000104,"y":2543251.9900000021}},{"attributes":{"ID":121363,"DIS_CODE":0,"TOWNNAME":"佳里區","LI":"東寧里","LIN":"20鄰","STREET":"進學路","SECT":" ","MAREA":" ","LANE":" ","ALLEY":" ","HOUSE_NO":"７號","E_COORD97":166430.26999999999,"N_COORD97":2562667.5499999998,"ADDRESS":"進學路７號","OBJECTID":121363},"geometry":{"x":166430.26999999955,"y":2562667.5500000007}},{"attributes":{"ID":121364,"DIS_CODE":0,"TOWNNAME":"仁德區","LI":"仁義里","LIN":"42鄰","STREET":"中正路","SECT":"二段","MAREA":" ","LANE":" ","ALLEY":" ","HOUSE_NO":"９７２號","E_COORD97":173434.38,"N_COORD97":2540748.2799999998,"ADDRESS":"中正路二段９７２號","OBJECTID":121364},"geometry":{"x":173434.37999999989,"y":2540748.2799999993}},{"attributes":{"ID":121365,"DIS_CODE":0,"TOWNNAME":"麻豆區","LI":"總榮里","LIN":"3鄰","STREET":" ","SECT":" ","MAREA":"總爺\u25A0","LANE":" ","ALLEY":" ","HOUSE_NO":"２２號","E_COORD97":175140.42000000001,"N_COORD97":2564546.3700000001,"ADDRESS":"總爺\u25A0２２號","OBJECTID":121365},"geometry":{"x":175140.42000000179,"y":2564546.3700000029}},{"attributes":{"ID":121366,"DIS_CODE":0,"TOWNNAME":"麻豆區","LI":"總榮里","LIN":"3鄰","STREET":" ","SECT":" ","MAREA":"總爺\u25A0","LANE":" ","ALLEY":" ","HOUSE_NO":"２３號","E_COORD97":175116.98999999999,"N_COORD97":2564577.5899999999,"ADDRESS":"總爺\u25A0２３號","OBJECTID":121366},"geometry":{"x":175116.99000000115,"y":2564577.5900000017}},{"attributes":{"ID":121367,"DIS_CODE":0,"TOWNNAME":"麻豆區","LI":"總榮里","LIN":"3鄰","STREET":" ","SECT":" ","MAREA":"總爺\u25A0","LANE":" ","ALLEY":" ","HOUSE_NO":"２４號","E_COORD97":175099.85000000001,"N_COORD97":2564545.8300000001,"ADDRESS":"總爺\u25A0２４號","OBJECTID":121367},"geometry":{"x":175099.85000000149,"y":2564545.8300000001}},{"attributes":{"ID":121368,"DIS_CODE":0,"TOWNNAME":"麻豆區","LI":"總榮里","LIN":"3鄰","STREET":" ","SECT":" ","MAREA":"總爺\u25A0","LANE":" ","ALLEY":" ","HOUSE_NO":"２５號","E_COORD97":175125.13,"N_COORD97":2564531.8500000001,"ADDRESS":"總爺\u25A0２５號","OBJECTID":121368},"geometry":{"x":175125.12999999989,"y":2564531.8499999996}},{"attributes":{"ID":121369,"DIS_CODE":0,"TOWNNAME":"麻豆區","LI":"總榮里","LIN":"3鄰","STREET":" ","SECT":" ","MAREA":"總爺\u25A0","LANE":" ","ALLEY":" ","HOUSE_NO":"２６號","E_COORD97":175126.66,"N_COORD97":2564513.8300000001,"ADDRESS":"總爺\u25A0２６號","OBJECTID":121369},"geometry":{"x":175126.66000000015,"y":2564513.8300000019}},{"attributes":{"ID":121370,"DIS_CODE":0,"TOWNNAME":"南區","LI":"新生里","LIN":"16鄰","STREET":"大同路","SECT":"二段","MAREA":" ","LANE":"１１２巷","ALLEY":"５弄","HOUSE_NO":"８號","E_COORD97":169213.04000000001,"N_COORD97":2542228.2999999998,"ADDRESS":"大同路二段１１２巷５弄８號","OBJECTID":121370},"geometry":{"x":169213.04000000004,"y":2542228.3000000007}},{"attributes":{"ID":121371,"DIS_CODE":0,"TOWNNAME":"南區","LI":"新生里","LIN":"16鄰","STREET":"大同路","SECT":"二段","MAREA":" ","LANE":"１１２巷","ALLEY":"５弄","HOUSE_NO":"１０號","E_COORD97":169216.04999999999,"N_COORD97":2542222.6800000002,"ADDRESS":"大同路二段１１２巷５弄１０號","OBJECTID":121371},"geometry":{"x":169216.04999999981,"y":2542222.6800000034}},{"attributes":{"ID":121372,"DIS_CODE":0,"TOWNNAME":"新營區","LI":"民榮里","LIN":"16鄰","STREET":"太子路","SECT":" ","MAREA":" ","LANE":"３３巷","ALLEY":"２弄","HOUSE_NO":"６號","E_COORD97":178389.25,"N_COORD97":2578068.7599999998,"ADDRESS":"太子路３３巷２弄６號","OBJECTID":121372},"geometry":{"x":178389.25,"y":2578068.7600000016}},{"attributes":{"ID":121373,"DIS_CODE":0,"TOWNNAME":"南區","LI":"明亮里","LIN":"16鄰","STREET":"金華路","SECT":"一段","MAREA":" ","LANE":"３５２巷","ALLEY":"１１１弄","HOUSE_NO":"７號","E_COORD97":167282,"N_COORD97":2541077.5499999998,"ADDRESS":"金華路一段３５２巷１１１弄７號","OBJECTID":121373},"geometry":{"x":167282,"y":2541077.5500000007}},{"attributes":{"ID":121374,"DIS_CODE":0,"TOWNNAME":"永康區","LI":"崑山里","LIN":"31鄰","STREET":"永大路","SECT":"二段","MAREA":" ","LANE":" ","ALLEY":" ","HOUSE_NO":"２７號","E_COORD97":174128.57000000001,"N_COORD97":2544722.52,"ADDRESS":"永大路二段２７號","OBJECTID":121374},"geometry":{"x":174128.5700000003,"y":2544722.5200000014}},{"attributes":{"ID":121375,"DIS_CODE":0,"TOWNNAME":"歸仁區","LI":"南興里","LIN":"16鄰","STREET":"南興一街","SECT":" ","MAREA":" ","LANE":"４８巷","ALLEY":"１弄","HOUSE_NO":"５號","E_COORD97":175769.79000000001,"N_COORD97":2541306.25,"ADDRESS":"南興一街４８巷１弄５號","OBJECTID":121375},"geometry":{"x":175769.79000000004,"y":2541306.25}},{"attributes":{"ID":121376,"DIS_CODE":0,"TOWNNAME":"仁德區","LI":"仁德里","LIN":"4鄰","STREET":"中正路","SECT":"二段","MAREA":" ","LANE":" ","ALLEY":" ","HOUSE_NO":"８８３號","E_COORD97":173426.23000000001,"N_COORD97":2540607.7799999998,"ADDRESS":"中正路二段８８３號","OBJECTID":121376},"geometry":{"x":173426.23000000045,"y":2540607.7800000031}},{"attributes":{"ID":121377,"DIS_CODE":0,"TOWNNAME":"歸仁區","LI":"七甲里","LIN":"16鄰","STREET":"南潭二街","SECT":" ","MAREA":" ","LANE":"１３０巷","ALLEY":"１１弄","HOUSE_NO":"２１號","E_COORD97":176496.39000000001,"N_COORD97":2542915.7000000002,"ADDRESS":"南潭二街１３０巷１１弄２１號","OBJECTID":121377},"geometry":{"x":176496.39000000153,"y":2542915.6999999993}},{"attributes":{"ID":121378,"DIS_CODE":0,"TOWNNAME":"仁德區","LI":"大甲里","LIN":"18鄰","STREET":"中正西路","SECT":" ","MAREA":" ","LANE":" ","ALLEY":" ","HOUSE_NO":"４２０號","E_COORD97":169490.17000000001,"N_COORD97":2535450.25,"ADDRESS":"中正西路４２０號","OBJECTID":121378},"geometry":{"x":169490.16999999899,"y":2535450.25}},{"attributes":{"ID":121379,"DIS_CODE":0,"TOWNNAME":"佳里區","LI":"東寧里","LIN":"20鄰","STREET":"進學路","SECT":" ","MAREA":" ","LANE":" ","ALLEY":" ","HOUSE_NO":"８９號","E_COORD97":166131.19,"N_COORD97":2562657.7200000002,"ADDRESS":"進學路８９號","OBJECTID":121379},"geometry":{"x":166131.19000000134,"y":2562657.7200000025}},{"attributes":{"ID":121380,"DIS_CODE":0,"TOWNNAME":"仁德區","LI":"太子里","LIN":"25鄰","STREET":"長興五街","SECT":" ","MAREA":" ","LANE":" ","ALLEY":" ","HOUSE_NO":"２７號","E_COORD97":173556.70000000001,"N_COORD97":2543623.2599999998,"ADDRESS":"長興五街２７號","OBJECTID":121380},"geometry":{"x":173556.70000000019,"y":2543623.2600000016}},{"attributes":{"ID":121381,"DIS_CODE":0,"TOWNNAME":"仁德區","LI":"仁德里","LIN":"13鄰","STREET":"中正路","SECT":"三段","MAREA":" ","LANE":" ","ALLEY":" ","HOUSE_NO":"３１號","E_COORD97":173310.64999999999,"N_COORD97":2541492.77,"ADDRESS":"中正路三段３１號","OBJECTID":121381},"geometry":{"x":173310.6500000013,"y":2541492.7700000033}},{"attributes":{"ID":121382,"DIS_CODE":0,"TOWNNAME":"歸仁區","LI":"七甲里","LIN":"16鄰","STREET":"南潭二街","SECT":" ","MAREA":" ","LANE":"１３０巷","ALLEY":"３弄","HOUSE_NO":"２８號","E_COORD97":176504.12,"N_COORD97":2542972,"ADDRESS":"南潭二街１３０巷３弄２８號","OBJECTID":121382},"geometry":{"x":176504.12000000104,"y":2542972}},{"attributes":{"ID":121383,"DIS_CODE":0,"TOWNNAME":"南區","LI":"南華里","LIN":"16鄰","STREET":"中華南路","SECT":"二段","MAREA":" ","LANE":"３０２巷","ALLEY":"４弄","HOUSE_NO":"１號","E_COORD97":166661.84,"N_COORD97":2540377.4100000001,"ADDRESS":"中華南路二段３０２巷４弄１號","OBJECTID":121383},"geometry":{"x":166661.84000000078,"y":2540377.410000002}},{"attributes":{"ID":121384,"DIS_CODE":0,"TOWNNAME":"仁德區","LI":"成功里","LIN":"18鄰","STREET":"全福路","SECT":" ","MAREA":" ","LANE":" ","ALLEY":" ","HOUSE_NO":"８７號","E_COORD97":171065.34,"N_COORD97":2539312.9900000002,"ADDRESS":"全福路８７號","OBJECTID":121384},"geometry":{"x":171065.33999999985,"y":2539312.9900000021}},{"attributes":{"ID":121385,"DIS_CODE":0,"TOWNNAME":"南區","LI":"南華里","LIN":"16鄰","STREET":"中華南路","SECT":"二段","MAREA":" ","LANE":"３０２巷","ALLEY":"４弄","HOUSE_NO":"２號","E_COORD97":166662.19,"N_COORD97":2540352.71,"ADDRESS":"中華南路二段３０２巷４弄２號","OBJECTID":121385},"geometry":{"x":166662.19000000134,"y":2540352.7100000028}},{"attributes":{"ID":121386,"DIS_CODE":0,"TOWNNAME":"南區","LI":"南華里","LIN":"16鄰","STREET":"中華南路","SECT":"二段","MAREA":" ","LANE":"３０２巷","ALLEY":"４弄","HOUSE_NO":"３號","E_COORD97":166669.56,"N_COORD97":2540377.77,"ADDRESS":"中華南路二段３０２巷４弄３號","OBJECTID":121386},"geometry":{"x":166669.55999999959,"y":2540377.7700000014}},{"attributes":{"ID":121387,"DIS_CODE":0,"TOWNNAME":"南區","LI":"南華里","LIN":"16鄰","STREET":"中華南路","SECT":"二段","MAREA":" ","LANE":"３０２巷","ALLEY":"４弄","HOUSE_NO":"４號","E_COORD97":166670.16,"N_COORD97":2540352.8300000001,"ADDRESS":"中華南路二段３０２巷４弄４號","OBJECTID":121387},"geometry":{"x":166670.16000000108,"y":2540352.8300000001}},{"attributes":{"ID":121388,"DIS_CODE":0,"TOWNNAME":"南區","LI":"南華里","LIN":"16鄰","STREET":"中華南路","SECT":"二段","MAREA":" ","LANE":"３０２巷","ALLEY":"４弄","HOUSE_NO":"５號","E_COORD97":166679.07000000001,"N_COORD97":2540377.5299999998,"ADDRESS":"中華南路二段３０２巷４弄５號","OBJECTID":121388},"geometry":{"x":166679.07000000216,"y":2540377.5299999993}},{"attributes":{"ID":121389,"DIS_CODE":0,"TOWNNAME":"南區","LI":"南華里","LIN":"16鄰","STREET":"中華南路","SECT":"二段","MAREA":" ","LANE":"３０２巷","ALLEY":"４弄","HOUSE_NO":"６號","E_COORD97":166679.67000000001,"N_COORD97":2540352.5899999999,"ADDRESS":"中華南路二段３０２巷４弄６號","OBJECTID":121389},"geometry":{"x":166679.67000000179,"y":2540352.5900000017}},{"attributes":{"ID":121390,"DIS_CODE":0,"TOWNNAME":"南區","LI":"南華里","LIN":"16鄰","STREET":"中華南路","SECT":"二段","MAREA":" ","LANE":"３０２巷","ALLEY":"４弄","HOUSE_NO":"７號","E_COORD97":166687.28,"N_COORD97":2540377.8900000001,"ADDRESS":"中華南路二段３０２巷４弄７號","OBJECTID":121390},"geometry":{"x":166687.28000000026,"y":2540377.8900000025}},{"attributes":{"ID":121391,"DIS_CODE":0,"TOWNNAME":"南區","LI":"南華里","LIN":"16鄰","STREET":"中華南路","SECT":"二段","MAREA":" ","LANE":"３０２巷","ALLEY":"４弄","HOUSE_NO":"８號","E_COORD97":166687.87,"N_COORD97":2540353.0600000001,"ADDRESS":"中華南路二段３０２巷４弄８號","OBJECTID":121391},"geometry":{"x":166687.87000000011,"y":2540353.0600000024}},{"attributes":{"ID":121392,"DIS_CODE":0,"TOWNNAME":"鹽水區","LI":"岸內里","LIN":"16鄰","STREET":"北門路","SECT":" ","MAREA":" ","LANE":"１巷","ALLEY":"３弄","HOUSE_NO":"１２號","E_COORD97":174997.06,"N_COORD97":2580399.2599999998,"ADDRESS":"北門路１巷３弄１２號","OBJECTID":121392},"geometry":{"x":174997.06000000052,"y":2580399.2600000016}},{"attributes":{"ID":121393,"DIS_CODE":0,"TOWNNAME":"北區","LI":"東興里","LIN":"16鄰","STREET":"小東路","SECT":" ","MAREA":" ","LANE":"２９９巷","ALLEY":"２７弄","HOUSE_NO":"１１號","E_COORD97":171062.77100199999,"N_COORD97":2544504.2763499999,"ADDRESS":"小東路２９９巷２７弄１１號","OBJECTID":121393},"geometry":{"x":171062.7710020002,"y":2544504.2763480004}},{"attributes":{"ID":121394,"DIS_CODE":0,"TOWNNAME":"安平區","LI":"平安里","LIN":"16鄰","STREET":"安平路","SECT":" ","MAREA":" ","LANE":"５５０巷","ALLEY":"４５弄","HOUSE_NO":"３０號","E_COORD97":164966.04999999999,"N_COORD97":2544548.1299999999,"ADDRESS":"安平路５５０巷４５弄３０號","OBJECTID":121394},"geometry":{"x":164966.04999999981,"y":2544548.1300000008}},{"attributes":{"ID":121395,"DIS_CODE":0,"TOWNNAME":"安平區","LI":"平安里","LIN":"16鄰","STREET":"安平路","SECT":" ","MAREA":" ","LANE":"５５０巷","ALLEY":"４５弄","HOUSE_NO":"３２號","E_COORD97":164962.60000000001,"N_COORD97":2544548.8799999999,"ADDRESS":"安平路５５０巷４５弄３２號","OBJECTID":121395},"geometry":{"x":164962.60000000149,"y":2544548.879999999}},{"attributes":{"ID":121396,"DIS_CODE":0,"TOWNNAME":"歸仁區","LI":"七甲里","LIN":"16鄰","STREET":"南潭二街","SECT":" ","MAREA":" ","LANE":"１３０巷","ALLEY":"３弄","HOUSE_NO":"５號","E_COORD97":176456.76999999999,"N_COORD97":2542984,"ADDRESS":"南潭二街１３０巷３弄５號","OBJECTID":121396},"geometry":{"x":176456.77000000048,"y":2542984.0000000019}},{"attributes":{"ID":121397,"DIS_CODE":0,"TOWNNAME":"南區","LI":"建南里","LIN":"16鄰","STREET":"中華南路","SECT":"二段","MAREA":" ","LANE":"２３３巷","ALLEY":"３６弄","HOUSE_NO":"１１號","E_COORD97":166877.04000000001,"N_COORD97":2540057.8799999999,"ADDRESS":"中華南路二段２３３巷３６弄１１號","OBJECTID":121397},"geometry":{"x":166877.04000000004,"y":2540057.8800000008}},{"attributes":{"ID":121398,"DIS_CODE":0,"TOWNNAME":"南區","LI":"建南里","LIN":"16鄰","STREET":"中華南路","SECT":"二段","MAREA":" ","LANE":"２３３巷","ALLEY":"３６弄","HOUSE_NO":"１３號","E_COORD97":166870.29000000001,"N_COORD97":2540056.6000000001,"ADDRESS":"中華南路二段２３３巷３６弄１３號","OBJECTID":121398},"geometry":{"x":166870.29000000004,"y":2540056.6000000034}},{"attributes":{"ID":121399,"DIS_CODE":0,"TOWNNAME":"仁德區","LI":"仁義里","LIN":"13鄰","STREET":"中山路","SECT":" ","MAREA":" ","LANE":" ","ALLEY":" ","HOUSE_NO":"１３４號","E_COORD97":174615.39000000001,"N_COORD97":2541177.7400000002,"ADDRESS":"中山路１３４號","OBJECTID":121399},"geometry":{"x":174615.3900000006,"y":2541177.7400000002}},{"attributes":{"ID":121400,"DIS_CODE":0,"TOWNNAME":"東區","LI":"後甲里","LIN":"28鄰","STREET":"裕永一街","SECT":" ","MAREA":" ","LANE":" ","ALLEY":" ","HOUSE_NO":"２０號","E_COORD97":172269.20999999999,"N_COORD97":2543374.0699999998,"ADDRESS":"裕永一街２０號","OBJECTID":121400},"geometry":{"x":172269.21000000089,"y":2543374.0700000022}}]}