{"displayFieldName":"TOWNNAME","fieldAliases":{"ID":"ID","DIS_CODE":"DIS_CODE","TOWNNAME":"TOWNNAME","LI":"LI","LIN":"LIN","STREET":"STREET","SECT":"SECT","MAREA":"MAREA","LANE":"LANE","ALLEY":"ALLEY","HOUSE_NO":"HOUSE_NO","E_COORD97":"E_COORD97","N_COORD97":"N_COORD97","ADDRESS":"ADDRESS","OBJECTID":"OBJECTID"},"geometryType":"esriGeometryPoint","spatialReference":{"wkid":102443,"latestWkid":3826},"fields":[{"name":"ID","type":"esriFieldTypeDouble","alias":"ID"},{"name":"DIS_CODE","type":"esriFieldTypeInteger","alias":"DIS_CODE"},{"name":"TOWNNAME","type":"esriFieldTypeString","alias":"TOWNNAME","length":8},{"name":"LI","type":"esriFieldTypeString","alias":"LI","length":8},{"name":"LIN","type":"esriFieldTypeString","alias":"LIN","length":12},{"name":"STREET","type":"esriFieldTypeString","alias":"STREET","length":20},{"name":"SECT","type":"esriFieldTypeString","alias":"SECT","length":8},{"name":"MAREA","type":"esriFieldTypeString","alias":"MAREA","length":12},{"name":"LANE","type":"esriFieldTypeString","alias":"LANE","length":10},{"name":"ALLEY","type":"esriFieldTypeString","alias":"ALLEY","length":10},{"name":"HOUSE_NO","type":"esriFieldTypeString","alias":"HOUSE_NO","length":20},{"name":"E_COORD97","type":"esriFieldTypeDouble","alias":"E_COORD97"},{"name":"N_COORD97","type":"esriFieldTypeDouble","alias":"N_COORD97"},{"name":"ADDRESS","type":"esriFieldTypeString","alias":"ADDRESS","length":50},{"name":"OBJECTID","type":"esriFieldTypeOID","alias":"OBJECTID"}],"features":[{"attributes":{"ID":465426,"DIS_CODE":0,"TOWNNAME":"中西區","LI":"郡西里","LIN":"5鄰","STREET":"大智街","SECT":" ","MAREA":" ","LANE":" ","ALLEY":" ","HOUSE_NO":"１４１號","E_COORD97":167261.51999999999,"N_COORD97":2543283.29,"ADDRESS":"大智街１４１號","OBJECTID":465401},"geometry":{"x":167261.51999999955,"y":2543283.290000001}},{"attributes":{"ID":465427,"DIS_CODE":0,"TOWNNAME":"中西區","LI":"郡西里","LIN":"5鄰","STREET":"大智街","SECT":" ","MAREA":" ","LANE":" ","ALLEY":" ","HOUSE_NO":"１４３號","E_COORD97":167261.17000000001,"N_COORD97":2543279.6400000001,"ADDRESS":"大智街１４３號","OBJECTID":465402},"geometry":{"x":167261.17000000179,"y":2543279.6400000025}},{"attributes":{"ID":465428,"DIS_CODE":0,"TOWNNAME":"中西區","LI":"郡西里","LIN":"5鄰","STREET":"大智街","SECT":" ","MAREA":" ","LANE":" ","ALLEY":" ","HOUSE_NO":"１４５號","E_COORD97":167260.19,"N_COORD97":2543275.8100000001,"ADDRESS":"大智街１４５號","OBJECTID":465403},"geometry":{"x":167260.19000000134,"y":2543275.8100000005}},{"attributes":{"ID":465429,"DIS_CODE":0,"TOWNNAME":"中西區","LI":"郡西里","LIN":"5鄰","STREET":"大智街","SECT":" ","MAREA":" ","LANE":" ","ALLEY":" ","HOUSE_NO":"１４７號","E_COORD97":167259.29999999999,"N_COORD97":2543271.4500000002,"ADDRESS":"大智街１４７號","OBJECTID":465404},"geometry":{"x":167259.29999999981,"y":2543271.4500000011}},{"attributes":{"ID":465430,"DIS_CODE":0,"TOWNNAME":"中西區","LI":"郡西里","LIN":"5鄰","STREET":"大智街","SECT":" ","MAREA":" ","LANE":" ","ALLEY":" ","HOUSE_NO":"１４９號","E_COORD97":167258.57999999999,"N_COORD97":2543267.4399999999,"ADDRESS":"大智街１４９號","OBJECTID":465405},"geometry":{"x":167258.58000000194,"y":2543267.4399999995}},{"attributes":{"ID":465431,"DIS_CODE":0,"TOWNNAME":"中西區","LI":"郡西里","LIN":"5鄰","STREET":"大智街","SECT":" ","MAREA":" ","LANE":" ","ALLEY":" ","HOUSE_NO":"１４９號之１","E_COORD97":167258.39999999999,"N_COORD97":2543262.48,"ADDRESS":"大智街１４９號之１","OBJECTID":465406},"geometry":{"x":167258.40000000224,"y":2543262.4800000023}},{"attributes":{"ID":465432,"DIS_CODE":0,"TOWNNAME":"中西區","LI":"郡西里","LIN":"5鄰","STREET":"大智街","SECT":" ","MAREA":" ","LANE":" ","ALLEY":" ","HOUSE_NO":"１５１號","E_COORD97":167257.60000000001,"N_COORD97":2543258.8199999998,"ADDRESS":"大智街１５１號","OBJECTID":465407},"geometry":{"x":167257.59999999963,"y":2543258.8200000003}},{"attributes":{"ID":465433,"DIS_CODE":0,"TOWNNAME":"中西區","LI":"郡西里","LIN":"5鄰","STREET":"大智街","SECT":" ","MAREA":" ","LANE":" ","ALLEY":" ","HOUSE_NO":"１５３號","E_COORD97":167256.26000000001,"N_COORD97":2543255.1699999999,"ADDRESS":"大智街１５３號","OBJECTID":465408},"geometry":{"x":167256.25999999978,"y":2543255.1699999999}},{"attributes":{"ID":465434,"DIS_CODE":0,"TOWNNAME":"中西區","LI":"郡西里","LIN":"5鄰","STREET":"大智街","SECT":" ","MAREA":" ","LANE":" ","ALLEY":" ","HOUSE_NO":"１５５號","E_COORD97":167255.54999999999,"N_COORD97":2543250.4500000002,"ADDRESS":"大智街１５５號","OBJECTID":465409},"geometry":{"x":167255.55000000075,"y":2543250.4499999993}},{"attributes":{"ID":465435,"DIS_CODE":0,"TOWNNAME":"中西區","LI":"郡西里","LIN":"5鄰","STREET":"大智街","SECT":" ","MAREA":" ","LANE":" ","ALLEY":" ","HOUSE_NO":"１５７號","E_COORD97":167254.92999999999,"N_COORD97":2543246.3599999999,"ADDRESS":"大智街１５７號","OBJECTID":465410},"geometry":{"x":167254.9299999997,"y":2543246.3600000013}},{"attributes":{"ID":465436,"DIS_CODE":0,"TOWNNAME":"中西區","LI":"郡西里","LIN":"5鄰","STREET":"大智街","SECT":" ","MAREA":" ","LANE":" ","ALLEY":" ","HOUSE_NO":"１５９號","E_COORD97":167254.39000000001,"N_COORD97":2543241.9900000002,"ADDRESS":"大智街１５９號","OBJECTID":465411},"geometry":{"x":167254.3900000006,"y":2543241.9900000021}},{"attributes":{"ID":465437,"DIS_CODE":0,"TOWNNAME":"中西區","LI":"郡西里","LIN":"5鄰","STREET":"大智街","SECT":" ","MAREA":" ","LANE":" ","ALLEY":" ","HOUSE_NO":"１６１號","E_COORD97":167253.32000000001,"N_COORD97":2543237.8999999999,"ADDRESS":"大智街１６１號","OBJECTID":465412},"geometry":{"x":167253.3200000003,"y":2543237.9000000004}},{"attributes":{"ID":465438,"DIS_CODE":0,"TOWNNAME":"中西區","LI":"郡西里","LIN":"5鄰","STREET":"大智街","SECT":" ","MAREA":" ","LANE":" ","ALLEY":" ","HOUSE_NO":"１６３號","E_COORD97":167252.70000000001,"N_COORD97":2543234.0699999998,"ADDRESS":"大智街１６３號","OBJECTID":465413},"geometry":{"x":167252.70000000205,"y":2543234.070000004}},{"attributes":{"ID":465439,"DIS_CODE":0,"TOWNNAME":"中西區","LI":"郡西里","LIN":"5鄰","STREET":"大智街","SECT":" ","MAREA":" ","LANE":" ","ALLEY":" ","HOUSE_NO":"１６５號","E_COORD97":167252.41,"N_COORD97":2543229.4300000002,"ADDRESS":"大智街１６５號","OBJECTID":465414},"geometry":{"x":167252.41000000015,"y":2543229.4299999997}},{"attributes":{"ID":465440,"DIS_CODE":0,"TOWNNAME":"中西區","LI":"郡西里","LIN":"5鄰","STREET":"大智街","SECT":" ","MAREA":" ","LANE":" ","ALLEY":" ","HOUSE_NO":"１６７號","E_COORD97":167250.98999999999,"N_COORD97":2543224.8900000001,"ADDRESS":"大智街１６７號","OBJECTID":465415},"geometry":{"x":167250.99000000115,"y":2543224.8900000006}},{"attributes":{"ID":465441,"DIS_CODE":0,"TOWNNAME":"中西區","LI":"郡西里","LIN":"5鄰","STREET":"大智街","SECT":" ","MAREA":" ","LANE":" ","ALLEY":" ","HOUSE_NO":"１６９號","E_COORD97":167250.89999999999,"N_COORD97":2543220.4399999999,"ADDRESS":"大智街１６９號","OBJECTID":465416},"geometry":{"x":167250.90000000037,"y":2543220.4399999976}},{"attributes":{"ID":465442,"DIS_CODE":0,"TOWNNAME":"中西區","LI":"郡西里","LIN":"5鄰","STREET":"大智街","SECT":" ","MAREA":" ","LANE":" ","ALLEY":" ","HOUSE_NO":"１７１號","E_COORD97":167249.82999999999,"N_COORD97":2543216.0699999998,"ADDRESS":"大智街１７１號","OBJECTID":465417},"geometry":{"x":167249.83000000007,"y":2543216.0700000003}},{"attributes":{"ID":465443,"DIS_CODE":0,"TOWNNAME":"中西區","LI":"郡西里","LIN":"5鄰","STREET":"大智街","SECT":" ","MAREA":" ","LANE":" ","ALLEY":" ","HOUSE_NO":"１７３號","E_COORD97":167247.14999999999,"N_COORD97":2543211.71,"ADDRESS":"大智街１７３號","OBJECTID":465418},"geometry":{"x":167247.1500000013,"y":2543211.7100000028}},{"attributes":{"ID":465444,"DIS_CODE":0,"TOWNNAME":"永康區","LI":"烏竹里","LIN":"20鄰","STREET":"自強路","SECT":" ","MAREA":" ","LANE":" ","ALLEY":" ","HOUSE_NO":"７９９號","E_COORD97":174530.82999999999,"N_COORD97":2548606.5699999998,"ADDRESS":"自強路７９９號","OBJECTID":465419},"geometry":{"x":174530.83000000194,"y":2548606.5700000003}},{"attributes":{"ID":465445,"DIS_CODE":0,"TOWNNAME":"永康區","LI":"復華里","LIN":"41鄰","STREET":"復華六街","SECT":" ","MAREA":" ","LANE":" ","ALLEY":" ","HOUSE_NO":"９４號","E_COORD97":172637.70000000001,"N_COORD97":2545857.3399999999,"ADDRESS":"復華六街９４號","OBJECTID":465420},"geometry":{"x":172637.70000000019,"y":2545857.3400000017}},{"attributes":{"ID":465446,"DIS_CODE":0,"TOWNNAME":"中西區","LI":"文賢里","LIN":"5鄰","STREET":"文和街","SECT":" ","MAREA":" ","LANE":" ","ALLEY":" ","HOUSE_NO":"１０２號","E_COORD97":167131.32000000001,"N_COORD97":2544839.3799999999,"ADDRESS":"文和街１０２號","OBJECTID":465421},"geometry":{"x":167131.3200000003,"y":2544839.379999999}},{"attributes":{"ID":465447,"DIS_CODE":0,"TOWNNAME":"永康區","LI":"\u25A0行里","LIN":"36鄰","STREET":"三村一街","SECT":" ","MAREA":" ","LANE":" ","ALLEY":" ","HOUSE_NO":"１３０號","E_COORD97":172051.95000000001,"N_COORD97":2549251.9500000002,"ADDRESS":"三村一街１３０號","OBJECTID":465422},"geometry":{"x":172051.95000000112,"y":2549251.950000003}},{"attributes":{"ID":465448,"DIS_CODE":0,"TOWNNAME":"中西區","LI":"文賢里","LIN":"5鄰","STREET":"文和街","SECT":" ","MAREA":" ","LANE":" ","ALLEY":" ","HOUSE_NO":"１０４號","E_COORD97":167129,"N_COORD97":2544836.77,"ADDRESS":"文和街１０４號","OBJECTID":465423},"geometry":{"x":167129.00000000093,"y":2544836.7700000014}},{"attributes":{"ID":465449,"DIS_CODE":0,"TOWNNAME":"中西區","LI":"文賢里","LIN":"5鄰","STREET":"文和街","SECT":" ","MAREA":" ","LANE":" ","ALLEY":" ","HOUSE_NO":"１０６號","E_COORD97":167125.37,"N_COORD97":2544833.8700000001,"ADDRESS":"文和街１０６號","OBJECTID":465424},"geometry":{"x":167125.37000000011,"y":2544833.8700000029}},{"attributes":{"ID":465450,"DIS_CODE":0,"TOWNNAME":"中西區","LI":"文賢里","LIN":"5鄰","STREET":"文和街","SECT":" ","MAREA":" ","LANE":" ","ALLEY":" ","HOUSE_NO":"１０８號","E_COORD97":167122.32000000001,"N_COORD97":2544830.9700000002,"ADDRESS":"文和街１０８號","OBJECTID":465425},"geometry":{"x":167122.3200000003,"y":2544830.9700000007}},{"attributes":{"ID":465451,"DIS_CODE":0,"TOWNNAME":"中西區","LI":"文賢里","LIN":"5鄰","STREET":"文和街","SECT":" ","MAREA":" ","LANE":" ","ALLEY":" ","HOUSE_NO":"１１０號","E_COORD97":167118.98000000001,"N_COORD97":2544827.4900000002,"ADDRESS":"文和街１１０號","OBJECTID":465426},"geometry":{"x":167118.98000000138,"y":2544827.4900000002}},{"attributes":{"ID":465452,"DIS_CODE":0,"TOWNNAME":"中西區","LI":"文賢里","LIN":"5鄰","STREET":"文和街","SECT":" ","MAREA":" ","LANE":" ","ALLEY":" ","HOUSE_NO":"１１２號","E_COORD97":167115.92999999999,"N_COORD97":2544824.29,"ADDRESS":"文和街１１２號","OBJECTID":465427},"geometry":{"x":167115.9299999997,"y":2544824.2899999991}},{"attributes":{"ID":465453,"DIS_CODE":0,"TOWNNAME":"中西區","LI":"文賢里","LIN":"5鄰","STREET":"文和街","SECT":" ","MAREA":" ","LANE":" ","ALLEY":" ","HOUSE_NO":"１１４號","E_COORD97":167112.14999999999,"N_COORD97":2544820.8100000001,"ADDRESS":"文和街１１４號","OBJECTID":465428},"geometry":{"x":167112.15000000037,"y":2544820.8100000024}},{"attributes":{"ID":465454,"DIS_CODE":0,"TOWNNAME":"中西區","LI":"文賢里","LIN":"5鄰","STREET":"文和街","SECT":" ","MAREA":" ","LANE":" ","ALLEY":" ","HOUSE_NO":"１１６號","E_COORD97":167106.04999999999,"N_COORD97":2544817.04,"ADDRESS":"文和街１１６號","OBJECTID":465429},"geometry":{"x":167106.05000000075,"y":2544817.040000001}},{"attributes":{"ID":465455,"DIS_CODE":0,"TOWNNAME":"中西區","LI":"文賢里","LIN":"5鄰","STREET":"文和街","SECT":" ","MAREA":" ","LANE":" ","ALLEY":" ","HOUSE_NO":"１１８號","E_COORD97":167092.10000000001,"N_COORD97":2544827.7799999998,"ADDRESS":"文和街１１８號","OBJECTID":465430},"geometry":{"x":167092.10000000056,"y":2544827.7799999993}},{"attributes":{"ID":465456,"DIS_CODE":0,"TOWNNAME":"永康區","LI":"安康里","LIN":"7鄰","STREET":"中山南路","SECT":" ","MAREA":" ","LANE":" ","ALLEY":" ","HOUSE_NO":"１０９號","E_COORD97":170938.88,"N_COORD97":2545926,"ADDRESS":"中山南路１０９號","OBJECTID":465431},"geometry":{"x":170938.88000000082,"y":2545925.9999999981}},{"attributes":{"ID":465457,"DIS_CODE":0,"TOWNNAME":"新市區","LI":"新市里","LIN":"5鄰","STREET":"仁愛街","SECT":" ","MAREA":" ","LANE":" ","ALLEY":" ","HOUSE_NO":"２７５號","E_COORD97":177635.69,"N_COORD97":2552995.2799999998,"ADDRESS":"仁愛街２７５號","OBJECTID":465432},"geometry":{"x":177635.69000000041,"y":2552995.2799999993}},{"attributes":{"ID":465458,"DIS_CODE":0,"TOWNNAME":"新市區","LI":"港墘里","LIN":"5鄰","STREET":"民族路","SECT":" ","MAREA":" ","LANE":" ","ALLEY":" ","HOUSE_NO":"９５號","E_COORD97":178356.98999999999,"N_COORD97":2553650.79,"ADDRESS":"民族路９５號","OBJECTID":465433},"geometry":{"x":178356.99000000022,"y":2553650.790000001}},{"attributes":{"ID":465459,"DIS_CODE":0,"TOWNNAME":"白河區","LI":"白河里","LIN":"5鄰","STREET":"康樂路","SECT":" ","MAREA":" ","LANE":" ","ALLEY":" ","HOUSE_NO":"３６號","E_COORD97":190195.29000000001,"N_COORD97":2582969.4399999999,"ADDRESS":"康樂路３６號","OBJECTID":465434},"geometry":{"x":190195.29000000097,"y":2582969.4400000032}},{"attributes":{"ID":465460,"DIS_CODE":0,"TOWNNAME":"白河區","LI":"庄內里","LIN":"5鄰","STREET":"新興路","SECT":" ","MAREA":" ","LANE":" ","ALLEY":" ","HOUSE_NO":"３７６號","E_COORD97":190772.95999999999,"N_COORD97":2583433.1299999999,"ADDRESS":"新興路３７６號","OBJECTID":465435},"geometry":{"x":190772.95999999996,"y":2583433.1300000008}},{"attributes":{"ID":465461,"DIS_CODE":0,"TOWNNAME":"白河區","LI":"庄內里","LIN":"5鄰","STREET":"新興路","SECT":" ","MAREA":" ","LANE":" ","ALLEY":" ","HOUSE_NO":"３８０號","E_COORD97":190764.51999999999,"N_COORD97":2583434.5499999998,"ADDRESS":"新興路３８０號","OBJECTID":465436},"geometry":{"x":190764.52000000048,"y":2583434.5500000045}},{"attributes":{"ID":465462,"DIS_CODE":0,"TOWNNAME":"白河區","LI":"庄內里","LIN":"5鄰","STREET":"新興路","SECT":" ","MAREA":" ","LANE":" ","ALLEY":" ","HOUSE_NO":"３８４號","E_COORD97":190756.51999999999,"N_COORD97":2583436.2400000002,"ADDRESS":"新興路３８４號","OBJECTID":465437},"geometry":{"x":190756.51999999955,"y":2583436.2400000039}},{"attributes":{"ID":465463,"DIS_CODE":0,"TOWNNAME":"白河區","LI":"庄內里","LIN":"5鄰","STREET":"新興路","SECT":" ","MAREA":" ","LANE":" ","ALLEY":" ","HOUSE_NO":"３８６號","E_COORD97":190750.67000000001,"N_COORD97":2583437.3500000001,"ADDRESS":"新興路３８６號","OBJECTID":465438},"geometry":{"x":190750.66999999993,"y":2583437.3499999996}},{"attributes":{"ID":465464,"DIS_CODE":0,"TOWNNAME":"永康區","LI":"復國里","LIN":"4鄰","STREET":"復國一路","SECT":" ","MAREA":" ","LANE":" ","ALLEY":" ","HOUSE_NO":"５２號","E_COORD97":172725.66,"N_COORD97":2544827.6400000001,"ADDRESS":"復國一路５２號","OBJECTID":465439},"geometry":{"x":172725.66000000108,"y":2544827.6400000043}},{"attributes":{"ID":465465,"DIS_CODE":0,"TOWNNAME":"永康區","LI":"復國里","LIN":"17鄰","STREET":"復華六街","SECT":" ","MAREA":" ","LANE":" ","ALLEY":" ","HOUSE_NO":"９號","E_COORD97":172893.54999999999,"N_COORD97":2545830.7799999998,"ADDRESS":"復華六街９號","OBJECTID":465440},"geometry":{"x":172893.55000000075,"y":2545830.7799999993}},{"attributes":{"ID":465466,"DIS_CODE":0,"TOWNNAME":"新市區","LI":"新和里","LIN":"5鄰","STREET":"昆明街","SECT":" ","MAREA":" ","LANE":" ","ALLEY":" ","HOUSE_NO":"８號","E_COORD97":177370.01000000001,"N_COORD97":2552372.9900000002,"ADDRESS":"昆明街８號","OBJECTID":465441},"geometry":{"x":177370.00999999978,"y":2552372.9900000021}},{"attributes":{"ID":465467,"DIS_CODE":0,"TOWNNAME":"東區","LI":"大智里","LIN":"5鄰","STREET":"長東街","SECT":" ","MAREA":" ","LANE":" ","ALLEY":" ","HOUSE_NO":"５３號","E_COORD97":171012.57000000001,"N_COORD97":2540489.5899999999,"ADDRESS":"長東街５３號","OBJECTID":465442},"geometry":{"x":171012.57000000123,"y":2540489.5899999999}},{"attributes":{"ID":465468,"DIS_CODE":0,"TOWNNAME":"永康區","LI":"西灣里","LIN":"34鄰","STREET":"永華路","SECT":" ","MAREA":" ","LANE":" ","ALLEY":" ","HOUSE_NO":"３６０號","E_COORD97":174086.54000000001,"N_COORD97":2545769.1499999999,"ADDRESS":"永華路３６０號","OBJECTID":465443},"geometry":{"x":174086.54000000004,"y":2545769.1500000004}},{"attributes":{"ID":465469,"DIS_CODE":0,"TOWNNAME":"東區","LI":"崇善里","LIN":"5鄰","STREET":"崇善五街","SECT":" ","MAREA":" ","LANE":" ","ALLEY":" ","HOUSE_NO":"３６號","E_COORD97":171081.04000000001,"N_COORD97":2541581.2200000002,"ADDRESS":"崇善五街３６號","OBJECTID":465444},"geometry":{"x":171081.04000000004,"y":2541581.2200000007}},{"attributes":{"ID":465470,"DIS_CODE":0,"TOWNNAME":"東區","LI":"崇善里","LIN":"5鄰","STREET":"崇善五街","SECT":" ","MAREA":" ","LANE":" ","ALLEY":" ","HOUSE_NO":"３８號","E_COORD97":171084.72,"N_COORD97":2541583.2200000002,"ADDRESS":"崇善五街３８號","OBJECTID":465445},"geometry":{"x":171084.71999999974,"y":2541583.2200000025}},{"attributes":{"ID":465471,"DIS_CODE":0,"TOWNNAME":"東區","LI":"崇善里","LIN":"5鄰","STREET":"崇善五街","SECT":" ","MAREA":" ","LANE":" ","ALLEY":" ","HOUSE_NO":"４８號","E_COORD97":171104.92000000001,"N_COORD97":2541594.0600000001,"ADDRESS":"崇善五街４８號","OBJECTID":465446},"geometry":{"x":171104.91999999993,"y":2541594.0600000024}},{"attributes":{"ID":465472,"DIS_CODE":0,"TOWNNAME":"東區","LI":"崇善里","LIN":"5鄰","STREET":"崇善五街","SECT":" ","MAREA":" ","LANE":" ","ALLEY":" ","HOUSE_NO":"５０號","E_COORD97":171108.26000000001,"N_COORD97":2541596.5600000001,"ADDRESS":"崇善五街５０號","OBJECTID":465447},"geometry":{"x":171108.25999999885,"y":2541596.5600000005}},{"attributes":{"ID":465473,"DIS_CODE":0,"TOWNNAME":"東區","LI":"崇善里","LIN":"5鄰","STREET":"崇善五街","SECT":" ","MAREA":" ","LANE":" ","ALLEY":" ","HOUSE_NO":"５２號","E_COORD97":171111.76000000001,"N_COORD97":2541598.73,"ADDRESS":"崇善五街５２號","OBJECTID":465448},"geometry":{"x":171111.76000000164,"y":2541598.7300000004}},{"attributes":{"ID":465474,"DIS_CODE":0,"TOWNNAME":"東區","LI":"崇善里","LIN":"5鄰","STREET":"崇善五街","SECT":" ","MAREA":" ","LANE":" ","ALLEY":" ","HOUSE_NO":"５４號","E_COORD97":171115.76999999999,"N_COORD97":2541600.5600000001,"ADDRESS":"崇善五街５４號","OBJECTID":465449},"geometry":{"x":171115.76999999955,"y":2541600.5600000024}},{"attributes":{"ID":465475,"DIS_CODE":0,"TOWNNAME":"東區","LI":"崇善里","LIN":"5鄰","STREET":"崇善五街","SECT":" ","MAREA":" ","LANE":" ","ALLEY":" ","HOUSE_NO":"５６號","E_COORD97":171118.94,"N_COORD97":2541602.5699999998,"ADDRESS":"崇善五街５６號","OBJECTID":465450},"geometry":{"x":171118.94000000041,"y":2541602.5700000003}},{"attributes":{"ID":465476,"DIS_CODE":0,"TOWNNAME":"東區","LI":"崇善里","LIN":"5鄰","STREET":"崇善五街","SECT":" ","MAREA":" ","LANE":" ","ALLEY":" ","HOUSE_NO":"５８號","E_COORD97":171122.62,"N_COORD97":2541604.23,"ADDRESS":"崇善五街５８號","OBJECTID":465451},"geometry":{"x":171122.62000000011,"y":2541604.2300000004}},{"attributes":{"ID":465477,"DIS_CODE":0,"TOWNNAME":"東區","LI":"崇善里","LIN":"5鄰","STREET":"崇善五街","SECT":" ","MAREA":" ","LANE":" ","ALLEY":" ","HOUSE_NO":"６０號","E_COORD97":171126.62,"N_COORD97":2541605.8999999999,"ADDRESS":"崇善五街６０號","OBJECTID":465452},"geometry":{"x":171126.62000000197,"y":2541605.9000000022}},{"attributes":{"ID":465478,"DIS_CODE":0,"TOWNNAME":"東區","LI":"崇善里","LIN":"5鄰","STREET":"崇善五街","SECT":" ","MAREA":" ","LANE":" ","ALLEY":" ","HOUSE_NO":"６４號","E_COORD97":171134.47,"N_COORD97":2541609.2400000002,"ADDRESS":"崇善五街６４號","OBJECTID":465453},"geometry":{"x":171134.47000000067,"y":2541609.2400000021}},{"attributes":{"ID":465479,"DIS_CODE":0,"TOWNNAME":"東區","LI":"崇善里","LIN":"5鄰","STREET":"崇善五街","SECT":" ","MAREA":" ","LANE":" ","ALLEY":" ","HOUSE_NO":"６６號","E_COORD97":171138.31,"N_COORD97":2541610.5699999998,"ADDRESS":"崇善五街６６號","OBJECTID":465454},"geometry":{"x":171138.31000000145,"y":2541610.5700000022}},{"attributes":{"ID":465480,"DIS_CODE":0,"TOWNNAME":"東區","LI":"崇善里","LIN":"5鄰","STREET":"崇善五街","SECT":" ","MAREA":" ","LANE":" ","ALLEY":" ","HOUSE_NO":"７０號","E_COORD97":171147.09,"N_COORD97":2541614.71,"ADDRESS":"崇善五街７０號","OBJECTID":465455},"geometry":{"x":171147.09000000078,"y":2541614.7100000028}},{"attributes":{"ID":465481,"DIS_CODE":0,"TOWNNAME":"東區","LI":"崇善里","LIN":"5鄰","STREET":"崇善五街","SECT":" ","MAREA":" ","LANE":" ","ALLEY":" ","HOUSE_NO":"７２號","E_COORD97":171150.92999999999,"N_COORD97":2541616.8999999999,"ADDRESS":"崇善五街７２號","OBJECTID":465456},"geometry":{"x":171150.9299999997,"y":2541616.9000000004}},{"attributes":{"ID":465482,"DIS_CODE":0,"TOWNNAME":"東區","LI":"崇善里","LIN":"5鄰","STREET":"崇善五街","SECT":" ","MAREA":" ","LANE":" ","ALLEY":" ","HOUSE_NO":"７６號","E_COORD97":171157.79000000001,"N_COORD97":2541621.29,"ADDRESS":"崇善五街７６號","OBJECTID":465457},"geometry":{"x":171157.79000000097,"y":2541621.290000001}},{"attributes":{"ID":465483,"DIS_CODE":0,"TOWNNAME":"東區","LI":"大智里","LIN":"5鄰","STREET":"長東街","SECT":" ","MAREA":" ","LANE":" ","ALLEY":" ","HOUSE_NO":"４３號","E_COORD97":171012.04000000001,"N_COORD97":2540499.7999999998,"ADDRESS":"長東街４３號","OBJECTID":465458},"geometry":{"x":171012.04000000097,"y":2540499.8000000007}},{"attributes":{"ID":465484,"DIS_CODE":0,"TOWNNAME":"東區","LI":"大智里","LIN":"5鄰","STREET":"長東街","SECT":" ","MAREA":" ","LANE":" ","ALLEY":" ","HOUSE_NO":"４５號","E_COORD97":171012.75,"N_COORD97":2540494.3799999999,"ADDRESS":"長東街４５號","OBJECTID":465459},"geometry":{"x":171012.75000000093,"y":2540494.3799999971}},{"attributes":{"ID":465485,"DIS_CODE":0,"TOWNNAME":"東區","LI":"東聖里","LIN":"5鄰","STREET":"富農街","SECT":"二段","MAREA":" ","LANE":" ","ALLEY":" ","HOUSE_NO":"７７號","E_COORD97":171619.66,"N_COORD97":2543056.6600000001,"ADDRESS":"富農街二段７７號","OBJECTID":465460},"geometry":{"x":171619.66000000201,"y":2543056.6600000001}},{"attributes":{"ID":465486,"DIS_CODE":0,"TOWNNAME":"永康區","LI":"網寮里","LIN":"20鄰","STREET":"永二街","SECT":" ","MAREA":" ","LANE":" ","ALLEY":" ","HOUSE_NO":"２５７號","E_COORD97":173306.09,"N_COORD97":2546235.5,"ADDRESS":"永二街２５７號","OBJECTID":465461},"geometry":{"x":173306.08999999985,"y":2546235.5000000019}},{"attributes":{"ID":465487,"DIS_CODE":0,"TOWNNAME":"新市區","LI":"新和里","LIN":"5鄰","STREET":"昆明街","SECT":" ","MAREA":" ","LANE":" ","ALLEY":" ","HOUSE_NO":"４２之１號","E_COORD97":177282.37,"N_COORD97":2552349.5499999998,"ADDRESS":"昆明街４２之１號","OBJECTID":465462},"geometry":{"x":177282.37000000104,"y":2552349.5500000026}},{"attributes":{"ID":465488,"DIS_CODE":0,"TOWNNAME":"新市區","LI":"新和里","LIN":"5鄰","STREET":"昆明街","SECT":" ","MAREA":" ","LANE":" ","ALLEY":" ","HOUSE_NO":"２號之６","E_COORD97":177393.44,"N_COORD97":2552378.7999999998,"ADDRESS":"昆明街２號之６","OBJECTID":465463},"geometry":{"x":177393.44000000041,"y":2552378.8000000007}},{"attributes":{"ID":465489,"DIS_CODE":0,"TOWNNAME":"新市區","LI":"新和里","LIN":"5鄰","STREET":"昆明街","SECT":" ","MAREA":" ","LANE":" ","ALLEY":" ","HOUSE_NO":"３８號","E_COORD97":177297.89999999999,"N_COORD97":2552356,"ADDRESS":"昆明街３８號","OBJECTID":465464},"geometry":{"x":177297.9000000013,"y":2552356.0000000019}},{"attributes":{"ID":465490,"DIS_CODE":0,"TOWNNAME":"新市區","LI":"新和里","LIN":"5鄰","STREET":"昆明街","SECT":" ","MAREA":" ","LANE":" ","ALLEY":" ","HOUSE_NO":"４８號","E_COORD97":177271.34,"N_COORD97":2552347,"ADDRESS":"昆明街４８號","OBJECTID":465465},"geometry":{"x":177271.33999999985,"y":2552347}},{"attributes":{"ID":465491,"DIS_CODE":0,"TOWNNAME":"永康區","LI":"大橋里","LIN":"5鄰","STREET":"大橋五街","SECT":" ","MAREA":" ","LANE":" ","ALLEY":" ","HOUSE_NO":"２０之３號","E_COORD97":170811.89999999999,"N_COORD97":2546847.5499999998,"ADDRESS":"大橋五街２０之３號","OBJECTID":465466},"geometry":{"x":170811.9000000013,"y":2546847.5500000007}},{"attributes":{"ID":465492,"DIS_CODE":0,"TOWNNAME":"永康區","LI":"大灣里","LIN":"5鄰","STREET":"大民街","SECT":" ","MAREA":" ","LANE":" ","ALLEY":" ","HOUSE_NO":"１３５號","E_COORD97":174927.04000000001,"N_COORD97":2545633.2799999998,"ADDRESS":"大民街１３５號","OBJECTID":465467},"geometry":{"x":174927.04000000004,"y":2545633.2800000012}},{"attributes":{"ID":465493,"DIS_CODE":0,"TOWNNAME":"永康區","LI":"大灣里","LIN":"5鄰","STREET":"大民街","SECT":" ","MAREA":" ","LANE":" ","ALLEY":" ","HOUSE_NO":"１３１號","E_COORD97":174928.79000000001,"N_COORD97":2545625.79,"ADDRESS":"大民街１３１號","OBJECTID":465468},"geometry":{"x":174928.79000000004,"y":2545625.790000001}},{"attributes":{"ID":465494,"DIS_CODE":0,"TOWNNAME":"永康區","LI":"勝利里","LIN":"20鄰","STREET":"勝學路","SECT":" ","MAREA":" ","LANE":" ","ALLEY":" ","HOUSE_NO":"２５６號","E_COORD97":171202.14999999999,"N_COORD97":2545267.7599999998,"ADDRESS":"勝學路２５６號","OBJECTID":465469},"geometry":{"x":171202.15000000037,"y":2545267.7600000016}},{"attributes":{"ID":465495,"DIS_CODE":0,"TOWNNAME":"永康區","LI":"復國里","LIN":"36鄰","STREET":"復國一路","SECT":" ","MAREA":" ","LANE":" ","ALLEY":" ","HOUSE_NO":"４７號","E_COORD97":172692.09,"N_COORD97":2544873.1699999999,"ADDRESS":"復國一路４７號","OBJECTID":465470},"geometry":{"x":172692.08999999985,"y":2544873.1699999999}},{"attributes":{"ID":465496,"DIS_CODE":0,"TOWNNAME":"永康區","LI":"勝利里","LIN":"5鄰","STREET":"勝學路","SECT":" ","MAREA":" ","LANE":" ","ALLEY":" ","HOUSE_NO":"５５號","E_COORD97":171139.01000000001,"N_COORD97":2544724,"ADDRESS":"勝學路５５號","OBJECTID":465471},"geometry":{"x":171139.01000000164,"y":2544724.0000000019}},{"attributes":{"ID":465497,"DIS_CODE":0,"TOWNNAME":"永康區","LI":"龍潭里","LIN":"32鄰","STREET":"龍中街","SECT":" ","MAREA":" ","LANE":" ","ALLEY":" ","HOUSE_NO":"４６號之１","E_COORD97":174456.29000000001,"N_COORD97":2547955.0899999999,"ADDRESS":"龍中街４６號之１","OBJECTID":465472},"geometry":{"x":174456.29000000004,"y":2547955.0899999999}},{"attributes":{"ID":465498,"DIS_CODE":0,"TOWNNAME":"永康區","LI":"復興里","LIN":"5鄰","STREET":"復興路","SECT":" ","MAREA":" ","LANE":" ","ALLEY":" ","HOUSE_NO":"４０５號","E_COORD97":172099.06,"N_COORD97":2544308.3500000001,"ADDRESS":"復興路４０５號","OBJECTID":465473},"geometry":{"x":172099.05999999959,"y":2544308.3499999996}},{"attributes":{"ID":465499,"DIS_CODE":0,"TOWNNAME":"永康區","LI":"\u25A0行里","LIN":"4鄰","STREET":"新行街","SECT":" ","MAREA":" ","LANE":" ","ALLEY":" ","HOUSE_NO":"３４號","E_COORD97":172259.92000000001,"N_COORD97":2548796.7799999998,"ADDRESS":"新行街３４號","OBJECTID":465474},"geometry":{"x":172259.91999999993,"y":2548796.7800000012}},{"attributes":{"ID":465500,"DIS_CODE":0,"TOWNNAME":"永康區","LI":"永康里","LIN":" ","STREET":"永正路","SECT":" ","MAREA":" ","LANE":" ","ALLEY":" ","HOUSE_NO":"８１之８號","E_COORD97":173527.45000000001,"N_COORD97":2547484.7999999998,"ADDRESS":"永正路８１之８號","OBJECTID":465475},"geometry":{"x":173527.45000000019,"y":2547484.8000000045}},{"attributes":{"ID":465501,"DIS_CODE":0,"TOWNNAME":"永康區","LI":"\u25A0行里","LIN":"25鄰","STREET":"\u25A0和街","SECT":" ","MAREA":" ","LANE":" ","ALLEY":" ","HOUSE_NO":"２７６號","E_COORD97":171540.95999999999,"N_COORD97":2548434.9900000002,"ADDRESS":"\u25A0和街２７６號","OBJECTID":465476},"geometry":{"x":171540.95999999996,"y":2548434.9900000002}},{"attributes":{"ID":465502,"DIS_CODE":0,"TOWNNAME":"永康區","LI":"中華里","LIN":"24鄰","STREET":"華興街","SECT":" ","MAREA":" ","LANE":" ","ALLEY":" ","HOUSE_NO":"１６８號","E_COORD97":171669.01999999999,"N_COORD97":2544580.7999999998,"ADDRESS":"華興街１６８號","OBJECTID":465477},"geometry":{"x":171669.01999999955,"y":2544580.8000000007}},{"attributes":{"ID":465503,"DIS_CODE":0,"TOWNNAME":"永康區","LI":"尚頂里","LIN":" ","STREET":"中正三街","SECT":" ","MAREA":" ","LANE":" ","ALLEY":" ","HOUSE_NO":"８號","E_COORD97":172609.29000000001,"N_COORD97":2548855.2400000002,"ADDRESS":"中正三街８號","OBJECTID":465478},"geometry":{"x":172609.29000000097,"y":2548855.2400000021}},{"attributes":{"ID":465504,"DIS_CODE":0,"TOWNNAME":"永康區","LI":"南灣里","LIN":" ","STREET":"大灣路","SECT":" ","MAREA":" ","LANE":" ","ALLEY":" ","HOUSE_NO":"４３７之２號","E_COORD97":174691.54999999999,"N_COORD97":2544763.29,"ADDRESS":"大灣路４３７之２號","OBJECTID":465479},"geometry":{"x":174691.54999999981,"y":2544763.2899999991}},{"attributes":{"ID":465505,"DIS_CODE":0,"TOWNNAME":"安南區","LI":"城東里","LIN":"5鄰","STREET":"城北路","SECT":" ","MAREA":" ","LANE":" ","ALLEY":" ","HOUSE_NO":"１４６號","E_COORD97":161027.76000000001,"N_COORD97":2551678.6699999999,"ADDRESS":"城北路１４６號","OBJECTID":465480},"geometry":{"x":161027.76000000071,"y":2551678.6700000037}},{"attributes":{"ID":465506,"DIS_CODE":0,"TOWNNAME":"永康區","LI":"\u25A0洲里","LIN":"24鄰","STREET":"國聖街","SECT":" ","MAREA":" ","LANE":" ","ALLEY":" ","HOUSE_NO":"２５２號","E_COORD97":170744.64999999999,"N_COORD97":2548319.9900000002,"ADDRESS":"國聖街２５２號","OBJECTID":465481},"geometry":{"x":170744.65000000037,"y":2548319.9899999984}},{"attributes":{"ID":465507,"DIS_CODE":0,"TOWNNAME":"永康區","LI":"大灣里","LIN":" ","STREET":"大灣路","SECT":" ","MAREA":" ","LANE":" ","ALLEY":" ","HOUSE_NO":"２３４之３號","E_COORD97":173375.98999999999,"N_COORD97":2545170.2999999998,"ADDRESS":"大灣路２３４之３號","OBJECTID":465482},"geometry":{"x":173375.99000000115,"y":2545170.3000000026}},{"attributes":{"ID":465508,"DIS_CODE":0,"TOWNNAME":"永康區","LI":"\u25A0洲里","LIN":"25鄰","STREET":"國聖街","SECT":" ","MAREA":" ","LANE":" ","ALLEY":" ","HOUSE_NO":"２１２號","E_COORD97":170662.26000000001,"N_COORD97":2548236.6299999999,"ADDRESS":"國聖街２１２號","OBJECTID":465483},"geometry":{"x":170662.25999999978,"y":2548236.6300000027}},{"attributes":{"ID":465509,"DIS_CODE":0,"TOWNNAME":"仁德區","LI":"成功里","LIN":"5鄰","STREET":"成功三街","SECT":" ","MAREA":" ","LANE":" ","ALLEY":" ","HOUSE_NO":"８２號","E_COORD97":171169.54000000001,"N_COORD97":2539852.2599999998,"ADDRESS":"成功三街８２號","OBJECTID":465484},"geometry":{"x":171169.5400000019,"y":2539852.2600000035}},{"attributes":{"ID":465510,"DIS_CODE":0,"TOWNNAME":"仁德區","LI":"成功里","LIN":"5鄰","STREET":"成功三街","SECT":" ","MAREA":" ","LANE":" ","ALLEY":" ","HOUSE_NO":"５２號","E_COORD97":171165.64999999999,"N_COORD97":2539911.77,"ADDRESS":"成功三街５２號","OBJECTID":465485},"geometry":{"x":171165.65000000224,"y":2539911.7699999996}},{"attributes":{"ID":465511,"DIS_CODE":0,"TOWNNAME":"仁德區","LI":"仁德里","LIN":"5鄰","STREET":"中正路","SECT":"二段","MAREA":" ","LANE":" ","ALLEY":" ","HOUSE_NO":"１０６１號","E_COORD97":173377.39999999999,"N_COORD97":2540808.52,"ADDRESS":"中正路二段１０６１號","OBJECTID":465486},"geometry":{"x":173377.40000000037,"y":2540808.5199999996}},{"attributes":{"ID":465512,"DIS_CODE":0,"TOWNNAME":"仁德區","LI":"成功里","LIN":"5鄰","STREET":"成功三街","SECT":" ","MAREA":" ","LANE":" ","ALLEY":" ","HOUSE_NO":"７６號","E_COORD97":171168.76000000001,"N_COORD97":2539864.0099999998,"ADDRESS":"成功三街７６號","OBJECTID":465487},"geometry":{"x":171168.75999999978,"y":2539864.0100000035}},{"attributes":{"ID":465513,"DIS_CODE":0,"TOWNNAME":"永康區","LI":"\u25A0行里","LIN":"26鄰","STREET":"中正南路","SECT":" ","MAREA":" ","LANE":" ","ALLEY":" ","HOUSE_NO":"５２４號","E_COORD97":171345.17000000001,"N_COORD97":2548588.75,"ADDRESS":"中正南路５２４號","OBJECTID":465488},"geometry":{"x":171345.17000000086,"y":2548588.75}},{"attributes":{"ID":465514,"DIS_CODE":0,"TOWNNAME":"永康區","LI":"\u25A0洲里","LIN":"32鄰","STREET":"\u25A0行路","SECT":" ","MAREA":" ","LANE":" ","ALLEY":" ","HOUSE_NO":"２５７號","E_COORD97":170990.51000000001,"N_COORD97":2548922.5,"ADDRESS":"\u25A0行路２５７號","OBJECTID":465489},"geometry":{"x":170990.51000000071,"y":2548922.5}},{"attributes":{"ID":465515,"DIS_CODE":0,"TOWNNAME":"仁德區","LI":"成功里","LIN":"5鄰","STREET":"成功三街","SECT":" ","MAREA":" ","LANE":" ","ALLEY":" ","HOUSE_NO":"６６號","E_COORD97":171166.37,"N_COORD97":2539884.02,"ADDRESS":"成功三街６６號","OBJECTID":465490},"geometry":{"x":171166.37000000104,"y":2539884.0200000033}},{"attributes":{"ID":465516,"DIS_CODE":0,"TOWNNAME":"仁德區","LI":"成功里","LIN":"5鄰","STREET":"成功三街","SECT":" ","MAREA":" ","LANE":" ","ALLEY":" ","HOUSE_NO":"６４號","E_COORD97":171165.92000000001,"N_COORD97":2539887.77,"ADDRESS":"成功三街６４號","OBJECTID":465491},"geometry":{"x":171165.92000000086,"y":2539887.7699999996}},{"attributes":{"ID":465517,"DIS_CODE":0,"TOWNNAME":"永康區","LI":"勝利里","LIN":"4鄰","STREET":"勝學路","SECT":" ","MAREA":" ","LANE":" ","ALLEY":" ","HOUSE_NO":"１１１號","E_COORD97":171100.67999999999,"N_COORD97":2544892.2599999998,"ADDRESS":"勝學路１１１號","OBJECTID":465492},"geometry":{"x":171100.68000000063,"y":2544892.2599999998}},{"attributes":{"ID":465518,"DIS_CODE":0,"TOWNNAME":"永康區","LI":"大橋里","LIN":" ","STREET":"大橋一街","SECT":" ","MAREA":" ","LANE":" ","ALLEY":" ","HOUSE_NO":"２４４號","E_COORD97":171062.23999999999,"N_COORD97":2546492.2400000002,"ADDRESS":"大橋一街２４４號","OBJECTID":465493},"geometry":{"x":171062.24000000115,"y":2546492.2400000021}},{"attributes":{"ID":465519,"DIS_CODE":0,"TOWNNAME":"永康區","LI":"\u25A0洲里","LIN":"7鄰","STREET":"三村二街","SECT":" ","MAREA":" ","LANE":" ","ALLEY":" ","HOUSE_NO":"２０號","E_COORD97":171954.54000000001,"N_COORD97":2549425,"ADDRESS":"三村二街２０號","OBJECTID":465494},"geometry":{"x":171954.54000000097,"y":2549425.0000000037}},{"attributes":{"ID":465520,"DIS_CODE":0,"TOWNNAME":"永康區","LI":"崑山里","LIN":"36鄰","STREET":"大仁街","SECT":" ","MAREA":" ","LANE":" ","ALLEY":" ","HOUSE_NO":"１７３號","E_COORD97":173892.06,"N_COORD97":2544977.7000000002,"ADDRESS":"大仁街１７３號","OBJECTID":465495},"geometry":{"x":173892.06000000052,"y":2544977.6999999993}},{"attributes":{"ID":465521,"DIS_CODE":0,"TOWNNAME":"永康區","LI":"\u25A0洲里","LIN":"26鄰","STREET":"洲尾街","SECT":" ","MAREA":" ","LANE":" ","ALLEY":" ","HOUSE_NO":"２２７號","E_COORD97":170917.04000000001,"N_COORD97":2549083.7599999998,"ADDRESS":"洲尾街２２７號","OBJECTID":465496},"geometry":{"x":170917.04000000097,"y":2549083.7599999998}},{"attributes":{"ID":465522,"DIS_CODE":0,"TOWNNAME":"永康區","LI":"五王里","LIN":" ","STREET":"振興路","SECT":" ","MAREA":" ","LANE":" ","ALLEY":" ","HOUSE_NO":"１５號","E_COORD97":171404.41,"N_COORD97":2545767.8199999998,"ADDRESS":"振興路１５號","OBJECTID":465497},"geometry":{"x":171404.41000000201,"y":2545767.8200000003}},{"attributes":{"ID":465523,"DIS_CODE":0,"TOWNNAME":"東區","LI":"崇善里","LIN":"5鄰","STREET":"崇善五街","SECT":" ","MAREA":" ","LANE":" ","ALLEY":" ","HOUSE_NO":"４２號","E_COORD97":171092.56,"N_COORD97":2541586.8900000001,"ADDRESS":"崇善五街４２號","OBJECTID":465498},"geometry":{"x":171092.56000000145,"y":2541586.8900000006}},{"attributes":{"ID":465524,"DIS_CODE":0,"TOWNNAME":"東區","LI":"崇善里","LIN":"5鄰","STREET":"崇善五街","SECT":" ","MAREA":" ","LANE":" ","ALLEY":" ","HOUSE_NO":"４４號","E_COORD97":171096.23999999999,"N_COORD97":2541588.2200000002,"ADDRESS":"崇善五街４４號","OBJECTID":465499},"geometry":{"x":171096.24000000115,"y":2541588.2200000007}},{"attributes":{"ID":465525,"DIS_CODE":0,"TOWNNAME":"東區","LI":"崇善里","LIN":"5鄰","STREET":"崇善五街","SECT":" ","MAREA":" ","LANE":" ","ALLEY":" ","HOUSE_NO":"６２號","E_COORD97":171130.29999999999,"N_COORD97":2541607.5699999998,"ADDRESS":"崇善五街６２號","OBJECTID":465500},"geometry":{"x":171130.30000000168,"y":2541607.5700000022}},{"attributes":{"ID":465526,"DIS_CODE":0,"TOWNNAME":"東區","LI":"崇善里","LIN":"5鄰","STREET":"崇善五街","SECT":" ","MAREA":" ","LANE":" ","ALLEY":" ","HOUSE_NO":"７８號","E_COORD97":171160.79999999999,"N_COORD97":2541623.21,"ADDRESS":"崇善五街７８號","OBJECTID":465501},"geometry":{"x":171160.80000000168,"y":2541623.209999999}},{"attributes":{"ID":465527,"DIS_CODE":0,"TOWNNAME":"東區","LI":"龍山里","LIN":"5鄰","STREET":"林森路","SECT":"一段","MAREA":" ","LANE":" ","ALLEY":" ","HOUSE_NO":"３１８號","E_COORD97":170062.04999999999,"N_COORD97":2542619.7400000002,"ADDRESS":"林森路一段３１８號","OBJECTID":465502},"geometry":{"x":170062.04999999981,"y":2542619.7400000021}},{"attributes":{"ID":465528,"DIS_CODE":0,"TOWNNAME":"仁德區","LI":"後壁里","LIN":"5鄰","STREET":"德善一街","SECT":" ","MAREA":" ","LANE":" ","ALLEY":" ","HOUSE_NO":"２６號","E_COORD97":173415.39999999999,"N_COORD97":2538945.2599999998,"ADDRESS":"德善一街２６號","OBJECTID":465503},"geometry":{"x":173415.4000000013,"y":2538945.2599999998}},{"attributes":{"ID":465529,"DIS_CODE":0,"TOWNNAME":"仁德區","LI":"後壁里","LIN":"5鄰","STREET":"德善一街","SECT":" ","MAREA":" ","LANE":" ","ALLEY":" ","HOUSE_NO":"２０號","E_COORD97":173406.79000000001,"N_COORD97":2538935.2599999998,"ADDRESS":"德善一街２０號","OBJECTID":465504},"geometry":{"x":173406.79000000004,"y":2538935.2599999998}},{"attributes":{"ID":465530,"DIS_CODE":0,"TOWNNAME":"仁德區","LI":"後壁里","LIN":"5鄰","STREET":"德善一街","SECT":" ","MAREA":" ","LANE":" ","ALLEY":" ","HOUSE_NO":"１２號","E_COORD97":173395.20999999999,"N_COORD97":2538922.5099999998,"ADDRESS":"德善一街１２號","OBJECTID":465505},"geometry":{"x":173395.20999999996,"y":2538922.5100000016}},{"attributes":{"ID":465531,"DIS_CODE":0,"TOWNNAME":"仁德區","LI":"後壁里","LIN":"5鄰","STREET":"德善一街","SECT":" ","MAREA":" ","LANE":" ","ALLEY":" ","HOUSE_NO":"２４號","E_COORD97":173412.92000000001,"N_COORD97":2538941.7599999998,"ADDRESS":"德善一街２４號","OBJECTID":465506},"geometry":{"x":173412.92000000179,"y":2538941.7600000016}},{"attributes":{"ID":465532,"DIS_CODE":0,"TOWNNAME":"仁德區","LI":"後壁里","LIN":"5鄰","STREET":"德善一街","SECT":" ","MAREA":" ","LANE":" ","ALLEY":" ","HOUSE_NO":"１６號","E_COORD97":173401,"N_COORD97":2538929.0099999998,"ADDRESS":"德善一街１６號","OBJECTID":465507},"geometry":{"x":173401.00000000093,"y":2538929.0100000016}},{"attributes":{"ID":465533,"DIS_CODE":0,"TOWNNAME":"仁德區","LI":"後壁里","LIN":"5鄰","STREET":"德善一街","SECT":" ","MAREA":" ","LANE":" ","ALLEY":" ","HOUSE_NO":"２２號","E_COORD97":173409.62,"N_COORD97":2538938.7599999998,"ADDRESS":"德善一街２２號","OBJECTID":465508},"geometry":{"x":173409.62000000011,"y":2538938.7599999998}},{"attributes":{"ID":465534,"DIS_CODE":0,"TOWNNAME":"永康區","LI":"大橋里","LIN":"5鄰","STREET":"大橋三街","SECT":" ","MAREA":" ","LANE":" ","ALLEY":" ","HOUSE_NO":"１９１號","E_COORD97":170838.38,"N_COORD97":2546766.3599999999,"ADDRESS":"大橋三街１９１號","OBJECTID":465509},"geometry":{"x":170838.38000000082,"y":2546766.3599999994}},{"attributes":{"ID":465535,"DIS_CODE":0,"TOWNNAME":"永康區","LI":"三合里","LIN":"5鄰","STREET":"南工街","SECT":" ","MAREA":" ","LANE":" ","ALLEY":" ","HOUSE_NO":"６２之１號","E_COORD97":172107.10000000001,"N_COORD97":2545647.1499999999,"ADDRESS":"南工街６２之１號","OBJECTID":465510},"geometry":{"x":172107.09999999963,"y":2545647.1500000004}},{"attributes":{"ID":465536,"DIS_CODE":0,"TOWNNAME":"永康區","LI":"大灣里","LIN":"5鄰","STREET":"大民街","SECT":" ","MAREA":" ","LANE":" ","ALLEY":" ","HOUSE_NO":"１３３號","E_COORD97":174928.01000000001,"N_COORD97":2545629.5299999998,"ADDRESS":"大民街１３３號","OBJECTID":465511},"geometry":{"x":174928.01000000071,"y":2545629.5299999993}},{"attributes":{"ID":465537,"DIS_CODE":0,"TOWNNAME":"永康區","LI":"大灣里","LIN":"5鄰","STREET":"大同街","SECT":" ","MAREA":" ","LANE":" ","ALLEY":" ","HOUSE_NO":"１８０號","E_COORD97":174868.81,"N_COORD97":2545600.8799999999,"ADDRESS":"大同街１８０號","OBJECTID":465512},"geometry":{"x":174868.80999999959,"y":2545600.8800000008}},{"attributes":{"ID":465538,"DIS_CODE":0,"TOWNNAME":"永康區","LI":"大灣里","LIN":"5鄰","STREET":"大民街","SECT":" ","MAREA":" ","LANE":" ","ALLEY":" ","HOUSE_NO":"１２１號","E_COORD97":174932.38,"N_COORD97":2545602.8500000001,"ADDRESS":"大民街１２１號","OBJECTID":465513},"geometry":{"x":174932.38000000082,"y":2545602.8500000015}},{"attributes":{"ID":465539,"DIS_CODE":0,"TOWNNAME":"中西區","LI":"藥王里","LIN":"5鄰","STREET":"大福街","SECT":" ","MAREA":" ","LANE":" ","ALLEY":" ","HOUSE_NO":"５號","E_COORD97":167300.09,"N_COORD97":2544338.21,"ADDRESS":"大福街５號","OBJECTID":465514},"geometry":{"x":167300.08999999985,"y":2544338.2100000009}},{"attributes":{"ID":465540,"DIS_CODE":0,"TOWNNAME":"安南區","LI":"溪東里","LIN":"5鄰","STREET":"府安路","SECT":"五段","MAREA":" ","LANE":" ","ALLEY":" ","HOUSE_NO":"７７號","E_COORD97":168173.5,"N_COORD97":2547164.7200000002,"ADDRESS":"府安路五段７７號","OBJECTID":465515},"geometry":{"x":168173.5,"y":2547164.7200000007}},{"attributes":{"ID":465541,"DIS_CODE":0,"TOWNNAME":"安南區","LI":"溪東里","LIN":"5鄰","STREET":"府安路","SECT":"五段","MAREA":" ","LANE":" ","ALLEY":" ","HOUSE_NO":"７８號","E_COORD97":168153.91,"N_COORD97":2547166.5699999998,"ADDRESS":"府安路五段７８號","OBJECTID":465516},"geometry":{"x":168153.91000000015,"y":2547166.5700000003}},{"attributes":{"ID":465542,"DIS_CODE":0,"TOWNNAME":"安南區","LI":"溪東里","LIN":"5鄰","STREET":"府安路","SECT":"五段","MAREA":" ","LANE":" ","ALLEY":" ","HOUSE_NO":"８８號","E_COORD97":168115.56,"N_COORD97":2547157.5699999998,"ADDRESS":"府安路五段８８號","OBJECTID":465517},"geometry":{"x":168115.55999999959,"y":2547157.5700000022}},{"attributes":{"ID":465543,"DIS_CODE":0,"TOWNNAME":"中西區","LI":"藥王里","LIN":"5鄰","STREET":"大福街","SECT":" ","MAREA":" ","LANE":" ","ALLEY":" ","HOUSE_NO":"９號","E_COORD97":167301.20999999999,"N_COORD97":2544346.54,"ADDRESS":"大福街９號","OBJECTID":465518},"geometry":{"x":167301.20999999996,"y":2544346.540000001}},{"attributes":{"ID":465544,"DIS_CODE":0,"TOWNNAME":"中西區","LI":"西賢里","LIN":"5鄰","STREET":"湖美街","SECT":" ","MAREA":" ","LANE":" ","ALLEY":" ","HOUSE_NO":"２１３號","E_COORD97":165920.10000000001,"N_COORD97":2544922.02,"ADDRESS":"湖美街２１３號","OBJECTID":465519},"geometry":{"x":165920.09999999963,"y":2544922.0200000033}},{"attributes":{"ID":465545,"DIS_CODE":0,"TOWNNAME":"中西區","LI":"藥王里","LIN":"5鄰","STREET":"大福街","SECT":" ","MAREA":" ","LANE":" ","ALLEY":" ","HOUSE_NO":"１０號","E_COORD97":167325.64000000001,"N_COORD97":2544346.0899999999,"ADDRESS":"大福街１０號","OBJECTID":465520},"geometry":{"x":167325.6400000006,"y":2544346.0900000017}},{"attributes":{"ID":465546,"DIS_CODE":0,"TOWNNAME":"中西區","LI":"藥王里","LIN":"5鄰","STREET":"大福街","SECT":" ","MAREA":" ","LANE":" ","ALLEY":" ","HOUSE_NO":"１４號","E_COORD97":167334.10999999999,"N_COORD97":2544354.0699999998,"ADDRESS":"大福街１４號","OBJECTID":465521},"geometry":{"x":167334.11000000034,"y":2544354.0700000022}},{"attributes":{"ID":465547,"DIS_CODE":0,"TOWNNAME":"中西區","LI":"藥王里","LIN":"5鄰","STREET":"大福街","SECT":" ","MAREA":" ","LANE":" ","ALLEY":" ","HOUSE_NO":"１６號","E_COORD97":167335.56,"N_COORD97":2544359.8799999999,"ADDRESS":"大福街１６號","OBJECTID":465522},"geometry":{"x":167335.55999999959,"y":2544359.8800000008}},{"attributes":{"ID":465548,"DIS_CODE":0,"TOWNNAME":"中西區","LI":"藥王里","LIN":"5鄰","STREET":"大福街","SECT":" ","MAREA":" ","LANE":" ","ALLEY":" ","HOUSE_NO":"１８號","E_COORD97":167336.04999999999,"N_COORD97":2544364.23,"ADDRESS":"大福街１８號","OBJECTID":465523},"geometry":{"x":167336.04999999981,"y":2544364.2300000004}},{"attributes":{"ID":465549,"DIS_CODE":0,"TOWNNAME":"中西區","LI":"藥王里","LIN":"5鄰","STREET":"大福街","SECT":" ","MAREA":" ","LANE":" ","ALLEY":" ","HOUSE_NO":"２０號","E_COORD97":167335.07999999999,"N_COORD97":2544368.8300000001,"ADDRESS":"大福街２０號","OBJECTID":465524},"geometry":{"x":167335.08000000101,"y":2544368.8300000019}},{"attributes":{"ID":465550,"DIS_CODE":0,"TOWNNAME":"中西區","LI":"藥王里","LIN":"5鄰","STREET":"大福街","SECT":" ","MAREA":" ","LANE":" ","ALLEY":" ","HOUSE_NO":"２號","E_COORD97":167320.32000000001,"N_COORD97":2544331.3399999999,"ADDRESS":"大福街２號","OBJECTID":465525},"geometry":{"x":167320.32000000123,"y":2544331.3400000017}},{"attributes":{"ID":465551,"DIS_CODE":0,"TOWNNAME":"中西區","LI":"藥王里","LIN":"5鄰","STREET":"大福街","SECT":" ","MAREA":" ","LANE":" ","ALLEY":" ","HOUSE_NO":"６號","E_COORD97":167322.98000000001,"N_COORD97":2544337.1400000001,"ADDRESS":"大福街６號","OBJECTID":465526},"geometry":{"x":167322.98000000138,"y":2544337.1400000025}},{"attributes":{"ID":465552,"DIS_CODE":0,"TOWNNAME":"中西區","LI":"藥王里","LIN":"5鄰","STREET":"大福街","SECT":" ","MAREA":" ","LANE":" ","ALLEY":" ","HOUSE_NO":"８號","E_COORD97":167323.70999999999,"N_COORD97":2544341.5,"ADDRESS":"大福街８號","OBJECTID":465527},"geometry":{"x":167323.71000000089,"y":2544341.5}},{"attributes":{"ID":465553,"DIS_CODE":0,"TOWNNAME":"中西區","LI":"藥王里","LIN":"5鄰","STREET":"大福街","SECT":" ","MAREA":" ","LANE":" ","ALLEY":" ","HOUSE_NO":"１１號","E_COORD97":167302.82000000001,"N_COORD97":2544350.71,"ADDRESS":"大福街１１號","OBJECTID":465528},"geometry":{"x":167302.82000000216,"y":2544350.7100000028}},{"attributes":{"ID":465554,"DIS_CODE":0,"TOWNNAME":"中西區","LI":"藥王里","LIN":"5鄰","STREET":"大福街","SECT":" ","MAREA":" ","LANE":" ","ALLEY":" ","HOUSE_NO":"１３號","E_COORD97":167303.62,"N_COORD97":2544354.71,"ADDRESS":"大福街１３號","OBJECTID":465529},"geometry":{"x":167303.62000000011,"y":2544354.7100000009}},{"attributes":{"ID":465555,"DIS_CODE":0,"TOWNNAME":"中西區","LI":"藥王里","LIN":"5鄰","STREET":"民權路","SECT":"三段","MAREA":" ","LANE":" ","ALLEY":" ","HOUSE_NO":"２４０號","E_COORD97":167290.79000000001,"N_COORD97":2544329.0800000001,"ADDRESS":"民權路三段２４０號","OBJECTID":465530},"geometry":{"x":167290.78999999911,"y":2544329.0800000038}},{"attributes":{"ID":465556,"DIS_CODE":0,"TOWNNAME":"中西區","LI":"藥王里","LIN":"5鄰","STREET":"民權路","SECT":"三段","MAREA":" ","LANE":" ","ALLEY":" ","HOUSE_NO":"２４２號","E_COORD97":167280.69,"N_COORD97":2544330.8399999999,"ADDRESS":"民權路三段２４２號","OBJECTID":465531},"geometry":{"x":167280.69000000134,"y":2544330.8400000017}},{"attributes":{"ID":465557,"DIS_CODE":0,"TOWNNAME":"中西區","LI":"藥王里","LIN":"5鄰","STREET":"民權路","SECT":"三段","MAREA":" ","LANE":" ","ALLEY":" ","HOUSE_NO":"２４４號","E_COORD97":167274.10999999999,"N_COORD97":2544330.6800000002,"ADDRESS":"民權路三段２４４號","OBJECTID":465532},"geometry":{"x":167274.11000000127,"y":2544330.6799999997}},{"attributes":{"ID":465558,"DIS_CODE":0,"TOWNNAME":"中西區","LI":"藥王里","LIN":"5鄰","STREET":"民權路","SECT":"三段","MAREA":" ","LANE":" ","ALLEY":" ","HOUSE_NO":"２４６號","E_COORD97":167269.14000000001,"N_COORD97":2544332.4399999999,"ADDRESS":"民權路三段２４６號","OBJECTID":465533},"geometry":{"x":167269.13999999966,"y":2544332.4399999976}},{"attributes":{"ID":465559,"DIS_CODE":0,"TOWNNAME":"中西區","LI":"藥王里","LIN":"5鄰","STREET":"民權路","SECT":"三段","MAREA":" ","LANE":" ","ALLEY":" ","HOUSE_NO":"２４８號","E_COORD97":167263.37,"N_COORD97":2544331.7999999998,"ADDRESS":"民權路三段２４８號","OBJECTID":465534},"geometry":{"x":167263.37000000197,"y":2544331.8000000026}},{"attributes":{"ID":465560,"DIS_CODE":0,"TOWNNAME":"中西區","LI":"藥王里","LIN":"5鄰","STREET":"民權路","SECT":"三段","MAREA":" ","LANE":" ","ALLEY":" ","HOUSE_NO":"２５０號","E_COORD97":167259.20000000001,"N_COORD97":2544332.1200000001,"ADDRESS":"民權路三段２５０號","OBJECTID":465535},"geometry":{"x":167259.20000000019,"y":2544332.120000001}},{"attributes":{"ID":465561,"DIS_CODE":0,"TOWNNAME":"中西區","LI":"藥王里","LIN":"5鄰","STREET":"民權路","SECT":"三段","MAREA":" ","LANE":" ","ALLEY":" ","HOUSE_NO":"２５２號","E_COORD97":167254.23000000001,"N_COORD97":2544334.2000000002,"ADDRESS":"民權路三段２５２號","OBJECTID":465536},"geometry":{"x":167254.23000000045,"y":2544334.200000003}},{"attributes":{"ID":465562,"DIS_CODE":0,"TOWNNAME":"中西區","LI":"藥王里","LIN":"5鄰","STREET":"民權路","SECT":"三段","MAREA":" ","LANE":" ","ALLEY":" ","HOUSE_NO":"２５４號","E_COORD97":167250.06,"N_COORD97":2544334.04,"ADDRESS":"民權路三段２５４號","OBJECTID":465537},"geometry":{"x":167250.06000000052,"y":2544334.0399999991}},{"attributes":{"ID":465563,"DIS_CODE":0,"TOWNNAME":"中西區","LI":"藥王里","LIN":"5鄰","STREET":"民權路","SECT":"三段","MAREA":" ","LANE":" ","ALLEY":" ","HOUSE_NO":"２５６號","E_COORD97":167245.25,"N_COORD97":2544335.48,"ADDRESS":"民權路三段２５６號","OBJECTID":465538},"geometry":{"x":167245.24999999907,"y":2544335.4800000004}},{"attributes":{"ID":465564,"DIS_CODE":0,"TOWNNAME":"中西區","LI":"藥王里","LIN":"5鄰","STREET":"民權路","SECT":"三段","MAREA":" ","LANE":" ","ALLEY":" ","HOUSE_NO":"２５８號","E_COORD97":167240.28,"N_COORD97":2544337.4100000001,"ADDRESS":"民權路三段２５８號","OBJECTID":465539},"geometry":{"x":167240.28000000212,"y":2544337.410000002}},{"attributes":{"ID":465565,"DIS_CODE":0,"TOWNNAME":"中西區","LI":"藥王里","LIN":"5鄰","STREET":"民權路","SECT":"三段","MAREA":" ","LANE":" ","ALLEY":" ","HOUSE_NO":"２６０號","E_COORD97":167235.63,"N_COORD97":2544337.5699999998,"ADDRESS":"民權路三段２６０號","OBJECTID":465540},"geometry":{"x":167235.62999999989,"y":2544337.5700000022}},{"attributes":{"ID":465566,"DIS_CODE":0,"TOWNNAME":"中西區","LI":"藥王里","LIN":"5鄰","STREET":"民權路","SECT":"三段","MAREA":" ","LANE":" ","ALLEY":" ","HOUSE_NO":"２６２號","E_COORD97":167231.14000000001,"N_COORD97":2544337.8900000001,"ADDRESS":"民權路三段２６２號","OBJECTID":465541},"geometry":{"x":167231.1400000006,"y":2544337.8900000025}},{"attributes":{"ID":465567,"DIS_CODE":0,"TOWNNAME":"中西區","LI":"藥王里","LIN":"5鄰","STREET":"民權路","SECT":"三段","MAREA":" ","LANE":" ","ALLEY":" ","HOUSE_NO":"２６４號","E_COORD97":167227.07000000001,"N_COORD97":2544339.5800000001,"ADDRESS":"民權路三段２６４號","OBJECTID":465542},"geometry":{"x":167227.07000000123,"y":2544339.5800000019}},{"attributes":{"ID":465568,"DIS_CODE":0,"TOWNNAME":"中西區","LI":"藥王里","LIN":"5鄰","STREET":"民權路","SECT":"三段","MAREA":" ","LANE":" ","ALLEY":" ","HOUSE_NO":"２６６號","E_COORD97":167222.67999999999,"N_COORD97":2544342.3199999998,"ADDRESS":"民權路三段２６６號","OBJECTID":465543},"geometry":{"x":167222.6799999997,"y":2544342.3200000022}},{"attributes":{"ID":465569,"DIS_CODE":0,"TOWNNAME":"永康區","LI":"西勢里","LIN":"5鄰","STREET":"西勢路","SECT":" ","MAREA":" ","LANE":" ","ALLEY":" ","HOUSE_NO":"３１５號","E_COORD97":175463.56,"N_COORD97":2546779.6800000002,"ADDRESS":"西勢路３１５號","OBJECTID":465544},"geometry":{"x":175463.56000000052,"y":2546779.6800000016}},{"attributes":{"ID":465570,"DIS_CODE":0,"TOWNNAME":"東區","LI":"德高里","LIN":"5鄰","STREET":"仁和路","SECT":" ","MAREA":" ","LANE":" ","ALLEY":" ","HOUSE_NO":"２５４號","E_COORD97":171592.47,"N_COORD97":2540886.04,"ADDRESS":"仁和路２５４號","OBJECTID":465545},"geometry":{"x":171592.47000000067,"y":2540886.0399999991}},{"attributes":{"ID":465571,"DIS_CODE":0,"TOWNNAME":"東區","LI":"德高里","LIN":"5鄰","STREET":"仁和路","SECT":" ","MAREA":" ","LANE":" ","ALLEY":" ","HOUSE_NO":"２５６號","E_COORD97":171602.29999999999,"N_COORD97":2540881.8900000001,"ADDRESS":"仁和路２５６號","OBJECTID":465546},"geometry":{"x":171602.29999999981,"y":2540881.8900000006}},{"attributes":{"ID":465572,"DIS_CODE":0,"TOWNNAME":"中西區","LI":"銀同里","LIN":"5鄰","STREET":"府中街","SECT":" ","MAREA":" ","LANE":" ","ALLEY":" ","HOUSE_NO":"８１號","E_COORD97":168688.26000000001,"N_COORD97":2543418.1299999999,"ADDRESS":"府中街８１號","OBJECTID":465547},"geometry":{"x":168688.26000000071,"y":2543418.129999999}},{"attributes":{"ID":465573,"DIS_CODE":0,"TOWNNAME":"中西區","LI":"銀同里","LIN":"5鄰","STREET":"府中街","SECT":" ","MAREA":" ","LANE":" ","ALLEY":" ","HOUSE_NO":"７１號","E_COORD97":168706.66,"N_COORD97":2543432.4900000002,"ADDRESS":"府中街７１號","OBJECTID":465548},"geometry":{"x":168706.66000000015,"y":2543432.4900000021}},{"attributes":{"ID":465574,"DIS_CODE":0,"TOWNNAME":"中西區","LI":"銀同里","LIN":"5鄰","STREET":"府中街","SECT":" ","MAREA":" ","LANE":" ","ALLEY":" ","HOUSE_NO":"７３號","E_COORD97":168704.54000000001,"N_COORD97":2543429.75,"ADDRESS":"府中街７３號","OBJECTID":465549},"geometry":{"x":168704.53999999911,"y":2543429.7500000019}},{"attributes":{"ID":465575,"DIS_CODE":0,"TOWNNAME":"中西區","LI":"銀同里","LIN":"5鄰","STREET":"府中街","SECT":" ","MAREA":" ","LANE":" ","ALLEY":" ","HOUSE_NO":"７５號","E_COORD97":168699.89000000001,"N_COORD97":2543426.3700000001,"ADDRESS":"府中街７５號","OBJECTID":465550},"geometry":{"x":168699.88999999966,"y":2543426.3700000048}},{"attributes":{"ID":465576,"DIS_CODE":0,"TOWNNAME":"中西區","LI":"銀同里","LIN":"5鄰","STREET":"府中街","SECT":" ","MAREA":" ","LANE":" ","ALLEY":" ","HOUSE_NO":"７７號","E_COORD97":168695.45000000001,"N_COORD97":2543422.9900000002,"ADDRESS":"府中街７７號","OBJECTID":465551},"geometry":{"x":168695.45000000112,"y":2543422.9900000002}},{"attributes":{"ID":465577,"DIS_CODE":0,"TOWNNAME":"中西區","LI":"銀同里","LIN":"5鄰","STREET":"開山路","SECT":" ","MAREA":" ","LANE":" ","ALLEY":" ","HOUSE_NO":"１０１號","E_COORD97":168733.67999999999,"N_COORD97":2543350.3199999998,"ADDRESS":"開山路１０１號","OBJECTID":465552},"geometry":{"x":168733.6799999997,"y":2543350.3200000003}},{"attributes":{"ID":465578,"DIS_CODE":0,"TOWNNAME":"中西區","LI":"銀同里","LIN":"5鄰","STREET":"開山路","SECT":" ","MAREA":" ","LANE":" ","ALLEY":" ","HOUSE_NO":"１０３號","E_COORD97":168737.42999999999,"N_COORD97":2543345.9199999999,"ADDRESS":"開山路１０３號","OBJECTID":465553},"geometry":{"x":168737.43000000063,"y":2543345.9199999999}},{"attributes":{"ID":465579,"DIS_CODE":0,"TOWNNAME":"中西區","LI":"銀同里","LIN":"5鄰","STREET":"開山路","SECT":" ","MAREA":" ","LANE":" ","ALLEY":" ","HOUSE_NO":"１０５號","E_COORD97":168741.42999999999,"N_COORD97":2543341.6000000001,"ADDRESS":"開山路１０５號","OBJECTID":465554},"geometry":{"x":168741.43000000063,"y":2543341.6000000034}},{"attributes":{"ID":465580,"DIS_CODE":0,"TOWNNAME":"中西區","LI":"銀同里","LIN":"5鄰","STREET":"開山路","SECT":" ","MAREA":" ","LANE":" ","ALLEY":" ","HOUSE_NO":"１０７號","E_COORD97":168743.47,"N_COORD97":2543338.75,"ADDRESS":"開山路１０７號","OBJECTID":465555},"geometry":{"x":168743.46999999974,"y":2543338.7500000019}},{"attributes":{"ID":465581,"DIS_CODE":0,"TOWNNAME":"中西區","LI":"銀同里","LIN":"5鄰","STREET":"開山路","SECT":" ","MAREA":" ","LANE":" ","ALLEY":" ","HOUSE_NO":"８３號","E_COORD97":168704.10000000001,"N_COORD97":2543395.9199999999,"ADDRESS":"開山路８３號","OBJECTID":465556},"geometry":{"x":168704.10000000056,"y":2543395.9199999999}},{"attributes":{"ID":465582,"DIS_CODE":0,"TOWNNAME":"中西區","LI":"銀同里","LIN":"5鄰","STREET":"開山路","SECT":" ","MAREA":" ","LANE":" ","ALLEY":" ","HOUSE_NO":"８５號","E_COORD97":168706.63,"N_COORD97":2543393.48,"ADDRESS":"開山路８５號","OBJECTID":465557},"geometry":{"x":168706.62999999989,"y":2543393.4800000004}},{"attributes":{"ID":465583,"DIS_CODE":0,"TOWNNAME":"中西區","LI":"銀同里","LIN":"5鄰","STREET":"開山路","SECT":" ","MAREA":" ","LANE":" ","ALLEY":" ","HOUSE_NO":"８７號","E_COORD97":168707.69,"N_COORD97":2543389.73,"ADDRESS":"開山路８７號","OBJECTID":465558},"geometry":{"x":168707.69000000134,"y":2543389.7300000023}},{"attributes":{"ID":465584,"DIS_CODE":0,"TOWNNAME":"中西區","LI":"銀同里","LIN":"5鄰","STREET":"開山路","SECT":" ","MAREA":" ","LANE":" ","ALLEY":" ","HOUSE_NO":"９１號","E_COORD97":168714.23999999999,"N_COORD97":2543384.7200000002,"ADDRESS":"開山路９１號","OBJECTID":465559},"geometry":{"x":168714.24000000115,"y":2543384.7200000007}},{"attributes":{"ID":465585,"DIS_CODE":0,"TOWNNAME":"中西區","LI":"銀同里","LIN":"5鄰","STREET":"開山路","SECT":" ","MAREA":" ","LANE":" ","ALLEY":" ","HOUSE_NO":"９３號","E_COORD97":168715.06,"N_COORD97":2543381.21,"ADDRESS":"開山路９３號","OBJECTID":465560},"geometry":{"x":168715.06000000052,"y":2543381.2100000028}},{"attributes":{"ID":465586,"DIS_CODE":0,"TOWNNAME":"中西區","LI":"銀同里","LIN":"5鄰","STREET":"開山路","SECT":" ","MAREA":" ","LANE":" ","ALLEY":" ","HOUSE_NO":"９５號之１","E_COORD97":168719.54000000001,"N_COORD97":2543373.5499999998,"ADDRESS":"開山路９５號之１","OBJECTID":465561},"geometry":{"x":168719.54000000004,"y":2543373.5499999989}},{"attributes":{"ID":465587,"DIS_CODE":0,"TOWNNAME":"中西區","LI":"銀同里","LIN":"5鄰","STREET":"開山路","SECT":" ","MAREA":" ","LANE":" ","ALLEY":" ","HOUSE_NO":"９７號","E_COORD97":168721.67999999999,"N_COORD97":2543369.5899999999,"ADDRESS":"開山路９７號","OBJECTID":465562},"geometry":{"x":168721.6799999997,"y":2543369.5900000017}},{"attributes":{"ID":465588,"DIS_CODE":0,"TOWNNAME":"中西區","LI":"銀同里","LIN":"5鄰","STREET":"開山路","SECT":" ","MAREA":" ","LANE":" ","ALLEY":" ","HOUSE_NO":"９９號","E_COORD97":168730.69,"N_COORD97":2543361.79,"ADDRESS":"開山路９９號","OBJECTID":465563},"geometry":{"x":168730.69000000041,"y":2543361.790000001}},{"attributes":{"ID":465589,"DIS_CODE":0,"TOWNNAME":"白河區","LI":"秀祐里","LIN":"5鄰","STREET":"中正路","SECT":" ","MAREA":" ","LANE":" ","ALLEY":" ","HOUSE_NO":"６０１號","E_COORD97":188924.72,"N_COORD97":2583014.6400000001,"ADDRESS":"中正路６０１號","OBJECTID":465564},"geometry":{"x":188924.71999999974,"y":2583014.6400000025}},{"attributes":{"ID":465590,"DIS_CODE":0,"TOWNNAME":"白河區","LI":"秀祐里","LIN":"5鄰","STREET":"中正路","SECT":" ","MAREA":" ","LANE":" ","ALLEY":" ","HOUSE_NO":"６０２號","E_COORD97":188908.22,"N_COORD97":2583040.25,"ADDRESS":"中正路６０２號","OBJECTID":465565},"geometry":{"x":188908.2200000016,"y":2583040.2500000019}},{"attributes":{"ID":465591,"DIS_CODE":0,"TOWNNAME":"白河區","LI":"秀祐里","LIN":"5鄰","STREET":"中正路","SECT":" ","MAREA":" ","LANE":" ","ALLEY":" ","HOUSE_NO":"６０３號","E_COORD97":188920.79000000001,"N_COORD97":2583013.2999999998,"ADDRESS":"中正路６０３號","OBJECTID":465566},"geometry":{"x":188920.79000000004,"y":2583013.3000000026}},{"attributes":{"ID":465592,"DIS_CODE":0,"TOWNNAME":"白河區","LI":"秀祐里","LIN":"5鄰","STREET":"中正路","SECT":" ","MAREA":" ","LANE":" ","ALLEY":" ","HOUSE_NO":"６０５號","E_COORD97":188917.07000000001,"N_COORD97":2583012.3900000001,"ADDRESS":"中正路６０５號","OBJECTID":465567},"geometry":{"x":188917.07000000123,"y":2583012.3900000025}},{"attributes":{"ID":465593,"DIS_CODE":0,"TOWNNAME":"白河區","LI":"秀祐里","LIN":"5鄰","STREET":"中正路","SECT":" ","MAREA":" ","LANE":" ","ALLEY":" ","HOUSE_NO":"６０７號","E_COORD97":188912.67000000001,"N_COORD97":2583010.8999999999,"ADDRESS":"中正路６０７號","OBJECTID":465568},"geometry":{"x":188912.67000000086,"y":2583010.9000000004}},{"attributes":{"ID":465594,"DIS_CODE":0,"TOWNNAME":"白河區","LI":"秀祐里","LIN":"5鄰","STREET":"中正路","SECT":" ","MAREA":" ","LANE":" ","ALLEY":" ","HOUSE_NO":"６０９號","E_COORD97":188909.07999999999,"N_COORD97":2583010.02,"ADDRESS":"中正路６０９號","OBJECTID":465569},"geometry":{"x":188909.08000000007,"y":2583010.0200000014}},{"attributes":{"ID":465595,"DIS_CODE":0,"TOWNNAME":"白河區","LI":"秀祐里","LIN":"5鄰","STREET":"中正路","SECT":" ","MAREA":" ","LANE":" ","ALLEY":" ","HOUSE_NO":"６１１號","E_COORD97":188905.17000000001,"N_COORD97":2583009.3199999998,"ADDRESS":"中正路６１１號","OBJECTID":465570},"geometry":{"x":188905.16999999899,"y":2583009.3200000022}},{"attributes":{"ID":465596,"DIS_CODE":0,"TOWNNAME":"白河區","LI":"秀祐里","LIN":"5鄰","STREET":"中正路","SECT":" ","MAREA":" ","LANE":" ","ALLEY":" ","HOUSE_NO":"６１３號","E_COORD97":188901.45000000001,"N_COORD97":2583007.9399999999,"ADDRESS":"中正路６１３號","OBJECTID":465571},"geometry":{"x":188901.45000000019,"y":2583007.9400000013}},{"attributes":{"ID":465597,"DIS_CODE":0,"TOWNNAME":"白河區","LI":"秀祐里","LIN":"5鄰","STREET":"中正路","SECT":" ","MAREA":" ","LANE":" ","ALLEY":" ","HOUSE_NO":"６１５號","E_COORD97":188897.39999999999,"N_COORD97":2583007.0499999998,"ADDRESS":"中正路６１５號","OBJECTID":465572},"geometry":{"x":188897.40000000224,"y":2583007.0499999989}},{"attributes":{"ID":465598,"DIS_CODE":0,"TOWNNAME":"白河區","LI":"秀祐里","LIN":"5鄰","STREET":"中正路","SECT":" ","MAREA":" ","LANE":" ","ALLEY":" ","HOUSE_NO":"６１７號","E_COORD97":188893.63,"N_COORD97":2583006.0899999999,"ADDRESS":"中正路６１７號","OBJECTID":465573},"geometry":{"x":188893.63000000175,"y":2583006.0900000036}},{"attributes":{"ID":465599,"DIS_CODE":0,"TOWNNAME":"白河區","LI":"秀祐里","LIN":"5鄰","STREET":"中正路","SECT":" ","MAREA":" ","LANE":" ","ALLEY":" ","HOUSE_NO":"６１９號","E_COORD97":188889.75,"N_COORD97":2583004.8500000001,"ADDRESS":"中正路６１９號","OBJECTID":465574},"geometry":{"x":188889.75000000093,"y":2583004.8500000015}},{"attributes":{"ID":465600,"DIS_CODE":0,"TOWNNAME":"白河區","LI":"秀祐里","LIN":"5鄰","STREET":"中正路","SECT":" ","MAREA":" ","LANE":" ","ALLEY":" ","HOUSE_NO":"６２３號","E_COORD97":188879.63,"N_COORD97":2583003.75,"ADDRESS":"中正路６２３號","OBJECTID":465575},"geometry":{"x":188879.62999999989,"y":2583003.75}},{"attributes":{"ID":465601,"DIS_CODE":0,"TOWNNAME":"白河區","LI":"秀祐里","LIN":"5鄰","STREET":"中正路","SECT":" ","MAREA":" ","LANE":" ","ALLEY":" ","HOUSE_NO":"６２５號","E_COORD97":188875.35999999999,"N_COORD97":2583002.77,"ADDRESS":"中正路６２５號","OBJECTID":465576},"geometry":{"x":188875.36000000034,"y":2583002.7700000014}},{"attributes":{"ID":465602,"DIS_CODE":0,"TOWNNAME":"白河區","LI":"秀祐里","LIN":"5鄰","STREET":"中正路","SECT":" ","MAREA":" ","LANE":" ","ALLEY":" ","HOUSE_NO":"６２７號","E_COORD97":188871.70999999999,"N_COORD97":2583001.8599999999,"ADDRESS":"中正路６２７號","OBJECTID":465577},"geometry":{"x":188871.71000000089,"y":2583001.8600000013}},{"attributes":{"ID":465603,"DIS_CODE":0,"TOWNNAME":"白河區","LI":"秀祐里","LIN":"5鄰","STREET":"中正路","SECT":" ","MAREA":" ","LANE":" ","ALLEY":" ","HOUSE_NO":"６２９號","E_COORD97":188867.81,"N_COORD97":2583000.6499999999,"ADDRESS":"中正路６２９號","OBJECTID":465578},"geometry":{"x":188867.80999999959,"y":2583000.6500000022}},{"attributes":{"ID":465604,"DIS_CODE":0,"TOWNNAME":"白河區","LI":"秀祐里","LIN":"5鄰","STREET":"中正路","SECT":" ","MAREA":" ","LANE":" ","ALLEY":" ","HOUSE_NO":"６３１號","E_COORD97":188863.82999999999,"N_COORD97":2582999.1600000001,"ADDRESS":"中正路６３１號","OBJECTID":465579},"geometry":{"x":188863.83000000101,"y":2582999.1600000039}},{"attributes":{"ID":465605,"DIS_CODE":0,"TOWNNAME":"白河區","LI":"秀祐里","LIN":"5鄰","STREET":"中正路","SECT":" ","MAREA":" ","LANE":" ","ALLEY":" ","HOUSE_NO":"６３３號","E_COORD97":188859.67000000001,"N_COORD97":2582998.3399999999,"ADDRESS":"中正路６３３號","OBJECTID":465580},"geometry":{"x":188859.67000000086,"y":2582998.3400000017}},{"attributes":{"ID":465606,"DIS_CODE":0,"TOWNNAME":"白河區","LI":"秀祐里","LIN":"5鄰","STREET":"中正路","SECT":" ","MAREA":" ","LANE":" ","ALLEY":" ","HOUSE_NO":"６６５號","E_COORD97":188799.04000000001,"N_COORD97":2582976.3700000001,"ADDRESS":"中正路６６５號","OBJECTID":465581},"geometry":{"x":188799.04000000004,"y":2582976.3700000029}},{"attributes":{"ID":465607,"DIS_CODE":0,"TOWNNAME":"白河區","LI":"秀祐里","LIN":"5鄰","STREET":"中正路","SECT":" ","MAREA":" ","LANE":" ","ALLEY":" ","HOUSE_NO":"６８１號","E_COORD97":188772.70000000001,"N_COORD97":2582974.5299999998,"ADDRESS":"中正路６８１號","OBJECTID":465582},"geometry":{"x":188772.70000000019,"y":2582974.5299999993}},{"attributes":{"ID":465608,"DIS_CODE":0,"TOWNNAME":"白河區","LI":"秀祐里","LIN":"5鄰","STREET":"中正路","SECT":" ","MAREA":" ","LANE":" ","ALLEY":" ","HOUSE_NO":"６８３號","E_COORD97":188768.42999999999,"N_COORD97":2582973.4300000002,"ADDRESS":"中正路６８３號","OBJECTID":465583},"geometry":{"x":188768.43000000063,"y":2582973.4300000016}},{"attributes":{"ID":465609,"DIS_CODE":0,"TOWNNAME":"白河區","LI":"秀祐里","LIN":"5鄰","STREET":"中正路","SECT":" ","MAREA":" ","LANE":" ","ALLEY":" ","HOUSE_NO":"６８５號","E_COORD97":188764.20000000001,"N_COORD97":2582971.7200000002,"ADDRESS":"中正路６８５號","OBJECTID":465584},"geometry":{"x":188764.20000000019,"y":2582971.7200000007}},{"attributes":{"ID":465610,"DIS_CODE":0,"TOWNNAME":"白河區","LI":"秀祐里","LIN":"5鄰","STREET":"中正路","SECT":" ","MAREA":" ","LANE":" ","ALLEY":" ","HOUSE_NO":"６８７號","E_COORD97":188760.01999999999,"N_COORD97":2582970.7599999998,"ADDRESS":"中正路６８７號","OBJECTID":465585},"geometry":{"x":188760.02000000142,"y":2582970.7599999979}},{"attributes":{"ID":465611,"DIS_CODE":0,"TOWNNAME":"白河區","LI":"秀祐里","LIN":"5鄰","STREET":"中正路","SECT":" ","MAREA":" ","LANE":" ","ALLEY":" ","HOUSE_NO":"６８９號","E_COORD97":188755.01999999999,"N_COORD97":2582969.3399999999,"ADDRESS":"中正路６８９號","OBJECTID":465586},"geometry":{"x":188755.02000000142,"y":2582969.3399999999}},{"attributes":{"ID":465612,"DIS_CODE":0,"TOWNNAME":"白河區","LI":"秀祐里","LIN":"5鄰","STREET":"中正路","SECT":" ","MAREA":" ","LANE":" ","ALLEY":" ","HOUSE_NO":"６９３號","E_COORD97":188745.48000000001,"N_COORD97":2582964.8700000001,"ADDRESS":"中正路６９３號","OBJECTID":465587},"geometry":{"x":188745.48000000045,"y":2582964.8700000048}},{"attributes":{"ID":465613,"DIS_CODE":0,"TOWNNAME":"白河區","LI":"秀祐里","LIN":"5鄰","STREET":"中正路","SECT":" ","MAREA":" ","LANE":" ","ALLEY":" ","HOUSE_NO":"６９５號","E_COORD97":188738.94,"N_COORD97":2582963.8100000001,"ADDRESS":"中正路６９５號","OBJECTID":465588},"geometry":{"x":188738.94000000041,"y":2582963.8100000005}},{"attributes":{"ID":465614,"DIS_CODE":0,"TOWNNAME":"白河區","LI":"秀祐里","LIN":"5鄰","STREET":"中正路","SECT":" ","MAREA":" ","LANE":" ","ALLEY":" ","HOUSE_NO":"７１１號","E_COORD97":188712.66,"N_COORD97":2582959.1099999999,"ADDRESS":"中正路７１１號","OBJECTID":465589},"geometry":{"x":188712.66000000108,"y":2582959.1100000013}},{"attributes":{"ID":465615,"DIS_CODE":0,"TOWNNAME":"白河區","LI":"秀祐里","LIN":"5鄰","STREET":"中正路","SECT":" ","MAREA":" ","LANE":" ","ALLEY":" ","HOUSE_NO":"７２３號","E_COORD97":188697.04000000001,"N_COORD97":2582955.5099999998,"ADDRESS":"中正路７２３號","OBJECTID":465590},"geometry":{"x":188697.04000000004,"y":2582955.5099999979}},{"attributes":{"ID":465616,"DIS_CODE":0,"TOWNNAME":"白河區","LI":"秀祐里","LIN":"5鄰","STREET":"中正路","SECT":" ","MAREA":" ","LANE":" ","ALLEY":" ","HOUSE_NO":"７２５號","E_COORD97":188691.35999999999,"N_COORD97":2582953.9900000002,"ADDRESS":"中正路７２５號","OBJECTID":465591},"geometry":{"x":188691.36000000127,"y":2582953.9900000021}},{"attributes":{"ID":465617,"DIS_CODE":0,"TOWNNAME":"白河區","LI":"秀祐里","LIN":"5鄰","STREET":"中正路","SECT":" ","MAREA":" ","LANE":" ","ALLEY":" ","HOUSE_NO":"７２７號","E_COORD97":188685.69,"N_COORD97":2582952.4700000002,"ADDRESS":"中正路７２７號","OBJECTID":465592},"geometry":{"x":188685.69000000134,"y":2582952.4700000007}},{"attributes":{"ID":465618,"DIS_CODE":0,"TOWNNAME":"白河區","LI":"秀祐里","LIN":"5鄰","STREET":"中正路","SECT":" ","MAREA":" ","LANE":" ","ALLEY":" ","HOUSE_NO":"７２９號","E_COORD97":188680.01000000001,"N_COORD97":2582950.96,"ADDRESS":"中正路７２９號","OBJECTID":465593},"geometry":{"x":188680.00999999978,"y":2582950.9600000028}},{"attributes":{"ID":465619,"DIS_CODE":0,"TOWNNAME":"安南區","LI":"海西里","LIN":"5鄰","STREET":"海環街","SECT":" ","MAREA":" ","LANE":" ","ALLEY":" ","HOUSE_NO":"４３１號","E_COORD97":166119.79999999999,"N_COORD97":2549012.7400000002,"ADDRESS":"海環街４３１號","OBJECTID":465594},"geometry":{"x":166119.80000000075,"y":2549012.7400000002}},{"attributes":{"ID":465620,"DIS_CODE":0,"TOWNNAME":"安南區","LI":"海西里","LIN":"5鄰","STREET":"海環街","SECT":" ","MAREA":" ","LANE":" ","ALLEY":" ","HOUSE_NO":"４３３號","E_COORD97":166118.12,"N_COORD97":2549016.5099999998,"ADDRESS":"海環街４３３號","OBJECTID":465595},"geometry":{"x":166118.12000000104,"y":2549016.5099999998}},{"attributes":{"ID":465621,"DIS_CODE":0,"TOWNNAME":"安南區","LI":"海西里","LIN":"5鄰","STREET":"海環街","SECT":" ","MAREA":" ","LANE":" ","ALLEY":" ","HOUSE_NO":"４２７號","E_COORD97":166126.92000000001,"N_COORD97":2549001.4500000002,"ADDRESS":"海環街４２７號","OBJECTID":465596},"geometry":{"x":166126.91999999899,"y":2549001.4500000011}},{"attributes":{"ID":465622,"DIS_CODE":0,"TOWNNAME":"安南區","LI":"溪北里","LIN":"5鄰","STREET":"安和路","SECT":"一段","MAREA":" ","LANE":" ","ALLEY":" ","HOUSE_NO":"２３號","E_COORD97":169536.51999999999,"N_COORD97":2547402.0600000001,"ADDRESS":"安和路一段２３號","OBJECTID":465597},"geometry":{"x":169536.51999999862,"y":2547402.0600000024}},{"attributes":{"ID":465623,"DIS_CODE":0,"TOWNNAME":"安南區","LI":"溪北里","LIN":"5鄰","STREET":"安和路","SECT":"一段","MAREA":" ","LANE":" ","ALLEY":" ","HOUSE_NO":"２５號","E_COORD97":169533.32000000001,"N_COORD97":2547405.73,"ADDRESS":"安和路一段２５號","OBJECTID":465598},"geometry":{"x":169533.3200000003,"y":2547405.7300000004}},{"attributes":{"ID":465624,"DIS_CODE":0,"TOWNNAME":"安南區","LI":"溪北里","LIN":"5鄰","STREET":"安和路","SECT":"一段","MAREA":" ","LANE":" ","ALLEY":" ","HOUSE_NO":"５１號","E_COORD97":169517.97,"N_COORD97":2547484.9500000002,"ADDRESS":"安和路一段５１號","OBJECTID":465599},"geometry":{"x":169517.96999999974,"y":2547484.9499999993}},{"attributes":{"ID":465625,"DIS_CODE":0,"TOWNNAME":"安南區","LI":"溪北里","LIN":"5鄰","STREET":"安和路","SECT":"一段","MAREA":" ","LANE":" ","ALLEY":" ","HOUSE_NO":"７５號","E_COORD97":169504.04000000001,"N_COORD97":2547532.77,"ADDRESS":"安和路一段７５號","OBJECTID":465600},"geometry":{"x":169504.04000000004,"y":2547532.7699999996}}]}