{"displayFieldName":"TOWNNAME","fieldAliases":{"ID":"ID","DIS_CODE":"DIS_CODE","TOWNNAME":"TOWNNAME","LI":"LI","LIN":"LIN","STREET":"STREET","SECT":"SECT","MAREA":"MAREA","LANE":"LANE","ALLEY":"ALLEY","HOUSE_NO":"HOUSE_NO","E_COORD97":"E_COORD97","N_COORD97":"N_COORD97","ADDRESS":"ADDRESS","OBJECTID":"OBJECTID"},"geometryType":"esriGeometryPoint","spatialReference":{"wkid":102443,"latestWkid":3826},"fields":[{"name":"ID","type":"esriFieldTypeDouble","alias":"ID"},{"name":"DIS_CODE","type":"esriFieldTypeInteger","alias":"DIS_CODE"},{"name":"TOWNNAME","type":"esriFieldTypeString","alias":"TOWNNAME","length":8},{"name":"LI","type":"esriFieldTypeString","alias":"LI","length":8},{"name":"LIN","type":"esriFieldTypeString","alias":"LIN","length":12},{"name":"STREET","type":"esriFieldTypeString","alias":"STREET","length":20},{"name":"SECT","type":"esriFieldTypeString","alias":"SECT","length":8},{"name":"MAREA","type":"esriFieldTypeString","alias":"MAREA","length":12},{"name":"LANE","type":"esriFieldTypeString","alias":"LANE","length":10},{"name":"ALLEY","type":"esriFieldTypeString","alias":"ALLEY","length":10},{"name":"HOUSE_NO","type":"esriFieldTypeString","alias":"HOUSE_NO","length":20},{"name":"E_COORD97","type":"esriFieldTypeDouble","alias":"E_COORD97"},{"name":"N_COORD97","type":"esriFieldTypeDouble","alias":"N_COORD97"},{"name":"ADDRESS","type":"esriFieldTypeString","alias":"ADDRESS","length":50},{"name":"OBJECTID","type":"esriFieldTypeOID","alias":"OBJECTID"}],"features":[{"attributes":{"ID":320810,"DIS_CODE":0,"TOWNNAME":"玉井區","LI":"竹圍里","LIN":" ","STREET":" ","SECT":" ","MAREA":"竹圍","LANE":" ","ALLEY":" ","HOUSE_NO":"４３８號","E_COORD97":195326.26999999999,"N_COORD97":2558269.9900000002,"ADDRESS":"竹圍４３８號","OBJECTID":320801},"geometry":{"x":195326.27000000048,"y":2558269.9900000002}},{"attributes":{"ID":320811,"DIS_CODE":0,"TOWNNAME":"玉井區","LI":"層林里","LIN":" ","STREET":" ","SECT":" ","MAREA":"層林","LANE":" ","ALLEY":" ","HOUSE_NO":"１３７號","E_COORD97":191335.32000000001,"N_COORD97":2554874.2400000002,"ADDRESS":"層林１３７號","OBJECTID":320802},"geometry":{"x":191335.3200000003,"y":2554874.2400000002}},{"attributes":{"ID":320812,"DIS_CODE":0,"TOWNNAME":"玉井區","LI":"玉田里","LIN":" ","STREET":"中華路","SECT":" ","MAREA":" ","LANE":" ","ALLEY":" ","HOUSE_NO":"５７號","E_COORD97":194933.20999999999,"N_COORD97":2558084.2400000002,"ADDRESS":"中華路５７號","OBJECTID":320803},"geometry":{"x":194933.21000000183,"y":2558084.2400000021}},{"attributes":{"ID":320813,"DIS_CODE":0,"TOWNNAME":"玉井區","LI":"玉井里","LIN":" ","STREET":" ","SECT":" ","MAREA":"玉井","LANE":" ","ALLEY":" ","HOUSE_NO":"１０６號","E_COORD97":194989,"N_COORD97":2558664.25,"ADDRESS":"玉井１０６號","OBJECTID":320804},"geometry":{"x":194989.00000000093,"y":2558664.25}},{"attributes":{"ID":320814,"DIS_CODE":0,"TOWNNAME":"玉井區","LI":"望明里","LIN":" ","STREET":" ","SECT":" ","MAREA":"望明","LANE":" ","ALLEY":" ","HOUSE_NO":"１３８之１號","E_COORD97":192499.98000000001,"N_COORD97":2556340.29,"ADDRESS":"望明１３８之１號","OBJECTID":320805},"geometry":{"x":192499.98000000138,"y":2556340.2899999991}},{"attributes":{"ID":320815,"DIS_CODE":0,"TOWNNAME":"玉井區","LI":"竹圍里","LIN":" ","STREET":"中正路","SECT":" ","MAREA":" ","LANE":" ","ALLEY":" ","HOUSE_NO":"３４８號","E_COORD97":195355.14999999999,"N_COORD97":2558467.1099999999,"ADDRESS":"中正路３４８號","OBJECTID":320806},"geometry":{"x":195355.1500000013,"y":2558467.1100000013}},{"attributes":{"ID":320816,"DIS_CODE":0,"TOWNNAME":"玉井區","LI":"層林里","LIN":" ","STREET":" ","SECT":" ","MAREA":"層林","LANE":" ","ALLEY":" ","HOUSE_NO":"１６９號","E_COORD97":191854.51000000001,"N_COORD97":2555249.25,"ADDRESS":"層林１６９號","OBJECTID":320807},"geometry":{"x":191854.51000000071,"y":2555249.2500000019}},{"attributes":{"ID":320817,"DIS_CODE":0,"TOWNNAME":"玉井區","LI":"玉田里","LIN":" ","STREET":"民族路","SECT":" ","MAREA":" ","LANE":" ","ALLEY":" ","HOUSE_NO":"１２０號","E_COORD97":195217.17999999999,"N_COORD97":2558091.2799999998,"ADDRESS":"民族路１２０號","OBJECTID":320808},"geometry":{"x":195217.1799999997,"y":2558091.2799999993}},{"attributes":{"ID":320818,"DIS_CODE":0,"TOWNNAME":"玉井區","LI":"玉田里","LIN":" ","STREET":"中山路","SECT":" ","MAREA":" ","LANE":" ","ALLEY":" ","HOUSE_NO":"３７８號","E_COORD97":195324.35000000001,"N_COORD97":2558111.25,"ADDRESS":"中山路３７８號","OBJECTID":320809},"geometry":{"x":195324.34999999963,"y":2558111.2500000019}},{"attributes":{"ID":320819,"DIS_CODE":0,"TOWNNAME":"玉井區","LI":"竹圍里","LIN":" ","STREET":"工業街","SECT":" ","MAREA":" ","LANE":" ","ALLEY":" ","HOUSE_NO":"６６號","E_COORD97":196039.22,"N_COORD97":2558728.7400000002,"ADDRESS":"工業街６６號","OBJECTID":320810},"geometry":{"x":196039.21999999974,"y":2558728.7400000002}},{"attributes":{"ID":320820,"DIS_CODE":0,"TOWNNAME":"玉井區","LI":"竹圍里","LIN":" ","STREET":"中正路","SECT":" ","MAREA":" ","LANE":" ","ALLEY":" ","HOUSE_NO":"３５２號","E_COORD97":195364.29999999999,"N_COORD97":2558475.0499999998,"ADDRESS":"中正路３５２號","OBJECTID":320811},"geometry":{"x":195364.29999999981,"y":2558475.0500000026}},{"attributes":{"ID":320821,"DIS_CODE":0,"TOWNNAME":"玉井區","LI":"豐里里","LIN":" ","STREET":" ","SECT":" ","MAREA":"豐里","LANE":" ","ALLEY":" ","HOUSE_NO":"１３４之２５號","E_COORD97":192902.07000000001,"N_COORD97":2560326.2999999998,"ADDRESS":"豐里１３４之２５號","OBJECTID":320812},"geometry":{"x":192902.07000000123,"y":2560326.3000000007}},{"attributes":{"ID":320822,"DIS_CODE":0,"TOWNNAME":"玉井區","LI":"豐里里","LIN":" ","STREET":" ","SECT":" ","MAREA":"豐里","LANE":" ","ALLEY":" ","HOUSE_NO":"１５４號","E_COORD97":194997.82000000001,"N_COORD97":2563333.25,"ADDRESS":"豐里１５４號","OBJECTID":320813},"geometry":{"x":194997.82000000123,"y":2563333.25}},{"attributes":{"ID":320823,"DIS_CODE":0,"TOWNNAME":"玉井區","LI":"豐里里","LIN":" ","STREET":" ","SECT":" ","MAREA":"豐里","LANE":" ","ALLEY":" ","HOUSE_NO":"８之１號","E_COORD97":193256.20999999999,"N_COORD97":2558065.29,"ADDRESS":"豐里８之１號","OBJECTID":320814},"geometry":{"x":193256.20999999996,"y":2558065.290000001}},{"attributes":{"ID":320824,"DIS_CODE":0,"TOWNNAME":"玉井區","LI":"望明里","LIN":" ","STREET":" ","SECT":" ","MAREA":"公\u25A0","LANE":" ","ALLEY":" ","HOUSE_NO":"２５號","E_COORD97":193900.57000000001,"N_COORD97":2556576.25,"ADDRESS":"公\u25A0２５號","OBJECTID":320815},"geometry":{"x":193900.57000000123,"y":2556576.25}},{"attributes":{"ID":320825,"DIS_CODE":0,"TOWNNAME":"歸仁區","LI":"西埔里","LIN":"15鄰","STREET":"大埔路","SECT":"二段","MAREA":" ","LANE":" ","ALLEY":" ","HOUSE_NO":"９２號","E_COORD97":176178.22,"N_COORD97":2545253.2799999998,"ADDRESS":"大埔路二段９２號","OBJECTID":320816},"geometry":{"x":176178.21999999974,"y":2545253.2800000012}},{"attributes":{"ID":320826,"DIS_CODE":0,"TOWNNAME":"玉井區","LI":"竹圍里","LIN":" ","STREET":"大成路","SECT":" ","MAREA":" ","LANE":"２３０巷","ALLEY":" ","HOUSE_NO":"８號","E_COORD97":195626.10999999999,"N_COORD97":2558441.6800000002,"ADDRESS":"大成路２３０巷８號","OBJECTID":320817},"geometry":{"x":195626.11000000127,"y":2558441.6799999997}},{"attributes":{"ID":320827,"DIS_CODE":0,"TOWNNAME":"玉井區","LI":"竹圍里","LIN":" ","STREET":" ","SECT":" ","MAREA":"竹圍","LANE":" ","ALLEY":" ","HOUSE_NO":"４３２號","E_COORD97":195328.16,"N_COORD97":2558255.25,"ADDRESS":"竹圍４３２號","OBJECTID":320818},"geometry":{"x":195328.16000000015,"y":2558255.2500000037}},{"attributes":{"ID":320828,"DIS_CODE":0,"TOWNNAME":"玉井區","LI":"竹圍里","LIN":" ","STREET":" ","SECT":" ","MAREA":"竹圍","LANE":" ","ALLEY":" ","HOUSE_NO":"４３０號","E_COORD97":195327.12,"N_COORD97":2558250.5,"ADDRESS":"竹圍４３０號","OBJECTID":320819},"geometry":{"x":195327.12000000197,"y":2558250.5000000037}},{"attributes":{"ID":320829,"DIS_CODE":0,"TOWNNAME":"玉井區","LI":"竹圍里","LIN":" ","STREET":"大成路","SECT":" ","MAREA":" ","LANE":"２３０巷","ALLEY":" ","HOUSE_NO":"３號","E_COORD97":195665.92999999999,"N_COORD97":2558521.6000000001,"ADDRESS":"大成路２３０巷３號","OBJECTID":320820},"geometry":{"x":195665.93000000063,"y":2558521.6000000015}},{"attributes":{"ID":320830,"DIS_CODE":0,"TOWNNAME":"玉井區","LI":"竹圍里","LIN":" ","STREET":" ","SECT":" ","MAREA":"竹圍","LANE":" ","ALLEY":" ","HOUSE_NO":"４２８號","E_COORD97":195326.48999999999,"N_COORD97":2558246.0699999998,"ADDRESS":"竹圍４２８號","OBJECTID":320821},"geometry":{"x":195326.49000000209,"y":2558246.0700000003}},{"attributes":{"ID":320831,"DIS_CODE":0,"TOWNNAME":"玉井區","LI":"竹圍里","LIN":"12鄰","STREET":" ","SECT":" ","MAREA":"竹圍","LANE":" ","ALLEY":" ","HOUSE_NO":"１２７號","E_COORD97":196797.70999999999,"N_COORD97":2559127.9399999999,"ADDRESS":"竹圍１２７號","OBJECTID":320822},"geometry":{"x":196797.70999999903,"y":2559127.9399999995}},{"attributes":{"ID":320832,"DIS_CODE":0,"TOWNNAME":"東區","LI":"路東里","LIN":"15鄰","STREET":"大同路","SECT":"二段","MAREA":" ","LANE":"６１巷","ALLEY":" ","HOUSE_NO":"１１５號五樓之１","E_COORD97":169414.25,"N_COORD97":2542386.5,"ADDRESS":"大同路二段６１巷１１５號五樓之１","OBJECTID":320823},"geometry":{"x":169414.25000000093,"y":2542386.4999999981}},{"attributes":{"ID":320833,"DIS_CODE":0,"TOWNNAME":"玉井區","LI":"望明里","LIN":" ","STREET":" ","SECT":" ","MAREA":"劉陳","LANE":" ","ALLEY":" ","HOUSE_NO":"６０號","E_COORD97":193455.31,"N_COORD97":2556100.2400000002,"ADDRESS":"劉陳６０號","OBJECTID":320824},"geometry":{"x":193455.30999999959,"y":2556100.2400000021}},{"attributes":{"ID":320834,"DIS_CODE":0,"TOWNNAME":"安平區","LI":"育平里","LIN":"17鄰","STREET":"育平路","SECT":" ","MAREA":" ","LANE":" ","ALLEY":" ","HOUSE_NO":"２１２號十二樓之２９","E_COORD97":164690.60999999999,"N_COORD97":2543415.9199999999,"ADDRESS":"育平路２１２號十二樓之２９","OBJECTID":320825},"geometry":{"x":164690.61000000127,"y":2543415.9200000018}},{"attributes":{"ID":320835,"DIS_CODE":0,"TOWNNAME":"安平區","LI":"育平里","LIN":"17鄰","STREET":"育平路","SECT":" ","MAREA":" ","LANE":" ","ALLEY":" ","HOUSE_NO":"２１２號十二樓之３１","E_COORD97":164690.60999999999,"N_COORD97":2543415.9199999999,"ADDRESS":"育平路２１２號十二樓之３１","OBJECTID":320826},"geometry":{"x":164690.61000000127,"y":2543415.9200000018}},{"attributes":{"ID":320836,"DIS_CODE":0,"TOWNNAME":"玉井區","LI":"望明里","LIN":" ","STREET":" ","SECT":" ","MAREA":"公\u25A0","LANE":" ","ALLEY":" ","HOUSE_NO":"１４號","E_COORD97":193926.95999999999,"N_COORD97":2556542.2400000002,"ADDRESS":"公\u25A0１４號","OBJECTID":320827},"geometry":{"x":193926.96000000089,"y":2556542.2400000002}},{"attributes":{"ID":320837,"DIS_CODE":0,"TOWNNAME":"玉井區","LI":"望明里","LIN":" ","STREET":" ","SECT":" ","MAREA":"劉陳","LANE":" ","ALLEY":" ","HOUSE_NO":"１００之４號","E_COORD97":193359.85000000001,"N_COORD97":2555726.29,"ADDRESS":"劉陳１００之４號","OBJECTID":320828},"geometry":{"x":193359.84999999963,"y":2555726.290000001}},{"attributes":{"ID":320838,"DIS_CODE":0,"TOWNNAME":"玉井區","LI":"望明里","LIN":" ","STREET":" ","SECT":" ","MAREA":"公\u25A0","LANE":" ","ALLEY":" ","HOUSE_NO":"１４８號","E_COORD97":193538.41,"N_COORD97":2556265.25,"ADDRESS":"公\u25A0１４８號","OBJECTID":320829},"geometry":{"x":193538.40999999922,"y":2556265.2500000037}},{"attributes":{"ID":320839,"DIS_CODE":0,"TOWNNAME":"安平區","LI":"育平里","LIN":"17鄰","STREET":"育平路","SECT":" ","MAREA":" ","LANE":" ","ALLEY":" ","HOUSE_NO":"２１２號十三樓之２５","E_COORD97":164690.60999999999,"N_COORD97":2543415.9199999999,"ADDRESS":"育平路２１２號十三樓之２５","OBJECTID":320830},"geometry":{"x":164690.61000000127,"y":2543415.9200000018}},{"attributes":{"ID":320840,"DIS_CODE":0,"TOWNNAME":"東區","LI":"路東里","LIN":"15鄰","STREET":"大同路","SECT":"二段","MAREA":" ","LANE":"６１巷","ALLEY":" ","HOUSE_NO":"１１５號四樓","E_COORD97":169414.25,"N_COORD97":2542386.5,"ADDRESS":"大同路二段６１巷１１５號四樓","OBJECTID":320831},"geometry":{"x":169414.25000000093,"y":2542386.4999999981}},{"attributes":{"ID":320841,"DIS_CODE":0,"TOWNNAME":"東區","LI":"路東里","LIN":"15鄰","STREET":"大同路","SECT":"二段","MAREA":" ","LANE":"６１巷","ALLEY":" ","HOUSE_NO":"１１５號四樓之１","E_COORD97":169414.25,"N_COORD97":2542386.5,"ADDRESS":"大同路二段６１巷１１５號四樓之１","OBJECTID":320832},"geometry":{"x":169414.25000000093,"y":2542386.4999999981}},{"attributes":{"ID":320842,"DIS_CODE":0,"TOWNNAME":"東區","LI":"路東里","LIN":"15鄰","STREET":"大同路","SECT":"二段","MAREA":" ","LANE":"６１巷","ALLEY":" ","HOUSE_NO":"１２３號二樓","E_COORD97":169434.06,"N_COORD97":2542388.4700000002,"ADDRESS":"大同路二段６１巷１２３號二樓","OBJECTID":320833},"geometry":{"x":169434.05999999959,"y":2542388.4700000025}},{"attributes":{"ID":320843,"DIS_CODE":0,"TOWNNAME":"東區","LI":"路東里","LIN":"15鄰","STREET":"大同路","SECT":"二段","MAREA":" ","LANE":"６１巷","ALLEY":" ","HOUSE_NO":"１２３號二樓之１","E_COORD97":169434.06,"N_COORD97":2542388.4700000002,"ADDRESS":"大同路二段６１巷１２３號二樓之１","OBJECTID":320834},"geometry":{"x":169434.05999999959,"y":2542388.4700000025}},{"attributes":{"ID":320844,"DIS_CODE":0,"TOWNNAME":"楠西區","LI":"密枝里","LIN":" ","STREET":" ","SECT":" ","MAREA":"密枝","LANE":" ","ALLEY":" ","HOUSE_NO":"７０之１號","E_COORD97":198439.47,"N_COORD97":2568662.2999999998,"ADDRESS":"密枝７０之１號","OBJECTID":320835},"geometry":{"x":198439.46999999974,"y":2568662.3000000026}},{"attributes":{"ID":320845,"DIS_CODE":0,"TOWNNAME":"東區","LI":"路東里","LIN":"15鄰","STREET":"大同路","SECT":"二段","MAREA":" ","LANE":"６１巷","ALLEY":" ","HOUSE_NO":"１２３號二樓之２","E_COORD97":169434.06,"N_COORD97":2542388.4700000002,"ADDRESS":"大同路二段６１巷１２３號二樓之２","OBJECTID":320836},"geometry":{"x":169434.05999999959,"y":2542388.4700000025}},{"attributes":{"ID":320846,"DIS_CODE":0,"TOWNNAME":"楠西區","LI":"鹿田里","LIN":" ","STREET":" ","SECT":" ","MAREA":"油車","LANE":" ","ALLEY":" ","HOUSE_NO":"２１之１號","E_COORD97":198054.44,"N_COORD97":2562058.2999999998,"ADDRESS":"油車２１之１號","OBJECTID":320837},"geometry":{"x":198054.43999999948,"y":2562058.3000000007}},{"attributes":{"ID":320847,"DIS_CODE":0,"TOWNNAME":"楠西區","LI":"龜丹里","LIN":"4鄰","STREET":" ","SECT":" ","MAREA":"龜丹","LANE":" ","ALLEY":" ","HOUSE_NO":"４０號之４","E_COORD97":198371.39999999999,"N_COORD97":2559265.2999999998,"ADDRESS":"龜丹４０號之４","OBJECTID":320838},"geometry":{"x":198371.40000000037,"y":2559265.3000000007}},{"attributes":{"ID":320848,"DIS_CODE":0,"TOWNNAME":"楠西區","LI":"鹿田里","LIN":" ","STREET":" ","SECT":" ","MAREA":"鹿陶祥","LANE":" ","ALLEY":" ","HOUSE_NO":"１０２號","E_COORD97":197690.87,"N_COORD97":2561795.25,"ADDRESS":"鹿陶祥１０２號","OBJECTID":320839},"geometry":{"x":197690.87000000104,"y":2561795.2500000019}},{"attributes":{"ID":320849,"DIS_CODE":0,"TOWNNAME":"楠西區","LI":"龜丹里","LIN":"4鄰","STREET":" ","SECT":" ","MAREA":"龜丹","LANE":" ","ALLEY":" ","HOUSE_NO":"３１之３６號","E_COORD97":200313.29000000001,"N_COORD97":2558725.2999999998,"ADDRESS":"龜丹３１之３６號","OBJECTID":320840},"geometry":{"x":200313.2900000019,"y":2558725.3000000026}},{"attributes":{"ID":320850,"DIS_CODE":0,"TOWNNAME":"楠西區","LI":"龜丹里","LIN":"4鄰","STREET":" ","SECT":" ","MAREA":"龜丹","LANE":" ","ALLEY":" ","HOUSE_NO":"５８號之２","E_COORD97":199064.54000000001,"N_COORD97":2559368.2999999998,"ADDRESS":"龜丹５８號之２","OBJECTID":320841},"geometry":{"x":199064.54000000097,"y":2559368.3000000026}},{"attributes":{"ID":320851,"DIS_CODE":0,"TOWNNAME":"楠西區","LI":"灣丘里","LIN":" ","STREET":" ","SECT":" ","MAREA":"鳳興","LANE":" ","ALLEY":" ","HOUSE_NO":"２８之１號","E_COORD97":198705.47,"N_COORD97":2562678.2999999998,"ADDRESS":"鳳興２８之１號","OBJECTID":320842},"geometry":{"x":198705.46999999974,"y":2562678.3000000026}},{"attributes":{"ID":320852,"DIS_CODE":0,"TOWNNAME":"楠西區","LI":"照興里","LIN":" ","STREET":" ","SECT":" ","MAREA":"興北","LANE":" ","ALLEY":" ","HOUSE_NO":"５０之３號","E_COORD97":197737.76999999999,"N_COORD97":2567117.2999999998,"ADDRESS":"興北５０之３號","OBJECTID":320843},"geometry":{"x":197737.77000000142,"y":2567117.3000000007}},{"attributes":{"ID":320853,"DIS_CODE":0,"TOWNNAME":"楠西區","LI":"灣丘里","LIN":" ","STREET":" ","SECT":" ","MAREA":"香蕉山","LANE":" ","ALLEY":" ","HOUSE_NO":"２８之３號","E_COORD97":204517.19,"N_COORD97":2564449.2999999998,"ADDRESS":"香蕉山２８之３號","OBJECTID":320844},"geometry":{"x":204517.19000000134,"y":2564449.3000000007}},{"attributes":{"ID":320854,"DIS_CODE":0,"TOWNNAME":"楠西區","LI":"照興里","LIN":"13鄰","STREET":" ","SECT":" ","MAREA":"興南","LANE":" ","ALLEY":" ","HOUSE_NO":"３４號","E_COORD97":195485.97,"N_COORD97":2563643.25,"ADDRESS":"興南３４號","OBJECTID":320845},"geometry":{"x":195485.97000000067,"y":2563643.2500000019}},{"attributes":{"ID":320855,"DIS_CODE":0,"TOWNNAME":"楠西區","LI":"鹿田里","LIN":"4鄰","STREET":" ","SECT":" ","MAREA":"鹿陶洋","LANE":" ","ALLEY":" ","HOUSE_NO":"５５號","E_COORD97":197834.72,"N_COORD97":2561578.25,"ADDRESS":"鹿陶祥５５號","OBJECTID":320846},"geometry":{"x":197834.71999999974,"y":2561578.2500000019}},{"attributes":{"ID":320856,"DIS_CODE":0,"TOWNNAME":"楠西區","LI":"鹿田里","LIN":" ","STREET":" ","SECT":" ","MAREA":"鹿陶洋","LANE":" ","ALLEY":" ","HOUSE_NO":"１號","E_COORD97":197121.47,"N_COORD97":2560122.25,"ADDRESS":"鹿陶洋１號","OBJECTID":320847},"geometry":{"x":197121.47000000067,"y":2560122.25}},{"attributes":{"ID":320857,"DIS_CODE":0,"TOWNNAME":"楠西區","LI":"鹿田里","LIN":" ","STREET":" ","SECT":" ","MAREA":"鹿陶祥","LANE":" ","ALLEY":" ","HOUSE_NO":"１０３號","E_COORD97":197705.67000000001,"N_COORD97":2561809.25,"ADDRESS":"鹿陶祥１０３號","OBJECTID":320848},"geometry":{"x":197705.67000000086,"y":2561809.2500000019}},{"attributes":{"ID":320858,"DIS_CODE":0,"TOWNNAME":"楠西區","LI":"鹿田里","LIN":" ","STREET":" ","SECT":" ","MAREA":"油車","LANE":" ","ALLEY":" ","HOUSE_NO":"２８號","E_COORD97":197989.23999999999,"N_COORD97":2562140.25,"ADDRESS":"油車２８號","OBJECTID":320849},"geometry":{"x":197989.24000000022,"y":2562140.25}},{"attributes":{"ID":320859,"DIS_CODE":0,"TOWNNAME":"中西區","LI":"文賢里","LIN":"7鄰","STREET":"文和街","SECT":" ","MAREA":" ","LANE":" ","ALLEY":" ","HOUSE_NO":"１６８號","E_COORD97":167015.644275,"N_COORD97":2544739.2785100001,"ADDRESS":"文和街１６８號","OBJECTID":320850},"geometry":{"x":167015.64427500032,"y":2544739.2785129994}},{"attributes":{"ID":320860,"DIS_CODE":0,"TOWNNAME":"楠西區","LI":"密枝里","LIN":" ","STREET":" ","SECT":" ","MAREA":"密枝","LANE":" ","ALLEY":" ","HOUSE_NO":"２７號","E_COORD97":200226.47,"N_COORD97":2566844.2799999998,"ADDRESS":"密枝２７號","OBJECTID":320851},"geometry":{"x":200226.46999999974,"y":2566844.2799999993}},{"attributes":{"ID":320861,"DIS_CODE":0,"TOWNNAME":"楠西區","LI":"鹿田里","LIN":" ","STREET":" ","SECT":" ","MAREA":"鹿陶祥","LANE":" ","ALLEY":" ","HOUSE_NO":"７９號","E_COORD97":197798.42000000001,"N_COORD97":2561644.25,"ADDRESS":"鹿陶祥７９號","OBJECTID":320852},"geometry":{"x":197798.42000000086,"y":2561644.25}},{"attributes":{"ID":320862,"DIS_CODE":0,"TOWNNAME":"楠西區","LI":"鹿田里","LIN":" ","STREET":" ","SECT":" ","MAREA":"油車","LANE":" ","ALLEY":" ","HOUSE_NO":"４２之１號","E_COORD97":198127.73999999999,"N_COORD97":2562246.2999999998,"ADDRESS":"油車４２之１號","OBJECTID":320853},"geometry":{"x":198127.74000000115,"y":2562246.3000000045}},{"attributes":{"ID":320863,"DIS_CODE":0,"TOWNNAME":"楠西區","LI":"鹿田里","LIN":" ","STREET":" ","SECT":" ","MAREA":"油車","LANE":" ","ALLEY":" ","HOUSE_NO":"３５之１號","E_COORD97":198065.73999999999,"N_COORD97":2562155.2999999998,"ADDRESS":"油車３５之１號","OBJECTID":320854},"geometry":{"x":198065.74000000022,"y":2562155.3000000026}},{"attributes":{"ID":320864,"DIS_CODE":0,"TOWNNAME":"楠西區","LI":"鹿田里","LIN":" ","STREET":" ","SECT":" ","MAREA":"鹿陶祥","LANE":" ","ALLEY":" ","HOUSE_NO":"４０之３號","E_COORD97":197833.72,"N_COORD97":2561499.2999999998,"ADDRESS":"鹿陶祥４０之３號","OBJECTID":320855},"geometry":{"x":197833.72000000067,"y":2561499.3000000007}},{"attributes":{"ID":320865,"DIS_CODE":0,"TOWNNAME":"楠西區","LI":"灣丘里","LIN":" ","STREET":" ","SECT":" ","MAREA":"灣丘","LANE":" ","ALLEY":" ","HOUSE_NO":"２０之９號","E_COORD97":199516.26999999999,"N_COORD97":2563943.2999999998,"ADDRESS":"灣丘２０之９號","OBJECTID":320856},"geometry":{"x":199516.27000000048,"y":2563943.3000000007}},{"attributes":{"ID":320866,"DIS_CODE":0,"TOWNNAME":"關廟區","LI":"松腳里","LIN":"2鄰","STREET":"松柏街","SECT":" ","MAREA":" ","LANE":" ","ALLEY":" ","HOUSE_NO":"１０號","E_COORD97":181985.55018799999,"N_COORD97":2539689.6289400002,"ADDRESS":"松柏街１０號","OBJECTID":320857},"geometry":{"x":181985.55018800125,"y":2539689.6289380006}},{"attributes":{"ID":320867,"DIS_CODE":0,"TOWNNAME":"東區","LI":"路東里","LIN":"15鄰","STREET":"大同路","SECT":"二段","MAREA":" ","LANE":"６１巷","ALLEY":" ","HOUSE_NO":"１２３號二樓之３","E_COORD97":169434.06,"N_COORD97":2542388.4700000002,"ADDRESS":"大同路二段６１巷１２３號二樓之３","OBJECTID":320858},"geometry":{"x":169434.05999999959,"y":2542388.4700000025}},{"attributes":{"ID":320868,"DIS_CODE":0,"TOWNNAME":"玉井區","LI":"望明里","LIN":" ","STREET":" ","SECT":" ","MAREA":"公\u25A0","LANE":" ","ALLEY":" ","HOUSE_NO":"１７號","E_COORD97":193875.45999999999,"N_COORD97":2556569.2400000002,"ADDRESS":"公\u25A0１７號","OBJECTID":320859},"geometry":{"x":193875.46000000089,"y":2556569.2400000002}},{"attributes":{"ID":320869,"DIS_CODE":0,"TOWNNAME":"東區","LI":"路東里","LIN":"15鄰","STREET":"大同路","SECT":"二段","MAREA":" ","LANE":"６１巷","ALLEY":" ","HOUSE_NO":"１２３號二樓之４","E_COORD97":169434.06,"N_COORD97":2542388.4700000002,"ADDRESS":"大同路二段６１巷１２３號二樓之４","OBJECTID":320860},"geometry":{"x":169434.05999999959,"y":2542388.4700000025}},{"attributes":{"ID":320870,"DIS_CODE":0,"TOWNNAME":"楠西區","LI":"灣丘里","LIN":" ","STREET":" ","SECT":" ","MAREA":"香蕉山","LANE":" ","ALLEY":" ","HOUSE_NO":"９之３號","E_COORD97":202625.04000000001,"N_COORD97":2564703.2999999998,"ADDRESS":"香蕉山９之３號","OBJECTID":320861},"geometry":{"x":202625.04000000004,"y":2564703.3000000007}},{"attributes":{"ID":320871,"DIS_CODE":0,"TOWNNAME":"東區","LI":"路東里","LIN":"15鄰","STREET":"大同路","SECT":"二段","MAREA":" ","LANE":"６１巷","ALLEY":" ","HOUSE_NO":"１２３號二樓之７","E_COORD97":169434.06,"N_COORD97":2542388.4700000002,"ADDRESS":"大同路二段６１巷１２３號二樓之７","OBJECTID":320862},"geometry":{"x":169434.05999999959,"y":2542388.4700000025}},{"attributes":{"ID":320872,"DIS_CODE":0,"TOWNNAME":"楠西區","LI":"照興里","LIN":"7鄰","STREET":" ","SECT":" ","MAREA":"興北","LANE":" ","ALLEY":" ","HOUSE_NO":"９３之５號","E_COORD97":196837.07000000001,"N_COORD97":2566140.2999999998,"ADDRESS":"興北９３之５號","OBJECTID":320863},"geometry":{"x":196837.07000000123,"y":2566140.3000000007}},{"attributes":{"ID":320873,"DIS_CODE":0,"TOWNNAME":"楠西區","LI":"照興里","LIN":" ","STREET":" ","SECT":" ","MAREA":"興北","LANE":" ","ALLEY":" ","HOUSE_NO":"７７之９號","E_COORD97":196738.17000000001,"N_COORD97":2566683.2999999998,"ADDRESS":"興北７７之９號","OBJECTID":320864},"geometry":{"x":196738.16999999993,"y":2566683.3000000007}},{"attributes":{"ID":320874,"DIS_CODE":0,"TOWNNAME":"安平區","LI":"育平里","LIN":"17鄰","STREET":"育平路","SECT":" ","MAREA":" ","LANE":" ","ALLEY":" ","HOUSE_NO":"２１２號十三樓之２７","E_COORD97":164690.60999999999,"N_COORD97":2543415.9199999999,"ADDRESS":"育平路２１２號十三樓之２７","OBJECTID":320865},"geometry":{"x":164690.61000000127,"y":2543415.9200000018}},{"attributes":{"ID":320875,"DIS_CODE":0,"TOWNNAME":"楠西區","LI":"楠西里","LIN":" ","STREET":"中正路","SECT":" ","MAREA":" ","LANE":" ","ALLEY":" ","HOUSE_NO":"４號","E_COORD97":197064.26000000001,"N_COORD97":2564107.25,"ADDRESS":"中正路４號","OBJECTID":320866},"geometry":{"x":197064.26000000071,"y":2564107.2500000037}},{"attributes":{"ID":320876,"DIS_CODE":0,"TOWNNAME":"楠西區","LI":"灣丘里","LIN":" ","STREET":" ","SECT":" ","MAREA":"香蕉山","LANE":" ","ALLEY":" ","HOUSE_NO":"２９之２號","E_COORD97":204801.69,"N_COORD97":2564458.2999999998,"ADDRESS":"香蕉山２９之２號","OBJECTID":320867},"geometry":{"x":204801.69000000134,"y":2564458.3000000026}},{"attributes":{"ID":320877,"DIS_CODE":0,"TOWNNAME":"楠西區","LI":"照興里","LIN":" ","STREET":" ","SECT":" ","MAREA":"興北","LANE":" ","ALLEY":" ","HOUSE_NO":"７３之３號","E_COORD97":197322.67000000001,"N_COORD97":2566276.2999999998,"ADDRESS":"興北７３之３號","OBJECTID":320868},"geometry":{"x":197322.67000000086,"y":2566276.3000000007}},{"attributes":{"ID":320878,"DIS_CODE":0,"TOWNNAME":"楠西區","LI":"龜丹里","LIN":"4鄰","STREET":" ","SECT":" ","MAREA":"龜丹","LANE":" ","ALLEY":" ","HOUSE_NO":"６０之３號","E_COORD97":200183.44,"N_COORD97":2558915.2999999998,"ADDRESS":"龜丹６０之３號","OBJECTID":320869},"geometry":{"x":200183.44000000041,"y":2558915.3000000007}},{"attributes":{"ID":320879,"DIS_CODE":0,"TOWNNAME":"東區","LI":"路東里","LIN":"15鄰","STREET":"大同路","SECT":"二段","MAREA":" ","LANE":"６１巷","ALLEY":" ","HOUSE_NO":"１２３號三樓","E_COORD97":169434.06,"N_COORD97":2542388.4700000002,"ADDRESS":"大同路二段６１巷１２３號三樓","OBJECTID":320870},"geometry":{"x":169434.05999999959,"y":2542388.4700000025}},{"attributes":{"ID":320880,"DIS_CODE":0,"TOWNNAME":"東區","LI":"路東里","LIN":"15鄰","STREET":"大同路","SECT":"二段","MAREA":" ","LANE":"６１巷","ALLEY":" ","HOUSE_NO":"１２３號三樓之１","E_COORD97":169434.06,"N_COORD97":2542388.4700000002,"ADDRESS":"大同路二段６１巷１２３號三樓之１","OBJECTID":320871},"geometry":{"x":169434.05999999959,"y":2542388.4700000025}},{"attributes":{"ID":320881,"DIS_CODE":0,"TOWNNAME":"楠西區","LI":"灣丘里","LIN":" ","STREET":" ","SECT":" ","MAREA":"香蕉山","LANE":" ","ALLEY":" ","HOUSE_NO":"１６之４號","E_COORD97":203279.09,"N_COORD97":2564917.2999999998,"ADDRESS":"香蕉山１６之４號","OBJECTID":320872},"geometry":{"x":203279.08999999892,"y":2564917.3000000007}},{"attributes":{"ID":320882,"DIS_CODE":0,"TOWNNAME":"東區","LI":"路東里","LIN":"15鄰","STREET":"大同路","SECT":"二段","MAREA":" ","LANE":"６１巷","ALLEY":" ","HOUSE_NO":"１２３號三樓之２","E_COORD97":169434.06,"N_COORD97":2542388.4700000002,"ADDRESS":"大同路二段６１巷１２３號三樓之２","OBJECTID":320873},"geometry":{"x":169434.05999999959,"y":2542388.4700000025}},{"attributes":{"ID":320883,"DIS_CODE":0,"TOWNNAME":"楠西區","LI":"鹿田里","LIN":" ","STREET":" ","SECT":" ","MAREA":"油車","LANE":" ","ALLEY":" ","HOUSE_NO":"１４之１９號","E_COORD97":197713.19,"N_COORD97":2561934.2999999998,"ADDRESS":"油車１４之１９號","OBJECTID":320874},"geometry":{"x":197713.19000000041,"y":2561934.3000000045}},{"attributes":{"ID":320884,"DIS_CODE":0,"TOWNNAME":"楠西區","LI":"鹿田里","LIN":" ","STREET":" ","SECT":" ","MAREA":"油車","LANE":" ","ALLEY":" ","HOUSE_NO":"１４之９號","E_COORD97":197712.64000000001,"N_COORD97":2561972.2999999998,"ADDRESS":"油車１４之９號","OBJECTID":320875},"geometry":{"x":197712.63999999966,"y":2561972.3000000026}},{"attributes":{"ID":320885,"DIS_CODE":0,"TOWNNAME":"柳營區","LI":"重溪里","LIN":"22鄰","STREET":" ","SECT":" ","MAREA":"小腳腿","LANE":" ","ALLEY":" ","HOUSE_NO":"１０號","E_COORD97":185237.76999999999,"N_COORD97":2576289.8599999999,"ADDRESS":"小腳腿１０號","OBJECTID":320876},"geometry":{"x":185237.77000000048,"y":2576289.8599999994}},{"attributes":{"ID":320886,"DIS_CODE":0,"TOWNNAME":"柳營區","LI":"篤農里","LIN":"17鄰","STREET":" ","SECT":" ","MAREA":"小腳腿","LANE":" ","ALLEY":" ","HOUSE_NO":"３３６號之１３","E_COORD97":185480.76000000001,"N_COORD97":2576771.4399999999,"ADDRESS":"小腳腿３３６號之１３","OBJECTID":320877},"geometry":{"x":185480.76000000071,"y":2576771.4399999995}},{"attributes":{"ID":320887,"DIS_CODE":0,"TOWNNAME":"大內區","LI":"石城里","LIN":"14鄰","STREET":" ","SECT":" ","MAREA":"石子瀨","LANE":" ","ALLEY":" ","HOUSE_NO":"１１２之７０號","E_COORD97":184084.85494399999,"N_COORD97":2557942.2454200001,"ADDRESS":"石子瀨１１２之７０號","OBJECTID":320878},"geometry":{"x":184084.85494400095,"y":2557942.2454170026}},{"attributes":{"ID":320888,"DIS_CODE":0,"TOWNNAME":"柳營區","LI":"旭山里","LIN":"21鄰","STREET":" ","SECT":" ","MAREA":"山子腳","LANE":" ","ALLEY":" ","HOUSE_NO":"５７號","E_COORD97":187073.37,"N_COORD97":2574288.1899999999,"ADDRESS":"山子腳５７號","OBJECTID":320879},"geometry":{"x":187073.37000000197,"y":2574288.1900000032}},{"attributes":{"ID":320889,"DIS_CODE":0,"TOWNNAME":"柳營區","LI":"旭山里","LIN":"21鄰","STREET":" ","SECT":" ","MAREA":"山子腳","LANE":" ","ALLEY":" ","HOUSE_NO":"５８號","E_COORD97":187059.85999999999,"N_COORD97":2574317.5499999998,"ADDRESS":"山子腳５８號","OBJECTID":320880},"geometry":{"x":187059.86000000034,"y":2574317.5499999989}},{"attributes":{"ID":320890,"DIS_CODE":0,"TOWNNAME":"柳營區","LI":"旭山里","LIN":"21鄰","STREET":" ","SECT":" ","MAREA":"山子腳","LANE":" ","ALLEY":" ","HOUSE_NO":"５９之１號","E_COORD97":187070.78,"N_COORD97":2574354.6699999999,"ADDRESS":"山子腳５９之１號","OBJECTID":320881},"geometry":{"x":187070.78000000212,"y":2574354.6700000018}},{"attributes":{"ID":320891,"DIS_CODE":0,"TOWNNAME":"柳營區","LI":"旭山里","LIN":"21鄰","STREET":" ","SECT":" ","MAREA":"山子腳","LANE":" ","ALLEY":" ","HOUSE_NO":"５９號之３","E_COORD97":187051.23999999999,"N_COORD97":2574346.9399999999,"ADDRESS":"山子腳５９號之３","OBJECTID":320882},"geometry":{"x":187051.24000000115,"y":2574346.9399999995}},{"attributes":{"ID":320892,"DIS_CODE":0,"TOWNNAME":"柳營區","LI":"旭山里","LIN":"21鄰","STREET":" ","SECT":" ","MAREA":"山子腳","LANE":" ","ALLEY":" ","HOUSE_NO":"５９號","E_COORD97":187064.82999999999,"N_COORD97":2574343.7000000002,"ADDRESS":"山子腳５９號","OBJECTID":320883},"geometry":{"x":187064.83000000007,"y":2574343.7000000011}},{"attributes":{"ID":320893,"DIS_CODE":0,"TOWNNAME":"柳營區","LI":"旭山里","LIN":"21鄰","STREET":" ","SECT":" ","MAREA":"山子腳","LANE":" ","ALLEY":" ","HOUSE_NO":"６０號之１","E_COORD97":187023.64999999999,"N_COORD97":2574345.2999999998,"ADDRESS":"山子腳６０號之１","OBJECTID":320884},"geometry":{"x":187023.65000000037,"y":2574345.3000000007}},{"attributes":{"ID":320894,"DIS_CODE":0,"TOWNNAME":"東區","LI":"路東里","LIN":"15鄰","STREET":"大同路","SECT":"二段","MAREA":" ","LANE":"６１巷","ALLEY":" ","HOUSE_NO":"１２３號三樓之３","E_COORD97":169434.06,"N_COORD97":2542388.4700000002,"ADDRESS":"大同路二段６１巷１２３號三樓之３","OBJECTID":320885},"geometry":{"x":169434.05999999959,"y":2542388.4700000025}},{"attributes":{"ID":320895,"DIS_CODE":0,"TOWNNAME":"東區","LI":"路東里","LIN":"15鄰","STREET":"大同路","SECT":"二段","MAREA":" ","LANE":"６１巷","ALLEY":" ","HOUSE_NO":"１２３號三樓之４","E_COORD97":169434.06,"N_COORD97":2542388.4700000002,"ADDRESS":"大同路二段６１巷１２３號三樓之４","OBJECTID":320886},"geometry":{"x":169434.05999999959,"y":2542388.4700000025}},{"attributes":{"ID":320896,"DIS_CODE":0,"TOWNNAME":"玉井區","LI":"玉田里","LIN":" ","STREET":"中華路","SECT":" ","MAREA":" ","LANE":" ","ALLEY":" ","HOUSE_NO":"２１８號","E_COORD97":195029.85000000001,"N_COORD97":2557966.2400000002,"ADDRESS":"中華路２１８號","OBJECTID":320887},"geometry":{"x":195029.84999999963,"y":2557966.2400000002}},{"attributes":{"ID":320897,"DIS_CODE":0,"TOWNNAME":"柳營區","LI":"旭山里","LIN":"21鄰","STREET":" ","SECT":" ","MAREA":"山子腳","LANE":" ","ALLEY":" ","HOUSE_NO":"６０號","E_COORD97":187038.76000000001,"N_COORD97":2574349.3199999998,"ADDRESS":"山子腳６０號","OBJECTID":320888},"geometry":{"x":187038.76000000071,"y":2574349.320000004}},{"attributes":{"ID":320898,"DIS_CODE":0,"TOWNNAME":"柳營區","LI":"旭山里","LIN":"21鄰","STREET":" ","SECT":" ","MAREA":"山子腳","LANE":" ","ALLEY":" ","HOUSE_NO":"６１號","E_COORD97":187013.13,"N_COORD97":2574352.6000000001,"ADDRESS":"山子腳６１號","OBJECTID":320889},"geometry":{"x":187013.12999999989,"y":2574352.5999999996}},{"attributes":{"ID":320899,"DIS_CODE":0,"TOWNNAME":"柳營區","LI":"旭山里","LIN":"21鄰","STREET":" ","SECT":" ","MAREA":"山子腳","LANE":" ","ALLEY":" ","HOUSE_NO":"６２號之３","E_COORD97":186774.44,"N_COORD97":2574202.8599999999,"ADDRESS":"山子腳６２號之３","OBJECTID":320890},"geometry":{"x":186774.44000000041,"y":2574202.8600000013}},{"attributes":{"ID":320900,"DIS_CODE":0,"TOWNNAME":"玉井區","LI":"層林里","LIN":" ","STREET":" ","SECT":" ","MAREA":"層林","LANE":" ","ALLEY":" ","HOUSE_NO":"１７６之１號","E_COORD97":191349.72,"N_COORD97":2553492.2999999998,"ADDRESS":"層林１７６之１號","OBJECTID":320891},"geometry":{"x":191349.72000000067,"y":2553492.3000000045}},{"attributes":{"ID":320901,"DIS_CODE":0,"TOWNNAME":"東區","LI":"路東里","LIN":"15鄰","STREET":"大同路","SECT":"二段","MAREA":" ","LANE":"６１巷","ALLEY":" ","HOUSE_NO":"１２３號三樓之５","E_COORD97":169434.06,"N_COORD97":2542388.4700000002,"ADDRESS":"大同路二段６１巷１２３號三樓之５","OBJECTID":320892},"geometry":{"x":169434.05999999959,"y":2542388.4700000025}},{"attributes":{"ID":320902,"DIS_CODE":0,"TOWNNAME":"玉井區","LI":"望明里","LIN":" ","STREET":" ","SECT":" ","MAREA":"劉陳","LANE":" ","ALLEY":" ","HOUSE_NO":"６１號","E_COORD97":193444.39999999999,"N_COORD97":2556153.25,"ADDRESS":"劉陳６１號","OBJECTID":320893},"geometry":{"x":193444.4000000013,"y":2556153.2500000037}},{"attributes":{"ID":320903,"DIS_CODE":0,"TOWNNAME":"玉井區","LI":"望明里","LIN":" ","STREET":" ","SECT":" ","MAREA":"劉陳","LANE":" ","ALLEY":" ","HOUSE_NO":"１２號","E_COORD97":193421.01000000001,"N_COORD97":2555994.2400000002,"ADDRESS":"劉陳１２號","OBJECTID":320894},"geometry":{"x":193421.01000000071,"y":2555994.2400000039}},{"attributes":{"ID":320904,"DIS_CODE":0,"TOWNNAME":"玉井區","LI":"望明里","LIN":" ","STREET":" ","SECT":" ","MAREA":"望明","LANE":" ","ALLEY":" ","HOUSE_NO":"８５之１號","E_COORD97":194397.54000000001,"N_COORD97":2556403.29,"ADDRESS":"望明８５之１號","OBJECTID":320895},"geometry":{"x":194397.54000000097,"y":2556403.290000001}},{"attributes":{"ID":320905,"DIS_CODE":0,"TOWNNAME":"玉井區","LI":"豐里里","LIN":" ","STREET":" ","SECT":" ","MAREA":"豐里","LANE":" ","ALLEY":" ","HOUSE_NO":"９４之１３號","E_COORD97":193055.91,"N_COORD97":2558847.2999999998,"ADDRESS":"豐里９４之１３號","OBJECTID":320896},"geometry":{"x":193055.91000000108,"y":2558847.3000000026}},{"attributes":{"ID":320906,"DIS_CODE":0,"TOWNNAME":"東區","LI":"路東里","LIN":"15鄰","STREET":"大同路","SECT":"二段","MAREA":" ","LANE":"６１巷","ALLEY":" ","HOUSE_NO":"１２３號三樓之６","E_COORD97":169434.06,"N_COORD97":2542388.4700000002,"ADDRESS":"大同路二段６１巷１２３號三樓之６","OBJECTID":320897},"geometry":{"x":169434.05999999959,"y":2542388.4700000025}},{"attributes":{"ID":320907,"DIS_CODE":0,"TOWNNAME":"玉井區","LI":"層林里","LIN":" ","STREET":" ","SECT":" ","MAREA":"層林","LANE":" ","ALLEY":" ","HOUSE_NO":"１７０之２號","E_COORD97":191532.20999999999,"N_COORD97":2554945.2999999998,"ADDRESS":"層林１７０之２號","OBJECTID":320898},"geometry":{"x":191532.20999999996,"y":2554945.3000000007}},{"attributes":{"ID":320908,"DIS_CODE":0,"TOWNNAME":"南區","LI":"南華里","LIN":"5鄰","STREET":"中華南路","SECT":"二段","MAREA":" ","LANE":" ","ALLEY":" ","HOUSE_NO":"３９０號","E_COORD97":166434.32999999999,"N_COORD97":2540298.2799999998,"ADDRESS":"中華南路二段３９０號","OBJECTID":320899},"geometry":{"x":166434.33000000007,"y":2540298.2799999993}},{"attributes":{"ID":320909,"DIS_CODE":0,"TOWNNAME":"玉井區","LI":"望明里","LIN":" ","STREET":" ","SECT":" ","MAREA":"劉陳","LANE":"８０巷","ALLEY":" ","HOUSE_NO":"２之２號","E_COORD97":193496.51000000001,"N_COORD97":2556130.29,"ADDRESS":"劉陳８０巷２之２號","OBJECTID":320900},"geometry":{"x":193496.50999999978,"y":2556130.2899999991}},{"attributes":{"ID":320910,"DIS_CODE":0,"TOWNNAME":"玉井區","LI":"望明里","LIN":" ","STREET":" ","SECT":" ","MAREA":"劉陳","LANE":"２４巷","ALLEY":" ","HOUSE_NO":"３號","E_COORD97":193468.20000000001,"N_COORD97":2556004.2400000002,"ADDRESS":"劉陳２４巷３號","OBJECTID":320901},"geometry":{"x":193468.20000000019,"y":2556004.2399999984}},{"attributes":{"ID":320911,"DIS_CODE":0,"TOWNNAME":"玉井區","LI":"望明里","LIN":" ","STREET":" ","SECT":" ","MAREA":"劉陳","LANE":"８０巷","ALLEY":" ","HOUSE_NO":"２之４號","E_COORD97":193495.51000000001,"N_COORD97":2556120.29,"ADDRESS":"劉陳８０巷２之４號","OBJECTID":320902},"geometry":{"x":193495.51000000071,"y":2556120.2899999991}},{"attributes":{"ID":320912,"DIS_CODE":0,"TOWNNAME":"玉井區","LI":"望明里","LIN":" ","STREET":" ","SECT":" ","MAREA":"劉陳","LANE":"２４巷","ALLEY":" ","HOUSE_NO":"１７號","E_COORD97":193465.85000000001,"N_COORD97":2555994.2400000002,"ADDRESS":"劉陳２４巷１７號","OBJECTID":320903},"geometry":{"x":193465.85000000056,"y":2555994.2400000039}},{"attributes":{"ID":320913,"DIS_CODE":0,"TOWNNAME":"玉井區","LI":"三埔里","LIN":" ","STREET":" ","SECT":" ","MAREA":"三埔","LANE":" ","ALLEY":" ","HOUSE_NO":"３８之７號","E_COORD97":197350.42999999999,"N_COORD97":2554721.2999999998,"ADDRESS":"三埔３８之７號","OBJECTID":320904},"geometry":{"x":197350.43000000156,"y":2554721.3000000026}},{"attributes":{"ID":320914,"DIS_CODE":0,"TOWNNAME":"玉井區","LI":"三和里","LIN":" ","STREET":" ","SECT":" ","MAREA":"三和","LANE":" ","ALLEY":" ","HOUSE_NO":"２０號","E_COORD97":194619.04000000001,"N_COORD97":2556976.25,"ADDRESS":"三和２０號","OBJECTID":320905},"geometry":{"x":194619.0400000019,"y":2556976.25}},{"attributes":{"ID":320915,"DIS_CODE":0,"TOWNNAME":"玉井區","LI":"三埔里","LIN":" ","STREET":" ","SECT":" ","MAREA":"三埔","LANE":" ","ALLEY":" ","HOUSE_NO":"５５號","E_COORD97":196689.84,"N_COORD97":2554264.2400000002,"ADDRESS":"三埔５５號","OBJECTID":320906},"geometry":{"x":196689.83999999985,"y":2554264.2400000002}},{"attributes":{"ID":320916,"DIS_CODE":0,"TOWNNAME":"玉井區","LI":"三埔里","LIN":" ","STREET":" ","SECT":" ","MAREA":"三埔","LANE":" ","ALLEY":" ","HOUSE_NO":"４９之２號","E_COORD97":196718.64000000001,"N_COORD97":2554354.29,"ADDRESS":"三埔４９之２號","OBJECTID":320907},"geometry":{"x":196718.6400000006,"y":2554354.2899999991}},{"attributes":{"ID":320917,"DIS_CODE":0,"TOWNNAME":"玉井區","LI":"三埔里","LIN":" ","STREET":" ","SECT":" ","MAREA":"三埔","LANE":" ","ALLEY":" ","HOUSE_NO":"４８之２號","E_COORD97":196745.63,"N_COORD97":2554396.2999999998,"ADDRESS":"三埔４８之２號","OBJECTID":320908},"geometry":{"x":196745.62999999896,"y":2554396.3000000007}},{"attributes":{"ID":320918,"DIS_CODE":0,"TOWNNAME":"玉井區","LI":"三埔里","LIN":" ","STREET":" ","SECT":" ","MAREA":"三埔","LANE":" ","ALLEY":" ","HOUSE_NO":"４０之２號","E_COORD97":197887.23000000001,"N_COORD97":2554307.2999999998,"ADDRESS":"三埔４０之２號","OBJECTID":320909},"geometry":{"x":197887.23000000138,"y":2554307.3000000026}},{"attributes":{"ID":320919,"DIS_CODE":0,"TOWNNAME":"玉井區","LI":"三埔里","LIN":" ","STREET":" ","SECT":" ","MAREA":"三埔","LANE":" ","ALLEY":" ","HOUSE_NO":"５２號","E_COORD97":196743.13,"N_COORD97":2554440.2400000002,"ADDRESS":"三埔５２號","OBJECTID":320910},"geometry":{"x":196743.13000000082,"y":2554440.2400000002}},{"attributes":{"ID":320920,"DIS_CODE":0,"TOWNNAME":"玉井區","LI":"三埔里","LIN":" ","STREET":" ","SECT":" ","MAREA":"三埔","LANE":" ","ALLEY":" ","HOUSE_NO":"７２之１號","E_COORD97":196396.64000000001,"N_COORD97":2554207.2999999998,"ADDRESS":"三埔７２之１號","OBJECTID":320911},"geometry":{"x":196396.6400000006,"y":2554207.3000000007}},{"attributes":{"ID":320921,"DIS_CODE":0,"TOWNNAME":"六甲區","LI":"中社里","LIN":"22鄰","STREET":" ","SECT":" ","MAREA":"林鳳營","LANE":" ","ALLEY":" ","HOUSE_NO":"２４２之２號","E_COORD97":180381.70000000001,"N_COORD97":2571181.4900000002,"ADDRESS":"林鳳營２４２之２號","OBJECTID":320912},"geometry":{"x":180381.70000000019,"y":2571181.4900000039}},{"attributes":{"ID":320922,"DIS_CODE":0,"TOWNNAME":"玉井區","LI":"玉井里","LIN":" ","STREET":"中正路","SECT":" ","MAREA":" ","LANE":"２１巷","ALLEY":" ","HOUSE_NO":"２６號","E_COORD97":194682.51999999999,"N_COORD97":2558034.1600000001,"ADDRESS":"中正路２１巷２６號","OBJECTID":320913},"geometry":{"x":194682.51999999955,"y":2558034.1600000001}},{"attributes":{"ID":320923,"DIS_CODE":0,"TOWNNAME":"歸仁區","LI":"武東里","LIN":"12鄰","STREET":" ","SECT":" ","MAREA":"明德新村","LANE":" ","ALLEY":" ","HOUSE_NO":"５３號","E_COORD97":175144.70999999999,"N_COORD97":2536160.25,"ADDRESS":"明德新村５３號","OBJECTID":320914},"geometry":{"x":175144.70999999996,"y":2536160.2500000037}},{"attributes":{"ID":320924,"DIS_CODE":0,"TOWNNAME":"玉井區","LI":"玉井里","LIN":" ","STREET":"憲政街","SECT":" ","MAREA":" ","LANE":"３５巷","ALLEY":" ","HOUSE_NO":"２７號","E_COORD97":194458.76000000001,"N_COORD97":2557989.2599999998,"ADDRESS":"憲政街３５巷２７號","OBJECTID":320915},"geometry":{"x":194458.76000000071,"y":2557989.2599999998}},{"attributes":{"ID":320925,"DIS_CODE":0,"TOWNNAME":"東區","LI":"路東里","LIN":"15鄰","STREET":"大同路","SECT":"二段","MAREA":" ","LANE":"６１巷","ALLEY":" ","HOUSE_NO":"１２３號三樓之７","E_COORD97":169434.06,"N_COORD97":2542388.4700000002,"ADDRESS":"大同路二段６１巷１２３號三樓之７","OBJECTID":320916},"geometry":{"x":169434.05999999959,"y":2542388.4700000025}},{"attributes":{"ID":320926,"DIS_CODE":0,"TOWNNAME":"東區","LI":"路東里","LIN":"15鄰","STREET":"大同路","SECT":"二段","MAREA":" ","LANE":"６１巷","ALLEY":" ","HOUSE_NO":"１２３號五樓","E_COORD97":169434.06,"N_COORD97":2542388.4700000002,"ADDRESS":"大同路二段６１巷１２３號五樓","OBJECTID":320917},"geometry":{"x":169434.05999999959,"y":2542388.4700000025}},{"attributes":{"ID":320927,"DIS_CODE":0,"TOWNNAME":"東區","LI":"路東里","LIN":"15鄰","STREET":"大同路","SECT":"二段","MAREA":" ","LANE":"６１巷","ALLEY":" ","HOUSE_NO":"１２３號五樓之１","E_COORD97":169434.06,"N_COORD97":2542388.4700000002,"ADDRESS":"大同路二段６１巷１２３號五樓之１","OBJECTID":320918},"geometry":{"x":169434.05999999959,"y":2542388.4700000025}},{"attributes":{"ID":320928,"DIS_CODE":0,"TOWNNAME":"東區","LI":"路東里","LIN":"15鄰","STREET":"大同路","SECT":"二段","MAREA":" ","LANE":"６１巷","ALLEY":" ","HOUSE_NO":"１２３號五樓之２","E_COORD97":169434.06,"N_COORD97":2542388.4700000002,"ADDRESS":"大同路二段６１巷１２３號五樓之２","OBJECTID":320919},"geometry":{"x":169434.05999999959,"y":2542388.4700000025}},{"attributes":{"ID":320929,"DIS_CODE":0,"TOWNNAME":"東區","LI":"路東里","LIN":"15鄰","STREET":"大同路","SECT":"二段","MAREA":" ","LANE":"６１巷","ALLEY":" ","HOUSE_NO":"１２３號五樓之３","E_COORD97":169434.06,"N_COORD97":2542388.4700000002,"ADDRESS":"大同路二段６１巷１２３號五樓之３","OBJECTID":320920},"geometry":{"x":169434.05999999959,"y":2542388.4700000025}},{"attributes":{"ID":320930,"DIS_CODE":0,"TOWNNAME":"東區","LI":"路東里","LIN":"15鄰","STREET":"大同路","SECT":"二段","MAREA":" ","LANE":"６１巷","ALLEY":" ","HOUSE_NO":"１２３號五樓之４","E_COORD97":169434.06,"N_COORD97":2542388.4700000002,"ADDRESS":"大同路二段６１巷１２３號五樓之４","OBJECTID":320921},"geometry":{"x":169434.05999999959,"y":2542388.4700000025}},{"attributes":{"ID":320931,"DIS_CODE":0,"TOWNNAME":"東區","LI":"路東里","LIN":"15鄰","STREET":"大同路","SECT":"二段","MAREA":" ","LANE":"６１巷","ALLEY":" ","HOUSE_NO":"１２３號五樓之５","E_COORD97":169434.06,"N_COORD97":2542388.4700000002,"ADDRESS":"大同路二段６１巷１２３號五樓之５","OBJECTID":320922},"geometry":{"x":169434.05999999959,"y":2542388.4700000025}},{"attributes":{"ID":320932,"DIS_CODE":0,"TOWNNAME":"安平區","LI":"育平里","LIN":"17鄰","STREET":"育平路","SECT":" ","MAREA":" ","LANE":" ","ALLEY":" ","HOUSE_NO":"２１２號十三樓之２９","E_COORD97":164690.60999999999,"N_COORD97":2543415.9199999999,"ADDRESS":"育平路２１２號十三樓之２９","OBJECTID":320923},"geometry":{"x":164690.61000000127,"y":2543415.9200000018}},{"attributes":{"ID":320933,"DIS_CODE":0,"TOWNNAME":"六甲區","LI":"七甲里","LIN":" ","STREET":"七甲街","SECT":" ","MAREA":" ","LANE":"９３巷","ALLEY":" ","HOUSE_NO":"５２之１號","E_COORD97":182650.29000000001,"N_COORD97":2569009.4199999999,"ADDRESS":"七甲街９３巷５２之１號","OBJECTID":320924},"geometry":{"x":182650.29000000004,"y":2569009.4200000018}},{"attributes":{"ID":320934,"DIS_CODE":0,"TOWNNAME":"六甲區","LI":"大丘里","LIN":" ","STREET":" ","SECT":" ","MAREA":"中坑","LANE":" ","ALLEY":" ","HOUSE_NO":"１之３號","E_COORD97":194391.59,"N_COORD97":2569366.8399999999,"ADDRESS":"中坑１之３號","OBJECTID":320925},"geometry":{"x":194391.59000000078,"y":2569366.8399999999}},{"attributes":{"ID":320935,"DIS_CODE":0,"TOWNNAME":"六甲區","LI":"王爺里","LIN":" ","STREET":" ","SECT":" ","MAREA":"水流東","LANE":" ","ALLEY":" ","HOUSE_NO":"２３之２號","E_COORD97":189519.48000000001,"N_COORD97":2569693.8999999999,"ADDRESS":"水流東２３之２號","OBJECTID":320926},"geometry":{"x":189519.48000000138,"y":2569693.9000000041}},{"attributes":{"ID":320936,"DIS_CODE":0,"TOWNNAME":"新市區","LI":"永就里","LIN":"6鄰","STREET":"中華路","SECT":" ","MAREA":" ","LANE":" ","ALLEY":" ","HOUSE_NO":"１８２之２之１號","E_COORD97":177786.10235900001,"N_COORD97":2551390.7284499998,"ADDRESS":"中華路１８２之２之１號","OBJECTID":320927},"geometry":{"x":177786.10235900152,"y":2551390.7284459993}},{"attributes":{"ID":320937,"DIS_CODE":0,"TOWNNAME":"東區","LI":"德光里","LIN":"15鄰","STREET":"崇德二街","SECT":" ","MAREA":" ","LANE":"６巷","ALLEY":" ","HOUSE_NO":"１１號六樓","E_COORD97":170095.14999999999,"N_COORD97":2542293.7200000002,"ADDRESS":"崇德二街６巷１１號六樓","OBJECTID":320928},"geometry":{"x":170095.1500000013,"y":2542293.7200000007}},{"attributes":{"ID":320938,"DIS_CODE":0,"TOWNNAME":"六甲區","LI":"龜港里","LIN":" ","STREET":" ","SECT":" ","MAREA":"龜子港","LANE":" ","ALLEY":" ","HOUSE_NO":"１６２號","E_COORD97":179810.97,"N_COORD97":2571587.5699999998,"ADDRESS":"龜子港１６２號","OBJECTID":320929},"geometry":{"x":179810.96999999974,"y":2571587.5700000003}},{"attributes":{"ID":320939,"DIS_CODE":0,"TOWNNAME":"東區","LI":"路東里","LIN":"15鄰","STREET":"大同路","SECT":"二段","MAREA":" ","LANE":"６１巷","ALLEY":" ","HOUSE_NO":"１２３號五樓之６","E_COORD97":169434.06,"N_COORD97":2542388.4700000002,"ADDRESS":"大同路二段６１巷１２３號五樓之６","OBJECTID":320930},"geometry":{"x":169434.05999999959,"y":2542388.4700000025}},{"attributes":{"ID":320940,"DIS_CODE":0,"TOWNNAME":"東區","LI":"路東里","LIN":"15鄰","STREET":"大同路","SECT":"二段","MAREA":" ","LANE":"６１巷","ALLEY":" ","HOUSE_NO":"１２３號五樓之７","E_COORD97":169434.06,"N_COORD97":2542388.4700000002,"ADDRESS":"大同路二段６１巷１２３號五樓之７","OBJECTID":320931},"geometry":{"x":169434.05999999959,"y":2542388.4700000025}},{"attributes":{"ID":320941,"DIS_CODE":0,"TOWNNAME":"東區","LI":"路東里","LIN":"15鄰","STREET":"大同路","SECT":"二段","MAREA":" ","LANE":"６１巷","ALLEY":" ","HOUSE_NO":"１２３號四樓","E_COORD97":169434.06,"N_COORD97":2542388.4700000002,"ADDRESS":"大同路二段６１巷１２３號四樓","OBJECTID":320932},"geometry":{"x":169434.05999999959,"y":2542388.4700000025}},{"attributes":{"ID":320942,"DIS_CODE":0,"TOWNNAME":"東區","LI":"路東里","LIN":"15鄰","STREET":"大同路","SECT":"二段","MAREA":" ","LANE":"６１巷","ALLEY":" ","HOUSE_NO":"１２３號四樓之１","E_COORD97":169434.06,"N_COORD97":2542388.4700000002,"ADDRESS":"大同路二段６１巷１２３號四樓之１","OBJECTID":320933},"geometry":{"x":169434.05999999959,"y":2542388.4700000025}},{"attributes":{"ID":320943,"DIS_CODE":0,"TOWNNAME":"東區","LI":"路東里","LIN":"15鄰","STREET":"大同路","SECT":"二段","MAREA":" ","LANE":"６１巷","ALLEY":" ","HOUSE_NO":"１２３號四樓之２","E_COORD97":169434.06,"N_COORD97":2542388.4700000002,"ADDRESS":"大同路二段６１巷１２３號四樓之２","OBJECTID":320934},"geometry":{"x":169434.05999999959,"y":2542388.4700000025}},{"attributes":{"ID":320944,"DIS_CODE":0,"TOWNNAME":"東區","LI":"路東里","LIN":"15鄰","STREET":"大同路","SECT":"二段","MAREA":" ","LANE":"６１巷","ALLEY":" ","HOUSE_NO":"１２３號四樓之３","E_COORD97":169434.06,"N_COORD97":2542388.4700000002,"ADDRESS":"大同路二段６１巷１２３號四樓之３","OBJECTID":320935},"geometry":{"x":169434.05999999959,"y":2542388.4700000025}},{"attributes":{"ID":320945,"DIS_CODE":0,"TOWNNAME":"東區","LI":"路東里","LIN":"15鄰","STREET":"大同路","SECT":"二段","MAREA":" ","LANE":"６１巷","ALLEY":" ","HOUSE_NO":"１２３號四樓之４","E_COORD97":169434.06,"N_COORD97":2542388.4700000002,"ADDRESS":"大同路二段６１巷１２３號四樓之４","OBJECTID":320936},"geometry":{"x":169434.05999999959,"y":2542388.4700000025}},{"attributes":{"ID":320946,"DIS_CODE":0,"TOWNNAME":"安平區","LI":"育平里","LIN":"17鄰","STREET":"育平路","SECT":" ","MAREA":" ","LANE":" ","ALLEY":" ","HOUSE_NO":"２１２號十三樓之３１","E_COORD97":164690.60999999999,"N_COORD97":2543415.9199999999,"ADDRESS":"育平路２１２號十三樓之３１","OBJECTID":320937},"geometry":{"x":164690.61000000127,"y":2543415.9200000018}},{"attributes":{"ID":320947,"DIS_CODE":0,"TOWNNAME":"東區","LI":"大同里","LIN":"1鄰","STREET":"東門路","SECT":"一段","MAREA":" ","LANE":" ","ALLEY":" ","HOUSE_NO":"２０號","E_COORD97":169239.41,"N_COORD97":2543226.3100000001,"ADDRESS":"東門路一段２０號","OBJECTID":320938},"geometry":{"x":169239.41000000015,"y":2543226.3100000024}},{"attributes":{"ID":320948,"DIS_CODE":0,"TOWNNAME":"六甲區","LI":"王爺里","LIN":" ","STREET":" ","SECT":" ","MAREA":"水流東","LANE":" ","ALLEY":" ","HOUSE_NO":"３５之１號","E_COORD97":189690.26000000001,"N_COORD97":2569684.02,"ADDRESS":"水流東３５之１號","OBJECTID":320939},"geometry":{"x":189690.25999999978,"y":2569684.0199999996}},{"attributes":{"ID":320949,"DIS_CODE":0,"TOWNNAME":"六甲區","LI":"王爺里","LIN":" ","STREET":" ","SECT":" ","MAREA":"水流東","LANE":" ","ALLEY":" ","HOUSE_NO":"９８號","E_COORD97":188997.67999999999,"N_COORD97":2569995.5600000001,"ADDRESS":"水流東９８號","OBJECTID":320940},"geometry":{"x":188997.6799999997,"y":2569995.5600000024}},{"attributes":{"ID":320950,"DIS_CODE":0,"TOWNNAME":"六甲區","LI":"王爺里","LIN":" ","STREET":" ","SECT":" ","MAREA":"東高蚋","LANE":" ","ALLEY":" ","HOUSE_NO":"８之２號","E_COORD97":188434.04999999999,"N_COORD97":2568487.73,"ADDRESS":"東高蚋８之２號","OBJECTID":320941},"geometry":{"x":188434.04999999981,"y":2568487.7300000004}},{"attributes":{"ID":320951,"DIS_CODE":0,"TOWNNAME":"六甲區","LI":"王爺里","LIN":" ","STREET":" ","SECT":" ","MAREA":"東高蚋","LANE":" ","ALLEY":" ","HOUSE_NO":"９之１號","E_COORD97":188473.31,"N_COORD97":2568475.04,"ADDRESS":"東高蚋９之１號","OBJECTID":320942},"geometry":{"x":188473.31000000145,"y":2568475.040000001}},{"attributes":{"ID":320952,"DIS_CODE":0,"TOWNNAME":"六甲區","LI":"中社里","LIN":" ","STREET":" ","SECT":" ","MAREA":"林鳳營","LANE":" ","ALLEY":" ","HOUSE_NO":"１４６號","E_COORD97":180446.22,"N_COORD97":2571302,"ADDRESS":"林鳳營１４６號","OBJECTID":320943},"geometry":{"x":180446.22000000067,"y":2571302}},{"attributes":{"ID":320953,"DIS_CODE":0,"TOWNNAME":"六甲區","LI":"水林里","LIN":" ","STREET":"民族街","SECT":" ","MAREA":" ","LANE":"２７５巷","ALLEY":" ","HOUSE_NO":"２３５號","E_COORD97":182847.62,"N_COORD97":2570326.29,"ADDRESS":"民族街２７５巷２３５號","OBJECTID":320944},"geometry":{"x":182847.62000000104,"y":2570326.2899999991}},{"attributes":{"ID":320954,"DIS_CODE":0,"TOWNNAME":"東區","LI":"路東里","LIN":"15鄰","STREET":"大同路","SECT":"二段","MAREA":" ","LANE":"６１巷","ALLEY":" ","HOUSE_NO":"１２３號四樓之５","E_COORD97":169434.06,"N_COORD97":2542388.4700000002,"ADDRESS":"大同路二段６１巷１２３號四樓之５","OBJECTID":320945},"geometry":{"x":169434.05999999959,"y":2542388.4700000025}},{"attributes":{"ID":320955,"DIS_CODE":0,"TOWNNAME":"東區","LI":"路東里","LIN":"15鄰","STREET":"大同路","SECT":"二段","MAREA":" ","LANE":"６１巷","ALLEY":" ","HOUSE_NO":"１２３號四樓之６","E_COORD97":169434.06,"N_COORD97":2542388.4700000002,"ADDRESS":"大同路二段６１巷１２３號四樓之６","OBJECTID":320946},"geometry":{"x":169434.05999999959,"y":2542388.4700000025}},{"attributes":{"ID":320956,"DIS_CODE":0,"TOWNNAME":"東區","LI":"路東里","LIN":"15鄰","STREET":"大同路","SECT":"二段","MAREA":" ","LANE":"６１巷","ALLEY":" ","HOUSE_NO":"１２３號四樓之７","E_COORD97":169434.06,"N_COORD97":2542388.4700000002,"ADDRESS":"大同路二段６１巷１２３號四樓之７","OBJECTID":320947},"geometry":{"x":169434.05999999959,"y":2542388.4700000025}},{"attributes":{"ID":320957,"DIS_CODE":0,"TOWNNAME":"東區","LI":"路東里","LIN":"15鄰","STREET":"大同路","SECT":"二段","MAREA":" ","LANE":"６１巷","ALLEY":" ","HOUSE_NO":"１２３號四樓之８","E_COORD97":169434.06,"N_COORD97":2542388.4700000002,"ADDRESS":"大同路二段６１巷１２３號四樓之８","OBJECTID":320948},"geometry":{"x":169434.05999999959,"y":2542388.4700000025}},{"attributes":{"ID":320958,"DIS_CODE":0,"TOWNNAME":"南區","LI":"日新里","LIN":"15鄰","STREET":"新興路","SECT":" ","MAREA":" ","LANE":"４６１巷","ALLEY":" ","HOUSE_NO":"２６號五樓之２","E_COORD97":166825.44,"N_COORD97":2541570.7799999998,"ADDRESS":"新興路４６１巷２６號五樓之２","OBJECTID":320949},"geometry":{"x":166825.44000000041,"y":2541570.7800000012}},{"attributes":{"ID":320959,"DIS_CODE":0,"TOWNNAME":"南區","LI":"日新里","LIN":"15鄰","STREET":"新興路","SECT":" ","MAREA":" ","LANE":"４６１巷","ALLEY":" ","HOUSE_NO":"２６號五樓之３","E_COORD97":166825.44,"N_COORD97":2541570.7799999998,"ADDRESS":"新興路４６１巷２６號五樓之３","OBJECTID":320950},"geometry":{"x":166825.44000000041,"y":2541570.7800000012}},{"attributes":{"ID":320960,"DIS_CODE":0,"TOWNNAME":"南區","LI":"日新里","LIN":"15鄰","STREET":"新興路","SECT":" ","MAREA":" ","LANE":"４６１巷","ALLEY":" ","HOUSE_NO":"２６號五樓之４","E_COORD97":166825.44,"N_COORD97":2541570.7799999998,"ADDRESS":"新興路４６１巷２６號五樓之４","OBJECTID":320951},"geometry":{"x":166825.44000000041,"y":2541570.7800000012}},{"attributes":{"ID":320961,"DIS_CODE":0,"TOWNNAME":"安平區","LI":"育平里","LIN":"17鄰","STREET":"育平路","SECT":" ","MAREA":" ","LANE":" ","ALLEY":" ","HOUSE_NO":"２１２號十三樓之３３","E_COORD97":164690.60999999999,"N_COORD97":2543415.9199999999,"ADDRESS":"育平路２１２號十三樓之３３","OBJECTID":320952},"geometry":{"x":164690.61000000127,"y":2543415.9200000018}},{"attributes":{"ID":320962,"DIS_CODE":0,"TOWNNAME":"六甲區","LI":"甲東里","LIN":" ","STREET":"珊瑚路","SECT":" ","MAREA":" ","LANE":"１２１巷","ALLEY":" ","HOUSE_NO":"１１號","E_COORD97":183949.14999999999,"N_COORD97":2569316.9900000002,"ADDRESS":"珊瑚路１２１巷１１號","OBJECTID":320953},"geometry":{"x":183949.15000000224,"y":2569316.9900000039}},{"attributes":{"ID":320963,"DIS_CODE":0,"TOWNNAME":"六甲區","LI":"中社里","LIN":" ","STREET":" ","SECT":" ","MAREA":"林鳳營","LANE":" ","ALLEY":" ","HOUSE_NO":"２２１之１７號","E_COORD97":180178.42999999999,"N_COORD97":2571287.5899999999,"ADDRESS":"林鳳營２２１之１７號","OBJECTID":320954},"geometry":{"x":180178.43000000063,"y":2571287.5899999999}},{"attributes":{"ID":320964,"DIS_CODE":0,"TOWNNAME":"六甲區","LI":"菁埔里","LIN":" ","STREET":" ","SECT":" ","MAREA":"林鳳營","LANE":" ","ALLEY":" ","HOUSE_NO":"３２１之１號","E_COORD97":179806.89999999999,"N_COORD97":2571111.77,"ADDRESS":"林鳳營３２１之１號","OBJECTID":320955},"geometry":{"x":179806.9000000013,"y":2571111.7700000014}},{"attributes":{"ID":320965,"DIS_CODE":0,"TOWNNAME":"六甲區","LI":"菁埔里","LIN":" ","STREET":" ","SECT":" ","MAREA":"林鳳營","LANE":" ","ALLEY":" ","HOUSE_NO":"３２１號","E_COORD97":179816.20999999999,"N_COORD97":2571110.1499999999,"ADDRESS":"林鳳營３２１號","OBJECTID":320956},"geometry":{"x":179816.21000000089,"y":2571110.1500000022}},{"attributes":{"ID":320966,"DIS_CODE":0,"TOWNNAME":"六甲區","LI":"大丘里","LIN":" ","STREET":" ","SECT":" ","MAREA":"南勢坑","LANE":" ","ALLEY":" ","HOUSE_NO":"１７號","E_COORD97":192898.81,"N_COORD97":2567375.0299999998,"ADDRESS":"南勢坑１７號","OBJECTID":320957},"geometry":{"x":192898.80999999959,"y":2567375.0299999993}},{"attributes":{"ID":320967,"DIS_CODE":0,"TOWNNAME":"南區","LI":"日新里","LIN":"15鄰","STREET":"新興路","SECT":" ","MAREA":" ","LANE":"４６１巷","ALLEY":" ","HOUSE_NO":"２６號四樓之１","E_COORD97":166825.44,"N_COORD97":2541570.7799999998,"ADDRESS":"新興路４６１巷２６號四樓之１","OBJECTID":320958},"geometry":{"x":166825.44000000041,"y":2541570.7800000012}},{"attributes":{"ID":320968,"DIS_CODE":0,"TOWNNAME":"六甲區","LI":"中社里","LIN":" ","STREET":" ","SECT":" ","MAREA":"農場","LANE":" ","ALLEY":" ","HOUSE_NO":"４９號","E_COORD97":181080.14000000001,"N_COORD97":2572197.1000000001,"ADDRESS":"農場４９號","OBJECTID":320959},"geometry":{"x":181080.14000000153,"y":2572197.1000000034}},{"attributes":{"ID":320969,"DIS_CODE":0,"TOWNNAME":"六甲區","LI":"龜港里","LIN":" ","STREET":" ","SECT":" ","MAREA":"龜子港","LANE":" ","ALLEY":" ","HOUSE_NO":"１９８號","E_COORD97":179664.19,"N_COORD97":2572807.5699999998,"ADDRESS":"龜子港１９８號","OBJECTID":320960},"geometry":{"x":179664.19000000134,"y":2572807.5700000003}},{"attributes":{"ID":320970,"DIS_CODE":0,"TOWNNAME":"南區","LI":"日新里","LIN":"15鄰","STREET":"新興路","SECT":" ","MAREA":" ","LANE":"４６１巷","ALLEY":" ","HOUSE_NO":"２６號四樓之２","E_COORD97":166825.44,"N_COORD97":2541570.7799999998,"ADDRESS":"新興路４６１巷２６號四樓之２","OBJECTID":320961},"geometry":{"x":166825.44000000041,"y":2541570.7800000012}},{"attributes":{"ID":320971,"DIS_CODE":0,"TOWNNAME":"南區","LI":"日新里","LIN":"15鄰","STREET":"新興路","SECT":" ","MAREA":" ","LANE":"４６１巷","ALLEY":" ","HOUSE_NO":"２６號四樓之４","E_COORD97":166825.44,"N_COORD97":2541570.7799999998,"ADDRESS":"新興路４６１巷２６號四樓之４","OBJECTID":320962},"geometry":{"x":166825.44000000041,"y":2541570.7800000012}},{"attributes":{"ID":320972,"DIS_CODE":0,"TOWNNAME":"永康區","LI":"安康里","LIN":"15鄰","STREET":"中華路","SECT":" ","MAREA":" ","LANE":"６１９巷","ALLEY":" ","HOUSE_NO":"５４號五樓","E_COORD97":170928.54999999999,"N_COORD97":2546064.5,"ADDRESS":"中華路６１９巷５４號五樓","OBJECTID":320963},"geometry":{"x":170928.55000000168,"y":2546064.5}},{"attributes":{"ID":320973,"DIS_CODE":0,"TOWNNAME":"六甲區","LI":"龜港里","LIN":" ","STREET":" ","SECT":" ","MAREA":"龜子港","LANE":" ","ALLEY":" ","HOUSE_NO":"３１４號","E_COORD97":179681.51999999999,"N_COORD97":2573085.7799999998,"ADDRESS":"龜子港３１４號","OBJECTID":320964},"geometry":{"x":179681.51999999955,"y":2573085.7799999993}},{"attributes":{"ID":320974,"DIS_CODE":0,"TOWNNAME":"六甲區","LI":"龜港里","LIN":" ","STREET":" ","SECT":" ","MAREA":"龜子港","LANE":" ","ALLEY":" ","HOUSE_NO":"４８１號","E_COORD97":179604.95999999999,"N_COORD97":2572996.6699999999,"ADDRESS":"龜子港４８１號","OBJECTID":320965},"geometry":{"x":179604.95999999996,"y":2572996.6699999999}},{"attributes":{"ID":320975,"DIS_CODE":0,"TOWNNAME":"安平區","LI":"育平里","LIN":"17鄰","STREET":"育平路","SECT":" ","MAREA":" ","LANE":" ","ALLEY":" ","HOUSE_NO":"２１２號十三樓之３５","E_COORD97":164690.60999999999,"N_COORD97":2543415.9199999999,"ADDRESS":"育平路２１２號十三樓之３５","OBJECTID":320966},"geometry":{"x":164690.61000000127,"y":2543415.9200000018}},{"attributes":{"ID":320976,"DIS_CODE":0,"TOWNNAME":"六甲區","LI":"龜港里","LIN":" ","STREET":" ","SECT":" ","MAREA":"龜子港","LANE":"２８１巷","ALLEY":"３１弄","HOUSE_NO":"１３號","E_COORD97":179565.23000000001,"N_COORD97":2572317.2799999998,"ADDRESS":"龜子港２８１巷３１弄１３號","OBJECTID":320967},"geometry":{"x":179565.23000000138,"y":2572317.2799999993}},{"attributes":{"ID":320977,"DIS_CODE":0,"TOWNNAME":"六甲區","LI":"龜港里","LIN":" ","STREET":" ","SECT":" ","MAREA":"龜子港","LANE":"１１１巷","ALLEY":" ","HOUSE_NO":"９３號","E_COORD97":179529.57999999999,"N_COORD97":2571891.9700000002,"ADDRESS":"龜子港１１１巷９３號","OBJECTID":320968},"geometry":{"x":179529.58000000007,"y":2571891.9700000025}},{"attributes":{"ID":320978,"DIS_CODE":0,"TOWNNAME":"六甲區","LI":"龜港里","LIN":" ","STREET":" ","SECT":" ","MAREA":"龜子港","LANE":"１１１巷","ALLEY":" ","HOUSE_NO":"９５之１號","E_COORD97":179517.06,"N_COORD97":2571877.0899999999,"ADDRESS":"龜子港１１１巷９５之１號","OBJECTID":320969},"geometry":{"x":179517.05999999959,"y":2571877.0900000017}},{"attributes":{"ID":320979,"DIS_CODE":0,"TOWNNAME":"六甲區","LI":"龜港里","LIN":" ","STREET":" ","SECT":" ","MAREA":"龜子港","LANE":"１１１巷","ALLEY":" ","HOUSE_NO":"９５號","E_COORD97":179529.60000000001,"N_COORD97":2571878.29,"ADDRESS":"龜子港１１１巷９５號","OBJECTID":320970},"geometry":{"x":179529.60000000056,"y":2571878.290000001}},{"attributes":{"ID":320980,"DIS_CODE":0,"TOWNNAME":"六甲區","LI":"龜港里","LIN":" ","STREET":" ","SECT":" ","MAREA":"龜子港","LANE":"１１１巷","ALLEY":" ","HOUSE_NO":"９７號","E_COORD97":179503.79999999999,"N_COORD97":2571879.9399999999,"ADDRESS":"龜子港１１１巷９７號","OBJECTID":320971},"geometry":{"x":179503.79999999981,"y":2571879.9400000013}},{"attributes":{"ID":320981,"DIS_CODE":0,"TOWNNAME":"六甲區","LI":"龜港里","LIN":" ","STREET":" ","SECT":" ","MAREA":"龜子港","LANE":"１１１巷","ALLEY":" ","HOUSE_NO":"９９號","E_COORD97":179504.76999999999,"N_COORD97":2571893.96,"ADDRESS":"龜子港１１１巷９９號","OBJECTID":320972},"geometry":{"x":179504.77000000048,"y":2571893.9600000009}},{"attributes":{"ID":320982,"DIS_CODE":0,"TOWNNAME":"六甲區","LI":"龜港里","LIN":" ","STREET":" ","SECT":" ","MAREA":"龜子港","LANE":"１６１巷","ALLEY":" ","HOUSE_NO":"３９號","E_COORD97":179539.10000000001,"N_COORD97":2572237.3900000001,"ADDRESS":"龜子港１６１巷３９號","OBJECTID":320973},"geometry":{"x":179539.09999999963,"y":2572237.3900000025}},{"attributes":{"ID":320983,"DIS_CODE":0,"TOWNNAME":"六甲區","LI":"龜港里","LIN":" ","STREET":" ","SECT":" ","MAREA":"龜子港","LANE":"１６１巷","ALLEY":" ","HOUSE_NO":"５６之１號","E_COORD97":179464.45000000001,"N_COORD97":2572294.7400000002,"ADDRESS":"龜子港１６１巷５６之１號","OBJECTID":320974},"geometry":{"x":179464.45000000019,"y":2572294.7400000002}},{"attributes":{"ID":320984,"DIS_CODE":0,"TOWNNAME":"六甲區","LI":"龜港里","LIN":" ","STREET":" ","SECT":" ","MAREA":"龜子港","LANE":"２８１巷","ALLEY":" ","HOUSE_NO":"３號","E_COORD97":179627.20999999999,"N_COORD97":2572409.1099999999,"ADDRESS":"龜子港２８１巷３號","OBJECTID":320975},"geometry":{"x":179627.21000000183,"y":2572409.1099999994}},{"attributes":{"ID":320985,"DIS_CODE":0,"TOWNNAME":"關廟區","LI":"埤頭里","LIN":"13鄰","STREET":"關新路","SECT":"二段","MAREA":" ","LANE":" ","ALLEY":" ","HOUSE_NO":"４７８號","E_COORD97":179157.22,"N_COORD97":2545167.2999999998,"ADDRESS":"關新路二段４７８號","OBJECTID":320976},"geometry":{"x":179157.21999999974,"y":2545167.3000000007}},{"attributes":{"ID":320986,"DIS_CODE":0,"TOWNNAME":"關廟區","LI":"埤頭里","LIN":"5鄰","STREET":"關新路","SECT":"二段","MAREA":" ","LANE":" ","ALLEY":" ","HOUSE_NO":"２２號","E_COORD97":179101.07000000001,"N_COORD97":2544080.2999999998,"ADDRESS":"關新路二段２２號","OBJECTID":320977},"geometry":{"x":179101.0700000003,"y":2544080.3000000007}},{"attributes":{"ID":320987,"DIS_CODE":0,"TOWNNAME":"六甲區","LI":"龜港里","LIN":" ","STREET":" ","SECT":" ","MAREA":"龜子港","LANE":"８０巷","ALLEY":"２９弄","HOUSE_NO":"１之１號","E_COORD97":179844.79999999999,"N_COORD97":2572406.1299999999,"ADDRESS":"龜子港８０巷２９弄１之１號","OBJECTID":320978},"geometry":{"x":179844.79999999981,"y":2572406.129999999}},{"attributes":{"ID":320988,"DIS_CODE":0,"TOWNNAME":"關廟區","LI":"田中里","LIN":"8鄰","STREET":"南雄南路","SECT":" ","MAREA":" ","LANE":" ","ALLEY":" ","HOUSE_NO":"５７５號","E_COORD97":183542.89000000001,"N_COORD97":2533779.2999999998,"ADDRESS":"南雄南路５７５號","OBJECTID":320979},"geometry":{"x":183542.88999999966,"y":2533779.3000000007}},{"attributes":{"ID":320989,"DIS_CODE":0,"TOWNNAME":"安南區","LI":"海東里","LIN":"21鄰","STREET":"海東二街","SECT":" ","MAREA":" ","LANE":" ","ALLEY":" ","HOUSE_NO":"３８號","E_COORD97":166930.598745,"N_COORD97":2547923.55106,"ADDRESS":"海東二街３８號","OBJECTID":320980},"geometry":{"x":166930.59874500055,"y":2547923.5510650035}},{"attributes":{"ID":320990,"DIS_CODE":0,"TOWNNAME":"關廟區","LI":"新光里","LIN":"4鄰","STREET":"新光街","SECT":" ","MAREA":" ","LANE":" ","ALLEY":" ","HOUSE_NO":"９１號","E_COORD97":183653.42000000001,"N_COORD97":2541366.2999999998,"ADDRESS":"新光街９１號","OBJECTID":320981},"geometry":{"x":183653.41999999899,"y":2541366.3000000026}},{"attributes":{"ID":320991,"DIS_CODE":0,"TOWNNAME":"關廟區","LI":"新光里","LIN":"4鄰","STREET":"新光街","SECT":" ","MAREA":" ","LANE":" ","ALLEY":" ","HOUSE_NO":"１０７號","E_COORD97":183724.82000000001,"N_COORD97":2541394.2999999998,"ADDRESS":"新光街１０７號","OBJECTID":320982},"geometry":{"x":183724.82000000123,"y":2541394.3000000007}},{"attributes":{"ID":320992,"DIS_CODE":0,"TOWNNAME":"關廟區","LI":"布袋里","LIN":"4鄰","STREET":"長和街","SECT":" ","MAREA":" ","LANE":" ","ALLEY":" ","HOUSE_NO":"１５９號","E_COORD97":182694.69,"N_COORD97":2535026.2999999998,"ADDRESS":"長和街１５９號","OBJECTID":320983},"geometry":{"x":182694.69000000134,"y":2535026.3000000026}},{"attributes":{"ID":320993,"DIS_CODE":0,"TOWNNAME":"永康區","LI":"安康里","LIN":"15鄰","STREET":"中華路","SECT":" ","MAREA":" ","LANE":"６１９巷","ALLEY":" ","HOUSE_NO":"５４號三樓","E_COORD97":170928.54999999999,"N_COORD97":2546064.5,"ADDRESS":"中華路６１９巷５４號三樓","OBJECTID":320984},"geometry":{"x":170928.55000000168,"y":2546064.5}},{"attributes":{"ID":320994,"DIS_CODE":0,"TOWNNAME":"永康區","LI":"安康里","LIN":"15鄰","STREET":"中華路","SECT":" ","MAREA":" ","LANE":"６１９巷","ALLEY":" ","HOUSE_NO":"５４號二樓","E_COORD97":170928.54999999999,"N_COORD97":2546064.5,"ADDRESS":"中華路６１９巷５４號二樓","OBJECTID":320985},"geometry":{"x":170928.55000000168,"y":2546064.5}},{"attributes":{"ID":320995,"DIS_CODE":0,"TOWNNAME":"永康區","LI":"安康里","LIN":"15鄰","STREET":"中華路","SECT":" ","MAREA":" ","LANE":"６１９巷","ALLEY":" ","HOUSE_NO":"５６號六樓","E_COORD97":170938.81,"N_COORD97":2546045.25,"ADDRESS":"中華路６１９巷５６號六樓","OBJECTID":320986},"geometry":{"x":170938.81000000052,"y":2546045.25}},{"attributes":{"ID":320996,"DIS_CODE":0,"TOWNNAME":"永康區","LI":"安康里","LIN":"15鄰","STREET":"中華路","SECT":" ","MAREA":" ","LANE":"６１９巷","ALLEY":" ","HOUSE_NO":"５６號五樓","E_COORD97":170938.81,"N_COORD97":2546045.25,"ADDRESS":"中華路６１９巷５６號五樓","OBJECTID":320987},"geometry":{"x":170938.81000000052,"y":2546045.25}},{"attributes":{"ID":320997,"DIS_CODE":0,"TOWNNAME":"永康區","LI":"安康里","LIN":"15鄰","STREET":"中華路","SECT":" ","MAREA":" ","LANE":"６１９巷","ALLEY":" ","HOUSE_NO":"３２號五樓","E_COORD97":170970.85000000001,"N_COORD97":2546062.75,"ADDRESS":"中華路６１９巷３２號五樓","OBJECTID":320988},"geometry":{"x":170970.85000000056,"y":2546062.75}},{"attributes":{"ID":320998,"DIS_CODE":0,"TOWNNAME":"永康區","LI":"安康里","LIN":"15鄰","STREET":"中華路","SECT":" ","MAREA":" ","LANE":"６１９巷","ALLEY":" ","HOUSE_NO":"３２號三樓","E_COORD97":170970.85000000001,"N_COORD97":2546062.75,"ADDRESS":"中華路６１９巷３２號三樓","OBJECTID":320989},"geometry":{"x":170970.85000000056,"y":2546062.75}},{"attributes":{"ID":320999,"DIS_CODE":0,"TOWNNAME":"永康區","LI":"安康里","LIN":"15鄰","STREET":"中華路","SECT":" ","MAREA":" ","LANE":"６１９巷","ALLEY":" ","HOUSE_NO":"３０號四樓","E_COORD97":170962.03,"N_COORD97":2546079.75,"ADDRESS":"中華路６１９巷３０號四樓","OBJECTID":320990},"geometry":{"x":170962.03000000119,"y":2546079.75}},{"attributes":{"ID":321000,"DIS_CODE":0,"TOWNNAME":"東區","LI":"德光里","LIN":"15鄰","STREET":"崇德二街","SECT":" ","MAREA":" ","LANE":"６巷","ALLEY":" ","HOUSE_NO":"１１號二樓","E_COORD97":170095.14999999999,"N_COORD97":2542293.7200000002,"ADDRESS":"崇德二街６巷１１號二樓","OBJECTID":320991},"geometry":{"x":170095.1500000013,"y":2542293.7200000007}},{"attributes":{"ID":321001,"DIS_CODE":0,"TOWNNAME":"東區","LI":"德光里","LIN":"15鄰","STREET":"崇德二街","SECT":" ","MAREA":" ","LANE":"６巷","ALLEY":" ","HOUSE_NO":"１１號三樓","E_COORD97":170095.14999999999,"N_COORD97":2542293.7200000002,"ADDRESS":"崇德二街６巷１１號三樓","OBJECTID":320992},"geometry":{"x":170095.1500000013,"y":2542293.7200000007}},{"attributes":{"ID":321002,"DIS_CODE":0,"TOWNNAME":"東區","LI":"德光里","LIN":"15鄰","STREET":"崇德二街","SECT":" ","MAREA":" ","LANE":"６巷","ALLEY":" ","HOUSE_NO":"１１號五樓","E_COORD97":170095.14999999999,"N_COORD97":2542293.7200000002,"ADDRESS":"崇德二街６巷１１號五樓","OBJECTID":320993},"geometry":{"x":170095.1500000013,"y":2542293.7200000007}},{"attributes":{"ID":321003,"DIS_CODE":0,"TOWNNAME":"永康區","LI":"復華里","LIN":"15鄰","STREET":"國華街","SECT":" ","MAREA":" ","LANE":"９１巷","ALLEY":" ","HOUSE_NO":"３號","E_COORD97":172823.26000000001,"N_COORD97":2545956.7400000002,"ADDRESS":"國華街９１巷３號","OBJECTID":320994},"geometry":{"x":172823.25999999978,"y":2545956.7400000021}},{"attributes":{"ID":321004,"DIS_CODE":0,"TOWNNAME":"東區","LI":"德光里","LIN":"15鄰","STREET":"崇德二街","SECT":" ","MAREA":" ","LANE":"６巷","ALLEY":" ","HOUSE_NO":"１１號四樓","E_COORD97":170095.14999999999,"N_COORD97":2542293.7200000002,"ADDRESS":"崇德二街６巷１１號四樓","OBJECTID":320995},"geometry":{"x":170095.1500000013,"y":2542293.7200000007}},{"attributes":{"ID":321005,"DIS_CODE":0,"TOWNNAME":"柳營區","LI":"旭山里","LIN":" ","STREET":" ","SECT":" ","MAREA":"山子腳","LANE":" ","ALLEY":" ","HOUSE_NO":"４０號","E_COORD97":187170.01000000001,"N_COORD97":2574372.1699999999,"ADDRESS":"山子腳４０號","OBJECTID":320996},"geometry":{"x":187170.00999999978,"y":2574372.1699999999}},{"attributes":{"ID":321006,"DIS_CODE":0,"TOWNNAME":"大內區","LI":"石城里","LIN":"14鄰","STREET":" ","SECT":" ","MAREA":"石子瀨","LANE":" ","ALLEY":" ","HOUSE_NO":"１１３號之５","E_COORD97":183950.75595799999,"N_COORD97":2557879.8037800002,"ADDRESS":"石子瀨１１３號之５","OBJECTID":320997},"geometry":{"x":183950.75595800113,"y":2557879.8037840016}},{"attributes":{"ID":321007,"DIS_CODE":0,"TOWNNAME":"柳營區","LI":"篤農里","LIN":" ","STREET":" ","SECT":" ","MAREA":"小腳腿","LANE":" ","ALLEY":" ","HOUSE_NO":"１８０之１號","E_COORD97":185293.66,"N_COORD97":2576698.8599999999,"ADDRESS":"小腳腿１８０之１號","OBJECTID":320998},"geometry":{"x":185293.66000000108,"y":2576698.8600000013}},{"attributes":{"ID":321008,"DIS_CODE":0,"TOWNNAME":"柳營區","LI":"篤農里","LIN":" ","STREET":" ","SECT":" ","MAREA":"小腳腿","LANE":" ","ALLEY":" ","HOUSE_NO":"１８０號","E_COORD97":185293.79000000001,"N_COORD97":2576694.0800000001,"ADDRESS":"小腳腿１８０號","OBJECTID":320999},"geometry":{"x":185293.7900000019,"y":2576694.0800000019}},{"attributes":{"ID":321009,"DIS_CODE":0,"TOWNNAME":"柳營區","LI":"重溪里","LIN":" ","STREET":" ","SECT":" ","MAREA":"小腳腿","LANE":" ","ALLEY":" ","HOUSE_NO":"２２號","E_COORD97":185207.22,"N_COORD97":2576461.8700000001,"ADDRESS":"小腳腿２２號","OBJECTID":321000},"geometry":{"x":185207.21999999974,"y":2576461.8700000048}}]}