{"displayFieldName":"TOWNNAME","fieldAliases":{"ID":"ID","DIS_CODE":"DIS_CODE","TOWNNAME":"TOWNNAME","LI":"LI","LIN":"LIN","STREET":"STREET","SECT":"SECT","MAREA":"MAREA","LANE":"LANE","ALLEY":"ALLEY","HOUSE_NO":"HOUSE_NO","E_COORD97":"E_COORD97","N_COORD97":"N_COORD97","ADDRESS":"ADDRESS","OBJECTID":"OBJECTID"},"geometryType":"esriGeometryPoint","spatialReference":{"wkid":102443,"latestWkid":3826},"fields":[{"name":"ID","type":"esriFieldTypeDouble","alias":"ID"},{"name":"DIS_CODE","type":"esriFieldTypeInteger","alias":"DIS_CODE"},{"name":"TOWNNAME","type":"esriFieldTypeString","alias":"TOWNNAME","length":8},{"name":"LI","type":"esriFieldTypeString","alias":"LI","length":8},{"name":"LIN","type":"esriFieldTypeString","alias":"LIN","length":12},{"name":"STREET","type":"esriFieldTypeString","alias":"STREET","length":20},{"name":"SECT","type":"esriFieldTypeString","alias":"SECT","length":8},{"name":"MAREA","type":"esriFieldTypeString","alias":"MAREA","length":12},{"name":"LANE","type":"esriFieldTypeString","alias":"LANE","length":10},{"name":"ALLEY","type":"esriFieldTypeString","alias":"ALLEY","length":10},{"name":"HOUSE_NO","type":"esriFieldTypeString","alias":"HOUSE_NO","length":20},{"name":"E_COORD97","type":"esriFieldTypeDouble","alias":"E_COORD97"},{"name":"N_COORD97","type":"esriFieldTypeDouble","alias":"N_COORD97"},{"name":"ADDRESS","type":"esriFieldTypeString","alias":"ADDRESS","length":50},{"name":"OBJECTID","type":"esriFieldTypeOID","alias":"OBJECTID"}],"features":[{"attributes":{"ID":91201,"DIS_CODE":0,"TOWNNAME":"歸仁區","LI":"歸南里","LIN":"10鄰","STREET":"民生九街","SECT":" ","MAREA":" ","LANE":"１３３巷","ALLEY":"４１弄","HOUSE_NO":"１５號","E_COORD97":176309.14000000001,"N_COORD97":2540118.29,"ADDRESS":"民生九街１３３巷４１弄１５號","OBJECTID":91201},"geometry":{"x":176309.13999999966,"y":2540118.2899999991}},{"attributes":{"ID":91202,"DIS_CODE":0,"TOWNNAME":"歸仁區","LI":"歸南里","LIN":"10鄰","STREET":"民生九街","SECT":" ","MAREA":" ","LANE":"１３３巷","ALLEY":"４１弄","HOUSE_NO":"５號","E_COORD97":176309.79000000001,"N_COORD97":2540097.29,"ADDRESS":"民生九街１３３巷４１弄５號","OBJECTID":91202},"geometry":{"x":176309.79000000097,"y":2540097.2899999991}},{"attributes":{"ID":91203,"DIS_CODE":0,"TOWNNAME":"歸仁區","LI":"歸南里","LIN":"10鄰","STREET":"民生九街","SECT":" ","MAREA":" ","LANE":"１３３巷","ALLEY":"１０弄","HOUSE_NO":"９號","E_COORD97":176284.89000000001,"N_COORD97":2540028.29,"ADDRESS":"民生九街１３３巷１０弄９號","OBJECTID":91203},"geometry":{"x":176284.8900000006,"y":2540028.290000001}},{"attributes":{"ID":91204,"DIS_CODE":0,"TOWNNAME":"關廟區","LI":"五甲里","LIN":"10鄰","STREET":"五甲路","SECT":" ","MAREA":" ","LANE":"２８０巷","ALLEY":"６５弄","HOUSE_NO":"２８號","E_COORD97":180693.07000000001,"N_COORD97":2538710.25,"ADDRESS":"五甲路２８０巷６５弄２８號","OBJECTID":91204},"geometry":{"x":180693.07000000216,"y":2538710.2500000019}},{"attributes":{"ID":91205,"DIS_CODE":0,"TOWNNAME":"關廟區","LI":"五甲里","LIN":"10鄰","STREET":"五甲路","SECT":" ","MAREA":" ","LANE":"２８０巷","ALLEY":"７５弄","HOUSE_NO":"１３號","E_COORD97":180674.67000000001,"N_COORD97":2538724.25,"ADDRESS":"五甲路２８０巷７５弄１３號","OBJECTID":91205},"geometry":{"x":180674.66999999993,"y":2538724.2500000019}},{"attributes":{"ID":91206,"DIS_CODE":0,"TOWNNAME":"新營區","LI":"民生里","LIN":"15鄰","STREET":"三民路","SECT":" ","MAREA":" ","LANE":" ","ALLEY":" ","HOUSE_NO":"１３１號九樓之５","E_COORD97":179295.60000000001,"N_COORD97":2578270.48,"ADDRESS":"三民路１３１號九樓之５","OBJECTID":91206},"geometry":{"x":179295.60000000056,"y":2578270.4800000004}},{"attributes":{"ID":91207,"DIS_CODE":0,"TOWNNAME":"新營區","LI":"民生里","LIN":"15鄰","STREET":"三民路","SECT":" ","MAREA":" ","LANE":" ","ALLEY":" ","HOUSE_NO":"１３１號五樓之１","E_COORD97":179295.45000000001,"N_COORD97":2578270.48,"ADDRESS":"三民路１３１號五樓之１","OBJECTID":91207},"geometry":{"x":179295.45000000112,"y":2578270.4800000004}},{"attributes":{"ID":91208,"DIS_CODE":0,"TOWNNAME":"新營區","LI":"民生里","LIN":"15鄰","STREET":"三民路","SECT":" ","MAREA":" ","LANE":" ","ALLEY":" ","HOUSE_NO":"１３１號十樓之１","E_COORD97":179295.51999999999,"N_COORD97":2578270.48,"ADDRESS":"三民路１３１號十樓之１","OBJECTID":91208},"geometry":{"x":179295.51999999955,"y":2578270.4800000004}},{"attributes":{"ID":91209,"DIS_CODE":0,"TOWNNAME":"安定區","LI":"港口里","LIN":"12鄰","STREET":" ","SECT":" ","MAREA":"港口","LANE":" ","ALLEY":" ","HOUSE_NO":"３２９之１號","E_COORD97":171196.89000000001,"N_COORD97":2554561.2999999998,"ADDRESS":"港口３２９之１號","OBJECTID":91209},"geometry":{"x":171196.88999999966,"y":2554561.3000000026}},{"attributes":{"ID":91210,"DIS_CODE":0,"TOWNNAME":"安定區","LI":"港口里","LIN":"12鄰","STREET":" ","SECT":" ","MAREA":"港口","LANE":" ","ALLEY":" ","HOUSE_NO":"３３１之８號","E_COORD97":171111.98999999999,"N_COORD97":2554609.2999999998,"ADDRESS":"港口３３１之８號","OBJECTID":91210},"geometry":{"x":171111.99000000022,"y":2554609.3000000026}},{"attributes":{"ID":91211,"DIS_CODE":0,"TOWNNAME":"安定區","LI":"港口里","LIN":"12鄰","STREET":" ","SECT":" ","MAREA":"港口","LANE":" ","ALLEY":" ","HOUSE_NO":"３３１號之７","E_COORD97":171116.89999999999,"N_COORD97":2554606.2999999998,"ADDRESS":"港口３３１號之７","OBJECTID":91211},"geometry":{"x":171116.9000000013,"y":2554606.3000000007}},{"attributes":{"ID":91212,"DIS_CODE":0,"TOWNNAME":"安定區","LI":"中榮里","LIN":"12鄰","STREET":" ","SECT":" ","MAREA":"許中營","LANE":" ","ALLEY":" ","HOUSE_NO":"９２之５號","E_COORD97":172382.73999999999,"N_COORD97":2555360.2999999998,"ADDRESS":"許中營９２之５號","OBJECTID":91212},"geometry":{"x":172382.74000000115,"y":2555360.3000000045}},{"attributes":{"ID":91213,"DIS_CODE":0,"TOWNNAME":"安定區","LI":"港口里","LIN":"12鄰","STREET":" ","SECT":" ","MAREA":"港口","LANE":" ","ALLEY":" ","HOUSE_NO":"３２９之２１號","E_COORD97":171224.54000000001,"N_COORD97":2554583.2999999998,"ADDRESS":"港口３２９之２１號","OBJECTID":91213},"geometry":{"x":171224.54000000097,"y":2554583.3000000007}},{"attributes":{"ID":91214,"DIS_CODE":0,"TOWNNAME":"安定區","LI":"港尾里","LIN":"12鄰","STREET":" ","SECT":" ","MAREA":"港子尾","LANE":" ","ALLEY":" ","HOUSE_NO":"６９號之１０","E_COORD97":171371.23000000001,"N_COORD97":2555887.2999999998,"ADDRESS":"港子尾６９號之１０","OBJECTID":91214},"geometry":{"x":171371.23000000045,"y":2555887.3000000026}},{"attributes":{"ID":91215,"DIS_CODE":0,"TOWNNAME":"安定區","LI":"港尾里","LIN":"12鄰","STREET":" ","SECT":" ","MAREA":"港子尾","LANE":" ","ALLEY":" ","HOUSE_NO":"６９之２２號","E_COORD97":171399.23999999999,"N_COORD97":2555912.2999999998,"ADDRESS":"港子尾６９之２２號","OBJECTID":91215},"geometry":{"x":171399.24000000115,"y":2555912.3000000007}},{"attributes":{"ID":91216,"DIS_CODE":0,"TOWNNAME":"安定區","LI":"港尾里","LIN":"12鄰","STREET":" ","SECT":" ","MAREA":"港子尾","LANE":" ","ALLEY":" ","HOUSE_NO":"６９號之２３","E_COORD97":171402.37,"N_COORD97":2555912.2999999998,"ADDRESS":"港子尾６９號之２３","OBJECTID":91216},"geometry":{"x":171402.37000000011,"y":2555912.3000000007}},{"attributes":{"ID":91217,"DIS_CODE":0,"TOWNNAME":"安定區","LI":"港尾里","LIN":"12鄰","STREET":" ","SECT":" ","MAREA":"港子尾","LANE":" ","ALLEY":" ","HOUSE_NO":"６９號之１４","E_COORD97":171357.5,"N_COORD97":2555946.2999999998,"ADDRESS":"港子尾６９號之１４","OBJECTID":91217},"geometry":{"x":171357.5,"y":2555946.3000000007}},{"attributes":{"ID":91218,"DIS_CODE":0,"TOWNNAME":"安定區","LI":"港尾里","LIN":"12鄰","STREET":" ","SECT":" ","MAREA":"港子尾","LANE":" ","ALLEY":" ","HOUSE_NO":"６９之１８號","E_COORD97":171384.14000000001,"N_COORD97":2555911.2999999998,"ADDRESS":"港子尾６９之１８號","OBJECTID":91218},"geometry":{"x":171384.1400000006,"y":2555911.3000000026}},{"attributes":{"ID":91219,"DIS_CODE":0,"TOWNNAME":"安定區","LI":"港口里","LIN":"12鄰","STREET":" ","SECT":" ","MAREA":"港口","LANE":" ","ALLEY":" ","HOUSE_NO":"３３１之４號","E_COORD97":171131.59,"N_COORD97":2554598.2999999998,"ADDRESS":"港口３３１之４號","OBJECTID":91219},"geometry":{"x":171131.59000000171,"y":2554598.3000000026}},{"attributes":{"ID":91220,"DIS_CODE":0,"TOWNNAME":"安定區","LI":"中榮里","LIN":"12鄰","STREET":" ","SECT":" ","MAREA":"許中營","LANE":" ","ALLEY":" ","HOUSE_NO":"９３之４號","E_COORD97":172443.73999999999,"N_COORD97":2555407.2999999998,"ADDRESS":"許中營９３之４號","OBJECTID":91220},"geometry":{"x":172443.74000000115,"y":2555407.3000000007}},{"attributes":{"ID":91221,"DIS_CODE":0,"TOWNNAME":"安定區","LI":"港口里","LIN":"12鄰","STREET":" ","SECT":" ","MAREA":"港口","LANE":" ","ALLEY":" ","HOUSE_NO":"３２９之９號","E_COORD97":171175.41,"N_COORD97":2554573.2999999998,"ADDRESS":"港口３２９號之９","OBJECTID":91221},"geometry":{"x":171175.41000000015,"y":2554573.3000000007}},{"attributes":{"ID":91222,"DIS_CODE":0,"TOWNNAME":"新營區","LI":"民生里","LIN":"15鄰","STREET":"三民路","SECT":" ","MAREA":" ","LANE":" ","ALLEY":" ","HOUSE_NO":"１３１號十樓之１","E_COORD97":179296.75,"N_COORD97":2578270.48,"ADDRESS":"三民路１３１號十樓之１","OBJECTID":91222},"geometry":{"x":179296.75000000093,"y":2578270.4800000004}},{"attributes":{"ID":91223,"DIS_CODE":0,"TOWNNAME":"新營區","LI":"民生里","LIN":"15鄰","STREET":"三民路","SECT":" ","MAREA":" ","LANE":" ","ALLEY":" ","HOUSE_NO":"１３１號九樓之４","E_COORD97":179295.47,"N_COORD97":2578270.48,"ADDRESS":"三民路１３１號九樓之４","OBJECTID":91223},"geometry":{"x":179295.47000000067,"y":2578270.4800000004}},{"attributes":{"ID":91224,"DIS_CODE":0,"TOWNNAME":"安定區","LI":"中榮里","LIN":"12鄰","STREET":" ","SECT":" ","MAREA":"許中營","LANE":" ","ALLEY":" ","HOUSE_NO":"９２之６號","E_COORD97":172328.34,"N_COORD97":2555312.2999999998,"ADDRESS":"許中營９２之６號","OBJECTID":91224},"geometry":{"x":172328.33999999892,"y":2555312.3000000007}},{"attributes":{"ID":91225,"DIS_CODE":0,"TOWNNAME":"安定區","LI":"港口里","LIN":"12鄰","STREET":" ","SECT":" ","MAREA":"港口","LANE":" ","ALLEY":" ","HOUSE_NO":"３２８之１０號","E_COORD97":171007.54000000001,"N_COORD97":2554365.2999999998,"ADDRESS":"港口３２８之１０號","OBJECTID":91225},"geometry":{"x":171007.54000000097,"y":2554365.3000000026}},{"attributes":{"ID":91226,"DIS_CODE":0,"TOWNNAME":"安定區","LI":"港口里","LIN":"12鄰","STREET":" ","SECT":" ","MAREA":"港口","LANE":" ","ALLEY":" ","HOUSE_NO":"３２９號之１０","E_COORD97":171194.14000000001,"N_COORD97":2554578.2999999998,"ADDRESS":"港口３２９之１０號","OBJECTID":91226},"geometry":{"x":171194.1400000006,"y":2554578.3000000026}},{"attributes":{"ID":91227,"DIS_CODE":0,"TOWNNAME":"安定區","LI":"港口里","LIN":"12鄰","STREET":" ","SECT":" ","MAREA":"港口","LANE":" ","ALLEY":" ","HOUSE_NO":"３２９之２８號","E_COORD97":171231.14000000001,"N_COORD97":2554564.2999999998,"ADDRESS":"港口３２９之２８號","OBJECTID":91227},"geometry":{"x":171231.14000000153,"y":2554564.3000000026}},{"attributes":{"ID":91228,"DIS_CODE":0,"TOWNNAME":"安定區","LI":"港口里","LIN":"12鄰","STREET":" ","SECT":" ","MAREA":"港口","LANE":" ","ALLEY":" ","HOUSE_NO":"３２９號之６","E_COORD97":171203.63,"N_COORD97":2554572.29,"ADDRESS":"港口３２９號之６","OBJECTID":91228},"geometry":{"x":171203.62999999989,"y":2554572.2900000028}},{"attributes":{"ID":91229,"DIS_CODE":0,"TOWNNAME":"安定區","LI":"港口里","LIN":"12鄰","STREET":" ","SECT":" ","MAREA":"港口","LANE":" ","ALLEY":" ","HOUSE_NO":"３３１之１２號","E_COORD97":171147.04000000001,"N_COORD97":2554606.2999999998,"ADDRESS":"港口３３１之１２號","OBJECTID":91229},"geometry":{"x":171147.04000000004,"y":2554606.3000000007}},{"attributes":{"ID":91230,"DIS_CODE":0,"TOWNNAME":"安定區","LI":"港口里","LIN":"12鄰","STREET":" ","SECT":" ","MAREA":"港口","LANE":" ","ALLEY":" ","HOUSE_NO":"３２９之１３號","E_COORD97":171164.64000000001,"N_COORD97":2554580.2999999998,"ADDRESS":"港口３２９之１３號","OBJECTID":91230},"geometry":{"x":171164.63999999966,"y":2554580.3000000007}},{"attributes":{"ID":91231,"DIS_CODE":0,"TOWNNAME":"安定區","LI":"港口里","LIN":"12鄰","STREET":" ","SECT":" ","MAREA":"港口","LANE":" ","ALLEY":" ","HOUSE_NO":"３３１之２０號","E_COORD97":171113.14000000001,"N_COORD97":2554624.2999999998,"ADDRESS":"港口３３１之２０號","OBJECTID":91231},"geometry":{"x":171113.1400000006,"y":2554624.3000000007}},{"attributes":{"ID":91232,"DIS_CODE":0,"TOWNNAME":"安定區","LI":"港尾里","LIN":"12鄰","STREET":" ","SECT":" ","MAREA":"港子尾","LANE":" ","ALLEY":" ","HOUSE_NO":"６９號之１５","E_COORD97":171344.03,"N_COORD97":2555952.2999999998,"ADDRESS":"港子尾６９號之１５","OBJECTID":91232},"geometry":{"x":171344.03000000026,"y":2555952.3000000007}},{"attributes":{"ID":91233,"DIS_CODE":0,"TOWNNAME":"安定區","LI":"港口里","LIN":"12鄰","STREET":" ","SECT":" ","MAREA":"港口","LANE":" ","ALLEY":" ","HOUSE_NO":"３２８之８號","E_COORD97":170999.09,"N_COORD97":2554533.2999999998,"ADDRESS":"港口３２８之８號","OBJECTID":91233},"geometry":{"x":170999.08999999985,"y":2554533.3000000045}},{"attributes":{"ID":91234,"DIS_CODE":0,"TOWNNAME":"安定區","LI":"港口里","LIN":"12鄰","STREET":" ","SECT":" ","MAREA":"港口","LANE":" ","ALLEY":" ","HOUSE_NO":"３２９之２７號","E_COORD97":171232.14000000001,"N_COORD97":2554568.2999999998,"ADDRESS":"港口３２９之２７號","OBJECTID":91234},"geometry":{"x":171232.13999999966,"y":2554568.3000000026}},{"attributes":{"ID":91235,"DIS_CODE":0,"TOWNNAME":"安定區","LI":"港尾里","LIN":"12鄰","STREET":" ","SECT":" ","MAREA":"港子尾","LANE":" ","ALLEY":" ","HOUSE_NO":"６９之２９號","E_COORD97":171424.04000000001,"N_COORD97":2555914.2999999998,"ADDRESS":"港子尾６９之２９號","OBJECTID":91235},"geometry":{"x":171424.04000000097,"y":2555914.3000000026}},{"attributes":{"ID":91236,"DIS_CODE":0,"TOWNNAME":"安定區","LI":"中榮里","LIN":"12鄰","STREET":" ","SECT":" ","MAREA":"許中營","LANE":" ","ALLEY":" ","HOUSE_NO":"９２之１號","E_COORD97":172412.14000000001,"N_COORD97":2555381.2999999998,"ADDRESS":"許中營９２之１號","OBJECTID":91236},"geometry":{"x":172412.13999999966,"y":2555381.3000000026}},{"attributes":{"ID":91237,"DIS_CODE":0,"TOWNNAME":"安定區","LI":"保西里","LIN":"12鄰","STREET":" ","SECT":" ","MAREA":"安定","LANE":" ","ALLEY":" ","HOUSE_NO":"４５９號","E_COORD97":171797.82331400001,"N_COORD97":2558035.64249,"ADDRESS":"安定４５９號","OBJECTID":91237},"geometry":{"x":171797.82331400085,"y":2558035.6424920019}},{"attributes":{"ID":91238,"DIS_CODE":0,"TOWNNAME":"安定區","LI":"保西里","LIN":"12鄰","STREET":" ","SECT":" ","MAREA":"安定","LANE":" ","ALLEY":" ","HOUSE_NO":"４５６號","E_COORD97":171809.10221300001,"N_COORD97":2558031.5679100002,"ADDRESS":"安定４５６號","OBJECTID":91238},"geometry":{"x":171809.10221299902,"y":2558031.5679110028}},{"attributes":{"ID":91239,"DIS_CODE":0,"TOWNNAME":"安定區","LI":"港口里","LIN":"12鄰","STREET":" ","SECT":" ","MAREA":"港口","LANE":" ","ALLEY":" ","HOUSE_NO":"３２９之２５號","E_COORD97":171191.904542,"N_COORD97":2554599.17833,"ADDRESS":"港口３２９之２５號","OBJECTID":91239},"geometry":{"x":171191.90454200096,"y":2554599.1783339977}},{"attributes":{"ID":91240,"DIS_CODE":0,"TOWNNAME":"安定區","LI":"港尾里","LIN":"12鄰","STREET":" ","SECT":" ","MAREA":"港子尾","LANE":" ","ALLEY":" ","HOUSE_NO":"６９之１９號","E_COORD97":171387.64000000001,"N_COORD97":2555911.2999999998,"ADDRESS":"港子尾６９之１９號","OBJECTID":91240},"geometry":{"x":171387.6400000006,"y":2555911.3000000026}},{"attributes":{"ID":91241,"DIS_CODE":0,"TOWNNAME":"安定區","LI":"港口里","LIN":"12鄰","STREET":" ","SECT":" ","MAREA":"港口","LANE":" ","ALLEY":" ","HOUSE_NO":"３２９號之１９","E_COORD97":171164.85999999999,"N_COORD97":2554594.2999999998,"ADDRESS":"港口３２９號之１９","OBJECTID":91241},"geometry":{"x":171164.86000000127,"y":2554594.3000000045}},{"attributes":{"ID":91242,"DIS_CODE":0,"TOWNNAME":"安定區","LI":"港口里","LIN":"12鄰","STREET":" ","SECT":" ","MAREA":"港口","LANE":" ","ALLEY":" ","HOUSE_NO":"３２９號之１２","E_COORD97":171188.41,"N_COORD97":2554581.2999999998,"ADDRESS":"港口３２９號之１２","OBJECTID":91242},"geometry":{"x":171188.41000000015,"y":2554581.3000000026}},{"attributes":{"ID":91243,"DIS_CODE":0,"TOWNNAME":"安定區","LI":"港口里","LIN":"12鄰","STREET":" ","SECT":" ","MAREA":"港口","LANE":" ","ALLEY":" ","HOUSE_NO":"３２９之１４號","E_COORD97":171182.44,"N_COORD97":2554584.2999999998,"ADDRESS":"港口３２９之１４號","OBJECTID":91243},"geometry":{"x":171182.44000000227,"y":2554584.3000000045}},{"attributes":{"ID":91244,"DIS_CODE":0,"TOWNNAME":"關廟區","LI":"五甲里","LIN":"10鄰","STREET":"五甲路","SECT":" ","MAREA":" ","LANE":"２８０巷","ALLEY":"７５弄","HOUSE_NO":"１６號","E_COORD97":180663.17000000001,"N_COORD97":2538734.25,"ADDRESS":"五甲路２８０巷７５弄１６號","OBJECTID":91244},"geometry":{"x":180663.17000000179,"y":2538734.2500000019}},{"attributes":{"ID":91245,"DIS_CODE":0,"TOWNNAME":"關廟區","LI":"五甲里","LIN":"10鄰","STREET":"五甲路","SECT":" ","MAREA":" ","LANE":"２８０巷","ALLEY":"６５弄","HOUSE_NO":"１５號","E_COORD97":180763.37,"N_COORD97":2538756.25,"ADDRESS":"五甲路２８０巷６５弄１５號","OBJECTID":91245},"geometry":{"x":180763.37000000011,"y":2538756.25}},{"attributes":{"ID":91246,"DIS_CODE":0,"TOWNNAME":"關廟區","LI":"五甲里","LIN":"10鄰","STREET":"五甲路","SECT":" ","MAREA":" ","LANE":"２８０巷","ALLEY":"７５弄","HOUSE_NO":"１８號","E_COORD97":180650.17000000001,"N_COORD97":2538721.25,"ADDRESS":"五甲路２８０巷７５弄１８號","OBJECTID":91246},"geometry":{"x":180650.17000000086,"y":2538721.2500000019}},{"attributes":{"ID":91247,"DIS_CODE":0,"TOWNNAME":"關廟區","LI":"五甲里","LIN":"10鄰","STREET":"五甲路","SECT":" ","MAREA":" ","LANE":"２８０巷","ALLEY":"７５弄","HOUSE_NO":"１９號","E_COORD97":180673.17000000001,"N_COORD97":2538689.25,"ADDRESS":"五甲路２８０巷７５弄１９號","OBJECTID":91247},"geometry":{"x":180673.16999999993,"y":2538689.2499999981}},{"attributes":{"ID":91248,"DIS_CODE":0,"TOWNNAME":"關廟區","LI":"新埔里","LIN":"10鄰","STREET":"新埔二街","SECT":" ","MAREA":" ","LANE":"５３巷","ALLEY":"７弄","HOUSE_NO":"１２號","E_COORD97":181431.92000000001,"N_COORD97":2540948.25,"ADDRESS":"新埔二街５３巷７弄１２號","OBJECTID":91248},"geometry":{"x":181431.92000000086,"y":2540948.2500000019}},{"attributes":{"ID":91249,"DIS_CODE":0,"TOWNNAME":"關廟區","LI":"新埔里","LIN":"10鄰","STREET":"新埔二街","SECT":" ","MAREA":" ","LANE":"５３巷","ALLEY":"７弄","HOUSE_NO":"２號","E_COORD97":181407.67000000001,"N_COORD97":2540948.25,"ADDRESS":"新埔二街５３巷７弄２號","OBJECTID":91249},"geometry":{"x":181407.67000000086,"y":2540948.2500000019}},{"attributes":{"ID":91250,"DIS_CODE":0,"TOWNNAME":"關廟區","LI":"關廟里","LIN":"10鄰","STREET":"大仁街","SECT":" ","MAREA":" ","LANE":"３４６巷","ALLEY":"４５弄","HOUSE_NO":"３號","E_COORD97":180852.32000000001,"N_COORD97":2539613.25,"ADDRESS":"大仁街３４６巷４５弄３號","OBJECTID":91250},"geometry":{"x":180852.3200000003,"y":2539613.2500000019}},{"attributes":{"ID":91251,"DIS_CODE":0,"TOWNNAME":"關廟區","LI":"新埔里","LIN":"10鄰","STREET":"新埔二街","SECT":" ","MAREA":" ","LANE":"５３巷","ALLEY":"７弄","HOUSE_NO":"６號","E_COORD97":181413.76999999999,"N_COORD97":2540948.25,"ADDRESS":"新埔二街５３巷７弄６號","OBJECTID":91251},"geometry":{"x":181413.77000000048,"y":2540948.2500000019}},{"attributes":{"ID":91252,"DIS_CODE":0,"TOWNNAME":"南區","LI":"喜東里","LIN":"10鄰","STREET":"明興路","SECT":" ","MAREA":" ","LANE":"６１９巷","ALLEY":"４９９弄","HOUSE_NO":"１２０號","E_COORD97":167322.97,"N_COORD97":2538588.7400000002,"ADDRESS":"明興路６１９巷４９９弄１２０號","OBJECTID":91252},"geometry":{"x":167322.96999999974,"y":2538588.7400000021}},{"attributes":{"ID":91253,"DIS_CODE":0,"TOWNNAME":"南區","LI":"大忠里","LIN":"10鄰","STREET":"中華南路","SECT":"一段","MAREA":" ","LANE":"１２５巷","ALLEY":"１５弄","HOUSE_NO":"１３號","E_COORD97":169240.37,"N_COORD97":2541218.27,"ADDRESS":"中華南路一段１２５巷１５弄１３號","OBJECTID":91253},"geometry":{"x":169240.37000000104,"y":2541218.2700000033}},{"attributes":{"ID":91254,"DIS_CODE":0,"TOWNNAME":"南區","LI":"大忠里","LIN":"10鄰","STREET":"中華南路","SECT":"一段","MAREA":" ","LANE":"１２５巷","ALLEY":"１５弄","HOUSE_NO":"１５號","E_COORD97":169244.48000000001,"N_COORD97":2541218.8199999998,"ADDRESS":"中華南路一段１２５巷１５弄１５號","OBJECTID":91254},"geometry":{"x":169244.47999999952,"y":2541218.820000004}},{"attributes":{"ID":91255,"DIS_CODE":0,"TOWNNAME":"安定區","LI":"港尾里","LIN":"12鄰","STREET":" ","SECT":" ","MAREA":"港子尾","LANE":" ","ALLEY":" ","HOUSE_NO":"６９之２６號","E_COORD97":171410.64000000001,"N_COORD97":2555913.2999999998,"ADDRESS":"港子尾６９之２６號","OBJECTID":91255},"geometry":{"x":171410.63999999966,"y":2555913.3000000045}},{"attributes":{"ID":91256,"DIS_CODE":0,"TOWNNAME":"安定區","LI":"港口里","LIN":"12鄰","STREET":" ","SECT":" ","MAREA":"港口","LANE":" ","ALLEY":" ","HOUSE_NO":"３３１之１１號","E_COORD97":171151.14000000001,"N_COORD97":2554604.2999999998,"ADDRESS":"港口３３１之１１號","OBJECTID":91256},"geometry":{"x":171151.13999999966,"y":2554604.3000000045}},{"attributes":{"ID":91257,"DIS_CODE":0,"TOWNNAME":"安定區","LI":"港口里","LIN":"12鄰","STREET":" ","SECT":" ","MAREA":"港口","LANE":" ","ALLEY":" ","HOUSE_NO":"３２８之３號","E_COORD97":171191.09,"N_COORD97":2554532.2999999998,"ADDRESS":"港口３２８之３號","OBJECTID":91257},"geometry":{"x":171191.09000000171,"y":2554532.3000000007}},{"attributes":{"ID":91258,"DIS_CODE":0,"TOWNNAME":"南區","LI":"大忠里","LIN":"10鄰","STREET":"中華南路","SECT":"一段","MAREA":" ","LANE":"１２５巷","ALLEY":"１５弄","HOUSE_NO":"１７號","E_COORD97":169250.23999999999,"N_COORD97":2541219.3599999999,"ADDRESS":"中華南路一段１２５巷１５弄１７號","OBJECTID":91258},"geometry":{"x":169250.24000000022,"y":2541219.3599999994}},{"attributes":{"ID":91259,"DIS_CODE":0,"TOWNNAME":"南區","LI":"大忠里","LIN":"10鄰","STREET":"中華南路","SECT":"一段","MAREA":" ","LANE":"１２５巷","ALLEY":"１５弄","HOUSE_NO":"１９號","E_COORD97":169254.35000000001,"N_COORD97":2541219.9100000001,"ADDRESS":"中華南路一段１２５巷１５弄１９號","OBJECTID":91259},"geometry":{"x":169254.34999999963,"y":2541219.9100000001}},{"attributes":{"ID":91260,"DIS_CODE":0,"TOWNNAME":"安定區","LI":"中榮里","LIN":"12鄰","STREET":" ","SECT":" ","MAREA":"許中營","LANE":" ","ALLEY":" ","HOUSE_NO":"９４號","E_COORD97":172443.84,"N_COORD97":2555430.25,"ADDRESS":"許中營９４號","OBJECTID":91260},"geometry":{"x":172443.84000000171,"y":2555430.25}},{"attributes":{"ID":91261,"DIS_CODE":0,"TOWNNAME":"南區","LI":"省躬里","LIN":"10鄰","STREET":"灣裡路","SECT":" ","MAREA":" ","LANE":"６２巷","ALLEY":"１４弄","HOUSE_NO":"１２號","E_COORD97":165736.39999999999,"N_COORD97":2537251.98,"ADDRESS":"灣裡路６２巷１４弄１２號","OBJECTID":91261},"geometry":{"x":165736.4000000013,"y":2537251.9800000023}},{"attributes":{"ID":91262,"DIS_CODE":0,"TOWNNAME":"南區","LI":"省躬里","LIN":"10鄰","STREET":"灣裡路","SECT":" ","MAREA":" ","LANE":"６２巷","ALLEY":"１４弄","HOUSE_NO":"１２號之１","E_COORD97":165736.39999999999,"N_COORD97":2537256.3199999998,"ADDRESS":"灣裡路６２巷１４弄１２號之１","OBJECTID":91262},"geometry":{"x":165736.4000000013,"y":2537256.3200000022}},{"attributes":{"ID":91263,"DIS_CODE":0,"TOWNNAME":"南區","LI":"省躬里","LIN":"10鄰","STREET":"灣裡路","SECT":" ","MAREA":" ","LANE":"６２巷","ALLEY":"１４弄","HOUSE_NO":"１２號之２","E_COORD97":165735.42999999999,"N_COORD97":2537260.1699999999,"ADDRESS":"灣裡路６２巷１４弄１２號之２","OBJECTID":91263},"geometry":{"x":165735.43000000063,"y":2537260.1700000018}},{"attributes":{"ID":91264,"DIS_CODE":0,"TOWNNAME":"南區","LI":"省躬里","LIN":"10鄰","STREET":"灣裡路","SECT":" ","MAREA":" ","LANE":"６２巷","ALLEY":"１４弄","HOUSE_NO":"１２號之３","E_COORD97":165735.67000000001,"N_COORD97":2537264.5099999998,"ADDRESS":"灣裡路６２巷１４弄１２號之３","OBJECTID":91264},"geometry":{"x":165735.67000000086,"y":2537264.5100000016}},{"attributes":{"ID":91265,"DIS_CODE":0,"TOWNNAME":"安定區","LI":"港口里","LIN":"12鄰","STREET":" ","SECT":" ","MAREA":"港口","LANE":" ","ALLEY":" ","HOUSE_NO":"３２７號","E_COORD97":171201.89000000001,"N_COORD97":2554545.25,"ADDRESS":"港口３２７號","OBJECTID":91265},"geometry":{"x":171201.88999999966,"y":2554545.25}},{"attributes":{"ID":91266,"DIS_CODE":0,"TOWNNAME":"安定區","LI":"港尾里","LIN":"12鄰","STREET":" ","SECT":" ","MAREA":"港子尾","LANE":" ","ALLEY":" ","HOUSE_NO":"６９號之２","E_COORD97":171403.76000000001,"N_COORD97":2555968.2999999998,"ADDRESS":"港子尾６９號之２","OBJECTID":91266},"geometry":{"x":171403.76000000071,"y":2555968.3000000026}},{"attributes":{"ID":91267,"DIS_CODE":0,"TOWNNAME":"南區","LI":"省躬里","LIN":"10鄰","STREET":"灣裡路","SECT":" ","MAREA":" ","LANE":"６２巷","ALLEY":"１４弄","HOUSE_NO":"３號","E_COORD97":165781.60000000001,"N_COORD97":2537184.7400000002,"ADDRESS":"灣裡路６２巷１４弄３號","OBJECTID":91267},"geometry":{"x":165781.60000000056,"y":2537184.7400000021}},{"attributes":{"ID":91268,"DIS_CODE":0,"TOWNNAME":"南區","LI":"省躬里","LIN":"10鄰","STREET":"灣裡路","SECT":" ","MAREA":" ","LANE":"６２巷","ALLEY":"１４弄","HOUSE_NO":"３號之１","E_COORD97":165777.89000000001,"N_COORD97":2537195.5499999998,"ADDRESS":"灣裡路６２巷１４弄３號之１","OBJECTID":91268},"geometry":{"x":165777.8900000006,"y":2537195.5500000007}},{"attributes":{"ID":91269,"DIS_CODE":0,"TOWNNAME":"南區","LI":"省躬里","LIN":"10鄰","STREET":"灣裡路","SECT":" ","MAREA":" ","LANE":"６２巷","ALLEY":"１４弄","HOUSE_NO":"３號之２","E_COORD97":165777.41,"N_COORD97":2537200.1299999999,"ADDRESS":"灣裡路６２巷１４弄３號之２","OBJECTID":91269},"geometry":{"x":165777.41000000015,"y":2537200.129999999}},{"attributes":{"ID":91270,"DIS_CODE":0,"TOWNNAME":"南區","LI":"省躬里","LIN":"10鄰","STREET":"灣裡路","SECT":" ","MAREA":" ","LANE":"６２巷","ALLEY":"１４弄","HOUSE_NO":"３號之３","E_COORD97":165774.26999999999,"N_COORD97":2537210.4900000002,"ADDRESS":"灣裡路６２巷１４弄３號之３","OBJECTID":91270},"geometry":{"x":165774.26999999955,"y":2537210.4900000021}},{"attributes":{"ID":91271,"DIS_CODE":0,"TOWNNAME":"安定區","LI":"港尾里","LIN":"12鄰","STREET":" ","SECT":" ","MAREA":"港子尾","LANE":" ","ALLEY":" ","HOUSE_NO":"６９號之５","E_COORD97":171397.88,"N_COORD97":2555896.2999999998,"ADDRESS":"港子尾６９號之５","OBJECTID":91271},"geometry":{"x":171397.88000000082,"y":2555896.3000000045}},{"attributes":{"ID":91272,"DIS_CODE":0,"TOWNNAME":"南區","LI":"省躬里","LIN":"10鄰","STREET":"灣裡路","SECT":" ","MAREA":" ","LANE":"６２巷","ALLEY":"１４弄","HOUSE_NO":"３號之４","E_COORD97":165772.82999999999,"N_COORD97":2537214.5800000001,"ADDRESS":"灣裡路６２巷１４弄３號之４","OBJECTID":91272},"geometry":{"x":165772.83000000007,"y":2537214.5800000001}},{"attributes":{"ID":91273,"DIS_CODE":0,"TOWNNAME":"南區","LI":"省躬里","LIN":"10鄰","STREET":"灣裡路","SECT":" ","MAREA":" ","LANE":"６２巷","ALLEY":"１４弄","HOUSE_NO":"３號之５","E_COORD97":165769.92999999999,"N_COORD97":2537226.1499999999,"ADDRESS":"灣裡路６２巷１４弄３號之５","OBJECTID":91273},"geometry":{"x":165769.9299999997,"y":2537226.1500000041}},{"attributes":{"ID":91274,"DIS_CODE":0,"TOWNNAME":"安平區","LI":"平安里","LIN":"10鄰","STREET":"安平路","SECT":" ","MAREA":" ","LANE":"４４６巷","ALLEY":"１７弄","HOUSE_NO":"４５號","E_COORD97":165192.32000000001,"N_COORD97":2544376.4500000002,"ADDRESS":"安平路４４６巷１７弄４５號","OBJECTID":91274},"geometry":{"x":165192.32000000216,"y":2544376.450000003}},{"attributes":{"ID":91275,"DIS_CODE":0,"TOWNNAME":"安平區","LI":"平安里","LIN":"10鄰","STREET":"安平路","SECT":" ","MAREA":" ","LANE":"４４６巷","ALLEY":"１７弄","HOUSE_NO":"４７之１號","E_COORD97":165187.22,"N_COORD97":2544377.9199999999,"ADDRESS":"安平路４４６巷１７弄４７之１號","OBJECTID":91275},"geometry":{"x":165187.21999999881,"y":2544377.9200000018}},{"attributes":{"ID":91276,"DIS_CODE":0,"TOWNNAME":"安平區","LI":"平安里","LIN":"10鄰","STREET":"安平路","SECT":" ","MAREA":" ","LANE":"４４６巷","ALLEY":"１７弄","HOUSE_NO":"２號","E_COORD97":165263.54000000001,"N_COORD97":2544371.4500000002,"ADDRESS":"安平路４４６巷１７弄２號","OBJECTID":91276},"geometry":{"x":165263.5400000019,"y":2544371.4499999993}},{"attributes":{"ID":91277,"DIS_CODE":0,"TOWNNAME":"永康區","LI":"正強里","LIN":"10鄰","STREET":"正義街","SECT":" ","MAREA":" ","LANE":"１０１巷","ALLEY":"２０弄","HOUSE_NO":"６號","E_COORD97":173424.25,"N_COORD97":2547489.1499999999,"ADDRESS":"正義街１０１巷２０弄６號","OBJECTID":91277},"geometry":{"x":173424.25000000186,"y":2547489.1500000022}},{"attributes":{"ID":91278,"DIS_CODE":0,"TOWNNAME":"北區","LI":"仁愛里","LIN":"10鄰","STREET":"東豐路","SECT":" ","MAREA":" ","LANE":"２２７巷","ALLEY":"２４弄","HOUSE_NO":"１７號","E_COORD97":170255.54000000001,"N_COORD97":2544978.8500000001,"ADDRESS":"東豐路２２７巷２４弄１７號","OBJECTID":91278},"geometry":{"x":170255.54000000004,"y":2544978.8500000015}},{"attributes":{"ID":91279,"DIS_CODE":0,"TOWNNAME":"南區","LI":"喜東里","LIN":"10鄰","STREET":"明興路","SECT":" ","MAREA":" ","LANE":"６１９巷","ALLEY":"４９９弄","HOUSE_NO":"６０號","E_COORD97":167436.89000000001,"N_COORD97":2538069.29,"ADDRESS":"明興路６１９巷４９９弄６０號","OBJECTID":91279},"geometry":{"x":167436.88999999966,"y":2538069.290000001}},{"attributes":{"ID":91280,"DIS_CODE":0,"TOWNNAME":"南區","LI":"省躬里","LIN":"10鄰","STREET":"灣裡路","SECT":" ","MAREA":" ","LANE":"６２巷","ALLEY":"１４弄","HOUSE_NO":"１號之１","E_COORD97":165740.98000000001,"N_COORD97":2537179.5600000001,"ADDRESS":"灣裡路６２巷１４弄１號之１","OBJECTID":91280},"geometry":{"x":165740.98000000138,"y":2537179.5600000024}},{"attributes":{"ID":91281,"DIS_CODE":0,"TOWNNAME":"南區","LI":"省躬里","LIN":"10鄰","STREET":"灣裡路","SECT":" ","MAREA":" ","LANE":"６２巷","ALLEY":"３８弄","HOUSE_NO":"１０號","E_COORD97":165713.35999999999,"N_COORD97":2537181.0099999998,"ADDRESS":"灣裡路６２巷３８弄１０號","OBJECTID":91281},"geometry":{"x":165713.36000000034,"y":2537181.0099999998}},{"attributes":{"ID":91282,"DIS_CODE":0,"TOWNNAME":"安定區","LI":"中榮里","LIN":"12鄰","STREET":" ","SECT":" ","MAREA":"許中營","LANE":" ","ALLEY":" ","HOUSE_NO":"９２號","E_COORD97":172405.04000000001,"N_COORD97":2555433.25,"ADDRESS":"許中營９２號","OBJECTID":91282},"geometry":{"x":172405.04000000004,"y":2555433.25}},{"attributes":{"ID":91283,"DIS_CODE":0,"TOWNNAME":"安定區","LI":"港尾里","LIN":"12鄰","STREET":" ","SECT":" ","MAREA":"港子尾","LANE":" ","ALLEY":" ","HOUSE_NO":"６９之２０號","E_COORD97":171391.64000000001,"N_COORD97":2555911.2999999998,"ADDRESS":"港子尾６９之２０號","OBJECTID":91283},"geometry":{"x":171391.63999999966,"y":2555911.3000000026}},{"attributes":{"ID":91284,"DIS_CODE":0,"TOWNNAME":"安定區","LI":"港口里","LIN":"12鄰","STREET":" ","SECT":" ","MAREA":"港口","LANE":" ","ALLEY":" ","HOUSE_NO":"３２９號之８","E_COORD97":171198.07000000001,"N_COORD97":2554575.2999999998,"ADDRESS":"港口３２９號之８","OBJECTID":91284},"geometry":{"x":171198.0700000003,"y":2554575.3000000026}},{"attributes":{"ID":91285,"DIS_CODE":0,"TOWNNAME":"安定區","LI":"中榮里","LIN":"12鄰","STREET":" ","SECT":" ","MAREA":"許中營","LANE":" ","ALLEY":" ","HOUSE_NO":"９２號之２","E_COORD97":172358.23999999999,"N_COORD97":2555355.2999999998,"ADDRESS":"許中營９２之２號","OBJECTID":91285},"geometry":{"x":172358.23999999929,"y":2555355.3000000026}},{"attributes":{"ID":91286,"DIS_CODE":0,"TOWNNAME":"安定區","LI":"中榮里","LIN":"12鄰","STREET":" ","SECT":" ","MAREA":"許中營","LANE":" ","ALLEY":" ","HOUSE_NO":"９６號","E_COORD97":172446.54000000001,"N_COORD97":2555463.25,"ADDRESS":"許中營９６號","OBJECTID":91286},"geometry":{"x":172446.54000000097,"y":2555463.2500000019}},{"attributes":{"ID":91287,"DIS_CODE":0,"TOWNNAME":"安定區","LI":"港口里","LIN":"12鄰","STREET":" ","SECT":" ","MAREA":"港口","LANE":" ","ALLEY":" ","HOUSE_NO":"３２８之５號","E_COORD97":170962.39000000001,"N_COORD97":2554510.2999999998,"ADDRESS":"港口３２８之５號","OBJECTID":91287},"geometry":{"x":170962.3900000006,"y":2554510.3000000026}},{"attributes":{"ID":91288,"DIS_CODE":0,"TOWNNAME":"安定區","LI":"港尾里","LIN":"12鄰","STREET":" ","SECT":" ","MAREA":"港子尾","LANE":" ","ALLEY":" ","HOUSE_NO":"６９號之１６","E_COORD97":171346.07999999999,"N_COORD97":2555928.2999999998,"ADDRESS":"港子尾６９號之１６","OBJECTID":91288},"geometry":{"x":171346.08000000101,"y":2555928.3000000026}},{"attributes":{"ID":91289,"DIS_CODE":0,"TOWNNAME":"安定區","LI":"港口里","LIN":"12鄰","STREET":" ","SECT":" ","MAREA":"港口","LANE":" ","ALLEY":" ","HOUSE_NO":"３３１之２號","E_COORD97":171140.09,"N_COORD97":2554593.2999999998,"ADDRESS":"港口３３１之２號","OBJECTID":91289},"geometry":{"x":171140.09000000171,"y":2554593.3000000007}},{"attributes":{"ID":91290,"DIS_CODE":0,"TOWNNAME":"安定區","LI":"中榮里","LIN":"12鄰","STREET":" ","SECT":" ","MAREA":"許中營","LANE":" ","ALLEY":" ","HOUSE_NO":"９５號之１","E_COORD97":172472.07999999999,"N_COORD97":2555415.2999999998,"ADDRESS":"許中營９５號之１","OBJECTID":91290},"geometry":{"x":172472.08000000007,"y":2555415.3000000026}},{"attributes":{"ID":91291,"DIS_CODE":0,"TOWNNAME":"安定區","LI":"中榮里","LIN":"12鄰","STREET":" ","SECT":" ","MAREA":"許中營","LANE":" ","ALLEY":" ","HOUSE_NO":"９３之３號","E_COORD97":172449.23999999999,"N_COORD97":2555407.2999999998,"ADDRESS":"許中營９３之３號","OBJECTID":91291},"geometry":{"x":172449.24000000022,"y":2555407.3000000007}},{"attributes":{"ID":91292,"DIS_CODE":0,"TOWNNAME":"安定區","LI":"港口里","LIN":"12鄰","STREET":" ","SECT":" ","MAREA":"港口","LANE":" ","ALLEY":" ","HOUSE_NO":"３２９號之７","E_COORD97":171181.09,"N_COORD97":2554570.2999999998,"ADDRESS":"港口３２９之７號","OBJECTID":91292},"geometry":{"x":171181.09000000078,"y":2554570.2999999989}},{"attributes":{"ID":91293,"DIS_CODE":0,"TOWNNAME":"安定區","LI":"安加里","LIN":"12鄰","STREET":" ","SECT":" ","MAREA":"安定","LANE":" ","ALLEY":" ","HOUSE_NO":"２７８之１號","E_COORD97":171579.01999999999,"N_COORD97":2557440.3199999998,"ADDRESS":"安定２７８之１號","OBJECTID":91293},"geometry":{"x":171579.01999999955,"y":2557440.3200000003}},{"attributes":{"ID":91294,"DIS_CODE":0,"TOWNNAME":"安定區","LI":"港口里","LIN":"12鄰","STREET":" ","SECT":" ","MAREA":"港口","LANE":" ","ALLEY":" ","HOUSE_NO":"３２８號之１","E_COORD97":171220.53,"N_COORD97":2554516.2999999998,"ADDRESS":"港口３２８號之１","OBJECTID":91294},"geometry":{"x":171220.52999999933,"y":2554516.3000000045}},{"attributes":{"ID":91295,"DIS_CODE":0,"TOWNNAME":"安定區","LI":"港口里","LIN":"12鄰","STREET":" ","SECT":" ","MAREA":"港口","LANE":" ","ALLEY":" ","HOUSE_NO":"３２９之１８號","E_COORD97":171170.84,"N_COORD97":2554591.2999999998,"ADDRESS":"港口３２９之１８號","OBJECTID":91295},"geometry":{"x":171170.84000000078,"y":2554591.3000000026}},{"attributes":{"ID":91296,"DIS_CODE":0,"TOWNNAME":"南區","LI":"省躬里","LIN":"10鄰","STREET":"灣裡路","SECT":" ","MAREA":" ","LANE":"６２巷","ALLEY":"３８弄","HOUSE_NO":"１２號","E_COORD97":165712.73999999999,"N_COORD97":2537185.3700000001,"ADDRESS":"灣裡路６２巷３８弄１２號","OBJECTID":91296},"geometry":{"x":165712.74000000022,"y":2537185.3700000029}},{"attributes":{"ID":91297,"DIS_CODE":0,"TOWNNAME":"南區","LI":"省躬里","LIN":"10鄰","STREET":"灣裡路","SECT":" ","MAREA":" ","LANE":"６２巷","ALLEY":"３８弄","HOUSE_NO":"３號","E_COORD97":165688.03,"N_COORD97":2537172.8500000001,"ADDRESS":"灣裡路６２巷３８弄３號","OBJECTID":91297},"geometry":{"x":165688.03000000119,"y":2537172.8500000034}},{"attributes":{"ID":91298,"DIS_CODE":0,"TOWNNAME":"南區","LI":"省躬里","LIN":"10鄰","STREET":"灣裡路","SECT":" ","MAREA":" ","LANE":"６２巷","ALLEY":"３８弄","HOUSE_NO":"８號","E_COORD97":165714.19,"N_COORD97":2537177.2799999998,"ADDRESS":"灣裡路６２巷３８弄８號","OBJECTID":91298},"geometry":{"x":165714.19000000134,"y":2537177.2800000012}},{"attributes":{"ID":91299,"DIS_CODE":0,"TOWNNAME":"南區","LI":"省躬里","LIN":"10鄰","STREET":"灣裡路","SECT":" ","MAREA":" ","LANE":"６２巷","ALLEY":"１４弄","HOUSE_NO":"１５號之２","E_COORD97":165745.07999999999,"N_COORD97":2537277.27,"ADDRESS":"灣裡路６２巷１４弄１５號之２","OBJECTID":91299},"geometry":{"x":165745.08000000101,"y":2537277.2699999996}},{"attributes":{"ID":91300,"DIS_CODE":0,"TOWNNAME":"南區","LI":"省躬里","LIN":"10鄰","STREET":"灣裡路","SECT":" ","MAREA":" ","LANE":"６２巷","ALLEY":"１４弄","HOUSE_NO":"８號","E_COORD97":165741.94,"N_COORD97":2537236.5600000001,"ADDRESS":"灣裡路６２巷１４弄８號","OBJECTID":91300},"geometry":{"x":165741.94000000041,"y":2537236.5600000005}},{"attributes":{"ID":91301,"DIS_CODE":0,"TOWNNAME":"南區","LI":"省躬里","LIN":"10鄰","STREET":"灣裡路","SECT":" ","MAREA":" ","LANE":"６２巷","ALLEY":"３８弄","HOUSE_NO":"２號","E_COORD97":165715.85000000001,"N_COORD97":2537168.3599999999,"ADDRESS":"灣裡路６２巷３８弄２號","OBJECTID":91301},"geometry":{"x":165715.85000000056,"y":2537168.3599999994}},{"attributes":{"ID":91302,"DIS_CODE":0,"TOWNNAME":"南區","LI":"省躬里","LIN":"10鄰","STREET":"灣裡路","SECT":" ","MAREA":" ","LANE":"６２巷","ALLEY":"３８弄","HOUSE_NO":"６號","E_COORD97":165715.01999999999,"N_COORD97":2537172.7200000002,"ADDRESS":"灣裡路６２巷３８弄６號","OBJECTID":91302},"geometry":{"x":165715.01999999955,"y":2537172.7200000025}},{"attributes":{"ID":91303,"DIS_CODE":0,"TOWNNAME":"南區","LI":"府南里","LIN":"10鄰","STREET":"金華路","SECT":"一段","MAREA":" ","LANE":"４８４巷","ALLEY":"２３７弄","HOUSE_NO":"１１號","E_COORD97":167462.81,"N_COORD97":2541112.77,"ADDRESS":"金華路一段４８４巷２３７弄１１號","OBJECTID":91303},"geometry":{"x":167462.80999999959,"y":2541112.7699999977}},{"attributes":{"ID":91304,"DIS_CODE":0,"TOWNNAME":"南區","LI":"府南里","LIN":"10鄰","STREET":"金華路","SECT":"一段","MAREA":" ","LANE":"４８４巷","ALLEY":"２３７弄","HOUSE_NO":"１２號","E_COORD97":167470.48000000001,"N_COORD97":2541105.1299999999,"ADDRESS":"金華路一段４８４巷２３７弄１２號","OBJECTID":91304},"geometry":{"x":167470.48000000138,"y":2541105.129999999}},{"attributes":{"ID":91305,"DIS_CODE":0,"TOWNNAME":"關廟區","LI":"香洋里","LIN":"8鄰","STREET":"忠孝街","SECT":" ","MAREA":" ","LANE":" ","ALLEY":" ","HOUSE_NO":"４０號","E_COORD97":180970.69,"N_COORD97":2540110.25,"ADDRESS":"忠孝街４０號","OBJECTID":91305},"geometry":{"x":180970.69000000134,"y":2540110.2500000037}},{"attributes":{"ID":91306,"DIS_CODE":0,"TOWNNAME":"安定區","LI":"港口里","LIN":"12鄰","STREET":" ","SECT":" ","MAREA":"港口","LANE":" ","ALLEY":" ","HOUSE_NO":"３３１之１號","E_COORD97":171143.89000000001,"N_COORD97":2554592.2999999998,"ADDRESS":"港口３３１之１號","OBJECTID":91306},"geometry":{"x":171143.88999999966,"y":2554592.3000000026}},{"attributes":{"ID":91307,"DIS_CODE":0,"TOWNNAME":"安定區","LI":"港口里","LIN":"12鄰","STREET":" ","SECT":" ","MAREA":"港口","LANE":" ","ALLEY":" ","HOUSE_NO":"３３１之１４號","E_COORD97":171138.73999999999,"N_COORD97":2554610.2999999998,"ADDRESS":"港口３３１之１４號","OBJECTID":91307},"geometry":{"x":171138.74000000022,"y":2554610.3000000007}},{"attributes":{"ID":91308,"DIS_CODE":0,"TOWNNAME":"安定區","LI":"港口里","LIN":"12鄰","STREET":" ","SECT":" ","MAREA":"港口","LANE":" ","ALLEY":" ","HOUSE_NO":"３２８之７號","E_COORD97":170998.89000000001,"N_COORD97":2554528.2999999998,"ADDRESS":"港口３２８之７號","OBJECTID":91308},"geometry":{"x":170998.89000000153,"y":2554528.3000000007}},{"attributes":{"ID":91309,"DIS_CODE":0,"TOWNNAME":"安定區","LI":"港尾里","LIN":"12鄰","STREET":" ","SECT":" ","MAREA":"港子尾","LANE":" ","ALLEY":" ","HOUSE_NO":"６９號之３","E_COORD97":171443.42000000001,"N_COORD97":2555957.2999999998,"ADDRESS":"港子尾６９號之３","OBJECTID":91309},"geometry":{"x":171443.42000000086,"y":2555957.3000000045}},{"attributes":{"ID":91310,"DIS_CODE":0,"TOWNNAME":"安定區","LI":"中榮里","LIN":"12鄰","STREET":" ","SECT":" ","MAREA":"許中營","LANE":" ","ALLEY":" ","HOUSE_NO":"９２號之３","E_COORD97":172380.34,"N_COORD97":2555370.2999999998,"ADDRESS":"許中營９２之３號","OBJECTID":91310},"geometry":{"x":172380.33999999985,"y":2555370.3000000007}},{"attributes":{"ID":91311,"DIS_CODE":0,"TOWNNAME":"安定區","LI":"安加里","LIN":"12鄰","STREET":" ","SECT":" ","MAREA":"安定","LANE":" ","ALLEY":" ","HOUSE_NO":"２７８號","E_COORD97":171568.51999999999,"N_COORD97":2557482.3199999998,"ADDRESS":"安定２７８號","OBJECTID":91311},"geometry":{"x":171568.51999999955,"y":2557482.320000004}},{"attributes":{"ID":91312,"DIS_CODE":0,"TOWNNAME":"安定區","LI":"安加里","LIN":"12鄰","STREET":" ","SECT":" ","MAREA":"安定","LANE":" ","ALLEY":" ","HOUSE_NO":"２８４號","E_COORD97":171629.32000000001,"N_COORD97":2557447.3199999998,"ADDRESS":"安定２８４號","OBJECTID":91312},"geometry":{"x":171629.32000000123,"y":2557447.3200000003}},{"attributes":{"ID":91313,"DIS_CODE":0,"TOWNNAME":"安定區","LI":"港口里","LIN":"12鄰","STREET":" ","SECT":" ","MAREA":"港口","LANE":" ","ALLEY":" ","HOUSE_NO":"３２９之４號","E_COORD97":171209.29000000001,"N_COORD97":2554569.2999999998,"ADDRESS":"港口３２９之４號","OBJECTID":91313},"geometry":{"x":171209.29000000097,"y":2554569.3000000007}},{"attributes":{"ID":91314,"DIS_CODE":0,"TOWNNAME":"安定區","LI":"安加里","LIN":"12鄰","STREET":" ","SECT":" ","MAREA":"安定","LANE":" ","ALLEY":" ","HOUSE_NO":"２７６號","E_COORD97":171603.72,"N_COORD97":2557496.3199999998,"ADDRESS":"安定２７６號","OBJECTID":91314},"geometry":{"x":171603.7200000016,"y":2557496.3200000022}},{"attributes":{"ID":91315,"DIS_CODE":0,"TOWNNAME":"安定區","LI":"港口里","LIN":"12鄰","STREET":" ","SECT":" ","MAREA":"港口","LANE":" ","ALLEY":" ","HOUSE_NO":"３２９號之５","E_COORD97":171185.98000000001,"N_COORD97":2554567.2999999998,"ADDRESS":"港口３２９號之５","OBJECTID":91315},"geometry":{"x":171185.98000000138,"y":2554567.3000000045}},{"attributes":{"ID":91316,"DIS_CODE":0,"TOWNNAME":"安定區","LI":"港口里","LIN":"12鄰","STREET":" ","SECT":" ","MAREA":"港口","LANE":" ","ALLEY":" ","HOUSE_NO":"３３１之１３號","E_COORD97":171142.84,"N_COORD97":2554608.2999999998,"ADDRESS":"港口３３１之１３號","OBJECTID":91316},"geometry":{"x":171142.83999999985,"y":2554608.3000000026}},{"attributes":{"ID":91317,"DIS_CODE":0,"TOWNNAME":"安定區","LI":"安加里","LIN":"12鄰","STREET":" ","SECT":" ","MAREA":"安定","LANE":" ","ALLEY":" ","HOUSE_NO":"２７７號","E_COORD97":171585.42000000001,"N_COORD97":2557489.3199999998,"ADDRESS":"安定２７７號","OBJECTID":91317},"geometry":{"x":171585.41999999899,"y":2557489.3200000022}},{"attributes":{"ID":91318,"DIS_CODE":0,"TOWNNAME":"安定區","LI":"港口里","LIN":"12鄰","STREET":" ","SECT":" ","MAREA":"港口","LANE":" ","ALLEY":" ","HOUSE_NO":"３３１之１８號","E_COORD97":171121.84,"N_COORD97":2554619.2999999998,"ADDRESS":"港口３３１之１８號","OBJECTID":91318},"geometry":{"x":171121.84000000078,"y":2554619.3000000026}},{"attributes":{"ID":91319,"DIS_CODE":0,"TOWNNAME":"安定區","LI":"保西里","LIN":"12鄰","STREET":" ","SECT":" ","MAREA":"安定","LANE":" ","ALLEY":" ","HOUSE_NO":"４６２號","E_COORD97":171774.92000000001,"N_COORD97":2558030.3199999998,"ADDRESS":"安定４６２號","OBJECTID":91319},"geometry":{"x":171774.91999999993,"y":2558030.3200000003}},{"attributes":{"ID":91320,"DIS_CODE":0,"TOWNNAME":"安定區","LI":"安加里","LIN":"12鄰","STREET":" ","SECT":" ","MAREA":"安定","LANE":" ","ALLEY":" ","HOUSE_NO":"２８４之２號","E_COORD97":171647.62,"N_COORD97":2557448.3199999998,"ADDRESS":"安定２８４之２號","OBJECTID":91320},"geometry":{"x":171647.62000000104,"y":2557448.320000004}},{"attributes":{"ID":91321,"DIS_CODE":0,"TOWNNAME":"安定區","LI":"安加里","LIN":"12鄰","STREET":" ","SECT":" ","MAREA":"安定","LANE":" ","ALLEY":" ","HOUSE_NO":"２８７號","E_COORD97":171653.88103300001,"N_COORD97":2557429.54959,"ADDRESS":"安定２８７號","OBJECTID":91321},"geometry":{"x":171653.8810329996,"y":2557429.5495920014}},{"attributes":{"ID":91322,"DIS_CODE":0,"TOWNNAME":"安定區","LI":"安加里","LIN":"12鄰","STREET":" ","SECT":" ","MAREA":"安定","LANE":" ","ALLEY":" ","HOUSE_NO":"２８６號","E_COORD97":171636.32000000001,"N_COORD97":2557462.3199999998,"ADDRESS":"安定２８６號","OBJECTID":91322},"geometry":{"x":171636.32000000123,"y":2557462.3200000022}},{"attributes":{"ID":91323,"DIS_CODE":0,"TOWNNAME":"安定區","LI":"港口里","LIN":"12鄰","STREET":" ","SECT":" ","MAREA":"港口","LANE":" ","ALLEY":" ","HOUSE_NO":"３２９之２號","E_COORD97":171214.09,"N_COORD97":2554566.2999999998,"ADDRESS":"港口３２９之２號","OBJECTID":91323},"geometry":{"x":171214.08999999985,"y":2554566.3000000007}},{"attributes":{"ID":91324,"DIS_CODE":0,"TOWNNAME":"安定區","LI":"港口里","LIN":"12鄰","STREET":" ","SECT":" ","MAREA":"港口","LANE":" ","ALLEY":" ","HOUSE_NO":"３３１之１５號","E_COORD97":171134.44,"N_COORD97":2554613.2999999998,"ADDRESS":"港口３３１之１５號","OBJECTID":91324},"geometry":{"x":171134.44000000041,"y":2554613.3000000007}},{"attributes":{"ID":91325,"DIS_CODE":0,"TOWNNAME":"安定區","LI":"保西里","LIN":"12鄰","STREET":" ","SECT":" ","MAREA":"安定","LANE":" ","ALLEY":" ","HOUSE_NO":"４５７號","E_COORD97":171805.55439100001,"N_COORD97":2558032.7849900001,"ADDRESS":"安定４５７號","OBJECTID":91325},"geometry":{"x":171805.55439100042,"y":2558032.7849940043}},{"attributes":{"ID":91326,"DIS_CODE":0,"TOWNNAME":"安定區","LI":"港口里","LIN":"12鄰","STREET":" ","SECT":" ","MAREA":"港口","LANE":" ","ALLEY":" ","HOUSE_NO":"３２９之３號","E_COORD97":171191.59,"N_COORD97":2554564.2999999998,"ADDRESS":"港口３２９之３號","OBJECTID":91326},"geometry":{"x":171191.59000000078,"y":2554564.3000000026}},{"attributes":{"ID":91327,"DIS_CODE":0,"TOWNNAME":"新化區","LI":"全興里","LIN":"12鄰","STREET":" ","SECT":" ","MAREA":"竹子\u25A0","LANE":" ","ALLEY":" ","HOUSE_NO":"２４７號之１３２","E_COORD97":178218.29000000001,"N_COORD97":2546804.2599999998,"ADDRESS":"竹子\u25A0２４７號之１３２","OBJECTID":91327},"geometry":{"x":178218.29000000097,"y":2546804.2599999998}},{"attributes":{"ID":91328,"DIS_CODE":0,"TOWNNAME":"新化區","LI":"全興里","LIN":"12鄰","STREET":" ","SECT":" ","MAREA":"竹子\u25A0","LANE":" ","ALLEY":" ","HOUSE_NO":"２４７號之１３０","E_COORD97":178223.17000000001,"N_COORD97":2546804.2599999998,"ADDRESS":"竹子\u25A0２４７號之１３０","OBJECTID":91328},"geometry":{"x":178223.16999999993,"y":2546804.2599999998}},{"attributes":{"ID":91329,"DIS_CODE":0,"TOWNNAME":"南區","LI":"府南里","LIN":"10鄰","STREET":"金華路","SECT":"一段","MAREA":" ","LANE":"４８４巷","ALLEY":"２３７弄","HOUSE_NO":"１３號","E_COORD97":167467.17999999999,"N_COORD97":2541113.9500000002,"ADDRESS":"金華路一段４８４巷２３７弄１３號","OBJECTID":91329},"geometry":{"x":167467.1799999997,"y":2541113.9499999993}},{"attributes":{"ID":91330,"DIS_CODE":0,"TOWNNAME":"南區","LI":"府南里","LIN":"10鄰","STREET":"金華路","SECT":"一段","MAREA":" ","LANE":"４８４巷","ALLEY":"２３７弄","HOUSE_NO":"１號","E_COORD97":167441.51999999999,"N_COORD97":2541105.5,"ADDRESS":"金華路一段４８４巷２３７弄１號","OBJECTID":91330},"geometry":{"x":167441.52000000142,"y":2541105.5000000019}},{"attributes":{"ID":91331,"DIS_CODE":0,"TOWNNAME":"南區","LI":"府南里","LIN":"10鄰","STREET":"金華路","SECT":"一段","MAREA":" ","LANE":"４８４巷","ALLEY":"２３７弄","HOUSE_NO":"３號","E_COORD97":167446.34,"N_COORD97":2541106.5,"ADDRESS":"金華路一段４８４巷２３７弄３號","OBJECTID":91331},"geometry":{"x":167446.34000000171,"y":2541106.5000000019}},{"attributes":{"ID":91332,"DIS_CODE":0,"TOWNNAME":"南區","LI":"府南里","LIN":"10鄰","STREET":"金華路","SECT":"一段","MAREA":" ","LANE":"４８４巷","ALLEY":"２３７弄","HOUSE_NO":"５號","E_COORD97":167449.98000000001,"N_COORD97":2541107.5899999999,"ADDRESS":"金華路一段４８４巷２３７弄５號","OBJECTID":91332},"geometry":{"x":167449.98000000138,"y":2541107.589999998}},{"attributes":{"ID":91333,"DIS_CODE":0,"TOWNNAME":"南區","LI":"府南里","LIN":"10鄰","STREET":"金華路","SECT":"一段","MAREA":" ","LANE":"４８４巷","ALLEY":"２３７弄","HOUSE_NO":"７號","E_COORD97":167454.17000000001,"N_COORD97":2541109.3999999999,"ADDRESS":"金華路一段４８４巷２３７弄７號","OBJECTID":91333},"geometry":{"x":167454.16999999993,"y":2541109.3999999985}},{"attributes":{"ID":91334,"DIS_CODE":0,"TOWNNAME":"南區","LI":"府南里","LIN":"10鄰","STREET":"金華路","SECT":"一段","MAREA":" ","LANE":"４８４巷","ALLEY":"２３７弄","HOUSE_NO":"９號","E_COORD97":167458.89999999999,"N_COORD97":2541111.04,"ADDRESS":"金華路一段４８４巷２３７弄９號","OBJECTID":91334},"geometry":{"x":167458.9000000013,"y":2541111.040000001}},{"attributes":{"ID":91335,"DIS_CODE":0,"TOWNNAME":"南區","LI":"府南里","LIN":"10鄰","STREET":"金華路","SECT":"一段","MAREA":" ","LANE":"４８４巷","ALLEY":"２３７弄","HOUSE_NO":"１０號","E_COORD97":167464.66,"N_COORD97":2541102.8599999999,"ADDRESS":"金華路一段４８４巷２３７弄１０號","OBJECTID":91335},"geometry":{"x":167464.66000000015,"y":2541102.8600000013}},{"attributes":{"ID":91336,"DIS_CODE":0,"TOWNNAME":"南區","LI":"府南里","LIN":"10鄰","STREET":"金華路","SECT":"一段","MAREA":" ","LANE":"４８４巷","ALLEY":"２３７弄","HOUSE_NO":"２號","E_COORD97":167449.82999999999,"N_COORD97":2541097.5899999999,"ADDRESS":"金華路一段４８４巷２３７弄２號","OBJECTID":91336},"geometry":{"x":167449.83000000007,"y":2541097.5900000036}},{"attributes":{"ID":91337,"DIS_CODE":0,"TOWNNAME":"南區","LI":"府南里","LIN":"10鄰","STREET":"金華路","SECT":"一段","MAREA":" ","LANE":"４８４巷","ALLEY":"２３７弄","HOUSE_NO":"６號","E_COORD97":167455.20000000001,"N_COORD97":2541099.5899999999,"ADDRESS":"金華路一段４８４巷２３７弄６號","OBJECTID":91337},"geometry":{"x":167455.20000000112,"y":2541099.5899999999}},{"attributes":{"ID":91338,"DIS_CODE":0,"TOWNNAME":"南區","LI":"府南里","LIN":"10鄰","STREET":"金華路","SECT":"一段","MAREA":" ","LANE":"４８４巷","ALLEY":"２３７弄","HOUSE_NO":"８號","E_COORD97":167459.84,"N_COORD97":2541101.77,"ADDRESS":"金華路一段４８４巷２３７弄８號","OBJECTID":91338},"geometry":{"x":167459.84000000171,"y":2541101.7699999996}},{"attributes":{"ID":91339,"DIS_CODE":0,"TOWNNAME":"永康區","LI":"正強里","LIN":"15鄰","STREET":"正強街","SECT":" ","MAREA":" ","LANE":"６３巷","ALLEY":" ","HOUSE_NO":"６號","E_COORD97":173322.25,"N_COORD97":2547305.8999999999,"ADDRESS":"正強街６３巷６號","OBJECTID":91339},"geometry":{"x":173322.25,"y":2547305.9000000004}},{"attributes":{"ID":91340,"DIS_CODE":0,"TOWNNAME":"北區","LI":"成德里","LIN":"18鄰","STREET":"育賢街","SECT":" ","MAREA":" ","LANE":" ","ALLEY":" ","HOUSE_NO":"３１９號","E_COORD97":168900.20000000001,"N_COORD97":2546318.96,"ADDRESS":"育賢街３１９號","OBJECTID":91340},"geometry":{"x":168900.20000000019,"y":2546318.9600000028}},{"attributes":{"ID":91341,"DIS_CODE":0,"TOWNNAME":"永康區","LI":"北灣里","LIN":"15鄰","STREET":"信義二街","SECT":" ","MAREA":" ","LANE":" ","ALLEY":" ","HOUSE_NO":"９０號","E_COORD97":175012.45000000001,"N_COORD97":2545738.7999999998,"ADDRESS":"信義二街９０號","OBJECTID":91341},"geometry":{"x":175012.45000000019,"y":2545738.8000000045}},{"attributes":{"ID":91342,"DIS_CODE":0,"TOWNNAME":"永康區","LI":"北灣里","LIN":"15鄰","STREET":"信義二街","SECT":" ","MAREA":" ","LANE":" ","ALLEY":" ","HOUSE_NO":"１０２號","E_COORD97":174981.41,"N_COORD97":2545730.2599999998,"ADDRESS":"信義二街１０２號","OBJECTID":91342},"geometry":{"x":174981.41000000108,"y":2545730.2599999998}},{"attributes":{"ID":91343,"DIS_CODE":0,"TOWNNAME":"永康區","LI":"正強里","LIN":"15鄰","STREET":"正強街","SECT":" ","MAREA":" ","LANE":" ","ALLEY":" ","HOUSE_NO":"６１號","E_COORD97":173341.5,"N_COORD97":2547289.9900000002,"ADDRESS":"正強街６１號","OBJECTID":91343},"geometry":{"x":173341.50000000093,"y":2547289.9900000021}},{"attributes":{"ID":91344,"DIS_CODE":0,"TOWNNAME":"永康區","LI":"正強里","LIN":"15鄰","STREET":"正強街","SECT":" ","MAREA":" ","LANE":" ","ALLEY":" ","HOUSE_NO":"６９號","E_COORD97":173335.81,"N_COORD97":2547316.4900000002,"ADDRESS":"正強街６９號","OBJECTID":91344},"geometry":{"x":173335.81000000052,"y":2547316.4900000039}},{"attributes":{"ID":91345,"DIS_CODE":0,"TOWNNAME":"永康區","LI":"北灣里","LIN":"15鄰","STREET":"信義二街","SECT":" ","MAREA":" ","LANE":" ","ALLEY":" ","HOUSE_NO":"９６號","E_COORD97":175002.01000000001,"N_COORD97":2545736.9100000001,"ADDRESS":"信義二街９６號","OBJECTID":91345},"geometry":{"x":175002.00999999978,"y":2545736.9099999983}},{"attributes":{"ID":91346,"DIS_CODE":0,"TOWNNAME":"永康區","LI":"北灣里","LIN":"15鄰","STREET":"信義二街","SECT":" ","MAREA":" ","LANE":" ","ALLEY":" ","HOUSE_NO":"９２號","E_COORD97":175007.95000000001,"N_COORD97":2545738.0499999998,"ADDRESS":"信義二街９２號","OBJECTID":91346},"geometry":{"x":175007.95000000019,"y":2545738.0500000026}},{"attributes":{"ID":91347,"DIS_CODE":0,"TOWNNAME":"永康區","LI":"北灣里","LIN":"15鄰","STREET":"信義二街","SECT":" ","MAREA":" ","LANE":" ","ALLEY":" ","HOUSE_NO":"１００號","E_COORD97":174989.72,"N_COORD97":2545732.2400000002,"ADDRESS":"信義二街１００號","OBJECTID":91347},"geometry":{"x":174989.72000000067,"y":2545732.2400000021}},{"attributes":{"ID":91348,"DIS_CODE":0,"TOWNNAME":"北區","LI":"成德里","LIN":"18鄰","STREET":"育賢街","SECT":" ","MAREA":" ","LANE":" ","ALLEY":" ","HOUSE_NO":"３３１號","E_COORD97":168912.10999999999,"N_COORD97":2546343.96,"ADDRESS":"育賢街３３１號","OBJECTID":91348},"geometry":{"x":168912.11000000127,"y":2546343.9600000009}},{"attributes":{"ID":91349,"DIS_CODE":0,"TOWNNAME":"北區","LI":"成德里","LIN":"18鄰","STREET":"育賢街","SECT":" ","MAREA":" ","LANE":" ","ALLEY":" ","HOUSE_NO":"３３３號","E_COORD97":168913.60000000001,"N_COORD97":2546348.0499999998,"ADDRESS":"育賢街３３３號","OBJECTID":91349},"geometry":{"x":168913.59999999963,"y":2546348.0500000026}},{"attributes":{"ID":91350,"DIS_CODE":0,"TOWNNAME":"安南區","LI":"頂安里","LIN":"15鄰","STREET":"長溪路","SECT":"一段","MAREA":" ","LANE":" ","ALLEY":" ","HOUSE_NO":"３５５號之１","E_COORD97":168670.48999999999,"N_COORD97":2548841.8300000001,"ADDRESS":"長溪路一段３５５號之１","OBJECTID":91350},"geometry":{"x":168670.49000000022,"y":2548841.8300000001}},{"attributes":{"ID":91351,"DIS_CODE":0,"TOWNNAME":"中西區","LI":"文賢里","LIN":" ","STREET":"和善街","SECT":" ","MAREA":" ","LANE":" ","ALLEY":" ","HOUSE_NO":"８５號","E_COORD97":166964.07999999999,"N_COORD97":2544730.4100000001,"ADDRESS":"和善街８５號","OBJECTID":91351},"geometry":{"x":166964.08000000101,"y":2544730.4100000039}},{"attributes":{"ID":91352,"DIS_CODE":0,"TOWNNAME":"中西區","LI":"文賢里","LIN":" ","STREET":"文和街","SECT":" ","MAREA":" ","LANE":" ","ALLEY":" ","HOUSE_NO":"８３號","E_COORD97":167165.5,"N_COORD97":2544848.46,"ADDRESS":"文和街８３號","OBJECTID":91352},"geometry":{"x":167165.5,"y":2544848.4600000009}},{"attributes":{"ID":91353,"DIS_CODE":0,"TOWNNAME":"中西區","LI":"文賢里","LIN":" ","STREET":"和善街","SECT":" ","MAREA":" ","LANE":" ","ALLEY":" ","HOUSE_NO":"７１號","E_COORD97":166987.76000000001,"N_COORD97":2544689.8199999998,"ADDRESS":"和善街７１號","OBJECTID":91353},"geometry":{"x":166987.76000000071,"y":2544689.8200000003}},{"attributes":{"ID":91354,"DIS_CODE":0,"TOWNNAME":"中西區","LI":"文賢里","LIN":" ","STREET":"文和街","SECT":" ","MAREA":" ","LANE":" ","ALLEY":" ","HOUSE_NO":"１８４號","E_COORD97":166942.94,"N_COORD97":2544691.8599999999,"ADDRESS":"文和街１８４號","OBJECTID":91354},"geometry":{"x":166942.94000000134,"y":2544691.8599999994}},{"attributes":{"ID":91355,"DIS_CODE":0,"TOWNNAME":"新化區","LI":"全興里","LIN":"12鄰","STREET":" ","SECT":" ","MAREA":"竹子\u25A0","LANE":" ","ALLEY":" ","HOUSE_NO":"２４７號之６９","E_COORD97":178299.73000000001,"N_COORD97":2546884.2599999998,"ADDRESS":"竹子\u25A0２４７號之６９","OBJECTID":91355},"geometry":{"x":178299.73000000045,"y":2546884.2600000016}},{"attributes":{"ID":91356,"DIS_CODE":0,"TOWNNAME":"新化區","LI":"全興里","LIN":"12鄰","STREET":" ","SECT":" ","MAREA":"竹子\u25A0","LANE":" ","ALLEY":" ","HOUSE_NO":"２４７號之１２７","E_COORD97":178260.28,"N_COORD97":2546791.2599999998,"ADDRESS":"竹子\u25A0２４７號之１２７","OBJECTID":91356},"geometry":{"x":178260.28000000026,"y":2546791.2599999998}},{"attributes":{"ID":91357,"DIS_CODE":0,"TOWNNAME":"西港區","LI":"南海里","LIN":"12鄰","STREET":" ","SECT":" ","MAREA":"南海埔","LANE":" ","ALLEY":" ","HOUSE_NO":"１０１號","E_COORD97":167707.35000000001,"N_COORD97":2557412.2799999998,"ADDRESS":"南海埔１０１號","OBJECTID":91357},"geometry":{"x":167707.35000000056,"y":2557412.2799999993}},{"attributes":{"ID":91358,"DIS_CODE":0,"TOWNNAME":"新化區","LI":"全興里","LIN":"12鄰","STREET":" ","SECT":" ","MAREA":"竹子\u25A0","LANE":" ","ALLEY":" ","HOUSE_NO":"２４７號之１２９","E_COORD97":178255.48000000001,"N_COORD97":2546791.2599999998,"ADDRESS":"竹子\u25A0２４７號之１２９","OBJECTID":91358},"geometry":{"x":178255.48000000045,"y":2546791.2599999998}},{"attributes":{"ID":91359,"DIS_CODE":0,"TOWNNAME":"北區","LI":"成功里","LIN":"10鄰","STREET":"北成路","SECT":" ","MAREA":" ","LANE":"２０巷","ALLEY":"１弄","HOUSE_NO":"１０號","E_COORD97":169188.62,"N_COORD97":2546608.2000000002,"ADDRESS":"北成路２０巷１弄１０號","OBJECTID":91359},"geometry":{"x":169188.62000000011,"y":2546608.1999999993}},{"attributes":{"ID":91360,"DIS_CODE":0,"TOWNNAME":"北區","LI":"成功里","LIN":"10鄰","STREET":"北成路","SECT":" ","MAREA":" ","LANE":"２０巷","ALLEY":"１弄","HOUSE_NO":"１１號","E_COORD97":169176.51000000001,"N_COORD97":2546627.2000000002,"ADDRESS":"北成路２０巷１弄１１號","OBJECTID":91360},"geometry":{"x":169176.51000000071,"y":2546627.2000000011}},{"attributes":{"ID":91361,"DIS_CODE":0,"TOWNNAME":"北區","LI":"成功里","LIN":"10鄰","STREET":"北成路","SECT":" ","MAREA":" ","LANE":"２０巷","ALLEY":"１弄","HOUSE_NO":"１２號","E_COORD97":169193.56,"N_COORD97":2546613.5800000001,"ADDRESS":"北成路２０巷１弄１２號","OBJECTID":91361},"geometry":{"x":169193.55999999959,"y":2546613.5800000001}},{"attributes":{"ID":91362,"DIS_CODE":0,"TOWNNAME":"北區","LI":"成功里","LIN":"10鄰","STREET":"北成路","SECT":" ","MAREA":" ","LANE":"２０巷","ALLEY":"１弄","HOUSE_NO":"１３號","E_COORD97":169181.44,"N_COORD97":2546632.5800000001,"ADDRESS":"北成路２０巷１弄１３號","OBJECTID":91362},"geometry":{"x":169181.44000000041,"y":2546632.5800000019}},{"attributes":{"ID":91363,"DIS_CODE":0,"TOWNNAME":"北區","LI":"成功里","LIN":"10鄰","STREET":"北成路","SECT":" ","MAREA":" ","LANE":"２０巷","ALLEY":"１弄","HOUSE_NO":"１４號","E_COORD97":169197.60000000001,"N_COORD97":2546617.6099999999,"ADDRESS":"北成路２０巷１弄１４號","OBJECTID":91363},"geometry":{"x":169197.60000000056,"y":2546617.6100000013}},{"attributes":{"ID":91364,"DIS_CODE":0,"TOWNNAME":"北區","LI":"成功里","LIN":"10鄰","STREET":"北成路","SECT":" ","MAREA":" ","LANE":"２０巷","ALLEY":"１弄","HOUSE_NO":"１５號","E_COORD97":169184.14000000001,"N_COORD97":2546637.5,"ADDRESS":"北成路２０巷１弄１５號","OBJECTID":91364},"geometry":{"x":169184.1400000006,"y":2546637.5}},{"attributes":{"ID":91365,"DIS_CODE":0,"TOWNNAME":"北區","LI":"成功里","LIN":"10鄰","STREET":"北成路","SECT":" ","MAREA":" ","LANE":"２０巷","ALLEY":"１弄","HOUSE_NO":"１６號","E_COORD97":169202.07999999999,"N_COORD97":2546622.0899999999,"ADDRESS":"北成路２０巷１弄１６號","OBJECTID":91365},"geometry":{"x":169202.08000000007,"y":2546622.0900000017}},{"attributes":{"ID":91366,"DIS_CODE":0,"TOWNNAME":"北區","LI":"成功里","LIN":"10鄰","STREET":"北成路","SECT":" ","MAREA":" ","LANE":"２０巷","ALLEY":"１弄","HOUSE_NO":"１７號","E_COORD97":169188.17000000001,"N_COORD97":2546642.4300000002,"ADDRESS":"北成路２０巷１弄１７號","OBJECTID":91366},"geometry":{"x":169188.16999999993,"y":2546642.4300000016}},{"attributes":{"ID":91367,"DIS_CODE":0,"TOWNNAME":"北區","LI":"成功里","LIN":"10鄰","STREET":"北成路","SECT":" ","MAREA":" ","LANE":"２０巷","ALLEY":"１弄","HOUSE_NO":"１８號","E_COORD97":169205.67000000001,"N_COORD97":2546628.3599999999,"ADDRESS":"北成路２０巷１弄１８號","OBJECTID":91367},"geometry":{"x":169205.67000000086,"y":2546628.3600000031}},{"attributes":{"ID":91368,"DIS_CODE":0,"TOWNNAME":"北區","LI":"成功里","LIN":"10鄰","STREET":"北成路","SECT":" ","MAREA":" ","LANE":"２０巷","ALLEY":"１弄","HOUSE_NO":"１９號","E_COORD97":169193.10999999999,"N_COORD97":2546647.3599999999,"ADDRESS":"北成路２０巷１弄１９號","OBJECTID":91368},"geometry":{"x":169193.11000000127,"y":2546647.3599999994}},{"attributes":{"ID":91369,"DIS_CODE":0,"TOWNNAME":"北區","LI":"成功里","LIN":"10鄰","STREET":"北成路","SECT":" ","MAREA":" ","LANE":"２０巷","ALLEY":"１弄","HOUSE_NO":"１號","E_COORD97":169157.22,"N_COORD97":2546604.6099999999,"ADDRESS":"北成路２０巷１弄１號","OBJECTID":91369},"geometry":{"x":169157.21999999974,"y":2546604.6100000013}},{"attributes":{"ID":91370,"DIS_CODE":0,"TOWNNAME":"北區","LI":"成功里","LIN":"10鄰","STREET":"北成路","SECT":" ","MAREA":" ","LANE":"２０巷","ALLEY":"１弄","HOUSE_NO":"２４號","E_COORD97":169216.89000000001,"N_COORD97":2546641.3599999999,"ADDRESS":"北成路２０巷１弄２４號","OBJECTID":91370},"geometry":{"x":169216.88999999966,"y":2546641.3599999994}},{"attributes":{"ID":91371,"DIS_CODE":0,"TOWNNAME":"北區","LI":"成功里","LIN":"10鄰","STREET":"北成路","SECT":" ","MAREA":" ","LANE":"２０巷","ALLEY":"１弄","HOUSE_NO":"２５號","E_COORD97":169203.88,"N_COORD97":2546662.6000000001,"ADDRESS":"北成路２０巷１弄２５號","OBJECTID":91371},"geometry":{"x":169203.87999999896,"y":2546662.5999999996}},{"attributes":{"ID":91372,"DIS_CODE":0,"TOWNNAME":"北區","LI":"成功里","LIN":"10鄰","STREET":"北成路","SECT":" ","MAREA":" ","LANE":"２０巷","ALLEY":"１弄","HOUSE_NO":"２６號","E_COORD97":169220.92000000001,"N_COORD97":2546646.29,"ADDRESS":"北成路２０巷１弄２６號","OBJECTID":91372},"geometry":{"x":169220.92000000086,"y":2546646.290000001}},{"attributes":{"ID":91373,"DIS_CODE":0,"TOWNNAME":"北區","LI":"成功里","LIN":"10鄰","STREET":"北成路","SECT":" ","MAREA":" ","LANE":"２０巷","ALLEY":"１弄","HOUSE_NO":"２８號","E_COORD97":169224.06,"N_COORD97":2546653.0099999998,"ADDRESS":"北成路２０巷１弄２８號","OBJECTID":91373},"geometry":{"x":169224.05999999959,"y":2546653.0100000016}},{"attributes":{"ID":91374,"DIS_CODE":0,"TOWNNAME":"北區","LI":"成功里","LIN":"10鄰","STREET":"北成路","SECT":" ","MAREA":" ","LANE":"２０巷","ALLEY":"１弄","HOUSE_NO":"２號","E_COORD97":169174.26999999999,"N_COORD97":2546588.9300000002,"ADDRESS":"北成路２０巷１弄２號","OBJECTID":91374},"geometry":{"x":169174.27000000048,"y":2546588.9300000016}},{"attributes":{"ID":91375,"DIS_CODE":0,"TOWNNAME":"北區","LI":"成功里","LIN":"10鄰","STREET":"北成路","SECT":" ","MAREA":" ","LANE":"２０巷","ALLEY":"１弄","HOUSE_NO":"３號","E_COORD97":169160.35999999999,"N_COORD97":2546608.2000000002,"ADDRESS":"北成路２０巷１弄３號","OBJECTID":91375},"geometry":{"x":169160.36000000034,"y":2546608.1999999993}},{"attributes":{"ID":91376,"DIS_CODE":0,"TOWNNAME":"北區","LI":"賢北里","LIN":"10鄰","STREET":"賢北街","SECT":" ","MAREA":" ","LANE":"１９巷","ALLEY":"８８弄","HOUSE_NO":"１０號","E_COORD97":166125.47,"N_COORD97":2545265.3700000001,"ADDRESS":"賢北街１９巷８８弄１０號","OBJECTID":91376},"geometry":{"x":166125.47000000067,"y":2545265.3700000029}},{"attributes":{"ID":91377,"DIS_CODE":0,"TOWNNAME":"北區","LI":"賢北里","LIN":"10鄰","STREET":"賢北街","SECT":" ","MAREA":" ","LANE":"１９巷","ALLEY":"８８弄","HOUSE_NO":"１１號","E_COORD97":166139.64999999999,"N_COORD97":2545244.8599999999,"ADDRESS":"賢北街１９巷８８弄１１號","OBJECTID":91377},"geometry":{"x":166139.6500000013,"y":2545244.8599999975}},{"attributes":{"ID":91378,"DIS_CODE":0,"TOWNNAME":"北區","LI":"賢北里","LIN":"10鄰","STREET":"賢北街","SECT":" ","MAREA":" ","LANE":"１９巷","ALLEY":"８８弄","HOUSE_NO":"１２號","E_COORD97":166130.13,"N_COORD97":2545267.4199999999,"ADDRESS":"賢北街１９巷８８弄１２號","OBJECTID":91378},"geometry":{"x":166130.12999999989,"y":2545267.4199999999}},{"attributes":{"ID":91379,"DIS_CODE":0,"TOWNNAME":"北區","LI":"賢北里","LIN":"10鄰","STREET":"賢北街","SECT":" ","MAREA":" ","LANE":"１９巷","ALLEY":"８８弄","HOUSE_NO":"１３號","E_COORD97":166143.01000000001,"N_COORD97":2545246.54,"ADDRESS":"賢北街１９巷８８弄１３號","OBJECTID":91379},"geometry":{"x":166143.00999999978,"y":2545246.5399999991}},{"attributes":{"ID":91380,"DIS_CODE":0,"TOWNNAME":"北區","LI":"成德里","LIN":"19鄰","STREET":"西門路","SECT":"四段","MAREA":" ","LANE":" ","ALLEY":" ","HOUSE_NO":"３６７號","E_COORD97":169052.76999999999,"N_COORD97":2546294.5299999998,"ADDRESS":"西門路四段３６７號","OBJECTID":91380},"geometry":{"x":169052.76999999955,"y":2546294.5299999993}},{"attributes":{"ID":91381,"DIS_CODE":0,"TOWNNAME":"北區","LI":"成德里","LIN":"19鄰","STREET":"西門路","SECT":"四段","MAREA":" ","LANE":" ","ALLEY":" ","HOUSE_NO":"３６７號地下一層","E_COORD97":169052.76999999999,"N_COORD97":2546294.5299999998,"ADDRESS":"西門路四段３６７號地下一層","OBJECTID":91381},"geometry":{"x":169052.76999999955,"y":2546294.5299999993}},{"attributes":{"ID":91382,"DIS_CODE":0,"TOWNNAME":"中西區","LI":"三合里","LIN":"15鄰","STREET":"信義街","SECT":" ","MAREA":" ","LANE":" ","ALLEY":" ","HOUSE_NO":"１１６號","E_COORD97":167441.70000000001,"N_COORD97":2544586.3999999999,"ADDRESS":"信義街１１６號","OBJECTID":91382},"geometry":{"x":167441.70000000019,"y":2544586.4000000022}},{"attributes":{"ID":91383,"DIS_CODE":0,"TOWNNAME":"中西區","LI":"三合里","LIN":"15鄰","STREET":"文賢路","SECT":" ","MAREA":" ","LANE":" ","ALLEY":" ","HOUSE_NO":"９０號","E_COORD97":167432.07000000001,"N_COORD97":2544638.3900000001,"ADDRESS":"文賢路９０號","OBJECTID":91383},"geometry":{"x":167432.07000000123,"y":2544638.3900000006}},{"attributes":{"ID":91384,"DIS_CODE":0,"TOWNNAME":"新化區","LI":"全興里","LIN":"12鄰","STREET":" ","SECT":" ","MAREA":"竹子\u25A0","LANE":" ","ALLEY":" ","HOUSE_NO":"２４７號之１２６","E_COORD97":178232.57999999999,"N_COORD97":2546804.2599999998,"ADDRESS":"竹子\u25A0２４７號之１２６","OBJECTID":91384},"geometry":{"x":178232.58000000007,"y":2546804.2599999998}},{"attributes":{"ID":91385,"DIS_CODE":0,"TOWNNAME":"新化區","LI":"全興里","LIN":"12鄰","STREET":" ","SECT":" ","MAREA":"竹子\u25A0","LANE":" ","ALLEY":" ","HOUSE_NO":"２４７號之１３１","E_COORD97":178251.06,"N_COORD97":2546791.2599999998,"ADDRESS":"竹子\u25A0２４７號之１３１","OBJECTID":91385},"geometry":{"x":178251.05999999959,"y":2546791.2599999998}},{"attributes":{"ID":91386,"DIS_CODE":0,"TOWNNAME":"北區","LI":"賢北里","LIN":"10鄰","STREET":"賢北街","SECT":" ","MAREA":" ","LANE":"１９巷","ALLEY":"８８弄","HOUSE_NO":"１４號","E_COORD97":166133.12,"N_COORD97":2545268.3500000001,"ADDRESS":"賢北街１９巷８８弄１４號","OBJECTID":91386},"geometry":{"x":166133.12000000104,"y":2545268.3499999996}},{"attributes":{"ID":91387,"DIS_CODE":0,"TOWNNAME":"北區","LI":"賢北里","LIN":"10鄰","STREET":"賢北街","SECT":" ","MAREA":" ","LANE":"１９巷","ALLEY":"８８弄","HOUSE_NO":"１５號","E_COORD97":166147.48999999999,"N_COORD97":2545248.5899999999,"ADDRESS":"賢北街１９巷８８弄１５號","OBJECTID":91387},"geometry":{"x":166147.49000000115,"y":2545248.5900000017}},{"attributes":{"ID":91388,"DIS_CODE":0,"TOWNNAME":"北區","LI":"賢北里","LIN":"10鄰","STREET":"賢北街","SECT":" ","MAREA":" ","LANE":"１９巷","ALLEY":"８８弄","HOUSE_NO":"１６號","E_COORD97":166137.79000000001,"N_COORD97":2545270.0299999998,"ADDRESS":"賢北街１９巷８８弄１６號","OBJECTID":91388},"geometry":{"x":166137.79000000004,"y":2545270.0299999993}},{"attributes":{"ID":91389,"DIS_CODE":0,"TOWNNAME":"新市區","LI":"大洲里","LIN":"9鄰","STREET":" ","SECT":" ","MAREA":"大洲","LANE":" ","ALLEY":" ","HOUSE_NO":"９１號","E_COORD97":174297.62,"N_COORD97":2551487,"ADDRESS":"大洲９１號","OBJECTID":91389},"geometry":{"x":174297.62000000011,"y":2551487.0000000019}},{"attributes":{"ID":91390,"DIS_CODE":0,"TOWNNAME":"北區","LI":"賢北里","LIN":"10鄰","STREET":"賢北街","SECT":" ","MAREA":" ","LANE":"１９巷","ALLEY":"８８弄","HOUSE_NO":"１７號","E_COORD97":166151.23000000001,"N_COORD97":2545250.27,"ADDRESS":"賢北街１９巷８８弄１７號","OBJECTID":91390},"geometry":{"x":166151.23000000138,"y":2545250.2700000014}},{"attributes":{"ID":91391,"DIS_CODE":0,"TOWNNAME":"北區","LI":"賢北里","LIN":"10鄰","STREET":"賢北街","SECT":" ","MAREA":" ","LANE":"１９巷","ALLEY":"８８弄","HOUSE_NO":"１８號","E_COORD97":166141.14999999999,"N_COORD97":2545272.27,"ADDRESS":"賢北街１９巷８８弄１８號","OBJECTID":91391},"geometry":{"x":166141.15000000224,"y":2545272.2699999996}},{"attributes":{"ID":91392,"DIS_CODE":0,"TOWNNAME":"北區","LI":"賢北里","LIN":"10鄰","STREET":"賢北街","SECT":" ","MAREA":" ","LANE":"１９巷","ALLEY":"８８弄","HOUSE_NO":"１９號","E_COORD97":166154.20999999999,"N_COORD97":2545251.02,"ADDRESS":"賢北街１９巷８８弄１９號","OBJECTID":91392},"geometry":{"x":166154.21000000089,"y":2545251.0200000033}},{"attributes":{"ID":91393,"DIS_CODE":0,"TOWNNAME":"北區","LI":"賢北里","LIN":"10鄰","STREET":"賢北街","SECT":" ","MAREA":" ","LANE":"１９巷","ALLEY":"８８弄","HOUSE_NO":"１號","E_COORD97":166118.37,"N_COORD97":2545237.04,"ADDRESS":"賢北街１９巷８８弄１號","OBJECTID":91393},"geometry":{"x":166118.37000000011,"y":2545237.0400000028}},{"attributes":{"ID":91394,"DIS_CODE":0,"TOWNNAME":"北區","LI":"賢北里","LIN":"10鄰","STREET":"賢北街","SECT":" ","MAREA":" ","LANE":"１９巷","ALLEY":"８８弄","HOUSE_NO":"２０號","E_COORD97":166145.44,"N_COORD97":2545273.02,"ADDRESS":"賢北街１９巷８８弄２０號","OBJECTID":91394},"geometry":{"x":166145.44000000041,"y":2545273.0199999996}},{"attributes":{"ID":91395,"DIS_CODE":0,"TOWNNAME":"北區","LI":"賢北里","LIN":"10鄰","STREET":"賢北街","SECT":" ","MAREA":" ","LANE":"１９巷","ALLEY":"８８弄","HOUSE_NO":"２號","E_COORD97":166109.79000000001,"N_COORD97":2545256.7999999998,"ADDRESS":"賢北街１９巷８８弄２號","OBJECTID":91395},"geometry":{"x":166109.79000000097,"y":2545256.8000000007}},{"attributes":{"ID":91396,"DIS_CODE":0,"TOWNNAME":"北區","LI":"賢北里","LIN":"10鄰","STREET":"賢北街","SECT":" ","MAREA":" ","LANE":"１９巷","ALLEY":"８８弄","HOUSE_NO":"３號","E_COORD97":166123.04000000001,"N_COORD97":2545237.9700000002,"ADDRESS":"賢北街１９巷８８弄３號","OBJECTID":91396},"geometry":{"x":166123.04000000097,"y":2545237.9700000007}},{"attributes":{"ID":91397,"DIS_CODE":0,"TOWNNAME":"北區","LI":"賢北里","LIN":"10鄰","STREET":"賢北街","SECT":" ","MAREA":" ","LANE":"１９巷","ALLEY":"８８弄","HOUSE_NO":"４號","E_COORD97":166113.51999999999,"N_COORD97":2545259.7799999998,"ADDRESS":"賢北街１９巷８８弄４號","OBJECTID":91397},"geometry":{"x":166113.51999999955,"y":2545259.7800000012}},{"attributes":{"ID":91398,"DIS_CODE":0,"TOWNNAME":"北區","LI":"賢北里","LIN":"10鄰","STREET":"賢北街","SECT":" ","MAREA":" ","LANE":"１９巷","ALLEY":"８８弄","HOUSE_NO":"５號","E_COORD97":166126.76999999999,"N_COORD97":2545240.02,"ADDRESS":"賢北街１９巷８８弄５號","OBJECTID":91398},"geometry":{"x":166126.76999999955,"y":2545240.0199999996}},{"attributes":{"ID":91399,"DIS_CODE":0,"TOWNNAME":"北區","LI":"賢北里","LIN":"10鄰","STREET":"賢北街","SECT":" ","MAREA":" ","LANE":"１９巷","ALLEY":"８８弄","HOUSE_NO":"６號","E_COORD97":166117.07000000001,"N_COORD97":2545261.46,"ADDRESS":"賢北街１９巷８８弄６號","OBJECTID":91399},"geometry":{"x":166117.0700000003,"y":2545261.4600000009}},{"attributes":{"ID":91400,"DIS_CODE":0,"TOWNNAME":"北區","LI":"賢北里","LIN":"10鄰","STREET":"賢北街","SECT":" ","MAREA":" ","LANE":"１９巷","ALLEY":"８８弄","HOUSE_NO":"７號","E_COORD97":166130.69,"N_COORD97":2545241.8799999999,"ADDRESS":"賢北街１９巷８８弄７號","OBJECTID":91400},"geometry":{"x":166130.69000000227,"y":2545241.8800000008}}]}