{"displayFieldName":"TOWNNAME","fieldAliases":{"ID":"ID","DIS_CODE":"DIS_CODE","TOWNNAME":"TOWNNAME","LI":"LI","LIN":"LIN","STREET":"STREET","SECT":"SECT","MAREA":"MAREA","LANE":"LANE","ALLEY":"ALLEY","HOUSE_NO":"HOUSE_NO","E_COORD97":"E_COORD97","N_COORD97":"N_COORD97","ADDRESS":"ADDRESS","OBJECTID":"OBJECTID"},"geometryType":"esriGeometryPoint","spatialReference":{"wkid":102443,"latestWkid":3826},"fields":[{"name":"ID","type":"esriFieldTypeDouble","alias":"ID"},{"name":"DIS_CODE","type":"esriFieldTypeInteger","alias":"DIS_CODE"},{"name":"TOWNNAME","type":"esriFieldTypeString","alias":"TOWNNAME","length":8},{"name":"LI","type":"esriFieldTypeString","alias":"LI","length":8},{"name":"LIN","type":"esriFieldTypeString","alias":"LIN","length":12},{"name":"STREET","type":"esriFieldTypeString","alias":"STREET","length":20},{"name":"SECT","type":"esriFieldTypeString","alias":"SECT","length":8},{"name":"MAREA","type":"esriFieldTypeString","alias":"MAREA","length":12},{"name":"LANE","type":"esriFieldTypeString","alias":"LANE","length":10},{"name":"ALLEY","type":"esriFieldTypeString","alias":"ALLEY","length":10},{"name":"HOUSE_NO","type":"esriFieldTypeString","alias":"HOUSE_NO","length":20},{"name":"E_COORD97","type":"esriFieldTypeDouble","alias":"E_COORD97"},{"name":"N_COORD97","type":"esriFieldTypeDouble","alias":"N_COORD97"},{"name":"ADDRESS","type":"esriFieldTypeString","alias":"ADDRESS","length":50},{"name":"OBJECTID","type":"esriFieldTypeOID","alias":"OBJECTID"}],"features":[{"attributes":{"ID":173402,"DIS_CODE":0,"TOWNNAME":"安平區","LI":"億載里","LIN":"4鄰","STREET":"永華十二街","SECT":" ","MAREA":" ","LANE":"２７巷","ALLEY":"４９弄","HOUSE_NO":"５號","E_COORD97":163658.09,"N_COORD97":2543601.2799999998,"ADDRESS":"永華十二街２７巷４９弄５號","OBJECTID":173401},"geometry":{"x":163658.09000000078,"y":2543601.2800000031}},{"attributes":{"ID":173403,"DIS_CODE":0,"TOWNNAME":"新營區","LI":"新東里","LIN":"17鄰","STREET":"東興四街","SECT":" ","MAREA":" ","LANE":"３２巷","ALLEY":"１３弄","HOUSE_NO":"２０號","E_COORD97":180952.70000000001,"N_COORD97":2579121.96,"ADDRESS":"東興四街３２巷１３弄２０號","OBJECTID":173402},"geometry":{"x":180952.70000000019,"y":2579121.9600000009}},{"attributes":{"ID":173404,"DIS_CODE":0,"TOWNNAME":"新營區","LI":"新南里","LIN":"18鄰","STREET":"隋唐街","SECT":" ","MAREA":" ","LANE":"３１巷","ALLEY":"１０弄","HOUSE_NO":"１５號","E_COORD97":178651.01000000001,"N_COORD97":2578427.4300000002,"ADDRESS":"隋唐街３１巷１０弄１５號","OBJECTID":173403},"geometry":{"x":178651.01000000071,"y":2578427.4300000016}},{"attributes":{"ID":173405,"DIS_CODE":0,"TOWNNAME":"新營區","LI":"民榮里","LIN":"38鄰","STREET":"太子路","SECT":" ","MAREA":" ","LANE":"５３巷","ALLEY":"６弄","HOUSE_NO":"２之１號","E_COORD97":178329.04000000001,"N_COORD97":2577990.4900000002,"ADDRESS":"太子路５３巷６弄２之１號","OBJECTID":173404},"geometry":{"x":178329.04000000097,"y":2577990.4900000021}},{"attributes":{"ID":173406,"DIS_CODE":0,"TOWNNAME":"東區","LI":"崇成里","LIN":"12鄰","STREET":"崇明十五街","SECT":" ","MAREA":" ","LANE":" ","ALLEY":" ","HOUSE_NO":"５２號","E_COORD97":170752.16,"N_COORD97":2541336.77,"ADDRESS":"崇明十五街５２號","OBJECTID":173405},"geometry":{"x":170752.16000000108,"y":2541336.7700000033}},{"attributes":{"ID":173407,"DIS_CODE":0,"TOWNNAME":"東區","LI":"崇成里","LIN":"12鄰","STREET":"崇明十五街","SECT":" ","MAREA":" ","LANE":" ","ALLEY":" ","HOUSE_NO":"５４號","E_COORD97":170756.91,"N_COORD97":2541337.02,"ADDRESS":"崇明十五街５４號","OBJECTID":173406},"geometry":{"x":170756.91000000201,"y":2541337.0199999996}},{"attributes":{"ID":173408,"DIS_CODE":0,"TOWNNAME":"東區","LI":"崇成里","LIN":"12鄰","STREET":"崇明十五街","SECT":" ","MAREA":" ","LANE":" ","ALLEY":" ","HOUSE_NO":"５６號","E_COORD97":170761.41,"N_COORD97":2541335.1000000001,"ADDRESS":"崇明十五街５６號","OBJECTID":173407},"geometry":{"x":170761.41000000015,"y":2541335.1000000015}},{"attributes":{"ID":173409,"DIS_CODE":0,"TOWNNAME":"安南區","LI":"頂安里","LIN":"12鄰","STREET":"長溪路","SECT":"二段","MAREA":" ","LANE":" ","ALLEY":" ","HOUSE_NO":"１２２號之５","E_COORD97":168405.94044000001,"N_COORD97":2549562.4537999998,"ADDRESS":"長溪路二段１２２號之５","OBJECTID":173408},"geometry":{"x":168405.94044000003,"y":2549562.4537959993}},{"attributes":{"ID":173410,"DIS_CODE":0,"TOWNNAME":"佳里區","LI":"東寧里","LIN":"12鄰","STREET":"和平街","SECT":" ","MAREA":" ","LANE":" ","ALLEY":" ","HOUSE_NO":"２４號","E_COORD97":166020.63,"N_COORD97":2562522.9100000001,"ADDRESS":"和平街２４號","OBJECTID":173409},"geometry":{"x":166020.63000000082,"y":2562522.9100000039}},{"attributes":{"ID":173411,"DIS_CODE":0,"TOWNNAME":"白河區","LI":"大竹里","LIN":"12鄰","STREET":" ","SECT":" ","MAREA":"大排竹","LANE":" ","ALLEY":" ","HOUSE_NO":"１８９之５號","E_COORD97":189398.26741299999,"N_COORD97":2585140.1217299998,"ADDRESS":"大排竹１８９之５號","OBJECTID":173410},"geometry":{"x":189398.26741300058,"y":2585140.1217340026}},{"attributes":{"ID":173412,"DIS_CODE":0,"TOWNNAME":"白河區","LI":"大竹里","LIN":"12鄰","STREET":" ","SECT":" ","MAREA":"大排竹","LANE":" ","ALLEY":" ","HOUSE_NO":"１９２之１５號","E_COORD97":189510.29208499999,"N_COORD97":2584539.5706600002,"ADDRESS":"大排竹１９２之１５號","OBJECTID":173411},"geometry":{"x":189510.29208500031,"y":2584539.570658002}},{"attributes":{"ID":173413,"DIS_CODE":0,"TOWNNAME":"下營區","LI":"賀建里","LIN":"12鄰","STREET":" ","SECT":" ","MAREA":"洲子","LANE":" ","ALLEY":" ","HOUSE_NO":"９號","E_COORD97":177316.20999999999,"N_COORD97":2572109.3100000001,"ADDRESS":"洲子９號","OBJECTID":173412},"geometry":{"x":177316.20999999996,"y":2572109.3100000024}},{"attributes":{"ID":173414,"DIS_CODE":0,"TOWNNAME":"安南區","LI":"頂安里","LIN":"12鄰","STREET":"長溪路","SECT":"二段","MAREA":" ","LANE":" ","ALLEY":" ","HOUSE_NO":"１２２號之１２","E_COORD97":168404.03284900001,"N_COORD97":2549634.2087599998,"ADDRESS":"長溪路二段１２２號之１２","OBJECTID":173413},"geometry":{"x":168404.03284899984,"y":2549634.208757}},{"attributes":{"ID":173415,"DIS_CODE":0,"TOWNNAME":"安南區","LI":"頂安里","LIN":"12鄰","STREET":"長溪路","SECT":"二段","MAREA":" ","LANE":" ","ALLEY":" ","HOUSE_NO":"６５號","E_COORD97":168386.65257400001,"N_COORD97":2549405.9263800001,"ADDRESS":"長溪路二段６５號","OBJECTID":173414},"geometry":{"x":168386.65257400088,"y":2549405.926380001}},{"attributes":{"ID":173416,"DIS_CODE":0,"TOWNNAME":"安南區","LI":"頂安里","LIN":"12鄰","STREET":"長溪路","SECT":"二段","MAREA":" ","LANE":" ","ALLEY":" ","HOUSE_NO":"２之３號","E_COORD97":168425.44026100001,"N_COORD97":2549277.1272800001,"ADDRESS":"長溪路二段２之３號","OBJECTID":173415},"geometry":{"x":168425.44026100077,"y":2549277.1272830013}},{"attributes":{"ID":173417,"DIS_CODE":0,"TOWNNAME":"中西區","LI":"安海里","LIN":"12鄰","STREET":"河中街","SECT":" ","MAREA":" ","LANE":"３７巷","ALLEY":" ","HOUSE_NO":"１號","E_COORD97":167269.37,"N_COORD97":2544000.0699999998,"ADDRESS":"河中街３７巷１號","OBJECTID":173416},"geometry":{"x":167269.37000000011,"y":2544000.0700000003}},{"attributes":{"ID":173418,"DIS_CODE":0,"TOWNNAME":"中西區","LI":"普濟里","LIN":"12鄰","STREET":"成功路","SECT":" ","MAREA":" ","LANE":"３２９巷","ALLEY":" ","HOUSE_NO":"１５號","E_COORD97":167982.22,"N_COORD97":2544467.1499999999,"ADDRESS":"成功路３２９巷１５號","OBJECTID":173417},"geometry":{"x":167982.21999999974,"y":2544467.1500000004}},{"attributes":{"ID":173419,"DIS_CODE":0,"TOWNNAME":"永康區","LI":"中華里","LIN":"12鄰","STREET":"忠義街","SECT":" ","MAREA":" ","LANE":"４４巷","ALLEY":" ","HOUSE_NO":"４６號","E_COORD97":171855.03,"N_COORD97":2544463.7000000002,"ADDRESS":"忠義街４４巷４６號","OBJECTID":173418},"geometry":{"x":171855.03000000119,"y":2544463.7000000011}},{"attributes":{"ID":173420,"DIS_CODE":0,"TOWNNAME":"永康區","LI":"中華里","LIN":"12鄰","STREET":"忠義街","SECT":" ","MAREA":" ","LANE":"４４巷","ALLEY":" ","HOUSE_NO":"５４號","E_COORD97":171871.70000000001,"N_COORD97":2544464.5699999998,"ADDRESS":"忠義街４４巷５４號","OBJECTID":173419},"geometry":{"x":171871.70000000019,"y":2544464.5699999984}},{"attributes":{"ID":173421,"DIS_CODE":0,"TOWNNAME":"永康區","LI":"永康里","LIN":"10鄰","STREET":"永康街","SECT":" ","MAREA":" ","LANE":" ","ALLEY":" ","HOUSE_NO":"７０號","E_COORD97":173779.20000000001,"N_COORD97":2547197.9900000002,"ADDRESS":"永康街７０號","OBJECTID":173420},"geometry":{"x":173779.20000000205,"y":2547197.9900000039}},{"attributes":{"ID":173422,"DIS_CODE":0,"TOWNNAME":"永康區","LI":"復興里","LIN":"12鄰","STREET":"復興路","SECT":" ","MAREA":" ","LANE":" ","ALLEY":" ","HOUSE_NO":"３１８號","E_COORD97":172290.95000000001,"N_COORD97":2544348.54,"ADDRESS":"復興路３１８號","OBJECTID":173421},"geometry":{"x":172290.95000000112,"y":2544348.5400000028}},{"attributes":{"ID":173423,"DIS_CODE":0,"TOWNNAME":"永康區","LI":"復興里","LIN":"12鄰","STREET":"復興路","SECT":" ","MAREA":" ","LANE":" ","ALLEY":" ","HOUSE_NO":"３２２號","E_COORD97":172282.79999999999,"N_COORD97":2544348.54,"ADDRESS":"復興路３２２號","OBJECTID":173422},"geometry":{"x":172282.79999999888,"y":2544348.5400000028}},{"attributes":{"ID":173424,"DIS_CODE":0,"TOWNNAME":"新營區","LI":"新東里","LIN":"14鄰","STREET":"東興六街","SECT":" ","MAREA":" ","LANE":"８９巷","ALLEY":"１４弄","HOUSE_NO":"２３號","E_COORD97":181016.89000000001,"N_COORD97":2579288.8900000001,"ADDRESS":"東興六街８９巷１４弄２３號","OBJECTID":173423},"geometry":{"x":181016.88999999966,"y":2579288.8900000043}},{"attributes":{"ID":173425,"DIS_CODE":0,"TOWNNAME":"新營區","LI":"民榮里","LIN":"38鄰","STREET":"太子路","SECT":" ","MAREA":" ","LANE":"５３巷","ALLEY":"６弄","HOUSE_NO":"１９號之３","E_COORD97":178279.60999999999,"N_COORD97":2577946.4399999999,"ADDRESS":"太子路５３巷６弄１９號之３","OBJECTID":173424},"geometry":{"x":178279.61000000127,"y":2577946.4400000013}},{"attributes":{"ID":173426,"DIS_CODE":0,"TOWNNAME":"新營區","LI":"民生里","LIN":"14鄰","STREET":"民治路","SECT":" ","MAREA":" ","LANE":"２２５巷","ALLEY":"５６弄","HOUSE_NO":"６號","E_COORD97":178856.82000000001,"N_COORD97":2578302.3999999999,"ADDRESS":"民治路２２５巷５６弄６號","OBJECTID":173425},"geometry":{"x":178856.8200000003,"y":2578302.4000000022}},{"attributes":{"ID":173427,"DIS_CODE":0,"TOWNNAME":"新營區","LI":"民榮里","LIN":"38鄰","STREET":"太子路","SECT":" ","MAREA":" ","LANE":"５３巷","ALLEY":"６弄","HOUSE_NO":"２１之１號","E_COORD97":178275.82000000001,"N_COORD97":2577937.6000000001,"ADDRESS":"太子路５３巷６弄２１之１號","OBJECTID":173426},"geometry":{"x":178275.82000000216,"y":2577937.6000000015}},{"attributes":{"ID":173428,"DIS_CODE":0,"TOWNNAME":"新營區","LI":"新東里","LIN":"14鄰","STREET":"東興六街","SECT":" ","MAREA":" ","LANE":"８９巷","ALLEY":"１４弄","HOUSE_NO":"１５號","E_COORD97":181001.47,"N_COORD97":2579287.8599999999,"ADDRESS":"東興六街８９巷１４弄１５號","OBJECTID":173427},"geometry":{"x":181001.46999999974,"y":2579287.8600000031}},{"attributes":{"ID":173429,"DIS_CODE":0,"TOWNNAME":"新營區","LI":"忠政里","LIN":"14鄰","STREET":"府西路","SECT":" ","MAREA":" ","LANE":"２３０巷","ALLEY":"１１弄","HOUSE_NO":"１２號","E_COORD97":179864.79999999999,"N_COORD97":2579648.6899999999,"ADDRESS":"府西路２３０巷１１弄１２號","OBJECTID":173428},"geometry":{"x":179864.79999999981,"y":2579648.6900000032}},{"attributes":{"ID":173430,"DIS_CODE":0,"TOWNNAME":"新營區","LI":"新東里","LIN":"18鄰","STREET":"東興四街","SECT":" ","MAREA":" ","LANE":"３２巷","ALLEY":"１２弄","HOUSE_NO":"２０號","E_COORD97":180838.22,"N_COORD97":2579136.8999999999,"ADDRESS":"東興四街３２巷１２弄２０號","OBJECTID":173429},"geometry":{"x":180838.21999999974,"y":2579136.9000000022}},{"attributes":{"ID":173431,"DIS_CODE":0,"TOWNNAME":"東區","LI":"崇德里","LIN":"12鄰","STREET":"崇道路","SECT":" ","MAREA":" ","LANE":" ","ALLEY":" ","HOUSE_NO":"９１號","E_COORD97":170826.42000000001,"N_COORD97":2541424.2200000002,"ADDRESS":"崇道路９１號","OBJECTID":173430},"geometry":{"x":170826.42000000086,"y":2541424.2200000025}},{"attributes":{"ID":173432,"DIS_CODE":0,"TOWNNAME":"東區","LI":"崇德里","LIN":"12鄰","STREET":"崇道路","SECT":" ","MAREA":" ","LANE":" ","ALLEY":" ","HOUSE_NO":"９３號","E_COORD97":170830.45999999999,"N_COORD97":2541422.2200000002,"ADDRESS":"崇道路９３號","OBJECTID":173431},"geometry":{"x":170830.45999999996,"y":2541422.2200000007}},{"attributes":{"ID":173433,"DIS_CODE":0,"TOWNNAME":"東區","LI":"崇德里","LIN":"12鄰","STREET":"崇道路","SECT":" ","MAREA":" ","LANE":" ","ALLEY":" ","HOUSE_NO":"９５號","E_COORD97":170835.10999999999,"N_COORD97":2541424.1000000001,"ADDRESS":"崇道路９５號","OBJECTID":173432},"geometry":{"x":170835.11000000034,"y":2541424.1000000015}},{"attributes":{"ID":173434,"DIS_CODE":0,"TOWNNAME":"新營區","LI":"新東里","LIN":"18鄰","STREET":"東興四街","SECT":" ","MAREA":" ","LANE":"３２巷","ALLEY":"１２弄","HOUSE_NO":"１０號","E_COORD97":180863.70000000001,"N_COORD97":2579134.5600000001,"ADDRESS":"東興四街３２巷１２弄１０號","OBJECTID":173433},"geometry":{"x":180863.70000000112,"y":2579134.5600000005}},{"attributes":{"ID":173435,"DIS_CODE":0,"TOWNNAME":"新營區","LI":"新東里","LIN":"14鄰","STREET":"東興六街","SECT":" ","MAREA":" ","LANE":"８９巷","ALLEY":"１４弄","HOUSE_NO":"１７號","E_COORD97":181005.56,"N_COORD97":2579287.8399999999,"ADDRESS":"東興六街８９巷１４弄１７號","OBJECTID":173434},"geometry":{"x":181005.55999999959,"y":2579287.8399999999}},{"attributes":{"ID":173436,"DIS_CODE":0,"TOWNNAME":"新營區","LI":"民榮里","LIN":"38鄰","STREET":"太子路","SECT":" ","MAREA":" ","LANE":"５３巷","ALLEY":"６弄","HOUSE_NO":"２３之１號","E_COORD97":178267.63,"N_COORD97":2577935.4199999999,"ADDRESS":"太子路５３巷６弄２３之１號","OBJECTID":173435},"geometry":{"x":178267.62999999989,"y":2577935.4200000037}},{"attributes":{"ID":173437,"DIS_CODE":0,"TOWNNAME":"新營區","LI":"民榮里","LIN":"38鄰","STREET":"太子路","SECT":" ","MAREA":" ","LANE":"５３巷","ALLEY":"６弄","HOUSE_NO":"２１號之３","E_COORD97":178275.54999999999,"N_COORD97":2577937.6000000001,"ADDRESS":"太子路５３巷６弄２１號之３","OBJECTID":173436},"geometry":{"x":178275.55000000075,"y":2577937.6000000015}},{"attributes":{"ID":173438,"DIS_CODE":0,"TOWNNAME":"新營區","LI":"民榮里","LIN":"38鄰","STREET":"太子路","SECT":" ","MAREA":" ","LANE":"５３巷","ALLEY":"６弄","HOUSE_NO":"２３之３號","E_COORD97":178267.63,"N_COORD97":2577935.4199999999,"ADDRESS":"太子路５３巷６弄２３之３號","OBJECTID":173437},"geometry":{"x":178267.62999999989,"y":2577935.4200000037}},{"attributes":{"ID":173439,"DIS_CODE":0,"TOWNNAME":"新營區","LI":"民榮里","LIN":"38鄰","STREET":"太子路","SECT":" ","MAREA":" ","LANE":"５３巷","ALLEY":"６弄","HOUSE_NO":"１之２號","E_COORD97":178339.09,"N_COORD97":2577969.3999999999,"ADDRESS":"太子路５３巷６弄１之２號","OBJECTID":173438},"geometry":{"x":178339.08999999985,"y":2577969.4000000004}},{"attributes":{"ID":173440,"DIS_CODE":0,"TOWNNAME":"新營區","LI":"新東里","LIN":"18鄰","STREET":"東興四街","SECT":" ","MAREA":" ","LANE":"３２巷","ALLEY":"１２弄","HOUSE_NO":"１２號","E_COORD97":180858.60000000001,"N_COORD97":2579137.9199999999,"ADDRESS":"東興四街３２巷１２弄１２號","OBJECTID":173439},"geometry":{"x":180858.60000000056,"y":2579137.9199999999}},{"attributes":{"ID":173441,"DIS_CODE":0,"TOWNNAME":"東區","LI":"崇德里","LIN":"12鄰","STREET":"崇道路","SECT":" ","MAREA":" ","LANE":" ","ALLEY":" ","HOUSE_NO":"９７號","E_COORD97":170839.51000000001,"N_COORD97":2541422.2200000002,"ADDRESS":"崇道路９７號","OBJECTID":173440},"geometry":{"x":170839.51000000071,"y":2541422.2200000007}},{"attributes":{"ID":173442,"DIS_CODE":0,"TOWNNAME":"東區","LI":"崇德里","LIN":"12鄰","STREET":"崇道路","SECT":" ","MAREA":" ","LANE":" ","ALLEY":" ","HOUSE_NO":"９９號","E_COORD97":170844.53,"N_COORD97":2541424.98,"ADDRESS":"崇道路９９號","OBJECTID":173441},"geometry":{"x":170844.53000000119,"y":2541424.9800000023}},{"attributes":{"ID":173443,"DIS_CODE":0,"TOWNNAME":"永康區","LI":"新樹里","LIN":"12鄰","STREET":"富強路","SECT":"二段","MAREA":" ","LANE":" ","ALLEY":" ","HOUSE_NO":"９３號","E_COORD97":175656.47,"N_COORD97":2546996.29,"ADDRESS":"富強路二段９３號","OBJECTID":173442},"geometry":{"x":175656.46999999974,"y":2546996.290000001}},{"attributes":{"ID":173444,"DIS_CODE":0,"TOWNNAME":"永康區","LI":"新樹里","LIN":"12鄰","STREET":"富強路","SECT":"二段","MAREA":" ","LANE":" ","ALLEY":" ","HOUSE_NO":"１１１號","E_COORD97":175646.60000000001,"N_COORD97":2547037.7599999998,"ADDRESS":"富強路二段１１１號","OBJECTID":173443},"geometry":{"x":175646.59999999963,"y":2547037.7600000016}},{"attributes":{"ID":173445,"DIS_CODE":0,"TOWNNAME":"下營區","LI":"仁里里","LIN":"12鄰","STREET":"蚵寮街","SECT":" ","MAREA":" ","LANE":" ","ALLEY":" ","HOUSE_NO":"９８號","E_COORD97":173950.91,"N_COORD97":2570355.48,"ADDRESS":"蚵寮街９８號","OBJECTID":173444},"geometry":{"x":173950.91000000108,"y":2570355.4800000023}},{"attributes":{"ID":173446,"DIS_CODE":0,"TOWNNAME":"下營區","LI":"仁里里","LIN":"12鄰","STREET":"蚵寮街","SECT":" ","MAREA":" ","LANE":" ","ALLEY":" ","HOUSE_NO":"６２號","E_COORD97":174034.17999999999,"N_COORD97":2570354.3300000001,"ADDRESS":"蚵寮街６２號","OBJECTID":173445},"geometry":{"x":174034.1799999997,"y":2570354.3300000001}},{"attributes":{"ID":173447,"DIS_CODE":0,"TOWNNAME":"仁德區","LI":"後壁里","LIN":"12鄰","STREET":"德南路","SECT":" ","MAREA":" ","LANE":" ","ALLEY":" ","HOUSE_NO":"１８２號","E_COORD97":173682.42999999999,"N_COORD97":2538502.2599999998,"ADDRESS":"德南路１８２號","OBJECTID":173446},"geometry":{"x":173682.43000000063,"y":2538502.2599999998}},{"attributes":{"ID":173448,"DIS_CODE":0,"TOWNNAME":"新營區","LI":"新東里","LIN":"18鄰","STREET":"東興四街","SECT":" ","MAREA":" ","LANE":"３２巷","ALLEY":"１２弄","HOUSE_NO":"１６號","E_COORD97":180848.37,"N_COORD97":2579136.8599999999,"ADDRESS":"東興四街３２巷１２弄１６號","OBJECTID":173447},"geometry":{"x":180848.37000000011,"y":2579136.8600000013}},{"attributes":{"ID":173449,"DIS_CODE":0,"TOWNNAME":"新營區","LI":"民榮里","LIN":"38鄰","STREET":"太子路","SECT":" ","MAREA":" ","LANE":"５３巷","ALLEY":"６弄","HOUSE_NO":"１９號之５","E_COORD97":178279.67000000001,"N_COORD97":2577946.4399999999,"ADDRESS":"太子路５３巷６弄１９號之５","OBJECTID":173448},"geometry":{"x":178279.66999999899,"y":2577946.4400000013}},{"attributes":{"ID":173450,"DIS_CODE":0,"TOWNNAME":"新營區","LI":"民榮里","LIN":"32鄰","STREET":"太子路","SECT":" ","MAREA":" ","LANE":"５３巷","ALLEY":"１弄","HOUSE_NO":"９號","E_COORD97":178297.95000000001,"N_COORD97":2578022.7000000002,"ADDRESS":"太子路５３巷１弄９號","OBJECTID":173449},"geometry":{"x":178297.95000000019,"y":2578022.6999999993}},{"attributes":{"ID":173451,"DIS_CODE":0,"TOWNNAME":"安定區","LI":"港尾里","LIN":"12鄰","STREET":" ","SECT":" ","MAREA":"港子尾","LANE":" ","ALLEY":" ","HOUSE_NO":"６９號之４","E_COORD97":171425.64999999999,"N_COORD97":2555899.2999999998,"ADDRESS":"港子尾６９號之４","OBJECTID":173450},"geometry":{"x":171425.6500000013,"y":2555899.2999999989}},{"attributes":{"ID":173452,"DIS_CODE":0,"TOWNNAME":"新營區","LI":"新東里","LIN":"4鄰","STREET":"東大街","SECT":" ","MAREA":" ","LANE":"５２巷","ALLEY":"２弄","HOUSE_NO":"３號","E_COORD97":181057.78,"N_COORD97":2579108.1800000002,"ADDRESS":"東大街５２巷２弄３號","OBJECTID":173451},"geometry":{"x":181057.78000000212,"y":2579108.1799999997}},{"attributes":{"ID":173453,"DIS_CODE":0,"TOWNNAME":"安定區","LI":"中榮里","LIN":"12鄰","STREET":" ","SECT":" ","MAREA":"許中營","LANE":" ","ALLEY":" ","HOUSE_NO":"９１之８號","E_COORD97":172345.23999999999,"N_COORD97":2555247.2999999998,"ADDRESS":"許中營９１之８號","OBJECTID":173452},"geometry":{"x":172345.24000000115,"y":2555247.3000000007}},{"attributes":{"ID":173454,"DIS_CODE":0,"TOWNNAME":"新營區","LI":"民榮里","LIN":"38鄰","STREET":"太子路","SECT":" ","MAREA":" ","LANE":"５３巷","ALLEY":"６弄","HOUSE_NO":"１０號","E_COORD97":178313.39000000001,"N_COORD97":2577987.1800000002,"ADDRESS":"太子路５３巷６弄１０號","OBJECTID":173453},"geometry":{"x":178313.38999999966,"y":2577987.1799999997}},{"attributes":{"ID":173455,"DIS_CODE":0,"TOWNNAME":"佳里區","LI":"三協里","LIN":"12鄰","STREET":" ","SECT":" ","MAREA":"後庄","LANE":" ","ALLEY":" ","HOUSE_NO":"４６號","E_COORD97":168531.41,"N_COORD97":2564827.3399999999,"ADDRESS":"後庄４６號","OBJECTID":173454},"geometry":{"x":168531.41000000108,"y":2564827.3399999999}},{"attributes":{"ID":173456,"DIS_CODE":0,"TOWNNAME":"新營區","LI":"民榮里","LIN":"38鄰","STREET":"太子路","SECT":" ","MAREA":" ","LANE":"５３巷","ALLEY":"６弄","HOUSE_NO":"２３之２號","E_COORD97":178267.63,"N_COORD97":2577935.4199999999,"ADDRESS":"太子路５３巷６弄２３之２號","OBJECTID":173455},"geometry":{"x":178267.62999999989,"y":2577935.4200000037}},{"attributes":{"ID":173457,"DIS_CODE":0,"TOWNNAME":"新營區","LI":"民榮里","LIN":"32鄰","STREET":"太子路","SECT":" ","MAREA":" ","LANE":"５３巷","ALLEY":"１弄","HOUSE_NO":"７號","E_COORD97":178301.10000000001,"N_COORD97":2578024.8999999999,"ADDRESS":"太子路５３巷１弄７號","OBJECTID":173456},"geometry":{"x":178301.10000000056,"y":2578024.9000000022}},{"attributes":{"ID":173458,"DIS_CODE":0,"TOWNNAME":"新營區","LI":"民榮里","LIN":" ","STREET":"太子路","SECT":" ","MAREA":" ","LANE":"５３巷","ALLEY":"１弄","HOUSE_NO":"２０號","E_COORD97":178275.78,"N_COORD97":2578022.8100000001,"ADDRESS":"太子路５３巷１弄２０號","OBJECTID":173457},"geometry":{"x":178275.78000000026,"y":2578022.8100000024}},{"attributes":{"ID":173459,"DIS_CODE":0,"TOWNNAME":"新營區","LI":"民榮里","LIN":"32鄰","STREET":"太子路","SECT":" ","MAREA":" ","LANE":"５３巷","ALLEY":"１弄","HOUSE_NO":"６號","E_COORD97":178302.16,"N_COORD97":2578038.1800000002,"ADDRESS":"太子路５３巷１弄６號","OBJECTID":173458},"geometry":{"x":178302.16000000201,"y":2578038.1799999978}},{"attributes":{"ID":173460,"DIS_CODE":0,"TOWNNAME":"六甲區","LI":"水林里","LIN":"4鄰","STREET":"中山路","SECT":" ","MAREA":" ","LANE":"２０６巷","ALLEY":"１５弄","HOUSE_NO":"１２號","E_COORD97":183148.82000000001,"N_COORD97":2570200.5600000001,"ADDRESS":"中山路２０６巷１５弄１２號","OBJECTID":173459},"geometry":{"x":183148.8200000003,"y":2570200.5600000005}},{"attributes":{"ID":173461,"DIS_CODE":0,"TOWNNAME":"六甲區","LI":"水林里","LIN":"4鄰","STREET":"中山路","SECT":" ","MAREA":" ","LANE":"２０６巷","ALLEY":"１５弄","HOUSE_NO":"２號","E_COORD97":183164.17000000001,"N_COORD97":2570201.6000000001,"ADDRESS":"中山路２０６巷１５弄２號","OBJECTID":173460},"geometry":{"x":183164.17000000086,"y":2570201.6000000015}},{"attributes":{"ID":173462,"DIS_CODE":0,"TOWNNAME":"佳里區","LI":"漳洲里","LIN":"12鄰","STREET":" ","SECT":" ","MAREA":"番子寮","LANE":" ","ALLEY":" ","HOUSE_NO":"２９２號","E_COORD97":163106.51000000001,"N_COORD97":2564972.3999999999,"ADDRESS":"番子寮２９２號","OBJECTID":173461},"geometry":{"x":163106.50999999978,"y":2564972.4000000022}},{"attributes":{"ID":173463,"DIS_CODE":0,"TOWNNAME":"佳里區","LI":"漳洲里","LIN":"12鄰","STREET":" ","SECT":" ","MAREA":"番子寮","LANE":" ","ALLEY":" ","HOUSE_NO":"２９３號","E_COORD97":163105.34,"N_COORD97":2564991.7200000002,"ADDRESS":"番子寮２９３號","OBJECTID":173462},"geometry":{"x":163105.34000000078,"y":2564991.7200000007}},{"attributes":{"ID":173464,"DIS_CODE":0,"TOWNNAME":"佳里區","LI":"漳洲里","LIN":"12鄰","STREET":" ","SECT":" ","MAREA":"番子寮","LANE":" ","ALLEY":" ","HOUSE_NO":"２９５號","E_COORD97":163131.53,"N_COORD97":2564999.3900000001,"ADDRESS":"番子寮２９５號","OBJECTID":173463},"geometry":{"x":163131.53000000119,"y":2564999.3900000025}},{"attributes":{"ID":173465,"DIS_CODE":0,"TOWNNAME":"佳里區","LI":"漳洲里","LIN":"12鄰","STREET":" ","SECT":" ","MAREA":"番子寮","LANE":" ","ALLEY":" ","HOUSE_NO":"２９６號","E_COORD97":163150.09,"N_COORD97":2565001.6499999999,"ADDRESS":"番子寮２９６號","OBJECTID":173464},"geometry":{"x":163150.08999999985,"y":2565001.6500000004}},{"attributes":{"ID":173466,"DIS_CODE":0,"TOWNNAME":"六甲區","LI":"水林里","LIN":"4鄰","STREET":"中山路","SECT":" ","MAREA":" ","LANE":"２０６巷","ALLEY":"１５弄","HOUSE_NO":"８號","E_COORD97":183154.35999999999,"N_COORD97":2570200.2000000002,"ADDRESS":"中山路２０６巷１５弄８號","OBJECTID":173465},"geometry":{"x":183154.3600000022,"y":2570200.2000000011}},{"attributes":{"ID":173467,"DIS_CODE":0,"TOWNNAME":"佳里區","LI":"漳洲里","LIN":"12鄰","STREET":" ","SECT":" ","MAREA":"番子寮","LANE":" ","ALLEY":" ","HOUSE_NO":"２９７號","E_COORD97":163157.42999999999,"N_COORD97":2564985.71,"ADDRESS":"番子寮２９７號","OBJECTID":173466},"geometry":{"x":163157.43000000063,"y":2564985.7100000009}},{"attributes":{"ID":173468,"DIS_CODE":0,"TOWNNAME":"仁德區","LI":"仁義里","LIN":"49鄰","STREET":"中清路","SECT":" ","MAREA":" ","LANE":" ","ALLEY":" ","HOUSE_NO":"１７號","E_COORD97":173684.88,"N_COORD97":2541033.7999999998,"ADDRESS":"中清路１７號","OBJECTID":173467},"geometry":{"x":173684.88000000082,"y":2541033.8000000026}},{"attributes":{"ID":173469,"DIS_CODE":0,"TOWNNAME":"學甲區","LI":"大灣里","LIN":"12鄰","STREET":" ","SECT":" ","MAREA":"大灣","LANE":" ","ALLEY":" ","HOUSE_NO":"１２４號","E_COORD97":166766.89000000001,"N_COORD97":2567632.8500000001,"ADDRESS":"大灣１２４號","OBJECTID":173468},"geometry":{"x":166766.88999999966,"y":2567632.8500000015}},{"attributes":{"ID":173470,"DIS_CODE":0,"TOWNNAME":"新市區","LI":"新和里","LIN":"49鄰","STREET":"自強街","SECT":" ","MAREA":" ","LANE":" ","ALLEY":" ","HOUSE_NO":"３９號","E_COORD97":177604.29999999999,"N_COORD97":2553482.5,"ADDRESS":"自強街３９號","OBJECTID":173469},"geometry":{"x":177604.30000000075,"y":2553482.5}},{"attributes":{"ID":173471,"DIS_CODE":0,"TOWNNAME":"新市區","LI":"新和里","LIN":"49鄰","STREET":"自強街","SECT":" ","MAREA":" ","LANE":" ","ALLEY":" ","HOUSE_NO":"３１號","E_COORD97":177638.29999999999,"N_COORD97":2553495.75,"ADDRESS":"自強街３１號","OBJECTID":173470},"geometry":{"x":177638.30000000075,"y":2553495.7500000019}},{"attributes":{"ID":173472,"DIS_CODE":0,"TOWNNAME":"新市區","LI":"新和里","LIN":"49鄰","STREET":"自強街","SECT":" ","MAREA":" ","LANE":" ","ALLEY":" ","HOUSE_NO":"８６號","E_COORD97":177493.60000000001,"N_COORD97":2553413.5,"ADDRESS":"自強街８６號","OBJECTID":173471},"geometry":{"x":177493.60000000056,"y":2553413.5000000019}},{"attributes":{"ID":173473,"DIS_CODE":0,"TOWNNAME":"六甲區","LI":"水林里","LIN":"6鄰","STREET":"中山路","SECT":" ","MAREA":" ","LANE":"４１４巷","ALLEY":"２弄","HOUSE_NO":"７９號","E_COORD97":182582.69,"N_COORD97":2570449.0600000001,"ADDRESS":"中山路４１４巷２弄７９號","OBJECTID":173472},"geometry":{"x":182582.69000000227,"y":2570449.0600000042}},{"attributes":{"ID":173474,"DIS_CODE":0,"TOWNNAME":"六甲區","LI":"水林里","LIN":"6鄰","STREET":"中山路","SECT":" ","MAREA":" ","LANE":"４１４巷","ALLEY":"２弄","HOUSE_NO":"８５號","E_COORD97":182536.79999999999,"N_COORD97":2570470.2400000002,"ADDRESS":"中山路４１４巷２弄８５號","OBJECTID":173473},"geometry":{"x":182536.79999999981,"y":2570470.2400000002}},{"attributes":{"ID":173475,"DIS_CODE":0,"TOWNNAME":"六甲區","LI":"水林里","LIN":"6鄰","STREET":"中山路","SECT":" ","MAREA":" ","LANE":"４１４巷","ALLEY":"２弄","HOUSE_NO":"８９號","E_COORD97":182516.35000000001,"N_COORD97":2570486.3100000001,"ADDRESS":"中山路４１４巷２弄８９號","OBJECTID":173474},"geometry":{"x":182516.35000000149,"y":2570486.3100000005}},{"attributes":{"ID":173476,"DIS_CODE":0,"TOWNNAME":"仁德區","LI":"仁義里","LIN":"49鄰","STREET":"中清路","SECT":" ","MAREA":" ","LANE":" ","ALLEY":" ","HOUSE_NO":"１３號","E_COORD97":173684.44,"N_COORD97":2541025.2999999998,"ADDRESS":"中清路１３號","OBJECTID":173475},"geometry":{"x":173684.43999999948,"y":2541025.3000000007}},{"attributes":{"ID":173477,"DIS_CODE":0,"TOWNNAME":"六甲區","LI":"水林里","LIN":"6鄰","STREET":"中山路","SECT":" ","MAREA":" ","LANE":"４１４巷","ALLEY":"２弄","HOUSE_NO":"９３號","E_COORD97":182499.10000000001,"N_COORD97":2570502.1499999999,"ADDRESS":"中山路４１４巷２弄９３號","OBJECTID":173476},"geometry":{"x":182499.09999999963,"y":2570502.1500000004}},{"attributes":{"ID":173478,"DIS_CODE":0,"TOWNNAME":"六甲區","LI":"水林里","LIN":"6鄰","STREET":"中山路","SECT":" ","MAREA":" ","LANE":"４１４巷","ALLEY":"４弄","HOUSE_NO":"３９號","E_COORD97":182776.28,"N_COORD97":2570656.2999999998,"ADDRESS":"中山路４１４巷４弄３９號","OBJECTID":173477},"geometry":{"x":182776.28000000026,"y":2570656.3000000007}},{"attributes":{"ID":173479,"DIS_CODE":0,"TOWNNAME":"佳里區","LI":"安西里","LIN":"49鄰","STREET":" ","SECT":" ","MAREA":"安西","LANE":" ","ALLEY":" ","HOUSE_NO":"１３３號","E_COORD97":164285.12,"N_COORD97":2561878.29,"ADDRESS":"安西１３３號","OBJECTID":173478},"geometry":{"x":164285.12000000104,"y":2561878.2899999972}},{"attributes":{"ID":173480,"DIS_CODE":0,"TOWNNAME":"佳里區","LI":"安西里","LIN":"49鄰","STREET":" ","SECT":" ","MAREA":"安西","LANE":" ","ALLEY":" ","HOUSE_NO":"１３４號","E_COORD97":164330.32999999999,"N_COORD97":2561915.6699999999,"ADDRESS":"安西１３４號","OBJECTID":173479},"geometry":{"x":164330.33000000007,"y":2561915.6700000018}},{"attributes":{"ID":173481,"DIS_CODE":0,"TOWNNAME":"佳里區","LI":"安西里","LIN":"49鄰","STREET":" ","SECT":" ","MAREA":"安西","LANE":" ","ALLEY":" ","HOUSE_NO":"１３５號","E_COORD97":164227.84,"N_COORD97":2561838.5800000001,"ADDRESS":"安西１３５號","OBJECTID":173480},"geometry":{"x":164227.84000000078,"y":2561838.5800000001}},{"attributes":{"ID":173482,"DIS_CODE":0,"TOWNNAME":"佳里區","LI":"安西里","LIN":"49鄰","STREET":" ","SECT":" ","MAREA":"安西","LANE":" ","ALLEY":" ","HOUSE_NO":"１３６號之１","E_COORD97":164264.89000000001,"N_COORD97":2561859.8799999999,"ADDRESS":"安西１３６號之１","OBJECTID":173481},"geometry":{"x":164264.88999999966,"y":2561859.879999999}},{"attributes":{"ID":173483,"DIS_CODE":0,"TOWNNAME":"佳里區","LI":"安西里","LIN":"49鄰","STREET":" ","SECT":" ","MAREA":"安西","LANE":" ","ALLEY":" ","HOUSE_NO":"１３６號之２","E_COORD97":164260.82000000001,"N_COORD97":2561856.77,"ADDRESS":"安西１３６號之２","OBJECTID":173482},"geometry":{"x":164260.8200000003,"y":2561856.7700000014}},{"attributes":{"ID":173484,"DIS_CODE":0,"TOWNNAME":"佳里區","LI":"安西里","LIN":"49鄰","STREET":" ","SECT":" ","MAREA":"安西","LANE":" ","ALLEY":" ","HOUSE_NO":"１３６號之３","E_COORD97":164256.98000000001,"N_COORD97":2561854.6099999999,"ADDRESS":"安西１３６號之３","OBJECTID":173483},"geometry":{"x":164256.98000000045,"y":2561854.6099999994}},{"attributes":{"ID":173485,"DIS_CODE":0,"TOWNNAME":"佳里區","LI":"安西里","LIN":"49鄰","STREET":" ","SECT":" ","MAREA":"安西","LANE":" ","ALLEY":" ","HOUSE_NO":"１３６號之７","E_COORD97":164240.85999999999,"N_COORD97":2561845.8300000001,"ADDRESS":"安西１３６號之７","OBJECTID":173484},"geometry":{"x":164240.86000000034,"y":2561845.8300000019}},{"attributes":{"ID":173486,"DIS_CODE":0,"TOWNNAME":"六甲區","LI":"水林里","LIN":"6鄰","STREET":"中山路","SECT":" ","MAREA":" ","LANE":"４１４巷","ALLEY":"４弄","HOUSE_NO":"４５號之１","E_COORD97":182732.23999999999,"N_COORD97":2570646,"ADDRESS":"中山路４１４巷４弄４５號之１","OBJECTID":173485},"geometry":{"x":182732.24000000022,"y":2570646.0000000019}},{"attributes":{"ID":173487,"DIS_CODE":0,"TOWNNAME":"佳里區","LI":"安西里","LIN":"49鄰","STREET":" ","SECT":" ","MAREA":"安西","LANE":" ","ALLEY":" ","HOUSE_NO":"１３６號之８","E_COORD97":164234.17999999999,"N_COORD97":2561842.1899999999,"ADDRESS":"安西１３６號之８","OBJECTID":173486},"geometry":{"x":164234.1799999997,"y":2561842.1900000032}},{"attributes":{"ID":173488,"DIS_CODE":0,"TOWNNAME":"佳里區","LI":"安西里","LIN":"49鄰","STREET":" ","SECT":" ","MAREA":"安西","LANE":" ","ALLEY":" ","HOUSE_NO":"１３６號","E_COORD97":164268.17999999999,"N_COORD97":2561891.4700000002,"ADDRESS":"安西１３６號","OBJECTID":173487},"geometry":{"x":164268.1799999997,"y":2561891.4700000007}},{"attributes":{"ID":173489,"DIS_CODE":0,"TOWNNAME":"佳里區","LI":"安西里","LIN":"49鄰","STREET":" ","SECT":" ","MAREA":"安西","LANE":" ","ALLEY":" ","HOUSE_NO":"１４２號","E_COORD97":163364.85999999999,"N_COORD97":2562342.52,"ADDRESS":"安西１４２號","OBJECTID":173488},"geometry":{"x":163364.86000000127,"y":2562342.5200000014}},{"attributes":{"ID":173490,"DIS_CODE":0,"TOWNNAME":"麻豆區","LI":"中興里","LIN":"10鄰","STREET":"和平路","SECT":" ","MAREA":" ","LANE":" ","ALLEY":" ","HOUSE_NO":"３號之３","E_COORD97":173043.26999999999,"N_COORD97":2564359.5600000001,"ADDRESS":"和平路３號之３","OBJECTID":173489},"geometry":{"x":173043.26999999955,"y":2564359.5600000005}},{"attributes":{"ID":173491,"DIS_CODE":0,"TOWNNAME":"六甲區","LI":"水林里","LIN":"6鄰","STREET":"中山路","SECT":" ","MAREA":" ","LANE":"４１４巷","ALLEY":"４弄","HOUSE_NO":"４５號","E_COORD97":182737.06,"N_COORD97":2570644.71,"ADDRESS":"中山路４１４巷４弄４５號","OBJECTID":173490},"geometry":{"x":182737.06000000052,"y":2570644.7100000009}},{"attributes":{"ID":173492,"DIS_CODE":0,"TOWNNAME":"六甲區","LI":"水林里","LIN":"6鄰","STREET":"中山路","SECT":" ","MAREA":" ","LANE":"４１４巷","ALLEY":"４弄","HOUSE_NO":"５１號","E_COORD97":182713.29999999999,"N_COORD97":2570648.1800000002,"ADDRESS":"中山路４１４巷４弄５１號","OBJECTID":173491},"geometry":{"x":182713.29999999888,"y":2570648.1800000016}},{"attributes":{"ID":173493,"DIS_CODE":0,"TOWNNAME":"六甲區","LI":"水林里","LIN":"6鄰","STREET":"中山路","SECT":" ","MAREA":" ","LANE":"４１４巷","ALLEY":"４弄","HOUSE_NO":"６０號","E_COORD97":182481.14000000001,"N_COORD97":2570652.6899999999,"ADDRESS":"中山路４１４巷４弄６０號","OBJECTID":173492},"geometry":{"x":182481.1400000006,"y":2570652.6899999995}},{"attributes":{"ID":173494,"DIS_CODE":0,"TOWNNAME":"六甲區","LI":"水林里","LIN":"6鄰","STREET":"中山路","SECT":" ","MAREA":" ","LANE":"４１４巷","ALLEY":"４弄","HOUSE_NO":"６５號","E_COORD97":182654.48000000001,"N_COORD97":2570660.77,"ADDRESS":"中山路４１４巷４弄６５號","OBJECTID":173493},"geometry":{"x":182654.48000000045,"y":2570660.7700000014}},{"attributes":{"ID":173495,"DIS_CODE":0,"TOWNNAME":"六甲區","LI":"六甲里","LIN":"24鄰","STREET":"中山路","SECT":" ","MAREA":" ","LANE":"４３巷","ALLEY":"５０弄","HOUSE_NO":"１號","E_COORD97":183474.45000000001,"N_COORD97":2569844.3399999999,"ADDRESS":"中山路４３巷５０弄１號","OBJECTID":173494},"geometry":{"x":183474.45000000112,"y":2569844.3400000017}},{"attributes":{"ID":173496,"DIS_CODE":0,"TOWNNAME":"六甲區","LI":"六甲里","LIN":"24鄰","STREET":"中山路","SECT":" ","MAREA":" ","LANE":"４３巷","ALLEY":"５０弄","HOUSE_NO":"３號","E_COORD97":183464.35000000001,"N_COORD97":2569847.7799999998,"ADDRESS":"中山路４３巷５０弄３號","OBJECTID":173495},"geometry":{"x":183464.35000000056,"y":2569847.7800000012}},{"attributes":{"ID":173497,"DIS_CODE":0,"TOWNNAME":"六甲區","LI":"六甲里","LIN":"24鄰","STREET":"中山路","SECT":" ","MAREA":" ","LANE":"４３巷","ALLEY":"５０弄","HOUSE_NO":"５號","E_COORD97":183458.16,"N_COORD97":2569850.9399999999,"ADDRESS":"中山路４３巷５０弄５號","OBJECTID":173496},"geometry":{"x":183458.16000000015,"y":2569850.9399999995}},{"attributes":{"ID":173498,"DIS_CODE":0,"TOWNNAME":"六甲區","LI":"龍湖里","LIN":"14鄰","STREET":"中正路","SECT":" ","MAREA":" ","LANE":"１２０巷","ALLEY":"２弄","HOUSE_NO":"２號","E_COORD97":183462.48999999999,"N_COORD97":2568970.7200000002,"ADDRESS":"中正路１２０巷２弄２號","OBJECTID":173497},"geometry":{"x":183462.49000000115,"y":2568970.7200000025}},{"attributes":{"ID":173499,"DIS_CODE":0,"TOWNNAME":"六甲區","LI":"六甲里","LIN":"4鄰","STREET":"中正路","SECT":" ","MAREA":" ","LANE":"３７３巷","ALLEY":"２２弄","HOUSE_NO":"２號","E_COORD97":183443.54999999999,"N_COORD97":2569548.3300000001,"ADDRESS":"中正路３７３巷２２弄２號","OBJECTID":173498},"geometry":{"x":183443.54999999981,"y":2569548.3300000038}},{"attributes":{"ID":173500,"DIS_CODE":0,"TOWNNAME":"六甲區","LI":"六甲里","LIN":"4鄰","STREET":"中正路","SECT":" ","MAREA":" ","LANE":"３７３巷","ALLEY":"２５弄","HOUSE_NO":"２號","E_COORD97":183410.51999999999,"N_COORD97":2569566.7999999998,"ADDRESS":"中正路３７３巷２５弄２號","OBJECTID":173499},"geometry":{"x":183410.52000000048,"y":2569566.8000000026}},{"attributes":{"ID":173501,"DIS_CODE":0,"TOWNNAME":"六甲區","LI":"六甲里","LIN":"4鄰","STREET":"中正路","SECT":" ","MAREA":" ","LANE":"３７３巷","ALLEY":"２５弄","HOUSE_NO":"６號","E_COORD97":183413.07999999999,"N_COORD97":2569557.8100000001,"ADDRESS":"中正路３７３巷２５弄６號","OBJECTID":173500},"geometry":{"x":183413.08000000007,"y":2569557.8100000005}},{"attributes":{"ID":173502,"DIS_CODE":0,"TOWNNAME":"六甲區","LI":"六甲里","LIN":"4鄰","STREET":"中正路","SECT":" ","MAREA":" ","LANE":"３７３巷","ALLEY":"２５弄","HOUSE_NO":"８號","E_COORD97":183412.16,"N_COORD97":2569553.23,"ADDRESS":"中正路３７３巷２５弄８號","OBJECTID":173501},"geometry":{"x":183412.16000000108,"y":2569553.2300000023}},{"attributes":{"ID":173503,"DIS_CODE":0,"TOWNNAME":"柳營區","LI":"光福里","LIN":"17鄰","STREET":"光福七街","SECT":" ","MAREA":" ","LANE":"３２巷","ALLEY":"１弄","HOUSE_NO":"１０號","E_COORD97":179738.35000000001,"N_COORD97":2575590.9300000002,"ADDRESS":"光福七街３２巷１弄１０號","OBJECTID":173502},"geometry":{"x":179738.35000000056,"y":2575590.9299999997}},{"attributes":{"ID":173504,"DIS_CODE":0,"TOWNNAME":"六甲區","LI":"六甲里","LIN":"26鄰","STREET":"中正路","SECT":" ","MAREA":" ","LANE":"６７３巷","ALLEY":"１２弄","HOUSE_NO":"１１號","E_COORD97":183789.29000000001,"N_COORD97":2570312.75,"ADDRESS":"中正路６７３巷１２弄１１號","OBJECTID":173503},"geometry":{"x":183789.29000000097,"y":2570312.7500000019}},{"attributes":{"ID":173505,"DIS_CODE":0,"TOWNNAME":"六甲區","LI":"六甲里","LIN":"26鄰","STREET":"中正路","SECT":" ","MAREA":" ","LANE":"６７３巷","ALLEY":"１２弄","HOUSE_NO":"１３號","E_COORD97":183790.23000000001,"N_COORD97":2570316.6699999999,"ADDRESS":"中正路６７３巷１２弄１３號","OBJECTID":173504},"geometry":{"x":183790.23000000045,"y":2570316.6700000018}},{"attributes":{"ID":173506,"DIS_CODE":0,"TOWNNAME":"六甲區","LI":"六甲里","LIN":"26鄰","STREET":"中正路","SECT":" ","MAREA":" ","LANE":"６７３巷","ALLEY":"１２弄","HOUSE_NO":"１５號","E_COORD97":183791.44,"N_COORD97":2570321.3199999998,"ADDRESS":"中正路６７３巷１２弄１５號","OBJECTID":173505},"geometry":{"x":183791.44000000134,"y":2570321.3199999984}},{"attributes":{"ID":173507,"DIS_CODE":0,"TOWNNAME":"六甲區","LI":"六甲里","LIN":"26鄰","STREET":"中正路","SECT":" ","MAREA":" ","LANE":"６７３巷","ALLEY":"１２弄","HOUSE_NO":"１７號","E_COORD97":183792.41,"N_COORD97":2570325.4100000001,"ADDRESS":"中正路６７３巷１２弄１７號","OBJECTID":173506},"geometry":{"x":183792.41000000015,"y":2570325.410000002}},{"attributes":{"ID":173508,"DIS_CODE":0,"TOWNNAME":"六甲區","LI":"六甲里","LIN":"26鄰","STREET":"中正路","SECT":" ","MAREA":" ","LANE":"６７３巷","ALLEY":"１２弄","HOUSE_NO":"１９號","E_COORD97":183793.5,"N_COORD97":2570330.3399999999,"ADDRESS":"中正路６７３巷１２弄１９號","OBJECTID":173507},"geometry":{"x":183793.5,"y":2570330.3399999999}},{"attributes":{"ID":173509,"DIS_CODE":0,"TOWNNAME":"六甲區","LI":"六甲里","LIN":"26鄰","STREET":"中正路","SECT":" ","MAREA":" ","LANE":"６７３巷","ALLEY":"１２弄","HOUSE_NO":"１號","E_COORD97":183775.13,"N_COORD97":2570296.1200000001,"ADDRESS":"中正路６７３巷１２弄１號","OBJECTID":173508},"geometry":{"x":183775.12999999989,"y":2570296.120000001}},{"attributes":{"ID":173510,"DIS_CODE":0,"TOWNNAME":"六甲區","LI":"六甲里","LIN":"26鄰","STREET":"中正路","SECT":" ","MAREA":" ","LANE":"６７３巷","ALLEY":"１２弄","HOUSE_NO":"２１號","E_COORD97":183794.57999999999,"N_COORD97":2570334.3199999998,"ADDRESS":"中正路６７３巷１２弄２１號","OBJECTID":173509},"geometry":{"x":183794.58000000007,"y":2570334.3200000003}},{"attributes":{"ID":173511,"DIS_CODE":0,"TOWNNAME":"六甲區","LI":"六甲里","LIN":"26鄰","STREET":"中正路","SECT":" ","MAREA":" ","LANE":"６７３巷","ALLEY":"１２弄","HOUSE_NO":"２３號","E_COORD97":183795.37,"N_COORD97":2570338.8100000001,"ADDRESS":"中正路６７３巷１２弄２３號","OBJECTID":173510},"geometry":{"x":183795.37000000104,"y":2570338.8100000042}},{"attributes":{"ID":173512,"DIS_CODE":0,"TOWNNAME":"六甲區","LI":"六甲里","LIN":"26鄰","STREET":"中正路","SECT":" ","MAREA":" ","LANE":"６７３巷","ALLEY":"１２弄","HOUSE_NO":"２號","E_COORD97":183795.64999999999,"N_COORD97":2570285.29,"ADDRESS":"中正路６７３巷１２弄２號","OBJECTID":173511},"geometry":{"x":183795.6500000013,"y":2570285.2899999991}},{"attributes":{"ID":173513,"DIS_CODE":0,"TOWNNAME":"六甲區","LI":"六甲里","LIN":"26鄰","STREET":"中正路","SECT":" ","MAREA":" ","LANE":"６７３巷","ALLEY":"１２弄","HOUSE_NO":"３號","E_COORD97":183779.42999999999,"N_COORD97":2570295.3399999999,"ADDRESS":"中正路６７３巷１２弄３號","OBJECTID":173512},"geometry":{"x":183779.43000000063,"y":2570295.3400000017}},{"attributes":{"ID":173514,"DIS_CODE":0,"TOWNNAME":"六甲區","LI":"六甲里","LIN":"26鄰","STREET":"中正路","SECT":" ","MAREA":" ","LANE":"６７３巷","ALLEY":"１２弄","HOUSE_NO":"４號","E_COORD97":183802.79000000001,"N_COORD97":2570283.4199999999,"ADDRESS":"中正路６７３巷１２弄４號","OBJECTID":173513},"geometry":{"x":183802.79000000097,"y":2570283.4200000037}},{"attributes":{"ID":173515,"DIS_CODE":0,"TOWNNAME":"六甲區","LI":"六甲里","LIN":"26鄰","STREET":"中正路","SECT":" ","MAREA":" ","LANE":"６７３巷","ALLEY":"１２弄","HOUSE_NO":"５號","E_COORD97":183783.26999999999,"N_COORD97":2570294.3700000001,"ADDRESS":"中正路６７３巷１２弄５號","OBJECTID":173514},"geometry":{"x":183783.27000000048,"y":2570294.370000001}},{"attributes":{"ID":173516,"DIS_CODE":0,"TOWNNAME":"仁德區","LI":"仁義里","LIN":"49鄰","STREET":"中清路","SECT":" ","MAREA":" ","LANE":" ","ALLEY":" ","HOUSE_NO":"１號","E_COORD97":173681.32000000001,"N_COORD97":2540997.79,"ADDRESS":"中清路１號","OBJECTID":173515},"geometry":{"x":173681.3200000003,"y":2540997.790000001}},{"attributes":{"ID":173517,"DIS_CODE":0,"TOWNNAME":"仁德區","LI":"仁義里","LIN":"49鄰","STREET":"中清路","SECT":" ","MAREA":" ","LANE":" ","ALLEY":" ","HOUSE_NO":"３號","E_COORD97":173681.54999999999,"N_COORD97":2541001.54,"ADDRESS":"中清路３號","OBJECTID":173516},"geometry":{"x":173681.55000000168,"y":2541001.5399999991}},{"attributes":{"ID":173518,"DIS_CODE":0,"TOWNNAME":"仁德區","LI":"仁義里","LIN":"49鄰","STREET":"中清路","SECT":" ","MAREA":" ","LANE":" ","ALLEY":" ","HOUSE_NO":"４號","E_COORD97":173706.75,"N_COORD97":2540992.5899999999,"ADDRESS":"中清路４號","OBJECTID":173517},"geometry":{"x":173706.75,"y":2540992.5900000036}},{"attributes":{"ID":173519,"DIS_CODE":0,"TOWNNAME":"永康區","LI":"西灣里","LIN":"49鄰","STREET":"永華路","SECT":" ","MAREA":" ","LANE":" ","ALLEY":" ","HOUSE_NO":"２９９號","E_COORD97":174038.16,"N_COORD97":2545873.6000000001,"ADDRESS":"永華路２９９號","OBJECTID":173518},"geometry":{"x":174038.16000000015,"y":2545873.5999999996}},{"attributes":{"ID":173520,"DIS_CODE":0,"TOWNNAME":"永康區","LI":"西灣里","LIN":"49鄰","STREET":"永華路","SECT":" ","MAREA":" ","LANE":" ","ALLEY":" ","HOUSE_NO":"３１１號","E_COORD97":174030.82000000001,"N_COORD97":2545898.6099999999,"ADDRESS":"永華路３１１號","OBJECTID":173519},"geometry":{"x":174030.8200000003,"y":2545898.6100000013}},{"attributes":{"ID":173521,"DIS_CODE":0,"TOWNNAME":"六甲區","LI":"六甲里","LIN":"26鄰","STREET":"中正路","SECT":" ","MAREA":" ","LANE":"６７３巷","ALLEY":"１２弄","HOUSE_NO":"６號","E_COORD97":183802.03,"N_COORD97":2570316.23,"ADDRESS":"中正路６７３巷１２弄６號","OBJECTID":173520},"geometry":{"x":183802.03000000026,"y":2570316.2300000023}},{"attributes":{"ID":173522,"DIS_CODE":0,"TOWNNAME":"六甲區","LI":"六甲里","LIN":"26鄰","STREET":"中正路","SECT":" ","MAREA":" ","LANE":"６７３巷","ALLEY":"１２弄","HOUSE_NO":"７號","E_COORD97":183787.16,"N_COORD97":2570293.3700000001,"ADDRESS":"中正路６７３巷１２弄７號","OBJECTID":173521},"geometry":{"x":183787.16000000015,"y":2570293.370000001}},{"attributes":{"ID":173523,"DIS_CODE":0,"TOWNNAME":"北區","LI":"長德里","LIN":"10鄰","STREET":"長北街","SECT":" ","MAREA":" ","LANE":" ","ALLEY":" ","HOUSE_NO":"１８２號","E_COORD97":168529.51000000001,"N_COORD97":2544935.2799999998,"ADDRESS":"長北街１８２號","OBJECTID":173522},"geometry":{"x":168529.50999999978,"y":2544935.2800000012}},{"attributes":{"ID":173524,"DIS_CODE":0,"TOWNNAME":"北區","LI":"長德里","LIN":"10鄰","STREET":"長北街","SECT":" ","MAREA":" ","LANE":" ","ALLEY":" ","HOUSE_NO":"１８４號","E_COORD97":168523.62,"N_COORD97":2544937.3599999999,"ADDRESS":"長北街１８４號","OBJECTID":173523},"geometry":{"x":168523.62000000104,"y":2544937.3600000013}},{"attributes":{"ID":173525,"DIS_CODE":0,"TOWNNAME":"六甲區","LI":"六甲里","LIN":"26鄰","STREET":"中正路","SECT":" ","MAREA":" ","LANE":"６７３巷","ALLEY":"１２弄","HOUSE_NO":"９號","E_COORD97":183788.14999999999,"N_COORD97":2570307.8999999999,"ADDRESS":"中正路６７３巷１２弄９號","OBJECTID":173524},"geometry":{"x":183788.15000000224,"y":2570307.9000000022}},{"attributes":{"ID":173526,"DIS_CODE":0,"TOWNNAME":"六甲區","LI":"水林里","LIN":"14鄰","STREET":"民族街","SECT":" ","MAREA":" ","LANE":"２４０巷","ALLEY":"５９弄","HOUSE_NO":"２１號","E_COORD97":183107.38,"N_COORD97":2570639.5899999999,"ADDRESS":"民族街２４０巷５９弄２１號","OBJECTID":173525},"geometry":{"x":183107.37999999989,"y":2570639.5900000017}},{"attributes":{"ID":173527,"DIS_CODE":0,"TOWNNAME":"六甲區","LI":"水林里","LIN":"7鄰","STREET":"民族街","SECT":" ","MAREA":" ","LANE":"２７５巷","ALLEY":"６０弄","HOUSE_NO":"２號","E_COORD97":182970.54999999999,"N_COORD97":2570254.9199999999,"ADDRESS":"民族街２７５巷６０弄２號","OBJECTID":173526},"geometry":{"x":182970.54999999981,"y":2570254.9199999999}},{"attributes":{"ID":173528,"DIS_CODE":0,"TOWNNAME":"六甲區","LI":"水林里","LIN":"12鄰","STREET":"民族街","SECT":" ","MAREA":" ","LANE":"２７５巷","ALLEY":"２弄","HOUSE_NO":"４號","E_COORD97":182843.57999999999,"N_COORD97":2570253.9399999999,"ADDRESS":"民族街２７５巷２弄４號","OBJECTID":173527},"geometry":{"x":182843.58000000007,"y":2570253.9399999995}},{"attributes":{"ID":173529,"DIS_CODE":0,"TOWNNAME":"六甲區","LI":"水林里","LIN":"12鄰","STREET":"民族街","SECT":" ","MAREA":" ","LANE":"２７５巷","ALLEY":"２弄","HOUSE_NO":"６號","E_COORD97":182843.34,"N_COORD97":2570270.75,"ADDRESS":"民族街２７５巷２弄６號","OBJECTID":173528},"geometry":{"x":182843.33999999985,"y":2570270.7500000037}},{"attributes":{"ID":173530,"DIS_CODE":0,"TOWNNAME":"仁德區","LI":"仁義里","LIN":"49鄰","STREET":"中清路","SECT":" ","MAREA":" ","LANE":" ","ALLEY":" ","HOUSE_NO":"２２號","E_COORD97":173708.89000000001,"N_COORD97":2541034.6000000001,"ADDRESS":"中清路２２號","OBJECTID":173529},"geometry":{"x":173708.88999999966,"y":2541034.5999999996}},{"attributes":{"ID":173531,"DIS_CODE":0,"TOWNNAME":"仁德區","LI":"仁義里","LIN":"49鄰","STREET":"中清路","SECT":" ","MAREA":" ","LANE":" ","ALLEY":" ","HOUSE_NO":"５號","E_COORD97":173679.79999999999,"N_COORD97":2541005.04,"ADDRESS":"中清路５號","OBJECTID":173530},"geometry":{"x":173679.80000000168,"y":2541005.0399999991}},{"attributes":{"ID":173532,"DIS_CODE":0,"TOWNNAME":"歸仁區","LI":"崙頂里","LIN":"10鄰","STREET":"成功路","SECT":"二段","MAREA":" ","LANE":" ","ALLEY":" ","HOUSE_NO":"９８號","E_COORD97":178066.12,"N_COORD97":2539792.3599999999,"ADDRESS":"成功路二段９８號","OBJECTID":173531},"geometry":{"x":178066.12000000011,"y":2539792.3599999994}},{"attributes":{"ID":173533,"DIS_CODE":0,"TOWNNAME":"安平區","LI":"怡平里","LIN":"10鄰","STREET":"永華六街","SECT":" ","MAREA":" ","LANE":" ","ALLEY":" ","HOUSE_NO":"２０２號","E_COORD97":165673.14000000001,"N_COORD97":2544114.6400000001,"ADDRESS":"永華六街２０２號","OBJECTID":173532},"geometry":{"x":165673.1400000006,"y":2544114.6400000006}},{"attributes":{"ID":173534,"DIS_CODE":0,"TOWNNAME":"安平區","LI":"怡平里","LIN":"10鄰","STREET":"永華六街","SECT":" ","MAREA":" ","LANE":" ","ALLEY":" ","HOUSE_NO":"２０２號之１","E_COORD97":165679.94,"N_COORD97":2544114.2999999998,"ADDRESS":"永華六街２０２號之１","OBJECTID":173533},"geometry":{"x":165679.94000000227,"y":2544114.2999999989}},{"attributes":{"ID":173535,"DIS_CODE":0,"TOWNNAME":"六甲區","LI":"水林里","LIN":"12鄰","STREET":"民族街","SECT":" ","MAREA":" ","LANE":"２７５巷","ALLEY":"２弄","HOUSE_NO":"８號","E_COORD97":182803.17999999999,"N_COORD97":2570254.4300000002,"ADDRESS":"民族街２７５巷２弄８號","OBJECTID":173534},"geometry":{"x":182803.1799999997,"y":2570254.4299999997}},{"attributes":{"ID":173536,"DIS_CODE":0,"TOWNNAME":"新營區","LI":"民榮里","LIN":"38鄰","STREET":"太子路","SECT":" ","MAREA":" ","LANE":"５３巷","ALLEY":"６弄","HOUSE_NO":"１３號","E_COORD97":178296.85999999999,"N_COORD97":2577954.04,"ADDRESS":"太子路５３巷６弄１３號","OBJECTID":173535},"geometry":{"x":178296.86000000034,"y":2577954.0400000028}},{"attributes":{"ID":173537,"DIS_CODE":0,"TOWNNAME":"新營區","LI":"新東里","LIN":"14鄰","STREET":"東興六街","SECT":" ","MAREA":" ","LANE":"８９巷","ALLEY":"２０弄","HOUSE_NO":"７號","E_COORD97":180978.12700099999,"N_COORD97":2579330.1451599998,"ADDRESS":"東興六街８９巷２０弄７號","OBJECTID":173536},"geometry":{"x":180978.12700099964,"y":2579330.1451640036}},{"attributes":{"ID":173538,"DIS_CODE":0,"TOWNNAME":"新營區","LI":"新東里","LIN":"4鄰","STREET":"東大街","SECT":" ","MAREA":" ","LANE":"５２巷","ALLEY":"２弄","HOUSE_NO":"９號","E_COORD97":181078.10999999999,"N_COORD97":2579108.0899999999,"ADDRESS":"東大街５２巷２弄９號","OBJECTID":173537},"geometry":{"x":181078.11000000127,"y":2579108.0900000017}},{"attributes":{"ID":173539,"DIS_CODE":0,"TOWNNAME":"新營區","LI":"新東里","LIN":"4鄰","STREET":"東大街","SECT":" ","MAREA":" ","LANE":"５２巷","ALLEY":"２弄","HOUSE_NO":"８號","E_COORD97":181046.57999999999,"N_COORD97":2579124.8399999999,"ADDRESS":"東大街５２巷２弄８號","OBJECTID":173538},"geometry":{"x":181046.58000000007,"y":2579124.8399999999}},{"attributes":{"ID":173540,"DIS_CODE":0,"TOWNNAME":"新營區","LI":"民榮里","LIN":"38鄰","STREET":"太子路","SECT":" ","MAREA":" ","LANE":"５３巷","ALLEY":"６弄","HOUSE_NO":"１４號","E_COORD97":178305.17999999999,"N_COORD97":2577982.79,"ADDRESS":"太子路５３巷６弄１４號","OBJECTID":173539},"geometry":{"x":178305.18000000063,"y":2577982.7900000028}},{"attributes":{"ID":173541,"DIS_CODE":0,"TOWNNAME":"新營區","LI":"民榮里","LIN":"32鄰","STREET":"太子路","SECT":" ","MAREA":" ","LANE":"５３巷","ALLEY":"１弄","HOUSE_NO":"１０號","E_COORD97":178294.17999999999,"N_COORD97":2578033.79,"ADDRESS":"太子路５３巷１弄１０號","OBJECTID":173540},"geometry":{"x":178294.1799999997,"y":2578033.7900000028}},{"attributes":{"ID":173542,"DIS_CODE":0,"TOWNNAME":"麻豆區","LI":"南勢里","LIN":"25鄰","STREET":" ","SECT":" ","MAREA":"南勢","LANE":" ","ALLEY":" ","HOUSE_NO":"８５號之２１","E_COORD97":174754.92000000001,"N_COORD97":2565334.6400000001,"ADDRESS":"南勢８５號之２１","OBJECTID":173541},"geometry":{"x":174754.91999999993,"y":2565334.6400000006}},{"attributes":{"ID":173543,"DIS_CODE":0,"TOWNNAME":"玉井區","LI":"豐里里","LIN":"10鄰","STREET":" ","SECT":" ","MAREA":"豐里","LANE":" ","ALLEY":" ","HOUSE_NO":"９７之２號","E_COORD97":193031.16,"N_COORD97":2560232.29,"ADDRESS":"豐里９７之２號","OBJECTID":173542},"geometry":{"x":193031.16000000015,"y":2560232.290000001}},{"attributes":{"ID":173544,"DIS_CODE":0,"TOWNNAME":"新營區","LI":"民榮里","LIN":"32鄰","STREET":"太子路","SECT":" ","MAREA":" ","LANE":"５３巷","ALLEY":"１弄","HOUSE_NO":"１１號","E_COORD97":178296.16,"N_COORD97":2578020.5,"ADDRESS":"太子路５３巷１弄１１號","OBJECTID":173543},"geometry":{"x":178296.16000000108,"y":2578020.5000000019}},{"attributes":{"ID":173545,"DIS_CODE":0,"TOWNNAME":"新營區","LI":"民榮里","LIN":"38鄰","STREET":"太子路","SECT":" ","MAREA":" ","LANE":"５３巷","ALLEY":"６弄","HOUSE_NO":"１１號之１","E_COORD97":178307.16,"N_COORD97":2577950.73,"ADDRESS":"太子路５３巷６弄１１號之１","OBJECTID":173544},"geometry":{"x":178307.16000000201,"y":2577950.7300000042}},{"attributes":{"ID":173546,"DIS_CODE":0,"TOWNNAME":"新營區","LI":"新北里","LIN":"13鄰","STREET":"周武街","SECT":" ","MAREA":" ","LANE":"７９巷","ALLEY":"４６弄","HOUSE_NO":"５號","E_COORD97":179304.35000000001,"N_COORD97":2579054.4399999999,"ADDRESS":"周武街７９巷４６弄５號","OBJECTID":173545},"geometry":{"x":179304.35000000056,"y":2579054.4400000013}},{"attributes":{"ID":173547,"DIS_CODE":0,"TOWNNAME":"新營區","LI":"南紙里","LIN":"26鄰","STREET":"建業路","SECT":" ","MAREA":" ","LANE":"２２７巷","ALLEY":"２４弄","HOUSE_NO":"８號","E_COORD97":178045.14999999999,"N_COORD97":2577339.5099999998,"ADDRESS":"建業路２２７巷２４弄８號","OBJECTID":173546},"geometry":{"x":178045.1500000013,"y":2577339.5099999998}},{"attributes":{"ID":173548,"DIS_CODE":0,"TOWNNAME":"新營區","LI":"南紙里","LIN":"25鄰","STREET":"建業路","SECT":" ","MAREA":" ","LANE":"２２７巷","ALLEY":"２弄","HOUSE_NO":"２４號","E_COORD97":178053.22,"N_COORD97":2577480.1299999999,"ADDRESS":"建業路２２７巷２弄２４號","OBJECTID":173547},"geometry":{"x":178053.21999999974,"y":2577480.1300000008}},{"attributes":{"ID":173549,"DIS_CODE":0,"TOWNNAME":"柳營區","LI":"東昇里","LIN":"7鄰","STREET":"中山西路","SECT":"二段","MAREA":" ","LANE":"１９巷","ALLEY":"３１弄","HOUSE_NO":"１號","E_COORD97":180150.64999999999,"N_COORD97":2575148.2799999998,"ADDRESS":"中山西路二段１９巷３１弄１號","OBJECTID":173548},"geometry":{"x":180150.6500000013,"y":2575148.2799999993}},{"attributes":{"ID":173550,"DIS_CODE":0,"TOWNNAME":"柳營區","LI":"光福里","LIN":"17鄰","STREET":"光福七街","SECT":" ","MAREA":" ","LANE":"３２巷","ALLEY":"１弄","HOUSE_NO":"２號","E_COORD97":179737.85000000001,"N_COORD97":2575568.8999999999,"ADDRESS":"光福七街３２巷１弄２號","OBJECTID":173549},"geometry":{"x":179737.85000000149,"y":2575568.9000000004}},{"attributes":{"ID":173551,"DIS_CODE":0,"TOWNNAME":"柳營區","LI":"八翁里","LIN":"4鄰","STREET":"和平路","SECT":" ","MAREA":" ","LANE":"１６７巷","ALLEY":"８弄","HOUSE_NO":"１１號","E_COORD97":178175.54999999999,"N_COORD97":2575202.9900000002,"ADDRESS":"和平路１６７巷８弄１１號","OBJECTID":173550},"geometry":{"x":178175.55000000075,"y":2575202.9900000021}},{"attributes":{"ID":173552,"DIS_CODE":0,"TOWNNAME":"北區","LI":"國姓里","LIN":"4鄰","STREET":"公園路","SECT":" ","MAREA":" ","LANE":"４５１巷","ALLEY":"６７弄","HOUSE_NO":"６號","E_COORD97":168828.92000000001,"N_COORD97":2545517.1099999999,"ADDRESS":"公園路４５１巷６７弄６號","OBJECTID":173551},"geometry":{"x":168828.91999999993,"y":2545517.1099999994}},{"attributes":{"ID":173553,"DIS_CODE":0,"TOWNNAME":"北區","LI":"國姓里","LIN":"4鄰","STREET":"公園路","SECT":" ","MAREA":" ","LANE":"４５１巷","ALLEY":"６７弄","HOUSE_NO":"７號","E_COORD97":168837.53,"N_COORD97":2545504.9500000002,"ADDRESS":"公園路４５１巷６７弄７號","OBJECTID":173552},"geometry":{"x":168837.53000000119,"y":2545504.9499999993}},{"attributes":{"ID":173554,"DIS_CODE":0,"TOWNNAME":"北區","LI":"國姓里","LIN":"4鄰","STREET":"公園路","SECT":" ","MAREA":" ","LANE":"４５１巷","ALLEY":"６７弄","HOUSE_NO":"８號","E_COORD97":168824.48000000001,"N_COORD97":2545516.2799999998,"ADDRESS":"公園路４５１巷６７弄８號","OBJECTID":173553},"geometry":{"x":168824.48000000138,"y":2545516.2799999993}},{"attributes":{"ID":173555,"DIS_CODE":0,"TOWNNAME":"南區","LI":"光明里","LIN":"11鄰","STREET":"鹽埕路","SECT":" ","MAREA":" ","LANE":"２９１巷","ALLEY":"３２弄","HOUSE_NO":"２９號","E_COORD97":166631.79000000001,"N_COORD97":2541326.02,"ADDRESS":"鹽埕路２９１巷３２弄２９號","OBJECTID":173554},"geometry":{"x":166631.79000000097,"y":2541326.0200000014}},{"attributes":{"ID":173556,"DIS_CODE":0,"TOWNNAME":"南區","LI":"光明里","LIN":"11鄰","STREET":"鹽埕路","SECT":" ","MAREA":" ","LANE":"２９１巷","ALLEY":"３２弄","HOUSE_NO":"２９號之１","E_COORD97":166630.66,"N_COORD97":2541321.5,"ADDRESS":"鹽埕路２９１巷３２弄２９號之１","OBJECTID":173555},"geometry":{"x":166630.65999999922,"y":2541321.5}},{"attributes":{"ID":173557,"DIS_CODE":0,"TOWNNAME":"南區","LI":"光明里","LIN":"5鄰","STREET":"鹽埕路","SECT":" ","MAREA":" ","LANE":"２９１巷","ALLEY":"１４弄","HOUSE_NO":"１５３號之１","E_COORD97":166752.32999999999,"N_COORD97":2541495.6400000001,"ADDRESS":"鹽埕路２９１巷１４弄１５３號之１","OBJECTID":173556},"geometry":{"x":166752.33000000101,"y":2541495.6400000025}},{"attributes":{"ID":173558,"DIS_CODE":0,"TOWNNAME":"南區","LI":"光明里","LIN":"10鄰","STREET":"鹽埕路","SECT":" ","MAREA":" ","LANE":"２９１巷","ALLEY":"３２弄","HOUSE_NO":"１０４號","E_COORD97":166681.35000000001,"N_COORD97":2541372.7999999998,"ADDRESS":"鹽埕路２９１巷３２弄１０４號","OBJECTID":173557},"geometry":{"x":166681.3499999987,"y":2541372.8000000026}},{"attributes":{"ID":173559,"DIS_CODE":0,"TOWNNAME":"南區","LI":"光明里","LIN":"4鄰","STREET":"鹽埕路","SECT":" ","MAREA":" ","LANE":"２９１巷","ALLEY":"１４弄","HOUSE_NO":"１１９號","E_COORD97":166774.48999999999,"N_COORD97":2541461.9199999999,"ADDRESS":"鹽埕路２９１巷１４弄１１９號","OBJECTID":173558},"geometry":{"x":166774.49000000209,"y":2541461.9200000018}},{"attributes":{"ID":173560,"DIS_CODE":0,"TOWNNAME":"南區","LI":"光明里","LIN":"4鄰","STREET":"鹽埕路","SECT":" ","MAREA":" ","LANE":"２９１巷","ALLEY":"１４弄","HOUSE_NO":"１２１號","E_COORD97":166770.17999999999,"N_COORD97":2541464.0099999998,"ADDRESS":"鹽埕路２９１巷１４弄１２１號","OBJECTID":173559},"geometry":{"x":166770.1799999997,"y":2541464.0099999979}},{"attributes":{"ID":173561,"DIS_CODE":0,"TOWNNAME":"安平區","LI":"平通里","LIN":"24鄰","STREET":"育平八街","SECT":" ","MAREA":" ","LANE":" ","ALLEY":" ","HOUSE_NO":"３２號六樓之１","E_COORD97":164499.09,"N_COORD97":2543941.6299999999,"ADDRESS":"育平八街３２號六樓之１","OBJECTID":173560},"geometry":{"x":164499.09000000078,"y":2543941.6300000008}},{"attributes":{"ID":173562,"DIS_CODE":0,"TOWNNAME":"安平區","LI":"平通里","LIN":"24鄰","STREET":"育平八街","SECT":" ","MAREA":" ","LANE":" ","ALLEY":" ","HOUSE_NO":"３２號六樓之１０","E_COORD97":164499.09,"N_COORD97":2543941.6299999999,"ADDRESS":"育平八街３２號六樓之１０","OBJECTID":173561},"geometry":{"x":164499.09000000078,"y":2543941.6300000008}},{"attributes":{"ID":173563,"DIS_CODE":0,"TOWNNAME":"歸仁區","LI":"七甲里","LIN":"10鄰","STREET":"七甲一街","SECT":" ","MAREA":" ","LANE":" ","ALLEY":" ","HOUSE_NO":"４７號","E_COORD97":177605.79000000001,"N_COORD97":2542524.6600000001,"ADDRESS":"七甲一街４７號","OBJECTID":173562},"geometry":{"x":177605.79000000004,"y":2542524.6600000039}},{"attributes":{"ID":173564,"DIS_CODE":0,"TOWNNAME":"歸仁區","LI":"文化里","LIN":"10鄰","STREET":"民族北街","SECT":" ","MAREA":" ","LANE":" ","ALLEY":" ","HOUSE_NO":"２４１號","E_COORD97":177473,"N_COORD97":2541460.3300000001,"ADDRESS":"民族北街２４１號","OBJECTID":173563},"geometry":{"x":177473.00000000093,"y":2541460.3300000019}},{"attributes":{"ID":173565,"DIS_CODE":0,"TOWNNAME":"楠西區","LI":"東勢里","LIN":"10鄰","STREET":"水庫路","SECT":" ","MAREA":" ","LANE":" ","ALLEY":" ","HOUSE_NO":"３８６號","E_COORD97":197684.17000000001,"N_COORD97":2563807.25,"ADDRESS":"水庫路３８６號","OBJECTID":173564},"geometry":{"x":197684.16999999993,"y":2563807.25}},{"attributes":{"ID":173566,"DIS_CODE":0,"TOWNNAME":"楠西區","LI":"東勢里","LIN":"10鄰","STREET":"信義路","SECT":" ","MAREA":" ","LANE":" ","ALLEY":" ","HOUSE_NO":"２３６號","E_COORD97":197688.37,"N_COORD97":2563958.27,"ADDRESS":"信義路２３６號","OBJECTID":173565},"geometry":{"x":197688.37000000011,"y":2563958.2700000014}},{"attributes":{"ID":173567,"DIS_CODE":0,"TOWNNAME":"楠西區","LI":"楠西里","LIN":"10鄰","STREET":"中興路","SECT":" ","MAREA":" ","LANE":" ","ALLEY":" ","HOUSE_NO":"４號","E_COORD97":197177.35999999999,"N_COORD97":2564112.25,"ADDRESS":"中興路４號","OBJECTID":173566},"geometry":{"x":197177.36000000127,"y":2564112.25}},{"attributes":{"ID":173568,"DIS_CODE":0,"TOWNNAME":"新營區","LI":"民權里","LIN":"10鄰","STREET":"中華路","SECT":" ","MAREA":" ","LANE":" ","ALLEY":" ","HOUSE_NO":"２５號","E_COORD97":179842.76000000001,"N_COORD97":2578219.0800000001,"ADDRESS":"中華路２５號","OBJECTID":173567},"geometry":{"x":179842.76000000071,"y":2578219.0800000038}},{"attributes":{"ID":173569,"DIS_CODE":0,"TOWNNAME":"新營區","LI":"興安里","LIN":"10鄰","STREET":"廠前街","SECT":" ","MAREA":" ","LANE":" ","ALLEY":" ","HOUSE_NO":"５２號","E_COORD97":179964.17000000001,"N_COORD97":2577730.1099999999,"ADDRESS":"廠前街５２號","OBJECTID":173568},"geometry":{"x":179964.16999999993,"y":2577730.1100000031}},{"attributes":{"ID":173570,"DIS_CODE":0,"TOWNNAME":"南區","LI":"光明里","LIN":"4鄰","STREET":"鹽埕路","SECT":" ","MAREA":" ","LANE":"２９１巷","ALLEY":"１４弄","HOUSE_NO":"１２３號","E_COORD97":166765.73999999999,"N_COORD97":2541465.3100000001,"ADDRESS":"鹽埕路２９１巷１４弄１２３號","OBJECTID":173569},"geometry":{"x":166765.74000000022,"y":2541465.3100000005}},{"attributes":{"ID":173571,"DIS_CODE":0,"TOWNNAME":"南區","LI":"明亮里","LIN":"17鄰","STREET":"金華路","SECT":"一段","MAREA":" ","LANE":"３５２巷","ALLEY":"９７弄","HOUSE_NO":"３８號","E_COORD97":167312.62,"N_COORD97":2541158.2599999998,"ADDRESS":"金華路一段３５２巷９７弄３８號","OBJECTID":173570},"geometry":{"x":167312.62000000104,"y":2541158.2600000016}},{"attributes":{"ID":173572,"DIS_CODE":0,"TOWNNAME":"南區","LI":"明亮里","LIN":"17鄰","STREET":"金華路","SECT":"一段","MAREA":" ","LANE":"３５２巷","ALLEY":"９７弄","HOUSE_NO":"４０號","E_COORD97":167314.23000000001,"N_COORD97":2541154.2400000002,"ADDRESS":"金華路一段３５２巷９７弄４０號","OBJECTID":173571},"geometry":{"x":167314.23000000138,"y":2541154.2400000002}},{"attributes":{"ID":173573,"DIS_CODE":0,"TOWNNAME":"新營區","LI":"新東里","LIN":"10鄰","STREET":"東勇街","SECT":" ","MAREA":" ","LANE":" ","ALLEY":" ","HOUSE_NO":"７１號","E_COORD97":181404.70000000001,"N_COORD97":2579619.77,"ADDRESS":"東勇街７１號","OBJECTID":173572},"geometry":{"x":181404.70000000112,"y":2579619.7699999996}},{"attributes":{"ID":173574,"DIS_CODE":0,"TOWNNAME":"南區","LI":"明亮里","LIN":"17鄰","STREET":"金華路","SECT":"一段","MAREA":" ","LANE":"３５２巷","ALLEY":"９７弄","HOUSE_NO":"４２號","E_COORD97":167316.23999999999,"N_COORD97":2541151.4300000002,"ADDRESS":"金華路一段３５２巷９７弄４２號","OBJECTID":173573},"geometry":{"x":167316.24000000022,"y":2541151.4299999997}},{"attributes":{"ID":173575,"DIS_CODE":0,"TOWNNAME":"南區","LI":"府南里","LIN":"1鄰","STREET":"金華路","SECT":"一段","MAREA":" ","LANE":"４８４巷","ALLEY":"３７弄","HOUSE_NO":"１０１號","E_COORD97":167152.67999999999,"N_COORD97":2541575.8700000001,"ADDRESS":"金華路一段４８４巷３７弄１０１號","OBJECTID":173574},"geometry":{"x":167152.68000000063,"y":2541575.8700000029}},{"attributes":{"ID":173576,"DIS_CODE":0,"TOWNNAME":"南區","LI":"府南里","LIN":"1鄰","STREET":"金華路","SECT":"一段","MAREA":" ","LANE":"４８４巷","ALLEY":"３７弄","HOUSE_NO":"１０號","E_COORD97":167158.17999999999,"N_COORD97":2541483.52,"ADDRESS":"金華路一段４８４巷３７弄１０號","OBJECTID":173575},"geometry":{"x":167158.18000000063,"y":2541483.5199999996}},{"attributes":{"ID":173577,"DIS_CODE":0,"TOWNNAME":"南區","LI":"府南里","LIN":"1鄰","STREET":"金華路","SECT":"一段","MAREA":" ","LANE":"４８４巷","ALLEY":"３７弄","HOUSE_NO":"１２號","E_COORD97":167162.91,"N_COORD97":2541481.4700000002,"ADDRESS":"金華路一段４８４巷３７弄１２號","OBJECTID":173576},"geometry":{"x":167162.91000000015,"y":2541481.4700000007}},{"attributes":{"ID":173578,"DIS_CODE":0,"TOWNNAME":"新營區","LI":"民權里","LIN":"10鄰","STREET":"中華路","SECT":" ","MAREA":" ","LANE":" ","ALLEY":" ","HOUSE_NO":"１５號","E_COORD97":179896.92999999999,"N_COORD97":2578225.4700000002,"ADDRESS":"中華路１５號","OBJECTID":173577},"geometry":{"x":179896.93000000063,"y":2578225.4700000025}},{"attributes":{"ID":173579,"DIS_CODE":0,"TOWNNAME":"東區","LI":"文聖里","LIN":"20鄰","STREET":"裕平路","SECT":" ","MAREA":" ","LANE":" ","ALLEY":" ","HOUSE_NO":"３７８號","E_COORD97":172784.38,"N_COORD97":2542807.6299999999,"ADDRESS":"裕平路３７８號","OBJECTID":173578},"geometry":{"x":172784.38000000082,"y":2542807.629999999}},{"attributes":{"ID":173580,"DIS_CODE":0,"TOWNNAME":"東區","LI":"文聖里","LIN":"20鄰","STREET":"裕平路","SECT":" ","MAREA":" ","LANE":" ","ALLEY":" ","HOUSE_NO":"３８０號","E_COORD97":172788.37,"N_COORD97":2542805.27,"ADDRESS":"裕平路３８０號","OBJECTID":173579},"geometry":{"x":172788.37000000104,"y":2542805.2700000014}},{"attributes":{"ID":173581,"DIS_CODE":0,"TOWNNAME":"南區","LI":"府南里","LIN":"1鄰","STREET":"金華路","SECT":"一段","MAREA":" ","LANE":"４８４巷","ALLEY":"３７弄","HOUSE_NO":"１６號","E_COORD97":167172.98999999999,"N_COORD97":2541498.2000000002,"ADDRESS":"金華路一段４８４巷３７弄１６號","OBJECTID":173580},"geometry":{"x":167172.99000000115,"y":2541498.1999999993}},{"attributes":{"ID":173582,"DIS_CODE":0,"TOWNNAME":"南區","LI":"府南里","LIN":"1鄰","STREET":"金華路","SECT":"一段","MAREA":" ","LANE":"４８４巷","ALLEY":"３７弄","HOUSE_NO":"１８號","E_COORD97":167165.85999999999,"N_COORD97":2541500.9700000002,"ADDRESS":"金華路一段４８４巷３７弄１８號","OBJECTID":173581},"geometry":{"x":167165.86000000127,"y":2541500.9700000025}},{"attributes":{"ID":173583,"DIS_CODE":0,"TOWNNAME":"南區","LI":"府南里","LIN":"1鄰","STREET":"金華路","SECT":"一段","MAREA":" ","LANE":"４８４巷","ALLEY":"３７弄","HOUSE_NO":"２０號","E_COORD97":167159.07999999999,"N_COORD97":2541502.1200000001,"ADDRESS":"金華路一段４８４巷３７弄２０號","OBJECTID":173582},"geometry":{"x":167159.08000000101,"y":2541502.1200000048}},{"attributes":{"ID":173584,"DIS_CODE":0,"TOWNNAME":"東區","LI":"文聖里","LIN":"20鄰","STREET":"裕平路","SECT":" ","MAREA":" ","LANE":" ","ALLEY":" ","HOUSE_NO":"３８２號","E_COORD97":172792.19,"N_COORD97":2542807.8100000001,"ADDRESS":"裕平路３８２號","OBJECTID":173583},"geometry":{"x":172792.19000000041,"y":2542807.8100000005}},{"attributes":{"ID":173585,"DIS_CODE":0,"TOWNNAME":"西港區","LI":"營西里","LIN":"1鄰","STREET":" ","SECT":" ","MAREA":"後營","LANE":" ","ALLEY":" ","HOUSE_NO":"５號","E_COORD97":169691.35000000001,"N_COORD97":2560058.8300000001,"ADDRESS":"後營５號","OBJECTID":173584},"geometry":{"x":169691.34999999963,"y":2560058.8300000038}},{"attributes":{"ID":173586,"DIS_CODE":0,"TOWNNAME":"新營區","LI":"太南里","LIN":"10鄰","STREET":" ","SECT":" ","MAREA":"太子宮","LANE":" ","ALLEY":" ","HOUSE_NO":"２４８號","E_COORD97":176031.09,"N_COORD97":2576863.27,"ADDRESS":"太子宮２４８號","OBJECTID":173585},"geometry":{"x":176031.09000000078,"y":2576863.2699999996}},{"attributes":{"ID":173587,"DIS_CODE":0,"TOWNNAME":"新營區","LI":"太北里","LIN":"10鄰","STREET":" ","SECT":" ","MAREA":"太子宮","LANE":" ","ALLEY":" ","HOUSE_NO":"８２號","E_COORD97":176165.07000000001,"N_COORD97":2577107.3399999999,"ADDRESS":"太子宮８２號","OBJECTID":173586},"geometry":{"x":176165.0700000003,"y":2577107.3399999999}},{"attributes":{"ID":173588,"DIS_CODE":0,"TOWNNAME":"柳營區","LI":"大農里","LIN":"10鄰","STREET":" ","SECT":" ","MAREA":"農場","LANE":" ","ALLEY":" ","HOUSE_NO":"１８號之５","E_COORD97":183282.19,"N_COORD97":2575894.8999999999,"ADDRESS":"農場１８號之５","OBJECTID":173587},"geometry":{"x":183282.19000000041,"y":2575894.9000000041}},{"attributes":{"ID":173589,"DIS_CODE":0,"TOWNNAME":"南區","LI":"文南里","LIN":"4鄰","STREET":"金華路","SECT":"二段","MAREA":" ","LANE":"２８９巷","ALLEY":"２３弄","HOUSE_NO":"１３號","E_COORD97":167038.29999999999,"N_COORD97":2542743.3399999999,"ADDRESS":"金華路二段２８９巷２３弄１３號","OBJECTID":173588},"geometry":{"x":167038.30000000075,"y":2542743.339999998}},{"attributes":{"ID":173590,"DIS_CODE":0,"TOWNNAME":"南區","LI":"興農里","LIN":"8鄰","STREET":"灣裡路","SECT":" ","MAREA":" ","LANE":"２６３巷","ALLEY":"７３弄","HOUSE_NO":"２８號","E_COORD97":166453.85000000001,"N_COORD97":2536386.6899999999,"ADDRESS":"灣裡路２６３巷７３弄２８號","OBJECTID":173589},"geometry":{"x":166453.84999999963,"y":2536386.6899999995}},{"attributes":{"ID":173591,"DIS_CODE":0,"TOWNNAME":"北區","LI":"仁愛里","LIN":"10鄰","STREET":"長榮路","SECT":"四段","MAREA":" ","LANE":" ","ALLEY":" ","HOUSE_NO":"７７號","E_COORD97":170291.17999999999,"N_COORD97":2545002.3799999999,"ADDRESS":"長榮路四段７７號","OBJECTID":173590},"geometry":{"x":170291.1799999997,"y":2545002.379999999}},{"attributes":{"ID":173592,"DIS_CODE":0,"TOWNNAME":"南區","LI":"同安里","LIN":" ","STREET":"灣裡路","SECT":" ","MAREA":" ","LANE":"３３３巷","ALLEY":"４弄","HOUSE_NO":"１０之３號","E_COORD97":166239.39999999999,"N_COORD97":2536215.7999999998,"ADDRESS":"灣裡路３３３巷４弄１０之３號","OBJECTID":173591},"geometry":{"x":166239.39999999944,"y":2536215.8000000026}},{"attributes":{"ID":173593,"DIS_CODE":0,"TOWNNAME":"南區","LI":"大忠里","LIN":"17鄰","STREET":"大同路","SECT":"二段","MAREA":" ","LANE":"６２０巷","ALLEY":"１２弄","HOUSE_NO":"１５號","E_COORD97":169466.01999999999,"N_COORD97":2541119.1400000001,"ADDRESS":"大同路二段６２０巷１２弄１５號","OBJECTID":173592},"geometry":{"x":169466.02000000048,"y":2541119.1400000025}},{"attributes":{"ID":173594,"DIS_CODE":0,"TOWNNAME":"南區","LI":"大忠里","LIN":"17鄰","STREET":"大同路","SECT":"二段","MAREA":" ","LANE":"６２０巷","ALLEY":"１２弄","HOUSE_NO":"１７號","E_COORD97":169465.07999999999,"N_COORD97":2541126.3199999998,"ADDRESS":"大同路二段６２０巷１２弄１７號","OBJECTID":173593},"geometry":{"x":169465.08000000007,"y":2541126.3200000003}},{"attributes":{"ID":173595,"DIS_CODE":0,"TOWNNAME":"南區","LI":"大忠里","LIN":"27鄰","STREET":"大同路","SECT":"二段","MAREA":" ","LANE":"４８２巷","ALLEY":"１５５弄","HOUSE_NO":"３３號","E_COORD97":169006.89999999999,"N_COORD97":2541501.6400000001,"ADDRESS":"大同路二段４８２巷１５５弄３３號","OBJECTID":173594},"geometry":{"x":169006.90000000037,"y":2541501.6400000043}},{"attributes":{"ID":173596,"DIS_CODE":0,"TOWNNAME":"南區","LI":"大忠里","LIN":"27鄰","STREET":"大同路","SECT":"二段","MAREA":" ","LANE":"４８２巷","ALLEY":"１５５弄","HOUSE_NO":"３５號","E_COORD97":169002.82999999999,"N_COORD97":2541498.2200000002,"ADDRESS":"大同路二段４８２巷１５５弄３５號","OBJECTID":173595},"geometry":{"x":169002.83000000194,"y":2541498.2200000025}},{"attributes":{"ID":173597,"DIS_CODE":0,"TOWNNAME":"南區","LI":"興農里","LIN":"4鄰","STREET":"灣裡路","SECT":" ","MAREA":" ","LANE":"２１１巷","ALLEY":"７０弄","HOUSE_NO":"１５號之１","E_COORD97":166407.45000000001,"N_COORD97":2536544.4399999999,"ADDRESS":"灣裡路２１１巷７０弄１５號之１","OBJECTID":173596},"geometry":{"x":166407.45000000112,"y":2536544.4399999995}},{"attributes":{"ID":173598,"DIS_CODE":0,"TOWNNAME":"歸仁區","LI":"歸南里","LIN":"18鄰","STREET":"民生八街","SECT":" ","MAREA":" ","LANE":"２８巷","ALLEY":"２弄","HOUSE_NO":"２２號","E_COORD97":176161.66,"N_COORD97":2540374.25,"ADDRESS":"民生八街２８巷２弄２２號","OBJECTID":173597},"geometry":{"x":176161.66000000108,"y":2540374.2499999981}},{"attributes":{"ID":173599,"DIS_CODE":0,"TOWNNAME":"歸仁區","LI":"歸南里","LIN":"18鄰","STREET":"民生八街","SECT":" ","MAREA":" ","LANE":"２８巷","ALLEY":"２弄","HOUSE_NO":"２４號","E_COORD97":176166.76000000001,"N_COORD97":2540374.25,"ADDRESS":"民生八街２８巷２弄２４號","OBJECTID":173598},"geometry":{"x":176166.76000000164,"y":2540374.2499999981}},{"attributes":{"ID":173600,"DIS_CODE":0,"TOWNNAME":"歸仁區","LI":"許厝里","LIN":"24鄰","STREET":"大仁街","SECT":" ","MAREA":" ","LANE":"１２６巷","ALLEY":"１７弄","HOUSE_NO":"２號","E_COORD97":178201.12,"N_COORD97":2540945.1099999999,"ADDRESS":"大仁街１２６巷１７弄２號","OBJECTID":173599},"geometry":{"x":178201.12000000104,"y":2540945.1100000013}},{"attributes":{"ID":173601,"DIS_CODE":0,"TOWNNAME":"歸仁區","LI":"後市里","LIN":"46鄰","STREET":"文化街","SECT":"二段","MAREA":" ","LANE":"１２１巷","ALLEY":"１２弄","HOUSE_NO":"１號","E_COORD97":177182.59,"N_COORD97":2541132.7599999998,"ADDRESS":"文化街二段１２１巷１２弄１號","OBJECTID":173600},"geometry":{"x":177182.59000000078,"y":2541132.7599999998}}]}