{"displayFieldName":"TOWNNAME","fieldAliases":{"ID":"ID","DIS_CODE":"DIS_CODE","TOWNNAME":"TOWNNAME","LI":"LI","LIN":"LIN","STREET":"STREET","SECT":"SECT","MAREA":"MAREA","LANE":"LANE","ALLEY":"ALLEY","HOUSE_NO":"HOUSE_NO","E_COORD97":"E_COORD97","N_COORD97":"N_COORD97","ADDRESS":"ADDRESS","OBJECTID":"OBJECTID"},"geometryType":"esriGeometryPoint","spatialReference":{"wkid":102443,"latestWkid":3826},"fields":[{"name":"ID","type":"esriFieldTypeDouble","alias":"ID"},{"name":"DIS_CODE","type":"esriFieldTypeInteger","alias":"DIS_CODE"},{"name":"TOWNNAME","type":"esriFieldTypeString","alias":"TOWNNAME","length":8},{"name":"LI","type":"esriFieldTypeString","alias":"LI","length":8},{"name":"LIN","type":"esriFieldTypeString","alias":"LIN","length":12},{"name":"STREET","type":"esriFieldTypeString","alias":"STREET","length":20},{"name":"SECT","type":"esriFieldTypeString","alias":"SECT","length":8},{"name":"MAREA","type":"esriFieldTypeString","alias":"MAREA","length":12},{"name":"LANE","type":"esriFieldTypeString","alias":"LANE","length":10},{"name":"ALLEY","type":"esriFieldTypeString","alias":"ALLEY","length":10},{"name":"HOUSE_NO","type":"esriFieldTypeString","alias":"HOUSE_NO","length":20},{"name":"E_COORD97","type":"esriFieldTypeDouble","alias":"E_COORD97"},{"name":"N_COORD97","type":"esriFieldTypeDouble","alias":"N_COORD97"},{"name":"ADDRESS","type":"esriFieldTypeString","alias":"ADDRESS","length":50},{"name":"OBJECTID","type":"esriFieldTypeOID","alias":"OBJECTID"}],"features":[{"attributes":{"ID":142201,"DIS_CODE":0,"TOWNNAME":"山上區","LI":"明和里","LIN":" ","STREET":" ","SECT":" ","MAREA":"明和","LANE":" ","ALLEY":" ","HOUSE_NO":"１５４之４號","E_COORD97":183286.23999999999,"N_COORD97":2556130.2999999998,"ADDRESS":"明和１５４之４號","OBJECTID":142201},"geometry":{"x":183286.24000000115,"y":2556130.3000000045}},{"attributes":{"ID":142202,"DIS_CODE":0,"TOWNNAME":"永康區","LI":"勝利里","LIN":"25鄰","STREET":"中華路","SECT":" ","MAREA":" ","LANE":"１５５巷","ALLEY":"３４弄","HOUSE_NO":"８號","E_COORD97":171451.10000000001,"N_COORD97":2544844.7400000002,"ADDRESS":"中華路１５５巷３４弄８號","OBJECTID":142202},"geometry":{"x":171451.09999999963,"y":2544844.7400000021}},{"attributes":{"ID":142203,"DIS_CODE":0,"TOWNNAME":"山上區","LI":"南洲里","LIN":"2鄰","STREET":" ","SECT":" ","MAREA":"南洲","LANE":" ","ALLEY":" ","HOUSE_NO":"１３５號","E_COORD97":183778.58405599999,"N_COORD97":2555788.53828,"ADDRESS":"南洲１３５號","OBJECTID":142203},"geometry":{"x":183778.58405600116,"y":2555788.5382819995}},{"attributes":{"ID":142204,"DIS_CODE":0,"TOWNNAME":"永康區","LI":"烏竹里","LIN":"16鄰","STREET":"自強路","SECT":" ","MAREA":" ","LANE":"９２５巷","ALLEY":"１１弄","HOUSE_NO":"２５號","E_COORD97":174698.03,"N_COORD97":2548831.5,"ADDRESS":"自強路９２５巷１１弄２５號","OBJECTID":142204},"geometry":{"x":174698.03000000119,"y":2548831.5}},{"attributes":{"ID":142205,"DIS_CODE":0,"TOWNNAME":"永康區","LI":"北灣里","LIN":"22鄰","STREET":"大灣路","SECT":" ","MAREA":" ","LANE":"４０巷","ALLEY":"９８弄","HOUSE_NO":"４０號","E_COORD97":175027.56,"N_COORD97":2546261.3900000001,"ADDRESS":"大灣路４０巷９８弄４０號","OBJECTID":142205},"geometry":{"x":175027.56000000052,"y":2546261.3900000025}},{"attributes":{"ID":142206,"DIS_CODE":0,"TOWNNAME":"永康區","LI":"大橋里","LIN":"22鄰","STREET":"大橋一街","SECT":" ","MAREA":" ","LANE":"１３９巷","ALLEY":"２２弄","HOUSE_NO":"２２號","E_COORD97":171065.12,"N_COORD97":2546582.9500000002,"ADDRESS":"大橋一街１３９巷２２弄２２號","OBJECTID":142206},"geometry":{"x":171065.12000000011,"y":2546582.9499999993}},{"attributes":{"ID":142207,"DIS_CODE":0,"TOWNNAME":"永康區","LI":"勝利里","LIN":"22鄰","STREET":"勝華街","SECT":" ","MAREA":" ","LANE":"３７巷","ALLEY":"３７弄","HOUSE_NO":"３７號","E_COORD97":171505.06,"N_COORD97":2545177.7599999998,"ADDRESS":"勝華街３７巷３７弄３７號","OBJECTID":142207},"geometry":{"x":171505.06000000052,"y":2545177.7599999998}},{"attributes":{"ID":142208,"DIS_CODE":0,"TOWNNAME":"永康區","LI":"勝利里","LIN":"22鄰","STREET":"勝華街","SECT":" ","MAREA":" ","LANE":"３７巷","ALLEY":"３７弄","HOUSE_NO":"２９號","E_COORD97":171489.26000000001,"N_COORD97":2545183.2599999998,"ADDRESS":"勝華街３７巷３７弄２９號","OBJECTID":142208},"geometry":{"x":171489.25999999978,"y":2545183.2600000016}},{"attributes":{"ID":142209,"DIS_CODE":0,"TOWNNAME":"山上區","LI":"南洲里","LIN":" ","STREET":" ","SECT":" ","MAREA":"南洲","LANE":" ","ALLEY":" ","HOUSE_NO":"３２７之５號","E_COORD97":183605.44,"N_COORD97":2555942.2999999998,"ADDRESS":"南洲３２７之５號","OBJECTID":142209},"geometry":{"x":183605.44000000134,"y":2555942.3000000007}},{"attributes":{"ID":142210,"DIS_CODE":0,"TOWNNAME":"永康區","LI":"勝利里","LIN":"25鄰","STREET":"中華路","SECT":" ","MAREA":" ","LANE":"１５５巷","ALLEY":"３４弄","HOUSE_NO":"２５號","E_COORD97":171455.45000000001,"N_COORD97":2544789.6600000001,"ADDRESS":"中華路１５５巷３４弄２５號","OBJECTID":142210},"geometry":{"x":171455.45000000112,"y":2544789.6600000039}},{"attributes":{"ID":142211,"DIS_CODE":0,"TOWNNAME":"永康區","LI":"崑山里","LIN":"43鄰","STREET":"大灣路","SECT":" ","MAREA":" ","LANE":"９４２巷","ALLEY":"３７１弄","HOUSE_NO":"３７號之１","E_COORD97":173677.63,"N_COORD97":2545186.4500000002,"ADDRESS":"大灣路９４２巷３７１弄３７號之１","OBJECTID":142211},"geometry":{"x":173677.63000000175,"y":2545186.4499999974}},{"attributes":{"ID":142212,"DIS_CODE":0,"TOWNNAME":"永康區","LI":"神洲里","LIN":"13鄰","STREET":"忠孝路","SECT":" ","MAREA":" ","LANE":"７６巷","ALLEY":"６３弄","HOUSE_NO":"１１號","E_COORD97":172253.69,"N_COORD97":2544983.5800000001,"ADDRESS":"忠孝路７６巷６３弄１１號","OBJECTID":142212},"geometry":{"x":172253.68999999948,"y":2544983.5800000019}},{"attributes":{"ID":142213,"DIS_CODE":0,"TOWNNAME":"永康區","LI":"崑山里","LIN":"10鄰","STREET":"崑大路","SECT":" ","MAREA":" ","LANE":"２０１巷","ALLEY":"１８弄","HOUSE_NO":"５０號","E_COORD97":173195.64000000001,"N_COORD97":2544257.5,"ADDRESS":"崑大路２０１巷１８弄５０號","OBJECTID":142213},"geometry":{"x":173195.63999999966,"y":2544257.5}},{"attributes":{"ID":142214,"DIS_CODE":0,"TOWNNAME":"東區","LI":"莊敬里","LIN":"22鄰","STREET":"莊敬路","SECT":" ","MAREA":" ","LANE":"１１６巷","ALLEY":"１弄","HOUSE_NO":"２號之１","E_COORD97":171413.85000000001,"N_COORD97":2543997.8700000001,"ADDRESS":"莊敬路１１６巷１弄２號之１","OBJECTID":142214},"geometry":{"x":171413.84999999963,"y":2543997.870000001}},{"attributes":{"ID":142215,"DIS_CODE":0,"TOWNNAME":"永康區","LI":"崑山里","LIN":"29鄰","STREET":"大灣路","SECT":" ","MAREA":" ","LANE":"９４２巷","ALLEY":"１１２弄","HOUSE_NO":"１９號","E_COORD97":173797.51000000001,"N_COORD97":2544768.1899999999,"ADDRESS":"大灣路９４２巷１１２弄１９號","OBJECTID":142215},"geometry":{"x":173797.51000000071,"y":2544768.1900000032}},{"attributes":{"ID":142216,"DIS_CODE":0,"TOWNNAME":"永康區","LI":"崑山里","LIN":"6鄰","STREET":"崑大路","SECT":" ","MAREA":" ","LANE":"１５５巷","ALLEY":"８５弄","HOUSE_NO":"７號","E_COORD97":173654.09,"N_COORD97":2544040.4300000002,"ADDRESS":"崑大路１５５巷８５弄７號","OBJECTID":142216},"geometry":{"x":173654.09000000171,"y":2544040.4299999997}},{"attributes":{"ID":142217,"DIS_CODE":0,"TOWNNAME":"下營區","LI":"仁里里","LIN":"5鄰","STREET":"仁中街","SECT":" ","MAREA":" ","LANE":"４３巷","ALLEY":"１３弄","HOUSE_NO":"３２號","E_COORD97":174485.38608600001,"N_COORD97":2569765.4539399999,"ADDRESS":"仁中街４３巷１３弄３２號","OBJECTID":142217},"geometry":{"x":174485.38608600013,"y":2569765.4539420009}},{"attributes":{"ID":142218,"DIS_CODE":0,"TOWNNAME":"南區","LI":"明興里","LIN":"10鄰","STREET":"金華路","SECT":"一段","MAREA":" ","LANE":" ","ALLEY":" ","HOUSE_NO":"１０４號","E_COORD97":166915.76999999999,"N_COORD97":2540507.5299999998,"ADDRESS":"金華路一段１０４號","OBJECTID":142218},"geometry":{"x":166915.76999999862,"y":2540507.5300000031}},{"attributes":{"ID":142219,"DIS_CODE":0,"TOWNNAME":"永康區","LI":"崑山里","LIN":"7鄰","STREET":"崑大路","SECT":" ","MAREA":" ","LANE":"１５５巷","ALLEY":"５８弄","HOUSE_NO":"５１號","E_COORD97":173466.60999999999,"N_COORD97":2543825,"ADDRESS":"崑大路１５５巷５８弄５１號","OBJECTID":142219},"geometry":{"x":173466.61000000127,"y":2543825.0000000019}},{"attributes":{"ID":142220,"DIS_CODE":0,"TOWNNAME":"永康區","LI":"復興里","LIN":"22鄰","STREET":"復興路","SECT":" ","MAREA":" ","LANE":"２４６巷","ALLEY":"１１弄","HOUSE_NO":"１２號","E_COORD97":172375.35000000001,"N_COORD97":2544435.27,"ADDRESS":"復興路２４６巷１１弄１２號","OBJECTID":142220},"geometry":{"x":172375.34999999963,"y":2544435.2699999996}},{"attributes":{"ID":142221,"DIS_CODE":0,"TOWNNAME":"永康區","LI":"復興里","LIN":"22鄰","STREET":"復興路","SECT":" ","MAREA":" ","LANE":"２４６巷","ALLEY":"２７弄","HOUSE_NO":"１５號","E_COORD97":172363.78,"N_COORD97":2544473.6699999999,"ADDRESS":"復興路２４６巷２７弄１５號","OBJECTID":142221},"geometry":{"x":172363.78000000119,"y":2544473.6699999981}},{"attributes":{"ID":142222,"DIS_CODE":0,"TOWNNAME":"安南區","LI":"安順里","LIN":"22鄰","STREET":"總安街","SECT":"一段","MAREA":" ","LANE":"１４６巷","ALLEY":"１３弄","HOUSE_NO":"１號","E_COORD97":169575.81,"N_COORD97":2550259.75,"ADDRESS":"總安街一段１４６巷１３弄１號","OBJECTID":142222},"geometry":{"x":169575.81000000052,"y":2550259.75}},{"attributes":{"ID":142223,"DIS_CODE":0,"TOWNNAME":"安南區","LI":"安順里","LIN":"22鄰","STREET":"總安街","SECT":"一段","MAREA":" ","LANE":"１４６巷","ALLEY":"１３弄","HOUSE_NO":"９號","E_COORD97":169558.70000000001,"N_COORD97":2550261.6600000001,"ADDRESS":"總安街一段１４６巷１３弄９號","OBJECTID":142223},"geometry":{"x":169558.70000000112,"y":2550261.6600000039}},{"attributes":{"ID":142224,"DIS_CODE":0,"TOWNNAME":"安南區","LI":"安慶里","LIN":"22鄰","STREET":"安中路","SECT":"一段","MAREA":" ","LANE":"１８９巷","ALLEY":"８５弄","HOUSE_NO":"１９號","E_COORD97":168835.76000000001,"N_COORD97":2548285.7400000002,"ADDRESS":"安中路一段１８９巷８５弄１９號","OBJECTID":142224},"geometry":{"x":168835.76000000071,"y":2548285.7400000021}},{"attributes":{"ID":142225,"DIS_CODE":0,"TOWNNAME":"南區","LI":"明興里","LIN":" ","STREET":"金華路","SECT":"一段","MAREA":" ","LANE":" ","ALLEY":" ","HOUSE_NO":"１２６號","E_COORD97":166927.14000000001,"N_COORD97":2540564.9199999999,"ADDRESS":"金華路一段１２６號","OBJECTID":142225},"geometry":{"x":166927.14000000153,"y":2540564.9199999999}},{"attributes":{"ID":142226,"DIS_CODE":0,"TOWNNAME":"南區","LI":"明興里","LIN":" ","STREET":"金華路","SECT":"一段","MAREA":" ","LANE":" ","ALLEY":" ","HOUSE_NO":"１２４號","E_COORD97":166926.97,"N_COORD97":2540560.6800000002,"ADDRESS":"金華路一段１２４號","OBJECTID":142226},"geometry":{"x":166926.97000000067,"y":2540560.6799999997}},{"attributes":{"ID":142227,"DIS_CODE":0,"TOWNNAME":"安南區","LI":"州北里","LIN":"22鄰","STREET":"安和路","SECT":"五段","MAREA":" ","LANE":"３２５巷","ALLEY":"１弄","HOUSE_NO":"４號","E_COORD97":169670.04000000001,"N_COORD97":2552110.6600000001,"ADDRESS":"安和路五段３２５巷１弄４號","OBJECTID":142227},"geometry":{"x":169670.04000000097,"y":2552110.660000002}},{"attributes":{"ID":142228,"DIS_CODE":0,"TOWNNAME":"安南區","LI":"州北里","LIN":"22鄰","STREET":"安和路","SECT":"五段","MAREA":" ","LANE":"３２５巷","ALLEY":"１弄","HOUSE_NO":"５號","E_COORD97":169673,"N_COORD97":2552103.6600000001,"ADDRESS":"安和路五段３２５巷１弄５號","OBJECTID":142228},"geometry":{"x":169673.00000000093,"y":2552103.660000002}},{"attributes":{"ID":142229,"DIS_CODE":0,"TOWNNAME":"安南區","LI":"州北里","LIN":"22鄰","STREET":"安和路","SECT":"五段","MAREA":" ","LANE":"３２５巷","ALLEY":"１弄","HOUSE_NO":"６號","E_COORD97":169676.12,"N_COORD97":2552096.96,"ADDRESS":"安和路五段３２５巷１弄６號","OBJECTID":142229},"geometry":{"x":169676.12000000104,"y":2552096.9600000009}},{"attributes":{"ID":142230,"DIS_CODE":0,"TOWNNAME":"安南區","LI":"州北里","LIN":"22鄰","STREET":"安和路","SECT":"五段","MAREA":" ","LANE":"３２５巷","ALLEY":"１弄","HOUSE_NO":"８號","E_COORD97":169681.41,"N_COORD97":2552082.4900000002,"ADDRESS":"安和路五段３２５巷１弄８號","OBJECTID":142230},"geometry":{"x":169681.41000000015,"y":2552082.4900000002}},{"attributes":{"ID":142231,"DIS_CODE":0,"TOWNNAME":"安南區","LI":"州北里","LIN":"22鄰","STREET":"安和路","SECT":"五段","MAREA":" ","LANE":"３２５巷","ALLEY":"１弄","HOUSE_NO":"９號","E_COORD97":169684.53,"N_COORD97":2552076.1099999999,"ADDRESS":"安和路五段３２５巷１弄９號","OBJECTID":142231},"geometry":{"x":169684.53000000026,"y":2552076.1100000013}},{"attributes":{"ID":142232,"DIS_CODE":0,"TOWNNAME":"安南區","LI":"州北里","LIN":"22鄰","STREET":"安和路","SECT":"五段","MAREA":" ","LANE":"２６９巷","ALLEY":"２１弄","HOUSE_NO":"８號","E_COORD97":169572.23999999999,"N_COORD97":2551934.6200000001,"ADDRESS":"安和路五段２６９巷２１弄８號","OBJECTID":142232},"geometry":{"x":169572.24000000115,"y":2551934.6200000029}},{"attributes":{"ID":142233,"DIS_CODE":0,"TOWNNAME":"山上區","LI":"南洲里","LIN":" ","STREET":" ","SECT":" ","MAREA":"南洲","LANE":" ","ALLEY":" ","HOUSE_NO":"３２７之７號","E_COORD97":183599.23999999999,"N_COORD97":2555948.2999999998,"ADDRESS":"南洲３２７之７號","OBJECTID":142233},"geometry":{"x":183599.24000000209,"y":2555948.3000000026}},{"attributes":{"ID":142234,"DIS_CODE":0,"TOWNNAME":"安南區","LI":"州北里","LIN":"22鄰","STREET":"安和路","SECT":"五段","MAREA":" ","LANE":"２６９巷","ALLEY":"２１弄","HOUSE_NO":"１４號","E_COORD97":169569.82999999999,"N_COORD97":2551918.1200000001,"ADDRESS":"安和路五段２６９巷２１弄１４號","OBJECTID":142234},"geometry":{"x":169569.83000000101,"y":2551918.1200000029}},{"attributes":{"ID":142235,"DIS_CODE":0,"TOWNNAME":"安南區","LI":"州北里","LIN":"22鄰","STREET":"安和路","SECT":"五段","MAREA":" ","LANE":"２６９巷","ALLEY":"２１弄","HOUSE_NO":"１５號","E_COORD97":169604.51000000001,"N_COORD97":2551928.6099999999,"ADDRESS":"安和路五段２６９巷２１弄１５號","OBJECTID":142235},"geometry":{"x":169604.50999999978,"y":2551928.6099999994}},{"attributes":{"ID":142236,"DIS_CODE":0,"TOWNNAME":"永康區","LI":"神洲里","LIN":"9鄰","STREET":"忠孝路","SECT":" ","MAREA":" ","LANE":"６巷","ALLEY":"３７弄","HOUSE_NO":"９號","E_COORD97":172293.48999999999,"N_COORD97":2544567.75,"ADDRESS":"忠孝路６巷３７弄９號","OBJECTID":142236},"geometry":{"x":172293.49000000022,"y":2544567.75}},{"attributes":{"ID":142237,"DIS_CODE":0,"TOWNNAME":"永康區","LI":"埔園里","LIN":"29鄰","STREET":"埔園街","SECT":" ","MAREA":" ","LANE":"１４７巷","ALLEY":"６弄","HOUSE_NO":"１９號","E_COORD97":173825.14999999999,"N_COORD97":2548190.8399999999,"ADDRESS":"埔園街１４７巷６弄１９號","OBJECTID":142237},"geometry":{"x":173825.15000000037,"y":2548190.8399999999}},{"attributes":{"ID":142238,"DIS_CODE":0,"TOWNNAME":"安南區","LI":"州北里","LIN":"22鄰","STREET":"安和路","SECT":"五段","MAREA":" ","LANE":"２６９巷","ALLEY":"１３弄","HOUSE_NO":"１號","E_COORD97":169700.07000000001,"N_COORD97":2551990.79,"ADDRESS":"安和路五段２６９巷１３弄１號","OBJECTID":142238},"geometry":{"x":169700.07000000123,"y":2551990.7899999991}},{"attributes":{"ID":142239,"DIS_CODE":0,"TOWNNAME":"南區","LI":"松安里","LIN":" ","STREET":"灣裡路","SECT":" ","MAREA":" ","LANE":" ","ALLEY":" ","HOUSE_NO":"４３４號","E_COORD97":166212.42000000001,"N_COORD97":2536079.4900000002,"ADDRESS":"灣裡路４３４號","OBJECTID":142239},"geometry":{"x":166212.42000000086,"y":2536079.4900000002}},{"attributes":{"ID":142240,"DIS_CODE":0,"TOWNNAME":"仁德區","LI":"中洲里","LIN":"15鄰","STREET":" ","SECT":" ","MAREA":"中洲","LANE":" ","ALLEY":" ","HOUSE_NO":"３８３號","E_COORD97":173362.63,"N_COORD97":2534241.9900000002,"ADDRESS":"中洲３８３號","OBJECTID":142240},"geometry":{"x":173362.63000000082,"y":2534241.9900000002}},{"attributes":{"ID":142241,"DIS_CODE":0,"TOWNNAME":"安南區","LI":"安富里","LIN":"22鄰","STREET":"郡安路","SECT":"五段","MAREA":" ","LANE":"１６４巷","ALLEY":"９弄","HOUSE_NO":"１２號","E_COORD97":167712.89999999999,"N_COORD97":2547585.0299999998,"ADDRESS":"郡安路五段１６４巷９弄１２號","OBJECTID":142241},"geometry":{"x":167712.9000000013,"y":2547585.0299999993}},{"attributes":{"ID":142242,"DIS_CODE":0,"TOWNNAME":"安南區","LI":"安富里","LIN":"22鄰","STREET":"郡安路","SECT":"五段","MAREA":" ","LANE":"１６４巷","ALLEY":"１０弄","HOUSE_NO":"２０號","E_COORD97":167585.06,"N_COORD97":2547578.96,"ADDRESS":"郡安路五段１６４巷１０弄２０號","OBJECTID":142242},"geometry":{"x":167585.05999999959,"y":2547578.9600000028}},{"attributes":{"ID":142243,"DIS_CODE":0,"TOWNNAME":"安南區","LI":"長安里","LIN":"22鄰","STREET":"公學路","SECT":"二段","MAREA":" ","LANE":"９巷","ALLEY":"２弄","HOUSE_NO":"３５號","E_COORD97":167834.82000000001,"N_COORD97":2552472.3700000001,"ADDRESS":"公學路二段９巷２弄３５號","OBJECTID":142243},"geometry":{"x":167834.8200000003,"y":2552472.3700000029}},{"attributes":{"ID":142244,"DIS_CODE":0,"TOWNNAME":"安南區","LI":"安富里","LIN":"22鄰","STREET":"郡安路","SECT":"五段","MAREA":" ","LANE":"１６４巷","ALLEY":"９弄","HOUSE_NO":"２０號","E_COORD97":167739.73999999999,"N_COORD97":2547587.77,"ADDRESS":"郡安路五段１６４巷９弄２０號","OBJECTID":142244},"geometry":{"x":167739.74000000115,"y":2547587.7699999996}},{"attributes":{"ID":142245,"DIS_CODE":0,"TOWNNAME":"山上區","LI":"南洲里","LIN":" ","STREET":" ","SECT":" ","MAREA":"南洲","LANE":" ","ALLEY":" ","HOUSE_NO":"１０６號","E_COORD97":183914.14000000001,"N_COORD97":2555744.25,"ADDRESS":"南洲１０６號","OBJECTID":142245},"geometry":{"x":183914.13999999966,"y":2555744.2500000019}},{"attributes":{"ID":142246,"DIS_CODE":0,"TOWNNAME":"山上區","LI":"新莊里","LIN":" ","STREET":" ","SECT":" ","MAREA":"新庄","LANE":" ","ALLEY":" ","HOUSE_NO":"５４之２號","E_COORD97":184899.16,"N_COORD97":2555302.2999999998,"ADDRESS":"新庄５４之２號","OBJECTID":142246},"geometry":{"x":184899.16000000015,"y":2555302.3000000007}},{"attributes":{"ID":142247,"DIS_CODE":0,"TOWNNAME":"山上區","LI":"南洲里","LIN":"2鄰","STREET":" ","SECT":" ","MAREA":"南洲","LANE":" ","ALLEY":" ","HOUSE_NO":"１３７號","E_COORD97":183769.26167599999,"N_COORD97":2555794.8882800001,"ADDRESS":"南洲１３７號","OBJECTID":142247},"geometry":{"x":183769.26167600136,"y":2555794.8882780038}},{"attributes":{"ID":142248,"DIS_CODE":0,"TOWNNAME":"山上區","LI":"新莊里","LIN":" ","STREET":" ","SECT":" ","MAREA":"新庄","LANE":" ","ALLEY":" ","HOUSE_NO":"４９號","E_COORD97":184855.45999999999,"N_COORD97":2555297.25,"ADDRESS":"新庄４９號","OBJECTID":142248},"geometry":{"x":184855.46000000089,"y":2555297.2500000019}},{"attributes":{"ID":142249,"DIS_CODE":0,"TOWNNAME":"安南區","LI":"安富里","LIN":"22鄰","STREET":"郡安路","SECT":"五段","MAREA":" ","LANE":"１６４巷","ALLEY":"１０弄","HOUSE_NO":"１４號","E_COORD97":167607.82999999999,"N_COORD97":2547583.21,"ADDRESS":"郡安路五段１６４巷１０弄１４號","OBJECTID":142249},"geometry":{"x":167607.83000000101,"y":2547583.2100000009}},{"attributes":{"ID":142250,"DIS_CODE":0,"TOWNNAME":"山上區","LI":"南洲里","LIN":" ","STREET":" ","SECT":" ","MAREA":"南洲","LANE":" ","ALLEY":" ","HOUSE_NO":"６８號","E_COORD97":183878.79000000001,"N_COORD97":2555718.25,"ADDRESS":"南洲６８號","OBJECTID":142250},"geometry":{"x":183878.79000000097,"y":2555718.25}},{"attributes":{"ID":142251,"DIS_CODE":0,"TOWNNAME":"安南區","LI":"安富里","LIN":"22鄰","STREET":"郡安路","SECT":"五段","MAREA":" ","LANE":"１６４巷","ALLEY":"１０弄","HOUSE_NO":"１３號","E_COORD97":167611.57999999999,"N_COORD97":2547563.1800000002,"ADDRESS":"郡安路五段１６４巷１０弄１３號","OBJECTID":142251},"geometry":{"x":167611.58000000101,"y":2547563.1800000016}},{"attributes":{"ID":142252,"DIS_CODE":0,"TOWNNAME":"永康區","LI":"勝利里","LIN":"25鄰","STREET":"中華路","SECT":" ","MAREA":" ","LANE":"１５５巷","ALLEY":"３４弄","HOUSE_NO":"２０號","E_COORD97":171446.22,"N_COORD97":2544809.2400000002,"ADDRESS":"中華路１５５巷３４弄２０號","OBJECTID":142252},"geometry":{"x":171446.22000000067,"y":2544809.2399999984}},{"attributes":{"ID":142253,"DIS_CODE":0,"TOWNNAME":"永康區","LI":"勝利里","LIN":"16鄰","STREET":"勝利街","SECT":" ","MAREA":" ","LANE":"１０７巷","ALLEY":"６３弄","HOUSE_NO":"１號","E_COORD97":171196.54000000001,"N_COORD97":2544925.25,"ADDRESS":"勝利街１０７巷６３弄１號","OBJECTID":142253},"geometry":{"x":171196.5400000019,"y":2544925.2500000019}},{"attributes":{"ID":142254,"DIS_CODE":0,"TOWNNAME":"永康區","LI":"五王里","LIN":"33鄰","STREET":"五福街","SECT":" ","MAREA":" ","LANE":" ","ALLEY":" ","HOUSE_NO":"２１號二樓之１３","E_COORD97":171309.98999999999,"N_COORD97":2545881.79,"ADDRESS":"五福街２１號二樓之１３","OBJECTID":142254},"geometry":{"x":171309.99000000022,"y":2545881.7899999991}},{"attributes":{"ID":142255,"DIS_CODE":0,"TOWNNAME":"永康區","LI":"五王里","LIN":"33鄰","STREET":"五福街","SECT":" ","MAREA":" ","LANE":" ","ALLEY":" ","HOUSE_NO":"２１號四樓之１３","E_COORD97":171309.98999999999,"N_COORD97":2545881.79,"ADDRESS":"五福街２１號四樓之１３","OBJECTID":142255},"geometry":{"x":171309.99000000022,"y":2545881.7899999991}},{"attributes":{"ID":142256,"DIS_CODE":0,"TOWNNAME":"永康區","LI":"五王里","LIN":"33鄰","STREET":"五福街","SECT":" ","MAREA":" ","LANE":" ","ALLEY":" ","HOUSE_NO":"２１號五樓之３","E_COORD97":171308.73999999999,"N_COORD97":2545881.79,"ADDRESS":"五福街２１號五樓之３","OBJECTID":142256},"geometry":{"x":171308.74000000022,"y":2545881.7899999991}},{"attributes":{"ID":142257,"DIS_CODE":0,"TOWNNAME":"山上區","LI":"南洲里","LIN":" ","STREET":" ","SECT":" ","MAREA":"南洲","LANE":" ","ALLEY":" ","HOUSE_NO":"１３０之１１號","E_COORD97":183829.69,"N_COORD97":2555790.2999999998,"ADDRESS":"南洲１３０之１１號","OBJECTID":142257},"geometry":{"x":183829.69000000041,"y":2555790.3000000007}},{"attributes":{"ID":142258,"DIS_CODE":0,"TOWNNAME":"山上區","LI":"南洲里","LIN":" ","STREET":" ","SECT":" ","MAREA":"南洲","LANE":" ","ALLEY":" ","HOUSE_NO":"８之３４號","E_COORD97":183986.09,"N_COORD97":2555263.2999999998,"ADDRESS":"南洲８之３４號","OBJECTID":142258},"geometry":{"x":183986.08999999985,"y":2555263.3000000026}},{"attributes":{"ID":142259,"DIS_CODE":0,"TOWNNAME":"永康區","LI":"五王里","LIN":"33鄰","STREET":"五福街","SECT":" ","MAREA":" ","LANE":" ","ALLEY":" ","HOUSE_NO":"２１號三樓之７","E_COORD97":171308.72,"N_COORD97":2545881.79,"ADDRESS":"五福街２１號三樓之７","OBJECTID":142259},"geometry":{"x":171308.7200000016,"y":2545881.7899999991}},{"attributes":{"ID":142260,"DIS_CODE":0,"TOWNNAME":"山上區","LI":"南洲里","LIN":" ","STREET":" ","SECT":" ","MAREA":"南洲","LANE":" ","ALLEY":" ","HOUSE_NO":"４號","E_COORD97":183946.44,"N_COORD97":2555527.25,"ADDRESS":"南洲４號","OBJECTID":142260},"geometry":{"x":183946.44000000041,"y":2555527.2500000019}},{"attributes":{"ID":142261,"DIS_CODE":0,"TOWNNAME":"山上區","LI":"南洲里","LIN":" ","STREET":" ","SECT":" ","MAREA":"南洲","LANE":" ","ALLEY":" ","HOUSE_NO":"３０７之１號","E_COORD97":183722.64000000001,"N_COORD97":2555804.2999999998,"ADDRESS":"南洲３０７之１號","OBJECTID":142261},"geometry":{"x":183722.63999999966,"y":2555804.2999999989}},{"attributes":{"ID":142262,"DIS_CODE":0,"TOWNNAME":"山上區","LI":"新莊里","LIN":" ","STREET":" ","SECT":" ","MAREA":"新庄","LANE":" ","ALLEY":" ","HOUSE_NO":"３６號","E_COORD97":184890.45999999999,"N_COORD97":2555317.25,"ADDRESS":"新庄３６號","OBJECTID":142262},"geometry":{"x":184890.45999999996,"y":2555317.2500000019}},{"attributes":{"ID":142263,"DIS_CODE":0,"TOWNNAME":"山上區","LI":"南洲里","LIN":" ","STREET":" ","SECT":" ","MAREA":"南洲","LANE":" ","ALLEY":" ","HOUSE_NO":"３３８號","E_COORD97":183642.64000000001,"N_COORD97":2555823.25,"ADDRESS":"南洲３３８號","OBJECTID":142263},"geometry":{"x":183642.63999999966,"y":2555823.25}},{"attributes":{"ID":142264,"DIS_CODE":0,"TOWNNAME":"山上區","LI":"南洲里","LIN":" ","STREET":" ","SECT":" ","MAREA":"南洲","LANE":" ","ALLEY":" ","HOUSE_NO":"１３０之１８號","E_COORD97":183835.89000000001,"N_COORD97":2555800.2999999998,"ADDRESS":"南洲１３０之１８號","OBJECTID":142264},"geometry":{"x":183835.88999999966,"y":2555800.3000000007}},{"attributes":{"ID":142265,"DIS_CODE":0,"TOWNNAME":"山上區","LI":"南洲里","LIN":" ","STREET":" ","SECT":" ","MAREA":"南洲","LANE":" ","ALLEY":" ","HOUSE_NO":"９４號","E_COORD97":183918.98999999999,"N_COORD97":2555770.2400000002,"ADDRESS":"南洲９４號","OBJECTID":142265},"geometry":{"x":183918.99000000022,"y":2555770.2400000002}},{"attributes":{"ID":142266,"DIS_CODE":0,"TOWNNAME":"山上區","LI":"新莊里","LIN":"5鄰","STREET":" ","SECT":" ","MAREA":"新庄","LANE":" ","ALLEY":" ","HOUSE_NO":"５８之６號","E_COORD97":184664.38801,"N_COORD97":2555020.69105,"ADDRESS":"新庄５８之６號","OBJECTID":142266},"geometry":{"x":184664.38800999988,"y":2555020.6910530012}},{"attributes":{"ID":142267,"DIS_CODE":0,"TOWNNAME":"山上區","LI":"新莊里","LIN":" ","STREET":" ","SECT":" ","MAREA":"大庄","LANE":" ","ALLEY":" ","HOUSE_NO":"６之１號","E_COORD97":183913.10999999999,"N_COORD97":2554895.2999999998,"ADDRESS":"大庄６之１號","OBJECTID":142267},"geometry":{"x":183913.11000000034,"y":2554895.3000000007}},{"attributes":{"ID":142268,"DIS_CODE":0,"TOWNNAME":"山上區","LI":"南洲里","LIN":" ","STREET":" ","SECT":" ","MAREA":"南洲","LANE":" ","ALLEY":" ","HOUSE_NO":"１０８號","E_COORD97":183921.64000000001,"N_COORD97":2555747.25,"ADDRESS":"南洲１０８號","OBJECTID":142268},"geometry":{"x":183921.6400000006,"y":2555747.2500000019}},{"attributes":{"ID":142269,"DIS_CODE":0,"TOWNNAME":"山上區","LI":"南洲里","LIN":" ","STREET":" ","SECT":" ","MAREA":"南洲","LANE":" ","ALLEY":" ","HOUSE_NO":"９９號","E_COORD97":183887.79000000001,"N_COORD97":2555759.25,"ADDRESS":"南洲９９號","OBJECTID":142269},"geometry":{"x":183887.79000000004,"y":2555759.25}},{"attributes":{"ID":142270,"DIS_CODE":0,"TOWNNAME":"山上區","LI":"新莊里","LIN":" ","STREET":" ","SECT":" ","MAREA":"新庄","LANE":" ","ALLEY":" ","HOUSE_NO":"３７號","E_COORD97":184881.45999999999,"N_COORD97":2555319.25,"ADDRESS":"新庄３７號","OBJECTID":142270},"geometry":{"x":184881.46000000089,"y":2555319.2500000037}},{"attributes":{"ID":142271,"DIS_CODE":0,"TOWNNAME":"仁德區","LI":"中洲里","LIN":"1鄰","STREET":" ","SECT":" ","MAREA":"中洲","LANE":" ","ALLEY":" ","HOUSE_NO":"４號之８","E_COORD97":173498.79000000001,"N_COORD97":2534346.79,"ADDRESS":"中洲４號之８","OBJECTID":142271},"geometry":{"x":173498.7900000019,"y":2534346.790000001}},{"attributes":{"ID":142272,"DIS_CODE":0,"TOWNNAME":"山上區","LI":"南洲里","LIN":" ","STREET":" ","SECT":" ","MAREA":"南洲","LANE":" ","ALLEY":" ","HOUSE_NO":"４２號","E_COORD97":183938.69,"N_COORD97":2555547.25,"ADDRESS":"南洲４２號","OBJECTID":142272},"geometry":{"x":183938.69000000227,"y":2555547.2500000019}},{"attributes":{"ID":142273,"DIS_CODE":0,"TOWNNAME":"山上區","LI":"新莊里","LIN":" ","STREET":" ","SECT":" ","MAREA":"大庄","LANE":" ","ALLEY":" ","HOUSE_NO":"８之４號","E_COORD97":184067.31,"N_COORD97":2554853.2999999998,"ADDRESS":"大庄８之４號","OBJECTID":142273},"geometry":{"x":184067.30999999959,"y":2554853.3000000026}},{"attributes":{"ID":142274,"DIS_CODE":0,"TOWNNAME":"永康區","LI":"大橋里","LIN":"22鄰","STREET":"大橋一街","SECT":" ","MAREA":" ","LANE":"１３９巷","ALLEY":"２２弄","HOUSE_NO":"２６號","E_COORD97":171071.32999999999,"N_COORD97":2546573.7000000002,"ADDRESS":"大橋一街１３９巷２２弄２６號","OBJECTID":142274},"geometry":{"x":171071.33000000101,"y":2546573.6999999993}},{"attributes":{"ID":142275,"DIS_CODE":0,"TOWNNAME":"永康區","LI":"大橋里","LIN":"22鄰","STREET":"大橋一街","SECT":" ","MAREA":" ","LANE":"１３９巷","ALLEY":"２２弄","HOUSE_NO":"３８號","E_COORD97":171102.01999999999,"N_COORD97":2546559.4500000002,"ADDRESS":"大橋一街１３９巷２２弄３８號","OBJECTID":142275},"geometry":{"x":171102.02000000048,"y":2546559.4499999993}},{"attributes":{"ID":142276,"DIS_CODE":0,"TOWNNAME":"永康區","LI":"崑山里","LIN":"5鄰","STREET":"崑大路","SECT":" ","MAREA":" ","LANE":"１巷","ALLEY":" ","HOUSE_NO":"１００號","E_COORD97":173684.62,"N_COORD97":2544207.4100000001,"ADDRESS":"崑大路１巷１００號","OBJECTID":142276},"geometry":{"x":173684.62000000197,"y":2544207.4100000001}},{"attributes":{"ID":142277,"DIS_CODE":0,"TOWNNAME":"永康區","LI":"崑山里","LIN":"43鄰","STREET":"大灣路","SECT":" ","MAREA":" ","LANE":"９４２巷","ALLEY":"３７１弄","HOUSE_NO":"５９號","E_COORD97":173594.26000000001,"N_COORD97":2545250.4900000002,"ADDRESS":"大灣路９４２巷３７１弄５９號","OBJECTID":142277},"geometry":{"x":173594.26000000071,"y":2545250.4900000002}},{"attributes":{"ID":142278,"DIS_CODE":0,"TOWNNAME":"永康區","LI":"勝利里","LIN":"16鄰","STREET":"勝利街","SECT":" ","MAREA":" ","LANE":"１０７巷","ALLEY":"６１弄","HOUSE_NO":"９號","E_COORD97":171224.95999999999,"N_COORD97":2544898.2599999998,"ADDRESS":"勝利街１０７巷６１弄９號","OBJECTID":142278},"geometry":{"x":171224.96000000089,"y":2544898.2600000016}},{"attributes":{"ID":142279,"DIS_CODE":0,"TOWNNAME":"山上區","LI":"新莊里","LIN":" ","STREET":" ","SECT":" ","MAREA":"新庄","LANE":" ","ALLEY":" ","HOUSE_NO":"４３號","E_COORD97":184875.66,"N_COORD97":2555303.25,"ADDRESS":"新庄４３號","OBJECTID":142279},"geometry":{"x":184875.66000000015,"y":2555303.2500000019}},{"attributes":{"ID":142280,"DIS_CODE":0,"TOWNNAME":"山上區","LI":"南洲里","LIN":" ","STREET":" ","SECT":" ","MAREA":"南洲","LANE":" ","ALLEY":" ","HOUSE_NO":"２３７號","E_COORD97":183676.04000000001,"N_COORD97":2555617.25,"ADDRESS":"南洲２３７號","OBJECTID":142280},"geometry":{"x":183676.04000000004,"y":2555617.25}},{"attributes":{"ID":142281,"DIS_CODE":0,"TOWNNAME":"山上區","LI":"新莊里","LIN":" ","STREET":" ","SECT":" ","MAREA":"大庄","LANE":" ","ALLEY":" ","HOUSE_NO":"８之２號","E_COORD97":184062.20999999999,"N_COORD97":2554843.2999999998,"ADDRESS":"大庄８之２號","OBJECTID":142281},"geometry":{"x":184062.21000000089,"y":2554843.3000000026}},{"attributes":{"ID":142282,"DIS_CODE":0,"TOWNNAME":"山上區","LI":"南洲里","LIN":" ","STREET":" ","SECT":" ","MAREA":"南洲","LANE":" ","ALLEY":" ","HOUSE_NO":"１２４號","E_COORD97":183874.04000000001,"N_COORD97":2555744.25,"ADDRESS":"南洲１２４號","OBJECTID":142282},"geometry":{"x":183874.04000000097,"y":2555744.2500000019}},{"attributes":{"ID":142283,"DIS_CODE":0,"TOWNNAME":"山上區","LI":"明和里","LIN":" ","STREET":" ","SECT":" ","MAREA":"明和","LANE":" ","ALLEY":" ","HOUSE_NO":"１１２之３號","E_COORD97":183454.23999999999,"N_COORD97":2556142.2999999998,"ADDRESS":"明和１１２之３號","OBJECTID":142283},"geometry":{"x":183454.24000000022,"y":2556142.3000000007}},{"attributes":{"ID":142284,"DIS_CODE":0,"TOWNNAME":"山上區","LI":"明和里","LIN":" ","STREET":" ","SECT":" ","MAREA":"北勢洲","LANE":" ","ALLEY":" ","HOUSE_NO":"８８號","E_COORD97":181940.23999999999,"N_COORD97":2555888.29,"ADDRESS":"北勢洲８８號","OBJECTID":142284},"geometry":{"x":181940.24000000115,"y":2555888.290000001}},{"attributes":{"ID":142285,"DIS_CODE":0,"TOWNNAME":"山上區","LI":"新莊里","LIN":" ","STREET":" ","SECT":" ","MAREA":"大庄","LANE":" ","ALLEY":" ","HOUSE_NO":"１之３９號","E_COORD97":184146.95999999999,"N_COORD97":2554983.2999999998,"ADDRESS":"大庄１之３９號","OBJECTID":142285},"geometry":{"x":184146.96000000089,"y":2554983.3000000007}},{"attributes":{"ID":142286,"DIS_CODE":0,"TOWNNAME":"山上區","LI":"新莊里","LIN":" ","STREET":" ","SECT":" ","MAREA":"大庄","LANE":" ","ALLEY":" ","HOUSE_NO":"１７之４號","E_COORD97":183796.66,"N_COORD97":2554724.2999999998,"ADDRESS":"大庄１７之４號","OBJECTID":142286},"geometry":{"x":183796.66000000108,"y":2554724.3000000026}},{"attributes":{"ID":142287,"DIS_CODE":0,"TOWNNAME":"山上區","LI":"南洲里","LIN":" ","STREET":" ","SECT":" ","MAREA":"南洲","LANE":" ","ALLEY":" ","HOUSE_NO":"１０９號","E_COORD97":183925.44,"N_COORD97":2555748.25,"ADDRESS":"南洲１０９號","OBJECTID":142287},"geometry":{"x":183925.44000000134,"y":2555748.25}},{"attributes":{"ID":142288,"DIS_CODE":0,"TOWNNAME":"山上區","LI":"明和里","LIN":" ","STREET":" ","SECT":" ","MAREA":"明和","LANE":" ","ALLEY":" ","HOUSE_NO":"３１號","E_COORD97":183393.09,"N_COORD97":2556031.25,"ADDRESS":"明和３１號","OBJECTID":142288},"geometry":{"x":183393.09000000171,"y":2556031.2500000037}},{"attributes":{"ID":142289,"DIS_CODE":0,"TOWNNAME":"山上區","LI":"明和里","LIN":" ","STREET":" ","SECT":" ","MAREA":"北勢洲","LANE":" ","ALLEY":" ","HOUSE_NO":"９７號","E_COORD97":182151.94,"N_COORD97":2556393.29,"ADDRESS":"北勢洲９７號","OBJECTID":142289},"geometry":{"x":182151.94000000227,"y":2556393.290000001}},{"attributes":{"ID":142290,"DIS_CODE":0,"TOWNNAME":"山上區","LI":"玉\u25A0里","LIN":"5鄰","STREET":" ","SECT":" ","MAREA":"中坑","LANE":" ","ALLEY":" ","HOUSE_NO":"１１之１號","E_COORD97":187692.45999999999,"N_COORD97":2554745.2999999998,"ADDRESS":"中坑１１之１號","OBJECTID":142290},"geometry":{"x":187692.45999999996,"y":2554745.3000000007}},{"attributes":{"ID":142291,"DIS_CODE":0,"TOWNNAME":"山上區","LI":"明和里","LIN":" ","STREET":" ","SECT":" ","MAREA":"明和","LANE":" ","ALLEY":" ","HOUSE_NO":"１５８號","E_COORD97":183333.64000000001,"N_COORD97":2556111.25,"ADDRESS":"明和１５８號","OBJECTID":142291},"geometry":{"x":183333.6400000006,"y":2556111.25}},{"attributes":{"ID":142292,"DIS_CODE":0,"TOWNNAME":"山上區","LI":"新莊里","LIN":" ","STREET":" ","SECT":" ","MAREA":"大庄","LANE":" ","ALLEY":" ","HOUSE_NO":"５９號","E_COORD97":184195.95999999999,"N_COORD97":2554772.25,"ADDRESS":"大庄５９號","OBJECTID":142292},"geometry":{"x":184195.96000000089,"y":2554772.25}},{"attributes":{"ID":142293,"DIS_CODE":0,"TOWNNAME":"山上區","LI":"明和里","LIN":" ","STREET":" ","SECT":" ","MAREA":"北勢洲","LANE":" ","ALLEY":" ","HOUSE_NO":"５１號","E_COORD97":181733.73999999999,"N_COORD97":2556660.29,"ADDRESS":"北勢洲５１號","OBJECTID":142293},"geometry":{"x":181733.74000000022,"y":2556660.2899999991}},{"attributes":{"ID":142294,"DIS_CODE":0,"TOWNNAME":"山上區","LI":"新莊里","LIN":" ","STREET":" ","SECT":" ","MAREA":"大庄","LANE":" ","ALLEY":" ","HOUSE_NO":"１之４０號","E_COORD97":184151.85999999999,"N_COORD97":2554987.2999999998,"ADDRESS":"大庄１之４０號","OBJECTID":142294},"geometry":{"x":184151.86000000127,"y":2554987.2999999989}},{"attributes":{"ID":142295,"DIS_CODE":0,"TOWNNAME":"山上區","LI":"新莊里","LIN":" ","STREET":" ","SECT":" ","MAREA":"大庄","LANE":" ","ALLEY":" ","HOUSE_NO":"７號","E_COORD97":183826.31,"N_COORD97":2554771.25,"ADDRESS":"大庄７號","OBJECTID":142295},"geometry":{"x":183826.30999999959,"y":2554771.2500000019}},{"attributes":{"ID":142296,"DIS_CODE":0,"TOWNNAME":"山上區","LI":"豐德里","LIN":" ","STREET":" ","SECT":" ","MAREA":"隙子口","LANE":" ","ALLEY":" ","HOUSE_NO":"４７號","E_COORD97":184552.95999999999,"N_COORD97":2552984.25,"ADDRESS":"隙子口４７號","OBJECTID":142296},"geometry":{"x":184552.95999999996,"y":2552984.2500000019}},{"attributes":{"ID":142297,"DIS_CODE":0,"TOWNNAME":"山上區","LI":"山上里","LIN":" ","STREET":" ","SECT":" ","MAREA":"山上","LANE":" ","ALLEY":" ","HOUSE_NO":"２９號","E_COORD97":184322.06,"N_COORD97":2555355.25,"ADDRESS":"山上２９號","OBJECTID":142297},"geometry":{"x":184322.06000000052,"y":2555355.25}},{"attributes":{"ID":142298,"DIS_CODE":0,"TOWNNAME":"山上區","LI":"玉\u25A0里","LIN":"4鄰","STREET":" ","SECT":" ","MAREA":"蚵\u25A0潭","LANE":" ","ALLEY":" ","HOUSE_NO":"４號","E_COORD97":187350.47,"N_COORD97":2555499.25,"ADDRESS":"蚵\u25A0潭４號","OBJECTID":142298},"geometry":{"x":187350.47000000067,"y":2555499.2500000037}},{"attributes":{"ID":142299,"DIS_CODE":0,"TOWNNAME":"山上區","LI":"山上里","LIN":" ","STREET":" ","SECT":" ","MAREA":"山上","LANE":" ","ALLEY":" ","HOUSE_NO":"１２８之１號","E_COORD97":184480.20999999999,"N_COORD97":2555906.2999999998,"ADDRESS":"山上１２８之１號","OBJECTID":142299},"geometry":{"x":184480.20999999996,"y":2555906.3000000045}},{"attributes":{"ID":142300,"DIS_CODE":0,"TOWNNAME":"山上區","LI":"山上里","LIN":" ","STREET":" ","SECT":" ","MAREA":"山上","LANE":" ","ALLEY":" ","HOUSE_NO":"２５１號","E_COORD97":184022.70999999999,"N_COORD97":2555615.25,"ADDRESS":"山上２５１號","OBJECTID":142300},"geometry":{"x":184022.70999999996,"y":2555615.2500000019}},{"attributes":{"ID":142301,"DIS_CODE":0,"TOWNNAME":"山上區","LI":"山上里","LIN":" ","STREET":" ","SECT":" ","MAREA":"山上","LANE":" ","ALLEY":" ","HOUSE_NO":"２４號","E_COORD97":184297.06,"N_COORD97":2555322.25,"ADDRESS":"山上２４號","OBJECTID":142301},"geometry":{"x":184297.06000000052,"y":2555322.25}},{"attributes":{"ID":142302,"DIS_CODE":0,"TOWNNAME":"山上區","LI":"山上里","LIN":" ","STREET":" ","SECT":" ","MAREA":"山上","LANE":" ","ALLEY":" ","HOUSE_NO":"３０９號","E_COORD97":184130.10999999999,"N_COORD97":2555556.25,"ADDRESS":"山上３０９號","OBJECTID":142302},"geometry":{"x":184130.11000000034,"y":2555556.25}},{"attributes":{"ID":142303,"DIS_CODE":0,"TOWNNAME":"山上區","LI":"平陽里","LIN":"4鄰","STREET":" ","SECT":" ","MAREA":"石子崎","LANE":" ","ALLEY":" ","HOUSE_NO":"３９之１號","E_COORD97":186646.73133499999,"N_COORD97":2554010.2657499998,"ADDRESS":"石子崎３９之１號","OBJECTID":142303},"geometry":{"x":186646.73133500014,"y":2554010.2657510005}},{"attributes":{"ID":142304,"DIS_CODE":0,"TOWNNAME":"歸仁區","LI":"南興里","LIN":"33鄰","STREET":"文化九街","SECT":" ","MAREA":" ","LANE":" ","ALLEY":" ","HOUSE_NO":"１６號五樓","E_COORD97":176355.14000000001,"N_COORD97":2541144.3300000001,"ADDRESS":"文化九街１６號五樓","OBJECTID":142304},"geometry":{"x":176355.13999999966,"y":2541144.3300000019}},{"attributes":{"ID":142305,"DIS_CODE":0,"TOWNNAME":"歸仁區","LI":"南興里","LIN":"33鄰","STREET":"文化九街","SECT":" ","MAREA":" ","LANE":" ","ALLEY":" ","HOUSE_NO":"１６號四樓","E_COORD97":176355.14000000001,"N_COORD97":2541144.3300000001,"ADDRESS":"文化九街１６號四樓","OBJECTID":142305},"geometry":{"x":176355.13999999966,"y":2541144.3300000019}},{"attributes":{"ID":142306,"DIS_CODE":0,"TOWNNAME":"新營區","LI":"新北里","LIN":"33鄰","STREET":"新北八街","SECT":" ","MAREA":" ","LANE":" ","ALLEY":" ","HOUSE_NO":"５３號二樓之３","E_COORD97":178780.23999999999,"N_COORD97":2579212.0699999998,"ADDRESS":"新北八街５３號二樓之３","OBJECTID":142306},"geometry":{"x":178780.24000000115,"y":2579212.0700000003}},{"attributes":{"ID":142307,"DIS_CODE":0,"TOWNNAME":"新營區","LI":"新北里","LIN":"33鄰","STREET":"新北八街","SECT":" ","MAREA":" ","LANE":" ","ALLEY":" ","HOUSE_NO":"５１號四樓之１","E_COORD97":178755.63,"N_COORD97":2579217.7200000002,"ADDRESS":"新北八街５１號四樓之１","OBJECTID":142307},"geometry":{"x":178755.62999999989,"y":2579217.7200000007}},{"attributes":{"ID":142308,"DIS_CODE":0,"TOWNNAME":"歸仁區","LI":"新厝里","LIN":"24鄰","STREET":"大成路","SECT":" ","MAREA":" ","LANE":" ","ALLEY":" ","HOUSE_NO":"１６０號","E_COORD97":177722.205029,"N_COORD97":2540226.8946799999,"ADDRESS":"大成路１６０號","OBJECTID":142308},"geometry":{"x":177722.2050289996,"y":2540226.8946790006}},{"attributes":{"ID":142309,"DIS_CODE":0,"TOWNNAME":"仁德區","LI":"仁和里","LIN":"17鄰","STREET":" ","SECT":" ","MAREA":"仁和","LANE":" ","ALLEY":" ","HOUSE_NO":"３５３號","E_COORD97":170482.47,"N_COORD97":2539901.5,"ADDRESS":"仁和３５３號","OBJECTID":142309},"geometry":{"x":170482.46999999974,"y":2539901.5000000037}},{"attributes":{"ID":142310,"DIS_CODE":0,"TOWNNAME":"仁德區","LI":"中生里","LIN":"7鄰","STREET":" ","SECT":" ","MAREA":"中洲","LANE":" ","ALLEY":" ","HOUSE_NO":"１４０號之３","E_COORD97":173025.73000000001,"N_COORD97":2534054.79,"ADDRESS":"中洲１４０號之３","OBJECTID":142310},"geometry":{"x":173025.73000000045,"y":2534054.790000001}},{"attributes":{"ID":142311,"DIS_CODE":0,"TOWNNAME":"山上區","LI":"玉\u25A0里","LIN":"1鄰","STREET":" ","SECT":" ","MAREA":"蚵\u25A0潭","LANE":" ","ALLEY":" ","HOUSE_NO":"１７之１號","E_COORD97":187383.01999999999,"N_COORD97":2555655.2999999998,"ADDRESS":"蚵\u25A0潭１７之１號","OBJECTID":142311},"geometry":{"x":187383.01999999955,"y":2555655.3000000045}},{"attributes":{"ID":142312,"DIS_CODE":0,"TOWNNAME":"山上區","LI":"山上里","LIN":" ","STREET":" ","SECT":" ","MAREA":"山上","LANE":" ","ALLEY":" ","HOUSE_NO":"１００號","E_COORD97":184211.70999999999,"N_COORD97":2555641.25,"ADDRESS":"山上１００號","OBJECTID":142312},"geometry":{"x":184211.71000000089,"y":2555641.2500000037}},{"attributes":{"ID":142313,"DIS_CODE":0,"TOWNNAME":"山上區","LI":"山上里","LIN":" ","STREET":" ","SECT":" ","MAREA":"山上","LANE":" ","ALLEY":" ","HOUSE_NO":"１４３號","E_COORD97":184025.70999999999,"N_COORD97":2555600.25,"ADDRESS":"山上１４３號","OBJECTID":142313},"geometry":{"x":184025.70999999996,"y":2555600.25}},{"attributes":{"ID":142314,"DIS_CODE":0,"TOWNNAME":"山上區","LI":"玉\u25A0里","LIN":"7鄰","STREET":" ","SECT":" ","MAREA":"牛稠埔","LANE":" ","ALLEY":" ","HOUSE_NO":"６之１號","E_COORD97":185750.87,"N_COORD97":2554664.2999999998,"ADDRESS":"牛稠埔６之１號","OBJECTID":142314},"geometry":{"x":185750.87000000011,"y":2554664.3000000007}},{"attributes":{"ID":142315,"DIS_CODE":0,"TOWNNAME":"山上區","LI":"玉\u25A0里","LIN":"3鄰","STREET":" ","SECT":" ","MAREA":"蚵\u25A0潭","LANE":" ","ALLEY":" ","HOUSE_NO":"３３之２號","E_COORD97":187465.82000000001,"N_COORD97":2555637.2999999998,"ADDRESS":"蚵\u25A0潭３３之２號","OBJECTID":142315},"geometry":{"x":187465.82000000123,"y":2555637.3000000007}},{"attributes":{"ID":142316,"DIS_CODE":0,"TOWNNAME":"山上區","LI":"玉\u25A0里","LIN":"2鄰","STREET":" ","SECT":" ","MAREA":"蚵\u25A0潭","LANE":" ","ALLEY":" ","HOUSE_NO":"２４之１號","E_COORD97":187418.22,"N_COORD97":2555730.2999999998,"ADDRESS":"蚵\u25A0潭２４之１號","OBJECTID":142316},"geometry":{"x":187418.22000000067,"y":2555730.3000000026}},{"attributes":{"ID":142317,"DIS_CODE":0,"TOWNNAME":"仁德區","LI":"仁義里","LIN":"22鄰","STREET":"中山路","SECT":" ","MAREA":" ","LANE":"３９６巷","ALLEY":"７弄","HOUSE_NO":"３號","E_COORD97":173778.54999999999,"N_COORD97":2541328.4900000002,"ADDRESS":"中山路３９６巷７弄３號","OBJECTID":142317},"geometry":{"x":173778.55000000075,"y":2541328.4900000002}},{"attributes":{"ID":142318,"DIS_CODE":0,"TOWNNAME":"山上區","LI":"玉\u25A0里","LIN":"3鄰","STREET":" ","SECT":" ","MAREA":"蚵\u25A0潭","LANE":" ","ALLEY":" ","HOUSE_NO":"３７之１號","E_COORD97":187353.22,"N_COORD97":2555521.2999999998,"ADDRESS":"蚵\u25A0潭３７之１號","OBJECTID":142318},"geometry":{"x":187353.21999999974,"y":2555521.3000000026}},{"attributes":{"ID":142319,"DIS_CODE":0,"TOWNNAME":"仁德區","LI":"仁義里","LIN":"22鄰","STREET":"中山路","SECT":" ","MAREA":" ","LANE":"３９６巷","ALLEY":"７弄","HOUSE_NO":"９號","E_COORD97":173764.92999999999,"N_COORD97":2541329.5,"ADDRESS":"中山路３９６巷７弄９號","OBJECTID":142319},"geometry":{"x":173764.9299999997,"y":2541329.5000000019}},{"attributes":{"ID":142320,"DIS_CODE":0,"TOWNNAME":"仁德區","LI":"仁義里","LIN":"22鄰","STREET":"中山路","SECT":" ","MAREA":" ","LANE":"３９６巷","ALLEY":"７弄","HOUSE_NO":"２號","E_COORD97":173775.39000000001,"N_COORD97":2541340.75,"ADDRESS":"中山路３９６巷７弄２號","OBJECTID":142320},"geometry":{"x":173775.38999999966,"y":2541340.7500000037}},{"attributes":{"ID":142321,"DIS_CODE":0,"TOWNNAME":"仁德區","LI":"太子里","LIN":"22鄰","STREET":"長興四街","SECT":" ","MAREA":" ","LANE":"９０巷","ALLEY":"８弄","HOUSE_NO":"７號","E_COORD97":173870.14000000001,"N_COORD97":2543633.7599999998,"ADDRESS":"長興四街９０巷８弄７號","OBJECTID":142321},"geometry":{"x":173870.13999999966,"y":2543633.7600000016}},{"attributes":{"ID":142322,"DIS_CODE":0,"TOWNNAME":"山上區","LI":"山上里","LIN":" ","STREET":" ","SECT":" ","MAREA":"山上","LANE":" ","ALLEY":" ","HOUSE_NO":"３１號","E_COORD97":184328.26000000001,"N_COORD97":2555369.25,"ADDRESS":"山上３１號","OBJECTID":142322},"geometry":{"x":184328.26000000071,"y":2555369.25}},{"attributes":{"ID":142323,"DIS_CODE":0,"TOWNNAME":"仁德區","LI":"仁德里","LIN":"22鄰","STREET":"中山路","SECT":" ","MAREA":" ","LANE":"８７５巷","ALLEY":"８８弄","HOUSE_NO":"１０號","E_COORD97":172322.26000000001,"N_COORD97":2541299.7200000002,"ADDRESS":"中山路８７５巷８８弄１０號","OBJECTID":142323},"geometry":{"x":172322.26000000164,"y":2541299.7200000007}},{"attributes":{"ID":142324,"DIS_CODE":0,"TOWNNAME":"仁德區","LI":"太子里","LIN":"22鄰","STREET":"長興四街","SECT":" ","MAREA":" ","LANE":"９０巷","ALLEY":"８弄","HOUSE_NO":"１號","E_COORD97":173859.01000000001,"N_COORD97":2543613.7599999998,"ADDRESS":"長興四街９０巷８弄１號","OBJECTID":142324},"geometry":{"x":173859.00999999978,"y":2543613.7599999998}},{"attributes":{"ID":142325,"DIS_CODE":0,"TOWNNAME":"仁德區","LI":"仁德里","LIN":"22鄰","STREET":"中山路","SECT":" ","MAREA":" ","LANE":"８７５巷","ALLEY":"８８弄","HOUSE_NO":"６號","E_COORD97":172332.59,"N_COORD97":2541298.7200000002,"ADDRESS":"中山路８７５巷８８弄６號","OBJECTID":142325},"geometry":{"x":172332.59000000078,"y":2541298.7200000025}},{"attributes":{"ID":142326,"DIS_CODE":0,"TOWNNAME":"仁德區","LI":"仁德里","LIN":"22鄰","STREET":"中山路","SECT":" ","MAREA":" ","LANE":"８７５巷","ALLEY":"８８弄","HOUSE_NO":"４號","E_COORD97":172337.31,"N_COORD97":2541297.7200000002,"ADDRESS":"中山路８７５巷８８弄４號","OBJECTID":142326},"geometry":{"x":172337.31000000052,"y":2541297.7200000044}},{"attributes":{"ID":142327,"DIS_CODE":0,"TOWNNAME":"安南區","LI":"安富里","LIN":"22鄰","STREET":"郡安路","SECT":"五段","MAREA":" ","LANE":"１６４巷","ALLEY":"９弄","HOUSE_NO":"９號","E_COORD97":167703.04000000001,"N_COORD97":2547603.5899999999,"ADDRESS":"郡安路五段１６４巷９弄９號","OBJECTID":142327},"geometry":{"x":167703.04000000097,"y":2547603.5900000036}},{"attributes":{"ID":142328,"DIS_CODE":0,"TOWNNAME":"永康區","LI":"崑山里","LIN":"18鄰","STREET":"大灣路","SECT":" ","MAREA":" ","LANE":"９４２巷","ALLEY":"１６弄","HOUSE_NO":"８號","E_COORD97":173664.56,"N_COORD97":2544468.75,"ADDRESS":"大灣路９４２巷１６弄８號","OBJECTID":142328},"geometry":{"x":173664.56000000052,"y":2544468.75}},{"attributes":{"ID":142329,"DIS_CODE":0,"TOWNNAME":"東區","LI":"虎尾里","LIN":"22鄰","STREET":"東成街","SECT":" ","MAREA":" ","LANE":"１８２巷","ALLEY":"２弄","HOUSE_NO":"２２號","E_COORD97":171678.17999999999,"N_COORD97":2542272.5499999998,"ADDRESS":"東成街１８２巷２弄２２號","OBJECTID":142329},"geometry":{"x":171678.1799999997,"y":2542272.5500000026}},{"attributes":{"ID":142330,"DIS_CODE":0,"TOWNNAME":"東區","LI":"虎尾里","LIN":"22鄰","STREET":"東成街","SECT":" ","MAREA":" ","LANE":"１８２巷","ALLEY":"２弄","HOUSE_NO":"２４號","E_COORD97":171673.48999999999,"N_COORD97":2542272.2799999998,"ADDRESS":"東成街１８２巷２弄２４號","OBJECTID":142330},"geometry":{"x":171673.49000000209,"y":2542272.2800000031}},{"attributes":{"ID":142331,"DIS_CODE":0,"TOWNNAME":"東區","LI":"虎尾里","LIN":"22鄰","STREET":"東成街","SECT":" ","MAREA":" ","LANE":"１８２巷","ALLEY":"２弄","HOUSE_NO":"２６號","E_COORD97":171668.51999999999,"N_COORD97":2542271.8599999999,"ADDRESS":"東成街１８２巷２弄２６號","OBJECTID":142331},"geometry":{"x":171668.51999999955,"y":2542271.8600000031}},{"attributes":{"ID":142332,"DIS_CODE":0,"TOWNNAME":"東區","LI":"虎尾里","LIN":"22鄰","STREET":"東成街","SECT":" ","MAREA":" ","LANE":"１８２巷","ALLEY":"２弄","HOUSE_NO":"２８號","E_COORD97":171664.10000000001,"N_COORD97":2542271.0299999998,"ADDRESS":"東成街１８２巷２弄２８號","OBJECTID":142332},"geometry":{"x":171664.10000000056,"y":2542271.0300000012}},{"attributes":{"ID":142333,"DIS_CODE":0,"TOWNNAME":"山上區","LI":"山上里","LIN":" ","STREET":" ","SECT":" ","MAREA":"山上","LANE":" ","ALLEY":" ","HOUSE_NO":"８６之１號","E_COORD97":184246.35999999999,"N_COORD97":2555670.29,"ADDRESS":"山上８６之１號","OBJECTID":142333},"geometry":{"x":184246.36000000127,"y":2555670.2899999991}},{"attributes":{"ID":142334,"DIS_CODE":0,"TOWNNAME":"山上區","LI":"玉\u25A0里","LIN":"5鄰","STREET":" ","SECT":" ","MAREA":"中坑","LANE":" ","ALLEY":" ","HOUSE_NO":"３號","E_COORD97":187710.91,"N_COORD97":2554850.2799999998,"ADDRESS":"中坑３號","OBJECTID":142334},"geometry":{"x":187710.91000000108,"y":2554850.2799999975}},{"attributes":{"ID":142335,"DIS_CODE":0,"TOWNNAME":"山上區","LI":"山上里","LIN":" ","STREET":" ","SECT":" ","MAREA":"山上","LANE":" ","ALLEY":" ","HOUSE_NO":"１０６號","E_COORD97":184275.51000000001,"N_COORD97":2555743.25,"ADDRESS":"山上１０６號","OBJECTID":142335},"geometry":{"x":184275.51000000071,"y":2555743.2500000037}},{"attributes":{"ID":142336,"DIS_CODE":0,"TOWNNAME":"山上區","LI":"玉\u25A0里","LIN":"1鄰","STREET":" ","SECT":" ","MAREA":"蚵\u25A0潭","LANE":" ","ALLEY":" ","HOUSE_NO":"１２號","E_COORD97":187341.82000000001,"N_COORD97":2555634.25,"ADDRESS":"蚵\u25A0潭１２號","OBJECTID":142336},"geometry":{"x":187341.82000000123,"y":2555634.25}},{"attributes":{"ID":142337,"DIS_CODE":0,"TOWNNAME":"山上區","LI":"山上里","LIN":" ","STREET":" ","SECT":" ","MAREA":"山上","LANE":" ","ALLEY":" ","HOUSE_NO":"１３１之１號","E_COORD97":184341.81,"N_COORD97":2555947.2999999998,"ADDRESS":"山上１３１之１號","OBJECTID":142337},"geometry":{"x":184341.80999999959,"y":2555947.3000000026}},{"attributes":{"ID":142338,"DIS_CODE":0,"TOWNNAME":"山上區","LI":"玉\u25A0里","LIN":"1鄰","STREET":" ","SECT":" ","MAREA":"蚵\u25A0潭","LANE":" ","ALLEY":" ","HOUSE_NO":"１之３號","E_COORD97":187189.47,"N_COORD97":2555430.2999999998,"ADDRESS":"蚵\u25A0潭１之３號","OBJECTID":142338},"geometry":{"x":187189.47000000067,"y":2555430.3000000007}},{"attributes":{"ID":142339,"DIS_CODE":0,"TOWNNAME":"山上區","LI":"山上里","LIN":"1鄰","STREET":" ","SECT":" ","MAREA":"山上","LANE":" ","ALLEY":" ","HOUSE_NO":"３６號","E_COORD97":184248.97896800001,"N_COORD97":2555389.0986700002,"ADDRESS":"山上３６號","OBJECTID":142339},"geometry":{"x":184248.97896800004,"y":2555389.0986720007}},{"attributes":{"ID":142340,"DIS_CODE":0,"TOWNNAME":"山上區","LI":"玉\u25A0里","LIN":"1鄰","STREET":" ","SECT":" ","MAREA":"蚵\u25A0潭","LANE":" ","ALLEY":" ","HOUSE_NO":"１３之１號","E_COORD97":187341.22,"N_COORD97":2555600.2999999998,"ADDRESS":"蚵\u25A0潭１３之１號","OBJECTID":142340},"geometry":{"x":187341.21999999974,"y":2555600.3000000007}},{"attributes":{"ID":142341,"DIS_CODE":0,"TOWNNAME":"西港區","LI":"西港里","LIN":" ","STREET":" ","SECT":" ","MAREA":"西港","LANE":" ","ALLEY":" ","HOUSE_NO":"１之２號","E_COORD97":169061.04999999999,"N_COORD97":2558595.4500000002,"ADDRESS":"西港１之２號","OBJECTID":142341},"geometry":{"x":169061.05000000075,"y":2558595.4499999974}},{"attributes":{"ID":142342,"DIS_CODE":0,"TOWNNAME":"永康區","LI":"神洲里","LIN":"21鄰","STREET":"忠孝路","SECT":" ","MAREA":" ","LANE":"７６巷","ALLEY":"４７弄","HOUSE_NO":"２號","E_COORD97":172196.14999999999,"N_COORD97":2544951.9900000002,"ADDRESS":"忠孝路７６巷４７弄２號","OBJECTID":142342},"geometry":{"x":172196.15000000037,"y":2544951.9900000002}},{"attributes":{"ID":142343,"DIS_CODE":0,"TOWNNAME":"安南區","LI":"佃東里","LIN":"22鄰","STREET":"公學路","SECT":"四段","MAREA":" ","LANE":"１２２巷","ALLEY":"１３５弄","HOUSE_NO":"１１號","E_COORD97":165489.60999999999,"N_COORD97":2552362.8599999999,"ADDRESS":"公學路四段１２２巷１３５弄１１號","OBJECTID":142343},"geometry":{"x":165489.61000000034,"y":2552362.8600000013}},{"attributes":{"ID":142344,"DIS_CODE":0,"TOWNNAME":"安南區","LI":"佃東里","LIN":"22鄰","STREET":"公學路","SECT":"四段","MAREA":" ","LANE":"１２２巷","ALLEY":"１３５弄","HOUSE_NO":"１號","E_COORD97":165509.53,"N_COORD97":2552356.96,"ADDRESS":"公學路四段１２２巷１３５弄１號","OBJECTID":142344},"geometry":{"x":165509.53000000212,"y":2552356.9600000028}},{"attributes":{"ID":142345,"DIS_CODE":0,"TOWNNAME":"安南區","LI":"佃東里","LIN":"22鄰","STREET":"公學路","SECT":"四段","MAREA":" ","LANE":"１２２巷","ALLEY":"１３５弄","HOUSE_NO":"３號","E_COORD97":165506.19,"N_COORD97":2552361.3900000001,"ADDRESS":"公學路四段１２２巷１３５弄３號","OBJECTID":142345},"geometry":{"x":165506.19000000041,"y":2552361.3900000006}},{"attributes":{"ID":142346,"DIS_CODE":0,"TOWNNAME":"安南區","LI":"佃東里","LIN":"22鄰","STREET":"公學路","SECT":"四段","MAREA":" ","LANE":"１２２巷","ALLEY":"１３５弄","HOUSE_NO":"５號","E_COORD97":165501.64000000001,"N_COORD97":2552359.3199999998,"ADDRESS":"公學路四段１２２巷１３５弄５號","OBJECTID":142346},"geometry":{"x":165501.6400000006,"y":2552359.320000004}},{"attributes":{"ID":142347,"DIS_CODE":0,"TOWNNAME":"安南區","LI":"佃東里","LIN":"22鄰","STREET":"公學路","SECT":"四段","MAREA":" ","LANE":"１２２巷","ALLEY":"１３５弄","HOUSE_NO":"７號","E_COORD97":165498.01000000001,"N_COORD97":2552362.6000000001,"ADDRESS":"公學路四段１２２巷１３５弄７號","OBJECTID":142347},"geometry":{"x":165498.01000000071,"y":2552362.5999999996}},{"attributes":{"ID":142348,"DIS_CODE":0,"TOWNNAME":"安南區","LI":"佃東里","LIN":"22鄰","STREET":"公學路","SECT":"四段","MAREA":" ","LANE":"１２２巷","ALLEY":"１３５弄","HOUSE_NO":"９號","E_COORD97":165493.89000000001,"N_COORD97":2552361.3399999999,"ADDRESS":"公學路四段１２２巷１３５弄９號","OBJECTID":142348},"geometry":{"x":165493.88999999966,"y":2552361.3399999999}},{"attributes":{"ID":142349,"DIS_CODE":0,"TOWNNAME":"安南區","LI":"佃東里","LIN":"22鄰","STREET":"公學路","SECT":"四段","MAREA":" ","LANE":"１２２巷","ALLEY":"８５弄","HOUSE_NO":"１００號","E_COORD97":165514.29000000001,"N_COORD97":2552288.1800000002,"ADDRESS":"公學路四段１２２巷８５弄１００號","OBJECTID":142349},"geometry":{"x":165514.2900000019,"y":2552288.1799999997}},{"attributes":{"ID":142350,"DIS_CODE":0,"TOWNNAME":"安南區","LI":"佃東里","LIN":"22鄰","STREET":"公學路","SECT":"四段","MAREA":" ","LANE":"１２２巷","ALLEY":"８５弄","HOUSE_NO":"１０２號","E_COORD97":165513.48000000001,"N_COORD97":2552284.0499999998,"ADDRESS":"公學路四段１２２巷８５弄１０２號","OBJECTID":142350},"geometry":{"x":165513.48000000231,"y":2552284.0500000026}},{"attributes":{"ID":142351,"DIS_CODE":0,"TOWNNAME":"安南區","LI":"佃東里","LIN":"22鄰","STREET":"公學路","SECT":"四段","MAREA":" ","LANE":"１２２巷","ALLEY":"８５弄","HOUSE_NO":"１０６號","E_COORD97":165513.95000000001,"N_COORD97":2552267.48,"ADDRESS":"公學路四段１２２巷８５弄１０６號","OBJECTID":142351},"geometry":{"x":165513.95000000112,"y":2552267.4800000023}},{"attributes":{"ID":142352,"DIS_CODE":0,"TOWNNAME":"永康區","LI":"崑山里","LIN":"43鄰","STREET":"大灣路","SECT":" ","MAREA":" ","LANE":"９４２巷","ALLEY":"３７１弄","HOUSE_NO":"３５號","E_COORD97":173765.51999999999,"N_COORD97":2545199.9900000002,"ADDRESS":"大灣路９４２巷３７１弄３５號","OBJECTID":142352},"geometry":{"x":173765.51999999955,"y":2545199.9900000002}},{"attributes":{"ID":142353,"DIS_CODE":0,"TOWNNAME":"安南區","LI":"佃東里","LIN":"22鄰","STREET":"公學路","SECT":"四段","MAREA":" ","LANE":"１２２巷","ALLEY":"８５弄","HOUSE_NO":"１０８號","E_COORD97":165509.94,"N_COORD97":2552271.1899999999,"ADDRESS":"公學路四段１２２巷８５弄１０８號","OBJECTID":142353},"geometry":{"x":165509.94000000041,"y":2552271.1900000032}},{"attributes":{"ID":142354,"DIS_CODE":0,"TOWNNAME":"安南區","LI":"佃東里","LIN":"22鄰","STREET":"公學路","SECT":"四段","MAREA":" ","LANE":"１２２巷","ALLEY":"８５弄","HOUSE_NO":"１１０號","E_COORD97":165505.12,"N_COORD97":2552269.04,"ADDRESS":"公學路四段１２２巷８５弄１１０號","OBJECTID":142354},"geometry":{"x":165505.12000000011,"y":2552269.040000001}},{"attributes":{"ID":142355,"DIS_CODE":0,"TOWNNAME":"安南區","LI":"佃東里","LIN":"22鄰","STREET":"公學路","SECT":"四段","MAREA":" ","LANE":"１２２巷","ALLEY":"８５弄","HOUSE_NO":"１１２號","E_COORD97":165501.32999999999,"N_COORD97":2552272.3700000001,"ADDRESS":"公學路四段１２２巷８５弄１１２號","OBJECTID":142355},"geometry":{"x":165501.33000000101,"y":2552272.3700000029}},{"attributes":{"ID":142356,"DIS_CODE":0,"TOWNNAME":"安南區","LI":"佃東里","LIN":"22鄰","STREET":"公學路","SECT":"四段","MAREA":" ","LANE":"１２２巷","ALLEY":"８５弄","HOUSE_NO":"１１６號","E_COORD97":165492.13,"N_COORD97":2552272.2200000002,"ADDRESS":"公學路四段１２２巷８５弄１１６號","OBJECTID":142356},"geometry":{"x":165492.13000000082,"y":2552272.2200000044}},{"attributes":{"ID":142357,"DIS_CODE":0,"TOWNNAME":"安南區","LI":"佃東里","LIN":"22鄰","STREET":"公學路","SECT":"四段","MAREA":" ","LANE":"１２２巷","ALLEY":"８５弄","HOUSE_NO":"５６號","E_COORD97":165524.31,"N_COORD97":2552360.1699999999,"ADDRESS":"公學路四段１２２巷８５弄５６號","OBJECTID":142357},"geometry":{"x":165524.31000000052,"y":2552360.1700000037}},{"attributes":{"ID":142358,"DIS_CODE":0,"TOWNNAME":"安南區","LI":"佃東里","LIN":"22鄰","STREET":"公學路","SECT":"四段","MAREA":" ","LANE":"１２２巷","ALLEY":"８５弄","HOUSE_NO":"５８號","E_COORD97":165524.88,"N_COORD97":2552355.6800000002,"ADDRESS":"公學路四段１２２巷８５弄５８號","OBJECTID":142358},"geometry":{"x":165524.87999999989,"y":2552355.6799999997}},{"attributes":{"ID":142359,"DIS_CODE":0,"TOWNNAME":"東區","LI":"崇文里","LIN":"33鄰","STREET":"生產路","SECT":" ","MAREA":" ","LANE":"３３３巷","ALLEY":" ","HOUSE_NO":"２１號","E_COORD97":171057.89999999999,"N_COORD97":2540748.6800000002,"ADDRESS":"生產路３３３巷２１號","OBJECTID":142359},"geometry":{"x":171057.9000000013,"y":2540748.6800000016}},{"attributes":{"ID":142360,"DIS_CODE":0,"TOWNNAME":"鹽水區","LI":"岸內里","LIN":"15鄰","STREET":"蔦松路","SECT":" ","MAREA":" ","LANE":" ","ALLEY":" ","HOUSE_NO":"３３號","E_COORD97":175548.62,"N_COORD97":2580425.6499999999,"ADDRESS":"蔦松路３３號","OBJECTID":142360},"geometry":{"x":175548.62000000011,"y":2580425.6500000004}},{"attributes":{"ID":142361,"DIS_CODE":0,"TOWNNAME":"鹽水區","LI":"岸內里","LIN":"15鄰","STREET":"蔦松路","SECT":" ","MAREA":" ","LANE":" ","ALLEY":" ","HOUSE_NO":"３５號","E_COORD97":175548.44,"N_COORD97":2580430.04,"ADDRESS":"蔦松路３５號","OBJECTID":142361},"geometry":{"x":175548.44000000041,"y":2580430.040000001}},{"attributes":{"ID":142362,"DIS_CODE":0,"TOWNNAME":"鹽水區","LI":"岸內里","LIN":"15鄰","STREET":"蔦松路","SECT":" ","MAREA":" ","LANE":" ","ALLEY":" ","HOUSE_NO":"３９號","E_COORD97":175545.94,"N_COORD97":2580441.5899999999,"ADDRESS":"蔦松路３９號","OBJECTID":142362},"geometry":{"x":175545.94000000227,"y":2580441.5899999999}},{"attributes":{"ID":142363,"DIS_CODE":0,"TOWNNAME":"鹽水區","LI":"岸內里","LIN":"15鄰","STREET":"蔦松路","SECT":" ","MAREA":" ","LANE":" ","ALLEY":" ","HOUSE_NO":"３號","E_COORD97":175551.76000000001,"N_COORD97":2580351.1400000001,"ADDRESS":"蔦松路３號","OBJECTID":142363},"geometry":{"x":175551.76000000071,"y":2580351.1400000006}},{"attributes":{"ID":142364,"DIS_CODE":0,"TOWNNAME":"永康區","LI":"勝利里","LIN":"33鄰","STREET":"中華路","SECT":" ","MAREA":" ","LANE":" ","ALLEY":" ","HOUSE_NO":"１號之２３","E_COORD97":171501.95999999999,"N_COORD97":2544353.0499999998,"ADDRESS":"中華路１號之２３","OBJECTID":142364},"geometry":{"x":171501.95999999996,"y":2544353.0500000007}},{"attributes":{"ID":142365,"DIS_CODE":0,"TOWNNAME":"安南區","LI":"佃東里","LIN":"22鄰","STREET":"公學路","SECT":"四段","MAREA":" ","LANE":"１２２巷","ALLEY":"８５弄","HOUSE_NO":"６０號","E_COORD97":165524.25,"N_COORD97":2552351.6499999999,"ADDRESS":"公學路四段１２２巷８５弄６０號","OBJECTID":142365},"geometry":{"x":165524.25,"y":2552351.6500000022}},{"attributes":{"ID":142366,"DIS_CODE":0,"TOWNNAME":"安南區","LI":"佃東里","LIN":"22鄰","STREET":"公學路","SECT":"四段","MAREA":" ","LANE":"１２２巷","ALLEY":"８５弄","HOUSE_NO":"６２號","E_COORD97":165523.56,"N_COORD97":2552346.8700000001,"ADDRESS":"公學路四段１２２巷８５弄６２號","OBJECTID":142366},"geometry":{"x":165523.55999999959,"y":2552346.8700000029}},{"attributes":{"ID":142367,"DIS_CODE":0,"TOWNNAME":"安南區","LI":"佃東里","LIN":"22鄰","STREET":"公學路","SECT":"四段","MAREA":" ","LANE":"１２２巷","ALLEY":"８５弄","HOUSE_NO":"６４號","E_COORD97":165523.62,"N_COORD97":2552343.8500000001,"ADDRESS":"公學路四段１２２巷８５弄６４號","OBJECTID":142367},"geometry":{"x":165523.62000000011,"y":2552343.8499999996}},{"attributes":{"ID":142368,"DIS_CODE":0,"TOWNNAME":"安南區","LI":"佃東里","LIN":"22鄰","STREET":"公學路","SECT":"四段","MAREA":" ","LANE":"１２２巷","ALLEY":"８５弄","HOUSE_NO":"６６號","E_COORD97":165522.60000000001,"N_COORD97":2552339.1099999999,"ADDRESS":"公學路四段１２２巷８５弄６６號","OBJECTID":142368},"geometry":{"x":165522.60000000056,"y":2552339.1099999994}},{"attributes":{"ID":142369,"DIS_CODE":0,"TOWNNAME":"安南區","LI":"佃東里","LIN":"22鄰","STREET":"公學路","SECT":"四段","MAREA":" ","LANE":"１２２巷","ALLEY":"８５弄","HOUSE_NO":"６８號","E_COORD97":165522.48999999999,"N_COORD97":2552334.8300000001,"ADDRESS":"公學路四段１２２巷８５弄６８號","OBJECTID":142369},"geometry":{"x":165522.49000000115,"y":2552334.8300000001}},{"attributes":{"ID":142370,"DIS_CODE":0,"TOWNNAME":"安南區","LI":"佃東里","LIN":"22鄰","STREET":"公學路","SECT":"四段","MAREA":" ","LANE":"１２２巷","ALLEY":"８５弄","HOUSE_NO":"７０號","E_COORD97":165522.04000000001,"N_COORD97":2552330.9900000002,"ADDRESS":"公學路四段１２２巷８５弄７０號","OBJECTID":142370},"geometry":{"x":165522.04000000004,"y":2552330.9900000039}},{"attributes":{"ID":142371,"DIS_CODE":0,"TOWNNAME":"安南區","LI":"佃東里","LIN":"22鄰","STREET":"公學路","SECT":"四段","MAREA":" ","LANE":"１２２巷","ALLEY":"８５弄","HOUSE_NO":"７２號","E_COORD97":165521.70000000001,"N_COORD97":2552326.9300000002,"ADDRESS":"公學路四段１２２巷８５弄７２號","OBJECTID":142371},"geometry":{"x":165521.70000000019,"y":2552326.9299999997}},{"attributes":{"ID":142372,"DIS_CODE":0,"TOWNNAME":"安南區","LI":"佃東里","LIN":"22鄰","STREET":"公學路","SECT":"四段","MAREA":" ","LANE":"１２２巷","ALLEY":"８５弄","HOUSE_NO":"７４號","E_COORD97":165521.35999999999,"N_COORD97":2552322.8700000001,"ADDRESS":"公學路四段１２２巷８５弄７４號","OBJECTID":142372},"geometry":{"x":165521.36000000127,"y":2552322.8700000029}},{"attributes":{"ID":142373,"DIS_CODE":0,"TOWNNAME":"山上區","LI":"玉\u25A0里","LIN":"8鄰","STREET":" ","SECT":" ","MAREA":"埔\u25A0坑","LANE":" ","ALLEY":" ","HOUSE_NO":"４號","E_COORD97":187478.57000000001,"N_COORD97":2553388.29,"ADDRESS":"埔\u25A0坑４號","OBJECTID":142373},"geometry":{"x":187478.5700000003,"y":2553388.2899999991}},{"attributes":{"ID":142374,"DIS_CODE":0,"TOWNNAME":"山上區","LI":"明和里","LIN":" ","STREET":" ","SECT":" ","MAREA":"明和","LANE":" ","ALLEY":" ","HOUSE_NO":"６１之２號","E_COORD97":183266.39000000001,"N_COORD97":2556079.2999999998,"ADDRESS":"明和６１之２號","OBJECTID":142374},"geometry":{"x":183266.38999999966,"y":2556079.3000000045}},{"attributes":{"ID":142375,"DIS_CODE":0,"TOWNNAME":"山上區","LI":"玉\u25A0里","LIN":"3鄰","STREET":" ","SECT":" ","MAREA":"蚵\u25A0潭","LANE":" ","ALLEY":" ","HOUSE_NO":"３５號","E_COORD97":187403.12,"N_COORD97":2555610.25,"ADDRESS":"蚵\u25A0潭３５號","OBJECTID":142375},"geometry":{"x":187403.12000000011,"y":2555610.25}},{"attributes":{"ID":142376,"DIS_CODE":0,"TOWNNAME":"安南區","LI":"佃東里","LIN":"22鄰","STREET":"公學路","SECT":"四段","MAREA":" ","LANE":"１２２巷","ALLEY":"８５弄","HOUSE_NO":"７６號","E_COORD97":165519.67000000001,"N_COORD97":2552318.6899999999,"ADDRESS":"公學路四段１２２巷８５弄７６號","OBJECTID":142376},"geometry":{"x":165519.66999999993,"y":2552318.6900000032}},{"attributes":{"ID":142377,"DIS_CODE":0,"TOWNNAME":"安南區","LI":"佃東里","LIN":"22鄰","STREET":"公學路","SECT":"四段","MAREA":" ","LANE":"１２２巷","ALLEY":"８５弄","HOUSE_NO":"７８號","E_COORD97":165504.32999999999,"N_COORD97":2552326.0600000001,"ADDRESS":"公學路四段１２２巷８５弄７８號","OBJECTID":142377},"geometry":{"x":165504.33000000101,"y":2552326.0600000005}},{"attributes":{"ID":142378,"DIS_CODE":0,"TOWNNAME":"安南區","LI":"佃東里","LIN":"22鄰","STREET":"公學路","SECT":"四段","MAREA":" ","LANE":"１２２巷","ALLEY":"８５弄","HOUSE_NO":"８０號","E_COORD97":165499.51000000001,"N_COORD97":2552323.6600000001,"ADDRESS":"公學路四段１２２巷８５弄８０號","OBJECTID":142378},"geometry":{"x":165499.51000000071,"y":2552323.660000002}},{"attributes":{"ID":142379,"DIS_CODE":0,"TOWNNAME":"安南區","LI":"佃東里","LIN":"22鄰","STREET":"公學路","SECT":"四段","MAREA":" ","LANE":"１２２巷","ALLEY":"８５弄","HOUSE_NO":"８２號","E_COORD97":165496.16,"N_COORD97":2552327.52,"ADDRESS":"公學路四段１２２巷８５弄８２號","OBJECTID":142379},"geometry":{"x":165496.16000000015,"y":2552327.5200000014}},{"attributes":{"ID":142380,"DIS_CODE":0,"TOWNNAME":"安南區","LI":"佃東里","LIN":"22鄰","STREET":"公學路","SECT":"四段","MAREA":" ","LANE":"１２２巷","ALLEY":"８５弄","HOUSE_NO":"８４號","E_COORD97":165491.26999999999,"N_COORD97":2552325.8399999999,"ADDRESS":"公學路四段１２２巷８５弄８４號","OBJECTID":142380},"geometry":{"x":165491.26999999955,"y":2552325.8400000017}},{"attributes":{"ID":142381,"DIS_CODE":0,"TOWNNAME":"山上區","LI":"山上里","LIN":" ","STREET":" ","SECT":" ","MAREA":"山上","LANE":" ","ALLEY":" ","HOUSE_NO":"２８號","E_COORD97":184319.26000000001,"N_COORD97":2555346.25,"ADDRESS":"山上２８號","OBJECTID":142381},"geometry":{"x":184319.26000000071,"y":2555346.2499999981}},{"attributes":{"ID":142382,"DIS_CODE":0,"TOWNNAME":"安南區","LI":"佃東里","LIN":"22鄰","STREET":"公學路","SECT":"四段","MAREA":" ","LANE":"１２２巷","ALLEY":"８５弄","HOUSE_NO":"８６號","E_COORD97":165492.92000000001,"N_COORD97":2552305.5499999998,"ADDRESS":"公學路四段１２２巷８５弄８６號","OBJECTID":142382},"geometry":{"x":165492.92000000179,"y":2552305.5500000026}},{"attributes":{"ID":142383,"DIS_CODE":0,"TOWNNAME":"山上區","LI":"玉\u25A0里","LIN":"1鄰","STREET":" ","SECT":" ","MAREA":"蚵\u25A0潭","LANE":" ","ALLEY":" ","HOUSE_NO":"９之１號","E_COORD97":187301.57000000001,"N_COORD97":2555611.2999999998,"ADDRESS":"蚵\u25A0潭９之１號","OBJECTID":142383},"geometry":{"x":187301.57000000123,"y":2555611.3000000045}},{"attributes":{"ID":142384,"DIS_CODE":0,"TOWNNAME":"山上區","LI":"玉\u25A0里","LIN":"2鄰","STREET":" ","SECT":" ","MAREA":"蚵\u25A0潭","LANE":" ","ALLEY":" ","HOUSE_NO":"２０之２號","E_COORD97":187385.92000000001,"N_COORD97":2555730.2999999998,"ADDRESS":"蚵\u25A0潭２０之２號","OBJECTID":142384},"geometry":{"x":187385.91999999993,"y":2555730.3000000026}},{"attributes":{"ID":142385,"DIS_CODE":0,"TOWNNAME":"山上區","LI":"豐德里","LIN":"4鄰","STREET":" ","SECT":" ","MAREA":"隙子口","LANE":" ","ALLEY":" ","HOUSE_NO":"４９之１號","E_COORD97":184579.17000000001,"N_COORD97":2552947.1200000001,"ADDRESS":"隙子口４９之１號","OBJECTID":142385},"geometry":{"x":184579.17000000179,"y":2552947.120000001}},{"attributes":{"ID":142386,"DIS_CODE":0,"TOWNNAME":"山上區","LI":"明和里","LIN":" ","STREET":" ","SECT":" ","MAREA":"明和","LANE":" ","ALLEY":" ","HOUSE_NO":"１５４之３號","E_COORD97":183285.14000000001,"N_COORD97":2556135.2999999998,"ADDRESS":"明和１５４之３號","OBJECTID":142386},"geometry":{"x":183285.13999999966,"y":2556135.3000000007}},{"attributes":{"ID":142387,"DIS_CODE":0,"TOWNNAME":"鹽水區","LI":"岸內里","LIN":"14鄰","STREET":"蔦松路","SECT":" ","MAREA":" ","LANE":" ","ALLEY":" ","HOUSE_NO":"３８號","E_COORD97":175580.29000000001,"N_COORD97":2580407.3199999998,"ADDRESS":"蔦松路３８號","OBJECTID":142387},"geometry":{"x":175580.28999999911,"y":2580407.3200000003}},{"attributes":{"ID":142388,"DIS_CODE":0,"TOWNNAME":"山上區","LI":"明和里","LIN":" ","STREET":" ","SECT":" ","MAREA":"北勢洲","LANE":" ","ALLEY":" ","HOUSE_NO":"１１號","E_COORD97":181913.73999999999,"N_COORD97":2556592.29,"ADDRESS":"北勢洲１１號","OBJECTID":142388},"geometry":{"x":181913.74000000022,"y":2556592.2899999991}},{"attributes":{"ID":142389,"DIS_CODE":0,"TOWNNAME":"安南區","LI":"佃東里","LIN":"22鄰","STREET":"公學路","SECT":"四段","MAREA":" ","LANE":"１２２巷","ALLEY":"８５弄","HOUSE_NO":"８８號","E_COORD97":165497.63,"N_COORD97":2552302.9100000001,"ADDRESS":"公學路四段１２２巷８５弄８８號","OBJECTID":142389},"geometry":{"x":165497.62999999989,"y":2552302.9100000001}},{"attributes":{"ID":142390,"DIS_CODE":0,"TOWNNAME":"永康區","LI":"勝利里","LIN":"33鄰","STREET":"中華路","SECT":" ","MAREA":" ","LANE":" ","ALLEY":" ","HOUSE_NO":"１號之１４","E_COORD97":171501.88,"N_COORD97":2544353.0499999998,"ADDRESS":"中華路１號之１４","OBJECTID":142390},"geometry":{"x":171501.87999999989,"y":2544353.0500000007}},{"attributes":{"ID":142391,"DIS_CODE":0,"TOWNNAME":"山上區","LI":"玉\u25A0里","LIN":"3鄰","STREET":" ","SECT":" ","MAREA":"蚵\u25A0潭","LANE":" ","ALLEY":" ","HOUSE_NO":"３７之２號","E_COORD97":187392.92000000001,"N_COORD97":2555514.2999999998,"ADDRESS":"蚵\u25A0潭３７之２號","OBJECTID":142391},"geometry":{"x":187392.91999999993,"y":2555514.3000000026}},{"attributes":{"ID":142392,"DIS_CODE":0,"TOWNNAME":"山上區","LI":"山上里","LIN":" ","STREET":" ","SECT":" ","MAREA":"山上","LANE":" ","ALLEY":" ","HOUSE_NO":"２３７之４號","E_COORD97":183997.41,"N_COORD97":2555732.2999999998,"ADDRESS":"山上２３７之４號","OBJECTID":142392},"geometry":{"x":183997.41000000015,"y":2555732.3000000007}},{"attributes":{"ID":142393,"DIS_CODE":0,"TOWNNAME":"佳里區","LI":"建南里","LIN":"33鄰","STREET":"南勢街","SECT":" ","MAREA":" ","LANE":" ","ALLEY":" ","HOUSE_NO":"１８４號","E_COORD97":165779.84,"N_COORD97":2560758.4300000002,"ADDRESS":"南勢街１８４號","OBJECTID":142393},"geometry":{"x":165779.83999999892,"y":2560758.4299999997}},{"attributes":{"ID":142394,"DIS_CODE":0,"TOWNNAME":"佳里區","LI":"建南里","LIN":"33鄰","STREET":"南勢街","SECT":" ","MAREA":" ","LANE":" ","ALLEY":" ","HOUSE_NO":"１８８號","E_COORD97":165754.20999999999,"N_COORD97":2560782.6699999999,"ADDRESS":"南勢街１８８號","OBJECTID":142394},"geometry":{"x":165754.21000000089,"y":2560782.6700000018}},{"attributes":{"ID":142395,"DIS_CODE":0,"TOWNNAME":"安南區","LI":"佃東里","LIN":"22鄰","STREET":"公學路","SECT":"四段","MAREA":" ","LANE":"１２２巷","ALLEY":"８５弄","HOUSE_NO":"９０號","E_COORD97":165502.57000000001,"N_COORD97":2552304.6299999999,"ADDRESS":"公學路四段１２２巷８５弄９０號","OBJECTID":142395},"geometry":{"x":165502.57000000216,"y":2552304.629999999}},{"attributes":{"ID":142396,"DIS_CODE":0,"TOWNNAME":"安南區","LI":"佃東里","LIN":"22鄰","STREET":"公學路","SECT":"四段","MAREA":" ","LANE":"１２２巷","ALLEY":"８５弄","HOUSE_NO":"９２號","E_COORD97":165506.35999999999,"N_COORD97":2552301.4199999999,"ADDRESS":"公學路四段１２２巷８５弄９２號","OBJECTID":142396},"geometry":{"x":165506.36000000127,"y":2552301.4200000018}},{"attributes":{"ID":142397,"DIS_CODE":0,"TOWNNAME":"安南區","LI":"佃東里","LIN":"22鄰","STREET":"公學路","SECT":"四段","MAREA":" ","LANE":"１２２巷","ALLEY":"８５弄","HOUSE_NO":"９４號","E_COORD97":165511.19,"N_COORD97":2552303.3700000001,"ADDRESS":"公學路四段１２２巷８５弄９４號","OBJECTID":142397},"geometry":{"x":165511.19000000041,"y":2552303.3700000029}},{"attributes":{"ID":142398,"DIS_CODE":0,"TOWNNAME":"新市區","LI":"大社里","LIN":"33鄰","STREET":" ","SECT":" ","MAREA":"大社","LANE":" ","ALLEY":" ","HOUSE_NO":"４０８之４９號","E_COORD97":180163.10000000001,"N_COORD97":2554820.1800000002,"ADDRESS":"大社４０８之４９號","OBJECTID":142398},"geometry":{"x":180163.09999999963,"y":2554820.1799999997}},{"attributes":{"ID":142399,"DIS_CODE":0,"TOWNNAME":"新市區","LI":"大社里","LIN":"33鄰","STREET":" ","SECT":" ","MAREA":"大社","LANE":" ","ALLEY":" ","HOUSE_NO":"４０８之５９號","E_COORD97":180108.10000000001,"N_COORD97":2554821.4300000002,"ADDRESS":"大社４０８之５９號","OBJECTID":142399},"geometry":{"x":180108.10000000056,"y":2554821.4299999997}},{"attributes":{"ID":142400,"DIS_CODE":0,"TOWNNAME":"山上區","LI":"山上里","LIN":" ","STREET":" ","SECT":" ","MAREA":"山上","LANE":" ","ALLEY":" ","HOUSE_NO":"４０之１８號","E_COORD97":184054.70999999999,"N_COORD97":2555330.2999999998,"ADDRESS":"山上４０之１８號","OBJECTID":142400},"geometry":{"x":184054.70999999996,"y":2555330.3000000026}}]}