{"displayFieldName":"TOWNNAME","fieldAliases":{"ID":"ID","DIS_CODE":"DIS_CODE","TOWNNAME":"TOWNNAME","LI":"LI","LIN":"LIN","STREET":"STREET","SECT":"SECT","MAREA":"MAREA","LANE":"LANE","ALLEY":"ALLEY","HOUSE_NO":"HOUSE_NO","E_COORD97":"E_COORD97","N_COORD97":"N_COORD97","ADDRESS":"ADDRESS","OBJECTID":"OBJECTID"},"geometryType":"esriGeometryPoint","spatialReference":{"wkid":102443,"latestWkid":3826},"fields":[{"name":"ID","type":"esriFieldTypeDouble","alias":"ID"},{"name":"DIS_CODE","type":"esriFieldTypeInteger","alias":"DIS_CODE"},{"name":"TOWNNAME","type":"esriFieldTypeString","alias":"TOWNNAME","length":8},{"name":"LI","type":"esriFieldTypeString","alias":"LI","length":8},{"name":"LIN","type":"esriFieldTypeString","alias":"LIN","length":12},{"name":"STREET","type":"esriFieldTypeString","alias":"STREET","length":20},{"name":"SECT","type":"esriFieldTypeString","alias":"SECT","length":8},{"name":"MAREA","type":"esriFieldTypeString","alias":"MAREA","length":12},{"name":"LANE","type":"esriFieldTypeString","alias":"LANE","length":10},{"name":"ALLEY","type":"esriFieldTypeString","alias":"ALLEY","length":10},{"name":"HOUSE_NO","type":"esriFieldTypeString","alias":"HOUSE_NO","length":20},{"name":"E_COORD97","type":"esriFieldTypeDouble","alias":"E_COORD97"},{"name":"N_COORD97","type":"esriFieldTypeDouble","alias":"N_COORD97"},{"name":"ADDRESS","type":"esriFieldTypeString","alias":"ADDRESS","length":50},{"name":"OBJECTID","type":"esriFieldTypeOID","alias":"OBJECTID"}],"features":[{"attributes":{"ID":49201,"DIS_CODE":0,"TOWNNAME":"北區","LI":"仁愛里","LIN":"15鄰","STREET":"長榮路","SECT":"四段","MAREA":" ","LANE":"３１巷","ALLEY":"２３弄","HOUSE_NO":"３３號四樓","E_COORD97":170192.14999999999,"N_COORD97":2544857.8599999999,"ADDRESS":"長榮路四段３１巷２３弄３３號四樓","OBJECTID":49201},"geometry":{"x":170192.15000000037,"y":2544857.8599999994}},{"attributes":{"ID":49202,"DIS_CODE":0,"TOWNNAME":"北區","LI":"仁愛里","LIN":"15鄰","STREET":"長榮路","SECT":"四段","MAREA":" ","LANE":"３１巷","ALLEY":"２３弄","HOUSE_NO":"３５號二樓","E_COORD97":170184.91,"N_COORD97":2544858.3300000001,"ADDRESS":"長榮路四段３１巷２３弄３５號二樓","OBJECTID":49202},"geometry":{"x":170184.91000000015,"y":2544858.3300000001}},{"attributes":{"ID":49203,"DIS_CODE":0,"TOWNNAME":"善化區","LI":"胡家里","LIN":"15鄰","STREET":" ","SECT":" ","MAREA":"胡厝寮","LANE":" ","ALLEY":" ","HOUSE_NO":"１３６之４號","E_COORD97":175364.35000000001,"N_COORD97":2560765.7599999998,"ADDRESS":"胡厝寮１３６之４號","OBJECTID":49203},"geometry":{"x":175364.35000000149,"y":2560765.7599999998}},{"attributes":{"ID":49204,"DIS_CODE":0,"TOWNNAME":"善化區","LI":"胡家里","LIN":"15鄰","STREET":" ","SECT":" ","MAREA":"胡厝寮","LANE":" ","ALLEY":" ","HOUSE_NO":"１３９號之１","E_COORD97":175354.13,"N_COORD97":2560752.77,"ADDRESS":"胡厝寮１３９號之１","OBJECTID":49204},"geometry":{"x":175354.13000000175,"y":2560752.7699999996}},{"attributes":{"ID":49205,"DIS_CODE":0,"TOWNNAME":"北區","LI":"仁愛里","LIN":"15鄰","STREET":"長榮路","SECT":"四段","MAREA":" ","LANE":"３１巷","ALLEY":"２３弄","HOUSE_NO":"３５號三樓","E_COORD97":170184.91,"N_COORD97":2544858.3300000001,"ADDRESS":"長榮路四段３１巷２３弄３５號三樓","OBJECTID":49205},"geometry":{"x":170184.91000000015,"y":2544858.3300000001}},{"attributes":{"ID":49206,"DIS_CODE":0,"TOWNNAME":"善化區","LI":"溪美里","LIN":"15鄰","STREET":" ","SECT":" ","MAREA":"溪尾","LANE":" ","ALLEY":" ","HOUSE_NO":"１３９號","E_COORD97":176977.16,"N_COORD97":2561367.02,"ADDRESS":"溪尾１３９號","OBJECTID":49206},"geometry":{"x":176977.16000000108,"y":2561367.0200000014}},{"attributes":{"ID":49207,"DIS_CODE":0,"TOWNNAME":"善化區","LI":"胡家里","LIN":"15鄰","STREET":" ","SECT":" ","MAREA":"胡厝寮","LANE":" ","ALLEY":" ","HOUSE_NO":"１４０號","E_COORD97":175323.64999999999,"N_COORD97":2560788.75,"ADDRESS":"胡厝寮１４０號","OBJECTID":49207},"geometry":{"x":175323.65000000037,"y":2560788.7500000019}},{"attributes":{"ID":49208,"DIS_CODE":0,"TOWNNAME":"北區","LI":"仁愛里","LIN":"15鄰","STREET":"長榮路","SECT":"四段","MAREA":" ","LANE":"３１巷","ALLEY":"２３弄","HOUSE_NO":"３５號五樓","E_COORD97":170184.91,"N_COORD97":2544858.3300000001,"ADDRESS":"長榮路四段３１巷２３弄３５號五樓","OBJECTID":49208},"geometry":{"x":170184.91000000015,"y":2544858.3300000001}},{"attributes":{"ID":49209,"DIS_CODE":0,"TOWNNAME":"北區","LI":"仁愛里","LIN":"15鄰","STREET":"長榮路","SECT":"四段","MAREA":" ","LANE":"３１巷","ALLEY":"２３弄","HOUSE_NO":"３５號四樓","E_COORD97":170184.91,"N_COORD97":2544858.3300000001,"ADDRESS":"長榮路四段３１巷２３弄３５號四樓","OBJECTID":49209},"geometry":{"x":170184.91000000015,"y":2544858.3300000001}},{"attributes":{"ID":49210,"DIS_CODE":0,"TOWNNAME":"善化區","LI":"牛庄里","LIN":"15鄰","STREET":" ","SECT":" ","MAREA":"牛庄","LANE":" ","ALLEY":" ","HOUSE_NO":"３００之８號","E_COORD97":179595.73000000001,"N_COORD97":2559819.52,"ADDRESS":"牛庄３００之８號","OBJECTID":49210},"geometry":{"x":179595.73000000138,"y":2559819.5200000033}},{"attributes":{"ID":49211,"DIS_CODE":0,"TOWNNAME":"善化區","LI":"牛庄里","LIN":"15鄰","STREET":" ","SECT":" ","MAREA":"牛庄","LANE":" ","ALLEY":" ","HOUSE_NO":"３００號","E_COORD97":179345.92000000001,"N_COORD97":2559909.25,"ADDRESS":"牛庄３００號","OBJECTID":49211},"geometry":{"x":179345.91999999993,"y":2559909.25}},{"attributes":{"ID":49212,"DIS_CODE":0,"TOWNNAME":"善化區","LI":"田寮里","LIN":"15鄰","STREET":" ","SECT":" ","MAREA":"六分寮","LANE":" ","ALLEY":" ","HOUSE_NO":"１７０號","E_COORD97":178739.06,"N_COORD97":2561560,"ADDRESS":"六分寮１７０號","OBJECTID":49212},"geometry":{"x":178739.05999999959,"y":2561560.0000000019}},{"attributes":{"ID":49213,"DIS_CODE":0,"TOWNNAME":"安南區","LI":"頂安里","LIN":"15鄰","STREET":"長溪路","SECT":"一段","MAREA":" ","LANE":"３４１巷","ALLEY":"１６弄","HOUSE_NO":"１號","E_COORD97":168690.82999999999,"N_COORD97":2548741,"ADDRESS":"長溪路一段３４１巷１６弄１號","OBJECTID":49213},"geometry":{"x":168690.83000000194,"y":2548741.0000000019}},{"attributes":{"ID":49214,"DIS_CODE":0,"TOWNNAME":"北區","LI":"仁愛里","LIN":"15鄰","STREET":"長榮路","SECT":"四段","MAREA":" ","LANE":"３１巷","ALLEY":"２３弄","HOUSE_NO":"３７號二樓","E_COORD97":170175.95000000001,"N_COORD97":2544859.2799999998,"ADDRESS":"長榮路四段３１巷２３弄３７號二樓","OBJECTID":49214},"geometry":{"x":170175.95000000112,"y":2544859.2800000031}},{"attributes":{"ID":49215,"DIS_CODE":0,"TOWNNAME":"北區","LI":"仁愛里","LIN":"15鄰","STREET":"長榮路","SECT":"四段","MAREA":" ","LANE":"３１巷","ALLEY":"２３弄","HOUSE_NO":"３７號三樓","E_COORD97":170175.95000000001,"N_COORD97":2544859.2799999998,"ADDRESS":"長榮路四段３１巷２３弄３７號三樓","OBJECTID":49215},"geometry":{"x":170175.95000000112,"y":2544859.2800000031}},{"attributes":{"ID":49216,"DIS_CODE":0,"TOWNNAME":"關廟區","LI":"東勢里","LIN":"17鄰","STREET":"旺萊路","SECT":" ","MAREA":" ","LANE":"２６０巷","ALLEY":" ","HOUSE_NO":"１３號","E_COORD97":181948.69,"N_COORD97":2539343.25,"ADDRESS":"旺萊路２６０巷１３號","OBJECTID":49216},"geometry":{"x":181948.69000000227,"y":2539343.25}},{"attributes":{"ID":49217,"DIS_CODE":0,"TOWNNAME":"關廟區","LI":"北勢里","LIN":"17鄰","STREET":"成功路","SECT":" ","MAREA":" ","LANE":" ","ALLEY":" ","HOUSE_NO":"３３７號","E_COORD97":181300.17000000001,"N_COORD97":2540492.27,"ADDRESS":"成功路３３７號","OBJECTID":49217},"geometry":{"x":181300.16999999993,"y":2540492.2699999996}},{"attributes":{"ID":49218,"DIS_CODE":0,"TOWNNAME":"關廟區","LI":"松腳里","LIN":"17鄰","STREET":"民權街","SECT":" ","MAREA":" ","LANE":" ","ALLEY":" ","HOUSE_NO":"４２號","E_COORD97":181584.84,"N_COORD97":2539735.29,"ADDRESS":"民權街４２號","OBJECTID":49218},"geometry":{"x":181584.84000000078,"y":2539735.2899999991}},{"attributes":{"ID":49219,"DIS_CODE":0,"TOWNNAME":"關廟區","LI":"北勢里","LIN":"17鄰","STREET":"成功路","SECT":" ","MAREA":" ","LANE":" ","ALLEY":" ","HOUSE_NO":"３５１號","E_COORD97":181272.47,"N_COORD97":2540501.27,"ADDRESS":"成功路３５１號","OBJECTID":49219},"geometry":{"x":181272.46999999974,"y":2540501.2699999996}},{"attributes":{"ID":49220,"DIS_CODE":0,"TOWNNAME":"關廟區","LI":"東勢里","LIN":"17鄰","STREET":"旺萊路","SECT":" ","MAREA":" ","LANE":" ","ALLEY":" ","HOUSE_NO":"２６６號","E_COORD97":181926.94,"N_COORD97":2539397.25,"ADDRESS":"旺萊路２６６號","OBJECTID":49220},"geometry":{"x":181926.94000000134,"y":2539397.25}},{"attributes":{"ID":49221,"DIS_CODE":0,"TOWNNAME":"關廟區","LI":"東勢里","LIN":"17鄰","STREET":"東仁街","SECT":" ","MAREA":" ","LANE":" ","ALLEY":" ","HOUSE_NO":"５號","E_COORD97":181906.07000000001,"N_COORD97":2539324.25,"ADDRESS":"東仁街５號","OBJECTID":49221},"geometry":{"x":181906.0700000003,"y":2539324.2500000019}},{"attributes":{"ID":49222,"DIS_CODE":0,"TOWNNAME":"關廟區","LI":"東勢里","LIN":"17鄰","STREET":"東仁街","SECT":" ","MAREA":" ","LANE":" ","ALLEY":" ","HOUSE_NO":"９號","E_COORD97":181897.57000000001,"N_COORD97":2539320.25,"ADDRESS":"東仁街９號","OBJECTID":49222},"geometry":{"x":181897.5700000003,"y":2539320.2500000037}},{"attributes":{"ID":49223,"DIS_CODE":0,"TOWNNAME":"關廟區","LI":"東勢里","LIN":"17鄰","STREET":"東仁街","SECT":" ","MAREA":" ","LANE":" ","ALLEY":" ","HOUSE_NO":"２１號","E_COORD97":181879.62,"N_COORD97":2539305.25,"ADDRESS":"東仁街２１號","OBJECTID":49223},"geometry":{"x":181879.62000000104,"y":2539305.25}},{"attributes":{"ID":49224,"DIS_CODE":0,"TOWNNAME":"關廟區","LI":"松腳里","LIN":"17鄰","STREET":"民權街","SECT":" ","MAREA":" ","LANE":" ","ALLEY":" ","HOUSE_NO":"４０號","E_COORD97":181590.54000000001,"N_COORD97":2539738.29,"ADDRESS":"民權街４０號","OBJECTID":49224},"geometry":{"x":181590.54000000097,"y":2539738.2899999991}},{"attributes":{"ID":49225,"DIS_CODE":0,"TOWNNAME":"關廟區","LI":"東勢里","LIN":"17鄰","STREET":"旺萊路","SECT":" ","MAREA":" ","LANE":" ","ALLEY":" ","HOUSE_NO":"２５２號","E_COORD97":181910.04000000001,"N_COORD97":2539385.2400000002,"ADDRESS":"旺萊路２５２號","OBJECTID":49225},"geometry":{"x":181910.04000000004,"y":2539385.2400000021}},{"attributes":{"ID":49226,"DIS_CODE":0,"TOWNNAME":"關廟區","LI":"東勢里","LIN":"17鄰","STREET":"旺萊路","SECT":" ","MAREA":" ","LANE":" ","ALLEY":" ","HOUSE_NO":"２６８號","E_COORD97":181932.73999999999,"N_COORD97":2539394.25,"ADDRESS":"旺萊路２６８號","OBJECTID":49226},"geometry":{"x":181932.74000000209,"y":2539394.25}},{"attributes":{"ID":49227,"DIS_CODE":0,"TOWNNAME":"關廟區","LI":"東勢里","LIN":"17鄰","STREET":"東仁街","SECT":" ","MAREA":" ","LANE":" ","ALLEY":" ","HOUSE_NO":"３０號","E_COORD97":181871.22,"N_COORD97":2539313.25,"ADDRESS":"東仁街３０號","OBJECTID":49227},"geometry":{"x":181871.21999999974,"y":2539313.2500000037}},{"attributes":{"ID":49228,"DIS_CODE":0,"TOWNNAME":"玉井區","LI":"中正里","LIN":"8鄰","STREET":"健康街","SECT":" ","MAREA":" ","LANE":" ","ALLEY":" ","HOUSE_NO":"７７號","E_COORD97":195547.44,"N_COORD97":2558870.2999999998,"ADDRESS":"健康街７７號","OBJECTID":49228},"geometry":{"x":195547.44000000227,"y":2558870.3000000026}},{"attributes":{"ID":49229,"DIS_CODE":0,"TOWNNAME":"玉井區","LI":"中正里","LIN":"8鄰","STREET":"大埕街","SECT":" ","MAREA":" ","LANE":" ","ALLEY":" ","HOUSE_NO":"５２號","E_COORD97":195527.5,"N_COORD97":2558799.2400000002,"ADDRESS":"大埕街５２號","OBJECTID":49229},"geometry":{"x":195527.5,"y":2558799.2400000021}},{"attributes":{"ID":49230,"DIS_CODE":0,"TOWNNAME":"玉井區","LI":"中正里","LIN":"8鄰","STREET":"健康街","SECT":" ","MAREA":" ","LANE":" ","ALLEY":" ","HOUSE_NO":"１７號","E_COORD97":195661.23000000001,"N_COORD97":2558843.2999999998,"ADDRESS":"健康街１７號","OBJECTID":49230},"geometry":{"x":195661.23000000138,"y":2558843.3000000026}},{"attributes":{"ID":49231,"DIS_CODE":0,"TOWNNAME":"北區","LI":"仁愛里","LIN":"15鄰","STREET":"長榮路","SECT":"四段","MAREA":" ","LANE":"３１巷","ALLEY":"２３弄","HOUSE_NO":"３７號五樓","E_COORD97":170175.95000000001,"N_COORD97":2544859.2799999998,"ADDRESS":"長榮路四段３１巷２３弄３７號五樓","OBJECTID":49231},"geometry":{"x":170175.95000000112,"y":2544859.2800000031}},{"attributes":{"ID":49232,"DIS_CODE":0,"TOWNNAME":"北區","LI":"仁愛里","LIN":"15鄰","STREET":"長榮路","SECT":"四段","MAREA":" ","LANE":"３１巷","ALLEY":"２３弄","HOUSE_NO":"３７號四樓","E_COORD97":170175.95000000001,"N_COORD97":2544859.2799999998,"ADDRESS":"長榮路四段３１巷２３弄３７號四樓","OBJECTID":49232},"geometry":{"x":170175.95000000112,"y":2544859.2800000031}},{"attributes":{"ID":49233,"DIS_CODE":0,"TOWNNAME":"南區","LI":"南華里","LIN":"15鄰","STREET":"中華南路","SECT":"二段","MAREA":" ","LANE":"３０２巷","ALLEY":"５弄","HOUSE_NO":"１０號二樓","E_COORD97":166604.63,"N_COORD97":2540411.3100000001,"ADDRESS":"中華南路二段３０２巷５弄１０號二樓","OBJECTID":49233},"geometry":{"x":166604.62999999989,"y":2540411.3100000005}},{"attributes":{"ID":49234,"DIS_CODE":0,"TOWNNAME":"佳里區","LI":"嘉福里","LIN":"12鄰","STREET":" ","SECT":" ","MAREA":"下營","LANE":" ","ALLEY":" ","HOUSE_NO":"１２３號","E_COORD97":163165.97,"N_COORD97":2563325.8399999999,"ADDRESS":"下營１２３號","OBJECTID":49234},"geometry":{"x":163165.96999999974,"y":2563325.8399999999}},{"attributes":{"ID":49235,"DIS_CODE":0,"TOWNNAME":"佳里區","LI":"嘉福里","LIN":"12鄰","STREET":" ","SECT":" ","MAREA":"下營","LANE":" ","ALLEY":" ","HOUSE_NO":"１２４號","E_COORD97":163146.91,"N_COORD97":2563318.9900000002,"ADDRESS":"下營１２４號","OBJECTID":49235},"geometry":{"x":163146.91000000015,"y":2563318.9899999984}},{"attributes":{"ID":49236,"DIS_CODE":0,"TOWNNAME":"佳里區","LI":"嘉福里","LIN":"12鄰","STREET":" ","SECT":" ","MAREA":"下營","LANE":" ","ALLEY":" ","HOUSE_NO":"１２５號之１","E_COORD97":163131.45999999999,"N_COORD97":2563283.9500000002,"ADDRESS":"下營１２５號之１","OBJECTID":49236},"geometry":{"x":163131.46000000183,"y":2563283.9499999993}},{"attributes":{"ID":49237,"DIS_CODE":0,"TOWNNAME":"佳里區","LI":"嘉福里","LIN":"12鄰","STREET":" ","SECT":" ","MAREA":"下營","LANE":" ","ALLEY":" ","HOUSE_NO":"１２５號之２","E_COORD97":163132.45999999999,"N_COORD97":2563294.8599999999,"ADDRESS":"下營１２５號之２","OBJECTID":49237},"geometry":{"x":163132.45999999996,"y":2563294.8599999994}},{"attributes":{"ID":49238,"DIS_CODE":0,"TOWNNAME":"佳里區","LI":"嘉福里","LIN":"12鄰","STREET":" ","SECT":" ","MAREA":"下營","LANE":" ","ALLEY":" ","HOUSE_NO":"１２５號","E_COORD97":163148.45999999999,"N_COORD97":2563299.21,"ADDRESS":"下營１２５號","OBJECTID":49238},"geometry":{"x":163148.46000000089,"y":2563299.2100000028}},{"attributes":{"ID":49239,"DIS_CODE":0,"TOWNNAME":"佳里區","LI":"嘉福里","LIN":"12鄰","STREET":" ","SECT":" ","MAREA":"下營","LANE":" ","ALLEY":" ","HOUSE_NO":"１２６號","E_COORD97":163140.03,"N_COORD97":2563268.9300000002,"ADDRESS":"下營１２６號","OBJECTID":49239},"geometry":{"x":163140.03000000119,"y":2563268.9300000016}},{"attributes":{"ID":49240,"DIS_CODE":0,"TOWNNAME":"佳里區","LI":"嘉福里","LIN":"12鄰","STREET":" ","SECT":" ","MAREA":"下營","LANE":" ","ALLEY":" ","HOUSE_NO":"１２７號","E_COORD97":163165.54999999999,"N_COORD97":2563278.1499999999,"ADDRESS":"下營１２７號","OBJECTID":49240},"geometry":{"x":163165.54999999981,"y":2563278.1500000022}},{"attributes":{"ID":49241,"DIS_CODE":0,"TOWNNAME":"佳里區","LI":"嘉福里","LIN":"12鄰","STREET":" ","SECT":" ","MAREA":"下營","LANE":" ","ALLEY":" ","HOUSE_NO":"１２８號","E_COORD97":163176.39999999999,"N_COORD97":2563310.2999999998,"ADDRESS":"下營１２８號","OBJECTID":49241},"geometry":{"x":163176.40000000224,"y":2563310.3000000007}},{"attributes":{"ID":49242,"DIS_CODE":0,"TOWNNAME":"佳里區","LI":"嘉福里","LIN":"12鄰","STREET":" ","SECT":" ","MAREA":"下營","LANE":" ","ALLEY":" ","HOUSE_NO":"１２９號","E_COORD97":163216.20000000001,"N_COORD97":2563264.98,"ADDRESS":"下營１２９號","OBJECTID":49242},"geometry":{"x":163216.20000000019,"y":2563264.9800000004}},{"attributes":{"ID":49243,"DIS_CODE":0,"TOWNNAME":"佳里區","LI":"嘉福里","LIN":"12鄰","STREET":" ","SECT":" ","MAREA":"下營","LANE":" ","ALLEY":" ","HOUSE_NO":"１３０號之１","E_COORD97":163227.17000000001,"N_COORD97":2563277.8100000001,"ADDRESS":"下營１３０號之１","OBJECTID":49243},"geometry":{"x":163227.17000000086,"y":2563277.8100000024}},{"attributes":{"ID":49244,"DIS_CODE":0,"TOWNNAME":"佳里區","LI":"嘉福里","LIN":"12鄰","STREET":" ","SECT":" ","MAREA":"下營","LANE":" ","ALLEY":" ","HOUSE_NO":"１３０號","E_COORD97":163226.84,"N_COORD97":2563304.2999999998,"ADDRESS":"下營１３０號","OBJECTID":49244},"geometry":{"x":163226.83999999985,"y":2563304.3000000045}},{"attributes":{"ID":49245,"DIS_CODE":0,"TOWNNAME":"佳里區","LI":"嘉福里","LIN":"12鄰","STREET":" ","SECT":" ","MAREA":"下營","LANE":" ","ALLEY":" ","HOUSE_NO":"１３１號","E_COORD97":163233.37,"N_COORD97":2563330.1299999999,"ADDRESS":"下營１３１號","OBJECTID":49245},"geometry":{"x":163233.37000000011,"y":2563330.129999999}},{"attributes":{"ID":49246,"DIS_CODE":0,"TOWNNAME":"南區","LI":"南華里","LIN":"15鄰","STREET":"中華南路","SECT":"二段","MAREA":" ","LANE":"３０２巷","ALLEY":"５弄","HOUSE_NO":"１０號三樓","E_COORD97":166604.63,"N_COORD97":2540411.3100000001,"ADDRESS":"中華南路二段３０２巷５弄１０號三樓","OBJECTID":49246},"geometry":{"x":166604.62999999989,"y":2540411.3100000005}},{"attributes":{"ID":49247,"DIS_CODE":0,"TOWNNAME":"南區","LI":"南華里","LIN":"15鄰","STREET":"中華南路","SECT":"二段","MAREA":" ","LANE":"３０２巷","ALLEY":"５弄","HOUSE_NO":"１０號五樓","E_COORD97":166604.63,"N_COORD97":2540411.3100000001,"ADDRESS":"中華南路二段３０２巷５弄１０號五樓","OBJECTID":49247},"geometry":{"x":166604.62999999989,"y":2540411.3100000005}},{"attributes":{"ID":49248,"DIS_CODE":0,"TOWNNAME":"南區","LI":"南華里","LIN":"15鄰","STREET":"中華南路","SECT":"二段","MAREA":" ","LANE":"３０２巷","ALLEY":"５弄","HOUSE_NO":"１０號四樓","E_COORD97":166604.63,"N_COORD97":2540411.3100000001,"ADDRESS":"中華南路二段３０２巷５弄１０號四樓","OBJECTID":49248},"geometry":{"x":166604.62999999989,"y":2540411.3100000005}},{"attributes":{"ID":49249,"DIS_CODE":0,"TOWNNAME":"南區","LI":"南華里","LIN":"15鄰","STREET":"中華南路","SECT":"二段","MAREA":" ","LANE":"３０２巷","ALLEY":"５弄","HOUSE_NO":"１２號二樓","E_COORD97":166597.14000000001,"N_COORD97":2540411.0699999998,"ADDRESS":"中華南路二段３０２巷５弄１２號二樓","OBJECTID":49249},"geometry":{"x":166597.1400000006,"y":2540411.0700000022}},{"attributes":{"ID":49250,"DIS_CODE":0,"TOWNNAME":"南區","LI":"南華里","LIN":"15鄰","STREET":"中華南路","SECT":"二段","MAREA":" ","LANE":"３０２巷","ALLEY":"５弄","HOUSE_NO":"１２號三樓","E_COORD97":166597.14000000001,"N_COORD97":2540411.0699999998,"ADDRESS":"中華南路二段３０２巷５弄１２號三樓","OBJECTID":49250},"geometry":{"x":166597.1400000006,"y":2540411.0700000022}},{"attributes":{"ID":49251,"DIS_CODE":0,"TOWNNAME":"南區","LI":"南華里","LIN":"15鄰","STREET":"中華南路","SECT":"二段","MAREA":" ","LANE":"３０２巷","ALLEY":"５弄","HOUSE_NO":"１２號五樓","E_COORD97":166597.14000000001,"N_COORD97":2540411.0699999998,"ADDRESS":"中華南路二段３０２巷５弄１２號五樓","OBJECTID":49251},"geometry":{"x":166597.1400000006,"y":2540411.0700000022}},{"attributes":{"ID":49252,"DIS_CODE":0,"TOWNNAME":"南區","LI":"南華里","LIN":"15鄰","STREET":"中華南路","SECT":"二段","MAREA":" ","LANE":"３０２巷","ALLEY":"５弄","HOUSE_NO":"１２號四樓","E_COORD97":166597.14000000001,"N_COORD97":2540411.0699999998,"ADDRESS":"中華南路二段３０２巷５弄１２號四樓","OBJECTID":49252},"geometry":{"x":166597.1400000006,"y":2540411.0700000022}},{"attributes":{"ID":49253,"DIS_CODE":0,"TOWNNAME":"南區","LI":"南華里","LIN":"15鄰","STREET":"中華南路","SECT":"二段","MAREA":" ","LANE":"３０２巷","ALLEY":"５弄","HOUSE_NO":"１號五樓","E_COORD97":166638.98999999999,"N_COORD97":2540385.1800000002,"ADDRESS":"中華南路二段３０２巷５弄１號五樓","OBJECTID":49253},"geometry":{"x":166638.99000000115,"y":2540385.1800000016}},{"attributes":{"ID":49254,"DIS_CODE":0,"TOWNNAME":"南區","LI":"南華里","LIN":"15鄰","STREET":"中華南路","SECT":"二段","MAREA":" ","LANE":"３０２巷","ALLEY":"５弄","HOUSE_NO":"１號四樓","E_COORD97":166638.98999999999,"N_COORD97":2540385.1800000002,"ADDRESS":"中華南路二段３０２巷５弄１號四樓","OBJECTID":49254},"geometry":{"x":166638.99000000115,"y":2540385.1800000016}},{"attributes":{"ID":49255,"DIS_CODE":0,"TOWNNAME":"南區","LI":"南華里","LIN":"15鄰","STREET":"中華南路","SECT":"二段","MAREA":" ","LANE":"３０２巷","ALLEY":"５弄","HOUSE_NO":"１號二樓","E_COORD97":166638.98999999999,"N_COORD97":2540385.1800000002,"ADDRESS":"中華南路二段３０２巷５弄１號二樓","OBJECTID":49255},"geometry":{"x":166638.99000000115,"y":2540385.1800000016}},{"attributes":{"ID":49256,"DIS_CODE":0,"TOWNNAME":"南區","LI":"南華里","LIN":"15鄰","STREET":"中華南路","SECT":"二段","MAREA":" ","LANE":"３０２巷","ALLEY":"５弄","HOUSE_NO":"１號三樓","E_COORD97":166638.98999999999,"N_COORD97":2540385.1800000002,"ADDRESS":"中華南路二段３０２巷５弄１號三樓","OBJECTID":49256},"geometry":{"x":166638.99000000115,"y":2540385.1800000016}},{"attributes":{"ID":49257,"DIS_CODE":0,"TOWNNAME":"南區","LI":"南華里","LIN":"15鄰","STREET":"中華南路","SECT":"二段","MAREA":" ","LANE":"３０２巷","ALLEY":"５弄","HOUSE_NO":"２號二樓","E_COORD97":166640.06,"N_COORD97":2540411.7799999998,"ADDRESS":"中華南路二段３０２巷５弄２號二樓","OBJECTID":49257},"geometry":{"x":166640.06000000052,"y":2540411.7800000012}},{"attributes":{"ID":49258,"DIS_CODE":0,"TOWNNAME":"關廟區","LI":"山西里","LIN":"17鄰","STREET":"崇明街","SECT":" ","MAREA":" ","LANE":"２３巷","ALLEY":" ","HOUSE_NO":"６號","E_COORD97":180995.12,"N_COORD97":2540684.2400000002,"ADDRESS":"崇明街２３巷６號","OBJECTID":49258},"geometry":{"x":180995.12000000104,"y":2540684.2400000021}},{"attributes":{"ID":49259,"DIS_CODE":0,"TOWNNAME":"麻豆區","LI":"中興里","LIN":"17鄰","STREET":"三民路","SECT":" ","MAREA":" ","LANE":" ","ALLEY":" ","HOUSE_NO":"９０號","E_COORD97":172787.81,"N_COORD97":2564361.3900000001,"ADDRESS":"三民路９０號","OBJECTID":49259},"geometry":{"x":172787.81000000145,"y":2564361.3900000025}},{"attributes":{"ID":49260,"DIS_CODE":0,"TOWNNAME":"關廟區","LI":"東勢里","LIN":"17鄰","STREET":"東仁街","SECT":" ","MAREA":" ","LANE":" ","ALLEY":" ","HOUSE_NO":"２８號","E_COORD97":181874.32000000001,"N_COORD97":2539315.25,"ADDRESS":"東仁街２８號","OBJECTID":49260},"geometry":{"x":181874.3200000003,"y":2539315.25}},{"attributes":{"ID":49261,"DIS_CODE":0,"TOWNNAME":"關廟區","LI":"東勢里","LIN":"17鄰","STREET":"東仁街","SECT":" ","MAREA":" ","LANE":" ","ALLEY":" ","HOUSE_NO":"３６號","E_COORD97":181863.51999999999,"N_COORD97":2539308.25,"ADDRESS":"東仁街３６號","OBJECTID":49261},"geometry":{"x":181863.51999999955,"y":2539308.25}},{"attributes":{"ID":49262,"DIS_CODE":0,"TOWNNAME":"南區","LI":"南華里","LIN":"15鄰","STREET":"中華南路","SECT":"二段","MAREA":" ","LANE":"３０２巷","ALLEY":"５弄","HOUSE_NO":"２號三樓","E_COORD97":166640.06,"N_COORD97":2540411.7799999998,"ADDRESS":"中華南路二段３０２巷５弄２號三樓","OBJECTID":49262},"geometry":{"x":166640.06000000052,"y":2540411.7800000012}},{"attributes":{"ID":49263,"DIS_CODE":0,"TOWNNAME":"南區","LI":"南華里","LIN":"15鄰","STREET":"中華南路","SECT":"二段","MAREA":" ","LANE":"３０２巷","ALLEY":"５弄","HOUSE_NO":"２號五樓","E_COORD97":166640.06,"N_COORD97":2540411.7799999998,"ADDRESS":"中華南路二段３０２巷５弄２號五樓","OBJECTID":49263},"geometry":{"x":166640.06000000052,"y":2540411.7800000012}},{"attributes":{"ID":49264,"DIS_CODE":0,"TOWNNAME":"南區","LI":"南華里","LIN":"15鄰","STREET":"中華南路","SECT":"二段","MAREA":" ","LANE":"３０２巷","ALLEY":"５弄","HOUSE_NO":"２號四樓","E_COORD97":166640.06,"N_COORD97":2540411.7799999998,"ADDRESS":"中華南路二段３０２巷５弄２號四樓","OBJECTID":49264},"geometry":{"x":166640.06000000052,"y":2540411.7800000012}},{"attributes":{"ID":49265,"DIS_CODE":0,"TOWNNAME":"南區","LI":"南華里","LIN":"15鄰","STREET":"中華南路","SECT":"二段","MAREA":" ","LANE":"３０２巷","ALLEY":"５弄","HOUSE_NO":"３號二樓","E_COORD97":166626.39000000001,"N_COORD97":2540385.8900000001,"ADDRESS":"中華南路二段３０２巷５弄３號二樓","OBJECTID":49265},"geometry":{"x":166626.38999999966,"y":2540385.8900000025}},{"attributes":{"ID":49266,"DIS_CODE":0,"TOWNNAME":"南區","LI":"南華里","LIN":"15鄰","STREET":"中華南路","SECT":"二段","MAREA":" ","LANE":"３０２巷","ALLEY":"５弄","HOUSE_NO":"３號三樓","E_COORD97":166626.39000000001,"N_COORD97":2540385.8900000001,"ADDRESS":"中華南路二段３０２巷５弄３號三樓","OBJECTID":49266},"geometry":{"x":166626.38999999966,"y":2540385.8900000025}},{"attributes":{"ID":49267,"DIS_CODE":0,"TOWNNAME":"南區","LI":"南華里","LIN":"15鄰","STREET":"中華南路","SECT":"二段","MAREA":" ","LANE":"３０２巷","ALLEY":"５弄","HOUSE_NO":"３號五樓","E_COORD97":166626.39000000001,"N_COORD97":2540385.8900000001,"ADDRESS":"中華南路二段３０２巷５弄３號五樓","OBJECTID":49267},"geometry":{"x":166626.38999999966,"y":2540385.8900000025}},{"attributes":{"ID":49268,"DIS_CODE":0,"TOWNNAME":"南區","LI":"南華里","LIN":"15鄰","STREET":"中華南路","SECT":"二段","MAREA":" ","LANE":"３０２巷","ALLEY":"５弄","HOUSE_NO":"３號四樓","E_COORD97":166626.39000000001,"N_COORD97":2540385.8900000001,"ADDRESS":"中華南路二段３０２巷５弄３號四樓","OBJECTID":49268},"geometry":{"x":166626.38999999966,"y":2540385.8900000025}},{"attributes":{"ID":49269,"DIS_CODE":0,"TOWNNAME":"仁德區","LI":"土庫里","LIN":" ","STREET":"土庫二街","SECT":" ","MAREA":" ","LANE":" ","ALLEY":" ","HOUSE_NO":"１１號","E_COORD97":174427.79000000001,"N_COORD97":2543018.25,"ADDRESS":"土庫二街１１號","OBJECTID":49269},"geometry":{"x":174427.79000000097,"y":2543018.25}},{"attributes":{"ID":49270,"DIS_CODE":0,"TOWNNAME":"仁德區","LI":"田厝里","LIN":" ","STREET":"保安路","SECT":"二段","MAREA":" ","LANE":" ","ALLEY":" ","HOUSE_NO":"５７９號","E_COORD97":172660.67999999999,"N_COORD97":2537587.2999999998,"ADDRESS":"保安路二段５７９號","OBJECTID":49270},"geometry":{"x":172660.68000000063,"y":2537587.3000000007}},{"attributes":{"ID":49271,"DIS_CODE":0,"TOWNNAME":"仁德區","LI":"保安里","LIN":" ","STREET":"文賢路","SECT":"一段","MAREA":" ","LANE":" ","ALLEY":" ","HOUSE_NO":"６６０號","E_COORD97":171166.17000000001,"N_COORD97":2536607.5800000001,"ADDRESS":"文賢路一段６６０號","OBJECTID":49271},"geometry":{"x":171166.16999999993,"y":2536607.5800000001}},{"attributes":{"ID":49272,"DIS_CODE":0,"TOWNNAME":"仁德區","LI":"土庫里","LIN":" ","STREET":"太子路","SECT":" ","MAREA":" ","LANE":" ","ALLEY":" ","HOUSE_NO":"１４９號","E_COORD97":174640.54000000001,"N_COORD97":2543508.0099999998,"ADDRESS":"太子路１４９號","OBJECTID":49272},"geometry":{"x":174640.54000000004,"y":2543508.0099999998}},{"attributes":{"ID":49273,"DIS_CODE":0,"TOWNNAME":"仁德區","LI":"田厝里","LIN":" ","STREET":"保安路","SECT":"二段","MAREA":" ","LANE":" ","ALLEY":" ","HOUSE_NO":"３７０之１號","E_COORD97":172114,"N_COORD97":2537365.8100000001,"ADDRESS":"保安路二段３７０之１號","OBJECTID":49273},"geometry":{"x":172114.00000000186,"y":2537365.8100000005}},{"attributes":{"ID":49274,"DIS_CODE":0,"TOWNNAME":"仁德區","LI":"保安里","LIN":" ","STREET":"中正路","SECT":"一段","MAREA":" ","LANE":" ","ALLEY":" ","HOUSE_NO":"２３８號","E_COORD97":171650.78,"N_COORD97":2535839.02,"ADDRESS":"中正路一段２３８號","OBJECTID":49274},"geometry":{"x":171650.78000000026,"y":2535839.0199999977}},{"attributes":{"ID":49275,"DIS_CODE":0,"TOWNNAME":"仁德區","LI":"土庫里","LIN":" ","STREET":"太子二街","SECT":" ","MAREA":" ","LANE":" ","ALLEY":" ","HOUSE_NO":"９號","E_COORD97":174289.98999999999,"N_COORD97":2543471.25,"ADDRESS":"太子二街９號","OBJECTID":49275},"geometry":{"x":174289.99000000115,"y":2543471.2500000019}},{"attributes":{"ID":49276,"DIS_CODE":0,"TOWNNAME":"仁德區","LI":"仁義里","LIN":" ","STREET":"正義二街","SECT":" ","MAREA":" ","LANE":" ","ALLEY":" ","HOUSE_NO":"９０之５號","E_COORD97":173675.20999999999,"N_COORD97":2541569.7999999998,"ADDRESS":"正義二街９０之５號","OBJECTID":49276},"geometry":{"x":173675.20999999996,"y":2541569.8000000026}},{"attributes":{"ID":49277,"DIS_CODE":0,"TOWNNAME":"仁德區","LI":"仁義里","LIN":" ","STREET":"中清三街","SECT":" ","MAREA":" ","LANE":" ","ALLEY":" ","HOUSE_NO":"１７號","E_COORD97":173493.89000000001,"N_COORD97":2541513.04,"ADDRESS":"中清三街１７號","OBJECTID":49277},"geometry":{"x":173493.88999999966,"y":2541513.0399999991}},{"attributes":{"ID":49278,"DIS_CODE":0,"TOWNNAME":"仁德區","LI":"田厝里","LIN":" ","STREET":"中正路","SECT":"一段","MAREA":" ","LANE":" ","ALLEY":" ","HOUSE_NO":"５３１號","E_COORD97":172861.54000000001,"N_COORD97":2537615.0299999998,"ADDRESS":"中正路一段５３１號","OBJECTID":49278},"geometry":{"x":172861.54000000097,"y":2537615.0299999993}},{"attributes":{"ID":49279,"DIS_CODE":0,"TOWNNAME":"南區","LI":"南華里","LIN":"15鄰","STREET":"中華南路","SECT":"二段","MAREA":" ","LANE":"３０２巷","ALLEY":"５弄","HOUSE_NO":"４號二樓","E_COORD97":166630.89999999999,"N_COORD97":2540411.1899999999,"ADDRESS":"中華南路二段３０２巷５弄４號二樓","OBJECTID":49279},"geometry":{"x":166630.90000000037,"y":2540411.1899999995}},{"attributes":{"ID":49280,"DIS_CODE":0,"TOWNNAME":"南區","LI":"南華里","LIN":"15鄰","STREET":"中華南路","SECT":"二段","MAREA":" ","LANE":"３０２巷","ALLEY":"５弄","HOUSE_NO":"４號三樓","E_COORD97":166630.89999999999,"N_COORD97":2540411.1899999999,"ADDRESS":"中華南路二段３０２巷５弄４號三樓","OBJECTID":49280},"geometry":{"x":166630.90000000037,"y":2540411.1899999995}},{"attributes":{"ID":49281,"DIS_CODE":0,"TOWNNAME":"南區","LI":"南華里","LIN":"15鄰","STREET":"中華南路","SECT":"二段","MAREA":" ","LANE":"３０２巷","ALLEY":"５弄","HOUSE_NO":"４號五樓","E_COORD97":166630.89999999999,"N_COORD97":2540411.1899999999,"ADDRESS":"中華南路二段３０２巷５弄４號五樓","OBJECTID":49281},"geometry":{"x":166630.90000000037,"y":2540411.1899999995}},{"attributes":{"ID":49282,"DIS_CODE":0,"TOWNNAME":"南區","LI":"南華里","LIN":"15鄰","STREET":"中華南路","SECT":"二段","MAREA":" ","LANE":"３０２巷","ALLEY":"５弄","HOUSE_NO":"４號四樓","E_COORD97":166630.89999999999,"N_COORD97":2540411.1899999999,"ADDRESS":"中華南路二段３０２巷５弄４號四樓","OBJECTID":49282},"geometry":{"x":166630.90000000037,"y":2540411.1899999995}},{"attributes":{"ID":49283,"DIS_CODE":0,"TOWNNAME":"南區","LI":"南華里","LIN":"15鄰","STREET":"中華南路","SECT":"二段","MAREA":" ","LANE":"３０２巷","ALLEY":"５弄","HOUSE_NO":"５號二樓","E_COORD97":166609.98000000001,"N_COORD97":2540386.8399999999,"ADDRESS":"中華南路二段３０２巷５弄５號二樓","OBJECTID":49283},"geometry":{"x":166609.98000000045,"y":2540386.8399999999}},{"attributes":{"ID":49284,"DIS_CODE":0,"TOWNNAME":"南區","LI":"南華里","LIN":"15鄰","STREET":"中華南路","SECT":"二段","MAREA":" ","LANE":"３０２巷","ALLEY":"５弄","HOUSE_NO":"５號三樓","E_COORD97":166609.98000000001,"N_COORD97":2540386.8399999999,"ADDRESS":"中華南路二段３０２巷５弄５號三樓","OBJECTID":49284},"geometry":{"x":166609.98000000045,"y":2540386.8399999999}},{"attributes":{"ID":49285,"DIS_CODE":0,"TOWNNAME":"南區","LI":"南華里","LIN":"15鄰","STREET":"中華南路","SECT":"二段","MAREA":" ","LANE":"３０２巷","ALLEY":"５弄","HOUSE_NO":"５號五樓","E_COORD97":166609.98000000001,"N_COORD97":2540386.8399999999,"ADDRESS":"中華南路二段３０２巷５弄５號五樓","OBJECTID":49285},"geometry":{"x":166609.98000000045,"y":2540386.8399999999}},{"attributes":{"ID":49286,"DIS_CODE":0,"TOWNNAME":"南區","LI":"南華里","LIN":"15鄰","STREET":"中華南路","SECT":"二段","MAREA":" ","LANE":"３０２巷","ALLEY":"５弄","HOUSE_NO":"５號四樓","E_COORD97":166609.98000000001,"N_COORD97":2540386.8399999999,"ADDRESS":"中華南路二段３０２巷５弄５號四樓","OBJECTID":49286},"geometry":{"x":166609.98000000045,"y":2540386.8399999999}},{"attributes":{"ID":49287,"DIS_CODE":0,"TOWNNAME":"北區","LI":"重興里","LIN":"4鄰","STREET":"林森路","SECT":"三段","MAREA":" ","LANE":" ","ALLEY":" ","HOUSE_NO":"１０６號","E_COORD97":170558.75,"N_COORD97":2544891.6299999999,"ADDRESS":"林森路三段１０６號","OBJECTID":49287},"geometry":{"x":170558.75,"y":2544891.6300000008}},{"attributes":{"ID":49288,"DIS_CODE":0,"TOWNNAME":"麻豆區","LI":"寮\u25A0里","LIN":"17鄰","STREET":" ","SECT":" ","MAREA":"寮子\u25A0","LANE":" ","ALLEY":" ","HOUSE_NO":"１４０號","E_COORD97":176533.09,"N_COORD97":2565254.4700000002,"ADDRESS":"寮子\u25A0１４０號","OBJECTID":49288},"geometry":{"x":176533.09000000078,"y":2565254.4700000007}},{"attributes":{"ID":49289,"DIS_CODE":0,"TOWNNAME":"南區","LI":"南華里","LIN":"15鄰","STREET":"中華南路","SECT":"二段","MAREA":" ","LANE":"３０２巷","ALLEY":"５弄","HOUSE_NO":"６號二樓","E_COORD97":166621.51000000001,"N_COORD97":2540411.6600000001,"ADDRESS":"中華南路二段３０２巷５弄６號二樓","OBJECTID":49289},"geometry":{"x":166621.51000000071,"y":2540411.6600000001}},{"attributes":{"ID":49290,"DIS_CODE":0,"TOWNNAME":"南區","LI":"南華里","LIN":"15鄰","STREET":"中華南路","SECT":"二段","MAREA":" ","LANE":"３０２巷","ALLEY":"５弄","HOUSE_NO":"６號三樓","E_COORD97":166621.51000000001,"N_COORD97":2540411.6600000001,"ADDRESS":"中華南路二段３０２巷５弄６號三樓","OBJECTID":49290},"geometry":{"x":166621.51000000071,"y":2540411.6600000001}},{"attributes":{"ID":49291,"DIS_CODE":0,"TOWNNAME":"南區","LI":"南華里","LIN":"15鄰","STREET":"中華南路","SECT":"二段","MAREA":" ","LANE":"３０２巷","ALLEY":"５弄","HOUSE_NO":"６號五樓","E_COORD97":166621.51000000001,"N_COORD97":2540411.6600000001,"ADDRESS":"中華南路二段３０２巷５弄６號五樓","OBJECTID":49291},"geometry":{"x":166621.51000000071,"y":2540411.6600000001}},{"attributes":{"ID":49292,"DIS_CODE":0,"TOWNNAME":"南區","LI":"南華里","LIN":"15鄰","STREET":"中華南路","SECT":"二段","MAREA":" ","LANE":"３０２巷","ALLEY":"５弄","HOUSE_NO":"６號四樓","E_COORD97":166621.51000000001,"N_COORD97":2540411.6600000001,"ADDRESS":"中華南路二段３０２巷５弄６號四樓","OBJECTID":49292},"geometry":{"x":166621.51000000071,"y":2540411.6600000001}},{"attributes":{"ID":49293,"DIS_CODE":0,"TOWNNAME":"南區","LI":"南華里","LIN":"15鄰","STREET":"中華南路","SECT":"二段","MAREA":" ","LANE":"３０２巷","ALLEY":"５弄","HOUSE_NO":"７號二樓","E_COORD97":166596.89999999999,"N_COORD97":2540386.96,"ADDRESS":"中華南路二段３０２巷５弄７號二樓","OBJECTID":49293},"geometry":{"x":166596.90000000037,"y":2540386.9600000009}},{"attributes":{"ID":49294,"DIS_CODE":0,"TOWNNAME":"南區","LI":"南華里","LIN":"15鄰","STREET":"中華南路","SECT":"二段","MAREA":" ","LANE":"３０２巷","ALLEY":"５弄","HOUSE_NO":"７號三樓","E_COORD97":166596.89999999999,"N_COORD97":2540386.96,"ADDRESS":"中華南路二段３０２巷５弄７號三樓","OBJECTID":49294},"geometry":{"x":166596.90000000037,"y":2540386.9600000009}},{"attributes":{"ID":49295,"DIS_CODE":0,"TOWNNAME":"南區","LI":"南華里","LIN":"15鄰","STREET":"中華南路","SECT":"二段","MAREA":" ","LANE":"３０２巷","ALLEY":"５弄","HOUSE_NO":"７號五樓","E_COORD97":166596.89999999999,"N_COORD97":2540386.96,"ADDRESS":"中華南路二段３０２巷５弄７號五樓","OBJECTID":49295},"geometry":{"x":166596.90000000037,"y":2540386.9600000009}},{"attributes":{"ID":49296,"DIS_CODE":0,"TOWNNAME":"南區","LI":"南華里","LIN":"15鄰","STREET":"中華南路","SECT":"二段","MAREA":" ","LANE":"３０２巷","ALLEY":"５弄","HOUSE_NO":"７號四樓","E_COORD97":166596.89999999999,"N_COORD97":2540386.96,"ADDRESS":"中華南路二段３０２巷５弄７號四樓","OBJECTID":49296},"geometry":{"x":166596.90000000037,"y":2540386.9600000009}},{"attributes":{"ID":49297,"DIS_CODE":0,"TOWNNAME":"南區","LI":"南華里","LIN":"15鄰","STREET":"中華南路","SECT":"二段","MAREA":" ","LANE":"３０２巷","ALLEY":"５弄","HOUSE_NO":"８號二樓","E_COORD97":166613.42999999999,"N_COORD97":2540411.4300000002,"ADDRESS":"中華南路二段３０２巷５弄８號二樓","OBJECTID":49297},"geometry":{"x":166613.43000000063,"y":2540411.4300000016}},{"attributes":{"ID":49298,"DIS_CODE":0,"TOWNNAME":"新營區","LI":"嘉芳里","LIN":"15鄰","STREET":"復興路","SECT":" ","MAREA":" ","LANE":"１０７０巷","ALLEY":"４１弄","HOUSE_NO":"１號","E_COORD97":176153.67999999999,"N_COORD97":2578987.8599999999,"ADDRESS":"復興路１０７０巷４１弄１號","OBJECTID":49298},"geometry":{"x":176153.68000000156,"y":2578987.8599999994}},{"attributes":{"ID":49299,"DIS_CODE":0,"TOWNNAME":"仁德區","LI":"土庫里","LIN":" ","STREET":"土庫路","SECT":" ","MAREA":" ","LANE":" ","ALLEY":" ","HOUSE_NO":"１４號","E_COORD97":174202.59,"N_COORD97":2543368.2400000002,"ADDRESS":"土庫路１４號","OBJECTID":49299},"geometry":{"x":174202.58999999985,"y":2543368.2399999984}},{"attributes":{"ID":49300,"DIS_CODE":0,"TOWNNAME":"仁德區","LI":"土庫里","LIN":" ","STREET":"土庫一街","SECT":" ","MAREA":" ","LANE":" ","ALLEY":" ","HOUSE_NO":"１５號","E_COORD97":174430.09,"N_COORD97":2543086.2400000002,"ADDRESS":"土庫一街１５號","OBJECTID":49300},"geometry":{"x":174430.08999999985,"y":2543086.2400000002}},{"attributes":{"ID":49301,"DIS_CODE":0,"TOWNNAME":"仁德區","LI":"仁義里","LIN":" ","STREET":"中山路","SECT":" ","MAREA":" ","LANE":" ","ALLEY":" ","HOUSE_NO":"４２４號","E_COORD97":173702.48000000001,"N_COORD97":2541295.9900000002,"ADDRESS":"中山路４２４號","OBJECTID":49301},"geometry":{"x":173702.48000000045,"y":2541295.9900000021}},{"attributes":{"ID":49302,"DIS_CODE":0,"TOWNNAME":"仁德區","LI":"一甲里","LIN":" ","STREET":"太乙三街","SECT":" ","MAREA":" ","LANE":" ","ALLEY":" ","HOUSE_NO":"５４號","E_COORD97":173317.57999999999,"N_COORD97":2542280.2599999998,"ADDRESS":"太乙三街５４號","OBJECTID":49302},"geometry":{"x":173317.58000000101,"y":2542280.2600000016}},{"attributes":{"ID":49303,"DIS_CODE":0,"TOWNNAME":"仁德區","LI":"一甲里","LIN":" ","STREET":"太乙五街","SECT":" ","MAREA":" ","LANE":" ","ALLEY":" ","HOUSE_NO":"３６號","E_COORD97":173217.03,"N_COORD97":2542135.5,"ADDRESS":"太乙五街３６號","OBJECTID":49303},"geometry":{"x":173217.03000000026,"y":2542135.5}},{"attributes":{"ID":49304,"DIS_CODE":0,"TOWNNAME":"仁德區","LI":"一甲里","LIN":" ","STREET":"太乙五街","SECT":" ","MAREA":" ","LANE":" ","ALLEY":" ","HOUSE_NO":"５２號","E_COORD97":173205.14000000001,"N_COORD97":2542057.5099999998,"ADDRESS":"太乙五街５２號","OBJECTID":49304},"geometry":{"x":173205.1400000006,"y":2542057.5100000035}},{"attributes":{"ID":49305,"DIS_CODE":0,"TOWNNAME":"仁德區","LI":"仁義里","LIN":" ","STREET":"中正路","SECT":"二段","MAREA":" ","LANE":" ","ALLEY":" ","HOUSE_NO":"７７４號","E_COORD97":173478.76000000001,"N_COORD97":2540141.27,"ADDRESS":"中正路二段７７４號","OBJECTID":49305},"geometry":{"x":173478.76000000071,"y":2540141.2700000014}},{"attributes":{"ID":49306,"DIS_CODE":0,"TOWNNAME":"仁德區","LI":"一甲里","LIN":" ","STREET":"中正路","SECT":"三段","MAREA":" ","LANE":" ","ALLEY":" ","HOUSE_NO":"１６５號","E_COORD97":173467.98000000001,"N_COORD97":2541818.52,"ADDRESS":"中正路三段１６５號","OBJECTID":49306},"geometry":{"x":173467.98000000138,"y":2541818.5199999996}},{"attributes":{"ID":49307,"DIS_CODE":0,"TOWNNAME":"仁德區","LI":"一甲里","LIN":" ","STREET":"太乙五街","SECT":" ","MAREA":" ","LANE":" ","ALLEY":" ","HOUSE_NO":"２３號","E_COORD97":173240.85000000001,"N_COORD97":2542169.2599999998,"ADDRESS":"太乙五街２３號","OBJECTID":49307},"geometry":{"x":173240.85000000056,"y":2542169.2600000016}},{"attributes":{"ID":49308,"DIS_CODE":0,"TOWNNAME":"仁德區","LI":"仁義里","LIN":" ","STREET":"中山路","SECT":" ","MAREA":" ","LANE":" ","ALLEY":" ","HOUSE_NO":"３８０號","E_COORD97":173826.89999999999,"N_COORD97":2541280.2400000002,"ADDRESS":"中山路３８０號","OBJECTID":49308},"geometry":{"x":173826.90000000037,"y":2541280.2400000039}},{"attributes":{"ID":49309,"DIS_CODE":0,"TOWNNAME":"仁德區","LI":"仁義里","LIN":" ","STREET":"中山路","SECT":" ","MAREA":" ","LANE":" ","ALLEY":" ","HOUSE_NO":"３３３號","E_COORD97":174017.32999999999,"N_COORD97":2541227,"ADDRESS":"中山路３３３號","OBJECTID":49309},"geometry":{"x":174017.33000000101,"y":2541226.9999999981}},{"attributes":{"ID":49310,"DIS_CODE":0,"TOWNNAME":"南區","LI":"南華里","LIN":"15鄰","STREET":"中華南路","SECT":"二段","MAREA":" ","LANE":"３０２巷","ALLEY":"５弄","HOUSE_NO":"８號三樓","E_COORD97":166613.42999999999,"N_COORD97":2540411.4300000002,"ADDRESS":"中華南路二段３０２巷５弄８號三樓","OBJECTID":49310},"geometry":{"x":166613.43000000063,"y":2540411.4300000016}},{"attributes":{"ID":49311,"DIS_CODE":0,"TOWNNAME":"南區","LI":"南華里","LIN":"15鄰","STREET":"中華南路","SECT":"二段","MAREA":" ","LANE":"３０２巷","ALLEY":"５弄","HOUSE_NO":"８號五樓","E_COORD97":166613.42999999999,"N_COORD97":2540411.4300000002,"ADDRESS":"中華南路二段３０２巷５弄８號五樓","OBJECTID":49311},"geometry":{"x":166613.43000000063,"y":2540411.4300000016}},{"attributes":{"ID":49312,"DIS_CODE":0,"TOWNNAME":"東山區","LI":"聖賢里","LIN":"17鄰","STREET":" ","SECT":" ","MAREA":"頂窩","LANE":" ","ALLEY":" ","HOUSE_NO":"３０號之１","E_COORD97":183109.60999999999,"N_COORD97":2578473.3500000001,"ADDRESS":"頂窩３０號之１","OBJECTID":49312},"geometry":{"x":183109.61000000034,"y":2578473.3499999996}},{"attributes":{"ID":49313,"DIS_CODE":0,"TOWNNAME":"南區","LI":"南華里","LIN":"15鄰","STREET":"中華南路","SECT":"二段","MAREA":" ","LANE":"３０２巷","ALLEY":"５弄","HOUSE_NO":"８號四樓","E_COORD97":166613.42999999999,"N_COORD97":2540411.4300000002,"ADDRESS":"中華南路二段３０２巷５弄８號四樓","OBJECTID":49313},"geometry":{"x":166613.43000000063,"y":2540411.4300000016}},{"attributes":{"ID":49314,"DIS_CODE":0,"TOWNNAME":"北區","LI":"重興里","LIN":"4鄰","STREET":"林森路","SECT":"三段","MAREA":" ","LANE":" ","ALLEY":" ","HOUSE_NO":"１１２號","E_COORD97":170564.64000000001,"N_COORD97":2544907.0600000001,"ADDRESS":"林森路三段１１２號","OBJECTID":49314},"geometry":{"x":170564.63999999966,"y":2544907.0600000024}},{"attributes":{"ID":49315,"DIS_CODE":0,"TOWNNAME":"仁德區","LI":"仁義里","LIN":"38鄰","STREET":"中正路","SECT":"二段","MAREA":" ","LANE":" ","ALLEY":" ","HOUSE_NO":"８３０號","E_COORD97":173468.26000000001,"N_COORD97":2540418.2799999998,"ADDRESS":"中正路二段８３０號","OBJECTID":49315},"geometry":{"x":173468.26000000071,"y":2540418.2800000012}},{"attributes":{"ID":49316,"DIS_CODE":0,"TOWNNAME":"仁德區","LI":"仁義里","LIN":" ","STREET":"中正路","SECT":"二段","MAREA":" ","LANE":" ","ALLEY":" ","HOUSE_NO":"６５０號","E_COORD97":173389.35999999999,"N_COORD97":2539811.7799999998,"ADDRESS":"中正路二段６５０號","OBJECTID":49316},"geometry":{"x":173389.36000000034,"y":2539811.7800000012}},{"attributes":{"ID":49317,"DIS_CODE":0,"TOWNNAME":"仁德區","LI":"仁義里","LIN":" ","STREET":"中山路","SECT":" ","MAREA":" ","LANE":" ","ALLEY":" ","HOUSE_NO":"５９５號","E_COORD97":173342.35999999999,"N_COORD97":2541313.2400000002,"ADDRESS":"中山路５９５號","OBJECTID":49317},"geometry":{"x":173342.36000000034,"y":2541313.2400000002}},{"attributes":{"ID":49318,"DIS_CODE":0,"TOWNNAME":"仁德區","LI":"仁義里","LIN":" ","STREET":"中正路","SECT":"二段","MAREA":" ","LANE":" ","ALLEY":" ","HOUSE_NO":"６６８號","E_COORD97":173393.34,"N_COORD97":2539857.27,"ADDRESS":"中正路二段６６８號","OBJECTID":49318},"geometry":{"x":173393.34000000078,"y":2539857.2699999996}},{"attributes":{"ID":49319,"DIS_CODE":0,"TOWNNAME":"北區","LI":"重興里","LIN":"4鄰","STREET":"林森路","SECT":"三段","MAREA":" ","LANE":" ","ALLEY":" ","HOUSE_NO":"１１６號","E_COORD97":170561.82000000001,"N_COORD97":2544913.5600000001,"ADDRESS":"林森路三段１１６號","OBJECTID":49319},"geometry":{"x":170561.82000000123,"y":2544913.5600000024}},{"attributes":{"ID":49320,"DIS_CODE":0,"TOWNNAME":"佳里區","LI":"嘉福里","LIN":"12鄰","STREET":" ","SECT":" ","MAREA":"下營","LANE":" ","ALLEY":" ","HOUSE_NO":"１３６號之２","E_COORD97":163263.356272,"N_COORD97":2563288.3675899999,"ADDRESS":"下營１３６號之２","OBJECTID":49320},"geometry":{"x":163263.35627199989,"y":2563288.367589999}},{"attributes":{"ID":49321,"DIS_CODE":0,"TOWNNAME":"佳里區","LI":"嘉福里","LIN":"12鄰","STREET":" ","SECT":" ","MAREA":"下營","LANE":" ","ALLEY":" ","HOUSE_NO":"１３６號之３","E_COORD97":163259.69,"N_COORD97":2563297.0699999998,"ADDRESS":"下營１３６號之３","OBJECTID":49321},"geometry":{"x":163259.69000000134,"y":2563297.0700000003}},{"attributes":{"ID":49322,"DIS_CODE":0,"TOWNNAME":"佳里區","LI":"嘉福里","LIN":"12鄰","STREET":" ","SECT":" ","MAREA":"下營","LANE":" ","ALLEY":" ","HOUSE_NO":"１３６號","E_COORD97":163268.04000000001,"N_COORD97":2563319.4100000001,"ADDRESS":"下營１３６號","OBJECTID":49322},"geometry":{"x":163268.04000000004,"y":2563319.4099999983}},{"attributes":{"ID":49323,"DIS_CODE":0,"TOWNNAME":"佳里區","LI":"嘉福里","LIN":"12鄰","STREET":" ","SECT":" ","MAREA":"下營","LANE":" ","ALLEY":" ","HOUSE_NO":"１３７號","E_COORD97":163314.78,"N_COORD97":2563334.3900000001,"ADDRESS":"下營１３７號","OBJECTID":49323},"geometry":{"x":163314.78000000119,"y":2563334.3900000025}},{"attributes":{"ID":49324,"DIS_CODE":0,"TOWNNAME":"佳里區","LI":"嘉福里","LIN":"12鄰","STREET":" ","SECT":" ","MAREA":"下營","LANE":" ","ALLEY":" ","HOUSE_NO":"１４１號","E_COORD97":163460.69,"N_COORD97":2563219.75,"ADDRESS":"下營１４１號","OBJECTID":49324},"geometry":{"x":163460.69000000041,"y":2563219.7500000019}},{"attributes":{"ID":49325,"DIS_CODE":0,"TOWNNAME":"佳里區","LI":"嘉福里","LIN":"12鄰","STREET":" ","SECT":" ","MAREA":"下營","LANE":" ","ALLEY":" ","HOUSE_NO":"１４２號","E_COORD97":163372.59,"N_COORD97":2563189.6800000002,"ADDRESS":"下營１４２號","OBJECTID":49325},"geometry":{"x":163372.58999999985,"y":2563189.6800000016}},{"attributes":{"ID":49326,"DIS_CODE":0,"TOWNNAME":"佳里區","LI":"嘉福里","LIN":"12鄰","STREET":" ","SECT":" ","MAREA":"下營","LANE":" ","ALLEY":" ","HOUSE_NO":"１４３號","E_COORD97":163438.89999999999,"N_COORD97":2563216.5099999998,"ADDRESS":"下營１４３號","OBJECTID":49326},"geometry":{"x":163438.89999999944,"y":2563216.5099999998}},{"attributes":{"ID":49327,"DIS_CODE":0,"TOWNNAME":"佳里區","LI":"嘉福里","LIN":"12鄰","STREET":" ","SECT":" ","MAREA":"下營","LANE":" ","ALLEY":" ","HOUSE_NO":"１４５號","E_COORD97":163355.95000000001,"N_COORD97":2563195.3900000001,"ADDRESS":"下營１４５號","OBJECTID":49327},"geometry":{"x":163355.95000000112,"y":2563195.3900000025}},{"attributes":{"ID":49328,"DIS_CODE":0,"TOWNNAME":"佳里區","LI":"嘉福里","LIN":"12鄰","STREET":" ","SECT":" ","MAREA":"下營","LANE":" ","ALLEY":" ","HOUSE_NO":"１４６號","E_COORD97":163427.42000000001,"N_COORD97":2563200.23,"ADDRESS":"下營１４６號","OBJECTID":49328},"geometry":{"x":163427.41999999993,"y":2563200.2300000023}},{"attributes":{"ID":49329,"DIS_CODE":0,"TOWNNAME":"佳里區","LI":"嘉福里","LIN":"12鄰","STREET":" ","SECT":" ","MAREA":"下營","LANE":" ","ALLEY":" ","HOUSE_NO":"１５１號之４","E_COORD97":163218.45000000001,"N_COORD97":2562754.8100000001,"ADDRESS":"下營１５１號之４","OBJECTID":49329},"geometry":{"x":163218.45000000112,"y":2562754.8100000042}},{"attributes":{"ID":49330,"DIS_CODE":0,"TOWNNAME":"佳里區","LI":"嘉福里","LIN":"12鄰","STREET":" ","SECT":" ","MAREA":"下營","LANE":" ","ALLEY":" ","HOUSE_NO":"１５１號","E_COORD97":163532.14000000001,"N_COORD97":2563193.5600000001,"ADDRESS":"下營１５１號","OBJECTID":49330},"geometry":{"x":163532.1400000006,"y":2563193.5600000042}},{"attributes":{"ID":49331,"DIS_CODE":0,"TOWNNAME":"佳里區","LI":"嘉福里","LIN":"12鄰","STREET":" ","SECT":" ","MAREA":"下營","LANE":" ","ALLEY":" ","HOUSE_NO":"１５２號","E_COORD97":163172.47,"N_COORD97":2562777.73,"ADDRESS":"下營１５２號","OBJECTID":49331},"geometry":{"x":163172.47000000067,"y":2562777.7300000004}},{"attributes":{"ID":49332,"DIS_CODE":0,"TOWNNAME":"安南區","LI":"頂安里","LIN":"15鄰","STREET":"長溪路","SECT":"一段","MAREA":" ","LANE":"４０７巷","ALLEY":"８３弄","HOUSE_NO":"１４號","E_COORD97":168645.82999999999,"N_COORD97":2548788.2999999998,"ADDRESS":"長溪路一段４０７巷８３弄１４號","OBJECTID":49332},"geometry":{"x":168645.83000000101,"y":2548788.3000000007}},{"attributes":{"ID":49333,"DIS_CODE":0,"TOWNNAME":"安南區","LI":"頂安里","LIN":"15鄰","STREET":"長溪路","SECT":"一段","MAREA":" ","LANE":"４０７巷","ALLEY":"８３弄","HOUSE_NO":"１６號","E_COORD97":168647.17000000001,"N_COORD97":2548792.3300000001,"ADDRESS":"長溪路一段４０７巷８３弄１６號","OBJECTID":49333},"geometry":{"x":168647.16999999993,"y":2548792.3300000038}},{"attributes":{"ID":49334,"DIS_CODE":0,"TOWNNAME":"安南區","LI":"頂安里","LIN":"15鄰","STREET":"長溪路","SECT":"一段","MAREA":" ","LANE":"４０７巷","ALLEY":"８３弄","HOUSE_NO":"１號","E_COORD97":168619.29999999999,"N_COORD97":2548758.4399999999,"ADDRESS":"長溪路一段４０７巷８３弄１號","OBJECTID":49334},"geometry":{"x":168619.29999999981,"y":2548758.4400000013}},{"attributes":{"ID":49335,"DIS_CODE":0,"TOWNNAME":"安南區","LI":"頂安里","LIN":"15鄰","STREET":"長溪路","SECT":"一段","MAREA":" ","LANE":"４０７巷","ALLEY":"８３弄","HOUSE_NO":"２號","E_COORD97":168621.98000000001,"N_COORD97":2548765.1499999999,"ADDRESS":"長溪路一段４０７巷８３弄２號","OBJECTID":49335},"geometry":{"x":168621.98000000045,"y":2548765.1500000004}},{"attributes":{"ID":49336,"DIS_CODE":0,"TOWNNAME":"安南區","LI":"頂安里","LIN":"15鄰","STREET":"長溪路","SECT":"一段","MAREA":" ","LANE":"４０７巷","ALLEY":"８３弄","HOUSE_NO":"３號","E_COORD97":168632.39000000001,"N_COORD97":2548745.6899999999,"ADDRESS":"長溪路一段４０７巷８３弄３號","OBJECTID":49336},"geometry":{"x":168632.39000000153,"y":2548745.6900000013}},{"attributes":{"ID":49337,"DIS_CODE":0,"TOWNNAME":"安南區","LI":"頂安里","LIN":"15鄰","STREET":"長溪路","SECT":"一段","MAREA":" ","LANE":"４０７巷","ALLEY":"８３弄","HOUSE_NO":"４號","E_COORD97":168634.07000000001,"N_COORD97":2548749.3799999999,"ADDRESS":"長溪路一段４０７巷８３弄４號","OBJECTID":49337},"geometry":{"x":168634.07000000123,"y":2548749.379999999}},{"attributes":{"ID":49338,"DIS_CODE":0,"TOWNNAME":"安南區","LI":"頂安里","LIN":"15鄰","STREET":"長溪路","SECT":"一段","MAREA":" ","LANE":"４０７巷","ALLEY":"８３弄","HOUSE_NO":"５號","E_COORD97":168626.01000000001,"N_COORD97":2548777.5699999998,"ADDRESS":"長溪路一段４０７巷８３弄５號","OBJECTID":49338},"geometry":{"x":168626.00999999978,"y":2548777.570000004}},{"attributes":{"ID":49339,"DIS_CODE":0,"TOWNNAME":"佳里區","LI":"嘉福里","LIN":"12鄰","STREET":" ","SECT":" ","MAREA":"下營","LANE":" ","ALLEY":" ","HOUSE_NO":"１５３號之２","E_COORD97":162982.94,"N_COORD97":2563247.21,"ADDRESS":"下營１５３號之２","OBJECTID":49339},"geometry":{"x":162982.94000000134,"y":2563247.2100000046}},{"attributes":{"ID":49340,"DIS_CODE":0,"TOWNNAME":"佳里區","LI":"嘉福里","LIN":"12鄰","STREET":" ","SECT":" ","MAREA":"下營","LANE":" ","ALLEY":" ","HOUSE_NO":"１５３號","E_COORD97":162955.28,"N_COORD97":2563235.48,"ADDRESS":"下營１５３號","OBJECTID":49340},"geometry":{"x":162955.28000000119,"y":2563235.4800000023}},{"attributes":{"ID":49341,"DIS_CODE":0,"TOWNNAME":"佳里區","LI":"嘉福里","LIN":"12鄰","STREET":" ","SECT":" ","MAREA":"下營","LANE":" ","ALLEY":" ","HOUSE_NO":"１５５號","E_COORD97":163312.59,"N_COORD97":2563311.6600000001,"ADDRESS":"下營１５５號","OBJECTID":49341},"geometry":{"x":163312.59000000078,"y":2563311.660000002}},{"attributes":{"ID":49342,"DIS_CODE":0,"TOWNNAME":"佳里區","LI":"嘉福里","LIN":"12鄰","STREET":" ","SECT":" ","MAREA":"下營","LANE":" ","ALLEY":" ","HOUSE_NO":"１５６號","E_COORD97":163313.10000000001,"N_COORD97":2563306.9700000002,"ADDRESS":"下營１５６號","OBJECTID":49342},"geometry":{"x":163313.10000000149,"y":2563306.9700000025}},{"attributes":{"ID":49343,"DIS_CODE":0,"TOWNNAME":"安南區","LI":"頂安里","LIN":"15鄰","STREET":"長溪路","SECT":"一段","MAREA":" ","LANE":"４０７巷","ALLEY":"８３弄","HOUSE_NO":"６號","E_COORD97":168636.76000000001,"N_COORD97":2548759.4500000002,"ADDRESS":"長溪路一段４０７巷８３弄６號","OBJECTID":49343},"geometry":{"x":168636.76000000164,"y":2548759.4499999993}},{"attributes":{"ID":49344,"DIS_CODE":0,"TOWNNAME":"安南區","LI":"頂安里","LIN":"15鄰","STREET":"長溪路","SECT":"一段","MAREA":" ","LANE":"４０７巷","ALLEY":"８３弄","HOUSE_NO":"７號","E_COORD97":168629.04000000001,"N_COORD97":2548785.2799999998,"ADDRESS":"長溪路一段４０７巷８３弄７號","OBJECTID":49344},"geometry":{"x":168629.04000000097,"y":2548785.2800000031}},{"attributes":{"ID":49345,"DIS_CODE":0,"TOWNNAME":"安南區","LI":"頂安里","LIN":"15鄰","STREET":"長溪路","SECT":"一段","MAREA":" ","LANE":"４０７巷","ALLEY":"８３弄","HOUSE_NO":"８號","E_COORD97":168639.10999999999,"N_COORD97":2548764.48,"ADDRESS":"長溪路一段４０７巷８３弄８號","OBJECTID":49345},"geometry":{"x":168639.11000000127,"y":2548764.4800000042}},{"attributes":{"ID":49346,"DIS_CODE":0,"TOWNNAME":"安南區","LI":"頂安里","LIN":"15鄰","STREET":"長溪路","SECT":"一段","MAREA":" ","LANE":"４０７巷","ALLEY":"８３弄","HOUSE_NO":"９號","E_COORD97":168632.73000000001,"N_COORD97":2548796.3500000001,"ADDRESS":"長溪路一段４０７巷８３弄９號","OBJECTID":49346},"geometry":{"x":168632.73000000231,"y":2548796.3500000015}},{"attributes":{"ID":49347,"DIS_CODE":0,"TOWNNAME":"安南區","LI":"頂安里","LIN":"15鄰","STREET":"長溪路","SECT":"一段","MAREA":" ","LANE":"３４１巷","ALLEY":"１６弄","HOUSE_NO":"２號","E_COORD97":168681.47,"N_COORD97":2548752.2799999998,"ADDRESS":"長溪路一段３４１巷１６弄２號","OBJECTID":49347},"geometry":{"x":168681.47000000067,"y":2548752.2800000012}},{"attributes":{"ID":49348,"DIS_CODE":0,"TOWNNAME":"安南區","LI":"頂安里","LIN":"15鄰","STREET":"長溪路","SECT":"一段","MAREA":" ","LANE":"３４１巷","ALLEY":"１６弄","HOUSE_NO":"３號","E_COORD97":168690.14999999999,"N_COORD97":2548735.29,"ADDRESS":"長溪路一段３４１巷１６弄３號","OBJECTID":49348},"geometry":{"x":168690.15000000037,"y":2548735.290000001}},{"attributes":{"ID":49349,"DIS_CODE":0,"TOWNNAME":"安南區","LI":"頂安里","LIN":"15鄰","STREET":"長溪路","SECT":"一段","MAREA":" ","LANE":"３４１巷","ALLEY":"１６弄","HOUSE_NO":"５號","E_COORD97":168687.47,"N_COORD97":2548731.6000000001,"ADDRESS":"長溪路一段３４１巷１６弄５號","OBJECTID":49349},"geometry":{"x":168687.46999999974,"y":2548731.5999999996}},{"attributes":{"ID":49350,"DIS_CODE":0,"TOWNNAME":"安南區","LI":"頂安里","LIN":"15鄰","STREET":"長溪路","SECT":"一段","MAREA":" ","LANE":"３４１巷","ALLEY":"１６弄","HOUSE_NO":"７號","E_COORD97":168681.42000000001,"N_COORD97":2548726.5699999998,"ADDRESS":"長溪路一段３４１巷１６弄７號","OBJECTID":49350},"geometry":{"x":168681.41999999993,"y":2548726.570000004}},{"attributes":{"ID":49351,"DIS_CODE":0,"TOWNNAME":"安南區","LI":"頂安里","LIN":"15鄰","STREET":"長溪路","SECT":"一段","MAREA":" ","LANE":"３４１巷","ALLEY":"１６弄","HOUSE_NO":"９號","E_COORD97":168679.73999999999,"N_COORD97":2548719.8599999999,"ADDRESS":"長溪路一段３４１巷１６弄９號","OBJECTID":49351},"geometry":{"x":168679.74000000209,"y":2548719.8599999994}},{"attributes":{"ID":49352,"DIS_CODE":0,"TOWNNAME":"永康區","LI":"正強里","LIN":"15鄰","STREET":"中山南路","SECT":" ","MAREA":" ","LANE":"４７１巷","ALLEY":"８１弄","HOUSE_NO":"２８號","E_COORD97":173331.5,"N_COORD97":2547241.5,"ADDRESS":"中山南路４７１巷８１弄２８號","OBJECTID":49352},"geometry":{"x":173331.50000000093,"y":2547241.4999999981}},{"attributes":{"ID":49353,"DIS_CODE":0,"TOWNNAME":"永康區","LI":"埔園里","LIN":"15鄰","STREET":"中山路","SECT":" ","MAREA":" ","LANE":"３８３巷","ALLEY":"１弄","HOUSE_NO":"９號","E_COORD97":173531.26999999999,"N_COORD97":2548505.3500000001,"ADDRESS":"中山路３８３巷１弄９號","OBJECTID":49353},"geometry":{"x":173531.27000000048,"y":2548505.3499999996}},{"attributes":{"ID":49354,"DIS_CODE":0,"TOWNNAME":"佳里區","LI":"嘉福里","LIN":"12鄰","STREET":" ","SECT":" ","MAREA":"下營","LANE":" ","ALLEY":" ","HOUSE_NO":"１５７號","E_COORD97":163313.51999999999,"N_COORD97":2563302.27,"ADDRESS":"下營１５７號","OBJECTID":49354},"geometry":{"x":163313.51999999862,"y":2563302.2699999996}},{"attributes":{"ID":49355,"DIS_CODE":0,"TOWNNAME":"佳里區","LI":"嘉福里","LIN":"12鄰","STREET":" ","SECT":" ","MAREA":"下營","LANE":" ","ALLEY":" ","HOUSE_NO":"１５８號","E_COORD97":163314.06,"N_COORD97":2563297.8900000001,"ADDRESS":"下營１５８號","OBJECTID":49355},"geometry":{"x":163314.06000000052,"y":2563297.8900000025}},{"attributes":{"ID":49356,"DIS_CODE":0,"TOWNNAME":"佳里區","LI":"嘉福里","LIN":"12鄰","STREET":" ","SECT":" ","MAREA":"下營","LANE":" ","ALLEY":" ","HOUSE_NO":"１５９號","E_COORD97":163314.22,"N_COORD97":2563293.3999999999,"ADDRESS":"下營１５９號","OBJECTID":49356},"geometry":{"x":163314.2200000016,"y":2563293.4000000022}},{"attributes":{"ID":49357,"DIS_CODE":0,"TOWNNAME":"佳里區","LI":"嘉福里","LIN":"12鄰","STREET":" ","SECT":" ","MAREA":"下營","LANE":" ","ALLEY":" ","HOUSE_NO":"１６０號","E_COORD97":163314.85999999999,"N_COORD97":2563289.3700000001,"ADDRESS":"下營１６０號","OBJECTID":49357},"geometry":{"x":163314.86000000034,"y":2563289.370000001}},{"attributes":{"ID":49358,"DIS_CODE":0,"TOWNNAME":"佳里區","LI":"嘉福里","LIN":"12鄰","STREET":" ","SECT":" ","MAREA":"下營","LANE":" ","ALLEY":" ","HOUSE_NO":"１６１號","E_COORD97":163315.10000000001,"N_COORD97":2563284.71,"ADDRESS":"下營１６１號","OBJECTID":49358},"geometry":{"x":163315.10000000056,"y":2563284.7100000046}},{"attributes":{"ID":49359,"DIS_CODE":0,"TOWNNAME":"佳里區","LI":"嘉福里","LIN":"12鄰","STREET":" ","SECT":" ","MAREA":"下營","LANE":" ","ALLEY":" ","HOUSE_NO":"１６２號","E_COORD97":163315.04000000001,"N_COORD97":2563280.71,"ADDRESS":"下營１６２號","OBJECTID":49359},"geometry":{"x":163315.04000000004,"y":2563280.7100000009}},{"attributes":{"ID":49360,"DIS_CODE":0,"TOWNNAME":"佳里區","LI":"嘉福里","LIN":"12鄰","STREET":" ","SECT":" ","MAREA":"下營","LANE":" ","ALLEY":" ","HOUSE_NO":"１６３號","E_COORD97":163314.94,"N_COORD97":2563275.7400000002,"ADDRESS":"下營１６３號","OBJECTID":49360},"geometry":{"x":163314.93999999948,"y":2563275.7400000002}},{"attributes":{"ID":49361,"DIS_CODE":0,"TOWNNAME":"佳里區","LI":"嘉福里","LIN":"12鄰","STREET":" ","SECT":" ","MAREA":"下營","LANE":" ","ALLEY":" ","HOUSE_NO":"１６５號","E_COORD97":163314.98999999999,"N_COORD97":2563270.8599999999,"ADDRESS":"下營１６５號","OBJECTID":49361},"geometry":{"x":163314.99000000115,"y":2563270.8599999994}},{"attributes":{"ID":49362,"DIS_CODE":0,"TOWNNAME":"鹽水區","LI":"南港里","LIN":"12鄰","STREET":" ","SECT":" ","MAREA":"?頭港","LANE":" ","ALLEY":" ","HOUSE_NO":"２００號之１００","E_COORD97":171167.60000000001,"N_COORD97":2572024.21,"ADDRESS":"?頭港２００號之１００","OBJECTID":49362},"geometry":{"x":171167.60000000056,"y":2572024.2100000009}},{"attributes":{"ID":49363,"DIS_CODE":0,"TOWNNAME":"鹽水區","LI":"南港里","LIN":"12鄰","STREET":" ","SECT":" ","MAREA":"?頭港","LANE":" ","ALLEY":" ","HOUSE_NO":"２００號之１０","E_COORD97":173394.39999999999,"N_COORD97":2572444.21,"ADDRESS":"?頭港２００號之１０","OBJECTID":49363},"geometry":{"x":173394.40000000037,"y":2572444.2100000009}},{"attributes":{"ID":49364,"DIS_CODE":0,"TOWNNAME":"鹽水區","LI":"南港里","LIN":"12鄰","STREET":" ","SECT":" ","MAREA":"?頭港","LANE":" ","ALLEY":" ","HOUSE_NO":"２００號之１１","E_COORD97":173340.48000000001,"N_COORD97":2572364.8199999998,"ADDRESS":"?頭港２００號之１１","OBJECTID":49364},"geometry":{"x":173340.48000000138,"y":2572364.8200000003}},{"attributes":{"ID":49365,"DIS_CODE":0,"TOWNNAME":"鹽水區","LI":"南港里","LIN":"12鄰","STREET":" ","SECT":" ","MAREA":"?頭港","LANE":" ","ALLEY":" ","HOUSE_NO":"２００號之１２","E_COORD97":173336.14000000001,"N_COORD97":2572385.0299999998,"ADDRESS":"?頭港２００號之１２","OBJECTID":49365},"geometry":{"x":173336.13999999966,"y":2572385.0300000012}},{"attributes":{"ID":49366,"DIS_CODE":0,"TOWNNAME":"鹽水區","LI":"南港里","LIN":"12鄰","STREET":" ","SECT":" ","MAREA":"?頭港","LANE":" ","ALLEY":" ","HOUSE_NO":"２００號之１３","E_COORD97":173317.98999999999,"N_COORD97":2572408.7000000002,"ADDRESS":"?頭港２００號之１３","OBJECTID":49366},"geometry":{"x":173317.99000000115,"y":2572408.6999999993}},{"attributes":{"ID":49367,"DIS_CODE":0,"TOWNNAME":"鹽水區","LI":"南港里","LIN":"12鄰","STREET":" ","SECT":" ","MAREA":"?頭港","LANE":" ","ALLEY":" ","HOUSE_NO":"２００號之１４","E_COORD97":173307.79999999999,"N_COORD97":2572354.9900000002,"ADDRESS":"?頭港２００號之１４","OBJECTID":49367},"geometry":{"x":173307.79999999981,"y":2572354.9900000021}},{"attributes":{"ID":49368,"DIS_CODE":0,"TOWNNAME":"永康區","LI":"勝利里","LIN":"15鄰","STREET":"勝利街","SECT":" ","MAREA":" ","LANE":"９５巷","ALLEY":"９弄","HOUSE_NO":"４號","E_COORD97":171261.98000000001,"N_COORD97":2544868.0099999998,"ADDRESS":"勝利街９５巷９弄４號","OBJECTID":49368},"geometry":{"x":171261.98000000231,"y":2544868.0099999979}},{"attributes":{"ID":49369,"DIS_CODE":0,"TOWNNAME":"永康區","LI":"埔園里","LIN":"15鄰","STREET":"中山路","SECT":" ","MAREA":" ","LANE":"３８３巷","ALLEY":"１弄","HOUSE_NO":"３０號","E_COORD97":173527.07000000001,"N_COORD97":2548471.7200000002,"ADDRESS":"中山路３８３巷１弄３０號","OBJECTID":49369},"geometry":{"x":173527.0700000003,"y":2548471.7200000044}},{"attributes":{"ID":49370,"DIS_CODE":0,"TOWNNAME":"永康區","LI":"正強里","LIN":"15鄰","STREET":"中山南路","SECT":" ","MAREA":" ","LANE":"４７１巷","ALLEY":"８１弄","HOUSE_NO":"１７號","E_COORD97":173273.60999999999,"N_COORD97":2547233.4100000001,"ADDRESS":"中山南路４７１巷８１弄１７號","OBJECTID":49370},"geometry":{"x":173273.61000000127,"y":2547233.410000002}},{"attributes":{"ID":49371,"DIS_CODE":0,"TOWNNAME":"安南區","LI":"州南里","LIN":"15鄰","STREET":"安和路","SECT":"四段","MAREA":" ","LANE":"５３３巷","ALLEY":"１５１弄","HOUSE_NO":"１１號","E_COORD97":169649.25,"N_COORD97":2551160.1499999999,"ADDRESS":"安和路四段５３３巷１５１弄１１號","OBJECTID":49371},"geometry":{"x":169649.25000000186,"y":2551160.1499999985}},{"attributes":{"ID":49372,"DIS_CODE":0,"TOWNNAME":"安南區","LI":"州南里","LIN":"15鄰","STREET":"安和路","SECT":"四段","MAREA":" ","LANE":"５３３巷","ALLEY":"１５１弄","HOUSE_NO":"１３號","E_COORD97":169660.92999999999,"N_COORD97":2551163.0099999998,"ADDRESS":"安和路四段５３３巷１５１弄１３號","OBJECTID":49372},"geometry":{"x":169660.9299999997,"y":2551163.0099999998}},{"attributes":{"ID":49373,"DIS_CODE":0,"TOWNNAME":"關廟區","LI":"龜洞里","LIN":"7鄰","STREET":"南雄南路","SECT":" ","MAREA":" ","LANE":"７０１巷","ALLEY":"１６弄","HOUSE_NO":"３２號","E_COORD97":183335.490724,"N_COORD97":2533352.4102699999,"ADDRESS":"南雄南路７０１巷１６弄３２號","OBJECTID":49373},"geometry":{"x":183335.49072400108,"y":2533352.410269998}},{"attributes":{"ID":49374,"DIS_CODE":0,"TOWNNAME":"安南區","LI":"州南里","LIN":"15鄰","STREET":"安和路","SECT":"四段","MAREA":" ","LANE":"５３３巷","ALLEY":"１５１弄","HOUSE_NO":"１５號","E_COORD97":169666.41,"N_COORD97":2551162.77,"ADDRESS":"安和路四段５３３巷１５１弄１５號","OBJECTID":49374},"geometry":{"x":169666.41000000015,"y":2551162.7700000014}},{"attributes":{"ID":49375,"DIS_CODE":0,"TOWNNAME":"安南區","LI":"州南里","LIN":"15鄰","STREET":"安和路","SECT":"四段","MAREA":" ","LANE":"５３３巷","ALLEY":"１５１弄","HOUSE_NO":"１７號","E_COORD97":169668.97,"N_COORD97":2551138.1600000001,"ADDRESS":"安和路四段５３３巷１５１弄１７號","OBJECTID":49375},"geometry":{"x":169668.96999999974,"y":2551138.1600000001}},{"attributes":{"ID":49376,"DIS_CODE":0,"TOWNNAME":"安南區","LI":"州南里","LIN":"15鄰","STREET":"安和路","SECT":"四段","MAREA":" ","LANE":"５３３巷","ALLEY":"１５１弄","HOUSE_NO":"１９號","E_COORD97":169664.23000000001,"N_COORD97":2551136.3599999999,"ADDRESS":"安和路四段５３３巷１５１弄１９號","OBJECTID":49376},"geometry":{"x":169664.23000000045,"y":2551136.3599999994}},{"attributes":{"ID":49377,"DIS_CODE":0,"TOWNNAME":"東山區","LI":"聖賢里","LIN":"17鄰","STREET":" ","SECT":" ","MAREA":"頂窩","LANE":" ","ALLEY":" ","HOUSE_NO":"２１號","E_COORD97":183225.92999999999,"N_COORD97":2578583.4900000002,"ADDRESS":"頂窩２１號","OBJECTID":49377},"geometry":{"x":183225.92999999877,"y":2578583.4900000021}},{"attributes":{"ID":49378,"DIS_CODE":0,"TOWNNAME":"安南區","LI":"州南里","LIN":"15鄰","STREET":"安和路","SECT":"四段","MAREA":" ","LANE":"５３３巷","ALLEY":"１５１弄","HOUSE_NO":"２１號","E_COORD97":169651.57999999999,"N_COORD97":2551141.8199999998,"ADDRESS":"安和路四段５３３巷１５１弄２１號","OBJECTID":49378},"geometry":{"x":169651.58000000007,"y":2551141.8200000003}},{"attributes":{"ID":49379,"DIS_CODE":0,"TOWNNAME":"安南區","LI":"州南里","LIN":"15鄰","STREET":"安和路","SECT":"四段","MAREA":" ","LANE":"５３３巷","ALLEY":"１５１弄","HOUSE_NO":"２３號","E_COORD97":169650.22,"N_COORD97":2551136.3799999999,"ADDRESS":"安和路四段５３３巷１５１弄２３號","OBJECTID":49379},"geometry":{"x":169650.21999999974,"y":2551136.379999999}},{"attributes":{"ID":49380,"DIS_CODE":0,"TOWNNAME":"安南區","LI":"州南里","LIN":"15鄰","STREET":"安和路","SECT":"四段","MAREA":" ","LANE":"５３３巷","ALLEY":"１５１弄","HOUSE_NO":"２５號","E_COORD97":169650.76000000001,"N_COORD97":2551131.7400000002,"ADDRESS":"安和路四段５３３巷１５１弄２５號","OBJECTID":49380},"geometry":{"x":169650.76000000071,"y":2551131.7400000002}},{"attributes":{"ID":49381,"DIS_CODE":0,"TOWNNAME":"安南區","LI":"州南里","LIN":"15鄰","STREET":"安和路","SECT":"四段","MAREA":" ","LANE":"５３３巷","ALLEY":"１５１弄","HOUSE_NO":"２７號","E_COORD97":169652.13,"N_COORD97":2551127.6600000001,"ADDRESS":"安和路四段５３３巷１５１弄２７號","OBJECTID":49381},"geometry":{"x":169652.13000000082,"y":2551127.660000002}},{"attributes":{"ID":49382,"DIS_CODE":0,"TOWNNAME":"安南區","LI":"州南里","LIN":"15鄰","STREET":"安和路","SECT":"四段","MAREA":" ","LANE":"５３３巷","ALLEY":"１５１弄","HOUSE_NO":"２９號","E_COORD97":169651.31,"N_COORD97":2551121.9399999999,"ADDRESS":"安和路四段５３３巷１５１弄２９號","OBJECTID":49382},"geometry":{"x":169651.30999999959,"y":2551121.9399999995}},{"attributes":{"ID":49383,"DIS_CODE":0,"TOWNNAME":"安南區","LI":"州南里","LIN":"15鄰","STREET":"安和路","SECT":"四段","MAREA":" ","LANE":"５３３巷","ALLEY":"１５１弄","HOUSE_NO":"３１號","E_COORD97":169652.67000000001,"N_COORD97":2551118.3999999999,"ADDRESS":"安和路四段５３３巷１５１弄３１號","OBJECTID":49383},"geometry":{"x":169652.66999999993,"y":2551118.4000000022}},{"attributes":{"ID":49384,"DIS_CODE":0,"TOWNNAME":"安南區","LI":"州南里","LIN":"15鄰","STREET":"安和路","SECT":"四段","MAREA":" ","LANE":"５３３巷","ALLEY":"１５１弄","HOUSE_NO":"３３號","E_COORD97":169664.91,"N_COORD97":2551121.8700000001,"ADDRESS":"安和路四段５３３巷１５１弄３３號","OBJECTID":49384},"geometry":{"x":169664.91000000015,"y":2551121.870000001}},{"attributes":{"ID":49385,"DIS_CODE":0,"TOWNNAME":"鹽水區","LI":"南港里","LIN":"12鄰","STREET":" ","SECT":" ","MAREA":"?頭港","LANE":" ","ALLEY":" ","HOUSE_NO":"２００號之１５","E_COORD97":173316.35000000001,"N_COORD97":2572375.6499999999,"ADDRESS":"?頭港２００號之１５","OBJECTID":49385},"geometry":{"x":173316.3499999987,"y":2572375.6500000022}},{"attributes":{"ID":49386,"DIS_CODE":0,"TOWNNAME":"安南區","LI":"州南里","LIN":"15鄰","STREET":"安和路","SECT":"四段","MAREA":" ","LANE":"５３３巷","ALLEY":"１５１弄","HOUSE_NO":"３５號","E_COORD97":169669.64999999999,"N_COORD97":2551122.77,"ADDRESS":"安和路四段５３３巷１５１弄３５號","OBJECTID":49386},"geometry":{"x":169669.6500000013,"y":2551122.7700000014}},{"attributes":{"ID":49387,"DIS_CODE":0,"TOWNNAME":"安南區","LI":"州南里","LIN":"15鄰","STREET":"安和路","SECT":"四段","MAREA":" ","LANE":"５３３巷","ALLEY":"１５１弄","HOUSE_NO":"３７號","E_COORD97":169650.48000000001,"N_COORD97":2551107.4300000002,"ADDRESS":"安和路四段５３３巷１５１弄３７號","OBJECTID":49387},"geometry":{"x":169650.48000000138,"y":2551107.4300000016}},{"attributes":{"ID":49388,"DIS_CODE":0,"TOWNNAME":"安南區","LI":"州南里","LIN":"15鄰","STREET":"安和路","SECT":"四段","MAREA":" ","LANE":"５３３巷","ALLEY":"１５１弄","HOUSE_NO":"３９號","E_COORD97":169652.94,"N_COORD97":2551103.8900000001,"ADDRESS":"安和路四段５３３巷１５１弄３９號","OBJECTID":49388},"geometry":{"x":169652.94000000041,"y":2551103.8900000006}},{"attributes":{"ID":49389,"DIS_CODE":0,"TOWNNAME":"安南區","LI":"州南里","LIN":"15鄰","STREET":"安和路","SECT":"四段","MAREA":" ","LANE":"５３３巷","ALLEY":"１５１弄","HOUSE_NO":"４１號","E_COORD97":169654.03,"N_COORD97":2551098.4399999999,"ADDRESS":"安和路四段５３３巷１５１弄４１號","OBJECTID":49389},"geometry":{"x":169654.03000000026,"y":2551098.4399999995}},{"attributes":{"ID":49390,"DIS_CODE":0,"TOWNNAME":"安南區","LI":"州南里","LIN":"15鄰","STREET":"安和路","SECT":"四段","MAREA":" ","LANE":"５３３巷","ALLEY":"１５１弄","HOUSE_NO":"４３號","E_COORD97":169654.29999999999,"N_COORD97":2551094.8999999999,"ADDRESS":"安和路四段５３３巷１５１弄４３號","OBJECTID":49390},"geometry":{"x":169654.30000000075,"y":2551094.9000000022}},{"attributes":{"ID":49391,"DIS_CODE":0,"TOWNNAME":"安南區","LI":"州南里","LIN":"15鄰","STREET":"州南十街","SECT":" ","MAREA":" ","LANE":" ","ALLEY":" ","HOUSE_NO":"１８６號","E_COORD97":169666.03,"N_COORD97":2551098.3599999999,"ADDRESS":"州南十街１８６號","OBJECTID":49391},"geometry":{"x":169666.02999999933,"y":2551098.3600000013}},{"attributes":{"ID":49392,"DIS_CODE":0,"TOWNNAME":"安南區","LI":"州南里","LIN":"15鄰","STREET":"州南十街","SECT":" ","MAREA":" ","LANE":" ","ALLEY":" ","HOUSE_NO":"１８２號","E_COORD97":169670.09,"N_COORD97":2551097.9100000001,"ADDRESS":"州南十街１８２號","OBJECTID":49392},"geometry":{"x":169670.08999999985,"y":2551097.910000002}},{"attributes":{"ID":49393,"DIS_CODE":0,"TOWNNAME":"安南區","LI":"州南里","LIN":"15鄰","STREET":"州南十街","SECT":" ","MAREA":" ","LANE":" ","ALLEY":" ","HOUSE_NO":"１４１號","E_COORD97":169670.37,"N_COORD97":2551064.3199999998,"ADDRESS":"州南十街１４１號","OBJECTID":49393},"geometry":{"x":169670.36999999918,"y":2551064.320000004}},{"attributes":{"ID":49394,"DIS_CODE":0,"TOWNNAME":"安南區","LI":"州南里","LIN":"15鄰","STREET":"州南十街","SECT":" ","MAREA":" ","LANE":" ","ALLEY":" ","HOUSE_NO":"１４３號","E_COORD97":169665.73999999999,"N_COORD97":2551063.5,"ADDRESS":"州南十街１４３號","OBJECTID":49394},"geometry":{"x":169665.74000000022,"y":2551063.5000000019}},{"attributes":{"ID":49395,"DIS_CODE":0,"TOWNNAME":"安南區","LI":"州南里","LIN":"15鄰","STREET":"安和路","SECT":"四段","MAREA":" ","LANE":"５３３巷","ALLEY":"１５１弄","HOUSE_NO":"５３號","E_COORD97":169653.72,"N_COORD97":2551072.1800000002,"ADDRESS":"安和路四段５３３巷１５１弄５３號","OBJECTID":49395},"geometry":{"x":169653.71999999974,"y":2551072.1800000016}},{"attributes":{"ID":49396,"DIS_CODE":0,"TOWNNAME":"安南區","LI":"州南里","LIN":"15鄰","STREET":"安和路","SECT":"四段","MAREA":" ","LANE":"５３３巷","ALLEY":"１５１弄","HOUSE_NO":"５５號","E_COORD97":169651.54000000001,"N_COORD97":2551067,"ADDRESS":"安和路四段５３３巷１５１弄５５號","OBJECTID":49396},"geometry":{"x":169651.54000000004,"y":2551067.0000000019}},{"attributes":{"ID":49397,"DIS_CODE":0,"TOWNNAME":"安南區","LI":"州南里","LIN":"15鄰","STREET":"安和路","SECT":"四段","MAREA":" ","LANE":"５３３巷","ALLEY":"１５１弄","HOUSE_NO":"５７號","E_COORD97":169651.81,"N_COORD97":2551063.46,"ADDRESS":"安和路四段５３３巷１５１弄５７號","OBJECTID":49397},"geometry":{"x":169651.81000000145,"y":2551063.4600000009}},{"attributes":{"ID":49398,"DIS_CODE":0,"TOWNNAME":"安南區","LI":"州南里","LIN":"15鄰","STREET":"安和路","SECT":"四段","MAREA":" ","LANE":"５３３巷","ALLEY":"１５１弄","HOUSE_NO":"５９號","E_COORD97":169653.17999999999,"N_COORD97":2551057.7400000002,"ADDRESS":"安和路四段５３３巷１５１弄５９號","OBJECTID":49398},"geometry":{"x":169653.18000000063,"y":2551057.7399999984}},{"attributes":{"ID":49399,"DIS_CODE":0,"TOWNNAME":"安南區","LI":"州南里","LIN":"15鄰","STREET":"安和路","SECT":"四段","MAREA":" ","LANE":"５３３巷","ALLEY":"１５１弄","HOUSE_NO":"６１號","E_COORD97":169650.72,"N_COORD97":2551053.6499999999,"ADDRESS":"安和路四段５３３巷１５１弄６１號","OBJECTID":49399},"geometry":{"x":169650.7200000016,"y":2551053.6500000004}},{"attributes":{"ID":49400,"DIS_CODE":0,"TOWNNAME":"安南區","LI":"州南里","LIN":"15鄰","STREET":"安和路","SECT":"四段","MAREA":" ","LANE":"５３３巷","ALLEY":"１５１弄","HOUSE_NO":"６３號","E_COORD97":169652.09,"N_COORD97":2551049.8399999999,"ADDRESS":"安和路四段５３３巷１５１弄６３號","OBJECTID":49400},"geometry":{"x":169652.09000000078,"y":2551049.839999998}}]}