{"displayFieldName":"TOWNNAME","fieldAliases":{"ID":"ID","DIS_CODE":"DIS_CODE","TOWNNAME":"TOWNNAME","LI":"LI","LIN":"LIN","STREET":"STREET","SECT":"SECT","MAREA":"MAREA","LANE":"LANE","ALLEY":"ALLEY","HOUSE_NO":"HOUSE_NO","E_COORD97":"E_COORD97","N_COORD97":"N_COORD97","ADDRESS":"ADDRESS","OBJECTID":"OBJECTID"},"geometryType":"esriGeometryPoint","spatialReference":{"wkid":102443,"latestWkid":3826},"fields":[{"name":"ID","type":"esriFieldTypeDouble","alias":"ID"},{"name":"DIS_CODE","type":"esriFieldTypeInteger","alias":"DIS_CODE"},{"name":"TOWNNAME","type":"esriFieldTypeString","alias":"TOWNNAME","length":8},{"name":"LI","type":"esriFieldTypeString","alias":"LI","length":8},{"name":"LIN","type":"esriFieldTypeString","alias":"LIN","length":12},{"name":"STREET","type":"esriFieldTypeString","alias":"STREET","length":20},{"name":"SECT","type":"esriFieldTypeString","alias":"SECT","length":8},{"name":"MAREA","type":"esriFieldTypeString","alias":"MAREA","length":12},{"name":"LANE","type":"esriFieldTypeString","alias":"LANE","length":10},{"name":"ALLEY","type":"esriFieldTypeString","alias":"ALLEY","length":10},{"name":"HOUSE_NO","type":"esriFieldTypeString","alias":"HOUSE_NO","length":20},{"name":"E_COORD97","type":"esriFieldTypeDouble","alias":"E_COORD97"},{"name":"N_COORD97","type":"esriFieldTypeDouble","alias":"N_COORD97"},{"name":"ADDRESS","type":"esriFieldTypeString","alias":"ADDRESS","length":50},{"name":"OBJECTID","type":"esriFieldTypeOID","alias":"OBJECTID"}],"features":[{"attributes":{"ID":183802,"DIS_CODE":0,"TOWNNAME":"七股區","LI":"中寮里","LIN":"11鄰","STREET":" ","SECT":" ","MAREA":"中寮","LANE":" ","ALLEY":" ","HOUSE_NO":"７８號","E_COORD97":158854.26999999999,"N_COORD97":2561623.23,"ADDRESS":"中寮７８號","OBJECTID":183801},"geometry":{"x":158854.27000000048,"y":2561623.2300000023}},{"attributes":{"ID":183803,"DIS_CODE":0,"TOWNNAME":"安南區","LI":"安東里","LIN":"20鄰","STREET":"安和路","SECT":"一段","MAREA":" ","LANE":"４９６巷","ALLEY":"２３弄","HOUSE_NO":"３號","E_COORD97":169523.5,"N_COORD97":2548451.7599999998,"ADDRESS":"安和路一段４９６巷２３弄３號","OBJECTID":183802},"geometry":{"x":169523.5,"y":2548451.7600000016}},{"attributes":{"ID":183804,"DIS_CODE":0,"TOWNNAME":"新化區","LI":"山\u25A0里","LIN":"10鄰","STREET":" ","SECT":" ","MAREA":"五甲勢","LANE":" ","ALLEY":" ","HOUSE_NO":"３４號","E_COORD97":181856.38,"N_COORD97":2545739.2599999998,"ADDRESS":"五甲勢３４號","OBJECTID":183803},"geometry":{"x":181856.37999999989,"y":2545739.2600000016}},{"attributes":{"ID":183805,"DIS_CODE":0,"TOWNNAME":"安南區","LI":"安東里","LIN":"20鄰","STREET":"安和路","SECT":"一段","MAREA":" ","LANE":"４９６巷","ALLEY":"２３弄","HOUSE_NO":"４１號","E_COORD97":169598.69,"N_COORD97":2548458.6000000001,"ADDRESS":"安和路一段４９６巷２３弄４１號","OBJECTID":183804},"geometry":{"x":169598.69000000041,"y":2548458.6000000015}},{"attributes":{"ID":183806,"DIS_CODE":0,"TOWNNAME":"新化區","LI":"山\u25A0里","LIN":"10鄰","STREET":" ","SECT":" ","MAREA":"五甲勢","LANE":" ","ALLEY":" ","HOUSE_NO":"３７號","E_COORD97":181795.38,"N_COORD97":2545749.2599999998,"ADDRESS":"五甲勢３７號","OBJECTID":183805},"geometry":{"x":181795.37999999989,"y":2545749.2600000016}},{"attributes":{"ID":183807,"DIS_CODE":0,"TOWNNAME":"新化區","LI":"全興里","LIN":"10鄰","STREET":" ","SECT":" ","MAREA":"竹子\u25A0","LANE":" ","ALLEY":" ","HOUSE_NO":"１６１號之３","E_COORD97":177387.67999999999,"N_COORD97":2547355.2599999998,"ADDRESS":"竹子\u25A0１６１號之３","OBJECTID":183806},"geometry":{"x":177387.6799999997,"y":2547355.2600000035}},{"attributes":{"ID":183808,"DIS_CODE":0,"TOWNNAME":"安南區","LI":"安東里","LIN":"20鄰","STREET":"安和路","SECT":"一段","MAREA":" ","LANE":"４９６巷","ALLEY":"２３弄","HOUSE_NO":"４３號","E_COORD97":169602.73999999999,"N_COORD97":2548457.3500000001,"ADDRESS":"安和路一段４９６巷２３弄４３號","OBJECTID":183807},"geometry":{"x":169602.74000000115,"y":2548457.3500000015}},{"attributes":{"ID":183809,"DIS_CODE":0,"TOWNNAME":"安南區","LI":"安東里","LIN":"20鄰","STREET":"安和路","SECT":"一段","MAREA":" ","LANE":"４９６巷","ALLEY":"２３弄","HOUSE_NO":"４７號","E_COORD97":169610.79999999999,"N_COORD97":2548457.6299999999,"ADDRESS":"安和路一段４９６巷２３弄４７號","OBJECTID":183808},"geometry":{"x":169610.79999999981,"y":2548457.6300000008}},{"attributes":{"ID":183810,"DIS_CODE":0,"TOWNNAME":"新化區","LI":"全興里","LIN":"10鄰","STREET":" ","SECT":" ","MAREA":"竹子\u25A0","LANE":" ","ALLEY":" ","HOUSE_NO":"１７７號","E_COORD97":177545.03,"N_COORD97":2547516.25,"ADDRESS":"竹子\u25A0１７７號","OBJECTID":183809},"geometry":{"x":177545.03000000026,"y":2547516.2500000019}},{"attributes":{"ID":183811,"DIS_CODE":0,"TOWNNAME":"新化區","LI":"大坑里","LIN":"10鄰","STREET":" ","SECT":" ","MAREA":"大坑尾","LANE":" ","ALLEY":" ","HOUSE_NO":"２３８號","E_COORD97":186671.76999999999,"N_COORD97":2546964.2799999998,"ADDRESS":"大坑尾２３８號","OBJECTID":183810},"geometry":{"x":186671.77000000048,"y":2546964.2799999975}},{"attributes":{"ID":183812,"DIS_CODE":0,"TOWNNAME":"新化區","LI":"全興里","LIN":"10鄰","STREET":" ","SECT":" ","MAREA":"竹子\u25A0","LANE":" ","ALLEY":" ","HOUSE_NO":"１６３號之５","E_COORD97":176930.19,"N_COORD97":2547566.2599999998,"ADDRESS":"竹子\u25A0１６３號之５","OBJECTID":183811},"geometry":{"x":176930.19000000041,"y":2547566.2600000016}},{"attributes":{"ID":183813,"DIS_CODE":0,"TOWNNAME":"安南區","LI":"安東里","LIN":"20鄰","STREET":"安和路","SECT":"一段","MAREA":" ","LANE":"４９６巷","ALLEY":"２３弄","HOUSE_NO":"４９號","E_COORD97":169614.57999999999,"N_COORD97":2548460.1400000001,"ADDRESS":"安和路一段４９６巷２３弄４９號","OBJECTID":183812},"geometry":{"x":169614.58000000007,"y":2548460.1400000025}},{"attributes":{"ID":183814,"DIS_CODE":0,"TOWNNAME":"安南區","LI":"安東里","LIN":"20鄰","STREET":"安和路","SECT":"一段","MAREA":" ","LANE":"４９６巷","ALLEY":"２３弄","HOUSE_NO":"５１號","E_COORD97":169618.76999999999,"N_COORD97":2548459.8599999999,"ADDRESS":"安和路一段４９６巷２３弄５１號","OBJECTID":183813},"geometry":{"x":169618.77000000048,"y":2548459.8600000013}},{"attributes":{"ID":183815,"DIS_CODE":0,"TOWNNAME":"新化區","LI":"崙頂里","LIN":"10鄰","STREET":" ","SECT":" ","MAREA":"崙子頂","LANE":" ","ALLEY":" ","HOUSE_NO":"３７４號","E_COORD97":176858.03,"N_COORD97":2546831.25,"ADDRESS":"崙子頂３７４號","OBJECTID":183814},"geometry":{"x":176858.03000000026,"y":2546831.2500000019}},{"attributes":{"ID":183816,"DIS_CODE":0,"TOWNNAME":"新化區","LI":"山\u25A0里","LIN":"10鄰","STREET":" ","SECT":" ","MAREA":"五甲勢","LANE":" ","ALLEY":" ","HOUSE_NO":"５２號","E_COORD97":181932.98000000001,"N_COORD97":2545638.2599999998,"ADDRESS":"五甲勢５２號","OBJECTID":183815},"geometry":{"x":181932.97999999952,"y":2545638.2599999998}},{"attributes":{"ID":183817,"DIS_CODE":0,"TOWNNAME":"安南區","LI":"安東里","LIN":"20鄰","STREET":"安和路","SECT":"一段","MAREA":" ","LANE":"４９６巷","ALLEY":"２３弄","HOUSE_NO":"５５號","E_COORD97":169626.31,"N_COORD97":2548462.6499999999,"ADDRESS":"安和路一段４９６巷２３弄５５號","OBJECTID":183816},"geometry":{"x":169626.31000000145,"y":2548462.6500000022}},{"attributes":{"ID":183818,"DIS_CODE":0,"TOWNNAME":"新化區","LI":"\u25A0拔里","LIN":"10鄰","STREET":" ","SECT":" ","MAREA":"牧場","LANE":" ","ALLEY":" ","HOUSE_NO":"９２號","E_COORD97":181885.23000000001,"N_COORD97":2551266.25,"ADDRESS":"牧場９２號","OBJECTID":183817},"geometry":{"x":181885.23000000045,"y":2551266.25}},{"attributes":{"ID":183819,"DIS_CODE":0,"TOWNNAME":"安南區","LI":"安東里","LIN":"20鄰","STREET":"安和路","SECT":"一段","MAREA":" ","LANE":"４９６巷","ALLEY":"２３弄","HOUSE_NO":"５７號","E_COORD97":169630.94,"N_COORD97":2548460.75,"ADDRESS":"安和路一段４９６巷２３弄５７號","OBJECTID":183818},"geometry":{"x":169630.94000000041,"y":2548460.7500000037}},{"attributes":{"ID":183820,"DIS_CODE":0,"TOWNNAME":"新化區","LI":"全興里","LIN":"10鄰","STREET":" ","SECT":" ","MAREA":"竹子\u25A0","LANE":" ","ALLEY":" ","HOUSE_NO":"１７１號之１","E_COORD97":177705.56,"N_COORD97":2546988.2599999998,"ADDRESS":"竹子\u25A0１７１號之１","OBJECTID":183819},"geometry":{"x":177705.56000000145,"y":2546988.2599999998}},{"attributes":{"ID":183821,"DIS_CODE":0,"TOWNNAME":"新化區","LI":"山\u25A0里","LIN":"10鄰","STREET":" ","SECT":" ","MAREA":"五甲勢","LANE":" ","ALLEY":" ","HOUSE_NO":"３６號","E_COORD97":181833.98000000001,"N_COORD97":2545739.2599999998,"ADDRESS":"五甲勢３６號","OBJECTID":183820},"geometry":{"x":181833.98000000045,"y":2545739.2600000016}},{"attributes":{"ID":183822,"DIS_CODE":0,"TOWNNAME":"新化區","LI":"\u25A0拔里","LIN":"10鄰","STREET":" ","SECT":" ","MAREA":"牧場","LANE":" ","ALLEY":" ","HOUSE_NO":"８６號","E_COORD97":181873.03,"N_COORD97":2551301.25,"ADDRESS":"牧場８６號","OBJECTID":183821},"geometry":{"x":181873.03000000026,"y":2551301.25}},{"attributes":{"ID":183823,"DIS_CODE":0,"TOWNNAME":"新化區","LI":"大坑里","LIN":"10鄰","STREET":" ","SECT":" ","MAREA":"大坑尾","LANE":" ","ALLEY":" ","HOUSE_NO":"２２０號","E_COORD97":186809.47,"N_COORD97":2547227.2799999998,"ADDRESS":"大坑尾２２０號","OBJECTID":183822},"geometry":{"x":186809.4700000016,"y":2547227.2799999993}},{"attributes":{"ID":183824,"DIS_CODE":0,"TOWNNAME":"安南區","LI":"安東里","LIN":"20鄰","STREET":"安和路","SECT":"一段","MAREA":" ","LANE":"４９６巷","ALLEY":"２３弄","HOUSE_NO":"５９號","E_COORD97":169634.45000000001,"N_COORD97":2548461.25,"ADDRESS":"安和路一段４９６巷２３弄５９號","OBJECTID":183823},"geometry":{"x":169634.45000000205,"y":2548461.2500000019}},{"attributes":{"ID":183825,"DIS_CODE":0,"TOWNNAME":"安南區","LI":"安東里","LIN":"20鄰","STREET":"安和路","SECT":"一段","MAREA":" ","LANE":"４９６巷","ALLEY":"２３弄","HOUSE_NO":"５號","E_COORD97":169527.41,"N_COORD97":2548452.7400000002,"ADDRESS":"安和路一段４９６巷２３弄５號","OBJECTID":183824},"geometry":{"x":169527.41000000015,"y":2548452.7400000002}},{"attributes":{"ID":183826,"DIS_CODE":0,"TOWNNAME":"新化區","LI":"全興里","LIN":"10鄰","STREET":" ","SECT":" ","MAREA":"竹子\u25A0","LANE":" ","ALLEY":" ","HOUSE_NO":"１７７號之６","E_COORD97":177634.57999999999,"N_COORD97":2547451.2599999998,"ADDRESS":"竹子\u25A0１７７號之６","OBJECTID":183825},"geometry":{"x":177634.57999999914,"y":2547451.2600000016}},{"attributes":{"ID":183827,"DIS_CODE":0,"TOWNNAME":"新化區","LI":"全興里","LIN":"10鄰","STREET":" ","SECT":" ","MAREA":"竹子\u25A0","LANE":" ","ALLEY":" ","HOUSE_NO":"１６１號之５","E_COORD97":177367.09,"N_COORD97":2547363.2599999998,"ADDRESS":"竹子\u25A0１６１號之５","OBJECTID":183826},"geometry":{"x":177367.09000000078,"y":2547363.2600000016}},{"attributes":{"ID":183828,"DIS_CODE":0,"TOWNNAME":"新化區","LI":"\u25A0拔里","LIN":"10鄰","STREET":" ","SECT":" ","MAREA":"牧場","LANE":" ","ALLEY":" ","HOUSE_NO":"８８號之４","E_COORD97":181959.97,"N_COORD97":2551287.2599999998,"ADDRESS":"牧場８８號之４","OBJECTID":183827},"geometry":{"x":181959.97000000067,"y":2551287.2599999998}},{"attributes":{"ID":183829,"DIS_CODE":0,"TOWNNAME":"新化區","LI":"全興里","LIN":"10鄰","STREET":" ","SECT":" ","MAREA":"竹子\u25A0","LANE":" ","ALLEY":" ","HOUSE_NO":"１８４號之６","E_COORD97":177662.98000000001,"N_COORD97":2547599.2599999998,"ADDRESS":"竹子\u25A0１８４號之６","OBJECTID":183828},"geometry":{"x":177662.98000000231,"y":2547599.2600000035}},{"attributes":{"ID":183830,"DIS_CODE":0,"TOWNNAME":"安南區","LI":"安東里","LIN":"20鄰","STREET":"安和路","SECT":"一段","MAREA":" ","LANE":"４９６巷","ALLEY":"２３弄","HOUSE_NO":"６１號","E_COORD97":169638.72,"N_COORD97":2548462.25,"ADDRESS":"安和路一段４９６巷２３弄６１號","OBJECTID":183829},"geometry":{"x":169638.71999999974,"y":2548462.2500000019}},{"attributes":{"ID":183831,"DIS_CODE":0,"TOWNNAME":"安南區","LI":"安東里","LIN":"20鄰","STREET":"安和路","SECT":"一段","MAREA":" ","LANE":"４９６巷","ALLEY":"２３弄","HOUSE_NO":"６３號","E_COORD97":169642.48999999999,"N_COORD97":2548462.75,"ADDRESS":"安和路一段４９６巷２３弄６３號","OBJECTID":183830},"geometry":{"x":169642.49000000022,"y":2548462.75}},{"attributes":{"ID":183832,"DIS_CODE":0,"TOWNNAME":"新化區","LI":"唪口里","LIN":"10鄰","STREET":" ","SECT":" ","MAREA":"唪口","LANE":" ","ALLEY":" ","HOUSE_NO":"１４２號之２１","E_COORD97":177372.63,"N_COORD97":2548925.2599999998,"ADDRESS":"唪口１４２號之２１","OBJECTID":183831},"geometry":{"x":177372.62999999989,"y":2548925.2600000016}},{"attributes":{"ID":183833,"DIS_CODE":0,"TOWNNAME":"新化區","LI":"\u25A0拔里","LIN":"10鄰","STREET":" ","SECT":" ","MAREA":"牧場","LANE":" ","ALLEY":" ","HOUSE_NO":"７０號之８","E_COORD97":182202.19,"N_COORD97":2551305.2599999998,"ADDRESS":"牧場７０號之８","OBJECTID":183832},"geometry":{"x":182202.19000000041,"y":2551305.2600000016}},{"attributes":{"ID":183834,"DIS_CODE":0,"TOWNNAME":"新化區","LI":"\u25A0拔里","LIN":"10鄰","STREET":" ","SECT":" ","MAREA":"牧場","LANE":" ","ALLEY":" ","HOUSE_NO":"９０號之４","E_COORD97":181916.97,"N_COORD97":2551258.2599999998,"ADDRESS":"牧場９０號之４","OBJECTID":183833},"geometry":{"x":181916.96999999974,"y":2551258.2600000016}},{"attributes":{"ID":183835,"DIS_CODE":0,"TOWNNAME":"新化區","LI":"\u25A0拔里","LIN":"10鄰","STREET":" ","SECT":" ","MAREA":"牧場","LANE":" ","ALLEY":" ","HOUSE_NO":"８１號","E_COORD97":181909.53,"N_COORD97":2551330.25,"ADDRESS":"牧場８１號","OBJECTID":183834},"geometry":{"x":181909.53000000119,"y":2551330.2500000019}},{"attributes":{"ID":183836,"DIS_CODE":0,"TOWNNAME":"新化區","LI":"全興里","LIN":"10鄰","STREET":" ","SECT":" ","MAREA":"竹子\u25A0","LANE":" ","ALLEY":" ","HOUSE_NO":"１７７號之１３","E_COORD97":177669.82999999999,"N_COORD97":2547408.2599999998,"ADDRESS":"竹子\u25A0１７７號之１３","OBJECTID":183835},"geometry":{"x":177669.83000000007,"y":2547408.2599999998}},{"attributes":{"ID":183837,"DIS_CODE":0,"TOWNNAME":"新化區","LI":"唪口里","LIN":"10鄰","STREET":" ","SECT":" ","MAREA":"唪口","LANE":" ","ALLEY":" ","HOUSE_NO":"１５７號之１","E_COORD97":177519.07999999999,"N_COORD97":2548892.2599999998,"ADDRESS":"唪口１５７號之１","OBJECTID":183836},"geometry":{"x":177519.08000000007,"y":2548892.2600000016}},{"attributes":{"ID":183838,"DIS_CODE":0,"TOWNNAME":"安南區","LI":"安東里","LIN":"20鄰","STREET":"安和路","SECT":"一段","MAREA":" ","LANE":"４９６巷","ALLEY":"２３弄","HOUSE_NO":"６５號","E_COORD97":169647.01000000001,"N_COORD97":2548463.5099999998,"ADDRESS":"安和路一段４９６巷２３弄６５號","OBJECTID":183837},"geometry":{"x":169647.00999999885,"y":2548463.5100000016}},{"attributes":{"ID":183839,"DIS_CODE":0,"TOWNNAME":"安南區","LI":"安東里","LIN":"20鄰","STREET":"安和路","SECT":"一段","MAREA":" ","LANE":"４９６巷","ALLEY":"２３弄","HOUSE_NO":"６７號","E_COORD97":169650.53,"N_COORD97":2548463.0099999998,"ADDRESS":"安和路一段４９６巷２３弄６７號","OBJECTID":183838},"geometry":{"x":169650.53000000026,"y":2548463.0100000016}},{"attributes":{"ID":183840,"DIS_CODE":0,"TOWNNAME":"安南區","LI":"安東里","LIN":"20鄰","STREET":"安和路","SECT":"一段","MAREA":" ","LANE":"４９６巷","ALLEY":"２３弄","HOUSE_NO":"６９號","E_COORD97":169654.79999999999,"N_COORD97":2548463.2599999998,"ADDRESS":"安和路一段４９６巷２３弄６９號","OBJECTID":183839},"geometry":{"x":169654.79999999981,"y":2548463.2599999998}},{"attributes":{"ID":183841,"DIS_CODE":0,"TOWNNAME":"安南區","LI":"安東里","LIN":"20鄰","STREET":"安和路","SECT":"一段","MAREA":" ","LANE":"４９６巷","ALLEY":"２３弄","HOUSE_NO":"７１號","E_COORD97":169659.07000000001,"N_COORD97":2548464.0099999998,"ADDRESS":"安和路一段４９６巷２３弄７１號","OBJECTID":183840},"geometry":{"x":169659.06999999937,"y":2548464.0099999998}},{"attributes":{"ID":183842,"DIS_CODE":0,"TOWNNAME":"新化區","LI":"大坑里","LIN":"10鄰","STREET":" ","SECT":" ","MAREA":"大坑尾","LANE":" ","ALLEY":" ","HOUSE_NO":"２３２號","E_COORD97":187262.53,"N_COORD97":2546536.25,"ADDRESS":"大坑尾２３２號","OBJECTID":183841},"geometry":{"x":187262.53000000119,"y":2546536.2500000019}},{"attributes":{"ID":183843,"DIS_CODE":0,"TOWNNAME":"新化區","LI":"全興里","LIN":"10鄰","STREET":" ","SECT":" ","MAREA":"竹子\u25A0","LANE":" ","ALLEY":" ","HOUSE_NO":"１６１號之８","E_COORD97":177353.39000000001,"N_COORD97":2547365.2599999998,"ADDRESS":"竹子\u25A0１６１號之８","OBJECTID":183842},"geometry":{"x":177353.38999999966,"y":2547365.2600000035}},{"attributes":{"ID":183844,"DIS_CODE":0,"TOWNNAME":"新化區","LI":"全興里","LIN":"10鄰","STREET":" ","SECT":" ","MAREA":"竹子\u25A0","LANE":" ","ALLEY":" ","HOUSE_NO":"１７１號之２","E_COORD97":177622.39000000001,"N_COORD97":2547029.2599999998,"ADDRESS":"竹子\u25A0１７１號之２","OBJECTID":183843},"geometry":{"x":177622.3900000006,"y":2547029.2599999979}},{"attributes":{"ID":183845,"DIS_CODE":0,"TOWNNAME":"安南區","LI":"安東里","LIN":"20鄰","STREET":"安和路","SECT":"一段","MAREA":" ","LANE":"４９６巷","ALLEY":"２３弄","HOUSE_NO":"７３號","E_COORD97":169662.57999999999,"N_COORD97":2548464.2599999998,"ADDRESS":"安和路一段４９６巷２３弄７３號","OBJECTID":183844},"geometry":{"x":169662.58000000101,"y":2548464.2600000016}},{"attributes":{"ID":183846,"DIS_CODE":0,"TOWNNAME":"安南區","LI":"安東里","LIN":"20鄰","STREET":"安和路","SECT":"一段","MAREA":" ","LANE":"４９６巷","ALLEY":"２３弄","HOUSE_NO":"７５號","E_COORD97":169666.60000000001,"N_COORD97":2548464.2599999998,"ADDRESS":"安和路一段４９６巷２３弄７５號","OBJECTID":183845},"geometry":{"x":169666.5999999987,"y":2548464.2600000016}},{"attributes":{"ID":183847,"DIS_CODE":0,"TOWNNAME":"新化區","LI":"\u25A0拔里","LIN":"10鄰","STREET":" ","SECT":" ","MAREA":"牧場","LANE":" ","ALLEY":" ","HOUSE_NO":"７３號之１","E_COORD97":182167.66,"N_COORD97":2551604.2599999998,"ADDRESS":"牧場７３號之１","OBJECTID":183846},"geometry":{"x":182167.66000000108,"y":2551604.2600000016}},{"attributes":{"ID":183848,"DIS_CODE":0,"TOWNNAME":"新化區","LI":"全興里","LIN":"10鄰","STREET":" ","SECT":" ","MAREA":"竹子\u25A0","LANE":" ","ALLEY":" ","HOUSE_NO":"１６７號之１","E_COORD97":177337.26000000001,"N_COORD97":2547191.2599999998,"ADDRESS":"竹子\u25A0１６７號之１","OBJECTID":183847},"geometry":{"x":177337.26000000071,"y":2547191.2599999998}},{"attributes":{"ID":183849,"DIS_CODE":0,"TOWNNAME":"安南區","LI":"安東里","LIN":"20鄰","STREET":"安和路","SECT":"一段","MAREA":" ","LANE":"４９６巷","ALLEY":"２３弄","HOUSE_NO":"７號","E_COORD97":169531.60000000001,"N_COORD97":2548453.4399999999,"ADDRESS":"安和路一段４９６巷２３弄７號","OBJECTID":183848},"geometry":{"x":169531.60000000056,"y":2548453.4400000013}},{"attributes":{"ID":183850,"DIS_CODE":0,"TOWNNAME":"新化區","LI":"\u25A0拔里","LIN":"10鄰","STREET":" ","SECT":" ","MAREA":"牧場","LANE":" ","ALLEY":" ","HOUSE_NO":"８８號之２","E_COORD97":181931.69,"N_COORD97":2551292.2599999998,"ADDRESS":"牧場８８號之２","OBJECTID":183849},"geometry":{"x":181931.69000000227,"y":2551292.2600000016}},{"attributes":{"ID":183851,"DIS_CODE":0,"TOWNNAME":"安南區","LI":"安東里","LIN":"20鄰","STREET":"安和路","SECT":"一段","MAREA":" ","LANE":"４９６巷","ALLEY":"２３弄","HOUSE_NO":"９號","E_COORD97":169535.64999999999,"N_COORD97":2548452.04,"ADDRESS":"安和路一段４９６巷２３弄９號","OBJECTID":183850},"geometry":{"x":169535.6500000013,"y":2548452.040000001}},{"attributes":{"ID":183852,"DIS_CODE":0,"TOWNNAME":"新化區","LI":"全興里","LIN":"10鄰","STREET":" ","SECT":" ","MAREA":"竹子\u25A0","LANE":" ","ALLEY":" ","HOUSE_NO":"１７７號之２","E_COORD97":177554.89000000001,"N_COORD97":2547526.2599999998,"ADDRESS":"竹子\u25A0１７７號之２","OBJECTID":183851},"geometry":{"x":177554.8900000006,"y":2547526.2599999998}},{"attributes":{"ID":183853,"DIS_CODE":0,"TOWNNAME":"新化區","LI":"全興里","LIN":"10鄰","STREET":" ","SECT":" ","MAREA":"竹子\u25A0","LANE":" ","ALLEY":" ","HOUSE_NO":"１７１號之３","E_COORD97":177501.07999999999,"N_COORD97":2546988.2599999998,"ADDRESS":"竹子\u25A0１７１號之３","OBJECTID":183852},"geometry":{"x":177501.08000000101,"y":2546988.2599999998}},{"attributes":{"ID":183854,"DIS_CODE":0,"TOWNNAME":"歸仁區","LI":"六甲里","LIN":"38鄰","STREET":"六甲八街","SECT":" ","MAREA":" ","LANE":"１４９巷","ALLEY":"５０弄","HOUSE_NO":"２８號","E_COORD97":175258.70461300001,"N_COORD97":2539812.60494,"ADDRESS":"六甲八街１４９巷５０弄２８號","OBJECTID":183853},"geometry":{"x":175258.70461300015,"y":2539812.6049450003}},{"attributes":{"ID":183855,"DIS_CODE":0,"TOWNNAME":"歸仁區","LI":"六甲里","LIN":"38鄰","STREET":"六甲八街","SECT":" ","MAREA":" ","LANE":"１４９巷","ALLEY":"５０弄","HOUSE_NO":"２０號","E_COORD97":175265.060635,"N_COORD97":2539803.1857799999,"ADDRESS":"六甲八街１４９巷５０弄２０號","OBJECTID":183854},"geometry":{"x":175265.06063500047,"y":2539803.1857840028}},{"attributes":{"ID":183856,"DIS_CODE":0,"TOWNNAME":"新營區","LI":"忠政里","LIN":"20鄰","STREET":"府西路","SECT":" ","MAREA":" ","LANE":"２５７巷","ALLEY":"１１弄","HOUSE_NO":"１０號","E_COORD97":179740.98000000001,"N_COORD97":2579633.77,"ADDRESS":"府西路２５７巷１１弄１０號","OBJECTID":183855},"geometry":{"x":179740.98000000045,"y":2579633.7699999996}},{"attributes":{"ID":183857,"DIS_CODE":0,"TOWNNAME":"下營區","LI":"宅內里","LIN":"18鄰","STREET":"人和三街","SECT":" ","MAREA":" ","LANE":"７０巷","ALLEY":"５弄","HOUSE_NO":"７號","E_COORD97":174302.66083099999,"N_COORD97":2570787.54372,"ADDRESS":"人和三街７０巷５弄７號","OBJECTID":183856},"geometry":{"x":174302.66083100066,"y":2570787.5437209979}},{"attributes":{"ID":183858,"DIS_CODE":0,"TOWNNAME":"歸仁區","LI":"西埔里","LIN":"7鄰","STREET":"西埔一街","SECT":" ","MAREA":" ","LANE":"６５巷","ALLEY":"４０弄","HOUSE_NO":"１０３號","E_COORD97":176835.43693500001,"N_COORD97":2544500.92239,"ADDRESS":"西埔一街６５巷４０弄１０３號","OBJECTID":183857},"geometry":{"x":176835.43693500105,"y":2544500.9223900009}},{"attributes":{"ID":183859,"DIS_CODE":0,"TOWNNAME":"歸仁區","LI":"西埔里","LIN":"7鄰","STREET":"西埔一街","SECT":" ","MAREA":" ","LANE":"６５巷","ALLEY":"４０弄","HOUSE_NO":"１６號","E_COORD97":176997.218976,"N_COORD97":2544344.5008100001,"ADDRESS":"西埔一街６５巷４０弄１６號","OBJECTID":183858},"geometry":{"x":176997.21897600126,"y":2544344.5008080043}},{"attributes":{"ID":183860,"DIS_CODE":0,"TOWNNAME":"新化區","LI":"\u25A0拔里","LIN":"10鄰","STREET":" ","SECT":" ","MAREA":"牧場","LANE":" ","ALLEY":" ","HOUSE_NO":"１０２號","E_COORD97":181860.57999999999,"N_COORD97":2551185.25,"ADDRESS":"牧場１０２號","OBJECTID":183859},"geometry":{"x":181860.58000000007,"y":2551185.25}},{"attributes":{"ID":183861,"DIS_CODE":0,"TOWNNAME":"新化區","LI":"唪口里","LIN":"10鄰","STREET":" ","SECT":" ","MAREA":"唪口","LANE":" ","ALLEY":" ","HOUSE_NO":"１４７號之７","E_COORD97":177762.39000000001,"N_COORD97":2549057.2599999998,"ADDRESS":"唪口１４７號之７","OBJECTID":183860},"geometry":{"x":177762.38999999966,"y":2549057.2600000016}},{"attributes":{"ID":183862,"DIS_CODE":0,"TOWNNAME":"新化區","LI":"全興里","LIN":"10鄰","STREET":" ","SECT":" ","MAREA":"竹子\u25A0","LANE":" ","ALLEY":" ","HOUSE_NO":"１５９號之３","E_COORD97":177409.67999999999,"N_COORD97":2547484.2599999998,"ADDRESS":"竹子\u25A0１５９號之３","OBJECTID":183861},"geometry":{"x":177409.6799999997,"y":2547484.2600000016}},{"attributes":{"ID":183863,"DIS_CODE":0,"TOWNNAME":"歸仁區","LI":"西埔里","LIN":"15鄰","STREET":"西埔二街","SECT":" ","MAREA":" ","LANE":"１１０巷","ALLEY":"３０１弄","HOUSE_NO":"６３號","E_COORD97":176575.16503999999,"N_COORD97":2545336.5819399999,"ADDRESS":"西埔二街１１０巷３０１弄６３號","OBJECTID":183862},"geometry":{"x":176575.16504000034,"y":2545336.5819390025}},{"attributes":{"ID":183864,"DIS_CODE":0,"TOWNNAME":"關廟區","LI":"新埔里","LIN":"2鄰","STREET":"忠孝街","SECT":" ","MAREA":" ","LANE":"２５８巷","ALLEY":"５弄","HOUSE_NO":"２號","E_COORD97":181216.637816,"N_COORD97":2540871.0087100002,"ADDRESS":"忠孝街２５８巷５弄２號","OBJECTID":183863},"geometry":{"x":181216.6378159998,"y":2540871.008710999}},{"attributes":{"ID":183865,"DIS_CODE":0,"TOWNNAME":"新化區","LI":"唪口里","LIN":"10鄰","STREET":" ","SECT":" ","MAREA":"唪口","LANE":" ","ALLEY":" ","HOUSE_NO":"１４７號之１１","E_COORD97":177714.63,"N_COORD97":2549096.2599999998,"ADDRESS":"唪口１４７號之１１","OBJECTID":183864},"geometry":{"x":177714.63000000082,"y":2549096.2599999998}},{"attributes":{"ID":183866,"DIS_CODE":0,"TOWNNAME":"歸仁區","LI":"大潭里","LIN":"9鄰","STREET":"長榮路","SECT":"一段","MAREA":" ","LANE":"５６０巷","ALLEY":"９９弄","HOUSE_NO":"１５９號","E_COORD97":176028.03561399999,"N_COORD97":2534367.3503800002,"ADDRESS":"長榮路一段５６０巷９９弄１５９號","OBJECTID":183865},"geometry":{"x":176028.03561400063,"y":2534367.350381}},{"attributes":{"ID":183867,"DIS_CODE":0,"TOWNNAME":"歸仁區","LI":"大潭里","LIN":"9鄰","STREET":"長榮路","SECT":"一段","MAREA":" ","LANE":"５６０巷","ALLEY":"１５０弄","HOUSE_NO":"５０號","E_COORD97":176091.84222300001,"N_COORD97":2534062.2077100002,"ADDRESS":"長榮路一段５６０巷１５０弄５０號","OBJECTID":183866},"geometry":{"x":176091.84222300071,"y":2534062.2077130005}},{"attributes":{"ID":183868,"DIS_CODE":0,"TOWNNAME":"永康區","LI":"西橋里","LIN":"19鄰","STREET":"大橋三街","SECT":" ","MAREA":" ","LANE":"５７巷","ALLEY":"７弄","HOUSE_NO":"５３號","E_COORD97":170478.79178100001,"N_COORD97":2546431.4818600002,"ADDRESS":"大橋三街５７巷７弄５３號","OBJECTID":183867},"geometry":{"x":170478.79178100079,"y":2546431.4818590023}},{"attributes":{"ID":183869,"DIS_CODE":0,"TOWNNAME":"新化區","LI":"唪口里","LIN":"10鄰","STREET":" ","SECT":" ","MAREA":"唪口","LANE":" ","ALLEY":" ","HOUSE_NO":"１５１號之９","E_COORD97":177616.98999999999,"N_COORD97":2549006.2599999998,"ADDRESS":"唪口１５１號之９","OBJECTID":183868},"geometry":{"x":177616.99000000115,"y":2549006.2600000035}},{"attributes":{"ID":183870,"DIS_CODE":0,"TOWNNAME":"新化區","LI":"全興里","LIN":"10鄰","STREET":" ","SECT":" ","MAREA":"竹子\u25A0","LANE":" ","ALLEY":" ","HOUSE_NO":"１６８號之１３","E_COORD97":177399.32999999999,"N_COORD97":2546949.2599999998,"ADDRESS":"竹子\u25A0１６８號之１３","OBJECTID":183869},"geometry":{"x":177399.33000000101,"y":2546949.2600000016}},{"attributes":{"ID":183871,"DIS_CODE":0,"TOWNNAME":"永康區","LI":"西橋里","LIN":"20鄰","STREET":"大橋三街","SECT":" ","MAREA":" ","LANE":"５７巷","ALLEY":"７弄","HOUSE_NO":"３７號","E_COORD97":170529.17999999999,"N_COORD97":2546487.1200000001,"ADDRESS":"大橋三街５７巷７弄３７號","OBJECTID":183870},"geometry":{"x":170529.18000000156,"y":2546487.1200000029}},{"attributes":{"ID":183872,"DIS_CODE":0,"TOWNNAME":"新化區","LI":"全興里","LIN":"10鄰","STREET":" ","SECT":" ","MAREA":"竹子\u25A0","LANE":" ","ALLEY":" ","HOUSE_NO":"１６１號之７","E_COORD97":177357.57999999999,"N_COORD97":2547364.2599999998,"ADDRESS":"竹子\u25A0１６１號之７","OBJECTID":183871},"geometry":{"x":177357.58000000007,"y":2547364.2599999998}},{"attributes":{"ID":183873,"DIS_CODE":0,"TOWNNAME":"歸仁區","LI":"西埔里","LIN":"15鄰","STREET":"西埔二街","SECT":" ","MAREA":" ","LANE":"１１０巷","ALLEY":"３０１弄","HOUSE_NO":"２００號","E_COORD97":176424.91193,"N_COORD97":2545376.7985800002,"ADDRESS":"西埔二街１１０巷３０１弄２００號","OBJECTID":183872},"geometry":{"x":176424.91193000041,"y":2545376.7985840011}},{"attributes":{"ID":183874,"DIS_CODE":0,"TOWNNAME":"新化區","LI":"\u25A0拔里","LIN":"10鄰","STREET":" ","SECT":" ","MAREA":"牧場","LANE":" ","ALLEY":" ","HOUSE_NO":"７２號","E_COORD97":182003.92999999999,"N_COORD97":2551357.25,"ADDRESS":"牧場７２號","OBJECTID":183873},"geometry":{"x":182003.93000000156,"y":2551357.2500000019}},{"attributes":{"ID":183875,"DIS_CODE":0,"TOWNNAME":"新化區","LI":"全興里","LIN":"10鄰","STREET":" ","SECT":" ","MAREA":"竹子\u25A0","LANE":" ","ALLEY":" ","HOUSE_NO":"１８１號","E_COORD97":177603.03,"N_COORD97":2547566.25,"ADDRESS":"竹子\u25A0１８１號","OBJECTID":183874},"geometry":{"x":177603.03000000212,"y":2547566.2500000019}},{"attributes":{"ID":183876,"DIS_CODE":0,"TOWNNAME":"新化區","LI":"唪口里","LIN":"10鄰","STREET":" ","SECT":" ","MAREA":"唪口","LANE":" ","ALLEY":" ","HOUSE_NO":"１４７號之３","E_COORD97":177776.89000000001,"N_COORD97":2549047.2599999998,"ADDRESS":"唪口１４７號之３","OBJECTID":183875},"geometry":{"x":177776.8900000006,"y":2549047.2600000016}},{"attributes":{"ID":183877,"DIS_CODE":0,"TOWNNAME":"歸仁區","LI":"西埔里","LIN":"15鄰","STREET":"西埔二街","SECT":" ","MAREA":" ","LANE":"１１０巷","ALLEY":"３１１弄","HOUSE_NO":"９號","E_COORD97":176583.83150999999,"N_COORD97":2545570.2618100001,"ADDRESS":"西埔二街１１０巷３１１弄９號","OBJECTID":183876},"geometry":{"x":176583.83150999993,"y":2545570.2618130036}},{"attributes":{"ID":183878,"DIS_CODE":0,"TOWNNAME":"新化區","LI":"全興里","LIN":"10鄰","STREET":" ","SECT":" ","MAREA":"竹子\u25A0","LANE":" ","ALLEY":" ","HOUSE_NO":"１４５號之６","E_COORD97":177551.48000000001,"N_COORD97":2547559.2599999998,"ADDRESS":"竹子\u25A0１４５號之６","OBJECTID":183877},"geometry":{"x":177551.48000000138,"y":2547559.2600000016}},{"attributes":{"ID":183879,"DIS_CODE":0,"TOWNNAME":"關廟區","LI":"五甲里","LIN":"10鄰","STREET":"五甲路","SECT":" ","MAREA":" ","LANE":"２８０巷","ALLEY":"６５弄","HOUSE_NO":"８號","E_COORD97":180731.84372500001,"N_COORD97":2538759.5084500001,"ADDRESS":"五甲路２８０巷６５弄８號","OBJECTID":183878},"geometry":{"x":180731.84372500051,"y":2538759.5084550008}},{"attributes":{"ID":183880,"DIS_CODE":0,"TOWNNAME":"新化區","LI":"崙頂里","LIN":"10鄰","STREET":" ","SECT":" ","MAREA":"崙子頂","LANE":" ","ALLEY":" ","HOUSE_NO":"３６５號","E_COORD97":176802.82999999999,"N_COORD97":2546869.25,"ADDRESS":"崙子頂３６５號","OBJECTID":183879},"geometry":{"x":176802.83000000101,"y":2546869.25}},{"attributes":{"ID":183881,"DIS_CODE":0,"TOWNNAME":"新化區","LI":"全興里","LIN":"10鄰","STREET":" ","SECT":" ","MAREA":"竹子\u25A0","LANE":" ","ALLEY":" ","HOUSE_NO":"１６４號","E_COORD97":177297.73000000001,"N_COORD97":2547265.25,"ADDRESS":"竹子\u25A0１６４號","OBJECTID":183880},"geometry":{"x":177297.73000000045,"y":2547265.2500000019}},{"attributes":{"ID":183882,"DIS_CODE":0,"TOWNNAME":"新化區","LI":"全興里","LIN":"10鄰","STREET":" ","SECT":" ","MAREA":"竹子\u25A0","LANE":" ","ALLEY":" ","HOUSE_NO":"１３３號","E_COORD97":177556.23000000001,"N_COORD97":2547661.25,"ADDRESS":"竹子\u25A0１３３號","OBJECTID":183881},"geometry":{"x":177556.23000000231,"y":2547661.2500000019}},{"attributes":{"ID":183883,"DIS_CODE":0,"TOWNNAME":"新化區","LI":"全興里","LIN":"10鄰","STREET":" ","SECT":" ","MAREA":"竹子\u25A0","LANE":" ","ALLEY":" ","HOUSE_NO":"１５９號","E_COORD97":177435.13,"N_COORD97":2547465.25,"ADDRESS":"竹子\u25A0１５９號","OBJECTID":183882},"geometry":{"x":177435.12999999989,"y":2547465.2500000019}},{"attributes":{"ID":183884,"DIS_CODE":0,"TOWNNAME":"新化區","LI":"全興里","LIN":"10鄰","STREET":" ","SECT":" ","MAREA":"竹子\u25A0","LANE":" ","ALLEY":" ","HOUSE_NO":"１４６號","E_COORD97":177541.03,"N_COORD97":2547584.25,"ADDRESS":"竹子\u25A0１４６號","OBJECTID":183883},"geometry":{"x":177541.03000000119,"y":2547584.25}},{"attributes":{"ID":183885,"DIS_CODE":0,"TOWNNAME":"關廟區","LI":"五甲里","LIN":"10鄰","STREET":"五甲路","SECT":" ","MAREA":" ","LANE":"２８０巷","ALLEY":"６５弄","HOUSE_NO":"２２號","E_COORD97":180710.22576100001,"N_COORD97":2538729.1343,"ADDRESS":"五甲路２８０巷６５弄２２號","OBJECTID":183884},"geometry":{"x":180710.22576100007,"y":2538729.1343040038}},{"attributes":{"ID":183886,"DIS_CODE":0,"TOWNNAME":"關廟區","LI":"五甲里","LIN":"20鄰","STREET":"五甲路","SECT":" ","MAREA":" ","LANE":"３６巷","ALLEY":"３９弄","HOUSE_NO":"７號","E_COORD97":181164.414949,"N_COORD97":2539204.4753200002,"ADDRESS":"五甲路３６巷３９弄７號","OBJECTID":183885},"geometry":{"x":181164.41494899988,"y":2539204.4753170013}},{"attributes":{"ID":183887,"DIS_CODE":0,"TOWNNAME":"新化區","LI":"唪口里","LIN":"10鄰","STREET":" ","SECT":" ","MAREA":"唪口","LANE":" ","ALLEY":" ","HOUSE_NO":"１４８號","E_COORD97":177684.85000000001,"N_COORD97":2549030.25,"ADDRESS":"唪口１４８號","OBJECTID":183886},"geometry":{"x":177684.8499999987,"y":2549030.2500000037}},{"attributes":{"ID":183888,"DIS_CODE":0,"TOWNNAME":"南區","LI":"大林里","LIN":"20鄰","STREET":"大林路","SECT":" ","MAREA":" ","LANE":"１１１巷","ALLEY":"１０弄","HOUSE_NO":"１０號","E_COORD97":169129.20000000001,"N_COORD97":2541694.8399999999,"ADDRESS":"大林路１１１巷１０弄１０號","OBJECTID":183887},"geometry":{"x":169129.20000000205,"y":2541694.8399999999}},{"attributes":{"ID":183889,"DIS_CODE":0,"TOWNNAME":"新化區","LI":"\u25A0拔里","LIN":"10鄰","STREET":" ","SECT":" ","MAREA":"牧場","LANE":" ","ALLEY":" ","HOUSE_NO":"８２號","E_COORD97":181896.53,"N_COORD97":2551331.25,"ADDRESS":"牧場８２號","OBJECTID":183888},"geometry":{"x":181896.53000000026,"y":2551331.25}},{"attributes":{"ID":183890,"DIS_CODE":0,"TOWNNAME":"南區","LI":"大林里","LIN":"20鄰","STREET":"大林路","SECT":" ","MAREA":" ","LANE":"１１１巷","ALLEY":"１０弄","HOUSE_NO":"１１號","E_COORD97":169125.73000000001,"N_COORD97":2541674.7000000002,"ADDRESS":"大林路１１１巷１０弄１１號","OBJECTID":183889},"geometry":{"x":169125.73000000045,"y":2541674.6999999993}},{"attributes":{"ID":183891,"DIS_CODE":0,"TOWNNAME":"新化區","LI":"\u25A0拔里","LIN":"10鄰","STREET":" ","SECT":" ","MAREA":"牧場","LANE":" ","ALLEY":" ","HOUSE_NO":"９５號","E_COORD97":181852.23000000001,"N_COORD97":2551213.25,"ADDRESS":"牧場９５號","OBJECTID":183890},"geometry":{"x":181852.23000000138,"y":2551213.25}},{"attributes":{"ID":183892,"DIS_CODE":0,"TOWNNAME":"南區","LI":"大林里","LIN":"20鄰","STREET":"大林路","SECT":" ","MAREA":" ","LANE":"１１１巷","ALLEY":"１０弄","HOUSE_NO":"１２號","E_COORD97":169125.22,"N_COORD97":2541694.3799999999,"ADDRESS":"大林路１１１巷１０弄１２號","OBJECTID":183891},"geometry":{"x":169125.2200000016,"y":2541694.379999999}},{"attributes":{"ID":183893,"DIS_CODE":0,"TOWNNAME":"新化區","LI":"礁坑里","LIN":"10鄰","STREET":" ","SECT":" ","MAREA":"蔡厝仔","LANE":" ","ALLEY":" ","HOUSE_NO":"７號","E_COORD97":184455.12,"N_COORD97":2548766.25,"ADDRESS":"蔡厝仔７號","OBJECTID":183892},"geometry":{"x":184455.12000000011,"y":2548766.2500000019}},{"attributes":{"ID":183894,"DIS_CODE":0,"TOWNNAME":"新化區","LI":"\u25A0拔里","LIN":"10鄰","STREET":" ","SECT":" ","MAREA":"牧場","LANE":" ","ALLEY":" ","HOUSE_NO":"６５號","E_COORD97":181827.53,"N_COORD97":2551288.25,"ADDRESS":"牧場６５號","OBJECTID":183893},"geometry":{"x":181827.53000000212,"y":2551288.2500000037}},{"attributes":{"ID":183895,"DIS_CODE":0,"TOWNNAME":"新化區","LI":"唪口里","LIN":"10鄰","STREET":" ","SECT":" ","MAREA":"唪口","LANE":" ","ALLEY":" ","HOUSE_NO":"１５５號之５","E_COORD97":177574.41,"N_COORD97":2548937.2599999998,"ADDRESS":"唪口１５５號之５","OBJECTID":183894},"geometry":{"x":177574.41000000015,"y":2548937.2599999998}},{"attributes":{"ID":183896,"DIS_CODE":0,"TOWNNAME":"新化區","LI":"唪口里","LIN":"10鄰","STREET":" ","SECT":" ","MAREA":"唪口","LANE":" ","ALLEY":" ","HOUSE_NO":"１５１號之２","E_COORD97":177623.60000000001,"N_COORD97":2548969.2599999998,"ADDRESS":"唪口１５１號之２","OBJECTID":183895},"geometry":{"x":177623.59999999963,"y":2548969.2600000016}},{"attributes":{"ID":183897,"DIS_CODE":0,"TOWNNAME":"新化區","LI":"崙頂里","LIN":"10鄰","STREET":" ","SECT":" ","MAREA":"崙子頂","LANE":" ","ALLEY":" ","HOUSE_NO":"３７０號","E_COORD97":176827.63,"N_COORD97":2546876.25,"ADDRESS":"崙子頂３７０號","OBJECTID":183896},"geometry":{"x":176827.63000000082,"y":2546876.25}},{"attributes":{"ID":183898,"DIS_CODE":0,"TOWNNAME":"南區","LI":"大林里","LIN":"20鄰","STREET":"大林路","SECT":" ","MAREA":" ","LANE":"１１１巷","ALLEY":"１０弄","HOUSE_NO":"１３號","E_COORD97":169120.60999999999,"N_COORD97":2541674.52,"ADDRESS":"大林路１１１巷１０弄１３號","OBJECTID":183897},"geometry":{"x":169120.61000000127,"y":2541674.5200000014}},{"attributes":{"ID":183899,"DIS_CODE":0,"TOWNNAME":"南區","LI":"大林里","LIN":"20鄰","STREET":"大林路","SECT":" ","MAREA":" ","LANE":"１１１巷","ALLEY":"１０弄","HOUSE_NO":"１４號","E_COORD97":169122.31,"N_COORD97":2541694.0699999998,"ADDRESS":"大林路１１１巷１０弄１４號","OBJECTID":183898},"geometry":{"x":169122.30999999959,"y":2541694.0700000003}},{"attributes":{"ID":183900,"DIS_CODE":0,"TOWNNAME":"南區","LI":"大林里","LIN":"20鄰","STREET":"大林路","SECT":" ","MAREA":" ","LANE":"１１１巷","ALLEY":"１０弄","HOUSE_NO":"１５號","E_COORD97":169109.51999999999,"N_COORD97":2541673.4399999999,"ADDRESS":"大林路１１１巷１０弄１５號","OBJECTID":183899},"geometry":{"x":169109.52000000142,"y":2541673.4399999995}},{"attributes":{"ID":183901,"DIS_CODE":0,"TOWNNAME":"南區","LI":"大林里","LIN":"20鄰","STREET":"大林路","SECT":" ","MAREA":" ","LANE":"１１１巷","ALLEY":"１０弄","HOUSE_NO":"１６號","E_COORD97":169116.95000000001,"N_COORD97":2541693.9199999999,"ADDRESS":"大林路１１１巷１０弄１６號","OBJECTID":183900},"geometry":{"x":169116.95000000019,"y":2541693.9199999999}},{"attributes":{"ID":183902,"DIS_CODE":0,"TOWNNAME":"南區","LI":"大林里","LIN":"20鄰","STREET":"大林路","SECT":" ","MAREA":" ","LANE":"１１１巷","ALLEY":"１０弄","HOUSE_NO":"１７號","E_COORD97":169102.17000000001,"N_COORD97":2541677.0600000001,"ADDRESS":"大林路１１１巷１０弄１７號","OBJECTID":183901},"geometry":{"x":169102.17000000179,"y":2541677.0600000005}},{"attributes":{"ID":183903,"DIS_CODE":0,"TOWNNAME":"南區","LI":"大林里","LIN":"20鄰","STREET":"大林路","SECT":" ","MAREA":" ","LANE":"１１１巷","ALLEY":"１０弄","HOUSE_NO":"１８號","E_COORD97":169108.67999999999,"N_COORD97":2541693.46,"ADDRESS":"大林路１１１巷１０弄１８號","OBJECTID":183902},"geometry":{"x":169108.68000000063,"y":2541693.4600000028}},{"attributes":{"ID":183904,"DIS_CODE":0,"TOWNNAME":"南區","LI":"大林里","LIN":"20鄰","STREET":"大林路","SECT":" ","MAREA":" ","LANE":"１１１巷","ALLEY":"１０弄","HOUSE_NO":"１９號","E_COORD97":169097.38,"N_COORD97":2541677.48,"ADDRESS":"大林路１１１巷１０弄１９號","OBJECTID":183903},"geometry":{"x":169097.38000000082,"y":2541677.4800000004}},{"attributes":{"ID":183905,"DIS_CODE":0,"TOWNNAME":"南區","LI":"大林里","LIN":"20鄰","STREET":"大林路","SECT":" ","MAREA":" ","LANE":"１１１巷","ALLEY":"１０弄","HOUSE_NO":"１號","E_COORD97":169146.75,"N_COORD97":2541676.8300000001,"ADDRESS":"大林路１１１巷１０弄１號","OBJECTID":183904},"geometry":{"x":169146.75,"y":2541676.8300000019}},{"attributes":{"ID":183906,"DIS_CODE":0,"TOWNNAME":"南區","LI":"大林里","LIN":"20鄰","STREET":"大林路","SECT":" ","MAREA":" ","LANE":"１１１巷","ALLEY":"１０弄","HOUSE_NO":"２０號","E_COORD97":169098.10999999999,"N_COORD97":2541693.9199999999,"ADDRESS":"大林路１１１巷１０弄２０號","OBJECTID":183905},"geometry":{"x":169098.11000000127,"y":2541693.9199999999}},{"attributes":{"ID":183907,"DIS_CODE":0,"TOWNNAME":"新化區","LI":"崙頂里","LIN":"10鄰","STREET":" ","SECT":" ","MAREA":"崙子頂","LANE":" ","ALLEY":" ","HOUSE_NO":"３６０號","E_COORD97":176813.13,"N_COORD97":2546826.25,"ADDRESS":"崙子頂３６０號","OBJECTID":183906},"geometry":{"x":176813.12999999989,"y":2546826.2499999981}},{"attributes":{"ID":183908,"DIS_CODE":0,"TOWNNAME":"新化區","LI":"唪口里","LIN":"10鄰","STREET":" ","SECT":" ","MAREA":"唪口","LANE":" ","ALLEY":" ","HOUSE_NO":"１５５號","E_COORD97":177584.95000000001,"N_COORD97":2548954.25,"ADDRESS":"唪口１５５號","OBJECTID":183907},"geometry":{"x":177584.95000000205,"y":2548954.25}},{"attributes":{"ID":183909,"DIS_CODE":0,"TOWNNAME":"南區","LI":"大林里","LIN":"20鄰","STREET":"大林路","SECT":" ","MAREA":" ","LANE":"１１１巷","ALLEY":"１０弄","HOUSE_NO":"２號","E_COORD97":169146.66,"N_COORD97":2541696.3700000001,"ADDRESS":"大林路１１１巷１０弄２號","OBJECTID":183908},"geometry":{"x":169146.66000000108,"y":2541696.370000001}},{"attributes":{"ID":183910,"DIS_CODE":0,"TOWNNAME":"新化區","LI":"知義里","LIN":"10鄰","STREET":" ","SECT":" ","MAREA":"新和庄","LANE":" ","ALLEY":" ","HOUSE_NO":"１９７號","E_COORD97":181609.19,"N_COORD97":2547113.25,"ADDRESS":"新和庄１９７號","OBJECTID":183909},"geometry":{"x":181609.19000000041,"y":2547113.25}},{"attributes":{"ID":183911,"DIS_CODE":0,"TOWNNAME":"新化區","LI":"山\u25A0里","LIN":"10鄰","STREET":" ","SECT":" ","MAREA":"五甲勢","LANE":" ","ALLEY":" ","HOUSE_NO":"３０號","E_COORD97":181897.57999999999,"N_COORD97":2545743.2599999998,"ADDRESS":"五甲勢３０號","OBJECTID":183910},"geometry":{"x":181897.58000000007,"y":2545743.2599999998}},{"attributes":{"ID":183912,"DIS_CODE":0,"TOWNNAME":"新化區","LI":"\u25A0拔里","LIN":"10鄰","STREET":" ","SECT":" ","MAREA":"牧場","LANE":" ","ALLEY":" ","HOUSE_NO":"６１號","E_COORD97":181771.23000000001,"N_COORD97":2551249.25,"ADDRESS":"牧場６１號","OBJECTID":183911},"geometry":{"x":181771.23000000045,"y":2551249.25}},{"attributes":{"ID":183913,"DIS_CODE":0,"TOWNNAME":"南區","LI":"大林里","LIN":"20鄰","STREET":"大林路","SECT":" ","MAREA":" ","LANE":"１１１巷","ALLEY":"１０弄","HOUSE_NO":"３號","E_COORD97":169140.63,"N_COORD97":2541674.7200000002,"ADDRESS":"大林路１１１巷１０弄３號","OBJECTID":183912},"geometry":{"x":169140.62999999989,"y":2541674.7200000025}},{"attributes":{"ID":183914,"DIS_CODE":0,"TOWNNAME":"南區","LI":"大林里","LIN":"20鄰","STREET":"大林路","SECT":" ","MAREA":" ","LANE":"１１１巷","ALLEY":"１０弄","HOUSE_NO":"５號","E_COORD97":169135.41,"N_COORD97":2541674.7200000002,"ADDRESS":"大林路１１１巷１０弄５號","OBJECTID":183913},"geometry":{"x":169135.41000000015,"y":2541674.7200000025}},{"attributes":{"ID":183915,"DIS_CODE":0,"TOWNNAME":"新化區","LI":"\u25A0拔里","LIN":"10鄰","STREET":" ","SECT":" ","MAREA":"牧場","LANE":" ","ALLEY":" ","HOUSE_NO":"６３號之１","E_COORD97":181803.85999999999,"N_COORD97":2551426.2599999998,"ADDRESS":"牧場６３號之１","OBJECTID":183914},"geometry":{"x":181803.86000000127,"y":2551426.2599999998}},{"attributes":{"ID":183916,"DIS_CODE":0,"TOWNNAME":"南區","LI":"大林里","LIN":"20鄰","STREET":"大林路","SECT":" ","MAREA":" ","LANE":"１１１巷","ALLEY":"１０弄","HOUSE_NO":"６號","E_COORD97":169140.69,"N_COORD97":2541695.75,"ADDRESS":"大林路１１１巷１０弄６號","OBJECTID":183915},"geometry":{"x":169140.69000000041,"y":2541695.75}},{"attributes":{"ID":183917,"DIS_CODE":0,"TOWNNAME":"七股區","LI":"中寮里","LIN":"11鄰","STREET":" ","SECT":" ","MAREA":"中寮","LANE":" ","ALLEY":" ","HOUSE_NO":"７９號","E_COORD97":158832.5,"N_COORD97":2561657.9900000002,"ADDRESS":"中寮７９號","OBJECTID":183916},"geometry":{"x":158832.50000000093,"y":2561657.9900000039}},{"attributes":{"ID":183918,"DIS_CODE":0,"TOWNNAME":"七股區","LI":"中寮里","LIN":"11鄰","STREET":" ","SECT":" ","MAREA":"中寮","LANE":" ","ALLEY":" ","HOUSE_NO":"８０號之１","E_COORD97":158802.44,"N_COORD97":2561653.6800000002,"ADDRESS":"中寮８０號之１","OBJECTID":183917},"geometry":{"x":158802.44000000227,"y":2561653.6800000016}},{"attributes":{"ID":183919,"DIS_CODE":0,"TOWNNAME":"南區","LI":"大林里","LIN":"20鄰","STREET":"大林路","SECT":" ","MAREA":" ","LANE":"１１１巷","ALLEY":"１０弄","HOUSE_NO":"７號","E_COORD97":169131.94,"N_COORD97":2541674.8799999999,"ADDRESS":"大林路１１１巷１０弄７號","OBJECTID":183918},"geometry":{"x":169131.94000000134,"y":2541674.8800000008}},{"attributes":{"ID":183920,"DIS_CODE":0,"TOWNNAME":"南區","LI":"大林里","LIN":"20鄰","STREET":"大林路","SECT":" ","MAREA":" ","LANE":"１１１巷","ALLEY":"１０弄","HOUSE_NO":"８號","E_COORD97":169134.87,"N_COORD97":2541694.9900000002,"ADDRESS":"大林路１１１巷１０弄８號","OBJECTID":183919},"geometry":{"x":169134.87000000197,"y":2541694.9900000002}},{"attributes":{"ID":183921,"DIS_CODE":0,"TOWNNAME":"南區","LI":"大林里","LIN":"20鄰","STREET":"大林路","SECT":" ","MAREA":" ","LANE":"１１１巷","ALLEY":"１０弄","HOUSE_NO":"９號","E_COORD97":169129.82999999999,"N_COORD97":2541674.7599999998,"ADDRESS":"大林路１１１巷１０弄９號","OBJECTID":183920},"geometry":{"x":169129.82999999914,"y":2541674.7599999998}},{"attributes":{"ID":183922,"DIS_CODE":0,"TOWNNAME":"新化區","LI":"協興里","LIN":"10鄰","STREET":"正新路","SECT":" ","MAREA":" ","LANE":" ","ALLEY":" ","HOUSE_NO":"３５７號","E_COORD97":178525.32000000001,"N_COORD97":2548861.25,"ADDRESS":"正新路３５７號","OBJECTID":183921},"geometry":{"x":178525.32000000123,"y":2548861.2500000019}},{"attributes":{"ID":183923,"DIS_CODE":0,"TOWNNAME":"新化區","LI":"護國里","LIN":"10鄰","STREET":"中山路","SECT":" ","MAREA":" ","LANE":" ","ALLEY":" ","HOUSE_NO":"５０號","E_COORD97":179858.93126499999,"N_COORD97":2549416.3976500002,"ADDRESS":"中山路５０號","OBJECTID":183922},"geometry":{"x":179858.93126500025,"y":2549416.3976479992}},{"attributes":{"ID":183924,"DIS_CODE":0,"TOWNNAME":"南區","LI":"大林里","LIN":"20鄰","STREET":"大林路","SECT":" ","MAREA":" ","LANE":"１１１巷","ALLEY":"２４弄","HOUSE_NO":"１０號","E_COORD97":169126.60000000001,"N_COORD97":2541650.8399999999,"ADDRESS":"大林路１１１巷２４弄１０號","OBJECTID":183923},"geometry":{"x":169126.60000000056,"y":2541650.8399999999}},{"attributes":{"ID":183925,"DIS_CODE":0,"TOWNNAME":"新化區","LI":"協興里","LIN":"10鄰","STREET":"正新路","SECT":" ","MAREA":" ","LANE":" ","ALLEY":" ","HOUSE_NO":"３６９號","E_COORD97":178516.22,"N_COORD97":2548906.25,"ADDRESS":"正新路３６９號","OBJECTID":183924},"geometry":{"x":178516.21999999974,"y":2548906.2500000019}},{"attributes":{"ID":183926,"DIS_CODE":0,"TOWNNAME":"新化區","LI":"協興里","LIN":"10鄰","STREET":"正新路","SECT":" ","MAREA":" ","LANE":" ","ALLEY":" ","HOUSE_NO":"３５０號","E_COORD97":178555.22,"N_COORD97":2548855.25,"ADDRESS":"正新路３５０號","OBJECTID":183925},"geometry":{"x":178555.21999999974,"y":2548855.2500000019}},{"attributes":{"ID":183927,"DIS_CODE":0,"TOWNNAME":"南區","LI":"大林里","LIN":"20鄰","STREET":"大林路","SECT":" ","MAREA":" ","LANE":"１１１巷","ALLEY":"２４弄","HOUSE_NO":"１２號","E_COORD97":169120.42000000001,"N_COORD97":2541652.5499999998,"ADDRESS":"大林路１１１巷２４弄１２號","OBJECTID":183926},"geometry":{"x":169120.41999999993,"y":2541652.5500000026}},{"attributes":{"ID":183928,"DIS_CODE":0,"TOWNNAME":"新化區","LI":"協興里","LIN":"10鄰","STREET":"正新路","SECT":" ","MAREA":" ","LANE":" ","ALLEY":" ","HOUSE_NO":"３１７號","E_COORD97":178540.32000000001,"N_COORD97":2548771.25,"ADDRESS":"正新路３１７號","OBJECTID":183927},"geometry":{"x":178540.32000000216,"y":2548771.25}},{"attributes":{"ID":183929,"DIS_CODE":0,"TOWNNAME":"南區","LI":"大林里","LIN":"20鄰","STREET":"大林路","SECT":" ","MAREA":" ","LANE":"１１１巷","ALLEY":"２４弄","HOUSE_NO":"１４號","E_COORD97":169113.70999999999,"N_COORD97":2541653.0800000001,"ADDRESS":"大林路１１１巷２４弄１４號","OBJECTID":183928},"geometry":{"x":169113.71000000183,"y":2541653.0800000001}},{"attributes":{"ID":183930,"DIS_CODE":0,"TOWNNAME":"南區","LI":"大林里","LIN":"20鄰","STREET":"大林路","SECT":" ","MAREA":" ","LANE":"１１１巷","ALLEY":"２４弄","HOUSE_NO":"１６號","E_COORD97":169110.26999999999,"N_COORD97":2541653.1899999999,"ADDRESS":"大林路１１１巷２４弄１６號","OBJECTID":183929},"geometry":{"x":169110.27000000048,"y":2541653.1900000013}},{"attributes":{"ID":183931,"DIS_CODE":0,"TOWNNAME":"南區","LI":"大林里","LIN":"20鄰","STREET":"大林路","SECT":" ","MAREA":" ","LANE":"１１１巷","ALLEY":"２４弄","HOUSE_NO":"１８號","E_COORD97":169106.22,"N_COORD97":2541650.21,"ADDRESS":"大林路１１１巷２４弄１８號","OBJECTID":183930},"geometry":{"x":169106.21999999974,"y":2541650.2100000009}},{"attributes":{"ID":183932,"DIS_CODE":0,"TOWNNAME":"南區","LI":"大林里","LIN":"20鄰","STREET":"大林路","SECT":" ","MAREA":" ","LANE":"１１１巷","ALLEY":"２４弄","HOUSE_NO":"２０號","E_COORD97":169098.12,"N_COORD97":2541650.21,"ADDRESS":"大林路１１１巷２４弄２０號","OBJECTID":183931},"geometry":{"x":169098.12000000104,"y":2541650.2100000009}},{"attributes":{"ID":183933,"DIS_CODE":0,"TOWNNAME":"南區","LI":"大林里","LIN":"20鄰","STREET":"大林路","SECT":" ","MAREA":" ","LANE":"１１１巷","ALLEY":"２４弄","HOUSE_NO":"２號","E_COORD97":169140.13,"N_COORD97":2541650.4199999999,"ADDRESS":"大林路１１１巷２４弄２號","OBJECTID":183932},"geometry":{"x":169140.13000000082,"y":2541650.4199999999}},{"attributes":{"ID":183934,"DIS_CODE":0,"TOWNNAME":"南區","LI":"大林里","LIN":"20鄰","STREET":"大林路","SECT":" ","MAREA":" ","LANE":"１１１巷","ALLEY":"２４弄","HOUSE_NO":"６號","E_COORD97":169135.76000000001,"N_COORD97":2541650.5299999998,"ADDRESS":"大林路１１１巷２４弄６號","OBJECTID":183933},"geometry":{"x":169135.76000000071,"y":2541650.5300000012}},{"attributes":{"ID":183935,"DIS_CODE":0,"TOWNNAME":"南區","LI":"大林里","LIN":"20鄰","STREET":"大林路","SECT":" ","MAREA":" ","LANE":"１１１巷","ALLEY":"２弄","HOUSE_NO":"１０號","E_COORD97":169126.95000000001,"N_COORD97":2541736.9900000002,"ADDRESS":"大林路１１１巷２弄１０號","OBJECTID":183934},"geometry":{"x":169126.95000000019,"y":2541736.9900000021}},{"attributes":{"ID":183936,"DIS_CODE":0,"TOWNNAME":"南區","LI":"大林里","LIN":"20鄰","STREET":"大林路","SECT":" ","MAREA":" ","LANE":"１１１巷","ALLEY":"２弄","HOUSE_NO":"１２號","E_COORD97":169123.07000000001,"N_COORD97":2541736.3100000001,"ADDRESS":"大林路１１１巷２弄１２號","OBJECTID":183935},"geometry":{"x":169123.0700000003,"y":2541736.3100000005}},{"attributes":{"ID":183937,"DIS_CODE":0,"TOWNNAME":"南區","LI":"大林里","LIN":"20鄰","STREET":"大林路","SECT":" ","MAREA":" ","LANE":"１１１巷","ALLEY":"２弄","HOUSE_NO":"１６號","E_COORD97":169119.42000000001,"N_COORD97":2541736.3100000001,"ADDRESS":"大林路１１１巷２弄１６號","OBJECTID":183936},"geometry":{"x":169119.42000000086,"y":2541736.3100000005}},{"attributes":{"ID":183938,"DIS_CODE":0,"TOWNNAME":"南區","LI":"大林里","LIN":"20鄰","STREET":"大林路","SECT":" ","MAREA":" ","LANE":"１１１巷","ALLEY":"２弄","HOUSE_NO":"１８號","E_COORD97":169114.62,"N_COORD97":2541734.71,"ADDRESS":"大林路１１１巷２弄１８號","OBJECTID":183937},"geometry":{"x":169114.62000000104,"y":2541734.7100000009}},{"attributes":{"ID":183939,"DIS_CODE":0,"TOWNNAME":"南區","LI":"大林里","LIN":"20鄰","STREET":"大林路","SECT":" ","MAREA":" ","LANE":"１１１巷","ALLEY":"２弄","HOUSE_NO":"２號","E_COORD97":169138.54000000001,"N_COORD97":2541738.9100000001,"ADDRESS":"大林路１１１巷２弄２號","OBJECTID":183938},"geometry":{"x":169138.53999999911,"y":2541738.9100000001}},{"attributes":{"ID":183940,"DIS_CODE":0,"TOWNNAME":"仁德區","LI":"仁愛里","LIN":"20鄰","STREET":" ","SECT":" ","MAREA":"仁愛","LANE":" ","ALLEY":" ","HOUSE_NO":"４２３號","E_COORD97":170143.197549,"N_COORD97":2540157.5174400001,"ADDRESS":"仁愛４２３號","OBJECTID":183939},"geometry":{"x":170143.19754900131,"y":2540157.5174390022}},{"attributes":{"ID":183941,"DIS_CODE":0,"TOWNNAME":"新化區","LI":"崙頂里","LIN":"10鄰","STREET":" ","SECT":" ","MAREA":"崙子頂","LANE":" ","ALLEY":" ","HOUSE_NO":"３７６號","E_COORD97":176854.63,"N_COORD97":2546858.25,"ADDRESS":"崙子頂３７６號","OBJECTID":183940},"geometry":{"x":176854.63000000082,"y":2546858.2500000019}},{"attributes":{"ID":183942,"DIS_CODE":0,"TOWNNAME":"七股區","LI":"中寮里","LIN":"11鄰","STREET":" ","SECT":" ","MAREA":"中寮","LANE":" ","ALLEY":" ","HOUSE_NO":"８０號","E_COORD97":158794.64999999999,"N_COORD97":2561674.8399999999,"ADDRESS":"中寮８０號","OBJECTID":183941},"geometry":{"x":158794.6500000013,"y":2561674.8399999999}},{"attributes":{"ID":183943,"DIS_CODE":0,"TOWNNAME":"七股區","LI":"大潭里","LIN":"11鄰","STREET":" ","SECT":" ","MAREA":"台潭","LANE":" ","ALLEY":" ","HOUSE_NO":"１１１號","E_COORD97":160923.17000000001,"N_COORD97":2565449.8500000001,"ADDRESS":"台潭１１１號","OBJECTID":183942},"geometry":{"x":160923.17000000086,"y":2565449.8500000015}},{"attributes":{"ID":183944,"DIS_CODE":0,"TOWNNAME":"南區","LI":"大林里","LIN":"20鄰","STREET":"大林路","SECT":" ","MAREA":" ","LANE":"１１１巷","ALLEY":"２弄","HOUSE_NO":"６號","E_COORD97":169133.64000000001,"N_COORD97":2541737.9900000002,"ADDRESS":"大林路１１１巷２弄６號","OBJECTID":183943},"geometry":{"x":169133.63999999966,"y":2541737.9900000002}},{"attributes":{"ID":183945,"DIS_CODE":0,"TOWNNAME":"南區","LI":"大林里","LIN":"20鄰","STREET":"大林路","SECT":" ","MAREA":" ","LANE":"１１１巷","ALLEY":"２弄","HOUSE_NO":"８號","E_COORD97":169129.81,"N_COORD97":2541737.5299999998,"ADDRESS":"大林路１１１巷２弄８號","OBJECTID":183944},"geometry":{"x":169129.81000000052,"y":2541737.5299999993}},{"attributes":{"ID":183946,"DIS_CODE":0,"TOWNNAME":"新化區","LI":"協興里","LIN":"10鄰","STREET":"正新路","SECT":" ","MAREA":" ","LANE":" ","ALLEY":" ","HOUSE_NO":"３３８號","E_COORD97":178562.12,"N_COORD97":2548830.25,"ADDRESS":"正新路３３８號","OBJECTID":183945},"geometry":{"x":178562.12000000104,"y":2548830.2500000037}},{"attributes":{"ID":183947,"DIS_CODE":0,"TOWNNAME":"七股區","LI":"大潭里","LIN":"11鄰","STREET":" ","SECT":" ","MAREA":"台潭","LANE":" ","ALLEY":" ","HOUSE_NO":"１１２號","E_COORD97":160936.45999999999,"N_COORD97":2565442.04,"ADDRESS":"台潭１１２號","OBJECTID":183946},"geometry":{"x":160936.46000000089,"y":2565442.0399999991}},{"attributes":{"ID":183948,"DIS_CODE":0,"TOWNNAME":"七股區","LI":"大潭里","LIN":"11鄰","STREET":" ","SECT":" ","MAREA":"台潭","LANE":" ","ALLEY":" ","HOUSE_NO":"１１３號","E_COORD97":160956.82999999999,"N_COORD97":2565423.48,"ADDRESS":"台潭１１３號","OBJECTID":183947},"geometry":{"x":160956.83000000007,"y":2565423.4800000004}},{"attributes":{"ID":183949,"DIS_CODE":0,"TOWNNAME":"七股區","LI":"大潭里","LIN":"11鄰","STREET":" ","SECT":" ","MAREA":"台潭","LANE":" ","ALLEY":" ","HOUSE_NO":"１１４號","E_COORD97":160967.53,"N_COORD97":2565427.1200000001,"ADDRESS":"台潭１１４號","OBJECTID":183948},"geometry":{"x":160967.53000000026,"y":2565427.120000001}},{"attributes":{"ID":183950,"DIS_CODE":0,"TOWNNAME":"七股區","LI":"大潭里","LIN":"11鄰","STREET":" ","SECT":" ","MAREA":"台潭","LANE":" ","ALLEY":" ","HOUSE_NO":"１１５號","E_COORD97":160985.04999999999,"N_COORD97":2565425.1000000001,"ADDRESS":"台潭１１５號","OBJECTID":183949},"geometry":{"x":160985.05000000075,"y":2565425.0999999996}},{"attributes":{"ID":183951,"DIS_CODE":0,"TOWNNAME":"七股區","LI":"大潭里","LIN":"11鄰","STREET":" ","SECT":" ","MAREA":"台潭","LANE":" ","ALLEY":" ","HOUSE_NO":"１１６號","E_COORD97":160946.85000000001,"N_COORD97":2565419.4900000002,"ADDRESS":"台潭１１６號","OBJECTID":183950},"geometry":{"x":160946.85000000056,"y":2565419.4900000021}},{"attributes":{"ID":183952,"DIS_CODE":0,"TOWNNAME":"南區","LI":"大林里","LIN":"20鄰","STREET":"大林路","SECT":" ","MAREA":" ","LANE":"１１１巷","ALLEY":"６弄","HOUSE_NO":"１０號","E_COORD97":169115.26000000001,"N_COORD97":2541713.6600000001,"ADDRESS":"大林路１１１巷６弄１０號","OBJECTID":183951},"geometry":{"x":169115.26000000071,"y":2541713.6600000001}},{"attributes":{"ID":183953,"DIS_CODE":0,"TOWNNAME":"新化區","LI":"協興里","LIN":"10鄰","STREET":"正新路","SECT":" ","MAREA":" ","LANE":" ","ALLEY":" ","HOUSE_NO":"３６１號","E_COORD97":178523.82000000001,"N_COORD97":2548871.25,"ADDRESS":"正新路３６１號","OBJECTID":183952},"geometry":{"x":178523.82000000123,"y":2548871.2500000019}},{"attributes":{"ID":183954,"DIS_CODE":0,"TOWNNAME":"南區","LI":"大林里","LIN":"20鄰","STREET":"大林路","SECT":" ","MAREA":" ","LANE":"１１１巷","ALLEY":"６弄","HOUSE_NO":"１２號","E_COORD97":169116.32999999999,"N_COORD97":2541699.1200000001,"ADDRESS":"大林路１１１巷６弄１２號","OBJECTID":183953},"geometry":{"x":169116.33000000194,"y":2541699.1200000029}},{"attributes":{"ID":183955,"DIS_CODE":0,"TOWNNAME":"南區","LI":"大林里","LIN":"20鄰","STREET":"大林路","SECT":" ","MAREA":" ","LANE":"１１１巷","ALLEY":"６弄","HOUSE_NO":"１４號","E_COORD97":169130.26999999999,"N_COORD97":2541701.4199999999,"ADDRESS":"大林路１１１巷６弄１４號","OBJECTID":183954},"geometry":{"x":169130.27000000048,"y":2541701.4199999999}},{"attributes":{"ID":183956,"DIS_CODE":0,"TOWNNAME":"新化區","LI":"協興里","LIN":"10鄰","STREET":"正新路","SECT":" ","MAREA":" ","LANE":" ","ALLEY":" ","HOUSE_NO":"３４７號","E_COORD97":178529.01999999999,"N_COORD97":2548839.25,"ADDRESS":"正新路３４７號","OBJECTID":183955},"geometry":{"x":178529.01999999955,"y":2548839.25}},{"attributes":{"ID":183957,"DIS_CODE":0,"TOWNNAME":"仁德區","LI":"新田里","LIN":"4鄰","STREET":"新田路","SECT":" ","MAREA":" ","LANE":" ","ALLEY":" ","HOUSE_NO":"２４６號","E_COORD97":174507.39999999999,"N_COORD97":2539657.7400000002,"ADDRESS":"新田路２４６號","OBJECTID":183956},"geometry":{"x":174507.4000000013,"y":2539657.7400000021}},{"attributes":{"ID":183958,"DIS_CODE":0,"TOWNNAME":"南區","LI":"大林里","LIN":"20鄰","STREET":"大林路","SECT":" ","MAREA":" ","LANE":"１１１巷","ALLEY":"６弄","HOUSE_NO":"１６號","E_COORD97":169136.70000000001,"N_COORD97":2541701.7200000002,"ADDRESS":"大林路１１１巷６弄１６號","OBJECTID":183957},"geometry":{"x":169136.70000000112,"y":2541701.7200000025}},{"attributes":{"ID":183959,"DIS_CODE":0,"TOWNNAME":"南區","LI":"大林里","LIN":"20鄰","STREET":"大林路","SECT":" ","MAREA":" ","LANE":"１１１巷","ALLEY":"６弄","HOUSE_NO":"１８號","E_COORD97":169142.22,"N_COORD97":2541701.8799999999,"ADDRESS":"大林路１１１巷６弄１８號","OBJECTID":183958},"geometry":{"x":169142.2200000016,"y":2541701.8800000008}},{"attributes":{"ID":183960,"DIS_CODE":0,"TOWNNAME":"南區","LI":"大林里","LIN":"20鄰","STREET":"大林路","SECT":" ","MAREA":" ","LANE":"１１１巷","ALLEY":"６弄","HOUSE_NO":"２號","E_COORD97":169142.37,"N_COORD97":2541718.3999999999,"ADDRESS":"大林路１１１巷６弄２號","OBJECTID":183959},"geometry":{"x":169142.37000000104,"y":2541718.4000000004}},{"attributes":{"ID":183961,"DIS_CODE":0,"TOWNNAME":"南區","LI":"大林里","LIN":"20鄰","STREET":"大林路","SECT":" ","MAREA":" ","LANE":"１１１巷","ALLEY":"６弄","HOUSE_NO":"６號","E_COORD97":169134.10000000001,"N_COORD97":2541716.1099999999,"ADDRESS":"大林路１１１巷６弄６號","OBJECTID":183960},"geometry":{"x":169134.09999999963,"y":2541716.1099999994}},{"attributes":{"ID":183962,"DIS_CODE":0,"TOWNNAME":"南區","LI":"大林里","LIN":"20鄰","STREET":"大林路","SECT":" ","MAREA":" ","LANE":"１１１巷","ALLEY":"６弄","HOUSE_NO":"８號","E_COORD97":169126.14000000001,"N_COORD97":2541715.1899999999,"ADDRESS":"大林路１１１巷６弄８號","OBJECTID":183961},"geometry":{"x":169126.1400000006,"y":2541715.1900000013}},{"attributes":{"ID":183963,"DIS_CODE":0,"TOWNNAME":"南區","LI":"田寮里","LIN":"20鄰","STREET":"西門路","SECT":"一段","MAREA":" ","LANE":"２２３巷","ALLEY":"１０弄","HOUSE_NO":"３３號","E_COORD97":167660.62,"N_COORD97":2541886.98,"ADDRESS":"西門路一段２２３巷１０弄３３號","OBJECTID":183962},"geometry":{"x":167660.62000000104,"y":2541886.9800000023}},{"attributes":{"ID":183964,"DIS_CODE":0,"TOWNNAME":"南區","LI":"田寮里","LIN":"20鄰","STREET":"西門路","SECT":"一段","MAREA":" ","LANE":"２２３巷","ALLEY":"１０弄","HOUSE_NO":"３４號","E_COORD97":167675.88,"N_COORD97":2541887.2400000002,"ADDRESS":"西門路一段２２３巷１０弄３４號","OBJECTID":183963},"geometry":{"x":167675.87999999989,"y":2541887.2400000021}},{"attributes":{"ID":183965,"DIS_CODE":0,"TOWNNAME":"南區","LI":"田寮里","LIN":"20鄰","STREET":"西門路","SECT":"一段","MAREA":" ","LANE":"２２３巷","ALLEY":"１０弄","HOUSE_NO":"３５號","E_COORD97":167653.19,"N_COORD97":2541887.1099999999,"ADDRESS":"西門路一段２２３巷１０弄３５號","OBJECTID":183964},"geometry":{"x":167653.19000000134,"y":2541887.1100000031}},{"attributes":{"ID":183966,"DIS_CODE":0,"TOWNNAME":"歸仁區","LI":"七甲里","LIN":"20鄰","STREET":"南潭三街","SECT":" ","MAREA":" ","LANE":"１６５巷","ALLEY":"７弄","HOUSE_NO":"２號","E_COORD97":176443.88,"N_COORD97":2543280.0299999998,"ADDRESS":"南潭三街１６５巷７弄２號","OBJECTID":183965},"geometry":{"x":176443.87999999989,"y":2543280.0299999993}},{"attributes":{"ID":183967,"DIS_CODE":0,"TOWNNAME":"南區","LI":"田寮里","LIN":"20鄰","STREET":"西門路","SECT":"一段","MAREA":" ","LANE":"２２３巷","ALLEY":"１０弄","HOUSE_NO":"３６號","E_COORD97":167684.32999999999,"N_COORD97":2541887.2400000002,"ADDRESS":"西門路一段２２３巷１０弄３６號","OBJECTID":183966},"geometry":{"x":167684.33000000101,"y":2541887.2400000021}},{"attributes":{"ID":183968,"DIS_CODE":0,"TOWNNAME":"南區","LI":"府南里","LIN":"14鄰","STREET":"永成路","SECT":"三段","MAREA":" ","LANE":"３７２巷","ALLEY":"６９弄","HOUSE_NO":"８號","E_COORD97":167682.64178000001,"N_COORD97":2541026.3200099999,"ADDRESS":"永成路三段３７２巷６９弄８號","OBJECTID":183967},"geometry":{"x":167682.64178000018,"y":2541026.3200049978}},{"attributes":{"ID":183969,"DIS_CODE":0,"TOWNNAME":"南區","LI":"府南里","LIN":"14鄰","STREET":"永成路","SECT":"三段","MAREA":" ","LANE":"３７２巷","ALLEY":"６９弄","HOUSE_NO":"１６號","E_COORD97":167680.94732599999,"N_COORD97":2541037.00917,"ADDRESS":"永成路三段３７２巷６９弄１６號","OBJECTID":183968},"geometry":{"x":167680.94732600078,"y":2541037.0091660004}},{"attributes":{"ID":183970,"DIS_CODE":0,"TOWNNAME":"南區","LI":"田寮里","LIN":"20鄰","STREET":"西門路","SECT":"一段","MAREA":" ","LANE":"２２３巷","ALLEY":"１０弄","HOUSE_NO":"３７號","E_COORD97":167646.01000000001,"N_COORD97":2541886.4700000002,"ADDRESS":"西門路一段２２３巷１０弄３７號","OBJECTID":183969},"geometry":{"x":167646.00999999978,"y":2541886.4700000025}},{"attributes":{"ID":183971,"DIS_CODE":0,"TOWNNAME":"南區","LI":"田寮里","LIN":"20鄰","STREET":"西門路","SECT":"一段","MAREA":" ","LANE":"２２３巷","ALLEY":"１０弄","HOUSE_NO":"３８號","E_COORD97":167691,"N_COORD97":2541887.6200000001,"ADDRESS":"西門路一段２２３巷１０弄３８號","OBJECTID":183970},"geometry":{"x":167691,"y":2541887.620000001}},{"attributes":{"ID":183972,"DIS_CODE":0,"TOWNNAME":"新化區","LI":"唪口里","LIN":"10鄰","STREET":" ","SECT":" ","MAREA":"唪口","LANE":" ","ALLEY":" ","HOUSE_NO":"１４２號之５","E_COORD97":177636.51000000001,"N_COORD97":2549172.2599999998,"ADDRESS":"唪口１４２號之５","OBJECTID":183971},"geometry":{"x":177636.51000000164,"y":2549172.2600000035}},{"attributes":{"ID":183973,"DIS_CODE":0,"TOWNNAME":"新化區","LI":"全興里","LIN":"10鄰","STREET":" ","SECT":" ","MAREA":"竹子\u25A0","LANE":" ","ALLEY":" ","HOUSE_NO":"２２６號","E_COORD97":177804.42999999999,"N_COORD97":2547299.25,"ADDRESS":"竹子\u25A0２２６號","OBJECTID":183972},"geometry":{"x":177804.4299999997,"y":2547299.2500000019}},{"attributes":{"ID":183974,"DIS_CODE":0,"TOWNNAME":"新化區","LI":"\u25A0拔里","LIN":"10鄰","STREET":" ","SECT":" ","MAREA":"牧場","LANE":" ","ALLEY":" ","HOUSE_NO":"９４號","E_COORD97":181846.23000000001,"N_COORD97":2551214.25,"ADDRESS":"牧場９４號","OBJECTID":183973},"geometry":{"x":181846.23000000045,"y":2551214.2500000019}},{"attributes":{"ID":183975,"DIS_CODE":0,"TOWNNAME":"新化區","LI":"護國里","LIN":"10鄰","STREET":"中山路","SECT":" ","MAREA":" ","LANE":" ","ALLEY":" ","HOUSE_NO":"１００號之９","E_COORD97":179483.14999999999,"N_COORD97":2549108.2599999998,"ADDRESS":"中山路１００號之９","OBJECTID":183974},"geometry":{"x":179483.15000000037,"y":2549108.2600000016}},{"attributes":{"ID":183976,"DIS_CODE":0,"TOWNNAME":"南區","LI":"田寮里","LIN":"20鄰","STREET":"西門路","SECT":"一段","MAREA":" ","LANE":"２２３巷","ALLEY":"１０弄","HOUSE_NO":"３９號","E_COORD97":167637.16,"N_COORD97":2541886.4700000002,"ADDRESS":"西門路一段２２３巷１０弄３９號","OBJECTID":183975},"geometry":{"x":167637.16000000015,"y":2541886.4700000025}},{"attributes":{"ID":183977,"DIS_CODE":0,"TOWNNAME":"南區","LI":"田寮里","LIN":"20鄰","STREET":"西門路","SECT":"一段","MAREA":" ","LANE":"２２３巷","ALLEY":"１０弄","HOUSE_NO":"４０號","E_COORD97":167699.85000000001,"N_COORD97":2541887.6200000001,"ADDRESS":"西門路一段２２３巷１０弄４０號","OBJECTID":183976},"geometry":{"x":167699.84999999963,"y":2541887.620000001}},{"attributes":{"ID":183978,"DIS_CODE":0,"TOWNNAME":"南區","LI":"田寮里","LIN":"20鄰","STREET":"西門路","SECT":"一段","MAREA":" ","LANE":"２２３巷","ALLEY":"１０弄","HOUSE_NO":"４１號","E_COORD97":167637.67000000001,"N_COORD97":2541905.4100000001,"ADDRESS":"西門路一段２２３巷１０弄４１號","OBJECTID":183977},"geometry":{"x":167637.67000000086,"y":2541905.4100000001}},{"attributes":{"ID":183979,"DIS_CODE":0,"TOWNNAME":"新化區","LI":"唪口里","LIN":"10鄰","STREET":" ","SECT":" ","MAREA":"唪口","LANE":" ","ALLEY":" ","HOUSE_NO":"１５１號之６","E_COORD97":177623.79999999999,"N_COORD97":2548990.2599999998,"ADDRESS":"唪口１５１號之６","OBJECTID":183978},"geometry":{"x":177623.79999999981,"y":2548990.2600000016}},{"attributes":{"ID":183980,"DIS_CODE":0,"TOWNNAME":"南區","LI":"田寮里","LIN":"20鄰","STREET":"西門路","SECT":"一段","MAREA":" ","LANE":"２２３巷","ALLEY":"１０弄","HOUSE_NO":"４２號","E_COORD97":167699.32999999999,"N_COORD97":2541905.29,"ADDRESS":"西門路一段２２３巷１０弄４２號","OBJECTID":183979},"geometry":{"x":167699.33000000194,"y":2541905.2899999991}},{"attributes":{"ID":183981,"DIS_CODE":0,"TOWNNAME":"新化區","LI":"全興里","LIN":"10鄰","STREET":" ","SECT":" ","MAREA":"竹子\u25A0","LANE":" ","ALLEY":" ","HOUSE_NO":"１６９號之７","E_COORD97":177007.17999999999,"N_COORD97":2547285.2599999998,"ADDRESS":"竹子\u25A0１６９號之７","OBJECTID":183980},"geometry":{"x":177007.18000000063,"y":2547285.2600000016}},{"attributes":{"ID":183982,"DIS_CODE":0,"TOWNNAME":"新化區","LI":"山\u25A0里","LIN":"10鄰","STREET":" ","SECT":" ","MAREA":"五甲勢","LANE":" ","ALLEY":" ","HOUSE_NO":"２６號","E_COORD97":181943.98000000001,"N_COORD97":2545821.2599999998,"ADDRESS":"五甲勢２６號","OBJECTID":183981},"geometry":{"x":181943.98000000138,"y":2545821.2599999998}},{"attributes":{"ID":183983,"DIS_CODE":0,"TOWNNAME":"新化區","LI":"唪口里","LIN":"10鄰","STREET":" ","SECT":" ","MAREA":"唪口","LANE":" ","ALLEY":" ","HOUSE_NO":"１４６號","E_COORD97":177699.35000000001,"N_COORD97":2548998.25,"ADDRESS":"唪口１４６號","OBJECTID":183982},"geometry":{"x":177699.35000000056,"y":2548998.25}},{"attributes":{"ID":183984,"DIS_CODE":0,"TOWNNAME":"南區","LI":"田寮里","LIN":"20鄰","STREET":"西門路","SECT":"一段","MAREA":" ","LANE":"２２３巷","ALLEY":"１０弄","HOUSE_NO":"４３號","E_COORD97":167645.88,"N_COORD97":2541905.54,"ADDRESS":"西門路一段２２３巷１０弄４３號","OBJECTID":183983},"geometry":{"x":167645.87999999989,"y":2541905.540000001}},{"attributes":{"ID":183985,"DIS_CODE":0,"TOWNNAME":"新化區","LI":"唪口里","LIN":"10鄰","STREET":" ","SECT":" ","MAREA":"唪口","LANE":" ","ALLEY":" ","HOUSE_NO":"１４２號之２０","E_COORD97":177334.44,"N_COORD97":2549019.2599999998,"ADDRESS":"唪口１４２號之２０","OBJECTID":183984},"geometry":{"x":177334.44000000134,"y":2549019.2599999998}},{"attributes":{"ID":183986,"DIS_CODE":0,"TOWNNAME":"新化區","LI":"唪口里","LIN":"10鄰","STREET":" ","SECT":" ","MAREA":"唪口","LANE":" ","ALLEY":" ","HOUSE_NO":"１５１號","E_COORD97":177641.64999999999,"N_COORD97":2548973.25,"ADDRESS":"唪口１５１號","OBJECTID":183985},"geometry":{"x":177641.6500000013,"y":2548973.2500000019}},{"attributes":{"ID":183987,"DIS_CODE":0,"TOWNNAME":"新化區","LI":"山\u25A0里","LIN":"10鄰","STREET":" ","SECT":" ","MAREA":"五甲勢","LANE":" ","ALLEY":" ","HOUSE_NO":"４６號","E_COORD97":181861.78,"N_COORD97":2545633.2599999998,"ADDRESS":"五甲勢４６號","OBJECTID":183986},"geometry":{"x":181861.78000000119,"y":2545633.2600000016}},{"attributes":{"ID":183988,"DIS_CODE":0,"TOWNNAME":"新化區","LI":"全興里","LIN":"10鄰","STREET":" ","SECT":" ","MAREA":"竹子\u25A0","LANE":" ","ALLEY":" ","HOUSE_NO":"１６３號之２０","E_COORD97":177217.92000000001,"N_COORD97":2547382.2599999998,"ADDRESS":"竹子\u25A0１６３號之２０","OBJECTID":183987},"geometry":{"x":177217.91999999993,"y":2547382.2600000035}},{"attributes":{"ID":183989,"DIS_CODE":0,"TOWNNAME":"新化區","LI":"全興里","LIN":"10鄰","STREET":" ","SECT":" ","MAREA":"竹子\u25A0","LANE":" ","ALLEY":" ","HOUSE_NO":"１８１號之３","E_COORD97":177605.07999999999,"N_COORD97":2547591.2599999998,"ADDRESS":"竹子\u25A0１８１號之３","OBJECTID":183988},"geometry":{"x":177605.08000000007,"y":2547591.2599999998}},{"attributes":{"ID":183990,"DIS_CODE":0,"TOWNNAME":"南區","LI":"田寮里","LIN":"20鄰","STREET":"西門路","SECT":"一段","MAREA":" ","LANE":"２２３巷","ALLEY":"１０弄","HOUSE_NO":"４４號","E_COORD97":167691.64000000001,"N_COORD97":2541905.7999999998,"ADDRESS":"西門路一段２２３巷１０弄４４號","OBJECTID":183989},"geometry":{"x":167691.64000000153,"y":2541905.8000000007}},{"attributes":{"ID":183991,"DIS_CODE":0,"TOWNNAME":"新化區","LI":"全興里","LIN":"10鄰","STREET":" ","SECT":" ","MAREA":"竹子\u25A0","LANE":" ","ALLEY":" ","HOUSE_NO":"１６８號之２３","E_COORD97":177531.63,"N_COORD97":2546863.2599999998,"ADDRESS":"竹子\u25A0１６８號之２３","OBJECTID":183990},"geometry":{"x":177531.62999999989,"y":2546863.2600000035}},{"attributes":{"ID":183992,"DIS_CODE":0,"TOWNNAME":"南區","LI":"田寮里","LIN":"20鄰","STREET":"西門路","SECT":"一段","MAREA":" ","LANE":"２２３巷","ALLEY":"１０弄","HOUSE_NO":"４８號","E_COORD97":167676,"N_COORD97":2541904.8999999999,"ADDRESS":"西門路一段２２３巷１０弄４８號","OBJECTID":183991},"geometry":{"x":167676.00000000186,"y":2541904.9000000004}},{"attributes":{"ID":183993,"DIS_CODE":0,"TOWNNAME":"南區","LI":"府南里","LIN":"14鄰","STREET":"永成路","SECT":"三段","MAREA":" ","LANE":"３７２巷","ALLEY":"６９弄","HOUSE_NO":"１８號","E_COORD97":167680.31190599999,"N_COORD97":2541041.6658299998,"ADDRESS":"永成路三段３７２巷６９弄１８號","OBJECTID":183992},"geometry":{"x":167680.31190599967,"y":2541041.6658300012}},{"attributes":{"ID":183994,"DIS_CODE":0,"TOWNNAME":"南化區","LI":"東和里","LIN":"10鄰","STREET":" ","SECT":" ","MAREA":"東和","LANE":" ","ALLEY":" ","HOUSE_NO":"９２之１０號","E_COORD97":198227.92999999999,"N_COORD97":2547198.04,"ADDRESS":"東和９２之１０號","OBJECTID":183993},"geometry":{"x":198227.9299999997,"y":2547198.040000001}},{"attributes":{"ID":183995,"DIS_CODE":0,"TOWNNAME":"南區","LI":"府南里","LIN":"14鄰","STREET":"永成路","SECT":"三段","MAREA":" ","LANE":"３７２巷","ALLEY":"６９弄","HOUSE_NO":"２０號","E_COORD97":167679.358775,"N_COORD97":2541046.8516600002,"ADDRESS":"永成路三段３７２巷６９弄２０號","OBJECTID":183994},"geometry":{"x":167679.35877500009,"y":2541046.851660002}},{"attributes":{"ID":183996,"DIS_CODE":0,"TOWNNAME":"新營區","LI":"永生里","LIN":"10鄰","STREET":"富源街","SECT":" ","MAREA":" ","LANE":" ","ALLEY":" ","HOUSE_NO":"３４號","E_COORD97":179969.76000000001,"N_COORD97":2577969.2799999998,"ADDRESS":"富源街３４號","OBJECTID":183995},"geometry":{"x":179969.76000000071,"y":2577969.2799999975}},{"attributes":{"ID":183997,"DIS_CODE":0,"TOWNNAME":"楠西區","LI":"東勢里","LIN":"10鄰","STREET":"水庫路","SECT":" ","MAREA":" ","LANE":" ","ALLEY":" ","HOUSE_NO":"３２４號","E_COORD97":197707.48999999999,"N_COORD97":2563956.4100000001,"ADDRESS":"水庫路３２４號","OBJECTID":183996},"geometry":{"x":197707.49000000022,"y":2563956.4100000001}},{"attributes":{"ID":183998,"DIS_CODE":0,"TOWNNAME":"將軍區","LI":"西華里","LIN":"10鄰","STREET":" ","SECT":" ","MAREA":"西華","LANE":" ","ALLEY":" ","HOUSE_NO":"１１４號","E_COORD97":163350.53,"N_COORD97":2566474.8700000001,"ADDRESS":"西華１１４號","OBJECTID":183997},"geometry":{"x":163350.53000000119,"y":2566474.8700000029}},{"attributes":{"ID":183999,"DIS_CODE":0,"TOWNNAME":"將軍區","LI":"西華里","LIN":"10鄰","STREET":" ","SECT":" ","MAREA":"西華","LANE":" ","ALLEY":" ","HOUSE_NO":"１１５號","E_COORD97":163347.14000000001,"N_COORD97":2566475.2999999998,"ADDRESS":"西華１１５號","OBJECTID":183998},"geometry":{"x":163347.1400000006,"y":2566475.3000000026}},{"attributes":{"ID":184000,"DIS_CODE":0,"TOWNNAME":"將軍區","LI":"西華里","LIN":"10鄰","STREET":" ","SECT":" ","MAREA":"西華","LANE":" ","ALLEY":" ","HOUSE_NO":"１２０號","E_COORD97":163308.57999999999,"N_COORD97":2566426.2999999998,"ADDRESS":"西華１２０號","OBJECTID":183999},"geometry":{"x":163308.57999999914,"y":2566426.3000000007}},{"attributes":{"ID":184001,"DIS_CODE":0,"TOWNNAME":"安定區","LI":"安定里","LIN":"10鄰","STREET":" ","SECT":" ","MAREA":"安定","LANE":" ","ALLEY":" ","HOUSE_NO":"１０２之１號","E_COORD97":172062,"N_COORD97":2557715.2400000002,"ADDRESS":"安定１０２之１號","OBJECTID":184000},"geometry":{"x":172062.00000000093,"y":2557715.2400000002}}]}