{"displayFieldName":"TOWNNAME","fieldAliases":{"ID":"ID","DIS_CODE":"DIS_CODE","TOWNNAME":"TOWNNAME","LI":"LI","LIN":"LIN","STREET":"STREET","SECT":"SECT","MAREA":"MAREA","LANE":"LANE","ALLEY":"ALLEY","HOUSE_NO":"HOUSE_NO","E_COORD97":"E_COORD97","N_COORD97":"N_COORD97","ADDRESS":"ADDRESS","OBJECTID":"OBJECTID"},"geometryType":"esriGeometryPoint","spatialReference":{"wkid":102443,"latestWkid":3826},"fields":[{"name":"ID","type":"esriFieldTypeDouble","alias":"ID"},{"name":"DIS_CODE","type":"esriFieldTypeInteger","alias":"DIS_CODE"},{"name":"TOWNNAME","type":"esriFieldTypeString","alias":"TOWNNAME","length":8},{"name":"LI","type":"esriFieldTypeString","alias":"LI","length":8},{"name":"LIN","type":"esriFieldTypeString","alias":"LIN","length":12},{"name":"STREET","type":"esriFieldTypeString","alias":"STREET","length":20},{"name":"SECT","type":"esriFieldTypeString","alias":"SECT","length":8},{"name":"MAREA","type":"esriFieldTypeString","alias":"MAREA","length":12},{"name":"LANE","type":"esriFieldTypeString","alias":"LANE","length":10},{"name":"ALLEY","type":"esriFieldTypeString","alias":"ALLEY","length":10},{"name":"HOUSE_NO","type":"esriFieldTypeString","alias":"HOUSE_NO","length":20},{"name":"E_COORD97","type":"esriFieldTypeDouble","alias":"E_COORD97"},{"name":"N_COORD97","type":"esriFieldTypeDouble","alias":"N_COORD97"},{"name":"ADDRESS","type":"esriFieldTypeString","alias":"ADDRESS","length":50},{"name":"OBJECTID","type":"esriFieldTypeOID","alias":"OBJECTID"}],"features":[{"attributes":{"ID":184802,"DIS_CODE":0,"TOWNNAME":"南區","LI":"永寧里","LIN":"20鄰","STREET":"灣裡路","SECT":" ","MAREA":" ","LANE":"２６３巷","ALLEY":"２弄","HOUSE_NO":"６號之１","E_COORD97":166147.19,"N_COORD97":2536364.9700000002,"ADDRESS":"灣裡路２６３巷２弄６號之１","OBJECTID":184801},"geometry":{"x":166147.19000000041,"y":2536364.9700000007}},{"attributes":{"ID":184803,"DIS_CODE":0,"TOWNNAME":"安南區","LI":"淵中里","LIN":"13鄰","STREET":"安中路","SECT":"四段","MAREA":" ","LANE":"１５４巷","ALLEY":"１３弄","HOUSE_NO":"１７號","E_COORD97":164925.881402,"N_COORD97":2550128.2359199999,"ADDRESS":"安中路四段１５４巷１３弄１７號","OBJECTID":184802},"geometry":{"x":164925.88140199985,"y":2550128.2359200008}},{"attributes":{"ID":184804,"DIS_CODE":0,"TOWNNAME":"安南區","LI":"淵中里","LIN":"13鄰","STREET":"安中路","SECT":"四段","MAREA":" ","LANE":"１６４巷","ALLEY":"９弄","HOUSE_NO":"２０號","E_COORD97":164899.39487399999,"N_COORD97":2550130.3525899998,"ADDRESS":"安中路四段１６４巷９弄２０號","OBJECTID":184803},"geometry":{"x":164899.39487400185,"y":2550130.3525860012}},{"attributes":{"ID":184805,"DIS_CODE":0,"TOWNNAME":"新化區","LI":"\u25A0拔里","LIN":"10鄰","STREET":" ","SECT":" ","MAREA":"牧場","LANE":" ","ALLEY":" ","HOUSE_NO":"７３號之６","E_COORD97":182200.28,"N_COORD97":2551714.2599999998,"ADDRESS":"牧場７３號之６","OBJECTID":184804},"geometry":{"x":182200.27999999933,"y":2551714.2599999998}},{"attributes":{"ID":184806,"DIS_CODE":0,"TOWNNAME":"新營區","LI":"大宏里","LIN":"15鄰","STREET":"綠川北街","SECT":" ","MAREA":" ","LANE":" ","ALLEY":" ","HOUSE_NO":"３９號","E_COORD97":180644.89968599999,"N_COORD97":2578765.3754799999,"ADDRESS":"綠川北街３９號","OBJECTID":184805},"geometry":{"x":180644.89968600124,"y":2578765.3754789997}},{"attributes":{"ID":184807,"DIS_CODE":0,"TOWNNAME":"仁德區","LI":"後壁里","LIN":"15鄰","STREET":"德南路","SECT":" ","MAREA":" ","LANE":" ","ALLEY":" ","HOUSE_NO":"４７號","E_COORD97":173396.64999999999,"N_COORD97":2538759.27,"ADDRESS":"德南路４７號","OBJECTID":184806},"geometry":{"x":173396.65000000224,"y":2538759.2699999996}},{"attributes":{"ID":184808,"DIS_CODE":0,"TOWNNAME":"仁德區","LI":"後壁里","LIN":"15鄰","STREET":"德南路","SECT":" ","MAREA":" ","LANE":" ","ALLEY":" ","HOUSE_NO":"１５５號","E_COORD97":173599.26000000001,"N_COORD97":2538591.7599999998,"ADDRESS":"德南路１５５號","OBJECTID":184807},"geometry":{"x":173599.26000000071,"y":2538591.7600000016}},{"attributes":{"ID":184809,"DIS_CODE":0,"TOWNNAME":"南區","LI":"永寧里","LIN":"20鄰","STREET":"灣裡路","SECT":" ","MAREA":" ","LANE":"２６３巷","ALLEY":"１２弄","HOUSE_NO":"１２號","E_COORD97":166221.70000000001,"N_COORD97":2536354.9300000002,"ADDRESS":"灣裡路２６３巷１２弄１２號","OBJECTID":184808},"geometry":{"x":166221.70000000019,"y":2536354.9299999997}},{"attributes":{"ID":184810,"DIS_CODE":0,"TOWNNAME":"南區","LI":"永寧里","LIN":"20鄰","STREET":"灣裡路","SECT":" ","MAREA":" ","LANE":"２６３巷","ALLEY":"１２弄","HOUSE_NO":"１４號","E_COORD97":166216.42000000001,"N_COORD97":2536354.4900000002,"ADDRESS":"灣裡路２６３巷１２弄１４號","OBJECTID":184809},"geometry":{"x":166216.41999999993,"y":2536354.4900000002}},{"attributes":{"ID":184811,"DIS_CODE":0,"TOWNNAME":"永康區","LI":"東橋里","LIN":"15鄰","STREET":"東橋五路","SECT":" ","MAREA":" ","LANE":" ","ALLEY":" ","HOUSE_NO":"２號","E_COORD97":171814.76000000001,"N_COORD97":2546580.2999999998,"ADDRESS":"東橋五路２號","OBJECTID":184810},"geometry":{"x":171814.75999999978,"y":2546580.3000000026}},{"attributes":{"ID":184812,"DIS_CODE":0,"TOWNNAME":"仁德區","LI":"保安里","LIN":"15鄰","STREET":"中正路","SECT":"一段","MAREA":" ","LANE":" ","ALLEY":" ","HOUSE_NO":"２２６號","E_COORD97":171629.38,"N_COORD97":2535817.52,"ADDRESS":"中正路一段２２６號","OBJECTID":184811},"geometry":{"x":171629.37999999989,"y":2535817.5199999996}},{"attributes":{"ID":184813,"DIS_CODE":0,"TOWNNAME":"南區","LI":"永寧里","LIN":"20鄰","STREET":"灣裡路","SECT":" ","MAREA":" ","LANE":"２６３巷","ALLEY":"１２弄","HOUSE_NO":"２號","E_COORD97":166183.31,"N_COORD97":2536392.25,"ADDRESS":"灣裡路２６３巷１２弄２號","OBJECTID":184812},"geometry":{"x":166183.31000000145,"y":2536392.2500000019}},{"attributes":{"ID":184814,"DIS_CODE":0,"TOWNNAME":"永康區","LI":"東橋里","LIN":"15鄰","STREET":"東橋五路","SECT":" ","MAREA":" ","LANE":" ","ALLEY":" ","HOUSE_NO":"１０號","E_COORD97":171807.82999999999,"N_COORD97":2546596.3900000001,"ADDRESS":"東橋五路１０號","OBJECTID":184813},"geometry":{"x":171807.83000000007,"y":2546596.3900000025}},{"attributes":{"ID":184815,"DIS_CODE":0,"TOWNNAME":"永康區","LI":"東橋里","LIN":"15鄰","STREET":"東橋五路","SECT":" ","MAREA":" ","LANE":" ","ALLEY":" ","HOUSE_NO":"１２號","E_COORD97":171805.10000000001,"N_COORD97":2546601.79,"ADDRESS":"東橋五路１２號","OBJECTID":184814},"geometry":{"x":171805.10000000056,"y":2546601.790000001}},{"attributes":{"ID":184816,"DIS_CODE":0,"TOWNNAME":"南區","LI":"永寧里","LIN":"20鄰","STREET":"灣裡路","SECT":" ","MAREA":" ","LANE":"２６３巷","ALLEY":"１２弄","HOUSE_NO":"４號","E_COORD97":166197.07999999999,"N_COORD97":2536388.0099999998,"ADDRESS":"灣裡路２６３巷１２弄４號","OBJECTID":184815},"geometry":{"x":166197.08000000007,"y":2536388.0099999998}},{"attributes":{"ID":184817,"DIS_CODE":0,"TOWNNAME":"南區","LI":"永寧里","LIN":"20鄰","STREET":"灣裡路","SECT":" ","MAREA":" ","LANE":"２６３巷","ALLEY":"１２弄","HOUSE_NO":"６號","E_COORD97":166193.12,"N_COORD97":2536382.23,"ADDRESS":"灣裡路２６３巷１２弄６號","OBJECTID":184816},"geometry":{"x":166193.12000000011,"y":2536382.2300000023}},{"attributes":{"ID":184818,"DIS_CODE":0,"TOWNNAME":"南區","LI":"永寧里","LIN":"20鄰","STREET":"灣裡路","SECT":" ","MAREA":" ","LANE":"２６３巷","ALLEY":"１２弄","HOUSE_NO":"６號之１","E_COORD97":166200.73999999999,"N_COORD97":2536382.8100000001,"ADDRESS":"灣裡路２６３巷１２弄６號之１","OBJECTID":184817},"geometry":{"x":166200.74000000022,"y":2536382.8100000005}},{"attributes":{"ID":184819,"DIS_CODE":0,"TOWNNAME":"永康區","LI":"東橋里","LIN":"15鄰","STREET":"東橋五路","SECT":" ","MAREA":" ","LANE":" ","ALLEY":" ","HOUSE_NO":"１６號","E_COORD97":171802.53,"N_COORD97":2546606.9700000002,"ADDRESS":"東橋五路１６號","OBJECTID":184818},"geometry":{"x":171802.53000000119,"y":2546606.9700000007}},{"attributes":{"ID":184820,"DIS_CODE":0,"TOWNNAME":"南區","LI":"永寧里","LIN":"20鄰","STREET":"灣裡路","SECT":" ","MAREA":" ","LANE":"２６３巷","ALLEY":"２弄","HOUSE_NO":"７號","E_COORD97":166178.91,"N_COORD97":2536371.4700000002,"ADDRESS":"灣裡路２６３巷２弄７號","OBJECTID":184819},"geometry":{"x":166178.91000000108,"y":2536371.4700000007}},{"attributes":{"ID":184821,"DIS_CODE":0,"TOWNNAME":"北門區","LI":"慈安里","LIN":"11鄰","STREET":" ","SECT":" ","MAREA":"三寮灣","LANE":" ","ALLEY":" ","HOUSE_NO":"５２１號之１","E_COORD97":159104.07000000001,"N_COORD97":2571091.4199999999,"ADDRESS":"三寮灣５２１號之１","OBJECTID":184820},"geometry":{"x":159104.0700000003,"y":2571091.4200000018}},{"attributes":{"ID":184822,"DIS_CODE":0,"TOWNNAME":"北門區","LI":"慈安里","LIN":"11鄰","STREET":" ","SECT":" ","MAREA":"三寮灣","LANE":" ","ALLEY":" ","HOUSE_NO":"５２１號","E_COORD97":159105.53,"N_COORD97":2571085.75,"ADDRESS":"三寮灣５２１號","OBJECTID":184821},"geometry":{"x":159105.53000000119,"y":2571085.7500000019}},{"attributes":{"ID":184823,"DIS_CODE":0,"TOWNNAME":"北門區","LI":"慈安里","LIN":"11鄰","STREET":" ","SECT":" ","MAREA":"三寮灣","LANE":" ","ALLEY":" ","HOUSE_NO":"５２２號","E_COORD97":159092.97,"N_COORD97":2571106.2999999998,"ADDRESS":"三寮灣５２２號","OBJECTID":184822},"geometry":{"x":159092.96999999974,"y":2571106.3000000026}},{"attributes":{"ID":184824,"DIS_CODE":0,"TOWNNAME":"北門區","LI":"慈安里","LIN":"11鄰","STREET":" ","SECT":" ","MAREA":"三寮灣","LANE":" ","ALLEY":" ","HOUSE_NO":"５２４號","E_COORD97":159061.48999999999,"N_COORD97":2571117.8999999999,"ADDRESS":"三寮灣５２４號","OBJECTID":184823},"geometry":{"x":159061.49000000115,"y":2571117.9000000041}},{"attributes":{"ID":184825,"DIS_CODE":0,"TOWNNAME":"永康區","LI":"東橋里","LIN":"15鄰","STREET":"東橋五路","SECT":" ","MAREA":" ","LANE":" ","ALLEY":" ","HOUSE_NO":"１８號","E_COORD97":171799.73999999999,"N_COORD97":2546612.3700000001,"ADDRESS":"東橋五路１８號","OBJECTID":184824},"geometry":{"x":171799.74000000115,"y":2546612.370000001}},{"attributes":{"ID":184826,"DIS_CODE":0,"TOWNNAME":"永康區","LI":"東橋里","LIN":"15鄰","STREET":"東橋五路","SECT":" ","MAREA":" ","LANE":" ","ALLEY":" ","HOUSE_NO":"２０號","E_COORD97":171797,"N_COORD97":2546617.3399999999,"ADDRESS":"東橋五路２０號","OBJECTID":184825},"geometry":{"x":171797.00000000186,"y":2546617.3399999999}},{"attributes":{"ID":184827,"DIS_CODE":0,"TOWNNAME":"南區","LI":"永寧里","LIN":"20鄰","STREET":"灣裡路","SECT":" ","MAREA":" ","LANE":"２６３巷","ALLEY":"２弄","HOUSE_NO":"９號","E_COORD97":166180.38,"N_COORD97":2536362.6099999999,"ADDRESS":"灣裡路２６３巷２弄９號","OBJECTID":184826},"geometry":{"x":166180.38000000082,"y":2536362.6099999994}},{"attributes":{"ID":184828,"DIS_CODE":0,"TOWNNAME":"南區","LI":"府南里","LIN":"20鄰","STREET":"永成路","SECT":"三段","MAREA":" ","LANE":"４６１巷","ALLEY":"６弄","HOUSE_NO":"１０號","E_COORD97":167423.63,"N_COORD97":2541559.25,"ADDRESS":"永成路三段４６１巷６弄１０號","OBJECTID":184827},"geometry":{"x":167423.62999999989,"y":2541559.2500000019}},{"attributes":{"ID":184829,"DIS_CODE":0,"TOWNNAME":"永康區","LI":"東橋里","LIN":"15鄰","STREET":"東橋五路","SECT":" ","MAREA":" ","LANE":" ","ALLEY":" ","HOUSE_NO":"２２號","E_COORD97":171794.13,"N_COORD97":2546622.6200000001,"ADDRESS":"東橋五路２２號","OBJECTID":184828},"geometry":{"x":171794.12999999896,"y":2546622.6200000029}},{"attributes":{"ID":184830,"DIS_CODE":0,"TOWNNAME":"北門區","LI":"慈安里","LIN":"11鄰","STREET":" ","SECT":" ","MAREA":"三寮灣","LANE":" ","ALLEY":" ","HOUSE_NO":"５２６號","E_COORD97":159028.73999999999,"N_COORD97":2571063.75,"ADDRESS":"三寮灣５２６號","OBJECTID":184829},"geometry":{"x":159028.74000000022,"y":2571063.75}},{"attributes":{"ID":184831,"DIS_CODE":0,"TOWNNAME":"北門區","LI":"慈安里","LIN":"11鄰","STREET":" ","SECT":" ","MAREA":"三寮灣","LANE":" ","ALLEY":" ","HOUSE_NO":"５２７號","E_COORD97":159029.66,"N_COORD97":2571072.5899999999,"ADDRESS":"三寮灣５２７號","OBJECTID":184830},"geometry":{"x":159029.66000000201,"y":2571072.5900000017}},{"attributes":{"ID":184832,"DIS_CODE":0,"TOWNNAME":"北門區","LI":"慈安里","LIN":"11鄰","STREET":" ","SECT":" ","MAREA":"三寮灣","LANE":" ","ALLEY":" ","HOUSE_NO":"５２８號","E_COORD97":159031.01000000001,"N_COORD97":2571076.0899999999,"ADDRESS":"三寮灣５２８號","OBJECTID":184831},"geometry":{"x":159031.00999999978,"y":2571076.0900000017}},{"attributes":{"ID":184833,"DIS_CODE":0,"TOWNNAME":"北門區","LI":"慈安里","LIN":"11鄰","STREET":" ","SECT":" ","MAREA":"三寮灣","LANE":" ","ALLEY":" ","HOUSE_NO":"５２９號","E_COORD97":159032.45999999999,"N_COORD97":2571079.4900000002,"ADDRESS":"三寮灣５２９號","OBJECTID":184832},"geometry":{"x":159032.46000000183,"y":2571079.4900000002}},{"attributes":{"ID":184834,"DIS_CODE":0,"TOWNNAME":"北門區","LI":"慈安里","LIN":"11鄰","STREET":" ","SECT":" ","MAREA":"三寮灣","LANE":" ","ALLEY":" ","HOUSE_NO":"５３０號","E_COORD97":159034.04999999999,"N_COORD97":2571082.7400000002,"ADDRESS":"三寮灣５３０號","OBJECTID":184833},"geometry":{"x":159034.05000000075,"y":2571082.7400000021}},{"attributes":{"ID":184835,"DIS_CODE":0,"TOWNNAME":"北門區","LI":"慈安里","LIN":"11鄰","STREET":" ","SECT":" ","MAREA":"三寮灣","LANE":" ","ALLEY":" ","HOUSE_NO":"５３１號","E_COORD97":159035.51000000001,"N_COORD97":2571086.0899999999,"ADDRESS":"三寮灣５３１號","OBJECTID":184834},"geometry":{"x":159035.51000000071,"y":2571086.0900000017}},{"attributes":{"ID":184836,"DIS_CODE":0,"TOWNNAME":"北門區","LI":"慈安里","LIN":"11鄰","STREET":" ","SECT":" ","MAREA":"三寮灣","LANE":" ","ALLEY":" ","HOUSE_NO":"５３２之１０號","E_COORD97":159420.69,"N_COORD97":2571413.6299999999,"ADDRESS":"三寮灣５３２之１０號","OBJECTID":184835},"geometry":{"x":159420.69000000041,"y":2571413.6300000008}},{"attributes":{"ID":184837,"DIS_CODE":0,"TOWNNAME":"北門區","LI":"保吉里","LIN":"11鄰","STREET":" ","SECT":" ","MAREA":"蚵寮","LANE":" ","ALLEY":" ","HOUSE_NO":"２８５號","E_COORD97":161624.20000000001,"N_COORD97":2576206.3599999999,"ADDRESS":"蚵寮２８５號","OBJECTID":184836},"geometry":{"x":161624.20000000019,"y":2576206.3600000013}},{"attributes":{"ID":184838,"DIS_CODE":0,"TOWNNAME":"南區","LI":"府南里","LIN":"20鄰","STREET":"永成路","SECT":"三段","MAREA":" ","LANE":"４６１巷","ALLEY":"６弄","HOUSE_NO":"１１號","E_COORD97":167410.85000000001,"N_COORD97":2541607.7999999998,"ADDRESS":"永成路三段４６１巷６弄１１號","OBJECTID":184837},"geometry":{"x":167410.85000000056,"y":2541607.8000000007}},{"attributes":{"ID":184839,"DIS_CODE":0,"TOWNNAME":"南區","LI":"府南里","LIN":"20鄰","STREET":"永成路","SECT":"三段","MAREA":" ","LANE":"４６１巷","ALLEY":"６弄","HOUSE_NO":"１２號","E_COORD97":167423.63,"N_COORD97":2541563.2400000002,"ADDRESS":"永成路三段４６１巷６弄１２號","OBJECTID":184838},"geometry":{"x":167423.62999999989,"y":2541563.2400000002}},{"attributes":{"ID":184840,"DIS_CODE":0,"TOWNNAME":"安南區","LI":"東和里","LIN":"1鄰","STREET":"長和路","SECT":"一段","MAREA":" ","LANE":"８４５巷","ALLEY":"２４弄","HOUSE_NO":"１０號","E_COORD97":170779.45451800001,"N_COORD97":2551408.3882399998,"ADDRESS":"長和路一段８４５巷２４弄１０號","OBJECTID":184839},"geometry":{"x":170779.45451799966,"y":2551408.3882439993}},{"attributes":{"ID":184841,"DIS_CODE":0,"TOWNNAME":"仁德區","LI":"上崙里","LIN":"1鄰","STREET":"德崙路","SECT":" ","MAREA":" ","LANE":"７７巷","ALLEY":"１２０弄","HOUSE_NO":"１６號","E_COORD97":173685.06491300001,"N_COORD97":2538348.53859,"ADDRESS":"德崙路７７巷１２０弄１６號","OBJECTID":184840},"geometry":{"x":173685.06491299998,"y":2538348.5385870021}},{"attributes":{"ID":184842,"DIS_CODE":0,"TOWNNAME":"仁德區","LI":"上崙里","LIN":"1鄰","STREET":"德崙路","SECT":" ","MAREA":" ","LANE":"７７巷","ALLEY":"１２０弄","HOUSE_NO":"１８號","E_COORD97":173693.75167500001,"N_COORD97":2538340.2835900001,"ADDRESS":"德崙路７７巷１２０弄１８號","OBJECTID":184841},"geometry":{"x":173693.75167500135,"y":2538340.2835910004}},{"attributes":{"ID":184843,"DIS_CODE":0,"TOWNNAME":"仁德區","LI":"上崙里","LIN":"1鄰","STREET":"德崙路","SECT":" ","MAREA":" ","LANE":"７７巷","ALLEY":"１２０弄","HOUSE_NO":"２１號","E_COORD97":173692.69231400001,"N_COORD97":2538353.61858,"ADDRESS":"德崙路７７巷１２０弄２１號","OBJECTID":184842},"geometry":{"x":173692.69231399987,"y":2538353.6185840014}},{"attributes":{"ID":184844,"DIS_CODE":0,"TOWNNAME":"仁德區","LI":"上崙里","LIN":"1鄰","STREET":"德崙路","SECT":" ","MAREA":" ","LANE":"７７巷","ALLEY":"１２０弄","HOUSE_NO":"２３號","E_COORD97":173696.50601499999,"N_COORD97":2538350.6552499998,"ADDRESS":"德崙路７７巷１２０弄２３號","OBJECTID":184843},"geometry":{"x":173696.50601499993,"y":2538350.6552520003}},{"attributes":{"ID":184845,"DIS_CODE":0,"TOWNNAME":"仁德區","LI":"上崙里","LIN":"1鄰","STREET":"德崙路","SECT":" ","MAREA":" ","LANE":"７７巷","ALLEY":"１２０弄","HOUSE_NO":"２５號","E_COORD97":173698.62473700001,"N_COORD97":2538347.6919200001,"ADDRESS":"德崙路７７巷１２０弄２５號","OBJECTID":184844},"geometry":{"x":173698.62473700009,"y":2538347.6919210013}},{"attributes":{"ID":184846,"DIS_CODE":0,"TOWNNAME":"仁德區","LI":"上崙里","LIN":"1鄰","STREET":"德崙路","SECT":" ","MAREA":" ","LANE":"７７巷","ALLEY":"１２０弄","HOUSE_NO":"２７號","E_COORD97":173702.65031,"N_COORD97":2538343.4585899999,"ADDRESS":"德崙路７７巷１２０弄２７號","OBJECTID":184845},"geometry":{"x":173702.6503100004,"y":2538343.4585900027}},{"attributes":{"ID":184847,"DIS_CODE":0,"TOWNNAME":"南區","LI":"府南里","LIN":"20鄰","STREET":"永成路","SECT":"三段","MAREA":" ","LANE":"４６１巷","ALLEY":"６弄","HOUSE_NO":"１３號","E_COORD97":167410.78,"N_COORD97":2541611.6000000001,"ADDRESS":"永成路三段４６１巷６弄１３號","OBJECTID":184846},"geometry":{"x":167410.78000000026,"y":2541611.5999999996}},{"attributes":{"ID":184848,"DIS_CODE":0,"TOWNNAME":"南區","LI":"府南里","LIN":"20鄰","STREET":"永成路","SECT":"三段","MAREA":" ","LANE":"４６１巷","ALLEY":"６弄","HOUSE_NO":"１５號","E_COORD97":167410.42000000001,"N_COORD97":2541615.1899999999,"ADDRESS":"永成路三段４６１巷６弄１５號","OBJECTID":184847},"geometry":{"x":167410.42000000086,"y":2541615.1900000032}},{"attributes":{"ID":184849,"DIS_CODE":0,"TOWNNAME":"南區","LI":"府南里","LIN":"20鄰","STREET":"永成路","SECT":"三段","MAREA":" ","LANE":"４６１巷","ALLEY":"６弄","HOUSE_NO":"１號","E_COORD97":167412.14000000001,"N_COORD97":2541587.0699999998,"ADDRESS":"永成路三段４６１巷６弄１號","OBJECTID":184848},"geometry":{"x":167412.1400000006,"y":2541587.0700000022}},{"attributes":{"ID":184850,"DIS_CODE":0,"TOWNNAME":"南區","LI":"府南里","LIN":"20鄰","STREET":"永成路","SECT":"三段","MAREA":" ","LANE":"４６１巷","ALLEY":"６弄","HOUSE_NO":"２號","E_COORD97":167428.23000000001,"N_COORD97":2541547.0600000001,"ADDRESS":"永成路三段４６１巷６弄２號","OBJECTID":184849},"geometry":{"x":167428.23000000045,"y":2541547.0600000024}},{"attributes":{"ID":184851,"DIS_CODE":0,"TOWNNAME":"南區","LI":"府南里","LIN":"20鄰","STREET":"永成路","SECT":"三段","MAREA":" ","LANE":"４６１巷","ALLEY":"６弄","HOUSE_NO":"３號","E_COORD97":167410.63,"N_COORD97":2541591.5099999998,"ADDRESS":"永成路三段４６１巷６弄３號","OBJECTID":184850},"geometry":{"x":167410.63000000082,"y":2541591.5099999998}},{"attributes":{"ID":184852,"DIS_CODE":0,"TOWNNAME":"南區","LI":"府南里","LIN":"20鄰","STREET":"永成路","SECT":"三段","MAREA":" ","LANE":"４６１巷","ALLEY":"６弄","HOUSE_NO":"５號","E_COORD97":167410.56,"N_COORD97":2541595.5899999999,"ADDRESS":"永成路三段４６１巷６弄５號","OBJECTID":184851},"geometry":{"x":167410.55999999866,"y":2541595.5899999999}},{"attributes":{"ID":184853,"DIS_CODE":0,"TOWNNAME":"南區","LI":"府南里","LIN":"20鄰","STREET":"永成路","SECT":"三段","MAREA":" ","LANE":"４６１巷","ALLEY":"６弄","HOUSE_NO":"６號","E_COORD97":167423.98999999999,"N_COORD97":2541551.6499999999,"ADDRESS":"永成路三段４６１巷６弄６號","OBJECTID":184852},"geometry":{"x":167423.99000000115,"y":2541551.6500000004}},{"attributes":{"ID":184854,"DIS_CODE":0,"TOWNNAME":"南區","LI":"府南里","LIN":"20鄰","STREET":"永成路","SECT":"三段","MAREA":" ","LANE":"４６１巷","ALLEY":"６弄","HOUSE_NO":"７號","E_COORD97":167410.63,"N_COORD97":2541599.54,"ADDRESS":"永成路三段４６１巷６弄７號","OBJECTID":184853},"geometry":{"x":167410.63000000082,"y":2541599.540000001}},{"attributes":{"ID":184855,"DIS_CODE":0,"TOWNNAME":"南區","LI":"府南里","LIN":"20鄰","STREET":"永成路","SECT":"三段","MAREA":" ","LANE":"４６１巷","ALLEY":"６弄","HOUSE_NO":"８號","E_COORD97":167423.92000000001,"N_COORD97":2541555.1600000001,"ADDRESS":"永成路三段４６１巷６弄８號","OBJECTID":184854},"geometry":{"x":167423.92000000179,"y":2541555.1600000039}},{"attributes":{"ID":184856,"DIS_CODE":0,"TOWNNAME":"永康區","LI":"六合里","LIN":"15鄰","STREET":"六合路","SECT":" ","MAREA":" ","LANE":" ","ALLEY":" ","HOUSE_NO":"４６號","E_COORD97":171173.31,"N_COORD97":2545577,"ADDRESS":"六合路４６號","OBJECTID":184855},"geometry":{"x":171173.30999999959,"y":2545577.0000000037}},{"attributes":{"ID":184857,"DIS_CODE":0,"TOWNNAME":"仁德區","LI":"中生里","LIN":"8鄰","STREET":" ","SECT":" ","MAREA":"中洲","LANE":" ","ALLEY":" ","HOUSE_NO":"１５９號","E_COORD97":173162.39999999999,"N_COORD97":2534173.2400000002,"ADDRESS":"中洲１５９號","OBJECTID":184856},"geometry":{"x":173162.40000000037,"y":2534173.2400000002}},{"attributes":{"ID":184858,"DIS_CODE":0,"TOWNNAME":"將軍區","LI":"將貴里","LIN":"15鄰","STREET":" ","SECT":" ","MAREA":"將榮","LANE":" ","ALLEY":" ","HOUSE_NO":"４６號","E_COORD97":162047.79000000001,"N_COORD97":2568547.98,"ADDRESS":"將榮４６號","OBJECTID":184857},"geometry":{"x":162047.7900000019,"y":2568547.9800000023}},{"attributes":{"ID":184859,"DIS_CODE":0,"TOWNNAME":"新化區","LI":"崙頂里","LIN":"10鄰","STREET":" ","SECT":" ","MAREA":"崙子頂","LANE":" ","ALLEY":" ","HOUSE_NO":"３７０號之２","E_COORD97":176826.88,"N_COORD97":2546886.2599999998,"ADDRESS":"崙子頂３７０號之２","OBJECTID":184858},"geometry":{"x":176826.87999999989,"y":2546886.2599999998}},{"attributes":{"ID":184860,"DIS_CODE":0,"TOWNNAME":"新化區","LI":"全興里","LIN":"10鄰","STREET":" ","SECT":" ","MAREA":"竹子\u25A0","LANE":" ","ALLEY":" ","HOUSE_NO":"１６６號","E_COORD97":177245.13,"N_COORD97":2547186.25,"ADDRESS":"竹子\u25A0１６６號","OBJECTID":184859},"geometry":{"x":177245.12999999989,"y":2547186.2500000019}},{"attributes":{"ID":184861,"DIS_CODE":0,"TOWNNAME":"新化區","LI":"護國里","LIN":"10鄰","STREET":"中山路","SECT":" ","MAREA":" ","LANE":" ","ALLEY":" ","HOUSE_NO":"１００號之２","E_COORD97":179580.06,"N_COORD97":2549155.2599999998,"ADDRESS":"中山路１００號之２","OBJECTID":184860},"geometry":{"x":179580.05999999959,"y":2549155.2600000035}},{"attributes":{"ID":184862,"DIS_CODE":0,"TOWNNAME":"南區","LI":"府南里","LIN":"20鄰","STREET":"永成路","SECT":"三段","MAREA":" ","LANE":"４６１巷","ALLEY":"６弄","HOUSE_NO":"９號","E_COORD97":167410.56,"N_COORD97":2541603.3399999999,"ADDRESS":"永成路三段４６１巷６弄９號","OBJECTID":184861},"geometry":{"x":167410.55999999866,"y":2541603.3399999999}},{"attributes":{"ID":184863,"DIS_CODE":0,"TOWNNAME":"新化區","LI":"全興里","LIN":"10鄰","STREET":" ","SECT":" ","MAREA":"竹子\u25A0","LANE":" ","ALLEY":" ","HOUSE_NO":"１３０號之４","E_COORD97":177528.07000000001,"N_COORD97":2547624.2599999998,"ADDRESS":"竹子\u25A0１３０號之４","OBJECTID":184862},"geometry":{"x":177528.0700000003,"y":2547624.2600000016}},{"attributes":{"ID":184864,"DIS_CODE":0,"TOWNNAME":"新化區","LI":"崙頂里","LIN":"10鄰","STREET":" ","SECT":" ","MAREA":"崙子頂","LANE":" ","ALLEY":" ","HOUSE_NO":"３７３號","E_COORD97":176841.03,"N_COORD97":2546827.25,"ADDRESS":"崙子頂３７３號","OBJECTID":184863},"geometry":{"x":176841.03000000119,"y":2546827.2500000019}},{"attributes":{"ID":184865,"DIS_CODE":0,"TOWNNAME":"新化區","LI":"山\u25A0里","LIN":"10鄰","STREET":" ","SECT":" ","MAREA":"五甲勢","LANE":" ","ALLEY":" ","HOUSE_NO":"３４號之１","E_COORD97":181863.60999999999,"N_COORD97":2545740.2599999998,"ADDRESS":"五甲勢３４號之１","OBJECTID":184864},"geometry":{"x":181863.61000000034,"y":2545740.2599999998}},{"attributes":{"ID":184866,"DIS_CODE":0,"TOWNNAME":"新化區","LI":"大坑里","LIN":"10鄰","STREET":" ","SECT":" ","MAREA":"大坑尾","LANE":" ","ALLEY":" ","HOUSE_NO":"２２５號","E_COORD97":186743.76999999999,"N_COORD97":2547127.2799999998,"ADDRESS":"大坑尾２２５號","OBJECTID":184865},"geometry":{"x":186743.76999999955,"y":2547127.2800000031}},{"attributes":{"ID":184867,"DIS_CODE":0,"TOWNNAME":"南區","LI":"府南里","LIN":"20鄰","STREET":"大成路","SECT":"二段","MAREA":" ","LANE":"８１巷","ALLEY":"４３弄","HOUSE_NO":"１０號","E_COORD97":167376.07999999999,"N_COORD97":2541582.0899999999,"ADDRESS":"大成路二段８１巷４３弄１０號","OBJECTID":184866},"geometry":{"x":167376.08000000101,"y":2541582.0899999999}},{"attributes":{"ID":184868,"DIS_CODE":0,"TOWNNAME":"新化區","LI":"大坑里","LIN":"10鄰","STREET":" ","SECT":" ","MAREA":"大坑尾","LANE":" ","ALLEY":" ","HOUSE_NO":"２３７號","E_COORD97":186856.57000000001,"N_COORD97":2546965.2799999998,"ADDRESS":"大坑尾２３７號","OBJECTID":184867},"geometry":{"x":186856.5700000003,"y":2546965.2800000012}},{"attributes":{"ID":184869,"DIS_CODE":0,"TOWNNAME":"新化區","LI":"山\u25A0里","LIN":"10鄰","STREET":" ","SECT":" ","MAREA":"五甲勢","LANE":" ","ALLEY":" ","HOUSE_NO":"５１號","E_COORD97":181855.88,"N_COORD97":2545661.2599999998,"ADDRESS":"五甲勢５１號","OBJECTID":184868},"geometry":{"x":181855.88000000082,"y":2545661.2600000016}},{"attributes":{"ID":184870,"DIS_CODE":0,"TOWNNAME":"安南區","LI":"東和里","LIN":"7鄰","STREET":"長和路","SECT":"一段","MAREA":" ","LANE":"２１７巷","ALLEY":"２５弄","HOUSE_NO":"１８號","E_COORD97":171614.76999999999,"N_COORD97":2550516.1800000002,"ADDRESS":"長和路一段２１７巷２５弄１８號","OBJECTID":184869},"geometry":{"x":171614.76999999955,"y":2550516.1800000016}},{"attributes":{"ID":184871,"DIS_CODE":0,"TOWNNAME":"南區","LI":"府南里","LIN":"20鄰","STREET":"大成路","SECT":"二段","MAREA":" ","LANE":"８１巷","ALLEY":"４３弄","HOUSE_NO":"１１號","E_COORD97":167389.63,"N_COORD97":2541587.8199999998,"ADDRESS":"大成路二段８１巷４３弄１１號","OBJECTID":184870},"geometry":{"x":167389.62999999989,"y":2541587.8200000003}},{"attributes":{"ID":184872,"DIS_CODE":0,"TOWNNAME":"中西區","LI":"三民里","LIN":"1鄰","STREET":"公園路","SECT":" ","MAREA":" ","LANE":" ","ALLEY":" ","HOUSE_NO":"２號","E_COORD97":168544.73000000001,"N_COORD97":2543764,"ADDRESS":"公園路２號","OBJECTID":184871},"geometry":{"x":168544.73000000138,"y":2543764.0000000019}},{"attributes":{"ID":184873,"DIS_CODE":0,"TOWNNAME":"南區","LI":"府南里","LIN":"20鄰","STREET":"大成路","SECT":"二段","MAREA":" ","LANE":"８１巷","ALLEY":"４３弄","HOUSE_NO":"１２號","E_COORD97":167379.09,"N_COORD97":2541579.6099999999,"ADDRESS":"大成路二段８１巷４３弄１２號","OBJECTID":184872},"geometry":{"x":167379.09000000078,"y":2541579.6100000013}},{"attributes":{"ID":184874,"DIS_CODE":0,"TOWNNAME":"南區","LI":"府南里","LIN":"20鄰","STREET":"大成路","SECT":"二段","MAREA":" ","LANE":"８１巷","ALLEY":"４３弄","HOUSE_NO":"１３號","E_COORD97":167392.94,"N_COORD97":2541584.6699999999,"ADDRESS":"大成路二段８１巷４３弄１３號","OBJECTID":184873},"geometry":{"x":167392.94000000041,"y":2541584.6699999999}},{"attributes":{"ID":184875,"DIS_CODE":0,"TOWNNAME":"新化區","LI":"全興里","LIN":"10鄰","STREET":" ","SECT":" ","MAREA":"竹子\u25A0","LANE":" ","ALLEY":" ","HOUSE_NO":"１６０號","E_COORD97":177439.13,"N_COORD97":2547421.25,"ADDRESS":"竹子\u25A0１６０號","OBJECTID":184874},"geometry":{"x":177439.12999999896,"y":2547421.2500000019}},{"attributes":{"ID":184876,"DIS_CODE":0,"TOWNNAME":"北門區","LI":"慈安里","LIN":"11鄰","STREET":" ","SECT":" ","MAREA":"三寮灣","LANE":" ","ALLEY":" ","HOUSE_NO":"５３２號之１０","E_COORD97":159420.69,"N_COORD97":2571413.6299999999,"ADDRESS":"三寮灣５３２號之１０","OBJECTID":184875},"geometry":{"x":159420.69000000041,"y":2571413.6300000008}},{"attributes":{"ID":184877,"DIS_CODE":0,"TOWNNAME":"北門區","LI":"慈安里","LIN":"11鄰","STREET":" ","SECT":" ","MAREA":"三寮灣","LANE":" ","ALLEY":" ","HOUSE_NO":"５３２之１５號","E_COORD97":159427.03,"N_COORD97":2571543.2799999998,"ADDRESS":"三寮灣５３２之１５號","OBJECTID":184876},"geometry":{"x":159427.03000000026,"y":2571543.2799999993}},{"attributes":{"ID":184878,"DIS_CODE":0,"TOWNNAME":"北門區","LI":"慈安里","LIN":"11鄰","STREET":" ","SECT":" ","MAREA":"三寮灣","LANE":" ","ALLEY":" ","HOUSE_NO":"５３２號之１５","E_COORD97":159427.03,"N_COORD97":2571543.2799999998,"ADDRESS":"三寮灣５３２號之１５","OBJECTID":184877},"geometry":{"x":159427.03000000026,"y":2571543.2799999993}},{"attributes":{"ID":184879,"DIS_CODE":0,"TOWNNAME":"北門區","LI":"慈安里","LIN":"11鄰","STREET":" ","SECT":" ","MAREA":"三寮灣","LANE":" ","ALLEY":" ","HOUSE_NO":"５３２號之１","E_COORD97":159218.87,"N_COORD97":2571413.0800000001,"ADDRESS":"三寮灣５３２號之１","OBJECTID":184878},"geometry":{"x":159218.87000000011,"y":2571413.0800000001}},{"attributes":{"ID":184880,"DIS_CODE":0,"TOWNNAME":"南區","LI":"府南里","LIN":"20鄰","STREET":"大成路","SECT":"二段","MAREA":" ","LANE":"８１巷","ALLEY":"４３弄","HOUSE_NO":"１４號","E_COORD97":167382.10000000001,"N_COORD97":2541576.98,"ADDRESS":"大成路二段８１巷４３弄１４號","OBJECTID":184879},"geometry":{"x":167382.10000000056,"y":2541576.9800000042}},{"attributes":{"ID":184881,"DIS_CODE":0,"TOWNNAME":"北門區","LI":"慈安里","LIN":"11鄰","STREET":" ","SECT":" ","MAREA":"三寮灣","LANE":" ","ALLEY":" ","HOUSE_NO":"５３２之５０號","E_COORD97":159704.95000000001,"N_COORD97":2572334.21,"ADDRESS":"三寮灣５３２之５０號","OBJECTID":184880},"geometry":{"x":159704.95000000019,"y":2572334.2100000028}},{"attributes":{"ID":184882,"DIS_CODE":0,"TOWNNAME":"西港區","LI":"南海里","LIN":"10鄰","STREET":" ","SECT":" ","MAREA":"南海埔","LANE":" ","ALLEY":" ","HOUSE_NO":"８３號","E_COORD97":167573.39000000001,"N_COORD97":2557340.1299999999,"ADDRESS":"南海埔８３號","OBJECTID":184881},"geometry":{"x":167573.3900000006,"y":2557340.1300000008}},{"attributes":{"ID":184883,"DIS_CODE":0,"TOWNNAME":"西港區","LI":"南海里","LIN":"10鄰","STREET":" ","SECT":" ","MAREA":"南海埔","LANE":" ","ALLEY":" ","HOUSE_NO":"７９之２號","E_COORD97":167552.32999999999,"N_COORD97":2557400.3999999999,"ADDRESS":"南海埔７９之２號","OBJECTID":184882},"geometry":{"x":167552.33000000101,"y":2557400.4000000041}},{"attributes":{"ID":184884,"DIS_CODE":0,"TOWNNAME":"西港區","LI":"南海里","LIN":"10鄰","STREET":" ","SECT":" ","MAREA":"南海埔","LANE":" ","ALLEY":" ","HOUSE_NO":"７９號","E_COORD97":167525.97,"N_COORD97":2557392.2599999998,"ADDRESS":"南海埔７９號","OBJECTID":184883},"geometry":{"x":167525.96999999974,"y":2557392.2599999998}},{"attributes":{"ID":184885,"DIS_CODE":0,"TOWNNAME":"西港區","LI":"南海里","LIN":"10鄰","STREET":" ","SECT":" ","MAREA":"南海埔","LANE":" ","ALLEY":" ","HOUSE_NO":"８０號","E_COORD97":167521.85000000001,"N_COORD97":2557363.9900000002,"ADDRESS":"南海埔８０號","OBJECTID":184884},"geometry":{"x":167521.84999999963,"y":2557363.9900000021}},{"attributes":{"ID":184886,"DIS_CODE":0,"TOWNNAME":"西港區","LI":"南海里","LIN":"10鄰","STREET":" ","SECT":" ","MAREA":"南海埔","LANE":" ","ALLEY":" ","HOUSE_NO":"８１號之１","E_COORD97":167504.73000000001,"N_COORD97":2557292.2400000002,"ADDRESS":"南海埔８１號之１","OBJECTID":184885},"geometry":{"x":167504.73000000045,"y":2557292.2400000002}},{"attributes":{"ID":184887,"DIS_CODE":0,"TOWNNAME":"西港區","LI":"南海里","LIN":"10鄰","STREET":" ","SECT":" ","MAREA":"南海埔","LANE":" ","ALLEY":" ","HOUSE_NO":"８１號之２","E_COORD97":167519.76999999999,"N_COORD97":2557268.9500000002,"ADDRESS":"南海埔８１號之２","OBJECTID":184886},"geometry":{"x":167519.77000000048,"y":2557268.9499999993}},{"attributes":{"ID":184888,"DIS_CODE":0,"TOWNNAME":"西港區","LI":"南海里","LIN":"10鄰","STREET":" ","SECT":" ","MAREA":"南海埔","LANE":" ","ALLEY":" ","HOUSE_NO":"８１號之３","E_COORD97":167520.28,"N_COORD97":2557243.02,"ADDRESS":"南海埔８１號之３","OBJECTID":184887},"geometry":{"x":167520.28000000119,"y":2557243.0200000014}},{"attributes":{"ID":184889,"DIS_CODE":0,"TOWNNAME":"西港區","LI":"南海里","LIN":"10鄰","STREET":" ","SECT":" ","MAREA":"南海埔","LANE":" ","ALLEY":" ","HOUSE_NO":"８１號之６","E_COORD97":167514.88,"N_COORD97":2557324.3300000001,"ADDRESS":"南海埔８１號之６","OBJECTID":184888},"geometry":{"x":167514.87999999989,"y":2557324.3300000001}},{"attributes":{"ID":184890,"DIS_CODE":0,"TOWNNAME":"西港區","LI":"南海里","LIN":"10鄰","STREET":" ","SECT":" ","MAREA":"南海埔","LANE":" ","ALLEY":" ","HOUSE_NO":"８１號之７","E_COORD97":167512.89999999999,"N_COORD97":2557235.1699999999,"ADDRESS":"南海埔８１號之７","OBJECTID":184889},"geometry":{"x":167512.9000000013,"y":2557235.1699999981}},{"attributes":{"ID":184891,"DIS_CODE":0,"TOWNNAME":"西港區","LI":"南海里","LIN":"10鄰","STREET":" ","SECT":" ","MAREA":"南海埔","LANE":" ","ALLEY":" ","HOUSE_NO":"８３號之１","E_COORD97":167571.42000000001,"N_COORD97":2557325.96,"ADDRESS":"南海埔８３號之１","OBJECTID":184890},"geometry":{"x":167571.42000000179,"y":2557325.9600000046}},{"attributes":{"ID":184892,"DIS_CODE":0,"TOWNNAME":"西港區","LI":"南海里","LIN":"10鄰","STREET":" ","SECT":" ","MAREA":"南海埔","LANE":" ","ALLEY":" ","HOUSE_NO":"８４號","E_COORD97":167568.67000000001,"N_COORD97":2557359.5099999998,"ADDRESS":"南海埔８４號","OBJECTID":184891},"geometry":{"x":167568.67000000086,"y":2557359.5100000016}},{"attributes":{"ID":184893,"DIS_CODE":0,"TOWNNAME":"西港區","LI":"南海里","LIN":"10鄰","STREET":" ","SECT":" ","MAREA":"南海埔","LANE":" ","ALLEY":" ","HOUSE_NO":"８５號之１","E_COORD97":167587.19,"N_COORD97":2557403.5499999998,"ADDRESS":"南海埔８５號之１","OBJECTID":184892},"geometry":{"x":167587.19000000134,"y":2557403.5500000026}},{"attributes":{"ID":184894,"DIS_CODE":0,"TOWNNAME":"西港區","LI":"南海里","LIN":"10鄰","STREET":" ","SECT":" ","MAREA":"南海埔","LANE":" ","ALLEY":" ","HOUSE_NO":"８５號之２","E_COORD97":167569.94,"N_COORD97":2557394.2999999998,"ADDRESS":"南海埔８５號之２","OBJECTID":184893},"geometry":{"x":167569.94000000227,"y":2557394.3000000007}},{"attributes":{"ID":184895,"DIS_CODE":0,"TOWNNAME":"西港區","LI":"南海里","LIN":"10鄰","STREET":" ","SECT":" ","MAREA":"南海埔","LANE":" ","ALLEY":" ","HOUSE_NO":"８５號","E_COORD97":167589.44,"N_COORD97":2557372.9300000002,"ADDRESS":"南海埔８５號","OBJECTID":184894},"geometry":{"x":167589.44000000134,"y":2557372.9300000016}},{"attributes":{"ID":184896,"DIS_CODE":0,"TOWNNAME":"西港區","LI":"南海里","LIN":"10鄰","STREET":" ","SECT":" ","MAREA":"南海埔","LANE":" ","ALLEY":" ","HOUSE_NO":"８６號","E_COORD97":167602.84,"N_COORD97":2557341.2400000002,"ADDRESS":"南海埔８６號","OBJECTID":184895},"geometry":{"x":167602.84000000078,"y":2557341.2400000021}},{"attributes":{"ID":184897,"DIS_CODE":0,"TOWNNAME":"西港區","LI":"南海里","LIN":"10鄰","STREET":" ","SECT":" ","MAREA":"南海埔","LANE":" ","ALLEY":" ","HOUSE_NO":"８７號","E_COORD97":167632.42999999999,"N_COORD97":2557369.7799999998,"ADDRESS":"南海埔８７號","OBJECTID":184896},"geometry":{"x":167632.43000000063,"y":2557369.7800000031}},{"attributes":{"ID":184898,"DIS_CODE":0,"TOWNNAME":"南區","LI":"府南里","LIN":"20鄰","STREET":"大成路","SECT":"二段","MAREA":" ","LANE":"８１巷","ALLEY":"４３弄","HOUSE_NO":"１５號","E_COORD97":167396.01999999999,"N_COORD97":2541581.29,"ADDRESS":"大成路二段８１巷４３弄１５號","OBJECTID":184897},"geometry":{"x":167396.02000000048,"y":2541581.290000001}},{"attributes":{"ID":184899,"DIS_CODE":0,"TOWNNAME":"西港區","LI":"南海里","LIN":"10鄰","STREET":" ","SECT":" ","MAREA":"南海埔","LANE":" ","ALLEY":" ","HOUSE_NO":"８８號之１","E_COORD97":167636.26999999999,"N_COORD97":2557334.1200000001,"ADDRESS":"南海埔８８號之１","OBJECTID":184898},"geometry":{"x":167636.27000000142,"y":2557334.120000001}},{"attributes":{"ID":184900,"DIS_CODE":0,"TOWNNAME":"西港區","LI":"南海里","LIN":"10鄰","STREET":" ","SECT":" ","MAREA":"南海埔","LANE":" ","ALLEY":" ","HOUSE_NO":"８８之２號","E_COORD97":167627.54999999999,"N_COORD97":2557334.5099999998,"ADDRESS":"南海埔８８之２號","OBJECTID":184899},"geometry":{"x":167627.54999999981,"y":2557334.5100000035}},{"attributes":{"ID":184901,"DIS_CODE":0,"TOWNNAME":"新市區","LI":"港墘里","LIN":"10鄰","STREET":" ","SECT":" ","MAREA":"崙頂","LANE":" ","ALLEY":" ","HOUSE_NO":"２７之５號","E_COORD97":178915.32000000001,"N_COORD97":2552576.7999999998,"ADDRESS":"崙頂２７之５號","OBJECTID":184900},"geometry":{"x":178915.32000000123,"y":2552576.8000000045}},{"attributes":{"ID":184902,"DIS_CODE":0,"TOWNNAME":"新市區","LI":"社內里","LIN":"10鄰","STREET":" ","SECT":" ","MAREA":"社內","LANE":" ","ALLEY":" ","HOUSE_NO":"１０２之１７號","E_COORD97":176276.97,"N_COORD97":2552833.0499999998,"ADDRESS":"社內１０２之１７號","OBJECTID":184901},"geometry":{"x":176276.96999999974,"y":2552833.0500000045}},{"attributes":{"ID":184903,"DIS_CODE":0,"TOWNNAME":"西港區","LI":"後營里","LIN":"10鄰","STREET":" ","SECT":" ","MAREA":"後營","LANE":" ","ALLEY":" ","HOUSE_NO":"２３１號之８","E_COORD97":169939.94,"N_COORD97":2560272.4399999999,"ADDRESS":"後營２３１號之８","OBJECTID":184902},"geometry":{"x":169939.94000000227,"y":2560272.4400000013}},{"attributes":{"ID":184904,"DIS_CODE":0,"TOWNNAME":"西港區","LI":"後營里","LIN":"10鄰","STREET":" ","SECT":" ","MAREA":"後營","LANE":" ","ALLEY":" ","HOUSE_NO":"２３３之１號","E_COORD97":169842.97,"N_COORD97":2560236.7799999998,"ADDRESS":"後營２３３之１號","OBJECTID":184903},"geometry":{"x":169842.97000000067,"y":2560236.7799999993}},{"attributes":{"ID":184905,"DIS_CODE":0,"TOWNNAME":"西港區","LI":"後營里","LIN":"10鄰","STREET":" ","SECT":" ","MAREA":"後營","LANE":" ","ALLEY":" ","HOUSE_NO":"２３３號","E_COORD97":169857.54999999999,"N_COORD97":2560238.8300000001,"ADDRESS":"後營２３３號","OBJECTID":184904},"geometry":{"x":169857.55000000075,"y":2560238.8300000019}},{"attributes":{"ID":184906,"DIS_CODE":0,"TOWNNAME":"西港區","LI":"後營里","LIN":"10鄰","STREET":" ","SECT":" ","MAREA":"後營","LANE":" ","ALLEY":" ","HOUSE_NO":"２３５號","E_COORD97":169864.26999999999,"N_COORD97":2560254.8500000001,"ADDRESS":"後營２３５號","OBJECTID":184905},"geometry":{"x":169864.27000000048,"y":2560254.8500000034}},{"attributes":{"ID":184907,"DIS_CODE":0,"TOWNNAME":"西港區","LI":"後營里","LIN":"10鄰","STREET":" ","SECT":" ","MAREA":"後營","LANE":" ","ALLEY":" ","HOUSE_NO":"２３６號之１","E_COORD97":169875.48999999999,"N_COORD97":2560201.3500000001,"ADDRESS":"後營２３６號之１","OBJECTID":184906},"geometry":{"x":169875.49000000115,"y":2560201.3500000015}},{"attributes":{"ID":184908,"DIS_CODE":0,"TOWNNAME":"西港區","LI":"後營里","LIN":"10鄰","STREET":" ","SECT":" ","MAREA":"後營","LANE":" ","ALLEY":" ","HOUSE_NO":"２３６號之２","E_COORD97":169875.23999999999,"N_COORD97":2560206.1600000001,"ADDRESS":"後營２３６號之２","OBJECTID":184907},"geometry":{"x":169875.24000000115,"y":2560206.160000002}},{"attributes":{"ID":184909,"DIS_CODE":0,"TOWNNAME":"東區","LI":"大福里","LIN":"10鄰","STREET":"立德三路","SECT":" ","MAREA":" ","LANE":" ","ALLEY":" ","HOUSE_NO":"３３號","E_COORD97":169605.42000000001,"N_COORD97":2541791.5,"ADDRESS":"立德三路３３號","OBJECTID":184908},"geometry":{"x":169605.41999999899,"y":2541791.5000000019}},{"attributes":{"ID":184910,"DIS_CODE":0,"TOWNNAME":"南區","LI":"府南里","LIN":"20鄰","STREET":"大成路","SECT":"二段","MAREA":" ","LANE":"８１巷","ALLEY":"４３弄","HOUSE_NO":"１６號","E_COORD97":167385.04000000001,"N_COORD97":2541573.7400000002,"ADDRESS":"大成路二段８１巷４３弄１６號","OBJECTID":184909},"geometry":{"x":167385.04000000004,"y":2541573.7400000002}},{"attributes":{"ID":184911,"DIS_CODE":0,"TOWNNAME":"南區","LI":"府南里","LIN":"20鄰","STREET":"大成路","SECT":"二段","MAREA":" ","LANE":"８１巷","ALLEY":"４３弄","HOUSE_NO":"１７號","E_COORD97":167399.32999999999,"N_COORD97":2541578.5800000001,"ADDRESS":"大成路二段８１巷４３弄１７號","OBJECTID":184910},"geometry":{"x":167399.33000000101,"y":2541578.5800000001}},{"attributes":{"ID":184912,"DIS_CODE":0,"TOWNNAME":"南區","LI":"府南里","LIN":"20鄰","STREET":"大成路","SECT":"二段","MAREA":" ","LANE":"８１巷","ALLEY":"４３弄","HOUSE_NO":"１８號","E_COORD97":167387.82000000001,"N_COORD97":2541571.3399999999,"ADDRESS":"大成路二段８１巷４３弄１８號","OBJECTID":184911},"geometry":{"x":167387.82000000123,"y":2541571.3400000017}},{"attributes":{"ID":184913,"DIS_CODE":0,"TOWNNAME":"南區","LI":"府南里","LIN":"20鄰","STREET":"大成路","SECT":"二段","MAREA":" ","LANE":"８１巷","ALLEY":"４３弄","HOUSE_NO":"１９號","E_COORD97":167402.13,"N_COORD97":2541575.4700000002,"ADDRESS":"大成路二段８１巷４３弄１９號","OBJECTID":184912},"geometry":{"x":167402.13000000175,"y":2541575.4700000025}},{"attributes":{"ID":184914,"DIS_CODE":0,"TOWNNAME":"南區","LI":"府南里","LIN":"20鄰","STREET":"大成路","SECT":"二段","MAREA":" ","LANE":"８１巷","ALLEY":"４３弄","HOUSE_NO":"１號","E_COORD97":167374.95000000001,"N_COORD97":2541601.4399999999,"ADDRESS":"大成路二段８１巷４３弄１號","OBJECTID":184913},"geometry":{"x":167374.95000000112,"y":2541601.4400000013}},{"attributes":{"ID":184915,"DIS_CODE":0,"TOWNNAME":"南區","LI":"府南里","LIN":"20鄰","STREET":"大成路","SECT":"二段","MAREA":" ","LANE":"８１巷","ALLEY":"４３弄","HOUSE_NO":"２０號","E_COORD97":167391.06,"N_COORD97":2541568.48,"ADDRESS":"大成路二段８１巷４３弄２０號","OBJECTID":184914},"geometry":{"x":167391.06000000052,"y":2541568.4800000023}},{"attributes":{"ID":184916,"DIS_CODE":0,"TOWNNAME":"南區","LI":"府南里","LIN":"20鄰","STREET":"大成路","SECT":"二段","MAREA":" ","LANE":"８１巷","ALLEY":"４３弄","HOUSE_NO":"２１號","E_COORD97":167404.45999999999,"N_COORD97":2541572.8399999999,"ADDRESS":"大成路二段８１巷４３弄２１號","OBJECTID":184915},"geometry":{"x":167404.45999999996,"y":2541572.8399999999}},{"attributes":{"ID":184917,"DIS_CODE":0,"TOWNNAME":"西港區","LI":"後營里","LIN":"10鄰","STREET":" ","SECT":" ","MAREA":"後營","LANE":" ","ALLEY":" ","HOUSE_NO":"２３６號","E_COORD97":169875.75,"N_COORD97":2560196.54,"ADDRESS":"後營２３６號","OBJECTID":184916},"geometry":{"x":169875.75,"y":2560196.540000001}},{"attributes":{"ID":184918,"DIS_CODE":0,"TOWNNAME":"西港區","LI":"後營里","LIN":"10鄰","STREET":" ","SECT":" ","MAREA":"後營","LANE":" ","ALLEY":" ","HOUSE_NO":"２３８號之１","E_COORD97":169829.23999999999,"N_COORD97":2560203.2000000002,"ADDRESS":"後營２３８號之１","OBJECTID":184917},"geometry":{"x":169829.24000000209,"y":2560203.1999999993}},{"attributes":{"ID":184919,"DIS_CODE":0,"TOWNNAME":"西港區","LI":"後營里","LIN":"10鄰","STREET":" ","SECT":" ","MAREA":"後營","LANE":" ","ALLEY":" ","HOUSE_NO":"２３８號","E_COORD97":169853.47,"N_COORD97":2560208.1200000001,"ADDRESS":"後營２３８號","OBJECTID":184918},"geometry":{"x":169853.46999999974,"y":2560208.1200000029}},{"attributes":{"ID":184920,"DIS_CODE":0,"TOWNNAME":"西港區","LI":"後營里","LIN":"10鄰","STREET":" ","SECT":" ","MAREA":"後營","LANE":" ","ALLEY":" ","HOUSE_NO":"２４１號","E_COORD97":169796.31,"N_COORD97":2560266.2400000002,"ADDRESS":"後營２４１號","OBJECTID":184919},"geometry":{"x":169796.31000000052,"y":2560266.2400000039}},{"attributes":{"ID":184921,"DIS_CODE":0,"TOWNNAME":"新市區","LI":"三舍里","LIN":"10鄰","STREET":" ","SECT":" ","MAREA":"三舍","LANE":" ","ALLEY":" ","HOUSE_NO":"２４０號","E_COORD97":177854.51000000001,"N_COORD97":2556064.75,"ADDRESS":"三舍２４０號","OBJECTID":184920},"geometry":{"x":177854.50999999978,"y":2556064.75}},{"attributes":{"ID":184922,"DIS_CODE":0,"TOWNNAME":"新市區","LI":"三舍里","LIN":"10鄰","STREET":" ","SECT":" ","MAREA":"三舍","LANE":" ","ALLEY":" ","HOUSE_NO":"２１１之１號","E_COORD97":177749.51000000001,"N_COORD97":2555624.0499999998,"ADDRESS":"三舍２１１之１號","OBJECTID":184921},"geometry":{"x":177749.50999999978,"y":2555624.0500000026}},{"attributes":{"ID":184923,"DIS_CODE":0,"TOWNNAME":"新市區","LI":"大營里","LIN":"10鄰","STREET":" ","SECT":" ","MAREA":"大營","LANE":" ","ALLEY":" ","HOUSE_NO":"２１２號","E_COORD97":179486.06,"N_COORD97":2555746.5,"ADDRESS":"大營２１２號","OBJECTID":184922},"geometry":{"x":179486.06000000052,"y":2555746.5}},{"attributes":{"ID":184924,"DIS_CODE":0,"TOWNNAME":"新市區","LI":"大營里","LIN":"10鄰","STREET":" ","SECT":" ","MAREA":"大營","LANE":" ","ALLEY":" ","HOUSE_NO":"２０６號","E_COORD97":179507.31,"N_COORD97":2555648.75,"ADDRESS":"大營２０６號","OBJECTID":184923},"geometry":{"x":179507.30999999959,"y":2555648.7500000019}},{"attributes":{"ID":184925,"DIS_CODE":0,"TOWNNAME":"新市區","LI":"大營里","LIN":"10鄰","STREET":" ","SECT":" ","MAREA":"大營","LANE":" ","ALLEY":" ","HOUSE_NO":"２１１之５號","E_COORD97":179472.89999999999,"N_COORD97":2555755.7999999998,"ADDRESS":"大營２１１之５號","OBJECTID":184924},"geometry":{"x":179472.9000000013,"y":2555755.8000000007}},{"attributes":{"ID":184926,"DIS_CODE":0,"TOWNNAME":"新市區","LI":"港墘里","LIN":"10鄰","STREET":" ","SECT":" ","MAREA":"崙頂","LANE":" ","ALLEY":" ","HOUSE_NO":"２７之８號","E_COORD97":178904.42000000001,"N_COORD97":2552583.2999999998,"ADDRESS":"崙頂２７之８號","OBJECTID":184925},"geometry":{"x":178904.42000000086,"y":2552583.3000000007}},{"attributes":{"ID":184927,"DIS_CODE":0,"TOWNNAME":"新市區","LI":"永就里","LIN":"10鄰","STREET":" ","SECT":" ","MAREA":"永就","LANE":" ","ALLEY":" ","HOUSE_NO":"１１４之３號","E_COORD97":177462.81,"N_COORD97":2551529.5499999998,"ADDRESS":"永就１１４之３號","OBJECTID":184926},"geometry":{"x":177462.80999999959,"y":2551529.5500000007}},{"attributes":{"ID":184928,"DIS_CODE":0,"TOWNNAME":"新市區","LI":"永就里","LIN":"10鄰","STREET":" ","SECT":" ","MAREA":"永就","LANE":" ","ALLEY":" ","HOUSE_NO":"１３９之２０號","E_COORD97":177212.06,"N_COORD97":2551400.0499999998,"ADDRESS":"永就１３９之２０號","OBJECTID":184927},"geometry":{"x":177212.05999999959,"y":2551400.0500000026}},{"attributes":{"ID":184929,"DIS_CODE":0,"TOWNNAME":"新市區","LI":"永就里","LIN":"10鄰","STREET":" ","SECT":" ","MAREA":"永就","LANE":" ","ALLEY":" ","HOUSE_NO":"１２０之３號","E_COORD97":177429.29000000001,"N_COORD97":2551531.04,"ADDRESS":"永就１２０之３號","OBJECTID":184928},"geometry":{"x":177429.29000000004,"y":2551531.0399999991}},{"attributes":{"ID":184930,"DIS_CODE":0,"TOWNNAME":"新市區","LI":"社內里","LIN":"10鄰","STREET":" ","SECT":" ","MAREA":"社內","LANE":" ","ALLEY":" ","HOUSE_NO":"１０３之１６號","E_COORD97":176324.42000000001,"N_COORD97":2552854.5499999998,"ADDRESS":"社內１０３之１６號","OBJECTID":184929},"geometry":{"x":176324.41999999993,"y":2552854.5500000026}},{"attributes":{"ID":184931,"DIS_CODE":0,"TOWNNAME":"南區","LI":"府南里","LIN":"20鄰","STREET":"大成路","SECT":"二段","MAREA":" ","LANE":"８１巷","ALLEY":"４３弄","HOUSE_NO":"２２號","E_COORD97":167394.22,"N_COORD97":2541565.7000000002,"ADDRESS":"大成路二段８１巷４３弄２２號","OBJECTID":184930},"geometry":{"x":167394.21999999974,"y":2541565.7000000011}},{"attributes":{"ID":184932,"DIS_CODE":0,"TOWNNAME":"南區","LI":"府南里","LIN":"20鄰","STREET":"大成路","SECT":"二段","MAREA":" ","LANE":"８１巷","ALLEY":"４３弄","HOUSE_NO":"２３號","E_COORD97":167407.39999999999,"N_COORD97":2541569.75,"ADDRESS":"大成路二段８１巷４３弄２３號","OBJECTID":184931},"geometry":{"x":167407.40000000224,"y":2541569.75}},{"attributes":{"ID":184933,"DIS_CODE":0,"TOWNNAME":"新市區","LI":"永就里","LIN":"10鄰","STREET":" ","SECT":" ","MAREA":"永就","LANE":" ","ALLEY":" ","HOUSE_NO":"１３９之７號","E_COORD97":177206.56,"N_COORD97":2551386.0499999998,"ADDRESS":"永就１３９之７號","OBJECTID":184932},"geometry":{"x":177206.55999999959,"y":2551386.0500000026}},{"attributes":{"ID":184934,"DIS_CODE":0,"TOWNNAME":"新市區","LI":"永就里","LIN":"10鄰","STREET":" ","SECT":" ","MAREA":"永就","LANE":" ","ALLEY":" ","HOUSE_NO":"１４５之１號","E_COORD97":177327.42000000001,"N_COORD97":2551568.7999999998,"ADDRESS":"永就１４５之１號","OBJECTID":184933},"geometry":{"x":177327.42000000086,"y":2551568.8000000007}},{"attributes":{"ID":184935,"DIS_CODE":0,"TOWNNAME":"南區","LI":"府南里","LIN":"20鄰","STREET":"大成路","SECT":"二段","MAREA":" ","LANE":"８１巷","ALLEY":"４３弄","HOUSE_NO":"２４號","E_COORD97":167396.73000000001,"N_COORD97":2541562.8799999999,"ADDRESS":"大成路二段８１巷４３弄２４號","OBJECTID":184934},"geometry":{"x":167396.72999999952,"y":2541562.8800000008}},{"attributes":{"ID":184936,"DIS_CODE":0,"TOWNNAME":"新市區","LI":"永就里","LIN":"10鄰","STREET":" ","SECT":" ","MAREA":"永就","LANE":" ","ALLEY":" ","HOUSE_NO":"１３６之２號","E_COORD97":177261.20000000001,"N_COORD97":2551389.0499999998,"ADDRESS":"永就１３６之２號","OBJECTID":184935},"geometry":{"x":177261.20000000205,"y":2551389.0500000026}},{"attributes":{"ID":184937,"DIS_CODE":0,"TOWNNAME":"新市區","LI":"永就里","LIN":"10鄰","STREET":" ","SECT":" ","MAREA":"永就","LANE":" ","ALLEY":" ","HOUSE_NO":"１０８之１號","E_COORD97":177463.10999999999,"N_COORD97":2551559.0499999998,"ADDRESS":"永就１０８之１號","OBJECTID":184936},"geometry":{"x":177463.11000000034,"y":2551559.0500000026}},{"attributes":{"ID":184938,"DIS_CODE":0,"TOWNNAME":"玉井區","LI":"玉田里","LIN":"24鄰","STREET":"新興街","SECT":" ","MAREA":" ","LANE":" ","ALLEY":" ","HOUSE_NO":"２１號","E_COORD97":195063.01000000001,"N_COORD97":2557848.25,"ADDRESS":"新興街２１號","OBJECTID":184937},"geometry":{"x":195063.00999999885,"y":2557848.2499999981}},{"attributes":{"ID":184939,"DIS_CODE":0,"TOWNNAME":"新市區","LI":"豐華里","LIN":"10鄰","STREET":" ","SECT":" ","MAREA":"豐華","LANE":" ","ALLEY":" ","HOUSE_NO":"４７之３３號","E_COORD97":174142.29000000001,"N_COORD97":2554433.5499999998,"ADDRESS":"豐華４７之３３號","OBJECTID":184938},"geometry":{"x":174142.29000000004,"y":2554433.5500000026}},{"attributes":{"ID":184940,"DIS_CODE":0,"TOWNNAME":"新市區","LI":"永就里","LIN":"10鄰","STREET":" ","SECT":" ","MAREA":"永就","LANE":" ","ALLEY":" ","HOUSE_NO":"１０７號","E_COORD97":177478.35999999999,"N_COORD97":2551537.25,"ADDRESS":"永就１０７號","OBJECTID":184939},"geometry":{"x":177478.36000000034,"y":2551537.2500000019}},{"attributes":{"ID":184941,"DIS_CODE":0,"TOWNNAME":"新市區","LI":"永就里","LIN":"10鄰","STREET":" ","SECT":" ","MAREA":"永就","LANE":" ","ALLEY":" ","HOUSE_NO":"１０８之４號","E_COORD97":177459.06,"N_COORD97":2551572.2999999998,"ADDRESS":"永就１０８之４號","OBJECTID":184940},"geometry":{"x":177459.05999999959,"y":2551572.3000000007}},{"attributes":{"ID":184942,"DIS_CODE":0,"TOWNNAME":"新市區","LI":"社內里","LIN":"10鄰","STREET":" ","SECT":" ","MAREA":"社內","LANE":" ","ALLEY":" ","HOUSE_NO":"１０３之１８號","E_COORD97":176329.53,"N_COORD97":2552855.5499999998,"ADDRESS":"社內１０３之１８號","OBJECTID":184941},"geometry":{"x":176329.53000000026,"y":2552855.5500000007}},{"attributes":{"ID":184943,"DIS_CODE":0,"TOWNNAME":"新市區","LI":"永就里","LIN":"10鄰","STREET":" ","SECT":" ","MAREA":"永就","LANE":" ","ALLEY":" ","HOUSE_NO":"１０７之２號","E_COORD97":177467.39999999999,"N_COORD97":2551539.2999999998,"ADDRESS":"永就１０７之２號","OBJECTID":184942},"geometry":{"x":177467.4000000013,"y":2551539.2999999989}},{"attributes":{"ID":184944,"DIS_CODE":0,"TOWNNAME":"北門區","LI":"慈安里","LIN":"11鄰","STREET":" ","SECT":" ","MAREA":"三寮灣","LANE":" ","ALLEY":" ","HOUSE_NO":"５３２號","E_COORD97":159230.35999999999,"N_COORD97":2571409.79,"ADDRESS":"三寮灣５３２號","OBJECTID":184943},"geometry":{"x":159230.36000000127,"y":2571409.790000001}},{"attributes":{"ID":184945,"DIS_CODE":0,"TOWNNAME":"北門區","LI":"永華里","LIN":"11鄰","STREET":" ","SECT":" ","MAREA":"井子\u25A0","LANE":" ","ALLEY":" ","HOUSE_NO":"９３號","E_COORD97":158955.39999999999,"N_COORD97":2573628.9500000002,"ADDRESS":"井子\u25A0９３號","OBJECTID":184944},"geometry":{"x":158955.4000000013,"y":2573628.9500000011}},{"attributes":{"ID":184946,"DIS_CODE":0,"TOWNNAME":"新市區","LI":"永就里","LIN":"10鄰","STREET":" ","SECT":" ","MAREA":"永就","LANE":" ","ALLEY":" ","HOUSE_NO":"１４１號","E_COORD97":177378.48000000001,"N_COORD97":2551595,"ADDRESS":"永就１４１號","OBJECTID":184945},"geometry":{"x":177378.48000000138,"y":2551595.0000000037}},{"attributes":{"ID":184947,"DIS_CODE":0,"TOWNNAME":"新市區","LI":"永就里","LIN":"10鄰","STREET":" ","SECT":" ","MAREA":"永就","LANE":" ","ALLEY":" ","HOUSE_NO":"１０８之２號","E_COORD97":177461.59,"N_COORD97":2551563.2999999998,"ADDRESS":"永就１０８之２號","OBJECTID":184946},"geometry":{"x":177461.59000000171,"y":2551563.3000000045}},{"attributes":{"ID":184948,"DIS_CODE":0,"TOWNNAME":"南區","LI":"府南里","LIN":"20鄰","STREET":"大成路","SECT":"二段","MAREA":" ","LANE":"８１巷","ALLEY":"４３弄","HOUSE_NO":"２５號","E_COORD97":167410.70000000001,"N_COORD97":2541565.5299999998,"ADDRESS":"大成路二段８１巷４３弄２５號","OBJECTID":184947},"geometry":{"x":167410.70000000112,"y":2541565.5300000031}},{"attributes":{"ID":184949,"DIS_CODE":0,"TOWNNAME":"南區","LI":"府南里","LIN":"20鄰","STREET":"大成路","SECT":"二段","MAREA":" ","LANE":"８１巷","ALLEY":"４３弄","HOUSE_NO":"２６號","E_COORD97":167399.81,"N_COORD97":2541559.8700000001,"ADDRESS":"大成路二段８１巷４３弄２６號","OBJECTID":184948},"geometry":{"x":167399.80999999959,"y":2541559.870000001}},{"attributes":{"ID":184950,"DIS_CODE":0,"TOWNNAME":"北門區","LI":"北門里","LIN":"11鄰","STREET":" ","SECT":" ","MAREA":"北門","LANE":" ","ALLEY":" ","HOUSE_NO":"２７６號","E_COORD97":160259.16,"N_COORD97":2574298.2999999998,"ADDRESS":"北門２７６號","OBJECTID":184949},"geometry":{"x":160259.16000000108,"y":2574298.3000000007}},{"attributes":{"ID":184951,"DIS_CODE":0,"TOWNNAME":"南區","LI":"府南里","LIN":"20鄰","STREET":"大成路","SECT":"二段","MAREA":" ","LANE":"８１巷","ALLEY":"４３弄","HOUSE_NO":"２８號","E_COORD97":167402.07000000001,"N_COORD97":2541556.6400000001,"ADDRESS":"大成路二段８１巷４３弄２８號","OBJECTID":184950},"geometry":{"x":167402.0700000003,"y":2541556.6400000025}},{"attributes":{"ID":184952,"DIS_CODE":0,"TOWNNAME":"南區","LI":"府南里","LIN":"20鄰","STREET":"大成路","SECT":"二段","MAREA":" ","LANE":"８１巷","ALLEY":"４３弄","HOUSE_NO":"２號","E_COORD97":167366.98000000001,"N_COORD97":2541590.8900000001,"ADDRESS":"大成路二段８１巷４３弄２號","OBJECTID":184951},"geometry":{"x":167366.98000000138,"y":2541590.8900000006}},{"attributes":{"ID":184953,"DIS_CODE":0,"TOWNNAME":"南區","LI":"府南里","LIN":"20鄰","STREET":"大成路","SECT":"二段","MAREA":" ","LANE":"８１巷","ALLEY":"４３弄","HOUSE_NO":"３０號","E_COORD97":167405.16,"N_COORD97":2541554.3799999999,"ADDRESS":"大成路二段８１巷４３弄３０號","OBJECTID":184952},"geometry":{"x":167405.16000000015,"y":2541554.379999999}},{"attributes":{"ID":184954,"DIS_CODE":0,"TOWNNAME":"南區","LI":"府南里","LIN":"20鄰","STREET":"大成路","SECT":"二段","MAREA":" ","LANE":"８１巷","ALLEY":"４３弄","HOUSE_NO":"３２號","E_COORD97":167408.01999999999,"N_COORD97":2541550.9900000002,"ADDRESS":"大成路二段８１巷４３弄３２號","OBJECTID":184953},"geometry":{"x":167408.02000000048,"y":2541550.9900000021}},{"attributes":{"ID":184955,"DIS_CODE":0,"TOWNNAME":"北門區","LI":"北門里","LIN":"11鄰","STREET":" ","SECT":" ","MAREA":"北門","LANE":" ","ALLEY":" ","HOUSE_NO":"２７７號","E_COORD97":160261.92999999999,"N_COORD97":2574302.1699999999,"ADDRESS":"北門２７７號","OBJECTID":184954},"geometry":{"x":160261.93000000063,"y":2574302.1699999999}},{"attributes":{"ID":184956,"DIS_CODE":0,"TOWNNAME":"北門區","LI":"北門里","LIN":"11鄰","STREET":" ","SECT":" ","MAREA":"北門","LANE":" ","ALLEY":" ","HOUSE_NO":"２７８號","E_COORD97":160265.72,"N_COORD97":2574305.9399999999,"ADDRESS":"北門２７８號","OBJECTID":184955},"geometry":{"x":160265.71999999974,"y":2574305.9399999995}},{"attributes":{"ID":184957,"DIS_CODE":0,"TOWNNAME":"北門區","LI":"北門里","LIN":"11鄰","STREET":" ","SECT":" ","MAREA":"北門","LANE":" ","ALLEY":" ","HOUSE_NO":"２７９號","E_COORD97":160268,"N_COORD97":2574310.1400000001,"ADDRESS":"北門２７９號","OBJECTID":184956},"geometry":{"x":160268.00000000186,"y":2574310.1400000043}},{"attributes":{"ID":184958,"DIS_CODE":0,"TOWNNAME":"北門區","LI":"北門里","LIN":"11鄰","STREET":" ","SECT":" ","MAREA":"北門","LANE":" ","ALLEY":" ","HOUSE_NO":"２８０號","E_COORD97":160272.54999999999,"N_COORD97":2574315.04,"ADDRESS":"北門２８０號","OBJECTID":184957},"geometry":{"x":160272.55000000168,"y":2574315.0399999991}},{"attributes":{"ID":184959,"DIS_CODE":0,"TOWNNAME":"北門區","LI":"北門里","LIN":"11鄰","STREET":" ","SECT":" ","MAREA":"北門","LANE":" ","ALLEY":" ","HOUSE_NO":"２８１號","E_COORD97":160270.53,"N_COORD97":2574312.5499999998,"ADDRESS":"北門２８１號","OBJECTID":184958},"geometry":{"x":160270.53000000119,"y":2574312.5500000026}},{"attributes":{"ID":184960,"DIS_CODE":0,"TOWNNAME":"北門區","LI":"北門里","LIN":"11鄰","STREET":" ","SECT":" ","MAREA":"北門","LANE":" ","ALLEY":" ","HOUSE_NO":"２８２號","E_COORD97":160274.53,"N_COORD97":2574316.8199999998,"ADDRESS":"北門２８２號","OBJECTID":184959},"geometry":{"x":160274.53000000026,"y":2574316.8200000022}},{"attributes":{"ID":184961,"DIS_CODE":0,"TOWNNAME":"南區","LI":"府南里","LIN":"20鄰","STREET":"大成路","SECT":"二段","MAREA":" ","LANE":"８１巷","ALLEY":"４３弄","HOUSE_NO":"３４號","E_COORD97":167411.54999999999,"N_COORD97":2541548.21,"ADDRESS":"大成路二段８１巷４３弄３４號","OBJECTID":184960},"geometry":{"x":167411.55000000075,"y":2541548.2100000009}},{"attributes":{"ID":184962,"DIS_CODE":0,"TOWNNAME":"南區","LI":"府南里","LIN":"20鄰","STREET":"大成路","SECT":"二段","MAREA":" ","LANE":"８１巷","ALLEY":"４３弄","HOUSE_NO":"３６號","E_COORD97":167414.35999999999,"N_COORD97":2541545.7799999998,"ADDRESS":"大成路二段８１巷４３弄３６號","OBJECTID":184961},"geometry":{"x":167414.3599999994,"y":2541545.7799999993}},{"attributes":{"ID":184963,"DIS_CODE":0,"TOWNNAME":"南區","LI":"府南里","LIN":"20鄰","STREET":"大成路","SECT":"二段","MAREA":" ","LANE":"８１巷","ALLEY":"４３弄","HOUSE_NO":"３８號","E_COORD97":167416.84,"N_COORD97":2541543.0800000001,"ADDRESS":"大成路二段８１巷４３弄３８號","OBJECTID":184962},"geometry":{"x":167416.83999999985,"y":2541543.0800000019}},{"attributes":{"ID":184964,"DIS_CODE":0,"TOWNNAME":"南區","LI":"府南里","LIN":"20鄰","STREET":"大成路","SECT":"二段","MAREA":" ","LANE":"８１巷","ALLEY":"４３弄","HOUSE_NO":"３號","E_COORD97":167378.10999999999,"N_COORD97":2541598.8100000001,"ADDRESS":"大成路二段８１巷４３弄３號","OBJECTID":184963},"geometry":{"x":167378.11000000034,"y":2541598.8100000042}},{"attributes":{"ID":184965,"DIS_CODE":0,"TOWNNAME":"南區","LI":"府南里","LIN":"20鄰","STREET":"大成路","SECT":"二段","MAREA":" ","LANE":"８１巷","ALLEY":"４３弄","HOUSE_NO":"４０號","E_COORD97":167419.78,"N_COORD97":2541539.9199999999,"ADDRESS":"大成路二段８１巷４３弄４０號","OBJECTID":184964},"geometry":{"x":167419.78000000026,"y":2541539.9200000018}},{"attributes":{"ID":184966,"DIS_CODE":0,"TOWNNAME":"南區","LI":"府南里","LIN":"20鄰","STREET":"大成路","SECT":"二段","MAREA":" ","LANE":"８１巷","ALLEY":"４３弄","HOUSE_NO":"４２號","E_COORD97":167422.41,"N_COORD97":2541536.8399999999,"ADDRESS":"大成路二段８１巷４３弄４２號","OBJECTID":184965},"geometry":{"x":167422.41000000201,"y":2541536.8400000036}},{"attributes":{"ID":184967,"DIS_CODE":0,"TOWNNAME":"南區","LI":"府南里","LIN":"20鄰","STREET":"大成路","SECT":"二段","MAREA":" ","LANE":"８１巷","ALLEY":"４３弄","HOUSE_NO":"４６號","E_COORD97":167424.98999999999,"N_COORD97":2541534.46,"ADDRESS":"大成路二段８１巷４３弄４６號","OBJECTID":184966},"geometry":{"x":167424.99000000022,"y":2541534.4600000028}},{"attributes":{"ID":184968,"DIS_CODE":0,"TOWNNAME":"南區","LI":"府南里","LIN":"20鄰","STREET":"大成路","SECT":"二段","MAREA":" ","LANE":"８１巷","ALLEY":"４３弄","HOUSE_NO":"４８號","E_COORD97":167428.14999999999,"N_COORD97":2541531.4500000002,"ADDRESS":"大成路二段８１巷４３弄４８號","OBJECTID":184967},"geometry":{"x":167428.1500000013,"y":2541531.4499999993}},{"attributes":{"ID":184969,"DIS_CODE":0,"TOWNNAME":"南區","LI":"府南里","LIN":"20鄰","STREET":"大成路","SECT":"二段","MAREA":" ","LANE":"８１巷","ALLEY":"４３弄","HOUSE_NO":"５號","E_COORD97":167381.57000000001,"N_COORD97":2541596.1000000001,"ADDRESS":"大成路二段８１巷４３弄５號","OBJECTID":184968},"geometry":{"x":167381.57000000123,"y":2541596.1000000015}},{"attributes":{"ID":184970,"DIS_CODE":0,"TOWNNAME":"南區","LI":"府南里","LIN":"20鄰","STREET":"大成路","SECT":"二段","MAREA":" ","LANE":"８１巷","ALLEY":"４３弄","HOUSE_NO":"６號","E_COORD97":167370.29000000001,"N_COORD97":2541588.2599999998,"ADDRESS":"大成路二段８１巷４３弄６號","OBJECTID":184969},"geometry":{"x":167370.29000000004,"y":2541588.2600000016}},{"attributes":{"ID":184971,"DIS_CODE":0,"TOWNNAME":"南區","LI":"府南里","LIN":"20鄰","STREET":"大成路","SECT":"二段","MAREA":" ","LANE":"８１巷","ALLEY":"４３弄","HOUSE_NO":"７號","E_COORD97":167383.45000000001,"N_COORD97":2541593.1000000001,"ADDRESS":"大成路二段８１巷４３弄７號","OBJECTID":184970},"geometry":{"x":167383.45000000112,"y":2541593.1000000015}},{"attributes":{"ID":184972,"DIS_CODE":0,"TOWNNAME":"南區","LI":"府南里","LIN":"20鄰","STREET":"大成路","SECT":"二段","MAREA":" ","LANE":"８１巷","ALLEY":"４３弄","HOUSE_NO":"８號","E_COORD97":167373,"N_COORD97":2541585.4700000002,"ADDRESS":"大成路二段８１巷４３弄８號","OBJECTID":184971},"geometry":{"x":167373.00000000093,"y":2541585.4700000025}},{"attributes":{"ID":184973,"DIS_CODE":0,"TOWNNAME":"南區","LI":"府南里","LIN":"20鄰","STREET":"大成路","SECT":"二段","MAREA":" ","LANE":"８１巷","ALLEY":"４３弄","HOUSE_NO":"９號","E_COORD97":167387.29000000001,"N_COORD97":2541590.54,"ADDRESS":"大成路二段８１巷４３弄９號","OBJECTID":184972},"geometry":{"x":167387.29000000004,"y":2541590.5399999991}},{"attributes":{"ID":184974,"DIS_CODE":0,"TOWNNAME":"永康區","LI":"六合里","LIN":"2鄰","STREET":"新興街","SECT":" ","MAREA":" ","LANE":"３５巷","ALLEY":"１５弄","HOUSE_NO":"３號","E_COORD97":170969.764242,"N_COORD97":2545853.0422700001,"ADDRESS":"新興街３５巷１５弄３號","OBJECTID":184973},"geometry":{"x":170969.76424200088,"y":2545853.0422719996}},{"attributes":{"ID":184975,"DIS_CODE":0,"TOWNNAME":"玉井區","LI":"玉田里","LIN":"24鄰","STREET":"中華路","SECT":" ","MAREA":" ","LANE":" ","ALLEY":" ","HOUSE_NO":"１３２號","E_COORD97":195043.64999999999,"N_COORD97":2557952.25,"ADDRESS":"中華路１３２號","OBJECTID":184974},"geometry":{"x":195043.65000000037,"y":2557952.25}},{"attributes":{"ID":184976,"DIS_CODE":0,"TOWNNAME":"中西區","LI":"藥王里","LIN":"10鄰","STREET":"臨安路","SECT":"一段","MAREA":" ","LANE":" ","ALLEY":" ","HOUSE_NO":"８０號","E_COORD97":167057.91,"N_COORD97":2544418.04,"ADDRESS":"臨安路一段８０號","OBJECTID":184975},"geometry":{"x":167057.91000000201,"y":2544418.0399999991}},{"attributes":{"ID":184977,"DIS_CODE":0,"TOWNNAME":"中西區","LI":"仙草里","LIN":"10鄰","STREET":"南寧街","SECT":" ","MAREA":" ","LANE":" ","ALLEY":" ","HOUSE_NO":"６７號","E_COORD97":167887.79999999999,"N_COORD97":2542843.8500000001,"ADDRESS":"南寧街６７號","OBJECTID":184976},"geometry":{"x":167887.80000000075,"y":2542843.8499999996}},{"attributes":{"ID":184978,"DIS_CODE":0,"TOWNNAME":"中西區","LI":"小西里","LIN":"10鄰","STREET":"西門路","SECT":"一段","MAREA":" ","LANE":" ","ALLEY":" ","HOUSE_NO":"７０４號","E_COORD97":167752.73000000001,"N_COORD97":2543361.9100000001,"ADDRESS":"西門路一段７０４號","OBJECTID":184977},"geometry":{"x":167752.72999999952,"y":2543361.910000002}},{"attributes":{"ID":184979,"DIS_CODE":0,"TOWNNAME":"中西區","LI":"小西里","LIN":"10鄰","STREET":"西門路","SECT":"一段","MAREA":" ","LANE":" ","ALLEY":" ","HOUSE_NO":"７０６號","E_COORD97":167752.85000000001,"N_COORD97":2543365.23,"ADDRESS":"西門路一段７０６號","OBJECTID":184978},"geometry":{"x":167752.85000000149,"y":2543365.2299999986}},{"attributes":{"ID":184980,"DIS_CODE":0,"TOWNNAME":"中西區","LI":"小西里","LIN":"10鄰","STREET":"西門路","SECT":"一段","MAREA":" ","LANE":" ","ALLEY":" ","HOUSE_NO":"７０８號","E_COORD97":167753.37,"N_COORD97":2543369.0699999998,"ADDRESS":"西門路一段７０８號","OBJECTID":184979},"geometry":{"x":167753.37000000104,"y":2543369.0700000003}},{"attributes":{"ID":184981,"DIS_CODE":0,"TOWNNAME":"安平區","LI":"平安里","LIN":"20鄰","STREET":"安平路","SECT":" ","MAREA":" ","LANE":"６０６巷","ALLEY":"５３弄","HOUSE_NO":"２３號","E_COORD97":164814.64999999999,"N_COORD97":2544590.54,"ADDRESS":"安平路６０６巷５３弄２３號","OBJECTID":184980},"geometry":{"x":164814.6500000013,"y":2544590.540000001}},{"attributes":{"ID":184982,"DIS_CODE":0,"TOWNNAME":"鹽水區","LI":"岸內里","LIN":"20鄰","STREET":"北門路","SECT":" ","MAREA":" ","LANE":"１巷","ALLEY":"７弄","HOUSE_NO":"５０號","E_COORD97":175047.76999999999,"N_COORD97":2580516.2799999998,"ADDRESS":"北門路１巷７弄５０號","OBJECTID":184981},"geometry":{"x":175047.77000000142,"y":2580516.2800000012}},{"attributes":{"ID":184983,"DIS_CODE":0,"TOWNNAME":"南區","LI":"大忠里","LIN":"20鄰","STREET":"中華南路","SECT":"一段","MAREA":" ","LANE":"１２５巷","ALLEY":"３２弄","HOUSE_NO":"１０號","E_COORD97":169188.57000000001,"N_COORD97":2541141.9900000002,"ADDRESS":"中華南路一段１２５巷３２弄１０號","OBJECTID":184982},"geometry":{"x":169188.57000000123,"y":2541141.9900000002}},{"attributes":{"ID":184984,"DIS_CODE":0,"TOWNNAME":"南區","LI":"大忠里","LIN":"20鄰","STREET":"中華南路","SECT":"一段","MAREA":" ","LANE":"１２５巷","ALLEY":"３２弄","HOUSE_NO":"１２號","E_COORD97":169183.87,"N_COORD97":2541141.3700000001,"ADDRESS":"中華南路一段１２５巷３２弄１２號","OBJECTID":184983},"geometry":{"x":169183.86999999918,"y":2541141.3700000029}},{"attributes":{"ID":184985,"DIS_CODE":0,"TOWNNAME":"南區","LI":"大忠里","LIN":"20鄰","STREET":"中華南路","SECT":"一段","MAREA":" ","LANE":"１２５巷","ALLEY":"３２弄","HOUSE_NO":"１４號","E_COORD97":169179.48999999999,"N_COORD97":2541141.0600000001,"ADDRESS":"中華南路一段１２５巷３２弄１４號","OBJECTID":184984},"geometry":{"x":169179.49000000022,"y":2541141.0600000005}},{"attributes":{"ID":184986,"DIS_CODE":0,"TOWNNAME":"南區","LI":"大忠里","LIN":"20鄰","STREET":"中華南路","SECT":"一段","MAREA":" ","LANE":"１２５巷","ALLEY":"３２弄","HOUSE_NO":"１號","E_COORD97":169195.89000000001,"N_COORD97":2541119.6499999999,"ADDRESS":"中華南路一段１２５巷３２弄１號","OBJECTID":184985},"geometry":{"x":169195.8900000006,"y":2541119.6500000022}},{"attributes":{"ID":184987,"DIS_CODE":0,"TOWNNAME":"南區","LI":"大忠里","LIN":"20鄰","STREET":"中華南路","SECT":"一段","MAREA":" ","LANE":"１２５巷","ALLEY":"３２弄","HOUSE_NO":"２號","E_COORD97":169207.06,"N_COORD97":2541143.8700000001,"ADDRESS":"中華南路一段１２５巷３２弄２號","OBJECTID":184986},"geometry":{"x":169207.05999999959,"y":2541143.870000001}},{"attributes":{"ID":184988,"DIS_CODE":0,"TOWNNAME":"南區","LI":"大忠里","LIN":"20鄰","STREET":"中華南路","SECT":"一段","MAREA":" ","LANE":"１２５巷","ALLEY":"３２弄","HOUSE_NO":"３號","E_COORD97":169188.64999999999,"N_COORD97":2541124.46,"ADDRESS":"中華南路一段１２５巷３２弄３號","OBJECTID":184987},"geometry":{"x":169188.65000000037,"y":2541124.4600000028}},{"attributes":{"ID":184989,"DIS_CODE":0,"TOWNNAME":"南區","LI":"大忠里","LIN":"20鄰","STREET":"中華南路","SECT":"一段","MAREA":" ","LANE":"１２５巷","ALLEY":"３２弄","HOUSE_NO":"４號","E_COORD97":169202.35999999999,"N_COORD97":2541142.9300000002,"ADDRESS":"中華南路一段１２５巷３２弄４號","OBJECTID":184988},"geometry":{"x":169202.36000000034,"y":2541142.9300000016}},{"attributes":{"ID":184990,"DIS_CODE":0,"TOWNNAME":"南區","LI":"大忠里","LIN":"20鄰","STREET":"中華南路","SECT":"一段","MAREA":" ","LANE":"１２５巷","ALLEY":"３２弄","HOUSE_NO":"６號","E_COORD97":169197.66,"N_COORD97":2541142.6200000001,"ADDRESS":"中華南路一段１２５巷３２弄６號","OBJECTID":184989},"geometry":{"x":169197.66000000108,"y":2541142.6200000048}},{"attributes":{"ID":184991,"DIS_CODE":0,"TOWNNAME":"南區","LI":"大忠里","LIN":"20鄰","STREET":"中華南路","SECT":"一段","MAREA":" ","LANE":"１２５巷","ALLEY":"３２弄","HOUSE_NO":"８號","E_COORD97":169192.95999999999,"N_COORD97":2541142.3100000001,"ADDRESS":"中華南路一段１２５巷３２弄８號","OBJECTID":184990},"geometry":{"x":169192.95999999996,"y":2541142.3100000024}},{"attributes":{"ID":184992,"DIS_CODE":0,"TOWNNAME":"南區","LI":"大忠里","LIN":"20鄰","STREET":"中華南路","SECT":"一段","MAREA":" ","LANE":"１２５巷","ALLEY":"３５弄","HOUSE_NO":"１０號","E_COORD97":169240.07000000001,"N_COORD97":2541129.9900000002,"ADDRESS":"中華南路一段１２５巷３５弄１０號","OBJECTID":184991},"geometry":{"x":169240.0700000003,"y":2541129.9900000021}},{"attributes":{"ID":184993,"DIS_CODE":0,"TOWNNAME":"南區","LI":"大忠里","LIN":"20鄰","STREET":"中華南路","SECT":"一段","MAREA":" ","LANE":"１２５巷","ALLEY":"３５弄","HOUSE_NO":"１１號","E_COORD97":169242.60999999999,"N_COORD97":2541149.6800000002,"ADDRESS":"中華南路一段１２５巷３５弄１１號","OBJECTID":184992},"geometry":{"x":169242.61000000127,"y":2541149.6799999997}},{"attributes":{"ID":184994,"DIS_CODE":0,"TOWNNAME":"南區","LI":"大忠里","LIN":"20鄰","STREET":"中華南路","SECT":"一段","MAREA":" ","LANE":"１２５巷","ALLEY":"３５弄","HOUSE_NO":"１２號","E_COORD97":169245.14999999999,"N_COORD97":2541129.9900000002,"ADDRESS":"中華南路一段１２５巷３５弄１２號","OBJECTID":184993},"geometry":{"x":169245.15000000224,"y":2541129.9900000021}},{"attributes":{"ID":184995,"DIS_CODE":0,"TOWNNAME":"南區","LI":"大忠里","LIN":"20鄰","STREET":"中華南路","SECT":"一段","MAREA":" ","LANE":"１２５巷","ALLEY":"３５弄","HOUSE_NO":"１號","E_COORD97":169217.70999999999,"N_COORD97":2541146.3700000001,"ADDRESS":"中華南路一段１２５巷３５弄１號","OBJECTID":184994},"geometry":{"x":169217.71000000089,"y":2541146.370000001}},{"attributes":{"ID":184996,"DIS_CODE":0,"TOWNNAME":"南區","LI":"大忠里","LIN":"20鄰","STREET":"中華南路","SECT":"一段","MAREA":" ","LANE":"１２５巷","ALLEY":"３５弄","HOUSE_NO":"２號","E_COORD97":169219.95000000001,"N_COORD97":2541126.8100000001,"ADDRESS":"中華南路一段１２５巷３５弄２號","OBJECTID":184995},"geometry":{"x":169219.95000000019,"y":2541126.8100000005}},{"attributes":{"ID":184997,"DIS_CODE":0,"TOWNNAME":"中西區","LI":"小西里","LIN":"10鄰","STREET":"西門路","SECT":"一段","MAREA":" ","LANE":" ","ALLEY":" ","HOUSE_NO":"７１０號","E_COORD97":167755.32999999999,"N_COORD97":2543373.79,"ADDRESS":"西門路一段７１０號","OBJECTID":184996},"geometry":{"x":167755.33000000101,"y":2543373.7900000028}},{"attributes":{"ID":184998,"DIS_CODE":0,"TOWNNAME":"北門區","LI":"北門里","LIN":"11鄰","STREET":" ","SECT":" ","MAREA":"北門","LANE":" ","ALLEY":" ","HOUSE_NO":"２８３號","E_COORD97":160297.82999999999,"N_COORD97":2574335.3599999999,"ADDRESS":"北門２８３號","OBJECTID":184997},"geometry":{"x":160297.83000000007,"y":2574335.3600000013}},{"attributes":{"ID":184999,"DIS_CODE":0,"TOWNNAME":"北門區","LI":"北門里","LIN":"11鄰","STREET":" ","SECT":" ","MAREA":"北門","LANE":" ","ALLEY":" ","HOUSE_NO":"２８４號","E_COORD97":160305.32999999999,"N_COORD97":2574332.1499999999,"ADDRESS":"北門２８４號","OBJECTID":184998},"geometry":{"x":160305.33000000101,"y":2574332.1500000004}},{"attributes":{"ID":185000,"DIS_CODE":0,"TOWNNAME":"北門區","LI":"北門里","LIN":"11鄰","STREET":" ","SECT":" ","MAREA":"北門","LANE":" ","ALLEY":" ","HOUSE_NO":"２８５號","E_COORD97":160309.48999999999,"N_COORD97":2574325.2000000002,"ADDRESS":"北門２８５號","OBJECTID":184999},"geometry":{"x":160309.49000000115,"y":2574325.200000003}},{"attributes":{"ID":185001,"DIS_CODE":0,"TOWNNAME":"北門區","LI":"北門里","LIN":"11鄰","STREET":" ","SECT":" ","MAREA":"北門","LANE":" ","ALLEY":" ","HOUSE_NO":"２８６號","E_COORD97":160313.64000000001,"N_COORD97":2574321.6400000001,"ADDRESS":"北門２８６號","OBJECTID":185000},"geometry":{"x":160313.63999999966,"y":2574321.6400000025}}]}