{"displayFieldName":"TOWNNAME","fieldAliases":{"ID":"ID","DIS_CODE":"DIS_CODE","TOWNNAME":"TOWNNAME","LI":"LI","LIN":"LIN","STREET":"STREET","SECT":"SECT","MAREA":"MAREA","LANE":"LANE","ALLEY":"ALLEY","HOUSE_NO":"HOUSE_NO","E_COORD97":"E_COORD97","N_COORD97":"N_COORD97","ADDRESS":"ADDRESS","OBJECTID":"OBJECTID"},"geometryType":"esriGeometryPoint","spatialReference":{"wkid":102443,"latestWkid":3826},"fields":[{"name":"ID","type":"esriFieldTypeDouble","alias":"ID"},{"name":"DIS_CODE","type":"esriFieldTypeInteger","alias":"DIS_CODE"},{"name":"TOWNNAME","type":"esriFieldTypeString","alias":"TOWNNAME","length":8},{"name":"LI","type":"esriFieldTypeString","alias":"LI","length":8},{"name":"LIN","type":"esriFieldTypeString","alias":"LIN","length":12},{"name":"STREET","type":"esriFieldTypeString","alias":"STREET","length":20},{"name":"SECT","type":"esriFieldTypeString","alias":"SECT","length":8},{"name":"MAREA","type":"esriFieldTypeString","alias":"MAREA","length":12},{"name":"LANE","type":"esriFieldTypeString","alias":"LANE","length":10},{"name":"ALLEY","type":"esriFieldTypeString","alias":"ALLEY","length":10},{"name":"HOUSE_NO","type":"esriFieldTypeString","alias":"HOUSE_NO","length":20},{"name":"E_COORD97","type":"esriFieldTypeDouble","alias":"E_COORD97"},{"name":"N_COORD97","type":"esriFieldTypeDouble","alias":"N_COORD97"},{"name":"ADDRESS","type":"esriFieldTypeString","alias":"ADDRESS","length":50},{"name":"OBJECTID","type":"esriFieldTypeOID","alias":"OBJECTID"}],"features":[{"attributes":{"ID":159802,"DIS_CODE":0,"TOWNNAME":"永康區","LI":"北灣里","LIN":"2鄰","STREET":"文賢街","SECT":" ","MAREA":" ","LANE":"１２２巷","ALLEY":"２７弄","HOUSE_NO":"２９號","E_COORD97":175451.17999999999,"N_COORD97":2545591.1899999999,"ADDRESS":"文賢街１２２巷２７弄２９號","OBJECTID":159801},"geometry":{"x":175451.1799999997,"y":2545591.1899999995}},{"attributes":{"ID":159803,"DIS_CODE":0,"TOWNNAME":"永康區","LI":"北灣里","LIN":"2鄰","STREET":"文賢街","SECT":" ","MAREA":" ","LANE":"１２２巷","ALLEY":"２７弄","HOUSE_NO":"３１號","E_COORD97":175451.42999999999,"N_COORD97":2545596.6299999999,"ADDRESS":"文賢街１２２巷２７弄３１號","OBJECTID":159802},"geometry":{"x":175451.4299999997,"y":2545596.6300000008}},{"attributes":{"ID":159804,"DIS_CODE":0,"TOWNNAME":"永康區","LI":"北灣里","LIN":"2鄰","STREET":"文賢街","SECT":" ","MAREA":" ","LANE":"１２２巷","ALLEY":"２７弄","HOUSE_NO":"３３號","E_COORD97":175459.98999999999,"N_COORD97":2545597.4199999999,"ADDRESS":"文賢街１２２巷２７弄３３號","OBJECTID":159803},"geometry":{"x":175459.99000000022,"y":2545597.4199999999}},{"attributes":{"ID":159805,"DIS_CODE":0,"TOWNNAME":"永康區","LI":"北灣里","LIN":"2鄰","STREET":"文賢街","SECT":" ","MAREA":" ","LANE":"１２２巷","ALLEY":"２７弄","HOUSE_NO":"３５號","E_COORD97":175459.82000000001,"N_COORD97":2545592.0899999999,"ADDRESS":"文賢街１２２巷２７弄３５號","OBJECTID":159804},"geometry":{"x":175459.8200000003,"y":2545592.0899999999}},{"attributes":{"ID":159806,"DIS_CODE":0,"TOWNNAME":"永康區","LI":"北灣里","LIN":"2鄰","STREET":"文賢街","SECT":" ","MAREA":" ","LANE":"１２２巷","ALLEY":"２７弄","HOUSE_NO":"３７號","E_COORD97":175459.70999999999,"N_COORD97":2545586.54,"ADDRESS":"文賢街１２２巷２７弄３７號","OBJECTID":159805},"geometry":{"x":175459.70999999996,"y":2545586.540000001}},{"attributes":{"ID":159807,"DIS_CODE":0,"TOWNNAME":"仁德區","LI":"保安里","LIN":"12鄰","STREET":"開發六路","SECT":" ","MAREA":" ","LANE":" ","ALLEY":" ","HOUSE_NO":"３號","E_COORD97":172802.62,"N_COORD97":2535570.02,"ADDRESS":"開發六路３號","OBJECTID":159806},"geometry":{"x":172802.62000000011,"y":2535570.0199999996}},{"attributes":{"ID":159808,"DIS_CODE":0,"TOWNNAME":"中西區","LI":"協和里","LIN":"12鄰","STREET":"協和街","SECT":" ","MAREA":" ","LANE":" ","ALLEY":" ","HOUSE_NO":"２２９號","E_COORD97":167349.32000000001,"N_COORD97":2544795.2200000002,"ADDRESS":"協和街２２９號","OBJECTID":159807},"geometry":{"x":167349.32000000123,"y":2544795.2200000007}},{"attributes":{"ID":159809,"DIS_CODE":0,"TOWNNAME":"永康區","LI":"北灣里","LIN":"2鄰","STREET":"文賢街","SECT":" ","MAREA":" ","LANE":"１２２巷","ALLEY":"２７弄","HOUSE_NO":"３９號","E_COORD97":175459.31,"N_COORD97":2545581.0699999998,"ADDRESS":"文賢街１２２巷２７弄３９號","OBJECTID":159808},"geometry":{"x":175459.30999999866,"y":2545581.0700000022}},{"attributes":{"ID":159810,"DIS_CODE":0,"TOWNNAME":"安南區","LI":"國安里","LIN":"2鄰","STREET":"國安街","SECT":" ","MAREA":" ","LANE":"１５６巷","ALLEY":"５１弄","HOUSE_NO":"１８號","E_COORD97":166682.88,"N_COORD97":2547131.1600000001,"ADDRESS":"國安街１５６巷５１弄１８號","OBJECTID":159809},"geometry":{"x":166682.87999999989,"y":2547131.1600000001}},{"attributes":{"ID":159811,"DIS_CODE":0,"TOWNNAME":"安南區","LI":"國安里","LIN":"2鄰","STREET":"國安街","SECT":" ","MAREA":" ","LANE":"１５６巷","ALLEY":"５１弄","HOUSE_NO":"２０號","E_COORD97":166677.16,"N_COORD97":2547129.6299999999,"ADDRESS":"國安街１５６巷５１弄２０號","OBJECTID":159810},"geometry":{"x":166677.16000000108,"y":2547129.629999999}},{"attributes":{"ID":159812,"DIS_CODE":0,"TOWNNAME":"安南區","LI":"海西里","LIN":"2鄰","STREET":"海環街","SECT":" ","MAREA":" ","LANE":"４３７巷","ALLEY":"９弄","HOUSE_NO":"１３號","E_COORD97":166094.25,"N_COORD97":2549017.3500000001,"ADDRESS":"海環街４３７巷９弄１３號","OBJECTID":159811},"geometry":{"x":166094.25000000186,"y":2549017.3499999996}},{"attributes":{"ID":159813,"DIS_CODE":0,"TOWNNAME":"安南區","LI":"海佃里","LIN":"2鄰","STREET":"國安街","SECT":" ","MAREA":" ","LANE":"１５６巷","ALLEY":"５１弄","HOUSE_NO":"２１號","E_COORD97":166653.41,"N_COORD97":2547102.48,"ADDRESS":"國安街１５６巷５１弄２１號","OBJECTID":159812},"geometry":{"x":166653.41000000108,"y":2547102.4800000004}},{"attributes":{"ID":159814,"DIS_CODE":0,"TOWNNAME":"安南區","LI":"海佃里","LIN":"2鄰","STREET":"國安街","SECT":" ","MAREA":" ","LANE":"１５６巷","ALLEY":"５１弄","HOUSE_NO":"２３號","E_COORD97":166648.75,"N_COORD97":2547100.48,"ADDRESS":"國安街１５６巷５１弄２３號","OBJECTID":159813},"geometry":{"x":166648.75000000186,"y":2547100.4800000023}},{"attributes":{"ID":159815,"DIS_CODE":0,"TOWNNAME":"安南區","LI":"海南里","LIN":"2鄰","STREET":"府安路","SECT":"六段","MAREA":" ","LANE":"１０３巷","ALLEY":"９９弄","HOUSE_NO":"７號","E_COORD97":166650.29999999999,"N_COORD97":2546728.54,"ADDRESS":"府安路六段１０３巷９９弄７號","OBJECTID":159814},"geometry":{"x":166650.30000000075,"y":2546728.5400000028}},{"attributes":{"ID":159816,"DIS_CODE":0,"TOWNNAME":"安南區","LI":"海南里","LIN":"2鄰","STREET":"府安路","SECT":"六段","MAREA":" ","LANE":"１０３巷","ALLEY":"９９弄","HOUSE_NO":"９號","E_COORD97":166643.62,"N_COORD97":2546727.3999999999,"ADDRESS":"府安路六段１０３巷９９弄９號","OBJECTID":159815},"geometry":{"x":166643.62000000104,"y":2546727.4000000041}},{"attributes":{"ID":159817,"DIS_CODE":0,"TOWNNAME":"安南區","LI":"海南里","LIN":"2鄰","STREET":"府安路","SECT":"六段","MAREA":" ","LANE":"１０３巷","ALLEY":"９９弄","HOUSE_NO":"１３號","E_COORD97":166630.73999999999,"N_COORD97":2546725.77,"ADDRESS":"府安路六段１０３巷９９弄１３號","OBJECTID":159816},"geometry":{"x":166630.74000000115,"y":2546725.7700000014}},{"attributes":{"ID":159818,"DIS_CODE":0,"TOWNNAME":"安南區","LI":"海南里","LIN":"2鄰","STREET":"府安路","SECT":"六段","MAREA":" ","LANE":"１０３巷","ALLEY":"９９弄","HOUSE_NO":"１５號","E_COORD97":166623.73999999999,"N_COORD97":2546723.5800000001,"ADDRESS":"府安路六段１０３巷９９弄１５號","OBJECTID":159817},"geometry":{"x":166623.74000000115,"y":2546723.5800000019}},{"attributes":{"ID":159819,"DIS_CODE":0,"TOWNNAME":"北區","LI":"延平里","LIN":"2鄰","STREET":"公園路","SECT":" ","MAREA":" ","LANE":"６３４巷","ALLEY":"９弄","HOUSE_NO":"２４號","E_COORD97":169140.73999999999,"N_COORD97":2545383.0499999998,"ADDRESS":"公園路６３４巷９弄２４號","OBJECTID":159818},"geometry":{"x":169140.73999999929,"y":2545383.0500000007}},{"attributes":{"ID":159820,"DIS_CODE":0,"TOWNNAME":"安南區","LI":"海南里","LIN":"2鄰","STREET":"府安路","SECT":"六段","MAREA":" ","LANE":"１０３巷","ALLEY":"９９弄","HOUSE_NO":"２１號","E_COORD97":166603.16,"N_COORD97":2546719.8199999998,"ADDRESS":"府安路六段１０３巷９９弄２１號","OBJECTID":159819},"geometry":{"x":166603.16000000015,"y":2546719.8200000003}},{"attributes":{"ID":159821,"DIS_CODE":0,"TOWNNAME":"安南區","LI":"海南里","LIN":"2鄰","STREET":"府安路","SECT":"六段","MAREA":" ","LANE":"１０３巷","ALLEY":"９９弄","HOUSE_NO":"３１號","E_COORD97":166570.54000000001,"N_COORD97":2546713.71,"ADDRESS":"府安路六段１０３巷９９弄３１號","OBJECTID":159820},"geometry":{"x":166570.5400000019,"y":2546713.7100000028}},{"attributes":{"ID":159822,"DIS_CODE":0,"TOWNNAME":"安南區","LI":"海南里","LIN":"2鄰","STREET":"府安路","SECT":"六段","MAREA":" ","LANE":"１０３巷","ALLEY":"９９弄","HOUSE_NO":"１４號","E_COORD97":166628.35000000001,"N_COORD97":2546739.0499999998,"ADDRESS":"府安路六段１０３巷９９弄１４號","OBJECTID":159821},"geometry":{"x":166628.34999999963,"y":2546739.0500000007}},{"attributes":{"ID":159823,"DIS_CODE":0,"TOWNNAME":"安南區","LI":"海南里","LIN":"2鄰","STREET":"府安路","SECT":"六段","MAREA":" ","LANE":"１０３巷","ALLEY":"９９弄","HOUSE_NO":"１６號","E_COORD97":166621.17999999999,"N_COORD97":2546738.73,"ADDRESS":"府安路六段１０３巷９９弄１６號","OBJECTID":159822},"geometry":{"x":166621.1799999997,"y":2546738.7300000042}},{"attributes":{"ID":159824,"DIS_CODE":0,"TOWNNAME":"安南區","LI":"國安里","LIN":"2鄰","STREET":"國安街","SECT":" ","MAREA":" ","LANE":"１５６巷","ALLEY":"５１弄","HOUSE_NO":"１７號","E_COORD97":166700.73999999999,"N_COORD97":2547115.27,"ADDRESS":"國安街１５６巷５１弄１７號","OBJECTID":159823},"geometry":{"x":166700.74000000022,"y":2547115.2700000014}},{"attributes":{"ID":159825,"DIS_CODE":0,"TOWNNAME":"安南區","LI":"國安里","LIN":"2鄰","STREET":"國安街","SECT":" ","MAREA":" ","LANE":"１５６巷","ALLEY":"５１弄","HOUSE_NO":"１９號","E_COORD97":166697.13,"N_COORD97":2547114.6299999999,"ADDRESS":"國安街１５６巷５１弄１９號","OBJECTID":159824},"geometry":{"x":166697.13000000082,"y":2547114.6300000008}},{"attributes":{"ID":159826,"DIS_CODE":0,"TOWNNAME":"安南區","LI":"國安里","LIN":"2鄰","STREET":"國安街","SECT":" ","MAREA":" ","LANE":"１５６巷","ALLEY":"５１弄","HOUSE_NO":"２１號","E_COORD97":166693.09,"N_COORD97":2547114,"ADDRESS":"國安街１５６巷５１弄２１號","OBJECTID":159825},"geometry":{"x":166693.08999999985,"y":2547114.0000000019}},{"attributes":{"ID":159827,"DIS_CODE":0,"TOWNNAME":"安南區","LI":"國安里","LIN":"2鄰","STREET":"國安街","SECT":" ","MAREA":" ","LANE":"１５６巷","ALLEY":"５１弄","HOUSE_NO":"２３號","E_COORD97":166689.48000000001,"N_COORD97":2547113.5699999998,"ADDRESS":"國安街１５６巷５１弄２３號","OBJECTID":159826},"geometry":{"x":166689.48000000045,"y":2547113.5700000022}},{"attributes":{"ID":159828,"DIS_CODE":0,"TOWNNAME":"安南區","LI":"國安里","LIN":"2鄰","STREET":"國安街","SECT":" ","MAREA":" ","LANE":"１５６巷","ALLEY":"５１弄","HOUSE_NO":"２５號","E_COORD97":166685.23000000001,"N_COORD97":2547112.5099999998,"ADDRESS":"國安街１５６巷５１弄２５號","OBJECTID":159827},"geometry":{"x":166685.23000000138,"y":2547112.5100000035}},{"attributes":{"ID":159829,"DIS_CODE":0,"TOWNNAME":"安南區","LI":"國安里","LIN":"2鄰","STREET":"國安街","SECT":" ","MAREA":" ","LANE":"１５６巷","ALLEY":"５１弄","HOUSE_NO":"２７號","E_COORD97":166678.01000000001,"N_COORD97":2547111.2400000002,"ADDRESS":"國安街１５６巷５１弄２７號","OBJECTID":159828},"geometry":{"x":166678.00999999978,"y":2547111.2399999984}},{"attributes":{"ID":159830,"DIS_CODE":0,"TOWNNAME":"安南區","LI":"國安里","LIN":"2鄰","STREET":"國安街","SECT":" ","MAREA":" ","LANE":"１５６巷","ALLEY":"５１弄","HOUSE_NO":"２９號","E_COORD97":166674.82000000001,"N_COORD97":2547110.6000000001,"ADDRESS":"國安街１５６巷５１弄２９號","OBJECTID":159829},"geometry":{"x":166674.8200000003,"y":2547110.5999999996}},{"attributes":{"ID":159831,"DIS_CODE":0,"TOWNNAME":"白河區","LI":"河東里","LIN":"5鄰","STREET":" ","SECT":" ","MAREA":"糞箕湖","LANE":" ","ALLEY":" ","HOUSE_NO":"７０之１號","E_COORD97":192310.76000000001,"N_COORD97":2582476.6600000001,"ADDRESS":"糞箕湖７０之１號","OBJECTID":159830},"geometry":{"x":192310.76000000071,"y":2582476.6600000001}},{"attributes":{"ID":159832,"DIS_CODE":0,"TOWNNAME":"安南區","LI":"國安里","LIN":"2鄰","STREET":"國安街","SECT":" ","MAREA":" ","LANE":"１５６巷","ALLEY":"８３弄","HOUSE_NO":"１８號","E_COORD97":166623.09,"N_COORD97":2547202.0899999999,"ADDRESS":"國安街１５６巷８３弄１８號","OBJECTID":159831},"geometry":{"x":166623.09000000078,"y":2547202.0899999999}},{"attributes":{"ID":159833,"DIS_CODE":0,"TOWNNAME":"白河區","LI":"河東里","LIN":"5鄰","STREET":" ","SECT":" ","MAREA":"糞箕湖","LANE":" ","ALLEY":" ","HOUSE_NO":"７０之２０號","E_COORD97":192394.42000000001,"N_COORD97":2582451.5600000001,"ADDRESS":"糞箕湖７０之２０號","OBJECTID":159832},"geometry":{"x":192394.42000000086,"y":2582451.5600000024}},{"attributes":{"ID":159834,"DIS_CODE":0,"TOWNNAME":"白河區","LI":"河東里","LIN":"5鄰","STREET":" ","SECT":" ","MAREA":"糞箕湖","LANE":" ","ALLEY":" ","HOUSE_NO":"７０之２號","E_COORD97":192310.01000000001,"N_COORD97":2582472.25,"ADDRESS":"糞箕湖７０之２號","OBJECTID":159833},"geometry":{"x":192310.00999999885,"y":2582472.25}},{"attributes":{"ID":159835,"DIS_CODE":0,"TOWNNAME":"白河區","LI":"河東里","LIN":"5鄰","STREET":" ","SECT":" ","MAREA":"糞箕湖","LANE":" ","ALLEY":" ","HOUSE_NO":"７０之３號","E_COORD97":192309.10000000001,"N_COORD97":2582467.7200000002,"ADDRESS":"糞箕湖７０之３號","OBJECTID":159834},"geometry":{"x":192309.09999999963,"y":2582467.7200000025}},{"attributes":{"ID":159836,"DIS_CODE":0,"TOWNNAME":"白河區","LI":"河東里","LIN":"5鄰","STREET":" ","SECT":" ","MAREA":"糞箕湖","LANE":" ","ALLEY":" ","HOUSE_NO":"７０之５號","E_COORD97":192307.89999999999,"N_COORD97":2582463.3500000001,"ADDRESS":"糞箕湖７０之５號","OBJECTID":159835},"geometry":{"x":192307.90000000037,"y":2582463.3499999996}},{"attributes":{"ID":159837,"DIS_CODE":0,"TOWNNAME":"仁德區","LI":"中洲里","LIN":"12鄰","STREET":" ","SECT":" ","MAREA":"中洲","LANE":" ","ALLEY":" ","HOUSE_NO":"３４８號","E_COORD97":173324.14999999999,"N_COORD97":2534141.9900000002,"ADDRESS":"中洲３４８號","OBJECTID":159836},"geometry":{"x":173324.1500000013,"y":2534141.9900000021}},{"attributes":{"ID":159838,"DIS_CODE":0,"TOWNNAME":"仁德區","LI":"中洲里","LIN":"12鄰","STREET":" ","SECT":" ","MAREA":"中洲","LANE":" ","ALLEY":" ","HOUSE_NO":"３４２號之１","E_COORD97":173298.19,"N_COORD97":2534215.0499999998,"ADDRESS":"中洲３４２號之１","OBJECTID":159837},"geometry":{"x":173298.19000000134,"y":2534215.0500000007}},{"attributes":{"ID":159839,"DIS_CODE":0,"TOWNNAME":"仁德區","LI":"中洲里","LIN":"12鄰","STREET":" ","SECT":" ","MAREA":"中洲","LANE":" ","ALLEY":" ","HOUSE_NO":"３４８號之４","E_COORD97":173330.14999999999,"N_COORD97":2534123.2999999998,"ADDRESS":"中洲３４８號之４","OBJECTID":159838},"geometry":{"x":173330.15000000037,"y":2534123.3000000045}},{"attributes":{"ID":159840,"DIS_CODE":0,"TOWNNAME":"白河區","LI":"河東里","LIN":"5鄰","STREET":" ","SECT":" ","MAREA":"糞箕湖","LANE":" ","ALLEY":" ","HOUSE_NO":"７０之６號","E_COORD97":192323.59,"N_COORD97":2582461.6000000001,"ADDRESS":"糞箕湖７０之６號","OBJECTID":159839},"geometry":{"x":192323.59000000078,"y":2582461.5999999996}},{"attributes":{"ID":159841,"DIS_CODE":0,"TOWNNAME":"安南區","LI":"國安里","LIN":"2鄰","STREET":"國安街","SECT":" ","MAREA":" ","LANE":"１５６巷","ALLEY":"８３弄","HOUSE_NO":"２１號","E_COORD97":166614.56,"N_COORD97":2547179.5499999998,"ADDRESS":"國安街１５６巷８３弄２１號","OBJECTID":159840},"geometry":{"x":166614.56000000052,"y":2547179.5500000007}},{"attributes":{"ID":159842,"DIS_CODE":0,"TOWNNAME":"安南區","LI":"淵東里","LIN":"2鄰","STREET":"海佃路","SECT":"四段","MAREA":" ","LANE":"５５巷","ALLEY":"４８弄","HOUSE_NO":"１９號","E_COORD97":165532.10999999999,"N_COORD97":2550584.8799999999,"ADDRESS":"海佃路四段５５巷４８弄１９號","OBJECTID":159841},"geometry":{"x":165532.11000000034,"y":2550584.8800000008}},{"attributes":{"ID":159843,"DIS_CODE":0,"TOWNNAME":"西港區","LI":"營西里","LIN":"5鄰","STREET":" ","SECT":" ","MAREA":"後營","LANE":" ","ALLEY":" ","HOUSE_NO":"４０號","E_COORD97":169743.60999999999,"N_COORD97":2560210.1099999999,"ADDRESS":"後營４０號","OBJECTID":159842},"geometry":{"x":169743.6100000022,"y":2560210.1100000013}},{"attributes":{"ID":159844,"DIS_CODE":0,"TOWNNAME":"安南區","LI":"理想里","LIN":"2鄰","STREET":"海佃路","SECT":"二段","MAREA":" ","LANE":"３４２巷","ALLEY":"２１弄","HOUSE_NO":"４５號","E_COORD97":166999.51999999999,"N_COORD97":2548689.1299999999,"ADDRESS":"海佃路二段３４２巷２１弄４５號","OBJECTID":159843},"geometry":{"x":166999.52000000048,"y":2548689.129999999}},{"attributes":{"ID":159845,"DIS_CODE":0,"TOWNNAME":"仁德區","LI":"保安里","LIN":"12鄰","STREET":"開發六路","SECT":" ","MAREA":" ","LANE":" ","ALLEY":" ","HOUSE_NO":"７號","E_COORD97":172859.12,"N_COORD97":2535610.0099999998,"ADDRESS":"開發六路７號","OBJECTID":159844},"geometry":{"x":172859.12000000197,"y":2535610.0100000016}},{"attributes":{"ID":159846,"DIS_CODE":0,"TOWNNAME":"安南區","LI":"新順里","LIN":"2鄰","STREET":"安生街","SECT":" ","MAREA":" ","LANE":"１０６巷","ALLEY":"６弄","HOUSE_NO":"８號","E_COORD97":169532.07999999999,"N_COORD97":2549589.4199999999,"ADDRESS":"安生街１０６巷６弄８號","OBJECTID":159845},"geometry":{"x":169532.08000000101,"y":2549589.4200000018}},{"attributes":{"ID":159847,"DIS_CODE":0,"TOWNNAME":"安南區","LI":"鳳凰里","LIN":"2鄰","STREET":"怡安路","SECT":"二段","MAREA":" ","LANE":"５９巷","ALLEY":"１２弄","HOUSE_NO":"７號","E_COORD97":168258.37953999999,"N_COORD97":2549208.4379699999,"ADDRESS":"怡安路二段５９巷１２弄７號","OBJECTID":159846},"geometry":{"x":168258.37954000104,"y":2549208.4379650019}},{"attributes":{"ID":159848,"DIS_CODE":0,"TOWNNAME":"永康區","LI":"龍潭里","LIN":"2鄰","STREET":"龍潭街","SECT":" ","MAREA":" ","LANE":"８９巷","ALLEY":"６弄","HOUSE_NO":"４２號","E_COORD97":174780.34,"N_COORD97":2548138.54,"ADDRESS":"龍潭街８９巷６弄４２號","OBJECTID":159847},"geometry":{"x":174780.34000000078,"y":2548138.5399999991}},{"attributes":{"ID":159849,"DIS_CODE":0,"TOWNNAME":"永康區","LI":"蔦松里","LIN":"2鄰","STREET":"蔦松二街","SECT":" ","MAREA":" ","LANE":"１２４巷","ALLEY":"３５弄","HOUSE_NO":"２號之３","E_COORD97":173860.76999999999,"N_COORD97":2549285.0299999998,"ADDRESS":"蔦松二街１２４巷３５弄２號之３","OBJECTID":159848},"geometry":{"x":173860.76999999955,"y":2549285.0299999975}},{"attributes":{"ID":159850,"DIS_CODE":0,"TOWNNAME":"西港區","LI":"營西里","LIN":"5鄰","STREET":" ","SECT":" ","MAREA":"後營","LANE":" ","ALLEY":" ","HOUSE_NO":"４２號之１","E_COORD97":169706.92000000001,"N_COORD97":2560245.0899999999,"ADDRESS":"後營４２號之１","OBJECTID":159849},"geometry":{"x":169706.91999999993,"y":2560245.0899999999}},{"attributes":{"ID":159851,"DIS_CODE":0,"TOWNNAME":"永康區","LI":"東灣里","LIN":"2鄰","STREET":"立興街","SECT":" ","MAREA":" ","LANE":"２８巷","ALLEY":"１３弄","HOUSE_NO":"１４號","E_COORD97":174623.14999999999,"N_COORD97":2544944.3300000001,"ADDRESS":"立興街２８巷１３弄１４號","OBJECTID":159850},"geometry":{"x":174623.15000000037,"y":2544944.3300000038}},{"attributes":{"ID":159852,"DIS_CODE":0,"TOWNNAME":"永康區","LI":"龍潭里","LIN":"2鄰","STREET":"龍潭街","SECT":" ","MAREA":" ","LANE":"８９巷","ALLEY":"６弄","HOUSE_NO":"２０號","E_COORD97":174807.42000000001,"N_COORD97":2548157.4900000002,"ADDRESS":"龍潭街８９巷６弄２０號","OBJECTID":159851},"geometry":{"x":174807.41999999993,"y":2548157.4900000039}},{"attributes":{"ID":159853,"DIS_CODE":0,"TOWNNAME":"永康區","LI":"神洲里","LIN":"2鄰","STREET":"忠孝路","SECT":" ","MAREA":" ","LANE":"６巷","ALLEY":"１１弄","HOUSE_NO":"１０號","E_COORD97":172151.60000000001,"N_COORD97":2544607.7400000002,"ADDRESS":"忠孝路６巷１１弄１０號","OBJECTID":159852},"geometry":{"x":172151.59999999963,"y":2544607.7400000002}},{"attributes":{"ID":159854,"DIS_CODE":0,"TOWNNAME":"仁德區","LI":"保安里","LIN":"2鄰","STREET":"文賢路","SECT":"一段","MAREA":" ","LANE":"５５４巷","ALLEY":"１０弄","HOUSE_NO":"１８號","E_COORD97":171048.28,"N_COORD97":2536923.8300000001,"ADDRESS":"文賢路一段５５４巷１０弄１８號","OBJECTID":159853},"geometry":{"x":171048.28000000119,"y":2536923.8300000019}},{"attributes":{"ID":159855,"DIS_CODE":0,"TOWNNAME":"仁德區","LI":"保安里","LIN":"2鄰","STREET":"文賢路","SECT":"一段","MAREA":" ","LANE":"５５４巷","ALLEY":"８弄","HOUSE_NO":"１５號","E_COORD97":171067.48000000001,"N_COORD97":2536928.3199999998,"ADDRESS":"文賢路一段５５４巷８弄１５號","OBJECTID":159854},"geometry":{"x":171067.48000000138,"y":2536928.3200000003}},{"attributes":{"ID":159856,"DIS_CODE":0,"TOWNNAME":"仁德區","LI":"保安里","LIN":"2鄰","STREET":"文賢路","SECT":"一段","MAREA":" ","LANE":"５５４巷","ALLEY":"１０弄","HOUSE_NO":"１７號","E_COORD97":171035.81,"N_COORD97":2536919.8300000001,"ADDRESS":"文賢路一段５５４巷１０弄１７號","OBJECTID":159855},"geometry":{"x":171035.80999999959,"y":2536919.8300000019}},{"attributes":{"ID":159857,"DIS_CODE":0,"TOWNNAME":"仁德區","LI":"保安里","LIN":"2鄰","STREET":"文賢路","SECT":"一段","MAREA":" ","LANE":"５５４巷","ALLEY":"１０弄","HOUSE_NO":"２０號","E_COORD97":171047.09,"N_COORD97":2536928.3199999998,"ADDRESS":"文賢路一段５５４巷１０弄２０號","OBJECTID":159856},"geometry":{"x":171047.09000000078,"y":2536928.3200000003}},{"attributes":{"ID":159858,"DIS_CODE":0,"TOWNNAME":"仁德區","LI":"上崙里","LIN":"12鄰","STREET":"德崙路","SECT":" ","MAREA":" ","LANE":"４１７巷","ALLEY":" ","HOUSE_NO":"３號","E_COORD97":174215.63,"N_COORD97":2538118.52,"ADDRESS":"德崙路４１７巷３號","OBJECTID":159857},"geometry":{"x":174215.63000000082,"y":2538118.5200000014}},{"attributes":{"ID":159859,"DIS_CODE":0,"TOWNNAME":"東區","LI":"關聖里","LIN":"15鄰","STREET":"裕忠路","SECT":" ","MAREA":" ","LANE":" ","ALLEY":" ","HOUSE_NO":"５９號","E_COORD97":172272.48999999999,"N_COORD97":2543107.5,"ADDRESS":"裕忠路５９號","OBJECTID":159858},"geometry":{"x":172272.49000000115,"y":2543107.5}},{"attributes":{"ID":159860,"DIS_CODE":0,"TOWNNAME":"東區","LI":"南聖里","LIN":"15鄰","STREET":"裕信路","SECT":" ","MAREA":" ","LANE":" ","ALLEY":" ","HOUSE_NO":"１２８之７號","E_COORD97":172559.75,"N_COORD97":2543176.1699999999,"ADDRESS":"裕信路１２８之７號","OBJECTID":159859},"geometry":{"x":172559.75000000186,"y":2543176.1700000018}},{"attributes":{"ID":159861,"DIS_CODE":0,"TOWNNAME":"東區","LI":"南聖里","LIN":"15鄰","STREET":"裕信路","SECT":" ","MAREA":" ","LANE":" ","ALLEY":" ","HOUSE_NO":"１２８之１０號","E_COORD97":172544.45999999999,"N_COORD97":2543176.8700000001,"ADDRESS":"裕信路１２８之１０號","OBJECTID":159860},"geometry":{"x":172544.45999999996,"y":2543176.8700000029}},{"attributes":{"ID":159862,"DIS_CODE":0,"TOWNNAME":"仁德區","LI":"保安里","LIN":"2鄰","STREET":"文賢路","SECT":"一段","MAREA":" ","LANE":"５５４巷","ALLEY":"８弄","HOUSE_NO":"１１號","E_COORD97":171070.54000000001,"N_COORD97":2536919.5800000001,"ADDRESS":"文賢路一段５５４巷８弄１１號","OBJECTID":159861},"geometry":{"x":171070.54000000004,"y":2536919.5800000001}},{"attributes":{"ID":159863,"DIS_CODE":0,"TOWNNAME":"仁德區","LI":"保安里","LIN":"2鄰","STREET":"文賢路","SECT":"一段","MAREA":" ","LANE":"５５４巷","ALLEY":"１０弄","HOUSE_NO":"９號","E_COORD97":171039.59,"N_COORD97":2536902.8300000001,"ADDRESS":"文賢路一段５５４巷１０弄９號","OBJECTID":159862},"geometry":{"x":171039.58999999985,"y":2536902.8300000019}},{"attributes":{"ID":159864,"DIS_CODE":0,"TOWNNAME":"仁德區","LI":"仁德里","LIN":"12鄰","STREET":"四維街","SECT":" ","MAREA":" ","LANE":" ","ALLEY":" ","HOUSE_NO":"４４號","E_COORD97":173232.56,"N_COORD97":2541534.2400000002,"ADDRESS":"四維街４４號","OBJECTID":159863},"geometry":{"x":173232.56000000052,"y":2541534.2400000039}},{"attributes":{"ID":159865,"DIS_CODE":0,"TOWNNAME":"仁德區","LI":"成功里","LIN":"12鄰","STREET":"成功二街","SECT":" ","MAREA":" ","LANE":" ","ALLEY":" ","HOUSE_NO":"１４號","E_COORD97":170903.51999999999,"N_COORD97":2539962.2599999998,"ADDRESS":"成功二街１４號","OBJECTID":159864},"geometry":{"x":170903.52000000048,"y":2539962.2600000016}},{"attributes":{"ID":159866,"DIS_CODE":0,"TOWNNAME":"仁德區","LI":"保安里","LIN":"12鄰","STREET":"民生路","SECT":" ","MAREA":" ","LANE":" ","ALLEY":" ","HOUSE_NO":"２１號","E_COORD97":173133.79000000001,"N_COORD97":2535824.2799999998,"ADDRESS":"民生路２１號","OBJECTID":159865},"geometry":{"x":173133.79000000004,"y":2535824.2800000012}},{"attributes":{"ID":159867,"DIS_CODE":0,"TOWNNAME":"東區","LI":"東明里","LIN":"12鄰","STREET":"凱旋路","SECT":" ","MAREA":" ","LANE":" ","ALLEY":" ","HOUSE_NO":"１７１號","E_COORD97":170917.35000000001,"N_COORD97":2543734.8999999999,"ADDRESS":"凱旋路１７１號","OBJECTID":159866},"geometry":{"x":170917.34999999963,"y":2543734.9000000022}},{"attributes":{"ID":159868,"DIS_CODE":0,"TOWNNAME":"東區","LI":"東明里","LIN":"12鄰","STREET":"凱旋路","SECT":" ","MAREA":" ","LANE":" ","ALLEY":" ","HOUSE_NO":"１７３號","E_COORD97":170911.13,"N_COORD97":2543735.6499999999,"ADDRESS":"凱旋路１７３號","OBJECTID":159867},"geometry":{"x":170911.13000000175,"y":2543735.6500000041}},{"attributes":{"ID":159869,"DIS_CODE":0,"TOWNNAME":"東區","LI":"東明里","LIN":"12鄰","STREET":"凱旋路","SECT":" ","MAREA":" ","LANE":" ","ALLEY":" ","HOUSE_NO":"１７５號","E_COORD97":170904.45999999999,"N_COORD97":2543737.1699999999,"ADDRESS":"凱旋路１７５號","OBJECTID":159868},"geometry":{"x":170904.46000000089,"y":2543737.1699999999}},{"attributes":{"ID":159870,"DIS_CODE":0,"TOWNNAME":"仁德區","LI":"保安里","LIN":"2鄰","STREET":"文賢路","SECT":"一段","MAREA":" ","LANE":"５５４巷","ALLEY":"８弄","HOUSE_NO":"１９號","E_COORD97":171064.79000000001,"N_COORD97":2536936.8199999998,"ADDRESS":"文賢路一段５５４巷８弄１９號","OBJECTID":159869},"geometry":{"x":171064.79000000097,"y":2536936.8200000022}},{"attributes":{"ID":159871,"DIS_CODE":0,"TOWNNAME":"仁德區","LI":"成功里","LIN":"2鄰","STREET":"保生東路","SECT":" ","MAREA":" ","LANE":"１３８巷","ALLEY":"４３弄","HOUSE_NO":"１號","E_COORD97":171304.19,"N_COORD97":2539580.6899999999,"ADDRESS":"保生東路１３８巷４３弄１號","OBJECTID":159870},"geometry":{"x":171304.19000000041,"y":2539580.6899999995}},{"attributes":{"ID":159872,"DIS_CODE":0,"TOWNNAME":"新市區","LI":"社內里","LIN":"12鄰","STREET":" ","SECT":" ","MAREA":"社內","LANE":" ","ALLEY":" ","HOUSE_NO":"１３３之１號","E_COORD97":176337.04999999999,"N_COORD97":2552717.1299999999,"ADDRESS":"社內１３３之１號","OBJECTID":159871},"geometry":{"x":176337.04999999981,"y":2552717.129999999}},{"attributes":{"ID":159873,"DIS_CODE":0,"TOWNNAME":"新市區","LI":"社內里","LIN":"12鄰","STREET":" ","SECT":" ","MAREA":"社內","LANE":" ","ALLEY":" ","HOUSE_NO":"１３３之２號","E_COORD97":176344.45999999999,"N_COORD97":2552714.9500000002,"ADDRESS":"社內１３３之２號","OBJECTID":159872},"geometry":{"x":176344.46000000089,"y":2552714.9500000011}},{"attributes":{"ID":159874,"DIS_CODE":0,"TOWNNAME":"西港區","LI":"營西里","LIN":"5鄰","STREET":" ","SECT":" ","MAREA":"後營","LANE":" ","ALLEY":" ","HOUSE_NO":"４２號之２","E_COORD97":169693.64000000001,"N_COORD97":2560257.3399999999,"ADDRESS":"後營４２號之２","OBJECTID":159873},"geometry":{"x":169693.64000000153,"y":2560257.3399999999}},{"attributes":{"ID":159875,"DIS_CODE":0,"TOWNNAME":"西港區","LI":"營西里","LIN":"5鄰","STREET":" ","SECT":" ","MAREA":"後營","LANE":" ","ALLEY":" ","HOUSE_NO":"４２號","E_COORD97":169706.54999999999,"N_COORD97":2560239.3500000001,"ADDRESS":"後營４２號","OBJECTID":159874},"geometry":{"x":169706.55000000075,"y":2560239.3500000015}},{"attributes":{"ID":159876,"DIS_CODE":0,"TOWNNAME":"仁德區","LI":"保安里","LIN":"2鄰","STREET":"文賢路","SECT":"一段","MAREA":" ","LANE":"５５４巷","ALLEY":"８弄","HOUSE_NO":"９號","E_COORD97":171070.26999999999,"N_COORD97":2536915.0800000001,"ADDRESS":"文賢路一段５５４巷８弄９號","OBJECTID":159875},"geometry":{"x":171070.26999999955,"y":2536915.0800000019}},{"attributes":{"ID":159877,"DIS_CODE":0,"TOWNNAME":"仁德區","LI":"保安里","LIN":"2鄰","STREET":"文賢路","SECT":"一段","MAREA":" ","LANE":"５５４巷","ALLEY":"１０弄","HOUSE_NO":"１５號","E_COORD97":171037.22,"N_COORD97":2536915.3300000001,"ADDRESS":"文賢路一段５５４巷１０弄１５號","OBJECTID":159876},"geometry":{"x":171037.21999999974,"y":2536915.3300000001}},{"attributes":{"ID":159878,"DIS_CODE":0,"TOWNNAME":"仁德區","LI":"保安里","LIN":"2鄰","STREET":"文賢路","SECT":"一段","MAREA":" ","LANE":"５５４巷","ALLEY":"８弄","HOUSE_NO":"１２號","E_COORD97":171084.32999999999,"N_COORD97":2536934.5699999998,"ADDRESS":"文賢路一段５５４巷８弄１２號","OBJECTID":159877},"geometry":{"x":171084.33000000007,"y":2536934.5699999984}},{"attributes":{"ID":159879,"DIS_CODE":0,"TOWNNAME":"東區","LI":"東明里","LIN":"12鄰","STREET":"凱旋路","SECT":" ","MAREA":" ","LANE":" ","ALLEY":" ","HOUSE_NO":"１７７號","E_COORD97":170897.17999999999,"N_COORD97":2543738.8300000001,"ADDRESS":"凱旋路１７７號","OBJECTID":159878},"geometry":{"x":170897.18000000063,"y":2543738.8300000019}},{"attributes":{"ID":159880,"DIS_CODE":0,"TOWNNAME":"西港區","LI":"營西里","LIN":"5鄰","STREET":" ","SECT":" ","MAREA":"後營","LANE":" ","ALLEY":" ","HOUSE_NO":"４３之６號","E_COORD97":169744.28,"N_COORD97":2560227.9500000002,"ADDRESS":"後營４３之６號","OBJECTID":159879},"geometry":{"x":169744.28000000119,"y":2560227.9500000011}},{"attributes":{"ID":159881,"DIS_CODE":0,"TOWNNAME":"西港區","LI":"營西里","LIN":"5鄰","STREET":" ","SECT":" ","MAREA":"後營","LANE":" ","ALLEY":" ","HOUSE_NO":"４３號","E_COORD97":169727.07000000001,"N_COORD97":2560239.6099999999,"ADDRESS":"後營４３號","OBJECTID":159880},"geometry":{"x":169727.07000000216,"y":2560239.6100000013}},{"attributes":{"ID":159882,"DIS_CODE":0,"TOWNNAME":"西港區","LI":"營西里","LIN":"5鄰","STREET":" ","SECT":" ","MAREA":"後營","LANE":" ","ALLEY":" ","HOUSE_NO":"４５號之１","E_COORD97":169752.95999999999,"N_COORD97":2560259.46,"ADDRESS":"後營４５號之１","OBJECTID":159881},"geometry":{"x":169752.96000000089,"y":2560259.4600000028}},{"attributes":{"ID":159883,"DIS_CODE":0,"TOWNNAME":"西港區","LI":"營西里","LIN":"5鄰","STREET":" ","SECT":" ","MAREA":"後營","LANE":" ","ALLEY":" ","HOUSE_NO":"４５號","E_COORD97":169740.10000000001,"N_COORD97":2560259.54,"ADDRESS":"後營４５號","OBJECTID":159882},"geometry":{"x":169740.10000000056,"y":2560259.5400000028}},{"attributes":{"ID":159884,"DIS_CODE":0,"TOWNNAME":"西港區","LI":"營西里","LIN":"5鄰","STREET":" ","SECT":" ","MAREA":"後營","LANE":" ","ALLEY":" ","HOUSE_NO":"４６號","E_COORD97":169729.56,"N_COORD97":2560260.02,"ADDRESS":"後營４６號","OBJECTID":159883},"geometry":{"x":169729.55999999866,"y":2560260.0199999977}},{"attributes":{"ID":159885,"DIS_CODE":0,"TOWNNAME":"西港區","LI":"金砂里","LIN":"5鄰","STREET":" ","SECT":" ","MAREA":"砂凹子","LANE":" ","ALLEY":" ","HOUSE_NO":"１１號","E_COORD97":168735.54999999999,"N_COORD97":2561750.0899999999,"ADDRESS":"砂凹子１１號","OBJECTID":159884},"geometry":{"x":168735.55000000075,"y":2561750.0899999999}},{"attributes":{"ID":159886,"DIS_CODE":0,"TOWNNAME":"西港區","LI":"金砂里","LIN":"5鄰","STREET":" ","SECT":" ","MAREA":"砂凹子","LANE":" ","ALLEY":" ","HOUSE_NO":"１２號","E_COORD97":168757.45000000001,"N_COORD97":2561758.3199999998,"ADDRESS":"砂凹子１２號","OBJECTID":159885},"geometry":{"x":168757.45000000019,"y":2561758.3200000022}},{"attributes":{"ID":159887,"DIS_CODE":0,"TOWNNAME":"西港區","LI":"金砂里","LIN":"5鄰","STREET":" ","SECT":" ","MAREA":"砂凹子","LANE":" ","ALLEY":" ","HOUSE_NO":"１３號","E_COORD97":168763.89999999999,"N_COORD97":2561717.9100000001,"ADDRESS":"砂凹子１３號","OBJECTID":159886},"geometry":{"x":168763.9000000013,"y":2561717.9100000001}},{"attributes":{"ID":159888,"DIS_CODE":0,"TOWNNAME":"西港區","LI":"金砂里","LIN":"5鄰","STREET":" ","SECT":" ","MAREA":"砂凹子","LANE":" ","ALLEY":" ","HOUSE_NO":"１４號","E_COORD97":168775.26000000001,"N_COORD97":2561648.27,"ADDRESS":"砂凹子１４號","OBJECTID":159887},"geometry":{"x":168775.25999999978,"y":2561648.2699999977}},{"attributes":{"ID":159889,"DIS_CODE":0,"TOWNNAME":"西港區","LI":"金砂里","LIN":"5鄰","STREET":" ","SECT":" ","MAREA":"砂凹子","LANE":" ","ALLEY":" ","HOUSE_NO":"１５之１號","E_COORD97":168751.28,"N_COORD97":2561635.96,"ADDRESS":"砂凹子１５之１號","OBJECTID":159888},"geometry":{"x":168751.28000000119,"y":2561635.9600000028}},{"attributes":{"ID":159890,"DIS_CODE":0,"TOWNNAME":"西港區","LI":"金砂里","LIN":"5鄰","STREET":" ","SECT":" ","MAREA":"砂凹子","LANE":" ","ALLEY":" ","HOUSE_NO":"１５之２號","E_COORD97":168756.42000000001,"N_COORD97":2561635.8900000001,"ADDRESS":"砂凹子１５之２號","OBJECTID":159889},"geometry":{"x":168756.42000000086,"y":2561635.8900000025}},{"attributes":{"ID":159891,"DIS_CODE":0,"TOWNNAME":"西港區","LI":"金砂里","LIN":"5鄰","STREET":" ","SECT":" ","MAREA":"砂凹子","LANE":" ","ALLEY":" ","HOUSE_NO":"１５號","E_COORD97":168746.22,"N_COORD97":2561674.8399999999,"ADDRESS":"砂凹子１５號","OBJECTID":159890},"geometry":{"x":168746.22000000067,"y":2561674.8399999999}},{"attributes":{"ID":159892,"DIS_CODE":0,"TOWNNAME":"西港區","LI":"金砂里","LIN":"5鄰","STREET":" ","SECT":" ","MAREA":"砂凹子","LANE":" ","ALLEY":" ","HOUSE_NO":"１７號","E_COORD97":168719.98999999999,"N_COORD97":2561694.6200000001,"ADDRESS":"砂凹子１７號","OBJECTID":159891},"geometry":{"x":168719.99000000022,"y":2561694.620000001}},{"attributes":{"ID":159893,"DIS_CODE":0,"TOWNNAME":"西港區","LI":"金砂里","LIN":"5鄰","STREET":" ","SECT":" ","MAREA":"砂凹子","LANE":" ","ALLEY":" ","HOUSE_NO":"１９號","E_COORD97":168740.35999999999,"N_COORD97":2561720.1000000001,"ADDRESS":"砂凹子１９號","OBJECTID":159892},"geometry":{"x":168740.36000000127,"y":2561720.0999999996}},{"attributes":{"ID":159894,"DIS_CODE":0,"TOWNNAME":"西港區","LI":"金砂里","LIN":"5鄰","STREET":" ","SECT":" ","MAREA":"砂凹子","LANE":" ","ALLEY":" ","HOUSE_NO":"２０號","E_COORD97":168707.59,"N_COORD97":2561742.3300000001,"ADDRESS":"砂凹子２０號","OBJECTID":159893},"geometry":{"x":168707.59000000171,"y":2561742.3300000001}},{"attributes":{"ID":159895,"DIS_CODE":0,"TOWNNAME":"善化區","LI":"田寮里","LIN":"12鄰","STREET":" ","SECT":" ","MAREA":"六分寮","LANE":" ","ALLEY":" ","HOUSE_NO":"１３１號之２３","E_COORD97":178559.75,"N_COORD97":2561130.52,"ADDRESS":"六分寮１３１號之２３","OBJECTID":159894},"geometry":{"x":178559.75000000093,"y":2561130.5199999996}},{"attributes":{"ID":159896,"DIS_CODE":0,"TOWNNAME":"善化區","LI":"牛庄里","LIN":"12鄰","STREET":" ","SECT":" ","MAREA":"牛庄","LANE":" ","ALLEY":" ","HOUSE_NO":"１１８之２號","E_COORD97":179947.44,"N_COORD97":2559980.77,"ADDRESS":"牛庄１１８之２號","OBJECTID":159895},"geometry":{"x":179947.44000000041,"y":2559980.7700000014}},{"attributes":{"ID":159897,"DIS_CODE":0,"TOWNNAME":"善化區","LI":"田寮里","LIN":"12鄰","STREET":" ","SECT":" ","MAREA":"六分寮","LANE":" ","ALLEY":" ","HOUSE_NO":"１３１號之４１","E_COORD97":178611.67999999999,"N_COORD97":2561218.02,"ADDRESS":"六分寮１３１號之４１","OBJECTID":159896},"geometry":{"x":178611.67999999877,"y":2561218.0199999996}},{"attributes":{"ID":159898,"DIS_CODE":0,"TOWNNAME":"善化區","LI":"田寮里","LIN":"12鄰","STREET":" ","SECT":" ","MAREA":"六分寮","LANE":" ","ALLEY":" ","HOUSE_NO":"１２７號之１","E_COORD97":178552.26000000001,"N_COORD97":2561342.02,"ADDRESS":"六分寮１２７號之１","OBJECTID":159897},"geometry":{"x":178552.26000000071,"y":2561342.0200000014}},{"attributes":{"ID":159899,"DIS_CODE":0,"TOWNNAME":"仁德區","LI":"保安里","LIN":"2鄰","STREET":"文賢路","SECT":"一段","MAREA":" ","LANE":"５５４巷","ALLEY":"１０弄","HOUSE_NO":"５號","E_COORD97":171042.38,"N_COORD97":2536895.0800000001,"ADDRESS":"文賢路一段５５４巷１０弄５號","OBJECTID":159898},"geometry":{"x":171042.38000000082,"y":2536895.0800000019}},{"attributes":{"ID":159900,"DIS_CODE":0,"TOWNNAME":"善化區","LI":"田寮里","LIN":"12鄰","STREET":" ","SECT":" ","MAREA":"六分寮","LANE":" ","ALLEY":" ","HOUSE_NO":"１３１之４５號","E_COORD97":178624.04000000001,"N_COORD97":2561226.02,"ADDRESS":"六分寮１３１之４５號","OBJECTID":159899},"geometry":{"x":178624.04000000097,"y":2561226.0199999996}},{"attributes":{"ID":159901,"DIS_CODE":0,"TOWNNAME":"善化區","LI":"田寮里","LIN":"12鄰","STREET":" ","SECT":" ","MAREA":"六分寮","LANE":" ","ALLEY":" ","HOUSE_NO":"１３６號","E_COORD97":178627.04999999999,"N_COORD97":2561252.25,"ADDRESS":"六分寮１３６號","OBJECTID":159900},"geometry":{"x":178627.05000000075,"y":2561252.2499999981}},{"attributes":{"ID":159902,"DIS_CODE":0,"TOWNNAME":"善化區","LI":"田寮里","LIN":"12鄰","STREET":" ","SECT":" ","MAREA":"六分寮","LANE":" ","ALLEY":" ","HOUSE_NO":"１３２之８號","E_COORD97":178600.23999999999,"N_COORD97":2561256.27,"ADDRESS":"六分寮１３２之８號","OBJECTID":159901},"geometry":{"x":178600.24000000115,"y":2561256.2700000014}},{"attributes":{"ID":159903,"DIS_CODE":0,"TOWNNAME":"善化區","LI":"田寮里","LIN":"12鄰","STREET":" ","SECT":" ","MAREA":"六分寮","LANE":" ","ALLEY":" ","HOUSE_NO":"１３１之５０號","E_COORD97":178592.23999999999,"N_COORD97":2561122.77,"ADDRESS":"六分寮１３１之５０號","OBJECTID":159902},"geometry":{"x":178592.24000000115,"y":2561122.7699999977}},{"attributes":{"ID":159904,"DIS_CODE":0,"TOWNNAME":"仁德區","LI":"成功里","LIN":"2鄰","STREET":"保生東路","SECT":" ","MAREA":" ","LANE":"１３８巷","ALLEY":"４３弄","HOUSE_NO":"５號","E_COORD97":171304.54000000001,"N_COORD97":2539588.9399999999,"ADDRESS":"保生東路１３８巷４３弄５號","OBJECTID":159903},"geometry":{"x":171304.54000000004,"y":2539588.9399999995}},{"attributes":{"ID":159905,"DIS_CODE":0,"TOWNNAME":"仁德區","LI":"保安里","LIN":"2鄰","STREET":"文賢路","SECT":"一段","MAREA":" ","LANE":"５５４巷","ALLEY":"１０弄","HOUSE_NO":"１４號","E_COORD97":171050.73999999999,"N_COORD97":2536915.5800000001,"ADDRESS":"文賢路一段５５４巷１０弄１４號","OBJECTID":159904},"geometry":{"x":171050.74000000022,"y":2536915.5800000019}},{"attributes":{"ID":159906,"DIS_CODE":0,"TOWNNAME":"西港區","LI":"金砂里","LIN":"5鄰","STREET":" ","SECT":" ","MAREA":"砂凹子","LANE":" ","ALLEY":" ","HOUSE_NO":"２１之５號","E_COORD97":168644.42999999999,"N_COORD97":2561651.46,"ADDRESS":"砂凹子２１之５號","OBJECTID":159905},"geometry":{"x":168644.43000000063,"y":2561651.4600000009}},{"attributes":{"ID":159907,"DIS_CODE":0,"TOWNNAME":"仁德區","LI":"保安里","LIN":"2鄰","STREET":"文賢路","SECT":"一段","MAREA":" ","LANE":"５５４巷","ALLEY":"１０弄","HOUSE_NO":"１６號","E_COORD97":171049.45000000001,"N_COORD97":2536920.0800000001,"ADDRESS":"文賢路一段５５４巷１０弄１６號","OBJECTID":159906},"geometry":{"x":171049.45000000019,"y":2536920.0800000001}},{"attributes":{"ID":159908,"DIS_CODE":0,"TOWNNAME":"仁德區","LI":"保安里","LIN":"2鄰","STREET":"文賢路","SECT":"一段","MAREA":" ","LANE":"５５４巷","ALLEY":"１０弄","HOUSE_NO":"１２號","E_COORD97":171052.14999999999,"N_COORD97":2536911.8300000001,"ADDRESS":"文賢路一段５５４巷１０弄１２號","OBJECTID":159907},"geometry":{"x":171052.15000000224,"y":2536911.8300000001}},{"attributes":{"ID":159909,"DIS_CODE":0,"TOWNNAME":"西港區","LI":"金砂里","LIN":"5鄰","STREET":" ","SECT":" ","MAREA":"砂凹子","LANE":" ","ALLEY":" ","HOUSE_NO":"２１號","E_COORD97":168686.72,"N_COORD97":2561748.6699999999,"ADDRESS":"砂凹子２１號","OBJECTID":159908},"geometry":{"x":168686.72000000067,"y":2561748.6700000018}},{"attributes":{"ID":159910,"DIS_CODE":0,"TOWNNAME":"西港區","LI":"金砂里","LIN":"5鄰","STREET":" ","SECT":" ","MAREA":"砂凹子","LANE":" ","ALLEY":" ","HOUSE_NO":"２２號之１","E_COORD97":168678.23000000001,"N_COORD97":2561780.3999999999,"ADDRESS":"砂凹子２２號之１","OBJECTID":159909},"geometry":{"x":168678.23000000045,"y":2561780.4000000004}},{"attributes":{"ID":159911,"DIS_CODE":0,"TOWNNAME":"西港區","LI":"金砂里","LIN":"5鄰","STREET":" ","SECT":" ","MAREA":"砂凹子","LANE":" ","ALLEY":" ","HOUSE_NO":"２２號","E_COORD97":168692.81,"N_COORD97":2561766.1299999999,"ADDRESS":"砂凹子２２號","OBJECTID":159910},"geometry":{"x":168692.81000000052,"y":2561766.129999999}},{"attributes":{"ID":159912,"DIS_CODE":0,"TOWNNAME":"仁德區","LI":"保安里","LIN":"2鄰","STREET":"文賢路","SECT":"一段","MAREA":" ","LANE":"５５４巷","ALLEY":"１０弄","HOUSE_NO":"８號","E_COORD97":171053.73999999999,"N_COORD97":2536903.5800000001,"ADDRESS":"文賢路一段５５４巷１０弄８號","OBJECTID":159911},"geometry":{"x":171053.74000000115,"y":2536903.5800000001}},{"attributes":{"ID":159913,"DIS_CODE":0,"TOWNNAME":"西港區","LI":"新復里","LIN":"5鄰","STREET":" ","SECT":" ","MAREA":"新港","LANE":" ","ALLEY":" ","HOUSE_NO":"３５號之１","E_COORD97":166392.95000000001,"N_COORD97":2556464.8799999999,"ADDRESS":"新港３５號之１","OBJECTID":159912},"geometry":{"x":166392.95000000019,"y":2556464.8800000008}},{"attributes":{"ID":159914,"DIS_CODE":0,"TOWNNAME":"仁德區","LI":"成功里","LIN":"2鄰","STREET":"保生東路","SECT":" ","MAREA":" ","LANE":"１３８巷","ALLEY":"４３弄","HOUSE_NO":"３號","E_COORD97":171304.31,"N_COORD97":2539585.1800000002,"ADDRESS":"保生東路１３８巷４３弄３號","OBJECTID":159913},"geometry":{"x":171304.30999999959,"y":2539585.1800000016}},{"attributes":{"ID":159915,"DIS_CODE":0,"TOWNNAME":"西港區","LI":"新復里","LIN":"5鄰","STREET":" ","SECT":" ","MAREA":"新港","LANE":" ","ALLEY":" ","HOUSE_NO":"３５號之３","E_COORD97":166382.54000000001,"N_COORD97":2556467.8999999999,"ADDRESS":"新港３５號之３","OBJECTID":159914},"geometry":{"x":166382.54000000097,"y":2556467.9000000041}},{"attributes":{"ID":159916,"DIS_CODE":0,"TOWNNAME":"東區","LI":"崇信里","LIN":"24鄰","STREET":"崇善一街","SECT":" ","MAREA":" ","LANE":" ","ALLEY":" ","HOUSE_NO":"８０號九樓","E_COORD97":170834.92000000001,"N_COORD97":2542294.98,"ADDRESS":"崇善一街８０號九樓","OBJECTID":159915},"geometry":{"x":170834.92000000086,"y":2542294.9800000004}},{"attributes":{"ID":159917,"DIS_CODE":0,"TOWNNAME":"西港區","LI":"新復里","LIN":"5鄰","STREET":" ","SECT":" ","MAREA":"新港","LANE":" ","ALLEY":" ","HOUSE_NO":"３５號之４","E_COORD97":166378.07000000001,"N_COORD97":2556470.25,"ADDRESS":"新港３５號之４","OBJECTID":159916},"geometry":{"x":166378.07000000123,"y":2556470.2500000019}},{"attributes":{"ID":159918,"DIS_CODE":0,"TOWNNAME":"西港區","LI":"新復里","LIN":"5鄰","STREET":" ","SECT":" ","MAREA":"新港","LANE":" ","ALLEY":" ","HOUSE_NO":"３５號","E_COORD97":166370.95999999999,"N_COORD97":2556474.46,"ADDRESS":"新港３５號","OBJECTID":159917},"geometry":{"x":166370.96000000183,"y":2556474.4600000009}},{"attributes":{"ID":159919,"DIS_CODE":0,"TOWNNAME":"善化區","LI":"田寮里","LIN":"12鄰","STREET":" ","SECT":" ","MAREA":"六分寮","LANE":" ","ALLEY":" ","HOUSE_NO":"１３１號之３４","E_COORD97":178590.06,"N_COORD97":2561252.52,"ADDRESS":"六分寮１３１號之３４","OBJECTID":159918},"geometry":{"x":178590.05999999959,"y":2561252.5199999996}},{"attributes":{"ID":159920,"DIS_CODE":0,"TOWNNAME":"善化區","LI":"田寮里","LIN":"12鄰","STREET":" ","SECT":" ","MAREA":"六分寮","LANE":" ","ALLEY":" ","HOUSE_NO":"１３１之２９號","E_COORD97":178612.17999999999,"N_COORD97":2561144.77,"ADDRESS":"六分寮１３１之２９號","OBJECTID":159919},"geometry":{"x":178612.18000000063,"y":2561144.7700000014}},{"attributes":{"ID":159921,"DIS_CODE":0,"TOWNNAME":"善化區","LI":"田寮里","LIN":"12鄰","STREET":" ","SECT":" ","MAREA":"六分寮","LANE":" ","ALLEY":" ","HOUSE_NO":"１３２號","E_COORD97":178601.45999999999,"N_COORD97":2561297.25,"ADDRESS":"六分寮１３２號","OBJECTID":159920},"geometry":{"x":178601.45999999996,"y":2561297.2500000019}},{"attributes":{"ID":159922,"DIS_CODE":0,"TOWNNAME":"善化區","LI":"田寮里","LIN":"12鄰","STREET":" ","SECT":" ","MAREA":"六分寮","LANE":" ","ALLEY":" ","HOUSE_NO":"１３２號之４","E_COORD97":178613.42999999999,"N_COORD97":2561259.02,"ADDRESS":"六分寮１３２號之４","OBJECTID":159921},"geometry":{"x":178613.43000000156,"y":2561259.0199999996}},{"attributes":{"ID":159923,"DIS_CODE":0,"TOWNNAME":"善化區","LI":"田寮里","LIN":"12鄰","STREET":" ","SECT":" ","MAREA":"六分寮","LANE":" ","ALLEY":" ","HOUSE_NO":"１３１號之４６","E_COORD97":178625.64999999999,"N_COORD97":2561221.02,"ADDRESS":"六分寮１３１號之４６","OBJECTID":159922},"geometry":{"x":178625.65000000037,"y":2561221.0200000014}},{"attributes":{"ID":159924,"DIS_CODE":0,"TOWNNAME":"善化區","LI":"胡厝里","LIN":"12鄰","STREET":" ","SECT":" ","MAREA":"百二甲","LANE":" ","ALLEY":" ","HOUSE_NO":"２１之１號","E_COORD97":175160.92000000001,"N_COORD97":2559954.02,"ADDRESS":"百二甲２１之１號","OBJECTID":159923},"geometry":{"x":175160.92000000086,"y":2559954.0199999996}},{"attributes":{"ID":159925,"DIS_CODE":0,"TOWNNAME":"仁德區","LI":"保安里","LIN":"2鄰","STREET":"文賢路","SECT":"一段","MAREA":" ","LANE":"５５４巷","ALLEY":"１０弄","HOUSE_NO":"６號","E_COORD97":171055.17999999999,"N_COORD97":2536899.5800000001,"ADDRESS":"文賢路一段５５４巷１０弄６號","OBJECTID":159924},"geometry":{"x":171055.18000000063,"y":2536899.5800000001}},{"attributes":{"ID":159926,"DIS_CODE":0,"TOWNNAME":"善化區","LI":"溪美里","LIN":"12鄰","STREET":" ","SECT":" ","MAREA":"溪尾","LANE":" ","ALLEY":" ","HOUSE_NO":"１１３號之３","E_COORD97":176580.41,"N_COORD97":2561702.77,"ADDRESS":"溪尾１１３號之３","OBJECTID":159925},"geometry":{"x":176580.41000000108,"y":2561702.7700000033}},{"attributes":{"ID":159927,"DIS_CODE":0,"TOWNNAME":"善化區","LI":"胡家里","LIN":"12鄰","STREET":" ","SECT":" ","MAREA":"胡厝寮","LANE":" ","ALLEY":" ","HOUSE_NO":"７６號之１","E_COORD97":175381.35000000001,"N_COORD97":2560680.02,"ADDRESS":"胡厝寮７６號之１","OBJECTID":159926},"geometry":{"x":175381.35000000056,"y":2560680.0199999996}},{"attributes":{"ID":159928,"DIS_CODE":0,"TOWNNAME":"善化區","LI":"嘉北里","LIN":"12鄰","STREET":" ","SECT":" ","MAREA":"茄拔","LANE":" ","ALLEY":" ","HOUSE_NO":"２２６號之２","E_COORD97":181020.53,"N_COORD97":2559959.77,"ADDRESS":"茄拔２２６號之２","OBJECTID":159927},"geometry":{"x":181020.53000000212,"y":2559959.7699999996}},{"attributes":{"ID":159929,"DIS_CODE":0,"TOWNNAME":"歸仁區","LI":"看西里","LIN":"2鄰","STREET":"成功六街","SECT":" ","MAREA":" ","LANE":"１１６巷","ALLEY":"１７弄","HOUSE_NO":"２號","E_COORD97":178456.60999999999,"N_COORD97":2540362.2000000002,"ADDRESS":"成功六街１１６巷１７弄２號","OBJECTID":159928},"geometry":{"x":178456.61000000034,"y":2540362.1999999993}},{"attributes":{"ID":159930,"DIS_CODE":0,"TOWNNAME":"善化區","LI":"胡厝里","LIN":"12鄰","STREET":" ","SECT":" ","MAREA":"百二甲","LANE":" ","ALLEY":" ","HOUSE_NO":"２２之２號","E_COORD97":175168.09,"N_COORD97":2559803.77,"ADDRESS":"百二甲２２之２號","OBJECTID":159929},"geometry":{"x":175168.09000000078,"y":2559803.7699999996}},{"attributes":{"ID":159931,"DIS_CODE":0,"TOWNNAME":"善化區","LI":"胡厝里","LIN":"12鄰","STREET":" ","SECT":" ","MAREA":"百二甲","LANE":" ","ALLEY":" ","HOUSE_NO":"２４號之２０","E_COORD97":175081.01000000001,"N_COORD97":2559759.27,"ADDRESS":"百二甲２４號之２０","OBJECTID":159930},"geometry":{"x":175081.01000000071,"y":2559759.2699999996}},{"attributes":{"ID":159932,"DIS_CODE":0,"TOWNNAME":"善化區","LI":"嘉南里","LIN":"12鄰","STREET":" ","SECT":" ","MAREA":"茄拔","LANE":" ","ALLEY":" ","HOUSE_NO":"３５０之３０號","E_COORD97":180442.70999999999,"N_COORD97":2559347.02,"ADDRESS":"茄拔３５０之３０號","OBJECTID":159931},"geometry":{"x":180442.71000000183,"y":2559347.0199999996}},{"attributes":{"ID":159933,"DIS_CODE":0,"TOWNNAME":"善化區","LI":"嘉北里","LIN":"12鄰","STREET":" ","SECT":" ","MAREA":"茄拔","LANE":" ","ALLEY":" ","HOUSE_NO":"２９０之６號","E_COORD97":180928.56,"N_COORD97":2559807.77,"ADDRESS":"茄拔２９０之６號","OBJECTID":159932},"geometry":{"x":180928.56000000052,"y":2559807.7700000033}},{"attributes":{"ID":159934,"DIS_CODE":0,"TOWNNAME":"善化區","LI":"嘉南里","LIN":"12鄰","STREET":" ","SECT":" ","MAREA":"茄拔","LANE":" ","ALLEY":" ","HOUSE_NO":"３５５之１７號","E_COORD97":180687.59,"N_COORD97":2559608.02,"ADDRESS":"茄拔３５５之１７號","OBJECTID":159933},"geometry":{"x":180687.59000000078,"y":2559608.0199999996}},{"attributes":{"ID":159935,"DIS_CODE":0,"TOWNNAME":"西港區","LI":"新復里","LIN":"5鄰","STREET":" ","SECT":" ","MAREA":"新港","LANE":" ","ALLEY":" ","HOUSE_NO":"３７號","E_COORD97":166441.89000000001,"N_COORD97":2556468.1499999999,"ADDRESS":"新港３７號","OBJECTID":159934},"geometry":{"x":166441.88999999966,"y":2556468.1500000004}},{"attributes":{"ID":159936,"DIS_CODE":0,"TOWNNAME":"西港區","LI":"新復里","LIN":"5鄰","STREET":" ","SECT":" ","MAREA":"新港","LANE":" ","ALLEY":" ","HOUSE_NO":"３８號","E_COORD97":166480.22,"N_COORD97":2556473.7999999998,"ADDRESS":"新港３８號","OBJECTID":159935},"geometry":{"x":166480.21999999974,"y":2556473.8000000026}},{"attributes":{"ID":159937,"DIS_CODE":0,"TOWNNAME":"西港區","LI":"新復里","LIN":"5鄰","STREET":" ","SECT":" ","MAREA":"新港","LANE":" ","ALLEY":" ","HOUSE_NO":"４０號之１","E_COORD97":166512.25,"N_COORD97":2556488.21,"ADDRESS":"新港４０號之１","OBJECTID":159936},"geometry":{"x":166512.25,"y":2556488.2100000028}},{"attributes":{"ID":159938,"DIS_CODE":0,"TOWNNAME":"西港區","LI":"劉厝里","LIN":"5鄰","STREET":" ","SECT":" ","MAREA":"劉厝","LANE":" ","ALLEY":" ","HOUSE_NO":"３０號之２","E_COORD97":165865.89000000001,"N_COORD97":2558687.46,"ADDRESS":"劉厝３０號之２","OBJECTID":159937},"geometry":{"x":165865.89000000153,"y":2558687.4600000009}},{"attributes":{"ID":159939,"DIS_CODE":0,"TOWNNAME":"歸仁區","LI":"看西里","LIN":"2鄰","STREET":"成功六街","SECT":" ","MAREA":" ","LANE":"１１６巷","ALLEY":"１７弄","HOUSE_NO":"８號","E_COORD97":178457.60999999999,"N_COORD97":2540370.2000000002,"ADDRESS":"成功六街１１６巷１７弄８號","OBJECTID":159938},"geometry":{"x":178457.61000000127,"y":2540370.1999999993}},{"attributes":{"ID":159940,"DIS_CODE":0,"TOWNNAME":"歸仁區","LI":"看西里","LIN":"2鄰","STREET":"成功六街","SECT":" ","MAREA":" ","LANE":"１１６巷","ALLEY":"１７弄","HOUSE_NO":"１號","E_COORD97":178447.31,"N_COORD97":2540362.2000000002,"ADDRESS":"成功六街１１６巷１７弄１號","OBJECTID":159939},"geometry":{"x":178447.30999999959,"y":2540362.1999999993}},{"attributes":{"ID":159941,"DIS_CODE":0,"TOWNNAME":"歸仁區","LI":"看西里","LIN":"2鄰","STREET":"成功六街","SECT":" ","MAREA":" ","LANE":"１１６巷","ALLEY":"１７弄","HOUSE_NO":"３號","E_COORD97":178447.41,"N_COORD97":2540366.2000000002,"ADDRESS":"成功六街１１６巷１７弄３號","OBJECTID":159940},"geometry":{"x":178447.41000000015,"y":2540366.1999999993}},{"attributes":{"ID":159942,"DIS_CODE":0,"TOWNNAME":"善化區","LI":"嘉南里","LIN":"12鄰","STREET":" ","SECT":" ","MAREA":"茄拔","LANE":" ","ALLEY":" ","HOUSE_NO":"３５０號","E_COORD97":180590.09,"N_COORD97":2559598.2599999998,"ADDRESS":"茄拔３５０號","OBJECTID":159941},"geometry":{"x":180590.08999999985,"y":2559598.2600000016}},{"attributes":{"ID":159943,"DIS_CODE":0,"TOWNNAME":"北區","LI":"小康里","LIN":"2鄰","STREET":"實踐街","SECT":" ","MAREA":" ","LANE":"３９巷","ALLEY":"１０３弄","HOUSE_NO":"１０號","E_COORD97":169897.81,"N_COORD97":2546390,"ADDRESS":"實踐街３９巷１０３弄１０號","OBJECTID":159942},"geometry":{"x":169897.81000000052,"y":2546390}},{"attributes":{"ID":159944,"DIS_CODE":0,"TOWNNAME":"北區","LI":"小康里","LIN":"2鄰","STREET":"實踐街","SECT":" ","MAREA":" ","LANE":"３９巷","ALLEY":"１０３弄","HOUSE_NO":"１１號","E_COORD97":169902.06,"N_COORD97":2546377.4199999999,"ADDRESS":"實踐街３９巷１０３弄１１號","OBJECTID":159943},"geometry":{"x":169902.05999999959,"y":2546377.4199999981}},{"attributes":{"ID":159945,"DIS_CODE":0,"TOWNNAME":"北區","LI":"小康里","LIN":"2鄰","STREET":"實踐街","SECT":" ","MAREA":" ","LANE":"３９巷","ALLEY":"１０３弄","HOUSE_NO":"１２號","E_COORD97":169894.67999999999,"N_COORD97":2546391.6600000001,"ADDRESS":"實踐街３９巷１０３弄１２號","OBJECTID":159944},"geometry":{"x":169894.6799999997,"y":2546391.6600000001}},{"attributes":{"ID":159946,"DIS_CODE":0,"TOWNNAME":"北區","LI":"小康里","LIN":"2鄰","STREET":"實踐街","SECT":" ","MAREA":" ","LANE":"３９巷","ALLEY":"１０３弄","HOUSE_NO":"１３號","E_COORD97":169898.67000000001,"N_COORD97":2546378.9500000002,"ADDRESS":"實踐街３９巷１０３弄１３號","OBJECTID":159945},"geometry":{"x":169898.66999999899,"y":2546378.9499999993}},{"attributes":{"ID":159947,"DIS_CODE":0,"TOWNNAME":"北區","LI":"小康里","LIN":"2鄰","STREET":"實踐街","SECT":" ","MAREA":" ","LANE":"３９巷","ALLEY":"１０３弄","HOUSE_NO":"１４號","E_COORD97":169891.48000000001,"N_COORD97":2546390.2000000002,"ADDRESS":"實踐街３９巷１０３弄１４號","OBJECTID":159946},"geometry":{"x":169891.48000000045,"y":2546390.2000000011}},{"attributes":{"ID":159948,"DIS_CODE":0,"TOWNNAME":"北區","LI":"小康里","LIN":"2鄰","STREET":"實踐街","SECT":" ","MAREA":" ","LANE":"３９巷","ALLEY":"１０３弄","HOUSE_NO":"１５號","E_COORD97":169895.20000000001,"N_COORD97":2546377.6899999999,"ADDRESS":"實踐街３９巷１０３弄１５號","OBJECTID":159947},"geometry":{"x":169895.20000000019,"y":2546377.6899999995}},{"attributes":{"ID":159949,"DIS_CODE":0,"TOWNNAME":"北區","LI":"小康里","LIN":"2鄰","STREET":"實踐街","SECT":" ","MAREA":" ","LANE":"３９巷","ALLEY":"１０３弄","HOUSE_NO":"１６號","E_COORD97":169885.76000000001,"N_COORD97":2546392.5899999999,"ADDRESS":"實踐街３９巷１０３弄１６號","OBJECTID":159948},"geometry":{"x":169885.75999999978,"y":2546392.5899999999}},{"attributes":{"ID":159950,"DIS_CODE":0,"TOWNNAME":"北區","LI":"小康里","LIN":"2鄰","STREET":"實踐街","SECT":" ","MAREA":" ","LANE":"３９巷","ALLEY":"１０３弄","HOUSE_NO":"１７號","E_COORD97":169889.88,"N_COORD97":2546379.2799999998,"ADDRESS":"實踐街３９巷１０３弄１７號","OBJECTID":159949},"geometry":{"x":169889.87999999989,"y":2546379.2800000012}},{"attributes":{"ID":159951,"DIS_CODE":0,"TOWNNAME":"北區","LI":"小康里","LIN":"2鄰","STREET":"實踐街","SECT":" ","MAREA":" ","LANE":"３９巷","ALLEY":"１０３弄","HOUSE_NO":"１８號","E_COORD97":169882.35999999999,"N_COORD97":2546391.1299999999,"ADDRESS":"實踐街３９巷１０３弄１８號","OBJECTID":159950},"geometry":{"x":169882.36000000034,"y":2546391.129999999}},{"attributes":{"ID":159952,"DIS_CODE":0,"TOWNNAME":"北區","LI":"小康里","LIN":"2鄰","STREET":"實踐街","SECT":" ","MAREA":" ","LANE":"３９巷","ALLEY":"１０３弄","HOUSE_NO":"１９號","E_COORD97":169886.42000000001,"N_COORD97":2546378.29,"ADDRESS":"實踐街３９巷１０３弄１９號","OBJECTID":159951},"geometry":{"x":169886.41999999993,"y":2546378.290000001}},{"attributes":{"ID":159953,"DIS_CODE":0,"TOWNNAME":"北區","LI":"小康里","LIN":"2鄰","STREET":"實踐街","SECT":" ","MAREA":" ","LANE":"３９巷","ALLEY":"１０３弄","HOUSE_NO":"１號","E_COORD97":169915.98000000001,"N_COORD97":2546378.2200000002,"ADDRESS":"實踐街３９巷１０３弄１號","OBJECTID":159952},"geometry":{"x":169915.98000000231,"y":2546378.2200000007}},{"attributes":{"ID":159954,"DIS_CODE":0,"TOWNNAME":"北區","LI":"小康里","LIN":"2鄰","STREET":"實踐街","SECT":" ","MAREA":" ","LANE":"３９巷","ALLEY":"１０３弄","HOUSE_NO":"２０號","E_COORD97":169879.10000000001,"N_COORD97":2546392.52,"ADDRESS":"實踐街３９巷１０３弄２０號","OBJECTID":159953},"geometry":{"x":169879.10000000056,"y":2546392.5199999996}},{"attributes":{"ID":159955,"DIS_CODE":0,"TOWNNAME":"北區","LI":"小康里","LIN":"2鄰","STREET":"實踐街","SECT":" ","MAREA":" ","LANE":"３９巷","ALLEY":"１０３弄","HOUSE_NO":"２１號","E_COORD97":169882.22,"N_COORD97":2546379.48,"ADDRESS":"實踐街３９巷１０３弄２１號","OBJECTID":159954},"geometry":{"x":169882.21999999974,"y":2546379.4800000004}},{"attributes":{"ID":159956,"DIS_CODE":0,"TOWNNAME":"北區","LI":"小康里","LIN":"2鄰","STREET":"實踐街","SECT":" ","MAREA":" ","LANE":"３９巷","ALLEY":"１０３弄","HOUSE_NO":"２２號","E_COORD97":169875.76999999999,"N_COORD97":2546391.3300000001,"ADDRESS":"實踐街３９巷１０３弄２２號","OBJECTID":159955},"geometry":{"x":169875.77000000142,"y":2546391.3300000001}},{"attributes":{"ID":159957,"DIS_CODE":0,"TOWNNAME":"北區","LI":"小康里","LIN":"2鄰","STREET":"實踐街","SECT":" ","MAREA":" ","LANE":"３９巷","ALLEY":"１０３弄","HOUSE_NO":"２３號","E_COORD97":169878.63,"N_COORD97":2546379.6800000002,"ADDRESS":"實踐街３９巷１０３弄２３號","OBJECTID":159956},"geometry":{"x":169878.63000000175,"y":2546379.6800000016}},{"attributes":{"ID":159958,"DIS_CODE":0,"TOWNNAME":"北區","LI":"小康里","LIN":"2鄰","STREET":"實踐街","SECT":" ","MAREA":" ","LANE":"３９巷","ALLEY":"１０３弄","HOUSE_NO":"２４號","E_COORD97":169872.31,"N_COORD97":2546392.79,"ADDRESS":"實踐街３９巷１０３弄２４號","OBJECTID":159957},"geometry":{"x":169872.31000000052,"y":2546392.790000001}},{"attributes":{"ID":159959,"DIS_CODE":0,"TOWNNAME":"北區","LI":"小康里","LIN":"2鄰","STREET":"實踐街","SECT":" ","MAREA":" ","LANE":"３９巷","ALLEY":"１０３弄","HOUSE_NO":"２５號","E_COORD97":169873.64000000001,"N_COORD97":2546379.9500000002,"ADDRESS":"實踐街３９巷１０３弄２５號","OBJECTID":159958},"geometry":{"x":169873.6400000006,"y":2546379.9499999974}},{"attributes":{"ID":159960,"DIS_CODE":0,"TOWNNAME":"北區","LI":"小康里","LIN":"2鄰","STREET":"實踐街","SECT":" ","MAREA":" ","LANE":"３９巷","ALLEY":"１０３弄","HOUSE_NO":"２６號","E_COORD97":169869.31,"N_COORD97":2546391.1899999999,"ADDRESS":"實踐街３９巷１０３弄２６號","OBJECTID":159959},"geometry":{"x":169869.31000000052,"y":2546391.1899999995}},{"attributes":{"ID":159961,"DIS_CODE":0,"TOWNNAME":"北區","LI":"小康里","LIN":"2鄰","STREET":"實踐街","SECT":" ","MAREA":" ","LANE":"３９巷","ALLEY":"１０３弄","HOUSE_NO":"２７號","E_COORD97":169869.64999999999,"N_COORD97":2546378.9500000002,"ADDRESS":"實踐街３９巷１０３弄２７號","OBJECTID":159960},"geometry":{"x":169869.6500000013,"y":2546378.9499999993}},{"attributes":{"ID":159962,"DIS_CODE":0,"TOWNNAME":"北區","LI":"小康里","LIN":"2鄰","STREET":"實踐街","SECT":" ","MAREA":" ","LANE":"３９巷","ALLEY":"１０３弄","HOUSE_NO":"２８號","E_COORD97":169865.51999999999,"N_COORD97":2546392.52,"ADDRESS":"實踐街３９巷１０３弄２８號","OBJECTID":159961},"geometry":{"x":169865.52000000142,"y":2546392.5199999996}},{"attributes":{"ID":159963,"DIS_CODE":0,"TOWNNAME":"北區","LI":"小康里","LIN":"2鄰","STREET":"實踐街","SECT":" ","MAREA":" ","LANE":"３９巷","ALLEY":"１０３弄","HOUSE_NO":"２９號","E_COORD97":169866.04999999999,"N_COORD97":2546380.0800000001,"ADDRESS":"實踐街３９巷１０３弄２９號","OBJECTID":159962},"geometry":{"x":169866.05000000075,"y":2546380.0800000038}},{"attributes":{"ID":159964,"DIS_CODE":0,"TOWNNAME":"北區","LI":"小康里","LIN":"2鄰","STREET":"實踐街","SECT":" ","MAREA":" ","LANE":"３９巷","ALLEY":"１０３弄","HOUSE_NO":"２號","E_COORD97":169911.19,"N_COORD97":2546389.5299999998,"ADDRESS":"實踐街３９巷１０３弄２號","OBJECTID":159963},"geometry":{"x":169911.19000000134,"y":2546389.5299999993}},{"attributes":{"ID":159965,"DIS_CODE":0,"TOWNNAME":"善化區","LI":"嘉南里","LIN":"12鄰","STREET":" ","SECT":" ","MAREA":"茄拔","LANE":" ","ALLEY":" ","HOUSE_NO":"３５０號之２３","E_COORD97":180536.85999999999,"N_COORD97":2559434.52,"ADDRESS":"茄拔３５０號之２３","OBJECTID":159964},"geometry":{"x":180536.8599999994,"y":2559434.5200000014}},{"attributes":{"ID":159966,"DIS_CODE":0,"TOWNNAME":"善化區","LI":"嘉南里","LIN":"12鄰","STREET":" ","SECT":" ","MAREA":"茄拔","LANE":" ","ALLEY":" ","HOUSE_NO":"３５０號之９","E_COORD97":180597.42999999999,"N_COORD97":2559642.02,"ADDRESS":"茄拔３５０號之９","OBJECTID":159965},"geometry":{"x":180597.43000000063,"y":2559642.0199999996}},{"attributes":{"ID":159967,"DIS_CODE":0,"TOWNNAME":"南區","LI":"彰南里","LIN":"15鄰","STREET":"新信路","SECT":" ","MAREA":" ","LANE":" ","ALLEY":" ","HOUSE_NO":"１５號","E_COORD97":165689.54000000001,"N_COORD97":2541511.9199999999,"ADDRESS":"新信路１５號","OBJECTID":159966},"geometry":{"x":165689.54000000097,"y":2541511.9199999999}},{"attributes":{"ID":159968,"DIS_CODE":0,"TOWNNAME":"善化區","LI":"嘉南里","LIN":"12鄰","STREET":" ","SECT":" ","MAREA":"茄拔","LANE":" ","ALLEY":" ","HOUSE_NO":"３５０號之５１","E_COORD97":180611.76000000001,"N_COORD97":2559638.77,"ADDRESS":"茄拔３５０號之５１","OBJECTID":159967},"geometry":{"x":180611.76000000071,"y":2559638.7700000014}},{"attributes":{"ID":159969,"DIS_CODE":0,"TOWNNAME":"善化區","LI":"嘉南里","LIN":"12鄰","STREET":" ","SECT":" ","MAREA":"茄拔","LANE":" ","ALLEY":" ","HOUSE_NO":"３６８號之１","E_COORD97":180586.92999999999,"N_COORD97":2559429.52,"ADDRESS":"茄拔３６８號之１","OBJECTID":159968},"geometry":{"x":180586.93000000063,"y":2559429.5200000033}},{"attributes":{"ID":159970,"DIS_CODE":0,"TOWNNAME":"善化區","LI":"嘉南里","LIN":"12鄰","STREET":" ","SECT":" ","MAREA":"茄拔","LANE":" ","ALLEY":" ","HOUSE_NO":"３５０之７號","E_COORD97":180527.14000000001,"N_COORD97":2559641.77,"ADDRESS":"茄拔３５０之７號","OBJECTID":159969},"geometry":{"x":180527.13999999966,"y":2559641.7700000014}},{"attributes":{"ID":159971,"DIS_CODE":0,"TOWNNAME":"善化區","LI":"嘉南里","LIN":"12鄰","STREET":" ","SECT":" ","MAREA":"茄拔","LANE":" ","ALLEY":" ","HOUSE_NO":"３５５之１３號","E_COORD97":180691.84,"N_COORD97":2559583.27,"ADDRESS":"茄拔３５５之１３號","OBJECTID":159970},"geometry":{"x":180691.83999999985,"y":2559583.2699999996}},{"attributes":{"ID":159972,"DIS_CODE":0,"TOWNNAME":"善化區","LI":"嘉南里","LIN":"12鄰","STREET":" ","SECT":" ","MAREA":"茄拔","LANE":" ","ALLEY":" ","HOUSE_NO":"３５５之８號","E_COORD97":180667.01000000001,"N_COORD97":2559585.77,"ADDRESS":"茄拔３５５之８號","OBJECTID":159971},"geometry":{"x":180667.00999999978,"y":2559585.7699999996}},{"attributes":{"ID":159973,"DIS_CODE":0,"TOWNNAME":"善化區","LI":"胡厝里","LIN":"12鄰","STREET":" ","SECT":" ","MAREA":"百二甲","LANE":" ","ALLEY":" ","HOUSE_NO":"２２之５號","E_COORD97":175155.39000000001,"N_COORD97":2559800.77,"ADDRESS":"百二甲２２之５號","OBJECTID":159972},"geometry":{"x":175155.38999999873,"y":2559800.7700000033}},{"attributes":{"ID":159974,"DIS_CODE":0,"TOWNNAME":"北區","LI":"小康里","LIN":"2鄰","STREET":"實踐街","SECT":" ","MAREA":" ","LANE":"３９巷","ALLEY":"１０３弄","HOUSE_NO":"３０號","E_COORD97":169862.19,"N_COORD97":2546391.3900000001,"ADDRESS":"實踐街３９巷１０３弄３０號","OBJECTID":159973},"geometry":{"x":169862.19000000134,"y":2546391.3900000006}},{"attributes":{"ID":159975,"DIS_CODE":0,"TOWNNAME":"北區","LI":"小康里","LIN":"2鄰","STREET":"實踐街","SECT":" ","MAREA":" ","LANE":"３９巷","ALLEY":"１０３弄","HOUSE_NO":"３１號","E_COORD97":169861.39000000001,"N_COORD97":2546380.3500000001,"ADDRESS":"實踐街３９巷１０３弄３１號","OBJECTID":159974},"geometry":{"x":169861.39000000153,"y":2546380.3499999996}},{"attributes":{"ID":159976,"DIS_CODE":0,"TOWNNAME":"北區","LI":"小康里","LIN":"2鄰","STREET":"實踐街","SECT":" ","MAREA":" ","LANE":"３９巷","ALLEY":"１０３弄","HOUSE_NO":"３號","E_COORD97":169913.91,"N_COORD97":2546377.3500000001,"ADDRESS":"實踐街３９巷１０３弄３號","OBJECTID":159975},"geometry":{"x":169913.91000000015,"y":2546377.3499999996}},{"attributes":{"ID":159977,"DIS_CODE":0,"TOWNNAME":"北區","LI":"小康里","LIN":"2鄰","STREET":"實踐街","SECT":" ","MAREA":" ","LANE":"３９巷","ALLEY":"１０３弄","HOUSE_NO":"４號","E_COORD97":169907.85999999999,"N_COORD97":2546391.3900000001,"ADDRESS":"實踐街３９巷１０３弄４號","OBJECTID":159976},"geometry":{"x":169907.86000000034,"y":2546391.3900000006}},{"attributes":{"ID":159978,"DIS_CODE":0,"TOWNNAME":"北區","LI":"小康里","LIN":"2鄰","STREET":"實踐街","SECT":" ","MAREA":" ","LANE":"３９巷","ALLEY":"１０３弄","HOUSE_NO":"５號","E_COORD97":169911.51999999999,"N_COORD97":2546378.8199999998,"ADDRESS":"實踐街３９巷１０３弄５號","OBJECTID":159977},"geometry":{"x":169911.52000000048,"y":2546378.820000004}},{"attributes":{"ID":159979,"DIS_CODE":0,"TOWNNAME":"北區","LI":"小康里","LIN":"2鄰","STREET":"實踐街","SECT":" ","MAREA":" ","LANE":"３９巷","ALLEY":"１０３弄","HOUSE_NO":"６號","E_COORD97":169904.67000000001,"N_COORD97":2546389.8599999999,"ADDRESS":"實踐街３９巷１０３弄６號","OBJECTID":159978},"geometry":{"x":169904.67000000086,"y":2546389.8599999994}},{"attributes":{"ID":159980,"DIS_CODE":0,"TOWNNAME":"北區","LI":"小康里","LIN":"2鄰","STREET":"實踐街","SECT":" ","MAREA":" ","LANE":"３９巷","ALLEY":"１０３弄","HOUSE_NO":"７號","E_COORD97":169909.51999999999,"N_COORD97":2546377.6200000001,"ADDRESS":"實踐街３９巷１０３弄７號","OBJECTID":159979},"geometry":{"x":169909.52000000142,"y":2546377.6200000048}},{"attributes":{"ID":159981,"DIS_CODE":0,"TOWNNAME":"北區","LI":"小康里","LIN":"2鄰","STREET":"實踐街","SECT":" ","MAREA":" ","LANE":"３９巷","ALLEY":"１０３弄","HOUSE_NO":"８號","E_COORD97":169900.94,"N_COORD97":2546391.3300000001,"ADDRESS":"實踐街３９巷１０３弄８號","OBJECTID":159980},"geometry":{"x":169900.94000000227,"y":2546391.3300000001}},{"attributes":{"ID":159982,"DIS_CODE":0,"TOWNNAME":"北區","LI":"小康里","LIN":"2鄰","STREET":"實踐街","SECT":" ","MAREA":" ","LANE":"３９巷","ALLEY":"１０３弄","HOUSE_NO":"９號","E_COORD97":169905.51999999999,"N_COORD97":2546378.5499999998,"ADDRESS":"實踐街３９巷１０３弄９號","OBJECTID":159981},"geometry":{"x":169905.51999999955,"y":2546378.5500000026}},{"attributes":{"ID":159983,"DIS_CODE":0,"TOWNNAME":"新營區","LI":"忠政里","LIN":"2鄰","STREET":"中正路","SECT":" ","MAREA":" ","LANE":"３１巷","ALLEY":"９弄","HOUSE_NO":"２號","E_COORD97":180036.70000000001,"N_COORD97":2579047.6400000001,"ADDRESS":"中正路３１巷９弄２號","OBJECTID":159982},"geometry":{"x":180036.70000000112,"y":2579047.6400000025}},{"attributes":{"ID":159984,"DIS_CODE":0,"TOWNNAME":"北區","LI":"延平里","LIN":"2鄰","STREET":"公園路","SECT":" ","MAREA":" ","LANE":"６３４巷","ALLEY":"９弄","HOUSE_NO":"１１號","E_COORD97":169110.57999999999,"N_COORD97":2545406.46,"ADDRESS":"公園路６３４巷９弄１１號","OBJECTID":159983},"geometry":{"x":169110.58000000007,"y":2545406.4600000028}},{"attributes":{"ID":159985,"DIS_CODE":0,"TOWNNAME":"北區","LI":"延平里","LIN":"2鄰","STREET":"公園路","SECT":" ","MAREA":" ","LANE":"６３４巷","ALLEY":"９弄","HOUSE_NO":"１１號之１","E_COORD97":169111.70000000001,"N_COORD97":2545401.9700000002,"ADDRESS":"公園路６３４巷９弄１１號之１","OBJECTID":159984},"geometry":{"x":169111.70000000019,"y":2545401.9700000025}},{"attributes":{"ID":159986,"DIS_CODE":0,"TOWNNAME":"善化區","LI":"南關里","LIN":"12鄰","STREET":"復興街","SECT":" ","MAREA":" ","LANE":"５５巷","ALLEY":" ","HOUSE_NO":"５號","E_COORD97":176983.35999999999,"N_COORD97":2558962.2599999998,"ADDRESS":"復興街５５巷５號","OBJECTID":159985},"geometry":{"x":176983.36000000034,"y":2558962.2599999998}},{"attributes":{"ID":159987,"DIS_CODE":0,"TOWNNAME":"南區","LI":"彰南里","LIN":"15鄰","STREET":"新信路","SECT":" ","MAREA":" ","LANE":" ","ALLEY":" ","HOUSE_NO":"１號","E_COORD97":166239.48000000001,"N_COORD97":2541522.23,"ADDRESS":"新信路１號","OBJECTID":159986},"geometry":{"x":166239.48000000138,"y":2541522.2300000023}},{"attributes":{"ID":159988,"DIS_CODE":0,"TOWNNAME":"北區","LI":"延平里","LIN":"2鄰","STREET":"公園路","SECT":" ","MAREA":" ","LANE":"６３４巷","ALLEY":"９弄","HOUSE_NO":"１５號","E_COORD97":169121.10000000001,"N_COORD97":2545406.46,"ADDRESS":"公園路６３４巷９弄１５號","OBJECTID":159987},"geometry":{"x":169121.10000000056,"y":2545406.4600000028}},{"attributes":{"ID":159989,"DIS_CODE":0,"TOWNNAME":"北區","LI":"延平里","LIN":"2鄰","STREET":"公園路","SECT":" ","MAREA":" ","LANE":"６３４巷","ALLEY":"９弄","HOUSE_NO":"１７號","E_COORD97":169126.85000000001,"N_COORD97":2545403.3799999999,"ADDRESS":"公園路６３４巷９弄１７號","OBJECTID":159988},"geometry":{"x":169126.84999999963,"y":2545403.379999999}},{"attributes":{"ID":159990,"DIS_CODE":0,"TOWNNAME":"北區","LI":"延平里","LIN":"2鄰","STREET":"公園路","SECT":" ","MAREA":" ","LANE":"６３４巷","ALLEY":"９弄","HOUSE_NO":"１７號之１","E_COORD97":169132.45999999999,"N_COORD97":2545401.6899999999,"ADDRESS":"公園路６３４巷９弄１７號之１","OBJECTID":159989},"geometry":{"x":169132.46000000183,"y":2545401.6899999995}},{"attributes":{"ID":159991,"DIS_CODE":0,"TOWNNAME":"北區","LI":"延平里","LIN":"2鄰","STREET":"公園路","SECT":" ","MAREA":" ","LANE":"６３４巷","ALLEY":"９弄","HOUSE_NO":"１９號","E_COORD97":169137.23000000001,"N_COORD97":2545399.0299999998,"ADDRESS":"公園路６３４巷９弄１９號","OBJECTID":159990},"geometry":{"x":169137.23000000045,"y":2545399.0299999993}},{"attributes":{"ID":159992,"DIS_CODE":0,"TOWNNAME":"北區","LI":"延平里","LIN":"2鄰","STREET":"公園路","SECT":" ","MAREA":" ","LANE":"６３４巷","ALLEY":"９弄","HOUSE_NO":"２２號","E_COORD97":169131.20000000001,"N_COORD97":2545385.4300000002,"ADDRESS":"公園路６３４巷９弄２２號","OBJECTID":159991},"geometry":{"x":169131.20000000112,"y":2545385.4300000016}},{"attributes":{"ID":159993,"DIS_CODE":0,"TOWNNAME":"北區","LI":"延平里","LIN":"2鄰","STREET":"公園路","SECT":" ","MAREA":" ","LANE":"６３４巷","ALLEY":"９弄","HOUSE_NO":"２６號之３","E_COORD97":169170.89000000001,"N_COORD97":2545393.3900000001,"ADDRESS":"公園路６３４巷９弄２６號之３","OBJECTID":159992},"geometry":{"x":169170.88999999966,"y":2545393.3900000025}},{"attributes":{"ID":159994,"DIS_CODE":0,"TOWNNAME":"北區","LI":"延平里","LIN":"2鄰","STREET":"公園路","SECT":" ","MAREA":" ","LANE":"６３４巷","ALLEY":"９弄","HOUSE_NO":"２６號之５","E_COORD97":169176.5,"N_COORD97":2545394.3700000001,"ADDRESS":"公園路６３４巷９弄２６號之５","OBJECTID":159993},"geometry":{"x":169176.50000000093,"y":2545394.370000001}},{"attributes":{"ID":159995,"DIS_CODE":0,"TOWNNAME":"北區","LI":"延平里","LIN":"2鄰","STREET":"公園路","SECT":" ","MAREA":" ","LANE":"６３４巷","ALLEY":"９弄","HOUSE_NO":"２６號之６","E_COORD97":169185.06,"N_COORD97":2545393.6699999999,"ADDRESS":"公園路６３４巷９弄２６號之６","OBJECTID":159994},"geometry":{"x":169185.05999999959,"y":2545393.6700000018}},{"attributes":{"ID":159996,"DIS_CODE":0,"TOWNNAME":"北區","LI":"延平里","LIN":"2鄰","STREET":"公園路","SECT":" ","MAREA":" ","LANE":"６３４巷","ALLEY":"９弄","HOUSE_NO":"３號","E_COORD97":169081.54000000001,"N_COORD97":2545417.5299999998,"ADDRESS":"公園路６３４巷９弄３號","OBJECTID":159995},"geometry":{"x":169081.54000000097,"y":2545417.5300000012}},{"attributes":{"ID":159997,"DIS_CODE":0,"TOWNNAME":"北區","LI":"延平里","LIN":"2鄰","STREET":"公園路","SECT":" ","MAREA":" ","LANE":"６３４巷","ALLEY":"９弄","HOUSE_NO":"３號之１","E_COORD97":169074.51999999999,"N_COORD97":2545424.1200000001,"ADDRESS":"公園路６３４巷９弄３號之１","OBJECTID":159996},"geometry":{"x":169074.52000000048,"y":2545424.120000001}},{"attributes":{"ID":159998,"DIS_CODE":0,"TOWNNAME":"北區","LI":"延平里","LIN":"2鄰","STREET":"公園路","SECT":" ","MAREA":" ","LANE":"６３４巷","ALLEY":"９弄","HOUSE_NO":"５號","E_COORD97":169089.39000000001,"N_COORD97":2545413.3300000001,"ADDRESS":"公園路６３４巷９弄５號","OBJECTID":159997},"geometry":{"x":169089.38999999966,"y":2545413.3300000019}},{"attributes":{"ID":159999,"DIS_CODE":0,"TOWNNAME":"北區","LI":"延平里","LIN":"2鄰","STREET":"公園路","SECT":" ","MAREA":" ","LANE":"６３４巷","ALLEY":"９弄","HOUSE_NO":"５號之１","E_COORD97":169092.76000000001,"N_COORD97":2545410.25,"ADDRESS":"公園路６３４巷９弄５號之１","OBJECTID":159998},"geometry":{"x":169092.76000000164,"y":2545410.2500000019}},{"attributes":{"ID":160000,"DIS_CODE":0,"TOWNNAME":"北區","LI":"延平里","LIN":"2鄰","STREET":"公園路","SECT":" ","MAREA":" ","LANE":"６３４巷","ALLEY":"９弄","HOUSE_NO":"７號","E_COORD97":169096.26999999999,"N_COORD97":2545408.4199999999,"ADDRESS":"公園路６３４巷９弄７號","OBJECTID":159999},"geometry":{"x":169096.27000000048,"y":2545408.4200000018}},{"attributes":{"ID":160001,"DIS_CODE":0,"TOWNNAME":"北區","LI":"延平里","LIN":"2鄰","STREET":"公園路","SECT":" ","MAREA":" ","LANE":"６３４巷","ALLEY":"９弄","HOUSE_NO":"７號之１","E_COORD97":169100.76000000001,"N_COORD97":2545406.04,"ADDRESS":"公園路６３４巷９弄７號之１","OBJECTID":160000},"geometry":{"x":169100.75999999978,"y":2545406.0399999972}}]}