{"displayFieldName":"TOWNNAME","fieldAliases":{"ID":"ID","DIS_CODE":"DIS_CODE","TOWNNAME":"TOWNNAME","LI":"LI","LIN":"LIN","STREET":"STREET","SECT":"SECT","MAREA":"MAREA","LANE":"LANE","ALLEY":"ALLEY","HOUSE_NO":"HOUSE_NO","E_COORD97":"E_COORD97","N_COORD97":"N_COORD97","ADDRESS":"ADDRESS","OBJECTID":"OBJECTID"},"geometryType":"esriGeometryPoint","spatialReference":{"wkid":102443,"latestWkid":3826},"fields":[{"name":"ID","type":"esriFieldTypeDouble","alias":"ID"},{"name":"DIS_CODE","type":"esriFieldTypeInteger","alias":"DIS_CODE"},{"name":"TOWNNAME","type":"esriFieldTypeString","alias":"TOWNNAME","length":8},{"name":"LI","type":"esriFieldTypeString","alias":"LI","length":8},{"name":"LIN","type":"esriFieldTypeString","alias":"LIN","length":12},{"name":"STREET","type":"esriFieldTypeString","alias":"STREET","length":20},{"name":"SECT","type":"esriFieldTypeString","alias":"SECT","length":8},{"name":"MAREA","type":"esriFieldTypeString","alias":"MAREA","length":12},{"name":"LANE","type":"esriFieldTypeString","alias":"LANE","length":10},{"name":"ALLEY","type":"esriFieldTypeString","alias":"ALLEY","length":10},{"name":"HOUSE_NO","type":"esriFieldTypeString","alias":"HOUSE_NO","length":20},{"name":"E_COORD97","type":"esriFieldTypeDouble","alias":"E_COORD97"},{"name":"N_COORD97","type":"esriFieldTypeDouble","alias":"N_COORD97"},{"name":"ADDRESS","type":"esriFieldTypeString","alias":"ADDRESS","length":50},{"name":"OBJECTID","type":"esriFieldTypeOID","alias":"OBJECTID"}],"features":[{"attributes":{"ID":183402,"DIS_CODE":0,"TOWNNAME":"安南區","LI":"新順里","LIN":"7鄰","STREET":"北安路","SECT":"三段","MAREA":" ","LANE":"７４５巷","ALLEY":"４２弄","HOUSE_NO":"１５號","E_COORD97":169129.25533700001,"N_COORD97":2550075.3860800001,"ADDRESS":"北安路三段７４５巷４２弄１５號","OBJECTID":183401},"geometry":{"x":169129.25533700176,"y":2550075.3860799987}},{"attributes":{"ID":183403,"DIS_CODE":0,"TOWNNAME":"安南區","LI":"新順里","LIN":"24鄰","STREET":"慶安路","SECT":" ","MAREA":" ","LANE":"１５５巷","ALLEY":"７弄","HOUSE_NO":"２５號","E_COORD97":169404.17906299999,"N_COORD97":2549279.3081800002,"ADDRESS":"慶安路１５５巷７弄２５號","OBJECTID":183402},"geometry":{"x":169404.17906299978,"y":2549279.3081760015}},{"attributes":{"ID":183404,"DIS_CODE":0,"TOWNNAME":"歸仁區","LI":"媽廟里","LIN":"26鄰","STREET":"保大路","SECT":"一段","MAREA":" ","LANE":"２６０巷","ALLEY":"９０弄","HOUSE_NO":"６號","E_COORD97":177430.29397900001,"N_COORD97":2544544.8363199998,"ADDRESS":"保大路一段２６０巷９０弄６號","OBJECTID":183403},"geometry":{"x":177430.2939790003,"y":2544544.8363170009}},{"attributes":{"ID":183405,"DIS_CODE":0,"TOWNNAME":"歸仁區","LI":"媽廟里","LIN":"26鄰","STREET":"保大路","SECT":"一段","MAREA":" ","LANE":"２６０巷","ALLEY":"９０弄","HOUSE_NO":"１８號","E_COORD97":177450.845118,"N_COORD97":2544546.1063199998,"ADDRESS":"保大路一段２６０巷９０弄１８號","OBJECTID":183404},"geometry":{"x":177450.84511800017,"y":2544546.1063160002}},{"attributes":{"ID":183406,"DIS_CODE":0,"TOWNNAME":"歸仁區","LI":"媽廟里","LIN":"26鄰","STREET":"保大路","SECT":"一段","MAREA":" ","LANE":"２６０巷","ALLEY":"９０弄","HOUSE_NO":"２０號","E_COORD97":177481.07000000001,"N_COORD97":2544548.5899999999,"ADDRESS":"保大路一段２６０巷９０弄２０號","OBJECTID":183405},"geometry":{"x":177481.07000000123,"y":2544548.5899999999}},{"attributes":{"ID":183407,"DIS_CODE":0,"TOWNNAME":"歸仁區","LI":"看西里","LIN":"23鄰","STREET":"成功五街","SECT":" ","MAREA":" ","LANE":"８８巷","ALLEY":"９７弄","HOUSE_NO":"１號","E_COORD97":178351.07016100001,"N_COORD97":2539826.8130600001,"ADDRESS":"成功五街８８巷９７弄１號","OBJECTID":183406},"geometry":{"x":178351.07016100083,"y":2539826.8130629994}},{"attributes":{"ID":183408,"DIS_CODE":0,"TOWNNAME":"歸仁區","LI":"媽廟里","LIN":"16鄰","STREET":"媽廟二街","SECT":" ","MAREA":" ","LANE":"３１巷","ALLEY":"４２弄","HOUSE_NO":"２號","E_COORD97":177728.88,"N_COORD97":2543829.7200000002,"ADDRESS":"媽廟二街３１巷４２弄２號","OBJECTID":183407},"geometry":{"x":177728.87999999989,"y":2543829.7200000007}},{"attributes":{"ID":183409,"DIS_CODE":0,"TOWNNAME":"下營區","LI":"大屯里","LIN":"11鄰","STREET":" ","SECT":" ","MAREA":"大屯寮","LANE":" ","ALLEY":" ","HOUSE_NO":"８８號","E_COORD97":172215.48999999999,"N_COORD97":2570685.5800000001,"ADDRESS":"大屯寮８８號","OBJECTID":183408},"geometry":{"x":172215.49000000022,"y":2570685.5799999982}},{"attributes":{"ID":183410,"DIS_CODE":0,"TOWNNAME":"下營區","LI":"大屯里","LIN":"11鄰","STREET":" ","SECT":" ","MAREA":"大屯寮","LANE":" ","ALLEY":" ","HOUSE_NO":"８９號之１０","E_COORD97":172599.98000000001,"N_COORD97":2571478.04,"ADDRESS":"大屯寮８９號之１０","OBJECTID":183409},"geometry":{"x":172599.98000000138,"y":2571478.0399999991}},{"attributes":{"ID":183411,"DIS_CODE":0,"TOWNNAME":"下營區","LI":"大屯里","LIN":"11鄰","STREET":" ","SECT":" ","MAREA":"大屯寮","LANE":" ","ALLEY":" ","HOUSE_NO":"８９號之１２","E_COORD97":172349.63,"N_COORD97":2571286.79,"ADDRESS":"大屯寮８９號之１２","OBJECTID":183410},"geometry":{"x":172349.62999999989,"y":2571286.7900000028}},{"attributes":{"ID":183412,"DIS_CODE":0,"TOWNNAME":"下營區","LI":"大屯里","LIN":"11鄰","STREET":" ","SECT":" ","MAREA":"大屯寮","LANE":" ","ALLEY":" ","HOUSE_NO":"８９號之１５","E_COORD97":172685.94,"N_COORD97":2571486.3300000001,"ADDRESS":"大屯寮８９號之１５","OBJECTID":183411},"geometry":{"x":172685.93999999948,"y":2571486.3300000001}},{"attributes":{"ID":183413,"DIS_CODE":0,"TOWNNAME":"下營區","LI":"大屯里","LIN":"11鄰","STREET":" ","SECT":" ","MAREA":"大屯寮","LANE":" ","ALLEY":" ","HOUSE_NO":"８９號之１６","E_COORD97":172361.57999999999,"N_COORD97":2570838.9199999999,"ADDRESS":"大屯寮８９號之１６","OBJECTID":183412},"geometry":{"x":172361.58000000101,"y":2570838.9199999999}},{"attributes":{"ID":183414,"DIS_CODE":0,"TOWNNAME":"下營區","LI":"大屯里","LIN":"11鄰","STREET":" ","SECT":" ","MAREA":"大屯寮","LANE":" ","ALLEY":" ","HOUSE_NO":"８９號之１７","E_COORD97":172085.75,"N_COORD97":2570722.1600000001,"ADDRESS":"大屯寮８９號之１７","OBJECTID":183413},"geometry":{"x":172085.75000000093,"y":2570722.1600000001}},{"attributes":{"ID":183415,"DIS_CODE":0,"TOWNNAME":"下營區","LI":"大屯里","LIN":"11鄰","STREET":" ","SECT":" ","MAREA":"大屯寮","LANE":" ","ALLEY":" ","HOUSE_NO":"８９號之１８","E_COORD97":172600.45000000001,"N_COORD97":2570948.9199999999,"ADDRESS":"大屯寮８９號之１８","OBJECTID":183414},"geometry":{"x":172600.45000000019,"y":2570948.9200000018}},{"attributes":{"ID":183416,"DIS_CODE":0,"TOWNNAME":"下營區","LI":"大屯里","LIN":"11鄰","STREET":" ","SECT":" ","MAREA":"大屯寮","LANE":" ","ALLEY":" ","HOUSE_NO":"８９號之２１","E_COORD97":172328.10000000001,"N_COORD97":2570790.8199999998,"ADDRESS":"大屯寮８９號之２１","OBJECTID":183415},"geometry":{"x":172328.10000000149,"y":2570790.8200000022}},{"attributes":{"ID":183417,"DIS_CODE":0,"TOWNNAME":"下營區","LI":"大屯里","LIN":"11鄰","STREET":" ","SECT":" ","MAREA":"大屯寮","LANE":" ","ALLEY":" ","HOUSE_NO":"８９號之２２","E_COORD97":172420.91,"N_COORD97":2570824.77,"ADDRESS":"大屯寮８９號之２２","OBJECTID":183416},"geometry":{"x":172420.91000000015,"y":2570824.7699999996}},{"attributes":{"ID":183418,"DIS_CODE":0,"TOWNNAME":"仁德區","LI":"仁德里","LIN":"22鄰","STREET":"中山路","SECT":" ","MAREA":" ","LANE":"８７５巷","ALLEY":"６弄","HOUSE_NO":"８號","E_COORD97":172392.48272599999,"N_COORD97":2541562.0328299999,"ADDRESS":"中山路８７５巷６弄８號","OBJECTID":183417},"geometry":{"x":172392.48272600118,"y":2541562.0328250006}},{"attributes":{"ID":183419,"DIS_CODE":0,"TOWNNAME":"歸仁區","LI":"七甲里","LIN":"14鄰","STREET":"南丁路","SECT":" ","MAREA":" ","LANE":"５９１巷","ALLEY":"５１弄","HOUSE_NO":"２號","E_COORD97":175889.00314399999,"N_COORD97":2543109.31831,"ADDRESS":"南丁路５９１巷５１弄２號","OBJECTID":183418},"geometry":{"x":175889.00314399973,"y":2543109.3183060009}},{"attributes":{"ID":183420,"DIS_CODE":0,"TOWNNAME":"仁德區","LI":"仁愛里","LIN":"4鄰","STREET":" ","SECT":" ","MAREA":"仁愛","LANE":" ","ALLEY":" ","HOUSE_NO":"６２號","E_COORD97":170345.05850000001,"N_COORD97":2540006.5078799999,"ADDRESS":"仁愛６２號","OBJECTID":183419},"geometry":{"x":170345.05850000028,"y":2540006.5078830011}},{"attributes":{"ID":183421,"DIS_CODE":0,"TOWNNAME":"歸仁區","LI":"七甲里","LIN":"14鄰","STREET":"南丁路","SECT":" ","MAREA":" ","LANE":"５９１巷","ALLEY":"５１弄","HOUSE_NO":"６號","E_COORD97":175886.67076800001,"N_COORD97":2543104.6616400001,"ADDRESS":"南丁路５９１巷５１弄６號","OBJECTID":183420},"geometry":{"x":175886.67076800019,"y":2543104.6616420001}},{"attributes":{"ID":183422,"DIS_CODE":0,"TOWNNAME":"歸仁區","LI":"沙崙里","LIN":"10鄰","STREET":" ","SECT":" ","MAREA":"沙崙","LANE":" ","ALLEY":" ","HOUSE_NO":"３９１號","E_COORD97":180489.57999999999,"N_COORD97":2537887.25,"ADDRESS":"沙崙３９１號","OBJECTID":183421},"geometry":{"x":180489.58000000101,"y":2537887.2500000019}},{"attributes":{"ID":183423,"DIS_CODE":0,"TOWNNAME":"歸仁區","LI":"沙崙里","LIN":"10鄰","STREET":" ","SECT":" ","MAREA":"沙崙","LANE":" ","ALLEY":" ","HOUSE_NO":"３８６號","E_COORD97":180488.39999999999,"N_COORD97":2537848.5499999998,"ADDRESS":"沙崙３８６號","OBJECTID":183422},"geometry":{"x":180488.40000000037,"y":2537848.5500000026}},{"attributes":{"ID":183424,"DIS_CODE":0,"TOWNNAME":"歸仁區","LI":"七甲里","LIN":"14鄰","STREET":"南丁路","SECT":" ","MAREA":" ","LANE":"５９１巷","ALLEY":"５１弄","HOUSE_NO":"８號","E_COORD97":175884.33839300001,"N_COORD97":2543100.2166499998,"ADDRESS":"南丁路５９１巷５１弄８號","OBJECTID":183423},"geometry":{"x":175884.33839299995,"y":2543100.2166450005}},{"attributes":{"ID":183425,"DIS_CODE":0,"TOWNNAME":"歸仁區","LI":"後市里","LIN":"20鄰","STREET":"民族北街","SECT":" ","MAREA":" ","LANE":"１２巷","ALLEY":"３弄","HOUSE_NO":"８號","E_COORD97":177471.71390800001,"N_COORD97":2540900.3070399999,"ADDRESS":"民族北街１２巷３弄８號","OBJECTID":183424},"geometry":{"x":177471.71390799992,"y":2540900.3070440032}},{"attributes":{"ID":183426,"DIS_CODE":0,"TOWNNAME":"歸仁區","LI":"後市里","LIN":"20鄰","STREET":"民族北街","SECT":" ","MAREA":" ","LANE":"１２巷","ALLEY":"３弄","HOUSE_NO":"１０號","E_COORD97":177472.985113,"N_COORD97":2540902.1062099999,"ADDRESS":"民族北街１２巷３弄１０號","OBJECTID":183425},"geometry":{"x":177472.98511299957,"y":2540902.1062100008}},{"attributes":{"ID":183427,"DIS_CODE":0,"TOWNNAME":"歸仁區","LI":"後市里","LIN":"32鄰","STREET":"民族北街","SECT":" ","MAREA":" ","LANE":"３１巷","ALLEY":"１０","HOUSE_NO":"５號","E_COORD97":177390.144952,"N_COORD97":2540948.9903500001,"ADDRESS":"民族北街３１巷１０５號","OBJECTID":183426},"geometry":{"x":177390.14495200012,"y":2540948.9903510027}},{"attributes":{"ID":183428,"DIS_CODE":0,"TOWNNAME":"歸仁區","LI":"沙崙里","LIN":"10鄰","STREET":" ","SECT":" ","MAREA":"沙崙","LANE":" ","ALLEY":" ","HOUSE_NO":"３９９號","E_COORD97":180437.26999999999,"N_COORD97":2537870.7000000002,"ADDRESS":"沙崙３９９號","OBJECTID":183427},"geometry":{"x":180437.27000000048,"y":2537870.6999999993}},{"attributes":{"ID":183429,"DIS_CODE":0,"TOWNNAME":"關廟區","LI":"山西里","LIN":"6鄰","STREET":"文衡路","SECT":" ","MAREA":" ","LANE":"１７０巷","ALLEY":"２弄","HOUSE_NO":"１號","E_COORD97":180947.19661300001,"N_COORD97":2540471.7600099999,"ADDRESS":"文衡路１７０巷２弄１號","OBJECTID":183428},"geometry":{"x":180947.19661299977,"y":2540471.7600110006}},{"attributes":{"ID":183430,"DIS_CODE":0,"TOWNNAME":"下營區","LI":"大屯里","LIN":"11鄰","STREET":" ","SECT":" ","MAREA":"大屯寮","LANE":" ","ALLEY":" ","HOUSE_NO":"８９號之２５","E_COORD97":172097.73999999999,"N_COORD97":2570679.1099999999,"ADDRESS":"大屯寮８９號之２５","OBJECTID":183429},"geometry":{"x":172097.74000000115,"y":2570679.1100000013}},{"attributes":{"ID":183431,"DIS_CODE":0,"TOWNNAME":"下營區","LI":"大屯里","LIN":"11鄰","STREET":" ","SECT":" ","MAREA":"大屯寮","LANE":" ","ALLEY":" ","HOUSE_NO":"８９號之２６","E_COORD97":172097.5,"N_COORD97":2570696.7400000002,"ADDRESS":"大屯寮８９號之２６","OBJECTID":183430},"geometry":{"x":172097.50000000093,"y":2570696.7400000002}},{"attributes":{"ID":183432,"DIS_CODE":0,"TOWNNAME":"下營區","LI":"大屯里","LIN":"11鄰","STREET":" ","SECT":" ","MAREA":"大屯寮","LANE":" ","ALLEY":" ","HOUSE_NO":"８９號之２７","E_COORD97":172075.94,"N_COORD97":2570674.3700000001,"ADDRESS":"大屯寮８９號之２７","OBJECTID":183431},"geometry":{"x":172075.94000000134,"y":2570674.3699999992}},{"attributes":{"ID":183433,"DIS_CODE":0,"TOWNNAME":"佳里區","LI":"安西里","LIN":"38鄰","STREET":"文化路","SECT":" ","MAREA":" ","LANE":"５３６巷","ALLEY":"８弄","HOUSE_NO":"１６號","E_COORD97":164916.97,"N_COORD97":2562627.7000000002,"ADDRESS":"文化路５３６巷８弄１６號","OBJECTID":183432},"geometry":{"x":164916.96999999974,"y":2562627.6999999993}},{"attributes":{"ID":183434,"DIS_CODE":0,"TOWNNAME":"歸仁區","LI":"七甲里","LIN":"14鄰","STREET":"南丁路","SECT":" ","MAREA":" ","LANE":"５９１巷","ALLEY":"５１弄","HOUSE_NO":"１０號","E_COORD97":175882.05069800001,"N_COORD97":2543095.0045699999,"ADDRESS":"南丁路５９１巷５１弄１０號","OBJECTID":183433},"geometry":{"x":175882.05069800001,"y":2543095.0045679994}},{"attributes":{"ID":183435,"DIS_CODE":0,"TOWNNAME":"下營區","LI":"大屯里","LIN":"11鄰","STREET":" ","SECT":" ","MAREA":"大屯寮","LANE":" ","ALLEY":" ","HOUSE_NO":"８９號之２８","E_COORD97":172080.01999999999,"N_COORD97":2570668.27,"ADDRESS":"大屯寮８９號之２８","OBJECTID":183434},"geometry":{"x":172080.02000000048,"y":2570668.2700000014}},{"attributes":{"ID":183436,"DIS_CODE":0,"TOWNNAME":"歸仁區","LI":"七甲里","LIN":"14鄰","STREET":"南丁路","SECT":" ","MAREA":" ","LANE":"５９１巷","ALLEY":"５１弄","HOUSE_NO":"１２號","E_COORD97":175880.354425,"N_COORD97":2543090.7712400001,"ADDRESS":"南丁路５９１巷５１弄１２號","OBJECTID":183435},"geometry":{"x":175880.35442500096,"y":2543090.7712370008}},{"attributes":{"ID":183437,"DIS_CODE":0,"TOWNNAME":"下營區","LI":"大屯里","LIN":"11鄰","STREET":" ","SECT":" ","MAREA":"大屯寮","LANE":" ","ALLEY":" ","HOUSE_NO":"８９號之２９","E_COORD97":172074.67999999999,"N_COORD97":2570664.7200000002,"ADDRESS":"大屯寮８９號之２９","OBJECTID":183436},"geometry":{"x":172074.6799999997,"y":2570664.7200000007}},{"attributes":{"ID":183438,"DIS_CODE":0,"TOWNNAME":"下營區","LI":"大屯里","LIN":"11鄰","STREET":" ","SECT":" ","MAREA":"大屯寮","LANE":" ","ALLEY":" ","HOUSE_NO":"８９號之２","E_COORD97":172175.20000000001,"N_COORD97":2570762.3999999999,"ADDRESS":"大屯寮８９號之２","OBJECTID":183437},"geometry":{"x":172175.20000000019,"y":2570762.4000000022}},{"attributes":{"ID":183439,"DIS_CODE":0,"TOWNNAME":"南區","LI":"鯤鯓里","LIN":"14鄰","STREET":"鯤鯓路","SECT":" ","MAREA":" ","LANE":"１６２巷","ALLEY":"２５弄","HOUSE_NO":"１６號之１","E_COORD97":165027.26142,"N_COORD97":2540256.6876699999,"ADDRESS":"鯤鯓路１６２巷２５弄１６號之１","OBJECTID":183438},"geometry":{"x":165027.26142000034,"y":2540256.6876709983}},{"attributes":{"ID":183440,"DIS_CODE":0,"TOWNNAME":"永康區","LI":"正強里","LIN":"20鄰","STREET":"中山南路","SECT":" ","MAREA":" ","LANE":"４７１巷","ALLEY":"２７弄","HOUSE_NO":"７號","E_COORD97":173135.38,"N_COORD97":2547198.9100000001,"ADDRESS":"中山南路４７１巷２７弄７號","OBJECTID":183439},"geometry":{"x":173135.38000000082,"y":2547198.910000002}},{"attributes":{"ID":183441,"DIS_CODE":0,"TOWNNAME":"歸仁區","LI":"七甲里","LIN":"14鄰","STREET":"南丁路","SECT":" ","MAREA":" ","LANE":"５９１巷","ALLEY":"５１弄","HOUSE_NO":"１６號","E_COORD97":175878.87018599999,"N_COORD97":2543086.53791,"ADDRESS":"南丁路５９１巷５１弄１６號","OBJECTID":183440},"geometry":{"x":175878.87018600106,"y":2543086.5379060041}},{"attributes":{"ID":183442,"DIS_CODE":0,"TOWNNAME":"歸仁區","LI":"七甲里","LIN":"14鄰","STREET":"南丁路","SECT":" ","MAREA":" ","LANE":"５９１巷","ALLEY":"５１弄","HOUSE_NO":"１８號","E_COORD97":175876.96187900001,"N_COORD97":2543082.7279099999,"ADDRESS":"南丁路５９１巷５１弄１８號","OBJECTID":183441},"geometry":{"x":175876.96187900193,"y":2543082.7279080003}},{"attributes":{"ID":183443,"DIS_CODE":0,"TOWNNAME":"安南區","LI":"鳳凰里","LIN":"20鄰","STREET":"怡安路","SECT":"二段","MAREA":" ","LANE":"５４５巷","ALLEY":"６弄","HOUSE_NO":"１０號","E_COORD97":167510.14999999999,"N_COORD97":2549408.4900000002,"ADDRESS":"怡安路二段５４５巷６弄１０號","OBJECTID":183442},"geometry":{"x":167510.15000000037,"y":2549408.4900000039}},{"attributes":{"ID":183444,"DIS_CODE":0,"TOWNNAME":"安南區","LI":"鳳凰里","LIN":"20鄰","STREET":"怡安路","SECT":"二段","MAREA":" ","LANE":"５４５巷","ALLEY":"６弄","HOUSE_NO":"１２號","E_COORD97":167505.66,"N_COORD97":2549409.46,"ADDRESS":"怡安路二段５４５巷６弄１２號","OBJECTID":183443},"geometry":{"x":167505.66000000108,"y":2549409.4600000046}},{"attributes":{"ID":183445,"DIS_CODE":0,"TOWNNAME":"下營區","LI":"大屯里","LIN":"11鄰","STREET":" ","SECT":" ","MAREA":"大屯寮","LANE":" ","ALLEY":" ","HOUSE_NO":"８９號之３０","E_COORD97":172051.82999999999,"N_COORD97":2570646.79,"ADDRESS":"大屯寮８９號之３０","OBJECTID":183444},"geometry":{"x":172051.83000000007,"y":2570646.790000001}},{"attributes":{"ID":183446,"DIS_CODE":0,"TOWNNAME":"下營區","LI":"大屯里","LIN":"11鄰","STREET":" ","SECT":" ","MAREA":"大屯寮","LANE":" ","ALLEY":" ","HOUSE_NO":"８９號之３５","E_COORD97":172233.60000000001,"N_COORD97":2570956.3300000001,"ADDRESS":"大屯寮８９號之３５","OBJECTID":183445},"geometry":{"x":172233.60000000056,"y":2570956.3300000019}},{"attributes":{"ID":183447,"DIS_CODE":0,"TOWNNAME":"安南區","LI":"鳳凰里","LIN":"20鄰","STREET":"怡安路","SECT":"二段","MAREA":" ","LANE":"５４５巷","ALLEY":"６弄","HOUSE_NO":"１４號","E_COORD97":167501.75,"N_COORD97":2549410.54,"ADDRESS":"怡安路二段５４５巷６弄１４號","OBJECTID":183446},"geometry":{"x":167501.75000000093,"y":2549410.5400000028}},{"attributes":{"ID":183448,"DIS_CODE":0,"TOWNNAME":"下營區","LI":"大屯里","LIN":"11鄰","STREET":" ","SECT":" ","MAREA":"大屯寮","LANE":" ","ALLEY":" ","HOUSE_NO":"８９號之３９","E_COORD97":172182.19,"N_COORD97":2570857.7000000002,"ADDRESS":"大屯寮８９號之３９","OBJECTID":183447},"geometry":{"x":172182.19000000041,"y":2570857.7000000011}},{"attributes":{"ID":183449,"DIS_CODE":0,"TOWNNAME":"下營區","LI":"大屯里","LIN":"11鄰","STREET":" ","SECT":" ","MAREA":"大屯寮","LANE":" ","ALLEY":" ","HOUSE_NO":"８９號之３","E_COORD97":172130.32000000001,"N_COORD97":2570698.8599999999,"ADDRESS":"大屯寮８９號之３","OBJECTID":183448},"geometry":{"x":172130.3200000003,"y":2570698.8599999994}},{"attributes":{"ID":183450,"DIS_CODE":0,"TOWNNAME":"下營區","LI":"大屯里","LIN":"11鄰","STREET":" ","SECT":" ","MAREA":"大屯寮","LANE":" ","ALLEY":" ","HOUSE_NO":"８９號之４０","E_COORD97":172177.20999999999,"N_COORD97":2570859.7400000002,"ADDRESS":"大屯寮８９號之４０","OBJECTID":183449},"geometry":{"x":172177.21000000089,"y":2570859.7400000002}},{"attributes":{"ID":183451,"DIS_CODE":0,"TOWNNAME":"安南區","LI":"鳳凰里","LIN":"20鄰","STREET":"怡安路","SECT":"二段","MAREA":" ","LANE":"５４５巷","ALLEY":"６弄","HOUSE_NO":"１６號","E_COORD97":167497.35000000001,"N_COORD97":2549412.1000000001,"ADDRESS":"怡安路二段５４５巷６弄１６號","OBJECTID":183450},"geometry":{"x":167497.35000000056,"y":2549412.1000000015}},{"attributes":{"ID":183452,"DIS_CODE":0,"TOWNNAME":"下營區","LI":"大屯里","LIN":"11鄰","STREET":" ","SECT":" ","MAREA":"大屯寮","LANE":" ","ALLEY":" ","HOUSE_NO":"８９號之４","E_COORD97":172125.89000000001,"N_COORD97":2570697.75,"ADDRESS":"大屯寮８９號之４","OBJECTID":183451},"geometry":{"x":172125.88999999966,"y":2570697.75}},{"attributes":{"ID":183453,"DIS_CODE":0,"TOWNNAME":"下營區","LI":"大屯里","LIN":"11鄰","STREET":" ","SECT":" ","MAREA":"大屯寮","LANE":" ","ALLEY":" ","HOUSE_NO":"８９號之５０","E_COORD97":172279.13,"N_COORD97":2571491.5800000001,"ADDRESS":"大屯寮８９號之５０","OBJECTID":183452},"geometry":{"x":172279.13000000175,"y":2571491.5800000001}},{"attributes":{"ID":183454,"DIS_CODE":0,"TOWNNAME":"下營區","LI":"大屯里","LIN":"11鄰","STREET":" ","SECT":" ","MAREA":"大屯寮","LANE":" ","ALLEY":" ","HOUSE_NO":"８９之５５號","E_COORD97":172160.75,"N_COORD97":2570845.4399999999,"ADDRESS":"大屯寮８９之５５號","OBJECTID":183453},"geometry":{"x":172160.75,"y":2570845.4400000032}},{"attributes":{"ID":183455,"DIS_CODE":0,"TOWNNAME":"下營區","LI":"大屯里","LIN":"11鄰","STREET":" ","SECT":" ","MAREA":"大屯寮","LANE":" ","ALLEY":" ","HOUSE_NO":"８９號之６０","E_COORD97":172970.95000000001,"N_COORD97":2571146.5499999998,"ADDRESS":"大屯寮８９號之６０","OBJECTID":183454},"geometry":{"x":172970.95000000112,"y":2571146.5500000007}},{"attributes":{"ID":183456,"DIS_CODE":0,"TOWNNAME":"下營區","LI":"大屯里","LIN":"11鄰","STREET":" ","SECT":" ","MAREA":"大屯寮","LANE":" ","ALLEY":" ","HOUSE_NO":"８９號之７３","E_COORD97":172698.42000000001,"N_COORD97":2571283.2999999998,"ADDRESS":"大屯寮８９號之７３","OBJECTID":183455},"geometry":{"x":172698.41999999993,"y":2571283.3000000026}},{"attributes":{"ID":183457,"DIS_CODE":0,"TOWNNAME":"下營區","LI":"大屯里","LIN":"11鄰","STREET":" ","SECT":" ","MAREA":"大屯寮","LANE":" ","ALLEY":" ","HOUSE_NO":"８９號之７５","E_COORD97":172703.60000000001,"N_COORD97":2571284.4700000002,"ADDRESS":"大屯寮８９號之７５","OBJECTID":183456},"geometry":{"x":172703.60000000056,"y":2571284.4700000025}},{"attributes":{"ID":183458,"DIS_CODE":0,"TOWNNAME":"下營區","LI":"大屯里","LIN":"11鄰","STREET":" ","SECT":" ","MAREA":"大屯寮","LANE":" ","ALLEY":" ","HOUSE_NO":"８９號之７","E_COORD97":172209.56,"N_COORD97":2570777.5299999998,"ADDRESS":"大屯寮８９號之７","OBJECTID":183457},"geometry":{"x":172209.55999999959,"y":2570777.5300000012}},{"attributes":{"ID":183459,"DIS_CODE":0,"TOWNNAME":"下營區","LI":"大屯里","LIN":"11鄰","STREET":" ","SECT":" ","MAREA":"大屯寮","LANE":" ","ALLEY":" ","HOUSE_NO":"８９號之８","E_COORD97":172103.73999999999,"N_COORD97":2570728.1200000001,"ADDRESS":"大屯寮８９號之８","OBJECTID":183458},"geometry":{"x":172103.74000000022,"y":2570728.1200000029}},{"attributes":{"ID":183460,"DIS_CODE":0,"TOWNNAME":"下營區","LI":"大屯里","LIN":"11鄰","STREET":" ","SECT":" ","MAREA":"大屯寮","LANE":" ","ALLEY":" ","HOUSE_NO":"８９號之９","E_COORD97":172217.73000000001,"N_COORD97":2570988.1200000001,"ADDRESS":"大屯寮８９號之９","OBJECTID":183459},"geometry":{"x":172217.73000000045,"y":2570988.1200000048}},{"attributes":{"ID":183461,"DIS_CODE":0,"TOWNNAME":"下營區","LI":"大屯里","LIN":"11鄰","STREET":" ","SECT":" ","MAREA":"大屯寮","LANE":" ","ALLEY":" ","HOUSE_NO":"８９號","E_COORD97":172180.84,"N_COORD97":2570738.8199999998,"ADDRESS":"大屯寮８９號","OBJECTID":183460},"geometry":{"x":172180.83999999892,"y":2570738.820000004}},{"attributes":{"ID":183462,"DIS_CODE":0,"TOWNNAME":"南區","LI":"佛壇里","LIN":"10鄰","STREET":"灣裡路","SECT":" ","MAREA":" ","LANE":" ","ALLEY":" ","HOUSE_NO":"４６７號","E_COORD97":166276.22,"N_COORD97":2535869.48,"ADDRESS":"灣裡路４６７號","OBJECTID":183461},"geometry":{"x":166276.22000000067,"y":2535869.4800000004}},{"attributes":{"ID":183463,"DIS_CODE":0,"TOWNNAME":"安南區","LI":"鳳凰里","LIN":"20鄰","STREET":"怡安路","SECT":"二段","MAREA":" ","LANE":"５４５巷","ALLEY":"６弄","HOUSE_NO":"１８號","E_COORD97":167493.25,"N_COORD97":2549412.7799999998,"ADDRESS":"怡安路二段５４５巷６弄１８號","OBJECTID":183462},"geometry":{"x":167493.25000000093,"y":2549412.7800000012}},{"attributes":{"ID":183464,"DIS_CODE":0,"TOWNNAME":"安南區","LI":"鳳凰里","LIN":"20鄰","STREET":"怡安路","SECT":"二段","MAREA":" ","LANE":"５４５巷","ALLEY":"６弄","HOUSE_NO":"２２號","E_COORD97":167484.75,"N_COORD97":2549414.9100000001,"ADDRESS":"怡安路二段５４５巷６弄２２號","OBJECTID":183463},"geometry":{"x":167484.75000000093,"y":2549414.9100000001}},{"attributes":{"ID":183465,"DIS_CODE":0,"TOWNNAME":"安南區","LI":"鳳凰里","LIN":"20鄰","STREET":"怡安路","SECT":"二段","MAREA":" ","LANE":"５４５巷","ALLEY":"６弄","HOUSE_NO":"２４號","E_COORD97":167480.35000000001,"N_COORD97":2549415.6000000001,"ADDRESS":"怡安路二段５４５巷６弄２４號","OBJECTID":183464},"geometry":{"x":167480.35000000056,"y":2549415.5999999996}},{"attributes":{"ID":183466,"DIS_CODE":0,"TOWNNAME":"安南區","LI":"鳳凰里","LIN":"20鄰","STREET":"怡安路","SECT":"二段","MAREA":" ","LANE":"５４５巷","ALLEY":"６弄","HOUSE_NO":"２６號","E_COORD97":167476.04999999999,"N_COORD97":2549416.77,"ADDRESS":"怡安路二段５４５巷６弄２６號","OBJECTID":183465},"geometry":{"x":167476.05000000075,"y":2549416.7700000014}},{"attributes":{"ID":183467,"DIS_CODE":0,"TOWNNAME":"安南區","LI":"鳳凰里","LIN":"20鄰","STREET":"怡安路","SECT":"二段","MAREA":" ","LANE":"５４５巷","ALLEY":"６弄","HOUSE_NO":"２８號","E_COORD97":167471.85000000001,"N_COORD97":2549417.8399999999,"ADDRESS":"怡安路二段５４５巷６弄２８號","OBJECTID":183466},"geometry":{"x":167471.85000000056,"y":2549417.8399999999}},{"attributes":{"ID":183468,"DIS_CODE":0,"TOWNNAME":"安南區","LI":"鳳凰里","LIN":"20鄰","STREET":"怡安路","SECT":"二段","MAREA":" ","LANE":"５４５巷","ALLEY":"６弄","HOUSE_NO":"３０號","E_COORD97":167467.54999999999,"N_COORD97":2549418.8199999998,"ADDRESS":"怡安路二段５４５巷６弄３０號","OBJECTID":183467},"geometry":{"x":167467.55000000075,"y":2549418.8200000003}},{"attributes":{"ID":183469,"DIS_CODE":0,"TOWNNAME":"七股區","LI":"三股里","LIN":"11鄰","STREET":" ","SECT":" ","MAREA":"三股","LANE":" ","ALLEY":" ","HOUSE_NO":"３２號之１１","E_COORD97":159267.07999999999,"N_COORD97":2555523.6200000001,"ADDRESS":"三股３２號之１１","OBJECTID":183468},"geometry":{"x":159267.08000000007,"y":2555523.620000001}},{"attributes":{"ID":183470,"DIS_CODE":0,"TOWNNAME":"安南區","LI":"鳳凰里","LIN":"20鄰","STREET":"怡安路","SECT":"二段","MAREA":" ","LANE":"５４５巷","ALLEY":"６弄","HOUSE_NO":"３２號","E_COORD97":167463.35000000001,"N_COORD97":2549419.9900000002,"ADDRESS":"怡安路二段５４５巷６弄３２號","OBJECTID":183469},"geometry":{"x":167463.35000000056,"y":2549419.9900000021}},{"attributes":{"ID":183471,"DIS_CODE":0,"TOWNNAME":"安南區","LI":"鳳凰里","LIN":"20鄰","STREET":"怡安路","SECT":"二段","MAREA":" ","LANE":"５４５巷","ALLEY":"６弄","HOUSE_NO":"３４號","E_COORD97":167459.39147,"N_COORD97":2549420.7462300002,"ADDRESS":"怡安路二段５４５巷６弄３４號","OBJECTID":183470},"geometry":{"x":167459.39147000015,"y":2549420.7462290041}},{"attributes":{"ID":183472,"DIS_CODE":0,"TOWNNAME":"安南區","LI":"鳳凰里","LIN":"20鄰","STREET":"怡安路","SECT":"二段","MAREA":" ","LANE":"５４５巷","ALLEY":"６弄","HOUSE_NO":"３６號","E_COORD97":167455.15680900001,"N_COORD97":2549421.3812299999,"ADDRESS":"怡安路二段５４５巷６弄３６號","OBJECTID":183471},"geometry":{"x":167455.1568090003,"y":2549421.3812279999}},{"attributes":{"ID":183473,"DIS_CODE":0,"TOWNNAME":"安南區","LI":"鳳凰里","LIN":"20鄰","STREET":"怡安路","SECT":"二段","MAREA":" ","LANE":"５４５巷","ALLEY":"６弄","HOUSE_NO":"３８號","E_COORD97":167451.34561399999,"N_COORD97":2549423.92123,"ADDRESS":"怡安路二段５４５巷６弄３８號","OBJECTID":183472},"geometry":{"x":167451.34561400022,"y":2549423.9212270025}},{"attributes":{"ID":183474,"DIS_CODE":0,"TOWNNAME":"安南區","LI":"鳳凰里","LIN":"20鄰","STREET":"怡安路","SECT":"二段","MAREA":" ","LANE":"５４５巷","ALLEY":"６弄","HOUSE_NO":"４０號","E_COORD97":167447.74615200001,"N_COORD97":2549424.13289,"ADDRESS":"怡安路二段５４５巷６弄４０號","OBJECTID":183473},"geometry":{"x":167447.74615199957,"y":2549424.1328929998}},{"attributes":{"ID":183475,"DIS_CODE":0,"TOWNNAME":"安南區","LI":"鳳凰里","LIN":"20鄰","STREET":"怡安路","SECT":"二段","MAREA":" ","LANE":"５４５巷","ALLEY":"６弄","HOUSE_NO":"４２號","E_COORD97":167442.73000000001,"N_COORD97":2549426.6200000001,"ADDRESS":"怡安路二段５４５巷６弄４２號","OBJECTID":183474},"geometry":{"x":167442.73000000231,"y":2549426.6200000029}},{"attributes":{"ID":183476,"DIS_CODE":0,"TOWNNAME":"安南區","LI":"鳳凰里","LIN":"20鄰","STREET":"怡安路","SECT":"二段","MAREA":" ","LANE":"５４５巷","ALLEY":"６弄","HOUSE_NO":"４８號","E_COORD97":167429.06,"N_COORD97":2549428.77,"ADDRESS":"怡安路二段５４５巷６弄４８號","OBJECTID":183475},"geometry":{"x":167429.05999999959,"y":2549428.7699999996}},{"attributes":{"ID":183477,"DIS_CODE":0,"TOWNNAME":"安南區","LI":"鳳凰里","LIN":"20鄰","STREET":"怡安路","SECT":"二段","MAREA":" ","LANE":"５４５巷","ALLEY":"６弄","HOUSE_NO":"８號","E_COORD97":167514.35000000001,"N_COORD97":2549408,"ADDRESS":"怡安路二段５４５巷６弄８號","OBJECTID":183476},"geometry":{"x":167514.35000000056,"y":2549407.9999999981}},{"attributes":{"ID":183478,"DIS_CODE":0,"TOWNNAME":"安南區","LI":"鳳凰里","LIN":"20鄰","STREET":"怡安路","SECT":"二段","MAREA":" ","LANE":"５４５巷","ALLEY":"６弄","HOUSE_NO":"２０號","E_COORD97":167488.85000000001,"N_COORD97":2549413.7400000002,"ADDRESS":"怡安路二段５４５巷６弄２０號","OBJECTID":183477},"geometry":{"x":167488.85000000056,"y":2549413.7400000039}},{"attributes":{"ID":183479,"DIS_CODE":0,"TOWNNAME":"安南區","LI":"鳳凰里","LIN":"20鄰","STREET":"怡安路","SECT":"二段","MAREA":" ","LANE":"５４５巷","ALLEY":"６弄","HOUSE_NO":"６號","E_COORD97":167518.54999999999,"N_COORD97":2549406.3399999999,"ADDRESS":"怡安路二段５４５巷６弄６號","OBJECTID":183478},"geometry":{"x":167518.55000000075,"y":2549406.3400000017}},{"attributes":{"ID":183480,"DIS_CODE":0,"TOWNNAME":"安南區","LI":"鳳凰里","LIN":"20鄰","STREET":"怡安路","SECT":"二段","MAREA":" ","LANE":"５４５巷","ALLEY":"６弄","HOUSE_NO":"２號","E_COORD97":167529.68684000001,"N_COORD97":2549404.6595700001,"ADDRESS":"怡安路二段５４５巷６弄２號","OBJECTID":183479},"geometry":{"x":167529.6868399987,"y":2549404.6595710013}},{"attributes":{"ID":183481,"DIS_CODE":0,"TOWNNAME":"下營區","LI":"大屯里","LIN":"11鄰","STREET":" ","SECT":" ","MAREA":"大屯寮","LANE":" ","ALLEY":" ","HOUSE_NO":"９０號之１","E_COORD97":172231.98999999999,"N_COORD97":2570641.29,"ADDRESS":"大屯寮９０號之１","OBJECTID":183480},"geometry":{"x":172231.99000000115,"y":2570641.2899999991}},{"attributes":{"ID":183482,"DIS_CODE":0,"TOWNNAME":"新市區","LI":"港墘里","LIN":"11鄰","STREET":" ","SECT":" ","MAREA":"崙頂","LANE":" ","ALLEY":" ","HOUSE_NO":"４６號","E_COORD97":178758.01999999999,"N_COORD97":2552630,"ADDRESS":"崙頂４６號","OBJECTID":183481},"geometry":{"x":178758.01999999955,"y":2552630.0000000019}},{"attributes":{"ID":183483,"DIS_CODE":0,"TOWNNAME":"新市區","LI":"社內里","LIN":"11鄰","STREET":" ","SECT":" ","MAREA":"社內","LANE":" ","ALLEY":" ","HOUSE_NO":"１１８之１號","E_COORD97":176518.03,"N_COORD97":2552720.5499999998,"ADDRESS":"社內１１８之１號","OBJECTID":183482},"geometry":{"x":176518.02999999933,"y":2552720.5500000007}},{"attributes":{"ID":183484,"DIS_CODE":0,"TOWNNAME":"新市區","LI":"港墘里","LIN":"11鄰","STREET":" ","SECT":" ","MAREA":"崙頂","LANE":" ","ALLEY":" ","HOUSE_NO":"２９之１４號","E_COORD97":178821.42000000001,"N_COORD97":2552580.7999999998,"ADDRESS":"崙頂２９之１４號","OBJECTID":183483},"geometry":{"x":178821.41999999993,"y":2552580.8000000026}},{"attributes":{"ID":183485,"DIS_CODE":0,"TOWNNAME":"安南區","LI":"鳳凰里","LIN":"20鄰","STREET":"怡安路","SECT":"二段","MAREA":" ","LANE":"５４５巷","ALLEY":"６弄","HOUSE_NO":"４４號","E_COORD97":167438.44,"N_COORD97":2549427.3999999999,"ADDRESS":"怡安路二段５４５巷６弄４４號","OBJECTID":183484},"geometry":{"x":167438.44000000134,"y":2549427.4000000022}},{"attributes":{"ID":183486,"DIS_CODE":0,"TOWNNAME":"下營區","LI":"新興里","LIN":"16鄰","STREET":"裕農街","SECT":" ","MAREA":" ","LANE":"１０２巷","ALLEY":"２７弄","HOUSE_NO":"６號","E_COORD97":175180.555933,"N_COORD97":2570051.4287899998,"ADDRESS":"裕農街１０２巷２７弄６號","OBJECTID":183485},"geometry":{"x":175180.55593300145,"y":2570051.4287880007}},{"attributes":{"ID":183487,"DIS_CODE":0,"TOWNNAME":"關廟區","LI":"田中里","LIN":"3鄰","STREET":"田大路","SECT":" ","MAREA":" ","LANE":"１７２巷","ALLEY":"５弄","HOUSE_NO":"３號","E_COORD97":184772.310574,"N_COORD97":2533672.3560500001,"ADDRESS":"田大路１７２巷５弄３號","OBJECTID":183486},"geometry":{"x":184772.31057400163,"y":2533672.3560530022}},{"attributes":{"ID":183488,"DIS_CODE":0,"TOWNNAME":"歸仁區","LI":"武東里","LIN":"3鄰","STREET":"武東二街","SECT":" ","MAREA":" ","LANE":"２０巷","ALLEY":"２７弄","HOUSE_NO":"２０號","E_COORD97":175486.36025600001,"N_COORD97":2535237.2360100001,"ADDRESS":"武東二街２０巷２７弄２０號","OBJECTID":183487},"geometry":{"x":175486.36025600135,"y":2535237.236010002}},{"attributes":{"ID":183489,"DIS_CODE":0,"TOWNNAME":"關廟區","LI":"田中里","LIN":"3鄰","STREET":"田大路","SECT":" ","MAREA":" ","LANE":"１７２巷","ALLEY":"５弄","HOUSE_NO":"５號","E_COORD97":184813.41379200001,"N_COORD97":2533637.64274,"ADDRESS":"田大路１７２巷５弄５號","OBJECTID":183488},"geometry":{"x":184813.41379200108,"y":2533637.6427380014}},{"attributes":{"ID":183490,"DIS_CODE":0,"TOWNNAME":"關廟區","LI":"田中里","LIN":"3鄰","STREET":"田大路","SECT":" ","MAREA":" ","LANE":"１７２巷","ALLEY":"５弄","HOUSE_NO":"３之１號","E_COORD97":184787.98912000001,"N_COORD97":2533674.4727099999,"ADDRESS":"田大路１７２巷５弄３之１號","OBJECTID":183489},"geometry":{"x":184787.9891200019,"y":2533674.4727100004}},{"attributes":{"ID":183491,"DIS_CODE":0,"TOWNNAME":"關廟區","LI":"松腳里","LIN":"1鄰","STREET":"四維街","SECT":" ","MAREA":" ","LANE":"１４２巷","ALLEY":"１弄","HOUSE_NO":"１號","E_COORD97":181889.787622,"N_COORD97":2539737.8337400001,"ADDRESS":"四維街１４２巷１弄１號","OBJECTID":183490},"geometry":{"x":181889.78762200009,"y":2539737.8337360024}},{"attributes":{"ID":183492,"DIS_CODE":0,"TOWNNAME":"歸仁區","LI":"八甲里","LIN":"14鄰","STREET":"大明街","SECT":" ","MAREA":" ","LANE":"１３９巷","ALLEY":"３６弄","HOUSE_NO":"３０號","E_COORD97":178432.95669299999,"N_COORD97":2542061.0340300002,"ADDRESS":"大明街１３９巷３６弄３０號","OBJECTID":183491},"geometry":{"x":178432.95669300202,"y":2542061.0340280011}},{"attributes":{"ID":183493,"DIS_CODE":0,"TOWNNAME":"關廟區","LI":"松腳里","LIN":"2鄰","STREET":"松平街","SECT":" ","MAREA":" ","LANE":"５６巷","ALLEY":"３弄","HOUSE_NO":"９號","E_COORD97":181974.42865700001,"N_COORD97":2539748.8404000001,"ADDRESS":"松平街５６巷３弄９號","OBJECTID":183492},"geometry":{"x":181974.42865699995,"y":2539748.8403960019}},{"attributes":{"ID":183494,"DIS_CODE":0,"TOWNNAME":"東區","LI":"忠孝里","LIN":"32鄰","STREET":"崇明六街","SECT":" ","MAREA":" ","LANE":"８巷","ALLEY":"３弄","HOUSE_NO":"１３號","E_COORD97":169668.287373,"N_COORD97":2542184.8375200001,"ADDRESS":"崇明六街８巷３弄１３號","OBJECTID":183493},"geometry":{"x":169668.28737299982,"y":2542184.8375160005}},{"attributes":{"ID":183495,"DIS_CODE":0,"TOWNNAME":"新市區","LI":"港墘里","LIN":"11鄰","STREET":" ","SECT":" ","MAREA":"崙頂","LANE":" ","ALLEY":" ","HOUSE_NO":"３９號","E_COORD97":178735.06,"N_COORD97":2552557.75,"ADDRESS":"崙頂３９號","OBJECTID":183494},"geometry":{"x":178735.06000000052,"y":2552557.7500000019}},{"attributes":{"ID":183496,"DIS_CODE":0,"TOWNNAME":"新市區","LI":"港墘里","LIN":"11鄰","STREET":" ","SECT":" ","MAREA":"崙頂","LANE":" ","ALLEY":" ","HOUSE_NO":"２９之１１號","E_COORD97":178834.45000000001,"N_COORD97":2552566.79,"ADDRESS":"崙頂２９之１１號","OBJECTID":183495},"geometry":{"x":178834.45000000112,"y":2552566.7899999991}},{"attributes":{"ID":183497,"DIS_CODE":0,"TOWNNAME":"新市區","LI":"港墘里","LIN":"11鄰","STREET":" ","SECT":" ","MAREA":"崙頂","LANE":" ","ALLEY":" ","HOUSE_NO":"２９之１３號","E_COORD97":178829.73999999999,"N_COORD97":2552567.04,"ADDRESS":"崙頂２９之１３號","OBJECTID":183496},"geometry":{"x":178829.74000000022,"y":2552567.0400000028}},{"attributes":{"ID":183498,"DIS_CODE":0,"TOWNNAME":"七股區","LI":"十份里","LIN":"11鄰","STREET":" ","SECT":" ","MAREA":"十份","LANE":" ","ALLEY":" ","HOUSE_NO":"５２號之１","E_COORD97":158078.95000000001,"N_COORD97":2554446.98,"ADDRESS":"十份５２號之１","OBJECTID":183497},"geometry":{"x":158078.95000000112,"y":2554446.9800000042}},{"attributes":{"ID":183499,"DIS_CODE":0,"TOWNNAME":"南區","LI":"日新里","LIN":"10鄰","STREET":"新興路","SECT":" ","MAREA":" ","LANE":" ","ALLEY":" ","HOUSE_NO":"４１１號","E_COORD97":166997.42000000001,"N_COORD97":2541723.5800000001,"ADDRESS":"新興路４１１號","OBJECTID":183498},"geometry":{"x":166997.42000000086,"y":2541723.5800000001}},{"attributes":{"ID":183500,"DIS_CODE":0,"TOWNNAME":"南區","LI":"日新里","LIN":"10鄰","STREET":"新興路","SECT":" ","MAREA":" ","LANE":" ","ALLEY":" ","HOUSE_NO":"４１３號","E_COORD97":166992.66,"N_COORD97":2541720.1099999999,"ADDRESS":"新興路４１３號","OBJECTID":183499},"geometry":{"x":166992.66000000108,"y":2541720.1099999994}},{"attributes":{"ID":183501,"DIS_CODE":0,"TOWNNAME":"七股區","LI":"十份里","LIN":"11鄰","STREET":" ","SECT":" ","MAREA":"十份","LANE":" ","ALLEY":" ","HOUSE_NO":"５２號","E_COORD97":158039.57999999999,"N_COORD97":2554450.6699999999,"ADDRESS":"十份５２號","OBJECTID":183500},"geometry":{"x":158039.58000000007,"y":2554450.6699999999}},{"attributes":{"ID":183502,"DIS_CODE":0,"TOWNNAME":"七股區","LI":"十份里","LIN":"11鄰","STREET":" ","SECT":" ","MAREA":"十份","LANE":" ","ALLEY":" ","HOUSE_NO":"５３號之１","E_COORD97":157895.95999999999,"N_COORD97":2554461.9100000001,"ADDRESS":"十份５３號之１","OBJECTID":183501},"geometry":{"x":157895.95999999996,"y":2554461.910000002}},{"attributes":{"ID":183503,"DIS_CODE":0,"TOWNNAME":"官田區","LI":"湖山里","LIN":"15鄰","STREET":" ","SECT":" ","MAREA":"烏山頭","LANE":" ","ALLEY":" ","HOUSE_NO":"９２號","E_COORD97":183617.95000000001,"N_COORD97":2567993.6499999999,"ADDRESS":"烏山頭９２號","OBJECTID":183502},"geometry":{"x":183617.94999999925,"y":2567993.6500000041}},{"attributes":{"ID":183504,"DIS_CODE":0,"TOWNNAME":"安南區","LI":"四草里","LIN":"4鄰","STREET":"大眾五街","SECT":" ","MAREA":" ","LANE":" ","ALLEY":" ","HOUSE_NO":"６２號","E_COORD97":160795.370853,"N_COORD97":2546249.5583899999,"ADDRESS":"大眾五街６２號","OBJECTID":183503},"geometry":{"x":160795.37085300125,"y":2546249.5583929997}},{"attributes":{"ID":183505,"DIS_CODE":0,"TOWNNAME":"七股區","LI":"三股里","LIN":"11鄰","STREET":" ","SECT":" ","MAREA":"三股","LANE":" ","ALLEY":" ","HOUSE_NO":"３２號之１２","E_COORD97":159264.23000000001,"N_COORD97":2555526.4199999999,"ADDRESS":"三股３２號之１２","OBJECTID":183504},"geometry":{"x":159264.23000000045,"y":2555526.4200000018}},{"attributes":{"ID":183506,"DIS_CODE":0,"TOWNNAME":"七股區","LI":"三股里","LIN":"11鄰","STREET":" ","SECT":" ","MAREA":"三股","LANE":" ","ALLEY":" ","HOUSE_NO":"３２號之１３","E_COORD97":159261.41,"N_COORD97":2555529.1800000002,"ADDRESS":"三股３２號之１３","OBJECTID":183505},"geometry":{"x":159261.41000000015,"y":2555529.1799999997}},{"attributes":{"ID":183507,"DIS_CODE":0,"TOWNNAME":"七股區","LI":"三股里","LIN":"11鄰","STREET":" ","SECT":" ","MAREA":"三股","LANE":" ","ALLEY":" ","HOUSE_NO":"３２號之１４","E_COORD97":159258.29000000001,"N_COORD97":2555531.7999999998,"ADDRESS":"三股３２號之１４","OBJECTID":183506},"geometry":{"x":159258.29000000004,"y":2555531.8000000007}},{"attributes":{"ID":183508,"DIS_CODE":0,"TOWNNAME":"七股區","LI":"三股里","LIN":"11鄰","STREET":" ","SECT":" ","MAREA":"三股","LANE":" ","ALLEY":" ","HOUSE_NO":"３２號之１","E_COORD97":159304.48999999999,"N_COORD97":2555594.6400000001,"ADDRESS":"三股３２號之１","OBJECTID":183507},"geometry":{"x":159304.49000000115,"y":2555594.6400000006}},{"attributes":{"ID":183509,"DIS_CODE":0,"TOWNNAME":"七股區","LI":"三股里","LIN":"11鄰","STREET":" ","SECT":" ","MAREA":"三股","LANE":" ","ALLEY":" ","HOUSE_NO":"３２號之２０","E_COORD97":159239.17999999999,"N_COORD97":2555562.2200000002,"ADDRESS":"三股３２號之２０","OBJECTID":183508},"geometry":{"x":159239.18000000156,"y":2555562.2200000025}},{"attributes":{"ID":183510,"DIS_CODE":0,"TOWNNAME":"七股區","LI":"三股里","LIN":"11鄰","STREET":" ","SECT":" ","MAREA":"三股","LANE":" ","ALLEY":" ","HOUSE_NO":"３２號之２","E_COORD97":159263.60999999999,"N_COORD97":2555592.3999999999,"ADDRESS":"三股３２號之２","OBJECTID":183509},"geometry":{"x":159263.61000000034,"y":2555592.4000000004}},{"attributes":{"ID":183511,"DIS_CODE":0,"TOWNNAME":"南區","LI":"日新里","LIN":"10鄰","STREET":"新興路","SECT":" ","MAREA":" ","LANE":" ","ALLEY":" ","HOUSE_NO":"４１５號","E_COORD97":166985.81,"N_COORD97":2541715.7599999998,"ADDRESS":"新興路４１５號","OBJECTID":183510},"geometry":{"x":166985.81000000052,"y":2541715.7599999998}},{"attributes":{"ID":183512,"DIS_CODE":0,"TOWNNAME":"南區","LI":"喜北里","LIN":"10鄰","STREET":"喜樹路","SECT":" ","MAREA":" ","LANE":" ","ALLEY":" ","HOUSE_NO":"１４８號","E_COORD97":165871.29000000001,"N_COORD97":2538270.3500000001,"ADDRESS":"喜樹路１４８號","OBJECTID":183511},"geometry":{"x":165871.29000000004,"y":2538270.3499999996}},{"attributes":{"ID":183513,"DIS_CODE":0,"TOWNNAME":"七股區","LI":"三股里","LIN":"11鄰","STREET":" ","SECT":" ","MAREA":"三股","LANE":" ","ALLEY":" ","HOUSE_NO":"３２號之３","E_COORD97":159302.97,"N_COORD97":2555512.1600000001,"ADDRESS":"三股３２號之３","OBJECTID":183512},"geometry":{"x":159302.96999999974,"y":2555512.1600000001}},{"attributes":{"ID":183514,"DIS_CODE":0,"TOWNNAME":"七股區","LI":"三股里","LIN":"11鄰","STREET":" ","SECT":" ","MAREA":"三股","LANE":" ","ALLEY":" ","HOUSE_NO":"３２號之４","E_COORD97":159284.04999999999,"N_COORD97":2555567.0600000001,"ADDRESS":"三股３２號之４","OBJECTID":183513},"geometry":{"x":159284.04999999981,"y":2555567.0600000005}},{"attributes":{"ID":183515,"DIS_CODE":0,"TOWNNAME":"七股區","LI":"三股里","LIN":"11鄰","STREET":" ","SECT":" ","MAREA":"三股","LANE":" ","ALLEY":" ","HOUSE_NO":"３２號之５","E_COORD97":159285.07999999999,"N_COORD97":2555507.8100000001,"ADDRESS":"三股３２號之５","OBJECTID":183514},"geometry":{"x":159285.08000000101,"y":2555507.8100000005}},{"attributes":{"ID":183516,"DIS_CODE":0,"TOWNNAME":"七股區","LI":"三股里","LIN":"11鄰","STREET":" ","SECT":" ","MAREA":"三股","LANE":" ","ALLEY":" ","HOUSE_NO":"３２號之６","E_COORD97":159281.95999999999,"N_COORD97":2555510.3100000001,"ADDRESS":"三股３２號之６","OBJECTID":183515},"geometry":{"x":159281.96000000089,"y":2555510.3100000024}},{"attributes":{"ID":183517,"DIS_CODE":0,"TOWNNAME":"鹽水區","LI":"舊營里","LIN":"10鄰","STREET":" ","SECT":" ","MAREA":"舊營","LANE":" ","ALLEY":" ","HOUSE_NO":"８９號之１","E_COORD97":174636.66,"N_COORD97":2577411.5499999998,"ADDRESS":"舊營８９號之１","OBJECTID":183516},"geometry":{"x":174636.66000000015,"y":2577411.5500000007}},{"attributes":{"ID":183518,"DIS_CODE":0,"TOWNNAME":"七股區","LI":"三股里","LIN":"11鄰","STREET":" ","SECT":" ","MAREA":"三股","LANE":" ","ALLEY":" ","HOUSE_NO":"３２號之７","E_COORD97":159279.01000000001,"N_COORD97":2555513.0299999998,"ADDRESS":"三股３２號之７","OBJECTID":183517},"geometry":{"x":159279.00999999978,"y":2555513.0299999993}},{"attributes":{"ID":183519,"DIS_CODE":0,"TOWNNAME":"七股區","LI":"三股里","LIN":"11鄰","STREET":" ","SECT":" ","MAREA":"三股","LANE":" ","ALLEY":" ","HOUSE_NO":"３２號之８","E_COORD97":159276.10000000001,"N_COORD97":2555515.3900000001,"ADDRESS":"三股３２號之８","OBJECTID":183518},"geometry":{"x":159276.09999999963,"y":2555515.3899999987}},{"attributes":{"ID":183520,"DIS_CODE":0,"TOWNNAME":"七股區","LI":"三股里","LIN":"11鄰","STREET":" ","SECT":" ","MAREA":"三股","LANE":" ","ALLEY":" ","HOUSE_NO":"３２號之９","E_COORD97":159273.01000000001,"N_COORD97":2555518.21,"ADDRESS":"三股３２號之９","OBJECTID":183519},"geometry":{"x":159273.01000000071,"y":2555518.2100000028}},{"attributes":{"ID":183521,"DIS_CODE":0,"TOWNNAME":"七股區","LI":"三股里","LIN":"11鄰","STREET":" ","SECT":" ","MAREA":"三股","LANE":" ","ALLEY":" ","HOUSE_NO":"３２號","E_COORD97":159348.73000000001,"N_COORD97":2555518.3100000001,"ADDRESS":"三股３２號","OBJECTID":183520},"geometry":{"x":159348.73000000138,"y":2555518.3100000005}},{"attributes":{"ID":183522,"DIS_CODE":0,"TOWNNAME":"南區","LI":"文華里","LIN":"10鄰","STREET":"建南路","SECT":" ","MAREA":" ","LANE":" ","ALLEY":" ","HOUSE_NO":"１０６號","E_COORD97":167071.60000000001,"N_COORD97":2542844.8599999999,"ADDRESS":"建南路１０６號","OBJECTID":183521},"geometry":{"x":167071.60000000056,"y":2542844.8600000031}},{"attributes":{"ID":183523,"DIS_CODE":0,"TOWNNAME":"南區","LI":"文華里","LIN":"10鄰","STREET":"建南路","SECT":" ","MAREA":" ","LANE":" ","ALLEY":" ","HOUSE_NO":"１０８號","E_COORD97":167067.14000000001,"N_COORD97":2542845.2799999998,"ADDRESS":"建南路１０８號","OBJECTID":183522},"geometry":{"x":167067.13999999966,"y":2542845.2800000031}},{"attributes":{"ID":183524,"DIS_CODE":0,"TOWNNAME":"東區","LI":"忠孝里","LIN":"32鄰","STREET":"崇明六街","SECT":" ","MAREA":" ","LANE":"８巷","ALLEY":"３弄","HOUSE_NO":"１７號","E_COORD97":169678.033563,"N_COORD97":2542190.97585,"ADDRESS":"崇明六街８巷３弄１７號","OBJECTID":183523},"geometry":{"x":169678.03356300201,"y":2542190.9758460019}},{"attributes":{"ID":183525,"DIS_CODE":0,"TOWNNAME":"關廟區","LI":"松腳里","LIN":"2鄰","STREET":"松平街","SECT":" ","MAREA":" ","LANE":"５６巷","ALLEY":"３弄","HOUSE_NO":"７號","E_COORD97":181974.216789,"N_COORD97":2539755.8253899999,"ADDRESS":"松平街５６巷３弄７號","OBJECTID":183524},"geometry":{"x":181974.21678899974,"y":2539755.8253930006}},{"attributes":{"ID":183526,"DIS_CODE":0,"TOWNNAME":"六甲區","LI":"二甲里","LIN":"18鄰","STREET":"中山路","SECT":" ","MAREA":" ","LANE":"５０５巷","ALLEY":"１０１弄","HOUSE_NO":"１７號","E_COORD97":181976.15702700001,"N_COORD97":2569716.0479299999,"ADDRESS":"中山路５０５巷１０１弄１７號","OBJECTID":183525},"geometry":{"x":181976.15702700056,"y":2569716.0479259994}},{"attributes":{"ID":183527,"DIS_CODE":0,"TOWNNAME":"關廟區","LI":"北勢里","LIN":"7鄰","STREET":"成功路","SECT":" ","MAREA":" ","LANE":"８６巷","ALLEY":"１７弄","HOUSE_NO":"２號","E_COORD97":181724.63249799999,"N_COORD97":2540487.9944199999,"ADDRESS":"成功路８６巷１７弄２號","OBJECTID":183526},"geometry":{"x":181724.63249800075,"y":2540487.9944170006}},{"attributes":{"ID":183528,"DIS_CODE":0,"TOWNNAME":"安南區","LI":"\u25A0南里","LIN":"30鄰","STREET":"安昌街","SECT":" ","MAREA":" ","LANE":"１７４巷","ALLEY":"１３２弄","HOUSE_NO":"６７號","E_COORD97":170062.07999999999,"N_COORD97":2552135.46,"ADDRESS":"安昌街１７４巷１３２弄６７號","OBJECTID":183527},"geometry":{"x":170062.08000000007,"y":2552135.4600000046}},{"attributes":{"ID":183529,"DIS_CODE":0,"TOWNNAME":"安南區","LI":"\u25A0南里","LIN":"30鄰","STREET":"安昌街","SECT":" ","MAREA":" ","LANE":"１７４巷","ALLEY":"１３２弄","HOUSE_NO":"６９號","E_COORD97":170062.07999999999,"N_COORD97":2552141.1299999999,"ADDRESS":"安昌街１７４巷１３２弄６９號","OBJECTID":183528},"geometry":{"x":170062.08000000007,"y":2552141.129999999}},{"attributes":{"ID":183530,"DIS_CODE":0,"TOWNNAME":"七股區","LI":"大寮里","LIN":"11鄰","STREET":" ","SECT":" ","MAREA":"大寮","LANE":" ","ALLEY":" ","HOUSE_NO":"１０２號之１","E_COORD97":163339.73999999999,"N_COORD97":2560699.7400000002,"ADDRESS":"大寮１０２號之１","OBJECTID":183529},"geometry":{"x":163339.74000000022,"y":2560699.7400000002}},{"attributes":{"ID":183531,"DIS_CODE":0,"TOWNNAME":"七股區","LI":"大寮里","LIN":"11鄰","STREET":" ","SECT":" ","MAREA":"大寮","LANE":" ","ALLEY":" ","HOUSE_NO":"１０２號之２","E_COORD97":163326.28,"N_COORD97":2560684.5499999998,"ADDRESS":"大寮１０２號之２","OBJECTID":183530},"geometry":{"x":163326.28000000212,"y":2560684.5500000007}},{"attributes":{"ID":183532,"DIS_CODE":0,"TOWNNAME":"安南區","LI":"\u25A0南里","LIN":"30鄰","STREET":"安昌街","SECT":" ","MAREA":" ","LANE":"１７４巷","ALLEY":"１３２弄","HOUSE_NO":"７１號","E_COORD97":170062.07999999999,"N_COORD97":2552145.8599999999,"ADDRESS":"安昌街１７４巷１３２弄７１號","OBJECTID":183531},"geometry":{"x":170062.08000000007,"y":2552145.8600000013}},{"attributes":{"ID":183533,"DIS_CODE":0,"TOWNNAME":"仁德區","LI":"仁和里","LIN":"1鄰","STREET":"成功一街","SECT":" ","MAREA":" ","LANE":"２巷","ALLEY":"３５弄","HOUSE_NO":"１號","E_COORD97":170444.30476299999,"N_COORD97":2540251.8132699998,"ADDRESS":"成功一街２巷３５弄１號","OBJECTID":183532},"geometry":{"x":170444.30476300139,"y":2540251.813267}},{"attributes":{"ID":183534,"DIS_CODE":0,"TOWNNAME":"歸仁區","LI":"六甲里","LIN":"12鄰","STREET":"中正南路","SECT":"一段","MAREA":" ","LANE":"１１６０巷","ALLEY":"２０１弄","HOUSE_NO":"５００號","E_COORD97":175660.259808,"N_COORD97":2538824.4062000001,"ADDRESS":"中正南路一段１１６０巷２０１弄５００號","OBJECTID":183533},"geometry":{"x":175660.25980800018,"y":2538824.4061960001}},{"attributes":{"ID":183535,"DIS_CODE":0,"TOWNNAME":"七股區","LI":"大寮里","LIN":"11鄰","STREET":" ","SECT":" ","MAREA":"大寮","LANE":" ","ALLEY":" ","HOUSE_NO":"１０２號之５","E_COORD97":163330.25,"N_COORD97":2560672.1800000002,"ADDRESS":"大寮１０２號之５","OBJECTID":183534},"geometry":{"x":163330.25000000093,"y":2560672.1799999997}},{"attributes":{"ID":183536,"DIS_CODE":0,"TOWNNAME":"七股區","LI":"大寮里","LIN":"11鄰","STREET":" ","SECT":" ","MAREA":"大寮","LANE":" ","ALLEY":" ","HOUSE_NO":"１０２號","E_COORD97":163322.29000000001,"N_COORD97":2560688.2400000002,"ADDRESS":"大寮１０２號","OBJECTID":183535},"geometry":{"x":163322.29000000004,"y":2560688.2400000021}},{"attributes":{"ID":183537,"DIS_CODE":0,"TOWNNAME":"七股區","LI":"大寮里","LIN":"11鄰","STREET":" ","SECT":" ","MAREA":"大寮","LANE":" ","ALLEY":" ","HOUSE_NO":"１０３號之２","E_COORD97":163305.41,"N_COORD97":2560714.46,"ADDRESS":"大寮１０３號之２","OBJECTID":183536},"geometry":{"x":163305.41000000108,"y":2560714.4600000028}},{"attributes":{"ID":183538,"DIS_CODE":0,"TOWNNAME":"七股區","LI":"大寮里","LIN":"11鄰","STREET":" ","SECT":" ","MAREA":"大寮","LANE":" ","ALLEY":" ","HOUSE_NO":"１０３號","E_COORD97":163308.76000000001,"N_COORD97":2560711.1000000001,"ADDRESS":"大寮１０３號","OBJECTID":183537},"geometry":{"x":163308.76000000164,"y":2560711.1000000015}},{"attributes":{"ID":183539,"DIS_CODE":0,"TOWNNAME":"七股區","LI":"大寮里","LIN":"11鄰","STREET":" ","SECT":" ","MAREA":"大寮","LANE":" ","ALLEY":" ","HOUSE_NO":"１０４號","E_COORD97":163334.89000000001,"N_COORD97":2560739.21,"ADDRESS":"大寮１０４號","OBJECTID":183538},"geometry":{"x":163334.89000000153,"y":2560739.2100000028}},{"attributes":{"ID":183540,"DIS_CODE":0,"TOWNNAME":"七股區","LI":"大寮里","LIN":"11鄰","STREET":" ","SECT":" ","MAREA":"大寮","LANE":" ","ALLEY":" ","HOUSE_NO":"１１３號之１","E_COORD97":163269.04999999999,"N_COORD97":2560752.79,"ADDRESS":"大寮１１３號之１","OBJECTID":183539},"geometry":{"x":163269.04999999981,"y":2560752.7900000028}},{"attributes":{"ID":183541,"DIS_CODE":0,"TOWNNAME":"七股區","LI":"大寮里","LIN":"11鄰","STREET":" ","SECT":" ","MAREA":"大寮","LANE":" ","ALLEY":" ","HOUSE_NO":"１１３號之２","E_COORD97":163265.42999999999,"N_COORD97":2560772.6000000001,"ADDRESS":"大寮１１３號之２","OBJECTID":183540},"geometry":{"x":163265.43000000063,"y":2560772.6000000015}},{"attributes":{"ID":183542,"DIS_CODE":0,"TOWNNAME":"七股區","LI":"大寮里","LIN":"11鄰","STREET":" ","SECT":" ","MAREA":"大寮","LANE":" ","ALLEY":" ","HOUSE_NO":"１１３號","E_COORD97":163281.20999999999,"N_COORD97":2560763.7200000002,"ADDRESS":"大寮１１３號","OBJECTID":183541},"geometry":{"x":163281.21000000089,"y":2560763.7200000007}},{"attributes":{"ID":183543,"DIS_CODE":0,"TOWNNAME":"歸仁區","LI":"七甲里","LIN":"19鄰","STREET":"南潭三街","SECT":" ","MAREA":" ","LANE":"１６２巷","ALLEY":"３弄","HOUSE_NO":"２４號","E_COORD97":176497.149095,"N_COORD97":2543176.2181699998,"ADDRESS":"南潭三街１６２巷３弄２４號","OBJECTID":183542},"geometry":{"x":176497.14909499977,"y":2543176.2181660011}},{"attributes":{"ID":183544,"DIS_CODE":0,"TOWNNAME":"歸仁區","LI":"大潭里","LIN":"17鄰","STREET":"中正南路","SECT":"三段","MAREA":" ","LANE":"２５０巷","ALLEY":"３７弄","HOUSE_NO":"１２號","E_COORD97":175069.65988399999,"N_COORD97":2534739.5309000001,"ADDRESS":"中正南路三段２５０巷３７弄１２號","OBJECTID":183543},"geometry":{"x":175069.65988400113,"y":2534739.5309050009}},{"attributes":{"ID":183545,"DIS_CODE":0,"TOWNNAME":"歸仁區","LI":"武東里","LIN":"4鄰","STREET":"武東二街","SECT":" ","MAREA":" ","LANE":"２６巷","ALLEY":"２３弄","HOUSE_NO":"９號","E_COORD97":175489.60094900001,"N_COORD97":2535276.6708200001,"ADDRESS":"武東二街２６巷２３弄９號","OBJECTID":183544},"geometry":{"x":175489.60094899964,"y":2535276.6708190013}},{"attributes":{"ID":183546,"DIS_CODE":0,"TOWNNAME":"仁德區","LI":"仁愛里","LIN":"18鄰","STREET":"保仁路","SECT":" ","MAREA":" ","LANE":"１２０巷","ALLEY":"１１６弄","HOUSE_NO":"２３號","E_COORD97":170210.386,"N_COORD97":2540258.6970000002,"ADDRESS":"保仁路１２０巷１１６弄２３號","OBJECTID":183545},"geometry":{"x":170210.38600000087,"y":2540258.6970000006}},{"attributes":{"ID":183547,"DIS_CODE":0,"TOWNNAME":"歸仁區","LI":"六甲里","LIN":"38鄰","STREET":"六甲八街","SECT":" ","MAREA":" ","LANE":"１４９巷","ALLEY":"５０弄","HOUSE_NO":"１２號","E_COORD97":175269.24569499999,"N_COORD97":2539767.7843999998,"ADDRESS":"六甲八街１４９巷５０弄１２號","OBJECTID":183546},"geometry":{"x":175269.24569499958,"y":2539767.7844019998}},{"attributes":{"ID":183548,"DIS_CODE":0,"TOWNNAME":"仁德區","LI":"仁愛里","LIN":"18鄰","STREET":"保仁路","SECT":" ","MAREA":" ","LANE":"１２０巷","ALLEY":"９０弄","HOUSE_NO":"６號","E_COORD97":170262.57373,"N_COORD97":2540228.3050000002,"ADDRESS":"保仁路１２０巷９０弄６號","OBJECTID":183547},"geometry":{"x":170262.57373000029,"y":2540228.3049999997}},{"attributes":{"ID":183549,"DIS_CODE":0,"TOWNNAME":"仁德區","LI":"仁愛里","LIN":"18鄰","STREET":"保仁路","SECT":" ","MAREA":" ","LANE":"１２０巷","ALLEY":"１１８弄","HOUSE_NO":"３２號","E_COORD97":170218.91594000001,"N_COORD97":2540279.2250000001,"ADDRESS":"保仁路１２０巷１１８弄３２號","OBJECTID":183548},"geometry":{"x":170218.91594000068,"y":2540279.2250000015}},{"attributes":{"ID":183550,"DIS_CODE":0,"TOWNNAME":"仁德區","LI":"仁愛里","LIN":"18鄰","STREET":"保仁路","SECT":" ","MAREA":" ","LANE":"１２０巷","ALLEY":"１１２弄","HOUSE_NO":"１８號","E_COORD97":170186.49049,"N_COORD97":2540227.5774400001,"ADDRESS":"保仁路１２０巷１１２弄１８號","OBJECTID":183549},"geometry":{"x":170186.49048999976,"y":2540227.5774400029}},{"attributes":{"ID":183551,"DIS_CODE":0,"TOWNNAME":"七股區","LI":"大寮里","LIN":"11鄰","STREET":" ","SECT":" ","MAREA":"大寮","LANE":" ","ALLEY":" ","HOUSE_NO":"１１４號","E_COORD97":163294.51999999999,"N_COORD97":2560781.8799999999,"ADDRESS":"大寮１１４號","OBJECTID":183550},"geometry":{"x":163294.51999999955,"y":2560781.879999999}},{"attributes":{"ID":183552,"DIS_CODE":0,"TOWNNAME":"仁德區","LI":"仁愛里","LIN":"18鄰","STREET":"保仁路","SECT":" ","MAREA":" ","LANE":"１２０巷","ALLEY":"１１２弄","HOUSE_NO":"３２號","E_COORD97":170212.981871,"N_COORD97":2540229.9057800001,"ADDRESS":"保仁路１２０巷１１２弄３２號","OBJECTID":183551},"geometry":{"x":170212.98187099956,"y":2540229.9057790004}},{"attributes":{"ID":183553,"DIS_CODE":0,"TOWNNAME":"仁德區","LI":"仁愛里","LIN":"18鄰","STREET":"保仁路","SECT":" ","MAREA":" ","LANE":"１２０巷","ALLEY":"１１６弄","HOUSE_NO":"１１號","E_COORD97":170185.905,"N_COORD97":2540260.2459999998,"ADDRESS":"保仁路１２０巷１１６弄１１號","OBJECTID":183552},"geometry":{"x":170185.90500000119,"y":2540260.2460000012}},{"attributes":{"ID":183554,"DIS_CODE":0,"TOWNNAME":"仁德區","LI":"仁愛里","LIN":"18鄰","STREET":"保仁路","SECT":" ","MAREA":" ","LANE":"１２０巷","ALLEY":"１１２弄","HOUSE_NO":"３６號","E_COORD97":170217.43242299999,"N_COORD97":2540229.7999499999,"ADDRESS":"保仁路１２０巷１１２弄３６號","OBJECTID":183553},"geometry":{"x":170217.43242300022,"y":2540229.7999460008}},{"attributes":{"ID":183555,"DIS_CODE":0,"TOWNNAME":"仁德區","LI":"仁愛里","LIN":"18鄰","STREET":"保仁路","SECT":" ","MAREA":" ","LANE":"１２０巷","ALLEY":"９７弄","HOUSE_NO":"１號","E_COORD97":170146.48842800001,"N_COORD97":2540226.8894600002,"ADDRESS":"保仁路１２０巷９７弄１號","OBJECTID":183554},"geometry":{"x":170146.48842800129,"y":2540226.8894560039}},{"attributes":{"ID":183556,"DIS_CODE":0,"TOWNNAME":"安南區","LI":"佃東里","LIN":"20鄰","STREET":"十二佃路","SECT":" ","MAREA":" ","LANE":"１０巷","ALLEY":"５弄","HOUSE_NO":"６號","E_COORD97":165724.20000000001,"N_COORD97":2552094.1699999999,"ADDRESS":"十二佃路１０巷５弄６號","OBJECTID":183555},"geometry":{"x":165724.20000000112,"y":2552094.1699999999}},{"attributes":{"ID":183557,"DIS_CODE":0,"TOWNNAME":"安南區","LI":"佃東里","LIN":"20鄰","STREET":"十二佃路","SECT":" ","MAREA":" ","LANE":"１０巷","ALLEY":"５弄","HOUSE_NO":"８號","E_COORD97":165709.28,"N_COORD97":2552089.8799999999,"ADDRESS":"十二佃路１０巷５弄８號","OBJECTID":183556},"geometry":{"x":165709.28000000026,"y":2552089.8800000027}},{"attributes":{"ID":183558,"DIS_CODE":0,"TOWNNAME":"鹽水區","LI":"後宅里","LIN":"10鄰","STREET":" ","SECT":" ","MAREA":"番子寮","LANE":" ","ALLEY":" ","HOUSE_NO":"１０號之１","E_COORD97":171689.42000000001,"N_COORD97":2577986.4100000001,"ADDRESS":"番子寮１０號之１","OBJECTID":183557},"geometry":{"x":171689.42000000086,"y":2577986.4100000039}},{"attributes":{"ID":183559,"DIS_CODE":0,"TOWNNAME":"佳里區","LI":"六安里","LIN":"20鄰","STREET":"延平路","SECT":" ","MAREA":" ","LANE":"５７７巷","ALLEY":"２弄","HOUSE_NO":"１０號","E_COORD97":165749.45000000001,"N_COORD97":2563518.3799999999,"ADDRESS":"延平路５７７巷２弄１０號","OBJECTID":183558},"geometry":{"x":165749.45000000112,"y":2563518.3799999971}},{"attributes":{"ID":183560,"DIS_CODE":0,"TOWNNAME":"佳里區","LI":"六安里","LIN":"20鄰","STREET":"延平路","SECT":" ","MAREA":" ","LANE":"５７７巷","ALLEY":"２弄","HOUSE_NO":"１１號","E_COORD97":165741.78,"N_COORD97":2563504.8900000001,"ADDRESS":"延平路５７７巷２弄１１號","OBJECTID":183559},"geometry":{"x":165741.78000000212,"y":2563504.8900000025}},{"attributes":{"ID":183561,"DIS_CODE":0,"TOWNNAME":"佳里區","LI":"六安里","LIN":"20鄰","STREET":"延平路","SECT":" ","MAREA":" ","LANE":"５７７巷","ALLEY":"２弄","HOUSE_NO":"１２號","E_COORD97":165743.35000000001,"N_COORD97":2563519.4399999999,"ADDRESS":"延平路５７７巷２弄１２號","OBJECTID":183560},"geometry":{"x":165743.34999999963,"y":2563519.4400000013}},{"attributes":{"ID":183562,"DIS_CODE":0,"TOWNNAME":"安南區","LI":"州北里","LIN":"25鄰","STREET":"安和路","SECT":"五段","MAREA":" ","LANE":"１７１巷","ALLEY":"１７弄","HOUSE_NO":"３２號","E_COORD97":169806.60000000001,"N_COORD97":2551752.8199999998,"ADDRESS":"安和路五段１７１巷１７弄３２號","OBJECTID":183561},"geometry":{"x":169806.59999999963,"y":2551752.8200000022}},{"attributes":{"ID":183563,"DIS_CODE":0,"TOWNNAME":"歸仁區","LI":"西埔里","LIN":"7鄰","STREET":"保大路","SECT":"二段","MAREA":" ","LANE":"１２２巷","ALLEY":"２０弄","HOUSE_NO":"３號","E_COORD97":177046.13238600001,"N_COORD97":2544219.0077300002,"ADDRESS":"保大路二段１２２巷２０弄３號","OBJECTID":183562},"geometry":{"x":177046.1323859999,"y":2544219.0077270046}},{"attributes":{"ID":183564,"DIS_CODE":0,"TOWNNAME":"鹽水區","LI":"後宅里","LIN":"10鄰","STREET":" ","SECT":" ","MAREA":"番子寮","LANE":" ","ALLEY":" ","HOUSE_NO":"１０之２號","E_COORD97":171565.89999999999,"N_COORD97":2577700.9399999999,"ADDRESS":"番子寮１０之２號","OBJECTID":183563},"geometry":{"x":171565.90000000224,"y":2577700.9400000032}},{"attributes":{"ID":183565,"DIS_CODE":0,"TOWNNAME":"鹽水區","LI":"後宅里","LIN":"10鄰","STREET":" ","SECT":" ","MAREA":"番子寮","LANE":" ","ALLEY":" ","HOUSE_NO":"１０號之２","E_COORD97":171565.89999999999,"N_COORD97":2577700.9399999999,"ADDRESS":"番子寮１０號之２","OBJECTID":183564},"geometry":{"x":171565.90000000224,"y":2577700.9400000032}},{"attributes":{"ID":183566,"DIS_CODE":0,"TOWNNAME":"鹽水區","LI":"後宅里","LIN":"10鄰","STREET":" ","SECT":" ","MAREA":"番子寮","LANE":" ","ALLEY":" ","HOUSE_NO":"１０之３號","E_COORD97":171615.56,"N_COORD97":2577632.1899999999,"ADDRESS":"番子寮１０之３號","OBJECTID":183565},"geometry":{"x":171615.55999999959,"y":2577632.1900000013}},{"attributes":{"ID":183567,"DIS_CODE":0,"TOWNNAME":"鹽水區","LI":"後宅里","LIN":"10鄰","STREET":" ","SECT":" ","MAREA":"番子寮","LANE":" ","ALLEY":" ","HOUSE_NO":"１０號","E_COORD97":171723.91,"N_COORD97":2578005.5800000001,"ADDRESS":"番子寮１０號","OBJECTID":183566},"geometry":{"x":171723.91000000108,"y":2578005.5800000038}},{"attributes":{"ID":183568,"DIS_CODE":0,"TOWNNAME":"歸仁區","LI":"西埔里","LIN":"7鄰","STREET":"保大路","SECT":"二段","MAREA":" ","LANE":"１２２巷","ALLEY":"２０弄","HOUSE_NO":"１號","E_COORD97":177042.42178900001,"N_COORD97":2544216.8910599998,"ADDRESS":"保大路二段１２２巷２０弄１號","OBJECTID":183567},"geometry":{"x":177042.42178900074,"y":2544216.8910610024}},{"attributes":{"ID":183569,"DIS_CODE":0,"TOWNNAME":"鹽水區","LI":"後宅里","LIN":"10鄰","STREET":" ","SECT":" ","MAREA":"番子寮","LANE":" ","ALLEY":" ","HOUSE_NO":"２１號","E_COORD97":171694.94,"N_COORD97":2578049.1400000001,"ADDRESS":"番子寮２１號","OBJECTID":183568},"geometry":{"x":171694.94000000134,"y":2578049.1400000006}},{"attributes":{"ID":183570,"DIS_CODE":0,"TOWNNAME":"鹽水區","LI":"後宅里","LIN":"10鄰","STREET":" ","SECT":" ","MAREA":"番子寮","LANE":" ","ALLEY":" ","HOUSE_NO":"７號","E_COORD97":171788.51000000001,"N_COORD97":2578047.8599999999,"ADDRESS":"番子寮７號","OBJECTID":183569},"geometry":{"x":171788.51000000071,"y":2578047.8600000013}},{"attributes":{"ID":183571,"DIS_CODE":0,"TOWNNAME":"七股區","LI":"大寮里","LIN":"11鄰","STREET":" ","SECT":" ","MAREA":"大寮","LANE":" ","ALLEY":" ","HOUSE_NO":"１１８號之１","E_COORD97":163215.82000000001,"N_COORD97":2560729.48,"ADDRESS":"大寮１１８號之１","OBJECTID":183570},"geometry":{"x":163215.82000000216,"y":2560729.4800000042}},{"attributes":{"ID":183572,"DIS_CODE":0,"TOWNNAME":"七股區","LI":"大寮里","LIN":"11鄰","STREET":" ","SECT":" ","MAREA":"大寮","LANE":" ","ALLEY":" ","HOUSE_NO":"１１８號之２","E_COORD97":163205.76999999999,"N_COORD97":2560733.29,"ADDRESS":"大寮１１８號之２","OBJECTID":183571},"geometry":{"x":163205.77000000048,"y":2560733.290000001}},{"attributes":{"ID":183573,"DIS_CODE":0,"TOWNNAME":"七股區","LI":"大寮里","LIN":"11鄰","STREET":" ","SECT":" ","MAREA":"大寮","LANE":" ","ALLEY":" ","HOUSE_NO":"１１８號之７","E_COORD97":163187.42000000001,"N_COORD97":2560780.9500000002,"ADDRESS":"大寮１１８號之７","OBJECTID":183572},"geometry":{"x":163187.41999999899,"y":2560780.9499999993}},{"attributes":{"ID":183574,"DIS_CODE":0,"TOWNNAME":"七股區","LI":"大寮里","LIN":"11鄰","STREET":" ","SECT":" ","MAREA":"大寮","LANE":" ","ALLEY":" ","HOUSE_NO":"１１８號","E_COORD97":163243.82999999999,"N_COORD97":2560749.6699999999,"ADDRESS":"大寮１１８號","OBJECTID":183573},"geometry":{"x":163243.83000000007,"y":2560749.6699999999}},{"attributes":{"ID":183575,"DIS_CODE":0,"TOWNNAME":"七股區","LI":"大寮里","LIN":"11鄰","STREET":" ","SECT":" ","MAREA":"大寮","LANE":" ","ALLEY":" ","HOUSE_NO":"１１９號之１","E_COORD97":163239.14000000001,"N_COORD97":2560728.7999999998,"ADDRESS":"大寮１１９號之１","OBJECTID":183574},"geometry":{"x":163239.1400000006,"y":2560728.8000000026}},{"attributes":{"ID":183576,"DIS_CODE":0,"TOWNNAME":"七股區","LI":"大寮里","LIN":"11鄰","STREET":" ","SECT":" ","MAREA":"大寮","LANE":" ","ALLEY":" ","HOUSE_NO":"１１９號之２","E_COORD97":163246.76999999999,"N_COORD97":2560743.3700000001,"ADDRESS":"大寮１１９號之２","OBJECTID":183575},"geometry":{"x":163246.76999999955,"y":2560743.370000001}},{"attributes":{"ID":183577,"DIS_CODE":0,"TOWNNAME":"七股區","LI":"大寮里","LIN":"11鄰","STREET":" ","SECT":" ","MAREA":"大寮","LANE":" ","ALLEY":" ","HOUSE_NO":"１１９號之６","E_COORD97":163241.26999999999,"N_COORD97":2560711.9100000001,"ADDRESS":"大寮１１９號之６","OBJECTID":183576},"geometry":{"x":163241.27000000048,"y":2560711.9100000001}},{"attributes":{"ID":183578,"DIS_CODE":0,"TOWNNAME":"七股區","LI":"大寮里","LIN":"11鄰","STREET":" ","SECT":" ","MAREA":"大寮","LANE":" ","ALLEY":" ","HOUSE_NO":"１１９號","E_COORD97":163257.32999999999,"N_COORD97":2560737.1099999999,"ADDRESS":"大寮１１９號","OBJECTID":183577},"geometry":{"x":163257.33000000007,"y":2560737.1099999994}},{"attributes":{"ID":183579,"DIS_CODE":0,"TOWNNAME":"七股區","LI":"大寮里","LIN":"11鄰","STREET":" ","SECT":" ","MAREA":"大寮","LANE":" ","ALLEY":" ","HOUSE_NO":"１２１號之１","E_COORD97":163262.29000000001,"N_COORD97":2560682.8500000001,"ADDRESS":"大寮１２０號之１","OBJECTID":183578},"geometry":{"x":163262.29000000004,"y":2560682.8500000015}},{"attributes":{"ID":183580,"DIS_CODE":0,"TOWNNAME":"鹽水區","LI":"後宅里","LIN":"10鄰","STREET":" ","SECT":" ","MAREA":"番子寮","LANE":" ","ALLEY":" ","HOUSE_NO":"８號","E_COORD97":171727.57999999999,"N_COORD97":2578021.1000000001,"ADDRESS":"番子寮８號","OBJECTID":183579},"geometry":{"x":171727.58000000101,"y":2578021.0999999996}},{"attributes":{"ID":183581,"DIS_CODE":0,"TOWNNAME":"鹽水區","LI":"後宅里","LIN":"10鄰","STREET":" ","SECT":" ","MAREA":"番子寮","LANE":" ","ALLEY":" ","HOUSE_NO":"９號","E_COORD97":171704.64000000001,"N_COORD97":2578015.3700000001,"ADDRESS":"番子寮９號","OBJECTID":183580},"geometry":{"x":171704.6400000006,"y":2578015.3700000029}},{"attributes":{"ID":183582,"DIS_CODE":0,"TOWNNAME":"左鎮區","LI":"中正里","LIN":"10鄰","STREET":" ","SECT":" ","MAREA":"中正","LANE":" ","ALLEY":" ","HOUSE_NO":"１３０號之１","E_COORD97":189319.25,"N_COORD97":2550811.2999999998,"ADDRESS":"中正１３０號之１","OBJECTID":183581},"geometry":{"x":189319.25000000093,"y":2550811.3000000026}},{"attributes":{"ID":183583,"DIS_CODE":0,"TOWNNAME":"佳里區","LI":"六安里","LIN":"20鄰","STREET":"延平路","SECT":" ","MAREA":" ","LANE":"５７７巷","ALLEY":"２弄","HOUSE_NO":"１３號","E_COORD97":165735.32000000001,"N_COORD97":2563505.7799999998,"ADDRESS":"延平路５７７巷２弄１３號","OBJECTID":183582},"geometry":{"x":165735.32000000123,"y":2563505.7799999993}},{"attributes":{"ID":183584,"DIS_CODE":0,"TOWNNAME":"佳里區","LI":"六安里","LIN":"20鄰","STREET":"延平路","SECT":" ","MAREA":" ","LANE":"５７７巷","ALLEY":"２弄","HOUSE_NO":"１４號","E_COORD97":165736.82999999999,"N_COORD97":2563520.6600000001,"ADDRESS":"延平路５７７巷２弄１４號","OBJECTID":183583},"geometry":{"x":165736.83000000101,"y":2563520.6600000001}},{"attributes":{"ID":183585,"DIS_CODE":0,"TOWNNAME":"佳里區","LI":"六安里","LIN":"20鄰","STREET":"延平路","SECT":" ","MAREA":" ","LANE":"５７７巷","ALLEY":"２弄","HOUSE_NO":"１５號","E_COORD97":165728.98000000001,"N_COORD97":2563506.77,"ADDRESS":"延平路５７７巷２弄１５號","OBJECTID":183584},"geometry":{"x":165728.98000000138,"y":2563506.7700000014}},{"attributes":{"ID":183586,"DIS_CODE":0,"TOWNNAME":"佳里區","LI":"六安里","LIN":"20鄰","STREET":"延平路","SECT":" ","MAREA":" ","LANE":"５７７巷","ALLEY":"２弄","HOUSE_NO":"１６號","E_COORD97":165731,"N_COORD97":2563521.21,"ADDRESS":"延平路５７７巷２弄１６號","OBJECTID":183585},"geometry":{"x":165731,"y":2563521.2100000009}},{"attributes":{"ID":183587,"DIS_CODE":0,"TOWNNAME":"佳里區","LI":"六安里","LIN":"20鄰","STREET":"延平路","SECT":" ","MAREA":" ","LANE":"５７７巷","ALLEY":"２弄","HOUSE_NO":"１７號","E_COORD97":165722.17000000001,"N_COORD97":2563507.77,"ADDRESS":"延平路５７７巷２弄１７號","OBJECTID":183586},"geometry":{"x":165722.17000000086,"y":2563507.7700000014}},{"attributes":{"ID":183588,"DIS_CODE":0,"TOWNNAME":"佳里區","LI":"六安里","LIN":"20鄰","STREET":"延平路","SECT":" ","MAREA":" ","LANE":"５７７巷","ALLEY":"２弄","HOUSE_NO":"１８號","E_COORD97":165724.25,"N_COORD97":2563523.8700000001,"ADDRESS":"延平路５７７巷２弄１８號","OBJECTID":183587},"geometry":{"x":165724.25,"y":2563523.870000001}},{"attributes":{"ID":183589,"DIS_CODE":0,"TOWNNAME":"佳里區","LI":"六安里","LIN":"20鄰","STREET":"延平路","SECT":" ","MAREA":" ","LANE":"５７７巷","ALLEY":"２弄","HOUSE_NO":"１９號","E_COORD97":165715.88,"N_COORD97":2563508.52,"ADDRESS":"延平路５７７巷２弄１９號","OBJECTID":183588},"geometry":{"x":165715.88000000082,"y":2563508.5200000014}},{"attributes":{"ID":183590,"DIS_CODE":0,"TOWNNAME":"佳里區","LI":"六安里","LIN":"20鄰","STREET":"延平路","SECT":" ","MAREA":" ","LANE":"５７７巷","ALLEY":"２弄","HOUSE_NO":"１號","E_COORD97":165772.60999999999,"N_COORD97":2563501.25,"ADDRESS":"延平路５７７巷２弄１號","OBJECTID":183589},"geometry":{"x":165772.61000000127,"y":2563501.2500000019}},{"attributes":{"ID":183591,"DIS_CODE":0,"TOWNNAME":"佳里區","LI":"六安里","LIN":"20鄰","STREET":"延平路","SECT":" ","MAREA":" ","LANE":"５７７巷","ALLEY":"２弄","HOUSE_NO":"２０號","E_COORD97":165717.70000000001,"N_COORD97":2563524.4100000001,"ADDRESS":"延平路５７７巷２弄２０號","OBJECTID":183590},"geometry":{"x":165717.70000000019,"y":2563524.410000002}},{"attributes":{"ID":183592,"DIS_CODE":0,"TOWNNAME":"佳里區","LI":"六安里","LIN":"20鄰","STREET":"延平路","SECT":" ","MAREA":" ","LANE":"５７７巷","ALLEY":"２弄","HOUSE_NO":"２１號","E_COORD97":165709.29999999999,"N_COORD97":2563509.1899999999,"ADDRESS":"延平路５７７巷２弄２１號","OBJECTID":183591},"geometry":{"x":165709.30000000075,"y":2563509.1899999995}},{"attributes":{"ID":183593,"DIS_CODE":0,"TOWNNAME":"佳里區","LI":"六安里","LIN":"20鄰","STREET":"延平路","SECT":" ","MAREA":" ","LANE":"５７７巷","ALLEY":"２弄","HOUSE_NO":"２２號","E_COORD97":165710.73999999999,"N_COORD97":2563525.2799999998,"ADDRESS":"延平路５７７巷２弄２２號","OBJECTID":183592},"geometry":{"x":165710.74000000022,"y":2563525.2799999993}},{"attributes":{"ID":183594,"DIS_CODE":0,"TOWNNAME":"佳里區","LI":"六安里","LIN":"20鄰","STREET":"延平路","SECT":" ","MAREA":" ","LANE":"５７７巷","ALLEY":"２弄","HOUSE_NO":"２３號","E_COORD97":165703.20000000001,"N_COORD97":2563510.1800000002,"ADDRESS":"延平路５７７巷２弄２３號","OBJECTID":183593},"geometry":{"x":165703.20000000205,"y":2563510.1799999997}},{"attributes":{"ID":183595,"DIS_CODE":0,"TOWNNAME":"佳里區","LI":"六安里","LIN":"20鄰","STREET":"延平路","SECT":" ","MAREA":" ","LANE":"５７７巷","ALLEY":"２弄","HOUSE_NO":"２４號","E_COORD97":165706.06,"N_COORD97":2563525.8100000001,"ADDRESS":"延平路５７７巷２弄２４號","OBJECTID":183594},"geometry":{"x":165706.06000000052,"y":2563525.8100000024}},{"attributes":{"ID":183596,"DIS_CODE":0,"TOWNNAME":"歸仁區","LI":"後市里","LIN":"10鄰","STREET":"民權南路","SECT":" ","MAREA":" ","LANE":" ","ALLEY":" ","HOUSE_NO":"１４１號","E_COORD97":176983.94,"N_COORD97":2540691.25,"ADDRESS":"民權南路１４１號","OBJECTID":183595},"geometry":{"x":176983.94000000134,"y":2540691.2500000019}},{"attributes":{"ID":183597,"DIS_CODE":0,"TOWNNAME":"歸仁區","LI":"後市里","LIN":"10鄰","STREET":"民權南路","SECT":" ","MAREA":" ","LANE":" ","ALLEY":" ","HOUSE_NO":"１３３號","E_COORD97":176984.04000000001,"N_COORD97":2540711.25,"ADDRESS":"民權南路１３３號","OBJECTID":183596},"geometry":{"x":176984.0400000019,"y":2540711.2500000019}},{"attributes":{"ID":183598,"DIS_CODE":0,"TOWNNAME":"歸仁區","LI":"看東里","LIN":"10鄰","STREET":"忠孝南路","SECT":" ","MAREA":" ","LANE":" ","ALLEY":" ","HOUSE_NO":"１８５號","E_COORD97":178546.17000000001,"N_COORD97":2540208.25,"ADDRESS":"忠孝南路１８５號","OBJECTID":183597},"geometry":{"x":178546.17000000086,"y":2540208.2500000037}},{"attributes":{"ID":183599,"DIS_CODE":0,"TOWNNAME":"歸仁區","LI":"後市里","LIN":"10鄰","STREET":"民權南路","SECT":" ","MAREA":" ","LANE":" ","ALLEY":" ","HOUSE_NO":"１３１號","E_COORD97":176987.14000000001,"N_COORD97":2540718.25,"ADDRESS":"民權南路１３１號","OBJECTID":183598},"geometry":{"x":176987.1400000006,"y":2540718.2500000019}},{"attributes":{"ID":183600,"DIS_CODE":0,"TOWNNAME":"仁德區","LI":"仁義里","LIN":"20鄰","STREET":"中山路","SECT":" ","MAREA":" ","LANE":" ","ALLEY":" ","HOUSE_NO":"３３０號","E_COORD97":173941.85000000001,"N_COORD97":2541264.75,"ADDRESS":"中山路３３０號","OBJECTID":183599},"geometry":{"x":173941.8499999987,"y":2541264.75}},{"attributes":{"ID":183601,"DIS_CODE":0,"TOWNNAME":"仁德區","LI":"仁義里","LIN":"25鄰","STREET":"中清二街","SECT":" ","MAREA":" ","LANE":" ","ALLEY":" ","HOUSE_NO":"１３號","E_COORD97":173548.70999999999,"N_COORD97":2541400.79,"ADDRESS":"中清二街１３號","OBJECTID":183600},"geometry":{"x":173548.71000000089,"y":2541400.7900000028}}]}