{"displayFieldName":"TOWNNAME","fieldAliases":{"ID":"ID","DIS_CODE":"DIS_CODE","TOWNNAME":"TOWNNAME","LI":"LI","LIN":"LIN","STREET":"STREET","SECT":"SECT","MAREA":"MAREA","LANE":"LANE","ALLEY":"ALLEY","HOUSE_NO":"HOUSE_NO","E_COORD97":"E_COORD97","N_COORD97":"N_COORD97","ADDRESS":"ADDRESS","OBJECTID":"OBJECTID"},"geometryType":"esriGeometryPoint","spatialReference":{"wkid":102443,"latestWkid":3826},"fields":[{"name":"ID","type":"esriFieldTypeDouble","alias":"ID"},{"name":"DIS_CODE","type":"esriFieldTypeInteger","alias":"DIS_CODE"},{"name":"TOWNNAME","type":"esriFieldTypeString","alias":"TOWNNAME","length":8},{"name":"LI","type":"esriFieldTypeString","alias":"LI","length":8},{"name":"LIN","type":"esriFieldTypeString","alias":"LIN","length":12},{"name":"STREET","type":"esriFieldTypeString","alias":"STREET","length":20},{"name":"SECT","type":"esriFieldTypeString","alias":"SECT","length":8},{"name":"MAREA","type":"esriFieldTypeString","alias":"MAREA","length":12},{"name":"LANE","type":"esriFieldTypeString","alias":"LANE","length":10},{"name":"ALLEY","type":"esriFieldTypeString","alias":"ALLEY","length":10},{"name":"HOUSE_NO","type":"esriFieldTypeString","alias":"HOUSE_NO","length":20},{"name":"E_COORD97","type":"esriFieldTypeDouble","alias":"E_COORD97"},{"name":"N_COORD97","type":"esriFieldTypeDouble","alias":"N_COORD97"},{"name":"ADDRESS","type":"esriFieldTypeString","alias":"ADDRESS","length":50},{"name":"OBJECTID","type":"esriFieldTypeOID","alias":"OBJECTID"}],"features":[{"attributes":{"ID":135801,"DIS_CODE":0,"TOWNNAME":"麻豆區","LI":"麻口里","LIN":"6鄰","STREET":" ","SECT":" ","MAREA":"麻豆口","LANE":" ","ALLEY":" ","HOUSE_NO":"３３號","E_COORD97":170112.85999999999,"N_COORD97":2564510.9700000002,"ADDRESS":"麻豆口３３號","OBJECTID":135801},"geometry":{"x":170112.86000000034,"y":2564510.9700000025}},{"attributes":{"ID":135802,"DIS_CODE":0,"TOWNNAME":"後壁區","LI":"土溝里","LIN":" ","STREET":" ","SECT":" ","MAREA":"土溝","LANE":" ","ALLEY":" ","HOUSE_NO":"７５之２號","E_COORD97":187544.03,"N_COORD97":2586022.8999999999,"ADDRESS":"土溝７５之２號","OBJECTID":135802},"geometry":{"x":187544.03000000119,"y":2586022.9000000022}},{"attributes":{"ID":135803,"DIS_CODE":0,"TOWNNAME":"後壁區","LI":"土溝里","LIN":" ","STREET":" ","SECT":" ","MAREA":"土溝","LANE":" ","ALLEY":" ","HOUSE_NO":"７９號","E_COORD97":187548.76999999999,"N_COORD97":2585993.4399999999,"ADDRESS":"土溝７９號","OBJECTID":135803},"geometry":{"x":187548.77000000048,"y":2585993.4399999976}},{"attributes":{"ID":135804,"DIS_CODE":0,"TOWNNAME":"後壁區","LI":"土溝里","LIN":" ","STREET":" ","SECT":" ","MAREA":"土溝","LANE":" ","ALLEY":" ","HOUSE_NO":"８１之１號","E_COORD97":187558.95000000001,"N_COORD97":2585938.2599999998,"ADDRESS":"土溝８１之１號","OBJECTID":135804},"geometry":{"x":187558.95000000019,"y":2585938.2600000016}},{"attributes":{"ID":135805,"DIS_CODE":0,"TOWNNAME":"後壁區","LI":"土溝里","LIN":" ","STREET":" ","SECT":" ","MAREA":"土溝","LANE":" ","ALLEY":" ","HOUSE_NO":"８２之１號","E_COORD97":187566.76999999999,"N_COORD97":2585968.8999999999,"ADDRESS":"土溝８２之１號","OBJECTID":135805},"geometry":{"x":187566.77000000142,"y":2585968.9000000022}},{"attributes":{"ID":135806,"DIS_CODE":0,"TOWNNAME":"後壁區","LI":"土溝里","LIN":" ","STREET":" ","SECT":" ","MAREA":"土溝","LANE":" ","ALLEY":" ","HOUSE_NO":"８３之３號","E_COORD97":187584.44,"N_COORD97":2585946.6800000002,"ADDRESS":"土溝８３之３號","OBJECTID":135806},"geometry":{"x":187584.44000000041,"y":2585946.6799999997}},{"attributes":{"ID":135807,"DIS_CODE":0,"TOWNNAME":"後壁區","LI":"土溝里","LIN":" ","STREET":" ","SECT":" ","MAREA":"土溝","LANE":" ","ALLEY":" ","HOUSE_NO":"８５之１１號","E_COORD97":187601.69,"N_COORD97":2586107.25,"ADDRESS":"土溝８５之１１號","OBJECTID":135807},"geometry":{"x":187601.69000000041,"y":2586107.2500000037}},{"attributes":{"ID":135808,"DIS_CODE":0,"TOWNNAME":"後壁區","LI":"土溝里","LIN":" ","STREET":" ","SECT":" ","MAREA":"土溝","LANE":" ","ALLEY":" ","HOUSE_NO":"８６之１７號","E_COORD97":187688.28,"N_COORD97":2586054.0099999998,"ADDRESS":"土溝８６之１７號","OBJECTID":135808},"geometry":{"x":187688.28000000119,"y":2586054.0099999998}},{"attributes":{"ID":135809,"DIS_CODE":0,"TOWNNAME":"後壁區","LI":"土溝里","LIN":" ","STREET":" ","SECT":" ","MAREA":"土溝","LANE":" ","ALLEY":" ","HOUSE_NO":"８７之７號","E_COORD97":187619.53,"N_COORD97":2586025.0699999998,"ADDRESS":"土溝８７之７號","OBJECTID":135809},"geometry":{"x":187619.53000000026,"y":2586025.0700000022}},{"attributes":{"ID":135810,"DIS_CODE":0,"TOWNNAME":"後壁區","LI":"土溝里","LIN":" ","STREET":" ","SECT":" ","MAREA":"土溝","LANE":" ","ALLEY":" ","HOUSE_NO":"８８之１０號","E_COORD97":187850.5,"N_COORD97":2586081.21,"ADDRESS":"土溝８８之１０號","OBJECTID":135810},"geometry":{"x":187850.50000000186,"y":2586081.209999999}},{"attributes":{"ID":135811,"DIS_CODE":0,"TOWNNAME":"後壁區","LI":"土溝里","LIN":" ","STREET":" ","SECT":" ","MAREA":"土溝","LANE":" ","ALLEY":" ","HOUSE_NO":"８８之６號","E_COORD97":187650.51000000001,"N_COORD97":2586227.8799999999,"ADDRESS":"土溝８８之６號","OBJECTID":135811},"geometry":{"x":187650.51000000071,"y":2586227.8800000008}},{"attributes":{"ID":135812,"DIS_CODE":0,"TOWNNAME":"後壁區","LI":"土溝里","LIN":"10鄰","STREET":" ","SECT":" ","MAREA":"土溝","LANE":" ","ALLEY":" ","HOUSE_NO":"９２號之６","E_COORD97":187679.37,"N_COORD97":2585989.7599999998,"ADDRESS":"土溝９２之６號","OBJECTID":135812},"geometry":{"x":187679.37000000011,"y":2585989.7600000016}},{"attributes":{"ID":135813,"DIS_CODE":0,"TOWNNAME":"後壁區","LI":"土溝里","LIN":" ","STREET":" ","SECT":" ","MAREA":"土溝","LANE":" ","ALLEY":" ","HOUSE_NO":"９７之４號","E_COORD97":187681.51999999999,"N_COORD97":2585800.52,"ADDRESS":"土溝９７之４號","OBJECTID":135813},"geometry":{"x":187681.51999999955,"y":2585800.5200000014}},{"attributes":{"ID":135814,"DIS_CODE":0,"TOWNNAME":"後壁區","LI":"土溝里","LIN":" ","STREET":" ","SECT":" ","MAREA":"土溝","LANE":" ","ALLEY":" ","HOUSE_NO":"９７之５號","E_COORD97":187684.70999999999,"N_COORD97":2585796.9300000002,"ADDRESS":"土溝９７之５號","OBJECTID":135814},"geometry":{"x":187684.71000000089,"y":2585796.9299999997}},{"attributes":{"ID":135815,"DIS_CODE":0,"TOWNNAME":"後壁區","LI":"土溝里","LIN":" ","STREET":" ","SECT":" ","MAREA":"土溝","LANE":" ","ALLEY":" ","HOUSE_NO":"９７之６號","E_COORD97":187687.89000000001,"N_COORD97":2585793.3300000001,"ADDRESS":"土溝９７之６號","OBJECTID":135815},"geometry":{"x":187687.88999999966,"y":2585793.3300000001}},{"attributes":{"ID":135816,"DIS_CODE":0,"TOWNNAME":"後壁區","LI":"長安里","LIN":" ","STREET":" ","SECT":" ","MAREA":"中寮","LANE":" ","ALLEY":" ","HOUSE_NO":"１０４之１號","E_COORD97":184206.76000000001,"N_COORD97":2581258.1000000001,"ADDRESS":"中寮１０４之１號","OBJECTID":135816},"geometry":{"x":184206.75999999978,"y":2581258.0999999996}},{"attributes":{"ID":135817,"DIS_CODE":0,"TOWNNAME":"後壁區","LI":"長安里","LIN":" ","STREET":" ","SECT":" ","MAREA":"中寮","LANE":" ","ALLEY":" ","HOUSE_NO":"１０４號","E_COORD97":184195.98000000001,"N_COORD97":2581278.3999999999,"ADDRESS":"中寮１０４號","OBJECTID":135817},"geometry":{"x":184195.98000000045,"y":2581278.4000000004}},{"attributes":{"ID":135818,"DIS_CODE":0,"TOWNNAME":"後壁區","LI":"長安里","LIN":" ","STREET":" ","SECT":" ","MAREA":"中寮","LANE":" ","ALLEY":" ","HOUSE_NO":"１０５號","E_COORD97":184177.29999999999,"N_COORD97":2581277.4199999999,"ADDRESS":"中寮１０５號","OBJECTID":135818},"geometry":{"x":184177.29999999981,"y":2581277.4199999999}},{"attributes":{"ID":135819,"DIS_CODE":0,"TOWNNAME":"永康區","LI":"西勢里","LIN":"27鄰","STREET":"廣興街","SECT":" ","MAREA":" ","LANE":"３８巷","ALLEY":"２６弄","HOUSE_NO":"７號","E_COORD97":176003.51000000001,"N_COORD97":2546443.0499999998,"ADDRESS":"廣興街３８巷２６弄７號","OBJECTID":135819},"geometry":{"x":176003.50999999978,"y":2546443.0500000026}},{"attributes":{"ID":135820,"DIS_CODE":0,"TOWNNAME":"後壁區","LI":"長安里","LIN":" ","STREET":" ","SECT":" ","MAREA":"中寮","LANE":" ","ALLEY":" ","HOUSE_NO":"１０８號","E_COORD97":184189.79000000001,"N_COORD97":2581147.5299999998,"ADDRESS":"中寮１０８號","OBJECTID":135820},"geometry":{"x":184189.79000000004,"y":2581147.5299999993}},{"attributes":{"ID":135821,"DIS_CODE":0,"TOWNNAME":"後壁區","LI":"長安里","LIN":" ","STREET":" ","SECT":" ","MAREA":"中寮","LANE":" ","ALLEY":" ","HOUSE_NO":"１０９號","E_COORD97":184106.57000000001,"N_COORD97":2581144.4199999999,"ADDRESS":"中寮１０９號","OBJECTID":135821},"geometry":{"x":184106.5700000003,"y":2581144.4199999999}},{"attributes":{"ID":135822,"DIS_CODE":0,"TOWNNAME":"後壁區","LI":"長安里","LIN":" ","STREET":" ","SECT":" ","MAREA":"中寮","LANE":" ","ALLEY":" ","HOUSE_NO":"１１０號","E_COORD97":184080.17000000001,"N_COORD97":2581164.9500000002,"ADDRESS":"中寮１１０號","OBJECTID":135822},"geometry":{"x":184080.16999999993,"y":2581164.9499999993}},{"attributes":{"ID":135823,"DIS_CODE":0,"TOWNNAME":"後壁區","LI":"長安里","LIN":" ","STREET":" ","SECT":" ","MAREA":"中寮","LANE":" ","ALLEY":" ","HOUSE_NO":"１１９之５號","E_COORD97":184105.98999999999,"N_COORD97":2581196.46,"ADDRESS":"中寮１１９之５號","OBJECTID":135823},"geometry":{"x":184105.99000000209,"y":2581196.4600000009}},{"attributes":{"ID":135824,"DIS_CODE":0,"TOWNNAME":"後壁區","LI":"長安里","LIN":" ","STREET":" ","SECT":" ","MAREA":"中寮","LANE":" ","ALLEY":" ","HOUSE_NO":"１２０之１號","E_COORD97":184120.98999999999,"N_COORD97":2581242.8999999999,"ADDRESS":"中寮１２０之１號","OBJECTID":135824},"geometry":{"x":184120.99000000022,"y":2581242.9000000022}},{"attributes":{"ID":135825,"DIS_CODE":0,"TOWNNAME":"後壁區","LI":"長安里","LIN":" ","STREET":" ","SECT":" ","MAREA":"中寮","LANE":" ","ALLEY":" ","HOUSE_NO":"１２４號","E_COORD97":184148.89000000001,"N_COORD97":2581265.79,"ADDRESS":"中寮１２４號","OBJECTID":135825},"geometry":{"x":184148.8900000006,"y":2581265.790000001}},{"attributes":{"ID":135826,"DIS_CODE":0,"TOWNNAME":"後壁區","LI":"長安里","LIN":" ","STREET":" ","SECT":" ","MAREA":"中寮","LANE":" ","ALLEY":" ","HOUSE_NO":"１８３之１７號","E_COORD97":184096.09,"N_COORD97":2581469.9100000001,"ADDRESS":"中寮１８３之１７號","OBJECTID":135826},"geometry":{"x":184096.08999999985,"y":2581469.910000002}},{"attributes":{"ID":135827,"DIS_CODE":0,"TOWNNAME":"永康區","LI":"西勢里","LIN":"27鄰","STREET":"廣興街","SECT":" ","MAREA":" ","LANE":"３８巷","ALLEY":"３４弄","HOUSE_NO":"１２號","E_COORD97":176037.20999999999,"N_COORD97":2546409.0600000001,"ADDRESS":"廣興街３８巷３４弄１２號","OBJECTID":135827},"geometry":{"x":176037.21000000089,"y":2546409.0600000024}},{"attributes":{"ID":135828,"DIS_CODE":0,"TOWNNAME":"永康區","LI":"西勢里","LIN":"27鄰","STREET":"廣興街","SECT":" ","MAREA":" ","LANE":"３８巷","ALLEY":"２６弄","HOUSE_NO":"１號","E_COORD97":176011.20999999999,"N_COORD97":2546453.5499999998,"ADDRESS":"廣興街３８巷２６弄１號","OBJECTID":135828},"geometry":{"x":176011.20999999996,"y":2546453.5500000026}},{"attributes":{"ID":135829,"DIS_CODE":0,"TOWNNAME":"永康區","LI":"西勢里","LIN":"27鄰","STREET":"廣興街","SECT":" ","MAREA":" ","LANE":"３８巷","ALLEY":"２６弄","HOUSE_NO":"２１號","E_COORD97":175988.70999999999,"N_COORD97":2546420.0499999998,"ADDRESS":"廣興街３８巷２６弄２１號","OBJECTID":135829},"geometry":{"x":175988.70999999996,"y":2546420.0500000007}},{"attributes":{"ID":135830,"DIS_CODE":0,"TOWNNAME":"永康區","LI":"西勢里","LIN":"27鄰","STREET":"廣興街","SECT":" ","MAREA":" ","LANE":"３８巷","ALLEY":"２６弄","HOUSE_NO":"３號","E_COORD97":176008.20999999999,"N_COORD97":2546449.7999999998,"ADDRESS":"廣興街３８巷２６弄３號","OBJECTID":135830},"geometry":{"x":176008.21000000089,"y":2546449.8000000007}},{"attributes":{"ID":135831,"DIS_CODE":0,"TOWNNAME":"永康區","LI":"勝利里","LIN":"18鄰","STREET":"中華一路","SECT":" ","MAREA":" ","LANE":"３５０巷","ALLEY":"２弄","HOUSE_NO":"２號","E_COORD97":171140.14999999999,"N_COORD97":2545026.4900000002,"ADDRESS":"中華一路３５０巷２弄２號","OBJECTID":135831},"geometry":{"x":171140.14999999944,"y":2545026.4900000002}},{"attributes":{"ID":135832,"DIS_CODE":0,"TOWNNAME":"安南區","LI":"鳳凰里","LIN":"27鄰","STREET":"北安路","SECT":"三段","MAREA":" ","LANE":"１４５巷","ALLEY":"１７弄","HOUSE_NO":"１號","E_COORD97":168243.76999999999,"N_COORD97":2549021.1400000001,"ADDRESS":"北安路三段１４５巷１７弄１號","OBJECTID":135832},"geometry":{"x":168243.77000000048,"y":2549021.1399999987}},{"attributes":{"ID":135833,"DIS_CODE":0,"TOWNNAME":"安平區","LI":"西門里","LIN":"15鄰","STREET":"安北路","SECT":" ","MAREA":" ","LANE":" ","ALLEY":" ","HOUSE_NO":"３７８號","E_COORD97":163229.09,"N_COORD97":2544560.3599999999,"ADDRESS":"安北路３７８號","OBJECTID":135833},"geometry":{"x":163229.09000000078,"y":2544560.3600000031}},{"attributes":{"ID":135834,"DIS_CODE":0,"TOWNNAME":"安平區","LI":"西門里","LIN":"15鄰","STREET":"安北路","SECT":" ","MAREA":" ","LANE":" ","ALLEY":" ","HOUSE_NO":"３８０號","E_COORD97":163225.54999999999,"N_COORD97":2544558.8500000001,"ADDRESS":"安北路３８０號","OBJECTID":135834},"geometry":{"x":163225.55000000168,"y":2544558.8500000015}},{"attributes":{"ID":135835,"DIS_CODE":0,"TOWNNAME":"安平區","LI":"西門里","LIN":"15鄰","STREET":"安北路","SECT":" ","MAREA":" ","LANE":" ","ALLEY":" ","HOUSE_NO":"３８２號","E_COORD97":163221.70000000001,"N_COORD97":2544557.1699999999,"ADDRESS":"安北路３８２號","OBJECTID":135835},"geometry":{"x":163221.70000000112,"y":2544557.1699999999}},{"attributes":{"ID":135836,"DIS_CODE":0,"TOWNNAME":"安平區","LI":"西門里","LIN":"15鄰","STREET":"安北路","SECT":" ","MAREA":" ","LANE":" ","ALLEY":" ","HOUSE_NO":"３８４號","E_COORD97":163218.01999999999,"N_COORD97":2544555.3300000001,"ADDRESS":"安北路３８４號","OBJECTID":135836},"geometry":{"x":163218.01999999955,"y":2544555.3300000019}},{"attributes":{"ID":135837,"DIS_CODE":0,"TOWNNAME":"安平區","LI":"西門里","LIN":"15鄰","STREET":"安北路","SECT":" ","MAREA":" ","LANE":" ","ALLEY":" ","HOUSE_NO":"３８６號","E_COORD97":163214.51000000001,"N_COORD97":2544552.4900000002,"ADDRESS":"安北路３８６號","OBJECTID":135837},"geometry":{"x":163214.51000000071,"y":2544552.4900000002}},{"attributes":{"ID":135838,"DIS_CODE":0,"TOWNNAME":"安平區","LI":"西門里","LIN":"15鄰","STREET":"安北路","SECT":" ","MAREA":" ","LANE":" ","ALLEY":" ","HOUSE_NO":"３８８號","E_COORD97":163210.82000000001,"N_COORD97":2544551.1499999999,"ADDRESS":"安北路３８８號","OBJECTID":135838},"geometry":{"x":163210.82000000123,"y":2544551.1500000004}},{"attributes":{"ID":135839,"DIS_CODE":0,"TOWNNAME":"安平區","LI":"西門里","LIN":"15鄰","STREET":"安北路","SECT":" ","MAREA":" ","LANE":" ","ALLEY":" ","HOUSE_NO":"３９０號","E_COORD97":163207.35999999999,"N_COORD97":2544549.23,"ADDRESS":"安北路３９０號","OBJECTID":135839},"geometry":{"x":163207.36000000127,"y":2544549.2300000023}},{"attributes":{"ID":135840,"DIS_CODE":0,"TOWNNAME":"安平區","LI":"西門里","LIN":"15鄰","STREET":"安北路","SECT":" ","MAREA":" ","LANE":" ","ALLEY":" ","HOUSE_NO":"３９２號","E_COORD97":163202.64999999999,"N_COORD97":2544548.1899999999,"ADDRESS":"安北路３９２號","OBJECTID":135840},"geometry":{"x":163202.65000000037,"y":2544548.1900000013}},{"attributes":{"ID":135841,"DIS_CODE":0,"TOWNNAME":"安平區","LI":"西門里","LIN":"15鄰","STREET":"安北路","SECT":" ","MAREA":" ","LANE":" ","ALLEY":" ","HOUSE_NO":"３９４號","E_COORD97":163198.98000000001,"N_COORD97":2544545.8300000001,"ADDRESS":"安北路３９４號","OBJECTID":135841},"geometry":{"x":163198.98000000045,"y":2544545.8300000019}},{"attributes":{"ID":135842,"DIS_CODE":0,"TOWNNAME":"安平區","LI":"西門里","LIN":"15鄰","STREET":"安北路","SECT":" ","MAREA":" ","LANE":" ","ALLEY":" ","HOUSE_NO":"３９６號","E_COORD97":163195.06,"N_COORD97":2544544,"ADDRESS":"安北路３９６號","OBJECTID":135842},"geometry":{"x":163195.06000000052,"y":2544544.0000000019}},{"attributes":{"ID":135843,"DIS_CODE":0,"TOWNNAME":"安平區","LI":"西門里","LIN":"15鄰","STREET":"安北路","SECT":" ","MAREA":" ","LANE":" ","ALLEY":" ","HOUSE_NO":"３９８號","E_COORD97":163191.39000000001,"N_COORD97":2544541.9100000001,"ADDRESS":"安北路３９８號","OBJECTID":135843},"geometry":{"x":163191.3900000006,"y":2544541.910000002}},{"attributes":{"ID":135844,"DIS_CODE":0,"TOWNNAME":"安南區","LI":"鳳凰里","LIN":"27鄰","STREET":"北安路","SECT":"三段","MAREA":" ","LANE":"１４５巷","ALLEY":"１７弄","HOUSE_NO":"２號","E_COORD97":168233.14354300001,"N_COORD97":2549029.9302699999,"ADDRESS":"北安路三段１４５巷１７弄２號","OBJECTID":135844},"geometry":{"x":168233.14354300033,"y":2549029.9302690029}},{"attributes":{"ID":135845,"DIS_CODE":0,"TOWNNAME":"後壁區","LI":"長安里","LIN":" ","STREET":" ","SECT":" ","MAREA":"中寮","LANE":" ","ALLEY":" ","HOUSE_NO":"６４之２號","E_COORD97":184301.98999999999,"N_COORD97":2581218.3500000001,"ADDRESS":"中寮６４之２號","OBJECTID":135845},"geometry":{"x":184301.99000000022,"y":2581218.3500000015}},{"attributes":{"ID":135846,"DIS_CODE":0,"TOWNNAME":"安南區","LI":"鳳凰里","LIN":"27鄰","STREET":"北安路","SECT":"三段","MAREA":" ","LANE":"１４５巷","ALLEY":"３１弄","HOUSE_NO":"１號","E_COORD97":168208.20000000001,"N_COORD97":2549036.4199999999,"ADDRESS":"北安路三段１４５巷３１弄１號","OBJECTID":135846},"geometry":{"x":168208.20000000019,"y":2549036.4200000018}},{"attributes":{"ID":135847,"DIS_CODE":0,"TOWNNAME":"安南區","LI":"鳳凰里","LIN":"27鄰","STREET":"北安路","SECT":"三段","MAREA":" ","LANE":"１４５巷","ALLEY":"３１弄","HOUSE_NO":"２號","E_COORD97":168201.17185300001,"N_COORD97":2549048.3452599999,"ADDRESS":"北安路三段１４５巷３１弄２號","OBJECTID":135847},"geometry":{"x":168201.17185300216,"y":2549048.3452589996}},{"attributes":{"ID":135848,"DIS_CODE":0,"TOWNNAME":"安南區","LI":"鳳凰里","LIN":"27鄰","STREET":"北安路","SECT":"三段","MAREA":" ","LANE":"１４５巷","ALLEY":"３１弄","HOUSE_NO":"３號","E_COORD97":168207.73557799999,"N_COORD97":2549031.41194,"ADDRESS":"北安路三段１４５巷３１弄３號","OBJECTID":135848},"geometry":{"x":168207.73557799961,"y":2549031.4119349997}},{"attributes":{"ID":135849,"DIS_CODE":0,"TOWNNAME":"永康區","LI":"勝利里","LIN":"25鄰","STREET":"中華路","SECT":" ","MAREA":" ","LANE":"１５５巷","ALLEY":"３４弄","HOUSE_NO":"２６號","E_COORD97":171444.54000000001,"N_COORD97":2544797.25,"ADDRESS":"中華路１５５巷３４弄２６號","OBJECTID":135849},"geometry":{"x":171444.54000000097,"y":2544797.2500000019}},{"attributes":{"ID":135850,"DIS_CODE":0,"TOWNNAME":"永康區","LI":"埔園里","LIN":"23鄰","STREET":"四維街","SECT":" ","MAREA":" ","LANE":"５８巷","ALLEY":"６弄","HOUSE_NO":"２６號","E_COORD97":173469.13,"N_COORD97":2548003.25,"ADDRESS":"四維街５８巷６弄２６號","OBJECTID":135850},"geometry":{"x":173469.13000000175,"y":2548003.2500000019}},{"attributes":{"ID":135851,"DIS_CODE":0,"TOWNNAME":"安南區","LI":"鳳凰里","LIN":"27鄰","STREET":"北安路","SECT":"三段","MAREA":" ","LANE":"１４５巷","ALLEY":"３１弄","HOUSE_NO":"５號","E_COORD97":168207.28,"N_COORD97":2549027.7999999998,"ADDRESS":"北安路三段１４５巷３１弄５號","OBJECTID":135851},"geometry":{"x":168207.28000000119,"y":2549027.8000000026}},{"attributes":{"ID":135852,"DIS_CODE":0,"TOWNNAME":"安南區","LI":"鳳凰里","LIN":"27鄰","STREET":"北安路","SECT":"三段","MAREA":" ","LANE":"１４５巷","ALLEY":"３１弄","HOUSE_NO":"６號","E_COORD97":168194.396396,"N_COORD97":2549037.55027,"ADDRESS":"北安路三段１４５巷３１弄６號","OBJECTID":135852},"geometry":{"x":168194.39639600087,"y":2549037.5502650011}},{"attributes":{"ID":135853,"DIS_CODE":0,"TOWNNAME":"安南區","LI":"鳳凰里","LIN":"27鄰","STREET":"北安路","SECT":"三段","MAREA":" ","LANE":"１４５巷","ALLEY":"３１弄","HOUSE_NO":"７號","E_COORD97":168206.89000000001,"N_COORD97":2549024.2799999998,"ADDRESS":"北安路三段１４５巷３１弄７號","OBJECTID":135853},"geometry":{"x":168206.89000000153,"y":2549024.2799999993}},{"attributes":{"ID":135854,"DIS_CODE":0,"TOWNNAME":"安南區","LI":"鳳凰里","LIN":"27鄰","STREET":"北安路","SECT":"三段","MAREA":" ","LANE":"１４５巷","ALLEY":"３１弄","HOUSE_NO":"８號","E_COORD97":168193.33773100001,"N_COORD97":2549033.1052700002,"ADDRESS":"北安路三段１４５巷３１弄８號","OBJECTID":135854},"geometry":{"x":168193.33773100097,"y":2549033.1052670013}},{"attributes":{"ID":135855,"DIS_CODE":0,"TOWNNAME":"安南區","LI":"鳳凰里","LIN":"27鄰","STREET":"北安路","SECT":"三段","MAREA":" ","LANE":"１４５巷","ALLEY":"３１弄","HOUSE_NO":"１２號","E_COORD97":168191.00866699999,"N_COORD97":2549025.6969400002,"ADDRESS":"北安路三段１４５巷３１弄１２號","OBJECTID":135855},"geometry":{"x":168191.00866700057,"y":2549025.6969380006}},{"attributes":{"ID":135856,"DIS_CODE":0,"TOWNNAME":"安南區","LI":"州北里","LIN":"27鄰","STREET":"安和路","SECT":"六段","MAREA":" ","LANE":"２０巷","ALLEY":"１２０弄","HOUSE_NO":"３１號","E_COORD97":169808.44,"N_COORD97":2552393.77,"ADDRESS":"安和路六段２０巷１２０弄３１號","OBJECTID":135856},"geometry":{"x":169808.44000000134,"y":2552393.7700000014}},{"attributes":{"ID":135857,"DIS_CODE":0,"TOWNNAME":"安南區","LI":"州北里","LIN":"27鄰","STREET":"安和路","SECT":"六段","MAREA":" ","LANE":"２０巷","ALLEY":"１２０弄","HOUSE_NO":"３２號","E_COORD97":169783.25,"N_COORD97":2552388.8900000001,"ADDRESS":"安和路六段２０巷１２０弄３２號","OBJECTID":135857},"geometry":{"x":169783.25000000093,"y":2552388.8900000006}},{"attributes":{"ID":135858,"DIS_CODE":0,"TOWNNAME":"安南區","LI":"州北里","LIN":"27鄰","STREET":"安和路","SECT":"六段","MAREA":" ","LANE":"２０巷","ALLEY":"１２０弄","HOUSE_NO":"３３號","E_COORD97":169808.32999999999,"N_COORD97":2552389.3500000001,"ADDRESS":"安和路六段２０巷１２０弄３３號","OBJECTID":135858},"geometry":{"x":169808.33000000101,"y":2552389.3500000015}},{"attributes":{"ID":135859,"DIS_CODE":0,"TOWNNAME":"安南區","LI":"州北里","LIN":"27鄰","STREET":"安和路","SECT":"六段","MAREA":" ","LANE":"２０巷","ALLEY":"１２０弄","HOUSE_NO":"３４號","E_COORD97":169783.76999999999,"N_COORD97":2552384.8399999999,"ADDRESS":"安和路六段２０巷１２０弄３４號","OBJECTID":135859},"geometry":{"x":169783.76999999955,"y":2552384.8399999999}},{"attributes":{"ID":135860,"DIS_CODE":0,"TOWNNAME":"佳里區","LI":"東寧里","LIN":" ","STREET":"進學路","SECT":" ","MAREA":" ","LANE":" ","ALLEY":" ","HOUSE_NO":"９１號","E_COORD97":166124.26999999999,"N_COORD97":2562656.2400000002,"ADDRESS":"進學路９１號","OBJECTID":135860},"geometry":{"x":166124.27000000142,"y":2562656.2399999984}},{"attributes":{"ID":135861,"DIS_CODE":0,"TOWNNAME":"安南區","LI":"州北里","LIN":"27鄰","STREET":"安和路","SECT":"六段","MAREA":" ","LANE":"２０巷","ALLEY":"１２０弄","HOUSE_NO":"３５號","E_COORD97":169808.79000000001,"N_COORD97":2552384.5899999999,"ADDRESS":"安和路六段２０巷１２０弄３５號","OBJECTID":135861},"geometry":{"x":169808.79000000097,"y":2552384.5900000017}},{"attributes":{"ID":135862,"DIS_CODE":0,"TOWNNAME":"佳里區","LI":"東寧里","LIN":" ","STREET":"新生路","SECT":" ","MAREA":" ","LANE":" ","ALLEY":" ","HOUSE_NO":"１４６號","E_COORD97":165814.10000000001,"N_COORD97":2562312.9399999999,"ADDRESS":"新生路１４６號","OBJECTID":135862},"geometry":{"x":165814.10000000056,"y":2562312.9400000013}},{"attributes":{"ID":135863,"DIS_CODE":0,"TOWNNAME":"安南區","LI":"州北里","LIN":"27鄰","STREET":"安和路","SECT":"六段","MAREA":" ","LANE":"２０巷","ALLEY":"１２０弄","HOUSE_NO":"３６號","E_COORD97":169783.60000000001,"N_COORD97":2552380.21,"ADDRESS":"安和路六段２０巷１２０弄３６號","OBJECTID":135863},"geometry":{"x":169783.5999999987,"y":2552380.2100000009}},{"attributes":{"ID":135864,"DIS_CODE":0,"TOWNNAME":"後壁區","LI":"長安里","LIN":" ","STREET":" ","SECT":" ","MAREA":"中寮","LANE":" ","ALLEY":" ","HOUSE_NO":"３３號","E_COORD97":184453.69,"N_COORD97":2581195.8999999999,"ADDRESS":"中寮３３號","OBJECTID":135864},"geometry":{"x":184453.69000000041,"y":2581195.9000000004}},{"attributes":{"ID":135865,"DIS_CODE":0,"TOWNNAME":"安南區","LI":"州北里","LIN":"27鄰","STREET":"安和路","SECT":"六段","MAREA":" ","LANE":"２０巷","ALLEY":"１２０弄","HOUSE_NO":"３７號","E_COORD97":169808.84,"N_COORD97":2552380.3700000001,"ADDRESS":"安和路六段２０巷１２０弄３７號","OBJECTID":135865},"geometry":{"x":169808.83999999985,"y":2552380.3700000048}},{"attributes":{"ID":135866,"DIS_CODE":0,"TOWNNAME":"安南區","LI":"州北里","LIN":"27鄰","STREET":"安和路","SECT":"六段","MAREA":" ","LANE":"２０巷","ALLEY":"１２０弄","HOUSE_NO":"３８號","E_COORD97":169783.78,"N_COORD97":2552375.9900000002,"ADDRESS":"安和路六段２０巷１２０弄３８號","OBJECTID":135866},"geometry":{"x":169783.78000000119,"y":2552375.9900000021}},{"attributes":{"ID":135867,"DIS_CODE":0,"TOWNNAME":"安南區","LI":"州北里","LIN":"27鄰","STREET":"安和路","SECT":"六段","MAREA":" ","LANE":"２０巷","ALLEY":"１２０弄","HOUSE_NO":"３９號","E_COORD97":169808.89999999999,"N_COORD97":2552375.6600000001,"ADDRESS":"安和路六段２０巷１２０弄３９號","OBJECTID":135867},"geometry":{"x":169808.90000000037,"y":2552375.6600000001}},{"attributes":{"ID":135868,"DIS_CODE":0,"TOWNNAME":"安南區","LI":"州北里","LIN":"27鄰","STREET":"安和路","SECT":"六段","MAREA":" ","LANE":"２０巷","ALLEY":"１２０弄","HOUSE_NO":"４０號","E_COORD97":169783.76000000001,"N_COORD97":2552371.5699999998,"ADDRESS":"安和路六段２０巷１２０弄４０號","OBJECTID":135868},"geometry":{"x":169783.75999999978,"y":2552371.5700000022}},{"attributes":{"ID":135869,"DIS_CODE":0,"TOWNNAME":"安南區","LI":"州北里","LIN":"27鄰","STREET":"安和路","SECT":"六段","MAREA":" ","LANE":"２０巷","ALLEY":"１２０弄","HOUSE_NO":"４１號","E_COORD97":169809.25,"N_COORD97":2552371.3599999999,"ADDRESS":"安和路六段２０巷１２０弄４１號","OBJECTID":135869},"geometry":{"x":169809.25000000093,"y":2552371.3599999994}},{"attributes":{"ID":135870,"DIS_CODE":0,"TOWNNAME":"安南區","LI":"州北里","LIN":"27鄰","STREET":"安和路","SECT":"六段","MAREA":" ","LANE":"２０巷","ALLEY":"１２０弄","HOUSE_NO":"４２號","E_COORD97":169783.72,"N_COORD97":2552366.71,"ADDRESS":"安和路六段２０巷１２０弄４２號","OBJECTID":135870},"geometry":{"x":169783.72000000067,"y":2552366.7100000009}},{"attributes":{"ID":135871,"DIS_CODE":0,"TOWNNAME":"永康區","LI":"埔園里","LIN":"23鄰","STREET":"四維街","SECT":" ","MAREA":" ","LANE":"５８巷","ALLEY":"６弄","HOUSE_NO":"１１號","E_COORD97":173471.01999999999,"N_COORD97":2548042.5699999998,"ADDRESS":"四維街５８巷６弄１１號","OBJECTID":135871},"geometry":{"x":173471.01999999955,"y":2548042.5700000022}},{"attributes":{"ID":135872,"DIS_CODE":0,"TOWNNAME":"安南區","LI":"州北里","LIN":"27鄰","STREET":"安和路","SECT":"六段","MAREA":" ","LANE":"２０巷","ALLEY":"１２０弄","HOUSE_NO":"４３號","E_COORD97":169809.42000000001,"N_COORD97":2552366.6099999999,"ADDRESS":"安和路六段２０巷１２０弄４３號","OBJECTID":135872},"geometry":{"x":169809.42000000086,"y":2552366.6100000031}},{"attributes":{"ID":135873,"DIS_CODE":0,"TOWNNAME":"安南區","LI":"州北里","LIN":"27鄰","STREET":"安和路","SECT":"六段","MAREA":" ","LANE":"２０巷","ALLEY":"１２０弄","HOUSE_NO":"４４號","E_COORD97":169783.57999999999,"N_COORD97":2552361.8900000001,"ADDRESS":"安和路六段２０巷１２０弄４４號","OBJECTID":135873},"geometry":{"x":169783.58000000007,"y":2552361.8900000006}},{"attributes":{"ID":135874,"DIS_CODE":0,"TOWNNAME":"安南區","LI":"州北里","LIN":"27鄰","STREET":"安和路","SECT":"六段","MAREA":" ","LANE":"２０巷","ALLEY":"１２０弄","HOUSE_NO":"４５號","E_COORD97":169809.59,"N_COORD97":2552362.2999999998,"ADDRESS":"安和路六段２０巷１２０弄４５號","OBJECTID":135874},"geometry":{"x":169809.59000000078,"y":2552362.3000000007}},{"attributes":{"ID":135875,"DIS_CODE":0,"TOWNNAME":"安南區","LI":"州北里","LIN":"27鄰","STREET":"安和路","SECT":"六段","MAREA":" ","LANE":"２０巷","ALLEY":"１２０弄","HOUSE_NO":"４６號","E_COORD97":169783.75,"N_COORD97":2552357.5600000001,"ADDRESS":"安和路六段２０巷１２０弄４６號","OBJECTID":135875},"geometry":{"x":169783.75000000093,"y":2552357.5600000005}},{"attributes":{"ID":135876,"DIS_CODE":0,"TOWNNAME":"安南區","LI":"州北里","LIN":"27鄰","STREET":"安和路","SECT":"六段","MAREA":" ","LANE":"２０巷","ALLEY":"１２０弄","HOUSE_NO":"４７號","E_COORD97":169809.59,"N_COORD97":2552357.9399999999,"ADDRESS":"安和路六段２０巷１２０弄４７號","OBJECTID":135876},"geometry":{"x":169809.59000000078,"y":2552357.9400000013}},{"attributes":{"ID":135877,"DIS_CODE":0,"TOWNNAME":"安南區","LI":"州北里","LIN":"27鄰","STREET":"安和路","SECT":"六段","MAREA":" ","LANE":"２０巷","ALLEY":"１２０弄","HOUSE_NO":"４８號","E_COORD97":169783.92000000001,"N_COORD97":2552353.23,"ADDRESS":"安和路六段２０巷１２０弄４８號","OBJECTID":135877},"geometry":{"x":169783.92000000086,"y":2552353.2300000042}},{"attributes":{"ID":135878,"DIS_CODE":0,"TOWNNAME":"安南區","LI":"州北里","LIN":"27鄰","STREET":"安和路","SECT":"六段","MAREA":" ","LANE":"２０巷","ALLEY":"１２０弄","HOUSE_NO":"４９號","E_COORD97":169809.88,"N_COORD97":2552353.0600000001,"ADDRESS":"安和路六段２０巷１２０弄４９號","OBJECTID":135878},"geometry":{"x":169809.88000000082,"y":2552353.0600000005}},{"attributes":{"ID":135879,"DIS_CODE":0,"TOWNNAME":"安南區","LI":"州北里","LIN":"27鄰","STREET":"安和路","SECT":"六段","MAREA":" ","LANE":"２０巷","ALLEY":"１２０弄","HOUSE_NO":"５０號","E_COORD97":169784.48000000001,"N_COORD97":2552348.46,"ADDRESS":"安和路六段２０巷１２０弄５０號","OBJECTID":135879},"geometry":{"x":169784.48000000138,"y":2552348.4600000009}},{"attributes":{"ID":135880,"DIS_CODE":0,"TOWNNAME":"安南區","LI":"州北里","LIN":"27鄰","STREET":"安和路","SECT":"六段","MAREA":" ","LANE":"２０巷","ALLEY":"１２０弄","HOUSE_NO":"５０號之１","E_COORD97":169770.69,"N_COORD97":2552364.4500000002,"ADDRESS":"安和路六段２０巷１２０弄５０號之１","OBJECTID":135880},"geometry":{"x":169770.69000000134,"y":2552364.4500000011}},{"attributes":{"ID":135881,"DIS_CODE":0,"TOWNNAME":"安南區","LI":"州北里","LIN":"27鄰","STREET":"安和路","SECT":"六段","MAREA":" ","LANE":"２０巷","ALLEY":"１２０弄","HOUSE_NO":"５１號","E_COORD97":169810.19,"N_COORD97":2552348.77,"ADDRESS":"安和路六段２０巷１２０弄５１號","OBJECTID":135881},"geometry":{"x":169810.19000000041,"y":2552348.7700000033}},{"attributes":{"ID":135882,"DIS_CODE":0,"TOWNNAME":"安南區","LI":"州北里","LIN":"27鄰","STREET":"安和路","SECT":"六段","MAREA":" ","LANE":"２０巷","ALLEY":"１２０弄","HOUSE_NO":"５２號","E_COORD97":169781.76999999999,"N_COORD97":2552335.1899999999,"ADDRESS":"安和路六段２０巷１２０弄５２號","OBJECTID":135882},"geometry":{"x":169781.76999999955,"y":2552335.1899999995}},{"attributes":{"ID":135883,"DIS_CODE":0,"TOWNNAME":"安南區","LI":"州北里","LIN":"27鄰","STREET":"安和路","SECT":"六段","MAREA":" ","LANE":"２０巷","ALLEY":"１２０弄","HOUSE_NO":"５３號","E_COORD97":169809.17000000001,"N_COORD97":2552334.1699999999,"ADDRESS":"安和路六段２０巷１２０弄５３號","OBJECTID":135883},"geometry":{"x":169809.17000000086,"y":2552334.1700000018}},{"attributes":{"ID":135884,"DIS_CODE":0,"TOWNNAME":"安南區","LI":"州北里","LIN":"27鄰","STREET":"安和路","SECT":"六段","MAREA":" ","LANE":"２０巷","ALLEY":"１２０弄","HOUSE_NO":"５４號","E_COORD97":169782.10999999999,"N_COORD97":2552329.5800000001,"ADDRESS":"安和路六段２０巷１２０弄５４號","OBJECTID":135884},"geometry":{"x":169782.11000000034,"y":2552329.5800000001}},{"attributes":{"ID":135885,"DIS_CODE":0,"TOWNNAME":"安南區","LI":"州北里","LIN":"27鄰","STREET":"安和路","SECT":"六段","MAREA":" ","LANE":"２０巷","ALLEY":"１２０弄","HOUSE_NO":"５５號","E_COORD97":169809.34,"N_COORD97":2552327.54,"ADDRESS":"安和路六段２０巷１２０弄５５號","OBJECTID":135885},"geometry":{"x":169809.34000000171,"y":2552327.540000001}},{"attributes":{"ID":135886,"DIS_CODE":0,"TOWNNAME":"安南區","LI":"州北里","LIN":"27鄰","STREET":"安和路","SECT":"六段","MAREA":" ","LANE":"２０巷","ALLEY":"１２０弄","HOUSE_NO":"５６號","E_COORD97":169782.10999999999,"N_COORD97":2552325.3300000001,"ADDRESS":"安和路六段２０巷１２０弄５６號","OBJECTID":135886},"geometry":{"x":169782.11000000034,"y":2552325.3300000038}},{"attributes":{"ID":135887,"DIS_CODE":0,"TOWNNAME":"安南區","LI":"州北里","LIN":"27鄰","STREET":"安和路","SECT":"六段","MAREA":" ","LANE":"２０巷","ALLEY":"１２０弄","HOUSE_NO":"５７號","E_COORD97":169808.82999999999,"N_COORD97":2552321.3799999999,"ADDRESS":"安和路六段２０巷１２０弄５７號","OBJECTID":135887},"geometry":{"x":169808.83000000101,"y":2552321.3800000008}},{"attributes":{"ID":135888,"DIS_CODE":0,"TOWNNAME":"安南區","LI":"州北里","LIN":"27鄰","STREET":"安和路","SECT":"六段","MAREA":" ","LANE":"２０巷","ALLEY":"１２０弄","HOUSE_NO":"５８號","E_COORD97":169781.76999999999,"N_COORD97":2552321.25,"ADDRESS":"安和路六段２０巷１２０弄５８號","OBJECTID":135888},"geometry":{"x":169781.76999999955,"y":2552321.25}},{"attributes":{"ID":135889,"DIS_CODE":0,"TOWNNAME":"安南區","LI":"州北里","LIN":"27鄰","STREET":"安和路","SECT":"六段","MAREA":" ","LANE":"２０巷","ALLEY":"１２０弄","HOUSE_NO":"５９號","E_COORD97":169809.17000000001,"N_COORD97":2552315.7599999998,"ADDRESS":"安和路六段２０巷１２０弄５９號","OBJECTID":135889},"geometry":{"x":169809.17000000086,"y":2552315.7600000016}},{"attributes":{"ID":135890,"DIS_CODE":0,"TOWNNAME":"安南區","LI":"州北里","LIN":"27鄰","STREET":"安和路","SECT":"六段","MAREA":" ","LANE":"２０巷","ALLEY":"１２０弄","HOUSE_NO":"６０號","E_COORD97":169781.94,"N_COORD97":2552317.1699999999,"ADDRESS":"安和路六段２０巷１２０弄６０號","OBJECTID":135890},"geometry":{"x":169781.94000000041,"y":2552317.1700000018}},{"attributes":{"ID":135891,"DIS_CODE":0,"TOWNNAME":"仁德區","LI":"仁愛里","LIN":"28鄰","STREET":"大同路","SECT":"三段","MAREA":" ","LANE":"３５８巷","ALLEY":" ","HOUSE_NO":"３６號","E_COORD97":169717.57000000001,"N_COORD97":2539460.7207399998,"ADDRESS":"大同路三段３５８巷３６號","OBJECTID":135891},"geometry":{"x":169717.57000000123,"y":2539460.7207399998}},{"attributes":{"ID":135892,"DIS_CODE":0,"TOWNNAME":"安南區","LI":"州北里","LIN":"27鄰","STREET":"安和路","SECT":"六段","MAREA":" ","LANE":"２０巷","ALLEY":"１２０弄","HOUSE_NO":"６１號","E_COORD97":169809.34,"N_COORD97":2552309.2999999998,"ADDRESS":"安和路六段２０巷１２０弄６１號","OBJECTID":135892},"geometry":{"x":169809.34000000171,"y":2552309.3000000045}},{"attributes":{"ID":135893,"DIS_CODE":0,"TOWNNAME":"安南區","LI":"州北里","LIN":"27鄰","STREET":"安和路","SECT":"六段","MAREA":" ","LANE":"２０巷","ALLEY":"１２０弄","HOUSE_NO":"６２號","E_COORD97":169781.94,"N_COORD97":2552312.4100000001,"ADDRESS":"安和路六段２０巷１２０弄６２號","OBJECTID":135893},"geometry":{"x":169781.94000000041,"y":2552312.410000002}},{"attributes":{"ID":135894,"DIS_CODE":0,"TOWNNAME":"安南區","LI":"州北里","LIN":"27鄰","STREET":"安和路","SECT":"六段","MAREA":" ","LANE":"２０巷","ALLEY":"１２０弄","HOUSE_NO":"６３號","E_COORD97":169809,"N_COORD97":2552303.0099999998,"ADDRESS":"安和路六段２０巷１２０弄６３號","OBJECTID":135894},"geometry":{"x":169809.00000000093,"y":2552303.0099999979}},{"attributes":{"ID":135895,"DIS_CODE":0,"TOWNNAME":"安南區","LI":"州北里","LIN":"27鄰","STREET":"安和路","SECT":"六段","MAREA":" ","LANE":"２０巷","ALLEY":"１２０弄","HOUSE_NO":"６４號","E_COORD97":169781.76999999999,"N_COORD97":2552307.9900000002,"ADDRESS":"安和路六段２０巷１２０弄６４號","OBJECTID":135895},"geometry":{"x":169781.76999999955,"y":2552307.9900000021}},{"attributes":{"ID":135896,"DIS_CODE":0,"TOWNNAME":"安南區","LI":"州北里","LIN":"27鄰","STREET":"安和路","SECT":"六段","MAREA":" ","LANE":"２０巷","ALLEY":"１２０弄","HOUSE_NO":"６５號","E_COORD97":169809,"N_COORD97":2552295.8700000001,"ADDRESS":"安和路六段２０巷１２０弄６５號","OBJECTID":135896},"geometry":{"x":169809.00000000093,"y":2552295.8700000029}},{"attributes":{"ID":135897,"DIS_CODE":0,"TOWNNAME":"安南區","LI":"州北里","LIN":"27鄰","STREET":"安和路","SECT":"六段","MAREA":" ","LANE":"２０巷","ALLEY":"１２０弄","HOUSE_NO":"６６號","E_COORD97":169781.84,"N_COORD97":2552304.02,"ADDRESS":"安和路六段２０巷１２０弄６６號","OBJECTID":135897},"geometry":{"x":169781.83999999985,"y":2552304.0200000014}},{"attributes":{"ID":135898,"DIS_CODE":0,"TOWNNAME":"安南區","LI":"州北里","LIN":"27鄰","STREET":"安和路","SECT":"六段","MAREA":" ","LANE":"２０巷","ALLEY":"１２０弄","HOUSE_NO":"６７號","E_COORD97":169809.34,"N_COORD97":2552288.8999999999,"ADDRESS":"安和路六段２０巷１２０弄６７號","OBJECTID":135898},"geometry":{"x":169809.34000000171,"y":2552288.9000000022}},{"attributes":{"ID":135899,"DIS_CODE":0,"TOWNNAME":"安南區","LI":"州北里","LIN":"27鄰","STREET":"安和路","SECT":"六段","MAREA":" ","LANE":"２０巷","ALLEY":"１２０弄","HOUSE_NO":"６８號","E_COORD97":169782.28,"N_COORD97":2552299.3199999998,"ADDRESS":"安和路六段２０巷１２０弄６８號","OBJECTID":135899},"geometry":{"x":169782.28000000026,"y":2552299.3200000022}},{"attributes":{"ID":135900,"DIS_CODE":0,"TOWNNAME":"安南區","LI":"州北里","LIN":"27鄰","STREET":"安和路","SECT":"六段","MAREA":" ","LANE":"２０巷","ALLEY":"１２０弄","HOUSE_NO":"６９號","E_COORD97":169812.23000000001,"N_COORD97":2552274.3500000001,"ADDRESS":"安和路六段２０巷１２０弄６９號","OBJECTID":135900},"geometry":{"x":169812.23000000045,"y":2552274.3500000015}},{"attributes":{"ID":135901,"DIS_CODE":0,"TOWNNAME":"安南區","LI":"州北里","LIN":"27鄰","STREET":"安和路","SECT":"六段","MAREA":" ","LANE":"２０巷","ALLEY":"１２０弄","HOUSE_NO":"７０號","E_COORD97":169781.94,"N_COORD97":2552294.8999999999,"ADDRESS":"安和路六段２０巷１２０弄７０號","OBJECTID":135901},"geometry":{"x":169781.94000000041,"y":2552294.9000000022}},{"attributes":{"ID":135902,"DIS_CODE":0,"TOWNNAME":"安南區","LI":"州北里","LIN":"27鄰","STREET":"安和路","SECT":"六段","MAREA":" ","LANE":"２０巷","ALLEY":"１２０弄","HOUSE_NO":"７１號","E_COORD97":169812.39999999999,"N_COORD97":2552266.7000000002,"ADDRESS":"安和路六段２０巷１２０弄７１號","OBJECTID":135902},"geometry":{"x":169812.40000000037,"y":2552266.6999999993}},{"attributes":{"ID":135903,"DIS_CODE":0,"TOWNNAME":"安南區","LI":"州北里","LIN":"27鄰","STREET":"安和路","SECT":"六段","MAREA":" ","LANE":"２０巷","ALLEY":"１２０弄","HOUSE_NO":"７２號","E_COORD97":169781.94,"N_COORD97":2552290.1400000001,"ADDRESS":"安和路六段２０巷１２０弄７２號","OBJECTID":135903},"geometry":{"x":169781.94000000041,"y":2552290.1400000025}},{"attributes":{"ID":135904,"DIS_CODE":0,"TOWNNAME":"安南區","LI":"州北里","LIN":"27鄰","STREET":"安和路","SECT":"六段","MAREA":" ","LANE":"２０巷","ALLEY":"１２０弄","HOUSE_NO":"７３號","E_COORD97":169811.54999999999,"N_COORD97":2552257.79,"ADDRESS":"安和路六段２０巷１２０弄７３號","OBJECTID":135904},"geometry":{"x":169811.55000000075,"y":2552257.790000001}},{"attributes":{"ID":135905,"DIS_CODE":0,"TOWNNAME":"安南區","LI":"州北里","LIN":"27鄰","STREET":"安和路","SECT":"六段","MAREA":" ","LANE":"２０巷","ALLEY":"１２０弄","HOUSE_NO":"７４號","E_COORD97":169781.98000000001,"N_COORD97":2552286.29,"ADDRESS":"安和路六段２０巷１２０弄７４號","OBJECTID":135905},"geometry":{"x":169781.98000000231,"y":2552286.2899999991}},{"attributes":{"ID":135906,"DIS_CODE":0,"TOWNNAME":"南區","LI":"文南里","LIN":"27鄰","STREET":"健康路","SECT":"二段","MAREA":" ","LANE":"５３３巷","ALLEY":"８弄","HOUSE_NO":"２號","E_COORD97":166187.16,"N_COORD97":2542544.8399999999,"ADDRESS":"健康路二段５３３巷８弄２號","OBJECTID":135906},"geometry":{"x":166187.16000000108,"y":2542544.8400000017}},{"attributes":{"ID":135907,"DIS_CODE":0,"TOWNNAME":"佳里區","LI":"東寧里","LIN":" ","STREET":"新生路","SECT":" ","MAREA":" ","LANE":" ","ALLEY":" ","HOUSE_NO":"１４號","E_COORD97":166123.42999999999,"N_COORD97":2562437.8500000001,"ADDRESS":"新生路１４號","OBJECTID":135907},"geometry":{"x":166123.43000000156,"y":2562437.8499999978}},{"attributes":{"ID":135908,"DIS_CODE":0,"TOWNNAME":"佳里區","LI":"建南里","LIN":" ","STREET":"新生路","SECT":" ","MAREA":" ","LANE":" ","ALLEY":" ","HOUSE_NO":"３０２號","E_COORD97":165588.47,"N_COORD97":2562268.2799999998,"ADDRESS":"新生路３０２號","OBJECTID":135908},"geometry":{"x":165588.46999999974,"y":2562268.2799999993}},{"attributes":{"ID":135909,"DIS_CODE":0,"TOWNNAME":"佳里區","LI":"建南里","LIN":" ","STREET":"新生路","SECT":" ","MAREA":" ","LANE":" ","ALLEY":" ","HOUSE_NO":"３５７之１２號","E_COORD97":165390.88,"N_COORD97":2562142.3599999999,"ADDRESS":"新生路３５７之１２號","OBJECTID":135909},"geometry":{"x":165390.87999999989,"y":2562142.3599999994}},{"attributes":{"ID":135910,"DIS_CODE":0,"TOWNNAME":"佳里區","LI":"忠仁里","LIN":" ","STREET":"新生路","SECT":" ","MAREA":" ","LANE":" ","ALLEY":" ","HOUSE_NO":"９９號","E_COORD97":165927.14000000001,"N_COORD97":2562307.8300000001,"ADDRESS":"新生路９９號","OBJECTID":135910},"geometry":{"x":165927.1400000006,"y":2562307.8300000019}},{"attributes":{"ID":135911,"DIS_CODE":0,"TOWNNAME":"佳里區","LI":"東寧里","LIN":" ","STREET":"義民街","SECT":" ","MAREA":" ","LANE":" ","ALLEY":" ","HOUSE_NO":"１３５號","E_COORD97":165782.70999999999,"N_COORD97":2562410.4399999999,"ADDRESS":"義民街１３５號","OBJECTID":135911},"geometry":{"x":165782.71000000183,"y":2562410.4400000013}},{"attributes":{"ID":135912,"DIS_CODE":0,"TOWNNAME":"佳里區","LI":"東寧里","LIN":" ","STREET":"義民街","SECT":" ","MAREA":" ","LANE":" ","ALLEY":" ","HOUSE_NO":"１３７號","E_COORD97":165777.98000000001,"N_COORD97":2562409.8900000001,"ADDRESS":"義民街１３７號","OBJECTID":135912},"geometry":{"x":165777.98000000231,"y":2562409.8900000025}},{"attributes":{"ID":135913,"DIS_CODE":0,"TOWNNAME":"佳里區","LI":"東寧里","LIN":" ","STREET":"義民街","SECT":" ","MAREA":" ","LANE":" ","ALLEY":" ","HOUSE_NO":"１３９號","E_COORD97":165774.70999999999,"N_COORD97":2562409.6499999999,"ADDRESS":"義民街１３９號","OBJECTID":135913},"geometry":{"x":165774.71000000089,"y":2562409.6500000041}},{"attributes":{"ID":135914,"DIS_CODE":0,"TOWNNAME":"佳里區","LI":"東寧里","LIN":" ","STREET":"義民街","SECT":" ","MAREA":" ","LANE":" ","ALLEY":" ","HOUSE_NO":"１４５號","E_COORD97":165763.98999999999,"N_COORD97":2562408.8999999999,"ADDRESS":"義民街１４５號","OBJECTID":135914},"geometry":{"x":165763.98999999929,"y":2562408.9000000022}},{"attributes":{"ID":135915,"DIS_CODE":0,"TOWNNAME":"佳里區","LI":"東寧里","LIN":" ","STREET":"義民街","SECT":" ","MAREA":" ","LANE":" ","ALLEY":" ","HOUSE_NO":"１４８號","E_COORD97":165754.04000000001,"N_COORD97":2562428.8500000001,"ADDRESS":"義民街１４８號","OBJECTID":135915},"geometry":{"x":165754.04000000097,"y":2562428.8500000015}},{"attributes":{"ID":135916,"DIS_CODE":0,"TOWNNAME":"佳里區","LI":"東寧里","LIN":" ","STREET":"義民街","SECT":" ","MAREA":" ","LANE":" ","ALLEY":" ","HOUSE_NO":"１５１號","E_COORD97":165756.23999999999,"N_COORD97":2562408.1099999999,"ADDRESS":"義民街１５１號","OBJECTID":135916},"geometry":{"x":165756.24000000115,"y":2562408.1099999994}},{"attributes":{"ID":135917,"DIS_CODE":0,"TOWNNAME":"佳里區","LI":"東寧里","LIN":" ","STREET":"義民街","SECT":" ","MAREA":" ","LANE":" ","ALLEY":" ","HOUSE_NO":"１５３號","E_COORD97":165752.38,"N_COORD97":2562407.9399999999,"ADDRESS":"義民街１５３號","OBJECTID":135917},"geometry":{"x":165752.37999999989,"y":2562407.9400000013}},{"attributes":{"ID":135918,"DIS_CODE":0,"TOWNNAME":"佳里區","LI":"建南里","LIN":" ","STREET":"義民街","SECT":" ","MAREA":" ","LANE":" ","ALLEY":" ","HOUSE_NO":"１７７號","E_COORD97":165665.47,"N_COORD97":2562400.6800000002,"ADDRESS":"義民街１７７號","OBJECTID":135918},"geometry":{"x":165665.4700000016,"y":2562400.6799999997}},{"attributes":{"ID":135919,"DIS_CODE":0,"TOWNNAME":"安南區","LI":"州北里","LIN":"27鄰","STREET":"安和路","SECT":"六段","MAREA":" ","LANE":"２０巷","ALLEY":"１２０弄","HOUSE_NO":"７５號","E_COORD97":169811.54999999999,"N_COORD97":2552251.3300000001,"ADDRESS":"安和路六段２０巷１２０弄７５號","OBJECTID":135919},"geometry":{"x":169811.55000000075,"y":2552251.3300000019}},{"attributes":{"ID":135920,"DIS_CODE":0,"TOWNNAME":"安南區","LI":"州北里","LIN":"27鄰","STREET":"安和路","SECT":"六段","MAREA":" ","LANE":"２０巷","ALLEY":"１２０弄","HOUSE_NO":"７７號","E_COORD97":169810.87,"N_COORD97":2552242.1499999999,"ADDRESS":"安和路六段２０巷１２０弄７７號","OBJECTID":135920},"geometry":{"x":169810.87000000011,"y":2552242.1500000041}},{"attributes":{"ID":135921,"DIS_CODE":0,"TOWNNAME":"佳里區","LI":"東寧里","LIN":" ","STREET":"義民街","SECT":" ","MAREA":" ","LANE":" ","ALLEY":" ","HOUSE_NO":"２６號","E_COORD97":166063.14000000001,"N_COORD97":2562475.5099999998,"ADDRESS":"義民街２６號","OBJECTID":135921},"geometry":{"x":166063.1400000006,"y":2562475.5100000016}},{"attributes":{"ID":135922,"DIS_CODE":0,"TOWNNAME":"佳里區","LI":"東寧里","LIN":" ","STREET":"義民街","SECT":" ","MAREA":" ","LANE":" ","ALLEY":" ","HOUSE_NO":"２８號","E_COORD97":166067.82999999999,"N_COORD97":2562418.6200000001,"ADDRESS":"義民街２８號","OBJECTID":135922},"geometry":{"x":166067.83000000007,"y":2562418.6200000029}},{"attributes":{"ID":135923,"DIS_CODE":0,"TOWNNAME":"安南區","LI":"州北里","LIN":"27鄰","STREET":"安和路","SECT":"六段","MAREA":" ","LANE":"２０巷","ALLEY":"１２０弄","HOUSE_NO":"７８號","E_COORD97":169783.57999999999,"N_COORD97":2552273.8700000001,"ADDRESS":"安和路六段２０巷１２０弄７８號","OBJECTID":135923},"geometry":{"x":169783.58000000007,"y":2552273.870000001}},{"attributes":{"ID":135924,"DIS_CODE":0,"TOWNNAME":"安南區","LI":"州北里","LIN":"27鄰","STREET":"安和路","SECT":"六段","MAREA":" ","LANE":"２０巷","ALLEY":"１２０弄","HOUSE_NO":"７９號","E_COORD97":169811.20999999999,"N_COORD97":2552237.0499999998,"ADDRESS":"安和路六段２０巷１２０弄７９號","OBJECTID":135924},"geometry":{"x":169811.21000000089,"y":2552237.0500000026}},{"attributes":{"ID":135925,"DIS_CODE":0,"TOWNNAME":"安南區","LI":"州北里","LIN":"27鄰","STREET":"安和路","SECT":"六段","MAREA":" ","LANE":"２０巷","ALLEY":"１２０弄","HOUSE_NO":"８０號","E_COORD97":169783.41,"N_COORD97":2552265.4700000002,"ADDRESS":"安和路六段２０巷１２０弄８０號","OBJECTID":135925},"geometry":{"x":169783.41000000015,"y":2552265.4700000025}},{"attributes":{"ID":135926,"DIS_CODE":0,"TOWNNAME":"安南區","LI":"州北里","LIN":"27鄰","STREET":"安和路","SECT":"六段","MAREA":" ","LANE":"２０巷","ALLEY":"１２０弄","HOUSE_NO":"８２號","E_COORD97":169782.73000000001,"N_COORD97":2552257.6499999999,"ADDRESS":"安和路六段２０巷１２０弄８２號","OBJECTID":135926},"geometry":{"x":169782.73000000138,"y":2552257.6500000004}},{"attributes":{"ID":135927,"DIS_CODE":0,"TOWNNAME":"安南區","LI":"州北里","LIN":"27鄰","STREET":"安和路","SECT":"六段","MAREA":" ","LANE":"２０巷","ALLEY":"１２０弄","HOUSE_NO":"８４號","E_COORD97":169783.07000000001,"N_COORD97":2552250.6800000002,"ADDRESS":"安和路六段２０巷１２０弄８４號","OBJECTID":135927},"geometry":{"x":169783.07000000123,"y":2552250.6799999997}},{"attributes":{"ID":135928,"DIS_CODE":0,"TOWNNAME":"安南區","LI":"州北里","LIN":"27鄰","STREET":"安和路","SECT":"六段","MAREA":" ","LANE":"２０巷","ALLEY":"１２０弄","HOUSE_NO":"８６號","E_COORD97":169783.07000000001,"N_COORD97":2552244.2200000002,"ADDRESS":"安和路六段２０巷１２０弄８６號","OBJECTID":135928},"geometry":{"x":169783.07000000123,"y":2552244.2200000007}},{"attributes":{"ID":135929,"DIS_CODE":0,"TOWNNAME":"永康區","LI":"埔園里","LIN":"31鄰","STREET":"永大路","SECT":"三段","MAREA":" ","LANE":"４６９巷","ALLEY":"１６６弄","HOUSE_NO":"５號","E_COORD97":173714.70000000001,"N_COORD97":2548834.98,"ADDRESS":"永大路三段４６９巷１６６弄５號","OBJECTID":135929},"geometry":{"x":173714.70000000205,"y":2548834.9800000004}},{"attributes":{"ID":135930,"DIS_CODE":0,"TOWNNAME":"永康區","LI":"勝利里","LIN":"33鄰","STREET":"中華路","SECT":" ","MAREA":" ","LANE":"７巷","ALLEY":"２０弄","HOUSE_NO":"３４號","E_COORD97":171508.23999999999,"N_COORD97":2544446.5,"ADDRESS":"中華路７巷２０弄３４號","OBJECTID":135930},"geometry":{"x":171508.24000000022,"y":2544446.5}},{"attributes":{"ID":135931,"DIS_CODE":0,"TOWNNAME":"仁德區","LI":"後壁里","LIN":"27鄰","STREET":"中正路","SECT":"二段","MAREA":" ","LANE":"３０１巷","ALLEY":"１９弄","HOUSE_NO":"３號","E_COORD97":173174.35000000001,"N_COORD97":2539101.21,"ADDRESS":"中正路二段３０１巷１９弄３號","OBJECTID":135931},"geometry":{"x":173174.35000000056,"y":2539101.2100000046}},{"attributes":{"ID":135932,"DIS_CODE":0,"TOWNNAME":"仁德區","LI":"仁德里","LIN":"27鄰","STREET":"淨修街","SECT":" ","MAREA":" ","LANE":"１７５巷","ALLEY":"３０弄","HOUSE_NO":"５號","E_COORD97":171988.51000000001,"N_COORD97":2541227.1899999999,"ADDRESS":"淨修街１７５巷３０弄５號","OBJECTID":135932},"geometry":{"x":171988.51000000071,"y":2541227.1899999995}},{"attributes":{"ID":135933,"DIS_CODE":0,"TOWNNAME":"仁德區","LI":"仁德里","LIN":"27鄰","STREET":"淨修街","SECT":" ","MAREA":" ","LANE":"１７５巷","ALLEY":"３０弄","HOUSE_NO":"２３號","E_COORD97":171993.89999999999,"N_COORD97":2541182.4199999999,"ADDRESS":"淨修街１７５巷３０弄２３號","OBJECTID":135933},"geometry":{"x":171993.90000000037,"y":2541182.4199999999}},{"attributes":{"ID":135934,"DIS_CODE":0,"TOWNNAME":"永康區","LI":"崑山里","LIN":"28鄰","STREET":"大灣路","SECT":" ","MAREA":" ","LANE":"９４２巷","ALLEY":"１６９弄","HOUSE_NO":"１３４號","E_COORD97":173565.25,"N_COORD97":2544907.7400000002,"ADDRESS":"大灣路９４２巷１６９弄１３４號","OBJECTID":135934},"geometry":{"x":173565.25000000093,"y":2544907.7400000039}},{"attributes":{"ID":135935,"DIS_CODE":0,"TOWNNAME":"仁德區","LI":"後壁里","LIN":"27鄰","STREET":"中正路","SECT":"二段","MAREA":" ","LANE":"３０１巷","ALLEY":"１９弄","HOUSE_NO":"１號","E_COORD97":173176.66,"N_COORD97":2539104.4500000002,"ADDRESS":"中正路二段３０１巷１９弄１號","OBJECTID":135935},"geometry":{"x":173176.66000000108,"y":2539104.450000003}},{"attributes":{"ID":135936,"DIS_CODE":0,"TOWNNAME":"仁德區","LI":"後壁里","LIN":"27鄰","STREET":"德洋一街","SECT":" ","MAREA":" ","LANE":"３０巷","ALLEY":"１９弄","HOUSE_NO":"１１號","E_COORD97":173183.70999999999,"N_COORD97":2539151.0899999999,"ADDRESS":"德洋一街３０巷１９弄１１號","OBJECTID":135936},"geometry":{"x":173183.70999999903,"y":2539151.0899999999}},{"attributes":{"ID":135937,"DIS_CODE":0,"TOWNNAME":"仁德區","LI":"仁德里","LIN":"27鄰","STREET":"淨修街","SECT":" ","MAREA":" ","LANE":"１７５巷","ALLEY":"３０弄","HOUSE_NO":"１５號","E_COORD97":171991.54999999999,"N_COORD97":2541202.4300000002,"ADDRESS":"淨修街１７５巷３０弄１５號","OBJECTID":135937},"geometry":{"x":171991.55000000075,"y":2541202.4299999997}},{"attributes":{"ID":135938,"DIS_CODE":0,"TOWNNAME":"仁德區","LI":"仁德里","LIN":"27鄰","STREET":"淨修街","SECT":" ","MAREA":" ","LANE":"１７５巷","ALLEY":"３０弄","HOUSE_NO":"３號","E_COORD97":171988.56,"N_COORD97":2541232.4399999999,"ADDRESS":"淨修街１７５巷３０弄３號","OBJECTID":135938},"geometry":{"x":171988.55999999959,"y":2541232.4399999995}},{"attributes":{"ID":135939,"DIS_CODE":0,"TOWNNAME":"仁德區","LI":"後壁里","LIN":"27鄰","STREET":"中正路","SECT":"二段","MAREA":" ","LANE":"３０１巷","ALLEY":"１９弄","HOUSE_NO":"１２號","E_COORD97":173161,"N_COORD97":2539090.96,"ADDRESS":"中正路二段３０１巷１９弄１２號","OBJECTID":135939},"geometry":{"x":173161,"y":2539090.9600000009}},{"attributes":{"ID":135940,"DIS_CODE":0,"TOWNNAME":"永康區","LI":"西灣里","LIN":"27鄰","STREET":"國光八街","SECT":" ","MAREA":" ","LANE":"１２巷","ALLEY":"３弄","HOUSE_NO":"１９號","E_COORD97":174379.16,"N_COORD97":2545803.75,"ADDRESS":"國光八街１２巷３弄１９號","OBJECTID":135940},"geometry":{"x":174379.16000000015,"y":2545803.7500000019}},{"attributes":{"ID":135941,"DIS_CODE":0,"TOWNNAME":"永康區","LI":"東橋里","LIN":"27鄰","STREET":"中正路","SECT":" ","MAREA":" ","LANE":"２７９巷","ALLEY":"２１弄","HOUSE_NO":"２９號","E_COORD97":172620.76000000001,"N_COORD97":2547769.75,"ADDRESS":"中正路２７９巷２１弄２９號","OBJECTID":135941},"geometry":{"x":172620.76000000071,"y":2547769.7500000019}},{"attributes":{"ID":135942,"DIS_CODE":0,"TOWNNAME":"永康區","LI":"中興里","LIN":"27鄰","STREET":"中興街","SECT":" ","MAREA":" ","LANE":"９１巷","ALLEY":"２７弄","HOUSE_NO":"１號之９","E_COORD97":171956.51999999999,"N_COORD97":2545319.29,"ADDRESS":"中興街９１巷２７弄１號之９","OBJECTID":135942},"geometry":{"x":171956.52000000048,"y":2545319.2899999991}},{"attributes":{"ID":135943,"DIS_CODE":0,"TOWNNAME":"永康區","LI":"大灣里","LIN":"27鄰","STREET":"大灣六街","SECT":" ","MAREA":" ","LANE":"８０巷","ALLEY":"３６弄","HOUSE_NO":"３６號","E_COORD97":175318.20000000001,"N_COORD97":2545248.54,"ADDRESS":"大灣六街８０巷３６弄３６號","OBJECTID":135943},"geometry":{"x":175318.20000000019,"y":2545248.540000001}},{"attributes":{"ID":135944,"DIS_CODE":0,"TOWNNAME":"永康區","LI":"崑山里","LIN":"27鄰","STREET":"大灣路","SECT":" ","MAREA":" ","LANE":"９４２巷","ALLEY":"７１弄","HOUSE_NO":"２９６號","E_COORD97":173510.39000000001,"N_COORD97":2544661.8500000001,"ADDRESS":"大灣路９４２巷７１弄２９６號","OBJECTID":135944},"geometry":{"x":173510.38999999966,"y":2544661.8499999996}},{"attributes":{"ID":135945,"DIS_CODE":0,"TOWNNAME":"永康區","LI":"勝利里","LIN":"24鄰","STREET":"勝利街","SECT":" ","MAREA":" ","LANE":"１１６巷","ALLEY":"１２弄","HOUSE_NO":"２號","E_COORD97":171406.06,"N_COORD97":2544857.7799999998,"ADDRESS":"勝利街１１６巷１２弄２號","OBJECTID":135945},"geometry":{"x":171406.05999999959,"y":2544857.7799999993}},{"attributes":{"ID":135946,"DIS_CODE":0,"TOWNNAME":"後壁區","LI":"長安里","LIN":" ","STREET":" ","SECT":" ","MAREA":"中寮","LANE":" ","ALLEY":" ","HOUSE_NO":"１８３之４號","E_COORD97":184133.45000000001,"N_COORD97":2581480.71,"ADDRESS":"中寮１８３之４號","OBJECTID":135946},"geometry":{"x":184133.45000000205,"y":2581480.7100000046}},{"attributes":{"ID":135947,"DIS_CODE":0,"TOWNNAME":"後壁區","LI":"長安里","LIN":" ","STREET":" ","SECT":" ","MAREA":"中寮","LANE":" ","ALLEY":" ","HOUSE_NO":"１８４號","E_COORD97":184055.63,"N_COORD97":2581484.0800000001,"ADDRESS":"中寮１８４號","OBJECTID":135947},"geometry":{"x":184055.63000000175,"y":2581484.0800000038}},{"attributes":{"ID":135948,"DIS_CODE":0,"TOWNNAME":"後壁區","LI":"長安里","LIN":" ","STREET":" ","SECT":" ","MAREA":"中寮","LANE":" ","ALLEY":" ","HOUSE_NO":"１９５號","E_COORD97":184098.69,"N_COORD97":2581451.4399999999,"ADDRESS":"中寮１９５號","OBJECTID":135948},"geometry":{"x":184098.69000000134,"y":2581451.4400000013}},{"attributes":{"ID":135949,"DIS_CODE":0,"TOWNNAME":"後壁區","LI":"長安里","LIN":" ","STREET":" ","SECT":" ","MAREA":"中寮","LANE":" ","ALLEY":" ","HOUSE_NO":"１９６號","E_COORD97":184094.29999999999,"N_COORD97":2581451.4900000002,"ADDRESS":"中寮１９６號","OBJECTID":135949},"geometry":{"x":184094.29999999981,"y":2581451.4900000021}},{"attributes":{"ID":135950,"DIS_CODE":0,"TOWNNAME":"後壁區","LI":"長安里","LIN":" ","STREET":" ","SECT":" ","MAREA":"中寮","LANE":" ","ALLEY":" ","HOUSE_NO":"１９９號","E_COORD97":184081.57000000001,"N_COORD97":2581451.7200000002,"ADDRESS":"中寮１９９號","OBJECTID":135950},"geometry":{"x":184081.5700000003,"y":2581451.7200000007}},{"attributes":{"ID":135951,"DIS_CODE":0,"TOWNNAME":"後壁區","LI":"長安里","LIN":" ","STREET":" ","SECT":" ","MAREA":"中寮","LANE":" ","ALLEY":" ","HOUSE_NO":"２３２號","E_COORD97":184069.76000000001,"N_COORD97":2581424.7799999998,"ADDRESS":"中寮２３２號","OBJECTID":135951},"geometry":{"x":184069.76000000164,"y":2581424.7800000012}},{"attributes":{"ID":135952,"DIS_CODE":0,"TOWNNAME":"後壁區","LI":"長安里","LIN":" ","STREET":" ","SECT":" ","MAREA":"中寮","LANE":" ","ALLEY":" ","HOUSE_NO":"２３５號","E_COORD97":184045.20999999999,"N_COORD97":2581370.9199999999,"ADDRESS":"中寮２３５號","OBJECTID":135952},"geometry":{"x":184045.21000000089,"y":2581370.9200000018}},{"attributes":{"ID":135953,"DIS_CODE":0,"TOWNNAME":"後壁區","LI":"長安里","LIN":" ","STREET":" ","SECT":" ","MAREA":"中寮","LANE":" ","ALLEY":" ","HOUSE_NO":"２８之４號","E_COORD97":184508.10999999999,"N_COORD97":2581247.5699999998,"ADDRESS":"中寮２８之４號","OBJECTID":135953},"geometry":{"x":184508.11000000034,"y":2581247.5700000022}},{"attributes":{"ID":135954,"DIS_CODE":0,"TOWNNAME":"後壁區","LI":"長安里","LIN":" ","STREET":" ","SECT":" ","MAREA":"中寮","LANE":" ","ALLEY":" ","HOUSE_NO":"３５之４號","E_COORD97":184435.32999999999,"N_COORD97":2581188.9700000002,"ADDRESS":"中寮３５之４號","OBJECTID":135954},"geometry":{"x":184435.33000000007,"y":2581188.9700000007}},{"attributes":{"ID":135955,"DIS_CODE":0,"TOWNNAME":"後壁區","LI":"長安里","LIN":" ","STREET":" ","SECT":" ","MAREA":"中寮","LANE":" ","ALLEY":" ","HOUSE_NO":"３５之５號","E_COORD97":184435.45999999999,"N_COORD97":2581184.5899999999,"ADDRESS":"中寮３５之５號","OBJECTID":135955},"geometry":{"x":184435.46000000089,"y":2581184.5899999999}},{"attributes":{"ID":135956,"DIS_CODE":0,"TOWNNAME":"永康區","LI":"埔園里","LIN":"31鄰","STREET":"永大路","SECT":"三段","MAREA":" ","LANE":"４６９巷","ALLEY":"１６６弄","HOUSE_NO":"３７號","E_COORD97":173722.57999999999,"N_COORD97":2548874.0800000001,"ADDRESS":"永大路三段４６９巷１６６弄３７號","OBJECTID":135956},"geometry":{"x":173722.58000000101,"y":2548874.0800000001}},{"attributes":{"ID":135957,"DIS_CODE":0,"TOWNNAME":"永康區","LI":"崑山里","LIN":"16鄰","STREET":"大灣路","SECT":" ","MAREA":" ","LANE":"９４２巷","ALLEY":"７１弄","HOUSE_NO":"７１號","E_COORD97":173587.19,"N_COORD97":2544540.25,"ADDRESS":"大灣路９４２巷７１弄７１號","OBJECTID":135957},"geometry":{"x":173587.19000000041,"y":2544540.25}},{"attributes":{"ID":135958,"DIS_CODE":0,"TOWNNAME":"永康區","LI":"復興里","LIN":"27鄰","STREET":"復興路","SECT":" ","MAREA":" ","LANE":"２７７巷","ALLEY":"３４弄","HOUSE_NO":"６號","E_COORD97":172311.10000000001,"N_COORD97":2544177.52,"ADDRESS":"復興路２７７巷３４弄６號","OBJECTID":135958},"geometry":{"x":172311.0999999987,"y":2544177.5200000014}},{"attributes":{"ID":135959,"DIS_CODE":0,"TOWNNAME":"永康區","LI":"北灣里","LIN":"27鄰","STREET":"文賢街","SECT":" ","MAREA":" ","LANE":"１０８巷","ALLEY":"８弄","HOUSE_NO":"８號","E_COORD97":175397.39999999999,"N_COORD97":2545424.8199999998,"ADDRESS":"文賢街１０８巷８弄８號","OBJECTID":135959},"geometry":{"x":175397.4000000013,"y":2545424.8200000003}},{"attributes":{"ID":135960,"DIS_CODE":0,"TOWNNAME":"後壁區","LI":"長安里","LIN":" ","STREET":" ","SECT":" ","MAREA":"中寮","LANE":" ","ALLEY":" ","HOUSE_NO":"３５號","E_COORD97":184434.92000000001,"N_COORD97":2581206.79,"ADDRESS":"中寮３５號","OBJECTID":135960},"geometry":{"x":184434.91999999899,"y":2581206.7899999972}},{"attributes":{"ID":135961,"DIS_CODE":0,"TOWNNAME":"後壁區","LI":"長安里","LIN":" ","STREET":" ","SECT":" ","MAREA":"中寮","LANE":" ","ALLEY":" ","HOUSE_NO":"４２號","E_COORD97":184393.51000000001,"N_COORD97":2581221.5299999998,"ADDRESS":"中寮４２號","OBJECTID":135961},"geometry":{"x":184393.50999999885,"y":2581221.5299999993}},{"attributes":{"ID":135962,"DIS_CODE":0,"TOWNNAME":"後壁區","LI":"長安里","LIN":" ","STREET":" ","SECT":" ","MAREA":"中寮","LANE":" ","ALLEY":" ","HOUSE_NO":"４７之１號","E_COORD97":184378.17000000001,"N_COORD97":2581274.0800000001,"ADDRESS":"中寮４７之１號","OBJECTID":135962},"geometry":{"x":184378.17000000086,"y":2581274.0800000038}},{"attributes":{"ID":135963,"DIS_CODE":0,"TOWNNAME":"後壁區","LI":"長安里","LIN":" ","STREET":" ","SECT":" ","MAREA":"中寮","LANE":" ","ALLEY":" ","HOUSE_NO":"５０號","E_COORD97":184319.32999999999,"N_COORD97":2581337.2599999998,"ADDRESS":"中寮５０號","OBJECTID":135963},"geometry":{"x":184319.33000000101,"y":2581337.2600000016}},{"attributes":{"ID":135964,"DIS_CODE":0,"TOWNNAME":"後壁區","LI":"長安里","LIN":" ","STREET":" ","SECT":" ","MAREA":"中寮","LANE":" ","ALLEY":" ","HOUSE_NO":"５１之１號","E_COORD97":184312.60999999999,"N_COORD97":2581290.3700000001,"ADDRESS":"中寮５１之１號","OBJECTID":135964},"geometry":{"x":184312.61000000127,"y":2581290.3700000029}},{"attributes":{"ID":135965,"DIS_CODE":0,"TOWNNAME":"後壁區","LI":"長安里","LIN":" ","STREET":" ","SECT":" ","MAREA":"中寮","LANE":" ","ALLEY":" ","HOUSE_NO":"５１之２號","E_COORD97":184314.34,"N_COORD97":2581285.4300000002,"ADDRESS":"中寮５１之２號","OBJECTID":135965},"geometry":{"x":184314.33999999985,"y":2581285.4300000016}},{"attributes":{"ID":135966,"DIS_CODE":0,"TOWNNAME":"後壁區","LI":"長安里","LIN":" ","STREET":" ","SECT":" ","MAREA":"中寮","LANE":" ","ALLEY":" ","HOUSE_NO":"６３號","E_COORD97":184266.89999999999,"N_COORD97":2581197.9700000002,"ADDRESS":"中寮６３號","OBJECTID":135966},"geometry":{"x":184266.9000000013,"y":2581197.9700000025}},{"attributes":{"ID":135967,"DIS_CODE":0,"TOWNNAME":"後壁區","LI":"長安里","LIN":" ","STREET":" ","SECT":" ","MAREA":"中寮","LANE":" ","ALLEY":" ","HOUSE_NO":"６４之７號","E_COORD97":184298.26999999999,"N_COORD97":2581242.7400000002,"ADDRESS":"中寮６４之７號","OBJECTID":135967},"geometry":{"x":184298.26999999862,"y":2581242.7400000021}},{"attributes":{"ID":135968,"DIS_CODE":0,"TOWNNAME":"永康區","LI":"東橋里","LIN":"27鄰","STREET":"中正路","SECT":" ","MAREA":" ","LANE":"２７９巷","ALLEY":"２弄","HOUSE_NO":"３１號","E_COORD97":172695.12,"N_COORD97":2547926.9900000002,"ADDRESS":"中正路２７９巷２弄３１號","OBJECTID":135968},"geometry":{"x":172695.12000000104,"y":2547926.9900000039}},{"attributes":{"ID":135969,"DIS_CODE":0,"TOWNNAME":"永康區","LI":"崑山里","LIN":"27鄰","STREET":"大灣路","SECT":" ","MAREA":" ","LANE":"１１０２巷","ALLEY":"１７弄","HOUSE_NO":"８９號","E_COORD97":173399.32999999999,"N_COORD97":2544733.7400000002,"ADDRESS":"大灣路１１０２巷１７弄８９號","OBJECTID":135969},"geometry":{"x":173399.33000000007,"y":2544733.7400000002}},{"attributes":{"ID":135970,"DIS_CODE":0,"TOWNNAME":"永康區","LI":"正強里","LIN":"27鄰","STREET":"中正路","SECT":" ","MAREA":" ","LANE":"１５５巷","ALLEY":"４弄","HOUSE_NO":"１８號","E_COORD97":173175.42000000001,"N_COORD97":2547871.2999999998,"ADDRESS":"中正路１５５巷４弄１８號","OBJECTID":135970},"geometry":{"x":173175.41999999993,"y":2547871.3000000045}},{"attributes":{"ID":135971,"DIS_CODE":0,"TOWNNAME":"北區","LI":"大仁里","LIN":"6鄰","STREET":"北門路","SECT":"二段","MAREA":" ","LANE":"２６３巷","ALLEY":" ","HOUSE_NO":"１號","E_COORD97":169526.66,"N_COORD97":2545365.0600000001,"ADDRESS":"北門路二段２６３巷１號","OBJECTID":135971},"geometry":{"x":169526.66000000108,"y":2545365.0600000024}},{"attributes":{"ID":135972,"DIS_CODE":0,"TOWNNAME":"後壁區","LI":"長安里","LIN":" ","STREET":" ","SECT":" ","MAREA":"中寮","LANE":" ","ALLEY":" ","HOUSE_NO":"６４之８附５號","E_COORD97":184294.89999999999,"N_COORD97":2581266.27,"ADDRESS":"中寮６４之８附５號","OBJECTID":135972},"geometry":{"x":184294.90000000224,"y":2581266.2700000014}},{"attributes":{"ID":135973,"DIS_CODE":0,"TOWNNAME":"後壁區","LI":"長安里","LIN":" ","STREET":" ","SECT":" ","MAREA":"中寮","LANE":" ","ALLEY":" ","HOUSE_NO":"６７號","E_COORD97":184243.32000000001,"N_COORD97":2581221.73,"ADDRESS":"中寮６７號","OBJECTID":135973},"geometry":{"x":184243.32000000123,"y":2581221.7300000004}},{"attributes":{"ID":135974,"DIS_CODE":0,"TOWNNAME":"後壁區","LI":"長安里","LIN":" ","STREET":" ","SECT":" ","MAREA":"中寮","LANE":" ","ALLEY":" ","HOUSE_NO":"６８號","E_COORD97":184265.89000000001,"N_COORD97":2581251.46,"ADDRESS":"中寮６８號","OBJECTID":135974},"geometry":{"x":184265.8900000006,"y":2581251.4600000009}},{"attributes":{"ID":135975,"DIS_CODE":0,"TOWNNAME":"後壁區","LI":"長安里","LIN":" ","STREET":" ","SECT":" ","MAREA":"中寮","LANE":" ","ALLEY":" ","HOUSE_NO":"７０號","E_COORD97":184272.12,"N_COORD97":2581175.6400000001,"ADDRESS":"中寮７０號","OBJECTID":135975},"geometry":{"x":184272.12000000011,"y":2581175.6400000043}},{"attributes":{"ID":135976,"DIS_CODE":0,"TOWNNAME":"後壁區","LI":"長安里","LIN":" ","STREET":" ","SECT":" ","MAREA":"中寮","LANE":" ","ALLEY":" ","HOUSE_NO":"７６之１號","E_COORD97":184299.73000000001,"N_COORD97":2581159.6200000001,"ADDRESS":"中寮７６之１號","OBJECTID":135976},"geometry":{"x":184299.73000000138,"y":2581159.6200000048}},{"attributes":{"ID":135977,"DIS_CODE":0,"TOWNNAME":"後壁區","LI":"長安里","LIN":" ","STREET":" ","SECT":" ","MAREA":"中寮","LANE":" ","ALLEY":" ","HOUSE_NO":"７６之２號","E_COORD97":184304,"N_COORD97":2581163.8799999999,"ADDRESS":"中寮７６之２號","OBJECTID":135977},"geometry":{"x":184304.00000000186,"y":2581163.879999999}},{"attributes":{"ID":135978,"DIS_CODE":0,"TOWNNAME":"後壁區","LI":"長安里","LIN":" ","STREET":" ","SECT":" ","MAREA":"中寮","LANE":" ","ALLEY":" ","HOUSE_NO":"７６之４號","E_COORD97":184321.98999999999,"N_COORD97":2581167.46,"ADDRESS":"中寮７６之４號","OBJECTID":135978},"geometry":{"x":184321.99000000115,"y":2581167.4600000028}},{"attributes":{"ID":135979,"DIS_CODE":0,"TOWNNAME":"後壁區","LI":"長安里","LIN":" ","STREET":" ","SECT":" ","MAREA":"中寮","LANE":" ","ALLEY":" ","HOUSE_NO":"７７之１號","E_COORD97":184296.54999999999,"N_COORD97":2581149.04,"ADDRESS":"中寮７７之１號","OBJECTID":135979},"geometry":{"x":184296.54999999981,"y":2581149.040000001}},{"attributes":{"ID":135980,"DIS_CODE":0,"TOWNNAME":"安平區","LI":"西門里","LIN":"15鄰","STREET":"安北路","SECT":" ","MAREA":" ","LANE":" ","ALLEY":" ","HOUSE_NO":"４００號","E_COORD97":163188.25,"N_COORD97":2544539.2999999998,"ADDRESS":"安北路４００號","OBJECTID":135980},"geometry":{"x":163188.25,"y":2544539.3000000026}},{"attributes":{"ID":135981,"DIS_CODE":0,"TOWNNAME":"安平區","LI":"西門里","LIN":"15鄰","STREET":"安北路","SECT":" ","MAREA":" ","LANE":" ","ALLEY":" ","HOUSE_NO":"４０２號","E_COORD97":163183.81,"N_COORD97":2544537.9900000002,"ADDRESS":"安北路４０２號","OBJECTID":135981},"geometry":{"x":163183.80999999959,"y":2544537.9900000021}},{"attributes":{"ID":135982,"DIS_CODE":0,"TOWNNAME":"安平區","LI":"西門里","LIN":"15鄰","STREET":"安北路","SECT":" ","MAREA":" ","LANE":" ","ALLEY":" ","HOUSE_NO":"４０４號","E_COORD97":163180.14000000001,"N_COORD97":2544535.8999999999,"ADDRESS":"安北路４０４號","OBJECTID":135982},"geometry":{"x":163180.13999999966,"y":2544535.9000000004}},{"attributes":{"ID":135983,"DIS_CODE":0,"TOWNNAME":"安平區","LI":"西門里","LIN":"15鄰","STREET":"安北路","SECT":" ","MAREA":" ","LANE":" ","ALLEY":" ","HOUSE_NO":"４０６號","E_COORD97":163176.48000000001,"N_COORD97":2544533.7999999998,"ADDRESS":"安北路４０６號","OBJECTID":135983},"geometry":{"x":163176.48000000138,"y":2544533.8000000007}},{"attributes":{"ID":135984,"DIS_CODE":0,"TOWNNAME":"安平區","LI":"西門里","LIN":"15鄰","STREET":"安北路","SECT":" ","MAREA":" ","LANE":" ","ALLEY":" ","HOUSE_NO":"４０８號","E_COORD97":163173.07000000001,"N_COORD97":2544532.7599999998,"ADDRESS":"安北路４０８號","OBJECTID":135984},"geometry":{"x":163173.0700000003,"y":2544532.7599999998}},{"attributes":{"ID":135985,"DIS_CODE":0,"TOWNNAME":"永康區","LI":"復興里","LIN":"27鄰","STREET":"復興路","SECT":" ","MAREA":" ","LANE":"２７７巷","ALLEY":"２８弄","HOUSE_NO":"１號","E_COORD97":172323.51000000001,"N_COORD97":2544187.52,"ADDRESS":"復興路２７７巷２８弄１號","OBJECTID":135985},"geometry":{"x":172323.50999999978,"y":2544187.5200000014}},{"attributes":{"ID":135986,"DIS_CODE":0,"TOWNNAME":"永康區","LI":"二王里","LIN":"27鄰","STREET":"中山南路","SECT":" ","MAREA":" ","LANE":"５４４巷","ALLEY":"６０弄","HOUSE_NO":"１５號","E_COORD97":172283.10000000001,"N_COORD97":2546343.5899999999,"ADDRESS":"中山南路５４４巷６０弄１５號","OBJECTID":135986},"geometry":{"x":172283.10000000056,"y":2546343.5900000017}},{"attributes":{"ID":135987,"DIS_CODE":0,"TOWNNAME":"永康區","LI":"二王里","LIN":"27鄰","STREET":"中山南路","SECT":" ","MAREA":" ","LANE":"５４４巷","ALLEY":"７０弄","HOUSE_NO":"１４號","E_COORD97":172275.76999999999,"N_COORD97":2546309.3599999999,"ADDRESS":"中山南路５４４巷７０弄１４號","OBJECTID":135987},"geometry":{"x":172275.76999999955,"y":2546309.3599999994}},{"attributes":{"ID":135988,"DIS_CODE":0,"TOWNNAME":"學甲區","LI":"中洲里","LIN":"5鄰","STREET":" ","SECT":" ","MAREA":"中洲","LANE":" ","ALLEY":" ","HOUSE_NO":"５１號","E_COORD97":163882.57000000001,"N_COORD97":2571570.1899999999,"ADDRESS":"中洲５１號","OBJECTID":135988},"geometry":{"x":163882.57000000123,"y":2571570.1900000013}},{"attributes":{"ID":135989,"DIS_CODE":0,"TOWNNAME":"永康區","LI":"尚頂里","LIN":"27鄰","STREET":"南台街","SECT":" ","MAREA":" ","LANE":"５４巷","ALLEY":"３９弄","HOUSE_NO":"１１號","E_COORD97":170319.10000000001,"N_COORD97":2547030.5,"ADDRESS":"南台街５４巷３９弄１１號","OBJECTID":135989},"geometry":{"x":170319.09999999963,"y":2547030.5}},{"attributes":{"ID":135990,"DIS_CODE":0,"TOWNNAME":"永康區","LI":"東橋里","LIN":"27鄰","STREET":"中正路","SECT":" ","MAREA":" ","LANE":"２７９巷","ALLEY":"２１弄","HOUSE_NO":"６３號","E_COORD97":172708.85000000001,"N_COORD97":2547837.9900000002,"ADDRESS":"中正路２７９巷２１弄６３號","OBJECTID":135990},"geometry":{"x":172708.84999999963,"y":2547837.9900000002}},{"attributes":{"ID":135991,"DIS_CODE":0,"TOWNNAME":"永康區","LI":"東橋里","LIN":"27鄰","STREET":"中正路","SECT":" ","MAREA":" ","LANE":"２７９巷","ALLEY":"２１弄","HOUSE_NO":"５３號","E_COORD97":172668.70000000001,"N_COORD97":2547836.4900000002,"ADDRESS":"中正路２７９巷２１弄５３號","OBJECTID":135991},"geometry":{"x":172668.69999999925,"y":2547836.4900000021}},{"attributes":{"ID":135992,"DIS_CODE":0,"TOWNNAME":"永康區","LI":"東橋里","LIN":"27鄰","STREET":"中正路","SECT":" ","MAREA":" ","LANE":"２７９巷","ALLEY":"２１弄","HOUSE_NO":"５１號","E_COORD97":172662.39999999999,"N_COORD97":2547836.2400000002,"ADDRESS":"中正路２７９巷２１弄５１號","OBJECTID":135992},"geometry":{"x":172662.40000000037,"y":2547836.2400000002}},{"attributes":{"ID":135993,"DIS_CODE":0,"TOWNNAME":"永康區","LI":"東橋里","LIN":"27鄰","STREET":"中正路","SECT":" ","MAREA":" ","LANE":"２７９巷","ALLEY":"２１弄","HOUSE_NO":"１３號","E_COORD97":172611.37,"N_COORD97":2547837.9399999999,"ADDRESS":"中正路２７９巷２１弄１３號","OBJECTID":135993},"geometry":{"x":172611.37000000011,"y":2547837.9399999995}},{"attributes":{"ID":135994,"DIS_CODE":0,"TOWNNAME":"永康區","LI":"東橋里","LIN":"27鄰","STREET":"中正路","SECT":" ","MAREA":" ","LANE":"２７９巷","ALLEY":"２１弄","HOUSE_NO":"２７號","E_COORD97":172611.42000000001,"N_COORD97":2547783.75,"ADDRESS":"中正路２７９巷２１弄２７號","OBJECTID":135994},"geometry":{"x":172611.42000000086,"y":2547783.7500000019}},{"attributes":{"ID":135995,"DIS_CODE":0,"TOWNNAME":"永康區","LI":"東橋里","LIN":"27鄰","STREET":"中正路","SECT":" ","MAREA":" ","LANE":"２７９巷","ALLEY":"２１弄","HOUSE_NO":"３３號","E_COORD97":172601.70000000001,"N_COORD97":2547769.25,"ADDRESS":"中正路２７９巷２１弄３３號","OBJECTID":135995},"geometry":{"x":172601.70000000112,"y":2547769.2500000019}},{"attributes":{"ID":135996,"DIS_CODE":0,"TOWNNAME":"南區","LI":"明亮里","LIN":"27鄰","STREET":"金華路","SECT":"一段","MAREA":" ","LANE":"４８４巷","ALLEY":"８６弄","HOUSE_NO":"２號","E_COORD97":167184.37,"N_COORD97":2541397.6699999999,"ADDRESS":"金華路一段４８４巷８６弄２號","OBJECTID":135996},"geometry":{"x":167184.37000000104,"y":2541397.6699999999}},{"attributes":{"ID":135997,"DIS_CODE":0,"TOWNNAME":"南區","LI":"明亮里","LIN":"27鄰","STREET":"金華路","SECT":"一段","MAREA":" ","LANE":"４８４巷","ALLEY":"８６弄","HOUSE_NO":"４號","E_COORD97":167182.92999999999,"N_COORD97":2541394.4199999999,"ADDRESS":"金華路一段４８４巷８６弄４號","OBJECTID":135997},"geometry":{"x":167182.93000000063,"y":2541394.4200000018}},{"attributes":{"ID":135998,"DIS_CODE":0,"TOWNNAME":"南區","LI":"明亮里","LIN":"27鄰","STREET":"金華路","SECT":"一段","MAREA":" ","LANE":"４８４巷","ALLEY":"８６弄","HOUSE_NO":"６號","E_COORD97":167181.48000000001,"N_COORD97":2541390.8100000001,"ADDRESS":"金華路一段４８４巷８６弄６號","OBJECTID":135998},"geometry":{"x":167181.48000000231,"y":2541390.8100000005}},{"attributes":{"ID":135999,"DIS_CODE":0,"TOWNNAME":"南區","LI":"明亮里","LIN":"27鄰","STREET":"金華路","SECT":"一段","MAREA":" ","LANE":"４８４巷","ALLEY":"８６弄","HOUSE_NO":"８號","E_COORD97":167178.41,"N_COORD97":2541387.4300000002,"ADDRESS":"金華路一段４８４巷８６弄８號","OBJECTID":135999},"geometry":{"x":167178.41000000201,"y":2541387.4300000016}},{"attributes":{"ID":136000,"DIS_CODE":0,"TOWNNAME":"安平區","LI":"海頭里","LIN":"6鄰","STREET":"平生路","SECT":" ","MAREA":" ","LANE":" ","ALLEY":" ","HOUSE_NO":"８５號","E_COORD97":164346.18694499999,"N_COORD97":2544716.4815699998,"ADDRESS":"平生路８５號","OBJECTID":136000},"geometry":{"x":164346.18694499973,"y":2544716.481572004}}]}