{"displayFieldName":"TOWNNAME","fieldAliases":{"ID":"ID","DIS_CODE":"DIS_CODE","TOWNNAME":"TOWNNAME","LI":"LI","LIN":"LIN","STREET":"STREET","SECT":"SECT","MAREA":"MAREA","LANE":"LANE","ALLEY":"ALLEY","HOUSE_NO":"HOUSE_NO","E_COORD97":"E_COORD97","N_COORD97":"N_COORD97","ADDRESS":"ADDRESS","OBJECTID":"OBJECTID"},"geometryType":"esriGeometryPoint","spatialReference":{"wkid":102443,"latestWkid":3826},"fields":[{"name":"ID","type":"esriFieldTypeDouble","alias":"ID"},{"name":"DIS_CODE","type":"esriFieldTypeInteger","alias":"DIS_CODE"},{"name":"TOWNNAME","type":"esriFieldTypeString","alias":"TOWNNAME","length":8},{"name":"LI","type":"esriFieldTypeString","alias":"LI","length":8},{"name":"LIN","type":"esriFieldTypeString","alias":"LIN","length":12},{"name":"STREET","type":"esriFieldTypeString","alias":"STREET","length":20},{"name":"SECT","type":"esriFieldTypeString","alias":"SECT","length":8},{"name":"MAREA","type":"esriFieldTypeString","alias":"MAREA","length":12},{"name":"LANE","type":"esriFieldTypeString","alias":"LANE","length":10},{"name":"ALLEY","type":"esriFieldTypeString","alias":"ALLEY","length":10},{"name":"HOUSE_NO","type":"esriFieldTypeString","alias":"HOUSE_NO","length":20},{"name":"E_COORD97","type":"esriFieldTypeDouble","alias":"E_COORD97"},{"name":"N_COORD97","type":"esriFieldTypeDouble","alias":"N_COORD97"},{"name":"ADDRESS","type":"esriFieldTypeString","alias":"ADDRESS","length":50},{"name":"OBJECTID","type":"esriFieldTypeOID","alias":"OBJECTID"}],"features":[{"attributes":{"ID":443026,"DIS_CODE":0,"TOWNNAME":"中西區","LI":"仙草里","LIN":"5鄰","STREET":"西門路","SECT":"一段","MAREA":" ","LANE":"４８２巷","ALLEY":" ","HOUSE_NO":"２３號二樓","E_COORD97":167832.41,"N_COORD97":2542667.3999999999,"ADDRESS":"西門路一段４８２巷２３號二樓","OBJECTID":443001},"geometry":{"x":167832.41000000015,"y":2542667.4000000022}},{"attributes":{"ID":443027,"DIS_CODE":0,"TOWNNAME":"中西區","LI":"仙草里","LIN":"5鄰","STREET":"西門路","SECT":"一段","MAREA":" ","LANE":"４８２巷","ALLEY":" ","HOUSE_NO":"２３號三樓","E_COORD97":167832.41,"N_COORD97":2542667.3999999999,"ADDRESS":"西門路一段４８２巷２３號三樓","OBJECTID":443002},"geometry":{"x":167832.41000000015,"y":2542667.4000000022}},{"attributes":{"ID":443028,"DIS_CODE":0,"TOWNNAME":"中西區","LI":"仙草里","LIN":"5鄰","STREET":"西門路","SECT":"一段","MAREA":" ","LANE":"４８２巷","ALLEY":" ","HOUSE_NO":"２３號四樓","E_COORD97":167832.41,"N_COORD97":2542667.3999999999,"ADDRESS":"西門路一段４８２巷２３號四樓","OBJECTID":443003},"geometry":{"x":167832.41000000015,"y":2542667.4000000022}},{"attributes":{"ID":443029,"DIS_CODE":0,"TOWNNAME":"中西區","LI":"仙草里","LIN":"5鄰","STREET":"西門路","SECT":"一段","MAREA":" ","LANE":"４８２巷","ALLEY":" ","HOUSE_NO":"２５號一樓","E_COORD97":167837.57000000001,"N_COORD97":2542667,"ADDRESS":"西門路一段４８２巷２５號一樓","OBJECTID":443004},"geometry":{"x":167837.57000000123,"y":2542667}},{"attributes":{"ID":443030,"DIS_CODE":0,"TOWNNAME":"中西區","LI":"仙草里","LIN":"5鄰","STREET":"西門路","SECT":"一段","MAREA":" ","LANE":"４８２巷","ALLEY":" ","HOUSE_NO":"２５號二樓","E_COORD97":167837.57000000001,"N_COORD97":2542667,"ADDRESS":"西門路一段４８２巷２５號二樓","OBJECTID":443005},"geometry":{"x":167837.57000000123,"y":2542667}},{"attributes":{"ID":443031,"DIS_CODE":0,"TOWNNAME":"中西區","LI":"仙草里","LIN":"5鄰","STREET":"西門路","SECT":"一段","MAREA":" ","LANE":"４８２巷","ALLEY":" ","HOUSE_NO":"２５號三樓","E_COORD97":167837.57000000001,"N_COORD97":2542667,"ADDRESS":"西門路一段４８２巷２５號三樓","OBJECTID":443006},"geometry":{"x":167837.57000000123,"y":2542667}},{"attributes":{"ID":443032,"DIS_CODE":0,"TOWNNAME":"中西區","LI":"仙草里","LIN":"5鄰","STREET":"西門路","SECT":"一段","MAREA":" ","LANE":"４８２巷","ALLEY":" ","HOUSE_NO":"２５號四樓","E_COORD97":167837.57000000001,"N_COORD97":2542667,"ADDRESS":"西門路一段４８２巷２５號四樓","OBJECTID":443007},"geometry":{"x":167837.57000000123,"y":2542667}},{"attributes":{"ID":443033,"DIS_CODE":0,"TOWNNAME":"南區","LI":"開南里","LIN":"5鄰","STREET":"中華西路","SECT":"一段","MAREA":" ","LANE":"２６巷","ALLEY":" ","HOUSE_NO":"１１號三樓","E_COORD97":166373.82000000001,"N_COORD97":2540821.96,"ADDRESS":"中華西路一段２６巷１１號三樓","OBJECTID":443008},"geometry":{"x":166373.82000000216,"y":2540821.9600000028}},{"attributes":{"ID":443034,"DIS_CODE":0,"TOWNNAME":"南區","LI":"開南里","LIN":"5鄰","STREET":"中華西路","SECT":"一段","MAREA":" ","LANE":"２６巷","ALLEY":" ","HOUSE_NO":"１１號五樓","E_COORD97":166373.82000000001,"N_COORD97":2540821.96,"ADDRESS":"中華西路一段２６巷１１號五樓","OBJECTID":443009},"geometry":{"x":166373.82000000216,"y":2540821.9600000028}},{"attributes":{"ID":443035,"DIS_CODE":0,"TOWNNAME":"南區","LI":"開南里","LIN":"5鄰","STREET":"中華西路","SECT":"一段","MAREA":" ","LANE":"２６巷","ALLEY":" ","HOUSE_NO":"１１號四樓","E_COORD97":166373.82000000001,"N_COORD97":2540821.96,"ADDRESS":"中華西路一段２６巷１１號四樓","OBJECTID":443010},"geometry":{"x":166373.82000000216,"y":2540821.9600000028}},{"attributes":{"ID":443036,"DIS_CODE":0,"TOWNNAME":"南區","LI":"開南里","LIN":"5鄰","STREET":"中華西路","SECT":"一段","MAREA":" ","LANE":"２６巷","ALLEY":" ","HOUSE_NO":"１１號二樓","E_COORD97":166373.82000000001,"N_COORD97":2540821.96,"ADDRESS":"中華西路一段２６巷１１號二樓","OBJECTID":443011},"geometry":{"x":166373.82000000216,"y":2540821.9600000028}},{"attributes":{"ID":443037,"DIS_CODE":0,"TOWNNAME":"南區","LI":"開南里","LIN":"5鄰","STREET":"中華西路","SECT":"一段","MAREA":" ","LANE":"２６巷","ALLEY":" ","HOUSE_NO":"１號二樓","E_COORD97":166332.89000000001,"N_COORD97":2540822.1099999999,"ADDRESS":"中華西路一段２６巷１號二樓","OBJECTID":443012},"geometry":{"x":166332.88999999966,"y":2540822.1099999975}},{"attributes":{"ID":443038,"DIS_CODE":0,"TOWNNAME":"南區","LI":"開南里","LIN":"5鄰","STREET":"中華西路","SECT":"一段","MAREA":" ","LANE":"２６巷","ALLEY":" ","HOUSE_NO":"１號五樓","E_COORD97":166332.89000000001,"N_COORD97":2540822.1099999999,"ADDRESS":"中華西路一段２６巷１號五樓","OBJECTID":443013},"geometry":{"x":166332.88999999966,"y":2540822.1099999975}},{"attributes":{"ID":443039,"DIS_CODE":0,"TOWNNAME":"南區","LI":"開南里","LIN":"5鄰","STREET":"中華西路","SECT":"一段","MAREA":" ","LANE":"２６巷","ALLEY":" ","HOUSE_NO":"１號四樓","E_COORD97":166332.89000000001,"N_COORD97":2540822.1099999999,"ADDRESS":"中華西路一段２６巷１號四樓","OBJECTID":443014},"geometry":{"x":166332.88999999966,"y":2540822.1099999975}},{"attributes":{"ID":443040,"DIS_CODE":0,"TOWNNAME":"南區","LI":"開南里","LIN":"5鄰","STREET":"中華西路","SECT":"一段","MAREA":" ","LANE":"２６巷","ALLEY":" ","HOUSE_NO":"３號二樓","E_COORD97":166339.04999999999,"N_COORD97":2540822.1099999999,"ADDRESS":"中華西路一段２６巷３號二樓","OBJECTID":443015},"geometry":{"x":166339.04999999981,"y":2540822.1099999975}},{"attributes":{"ID":443041,"DIS_CODE":0,"TOWNNAME":"南區","LI":"開南里","LIN":"5鄰","STREET":"中華西路","SECT":"一段","MAREA":" ","LANE":"２６巷","ALLEY":" ","HOUSE_NO":"３號三樓","E_COORD97":166339.04999999999,"N_COORD97":2540822.1099999999,"ADDRESS":"中華西路一段２６巷３號三樓","OBJECTID":443016},"geometry":{"x":166339.04999999981,"y":2540822.1099999975}},{"attributes":{"ID":443042,"DIS_CODE":0,"TOWNNAME":"南區","LI":"開南里","LIN":"5鄰","STREET":"中華西路","SECT":"一段","MAREA":" ","LANE":"２６巷","ALLEY":" ","HOUSE_NO":"３號五樓","E_COORD97":166339.04999999999,"N_COORD97":2540822.1099999999,"ADDRESS":"中華西路一段２６巷３號五樓","OBJECTID":443017},"geometry":{"x":166339.04999999981,"y":2540822.1099999975}},{"attributes":{"ID":443043,"DIS_CODE":0,"TOWNNAME":"南區","LI":"開南里","LIN":"5鄰","STREET":"中華西路","SECT":"一段","MAREA":" ","LANE":"２６巷","ALLEY":" ","HOUSE_NO":"３號四樓","E_COORD97":166339.04999999999,"N_COORD97":2540822.1099999999,"ADDRESS":"中華西路一段２６巷３號四樓","OBJECTID":443018},"geometry":{"x":166339.04999999981,"y":2540822.1099999975}},{"attributes":{"ID":443044,"DIS_CODE":0,"TOWNNAME":"南區","LI":"開南里","LIN":"5鄰","STREET":"中華西路","SECT":"一段","MAREA":" ","LANE":"２６巷","ALLEY":" ","HOUSE_NO":"５號二樓","E_COORD97":166350.79000000001,"N_COORD97":2540822.1099999999,"ADDRESS":"中華西路一段２６巷５號二樓","OBJECTID":443019},"geometry":{"x":166350.79000000097,"y":2540822.1099999975}},{"attributes":{"ID":443045,"DIS_CODE":0,"TOWNNAME":"南區","LI":"開南里","LIN":"5鄰","STREET":"中華西路","SECT":"一段","MAREA":" ","LANE":"２６巷","ALLEY":" ","HOUSE_NO":"５號三樓","E_COORD97":166350.79000000001,"N_COORD97":2540822.1099999999,"ADDRESS":"中華西路一段２６巷５號三樓","OBJECTID":443020},"geometry":{"x":166350.79000000097,"y":2540822.1099999975}},{"attributes":{"ID":443046,"DIS_CODE":0,"TOWNNAME":"南區","LI":"開南里","LIN":"5鄰","STREET":"中華西路","SECT":"一段","MAREA":" ","LANE":"２６巷","ALLEY":" ","HOUSE_NO":"５號五樓","E_COORD97":166350.79000000001,"N_COORD97":2540822.1099999999,"ADDRESS":"中華西路一段２６巷５號五樓","OBJECTID":443021},"geometry":{"x":166350.79000000097,"y":2540822.1099999975}},{"attributes":{"ID":443047,"DIS_CODE":0,"TOWNNAME":"南區","LI":"開南里","LIN":"5鄰","STREET":"中華西路","SECT":"一段","MAREA":" ","LANE":"２６巷","ALLEY":" ","HOUSE_NO":"５號四樓","E_COORD97":166350.79000000001,"N_COORD97":2540822.1099999999,"ADDRESS":"中華西路一段２６巷５號四樓","OBJECTID":443022},"geometry":{"x":166350.79000000097,"y":2540822.1099999975}},{"attributes":{"ID":443048,"DIS_CODE":0,"TOWNNAME":"南區","LI":"開南里","LIN":"5鄰","STREET":"中華西路","SECT":"一段","MAREA":" ","LANE":"２６巷","ALLEY":" ","HOUSE_NO":"７號二樓","E_COORD97":166355.92000000001,"N_COORD97":2540822.2599999998,"ADDRESS":"中華西路一段２６巷７號二樓","OBJECTID":443023},"geometry":{"x":166355.92000000179,"y":2540822.2600000016}},{"attributes":{"ID":443049,"DIS_CODE":0,"TOWNNAME":"南區","LI":"開南里","LIN":"5鄰","STREET":"中華西路","SECT":"一段","MAREA":" ","LANE":"２６巷","ALLEY":" ","HOUSE_NO":"７號三樓","E_COORD97":166355.92000000001,"N_COORD97":2540822.2599999998,"ADDRESS":"中華西路一段２６巷７號三樓","OBJECTID":443024},"geometry":{"x":166355.92000000179,"y":2540822.2600000016}},{"attributes":{"ID":443050,"DIS_CODE":0,"TOWNNAME":"南區","LI":"開南里","LIN":"5鄰","STREET":"中華西路","SECT":"一段","MAREA":" ","LANE":"２６巷","ALLEY":" ","HOUSE_NO":"７號五樓","E_COORD97":166355.92000000001,"N_COORD97":2540822.2599999998,"ADDRESS":"中華西路一段２６巷７號五樓","OBJECTID":443025},"geometry":{"x":166355.92000000179,"y":2540822.2600000016}},{"attributes":{"ID":443051,"DIS_CODE":0,"TOWNNAME":"南區","LI":"開南里","LIN":"5鄰","STREET":"中華西路","SECT":"一段","MAREA":" ","LANE":"２６巷","ALLEY":" ","HOUSE_NO":"７號四樓","E_COORD97":166355.92000000001,"N_COORD97":2540822.2599999998,"ADDRESS":"中華西路一段２６巷７號四樓","OBJECTID":443026},"geometry":{"x":166355.92000000179,"y":2540822.2600000016}},{"attributes":{"ID":443052,"DIS_CODE":0,"TOWNNAME":"南區","LI":"開南里","LIN":"5鄰","STREET":"中華西路","SECT":"一段","MAREA":" ","LANE":"２６巷","ALLEY":" ","HOUSE_NO":"９號五樓","E_COORD97":166368.54000000001,"N_COORD97":2540822.2599999998,"ADDRESS":"中華西路一段２６巷９號五樓","OBJECTID":443027},"geometry":{"x":166368.54000000004,"y":2540822.2600000016}},{"attributes":{"ID":443053,"DIS_CODE":0,"TOWNNAME":"南區","LI":"開南里","LIN":"5鄰","STREET":"中華西路","SECT":"一段","MAREA":" ","LANE":"２６巷","ALLEY":" ","HOUSE_NO":"９號二樓","E_COORD97":166368.54000000001,"N_COORD97":2540822.2599999998,"ADDRESS":"中華西路一段２６巷９號二樓","OBJECTID":443028},"geometry":{"x":166368.54000000004,"y":2540822.2600000016}},{"attributes":{"ID":443054,"DIS_CODE":0,"TOWNNAME":"南區","LI":"新興里","LIN":"18鄰","STREET":"仁慈街","SECT":" ","MAREA":" ","LANE":" ","ALLEY":" ","HOUSE_NO":"９號","E_COORD97":167382.07000000001,"N_COORD97":2542083.1699999999,"ADDRESS":"仁慈街９號","OBJECTID":443029},"geometry":{"x":167382.0700000003,"y":2542083.1699999999}},{"attributes":{"ID":443055,"DIS_CODE":0,"TOWNNAME":"南區","LI":"開南里","LIN":"5鄰","STREET":"中華西路","SECT":"一段","MAREA":" ","LANE":"２８巷","ALLEY":" ","HOUSE_NO":"１０號二樓","E_COORD97":166368.47,"N_COORD97":2540840.75,"ADDRESS":"中華西路一段２８巷１０號二樓","OBJECTID":443030},"geometry":{"x":166368.46999999974,"y":2540840.75}},{"attributes":{"ID":443056,"DIS_CODE":0,"TOWNNAME":"南區","LI":"開南里","LIN":"5鄰","STREET":"中華西路","SECT":"一段","MAREA":" ","LANE":"２８巷","ALLEY":" ","HOUSE_NO":"１０號三樓","E_COORD97":166368.47,"N_COORD97":2540840.75,"ADDRESS":"中華西路一段２８巷１０號三樓","OBJECTID":443031},"geometry":{"x":166368.46999999974,"y":2540840.75}},{"attributes":{"ID":443057,"DIS_CODE":0,"TOWNNAME":"南區","LI":"開南里","LIN":"5鄰","STREET":"中華西路","SECT":"一段","MAREA":" ","LANE":"２８巷","ALLEY":" ","HOUSE_NO":"１０號五樓","E_COORD97":166368.47,"N_COORD97":2540840.75,"ADDRESS":"中華西路一段２８巷１０號五樓","OBJECTID":443032},"geometry":{"x":166368.46999999974,"y":2540840.75}},{"attributes":{"ID":443058,"DIS_CODE":0,"TOWNNAME":"南區","LI":"開南里","LIN":"5鄰","STREET":"中華西路","SECT":"一段","MAREA":" ","LANE":"２８巷","ALLEY":" ","HOUSE_NO":"１０號四樓","E_COORD97":166368.47,"N_COORD97":2540840.75,"ADDRESS":"中華西路一段２８巷１０號四樓","OBJECTID":443033},"geometry":{"x":166368.46999999974,"y":2540840.75}},{"attributes":{"ID":443059,"DIS_CODE":0,"TOWNNAME":"南區","LI":"開南里","LIN":"5鄰","STREET":"中華西路","SECT":"一段","MAREA":" ","LANE":"２８巷","ALLEY":" ","HOUSE_NO":"１２號二樓","E_COORD97":166373.89999999999,"N_COORD97":2540840.75,"ADDRESS":"中華西路一段２８巷１２號二樓","OBJECTID":443034},"geometry":{"x":166373.9000000013,"y":2540840.75}},{"attributes":{"ID":443060,"DIS_CODE":0,"TOWNNAME":"南區","LI":"開南里","LIN":"5鄰","STREET":"中華西路","SECT":"一段","MAREA":" ","LANE":"２８巷","ALLEY":" ","HOUSE_NO":"１２號三樓","E_COORD97":166373.89999999999,"N_COORD97":2540840.75,"ADDRESS":"中華西路一段２８巷１２號三樓","OBJECTID":443035},"geometry":{"x":166373.9000000013,"y":2540840.75}},{"attributes":{"ID":443061,"DIS_CODE":0,"TOWNNAME":"南區","LI":"開南里","LIN":"5鄰","STREET":"中華西路","SECT":"一段","MAREA":" ","LANE":"２８巷","ALLEY":" ","HOUSE_NO":"１２號五樓","E_COORD97":166373.89999999999,"N_COORD97":2540840.75,"ADDRESS":"中華西路一段２８巷１２號五樓","OBJECTID":443036},"geometry":{"x":166373.9000000013,"y":2540840.75}},{"attributes":{"ID":443062,"DIS_CODE":0,"TOWNNAME":"南區","LI":"開南里","LIN":"5鄰","STREET":"中華西路","SECT":"一段","MAREA":" ","LANE":"２８巷","ALLEY":" ","HOUSE_NO":"１２號四樓","E_COORD97":166373.89999999999,"N_COORD97":2540840.75,"ADDRESS":"中華西路一段２８巷１２號四樓","OBJECTID":443037},"geometry":{"x":166373.9000000013,"y":2540840.75}},{"attributes":{"ID":443063,"DIS_CODE":0,"TOWNNAME":"南區","LI":"開南里","LIN":"5鄰","STREET":"中華西路","SECT":"一段","MAREA":" ","LANE":"２８巷","ALLEY":" ","HOUSE_NO":"２號二樓","E_COORD97":166333.35000000001,"N_COORD97":2540840.75,"ADDRESS":"中華西路一段２８巷２號二樓","OBJECTID":443038},"geometry":{"x":166333.34999999963,"y":2540840.75}},{"attributes":{"ID":443064,"DIS_CODE":0,"TOWNNAME":"南區","LI":"開南里","LIN":"5鄰","STREET":"中華西路","SECT":"一段","MAREA":" ","LANE":"２８巷","ALLEY":" ","HOUSE_NO":"２號三樓","E_COORD97":166333.35000000001,"N_COORD97":2540840.75,"ADDRESS":"中華西路一段２８巷２號三樓","OBJECTID":443039},"geometry":{"x":166333.34999999963,"y":2540840.75}},{"attributes":{"ID":443065,"DIS_CODE":0,"TOWNNAME":"南區","LI":"開南里","LIN":"5鄰","STREET":"中華西路","SECT":"一段","MAREA":" ","LANE":"２８巷","ALLEY":" ","HOUSE_NO":"２號五樓","E_COORD97":166333.35000000001,"N_COORD97":2540840.75,"ADDRESS":"中華西路一段２８巷２號五樓","OBJECTID":443040},"geometry":{"x":166333.34999999963,"y":2540840.75}},{"attributes":{"ID":443066,"DIS_CODE":0,"TOWNNAME":"南區","LI":"開南里","LIN":"5鄰","STREET":"中華西路","SECT":"一段","MAREA":" ","LANE":"２８巷","ALLEY":" ","HOUSE_NO":"２號四樓","E_COORD97":166333.35000000001,"N_COORD97":2540840.75,"ADDRESS":"中華西路一段２８巷２號四樓","OBJECTID":443041},"geometry":{"x":166333.34999999963,"y":2540840.75}},{"attributes":{"ID":443067,"DIS_CODE":0,"TOWNNAME":"南區","LI":"開南里","LIN":"5鄰","STREET":"中華西路","SECT":"一段","MAREA":" ","LANE":"２８巷","ALLEY":" ","HOUSE_NO":"４號二樓","E_COORD97":166338.92000000001,"N_COORD97":2540840.6099999999,"ADDRESS":"中華西路一段２８巷４號二樓","OBJECTID":443042},"geometry":{"x":166338.92000000179,"y":2540840.6100000013}},{"attributes":{"ID":443068,"DIS_CODE":0,"TOWNNAME":"南區","LI":"開南里","LIN":"5鄰","STREET":"中華西路","SECT":"一段","MAREA":" ","LANE":"２８巷","ALLEY":" ","HOUSE_NO":"４號三樓","E_COORD97":166338.92000000001,"N_COORD97":2540840.6099999999,"ADDRESS":"中華西路一段２８巷４號三樓","OBJECTID":443043},"geometry":{"x":166338.92000000179,"y":2540840.6100000013}},{"attributes":{"ID":443069,"DIS_CODE":0,"TOWNNAME":"南區","LI":"開南里","LIN":"5鄰","STREET":"中華西路","SECT":"一段","MAREA":" ","LANE":"２８巷","ALLEY":" ","HOUSE_NO":"４號五樓","E_COORD97":166338.92000000001,"N_COORD97":2540840.6099999999,"ADDRESS":"中華西路一段２８巷４號五樓","OBJECTID":443044},"geometry":{"x":166338.92000000179,"y":2540840.6100000013}},{"attributes":{"ID":443070,"DIS_CODE":0,"TOWNNAME":"南區","LI":"開南里","LIN":"5鄰","STREET":"中華西路","SECT":"一段","MAREA":" ","LANE":"２８巷","ALLEY":" ","HOUSE_NO":"４號四樓","E_COORD97":166338.92000000001,"N_COORD97":2540840.6099999999,"ADDRESS":"中華西路一段２８巷４號四樓","OBJECTID":443045},"geometry":{"x":166338.92000000179,"y":2540840.6100000013}},{"attributes":{"ID":443071,"DIS_CODE":0,"TOWNNAME":"南區","LI":"開南里","LIN":"5鄰","STREET":"中華西路","SECT":"一段","MAREA":" ","LANE":"２８巷","ALLEY":" ","HOUSE_NO":"６號二樓","E_COORD97":166350.57000000001,"N_COORD97":2540840.0099999998,"ADDRESS":"中華西路一段２８巷６號二樓","OBJECTID":443046},"geometry":{"x":166350.57000000123,"y":2540840.0099999998}},{"attributes":{"ID":443072,"DIS_CODE":0,"TOWNNAME":"南區","LI":"開南里","LIN":"5鄰","STREET":"中華西路","SECT":"一段","MAREA":" ","LANE":"２８巷","ALLEY":" ","HOUSE_NO":"６號三樓","E_COORD97":166350.57000000001,"N_COORD97":2540840.0099999998,"ADDRESS":"中華西路一段２８巷６號三樓","OBJECTID":443047},"geometry":{"x":166350.57000000123,"y":2540840.0099999998}},{"attributes":{"ID":443073,"DIS_CODE":0,"TOWNNAME":"南區","LI":"開南里","LIN":"5鄰","STREET":"中華西路","SECT":"一段","MAREA":" ","LANE":"２８巷","ALLEY":" ","HOUSE_NO":"６號五樓","E_COORD97":166350.57000000001,"N_COORD97":2540840.0099999998,"ADDRESS":"中華西路一段２８巷６號五樓","OBJECTID":443048},"geometry":{"x":166350.57000000123,"y":2540840.0099999998}},{"attributes":{"ID":443074,"DIS_CODE":0,"TOWNNAME":"南區","LI":"開南里","LIN":"5鄰","STREET":"中華西路","SECT":"一段","MAREA":" ","LANE":"２８巷","ALLEY":" ","HOUSE_NO":"６號四樓","E_COORD97":166350.57000000001,"N_COORD97":2540840.0099999998,"ADDRESS":"中華西路一段２８巷６號四樓","OBJECTID":443049},"geometry":{"x":166350.57000000123,"y":2540840.0099999998}},{"attributes":{"ID":443075,"DIS_CODE":0,"TOWNNAME":"南區","LI":"開南里","LIN":"5鄰","STREET":"中華西路","SECT":"一段","MAREA":" ","LANE":"２８巷","ALLEY":" ","HOUSE_NO":"８號二樓","E_COORD97":166355.70999999999,"N_COORD97":2540840.0099999998,"ADDRESS":"中華西路一段２８巷８號二樓","OBJECTID":443050},"geometry":{"x":166355.71000000183,"y":2540840.0099999998}},{"attributes":{"ID":443076,"DIS_CODE":0,"TOWNNAME":"南區","LI":"開南里","LIN":"5鄰","STREET":"中華西路","SECT":"一段","MAREA":" ","LANE":"２８巷","ALLEY":" ","HOUSE_NO":"８號三樓","E_COORD97":166355.70999999999,"N_COORD97":2540840.0099999998,"ADDRESS":"中華西路一段２８巷８號三樓","OBJECTID":443051},"geometry":{"x":166355.71000000183,"y":2540840.0099999998}},{"attributes":{"ID":443077,"DIS_CODE":0,"TOWNNAME":"南區","LI":"開南里","LIN":"5鄰","STREET":"中華西路","SECT":"一段","MAREA":" ","LANE":"２８巷","ALLEY":" ","HOUSE_NO":"８號五樓","E_COORD97":166355.70999999999,"N_COORD97":2540840.0099999998,"ADDRESS":"中華西路一段２８巷８號五樓","OBJECTID":443052},"geometry":{"x":166355.71000000183,"y":2540840.0099999998}},{"attributes":{"ID":443078,"DIS_CODE":0,"TOWNNAME":"南區","LI":"開南里","LIN":"5鄰","STREET":"中華西路","SECT":"一段","MAREA":" ","LANE":"２８巷","ALLEY":" ","HOUSE_NO":"８號四樓","E_COORD97":166355.70999999999,"N_COORD97":2540840.0099999998,"ADDRESS":"中華西路一段２８巷８號四樓","OBJECTID":443053},"geometry":{"x":166355.71000000183,"y":2540840.0099999998}},{"attributes":{"ID":443079,"DIS_CODE":0,"TOWNNAME":"永康區","LI":"埔園里","LIN":"5鄰","STREET":"中山路","SECT":" ","MAREA":" ","LANE":"１５８巷","ALLEY":" ","HOUSE_NO":"３６號五樓之３","E_COORD97":173920.45999999999,"N_COORD97":2547830.04,"ADDRESS":"中山路１５８巷３６號五樓之３","OBJECTID":443054},"geometry":{"x":173920.45999999996,"y":2547830.0399999991}},{"attributes":{"ID":443080,"DIS_CODE":0,"TOWNNAME":"永康區","LI":"埔園里","LIN":"5鄰","STREET":"中山路","SECT":" ","MAREA":" ","LANE":"１５８巷","ALLEY":" ","HOUSE_NO":"３６號七樓之４","E_COORD97":173920.38,"N_COORD97":2547830.04,"ADDRESS":"中山路１５８巷３６號七樓之４","OBJECTID":443055},"geometry":{"x":173920.38000000082,"y":2547830.0399999991}},{"attributes":{"ID":443081,"DIS_CODE":0,"TOWNNAME":"永康區","LI":"埔園里","LIN":"5鄰","STREET":"中山路","SECT":" ","MAREA":" ","LANE":"１５８巷","ALLEY":" ","HOUSE_NO":"３６號七樓之１","E_COORD97":173920.35999999999,"N_COORD97":2547830.04,"ADDRESS":"中山路１５８巷３６號七樓之１","OBJECTID":443056},"geometry":{"x":173920.36000000034,"y":2547830.0399999991}},{"attributes":{"ID":443082,"DIS_CODE":0,"TOWNNAME":"永康區","LI":"埔園里","LIN":"5鄰","STREET":"中山路","SECT":" ","MAREA":" ","LANE":"１５８巷","ALLEY":" ","HOUSE_NO":"３４號四樓之１","E_COORD97":173879.39999999999,"N_COORD97":2547820.04,"ADDRESS":"中山路１５８巷３４號四樓之１","OBJECTID":443057},"geometry":{"x":173879.40000000037,"y":2547820.0399999972}},{"attributes":{"ID":443083,"DIS_CODE":0,"TOWNNAME":"永康區","LI":"埔園里","LIN":"5鄰","STREET":"中山路","SECT":" ","MAREA":" ","LANE":"１５８巷","ALLEY":" ","HOUSE_NO":"３６號八樓之１","E_COORD97":173920.35999999999,"N_COORD97":2547830.04,"ADDRESS":"中山路１５８巷３６號八樓之１","OBJECTID":443058},"geometry":{"x":173920.36000000034,"y":2547830.0399999991}},{"attributes":{"ID":443084,"DIS_CODE":0,"TOWNNAME":"永康區","LI":"埔園里","LIN":"5鄰","STREET":"中山路","SECT":" ","MAREA":" ","LANE":"１５８巷","ALLEY":" ","HOUSE_NO":"３６號五樓之１","E_COORD97":173920.35999999999,"N_COORD97":2547830.04,"ADDRESS":"中山路１５８巷３６號五樓之１","OBJECTID":443059},"geometry":{"x":173920.36000000034,"y":2547830.0399999991}},{"attributes":{"ID":443085,"DIS_CODE":0,"TOWNNAME":"永康區","LI":"埔園里","LIN":"5鄰","STREET":"中山路","SECT":" ","MAREA":" ","LANE":"１５８巷","ALLEY":" ","HOUSE_NO":"３６號四樓之１","E_COORD97":173920.35999999999,"N_COORD97":2547830.04,"ADDRESS":"中山路１５８巷３６號四樓之１","OBJECTID":443060},"geometry":{"x":173920.36000000034,"y":2547830.0399999991}},{"attributes":{"ID":443086,"DIS_CODE":0,"TOWNNAME":"永康區","LI":"埔園里","LIN":"5鄰","STREET":"中山路","SECT":" ","MAREA":" ","LANE":"１５８巷","ALLEY":" ","HOUSE_NO":"３４號六樓之３","E_COORD97":173879.5,"N_COORD97":2547820.04,"ADDRESS":"中山路１５８巷３４號六樓之３","OBJECTID":443061},"geometry":{"x":173879.5,"y":2547820.0399999972}},{"attributes":{"ID":443087,"DIS_CODE":0,"TOWNNAME":"永康區","LI":"埔園里","LIN":"5鄰","STREET":"中山路","SECT":" ","MAREA":" ","LANE":"１５８巷","ALLEY":" ","HOUSE_NO":"３４號四樓之３","E_COORD97":173879.5,"N_COORD97":2547820.04,"ADDRESS":"中山路１５８巷３４號四樓之３","OBJECTID":443062},"geometry":{"x":173879.5,"y":2547820.0399999972}},{"attributes":{"ID":443088,"DIS_CODE":0,"TOWNNAME":"永康區","LI":"埔園里","LIN":"5鄰","STREET":"中山路","SECT":" ","MAREA":" ","LANE":"１５８巷","ALLEY":" ","HOUSE_NO":"３６號七樓之３","E_COORD97":173920.45999999999,"N_COORD97":2547830.04,"ADDRESS":"中山路１５８巷３６號七樓之３","OBJECTID":443063},"geometry":{"x":173920.45999999996,"y":2547830.0399999991}},{"attributes":{"ID":443089,"DIS_CODE":0,"TOWNNAME":"永康區","LI":"東橋里","LIN":"5鄰","STREET":"中山南路","SECT":" ","MAREA":" ","LANE":"１９５巷","ALLEY":" ","HOUSE_NO":"３２之７號八樓之３","E_COORD97":171459.95000000001,"N_COORD97":2546395.8999999999,"ADDRESS":"中山南路１９５巷３２之７號八樓之３","OBJECTID":443064},"geometry":{"x":171459.95000000019,"y":2546395.9000000022}},{"attributes":{"ID":443090,"DIS_CODE":0,"TOWNNAME":"永康區","LI":"東橋里","LIN":"5鄰","STREET":"中山南路","SECT":" ","MAREA":" ","LANE":"１９５巷","ALLEY":" ","HOUSE_NO":"３２之７號二樓之６","E_COORD97":171459.95000000001,"N_COORD97":2546395.8999999999,"ADDRESS":"中山南路１９５巷３２之７號二樓之６","OBJECTID":443065},"geometry":{"x":171459.95000000019,"y":2546395.9000000022}},{"attributes":{"ID":443091,"DIS_CODE":0,"TOWNNAME":"永康區","LI":"埔園里","LIN":"5鄰","STREET":"中山路","SECT":" ","MAREA":" ","LANE":"１５８巷","ALLEY":" ","HOUSE_NO":"３６號四樓之４","E_COORD97":173920.38,"N_COORD97":2547830.04,"ADDRESS":"中山路１５８巷３６號四樓之４","OBJECTID":443066},"geometry":{"x":173920.38000000082,"y":2547830.0399999991}},{"attributes":{"ID":443092,"DIS_CODE":0,"TOWNNAME":"永康區","LI":"埔園里","LIN":"5鄰","STREET":"中山路","SECT":" ","MAREA":" ","LANE":"１５８巷","ALLEY":" ","HOUSE_NO":"３４號六樓之１","E_COORD97":173879.39999999999,"N_COORD97":2547820.04,"ADDRESS":"中山路１５８巷３４號六樓之１","OBJECTID":443067},"geometry":{"x":173879.40000000037,"y":2547820.0399999972}},{"attributes":{"ID":443093,"DIS_CODE":0,"TOWNNAME":"永康區","LI":"埔園里","LIN":"5鄰","STREET":"中山路","SECT":" ","MAREA":" ","LANE":"１５８巷","ALLEY":" ","HOUSE_NO":"３４號七樓之１","E_COORD97":173879.39999999999,"N_COORD97":2547820.04,"ADDRESS":"中山路１５８巷３４號七樓之１","OBJECTID":443068},"geometry":{"x":173879.40000000037,"y":2547820.0399999972}},{"attributes":{"ID":443094,"DIS_CODE":0,"TOWNNAME":"永康區","LI":"埔園里","LIN":"5鄰","STREET":"中山路","SECT":" ","MAREA":" ","LANE":"１５８巷","ALLEY":" ","HOUSE_NO":"３２號五樓","E_COORD97":173887.98000000001,"N_COORD97":2547839.25,"ADDRESS":"中山路１５８巷３２號五樓","OBJECTID":443069},"geometry":{"x":173887.98000000138,"y":2547839.25}},{"attributes":{"ID":443095,"DIS_CODE":0,"TOWNNAME":"永康區","LI":"埔園里","LIN":"5鄰","STREET":"中山路","SECT":" ","MAREA":" ","LANE":"１５８巷","ALLEY":" ","HOUSE_NO":"３８號六樓","E_COORD97":173896.14999999999,"N_COORD97":2547840.25,"ADDRESS":"中山路１５８巷３８號六樓","OBJECTID":443070},"geometry":{"x":173896.15000000037,"y":2547840.2500000037}},{"attributes":{"ID":443096,"DIS_CODE":0,"TOWNNAME":"永康區","LI":"東橋里","LIN":"5鄰","STREET":"中山南路","SECT":" ","MAREA":" ","LANE":"１９５巷","ALLEY":" ","HOUSE_NO":"３２之７號八樓之２","E_COORD97":171459.98000000001,"N_COORD97":2546395.8999999999,"ADDRESS":"中山南路１９５巷３２之７號八樓之２","OBJECTID":443071},"geometry":{"x":171459.98000000045,"y":2546395.9000000022}},{"attributes":{"ID":443097,"DIS_CODE":0,"TOWNNAME":"永康區","LI":"東橋里","LIN":"5鄰","STREET":"中山南路","SECT":" ","MAREA":" ","LANE":"１９５巷","ALLEY":" ","HOUSE_NO":"３２之７號十一樓之６","E_COORD97":171461.20000000001,"N_COORD97":2546395.8999999999,"ADDRESS":"中山南路１９５巷３２之７號十一樓之６","OBJECTID":443072},"geometry":{"x":171461.20000000019,"y":2546395.9000000022}},{"attributes":{"ID":443098,"DIS_CODE":0,"TOWNNAME":"永康區","LI":"東橋里","LIN":"5鄰","STREET":"中山南路","SECT":" ","MAREA":" ","LANE":"１９５巷","ALLEY":" ","HOUSE_NO":"３２之７號十樓之３","E_COORD97":171459.95000000001,"N_COORD97":2546395.8999999999,"ADDRESS":"中山南路１９５巷３２之７號十樓之３","OBJECTID":443073},"geometry":{"x":171459.95000000019,"y":2546395.9000000022}},{"attributes":{"ID":443099,"DIS_CODE":0,"TOWNNAME":"東區","LI":"龍山里","LIN":"5鄰","STREET":"崇仁街","SECT":" ","MAREA":" ","LANE":"６６巷","ALLEY":" ","HOUSE_NO":"１０號十一樓","E_COORD97":170313.14999999999,"N_COORD97":2542717.9500000002,"ADDRESS":"崇仁街６６巷１０號十一樓","OBJECTID":443074},"geometry":{"x":170313.15000000224,"y":2542717.9499999993}},{"attributes":{"ID":443100,"DIS_CODE":0,"TOWNNAME":"永康區","LI":"東橋里","LIN":"5鄰","STREET":"中山南路","SECT":" ","MAREA":" ","LANE":"１９５巷","ALLEY":" ","HOUSE_NO":"３２之７號十樓之５","E_COORD97":171460,"N_COORD97":2546395.8999999999,"ADDRESS":"中山南路１９５巷３２之７號十樓之５","OBJECTID":443075},"geometry":{"x":171460.00000000093,"y":2546395.9000000022}},{"attributes":{"ID":443101,"DIS_CODE":0,"TOWNNAME":"永康區","LI":"東橋里","LIN":"5鄰","STREET":"中山南路","SECT":" ","MAREA":" ","LANE":"１９５巷","ALLEY":" ","HOUSE_NO":"３２之７號十樓之２","E_COORD97":171459.98000000001,"N_COORD97":2546395.8999999999,"ADDRESS":"中山南路１９５巷３２之７號十樓之２","OBJECTID":443076},"geometry":{"x":171459.98000000045,"y":2546395.9000000022}},{"attributes":{"ID":443102,"DIS_CODE":0,"TOWNNAME":"永康區","LI":"東橋里","LIN":"5鄰","STREET":"中山南路","SECT":" ","MAREA":" ","LANE":"１９５巷","ALLEY":" ","HOUSE_NO":"３２之７號七樓之７","E_COORD97":171459.92999999999,"N_COORD97":2546395.8999999999,"ADDRESS":"中山南路１９５巷３２之７號七樓之７","OBJECTID":443077},"geometry":{"x":171459.93000000063,"y":2546395.9000000022}},{"attributes":{"ID":443103,"DIS_CODE":0,"TOWNNAME":"永康區","LI":"埔園里","LIN":"5鄰","STREET":"中山路","SECT":" ","MAREA":" ","LANE":"１５８巷","ALLEY":" ","HOUSE_NO":"３２號四樓","E_COORD97":173887.98000000001,"N_COORD97":2547839.25,"ADDRESS":"中山路１５８巷３２號四樓","OBJECTID":443078},"geometry":{"x":173887.98000000138,"y":2547839.25}},{"attributes":{"ID":443104,"DIS_CODE":0,"TOWNNAME":"永康區","LI":"東橋里","LIN":"5鄰","STREET":"中山南路","SECT":" ","MAREA":" ","LANE":"１９５巷","ALLEY":" ","HOUSE_NO":"３２之７號八樓之６","E_COORD97":171459.95000000001,"N_COORD97":2546395.8999999999,"ADDRESS":"中山南路１９５巷３２之７號八樓之６","OBJECTID":443079},"geometry":{"x":171459.95000000019,"y":2546395.9000000022}},{"attributes":{"ID":443105,"DIS_CODE":0,"TOWNNAME":"東區","LI":"龍山里","LIN":"5鄰","STREET":"崇仁街","SECT":" ","MAREA":" ","LANE":"６６巷","ALLEY":" ","HOUSE_NO":"１２號六樓","E_COORD97":170306.37,"N_COORD97":2542710.6499999999,"ADDRESS":"崇仁街６６巷１２號六樓","OBJECTID":443080},"geometry":{"x":170306.37000000104,"y":2542710.6500000004}},{"attributes":{"ID":443106,"DIS_CODE":0,"TOWNNAME":"永康區","LI":"東橋里","LIN":"5鄰","STREET":"中山南路","SECT":" ","MAREA":" ","LANE":"１９５巷","ALLEY":" ","HOUSE_NO":"３２之７號四樓之３","E_COORD97":171459.95000000001,"N_COORD97":2546395.8999999999,"ADDRESS":"中山南路１９５巷３２之７號四樓之３","OBJECTID":443081},"geometry":{"x":171459.95000000019,"y":2546395.9000000022}},{"attributes":{"ID":443107,"DIS_CODE":0,"TOWNNAME":"永康區","LI":"埔園里","LIN":"5鄰","STREET":"中山路","SECT":" ","MAREA":" ","LANE":"１５８巷","ALLEY":" ","HOUSE_NO":"３４號七樓之４","E_COORD97":173879.42000000001,"N_COORD97":2547820.04,"ADDRESS":"中山路１５８巷３４號七樓之４","OBJECTID":443082},"geometry":{"x":173879.42000000086,"y":2547820.0399999972}},{"attributes":{"ID":443108,"DIS_CODE":0,"TOWNNAME":"東區","LI":"龍山里","LIN":"5鄰","STREET":"崇仁街","SECT":" ","MAREA":" ","LANE":"６６巷","ALLEY":" ","HOUSE_NO":"１０號二樓","E_COORD97":170313.14999999999,"N_COORD97":2542717.9500000002,"ADDRESS":"崇仁街６６巷１０號二樓","OBJECTID":443083},"geometry":{"x":170313.15000000224,"y":2542717.9499999993}},{"attributes":{"ID":443109,"DIS_CODE":0,"TOWNNAME":"東區","LI":"龍山里","LIN":"5鄰","STREET":"崇仁街","SECT":" ","MAREA":" ","LANE":"６６巷","ALLEY":" ","HOUSE_NO":"１０號三樓","E_COORD97":170313.14999999999,"N_COORD97":2542717.9500000002,"ADDRESS":"崇仁街６６巷１０號三樓","OBJECTID":443084},"geometry":{"x":170313.15000000224,"y":2542717.9499999993}},{"attributes":{"ID":443110,"DIS_CODE":0,"TOWNNAME":"東區","LI":"龍山里","LIN":"5鄰","STREET":"崇仁街","SECT":" ","MAREA":" ","LANE":"６６巷","ALLEY":" ","HOUSE_NO":"１０號四樓","E_COORD97":170313.14999999999,"N_COORD97":2542717.9500000002,"ADDRESS":"崇仁街６６巷１０號四樓","OBJECTID":443085},"geometry":{"x":170313.15000000224,"y":2542717.9499999993}},{"attributes":{"ID":443111,"DIS_CODE":0,"TOWNNAME":"東區","LI":"龍山里","LIN":"5鄰","STREET":"崇仁街","SECT":" ","MAREA":" ","LANE":"６６巷","ALLEY":" ","HOUSE_NO":"１０號五樓","E_COORD97":170313.14999999999,"N_COORD97":2542717.9500000002,"ADDRESS":"崇仁街６６巷１０號五樓","OBJECTID":443086},"geometry":{"x":170313.15000000224,"y":2542717.9499999993}},{"attributes":{"ID":443112,"DIS_CODE":0,"TOWNNAME":"東區","LI":"龍山里","LIN":"5鄰","STREET":"崇仁街","SECT":" ","MAREA":" ","LANE":"６６巷","ALLEY":" ","HOUSE_NO":"１０號六樓","E_COORD97":170313.14999999999,"N_COORD97":2542717.9500000002,"ADDRESS":"崇仁街６６巷１０號六樓","OBJECTID":443087},"geometry":{"x":170313.15000000224,"y":2542717.9499999993}},{"attributes":{"ID":443113,"DIS_CODE":0,"TOWNNAME":"東區","LI":"龍山里","LIN":"5鄰","STREET":"崇仁街","SECT":" ","MAREA":" ","LANE":"６６巷","ALLEY":" ","HOUSE_NO":"１０號七樓","E_COORD97":170313.14999999999,"N_COORD97":2542717.9500000002,"ADDRESS":"崇仁街６６巷１０號七樓","OBJECTID":443088},"geometry":{"x":170313.15000000224,"y":2542717.9499999993}},{"attributes":{"ID":443114,"DIS_CODE":0,"TOWNNAME":"東區","LI":"龍山里","LIN":"5鄰","STREET":"崇仁街","SECT":" ","MAREA":" ","LANE":"６６巷","ALLEY":" ","HOUSE_NO":"１０號八樓","E_COORD97":170313.14999999999,"N_COORD97":2542717.9500000002,"ADDRESS":"崇仁街６６巷１０號八樓","OBJECTID":443089},"geometry":{"x":170313.15000000224,"y":2542717.9499999993}},{"attributes":{"ID":443115,"DIS_CODE":0,"TOWNNAME":"東區","LI":"龍山里","LIN":"5鄰","STREET":"崇仁街","SECT":" ","MAREA":" ","LANE":"６６巷","ALLEY":" ","HOUSE_NO":"１０號九樓","E_COORD97":170313.14999999999,"N_COORD97":2542717.9500000002,"ADDRESS":"崇仁街６６巷１０號九樓","OBJECTID":443090},"geometry":{"x":170313.15000000224,"y":2542717.9499999993}},{"attributes":{"ID":443116,"DIS_CODE":0,"TOWNNAME":"東區","LI":"龍山里","LIN":"5鄰","STREET":"崇仁街","SECT":" ","MAREA":" ","LANE":"６６巷","ALLEY":" ","HOUSE_NO":"１０號十樓","E_COORD97":170313.14999999999,"N_COORD97":2542717.9500000002,"ADDRESS":"崇仁街６６巷１０號十樓","OBJECTID":443091},"geometry":{"x":170313.15000000224,"y":2542717.9499999993}},{"attributes":{"ID":443117,"DIS_CODE":0,"TOWNNAME":"東區","LI":"龍山里","LIN":"5鄰","STREET":"崇仁街","SECT":" ","MAREA":" ","LANE":"６６巷","ALLEY":" ","HOUSE_NO":"１０號十二樓","E_COORD97":170313.14999999999,"N_COORD97":2542717.9500000002,"ADDRESS":"崇仁街６６巷１０號十二樓","OBJECTID":443092},"geometry":{"x":170313.15000000224,"y":2542717.9499999993}},{"attributes":{"ID":443118,"DIS_CODE":0,"TOWNNAME":"東區","LI":"龍山里","LIN":"5鄰","STREET":"崇仁街","SECT":" ","MAREA":" ","LANE":"６６巷","ALLEY":" ","HOUSE_NO":"１２號二樓","E_COORD97":170306.37,"N_COORD97":2542710.6499999999,"ADDRESS":"崇仁街６６巷１２號二樓","OBJECTID":443093},"geometry":{"x":170306.37000000104,"y":2542710.6500000004}},{"attributes":{"ID":443119,"DIS_CODE":0,"TOWNNAME":"東區","LI":"龍山里","LIN":"5鄰","STREET":"崇仁街","SECT":" ","MAREA":" ","LANE":"６６巷","ALLEY":" ","HOUSE_NO":"１２號三樓","E_COORD97":170306.37,"N_COORD97":2542710.6499999999,"ADDRESS":"崇仁街６６巷１２號三樓","OBJECTID":443094},"geometry":{"x":170306.37000000104,"y":2542710.6500000004}},{"attributes":{"ID":443120,"DIS_CODE":0,"TOWNNAME":"東區","LI":"龍山里","LIN":"5鄰","STREET":"崇仁街","SECT":" ","MAREA":" ","LANE":"６６巷","ALLEY":" ","HOUSE_NO":"１２號四樓","E_COORD97":170306.37,"N_COORD97":2542710.6499999999,"ADDRESS":"崇仁街６６巷１２號四樓","OBJECTID":443095},"geometry":{"x":170306.37000000104,"y":2542710.6500000004}},{"attributes":{"ID":443121,"DIS_CODE":0,"TOWNNAME":"東區","LI":"龍山里","LIN":"5鄰","STREET":"崇仁街","SECT":" ","MAREA":" ","LANE":"６６巷","ALLEY":" ","HOUSE_NO":"１２號五樓","E_COORD97":170306.37,"N_COORD97":2542710.6499999999,"ADDRESS":"崇仁街６６巷１２號五樓","OBJECTID":443096},"geometry":{"x":170306.37000000104,"y":2542710.6500000004}},{"attributes":{"ID":443122,"DIS_CODE":0,"TOWNNAME":"東區","LI":"龍山里","LIN":"5鄰","STREET":"崇仁街","SECT":" ","MAREA":" ","LANE":"６６巷","ALLEY":" ","HOUSE_NO":"１２號七樓","E_COORD97":170306.37,"N_COORD97":2542710.6499999999,"ADDRESS":"崇仁街６６巷１２號七樓","OBJECTID":443097},"geometry":{"x":170306.37000000104,"y":2542710.6500000004}},{"attributes":{"ID":443123,"DIS_CODE":0,"TOWNNAME":"東區","LI":"龍山里","LIN":"5鄰","STREET":"崇仁街","SECT":" ","MAREA":" ","LANE":"６６巷","ALLEY":" ","HOUSE_NO":"１２號八樓","E_COORD97":170306.37,"N_COORD97":2542710.6499999999,"ADDRESS":"崇仁街６６巷１２號八樓","OBJECTID":443098},"geometry":{"x":170306.37000000104,"y":2542710.6500000004}},{"attributes":{"ID":443124,"DIS_CODE":0,"TOWNNAME":"東區","LI":"龍山里","LIN":"5鄰","STREET":"崇仁街","SECT":" ","MAREA":" ","LANE":"６６巷","ALLEY":" ","HOUSE_NO":"１２號九樓","E_COORD97":170306.37,"N_COORD97":2542710.6499999999,"ADDRESS":"崇仁街６６巷１２號九樓","OBJECTID":443099},"geometry":{"x":170306.37000000104,"y":2542710.6500000004}},{"attributes":{"ID":443125,"DIS_CODE":0,"TOWNNAME":"東區","LI":"龍山里","LIN":"5鄰","STREET":"崇仁街","SECT":" ","MAREA":" ","LANE":"６６巷","ALLEY":" ","HOUSE_NO":"１２號十樓","E_COORD97":170306.37,"N_COORD97":2542710.6499999999,"ADDRESS":"崇仁街６６巷１２號十樓","OBJECTID":443100},"geometry":{"x":170306.37000000104,"y":2542710.6500000004}},{"attributes":{"ID":443126,"DIS_CODE":0,"TOWNNAME":"東區","LI":"龍山里","LIN":"5鄰","STREET":"崇仁街","SECT":" ","MAREA":" ","LANE":"６６巷","ALLEY":" ","HOUSE_NO":"１２號十一樓","E_COORD97":170306.37,"N_COORD97":2542710.6499999999,"ADDRESS":"崇仁街６６巷１２號十一樓","OBJECTID":443101},"geometry":{"x":170306.37000000104,"y":2542710.6500000004}},{"attributes":{"ID":443127,"DIS_CODE":0,"TOWNNAME":"東區","LI":"龍山里","LIN":"5鄰","STREET":"崇仁街","SECT":" ","MAREA":" ","LANE":"６６巷","ALLEY":" ","HOUSE_NO":"１２號十二樓","E_COORD97":170306.37,"N_COORD97":2542710.6499999999,"ADDRESS":"崇仁街６６巷１２號十二樓","OBJECTID":443102},"geometry":{"x":170306.37000000104,"y":2542710.6500000004}},{"attributes":{"ID":443128,"DIS_CODE":0,"TOWNNAME":"東區","LI":"龍山里","LIN":"5鄰","STREET":"崇仁街","SECT":" ","MAREA":" ","LANE":"６６巷","ALLEY":" ","HOUSE_NO":"２號二樓","E_COORD97":170329.04999999999,"N_COORD97":2542738.5499999998,"ADDRESS":"崇仁街６６巷２號二樓","OBJECTID":443103},"geometry":{"x":170329.05000000075,"y":2542738.5500000007}},{"attributes":{"ID":443129,"DIS_CODE":0,"TOWNNAME":"東區","LI":"龍山里","LIN":"5鄰","STREET":"崇仁街","SECT":" ","MAREA":" ","LANE":"６６巷","ALLEY":" ","HOUSE_NO":"２號三樓","E_COORD97":170329.04999999999,"N_COORD97":2542738.5499999998,"ADDRESS":"崇仁街６６巷２號三樓","OBJECTID":443104},"geometry":{"x":170329.05000000075,"y":2542738.5500000007}},{"attributes":{"ID":443130,"DIS_CODE":0,"TOWNNAME":"東區","LI":"龍山里","LIN":"5鄰","STREET":"崇仁街","SECT":" ","MAREA":" ","LANE":"６６巷","ALLEY":" ","HOUSE_NO":"２號四樓","E_COORD97":170329.04999999999,"N_COORD97":2542738.5499999998,"ADDRESS":"崇仁街６６巷２號四樓","OBJECTID":443105},"geometry":{"x":170329.05000000075,"y":2542738.5500000007}},{"attributes":{"ID":443131,"DIS_CODE":0,"TOWNNAME":"東區","LI":"龍山里","LIN":"5鄰","STREET":"崇仁街","SECT":" ","MAREA":" ","LANE":"６６巷","ALLEY":" ","HOUSE_NO":"２號五樓","E_COORD97":170329.04999999999,"N_COORD97":2542738.5499999998,"ADDRESS":"崇仁街６６巷２號五樓","OBJECTID":443106},"geometry":{"x":170329.05000000075,"y":2542738.5500000007}},{"attributes":{"ID":443132,"DIS_CODE":0,"TOWNNAME":"東區","LI":"龍山里","LIN":"5鄰","STREET":"崇仁街","SECT":" ","MAREA":" ","LANE":"６６巷","ALLEY":" ","HOUSE_NO":"２號六樓","E_COORD97":170329.04999999999,"N_COORD97":2542738.5499999998,"ADDRESS":"崇仁街６６巷２號六樓","OBJECTID":443107},"geometry":{"x":170329.05000000075,"y":2542738.5500000007}},{"attributes":{"ID":443133,"DIS_CODE":0,"TOWNNAME":"東區","LI":"龍山里","LIN":"5鄰","STREET":"崇仁街","SECT":" ","MAREA":" ","LANE":"６６巷","ALLEY":" ","HOUSE_NO":"２號七樓","E_COORD97":170329.04999999999,"N_COORD97":2542738.5499999998,"ADDRESS":"崇仁街６６巷２號七樓","OBJECTID":443108},"geometry":{"x":170329.05000000075,"y":2542738.5500000007}},{"attributes":{"ID":443134,"DIS_CODE":0,"TOWNNAME":"東區","LI":"龍山里","LIN":"5鄰","STREET":"崇仁街","SECT":" ","MAREA":" ","LANE":"６６巷","ALLEY":" ","HOUSE_NO":"２號八樓","E_COORD97":170329.04999999999,"N_COORD97":2542738.5499999998,"ADDRESS":"崇仁街６６巷２號八樓","OBJECTID":443109},"geometry":{"x":170329.05000000075,"y":2542738.5500000007}},{"attributes":{"ID":443135,"DIS_CODE":0,"TOWNNAME":"東區","LI":"龍山里","LIN":"5鄰","STREET":"崇仁街","SECT":" ","MAREA":" ","LANE":"６６巷","ALLEY":" ","HOUSE_NO":"２號九樓","E_COORD97":170329.04999999999,"N_COORD97":2542738.5499999998,"ADDRESS":"崇仁街６６巷２號九樓","OBJECTID":443110},"geometry":{"x":170329.05000000075,"y":2542738.5500000007}},{"attributes":{"ID":443136,"DIS_CODE":0,"TOWNNAME":"東區","LI":"龍山里","LIN":"5鄰","STREET":"崇仁街","SECT":" ","MAREA":" ","LANE":"６６巷","ALLEY":" ","HOUSE_NO":"２號十樓","E_COORD97":170329.04999999999,"N_COORD97":2542738.5499999998,"ADDRESS":"崇仁街６６巷２號十樓","OBJECTID":443111},"geometry":{"x":170329.05000000075,"y":2542738.5500000007}},{"attributes":{"ID":443137,"DIS_CODE":0,"TOWNNAME":"東區","LI":"龍山里","LIN":"5鄰","STREET":"崇仁街","SECT":" ","MAREA":" ","LANE":"６６巷","ALLEY":" ","HOUSE_NO":"２號十一樓","E_COORD97":170329.04999999999,"N_COORD97":2542738.5499999998,"ADDRESS":"崇仁街６６巷２號十一樓","OBJECTID":443112},"geometry":{"x":170329.05000000075,"y":2542738.5500000007}},{"attributes":{"ID":443138,"DIS_CODE":0,"TOWNNAME":"東區","LI":"龍山里","LIN":"5鄰","STREET":"崇仁街","SECT":" ","MAREA":" ","LANE":"６６巷","ALLEY":" ","HOUSE_NO":"２號十二樓","E_COORD97":170329.04999999999,"N_COORD97":2542738.5499999998,"ADDRESS":"崇仁街６６巷２號十二樓","OBJECTID":443113},"geometry":{"x":170329.05000000075,"y":2542738.5500000007}},{"attributes":{"ID":443139,"DIS_CODE":0,"TOWNNAME":"東區","LI":"龍山里","LIN":"5鄰","STREET":"崇仁街","SECT":" ","MAREA":" ","LANE":"６６巷","ALLEY":" ","HOUSE_NO":"２號十三樓","E_COORD97":170329.04999999999,"N_COORD97":2542738.5499999998,"ADDRESS":"崇仁街６６巷２號十三樓","OBJECTID":443114},"geometry":{"x":170329.05000000075,"y":2542738.5500000007}},{"attributes":{"ID":443140,"DIS_CODE":0,"TOWNNAME":"東區","LI":"龍山里","LIN":"5鄰","STREET":"崇仁街","SECT":" ","MAREA":" ","LANE":"６６巷","ALLEY":" ","HOUSE_NO":"２號十四樓","E_COORD97":170329.04999999999,"N_COORD97":2542738.5499999998,"ADDRESS":"崇仁街６６巷２號十四樓","OBJECTID":443115},"geometry":{"x":170329.05000000075,"y":2542738.5500000007}},{"attributes":{"ID":443141,"DIS_CODE":0,"TOWNNAME":"東區","LI":"龍山里","LIN":"5鄰","STREET":"崇仁街","SECT":" ","MAREA":" ","LANE":"６６巷","ALLEY":" ","HOUSE_NO":"６號四樓","E_COORD97":170322.53,"N_COORD97":2542733.6000000001,"ADDRESS":"崇仁街６６巷６號四樓","OBJECTID":443116},"geometry":{"x":170322.53000000119,"y":2542733.5999999996}},{"attributes":{"ID":443142,"DIS_CODE":0,"TOWNNAME":"東區","LI":"龍山里","LIN":"5鄰","STREET":"崇仁街","SECT":" ","MAREA":" ","LANE":"６６巷","ALLEY":" ","HOUSE_NO":"６號五樓","E_COORD97":170322.53,"N_COORD97":2542733.6000000001,"ADDRESS":"崇仁街６６巷６號五樓","OBJECTID":443117},"geometry":{"x":170322.53000000119,"y":2542733.5999999996}},{"attributes":{"ID":443143,"DIS_CODE":0,"TOWNNAME":"東區","LI":"龍山里","LIN":"5鄰","STREET":"崇仁街","SECT":" ","MAREA":" ","LANE":"６６巷","ALLEY":" ","HOUSE_NO":"６號六樓","E_COORD97":170322.53,"N_COORD97":2542733.6000000001,"ADDRESS":"崇仁街６６巷６號六樓","OBJECTID":443118},"geometry":{"x":170322.53000000119,"y":2542733.5999999996}},{"attributes":{"ID":443144,"DIS_CODE":0,"TOWNNAME":"東區","LI":"龍山里","LIN":"5鄰","STREET":"崇仁街","SECT":" ","MAREA":" ","LANE":"６６巷","ALLEY":" ","HOUSE_NO":"６號七樓","E_COORD97":170322.53,"N_COORD97":2542733.6000000001,"ADDRESS":"崇仁街６６巷６號七樓","OBJECTID":443119},"geometry":{"x":170322.53000000119,"y":2542733.5999999996}},{"attributes":{"ID":443145,"DIS_CODE":0,"TOWNNAME":"東區","LI":"龍山里","LIN":"5鄰","STREET":"崇仁街","SECT":" ","MAREA":" ","LANE":"６６巷","ALLEY":" ","HOUSE_NO":"６號八樓","E_COORD97":170322.53,"N_COORD97":2542733.6000000001,"ADDRESS":"崇仁街６６巷６號八樓","OBJECTID":443120},"geometry":{"x":170322.53000000119,"y":2542733.5999999996}},{"attributes":{"ID":443146,"DIS_CODE":0,"TOWNNAME":"東區","LI":"龍山里","LIN":"5鄰","STREET":"崇仁街","SECT":" ","MAREA":" ","LANE":"６６巷","ALLEY":" ","HOUSE_NO":"６號九樓","E_COORD97":170322.53,"N_COORD97":2542733.6000000001,"ADDRESS":"崇仁街６６巷６號九樓","OBJECTID":443121},"geometry":{"x":170322.53000000119,"y":2542733.5999999996}},{"attributes":{"ID":443147,"DIS_CODE":0,"TOWNNAME":"東區","LI":"龍山里","LIN":"5鄰","STREET":"崇仁街","SECT":" ","MAREA":" ","LANE":"６６巷","ALLEY":" ","HOUSE_NO":"６號十樓","E_COORD97":170322.53,"N_COORD97":2542733.6000000001,"ADDRESS":"崇仁街６６巷６號十樓","OBJECTID":443122},"geometry":{"x":170322.53000000119,"y":2542733.5999999996}},{"attributes":{"ID":443148,"DIS_CODE":0,"TOWNNAME":"東區","LI":"龍山里","LIN":"5鄰","STREET":"崇仁街","SECT":" ","MAREA":" ","LANE":"６６巷","ALLEY":" ","HOUSE_NO":"６號十一樓","E_COORD97":170322.53,"N_COORD97":2542733.6000000001,"ADDRESS":"崇仁街６６巷６號十一樓","OBJECTID":443123},"geometry":{"x":170322.53000000119,"y":2542733.5999999996}},{"attributes":{"ID":443149,"DIS_CODE":0,"TOWNNAME":"東區","LI":"龍山里","LIN":"5鄰","STREET":"崇仁街","SECT":" ","MAREA":" ","LANE":"６６巷","ALLEY":" ","HOUSE_NO":"６號十二樓","E_COORD97":170322.53,"N_COORD97":2542733.6000000001,"ADDRESS":"崇仁街６６巷６號十二樓","OBJECTID":443124},"geometry":{"x":170322.53000000119,"y":2542733.5999999996}},{"attributes":{"ID":443150,"DIS_CODE":0,"TOWNNAME":"東區","LI":"龍山里","LIN":"5鄰","STREET":"崇仁街","SECT":" ","MAREA":" ","LANE":"６６巷","ALLEY":" ","HOUSE_NO":"８號二樓","E_COORD97":170317.57999999999,"N_COORD97":2542726.29,"ADDRESS":"崇仁街６６巷８號二樓","OBJECTID":443125},"geometry":{"x":170317.58000000007,"y":2542726.2900000028}},{"attributes":{"ID":443151,"DIS_CODE":0,"TOWNNAME":"東區","LI":"龍山里","LIN":"5鄰","STREET":"崇仁街","SECT":" ","MAREA":" ","LANE":"６６巷","ALLEY":" ","HOUSE_NO":"８號三樓","E_COORD97":170317.57999999999,"N_COORD97":2542726.29,"ADDRESS":"崇仁街６６巷８號三樓","OBJECTID":443126},"geometry":{"x":170317.58000000007,"y":2542726.2900000028}},{"attributes":{"ID":443152,"DIS_CODE":0,"TOWNNAME":"東區","LI":"龍山里","LIN":"5鄰","STREET":"崇仁街","SECT":" ","MAREA":" ","LANE":"６６巷","ALLEY":" ","HOUSE_NO":"８號四樓","E_COORD97":170317.57999999999,"N_COORD97":2542726.29,"ADDRESS":"崇仁街６６巷８號四樓","OBJECTID":443127},"geometry":{"x":170317.58000000007,"y":2542726.2900000028}},{"attributes":{"ID":443153,"DIS_CODE":0,"TOWNNAME":"東區","LI":"龍山里","LIN":"5鄰","STREET":"崇仁街","SECT":" ","MAREA":" ","LANE":"６６巷","ALLEY":" ","HOUSE_NO":"８號五樓","E_COORD97":170317.57999999999,"N_COORD97":2542726.29,"ADDRESS":"崇仁街６６巷８號五樓","OBJECTID":443128},"geometry":{"x":170317.58000000007,"y":2542726.2900000028}},{"attributes":{"ID":443154,"DIS_CODE":0,"TOWNNAME":"東區","LI":"龍山里","LIN":"5鄰","STREET":"崇仁街","SECT":" ","MAREA":" ","LANE":"６６巷","ALLEY":" ","HOUSE_NO":"８號六樓","E_COORD97":170317.57999999999,"N_COORD97":2542726.29,"ADDRESS":"崇仁街６６巷８號六樓","OBJECTID":443129},"geometry":{"x":170317.58000000007,"y":2542726.2900000028}},{"attributes":{"ID":443155,"DIS_CODE":0,"TOWNNAME":"東區","LI":"龍山里","LIN":"5鄰","STREET":"崇仁街","SECT":" ","MAREA":" ","LANE":"６６巷","ALLEY":" ","HOUSE_NO":"８號七樓","E_COORD97":170317.57999999999,"N_COORD97":2542726.29,"ADDRESS":"崇仁街６６巷８號七樓","OBJECTID":443130},"geometry":{"x":170317.58000000007,"y":2542726.2900000028}},{"attributes":{"ID":443156,"DIS_CODE":0,"TOWNNAME":"東區","LI":"龍山里","LIN":"5鄰","STREET":"崇仁街","SECT":" ","MAREA":" ","LANE":"６６巷","ALLEY":" ","HOUSE_NO":"８號八樓","E_COORD97":170317.57999999999,"N_COORD97":2542726.29,"ADDRESS":"崇仁街６６巷８號八樓","OBJECTID":443131},"geometry":{"x":170317.58000000007,"y":2542726.2900000028}},{"attributes":{"ID":443157,"DIS_CODE":0,"TOWNNAME":"東區","LI":"龍山里","LIN":"5鄰","STREET":"崇仁街","SECT":" ","MAREA":" ","LANE":"６６巷","ALLEY":" ","HOUSE_NO":"８號九樓","E_COORD97":170317.57999999999,"N_COORD97":2542726.29,"ADDRESS":"崇仁街６６巷８號九樓","OBJECTID":443132},"geometry":{"x":170317.58000000007,"y":2542726.2900000028}},{"attributes":{"ID":443158,"DIS_CODE":0,"TOWNNAME":"東區","LI":"龍山里","LIN":"5鄰","STREET":"崇仁街","SECT":" ","MAREA":" ","LANE":"６６巷","ALLEY":" ","HOUSE_NO":"８號十樓","E_COORD97":170317.57999999999,"N_COORD97":2542726.29,"ADDRESS":"崇仁街６６巷８號十樓","OBJECTID":443133},"geometry":{"x":170317.58000000007,"y":2542726.2900000028}},{"attributes":{"ID":443159,"DIS_CODE":0,"TOWNNAME":"南區","LI":"彰南里","LIN":"5鄰","STREET":"中華西路","SECT":"一段","MAREA":" ","LANE":"５０巷","ALLEY":" ","HOUSE_NO":"１１號二樓","E_COORD97":166374.39999999999,"N_COORD97":2541169.8399999999,"ADDRESS":"中華西路一段５０巷１１號二樓","OBJECTID":443134},"geometry":{"x":166374.40000000037,"y":2541169.8399999999}},{"attributes":{"ID":443160,"DIS_CODE":0,"TOWNNAME":"南區","LI":"彰南里","LIN":"5鄰","STREET":"中華西路","SECT":"一段","MAREA":" ","LANE":"５０巷","ALLEY":" ","HOUSE_NO":"１１號三樓","E_COORD97":166374.39999999999,"N_COORD97":2541169.8399999999,"ADDRESS":"中華西路一段５０巷１１號三樓","OBJECTID":443135},"geometry":{"x":166374.40000000037,"y":2541169.8399999999}},{"attributes":{"ID":443161,"DIS_CODE":0,"TOWNNAME":"南區","LI":"彰南里","LIN":"5鄰","STREET":"中華西路","SECT":"一段","MAREA":" ","LANE":"５０巷","ALLEY":" ","HOUSE_NO":"１１號五樓","E_COORD97":166374.39999999999,"N_COORD97":2541169.8399999999,"ADDRESS":"中華西路一段５０巷１１號五樓","OBJECTID":443136},"geometry":{"x":166374.40000000037,"y":2541169.8399999999}},{"attributes":{"ID":443162,"DIS_CODE":0,"TOWNNAME":"南區","LI":"彰南里","LIN":"5鄰","STREET":"中華西路","SECT":"一段","MAREA":" ","LANE":"５０巷","ALLEY":" ","HOUSE_NO":"１１號四樓","E_COORD97":166374.39999999999,"N_COORD97":2541169.8399999999,"ADDRESS":"中華西路一段５０巷１１號四樓","OBJECTID":443137},"geometry":{"x":166374.40000000037,"y":2541169.8399999999}},{"attributes":{"ID":443163,"DIS_CODE":0,"TOWNNAME":"南區","LI":"彰南里","LIN":"5鄰","STREET":"中華西路","SECT":"一段","MAREA":" ","LANE":"５０巷","ALLEY":" ","HOUSE_NO":"１號二樓","E_COORD97":166330.29999999999,"N_COORD97":2541168.9500000002,"ADDRESS":"中華西路一段５０巷１號二樓","OBJECTID":443138},"geometry":{"x":166330.29999999981,"y":2541168.9499999974}},{"attributes":{"ID":443164,"DIS_CODE":0,"TOWNNAME":"南區","LI":"彰南里","LIN":"5鄰","STREET":"中華西路","SECT":"一段","MAREA":" ","LANE":"５０巷","ALLEY":" ","HOUSE_NO":"１號三樓","E_COORD97":166330.29999999999,"N_COORD97":2541168.9500000002,"ADDRESS":"中華西路一段５０巷１號三樓","OBJECTID":443139},"geometry":{"x":166330.29999999981,"y":2541168.9499999974}},{"attributes":{"ID":443165,"DIS_CODE":0,"TOWNNAME":"南區","LI":"彰南里","LIN":"5鄰","STREET":"中華西路","SECT":"一段","MAREA":" ","LANE":"５０巷","ALLEY":" ","HOUSE_NO":"１號五樓","E_COORD97":166330.29999999999,"N_COORD97":2541168.9500000002,"ADDRESS":"中華西路一段５０巷１號五樓","OBJECTID":443140},"geometry":{"x":166330.29999999981,"y":2541168.9499999974}},{"attributes":{"ID":443166,"DIS_CODE":0,"TOWNNAME":"安南區","LI":"布袋里","LIN":"1鄰","STREET":"工明一路","SECT":" ","MAREA":" ","LANE":" ","ALLEY":" ","HOUSE_NO":"１３號","E_COORD97":169013.13,"N_COORD97":2551107.3700000001,"ADDRESS":"工明一路１３號","OBJECTID":443141},"geometry":{"x":169013.13000000082,"y":2551107.370000001}},{"attributes":{"ID":443167,"DIS_CODE":0,"TOWNNAME":"南區","LI":"彰南里","LIN":"5鄰","STREET":"中華西路","SECT":"一段","MAREA":" ","LANE":"５０巷","ALLEY":" ","HOUSE_NO":"１號四樓","E_COORD97":166330.29999999999,"N_COORD97":2541168.9500000002,"ADDRESS":"中華西路一段５０巷１號四樓","OBJECTID":443142},"geometry":{"x":166330.29999999981,"y":2541168.9499999974}},{"attributes":{"ID":443168,"DIS_CODE":0,"TOWNNAME":"南區","LI":"彰南里","LIN":"5鄰","STREET":"中華西路","SECT":"一段","MAREA":" ","LANE":"５０巷","ALLEY":" ","HOUSE_NO":"３號二樓","E_COORD97":166338.54999999999,"N_COORD97":2541169.5699999998,"ADDRESS":"中華西路一段５０巷３號二樓","OBJECTID":443143},"geometry":{"x":166338.55000000075,"y":2541169.570000004}},{"attributes":{"ID":443169,"DIS_CODE":0,"TOWNNAME":"南區","LI":"彰南里","LIN":"5鄰","STREET":"中華西路","SECT":"一段","MAREA":" ","LANE":"５０巷","ALLEY":" ","HOUSE_NO":"３號三樓","E_COORD97":166338.54999999999,"N_COORD97":2541169.5699999998,"ADDRESS":"中華西路一段５０巷３號三樓","OBJECTID":443144},"geometry":{"x":166338.55000000075,"y":2541169.570000004}},{"attributes":{"ID":443170,"DIS_CODE":0,"TOWNNAME":"南區","LI":"彰南里","LIN":"5鄰","STREET":"中華西路","SECT":"一段","MAREA":" ","LANE":"５０巷","ALLEY":" ","HOUSE_NO":"３號五樓","E_COORD97":166338.54999999999,"N_COORD97":2541169.5699999998,"ADDRESS":"中華西路一段５０巷３號五樓","OBJECTID":443145},"geometry":{"x":166338.55000000075,"y":2541169.570000004}},{"attributes":{"ID":443171,"DIS_CODE":0,"TOWNNAME":"南區","LI":"彰南里","LIN":"5鄰","STREET":"中華西路","SECT":"一段","MAREA":" ","LANE":"５０巷","ALLEY":" ","HOUSE_NO":"３號四樓","E_COORD97":166338.54999999999,"N_COORD97":2541169.5699999998,"ADDRESS":"中華西路一段５０巷３號四樓","OBJECTID":443146},"geometry":{"x":166338.55000000075,"y":2541169.570000004}},{"attributes":{"ID":443172,"DIS_CODE":0,"TOWNNAME":"南區","LI":"彰南里","LIN":"5鄰","STREET":"中華西路","SECT":"一段","MAREA":" ","LANE":"５０巷","ALLEY":" ","HOUSE_NO":"５號二樓","E_COORD97":166348.85000000001,"N_COORD97":2541169.75,"ADDRESS":"中華西路一段５０巷５號二樓","OBJECTID":443147},"geometry":{"x":166348.84999999963,"y":2541169.75}},{"attributes":{"ID":443173,"DIS_CODE":0,"TOWNNAME":"南區","LI":"彰南里","LIN":"5鄰","STREET":"中華西路","SECT":"一段","MAREA":" ","LANE":"５０巷","ALLEY":" ","HOUSE_NO":"５號三樓","E_COORD97":166348.85000000001,"N_COORD97":2541169.75,"ADDRESS":"中華西路一段５０巷５號三樓","OBJECTID":443148},"geometry":{"x":166348.84999999963,"y":2541169.75}},{"attributes":{"ID":443174,"DIS_CODE":0,"TOWNNAME":"南區","LI":"彰南里","LIN":"5鄰","STREET":"中華西路","SECT":"一段","MAREA":" ","LANE":"５０巷","ALLEY":" ","HOUSE_NO":"５號五樓","E_COORD97":166348.85000000001,"N_COORD97":2541169.75,"ADDRESS":"中華西路一段５０巷５號五樓","OBJECTID":443149},"geometry":{"x":166348.84999999963,"y":2541169.75}},{"attributes":{"ID":443175,"DIS_CODE":0,"TOWNNAME":"南區","LI":"彰南里","LIN":"5鄰","STREET":"中華西路","SECT":"一段","MAREA":" ","LANE":"５０巷","ALLEY":" ","HOUSE_NO":"５號四樓","E_COORD97":166348.85000000001,"N_COORD97":2541169.75,"ADDRESS":"中華西路一段５０巷５號四樓","OBJECTID":443150},"geometry":{"x":166348.84999999963,"y":2541169.75}},{"attributes":{"ID":443176,"DIS_CODE":0,"TOWNNAME":"南區","LI":"彰南里","LIN":"5鄰","STREET":"中華西路","SECT":"一段","MAREA":" ","LANE":"５０巷","ALLEY":" ","HOUSE_NO":"７號二樓","E_COORD97":166356.29999999999,"N_COORD97":2541170.1899999999,"ADDRESS":"中華西路一段５０巷７號二樓","OBJECTID":443151},"geometry":{"x":166356.29999999981,"y":2541170.1899999995}},{"attributes":{"ID":443177,"DIS_CODE":0,"TOWNNAME":"南區","LI":"彰南里","LIN":"5鄰","STREET":"中華西路","SECT":"一段","MAREA":" ","LANE":"５０巷","ALLEY":" ","HOUSE_NO":"７號三樓","E_COORD97":166356.29999999999,"N_COORD97":2541170.1899999999,"ADDRESS":"中華西路一段５０巷７號三樓","OBJECTID":443152},"geometry":{"x":166356.29999999981,"y":2541170.1899999995}},{"attributes":{"ID":443178,"DIS_CODE":0,"TOWNNAME":"南區","LI":"彰南里","LIN":"5鄰","STREET":"中華西路","SECT":"一段","MAREA":" ","LANE":"５０巷","ALLEY":" ","HOUSE_NO":"７號五樓","E_COORD97":166356.29999999999,"N_COORD97":2541170.1899999999,"ADDRESS":"中華西路一段５０巷７號五樓","OBJECTID":443153},"geometry":{"x":166356.29999999981,"y":2541170.1899999995}},{"attributes":{"ID":443179,"DIS_CODE":0,"TOWNNAME":"南區","LI":"彰南里","LIN":"5鄰","STREET":"中華西路","SECT":"一段","MAREA":" ","LANE":"５０巷","ALLEY":" ","HOUSE_NO":"７號四樓","E_COORD97":166356.29999999999,"N_COORD97":2541170.1899999999,"ADDRESS":"中華西路一段５０巷７號四樓","OBJECTID":443154},"geometry":{"x":166356.29999999981,"y":2541170.1899999995}},{"attributes":{"ID":443180,"DIS_CODE":0,"TOWNNAME":"南區","LI":"彰南里","LIN":"5鄰","STREET":"中華西路","SECT":"一段","MAREA":" ","LANE":"５０巷","ALLEY":" ","HOUSE_NO":"９號二樓","E_COORD97":166366.85999999999,"N_COORD97":2541169.8399999999,"ADDRESS":"中華西路一段５０巷９號二樓","OBJECTID":443155},"geometry":{"x":166366.8600000022,"y":2541169.8399999999}},{"attributes":{"ID":443181,"DIS_CODE":0,"TOWNNAME":"南區","LI":"彰南里","LIN":"5鄰","STREET":"中華西路","SECT":"一段","MAREA":" ","LANE":"５０巷","ALLEY":" ","HOUSE_NO":"９號三樓","E_COORD97":166366.85999999999,"N_COORD97":2541169.8399999999,"ADDRESS":"中華西路一段５０巷９號三樓","OBJECTID":443156},"geometry":{"x":166366.8600000022,"y":2541169.8399999999}},{"attributes":{"ID":443182,"DIS_CODE":0,"TOWNNAME":"南區","LI":"彰南里","LIN":"5鄰","STREET":"中華西路","SECT":"一段","MAREA":" ","LANE":"５０巷","ALLEY":" ","HOUSE_NO":"９號五樓","E_COORD97":166366.85999999999,"N_COORD97":2541169.8399999999,"ADDRESS":"中華西路一段５０巷９號五樓","OBJECTID":443157},"geometry":{"x":166366.8600000022,"y":2541169.8399999999}},{"attributes":{"ID":443183,"DIS_CODE":0,"TOWNNAME":"南區","LI":"彰南里","LIN":"5鄰","STREET":"中華西路","SECT":"一段","MAREA":" ","LANE":"５０巷","ALLEY":" ","HOUSE_NO":"９號四樓","E_COORD97":166366.85999999999,"N_COORD97":2541169.8399999999,"ADDRESS":"中華西路一段５０巷９號四樓","OBJECTID":443158},"geometry":{"x":166366.8600000022,"y":2541169.8399999999}},{"attributes":{"ID":443184,"DIS_CODE":0,"TOWNNAME":"永康區","LI":"東橋里","LIN":"5鄰","STREET":"中山南路","SECT":" ","MAREA":" ","LANE":"１９５巷","ALLEY":" ","HOUSE_NO":"３２之７號三樓之３","E_COORD97":171459.95000000001,"N_COORD97":2546395.8999999999,"ADDRESS":"中山南路１９５巷３２之７號三樓之３","OBJECTID":443159},"geometry":{"x":171459.95000000019,"y":2546395.9000000022}},{"attributes":{"ID":443185,"DIS_CODE":0,"TOWNNAME":"永康區","LI":"東橋里","LIN":"5鄰","STREET":"中山南路","SECT":" ","MAREA":" ","LANE":"１９５巷","ALLEY":" ","HOUSE_NO":"３２之７號九樓之７","E_COORD97":171459.92999999999,"N_COORD97":2546395.8999999999,"ADDRESS":"中山南路１９５巷３２之７號九樓之７","OBJECTID":443160},"geometry":{"x":171459.93000000063,"y":2546395.9000000022}},{"attributes":{"ID":443186,"DIS_CODE":0,"TOWNNAME":"東區","LI":"崇善里","LIN":"5鄰","STREET":"崇善五街","SECT":" ","MAREA":" ","LANE":"７巷","ALLEY":" ","HOUSE_NO":"７號二樓","E_COORD97":171016.38,"N_COORD97":2541591.1699999999,"ADDRESS":"崇善五街７巷７號二樓","OBJECTID":443161},"geometry":{"x":171016.38000000082,"y":2541591.1699999999}},{"attributes":{"ID":443187,"DIS_CODE":0,"TOWNNAME":"東區","LI":"崇善里","LIN":"5鄰","STREET":"崇善五街","SECT":" ","MAREA":" ","LANE":"７巷","ALLEY":" ","HOUSE_NO":"１１號二樓","E_COORD97":171011.95000000001,"N_COORD97":2541601.3900000001,"ADDRESS":"崇善五街７巷１１號二樓","OBJECTID":443162},"geometry":{"x":171011.95000000019,"y":2541601.3900000043}},{"attributes":{"ID":443188,"DIS_CODE":0,"TOWNNAME":"東區","LI":"崇善里","LIN":"5鄰","STREET":"崇善五街","SECT":" ","MAREA":" ","LANE":"７巷","ALLEY":" ","HOUSE_NO":"１３號二樓","E_COORD97":171009.09,"N_COORD97":2541608.5299999998,"ADDRESS":"崇善五街７巷１３號二樓","OBJECTID":443163},"geometry":{"x":171009.08999999985,"y":2541608.5299999993}},{"attributes":{"ID":443189,"DIS_CODE":0,"TOWNNAME":"東區","LI":"崇善里","LIN":"5鄰","STREET":"崇善五街","SECT":" ","MAREA":" ","LANE":"７巷","ALLEY":" ","HOUSE_NO":"１５號二樓","E_COORD97":171005.95000000001,"N_COORD97":2541615.96,"ADDRESS":"崇善五街７巷１５號二樓","OBJECTID":443164},"geometry":{"x":171005.95000000205,"y":2541615.9600000028}},{"attributes":{"ID":443190,"DIS_CODE":0,"TOWNNAME":"東區","LI":"崇善里","LIN":"5鄰","STREET":"崇善五街","SECT":" ","MAREA":" ","LANE":"７巷","ALLEY":" ","HOUSE_NO":"１７號二樓","E_COORD97":171002.51999999999,"N_COORD97":2541622.8199999998,"ADDRESS":"崇善五街７巷１７號二樓","OBJECTID":443165},"geometry":{"x":171002.51999999955,"y":2541622.8200000022}},{"attributes":{"ID":443191,"DIS_CODE":0,"TOWNNAME":"東區","LI":"崇善里","LIN":"5鄰","STREET":"崇善五街","SECT":" ","MAREA":" ","LANE":"７巷","ALLEY":" ","HOUSE_NO":"１９號二樓","E_COORD97":170997.09,"N_COORD97":2541631.3900000001,"ADDRESS":"崇善五街７巷１９號二樓","OBJECTID":443166},"geometry":{"x":170997.08999999985,"y":2541631.3900000006}},{"attributes":{"ID":443192,"DIS_CODE":0,"TOWNNAME":"東區","LI":"崇善里","LIN":"5鄰","STREET":"崇善五街","SECT":" ","MAREA":" ","LANE":"７巷","ALLEY":" ","HOUSE_NO":"２１號二樓","E_COORD97":171004.79999999999,"N_COORD97":2541635.3900000001,"ADDRESS":"崇善五街７巷２１號二樓","OBJECTID":443167},"geometry":{"x":171004.80000000168,"y":2541635.3900000043}},{"attributes":{"ID":443193,"DIS_CODE":0,"TOWNNAME":"東區","LI":"崇善里","LIN":"5鄰","STREET":"崇善五街","SECT":" ","MAREA":" ","LANE":"７巷","ALLEY":" ","HOUSE_NO":"１號三樓","E_COORD97":171028.81,"N_COORD97":2541593.6699999999,"ADDRESS":"崇善五街７巷１號三樓","OBJECTID":443168},"geometry":{"x":171028.81000000052,"y":2541593.6700000018}},{"attributes":{"ID":443194,"DIS_CODE":0,"TOWNNAME":"東區","LI":"崇善里","LIN":"5鄰","STREET":"崇善五街","SECT":" ","MAREA":" ","LANE":"７巷","ALLEY":" ","HOUSE_NO":"３號四樓","E_COORD97":171031.38,"N_COORD97":2541587.96,"ADDRESS":"崇善五街７巷３號四樓","OBJECTID":443169},"geometry":{"x":171031.38000000175,"y":2541587.9600000046}},{"attributes":{"ID":443195,"DIS_CODE":0,"TOWNNAME":"東區","LI":"崇善里","LIN":"5鄰","STREET":"崇善五街","SECT":" ","MAREA":" ","LANE":"７巷","ALLEY":" ","HOUSE_NO":"５號二樓","E_COORD97":171018.51999999999,"N_COORD97":2541584.5299999998,"ADDRESS":"崇善五街７巷５號二樓","OBJECTID":443170},"geometry":{"x":171018.52000000048,"y":2541584.5299999993}},{"attributes":{"ID":443196,"DIS_CODE":0,"TOWNNAME":"東區","LI":"崇善里","LIN":"5鄰","STREET":"崇善五街","SECT":" ","MAREA":" ","LANE":"７巷","ALLEY":" ","HOUSE_NO":"１１號五樓","E_COORD97":171011.95000000001,"N_COORD97":2541601.3900000001,"ADDRESS":"崇善五街７巷１１號五樓","OBJECTID":443171},"geometry":{"x":171011.95000000019,"y":2541601.3900000043}},{"attributes":{"ID":443197,"DIS_CODE":0,"TOWNNAME":"東區","LI":"崇善里","LIN":"5鄰","STREET":"崇善五街","SECT":" ","MAREA":" ","LANE":"７巷","ALLEY":" ","HOUSE_NO":"１１號九樓","E_COORD97":171011.95000000001,"N_COORD97":2541601.3900000001,"ADDRESS":"崇善五街７巷１１號九樓","OBJECTID":443172},"geometry":{"x":171011.95000000019,"y":2541601.3900000043}},{"attributes":{"ID":443198,"DIS_CODE":0,"TOWNNAME":"東區","LI":"崇善里","LIN":"5鄰","STREET":"崇善五街","SECT":" ","MAREA":" ","LANE":"７巷","ALLEY":" ","HOUSE_NO":"１１號八樓","E_COORD97":171011.95000000001,"N_COORD97":2541601.3900000001,"ADDRESS":"崇善五街７巷１１號八樓","OBJECTID":443173},"geometry":{"x":171011.95000000019,"y":2541601.3900000043}},{"attributes":{"ID":443199,"DIS_CODE":0,"TOWNNAME":"東區","LI":"崇善里","LIN":"5鄰","STREET":"崇善五街","SECT":" ","MAREA":" ","LANE":"７巷","ALLEY":" ","HOUSE_NO":"１１號十一樓","E_COORD97":171011.95000000001,"N_COORD97":2541601.3900000001,"ADDRESS":"崇善五街７巷１１號十一樓","OBJECTID":443174},"geometry":{"x":171011.95000000019,"y":2541601.3900000043}},{"attributes":{"ID":443200,"DIS_CODE":0,"TOWNNAME":"東區","LI":"崇善里","LIN":"5鄰","STREET":"崇善五街","SECT":" ","MAREA":" ","LANE":"７巷","ALLEY":" ","HOUSE_NO":"１１號十二樓","E_COORD97":171011.95000000001,"N_COORD97":2541601.3900000001,"ADDRESS":"崇善五街７巷１１號十二樓","OBJECTID":443175},"geometry":{"x":171011.95000000019,"y":2541601.3900000043}},{"attributes":{"ID":443201,"DIS_CODE":0,"TOWNNAME":"東區","LI":"崇善里","LIN":"5鄰","STREET":"崇善五街","SECT":" ","MAREA":" ","LANE":"７巷","ALLEY":" ","HOUSE_NO":"１１號六樓","E_COORD97":171011.95000000001,"N_COORD97":2541601.3900000001,"ADDRESS":"崇善五街７巷１１號六樓","OBJECTID":443176},"geometry":{"x":171011.95000000019,"y":2541601.3900000043}},{"attributes":{"ID":443202,"DIS_CODE":0,"TOWNNAME":"東區","LI":"崇善里","LIN":"5鄰","STREET":"崇善五街","SECT":" ","MAREA":" ","LANE":"７巷","ALLEY":" ","HOUSE_NO":"１１號三樓","E_COORD97":171011.95000000001,"N_COORD97":2541601.3900000001,"ADDRESS":"崇善五街７巷１１號三樓","OBJECTID":443177},"geometry":{"x":171011.95000000019,"y":2541601.3900000043}},{"attributes":{"ID":443203,"DIS_CODE":0,"TOWNNAME":"東區","LI":"崇善里","LIN":"5鄰","STREET":"崇善五街","SECT":" ","MAREA":" ","LANE":"７巷","ALLEY":" ","HOUSE_NO":"１１號十三樓","E_COORD97":171011.95000000001,"N_COORD97":2541601.3900000001,"ADDRESS":"崇善五街７巷１１號十三樓","OBJECTID":443178},"geometry":{"x":171011.95000000019,"y":2541601.3900000043}},{"attributes":{"ID":443204,"DIS_CODE":0,"TOWNNAME":"東區","LI":"崇善里","LIN":"5鄰","STREET":"崇善五街","SECT":" ","MAREA":" ","LANE":"７巷","ALLEY":" ","HOUSE_NO":"１１號十樓","E_COORD97":171011.95000000001,"N_COORD97":2541601.3900000001,"ADDRESS":"崇善五街７巷１１號十樓","OBJECTID":443179},"geometry":{"x":171011.95000000019,"y":2541601.3900000043}},{"attributes":{"ID":443205,"DIS_CODE":0,"TOWNNAME":"東區","LI":"崇善里","LIN":"5鄰","STREET":"崇善五街","SECT":" ","MAREA":" ","LANE":"７巷","ALLEY":" ","HOUSE_NO":"１１號七樓","E_COORD97":171011.95000000001,"N_COORD97":2541601.3900000001,"ADDRESS":"崇善五街７巷１１號七樓","OBJECTID":443180},"geometry":{"x":171011.95000000019,"y":2541601.3900000043}},{"attributes":{"ID":443206,"DIS_CODE":0,"TOWNNAME":"東區","LI":"崇善里","LIN":"5鄰","STREET":"崇善五街","SECT":" ","MAREA":" ","LANE":"７巷","ALLEY":" ","HOUSE_NO":"１１號四樓","E_COORD97":171011.95000000001,"N_COORD97":2541601.3900000001,"ADDRESS":"崇善五街７巷１１號四樓","OBJECTID":443181},"geometry":{"x":171011.95000000019,"y":2541601.3900000043}},{"attributes":{"ID":443207,"DIS_CODE":0,"TOWNNAME":"東區","LI":"崇善里","LIN":"5鄰","STREET":"崇善五街","SECT":" ","MAREA":" ","LANE":"７巷","ALLEY":" ","HOUSE_NO":"１３號十一樓","E_COORD97":171009.09,"N_COORD97":2541608.5299999998,"ADDRESS":"崇善五街７巷１３號十一樓","OBJECTID":443182},"geometry":{"x":171009.08999999985,"y":2541608.5299999993}},{"attributes":{"ID":443208,"DIS_CODE":0,"TOWNNAME":"東區","LI":"崇善里","LIN":"5鄰","STREET":"崇善五街","SECT":" ","MAREA":" ","LANE":"７巷","ALLEY":" ","HOUSE_NO":"１３號十樓","E_COORD97":171009.09,"N_COORD97":2541608.5299999998,"ADDRESS":"崇善五街７巷１３號十樓","OBJECTID":443183},"geometry":{"x":171009.08999999985,"y":2541608.5299999993}},{"attributes":{"ID":443209,"DIS_CODE":0,"TOWNNAME":"東區","LI":"崇善里","LIN":"5鄰","STREET":"崇善五街","SECT":" ","MAREA":" ","LANE":"７巷","ALLEY":" ","HOUSE_NO":"１３號十二樓","E_COORD97":171009.09,"N_COORD97":2541608.5299999998,"ADDRESS":"崇善五街７巷１３號十二樓","OBJECTID":443184},"geometry":{"x":171009.08999999985,"y":2541608.5299999993}},{"attributes":{"ID":443210,"DIS_CODE":0,"TOWNNAME":"東區","LI":"崇善里","LIN":"5鄰","STREET":"崇善五街","SECT":" ","MAREA":" ","LANE":"７巷","ALLEY":" ","HOUSE_NO":"１３號七樓","E_COORD97":171009.09,"N_COORD97":2541608.5299999998,"ADDRESS":"崇善五街７巷１３號七樓","OBJECTID":443185},"geometry":{"x":171009.08999999985,"y":2541608.5299999993}},{"attributes":{"ID":443211,"DIS_CODE":0,"TOWNNAME":"東區","LI":"崇善里","LIN":"5鄰","STREET":"崇善五街","SECT":" ","MAREA":" ","LANE":"７巷","ALLEY":" ","HOUSE_NO":"１３號十三樓","E_COORD97":171009.09,"N_COORD97":2541608.5299999998,"ADDRESS":"崇善五街７巷１３號十三樓","OBJECTID":443186},"geometry":{"x":171009.08999999985,"y":2541608.5299999993}},{"attributes":{"ID":443212,"DIS_CODE":0,"TOWNNAME":"東區","LI":"崇善里","LIN":"5鄰","STREET":"崇善五街","SECT":" ","MAREA":" ","LANE":"７巷","ALLEY":" ","HOUSE_NO":"１３號四樓","E_COORD97":171009.09,"N_COORD97":2541608.5299999998,"ADDRESS":"崇善五街７巷１３號四樓","OBJECTID":443187},"geometry":{"x":171009.08999999985,"y":2541608.5299999993}},{"attributes":{"ID":443213,"DIS_CODE":0,"TOWNNAME":"東區","LI":"崇善里","LIN":"5鄰","STREET":"崇善五街","SECT":" ","MAREA":" ","LANE":"７巷","ALLEY":" ","HOUSE_NO":"１３號六樓","E_COORD97":171009.09,"N_COORD97":2541608.5299999998,"ADDRESS":"崇善五街７巷１３號六樓","OBJECTID":443188},"geometry":{"x":171009.08999999985,"y":2541608.5299999993}},{"attributes":{"ID":443214,"DIS_CODE":0,"TOWNNAME":"東區","LI":"崇善里","LIN":"5鄰","STREET":"崇善五街","SECT":" ","MAREA":" ","LANE":"７巷","ALLEY":" ","HOUSE_NO":"１３號九樓","E_COORD97":171009.09,"N_COORD97":2541608.5299999998,"ADDRESS":"崇善五街７巷１３號九樓","OBJECTID":443189},"geometry":{"x":171009.08999999985,"y":2541608.5299999993}},{"attributes":{"ID":443215,"DIS_CODE":0,"TOWNNAME":"東區","LI":"崇善里","LIN":"5鄰","STREET":"崇善五街","SECT":" ","MAREA":" ","LANE":"７巷","ALLEY":" ","HOUSE_NO":"１３號三樓","E_COORD97":171009.09,"N_COORD97":2541608.5299999998,"ADDRESS":"崇善五街７巷１３號三樓","OBJECTID":443190},"geometry":{"x":171009.08999999985,"y":2541608.5299999993}},{"attributes":{"ID":443216,"DIS_CODE":0,"TOWNNAME":"東區","LI":"崇善里","LIN":"5鄰","STREET":"崇善五街","SECT":" ","MAREA":" ","LANE":"７巷","ALLEY":" ","HOUSE_NO":"１３號五樓","E_COORD97":171009.09,"N_COORD97":2541608.5299999998,"ADDRESS":"崇善五街７巷１３號五樓","OBJECTID":443191},"geometry":{"x":171009.08999999985,"y":2541608.5299999993}},{"attributes":{"ID":443217,"DIS_CODE":0,"TOWNNAME":"東區","LI":"崇善里","LIN":"5鄰","STREET":"崇善五街","SECT":" ","MAREA":" ","LANE":"７巷","ALLEY":" ","HOUSE_NO":"１５號十一樓","E_COORD97":171005.95000000001,"N_COORD97":2541615.96,"ADDRESS":"崇善五街７巷１５號十一樓","OBJECTID":443192},"geometry":{"x":171005.95000000205,"y":2541615.9600000028}},{"attributes":{"ID":443218,"DIS_CODE":0,"TOWNNAME":"東區","LI":"崇善里","LIN":"5鄰","STREET":"崇善五街","SECT":" ","MAREA":" ","LANE":"７巷","ALLEY":" ","HOUSE_NO":"１５號八樓","E_COORD97":171005.95000000001,"N_COORD97":2541615.96,"ADDRESS":"崇善五街７巷１５號八樓","OBJECTID":443193},"geometry":{"x":171005.95000000205,"y":2541615.9600000028}},{"attributes":{"ID":443219,"DIS_CODE":0,"TOWNNAME":"東區","LI":"崇善里","LIN":"5鄰","STREET":"崇善五街","SECT":" ","MAREA":" ","LANE":"７巷","ALLEY":" ","HOUSE_NO":"１５號十三樓","E_COORD97":171005.95000000001,"N_COORD97":2541615.96,"ADDRESS":"崇善五街７巷１５號十三樓","OBJECTID":443194},"geometry":{"x":171005.95000000205,"y":2541615.9600000028}},{"attributes":{"ID":443220,"DIS_CODE":0,"TOWNNAME":"東區","LI":"崇善里","LIN":"5鄰","STREET":"崇善五街","SECT":" ","MAREA":" ","LANE":"７巷","ALLEY":" ","HOUSE_NO":"１５號四樓","E_COORD97":171005.95000000001,"N_COORD97":2541615.96,"ADDRESS":"崇善五街７巷１５號四樓","OBJECTID":443195},"geometry":{"x":171005.95000000205,"y":2541615.9600000028}},{"attributes":{"ID":443221,"DIS_CODE":0,"TOWNNAME":"東區","LI":"崇善里","LIN":"5鄰","STREET":"崇善五街","SECT":" ","MAREA":" ","LANE":"７巷","ALLEY":" ","HOUSE_NO":"１５號六樓","E_COORD97":171005.95000000001,"N_COORD97":2541615.96,"ADDRESS":"崇善五街７巷１５號六樓","OBJECTID":443196},"geometry":{"x":171005.95000000205,"y":2541615.9600000028}},{"attributes":{"ID":443222,"DIS_CODE":0,"TOWNNAME":"東區","LI":"崇善里","LIN":"5鄰","STREET":"崇善五街","SECT":" ","MAREA":" ","LANE":"７巷","ALLEY":" ","HOUSE_NO":"１５號十樓","E_COORD97":171005.95000000001,"N_COORD97":2541615.96,"ADDRESS":"崇善五街７巷１５號十樓","OBJECTID":443197},"geometry":{"x":171005.95000000205,"y":2541615.9600000028}},{"attributes":{"ID":443223,"DIS_CODE":0,"TOWNNAME":"東區","LI":"崇善里","LIN":"5鄰","STREET":"崇善五街","SECT":" ","MAREA":" ","LANE":"７巷","ALLEY":" ","HOUSE_NO":"１５號三樓","E_COORD97":171005.95000000001,"N_COORD97":2541615.96,"ADDRESS":"崇善五街７巷１５號三樓","OBJECTID":443198},"geometry":{"x":171005.95000000205,"y":2541615.9600000028}},{"attributes":{"ID":443224,"DIS_CODE":0,"TOWNNAME":"東區","LI":"崇善里","LIN":"5鄰","STREET":"崇善五街","SECT":" ","MAREA":" ","LANE":"７巷","ALLEY":" ","HOUSE_NO":"１５號七樓","E_COORD97":171005.95000000001,"N_COORD97":2541615.96,"ADDRESS":"崇善五街７巷１５號七樓","OBJECTID":443199},"geometry":{"x":171005.95000000205,"y":2541615.9600000028}},{"attributes":{"ID":443225,"DIS_CODE":0,"TOWNNAME":"東區","LI":"崇善里","LIN":"5鄰","STREET":"崇善五街","SECT":" ","MAREA":" ","LANE":"７巷","ALLEY":" ","HOUSE_NO":"１５號九樓","E_COORD97":171005.95000000001,"N_COORD97":2541615.96,"ADDRESS":"崇善五街７巷１５號九樓","OBJECTID":443200},"geometry":{"x":171005.95000000205,"y":2541615.9600000028}}]}