{"displayFieldName":"TOWNNAME","fieldAliases":{"ID":"ID","DIS_CODE":"DIS_CODE","TOWNNAME":"TOWNNAME","LI":"LI","LIN":"LIN","STREET":"STREET","SECT":"SECT","MAREA":"MAREA","LANE":"LANE","ALLEY":"ALLEY","HOUSE_NO":"HOUSE_NO","E_COORD97":"E_COORD97","N_COORD97":"N_COORD97","ADDRESS":"ADDRESS","OBJECTID":"OBJECTID"},"geometryType":"esriGeometryPoint","spatialReference":{"wkid":102443,"latestWkid":3826},"fields":[{"name":"ID","type":"esriFieldTypeDouble","alias":"ID"},{"name":"DIS_CODE","type":"esriFieldTypeInteger","alias":"DIS_CODE"},{"name":"TOWNNAME","type":"esriFieldTypeString","alias":"TOWNNAME","length":8},{"name":"LI","type":"esriFieldTypeString","alias":"LI","length":8},{"name":"LIN","type":"esriFieldTypeString","alias":"LIN","length":12},{"name":"STREET","type":"esriFieldTypeString","alias":"STREET","length":20},{"name":"SECT","type":"esriFieldTypeString","alias":"SECT","length":8},{"name":"MAREA","type":"esriFieldTypeString","alias":"MAREA","length":12},{"name":"LANE","type":"esriFieldTypeString","alias":"LANE","length":10},{"name":"ALLEY","type":"esriFieldTypeString","alias":"ALLEY","length":10},{"name":"HOUSE_NO","type":"esriFieldTypeString","alias":"HOUSE_NO","length":20},{"name":"E_COORD97","type":"esriFieldTypeDouble","alias":"E_COORD97"},{"name":"N_COORD97","type":"esriFieldTypeDouble","alias":"N_COORD97"},{"name":"ADDRESS","type":"esriFieldTypeString","alias":"ADDRESS","length":50},{"name":"OBJECTID","type":"esriFieldTypeOID","alias":"OBJECTID"}],"features":[{"attributes":{"ID":596228,"DIS_CODE":0,"TOWNNAME":"新營區","LI":"大宏里","LIN":"27鄰","STREET":"開元路","SECT":" ","MAREA":" ","LANE":" ","ALLEY":" ","HOUSE_NO":"６１之１７號九樓之１","E_COORD97":180903.37,"N_COORD97":2578823.27,"ADDRESS":"開元路６１之１７號九樓之１","OBJECTID":596201},"geometry":{"x":180903.37000000104,"y":2578823.2699999996}},{"attributes":{"ID":596229,"DIS_CODE":0,"TOWNNAME":"新營區","LI":"民生里","LIN":"27鄰","STREET":"進修街","SECT":" ","MAREA":" ","LANE":" ","ALLEY":" ","HOUSE_NO":"４９號五樓之７","E_COORD97":178965.29999999999,"N_COORD97":2578550.0299999998,"ADDRESS":"進修街４９號五樓之７","OBJECTID":596202},"geometry":{"x":178965.30000000168,"y":2578550.0299999993}},{"attributes":{"ID":596230,"DIS_CODE":0,"TOWNNAME":"新營區","LI":"三仙里","LIN":"27鄰","STREET":"健康路","SECT":" ","MAREA":" ","LANE":" ","ALLEY":" ","HOUSE_NO":"９５號十二樓","E_COORD97":179644.25,"N_COORD97":2579158.0600000001,"ADDRESS":"健康路９５號十二樓","OBJECTID":596203},"geometry":{"x":179644.25000000093,"y":2579158.0600000005}},{"attributes":{"ID":596231,"DIS_CODE":0,"TOWNNAME":"新營區","LI":"新東里","LIN":"27鄰","STREET":"東興路","SECT":" ","MAREA":" ","LANE":" ","ALLEY":" ","HOUSE_NO":"２０５號四樓","E_COORD97":180748.70999999999,"N_COORD97":2579537.1299999999,"ADDRESS":"東興路２０５號四樓","OBJECTID":596204},"geometry":{"x":180748.70999999996,"y":2579537.1300000008}},{"attributes":{"ID":596232,"DIS_CODE":0,"TOWNNAME":"歸仁區","LI":"辜厝里","LIN":"27鄰","STREET":"大順三街","SECT":" ","MAREA":" ","LANE":" ","ALLEY":" ","HOUSE_NO":"１５號五樓之２","E_COORD97":177377.48000000001,"N_COORD97":2540558.1600000001,"ADDRESS":"大順三街１５號五樓之２","OBJECTID":596205},"geometry":{"x":177377.48000000045,"y":2540558.1599999983}},{"attributes":{"ID":596233,"DIS_CODE":0,"TOWNNAME":"北區","LI":"正覺里","LIN":"27鄰","STREET":"公園路","SECT":" ","MAREA":" ","LANE":" ","ALLEY":" ","HOUSE_NO":"７５５號三樓之７","E_COORD97":169583.66,"N_COORD97":2546497.3199999998,"ADDRESS":"公園路７５５號三樓之７","OBJECTID":596206},"geometry":{"x":169583.65999999922,"y":2546497.320000004}},{"attributes":{"ID":596234,"DIS_CODE":0,"TOWNNAME":"北區","LI":"正覺里","LIN":"27鄰","STREET":"公園路","SECT":" ","MAREA":" ","LANE":" ","ALLEY":" ","HOUSE_NO":"７５５號三樓之８","E_COORD97":169583.66,"N_COORD97":2546497.3199999998,"ADDRESS":"公園路７５５號三樓之８","OBJECTID":596207},"geometry":{"x":169583.65999999922,"y":2546497.320000004}},{"attributes":{"ID":596235,"DIS_CODE":0,"TOWNNAME":"北區","LI":"正覺里","LIN":"27鄰","STREET":"公園路","SECT":" ","MAREA":" ","LANE":" ","ALLEY":" ","HOUSE_NO":"７５５號五樓之１","E_COORD97":169583.66,"N_COORD97":2546497.3199999998,"ADDRESS":"公園路７５５號五樓之１","OBJECTID":596208},"geometry":{"x":169583.65999999922,"y":2546497.320000004}},{"attributes":{"ID":596236,"DIS_CODE":0,"TOWNNAME":"北區","LI":"正覺里","LIN":"27鄰","STREET":"公園路","SECT":" ","MAREA":" ","LANE":" ","ALLEY":" ","HOUSE_NO":"７５５號五樓之２","E_COORD97":169583.66,"N_COORD97":2546497.3199999998,"ADDRESS":"公園路７５５號五樓之２","OBJECTID":596209},"geometry":{"x":169583.65999999922,"y":2546497.320000004}},{"attributes":{"ID":596237,"DIS_CODE":0,"TOWNNAME":"北區","LI":"正覺里","LIN":"27鄰","STREET":"公園路","SECT":" ","MAREA":" ","LANE":" ","ALLEY":" ","HOUSE_NO":"７５５號五樓之３","E_COORD97":169583.66,"N_COORD97":2546497.3199999998,"ADDRESS":"公園路７５５號五樓之３","OBJECTID":596210},"geometry":{"x":169583.65999999922,"y":2546497.320000004}},{"attributes":{"ID":596238,"DIS_CODE":0,"TOWNNAME":"北區","LI":"正覺里","LIN":"27鄰","STREET":"公園路","SECT":" ","MAREA":" ","LANE":" ","ALLEY":" ","HOUSE_NO":"７５５號五樓之４","E_COORD97":169583.66,"N_COORD97":2546497.3199999998,"ADDRESS":"公園路７５５號五樓之４","OBJECTID":596211},"geometry":{"x":169583.65999999922,"y":2546497.320000004}},{"attributes":{"ID":596239,"DIS_CODE":0,"TOWNNAME":"北區","LI":"正覺里","LIN":"27鄰","STREET":"公園路","SECT":" ","MAREA":" ","LANE":" ","ALLEY":" ","HOUSE_NO":"７５５號五樓之５","E_COORD97":169583.66,"N_COORD97":2546497.3199999998,"ADDRESS":"公園路７５５號五樓之５","OBJECTID":596212},"geometry":{"x":169583.65999999922,"y":2546497.320000004}},{"attributes":{"ID":596240,"DIS_CODE":0,"TOWNNAME":"北區","LI":"正覺里","LIN":"27鄰","STREET":"公園路","SECT":" ","MAREA":" ","LANE":" ","ALLEY":" ","HOUSE_NO":"７５５號五樓之６","E_COORD97":169583.66,"N_COORD97":2546497.3199999998,"ADDRESS":"公園路７５５號五樓之６","OBJECTID":596213},"geometry":{"x":169583.65999999922,"y":2546497.320000004}},{"attributes":{"ID":596241,"DIS_CODE":0,"TOWNNAME":"北區","LI":"正覺里","LIN":"27鄰","STREET":"公園路","SECT":" ","MAREA":" ","LANE":" ","ALLEY":" ","HOUSE_NO":"７５５號五樓之７","E_COORD97":169583.66,"N_COORD97":2546497.3199999998,"ADDRESS":"公園路７５５號五樓之７","OBJECTID":596214},"geometry":{"x":169583.65999999922,"y":2546497.320000004}},{"attributes":{"ID":596242,"DIS_CODE":0,"TOWNNAME":"北區","LI":"正覺里","LIN":"27鄰","STREET":"公園路","SECT":" ","MAREA":" ","LANE":" ","ALLEY":" ","HOUSE_NO":"７５５號四樓之１","E_COORD97":169583.66,"N_COORD97":2546497.3199999998,"ADDRESS":"公園路７５５號四樓之１","OBJECTID":596215},"geometry":{"x":169583.65999999922,"y":2546497.320000004}},{"attributes":{"ID":596243,"DIS_CODE":0,"TOWNNAME":"北區","LI":"正覺里","LIN":"27鄰","STREET":"公園路","SECT":" ","MAREA":" ","LANE":" ","ALLEY":" ","HOUSE_NO":"７５５號四樓之２","E_COORD97":169583.66,"N_COORD97":2546497.3199999998,"ADDRESS":"公園路７５５號四樓之２","OBJECTID":596216},"geometry":{"x":169583.65999999922,"y":2546497.320000004}},{"attributes":{"ID":596244,"DIS_CODE":0,"TOWNNAME":"北區","LI":"正覺里","LIN":"27鄰","STREET":"公園路","SECT":" ","MAREA":" ","LANE":" ","ALLEY":" ","HOUSE_NO":"７５５號四樓之３","E_COORD97":169583.66,"N_COORD97":2546497.3199999998,"ADDRESS":"公園路７５５號四樓之３","OBJECTID":596217},"geometry":{"x":169583.65999999922,"y":2546497.320000004}},{"attributes":{"ID":596245,"DIS_CODE":0,"TOWNNAME":"北區","LI":"正覺里","LIN":"27鄰","STREET":"公園路","SECT":" ","MAREA":" ","LANE":" ","ALLEY":" ","HOUSE_NO":"７５５號四樓之４","E_COORD97":169583.66,"N_COORD97":2546497.3199999998,"ADDRESS":"公園路７５５號四樓之４","OBJECTID":596218},"geometry":{"x":169583.65999999922,"y":2546497.320000004}},{"attributes":{"ID":596246,"DIS_CODE":0,"TOWNNAME":"北區","LI":"正覺里","LIN":"27鄰","STREET":"公園路","SECT":" ","MAREA":" ","LANE":" ","ALLEY":" ","HOUSE_NO":"７５５號四樓之５","E_COORD97":169583.66,"N_COORD97":2546497.3199999998,"ADDRESS":"公園路７５５號四樓之５","OBJECTID":596219},"geometry":{"x":169583.65999999922,"y":2546497.320000004}},{"attributes":{"ID":596247,"DIS_CODE":0,"TOWNNAME":"北區","LI":"正覺里","LIN":"27鄰","STREET":"公園路","SECT":" ","MAREA":" ","LANE":" ","ALLEY":" ","HOUSE_NO":"７５５號四樓之６","E_COORD97":169583.66,"N_COORD97":2546497.3199999998,"ADDRESS":"公園路７５５號四樓之６","OBJECTID":596220},"geometry":{"x":169583.65999999922,"y":2546497.320000004}},{"attributes":{"ID":596248,"DIS_CODE":0,"TOWNNAME":"東區","LI":"崇信里","LIN":"27鄰","STREET":"崇學路","SECT":" ","MAREA":" ","LANE":" ","ALLEY":" ","HOUSE_NO":"１００號","E_COORD97":170434.63,"N_COORD97":2542318.6899999999,"ADDRESS":"崇學路１００號","OBJECTID":596221},"geometry":{"x":170434.63000000175,"y":2542318.6900000013}},{"attributes":{"ID":596249,"DIS_CODE":0,"TOWNNAME":"新營區","LI":"新東里","LIN":"27鄰","STREET":"東興路","SECT":" ","MAREA":" ","LANE":" ","ALLEY":" ","HOUSE_NO":"２０５號十三樓","E_COORD97":180749.95999999999,"N_COORD97":2579537.1299999999,"ADDRESS":"東興路２０５號十三樓","OBJECTID":596222},"geometry":{"x":180749.96000000089,"y":2579537.1300000008}},{"attributes":{"ID":596250,"DIS_CODE":0,"TOWNNAME":"新營區","LI":"新東里","LIN":"27鄰","STREET":"東興路","SECT":" ","MAREA":" ","LANE":" ","ALLEY":" ","HOUSE_NO":"２０９號十四樓","E_COORD97":180749.95999999999,"N_COORD97":2579537.1299999999,"ADDRESS":"東興路２０９號十四樓","OBJECTID":596223},"geometry":{"x":180749.96000000089,"y":2579537.1300000008}},{"attributes":{"ID":596251,"DIS_CODE":0,"TOWNNAME":"新營區","LI":"新東里","LIN":"27鄰","STREET":"東興路","SECT":" ","MAREA":" ","LANE":" ","ALLEY":" ","HOUSE_NO":"２０７號二樓","E_COORD97":180748.70999999999,"N_COORD97":2579537.1299999999,"ADDRESS":"東興路２０７號二樓","OBJECTID":596224},"geometry":{"x":180748.70999999996,"y":2579537.1300000008}},{"attributes":{"ID":596252,"DIS_CODE":0,"TOWNNAME":"新營區","LI":"大宏里","LIN":"27鄰","STREET":"開元路","SECT":" ","MAREA":" ","LANE":" ","ALLEY":" ","HOUSE_NO":"６１之１８號三樓","E_COORD97":180901.23999999999,"N_COORD97":2578823.27,"ADDRESS":"開元路６１之１８號三樓","OBJECTID":596225},"geometry":{"x":180901.24000000115,"y":2578823.2699999996}},{"attributes":{"ID":596253,"DIS_CODE":0,"TOWNNAME":"新營區","LI":"新東里","LIN":"27鄰","STREET":"東興路","SECT":" ","MAREA":" ","LANE":" ","ALLEY":" ","HOUSE_NO":"２０９號十一樓","E_COORD97":180749.95999999999,"N_COORD97":2579537.1299999999,"ADDRESS":"東興路２０９號十一樓","OBJECTID":596226},"geometry":{"x":180749.96000000089,"y":2579537.1300000008}},{"attributes":{"ID":596254,"DIS_CODE":0,"TOWNNAME":"新營區","LI":"大宏里","LIN":"27鄰","STREET":"開元路","SECT":" ","MAREA":" ","LANE":" ","ALLEY":" ","HOUSE_NO":"６１之１９號十二樓","E_COORD97":180902.48999999999,"N_COORD97":2578823.27,"ADDRESS":"開元路６１之１９號十二樓","OBJECTID":596227},"geometry":{"x":180902.49000000115,"y":2578823.2699999996}},{"attributes":{"ID":596255,"DIS_CODE":0,"TOWNNAME":"新營區","LI":"新東里","LIN":"27鄰","STREET":"東興路","SECT":" ","MAREA":" ","LANE":" ","ALLEY":" ","HOUSE_NO":"２０５號七樓","E_COORD97":180748.70999999999,"N_COORD97":2579537.1299999999,"ADDRESS":"東興路２０５號七樓","OBJECTID":596228},"geometry":{"x":180748.70999999996,"y":2579537.1300000008}},{"attributes":{"ID":596256,"DIS_CODE":0,"TOWNNAME":"新營區","LI":"新東里","LIN":"27鄰","STREET":"東興路","SECT":" ","MAREA":" ","LANE":" ","ALLEY":" ","HOUSE_NO":"２０９號九樓","E_COORD97":180748.70999999999,"N_COORD97":2579537.1299999999,"ADDRESS":"東興路２０９號九樓","OBJECTID":596229},"geometry":{"x":180748.70999999996,"y":2579537.1300000008}},{"attributes":{"ID":596257,"DIS_CODE":0,"TOWNNAME":"新營區","LI":"新東里","LIN":"27鄰","STREET":"東興路","SECT":" ","MAREA":" ","LANE":" ","ALLEY":" ","HOUSE_NO":"２０９號七樓","E_COORD97":180748.70999999999,"N_COORD97":2579537.1299999999,"ADDRESS":"東興路２０９號七樓","OBJECTID":596230},"geometry":{"x":180748.70999999996,"y":2579537.1300000008}},{"attributes":{"ID":596258,"DIS_CODE":0,"TOWNNAME":"新營區","LI":"大宏里","LIN":"27鄰","STREET":"開元路","SECT":" ","MAREA":" ","LANE":" ","ALLEY":" ","HOUSE_NO":"６１之１７號八樓之１","E_COORD97":180903.37,"N_COORD97":2578823.27,"ADDRESS":"開元路６１之１７號八樓之１","OBJECTID":596231},"geometry":{"x":180903.37000000104,"y":2578823.2699999996}},{"attributes":{"ID":596259,"DIS_CODE":0,"TOWNNAME":"新營區","LI":"新東里","LIN":"27鄰","STREET":"東興路","SECT":" ","MAREA":" ","LANE":" ","ALLEY":" ","HOUSE_NO":"２０７號九樓","E_COORD97":180748.70999999999,"N_COORD97":2579537.1299999999,"ADDRESS":"東興路２０７號九樓","OBJECTID":596232},"geometry":{"x":180748.70999999996,"y":2579537.1300000008}},{"attributes":{"ID":596260,"DIS_CODE":0,"TOWNNAME":"新營區","LI":"新東里","LIN":"27鄰","STREET":"東興路","SECT":" ","MAREA":" ","LANE":" ","ALLEY":" ","HOUSE_NO":"２０７號十三樓","E_COORD97":180749.95999999999,"N_COORD97":2579537.1299999999,"ADDRESS":"東興路２０７號十三樓","OBJECTID":596233},"geometry":{"x":180749.96000000089,"y":2579537.1300000008}},{"attributes":{"ID":596261,"DIS_CODE":0,"TOWNNAME":"新營區","LI":"三仙里","LIN":"27鄰","STREET":"健康路","SECT":" ","MAREA":" ","LANE":" ","ALLEY":" ","HOUSE_NO":"９９號九樓","E_COORD97":179643,"N_COORD97":2579158.0600000001,"ADDRESS":"健康路９９號九樓","OBJECTID":596234},"geometry":{"x":179643.00000000093,"y":2579158.0600000005}},{"attributes":{"ID":596262,"DIS_CODE":0,"TOWNNAME":"新營區","LI":"新東里","LIN":"27鄰","STREET":"東興路","SECT":" ","MAREA":" ","LANE":" ","ALLEY":" ","HOUSE_NO":"２０９號四樓","E_COORD97":180748.70999999999,"N_COORD97":2579537.1299999999,"ADDRESS":"東興路２０９號四樓","OBJECTID":596235},"geometry":{"x":180748.70999999996,"y":2579537.1300000008}},{"attributes":{"ID":596263,"DIS_CODE":0,"TOWNNAME":"新營區","LI":"新東里","LIN":"27鄰","STREET":"東興路","SECT":" ","MAREA":" ","LANE":" ","ALLEY":" ","HOUSE_NO":"２０７號三樓","E_COORD97":180748.70999999999,"N_COORD97":2579537.1299999999,"ADDRESS":"東興路２０７號三樓","OBJECTID":596236},"geometry":{"x":180748.70999999996,"y":2579537.1300000008}},{"attributes":{"ID":596264,"DIS_CODE":0,"TOWNNAME":"新營區","LI":"新東里","LIN":"27鄰","STREET":"東興路","SECT":" ","MAREA":" ","LANE":" ","ALLEY":" ","HOUSE_NO":"２０５號三樓","E_COORD97":180748.70999999999,"N_COORD97":2579537.1299999999,"ADDRESS":"東興路２０５號三樓","OBJECTID":596237},"geometry":{"x":180748.70999999996,"y":2579537.1300000008}},{"attributes":{"ID":596265,"DIS_CODE":0,"TOWNNAME":"新營區","LI":"新東里","LIN":"27鄰","STREET":"東興路","SECT":" ","MAREA":" ","LANE":" ","ALLEY":" ","HOUSE_NO":"２０５號二樓","E_COORD97":180748.70999999999,"N_COORD97":2579537.1299999999,"ADDRESS":"東興路２０５號二樓","OBJECTID":596238},"geometry":{"x":180748.70999999996,"y":2579537.1300000008}},{"attributes":{"ID":596266,"DIS_CODE":0,"TOWNNAME":"新營區","LI":"新東里","LIN":"27鄰","STREET":"東興路","SECT":" ","MAREA":" ","LANE":" ","ALLEY":" ","HOUSE_NO":"２０５號十一樓","E_COORD97":180749.95999999999,"N_COORD97":2579537.1299999999,"ADDRESS":"東興路２０５號十一樓","OBJECTID":596239},"geometry":{"x":180749.96000000089,"y":2579537.1300000008}},{"attributes":{"ID":596267,"DIS_CODE":0,"TOWNNAME":"新營區","LI":"新東里","LIN":"27鄰","STREET":"東興路","SECT":" ","MAREA":" ","LANE":" ","ALLEY":" ","HOUSE_NO":"２０７號七樓","E_COORD97":180748.70999999999,"N_COORD97":2579537.1299999999,"ADDRESS":"東興路２０７號七樓","OBJECTID":596240},"geometry":{"x":180748.70999999996,"y":2579537.1300000008}},{"attributes":{"ID":596268,"DIS_CODE":0,"TOWNNAME":"新營區","LI":"新東里","LIN":"27鄰","STREET":"東興路","SECT":" ","MAREA":" ","LANE":" ","ALLEY":" ","HOUSE_NO":"２０７號十樓","E_COORD97":180748.70999999999,"N_COORD97":2579537.1299999999,"ADDRESS":"東興路２０７號十樓","OBJECTID":596241},"geometry":{"x":180748.70999999996,"y":2579537.1300000008}},{"attributes":{"ID":596269,"DIS_CODE":0,"TOWNNAME":"新營區","LI":"新東里","LIN":"27鄰","STREET":"東興路","SECT":" ","MAREA":" ","LANE":" ","ALLEY":" ","HOUSE_NO":"２０５號九樓","E_COORD97":180748.70999999999,"N_COORD97":2579537.1299999999,"ADDRESS":"東興路２０５號九樓","OBJECTID":596242},"geometry":{"x":180748.70999999996,"y":2579537.1300000008}},{"attributes":{"ID":596270,"DIS_CODE":0,"TOWNNAME":"新營區","LI":"新東里","LIN":"27鄰","STREET":"東興路","SECT":" ","MAREA":" ","LANE":" ","ALLEY":" ","HOUSE_NO":"２０５號十樓","E_COORD97":180748.70999999999,"N_COORD97":2579537.1299999999,"ADDRESS":"東興路２０５號十樓","OBJECTID":596243},"geometry":{"x":180748.70999999996,"y":2579537.1300000008}},{"attributes":{"ID":596271,"DIS_CODE":0,"TOWNNAME":"新營區","LI":"三仙里","LIN":"27鄰","STREET":"健康路","SECT":" ","MAREA":" ","LANE":" ","ALLEY":" ","HOUSE_NO":"９９號二樓","E_COORD97":179643,"N_COORD97":2579158.0600000001,"ADDRESS":"健康路９９號二樓","OBJECTID":596244},"geometry":{"x":179643.00000000093,"y":2579158.0600000005}},{"attributes":{"ID":596272,"DIS_CODE":0,"TOWNNAME":"新營區","LI":"新東里","LIN":"27鄰","STREET":"東興路","SECT":" ","MAREA":" ","LANE":" ","ALLEY":" ","HOUSE_NO":"２０９號十三樓","E_COORD97":180749.95999999999,"N_COORD97":2579537.1299999999,"ADDRESS":"東興路２０９號十三樓","OBJECTID":596245},"geometry":{"x":180749.96000000089,"y":2579537.1300000008}},{"attributes":{"ID":596273,"DIS_CODE":0,"TOWNNAME":"新營區","LI":"三仙里","LIN":"27鄰","STREET":"健康路","SECT":" ","MAREA":" ","LANE":" ","ALLEY":" ","HOUSE_NO":"９９號八樓","E_COORD97":179643,"N_COORD97":2579158.0600000001,"ADDRESS":"健康路９９號八樓","OBJECTID":596246},"geometry":{"x":179643.00000000093,"y":2579158.0600000005}},{"attributes":{"ID":596274,"DIS_CODE":0,"TOWNNAME":"新營區","LI":"三仙里","LIN":"27鄰","STREET":"健康路","SECT":" ","MAREA":" ","LANE":" ","ALLEY":" ","HOUSE_NO":"９９號七樓","E_COORD97":179643,"N_COORD97":2579158.0600000001,"ADDRESS":"健康路９９號七樓","OBJECTID":596247},"geometry":{"x":179643.00000000093,"y":2579158.0600000005}},{"attributes":{"ID":596275,"DIS_CODE":0,"TOWNNAME":"新營區","LI":"新東里","LIN":"27鄰","STREET":"東興路","SECT":" ","MAREA":" ","LANE":" ","ALLEY":" ","HOUSE_NO":"２０９號三樓","E_COORD97":180748.70999999999,"N_COORD97":2579537.1299999999,"ADDRESS":"東興路２０９號三樓","OBJECTID":596248},"geometry":{"x":180748.70999999996,"y":2579537.1300000008}},{"attributes":{"ID":596276,"DIS_CODE":0,"TOWNNAME":"新營區","LI":"民生里","LIN":"27鄰","STREET":"進修街","SECT":" ","MAREA":" ","LANE":" ","ALLEY":" ","HOUSE_NO":"４９號五樓之８","E_COORD97":178965.37,"N_COORD97":2578550.0299999998,"ADDRESS":"進修街４９號五樓之８","OBJECTID":596249},"geometry":{"x":178965.37000000104,"y":2578550.0299999993}},{"attributes":{"ID":596277,"DIS_CODE":0,"TOWNNAME":"新營區","LI":"大宏里","LIN":"27鄰","STREET":"開元路","SECT":" ","MAREA":" ","LANE":" ","ALLEY":" ","HOUSE_NO":"６１之１８號八樓","E_COORD97":180901.23999999999,"N_COORD97":2578823.27,"ADDRESS":"開元路６１之１８號八樓","OBJECTID":596250},"geometry":{"x":180901.24000000115,"y":2578823.2699999996}},{"attributes":{"ID":596278,"DIS_CODE":0,"TOWNNAME":"新營區","LI":"民生里","LIN":"27鄰","STREET":"進修街","SECT":" ","MAREA":" ","LANE":" ","ALLEY":" ","HOUSE_NO":"４９號五樓之５","E_COORD97":178965.38,"N_COORD97":2578550.0299999998,"ADDRESS":"進修街４９號五樓之５","OBJECTID":596251},"geometry":{"x":178965.38000000082,"y":2578550.0299999993}},{"attributes":{"ID":596279,"DIS_CODE":0,"TOWNNAME":"新營區","LI":"大宏里","LIN":"27鄰","STREET":"開元路","SECT":" ","MAREA":" ","LANE":" ","ALLEY":" ","HOUSE_NO":"６１之１７號八樓","E_COORD97":180901.23999999999,"N_COORD97":2578823.27,"ADDRESS":"開元路６１之１７號八樓","OBJECTID":596252},"geometry":{"x":180901.24000000115,"y":2578823.2699999996}},{"attributes":{"ID":596280,"DIS_CODE":0,"TOWNNAME":"新營區","LI":"三仙里","LIN":"27鄰","STREET":"健康路","SECT":" ","MAREA":" ","LANE":" ","ALLEY":" ","HOUSE_NO":"９５號十四樓","E_COORD97":179644.25,"N_COORD97":2579158.0600000001,"ADDRESS":"健康路９５號十四樓","OBJECTID":596253},"geometry":{"x":179644.25000000093,"y":2579158.0600000005}},{"attributes":{"ID":596281,"DIS_CODE":0,"TOWNNAME":"新營區","LI":"民生里","LIN":"27鄰","STREET":"進修街","SECT":" ","MAREA":" ","LANE":" ","ALLEY":" ","HOUSE_NO":"４９號六樓之５","E_COORD97":178965.38,"N_COORD97":2578550.0299999998,"ADDRESS":"進修街４９號六樓之５","OBJECTID":596254},"geometry":{"x":178965.38000000082,"y":2578550.0299999993}},{"attributes":{"ID":596282,"DIS_CODE":0,"TOWNNAME":"新營區","LI":"大宏里","LIN":"27鄰","STREET":"開元路","SECT":" ","MAREA":" ","LANE":" ","ALLEY":" ","HOUSE_NO":"６１之１８號五樓","E_COORD97":180901.23999999999,"N_COORD97":2578823.27,"ADDRESS":"開元路６１之１８號五樓","OBJECTID":596255},"geometry":{"x":180901.24000000115,"y":2578823.2699999996}},{"attributes":{"ID":596283,"DIS_CODE":0,"TOWNNAME":"新營區","LI":"大宏里","LIN":"27鄰","STREET":"開元路","SECT":" ","MAREA":" ","LANE":" ","ALLEY":" ","HOUSE_NO":"６１之１７號六樓之１","E_COORD97":180903.37,"N_COORD97":2578823.27,"ADDRESS":"開元路６１之１７號六樓之１","OBJECTID":596256},"geometry":{"x":180903.37000000104,"y":2578823.2699999996}},{"attributes":{"ID":596284,"DIS_CODE":0,"TOWNNAME":"新營區","LI":"大宏里","LIN":"27鄰","STREET":"開元路","SECT":" ","MAREA":" ","LANE":" ","ALLEY":" ","HOUSE_NO":"６１之１９號十樓","E_COORD97":180901.23999999999,"N_COORD97":2578823.27,"ADDRESS":"開元路６１之１９號十樓","OBJECTID":596257},"geometry":{"x":180901.24000000115,"y":2578823.2699999996}},{"attributes":{"ID":596285,"DIS_CODE":0,"TOWNNAME":"新營區","LI":"三仙里","LIN":"27鄰","STREET":"健康路","SECT":" ","MAREA":" ","LANE":" ","ALLEY":" ","HOUSE_NO":"１０１號二樓","E_COORD97":179643.37,"N_COORD97":2579182.4300000002,"ADDRESS":"健康路１０１號二樓","OBJECTID":596258},"geometry":{"x":179643.37000000197,"y":2579182.4299999978}},{"attributes":{"ID":596286,"DIS_CODE":0,"TOWNNAME":"安平區","LI":"育平里","LIN":"27鄰","STREET":"郡平路","SECT":" ","MAREA":" ","LANE":" ","ALLEY":" ","HOUSE_NO":"１８１號七樓之２８","E_COORD97":164638.45000000001,"N_COORD97":2543300.3100000001,"ADDRESS":"郡平路１８１號七樓之２８","OBJECTID":596259},"geometry":{"x":164638.45000000019,"y":2543300.3099999987}},{"attributes":{"ID":596287,"DIS_CODE":0,"TOWNNAME":"安平區","LI":"育平里","LIN":"27鄰","STREET":"郡平路","SECT":" ","MAREA":" ","LANE":" ","ALLEY":" ","HOUSE_NO":"１８１號七樓之２９","E_COORD97":164638.45000000001,"N_COORD97":2543300.3100000001,"ADDRESS":"郡平路１８１號七樓之２９","OBJECTID":596260},"geometry":{"x":164638.45000000019,"y":2543300.3099999987}},{"attributes":{"ID":596288,"DIS_CODE":0,"TOWNNAME":"安平區","LI":"育平里","LIN":"27鄰","STREET":"郡平路","SECT":" ","MAREA":" ","LANE":" ","ALLEY":" ","HOUSE_NO":"１８１號七樓之３０","E_COORD97":164638.45000000001,"N_COORD97":2543300.3100000001,"ADDRESS":"郡平路１８１號七樓之３０","OBJECTID":596261},"geometry":{"x":164638.45000000019,"y":2543300.3099999987}},{"attributes":{"ID":596289,"DIS_CODE":0,"TOWNNAME":"安平區","LI":"育平里","LIN":"27鄰","STREET":"郡平路","SECT":" ","MAREA":" ","LANE":" ","ALLEY":" ","HOUSE_NO":"１８１號七樓之３１","E_COORD97":164638.45000000001,"N_COORD97":2543300.3100000001,"ADDRESS":"郡平路１８１號七樓之３１","OBJECTID":596262},"geometry":{"x":164638.45000000019,"y":2543300.3099999987}},{"attributes":{"ID":596290,"DIS_CODE":0,"TOWNNAME":"安平區","LI":"育平里","LIN":"27鄰","STREET":"郡平路","SECT":" ","MAREA":" ","LANE":" ","ALLEY":" ","HOUSE_NO":"１８１號七樓之３２","E_COORD97":164638.45000000001,"N_COORD97":2543300.3100000001,"ADDRESS":"郡平路１８１號七樓之３２","OBJECTID":596263},"geometry":{"x":164638.45000000019,"y":2543300.3099999987}},{"attributes":{"ID":596291,"DIS_CODE":0,"TOWNNAME":"安平區","LI":"育平里","LIN":"27鄰","STREET":"郡平路","SECT":" ","MAREA":" ","LANE":" ","ALLEY":" ","HOUSE_NO":"１８１號七樓之３３","E_COORD97":164638.45000000001,"N_COORD97":2543300.3100000001,"ADDRESS":"郡平路１８１號七樓之３３","OBJECTID":596264},"geometry":{"x":164638.45000000019,"y":2543300.3099999987}},{"attributes":{"ID":596292,"DIS_CODE":0,"TOWNNAME":"安平區","LI":"育平里","LIN":"27鄰","STREET":"郡平路","SECT":" ","MAREA":" ","LANE":" ","ALLEY":" ","HOUSE_NO":"１８１號七樓之３４","E_COORD97":164638.45000000001,"N_COORD97":2543300.3100000001,"ADDRESS":"郡平路１８１號七樓之３４","OBJECTID":596265},"geometry":{"x":164638.45000000019,"y":2543300.3099999987}},{"attributes":{"ID":596293,"DIS_CODE":0,"TOWNNAME":"安平區","LI":"育平里","LIN":"27鄰","STREET":"郡平路","SECT":" ","MAREA":" ","LANE":" ","ALLEY":" ","HOUSE_NO":"１８１號七樓之３５","E_COORD97":164638.45000000001,"N_COORD97":2543300.3100000001,"ADDRESS":"郡平路１８１號七樓之３５","OBJECTID":596266},"geometry":{"x":164638.45000000019,"y":2543300.3099999987}},{"attributes":{"ID":596294,"DIS_CODE":0,"TOWNNAME":"安平區","LI":"育平里","LIN":"27鄰","STREET":"郡平路","SECT":" ","MAREA":" ","LANE":" ","ALLEY":" ","HOUSE_NO":"１８１號九樓之２８","E_COORD97":164638.45000000001,"N_COORD97":2543300.3100000001,"ADDRESS":"郡平路１８１號九樓之２８","OBJECTID":596267},"geometry":{"x":164638.45000000019,"y":2543300.3099999987}},{"attributes":{"ID":596295,"DIS_CODE":0,"TOWNNAME":"安平區","LI":"育平里","LIN":"27鄰","STREET":"郡平路","SECT":" ","MAREA":" ","LANE":" ","ALLEY":" ","HOUSE_NO":"１８１號九樓之２９","E_COORD97":164638.45000000001,"N_COORD97":2543300.3100000001,"ADDRESS":"郡平路１８１號九樓之２９","OBJECTID":596268},"geometry":{"x":164638.45000000019,"y":2543300.3099999987}},{"attributes":{"ID":596296,"DIS_CODE":0,"TOWNNAME":"安平區","LI":"育平里","LIN":"27鄰","STREET":"郡平路","SECT":" ","MAREA":" ","LANE":" ","ALLEY":" ","HOUSE_NO":"１８１號九樓之３０","E_COORD97":164638.45000000001,"N_COORD97":2543300.3100000001,"ADDRESS":"郡平路１８１號九樓之３０","OBJECTID":596269},"geometry":{"x":164638.45000000019,"y":2543300.3099999987}},{"attributes":{"ID":596297,"DIS_CODE":0,"TOWNNAME":"安平區","LI":"育平里","LIN":"27鄰","STREET":"郡平路","SECT":" ","MAREA":" ","LANE":" ","ALLEY":" ","HOUSE_NO":"１８１號九樓之３１","E_COORD97":164638.45000000001,"N_COORD97":2543300.3100000001,"ADDRESS":"郡平路１８１號九樓之３１","OBJECTID":596270},"geometry":{"x":164638.45000000019,"y":2543300.3099999987}},{"attributes":{"ID":596298,"DIS_CODE":0,"TOWNNAME":"安平區","LI":"育平里","LIN":"27鄰","STREET":"郡平路","SECT":" ","MAREA":" ","LANE":" ","ALLEY":" ","HOUSE_NO":"１８１號九樓之３２","E_COORD97":164638.45000000001,"N_COORD97":2543300.3100000001,"ADDRESS":"郡平路１８１號九樓之３２","OBJECTID":596271},"geometry":{"x":164638.45000000019,"y":2543300.3099999987}},{"attributes":{"ID":596299,"DIS_CODE":0,"TOWNNAME":"安平區","LI":"育平里","LIN":"27鄰","STREET":"郡平路","SECT":" ","MAREA":" ","LANE":" ","ALLEY":" ","HOUSE_NO":"１８１號九樓之３３","E_COORD97":164638.45000000001,"N_COORD97":2543300.3100000001,"ADDRESS":"郡平路１８１號九樓之３３","OBJECTID":596272},"geometry":{"x":164638.45000000019,"y":2543300.3099999987}},{"attributes":{"ID":596300,"DIS_CODE":0,"TOWNNAME":"安平區","LI":"育平里","LIN":"27鄰","STREET":"郡平路","SECT":" ","MAREA":" ","LANE":" ","ALLEY":" ","HOUSE_NO":"１８１號九樓之３４","E_COORD97":164638.45000000001,"N_COORD97":2543300.3100000001,"ADDRESS":"郡平路１８１號九樓之３４","OBJECTID":596273},"geometry":{"x":164638.45000000019,"y":2543300.3099999987}},{"attributes":{"ID":596301,"DIS_CODE":0,"TOWNNAME":"安平區","LI":"育平里","LIN":"27鄰","STREET":"郡平路","SECT":" ","MAREA":" ","LANE":" ","ALLEY":" ","HOUSE_NO":"１８１號九樓之３５","E_COORD97":164638.45000000001,"N_COORD97":2543300.3100000001,"ADDRESS":"郡平路１８１號九樓之３５","OBJECTID":596274},"geometry":{"x":164638.45000000019,"y":2543300.3099999987}},{"attributes":{"ID":596302,"DIS_CODE":0,"TOWNNAME":"安平區","LI":"育平里","LIN":"27鄰","STREET":"郡平路","SECT":" ","MAREA":" ","LANE":" ","ALLEY":" ","HOUSE_NO":"１８１號八樓之２８","E_COORD97":164638.45000000001,"N_COORD97":2543300.3100000001,"ADDRESS":"郡平路１８１號八樓之２８","OBJECTID":596275},"geometry":{"x":164638.45000000019,"y":2543300.3099999987}},{"attributes":{"ID":596303,"DIS_CODE":0,"TOWNNAME":"安平區","LI":"育平里","LIN":"27鄰","STREET":"郡平路","SECT":" ","MAREA":" ","LANE":" ","ALLEY":" ","HOUSE_NO":"１８１號八樓之２９","E_COORD97":164638.45000000001,"N_COORD97":2543300.3100000001,"ADDRESS":"郡平路１８１號八樓之２９","OBJECTID":596276},"geometry":{"x":164638.45000000019,"y":2543300.3099999987}},{"attributes":{"ID":596304,"DIS_CODE":0,"TOWNNAME":"安平區","LI":"育平里","LIN":"27鄰","STREET":"郡平路","SECT":" ","MAREA":" ","LANE":" ","ALLEY":" ","HOUSE_NO":"１８１號八樓之３０","E_COORD97":164638.45000000001,"N_COORD97":2543300.3100000001,"ADDRESS":"郡平路１８１號八樓之３０","OBJECTID":596277},"geometry":{"x":164638.45000000019,"y":2543300.3099999987}},{"attributes":{"ID":596305,"DIS_CODE":0,"TOWNNAME":"安平區","LI":"育平里","LIN":"27鄰","STREET":"郡平路","SECT":" ","MAREA":" ","LANE":" ","ALLEY":" ","HOUSE_NO":"１８１號八樓之３１","E_COORD97":164638.45000000001,"N_COORD97":2543300.3100000001,"ADDRESS":"郡平路１８１號八樓之３１","OBJECTID":596278},"geometry":{"x":164638.45000000019,"y":2543300.3099999987}},{"attributes":{"ID":596306,"DIS_CODE":0,"TOWNNAME":"安平區","LI":"育平里","LIN":"27鄰","STREET":"郡平路","SECT":" ","MAREA":" ","LANE":" ","ALLEY":" ","HOUSE_NO":"１８１號八樓之３２","E_COORD97":164638.45000000001,"N_COORD97":2543300.3100000001,"ADDRESS":"郡平路１８１號八樓之３２","OBJECTID":596279},"geometry":{"x":164638.45000000019,"y":2543300.3099999987}},{"attributes":{"ID":596307,"DIS_CODE":0,"TOWNNAME":"安平區","LI":"育平里","LIN":"27鄰","STREET":"郡平路","SECT":" ","MAREA":" ","LANE":" ","ALLEY":" ","HOUSE_NO":"１８１號八樓之３３","E_COORD97":164638.45000000001,"N_COORD97":2543300.3100000001,"ADDRESS":"郡平路１８１號八樓之３３","OBJECTID":596280},"geometry":{"x":164638.45000000019,"y":2543300.3099999987}},{"attributes":{"ID":596308,"DIS_CODE":0,"TOWNNAME":"安平區","LI":"育平里","LIN":"27鄰","STREET":"郡平路","SECT":" ","MAREA":" ","LANE":" ","ALLEY":" ","HOUSE_NO":"１８１號八樓之３４","E_COORD97":164638.45000000001,"N_COORD97":2543300.3100000001,"ADDRESS":"郡平路１８１號八樓之３４","OBJECTID":596281},"geometry":{"x":164638.45000000019,"y":2543300.3099999987}},{"attributes":{"ID":596309,"DIS_CODE":0,"TOWNNAME":"安平區","LI":"育平里","LIN":"27鄰","STREET":"郡平路","SECT":" ","MAREA":" ","LANE":" ","ALLEY":" ","HOUSE_NO":"１８１號八樓之３５","E_COORD97":164638.45000000001,"N_COORD97":2543300.3100000001,"ADDRESS":"郡平路１８１號八樓之３５","OBJECTID":596282},"geometry":{"x":164638.45000000019,"y":2543300.3099999987}},{"attributes":{"ID":596310,"DIS_CODE":0,"TOWNNAME":"中西區","LI":"藥王里","LIN":"8鄰","STREET":"大新街","SECT":" ","MAREA":" ","LANE":" ","ALLEY":" ","HOUSE_NO":"３號","E_COORD97":167117.76999999999,"N_COORD97":2544309.9500000002,"ADDRESS":"大新街３號","OBJECTID":596283},"geometry":{"x":167117.77000000048,"y":2544309.9500000011}},{"attributes":{"ID":596311,"DIS_CODE":0,"TOWNNAME":"安平區","LI":"育平里","LIN":"27鄰","STREET":"郡平路","SECT":" ","MAREA":" ","LANE":" ","ALLEY":" ","HOUSE_NO":"１８１號十一樓之２８","E_COORD97":164638.45000000001,"N_COORD97":2543300.3100000001,"ADDRESS":"郡平路１８１號十一樓之２８","OBJECTID":596284},"geometry":{"x":164638.45000000019,"y":2543300.3099999987}},{"attributes":{"ID":596312,"DIS_CODE":0,"TOWNNAME":"安平區","LI":"育平里","LIN":"27鄰","STREET":"郡平路","SECT":" ","MAREA":" ","LANE":" ","ALLEY":" ","HOUSE_NO":"１８１號十一樓之２９","E_COORD97":164638.45000000001,"N_COORD97":2543300.3100000001,"ADDRESS":"郡平路１８１號十一樓之２９","OBJECTID":596285},"geometry":{"x":164638.45000000019,"y":2543300.3099999987}},{"attributes":{"ID":596313,"DIS_CODE":0,"TOWNNAME":"安平區","LI":"育平里","LIN":"27鄰","STREET":"郡平路","SECT":" ","MAREA":" ","LANE":" ","ALLEY":" ","HOUSE_NO":"１８１號十一樓之３０","E_COORD97":164638.45000000001,"N_COORD97":2543300.3100000001,"ADDRESS":"郡平路１８１號十一樓之３０","OBJECTID":596286},"geometry":{"x":164638.45000000019,"y":2543300.3099999987}},{"attributes":{"ID":596314,"DIS_CODE":0,"TOWNNAME":"安平區","LI":"育平里","LIN":"27鄰","STREET":"郡平路","SECT":" ","MAREA":" ","LANE":" ","ALLEY":" ","HOUSE_NO":"１８１號十一樓之３１","E_COORD97":164638.45000000001,"N_COORD97":2543300.3100000001,"ADDRESS":"郡平路１８１號十一樓之３１","OBJECTID":596287},"geometry":{"x":164638.45000000019,"y":2543300.3099999987}},{"attributes":{"ID":596315,"DIS_CODE":0,"TOWNNAME":"安平區","LI":"育平里","LIN":"27鄰","STREET":"郡平路","SECT":" ","MAREA":" ","LANE":" ","ALLEY":" ","HOUSE_NO":"１８１號十一樓之３２","E_COORD97":164638.45000000001,"N_COORD97":2543300.3100000001,"ADDRESS":"郡平路１８１號十一樓之３２","OBJECTID":596288},"geometry":{"x":164638.45000000019,"y":2543300.3099999987}},{"attributes":{"ID":596316,"DIS_CODE":0,"TOWNNAME":"安平區","LI":"育平里","LIN":"27鄰","STREET":"郡平路","SECT":" ","MAREA":" ","LANE":" ","ALLEY":" ","HOUSE_NO":"１８１號十一樓之３３","E_COORD97":164638.45000000001,"N_COORD97":2543300.3100000001,"ADDRESS":"郡平路１８１號十一樓之３３","OBJECTID":596289},"geometry":{"x":164638.45000000019,"y":2543300.3099999987}},{"attributes":{"ID":596317,"DIS_CODE":0,"TOWNNAME":"安平區","LI":"育平里","LIN":"27鄰","STREET":"郡平路","SECT":" ","MAREA":" ","LANE":" ","ALLEY":" ","HOUSE_NO":"１８１號十一樓之３４","E_COORD97":164638.45000000001,"N_COORD97":2543300.3100000001,"ADDRESS":"郡平路１８１號十一樓之３４","OBJECTID":596290},"geometry":{"x":164638.45000000019,"y":2543300.3099999987}},{"attributes":{"ID":596318,"DIS_CODE":0,"TOWNNAME":"安平區","LI":"育平里","LIN":"27鄰","STREET":"郡平路","SECT":" ","MAREA":" ","LANE":" ","ALLEY":" ","HOUSE_NO":"１８１號十一樓之３５","E_COORD97":164638.45000000001,"N_COORD97":2543300.3100000001,"ADDRESS":"郡平路１８１號十一樓之３５","OBJECTID":596291},"geometry":{"x":164638.45000000019,"y":2543300.3099999987}},{"attributes":{"ID":596319,"DIS_CODE":0,"TOWNNAME":"安平區","LI":"育平里","LIN":"27鄰","STREET":"郡平路","SECT":" ","MAREA":" ","LANE":" ","ALLEY":" ","HOUSE_NO":"１８１號十二樓之２８","E_COORD97":164638.45000000001,"N_COORD97":2543300.3100000001,"ADDRESS":"郡平路１８１號十二樓之２８","OBJECTID":596292},"geometry":{"x":164638.45000000019,"y":2543300.3099999987}},{"attributes":{"ID":596320,"DIS_CODE":0,"TOWNNAME":"安平區","LI":"育平里","LIN":"27鄰","STREET":"郡平路","SECT":" ","MAREA":" ","LANE":" ","ALLEY":" ","HOUSE_NO":"１８１號十二樓之２９","E_COORD97":164638.45000000001,"N_COORD97":2543300.3100000001,"ADDRESS":"郡平路１８１號十二樓之２９","OBJECTID":596293},"geometry":{"x":164638.45000000019,"y":2543300.3099999987}},{"attributes":{"ID":596321,"DIS_CODE":0,"TOWNNAME":"安平區","LI":"育平里","LIN":"27鄰","STREET":"郡平路","SECT":" ","MAREA":" ","LANE":" ","ALLEY":" ","HOUSE_NO":"１８１號十二樓之３０","E_COORD97":164638.45000000001,"N_COORD97":2543300.3100000001,"ADDRESS":"郡平路１８１號十二樓之３０","OBJECTID":596294},"geometry":{"x":164638.45000000019,"y":2543300.3099999987}},{"attributes":{"ID":596322,"DIS_CODE":0,"TOWNNAME":"安平區","LI":"育平里","LIN":"27鄰","STREET":"郡平路","SECT":" ","MAREA":" ","LANE":" ","ALLEY":" ","HOUSE_NO":"１８１號十二樓之３１","E_COORD97":164638.45000000001,"N_COORD97":2543300.3100000001,"ADDRESS":"郡平路１８１號十二樓之３１","OBJECTID":596295},"geometry":{"x":164638.45000000019,"y":2543300.3099999987}},{"attributes":{"ID":596323,"DIS_CODE":0,"TOWNNAME":"安平區","LI":"育平里","LIN":"27鄰","STREET":"郡平路","SECT":" ","MAREA":" ","LANE":" ","ALLEY":" ","HOUSE_NO":"１８１號十二樓之３２","E_COORD97":164638.45000000001,"N_COORD97":2543300.3100000001,"ADDRESS":"郡平路１８１號十二樓之３２","OBJECTID":596296},"geometry":{"x":164638.45000000019,"y":2543300.3099999987}},{"attributes":{"ID":596324,"DIS_CODE":0,"TOWNNAME":"安平區","LI":"育平里","LIN":"27鄰","STREET":"郡平路","SECT":" ","MAREA":" ","LANE":" ","ALLEY":" ","HOUSE_NO":"１８１號十二樓之３３","E_COORD97":164638.45000000001,"N_COORD97":2543300.3100000001,"ADDRESS":"郡平路１８１號十二樓之３３","OBJECTID":596297},"geometry":{"x":164638.45000000019,"y":2543300.3099999987}},{"attributes":{"ID":596325,"DIS_CODE":0,"TOWNNAME":"安平區","LI":"育平里","LIN":"27鄰","STREET":"郡平路","SECT":" ","MAREA":" ","LANE":" ","ALLEY":" ","HOUSE_NO":"１８１號十二樓之３４","E_COORD97":164638.45000000001,"N_COORD97":2543300.3100000001,"ADDRESS":"郡平路１８１號十二樓之３４","OBJECTID":596298},"geometry":{"x":164638.45000000019,"y":2543300.3099999987}},{"attributes":{"ID":596326,"DIS_CODE":0,"TOWNNAME":"安平區","LI":"育平里","LIN":"27鄰","STREET":"郡平路","SECT":" ","MAREA":" ","LANE":" ","ALLEY":" ","HOUSE_NO":"１８１號十二樓之３５","E_COORD97":164638.45000000001,"N_COORD97":2543300.3100000001,"ADDRESS":"郡平路１８１號十二樓之３５","OBJECTID":596299},"geometry":{"x":164638.45000000019,"y":2543300.3099999987}},{"attributes":{"ID":596327,"DIS_CODE":0,"TOWNNAME":"安平區","LI":"育平里","LIN":"27鄰","STREET":"郡平路","SECT":" ","MAREA":" ","LANE":" ","ALLEY":" ","HOUSE_NO":"１８１號十三樓之２８","E_COORD97":164638.45000000001,"N_COORD97":2543300.3100000001,"ADDRESS":"郡平路１８１號十三樓之２８","OBJECTID":596300},"geometry":{"x":164638.45000000019,"y":2543300.3099999987}},{"attributes":{"ID":596328,"DIS_CODE":0,"TOWNNAME":"安平區","LI":"育平里","LIN":"27鄰","STREET":"郡平路","SECT":" ","MAREA":" ","LANE":" ","ALLEY":" ","HOUSE_NO":"１８１號十三樓之２９","E_COORD97":164638.45000000001,"N_COORD97":2543300.3100000001,"ADDRESS":"郡平路１８１號十三樓之２９","OBJECTID":596301},"geometry":{"x":164638.45000000019,"y":2543300.3099999987}},{"attributes":{"ID":596329,"DIS_CODE":0,"TOWNNAME":"安平區","LI":"育平里","LIN":"27鄰","STREET":"郡平路","SECT":" ","MAREA":" ","LANE":" ","ALLEY":" ","HOUSE_NO":"１８１號十三樓之３０","E_COORD97":164638.45000000001,"N_COORD97":2543300.3100000001,"ADDRESS":"郡平路１８１號十三樓之３０","OBJECTID":596302},"geometry":{"x":164638.45000000019,"y":2543300.3099999987}},{"attributes":{"ID":596330,"DIS_CODE":0,"TOWNNAME":"安平區","LI":"育平里","LIN":"27鄰","STREET":"郡平路","SECT":" ","MAREA":" ","LANE":" ","ALLEY":" ","HOUSE_NO":"１８１號十三樓之３１","E_COORD97":164638.45000000001,"N_COORD97":2543300.3100000001,"ADDRESS":"郡平路１８１號十三樓之３１","OBJECTID":596303},"geometry":{"x":164638.45000000019,"y":2543300.3099999987}},{"attributes":{"ID":596331,"DIS_CODE":0,"TOWNNAME":"安平區","LI":"育平里","LIN":"27鄰","STREET":"郡平路","SECT":" ","MAREA":" ","LANE":" ","ALLEY":" ","HOUSE_NO":"１８１號十三樓之３２","E_COORD97":164638.45000000001,"N_COORD97":2543300.3100000001,"ADDRESS":"郡平路１８１號十三樓之３２","OBJECTID":596304},"geometry":{"x":164638.45000000019,"y":2543300.3099999987}},{"attributes":{"ID":596332,"DIS_CODE":0,"TOWNNAME":"安平區","LI":"育平里","LIN":"27鄰","STREET":"郡平路","SECT":" ","MAREA":" ","LANE":" ","ALLEY":" ","HOUSE_NO":"１８１號十三樓之３３","E_COORD97":164638.45000000001,"N_COORD97":2543300.3100000001,"ADDRESS":"郡平路１８１號十三樓之３３","OBJECTID":596305},"geometry":{"x":164638.45000000019,"y":2543300.3099999987}},{"attributes":{"ID":596333,"DIS_CODE":0,"TOWNNAME":"安平區","LI":"育平里","LIN":"27鄰","STREET":"郡平路","SECT":" ","MAREA":" ","LANE":" ","ALLEY":" ","HOUSE_NO":"１８１號十三樓之３４","E_COORD97":164638.45000000001,"N_COORD97":2543300.3100000001,"ADDRESS":"郡平路１８１號十三樓之３４","OBJECTID":596306},"geometry":{"x":164638.45000000019,"y":2543300.3099999987}},{"attributes":{"ID":596334,"DIS_CODE":0,"TOWNNAME":"安平區","LI":"育平里","LIN":"27鄰","STREET":"郡平路","SECT":" ","MAREA":" ","LANE":" ","ALLEY":" ","HOUSE_NO":"１８１號十三樓之３５","E_COORD97":164638.45000000001,"N_COORD97":2543300.3100000001,"ADDRESS":"郡平路１８１號十三樓之３５","OBJECTID":596307},"geometry":{"x":164638.45000000019,"y":2543300.3099999987}},{"attributes":{"ID":596335,"DIS_CODE":0,"TOWNNAME":"安平區","LI":"育平里","LIN":"27鄰","STREET":"郡平路","SECT":" ","MAREA":" ","LANE":" ","ALLEY":" ","HOUSE_NO":"１８１號十四樓之２８","E_COORD97":164638.45000000001,"N_COORD97":2543300.3100000001,"ADDRESS":"郡平路１８１號十四樓之２８","OBJECTID":596308},"geometry":{"x":164638.45000000019,"y":2543300.3099999987}},{"attributes":{"ID":596336,"DIS_CODE":0,"TOWNNAME":"安平區","LI":"育平里","LIN":"27鄰","STREET":"郡平路","SECT":" ","MAREA":" ","LANE":" ","ALLEY":" ","HOUSE_NO":"１８１號十四樓之２９","E_COORD97":164638.45000000001,"N_COORD97":2543300.3100000001,"ADDRESS":"郡平路１８１號十四樓之２９","OBJECTID":596309},"geometry":{"x":164638.45000000019,"y":2543300.3099999987}},{"attributes":{"ID":596337,"DIS_CODE":0,"TOWNNAME":"安平區","LI":"育平里","LIN":"27鄰","STREET":"郡平路","SECT":" ","MAREA":" ","LANE":" ","ALLEY":" ","HOUSE_NO":"１８１號十四樓之３０","E_COORD97":164638.45000000001,"N_COORD97":2543300.3100000001,"ADDRESS":"郡平路１８１號十四樓之３０","OBJECTID":596310},"geometry":{"x":164638.45000000019,"y":2543300.3099999987}},{"attributes":{"ID":596338,"DIS_CODE":0,"TOWNNAME":"安平區","LI":"育平里","LIN":"27鄰","STREET":"郡平路","SECT":" ","MAREA":" ","LANE":" ","ALLEY":" ","HOUSE_NO":"１８１號十四樓之３１","E_COORD97":164638.45000000001,"N_COORD97":2543300.3100000001,"ADDRESS":"郡平路１８１號十四樓之３１","OBJECTID":596311},"geometry":{"x":164638.45000000019,"y":2543300.3099999987}},{"attributes":{"ID":596339,"DIS_CODE":0,"TOWNNAME":"中西區","LI":"藥王里","LIN":"8鄰","STREET":"大新街","SECT":" ","MAREA":" ","LANE":" ","ALLEY":" ","HOUSE_NO":"５號","E_COORD97":167122.16,"N_COORD97":2544319.3900000001,"ADDRESS":"大新街５號","OBJECTID":596312},"geometry":{"x":167122.16000000015,"y":2544319.3900000006}},{"attributes":{"ID":596340,"DIS_CODE":0,"TOWNNAME":"安平區","LI":"育平里","LIN":"27鄰","STREET":"郡平路","SECT":" ","MAREA":" ","LANE":" ","ALLEY":" ","HOUSE_NO":"１８１號十四樓之３２","E_COORD97":164638.45000000001,"N_COORD97":2543300.3100000001,"ADDRESS":"郡平路１８１號十四樓之３２","OBJECTID":596313},"geometry":{"x":164638.45000000019,"y":2543300.3099999987}},{"attributes":{"ID":596341,"DIS_CODE":0,"TOWNNAME":"安平區","LI":"育平里","LIN":"27鄰","STREET":"郡平路","SECT":" ","MAREA":" ","LANE":" ","ALLEY":" ","HOUSE_NO":"１８１號十四樓之３３","E_COORD97":164638.45000000001,"N_COORD97":2543300.3100000001,"ADDRESS":"郡平路１８１號十四樓之３３","OBJECTID":596314},"geometry":{"x":164638.45000000019,"y":2543300.3099999987}},{"attributes":{"ID":596342,"DIS_CODE":0,"TOWNNAME":"安平區","LI":"育平里","LIN":"27鄰","STREET":"郡平路","SECT":" ","MAREA":" ","LANE":" ","ALLEY":" ","HOUSE_NO":"１８１號十四樓之３４","E_COORD97":164638.45000000001,"N_COORD97":2543300.3100000001,"ADDRESS":"郡平路１８１號十四樓之３４","OBJECTID":596315},"geometry":{"x":164638.45000000019,"y":2543300.3099999987}},{"attributes":{"ID":596343,"DIS_CODE":0,"TOWNNAME":"安平區","LI":"育平里","LIN":"27鄰","STREET":"郡平路","SECT":" ","MAREA":" ","LANE":" ","ALLEY":" ","HOUSE_NO":"１８１號十四樓之３５","E_COORD97":164638.45000000001,"N_COORD97":2543300.3100000001,"ADDRESS":"郡平路１８１號十四樓之３５","OBJECTID":596316},"geometry":{"x":164638.45000000019,"y":2543300.3099999987}},{"attributes":{"ID":596344,"DIS_CODE":0,"TOWNNAME":"新營區","LI":"大宏里","LIN":"27鄰","STREET":"開元路","SECT":" ","MAREA":" ","LANE":" ","ALLEY":" ","HOUSE_NO":"６１之１８號二樓","E_COORD97":180901.23999999999,"N_COORD97":2578823.27,"ADDRESS":"開元路６１之１８號二樓","OBJECTID":596317},"geometry":{"x":180901.24000000115,"y":2578823.2699999996}},{"attributes":{"ID":596345,"DIS_CODE":0,"TOWNNAME":"新營區","LI":"大宏里","LIN":"27鄰","STREET":"開元路","SECT":" ","MAREA":" ","LANE":" ","ALLEY":" ","HOUSE_NO":"６１之１８號十樓","E_COORD97":180901.23999999999,"N_COORD97":2578823.27,"ADDRESS":"開元路６１之１８號十樓","OBJECTID":596318},"geometry":{"x":180901.24000000115,"y":2578823.2699999996}},{"attributes":{"ID":596346,"DIS_CODE":0,"TOWNNAME":"新營區","LI":"大宏里","LIN":"27鄰","STREET":"開元路","SECT":" ","MAREA":" ","LANE":" ","ALLEY":" ","HOUSE_NO":"６１之１７號九樓","E_COORD97":180901.23999999999,"N_COORD97":2578823.27,"ADDRESS":"開元路６１之１７號九樓","OBJECTID":596319},"geometry":{"x":180901.24000000115,"y":2578823.2699999996}},{"attributes":{"ID":596347,"DIS_CODE":0,"TOWNNAME":"新營區","LI":"大宏里","LIN":"27鄰","STREET":"開元路","SECT":" ","MAREA":" ","LANE":" ","ALLEY":" ","HOUSE_NO":"６１之１７號二樓之１","E_COORD97":180903.37,"N_COORD97":2578823.27,"ADDRESS":"開元路６１之１７號二樓之１","OBJECTID":596320},"geometry":{"x":180903.37000000104,"y":2578823.2699999996}},{"attributes":{"ID":596348,"DIS_CODE":0,"TOWNNAME":"新營區","LI":"大宏里","LIN":"27鄰","STREET":"開元路","SECT":" ","MAREA":" ","LANE":" ","ALLEY":" ","HOUSE_NO":"６１之１９號三樓","E_COORD97":180901.23999999999,"N_COORD97":2578823.27,"ADDRESS":"開元路６１之１９號三樓","OBJECTID":596321},"geometry":{"x":180901.24000000115,"y":2578823.2699999996}},{"attributes":{"ID":596349,"DIS_CODE":0,"TOWNNAME":"新營區","LI":"新東里","LIN":"27鄰","STREET":"東興路","SECT":" ","MAREA":" ","LANE":" ","ALLEY":" ","HOUSE_NO":"２３３號九樓","E_COORD97":180727.73000000001,"N_COORD97":2579641.3300000001,"ADDRESS":"東興路２３３號九樓","OBJECTID":596322},"geometry":{"x":180727.72999999952,"y":2579641.3300000038}},{"attributes":{"ID":596350,"DIS_CODE":0,"TOWNNAME":"新營區","LI":"新東里","LIN":"27鄰","STREET":"東興路","SECT":" ","MAREA":" ","LANE":" ","ALLEY":" ","HOUSE_NO":"２２５號四樓","E_COORD97":180727.73000000001,"N_COORD97":2579641.3300000001,"ADDRESS":"東興路２２５號四樓","OBJECTID":596323},"geometry":{"x":180727.72999999952,"y":2579641.3300000038}},{"attributes":{"ID":596351,"DIS_CODE":0,"TOWNNAME":"新營區","LI":"新東里","LIN":"27鄰","STREET":"東興路","SECT":" ","MAREA":" ","LANE":" ","ALLEY":" ","HOUSE_NO":"２３３號三樓","E_COORD97":180727.73000000001,"N_COORD97":2579641.3300000001,"ADDRESS":"東興路２３３號三樓","OBJECTID":596324},"geometry":{"x":180727.72999999952,"y":2579641.3300000038}},{"attributes":{"ID":596352,"DIS_CODE":0,"TOWNNAME":"新營區","LI":"新東里","LIN":"27鄰","STREET":"東興路","SECT":" ","MAREA":" ","LANE":" ","ALLEY":" ","HOUSE_NO":"２３３號六樓","E_COORD97":180727.73000000001,"N_COORD97":2579641.3300000001,"ADDRESS":"東興路２３３號六樓","OBJECTID":596325},"geometry":{"x":180727.72999999952,"y":2579641.3300000038}},{"attributes":{"ID":596353,"DIS_CODE":0,"TOWNNAME":"新營區","LI":"大宏里","LIN":"27鄰","STREET":"綠川路","SECT":" ","MAREA":" ","LANE":" ","ALLEY":" ","HOUSE_NO":"８號四樓之１","E_COORD97":180908.82000000001,"N_COORD97":2578856.4500000002,"ADDRESS":"綠川路８號四樓之１","OBJECTID":596326},"geometry":{"x":180908.82000000123,"y":2578856.450000003}},{"attributes":{"ID":596354,"DIS_CODE":0,"TOWNNAME":"新營區","LI":"新東里","LIN":"27鄰","STREET":"東興路","SECT":" ","MAREA":" ","LANE":" ","ALLEY":" ","HOUSE_NO":"２２５號六樓","E_COORD97":180727.73000000001,"N_COORD97":2579641.3300000001,"ADDRESS":"東興路２２５號六樓","OBJECTID":596327},"geometry":{"x":180727.72999999952,"y":2579641.3300000038}},{"attributes":{"ID":596355,"DIS_CODE":0,"TOWNNAME":"新營區","LI":"民生里","LIN":"27鄰","STREET":"進修街","SECT":" ","MAREA":" ","LANE":" ","ALLEY":" ","HOUSE_NO":"４９號三樓之８","E_COORD97":178965.37,"N_COORD97":2578550.0299999998,"ADDRESS":"進修街４９號三樓之８","OBJECTID":596328},"geometry":{"x":178965.37000000104,"y":2578550.0299999993}},{"attributes":{"ID":596356,"DIS_CODE":0,"TOWNNAME":"新營區","LI":"新南里","LIN":"27鄰","STREET":"隋唐街","SECT":" ","MAREA":" ","LANE":" ","ALLEY":" ","HOUSE_NO":"３９５號七樓之４","E_COORD97":177925.45999999999,"N_COORD97":2578597.1400000001,"ADDRESS":"隋唐街３９５號七樓之４","OBJECTID":596329},"geometry":{"x":177925.46000000089,"y":2578597.1400000025}},{"attributes":{"ID":596357,"DIS_CODE":0,"TOWNNAME":"新營區","LI":"民生里","LIN":"27鄰","STREET":"進修街","SECT":" ","MAREA":" ","LANE":" ","ALLEY":" ","HOUSE_NO":"５９號四樓之３","E_COORD97":178985.76999999999,"N_COORD97":2578561.0099999998,"ADDRESS":"進修街５９號四樓之３","OBJECTID":596330},"geometry":{"x":178985.77000000048,"y":2578561.0099999998}},{"attributes":{"ID":596358,"DIS_CODE":0,"TOWNNAME":"新營區","LI":"新東里","LIN":"27鄰","STREET":"東興路","SECT":" ","MAREA":" ","LANE":" ","ALLEY":" ","HOUSE_NO":"２３３號五樓","E_COORD97":180727.73000000001,"N_COORD97":2579641.3300000001,"ADDRESS":"東興路２３３號五樓","OBJECTID":596331},"geometry":{"x":180727.72999999952,"y":2579641.3300000038}},{"attributes":{"ID":596359,"DIS_CODE":0,"TOWNNAME":"新營區","LI":"新東里","LIN":"27鄰","STREET":"東興路","SECT":" ","MAREA":" ","LANE":" ","ALLEY":" ","HOUSE_NO":"２３３號七樓","E_COORD97":180727.73000000001,"N_COORD97":2579641.3300000001,"ADDRESS":"東興路２３３號七樓","OBJECTID":596332},"geometry":{"x":180727.72999999952,"y":2579641.3300000038}},{"attributes":{"ID":596360,"DIS_CODE":0,"TOWNNAME":"新營區","LI":"新南里","LIN":"27鄰","STREET":"隋唐街","SECT":" ","MAREA":" ","LANE":" ","ALLEY":" ","HOUSE_NO":"３９５號八樓之５","E_COORD97":177925.59,"N_COORD97":2578597.1400000001,"ADDRESS":"隋唐街３９５號八樓之５","OBJECTID":596333},"geometry":{"x":177925.58999999985,"y":2578597.1400000025}},{"attributes":{"ID":596361,"DIS_CODE":0,"TOWNNAME":"新營區","LI":"新東里","LIN":"27鄰","STREET":"東興路","SECT":" ","MAREA":" ","LANE":" ","ALLEY":" ","HOUSE_NO":"２２９號十一樓","E_COORD97":180728.98000000001,"N_COORD97":2579641.3300000001,"ADDRESS":"東興路２２９號十一樓","OBJECTID":596334},"geometry":{"x":180728.98000000045,"y":2579641.3300000038}},{"attributes":{"ID":596362,"DIS_CODE":0,"TOWNNAME":"新營區","LI":"民生里","LIN":"27鄰","STREET":"進修街","SECT":" ","MAREA":" ","LANE":" ","ALLEY":" ","HOUSE_NO":"５９號六樓之６","E_COORD97":178985.78,"N_COORD97":2578561.0099999998,"ADDRESS":"進修街５９號六樓之６","OBJECTID":596335},"geometry":{"x":178985.78000000026,"y":2578561.0099999998}},{"attributes":{"ID":596363,"DIS_CODE":0,"TOWNNAME":"新營區","LI":"民生里","LIN":"27鄰","STREET":"進修街","SECT":" ","MAREA":" ","LANE":" ","ALLEY":" ","HOUSE_NO":"４９號三樓之７","E_COORD97":178965.29999999999,"N_COORD97":2578550.0299999998,"ADDRESS":"進修街４９號三樓之７","OBJECTID":596336},"geometry":{"x":178965.30000000168,"y":2578550.0299999993}},{"attributes":{"ID":596364,"DIS_CODE":0,"TOWNNAME":"新營區","LI":"新東里","LIN":"27鄰","STREET":"東興路","SECT":" ","MAREA":" ","LANE":" ","ALLEY":" ","HOUSE_NO":"２２９號八樓","E_COORD97":180727.73000000001,"N_COORD97":2579641.3300000001,"ADDRESS":"東興路２２９號八樓","OBJECTID":596337},"geometry":{"x":180727.72999999952,"y":2579641.3300000038}},{"attributes":{"ID":596365,"DIS_CODE":0,"TOWNNAME":"新營區","LI":"新東里","LIN":"27鄰","STREET":"東興路","SECT":" ","MAREA":" ","LANE":" ","ALLEY":" ","HOUSE_NO":"２２９號三樓","E_COORD97":180727.73000000001,"N_COORD97":2579641.3300000001,"ADDRESS":"東興路２２９號三樓","OBJECTID":596338},"geometry":{"x":180727.72999999952,"y":2579641.3300000038}},{"attributes":{"ID":596366,"DIS_CODE":0,"TOWNNAME":"新營區","LI":"新東里","LIN":"27鄰","STREET":"東興路","SECT":" ","MAREA":" ","LANE":" ","ALLEY":" ","HOUSE_NO":"２３３號十三樓","E_COORD97":180728.98000000001,"N_COORD97":2579641.3300000001,"ADDRESS":"東興路２３３號十三樓","OBJECTID":596339},"geometry":{"x":180728.98000000045,"y":2579641.3300000038}},{"attributes":{"ID":596367,"DIS_CODE":0,"TOWNNAME":"新營區","LI":"大宏里","LIN":"27鄰","STREET":"綠川路","SECT":" ","MAREA":" ","LANE":" ","ALLEY":" ","HOUSE_NO":"８號五樓之２","E_COORD97":180908.95000000001,"N_COORD97":2578856.4500000002,"ADDRESS":"綠川路８號五樓之２","OBJECTID":596340},"geometry":{"x":180908.95000000019,"y":2578856.450000003}},{"attributes":{"ID":596368,"DIS_CODE":0,"TOWNNAME":"新營區","LI":"新東里","LIN":"27鄰","STREET":"東興路","SECT":" ","MAREA":" ","LANE":" ","ALLEY":" ","HOUSE_NO":"２３７號九樓","E_COORD97":180727.73000000001,"N_COORD97":2579641.3300000001,"ADDRESS":"東興路２３７號九樓","OBJECTID":596341},"geometry":{"x":180727.72999999952,"y":2579641.3300000038}},{"attributes":{"ID":596369,"DIS_CODE":0,"TOWNNAME":"新營區","LI":"新東里","LIN":"27鄰","STREET":"東興路","SECT":" ","MAREA":" ","LANE":" ","ALLEY":" ","HOUSE_NO":"２３７號七樓","E_COORD97":180727.73000000001,"N_COORD97":2579641.3300000001,"ADDRESS":"東興路２３７號七樓","OBJECTID":596342},"geometry":{"x":180727.72999999952,"y":2579641.3300000038}},{"attributes":{"ID":596370,"DIS_CODE":0,"TOWNNAME":"新營區","LI":"民生里","LIN":"27鄰","STREET":"進修街","SECT":" ","MAREA":" ","LANE":" ","ALLEY":" ","HOUSE_NO":"４９號三樓之３","E_COORD97":178965.32000000001,"N_COORD97":2578550.0299999998,"ADDRESS":"進修街４９號三樓之３","OBJECTID":596343},"geometry":{"x":178965.3200000003,"y":2578550.0299999993}},{"attributes":{"ID":596371,"DIS_CODE":0,"TOWNNAME":"新營區","LI":"新東里","LIN":"27鄰","STREET":"東興路","SECT":" ","MAREA":" ","LANE":" ","ALLEY":" ","HOUSE_NO":"２３７號八樓","E_COORD97":180727.73000000001,"N_COORD97":2579641.3300000001,"ADDRESS":"東興路２３７號八樓","OBJECTID":596344},"geometry":{"x":180727.72999999952,"y":2579641.3300000038}},{"attributes":{"ID":596372,"DIS_CODE":0,"TOWNNAME":"新營區","LI":"新南里","LIN":"27鄰","STREET":"隋唐街","SECT":" ","MAREA":" ","LANE":" ","ALLEY":" ","HOUSE_NO":"３９５號八樓之４","E_COORD97":177925.45999999999,"N_COORD97":2578597.1400000001,"ADDRESS":"隋唐街３９５號八樓之４","OBJECTID":596345},"geometry":{"x":177925.46000000089,"y":2578597.1400000025}},{"attributes":{"ID":596373,"DIS_CODE":0,"TOWNNAME":"新營區","LI":"新南里","LIN":"27鄰","STREET":"隋唐街","SECT":" ","MAREA":" ","LANE":" ","ALLEY":" ","HOUSE_NO":"３９５號五樓之６","E_COORD97":177925.54000000001,"N_COORD97":2578597.1400000001,"ADDRESS":"隋唐街３９５號五樓之６","OBJECTID":596346},"geometry":{"x":177925.54000000097,"y":2578597.1400000025}},{"attributes":{"ID":596374,"DIS_CODE":0,"TOWNNAME":"新營區","LI":"新南里","LIN":"27鄰","STREET":"隋唐街","SECT":" ","MAREA":" ","LANE":" ","ALLEY":" ","HOUSE_NO":"３９５號五樓之３","E_COORD97":177925.53,"N_COORD97":2578597.1400000001,"ADDRESS":"隋唐街３９５號五樓之３","OBJECTID":596347},"geometry":{"x":177925.53000000119,"y":2578597.1400000025}},{"attributes":{"ID":596375,"DIS_CODE":0,"TOWNNAME":"新營區","LI":"新東里","LIN":"27鄰","STREET":"東興路","SECT":" ","MAREA":" ","LANE":" ","ALLEY":" ","HOUSE_NO":"２２５號十樓","E_COORD97":180727.73000000001,"N_COORD97":2579641.3300000001,"ADDRESS":"東興路２２５號十樓","OBJECTID":596348},"geometry":{"x":180727.72999999952,"y":2579641.3300000038}},{"attributes":{"ID":596376,"DIS_CODE":0,"TOWNNAME":"新營區","LI":"民生里","LIN":"27鄰","STREET":"進修街","SECT":" ","MAREA":" ","LANE":" ","ALLEY":" ","HOUSE_NO":"４９號六樓之７","E_COORD97":178965.29999999999,"N_COORD97":2578550.0299999998,"ADDRESS":"進修街４９號六樓之７","OBJECTID":596349},"geometry":{"x":178965.30000000168,"y":2578550.0299999993}},{"attributes":{"ID":596377,"DIS_CODE":0,"TOWNNAME":"新營區","LI":"新南里","LIN":"27鄰","STREET":"隋唐街","SECT":" ","MAREA":" ","LANE":" ","ALLEY":" ","HOUSE_NO":"３９５號七樓之３","E_COORD97":177925.53,"N_COORD97":2578597.1400000001,"ADDRESS":"隋唐街３９５號七樓之３","OBJECTID":596350},"geometry":{"x":177925.53000000119,"y":2578597.1400000025}},{"attributes":{"ID":596378,"DIS_CODE":0,"TOWNNAME":"新營區","LI":"新南里","LIN":"27鄰","STREET":"隋唐街","SECT":" ","MAREA":" ","LANE":" ","ALLEY":" ","HOUSE_NO":"３９５號二樓之６","E_COORD97":177925.54000000001,"N_COORD97":2578597.1400000001,"ADDRESS":"隋唐街３９５號二樓之６","OBJECTID":596351},"geometry":{"x":177925.54000000097,"y":2578597.1400000025}},{"attributes":{"ID":596379,"DIS_CODE":0,"TOWNNAME":"新營區","LI":"新南里","LIN":"27鄰","STREET":"隋唐街","SECT":" ","MAREA":" ","LANE":" ","ALLEY":" ","HOUSE_NO":"３９５號七樓之７","E_COORD97":177925.51000000001,"N_COORD97":2578597.1400000001,"ADDRESS":"隋唐街３９５號七樓之７","OBJECTID":596352},"geometry":{"x":177925.51000000071,"y":2578597.1400000025}},{"attributes":{"ID":596380,"DIS_CODE":0,"TOWNNAME":"新營區","LI":"民生里","LIN":"27鄰","STREET":"進修街","SECT":" ","MAREA":" ","LANE":" ","ALLEY":" ","HOUSE_NO":"５５號三樓之５","E_COORD97":178989.85000000001,"N_COORD97":2578546.5899999999,"ADDRESS":"進修街５５號三樓之５","OBJECTID":596353},"geometry":{"x":178989.84999999963,"y":2578546.5899999999}},{"attributes":{"ID":596381,"DIS_CODE":0,"TOWNNAME":"新營區","LI":"民生里","LIN":"27鄰","STREET":"進修街","SECT":" ","MAREA":" ","LANE":" ","ALLEY":" ","HOUSE_NO":"５５號三樓之４","E_COORD97":178989.72,"N_COORD97":2578546.5899999999,"ADDRESS":"進修街５５號三樓之４","OBJECTID":596354},"geometry":{"x":178989.72000000067,"y":2578546.5899999999}},{"attributes":{"ID":596382,"DIS_CODE":0,"TOWNNAME":"新營區","LI":"民生里","LIN":"27鄰","STREET":"進修街","SECT":" ","MAREA":" ","LANE":" ","ALLEY":" ","HOUSE_NO":"４９號四樓之６","E_COORD97":178965.32999999999,"N_COORD97":2578550.0299999998,"ADDRESS":"進修街４９號四樓之６","OBJECTID":596355},"geometry":{"x":178965.32999999914,"y":2578550.0299999993}},{"attributes":{"ID":596383,"DIS_CODE":0,"TOWNNAME":"新營區","LI":"新東里","LIN":"27鄰","STREET":"東興路","SECT":" ","MAREA":" ","LANE":" ","ALLEY":" ","HOUSE_NO":"２３７號十二樓","E_COORD97":180728.98000000001,"N_COORD97":2579641.3300000001,"ADDRESS":"東興路２３７號十二樓","OBJECTID":596356},"geometry":{"x":180728.98000000045,"y":2579641.3300000038}},{"attributes":{"ID":596384,"DIS_CODE":0,"TOWNNAME":"新營區","LI":"新東里","LIN":"27鄰","STREET":"東興路","SECT":" ","MAREA":" ","LANE":" ","ALLEY":" ","HOUSE_NO":"２３７號五樓","E_COORD97":180727.73000000001,"N_COORD97":2579641.3300000001,"ADDRESS":"東興路２３７號五樓","OBJECTID":596357},"geometry":{"x":180727.72999999952,"y":2579641.3300000038}},{"attributes":{"ID":596385,"DIS_CODE":0,"TOWNNAME":"新營區","LI":"新東里","LIN":"27鄰","STREET":"東興路","SECT":" ","MAREA":" ","LANE":" ","ALLEY":" ","HOUSE_NO":"２４３號五樓","E_COORD97":180727.73000000001,"N_COORD97":2579641.3300000001,"ADDRESS":"東興路２４３號五樓","OBJECTID":596358},"geometry":{"x":180727.72999999952,"y":2579641.3300000038}},{"attributes":{"ID":596386,"DIS_CODE":0,"TOWNNAME":"安平區","LI":"育平里","LIN":"27鄰","STREET":"郡平路","SECT":" ","MAREA":" ","LANE":" ","ALLEY":" ","HOUSE_NO":"１８１號十樓之２８","E_COORD97":164638.45000000001,"N_COORD97":2543300.3100000001,"ADDRESS":"郡平路１８１號十樓之２８","OBJECTID":596359},"geometry":{"x":164638.45000000019,"y":2543300.3099999987}},{"attributes":{"ID":596387,"DIS_CODE":0,"TOWNNAME":"安平區","LI":"育平里","LIN":"27鄰","STREET":"郡平路","SECT":" ","MAREA":" ","LANE":" ","ALLEY":" ","HOUSE_NO":"１８１號十樓之２９","E_COORD97":164638.45000000001,"N_COORD97":2543300.3100000001,"ADDRESS":"郡平路１８１號十樓之２９","OBJECTID":596360},"geometry":{"x":164638.45000000019,"y":2543300.3099999987}},{"attributes":{"ID":596388,"DIS_CODE":0,"TOWNNAME":"安平區","LI":"育平里","LIN":"27鄰","STREET":"郡平路","SECT":" ","MAREA":" ","LANE":" ","ALLEY":" ","HOUSE_NO":"１８１號十樓之３０","E_COORD97":164638.45000000001,"N_COORD97":2543300.3100000001,"ADDRESS":"郡平路１８１號十樓之３０","OBJECTID":596361},"geometry":{"x":164638.45000000019,"y":2543300.3099999987}},{"attributes":{"ID":596389,"DIS_CODE":0,"TOWNNAME":"安平區","LI":"育平里","LIN":"27鄰","STREET":"郡平路","SECT":" ","MAREA":" ","LANE":" ","ALLEY":" ","HOUSE_NO":"１８１號十樓之３１","E_COORD97":164638.45000000001,"N_COORD97":2543300.3100000001,"ADDRESS":"郡平路１８１號十樓之３１","OBJECTID":596362},"geometry":{"x":164638.45000000019,"y":2543300.3099999987}},{"attributes":{"ID":596390,"DIS_CODE":0,"TOWNNAME":"安平區","LI":"育平里","LIN":"27鄰","STREET":"郡平路","SECT":" ","MAREA":" ","LANE":" ","ALLEY":" ","HOUSE_NO":"１８１號十樓之３２","E_COORD97":164638.45000000001,"N_COORD97":2543300.3100000001,"ADDRESS":"郡平路１８１號十樓之３２","OBJECTID":596363},"geometry":{"x":164638.45000000019,"y":2543300.3099999987}},{"attributes":{"ID":596391,"DIS_CODE":0,"TOWNNAME":"安平區","LI":"育平里","LIN":"27鄰","STREET":"郡平路","SECT":" ","MAREA":" ","LANE":" ","ALLEY":" ","HOUSE_NO":"１８１號十樓之３３","E_COORD97":164638.45000000001,"N_COORD97":2543300.3100000001,"ADDRESS":"郡平路１８１號十樓之３３","OBJECTID":596364},"geometry":{"x":164638.45000000019,"y":2543300.3099999987}},{"attributes":{"ID":596392,"DIS_CODE":0,"TOWNNAME":"安平區","LI":"育平里","LIN":"27鄰","STREET":"郡平路","SECT":" ","MAREA":" ","LANE":" ","ALLEY":" ","HOUSE_NO":"１８１號十樓之３４","E_COORD97":164638.45000000001,"N_COORD97":2543300.3100000001,"ADDRESS":"郡平路１８１號十樓之３４","OBJECTID":596365},"geometry":{"x":164638.45000000019,"y":2543300.3099999987}},{"attributes":{"ID":596393,"DIS_CODE":0,"TOWNNAME":"安平區","LI":"育平里","LIN":"27鄰","STREET":"郡平路","SECT":" ","MAREA":" ","LANE":" ","ALLEY":" ","HOUSE_NO":"１８１號十樓之３５","E_COORD97":164638.45000000001,"N_COORD97":2543300.3100000001,"ADDRESS":"郡平路１８１號十樓之３５","OBJECTID":596366},"geometry":{"x":164638.45000000019,"y":2543300.3099999987}},{"attributes":{"ID":596394,"DIS_CODE":0,"TOWNNAME":"安平區","LI":"育平里","LIN":"27鄰","STREET":"郡平路","SECT":" ","MAREA":" ","LANE":" ","ALLEY":" ","HOUSE_NO":"１８１號三樓之２８","E_COORD97":164638.45000000001,"N_COORD97":2543300.3100000001,"ADDRESS":"郡平路１８１號三樓之２８","OBJECTID":596367},"geometry":{"x":164638.45000000019,"y":2543300.3099999987}},{"attributes":{"ID":596395,"DIS_CODE":0,"TOWNNAME":"安平區","LI":"育平里","LIN":"27鄰","STREET":"郡平路","SECT":" ","MAREA":" ","LANE":" ","ALLEY":" ","HOUSE_NO":"１８１號三樓之２９","E_COORD97":164638.45000000001,"N_COORD97":2543300.3100000001,"ADDRESS":"郡平路１８１號三樓之２９","OBJECTID":596368},"geometry":{"x":164638.45000000019,"y":2543300.3099999987}},{"attributes":{"ID":596396,"DIS_CODE":0,"TOWNNAME":"安平區","LI":"育平里","LIN":"27鄰","STREET":"郡平路","SECT":" ","MAREA":" ","LANE":" ","ALLEY":" ","HOUSE_NO":"１８１號三樓之３０","E_COORD97":164638.45000000001,"N_COORD97":2543300.3100000001,"ADDRESS":"郡平路１８１號三樓之３０","OBJECTID":596369},"geometry":{"x":164638.45000000019,"y":2543300.3099999987}},{"attributes":{"ID":596397,"DIS_CODE":0,"TOWNNAME":"安平區","LI":"育平里","LIN":"27鄰","STREET":"郡平路","SECT":" ","MAREA":" ","LANE":" ","ALLEY":" ","HOUSE_NO":"１８１號三樓之３１","E_COORD97":164638.45000000001,"N_COORD97":2543300.3100000001,"ADDRESS":"郡平路１８１號三樓之３１","OBJECTID":596370},"geometry":{"x":164638.45000000019,"y":2543300.3099999987}},{"attributes":{"ID":596398,"DIS_CODE":0,"TOWNNAME":"安平區","LI":"育平里","LIN":"27鄰","STREET":"郡平路","SECT":" ","MAREA":" ","LANE":" ","ALLEY":" ","HOUSE_NO":"１８１號三樓之３２","E_COORD97":164638.45000000001,"N_COORD97":2543300.3100000001,"ADDRESS":"郡平路１８１號三樓之３２","OBJECTID":596371},"geometry":{"x":164638.45000000019,"y":2543300.3099999987}},{"attributes":{"ID":596399,"DIS_CODE":0,"TOWNNAME":"安平區","LI":"育平里","LIN":"27鄰","STREET":"郡平路","SECT":" ","MAREA":" ","LANE":" ","ALLEY":" ","HOUSE_NO":"１８１號三樓之３３","E_COORD97":164638.45000000001,"N_COORD97":2543300.3100000001,"ADDRESS":"郡平路１８１號三樓之３３","OBJECTID":596372},"geometry":{"x":164638.45000000019,"y":2543300.3099999987}},{"attributes":{"ID":596400,"DIS_CODE":0,"TOWNNAME":"安平區","LI":"育平里","LIN":"27鄰","STREET":"郡平路","SECT":" ","MAREA":" ","LANE":" ","ALLEY":" ","HOUSE_NO":"１８１號三樓之３４","E_COORD97":164638.45000000001,"N_COORD97":2543300.3100000001,"ADDRESS":"郡平路１８１號三樓之３４","OBJECTID":596373},"geometry":{"x":164638.45000000019,"y":2543300.3099999987}},{"attributes":{"ID":596401,"DIS_CODE":0,"TOWNNAME":"安平區","LI":"育平里","LIN":"27鄰","STREET":"郡平路","SECT":" ","MAREA":" ","LANE":" ","ALLEY":" ","HOUSE_NO":"１８１號三樓之３５","E_COORD97":164638.45000000001,"N_COORD97":2543300.3100000001,"ADDRESS":"郡平路１８１號三樓之３５","OBJECTID":596374},"geometry":{"x":164638.45000000019,"y":2543300.3099999987}},{"attributes":{"ID":596402,"DIS_CODE":0,"TOWNNAME":"安平區","LI":"育平里","LIN":"27鄰","STREET":"郡平路","SECT":" ","MAREA":" ","LANE":" ","ALLEY":" ","HOUSE_NO":"１８１號五樓之２８","E_COORD97":164638.45000000001,"N_COORD97":2543300.3100000001,"ADDRESS":"郡平路１８１號五樓之２８","OBJECTID":596375},"geometry":{"x":164638.45000000019,"y":2543300.3099999987}},{"attributes":{"ID":596403,"DIS_CODE":0,"TOWNNAME":"安平區","LI":"育平里","LIN":"27鄰","STREET":"郡平路","SECT":" ","MAREA":" ","LANE":" ","ALLEY":" ","HOUSE_NO":"１８１號五樓之２９","E_COORD97":164638.45000000001,"N_COORD97":2543300.3100000001,"ADDRESS":"郡平路１８１號五樓之２９","OBJECTID":596376},"geometry":{"x":164638.45000000019,"y":2543300.3099999987}},{"attributes":{"ID":596404,"DIS_CODE":0,"TOWNNAME":"安平區","LI":"育平里","LIN":"27鄰","STREET":"郡平路","SECT":" ","MAREA":" ","LANE":" ","ALLEY":" ","HOUSE_NO":"１８１號五樓之３０","E_COORD97":164638.45000000001,"N_COORD97":2543300.3100000001,"ADDRESS":"郡平路１８１號五樓之３０","OBJECTID":596377},"geometry":{"x":164638.45000000019,"y":2543300.3099999987}},{"attributes":{"ID":596405,"DIS_CODE":0,"TOWNNAME":"安平區","LI":"育平里","LIN":"27鄰","STREET":"郡平路","SECT":" ","MAREA":" ","LANE":" ","ALLEY":" ","HOUSE_NO":"１８１號五樓之３１","E_COORD97":164638.45000000001,"N_COORD97":2543300.3100000001,"ADDRESS":"郡平路１８１號五樓之３１","OBJECTID":596378},"geometry":{"x":164638.45000000019,"y":2543300.3099999987}},{"attributes":{"ID":596406,"DIS_CODE":0,"TOWNNAME":"安平區","LI":"育平里","LIN":"27鄰","STREET":"郡平路","SECT":" ","MAREA":" ","LANE":" ","ALLEY":" ","HOUSE_NO":"１８１號五樓之３２","E_COORD97":164638.45000000001,"N_COORD97":2543300.3100000001,"ADDRESS":"郡平路１８１號五樓之３２","OBJECTID":596379},"geometry":{"x":164638.45000000019,"y":2543300.3099999987}},{"attributes":{"ID":596407,"DIS_CODE":0,"TOWNNAME":"安平區","LI":"育平里","LIN":"27鄰","STREET":"郡平路","SECT":" ","MAREA":" ","LANE":" ","ALLEY":" ","HOUSE_NO":"１８１號五樓之３３","E_COORD97":164638.45000000001,"N_COORD97":2543300.3100000001,"ADDRESS":"郡平路１８１號五樓之３３","OBJECTID":596380},"geometry":{"x":164638.45000000019,"y":2543300.3099999987}},{"attributes":{"ID":596408,"DIS_CODE":0,"TOWNNAME":"安平區","LI":"育平里","LIN":"27鄰","STREET":"郡平路","SECT":" ","MAREA":" ","LANE":" ","ALLEY":" ","HOUSE_NO":"１８１號五樓之３４","E_COORD97":164638.45000000001,"N_COORD97":2543300.3100000001,"ADDRESS":"郡平路１８１號五樓之３４","OBJECTID":596381},"geometry":{"x":164638.45000000019,"y":2543300.3099999987}},{"attributes":{"ID":596409,"DIS_CODE":0,"TOWNNAME":"安平區","LI":"育平里","LIN":"27鄰","STREET":"郡平路","SECT":" ","MAREA":" ","LANE":" ","ALLEY":" ","HOUSE_NO":"１８１號五樓之３５","E_COORD97":164638.45000000001,"N_COORD97":2543300.3100000001,"ADDRESS":"郡平路１８１號五樓之３５","OBJECTID":596382},"geometry":{"x":164638.45000000019,"y":2543300.3099999987}},{"attributes":{"ID":596410,"DIS_CODE":0,"TOWNNAME":"安平區","LI":"育平里","LIN":"27鄰","STREET":"郡平路","SECT":" ","MAREA":" ","LANE":" ","ALLEY":" ","HOUSE_NO":"１８１號六樓之２８","E_COORD97":164638.45000000001,"N_COORD97":2543300.3100000001,"ADDRESS":"郡平路１８１號六樓之２８","OBJECTID":596383},"geometry":{"x":164638.45000000019,"y":2543300.3099999987}},{"attributes":{"ID":596411,"DIS_CODE":0,"TOWNNAME":"安平區","LI":"育平里","LIN":"27鄰","STREET":"郡平路","SECT":" ","MAREA":" ","LANE":" ","ALLEY":" ","HOUSE_NO":"１８１號六樓之２９","E_COORD97":164638.45000000001,"N_COORD97":2543300.3100000001,"ADDRESS":"郡平路１８１號六樓之２９","OBJECTID":596384},"geometry":{"x":164638.45000000019,"y":2543300.3099999987}},{"attributes":{"ID":596412,"DIS_CODE":0,"TOWNNAME":"安平區","LI":"育平里","LIN":"27鄰","STREET":"郡平路","SECT":" ","MAREA":" ","LANE":" ","ALLEY":" ","HOUSE_NO":"１８１號六樓之３０","E_COORD97":164638.45000000001,"N_COORD97":2543300.3100000001,"ADDRESS":"郡平路１８１號六樓之３０","OBJECTID":596385},"geometry":{"x":164638.45000000019,"y":2543300.3099999987}},{"attributes":{"ID":596413,"DIS_CODE":0,"TOWNNAME":"安平區","LI":"育平里","LIN":"27鄰","STREET":"郡平路","SECT":" ","MAREA":" ","LANE":" ","ALLEY":" ","HOUSE_NO":"１８１號六樓之３１","E_COORD97":164638.45000000001,"N_COORD97":2543300.3100000001,"ADDRESS":"郡平路１８１號六樓之３１","OBJECTID":596386},"geometry":{"x":164638.45000000019,"y":2543300.3099999987}},{"attributes":{"ID":596414,"DIS_CODE":0,"TOWNNAME":"安平區","LI":"育平里","LIN":"27鄰","STREET":"郡平路","SECT":" ","MAREA":" ","LANE":" ","ALLEY":" ","HOUSE_NO":"１８１號六樓之３２","E_COORD97":164638.45000000001,"N_COORD97":2543300.3100000001,"ADDRESS":"郡平路１８１號六樓之３２","OBJECTID":596387},"geometry":{"x":164638.45000000019,"y":2543300.3099999987}},{"attributes":{"ID":596415,"DIS_CODE":0,"TOWNNAME":"安平區","LI":"育平里","LIN":"27鄰","STREET":"郡平路","SECT":" ","MAREA":" ","LANE":" ","ALLEY":" ","HOUSE_NO":"１８１號六樓之３３","E_COORD97":164638.45000000001,"N_COORD97":2543300.3100000001,"ADDRESS":"郡平路１８１號六樓之３３","OBJECTID":596388},"geometry":{"x":164638.45000000019,"y":2543300.3099999987}},{"attributes":{"ID":596416,"DIS_CODE":0,"TOWNNAME":"安平區","LI":"育平里","LIN":"27鄰","STREET":"郡平路","SECT":" ","MAREA":" ","LANE":" ","ALLEY":" ","HOUSE_NO":"１８１號六樓之３４","E_COORD97":164638.45000000001,"N_COORD97":2543300.3100000001,"ADDRESS":"郡平路１８１號六樓之３４","OBJECTID":596389},"geometry":{"x":164638.45000000019,"y":2543300.3099999987}},{"attributes":{"ID":596417,"DIS_CODE":0,"TOWNNAME":"安平區","LI":"育平里","LIN":"27鄰","STREET":"郡平路","SECT":" ","MAREA":" ","LANE":" ","ALLEY":" ","HOUSE_NO":"１８１號六樓之３５","E_COORD97":164638.45000000001,"N_COORD97":2543300.3100000001,"ADDRESS":"郡平路１８１號六樓之３５","OBJECTID":596390},"geometry":{"x":164638.45000000019,"y":2543300.3099999987}},{"attributes":{"ID":596418,"DIS_CODE":0,"TOWNNAME":"安平區","LI":"育平里","LIN":"27鄰","STREET":"郡平路","SECT":" ","MAREA":" ","LANE":" ","ALLEY":" ","HOUSE_NO":"１８１號四樓之２８","E_COORD97":164638.45000000001,"N_COORD97":2543300.3100000001,"ADDRESS":"郡平路１８１號四樓之２８","OBJECTID":596391},"geometry":{"x":164638.45000000019,"y":2543300.3099999987}},{"attributes":{"ID":596419,"DIS_CODE":0,"TOWNNAME":"安平區","LI":"育平里","LIN":"27鄰","STREET":"郡平路","SECT":" ","MAREA":" ","LANE":" ","ALLEY":" ","HOUSE_NO":"１８１號四樓之２９","E_COORD97":164638.45000000001,"N_COORD97":2543300.3100000001,"ADDRESS":"郡平路１８１號四樓之２９","OBJECTID":596392},"geometry":{"x":164638.45000000019,"y":2543300.3099999987}},{"attributes":{"ID":596420,"DIS_CODE":0,"TOWNNAME":"安平區","LI":"育平里","LIN":"27鄰","STREET":"郡平路","SECT":" ","MAREA":" ","LANE":" ","ALLEY":" ","HOUSE_NO":"１８１號四樓之３０","E_COORD97":164638.45000000001,"N_COORD97":2543300.3100000001,"ADDRESS":"郡平路１８１號四樓之３０","OBJECTID":596393},"geometry":{"x":164638.45000000019,"y":2543300.3099999987}},{"attributes":{"ID":596421,"DIS_CODE":0,"TOWNNAME":"安平區","LI":"育平里","LIN":"27鄰","STREET":"郡平路","SECT":" ","MAREA":" ","LANE":" ","ALLEY":" ","HOUSE_NO":"１８１號四樓之３１","E_COORD97":164638.45000000001,"N_COORD97":2543300.3100000001,"ADDRESS":"郡平路１８１號四樓之３１","OBJECTID":596394},"geometry":{"x":164638.45000000019,"y":2543300.3099999987}},{"attributes":{"ID":596422,"DIS_CODE":0,"TOWNNAME":"安平區","LI":"育平里","LIN":"27鄰","STREET":"郡平路","SECT":" ","MAREA":" ","LANE":" ","ALLEY":" ","HOUSE_NO":"１８１號四樓之３２","E_COORD97":164638.45000000001,"N_COORD97":2543300.3100000001,"ADDRESS":"郡平路１８１號四樓之３２","OBJECTID":596395},"geometry":{"x":164638.45000000019,"y":2543300.3099999987}},{"attributes":{"ID":596423,"DIS_CODE":0,"TOWNNAME":"安平區","LI":"育平里","LIN":"27鄰","STREET":"郡平路","SECT":" ","MAREA":" ","LANE":" ","ALLEY":" ","HOUSE_NO":"１８１號四樓之３３","E_COORD97":164638.45000000001,"N_COORD97":2543300.3100000001,"ADDRESS":"郡平路１８１號四樓之３３","OBJECTID":596396},"geometry":{"x":164638.45000000019,"y":2543300.3099999987}},{"attributes":{"ID":596424,"DIS_CODE":0,"TOWNNAME":"安平區","LI":"育平里","LIN":"27鄰","STREET":"郡平路","SECT":" ","MAREA":" ","LANE":" ","ALLEY":" ","HOUSE_NO":"１８１號四樓之３４","E_COORD97":164638.45000000001,"N_COORD97":2543300.3100000001,"ADDRESS":"郡平路１８１號四樓之３４","OBJECTID":596397},"geometry":{"x":164638.45000000019,"y":2543300.3099999987}},{"attributes":{"ID":596425,"DIS_CODE":0,"TOWNNAME":"安平區","LI":"育平里","LIN":"27鄰","STREET":"郡平路","SECT":" ","MAREA":" ","LANE":" ","ALLEY":" ","HOUSE_NO":"１８１號四樓之３５","E_COORD97":164638.45000000001,"N_COORD97":2543300.3100000001,"ADDRESS":"郡平路１８１號四樓之３５","OBJECTID":596398},"geometry":{"x":164638.45000000019,"y":2543300.3099999987}},{"attributes":{"ID":596426,"DIS_CODE":0,"TOWNNAME":"歸仁區","LI":"辜厝里","LIN":"27鄰","STREET":"大順三街","SECT":" ","MAREA":" ","LANE":" ","ALLEY":" ","HOUSE_NO":"１５號六樓之３","E_COORD97":177377.48000000001,"N_COORD97":2540558.1600000001,"ADDRESS":"大順三街１５號六樓之３","OBJECTID":596399},"geometry":{"x":177377.48000000045,"y":2540558.1599999983}},{"attributes":{"ID":596427,"DIS_CODE":0,"TOWNNAME":"歸仁區","LI":"辜厝里","LIN":"27鄰","STREET":"大順三街","SECT":" ","MAREA":" ","LANE":" ","ALLEY":" ","HOUSE_NO":"１５號四樓之１","E_COORD97":177377.45999999999,"N_COORD97":2540558.1600000001,"ADDRESS":"大順三街１５號四樓之１","OBJECTID":596400},"geometry":{"x":177377.45999999996,"y":2540558.1599999983}}]}