{"displayFieldName":"TOWNNAME","fieldAliases":{"ID":"ID","DIS_CODE":"DIS_CODE","TOWNNAME":"TOWNNAME","LI":"LI","LIN":"LIN","STREET":"STREET","SECT":"SECT","MAREA":"MAREA","LANE":"LANE","ALLEY":"ALLEY","HOUSE_NO":"HOUSE_NO","E_COORD97":"E_COORD97","N_COORD97":"N_COORD97","ADDRESS":"ADDRESS","OBJECTID":"OBJECTID"},"geometryType":"esriGeometryPoint","spatialReference":{"wkid":102443,"latestWkid":3826},"fields":[{"name":"ID","type":"esriFieldTypeDouble","alias":"ID"},{"name":"DIS_CODE","type":"esriFieldTypeInteger","alias":"DIS_CODE"},{"name":"TOWNNAME","type":"esriFieldTypeString","alias":"TOWNNAME","length":8},{"name":"LI","type":"esriFieldTypeString","alias":"LI","length":8},{"name":"LIN","type":"esriFieldTypeString","alias":"LIN","length":12},{"name":"STREET","type":"esriFieldTypeString","alias":"STREET","length":20},{"name":"SECT","type":"esriFieldTypeString","alias":"SECT","length":8},{"name":"MAREA","type":"esriFieldTypeString","alias":"MAREA","length":12},{"name":"LANE","type":"esriFieldTypeString","alias":"LANE","length":10},{"name":"ALLEY","type":"esriFieldTypeString","alias":"ALLEY","length":10},{"name":"HOUSE_NO","type":"esriFieldTypeString","alias":"HOUSE_NO","length":20},{"name":"E_COORD97","type":"esriFieldTypeDouble","alias":"E_COORD97"},{"name":"N_COORD97","type":"esriFieldTypeDouble","alias":"N_COORD97"},{"name":"ADDRESS","type":"esriFieldTypeString","alias":"ADDRESS","length":50},{"name":"OBJECTID","type":"esriFieldTypeOID","alias":"OBJECTID"}],"features":[{"attributes":{"ID":207002,"DIS_CODE":0,"TOWNNAME":"新化區","LI":"山\u25A0里","LIN":"2鄰","STREET":" ","SECT":" ","MAREA":"頂山\u25A0","LANE":" ","ALLEY":" ","HOUSE_NO":"５４號之１４５","E_COORD97":179341.73999999999,"N_COORD97":2546120.2599999998,"ADDRESS":"頂山\u25A0５４號之１４５","OBJECTID":207001},"geometry":{"x":179341.74000000022,"y":2546120.2599999998}},{"attributes":{"ID":207003,"DIS_CODE":0,"TOWNNAME":"新化區","LI":"山\u25A0里","LIN":"2鄰","STREET":" ","SECT":" ","MAREA":"頂山\u25A0","LANE":" ","ALLEY":" ","HOUSE_NO":"５４號之１５７","E_COORD97":179322.42000000001,"N_COORD97":2546157.2599999998,"ADDRESS":"頂山\u25A0５４號之１５７","OBJECTID":207002},"geometry":{"x":179322.42000000179,"y":2546157.2599999998}},{"attributes":{"ID":207004,"DIS_CODE":0,"TOWNNAME":"新化區","LI":"全興里","LIN":"2鄰","STREET":" ","SECT":" ","MAREA":"竹子\u25A0","LANE":" ","ALLEY":" ","HOUSE_NO":"２００號之３３","E_COORD97":177972.23000000001,"N_COORD97":2547677.2599999998,"ADDRESS":"竹子\u25A0２００號之３３","OBJECTID":207003},"geometry":{"x":177972.23000000138,"y":2547677.2600000035}},{"attributes":{"ID":207005,"DIS_CODE":0,"TOWNNAME":"新化區","LI":"崙頂里","LIN":"2鄰","STREET":" ","SECT":" ","MAREA":"崙子頂","LANE":" ","ALLEY":" ","HOUSE_NO":"８０號之２","E_COORD97":176868.23000000001,"N_COORD97":2546780.2599999998,"ADDRESS":"崙子頂８０號之２","OBJECTID":207004},"geometry":{"x":176868.23000000138,"y":2546780.2600000016}},{"attributes":{"ID":207006,"DIS_CODE":0,"TOWNNAME":"新化區","LI":"山\u25A0里","LIN":"2鄰","STREET":" ","SECT":" ","MAREA":"頂山\u25A0","LANE":" ","ALLEY":" ","HOUSE_NO":"５４號之１９０","E_COORD97":179261.22,"N_COORD97":2546178.2599999998,"ADDRESS":"頂山\u25A0５４號之１９０","OBJECTID":207005},"geometry":{"x":179261.22000000067,"y":2546178.2599999979}},{"attributes":{"ID":207007,"DIS_CODE":0,"TOWNNAME":"新化區","LI":"山\u25A0里","LIN":"2鄰","STREET":" ","SECT":" ","MAREA":"頂山\u25A0","LANE":" ","ALLEY":" ","HOUSE_NO":"５４號之１５９","E_COORD97":179309.82000000001,"N_COORD97":2546162.2599999998,"ADDRESS":"頂山\u25A0５４號之１５９","OBJECTID":207006},"geometry":{"x":179309.82000000216,"y":2546162.2600000016}},{"attributes":{"ID":207008,"DIS_CODE":0,"TOWNNAME":"新化區","LI":"\u25A0拔里","LIN":"2鄰","STREET":" ","SECT":" ","MAREA":"\u25A0拔林","LANE":" ","ALLEY":" ","HOUSE_NO":"８７號之１２","E_COORD97":183217.88,"N_COORD97":2552244.2599999998,"ADDRESS":"\u25A0拔林８７號之１２","OBJECTID":207007},"geometry":{"x":183217.87999999989,"y":2552244.2600000016}},{"attributes":{"ID":207009,"DIS_CODE":0,"TOWNNAME":"新化區","LI":"知義里","LIN":"2鄰","STREET":" ","SECT":" ","MAREA":"知母義","LANE":" ","ALLEY":" ","HOUSE_NO":"６２號之１","E_COORD97":179804.39999999999,"N_COORD97":2547005.2599999998,"ADDRESS":"知母義６２號之１","OBJECTID":207008},"geometry":{"x":179804.40000000224,"y":2547005.2599999998}},{"attributes":{"ID":207010,"DIS_CODE":0,"TOWNNAME":"新化區","LI":"崙頂里","LIN":"2鄰","STREET":" ","SECT":" ","MAREA":"崙子頂","LANE":" ","ALLEY":" ","HOUSE_NO":"８５號之５","E_COORD97":176899.44,"N_COORD97":2546649.2599999998,"ADDRESS":"崙子頂８５號之５","OBJECTID":207009},"geometry":{"x":176899.44000000134,"y":2546649.2599999998}},{"attributes":{"ID":207011,"DIS_CODE":0,"TOWNNAME":"新化區","LI":"山\u25A0里","LIN":"2鄰","STREET":" ","SECT":" ","MAREA":"頂山\u25A0","LANE":" ","ALLEY":" ","HOUSE_NO":"５４號之１７４","E_COORD97":179279.41,"N_COORD97":2546179.2599999998,"ADDRESS":"頂山\u25A0５４號之１７４","OBJECTID":207010},"geometry":{"x":179279.41000000108,"y":2546179.2600000016}},{"attributes":{"ID":207012,"DIS_CODE":0,"TOWNNAME":"新化區","LI":"山\u25A0里","LIN":"2鄰","STREET":" ","SECT":" ","MAREA":"頂山\u25A0","LANE":" ","ALLEY":" ","HOUSE_NO":"５６號","E_COORD97":179405.28,"N_COORD97":2546665.25,"ADDRESS":"頂山\u25A0５６號","OBJECTID":207011},"geometry":{"x":179405.28000000119,"y":2546665.2500000019}},{"attributes":{"ID":207013,"DIS_CODE":0,"TOWNNAME":"新化區","LI":"北勢里","LIN":"2鄰","STREET":" ","SECT":" ","MAREA":"北勢","LANE":" ","ALLEY":" ","HOUSE_NO":"２４號之２","E_COORD97":177421.98999999999,"N_COORD97":2549493.2599999998,"ADDRESS":"北勢２４號之２","OBJECTID":207012},"geometry":{"x":177421.99000000209,"y":2549493.2599999998}},{"attributes":{"ID":207014,"DIS_CODE":0,"TOWNNAME":"新化區","LI":"\u25A0拔里","LIN":"2鄰","STREET":" ","SECT":" ","MAREA":"\u25A0拔林","LANE":" ","ALLEY":" ","HOUSE_NO":"９５號之３","E_COORD97":183532.42000000001,"N_COORD97":2552146.2599999998,"ADDRESS":"\u25A0拔林９５號之３","OBJECTID":207013},"geometry":{"x":183532.41999999993,"y":2552146.2600000016}},{"attributes":{"ID":207015,"DIS_CODE":0,"TOWNNAME":"新化區","LI":"\u25A0拔里","LIN":"2鄰","STREET":" ","SECT":" ","MAREA":"\u25A0拔林","LANE":" ","ALLEY":" ","HOUSE_NO":"９１號之１","E_COORD97":183422.60000000001,"N_COORD97":2552090.2599999998,"ADDRESS":"\u25A0拔林９１號之１","OBJECTID":207014},"geometry":{"x":183422.59999999963,"y":2552090.2599999998}},{"attributes":{"ID":207016,"DIS_CODE":0,"TOWNNAME":"新化區","LI":"北勢里","LIN":"2鄰","STREET":" ","SECT":" ","MAREA":"北勢","LANE":" ","ALLEY":" ","HOUSE_NO":"２７號之１２","E_COORD97":177547.44,"N_COORD97":2549520.2599999998,"ADDRESS":"北勢２７號之１２","OBJECTID":207015},"geometry":{"x":177547.44000000041,"y":2549520.2599999998}},{"attributes":{"ID":207017,"DIS_CODE":0,"TOWNNAME":"新化區","LI":"\u25A0拔里","LIN":"2鄰","STREET":" ","SECT":" ","MAREA":"\u25A0拔林","LANE":" ","ALLEY":" ","HOUSE_NO":"９３號之４","E_COORD97":183519.41,"N_COORD97":2552120.2599999998,"ADDRESS":"\u25A0拔林９３號之４","OBJECTID":207016},"geometry":{"x":183519.41000000015,"y":2552120.2599999998}},{"attributes":{"ID":207018,"DIS_CODE":0,"TOWNNAME":"新化區","LI":"知義里","LIN":"2鄰","STREET":" ","SECT":" ","MAREA":"知母義","LANE":" ","ALLEY":" ","HOUSE_NO":"１３８號","E_COORD97":179815.51999999999,"N_COORD97":2547027.25,"ADDRESS":"知母義１３８號","OBJECTID":207017},"geometry":{"x":179815.51999999955,"y":2547027.2500000019}},{"attributes":{"ID":207019,"DIS_CODE":0,"TOWNNAME":"新化區","LI":"\u25A0拔里","LIN":"2鄰","STREET":" ","SECT":" ","MAREA":"\u25A0拔林","LANE":" ","ALLEY":" ","HOUSE_NO":"９０號","E_COORD97":183447.76999999999,"N_COORD97":2552104.25,"ADDRESS":"\u25A0拔林９０號","OBJECTID":207018},"geometry":{"x":183447.77000000048,"y":2552104.25}},{"attributes":{"ID":207020,"DIS_CODE":0,"TOWNNAME":"新化區","LI":"\u25A0拔里","LIN":"2鄰","STREET":" ","SECT":" ","MAREA":"\u25A0拔林","LANE":" ","ALLEY":" ","HOUSE_NO":"８９號之２","E_COORD97":183166.32999999999,"N_COORD97":2552251.2599999998,"ADDRESS":"\u25A0拔林８９號之２","OBJECTID":207019},"geometry":{"x":183166.33000000101,"y":2552251.2600000016}},{"attributes":{"ID":207021,"DIS_CODE":0,"TOWNNAME":"新化區","LI":"山\u25A0里","LIN":"2鄰","STREET":" ","SECT":" ","MAREA":"頂山\u25A0","LANE":" ","ALLEY":" ","HOUSE_NO":"７３號之１","E_COORD97":179564.51000000001,"N_COORD97":2546635.2599999998,"ADDRESS":"頂山\u25A0７３號之１","OBJECTID":207020},"geometry":{"x":179564.51000000071,"y":2546635.2599999998}},{"attributes":{"ID":207022,"DIS_CODE":0,"TOWNNAME":"關廟區","LI":"深坑里","LIN":"2鄰","STREET":"南雄路","SECT":"一段","MAREA":" ","LANE":"２６６巷","ALLEY":" ","HOUSE_NO":"５２號","E_COORD97":181883.72,"N_COORD97":2537473.2999999998,"ADDRESS":"南雄路一段２６６巷５２號","OBJECTID":207021},"geometry":{"x":181883.72000000067,"y":2537473.3000000026}},{"attributes":{"ID":207023,"DIS_CODE":0,"TOWNNAME":"關廟區","LI":"深坑里","LIN":"2鄰","STREET":"深坑一街","SECT":" ","MAREA":" ","LANE":"１３巷","ALLEY":" ","HOUSE_NO":"６號","E_COORD97":181849.47,"N_COORD97":2537586.2999999998,"ADDRESS":"深坑一街１３巷６號","OBJECTID":207022},"geometry":{"x":181849.4700000016,"y":2537586.3000000026}},{"attributes":{"ID":207024,"DIS_CODE":0,"TOWNNAME":"關廟區","LI":"布袋里","LIN":"2鄰","STREET":"長裕街","SECT":" ","MAREA":" ","LANE":"２３１巷","ALLEY":" ","HOUSE_NO":"１５號","E_COORD97":181868.94,"N_COORD97":2535686.2999999998,"ADDRESS":"長裕街２３１巷１５號","OBJECTID":207023},"geometry":{"x":181868.94000000227,"y":2535686.3000000045}},{"attributes":{"ID":207025,"DIS_CODE":0,"TOWNNAME":"關廟區","LI":"深坑里","LIN":"2鄰","STREET":"南雄路","SECT":"一段","MAREA":" ","LANE":"２６６巷","ALLEY":" ","HOUSE_NO":"５６號","E_COORD97":181878.72,"N_COORD97":2537479.2999999998,"ADDRESS":"南雄路一段２６６巷５６號","OBJECTID":207024},"geometry":{"x":181878.72000000067,"y":2537479.2999999989}},{"attributes":{"ID":207026,"DIS_CODE":0,"TOWNNAME":"關廟區","LI":"布袋里","LIN":"2鄰","STREET":"長裕街","SECT":" ","MAREA":" ","LANE":"２３７巷","ALLEY":" ","HOUSE_NO":"９號","E_COORD97":181848.23999999999,"N_COORD97":2535765.2999999998,"ADDRESS":"長裕街２３７巷９號","OBJECTID":207025},"geometry":{"x":181848.24000000115,"y":2535765.3000000026}},{"attributes":{"ID":207027,"DIS_CODE":0,"TOWNNAME":"北區","LI":"安民里","LIN":"9鄰","STREET":"成功路","SECT":" ","MAREA":" ","LANE":" ","ALLEY":" ","HOUSE_NO":"３８８號八樓之１２","E_COORD97":167989.98999999999,"N_COORD97":2544544.8100000001,"ADDRESS":"成功路３８８號八樓之１２","OBJECTID":207026},"geometry":{"x":167989.99000000115,"y":2544544.8100000042}},{"attributes":{"ID":207028,"DIS_CODE":0,"TOWNNAME":"北區","LI":"安民里","LIN":"9鄰","STREET":"成功路","SECT":" ","MAREA":" ","LANE":" ","ALLEY":" ","HOUSE_NO":"３８８號八樓之１３","E_COORD97":167989.98999999999,"N_COORD97":2544544.8100000001,"ADDRESS":"成功路３８８號八樓之１３","OBJECTID":207027},"geometry":{"x":167989.99000000115,"y":2544544.8100000042}},{"attributes":{"ID":207029,"DIS_CODE":0,"TOWNNAME":"北區","LI":"成德里","LIN":"22鄰","STREET":"北安路","SECT":"一段","MAREA":" ","LANE":"３４１巷","ALLEY":"３１弄","HOUSE_NO":"６號","E_COORD97":168443.14999999999,"N_COORD97":2546756.7200000002,"ADDRESS":"北安路一段３４１巷３１弄６號","OBJECTID":207028},"geometry":{"x":168443.14999999944,"y":2546756.7200000025}},{"attributes":{"ID":207030,"DIS_CODE":0,"TOWNNAME":"關廟區","LI":"深坑里","LIN":"2鄰","STREET":"南雄路","SECT":"一段","MAREA":" ","LANE":"２６６巷","ALLEY":" ","HOUSE_NO":"６０號","E_COORD97":181867.87,"N_COORD97":2537491.2999999998,"ADDRESS":"南雄路一段２６６巷６０號","OBJECTID":207029},"geometry":{"x":181867.87000000104,"y":2537491.3000000026}},{"attributes":{"ID":207031,"DIS_CODE":0,"TOWNNAME":"關廟區","LI":"深坑里","LIN":"2鄰","STREET":"南雄路","SECT":"一段","MAREA":" ","LANE":" ","ALLEY":" ","HOUSE_NO":"３１８號","E_COORD97":181848.67000000001,"N_COORD97":2537478.2999999998,"ADDRESS":"南雄路一段３１８號","OBJECTID":207030},"geometry":{"x":181848.67000000086,"y":2537478.3000000007}},{"attributes":{"ID":207032,"DIS_CODE":0,"TOWNNAME":"關廟區","LI":"布袋里","LIN":"2鄰","STREET":"長裕街","SECT":" ","MAREA":" ","LANE":"２３７巷","ALLEY":" ","HOUSE_NO":"１１號","E_COORD97":181851.34,"N_COORD97":2535753.2999999998,"ADDRESS":"長裕街２３７巷１１號","OBJECTID":207031},"geometry":{"x":181851.33999999985,"y":2535753.3000000007}},{"attributes":{"ID":207033,"DIS_CODE":0,"TOWNNAME":"關廟區","LI":"深坑里","LIN":"2鄰","STREET":"南雄路","SECT":"一段","MAREA":" ","LANE":" ","ALLEY":" ","HOUSE_NO":"３２２號","E_COORD97":181841.37,"N_COORD97":2537485.2999999998,"ADDRESS":"南雄路一段３２２號","OBJECTID":207032},"geometry":{"x":181841.37000000011,"y":2537485.3000000007}},{"attributes":{"ID":207034,"DIS_CODE":0,"TOWNNAME":"關廟區","LI":"深坑里","LIN":"2鄰","STREET":"深坑一街","SECT":" ","MAREA":" ","LANE":" ","ALLEY":" ","HOUSE_NO":"３號","E_COORD97":181832.17000000001,"N_COORD97":2537544.2999999998,"ADDRESS":"深坑一街３號","OBJECTID":207033},"geometry":{"x":181832.16999999993,"y":2537544.3000000026}},{"attributes":{"ID":207035,"DIS_CODE":0,"TOWNNAME":"南化區","LI":"北寮里","LIN":"2鄰","STREET":" ","SECT":" ","MAREA":"北寮","LANE":" ","ALLEY":" ","HOUSE_NO":"３２之１號","E_COORD97":197732.19,"N_COORD97":2553108.7999999998,"ADDRESS":"北寮３２之１號","OBJECTID":207034},"geometry":{"x":197732.19000000041,"y":2553108.8000000007}},{"attributes":{"ID":207036,"DIS_CODE":0,"TOWNNAME":"南化區","LI":"北寮里","LIN":"2鄰","STREET":" ","SECT":" ","MAREA":"北寮","LANE":" ","ALLEY":" ","HOUSE_NO":"３１之１號","E_COORD97":197731.29000000001,"N_COORD97":2553085.7999999998,"ADDRESS":"北寮３１之１號","OBJECTID":207035},"geometry":{"x":197731.28999999911,"y":2553085.8000000026}},{"attributes":{"ID":207037,"DIS_CODE":0,"TOWNNAME":"南化區","LI":"北寮里","LIN":"2鄰","STREET":" ","SECT":" ","MAREA":"北寮","LANE":" ","ALLEY":" ","HOUSE_NO":"３４之２號","E_COORD97":197741.69,"N_COORD97":2553126.7999999998,"ADDRESS":"北寮３４之２號","OBJECTID":207036},"geometry":{"x":197741.69000000134,"y":2553126.8000000026}},{"attributes":{"ID":207038,"DIS_CODE":0,"TOWNNAME":"左鎮區","LI":"中正里","LIN":"2鄰","STREET":" ","SECT":" ","MAREA":"中正","LANE":" ","ALLEY":" ","HOUSE_NO":"３５之２號","E_COORD97":188892.25,"N_COORD97":2551162.9500000002,"ADDRESS":"中正３５之２號","OBJECTID":207037},"geometry":{"x":188892.25,"y":2551162.9499999993}},{"attributes":{"ID":207039,"DIS_CODE":0,"TOWNNAME":"左鎮區","LI":"中正里","LIN":"2鄰","STREET":" ","SECT":" ","MAREA":"中正","LANE":" ","ALLEY":" ","HOUSE_NO":"３５之３號","E_COORD97":188893.10000000001,"N_COORD97":2551159.3100000001,"ADDRESS":"中正３５之３號","OBJECTID":207038},"geometry":{"x":188893.09999999963,"y":2551159.3100000042}},{"attributes":{"ID":207040,"DIS_CODE":0,"TOWNNAME":"新市區","LI":"三舍里","LIN":"2鄰","STREET":" ","SECT":" ","MAREA":"三舍","LANE":" ","ALLEY":" ","HOUSE_NO":"５４之７號","E_COORD97":177981.54000000001,"N_COORD97":2554412.5499999998,"ADDRESS":"三舍５４之７號","OBJECTID":207039},"geometry":{"x":177981.54000000097,"y":2554412.5499999989}},{"attributes":{"ID":207041,"DIS_CODE":0,"TOWNNAME":"新市區","LI":"大營里","LIN":"2鄰","STREET":" ","SECT":" ","MAREA":"大營","LANE":" ","ALLEY":" ","HOUSE_NO":"２５之１號","E_COORD97":179662.67999999999,"N_COORD97":2555616.7999999998,"ADDRESS":"大營２５之１號","OBJECTID":207040},"geometry":{"x":179662.67999999877,"y":2555616.8000000007}},{"attributes":{"ID":207042,"DIS_CODE":0,"TOWNNAME":"新市區","LI":"大洲里","LIN":"2鄰","STREET":" ","SECT":" ","MAREA":"大洲","LANE":" ","ALLEY":" ","HOUSE_NO":"７之５號","E_COORD97":174537.45999999999,"N_COORD97":2552474.7999999998,"ADDRESS":"大洲７之５號","OBJECTID":207041},"geometry":{"x":174537.45999999996,"y":2552474.8000000007}},{"attributes":{"ID":207043,"DIS_CODE":0,"TOWNNAME":"關廟區","LI":"埤頭里","LIN":"2鄰","STREET":"關新路","SECT":"一段","MAREA":" ","LANE":"８１３巷","ALLEY":" ","HOUSE_NO":"２１號","E_COORD97":179058.47,"N_COORD97":2543814.2999999998,"ADDRESS":"關新路一段８１３巷２１號","OBJECTID":207042},"geometry":{"x":179058.46999999974,"y":2543814.3000000026}},{"attributes":{"ID":207044,"DIS_CODE":0,"TOWNNAME":"關廟區","LI":"埤頭里","LIN":"2鄰","STREET":"關新路","SECT":"一段","MAREA":" ","LANE":"８１３巷","ALLEY":" ","HOUSE_NO":"５６號","E_COORD97":179023.97,"N_COORD97":2543783.2999999998,"ADDRESS":"關新路一段８１３巷５６號","OBJECTID":207043},"geometry":{"x":179023.97000000067,"y":2543783.3000000026}},{"attributes":{"ID":207045,"DIS_CODE":0,"TOWNNAME":"關廟區","LI":"埤頭里","LIN":"2鄰","STREET":"關新路","SECT":"一段","MAREA":" ","LANE":"８１３巷","ALLEY":" ","HOUSE_NO":"４０號","E_COORD97":179008.17000000001,"N_COORD97":2543808.2999999998,"ADDRESS":"關新路一段８１３巷４０號","OBJECTID":207044},"geometry":{"x":179008.16999999993,"y":2543808.3000000007}},{"attributes":{"ID":207046,"DIS_CODE":0,"TOWNNAME":"關廟區","LI":"埤頭里","LIN":"2鄰","STREET":"保東路","SECT":" ","MAREA":" ","LANE":"１１５巷","ALLEY":" ","HOUSE_NO":"３１１號","E_COORD97":178978.67000000001,"N_COORD97":2543799.2999999998,"ADDRESS":"保東路１１５巷３１１號","OBJECTID":207045},"geometry":{"x":178978.67000000086,"y":2543799.3000000045}},{"attributes":{"ID":207047,"DIS_CODE":0,"TOWNNAME":"關廟區","LI":"埤頭里","LIN":"2鄰","STREET":"關新路","SECT":"一段","MAREA":" ","LANE":" ","ALLEY":" ","HOUSE_NO":"８１１號","E_COORD97":179098.37,"N_COORD97":2543857.2999999998,"ADDRESS":"關新路一段８１１號","OBJECTID":207046},"geometry":{"x":179098.37000000011,"y":2543857.3000000026}},{"attributes":{"ID":207048,"DIS_CODE":0,"TOWNNAME":"關廟區","LI":"埤頭里","LIN":"2鄰","STREET":"關新路","SECT":"一段","MAREA":" ","LANE":" ","ALLEY":" ","HOUSE_NO":"７６８號","E_COORD97":179142.97,"N_COORD97":2543769.2999999998,"ADDRESS":"關新路一段７６８號","OBJECTID":207047},"geometry":{"x":179142.96999999974,"y":2543769.3000000026}},{"attributes":{"ID":207049,"DIS_CODE":0,"TOWNNAME":"關廟區","LI":"埤頭里","LIN":"2鄰","STREET":"關新路","SECT":"一段","MAREA":" ","LANE":" ","ALLEY":" ","HOUSE_NO":"７６６號","E_COORD97":179143.67000000001,"N_COORD97":2543764.2999999998,"ADDRESS":"關新路一段７６６號","OBJECTID":207048},"geometry":{"x":179143.66999999993,"y":2543764.3000000007}},{"attributes":{"ID":207050,"DIS_CODE":0,"TOWNNAME":"關廟區","LI":"埤頭里","LIN":"2鄰","STREET":"關新路","SECT":"一段","MAREA":" ","LANE":" ","ALLEY":" ","HOUSE_NO":"７６０號","E_COORD97":179145.26999999999,"N_COORD97":2543755.2999999998,"ADDRESS":"關新路一段７６０號","OBJECTID":207049},"geometry":{"x":179145.27000000048,"y":2543755.3000000045}},{"attributes":{"ID":207051,"DIS_CODE":0,"TOWNNAME":"關廟區","LI":"埤頭里","LIN":"2鄰","STREET":"關新路","SECT":"一段","MAREA":" ","LANE":" ","ALLEY":" ","HOUSE_NO":"７５８號","E_COORD97":179145.67000000001,"N_COORD97":2543751.2999999998,"ADDRESS":"關新路一段７５８號","OBJECTID":207050},"geometry":{"x":179145.66999999993,"y":2543751.3000000007}},{"attributes":{"ID":207052,"DIS_CODE":0,"TOWNNAME":"山上區","LI":"南洲里","LIN":"2鄰","STREET":" ","SECT":" ","MAREA":"南洲","LANE":" ","ALLEY":" ","HOUSE_NO":"１３０之３０號","E_COORD97":183813.69,"N_COORD97":2555825.2999999998,"ADDRESS":"南洲１３０之３０號","OBJECTID":207051},"geometry":{"x":183813.69000000134,"y":2555825.3000000026}},{"attributes":{"ID":207053,"DIS_CODE":0,"TOWNNAME":"山上區","LI":"山上里","LIN":"2鄰","STREET":" ","SECT":" ","MAREA":"山上","LANE":" ","ALLEY":" ","HOUSE_NO":"３４之６號","E_COORD97":184233.519267,"N_COORD97":2555315.6536099999,"ADDRESS":"山上３４之６號","OBJECTID":207052},"geometry":{"x":184233.51926700026,"y":2555315.6536099985}},{"attributes":{"ID":207054,"DIS_CODE":0,"TOWNNAME":"北區","LI":"成德里","LIN":"22鄰","STREET":"北安路","SECT":"一段","MAREA":" ","LANE":"３４１巷","ALLEY":"３１弄","HOUSE_NO":"８號","E_COORD97":168445.06,"N_COORD97":2546752.4300000002,"ADDRESS":"北安路一段３４１巷３１弄８號","OBJECTID":207053},"geometry":{"x":168445.06000000052,"y":2546752.4299999997}},{"attributes":{"ID":207055,"DIS_CODE":0,"TOWNNAME":"山上區","LI":"山上里","LIN":"2鄰","STREET":" ","SECT":" ","MAREA":"山上","LANE":" ","ALLEY":" ","HOUSE_NO":"３４之１號","E_COORD97":184224.19709999999,"N_COORD97":2555291.7352900002,"ADDRESS":"山上３４之１號","OBJECTID":207054},"geometry":{"x":184224.19710000139,"y":2555291.7352900002}},{"attributes":{"ID":207056,"DIS_CODE":0,"TOWNNAME":"山上區","LI":"山上里","LIN":"2鄰","STREET":" ","SECT":" ","MAREA":"山上","LANE":" ","ALLEY":" ","HOUSE_NO":"３４之４號","E_COORD97":184231.400593,"N_COORD97":2555307.8219499998,"ADDRESS":"山上３４之４號","OBJECTID":207055},"geometry":{"x":184231.40059300046,"y":2555307.8219479993}},{"attributes":{"ID":207057,"DIS_CODE":0,"TOWNNAME":"山上區","LI":"南洲里","LIN":"2鄰","STREET":" ","SECT":" ","MAREA":"南洲","LANE":" ","ALLEY":" ","HOUSE_NO":"１３０之３６號","E_COORD97":183805.48999999999,"N_COORD97":2555844.2999999998,"ADDRESS":"南洲１３０之３６號","OBJECTID":207056},"geometry":{"x":183805.49000000022,"y":2555844.3000000007}},{"attributes":{"ID":207058,"DIS_CODE":0,"TOWNNAME":"仁德區","LI":"仁義里","LIN":"32鄰","STREET":"正義路","SECT":" ","MAREA":" ","LANE":" ","ALLEY":" ","HOUSE_NO":"６３號","E_COORD97":173509.67000000001,"N_COORD97":2541453.77,"ADDRESS":"正義路６３號","OBJECTID":207057},"geometry":{"x":173509.67000000179,"y":2541453.7699999996}},{"attributes":{"ID":207059,"DIS_CODE":0,"TOWNNAME":"北區","LI":"成德里","LIN":"22鄰","STREET":"北安路","SECT":"一段","MAREA":" ","LANE":"３４１巷","ALLEY":"３１弄","HOUSE_NO":"１０號","E_COORD97":168447.28,"N_COORD97":2546747.3500000001,"ADDRESS":"北安路一段３４１巷３１弄１０號","OBJECTID":207058},"geometry":{"x":168447.28000000212,"y":2546747.3500000034}},{"attributes":{"ID":207060,"DIS_CODE":0,"TOWNNAME":"西港區","LI":"竹林里","LIN":"2鄰","STREET":" ","SECT":" ","MAREA":"大竹林","LANE":" ","ALLEY":" ","HOUSE_NO":"１１號","E_COORD97":166059.29000000001,"N_COORD97":2557962.6800000002,"ADDRESS":"大竹林１１號","OBJECTID":207059},"geometry":{"x":166059.29000000097,"y":2557962.6799999997}},{"attributes":{"ID":207061,"DIS_CODE":0,"TOWNNAME":"新市區","LI":"三舍里","LIN":"2鄰","STREET":" ","SECT":" ","MAREA":"三舍","LANE":" ","ALLEY":" ","HOUSE_NO":"５４之１號","E_COORD97":178079.64999999999,"N_COORD97":2554334.2999999998,"ADDRESS":"三舍５４之１號","OBJECTID":207060},"geometry":{"x":178079.65000000037,"y":2554334.3000000026}},{"attributes":{"ID":207062,"DIS_CODE":0,"TOWNNAME":"新市區","LI":"大洲里","LIN":"2鄰","STREET":" ","SECT":" ","MAREA":"大洲","LANE":" ","ALLEY":" ","HOUSE_NO":"７之６號","E_COORD97":174609.73000000001,"N_COORD97":2552442.2999999998,"ADDRESS":"大洲７之６號","OBJECTID":207061},"geometry":{"x":174609.72999999952,"y":2552442.3000000026}},{"attributes":{"ID":207063,"DIS_CODE":0,"TOWNNAME":"新市區","LI":"大洲里","LIN":"2鄰","STREET":" ","SECT":" ","MAREA":"大洲","LANE":" ","ALLEY":" ","HOUSE_NO":"７之１１號","E_COORD97":174557.42000000001,"N_COORD97":2552481.0499999998,"ADDRESS":"大洲７之１１號","OBJECTID":207062},"geometry":{"x":174557.42000000086,"y":2552481.0500000026}},{"attributes":{"ID":207064,"DIS_CODE":0,"TOWNNAME":"新市區","LI":"三舍里","LIN":"2鄰","STREET":" ","SECT":" ","MAREA":"三舍","LANE":" ","ALLEY":" ","HOUSE_NO":"５４之５號","E_COORD97":177984.29000000001,"N_COORD97":2554386.7999999998,"ADDRESS":"三舍５４之５號","OBJECTID":207063},"geometry":{"x":177984.29000000097,"y":2554386.8000000007}},{"attributes":{"ID":207065,"DIS_CODE":0,"TOWNNAME":"新市區","LI":"大洲里","LIN":"2鄰","STREET":" ","SECT":" ","MAREA":"大洲","LANE":" ","ALLEY":" ","HOUSE_NO":"７之７號","E_COORD97":174573.12,"N_COORD97":2552409.7999999998,"ADDRESS":"大洲７之７號","OBJECTID":207064},"geometry":{"x":174573.12000000104,"y":2552409.8000000007}},{"attributes":{"ID":207066,"DIS_CODE":0,"TOWNNAME":"新市區","LI":"大營里","LIN":"2鄰","STREET":" ","SECT":" ","MAREA":"大營","LANE":" ","ALLEY":" ","HOUSE_NO":"３１之１號","E_COORD97":179597.48999999999,"N_COORD97":2555637.2999999998,"ADDRESS":"大營３１之１號","OBJECTID":207065},"geometry":{"x":179597.49000000115,"y":2555637.3000000007}},{"attributes":{"ID":207067,"DIS_CODE":0,"TOWNNAME":"新市區","LI":"大洲里","LIN":"2鄰","STREET":" ","SECT":" ","MAREA":"大洲","LANE":" ","ALLEY":" ","HOUSE_NO":"７之４號","E_COORD97":174542.26999999999,"N_COORD97":2552475.2999999998,"ADDRESS":"大洲７之４號","OBJECTID":207066},"geometry":{"x":174542.26999999955,"y":2552475.3000000045}},{"attributes":{"ID":207068,"DIS_CODE":0,"TOWNNAME":"佳里區","LI":"三協里","LIN":"2鄰","STREET":" ","SECT":" ","MAREA":"菜寮","LANE":" ","ALLEY":" ","HOUSE_NO":"１１號之５","E_COORD97":167920.79000000001,"N_COORD97":2563841.0099999998,"ADDRESS":"菜寮１１號之５","OBJECTID":207067},"geometry":{"x":167920.79000000004,"y":2563841.0100000016}},{"attributes":{"ID":207069,"DIS_CODE":0,"TOWNNAME":"佳里區","LI":"三協里","LIN":"2鄰","STREET":" ","SECT":" ","MAREA":"菜寮","LANE":" ","ALLEY":" ","HOUSE_NO":"１１號之６","E_COORD97":167920.10000000001,"N_COORD97":2563846.8799999999,"ADDRESS":"菜寮１１號之６","OBJECTID":207068},"geometry":{"x":167920.09999999963,"y":2563846.879999999}},{"attributes":{"ID":207070,"DIS_CODE":0,"TOWNNAME":"佳里區","LI":"三協里","LIN":"2鄰","STREET":" ","SECT":" ","MAREA":"菜寮","LANE":" ","ALLEY":" ","HOUSE_NO":"１１號之７","E_COORD97":167918.95999999999,"N_COORD97":2563853.21,"ADDRESS":"菜寮１１號之７","OBJECTID":207069},"geometry":{"x":167918.96000000089,"y":2563853.2100000009}},{"attributes":{"ID":207071,"DIS_CODE":0,"TOWNNAME":"佳里區","LI":"三協里","LIN":"2鄰","STREET":" ","SECT":" ","MAREA":"菜寮","LANE":" ","ALLEY":" ","HOUSE_NO":"１１號之８","E_COORD97":167918.04999999999,"N_COORD97":2563859.1699999999,"ADDRESS":"菜寮１１號之８","OBJECTID":207070},"geometry":{"x":167918.05000000075,"y":2563859.1699999999}},{"attributes":{"ID":207072,"DIS_CODE":0,"TOWNNAME":"佳里區","LI":"三協里","LIN":"2鄰","STREET":" ","SECT":" ","MAREA":"菜寮","LANE":" ","ALLEY":" ","HOUSE_NO":"１１號之９","E_COORD97":167917.23999999999,"N_COORD97":2563865.5099999998,"ADDRESS":"菜寮１１號之９","OBJECTID":207071},"geometry":{"x":167917.24000000115,"y":2563865.5100000016}},{"attributes":{"ID":207073,"DIS_CODE":0,"TOWNNAME":"佳里區","LI":"三協里","LIN":"2鄰","STREET":" ","SECT":" ","MAREA":"菜寮","LANE":" ","ALLEY":" ","HOUSE_NO":"１２號之１","E_COORD97":167958.79000000001,"N_COORD97":2563827.75,"ADDRESS":"菜寮１２號之１","OBJECTID":207072},"geometry":{"x":167958.7900000019,"y":2563827.75}},{"attributes":{"ID":207074,"DIS_CODE":0,"TOWNNAME":"佳里區","LI":"三協里","LIN":"2鄰","STREET":" ","SECT":" ","MAREA":"菜寮","LANE":" ","ALLEY":" ","HOUSE_NO":"１２號","E_COORD97":167950.59,"N_COORD97":2563854.3100000001,"ADDRESS":"菜寮１２號","OBJECTID":207073},"geometry":{"x":167950.59000000078,"y":2563854.3100000024}},{"attributes":{"ID":207075,"DIS_CODE":0,"TOWNNAME":"佳里區","LI":"三協里","LIN":"2鄰","STREET":" ","SECT":" ","MAREA":"菜寮","LANE":" ","ALLEY":" ","HOUSE_NO":"１３號","E_COORD97":167966.32000000001,"N_COORD97":2563833.4900000002,"ADDRESS":"菜寮１３號","OBJECTID":207074},"geometry":{"x":167966.32000000123,"y":2563833.4900000002}},{"attributes":{"ID":207076,"DIS_CODE":0,"TOWNNAME":"佳里區","LI":"三協里","LIN":"2鄰","STREET":" ","SECT":" ","MAREA":"菜寮","LANE":" ","ALLEY":" ","HOUSE_NO":"１４號","E_COORD97":167981.41,"N_COORD97":2563851.96,"ADDRESS":"菜寮１４號","OBJECTID":207075},"geometry":{"x":167981.41000000015,"y":2563851.9600000009}},{"attributes":{"ID":207077,"DIS_CODE":0,"TOWNNAME":"佳里區","LI":"三協里","LIN":"2鄰","STREET":" ","SECT":" ","MAREA":"菜寮","LANE":" ","ALLEY":" ","HOUSE_NO":"１５號","E_COORD97":167975.70999999999,"N_COORD97":2563875.98,"ADDRESS":"菜寮１５號","OBJECTID":207076},"geometry":{"x":167975.70999999996,"y":2563875.9800000023}},{"attributes":{"ID":207078,"DIS_CODE":0,"TOWNNAME":"佳里區","LI":"三協里","LIN":"2鄰","STREET":" ","SECT":" ","MAREA":"菜寮","LANE":" ","ALLEY":" ","HOUSE_NO":"３６號之１","E_COORD97":168016.72,"N_COORD97":2563896.0499999998,"ADDRESS":"菜寮３６號之１","OBJECTID":207077},"geometry":{"x":168016.7200000016,"y":2563896.0500000026}},{"attributes":{"ID":207079,"DIS_CODE":0,"TOWNNAME":"佳里區","LI":"三協里","LIN":"2鄰","STREET":" ","SECT":" ","MAREA":"菜寮","LANE":" ","ALLEY":" ","HOUSE_NO":"３７號","E_COORD97":168004.59,"N_COORD97":2563878.48,"ADDRESS":"菜寮３７號","OBJECTID":207078},"geometry":{"x":168004.59000000078,"y":2563878.4800000004}},{"attributes":{"ID":207080,"DIS_CODE":0,"TOWNNAME":"佳里區","LI":"三協里","LIN":"2鄰","STREET":" ","SECT":" ","MAREA":"菜寮","LANE":" ","ALLEY":" ","HOUSE_NO":"３８號之１","E_COORD97":168002.76000000001,"N_COORD97":2563857.9100000001,"ADDRESS":"菜寮３８號之１","OBJECTID":207079},"geometry":{"x":168002.76000000164,"y":2563857.9100000001}},{"attributes":{"ID":207081,"DIS_CODE":0,"TOWNNAME":"佳里區","LI":"三協里","LIN":"2鄰","STREET":" ","SECT":" ","MAREA":"菜寮","LANE":" ","ALLEY":" ","HOUSE_NO":"３８號之２","E_COORD97":168015.89000000001,"N_COORD97":2563835.8700000001,"ADDRESS":"菜寮３８號之２","OBJECTID":207080},"geometry":{"x":168015.8900000006,"y":2563835.870000001}},{"attributes":{"ID":207082,"DIS_CODE":0,"TOWNNAME":"北區","LI":"成德里","LIN":"22鄰","STREET":"北安路","SECT":"一段","MAREA":" ","LANE":"３４１巷","ALLEY":"３１弄","HOUSE_NO":"１２號","E_COORD97":168449.19,"N_COORD97":2546742.27,"ADDRESS":"北安路一段３４１巷３１弄１２號","OBJECTID":207081},"geometry":{"x":168449.19000000041,"y":2546742.2700000014}},{"attributes":{"ID":207083,"DIS_CODE":0,"TOWNNAME":"中西區","LI":"中正里","LIN":"2鄰","STREET":" ","SECT":" ","MAREA":"西門商場","LANE":" ","ALLEY":" ","HOUSE_NO":"２０號","E_COORD97":167806.39000000001,"N_COORD97":2543824.54,"ADDRESS":"西門商場２０號","OBJECTID":207082},"geometry":{"x":167806.38999999966,"y":2543824.540000001}},{"attributes":{"ID":207084,"DIS_CODE":0,"TOWNNAME":"北區","LI":"成德里","LIN":"22鄰","STREET":"北安路","SECT":"一段","MAREA":" ","LANE":"３４１巷","ALLEY":"３１弄","HOUSE_NO":"３號","E_COORD97":168455.38,"N_COORD97":2546762.1200000001,"ADDRESS":"北安路一段３４１巷３１弄３號","OBJECTID":207083},"geometry":{"x":168455.38000000082,"y":2546762.1200000029}},{"attributes":{"ID":207085,"DIS_CODE":0,"TOWNNAME":"中西區","LI":"中正里","LIN":"2鄰","STREET":" ","SECT":" ","MAREA":"西門商場","LANE":" ","ALLEY":" ","HOUSE_NO":"２２號","E_COORD97":167805.89999999999,"N_COORD97":2543822.2000000002,"ADDRESS":"西門商場２２號","OBJECTID":207084},"geometry":{"x":167805.90000000224,"y":2543822.200000003}},{"attributes":{"ID":207086,"DIS_CODE":0,"TOWNNAME":"中西區","LI":"中正里","LIN":"2鄰","STREET":" ","SECT":" ","MAREA":"西門商場","LANE":" ","ALLEY":" ","HOUSE_NO":"２４號","E_COORD97":167804.76999999999,"N_COORD97":2543818.7400000002,"ADDRESS":"西門商場２４號","OBJECTID":207085},"geometry":{"x":167804.77000000048,"y":2543818.7400000002}},{"attributes":{"ID":207087,"DIS_CODE":0,"TOWNNAME":"中西區","LI":"中正里","LIN":"2鄰","STREET":" ","SECT":" ","MAREA":"西門商場","LANE":" ","ALLEY":" ","HOUSE_NO":"２６號","E_COORD97":167803.56,"N_COORD97":2543815.6699999999,"ADDRESS":"西門商場２６號","OBJECTID":207086},"geometry":{"x":167803.55999999959,"y":2543815.6699999999}},{"attributes":{"ID":207088,"DIS_CODE":0,"TOWNNAME":"中西區","LI":"中正里","LIN":"2鄰","STREET":" ","SECT":" ","MAREA":"西門商場","LANE":" ","ALLEY":" ","HOUSE_NO":"２８號","E_COORD97":167802.59,"N_COORD97":2543813.3300000001,"ADDRESS":"西門商場２８號","OBJECTID":207087},"geometry":{"x":167802.59000000078,"y":2543813.3300000019}},{"attributes":{"ID":207089,"DIS_CODE":0,"TOWNNAME":"中西區","LI":"中正里","LIN":"2鄰","STREET":" ","SECT":" ","MAREA":"西門商場","LANE":" ","ALLEY":" ","HOUSE_NO":"２號","E_COORD97":167844.29000000001,"N_COORD97":2543825.8300000001,"ADDRESS":"西門商場２號","OBJECTID":207088},"geometry":{"x":167844.29000000097,"y":2543825.8300000019}},{"attributes":{"ID":207090,"DIS_CODE":0,"TOWNNAME":"中西區","LI":"中正里","LIN":"2鄰","STREET":" ","SECT":" ","MAREA":"西門商場","LANE":" ","ALLEY":" ","HOUSE_NO":"３０號","E_COORD97":167801.78,"N_COORD97":2543809.7000000002,"ADDRESS":"西門商場３０號","OBJECTID":207089},"geometry":{"x":167801.78000000119,"y":2543809.7000000011}},{"attributes":{"ID":207091,"DIS_CODE":0,"TOWNNAME":"中西區","LI":"中正里","LIN":"2鄰","STREET":" ","SECT":" ","MAREA":"西門商場","LANE":" ","ALLEY":" ","HOUSE_NO":"３２號","E_COORD97":167800.57000000001,"N_COORD97":2543805.6699999999,"ADDRESS":"西門商場３２號","OBJECTID":207090},"geometry":{"x":167800.5700000003,"y":2543805.6699999999}},{"attributes":{"ID":207092,"DIS_CODE":0,"TOWNNAME":"中西區","LI":"中正里","LIN":"2鄰","STREET":" ","SECT":" ","MAREA":"西門商場","LANE":" ","ALLEY":" ","HOUSE_NO":"３４號","E_COORD97":167812.44,"N_COORD97":2543798.7599999998,"ADDRESS":"西門商場３４號","OBJECTID":207091},"geometry":{"x":167812.44000000227,"y":2543798.7600000016}},{"attributes":{"ID":207093,"DIS_CODE":0,"TOWNNAME":"中西區","LI":"中正里","LIN":"2鄰","STREET":" ","SECT":" ","MAREA":"西門商場","LANE":" ","ALLEY":" ","HOUSE_NO":"３６號","E_COORD97":167818.38,"N_COORD97":2543805.9500000002,"ADDRESS":"西門商場３６號","OBJECTID":207092},"geometry":{"x":167818.37999999989,"y":2543805.9499999993}},{"attributes":{"ID":207094,"DIS_CODE":0,"TOWNNAME":"中西區","LI":"中正里","LIN":"2鄰","STREET":" ","SECT":" ","MAREA":"西門商場","LANE":" ","ALLEY":" ","HOUSE_NO":"３８號","E_COORD97":167822.69,"N_COORD97":2543804.23,"ADDRESS":"西門商場３８號","OBJECTID":207093},"geometry":{"x":167822.69000000227,"y":2543804.2300000023}},{"attributes":{"ID":207095,"DIS_CODE":0,"TOWNNAME":"中西區","LI":"中正里","LIN":"2鄰","STREET":" ","SECT":" ","MAREA":"西門商場","LANE":" ","ALLEY":" ","HOUSE_NO":"４０號","E_COORD97":167829.97,"N_COORD97":2543763.0600000001,"ADDRESS":"西門商場４０號","OBJECTID":207094},"geometry":{"x":167829.96999999974,"y":2543763.0599999987}},{"attributes":{"ID":207096,"DIS_CODE":0,"TOWNNAME":"中西區","LI":"中正里","LIN":"2鄰","STREET":" ","SECT":" ","MAREA":"西門商場","LANE":" ","ALLEY":" ","HOUSE_NO":"４２號","E_COORD97":167831.95000000001,"N_COORD97":2543762.6899999999,"ADDRESS":"西門商場４２號","OBJECTID":207095},"geometry":{"x":167831.95000000019,"y":2543762.6900000013}},{"attributes":{"ID":207097,"DIS_CODE":0,"TOWNNAME":"中西區","LI":"中正里","LIN":"2鄰","STREET":" ","SECT":" ","MAREA":"西門商場","LANE":" ","ALLEY":" ","HOUSE_NO":"４號","E_COORD97":167851,"N_COORD97":2543833.9700000002,"ADDRESS":"西門商場４號","OBJECTID":207096},"geometry":{"x":167851.00000000093,"y":2543833.9700000007}},{"attributes":{"ID":207098,"DIS_CODE":0,"TOWNNAME":"中西區","LI":"中正里","LIN":"2鄰","STREET":" ","SECT":" ","MAREA":"西門商場","LANE":" ","ALLEY":" ","HOUSE_NO":"６號","E_COORD97":167844.78,"N_COORD97":2543831.48,"ADDRESS":"西門商場６號","OBJECTID":207097},"geometry":{"x":167844.78000000026,"y":2543831.4800000042}},{"attributes":{"ID":207099,"DIS_CODE":0,"TOWNNAME":"中西區","LI":"中正里","LIN":"2鄰","STREET":" ","SECT":" ","MAREA":"西門商場","LANE":" ","ALLEY":" ","HOUSE_NO":"８號","E_COORD97":167838.57999999999,"N_COORD97":2543828.1200000001,"ADDRESS":"西門商場８號","OBJECTID":207098},"geometry":{"x":167838.58000000101,"y":2543828.1200000048}},{"attributes":{"ID":207100,"DIS_CODE":0,"TOWNNAME":"安定區","LI":"港尾里","LIN":"2鄰","STREET":" ","SECT":" ","MAREA":"下洲子","LANE":" ","ALLEY":" ","HOUSE_NO":"１７之１６號","E_COORD97":172387.94,"N_COORD97":2556641.2999999998,"ADDRESS":"下洲子１７之１６號","OBJECTID":207099},"geometry":{"x":172387.94000000134,"y":2556641.3000000007}},{"attributes":{"ID":207101,"DIS_CODE":0,"TOWNNAME":"安定區","LI":"港口里","LIN":"2鄰","STREET":" ","SECT":" ","MAREA":"港口","LANE":" ","ALLEY":" ","HOUSE_NO":"２５０之８號","E_COORD97":171639.341059,"N_COORD97":2554766.8226600001,"ADDRESS":"港口２５０之８號","OBJECTID":207100},"geometry":{"x":171639.34105900116,"y":2554766.8226609994}},{"attributes":{"ID":207102,"DIS_CODE":0,"TOWNNAME":"安定區","LI":"港口里","LIN":"2鄰","STREET":" ","SECT":" ","MAREA":"港口","LANE":" ","ALLEY":" ","HOUSE_NO":"２５１之３１號","E_COORD97":171601.14000000001,"N_COORD97":2554808.2999999998,"ADDRESS":"港口２５１之３１號","OBJECTID":207101},"geometry":{"x":171601.1400000006,"y":2554808.3000000026}},{"attributes":{"ID":207103,"DIS_CODE":0,"TOWNNAME":"安定區","LI":"海寮里","LIN":"2鄰","STREET":" ","SECT":" ","MAREA":"海寮","LANE":" ","ALLEY":" ","HOUSE_NO":"２０之６號","E_COORD97":169301.48999999999,"N_COORD97":2555157.2999999998,"ADDRESS":"海寮２０之６號","OBJECTID":207102},"geometry":{"x":169301.49000000022,"y":2555157.3000000026}},{"attributes":{"ID":207104,"DIS_CODE":0,"TOWNNAME":"安定區","LI":"港尾里","LIN":"2鄰","STREET":" ","SECT":" ","MAREA":"下洲子","LANE":" ","ALLEY":" ","HOUSE_NO":"２２號","E_COORD97":172305.69,"N_COORD97":2556618.25,"ADDRESS":"下洲子２２號","OBJECTID":207103},"geometry":{"x":172305.69000000041,"y":2556618.2500000019}},{"attributes":{"ID":207105,"DIS_CODE":0,"TOWNNAME":"安定區","LI":"六嘉里","LIN":"2鄰","STREET":" ","SECT":" ","MAREA":"六塊寮","LANE":" ","ALLEY":" ","HOUSE_NO":"１９號之４","E_COORD97":170091.48000000001,"N_COORD97":2553481.2999999998,"ADDRESS":"六塊寮１９號之４","OBJECTID":207104},"geometry":{"x":170091.48000000045,"y":2553481.3000000007}},{"attributes":{"ID":207106,"DIS_CODE":0,"TOWNNAME":"安定區","LI":"港尾里","LIN":"2鄰","STREET":" ","SECT":" ","MAREA":"下洲子","LANE":" ","ALLEY":" ","HOUSE_NO":"１７之５號","E_COORD97":172351.79000000001,"N_COORD97":2556651.2999999998,"ADDRESS":"下洲子１７之５號","OBJECTID":207105},"geometry":{"x":172351.79000000097,"y":2556651.3000000007}},{"attributes":{"ID":207107,"DIS_CODE":0,"TOWNNAME":"安定區","LI":"海寮里","LIN":"2鄰","STREET":" ","SECT":" ","MAREA":"海寮","LANE":" ","ALLEY":" ","HOUSE_NO":"２０之７號","E_COORD97":169300.59,"N_COORD97":2555162.2999999998,"ADDRESS":"海寮２０之７號","OBJECTID":207106},"geometry":{"x":169300.58999999985,"y":2555162.3000000007}},{"attributes":{"ID":207108,"DIS_CODE":0,"TOWNNAME":"安定區","LI":"六嘉里","LIN":"2鄰","STREET":" ","SECT":" ","MAREA":"六塊寮","LANE":" ","ALLEY":" ","HOUSE_NO":"１８之１６號","E_COORD97":170274.97,"N_COORD97":2553602.2999999998,"ADDRESS":"六塊寮１８之１６號","OBJECTID":207107},"geometry":{"x":170274.97000000067,"y":2553602.3000000026}},{"attributes":{"ID":207109,"DIS_CODE":0,"TOWNNAME":"安定區","LI":"港口里","LIN":"2鄰","STREET":" ","SECT":" ","MAREA":"港口","LANE":" ","ALLEY":" ","HOUSE_NO":"２５１之３５號","E_COORD97":171592.84,"N_COORD97":2554811.2999999998,"ADDRESS":"港口２５１之３５號","OBJECTID":207108},"geometry":{"x":171592.84000000171,"y":2554811.3000000045}},{"attributes":{"ID":207110,"DIS_CODE":0,"TOWNNAME":"安定區","LI":"海寮里","LIN":"2鄰","STREET":" ","SECT":" ","MAREA":"海寮","LANE":" ","ALLEY":" ","HOUSE_NO":"２０號之１１","E_COORD97":169299.17999999999,"N_COORD97":2555177.2999999998,"ADDRESS":"海寮２０號之１１","OBJECTID":207109},"geometry":{"x":169299.18000000063,"y":2555177.3000000045}},{"attributes":{"ID":207111,"DIS_CODE":0,"TOWNNAME":"安定區","LI":"安加里","LIN":"2鄰","STREET":" ","SECT":" ","MAREA":"安定","LANE":" ","ALLEY":" ","HOUSE_NO":"１７１號之１","E_COORD97":171902.75,"N_COORD97":2557593.3199999998,"ADDRESS":"安定１７１號之１","OBJECTID":207110},"geometry":{"x":171902.75000000093,"y":2557593.3200000003}},{"attributes":{"ID":207112,"DIS_CODE":0,"TOWNNAME":"安定區","LI":"蘇厝里","LIN":"2鄰","STREET":" ","SECT":" ","MAREA":"蘇厝","LANE":" ","ALLEY":" ","HOUSE_NO":"２９０號之６","E_COORD97":173301.16,"N_COORD97":2558592.2999999998,"ADDRESS":"蘇厝２９０號之６","OBJECTID":207111},"geometry":{"x":173301.16000000015,"y":2558592.3000000026}},{"attributes":{"ID":207113,"DIS_CODE":0,"TOWNNAME":"安定區","LI":"蘇厝里","LIN":"2鄰","STREET":" ","SECT":" ","MAREA":"蘇厝","LANE":" ","ALLEY":" ","HOUSE_NO":"２９３之３４號","E_COORD97":173334.37,"N_COORD97":2558463.2999999998,"ADDRESS":"蘇厝２９３之３４號","OBJECTID":207112},"geometry":{"x":173334.37000000104,"y":2558463.3000000026}},{"attributes":{"ID":207114,"DIS_CODE":0,"TOWNNAME":"安定區","LI":"蘇厝里","LIN":"2鄰","STREET":" ","SECT":" ","MAREA":"蘇厝","LANE":" ","ALLEY":" ","HOUSE_NO":"２９３之４１號","E_COORD97":173367.87,"N_COORD97":2558467.2999999998,"ADDRESS":"蘇厝２９３之４１號","OBJECTID":207113},"geometry":{"x":173367.87000000104,"y":2558467.3000000026}},{"attributes":{"ID":207115,"DIS_CODE":0,"TOWNNAME":"安定區","LI":"蘇厝里","LIN":"2鄰","STREET":" ","SECT":" ","MAREA":"蘇厝","LANE":" ","ALLEY":" ","HOUSE_NO":"２９３之３０號","E_COORD97":173316.17000000001,"N_COORD97":2558462.2999999998,"ADDRESS":"蘇厝２９３之３０號","OBJECTID":207114},"geometry":{"x":173316.16999999899,"y":2558462.3000000007}},{"attributes":{"ID":207116,"DIS_CODE":0,"TOWNNAME":"北區","LI":"成德里","LIN":"22鄰","STREET":"北安路","SECT":"一段","MAREA":" ","LANE":"３４１巷","ALLEY":"３１弄","HOUSE_NO":"５號","E_COORD97":168456.64999999999,"N_COORD97":2546757.2000000002,"ADDRESS":"北安路一段３４１巷３１弄５號","OBJECTID":207115},"geometry":{"x":168456.65000000037,"y":2546757.1999999993}},{"attributes":{"ID":207117,"DIS_CODE":0,"TOWNNAME":"安定區","LI":"蘇厝里","LIN":"2鄰","STREET":" ","SECT":" ","MAREA":"蘇厝","LANE":" ","ALLEY":" ","HOUSE_NO":"２９３號之１５","E_COORD97":173340.35999999999,"N_COORD97":2558477.2999999998,"ADDRESS":"蘇厝２９３號之１５","OBJECTID":207116},"geometry":{"x":173340.36000000034,"y":2558477.3000000026}},{"attributes":{"ID":207118,"DIS_CODE":0,"TOWNNAME":"安定區","LI":"蘇厝里","LIN":"2鄰","STREET":" ","SECT":" ","MAREA":"蘇厝","LANE":" ","ALLEY":" ","HOUSE_NO":"２９３之１２６號","E_COORD97":173370.51999999999,"N_COORD97":2558366.2999999998,"ADDRESS":"蘇厝２９３之１２６號","OBJECTID":207117},"geometry":{"x":173370.51999999955,"y":2558366.3000000007}},{"attributes":{"ID":207119,"DIS_CODE":0,"TOWNNAME":"安定區","LI":"蘇厝里","LIN":"2鄰","STREET":" ","SECT":" ","MAREA":"蘇厝","LANE":" ","ALLEY":" ","HOUSE_NO":"２９３之１２０號","E_COORD97":173338.01999999999,"N_COORD97":2558393.2999999998,"ADDRESS":"蘇厝２９３之１２０號","OBJECTID":207118},"geometry":{"x":173338.02000000048,"y":2558393.3000000007}},{"attributes":{"ID":207120,"DIS_CODE":0,"TOWNNAME":"安定區","LI":"中沙里","LIN":"2鄰","STREET":" ","SECT":" ","MAREA":"中崙","LANE":" ","ALLEY":" ","HOUSE_NO":"８７之１號","E_COORD97":168942.66,"N_COORD97":2553254.2999999998,"ADDRESS":"中崙８７之１號","OBJECTID":207119},"geometry":{"x":168942.66000000015,"y":2553254.3000000007}},{"attributes":{"ID":207121,"DIS_CODE":0,"TOWNNAME":"安定區","LI":"蘇厝里","LIN":"2鄰","STREET":" ","SECT":" ","MAREA":"蘇厝","LANE":" ","ALLEY":" ","HOUSE_NO":"２９３之１３１號","E_COORD97":173361.32000000001,"N_COORD97":2558386.2999999998,"ADDRESS":"蘇厝２９３之１３１號","OBJECTID":207120},"geometry":{"x":173361.31999999937,"y":2558386.3000000026}},{"attributes":{"ID":207122,"DIS_CODE":0,"TOWNNAME":"安定區","LI":"蘇厝里","LIN":"2鄰","STREET":" ","SECT":" ","MAREA":"蘇厝","LANE":" ","ALLEY":" ","HOUSE_NO":"２９３之１１０號","E_COORD97":173355.51999999999,"N_COORD97":2558356.2999999998,"ADDRESS":"蘇厝２９３之１１０號","OBJECTID":207121},"geometry":{"x":173355.51999999955,"y":2558356.3000000007}},{"attributes":{"ID":207123,"DIS_CODE":0,"TOWNNAME":"安定區","LI":"六嘉里","LIN":"2鄰","STREET":" ","SECT":" ","MAREA":"六塊寮","LANE":" ","ALLEY":" ","HOUSE_NO":"１７號之４","E_COORD97":170105.07999999999,"N_COORD97":2553621.2999999998,"ADDRESS":"六塊寮１７號之４","OBJECTID":207122},"geometry":{"x":170105.08000000101,"y":2553621.3000000045}},{"attributes":{"ID":207124,"DIS_CODE":0,"TOWNNAME":"安定區","LI":"安定里","LIN":"2鄰","STREET":" ","SECT":" ","MAREA":"領寄","LANE":" ","ALLEY":" ","HOUSE_NO":"１４之１號","E_COORD97":173349.48999999999,"N_COORD97":2557066.2999999998,"ADDRESS":"領寄１４之１號","OBJECTID":207123},"geometry":{"x":173349.49000000022,"y":2557066.3000000026}},{"attributes":{"ID":207125,"DIS_CODE":0,"TOWNNAME":"安定區","LI":"蘇厝里","LIN":"2鄰","STREET":" ","SECT":" ","MAREA":"蘇厝","LANE":" ","ALLEY":" ","HOUSE_NO":"２９３之１１號","E_COORD97":173323.17000000001,"N_COORD97":2558475.2999999998,"ADDRESS":"蘇厝２９３之１１號","OBJECTID":207124},"geometry":{"x":173323.17000000179,"y":2558475.3000000007}},{"attributes":{"ID":207126,"DIS_CODE":0,"TOWNNAME":"安定區","LI":"蘇厝里","LIN":"2鄰","STREET":" ","SECT":" ","MAREA":"蘇厝","LANE":" ","ALLEY":" ","HOUSE_NO":"２９３之２５號","E_COORD97":173387.87,"N_COORD97":2558482.2999999998,"ADDRESS":"蘇厝２９３之２５號","OBJECTID":207125},"geometry":{"x":173387.87000000011,"y":2558482.3000000007}},{"attributes":{"ID":207127,"DIS_CODE":0,"TOWNNAME":"安定區","LI":"蘇厝里","LIN":"2鄰","STREET":" ","SECT":" ","MAREA":"蘇厝","LANE":" ","ALLEY":" ","HOUSE_NO":"２９３之１１６號","E_COORD97":173346.12,"N_COORD97":2558377.2999999998,"ADDRESS":"蘇厝２９３之１１６號","OBJECTID":207126},"geometry":{"x":173346.12000000104,"y":2558377.3000000007}},{"attributes":{"ID":207128,"DIS_CODE":0,"TOWNNAME":"安定區","LI":"蘇厝里","LIN":"2鄰","STREET":" ","SECT":" ","MAREA":"蘇厝","LANE":" ","ALLEY":" ","HOUSE_NO":"２９３之２０號","E_COORD97":173363.87,"N_COORD97":2558479.2999999998,"ADDRESS":"蘇厝２９３之２０號","OBJECTID":207127},"geometry":{"x":173363.87000000011,"y":2558479.3000000007}},{"attributes":{"ID":207129,"DIS_CODE":0,"TOWNNAME":"安定區","LI":"六嘉里","LIN":"2鄰","STREET":" ","SECT":" ","MAREA":"六塊寮","LANE":" ","ALLEY":" ","HOUSE_NO":"１７之１２號","E_COORD97":170104.57000000001,"N_COORD97":2553600.2999999998,"ADDRESS":"六塊寮１７之１２號","OBJECTID":207128},"geometry":{"x":170104.5700000003,"y":2553600.3000000007}},{"attributes":{"ID":207130,"DIS_CODE":0,"TOWNNAME":"安定區","LI":"管寮里","LIN":"2鄰","STREET":" ","SECT":" ","MAREA":"管寮","LANE":" ","ALLEY":" ","HOUSE_NO":"１８號之６","E_COORD97":170080.57999999999,"N_COORD97":2556298.2999999998,"ADDRESS":"管寮１８號之６","OBJECTID":207129},"geometry":{"x":170080.58000000007,"y":2556298.3000000007}},{"attributes":{"ID":207131,"DIS_CODE":0,"TOWNNAME":"安定區","LI":"蘇厝里","LIN":"2鄰","STREET":" ","SECT":" ","MAREA":"蘇厝","LANE":" ","ALLEY":" ","HOUSE_NO":"２９３之３９號","E_COORD97":173357.67000000001,"N_COORD97":2558466.2999999998,"ADDRESS":"蘇厝２９３之３９號","OBJECTID":207130},"geometry":{"x":173357.67000000086,"y":2558466.3000000026}},{"attributes":{"ID":207132,"DIS_CODE":0,"TOWNNAME":"新化區","LI":"北勢里","LIN":"2鄰","STREET":" ","SECT":" ","MAREA":"北勢","LANE":" ","ALLEY":" ","HOUSE_NO":"１９號之２２","E_COORD97":177525.73999999999,"N_COORD97":2549490.2599999998,"ADDRESS":"北勢１９號之２２","OBJECTID":207131},"geometry":{"x":177525.74000000115,"y":2549490.2599999998}},{"attributes":{"ID":207133,"DIS_CODE":0,"TOWNNAME":"安定區","LI":"六嘉里","LIN":"2鄰","STREET":" ","SECT":" ","MAREA":"六塊寮","LANE":" ","ALLEY":" ","HOUSE_NO":"１８之９號","E_COORD97":170254.01999999999,"N_COORD97":2553591.2999999998,"ADDRESS":"六塊寮１８之９號","OBJECTID":207132},"geometry":{"x":170254.02000000048,"y":2553591.3000000026}},{"attributes":{"ID":207134,"DIS_CODE":0,"TOWNNAME":"安定區","LI":"六嘉里","LIN":"2鄰","STREET":" ","SECT":" ","MAREA":"六塊寮","LANE":" ","ALLEY":" ","HOUSE_NO":"１８號之４","E_COORD97":170226.22,"N_COORD97":2553561.2999999998,"ADDRESS":"六塊寮１８之４號","OBJECTID":207133},"geometry":{"x":170226.22000000067,"y":2553561.3000000026}},{"attributes":{"ID":207135,"DIS_CODE":0,"TOWNNAME":"安定區","LI":"六嘉里","LIN":"2鄰","STREET":" ","SECT":" ","MAREA":"六塊寮","LANE":" ","ALLEY":" ","HOUSE_NO":"１７號","E_COORD97":170119.22,"N_COORD97":2553573.2599999998,"ADDRESS":"六塊寮１７號","OBJECTID":207134},"geometry":{"x":170119.22000000067,"y":2553573.2600000016}},{"attributes":{"ID":207136,"DIS_CODE":0,"TOWNNAME":"安定區","LI":"六嘉里","LIN":"2鄰","STREET":" ","SECT":" ","MAREA":"六塊寮","LANE":" ","ALLEY":" ","HOUSE_NO":"１４號之１","E_COORD97":170081.14999999999,"N_COORD97":2553496.2999999998,"ADDRESS":"六塊寮１４號之１","OBJECTID":207135},"geometry":{"x":170081.1500000013,"y":2553496.3000000026}},{"attributes":{"ID":207137,"DIS_CODE":0,"TOWNNAME":"安定區","LI":"蘇厝里","LIN":"2鄰","STREET":" ","SECT":" ","MAREA":"蘇厝","LANE":" ","ALLEY":" ","HOUSE_NO":"２９３之１３７號","E_COORD97":173351.51999999999,"N_COORD97":2558407.2999999998,"ADDRESS":"蘇厝２９３之１３７號","OBJECTID":207136},"geometry":{"x":173351.52000000048,"y":2558407.3000000007}},{"attributes":{"ID":207138,"DIS_CODE":0,"TOWNNAME":"安定區","LI":"港南里","LIN":"2鄰","STREET":" ","SECT":" ","MAREA":"港口","LANE":" ","ALLEY":" ","HOUSE_NO":"１５號","E_COORD97":171386.23999999999,"N_COORD97":2554267.25,"ADDRESS":"港口１５號","OBJECTID":207137},"geometry":{"x":171386.24000000022,"y":2554267.25}},{"attributes":{"ID":207139,"DIS_CODE":0,"TOWNNAME":"安定區","LI":"新吉里","LIN":"2鄰","STREET":" ","SECT":" ","MAREA":"新吉","LANE":" ","ALLEY":" ","HOUSE_NO":"１３之２號","E_COORD97":169450.97,"N_COORD97":2554138.2999999998,"ADDRESS":"新吉１３之２號","OBJECTID":207138},"geometry":{"x":169450.97000000067,"y":2554138.3000000007}},{"attributes":{"ID":207140,"DIS_CODE":0,"TOWNNAME":"安定區","LI":"港尾里","LIN":"2鄰","STREET":" ","SECT":" ","MAREA":"下洲子","LANE":" ","ALLEY":" ","HOUSE_NO":"１９號","E_COORD97":172330.69,"N_COORD97":2556672.25,"ADDRESS":"下洲子１９號","OBJECTID":207139},"geometry":{"x":172330.69000000134,"y":2556672.2500000037}},{"attributes":{"ID":207141,"DIS_CODE":0,"TOWNNAME":"安定區","LI":"蘇林里","LIN":"2鄰","STREET":" ","SECT":" ","MAREA":"蘇厝","LANE":" ","ALLEY":" ","HOUSE_NO":"２１號","E_COORD97":173512.67000000001,"N_COORD97":2558638.25,"ADDRESS":"蘇厝２１號","OBJECTID":207140},"geometry":{"x":173512.66999999993,"y":2558638.2499999981}},{"attributes":{"ID":207142,"DIS_CODE":0,"TOWNNAME":"安定區","LI":"蘇厝里","LIN":"2鄰","STREET":" ","SECT":" ","MAREA":"蘇厝","LANE":" ","ALLEY":" ","HOUSE_NO":"２９３之１２３號","E_COORD97":173331.92000000001,"N_COORD97":2558405.2999999998,"ADDRESS":"蘇厝２９３之１２３號","OBJECTID":207141},"geometry":{"x":173331.92000000086,"y":2558405.3000000026}},{"attributes":{"ID":207143,"DIS_CODE":0,"TOWNNAME":"安定區","LI":"中沙里","LIN":"2鄰","STREET":" ","SECT":" ","MAREA":"中崙","LANE":" ","ALLEY":" ","HOUSE_NO":"８９之１號","E_COORD97":168825.06,"N_COORD97":2553173.29,"ADDRESS":"中崙８９之１號","OBJECTID":207142},"geometry":{"x":168825.06000000052,"y":2553173.290000001}},{"attributes":{"ID":207144,"DIS_CODE":0,"TOWNNAME":"安定區","LI":"六嘉里","LIN":"2鄰","STREET":" ","SECT":" ","MAREA":"六塊寮","LANE":" ","ALLEY":" ","HOUSE_NO":"１３號之２","E_COORD97":170053.89000000001,"N_COORD97":2553551.2999999998,"ADDRESS":"六塊寮１３號之２","OBJECTID":207143},"geometry":{"x":170053.88999999966,"y":2553551.3000000026}},{"attributes":{"ID":207145,"DIS_CODE":0,"TOWNNAME":"安定區","LI":"六嘉里","LIN":"2鄰","STREET":" ","SECT":" ","MAREA":"六塊寮","LANE":" ","ALLEY":" ","HOUSE_NO":"１８之６號","E_COORD97":170280.62,"N_COORD97":2553653.2999999998,"ADDRESS":"六塊寮１８之６號","OBJECTID":207144},"geometry":{"x":170280.61999999918,"y":2553653.3000000026}},{"attributes":{"ID":207146,"DIS_CODE":0,"TOWNNAME":"安定區","LI":"安定里","LIN":"2鄰","STREET":" ","SECT":" ","MAREA":"領寄","LANE":" ","ALLEY":" ","HOUSE_NO":"２１之７號","E_COORD97":173433.89000000001,"N_COORD97":2557176.2999999998,"ADDRESS":"領寄２１之７號","OBJECTID":207145},"geometry":{"x":173433.8900000006,"y":2557176.3000000007}},{"attributes":{"ID":207147,"DIS_CODE":0,"TOWNNAME":"安定區","LI":"蘇厝里","LIN":"2鄰","STREET":" ","SECT":" ","MAREA":"蘇厝","LANE":" ","ALLEY":" ","HOUSE_NO":"２９３之１００號","E_COORD97":173332.82000000001,"N_COORD97":2558375.2999999998,"ADDRESS":"蘇厝２９３之１００號","OBJECTID":207146},"geometry":{"x":173332.82000000123,"y":2558375.3000000026}},{"attributes":{"ID":207148,"DIS_CODE":0,"TOWNNAME":"安定區","LI":"管寮里","LIN":"2鄰","STREET":" ","SECT":" ","MAREA":"管寮","LANE":" ","ALLEY":" ","HOUSE_NO":"１２號之１","E_COORD97":170104.57999999999,"N_COORD97":2556213.2999999998,"ADDRESS":"管寮１２號之１","OBJECTID":207147},"geometry":{"x":170104.57999999914,"y":2556213.3000000007}},{"attributes":{"ID":207149,"DIS_CODE":0,"TOWNNAME":"安定區","LI":"蘇厝里","LIN":"2鄰","STREET":" ","SECT":" ","MAREA":"蘇厝","LANE":" ","ALLEY":" ","HOUSE_NO":"２９３之７９號","E_COORD97":173320.97,"N_COORD97":2558355.2999999998,"ADDRESS":"蘇厝２９３之７９號","OBJECTID":207148},"geometry":{"x":173320.9700000016,"y":2558355.3000000026}},{"attributes":{"ID":207150,"DIS_CODE":0,"TOWNNAME":"北區","LI":"成德里","LIN":"22鄰","STREET":"北安路","SECT":"一段","MAREA":" ","LANE":"３４１巷","ALLEY":"３１弄","HOUSE_NO":"７號","E_COORD97":168458.87,"N_COORD97":2546752.1200000001,"ADDRESS":"北安路一段３４１巷３１弄７號","OBJECTID":207149},"geometry":{"x":168458.87000000104,"y":2546752.120000001}},{"attributes":{"ID":207151,"DIS_CODE":0,"TOWNNAME":"安定區","LI":"六嘉里","LIN":"2鄰","STREET":" ","SECT":" ","MAREA":"六塊寮","LANE":" ","ALLEY":" ","HOUSE_NO":"１１之３號","E_COORD97":169957.72,"N_COORD97":2553786.2999999998,"ADDRESS":"六塊寮１１之３號","OBJECTID":207150},"geometry":{"x":169957.72000000067,"y":2553786.3000000007}},{"attributes":{"ID":207152,"DIS_CODE":0,"TOWNNAME":"北區","LI":"成德里","LIN":"22鄰","STREET":"北安路","SECT":"一段","MAREA":" ","LANE":"３４１巷","ALLEY":"３１弄","HOUSE_NO":"９號","E_COORD97":168460.14000000001,"N_COORD97":2546746.3999999999,"ADDRESS":"北安路一段３４１巷３１弄９號","OBJECTID":207151},"geometry":{"x":168460.1400000006,"y":2546746.4000000004}},{"attributes":{"ID":207153,"DIS_CODE":0,"TOWNNAME":"仁德區","LI":"上崙里","LIN":"1鄰","STREET":"德崙路","SECT":" ","MAREA":" ","LANE":"７７巷","ALLEY":" ","HOUSE_NO":"８２號三樓之３","E_COORD97":173603.19909000001,"N_COORD97":2538484.4586299998,"ADDRESS":"德崙路７７巷８２號三樓之３","OBJECTID":207152},"geometry":{"x":173603.19909000024,"y":2538484.4586299993}},{"attributes":{"ID":207154,"DIS_CODE":0,"TOWNNAME":"安定區","LI":"六嘉里","LIN":"2鄰","STREET":" ","SECT":" ","MAREA":"六塊寮","LANE":" ","ALLEY":" ","HOUSE_NO":"１９之１５號","E_COORD97":170090.76999999999,"N_COORD97":2553460.2999999998,"ADDRESS":"六塊寮１９之１５號","OBJECTID":207153},"geometry":{"x":170090.76999999955,"y":2553460.3000000007}},{"attributes":{"ID":207155,"DIS_CODE":0,"TOWNNAME":"安定區","LI":"南安里","LIN":"2鄰","STREET":" ","SECT":" ","MAREA":"油車","LANE":" ","ALLEY":" ","HOUSE_NO":"１９之３號","E_COORD97":170678.73999999999,"N_COORD97":2555791.2999999998,"ADDRESS":"油車１９之３號","OBJECTID":207154},"geometry":{"x":170678.74000000115,"y":2555791.3000000026}},{"attributes":{"ID":207156,"DIS_CODE":0,"TOWNNAME":"安定區","LI":"管寮里","LIN":"2鄰","STREET":" ","SECT":" ","MAREA":"管寮","LANE":" ","ALLEY":" ","HOUSE_NO":"１８號之４","E_COORD97":170074.60000000001,"N_COORD97":2556318.2999999998,"ADDRESS":"管寮１８號之４","OBJECTID":207155},"geometry":{"x":170074.59999999963,"y":2556318.3000000007}},{"attributes":{"ID":207157,"DIS_CODE":0,"TOWNNAME":"安定區","LI":"海寮里","LIN":"2鄰","STREET":" ","SECT":" ","MAREA":"海寮","LANE":" ","ALLEY":" ","HOUSE_NO":"２０之１９號","E_COORD97":169390.23999999999,"N_COORD97":2555148.2999999998,"ADDRESS":"海寮２０之１９號","OBJECTID":207156},"geometry":{"x":169390.24000000115,"y":2555148.3000000026}},{"attributes":{"ID":207158,"DIS_CODE":0,"TOWNNAME":"仁德區","LI":"仁義里","LIN":"18鄰","STREET":"正義三街","SECT":" ","MAREA":" ","LANE":"２８６巷","ALLEY":" ","HOUSE_NO":"５０號","E_COORD97":173988.14000000001,"N_COORD97":2541444.75,"ADDRESS":"正義三街２８６巷５０號","OBJECTID":207157},"geometry":{"x":173988.1400000006,"y":2541444.75}},{"attributes":{"ID":207159,"DIS_CODE":0,"TOWNNAME":"北區","LI":"安民里","LIN":"9鄰","STREET":"成功路","SECT":" ","MAREA":" ","LANE":" ","ALLEY":" ","HOUSE_NO":"３８８號六樓之８","E_COORD97":167989.98999999999,"N_COORD97":2544544.8100000001,"ADDRESS":"成功路３８８號六樓之８","OBJECTID":207158},"geometry":{"x":167989.99000000115,"y":2544544.8100000042}},{"attributes":{"ID":207160,"DIS_CODE":0,"TOWNNAME":"安定區","LI":"港口里","LIN":"2鄰","STREET":" ","SECT":" ","MAREA":"港口","LANE":" ","ALLEY":" ","HOUSE_NO":"２５１號之１５","E_COORD97":171734.92999999999,"N_COORD97":2554726.2999999998,"ADDRESS":"港口２５１號之１５","OBJECTID":207159},"geometry":{"x":171734.93000000063,"y":2554726.3000000045}},{"attributes":{"ID":207161,"DIS_CODE":0,"TOWNNAME":"安定區","LI":"港口里","LIN":"2鄰","STREET":" ","SECT":" ","MAREA":"港口","LANE":" ","ALLEY":" ","HOUSE_NO":"２５０之１０號","E_COORD97":171637.17000899999,"N_COORD97":2554758.8851700001,"ADDRESS":"港口２５０之１０號","OBJECTID":207160},"geometry":{"x":171637.17000900116,"y":2554758.8851660024}},{"attributes":{"ID":207162,"DIS_CODE":0,"TOWNNAME":"安定區","LI":"蘇厝里","LIN":"2鄰","STREET":" ","SECT":" ","MAREA":"蘇厝","LANE":" ","ALLEY":" ","HOUSE_NO":"２９２之２０號","E_COORD97":173288.37,"N_COORD97":2558538.2999999998,"ADDRESS":"蘇厝２９２之２０號","OBJECTID":207161},"geometry":{"x":173288.37000000104,"y":2558538.3000000026}},{"attributes":{"ID":207163,"DIS_CODE":0,"TOWNNAME":"安定區","LI":"港口里","LIN":"2鄰","STREET":" ","SECT":" ","MAREA":"港口","LANE":" ","ALLEY":" ","HOUSE_NO":"２４６號之１","E_COORD97":171672.63,"N_COORD97":2554664.2999999998,"ADDRESS":"港口２４６號之１","OBJECTID":207162},"geometry":{"x":171672.63000000082,"y":2554664.3000000007}},{"attributes":{"ID":207164,"DIS_CODE":0,"TOWNNAME":"安定區","LI":"中榮里","LIN":"2鄰","STREET":" ","SECT":" ","MAREA":"許中營","LANE":" ","ALLEY":" ","HOUSE_NO":"２３之１９號","E_COORD97":172550.69,"N_COORD97":2554785.2999999998,"ADDRESS":"許中營２３之１９號","OBJECTID":207163},"geometry":{"x":172550.69000000134,"y":2554785.3000000026}},{"attributes":{"ID":207165,"DIS_CODE":0,"TOWNNAME":"安定區","LI":"中榮里","LIN":"2鄰","STREET":" ","SECT":" ","MAREA":"許中營","LANE":" ","ALLEY":" ","HOUSE_NO":"２１之８號","E_COORD97":172518.84,"N_COORD97":2554919.2999999998,"ADDRESS":"許中營２１之８號","OBJECTID":207164},"geometry":{"x":172518.84000000078,"y":2554919.3000000007}},{"attributes":{"ID":207166,"DIS_CODE":0,"TOWNNAME":"安定區","LI":"蘇厝里","LIN":"2鄰","STREET":" ","SECT":" ","MAREA":"蘇厝","LANE":" ","ALLEY":" ","HOUSE_NO":"２９３之３８號","E_COORD97":173352.67000000001,"N_COORD97":2558466.2999999998,"ADDRESS":"蘇厝２９３之３８號","OBJECTID":207165},"geometry":{"x":173352.67000000086,"y":2558466.3000000026}},{"attributes":{"ID":207167,"DIS_CODE":0,"TOWNNAME":"安定區","LI":"蘇厝里","LIN":"2鄰","STREET":" ","SECT":" ","MAREA":"蘇厝","LANE":" ","ALLEY":" ","HOUSE_NO":"２９３之１６號","E_COORD97":173345.76999999999,"N_COORD97":2558478.2999999998,"ADDRESS":"蘇厝２９３之１６號","OBJECTID":207166},"geometry":{"x":173345.77000000142,"y":2558478.3000000007}},{"attributes":{"ID":207168,"DIS_CODE":0,"TOWNNAME":"安定區","LI":"海寮里","LIN":"2鄰","STREET":" ","SECT":" ","MAREA":"海寮","LANE":" ","ALLEY":" ","HOUSE_NO":"２６號","E_COORD97":169481.69,"N_COORD97":2555210.25,"ADDRESS":"海寮２６號","OBJECTID":207167},"geometry":{"x":169481.69000000041,"y":2555210.25}},{"attributes":{"ID":207169,"DIS_CODE":0,"TOWNNAME":"安定區","LI":"海寮里","LIN":"2鄰","STREET":" ","SECT":" ","MAREA":"海寮","LANE":" ","ALLEY":" ","HOUSE_NO":"２４之３號","E_COORD97":169432.19,"N_COORD97":2555223.2999999998,"ADDRESS":"海寮２４之３號","OBJECTID":207168},"geometry":{"x":169432.19000000041,"y":2555223.3000000007}},{"attributes":{"ID":207170,"DIS_CODE":0,"TOWNNAME":"安定區","LI":"蘇厝里","LIN":"2鄰","STREET":" ","SECT":" ","MAREA":"蘇厝","LANE":" ","ALLEY":" ","HOUSE_NO":"２９２號","E_COORD97":173299.82000000001,"N_COORD97":2558558.25,"ADDRESS":"蘇厝２９２號","OBJECTID":207169},"geometry":{"x":173299.8200000003,"y":2558558.2500000019}},{"attributes":{"ID":207171,"DIS_CODE":0,"TOWNNAME":"安定區","LI":"中榮里","LIN":"2鄰","STREET":" ","SECT":" ","MAREA":"許中營","LANE":" ","ALLEY":" ","HOUSE_NO":"２５之１０號","E_COORD97":172621.89000000001,"N_COORD97":2554945.2999999998,"ADDRESS":"許中營２５之１０號","OBJECTID":207170},"geometry":{"x":172621.8900000006,"y":2554945.3000000007}},{"attributes":{"ID":207172,"DIS_CODE":0,"TOWNNAME":"安定區","LI":"港尾里","LIN":"2鄰","STREET":" ","SECT":" ","MAREA":"下洲子","LANE":" ","ALLEY":" ","HOUSE_NO":"１３之２號","E_COORD97":172485.59,"N_COORD97":2556643.2999999998,"ADDRESS":"下洲子１３之２號","OBJECTID":207171},"geometry":{"x":172485.58999999985,"y":2556643.3000000026}},{"attributes":{"ID":207173,"DIS_CODE":0,"TOWNNAME":"安定區","LI":"蘇厝里","LIN":"2鄰","STREET":" ","SECT":" ","MAREA":"蘇厝","LANE":" ","ALLEY":" ","HOUSE_NO":"２９３之５３號","E_COORD97":173399.57000000001,"N_COORD97":2558482.2999999998,"ADDRESS":"蘇厝２９３之５３號","OBJECTID":207172},"geometry":{"x":173399.57000000123,"y":2558482.3000000007}},{"attributes":{"ID":207174,"DIS_CODE":0,"TOWNNAME":"安定區","LI":"大同里","LIN":"2鄰","STREET":" ","SECT":" ","MAREA":"大同","LANE":" ","ALLEY":" ","HOUSE_NO":"１２之２號","E_COORD97":170544.17000000001,"N_COORD97":2553901.2999999998,"ADDRESS":"大同１２之２號","OBJECTID":207173},"geometry":{"x":170544.16999999993,"y":2553901.3000000007}},{"attributes":{"ID":207175,"DIS_CODE":0,"TOWNNAME":"安定區","LI":"蘇厝里","LIN":"2鄰","STREET":" ","SECT":" ","MAREA":"蘇厝","LANE":" ","ALLEY":" ","HOUSE_NO":"２８９號之４","E_COORD97":173272.07999999999,"N_COORD97":2558552.2999999998,"ADDRESS":"蘇厝２８９號之４","OBJECTID":207174},"geometry":{"x":173272.08000000101,"y":2558552.3000000026}},{"attributes":{"ID":207176,"DIS_CODE":0,"TOWNNAME":"永康區","LI":"北灣里","LIN":"39鄰","STREET":"大同街","SECT":" ","MAREA":" ","LANE":"４２５巷","ALLEY":"１弄","HOUSE_NO":"１１號","E_COORD97":174603.57000000001,"N_COORD97":2546291.9900000002,"ADDRESS":"大同街４２５巷１弄１１號","OBJECTID":207175},"geometry":{"x":174603.5700000003,"y":2546291.9900000002}},{"attributes":{"ID":207177,"DIS_CODE":0,"TOWNNAME":"安定區","LI":"蘇厝里","LIN":"2鄰","STREET":" ","SECT":" ","MAREA":"蘇厝","LANE":" ","ALLEY":" ","HOUSE_NO":"２８９號之９","E_COORD97":173257.73999999999,"N_COORD97":2558603.2999999998,"ADDRESS":"蘇厝２８９號之９","OBJECTID":207176},"geometry":{"x":173257.74000000022,"y":2558603.3000000026}},{"attributes":{"ID":207178,"DIS_CODE":0,"TOWNNAME":"安定區","LI":"大同里","LIN":"2鄰","STREET":" ","SECT":" ","MAREA":"大同","LANE":" ","ALLEY":" ","HOUSE_NO":"１４號","E_COORD97":170521.26999999999,"N_COORD97":2553882.25,"ADDRESS":"大同１４號","OBJECTID":207177},"geometry":{"x":170521.26999999955,"y":2553882.2500000019}},{"attributes":{"ID":207179,"DIS_CODE":0,"TOWNNAME":"安定區","LI":"安定里","LIN":"2鄰","STREET":" ","SECT":" ","MAREA":"領寄","LANE":" ","ALLEY":" ","HOUSE_NO":"２６號","E_COORD97":173476.79000000001,"N_COORD97":2557200.25,"ADDRESS":"領寄２６號","OBJECTID":207178},"geometry":{"x":173476.79000000097,"y":2557200.25}},{"attributes":{"ID":207180,"DIS_CODE":0,"TOWNNAME":"安定區","LI":"港口里","LIN":"2鄰","STREET":" ","SECT":" ","MAREA":"港口","LANE":" ","ALLEY":" ","HOUSE_NO":"２５１之３４號","E_COORD97":171852.04000000001,"N_COORD97":2554825.2999999998,"ADDRESS":"港口２５１之３４號","OBJECTID":207179},"geometry":{"x":171852.04000000004,"y":2554825.3000000026}},{"attributes":{"ID":207181,"DIS_CODE":0,"TOWNNAME":"安定區","LI":"六嘉里","LIN":"2鄰","STREET":" ","SECT":" ","MAREA":"六塊寮","LANE":" ","ALLEY":" ","HOUSE_NO":"１８之１５號","E_COORD97":170240.26999999999,"N_COORD97":2553574.2999999998,"ADDRESS":"六塊寮１８之１５號","OBJECTID":207180},"geometry":{"x":170240.27000000142,"y":2553574.3000000026}},{"attributes":{"ID":207182,"DIS_CODE":0,"TOWNNAME":"安定區","LI":"港口里","LIN":"2鄰","STREET":" ","SECT":" ","MAREA":"港口","LANE":" ","ALLEY":" ","HOUSE_NO":"２５０之１３號","E_COORD97":171633.83400599999,"N_COORD97":2554745.65601,"ADDRESS":"港口２５０之１３號","OBJECTID":207181},"geometry":{"x":171633.83400600031,"y":2554745.6560060009}},{"attributes":{"ID":207183,"DIS_CODE":0,"TOWNNAME":"安定區","LI":"中沙里","LIN":"2鄰","STREET":" ","SECT":" ","MAREA":"中崙","LANE":" ","ALLEY":" ","HOUSE_NO":"８７號之４","E_COORD97":168934.82000000001,"N_COORD97":2553282.2999999998,"ADDRESS":"中崙８７號之４","OBJECTID":207182},"geometry":{"x":168934.8200000003,"y":2553282.3000000045}},{"attributes":{"ID":207184,"DIS_CODE":0,"TOWNNAME":"安定區","LI":"六嘉里","LIN":"2鄰","STREET":" ","SECT":" ","MAREA":"六塊寮","LANE":" ","ALLEY":" ","HOUSE_NO":"１８之１３號","E_COORD97":170320.37,"N_COORD97":2553644.2999999998,"ADDRESS":"六塊寮１８之１３號","OBJECTID":207183},"geometry":{"x":170320.37000000104,"y":2553644.3000000007}},{"attributes":{"ID":207185,"DIS_CODE":0,"TOWNNAME":"安定區","LI":"港口里","LIN":"2鄰","STREET":" ","SECT":" ","MAREA":"港口","LANE":" ","ALLEY":" ","HOUSE_NO":"２５１號之１３","E_COORD97":171711.47,"N_COORD97":2554774.2999999998,"ADDRESS":"港口２５１號之１３","OBJECTID":207184},"geometry":{"x":171711.46999999974,"y":2554774.3000000026}},{"attributes":{"ID":207186,"DIS_CODE":0,"TOWNNAME":"安定區","LI":"港尾里","LIN":"2鄰","STREET":" ","SECT":" ","MAREA":"下洲子","LANE":" ","ALLEY":" ","HOUSE_NO":"１２號","E_COORD97":172483.318918,"N_COORD97":2556703.2992099999,"ADDRESS":"下洲子１２號","OBJECTID":207185},"geometry":{"x":172483.31891800184,"y":2556703.299208004}},{"attributes":{"ID":207187,"DIS_CODE":0,"TOWNNAME":"安定區","LI":"六嘉里","LIN":"2鄰","STREET":" ","SECT":" ","MAREA":"六塊寮","LANE":" ","ALLEY":" ","HOUSE_NO":"１８之１４號","E_COORD97":170308.67000000001,"N_COORD97":2553635.2999999998,"ADDRESS":"六塊寮１８之１４號","OBJECTID":207186},"geometry":{"x":170308.66999999993,"y":2553635.3000000026}},{"attributes":{"ID":207188,"DIS_CODE":0,"TOWNNAME":"安定區","LI":"港尾里","LIN":"2鄰","STREET":" ","SECT":" ","MAREA":"下洲子","LANE":" ","ALLEY":" ","HOUSE_NO":"１２之１號","E_COORD97":172470.92804900001,"N_COORD97":2556703.2992099999,"ADDRESS":"下洲子１２之１號","OBJECTID":207187},"geometry":{"x":172470.92804900184,"y":2556703.299208004}},{"attributes":{"ID":207189,"DIS_CODE":0,"TOWNNAME":"安定區","LI":"港口里","LIN":"2鄰","STREET":" ","SECT":" ","MAREA":"港口","LANE":" ","ALLEY":" ","HOUSE_NO":"２５１號之２１","E_COORD97":171663.48000000001,"N_COORD97":2554772.2999999998,"ADDRESS":"港口２５１號之２１","OBJECTID":207188},"geometry":{"x":171663.48000000045,"y":2554772.3000000007}},{"attributes":{"ID":207190,"DIS_CODE":0,"TOWNNAME":"安定區","LI":"港口里","LIN":"2鄰","STREET":" ","SECT":" ","MAREA":"港口","LANE":" ","ALLEY":" ","HOUSE_NO":"２５１號之１１","E_COORD97":171734.48000000001,"N_COORD97":2554753.2999999998,"ADDRESS":"港口２５１號之１１","OBJECTID":207189},"geometry":{"x":171734.48000000045,"y":2554753.2999999989}},{"attributes":{"ID":207191,"DIS_CODE":0,"TOWNNAME":"安定區","LI":"港口里","LIN":"2鄰","STREET":" ","SECT":" ","MAREA":"港口","LANE":" ","ALLEY":" ","HOUSE_NO":"２５１號之５","E_COORD97":171710.57999999999,"N_COORD97":2554791.2999999998,"ADDRESS":"港口２５１號之５","OBJECTID":207190},"geometry":{"x":171710.58000000101,"y":2554791.3000000026}},{"attributes":{"ID":207192,"DIS_CODE":0,"TOWNNAME":"安定區","LI":"六嘉里","LIN":"2鄰","STREET":" ","SECT":" ","MAREA":"六塊寮","LANE":" ","ALLEY":" ","HOUSE_NO":"１９號","E_COORD97":170103.92000000001,"N_COORD97":2553491.27,"ADDRESS":"六塊寮１９號","OBJECTID":207191},"geometry":{"x":170103.92000000179,"y":2553491.2700000033}},{"attributes":{"ID":207193,"DIS_CODE":0,"TOWNNAME":"安定區","LI":"港尾里","LIN":"2鄰","STREET":" ","SECT":" ","MAREA":"下洲子","LANE":" ","ALLEY":" ","HOUSE_NO":"２２之３號","E_COORD97":172346.48999999999,"N_COORD97":2556591.2999999998,"ADDRESS":"下洲子２２之３號","OBJECTID":207192},"geometry":{"x":172346.49000000209,"y":2556591.3000000045}},{"attributes":{"ID":207194,"DIS_CODE":0,"TOWNNAME":"安定區","LI":"中榮里","LIN":"2鄰","STREET":" ","SECT":" ","MAREA":"許中營","LANE":" ","ALLEY":" ","HOUSE_NO":"１７之８號","E_COORD97":172482.64000000001,"N_COORD97":2554868.2999999998,"ADDRESS":"許中營１７之８號","OBJECTID":207193},"geometry":{"x":172482.6400000006,"y":2554868.3000000007}},{"attributes":{"ID":207195,"DIS_CODE":0,"TOWNNAME":"安定區","LI":"港口里","LIN":"2鄰","STREET":" ","SECT":" ","MAREA":"港口","LANE":" ","ALLEY":" ","HOUSE_NO":"２５１之１９號","E_COORD97":171734.44,"N_COORD97":2554721.2999999998,"ADDRESS":"港口２５１之１９號","OBJECTID":207194},"geometry":{"x":171734.44000000041,"y":2554721.3000000026}},{"attributes":{"ID":207196,"DIS_CODE":0,"TOWNNAME":"安定區","LI":"港口里","LIN":"2鄰","STREET":" ","SECT":" ","MAREA":"港口","LANE":" ","ALLEY":" ","HOUSE_NO":"２５１之２９號","E_COORD97":171712.84,"N_COORD97":2554881.2999999998,"ADDRESS":"港口２５１之２９號","OBJECTID":207195},"geometry":{"x":171712.83999999985,"y":2554881.3000000007}},{"attributes":{"ID":207197,"DIS_CODE":0,"TOWNNAME":"安定區","LI":"安定里","LIN":"2鄰","STREET":" ","SECT":" ","MAREA":"領寄","LANE":" ","ALLEY":" ","HOUSE_NO":"２１之１０號","E_COORD97":173446.94,"N_COORD97":2557183.2999999998,"ADDRESS":"領寄２１之１０號","OBJECTID":207196},"geometry":{"x":173446.94000000041,"y":2557183.3000000007}},{"attributes":{"ID":207198,"DIS_CODE":0,"TOWNNAME":"安定區","LI":"港口里","LIN":"2鄰","STREET":" ","SECT":" ","MAREA":"港口","LANE":" ","ALLEY":" ","HOUSE_NO":"２５０之１６號","E_COORD97":171631.61000399999,"N_COORD97":2554736.8718400002,"ADDRESS":"港口２５０之１６號","OBJECTID":207197},"geometry":{"x":171631.61000400223,"y":2554736.871844003}},{"attributes":{"ID":207199,"DIS_CODE":0,"TOWNNAME":"安定區","LI":"港尾里","LIN":"2鄰","STREET":" ","SECT":" ","MAREA":"下洲子","LANE":" ","ALLEY":" ","HOUSE_NO":"２０之１號","E_COORD97":172282.39000000001,"N_COORD97":2556653.2999999998,"ADDRESS":"下洲子２０之１號","OBJECTID":207198},"geometry":{"x":172282.3900000006,"y":2556653.3000000026}},{"attributes":{"ID":207200,"DIS_CODE":0,"TOWNNAME":"安定區","LI":"港口里","LIN":"2鄰","STREET":" ","SECT":" ","MAREA":"港口","LANE":" ","ALLEY":" ","HOUSE_NO":"２５１之２７號","E_COORD97":171712.64000000001,"N_COORD97":2554872.2999999998,"ADDRESS":"港口２５１之２７號","OBJECTID":207199},"geometry":{"x":171712.64000000153,"y":2554872.3000000045}},{"attributes":{"ID":207201,"DIS_CODE":0,"TOWNNAME":"安定區","LI":"港口里","LIN":"2鄰","STREET":" ","SECT":" ","MAREA":"港口","LANE":" ","ALLEY":" ","HOUSE_NO":"２５１之１６號","E_COORD97":171736.14000000001,"N_COORD97":2554860.2999999998,"ADDRESS":"港口２５１之１６號","OBJECTID":207200},"geometry":{"x":171736.13999999966,"y":2554860.3000000026}}]}