{"displayFieldName":"TOWNNAME","fieldAliases":{"ID":"ID","DIS_CODE":"DIS_CODE","TOWNNAME":"TOWNNAME","LI":"LI","LIN":"LIN","STREET":"STREET","SECT":"SECT","MAREA":"MAREA","LANE":"LANE","ALLEY":"ALLEY","HOUSE_NO":"HOUSE_NO","E_COORD97":"E_COORD97","N_COORD97":"N_COORD97","ADDRESS":"ADDRESS","OBJECTID":"OBJECTID"},"geometryType":"esriGeometryPoint","spatialReference":{"wkid":102443,"latestWkid":3826},"fields":[{"name":"ID","type":"esriFieldTypeDouble","alias":"ID"},{"name":"DIS_CODE","type":"esriFieldTypeInteger","alias":"DIS_CODE"},{"name":"TOWNNAME","type":"esriFieldTypeString","alias":"TOWNNAME","length":8},{"name":"LI","type":"esriFieldTypeString","alias":"LI","length":8},{"name":"LIN","type":"esriFieldTypeString","alias":"LIN","length":12},{"name":"STREET","type":"esriFieldTypeString","alias":"STREET","length":20},{"name":"SECT","type":"esriFieldTypeString","alias":"SECT","length":8},{"name":"MAREA","type":"esriFieldTypeString","alias":"MAREA","length":12},{"name":"LANE","type":"esriFieldTypeString","alias":"LANE","length":10},{"name":"ALLEY","type":"esriFieldTypeString","alias":"ALLEY","length":10},{"name":"HOUSE_NO","type":"esriFieldTypeString","alias":"HOUSE_NO","length":20},{"name":"E_COORD97","type":"esriFieldTypeDouble","alias":"E_COORD97"},{"name":"N_COORD97","type":"esriFieldTypeDouble","alias":"N_COORD97"},{"name":"ADDRESS","type":"esriFieldTypeString","alias":"ADDRESS","length":50},{"name":"OBJECTID","type":"esriFieldTypeOID","alias":"OBJECTID"}],"features":[{"attributes":{"ID":491426,"DIS_CODE":0,"TOWNNAME":"安南區","LI":"海佃里","LIN":"1鄰","STREET":"國安街","SECT":" ","MAREA":" ","LANE":"２８巷","ALLEY":" ","HOUSE_NO":"１０號","E_COORD97":167074.54999999999,"N_COORD97":2547070.8599999999,"ADDRESS":"國安街２８巷１０號","OBJECTID":491401},"geometry":{"x":167074.54999999981,"y":2547070.8599999994}},{"attributes":{"ID":491427,"DIS_CODE":0,"TOWNNAME":"新市區","LI":"港墘里","LIN":"1鄰","STREET":"民族路","SECT":" ","MAREA":" ","LANE":"１６巷","ALLEY":" ","HOUSE_NO":"５號","E_COORD97":178599.29000000001,"N_COORD97":2553932.79,"ADDRESS":"民族路１６巷５號","OBJECTID":491402},"geometry":{"x":178599.29000000004,"y":2553932.790000001}},{"attributes":{"ID":491428,"DIS_CODE":0,"TOWNNAME":"永康區","LI":"\u25A0洲里","LIN":"1鄰","STREET":"仁愛街","SECT":" ","MAREA":" ","LANE":"５巷","ALLEY":" ","HOUSE_NO":"３號","E_COORD97":171907.01999999999,"N_COORD97":2549224.1000000001,"ADDRESS":"仁愛街５巷３號","OBJECTID":491403},"geometry":{"x":171907.02000000048,"y":2549224.1000000034}},{"attributes":{"ID":491429,"DIS_CODE":0,"TOWNNAME":"北區","LI":"興南里","LIN":"1鄰","STREET":"公園南路","SECT":" ","MAREA":" ","LANE":"６０巷","ALLEY":" ","HOUSE_NO":"２號","E_COORD97":168826.79000000001,"N_COORD97":2544680.23,"ADDRESS":"公園南路６０巷２號","OBJECTID":491404},"geometry":{"x":168826.7900000019,"y":2544680.2300000004}},{"attributes":{"ID":491430,"DIS_CODE":0,"TOWNNAME":"關廟區","LI":"南花里","LIN":"1鄰","STREET":"中山路","SECT":"一段","MAREA":" ","LANE":"２１６巷","ALLEY":" ","HOUSE_NO":"９號","E_COORD97":181901.021392,"N_COORD97":2540009.7043900001,"ADDRESS":"中山路一段２１６巷９號","OBJECTID":491405},"geometry":{"x":181901.02139200084,"y":2540009.704389004}},{"attributes":{"ID":491431,"DIS_CODE":0,"TOWNNAME":"新化區","LI":"護國里","LIN":"1鄰","STREET":"中山路","SECT":" ","MAREA":" ","LANE":"２２４巷","ALLEY":" ","HOUSE_NO":"１１號","E_COORD97":179098.06,"N_COORD97":2548528.25,"ADDRESS":"中山路２２４巷１１號","OBJECTID":491406},"geometry":{"x":179098.06000000052,"y":2548528.2500000037}},{"attributes":{"ID":491432,"DIS_CODE":0,"TOWNNAME":"新化區","LI":"竹林里","LIN":"1鄰","STREET":"竹林路","SECT":" ","MAREA":" ","LANE":"６３巷","ALLEY":" ","HOUSE_NO":"３號","E_COORD97":178795.07999999999,"N_COORD97":2548576.25,"ADDRESS":"竹林路６３巷３號","OBJECTID":491407},"geometry":{"x":178795.08000000007,"y":2548576.2500000019}},{"attributes":{"ID":491433,"DIS_CODE":0,"TOWNNAME":"新化區","LI":"清水里","LIN":"1鄰","STREET":"中山路","SECT":" ","MAREA":" ","LANE":"３８５巷","ALLEY":" ","HOUSE_NO":"１號之３","E_COORD97":178819.66,"N_COORD97":2548381.2599999998,"ADDRESS":"中山路３８５巷１號之３","OBJECTID":491408},"geometry":{"x":178819.66000000108,"y":2548381.2599999998}},{"attributes":{"ID":491434,"DIS_CODE":0,"TOWNNAME":"永康區","LI":"埔園里","LIN":"1鄰","STREET":"永埔街","SECT":" ","MAREA":" ","LANE":"６３巷","ALLEY":" ","HOUSE_NO":"７號","E_COORD97":173936.60999999999,"N_COORD97":2547622.7400000002,"ADDRESS":"永埔街６３巷７號","OBJECTID":491409},"geometry":{"x":173936.61000000127,"y":2547622.7400000002}},{"attributes":{"ID":491435,"DIS_CODE":0,"TOWNNAME":"東區","LI":"虎尾里","LIN":"1鄰","STREET":"東門路","SECT":"三段","MAREA":" ","LANE":"１４１巷","ALLEY":" ","HOUSE_NO":"２８號","E_COORD97":171419.42999999999,"N_COORD97":2542123.25,"ADDRESS":"東門路三段１４１巷２８號","OBJECTID":491410},"geometry":{"x":171419.43000000063,"y":2542123.25}},{"attributes":{"ID":491436,"DIS_CODE":0,"TOWNNAME":"東區","LI":"虎尾里","LIN":"1鄰","STREET":"東門路","SECT":"三段","MAREA":" ","LANE":"１４１巷","ALLEY":" ","HOUSE_NO":"３０號","E_COORD97":171419.42999999999,"N_COORD97":2542127.3900000001,"ADDRESS":"東門路三段１４１巷３０號","OBJECTID":491411},"geometry":{"x":171419.43000000063,"y":2542127.3900000025}},{"attributes":{"ID":491437,"DIS_CODE":0,"TOWNNAME":"東區","LI":"虎尾里","LIN":"1鄰","STREET":"東門路","SECT":"三段","MAREA":" ","LANE":"１４１巷","ALLEY":" ","HOUSE_NO":"３２號","E_COORD97":171418.48999999999,"N_COORD97":2542131.1499999999,"ADDRESS":"東門路三段１４１巷３２號","OBJECTID":491412},"geometry":{"x":171418.49000000022,"y":2542131.1500000004}},{"attributes":{"ID":491438,"DIS_CODE":0,"TOWNNAME":"東區","LI":"虎尾里","LIN":"1鄰","STREET":"東門路","SECT":"三段","MAREA":" ","LANE":"１４１巷","ALLEY":" ","HOUSE_NO":"６號","E_COORD97":171424.51000000001,"N_COORD97":2542089.23,"ADDRESS":"東門路三段１４１巷６號","OBJECTID":491413},"geometry":{"x":171424.51000000071,"y":2542089.2300000004}},{"attributes":{"ID":491439,"DIS_CODE":0,"TOWNNAME":"東區","LI":"虎尾里","LIN":"1鄰","STREET":"東門路","SECT":"三段","MAREA":" ","LANE":"１４１巷","ALLEY":" ","HOUSE_NO":"８號","E_COORD97":171423.01000000001,"N_COORD97":2542093.5600000001,"ADDRESS":"東門路三段１４１巷８號","OBJECTID":491414},"geometry":{"x":171423.00999999978,"y":2542093.5600000024}},{"attributes":{"ID":491440,"DIS_CODE":0,"TOWNNAME":"永康區","LI":"永康里","LIN":"1鄰","STREET":"永埔街","SECT":" ","MAREA":" ","LANE":"３３巷","ALLEY":" ","HOUSE_NO":"８號","E_COORD97":173987.19,"N_COORD97":2547544.75,"ADDRESS":"永埔街３３巷８號","OBJECTID":491415},"geometry":{"x":173987.19000000041,"y":2547544.75}},{"attributes":{"ID":491441,"DIS_CODE":0,"TOWNNAME":"新化區","LI":"豐榮里","LIN":"13鄰","STREET":"民治路","SECT":" ","MAREA":" ","LANE":"４３巷","ALLEY":" ","HOUSE_NO":"１３號","E_COORD97":178687.41,"N_COORD97":2548084.25,"ADDRESS":"民治路４３巷１３號","OBJECTID":491416},"geometry":{"x":178687.41000000108,"y":2548084.2500000037}},{"attributes":{"ID":491442,"DIS_CODE":0,"TOWNNAME":"新化區","LI":"知義里","LIN":"14鄰","STREET":"復興路","SECT":" ","MAREA":" ","LANE":"８８巷","ALLEY":" ","HOUSE_NO":"２６號","E_COORD97":179573.82000000001,"N_COORD97":2547641.25,"ADDRESS":"復興路８８巷２６號","OBJECTID":491417},"geometry":{"x":179573.8200000003,"y":2547641.2500000019}},{"attributes":{"ID":491443,"DIS_CODE":0,"TOWNNAME":"東區","LI":"文聖里","LIN":"1鄰","STREET":"裕學路","SECT":" ","MAREA":" ","LANE":" ","ALLEY":" ","HOUSE_NO":"１１２號","E_COORD97":171650.89503700001,"N_COORD97":2542828.6277999999,"ADDRESS":"裕學路１１２號","OBJECTID":491418},"geometry":{"x":171650.895037001,"y":2542828.6277960036}},{"attributes":{"ID":491444,"DIS_CODE":0,"TOWNNAME":"新化區","LI":"護國里","LIN":"8鄰","STREET":"信義路","SECT":" ","MAREA":" ","LANE":"４０巷","ALLEY":" ","HOUSE_NO":"６０號","E_COORD97":180616.13,"N_COORD97":2549016.25,"ADDRESS":"信義路４０巷６０號","OBJECTID":491419},"geometry":{"x":180616.13000000175,"y":2549016.25}},{"attributes":{"ID":491445,"DIS_CODE":0,"TOWNNAME":"新化區","LI":"清水里","LIN":"7鄰","STREET":"忠孝路","SECT":" ","MAREA":" ","LANE":"１６１巷","ALLEY":" ","HOUSE_NO":"３７號","E_COORD97":178646.97,"N_COORD97":2548517.25,"ADDRESS":"忠孝路１６１巷３７號","OBJECTID":491420},"geometry":{"x":178646.96999999974,"y":2548517.25}},{"attributes":{"ID":491446,"DIS_CODE":0,"TOWNNAME":"中西區","LI":"保安里","LIN":"1鄰","STREET":"友愛街","SECT":" ","MAREA":" ","LANE":"２０１巷","ALLEY":" ","HOUSE_NO":"７號","E_COORD97":167705.69,"N_COORD97":2543581.3900000001,"ADDRESS":"友愛街２０１巷７號","OBJECTID":491421},"geometry":{"x":167705.69000000227,"y":2543581.3900000043}},{"attributes":{"ID":491447,"DIS_CODE":0,"TOWNNAME":"中西區","LI":"保安里","LIN":"1鄰","STREET":"友愛街","SECT":" ","MAREA":" ","LANE":"２０１巷","ALLEY":" ","HOUSE_NO":"９號","E_COORD97":167696.73999999999,"N_COORD97":2543580.02,"ADDRESS":"友愛街２０１巷９號","OBJECTID":491422},"geometry":{"x":167696.74000000115,"y":2543580.0200000014}},{"attributes":{"ID":491448,"DIS_CODE":0,"TOWNNAME":"東區","LI":"崇學里","LIN":"1鄰","STREET":"崇德路","SECT":" ","MAREA":" ","LANE":"３３３巷","ALLEY":" ","HOUSE_NO":"４３號","E_COORD97":170426.59,"N_COORD97":2542080.7000000002,"ADDRESS":"崇德路３３３巷４３號","OBJECTID":491423},"geometry":{"x":170426.59000000078,"y":2542080.7000000011}},{"attributes":{"ID":491449,"DIS_CODE":0,"TOWNNAME":"永康區","LI":"埔園里","LIN":"1鄰","STREET":"永埔街","SECT":" ","MAREA":" ","LANE":"６３巷","ALLEY":" ","HOUSE_NO":"３號","E_COORD97":173946.92000000001,"N_COORD97":2547632.9900000002,"ADDRESS":"永埔街６３巷３號","OBJECTID":491424},"geometry":{"x":173946.92000000179,"y":2547632.9900000021}},{"attributes":{"ID":491450,"DIS_CODE":0,"TOWNNAME":"永康區","LI":"中華里","LIN":"1鄰","STREET":"小東路","SECT":" ","MAREA":" ","LANE":"６８５巷","ALLEY":" ","HOUSE_NO":"６號之２８","E_COORD97":172052.34,"N_COORD97":2544383.3599999999,"ADDRESS":"小東路６８５巷６號之２８","OBJECTID":491425},"geometry":{"x":172052.34000000078,"y":2544383.3599999994}},{"attributes":{"ID":491451,"DIS_CODE":0,"TOWNNAME":"北區","LI":"實踐里","LIN":"5鄰","STREET":"長榮路","SECT":"五段","MAREA":" ","LANE":"２９８巷","ALLEY":" ","HOUSE_NO":"１２號十二樓之２","E_COORD97":169776.38,"N_COORD97":2545961.7400000002,"ADDRESS":"長榮路五段２９８巷１２號十二樓之２","OBJECTID":491426},"geometry":{"x":169776.37999999989,"y":2545961.7400000002}},{"attributes":{"ID":491452,"DIS_CODE":0,"TOWNNAME":"北區","LI":"實踐里","LIN":"5鄰","STREET":"長榮路","SECT":"五段","MAREA":" ","LANE":"２９８巷","ALLEY":" ","HOUSE_NO":"２６號三樓之１","E_COORD97":169786.69,"N_COORD97":2545992.79,"ADDRESS":"長榮路五段２９８巷２６號三樓之１","OBJECTID":491427},"geometry":{"x":169786.69000000041,"y":2545992.790000001}},{"attributes":{"ID":491453,"DIS_CODE":0,"TOWNNAME":"北區","LI":"實踐里","LIN":"5鄰","STREET":"長榮路","SECT":"五段","MAREA":" ","LANE":"２９８巷","ALLEY":" ","HOUSE_NO":"２６號三樓之２","E_COORD97":169786.69,"N_COORD97":2545992.79,"ADDRESS":"長榮路五段２９８巷２６號三樓之２","OBJECTID":491428},"geometry":{"x":169786.69000000041,"y":2545992.790000001}},{"attributes":{"ID":491454,"DIS_CODE":0,"TOWNNAME":"北區","LI":"實踐里","LIN":"5鄰","STREET":"長榮路","SECT":"五段","MAREA":" ","LANE":"２９８巷","ALLEY":" ","HOUSE_NO":"２６號四樓之１","E_COORD97":169786.69,"N_COORD97":2545992.79,"ADDRESS":"長榮路五段２９８巷２６號四樓之１","OBJECTID":491429},"geometry":{"x":169786.69000000041,"y":2545992.790000001}},{"attributes":{"ID":491455,"DIS_CODE":0,"TOWNNAME":"北區","LI":"實踐里","LIN":"5鄰","STREET":"長榮路","SECT":"五段","MAREA":" ","LANE":"２９８巷","ALLEY":" ","HOUSE_NO":"２６號四樓之２","E_COORD97":169786.69,"N_COORD97":2545992.79,"ADDRESS":"長榮路五段２９８巷２６號四樓之２","OBJECTID":491430},"geometry":{"x":169786.69000000041,"y":2545992.790000001}},{"attributes":{"ID":491456,"DIS_CODE":0,"TOWNNAME":"新化區","LI":"東榮里","LIN":"8鄰","STREET":"信義路","SECT":" ","MAREA":" ","LANE":"１１７巷","ALLEY":" ","HOUSE_NO":"２８號之２５","E_COORD97":179732.98999999999,"N_COORD97":2548306.2599999998,"ADDRESS":"信義路１１７巷２８號之２５","OBJECTID":491431},"geometry":{"x":179732.99000000115,"y":2548306.2599999998}},{"attributes":{"ID":491457,"DIS_CODE":0,"TOWNNAME":"關廟區","LI":"關廟里","LIN":"9鄰","STREET":"民生街","SECT":" ","MAREA":" ","LANE":"８７巷","ALLEY":" ","HOUSE_NO":"９號","E_COORD97":180882.94,"N_COORD97":2539682.29,"ADDRESS":"民生街８７巷９號","OBJECTID":491432},"geometry":{"x":180882.94000000134,"y":2539682.290000001}},{"attributes":{"ID":491458,"DIS_CODE":0,"TOWNNAME":"安南區","LI":"安慶里","LIN":"5鄰","STREET":"怡安路","SECT":"一段","MAREA":" ","LANE":"２６２巷","ALLEY":" ","HOUSE_NO":"４７號","E_COORD97":169017.87,"N_COORD97":2549267.77,"ADDRESS":"怡安路一段２６２巷４７號","OBJECTID":491433},"geometry":{"x":169017.87000000197,"y":2549267.7700000014}},{"attributes":{"ID":491459,"DIS_CODE":0,"TOWNNAME":"安南區","LI":"安慶里","LIN":"5鄰","STREET":"怡安路","SECT":"一段","MAREA":" ","LANE":"２６２巷","ALLEY":" ","HOUSE_NO":"４９號","E_COORD97":169017.23000000001,"N_COORD97":2549272.0600000001,"ADDRESS":"怡安路一段２６２巷４９號","OBJECTID":491434},"geometry":{"x":169017.23000000045,"y":2549272.0600000005}},{"attributes":{"ID":491460,"DIS_CODE":0,"TOWNNAME":"安南區","LI":"安慶里","LIN":"5鄰","STREET":"怡安路","SECT":"一段","MAREA":" ","LANE":"２６２巷","ALLEY":" ","HOUSE_NO":"５１號","E_COORD97":169016.60000000001,"N_COORD97":2549276.3500000001,"ADDRESS":"怡安路一段２６２巷５１號","OBJECTID":491435},"geometry":{"x":169016.59999999963,"y":2549276.3499999978}},{"attributes":{"ID":491461,"DIS_CODE":0,"TOWNNAME":"南區","LI":"大林里","LIN":"5鄰","STREET":"大同路","SECT":"二段","MAREA":" ","LANE":"四三０巷","ALLEY":" ","HOUSE_NO":"４０號","E_COORD97":169260.32999999999,"N_COORD97":2541599.7799999998,"ADDRESS":"大同路二段四三０巷４０號","OBJECTID":491436},"geometry":{"x":169260.32999999914,"y":2541599.7799999993}},{"attributes":{"ID":491462,"DIS_CODE":0,"TOWNNAME":"歸仁區","LI":"六甲里","LIN":"35鄰","STREET":"六甲六街","SECT":" ","MAREA":" ","LANE":"３５巷","ALLEY":" ","HOUSE_NO":"１０號","E_COORD97":175591.92000000001,"N_COORD97":2539387.25,"ADDRESS":"六甲六街３５巷１０號","OBJECTID":491437},"geometry":{"x":175591.92000000086,"y":2539387.25}},{"attributes":{"ID":491463,"DIS_CODE":0,"TOWNNAME":"新化區","LI":"豐榮里","LIN":"13鄰","STREET":"民治路","SECT":" ","MAREA":" ","LANE":"４３巷","ALLEY":" ","HOUSE_NO":"３號","E_COORD97":178707.76000000001,"N_COORD97":2548087.25,"ADDRESS":"民治路４３巷３號","OBJECTID":491438},"geometry":{"x":178707.75999999978,"y":2548087.25}},{"attributes":{"ID":491464,"DIS_CODE":0,"TOWNNAME":"永康區","LI":"南灣里","LIN":"35鄰","STREET":"南灣街","SECT":" ","MAREA":" ","LANE":"６０巷","ALLEY":" ","HOUSE_NO":"３號","E_COORD97":174529.64000000001,"N_COORD97":2544947.3700000001,"ADDRESS":"南灣街６０巷３號","OBJECTID":491439},"geometry":{"x":174529.63999999966,"y":2544947.370000001}},{"attributes":{"ID":491465,"DIS_CODE":0,"TOWNNAME":"永康區","LI":"崑山里","LIN":"31鄰","STREET":"崑山街","SECT":" ","MAREA":" ","LANE":"９６巷","ALLEY":" ","HOUSE_NO":"５號","E_COORD97":174012.79000000001,"N_COORD97":2544747.3500000001,"ADDRESS":"崑山街９６巷５號","OBJECTID":491440},"geometry":{"x":174012.79000000097,"y":2544747.3500000015}},{"attributes":{"ID":491466,"DIS_CODE":0,"TOWNNAME":"安平區","LI":"文平里","LIN":"17鄰","STREET":"建平三街","SECT":" ","MAREA":" ","LANE":"６５巷","ALLEY":" ","HOUSE_NO":"２７號四樓之４","E_COORD97":165773.79000000001,"N_COORD97":2542839.4700000002,"ADDRESS":"建平三街６５巷２７號四樓之４","OBJECTID":491441},"geometry":{"x":165773.7900000019,"y":2542839.4700000025}},{"attributes":{"ID":491467,"DIS_CODE":0,"TOWNNAME":"安平區","LI":"平安里","LIN":"17鄰","STREET":"安平路","SECT":" ","MAREA":" ","LANE":"６０６巷","ALLEY":" ","HOUSE_NO":"１號","E_COORD97":164824.48000000001,"N_COORD97":2544410.7200000002,"ADDRESS":"安平路６０６巷１號","OBJECTID":491442},"geometry":{"x":164824.48000000045,"y":2544410.7200000025}},{"attributes":{"ID":491468,"DIS_CODE":0,"TOWNNAME":"安平區","LI":"平安里","LIN":"17鄰","STREET":"安平路","SECT":" ","MAREA":" ","LANE":"６０６巷","ALLEY":" ","HOUSE_NO":"１１號","E_COORD97":164832.44,"N_COORD97":2544436.7400000002,"ADDRESS":"安平路６０６巷１１號","OBJECTID":491443},"geometry":{"x":164832.44000000134,"y":2544436.7400000039}},{"attributes":{"ID":491469,"DIS_CODE":0,"TOWNNAME":"安平區","LI":"平安里","LIN":"17鄰","STREET":"安平路","SECT":" ","MAREA":" ","LANE":"６０６巷","ALLEY":" ","HOUSE_NO":"１５號","E_COORD97":164839.17000000001,"N_COORD97":2544465.0499999998,"ADDRESS":"安平路６０６巷１５號","OBJECTID":491444},"geometry":{"x":164839.17000000086,"y":2544465.0500000007}},{"attributes":{"ID":491470,"DIS_CODE":0,"TOWNNAME":"安平區","LI":"平安里","LIN":"17鄰","STREET":"安平路","SECT":" ","MAREA":" ","LANE":"６０６巷","ALLEY":" ","HOUSE_NO":"１３號","E_COORD97":164837.34,"N_COORD97":2544455.5600000001,"ADDRESS":"安平路６０６巷１３號","OBJECTID":491445},"geometry":{"x":164837.33999999892,"y":2544455.5600000024}},{"attributes":{"ID":491471,"DIS_CODE":0,"TOWNNAME":"安南區","LI":"安和里","LIN":"2鄰","STREET":"府安路","SECT":"三段","MAREA":" ","LANE":"３１１巷","ALLEY":" ","HOUSE_NO":"７號","E_COORD97":169816.22,"N_COORD97":2547656.1899999999,"ADDRESS":"府安路三段３１１巷７號","OBJECTID":491446},"geometry":{"x":169816.21999999974,"y":2547656.1899999995}},{"attributes":{"ID":491472,"DIS_CODE":0,"TOWNNAME":"關廟區","LI":"香洋里","LIN":" ","STREET":"香洋路","SECT":" ","MAREA":" ","LANE":"６９巷","ALLEY":" ","HOUSE_NO":"２號","E_COORD97":181352.39000000001,"N_COORD97":2540115.25,"ADDRESS":"香洋路６９巷２號","OBJECTID":491447},"geometry":{"x":181352.38999999966,"y":2540115.25}},{"attributes":{"ID":491473,"DIS_CODE":0,"TOWNNAME":"安南區","LI":"安和里","LIN":"2鄰","STREET":"府安路","SECT":"三段","MAREA":" ","LANE":"３１１巷","ALLEY":" ","HOUSE_NO":"９號","E_COORD97":169813.20000000001,"N_COORD97":2547656.98,"ADDRESS":"府安路三段３１１巷９號","OBJECTID":491448},"geometry":{"x":169813.20000000112,"y":2547656.9800000023}},{"attributes":{"ID":491474,"DIS_CODE":0,"TOWNNAME":"安南區","LI":"安和里","LIN":"2鄰","STREET":"府安路","SECT":"三段","MAREA":" ","LANE":"３１１巷","ALLEY":" ","HOUSE_NO":"１１號","E_COORD97":169810.34,"N_COORD97":2547657.6200000001,"ADDRESS":"府安路三段３１１巷１１號","OBJECTID":491449},"geometry":{"x":169810.33999999985,"y":2547657.620000001}},{"attributes":{"ID":491475,"DIS_CODE":0,"TOWNNAME":"安南區","LI":"安和里","LIN":"2鄰","STREET":"府安路","SECT":"三段","MAREA":" ","LANE":"３１１巷","ALLEY":" ","HOUSE_NO":"１３號","E_COORD97":169807.48000000001,"N_COORD97":2547658.25,"ADDRESS":"府安路三段３１１巷１３號","OBJECTID":491450},"geometry":{"x":169807.48000000231,"y":2547658.2500000019}},{"attributes":{"ID":491476,"DIS_CODE":0,"TOWNNAME":"安南區","LI":"安和里","LIN":"2鄰","STREET":"府安路","SECT":"三段","MAREA":" ","LANE":"３１１巷","ALLEY":" ","HOUSE_NO":"１５號","E_COORD97":169804.31,"N_COORD97":2547658.5699999998,"ADDRESS":"府安路三段３１１巷１５號","OBJECTID":491451},"geometry":{"x":169804.31000000145,"y":2547658.570000004}},{"attributes":{"ID":491477,"DIS_CODE":0,"TOWNNAME":"安南區","LI":"安和里","LIN":"2鄰","STREET":"府安路","SECT":"三段","MAREA":" ","LANE":"３１１巷","ALLEY":" ","HOUSE_NO":"１７號","E_COORD97":169800.17999999999,"N_COORD97":2547660.3199999998,"ADDRESS":"府安路三段３１１巷１７號","OBJECTID":491452},"geometry":{"x":169800.18000000156,"y":2547660.320000004}},{"attributes":{"ID":491478,"DIS_CODE":0,"TOWNNAME":"安南區","LI":"安和里","LIN":"2鄰","STREET":"府安路","SECT":"三段","MAREA":" ","LANE":"３１１巷","ALLEY":" ","HOUSE_NO":"１９號","E_COORD97":169796.85000000001,"N_COORD97":2547661.1099999999,"ADDRESS":"府安路三段３１１巷１９號","OBJECTID":491453},"geometry":{"x":169796.84999999963,"y":2547661.1100000013}},{"attributes":{"ID":491479,"DIS_CODE":0,"TOWNNAME":"安南區","LI":"淵中里","LIN":"2鄰","STREET":"安中路","SECT":"三段","MAREA":" ","LANE":"３８７巷","ALLEY":" ","HOUSE_NO":"２０號","E_COORD97":165332.57999999999,"N_COORD97":2549963.98,"ADDRESS":"安中路三段３８７巷２０號","OBJECTID":491454},"geometry":{"x":165332.57999999914,"y":2549963.9800000004}},{"attributes":{"ID":491480,"DIS_CODE":0,"TOWNNAME":"安南區","LI":"淵中里","LIN":"2鄰","STREET":"安中路","SECT":"三段","MAREA":" ","LANE":"３８７巷","ALLEY":" ","HOUSE_NO":"２８號","E_COORD97":165306.73999999999,"N_COORD97":2549957.1299999999,"ADDRESS":"安中路三段３８７巷２８號","OBJECTID":491455},"geometry":{"x":165306.74000000115,"y":2549957.129999999}},{"attributes":{"ID":491481,"DIS_CODE":0,"TOWNNAME":"安南區","LI":"淵中里","LIN":"2鄰","STREET":"安中路","SECT":"三段","MAREA":" ","LANE":"４０７巷","ALLEY":" ","HOUSE_NO":"２７號","E_COORD97":165288.62,"N_COORD97":2549957.4399999999,"ADDRESS":"安中路三段４０７巷２７號","OBJECTID":491456},"geometry":{"x":165288.62000000104,"y":2549957.4400000032}},{"attributes":{"ID":491482,"DIS_CODE":0,"TOWNNAME":"東區","LI":"路東里","LIN":"6鄰","STREET":"大同路","SECT":"二段","MAREA":" ","LANE":"６１巷","ALLEY":" ","HOUSE_NO":"１２號","E_COORD97":169378.12,"N_COORD97":2542217.9500000002,"ADDRESS":"大同路二段６１巷１２號","OBJECTID":491457},"geometry":{"x":169378.12000000011,"y":2542217.9500000011}},{"attributes":{"ID":491483,"DIS_CODE":0,"TOWNNAME":"東區","LI":"路東里","LIN":"6鄰","STREET":"大同路","SECT":"二段","MAREA":" ","LANE":"６１巷","ALLEY":" ","HOUSE_NO":"１４號","E_COORD97":169382.48999999999,"N_COORD97":2542217.2799999998,"ADDRESS":"大同路二段６１巷１４號","OBJECTID":491458},"geometry":{"x":169382.49000000022,"y":2542217.2799999993}},{"attributes":{"ID":491484,"DIS_CODE":0,"TOWNNAME":"東區","LI":"路東里","LIN":"6鄰","STREET":"大同路","SECT":"二段","MAREA":" ","LANE":"６１巷","ALLEY":" ","HOUSE_NO":"１６號","E_COORD97":169386.85999999999,"N_COORD97":2542216.9399999999,"ADDRESS":"大同路二段６１巷１６號","OBJECTID":491459},"geometry":{"x":169386.86000000034,"y":2542216.9400000032}},{"attributes":{"ID":491485,"DIS_CODE":0,"TOWNNAME":"東區","LI":"路東里","LIN":"6鄰","STREET":"大同路","SECT":"二段","MAREA":" ","LANE":"６１巷","ALLEY":" ","HOUSE_NO":"１８號","E_COORD97":169390.22,"N_COORD97":2542216.9399999999,"ADDRESS":"大同路二段６１巷１８號","OBJECTID":491460},"geometry":{"x":169390.22000000067,"y":2542216.9400000032}},{"attributes":{"ID":491486,"DIS_CODE":0,"TOWNNAME":"東區","LI":"路東里","LIN":"6鄰","STREET":"大同路","SECT":"二段","MAREA":" ","LANE":"６１巷","ALLEY":" ","HOUSE_NO":"２號","E_COORD97":169338.89999999999,"N_COORD97":2542225.71,"ADDRESS":"大同路二段６１巷２號","OBJECTID":491461},"geometry":{"x":169338.9000000013,"y":2542225.7100000009}},{"attributes":{"ID":491487,"DIS_CODE":0,"TOWNNAME":"東區","LI":"路東里","LIN":"6鄰","STREET":"大同路","SECT":"二段","MAREA":" ","LANE":"６１巷","ALLEY":" ","HOUSE_NO":"４號","E_COORD97":169349.87,"N_COORD97":2542221.98,"ADDRESS":"大同路二段６１巷４號","OBJECTID":491462},"geometry":{"x":169349.87000000011,"y":2542221.9800000023}},{"attributes":{"ID":491488,"DIS_CODE":0,"TOWNNAME":"東區","LI":"路東里","LIN":"6鄰","STREET":"大同路","SECT":"二段","MAREA":" ","LANE":"６１巷","ALLEY":" ","HOUSE_NO":"６號","E_COORD97":169356.92999999999,"N_COORD97":2542219.29,"ADDRESS":"大同路二段６１巷６號","OBJECTID":491463},"geometry":{"x":169356.9299999997,"y":2542219.290000001}},{"attributes":{"ID":491489,"DIS_CODE":0,"TOWNNAME":"東區","LI":"路東里","LIN":"6鄰","STREET":"大同路","SECT":"二段","MAREA":" ","LANE":"６１巷","ALLEY":" ","HOUSE_NO":"８號","E_COORD97":169365,"N_COORD97":2542218.96,"ADDRESS":"大同路二段６１巷８號","OBJECTID":491464},"geometry":{"x":169365.00000000093,"y":2542218.9600000028}},{"attributes":{"ID":491490,"DIS_CODE":0,"TOWNNAME":"新市區","LI":"新和里","LIN":"6鄰","STREET":"富強路","SECT":" ","MAREA":" ","LANE":"３１巷","ALLEY":" ","HOUSE_NO":"１９號","E_COORD97":177350.95999999999,"N_COORD97":2552384.75,"ADDRESS":"富強路３１巷１９號","OBJECTID":491465},"geometry":{"x":177350.96000000089,"y":2552384.7500000019}},{"attributes":{"ID":491491,"DIS_CODE":0,"TOWNNAME":"安南區","LI":"梅花里","LIN":"6鄰","STREET":"安中路","SECT":"一段","MAREA":" ","LANE":"６９９巷","ALLEY":" ","HOUSE_NO":"８７號","E_COORD97":167430.07000000001,"N_COORD97":2548994.7599999998,"ADDRESS":"安中路一段６９９巷８７號","OBJECTID":491466},"geometry":{"x":167430.07000000216,"y":2548994.7599999998}},{"attributes":{"ID":491492,"DIS_CODE":0,"TOWNNAME":"仁德區","LI":"田厝里","LIN":"6鄰","STREET":"田厝三街","SECT":" ","MAREA":" ","LANE":"８２巷","ALLEY":" ","HOUSE_NO":"２號","E_COORD97":172578.32000000001,"N_COORD97":2537405,"ADDRESS":"田厝三街８２巷２號","OBJECTID":491467},"geometry":{"x":172578.32000000216,"y":2537405}},{"attributes":{"ID":491493,"DIS_CODE":0,"TOWNNAME":"南區","LI":"同安里","LIN":"6鄰","STREET":"明興路","SECT":" ","MAREA":" ","LANE":"１１８１巷","ALLEY":" ","HOUSE_NO":"１７４號之１","E_COORD97":166947.62,"N_COORD97":2536165.7799999998,"ADDRESS":"明興路１１８１巷１７４號之１","OBJECTID":491468},"geometry":{"x":166947.62000000011,"y":2536165.7799999993}},{"attributes":{"ID":491494,"DIS_CODE":0,"TOWNNAME":"安平區","LI":"億載里","LIN":"6鄰","STREET":"平豐路","SECT":" ","MAREA":" ","LANE":"２５１巷","ALLEY":" ","HOUSE_NO":"４７號","E_COORD97":164177.20254100001,"N_COORD97":2543679.4360099998,"ADDRESS":"平豐路２５１巷４７號","OBJECTID":491469},"geometry":{"x":164177.20254100021,"y":2543679.4360070005}},{"attributes":{"ID":491495,"DIS_CODE":0,"TOWNNAME":"白河區","LI":"外角里","LIN":"6鄰","STREET":"三民路","SECT":" ","MAREA":" ","LANE":"３５０巷","ALLEY":" ","HOUSE_NO":"２號","E_COORD97":190507.14999999999,"N_COORD97":2583268.4900000002,"ADDRESS":"三民路３５０巷２號","OBJECTID":491470},"geometry":{"x":190507.15000000037,"y":2583268.4900000021}},{"attributes":{"ID":491496,"DIS_CODE":0,"TOWNNAME":"善化區","LI":"東關里","LIN":"6鄰","STREET":"中山路","SECT":" ","MAREA":" ","LANE":"４６８巷","ALLEY":" ","HOUSE_NO":"４號之１","E_COORD97":177301.04000000001,"N_COORD97":2559149.52,"ADDRESS":"中山路４６８巷４號之１","OBJECTID":491471},"geometry":{"x":177301.0400000019,"y":2559149.5200000014}},{"attributes":{"ID":491497,"DIS_CODE":0,"TOWNNAME":"善化區","LI":"南關里","LIN":"6鄰","STREET":"文昌路","SECT":" ","MAREA":" ","LANE":"１０７巷","ALLEY":" ","HOUSE_NO":"１００號","E_COORD97":177129.54999999999,"N_COORD97":2558206.0299999998,"ADDRESS":"文昌路１０７巷１００號","OBJECTID":491472},"geometry":{"x":177129.55000000168,"y":2558206.0300000012}},{"attributes":{"ID":491498,"DIS_CODE":0,"TOWNNAME":"善化區","LI":"東關里","LIN":"6鄰","STREET":"中山路","SECT":" ","MAREA":" ","LANE":"４６８巷","ALLEY":" ","HOUSE_NO":"２號","E_COORD97":177291.70000000001,"N_COORD97":2559141.5,"ADDRESS":"中山路４６８巷２號","OBJECTID":491473},"geometry":{"x":177291.70000000205,"y":2559141.5}},{"attributes":{"ID":491499,"DIS_CODE":0,"TOWNNAME":"善化區","LI":"東關里","LIN":"6鄰","STREET":"中山路","SECT":" ","MAREA":" ","LANE":"４６８巷","ALLEY":" ","HOUSE_NO":"５號","E_COORD97":177305.34,"N_COORD97":2559154.5,"ADDRESS":"中山路４６８巷５號","OBJECTID":491474},"geometry":{"x":177305.33999999985,"y":2559154.5}},{"attributes":{"ID":491500,"DIS_CODE":0,"TOWNNAME":"善化區","LI":"東關里","LIN":"6鄰","STREET":"中山路","SECT":" ","MAREA":" ","LANE":"４６８巷","ALLEY":" ","HOUSE_NO":"６之１號","E_COORD97":177308.97,"N_COORD97":2559160.27,"ADDRESS":"中山路４６８巷６之１號","OBJECTID":491475},"geometry":{"x":177308.96999999974,"y":2559160.2700000014}},{"attributes":{"ID":491501,"DIS_CODE":0,"TOWNNAME":"永康區","LI":"復國里","LIN":"6鄰","STREET":"復國一路","SECT":" ","MAREA":" ","LANE":"１２０巷","ALLEY":" ","HOUSE_NO":"１２號","E_COORD97":172759.51000000001,"N_COORD97":2544992.7799999998,"ADDRESS":"復國一路１２０巷１２號","OBJECTID":491476},"geometry":{"x":172759.51000000164,"y":2544992.7800000012}},{"attributes":{"ID":491502,"DIS_CODE":0,"TOWNNAME":"永康區","LI":"網寮里","LIN":"6鄰","STREET":"永二街","SECT":" ","MAREA":" ","LANE":"１９６巷","ALLEY":" ","HOUSE_NO":"１１號","E_COORD97":173336.01999999999,"N_COORD97":2546271.5499999998,"ADDRESS":"永二街１９６巷１１號","OBJECTID":491477},"geometry":{"x":173336.02000000048,"y":2546271.5500000007}},{"attributes":{"ID":491503,"DIS_CODE":0,"TOWNNAME":"永康區","LI":"復國里","LIN":"6鄰","STREET":"復國一路","SECT":" ","MAREA":" ","LANE":"１２０巷","ALLEY":" ","HOUSE_NO":"１７號","E_COORD97":172748.42000000001,"N_COORD97":2545012.21,"ADDRESS":"復國一路１２０巷１７號","OBJECTID":491478},"geometry":{"x":172748.42000000179,"y":2545012.2100000009}},{"attributes":{"ID":491504,"DIS_CODE":0,"TOWNNAME":"永康區","LI":"神洲里","LIN":"6鄰","STREET":"忠孝路","SECT":" ","MAREA":" ","LANE":"５４巷","ALLEY":" ","HOUSE_NO":"１６號","E_COORD97":172154.53,"N_COORD97":2544754.5,"ADDRESS":"忠孝路５４巷１６號","OBJECTID":491479},"geometry":{"x":172154.53000000026,"y":2544754.5000000019}},{"attributes":{"ID":491505,"DIS_CODE":0,"TOWNNAME":"永康區","LI":"新樹里","LIN":"6鄰","STREET":"西勢路","SECT":" ","MAREA":" ","LANE":"２２８巷","ALLEY":" ","HOUSE_NO":"３４號","E_COORD97":175770.17000000001,"N_COORD97":2546858.7999999998,"ADDRESS":"西勢路２２８巷３４號","OBJECTID":491480},"geometry":{"x":175770.16999999993,"y":2546858.8000000026}},{"attributes":{"ID":491506,"DIS_CODE":0,"TOWNNAME":"永康區","LI":"埔園里","LIN":"6鄰","STREET":"自強路","SECT":" ","MAREA":" ","LANE":"４６８巷","ALLEY":" ","HOUSE_NO":"２號","E_COORD97":173797.97,"N_COORD97":2547940.9900000002,"ADDRESS":"自強路４６８巷２號","OBJECTID":491481},"geometry":{"x":173797.97000000067,"y":2547940.9900000021}},{"attributes":{"ID":491507,"DIS_CODE":0,"TOWNNAME":"永康區","LI":"\u25A0行里","LIN":"6鄰","STREET":"新行街","SECT":" ","MAREA":" ","LANE":"３３巷","ALLEY":" ","HOUSE_NO":"２１號","E_COORD97":172200.29000000001,"N_COORD97":2548854.77,"ADDRESS":"新行街３３巷２１號","OBJECTID":491482},"geometry":{"x":172200.2900000019,"y":2548854.7700000014}},{"attributes":{"ID":491508,"DIS_CODE":0,"TOWNNAME":"學甲區","LI":"仁得里","LIN":"1鄰","STREET":"公館路","SECT":" ","MAREA":" ","LANE":"１４３巷","ALLEY":" ","HOUSE_NO":"１號四樓之２","E_COORD97":166146.32000000001,"N_COORD97":2569894.0299999998,"ADDRESS":"公館路１４３巷１號四樓之２","OBJECTID":491483},"geometry":{"x":166146.3200000003,"y":2569894.0299999993}},{"attributes":{"ID":491509,"DIS_CODE":0,"TOWNNAME":"永康區","LI":"\u25A0洲里","LIN":"30鄰","STREET":"洲尾街","SECT":" ","MAREA":" ","LANE":"３２１巷","ALLEY":" ","HOUSE_NO":"５０號","E_COORD97":171216.29000000001,"N_COORD97":2549208.8100000001,"ADDRESS":"洲尾街３２１巷５０號","OBJECTID":491484},"geometry":{"x":171216.29000000004,"y":2549208.8100000005}},{"attributes":{"ID":491510,"DIS_CODE":0,"TOWNNAME":"永康區","LI":"\u25A0洲里","LIN":"30鄰","STREET":"洲尾街","SECT":" ","MAREA":" ","LANE":"３３５巷","ALLEY":" ","HOUSE_NO":"１１號","E_COORD97":171178.72,"N_COORD97":2549147.3599999999,"ADDRESS":"洲尾街３３５巷１１號","OBJECTID":491485},"geometry":{"x":171178.72000000067,"y":2549147.3600000031}},{"attributes":{"ID":491511,"DIS_CODE":0,"TOWNNAME":"永康區","LI":"正強里","LIN":"30鄰","STREET":"正強街","SECT":" ","MAREA":" ","LANE":"２１５巷","ALLEY":" ","HOUSE_NO":"９６號","E_COORD97":173148.10000000001,"N_COORD97":2547697.5,"ADDRESS":"正強街２１５巷９６號","OBJECTID":491486},"geometry":{"x":173148.09999999963,"y":2547697.5000000019}},{"attributes":{"ID":491512,"DIS_CODE":0,"TOWNNAME":"佳里區","LI":"建南里","LIN":"30鄰","STREET":"四維二街","SECT":" ","MAREA":" ","LANE":"２２０巷","ALLEY":" ","HOUSE_NO":"１號","E_COORD97":165661.5,"N_COORD97":2561148.4300000002,"ADDRESS":"四維二街２２０巷１號","OBJECTID":491487},"geometry":{"x":165661.5,"y":2561148.4299999997}},{"attributes":{"ID":491513,"DIS_CODE":0,"TOWNNAME":"佳里區","LI":"建南里","LIN":"30鄰","STREET":"四維二街","SECT":" ","MAREA":" ","LANE":"２２０巷","ALLEY":" ","HOUSE_NO":"２號","E_COORD97":165662.45999999999,"N_COORD97":2561164.8900000001,"ADDRESS":"四維二街２２０巷２號","OBJECTID":491488},"geometry":{"x":165662.46000000089,"y":2561164.8900000025}},{"attributes":{"ID":491514,"DIS_CODE":0,"TOWNNAME":"佳里區","LI":"建南里","LIN":"30鄰","STREET":"四維二街","SECT":" ","MAREA":" ","LANE":"２２０巷","ALLEY":" ","HOUSE_NO":"３號","E_COORD97":165655.47,"N_COORD97":2561148.4300000002,"ADDRESS":"四維二街２２０巷３號","OBJECTID":491489},"geometry":{"x":165655.47000000067,"y":2561148.4299999997}},{"attributes":{"ID":491515,"DIS_CODE":0,"TOWNNAME":"南區","LI":"金華里","LIN":"30鄰","STREET":"新孝路","SECT":" ","MAREA":" ","LANE":"１４８巷","ALLEY":" ","HOUSE_NO":"８０號","E_COORD97":166604.35999999999,"N_COORD97":2542277.27,"ADDRESS":"新孝路１４８巷８０號","OBJECTID":491490},"geometry":{"x":166604.36000000127,"y":2542277.2700000014}},{"attributes":{"ID":491516,"DIS_CODE":0,"TOWNNAME":"永康區","LI":"\u25A0洲里","LIN":"30鄰","STREET":"洲尾街","SECT":" ","MAREA":" ","LANE":"３３５巷","ALLEY":" ","HOUSE_NO":"５３號","E_COORD97":171225.54999999999,"N_COORD97":2549195.9399999999,"ADDRESS":"洲尾街３３５巷５３號","OBJECTID":491491},"geometry":{"x":171225.55000000075,"y":2549195.9400000013}},{"attributes":{"ID":491517,"DIS_CODE":0,"TOWNNAME":"永康區","LI":"\u25A0洲里","LIN":"30鄰","STREET":"洲尾街","SECT":" ","MAREA":" ","LANE":"３３５巷","ALLEY":" ","HOUSE_NO":"２１號","E_COORD97":171195.23999999999,"N_COORD97":2549160.4199999999,"ADDRESS":"洲尾街３３５巷２１號","OBJECTID":491492},"geometry":{"x":171195.24000000022,"y":2549160.4199999999}},{"attributes":{"ID":491518,"DIS_CODE":0,"TOWNNAME":"南區","LI":"金華里","LIN":"30鄰","STREET":"新孝路","SECT":" ","MAREA":" ","LANE":"１２６巷","ALLEY":" ","HOUSE_NO":"３號","E_COORD97":166579.17000000001,"N_COORD97":2542094.8999999999,"ADDRESS":"新孝路１２６巷３號","OBJECTID":491493},"geometry":{"x":166579.16999999993,"y":2542094.9000000004}},{"attributes":{"ID":491519,"DIS_CODE":0,"TOWNNAME":"安南區","LI":"\u25A0南里","LIN":"30鄰","STREET":"安昌街","SECT":" ","MAREA":" ","LANE":"１７４巷","ALLEY":" ","HOUSE_NO":"１８８號","E_COORD97":170104.60000000001,"N_COORD97":2552043.9900000002,"ADDRESS":"安昌街１７４巷１８８號","OBJECTID":491494},"geometry":{"x":170104.60000000056,"y":2552043.9900000021}},{"attributes":{"ID":491520,"DIS_CODE":0,"TOWNNAME":"東區","LI":"泉南里","LIN":"30鄰","STREET":"光華街","SECT":" ","MAREA":" ","LANE":"２２９巷","ALLEY":" ","HOUSE_NO":"２９號","E_COORD97":169462.81,"N_COORD97":2542923.7799999998,"ADDRESS":"光華街２２９巷２９號","OBJECTID":491495},"geometry":{"x":169462.80999999959,"y":2542923.7800000012}},{"attributes":{"ID":491521,"DIS_CODE":0,"TOWNNAME":"東區","LI":"泉南里","LIN":"30鄰","STREET":"光華街","SECT":" ","MAREA":" ","LANE":"２２９巷","ALLEY":" ","HOUSE_NO":"３１號","E_COORD97":169458.37,"N_COORD97":2542920.48,"ADDRESS":"光華街２２９巷３１號","OBJECTID":491496},"geometry":{"x":169458.37000000011,"y":2542920.4800000023}},{"attributes":{"ID":491522,"DIS_CODE":0,"TOWNNAME":"東區","LI":"泉南里","LIN":"30鄰","STREET":"光華街","SECT":" ","MAREA":" ","LANE":"２２９巷","ALLEY":" ","HOUSE_NO":"３３號","E_COORD97":169457.35999999999,"N_COORD97":2542917.0600000001,"ADDRESS":"光華街２２９巷３３號","OBJECTID":491497},"geometry":{"x":169457.36000000127,"y":2542917.0600000024}},{"attributes":{"ID":491523,"DIS_CODE":0,"TOWNNAME":"東區","LI":"泉南里","LIN":"30鄰","STREET":"光華街","SECT":" ","MAREA":" ","LANE":"２２９巷","ALLEY":" ","HOUSE_NO":"３５號","E_COORD97":169456.09,"N_COORD97":2542913,"ADDRESS":"光華街２２９巷３５號","OBJECTID":491498},"geometry":{"x":169456.08999999985,"y":2542913.0000000019}},{"attributes":{"ID":491524,"DIS_CODE":0,"TOWNNAME":"東區","LI":"中西里","LIN":"30鄰","STREET":"東寧路","SECT":" ","MAREA":" ","LANE":"１７０巷","ALLEY":" ","HOUSE_NO":"１０號","E_COORD97":170386.07999999999,"N_COORD97":2543499.1699999999,"ADDRESS":"東寧路１７０巷１０號","OBJECTID":491499},"geometry":{"x":170386.08000000194,"y":2543499.1700000018}},{"attributes":{"ID":491525,"DIS_CODE":0,"TOWNNAME":"東區","LI":"中西里","LIN":"30鄰","STREET":"東寧路","SECT":" ","MAREA":" ","LANE":"１７０巷","ALLEY":" ","HOUSE_NO":"１１號","E_COORD97":170434.51000000001,"N_COORD97":2543483.29,"ADDRESS":"東寧路１７０巷１１號","OBJECTID":491500},"geometry":{"x":170434.51000000071,"y":2543483.290000001}},{"attributes":{"ID":491526,"DIS_CODE":0,"TOWNNAME":"東區","LI":"中西里","LIN":"30鄰","STREET":"東寧路","SECT":" ","MAREA":" ","LANE":"１７０巷","ALLEY":" ","HOUSE_NO":"２號","E_COORD97":170403.10000000001,"N_COORD97":2543493.5499999998,"ADDRESS":"東寧路１７０巷２號","OBJECTID":491501},"geometry":{"x":170403.10000000056,"y":2543493.5500000026}},{"attributes":{"ID":491527,"DIS_CODE":0,"TOWNNAME":"東區","LI":"中西里","LIN":"30鄰","STREET":"東寧路","SECT":" ","MAREA":" ","LANE":"１７０巷","ALLEY":" ","HOUSE_NO":"５號","E_COORD97":170422.23999999999,"N_COORD97":2543487.79,"ADDRESS":"東寧路１７０巷５號","OBJECTID":491502},"geometry":{"x":170422.24000000022,"y":2543487.7899999991}},{"attributes":{"ID":491528,"DIS_CODE":0,"TOWNNAME":"東區","LI":"中西里","LIN":"30鄰","STREET":"東寧路","SECT":" ","MAREA":" ","LANE":"１７０巷","ALLEY":" ","HOUSE_NO":"１６號","E_COORD97":170374.54000000001,"N_COORD97":2543492.5699999998,"ADDRESS":"東寧路１７０巷１６號","OBJECTID":491503},"geometry":{"x":170374.5400000019,"y":2543492.5700000022}},{"attributes":{"ID":491529,"DIS_CODE":0,"TOWNNAME":"東區","LI":"中西里","LIN":"30鄰","STREET":"東寧路","SECT":" ","MAREA":" ","LANE":"１７０巷","ALLEY":" ","HOUSE_NO":"１８號","E_COORD97":170380.03,"N_COORD97":2543491.7200000002,"ADDRESS":"東寧路１７０巷１８號","OBJECTID":491504},"geometry":{"x":170380.03000000119,"y":2543491.7200000025}},{"attributes":{"ID":491530,"DIS_CODE":0,"TOWNNAME":"仁德區","LI":"太子里","LIN":"30鄰","STREET":"太子路","SECT":" ","MAREA":" ","LANE":"６１３巷","ALLEY":" ","HOUSE_NO":"３號","E_COORD97":173729.04000000001,"N_COORD97":2543489.75,"ADDRESS":"太子路６１３巷３號","OBJECTID":491505},"geometry":{"x":173729.04000000004,"y":2543489.75}},{"attributes":{"ID":491531,"DIS_CODE":0,"TOWNNAME":"永康區","LI":"正強里","LIN":"30鄰","STREET":"正強街","SECT":" ","MAREA":" ","LANE":"２１５巷","ALLEY":" ","HOUSE_NO":"４３號","E_COORD97":173155.37,"N_COORD97":2547678.5,"ADDRESS":"正強街２１５巷４３號","OBJECTID":491506},"geometry":{"x":173155.37000000011,"y":2547678.5}},{"attributes":{"ID":491532,"DIS_CODE":0,"TOWNNAME":"新市區","LI":"新市里","LIN":"19鄰","STREET":"和平街","SECT":" ","MAREA":" ","LANE":"１５巷","ALLEY":" ","HOUSE_NO":"６號","E_COORD97":177747.14999999999,"N_COORD97":2553420.25,"ADDRESS":"和平街１５巷６號","OBJECTID":491507},"geometry":{"x":177747.1500000013,"y":2553420.25}},{"attributes":{"ID":491533,"DIS_CODE":0,"TOWNNAME":"安南區","LI":"頂安里","LIN":"19鄰","STREET":"北安路","SECT":"三段","MAREA":" ","LANE":"３９６巷","ALLEY":" ","HOUSE_NO":"２８號","E_COORD97":168886.70999999999,"N_COORD97":2549541.4700000002,"ADDRESS":"北安路三段３９６巷２８號","OBJECTID":491508},"geometry":{"x":168886.71000000089,"y":2549541.4700000044}},{"attributes":{"ID":491534,"DIS_CODE":0,"TOWNNAME":"中西區","LI":"公正里","LIN":"19鄰","STREET":"衛民街","SECT":" ","MAREA":" ","LANE":"１２４巷","ALLEY":" ","HOUSE_NO":"１號","E_COORD97":168819.32000000001,"N_COORD97":2543774.8100000001,"ADDRESS":"衛民街１２４巷１號","OBJECTID":491509},"geometry":{"x":168819.3200000003,"y":2543774.8100000005}},{"attributes":{"ID":491535,"DIS_CODE":0,"TOWNNAME":"中西區","LI":"青年里","LIN":"19鄰","STREET":"中山路","SECT":" ","MAREA":" ","LANE":"８巷","ALLEY":" ","HOUSE_NO":"１號三樓之６","E_COORD97":168601.67999999999,"N_COORD97":2543710.5600000001,"ADDRESS":"中山路８巷１號三樓之６","OBJECTID":491510},"geometry":{"x":168601.68000000156,"y":2543710.5600000024}},{"attributes":{"ID":491536,"DIS_CODE":0,"TOWNNAME":"關廟區","LI":"北勢里","LIN":"19鄰","STREET":"成功路","SECT":" ","MAREA":" ","LANE":"３９２巷","ALLEY":" ","HOUSE_NO":"１３號","E_COORD97":181200.22,"N_COORD97":2540595.27,"ADDRESS":"成功路３９２巷１３號","OBJECTID":491511},"geometry":{"x":181200.22000000067,"y":2540595.2700000014}},{"attributes":{"ID":491537,"DIS_CODE":0,"TOWNNAME":"安平區","LI":"文平里","LIN":"19鄰","STREET":"健康一街","SECT":" ","MAREA":" ","LANE":"５７巷","ALLEY":" ","HOUSE_NO":"４７號","E_COORD97":165803.89999999999,"N_COORD97":2542804.6899999999,"ADDRESS":"健康一街５７巷４７號","OBJECTID":491512},"geometry":{"x":165803.90000000224,"y":2542804.6899999995}},{"attributes":{"ID":491538,"DIS_CODE":0,"TOWNNAME":"新營區","LI":"新北里","LIN":"19鄰","STREET":"民生路","SECT":" ","MAREA":" ","LANE":"２０８巷","ALLEY":" ","HOUSE_NO":"２０號","E_COORD97":179136.88,"N_COORD97":2579054.1400000001,"ADDRESS":"民生路２０８巷２０號","OBJECTID":491513},"geometry":{"x":179136.88000000082,"y":2579054.1400000025}},{"attributes":{"ID":491539,"DIS_CODE":0,"TOWNNAME":"南區","LI":"再興里","LIN":"19鄰","STREET":"新慶街","SECT":" ","MAREA":" ","LANE":"３３巷","ALLEY":" ","HOUSE_NO":"２０號","E_COORD97":167219.20000000001,"N_COORD97":2542258.9500000002,"ADDRESS":"新慶街３３巷２０號","OBJECTID":491514},"geometry":{"x":167219.20000000112,"y":2542258.9500000011}},{"attributes":{"ID":491540,"DIS_CODE":0,"TOWNNAME":"中西區","LI":"小西里","LIN":"6鄰","STREET":"府前路","SECT":"一段","MAREA":" ","LANE":"３７１巷","ALLEY":" ","HOUSE_NO":"５６號","E_COORD97":167852.89000000001,"N_COORD97":2543295.6000000001,"ADDRESS":"府前路一段３７１巷５６號","OBJECTID":491515},"geometry":{"x":167852.8900000006,"y":2543295.6000000015}},{"attributes":{"ID":491541,"DIS_CODE":0,"TOWNNAME":"南區","LI":"金華里","LIN":"19鄰","STREET":"惠南街","SECT":" ","MAREA":" ","LANE":"９８巷","ALLEY":" ","HOUSE_NO":"４號","E_COORD97":166782.20999999999,"N_COORD97":2542326.7200000002,"ADDRESS":"惠南街９８巷４號","OBJECTID":491516},"geometry":{"x":166782.20999999996,"y":2542326.7200000007}},{"attributes":{"ID":491542,"DIS_CODE":0,"TOWNNAME":"仁德區","LI":"仁義里","LIN":"44鄰","STREET":"中正路","SECT":"二段","MAREA":" ","LANE":"１０３４巷","ALLEY":" ","HOUSE_NO":"５１號","E_COORD97":173523.07999999999,"N_COORD97":2540899.3300000001,"ADDRESS":"中正路二段１０３４巷５１號","OBJECTID":491517},"geometry":{"x":173523.08000000007,"y":2540899.3299999982}},{"attributes":{"ID":491543,"DIS_CODE":0,"TOWNNAME":"永康區","LI":"\u25A0行里","LIN":"44鄰","STREET":"\u25A0平街","SECT":" ","MAREA":" ","LANE":"２３２巷","ALLEY":" ","HOUSE_NO":"１１號","E_COORD97":171994.19,"N_COORD97":2548243.4900000002,"ADDRESS":"\u25A0平街２３２巷１１號","OBJECTID":491518},"geometry":{"x":171994.19000000041,"y":2548243.4900000021}},{"attributes":{"ID":491544,"DIS_CODE":0,"TOWNNAME":"仁德區","LI":"仁義里","LIN":"44鄰","STREET":"仁義路","SECT":" ","MAREA":" ","LANE":"７０巷","ALLEY":" ","HOUSE_NO":"１２號","E_COORD97":173544.53,"N_COORD97":2540904.0099999998,"ADDRESS":"仁義路７０巷１２號","OBJECTID":491519},"geometry":{"x":173544.53000000026,"y":2540904.0099999998}},{"attributes":{"ID":491545,"DIS_CODE":0,"TOWNNAME":"仁德區","LI":"太子里","LIN":"44鄰","STREET":"太子一街","SECT":" ","MAREA":" ","LANE":"２１巷","ALLEY":" ","HOUSE_NO":"３號","E_COORD97":174874.35999999999,"N_COORD97":2543413.7599999998,"ADDRESS":"太子一街２１巷３號","OBJECTID":491520},"geometry":{"x":174874.36000000034,"y":2543413.7599999998}},{"attributes":{"ID":491546,"DIS_CODE":0,"TOWNNAME":"永康區","LI":"東橋里","LIN":"22鄰","STREET":"自強路","SECT":" ","MAREA":" ","LANE":"９巷","ALLEY":" ","HOUSE_NO":"８號","E_COORD97":172669.59,"N_COORD97":2547193.4900000002,"ADDRESS":"自強路９巷８號","OBJECTID":491521},"geometry":{"x":172669.59000000078,"y":2547193.4900000002}},{"attributes":{"ID":491547,"DIS_CODE":0,"TOWNNAME":"六甲區","LI":"七甲里","LIN":"12鄰","STREET":"七甲街","SECT":" ","MAREA":" ","LANE":"５１巷","ALLEY":" ","HOUSE_NO":"９號","E_COORD97":183174.95999999999,"N_COORD97":2568953.2799999998,"ADDRESS":"七甲街５１巷９號","OBJECTID":491522},"geometry":{"x":183174.95999999996,"y":2568953.2799999993}},{"attributes":{"ID":491548,"DIS_CODE":0,"TOWNNAME":"六甲區","LI":"甲東里","LIN":"12鄰","STREET":"裕農街","SECT":" ","MAREA":" ","LANE":"２９６巷","ALLEY":" ","HOUSE_NO":"４１號","E_COORD97":184165.38,"N_COORD97":2570050.6299999999,"ADDRESS":"裕農街２９６巷４１號","OBJECTID":491523},"geometry":{"x":184165.37999999989,"y":2570050.6300000008}},{"attributes":{"ID":491549,"DIS_CODE":0,"TOWNNAME":"新化區","LI":"協興里","LIN":"12鄰","STREET":"太平街","SECT":" ","MAREA":" ","LANE":"１５０巷","ALLEY":" ","HOUSE_NO":"１５９號","E_COORD97":178239.62,"N_COORD97":2548880.25,"ADDRESS":"太平街１５０巷１５９號","OBJECTID":491524},"geometry":{"x":178239.62000000197,"y":2548880.25}},{"attributes":{"ID":491550,"DIS_CODE":0,"TOWNNAME":"新化區","LI":"東榮里","LIN":"12鄰","STREET":"中興路","SECT":" ","MAREA":" ","LANE":"５５４巷","ALLEY":" ","HOUSE_NO":"８號","E_COORD97":179920.20999999999,"N_COORD97":2547962.25,"ADDRESS":"中興路５５４巷８號","OBJECTID":491525},"geometry":{"x":179920.20999999996,"y":2547962.2500000037}},{"attributes":{"ID":491551,"DIS_CODE":0,"TOWNNAME":"新化區","LI":"東榮里","LIN":"12鄰","STREET":"中興路","SECT":" ","MAREA":" ","LANE":"５５４巷","ALLEY":" ","HOUSE_NO":"２８號","E_COORD97":179921.35999999999,"N_COORD97":2548002.25,"ADDRESS":"中興路５５４巷２８號","OBJECTID":491526},"geometry":{"x":179921.36000000034,"y":2548002.25}},{"attributes":{"ID":491552,"DIS_CODE":0,"TOWNNAME":"新市區","LI":"新和里","LIN":"12鄰","STREET":"可口街","SECT":" ","MAREA":" ","LANE":"２２巷","ALLEY":" ","HOUSE_NO":"４號","E_COORD97":177611.12,"N_COORD97":2552392.25,"ADDRESS":"可口街２２巷４號","OBJECTID":491527},"geometry":{"x":177611.12000000104,"y":2552392.25}},{"attributes":{"ID":491553,"DIS_CODE":0,"TOWNNAME":"南區","LI":"開南里","LIN":"12鄰","STREET":"新建路","SECT":" ","MAREA":" ","LANE":"４４巷","ALLEY":" ","HOUSE_NO":"１號","E_COORD97":166443.89000000001,"N_COORD97":2540636.8999999999,"ADDRESS":"新建路４４巷１號","OBJECTID":491528},"geometry":{"x":166443.89000000153,"y":2540636.9000000004}},{"attributes":{"ID":491554,"DIS_CODE":0,"TOWNNAME":"東區","LI":"富強里","LIN":"12鄰","STREET":"東門路","SECT":"二段","MAREA":" ","LANE":"３０１巷","ALLEY":" ","HOUSE_NO":"１７７號","E_COORD97":171179.31,"N_COORD97":2542754,"ADDRESS":"東門路二段３０１巷１７７號","OBJECTID":491529},"geometry":{"x":171179.31000000052,"y":2542754.0000000019}},{"attributes":{"ID":491555,"DIS_CODE":0,"TOWNNAME":"關廟區","LI":"五甲里","LIN":"9鄰","STREET":"南雄路","SECT":"一段","MAREA":" ","LANE":"５３１巷","ALLEY":" ","HOUSE_NO":"５號","E_COORD97":181564.89000000001,"N_COORD97":2538367.2799999998,"ADDRESS":"南雄路一段５３１巷５號","OBJECTID":491530},"geometry":{"x":181564.88999999873,"y":2538367.2800000012}},{"attributes":{"ID":491556,"DIS_CODE":0,"TOWNNAME":"東區","LI":"富強里","LIN":"12鄰","STREET":"東門路","SECT":"二段","MAREA":" ","LANE":"３０１巷","ALLEY":" ","HOUSE_NO":"１８１號","E_COORD97":171178.82000000001,"N_COORD97":2542762.6000000001,"ADDRESS":"東門路二段３０１巷１８１號","OBJECTID":491531},"geometry":{"x":171178.82000000123,"y":2542762.6000000015}},{"attributes":{"ID":491557,"DIS_CODE":0,"TOWNNAME":"永康區","LI":"\u25A0行里","LIN":"28鄰","STREET":"竹林街","SECT":" ","MAREA":" ","LANE":"２８巷","ALLEY":" ","HOUSE_NO":"９號","E_COORD97":172646.84,"N_COORD97":2548840.2400000002,"ADDRESS":"竹林街２８巷９號","OBJECTID":491532},"geometry":{"x":172646.83999999985,"y":2548840.2400000002}},{"attributes":{"ID":491558,"DIS_CODE":0,"TOWNNAME":"東區","LI":"富強里","LIN":"12鄰","STREET":"東門路","SECT":"二段","MAREA":" ","LANE":"３０１巷","ALLEY":" ","HOUSE_NO":"１８３號","E_COORD97":171178.32999999999,"N_COORD97":2542766.8199999998,"ADDRESS":"東門路二段３０１巷１８３號","OBJECTID":491533},"geometry":{"x":171178.33000000101,"y":2542766.8200000003}},{"attributes":{"ID":491559,"DIS_CODE":0,"TOWNNAME":"東區","LI":"富強里","LIN":"12鄰","STREET":"東門路","SECT":"二段","MAREA":" ","LANE":"３０１巷","ALLEY":" ","HOUSE_NO":"１８５號","E_COORD97":171178.82000000001,"N_COORD97":2542769.9100000001,"ADDRESS":"東門路二段３０１巷１８５號","OBJECTID":491534},"geometry":{"x":171178.82000000123,"y":2542769.9100000001}},{"attributes":{"ID":491560,"DIS_CODE":0,"TOWNNAME":"東區","LI":"富強里","LIN":"12鄰","STREET":"東門路","SECT":"二段","MAREA":" ","LANE":"３０１巷","ALLEY":" ","HOUSE_NO":"１８７號","E_COORD97":171177.67999999999,"N_COORD97":2542774.29,"ADDRESS":"東門路二段３０１巷１８７號","OBJECTID":491535},"geometry":{"x":171177.6799999997,"y":2542774.290000001}},{"attributes":{"ID":491561,"DIS_CODE":0,"TOWNNAME":"東區","LI":"富強里","LIN":"12鄰","STREET":"裕農路","SECT":" ","MAREA":" ","LANE":"２８８巷","ALLEY":" ","HOUSE_NO":"１９９號","E_COORD97":171085.28,"N_COORD97":2542810.48,"ADDRESS":"裕農路２８８巷１９９號","OBJECTID":491536},"geometry":{"x":171085.28000000119,"y":2542810.4800000004}},{"attributes":{"ID":491562,"DIS_CODE":0,"TOWNNAME":"東區","LI":"富強里","LIN":"12鄰","STREET":"裕農路","SECT":" ","MAREA":" ","LANE":"２８８巷","ALLEY":" ","HOUSE_NO":"２０５號","E_COORD97":171101.54000000001,"N_COORD97":2542811.5299999998,"ADDRESS":"裕農路２８８巷２０５號","OBJECTID":491537},"geometry":{"x":171101.53999999911,"y":2542811.5299999993}},{"attributes":{"ID":491563,"DIS_CODE":0,"TOWNNAME":"東區","LI":"富強里","LIN":"12鄰","STREET":"裕農路","SECT":" ","MAREA":" ","LANE":"２８８巷","ALLEY":" ","HOUSE_NO":"２１１號","E_COORD97":171096.79000000001,"N_COORD97":2542796.6000000001,"ADDRESS":"裕農路２８８巷２１１號","OBJECTID":491538},"geometry":{"x":171096.79000000097,"y":2542796.6000000015}},{"attributes":{"ID":491564,"DIS_CODE":0,"TOWNNAME":"東區","LI":"富強里","LIN":"12鄰","STREET":"裕農路","SECT":" ","MAREA":" ","LANE":"２８８巷","ALLEY":" ","HOUSE_NO":"２２１號之１","E_COORD97":171110.75,"N_COORD97":2542786.0800000001,"ADDRESS":"裕農路２８８巷２２１號之１","OBJECTID":491539},"geometry":{"x":171110.75000000093,"y":2542786.0799999982}},{"attributes":{"ID":491565,"DIS_CODE":0,"TOWNNAME":"永康區","LI":"正強里","LIN":"12鄰","STREET":"正強街","SECT":" ","MAREA":" ","LANE":"９０巷","ALLEY":" ","HOUSE_NO":"１號","E_COORD97":173377.10999999999,"N_COORD97":2547359.75,"ADDRESS":"正強街９０巷１號","OBJECTID":491540},"geometry":{"x":173377.11000000127,"y":2547359.7500000019}},{"attributes":{"ID":491566,"DIS_CODE":0,"TOWNNAME":"安南區","LI":"新順里","LIN":"10鄰","STREET":"政安路","SECT":" ","MAREA":" ","LANE":"２７巷","ALLEY":" ","HOUSE_NO":"６號","E_COORD97":169828.54999999999,"N_COORD97":2549150.0699999998,"ADDRESS":"政安路２７巷６號","OBJECTID":491541},"geometry":{"x":169828.55000000075,"y":2549150.0699999984}},{"attributes":{"ID":491567,"DIS_CODE":0,"TOWNNAME":"東區","LI":"龍山里","LIN":"5鄰","STREET":"崇仁街","SECT":" ","MAREA":" ","LANE":"６６巷","ALLEY":" ","HOUSE_NO":"９號","E_COORD97":170314.95999999999,"N_COORD97":2542701.3599999999,"ADDRESS":"崇仁街６６巷９號","OBJECTID":491542},"geometry":{"x":170314.95999999996,"y":2542701.3599999994}},{"attributes":{"ID":491568,"DIS_CODE":0,"TOWNNAME":"永康區","LI":"南灣里","LIN":"10鄰","STREET":"南興路","SECT":" ","MAREA":" ","LANE":"３巷","ALLEY":" ","HOUSE_NO":"９號","E_COORD97":173887.60000000001,"N_COORD97":2543804.98,"ADDRESS":"南興路３巷９號","OBJECTID":491543},"geometry":{"x":173887.5999999987,"y":2543804.9800000023}},{"attributes":{"ID":491569,"DIS_CODE":0,"TOWNNAME":"南區","LI":"佛壇里","LIN":"10鄰","STREET":"明興路","SECT":" ","MAREA":" ","LANE":"１３９８巷","ALLEY":" ","HOUSE_NO":"３號","E_COORD97":166324.17999999999,"N_COORD97":2535831.8199999998,"ADDRESS":"明興路１３９８巷３號","OBJECTID":491544},"geometry":{"x":166324.1799999997,"y":2535831.8200000022}},{"attributes":{"ID":491570,"DIS_CODE":0,"TOWNNAME":"安平區","LI":"平通里","LIN":"10鄰","STREET":"育平九街","SECT":" ","MAREA":" ","LANE":"２４６巷","ALLEY":" ","HOUSE_NO":"３５號","E_COORD97":164897.90291,"N_COORD97":2544104.64182,"ADDRESS":"育平九街２４６巷３５號","OBJECTID":491545},"geometry":{"x":164897.90290999971,"y":2544104.641818}},{"attributes":{"ID":491571,"DIS_CODE":0,"TOWNNAME":"永康區","LI":"網寮里","LIN":"10鄰","STREET":"永勝街","SECT":" ","MAREA":" ","LANE":"１５１巷","ALLEY":" ","HOUSE_NO":"８號","E_COORD97":173311.54999999999,"N_COORD97":2546430.1699999999,"ADDRESS":"永勝街１５１巷８號","OBJECTID":491546},"geometry":{"x":173311.54999999981,"y":2546430.1700000037}},{"attributes":{"ID":491572,"DIS_CODE":0,"TOWNNAME":"仁德區","LI":"成功里","LIN":"21鄰","STREET":"保生路","SECT":" ","MAREA":" ","LANE":"６５巷","ALLEY":" ","HOUSE_NO":"１號","E_COORD97":170727.94,"N_COORD97":2539792.25,"ADDRESS":"保生路６５巷１號","OBJECTID":491547},"geometry":{"x":170727.94000000041,"y":2539792.2500000019}},{"attributes":{"ID":491573,"DIS_CODE":0,"TOWNNAME":"新市區","LI":"新市里","LIN":"21鄰","STREET":"和平街","SECT":" ","MAREA":" ","LANE":"３２巷","ALLEY":" ","HOUSE_NO":"３號","E_COORD97":177703.98000000001,"N_COORD97":2553481,"ADDRESS":"和平街３２巷３號","OBJECTID":491548},"geometry":{"x":177703.98000000138,"y":2553481.0000000019}},{"attributes":{"ID":491574,"DIS_CODE":0,"TOWNNAME":"東區","LI":"後甲里","LIN":"21鄰","STREET":"建東街","SECT":" ","MAREA":" ","LANE":"３５巷","ALLEY":" ","HOUSE_NO":"５號","E_COORD97":171761.51000000001,"N_COORD97":2543369.1800000002,"ADDRESS":"建東街３５巷５號","OBJECTID":491549},"geometry":{"x":171761.51000000071,"y":2543369.1800000016}},{"attributes":{"ID":491575,"DIS_CODE":0,"TOWNNAME":"北區","LI":"和順里","LIN":"21鄰","STREET":"民德路","SECT":" ","MAREA":" ","LANE":"８５巷","ALLEY":" ","HOUSE_NO":"７號","E_COORD97":168245.79000000001,"N_COORD97":2545080.79,"ADDRESS":"民德路８５巷７號","OBJECTID":491550},"geometry":{"x":168245.79000000097,"y":2545080.790000001}},{"attributes":{"ID":491576,"DIS_CODE":0,"TOWNNAME":"六甲區","LI":"甲東里","LIN":"21鄰","STREET":"裕農街","SECT":" ","MAREA":" ","LANE":"８９巷","ALLEY":" ","HOUSE_NO":"６號","E_COORD97":184285.66,"N_COORD97":2569807.8599999999,"ADDRESS":"裕農街８９巷６號","OBJECTID":491551},"geometry":{"x":184285.66000000015,"y":2569807.8599999994}},{"attributes":{"ID":491577,"DIS_CODE":0,"TOWNNAME":"永康區","LI":"光復里","LIN":"21鄰","STREET":"復興路","SECT":" ","MAREA":" ","LANE":"１２８巷","ALLEY":" ","HOUSE_NO":"６８號","E_COORD97":172603.22,"N_COORD97":2544389.77,"ADDRESS":"復興路１２８巷６８號","OBJECTID":491552},"geometry":{"x":172603.21999999974,"y":2544389.7700000014}},{"attributes":{"ID":491578,"DIS_CODE":0,"TOWNNAME":"新市區","LI":"新和里","LIN":"9鄰","STREET":"可口街","SECT":" ","MAREA":" ","LANE":"３９巷","ALLEY":" ","HOUSE_NO":"４號","E_COORD97":177569.12,"N_COORD97":2552460,"ADDRESS":"可口街３９巷４號","OBJECTID":491553},"geometry":{"x":177569.12000000104,"y":2552460.0000000019}},{"attributes":{"ID":491579,"DIS_CODE":0,"TOWNNAME":"歸仁區","LI":"看西里","LIN":"22鄰","STREET":"成功七街","SECT":" ","MAREA":" ","LANE":"６５巷","ALLEY":" ","HOUSE_NO":"８號","E_COORD97":178269.45999999999,"N_COORD97":2539774.3599999999,"ADDRESS":"成功七街６５巷８號","OBJECTID":491554},"geometry":{"x":178269.46000000183,"y":2539774.3600000013}},{"attributes":{"ID":491580,"DIS_CODE":0,"TOWNNAME":"永康區","LI":"\u25A0洲里","LIN":"19鄰","STREET":"\u25A0行路","SECT":" ","MAREA":" ","LANE":"２５巷","ALLEY":" ","HOUSE_NO":"９號","E_COORD97":171654.66,"N_COORD97":2549076.7599999998,"ADDRESS":"\u25A0行路２５巷９號","OBJECTID":491555},"geometry":{"x":171654.66000000015,"y":2549076.7599999998}},{"attributes":{"ID":491581,"DIS_CODE":0,"TOWNNAME":"永康區","LI":"龍潭里","LIN":"37鄰","STREET":"中山北路","SECT":" ","MAREA":" ","LANE":"１６４巷","ALLEY":" ","HOUSE_NO":"１１６號","E_COORD97":174534.01999999999,"N_COORD97":2547346.8599999999,"ADDRESS":"中山北路１６４巷１１６號","OBJECTID":491556},"geometry":{"x":174534.02000000142,"y":2547346.8599999994}},{"attributes":{"ID":491582,"DIS_CODE":0,"TOWNNAME":"學甲區","LI":"慈福里","LIN":"9鄰","STREET":"民族路","SECT":" ","MAREA":" ","LANE":"１１巷","ALLEY":" ","HOUSE_NO":"２號","E_COORD97":166544.45999999999,"N_COORD97":2570047.6400000001,"ADDRESS":"民族路１１巷２號","OBJECTID":491557},"geometry":{"x":166544.46000000089,"y":2570047.6400000006}},{"attributes":{"ID":491583,"DIS_CODE":0,"TOWNNAME":"永康區","LI":"埔園里","LIN":"9鄰","STREET":"中山路","SECT":" ","MAREA":" ","LANE":"１０１巷","ALLEY":" ","HOUSE_NO":"２號之１五樓之３","E_COORD97":173738.32999999999,"N_COORD97":2547819.29,"ADDRESS":"中山路１０１巷２號之１五樓之３","OBJECTID":491558},"geometry":{"x":173738.33000000007,"y":2547819.290000001}},{"attributes":{"ID":491584,"DIS_CODE":0,"TOWNNAME":"仁德區","LI":"仁義里","LIN":"18鄰","STREET":"正義三街","SECT":" ","MAREA":" ","LANE":"２８６巷","ALLEY":" ","HOUSE_NO":"５號","E_COORD97":174029.04000000001,"N_COORD97":2541516.7599999998,"ADDRESS":"正義三街２８６巷５號","OBJECTID":491559},"geometry":{"x":174029.04000000004,"y":2541516.7600000035}},{"attributes":{"ID":491585,"DIS_CODE":0,"TOWNNAME":"安平區","LI":"怡平里","LIN":"9鄰","STREET":"建平十二街","SECT":" ","MAREA":" ","LANE":"１４８巷","ALLEY":" ","HOUSE_NO":"１６號五樓之５","E_COORD97":165796.56,"N_COORD97":2544082.0499999998,"ADDRESS":"建平十二街１４８巷１６號五樓之５","OBJECTID":491560},"geometry":{"x":165796.55999999959,"y":2544082.0500000007}},{"attributes":{"ID":491586,"DIS_CODE":0,"TOWNNAME":"仁德區","LI":"仁德里","LIN":"23鄰","STREET":"文心路","SECT":" ","MAREA":" ","LANE":"５８巷","ALLEY":" ","HOUSE_NO":"２７號","E_COORD97":172251.07000000001,"N_COORD97":2541377.3300000001,"ADDRESS":"文心路５８巷２７號","OBJECTID":491561},"geometry":{"x":172251.07000000216,"y":2541377.3299999982}},{"attributes":{"ID":491587,"DIS_CODE":0,"TOWNNAME":"東區","LI":"圍下里","LIN":"14鄰","STREET":"前鋒路","SECT":" ","MAREA":" ","LANE":"８５巷","ALLEY":" ","HOUSE_NO":"８號","E_COORD97":169283.12,"N_COORD97":2543638.5499999998,"ADDRESS":"前鋒路８５巷８號","OBJECTID":491562},"geometry":{"x":169283.12000000011,"y":2543638.5500000026}},{"attributes":{"ID":491588,"DIS_CODE":0,"TOWNNAME":"東區","LI":"圍下里","LIN":"7鄰","STREET":"前鋒路","SECT":" ","MAREA":" ","LANE":"６０巷","ALLEY":" ","HOUSE_NO":"６號","E_COORD97":169331.60999999999,"N_COORD97":2543583.5800000001,"ADDRESS":"前鋒路６０巷６號","OBJECTID":491563},"geometry":{"x":169331.6099999994,"y":2543583.5800000019}},{"attributes":{"ID":491589,"DIS_CODE":0,"TOWNNAME":"北區","LI":"成功里","LIN":"9鄰","STREET":"北成路","SECT":" ","MAREA":" ","LANE":"６巷","ALLEY":" ","HOUSE_NO":"９號","E_COORD97":169224.06,"N_COORD97":2546570,"ADDRESS":"北成路６巷９號","OBJECTID":491564},"geometry":{"x":169224.05999999959,"y":2546570}},{"attributes":{"ID":491590,"DIS_CODE":0,"TOWNNAME":"關廟區","LI":"松腳里","LIN":"9鄰","STREET":"四維街","SECT":" ","MAREA":" ","LANE":"１０１巷","ALLEY":" ","HOUSE_NO":"２０號","E_COORD97":181825.81,"N_COORD97":2539695.25,"ADDRESS":"四維街１０１巷２０號","OBJECTID":491565},"geometry":{"x":181825.80999999959,"y":2539695.25}},{"attributes":{"ID":491591,"DIS_CODE":0,"TOWNNAME":"關廟區","LI":"深坑里","LIN":"9鄰","STREET":"深坑三街","SECT":" ","MAREA":" ","LANE":"２５巷","ALLEY":" ","HOUSE_NO":"１０號","E_COORD97":181866.42000000001,"N_COORD97":2537820.2999999998,"ADDRESS":"深坑三街２５巷１０號","OBJECTID":491566},"geometry":{"x":181866.41999999993,"y":2537820.3000000026}},{"attributes":{"ID":491592,"DIS_CODE":0,"TOWNNAME":"永康區","LI":"正強里","LIN":"9鄰","STREET":"正義街","SECT":" ","MAREA":" ","LANE":"１２６巷","ALLEY":" ","HOUSE_NO":"１２號","E_COORD97":173392.20999999999,"N_COORD97":2547591.27,"ADDRESS":"正義街１２６巷１２號","OBJECTID":491567},"geometry":{"x":173392.20999999903,"y":2547591.2699999996}},{"attributes":{"ID":491595,"DIS_CODE":0,"TOWNNAME":"中西區","LI":"小西里","LIN":"9鄰","STREET":"西門路","SECT":"一段","MAREA":" ","LANE":"７０２巷","ALLEY":" ","HOUSE_NO":"５號","E_COORD97":167775.87,"N_COORD97":2543356.46,"ADDRESS":"西門路一段７０２巷５號","OBJECTID":491568},"geometry":{"x":167775.87000000104,"y":2543356.4600000009}},{"attributes":{"ID":491596,"DIS_CODE":0,"TOWNNAME":"善化區","LI":"文正里","LIN":"9鄰","STREET":"文正路","SECT":" ","MAREA":" ","LANE":"７９巷","ALLEY":" ","HOUSE_NO":"１９號之２","E_COORD97":176994.64000000001,"N_COORD97":2559327.0299999998,"ADDRESS":"文正路７９巷１９號之２","OBJECTID":491569},"geometry":{"x":176994.63999999873,"y":2559327.0299999993}},{"attributes":{"ID":491597,"DIS_CODE":0,"TOWNNAME":"東區","LI":"龍山里","LIN":"9鄰","STREET":"東門路","SECT":"二段","MAREA":" ","LANE":"１５８巷","ALLEY":" ","HOUSE_NO":"８號","E_COORD97":170139.51999999999,"N_COORD97":2542880.8100000001,"ADDRESS":"東門路二段１５８巷８號","OBJECTID":491570},"geometry":{"x":170139.51999999955,"y":2542880.8100000024}},{"attributes":{"ID":491598,"DIS_CODE":0,"TOWNNAME":"中西區","LI":"大涼里","LIN":"9鄰","STREET":"府前路","SECT":"二段","MAREA":" ","LANE":"２５８巷","ALLEY":" ","HOUSE_NO":"１１號","E_COORD97":167002.32999999999,"N_COORD97":2543702.8500000001,"ADDRESS":"府前路二段２５８巷１１號","OBJECTID":491571},"geometry":{"x":167002.33000000007,"y":2543702.8500000034}},{"attributes":{"ID":491599,"DIS_CODE":0,"TOWNNAME":"中西區","LI":"大涼里","LIN":"9鄰","STREET":"府前路","SECT":"二段","MAREA":" ","LANE":"２５８巷","ALLEY":" ","HOUSE_NO":"１３號","E_COORD97":166985.59,"N_COORD97":2543708.5,"ADDRESS":"府前路二段２５８巷１３號","OBJECTID":491572},"geometry":{"x":166985.59000000078,"y":2543708.5}},{"attributes":{"ID":491600,"DIS_CODE":0,"TOWNNAME":"中西區","LI":"大涼里","LIN":"9鄰","STREET":"府前路","SECT":"二段","MAREA":" ","LANE":"２５８巷","ALLEY":" ","HOUSE_NO":"１５號","E_COORD97":166986.95000000001,"N_COORD97":2543714.3900000001,"ADDRESS":"府前路二段２５８巷１５號","OBJECTID":491573},"geometry":{"x":166986.95000000112,"y":2543714.3900000025}},{"attributes":{"ID":491601,"DIS_CODE":0,"TOWNNAME":"中西區","LI":"大涼里","LIN":"9鄰","STREET":"府前路","SECT":"二段","MAREA":" ","LANE":"２５８巷","ALLEY":" ","HOUSE_NO":"１７號","E_COORD97":166989.95999999999,"N_COORD97":2543723.8799999999,"ADDRESS":"府前路二段２５８巷１７號","OBJECTID":491574},"geometry":{"x":166989.96000000089,"y":2543723.8800000008}},{"attributes":{"ID":491602,"DIS_CODE":0,"TOWNNAME":"仁德區","LI":"成功里","LIN":"37鄰","STREET":"保華路","SECT":" ","MAREA":" ","LANE":"２２巷","ALLEY":" ","HOUSE_NO":"７號","E_COORD97":170703.98999999999,"N_COORD97":2540024.5,"ADDRESS":"保華路２２巷７號","OBJECTID":491575},"geometry":{"x":170703.99000000115,"y":2540024.5000000019}},{"attributes":{"ID":491603,"DIS_CODE":0,"TOWNNAME":"永康區","LI":"永康里","LIN":"37鄰","STREET":"西勢路","SECT":" ","MAREA":" ","LANE":"７３８巷","ALLEY":" ","HOUSE_NO":"２９號","E_COORD97":174525.28,"N_COORD97":2546828.9300000002,"ADDRESS":"西勢路７３８巷２９號","OBJECTID":491576},"geometry":{"x":174525.28000000119,"y":2546828.9300000016}},{"attributes":{"ID":491604,"DIS_CODE":0,"TOWNNAME":"南區","LI":"文南里","LIN":"28鄰","STREET":"中華西路","SECT":"一段","MAREA":" ","LANE":"１０９巷","ALLEY":" ","HOUSE_NO":"５６號","E_COORD97":166278.07000000001,"N_COORD97":2542463.8300000001,"ADDRESS":"中華西路一段１０９巷５６號","OBJECTID":491577},"geometry":{"x":166278.07000000123,"y":2542463.8300000019}},{"attributes":{"ID":491605,"DIS_CODE":0,"TOWNNAME":"南區","LI":"文南里","LIN":"28鄰","STREET":"中華西路","SECT":"一段","MAREA":" ","LANE":"１０９巷","ALLEY":" ","HOUSE_NO":"５８號","E_COORD97":166272.51000000001,"N_COORD97":2542464.79,"ADDRESS":"中華西路一段１０９巷５８號","OBJECTID":491578},"geometry":{"x":166272.51000000071,"y":2542464.7899999991}},{"attributes":{"ID":491606,"DIS_CODE":0,"TOWNNAME":"南區","LI":"文南里","LIN":"28鄰","STREET":"中華西路","SECT":"一段","MAREA":" ","LANE":"１０９巷","ALLEY":" ","HOUSE_NO":"６０號","E_COORD97":166267.12,"N_COORD97":2542465.4199999999,"ADDRESS":"中華西路一段１０９巷６０號","OBJECTID":491579},"geometry":{"x":166267.12000000104,"y":2542465.4200000018}},{"attributes":{"ID":491607,"DIS_CODE":0,"TOWNNAME":"南區","LI":"文南里","LIN":"28鄰","STREET":"中華西路","SECT":"一段","MAREA":" ","LANE":"１０９巷","ALLEY":" ","HOUSE_NO":"６８號","E_COORD97":166249.34,"N_COORD97":2542468.6699999999,"ADDRESS":"中華西路一段１０９巷６８號","OBJECTID":491580},"geometry":{"x":166249.33999999985,"y":2542468.6699999999}},{"attributes":{"ID":491608,"DIS_CODE":0,"TOWNNAME":"仁德區","LI":"上崙里","LIN":"28鄰","STREET":"上崙街","SECT":" ","MAREA":" ","LANE":"４５９巷","ALLEY":" ","HOUSE_NO":"２１號","E_COORD97":172956.48999999999,"N_COORD97":2537562.4900000002,"ADDRESS":"上崙街４５９巷２１號","OBJECTID":491581},"geometry":{"x":172956.49000000022,"y":2537562.4900000039}},{"attributes":{"ID":491609,"DIS_CODE":0,"TOWNNAME":"仁德區","LI":"上崙里","LIN":"28鄰","STREET":"上崙街","SECT":" ","MAREA":" ","LANE":"４５９巷","ALLEY":" ","HOUSE_NO":"２５號","E_COORD97":172958.17000000001,"N_COORD97":2537552.9900000002,"ADDRESS":"上崙街４５９巷２５號","OBJECTID":491582},"geometry":{"x":172958.16999999993,"y":2537552.9900000021}},{"attributes":{"ID":491610,"DIS_CODE":0,"TOWNNAME":"仁德區","LI":"上崙里","LIN":"28鄰","STREET":"上崙街","SECT":" ","MAREA":" ","LANE":"４５９巷","ALLEY":" ","HOUSE_NO":"１１號","E_COORD97":172956.48000000001,"N_COORD97":2537578.2400000002,"ADDRESS":"上崙街４５９巷１１號","OBJECTID":491583},"geometry":{"x":172956.48000000045,"y":2537578.2400000021}},{"attributes":{"ID":491611,"DIS_CODE":0,"TOWNNAME":"東區","LI":"後甲里","LIN":"28鄰","STREET":"裕農路","SECT":" ","MAREA":" ","LANE":"９７９巷","ALLEY":" ","HOUSE_NO":"７號","E_COORD97":172775.85999999999,"N_COORD97":2543467.9500000002,"ADDRESS":"裕農路９７９巷７號","OBJECTID":491584},"geometry":{"x":172775.86000000034,"y":2543467.950000003}},{"attributes":{"ID":491612,"DIS_CODE":0,"TOWNNAME":"仁德區","LI":"上崙里","LIN":"28鄰","STREET":"上崙街","SECT":" ","MAREA":" ","LANE":"４５９巷","ALLEY":" ","HOUSE_NO":"５９號","E_COORD97":173056.34,"N_COORD97":2537497.75,"ADDRESS":"上崙街４５９巷５９號","OBJECTID":491585},"geometry":{"x":173056.34000000078,"y":2537497.7500000019}},{"attributes":{"ID":491613,"DIS_CODE":0,"TOWNNAME":"仁德區","LI":"上崙里","LIN":"28鄰","STREET":"上崙街","SECT":" ","MAREA":" ","LANE":"４５９巷","ALLEY":" ","HOUSE_NO":"１３號","E_COORD97":172957.09,"N_COORD97":2537581.9900000002,"ADDRESS":"上崙街４５９巷１３號","OBJECTID":491586},"geometry":{"x":172957.08999999985,"y":2537581.9900000002}},{"attributes":{"ID":491614,"DIS_CODE":0,"TOWNNAME":"仁德區","LI":"上崙里","LIN":"28鄰","STREET":"上崙街","SECT":" ","MAREA":" ","LANE":"４５９巷","ALLEY":" ","HOUSE_NO":"６７號","E_COORD97":173058.91,"N_COORD97":2537476.9900000002,"ADDRESS":"上崙街４５９巷６７號","OBJECTID":491587},"geometry":{"x":173058.91000000201,"y":2537476.9900000002}},{"attributes":{"ID":491615,"DIS_CODE":0,"TOWNNAME":"善化區","LI":"光文里","LIN":"28鄰","STREET":"中山路","SECT":" ","MAREA":" ","LANE":"２４０巷","ALLEY":" ","HOUSE_NO":"２９號","E_COORD97":177808.06,"N_COORD97":2559184.75,"ADDRESS":"中山路２４０巷２９號","OBJECTID":491588},"geometry":{"x":177808.06000000052,"y":2559184.7500000019}},{"attributes":{"ID":491616,"DIS_CODE":0,"TOWNNAME":"善化區","LI":"光文里","LIN":"28鄰","STREET":"中山路","SECT":" ","MAREA":" ","LANE":"２４０巷","ALLEY":" ","HOUSE_NO":"３７號","E_COORD97":177809.82999999999,"N_COORD97":2559225,"ADDRESS":"中山路２４０巷３７號","OBJECTID":491589},"geometry":{"x":177809.83000000101,"y":2559225.0000000019}},{"attributes":{"ID":491617,"DIS_CODE":0,"TOWNNAME":"善化區","LI":"光文里","LIN":"28鄰","STREET":"中山路","SECT":" ","MAREA":" ","LANE":"２４０巷","ALLEY":" ","HOUSE_NO":"５６號","E_COORD97":177813.14000000001,"N_COORD97":2559265,"ADDRESS":"中山路２４０巷５６號","OBJECTID":491590},"geometry":{"x":177813.13999999966,"y":2559265.0000000019}},{"attributes":{"ID":491618,"DIS_CODE":0,"TOWNNAME":"善化區","LI":"光文里","LIN":"28鄰","STREET":"中山路","SECT":" ","MAREA":" ","LANE":"２４０巷","ALLEY":" ","HOUSE_NO":"３９號","E_COORD97":177810.39999999999,"N_COORD97":2559234,"ADDRESS":"中山路２４０巷３９號","OBJECTID":491591},"geometry":{"x":177810.40000000037,"y":2559234.0000000019}},{"attributes":{"ID":491619,"DIS_CODE":0,"TOWNNAME":"永康區","LI":"龍潭里","LIN":"28鄰","STREET":"中山北路","SECT":" ","MAREA":" ","LANE":"３８５巷","ALLEY":" ","HOUSE_NO":"５號","E_COORD97":174864.45000000001,"N_COORD97":2547741.3599999999,"ADDRESS":"中山北路３８５巷５號","OBJECTID":491592},"geometry":{"x":174864.45000000112,"y":2547741.3600000013}},{"attributes":{"ID":491620,"DIS_CODE":0,"TOWNNAME":"永康區","LI":"龍潭里","LIN":"28鄰","STREET":"中山北路","SECT":" ","MAREA":" ","LANE":"３８５巷","ALLEY":" ","HOUSE_NO":"３２號之３","E_COORD97":174947.16,"N_COORD97":2547784.98,"ADDRESS":"中山北路３８５巷３２號之３","OBJECTID":491593},"geometry":{"x":174947.16000000015,"y":2547784.9800000042}},{"attributes":{"ID":491621,"DIS_CODE":0,"TOWNNAME":"永康區","LI":"龍潭里","LIN":"28鄰","STREET":"中山北路","SECT":" ","MAREA":" ","LANE":"３８５巷","ALLEY":" ","HOUSE_NO":"１３號","E_COORD97":174863.04000000001,"N_COORD97":2547769.4100000001,"ADDRESS":"中山北路３８５巷１３號","OBJECTID":491594},"geometry":{"x":174863.04000000004,"y":2547769.410000002}},{"attributes":{"ID":491622,"DIS_CODE":0,"TOWNNAME":"永康區","LI":"復興里","LIN":"28鄰","STREET":"興國街","SECT":" ","MAREA":" ","LANE":"１６２巷","ALLEY":" ","HOUSE_NO":"７號","E_COORD97":172386,"N_COORD97":2544882.25,"ADDRESS":"興國街１６２巷７號","OBJECTID":491595},"geometry":{"x":172386.00000000093,"y":2544882.25}},{"attributes":{"ID":491623,"DIS_CODE":0,"TOWNNAME":"永康區","LI":"復興里","LIN":"28鄰","STREET":"興國街","SECT":" ","MAREA":" ","LANE":"１８２巷","ALLEY":" ","HOUSE_NO":"１號","E_COORD97":172364.17999999999,"N_COORD97":2544926.7400000002,"ADDRESS":"興國街１８２巷１號","OBJECTID":491596},"geometry":{"x":172364.1799999997,"y":2544926.7400000002}},{"attributes":{"ID":491624,"DIS_CODE":0,"TOWNNAME":"永康區","LI":"\u25A0行里","LIN":"28鄰","STREET":"竹林街","SECT":" ","MAREA":" ","LANE":"２８巷","ALLEY":" ","HOUSE_NO":"６號","E_COORD97":172626.89999999999,"N_COORD97":2548896.5,"ADDRESS":"竹林街２８巷６號","OBJECTID":491597},"geometry":{"x":172626.90000000224,"y":2548896.5000000019}},{"attributes":{"ID":491625,"DIS_CODE":0,"TOWNNAME":"永康區","LI":"成功里","LIN":"28鄰","STREET":"忠孝路","SECT":" ","MAREA":" ","LANE":"１８１巷","ALLEY":" ","HOUSE_NO":"１２５號","E_COORD97":171786.17000000001,"N_COORD97":2544719.2400000002,"ADDRESS":"忠孝路１８１巷１２５號","OBJECTID":491598},"geometry":{"x":171786.17000000086,"y":2544719.2400000021}},{"attributes":{"ID":491626,"DIS_CODE":0,"TOWNNAME":"仁德區","LI":"後壁里","LIN":"28鄰","STREET":"德洋路","SECT":" ","MAREA":" ","LANE":"２５巷","ALLEY":" ","HOUSE_NO":"１８號","E_COORD97":173106.70000000001,"N_COORD97":2538972.52,"ADDRESS":"德洋路２５巷１８號","OBJECTID":491599},"geometry":{"x":173106.70000000112,"y":2538972.5200000014}},{"attributes":{"ID":491627,"DIS_CODE":0,"TOWNNAME":"仁德區","LI":"後壁里","LIN":"28鄰","STREET":"德洋路","SECT":" ","MAREA":" ","LANE":"２５巷","ALLEY":" ","HOUSE_NO":"１９號","E_COORD97":173127.84,"N_COORD97":2538958.52,"ADDRESS":"德洋路２５巷１９號","OBJECTID":491600},"geometry":{"x":173127.83999999985,"y":2538958.5200000033}}]}