{"displayFieldName":"TOWNNAME","fieldAliases":{"ID":"ID","DIS_CODE":"DIS_CODE","TOWNNAME":"TOWNNAME","LI":"LI","LIN":"LIN","STREET":"STREET","SECT":"SECT","MAREA":"MAREA","LANE":"LANE","ALLEY":"ALLEY","HOUSE_NO":"HOUSE_NO","E_COORD97":"E_COORD97","N_COORD97":"N_COORD97","ADDRESS":"ADDRESS","OBJECTID":"OBJECTID"},"geometryType":"esriGeometryPoint","spatialReference":{"wkid":102443,"latestWkid":3826},"fields":[{"name":"ID","type":"esriFieldTypeDouble","alias":"ID"},{"name":"DIS_CODE","type":"esriFieldTypeInteger","alias":"DIS_CODE"},{"name":"TOWNNAME","type":"esriFieldTypeString","alias":"TOWNNAME","length":8},{"name":"LI","type":"esriFieldTypeString","alias":"LI","length":8},{"name":"LIN","type":"esriFieldTypeString","alias":"LIN","length":12},{"name":"STREET","type":"esriFieldTypeString","alias":"STREET","length":20},{"name":"SECT","type":"esriFieldTypeString","alias":"SECT","length":8},{"name":"MAREA","type":"esriFieldTypeString","alias":"MAREA","length":12},{"name":"LANE","type":"esriFieldTypeString","alias":"LANE","length":10},{"name":"ALLEY","type":"esriFieldTypeString","alias":"ALLEY","length":10},{"name":"HOUSE_NO","type":"esriFieldTypeString","alias":"HOUSE_NO","length":20},{"name":"E_COORD97","type":"esriFieldTypeDouble","alias":"E_COORD97"},{"name":"N_COORD97","type":"esriFieldTypeDouble","alias":"N_COORD97"},{"name":"ADDRESS","type":"esriFieldTypeString","alias":"ADDRESS","length":50},{"name":"OBJECTID","type":"esriFieldTypeOID","alias":"OBJECTID"}],"features":[{"attributes":{"ID":466426,"DIS_CODE":0,"TOWNNAME":"永康區","LI":"建國里","LIN":"5鄰","STREET":"復國路","SECT":" ","MAREA":" ","LANE":" ","ALLEY":" ","HOUSE_NO":"６０號五樓之１","E_COORD97":172762.79999999999,"N_COORD97":2544601.9700000002,"ADDRESS":"復國路６０號五樓之１","OBJECTID":466401},"geometry":{"x":172762.80000000075,"y":2544601.9700000025}},{"attributes":{"ID":466427,"DIS_CODE":0,"TOWNNAME":"永康區","LI":"建國里","LIN":"5鄰","STREET":"復國路","SECT":" ","MAREA":" ","LANE":" ","ALLEY":" ","HOUSE_NO":"６０號五樓之２","E_COORD97":172762.79999999999,"N_COORD97":2544601.9700000002,"ADDRESS":"復國路６０號五樓之２","OBJECTID":466402},"geometry":{"x":172762.80000000075,"y":2544601.9700000025}},{"attributes":{"ID":466428,"DIS_CODE":0,"TOWNNAME":"永康區","LI":"建國里","LIN":"5鄰","STREET":"復國路","SECT":" ","MAREA":" ","LANE":" ","ALLEY":" ","HOUSE_NO":"６０號五樓之３","E_COORD97":172762.79999999999,"N_COORD97":2544601.9700000002,"ADDRESS":"復國路６０號五樓之３","OBJECTID":466403},"geometry":{"x":172762.80000000075,"y":2544601.9700000025}},{"attributes":{"ID":466429,"DIS_CODE":0,"TOWNNAME":"永康區","LI":"建國里","LIN":"5鄰","STREET":"復國路","SECT":" ","MAREA":" ","LANE":" ","ALLEY":" ","HOUSE_NO":"６０號五樓之５","E_COORD97":172762.79999999999,"N_COORD97":2544601.9700000002,"ADDRESS":"復國路６０號五樓之５","OBJECTID":466404},"geometry":{"x":172762.80000000075,"y":2544601.9700000025}},{"attributes":{"ID":466430,"DIS_CODE":0,"TOWNNAME":"永康區","LI":"建國里","LIN":"5鄰","STREET":"復國路","SECT":" ","MAREA":" ","LANE":" ","ALLEY":" ","HOUSE_NO":"６０號六樓之１","E_COORD97":172762.79999999999,"N_COORD97":2544601.9700000002,"ADDRESS":"復國路６０號六樓之１","OBJECTID":466405},"geometry":{"x":172762.80000000075,"y":2544601.9700000025}},{"attributes":{"ID":466431,"DIS_CODE":0,"TOWNNAME":"永康區","LI":"建國里","LIN":"5鄰","STREET":"復國路","SECT":" ","MAREA":" ","LANE":" ","ALLEY":" ","HOUSE_NO":"６０號六樓之２","E_COORD97":172762.79999999999,"N_COORD97":2544601.9700000002,"ADDRESS":"復國路６０號六樓之２","OBJECTID":466406},"geometry":{"x":172762.80000000075,"y":2544601.9700000025}},{"attributes":{"ID":466432,"DIS_CODE":0,"TOWNNAME":"永康區","LI":"建國里","LIN":"5鄰","STREET":"復國路","SECT":" ","MAREA":" ","LANE":" ","ALLEY":" ","HOUSE_NO":"６０號六樓之３","E_COORD97":172762.79999999999,"N_COORD97":2544601.9700000002,"ADDRESS":"復國路６０號六樓之３","OBJECTID":466407},"geometry":{"x":172762.80000000075,"y":2544601.9700000025}},{"attributes":{"ID":466433,"DIS_CODE":0,"TOWNNAME":"永康區","LI":"建國里","LIN":"5鄰","STREET":"復國路","SECT":" ","MAREA":" ","LANE":" ","ALLEY":" ","HOUSE_NO":"６０號六樓之５","E_COORD97":172762.79999999999,"N_COORD97":2544601.9700000002,"ADDRESS":"復國路６０號六樓之５","OBJECTID":466408},"geometry":{"x":172762.80000000075,"y":2544601.9700000025}},{"attributes":{"ID":466434,"DIS_CODE":0,"TOWNNAME":"永康區","LI":"建國里","LIN":"5鄰","STREET":"復國路","SECT":" ","MAREA":" ","LANE":" ","ALLEY":" ","HOUSE_NO":"６０號七樓之１","E_COORD97":172762.79999999999,"N_COORD97":2544601.9700000002,"ADDRESS":"復國路６０號七樓之１","OBJECTID":466409},"geometry":{"x":172762.80000000075,"y":2544601.9700000025}},{"attributes":{"ID":466435,"DIS_CODE":0,"TOWNNAME":"永康區","LI":"建國里","LIN":"5鄰","STREET":"復國路","SECT":" ","MAREA":" ","LANE":" ","ALLEY":" ","HOUSE_NO":"６０號七樓之２","E_COORD97":172762.79999999999,"N_COORD97":2544601.9700000002,"ADDRESS":"復國路６０號七樓之２","OBJECTID":466410},"geometry":{"x":172762.80000000075,"y":2544601.9700000025}},{"attributes":{"ID":466436,"DIS_CODE":0,"TOWNNAME":"永康區","LI":"建國里","LIN":"5鄰","STREET":"復國路","SECT":" ","MAREA":" ","LANE":" ","ALLEY":" ","HOUSE_NO":"６０號七樓之３","E_COORD97":172762.79999999999,"N_COORD97":2544601.9700000002,"ADDRESS":"復國路６０號七樓之３","OBJECTID":466411},"geometry":{"x":172762.80000000075,"y":2544601.9700000025}},{"attributes":{"ID":466437,"DIS_CODE":0,"TOWNNAME":"永康區","LI":"建國里","LIN":"5鄰","STREET":"復國路","SECT":" ","MAREA":" ","LANE":" ","ALLEY":" ","HOUSE_NO":"６０號七樓之５","E_COORD97":172762.79999999999,"N_COORD97":2544601.9700000002,"ADDRESS":"復國路６０號七樓之５","OBJECTID":466412},"geometry":{"x":172762.80000000075,"y":2544601.9700000025}},{"attributes":{"ID":466438,"DIS_CODE":0,"TOWNNAME":"永康區","LI":"建國里","LIN":"5鄰","STREET":"復國路","SECT":" ","MAREA":" ","LANE":" ","ALLEY":" ","HOUSE_NO":"６０號八樓之１","E_COORD97":172762.79999999999,"N_COORD97":2544601.9700000002,"ADDRESS":"復國路６０號八樓之１","OBJECTID":466413},"geometry":{"x":172762.80000000075,"y":2544601.9700000025}},{"attributes":{"ID":466439,"DIS_CODE":0,"TOWNNAME":"永康區","LI":"建國里","LIN":"5鄰","STREET":"復國路","SECT":" ","MAREA":" ","LANE":" ","ALLEY":" ","HOUSE_NO":"６０號八樓之２","E_COORD97":172762.79999999999,"N_COORD97":2544601.9700000002,"ADDRESS":"復國路６０號八樓之２","OBJECTID":466414},"geometry":{"x":172762.80000000075,"y":2544601.9700000025}},{"attributes":{"ID":466440,"DIS_CODE":0,"TOWNNAME":"永康區","LI":"建國里","LIN":"5鄰","STREET":"復國路","SECT":" ","MAREA":" ","LANE":" ","ALLEY":" ","HOUSE_NO":"６０號八樓之３","E_COORD97":172762.79999999999,"N_COORD97":2544601.9700000002,"ADDRESS":"復國路６０號八樓之３","OBJECTID":466415},"geometry":{"x":172762.80000000075,"y":2544601.9700000025}},{"attributes":{"ID":466441,"DIS_CODE":0,"TOWNNAME":"永康區","LI":"建國里","LIN":"5鄰","STREET":"復國路","SECT":" ","MAREA":" ","LANE":" ","ALLEY":" ","HOUSE_NO":"６０號八樓之５","E_COORD97":172762.79999999999,"N_COORD97":2544601.9700000002,"ADDRESS":"復國路６０號八樓之５","OBJECTID":466416},"geometry":{"x":172762.80000000075,"y":2544601.9700000025}},{"attributes":{"ID":466442,"DIS_CODE":0,"TOWNNAME":"永康區","LI":"建國里","LIN":"5鄰","STREET":"復國路","SECT":" ","MAREA":" ","LANE":" ","ALLEY":" ","HOUSE_NO":"６０號九樓之１","E_COORD97":172762.79999999999,"N_COORD97":2544601.9700000002,"ADDRESS":"復國路６０號九樓之１","OBJECTID":466417},"geometry":{"x":172762.80000000075,"y":2544601.9700000025}},{"attributes":{"ID":466443,"DIS_CODE":0,"TOWNNAME":"永康區","LI":"建國里","LIN":"5鄰","STREET":"復國路","SECT":" ","MAREA":" ","LANE":" ","ALLEY":" ","HOUSE_NO":"６０號九樓之２","E_COORD97":172762.79999999999,"N_COORD97":2544601.9700000002,"ADDRESS":"復國路６０號九樓之２","OBJECTID":466418},"geometry":{"x":172762.80000000075,"y":2544601.9700000025}},{"attributes":{"ID":466444,"DIS_CODE":0,"TOWNNAME":"永康區","LI":"建國里","LIN":"5鄰","STREET":"復國路","SECT":" ","MAREA":" ","LANE":" ","ALLEY":" ","HOUSE_NO":"６０號九樓之３","E_COORD97":172762.79999999999,"N_COORD97":2544601.9700000002,"ADDRESS":"復國路６０號九樓之３","OBJECTID":466419},"geometry":{"x":172762.80000000075,"y":2544601.9700000025}},{"attributes":{"ID":466445,"DIS_CODE":0,"TOWNNAME":"永康區","LI":"建國里","LIN":"5鄰","STREET":"復國路","SECT":" ","MAREA":" ","LANE":" ","ALLEY":" ","HOUSE_NO":"６０號九樓之５","E_COORD97":172762.79999999999,"N_COORD97":2544601.9700000002,"ADDRESS":"復國路６０號九樓之５","OBJECTID":466420},"geometry":{"x":172762.80000000075,"y":2544601.9700000025}},{"attributes":{"ID":466446,"DIS_CODE":0,"TOWNNAME":"永康區","LI":"建國里","LIN":"5鄰","STREET":"復國路","SECT":" ","MAREA":" ","LANE":" ","ALLEY":" ","HOUSE_NO":"６０號十樓之１","E_COORD97":172762.79999999999,"N_COORD97":2544601.9700000002,"ADDRESS":"復國路６０號十樓之１","OBJECTID":466421},"geometry":{"x":172762.80000000075,"y":2544601.9700000025}},{"attributes":{"ID":466447,"DIS_CODE":0,"TOWNNAME":"永康區","LI":"建國里","LIN":"5鄰","STREET":"復國路","SECT":" ","MAREA":" ","LANE":" ","ALLEY":" ","HOUSE_NO":"６０號十樓之２","E_COORD97":172762.79999999999,"N_COORD97":2544601.9700000002,"ADDRESS":"復國路６０號十樓之２","OBJECTID":466422},"geometry":{"x":172762.80000000075,"y":2544601.9700000025}},{"attributes":{"ID":466448,"DIS_CODE":0,"TOWNNAME":"永康區","LI":"建國里","LIN":"5鄰","STREET":"復國路","SECT":" ","MAREA":" ","LANE":" ","ALLEY":" ","HOUSE_NO":"６０號十樓之３","E_COORD97":172762.79999999999,"N_COORD97":2544601.9700000002,"ADDRESS":"復國路６０號十樓之３","OBJECTID":466423},"geometry":{"x":172762.80000000075,"y":2544601.9700000025}},{"attributes":{"ID":466449,"DIS_CODE":0,"TOWNNAME":"永康區","LI":"建國里","LIN":"5鄰","STREET":"復國路","SECT":" ","MAREA":" ","LANE":" ","ALLEY":" ","HOUSE_NO":"６０號十樓之５","E_COORD97":172762.79999999999,"N_COORD97":2544601.9700000002,"ADDRESS":"復國路６０號十樓之５","OBJECTID":466424},"geometry":{"x":172762.80000000075,"y":2544601.9700000025}},{"attributes":{"ID":466450,"DIS_CODE":0,"TOWNNAME":"永康區","LI":"建國里","LIN":"5鄰","STREET":"復國路","SECT":" ","MAREA":" ","LANE":" ","ALLEY":" ","HOUSE_NO":"６０號十一樓之１","E_COORD97":172762.79999999999,"N_COORD97":2544601.9700000002,"ADDRESS":"復國路６０號十一樓之１","OBJECTID":466425},"geometry":{"x":172762.80000000075,"y":2544601.9700000025}},{"attributes":{"ID":466451,"DIS_CODE":0,"TOWNNAME":"永康區","LI":"建國里","LIN":"5鄰","STREET":"復國路","SECT":" ","MAREA":" ","LANE":" ","ALLEY":" ","HOUSE_NO":"６０號十一樓之２","E_COORD97":172762.79999999999,"N_COORD97":2544601.9700000002,"ADDRESS":"復國路６０號十一樓之２","OBJECTID":466426},"geometry":{"x":172762.80000000075,"y":2544601.9700000025}},{"attributes":{"ID":466452,"DIS_CODE":0,"TOWNNAME":"永康區","LI":"建國里","LIN":"5鄰","STREET":"復國路","SECT":" ","MAREA":" ","LANE":" ","ALLEY":" ","HOUSE_NO":"６０號十一樓之３","E_COORD97":172762.79999999999,"N_COORD97":2544601.9700000002,"ADDRESS":"復國路６０號十一樓之３","OBJECTID":466427},"geometry":{"x":172762.80000000075,"y":2544601.9700000025}},{"attributes":{"ID":466453,"DIS_CODE":0,"TOWNNAME":"永康區","LI":"建國里","LIN":"5鄰","STREET":"復國路","SECT":" ","MAREA":" ","LANE":" ","ALLEY":" ","HOUSE_NO":"６０號十一樓之５","E_COORD97":172762.79999999999,"N_COORD97":2544601.9700000002,"ADDRESS":"復國路６０號十一樓之５","OBJECTID":466428},"geometry":{"x":172762.80000000075,"y":2544601.9700000025}},{"attributes":{"ID":466454,"DIS_CODE":0,"TOWNNAME":"永康區","LI":"建國里","LIN":"5鄰","STREET":"復國路","SECT":" ","MAREA":" ","LANE":" ","ALLEY":" ","HOUSE_NO":"６０號十二樓之１","E_COORD97":172762.79999999999,"N_COORD97":2544601.9700000002,"ADDRESS":"復國路６０號十二樓之１","OBJECTID":466429},"geometry":{"x":172762.80000000075,"y":2544601.9700000025}},{"attributes":{"ID":466455,"DIS_CODE":0,"TOWNNAME":"永康區","LI":"建國里","LIN":"5鄰","STREET":"復國路","SECT":" ","MAREA":" ","LANE":" ","ALLEY":" ","HOUSE_NO":"６０號十二樓之２","E_COORD97":172762.79999999999,"N_COORD97":2544601.9700000002,"ADDRESS":"復國路６０號十二樓之２","OBJECTID":466430},"geometry":{"x":172762.80000000075,"y":2544601.9700000025}},{"attributes":{"ID":466456,"DIS_CODE":0,"TOWNNAME":"永康區","LI":"建國里","LIN":"5鄰","STREET":"復國路","SECT":" ","MAREA":" ","LANE":" ","ALLEY":" ","HOUSE_NO":"６０號十二樓之３","E_COORD97":172762.79999999999,"N_COORD97":2544601.9700000002,"ADDRESS":"復國路６０號十二樓之３","OBJECTID":466431},"geometry":{"x":172762.80000000075,"y":2544601.9700000025}},{"attributes":{"ID":466457,"DIS_CODE":0,"TOWNNAME":"永康區","LI":"建國里","LIN":"5鄰","STREET":"復國路","SECT":" ","MAREA":" ","LANE":" ","ALLEY":" ","HOUSE_NO":"６０號十二樓之５","E_COORD97":172762.79999999999,"N_COORD97":2544601.9700000002,"ADDRESS":"復國路６０號十二樓之５","OBJECTID":466432},"geometry":{"x":172762.80000000075,"y":2544601.9700000025}},{"attributes":{"ID":466458,"DIS_CODE":0,"TOWNNAME":"永康區","LI":"建國里","LIN":"5鄰","STREET":"復國路","SECT":" ","MAREA":" ","LANE":" ","ALLEY":" ","HOUSE_NO":"６０號十三樓之１","E_COORD97":172762.79999999999,"N_COORD97":2544601.9700000002,"ADDRESS":"復國路６０號十三樓之１","OBJECTID":466433},"geometry":{"x":172762.80000000075,"y":2544601.9700000025}},{"attributes":{"ID":466459,"DIS_CODE":0,"TOWNNAME":"永康區","LI":"建國里","LIN":"5鄰","STREET":"復國路","SECT":" ","MAREA":" ","LANE":" ","ALLEY":" ","HOUSE_NO":"６０號十三樓之２","E_COORD97":172762.79999999999,"N_COORD97":2544601.9700000002,"ADDRESS":"復國路６０號十三樓之２","OBJECTID":466434},"geometry":{"x":172762.80000000075,"y":2544601.9700000025}},{"attributes":{"ID":466460,"DIS_CODE":0,"TOWNNAME":"永康區","LI":"建國里","LIN":"5鄰","STREET":"復國路","SECT":" ","MAREA":" ","LANE":" ","ALLEY":" ","HOUSE_NO":"６０號十三樓之３","E_COORD97":172762.79999999999,"N_COORD97":2544601.9700000002,"ADDRESS":"復國路６０號十三樓之３","OBJECTID":466435},"geometry":{"x":172762.80000000075,"y":2544601.9700000025}},{"attributes":{"ID":466461,"DIS_CODE":0,"TOWNNAME":"永康區","LI":"建國里","LIN":"5鄰","STREET":"復國路","SECT":" ","MAREA":" ","LANE":" ","ALLEY":" ","HOUSE_NO":"６０號十三樓之５","E_COORD97":172762.79999999999,"N_COORD97":2544601.9700000002,"ADDRESS":"復國路６０號十三樓之５","OBJECTID":466436},"geometry":{"x":172762.80000000075,"y":2544601.9700000025}},{"attributes":{"ID":466462,"DIS_CODE":0,"TOWNNAME":"永康區","LI":"建國里","LIN":"5鄰","STREET":"復國路","SECT":" ","MAREA":" ","LANE":" ","ALLEY":" ","HOUSE_NO":"６０號十四樓之１","E_COORD97":172762.79999999999,"N_COORD97":2544601.9700000002,"ADDRESS":"復國路６０號十四樓之１","OBJECTID":466437},"geometry":{"x":172762.80000000075,"y":2544601.9700000025}},{"attributes":{"ID":466463,"DIS_CODE":0,"TOWNNAME":"永康區","LI":"建國里","LIN":"5鄰","STREET":"復國路","SECT":" ","MAREA":" ","LANE":" ","ALLEY":" ","HOUSE_NO":"６０號十四樓之２","E_COORD97":172762.79999999999,"N_COORD97":2544601.9700000002,"ADDRESS":"復國路６０號十四樓之２","OBJECTID":466438},"geometry":{"x":172762.80000000075,"y":2544601.9700000025}},{"attributes":{"ID":466464,"DIS_CODE":0,"TOWNNAME":"永康區","LI":"建國里","LIN":"5鄰","STREET":"復國路","SECT":" ","MAREA":" ","LANE":" ","ALLEY":" ","HOUSE_NO":"６０號十四樓之３","E_COORD97":172762.79999999999,"N_COORD97":2544601.9700000002,"ADDRESS":"復國路６０號十四樓之３","OBJECTID":466439},"geometry":{"x":172762.80000000075,"y":2544601.9700000025}},{"attributes":{"ID":466465,"DIS_CODE":0,"TOWNNAME":"永康區","LI":"建國里","LIN":"5鄰","STREET":"復國路","SECT":" ","MAREA":" ","LANE":" ","ALLEY":" ","HOUSE_NO":"６０號十四樓之５","E_COORD97":172762.79999999999,"N_COORD97":2544601.9700000002,"ADDRESS":"復國路６０號十四樓之５","OBJECTID":466440},"geometry":{"x":172762.80000000075,"y":2544601.9700000025}},{"attributes":{"ID":466466,"DIS_CODE":0,"TOWNNAME":"東區","LI":"忠孝里","LIN":"5鄰","STREET":"崇明七街","SECT":" ","MAREA":" ","LANE":" ","ALLEY":" ","HOUSE_NO":"９號三樓","E_COORD97":169634.38,"N_COORD97":2542145.3900000001,"ADDRESS":"崇明七街９號三樓","OBJECTID":466441},"geometry":{"x":169634.37999999989,"y":2542145.3900000025}},{"attributes":{"ID":466467,"DIS_CODE":0,"TOWNNAME":"永康區","LI":"龍潭里","LIN":"5鄰","STREET":"龍埔街","SECT":" ","MAREA":" ","LANE":" ","ALLEY":" ","HOUSE_NO":"８５號九樓之３","E_COORD97":174619.79000000001,"N_COORD97":2548225.75,"ADDRESS":"龍埔街８５號九樓之３","OBJECTID":466442},"geometry":{"x":174619.79000000097,"y":2548225.75}},{"attributes":{"ID":466468,"DIS_CODE":0,"TOWNNAME":"東區","LI":"大智里","LIN":"5鄰","STREET":"長東街","SECT":" ","MAREA":" ","LANE":" ","ALLEY":" ","HOUSE_NO":"７１號二樓","E_COORD97":171020.20000000001,"N_COORD97":2540438.7400000002,"ADDRESS":"長東街７１號二樓","OBJECTID":466443},"geometry":{"x":171020.20000000112,"y":2540438.7400000002}},{"attributes":{"ID":466469,"DIS_CODE":0,"TOWNNAME":"東區","LI":"大智里","LIN":"5鄰","STREET":"長東街","SECT":" ","MAREA":" ","LANE":" ","ALLEY":" ","HOUSE_NO":"７１號四樓","E_COORD97":171020.20000000001,"N_COORD97":2540438.7400000002,"ADDRESS":"長東街７１號四樓","OBJECTID":466444},"geometry":{"x":171020.20000000112,"y":2540438.7400000002}},{"attributes":{"ID":466470,"DIS_CODE":0,"TOWNNAME":"東區","LI":"大智里","LIN":"5鄰","STREET":"長東街","SECT":" ","MAREA":" ","LANE":" ","ALLEY":" ","HOUSE_NO":"７１號六樓","E_COORD97":171020.20000000001,"N_COORD97":2540438.7400000002,"ADDRESS":"長東街７１號六樓","OBJECTID":466445},"geometry":{"x":171020.20000000112,"y":2540438.7400000002}},{"attributes":{"ID":466471,"DIS_CODE":0,"TOWNNAME":"東區","LI":"大智里","LIN":"5鄰","STREET":"長東街","SECT":" ","MAREA":" ","LANE":" ","ALLEY":" ","HOUSE_NO":"７１號七樓","E_COORD97":171020.20000000001,"N_COORD97":2540438.7400000002,"ADDRESS":"長東街７１號七樓","OBJECTID":466446},"geometry":{"x":171020.20000000112,"y":2540438.7400000002}},{"attributes":{"ID":466472,"DIS_CODE":0,"TOWNNAME":"中西區","LI":"協進里","LIN":"5鄰","STREET":"民權路","SECT":"三段","MAREA":" ","LANE":" ","ALLEY":" ","HOUSE_NO":"３３９號二樓","E_COORD97":167017.48000000001,"N_COORD97":2544303.7200000002,"ADDRESS":"民權路三段３３９號二樓","OBJECTID":466447},"geometry":{"x":167017.48000000138,"y":2544303.7200000007}},{"attributes":{"ID":466473,"DIS_CODE":0,"TOWNNAME":"中西區","LI":"協進里","LIN":"5鄰","STREET":"民權路","SECT":"三段","MAREA":" ","LANE":" ","ALLEY":" ","HOUSE_NO":"３３９號三樓","E_COORD97":167017.48000000001,"N_COORD97":2544303.7200000002,"ADDRESS":"民權路三段３３９號三樓","OBJECTID":466448},"geometry":{"x":167017.48000000138,"y":2544303.7200000007}},{"attributes":{"ID":466474,"DIS_CODE":0,"TOWNNAME":"中西區","LI":"協進里","LIN":"5鄰","STREET":"民權路","SECT":"三段","MAREA":" ","LANE":" ","ALLEY":" ","HOUSE_NO":"３３９號五樓","E_COORD97":167017.48000000001,"N_COORD97":2544303.7200000002,"ADDRESS":"民權路三段３３９號五樓","OBJECTID":466449},"geometry":{"x":167017.48000000138,"y":2544303.7200000007}},{"attributes":{"ID":466475,"DIS_CODE":0,"TOWNNAME":"中西區","LI":"協進里","LIN":"5鄰","STREET":"民權路","SECT":"三段","MAREA":" ","LANE":" ","ALLEY":" ","HOUSE_NO":"３３９號四樓","E_COORD97":167017.48000000001,"N_COORD97":2544303.7200000002,"ADDRESS":"民權路三段３３９號四樓","OBJECTID":466450},"geometry":{"x":167017.48000000138,"y":2544303.7200000007}},{"attributes":{"ID":466476,"DIS_CODE":0,"TOWNNAME":"永康區","LI":"龍潭里","LIN":"5鄰","STREET":"龍埔街","SECT":" ","MAREA":" ","LANE":" ","ALLEY":" ","HOUSE_NO":"８５號十二樓之６","E_COORD97":174621.04999999999,"N_COORD97":2548225.75,"ADDRESS":"龍埔街８５號十二樓之６","OBJECTID":466451},"geometry":{"x":174621.05000000075,"y":2548225.75}},{"attributes":{"ID":466477,"DIS_CODE":0,"TOWNNAME":"永康區","LI":"大橋里","LIN":"5鄰","STREET":"大橋三街","SECT":" ","MAREA":" ","LANE":" ","ALLEY":" ","HOUSE_NO":"１９１號五樓之１","E_COORD97":170843.01000000001,"N_COORD97":2546766.4100000001,"ADDRESS":"大橋三街１９１號五樓之１","OBJECTID":466452},"geometry":{"x":170843.01000000071,"y":2546766.4100000001}},{"attributes":{"ID":466478,"DIS_CODE":0,"TOWNNAME":"中西區","LI":"赤嵌里","LIN":"5鄰","STREET":"成功路","SECT":" ","MAREA":" ","LANE":" ","ALLEY":" ","HOUSE_NO":"２５號之２二樓","E_COORD97":168980.42999999999,"N_COORD97":2544218.5299999998,"ADDRESS":"成功路２５號之２二樓","OBJECTID":466453},"geometry":{"x":168980.43000000063,"y":2544218.5299999993}},{"attributes":{"ID":466479,"DIS_CODE":0,"TOWNNAME":"中西區","LI":"赤嵌里","LIN":"5鄰","STREET":"成功路","SECT":" ","MAREA":" ","LANE":" ","ALLEY":" ","HOUSE_NO":"２５號之２三樓","E_COORD97":168980.42999999999,"N_COORD97":2544218.5299999998,"ADDRESS":"成功路２５號之２三樓","OBJECTID":466454},"geometry":{"x":168980.43000000063,"y":2544218.5299999993}},{"attributes":{"ID":466480,"DIS_CODE":0,"TOWNNAME":"中西區","LI":"赤嵌里","LIN":"5鄰","STREET":"成功路","SECT":" ","MAREA":" ","LANE":" ","ALLEY":" ","HOUSE_NO":"２５號之２四樓","E_COORD97":168980.42999999999,"N_COORD97":2544218.5299999998,"ADDRESS":"成功路２５號之２四樓","OBJECTID":466455},"geometry":{"x":168980.43000000063,"y":2544218.5299999993}},{"attributes":{"ID":466481,"DIS_CODE":0,"TOWNNAME":"中西區","LI":"安海里","LIN":"5鄰","STREET":"金華路","SECT":"三段","MAREA":" ","LANE":" ","ALLEY":" ","HOUSE_NO":"２５２號七樓之１","E_COORD97":167360.17000000001,"N_COORD97":2544002.2599999998,"ADDRESS":"金華路三段２５２號七樓之１","OBJECTID":466456},"geometry":{"x":167360.17000000086,"y":2544002.2600000016}},{"attributes":{"ID":466482,"DIS_CODE":0,"TOWNNAME":"中西區","LI":"安海里","LIN":"5鄰","STREET":"金華路","SECT":"三段","MAREA":" ","LANE":" ","ALLEY":" ","HOUSE_NO":"２５２號七樓之１０","E_COORD97":167360.17000000001,"N_COORD97":2544002.2599999998,"ADDRESS":"金華路三段２５２號七樓之１０","OBJECTID":466457},"geometry":{"x":167360.17000000086,"y":2544002.2600000016}},{"attributes":{"ID":466483,"DIS_CODE":0,"TOWNNAME":"中西區","LI":"安海里","LIN":"5鄰","STREET":"金華路","SECT":"三段","MAREA":" ","LANE":" ","ALLEY":" ","HOUSE_NO":"２５２號七樓之１１","E_COORD97":167360.17000000001,"N_COORD97":2544002.2599999998,"ADDRESS":"金華路三段２５２號七樓之１１","OBJECTID":466458},"geometry":{"x":167360.17000000086,"y":2544002.2600000016}},{"attributes":{"ID":466484,"DIS_CODE":0,"TOWNNAME":"中西區","LI":"安海里","LIN":"5鄰","STREET":"金華路","SECT":"三段","MAREA":" ","LANE":" ","ALLEY":" ","HOUSE_NO":"２５２號七樓之１２","E_COORD97":167360.17000000001,"N_COORD97":2544002.2599999998,"ADDRESS":"金華路三段２５２號七樓之１２","OBJECTID":466459},"geometry":{"x":167360.17000000086,"y":2544002.2600000016}},{"attributes":{"ID":466485,"DIS_CODE":0,"TOWNNAME":"中西區","LI":"安海里","LIN":"5鄰","STREET":"金華路","SECT":"三段","MAREA":" ","LANE":" ","ALLEY":" ","HOUSE_NO":"２５２號七樓之１３","E_COORD97":167360.17000000001,"N_COORD97":2544002.2599999998,"ADDRESS":"金華路三段２５２號七樓之１３","OBJECTID":466460},"geometry":{"x":167360.17000000086,"y":2544002.2600000016}},{"attributes":{"ID":466486,"DIS_CODE":0,"TOWNNAME":"中西區","LI":"安海里","LIN":"5鄰","STREET":"金華路","SECT":"三段","MAREA":" ","LANE":" ","ALLEY":" ","HOUSE_NO":"２５２號七樓之２","E_COORD97":167360.17000000001,"N_COORD97":2544002.2599999998,"ADDRESS":"金華路三段２５２號七樓之２","OBJECTID":466461},"geometry":{"x":167360.17000000086,"y":2544002.2600000016}},{"attributes":{"ID":466487,"DIS_CODE":0,"TOWNNAME":"中西區","LI":"安海里","LIN":"5鄰","STREET":"金華路","SECT":"三段","MAREA":" ","LANE":" ","ALLEY":" ","HOUSE_NO":"２５２號七樓之３","E_COORD97":167360.17000000001,"N_COORD97":2544002.2599999998,"ADDRESS":"金華路三段２５２號七樓之３","OBJECTID":466462},"geometry":{"x":167360.17000000086,"y":2544002.2600000016}},{"attributes":{"ID":466488,"DIS_CODE":0,"TOWNNAME":"中西區","LI":"安海里","LIN":"5鄰","STREET":"金華路","SECT":"三段","MAREA":" ","LANE":" ","ALLEY":" ","HOUSE_NO":"２５２號七樓之５","E_COORD97":167360.17000000001,"N_COORD97":2544002.2599999998,"ADDRESS":"金華路三段２５２號七樓之５","OBJECTID":466463},"geometry":{"x":167360.17000000086,"y":2544002.2600000016}},{"attributes":{"ID":466489,"DIS_CODE":0,"TOWNNAME":"中西區","LI":"安海里","LIN":"5鄰","STREET":"金華路","SECT":"三段","MAREA":" ","LANE":" ","ALLEY":" ","HOUSE_NO":"２５２號七樓之６","E_COORD97":167360.17000000001,"N_COORD97":2544002.2599999998,"ADDRESS":"金華路三段２５２號七樓之６","OBJECTID":466464},"geometry":{"x":167360.17000000086,"y":2544002.2600000016}},{"attributes":{"ID":466490,"DIS_CODE":0,"TOWNNAME":"中西區","LI":"安海里","LIN":"5鄰","STREET":"金華路","SECT":"三段","MAREA":" ","LANE":" ","ALLEY":" ","HOUSE_NO":"２５２號七樓之７","E_COORD97":167360.17000000001,"N_COORD97":2544002.2599999998,"ADDRESS":"金華路三段２５２號七樓之７","OBJECTID":466465},"geometry":{"x":167360.17000000086,"y":2544002.2600000016}},{"attributes":{"ID":466491,"DIS_CODE":0,"TOWNNAME":"中西區","LI":"安海里","LIN":"5鄰","STREET":"金華路","SECT":"三段","MAREA":" ","LANE":" ","ALLEY":" ","HOUSE_NO":"２５２號七樓之８","E_COORD97":167360.17000000001,"N_COORD97":2544002.2599999998,"ADDRESS":"金華路三段２５２號七樓之８","OBJECTID":466466},"geometry":{"x":167360.17000000086,"y":2544002.2600000016}},{"attributes":{"ID":466492,"DIS_CODE":0,"TOWNNAME":"中西區","LI":"安海里","LIN":"5鄰","STREET":"金華路","SECT":"三段","MAREA":" ","LANE":" ","ALLEY":" ","HOUSE_NO":"２５２號七樓之９","E_COORD97":167360.17000000001,"N_COORD97":2544002.2599999998,"ADDRESS":"金華路三段２５２號七樓之９","OBJECTID":466467},"geometry":{"x":167360.17000000086,"y":2544002.2600000016}},{"attributes":{"ID":466493,"DIS_CODE":0,"TOWNNAME":"中西區","LI":"安海里","LIN":"5鄰","STREET":"金華路","SECT":"三段","MAREA":" ","LANE":" ","ALLEY":" ","HOUSE_NO":"２５２號九樓之１","E_COORD97":167360.17000000001,"N_COORD97":2544002.2599999998,"ADDRESS":"金華路三段２５２號九樓之１","OBJECTID":466468},"geometry":{"x":167360.17000000086,"y":2544002.2600000016}},{"attributes":{"ID":466494,"DIS_CODE":0,"TOWNNAME":"中西區","LI":"安海里","LIN":"5鄰","STREET":"金華路","SECT":"三段","MAREA":" ","LANE":" ","ALLEY":" ","HOUSE_NO":"２５２號九樓之１０","E_COORD97":167360.17000000001,"N_COORD97":2544002.2599999998,"ADDRESS":"金華路三段２５２號九樓之１０","OBJECTID":466469},"geometry":{"x":167360.17000000086,"y":2544002.2600000016}},{"attributes":{"ID":466495,"DIS_CODE":0,"TOWNNAME":"中西區","LI":"安海里","LIN":"5鄰","STREET":"金華路","SECT":"三段","MAREA":" ","LANE":" ","ALLEY":" ","HOUSE_NO":"２５２號九樓之１１","E_COORD97":167360.17000000001,"N_COORD97":2544002.2599999998,"ADDRESS":"金華路三段２５２號九樓之１１","OBJECTID":466470},"geometry":{"x":167360.17000000086,"y":2544002.2600000016}},{"attributes":{"ID":466496,"DIS_CODE":0,"TOWNNAME":"中西區","LI":"安海里","LIN":"5鄰","STREET":"金華路","SECT":"三段","MAREA":" ","LANE":" ","ALLEY":" ","HOUSE_NO":"２５２號九樓之１２","E_COORD97":167360.17000000001,"N_COORD97":2544002.2599999998,"ADDRESS":"金華路三段２５２號九樓之１２","OBJECTID":466471},"geometry":{"x":167360.17000000086,"y":2544002.2600000016}},{"attributes":{"ID":466497,"DIS_CODE":0,"TOWNNAME":"中西區","LI":"安海里","LIN":"5鄰","STREET":"金華路","SECT":"三段","MAREA":" ","LANE":" ","ALLEY":" ","HOUSE_NO":"２５２號九樓之１３","E_COORD97":167360.17000000001,"N_COORD97":2544002.2599999998,"ADDRESS":"金華路三段２５２號九樓之１３","OBJECTID":466472},"geometry":{"x":167360.17000000086,"y":2544002.2600000016}},{"attributes":{"ID":466498,"DIS_CODE":0,"TOWNNAME":"中西區","LI":"安海里","LIN":"5鄰","STREET":"金華路","SECT":"三段","MAREA":" ","LANE":" ","ALLEY":" ","HOUSE_NO":"２５２號九樓之２","E_COORD97":167360.17000000001,"N_COORD97":2544002.2599999998,"ADDRESS":"金華路三段２５２號九樓之２","OBJECTID":466473},"geometry":{"x":167360.17000000086,"y":2544002.2600000016}},{"attributes":{"ID":466499,"DIS_CODE":0,"TOWNNAME":"中西區","LI":"安海里","LIN":"5鄰","STREET":"金華路","SECT":"三段","MAREA":" ","LANE":" ","ALLEY":" ","HOUSE_NO":"２５２號九樓之３","E_COORD97":167360.17000000001,"N_COORD97":2544002.2599999998,"ADDRESS":"金華路三段２５２號九樓之３","OBJECTID":466474},"geometry":{"x":167360.17000000086,"y":2544002.2600000016}},{"attributes":{"ID":466500,"DIS_CODE":0,"TOWNNAME":"中西區","LI":"安海里","LIN":"5鄰","STREET":"金華路","SECT":"三段","MAREA":" ","LANE":" ","ALLEY":" ","HOUSE_NO":"２５２號九樓之５","E_COORD97":167360.17000000001,"N_COORD97":2544002.2599999998,"ADDRESS":"金華路三段２５２號九樓之５","OBJECTID":466475},"geometry":{"x":167360.17000000086,"y":2544002.2600000016}},{"attributes":{"ID":466501,"DIS_CODE":0,"TOWNNAME":"中西區","LI":"安海里","LIN":"5鄰","STREET":"金華路","SECT":"三段","MAREA":" ","LANE":" ","ALLEY":" ","HOUSE_NO":"２５２號九樓之６","E_COORD97":167360.17000000001,"N_COORD97":2544002.2599999998,"ADDRESS":"金華路三段２５２號九樓之６","OBJECTID":466476},"geometry":{"x":167360.17000000086,"y":2544002.2600000016}},{"attributes":{"ID":466502,"DIS_CODE":0,"TOWNNAME":"中西區","LI":"安海里","LIN":"5鄰","STREET":"金華路","SECT":"三段","MAREA":" ","LANE":" ","ALLEY":" ","HOUSE_NO":"２５２號九樓之７","E_COORD97":167360.17000000001,"N_COORD97":2544002.2599999998,"ADDRESS":"金華路三段２５２號九樓之７","OBJECTID":466477},"geometry":{"x":167360.17000000086,"y":2544002.2600000016}},{"attributes":{"ID":466503,"DIS_CODE":0,"TOWNNAME":"中西區","LI":"安海里","LIN":"5鄰","STREET":"金華路","SECT":"三段","MAREA":" ","LANE":" ","ALLEY":" ","HOUSE_NO":"２５２號九樓之８","E_COORD97":167360.17000000001,"N_COORD97":2544002.2599999998,"ADDRESS":"金華路三段２５２號九樓之８","OBJECTID":466478},"geometry":{"x":167360.17000000086,"y":2544002.2600000016}},{"attributes":{"ID":466504,"DIS_CODE":0,"TOWNNAME":"中西區","LI":"安海里","LIN":"5鄰","STREET":"金華路","SECT":"三段","MAREA":" ","LANE":" ","ALLEY":" ","HOUSE_NO":"２５２號九樓之９","E_COORD97":167360.17000000001,"N_COORD97":2544002.2599999998,"ADDRESS":"金華路三段２５２號九樓之９","OBJECTID":466479},"geometry":{"x":167360.17000000086,"y":2544002.2600000016}},{"attributes":{"ID":466505,"DIS_CODE":0,"TOWNNAME":"中西區","LI":"安海里","LIN":"5鄰","STREET":"金華路","SECT":"三段","MAREA":" ","LANE":" ","ALLEY":" ","HOUSE_NO":"２５２號二十一樓之１","E_COORD97":167360.17000000001,"N_COORD97":2544002.2599999998,"ADDRESS":"金華路三段２５２號二十一樓之１","OBJECTID":466480},"geometry":{"x":167360.17000000086,"y":2544002.2600000016}},{"attributes":{"ID":466506,"DIS_CODE":0,"TOWNNAME":"中西區","LI":"安海里","LIN":"5鄰","STREET":"金華路","SECT":"三段","MAREA":" ","LANE":" ","ALLEY":" ","HOUSE_NO":"２５２號二十一樓之２","E_COORD97":167360.17000000001,"N_COORD97":2544002.2599999998,"ADDRESS":"金華路三段２５２號二十一樓之２","OBJECTID":466481},"geometry":{"x":167360.17000000086,"y":2544002.2600000016}},{"attributes":{"ID":466507,"DIS_CODE":0,"TOWNNAME":"中西區","LI":"安海里","LIN":"5鄰","STREET":"金華路","SECT":"三段","MAREA":" ","LANE":" ","ALLEY":" ","HOUSE_NO":"２５２號二十一樓之３","E_COORD97":167360.17000000001,"N_COORD97":2544002.2599999998,"ADDRESS":"金華路三段２５２號二十一樓之３","OBJECTID":466482},"geometry":{"x":167360.17000000086,"y":2544002.2600000016}},{"attributes":{"ID":466508,"DIS_CODE":0,"TOWNNAME":"中西區","LI":"安海里","LIN":"5鄰","STREET":"金華路","SECT":"三段","MAREA":" ","LANE":" ","ALLEY":" ","HOUSE_NO":"２５２號二十一樓之５","E_COORD97":167360.17000000001,"N_COORD97":2544002.2599999998,"ADDRESS":"金華路三段２５２號二十一樓之５","OBJECTID":466483},"geometry":{"x":167360.17000000086,"y":2544002.2600000016}},{"attributes":{"ID":466509,"DIS_CODE":0,"TOWNNAME":"中西區","LI":"安海里","LIN":"5鄰","STREET":"金華路","SECT":"三段","MAREA":" ","LANE":" ","ALLEY":" ","HOUSE_NO":"２５２號二十樓之１","E_COORD97":167360.17000000001,"N_COORD97":2544002.2599999998,"ADDRESS":"金華路三段２５２號二十樓之１","OBJECTID":466484},"geometry":{"x":167360.17000000086,"y":2544002.2600000016}},{"attributes":{"ID":466510,"DIS_CODE":0,"TOWNNAME":"中西區","LI":"安海里","LIN":"5鄰","STREET":"金華路","SECT":"三段","MAREA":" ","LANE":" ","ALLEY":" ","HOUSE_NO":"２５２號二十樓之１０","E_COORD97":167360.17000000001,"N_COORD97":2544002.2599999998,"ADDRESS":"金華路三段２５２號二十樓之１０","OBJECTID":466485},"geometry":{"x":167360.17000000086,"y":2544002.2600000016}},{"attributes":{"ID":466511,"DIS_CODE":0,"TOWNNAME":"中西區","LI":"安海里","LIN":"5鄰","STREET":"金華路","SECT":"三段","MAREA":" ","LANE":" ","ALLEY":" ","HOUSE_NO":"２５２號二十樓之１１","E_COORD97":167360.17000000001,"N_COORD97":2544002.2599999998,"ADDRESS":"金華路三段２５２號二十樓之１１","OBJECTID":466486},"geometry":{"x":167360.17000000086,"y":2544002.2600000016}},{"attributes":{"ID":466512,"DIS_CODE":0,"TOWNNAME":"中西區","LI":"安海里","LIN":"5鄰","STREET":"金華路","SECT":"三段","MAREA":" ","LANE":" ","ALLEY":" ","HOUSE_NO":"２５２號二十樓之１２","E_COORD97":167360.17000000001,"N_COORD97":2544002.2599999998,"ADDRESS":"金華路三段２５２號二十樓之１２","OBJECTID":466487},"geometry":{"x":167360.17000000086,"y":2544002.2600000016}},{"attributes":{"ID":466513,"DIS_CODE":0,"TOWNNAME":"中西區","LI":"安海里","LIN":"5鄰","STREET":"金華路","SECT":"三段","MAREA":" ","LANE":" ","ALLEY":" ","HOUSE_NO":"２５２號二十樓之２","E_COORD97":167360.17000000001,"N_COORD97":2544002.2599999998,"ADDRESS":"金華路三段２５２號二十樓之２","OBJECTID":466488},"geometry":{"x":167360.17000000086,"y":2544002.2600000016}},{"attributes":{"ID":466514,"DIS_CODE":0,"TOWNNAME":"中西區","LI":"安海里","LIN":"5鄰","STREET":"金華路","SECT":"三段","MAREA":" ","LANE":" ","ALLEY":" ","HOUSE_NO":"２５２號二十樓之３","E_COORD97":167360.17000000001,"N_COORD97":2544002.2599999998,"ADDRESS":"金華路三段２５２號二十樓之３","OBJECTID":466489},"geometry":{"x":167360.17000000086,"y":2544002.2600000016}},{"attributes":{"ID":466515,"DIS_CODE":0,"TOWNNAME":"中西區","LI":"安海里","LIN":"5鄰","STREET":"金華路","SECT":"三段","MAREA":" ","LANE":" ","ALLEY":" ","HOUSE_NO":"２５２號二十樓之５","E_COORD97":167360.17000000001,"N_COORD97":2544002.2599999998,"ADDRESS":"金華路三段２５２號二十樓之５","OBJECTID":466490},"geometry":{"x":167360.17000000086,"y":2544002.2600000016}},{"attributes":{"ID":466516,"DIS_CODE":0,"TOWNNAME":"中西區","LI":"安海里","LIN":"5鄰","STREET":"金華路","SECT":"三段","MAREA":" ","LANE":" ","ALLEY":" ","HOUSE_NO":"２５２號二十樓之６","E_COORD97":167360.17000000001,"N_COORD97":2544002.2599999998,"ADDRESS":"金華路三段２５２號二十樓之６","OBJECTID":466491},"geometry":{"x":167360.17000000086,"y":2544002.2600000016}},{"attributes":{"ID":466517,"DIS_CODE":0,"TOWNNAME":"中西區","LI":"安海里","LIN":"5鄰","STREET":"金華路","SECT":"三段","MAREA":" ","LANE":" ","ALLEY":" ","HOUSE_NO":"２５２號二十樓之７","E_COORD97":167360.17000000001,"N_COORD97":2544002.2599999998,"ADDRESS":"金華路三段２５２號二十樓之７","OBJECTID":466492},"geometry":{"x":167360.17000000086,"y":2544002.2600000016}},{"attributes":{"ID":466518,"DIS_CODE":0,"TOWNNAME":"安南區","LI":"州北里","LIN":"8鄰","STREET":"長和街","SECT":"三段","MAREA":" ","LANE":" ","ALLEY":" ","HOUSE_NO":"１００號","E_COORD97":169636.09,"N_COORD97":2551558.7200000002,"ADDRESS":"長和街三段１００號","OBJECTID":466493},"geometry":{"x":169636.08999999985,"y":2551558.7200000007}},{"attributes":{"ID":466519,"DIS_CODE":0,"TOWNNAME":"中西區","LI":"安海里","LIN":"5鄰","STREET":"金華路","SECT":"三段","MAREA":" ","LANE":" ","ALLEY":" ","HOUSE_NO":"２５２號二十樓之８","E_COORD97":167360.17000000001,"N_COORD97":2544002.2599999998,"ADDRESS":"金華路三段２５２號二十樓之８","OBJECTID":466494},"geometry":{"x":167360.17000000086,"y":2544002.2600000016}},{"attributes":{"ID":466520,"DIS_CODE":0,"TOWNNAME":"中西區","LI":"安海里","LIN":"5鄰","STREET":"金華路","SECT":"三段","MAREA":" ","LANE":" ","ALLEY":" ","HOUSE_NO":"２５２號二十樓之９","E_COORD97":167360.17000000001,"N_COORD97":2544002.2599999998,"ADDRESS":"金華路三段２５２號二十樓之９","OBJECTID":466495},"geometry":{"x":167360.17000000086,"y":2544002.2600000016}},{"attributes":{"ID":466521,"DIS_CODE":0,"TOWNNAME":"中西區","LI":"安海里","LIN":"5鄰","STREET":"金華路","SECT":"三段","MAREA":" ","LANE":" ","ALLEY":" ","HOUSE_NO":"２５２號二樓","E_COORD97":167360.17000000001,"N_COORD97":2544002.2599999998,"ADDRESS":"金華路三段２５２號二樓","OBJECTID":466496},"geometry":{"x":167360.17000000086,"y":2544002.2600000016}},{"attributes":{"ID":466522,"DIS_CODE":0,"TOWNNAME":"中西區","LI":"安海里","LIN":"5鄰","STREET":"金華路","SECT":"三段","MAREA":" ","LANE":" ","ALLEY":" ","HOUSE_NO":"２５２號八樓之１","E_COORD97":167360.17000000001,"N_COORD97":2544002.2599999998,"ADDRESS":"金華路三段２５２號八樓之１","OBJECTID":466497},"geometry":{"x":167360.17000000086,"y":2544002.2600000016}},{"attributes":{"ID":466523,"DIS_CODE":0,"TOWNNAME":"中西區","LI":"安海里","LIN":"5鄰","STREET":"金華路","SECT":"三段","MAREA":" ","LANE":" ","ALLEY":" ","HOUSE_NO":"２５２號八樓之１０","E_COORD97":167360.17000000001,"N_COORD97":2544002.2599999998,"ADDRESS":"金華路三段２５２號八樓之１０","OBJECTID":466498},"geometry":{"x":167360.17000000086,"y":2544002.2600000016}},{"attributes":{"ID":466524,"DIS_CODE":0,"TOWNNAME":"中西區","LI":"安海里","LIN":"5鄰","STREET":"金華路","SECT":"三段","MAREA":" ","LANE":" ","ALLEY":" ","HOUSE_NO":"２５２號八樓之１１","E_COORD97":167360.17000000001,"N_COORD97":2544002.2599999998,"ADDRESS":"金華路三段２５２號八樓之１１","OBJECTID":466499},"geometry":{"x":167360.17000000086,"y":2544002.2600000016}},{"attributes":{"ID":466525,"DIS_CODE":0,"TOWNNAME":"中西區","LI":"安海里","LIN":"5鄰","STREET":"金華路","SECT":"三段","MAREA":" ","LANE":" ","ALLEY":" ","HOUSE_NO":"２５２號八樓之１２","E_COORD97":167360.17000000001,"N_COORD97":2544002.2599999998,"ADDRESS":"金華路三段２５２號八樓之１２","OBJECTID":466500},"geometry":{"x":167360.17000000086,"y":2544002.2600000016}},{"attributes":{"ID":466526,"DIS_CODE":0,"TOWNNAME":"中西區","LI":"安海里","LIN":"5鄰","STREET":"金華路","SECT":"三段","MAREA":" ","LANE":" ","ALLEY":" ","HOUSE_NO":"２５２號八樓之２","E_COORD97":167360.17000000001,"N_COORD97":2544002.2599999998,"ADDRESS":"金華路三段２５２號八樓之２","OBJECTID":466501},"geometry":{"x":167360.17000000086,"y":2544002.2600000016}},{"attributes":{"ID":466527,"DIS_CODE":0,"TOWNNAME":"中西區","LI":"安海里","LIN":"5鄰","STREET":"金華路","SECT":"三段","MAREA":" ","LANE":" ","ALLEY":" ","HOUSE_NO":"２５２號八樓之３","E_COORD97":167360.17000000001,"N_COORD97":2544002.2599999998,"ADDRESS":"金華路三段２５２號八樓之３","OBJECTID":466502},"geometry":{"x":167360.17000000086,"y":2544002.2600000016}},{"attributes":{"ID":466528,"DIS_CODE":0,"TOWNNAME":"中西區","LI":"安海里","LIN":"5鄰","STREET":"金華路","SECT":"三段","MAREA":" ","LANE":" ","ALLEY":" ","HOUSE_NO":"２５２號八樓之５","E_COORD97":167360.17000000001,"N_COORD97":2544002.2599999998,"ADDRESS":"金華路三段２５２號八樓之５","OBJECTID":466503},"geometry":{"x":167360.17000000086,"y":2544002.2600000016}},{"attributes":{"ID":466529,"DIS_CODE":0,"TOWNNAME":"中西區","LI":"安海里","LIN":"5鄰","STREET":"金華路","SECT":"三段","MAREA":" ","LANE":" ","ALLEY":" ","HOUSE_NO":"２５２號八樓之６","E_COORD97":167360.17000000001,"N_COORD97":2544002.2599999998,"ADDRESS":"金華路三段２５２號八樓之６","OBJECTID":466504},"geometry":{"x":167360.17000000086,"y":2544002.2600000016}},{"attributes":{"ID":466530,"DIS_CODE":0,"TOWNNAME":"中西區","LI":"安海里","LIN":"5鄰","STREET":"金華路","SECT":"三段","MAREA":" ","LANE":" ","ALLEY":" ","HOUSE_NO":"２５２號八樓之７","E_COORD97":167360.17000000001,"N_COORD97":2544002.2599999998,"ADDRESS":"金華路三段２５２號八樓之７","OBJECTID":466505},"geometry":{"x":167360.17000000086,"y":2544002.2600000016}},{"attributes":{"ID":466531,"DIS_CODE":0,"TOWNNAME":"中西區","LI":"安海里","LIN":"5鄰","STREET":"金華路","SECT":"三段","MAREA":" ","LANE":" ","ALLEY":" ","HOUSE_NO":"２５２號八樓之８","E_COORD97":167360.17000000001,"N_COORD97":2544002.2599999998,"ADDRESS":"金華路三段２５２號八樓之８","OBJECTID":466506},"geometry":{"x":167360.17000000086,"y":2544002.2600000016}},{"attributes":{"ID":466532,"DIS_CODE":0,"TOWNNAME":"中西區","LI":"安海里","LIN":"5鄰","STREET":"金華路","SECT":"三段","MAREA":" ","LANE":" ","ALLEY":" ","HOUSE_NO":"２５２號八樓之９","E_COORD97":167360.17000000001,"N_COORD97":2544002.2599999998,"ADDRESS":"金華路三段２５２號八樓之９","OBJECTID":466507},"geometry":{"x":167360.17000000086,"y":2544002.2600000016}},{"attributes":{"ID":466533,"DIS_CODE":0,"TOWNNAME":"中西區","LI":"安海里","LIN":"5鄰","STREET":"金華路","SECT":"三段","MAREA":" ","LANE":" ","ALLEY":" ","HOUSE_NO":"２５２號十一樓之１","E_COORD97":167360.17000000001,"N_COORD97":2544002.2599999998,"ADDRESS":"金華路三段２５２號十一樓之１","OBJECTID":466508},"geometry":{"x":167360.17000000086,"y":2544002.2600000016}},{"attributes":{"ID":466534,"DIS_CODE":0,"TOWNNAME":"中西區","LI":"安海里","LIN":"5鄰","STREET":"金華路","SECT":"三段","MAREA":" ","LANE":" ","ALLEY":" ","HOUSE_NO":"２５２號十一樓之１０","E_COORD97":167360.17000000001,"N_COORD97":2544002.2599999998,"ADDRESS":"金華路三段２５２號十一樓之１０","OBJECTID":466509},"geometry":{"x":167360.17000000086,"y":2544002.2600000016}},{"attributes":{"ID":466535,"DIS_CODE":0,"TOWNNAME":"中西區","LI":"安海里","LIN":"5鄰","STREET":"金華路","SECT":"三段","MAREA":" ","LANE":" ","ALLEY":" ","HOUSE_NO":"２５２號十一樓之１１","E_COORD97":167360.17000000001,"N_COORD97":2544002.2599999998,"ADDRESS":"金華路三段２５２號十一樓之１１","OBJECTID":466510},"geometry":{"x":167360.17000000086,"y":2544002.2600000016}},{"attributes":{"ID":466536,"DIS_CODE":0,"TOWNNAME":"中西區","LI":"安海里","LIN":"5鄰","STREET":"金華路","SECT":"三段","MAREA":" ","LANE":" ","ALLEY":" ","HOUSE_NO":"２５２號十一樓之１２","E_COORD97":167360.17000000001,"N_COORD97":2544002.2599999998,"ADDRESS":"金華路三段２５２號十一樓之１２","OBJECTID":466511},"geometry":{"x":167360.17000000086,"y":2544002.2600000016}},{"attributes":{"ID":466537,"DIS_CODE":0,"TOWNNAME":"中西區","LI":"安海里","LIN":"5鄰","STREET":"金華路","SECT":"三段","MAREA":" ","LANE":" ","ALLEY":" ","HOUSE_NO":"２５２號十一樓之１３","E_COORD97":167360.17000000001,"N_COORD97":2544002.2599999998,"ADDRESS":"金華路三段２５２號十一樓之１３","OBJECTID":466512},"geometry":{"x":167360.17000000086,"y":2544002.2600000016}},{"attributes":{"ID":466538,"DIS_CODE":0,"TOWNNAME":"中西區","LI":"安海里","LIN":"5鄰","STREET":"金華路","SECT":"三段","MAREA":" ","LANE":" ","ALLEY":" ","HOUSE_NO":"２５２號十一樓之２","E_COORD97":167360.17000000001,"N_COORD97":2544002.2599999998,"ADDRESS":"金華路三段２５２號十一樓之２","OBJECTID":466513},"geometry":{"x":167360.17000000086,"y":2544002.2600000016}},{"attributes":{"ID":466539,"DIS_CODE":0,"TOWNNAME":"中西區","LI":"安海里","LIN":"5鄰","STREET":"金華路","SECT":"三段","MAREA":" ","LANE":" ","ALLEY":" ","HOUSE_NO":"２５２號十一樓之３","E_COORD97":167360.17000000001,"N_COORD97":2544002.2599999998,"ADDRESS":"金華路三段２５２號十一樓之３","OBJECTID":466514},"geometry":{"x":167360.17000000086,"y":2544002.2600000016}},{"attributes":{"ID":466540,"DIS_CODE":0,"TOWNNAME":"中西區","LI":"安海里","LIN":"5鄰","STREET":"金華路","SECT":"三段","MAREA":" ","LANE":" ","ALLEY":" ","HOUSE_NO":"２５２號十一樓之５","E_COORD97":167360.17000000001,"N_COORD97":2544002.2599999998,"ADDRESS":"金華路三段２５２號十一樓之５","OBJECTID":466515},"geometry":{"x":167360.17000000086,"y":2544002.2600000016}},{"attributes":{"ID":466541,"DIS_CODE":0,"TOWNNAME":"中西區","LI":"安海里","LIN":"5鄰","STREET":"金華路","SECT":"三段","MAREA":" ","LANE":" ","ALLEY":" ","HOUSE_NO":"２５２號十一樓之６","E_COORD97":167360.17000000001,"N_COORD97":2544002.2599999998,"ADDRESS":"金華路三段２５２號十一樓之６","OBJECTID":466516},"geometry":{"x":167360.17000000086,"y":2544002.2600000016}},{"attributes":{"ID":466542,"DIS_CODE":0,"TOWNNAME":"中西區","LI":"安海里","LIN":"5鄰","STREET":"金華路","SECT":"三段","MAREA":" ","LANE":" ","ALLEY":" ","HOUSE_NO":"２５２號十一樓之７","E_COORD97":167360.17000000001,"N_COORD97":2544002.2599999998,"ADDRESS":"金華路三段２５２號十一樓之７","OBJECTID":466517},"geometry":{"x":167360.17000000086,"y":2544002.2600000016}},{"attributes":{"ID":466543,"DIS_CODE":0,"TOWNNAME":"中西區","LI":"安海里","LIN":"5鄰","STREET":"金華路","SECT":"三段","MAREA":" ","LANE":" ","ALLEY":" ","HOUSE_NO":"２５２號十一樓之８","E_COORD97":167360.17000000001,"N_COORD97":2544002.2599999998,"ADDRESS":"金華路三段２５２號十一樓之８","OBJECTID":466518},"geometry":{"x":167360.17000000086,"y":2544002.2600000016}},{"attributes":{"ID":466544,"DIS_CODE":0,"TOWNNAME":"中西區","LI":"安海里","LIN":"5鄰","STREET":"金華路","SECT":"三段","MAREA":" ","LANE":" ","ALLEY":" ","HOUSE_NO":"２５２號十一樓之９","E_COORD97":167360.17000000001,"N_COORD97":2544002.2599999998,"ADDRESS":"金華路三段２５２號十一樓之９","OBJECTID":466519},"geometry":{"x":167360.17000000086,"y":2544002.2600000016}},{"attributes":{"ID":466545,"DIS_CODE":0,"TOWNNAME":"中西區","LI":"安海里","LIN":"5鄰","STREET":"金華路","SECT":"三段","MAREA":" ","LANE":" ","ALLEY":" ","HOUSE_NO":"２５２號十七樓之１","E_COORD97":167360.17000000001,"N_COORD97":2544002.2599999998,"ADDRESS":"金華路三段２５２號十七樓之１","OBJECTID":466520},"geometry":{"x":167360.17000000086,"y":2544002.2600000016}},{"attributes":{"ID":466546,"DIS_CODE":0,"TOWNNAME":"中西區","LI":"安海里","LIN":"5鄰","STREET":"金華路","SECT":"三段","MAREA":" ","LANE":" ","ALLEY":" ","HOUSE_NO":"２５２號十七樓之１０","E_COORD97":167360.17000000001,"N_COORD97":2544002.2599999998,"ADDRESS":"金華路三段２５２號十七樓之１０","OBJECTID":466521},"geometry":{"x":167360.17000000086,"y":2544002.2600000016}},{"attributes":{"ID":466547,"DIS_CODE":0,"TOWNNAME":"中西區","LI":"安海里","LIN":"5鄰","STREET":"金華路","SECT":"三段","MAREA":" ","LANE":" ","ALLEY":" ","HOUSE_NO":"２５２號十七樓之１１","E_COORD97":167360.17000000001,"N_COORD97":2544002.2599999998,"ADDRESS":"金華路三段２５２號十七樓之１１","OBJECTID":466522},"geometry":{"x":167360.17000000086,"y":2544002.2600000016}},{"attributes":{"ID":466548,"DIS_CODE":0,"TOWNNAME":"中西區","LI":"安海里","LIN":"5鄰","STREET":"金華路","SECT":"三段","MAREA":" ","LANE":" ","ALLEY":" ","HOUSE_NO":"２５２號十七樓之２","E_COORD97":167360.17000000001,"N_COORD97":2544002.2599999998,"ADDRESS":"金華路三段２５２號十七樓之２","OBJECTID":466523},"geometry":{"x":167360.17000000086,"y":2544002.2600000016}},{"attributes":{"ID":466549,"DIS_CODE":0,"TOWNNAME":"東區","LI":"忠孝里","LIN":"5鄰","STREET":"崇明七街","SECT":" ","MAREA":" ","LANE":" ","ALLEY":" ","HOUSE_NO":"７號三樓","E_COORD97":169628.64000000001,"N_COORD97":2542143.2400000002,"ADDRESS":"崇明七街７號三樓","OBJECTID":466524},"geometry":{"x":169628.63999999966,"y":2542143.2400000002}},{"attributes":{"ID":466550,"DIS_CODE":0,"TOWNNAME":"中西區","LI":"安海里","LIN":"5鄰","STREET":"金華路","SECT":"三段","MAREA":" ","LANE":" ","ALLEY":" ","HOUSE_NO":"２５２號十七樓之３","E_COORD97":167360.17000000001,"N_COORD97":2544002.2599999998,"ADDRESS":"金華路三段２５２號十七樓之３","OBJECTID":466525},"geometry":{"x":167360.17000000086,"y":2544002.2600000016}},{"attributes":{"ID":466551,"DIS_CODE":0,"TOWNNAME":"中西區","LI":"安海里","LIN":"5鄰","STREET":"金華路","SECT":"三段","MAREA":" ","LANE":" ","ALLEY":" ","HOUSE_NO":"２５２號十七樓之５","E_COORD97":167360.17000000001,"N_COORD97":2544002.2599999998,"ADDRESS":"金華路三段２５２號十七樓之５","OBJECTID":466526},"geometry":{"x":167360.17000000086,"y":2544002.2600000016}},{"attributes":{"ID":466552,"DIS_CODE":0,"TOWNNAME":"中西區","LI":"安海里","LIN":"5鄰","STREET":"金華路","SECT":"三段","MAREA":" ","LANE":" ","ALLEY":" ","HOUSE_NO":"２５２號十七樓之６","E_COORD97":167360.17000000001,"N_COORD97":2544002.2599999998,"ADDRESS":"金華路三段２５２號十七樓之６","OBJECTID":466527},"geometry":{"x":167360.17000000086,"y":2544002.2600000016}},{"attributes":{"ID":466553,"DIS_CODE":0,"TOWNNAME":"中西區","LI":"安海里","LIN":"5鄰","STREET":"金華路","SECT":"三段","MAREA":" ","LANE":" ","ALLEY":" ","HOUSE_NO":"２５２號十七樓之７","E_COORD97":167360.17000000001,"N_COORD97":2544002.2599999998,"ADDRESS":"金華路三段２５２號十七樓之７","OBJECTID":466528},"geometry":{"x":167360.17000000086,"y":2544002.2600000016}},{"attributes":{"ID":466554,"DIS_CODE":0,"TOWNNAME":"中西區","LI":"安海里","LIN":"5鄰","STREET":"金華路","SECT":"三段","MAREA":" ","LANE":" ","ALLEY":" ","HOUSE_NO":"２５２號十七樓之８","E_COORD97":167360.17000000001,"N_COORD97":2544002.2599999998,"ADDRESS":"金華路三段２５２號十七樓之８","OBJECTID":466529},"geometry":{"x":167360.17000000086,"y":2544002.2600000016}},{"attributes":{"ID":466555,"DIS_CODE":0,"TOWNNAME":"中西區","LI":"安海里","LIN":"5鄰","STREET":"金華路","SECT":"三段","MAREA":" ","LANE":" ","ALLEY":" ","HOUSE_NO":"２５２號十七樓之９","E_COORD97":167360.17000000001,"N_COORD97":2544002.2599999998,"ADDRESS":"金華路三段２５２號十七樓之９","OBJECTID":466530},"geometry":{"x":167360.17000000086,"y":2544002.2600000016}},{"attributes":{"ID":466556,"DIS_CODE":0,"TOWNNAME":"中西區","LI":"安海里","LIN":"5鄰","STREET":"金華路","SECT":"三段","MAREA":" ","LANE":" ","ALLEY":" ","HOUSE_NO":"２５２號十九樓之１","E_COORD97":167360.17000000001,"N_COORD97":2544002.2599999998,"ADDRESS":"金華路三段２５２號十九樓之１","OBJECTID":466531},"geometry":{"x":167360.17000000086,"y":2544002.2600000016}},{"attributes":{"ID":466557,"DIS_CODE":0,"TOWNNAME":"中西區","LI":"安海里","LIN":"5鄰","STREET":"金華路","SECT":"三段","MAREA":" ","LANE":" ","ALLEY":" ","HOUSE_NO":"２５２號十九樓之１０","E_COORD97":167360.17000000001,"N_COORD97":2544002.2599999998,"ADDRESS":"金華路三段２５２號十九樓之１０","OBJECTID":466532},"geometry":{"x":167360.17000000086,"y":2544002.2600000016}},{"attributes":{"ID":466558,"DIS_CODE":0,"TOWNNAME":"中西區","LI":"安海里","LIN":"5鄰","STREET":"金華路","SECT":"三段","MAREA":" ","LANE":" ","ALLEY":" ","HOUSE_NO":"２５２號十九樓之１１","E_COORD97":167360.17000000001,"N_COORD97":2544002.2599999998,"ADDRESS":"金華路三段２５２號十九樓之１１","OBJECTID":466533},"geometry":{"x":167360.17000000086,"y":2544002.2600000016}},{"attributes":{"ID":466559,"DIS_CODE":0,"TOWNNAME":"中西區","LI":"安海里","LIN":"5鄰","STREET":"金華路","SECT":"三段","MAREA":" ","LANE":" ","ALLEY":" ","HOUSE_NO":"２５２號十九樓之１２","E_COORD97":167360.17000000001,"N_COORD97":2544002.2599999998,"ADDRESS":"金華路三段２５２號十九樓之１２","OBJECTID":466534},"geometry":{"x":167360.17000000086,"y":2544002.2600000016}},{"attributes":{"ID":466560,"DIS_CODE":0,"TOWNNAME":"中西區","LI":"安海里","LIN":"5鄰","STREET":"金華路","SECT":"三段","MAREA":" ","LANE":" ","ALLEY":" ","HOUSE_NO":"２５２號十九樓之１３","E_COORD97":167360.17000000001,"N_COORD97":2544002.2599999998,"ADDRESS":"金華路三段２５２號十九樓之１３","OBJECTID":466535},"geometry":{"x":167360.17000000086,"y":2544002.2600000016}},{"attributes":{"ID":466561,"DIS_CODE":0,"TOWNNAME":"中西區","LI":"安海里","LIN":"5鄰","STREET":"金華路","SECT":"三段","MAREA":" ","LANE":" ","ALLEY":" ","HOUSE_NO":"２５２號十九樓之２","E_COORD97":167360.17000000001,"N_COORD97":2544002.2599999998,"ADDRESS":"金華路三段２５２號十九樓之２","OBJECTID":466536},"geometry":{"x":167360.17000000086,"y":2544002.2600000016}},{"attributes":{"ID":466562,"DIS_CODE":0,"TOWNNAME":"中西區","LI":"安海里","LIN":"5鄰","STREET":"金華路","SECT":"三段","MAREA":" ","LANE":" ","ALLEY":" ","HOUSE_NO":"２５２號十九樓之３","E_COORD97":167360.17000000001,"N_COORD97":2544002.2599999998,"ADDRESS":"金華路三段２５２號十九樓之３","OBJECTID":466537},"geometry":{"x":167360.17000000086,"y":2544002.2600000016}},{"attributes":{"ID":466563,"DIS_CODE":0,"TOWNNAME":"中西區","LI":"安海里","LIN":"5鄰","STREET":"金華路","SECT":"三段","MAREA":" ","LANE":" ","ALLEY":" ","HOUSE_NO":"２５２號十九樓之５","E_COORD97":167360.17000000001,"N_COORD97":2544002.2599999998,"ADDRESS":"金華路三段２５２號十九樓之５","OBJECTID":466538},"geometry":{"x":167360.17000000086,"y":2544002.2600000016}},{"attributes":{"ID":466564,"DIS_CODE":0,"TOWNNAME":"中西區","LI":"安海里","LIN":"5鄰","STREET":"金華路","SECT":"三段","MAREA":" ","LANE":" ","ALLEY":" ","HOUSE_NO":"２５２號十九樓之６","E_COORD97":167360.17000000001,"N_COORD97":2544002.2599999998,"ADDRESS":"金華路三段２５２號十九樓之６","OBJECTID":466539},"geometry":{"x":167360.17000000086,"y":2544002.2600000016}},{"attributes":{"ID":466565,"DIS_CODE":0,"TOWNNAME":"中西區","LI":"安海里","LIN":"5鄰","STREET":"金華路","SECT":"三段","MAREA":" ","LANE":" ","ALLEY":" ","HOUSE_NO":"２５２號十九樓之７","E_COORD97":167360.17000000001,"N_COORD97":2544002.2599999998,"ADDRESS":"金華路三段２５２號十九樓之７","OBJECTID":466540},"geometry":{"x":167360.17000000086,"y":2544002.2600000016}},{"attributes":{"ID":466566,"DIS_CODE":0,"TOWNNAME":"中西區","LI":"安海里","LIN":"5鄰","STREET":"金華路","SECT":"三段","MAREA":" ","LANE":" ","ALLEY":" ","HOUSE_NO":"２５２號十九樓之８","E_COORD97":167360.17000000001,"N_COORD97":2544002.2599999998,"ADDRESS":"金華路三段２５２號十九樓之８","OBJECTID":466541},"geometry":{"x":167360.17000000086,"y":2544002.2600000016}},{"attributes":{"ID":466567,"DIS_CODE":0,"TOWNNAME":"中西區","LI":"安海里","LIN":"5鄰","STREET":"金華路","SECT":"三段","MAREA":" ","LANE":" ","ALLEY":" ","HOUSE_NO":"２５２號十九樓之９","E_COORD97":167360.17000000001,"N_COORD97":2544002.2599999998,"ADDRESS":"金華路三段２５２號十九樓之９","OBJECTID":466542},"geometry":{"x":167360.17000000086,"y":2544002.2600000016}},{"attributes":{"ID":466568,"DIS_CODE":0,"TOWNNAME":"中西區","LI":"安海里","LIN":"5鄰","STREET":"金華路","SECT":"三段","MAREA":" ","LANE":" ","ALLEY":" ","HOUSE_NO":"２５２號十二樓之１","E_COORD97":167360.17000000001,"N_COORD97":2544002.2599999998,"ADDRESS":"金華路三段２５２號十二樓之１","OBJECTID":466543},"geometry":{"x":167360.17000000086,"y":2544002.2600000016}},{"attributes":{"ID":466569,"DIS_CODE":0,"TOWNNAME":"中西區","LI":"安海里","LIN":"5鄰","STREET":"金華路","SECT":"三段","MAREA":" ","LANE":" ","ALLEY":" ","HOUSE_NO":"２５２號十二樓之１０","E_COORD97":167360.17000000001,"N_COORD97":2544002.2599999998,"ADDRESS":"金華路三段２５２號十二樓之１０","OBJECTID":466544},"geometry":{"x":167360.17000000086,"y":2544002.2600000016}},{"attributes":{"ID":466570,"DIS_CODE":0,"TOWNNAME":"中西區","LI":"安海里","LIN":"5鄰","STREET":"金華路","SECT":"三段","MAREA":" ","LANE":" ","ALLEY":" ","HOUSE_NO":"２５２號十二樓之１１","E_COORD97":167360.17000000001,"N_COORD97":2544002.2599999998,"ADDRESS":"金華路三段２５２號十二樓之１１","OBJECTID":466545},"geometry":{"x":167360.17000000086,"y":2544002.2600000016}},{"attributes":{"ID":466571,"DIS_CODE":0,"TOWNNAME":"中西區","LI":"安海里","LIN":"5鄰","STREET":"金華路","SECT":"三段","MAREA":" ","LANE":" ","ALLEY":" ","HOUSE_NO":"２５２號十二樓之１２","E_COORD97":167360.17000000001,"N_COORD97":2544002.2599999998,"ADDRESS":"金華路三段２５２號十二樓之１２","OBJECTID":466546},"geometry":{"x":167360.17000000086,"y":2544002.2600000016}},{"attributes":{"ID":466572,"DIS_CODE":0,"TOWNNAME":"中西區","LI":"安海里","LIN":"5鄰","STREET":"金華路","SECT":"三段","MAREA":" ","LANE":" ","ALLEY":" ","HOUSE_NO":"２５２號十二樓之１３","E_COORD97":167360.17000000001,"N_COORD97":2544002.2599999998,"ADDRESS":"金華路三段２５２號十二樓之１３","OBJECTID":466547},"geometry":{"x":167360.17000000086,"y":2544002.2600000016}},{"attributes":{"ID":466573,"DIS_CODE":0,"TOWNNAME":"中西區","LI":"安海里","LIN":"5鄰","STREET":"金華路","SECT":"三段","MAREA":" ","LANE":" ","ALLEY":" ","HOUSE_NO":"２５２號十二樓之２","E_COORD97":167360.17000000001,"N_COORD97":2544002.2599999998,"ADDRESS":"金華路三段２５２號十二樓之２","OBJECTID":466548},"geometry":{"x":167360.17000000086,"y":2544002.2600000016}},{"attributes":{"ID":466574,"DIS_CODE":0,"TOWNNAME":"中西區","LI":"安海里","LIN":"5鄰","STREET":"金華路","SECT":"三段","MAREA":" ","LANE":" ","ALLEY":" ","HOUSE_NO":"２５２號十二樓之３","E_COORD97":167360.17000000001,"N_COORD97":2544002.2599999998,"ADDRESS":"金華路三段２５２號十二樓之３","OBJECTID":466549},"geometry":{"x":167360.17000000086,"y":2544002.2600000016}},{"attributes":{"ID":466575,"DIS_CODE":0,"TOWNNAME":"中西區","LI":"安海里","LIN":"5鄰","STREET":"金華路","SECT":"三段","MAREA":" ","LANE":" ","ALLEY":" ","HOUSE_NO":"２５２號十二樓之５","E_COORD97":167360.17000000001,"N_COORD97":2544002.2599999998,"ADDRESS":"金華路三段２５２號十二樓之５","OBJECTID":466550},"geometry":{"x":167360.17000000086,"y":2544002.2600000016}},{"attributes":{"ID":466576,"DIS_CODE":0,"TOWNNAME":"中西區","LI":"安海里","LIN":"5鄰","STREET":"金華路","SECT":"三段","MAREA":" ","LANE":" ","ALLEY":" ","HOUSE_NO":"２５２號十二樓之６","E_COORD97":167360.17000000001,"N_COORD97":2544002.2599999998,"ADDRESS":"金華路三段２５２號十二樓之６","OBJECTID":466551},"geometry":{"x":167360.17000000086,"y":2544002.2600000016}},{"attributes":{"ID":466577,"DIS_CODE":0,"TOWNNAME":"中西區","LI":"安海里","LIN":"5鄰","STREET":"金華路","SECT":"三段","MAREA":" ","LANE":" ","ALLEY":" ","HOUSE_NO":"２５２號十二樓之７","E_COORD97":167360.17000000001,"N_COORD97":2544002.2599999998,"ADDRESS":"金華路三段２５２號十二樓之７","OBJECTID":466552},"geometry":{"x":167360.17000000086,"y":2544002.2600000016}},{"attributes":{"ID":466578,"DIS_CODE":0,"TOWNNAME":"中西區","LI":"安海里","LIN":"5鄰","STREET":"金華路","SECT":"三段","MAREA":" ","LANE":" ","ALLEY":" ","HOUSE_NO":"２５２號十二樓之８","E_COORD97":167360.17000000001,"N_COORD97":2544002.2599999998,"ADDRESS":"金華路三段２５２號十二樓之８","OBJECTID":466553},"geometry":{"x":167360.17000000086,"y":2544002.2600000016}},{"attributes":{"ID":466579,"DIS_CODE":0,"TOWNNAME":"中西區","LI":"安海里","LIN":"5鄰","STREET":"金華路","SECT":"三段","MAREA":" ","LANE":" ","ALLEY":" ","HOUSE_NO":"２５２號十二樓之９","E_COORD97":167360.17000000001,"N_COORD97":2544002.2599999998,"ADDRESS":"金華路三段２５２號十二樓之９","OBJECTID":466554},"geometry":{"x":167360.17000000086,"y":2544002.2600000016}},{"attributes":{"ID":466580,"DIS_CODE":0,"TOWNNAME":"中西區","LI":"安海里","LIN":"5鄰","STREET":"金華路","SECT":"三段","MAREA":" ","LANE":" ","ALLEY":" ","HOUSE_NO":"２５２號十八樓之１","E_COORD97":167360.17000000001,"N_COORD97":2544002.2599999998,"ADDRESS":"金華路三段２５２號十八樓之１","OBJECTID":466555},"geometry":{"x":167360.17000000086,"y":2544002.2600000016}},{"attributes":{"ID":466581,"DIS_CODE":0,"TOWNNAME":"中西區","LI":"安海里","LIN":"5鄰","STREET":"金華路","SECT":"三段","MAREA":" ","LANE":" ","ALLEY":" ","HOUSE_NO":"２５２號十八樓之１０","E_COORD97":167360.17000000001,"N_COORD97":2544002.2599999998,"ADDRESS":"金華路三段２５２號十八樓之１０","OBJECTID":466556},"geometry":{"x":167360.17000000086,"y":2544002.2600000016}},{"attributes":{"ID":466582,"DIS_CODE":0,"TOWNNAME":"中西區","LI":"安海里","LIN":"5鄰","STREET":"金華路","SECT":"三段","MAREA":" ","LANE":" ","ALLEY":" ","HOUSE_NO":"２５２號十八樓之１１","E_COORD97":167360.17000000001,"N_COORD97":2544002.2599999998,"ADDRESS":"金華路三段２５２號十八樓之１１","OBJECTID":466557},"geometry":{"x":167360.17000000086,"y":2544002.2600000016}},{"attributes":{"ID":466583,"DIS_CODE":0,"TOWNNAME":"中西區","LI":"安海里","LIN":"5鄰","STREET":"金華路","SECT":"三段","MAREA":" ","LANE":" ","ALLEY":" ","HOUSE_NO":"２５２號十八樓之１２","E_COORD97":167360.17000000001,"N_COORD97":2544002.2599999998,"ADDRESS":"金華路三段２５２號十八樓之１２","OBJECTID":466558},"geometry":{"x":167360.17000000086,"y":2544002.2600000016}},{"attributes":{"ID":466584,"DIS_CODE":0,"TOWNNAME":"中西區","LI":"安海里","LIN":"5鄰","STREET":"金華路","SECT":"三段","MAREA":" ","LANE":" ","ALLEY":" ","HOUSE_NO":"２５２號十八樓之２","E_COORD97":167360.17000000001,"N_COORD97":2544002.2599999998,"ADDRESS":"金華路三段２５２號十八樓之２","OBJECTID":466559},"geometry":{"x":167360.17000000086,"y":2544002.2600000016}},{"attributes":{"ID":466585,"DIS_CODE":0,"TOWNNAME":"中西區","LI":"安海里","LIN":"5鄰","STREET":"金華路","SECT":"三段","MAREA":" ","LANE":" ","ALLEY":" ","HOUSE_NO":"２５２號十八樓之３","E_COORD97":167360.17000000001,"N_COORD97":2544002.2599999998,"ADDRESS":"金華路三段２５２號十八樓之３","OBJECTID":466560},"geometry":{"x":167360.17000000086,"y":2544002.2600000016}},{"attributes":{"ID":466586,"DIS_CODE":0,"TOWNNAME":"中西區","LI":"安海里","LIN":"5鄰","STREET":"金華路","SECT":"三段","MAREA":" ","LANE":" ","ALLEY":" ","HOUSE_NO":"２５２號十八樓之５","E_COORD97":167360.17000000001,"N_COORD97":2544002.2599999998,"ADDRESS":"金華路三段２５２號十八樓之５","OBJECTID":466561},"geometry":{"x":167360.17000000086,"y":2544002.2600000016}},{"attributes":{"ID":466587,"DIS_CODE":0,"TOWNNAME":"中西區","LI":"安海里","LIN":"5鄰","STREET":"金華路","SECT":"三段","MAREA":" ","LANE":" ","ALLEY":" ","HOUSE_NO":"２５２號十八樓之６","E_COORD97":167360.17000000001,"N_COORD97":2544002.2599999998,"ADDRESS":"金華路三段２５２號十八樓之６","OBJECTID":466562},"geometry":{"x":167360.17000000086,"y":2544002.2600000016}},{"attributes":{"ID":466588,"DIS_CODE":0,"TOWNNAME":"中西區","LI":"安海里","LIN":"5鄰","STREET":"金華路","SECT":"三段","MAREA":" ","LANE":" ","ALLEY":" ","HOUSE_NO":"２５２號十八樓之７","E_COORD97":167360.17000000001,"N_COORD97":2544002.2599999998,"ADDRESS":"金華路三段２５２號十八樓之７","OBJECTID":466563},"geometry":{"x":167360.17000000086,"y":2544002.2600000016}},{"attributes":{"ID":466589,"DIS_CODE":0,"TOWNNAME":"中西區","LI":"安海里","LIN":"5鄰","STREET":"金華路","SECT":"三段","MAREA":" ","LANE":" ","ALLEY":" ","HOUSE_NO":"２５２號十八樓之８","E_COORD97":167360.17000000001,"N_COORD97":2544002.2599999998,"ADDRESS":"金華路三段２５２號十八樓之８","OBJECTID":466564},"geometry":{"x":167360.17000000086,"y":2544002.2600000016}},{"attributes":{"ID":466590,"DIS_CODE":0,"TOWNNAME":"中西區","LI":"安海里","LIN":"5鄰","STREET":"金華路","SECT":"三段","MAREA":" ","LANE":" ","ALLEY":" ","HOUSE_NO":"２５２號十八樓之９","E_COORD97":167360.17000000001,"N_COORD97":2544002.2599999998,"ADDRESS":"金華路三段２５２號十八樓之９","OBJECTID":466565},"geometry":{"x":167360.17000000086,"y":2544002.2600000016}},{"attributes":{"ID":466591,"DIS_CODE":0,"TOWNNAME":"中西區","LI":"安海里","LIN":"5鄰","STREET":"金華路","SECT":"三段","MAREA":" ","LANE":" ","ALLEY":" ","HOUSE_NO":"２５２號十三樓之１","E_COORD97":167360.17000000001,"N_COORD97":2544002.2599999998,"ADDRESS":"金華路三段２５２號十三樓之１","OBJECTID":466566},"geometry":{"x":167360.17000000086,"y":2544002.2600000016}},{"attributes":{"ID":466592,"DIS_CODE":0,"TOWNNAME":"中西區","LI":"安海里","LIN":"5鄰","STREET":"金華路","SECT":"三段","MAREA":" ","LANE":" ","ALLEY":" ","HOUSE_NO":"２５２號十三樓之１０","E_COORD97":167360.17000000001,"N_COORD97":2544002.2599999998,"ADDRESS":"金華路三段２５２號十三樓之１０","OBJECTID":466567},"geometry":{"x":167360.17000000086,"y":2544002.2600000016}},{"attributes":{"ID":466593,"DIS_CODE":0,"TOWNNAME":"中西區","LI":"安海里","LIN":"5鄰","STREET":"金華路","SECT":"三段","MAREA":" ","LANE":" ","ALLEY":" ","HOUSE_NO":"２５２號十三樓之１１","E_COORD97":167360.17000000001,"N_COORD97":2544002.2599999998,"ADDRESS":"金華路三段２５２號十三樓之１１","OBJECTID":466568},"geometry":{"x":167360.17000000086,"y":2544002.2600000016}},{"attributes":{"ID":466594,"DIS_CODE":0,"TOWNNAME":"南區","LI":"府南里","LIN":"13鄰","STREET":"永成路","SECT":"三段","MAREA":" ","LANE":"３７２巷","ALLEY":" ","HOUSE_NO":"４９號","E_COORD97":167622.34,"N_COORD97":2541005.9700000002,"ADDRESS":"永成路三段３７２巷４９號","OBJECTID":466569},"geometry":{"x":167622.33999999985,"y":2541005.9700000025}},{"attributes":{"ID":466595,"DIS_CODE":0,"TOWNNAME":"新營區","LI":"興業里","LIN":" ","STREET":"中興路","SECT":" ","MAREA":" ","LANE":"１３巷","ALLEY":" ","HOUSE_NO":"３２之２號","E_COORD97":180282.88,"N_COORD97":2577960.1299999999,"ADDRESS":"中興路１３巷３２之２號","OBJECTID":466570},"geometry":{"x":180282.88000000082,"y":2577960.1300000027}},{"attributes":{"ID":466596,"DIS_CODE":0,"TOWNNAME":"永康區","LI":"\u25A0洲里","LIN":"34鄰","STREET":"洲尾街","SECT":" ","MAREA":" ","LANE":"１９１巷","ALLEY":" ","HOUSE_NO":"５號","E_COORD97":170855.89999999999,"N_COORD97":2548975.6699999999,"ADDRESS":"洲尾街１９１巷５號","OBJECTID":466571},"geometry":{"x":170855.9000000013,"y":2548975.6699999999}},{"attributes":{"ID":466597,"DIS_CODE":0,"TOWNNAME":"仁德區","LI":"成功里","LIN":"34鄰","STREET":"成功一街","SECT":" ","MAREA":" ","LANE":"５７巷","ALLEY":" ","HOUSE_NO":"１１號","E_COORD97":170583.01000000001,"N_COORD97":2540085.5099999998,"ADDRESS":"成功一街５７巷１１號","OBJECTID":466572},"geometry":{"x":170583.01000000164,"y":2540085.5100000016}},{"attributes":{"ID":466598,"DIS_CODE":0,"TOWNNAME":"中西區","LI":"安海里","LIN":"5鄰","STREET":"金華路","SECT":"三段","MAREA":" ","LANE":" ","ALLEY":" ","HOUSE_NO":"２５２號十三樓之１２","E_COORD97":167360.17000000001,"N_COORD97":2544002.2599999998,"ADDRESS":"金華路三段２５２號十三樓之１２","OBJECTID":466573},"geometry":{"x":167360.17000000086,"y":2544002.2600000016}},{"attributes":{"ID":466599,"DIS_CODE":0,"TOWNNAME":"中西區","LI":"安海里","LIN":"5鄰","STREET":"金華路","SECT":"三段","MAREA":" ","LANE":" ","ALLEY":" ","HOUSE_NO":"２５２號十三樓之１３","E_COORD97":167360.17000000001,"N_COORD97":2544002.2599999998,"ADDRESS":"金華路三段２５２號十三樓之１３","OBJECTID":466574},"geometry":{"x":167360.17000000086,"y":2544002.2600000016}},{"attributes":{"ID":466600,"DIS_CODE":0,"TOWNNAME":"安南區","LI":"頂安里","LIN":"13鄰","STREET":"安中一街","SECT":" ","MAREA":" ","LANE":"６７巷","ALLEY":" ","HOUSE_NO":"２７號","E_COORD97":168502.12359599999,"N_COORD97":2548479.2852400001,"ADDRESS":"安中一街６７巷２７號","OBJECTID":466575},"geometry":{"x":168502.12359599955,"y":2548479.2852369994}},{"attributes":{"ID":466601,"DIS_CODE":0,"TOWNNAME":"安南區","LI":"頂安里","LIN":"13鄰","STREET":"安中一街","SECT":" ","MAREA":" ","LANE":"６７巷","ALLEY":" ","HOUSE_NO":"２９號","E_COORD97":168497.88450399999,"N_COORD97":2548478.33274,"ADDRESS":"安中一街６７巷２９號","OBJECTID":466576},"geometry":{"x":168497.88450399972,"y":2548478.3327370025}},{"attributes":{"ID":466602,"DIS_CODE":0,"TOWNNAME":"安南區","LI":"頂安里","LIN":"13鄰","STREET":"安中一街","SECT":" ","MAREA":" ","LANE":"６７巷","ALLEY":" ","HOUSE_NO":"３３號","E_COORD97":168489.19436699999,"N_COORD97":2548477.5918999999,"ADDRESS":"安中一街６７巷３３號","OBJECTID":466577},"geometry":{"x":168489.1943669999,"y":2548477.5919040013}},{"attributes":{"ID":466603,"DIS_CODE":0,"TOWNNAME":"安南區","LI":"頂安里","LIN":"13鄰","STREET":"安中一街","SECT":" ","MAREA":" ","LANE":"６７巷","ALLEY":" ","HOUSE_NO":"３１號","E_COORD97":168493.857368,"N_COORD97":2548478.1210699999,"ADDRESS":"安中一街６７巷３１號","OBJECTID":466578},"geometry":{"x":168493.85736800078,"y":2548478.1210709997}},{"attributes":{"ID":466604,"DIS_CODE":0,"TOWNNAME":"安南區","LI":"頂安里","LIN":"13鄰","STREET":"安中一街","SECT":" ","MAREA":" ","LANE":"６７巷","ALLEY":" ","HOUSE_NO":"３５號","E_COORD97":168485.16722999999,"N_COORD97":2548477.9093999998,"ADDRESS":"安中一街６７巷３５號","OBJECTID":466579},"geometry":{"x":168485.16723000072,"y":2548477.9094040003}},{"attributes":{"ID":466605,"DIS_CODE":0,"TOWNNAME":"中西區","LI":"安海里","LIN":"5鄰","STREET":"金華路","SECT":"三段","MAREA":" ","LANE":" ","ALLEY":" ","HOUSE_NO":"２５２號十三樓之２","E_COORD97":167360.17000000001,"N_COORD97":2544002.2599999998,"ADDRESS":"金華路三段２５２號十三樓之２","OBJECTID":466580},"geometry":{"x":167360.17000000086,"y":2544002.2600000016}},{"attributes":{"ID":466606,"DIS_CODE":0,"TOWNNAME":"中西區","LI":"安海里","LIN":"5鄰","STREET":"金華路","SECT":"三段","MAREA":" ","LANE":" ","ALLEY":" ","HOUSE_NO":"２５２號十三樓之３","E_COORD97":167360.17000000001,"N_COORD97":2544002.2599999998,"ADDRESS":"金華路三段２５２號十三樓之３","OBJECTID":466581},"geometry":{"x":167360.17000000086,"y":2544002.2600000016}},{"attributes":{"ID":466607,"DIS_CODE":0,"TOWNNAME":"中西區","LI":"安海里","LIN":"5鄰","STREET":"金華路","SECT":"三段","MAREA":" ","LANE":" ","ALLEY":" ","HOUSE_NO":"２５２號十三樓之５","E_COORD97":167360.17000000001,"N_COORD97":2544002.2599999998,"ADDRESS":"金華路三段２５２號十三樓之５","OBJECTID":466582},"geometry":{"x":167360.17000000086,"y":2544002.2600000016}},{"attributes":{"ID":466608,"DIS_CODE":0,"TOWNNAME":"中西區","LI":"安海里","LIN":"5鄰","STREET":"金華路","SECT":"三段","MAREA":" ","LANE":" ","ALLEY":" ","HOUSE_NO":"２５２號十三樓之６","E_COORD97":167360.17000000001,"N_COORD97":2544002.2599999998,"ADDRESS":"金華路三段２５２號十三樓之６","OBJECTID":466583},"geometry":{"x":167360.17000000086,"y":2544002.2600000016}},{"attributes":{"ID":466609,"DIS_CODE":0,"TOWNNAME":"中西區","LI":"安海里","LIN":"5鄰","STREET":"金華路","SECT":"三段","MAREA":" ","LANE":" ","ALLEY":" ","HOUSE_NO":"２５２號十三樓之７","E_COORD97":167360.17000000001,"N_COORD97":2544002.2599999998,"ADDRESS":"金華路三段２５２號十三樓之７","OBJECTID":466584},"geometry":{"x":167360.17000000086,"y":2544002.2600000016}},{"attributes":{"ID":466610,"DIS_CODE":0,"TOWNNAME":"中西區","LI":"安海里","LIN":"5鄰","STREET":"金華路","SECT":"三段","MAREA":" ","LANE":" ","ALLEY":" ","HOUSE_NO":"２５２號十三樓之８","E_COORD97":167360.17000000001,"N_COORD97":2544002.2599999998,"ADDRESS":"金華路三段２５２號十三樓之８","OBJECTID":466585},"geometry":{"x":167360.17000000086,"y":2544002.2600000016}},{"attributes":{"ID":466611,"DIS_CODE":0,"TOWNNAME":"中西區","LI":"安海里","LIN":"5鄰","STREET":"金華路","SECT":"三段","MAREA":" ","LANE":" ","ALLEY":" ","HOUSE_NO":"２５２號十三樓之９","E_COORD97":167360.17000000001,"N_COORD97":2544002.2599999998,"ADDRESS":"金華路三段２５２號十三樓之９","OBJECTID":466586},"geometry":{"x":167360.17000000086,"y":2544002.2600000016}},{"attributes":{"ID":466612,"DIS_CODE":0,"TOWNNAME":"中西區","LI":"安海里","LIN":"5鄰","STREET":"金華路","SECT":"三段","MAREA":" ","LANE":" ","ALLEY":" ","HOUSE_NO":"２５２號十五樓之１","E_COORD97":167360.17000000001,"N_COORD97":2544002.2599999998,"ADDRESS":"金華路三段２５２號十五樓之１","OBJECTID":466587},"geometry":{"x":167360.17000000086,"y":2544002.2600000016}},{"attributes":{"ID":466613,"DIS_CODE":0,"TOWNNAME":"中西區","LI":"安海里","LIN":"5鄰","STREET":"金華路","SECT":"三段","MAREA":" ","LANE":" ","ALLEY":" ","HOUSE_NO":"２５２號十五樓之１０","E_COORD97":167360.17000000001,"N_COORD97":2544002.2599999998,"ADDRESS":"金華路三段２５２號十五樓之１０","OBJECTID":466588},"geometry":{"x":167360.17000000086,"y":2544002.2600000016}},{"attributes":{"ID":466614,"DIS_CODE":0,"TOWNNAME":"中西區","LI":"安海里","LIN":"5鄰","STREET":"金華路","SECT":"三段","MAREA":" ","LANE":" ","ALLEY":" ","HOUSE_NO":"２５２號十五樓之１１","E_COORD97":167360.17000000001,"N_COORD97":2544002.2599999998,"ADDRESS":"金華路三段２５２號十五樓之１１","OBJECTID":466589},"geometry":{"x":167360.17000000086,"y":2544002.2600000016}},{"attributes":{"ID":466615,"DIS_CODE":0,"TOWNNAME":"中西區","LI":"安海里","LIN":"5鄰","STREET":"金華路","SECT":"三段","MAREA":" ","LANE":" ","ALLEY":" ","HOUSE_NO":"２５２號十五樓之１２","E_COORD97":167360.17000000001,"N_COORD97":2544002.2599999998,"ADDRESS":"金華路三段２５２號十五樓之１２","OBJECTID":466590},"geometry":{"x":167360.17000000086,"y":2544002.2600000016}},{"attributes":{"ID":466616,"DIS_CODE":0,"TOWNNAME":"中西區","LI":"安海里","LIN":"5鄰","STREET":"金華路","SECT":"三段","MAREA":" ","LANE":" ","ALLEY":" ","HOUSE_NO":"２５２號十五樓之１３","E_COORD97":167360.17000000001,"N_COORD97":2544002.2599999998,"ADDRESS":"金華路三段２５２號十五樓之１３","OBJECTID":466591},"geometry":{"x":167360.17000000086,"y":2544002.2600000016}},{"attributes":{"ID":466617,"DIS_CODE":0,"TOWNNAME":"中西區","LI":"安海里","LIN":"5鄰","STREET":"金華路","SECT":"三段","MAREA":" ","LANE":" ","ALLEY":" ","HOUSE_NO":"２５２號十五樓之２","E_COORD97":167360.17000000001,"N_COORD97":2544002.2599999998,"ADDRESS":"金華路三段２５２號十五樓之２","OBJECTID":466592},"geometry":{"x":167360.17000000086,"y":2544002.2600000016}},{"attributes":{"ID":466618,"DIS_CODE":0,"TOWNNAME":"中西區","LI":"安海里","LIN":"5鄰","STREET":"金華路","SECT":"三段","MAREA":" ","LANE":" ","ALLEY":" ","HOUSE_NO":"２５２號十五樓之３","E_COORD97":167360.17000000001,"N_COORD97":2544002.2599999998,"ADDRESS":"金華路三段２５２號十五樓之３","OBJECTID":466593},"geometry":{"x":167360.17000000086,"y":2544002.2600000016}},{"attributes":{"ID":466619,"DIS_CODE":0,"TOWNNAME":"中西區","LI":"安海里","LIN":"5鄰","STREET":"金華路","SECT":"三段","MAREA":" ","LANE":" ","ALLEY":" ","HOUSE_NO":"２５２號十五樓之５","E_COORD97":167360.17000000001,"N_COORD97":2544002.2599999998,"ADDRESS":"金華路三段２５２號十五樓之５","OBJECTID":466594},"geometry":{"x":167360.17000000086,"y":2544002.2600000016}},{"attributes":{"ID":466620,"DIS_CODE":0,"TOWNNAME":"中西區","LI":"安海里","LIN":"5鄰","STREET":"金華路","SECT":"三段","MAREA":" ","LANE":" ","ALLEY":" ","HOUSE_NO":"２５２號十五樓之６","E_COORD97":167360.17000000001,"N_COORD97":2544002.2599999998,"ADDRESS":"金華路三段２５２號十五樓之６","OBJECTID":466595},"geometry":{"x":167360.17000000086,"y":2544002.2600000016}},{"attributes":{"ID":466621,"DIS_CODE":0,"TOWNNAME":"中西區","LI":"安海里","LIN":"5鄰","STREET":"金華路","SECT":"三段","MAREA":" ","LANE":" ","ALLEY":" ","HOUSE_NO":"２５２號十五樓之７","E_COORD97":167360.17000000001,"N_COORD97":2544002.2599999998,"ADDRESS":"金華路三段２５２號十五樓之７","OBJECTID":466596},"geometry":{"x":167360.17000000086,"y":2544002.2600000016}},{"attributes":{"ID":466622,"DIS_CODE":0,"TOWNNAME":"中西區","LI":"安海里","LIN":"5鄰","STREET":"金華路","SECT":"三段","MAREA":" ","LANE":" ","ALLEY":" ","HOUSE_NO":"２５２號十五樓之８","E_COORD97":167360.17000000001,"N_COORD97":2544002.2599999998,"ADDRESS":"金華路三段２５２號十五樓之８","OBJECTID":466597},"geometry":{"x":167360.17000000086,"y":2544002.2600000016}},{"attributes":{"ID":466623,"DIS_CODE":0,"TOWNNAME":"中西區","LI":"安海里","LIN":"5鄰","STREET":"金華路","SECT":"三段","MAREA":" ","LANE":" ","ALLEY":" ","HOUSE_NO":"２５２號十五樓之９","E_COORD97":167360.17000000001,"N_COORD97":2544002.2599999998,"ADDRESS":"金華路三段２５２號十五樓之９","OBJECTID":466598},"geometry":{"x":167360.17000000086,"y":2544002.2600000016}},{"attributes":{"ID":466624,"DIS_CODE":0,"TOWNNAME":"中西區","LI":"安海里","LIN":"5鄰","STREET":"金華路","SECT":"三段","MAREA":" ","LANE":" ","ALLEY":" ","HOUSE_NO":"２５２號十六樓之１","E_COORD97":167360.17000000001,"N_COORD97":2544002.2599999998,"ADDRESS":"金華路三段２５２號十六樓之１","OBJECTID":466599},"geometry":{"x":167360.17000000086,"y":2544002.2600000016}},{"attributes":{"ID":466625,"DIS_CODE":0,"TOWNNAME":"中西區","LI":"安海里","LIN":"5鄰","STREET":"金華路","SECT":"三段","MAREA":" ","LANE":" ","ALLEY":" ","HOUSE_NO":"２５２號十六樓之１０","E_COORD97":167360.17000000001,"N_COORD97":2544002.2599999998,"ADDRESS":"金華路三段２５２號十六樓之１０","OBJECTID":466600},"geometry":{"x":167360.17000000086,"y":2544002.2600000016}}]}