{"displayFieldName":"TOWNNAME","fieldAliases":{"ID":"ID","DIS_CODE":"DIS_CODE","TOWNNAME":"TOWNNAME","LI":"LI","LIN":"LIN","STREET":"STREET","SECT":"SECT","MAREA":"MAREA","LANE":"LANE","ALLEY":"ALLEY","HOUSE_NO":"HOUSE_NO","E_COORD97":"E_COORD97","N_COORD97":"N_COORD97","ADDRESS":"ADDRESS","OBJECTID":"OBJECTID"},"geometryType":"esriGeometryPoint","spatialReference":{"wkid":102443,"latestWkid":3826},"fields":[{"name":"ID","type":"esriFieldTypeDouble","alias":"ID"},{"name":"DIS_CODE","type":"esriFieldTypeInteger","alias":"DIS_CODE"},{"name":"TOWNNAME","type":"esriFieldTypeString","alias":"TOWNNAME","length":8},{"name":"LI","type":"esriFieldTypeString","alias":"LI","length":8},{"name":"LIN","type":"esriFieldTypeString","alias":"LIN","length":12},{"name":"STREET","type":"esriFieldTypeString","alias":"STREET","length":20},{"name":"SECT","type":"esriFieldTypeString","alias":"SECT","length":8},{"name":"MAREA","type":"esriFieldTypeString","alias":"MAREA","length":12},{"name":"LANE","type":"esriFieldTypeString","alias":"LANE","length":10},{"name":"ALLEY","type":"esriFieldTypeString","alias":"ALLEY","length":10},{"name":"HOUSE_NO","type":"esriFieldTypeString","alias":"HOUSE_NO","length":20},{"name":"E_COORD97","type":"esriFieldTypeDouble","alias":"E_COORD97"},{"name":"N_COORD97","type":"esriFieldTypeDouble","alias":"N_COORD97"},{"name":"ADDRESS","type":"esriFieldTypeString","alias":"ADDRESS","length":50},{"name":"OBJECTID","type":"esriFieldTypeOID","alias":"OBJECTID"}],"features":[{"attributes":{"ID":242005,"DIS_CODE":0,"TOWNNAME":"中西區","LI":"西湖里","LIN":"24鄰","STREET":"湖美街","SECT":" ","MAREA":" ","LANE":"７０巷","ALLEY":" ","HOUSE_NO":"６號五樓之６","E_COORD97":165947.67999999999,"N_COORD97":2544723.3599999999,"ADDRESS":"湖美街７０巷６號五樓之６","OBJECTID":242001},"geometry":{"x":165947.68000000063,"y":2544723.3600000013}},{"attributes":{"ID":242006,"DIS_CODE":0,"TOWNNAME":"中西區","LI":"西湖里","LIN":"24鄰","STREET":"湖美街","SECT":" ","MAREA":" ","LANE":"７０巷","ALLEY":" ","HOUSE_NO":"６號六樓之１","E_COORD97":165965.32999999999,"N_COORD97":2544744.7200000002,"ADDRESS":"湖美街７０巷６號六樓之１","OBJECTID":242002},"geometry":{"x":165965.33000000101,"y":2544744.7200000007}},{"attributes":{"ID":242007,"DIS_CODE":0,"TOWNNAME":"中西區","LI":"西湖里","LIN":"24鄰","STREET":"湖美街","SECT":" ","MAREA":" ","LANE":"７０巷","ALLEY":" ","HOUSE_NO":"６號六樓之２","E_COORD97":165954.35999999999,"N_COORD97":2544744.1899999999,"ADDRESS":"湖美街７０巷６號六樓之２","OBJECTID":242003},"geometry":{"x":165954.36000000034,"y":2544744.1899999995}},{"attributes":{"ID":242008,"DIS_CODE":0,"TOWNNAME":"中西區","LI":"西湖里","LIN":"24鄰","STREET":"湖美街","SECT":" ","MAREA":" ","LANE":"７０巷","ALLEY":" ","HOUSE_NO":"６號六樓之３","E_COORD97":165947.67999999999,"N_COORD97":2544736.4399999999,"ADDRESS":"湖美街７０巷６號六樓之３","OBJECTID":242004},"geometry":{"x":165947.68000000063,"y":2544736.4400000013}},{"attributes":{"ID":242009,"DIS_CODE":0,"TOWNNAME":"中西區","LI":"西湖里","LIN":"24鄰","STREET":"湖美街","SECT":" ","MAREA":" ","LANE":"７０巷","ALLEY":" ","HOUSE_NO":"６號六樓之５","E_COORD97":165947.94,"N_COORD97":2544728.96,"ADDRESS":"湖美街７０巷６號六樓之５","OBJECTID":242005},"geometry":{"x":165947.94000000134,"y":2544728.9600000028}},{"attributes":{"ID":242010,"DIS_CODE":0,"TOWNNAME":"中西區","LI":"西湖里","LIN":"24鄰","STREET":"湖美街","SECT":" ","MAREA":" ","LANE":"７０巷","ALLEY":" ","HOUSE_NO":"６號六樓之６","E_COORD97":165947.67999999999,"N_COORD97":2544723.3599999999,"ADDRESS":"湖美街７０巷６號六樓之６","OBJECTID":242006},"geometry":{"x":165947.68000000063,"y":2544723.3600000013}},{"attributes":{"ID":242011,"DIS_CODE":0,"TOWNNAME":"中西區","LI":"西湖里","LIN":"24鄰","STREET":"湖美街","SECT":" ","MAREA":" ","LANE":"７０巷","ALLEY":" ","HOUSE_NO":"６號七樓之１","E_COORD97":165965.32999999999,"N_COORD97":2544744.7200000002,"ADDRESS":"湖美街７０巷６號七樓之１","OBJECTID":242007},"geometry":{"x":165965.33000000101,"y":2544744.7200000007}},{"attributes":{"ID":242012,"DIS_CODE":0,"TOWNNAME":"中西區","LI":"西湖里","LIN":"24鄰","STREET":"湖美街","SECT":" ","MAREA":" ","LANE":"７０巷","ALLEY":" ","HOUSE_NO":"６號七樓之２","E_COORD97":165954.35999999999,"N_COORD97":2544744.1899999999,"ADDRESS":"湖美街７０巷６號七樓之２","OBJECTID":242008},"geometry":{"x":165954.36000000034,"y":2544744.1899999995}},{"attributes":{"ID":242013,"DIS_CODE":0,"TOWNNAME":"中西區","LI":"西湖里","LIN":"24鄰","STREET":"湖美街","SECT":" ","MAREA":" ","LANE":"７０巷","ALLEY":" ","HOUSE_NO":"６號七樓之３","E_COORD97":165947.67999999999,"N_COORD97":2544736.4399999999,"ADDRESS":"湖美街７０巷６號七樓之３","OBJECTID":242009},"geometry":{"x":165947.68000000063,"y":2544736.4400000013}},{"attributes":{"ID":242014,"DIS_CODE":0,"TOWNNAME":"中西區","LI":"西湖里","LIN":"24鄰","STREET":"湖美街","SECT":" ","MAREA":" ","LANE":"７０巷","ALLEY":" ","HOUSE_NO":"６號七樓之５","E_COORD97":165947.94,"N_COORD97":2544728.96,"ADDRESS":"湖美街７０巷６號七樓之５","OBJECTID":242010},"geometry":{"x":165947.94000000134,"y":2544728.9600000028}},{"attributes":{"ID":242015,"DIS_CODE":0,"TOWNNAME":"中西區","LI":"西湖里","LIN":"24鄰","STREET":"湖美街","SECT":" ","MAREA":" ","LANE":"７０巷","ALLEY":" ","HOUSE_NO":"６號七樓之６","E_COORD97":165947.67999999999,"N_COORD97":2544723.3599999999,"ADDRESS":"湖美街７０巷６號七樓之６","OBJECTID":242011},"geometry":{"x":165947.68000000063,"y":2544723.3600000013}},{"attributes":{"ID":242016,"DIS_CODE":0,"TOWNNAME":"中西區","LI":"西湖里","LIN":"24鄰","STREET":"湖美街","SECT":" ","MAREA":" ","LANE":"７０巷","ALLEY":" ","HOUSE_NO":"６號八樓之１","E_COORD97":165965.32999999999,"N_COORD97":2544744.7200000002,"ADDRESS":"湖美街７０巷６號八樓之１","OBJECTID":242012},"geometry":{"x":165965.33000000101,"y":2544744.7200000007}},{"attributes":{"ID":242017,"DIS_CODE":0,"TOWNNAME":"中西區","LI":"西湖里","LIN":"24鄰","STREET":"湖美街","SECT":" ","MAREA":" ","LANE":"７０巷","ALLEY":" ","HOUSE_NO":"６號八樓之２","E_COORD97":165954.35999999999,"N_COORD97":2544744.1899999999,"ADDRESS":"湖美街７０巷６號八樓之２","OBJECTID":242013},"geometry":{"x":165954.36000000034,"y":2544744.1899999995}},{"attributes":{"ID":242018,"DIS_CODE":0,"TOWNNAME":"中西區","LI":"西湖里","LIN":"24鄰","STREET":"湖美街","SECT":" ","MAREA":" ","LANE":"７０巷","ALLEY":" ","HOUSE_NO":"６號八樓之３","E_COORD97":165947.67999999999,"N_COORD97":2544736.4399999999,"ADDRESS":"湖美街７０巷６號八樓之３","OBJECTID":242014},"geometry":{"x":165947.68000000063,"y":2544736.4400000013}},{"attributes":{"ID":242019,"DIS_CODE":0,"TOWNNAME":"中西區","LI":"西湖里","LIN":"24鄰","STREET":"湖美街","SECT":" ","MAREA":" ","LANE":"７０巷","ALLEY":" ","HOUSE_NO":"６號八樓之５","E_COORD97":165947.94,"N_COORD97":2544728.96,"ADDRESS":"湖美街７０巷６號八樓之５","OBJECTID":242015},"geometry":{"x":165947.94000000134,"y":2544728.9600000028}},{"attributes":{"ID":242020,"DIS_CODE":0,"TOWNNAME":"中西區","LI":"西湖里","LIN":"24鄰","STREET":"湖美街","SECT":" ","MAREA":" ","LANE":"７０巷","ALLEY":" ","HOUSE_NO":"６號八樓之６","E_COORD97":165947.67999999999,"N_COORD97":2544723.3599999999,"ADDRESS":"湖美街７０巷６號八樓之６","OBJECTID":242016},"geometry":{"x":165947.68000000063,"y":2544723.3600000013}},{"attributes":{"ID":242021,"DIS_CODE":0,"TOWNNAME":"中西區","LI":"西湖里","LIN":"24鄰","STREET":"湖美街","SECT":" ","MAREA":" ","LANE":"７０巷","ALLEY":" ","HOUSE_NO":"６號九樓之１","E_COORD97":165965.32999999999,"N_COORD97":2544744.7200000002,"ADDRESS":"湖美街７０巷６號九樓之１","OBJECTID":242017},"geometry":{"x":165965.33000000101,"y":2544744.7200000007}},{"attributes":{"ID":242022,"DIS_CODE":0,"TOWNNAME":"中西區","LI":"西湖里","LIN":"24鄰","STREET":"湖美街","SECT":" ","MAREA":" ","LANE":"７０巷","ALLEY":" ","HOUSE_NO":"６號十樓之６","E_COORD97":165947.67999999999,"N_COORD97":2544723.3599999999,"ADDRESS":"湖美街７０巷６號十樓之６","OBJECTID":242018},"geometry":{"x":165947.68000000063,"y":2544723.3600000013}},{"attributes":{"ID":242023,"DIS_CODE":0,"TOWNNAME":"中西區","LI":"西湖里","LIN":"24鄰","STREET":"湖美街","SECT":" ","MAREA":" ","LANE":"７０巷","ALLEY":" ","HOUSE_NO":"６號十一樓之１","E_COORD97":165965.32999999999,"N_COORD97":2544744.7200000002,"ADDRESS":"湖美街７０巷６號十一樓之１","OBJECTID":242019},"geometry":{"x":165965.33000000101,"y":2544744.7200000007}},{"attributes":{"ID":242024,"DIS_CODE":0,"TOWNNAME":"中西區","LI":"西湖里","LIN":"24鄰","STREET":"湖美街","SECT":" ","MAREA":" ","LANE":"７０巷","ALLEY":" ","HOUSE_NO":"６號十一樓之２","E_COORD97":165954.35999999999,"N_COORD97":2544744.1899999999,"ADDRESS":"湖美街７０巷６號十一樓之２","OBJECTID":242020},"geometry":{"x":165954.36000000034,"y":2544744.1899999995}},{"attributes":{"ID":242025,"DIS_CODE":0,"TOWNNAME":"中西區","LI":"水仙里","LIN":"16鄰","STREET":"西門路","SECT":"二段","MAREA":" ","LANE":"３０７巷","ALLEY":" ","HOUSE_NO":"１８號七樓","E_COORD97":167917.03,"N_COORD97":2544192.2599999998,"ADDRESS":"西門路二段３０７巷１８號七樓","OBJECTID":242021},"geometry":{"x":167917.03000000119,"y":2544192.2600000016}},{"attributes":{"ID":242026,"DIS_CODE":0,"TOWNNAME":"中西區","LI":"水仙里","LIN":"16鄰","STREET":"西門路","SECT":"二段","MAREA":" ","LANE":"３０７巷","ALLEY":" ","HOUSE_NO":"１８號二樓","E_COORD97":167917.03,"N_COORD97":2544192.2599999998,"ADDRESS":"西門路二段３０７巷１８號二樓","OBJECTID":242022},"geometry":{"x":167917.03000000119,"y":2544192.2600000016}},{"attributes":{"ID":242027,"DIS_CODE":0,"TOWNNAME":"中西區","LI":"水仙里","LIN":"16鄰","STREET":"西門路","SECT":"二段","MAREA":" ","LANE":"３０７巷","ALLEY":" ","HOUSE_NO":"１８號三樓","E_COORD97":167917.03,"N_COORD97":2544192.2599999998,"ADDRESS":"西門路二段３０７巷１８號三樓","OBJECTID":242023},"geometry":{"x":167917.03000000119,"y":2544192.2600000016}},{"attributes":{"ID":242028,"DIS_CODE":0,"TOWNNAME":"北區","LI":"重興里","LIN":"25鄰","STREET":"東豐路","SECT":" ","MAREA":" ","LANE":"４５１巷","ALLEY":" ","HOUSE_NO":"５９號","E_COORD97":170880.20999999999,"N_COORD97":2544913.1800000002,"ADDRESS":"東豐路４５１巷５９號","OBJECTID":242024},"geometry":{"x":170880.21000000089,"y":2544913.1799999997}},{"attributes":{"ID":242029,"DIS_CODE":0,"TOWNNAME":"中西區","LI":"水仙里","LIN":"16鄰","STREET":"西門路","SECT":"二段","MAREA":" ","LANE":"３０７巷","ALLEY":" ","HOUSE_NO":"１８號五樓","E_COORD97":167917.03,"N_COORD97":2544192.2599999998,"ADDRESS":"西門路二段３０７巷１８號五樓","OBJECTID":242025},"geometry":{"x":167917.03000000119,"y":2544192.2600000016}},{"attributes":{"ID":242030,"DIS_CODE":0,"TOWNNAME":"中西區","LI":"水仙里","LIN":"16鄰","STREET":"西門路","SECT":"二段","MAREA":" ","LANE":"３０７巷","ALLEY":" ","HOUSE_NO":"１８號六樓","E_COORD97":167917.03,"N_COORD97":2544192.2599999998,"ADDRESS":"西門路二段３０７巷１８號六樓","OBJECTID":242026},"geometry":{"x":167917.03000000119,"y":2544192.2600000016}},{"attributes":{"ID":242031,"DIS_CODE":0,"TOWNNAME":"中西區","LI":"水仙里","LIN":"16鄰","STREET":"西門路","SECT":"二段","MAREA":" ","LANE":"３０７巷","ALLEY":" ","HOUSE_NO":"１８號四樓","E_COORD97":167917.03,"N_COORD97":2544192.2599999998,"ADDRESS":"西門路二段３０７巷１８號四樓","OBJECTID":242027},"geometry":{"x":167917.03000000119,"y":2544192.2600000016}},{"attributes":{"ID":242032,"DIS_CODE":0,"TOWNNAME":"仁德區","LI":"田厝里","LIN":"7鄰","STREET":"中正路","SECT":"一段","MAREA":" ","LANE":"５９９巷","ALLEY":" ","HOUSE_NO":"６號","E_COORD97":172889.26000000001,"N_COORD97":2537847.2799999998,"ADDRESS":"中正路一段５９９巷６號","OBJECTID":242028},"geometry":{"x":172889.25999999978,"y":2537847.2799999993}},{"attributes":{"ID":242033,"DIS_CODE":0,"TOWNNAME":"仁德區","LI":"田厝里","LIN":"6鄰","STREET":"田厝三街","SECT":" ","MAREA":" ","LANE":"７０巷","ALLEY":" ","HOUSE_NO":"１９號","E_COORD97":172556.91,"N_COORD97":2537358.2400000002,"ADDRESS":"田厝三街７０巷１９號","OBJECTID":242029},"geometry":{"x":172556.91000000015,"y":2537358.2400000021}},{"attributes":{"ID":242034,"DIS_CODE":0,"TOWNNAME":"仁德區","LI":"仁德里","LIN":"12鄰","STREET":"四維街","SECT":" ","MAREA":" ","LANE":"３１巷","ALLEY":" ","HOUSE_NO":"１號","E_COORD97":173231.23999999999,"N_COORD97":2541506.9900000002,"ADDRESS":"四維街３１巷１號","OBJECTID":242030},"geometry":{"x":173231.23999999929,"y":2541506.9900000021}},{"attributes":{"ID":242035,"DIS_CODE":0,"TOWNNAME":"中西區","LI":"西湖里","LIN":"24鄰","STREET":"湖美街","SECT":" ","MAREA":" ","LANE":"７０巷","ALLEY":" ","HOUSE_NO":"６號十一樓之３","E_COORD97":165947.67999999999,"N_COORD97":2544736.4399999999,"ADDRESS":"湖美街７０巷６號十一樓之３","OBJECTID":242031},"geometry":{"x":165947.68000000063,"y":2544736.4400000013}},{"attributes":{"ID":242036,"DIS_CODE":0,"TOWNNAME":"中西區","LI":"西湖里","LIN":"24鄰","STREET":"湖美街","SECT":" ","MAREA":" ","LANE":"７０巷","ALLEY":" ","HOUSE_NO":"６號十一樓之５","E_COORD97":165947.94,"N_COORD97":2544728.96,"ADDRESS":"湖美街７０巷６號十一樓之５","OBJECTID":242032},"geometry":{"x":165947.94000000134,"y":2544728.9600000028}},{"attributes":{"ID":242037,"DIS_CODE":0,"TOWNNAME":"中西區","LI":"西湖里","LIN":"24鄰","STREET":"湖美街","SECT":" ","MAREA":" ","LANE":"７０巷","ALLEY":" ","HOUSE_NO":"６號十一樓之６","E_COORD97":165947.67999999999,"N_COORD97":2544723.3599999999,"ADDRESS":"湖美街７０巷６號十一樓之６","OBJECTID":242033},"geometry":{"x":165947.68000000063,"y":2544723.3600000013}},{"attributes":{"ID":242038,"DIS_CODE":0,"TOWNNAME":"中西區","LI":"西湖里","LIN":"24鄰","STREET":"湖美街","SECT":" ","MAREA":" ","LANE":"７０巷","ALLEY":" ","HOUSE_NO":"６號十二樓之１","E_COORD97":165965.32999999999,"N_COORD97":2544744.7200000002,"ADDRESS":"湖美街７０巷６號十二樓之１","OBJECTID":242034},"geometry":{"x":165965.33000000101,"y":2544744.7200000007}},{"attributes":{"ID":242039,"DIS_CODE":0,"TOWNNAME":"中西區","LI":"西湖里","LIN":"24鄰","STREET":"湖美街","SECT":" ","MAREA":" ","LANE":"７０巷","ALLEY":" ","HOUSE_NO":"６號十二樓之２","E_COORD97":165954.35999999999,"N_COORD97":2544744.1899999999,"ADDRESS":"湖美街７０巷６號十二樓之２","OBJECTID":242035},"geometry":{"x":165954.36000000034,"y":2544744.1899999995}},{"attributes":{"ID":242040,"DIS_CODE":0,"TOWNNAME":"中西區","LI":"西湖里","LIN":"24鄰","STREET":"湖美街","SECT":" ","MAREA":" ","LANE":"７０巷","ALLEY":" ","HOUSE_NO":"６號十二樓之３","E_COORD97":165947.67999999999,"N_COORD97":2544736.4399999999,"ADDRESS":"湖美街７０巷６號十二樓之３","OBJECTID":242036},"geometry":{"x":165947.68000000063,"y":2544736.4400000013}},{"attributes":{"ID":242041,"DIS_CODE":0,"TOWNNAME":"東區","LI":"中西里","LIN":"14鄰","STREET":"東寧路","SECT":" ","MAREA":" ","LANE":" ","ALLEY":" ","HOUSE_NO":"５８號十二樓之２","E_COORD97":170111.59,"N_COORD97":2543575.71,"ADDRESS":"東寧路５８號十二樓之２","OBJECTID":242037},"geometry":{"x":170111.59000000078,"y":2543575.7100000009}},{"attributes":{"ID":242042,"DIS_CODE":0,"TOWNNAME":"東區","LI":"中西里","LIN":"14鄰","STREET":"東寧路","SECT":" ","MAREA":" ","LANE":" ","ALLEY":" ","HOUSE_NO":"５８號十三樓","E_COORD97":170111.59,"N_COORD97":2543575.71,"ADDRESS":"東寧路５８號十三樓","OBJECTID":242038},"geometry":{"x":170111.59000000078,"y":2543575.7100000009}},{"attributes":{"ID":242043,"DIS_CODE":0,"TOWNNAME":"東區","LI":"德高里","LIN":"11鄰","STREET":"崇善路","SECT":" ","MAREA":" ","LANE":"９１３巷","ALLEY":" ","HOUSE_NO":"３２號之４","E_COORD97":171445.51582299999,"N_COORD97":2540788.09516,"ADDRESS":"崇善路９１３巷３２號之４","OBJECTID":242039},"geometry":{"x":171445.51582300011,"y":2540788.0951610003}},{"attributes":{"ID":242044,"DIS_CODE":0,"TOWNNAME":"東區","LI":"中西里","LIN":"14鄰","STREET":"東寧路","SECT":" ","MAREA":" ","LANE":" ","ALLEY":" ","HOUSE_NO":"５８號十三樓之１","E_COORD97":170111.59,"N_COORD97":2543575.71,"ADDRESS":"東寧路５８號十三樓之１","OBJECTID":242040},"geometry":{"x":170111.59000000078,"y":2543575.7100000009}},{"attributes":{"ID":242045,"DIS_CODE":0,"TOWNNAME":"東區","LI":"中西里","LIN":"14鄰","STREET":"東寧路","SECT":" ","MAREA":" ","LANE":" ","ALLEY":" ","HOUSE_NO":"５８號十三樓之２","E_COORD97":170111.59,"N_COORD97":2543575.71,"ADDRESS":"東寧路５８號十三樓之２","OBJECTID":242041},"geometry":{"x":170111.59000000078,"y":2543575.7100000009}},{"attributes":{"ID":242046,"DIS_CODE":0,"TOWNNAME":"東區","LI":"中西里","LIN":"14鄰","STREET":"東寧路","SECT":" ","MAREA":" ","LANE":" ","ALLEY":" ","HOUSE_NO":"５８號十四樓","E_COORD97":170111.59,"N_COORD97":2543575.71,"ADDRESS":"東寧路５８號十四樓","OBJECTID":242042},"geometry":{"x":170111.59000000078,"y":2543575.7100000009}},{"attributes":{"ID":242047,"DIS_CODE":0,"TOWNNAME":"東區","LI":"中西里","LIN":"14鄰","STREET":"東寧路","SECT":" ","MAREA":" ","LANE":" ","ALLEY":" ","HOUSE_NO":"５８號十四樓之１","E_COORD97":170111.59,"N_COORD97":2543575.71,"ADDRESS":"東寧路５８號十四樓之１","OBJECTID":242043},"geometry":{"x":170111.59000000078,"y":2543575.7100000009}},{"attributes":{"ID":242048,"DIS_CODE":0,"TOWNNAME":"東區","LI":"中西里","LIN":"14鄰","STREET":"東寧路","SECT":" ","MAREA":" ","LANE":" ","ALLEY":" ","HOUSE_NO":"５８號十四樓之２","E_COORD97":170111.59,"N_COORD97":2543575.71,"ADDRESS":"東寧路５８號十四樓之２","OBJECTID":242044},"geometry":{"x":170111.59000000078,"y":2543575.7100000009}},{"attributes":{"ID":242049,"DIS_CODE":0,"TOWNNAME":"東區","LI":"中西里","LIN":"14鄰","STREET":"東寧路","SECT":" ","MAREA":" ","LANE":" ","ALLEY":" ","HOUSE_NO":"５８號十五樓","E_COORD97":170111.59,"N_COORD97":2543575.71,"ADDRESS":"東寧路５８號十五樓","OBJECTID":242045},"geometry":{"x":170111.59000000078,"y":2543575.7100000009}},{"attributes":{"ID":242050,"DIS_CODE":0,"TOWNNAME":"東區","LI":"中西里","LIN":"14鄰","STREET":"東寧路","SECT":" ","MAREA":" ","LANE":" ","ALLEY":" ","HOUSE_NO":"５８號十五樓之１","E_COORD97":170111.59,"N_COORD97":2543575.71,"ADDRESS":"東寧路５８號十五樓之１","OBJECTID":242046},"geometry":{"x":170111.59000000078,"y":2543575.7100000009}},{"attributes":{"ID":242051,"DIS_CODE":0,"TOWNNAME":"仁德區","LI":"仁德里","LIN":"7鄰","STREET":"仁德三街","SECT":" ","MAREA":" ","LANE":"１６巷","ALLEY":" ","HOUSE_NO":"２號","E_COORD97":173300.72,"N_COORD97":2541020.52,"ADDRESS":"仁德三街１６巷２號","OBJECTID":242047},"geometry":{"x":173300.72000000067,"y":2541020.5200000014}},{"attributes":{"ID":242052,"DIS_CODE":0,"TOWNNAME":"仁德區","LI":"成功里","LIN":"33鄰","STREET":"成功一街","SECT":" ","MAREA":" ","LANE":"４３巷","ALLEY":" ","HOUSE_NO":"４號","E_COORD97":170558.76000000001,"N_COORD97":2540106.02,"ADDRESS":"成功一街４３巷４號","OBJECTID":242048},"geometry":{"x":170558.75999999978,"y":2540106.0200000014}},{"attributes":{"ID":242053,"DIS_CODE":0,"TOWNNAME":"中西區","LI":"西湖里","LIN":"24鄰","STREET":"湖美街","SECT":" ","MAREA":" ","LANE":"７０巷","ALLEY":" ","HOUSE_NO":"６號十二樓之５","E_COORD97":165947.94,"N_COORD97":2544728.96,"ADDRESS":"湖美街７０巷６號十二樓之５","OBJECTID":242049},"geometry":{"x":165947.94000000134,"y":2544728.9600000028}},{"attributes":{"ID":242054,"DIS_CODE":0,"TOWNNAME":"中西區","LI":"西湖里","LIN":"24鄰","STREET":"湖美街","SECT":" ","MAREA":" ","LANE":"７０巷","ALLEY":" ","HOUSE_NO":"６號十二樓之６","E_COORD97":165947.67999999999,"N_COORD97":2544723.3599999999,"ADDRESS":"湖美街７０巷６號十二樓之６","OBJECTID":242050},"geometry":{"x":165947.68000000063,"y":2544723.3600000013}},{"attributes":{"ID":242055,"DIS_CODE":0,"TOWNNAME":"中西區","LI":"西湖里","LIN":"24鄰","STREET":"湖美街","SECT":" ","MAREA":" ","LANE":"７０巷","ALLEY":" ","HOUSE_NO":"６號十三樓之１","E_COORD97":165965.32999999999,"N_COORD97":2544744.7200000002,"ADDRESS":"湖美街７０巷６號十三樓之１","OBJECTID":242051},"geometry":{"x":165965.33000000101,"y":2544744.7200000007}},{"attributes":{"ID":242056,"DIS_CODE":0,"TOWNNAME":"中西區","LI":"西湖里","LIN":"24鄰","STREET":"湖美街","SECT":" ","MAREA":" ","LANE":"７０巷","ALLEY":" ","HOUSE_NO":"６號十三樓之２","E_COORD97":165954.35999999999,"N_COORD97":2544744.1899999999,"ADDRESS":"湖美街７０巷６號十三樓之２","OBJECTID":242052},"geometry":{"x":165954.36000000034,"y":2544744.1899999995}},{"attributes":{"ID":242057,"DIS_CODE":0,"TOWNNAME":"中西區","LI":"西湖里","LIN":"24鄰","STREET":"湖美街","SECT":" ","MAREA":" ","LANE":"７０巷","ALLEY":" ","HOUSE_NO":"６號十三樓之３","E_COORD97":165947.67999999999,"N_COORD97":2544736.4399999999,"ADDRESS":"湖美街７０巷６號十三樓之３","OBJECTID":242053},"geometry":{"x":165947.68000000063,"y":2544736.4400000013}},{"attributes":{"ID":242058,"DIS_CODE":0,"TOWNNAME":"中西區","LI":"西湖里","LIN":"24鄰","STREET":"湖美街","SECT":" ","MAREA":" ","LANE":"７０巷","ALLEY":" ","HOUSE_NO":"６號十三樓之５","E_COORD97":165947.94,"N_COORD97":2544728.96,"ADDRESS":"湖美街７０巷６號十三樓之５","OBJECTID":242054},"geometry":{"x":165947.94000000134,"y":2544728.9600000028}},{"attributes":{"ID":242059,"DIS_CODE":0,"TOWNNAME":"中西區","LI":"西湖里","LIN":"24鄰","STREET":"湖美街","SECT":" ","MAREA":" ","LANE":"７０巷","ALLEY":" ","HOUSE_NO":"６號十三樓之６","E_COORD97":165947.67999999999,"N_COORD97":2544723.3599999999,"ADDRESS":"湖美街７０巷６號十三樓之６","OBJECTID":242055},"geometry":{"x":165947.68000000063,"y":2544723.3600000013}},{"attributes":{"ID":242060,"DIS_CODE":0,"TOWNNAME":"中西區","LI":"西湖里","LIN":"24鄰","STREET":"湖美街","SECT":" ","MAREA":" ","LANE":"７０巷","ALLEY":" ","HOUSE_NO":"６號十四樓之１","E_COORD97":165965.32999999999,"N_COORD97":2544744.7200000002,"ADDRESS":"湖美街７０巷６號十四樓之１","OBJECTID":242056},"geometry":{"x":165965.33000000101,"y":2544744.7200000007}},{"attributes":{"ID":242061,"DIS_CODE":0,"TOWNNAME":"中西區","LI":"西湖里","LIN":"24鄰","STREET":"湖美街","SECT":" ","MAREA":" ","LANE":"７０巷","ALLEY":" ","HOUSE_NO":"６號十四樓之２","E_COORD97":165954.35999999999,"N_COORD97":2544744.1899999999,"ADDRESS":"湖美街７０巷６號十四樓之２","OBJECTID":242057},"geometry":{"x":165954.36000000034,"y":2544744.1899999995}},{"attributes":{"ID":242062,"DIS_CODE":0,"TOWNNAME":"中西區","LI":"西湖里","LIN":"24鄰","STREET":"湖美街","SECT":" ","MAREA":" ","LANE":"７０巷","ALLEY":" ","HOUSE_NO":"６號十四樓之３","E_COORD97":165947.67999999999,"N_COORD97":2544736.4399999999,"ADDRESS":"湖美街７０巷６號十四樓之３","OBJECTID":242058},"geometry":{"x":165947.68000000063,"y":2544736.4400000013}},{"attributes":{"ID":242063,"DIS_CODE":0,"TOWNNAME":"中西區","LI":"西湖里","LIN":"24鄰","STREET":"湖美街","SECT":" ","MAREA":" ","LANE":"７０巷","ALLEY":" ","HOUSE_NO":"６號十四樓之５","E_COORD97":165947.94,"N_COORD97":2544728.96,"ADDRESS":"湖美街７０巷６號十四樓之５","OBJECTID":242059},"geometry":{"x":165947.94000000134,"y":2544728.9600000028}},{"attributes":{"ID":242064,"DIS_CODE":0,"TOWNNAME":"中西區","LI":"西湖里","LIN":"24鄰","STREET":"湖美街","SECT":" ","MAREA":" ","LANE":"７０巷","ALLEY":" ","HOUSE_NO":"６號十四樓之６","E_COORD97":165947.67999999999,"N_COORD97":2544723.3599999999,"ADDRESS":"湖美街７０巷６號十四樓之６","OBJECTID":242060},"geometry":{"x":165947.68000000063,"y":2544723.3600000013}},{"attributes":{"ID":242065,"DIS_CODE":0,"TOWNNAME":"永康區","LI":"三合里","LIN":"24鄰","STREET":"南工街","SECT":" ","MAREA":" ","LANE":"３１１巷","ALLEY":" ","HOUSE_NO":"７９號四樓之１","E_COORD97":171800.12,"N_COORD97":2545806.7999999998,"ADDRESS":"南工街３１１巷７９號四樓之１","OBJECTID":242061},"geometry":{"x":171800.12000000104,"y":2545806.8000000026}},{"attributes":{"ID":242066,"DIS_CODE":0,"TOWNNAME":"永康區","LI":"三合里","LIN":"24鄰","STREET":"南工街","SECT":" ","MAREA":" ","LANE":"２６７巷","ALLEY":" ","HOUSE_NO":"４６號九樓之３","E_COORD97":171855.34,"N_COORD97":2545843.79,"ADDRESS":"南工街２６７巷４６號九樓之３","OBJECTID":242062},"geometry":{"x":171855.33999999985,"y":2545843.7899999991}},{"attributes":{"ID":242067,"DIS_CODE":0,"TOWNNAME":"永康區","LI":"三合里","LIN":"24鄰","STREET":"南工街","SECT":" ","MAREA":" ","LANE":"３１１巷","ALLEY":" ","HOUSE_NO":"７９號五樓之１","E_COORD97":171800.12,"N_COORD97":2545806.7999999998,"ADDRESS":"南工街３１１巷７９號五樓之１","OBJECTID":242063},"geometry":{"x":171800.12000000104,"y":2545806.8000000026}},{"attributes":{"ID":242068,"DIS_CODE":0,"TOWNNAME":"永康區","LI":"三合里","LIN":"24鄰","STREET":"南工街","SECT":" ","MAREA":" ","LANE":"２６７巷","ALLEY":" ","HOUSE_NO":"４６號四樓之２","E_COORD97":171855.38,"N_COORD97":2545843.79,"ADDRESS":"南工街２６７巷４６號四樓之２","OBJECTID":242064},"geometry":{"x":171855.38000000175,"y":2545843.7899999991}},{"attributes":{"ID":242069,"DIS_CODE":0,"TOWNNAME":"永康區","LI":"三合里","LIN":"24鄰","STREET":"南工街","SECT":" ","MAREA":" ","LANE":"２６７巷","ALLEY":" ","HOUSE_NO":"４６號九樓之５","E_COORD97":171855.39999999999,"N_COORD97":2545843.79,"ADDRESS":"南工街２６７巷４６號九樓之５","OBJECTID":242065},"geometry":{"x":171855.40000000037,"y":2545843.7899999991}},{"attributes":{"ID":242070,"DIS_CODE":0,"TOWNNAME":"永康區","LI":"三合里","LIN":"24鄰","STREET":"南工街","SECT":" ","MAREA":" ","LANE":"２６７巷","ALLEY":" ","HOUSE_NO":"４６號二樓之２","E_COORD97":171855.38,"N_COORD97":2545843.79,"ADDRESS":"南工街２６７巷４６號二樓之２","OBJECTID":242066},"geometry":{"x":171855.38000000175,"y":2545843.7899999991}},{"attributes":{"ID":242071,"DIS_CODE":0,"TOWNNAME":"永康區","LI":"三合里","LIN":"24鄰","STREET":"南工街","SECT":" ","MAREA":" ","LANE":"２６７巷","ALLEY":" ","HOUSE_NO":"６６號九樓之２","E_COORD97":171848.04000000001,"N_COORD97":2545837.79,"ADDRESS":"南工街２６７巷６６號九樓之２","OBJECTID":242067},"geometry":{"x":171848.04000000097,"y":2545837.7899999991}},{"attributes":{"ID":242072,"DIS_CODE":0,"TOWNNAME":"永康區","LI":"三合里","LIN":"24鄰","STREET":"南工街","SECT":" ","MAREA":" ","LANE":"２６７巷","ALLEY":" ","HOUSE_NO":"４６號五樓之５","E_COORD97":171855.39999999999,"N_COORD97":2545843.79,"ADDRESS":"南工街２６７巷４６號五樓之５","OBJECTID":242068},"geometry":{"x":171855.40000000037,"y":2545843.7899999991}},{"attributes":{"ID":242073,"DIS_CODE":0,"TOWNNAME":"永康區","LI":"三合里","LIN":"24鄰","STREET":"南工街","SECT":" ","MAREA":" ","LANE":"２６７巷","ALLEY":" ","HOUSE_NO":"５０號九樓之２","E_COORD97":171844.34,"N_COORD97":2545845.04,"ADDRESS":"南工街２６７巷５０號九樓之２","OBJECTID":242069},"geometry":{"x":171844.34000000078,"y":2545845.040000001}},{"attributes":{"ID":242074,"DIS_CODE":0,"TOWNNAME":"永康區","LI":"三合里","LIN":"24鄰","STREET":"南工街","SECT":" ","MAREA":" ","LANE":"３１１巷","ALLEY":" ","HOUSE_NO":"７９號七樓之３","E_COORD97":171800.22,"N_COORD97":2545806.7999999998,"ADDRESS":"南工街３１１巷７９號七樓之３","OBJECTID":242070},"geometry":{"x":171800.2200000016,"y":2545806.8000000026}},{"attributes":{"ID":242075,"DIS_CODE":0,"TOWNNAME":"永康區","LI":"三合里","LIN":"24鄰","STREET":"南工街","SECT":" ","MAREA":" ","LANE":"２６７巷","ALLEY":" ","HOUSE_NO":"６６號三樓之３","E_COORD97":171848,"N_COORD97":2545837.79,"ADDRESS":"南工街２６７巷６６號三樓之３","OBJECTID":242071},"geometry":{"x":171848.00000000093,"y":2545837.7899999991}},{"attributes":{"ID":242076,"DIS_CODE":0,"TOWNNAME":"永康區","LI":"三合里","LIN":"24鄰","STREET":"南工街","SECT":" ","MAREA":" ","LANE":"３１１巷","ALLEY":" ","HOUSE_NO":"７９號七樓之１","E_COORD97":171800.12,"N_COORD97":2545806.7999999998,"ADDRESS":"南工街３１１巷７９號七樓之１","OBJECTID":242072},"geometry":{"x":171800.12000000104,"y":2545806.8000000026}},{"attributes":{"ID":242077,"DIS_CODE":0,"TOWNNAME":"東區","LI":"中西里","LIN":"14鄰","STREET":"東寧路","SECT":" ","MAREA":" ","LANE":" ","ALLEY":" ","HOUSE_NO":"５８號十五樓之２","E_COORD97":170111.59,"N_COORD97":2543575.71,"ADDRESS":"東寧路５８號十五樓之２","OBJECTID":242073},"geometry":{"x":170111.59000000078,"y":2543575.7100000009}},{"attributes":{"ID":242078,"DIS_CODE":0,"TOWNNAME":"東區","LI":"中西里","LIN":"14鄰","STREET":"東寧路","SECT":" ","MAREA":" ","LANE":" ","ALLEY":" ","HOUSE_NO":"７０號三樓","E_COORD97":170138.82999999999,"N_COORD97":2543586.9500000002,"ADDRESS":"東寧路７０號三樓","OBJECTID":242074},"geometry":{"x":170138.83000000101,"y":2543586.9500000011}},{"attributes":{"ID":242079,"DIS_CODE":0,"TOWNNAME":"仁德區","LI":"仁義里","LIN":"39鄰","STREET":"仁義五街","SECT":" ","MAREA":" ","LANE":"２４巷","ALLEY":" ","HOUSE_NO":"９號","E_COORD97":173555.57000000001,"N_COORD97":2540379.5099999998,"ADDRESS":"仁義五街２４巷９號","OBJECTID":242075},"geometry":{"x":173555.5700000003,"y":2540379.5100000035}},{"attributes":{"ID":242080,"DIS_CODE":0,"TOWNNAME":"永康區","LI":"三合里","LIN":"24鄰","STREET":"南工街","SECT":" ","MAREA":" ","LANE":"３１１巷","ALLEY":" ","HOUSE_NO":"７９號八樓之３","E_COORD97":171800.22,"N_COORD97":2545806.7999999998,"ADDRESS":"南工街３１１巷７９號八樓之３","OBJECTID":242076},"geometry":{"x":171800.2200000016,"y":2545806.8000000026}},{"attributes":{"ID":242081,"DIS_CODE":0,"TOWNNAME":"永康區","LI":"三合里","LIN":"24鄰","STREET":"南工街","SECT":" ","MAREA":" ","LANE":"２６７巷","ALLEY":" ","HOUSE_NO":"４６號四樓之３","E_COORD97":171855.34,"N_COORD97":2545843.79,"ADDRESS":"南工街２６７巷４６號四樓之３","OBJECTID":242077},"geometry":{"x":171855.33999999985,"y":2545843.7899999991}},{"attributes":{"ID":242082,"DIS_CODE":0,"TOWNNAME":"永康區","LI":"三合里","LIN":"24鄰","STREET":"南工街","SECT":" ","MAREA":" ","LANE":"２６７巷","ALLEY":" ","HOUSE_NO":"４６號九樓之６","E_COORD97":171855.35000000001,"N_COORD97":2545843.79,"ADDRESS":"南工街２６７巷４６號九樓之６","OBJECTID":242078},"geometry":{"x":171855.35000000056,"y":2545843.7899999991}},{"attributes":{"ID":242083,"DIS_CODE":0,"TOWNNAME":"永康區","LI":"三合里","LIN":"24鄰","STREET":"南工街","SECT":" ","MAREA":" ","LANE":"２６７巷","ALLEY":" ","HOUSE_NO":"４６號二樓之１","E_COORD97":171855.23999999999,"N_COORD97":2545843.79,"ADDRESS":"南工街２６７巷４６號二樓之１","OBJECTID":242079},"geometry":{"x":171855.24000000115,"y":2545843.7899999991}},{"attributes":{"ID":242084,"DIS_CODE":0,"TOWNNAME":"永康區","LI":"三合里","LIN":"24鄰","STREET":"南工街","SECT":" ","MAREA":" ","LANE":"３１１巷","ALLEY":" ","HOUSE_NO":"７９號六樓之２","E_COORD97":171800.26000000001,"N_COORD97":2545806.7999999998,"ADDRESS":"南工街３１１巷７９號六樓之２","OBJECTID":242080},"geometry":{"x":171800.26000000071,"y":2545806.8000000026}},{"attributes":{"ID":242085,"DIS_CODE":0,"TOWNNAME":"永康區","LI":"三合里","LIN":"24鄰","STREET":"南工街","SECT":" ","MAREA":" ","LANE":"２６７巷","ALLEY":" ","HOUSE_NO":"６６號七樓之１","E_COORD97":171847.89999999999,"N_COORD97":2545837.79,"ADDRESS":"南工街２６７巷６６號七樓之１","OBJECTID":242081},"geometry":{"x":171847.9000000013,"y":2545837.7899999991}},{"attributes":{"ID":242086,"DIS_CODE":0,"TOWNNAME":"永康區","LI":"三合里","LIN":"24鄰","STREET":"南工街","SECT":" ","MAREA":" ","LANE":"２６７巷","ALLEY":" ","HOUSE_NO":"５８號十樓之１","E_COORD97":171830.5,"N_COORD97":2545838.54,"ADDRESS":"南工街２６７巷５８號十樓之１","OBJECTID":242082},"geometry":{"x":171830.5,"y":2545838.540000001}},{"attributes":{"ID":242087,"DIS_CODE":0,"TOWNNAME":"永康區","LI":"三合里","LIN":"24鄰","STREET":"南工街","SECT":" ","MAREA":" ","LANE":"２６７巷","ALLEY":" ","HOUSE_NO":"５８號四樓之３","E_COORD97":171830.60000000001,"N_COORD97":2545838.54,"ADDRESS":"南工街２６７巷５８號四樓之３","OBJECTID":242083},"geometry":{"x":171830.60000000056,"y":2545838.540000001}},{"attributes":{"ID":242088,"DIS_CODE":0,"TOWNNAME":"永康區","LI":"三合里","LIN":"24鄰","STREET":"南工街","SECT":" ","MAREA":" ","LANE":"２６７巷","ALLEY":" ","HOUSE_NO":"５８號十樓之７","E_COORD97":171830.57999999999,"N_COORD97":2545838.54,"ADDRESS":"南工街２６７巷５８號十樓之７","OBJECTID":242084},"geometry":{"x":171830.58000000101,"y":2545838.540000001}},{"attributes":{"ID":242089,"DIS_CODE":0,"TOWNNAME":"永康區","LI":"三合里","LIN":"24鄰","STREET":"南工街","SECT":" ","MAREA":" ","LANE":"２６７巷","ALLEY":" ","HOUSE_NO":"６６號十一樓之６","E_COORD97":171849.26000000001,"N_COORD97":2545837.79,"ADDRESS":"南工街２６７巷６６號十一樓之６","OBJECTID":242085},"geometry":{"x":171849.26000000164,"y":2545837.7899999991}},{"attributes":{"ID":242090,"DIS_CODE":0,"TOWNNAME":"永康區","LI":"三合里","LIN":"24鄰","STREET":"南工街","SECT":" ","MAREA":" ","LANE":"２６７巷","ALLEY":" ","HOUSE_NO":"５８號二樓之５","E_COORD97":171830.66,"N_COORD97":2545838.54,"ADDRESS":"南工街２６７巷５８號二樓之５","OBJECTID":242086},"geometry":{"x":171830.66000000108,"y":2545838.540000001}},{"attributes":{"ID":242091,"DIS_CODE":0,"TOWNNAME":"永康區","LI":"三合里","LIN":"24鄰","STREET":"南工街","SECT":" ","MAREA":" ","LANE":"２６７巷","ALLEY":" ","HOUSE_NO":"６６號十一樓之７","E_COORD97":171849.23000000001,"N_COORD97":2545837.79,"ADDRESS":"南工街２６７巷６６號十一樓之７","OBJECTID":242087},"geometry":{"x":171849.23000000138,"y":2545837.7899999991}},{"attributes":{"ID":242092,"DIS_CODE":0,"TOWNNAME":"永康區","LI":"三合里","LIN":"24鄰","STREET":"南工街","SECT":" ","MAREA":" ","LANE":"２６７巷","ALLEY":" ","HOUSE_NO":"６６號七樓之３","E_COORD97":171848,"N_COORD97":2545837.79,"ADDRESS":"南工街２６７巷６６號七樓之３","OBJECTID":242088},"geometry":{"x":171848.00000000093,"y":2545837.7899999991}},{"attributes":{"ID":242093,"DIS_CODE":0,"TOWNNAME":"東區","LI":"中西里","LIN":"14鄰","STREET":"東寧路","SECT":" ","MAREA":" ","LANE":" ","ALLEY":" ","HOUSE_NO":"７０號三樓之１","E_COORD97":170138.82999999999,"N_COORD97":2543586.9500000002,"ADDRESS":"東寧路７０號三樓之１","OBJECTID":242089},"geometry":{"x":170138.83000000101,"y":2543586.9500000011}},{"attributes":{"ID":242094,"DIS_CODE":0,"TOWNNAME":"中西區","LI":"水仙里","LIN":"16鄰","STREET":"西門路","SECT":"二段","MAREA":" ","LANE":"３０７巷","ALLEY":" ","HOUSE_NO":"２２號七樓之３","E_COORD97":167904.78,"N_COORD97":2544199.2200000002,"ADDRESS":"西門路二段３０７巷２２號七樓之３","OBJECTID":242090},"geometry":{"x":167904.77999999933,"y":2544199.2200000007}},{"attributes":{"ID":242095,"DIS_CODE":0,"TOWNNAME":"中西區","LI":"水仙里","LIN":"16鄰","STREET":"西門路","SECT":"二段","MAREA":" ","LANE":"３０７巷","ALLEY":" ","HOUSE_NO":"２２號七樓之４","E_COORD97":167904.78,"N_COORD97":2544199.2200000002,"ADDRESS":"西門路二段３０７巷２２號七樓之４","OBJECTID":242091},"geometry":{"x":167904.77999999933,"y":2544199.2200000007}},{"attributes":{"ID":242096,"DIS_CODE":0,"TOWNNAME":"永康區","LI":"三合里","LIN":"24鄰","STREET":"南工街","SECT":" ","MAREA":" ","LANE":"２６７巷","ALLEY":" ","HOUSE_NO":"５８號六樓之６","E_COORD97":171830.60999999999,"N_COORD97":2545838.54,"ADDRESS":"南工街２６７巷５８號六樓之６","OBJECTID":242092},"geometry":{"x":171830.61000000127,"y":2545838.540000001}},{"attributes":{"ID":242097,"DIS_CODE":0,"TOWNNAME":"永康區","LI":"復國里","LIN":"24鄰","STREET":"復華三街","SECT":" ","MAREA":" ","LANE":"９０巷","ALLEY":" ","HOUSE_NO":"１４號十一樓之２","E_COORD97":172649.14000000001,"N_COORD97":2545581.7999999998,"ADDRESS":"復華三街９０巷１４號十一樓之２","OBJECTID":242093},"geometry":{"x":172649.1400000006,"y":2545581.8000000007}},{"attributes":{"ID":242098,"DIS_CODE":0,"TOWNNAME":"永康區","LI":"復國里","LIN":"24鄰","STREET":"復華三街","SECT":" ","MAREA":" ","LANE":"９０巷","ALLEY":" ","HOUSE_NO":"１４號五樓之２","E_COORD97":172647.89000000001,"N_COORD97":2545581.7999999998,"ADDRESS":"復華三街９０巷１４號五樓之２","OBJECTID":242094},"geometry":{"x":172647.88999999966,"y":2545581.8000000007}},{"attributes":{"ID":242099,"DIS_CODE":0,"TOWNNAME":"永康區","LI":"復國里","LIN":"24鄰","STREET":"復華三街","SECT":" ","MAREA":" ","LANE":"９０巷","ALLEY":" ","HOUSE_NO":"１２號十二樓之５","E_COORD97":172644.04999999999,"N_COORD97":2545582.2999999998,"ADDRESS":"復華三街９０巷１２號十二樓之５","OBJECTID":242095},"geometry":{"x":172644.05000000168,"y":2545582.3000000007}},{"attributes":{"ID":242100,"DIS_CODE":0,"TOWNNAME":"東區","LI":"中西里","LIN":"14鄰","STREET":"東寧路","SECT":" ","MAREA":" ","LANE":" ","ALLEY":" ","HOUSE_NO":"７０號三樓之２","E_COORD97":170138.82999999999,"N_COORD97":2543586.9500000002,"ADDRESS":"東寧路７０號三樓之２","OBJECTID":242096},"geometry":{"x":170138.83000000101,"y":2543586.9500000011}},{"attributes":{"ID":242101,"DIS_CODE":0,"TOWNNAME":"東區","LI":"中西里","LIN":"14鄰","STREET":"東寧路","SECT":" ","MAREA":" ","LANE":" ","ALLEY":" ","HOUSE_NO":"７０號四樓","E_COORD97":170138.82999999999,"N_COORD97":2543586.9500000002,"ADDRESS":"東寧路７０號四樓","OBJECTID":242097},"geometry":{"x":170138.83000000101,"y":2543586.9500000011}},{"attributes":{"ID":242102,"DIS_CODE":0,"TOWNNAME":"關廟區","LI":"香洋里","LIN":"14鄰","STREET":"仁愛路","SECT":" ","MAREA":" ","LANE":" ","ALLEY":" ","HOUSE_NO":"１６號","E_COORD97":181283.94,"N_COORD97":2540091.2799999998,"ADDRESS":"仁愛路１６號","OBJECTID":242098},"geometry":{"x":181283.93999999948,"y":2540091.2799999993}},{"attributes":{"ID":242103,"DIS_CODE":0,"TOWNNAME":"仁德區","LI":"太子里","LIN":"46鄰","STREET":"太子一街","SECT":" ","MAREA":" ","LANE":"４３巷","ALLEY":" ","HOUSE_NO":"１６號","E_COORD97":174802.10999999999,"N_COORD97":2543311.7599999998,"ADDRESS":"太子一街４３巷１６號","OBJECTID":242099},"geometry":{"x":174802.1100000022,"y":2543311.7600000016}},{"attributes":{"ID":242104,"DIS_CODE":0,"TOWNNAME":"仁德區","LI":"仁德里","LIN":"12鄰","STREET":"四維街","SECT":" ","MAREA":" ","LANE":"３１巷","ALLEY":" ","HOUSE_NO":"５號","E_COORD97":173237.17999999999,"N_COORD97":2541496.9900000002,"ADDRESS":"四維街３１巷５號","OBJECTID":242100},"geometry":{"x":173237.1799999997,"y":2541496.9900000021}},{"attributes":{"ID":242105,"DIS_CODE":0,"TOWNNAME":"永康區","LI":"復國里","LIN":"24鄰","STREET":"復華三街","SECT":" ","MAREA":" ","LANE":"９０巷","ALLEY":" ","HOUSE_NO":"１４號五樓之３","E_COORD97":172647.85000000001,"N_COORD97":2545581.7999999998,"ADDRESS":"復華三街９０巷１４號五樓之３","OBJECTID":242101},"geometry":{"x":172647.84999999963,"y":2545581.8000000007}},{"attributes":{"ID":242106,"DIS_CODE":0,"TOWNNAME":"永康區","LI":"復國里","LIN":"24鄰","STREET":"復華三街","SECT":" ","MAREA":" ","LANE":"９０巷","ALLEY":" ","HOUSE_NO":"１２號九樓之４","E_COORD97":172642.67000000001,"N_COORD97":2545582.2999999998,"ADDRESS":"復華三街９０巷１２號九樓之４","OBJECTID":242102},"geometry":{"x":172642.66999999993,"y":2545582.3000000007}},{"attributes":{"ID":242107,"DIS_CODE":0,"TOWNNAME":"永康區","LI":"復國里","LIN":"24鄰","STREET":"復華三街","SECT":" ","MAREA":" ","LANE":"９０巷","ALLEY":" ","HOUSE_NO":"１２號十七樓之３","E_COORD97":172643.98999999999,"N_COORD97":2545582.2999999998,"ADDRESS":"復華三街９０巷１２號十七樓之３","OBJECTID":242103},"geometry":{"x":172643.99000000022,"y":2545582.3000000007}},{"attributes":{"ID":242108,"DIS_CODE":0,"TOWNNAME":"永康區","LI":"復國里","LIN":"24鄰","STREET":"復華三街","SECT":" ","MAREA":" ","LANE":"９０巷","ALLEY":" ","HOUSE_NO":"１２號十三樓之３","E_COORD97":172643.98999999999,"N_COORD97":2545582.2999999998,"ADDRESS":"復華三街９０巷１２號十三樓之３","OBJECTID":242104},"geometry":{"x":172643.99000000022,"y":2545582.3000000007}},{"attributes":{"ID":242109,"DIS_CODE":0,"TOWNNAME":"永康區","LI":"復國里","LIN":"24鄰","STREET":"復華三街","SECT":" ","MAREA":" ","LANE":"９０巷","ALLEY":" ","HOUSE_NO":"１４號十二樓之３","E_COORD97":172649.10000000001,"N_COORD97":2545581.7999999998,"ADDRESS":"復華三街９０巷１４號十二樓之３","OBJECTID":242105},"geometry":{"x":172649.10000000056,"y":2545581.8000000007}},{"attributes":{"ID":242110,"DIS_CODE":0,"TOWNNAME":"永康區","LI":"復國里","LIN":"24鄰","STREET":"復華三街","SECT":" ","MAREA":" ","LANE":"９０巷","ALLEY":" ","HOUSE_NO":"１４號九樓之４","E_COORD97":172647.78,"N_COORD97":2545581.7999999998,"ADDRESS":"復華三街９０巷１４號九樓之４","OBJECTID":242106},"geometry":{"x":172647.78000000026,"y":2545581.8000000007}},{"attributes":{"ID":242111,"DIS_CODE":0,"TOWNNAME":"永康區","LI":"復國里","LIN":"24鄰","STREET":"復華三街","SECT":" ","MAREA":" ","LANE":"９０巷","ALLEY":" ","HOUSE_NO":"１４號十四樓之５","E_COORD97":172649.16,"N_COORD97":2545581.7999999998,"ADDRESS":"復華三街９０巷１４號十四樓之５","OBJECTID":242107},"geometry":{"x":172649.16000000108,"y":2545581.8000000007}},{"attributes":{"ID":242112,"DIS_CODE":0,"TOWNNAME":"永康區","LI":"復國里","LIN":"24鄰","STREET":"復華三街","SECT":" ","MAREA":" ","LANE":"９０巷","ALLEY":" ","HOUSE_NO":"１２號七樓之３","E_COORD97":172642.73999999999,"N_COORD97":2545582.2999999998,"ADDRESS":"復華三街９０巷１２號七樓之３","OBJECTID":242108},"geometry":{"x":172642.74000000022,"y":2545582.3000000007}},{"attributes":{"ID":242113,"DIS_CODE":0,"TOWNNAME":"永康區","LI":"復國里","LIN":"24鄰","STREET":"復華三街","SECT":" ","MAREA":" ","LANE":"９０巷","ALLEY":" ","HOUSE_NO":"１２號十七樓之４","E_COORD97":172643.92000000001,"N_COORD97":2545582.2999999998,"ADDRESS":"復華三街９０巷１２號十七樓之４","OBJECTID":242109},"geometry":{"x":172643.92000000086,"y":2545582.3000000007}},{"attributes":{"ID":242114,"DIS_CODE":0,"TOWNNAME":"永康區","LI":"復國里","LIN":"24鄰","STREET":"復華三街","SECT":" ","MAREA":" ","LANE":"９０巷","ALLEY":" ","HOUSE_NO":"１４號十七樓之３","E_COORD97":172649.10000000001,"N_COORD97":2545581.7999999998,"ADDRESS":"復華三街９０巷１４號十七樓之３","OBJECTID":242110},"geometry":{"x":172649.10000000056,"y":2545581.8000000007}},{"attributes":{"ID":242115,"DIS_CODE":0,"TOWNNAME":"永康區","LI":"復國里","LIN":"24鄰","STREET":"復華三街","SECT":" ","MAREA":" ","LANE":"９０巷","ALLEY":" ","HOUSE_NO":"１４號八樓之５","E_COORD97":172647.91,"N_COORD97":2545581.7999999998,"ADDRESS":"復華三街９０巷１４號八樓之５","OBJECTID":242111},"geometry":{"x":172647.91000000015,"y":2545581.8000000007}},{"attributes":{"ID":242116,"DIS_CODE":0,"TOWNNAME":"東區","LI":"中西里","LIN":"14鄰","STREET":"東寧路","SECT":" ","MAREA":" ","LANE":" ","ALLEY":" ","HOUSE_NO":"７０號四樓之１","E_COORD97":170138.82999999999,"N_COORD97":2543586.9500000002,"ADDRESS":"東寧路７０號四樓之１","OBJECTID":242112},"geometry":{"x":170138.83000000101,"y":2543586.9500000011}},{"attributes":{"ID":242117,"DIS_CODE":0,"TOWNNAME":"仁德區","LI":"仁愛里","LIN":"28鄰","STREET":"大同路","SECT":"三段","MAREA":" ","LANE":"４５６巷","ALLEY":" ","HOUSE_NO":"１８號","E_COORD97":169746.29000000001,"N_COORD97":2539294.5299999998,"ADDRESS":"大同路三段４５６巷１８號","OBJECTID":242113},"geometry":{"x":169746.29000000097,"y":2539294.5300000012}},{"attributes":{"ID":242118,"DIS_CODE":0,"TOWNNAME":"仁德區","LI":"仁德里","LIN":"18鄰","STREET":"文華路","SECT":"三段","MAREA":" ","LANE":"１８９巷","ALLEY":" ","HOUSE_NO":"４０號","E_COORD97":172153.22,"N_COORD97":2540477.5699999998,"ADDRESS":"文華路三段１８９巷４０號","OBJECTID":242114},"geometry":{"x":172153.22000000067,"y":2540477.5699999984}},{"attributes":{"ID":242119,"DIS_CODE":0,"TOWNNAME":"安南區","LI":"四草里","LIN":"8鄰","STREET":"四草大道","SECT":" ","MAREA":" ","LANE":"８１巷","ALLEY":" ","HOUSE_NO":"３００號","E_COORD97":161046.639104,"N_COORD97":2545008.3522800002,"ADDRESS":"四草大道８１巷３００號","OBJECTID":242115},"geometry":{"x":161046.63910400122,"y":2545008.352279}},{"attributes":{"ID":242120,"DIS_CODE":0,"TOWNNAME":"永康區","LI":"復國里","LIN":"24鄰","STREET":"復華三街","SECT":" ","MAREA":" ","LANE":"９０巷","ALLEY":" ","HOUSE_NO":"１２號十七樓之２","E_COORD97":172644.03,"N_COORD97":2545582.2999999998,"ADDRESS":"復華三街９０巷１２號十七樓之２","OBJECTID":242116},"geometry":{"x":172644.03000000026,"y":2545582.3000000007}},{"attributes":{"ID":242121,"DIS_CODE":0,"TOWNNAME":"東區","LI":"中西里","LIN":"14鄰","STREET":"東寧路","SECT":" ","MAREA":" ","LANE":" ","ALLEY":" ","HOUSE_NO":"７０號四樓之２","E_COORD97":170138.82999999999,"N_COORD97":2543586.9500000002,"ADDRESS":"東寧路７０號四樓之２","OBJECTID":242117},"geometry":{"x":170138.83000000101,"y":2543586.9500000011}},{"attributes":{"ID":242122,"DIS_CODE":0,"TOWNNAME":"永康區","LI":"復國里","LIN":"24鄰","STREET":"復華三街","SECT":" ","MAREA":" ","LANE":"９０巷","ALLEY":" ","HOUSE_NO":"１２號八樓之４","E_COORD97":172642.67000000001,"N_COORD97":2545582.2999999998,"ADDRESS":"復華三街９０巷１２號八樓之４","OBJECTID":242118},"geometry":{"x":172642.66999999993,"y":2545582.3000000007}},{"attributes":{"ID":242123,"DIS_CODE":0,"TOWNNAME":"永康區","LI":"復國里","LIN":"24鄰","STREET":"復華三街","SECT":" ","MAREA":" ","LANE":"９０巷","ALLEY":" ","HOUSE_NO":"１２號八樓之５","E_COORD97":172642.79999999999,"N_COORD97":2545582.2999999998,"ADDRESS":"復華三街９０巷１２號八樓之５","OBJECTID":242119},"geometry":{"x":172642.80000000075,"y":2545582.3000000007}},{"attributes":{"ID":242124,"DIS_CODE":0,"TOWNNAME":"永康區","LI":"復國里","LIN":"24鄰","STREET":"復華三街","SECT":" ","MAREA":" ","LANE":"９０巷","ALLEY":" ","HOUSE_NO":"１２號十二樓之２","E_COORD97":172644.03,"N_COORD97":2545582.2999999998,"ADDRESS":"復華三街９０巷１２號十二樓之２","OBJECTID":242120},"geometry":{"x":172644.03000000026,"y":2545582.3000000007}},{"attributes":{"ID":242125,"DIS_CODE":0,"TOWNNAME":"永康區","LI":"復國里","LIN":"24鄰","STREET":"復華三街","SECT":" ","MAREA":" ","LANE":"９０巷","ALLEY":" ","HOUSE_NO":"１４號七樓之５","E_COORD97":172647.91,"N_COORD97":2545581.7999999998,"ADDRESS":"復華三街９０巷１４號七樓之５","OBJECTID":242121},"geometry":{"x":172647.91000000015,"y":2545581.8000000007}},{"attributes":{"ID":242126,"DIS_CODE":0,"TOWNNAME":"永康區","LI":"復國里","LIN":"24鄰","STREET":"復華三街","SECT":" ","MAREA":" ","LANE":"９０巷","ALLEY":" ","HOUSE_NO":"１４號六樓之１","E_COORD97":172647.76000000001,"N_COORD97":2545581.7999999998,"ADDRESS":"復華三街９０巷１４號六樓之１","OBJECTID":242122},"geometry":{"x":172647.76000000071,"y":2545581.8000000007}},{"attributes":{"ID":242127,"DIS_CODE":0,"TOWNNAME":"永康區","LI":"復國里","LIN":"24鄰","STREET":"復華三街","SECT":" ","MAREA":" ","LANE":"９０巷","ALLEY":" ","HOUSE_NO":"１４號六樓之４","E_COORD97":172647.78,"N_COORD97":2545581.7999999998,"ADDRESS":"復華三街９０巷１４號六樓之４","OBJECTID":242123},"geometry":{"x":172647.78000000026,"y":2545581.8000000007}},{"attributes":{"ID":242128,"DIS_CODE":0,"TOWNNAME":"永康區","LI":"復國里","LIN":"24鄰","STREET":"復華三街","SECT":" ","MAREA":" ","LANE":"９０巷","ALLEY":" ","HOUSE_NO":"１２號九樓之２","E_COORD97":172642.78,"N_COORD97":2545582.2999999998,"ADDRESS":"復華三街９０巷１２號九樓之２","OBJECTID":242124},"geometry":{"x":172642.77999999933,"y":2545582.3000000007}},{"attributes":{"ID":242129,"DIS_CODE":0,"TOWNNAME":"永康區","LI":"復國里","LIN":"24鄰","STREET":"復華三街","SECT":" ","MAREA":" ","LANE":"９０巷","ALLEY":" ","HOUSE_NO":"１４號十六樓之４","E_COORD97":172649.03,"N_COORD97":2545581.7999999998,"ADDRESS":"復華三街９０巷１４號十六樓之４","OBJECTID":242125},"geometry":{"x":172649.03000000026,"y":2545581.8000000007}},{"attributes":{"ID":242130,"DIS_CODE":0,"TOWNNAME":"永康區","LI":"復國里","LIN":"24鄰","STREET":"復華三街","SECT":" ","MAREA":" ","LANE":"９０巷","ALLEY":" ","HOUSE_NO":"１４號八樓之３","E_COORD97":172647.85000000001,"N_COORD97":2545581.7999999998,"ADDRESS":"復華三街９０巷１４號八樓之３","OBJECTID":242126},"geometry":{"x":172647.84999999963,"y":2545581.8000000007}},{"attributes":{"ID":242131,"DIS_CODE":0,"TOWNNAME":"永康區","LI":"復國里","LIN":"24鄰","STREET":"復華三街","SECT":" ","MAREA":" ","LANE":"９０巷","ALLEY":" ","HOUSE_NO":"１２號十五樓之４","E_COORD97":172643.92000000001,"N_COORD97":2545582.2999999998,"ADDRESS":"復華三街９０巷１２號十五樓之４","OBJECTID":242127},"geometry":{"x":172643.92000000086,"y":2545582.3000000007}},{"attributes":{"ID":242132,"DIS_CODE":0,"TOWNNAME":"永康區","LI":"復國里","LIN":"24鄰","STREET":"復華三街","SECT":" ","MAREA":" ","LANE":"９０巷","ALLEY":" ","HOUSE_NO":"１４號七樓之２","E_COORD97":172647.89000000001,"N_COORD97":2545581.7999999998,"ADDRESS":"復華三街９０巷１４號七樓之２","OBJECTID":242128},"geometry":{"x":172647.88999999966,"y":2545581.8000000007}},{"attributes":{"ID":242133,"DIS_CODE":0,"TOWNNAME":"仁德區","LI":"仁德里","LIN":"39鄰","STREET":"文華路","SECT":"三段","MAREA":" ","LANE":"６１８巷","ALLEY":" ","HOUSE_NO":"３８號","E_COORD97":172638.23999999999,"N_COORD97":2541855.5800000001,"ADDRESS":"文華路三段６１８巷３８號","OBJECTID":242129},"geometry":{"x":172638.24000000115,"y":2541855.5800000019}},{"attributes":{"ID":242134,"DIS_CODE":0,"TOWNNAME":"永康區","LI":"復國里","LIN":"24鄰","STREET":"復華三街","SECT":" ","MAREA":" ","LANE":"９０巷","ALLEY":" ","HOUSE_NO":"１２號十五樓之１","E_COORD97":172643.89999999999,"N_COORD97":2545582.2999999998,"ADDRESS":"復華三街９０巷１２號十五樓之１","OBJECTID":242130},"geometry":{"x":172643.90000000224,"y":2545582.3000000007}},{"attributes":{"ID":242135,"DIS_CODE":0,"TOWNNAME":"永康區","LI":"復國里","LIN":"24鄰","STREET":"復華三街","SECT":" ","MAREA":" ","LANE":"９０巷","ALLEY":" ","HOUSE_NO":"１４號九樓之２","E_COORD97":172647.89000000001,"N_COORD97":2545581.7999999998,"ADDRESS":"復華三街９０巷１４號九樓之２","OBJECTID":242131},"geometry":{"x":172647.88999999966,"y":2545581.8000000007}},{"attributes":{"ID":242136,"DIS_CODE":0,"TOWNNAME":"永康區","LI":"復國里","LIN":"24鄰","STREET":"復華三街","SECT":" ","MAREA":" ","LANE":"９０巷","ALLEY":" ","HOUSE_NO":"１４號九樓之１","E_COORD97":172647.76000000001,"N_COORD97":2545581.7999999998,"ADDRESS":"復華三街９０巷１４號九樓之１","OBJECTID":242132},"geometry":{"x":172647.76000000071,"y":2545581.8000000007}},{"attributes":{"ID":242137,"DIS_CODE":0,"TOWNNAME":"永康區","LI":"復國里","LIN":"24鄰","STREET":"復華三街","SECT":" ","MAREA":" ","LANE":"９０巷","ALLEY":" ","HOUSE_NO":"１２號十三樓之２","E_COORD97":172644.03,"N_COORD97":2545582.2999999998,"ADDRESS":"復華三街９０巷１２號十三樓之２","OBJECTID":242133},"geometry":{"x":172644.03000000026,"y":2545582.3000000007}},{"attributes":{"ID":242138,"DIS_CODE":0,"TOWNNAME":"永康區","LI":"復國里","LIN":"24鄰","STREET":"復華三街","SECT":" ","MAREA":" ","LANE":"９０巷","ALLEY":" ","HOUSE_NO":"１４號十樓之２","E_COORD97":172647.89000000001,"N_COORD97":2545581.7999999998,"ADDRESS":"復華三街９０巷１４號十樓之２","OBJECTID":242134},"geometry":{"x":172647.88999999966,"y":2545581.8000000007}},{"attributes":{"ID":242139,"DIS_CODE":0,"TOWNNAME":"永康區","LI":"復國里","LIN":"24鄰","STREET":"復華三街","SECT":" ","MAREA":" ","LANE":"９０巷","ALLEY":" ","HOUSE_NO":"１４號十二樓之４","E_COORD97":172649.03,"N_COORD97":2545581.7999999998,"ADDRESS":"復華三街９０巷１４號十二樓之４","OBJECTID":242135},"geometry":{"x":172649.03000000026,"y":2545581.8000000007}},{"attributes":{"ID":242140,"DIS_CODE":0,"TOWNNAME":"永康區","LI":"復國里","LIN":"24鄰","STREET":"復華三街","SECT":" ","MAREA":" ","LANE":"９０巷","ALLEY":" ","HOUSE_NO":"１２號九樓之３","E_COORD97":172642.73999999999,"N_COORD97":2545582.2999999998,"ADDRESS":"復華三街９０巷１２號九樓之３","OBJECTID":242136},"geometry":{"x":172642.74000000022,"y":2545582.3000000007}},{"attributes":{"ID":242141,"DIS_CODE":0,"TOWNNAME":"永康區","LI":"復國里","LIN":"24鄰","STREET":"復華三街","SECT":" ","MAREA":" ","LANE":"９０巷","ALLEY":" ","HOUSE_NO":"１２號四樓","E_COORD97":172640.51000000001,"N_COORD97":2545582.2799999998,"ADDRESS":"復華三街９０巷１２號四樓","OBJECTID":242137},"geometry":{"x":172640.50999999978,"y":2545582.2800000012}},{"attributes":{"ID":242142,"DIS_CODE":0,"TOWNNAME":"永康區","LI":"復國里","LIN":"24鄰","STREET":"復華三街","SECT":" ","MAREA":" ","LANE":"９０巷","ALLEY":" ","HOUSE_NO":"１２號六樓之５","E_COORD97":172642.79999999999,"N_COORD97":2545582.2999999998,"ADDRESS":"復華三街９０巷１２號六樓之５","OBJECTID":242138},"geometry":{"x":172642.80000000075,"y":2545582.3000000007}},{"attributes":{"ID":242143,"DIS_CODE":0,"TOWNNAME":"永康區","LI":"復國里","LIN":"24鄰","STREET":"復華三街","SECT":" ","MAREA":" ","LANE":"９０巷","ALLEY":" ","HOUSE_NO":"１４號八樓之４","E_COORD97":172647.78,"N_COORD97":2545581.7999999998,"ADDRESS":"復華三街９０巷１４號八樓之４","OBJECTID":242139},"geometry":{"x":172647.78000000026,"y":2545581.8000000007}},{"attributes":{"ID":242144,"DIS_CODE":0,"TOWNNAME":"永康區","LI":"復國里","LIN":"24鄰","STREET":"復華三街","SECT":" ","MAREA":" ","LANE":"９０巷","ALLEY":" ","HOUSE_NO":"１４號十七樓之５","E_COORD97":172649.16,"N_COORD97":2545581.7999999998,"ADDRESS":"復華三街９０巷１４號十七樓之５","OBJECTID":242140},"geometry":{"x":172649.16000000108,"y":2545581.8000000007}},{"attributes":{"ID":242145,"DIS_CODE":0,"TOWNNAME":"永康區","LI":"復國里","LIN":"24鄰","STREET":"復華三街","SECT":" ","MAREA":" ","LANE":"９０巷","ALLEY":" ","HOUSE_NO":"１４號九樓之３","E_COORD97":172647.85000000001,"N_COORD97":2545581.7999999998,"ADDRESS":"復華三街９０巷１４號九樓之３","OBJECTID":242141},"geometry":{"x":172647.84999999963,"y":2545581.8000000007}},{"attributes":{"ID":242146,"DIS_CODE":0,"TOWNNAME":"永康區","LI":"復國里","LIN":"24鄰","STREET":"復華三街","SECT":" ","MAREA":" ","LANE":"９０巷","ALLEY":" ","HOUSE_NO":"１４號十一樓之１","E_COORD97":172649.01000000001,"N_COORD97":2545581.7999999998,"ADDRESS":"復華三街９０巷１４號十一樓之１","OBJECTID":242142},"geometry":{"x":172649.00999999978,"y":2545581.8000000007}},{"attributes":{"ID":242147,"DIS_CODE":0,"TOWNNAME":"永康區","LI":"復國里","LIN":"24鄰","STREET":"復華三街","SECT":" ","MAREA":" ","LANE":"９０巷","ALLEY":" ","HOUSE_NO":"１２號七樓之５","E_COORD97":172642.79999999999,"N_COORD97":2545582.2999999998,"ADDRESS":"復華三街９０巷１２號七樓之５","OBJECTID":242143},"geometry":{"x":172642.80000000075,"y":2545582.3000000007}},{"attributes":{"ID":242148,"DIS_CODE":0,"TOWNNAME":"下營區","LI":"紅厝里","LIN":"16鄰","STREET":" ","SECT":" ","MAREA":"紅毛厝","LANE":" ","ALLEY":" ","HOUSE_NO":"１１８號","E_COORD97":175019.70999999999,"N_COORD97":2571393.3500000001,"ADDRESS":"紅毛厝１１８號","OBJECTID":242144},"geometry":{"x":175019.71000000183,"y":2571393.3500000015}},{"attributes":{"ID":242149,"DIS_CODE":0,"TOWNNAME":"永康區","LI":"復國里","LIN":"24鄰","STREET":"復華三街","SECT":" ","MAREA":" ","LANE":"９０巷","ALLEY":" ","HOUSE_NO":"１４號八樓之２","E_COORD97":172647.89000000001,"N_COORD97":2545581.7999999998,"ADDRESS":"復華三街９０巷１４號八樓之２","OBJECTID":242145},"geometry":{"x":172647.88999999966,"y":2545581.8000000007}},{"attributes":{"ID":242150,"DIS_CODE":0,"TOWNNAME":"永康區","LI":"復國里","LIN":"24鄰","STREET":"復華三街","SECT":" ","MAREA":" ","LANE":"９０巷","ALLEY":" ","HOUSE_NO":"１４號六樓之５","E_COORD97":172647.91,"N_COORD97":2545581.7999999998,"ADDRESS":"復華三街９０巷１４號六樓之５","OBJECTID":242146},"geometry":{"x":172647.91000000015,"y":2545581.8000000007}},{"attributes":{"ID":242151,"DIS_CODE":0,"TOWNNAME":"永康區","LI":"復國里","LIN":"24鄰","STREET":"復華三街","SECT":" ","MAREA":" ","LANE":"９０巷","ALLEY":" ","HOUSE_NO":"１４號十七樓之４","E_COORD97":172649.03,"N_COORD97":2545581.7999999998,"ADDRESS":"復華三街９０巷１４號十七樓之４","OBJECTID":242147},"geometry":{"x":172649.03000000026,"y":2545581.8000000007}},{"attributes":{"ID":242152,"DIS_CODE":0,"TOWNNAME":"永康區","LI":"復國里","LIN":"24鄰","STREET":"復華三街","SECT":" ","MAREA":" ","LANE":"９０巷","ALLEY":" ","HOUSE_NO":"１４號十樓之５","E_COORD97":172647.91,"N_COORD97":2545581.7999999998,"ADDRESS":"復華三街９０巷１４號十樓之５","OBJECTID":242148},"geometry":{"x":172647.91000000015,"y":2545581.8000000007}},{"attributes":{"ID":242153,"DIS_CODE":0,"TOWNNAME":"永康區","LI":"復國里","LIN":"24鄰","STREET":"復華三街","SECT":" ","MAREA":" ","LANE":"９０巷","ALLEY":" ","HOUSE_NO":"１２號十五樓之５","E_COORD97":172644.04999999999,"N_COORD97":2545582.2999999998,"ADDRESS":"復華三街９０巷１２號十五樓之５","OBJECTID":242149},"geometry":{"x":172644.05000000168,"y":2545582.3000000007}},{"attributes":{"ID":242154,"DIS_CODE":0,"TOWNNAME":"永康區","LI":"復國里","LIN":"24鄰","STREET":"復華三街","SECT":" ","MAREA":" ","LANE":"９０巷","ALLEY":" ","HOUSE_NO":"１４號十六樓之２","E_COORD97":172649.14000000001,"N_COORD97":2545581.7999999998,"ADDRESS":"復華三街９０巷１４號十六樓之２","OBJECTID":242150},"geometry":{"x":172649.1400000006,"y":2545581.8000000007}},{"attributes":{"ID":242155,"DIS_CODE":0,"TOWNNAME":"永康區","LI":"復國里","LIN":"24鄰","STREET":"復華三街","SECT":" ","MAREA":" ","LANE":"９０巷","ALLEY":" ","HOUSE_NO":"１４號十三樓之２","E_COORD97":172649.14000000001,"N_COORD97":2545581.7999999998,"ADDRESS":"復華三街９０巷１４號十三樓之２","OBJECTID":242151},"geometry":{"x":172649.1400000006,"y":2545581.8000000007}},{"attributes":{"ID":242156,"DIS_CODE":0,"TOWNNAME":"永康區","LI":"復國里","LIN":"24鄰","STREET":"復華三街","SECT":" ","MAREA":" ","LANE":"９０巷","ALLEY":" ","HOUSE_NO":"１２號十三樓之５","E_COORD97":172644.04999999999,"N_COORD97":2545582.2999999998,"ADDRESS":"復華三街９０巷１２號十三樓之５","OBJECTID":242152},"geometry":{"x":172644.05000000168,"y":2545582.3000000007}},{"attributes":{"ID":242157,"DIS_CODE":0,"TOWNNAME":"永康區","LI":"復國里","LIN":"24鄰","STREET":"復華三街","SECT":" ","MAREA":" ","LANE":"９０巷","ALLEY":" ","HOUSE_NO":"１２號九樓之５","E_COORD97":172642.79999999999,"N_COORD97":2545582.2999999998,"ADDRESS":"復華三街９０巷１２號九樓之５","OBJECTID":242153},"geometry":{"x":172642.80000000075,"y":2545582.3000000007}},{"attributes":{"ID":242158,"DIS_CODE":0,"TOWNNAME":"永康區","LI":"復國里","LIN":"24鄰","STREET":"復華三街","SECT":" ","MAREA":" ","LANE":"９０巷","ALLEY":" ","HOUSE_NO":"１２號五樓之３","E_COORD97":172642.73999999999,"N_COORD97":2545582.2999999998,"ADDRESS":"復華三街９０巷１２號五樓之３","OBJECTID":242154},"geometry":{"x":172642.74000000022,"y":2545582.3000000007}},{"attributes":{"ID":242159,"DIS_CODE":0,"TOWNNAME":"永康區","LI":"復國里","LIN":"24鄰","STREET":"復華三街","SECT":" ","MAREA":" ","LANE":"９０巷","ALLEY":" ","HOUSE_NO":"１２號十樓之２","E_COORD97":172642.78,"N_COORD97":2545582.2999999998,"ADDRESS":"復華三街９０巷１２號十樓之２","OBJECTID":242155},"geometry":{"x":172642.77999999933,"y":2545582.3000000007}},{"attributes":{"ID":242160,"DIS_CODE":0,"TOWNNAME":"東區","LI":"中西里","LIN":"14鄰","STREET":"東寧路","SECT":" ","MAREA":" ","LANE":" ","ALLEY":" ","HOUSE_NO":"７０號五樓","E_COORD97":170138.82999999999,"N_COORD97":2543586.9500000002,"ADDRESS":"東寧路７０號五樓","OBJECTID":242156},"geometry":{"x":170138.83000000101,"y":2543586.9500000011}},{"attributes":{"ID":242161,"DIS_CODE":0,"TOWNNAME":"東區","LI":"中西里","LIN":"14鄰","STREET":"東寧路","SECT":" ","MAREA":" ","LANE":" ","ALLEY":" ","HOUSE_NO":"７０號五樓之１","E_COORD97":170138.82999999999,"N_COORD97":2543586.9500000002,"ADDRESS":"東寧路７０號五樓之１","OBJECTID":242157},"geometry":{"x":170138.83000000101,"y":2543586.9500000011}},{"attributes":{"ID":242162,"DIS_CODE":0,"TOWNNAME":"東區","LI":"自強里","LIN":"16鄰","STREET":"中華東路","SECT":"二段","MAREA":" ","LANE":"２９５巷","ALLEY":" ","HOUSE_NO":"５３號七樓","E_COORD97":171255.53,"N_COORD97":2542506.8300000001,"ADDRESS":"中華東路二段２９５巷５３號七樓","OBJECTID":242158},"geometry":{"x":171255.53000000026,"y":2542506.8300000038}},{"attributes":{"ID":242163,"DIS_CODE":0,"TOWNNAME":"東區","LI":"自強里","LIN":"16鄰","STREET":"中華東路","SECT":"二段","MAREA":" ","LANE":"２９５巷","ALLEY":" ","HOUSE_NO":"５３號七樓之１","E_COORD97":171255.53,"N_COORD97":2542506.8300000001,"ADDRESS":"中華東路二段２９５巷５３號七樓之１","OBJECTID":242159},"geometry":{"x":171255.53000000026,"y":2542506.8300000038}},{"attributes":{"ID":242164,"DIS_CODE":0,"TOWNNAME":"東區","LI":"自強里","LIN":"16鄰","STREET":"中華東路","SECT":"二段","MAREA":" ","LANE":"２９５巷","ALLEY":" ","HOUSE_NO":"５３號七樓之２","E_COORD97":171272.26999999999,"N_COORD97":2542509.8500000001,"ADDRESS":"中華東路二段２９５巷５３號七樓之２","OBJECTID":242160},"geometry":{"x":171272.26999999955,"y":2542509.8500000015}},{"attributes":{"ID":242165,"DIS_CODE":0,"TOWNNAME":"永康區","LI":"復國里","LIN":"24鄰","STREET":"復華三街","SECT":" ","MAREA":" ","LANE":"９０巷","ALLEY":" ","HOUSE_NO":"１２號十六樓之２","E_COORD97":172644.03,"N_COORD97":2545582.2999999998,"ADDRESS":"復華三街９０巷１２號十六樓之２","OBJECTID":242161},"geometry":{"x":172644.03000000026,"y":2545582.3000000007}},{"attributes":{"ID":242166,"DIS_CODE":0,"TOWNNAME":"永康區","LI":"復國里","LIN":"24鄰","STREET":"復華三街","SECT":" ","MAREA":" ","LANE":"９０巷","ALLEY":" ","HOUSE_NO":"１４號六樓之３","E_COORD97":172647.85000000001,"N_COORD97":2545581.7999999998,"ADDRESS":"復華三街９０巷１４號六樓之３","OBJECTID":242162},"geometry":{"x":172647.84999999963,"y":2545581.8000000007}},{"attributes":{"ID":242167,"DIS_CODE":0,"TOWNNAME":"永康區","LI":"復國里","LIN":"24鄰","STREET":"復華三街","SECT":" ","MAREA":" ","LANE":"９０巷","ALLEY":" ","HOUSE_NO":"１２號十二樓之４","E_COORD97":172643.92000000001,"N_COORD97":2545582.2999999998,"ADDRESS":"復華三街９０巷１２號十二樓之４","OBJECTID":242163},"geometry":{"x":172643.92000000086,"y":2545582.3000000007}},{"attributes":{"ID":242168,"DIS_CODE":0,"TOWNNAME":"北區","LI":"重興里","LIN":"25鄰","STREET":"東豐路","SECT":" ","MAREA":" ","LANE":"４５１巷","ALLEY":" ","HOUSE_NO":"４５號","E_COORD97":170844.53,"N_COORD97":2544855.9500000002,"ADDRESS":"東豐路４５１巷４５號","OBJECTID":242164},"geometry":{"x":170844.53000000119,"y":2544855.9500000011}},{"attributes":{"ID":242169,"DIS_CODE":0,"TOWNNAME":"北區","LI":"重興里","LIN":"25鄰","STREET":"東豐路","SECT":" ","MAREA":" ","LANE":"４５１巷","ALLEY":" ","HOUSE_NO":"４７號","E_COORD97":170850.59,"N_COORD97":2544864.3700000001,"ADDRESS":"東豐路４５１巷４７號","OBJECTID":242165},"geometry":{"x":170850.59000000078,"y":2544864.3700000029}},{"attributes":{"ID":242170,"DIS_CODE":0,"TOWNNAME":"北區","LI":"重興里","LIN":"25鄰","STREET":"東豐路","SECT":" ","MAREA":" ","LANE":"４５１巷","ALLEY":" ","HOUSE_NO":"４９號","E_COORD97":170855.60999999999,"N_COORD97":2544872.6000000001,"ADDRESS":"東豐路４５１巷４９號","OBJECTID":242166},"geometry":{"x":170855.6099999994,"y":2544872.5999999996}},{"attributes":{"ID":242171,"DIS_CODE":0,"TOWNNAME":"北區","LI":"重興里","LIN":"25鄰","STREET":"東豐路","SECT":" ","MAREA":" ","LANE":"４５１巷","ALLEY":" ","HOUSE_NO":"５１號","E_COORD97":170861.29999999999,"N_COORD97":2544881.46,"ADDRESS":"東豐路４５１巷５１號","OBJECTID":242167},"geometry":{"x":170861.30000000075,"y":2544881.4600000028}},{"attributes":{"ID":242172,"DIS_CODE":0,"TOWNNAME":"永康區","LI":"三合里","LIN":"24鄰","STREET":"南工街","SECT":" ","MAREA":" ","LANE":"２６７巷","ALLEY":" ","HOUSE_NO":"６６號九樓之７","E_COORD97":171847.98000000001,"N_COORD97":2545837.79,"ADDRESS":"南工街２６７巷６６號九樓之７","OBJECTID":242168},"geometry":{"x":171847.98000000045,"y":2545837.7899999991}},{"attributes":{"ID":242173,"DIS_CODE":0,"TOWNNAME":"永康區","LI":"三合里","LIN":"24鄰","STREET":"南工街","SECT":" ","MAREA":" ","LANE":"２６７巷","ALLEY":" ","HOUSE_NO":"５８號五樓之１","E_COORD97":171830.5,"N_COORD97":2545838.54,"ADDRESS":"南工街２６７巷５８號五樓之１","OBJECTID":242169},"geometry":{"x":171830.5,"y":2545838.540000001}},{"attributes":{"ID":242174,"DIS_CODE":0,"TOWNNAME":"永康區","LI":"三合里","LIN":"24鄰","STREET":"南工街","SECT":" ","MAREA":" ","LANE":"２６７巷","ALLEY":" ","HOUSE_NO":"５８號十一樓之５","E_COORD97":171831.91,"N_COORD97":2545838.54,"ADDRESS":"南工街２６７巷５８號十一樓之５","OBJECTID":242170},"geometry":{"x":171831.91000000108,"y":2545838.540000001}},{"attributes":{"ID":242175,"DIS_CODE":0,"TOWNNAME":"永康區","LI":"三合里","LIN":"24鄰","STREET":"南工街","SECT":" ","MAREA":" ","LANE":"２６７巷","ALLEY":" ","HOUSE_NO":"５８號十一樓之７","E_COORD97":171831.82999999999,"N_COORD97":2545838.54,"ADDRESS":"南工街２６７巷５８號十一樓之７","OBJECTID":242171},"geometry":{"x":171831.83000000007,"y":2545838.540000001}},{"attributes":{"ID":242176,"DIS_CODE":0,"TOWNNAME":"永康區","LI":"三合里","LIN":"24鄰","STREET":"南工街","SECT":" ","MAREA":" ","LANE":"２６７巷","ALLEY":" ","HOUSE_NO":"６６號六樓之５","E_COORD97":171848.06,"N_COORD97":2545837.79,"ADDRESS":"南工街２６７巷６６號六樓之５","OBJECTID":242172},"geometry":{"x":171848.05999999959,"y":2545837.7899999991}},{"attributes":{"ID":242177,"DIS_CODE":0,"TOWNNAME":"永康區","LI":"三合里","LIN":"24鄰","STREET":"南工街","SECT":" ","MAREA":" ","LANE":"２６７巷","ALLEY":" ","HOUSE_NO":"６６號七樓之７","E_COORD97":171847.98000000001,"N_COORD97":2545837.79,"ADDRESS":"南工街２６７巷６６號七樓之７","OBJECTID":242173},"geometry":{"x":171847.98000000045,"y":2545837.7899999991}},{"attributes":{"ID":242178,"DIS_CODE":0,"TOWNNAME":"永康區","LI":"三合里","LIN":"24鄰","STREET":"南工街","SECT":" ","MAREA":" ","LANE":"２６７巷","ALLEY":" ","HOUSE_NO":"６６號八樓之１","E_COORD97":171847.89999999999,"N_COORD97":2545837.79,"ADDRESS":"南工街２６７巷６６號八樓之１","OBJECTID":242174},"geometry":{"x":171847.9000000013,"y":2545837.7899999991}},{"attributes":{"ID":242179,"DIS_CODE":0,"TOWNNAME":"永康區","LI":"三合里","LIN":"24鄰","STREET":"南工街","SECT":" ","MAREA":" ","LANE":"２６７巷","ALLEY":" ","HOUSE_NO":"６６號八樓之６","E_COORD97":171848.01000000001,"N_COORD97":2545837.79,"ADDRESS":"南工街２６７巷６６號八樓之６","OBJECTID":242175},"geometry":{"x":171848.01000000071,"y":2545837.7899999991}},{"attributes":{"ID":242180,"DIS_CODE":0,"TOWNNAME":"永康區","LI":"三合里","LIN":"24鄰","STREET":"南工街","SECT":" ","MAREA":" ","LANE":"２６７巷","ALLEY":" ","HOUSE_NO":"５８號五樓之２","E_COORD97":171830.64000000001,"N_COORD97":2545838.54,"ADDRESS":"南工街２６７巷５８號五樓之２","OBJECTID":242176},"geometry":{"x":171830.63999999966,"y":2545838.540000001}},{"attributes":{"ID":242181,"DIS_CODE":0,"TOWNNAME":"東區","LI":"中西里","LIN":"14鄰","STREET":"東寧路","SECT":" ","MAREA":" ","LANE":" ","ALLEY":" ","HOUSE_NO":"７０號五樓之２","E_COORD97":170138.82999999999,"N_COORD97":2543586.9500000002,"ADDRESS":"東寧路７０號五樓之２","OBJECTID":242177},"geometry":{"x":170138.83000000101,"y":2543586.9500000011}},{"attributes":{"ID":242182,"DIS_CODE":0,"TOWNNAME":"東區","LI":"中西里","LIN":"14鄰","STREET":"東寧路","SECT":" ","MAREA":" ","LANE":" ","ALLEY":" ","HOUSE_NO":"７０號六樓","E_COORD97":170138.82999999999,"N_COORD97":2543586.9500000002,"ADDRESS":"東寧路７０號六樓","OBJECTID":242178},"geometry":{"x":170138.83000000101,"y":2543586.9500000011}},{"attributes":{"ID":242183,"DIS_CODE":0,"TOWNNAME":"東區","LI":"中西里","LIN":"14鄰","STREET":"東寧路","SECT":" ","MAREA":" ","LANE":" ","ALLEY":" ","HOUSE_NO":"７０號九樓之１","E_COORD97":170138.82999999999,"N_COORD97":2543586.9500000002,"ADDRESS":"東寧路７０號九樓之１","OBJECTID":242179},"geometry":{"x":170138.83000000101,"y":2543586.9500000011}},{"attributes":{"ID":242184,"DIS_CODE":0,"TOWNNAME":"東區","LI":"中西里","LIN":"14鄰","STREET":"東寧路","SECT":" ","MAREA":" ","LANE":" ","ALLEY":" ","HOUSE_NO":"７０號九樓之２","E_COORD97":170138.82999999999,"N_COORD97":2543586.9500000002,"ADDRESS":"東寧路７０號九樓之２","OBJECTID":242180},"geometry":{"x":170138.83000000101,"y":2543586.9500000011}},{"attributes":{"ID":242185,"DIS_CODE":0,"TOWNNAME":"中西區","LI":"三合里","LIN":"16鄰","STREET":"信義街","SECT":" ","MAREA":" ","LANE":"１０８巷","ALLEY":" ","HOUSE_NO":"５５號二樓之１","E_COORD97":167482.20000000001,"N_COORD97":2544642.7799999998,"ADDRESS":"信義街１０８巷５５號二樓之１","OBJECTID":242181},"geometry":{"x":167482.20000000112,"y":2544642.7800000012}},{"attributes":{"ID":242186,"DIS_CODE":0,"TOWNNAME":"永康區","LI":"三合里","LIN":"24鄰","STREET":"南工街","SECT":" ","MAREA":" ","LANE":"２６７巷","ALLEY":" ","HOUSE_NO":"５８號六樓之３","E_COORD97":171830.60000000001,"N_COORD97":2545838.54,"ADDRESS":"南工街２６７巷５８號六樓之３","OBJECTID":242182},"geometry":{"x":171830.60000000056,"y":2545838.540000001}},{"attributes":{"ID":242187,"DIS_CODE":0,"TOWNNAME":"永康區","LI":"三合里","LIN":"24鄰","STREET":"南工街","SECT":" ","MAREA":" ","LANE":"２６７巷","ALLEY":" ","HOUSE_NO":"５０號二樓之３","E_COORD97":171844.29999999999,"N_COORD97":2545845.04,"ADDRESS":"南工街２６７巷５０號二樓之３","OBJECTID":242183},"geometry":{"x":171844.30000000075,"y":2545845.040000001}},{"attributes":{"ID":242188,"DIS_CODE":0,"TOWNNAME":"永康區","LI":"三合里","LIN":"24鄰","STREET":"南工街","SECT":" ","MAREA":" ","LANE":"２６７巷","ALLEY":" ","HOUSE_NO":"５０號二樓之２","E_COORD97":171844.34,"N_COORD97":2545845.04,"ADDRESS":"南工街２６７巷５０號二樓之２","OBJECTID":242184},"geometry":{"x":171844.34000000078,"y":2545845.040000001}},{"attributes":{"ID":242189,"DIS_CODE":0,"TOWNNAME":"永康區","LI":"三合里","LIN":"24鄰","STREET":"南工街","SECT":" ","MAREA":" ","LANE":"２６７巷","ALLEY":" ","HOUSE_NO":"５８號六樓之７","E_COORD97":171830.57999999999,"N_COORD97":2545838.54,"ADDRESS":"南工街２６７巷５８號六樓之７","OBJECTID":242185},"geometry":{"x":171830.58000000101,"y":2545838.540000001}},{"attributes":{"ID":242190,"DIS_CODE":0,"TOWNNAME":"永康區","LI":"三合里","LIN":"24鄰","STREET":"南工街","SECT":" ","MAREA":" ","LANE":"２６７巷","ALLEY":" ","HOUSE_NO":"６６號四樓之３","E_COORD97":171848,"N_COORD97":2545837.79,"ADDRESS":"南工街２６７巷６６號四樓之３","OBJECTID":242186},"geometry":{"x":171848.00000000093,"y":2545837.7899999991}},{"attributes":{"ID":242191,"DIS_CODE":0,"TOWNNAME":"永康區","LI":"三合里","LIN":"24鄰","STREET":"南工街","SECT":" ","MAREA":" ","LANE":"２６７巷","ALLEY":" ","HOUSE_NO":"６６號七樓之５","E_COORD97":171848.06,"N_COORD97":2545837.79,"ADDRESS":"南工街２６７巷６６號七樓之５","OBJECTID":242187},"geometry":{"x":171848.05999999959,"y":2545837.7899999991}},{"attributes":{"ID":242192,"DIS_CODE":0,"TOWNNAME":"東區","LI":"中西里","LIN":"14鄰","STREET":"東寧路","SECT":" ","MAREA":" ","LANE":" ","ALLEY":" ","HOUSE_NO":"７０號十樓","E_COORD97":170138.82999999999,"N_COORD97":2543586.9500000002,"ADDRESS":"東寧路７０號十樓","OBJECTID":242188},"geometry":{"x":170138.83000000101,"y":2543586.9500000011}},{"attributes":{"ID":242193,"DIS_CODE":0,"TOWNNAME":"東區","LI":"中西里","LIN":"14鄰","STREET":"東寧路","SECT":" ","MAREA":" ","LANE":" ","ALLEY":" ","HOUSE_NO":"７０號十樓之１","E_COORD97":170138.82999999999,"N_COORD97":2543586.9500000002,"ADDRESS":"東寧路７０號十樓之１","OBJECTID":242189},"geometry":{"x":170138.83000000101,"y":2543586.9500000011}},{"attributes":{"ID":242194,"DIS_CODE":0,"TOWNNAME":"仁德區","LI":"仁義里","LIN":"13鄰","STREET":"中山路","SECT":" ","MAREA":" ","LANE":"１２４巷","ALLEY":" ","HOUSE_NO":"９號","E_COORD97":174626.41,"N_COORD97":2541212.9900000002,"ADDRESS":"中山路１２４巷９號","OBJECTID":242190},"geometry":{"x":174626.41000000015,"y":2541212.9900000002}},{"attributes":{"ID":242195,"DIS_CODE":0,"TOWNNAME":"永康區","LI":"三合里","LIN":"24鄰","STREET":"南工街","SECT":" ","MAREA":" ","LANE":"２６７巷","ALLEY":" ","HOUSE_NO":"５８號五樓之３","E_COORD97":171830.60000000001,"N_COORD97":2545838.54,"ADDRESS":"南工街２６７巷５８號五樓之３","OBJECTID":242191},"geometry":{"x":171830.60000000056,"y":2545838.540000001}},{"attributes":{"ID":242196,"DIS_CODE":0,"TOWNNAME":"佳里區","LI":"東寧里","LIN":"14鄰","STREET":"和平街","SECT":" ","MAREA":" ","LANE":" ","ALLEY":" ","HOUSE_NO":"７３號","E_COORD97":165893.51000000001,"N_COORD97":2562507.98,"ADDRESS":"和平街７３號","OBJECTID":242192},"geometry":{"x":165893.50999999978,"y":2562507.9800000004}},{"attributes":{"ID":242197,"DIS_CODE":0,"TOWNNAME":"關廟區","LI":"新光里","LIN":"14鄰","STREET":"新光街","SECT":" ","MAREA":" ","LANE":" ","ALLEY":" ","HOUSE_NO":"１６８號","E_COORD97":184206.67000000001,"N_COORD97":2541584.2999999998,"ADDRESS":"新光街１６８號","OBJECTID":242193},"geometry":{"x":184206.67000000086,"y":2541584.3000000007}},{"attributes":{"ID":242198,"DIS_CODE":0,"TOWNNAME":"東山區","LI":"東山里","LIN":"22鄰","STREET":" ","SECT":" ","MAREA":"東山","LANE":" ","ALLEY":" ","HOUSE_NO":"３１２號之６","E_COORD97":188829.84,"N_COORD97":2580472.5899999999,"ADDRESS":"東山３１２號之６","OBJECTID":242194},"geometry":{"x":188829.84000000078,"y":2580472.5899999999}},{"attributes":{"ID":242199,"DIS_CODE":0,"TOWNNAME":"東山區","LI":"東山里","LIN":"22鄰","STREET":" ","SECT":" ","MAREA":"東山","LANE":" ","ALLEY":" ","HOUSE_NO":"３１２號","E_COORD97":188848.17999999999,"N_COORD97":2580520.6699999999,"ADDRESS":"東山３１２號","OBJECTID":242195},"geometry":{"x":188848.1799999997,"y":2580520.6700000037}},{"attributes":{"ID":242200,"DIS_CODE":0,"TOWNNAME":"仁德區","LI":"田厝里","LIN":"10鄰","STREET":"田厝二街","SECT":" ","MAREA":" ","LANE":"８６巷","ALLEY":" ","HOUSE_NO":"６號","E_COORD97":172357.56,"N_COORD97":2537705.5,"ADDRESS":"田厝二街８６巷６號","OBJECTID":242196},"geometry":{"x":172357.56000000052,"y":2537705.5000000019}},{"attributes":{"ID":242201,"DIS_CODE":0,"TOWNNAME":"中西區","LI":"三合里","LIN":"16鄰","STREET":"信義街","SECT":" ","MAREA":" ","LANE":"１０８巷","ALLEY":" ","HOUSE_NO":"５５號三樓之２","E_COORD97":167482.20000000001,"N_COORD97":2544642.7799999998,"ADDRESS":"信義街１０８巷５５號三樓之２","OBJECTID":242197},"geometry":{"x":167482.20000000112,"y":2544642.7800000012}},{"attributes":{"ID":242202,"DIS_CODE":0,"TOWNNAME":"北區","LI":"重興里","LIN":"24鄰","STREET":"東豐路","SECT":" ","MAREA":" ","LANE":"４５１巷","ALLEY":" ","HOUSE_NO":"３５號","E_COORD97":170818.94,"N_COORD97":2544811.73,"ADDRESS":"東豐路４５１巷３５號","OBJECTID":242198},"geometry":{"x":170818.94000000041,"y":2544811.7300000004}},{"attributes":{"ID":242203,"DIS_CODE":0,"TOWNNAME":"北區","LI":"重興里","LIN":"25鄰","STREET":"東豐路","SECT":" ","MAREA":" ","LANE":"４５１巷","ALLEY":" ","HOUSE_NO":"５３號","E_COORD97":170867.51999999999,"N_COORD97":2544890.8500000001,"ADDRESS":"東豐路４５１巷５３號","OBJECTID":242199},"geometry":{"x":170867.52000000048,"y":2544890.8500000015}},{"attributes":{"ID":242204,"DIS_CODE":0,"TOWNNAME":"北區","LI":"重興里","LIN":"25鄰","STREET":"東豐路","SECT":" ","MAREA":" ","LANE":"４５１巷","ALLEY":" ","HOUSE_NO":"５５號","E_COORD97":170871.60000000001,"N_COORD97":2544899.1800000002,"ADDRESS":"東豐路４５１巷５５號","OBJECTID":242200},"geometry":{"x":170871.59999999963,"y":2544899.1799999997}}]}