{"displayFieldName":"TOWNNAME","fieldAliases":{"ID":"ID","DIS_CODE":"DIS_CODE","TOWNNAME":"TOWNNAME","LI":"LI","LIN":"LIN","STREET":"STREET","SECT":"SECT","MAREA":"MAREA","LANE":"LANE","ALLEY":"ALLEY","HOUSE_NO":"HOUSE_NO","E_COORD97":"E_COORD97","N_COORD97":"N_COORD97","ADDRESS":"ADDRESS","OBJECTID":"OBJECTID"},"geometryType":"esriGeometryPoint","spatialReference":{"wkid":102443,"latestWkid":3826},"fields":[{"name":"ID","type":"esriFieldTypeDouble","alias":"ID"},{"name":"DIS_CODE","type":"esriFieldTypeInteger","alias":"DIS_CODE"},{"name":"TOWNNAME","type":"esriFieldTypeString","alias":"TOWNNAME","length":8},{"name":"LI","type":"esriFieldTypeString","alias":"LI","length":8},{"name":"LIN","type":"esriFieldTypeString","alias":"LIN","length":12},{"name":"STREET","type":"esriFieldTypeString","alias":"STREET","length":20},{"name":"SECT","type":"esriFieldTypeString","alias":"SECT","length":8},{"name":"MAREA","type":"esriFieldTypeString","alias":"MAREA","length":12},{"name":"LANE","type":"esriFieldTypeString","alias":"LANE","length":10},{"name":"ALLEY","type":"esriFieldTypeString","alias":"ALLEY","length":10},{"name":"HOUSE_NO","type":"esriFieldTypeString","alias":"HOUSE_NO","length":20},{"name":"E_COORD97","type":"esriFieldTypeDouble","alias":"E_COORD97"},{"name":"N_COORD97","type":"esriFieldTypeDouble","alias":"N_COORD97"},{"name":"ADDRESS","type":"esriFieldTypeString","alias":"ADDRESS","length":50},{"name":"OBJECTID","type":"esriFieldTypeOID","alias":"OBJECTID"}],"features":[{"attributes":{"ID":264005,"DIS_CODE":0,"TOWNNAME":"善化區","LI":"光文里","LIN":"22鄰","STREET":"中山路","SECT":" ","MAREA":" ","LANE":" ","ALLEY":" ","HOUSE_NO":"４８之４號","E_COORD97":178807.89000000001,"N_COORD97":2559227.52,"ADDRESS":"中山路４８之４號","OBJECTID":264001},"geometry":{"x":178807.88999999966,"y":2559227.5200000014}},{"attributes":{"ID":264006,"DIS_CODE":0,"TOWNNAME":"善化區","LI":"光文里","LIN":"22鄰","STREET":"中山路","SECT":" ","MAREA":" ","LANE":" ","ALLEY":" ","HOUSE_NO":"５８號","E_COORD97":178750.94,"N_COORD97":2559218,"ADDRESS":"中山路５８號","OBJECTID":264002},"geometry":{"x":178750.94000000041,"y":2559218.0000000019}},{"attributes":{"ID":264007,"DIS_CODE":0,"TOWNNAME":"永康區","LI":"\u25A0洲里","LIN":"40鄰","STREET":"洲工街","SECT":" ","MAREA":" ","LANE":"２２巷","ALLEY":" ","HOUSE_NO":"１２號","E_COORD97":170663.01000000001,"N_COORD97":2548194.1400000001,"ADDRESS":"洲工街２２巷１２號","OBJECTID":264003},"geometry":{"x":170663.01000000071,"y":2548194.1400000043}},{"attributes":{"ID":264008,"DIS_CODE":0,"TOWNNAME":"永康區","LI":"\u25A0洲里","LIN":"40鄰","STREET":"正南六街","SECT":" ","MAREA":" ","LANE":"１０５巷","ALLEY":" ","HOUSE_NO":"９號","E_COORD97":170801.60000000001,"N_COORD97":2548605.3300000001,"ADDRESS":"正南六街１０５巷９號","OBJECTID":264004},"geometry":{"x":170801.60000000056,"y":2548605.3300000001}},{"attributes":{"ID":264009,"DIS_CODE":0,"TOWNNAME":"永康區","LI":"\u25A0洲里","LIN":"40鄰","STREET":"正南六街","SECT":" ","MAREA":" ","LANE":"１０５巷","ALLEY":" ","HOUSE_NO":"２２號","E_COORD97":170764.94,"N_COORD97":2548580.25,"ADDRESS":"正南六街１０５巷２２號","OBJECTID":264005},"geometry":{"x":170764.94000000041,"y":2548580.2500000019}},{"attributes":{"ID":264010,"DIS_CODE":0,"TOWNNAME":"永康區","LI":"復華里","LIN":"22鄰","STREET":"復華七街","SECT":" ","MAREA":" ","LANE":" ","ALLEY":" ","HOUSE_NO":"８１號","E_COORD97":172778.67999999999,"N_COORD97":2546101.2000000002,"ADDRESS":"復華七街８１號","OBJECTID":264006},"geometry":{"x":172778.68000000156,"y":2546101.2000000011}},{"attributes":{"ID":264011,"DIS_CODE":0,"TOWNNAME":"永康區","LI":"復華里","LIN":"22鄰","STREET":"復華七街","SECT":" ","MAREA":" ","LANE":" ","ALLEY":" ","HOUSE_NO":"１１１號","E_COORD97":172832.79000000001,"N_COORD97":2546154.79,"ADDRESS":"復華七街１１１號","OBJECTID":264007},"geometry":{"x":172832.79000000097,"y":2546154.790000001}},{"attributes":{"ID":264012,"DIS_CODE":0,"TOWNNAME":"仁德區","LI":"太子里","LIN":"40鄰","STREET":"太子路","SECT":" ","MAREA":" ","LANE":"６６巷","ALLEY":" ","HOUSE_NO":"５０號","E_COORD97":175346.20000000001,"N_COORD97":2543830.7599999998,"ADDRESS":"太子路６６巷５０號","OBJECTID":264008},"geometry":{"x":175346.20000000112,"y":2543830.7599999998}},{"attributes":{"ID":264013,"DIS_CODE":0,"TOWNNAME":"永康區","LI":"崑山里","LIN":"20鄰","STREET":"大仁街","SECT":" ","MAREA":" ","LANE":" ","ALLEY":" ","HOUSE_NO":"２８號","E_COORD97":173825.89000000001,"N_COORD97":2544559.8500000001,"ADDRESS":"大仁街２８號","OBJECTID":264009},"geometry":{"x":173825.88999999966,"y":2544559.8499999996}},{"attributes":{"ID":264014,"DIS_CODE":0,"TOWNNAME":"仁德區","LI":"太子里","LIN":"40鄰","STREET":"太子路","SECT":" ","MAREA":" ","LANE":"２８巷","ALLEY":" ","HOUSE_NO":"３３之３號","E_COORD97":175329.56,"N_COORD97":2543715.7999999998,"ADDRESS":"太子路２８巷３３之３號","OBJECTID":264010},"geometry":{"x":175329.56000000052,"y":2543715.8000000026}},{"attributes":{"ID":264015,"DIS_CODE":0,"TOWNNAME":"仁德區","LI":"仁義里","LIN":"40鄰","STREET":"中正路","SECT":"二段","MAREA":" ","LANE":"８６２巷","ALLEY":" ","HOUSE_NO":"２２號","E_COORD97":173571.95999999999,"N_COORD97":2540504.5499999998,"ADDRESS":"中正路二段８６２巷２２號","OBJECTID":264011},"geometry":{"x":173571.95999999903,"y":2540504.5500000007}},{"attributes":{"ID":264016,"DIS_CODE":0,"TOWNNAME":"永康區","LI":"崑山里","LIN":"47鄰","STREET":"永大路","SECT":"二段","MAREA":" ","LANE":" ","ALLEY":" ","HOUSE_NO":"１４９號","E_COORD97":174265.79999999999,"N_COORD97":2545085.6499999999,"ADDRESS":"永大路二段１４９號","OBJECTID":264012},"geometry":{"x":174265.79999999981,"y":2545085.6500000022}},{"attributes":{"ID":264017,"DIS_CODE":0,"TOWNNAME":"仁德區","LI":"太子里","LIN":"40鄰","STREET":"太子路","SECT":" ","MAREA":" ","LANE":"２８巷","ALLEY":" ","HOUSE_NO":"３７號","E_COORD97":175312.42999999999,"N_COORD97":2543722.2599999998,"ADDRESS":"太子路２８巷３７號","OBJECTID":264013},"geometry":{"x":175312.4299999997,"y":2543722.2599999998}},{"attributes":{"ID":264018,"DIS_CODE":0,"TOWNNAME":"安南區","LI":"溪心里","LIN":"13鄰","STREET":"樂安二街","SECT":" ","MAREA":" ","LANE":" ","ALLEY":" ","HOUSE_NO":"１００號","E_COORD97":165864.95999999999,"N_COORD97":2549739.8100000001,"ADDRESS":"樂安二街１００號","OBJECTID":264014},"geometry":{"x":165864.95999999996,"y":2549739.8100000024}},{"attributes":{"ID":264019,"DIS_CODE":0,"TOWNNAME":"仁德區","LI":"太子里","LIN":"40鄰","STREET":"太子路","SECT":" ","MAREA":" ","LANE":"２８巷","ALLEY":" ","HOUSE_NO":"４７號","E_COORD97":175348.54000000001,"N_COORD97":2543722.2599999998,"ADDRESS":"太子路２８巷４７號","OBJECTID":264015},"geometry":{"x":175348.54000000097,"y":2543722.2599999998}},{"attributes":{"ID":264020,"DIS_CODE":0,"TOWNNAME":"仁德區","LI":"太子里","LIN":"40鄰","STREET":"太子路","SECT":" ","MAREA":" ","LANE":"２８巷","ALLEY":" ","HOUSE_NO":"５１號之１","E_COORD97":175360.28,"N_COORD97":2543752.0499999998,"ADDRESS":"太子路２８巷５１號之１","OBJECTID":264016},"geometry":{"x":175360.28000000212,"y":2543752.0500000007}},{"attributes":{"ID":264021,"DIS_CODE":0,"TOWNNAME":"南區","LI":"郡南里","LIN":"24鄰","STREET":"永成路","SECT":"三段","MAREA":" ","LANE":" ","ALLEY":" ","HOUSE_NO":"１３２號","E_COORD97":167507.17000000001,"N_COORD97":2540612.1899999999,"ADDRESS":"永成路三段１３２號","OBJECTID":264017},"geometry":{"x":167507.17000000086,"y":2540612.1900000013}},{"attributes":{"ID":264022,"DIS_CODE":0,"TOWNNAME":"北區","LI":" ","LIN":" ","STREET":"北門路","SECT":"二段","MAREA":" ","LANE":"５２７巷","ALLEY":" ","HOUSE_NO":"８號","E_COORD97":169629.34,"N_COORD97":2545671.9199999999,"ADDRESS":"北門路二段５２７巷８號","OBJECTID":264018},"geometry":{"x":169629.33999999985,"y":2545671.9199999999}},{"attributes":{"ID":264023,"DIS_CODE":0,"TOWNNAME":"永康區","LI":"復華里","LIN":"40鄰","STREET":"復華七街","SECT":" ","MAREA":" ","LANE":"３２巷","ALLEY":" ","HOUSE_NO":"２４號","E_COORD97":172683.22,"N_COORD97":2545887.9700000002,"ADDRESS":"復華七街３２巷２４號","OBJECTID":264019},"geometry":{"x":172683.21999999974,"y":2545887.9700000025}},{"attributes":{"ID":264024,"DIS_CODE":0,"TOWNNAME":"安南區","LI":"溪心里","LIN":"13鄰","STREET":"樂安二街","SECT":" ","MAREA":" ","LANE":" ","ALLEY":" ","HOUSE_NO":"６８號","E_COORD97":165931.41,"N_COORD97":2549730.5800000001,"ADDRESS":"樂安二街６８號","OBJECTID":264020},"geometry":{"x":165931.41000000108,"y":2549730.5800000019}},{"attributes":{"ID":264025,"DIS_CODE":0,"TOWNNAME":"仁德區","LI":"後壁里","LIN":"40鄰","STREET":"德善二街","SECT":" ","MAREA":" ","LANE":"１７巷","ALLEY":" ","HOUSE_NO":"１６號","E_COORD97":173523.62,"N_COORD97":2538943.0099999998,"ADDRESS":"德善二街１７巷１６號","OBJECTID":264021},"geometry":{"x":173523.62000000197,"y":2538943.0100000016}},{"attributes":{"ID":264026,"DIS_CODE":0,"TOWNNAME":"南區","LI":"新昌里","LIN":"14鄰","STREET":"府緯街","SECT":" ","MAREA":" ","LANE":" ","ALLEY":" ","HOUSE_NO":"１３６號","E_COORD97":167532.35000000001,"N_COORD97":2542733.1099999999,"ADDRESS":"府緯街１３６號","OBJECTID":264022},"geometry":{"x":167532.3499999987,"y":2542733.1099999994}},{"attributes":{"ID":264027,"DIS_CODE":0,"TOWNNAME":"善化區","LI":"光文里","LIN":"22鄰","STREET":"光華路","SECT":" ","MAREA":" ","LANE":"５３巷","ALLEY":" ","HOUSE_NO":"３號","E_COORD97":178605.60999999999,"N_COORD97":2559317.75,"ADDRESS":"光華路５３巷３號","OBJECTID":264023},"geometry":{"x":178605.61000000034,"y":2559317.7500000019}},{"attributes":{"ID":264028,"DIS_CODE":0,"TOWNNAME":"南區","LI":"文華里","LIN":"17鄰","STREET":"南樂街","SECT":" ","MAREA":" ","LANE":" ","ALLEY":" ","HOUSE_NO":"２９之３號","E_COORD97":166806.92000000001,"N_COORD97":2543134.5099999998,"ADDRESS":"南樂街２９之３號","OBJECTID":264024},"geometry":{"x":166806.92000000086,"y":2543134.5099999998}},{"attributes":{"ID":264029,"DIS_CODE":0,"TOWNNAME":"南區","LI":"文南里","LIN":"4鄰","STREET":"長南街","SECT":" ","MAREA":" ","LANE":" ","ALLEY":" ","HOUSE_NO":"１２之１號","E_COORD97":167049.44,"N_COORD97":2542625.2799999998,"ADDRESS":"長南街１２之１號","OBJECTID":264025},"geometry":{"x":167049.43999999948,"y":2542625.2800000012}},{"attributes":{"ID":264030,"DIS_CODE":0,"TOWNNAME":"善化區","LI":"坐駕里","LIN":"22鄰","STREET":" ","SECT":" ","MAREA":"陽明新村","LANE":" ","ALLEY":" ","HOUSE_NO":"４３號","E_COORD97":178193.76999999999,"N_COORD97":2558306.7599999998,"ADDRESS":"陽明新村４３號","OBJECTID":264026},"geometry":{"x":178193.76999999955,"y":2558306.7600000016}},{"attributes":{"ID":264031,"DIS_CODE":0,"TOWNNAME":"善化區","LI":"坐駕里","LIN":"22鄰","STREET":" ","SECT":" ","MAREA":"陽明新村","LANE":" ","ALLEY":" ","HOUSE_NO":"６號","E_COORD97":178099.5,"N_COORD97":2558370.0099999998,"ADDRESS":"陽明新村６號","OBJECTID":264027},"geometry":{"x":178099.5,"y":2558370.0100000016}},{"attributes":{"ID":264032,"DIS_CODE":0,"TOWNNAME":"善化區","LI":"坐駕里","LIN":"22鄰","STREET":" ","SECT":" ","MAREA":"陽明新村","LANE":" ","ALLEY":" ","HOUSE_NO":"９號","E_COORD97":178121.09,"N_COORD97":2558376.2599999998,"ADDRESS":"陽明新村９號","OBJECTID":264028},"geometry":{"x":178121.09000000078,"y":2558376.2599999998}},{"attributes":{"ID":264033,"DIS_CODE":0,"TOWNNAME":"永康區","LI":"崑山里","LIN":"20鄰","STREET":"大仁街","SECT":" ","MAREA":" ","LANE":" ","ALLEY":" ","HOUSE_NO":"２０號","E_COORD97":173831.57999999999,"N_COORD97":2544538.3199999998,"ADDRESS":"大仁街２０號","OBJECTID":264029},"geometry":{"x":173831.58000000007,"y":2544538.3200000022}},{"attributes":{"ID":264034,"DIS_CODE":0,"TOWNNAME":"仁德區","LI":"後壁里","LIN":"40鄰","STREET":"德善二街","SECT":" ","MAREA":" ","LANE":"１７巷","ALLEY":" ","HOUSE_NO":"１７號","E_COORD97":173505.67999999999,"N_COORD97":2538940.5099999998,"ADDRESS":"德善二街１７巷１７號","OBJECTID":264030},"geometry":{"x":173505.6799999997,"y":2538940.5099999998}},{"attributes":{"ID":264035,"DIS_CODE":0,"TOWNNAME":"仁德區","LI":"後壁里","LIN":"40鄰","STREET":"德善二街","SECT":" ","MAREA":" ","LANE":"１７巷","ALLEY":" ","HOUSE_NO":"１２號","E_COORD97":173527.84,"N_COORD97":2538936.5099999998,"ADDRESS":"德善二街１７巷１２號","OBJECTID":264031},"geometry":{"x":173527.83999999985,"y":2538936.5100000016}},{"attributes":{"ID":264036,"DIS_CODE":0,"TOWNNAME":"仁德區","LI":"後壁里","LIN":"40鄰","STREET":"德善二街","SECT":" ","MAREA":" ","LANE":"１７巷","ALLEY":" ","HOUSE_NO":"１９號","E_COORD97":173503.42999999999,"N_COORD97":2538943.7599999998,"ADDRESS":"德善二街１７巷１９號","OBJECTID":264032},"geometry":{"x":173503.4299999997,"y":2538943.7600000016}},{"attributes":{"ID":264037,"DIS_CODE":0,"TOWNNAME":"永康區","LI":"崑山里","LIN":"40鄰","STREET":"國光五街","SECT":" ","MAREA":" ","LANE":" ","ALLEY":" ","HOUSE_NO":"３號","E_COORD97":174205.81,"N_COORD97":2545046.23,"ADDRESS":"國光五街３號","OBJECTID":264033},"geometry":{"x":174205.80999999959,"y":2545046.2300000004}},{"attributes":{"ID":264038,"DIS_CODE":0,"TOWNNAME":"新市區","LI":"新和里","LIN":"40鄰","STREET":"勝利街","SECT":" ","MAREA":" ","LANE":"２０巷","ALLEY":" ","HOUSE_NO":"４號","E_COORD97":177341.64999999999,"N_COORD97":2552988.0099999998,"ADDRESS":"勝利街２０巷４號","OBJECTID":264034},"geometry":{"x":177341.6500000013,"y":2552988.0100000035}},{"attributes":{"ID":264039,"DIS_CODE":0,"TOWNNAME":"新市區","LI":"新和里","LIN":"40鄰","STREET":"勝利街","SECT":" ","MAREA":" ","LANE":"６８巷","ALLEY":" ","HOUSE_NO":"２號","E_COORD97":177171.60000000001,"N_COORD97":2552977.2599999998,"ADDRESS":"勝利街６８巷２號","OBJECTID":264035},"geometry":{"x":177171.60000000056,"y":2552977.2600000016}},{"attributes":{"ID":264040,"DIS_CODE":0,"TOWNNAME":"永康區","LI":"烏竹里","LIN":"19鄰","STREET":"自強路","SECT":" ","MAREA":" ","LANE":" ","ALLEY":" ","HOUSE_NO":"７２１號","E_COORD97":174384.75,"N_COORD97":2548495.5600000001,"ADDRESS":"自強路７２１號","OBJECTID":264036},"geometry":{"x":174384.75,"y":2548495.5600000005}},{"attributes":{"ID":264041,"DIS_CODE":0,"TOWNNAME":"永康區","LI":"南灣里","LIN":"40鄰","STREET":"南灣街","SECT":" ","MAREA":" ","LANE":"１３８巷","ALLEY":" ","HOUSE_NO":"４１號","E_COORD97":174346.73999999999,"N_COORD97":2545159.7200000002,"ADDRESS":"南灣街１３８巷４１號","OBJECTID":264037},"geometry":{"x":174346.74000000209,"y":2545159.7200000025}},{"attributes":{"ID":264042,"DIS_CODE":0,"TOWNNAME":"永康區","LI":"南灣里","LIN":"40鄰","STREET":"南灣街","SECT":" ","MAREA":" ","LANE":"１３８巷","ALLEY":" ","HOUSE_NO":"２５號","E_COORD97":174344.69,"N_COORD97":2545108.25,"ADDRESS":"南灣街１３８巷２５號","OBJECTID":264038},"geometry":{"x":174344.69000000134,"y":2545108.2500000019}},{"attributes":{"ID":264043,"DIS_CODE":0,"TOWNNAME":"永康區","LI":"龍潭里","LIN":"22鄰","STREET":"龍橋街","SECT":" ","MAREA":" ","LANE":" ","ALLEY":" ","HOUSE_NO":"７８號","E_COORD97":174731.85000000001,"N_COORD97":2548515.0099999998,"ADDRESS":"龍橋街７８號","OBJECTID":264039},"geometry":{"x":174731.8499999987,"y":2548515.0099999998}},{"attributes":{"ID":264044,"DIS_CODE":0,"TOWNNAME":"永康區","LI":"網寮里","LIN":"22鄰","STREET":"永勝街","SECT":" ","MAREA":" ","LANE":" ","ALLEY":" ","HOUSE_NO":"４８號","E_COORD97":173631.70000000001,"N_COORD97":2546248.9300000002,"ADDRESS":"永勝街４８號","OBJECTID":264040},"geometry":{"x":173631.70000000205,"y":2546248.9300000016}},{"attributes":{"ID":264045,"DIS_CODE":0,"TOWNNAME":"永康區","LI":"南灣里","LIN":"40鄰","STREET":"南灣街","SECT":" ","MAREA":" ","LANE":"１３８巷","ALLEY":" ","HOUSE_NO":"８號","E_COORD97":174317.60999999999,"N_COORD97":2545038.8300000001,"ADDRESS":"南灣街１３８巷８號","OBJECTID":264041},"geometry":{"x":174317.61000000127,"y":2545038.8300000001}},{"attributes":{"ID":264046,"DIS_CODE":0,"TOWNNAME":"永康區","LI":"南灣里","LIN":"40鄰","STREET":"南灣街","SECT":" ","MAREA":" ","LANE":"１３８巷","ALLEY":" ","HOUSE_NO":"９號","E_COORD97":174324.95999999999,"N_COORD97":2545077.1200000001,"ADDRESS":"南灣街１３８巷９號","OBJECTID":264042},"geometry":{"x":174324.96000000089,"y":2545077.1200000029}},{"attributes":{"ID":264047,"DIS_CODE":0,"TOWNNAME":"永康區","LI":"網寮里","LIN":"22鄰","STREET":"永勝街","SECT":" ","MAREA":" ","LANE":" ","ALLEY":" ","HOUSE_NO":"５６號","E_COORD97":173624.87,"N_COORD97":2546259.1699999999,"ADDRESS":"永勝街５６號","OBJECTID":264043},"geometry":{"x":173624.87000000011,"y":2546259.1699999999}},{"attributes":{"ID":264048,"DIS_CODE":0,"TOWNNAME":"永康區","LI":"南灣里","LIN":"40鄰","STREET":"南灣街","SECT":" ","MAREA":" ","LANE":"１３８巷","ALLEY":" ","HOUSE_NO":"１６號","E_COORD97":174342.41,"N_COORD97":2545064.6499999999,"ADDRESS":"南灣街１３８巷１６號","OBJECTID":264044},"geometry":{"x":174342.41000000108,"y":2545064.6500000041}},{"attributes":{"ID":264049,"DIS_CODE":0,"TOWNNAME":"永康區","LI":"南灣里","LIN":"40鄰","STREET":"南灣街","SECT":" ","MAREA":" ","LANE":"１３８巷","ALLEY":" ","HOUSE_NO":"１３號","E_COORD97":174330.92000000001,"N_COORD97":2545084.3700000001,"ADDRESS":"南灣街１３８巷１３號","OBJECTID":264045},"geometry":{"x":174330.91999999993,"y":2545084.3700000029}},{"attributes":{"ID":264050,"DIS_CODE":0,"TOWNNAME":"永康區","LI":"南灣里","LIN":"40鄰","STREET":"南灣街","SECT":" ","MAREA":" ","LANE":"１３８巷","ALLEY":" ","HOUSE_NO":"７號","E_COORD97":174322.17999999999,"N_COORD97":2545073.6600000001,"ADDRESS":"南灣街１３８巷７號","OBJECTID":264046},"geometry":{"x":174322.1799999997,"y":2545073.6600000001}},{"attributes":{"ID":264051,"DIS_CODE":0,"TOWNNAME":"南區","LI":"文南里","LIN":"20鄰","STREET":"南功街","SECT":" ","MAREA":" ","LANE":" ","ALLEY":" ","HOUSE_NO":"４１號","E_COORD97":166499.53,"N_COORD97":2542743.6400000001,"ADDRESS":"南功街４１號","OBJECTID":264047},"geometry":{"x":166499.53000000212,"y":2542743.6400000025}},{"attributes":{"ID":264052,"DIS_CODE":0,"TOWNNAME":"南區","LI":"文南里","LIN":"26鄰","STREET":"南功街","SECT":" ","MAREA":" ","LANE":" ","ALLEY":" ","HOUSE_NO":"１００號","E_COORD97":166540.95999999999,"N_COORD97":2542835.5600000001,"ADDRESS":"南功街１００號","OBJECTID":264048},"geometry":{"x":166540.96000000089,"y":2542835.5600000024}},{"attributes":{"ID":264053,"DIS_CODE":0,"TOWNNAME":"永康區","LI":"南灣里","LIN":"40鄰","STREET":"南灣街","SECT":" ","MAREA":" ","LANE":"１３８巷","ALLEY":" ","HOUSE_NO":"３７號","E_COORD97":174363.70000000001,"N_COORD97":2545140.3799999999,"ADDRESS":"南灣街１３８巷３７號","OBJECTID":264049},"geometry":{"x":174363.70000000019,"y":2545140.3800000008}},{"attributes":{"ID":264054,"DIS_CODE":0,"TOWNNAME":"南區","LI":"文南里","LIN":"26鄰","STREET":"南功街","SECT":" ","MAREA":" ","LANE":" ","ALLEY":" ","HOUSE_NO":"１０２號","E_COORD97":166535.41,"N_COORD97":2542837.6200000001,"ADDRESS":"南功街１０２號","OBJECTID":264050},"geometry":{"x":166535.41000000015,"y":2542837.620000001}},{"attributes":{"ID":264055,"DIS_CODE":0,"TOWNNAME":"南區","LI":"文南里","LIN":"26鄰","STREET":"南功街","SECT":" ","MAREA":" ","LANE":" ","ALLEY":" ","HOUSE_NO":"１０６號","E_COORD97":166530.79999999999,"N_COORD97":2542836.8300000001,"ADDRESS":"南功街１０６號","OBJECTID":264051},"geometry":{"x":166530.79999999981,"y":2542836.8300000019}},{"attributes":{"ID":264056,"DIS_CODE":0,"TOWNNAME":"南區","LI":"明興里","LIN":"13鄰","STREET":"金華路","SECT":"一段","MAREA":" ","LANE":" ","ALLEY":" ","HOUSE_NO":"６６號","E_COORD97":166898.57999999999,"N_COORD97":2540387.02,"ADDRESS":"金華路一段６６號","OBJECTID":264052},"geometry":{"x":166898.58000000007,"y":2540387.0200000014}},{"attributes":{"ID":264057,"DIS_CODE":0,"TOWNNAME":"南區","LI":"文南里","LIN":"13鄰","STREET":"長南街","SECT":" ","MAREA":" ","LANE":" ","ALLEY":" ","HOUSE_NO":"５２號","E_COORD97":166910.37,"N_COORD97":2542633.6800000002,"ADDRESS":"長南街５２號","OBJECTID":264053},"geometry":{"x":166910.37000000011,"y":2542633.6800000016}},{"attributes":{"ID":264058,"DIS_CODE":0,"TOWNNAME":"南區","LI":"再興里","LIN":"17鄰","STREET":"金華路","SECT":"二段","MAREA":" ","LANE":" ","ALLEY":" ","HOUSE_NO":"２２２號","E_COORD97":167112.72,"N_COORD97":2542375.3500000001,"ADDRESS":"金華路二段２２２號","OBJECTID":264054},"geometry":{"x":167112.71999999974,"y":2542375.3500000015}},{"attributes":{"ID":264059,"DIS_CODE":0,"TOWNNAME":"南區","LI":"文華里","LIN":"17鄰","STREET":"南樂街","SECT":" ","MAREA":" ","LANE":" ","ALLEY":" ","HOUSE_NO":"２９號","E_COORD97":166815.82000000001,"N_COORD97":2543142.6000000001,"ADDRESS":"南樂街２９號","OBJECTID":264055},"geometry":{"x":166815.8200000003,"y":2543142.6000000015}},{"attributes":{"ID":264060,"DIS_CODE":0,"TOWNNAME":"南區","LI":"文華里","LIN":"17鄰","STREET":"南樂街","SECT":" ","MAREA":" ","LANE":" ","ALLEY":" ","HOUSE_NO":"２９之１號","E_COORD97":166813.26999999999,"N_COORD97":2543140.0600000001,"ADDRESS":"南樂街２９之１號","OBJECTID":264056},"geometry":{"x":166813.27000000048,"y":2543140.0600000024}},{"attributes":{"ID":264061,"DIS_CODE":0,"TOWNNAME":"南區","LI":"文華里","LIN":"17鄰","STREET":"南樂街","SECT":" ","MAREA":" ","LANE":" ","ALLEY":" ","HOUSE_NO":"２９之２號","E_COORD97":166810.10000000001,"N_COORD97":2543137.52,"ADDRESS":"南樂街２９之２號","OBJECTID":264057},"geometry":{"x":166810.09999999963,"y":2543137.5199999996}},{"attributes":{"ID":264062,"DIS_CODE":0,"TOWNNAME":"南區","LI":"廣州里","LIN":"8鄰","STREET":"夏林路","SECT":" ","MAREA":" ","LANE":" ","ALLEY":" ","HOUSE_NO":"１號之１７","E_COORD97":167481.70999999999,"N_COORD97":2542984.6299999999,"ADDRESS":"夏林路１號之１７","OBJECTID":264058},"geometry":{"x":167481.71000000089,"y":2542984.6299999971}},{"attributes":{"ID":264063,"DIS_CODE":0,"TOWNNAME":"北區","LI":" ","LIN":" ","STREET":"北門路","SECT":"二段","MAREA":" ","LANE":"５７６巷","ALLEY":" ","HOUSE_NO":"１０號","E_COORD97":169660.62,"N_COORD97":2545603.5,"ADDRESS":"北門路二段５７６巷１０號","OBJECTID":264059},"geometry":{"x":169660.62000000104,"y":2545603.5}},{"attributes":{"ID":264064,"DIS_CODE":0,"TOWNNAME":"永康區","LI":"網寮里","LIN":"22鄰","STREET":"永大一路","SECT":" ","MAREA":" ","LANE":" ","ALLEY":" ","HOUSE_NO":"２４１號","E_COORD97":173682.09,"N_COORD97":2546308.6800000002,"ADDRESS":"永大一路２４１號","OBJECTID":264060},"geometry":{"x":173682.08999999985,"y":2546308.6800000016}},{"attributes":{"ID":264065,"DIS_CODE":0,"TOWNNAME":"永康區","LI":"龍潭里","LIN":"22鄰","STREET":"龍橋街","SECT":" ","MAREA":" ","LANE":" ","ALLEY":" ","HOUSE_NO":"６８之１號","E_COORD97":174736.82000000001,"N_COORD97":2548480.7200000002,"ADDRESS":"龍橋街６８之１號","OBJECTID":264061},"geometry":{"x":174736.82000000123,"y":2548480.7200000007}},{"attributes":{"ID":264066,"DIS_CODE":0,"TOWNNAME":"永康區","LI":"復華里","LIN":"22鄰","STREET":"復華七街","SECT":" ","MAREA":" ","LANE":" ","ALLEY":" ","HOUSE_NO":"８３號","E_COORD97":172782.16,"N_COORD97":2546104.4500000002,"ADDRESS":"復華七街８３號","OBJECTID":264062},"geometry":{"x":172782.16000000015,"y":2546104.4499999993}},{"attributes":{"ID":264067,"DIS_CODE":0,"TOWNNAME":"永康區","LI":"復華里","LIN":"22鄰","STREET":"復華七街","SECT":" ","MAREA":" ","LANE":" ","ALLEY":" ","HOUSE_NO":"９１號","E_COORD97":172796.16,"N_COORD97":2546118.9500000002,"ADDRESS":"復華七街９１號","OBJECTID":264063},"geometry":{"x":172796.16000000201,"y":2546118.950000003}},{"attributes":{"ID":264068,"DIS_CODE":0,"TOWNNAME":"永康區","LI":"復華里","LIN":"22鄰","STREET":"復華七街","SECT":" ","MAREA":" ","LANE":" ","ALLEY":" ","HOUSE_NO":"７９號","E_COORD97":172775.07999999999,"N_COORD97":2546096.8100000001,"ADDRESS":"復華七街７９號","OBJECTID":264064},"geometry":{"x":172775.08000000101,"y":2546096.8100000005}},{"attributes":{"ID":264069,"DIS_CODE":0,"TOWNNAME":"永康區","LI":"龍潭里","LIN":"22鄰","STREET":"龍橋街","SECT":" ","MAREA":" ","LANE":" ","ALLEY":" ","HOUSE_NO":"７０號","E_COORD97":174722.20999999999,"N_COORD97":2548491.5099999998,"ADDRESS":"龍橋街７０號","OBJECTID":264065},"geometry":{"x":174722.21000000089,"y":2548491.5099999998}},{"attributes":{"ID":264070,"DIS_CODE":0,"TOWNNAME":"永康區","LI":"西灣里","LIN":"40鄰","STREET":"大勇路","SECT":" ","MAREA":" ","LANE":"２３巷","ALLEY":" ","HOUSE_NO":"９號六樓","E_COORD97":174175.60999999999,"N_COORD97":2545400.2599999998,"ADDRESS":"大勇路２３巷９號六樓","OBJECTID":264066},"geometry":{"x":174175.61000000127,"y":2545400.2600000016}},{"attributes":{"ID":264071,"DIS_CODE":0,"TOWNNAME":"永康區","LI":"西灣里","LIN":"40鄰","STREET":"大勇路","SECT":" ","MAREA":" ","LANE":"２３巷","ALLEY":" ","HOUSE_NO":"１５號四樓","E_COORD97":174158.39999999999,"N_COORD97":2545392.5099999998,"ADDRESS":"大勇路２３巷１５號四樓","OBJECTID":264067},"geometry":{"x":174158.4000000013,"y":2545392.5099999998}},{"attributes":{"ID":264072,"DIS_CODE":0,"TOWNNAME":"新營區","LI":"大宏里","LIN":"3鄰","STREET":"民族路","SECT":" ","MAREA":" ","LANE":" ","ALLEY":" ","HOUSE_NO":"３８號之１","E_COORD97":180339.23074999999,"N_COORD97":2578733.8900700002,"ADDRESS":"民族路３８號之１","OBJECTID":264068},"geometry":{"x":180339.23075000104,"y":2578733.8900700025}},{"attributes":{"ID":264073,"DIS_CODE":0,"TOWNNAME":"永康區","LI":"西灣里","LIN":"40鄰","STREET":"大勇路","SECT":" ","MAREA":" ","LANE":"２３巷","ALLEY":" ","HOUSE_NO":"１５號二樓","E_COORD97":174158.39999999999,"N_COORD97":2545392.5099999998,"ADDRESS":"大勇路２３巷１５號二樓","OBJECTID":264069},"geometry":{"x":174158.4000000013,"y":2545392.5099999998}},{"attributes":{"ID":264074,"DIS_CODE":0,"TOWNNAME":"永康區","LI":"西灣里","LIN":"40鄰","STREET":"大勇路","SECT":" ","MAREA":" ","LANE":"２３巷","ALLEY":" ","HOUSE_NO":"９號四樓","E_COORD97":174175.60999999999,"N_COORD97":2545400.2599999998,"ADDRESS":"大勇路２３巷９號四樓","OBJECTID":264070},"geometry":{"x":174175.61000000127,"y":2545400.2600000016}},{"attributes":{"ID":264075,"DIS_CODE":0,"TOWNNAME":"永康區","LI":"西灣里","LIN":"40鄰","STREET":"大勇路","SECT":" ","MAREA":" ","LANE":"２３巷","ALLEY":" ","HOUSE_NO":"１９號五樓之１","E_COORD97":174164.12,"N_COORD97":2545406.0499999998,"ADDRESS":"大勇路２３巷１９號五樓之１","OBJECTID":264071},"geometry":{"x":174164.12000000011,"y":2545406.0500000026}},{"attributes":{"ID":264076,"DIS_CODE":0,"TOWNNAME":"永康區","LI":"西灣里","LIN":"40鄰","STREET":"大勇路","SECT":" ","MAREA":" ","LANE":"２３巷","ALLEY":" ","HOUSE_NO":"１９號五樓之２","E_COORD97":174164.26000000001,"N_COORD97":2545406.0499999998,"ADDRESS":"大勇路２３巷１９號五樓之２","OBJECTID":264072},"geometry":{"x":174164.25999999978,"y":2545406.0500000026}},{"attributes":{"ID":264077,"DIS_CODE":0,"TOWNNAME":"永康區","LI":"西灣里","LIN":"40鄰","STREET":"大勇路","SECT":" ","MAREA":" ","LANE":"２３巷","ALLEY":" ","HOUSE_NO":"１７號三樓","E_COORD97":174150.59,"N_COORD97":2545395.5099999998,"ADDRESS":"大勇路２３巷１７號三樓","OBJECTID":264073},"geometry":{"x":174150.58999999985,"y":2545395.5099999998}},{"attributes":{"ID":264078,"DIS_CODE":0,"TOWNNAME":"永康區","LI":"西灣里","LIN":"40鄰","STREET":"大勇路","SECT":" ","MAREA":" ","LANE":"２３巷","ALLEY":" ","HOUSE_NO":"１３號六樓","E_COORD97":174166.64999999999,"N_COORD97":2545389.7599999998,"ADDRESS":"大勇路２３巷１３號六樓","OBJECTID":264074},"geometry":{"x":174166.6500000013,"y":2545389.7600000016}},{"attributes":{"ID":264079,"DIS_CODE":0,"TOWNNAME":"永康區","LI":"西灣里","LIN":"40鄰","STREET":"大勇路","SECT":" ","MAREA":" ","LANE":"２３巷","ALLEY":" ","HOUSE_NO":"１９號二樓之２","E_COORD97":174164.26000000001,"N_COORD97":2545406.0499999998,"ADDRESS":"大勇路２３巷１９號二樓之２","OBJECTID":264075},"geometry":{"x":174164.25999999978,"y":2545406.0500000026}},{"attributes":{"ID":264080,"DIS_CODE":0,"TOWNNAME":"永康區","LI":"西灣里","LIN":"40鄰","STREET":"大勇路","SECT":" ","MAREA":" ","LANE":"２３巷","ALLEY":" ","HOUSE_NO":"１９號六樓之１","E_COORD97":174164.12,"N_COORD97":2545406.0499999998,"ADDRESS":"大勇路２３巷１９號六樓之１","OBJECTID":264076},"geometry":{"x":174164.12000000011,"y":2545406.0500000026}},{"attributes":{"ID":264081,"DIS_CODE":0,"TOWNNAME":"永康區","LI":"西灣里","LIN":"40鄰","STREET":"大勇路","SECT":" ","MAREA":" ","LANE":"２３巷","ALLEY":" ","HOUSE_NO":"１３號五樓","E_COORD97":174166.64999999999,"N_COORD97":2545389.7599999998,"ADDRESS":"大勇路２３巷１３號五樓","OBJECTID":264077},"geometry":{"x":174166.6500000013,"y":2545389.7600000016}},{"attributes":{"ID":264082,"DIS_CODE":0,"TOWNNAME":"永康區","LI":"西灣里","LIN":"40鄰","STREET":"大勇路","SECT":" ","MAREA":" ","LANE":"２３巷","ALLEY":" ","HOUSE_NO":"１５號六樓","E_COORD97":174158.39999999999,"N_COORD97":2545392.5099999998,"ADDRESS":"大勇路２３巷１５號六樓","OBJECTID":264078},"geometry":{"x":174158.4000000013,"y":2545392.5099999998}},{"attributes":{"ID":264083,"DIS_CODE":0,"TOWNNAME":"永康區","LI":"西灣里","LIN":"40鄰","STREET":"大勇路","SECT":" ","MAREA":" ","LANE":"２３巷","ALLEY":" ","HOUSE_NO":"１３號四樓","E_COORD97":174166.64999999999,"N_COORD97":2545389.7599999998,"ADDRESS":"大勇路２３巷１３號四樓","OBJECTID":264079},"geometry":{"x":174166.6500000013,"y":2545389.7600000016}},{"attributes":{"ID":264084,"DIS_CODE":0,"TOWNNAME":"北區","LI":" ","LIN":" ","STREET":"北門路","SECT":"二段","MAREA":" ","LANE":"５７６巷","ALLEY":" ","HOUSE_NO":"１６號","E_COORD97":169645.53,"N_COORD97":2545555.0800000001,"ADDRESS":"北門路二段５７６巷１６號","OBJECTID":264080},"geometry":{"x":169645.53000000026,"y":2545555.0800000001}},{"attributes":{"ID":264085,"DIS_CODE":0,"TOWNNAME":"永康區","LI":"龍潭里","LIN":"22鄰","STREET":"龍橋街","SECT":" ","MAREA":" ","LANE":" ","ALLEY":" ","HOUSE_NO":"８４號","E_COORD97":174714.32999999999,"N_COORD97":2548525.0600000001,"ADDRESS":"龍橋街８４號","OBJECTID":264081},"geometry":{"x":174714.33000000101,"y":2548525.0600000024}},{"attributes":{"ID":264086,"DIS_CODE":0,"TOWNNAME":"安南區","LI":"安東里","LIN":"4鄰","STREET":"安和路","SECT":"一段","MAREA":" ","LANE":" ","ALLEY":" ","HOUSE_NO":"１５３號","E_COORD97":169725.21828,"N_COORD97":2548228.6659200001,"ADDRESS":"安和路一段１５３號","OBJECTID":264082},"geometry":{"x":169725.21828000154,"y":2548228.6659239996}},{"attributes":{"ID":264087,"DIS_CODE":0,"TOWNNAME":"永康區","LI":"西灣里","LIN":"40鄰","STREET":"大勇路","SECT":" ","MAREA":" ","LANE":"２３巷","ALLEY":" ","HOUSE_NO":"１９號二樓之１","E_COORD97":174164.12,"N_COORD97":2545406.0499999998,"ADDRESS":"大勇路２３巷１９號二樓之１","OBJECTID":264083},"geometry":{"x":174164.12000000011,"y":2545406.0500000026}},{"attributes":{"ID":264088,"DIS_CODE":0,"TOWNNAME":"永康區","LI":"西灣里","LIN":"40鄰","STREET":"大勇路","SECT":" ","MAREA":" ","LANE":"２３巷","ALLEY":" ","HOUSE_NO":"１９號三樓之２","E_COORD97":174164.26000000001,"N_COORD97":2545406.0499999998,"ADDRESS":"大勇路２３巷１９號三樓之２","OBJECTID":264084},"geometry":{"x":174164.25999999978,"y":2545406.0500000026}},{"attributes":{"ID":264089,"DIS_CODE":0,"TOWNNAME":"永康區","LI":"二王里","LIN":"22鄰","STREET":"中山南路","SECT":" ","MAREA":" ","LANE":" ","ALLEY":" ","HOUSE_NO":"５９８號","E_COORD97":172286.85000000001,"N_COORD97":2546617.3700000001,"ADDRESS":"中山南路５９８號","OBJECTID":264085},"geometry":{"x":172286.84999999963,"y":2546617.3700000029}},{"attributes":{"ID":264090,"DIS_CODE":0,"TOWNNAME":"永康區","LI":"二王里","LIN":"22鄰","STREET":"中山南路","SECT":" ","MAREA":" ","LANE":" ","ALLEY":" ","HOUSE_NO":"５９０號","E_COORD97":172273.14000000001,"N_COORD97":2546607.8599999999,"ADDRESS":"中山南路５９０號","OBJECTID":264086},"geometry":{"x":172273.13999999966,"y":2546607.8599999975}},{"attributes":{"ID":264091,"DIS_CODE":0,"TOWNNAME":"北區","LI":" ","LIN":" ","STREET":"北門路","SECT":"二段","MAREA":" ","LANE":"５７６巷","ALLEY":" ","HOUSE_NO":"１８號","E_COORD97":169638.54999999999,"N_COORD97":2545536.4300000002,"ADDRESS":"北門路二段５７６巷１８號","OBJECTID":264087},"geometry":{"x":169638.55000000168,"y":2545536.4300000034}},{"attributes":{"ID":264092,"DIS_CODE":0,"TOWNNAME":"永康區","LI":"復華里","LIN":"40鄰","STREET":"復華七街","SECT":" ","MAREA":" ","LANE":"３２巷","ALLEY":" ","HOUSE_NO":"２６號","E_COORD97":172683.10000000001,"N_COORD97":2545883.21,"ADDRESS":"復華七街３２巷２６號","OBJECTID":264088},"geometry":{"x":172683.10000000056,"y":2545883.2100000028}},{"attributes":{"ID":264093,"DIS_CODE":0,"TOWNNAME":"仁德區","LI":"太子里","LIN":"40鄰","STREET":"太子路","SECT":" ","MAREA":" ","LANE":"２８巷","ALLEY":" ","HOUSE_NO":"４７之１號","E_COORD97":175352.32999999999,"N_COORD97":2543726.2999999998,"ADDRESS":"太子路２８巷４７之１號","OBJECTID":264089},"geometry":{"x":175352.33000000007,"y":2543726.3000000026}},{"attributes":{"ID":264094,"DIS_CODE":0,"TOWNNAME":"仁德區","LI":"太子里","LIN":"40鄰","STREET":"太子路","SECT":" ","MAREA":" ","LANE":"２８巷","ALLEY":" ","HOUSE_NO":"３３號","E_COORD97":175345.45999999999,"N_COORD97":2543705.25,"ADDRESS":"太子路２８巷３３號","OBJECTID":264090},"geometry":{"x":175345.46000000089,"y":2543705.2500000019}},{"attributes":{"ID":264095,"DIS_CODE":0,"TOWNNAME":"仁德區","LI":"太子里","LIN":"40鄰","STREET":"太子路","SECT":" ","MAREA":" ","LANE":"２８巷","ALLEY":" ","HOUSE_NO":"３３之２號","E_COORD97":175338.04999999999,"N_COORD97":2543714.0499999998,"ADDRESS":"太子路２８巷３３之２號","OBJECTID":264091},"geometry":{"x":175338.05000000075,"y":2543714.0500000026}},{"attributes":{"ID":264096,"DIS_CODE":0,"TOWNNAME":"仁德區","LI":"太子里","LIN":"40鄰","STREET":"太子路","SECT":" ","MAREA":" ","LANE":"２８巷","ALLEY":" ","HOUSE_NO":"４５號","E_COORD97":175325.42000000001,"N_COORD97":2543731.0099999998,"ADDRESS":"太子路２８巷４５號","OBJECTID":264092},"geometry":{"x":175325.42000000086,"y":2543731.0099999998}},{"attributes":{"ID":264097,"DIS_CODE":0,"TOWNNAME":"仁德區","LI":"太子里","LIN":"40鄰","STREET":"太子路","SECT":" ","MAREA":" ","LANE":"２８巷","ALLEY":" ","HOUSE_NO":"４９之１號","E_COORD97":175356.34,"N_COORD97":2543738.5499999998,"ADDRESS":"太子路２８巷４９之１號","OBJECTID":264093},"geometry":{"x":175356.34000000078,"y":2543738.5500000007}},{"attributes":{"ID":264098,"DIS_CODE":0,"TOWNNAME":"仁德區","LI":"太子里","LIN":"40鄰","STREET":"太子路","SECT":" ","MAREA":" ","LANE":"２８巷","ALLEY":" ","HOUSE_NO":"２２號","E_COORD97":175353.98000000001,"N_COORD97":2543679.75,"ADDRESS":"太子路２８巷２２號","OBJECTID":264094},"geometry":{"x":175353.97999999952,"y":2543679.75}},{"attributes":{"ID":264099,"DIS_CODE":0,"TOWNNAME":"永康區","LI":"二王里","LIN":"22鄰","STREET":"中山南路","SECT":" ","MAREA":" ","LANE":" ","ALLEY":" ","HOUSE_NO":"６０８號","E_COORD97":172304.01000000001,"N_COORD97":2546629.3700000001,"ADDRESS":"中山南路６０８號","OBJECTID":264095},"geometry":{"x":172304.01000000071,"y":2546629.370000001}},{"attributes":{"ID":264100,"DIS_CODE":0,"TOWNNAME":"永康區","LI":"二王里","LIN":"22鄰","STREET":"中山南路","SECT":" ","MAREA":" ","LANE":" ","ALLEY":" ","HOUSE_NO":"５８０號","E_COORD97":172256.04999999999,"N_COORD97":2546595.6099999999,"ADDRESS":"中山南路５８０號","OBJECTID":264096},"geometry":{"x":172256.05000000075,"y":2546595.6099999994}},{"attributes":{"ID":264101,"DIS_CODE":0,"TOWNNAME":"仁德區","LI":"太子里","LIN":"40鄰","STREET":"太子路","SECT":" ","MAREA":" ","LANE":"２８巷","ALLEY":" ","HOUSE_NO":"５７號","E_COORD97":175317.51000000001,"N_COORD97":2543756.5099999998,"ADDRESS":"太子路２８巷５７號","OBJECTID":264097},"geometry":{"x":175317.51000000164,"y":2543756.5100000016}},{"attributes":{"ID":264102,"DIS_CODE":0,"TOWNNAME":"永康區","LI":"埔園里","LIN":"39鄰","STREET":"聖龍街","SECT":" ","MAREA":" ","LANE":" ","ALLEY":" ","HOUSE_NO":"１６９號","E_COORD97":174283.39000000001,"N_COORD97":2547859.8500000001,"ADDRESS":"聖龍街１６９號","OBJECTID":264098},"geometry":{"x":174283.38999999966,"y":2547859.8500000015}},{"attributes":{"ID":264103,"DIS_CODE":0,"TOWNNAME":"仁德區","LI":"太子里","LIN":"40鄰","STREET":"太子路","SECT":" ","MAREA":" ","LANE":"６６巷","ALLEY":" ","HOUSE_NO":"４０號","E_COORD97":175295.31,"N_COORD97":2543767.5,"ADDRESS":"太子路６６巷４０號","OBJECTID":264099},"geometry":{"x":175295.31000000052,"y":2543767.5000000019}},{"attributes":{"ID":264104,"DIS_CODE":0,"TOWNNAME":"將軍區","LI":"鯤鯓里","LIN":"3鄰","STREET":" ","SECT":" ","MAREA":"鯤鯓","LANE":" ","ALLEY":" ","HOUSE_NO":"２５號","E_COORD97":156571,"N_COORD97":2565639.9300000002,"ADDRESS":"鯤鯓２５號","OBJECTID":264100},"geometry":{"x":156571.00000000093,"y":2565639.9299999997}},{"attributes":{"ID":264105,"DIS_CODE":0,"TOWNNAME":"永康區","LI":"埔園里","LIN":"28鄰","STREET":"埔園街","SECT":" ","MAREA":" ","LANE":" ","ALLEY":" ","HOUSE_NO":"２４６號","E_COORD97":173686.09,"N_COORD97":2548258.4900000002,"ADDRESS":"埔園街２４６號","OBJECTID":264101},"geometry":{"x":173686.08999999985,"y":2548258.4900000002}},{"attributes":{"ID":264106,"DIS_CODE":0,"TOWNNAME":"歸仁區","LI":"南保里","LIN":"60鄰","STREET":"中山七街","SECT":" ","MAREA":" ","LANE":"１１巷","ALLEY":" ","HOUSE_NO":"４１號","E_COORD97":176718.29000000001,"N_COORD97":2540824.2599999998,"ADDRESS":"中山七街１１巷４１號","OBJECTID":264102},"geometry":{"x":176718.29000000097,"y":2540824.2599999998}},{"attributes":{"ID":264107,"DIS_CODE":0,"TOWNNAME":"永康區","LI":"埔園里","LIN":"29鄰","STREET":"埔東街","SECT":" ","MAREA":" ","LANE":" ","ALLEY":" ","HOUSE_NO":"６２號","E_COORD97":173795.17000000001,"N_COORD97":2548211.1400000001,"ADDRESS":"埔東街６２號","OBJECTID":264103},"geometry":{"x":173795.17000000086,"y":2548211.1400000043}},{"attributes":{"ID":264108,"DIS_CODE":0,"TOWNNAME":"永康區","LI":"西灣里","LIN":"22鄰","STREET":"大勇路","SECT":" ","MAREA":" ","LANE":" ","ALLEY":" ","HOUSE_NO":"４６號","E_COORD97":174218.01000000001,"N_COORD97":2545382.3999999999,"ADDRESS":"大勇路４６號","OBJECTID":264104},"geometry":{"x":174218.01000000071,"y":2545382.4000000022}},{"attributes":{"ID":264109,"DIS_CODE":0,"TOWNNAME":"永康區","LI":"二王里","LIN":"22鄰","STREET":"中山南路","SECT":" ","MAREA":" ","LANE":" ","ALLEY":" ","HOUSE_NO":"５８６號","E_COORD97":172266.60000000001,"N_COORD97":2546602.8599999999,"ADDRESS":"中山南路５８６號","OBJECTID":264105},"geometry":{"x":172266.59999999963,"y":2546602.8600000013}},{"attributes":{"ID":264110,"DIS_CODE":0,"TOWNNAME":"永康區","LI":"中興里","LIN":"22鄰","STREET":"中華路","SECT":" ","MAREA":" ","LANE":" ","ALLEY":" ","HOUSE_NO":"２０２號之１３","E_COORD97":171638.78,"N_COORD97":2545025.54,"ADDRESS":"中華路２０２號之１３","OBJECTID":264106},"geometry":{"x":171638.78000000026,"y":2545025.5399999991}},{"attributes":{"ID":264111,"DIS_CODE":0,"TOWNNAME":"安定區","LI":"港口里","LIN":"22鄰","STREET":" ","SECT":" ","MAREA":"港口","LANE":" ","ALLEY":" ","HOUSE_NO":"４１９號","E_COORD97":171762.19,"N_COORD97":2555223.25,"ADDRESS":"港口４１９號","OBJECTID":264107},"geometry":{"x":171762.19000000227,"y":2555223.25}},{"attributes":{"ID":264112,"DIS_CODE":0,"TOWNNAME":"歸仁區","LI":"南保里","LIN":"60鄰","STREET":"中山七街","SECT":" ","MAREA":" ","LANE":"１１巷","ALLEY":" ","HOUSE_NO":"３３號","E_COORD97":176692.69,"N_COORD97":2540829.2599999998,"ADDRESS":"中山七街１１巷３３號","OBJECTID":264108},"geometry":{"x":176692.69000000041,"y":2540829.2600000016}},{"attributes":{"ID":264113,"DIS_CODE":0,"TOWNNAME":"歸仁區","LI":"南保里","LIN":"60鄰","STREET":"中山七街","SECT":" ","MAREA":" ","LANE":"１１巷","ALLEY":" ","HOUSE_NO":"３１號","E_COORD97":176686.48999999999,"N_COORD97":2540829.2599999998,"ADDRESS":"中山七街１１巷３１號","OBJECTID":264109},"geometry":{"x":176686.49000000115,"y":2540829.2600000016}},{"attributes":{"ID":264114,"DIS_CODE":0,"TOWNNAME":"永康區","LI":"大橋里","LIN":"22鄰","STREET":"大橋一街","SECT":" ","MAREA":" ","LANE":" ","ALLEY":" ","HOUSE_NO":"１７３號","E_COORD97":171113.01999999999,"N_COORD97":2546548.5,"ADDRESS":"大橋一街１７３號","OBJECTID":264110},"geometry":{"x":171113.01999999955,"y":2546548.5}},{"attributes":{"ID":264115,"DIS_CODE":0,"TOWNNAME":"歸仁區","LI":"南保里","LIN":"60鄰","STREET":"中山七街","SECT":" ","MAREA":" ","LANE":"１１巷","ALLEY":" ","HOUSE_NO":"４３號","E_COORD97":176725.48999999999,"N_COORD97":2540824.2599999998,"ADDRESS":"中山七街１１巷４３號","OBJECTID":264111},"geometry":{"x":176725.49000000115,"y":2540824.2599999998}},{"attributes":{"ID":264116,"DIS_CODE":0,"TOWNNAME":"永康區","LI":"二王里","LIN":"22鄰","STREET":"中山南路","SECT":" ","MAREA":" ","LANE":" ","ALLEY":" ","HOUSE_NO":"５９６號","E_COORD97":172283.31,"N_COORD97":2546614.8700000001,"ADDRESS":"中山南路５９６號","OBJECTID":264112},"geometry":{"x":172283.31000000052,"y":2546614.870000001}},{"attributes":{"ID":264117,"DIS_CODE":0,"TOWNNAME":"歸仁區","LI":"南保里","LIN":"60鄰","STREET":"中山七街","SECT":" ","MAREA":" ","LANE":"１１巷","ALLEY":" ","HOUSE_NO":"３９號","E_COORD97":176718.29000000001,"N_COORD97":2540824.2599999998,"ADDRESS":"中山七街１１巷３９號","OBJECTID":264113},"geometry":{"x":176718.29000000097,"y":2540824.2599999998}},{"attributes":{"ID":264118,"DIS_CODE":0,"TOWNNAME":"東區","LI":"大智里","LIN":"24鄰","STREET":"文東街","SECT":" ","MAREA":" ","LANE":"３０巷","ALLEY":" ","HOUSE_NO":"２０號","E_COORD97":171378.20999999999,"N_COORD97":2540152.77,"ADDRESS":"文東街３０巷２０號","OBJECTID":264114},"geometry":{"x":171378.20999999996,"y":2540152.7699999996}},{"attributes":{"ID":264119,"DIS_CODE":0,"TOWNNAME":"永康區","LI":"三合里","LIN":"24鄰","STREET":"南工街","SECT":" ","MAREA":" ","LANE":"２６７巷","ALLEY":" ","HOUSE_NO":"６２號","E_COORD97":171838.20999999999,"N_COORD97":2545837.9900000002,"ADDRESS":"南工街２６７巷６２號","OBJECTID":264115},"geometry":{"x":171838.21000000089,"y":2545837.9900000002}},{"attributes":{"ID":264120,"DIS_CODE":0,"TOWNNAME":"永康區","LI":"二王里","LIN":"22鄰","STREET":"中山南路","SECT":" ","MAREA":" ","LANE":" ","ALLEY":" ","HOUSE_NO":"５８２號","E_COORD97":172259.45999999999,"N_COORD97":2546598.3599999999,"ADDRESS":"中山南路５８２號","OBJECTID":264116},"geometry":{"x":172259.45999999996,"y":2546598.3600000013}},{"attributes":{"ID":264121,"DIS_CODE":0,"TOWNNAME":"永康區","LI":"大橋里","LIN":"24鄰","STREET":"大橋一街","SECT":" ","MAREA":" ","LANE":"２２３巷","ALLEY":" ","HOUSE_NO":"７２號","E_COORD97":171178.64999999999,"N_COORD97":2546735.75,"ADDRESS":"大橋一街２２３巷７２號","OBJECTID":264117},"geometry":{"x":171178.65000000037,"y":2546735.7500000019}},{"attributes":{"ID":264122,"DIS_CODE":0,"TOWNNAME":"東區","LI":"大福里","LIN":"22鄰","STREET":"立德八路","SECT":" ","MAREA":" ","LANE":" ","ALLEY":" ","HOUSE_NO":"８號","E_COORD97":169433.23999999999,"N_COORD97":2541906.7400000002,"ADDRESS":"立德八路８號","OBJECTID":264118},"geometry":{"x":169433.24000000115,"y":2541906.7400000002}},{"attributes":{"ID":264123,"DIS_CODE":0,"TOWNNAME":"永康區","LI":"大橋里","LIN":"24鄰","STREET":"大橋一街","SECT":" ","MAREA":" ","LANE":"２２３巷","ALLEY":" ","HOUSE_NO":"９６號","E_COORD97":171154.04000000001,"N_COORD97":2546773.7400000002,"ADDRESS":"大橋一街２２３巷９６號","OBJECTID":264119},"geometry":{"x":171154.04000000004,"y":2546773.7400000021}},{"attributes":{"ID":264124,"DIS_CODE":0,"TOWNNAME":"新營區","LI":"埤寮里","LIN":"13鄰","STREET":"中正路","SECT":" ","MAREA":" ","LANE":" ","ALLEY":" ","HOUSE_NO":"４３７之１號","E_COORD97":180046.084057,"N_COORD97":2580317.5337200002,"ADDRESS":"中正路４３７之１號","OBJECTID":264120},"geometry":{"x":180046.08405699953,"y":2580317.5337190013}},{"attributes":{"ID":264125,"DIS_CODE":0,"TOWNNAME":"永康區","LI":"中興里","LIN":"24鄰","STREET":"中華路","SECT":" ","MAREA":" ","LANE":"２１６巷","ALLEY":" ","HOUSE_NO":"２０號","E_COORD97":171799.29999999999,"N_COORD97":2545141.3399999999,"ADDRESS":"中華路２１６巷２０號","OBJECTID":264121},"geometry":{"x":171799.29999999981,"y":2545141.3400000017}},{"attributes":{"ID":264126,"DIS_CODE":0,"TOWNNAME":"永康區","LI":"中興里","LIN":"24鄰","STREET":"中華路","SECT":" ","MAREA":" ","LANE":"２１６巷","ALLEY":" ","HOUSE_NO":"１２號之１８","E_COORD97":171780.35999999999,"N_COORD97":2545140.0699999998,"ADDRESS":"中華路２１６巷１２號之１８","OBJECTID":264122},"geometry":{"x":171780.36000000127,"y":2545140.0700000022}},{"attributes":{"ID":264127,"DIS_CODE":0,"TOWNNAME":"永康區","LI":"大橋里","LIN":"24鄰","STREET":"大橋一街","SECT":" ","MAREA":" ","LANE":"２２３巷","ALLEY":" ","HOUSE_NO":"９２號","E_COORD97":171159.14999999999,"N_COORD97":2546766,"ADDRESS":"大橋一街２２３巷９２號","OBJECTID":264123},"geometry":{"x":171159.1500000013,"y":2546766}},{"attributes":{"ID":264128,"DIS_CODE":0,"TOWNNAME":"永康區","LI":"大灣里","LIN":"24鄰","STREET":"大灣路","SECT":" ","MAREA":" ","LANE":"２７９巷","ALLEY":" ","HOUSE_NO":"１號之１","E_COORD97":174921.53,"N_COORD97":2545179.5499999998,"ADDRESS":"大灣路２７９巷１號之１","OBJECTID":264124},"geometry":{"x":174921.53000000119,"y":2545179.5500000007}},{"attributes":{"ID":264129,"DIS_CODE":0,"TOWNNAME":"永康區","LI":"中興里","LIN":"24鄰","STREET":"中華路","SECT":" ","MAREA":" ","LANE":"２１６巷","ALLEY":" ","HOUSE_NO":"１２號之９","E_COORD97":171739.73999999999,"N_COORD97":2545136.77,"ADDRESS":"中華路２１６巷１２號之９","OBJECTID":264125},"geometry":{"x":171739.74000000115,"y":2545136.7699999996}},{"attributes":{"ID":264130,"DIS_CODE":0,"TOWNNAME":"永康區","LI":"大橋里","LIN":"24鄰","STREET":"大橋一街","SECT":" ","MAREA":" ","LANE":"２２３巷","ALLEY":" ","HOUSE_NO":"７６號","E_COORD97":171168.01000000001,"N_COORD97":2546749,"ADDRESS":"大橋一街２２３巷７６號","OBJECTID":264126},"geometry":{"x":171168.01000000071,"y":2546749}},{"attributes":{"ID":264131,"DIS_CODE":0,"TOWNNAME":"永康區","LI":"中興里","LIN":"24鄰","STREET":"中華路","SECT":" ","MAREA":" ","LANE":"２１６巷","ALLEY":" ","HOUSE_NO":"１４號","E_COORD97":171786.06,"N_COORD97":2545140.9300000002,"ADDRESS":"中華路２１６巷１４號","OBJECTID":264127},"geometry":{"x":171786.06000000052,"y":2545140.9300000016}},{"attributes":{"ID":264132,"DIS_CODE":0,"TOWNNAME":"永康區","LI":"中興里","LIN":"24鄰","STREET":"中華路","SECT":" ","MAREA":" ","LANE":"２１６巷","ALLEY":" ","HOUSE_NO":"１２號之１７","E_COORD97":171773.45999999999,"N_COORD97":2545139.5699999998,"ADDRESS":"中華路２１６巷１２號之１７","OBJECTID":264128},"geometry":{"x":171773.46000000183,"y":2545139.570000004}},{"attributes":{"ID":264133,"DIS_CODE":0,"TOWNNAME":"北區","LI":" ","LIN":" ","STREET":"北門路","SECT":"二段","MAREA":" ","LANE":"５７６巷","ALLEY":" ","HOUSE_NO":"９號","E_COORD97":169715.23000000001,"N_COORD97":2545779.3999999999,"ADDRESS":"北門路二段５７６巷９號","OBJECTID":264129},"geometry":{"x":169715.23000000045,"y":2545779.4000000022}},{"attributes":{"ID":264134,"DIS_CODE":0,"TOWNNAME":"北區","LI":" ","LIN":" ","STREET":"北門路","SECT":"二段","MAREA":" ","LANE":"５７７巷","ALLEY":" ","HOUSE_NO":"１１號","E_COORD97":169594.26000000001,"N_COORD97":2545735.3500000001,"ADDRESS":"北門路二段５７７巷１１號","OBJECTID":264130},"geometry":{"x":169594.25999999978,"y":2545735.3499999996}},{"attributes":{"ID":264135,"DIS_CODE":0,"TOWNNAME":"永康區","LI":"中興里","LIN":"24鄰","STREET":"中華路","SECT":" ","MAREA":" ","LANE":"２１６巷","ALLEY":" ","HOUSE_NO":"１２號之８","E_COORD97":171732.14000000001,"N_COORD97":2545136.77,"ADDRESS":"中華路２１６巷１２號之８","OBJECTID":264131},"geometry":{"x":171732.13999999966,"y":2545136.7699999996}},{"attributes":{"ID":264136,"DIS_CODE":0,"TOWNNAME":"永康區","LI":"勝利里","LIN":"24鄰","STREET":"勝利街","SECT":" ","MAREA":" ","LANE":"１１６巷","ALLEY":" ","HOUSE_NO":"１５號","E_COORD97":171392.76000000001,"N_COORD97":2544870.7599999998,"ADDRESS":"勝利街１１６巷１５號","OBJECTID":264132},"geometry":{"x":171392.75999999978,"y":2544870.7600000016}},{"attributes":{"ID":264137,"DIS_CODE":0,"TOWNNAME":"北區","LI":" ","LIN":" ","STREET":"北門路","SECT":"二段","MAREA":" ","LANE":"５７７巷","ALLEY":" ","HOUSE_NO":"１３號","E_COORD97":169573.78,"N_COORD97":2545741.8500000001,"ADDRESS":"北門路二段５７７巷１３號","OBJECTID":264133},"geometry":{"x":169573.78000000026,"y":2545741.8500000015}},{"attributes":{"ID":264138,"DIS_CODE":0,"TOWNNAME":"六甲區","LI":"二甲里","LIN":"24鄰","STREET":"信義街","SECT":" ","MAREA":" ","LANE":"３１８巷","ALLEY":" ","HOUSE_NO":"２號","E_COORD97":183404.20000000001,"N_COORD97":2569954.5099999998,"ADDRESS":"信義街３１８巷２號","OBJECTID":264134},"geometry":{"x":183404.20000000019,"y":2569954.5100000016}},{"attributes":{"ID":264139,"DIS_CODE":0,"TOWNNAME":"永康區","LI":"安康里","LIN":"24鄰","STREET":"大橋一街","SECT":" ","MAREA":" ","LANE":"１２８巷","ALLEY":" ","HOUSE_NO":"１號","E_COORD97":170842.29999999999,"N_COORD97":2546353.6299999999,"ADDRESS":"大橋一街１２８巷１號","OBJECTID":264135},"geometry":{"x":170842.30000000075,"y":2546353.629999999}},{"attributes":{"ID":264140,"DIS_CODE":0,"TOWNNAME":"永康區","LI":"安康里","LIN":"24鄰","STREET":"大橋一街","SECT":" ","MAREA":" ","LANE":"１２８巷","ALLEY":" ","HOUSE_NO":"２號","E_COORD97":170847.23999999999,"N_COORD97":2546355.8300000001,"ADDRESS":"大橋一街１２８巷２號","OBJECTID":264136},"geometry":{"x":170847.24000000022,"y":2546355.8300000019}},{"attributes":{"ID":264141,"DIS_CODE":0,"TOWNNAME":"永康區","LI":"安康里","LIN":"24鄰","STREET":"大橋一街","SECT":" ","MAREA":" ","LANE":"１２８巷","ALLEY":" ","HOUSE_NO":"３號","E_COORD97":170844.17000000001,"N_COORD97":2546349.8900000001,"ADDRESS":"大橋一街１２８巷３號","OBJECTID":264137},"geometry":{"x":170844.16999999993,"y":2546349.8900000006}},{"attributes":{"ID":264142,"DIS_CODE":0,"TOWNNAME":"北區","LI":" ","LIN":" ","STREET":"北門路","SECT":"二段","MAREA":" ","LANE":"５７７巷","ALLEY":" ","HOUSE_NO":"１５號","E_COORD97":169524.25,"N_COORD97":2545742.3300000001,"ADDRESS":"北門路二段５７７巷１５號","OBJECTID":264138},"geometry":{"x":169524.25000000093,"y":2545742.3300000019}},{"attributes":{"ID":264143,"DIS_CODE":0,"TOWNNAME":"新市區","LI":"大營里","LIN":"22鄰","STREET":" ","SECT":" ","MAREA":"大營","LANE":" ","ALLEY":" ","HOUSE_NO":"１３３之３７號","E_COORD97":179546.84,"N_COORD97":2555094.2999999998,"ADDRESS":"大營１３３之３７號","OBJECTID":264139},"geometry":{"x":179546.84000000078,"y":2555094.3000000007}},{"attributes":{"ID":264144,"DIS_CODE":0,"TOWNNAME":"新市區","LI":"大營里","LIN":"22鄰","STREET":" ","SECT":" ","MAREA":"大營","LANE":" ","ALLEY":" ","HOUSE_NO":"１３６號","E_COORD97":179626.59,"N_COORD97":2555171.5,"ADDRESS":"大營１３６號","OBJECTID":264140},"geometry":{"x":179626.59000000078,"y":2555171.5}},{"attributes":{"ID":264145,"DIS_CODE":0,"TOWNNAME":"新市區","LI":"大社里","LIN":"22鄰","STREET":" ","SECT":" ","MAREA":"大社","LANE":" ","ALLEY":" ","HOUSE_NO":"８１８號","E_COORD97":179807.29000000001,"N_COORD97":2554176,"ADDRESS":"大社８１８號","OBJECTID":264141},"geometry":{"x":179807.29000000097,"y":2554176.0000000019}},{"attributes":{"ID":264146,"DIS_CODE":0,"TOWNNAME":"安定區","LI":"港口里","LIN":"22鄰","STREET":" ","SECT":" ","MAREA":"港口","LANE":" ","ALLEY":" ","HOUSE_NO":"４０８號之２","E_COORD97":171619.66,"N_COORD97":2555054.2999999998,"ADDRESS":"港口４０８號之２","OBJECTID":264142},"geometry":{"x":171619.66000000201,"y":2555054.3000000007}},{"attributes":{"ID":264147,"DIS_CODE":0,"TOWNNAME":"安定區","LI":"港南里","LIN":"22鄰","STREET":" ","SECT":" ","MAREA":"港口","LANE":" ","ALLEY":" ","HOUSE_NO":"１９３號之１","E_COORD97":171354.29000000001,"N_COORD97":2554504.2999999998,"ADDRESS":"港口１９３之１號","OBJECTID":264143},"geometry":{"x":171354.2900000019,"y":2554504.3000000026}},{"attributes":{"ID":264148,"DIS_CODE":0,"TOWNNAME":"安定區","LI":"港口里","LIN":"22鄰","STREET":" ","SECT":" ","MAREA":"港口","LANE":" ","ALLEY":" ","HOUSE_NO":"４１４之８號","E_COORD97":171604.48999999999,"N_COORD97":2555252.2999999998,"ADDRESS":"港口４１４之８號","OBJECTID":264144},"geometry":{"x":171604.49000000115,"y":2555252.3000000026}},{"attributes":{"ID":264149,"DIS_CODE":0,"TOWNNAME":"安定區","LI":"蘇厝里","LIN":"22鄰","STREET":" ","SECT":" ","MAREA":"蘇厝","LANE":" ","ALLEY":" ","HOUSE_NO":"５１８號","E_COORD97":172666.62,"N_COORD97":2558758.25,"ADDRESS":"蘇厝５１８號","OBJECTID":264145},"geometry":{"x":172666.62000000104,"y":2558758.2500000019}},{"attributes":{"ID":264150,"DIS_CODE":0,"TOWNNAME":"安定區","LI":"港南里","LIN":"22鄰","STREET":" ","SECT":" ","MAREA":"港口","LANE":" ","ALLEY":" ","HOUSE_NO":"２００號之６","E_COORD97":171341.53,"N_COORD97":2554552.2999999998,"ADDRESS":"港口２００號之６","OBJECTID":264146},"geometry":{"x":171341.53000000119,"y":2554552.3000000007}},{"attributes":{"ID":264151,"DIS_CODE":0,"TOWNNAME":"安定區","LI":"港口里","LIN":"22鄰","STREET":" ","SECT":" ","MAREA":"港口","LANE":" ","ALLEY":" ","HOUSE_NO":"４０９號之３","E_COORD97":171659.72,"N_COORD97":2555024.2999999998,"ADDRESS":"港口４０９號之３","OBJECTID":264147},"geometry":{"x":171659.72000000067,"y":2555024.3000000007}},{"attributes":{"ID":264152,"DIS_CODE":0,"TOWNNAME":"安定區","LI":"港南里","LIN":"22鄰","STREET":" ","SECT":" ","MAREA":"港口","LANE":" ","ALLEY":" ","HOUSE_NO":"２００號","E_COORD97":171313.29000000001,"N_COORD97":2554562.25,"ADDRESS":"港口２００號","OBJECTID":264148},"geometry":{"x":171313.29000000004,"y":2554562.25}},{"attributes":{"ID":264153,"DIS_CODE":0,"TOWNNAME":"安定區","LI":"蘇厝里","LIN":"22鄰","STREET":" ","SECT":" ","MAREA":"蘇厝","LANE":" ","ALLEY":" ","HOUSE_NO":"５０９號","E_COORD97":172673.238855,"N_COORD97":2558804.2390200002,"ADDRESS":"蘇厝５０９號","OBJECTID":264149},"geometry":{"x":172673.23885500152,"y":2558804.2390209995}},{"attributes":{"ID":264154,"DIS_CODE":0,"TOWNNAME":"安定區","LI":"蘇林里","LIN":"22鄰","STREET":" ","SECT":" ","MAREA":"蘇厝","LANE":" ","ALLEY":" ","HOUSE_NO":"２５０號","E_COORD97":173307.92000000001,"N_COORD97":2558603.25,"ADDRESS":"蘇厝２５０號","OBJECTID":264150},"geometry":{"x":173307.92000000179,"y":2558603.25}},{"attributes":{"ID":264155,"DIS_CODE":0,"TOWNNAME":"北區","LI":" ","LIN":" ","STREET":"北門路","SECT":"二段","MAREA":" ","LANE":"５７７巷","ALLEY":" ","HOUSE_NO":"１７號","E_COORD97":169520.44,"N_COORD97":2545761.7000000002,"ADDRESS":"北門路二段５７７巷１７號","OBJECTID":264151},"geometry":{"x":169520.44000000041,"y":2545761.7000000011}},{"attributes":{"ID":264156,"DIS_CODE":0,"TOWNNAME":"永康區","LI":"勝利里","LIN":"24鄰","STREET":"勝利街","SECT":" ","MAREA":" ","LANE":"９６巷","ALLEY":" ","HOUSE_NO":"１號","E_COORD97":171381.87,"N_COORD97":2544799.1200000001,"ADDRESS":"勝利街９６巷１號","OBJECTID":264152},"geometry":{"x":171381.87000000011,"y":2544799.1200000029}},{"attributes":{"ID":264157,"DIS_CODE":0,"TOWNNAME":"中西區","LI":"法華里","LIN":"22鄰","STREET":"健康路","SECT":"一段","MAREA":" ","LANE":" ","ALLEY":" ","HOUSE_NO":"１７６號","E_COORD97":168677.10999999999,"N_COORD97":2542451.6600000001,"ADDRESS":"健康路一段１７６號","OBJECTID":264153},"geometry":{"x":168677.11000000034,"y":2542451.660000002}},{"attributes":{"ID":264158,"DIS_CODE":0,"TOWNNAME":"安定區","LI":"蘇厝里","LIN":"22鄰","STREET":" ","SECT":" ","MAREA":"蘇厝","LANE":" ","ALLEY":" ","HOUSE_NO":"５０８號","E_COORD97":172677.951635,"N_COORD97":2558808.10194,"ADDRESS":"蘇厝５０８號","OBJECTID":264154},"geometry":{"x":172677.95163500216,"y":2558808.1019360013}},{"attributes":{"ID":264159,"DIS_CODE":0,"TOWNNAME":"安定區","LI":"港口里","LIN":"22鄰","STREET":" ","SECT":" ","MAREA":"港口","LANE":" ","ALLEY":" ","HOUSE_NO":"４０８之７號","E_COORD97":171637.19,"N_COORD97":2555085.2999999998,"ADDRESS":"港口４０８之７號","OBJECTID":264155},"geometry":{"x":171637.19000000134,"y":2555085.3000000007}},{"attributes":{"ID":264160,"DIS_CODE":0,"TOWNNAME":"安定區","LI":"蘇厝里","LIN":"22鄰","STREET":" ","SECT":" ","MAREA":"蘇厝","LANE":" ","ALLEY":" ","HOUSE_NO":"５０２號之１","E_COORD97":172888.54999999999,"N_COORD97":2558936.2999999998,"ADDRESS":"蘇厝５０２號之１","OBJECTID":264156},"geometry":{"x":172888.55000000075,"y":2558936.3000000007}},{"attributes":{"ID":264161,"DIS_CODE":0,"TOWNNAME":"新市區","LI":"大營里","LIN":"22鄰","STREET":" ","SECT":" ","MAREA":"大營","LANE":" ","ALLEY":" ","HOUSE_NO":"１３３之３３號","E_COORD97":179566.42999999999,"N_COORD97":2555100.7999999998,"ADDRESS":"大營１３３之３３號","OBJECTID":264157},"geometry":{"x":179566.43000000063,"y":2555100.8000000026}},{"attributes":{"ID":264162,"DIS_CODE":0,"TOWNNAME":"永康區","LI":"安康里","LIN":"24鄰","STREET":"大橋一街","SECT":" ","MAREA":" ","LANE":"１２８巷","ALLEY":" ","HOUSE_NO":"６號","E_COORD97":170849.16,"N_COORD97":2546352.4300000002,"ADDRESS":"大橋一街１２８巷６號","OBJECTID":264158},"geometry":{"x":170849.16000000108,"y":2546352.4299999997}},{"attributes":{"ID":264163,"DIS_CODE":0,"TOWNNAME":"官田區","LI":"渡頭里","LIN":"22鄰","STREET":" ","SECT":" ","MAREA":"渡子頭","LANE":" ","ALLEY":" ","HOUSE_NO":"１６８號之３","E_COORD97":181303.39000000001,"N_COORD97":2563068.8999999999,"ADDRESS":"渡子頭１６８號之３","OBJECTID":264159},"geometry":{"x":181303.38999999966,"y":2563068.8999999985}},{"attributes":{"ID":264164,"DIS_CODE":0,"TOWNNAME":"官田區","LI":"渡頭里","LIN":"22鄰","STREET":" ","SECT":" ","MAREA":"渡子頭","LANE":" ","ALLEY":" ","HOUSE_NO":"１６８號","E_COORD97":181289.28,"N_COORD97":2563075.71,"ADDRESS":"渡子頭１６８號","OBJECTID":264160},"geometry":{"x":181289.28000000026,"y":2563075.7100000028}},{"attributes":{"ID":264165,"DIS_CODE":0,"TOWNNAME":"官田區","LI":"渡頭里","LIN":"22鄰","STREET":" ","SECT":" ","MAREA":"渡子頭","LANE":" ","ALLEY":" ","HOUSE_NO":"１６９號","E_COORD97":181310.20999999999,"N_COORD97":2563085.75,"ADDRESS":"渡子頭１６９號","OBJECTID":264161},"geometry":{"x":181310.20999999996,"y":2563085.75}},{"attributes":{"ID":264166,"DIS_CODE":0,"TOWNNAME":"官田區","LI":"渡頭里","LIN":"22鄰","STREET":" ","SECT":" ","MAREA":"渡子頭","LANE":" ","ALLEY":" ","HOUSE_NO":"１７０號之１","E_COORD97":181306.48000000001,"N_COORD97":2563113.0299999998,"ADDRESS":"渡子頭１７０號之１","OBJECTID":264162},"geometry":{"x":181306.48000000138,"y":2563113.0299999993}},{"attributes":{"ID":264167,"DIS_CODE":0,"TOWNNAME":"官田區","LI":"渡頭里","LIN":"22鄰","STREET":" ","SECT":" ","MAREA":"渡子頭","LANE":" ","ALLEY":" ","HOUSE_NO":"１７０號之２","E_COORD97":181308.57999999999,"N_COORD97":2563118.4500000002,"ADDRESS":"渡子頭１７０號之２","OBJECTID":264163},"geometry":{"x":181308.58000000101,"y":2563118.450000003}},{"attributes":{"ID":264168,"DIS_CODE":0,"TOWNNAME":"官田區","LI":"渡頭里","LIN":"22鄰","STREET":" ","SECT":" ","MAREA":"渡子頭","LANE":" ","ALLEY":" ","HOUSE_NO":"１７０號之３","E_COORD97":181304.84,"N_COORD97":2563108.1000000001,"ADDRESS":"渡子頭１７０號之３","OBJECTID":264164},"geometry":{"x":181304.84000000078,"y":2563108.1000000015}},{"attributes":{"ID":264169,"DIS_CODE":0,"TOWNNAME":"官田區","LI":"渡頭里","LIN":"22鄰","STREET":" ","SECT":" ","MAREA":"渡子頭","LANE":" ","ALLEY":" ","HOUSE_NO":"１７０號","E_COORD97":181303.16,"N_COORD97":2563102.1600000001,"ADDRESS":"渡子頭１７０號","OBJECTID":264165},"geometry":{"x":181303.16000000108,"y":2563102.160000002}},{"attributes":{"ID":264170,"DIS_CODE":0,"TOWNNAME":"官田區","LI":"渡頭里","LIN":"22鄰","STREET":" ","SECT":" ","MAREA":"渡子頭","LANE":" ","ALLEY":" ","HOUSE_NO":"１７１號","E_COORD97":181285.70999999999,"N_COORD97":2563106.27,"ADDRESS":"渡子頭１７１號","OBJECTID":264166},"geometry":{"x":181285.71000000089,"y":2563106.2700000033}},{"attributes":{"ID":264171,"DIS_CODE":0,"TOWNNAME":"官田區","LI":"渡頭里","LIN":"22鄰","STREET":" ","SECT":" ","MAREA":"渡子頭","LANE":" ","ALLEY":" ","HOUSE_NO":"１７２號","E_COORD97":181290.79000000001,"N_COORD97":2563089.52,"ADDRESS":"渡子頭１７２號","OBJECTID":264167},"geometry":{"x":181290.79000000004,"y":2563089.5199999996}},{"attributes":{"ID":264172,"DIS_CODE":0,"TOWNNAME":"官田區","LI":"渡頭里","LIN":"22鄰","STREET":" ","SECT":" ","MAREA":"渡子頭","LANE":" ","ALLEY":" ","HOUSE_NO":"１７４號","E_COORD97":181289.34,"N_COORD97":2563133.1699999999,"ADDRESS":"渡子頭１７４號","OBJECTID":264168},"geometry":{"x":181289.34000000171,"y":2563133.1699999999}},{"attributes":{"ID":264173,"DIS_CODE":0,"TOWNNAME":"安南區","LI":"四草里","LIN":"4鄰","STREET":"大眾二街","SECT":" ","MAREA":" ","LANE":" ","ALLEY":" ","HOUSE_NO":"１６號","E_COORD97":160761.272405,"N_COORD97":2546448.9333000001,"ADDRESS":"大眾二街１６號","OBJECTID":264169},"geometry":{"x":160761.27240500133,"y":2546448.9333009999}},{"attributes":{"ID":264174,"DIS_CODE":0,"TOWNNAME":"永康區","LI":"成功里","LIN":"24鄰","STREET":"中華路","SECT":" ","MAREA":" ","LANE":"５８巷","ALLEY":" ","HOUSE_NO":"７６號","E_COORD97":171743.53,"N_COORD97":2544730.6200000001,"ADDRESS":"中華路５８巷７６號","OBJECTID":264170},"geometry":{"x":171743.53000000119,"y":2544730.6200000029}},{"attributes":{"ID":264175,"DIS_CODE":0,"TOWNNAME":"永康區","LI":"網寮里","LIN":"24鄰","STREET":"永春街","SECT":" ","MAREA":" ","LANE":"３６巷","ALLEY":" ","HOUSE_NO":"２７號","E_COORD97":173803.17000000001,"N_COORD97":2546406.9300000002,"ADDRESS":"永春街３６巷２７號","OBJECTID":264171},"geometry":{"x":173803.17000000086,"y":2546406.9299999997}},{"attributes":{"ID":264176,"DIS_CODE":0,"TOWNNAME":"永康區","LI":"網寮里","LIN":"24鄰","STREET":"永春街","SECT":" ","MAREA":" ","LANE":"３８巷","ALLEY":" ","HOUSE_NO":"２２號","E_COORD97":173790.78,"N_COORD97":2546429.46,"ADDRESS":"永春街３８巷２２號","OBJECTID":264172},"geometry":{"x":173790.78000000119,"y":2546429.4600000046}},{"attributes":{"ID":264177,"DIS_CODE":0,"TOWNNAME":"安南區","LI":"溪墘里","LIN":"24鄰","STREET":"海佃路","SECT":"一段","MAREA":" ","LANE":"３８８巷","ALLEY":" ","HOUSE_NO":"２５號","E_COORD97":167172.95000000001,"N_COORD97":2547661.96,"ADDRESS":"海佃路一段３８８巷２５號","OBJECTID":264173},"geometry":{"x":167172.95000000205,"y":2547661.9600000009}},{"attributes":{"ID":264178,"DIS_CODE":0,"TOWNNAME":"安定區","LI":"港口里","LIN":"22鄰","STREET":" ","SECT":" ","MAREA":"港口","LANE":" ","ALLEY":" ","HOUSE_NO":"４０９號之４","E_COORD97":171707.35000000001,"N_COORD97":2555014.2999999998,"ADDRESS":"港口４０９號之４","OBJECTID":264174},"geometry":{"x":171707.34999999963,"y":2555014.3000000007}},{"attributes":{"ID":264179,"DIS_CODE":0,"TOWNNAME":"安南區","LI":"溪墘里","LIN":"24鄰","STREET":"海佃路","SECT":"一段","MAREA":" ","LANE":"３８８巷","ALLEY":" ","HOUSE_NO":"２７號","E_COORD97":167179.39000000001,"N_COORD97":2547663.52,"ADDRESS":"海佃路一段３８８巷２７號","OBJECTID":264175},"geometry":{"x":167179.38999999966,"y":2547663.5199999996}},{"attributes":{"ID":264180,"DIS_CODE":0,"TOWNNAME":"安南區","LI":"溪墘里","LIN":"24鄰","STREET":"海佃路","SECT":"一段","MAREA":" ","LANE":"３８８巷","ALLEY":" ","HOUSE_NO":"２９號","E_COORD97":167185.31,"N_COORD97":2547665.1800000002,"ADDRESS":"海佃路一段３８８巷２９號","OBJECTID":264176},"geometry":{"x":167185.31000000145,"y":2547665.1800000016}},{"attributes":{"ID":264181,"DIS_CODE":0,"TOWNNAME":"安南區","LI":"海東里","LIN":"24鄰","STREET":"同安路","SECT":" ","MAREA":" ","LANE":"２２５巷","ALLEY":" ","HOUSE_NO":"３３號","E_COORD97":167114.10000000001,"N_COORD97":2549189.2799999998,"ADDRESS":"同安路２２５巷３３號","OBJECTID":264177},"geometry":{"x":167114.10000000056,"y":2549189.2800000012}},{"attributes":{"ID":264182,"DIS_CODE":0,"TOWNNAME":"安定區","LI":"港口里","LIN":"22鄰","STREET":" ","SECT":" ","MAREA":"港口","LANE":" ","ALLEY":" ","HOUSE_NO":"４１６之２號","E_COORD97":171781.19,"N_COORD97":2554882.2999999998,"ADDRESS":"港口４１６之２號","OBJECTID":264178},"geometry":{"x":171781.19000000134,"y":2554882.3000000045}},{"attributes":{"ID":264183,"DIS_CODE":0,"TOWNNAME":"安定區","LI":"港口里","LIN":"22鄰","STREET":" ","SECT":" ","MAREA":"港口","LANE":" ","ALLEY":" ","HOUSE_NO":"４０８號之６","E_COORD97":171637.73000000001,"N_COORD97":2555080.2999999998,"ADDRESS":"港口４０８號之６","OBJECTID":264179},"geometry":{"x":171637.73000000045,"y":2555080.3000000026}},{"attributes":{"ID":264184,"DIS_CODE":0,"TOWNNAME":"新市區","LI":"新和里","LIN":"22鄰","STREET":" ","SECT":" ","MAREA":"社皮","LANE":" ","ALLEY":" ","HOUSE_NO":"１６號","E_COORD97":176927.39000000001,"N_COORD97":2552494.5499999998,"ADDRESS":"社皮１６號","OBJECTID":264180},"geometry":{"x":176927.3900000006,"y":2552494.5500000026}},{"attributes":{"ID":264185,"DIS_CODE":0,"TOWNNAME":"新市區","LI":"新和里","LIN":"22鄰","STREET":" ","SECT":" ","MAREA":"社皮","LANE":" ","ALLEY":" ","HOUSE_NO":"１１號","E_COORD97":177054.75,"N_COORD97":2552551.7999999998,"ADDRESS":"社皮１１號","OBJECTID":264181},"geometry":{"x":177054.75,"y":2552551.8000000007}},{"attributes":{"ID":264186,"DIS_CODE":0,"TOWNNAME":"新市區","LI":"新和里","LIN":"22鄰","STREET":" ","SECT":" ","MAREA":"社皮","LANE":" ","ALLEY":" ","HOUSE_NO":"１２號","E_COORD97":177073.87,"N_COORD97":2552515.5499999998,"ADDRESS":"社皮１２號","OBJECTID":264182},"geometry":{"x":177073.87000000104,"y":2552515.5500000026}},{"attributes":{"ID":264187,"DIS_CODE":0,"TOWNNAME":"新市區","LI":"新和里","LIN":"22鄰","STREET":" ","SECT":" ","MAREA":"社皮","LANE":" ","ALLEY":" ","HOUSE_NO":"１號","E_COORD97":177139.82999999999,"N_COORD97":2552618.7999999998,"ADDRESS":"社皮１號","OBJECTID":264183},"geometry":{"x":177139.83000000194,"y":2552618.8000000026}},{"attributes":{"ID":264188,"DIS_CODE":0,"TOWNNAME":"永康區","LI":"中興里","LIN":"22鄰","STREET":"中華路","SECT":" ","MAREA":" ","LANE":" ","ALLEY":" ","HOUSE_NO":"１９６號之９","E_COORD97":171633.34,"N_COORD97":2544991.2999999998,"ADDRESS":"中華路１９６號之９","OBJECTID":264184},"geometry":{"x":171633.33999999892,"y":2544991.3000000007}},{"attributes":{"ID":264189,"DIS_CODE":0,"TOWNNAME":"永康區","LI":"崑山里","LIN":"24鄰","STREET":"國光一街","SECT":" ","MAREA":" ","LANE":"７０巷","ALLEY":" ","HOUSE_NO":"２１號","E_COORD97":173852.09,"N_COORD97":2544685.7799999998,"ADDRESS":"國光一街７０巷２１號","OBJECTID":264185},"geometry":{"x":173852.08999999985,"y":2544685.7799999993}},{"attributes":{"ID":264190,"DIS_CODE":0,"TOWNNAME":"永康區","LI":"崑山里","LIN":"24鄰","STREET":"國光一街","SECT":" ","MAREA":" ","LANE":"７０巷","ALLEY":" ","HOUSE_NO":"１５號","E_COORD97":173848.10999999999,"N_COORD97":2544674.7799999998,"ADDRESS":"國光一街７０巷１５號","OBJECTID":264186},"geometry":{"x":173848.11000000127,"y":2544674.7799999993}},{"attributes":{"ID":264191,"DIS_CODE":0,"TOWNNAME":"永康區","LI":"中興里","LIN":"22鄰","STREET":"中華路","SECT":" ","MAREA":" ","LANE":" ","ALLEY":" ","HOUSE_NO":"１９６號之１８","E_COORD97":171634.66,"N_COORD97":2544991.2999999998,"ADDRESS":"中華路１９６號之１８","OBJECTID":264187},"geometry":{"x":171634.66000000015,"y":2544991.3000000007}},{"attributes":{"ID":264192,"DIS_CODE":0,"TOWNNAME":"永康區","LI":"崑山里","LIN":"24鄰","STREET":"國光一街","SECT":" ","MAREA":" ","LANE":"７０巷","ALLEY":" ","HOUSE_NO":"２號","E_COORD97":173854.04999999999,"N_COORD97":2544649.3300000001,"ADDRESS":"國光一街７０巷２號","OBJECTID":264188},"geometry":{"x":173854.04999999981,"y":2544649.3300000038}},{"attributes":{"ID":264193,"DIS_CODE":0,"TOWNNAME":"永康區","LI":"\u25A0洲里","LIN":"24鄰","STREET":"正南二街","SECT":" ","MAREA":" ","LANE":"８６巷","ALLEY":" ","HOUSE_NO":"２號","E_COORD97":170778.41,"N_COORD97":2548447.4900000002,"ADDRESS":"正南二街８６巷２號","OBJECTID":264189},"geometry":{"x":170778.41000000015,"y":2548447.4900000002}},{"attributes":{"ID":264194,"DIS_CODE":0,"TOWNNAME":"永康區","LI":"西勢里","LIN":"24鄰","STREET":"廣興街","SECT":" ","MAREA":" ","LANE":"３８巷","ALLEY":" ","HOUSE_NO":"３９號","E_COORD97":176044.04999999999,"N_COORD97":2546454.6600000001,"ADDRESS":"廣興街３８巷３９號","OBJECTID":264190},"geometry":{"x":176044.04999999981,"y":2546454.660000002}},{"attributes":{"ID":264195,"DIS_CODE":0,"TOWNNAME":"南區","LI":"文華里","LIN":"7鄰","STREET":"金華路","SECT":"二段","MAREA":" ","LANE":" ","ALLEY":" ","HOUSE_NO":"３３７號","E_COORD97":167123.85000000001,"N_COORD97":2542906.5699999998,"ADDRESS":"金華路二段３３７號","OBJECTID":264191},"geometry":{"x":167123.8499999987,"y":2542906.5700000022}},{"attributes":{"ID":264196,"DIS_CODE":0,"TOWNNAME":"南區","LI":"文南里","LIN":"12鄰","STREET":"南明街","SECT":" ","MAREA":" ","LANE":" ","ALLEY":" ","HOUSE_NO":"３７號","E_COORD97":166797.17999999999,"N_COORD97":2542788.5899999999,"ADDRESS":"南明街３７號","OBJECTID":264192},"geometry":{"x":166797.1799999997,"y":2542788.5899999999}},{"attributes":{"ID":264197,"DIS_CODE":0,"TOWNNAME":"南區","LI":"文南里","LIN":"13鄰","STREET":"健康路","SECT":"二段","MAREA":" ","LANE":" ","ALLEY":" ","HOUSE_NO":"３１６號","E_COORD97":166830.92999999999,"N_COORD97":2542518.1000000001,"ADDRESS":"健康路二段３１６號","OBJECTID":264193},"geometry":{"x":166830.93000000063,"y":2542518.1000000034}},{"attributes":{"ID":264198,"DIS_CODE":0,"TOWNNAME":"南區","LI":"建南里","LIN":"4鄰","STREET":"德興路","SECT":" ","MAREA":" ","LANE":" ","ALLEY":" ","HOUSE_NO":"２７７號","E_COORD97":167226.47,"N_COORD97":2539994.6200000001,"ADDRESS":"德興路２７７號","OBJECTID":264194},"geometry":{"x":167226.46999999974,"y":2539994.6200000029}},{"attributes":{"ID":264199,"DIS_CODE":0,"TOWNNAME":"南區","LI":"金華里","LIN":"18鄰","STREET":"聖南街","SECT":" ","MAREA":" ","LANE":" ","ALLEY":" ","HOUSE_NO":"１２２號","E_COORD97":166823.42000000001,"N_COORD97":2542260.1499999999,"ADDRESS":"聖南街１２２號","OBJECTID":264195},"geometry":{"x":166823.41999999993,"y":2542260.1500000004}},{"attributes":{"ID":264200,"DIS_CODE":0,"TOWNNAME":"南區","LI":"明亮里","LIN":"13鄰","STREET":"新都路","SECT":" ","MAREA":" ","LANE":" ","ALLEY":" ","HOUSE_NO":"３８４號","E_COORD97":167454.63,"N_COORD97":2540887.98,"ADDRESS":"新都路３８４號","OBJECTID":264196},"geometry":{"x":167454.63000000175,"y":2540887.9800000004}},{"attributes":{"ID":264201,"DIS_CODE":0,"TOWNNAME":"南區","LI":"明亮里","LIN":"13鄰","STREET":"新都路","SECT":" ","MAREA":" ","LANE":" ","ALLEY":" ","HOUSE_NO":"３８６號","E_COORD97":167451.14000000001,"N_COORD97":2540886.71,"ADDRESS":"新都路３８６號","OBJECTID":264197},"geometry":{"x":167451.1400000006,"y":2540886.7100000009}},{"attributes":{"ID":264202,"DIS_CODE":0,"TOWNNAME":"永康區","LI":"尚頂里","LIN":"24鄰","STREET":"中正南路","SECT":" ","MAREA":" ","LANE":"２１０巷","ALLEY":" ","HOUSE_NO":"３６號","E_COORD97":170214.60000000001,"N_COORD97":2547142.9900000002,"ADDRESS":"中正南路２１０巷３６號","OBJECTID":264198},"geometry":{"x":170214.60000000056,"y":2547142.9900000002}},{"attributes":{"ID":264203,"DIS_CODE":0,"TOWNNAME":"永康區","LI":"勝利里","LIN":"24鄰","STREET":"勝利街","SECT":" ","MAREA":" ","LANE":"１１６巷","ALLEY":" ","HOUSE_NO":"３號","E_COORD97":171366.79000000001,"N_COORD97":2544875.0099999998,"ADDRESS":"勝利街１１６巷３號","OBJECTID":264199},"geometry":{"x":171366.79000000097,"y":2544875.0100000035}},{"attributes":{"ID":264204,"DIS_CODE":0,"TOWNNAME":"南區","LI":"永寧里","LIN":"18鄰","STREET":"灣裡路","SECT":" ","MAREA":" ","LANE":" ","ALLEY":" ","HOUSE_NO":"２３１號","E_COORD97":166085.67999999999,"N_COORD97":2536493.6099999999,"ADDRESS":"灣裡路２３１號","OBJECTID":264200},"geometry":{"x":166085.6799999997,"y":2536493.6100000013}}]}