{"displayFieldName":"TOWNNAME","fieldAliases":{"ID":"ID","DIS_CODE":"DIS_CODE","TOWNNAME":"TOWNNAME","LI":"LI","LIN":"LIN","STREET":"STREET","SECT":"SECT","MAREA":"MAREA","LANE":"LANE","ALLEY":"ALLEY","HOUSE_NO":"HOUSE_NO","E_COORD97":"E_COORD97","N_COORD97":"N_COORD97","ADDRESS":"ADDRESS","OBJECTID":"OBJECTID"},"geometryType":"esriGeometryPoint","spatialReference":{"wkid":102443,"latestWkid":3826},"fields":[{"name":"ID","type":"esriFieldTypeDouble","alias":"ID"},{"name":"DIS_CODE","type":"esriFieldTypeInteger","alias":"DIS_CODE"},{"name":"TOWNNAME","type":"esriFieldTypeString","alias":"TOWNNAME","length":8},{"name":"LI","type":"esriFieldTypeString","alias":"LI","length":8},{"name":"LIN","type":"esriFieldTypeString","alias":"LIN","length":12},{"name":"STREET","type":"esriFieldTypeString","alias":"STREET","length":20},{"name":"SECT","type":"esriFieldTypeString","alias":"SECT","length":8},{"name":"MAREA","type":"esriFieldTypeString","alias":"MAREA","length":12},{"name":"LANE","type":"esriFieldTypeString","alias":"LANE","length":10},{"name":"ALLEY","type":"esriFieldTypeString","alias":"ALLEY","length":10},{"name":"HOUSE_NO","type":"esriFieldTypeString","alias":"HOUSE_NO","length":20},{"name":"E_COORD97","type":"esriFieldTypeDouble","alias":"E_COORD97"},{"name":"N_COORD97","type":"esriFieldTypeDouble","alias":"N_COORD97"},{"name":"ADDRESS","type":"esriFieldTypeString","alias":"ADDRESS","length":50},{"name":"OBJECTID","type":"esriFieldTypeOID","alias":"OBJECTID"}],"features":[{"attributes":{"ID":662228,"DIS_CODE":0,"TOWNNAME":"永康區","LI":"東灣里","LIN":"26鄰","STREET":"大灣東路","SECT":" ","MAREA":" ","LANE":" ","ALLEY":" ","HOUSE_NO":"２７１號","E_COORD97":175034.825904,"N_COORD97":2544614.7264700001,"ADDRESS":"大灣東路２７１號","OBJECTID":662201},"geometry":{"x":175034.82590399962,"y":2544614.726472998}},{"attributes":{"ID":662229,"DIS_CODE":0,"TOWNNAME":"安南區","LI":"公親里","LIN":"3鄰","STREET":"公學路","SECT":"一段","MAREA":" ","LANE":"２３０巷","ALLEY":" ","HOUSE_NO":"１８號","E_COORD97":167980.16639599999,"N_COORD97":2553135.3823000002,"ADDRESS":"公學路一段２３０巷１８號","OBJECTID":662202},"geometry":{"x":167980.16639600042,"y":2553135.3823030032}},{"attributes":{"ID":662230,"DIS_CODE":0,"TOWNNAME":"永康區","LI":"東灣里","LIN":"26鄰","STREET":"大灣東路","SECT":" ","MAREA":" ","LANE":" ","ALLEY":" ","HOUSE_NO":"２６９號","E_COORD97":175031.01078099999,"N_COORD97":2544612.3981400002,"ADDRESS":"大灣東路２６９號","OBJECTID":662203},"geometry":{"x":175031.01078100037,"y":2544612.3981410004}},{"attributes":{"ID":662231,"DIS_CODE":0,"TOWNNAME":"永康區","LI":"東灣里","LIN":"26鄰","STREET":"大灣東路","SECT":" ","MAREA":" ","LANE":" ","ALLEY":" ","HOUSE_NO":"２６７號","E_COORD97":175028.25541400001,"N_COORD97":2544610.4931399999,"ADDRESS":"大灣東路２６７號","OBJECTID":662204},"geometry":{"x":175028.25541399978,"y":2544610.4931420013}},{"attributes":{"ID":662232,"DIS_CODE":0,"TOWNNAME":"永康區","LI":"東灣里","LIN":"26鄰","STREET":"大灣東路","SECT":" ","MAREA":" ","LANE":" ","ALLEY":" ","HOUSE_NO":"２６５號","E_COORD97":175025.71199800001,"N_COORD97":2544607.7414799999,"ADDRESS":"大灣東路２６５號","OBJECTID":662205},"geometry":{"x":175025.71199799981,"y":2544607.7414769996}},{"attributes":{"ID":662233,"DIS_CODE":0,"TOWNNAME":"永康區","LI":"東灣里","LIN":"26鄰","STREET":"大灣東路","SECT":" ","MAREA":" ","LANE":" ","ALLEY":" ","HOUSE_NO":"２６１號","E_COORD97":175022.74468,"N_COORD97":2544606.0481400001,"ADDRESS":"大灣東路２６１號","OBJECTID":662206},"geometry":{"x":175022.74468000047,"y":2544606.0481450018}},{"attributes":{"ID":662234,"DIS_CODE":0,"TOWNNAME":"永康區","LI":"東灣里","LIN":"26鄰","STREET":"大灣東路","SECT":" ","MAREA":" ","LANE":" ","ALLEY":" ","HOUSE_NO":"２６３號","E_COORD97":175020.62516699999,"N_COORD97":2544604.1431499999,"ADDRESS":"大灣東路２６３號","OBJECTID":662207},"geometry":{"x":175020.62516700197,"y":2544604.1431460027}},{"attributes":{"ID":662235,"DIS_CODE":0,"TOWNNAME":"永康區","LI":"東灣里","LIN":"26鄰","STREET":"大灣東路","SECT":" ","MAREA":" ","LANE":" ","ALLEY":" ","HOUSE_NO":"２５９號","E_COORD97":175017.65784900001,"N_COORD97":2544602.8731499999,"ADDRESS":"大灣東路２５９號","OBJECTID":662208},"geometry":{"x":175017.65784899984,"y":2544602.8731460031}},{"attributes":{"ID":662236,"DIS_CODE":0,"TOWNNAME":"後壁區","LI":"頂安里","LIN":"10鄰","STREET":" ","SECT":" ","MAREA":"頂寮","LANE":" ","ALLEY":" ","HOUSE_NO":"１２８號之２３","E_COORD97":183497.862242,"N_COORD97":2581327.2644099998,"ADDRESS":"頂寮１２８號之２３","OBJECTID":662209},"geometry":{"x":183497.86224200018,"y":2581327.2644100003}},{"attributes":{"ID":662237,"DIS_CODE":0,"TOWNNAME":"後壁區","LI":"頂安里","LIN":"10鄰","STREET":" ","SECT":" ","MAREA":"頂寮","LANE":" ","ALLEY":" ","HOUSE_NO":"１２８號之４０","E_COORD97":183425.827319,"N_COORD97":2581368.2747999998,"ADDRESS":"頂寮１２８號之４０","OBJECTID":662210},"geometry":{"x":183425.82731899992,"y":2581368.2748040017}},{"attributes":{"ID":662238,"DIS_CODE":0,"TOWNNAME":"歸仁區","LI":"武東里","LIN":"16鄰","STREET":"中正南路","SECT":"一段","MAREA":" ","LANE":"１２６３巷","ALLEY":"８０弄","HOUSE_NO":"５１號","E_COORD97":176439.24431000001,"N_COORD97":2537716.6106599998,"ADDRESS":"中正南路一段１２６３巷８０弄５１號","OBJECTID":662211},"geometry":{"x":176439.24431000091,"y":2537716.6106600016}},{"attributes":{"ID":662239,"DIS_CODE":0,"TOWNNAME":"後壁區","LI":"頂安里","LIN":"10鄰","STREET":" ","SECT":" ","MAREA":"頂寮","LANE":" ","ALLEY":" ","HOUSE_NO":"１３號之４","E_COORD97":184172.97777500001,"N_COORD97":2581738.6383500001,"ADDRESS":"頂寮１３號之４","OBJECTID":662212},"geometry":{"x":184172.97777500097,"y":2581738.6383540016}},{"attributes":{"ID":662240,"DIS_CODE":0,"TOWNNAME":"永康區","LI":"南灣里","LIN":"10鄰","STREET":"大灣東路","SECT":" ","MAREA":" ","LANE":" ","ALLEY":" ","HOUSE_NO":"２３號","E_COORD97":174102.15190699999,"N_COORD97":2544300.4427999998,"ADDRESS":"大灣東路２３號","OBJECTID":662213},"geometry":{"x":174102.15190699883,"y":2544300.4428039994}},{"attributes":{"ID":662241,"DIS_CODE":0,"TOWNNAME":"佳里區","LI":"海澄里","LIN":"1鄰","STREET":" ","SECT":" ","MAREA":"萊\u25A0寮","LANE":" ","ALLEY":" ","HOUSE_NO":"１號之１２３","E_COORD97":165819.22008200001,"N_COORD97":2564133.5306199999,"ADDRESS":"萊\u25A0寮１號之１２３","OBJECTID":662214},"geometry":{"x":165819.22008200083,"y":2564133.5306240004}},{"attributes":{"ID":662242,"DIS_CODE":0,"TOWNNAME":"新營區","LI":"三仙里","LIN":"15鄰","STREET":"正義街","SECT":" ","MAREA":" ","LANE":" ","ALLEY":" ","HOUSE_NO":"１２８號","E_COORD97":179627.40803399999,"N_COORD97":2578346.01798,"ADDRESS":"正義街１２８號","OBJECTID":662215},"geometry":{"x":179627.40803400055,"y":2578346.0179779995}},{"attributes":{"ID":662243,"DIS_CODE":0,"TOWNNAME":"佳里區","LI":"海澄里","LIN":"1鄰","STREET":" ","SECT":" ","MAREA":"萊\u25A0寮","LANE":" ","ALLEY":" ","HOUSE_NO":"１號之１２５","E_COORD97":165818.79634,"N_COORD97":2564129.5089599998,"ADDRESS":"萊\u25A0寮１號之１２５","OBJECTID":662216},"geometry":{"x":165818.79633999988,"y":2564129.5089599993}},{"attributes":{"ID":662244,"DIS_CODE":0,"TOWNNAME":"佳里區","LI":"海澄里","LIN":"1鄰","STREET":" ","SECT":" ","MAREA":"萊\u25A0寮","LANE":" ","ALLEY":" ","HOUSE_NO":"１號之１２６","E_COORD97":165818.37259899999,"N_COORD97":2564125.6989600002,"ADDRESS":"萊\u25A0寮１號之１２６","OBJECTID":662217},"geometry":{"x":165818.37259900104,"y":2564125.6989620011}},{"attributes":{"ID":662245,"DIS_CODE":0,"TOWNNAME":"佳里區","LI":"海澄里","LIN":"1鄰","STREET":" ","SECT":" ","MAREA":"萊\u25A0寮","LANE":" ","ALLEY":" ","HOUSE_NO":"１號之１２７","E_COORD97":165817.525116,"N_COORD97":2564122.73563,"ADDRESS":"萊\u25A0寮１號之１２７","OBJECTID":662218},"geometry":{"x":165817.52511600032,"y":2564122.7356300019}},{"attributes":{"ID":662246,"DIS_CODE":0,"TOWNNAME":"後壁區","LI":"頂安里","LIN":"10鄰","STREET":" ","SECT":" ","MAREA":"頂寮","LANE":" ","ALLEY":" ","HOUSE_NO":"１８０號之５","E_COORD97":183707.71692100001,"N_COORD97":2581864.7916199998,"ADDRESS":"頂寮１８０號之５","OBJECTID":662219},"geometry":{"x":183707.71692100074,"y":2581864.7916199993}},{"attributes":{"ID":662247,"DIS_CODE":0,"TOWNNAME":"白河區","LI":"蓮潭里","LIN":"8鄰","STREET":" ","SECT":" ","MAREA":"蓮潭","LANE":" ","ALLEY":" ","HOUSE_NO":"２之８號","E_COORD97":188415.30776600001,"N_COORD97":2588353.3807100002,"ADDRESS":"蓮潭２之８號","OBJECTID":662220},"geometry":{"x":188415.30776600074,"y":2588353.3807080016}},{"attributes":{"ID":662248,"DIS_CODE":0,"TOWNNAME":"新營區","LI":"三仙里","LIN":"12鄰","STREET":"正義街","SECT":" ","MAREA":" ","LANE":" ","ALLEY":" ","HOUSE_NO":"５２號","E_COORD97":179639.26584099999,"N_COORD97":2578272.1463500001,"ADDRESS":"正義街５２號","OBJECTID":662221},"geometry":{"x":179639.26584099978,"y":2578272.1463510022}},{"attributes":{"ID":662249,"DIS_CODE":0,"TOWNNAME":"新營區","LI":"三仙里","LIN":"11鄰","STREET":"正義街","SECT":" ","MAREA":" ","LANE":" ","ALLEY":" ","HOUSE_NO":"３８號","E_COORD97":179647.52395599999,"N_COORD97":2578234.2580400002,"ADDRESS":"正義街３８號","OBJECTID":662222},"geometry":{"x":179647.52395599987,"y":2578234.2580390014}},{"attributes":{"ID":662250,"DIS_CODE":0,"TOWNNAME":"新營區","LI":"三仙里","LIN":"11鄰","STREET":"正義街","SECT":" ","MAREA":" ","LANE":" ","ALLEY":" ","HOUSE_NO":"３６號","E_COORD97":179647.947449,"N_COORD97":2578224.7330399998,"ADDRESS":"正義街３６號","OBJECTID":662223},"geometry":{"x":179647.94744899962,"y":2578224.7330440022}},{"attributes":{"ID":662251,"DIS_CODE":0,"TOWNNAME":"新營區","LI":"三仙里","LIN":"17鄰","STREET":"武昌街","SECT":" ","MAREA":" ","LANE":" ","ALLEY":" ","HOUSE_NO":"６８號","E_COORD97":179606.33925300001,"N_COORD97":2578336.2813200001,"ADDRESS":"武昌街６８號","OBJECTID":662224},"geometry":{"x":179606.33925300092,"y":2578336.2813169993}},{"attributes":{"ID":662252,"DIS_CODE":0,"TOWNNAME":"東區","LI":"泉南里","LIN":"19鄰","STREET":"府連東路","SECT":" ","MAREA":" ","LANE":"２２巷","ALLEY":" ","HOUSE_NO":"２６號","E_COORD97":169711.60900600001,"N_COORD97":2542744.3370500002,"ADDRESS":"府連東路２２巷２６號","OBJECTID":662225},"geometry":{"x":169711.60900600068,"y":2542744.3370469995}},{"attributes":{"ID":662253,"DIS_CODE":0,"TOWNNAME":"東區","LI":"泉南里","LIN":"29鄰","STREET":"府連路","SECT":" ","MAREA":" ","LANE":"３４４巷","ALLEY":" ","HOUSE_NO":"３７號","E_COORD97":169620.123873,"N_COORD97":2542632.1537700002,"ADDRESS":"府連路３４４巷３７號","OBJECTID":662226},"geometry":{"x":169620.12387300003,"y":2542632.1537740026}},{"attributes":{"ID":662254,"DIS_CODE":0,"TOWNNAME":"東區","LI":"泉南里","LIN":"23鄰","STREET":"光華街","SECT":" ","MAREA":" ","LANE":" ","ALLEY":" ","HOUSE_NO":"２１４號之１","E_COORD97":169411.63518300001,"N_COORD97":2543060.0377099998,"ADDRESS":"光華街２１４號之１","OBJECTID":662227},"geometry":{"x":169411.63518300094,"y":2543060.0377090015}},{"attributes":{"ID":662255,"DIS_CODE":0,"TOWNNAME":"東區","LI":"泉南里","LIN":"7鄰","STREET":"光華街","SECT":" ","MAREA":" ","LANE":" ","ALLEY":" ","HOUSE_NO":"１９９號之１","E_COORD97":169648.18354,"N_COORD97":2542981.9327500002,"ADDRESS":"光華街１９９號之１","OBJECTID":662228},"geometry":{"x":169648.18354000058,"y":2542981.9327500015}},{"attributes":{"ID":662256,"DIS_CODE":0,"TOWNNAME":"東區","LI":"泉南里","LIN":"7鄰","STREET":"光華街","SECT":" ","MAREA":" ","LANE":" ","ALLEY":" ","HOUSE_NO":"１９９號之２","E_COORD97":169647.33645999999,"N_COORD97":2542979.18108,"ADDRESS":"光華街１９９號之２","OBJECTID":662229},"geometry":{"x":169647.3364599999,"y":2542979.1810800042}},{"attributes":{"ID":662257,"DIS_CODE":0,"TOWNNAME":"東區","LI":"泉南里","LIN":"7鄰","STREET":"光華街","SECT":" ","MAREA":" ","LANE":" ","ALLEY":" ","HOUSE_NO":"１９９號之３","E_COORD97":169647.12469,"N_COORD97":2542976.2177499998,"ADDRESS":"光華街１９９號之３","OBJECTID":662230},"geometry":{"x":169647.12469000183,"y":2542976.2177499998}},{"attributes":{"ID":662258,"DIS_CODE":0,"TOWNNAME":"東區","LI":"泉南里","LIN":"7鄰","STREET":"光華街","SECT":" ","MAREA":" ","LANE":" ","ALLEY":" ","HOUSE_NO":"１９９號之４","E_COORD97":169645.854066,"N_COORD97":2542971.1377599998,"ADDRESS":"光華街１９９號之４","OBJECTID":662231},"geometry":{"x":169645.85406600125,"y":2542971.1377570014}},{"attributes":{"ID":662259,"DIS_CODE":0,"TOWNNAME":"東區","LI":"泉南里","LIN":"7鄰","STREET":"光華街","SECT":" ","MAREA":" ","LANE":" ","ALLEY":" ","HOUSE_NO":"１９９號之５","E_COORD97":169644.79521099999,"N_COORD97":2542967.3277599998,"ADDRESS":"光華街１９９號之５","OBJECTID":662232},"geometry":{"x":169644.7952110013,"y":2542967.3277589977}},{"attributes":{"ID":662260,"DIS_CODE":0,"TOWNNAME":"東區","LI":"泉南里","LIN":"7鄰","STREET":"光華街","SECT":" ","MAREA":" ","LANE":" ","ALLEY":" ","HOUSE_NO":"１９９號之６","E_COORD97":169641.40687199999,"N_COORD97":2542962.0361000001,"ADDRESS":"光華街１９９號之６","OBJECTID":662233},"geometry":{"x":169641.40687199961,"y":2542962.036096001}},{"attributes":{"ID":662261,"DIS_CODE":0,"TOWNNAME":"東區","LI":"泉南里","LIN":"7鄰","STREET":"光華街","SECT":" ","MAREA":" ","LANE":" ","ALLEY":" ","HOUSE_NO":"１９９號之７","E_COORD97":169635.689052,"N_COORD97":2542962.0361000001,"ADDRESS":"光華街１９９號之７","OBJECTID":662234},"geometry":{"x":169635.68905200157,"y":2542962.036096001}},{"attributes":{"ID":662262,"DIS_CODE":0,"TOWNNAME":"東區","LI":"泉南里","LIN":"7鄰","STREET":"光華街","SECT":" ","MAREA":" ","LANE":" ","ALLEY":" ","HOUSE_NO":"１９９號之８","E_COORD97":169629.54768799999,"N_COORD97":2542962.6710999999,"ADDRESS":"光華街１９９號之８","OBJECTID":662235},"geometry":{"x":169629.54768800084,"y":2542962.6710950024}},{"attributes":{"ID":662263,"DIS_CODE":0,"TOWNNAME":"東區","LI":"泉南里","LIN":"7鄰","STREET":"光華街","SECT":" ","MAREA":" ","LANE":" ","ALLEY":" ","HOUSE_NO":"１９９號之９","E_COORD97":169620.017987,"N_COORD97":2542961.6127599999,"ADDRESS":"光華街１９９號之９","OBJECTID":662236},"geometry":{"x":169620.01798700076,"y":2542961.6127630025}},{"attributes":{"ID":662264,"DIS_CODE":0,"TOWNNAME":"東區","LI":"泉南里","LIN":"7鄰","STREET":"光華街","SECT":" ","MAREA":" ","LANE":" ","ALLEY":" ","HOUSE_NO":"１９９號之１０","E_COORD97":169620.229758,"N_COORD97":2542966.69276,"ADDRESS":"光華街１９９號之１０","OBJECTID":662237},"geometry":{"x":169620.22975800093,"y":2542966.6927600019}},{"attributes":{"ID":662265,"DIS_CODE":0,"TOWNNAME":"東區","LI":"泉南里","LIN":"7鄰","STREET":"光華街","SECT":" ","MAREA":" ","LANE":" ","ALLEY":" ","HOUSE_NO":"１９９號之１１","E_COORD97":169621.07684299999,"N_COORD97":2542971.7727600001,"ADDRESS":"光華街１９９號之１１","OBJECTID":662238},"geometry":{"x":169621.07684300002,"y":2542971.7727570012}},{"attributes":{"ID":662266,"DIS_CODE":0,"TOWNNAME":"東區","LI":"泉南里","LIN":"7鄰","STREET":"光華街","SECT":" ","MAREA":" ","LANE":" ","ALLEY":" ","HOUSE_NO":"１９９號之１２","E_COORD97":169621.50038499999,"N_COORD97":2542977.0644200002,"ADDRESS":"光華街１９９號之１２","OBJECTID":662239},"geometry":{"x":169621.5003850013,"y":2542977.0644210018}},{"attributes":{"ID":662267,"DIS_CODE":0,"TOWNNAME":"東區","LI":"泉南里","LIN":"7鄰","STREET":"光華街","SECT":" ","MAREA":" ","LANE":" ","ALLEY":" ","HOUSE_NO":"１９９號之１３","E_COORD97":169621.71215599999,"N_COORD97":2542981.9327500002,"ADDRESS":"光華街１９９號之１３","OBJECTID":662240},"geometry":{"x":169621.71215599962,"y":2542981.9327520002}},{"attributes":{"ID":662268,"DIS_CODE":0,"TOWNNAME":"東區","LI":"泉南里","LIN":"7鄰","STREET":"光華街","SECT":" ","MAREA":" ","LANE":" ","ALLEY":" ","HOUSE_NO":"１９９號之１４","E_COORD97":169621.50038499999,"N_COORD97":2542987.0127500002,"ADDRESS":"光華街１９９號之１４","OBJECTID":662241},"geometry":{"x":169621.5003850013,"y":2542987.0127489995}},{"attributes":{"ID":662269,"DIS_CODE":0,"TOWNNAME":"東區","LI":"泉南里","LIN":"7鄰","STREET":"光華街","SECT":" ","MAREA":" ","LANE":" ","ALLEY":" ","HOUSE_NO":"１９９號之１５","E_COORD97":169638.86561899999,"N_COORD97":2542994.6327499999,"ADDRESS":"光華街１９９號之１５","OBJECTID":662242},"geometry":{"x":169638.86561900098,"y":2542994.6327450015}},{"attributes":{"ID":662270,"DIS_CODE":0,"TOWNNAME":"東區","LI":"泉南里","LIN":"7鄰","STREET":"光華街","SECT":" ","MAREA":" ","LANE":" ","ALLEY":" ","HOUSE_NO":"１９９號之１６","E_COORD97":169635.26550899999,"N_COORD97":2542998.0194100002,"ADDRESS":"光華街１９９號之１６","OBJECTID":662243},"geometry":{"x":169635.26550900098,"y":2542998.0194099993}},{"attributes":{"ID":662271,"DIS_CODE":0,"TOWNNAME":"東區","LI":"泉南里","LIN":"7鄰","STREET":"光華街","SECT":" ","MAREA":" ","LANE":" ","ALLEY":" ","HOUSE_NO":"１９９號之１７","E_COORD97":169629.54768799999,"N_COORD97":2542998.8660800001,"ADDRESS":"光華街１９９號之１７","OBJECTID":662244},"geometry":{"x":169629.54768800084,"y":2542998.866076}},{"attributes":{"ID":662272,"DIS_CODE":0,"TOWNNAME":"東區","LI":"泉南里","LIN":"7鄰","STREET":"光華街","SECT":" ","MAREA":" ","LANE":" ","ALLEY":" ","HOUSE_NO":"１９９號之１８","E_COORD97":169624.041639,"N_COORD97":2542998.4427399999,"ADDRESS":"光華街１９９號之１８","OBJECTID":662245},"geometry":{"x":169624.04163900111,"y":2542998.4427430015}},{"attributes":{"ID":662273,"DIS_CODE":0,"TOWNNAME":"東區","LI":"崇文里","LIN":"13鄰","STREET":"崇德十九街","SECT":" ","MAREA":" ","LANE":" ","ALLEY":" ","HOUSE_NO":"１７號","E_COORD97":170869.361844,"N_COORD97":2540986.023,"ADDRESS":"崇德十九街１７號","OBJECTID":662246},"geometry":{"x":170869.36184400041,"y":2540986.0229960028}},{"attributes":{"ID":662274,"DIS_CODE":0,"TOWNNAME":"東區","LI":"崇文里","LIN":"26鄰","STREET":"崇德二十二街","SECT":" ","MAREA":" ","LANE":" ","ALLEY":" ","HOUSE_NO":"１４４號","E_COORD97":171189.55981199999,"N_COORD97":2540815.2080899999,"ADDRESS":"崇德二十二街１４４號","OBJECTID":662247},"geometry":{"x":171189.55981200188,"y":2540815.2080879994}},{"attributes":{"ID":662275,"DIS_CODE":0,"TOWNNAME":"新營區","LI":"中營里","LIN":"14鄰","STREET":"東山中路","SECT":" ","MAREA":" ","LANE":" ","ALLEY":" ","HOUSE_NO":"３７號","E_COORD97":181819.28065999999,"N_COORD97":2579079.11314,"ADDRESS":"東山中路３７號","OBJECTID":662248},"geometry":{"x":181819.2806599997,"y":2579079.1131410003}},{"attributes":{"ID":662276,"DIS_CODE":0,"TOWNNAME":"善化區","LI":"光文里","LIN":"9鄰","STREET":"成功路","SECT":" ","MAREA":" ","LANE":"２６６巷","ALLEY":" ","HOUSE_NO":"２５號","E_COORD97":179133.439736,"N_COORD97":2558913.0654000002,"ADDRESS":"成功路２６６巷２５號","OBJECTID":662249},"geometry":{"x":179133.43973600119,"y":2558913.0654020049}},{"attributes":{"ID":662277,"DIS_CODE":0,"TOWNNAME":"安南區","LI":"淵西里","LIN":"5鄰","STREET":"安中路","SECT":"四段","MAREA":" ","LANE":"３２０巷","ALLEY":" ","HOUSE_NO":"３２號之２","E_COORD97":164519.07441100001,"N_COORD97":2550328.6037099999,"ADDRESS":"安中路四段３２０巷３２號之２","OBJECTID":662250},"geometry":{"x":164519.07441100199,"y":2550328.6037060022}},{"attributes":{"ID":662278,"DIS_CODE":0,"TOWNNAME":"後壁區","LI":"頂安里","LIN":"2鄰","STREET":" ","SECT":" ","MAREA":"頂寮","LANE":" ","ALLEY":" ","HOUSE_NO":"２１號","E_COORD97":184058.858415,"N_COORD97":2581613.0800600001,"ADDRESS":"頂寮２１號","OBJECTID":662251},"geometry":{"x":184058.85841500107,"y":2581613.0800610017}},{"attributes":{"ID":662279,"DIS_CODE":0,"TOWNNAME":"安南區","LI":"公親里","LIN":"9鄰","STREET":"公學路","SECT":"一段","MAREA":" ","LANE":" ","ALLEY":" ","HOUSE_NO":"１６９號","E_COORD97":168109.60685700001,"N_COORD97":2553051.6417100001,"ADDRESS":"公學路一段１６９號","OBJECTID":662252},"geometry":{"x":168109.60685700085,"y":2553051.6417120025}},{"attributes":{"ID":662280,"DIS_CODE":0,"TOWNNAME":"東山區","LI":"青山里","LIN":"8鄰","STREET":" ","SECT":" ","MAREA":"青山","LANE":" ","ALLEY":" ","HOUSE_NO":"７１號之１","E_COORD97":197876.48183800001,"N_COORD97":2574985.9905300001,"ADDRESS":"青山７１號之１","OBJECTID":662253},"geometry":{"x":197876.48183800094,"y":2574985.9905269984}},{"attributes":{"ID":662281,"DIS_CODE":0,"TOWNNAME":"後壁區","LI":"頂安里","LIN":"3鄰","STREET":" ","SECT":" ","MAREA":"頂寮","LANE":" ","ALLEY":" ","HOUSE_NO":"３６號之１","E_COORD97":184023.293744,"N_COORD97":2581526.1252100002,"ADDRESS":"頂寮３６號之１","OBJECTID":662254},"geometry":{"x":184023.29374399967,"y":2581526.1252110004}},{"attributes":{"ID":662282,"DIS_CODE":0,"TOWNNAME":"東山區","LI":"青山里","LIN":"9鄰","STREET":" ","SECT":" ","MAREA":"青山","LANE":" ","ALLEY":" ","HOUSE_NO":"７６號","E_COORD97":197935.256566,"N_COORD97":2574830.8410499999,"ADDRESS":"青山７６號","OBJECTID":662255},"geometry":{"x":197935.2565660011,"y":2574830.8410490025}},{"attributes":{"ID":662283,"DIS_CODE":0,"TOWNNAME":"後壁區","LI":"頂安里","LIN":"5鄰","STREET":" ","SECT":" ","MAREA":"頂寮","LANE":" ","ALLEY":" ","HOUSE_NO":"５９號","E_COORD97":183923.239355,"N_COORD97":2581512.76376,"ADDRESS":"頂寮５９號","OBJECTID":662256},"geometry":{"x":183923.23935499974,"y":2581512.7637600005}},{"attributes":{"ID":662284,"DIS_CODE":0,"TOWNNAME":"後壁區","LI":"頂安里","LIN":"6鄰","STREET":" ","SECT":" ","MAREA":"頂寮","LANE":" ","ALLEY":" ","HOUSE_NO":"６０號","E_COORD97":183904.595023,"N_COORD97":2581479.8496099999,"ADDRESS":"頂寮６０號","OBJECTID":662257},"geometry":{"x":183904.59502300154,"y":2581479.849611003}},{"attributes":{"ID":662285,"DIS_CODE":0,"TOWNNAME":"後壁區","LI":"頂安里","LIN":"6鄰","STREET":" ","SECT":" ","MAREA":"頂寮","LANE":" ","ALLEY":" ","HOUSE_NO":"６０號之２","E_COORD97":183891.67111,"N_COORD97":2581495.7245999998,"ADDRESS":"頂寮６０號之２","OBJECTID":662258},"geometry":{"x":183891.67111000139,"y":2581495.7246020008}},{"attributes":{"ID":662286,"DIS_CODE":0,"TOWNNAME":"佳里區","LI":"鎮山里","LIN":"6鄰","STREET":"平等東街","SECT":" ","MAREA":" ","LANE":"３５巷","ALLEY":" ","HOUSE_NO":"１９號","E_COORD97":166287.62637499999,"N_COORD97":2561930.7307000002,"ADDRESS":"平等東街３５巷１９號","OBJECTID":662259},"geometry":{"x":166287.62637500092,"y":2561930.7306960002}},{"attributes":{"ID":662287,"DIS_CODE":0,"TOWNNAME":"佳里區","LI":"鎮山里","LIN":"6鄰","STREET":"平等東街","SECT":" ","MAREA":" ","LANE":"３５巷","ALLEY":" ","HOUSE_NO":"２１號","E_COORD97":166287.83824899999,"N_COORD97":2561927.7673599999,"ADDRESS":"平等東街３５巷２１號","OBJECTID":662260},"geometry":{"x":166287.83824900165,"y":2561927.7673640009}},{"attributes":{"ID":662288,"DIS_CODE":0,"TOWNNAME":"麻豆區","LI":"北勢里","LIN":"1鄰","STREET":" ","SECT":" ","MAREA":"加輦邦","LANE":" ","ALLEY":" ","HOUSE_NO":"１號之３９","E_COORD97":174401.92001599999,"N_COORD97":2566458.2646300001,"ADDRESS":"加輦邦１號之３９","OBJECTID":662261},"geometry":{"x":174401.92001600098,"y":2566458.2646270003}},{"attributes":{"ID":662289,"DIS_CODE":0,"TOWNNAME":"佳里區","LI":"建南里","LIN":"33鄰","STREET":"南勢街","SECT":" ","MAREA":" ","LANE":" ","ALLEY":" ","HOUSE_NO":"１７２號","E_COORD97":165812.073221,"N_COORD97":2560739.09559,"ADDRESS":"南勢街１７２號","OBJECTID":662262},"geometry":{"x":165812.07322100084,"y":2560739.0955940001}},{"attributes":{"ID":662290,"DIS_CODE":0,"TOWNNAME":"佳里區","LI":"建南里","LIN":"33鄰","STREET":"南勢街","SECT":" ","MAREA":" ","LANE":" ","ALLEY":" ","HOUSE_NO":"１７０號","E_COORD97":165814.82718600001,"N_COORD97":2560738.4605899998,"ADDRESS":"南勢街１７０號","OBJECTID":662263},"geometry":{"x":165814.8271859996,"y":2560738.4605940003}},{"attributes":{"ID":662291,"DIS_CODE":0,"TOWNNAME":"佳里區","LI":"建南里","LIN":"33鄰","STREET":"南勢街","SECT":" ","MAREA":" ","LANE":" ","ALLEY":" ","HOUSE_NO":"１６６號","E_COORD97":165818.640369,"N_COORD97":2560738.2489299998,"ADDRESS":"南勢街１６６號","OBJECTID":662264},"geometry":{"x":165818.64036899991,"y":2560738.2489270046}},{"attributes":{"ID":662292,"DIS_CODE":0,"TOWNNAME":"佳里區","LI":"建南里","LIN":"33鄰","STREET":"南勢街","SECT":" ","MAREA":" ","LANE":" ","ALLEY":" ","HOUSE_NO":"１６２號","E_COORD97":165820.97064799999,"N_COORD97":2560738.0372600001,"ADDRESS":"南勢街１６２號","OBJECTID":662265},"geometry":{"x":165820.97064800188,"y":2560738.0372610018}},{"attributes":{"ID":662293,"DIS_CODE":0,"TOWNNAME":"佳里區","LI":"建南里","LIN":"33鄰","STREET":"南勢街","SECT":" ","MAREA":" ","LANE":"１６８巷","ALLEY":" ","HOUSE_NO":"１號","E_COORD97":165813.132438,"N_COORD97":2560746.9272599998,"ADDRESS":"南勢街１６８巷１號","OBJECTID":662266},"geometry":{"x":165813.13243800029,"y":2560746.9272560012}},{"attributes":{"ID":662294,"DIS_CODE":0,"TOWNNAME":"佳里區","LI":"建南里","LIN":"33鄰","STREET":"南勢街","SECT":" ","MAREA":" ","LANE":"１６８巷","ALLEY":" ","HOUSE_NO":"３號","E_COORD97":165810.80215999999,"N_COORD97":2560754.97058,"ADDRESS":"南勢街１６８巷３號","OBJECTID":662267},"geometry":{"x":165810.80216000043,"y":2560754.9705850016}},{"attributes":{"ID":662295,"DIS_CODE":0,"TOWNNAME":"佳里區","LI":"建南里","LIN":"33鄰","STREET":"南勢街","SECT":" ","MAREA":" ","LANE":"１６８巷","ALLEY":" ","HOUSE_NO":"５號","E_COORD97":165809.74294200001,"N_COORD97":2560764.2839100002,"ADDRESS":"南勢街１６８巷５號","OBJECTID":662268},"geometry":{"x":165809.74294200167,"y":2560764.2839129996}},{"attributes":{"ID":662296,"DIS_CODE":0,"TOWNNAME":"佳里區","LI":"建南里","LIN":"33鄰","STREET":"南勢街","SECT":" ","MAREA":" ","LANE":"１６８巷","ALLEY":" ","HOUSE_NO":"７號","E_COORD97":165808.89556800001,"N_COORD97":2560772.11558,"ADDRESS":"南勢街１６８巷７號","OBJECTID":662269},"geometry":{"x":165808.89556800108,"y":2560772.115575999}},{"attributes":{"ID":662297,"DIS_CODE":0,"TOWNNAME":"佳里區","LI":"建南里","LIN":"33鄰","STREET":"南勢街","SECT":" ","MAREA":" ","LANE":"１６８巷","ALLEY":" ","HOUSE_NO":"９號","E_COORD97":165808.471881,"N_COORD97":2560782.2755700001,"ADDRESS":"南勢街１６８巷９號","OBJECTID":662270},"geometry":{"x":165808.47188100033,"y":2560782.2755700033}},{"attributes":{"ID":662298,"DIS_CODE":0,"TOWNNAME":"佳里區","LI":"建南里","LIN":"33鄰","STREET":"南勢街","SECT":" ","MAREA":" ","LANE":"１６８巷","ALLEY":" ","HOUSE_NO":"１１號","E_COORD97":165807.412663,"N_COORD97":2560790.1072300002,"ADDRESS":"南勢街１６８巷１１號","OBJECTID":662271},"geometry":{"x":165807.4126629997,"y":2560790.1072330028}},{"attributes":{"ID":662299,"DIS_CODE":0,"TOWNNAME":"佳里區","LI":"建南里","LIN":"33鄰","STREET":"南勢街","SECT":" ","MAREA":" ","LANE":"１６８巷","ALLEY":" ","HOUSE_NO":"２號","E_COORD97":165818.216682,"N_COORD97":2560746.50392,"ADDRESS":"南勢街１６８巷２號","OBJECTID":662272},"geometry":{"x":165818.21668200102,"y":2560746.503922997}},{"attributes":{"ID":662300,"DIS_CODE":0,"TOWNNAME":"佳里區","LI":"建南里","LIN":"33鄰","STREET":"南勢街","SECT":" ","MAREA":" ","LANE":"１６８巷","ALLEY":" ","HOUSE_NO":"６號","E_COORD97":165816.52193399999,"N_COORD97":2560754.5472499998,"ADDRESS":"南勢街１６８巷６號","OBJECTID":662273},"geometry":{"x":165816.52193400171,"y":2560754.5472519994}},{"attributes":{"ID":662301,"DIS_CODE":0,"TOWNNAME":"佳里區","LI":"建南里","LIN":"33鄰","STREET":"南勢街","SECT":" ","MAREA":" ","LANE":"１６８巷","ALLEY":" ","HOUSE_NO":"８號","E_COORD97":165815.46271699999,"N_COORD97":2560764.0722500002,"ADDRESS":"南勢街１６８巷８號","OBJECTID":662274},"geometry":{"x":165815.46271700226,"y":2560764.0722470023}},{"attributes":{"ID":662302,"DIS_CODE":0,"TOWNNAME":"佳里區","LI":"建南里","LIN":"33鄰","STREET":"南勢街","SECT":" ","MAREA":" ","LANE":"１６８巷","ALLEY":" ","HOUSE_NO":"１０號","E_COORD97":165814.19165600001,"N_COORD97":2560772.7505800002,"ADDRESS":"南勢街１６８巷１０號","OBJECTID":662275},"geometry":{"x":165814.19165600091,"y":2560772.7505750004}},{"attributes":{"ID":662303,"DIS_CODE":0,"TOWNNAME":"佳里區","LI":"建南里","LIN":"33鄰","STREET":"南勢街","SECT":" ","MAREA":" ","LANE":"１６８巷","ALLEY":" ","HOUSE_NO":"１０號","E_COORD97":165814.19165600001,"N_COORD97":2560772.7505800002,"ADDRESS":"南勢街１６８巷１０號","OBJECTID":662276},"geometry":{"x":165814.19165600091,"y":2560772.7505750004}},{"attributes":{"ID":662304,"DIS_CODE":0,"TOWNNAME":"佳里區","LI":"建南里","LIN":"33鄰","STREET":"南勢街","SECT":" ","MAREA":" ","LANE":"１６８巷","ALLEY":" ","HOUSE_NO":"１２號","E_COORD97":165812.920595,"N_COORD97":2560781.00557,"ADDRESS":"南勢街１６８巷１２號","OBJECTID":662277},"geometry":{"x":165812.9205950005,"y":2560781.0055710021}},{"attributes":{"ID":662305,"DIS_CODE":0,"TOWNNAME":"佳里區","LI":"建南里","LIN":"33鄰","STREET":"南勢街","SECT":" ","MAREA":" ","LANE":"１６８巷","ALLEY":" ","HOUSE_NO":"１６號","E_COORD97":165811.649534,"N_COORD97":2560789.8955700002,"ADDRESS":"南勢街１６８巷１６號","OBJECTID":662278},"geometry":{"x":165811.64953400008,"y":2560789.8955660015}},{"attributes":{"ID":662306,"DIS_CODE":0,"TOWNNAME":"東山區","LI":"青山里","LIN":"9鄰","STREET":" ","SECT":" ","MAREA":"青山","LANE":" ","ALLEY":" ","HOUSE_NO":"８１號","E_COORD97":196913.61114399999,"N_COORD97":2574451.73618,"ADDRESS":"青山８１號","OBJECTID":662279},"geometry":{"x":196913.61114399973,"y":2574451.7361820005}},{"attributes":{"ID":662307,"DIS_CODE":0,"TOWNNAME":"東山區","LI":"青山里","LIN":"10鄰","STREET":" ","SECT":" ","MAREA":"青山","LANE":" ","ALLEY":" ","HOUSE_NO":"８４號之１","E_COORD97":199099.00438,"N_COORD97":2574876.1387399998,"ADDRESS":"青山８４號之１","OBJECTID":662280},"geometry":{"x":199099.00438000076,"y":2574876.1387400012}},{"attributes":{"ID":662308,"DIS_CODE":0,"TOWNNAME":"東山區","LI":"青山里","LIN":"9鄰","STREET":" ","SECT":" ","MAREA":"青山","LANE":" ","ALLEY":" ","HOUSE_NO":"７７號之２","E_COORD97":197870.97491799999,"N_COORD97":2574818.7760600001,"ADDRESS":"青山７７號之２","OBJECTID":662281},"geometry":{"x":197870.97491800133,"y":2574818.776056001}},{"attributes":{"ID":662309,"DIS_CODE":0,"TOWNNAME":"東山區","LI":"青山里","LIN":"12鄰","STREET":" ","SECT":" ","MAREA":"青山","LANE":" ","ALLEY":" ","HOUSE_NO":"１０２號之１","E_COORD97":195727.74403900001,"N_COORD97":2574403.0660999999,"ADDRESS":"青山１０２號之１","OBJECTID":662282},"geometry":{"x":195727.74403900094,"y":2574403.0661040004}},{"attributes":{"ID":662310,"DIS_CODE":0,"TOWNNAME":"東山區","LI":"青山里","LIN":"14鄰","STREET":" ","SECT":" ","MAREA":"青山","LANE":" ","ALLEY":" ","HOUSE_NO":"１１６號之１","E_COORD97":194930.82917899999,"N_COORD97":2574341.5769699998,"ADDRESS":"青山１１６號之１","OBJECTID":662283},"geometry":{"x":194930.82917900104,"y":2574341.576969998}},{"attributes":{"ID":662311,"DIS_CODE":0,"TOWNNAME":"東山區","LI":"青山里","LIN":"15鄰","STREET":" ","SECT":" ","MAREA":"青山","LANE":" ","ALLEY":" ","HOUSE_NO":"１２４號之１","E_COORD97":195327.221514,"N_COORD97":2574941.7574800001,"ADDRESS":"青山１２４號之１","OBJECTID":662284},"geometry":{"x":195327.22151399963,"y":2574941.7574799992}},{"attributes":{"ID":662312,"DIS_CODE":0,"TOWNNAME":"東山區","LI":"青山里","LIN":"15鄰","STREET":" ","SECT":" ","MAREA":"青山","LANE":" ","ALLEY":" ","HOUSE_NO":"１２５號之２","E_COORD97":195347.13114799999,"N_COORD97":2574970.3324600002,"ADDRESS":"青山１２５號之２","OBJECTID":662285},"geometry":{"x":195347.13114800118,"y":2574970.3324640002}},{"attributes":{"ID":662313,"DIS_CODE":0,"TOWNNAME":"東山區","LI":"青山里","LIN":"15鄰","STREET":" ","SECT":" ","MAREA":"青山","LANE":" ","ALLEY":" ","HOUSE_NO":"１２６號","E_COORD97":195280.624499,"N_COORD97":2574901.7524999999,"ADDRESS":"青山１２６號","OBJECTID":662286},"geometry":{"x":195280.62449900154,"y":2574901.7525010034}},{"attributes":{"ID":662314,"DIS_CODE":0,"TOWNNAME":"東山區","LI":"青山里","LIN":"15鄰","STREET":" ","SECT":" ","MAREA":"青山","LANE":" ","ALLEY":" ","HOUSE_NO":"１２６號之２","E_COORD97":195375.61886799999,"N_COORD97":2574965.3583,"ADDRESS":"青山１２６號之２","OBJECTID":662287},"geometry":{"x":195375.61886800174,"y":2574965.3583000023}},{"attributes":{"ID":662315,"DIS_CODE":0,"TOWNNAME":"安南區","LI":"安順里","LIN":"4鄰","STREET":"總安街","SECT":"一段","MAREA":" ","LANE":"９０巷","ALLEY":"１７弄","HOUSE_NO":"７號","E_COORD97":169704.197491,"N_COORD97":2550180.3898700001,"ADDRESS":"總安街一段９０巷１７弄７號","OBJECTID":662288},"geometry":{"x":169704.19749100134,"y":2550180.3898699991}},{"attributes":{"ID":662316,"DIS_CODE":0,"TOWNNAME":"東山區","LI":"青山里","LIN":"18鄰","STREET":" ","SECT":" ","MAREA":"青山","LANE":" ","ALLEY":" ","HOUSE_NO":"１３０號之３","E_COORD97":195274.16867000001,"N_COORD97":2575123.0435700002,"ADDRESS":"青山１３０號之３","OBJECTID":662289},"geometry":{"x":195274.16867000144,"y":2575123.0435680039}},{"attributes":{"ID":662317,"DIS_CODE":0,"TOWNNAME":"七股區","LI":"義合里","LIN":"9鄰","STREET":" ","SECT":" ","MAREA":"義合","LANE":" ","ALLEY":" ","HOUSE_NO":"６３號之９","E_COORD97":162320.67254699999,"N_COORD97":2555800.1373100001,"ADDRESS":"義合６３號之９","OBJECTID":662290},"geometry":{"x":162320.67254700046,"y":2555800.1373110041}},{"attributes":{"ID":662318,"DIS_CODE":0,"TOWNNAME":"東山區","LI":"青山里","LIN":"18鄰","STREET":" ","SECT":" ","MAREA":"青山","LANE":" ","ALLEY":" ","HOUSE_NO":"１４１號","E_COORD97":195216.71666899999,"N_COORD97":2575192.0997799998,"ADDRESS":"青山１４１號","OBJECTID":662291},"geometry":{"x":195216.71666900069,"y":2575192.0997800026}},{"attributes":{"ID":662319,"DIS_CODE":0,"TOWNNAME":"東山區","LI":"青山里","LIN":"18鄰","STREET":" ","SECT":" ","MAREA":"青山","LANE":" ","ALLEY":" ","HOUSE_NO":"１４１號之４","E_COORD97":195233.34333100001,"N_COORD97":2575183.9506199998,"ADDRESS":"青山１４１號之４","OBJECTID":662292},"geometry":{"x":195233.34333099984,"y":2575183.9506179988}},{"attributes":{"ID":662320,"DIS_CODE":0,"TOWNNAME":"後壁區","LI":"頂安里","LIN":"7鄰","STREET":" ","SECT":" ","MAREA":"頂寮","LANE":" ","ALLEY":" ","HOUSE_NO":"７３號之１","E_COORD97":183808.03674800001,"N_COORD97":2581405.1596599999,"ADDRESS":"頂寮７３號之１","OBJECTID":662293},"geometry":{"x":183808.03674800135,"y":2581405.1596600022}},{"attributes":{"ID":662321,"DIS_CODE":0,"TOWNNAME":"後壁區","LI":"頂安里","LIN":"8鄰","STREET":" ","SECT":" ","MAREA":"頂寮","LANE":" ","ALLEY":" ","HOUSE_NO":"８５號","E_COORD97":183792.14668999999,"N_COORD97":2581352.5076000001,"ADDRESS":"頂寮８５號","OBJECTID":662294},"geometry":{"x":183792.14668999985,"y":2581352.5076000001}},{"attributes":{"ID":662322,"DIS_CODE":0,"TOWNNAME":"後壁區","LI":"頂安里","LIN":"8鄰","STREET":" ","SECT":" ","MAREA":"頂寮","LANE":" ","ALLEY":" ","HOUSE_NO":"８５號之２","E_COORD97":183819.47758800001,"N_COORD97":2581324.4617900001,"ADDRESS":"頂寮８５號之２","OBJECTID":662295},"geometry":{"x":183819.47758799978,"y":2581324.4617870003}},{"attributes":{"ID":662323,"DIS_CODE":0,"TOWNNAME":"東山區","LI":"青山里","LIN":"16鄰","STREET":" ","SECT":" ","MAREA":"青山","LANE":" ","ALLEY":" ","HOUSE_NO":"３２號","E_COORD97":195600.662323,"N_COORD97":2575304.8630300001,"ADDRESS":"青山３２號","OBJECTID":662296},"geometry":{"x":195600.66232300084,"y":2575304.8630320039}},{"attributes":{"ID":662324,"DIS_CODE":0,"TOWNNAME":"東山區","LI":"青山里","LIN":"16鄰","STREET":" ","SECT":" ","MAREA":"青山","LANE":" ","ALLEY":" ","HOUSE_NO":"４６號之１８","E_COORD97":195594.99655000001,"N_COORD97":2575222.1553799999,"ADDRESS":"青山４６號之１８","OBJECTID":662297},"geometry":{"x":195594.99655000027,"y":2575222.1553790029}},{"attributes":{"ID":662325,"DIS_CODE":0,"TOWNNAME":"下營區","LI":"大埤里","LIN":"10鄰","STREET":" ","SECT":" ","MAREA":"大埤寮","LANE":" ","ALLEY":" ","HOUSE_NO":"８８號之１１","E_COORD97":172747.968399,"N_COORD97":2568789.87739,"ADDRESS":"大埤寮８８號之１１","OBJECTID":662298},"geometry":{"x":172747.96839900129,"y":2568789.8773920015}},{"attributes":{"ID":662326,"DIS_CODE":0,"TOWNNAME":"下營區","LI":"大埤里","LIN":"10鄰","STREET":" ","SECT":" ","MAREA":"大埤寮","LANE":" ","ALLEY":" ","HOUSE_NO":"８８號之１２","E_COORD97":172737.58689599999,"N_COORD97":2568775.06073,"ADDRESS":"大埤寮８８號之１２","OBJECTID":662299},"geometry":{"x":172737.58689600229,"y":2568775.0607329998}},{"attributes":{"ID":662327,"DIS_CODE":0,"TOWNNAME":"後壁區","LI":"頂安里","LIN":"9鄰","STREET":" ","SECT":" ","MAREA":"頂寮","LANE":" ","ALLEY":" ","HOUSE_NO":"９２號之２５","E_COORD97":183874.63046300001,"N_COORD97":2581299.95254,"ADDRESS":"頂寮９２號之２５","OBJECTID":662300},"geometry":{"x":183874.63046300132,"y":2581299.9525449984}},{"attributes":{"ID":662328,"DIS_CODE":0,"TOWNNAME":"東山區","LI":"青山里","LIN":"17鄰","STREET":" ","SECT":" ","MAREA":"青山","LANE":" ","ALLEY":" ","HOUSE_NO":"８９號之２","E_COORD97":200187.132381,"N_COORD97":2574603.0307100001,"ADDRESS":"青山８９號之２","OBJECTID":662301},"geometry":{"x":200187.13238100056,"y":2574603.0307130013}},{"attributes":{"ID":662329,"DIS_CODE":0,"TOWNNAME":"下營區","LI":"大埤里","LIN":"9鄰","STREET":" ","SECT":" ","MAREA":"大埤寮","LANE":" ","ALLEY":" ","HOUSE_NO":"７９號之２０","E_COORD97":172984.836174,"N_COORD97":2569162.14586,"ADDRESS":"大埤寮７９號之２０","OBJECTID":662302},"geometry":{"x":172984.83617400005,"y":2569162.1458649989}},{"attributes":{"ID":662330,"DIS_CODE":0,"TOWNNAME":"下營區","LI":"大埤里","LIN":"6鄰","STREET":" ","SECT":" ","MAREA":"大埤寮","LANE":" ","ALLEY":" ","HOUSE_NO":"４９號之７","E_COORD97":173074.29741,"N_COORD97":2570190.7932199999,"ADDRESS":"大埤寮４９號之６","OBJECTID":662303},"geometry":{"x":173074.29741000198,"y":2570190.7932200003}},{"attributes":{"ID":662331,"DIS_CODE":0,"TOWNNAME":"東山區","LI":"青山里","LIN":"1鄰","STREET":" ","SECT":" ","MAREA":"青山","LANE":" ","ALLEY":" ","HOUSE_NO":"８號","E_COORD97":195383.93325199999,"N_COORD97":2575152.62292,"ADDRESS":"青山８號","OBJECTID":662304},"geometry":{"x":195383.93325200025,"y":2575152.622916}},{"attributes":{"ID":662332,"DIS_CODE":0,"TOWNNAME":"麻豆區","LI":"安業里","LIN":"2鄰","STREET":" ","SECT":" ","MAREA":"安業","LANE":" ","ALLEY":" ","HOUSE_NO":"８２號之１５","E_COORD97":172717.632213,"N_COORD97":2561661.6569099999,"ADDRESS":"安業８２號之１５","OBJECTID":662305},"geometry":{"x":172717.63221300021,"y":2561661.6569140013}},{"attributes":{"ID":662333,"DIS_CODE":0,"TOWNNAME":"麻豆區","LI":"安業里","LIN":"10鄰","STREET":" ","SECT":" ","MAREA":"安業","LANE":" ","ALLEY":" ","HOUSE_NO":"１８７號之２","E_COORD97":172547.075044,"N_COORD97":2561891.4209599998,"ADDRESS":"安業１８７號之２","OBJECTID":662306},"geometry":{"x":172547.07504400052,"y":2561891.4209560025}},{"attributes":{"ID":662334,"DIS_CODE":0,"TOWNNAME":"麻豆區","LI":"安業里","LIN":"10鄰","STREET":" ","SECT":" ","MAREA":"安業","LANE":" ","ALLEY":" ","HOUSE_NO":"１９４號之９","E_COORD97":172663.392914,"N_COORD97":2561722.19355,"ADDRESS":"安業１９４號之９","OBJECTID":662307},"geometry":{"x":172663.39291399997,"y":2561722.1935480013}},{"attributes":{"ID":662335,"DIS_CODE":0,"TOWNNAME":"善化區","LI":"文正里","LIN":"13鄰","STREET":"光復路","SECT":" ","MAREA":" ","LANE":" ","ALLEY":" ","HOUSE_NO":"７４３號","E_COORD97":176770.82088000001,"N_COORD97":2559343.4057,"ADDRESS":"光復路７４３號","OBJECTID":662308},"geometry":{"x":176770.82088000141,"y":2559343.4057}},{"attributes":{"ID":662336,"DIS_CODE":0,"TOWNNAME":"新營區","LI":"新北里","LIN":"13鄰","STREET":"周武街","SECT":" ","MAREA":" ","LANE":"７９巷","ALLEY":"２１弄","HOUSE_NO":"２５號","E_COORD97":179236.51559200001,"N_COORD97":2578989.3981400002,"ADDRESS":"周武街７９巷２１弄２５號","OBJECTID":662309},"geometry":{"x":179236.51559200231,"y":2578989.3981430009}},{"attributes":{"ID":662337,"DIS_CODE":0,"TOWNNAME":"麻豆區","LI":"\u25A0江里","LIN":"16鄰","STREET":"信義路","SECT":" ","MAREA":" ","LANE":" ","ALLEY":" ","HOUSE_NO":"３４號","E_COORD97":173514.038374,"N_COORD97":2564612.3418399999,"ADDRESS":"信義路３４號","OBJECTID":662310},"geometry":{"x":173514.03837400116,"y":2564612.3418430015}},{"attributes":{"ID":662338,"DIS_CODE":0,"TOWNNAME":"麻豆區","LI":"\u25A0江里","LIN":"16鄰","STREET":"信義路","SECT":" ","MAREA":" ","LANE":" ","ALLEY":" ","HOUSE_NO":"３０號","E_COORD97":173510.224674,"N_COORD97":2564612.7651800001,"ADDRESS":"信義路３０號","OBJECTID":662311},"geometry":{"x":173510.22467400227,"y":2564612.7651760001}},{"attributes":{"ID":662339,"DIS_CODE":0,"TOWNNAME":"新營區","LI":"新北里","LIN":"13鄰","STREET":"周武街","SECT":" ","MAREA":" ","LANE":"７９巷","ALLEY":"２１弄","HOUSE_NO":"２７號","E_COORD97":179230.79590600001,"N_COORD97":2578986.43481,"ADDRESS":"周武街７９巷２１弄２７號","OBJECTID":662312},"geometry":{"x":179230.79590599984,"y":2578986.4348109998}},{"attributes":{"ID":662340,"DIS_CODE":0,"TOWNNAME":"新營區","LI":"新北里","LIN":"13鄰","STREET":"周武街","SECT":" ","MAREA":" ","LANE":"７９巷","ALLEY":"２１弄","HOUSE_NO":"２９號","E_COORD97":179226.13542100001,"N_COORD97":2578983.4714799998,"ADDRESS":"周武街７９巷２１弄２９號","OBJECTID":662313},"geometry":{"x":179226.13542100135,"y":2578983.4714800008}},{"attributes":{"ID":662341,"DIS_CODE":0,"TOWNNAME":"新營區","LI":"新北里","LIN":"13鄰","STREET":"周武街","SECT":" ","MAREA":" ","LANE":"７９巷","ALLEY":"２１弄","HOUSE_NO":"４０號","E_COORD97":179240.11687500001,"N_COORD97":2579037.7639500001,"ADDRESS":"周武街７９巷２１弄４０號","OBJECTID":662314},"geometry":{"x":179240.11687500123,"y":2579037.7639499977}},{"attributes":{"ID":662342,"DIS_CODE":0,"TOWNNAME":"東區","LI":"後甲里","LIN":"28鄰","STREET":"裕農路","SECT":" ","MAREA":" ","LANE":" ","ALLEY":" ","HOUSE_NO":"８６７號","E_COORD97":172372.75520399999,"N_COORD97":2543356.0213500001,"ADDRESS":"裕農路８６７號","OBJECTID":662315},"geometry":{"x":172372.75520399865,"y":2543356.0213470012}},{"attributes":{"ID":662343,"DIS_CODE":0,"TOWNNAME":"東區","LI":"後甲里","LIN":"28鄰","STREET":"裕農路","SECT":" ","MAREA":" ","LANE":" ","ALLEY":" ","HOUSE_NO":"８６９號","E_COORD97":172383.13701499999,"N_COORD97":2543358.7730100001,"ADDRESS":"裕農路８６９號","OBJECTID":662316},"geometry":{"x":172383.13701500092,"y":2543358.7730120029}},{"attributes":{"ID":662344,"DIS_CODE":0,"TOWNNAME":"新化區","LI":"護國里","LIN":"11鄰","STREET":"中山路","SECT":" ","MAREA":" ","LANE":"１１１巷","ALLEY":" ","HOUSE_NO":"６５號","E_COORD97":180286.86300300001,"N_COORD97":2549167.3092399999,"ADDRESS":"中山路１１１巷６５號","OBJECTID":662317},"geometry":{"x":180286.86300300062,"y":2549167.3092430048}},{"attributes":{"ID":662345,"DIS_CODE":0,"TOWNNAME":"歸仁區","LI":"大廟里","LIN":"15鄰","STREET":"大廟六街","SECT":" ","MAREA":" ","LANE":" ","ALLEY":" ","HOUSE_NO":"１７９號","E_COORD97":176398.02440200001,"N_COORD97":2544472.2862999998,"ADDRESS":"大廟六街１７９號","OBJECTID":662318},"geometry":{"x":176398.02440200094,"y":2544472.2862999998}},{"attributes":{"ID":662346,"DIS_CODE":0,"TOWNNAME":"新營區","LI":"大宏里","LIN":"2鄰","STREET":"民族路","SECT":" ","MAREA":" ","LANE":" ","ALLEY":" ","HOUSE_NO":"３８之１１號","E_COORD97":180358.685287,"N_COORD97":2578777.8418800002,"ADDRESS":"民族路３８之１１號","OBJECTID":662319},"geometry":{"x":180358.68528699968,"y":2578777.8418810014}},{"attributes":{"ID":662347,"DIS_CODE":0,"TOWNNAME":"關廟區","LI":"北花里","LIN":"4鄰","STREET":"中正路","SECT":" ","MAREA":" ","LANE":" ","ALLEY":" ","HOUSE_NO":"７０１號","E_COORD97":181942.166558,"N_COORD97":2540383.36283,"ADDRESS":"中正路７０１號","OBJECTID":662320},"geometry":{"x":181942.16655800119,"y":2540383.3628350031}},{"attributes":{"ID":662348,"DIS_CODE":0,"TOWNNAME":"東區","LI":"崇文里","LIN":"36鄰","STREET":"崇善路","SECT":" ","MAREA":" ","LANE":" ","ALLEY":" ","HOUSE_NO":"７１４號","E_COORD97":171238.966308,"N_COORD97":2540854.30852,"ADDRESS":"崇善路７１４號","OBJECTID":662321},"geometry":{"x":171238.96630799957,"y":2540854.3085200004}},{"attributes":{"ID":662349,"DIS_CODE":0,"TOWNNAME":"仁德區","LI":"保安里","LIN":"17鄰","STREET":"中正路","SECT":"一段","MAREA":" ","LANE":" ","ALLEY":" ","HOUSE_NO":"１２６號","E_COORD97":171376.43301199999,"N_COORD97":2535563.82907,"ADDRESS":"中正路一段１２６號","OBJECTID":662322},"geometry":{"x":171376.43301200122,"y":2535563.8290650025}},{"attributes":{"ID":662350,"DIS_CODE":0,"TOWNNAME":"仁德區","LI":"保安里","LIN":"17鄰","STREET":"中正路","SECT":"一段","MAREA":" ","LANE":" ","ALLEY":" ","HOUSE_NO":"１２８號","E_COORD97":171382.575882,"N_COORD97":2535566.7924000002,"ADDRESS":"中正路一段１２８號","OBJECTID":662323},"geometry":{"x":171382.57588200085,"y":2535566.7923969999}},{"attributes":{"ID":662351,"DIS_CODE":0,"TOWNNAME":"六甲區","LI":"菁埔里","LIN":"8鄰","STREET":" ","SECT":" ","MAREA":"菁埔寮","LANE":" ","ALLEY":" ","HOUSE_NO":"１１３號","E_COORD97":177493.059626,"N_COORD97":2570380.18194,"ADDRESS":"菁埔寮１１３號","OBJECTID":662324},"geometry":{"x":177493.059626,"y":2570380.1819450017}},{"attributes":{"ID":662352,"DIS_CODE":0,"TOWNNAME":"安南區","LI":"安順里","LIN":"18鄰","STREET":"育安街","SECT":" ","MAREA":" ","LANE":" ","ALLEY":" ","HOUSE_NO":"２２８號","E_COORD97":169592.76014900001,"N_COORD97":2550027.8745900001,"ADDRESS":"育安街２２８號","OBJECTID":662325},"geometry":{"x":169592.76014900114,"y":2550027.8745939992}},{"attributes":{"ID":662353,"DIS_CODE":0,"TOWNNAME":"安南區","LI":"安順里","LIN":"18鄰","STREET":"育安街","SECT":" ","MAREA":" ","LANE":" ","ALLEY":" ","HOUSE_NO":"２２６號","E_COORD97":169591.065645,"N_COORD97":2550023.2179299998,"ADDRESS":"育安街２２６號","OBJECTID":662326},"geometry":{"x":169591.06564499997,"y":2550023.2179290038}},{"attributes":{"ID":662354,"DIS_CODE":0,"TOWNNAME":"安南區","LI":"安順里","LIN":"18鄰","STREET":"育安街","SECT":" ","MAREA":" ","LANE":" ","ALLEY":" ","HOUSE_NO":"２１０號","E_COORD97":169587.464825,"N_COORD97":2549997.1829400002,"ADDRESS":"育安街２１０號","OBJECTID":662327},"geometry":{"x":169587.46482500061,"y":2549997.1829440016}},{"attributes":{"ID":662355,"DIS_CODE":0,"TOWNNAME":"安南區","LI":"安順里","LIN":"18鄰","STREET":"育安街","SECT":" ","MAREA":" ","LANE":" ","ALLEY":" ","HOUSE_NO":"２１２號","E_COORD97":169587.464825,"N_COORD97":2550002.4746099999,"ADDRESS":"育安街２１２號","OBJECTID":662328},"geometry":{"x":169587.46482500061,"y":2550002.4746070039}},{"attributes":{"ID":662356,"DIS_CODE":0,"TOWNNAME":"安南區","LI":"安順里","LIN":"18鄰","STREET":"育安街","SECT":" ","MAREA":" ","LANE":" ","ALLEY":" ","HOUSE_NO":"２１６號","E_COORD97":169588.10026400001,"N_COORD97":2550007.55461,"ADDRESS":"育安街２１６號","OBJECTID":662329},"geometry":{"x":169588.10026399978,"y":2550007.5546050016}},{"attributes":{"ID":662357,"DIS_CODE":0,"TOWNNAME":"安南區","LI":"安順里","LIN":"18鄰","STREET":"育安街","SECT":" ","MAREA":" ","LANE":" ","ALLEY":" ","HOUSE_NO":"２１８號","E_COORD97":169587.88845100001,"N_COORD97":2550010.3062700001,"ADDRESS":"育安街２１８號","OBJECTID":662330},"geometry":{"x":169587.88845099974,"y":2550010.3062699996}},{"attributes":{"ID":662358,"DIS_CODE":0,"TOWNNAME":"安南區","LI":"安順里","LIN":"18鄰","STREET":"育安街","SECT":" ","MAREA":" ","LANE":" ","ALLEY":" ","HOUSE_NO":"２２２號","E_COORD97":169589.37114199999,"N_COORD97":2550020.04293,"ADDRESS":"育安街２２２號","OBJECTID":662331},"geometry":{"x":169589.37114199996,"y":2550020.0429309998}},{"attributes":{"ID":662359,"DIS_CODE":0,"TOWNNAME":"安南區","LI":"安順里","LIN":"18鄰","STREET":"育安街","SECT":" ","MAREA":" ","LANE":" ","ALLEY":" ","HOUSE_NO":"２２０號","E_COORD97":169588.10026400001,"N_COORD97":2550016.0212699999,"ADDRESS":"育安街２２０號","OBJECTID":662332},"geometry":{"x":169588.10026399978,"y":2550016.0212670024}},{"attributes":{"ID":662360,"DIS_CODE":0,"TOWNNAME":"安南區","LI":"安順里","LIN":"21鄰","STREET":"育安三街","SECT":" ","MAREA":" ","LANE":" ","ALLEY":" ","HOUSE_NO":"１８６號","E_COORD97":169447.45647999999,"N_COORD97":2550063.0112399999,"ADDRESS":"育安三街１８６號","OBJECTID":662333},"geometry":{"x":169447.4564800011,"y":2550063.0112409983}},{"attributes":{"ID":662361,"DIS_CODE":0,"TOWNNAME":"安南區","LI":"安順里","LIN":"21鄰","STREET":"育安三街","SECT":" ","MAREA":" ","LANE":" ","ALLEY":" ","HOUSE_NO":"１８８號","E_COORD97":169447.45647999999,"N_COORD97":2550068.7262400002,"ADDRESS":"育安三街１８８號","OBJECTID":662334},"geometry":{"x":169447.4564800011,"y":2550068.726238003}},{"attributes":{"ID":662362,"DIS_CODE":0,"TOWNNAME":"安南區","LI":"安順里","LIN":"15鄰","STREET":"育安一街","SECT":" ","MAREA":" ","LANE":" ","ALLEY":" ","HOUSE_NO":"１４５號","E_COORD97":169480.92292300001,"N_COORD97":2550064.49291,"ADDRESS":"育安一街１４５號","OBJECTID":662335},"geometry":{"x":169480.9229229996,"y":2550064.4929070007}},{"attributes":{"ID":662363,"DIS_CODE":0,"TOWNNAME":"仁德區","LI":"土庫里","LIN":"16鄰","STREET":"土庫一街","SECT":" ","MAREA":" ","LANE":"７１１巷","ALLEY":"６９８弄","HOUSE_NO":"９８３號","E_COORD97":175390.31068699999,"N_COORD97":2542726.4758299999,"ADDRESS":"土庫一街７１１巷６９８弄９８３號","OBJECTID":662336},"geometry":{"x":175390.31068699993,"y":2542726.4758330025}},{"attributes":{"ID":662364,"DIS_CODE":0,"TOWNNAME":"安定區","LI":"港尾里","LIN":"7鄰","STREET":" ","SECT":" ","MAREA":"港子尾","LANE":" ","ALLEY":" ","HOUSE_NO":"３５之２０號","E_COORD97":171866.24283500001,"N_COORD97":2556056.5430000001,"ADDRESS":"港子尾３５之２０號","OBJECTID":662337},"geometry":{"x":171866.24283500016,"y":2556056.5429980047}},{"attributes":{"ID":662365,"DIS_CODE":0,"TOWNNAME":"安定區","LI":"港尾里","LIN":"7鄰","STREET":" ","SECT":" ","MAREA":"港子尾","LANE":" ","ALLEY":" ","HOUSE_NO":"３５之２１號","E_COORD97":171860.10035299999,"N_COORD97":2556055.0613299999,"ADDRESS":"港子尾３５之２１號","OBJECTID":662338},"geometry":{"x":171860.10035299975,"y":2556055.0613320023}},{"attributes":{"ID":662366,"DIS_CODE":0,"TOWNNAME":"安定區","LI":"南安里","LIN":"1鄰","STREET":" ","SECT":" ","MAREA":"油車","LANE":" ","ALLEY":" ","HOUSE_NO":"４之１６號","E_COORD97":170908.545205,"N_COORD97":2556323.4545200001,"ADDRESS":"油車４之１６號","OBJECTID":662339},"geometry":{"x":170908.54520499986,"y":2556323.4545200001}},{"attributes":{"ID":662367,"DIS_CODE":0,"TOWNNAME":"安定區","LI":"南安里","LIN":"1鄰","STREET":" ","SECT":" ","MAREA":"油車","LANE":" ","ALLEY":" ","HOUSE_NO":"４之１７號","E_COORD97":170756.78354400001,"N_COORD97":2556337.6361799999,"ADDRESS":"油車４之１７號","OBJECTID":662340},"geometry":{"x":170756.78354400024,"y":2556337.6361790001}},{"attributes":{"ID":662368,"DIS_CODE":0,"TOWNNAME":"安定區","LI":"南安里","LIN":"1鄰","STREET":" ","SECT":" ","MAREA":"油車","LANE":" ","ALLEY":" ","HOUSE_NO":"４之１８號","E_COORD97":170656.27983399999,"N_COORD97":2556345.4678400001,"ADDRESS":"油車４之１８號","OBJECTID":662341},"geometry":{"x":170656.27983400039,"y":2556345.4678419996}},{"attributes":{"ID":662369,"DIS_CODE":0,"TOWNNAME":"安定區","LI":"南安里","LIN":"1鄰","STREET":" ","SECT":" ","MAREA":"油車","LANE":" ","ALLEY":" ","HOUSE_NO":"４之１９號","E_COORD97":170661.045552,"N_COORD97":2556384.2028199998,"ADDRESS":"油車４之１９號","OBJECTID":662342},"geometry":{"x":170661.0455520004,"y":2556384.2028210014}},{"attributes":{"ID":662370,"DIS_CODE":0,"TOWNNAME":"安定區","LI":"大同里","LIN":"14鄰","STREET":" ","SECT":" ","MAREA":"牛肉寮","LANE":" ","ALLEY":" ","HOUSE_NO":"６５之３９號","E_COORD97":171049.08095199999,"N_COORD97":2553455.7960700002,"ADDRESS":"牛肉寮６５之３９號","OBJECTID":662343},"geometry":{"x":171049.08095199987,"y":2553455.7960689999}},{"attributes":{"ID":662371,"DIS_CODE":0,"TOWNNAME":"安定區","LI":"海寮里","LIN":"2鄰","STREET":" ","SECT":" ","MAREA":"海寮","LANE":" ","ALLEY":" ","HOUSE_NO":"２５之１８號","E_COORD97":169431.17243800001,"N_COORD97":2554991.4369100002,"ADDRESS":"海寮２５之１８號","OBJECTID":662344},"geometry":{"x":169431.17243800126,"y":2554991.4369060006}},{"attributes":{"ID":662372,"DIS_CODE":0,"TOWNNAME":"安定區","LI":"港南里","LIN":"1鄰","STREET":" ","SECT":" ","MAREA":"港口","LANE":" ","ALLEY":" ","HOUSE_NO":"１之２８號","E_COORD97":170792.07633800001,"N_COORD97":2554054.1244999999,"ADDRESS":"港口１之２８號","OBJECTID":662345},"geometry":{"x":170792.07633799966,"y":2554054.1244959999}},{"attributes":{"ID":662373,"DIS_CODE":0,"TOWNNAME":"安定區","LI":"港南里","LIN":"1鄰","STREET":" ","SECT":" ","MAREA":"港口","LANE":" ","ALLEY":" ","HOUSE_NO":"１之１４號","E_COORD97":170801.237108,"N_COORD97":2554060.10408,"ADDRESS":"港口１之１４號","OBJECTID":662346},"geometry":{"x":170801.23710800055,"y":2554060.1040760018}},{"attributes":{"ID":662374,"DIS_CODE":0,"TOWNNAME":"安定區","LI":"港南里","LIN":"1鄰","STREET":" ","SECT":" ","MAREA":"港口","LANE":" ","ALLEY":" ","HOUSE_NO":"１之８２號","E_COORD97":170803.40815800001,"N_COORD97":2554063.9140699999,"ADDRESS":"港口１之８２號","OBJECTID":662347},"geometry":{"x":170803.40815800056,"y":2554063.9140740018}},{"attributes":{"ID":662375,"DIS_CODE":0,"TOWNNAME":"安定區","LI":"大同里","LIN":"14鄰","STREET":" ","SECT":" ","MAREA":"牛肉寮","LANE":" ","ALLEY":" ","HOUSE_NO":"３１之５號","E_COORD97":170510.210559,"N_COORD97":2552676.96899,"ADDRESS":"牛肉寮３１之５號","OBJECTID":662348},"geometry":{"x":170510.21055900119,"y":2552676.9689889997}},{"attributes":{"ID":662376,"DIS_CODE":0,"TOWNNAME":"安定區","LI":"六嘉里","LIN":"12鄰","STREET":" ","SECT":" ","MAREA":"六塊寮","LANE":" ","ALLEY":" ","HOUSE_NO":"９７之２７號","E_COORD97":170498.93169100001,"N_COORD97":2553363.2977800001,"ADDRESS":"六塊寮９７之２７號","OBJECTID":662349},"geometry":{"x":170498.93169100117,"y":2553363.297784999}},{"attributes":{"ID":662377,"DIS_CODE":0,"TOWNNAME":"安定區","LI":"港口里","LIN":"14鄰","STREET":" ","SECT":" ","MAREA":"港口","LANE":" ","ALLEY":" ","HOUSE_NO":"３３３之２８號","E_COORD97":170189.37179199999,"N_COORD97":2554954.3952600001,"ADDRESS":"港口３３３之２８號","OBJECTID":662350},"geometry":{"x":170189.37179200072,"y":2554954.3952600006}},{"attributes":{"ID":662378,"DIS_CODE":0,"TOWNNAME":"安定區","LI":"港口里","LIN":"14鄰","STREET":" ","SECT":" ","MAREA":"港口","LANE":" ","ALLEY":" ","HOUSE_NO":"３３３之１１號","E_COORD97":170189.795411,"N_COORD97":2554937.4619399998,"ADDRESS":"港口３３３之１１號","OBJECTID":662351},"geometry":{"x":170189.79541100003,"y":2554937.4619350005}},{"attributes":{"ID":662379,"DIS_CODE":0,"TOWNNAME":"安定區","LI":"港口里","LIN":"2鄰","STREET":" ","SECT":" ","MAREA":"港口","LANE":" ","ALLEY":" ","HOUSE_NO":"２５１之５１號","E_COORD97":171682.339049,"N_COORD97":2554758.4449499999,"ADDRESS":"港口２５１之５１號","OBJECTID":662352},"geometry":{"x":171682.33904900029,"y":2554758.4449490011}},{"attributes":{"ID":662380,"DIS_CODE":0,"TOWNNAME":"安定區","LI":"管寮里","LIN":"2鄰","STREET":" ","SECT":" ","MAREA":"管寮","LANE":" ","ALLEY":" ","HOUSE_NO":"１３之２２號","E_COORD97":170291.645246,"N_COORD97":2555931.6358400001,"ADDRESS":"管寮１３之２２號","OBJECTID":662353},"geometry":{"x":170291.64524600096,"y":2555931.6358400006}},{"attributes":{"ID":662381,"DIS_CODE":0,"TOWNNAME":"安定區","LI":"新吉里","LIN":"19鄰","STREET":" ","SECT":" ","MAREA":"公親寮","LANE":" ","ALLEY":" ","HOUSE_NO":"４之１１號","E_COORD97":168337.594713,"N_COORD97":2553263.3672799999,"ADDRESS":"公親寮４之１１號","OBJECTID":662354},"geometry":{"x":168337.59471299965,"y":2553263.3672810029}},{"attributes":{"ID":662382,"DIS_CODE":0,"TOWNNAME":"新市區","LI":"新和里","LIN":"21鄰","STREET":"銘傳街","SECT":" ","MAREA":" ","LANE":" ","ALLEY":" ","HOUSE_NO":"８９號","E_COORD97":177241.89064999999,"N_COORD97":2552669.92618,"ADDRESS":"銘傳街８９號","OBJECTID":662355},"geometry":{"x":177241.89065000042,"y":2552669.9261830002}},{"attributes":{"ID":662383,"DIS_CODE":0,"TOWNNAME":"安定區","LI":"港口里","LIN":"14鄰","STREET":" ","SECT":" ","MAREA":"港口","LANE":" ","ALLEY":" ","HOUSE_NO":"３３２之２８號","E_COORD97":170544.54604700001,"N_COORD97":2554643.85653,"ADDRESS":"港口３３２之２８號","OBJECTID":662356},"geometry":{"x":170544.54604700021,"y":2554643.8565350007}},{"attributes":{"ID":662384,"DIS_CODE":0,"TOWNNAME":"安定區","LI":"新吉里","LIN":"19鄰","STREET":" ","SECT":" ","MAREA":"公親寮","LANE":" ","ALLEY":" ","HOUSE_NO":"１之１９號","E_COORD97":167968.93990299999,"N_COORD97":2553272.6806100002,"ADDRESS":"公親寮１之１９號","OBJECTID":662357},"geometry":{"x":167968.9399030013,"y":2553272.680608999}},{"attributes":{"ID":662385,"DIS_CODE":0,"TOWNNAME":"新市區","LI":"新和里","LIN":"21鄰","STREET":"銘傳街","SECT":" ","MAREA":" ","LANE":" ","ALLEY":" ","HOUSE_NO":"８５號","E_COORD97":177252.272153,"N_COORD97":2552670.9845199999,"ADDRESS":"銘傳街８５號","OBJECTID":662358},"geometry":{"x":177252.27215300128,"y":2552670.9845160022}},{"attributes":{"ID":662386,"DIS_CODE":0,"TOWNNAME":"新市區","LI":"新和里","LIN":"21鄰","STREET":"銘傳街","SECT":" ","MAREA":" ","LANE":" ","ALLEY":" ","HOUSE_NO":"８３號","E_COORD97":177257.992573,"N_COORD97":2552670.9845199999,"ADDRESS":"銘傳街８３號","OBJECTID":662359},"geometry":{"x":177257.99257299956,"y":2552670.9845160022}},{"attributes":{"ID":662387,"DIS_CODE":0,"TOWNNAME":"新市區","LI":"新和里","LIN":"21鄰","STREET":"銘傳街","SECT":" ","MAREA":" ","LANE":" ","ALLEY":" ","HOUSE_NO":"８１號","E_COORD97":177264.348596,"N_COORD97":2552671.4078500001,"ADDRESS":"銘傳街８１號","OBJECTID":662360},"geometry":{"x":177264.34859600104,"y":2552671.4078490008}},{"attributes":{"ID":662388,"DIS_CODE":0,"TOWNNAME":"新市區","LI":"新和里","LIN":"21鄰","STREET":"銘傳街","SECT":" ","MAREA":" ","LANE":" ","ALLEY":" ","HOUSE_NO":"７７號","E_COORD97":177270.28088400001,"N_COORD97":2552671.8311800002,"ADDRESS":"銘傳街７７號","OBJECTID":662361},"geometry":{"x":177270.28088399954,"y":2552671.8311819993}},{"attributes":{"ID":662389,"DIS_CODE":0,"TOWNNAME":"新市區","LI":"新和里","LIN":"21鄰","STREET":"銘傳街","SECT":" ","MAREA":" ","LANE":" ","ALLEY":" ","HOUSE_NO":"７５號","E_COORD97":177275.57756000001,"N_COORD97":2552671.8311800002,"ADDRESS":"銘傳街７５號","OBJECTID":662362},"geometry":{"x":177275.57756000012,"y":2552671.8311800007}},{"attributes":{"ID":662390,"DIS_CODE":0,"TOWNNAME":"新市區","LI":"新和里","LIN":"21鄰","STREET":"銘傳街","SECT":" ","MAREA":" ","LANE":" ","ALLEY":" ","HOUSE_NO":"７３號","E_COORD97":177280.45052000001,"N_COORD97":2552671.8311800002,"ADDRESS":"銘傳街７３號","OBJECTID":662363},"geometry":{"x":177280.45052000228,"y":2552671.8311800007}},{"attributes":{"ID":662391,"DIS_CODE":0,"TOWNNAME":"新市區","LI":"新和里","LIN":"21鄰","STREET":"銘傳街","SECT":" ","MAREA":" ","LANE":" ","ALLEY":" ","HOUSE_NO":"７１號","E_COORD97":177286.38279999999,"N_COORD97":2552671.8311800002,"ADDRESS":"銘傳街７１號","OBJECTID":662364},"geometry":{"x":177286.38280000165,"y":2552671.8311800007}},{"attributes":{"ID":662392,"DIS_CODE":0,"TOWNNAME":"新市區","LI":"新和里","LIN":"21鄰","STREET":"銘傳街","SECT":" ","MAREA":" ","LANE":" ","ALLEY":" ","HOUSE_NO":"６９號","E_COORD97":177291.89136000001,"N_COORD97":2552671.6195100001,"ADDRESS":"銘傳街６９號","OBJECTID":662365},"geometry":{"x":177291.89135999978,"y":2552671.6195100024}},{"attributes":{"ID":662393,"DIS_CODE":0,"TOWNNAME":"佳里區","LI":"鎮山里","LIN":"23鄰","STREET":" ","SECT":" ","MAREA":"鎮山","LANE":" ","ALLEY":" ","HOUSE_NO":"９４號之１００","E_COORD97":166896.40459300001,"N_COORD97":2560860.0772000002,"ADDRESS":"鎮山９４號之１００","OBJECTID":662366},"geometry":{"x":166896.40459300112,"y":2560860.0771990027}},{"attributes":{"ID":662394,"DIS_CODE":0,"TOWNNAME":"佳里區","LI":"鎮山里","LIN":"23鄰","STREET":" ","SECT":" ","MAREA":"鎮山","LANE":" ","ALLEY":" ","HOUSE_NO":"９４號之１０７","E_COORD97":166914.4136,"N_COORD97":2560839.1222100002,"ADDRESS":"鎮山９４號之１０７","OBJECTID":662367},"geometry":{"x":166914.41359999962,"y":2560839.1222100016}},{"attributes":{"ID":662395,"DIS_CODE":0,"TOWNNAME":"佳里區","LI":"鎮山里","LIN":"23鄰","STREET":" ","SECT":" ","MAREA":"鎮山","LANE":" ","ALLEY":" ","HOUSE_NO":"９４號之９８","E_COORD97":166919.49850700001,"N_COORD97":2560832.5605500001,"ADDRESS":"鎮山９４號之９８","OBJECTID":662368},"geometry":{"x":166919.49850700051,"y":2560832.560548}},{"attributes":{"ID":662396,"DIS_CODE":0,"TOWNNAME":"佳里區","LI":"鎮山里","LIN":"23鄰","STREET":" ","SECT":" ","MAREA":"鎮山","LANE":" ","ALLEY":" ","HOUSE_NO":"９４號９７","E_COORD97":166927.655531,"N_COORD97":2560822.63222,"ADDRESS":"鎮山９４號９７","OBJECTID":662369},"geometry":{"x":166927.65553099941,"y":2560822.6322220005}},{"attributes":{"ID":662397,"DIS_CODE":0,"TOWNNAME":"楠西區","LI":"密枝里","LIN":"1鄰","STREET":" ","SECT":" ","MAREA":"密枝","LANE":" ","ALLEY":" ","HOUSE_NO":"３之６號","E_COORD97":199778,"N_COORD97":2565260,"ADDRESS":"密枝３之６號","OBJECTID":662370},"geometry":{"x":199778.00000000093,"y":2565260}},{"attributes":{"ID":662398,"DIS_CODE":0,"TOWNNAME":"新市區","LI":"新和里","LIN":"21鄰","STREET":"銘傳街","SECT":" ","MAREA":" ","LANE":" ","ALLEY":" ","HOUSE_NO":"８７號","E_COORD97":177246.551733,"N_COORD97":2552670.5611800002,"ADDRESS":"銘傳街８７號","OBJECTID":662371},"geometry":{"x":177246.55173300114,"y":2552670.561183}},{"attributes":{"ID":662399,"DIS_CODE":0,"TOWNNAME":"新市區","LI":"新和里","LIN":"21鄰","STREET":"銘傳街","SECT":" ","MAREA":" ","LANE":" ","ALLEY":" ","HOUSE_NO":"７９號","E_COORD97":177267.31474,"N_COORD97":2552672.1486800001,"ADDRESS":"銘傳街７９號","OBJECTID":662372},"geometry":{"x":177267.31474000122,"y":2552672.148682002}},{"attributes":{"ID":662400,"DIS_CODE":0,"TOWNNAME":"東區","LI":"崇成里","LIN":"1鄰","STREET":"崇道路","SECT":" ","MAREA":" ","LANE":" ","ALLEY":" ","HOUSE_NO":"９８號之１","E_COORD97":170867.929202,"N_COORD97":2541379.5854099998,"ADDRESS":"崇道路９８號之１","OBJECTID":662373},"geometry":{"x":170867.92920200061,"y":2541379.5854049996}},{"attributes":{"ID":662401,"DIS_CODE":0,"TOWNNAME":"學甲區","LI":"三慶里","LIN":"8鄰","STREET":" ","SECT":" ","MAREA":"頂洲","LANE":" ","ALLEY":" ","HOUSE_NO":"１１６號之１","E_COORD97":168405.566636,"N_COORD97":2576418.5618400001,"ADDRESS":"頂洲１１６號之１","OBJECTID":662374},"geometry":{"x":168405.56663600169,"y":2576418.5618400015}},{"attributes":{"ID":662402,"DIS_CODE":0,"TOWNNAME":"學甲區","LI":"秀昌里","LIN":"13鄰","STREET":" ","SECT":" ","MAREA":"一秀","LANE":" ","ALLEY":" ","HOUSE_NO":"１５４號之２１","E_COORD97":165379.04630399999,"N_COORD97":2572901.7370199999,"ADDRESS":"一秀１５４號之２１","OBJECTID":662375},"geometry":{"x":165379.04630399868,"y":2572901.7370229997}},{"attributes":{"ID":662403,"DIS_CODE":0,"TOWNNAME":"東區","LI":"崇成里","LIN":"21鄰","STREET":"崇明二十街","SECT":" ","MAREA":" ","LANE":" ","ALLEY":" ","HOUSE_NO":"１號","E_COORD97":170640.204761,"N_COORD97":2541086.3082300001,"ADDRESS":"崇明二十街１號","OBJECTID":662376},"geometry":{"x":170640.20476100128,"y":2541086.3082289994}},{"attributes":{"ID":662404,"DIS_CODE":0,"TOWNNAME":"東區","LI":"崇明里","LIN":"9鄰","STREET":"大同路","SECT":"二段","MAREA":" ","LANE":" ","ALLEY":" ","HOUSE_NO":"４７１號之１","E_COORD97":169577.128467,"N_COORD97":2541183.2515099999,"ADDRESS":"大同路二段４７１號之１","OBJECTID":662377},"geometry":{"x":169577.12846700102,"y":2541183.2515099999}},{"attributes":{"ID":662405,"DIS_CODE":0,"TOWNNAME":"東區","LI":"崇明里","LIN":"8鄰","STREET":"大同路","SECT":"二段","MAREA":" ","LANE":"４４９巷","ALLEY":" ","HOUSE_NO":"７號之１","E_COORD97":169602.341437,"N_COORD97":2541300.5147799999,"ADDRESS":"大同路二段４４９巷７號之１","OBJECTID":662378},"geometry":{"x":169602.34143699892,"y":2541300.5147799999}},{"attributes":{"ID":662406,"DIS_CODE":0,"TOWNNAME":"東區","LI":"崇善里","LIN":"4鄰","STREET":"崇善二街","SECT":" ","MAREA":" ","LANE":" ","ALLEY":" ","HOUSE_NO":"３號","E_COORD97":170877.37747599999,"N_COORD97":2542020.5181900002,"ADDRESS":"崇善二街３號","OBJECTID":662379},"geometry":{"x":170877.37747600023,"y":2542020.5181869995}},{"attributes":{"ID":662407,"DIS_CODE":0,"TOWNNAME":"東區","LI":"崇善里","LIN":"9鄰","STREET":"仁和路","SECT":" ","MAREA":" ","LANE":" ","ALLEY":" ","HOUSE_NO":"１００號之２","E_COORD97":171241.48243100001,"N_COORD97":2541498.4955500001,"ADDRESS":"仁和路１００號之２","OBJECTID":662380},"geometry":{"x":171241.48243100103,"y":2541498.4955519997}},{"attributes":{"ID":662408,"DIS_CODE":0,"TOWNNAME":"新營區","LI":"大宏里","LIN":"7鄰","STREET":"文昌街","SECT":" ","MAREA":" ","LANE":" ","ALLEY":" ","HOUSE_NO":"２之１號","E_COORD97":180608.03574299999,"N_COORD97":2578439.6348100002,"ADDRESS":"文昌街２之１號","OBJECTID":662381},"geometry":{"x":180608.03574300092,"y":2578439.6348069999}},{"attributes":{"ID":662409,"DIS_CODE":0,"TOWNNAME":"新營區","LI":"大宏里","LIN":"7鄰","STREET":"文昌街","SECT":" ","MAREA":" ","LANE":" ","ALLEY":" ","HOUSE_NO":"２之２號","E_COORD97":180605.49098199999,"N_COORD97":2578432.4381400002,"ADDRESS":"文昌街２之２號","OBJECTID":662382},"geometry":{"x":180605.49098199978,"y":2578432.4381440002}},{"attributes":{"ID":662410,"DIS_CODE":0,"TOWNNAME":"新營區","LI":"大宏里","LIN":"7鄰","STREET":"文昌街","SECT":" ","MAREA":" ","LANE":" ","ALLEY":" ","HOUSE_NO":"２之３號","E_COORD97":180598.91701500001,"N_COORD97":2578431.80314,"ADDRESS":"文昌街２之３號","OBJECTID":662383},"geometry":{"x":180598.91701500025,"y":2578431.8031440005}},{"attributes":{"ID":662411,"DIS_CODE":0,"TOWNNAME":"新營區","LI":"大宏里","LIN":"7鄰","STREET":"文昌街","SECT":" ","MAREA":" ","LANE":" ","ALLEY":" ","HOUSE_NO":"２之５號","E_COORD97":180591.91892200001,"N_COORD97":2578431.5914799999,"ADDRESS":"文昌街２之５號","OBJECTID":662384},"geometry":{"x":180591.91892200056,"y":2578431.5914780032}},{"attributes":{"ID":662412,"DIS_CODE":0,"TOWNNAME":"新營區","LI":"大宏里","LIN":"7鄰","STREET":"文昌街","SECT":" ","MAREA":" ","LANE":" ","ALLEY":" ","HOUSE_NO":"２之６號","E_COORD97":180585.557019,"N_COORD97":2578430.7448100001,"ADDRESS":"文昌街２之６號","OBJECTID":662385},"geometry":{"x":180585.55701899994,"y":2578430.7448120005}},{"attributes":{"ID":662413,"DIS_CODE":0,"TOWNNAME":"仁德區","LI":"仁義里","LIN":"22鄰","STREET":"中清路","SECT":" ","MAREA":" ","LANE":" ","ALLEY":" ","HOUSE_NO":"１０７號","E_COORD97":173708.905118,"N_COORD97":2541364.8624300002,"ADDRESS":"中清路１０７號","OBJECTID":662386},"geometry":{"x":173708.90511799976,"y":2541364.8624260016}},{"attributes":{"ID":662414,"DIS_CODE":0,"TOWNNAME":"北區","LI":"實踐里","LIN":"18鄰","STREET":"大武街","SECT":" ","MAREA":" ","LANE":"２０５巷","ALLEY":" ","HOUSE_NO":"１０號","E_COORD97":169604.259812,"N_COORD97":2546108.6010500002,"ADDRESS":"大武街２０５巷１０號","OBJECTID":662387},"geometry":{"x":169604.25981200021,"y":2546108.6010520011}},{"attributes":{"ID":662415,"DIS_CODE":0,"TOWNNAME":"北區","LI":"實踐里","LIN":"18鄰","STREET":"大武街","SECT":" ","MAREA":" ","LANE":"２０５巷","ALLEY":" ","HOUSE_NO":"１０號之１","E_COORD97":169603.62429000001,"N_COORD97":2546102.8860499999,"ADDRESS":"大武街２０５巷１０之１號","OBJECTID":662388},"geometry":{"x":169603.62429000065,"y":2546102.8860500008}},{"attributes":{"ID":662416,"DIS_CODE":0,"TOWNNAME":"北區","LI":"實踐里","LIN":"18鄰","STREET":"大武街","SECT":" ","MAREA":" ","LANE":"２０５巷","ALLEY":" ","HOUSE_NO":"１５號","E_COORD97":169564.85772299999,"N_COORD97":2546105.0556399999,"ADDRESS":"大武街２０５巷１５號","OBJECTID":662389},"geometry":{"x":169564.85772300046,"y":2546105.0556380004}},{"attributes":{"ID":662417,"DIS_CODE":0,"TOWNNAME":"北區","LI":"實踐里","LIN":"18鄰","STREET":"大武街","SECT":" ","MAREA":" ","LANE":"２０５巷","ALLEY":" ","HOUSE_NO":"１６號","E_COORD97":169558.71438600001,"N_COORD97":2546106.1139699998,"ADDRESS":"大武街２０５巷１６號","OBJECTID":662390},"geometry":{"x":169558.71438600123,"y":2546106.1139700003}},{"attributes":{"ID":662418,"DIS_CODE":0,"TOWNNAME":"北區","LI":"實踐里","LIN":"18鄰","STREET":"大武街","SECT":" ","MAREA":" ","LANE":"２０５巷","ALLEY":" ","HOUSE_NO":"１７號","E_COORD97":169560.62093899999,"N_COORD97":2546102.0923100002,"ADDRESS":"大武街２０５巷１７號","OBJECTID":662391},"geometry":{"x":169560.62093900051,"y":2546102.0923059992}},{"attributes":{"ID":662419,"DIS_CODE":0,"TOWNNAME":"北區","LI":"實踐里","LIN":"18鄰","STREET":"大武街","SECT":" ","MAREA":" ","LANE":"２０５巷","ALLEY":" ","HOUSE_NO":"１號之１","E_COORD97":169631.79889999999,"N_COORD97":2546084.2064800002,"ADDRESS":"大武街２０５巷１之１號","OBJECTID":662392},"geometry":{"x":169631.79889999982,"y":2546084.206480002}},{"attributes":{"ID":662420,"DIS_CODE":0,"TOWNNAME":"北區","LI":"實踐里","LIN":"18鄰","STREET":"大武街","SECT":" ","MAREA":" ","LANE":"２０５巷","ALLEY":" ","HOUSE_NO":"２號","E_COORD97":169633.70545899999,"N_COORD97":2546091.4031400001,"ADDRESS":"大武街２０５巷２號","OBJECTID":662393},"geometry":{"x":169633.70545899868,"y":2546091.4031450003}},{"attributes":{"ID":662421,"DIS_CODE":0,"TOWNNAME":"北區","LI":"實踐里","LIN":"18鄰","STREET":"大武街","SECT":" ","MAREA":" ","LANE":"２０５巷","ALLEY":" ","HOUSE_NO":"４號","E_COORD97":169601.505902,"N_COORD97":2546097.6473099999,"ADDRESS":"大武街２０５巷４號","OBJECTID":662394},"geometry":{"x":169601.50590199884,"y":2546097.6473079994}},{"attributes":{"ID":662422,"DIS_CODE":0,"TOWNNAME":"北區","LI":"實踐里","LIN":"18鄰","STREET":"大武街","SECT":" ","MAREA":" ","LANE":"２０５巷","ALLEY":" ","HOUSE_NO":"６號","E_COORD97":169608.28475600001,"N_COORD97":2546094.4723100001,"ADDRESS":"大武街２０５巷６號","OBJECTID":662395},"geometry":{"x":169608.28475600109,"y":2546094.4723099992}},{"attributes":{"ID":662423,"DIS_CODE":0,"TOWNNAME":"北區","LI":"實踐里","LIN":"18鄰","STREET":"大武街","SECT":" ","MAREA":" ","LANE":"２０５巷","ALLEY":" ","HOUSE_NO":"７號","E_COORD97":169609.767631,"N_COORD97":2546103.1506400001,"ADDRESS":"大武街２０５巷７號","OBJECTID":662396},"geometry":{"x":169609.76763099991,"y":2546103.1506390013}},{"attributes":{"ID":662424,"DIS_CODE":0,"TOWNNAME":"北區","LI":"實踐里","LIN":"18鄰","STREET":"大武街","SECT":" ","MAREA":" ","LANE":"２０５巷","ALLEY":" ","HOUSE_NO":"８號","E_COORD97":169610.19130899999,"N_COORD97":2546107.59564,"ADDRESS":"大武街２０５巷８號","OBJECTID":662397},"geometry":{"x":169610.19130900037,"y":2546107.5956360009}},{"attributes":{"ID":662425,"DIS_CODE":0,"TOWNNAME":"北區","LI":"實踐里","LIN":"18鄰","STREET":"大武街","SECT":" ","MAREA":" ","LANE":"２０５巷","ALLEY":" ","HOUSE_NO":"９號","E_COORD97":169610.19130899999,"N_COORD97":2546112.2522999998,"ADDRESS":"大武街２０５巷９號","OBJECTID":662398},"geometry":{"x":169610.19130900037,"y":2546112.2523000017}},{"attributes":{"ID":662426,"DIS_CODE":0,"TOWNNAME":"安南區","LI":"四草里","LIN":"7鄰","STREET":"四草大道","SECT":" ","MAREA":" ","LANE":"８１巷","ALLEY":"６弄","HOUSE_NO":"２號","E_COORD97":161334.226265,"N_COORD97":2544859.0882100002,"ADDRESS":"四草大道８１巷６弄２號","OBJECTID":662399},"geometry":{"x":161334.22626500204,"y":2544859.0882070027}},{"attributes":{"ID":662427,"DIS_CODE":0,"TOWNNAME":"安南區","LI":"四草里","LIN":"7鄰","STREET":"四草大道","SECT":" ","MAREA":" ","LANE":"８１巷","ALLEY":" ","HOUSE_NO":"２號","E_COORD97":161344.60193999999,"N_COORD97":2544819.08323,"ADDRESS":"四草大道８１巷２號","OBJECTID":662400},"geometry":{"x":161344.60194000136,"y":2544819.0832289997}}]}