{"displayFieldName":"TOWNNAME","fieldAliases":{"ID":"ID","DIS_CODE":"DIS_CODE","TOWNNAME":"TOWNNAME","LI":"LI","LIN":"LIN","STREET":"STREET","SECT":"SECT","MAREA":"MAREA","LANE":"LANE","ALLEY":"ALLEY","HOUSE_NO":"HOUSE_NO","E_COORD97":"E_COORD97","N_COORD97":"N_COORD97","ADDRESS":"ADDRESS","OBJECTID":"OBJECTID"},"geometryType":"esriGeometryPoint","spatialReference":{"wkid":102443,"latestWkid":3826},"fields":[{"name":"ID","type":"esriFieldTypeDouble","alias":"ID"},{"name":"DIS_CODE","type":"esriFieldTypeInteger","alias":"DIS_CODE"},{"name":"TOWNNAME","type":"esriFieldTypeString","alias":"TOWNNAME","length":8},{"name":"LI","type":"esriFieldTypeString","alias":"LI","length":8},{"name":"LIN","type":"esriFieldTypeString","alias":"LIN","length":12},{"name":"STREET","type":"esriFieldTypeString","alias":"STREET","length":20},{"name":"SECT","type":"esriFieldTypeString","alias":"SECT","length":8},{"name":"MAREA","type":"esriFieldTypeString","alias":"MAREA","length":12},{"name":"LANE","type":"esriFieldTypeString","alias":"LANE","length":10},{"name":"ALLEY","type":"esriFieldTypeString","alias":"ALLEY","length":10},{"name":"HOUSE_NO","type":"esriFieldTypeString","alias":"HOUSE_NO","length":20},{"name":"E_COORD97","type":"esriFieldTypeDouble","alias":"E_COORD97"},{"name":"N_COORD97","type":"esriFieldTypeDouble","alias":"N_COORD97"},{"name":"ADDRESS","type":"esriFieldTypeString","alias":"ADDRESS","length":50},{"name":"OBJECTID","type":"esriFieldTypeOID","alias":"OBJECTID"}],"features":[{"attributes":{"ID":507228,"DIS_CODE":0,"TOWNNAME":"歸仁區","LI":"八甲里","LIN":"15鄰","STREET":"大仁七街","SECT":" ","MAREA":" ","LANE":" ","ALLEY":" ","HOUSE_NO":"６０號二樓之３","E_COORD97":178121.47,"N_COORD97":2541730.6200000001,"ADDRESS":"大仁七街６０號二樓之３","OBJECTID":507201},"geometry":{"x":178121.46999999974,"y":2541730.6200000029}},{"attributes":{"ID":507229,"DIS_CODE":0,"TOWNNAME":"歸仁區","LI":"八甲里","LIN":"15鄰","STREET":"大仁七街","SECT":" ","MAREA":" ","LANE":" ","ALLEY":" ","HOUSE_NO":"６０號四樓之１７","E_COORD97":178121.72,"N_COORD97":2541730.6200000001,"ADDRESS":"大仁七街６０號四樓之１７","OBJECTID":507202},"geometry":{"x":178121.7200000016,"y":2541730.6200000029}},{"attributes":{"ID":507230,"DIS_CODE":0,"TOWNNAME":"北區","LI":"成德里","LIN":"15鄰","STREET":"西門路","SECT":"四段","MAREA":" ","LANE":" ","ALLEY":" ","HOUSE_NO":"２７３之２號","E_COORD97":168864.72,"N_COORD97":2545938.0800000001,"ADDRESS":"西門路四段２７３之２號","OBJECTID":507203},"geometry":{"x":168864.72000000067,"y":2545938.0800000001}},{"attributes":{"ID":507231,"DIS_CODE":0,"TOWNNAME":"北區","LI":"成德里","LIN":"15鄰","STREET":"西門路","SECT":"四段","MAREA":" ","LANE":" ","ALLEY":" ","HOUSE_NO":"２７３之３號","E_COORD97":168864.22,"N_COORD97":2545950.8199999998,"ADDRESS":"西門路四段２７３之３號","OBJECTID":507204},"geometry":{"x":168864.2200000016,"y":2545950.8200000003}},{"attributes":{"ID":507232,"DIS_CODE":0,"TOWNNAME":"北區","LI":"成德里","LIN":"15鄰","STREET":"西門路","SECT":"四段","MAREA":" ","LANE":" ","ALLEY":" ","HOUSE_NO":"２７３之５號","E_COORD97":168867.22,"N_COORD97":2545959.7999999998,"ADDRESS":"西門路四段２７３之５號","OBJECTID":507205},"geometry":{"x":168867.21999999974,"y":2545959.8000000026}},{"attributes":{"ID":507233,"DIS_CODE":0,"TOWNNAME":"歸仁區","LI":"八甲里","LIN":"15鄰","STREET":"大仁七街","SECT":" ","MAREA":" ","LANE":" ","ALLEY":" ","HOUSE_NO":"６０號五樓之１８","E_COORD97":178121.73000000001,"N_COORD97":2541730.6200000001,"ADDRESS":"大仁七街６０號五樓之１８","OBJECTID":507206},"geometry":{"x":178121.73000000045,"y":2541730.6200000029}},{"attributes":{"ID":507234,"DIS_CODE":0,"TOWNNAME":"歸仁區","LI":"八甲里","LIN":"15鄰","STREET":"大仁七街","SECT":" ","MAREA":" ","LANE":" ","ALLEY":" ","HOUSE_NO":"６０號二樓之１８","E_COORD97":178121.73000000001,"N_COORD97":2541730.6200000001,"ADDRESS":"大仁七街６０號二樓之１８","OBJECTID":507207},"geometry":{"x":178121.73000000045,"y":2541730.6200000029}},{"attributes":{"ID":507235,"DIS_CODE":0,"TOWNNAME":"歸仁區","LI":"八甲里","LIN":"15鄰","STREET":"大仁七街","SECT":" ","MAREA":" ","LANE":" ","ALLEY":" ","HOUSE_NO":"６０號五樓之６","E_COORD97":178121.47,"N_COORD97":2541730.6200000001,"ADDRESS":"大仁七街６０號五樓之６","OBJECTID":507208},"geometry":{"x":178121.46999999974,"y":2541730.6200000029}},{"attributes":{"ID":507236,"DIS_CODE":0,"TOWNNAME":"歸仁區","LI":"八甲里","LIN":"15鄰","STREET":"大仁七街","SECT":" ","MAREA":" ","LANE":" ","ALLEY":" ","HOUSE_NO":"６０號二樓之７","E_COORD97":178121.47,"N_COORD97":2541730.6200000001,"ADDRESS":"大仁七街６０號二樓之７","OBJECTID":507209},"geometry":{"x":178121.46999999974,"y":2541730.6200000029}},{"attributes":{"ID":507237,"DIS_CODE":0,"TOWNNAME":"歸仁區","LI":"八甲里","LIN":"15鄰","STREET":"大仁七街","SECT":" ","MAREA":" ","LANE":" ","ALLEY":" ","HOUSE_NO":"６０號五樓之１４","E_COORD97":178121.70999999999,"N_COORD97":2541730.6200000001,"ADDRESS":"大仁七街６０號五樓之１４","OBJECTID":507210},"geometry":{"x":178121.70999999996,"y":2541730.6200000029}},{"attributes":{"ID":507238,"DIS_CODE":0,"TOWNNAME":"歸仁區","LI":"八甲里","LIN":"15鄰","STREET":"大仁七街","SECT":" ","MAREA":" ","LANE":" ","ALLEY":" ","HOUSE_NO":"６０號二樓之１９","E_COORD97":178121.72,"N_COORD97":2541730.6200000001,"ADDRESS":"大仁七街６０號二樓之１９","OBJECTID":507211},"geometry":{"x":178121.7200000016,"y":2541730.6200000029}},{"attributes":{"ID":507239,"DIS_CODE":0,"TOWNNAME":"歸仁區","LI":"八甲里","LIN":"15鄰","STREET":"大仁七街","SECT":" ","MAREA":" ","LANE":" ","ALLEY":" ","HOUSE_NO":"６０號五樓之１１","E_COORD97":178121.70000000001,"N_COORD97":2541730.6200000001,"ADDRESS":"大仁七街６０號五樓之１１","OBJECTID":507212},"geometry":{"x":178121.70000000019,"y":2541730.6200000029}},{"attributes":{"ID":507240,"DIS_CODE":0,"TOWNNAME":"歸仁區","LI":"八甲里","LIN":"15鄰","STREET":"大仁七街","SECT":" ","MAREA":" ","LANE":" ","ALLEY":" ","HOUSE_NO":"６０號五樓之１３","E_COORD97":178121.72,"N_COORD97":2541730.6200000001,"ADDRESS":"大仁七街６０號五樓之１３","OBJECTID":507213},"geometry":{"x":178121.7200000016,"y":2541730.6200000029}},{"attributes":{"ID":507241,"DIS_CODE":0,"TOWNNAME":"歸仁區","LI":"八甲里","LIN":"15鄰","STREET":"大仁七街","SECT":" ","MAREA":" ","LANE":" ","ALLEY":" ","HOUSE_NO":"６０號五樓之１９","E_COORD97":178121.72,"N_COORD97":2541730.6200000001,"ADDRESS":"大仁七街６０號五樓之１９","OBJECTID":507214},"geometry":{"x":178121.7200000016,"y":2541730.6200000029}},{"attributes":{"ID":507242,"DIS_CODE":0,"TOWNNAME":"歸仁區","LI":"八甲里","LIN":"15鄰","STREET":"大仁七街","SECT":" ","MAREA":" ","LANE":" ","ALLEY":" ","HOUSE_NO":"６０號四樓之１４","E_COORD97":178121.70999999999,"N_COORD97":2541730.6200000001,"ADDRESS":"大仁七街６０號四樓之１４","OBJECTID":507215},"geometry":{"x":178121.70999999996,"y":2541730.6200000029}},{"attributes":{"ID":507243,"DIS_CODE":0,"TOWNNAME":"歸仁區","LI":"八甲里","LIN":"15鄰","STREET":"大仁七街","SECT":" ","MAREA":" ","LANE":" ","ALLEY":" ","HOUSE_NO":"６０號三樓之８","E_COORD97":178121.48000000001,"N_COORD97":2541730.6200000001,"ADDRESS":"大仁七街６０號三樓之８","OBJECTID":507216},"geometry":{"x":178121.48000000045,"y":2541730.6200000029}},{"attributes":{"ID":507244,"DIS_CODE":0,"TOWNNAME":"歸仁區","LI":"八甲里","LIN":"15鄰","STREET":"大仁七街","SECT":" ","MAREA":" ","LANE":" ","ALLEY":" ","HOUSE_NO":"６０號三樓之６","E_COORD97":178121.47,"N_COORD97":2541730.6200000001,"ADDRESS":"大仁七街６０號三樓之６","OBJECTID":507217},"geometry":{"x":178121.46999999974,"y":2541730.6200000029}},{"attributes":{"ID":507245,"DIS_CODE":0,"TOWNNAME":"歸仁區","LI":"八甲里","LIN":"15鄰","STREET":"大仁七街","SECT":" ","MAREA":" ","LANE":" ","ALLEY":" ","HOUSE_NO":"６０號六樓之１１","E_COORD97":178121.70000000001,"N_COORD97":2541730.6200000001,"ADDRESS":"大仁七街６０號六樓之１１","OBJECTID":507218},"geometry":{"x":178121.70000000019,"y":2541730.6200000029}},{"attributes":{"ID":507246,"DIS_CODE":0,"TOWNNAME":"南區","LI":"金華里","LIN":"15鄰","STREET":"惠南街","SECT":" ","MAREA":" ","LANE":" ","ALLEY":" ","HOUSE_NO":"３９號二樓","E_COORD97":166739.95000000001,"N_COORD97":2542090.9100000001,"ADDRESS":"惠南街３９號二樓","OBJECTID":507219},"geometry":{"x":166739.95000000019,"y":2542090.9100000001}},{"attributes":{"ID":507247,"DIS_CODE":0,"TOWNNAME":"南區","LI":"金華里","LIN":"15鄰","STREET":"惠南街","SECT":" ","MAREA":" ","LANE":" ","ALLEY":" ","HOUSE_NO":"３９號三樓","E_COORD97":166739.95000000001,"N_COORD97":2542090.9100000001,"ADDRESS":"惠南街３９號三樓","OBJECTID":507220},"geometry":{"x":166739.95000000019,"y":2542090.9100000001}},{"attributes":{"ID":507248,"DIS_CODE":0,"TOWNNAME":"南區","LI":"金華里","LIN":"15鄰","STREET":"惠南街","SECT":" ","MAREA":" ","LANE":" ","ALLEY":" ","HOUSE_NO":"３９號四樓","E_COORD97":166739.95000000001,"N_COORD97":2542090.9100000001,"ADDRESS":"惠南街３９號四樓","OBJECTID":507221},"geometry":{"x":166739.95000000019,"y":2542090.9100000001}},{"attributes":{"ID":507249,"DIS_CODE":0,"TOWNNAME":"南區","LI":"金華里","LIN":"15鄰","STREET":"惠南街","SECT":" ","MAREA":" ","LANE":" ","ALLEY":" ","HOUSE_NO":"４３號二樓","E_COORD97":166741.26000000001,"N_COORD97":2542112.4399999999,"ADDRESS":"惠南街４３號二樓","OBJECTID":507222},"geometry":{"x":166741.25999999978,"y":2542112.4400000013}},{"attributes":{"ID":507250,"DIS_CODE":0,"TOWNNAME":"南區","LI":"金華里","LIN":"15鄰","STREET":"惠南街","SECT":" ","MAREA":" ","LANE":" ","ALLEY":" ","HOUSE_NO":"４３號三樓","E_COORD97":166741.26000000001,"N_COORD97":2542112.4399999999,"ADDRESS":"惠南街４３號三樓","OBJECTID":507223},"geometry":{"x":166741.25999999978,"y":2542112.4400000013}},{"attributes":{"ID":507251,"DIS_CODE":0,"TOWNNAME":"南區","LI":"金華里","LIN":"15鄰","STREET":"惠南街","SECT":" ","MAREA":" ","LANE":" ","ALLEY":" ","HOUSE_NO":"４３號四樓","E_COORD97":166741.26000000001,"N_COORD97":2542112.4399999999,"ADDRESS":"惠南街４３號四樓","OBJECTID":507224},"geometry":{"x":166741.25999999978,"y":2542112.4400000013}},{"attributes":{"ID":507252,"DIS_CODE":0,"TOWNNAME":"南區","LI":"金華里","LIN":"15鄰","STREET":"新孝路","SECT":" ","MAREA":" ","LANE":" ","ALLEY":" ","HOUSE_NO":"９２號二樓","E_COORD97":166738.63,"N_COORD97":2542079.7799999998,"ADDRESS":"新孝路９２號二樓","OBJECTID":507225},"geometry":{"x":166738.62999999989,"y":2542079.7800000012}},{"attributes":{"ID":507253,"DIS_CODE":0,"TOWNNAME":"南區","LI":"金華里","LIN":"15鄰","STREET":"新孝路","SECT":" ","MAREA":" ","LANE":" ","ALLEY":" ","HOUSE_NO":"９２號三樓","E_COORD97":166738.63,"N_COORD97":2542079.7799999998,"ADDRESS":"新孝路９２號三樓","OBJECTID":507226},"geometry":{"x":166738.62999999989,"y":2542079.7800000012}},{"attributes":{"ID":507254,"DIS_CODE":0,"TOWNNAME":"南區","LI":"金華里","LIN":"15鄰","STREET":"新孝路","SECT":" ","MAREA":" ","LANE":" ","ALLEY":" ","HOUSE_NO":"９２號四樓","E_COORD97":166738.63,"N_COORD97":2542079.7799999998,"ADDRESS":"新孝路９２號四樓","OBJECTID":507227},"geometry":{"x":166738.62999999989,"y":2542079.7800000012}},{"attributes":{"ID":507255,"DIS_CODE":0,"TOWNNAME":"南區","LI":"金華里","LIN":"15鄰","STREET":"新孝路","SECT":" ","MAREA":" ","LANE":" ","ALLEY":" ","HOUSE_NO":"９４號二樓","E_COORD97":166726.56,"N_COORD97":2542080.6600000001,"ADDRESS":"新孝路９４號二樓","OBJECTID":507228},"geometry":{"x":166726.56000000052,"y":2542080.6600000039}},{"attributes":{"ID":507256,"DIS_CODE":0,"TOWNNAME":"南區","LI":"金華里","LIN":"15鄰","STREET":"新孝路","SECT":" ","MAREA":" ","LANE":" ","ALLEY":" ","HOUSE_NO":"９４號三樓","E_COORD97":166726.56,"N_COORD97":2542080.6600000001,"ADDRESS":"新孝路９４號三樓","OBJECTID":507229},"geometry":{"x":166726.56000000052,"y":2542080.6600000039}},{"attributes":{"ID":507257,"DIS_CODE":0,"TOWNNAME":"南區","LI":"金華里","LIN":"15鄰","STREET":"新孝路","SECT":" ","MAREA":" ","LANE":" ","ALLEY":" ","HOUSE_NO":"９４號四樓","E_COORD97":166726.56,"N_COORD97":2542080.6600000001,"ADDRESS":"新孝路９４號四樓","OBJECTID":507230},"geometry":{"x":166726.56000000052,"y":2542080.6600000039}},{"attributes":{"ID":507258,"DIS_CODE":0,"TOWNNAME":"鹽水區","LI":"橋南里","LIN":"15鄰","STREET":"月津路","SECT":" ","MAREA":" ","LANE":" ","ALLEY":" ","HOUSE_NO":"１１號一樓之１","E_COORD97":175016.32999999999,"N_COORD97":2579458.5699999998,"ADDRESS":"月津路１１號一樓之１","OBJECTID":507231},"geometry":{"x":175016.33000000101,"y":2579458.5700000022}},{"attributes":{"ID":507259,"DIS_CODE":0,"TOWNNAME":"鹽水區","LI":"橋南里","LIN":"15鄰","STREET":"月津路","SECT":" ","MAREA":" ","LANE":" ","ALLEY":" ","HOUSE_NO":"１１號一樓之２","E_COORD97":175016.32999999999,"N_COORD97":2579458.5699999998,"ADDRESS":"月津路１１號一樓之２","OBJECTID":507232},"geometry":{"x":175016.33000000101,"y":2579458.5700000022}},{"attributes":{"ID":507260,"DIS_CODE":0,"TOWNNAME":"鹽水區","LI":"橋南里","LIN":"15鄰","STREET":"月津路","SECT":" ","MAREA":" ","LANE":" ","ALLEY":" ","HOUSE_NO":"１１號一樓之３","E_COORD97":175016.32999999999,"N_COORD97":2579458.5699999998,"ADDRESS":"月津路１１號一樓之３","OBJECTID":507233},"geometry":{"x":175016.33000000101,"y":2579458.5700000022}},{"attributes":{"ID":507261,"DIS_CODE":0,"TOWNNAME":"鹽水區","LI":"橋南里","LIN":"15鄰","STREET":"月津路","SECT":" ","MAREA":" ","LANE":" ","ALLEY":" ","HOUSE_NO":"１１號二樓之１","E_COORD97":175016.32999999999,"N_COORD97":2579458.5699999998,"ADDRESS":"月津路１１號二樓之１","OBJECTID":507234},"geometry":{"x":175016.33000000101,"y":2579458.5700000022}},{"attributes":{"ID":507262,"DIS_CODE":0,"TOWNNAME":"鹽水區","LI":"橋南里","LIN":"15鄰","STREET":"月津路","SECT":" ","MAREA":" ","LANE":" ","ALLEY":" ","HOUSE_NO":"１１號二樓之２","E_COORD97":175016.32999999999,"N_COORD97":2579458.5699999998,"ADDRESS":"月津路１１號二樓之２","OBJECTID":507235},"geometry":{"x":175016.33000000101,"y":2579458.5700000022}},{"attributes":{"ID":507263,"DIS_CODE":0,"TOWNNAME":"鹽水區","LI":"橋南里","LIN":"15鄰","STREET":"月津路","SECT":" ","MAREA":" ","LANE":" ","ALLEY":" ","HOUSE_NO":"１１號二樓之３","E_COORD97":175016.32999999999,"N_COORD97":2579458.5699999998,"ADDRESS":"月津路１１號二樓之３","OBJECTID":507236},"geometry":{"x":175016.33000000101,"y":2579458.5700000022}},{"attributes":{"ID":507264,"DIS_CODE":0,"TOWNNAME":"鹽水區","LI":"橋南里","LIN":"15鄰","STREET":"月津路","SECT":" ","MAREA":" ","LANE":" ","ALLEY":" ","HOUSE_NO":"１１號三樓之１","E_COORD97":175016.32999999999,"N_COORD97":2579458.5699999998,"ADDRESS":"月津路１１號三樓之１","OBJECTID":507237},"geometry":{"x":175016.33000000101,"y":2579458.5700000022}},{"attributes":{"ID":507265,"DIS_CODE":0,"TOWNNAME":"鹽水區","LI":"橋南里","LIN":"15鄰","STREET":"月津路","SECT":" ","MAREA":" ","LANE":" ","ALLEY":" ","HOUSE_NO":"１１號三樓之２","E_COORD97":175016.32999999999,"N_COORD97":2579458.5699999998,"ADDRESS":"月津路１１號三樓之２","OBJECTID":507238},"geometry":{"x":175016.33000000101,"y":2579458.5700000022}},{"attributes":{"ID":507266,"DIS_CODE":0,"TOWNNAME":"鹽水區","LI":"橋南里","LIN":"15鄰","STREET":"月津路","SECT":" ","MAREA":" ","LANE":" ","ALLEY":" ","HOUSE_NO":"１１號三樓之３","E_COORD97":175016.32999999999,"N_COORD97":2579458.5699999998,"ADDRESS":"月津路１１號三樓之３","OBJECTID":507239},"geometry":{"x":175016.33000000101,"y":2579458.5700000022}},{"attributes":{"ID":507267,"DIS_CODE":0,"TOWNNAME":"鹽水區","LI":"橋南里","LIN":"15鄰","STREET":"月津路","SECT":" ","MAREA":" ","LANE":" ","ALLEY":" ","HOUSE_NO":"１１號三樓之４","E_COORD97":175016.32999999999,"N_COORD97":2579458.5699999998,"ADDRESS":"月津路１１號三樓之４","OBJECTID":507240},"geometry":{"x":175016.33000000101,"y":2579458.5700000022}},{"attributes":{"ID":507268,"DIS_CODE":0,"TOWNNAME":"鹽水區","LI":"橋南里","LIN":"15鄰","STREET":"月津路","SECT":" ","MAREA":" ","LANE":" ","ALLEY":" ","HOUSE_NO":"１１號五樓之１","E_COORD97":175016.32999999999,"N_COORD97":2579458.5699999998,"ADDRESS":"月津路１１號五樓之１","OBJECTID":507241},"geometry":{"x":175016.33000000101,"y":2579458.5700000022}},{"attributes":{"ID":507269,"DIS_CODE":0,"TOWNNAME":"鹽水區","LI":"橋南里","LIN":"15鄰","STREET":"月津路","SECT":" ","MAREA":" ","LANE":" ","ALLEY":" ","HOUSE_NO":"１１號五樓之２","E_COORD97":175016.32999999999,"N_COORD97":2579458.5699999998,"ADDRESS":"月津路１１號五樓之２","OBJECTID":507242},"geometry":{"x":175016.33000000101,"y":2579458.5700000022}},{"attributes":{"ID":507270,"DIS_CODE":0,"TOWNNAME":"鹽水區","LI":"橋南里","LIN":"15鄰","STREET":"月津路","SECT":" ","MAREA":" ","LANE":" ","ALLEY":" ","HOUSE_NO":"１１號五樓之３","E_COORD97":175016.32999999999,"N_COORD97":2579458.5699999998,"ADDRESS":"月津路１１號五樓之３","OBJECTID":507243},"geometry":{"x":175016.33000000101,"y":2579458.5700000022}},{"attributes":{"ID":507271,"DIS_CODE":0,"TOWNNAME":"鹽水區","LI":"橋南里","LIN":"15鄰","STREET":"月津路","SECT":" ","MAREA":" ","LANE":" ","ALLEY":" ","HOUSE_NO":"１１號五樓之４","E_COORD97":175016.32999999999,"N_COORD97":2579458.5699999998,"ADDRESS":"月津路１１號五樓之４","OBJECTID":507244},"geometry":{"x":175016.33000000101,"y":2579458.5700000022}},{"attributes":{"ID":507272,"DIS_CODE":0,"TOWNNAME":"鹽水區","LI":"橋南里","LIN":"15鄰","STREET":"月津路","SECT":" ","MAREA":" ","LANE":" ","ALLEY":" ","HOUSE_NO":"１１號五樓之５","E_COORD97":175016.32999999999,"N_COORD97":2579458.5699999998,"ADDRESS":"月津路１１號五樓之５","OBJECTID":507245},"geometry":{"x":175016.33000000101,"y":2579458.5700000022}},{"attributes":{"ID":507273,"DIS_CODE":0,"TOWNNAME":"鹽水區","LI":"橋南里","LIN":"15鄰","STREET":"月津路","SECT":" ","MAREA":" ","LANE":" ","ALLEY":" ","HOUSE_NO":"１１號五樓之６","E_COORD97":175016.32999999999,"N_COORD97":2579458.5699999998,"ADDRESS":"月津路１１號五樓之６","OBJECTID":507246},"geometry":{"x":175016.33000000101,"y":2579458.5700000022}},{"attributes":{"ID":507274,"DIS_CODE":0,"TOWNNAME":"鹽水區","LI":"橋南里","LIN":"15鄰","STREET":"月津路","SECT":" ","MAREA":" ","LANE":" ","ALLEY":" ","HOUSE_NO":"１１號五樓之７","E_COORD97":175016.32999999999,"N_COORD97":2579458.5699999998,"ADDRESS":"月津路１１號五樓之７","OBJECTID":507247},"geometry":{"x":175016.33000000101,"y":2579458.5700000022}},{"attributes":{"ID":507275,"DIS_CODE":0,"TOWNNAME":"鹽水區","LI":"橋南里","LIN":"15鄰","STREET":"月津路","SECT":" ","MAREA":" ","LANE":" ","ALLEY":" ","HOUSE_NO":"１１號五樓之８","E_COORD97":175016.32999999999,"N_COORD97":2579458.5699999998,"ADDRESS":"月津路１１號五樓之８","OBJECTID":507248},"geometry":{"x":175016.33000000101,"y":2579458.5700000022}},{"attributes":{"ID":507276,"DIS_CODE":0,"TOWNNAME":"鹽水區","LI":"橋南里","LIN":"15鄰","STREET":"月津路","SECT":" ","MAREA":" ","LANE":" ","ALLEY":" ","HOUSE_NO":"１１號四樓之１","E_COORD97":175016.32999999999,"N_COORD97":2579458.5699999998,"ADDRESS":"月津路１１號四樓之１","OBJECTID":507249},"geometry":{"x":175016.33000000101,"y":2579458.5700000022}},{"attributes":{"ID":507277,"DIS_CODE":0,"TOWNNAME":"鹽水區","LI":"橋南里","LIN":"15鄰","STREET":"月津路","SECT":" ","MAREA":" ","LANE":" ","ALLEY":" ","HOUSE_NO":"１１號四樓之２","E_COORD97":175016.32999999999,"N_COORD97":2579458.5699999998,"ADDRESS":"月津路１１號四樓之２","OBJECTID":507250},"geometry":{"x":175016.33000000101,"y":2579458.5700000022}},{"attributes":{"ID":507278,"DIS_CODE":0,"TOWNNAME":"鹽水區","LI":"橋南里","LIN":"15鄰","STREET":"月津路","SECT":" ","MAREA":" ","LANE":" ","ALLEY":" ","HOUSE_NO":"１１號四樓之３","E_COORD97":175016.32999999999,"N_COORD97":2579458.5699999998,"ADDRESS":"月津路１１號四樓之３","OBJECTID":507251},"geometry":{"x":175016.33000000101,"y":2579458.5700000022}},{"attributes":{"ID":507279,"DIS_CODE":0,"TOWNNAME":"鹽水區","LI":"橋南里","LIN":"15鄰","STREET":"月津路","SECT":" ","MAREA":" ","LANE":" ","ALLEY":" ","HOUSE_NO":"１１號四樓之４","E_COORD97":175016.32999999999,"N_COORD97":2579458.5699999998,"ADDRESS":"月津路１１號四樓之４","OBJECTID":507252},"geometry":{"x":175016.33000000101,"y":2579458.5700000022}},{"attributes":{"ID":507280,"DIS_CODE":0,"TOWNNAME":"鹽水區","LI":"橋南里","LIN":"15鄰","STREET":"月津路","SECT":" ","MAREA":" ","LANE":" ","ALLEY":" ","HOUSE_NO":"１１號四樓之５","E_COORD97":175016.32999999999,"N_COORD97":2579458.5699999998,"ADDRESS":"月津路１１號四樓之５","OBJECTID":507253},"geometry":{"x":175016.33000000101,"y":2579458.5700000022}},{"attributes":{"ID":507281,"DIS_CODE":0,"TOWNNAME":"鹽水區","LI":"橋南里","LIN":"15鄰","STREET":"月津路","SECT":" ","MAREA":" ","LANE":" ","ALLEY":" ","HOUSE_NO":"１１號四樓之６","E_COORD97":175016.32999999999,"N_COORD97":2579458.5699999998,"ADDRESS":"月津路１１號四樓之６","OBJECTID":507254},"geometry":{"x":175016.33000000101,"y":2579458.5700000022}},{"attributes":{"ID":507282,"DIS_CODE":0,"TOWNNAME":"鹽水區","LI":"橋南里","LIN":"15鄰","STREET":"月津路","SECT":" ","MAREA":" ","LANE":" ","ALLEY":" ","HOUSE_NO":"１１號四樓之７","E_COORD97":175016.32999999999,"N_COORD97":2579458.5699999998,"ADDRESS":"月津路１１號四樓之７","OBJECTID":507255},"geometry":{"x":175016.33000000101,"y":2579458.5700000022}},{"attributes":{"ID":507283,"DIS_CODE":0,"TOWNNAME":"鹽水區","LI":"橋南里","LIN":"15鄰","STREET":"月津路","SECT":" ","MAREA":" ","LANE":" ","ALLEY":" ","HOUSE_NO":"１１號四樓之８","E_COORD97":175016.32999999999,"N_COORD97":2579458.5699999998,"ADDRESS":"月津路１１號四樓之８","OBJECTID":507256},"geometry":{"x":175016.33000000101,"y":2579458.5700000022}},{"attributes":{"ID":507284,"DIS_CODE":0,"TOWNNAME":"鹽水區","LI":"橋南里","LIN":"15鄰","STREET":"月津路","SECT":" ","MAREA":" ","LANE":" ","ALLEY":" ","HOUSE_NO":"２７號二樓","E_COORD97":174995.09,"N_COORD97":2579425.8599999999,"ADDRESS":"月津路２７號二樓","OBJECTID":507257},"geometry":{"x":174995.09000000171,"y":2579425.8599999994}},{"attributes":{"ID":507285,"DIS_CODE":0,"TOWNNAME":"鹽水區","LI":"橋南里","LIN":"15鄰","STREET":"月津路","SECT":" ","MAREA":" ","LANE":" ","ALLEY":" ","HOUSE_NO":"２７號三樓","E_COORD97":174995.09,"N_COORD97":2579425.8599999999,"ADDRESS":"月津路２７號三樓","OBJECTID":507258},"geometry":{"x":174995.09000000171,"y":2579425.8599999994}},{"attributes":{"ID":507286,"DIS_CODE":0,"TOWNNAME":"鹽水區","LI":"橋南里","LIN":"15鄰","STREET":"月津路","SECT":" ","MAREA":" ","LANE":" ","ALLEY":" ","HOUSE_NO":"２７號四樓","E_COORD97":174995.09,"N_COORD97":2579425.8599999999,"ADDRESS":"月津路２７號四樓","OBJECTID":507259},"geometry":{"x":174995.09000000171,"y":2579425.8599999994}},{"attributes":{"ID":507287,"DIS_CODE":0,"TOWNNAME":"歸仁區","LI":"歸仁里","LIN":"15鄰","STREET":"信義北路","SECT":" ","MAREA":" ","LANE":" ","ALLEY":" ","HOUSE_NO":"９２號五樓","E_COORD97":177999.87,"N_COORD97":2541037.1099999999,"ADDRESS":"信義北路９２號五樓","OBJECTID":507260},"geometry":{"x":177999.87000000011,"y":2541037.1100000013}},{"attributes":{"ID":507288,"DIS_CODE":0,"TOWNNAME":"歸仁區","LI":"歸仁里","LIN":"15鄰","STREET":"信義北路","SECT":" ","MAREA":" ","LANE":" ","ALLEY":" ","HOUSE_NO":"９２號三樓","E_COORD97":177999.87,"N_COORD97":2541037.1099999999,"ADDRESS":"信義北路９２號三樓","OBJECTID":507261},"geometry":{"x":177999.87000000011,"y":2541037.1100000013}},{"attributes":{"ID":507289,"DIS_CODE":0,"TOWNNAME":"北區","LI":"成德里","LIN":"17鄰","STREET":"文成三路","SECT":" ","MAREA":" ","LANE":" ","ALLEY":" ","HOUSE_NO":"４３號","E_COORD97":168920.45000000001,"N_COORD97":2546259.48,"ADDRESS":"文成三路４３號","OBJECTID":507262},"geometry":{"x":168920.45000000019,"y":2546259.4800000023}},{"attributes":{"ID":507290,"DIS_CODE":0,"TOWNNAME":"北區","LI":"成德里","LIN":"17鄰","STREET":"文成三路","SECT":" ","MAREA":" ","LANE":" ","ALLEY":" ","HOUSE_NO":"４５號","E_COORD97":168916.76000000001,"N_COORD97":2546261.46,"ADDRESS":"文成三路４５號","OBJECTID":507263},"geometry":{"x":168916.76000000071,"y":2546261.4600000009}},{"attributes":{"ID":507291,"DIS_CODE":0,"TOWNNAME":"北區","LI":"成德里","LIN":"17鄰","STREET":"文成三路","SECT":" ","MAREA":" ","LANE":" ","ALLEY":" ","HOUSE_NO":"４６號","E_COORD97":168935.48999999999,"N_COORD97":2546284.9700000002,"ADDRESS":"文成三路４６號","OBJECTID":507264},"geometry":{"x":168935.49000000022,"y":2546284.9700000007}},{"attributes":{"ID":507292,"DIS_CODE":0,"TOWNNAME":"歸仁區","LI":"歸仁里","LIN":"15鄰","STREET":"信義北路","SECT":" ","MAREA":" ","LANE":" ","ALLEY":" ","HOUSE_NO":"９４號四樓","E_COORD97":178002.97,"N_COORD97":2541042.1099999999,"ADDRESS":"信義北路９４號四樓","OBJECTID":507265},"geometry":{"x":178002.9700000016,"y":2541042.1099999994}},{"attributes":{"ID":507293,"DIS_CODE":0,"TOWNNAME":"歸仁區","LI":"歸仁里","LIN":"15鄰","STREET":"信義北路","SECT":" ","MAREA":" ","LANE":" ","ALLEY":" ","HOUSE_NO":"９４號二樓","E_COORD97":178002.97,"N_COORD97":2541042.1099999999,"ADDRESS":"信義北路９４號二樓","OBJECTID":507266},"geometry":{"x":178002.9700000016,"y":2541042.1099999994}},{"attributes":{"ID":507294,"DIS_CODE":0,"TOWNNAME":"歸仁區","LI":"歸仁里","LIN":"15鄰","STREET":"信義北路","SECT":" ","MAREA":" ","LANE":" ","ALLEY":" ","HOUSE_NO":"９４號三樓","E_COORD97":178002.97,"N_COORD97":2541042.1099999999,"ADDRESS":"信義北路９４號三樓","OBJECTID":507267},"geometry":{"x":178002.9700000016,"y":2541042.1099999994}},{"attributes":{"ID":507295,"DIS_CODE":0,"TOWNNAME":"歸仁區","LI":"辜厝里","LIN":"15鄰","STREET":"中正南路","SECT":"一段","MAREA":" ","LANE":" ","ALLEY":" ","HOUSE_NO":"１１０號九樓","E_COORD97":177511.14999999999,"N_COORD97":2540503.6899999999,"ADDRESS":"中正南路一段１１０號九樓","OBJECTID":507268},"geometry":{"x":177511.1500000013,"y":2540503.6900000013}},{"attributes":{"ID":507296,"DIS_CODE":0,"TOWNNAME":"歸仁區","LI":"辜厝里","LIN":"15鄰","STREET":"中正南路","SECT":"一段","MAREA":" ","LANE":" ","ALLEY":" ","HOUSE_NO":"１１０號十樓","E_COORD97":177511.14999999999,"N_COORD97":2540503.6899999999,"ADDRESS":"中正南路一段１１０號十樓","OBJECTID":507269},"geometry":{"x":177511.1500000013,"y":2540503.6900000013}},{"attributes":{"ID":507297,"DIS_CODE":0,"TOWNNAME":"北區","LI":"成德里","LIN":"18鄰","STREET":"文成二路","SECT":" ","MAREA":" ","LANE":" ","ALLEY":" ","HOUSE_NO":"１０號","E_COORD97":168807.17000000001,"N_COORD97":2546177.6800000002,"ADDRESS":"文成二路１０號","OBJECTID":507270},"geometry":{"x":168807.17000000179,"y":2546177.6799999997}},{"attributes":{"ID":507298,"DIS_CODE":0,"TOWNNAME":"北區","LI":"成德里","LIN":"18鄰","STREET":"北安路","SECT":"一段","MAREA":" ","LANE":" ","ALLEY":" ","HOUSE_NO":"１３９號","E_COORD97":168938.16,"N_COORD97":2546389.8700000001,"ADDRESS":"北安路一段１３９號","OBJECTID":507271},"geometry":{"x":168938.16000000108,"y":2546389.8700000029}},{"attributes":{"ID":507299,"DIS_CODE":0,"TOWNNAME":"北區","LI":"成德里","LIN":"18鄰","STREET":"北安路","SECT":"一段","MAREA":" ","LANE":" ","ALLEY":" ","HOUSE_NO":"１４１號","E_COORD97":168933.32999999999,"N_COORD97":2546393.5899999999,"ADDRESS":"北安路一段１４１號","OBJECTID":507272},"geometry":{"x":168933.33000000194,"y":2546393.5900000036}},{"attributes":{"ID":507300,"DIS_CODE":0,"TOWNNAME":"北區","LI":"成德里","LIN":"18鄰","STREET":"北安路","SECT":"一段","MAREA":" ","LANE":" ","ALLEY":" ","HOUSE_NO":"１４３號","E_COORD97":168929.60000000001,"N_COORD97":2546396,"ADDRESS":"北安路一段１４３號","OBJECTID":507273},"geometry":{"x":168929.60000000056,"y":2546396}},{"attributes":{"ID":507301,"DIS_CODE":0,"TOWNNAME":"北區","LI":"成德里","LIN":"18鄰","STREET":"北安路","SECT":"一段","MAREA":" ","LANE":" ","ALLEY":" ","HOUSE_NO":"１４５號","E_COORD97":168925.88,"N_COORD97":2546398.6099999999,"ADDRESS":"北安路一段１４５號","OBJECTID":507274},"geometry":{"x":168925.87999999896,"y":2546398.6099999994}},{"attributes":{"ID":507302,"DIS_CODE":0,"TOWNNAME":"北區","LI":"成德里","LIN":"18鄰","STREET":"育北街","SECT":" ","MAREA":" ","LANE":" ","ALLEY":" ","HOUSE_NO":"１８號","E_COORD97":168814.29999999999,"N_COORD97":2546191.3700000001,"ADDRESS":"育北街１８號","OBJECTID":507275},"geometry":{"x":168814.29999999981,"y":2546191.370000001}},{"attributes":{"ID":507303,"DIS_CODE":0,"TOWNNAME":"北區","LI":"成德里","LIN":"18鄰","STREET":"育北街","SECT":" ","MAREA":" ","LANE":" ","ALLEY":" ","HOUSE_NO":"２０號","E_COORD97":168816.37,"N_COORD97":2546196.5299999998,"ADDRESS":"育北街２０號","OBJECTID":507276},"geometry":{"x":168816.37000000104,"y":2546196.5300000031}},{"attributes":{"ID":507304,"DIS_CODE":0,"TOWNNAME":"北區","LI":"成德里","LIN":"18鄰","STREET":"育北街","SECT":" ","MAREA":" ","LANE":" ","ALLEY":" ","HOUSE_NO":"２２號","E_COORD97":168818.23000000001,"N_COORD97":2546200.8599999999,"ADDRESS":"育北街２２號","OBJECTID":507277},"geometry":{"x":168818.23000000138,"y":2546200.8599999994}},{"attributes":{"ID":507305,"DIS_CODE":0,"TOWNNAME":"北區","LI":"成德里","LIN":"18鄰","STREET":"育北街","SECT":" ","MAREA":" ","LANE":" ","ALLEY":" ","HOUSE_NO":"２６號","E_COORD97":168819.67000000001,"N_COORD97":2546205.6099999999,"ADDRESS":"育北街２６號","OBJECTID":507278},"geometry":{"x":168819.67000000086,"y":2546205.6099999994}},{"attributes":{"ID":507306,"DIS_CODE":0,"TOWNNAME":"北區","LI":"成德里","LIN":"17鄰","STREET":"西門路","SECT":"四段","MAREA":" ","LANE":" ","ALLEY":" ","HOUSE_NO":"３４５號","E_COORD97":169006.97,"N_COORD97":2546195.2200000002,"ADDRESS":"西門路四段３４５號","OBJECTID":507279},"geometry":{"x":169006.97000000067,"y":2546195.2200000007}},{"attributes":{"ID":507307,"DIS_CODE":0,"TOWNNAME":"北區","LI":"成德里","LIN":"17鄰","STREET":"西門路","SECT":"四段","MAREA":" ","LANE":" ","ALLEY":" ","HOUSE_NO":"３４７號","E_COORD97":169014.73999999999,"N_COORD97":2546201.6699999999,"ADDRESS":"西門路四段３４７號","OBJECTID":507280},"geometry":{"x":169014.74000000022,"y":2546201.6699999999}},{"attributes":{"ID":507308,"DIS_CODE":0,"TOWNNAME":"北區","LI":"成德里","LIN":"17鄰","STREET":"西門路","SECT":"四段","MAREA":" ","LANE":" ","ALLEY":" ","HOUSE_NO":"３４９號","E_COORD97":169007.89000000001,"N_COORD97":2546206.0099999998,"ADDRESS":"西門路四段３４９號","OBJECTID":507281},"geometry":{"x":169007.8900000006,"y":2546206.0099999998}},{"attributes":{"ID":507309,"DIS_CODE":0,"TOWNNAME":"歸仁區","LI":"辜厝里","LIN":"15鄰","STREET":"中正南路","SECT":"一段","MAREA":" ","LANE":" ","ALLEY":" ","HOUSE_NO":"１１０號十一樓之１","E_COORD97":177511.82999999999,"N_COORD97":2540503.7000000002,"ADDRESS":"中正南路一段１１０號十一樓之１","OBJECTID":507282},"geometry":{"x":177511.83000000007,"y":2540503.7000000011}},{"attributes":{"ID":507310,"DIS_CODE":0,"TOWNNAME":"歸仁區","LI":"辜厝里","LIN":"15鄰","STREET":"中正南路","SECT":"一段","MAREA":" ","LANE":" ","ALLEY":" ","HOUSE_NO":"１１０號七樓","E_COORD97":177511.14999999999,"N_COORD97":2540503.6899999999,"ADDRESS":"中正南路一段１１０號七樓","OBJECTID":507283},"geometry":{"x":177511.1500000013,"y":2540503.6900000013}},{"attributes":{"ID":507311,"DIS_CODE":0,"TOWNNAME":"北區","LI":"成德里","LIN":"18鄰","STREET":"育賢街","SECT":" ","MAREA":" ","LANE":" ","ALLEY":" ","HOUSE_NO":"２７５號","E_COORD97":168854.45000000001,"N_COORD97":2546221.0899999999,"ADDRESS":"育賢街２７５號","OBJECTID":507284},"geometry":{"x":168854.45000000019,"y":2546221.0900000017}},{"attributes":{"ID":507312,"DIS_CODE":0,"TOWNNAME":"北區","LI":"成德里","LIN":"18鄰","STREET":"育賢街","SECT":" ","MAREA":" ","LANE":" ","ALLEY":" ","HOUSE_NO":"２７７號","E_COORD97":168856.88,"N_COORD97":2546225.1200000001,"ADDRESS":"育賢街２７７號","OBJECTID":507285},"geometry":{"x":168856.88000000082,"y":2546225.1200000048}},{"attributes":{"ID":507313,"DIS_CODE":0,"TOWNNAME":"北區","LI":"成德里","LIN":"18鄰","STREET":"育賢街","SECT":" ","MAREA":" ","LANE":" ","ALLEY":" ","HOUSE_NO":"２７９號","E_COORD97":168858.81,"N_COORD97":2546229.46,"ADDRESS":"育賢街２７９號","OBJECTID":507286},"geometry":{"x":168858.81000000052,"y":2546229.4600000046}},{"attributes":{"ID":507314,"DIS_CODE":0,"TOWNNAME":"北區","LI":"成德里","LIN":"18鄰","STREET":"育賢街","SECT":" ","MAREA":" ","LANE":" ","ALLEY":" ","HOUSE_NO":"２８１號","E_COORD97":168861.5,"N_COORD97":2546233.3999999999,"ADDRESS":"育賢街２８１號","OBJECTID":507287},"geometry":{"x":168861.50000000093,"y":2546233.4000000022}},{"attributes":{"ID":507315,"DIS_CODE":0,"TOWNNAME":"北區","LI":"成德里","LIN":"18鄰","STREET":"育賢街","SECT":" ","MAREA":" ","LANE":" ","ALLEY":" ","HOUSE_NO":"２８３號","E_COORD97":168863.35999999999,"N_COORD97":2546236.7400000002,"ADDRESS":"育賢街２８３號","OBJECTID":507288},"geometry":{"x":168863.36000000034,"y":2546236.7400000039}},{"attributes":{"ID":507316,"DIS_CODE":0,"TOWNNAME":"北區","LI":"成德里","LIN":"18鄰","STREET":"育賢街","SECT":" ","MAREA":" ","LANE":" ","ALLEY":" ","HOUSE_NO":"２８５號","E_COORD97":168864.66,"N_COORD97":2546240.46,"ADDRESS":"育賢街２８５號","OBJECTID":507289},"geometry":{"x":168864.66000000015,"y":2546240.4600000028}},{"attributes":{"ID":507317,"DIS_CODE":0,"TOWNNAME":"北區","LI":"成德里","LIN":"18鄰","STREET":"育賢街","SECT":" ","MAREA":" ","LANE":" ","ALLEY":" ","HOUSE_NO":"２８７號","E_COORD97":168867.07999999999,"N_COORD97":2546243.9900000002,"ADDRESS":"育賢街２８７號","OBJECTID":507290},"geometry":{"x":168867.07999999914,"y":2546243.9900000002}},{"attributes":{"ID":507318,"DIS_CODE":0,"TOWNNAME":"北區","LI":"成德里","LIN":"18鄰","STREET":"育賢街","SECT":" ","MAREA":" ","LANE":" ","ALLEY":" ","HOUSE_NO":"２８９號","E_COORD97":168868.20000000001,"N_COORD97":2546246.9700000002,"ADDRESS":"育賢街２８９號","OBJECTID":507291},"geometry":{"x":168868.20000000205,"y":2546246.9700000025}},{"attributes":{"ID":507319,"DIS_CODE":0,"TOWNNAME":"北區","LI":"成德里","LIN":"18鄰","STREET":"育賢街","SECT":" ","MAREA":" ","LANE":" ","ALLEY":" ","HOUSE_NO":"２９１號","E_COORD97":168858.70999999999,"N_COORD97":2546251.9900000002,"ADDRESS":"育賢街２９１號","OBJECTID":507292},"geometry":{"x":168858.70999999996,"y":2546251.9900000039}},{"attributes":{"ID":507320,"DIS_CODE":0,"TOWNNAME":"北區","LI":"成德里","LIN":"18鄰","STREET":"育賢街","SECT":" ","MAREA":" ","LANE":" ","ALLEY":" ","HOUSE_NO":"３０１號","E_COORD97":168872.29000000001,"N_COORD97":2546266.8599999999,"ADDRESS":"育賢街３０１號","OBJECTID":507293},"geometry":{"x":168872.29000000004,"y":2546266.8600000013}},{"attributes":{"ID":507321,"DIS_CODE":0,"TOWNNAME":"北區","LI":"成德里","LIN":"18鄰","STREET":"育賢街","SECT":" ","MAREA":" ","LANE":" ","ALLEY":" ","HOUSE_NO":"３０３號","E_COORD97":168875.45999999999,"N_COORD97":2546271.7000000002,"ADDRESS":"育賢街３０３號","OBJECTID":507294},"geometry":{"x":168875.46000000089,"y":2546271.6999999993}},{"attributes":{"ID":507322,"DIS_CODE":0,"TOWNNAME":"北區","LI":"成德里","LIN":"18鄰","STREET":"育賢街","SECT":" ","MAREA":" ","LANE":" ","ALLEY":" ","HOUSE_NO":"３０５號","E_COORD97":168877.69,"N_COORD97":2546275.4100000001,"ADDRESS":"育賢街３０５號","OBJECTID":507295},"geometry":{"x":168877.69000000134,"y":2546275.4100000001}},{"attributes":{"ID":507323,"DIS_CODE":0,"TOWNNAME":"北區","LI":"成德里","LIN":"18鄰","STREET":"育賢街","SECT":" ","MAREA":" ","LANE":" ","ALLEY":" ","HOUSE_NO":"３０７號","E_COORD97":168879.35999999999,"N_COORD97":2546279.3199999998,"ADDRESS":"育賢街３０７號","OBJECTID":507296},"geometry":{"x":168879.36000000127,"y":2546279.3200000003}},{"attributes":{"ID":507324,"DIS_CODE":0,"TOWNNAME":"北區","LI":"成德里","LIN":"18鄰","STREET":"育賢街","SECT":" ","MAREA":" ","LANE":" ","ALLEY":" ","HOUSE_NO":"３０９號","E_COORD97":168882.34,"N_COORD97":2546285.2599999998,"ADDRESS":"育賢街３０９號","OBJECTID":507297},"geometry":{"x":168882.34000000078,"y":2546285.2600000016}},{"attributes":{"ID":507325,"DIS_CODE":0,"TOWNNAME":"北區","LI":"成德里","LIN":"18鄰","STREET":"育賢街","SECT":" ","MAREA":" ","LANE":" ","ALLEY":" ","HOUSE_NO":"３１３號","E_COORD97":168892.39000000001,"N_COORD97":2546306.5099999998,"ADDRESS":"育賢街３１３號","OBJECTID":507298},"geometry":{"x":168892.3900000006,"y":2546306.5100000016}},{"attributes":{"ID":507326,"DIS_CODE":0,"TOWNNAME":"安南區","LI":"安東里","LIN":"15鄰","STREET":"安和路","SECT":"一段","MAREA":" ","LANE":" ","ALLEY":" ","HOUSE_NO":"１９８號","E_COORD97":169376.60999999999,"N_COORD97":2547871.02,"ADDRESS":"安和路一段１９８號","OBJECTID":507299},"geometry":{"x":169376.61000000127,"y":2547871.0199999996}},{"attributes":{"ID":507327,"DIS_CODE":0,"TOWNNAME":"中西區","LI":"三合里","LIN":"15鄰","STREET":"文賢路","SECT":" ","MAREA":" ","LANE":" ","ALLEY":" ","HOUSE_NO":"９２號","E_COORD97":167431.92999999999,"N_COORD97":2544642.54,"ADDRESS":"文賢路９２號","OBJECTID":507300},"geometry":{"x":167431.93000000156,"y":2544642.5399999991}},{"attributes":{"ID":507328,"DIS_CODE":0,"TOWNNAME":"中西區","LI":"三合里","LIN":"15鄰","STREET":"信義街","SECT":" ","MAREA":" ","LANE":" ","ALLEY":" ","HOUSE_NO":"１１４號","E_COORD97":167446.88,"N_COORD97":2544584.8100000001,"ADDRESS":"信義街１１４號","OBJECTID":507301},"geometry":{"x":167446.88000000082,"y":2544584.8100000005}},{"attributes":{"ID":507329,"DIS_CODE":0,"TOWNNAME":"中西區","LI":"三合里","LIN":"15鄰","STREET":"信義街","SECT":" ","MAREA":" ","LANE":" ","ALLEY":" ","HOUSE_NO":"１２０號","E_COORD97":167430.53,"N_COORD97":2544594.2400000002,"ADDRESS":"信義街１２０號","OBJECTID":507302},"geometry":{"x":167430.53000000119,"y":2544594.2400000002}},{"attributes":{"ID":507330,"DIS_CODE":0,"TOWNNAME":"東區","LI":"崇文里","LIN":"15鄰","STREET":"崇德十九街","SECT":" ","MAREA":" ","LANE":" ","ALLEY":" ","HOUSE_NO":"１０號","E_COORD97":170862.63,"N_COORD97":2540965.8999999999,"ADDRESS":"崇德十九街１０號","OBJECTID":507303},"geometry":{"x":170862.63000000082,"y":2540965.9000000004}},{"attributes":{"ID":507331,"DIS_CODE":0,"TOWNNAME":"東區","LI":"崇文里","LIN":"15鄰","STREET":"崇德十九街","SECT":" ","MAREA":" ","LANE":" ","ALLEY":" ","HOUSE_NO":"４０號","E_COORD97":170915.76000000001,"N_COORD97":2540955.6600000001,"ADDRESS":"崇德十九街４０號","OBJECTID":507304},"geometry":{"x":170915.76000000071,"y":2540955.660000002}},{"attributes":{"ID":507332,"DIS_CODE":0,"TOWNNAME":"東區","LI":"崇文里","LIN":"15鄰","STREET":"崇德十九街","SECT":" ","MAREA":" ","LANE":" ","ALLEY":" ","HOUSE_NO":"１２號","E_COORD97":170867.60999999999,"N_COORD97":2540965.8999999999,"ADDRESS":"崇德十九街１２號","OBJECTID":507305},"geometry":{"x":170867.6100000022,"y":2540965.9000000004}},{"attributes":{"ID":507333,"DIS_CODE":0,"TOWNNAME":"東區","LI":"崇文里","LIN":"15鄰","STREET":"崇德十九街","SECT":" ","MAREA":" ","LANE":" ","ALLEY":" ","HOUSE_NO":"１４號","E_COORD97":170872.17999999999,"N_COORD97":2540966,"ADDRESS":"崇德十九街１４號","OBJECTID":507306},"geometry":{"x":170872.18000000063,"y":2540966.0000000037}},{"attributes":{"ID":507334,"DIS_CODE":0,"TOWNNAME":"東區","LI":"崇文里","LIN":"15鄰","STREET":"崇德十九街","SECT":" ","MAREA":" ","LANE":" ","ALLEY":" ","HOUSE_NO":"１６號","E_COORD97":170861.53,"N_COORD97":2540948.7000000002,"ADDRESS":"崇德十九街１６號","OBJECTID":507307},"geometry":{"x":170861.53000000119,"y":2540948.7000000011}},{"attributes":{"ID":507335,"DIS_CODE":0,"TOWNNAME":"東區","LI":"崇文里","LIN":"15鄰","STREET":"崇德十九街","SECT":" ","MAREA":" ","LANE":" ","ALLEY":" ","HOUSE_NO":"１８號","E_COORD97":170870.98999999999,"N_COORD97":2540948.6000000001,"ADDRESS":"崇德十九街１８號","OBJECTID":507308},"geometry":{"x":170870.99000000022,"y":2540948.6000000015}},{"attributes":{"ID":507336,"DIS_CODE":0,"TOWNNAME":"東區","LI":"崇文里","LIN":"15鄰","STREET":"崇德十九街","SECT":" ","MAREA":" ","LANE":" ","ALLEY":" ","HOUSE_NO":"２０號","E_COORD97":170882.64000000001,"N_COORD97":2540948.7999999998,"ADDRESS":"崇德十九街２０號","OBJECTID":507309},"geometry":{"x":170882.6400000006,"y":2540948.8000000026}},{"attributes":{"ID":507337,"DIS_CODE":0,"TOWNNAME":"東區","LI":"崇成里","LIN":"15鄰","STREET":"崇明路","SECT":" ","MAREA":" ","LANE":" ","ALLEY":" ","HOUSE_NO":"５１１號","E_COORD97":170622.54999999999,"N_COORD97":2541386.3300000001,"ADDRESS":"崇明路５１１號","OBJECTID":507310},"geometry":{"x":170622.54999999981,"y":2541386.3300000001}},{"attributes":{"ID":507338,"DIS_CODE":0,"TOWNNAME":"東區","LI":"崇成里","LIN":"15鄰","STREET":"崇明路","SECT":" ","MAREA":" ","LANE":" ","ALLEY":" ","HOUSE_NO":"５２７號","E_COORD97":170624.13,"N_COORD97":2541366.8799999999,"ADDRESS":"崇明路５２７號","OBJECTID":507311},"geometry":{"x":170624.12999999989,"y":2541366.8800000008}},{"attributes":{"ID":507339,"DIS_CODE":0,"TOWNNAME":"東區","LI":"崇成里","LIN":"15鄰","STREET":"崇明路","SECT":" ","MAREA":" ","LANE":" ","ALLEY":" ","HOUSE_NO":"５４３號","E_COORD97":170616.79000000001,"N_COORD97":2541318.0800000001,"ADDRESS":"崇明路５４３號","OBJECTID":507312},"geometry":{"x":170616.7900000019,"y":2541318.0799999982}},{"attributes":{"ID":507340,"DIS_CODE":0,"TOWNNAME":"東區","LI":"崇成里","LIN":"15鄰","STREET":"崇明路","SECT":" ","MAREA":" ","LANE":" ","ALLEY":" ","HOUSE_NO":"５５１號","E_COORD97":170619.95999999999,"N_COORD97":2541311.9100000001,"ADDRESS":"崇明路５５１號","OBJECTID":507313},"geometry":{"x":170619.95999999996,"y":2541311.9100000001}},{"attributes":{"ID":507341,"DIS_CODE":0,"TOWNNAME":"東區","LI":"崇成里","LIN":"15鄰","STREET":"崇明路","SECT":" ","MAREA":" ","LANE":" ","ALLEY":" ","HOUSE_NO":"５５３號","E_COORD97":170620.12,"N_COORD97":2541305.25,"ADDRESS":"崇明路５５３號","OBJECTID":507314},"geometry":{"x":170620.12000000104,"y":2541305.25}},{"attributes":{"ID":507342,"DIS_CODE":0,"TOWNNAME":"佳里區","LI":"安西里","LIN":"15鄰","STREET":"和平街","SECT":" ","MAREA":" ","LANE":" ","ALLEY":" ","HOUSE_NO":"３０３號","E_COORD97":165179.26000000001,"N_COORD97":2562460.7000000002,"ADDRESS":"和平街３０３號","OBJECTID":507315},"geometry":{"x":165179.26000000071,"y":2562460.6999999993}},{"attributes":{"ID":507343,"DIS_CODE":0,"TOWNNAME":"東區","LI":"崇成里","LIN":"15鄰","STREET":"崇明路","SECT":" ","MAREA":" ","LANE":" ","ALLEY":" ","HOUSE_NO":"５５５號","E_COORD97":170621.45999999999,"N_COORD97":2541291.2200000002,"ADDRESS":"崇明路５５５號","OBJECTID":507316},"geometry":{"x":170621.46000000089,"y":2541291.2200000025}},{"attributes":{"ID":507344,"DIS_CODE":0,"TOWNNAME":"東區","LI":"崇成里","LIN":"15鄰","STREET":"崇明路","SECT":" ","MAREA":" ","LANE":" ","ALLEY":" ","HOUSE_NO":"５５７號","E_COORD97":170621.32000000001,"N_COORD97":2541287.3100000001,"ADDRESS":"崇明路５５７號","OBJECTID":507317},"geometry":{"x":170621.3200000003,"y":2541287.3100000024}},{"attributes":{"ID":507345,"DIS_CODE":0,"TOWNNAME":"東區","LI":"崇成里","LIN":"15鄰","STREET":"崇明路","SECT":" ","MAREA":" ","LANE":" ","ALLEY":" ","HOUSE_NO":"５５９號","E_COORD97":170620.89999999999,"N_COORD97":2541282.4100000001,"ADDRESS":"崇明路５５９號","OBJECTID":507318},"geometry":{"x":170620.90000000037,"y":2541282.4100000039}},{"attributes":{"ID":507346,"DIS_CODE":0,"TOWNNAME":"佳里區","LI":"安西里","LIN":"15鄰","STREET":"和平街","SECT":" ","MAREA":" ","LANE":" ","ALLEY":" ","HOUSE_NO":"２１２號","E_COORD97":165413.89999999999,"N_COORD97":2562483.7200000002,"ADDRESS":"和平街２１２號","OBJECTID":507319},"geometry":{"x":165413.90000000224,"y":2562483.7200000007}},{"attributes":{"ID":507347,"DIS_CODE":0,"TOWNNAME":"佳里區","LI":"安西里","LIN":"15鄰","STREET":"和平街","SECT":" ","MAREA":" ","LANE":" ","ALLEY":" ","HOUSE_NO":"２１８號","E_COORD97":165389.87,"N_COORD97":2562502.0600000001,"ADDRESS":"和平街２１８號","OBJECTID":507320},"geometry":{"x":165389.87000000011,"y":2562502.0600000042}},{"attributes":{"ID":507348,"DIS_CODE":0,"TOWNNAME":"佳里區","LI":"安西里","LIN":"15鄰","STREET":"和平街","SECT":" ","MAREA":" ","LANE":" ","ALLEY":" ","HOUSE_NO":"２５８號之３","E_COORD97":165347.23999999999,"N_COORD97":2562514.21,"ADDRESS":"和平街２５８號之３","OBJECTID":507321},"geometry":{"x":165347.24000000115,"y":2562514.2100000009}},{"attributes":{"ID":507349,"DIS_CODE":0,"TOWNNAME":"佳里區","LI":"安西里","LIN":"15鄰","STREET":"和平街","SECT":" ","MAREA":" ","LANE":" ","ALLEY":" ","HOUSE_NO":"２５８號之５","E_COORD97":165347.56,"N_COORD97":2562518.8500000001,"ADDRESS":"和平街２５８號之５","OBJECTID":507322},"geometry":{"x":165347.56000000145,"y":2562518.8499999996}},{"attributes":{"ID":507350,"DIS_CODE":0,"TOWNNAME":"佳里區","LI":"安西里","LIN":"15鄰","STREET":"和平街","SECT":" ","MAREA":" ","LANE":" ","ALLEY":" ","HOUSE_NO":"２５８號之６","E_COORD97":165325.54999999999,"N_COORD97":2562519.0600000001,"ADDRESS":"和平街２５８號之６","OBJECTID":507323},"geometry":{"x":165325.54999999981,"y":2562519.0600000042}},{"attributes":{"ID":507351,"DIS_CODE":0,"TOWNNAME":"佳里區","LI":"安西里","LIN":"15鄰","STREET":"和平街","SECT":" ","MAREA":" ","LANE":" ","ALLEY":" ","HOUSE_NO":"２５８號之７","E_COORD97":165325.38,"N_COORD97":2562514.5299999998,"ADDRESS":"和平街２５８號之７","OBJECTID":507324},"geometry":{"x":165325.38000000175,"y":2562514.5300000031}},{"attributes":{"ID":507352,"DIS_CODE":0,"TOWNNAME":"佳里區","LI":"安西里","LIN":"15鄰","STREET":"和平街","SECT":" ","MAREA":" ","LANE":" ","ALLEY":" ","HOUSE_NO":"２５８號之８","E_COORD97":165325.53,"N_COORD97":2562509.79,"ADDRESS":"和平街２５８號之８","OBJECTID":507325},"geometry":{"x":165325.53000000119,"y":2562509.790000001}},{"attributes":{"ID":507353,"DIS_CODE":0,"TOWNNAME":"佳里區","LI":"安西里","LIN":"15鄰","STREET":"和平街","SECT":" ","MAREA":" ","LANE":" ","ALLEY":" ","HOUSE_NO":"２５８號之９","E_COORD97":165325.17000000001,"N_COORD97":2562505.1099999999,"ADDRESS":"和平街２５８號之９","OBJECTID":507326},"geometry":{"x":165325.17000000179,"y":2562505.1100000013}},{"attributes":{"ID":507354,"DIS_CODE":0,"TOWNNAME":"佳里區","LI":"安西里","LIN":"15鄰","STREET":"和平街","SECT":" ","MAREA":" ","LANE":" ","ALLEY":" ","HOUSE_NO":"２５８號","E_COORD97":165344.98000000001,"N_COORD97":2562490.3700000001,"ADDRESS":"和平街２５８號","OBJECTID":507327},"geometry":{"x":165344.98000000045,"y":2562490.3700000048}},{"attributes":{"ID":507355,"DIS_CODE":0,"TOWNNAME":"佳里區","LI":"安西里","LIN":"15鄰","STREET":"和平街","SECT":" ","MAREA":" ","LANE":" ","ALLEY":" ","HOUSE_NO":"２６０號","E_COORD97":165333.72,"N_COORD97":2562490.5899999999,"ADDRESS":"和平街２６０號","OBJECTID":507328},"geometry":{"x":165333.72000000067,"y":2562490.5899999999}},{"attributes":{"ID":507356,"DIS_CODE":0,"TOWNNAME":"佳里區","LI":"安西里","LIN":"15鄰","STREET":"和平街","SECT":" ","MAREA":" ","LANE":" ","ALLEY":" ","HOUSE_NO":"２６２號","E_COORD97":165328.87,"N_COORD97":2562490.3399999999,"ADDRESS":"和平街２６２號","OBJECTID":507329},"geometry":{"x":165328.87000000011,"y":2562490.3400000017}},{"attributes":{"ID":507357,"DIS_CODE":0,"TOWNNAME":"佳里區","LI":"安西里","LIN":"15鄰","STREET":"和平街","SECT":" ","MAREA":" ","LANE":" ","ALLEY":" ","HOUSE_NO":"２６６號","E_COORD97":165324.66,"N_COORD97":2562490.2400000002,"ADDRESS":"和平街２６６號","OBJECTID":507330},"geometry":{"x":165324.66000000015,"y":2562490.2400000039}},{"attributes":{"ID":507358,"DIS_CODE":0,"TOWNNAME":"佳里區","LI":"安西里","LIN":"15鄰","STREET":"和平街","SECT":" ","MAREA":" ","LANE":" ","ALLEY":" ","HOUSE_NO":"２８４號","E_COORD97":165246.10999999999,"N_COORD97":2562492.6099999999,"ADDRESS":"和平街２８４號","OBJECTID":507331},"geometry":{"x":165246.11000000034,"y":2562492.6099999994}},{"attributes":{"ID":507359,"DIS_CODE":0,"TOWNNAME":"中西區","LI":"安海里","LIN":"15鄰","STREET":"民生路","SECT":"二段","MAREA":" ","LANE":" ","ALLEY":" ","HOUSE_NO":"２４３號","E_COORD97":167280.81,"N_COORD97":2544097.5,"ADDRESS":"民生路二段２４３號","OBJECTID":507332},"geometry":{"x":167280.81000000052,"y":2544097.5}},{"attributes":{"ID":507360,"DIS_CODE":0,"TOWNNAME":"中西區","LI":"安海里","LIN":"15鄰","STREET":"民生路","SECT":"二段","MAREA":" ","LANE":" ","ALLEY":" ","HOUSE_NO":"２４５號","E_COORD97":167277.06,"N_COORD97":2544098.6899999999,"ADDRESS":"民生路二段２４５號","OBJECTID":507333},"geometry":{"x":167277.06000000052,"y":2544098.6900000013}},{"attributes":{"ID":507361,"DIS_CODE":0,"TOWNNAME":"中西區","LI":"安海里","LIN":"15鄰","STREET":"民生路","SECT":"二段","MAREA":" ","LANE":" ","ALLEY":" ","HOUSE_NO":"２４７號","E_COORD97":167273.70999999999,"N_COORD97":2544099.8700000001,"ADDRESS":"民生路二段２４７號","OBJECTID":507334},"geometry":{"x":167273.70999999996,"y":2544099.870000001}},{"attributes":{"ID":507362,"DIS_CODE":0,"TOWNNAME":"中西區","LI":"安海里","LIN":"15鄰","STREET":"民生路","SECT":"二段","MAREA":" ","LANE":" ","ALLEY":" ","HOUSE_NO":"２４９號","E_COORD97":167270.75,"N_COORD97":2544101.0499999998,"ADDRESS":"民生路二段２４９號","OBJECTID":507335},"geometry":{"x":167270.75000000186,"y":2544101.0500000007}},{"attributes":{"ID":507363,"DIS_CODE":0,"TOWNNAME":"中西區","LI":"安海里","LIN":"15鄰","STREET":"民生路","SECT":"二段","MAREA":" ","LANE":" ","ALLEY":" ","HOUSE_NO":"２５１號","E_COORD97":167267.39000000001,"N_COORD97":2544102.23,"ADDRESS":"民生路二段２５１號","OBJECTID":507336},"geometry":{"x":167267.38999999966,"y":2544102.2300000023}},{"attributes":{"ID":507364,"DIS_CODE":0,"TOWNNAME":"中西區","LI":"安海里","LIN":"15鄰","STREET":"民生路","SECT":"二段","MAREA":" ","LANE":" ","ALLEY":" ","HOUSE_NO":"２５３號","E_COORD97":167263.84,"N_COORD97":2544103.2200000002,"ADDRESS":"民生路二段２５３號","OBJECTID":507337},"geometry":{"x":167263.84000000078,"y":2544103.2200000007}},{"attributes":{"ID":507365,"DIS_CODE":0,"TOWNNAME":"中西區","LI":"安海里","LIN":"15鄰","STREET":"民生路","SECT":"二段","MAREA":" ","LANE":" ","ALLEY":" ","HOUSE_NO":"２５５號","E_COORD97":167259.5,"N_COORD97":2544104.0099999998,"ADDRESS":"民生路二段２５５號","OBJECTID":507338},"geometry":{"x":167259.50000000093,"y":2544104.0099999998}},{"attributes":{"ID":507366,"DIS_CODE":0,"TOWNNAME":"中西區","LI":"大涼里","LIN":"15鄰","STREET":"府前一街","SECT":" ","MAREA":" ","LANE":" ","ALLEY":" ","HOUSE_NO":"１１號","E_COORD97":166815.95000000001,"N_COORD97":2543739.2799999998,"ADDRESS":"府前一街１１號","OBJECTID":507339},"geometry":{"x":166815.95000000112,"y":2543739.2799999993}},{"attributes":{"ID":507367,"DIS_CODE":0,"TOWNNAME":"中西區","LI":"大涼里","LIN":"15鄰","STREET":"府前一街","SECT":" ","MAREA":" ","LANE":" ","ALLEY":" ","HOUSE_NO":"１３號","E_COORD97":166811.53,"N_COORD97":2543747.48,"ADDRESS":"府前一街１３號","OBJECTID":507340},"geometry":{"x":166811.53000000212,"y":2543747.4800000023}},{"attributes":{"ID":507368,"DIS_CODE":0,"TOWNNAME":"中西區","LI":"大涼里","LIN":"15鄰","STREET":"府前一街","SECT":" ","MAREA":" ","LANE":" ","ALLEY":" ","HOUSE_NO":"３５號","E_COORD97":166783.56,"N_COORD97":2543784.1499999999,"ADDRESS":"府前一街３５號","OBJECTID":507341},"geometry":{"x":166783.56000000052,"y":2543784.1500000022}},{"attributes":{"ID":507369,"DIS_CODE":0,"TOWNNAME":"中西區","LI":"大涼里","LIN":"15鄰","STREET":"府前一街","SECT":" ","MAREA":" ","LANE":" ","ALLEY":" ","HOUSE_NO":"３７號","E_COORD97":166782.62,"N_COORD97":2543788.5099999998,"ADDRESS":"府前一街３７號","OBJECTID":507342},"geometry":{"x":166782.62000000104,"y":2543788.5099999998}},{"attributes":{"ID":507370,"DIS_CODE":0,"TOWNNAME":"中西區","LI":"大涼里","LIN":"15鄰","STREET":"府前一街","SECT":" ","MAREA":" ","LANE":" ","ALLEY":" ","HOUSE_NO":"３９號","E_COORD97":166780.51000000001,"N_COORD97":2543792.1400000001,"ADDRESS":"府前一街３９號","OBJECTID":507343},"geometry":{"x":166780.51000000164,"y":2543792.1400000006}},{"attributes":{"ID":507371,"DIS_CODE":0,"TOWNNAME":"中西區","LI":"大涼里","LIN":"15鄰","STREET":"府前一街","SECT":" ","MAREA":" ","LANE":" ","ALLEY":" ","HOUSE_NO":"４１號","E_COORD97":166781.16,"N_COORD97":2543797.1200000001,"ADDRESS":"府前一街４１號","OBJECTID":507344},"geometry":{"x":166781.16000000015,"y":2543797.1199999992}},{"attributes":{"ID":507372,"DIS_CODE":0,"TOWNNAME":"中西區","LI":"大涼里","LIN":"15鄰","STREET":"府前一街","SECT":" ","MAREA":" ","LANE":" ","ALLEY":" ","HOUSE_NO":"４３號","E_COORD97":166780.87,"N_COORD97":2543801.4100000001,"ADDRESS":"府前一街４３號","OBJECTID":507345},"geometry":{"x":166780.87000000104,"y":2543801.4100000039}},{"attributes":{"ID":507373,"DIS_CODE":0,"TOWNNAME":"中西區","LI":"大涼里","LIN":"15鄰","STREET":"府前一街","SECT":" ","MAREA":" ","LANE":" ","ALLEY":" ","HOUSE_NO":"４５號","E_COORD97":166779.26999999999,"N_COORD97":2543806.2799999998,"ADDRESS":"府前一街４５號","OBJECTID":507346},"geometry":{"x":166779.27000000048,"y":2543806.2800000012}},{"attributes":{"ID":507374,"DIS_CODE":0,"TOWNNAME":"中西區","LI":"大涼里","LIN":"15鄰","STREET":"府前一街","SECT":" ","MAREA":" ","LANE":" ","ALLEY":" ","HOUSE_NO":"４７號","E_COORD97":166778.69,"N_COORD97":2543810.6699999999,"ADDRESS":"府前一街４７號","OBJECTID":507347},"geometry":{"x":166778.69000000134,"y":2543810.6700000018}},{"attributes":{"ID":507375,"DIS_CODE":0,"TOWNNAME":"中西區","LI":"大涼里","LIN":"15鄰","STREET":"府前一街","SECT":" ","MAREA":" ","LANE":" ","ALLEY":" ","HOUSE_NO":"４９號","E_COORD97":166776.5,"N_COORD97":2543815.7599999998,"ADDRESS":"府前一街４９號","OBJECTID":507348},"geometry":{"x":166776.50000000093,"y":2543815.7600000016}},{"attributes":{"ID":507376,"DIS_CODE":0,"TOWNNAME":"中西區","LI":"大涼里","LIN":"15鄰","STREET":"府前一街","SECT":" ","MAREA":" ","LANE":" ","ALLEY":" ","HOUSE_NO":"５１號","E_COORD97":166776.14000000001,"N_COORD97":2543820.3399999999,"ADDRESS":"府前一街５１號","OBJECTID":507349},"geometry":{"x":166776.14000000153,"y":2543820.3399999999}},{"attributes":{"ID":507377,"DIS_CODE":0,"TOWNNAME":"中西區","LI":"大涼里","LIN":"15鄰","STREET":"府前一街","SECT":" ","MAREA":" ","LANE":" ","ALLEY":" ","HOUSE_NO":"５３號","E_COORD97":166775.34,"N_COORD97":2543824.1200000001,"ADDRESS":"府前一街５３號","OBJECTID":507350},"geometry":{"x":166775.34000000078,"y":2543824.120000001}},{"attributes":{"ID":507378,"DIS_CODE":0,"TOWNNAME":"中西區","LI":"大涼里","LIN":"15鄰","STREET":"府前一街","SECT":" ","MAREA":" ","LANE":" ","ALLEY":" ","HOUSE_NO":"５５號","E_COORD97":166774.32000000001,"N_COORD97":2543828.9100000001,"ADDRESS":"府前一街５５號","OBJECTID":507351},"geometry":{"x":166774.32000000123,"y":2543828.910000002}},{"attributes":{"ID":507379,"DIS_CODE":0,"TOWNNAME":"中西區","LI":"大涼里","LIN":"15鄰","STREET":"府前一街","SECT":" ","MAREA":" ","LANE":" ","ALLEY":" ","HOUSE_NO":"５７號","E_COORD97":166772.28,"N_COORD97":2543832.9100000001,"ADDRESS":"府前一街５７號","OBJECTID":507352},"geometry":{"x":166772.28000000026,"y":2543832.910000002}},{"attributes":{"ID":507380,"DIS_CODE":0,"TOWNNAME":"下營區","LI":"營前里","LIN":"15鄰","STREET":"文化街","SECT":" ","MAREA":" ","LANE":" ","ALLEY":" ","HOUSE_NO":"９５號","E_COORD97":174758.76000000001,"N_COORD97":2570460.6899999999,"ADDRESS":"文化街９５號","OBJECTID":507353},"geometry":{"x":174758.76000000071,"y":2570460.6900000032}},{"attributes":{"ID":507381,"DIS_CODE":0,"TOWNNAME":"下營區","LI":"營前里","LIN":"15鄰","STREET":"文化街","SECT":" ","MAREA":" ","LANE":" ","ALLEY":" ","HOUSE_NO":"１０２號","E_COORD97":174790.12,"N_COORD97":2570456.3399999999,"ADDRESS":"文化街１０２號","OBJECTID":507354},"geometry":{"x":174790.12000000104,"y":2570456.339999998}},{"attributes":{"ID":507382,"DIS_CODE":0,"TOWNNAME":"下營區","LI":"營前里","LIN":"15鄰","STREET":"文化街","SECT":" ","MAREA":" ","LANE":" ","ALLEY":" ","HOUSE_NO":"１０６號","E_COORD97":174787.78,"N_COORD97":2570462.75,"ADDRESS":"文化街１０６號","OBJECTID":507355},"geometry":{"x":174787.78000000119,"y":2570462.75}},{"attributes":{"ID":507383,"DIS_CODE":0,"TOWNNAME":"下營區","LI":"營前里","LIN":"15鄰","STREET":"文化街","SECT":" ","MAREA":" ","LANE":" ","ALLEY":" ","HOUSE_NO":"１０８號","E_COORD97":174786.54000000001,"N_COORD97":2570467.5800000001,"ADDRESS":"文化街１０８號","OBJECTID":507356},"geometry":{"x":174786.54000000004,"y":2570467.5800000001}},{"attributes":{"ID":507384,"DIS_CODE":0,"TOWNNAME":"下營區","LI":"營前里","LIN":"15鄰","STREET":"文化街","SECT":" ","MAREA":" ","LANE":" ","ALLEY":" ","HOUSE_NO":"１１２號","E_COORD97":174784,"N_COORD97":2570476.4900000002,"ADDRESS":"文化街１１２號","OBJECTID":507357},"geometry":{"x":174784.00000000093,"y":2570476.4900000039}},{"attributes":{"ID":507385,"DIS_CODE":0,"TOWNNAME":"下營區","LI":"營前里","LIN":"15鄰","STREET":"文化街","SECT":" ","MAREA":" ","LANE":" ","ALLEY":" ","HOUSE_NO":"９６號","E_COORD97":174808.87,"N_COORD97":2570422.3700000001,"ADDRESS":"文化街９６號","OBJECTID":507358},"geometry":{"x":174808.87000000104,"y":2570422.370000001}},{"attributes":{"ID":507386,"DIS_CODE":0,"TOWNNAME":"下營區","LI":"下營里","LIN":"15鄰","STREET":"民族一街","SECT":" ","MAREA":" ","LANE":" ","ALLEY":" ","HOUSE_NO":"２０號","E_COORD97":174463.42000000001,"N_COORD97":2570575.8100000001,"ADDRESS":"民族一街２０號","OBJECTID":507359},"geometry":{"x":174463.41999999993,"y":2570575.8100000005}},{"attributes":{"ID":507387,"DIS_CODE":0,"TOWNNAME":"下營區","LI":"宅內里","LIN":"15鄰","STREET":"民族二街","SECT":" ","MAREA":" ","LANE":" ","ALLEY":" ","HOUSE_NO":"８號","E_COORD97":174310.29000000001,"N_COORD97":2570563.9500000002,"ADDRESS":"民族二街８號","OBJECTID":507360},"geometry":{"x":174310.29000000004,"y":2570563.950000003}},{"attributes":{"ID":507388,"DIS_CODE":0,"TOWNNAME":"下營區","LI":"宅內里","LIN":"15鄰","STREET":"玄德街","SECT":" ","MAREA":" ","LANE":" ","ALLEY":" ","HOUSE_NO":"１７號","E_COORD97":174339.85999999999,"N_COORD97":2570537.3399999999,"ADDRESS":"玄德街１７號","OBJECTID":507361},"geometry":{"x":174339.86000000127,"y":2570537.3399999999}},{"attributes":{"ID":507389,"DIS_CODE":0,"TOWNNAME":"下營區","LI":"宅內里","LIN":"15鄰","STREET":"玄德街","SECT":" ","MAREA":" ","LANE":" ","ALLEY":" ","HOUSE_NO":"１９號","E_COORD97":174338,"N_COORD97":2570542.6400000001,"ADDRESS":"玄德街１９號","OBJECTID":507362},"geometry":{"x":174338.00000000186,"y":2570542.6400000006}},{"attributes":{"ID":507390,"DIS_CODE":0,"TOWNNAME":"下營區","LI":"宅內里","LIN":"15鄰","STREET":"玄德街","SECT":" ","MAREA":" ","LANE":" ","ALLEY":" ","HOUSE_NO":"２１號","E_COORD97":174337.01999999999,"N_COORD97":2570547.2599999998,"ADDRESS":"玄德街２１號","OBJECTID":507363},"geometry":{"x":174337.01999999955,"y":2570547.2599999998}},{"attributes":{"ID":507391,"DIS_CODE":0,"TOWNNAME":"下營區","LI":"宅內里","LIN":"15鄰","STREET":"玄德街","SECT":" ","MAREA":" ","LANE":" ","ALLEY":" ","HOUSE_NO":"２３號","E_COORD97":174336.54000000001,"N_COORD97":2570549.8900000001,"ADDRESS":"玄德街２３號","OBJECTID":507364},"geometry":{"x":174336.54000000097,"y":2570549.8900000025}},{"attributes":{"ID":507392,"DIS_CODE":0,"TOWNNAME":"下營區","LI":"宅內里","LIN":"15鄰","STREET":"玄德街","SECT":" ","MAREA":" ","LANE":" ","ALLEY":" ","HOUSE_NO":"２５號","E_COORD97":174335.54000000001,"N_COORD97":2570553.3900000001,"ADDRESS":"玄德街２５號","OBJECTID":507365},"geometry":{"x":174335.54000000004,"y":2570553.3900000025}},{"attributes":{"ID":507393,"DIS_CODE":0,"TOWNNAME":"下營區","LI":"宅內里","LIN":"15鄰","STREET":"玄德街","SECT":" ","MAREA":" ","LANE":" ","ALLEY":" ","HOUSE_NO":"２７號","E_COORD97":174334.79999999999,"N_COORD97":2570556.9900000002,"ADDRESS":"玄德街２７號","OBJECTID":507366},"geometry":{"x":174334.80000000075,"y":2570556.9900000002}},{"attributes":{"ID":507394,"DIS_CODE":0,"TOWNNAME":"下營區","LI":"宅內里","LIN":"15鄰","STREET":"玄德街","SECT":" ","MAREA":" ","LANE":" ","ALLEY":" ","HOUSE_NO":"２９號","E_COORD97":174334.47,"N_COORD97":2570560.73,"ADDRESS":"玄德街２９號","OBJECTID":507367},"geometry":{"x":174334.46999999881,"y":2570560.7300000023}},{"attributes":{"ID":507395,"DIS_CODE":0,"TOWNNAME":"東區","LI":"崇善里","LIN":"15鄰","STREET":"仁和路","SECT":" ","MAREA":" ","LANE":" ","ALLEY":" ","HOUSE_NO":"１１２號之３","E_COORD97":171329.26999999999,"N_COORD97":2541333.2599999998,"ADDRESS":"仁和路１１２號之３","OBJECTID":507368},"geometry":{"x":171329.27000000048,"y":2541333.2599999998}},{"attributes":{"ID":507396,"DIS_CODE":0,"TOWNNAME":"東區","LI":"崇善里","LIN":"15鄰","STREET":"仁和路","SECT":" ","MAREA":" ","LANE":" ","ALLEY":" ","HOUSE_NO":"１１２號之４","E_COORD97":171331.59,"N_COORD97":2541329.6099999999,"ADDRESS":"仁和路１１２號之４","OBJECTID":507369},"geometry":{"x":171331.58999999892,"y":2541329.6099999994}},{"attributes":{"ID":507397,"DIS_CODE":0,"TOWNNAME":"東區","LI":"崇善里","LIN":"15鄰","STREET":"仁和路","SECT":" ","MAREA":" ","LANE":" ","ALLEY":" ","HOUSE_NO":"１１４號之１","E_COORD97":171333.25,"N_COORD97":2541319.6600000001,"ADDRESS":"仁和路１１４號之１","OBJECTID":507370},"geometry":{"x":171333.25000000093,"y":2541319.6600000001}},{"attributes":{"ID":507398,"DIS_CODE":0,"TOWNNAME":"東區","LI":"崇善里","LIN":"15鄰","STREET":"仁和路","SECT":" ","MAREA":" ","LANE":" ","ALLEY":" ","HOUSE_NO":"１１４號之２","E_COORD97":171338.23000000001,"N_COORD97":2541315.6800000002,"ADDRESS":"仁和路１１４號之２","OBJECTID":507371},"geometry":{"x":171338.23000000231,"y":2541315.6799999997}},{"attributes":{"ID":507399,"DIS_CODE":0,"TOWNNAME":"東區","LI":"崇善里","LIN":"15鄰","STREET":"仁和路","SECT":" ","MAREA":" ","LANE":" ","ALLEY":" ","HOUSE_NO":"１１４號之３","E_COORD97":171339.56,"N_COORD97":2541312.6899999999,"ADDRESS":"仁和路１１４號之３","OBJECTID":507372},"geometry":{"x":171339.55999999959,"y":2541312.6899999995}},{"attributes":{"ID":507400,"DIS_CODE":0,"TOWNNAME":"東區","LI":"崇善里","LIN":"15鄰","STREET":"仁和路","SECT":" ","MAREA":" ","LANE":" ","ALLEY":" ","HOUSE_NO":"１１８號","E_COORD97":171341.22,"N_COORD97":2541308.0499999998,"ADDRESS":"仁和路１１８號","OBJECTID":507373},"geometry":{"x":171341.22000000067,"y":2541308.0500000007}},{"attributes":{"ID":507401,"DIS_CODE":0,"TOWNNAME":"東區","LI":"崇善里","LIN":"15鄰","STREET":"仁和路","SECT":" ","MAREA":" ","LANE":" ","ALLEY":" ","HOUSE_NO":"１１８號之１","E_COORD97":171342.54999999999,"N_COORD97":2541304.3999999999,"ADDRESS":"仁和路１１８號之１","OBJECTID":507374},"geometry":{"x":171342.55000000075,"y":2541304.4000000022}},{"attributes":{"ID":507402,"DIS_CODE":0,"TOWNNAME":"東區","LI":"崇善里","LIN":"15鄰","STREET":"仁和路","SECT":" ","MAREA":" ","LANE":" ","ALLEY":" ","HOUSE_NO":"１１８號之２","E_COORD97":171343.20999999999,"N_COORD97":2541299.7599999998,"ADDRESS":"仁和路１１８號之２","OBJECTID":507375},"geometry":{"x":171343.21000000089,"y":2541299.7600000035}},{"attributes":{"ID":507403,"DIS_CODE":0,"TOWNNAME":"東區","LI":"崇善里","LIN":"15鄰","STREET":"仁和路","SECT":" ","MAREA":" ","LANE":" ","ALLEY":" ","HOUSE_NO":"１２２號","E_COORD97":171364.54000000001,"N_COORD97":2541280.4100000001,"ADDRESS":"仁和路１２２號","OBJECTID":507376},"geometry":{"x":171364.5400000019,"y":2541280.410000002}},{"attributes":{"ID":507404,"DIS_CODE":0,"TOWNNAME":"東區","LI":"崇善里","LIN":"15鄰","STREET":"仁和路","SECT":" ","MAREA":" ","LANE":" ","ALLEY":" ","HOUSE_NO":"１３０號","E_COORD97":171381.28,"N_COORD97":2541244.7000000002,"ADDRESS":"仁和路１３０號","OBJECTID":507377},"geometry":{"x":171381.28000000026,"y":2541244.6999999993}},{"attributes":{"ID":507405,"DIS_CODE":0,"TOWNNAME":"東區","LI":"崇善里","LIN":"15鄰","STREET":"仁和路","SECT":" ","MAREA":" ","LANE":" ","ALLEY":" ","HOUSE_NO":"１３４號","E_COORD97":171395.13,"N_COORD97":2541225.5899999999,"ADDRESS":"仁和路１３４號","OBJECTID":507378},"geometry":{"x":171395.12999999989,"y":2541225.5899999999}},{"attributes":{"ID":507406,"DIS_CODE":0,"TOWNNAME":"東區","LI":"崇善里","LIN":"15鄰","STREET":"仁和路","SECT":" ","MAREA":" ","LANE":" ","ALLEY":" ","HOUSE_NO":"１３４號之１","E_COORD97":171396.98999999999,"N_COORD97":2541221.8900000001,"ADDRESS":"仁和路１３４號之１","OBJECTID":507379},"geometry":{"x":171396.99000000022,"y":2541221.8900000043}},{"attributes":{"ID":507407,"DIS_CODE":0,"TOWNNAME":"東區","LI":"崇善里","LIN":"15鄰","STREET":"仁和路","SECT":" ","MAREA":" ","LANE":" ","ALLEY":" ","HOUSE_NO":"１３４號之３","E_COORD97":171400.16,"N_COORD97":2541217.9199999999,"ADDRESS":"仁和路１３４號之３","OBJECTID":507380},"geometry":{"x":171400.16000000108,"y":2541217.9200000018}},{"attributes":{"ID":507408,"DIS_CODE":0,"TOWNNAME":"東區","LI":"崇善里","LIN":"15鄰","STREET":"仁和路","SECT":" ","MAREA":" ","LANE":" ","ALLEY":" ","HOUSE_NO":"１３４號之４","E_COORD97":171402.54999999999,"N_COORD97":2541213.1600000001,"ADDRESS":"仁和路１３４號之４","OBJECTID":507381},"geometry":{"x":171402.54999999981,"y":2541213.160000002}},{"attributes":{"ID":507409,"DIS_CODE":0,"TOWNNAME":"東區","LI":"崇善里","LIN":"15鄰","STREET":"仁和路","SECT":" ","MAREA":" ","LANE":" ","ALLEY":" ","HOUSE_NO":"１３６號","E_COORD97":171404.39999999999,"N_COORD97":2541209.4500000002,"ADDRESS":"仁和路１３６號","OBJECTID":507382},"geometry":{"x":171404.40000000037,"y":2541209.4499999993}},{"attributes":{"ID":507410,"DIS_CODE":0,"TOWNNAME":"白河區","LI":"永安里","LIN":"15鄰","STREET":"明德街","SECT":" ","MAREA":" ","LANE":" ","ALLEY":" ","HOUSE_NO":"２０號","E_COORD97":189998.98000000001,"N_COORD97":2583540.4500000002,"ADDRESS":"明德街２０號","OBJECTID":507383},"geometry":{"x":189998.98000000138,"y":2583540.4499999993}},{"attributes":{"ID":507411,"DIS_CODE":0,"TOWNNAME":"白河區","LI":"永安里","LIN":"15鄰","STREET":"明德街","SECT":" ","MAREA":" ","LANE":" ","ALLEY":" ","HOUSE_NO":"２２號","E_COORD97":190003.73999999999,"N_COORD97":2583540.4500000002,"ADDRESS":"明德街２２號","OBJECTID":507384},"geometry":{"x":190003.74000000115,"y":2583540.4499999993}},{"attributes":{"ID":507412,"DIS_CODE":0,"TOWNNAME":"白河區","LI":"永安里","LIN":"15鄰","STREET":"國泰路","SECT":" ","MAREA":" ","LANE":" ","ALLEY":" ","HOUSE_NO":"３０７之１號","E_COORD97":189932.32999999999,"N_COORD97":2583402.7000000002,"ADDRESS":"國泰路３０７之１號","OBJECTID":507385},"geometry":{"x":189932.33000000101,"y":2583402.7000000011}},{"attributes":{"ID":507413,"DIS_CODE":0,"TOWNNAME":"白河區","LI":"永安里","LIN":"15鄰","STREET":"國泰路","SECT":" ","MAREA":" ","LANE":" ","ALLEY":" ","HOUSE_NO":"３１７號","E_COORD97":189962.39999999999,"N_COORD97":2583471.5899999999,"ADDRESS":"國泰路３１７號","OBJECTID":507386},"geometry":{"x":189962.4000000013,"y":2583471.5900000017}},{"attributes":{"ID":507414,"DIS_CODE":0,"TOWNNAME":"白河區","LI":"永安里","LIN":"15鄰","STREET":"國泰路","SECT":" ","MAREA":" ","LANE":" ","ALLEY":" ","HOUSE_NO":"３６１之２號","E_COORD97":190043.70999999999,"N_COORD97":2583546.6200000001,"ADDRESS":"國泰路３６１之２號","OBJECTID":507387},"geometry":{"x":190043.70999999996,"y":2583546.6200000029}},{"attributes":{"ID":507415,"DIS_CODE":0,"TOWNNAME":"白河區","LI":"永安里","LIN":"15鄰","STREET":"國泰路","SECT":" ","MAREA":" ","LANE":" ","ALLEY":" ","HOUSE_NO":"３６９號","E_COORD97":190075.20000000001,"N_COORD97":2583575.23,"ADDRESS":"國泰路３６９號","OBJECTID":507388},"geometry":{"x":190075.20000000112,"y":2583575.2300000042}},{"attributes":{"ID":507416,"DIS_CODE":0,"TOWNNAME":"白河區","LI":"永安里","LIN":"15鄰","STREET":"國泰路","SECT":" ","MAREA":" ","LANE":" ","ALLEY":" ","HOUSE_NO":"３７１號","E_COORD97":190078.04000000001,"N_COORD97":2583578.1099999999,"ADDRESS":"國泰路３７１號","OBJECTID":507389},"geometry":{"x":190078.04000000097,"y":2583578.1099999994}},{"attributes":{"ID":507417,"DIS_CODE":0,"TOWNNAME":"白河區","LI":"永安里","LIN":"15鄰","STREET":"國泰路","SECT":" ","MAREA":" ","LANE":" ","ALLEY":" ","HOUSE_NO":"３７３號","E_COORD97":190081.23000000001,"N_COORD97":2583581.6400000001,"ADDRESS":"國泰路３７３號","OBJECTID":507390},"geometry":{"x":190081.23000000045,"y":2583581.6400000006}},{"attributes":{"ID":507418,"DIS_CODE":0,"TOWNNAME":"白河區","LI":"永安里","LIN":"15鄰","STREET":"國泰路","SECT":" ","MAREA":" ","LANE":" ","ALLEY":" ","HOUSE_NO":"３７５號","E_COORD97":190084.17000000001,"N_COORD97":2583584.23,"ADDRESS":"國泰路３７５號","OBJECTID":507391},"geometry":{"x":190084.17000000086,"y":2583584.2300000004}},{"attributes":{"ID":507419,"DIS_CODE":0,"TOWNNAME":"白河區","LI":"永安里","LIN":"15鄰","STREET":"國泰路","SECT":" ","MAREA":" ","LANE":" ","ALLEY":" ","HOUSE_NO":"３７７號","E_COORD97":190086.95000000001,"N_COORD97":2583587.7400000002,"ADDRESS":"國泰路３７７號","OBJECTID":507392},"geometry":{"x":190086.95000000205,"y":2583587.7400000002}},{"attributes":{"ID":507420,"DIS_CODE":0,"TOWNNAME":"白河區","LI":"永安里","LIN":"15鄰","STREET":"國泰路","SECT":" ","MAREA":" ","LANE":" ","ALLEY":" ","HOUSE_NO":"３７９號","E_COORD97":190089.98999999999,"N_COORD97":2583590.4700000002,"ADDRESS":"國泰路３７９號","OBJECTID":507393},"geometry":{"x":190089.99000000209,"y":2583590.4700000007}},{"attributes":{"ID":507421,"DIS_CODE":0,"TOWNNAME":"白河區","LI":"永安里","LIN":"15鄰","STREET":"國泰路","SECT":" ","MAREA":" ","LANE":" ","ALLEY":" ","HOUSE_NO":"３８１號","E_COORD97":190093.01999999999,"N_COORD97":2583593.6299999999,"ADDRESS":"國泰路３８１號","OBJECTID":507394},"geometry":{"x":190093.02000000048,"y":2583593.629999999}},{"attributes":{"ID":507422,"DIS_CODE":0,"TOWNNAME":"白河區","LI":"永安里","LIN":"15鄰","STREET":"國泰路","SECT":" ","MAREA":" ","LANE":" ","ALLEY":" ","HOUSE_NO":"３８３號","E_COORD97":190094.85000000001,"N_COORD97":2583597.6600000001,"ADDRESS":"國泰路３８３號","OBJECTID":507395},"geometry":{"x":190094.84999999963,"y":2583597.6600000001}},{"attributes":{"ID":507423,"DIS_CODE":0,"TOWNNAME":"白河區","LI":"永安里","LIN":"15鄰","STREET":"國泰路","SECT":" ","MAREA":" ","LANE":" ","ALLEY":" ","HOUSE_NO":"３８７號","E_COORD97":190108.73999999999,"N_COORD97":2583607.5800000001,"ADDRESS":"國泰路３８７號","OBJECTID":507396},"geometry":{"x":190108.74000000209,"y":2583607.5800000019}},{"attributes":{"ID":507424,"DIS_CODE":0,"TOWNNAME":"白河區","LI":"永安里","LIN":"15鄰","STREET":"國泰路","SECT":" ","MAREA":" ","LANE":" ","ALLEY":" ","HOUSE_NO":"３８９號","E_COORD97":190111.89999999999,"N_COORD97":2583610.7000000002,"ADDRESS":"國泰路３８９號","OBJECTID":507397},"geometry":{"x":190111.9000000013,"y":2583610.6999999993}},{"attributes":{"ID":507425,"DIS_CODE":0,"TOWNNAME":"白河區","LI":"永安里","LIN":"15鄰","STREET":"富民路","SECT":" ","MAREA":" ","LANE":" ","ALLEY":" ","HOUSE_NO":"６０６之１號","E_COORD97":189703.73999999999,"N_COORD97":2583435.1499999999,"ADDRESS":"富民路６０６之１號","OBJECTID":507398},"geometry":{"x":189703.74000000115,"y":2583435.1500000004}},{"attributes":{"ID":507426,"DIS_CODE":0,"TOWNNAME":"白河區","LI":"永安里","LIN":"15鄰","STREET":"富民路","SECT":" ","MAREA":" ","LANE":" ","ALLEY":" ","HOUSE_NO":"６１２號","E_COORD97":189706.26999999999,"N_COORD97":2583447.7999999998,"ADDRESS":"富民路６１２號","OBJECTID":507399},"geometry":{"x":189706.27000000048,"y":2583447.8000000026}},{"attributes":{"ID":507427,"DIS_CODE":0,"TOWNNAME":"白河區","LI":"永安里","LIN":"15鄰","STREET":"富民路","SECT":" ","MAREA":" ","LANE":" ","ALLEY":" ","HOUSE_NO":"６１４號","E_COORD97":189708.44,"N_COORD97":2583452.9900000002,"ADDRESS":"富民路６１４號","OBJECTID":507400},"geometry":{"x":189708.44000000041,"y":2583452.9900000002}}]}