{"displayFieldName":"TOWNNAME","fieldAliases":{"ID":"ID","DIS_CODE":"DIS_CODE","TOWNNAME":"TOWNNAME","LI":"LI","LIN":"LIN","STREET":"STREET","SECT":"SECT","MAREA":"MAREA","LANE":"LANE","ALLEY":"ALLEY","HOUSE_NO":"HOUSE_NO","E_COORD97":"E_COORD97","N_COORD97":"N_COORD97","ADDRESS":"ADDRESS","OBJECTID":"OBJECTID"},"geometryType":"esriGeometryPoint","spatialReference":{"wkid":102443,"latestWkid":3826},"fields":[{"name":"ID","type":"esriFieldTypeDouble","alias":"ID"},{"name":"DIS_CODE","type":"esriFieldTypeInteger","alias":"DIS_CODE"},{"name":"TOWNNAME","type":"esriFieldTypeString","alias":"TOWNNAME","length":8},{"name":"LI","type":"esriFieldTypeString","alias":"LI","length":8},{"name":"LIN","type":"esriFieldTypeString","alias":"LIN","length":12},{"name":"STREET","type":"esriFieldTypeString","alias":"STREET","length":20},{"name":"SECT","type":"esriFieldTypeString","alias":"SECT","length":8},{"name":"MAREA","type":"esriFieldTypeString","alias":"MAREA","length":12},{"name":"LANE","type":"esriFieldTypeString","alias":"LANE","length":10},{"name":"ALLEY","type":"esriFieldTypeString","alias":"ALLEY","length":10},{"name":"HOUSE_NO","type":"esriFieldTypeString","alias":"HOUSE_NO","length":20},{"name":"E_COORD97","type":"esriFieldTypeDouble","alias":"E_COORD97"},{"name":"N_COORD97","type":"esriFieldTypeDouble","alias":"N_COORD97"},{"name":"ADDRESS","type":"esriFieldTypeString","alias":"ADDRESS","length":50},{"name":"OBJECTID","type":"esriFieldTypeOID","alias":"OBJECTID"}],"features":[{"attributes":{"ID":431426,"DIS_CODE":0,"TOWNNAME":"東區","LI":"崇信里","LIN":"26鄰","STREET":"崇學路","SECT":" ","MAREA":" ","LANE":"２３０巷","ALLEY":" ","HOUSE_NO":"１０８號二樓","E_COORD97":170598.07999999999,"N_COORD97":2542281.0600000001,"ADDRESS":"崇學路２３０巷１０８號二樓","OBJECTID":431401},"geometry":{"x":170598.08000000194,"y":2542281.0600000005}},{"attributes":{"ID":431427,"DIS_CODE":0,"TOWNNAME":"東區","LI":"崇信里","LIN":"26鄰","STREET":"崇學路","SECT":" ","MAREA":" ","LANE":"２３０巷","ALLEY":" ","HOUSE_NO":"１０８號三樓","E_COORD97":170598.07999999999,"N_COORD97":2542281.0600000001,"ADDRESS":"崇學路２３０巷１０８號三樓","OBJECTID":431402},"geometry":{"x":170598.08000000194,"y":2542281.0600000005}},{"attributes":{"ID":431428,"DIS_CODE":0,"TOWNNAME":"東區","LI":"崇信里","LIN":"26鄰","STREET":"崇學路","SECT":" ","MAREA":" ","LANE":"２３０巷","ALLEY":" ","HOUSE_NO":"１０８號五樓","E_COORD97":170598.07999999999,"N_COORD97":2542281.0600000001,"ADDRESS":"崇學路２３０巷１０８號五樓","OBJECTID":431403},"geometry":{"x":170598.08000000194,"y":2542281.0600000005}},{"attributes":{"ID":431429,"DIS_CODE":0,"TOWNNAME":"東區","LI":"崇信里","LIN":"26鄰","STREET":"崇學路","SECT":" ","MAREA":" ","LANE":"２３０巷","ALLEY":" ","HOUSE_NO":"１０８號六樓","E_COORD97":170598.07999999999,"N_COORD97":2542281.0600000001,"ADDRESS":"崇學路２３０巷１０８號六樓","OBJECTID":431404},"geometry":{"x":170598.08000000194,"y":2542281.0600000005}},{"attributes":{"ID":431430,"DIS_CODE":0,"TOWNNAME":"東區","LI":"崇信里","LIN":"26鄰","STREET":"崇學路","SECT":" ","MAREA":" ","LANE":"２３０巷","ALLEY":" ","HOUSE_NO":"１０８號四樓","E_COORD97":170598.07999999999,"N_COORD97":2542281.0600000001,"ADDRESS":"崇學路２３０巷１０８號四樓","OBJECTID":431405},"geometry":{"x":170598.08000000194,"y":2542281.0600000005}},{"attributes":{"ID":431431,"DIS_CODE":0,"TOWNNAME":"東區","LI":"崇信里","LIN":"13鄰","STREET":"崇學路","SECT":" ","MAREA":" ","LANE":"２３０巷","ALLEY":" ","HOUSE_NO":"５９號二樓","E_COORD97":170656.85000000001,"N_COORD97":2542415.2400000002,"ADDRESS":"崇學路２３０巷５９號二樓","OBJECTID":431406},"geometry":{"x":170656.85000000056,"y":2542415.2400000002}},{"attributes":{"ID":431432,"DIS_CODE":0,"TOWNNAME":"東區","LI":"崇信里","LIN":"13鄰","STREET":"崇學路","SECT":" ","MAREA":" ","LANE":"２３０巷","ALLEY":" ","HOUSE_NO":"５９號二樓","E_COORD97":170655.14999999999,"N_COORD97":2542410.1200000001,"ADDRESS":"崇學路２３０巷５９號二樓","OBJECTID":431407},"geometry":{"x":170655.15000000037,"y":2542410.120000001}},{"attributes":{"ID":431433,"DIS_CODE":0,"TOWNNAME":"東區","LI":"崇信里","LIN":"16鄰","STREET":"崇善路","SECT":" ","MAREA":" ","LANE":"２０５巷","ALLEY":" ","HOUSE_NO":"８號二樓之１","E_COORD97":170543.73000000001,"N_COORD97":2542274.29,"ADDRESS":"崇善路２０５巷８號二樓之１","OBJECTID":431408},"geometry":{"x":170543.73000000138,"y":2542274.2899999991}},{"attributes":{"ID":431434,"DIS_CODE":0,"TOWNNAME":"東區","LI":"崇信里","LIN":"16鄰","STREET":"崇善路","SECT":" ","MAREA":" ","LANE":"２０５巷","ALLEY":" ","HOUSE_NO":"８號三樓","E_COORD97":170543.73000000001,"N_COORD97":2542274.29,"ADDRESS":"崇善路２０５巷８號三樓","OBJECTID":431409},"geometry":{"x":170543.73000000138,"y":2542274.2899999991}},{"attributes":{"ID":431435,"DIS_CODE":0,"TOWNNAME":"東區","LI":"崇信里","LIN":"16鄰","STREET":"崇善路","SECT":" ","MAREA":" ","LANE":"２０５巷","ALLEY":" ","HOUSE_NO":"８號三樓之１","E_COORD97":170543.73000000001,"N_COORD97":2542274.29,"ADDRESS":"崇善路２０５巷８號三樓之１","OBJECTID":431410},"geometry":{"x":170543.73000000138,"y":2542274.2899999991}},{"attributes":{"ID":431436,"DIS_CODE":0,"TOWNNAME":"東區","LI":"崇信里","LIN":"16鄰","STREET":"崇善路","SECT":" ","MAREA":" ","LANE":"２０５巷","ALLEY":" ","HOUSE_NO":"８號五樓","E_COORD97":170543.73000000001,"N_COORD97":2542274.29,"ADDRESS":"崇善路２０５巷８號五樓","OBJECTID":431411},"geometry":{"x":170543.73000000138,"y":2542274.2899999991}},{"attributes":{"ID":431437,"DIS_CODE":0,"TOWNNAME":"東區","LI":"崇信里","LIN":"16鄰","STREET":"崇善路","SECT":" ","MAREA":" ","LANE":"２０５巷","ALLEY":" ","HOUSE_NO":"８號五樓之１","E_COORD97":170543.73000000001,"N_COORD97":2542274.29,"ADDRESS":"崇善路２０５巷８號五樓之１","OBJECTID":431412},"geometry":{"x":170543.73000000138,"y":2542274.2899999991}},{"attributes":{"ID":431438,"DIS_CODE":0,"TOWNNAME":"東區","LI":"崇信里","LIN":"16鄰","STREET":"崇善路","SECT":" ","MAREA":" ","LANE":"２０５巷","ALLEY":" ","HOUSE_NO":"８號六樓","E_COORD97":170543.73000000001,"N_COORD97":2542274.29,"ADDRESS":"崇善路２０５巷８號六樓","OBJECTID":431413},"geometry":{"x":170543.73000000138,"y":2542274.2899999991}},{"attributes":{"ID":431439,"DIS_CODE":0,"TOWNNAME":"東區","LI":"崇信里","LIN":"16鄰","STREET":"崇善路","SECT":" ","MAREA":" ","LANE":"２０５巷","ALLEY":" ","HOUSE_NO":"８號六樓之１","E_COORD97":170543.73000000001,"N_COORD97":2542274.29,"ADDRESS":"崇善路２０５巷８號六樓之１","OBJECTID":431414},"geometry":{"x":170543.73000000138,"y":2542274.2899999991}},{"attributes":{"ID":431440,"DIS_CODE":0,"TOWNNAME":"東區","LI":"崇信里","LIN":"16鄰","STREET":"崇善路","SECT":" ","MAREA":" ","LANE":"２０５巷","ALLEY":" ","HOUSE_NO":"８號四樓","E_COORD97":170543.73000000001,"N_COORD97":2542274.29,"ADDRESS":"崇善路２０５巷８號四樓","OBJECTID":431415},"geometry":{"x":170543.73000000138,"y":2542274.2899999991}},{"attributes":{"ID":431441,"DIS_CODE":0,"TOWNNAME":"東區","LI":"崇信里","LIN":"16鄰","STREET":"崇善路","SECT":" ","MAREA":" ","LANE":"２０５巷","ALLEY":" ","HOUSE_NO":"８號四樓之１","E_COORD97":170543.73000000001,"N_COORD97":2542274.29,"ADDRESS":"崇善路２０５巷８號四樓之１","OBJECTID":431416},"geometry":{"x":170543.73000000138,"y":2542274.2899999991}},{"attributes":{"ID":431442,"DIS_CODE":0,"TOWNNAME":"東區","LI":"崇信里","LIN":"18鄰","STREET":"崇善一街","SECT":" ","MAREA":" ","LANE":"４３巷","ALLEY":" ","HOUSE_NO":"５號四樓","E_COORD97":170717.20000000001,"N_COORD97":2542209.8300000001,"ADDRESS":"崇善一街４３巷５號四樓","OBJECTID":431417},"geometry":{"x":170717.20000000019,"y":2542209.8300000019}},{"attributes":{"ID":431443,"DIS_CODE":0,"TOWNNAME":"佳里區","LI":"安西里","LIN":"11鄰","STREET":"長安街","SECT":" ","MAREA":" ","LANE":"２５巷","ALLEY":" ","HOUSE_NO":"５號三樓","E_COORD97":165393.51000000001,"N_COORD97":2562311.1400000001,"ADDRESS":"長安街２５巷５號三樓","OBJECTID":431418},"geometry":{"x":165393.50999999978,"y":2562311.1400000006}},{"attributes":{"ID":431444,"DIS_CODE":0,"TOWNNAME":"佳里區","LI":"安西里","LIN":"11鄰","STREET":"長安街","SECT":" ","MAREA":" ","LANE":"２５巷","ALLEY":" ","HOUSE_NO":"５號四樓","E_COORD97":165393.51000000001,"N_COORD97":2562311.1400000001,"ADDRESS":"長安街２５巷５號四樓","OBJECTID":431419},"geometry":{"x":165393.50999999978,"y":2562311.1400000006}},{"attributes":{"ID":431445,"DIS_CODE":0,"TOWNNAME":"永康區","LI":"東灣里","LIN":"18鄰","STREET":"大灣三街","SECT":" ","MAREA":" ","LANE":"５７巷","ALLEY":" ","HOUSE_NO":"１３號六樓之１","E_COORD97":174970.45999999999,"N_COORD97":2544885.0499999998,"ADDRESS":"大灣三街５７巷１３號六樓之１","OBJECTID":431420},"geometry":{"x":174970.45999999903,"y":2544885.0500000007}},{"attributes":{"ID":431446,"DIS_CODE":0,"TOWNNAME":"永康區","LI":"崑山里","LIN":"20鄰","STREET":"崑山街","SECT":" ","MAREA":" ","LANE":"２１巷","ALLEY":" ","HOUSE_NO":"１９號一樓之３","E_COORD97":173867.85000000001,"N_COORD97":2544557.3599999999,"ADDRESS":"崑山街２１巷１９號一樓之３","OBJECTID":431421},"geometry":{"x":173867.85000000056,"y":2544557.3600000013}},{"attributes":{"ID":431447,"DIS_CODE":0,"TOWNNAME":"永康區","LI":"勝利里","LIN":"39鄰","STREET":"勝華街","SECT":" ","MAREA":" ","LANE":"３７巷","ALLEY":" ","HOUSE_NO":"５６號九樓之１０","E_COORD97":171423.81,"N_COORD97":2545110.29,"ADDRESS":"勝華街３７巷５６號九樓之１０","OBJECTID":431422},"geometry":{"x":171423.81000000052,"y":2545110.290000001}},{"attributes":{"ID":431448,"DIS_CODE":0,"TOWNNAME":"永康區","LI":"勝利里","LIN":"39鄰","STREET":"勝華街","SECT":" ","MAREA":" ","LANE":"３７巷","ALLEY":" ","HOUSE_NO":"５６號八樓之３","E_COORD97":171422.60999999999,"N_COORD97":2545110.29,"ADDRESS":"勝華街３７巷５６號八樓之３","OBJECTID":431423},"geometry":{"x":171422.61000000127,"y":2545110.290000001}},{"attributes":{"ID":431449,"DIS_CODE":0,"TOWNNAME":"永康區","LI":"網寮里","LIN":"26鄰","STREET":"永大一路","SECT":" ","MAREA":" ","LANE":"１０８巷","ALLEY":" ","HOUSE_NO":"２３號二樓之２","E_COORD97":174019.75,"N_COORD97":2546467.1699999999,"ADDRESS":"永大一路１０８巷２３號二樓之２","OBJECTID":431424},"geometry":{"x":174019.75000000093,"y":2546467.1699999999}},{"attributes":{"ID":431450,"DIS_CODE":0,"TOWNNAME":"永康區","LI":"復華里","LIN":"26鄰","STREET":"復華八街","SECT":" ","MAREA":" ","LANE":"４７巷","ALLEY":" ","HOUSE_NO":"３４號四樓之１","E_COORD97":172703.03,"N_COORD97":2546385.9500000002,"ADDRESS":"復華八街４７巷３４號四樓之１","OBJECTID":431425},"geometry":{"x":172703.03000000119,"y":2546385.9499999993}},{"attributes":{"ID":431451,"DIS_CODE":0,"TOWNNAME":"永康區","LI":"復國里","LIN":"25鄰","STREET":"復華三街","SECT":" ","MAREA":" ","LANE":"９０巷","ALLEY":" ","HOUSE_NO":"１８號九樓之１","E_COORD97":172639.54999999999,"N_COORD97":2545614.2999999998,"ADDRESS":"復華三街９０巷１８號九樓之１","OBJECTID":431426},"geometry":{"x":172639.55000000075,"y":2545614.3000000026}},{"attributes":{"ID":431452,"DIS_CODE":0,"TOWNNAME":"永康區","LI":"龍潭里","LIN":"42鄰","STREET":"永平街","SECT":" ","MAREA":" ","LANE":"７５９巷","ALLEY":" ","HOUSE_NO":"２０號四樓","E_COORD97":174607.57999999999,"N_COORD97":2547081.25,"ADDRESS":"永平街７５９巷２０號四樓","OBJECTID":431427},"geometry":{"x":174607.58000000101,"y":2547081.2500000019}},{"attributes":{"ID":431453,"DIS_CODE":0,"TOWNNAME":"永康區","LI":"龍潭里","LIN":"42鄰","STREET":"永平街","SECT":" ","MAREA":" ","LANE":"７５９巷","ALLEY":" ","HOUSE_NO":"２２號五樓","E_COORD97":174603.20999999999,"N_COORD97":2547081,"ADDRESS":"永平街７５９巷２２號五樓","OBJECTID":431428},"geometry":{"x":174603.21000000089,"y":2547081}},{"attributes":{"ID":431454,"DIS_CODE":0,"TOWNNAME":"永康區","LI":"復國里","LIN":"25鄰","STREET":"復華三街","SECT":" ","MAREA":" ","LANE":"９０巷","ALLEY":" ","HOUSE_NO":"１８號十六樓之３","E_COORD97":172640.89000000001,"N_COORD97":2545614.2999999998,"ADDRESS":"復華三街９０巷１８號十六樓之３","OBJECTID":431429},"geometry":{"x":172640.88999999966,"y":2545614.3000000026}},{"attributes":{"ID":431455,"DIS_CODE":0,"TOWNNAME":"永康區","LI":"勝利里","LIN":"39鄰","STREET":"勝華街","SECT":" ","MAREA":" ","LANE":"３７巷","ALLEY":" ","HOUSE_NO":"５６號十樓之２","E_COORD97":171422.64999999999,"N_COORD97":2545110.29,"ADDRESS":"勝華街３７巷５６號十樓之２","OBJECTID":431430},"geometry":{"x":171422.65000000037,"y":2545110.290000001}},{"attributes":{"ID":431456,"DIS_CODE":0,"TOWNNAME":"永康區","LI":"網寮里","LIN":"13鄰","STREET":"永勝街","SECT":" ","MAREA":" ","LANE":"１６９巷","ALLEY":" ","HOUSE_NO":"２號五樓之３","E_COORD97":173315.29999999999,"N_COORD97":2546526.3700000001,"ADDRESS":"永勝街１６９巷２號五樓之３","OBJECTID":431431},"geometry":{"x":173315.30000000168,"y":2546526.3700000029}},{"attributes":{"ID":431457,"DIS_CODE":0,"TOWNNAME":"永康區","LI":"尚頂里","LIN":"20鄰","STREET":"中華路","SECT":" ","MAREA":" ","LANE":"９１２巷","ALLEY":" ","HOUSE_NO":"４５號六樓之１","E_COORD97":170540.14000000001,"N_COORD97":2546763.96,"ADDRESS":"中華路９１２巷４５號六樓之１","OBJECTID":431432},"geometry":{"x":170540.1400000006,"y":2546763.9600000009}},{"attributes":{"ID":431458,"DIS_CODE":0,"TOWNNAME":"永康區","LI":"西灣里","LIN":"39鄰","STREET":"永華路","SECT":" ","MAREA":" ","LANE":"２１２巷","ALLEY":" ","HOUSE_NO":"２６號七樓","E_COORD97":174167.07999999999,"N_COORD97":2545455.75,"ADDRESS":"永華路２１２巷２６號七樓","OBJECTID":431433},"geometry":{"x":174167.08000000101,"y":2545455.75}},{"attributes":{"ID":431459,"DIS_CODE":0,"TOWNNAME":"永康區","LI":"復華里","LIN":"18鄰","STREET":"國華街","SECT":" ","MAREA":" ","LANE":"１０２巷","ALLEY":" ","HOUSE_NO":"５５號八樓之２","E_COORD97":172858.23000000001,"N_COORD97":2546097.77,"ADDRESS":"國華街１０２巷５５號八樓之２","OBJECTID":431434},"geometry":{"x":172858.23000000045,"y":2546097.7700000014}},{"attributes":{"ID":431460,"DIS_CODE":0,"TOWNNAME":"永康區","LI":"勝利里","LIN":"39鄰","STREET":"勝華街","SECT":" ","MAREA":" ","LANE":"３７巷","ALLEY":" ","HOUSE_NO":"５６號五樓之５","E_COORD97":171422.67000000001,"N_COORD97":2545110.29,"ADDRESS":"勝華街３７巷５６號五樓之５","OBJECTID":431435},"geometry":{"x":171422.66999999899,"y":2545110.290000001}},{"attributes":{"ID":431461,"DIS_CODE":0,"TOWNNAME":"永康區","LI":"埔園里","LIN":"24鄰","STREET":"中正路","SECT":" ","MAREA":" ","LANE":"１４８巷","ALLEY":" ","HOUSE_NO":"２號之５四樓","E_COORD97":173555.14999999999,"N_COORD97":2547909.3900000001,"ADDRESS":"中正路１４８巷２號之５四樓","OBJECTID":431436},"geometry":{"x":173555.15000000037,"y":2547909.3900000006}},{"attributes":{"ID":431462,"DIS_CODE":0,"TOWNNAME":"永康區","LI":"勝利里","LIN":"34鄰","STREET":"勝利街","SECT":" ","MAREA":" ","LANE":"１巷","ALLEY":" ","HOUSE_NO":"４６號十三樓之１","E_COORD97":170990.51999999999,"N_COORD97":2544676.5499999998,"ADDRESS":"勝利街１巷４６號十三樓之１","OBJECTID":431437},"geometry":{"x":170990.51999999955,"y":2544676.5500000026}},{"attributes":{"ID":431463,"DIS_CODE":0,"TOWNNAME":"永康區","LI":"勝利里","LIN":"39鄰","STREET":"勝華街","SECT":" ","MAREA":" ","LANE":"３７巷","ALLEY":" ","HOUSE_NO":"５６號七樓之７","E_COORD97":171422.59,"N_COORD97":2545110.29,"ADDRESS":"勝華街３７巷５６號七樓之７","OBJECTID":431438},"geometry":{"x":171422.58999999985,"y":2545110.290000001}},{"attributes":{"ID":431464,"DIS_CODE":0,"TOWNNAME":"永康區","LI":"勝利里","LIN":"39鄰","STREET":"勝華街","SECT":" ","MAREA":" ","LANE":"３７巷","ALLEY":" ","HOUSE_NO":"５６號七樓之５","E_COORD97":171422.67000000001,"N_COORD97":2545110.29,"ADDRESS":"勝華街３７巷５６號七樓之５","OBJECTID":431439},"geometry":{"x":171422.66999999899,"y":2545110.290000001}},{"attributes":{"ID":431465,"DIS_CODE":0,"TOWNNAME":"東區","LI":"莊敬里","LIN":"27鄰","STREET":"東光路","SECT":"二段","MAREA":" ","LANE":"１４巷","ALLEY":" ","HOUSE_NO":"１號二樓","E_COORD97":171234.82999999999,"N_COORD97":2544016.3599999999,"ADDRESS":"東光路二段１４巷１號二樓","OBJECTID":431440},"geometry":{"x":171234.83000000007,"y":2544016.3599999994}},{"attributes":{"ID":431466,"DIS_CODE":0,"TOWNNAME":"東區","LI":"莊敬里","LIN":"27鄰","STREET":"東光路","SECT":"二段","MAREA":" ","LANE":"１４巷","ALLEY":" ","HOUSE_NO":"１號三樓","E_COORD97":171234.82999999999,"N_COORD97":2544016.3599999999,"ADDRESS":"東光路二段１４巷１號三樓","OBJECTID":431441},"geometry":{"x":171234.83000000007,"y":2544016.3599999994}},{"attributes":{"ID":431467,"DIS_CODE":0,"TOWNNAME":"東區","LI":"莊敬里","LIN":"27鄰","STREET":"東光路","SECT":"二段","MAREA":" ","LANE":"１４巷","ALLEY":" ","HOUSE_NO":"１號四樓","E_COORD97":171234.82999999999,"N_COORD97":2544016.3599999999,"ADDRESS":"東光路二段１４巷１號四樓","OBJECTID":431442},"geometry":{"x":171234.83000000007,"y":2544016.3599999994}},{"attributes":{"ID":431468,"DIS_CODE":0,"TOWNNAME":"東區","LI":"莊敬里","LIN":"27鄰","STREET":"東光路","SECT":"二段","MAREA":" ","LANE":"１４巷","ALLEY":" ","HOUSE_NO":"３號二樓","E_COORD97":171243.07000000001,"N_COORD97":2544015.3599999999,"ADDRESS":"東光路二段１４巷３號二樓","OBJECTID":431443},"geometry":{"x":171243.07000000123,"y":2544015.3600000013}},{"attributes":{"ID":431469,"DIS_CODE":0,"TOWNNAME":"東區","LI":"莊敬里","LIN":"27鄰","STREET":"東光路","SECT":"二段","MAREA":" ","LANE":"１４巷","ALLEY":" ","HOUSE_NO":"３號三樓","E_COORD97":171243.07000000001,"N_COORD97":2544015.3599999999,"ADDRESS":"東光路二段１４巷３號三樓","OBJECTID":431444},"geometry":{"x":171243.07000000123,"y":2544015.3600000013}},{"attributes":{"ID":431470,"DIS_CODE":0,"TOWNNAME":"東區","LI":"莊敬里","LIN":"27鄰","STREET":"東光路","SECT":"二段","MAREA":" ","LANE":"１４巷","ALLEY":" ","HOUSE_NO":"３號四樓","E_COORD97":171243.07000000001,"N_COORD97":2544015.3599999999,"ADDRESS":"東光路二段１４巷３號四樓","OBJECTID":431445},"geometry":{"x":171243.07000000123,"y":2544015.3600000013}},{"attributes":{"ID":431471,"DIS_CODE":0,"TOWNNAME":"東區","LI":"莊敬里","LIN":"27鄰","STREET":"東光路","SECT":"二段","MAREA":" ","LANE":"１４巷","ALLEY":" ","HOUSE_NO":"５號二樓","E_COORD97":171248.31,"N_COORD97":2544014.5299999998,"ADDRESS":"東光路二段１４巷５號二樓","OBJECTID":431446},"geometry":{"x":171248.30999999959,"y":2544014.5300000012}},{"attributes":{"ID":431472,"DIS_CODE":0,"TOWNNAME":"東區","LI":"莊敬里","LIN":"27鄰","STREET":"東光路","SECT":"二段","MAREA":" ","LANE":"１４巷","ALLEY":" ","HOUSE_NO":"５號三樓","E_COORD97":171248.31,"N_COORD97":2544014.5299999998,"ADDRESS":"東光路二段１４巷５號三樓","OBJECTID":431447},"geometry":{"x":171248.30999999959,"y":2544014.5300000012}},{"attributes":{"ID":431473,"DIS_CODE":0,"TOWNNAME":"東區","LI":"莊敬里","LIN":"27鄰","STREET":"東光路","SECT":"二段","MAREA":" ","LANE":"１４巷","ALLEY":" ","HOUSE_NO":"５號四樓","E_COORD97":171248.31,"N_COORD97":2544014.5299999998,"ADDRESS":"東光路二段１４巷５號四樓","OBJECTID":431448},"geometry":{"x":171248.30999999959,"y":2544014.5300000012}},{"attributes":{"ID":431474,"DIS_CODE":0,"TOWNNAME":"東區","LI":"莊敬里","LIN":"27鄰","STREET":"東光路","SECT":"二段","MAREA":" ","LANE":"１４巷","ALLEY":" ","HOUSE_NO":"７號二樓","E_COORD97":171255.29999999999,"N_COORD97":2544014.1400000001,"ADDRESS":"東光路二段１４巷７號二樓","OBJECTID":431449},"geometry":{"x":171255.29999999981,"y":2544014.1400000025}},{"attributes":{"ID":431475,"DIS_CODE":0,"TOWNNAME":"大內區","LI":"環湖里","LIN":"4鄰","STREET":" ","SECT":" ","MAREA":"環湖","LANE":" ","ALLEY":" ","HOUSE_NO":"４３號之１","E_COORD97":190546.88584,"N_COORD97":2560729.7936399998,"ADDRESS":"環湖４３號之１","OBJECTID":431450},"geometry":{"x":190546.88584000152,"y":2560729.7936400007}},{"attributes":{"ID":431476,"DIS_CODE":0,"TOWNNAME":"東區","LI":"莊敬里","LIN":"27鄰","STREET":"東光路","SECT":"二段","MAREA":" ","LANE":"１４巷","ALLEY":" ","HOUSE_NO":"７號三樓","E_COORD97":171255.29999999999,"N_COORD97":2544014.1400000001,"ADDRESS":"東光路二段１４巷７號三樓","OBJECTID":431451},"geometry":{"x":171255.29999999981,"y":2544014.1400000025}},{"attributes":{"ID":431477,"DIS_CODE":0,"TOWNNAME":"東區","LI":"莊敬里","LIN":"27鄰","STREET":"東光路","SECT":"二段","MAREA":" ","LANE":"１４巷","ALLEY":" ","HOUSE_NO":"７號四樓","E_COORD97":171255.29999999999,"N_COORD97":2544014.1400000001,"ADDRESS":"東光路二段１４巷７號四樓","OBJECTID":431452},"geometry":{"x":171255.29999999981,"y":2544014.1400000025}},{"attributes":{"ID":431478,"DIS_CODE":0,"TOWNNAME":"歸仁區","LI":"南保里","LIN":"40鄰","STREET":"保興街","SECT":" ","MAREA":" ","LANE":" ","ALLEY":" ","HOUSE_NO":"５０號","E_COORD97":176513.12,"N_COORD97":2541096.25,"ADDRESS":"保興街５０號","OBJECTID":431453},"geometry":{"x":176513.12000000011,"y":2541096.25}},{"attributes":{"ID":431479,"DIS_CODE":0,"TOWNNAME":"東區","LI":"成大里","LIN":"4鄰","STREET":"東寧路","SECT":"西段","MAREA":" ","LANE":"１８巷","ALLEY":" ","HOUSE_NO":"５號之２二樓","E_COORD97":169631.72,"N_COORD97":2543725.3999999999,"ADDRESS":"東寧路西段１８巷５號之２二樓","OBJECTID":431454},"geometry":{"x":169631.71999999974,"y":2543725.4000000004}},{"attributes":{"ID":431480,"DIS_CODE":0,"TOWNNAME":"東區","LI":"成大里","LIN":"4鄰","STREET":"東寧路","SECT":"西段","MAREA":" ","LANE":"１８巷","ALLEY":" ","HOUSE_NO":"５號之３二樓","E_COORD97":169620.73000000001,"N_COORD97":2543728.0800000001,"ADDRESS":"東寧路西段１８巷５號之３二樓","OBJECTID":431455},"geometry":{"x":169620.73000000045,"y":2543728.0800000001}},{"attributes":{"ID":431481,"DIS_CODE":0,"TOWNNAME":"東區","LI":"成大里","LIN":"4鄰","STREET":"東寧路","SECT":"西段","MAREA":" ","LANE":"１８巷","ALLEY":" ","HOUSE_NO":"５號之３三樓","E_COORD97":169620.73000000001,"N_COORD97":2543728.0800000001,"ADDRESS":"東寧路西段１８巷５號之３三樓","OBJECTID":431456},"geometry":{"x":169620.73000000045,"y":2543728.0800000001}},{"attributes":{"ID":431482,"DIS_CODE":0,"TOWNNAME":"永康區","LI":"龍潭里","LIN":"42鄰","STREET":"永平街","SECT":" ","MAREA":" ","LANE":"７５９巷","ALLEY":" ","HOUSE_NO":"３２號五樓","E_COORD97":174595.10999999999,"N_COORD97":2547071.8399999999,"ADDRESS":"永平街７５９巷３２號五樓","OBJECTID":431457},"geometry":{"x":174595.11000000034,"y":2547071.8399999999}},{"attributes":{"ID":431483,"DIS_CODE":0,"TOWNNAME":"永康區","LI":"復國里","LIN":"25鄰","STREET":"復華三街","SECT":" ","MAREA":" ","LANE":"９０巷","ALLEY":" ","HOUSE_NO":"１８號九樓之４","E_COORD97":172639.57000000001,"N_COORD97":2545614.2999999998,"ADDRESS":"復華三街９０巷１８號九樓之４","OBJECTID":431458},"geometry":{"x":172639.57000000123,"y":2545614.3000000026}},{"attributes":{"ID":431484,"DIS_CODE":0,"TOWNNAME":"永康區","LI":"網寮里","LIN":"20鄰","STREET":"永二街","SECT":" ","MAREA":" ","LANE":"２４５巷","ALLEY":" ","HOUSE_NO":"２７號之７七樓","E_COORD97":173341.14999999999,"N_COORD97":2546120.3799999999,"ADDRESS":"永二街２４５巷２７號之７七樓","OBJECTID":431459},"geometry":{"x":173341.1500000013,"y":2546120.3800000008}},{"attributes":{"ID":431485,"DIS_CODE":0,"TOWNNAME":"永康區","LI":"西灣里","LIN":"39鄰","STREET":"永華路","SECT":" ","MAREA":" ","LANE":"２１２巷","ALLEY":" ","HOUSE_NO":"２７號五樓之１","E_COORD97":174184.42999999999,"N_COORD97":2545474.7999999998,"ADDRESS":"永華路２１２巷２７號五樓之１","OBJECTID":431460},"geometry":{"x":174184.43000000063,"y":2545474.8000000026}},{"attributes":{"ID":431486,"DIS_CODE":0,"TOWNNAME":"永康區","LI":"勝利里","LIN":"39鄰","STREET":"勝華街","SECT":" ","MAREA":" ","LANE":"３７巷","ALLEY":" ","HOUSE_NO":"５６號六樓之５","E_COORD97":171422.67000000001,"N_COORD97":2545110.29,"ADDRESS":"勝華街３７巷５６號六樓之５","OBJECTID":431461},"geometry":{"x":171422.66999999899,"y":2545110.290000001}},{"attributes":{"ID":431487,"DIS_CODE":0,"TOWNNAME":"永康區","LI":"二王里","LIN":"41鄰","STREET":"中山南路","SECT":" ","MAREA":" ","LANE":"３１６巷","ALLEY":" ","HOUSE_NO":"１２號四樓之１","E_COORD97":171993.39999999999,"N_COORD97":2546163.0299999998,"ADDRESS":"中山南路３１６巷１２號四樓之１","OBJECTID":431462},"geometry":{"x":171993.4000000013,"y":2546163.0300000012}},{"attributes":{"ID":431488,"DIS_CODE":0,"TOWNNAME":"永康區","LI":"尚頂里","LIN":"20鄰","STREET":"中華路","SECT":" ","MAREA":" ","LANE":"９１２巷","ALLEY":" ","HOUSE_NO":"４５號五樓之３","E_COORD97":170540.23999999999,"N_COORD97":2546763.96,"ADDRESS":"中華路９１２巷４５號五樓之３","OBJECTID":431463},"geometry":{"x":170540.24000000115,"y":2546763.9600000009}},{"attributes":{"ID":431489,"DIS_CODE":0,"TOWNNAME":"永康區","LI":"\u25A0行里","LIN":"20鄰","STREET":"正南五街","SECT":" ","MAREA":" ","LANE":"２８９巷","ALLEY":" ","HOUSE_NO":"１０８號二樓","E_COORD97":171829.32999999999,"N_COORD97":2548314.3700000001,"ADDRESS":"正南五街２８９巷１０８號二樓","OBJECTID":431464},"geometry":{"x":171829.33000000101,"y":2548314.370000001}},{"attributes":{"ID":431490,"DIS_CODE":0,"TOWNNAME":"永康區","LI":"勝利里","LIN":"39鄰","STREET":"勝華街","SECT":" ","MAREA":" ","LANE":"３７巷","ALLEY":" ","HOUSE_NO":"５６號七樓之２","E_COORD97":171422.64999999999,"N_COORD97":2545110.29,"ADDRESS":"勝華街３７巷５６號七樓之２","OBJECTID":431465},"geometry":{"x":171422.65000000037,"y":2545110.290000001}},{"attributes":{"ID":431491,"DIS_CODE":0,"TOWNNAME":"永康區","LI":"神洲里","LIN":"13鄰","STREET":"忠孝路","SECT":" ","MAREA":" ","LANE":"７６巷","ALLEY":" ","HOUSE_NO":"５１號二樓","E_COORD97":172272.85999999999,"N_COORD97":2544983.9500000002,"ADDRESS":"忠孝路７６巷５１號二樓","OBJECTID":431466},"geometry":{"x":172272.8600000022,"y":2544983.9500000011}},{"attributes":{"ID":431492,"DIS_CODE":0,"TOWNNAME":"永康區","LI":"大橋里","LIN":"4鄰","STREET":"大橋一街","SECT":" ","MAREA":" ","LANE":"２４７巷","ALLEY":" ","HOUSE_NO":"１６７號六樓之１","E_COORD97":171018.85000000001,"N_COORD97":2547037.52,"ADDRESS":"大橋一街２４７巷１６７號六樓之１","OBJECTID":431467},"geometry":{"x":171018.84999999963,"y":2547037.5199999977}},{"attributes":{"ID":431493,"DIS_CODE":0,"TOWNNAME":"永康區","LI":"西橋里","LIN":"4鄰","STREET":"中華西街","SECT":" ","MAREA":" ","LANE":"２１巷","ALLEY":" ","HOUSE_NO":"１５號六樓","E_COORD97":170766.26000000001,"N_COORD97":2545930.2599999998,"ADDRESS":"中華西街２１巷１５號六樓","OBJECTID":431468},"geometry":{"x":170766.26000000071,"y":2545930.2599999998}},{"attributes":{"ID":431494,"DIS_CODE":0,"TOWNNAME":"永康區","LI":"五王里","LIN":"4鄰","STREET":"中華二路","SECT":" ","MAREA":" ","LANE":"２０６巷","ALLEY":" ","HOUSE_NO":"４６號四樓之２","E_COORD97":171617.13,"N_COORD97":2545597.6800000002,"ADDRESS":"中華二路２０６巷４６號四樓之２","OBJECTID":431469},"geometry":{"x":171617.12999999989,"y":2545597.6799999997}},{"attributes":{"ID":431495,"DIS_CODE":0,"TOWNNAME":"永康區","LI":"五王里","LIN":"18鄰","STREET":"成功路","SECT":" ","MAREA":" ","LANE":"１８８巷","ALLEY":" ","HOUSE_NO":"２４號五樓","E_COORD97":171497.85999999999,"N_COORD97":2545704.02,"ADDRESS":"成功路１８８巷２４號五樓","OBJECTID":431470},"geometry":{"x":171497.86000000034,"y":2545704.0199999996}},{"attributes":{"ID":431496,"DIS_CODE":0,"TOWNNAME":"永康區","LI":"復國里","LIN":"25鄰","STREET":"復華三街","SECT":" ","MAREA":" ","LANE":"９０巷","ALLEY":" ","HOUSE_NO":"１６號六樓之３","E_COORD97":172656.19,"N_COORD97":2545612.7999999998,"ADDRESS":"復華三街９０巷１６號六樓之３","OBJECTID":431471},"geometry":{"x":172656.19000000134,"y":2545612.8000000007}},{"attributes":{"ID":431497,"DIS_CODE":0,"TOWNNAME":"永康區","LI":"\u25A0行里","LIN":"39鄰","STREET":"永安路","SECT":" ","MAREA":" ","LANE":"１０５巷","ALLEY":" ","HOUSE_NO":"１３號六樓","E_COORD97":172735.13,"N_COORD97":2549201.3799999999,"ADDRESS":"永安路１０５巷１３號六樓","OBJECTID":431472},"geometry":{"x":172735.13000000175,"y":2549201.3800000008}},{"attributes":{"ID":431498,"DIS_CODE":0,"TOWNNAME":"永康區","LI":"\u25A0行里","LIN":"39鄰","STREET":"永安路","SECT":" ","MAREA":" ","LANE":"１０５巷","ALLEY":" ","HOUSE_NO":"２７號六樓","E_COORD97":172727.92999999999,"N_COORD97":2549201.3799999999,"ADDRESS":"永安路１０５巷２７號六樓","OBJECTID":431473},"geometry":{"x":172727.93000000063,"y":2549201.3800000008}},{"attributes":{"ID":431499,"DIS_CODE":0,"TOWNNAME":"永康區","LI":"西灣里","LIN":"25鄰","STREET":"國光七街","SECT":" ","MAREA":" ","LANE":"２０巷","ALLEY":" ","HOUSE_NO":"１號四樓之４","E_COORD97":174313.35999999999,"N_COORD97":2545560.9300000002,"ADDRESS":"國光七街２０巷１號四樓之４","OBJECTID":431474},"geometry":{"x":174313.36000000034,"y":2545560.9300000016}},{"attributes":{"ID":431500,"DIS_CODE":0,"TOWNNAME":"永康區","LI":"尚頂里","LIN":"26鄰","STREET":"南台街","SECT":" ","MAREA":" ","LANE":"１０巷","ALLEY":" ","HOUSE_NO":"３號二樓之７","E_COORD97":170464.07000000001,"N_COORD97":2546989.4300000002,"ADDRESS":"南台街１０巷３號二樓之７","OBJECTID":431475},"geometry":{"x":170464.0700000003,"y":2546989.4299999997}},{"attributes":{"ID":431501,"DIS_CODE":0,"TOWNNAME":"永康區","LI":"五王里","LIN":"32鄰","STREET":"中華路","SECT":" ","MAREA":" ","LANE":"５７８巷","ALLEY":" ","HOUSE_NO":"２號七樓之５","E_COORD97":171285.03,"N_COORD97":2545927.0499999998,"ADDRESS":"中華路５７８巷２號七樓之５","OBJECTID":431476},"geometry":{"x":171285.03000000212,"y":2545927.0500000026}},{"attributes":{"ID":431502,"DIS_CODE":0,"TOWNNAME":"永康區","LI":"\u25A0行里","LIN":"39鄰","STREET":"永安路","SECT":" ","MAREA":" ","LANE":"１０５巷","ALLEY":" ","HOUSE_NO":"２３號四樓","E_COORD97":172727.29000000001,"N_COORD97":2549229.3799999999,"ADDRESS":"永安路１０５巷２３號四樓","OBJECTID":431477},"geometry":{"x":172727.28999999911,"y":2549229.3800000008}},{"attributes":{"ID":431503,"DIS_CODE":0,"TOWNNAME":"永康區","LI":"\u25A0行里","LIN":"20鄰","STREET":"正南五街","SECT":" ","MAREA":" ","LANE":"２８９巷","ALLEY":" ","HOUSE_NO":"７１號五樓","E_COORD97":171793.87,"N_COORD97":2548353.6099999999,"ADDRESS":"正南五街２８９巷７１號五樓","OBJECTID":431478},"geometry":{"x":171793.87000000011,"y":2548353.6100000013}},{"attributes":{"ID":431504,"DIS_CODE":0,"TOWNNAME":"永康區","LI":"五王里","LIN":"32鄰","STREET":"中華路","SECT":" ","MAREA":" ","LANE":"５７８巷","ALLEY":" ","HOUSE_NO":"２號之１七樓之１","E_COORD97":171237.89999999999,"N_COORD97":2545914.2999999998,"ADDRESS":"中華路５７８巷２號之１七樓之１","OBJECTID":431479},"geometry":{"x":171237.90000000037,"y":2545914.3000000007}},{"attributes":{"ID":431505,"DIS_CODE":0,"TOWNNAME":"永康區","LI":"復華里","LIN":"18鄰","STREET":"國華街","SECT":" ","MAREA":" ","LANE":"１０２巷","ALLEY":" ","HOUSE_NO":"５９號七樓之３","E_COORD97":172842.51000000001,"N_COORD97":2546109.02,"ADDRESS":"國華街１０２巷５９號七樓之３","OBJECTID":431480},"geometry":{"x":172842.51000000164,"y":2546109.0200000014}},{"attributes":{"ID":431506,"DIS_CODE":0,"TOWNNAME":"永康區","LI":"網寮里","LIN":"20鄰","STREET":"文化路","SECT":" ","MAREA":" ","LANE":"３２３巷","ALLEY":" ","HOUSE_NO":"３號二樓之１","E_COORD97":173433.95000000001,"N_COORD97":2546121.6099999999,"ADDRESS":"文化路３２３巷３號二樓之１","OBJECTID":431481},"geometry":{"x":173433.95000000112,"y":2546121.6100000031}},{"attributes":{"ID":431507,"DIS_CODE":0,"TOWNNAME":"永康區","LI":"\u25A0行里","LIN":"39鄰","STREET":"永安路","SECT":" ","MAREA":" ","LANE":"１０５巷","ALLEY":" ","HOUSE_NO":"１５號五樓","E_COORD97":172725.23000000001,"N_COORD97":2549284.1200000001,"ADDRESS":"永安路１０５巷１５號五樓","OBJECTID":431482},"geometry":{"x":172725.23000000138,"y":2549284.1200000029}},{"attributes":{"ID":431508,"DIS_CODE":0,"TOWNNAME":"玉井區","LI":"玉田里","LIN":"40鄰","STREET":"中山路","SECT":" ","MAREA":" ","LANE":" ","ALLEY":" ","HOUSE_NO":"２３０號","E_COORD97":195224.95999999999,"N_COORD97":2557727.75,"ADDRESS":"中山路２３０號","OBJECTID":431483},"geometry":{"x":195224.96000000089,"y":2557727.7500000019}},{"attributes":{"ID":431509,"DIS_CODE":0,"TOWNNAME":"永康區","LI":"復華里","LIN":"26鄰","STREET":"復華八街","SECT":" ","MAREA":" ","LANE":"４７巷","ALLEY":" ","HOUSE_NO":"３６號八樓之１","E_COORD97":172690.28,"N_COORD97":2546385.6800000002,"ADDRESS":"復華八街４７巷３６號八樓之１","OBJECTID":431484},"geometry":{"x":172690.27999999933,"y":2546385.6800000034}},{"attributes":{"ID":431510,"DIS_CODE":0,"TOWNNAME":"永康區","LI":"復國里","LIN":"25鄰","STREET":"復華三街","SECT":" ","MAREA":" ","LANE":"９０巷","ALLEY":" ","HOUSE_NO":"１６號十一樓之５","E_COORD97":172657.5,"N_COORD97":2545612.7999999998,"ADDRESS":"復華三街９０巷１６號十一樓之５","OBJECTID":431485},"geometry":{"x":172657.5,"y":2545612.8000000007}},{"attributes":{"ID":431511,"DIS_CODE":0,"TOWNNAME":"永康區","LI":"西橋里","LIN":"13鄰","STREET":"大橋三街","SECT":" ","MAREA":" ","LANE":"１０巷","ALLEY":" ","HOUSE_NO":"１８號六樓之２","E_COORD97":170554.57000000001,"N_COORD97":2546323.0499999998,"ADDRESS":"大橋三街１０巷１８號六樓之２","OBJECTID":431486},"geometry":{"x":170554.57000000123,"y":2546323.0500000007}},{"attributes":{"ID":431512,"DIS_CODE":0,"TOWNNAME":"永康區","LI":"網寮里","LIN":"20鄰","STREET":"文化路","SECT":" ","MAREA":" ","LANE":"３２３巷","ALLEY":" ","HOUSE_NO":"７號三樓之２","E_COORD97":173450.39000000001,"N_COORD97":2546115.3599999999,"ADDRESS":"文化路３２３巷７號三樓之２","OBJECTID":431487},"geometry":{"x":173450.3900000006,"y":2546115.3599999994}},{"attributes":{"ID":431513,"DIS_CODE":0,"TOWNNAME":"永康區","LI":"\u25A0行里","LIN":"20鄰","STREET":"正南五街","SECT":" ","MAREA":" ","LANE":"２８９巷","ALLEY":" ","HOUSE_NO":"６９號五樓","E_COORD97":171801.29999999999,"N_COORD97":2548358.3599999999,"ADDRESS":"正南五街２８９巷６９號五樓","OBJECTID":431488},"geometry":{"x":171801.29999999981,"y":2548358.3600000013}},{"attributes":{"ID":431514,"DIS_CODE":0,"TOWNNAME":"永康區","LI":"\u25A0行里","LIN":"39鄰","STREET":"永安路","SECT":" ","MAREA":" ","LANE":"１０５巷","ALLEY":" ","HOUSE_NO":"１７號四樓","E_COORD97":172726.25,"N_COORD97":2549269.8700000001,"ADDRESS":"永安路１０５巷１７號四樓","OBJECTID":431489},"geometry":{"x":172726.25000000093,"y":2549269.870000001}},{"attributes":{"ID":431515,"DIS_CODE":0,"TOWNNAME":"永康區","LI":"\u25A0行里","LIN":"39鄰","STREET":"永安路","SECT":" ","MAREA":" ","LANE":"１０５巷","ALLEY":" ","HOUSE_NO":"２７號五樓","E_COORD97":172727.92999999999,"N_COORD97":2549201.3799999999,"ADDRESS":"永安路１０５巷２７號五樓","OBJECTID":431490},"geometry":{"x":172727.93000000063,"y":2549201.3800000008}},{"attributes":{"ID":431516,"DIS_CODE":0,"TOWNNAME":"永康區","LI":"三合里","LIN":"18鄰","STREET":"南工街","SECT":" ","MAREA":" ","LANE":"２６７巷","ALLEY":" ","HOUSE_NO":"１５號三樓之１","E_COORD97":171894.07999999999,"N_COORD97":2545911.0499999998,"ADDRESS":"南工街２６７巷１５號三樓之１","OBJECTID":431491},"geometry":{"x":171894.08000000007,"y":2545911.0500000026}},{"attributes":{"ID":431517,"DIS_CODE":0,"TOWNNAME":"永康區","LI":"\u25A0行里","LIN":"20鄰","STREET":"正南五街","SECT":" ","MAREA":" ","LANE":"２８９巷","ALLEY":" ","HOUSE_NO":"６１號二樓","E_COORD97":171787.85000000001,"N_COORD97":2548363.1099999999,"ADDRESS":"正南五街２８９巷６１號二樓","OBJECTID":431492},"geometry":{"x":171787.85000000056,"y":2548363.1100000013}},{"attributes":{"ID":431518,"DIS_CODE":0,"TOWNNAME":"永康區","LI":"復國里","LIN":"25鄰","STREET":"復華三街","SECT":" ","MAREA":" ","LANE":"９０巷","ALLEY":" ","HOUSE_NO":"１６號十六樓之５","E_COORD97":172657.5,"N_COORD97":2545612.7999999998,"ADDRESS":"復華三街９０巷１６號十六樓之５","OBJECTID":431493},"geometry":{"x":172657.5,"y":2545612.8000000007}},{"attributes":{"ID":431519,"DIS_CODE":0,"TOWNNAME":"永康區","LI":"\u25A0行里","LIN":"20鄰","STREET":"正南五街","SECT":" ","MAREA":" ","LANE":"２８９巷","ALLEY":" ","HOUSE_NO":"８３號五樓","E_COORD97":171799.20999999999,"N_COORD97":2548345.3599999999,"ADDRESS":"正南五街２８９巷８３號五樓","OBJECTID":431494},"geometry":{"x":171799.21000000089,"y":2548345.3600000013}},{"attributes":{"ID":431520,"DIS_CODE":0,"TOWNNAME":"永康區","LI":"復華里","LIN":"26鄰","STREET":"復華八街","SECT":" ","MAREA":" ","LANE":"４７巷","ALLEY":" ","HOUSE_NO":"３６號三樓之２","E_COORD97":172690.41,"N_COORD97":2546385.6800000002,"ADDRESS":"復華八街４７巷３６號三樓之２","OBJECTID":431495},"geometry":{"x":172690.41000000015,"y":2546385.6800000034}},{"attributes":{"ID":431521,"DIS_CODE":0,"TOWNNAME":"永康區","LI":"復國里","LIN":"25鄰","STREET":"復華三街","SECT":" ","MAREA":" ","LANE":"９０巷","ALLEY":" ","HOUSE_NO":"１６號七樓之４","E_COORD97":172656.12,"N_COORD97":2545612.7999999998,"ADDRESS":"復華三街９０巷１６號七樓之４","OBJECTID":431496},"geometry":{"x":172656.12000000104,"y":2545612.8000000007}},{"attributes":{"ID":431522,"DIS_CODE":0,"TOWNNAME":"永康區","LI":"復國里","LIN":"25鄰","STREET":"復華三街","SECT":" ","MAREA":" ","LANE":"９０巷","ALLEY":" ","HOUSE_NO":"１８號十七樓之５","E_COORD97":172640.95000000001,"N_COORD97":2545614.2999999998,"ADDRESS":"復華三街９０巷１８號十七樓之５","OBJECTID":431497},"geometry":{"x":172640.95000000019,"y":2545614.3000000026}},{"attributes":{"ID":431523,"DIS_CODE":0,"TOWNNAME":"永康區","LI":"網寮里","LIN":"20鄰","STREET":"文化路","SECT":" ","MAREA":" ","LANE":"３２３巷","ALLEY":" ","HOUSE_NO":"１號五樓之２","E_COORD97":173432.57000000001,"N_COORD97":2546130.1099999999,"ADDRESS":"文化路３２３巷１號五樓之２","OBJECTID":431498},"geometry":{"x":173432.57000000216,"y":2546130.1099999994}},{"attributes":{"ID":431524,"DIS_CODE":0,"TOWNNAME":"永康區","LI":"復華里","LIN":"26鄰","STREET":"復華八街","SECT":" ","MAREA":" ","LANE":"４７巷","ALLEY":" ","HOUSE_NO":"３４號六樓之６","E_COORD97":172703.13,"N_COORD97":2546385.9500000002,"ADDRESS":"復華八街４７巷３４號六樓之６","OBJECTID":431499},"geometry":{"x":172703.13000000082,"y":2546385.9499999993}},{"attributes":{"ID":431525,"DIS_CODE":0,"TOWNNAME":"永康區","LI":"網寮里","LIN":"26鄰","STREET":"永大一路","SECT":" ","MAREA":" ","LANE":"１０８巷","ALLEY":" ","HOUSE_NO":"２３號八樓之４","E_COORD97":174019.64000000001,"N_COORD97":2546467.1699999999,"ADDRESS":"永大一路１０８巷２３號八樓之４","OBJECTID":431500},"geometry":{"x":174019.63999999873,"y":2546467.1699999999}},{"attributes":{"ID":431526,"DIS_CODE":0,"TOWNNAME":"永康區","LI":"復國里","LIN":"25鄰","STREET":"復華三街","SECT":" ","MAREA":" ","LANE":"９０巷","ALLEY":" ","HOUSE_NO":"１６號十一樓之４","E_COORD97":172657.37,"N_COORD97":2545612.7999999998,"ADDRESS":"復華三街９０巷１６號十一樓之４","OBJECTID":431501},"geometry":{"x":172657.37000000197,"y":2545612.8000000007}},{"attributes":{"ID":431527,"DIS_CODE":0,"TOWNNAME":"永康區","LI":"龍潭里","LIN":"43鄰","STREET":"國民路","SECT":" ","MAREA":" ","LANE":"２３１巷","ALLEY":" ","HOUSE_NO":"２９號二樓","E_COORD97":174596.67000000001,"N_COORD97":2547024.27,"ADDRESS":"國民路２３１巷２９號二樓","OBJECTID":431502},"geometry":{"x":174596.67000000086,"y":2547024.2699999996}},{"attributes":{"ID":431528,"DIS_CODE":0,"TOWNNAME":"永康區","LI":"復華里","LIN":"38鄰","STREET":"復華七街","SECT":" ","MAREA":" ","LANE":"３２巷","ALLEY":" ","HOUSE_NO":"４１號四樓之１","E_COORD97":172737.76000000001,"N_COORD97":2545897.0499999998,"ADDRESS":"復華七街３２巷４１號四樓之１","OBJECTID":431503},"geometry":{"x":172737.76000000071,"y":2545897.0500000026}},{"attributes":{"ID":431529,"DIS_CODE":0,"TOWNNAME":"永康區","LI":"網寮里","LIN":"20鄰","STREET":"文化路","SECT":" ","MAREA":" ","LANE":"３２３巷","ALLEY":" ","HOUSE_NO":"１號七樓之２","E_COORD97":173432.57000000001,"N_COORD97":2546130.1099999999,"ADDRESS":"文化路３２３巷１號七樓之２","OBJECTID":431504},"geometry":{"x":173432.57000000216,"y":2546130.1099999994}},{"attributes":{"ID":431530,"DIS_CODE":0,"TOWNNAME":"永康區","LI":"復華里","LIN":"26鄰","STREET":"復華八街","SECT":" ","MAREA":" ","LANE":"４７巷","ALLEY":" ","HOUSE_NO":"３４號十樓之６","E_COORD97":172703.13,"N_COORD97":2546385.9500000002,"ADDRESS":"復華八街４７巷３４號十樓之６","OBJECTID":431505},"geometry":{"x":172703.13000000082,"y":2546385.9499999993}},{"attributes":{"ID":431531,"DIS_CODE":0,"TOWNNAME":"永康區","LI":"龍潭里","LIN":"43鄰","STREET":"國民路","SECT":" ","MAREA":" ","LANE":"２３１巷","ALLEY":" ","HOUSE_NO":"５１號三樓","E_COORD97":174613.20999999999,"N_COORD97":2547011.0699999998,"ADDRESS":"國民路２３１巷５１號三樓","OBJECTID":431506},"geometry":{"x":174613.21000000089,"y":2547011.070000004}},{"attributes":{"ID":431532,"DIS_CODE":0,"TOWNNAME":"永康區","LI":"網寮里","LIN":"20鄰","STREET":"文化路","SECT":" ","MAREA":" ","LANE":"３２３巷","ALLEY":" ","HOUSE_NO":"３號四樓之１","E_COORD97":173433.95000000001,"N_COORD97":2546121.6099999999,"ADDRESS":"文化路３２３巷３號四樓之１","OBJECTID":431507},"geometry":{"x":173433.95000000112,"y":2546121.6100000031}},{"attributes":{"ID":431533,"DIS_CODE":0,"TOWNNAME":"永康區","LI":"龍潭里","LIN":"34鄰","STREET":"龍埔街","SECT":" ","MAREA":" ","LANE":"１３９巷","ALLEY":" ","HOUSE_NO":"６號一樓之３","E_COORD97":174536.95000000001,"N_COORD97":2548220.8100000001,"ADDRESS":"龍埔街１３９巷６號一樓之３","OBJECTID":431508},"geometry":{"x":174536.95000000205,"y":2548220.8100000024}},{"attributes":{"ID":431534,"DIS_CODE":0,"TOWNNAME":"永康區","LI":"復華里","LIN":"38鄰","STREET":"復華七街","SECT":" ","MAREA":" ","LANE":"３２巷","ALLEY":" ","HOUSE_NO":"４１號八樓之１","E_COORD97":172737.76000000001,"N_COORD97":2545897.0499999998,"ADDRESS":"復華七街３２巷４１號八樓之１","OBJECTID":431509},"geometry":{"x":172737.76000000071,"y":2545897.0500000026}},{"attributes":{"ID":431535,"DIS_CODE":0,"TOWNNAME":"永康區","LI":"\u25A0行里","LIN":"20鄰","STREET":"正南五街","SECT":" ","MAREA":" ","LANE":"２８９巷","ALLEY":" ","HOUSE_NO":"９２號五樓","E_COORD97":171812.85000000001,"N_COORD97":2548309.8700000001,"ADDRESS":"正南五街２８９巷９２號五樓","OBJECTID":431510},"geometry":{"x":171812.85000000149,"y":2548309.8700000029}},{"attributes":{"ID":431536,"DIS_CODE":0,"TOWNNAME":"永康區","LI":"復華里","LIN":"26鄰","STREET":"復華八街","SECT":" ","MAREA":" ","LANE":"４７巷","ALLEY":" ","HOUSE_NO":"３６號二樓之１","E_COORD97":172690.28,"N_COORD97":2546385.6800000002,"ADDRESS":"復華八街４７巷３６號二樓之１","OBJECTID":431511},"geometry":{"x":172690.27999999933,"y":2546385.6800000034}},{"attributes":{"ID":431537,"DIS_CODE":0,"TOWNNAME":"永康區","LI":"復華里","LIN":"26鄰","STREET":"復華八街","SECT":" ","MAREA":" ","LANE":"４７巷","ALLEY":" ","HOUSE_NO":"３４號八樓之２","E_COORD97":172703.16,"N_COORD97":2546385.9500000002,"ADDRESS":"復華八街４７巷３４號八樓之２","OBJECTID":431512},"geometry":{"x":172703.16000000108,"y":2546385.9499999993}},{"attributes":{"ID":431538,"DIS_CODE":0,"TOWNNAME":"永康區","LI":"二王里","LIN":"41鄰","STREET":"中山南路","SECT":" ","MAREA":" ","LANE":"３１６巷","ALLEY":" ","HOUSE_NO":"１２號三樓之１","E_COORD97":171993.39999999999,"N_COORD97":2546163.0299999998,"ADDRESS":"中山南路３１６巷１２號三樓之１","OBJECTID":431513},"geometry":{"x":171993.4000000013,"y":2546163.0300000012}},{"attributes":{"ID":431539,"DIS_CODE":0,"TOWNNAME":"永康區","LI":"勝利里","LIN":"40鄰","STREET":"中華一路","SECT":" ","MAREA":" ","LANE":"１８２巷","ALLEY":" ","HOUSE_NO":"４號三樓之２","E_COORD97":171533.60000000001,"N_COORD97":2545051.54,"ADDRESS":"中華一路１８２巷４號三樓之２","OBJECTID":431514},"geometry":{"x":171533.60000000056,"y":2545051.540000001}},{"attributes":{"ID":431540,"DIS_CODE":0,"TOWNNAME":"永康區","LI":"復國里","LIN":"24鄰","STREET":"復華三街","SECT":" ","MAREA":" ","LANE":"９０巷","ALLEY":" ","HOUSE_NO":"１２號十二樓之１","E_COORD97":172643.89999999999,"N_COORD97":2545582.2999999998,"ADDRESS":"復華三街９０巷１２號十二樓之１","OBJECTID":431515},"geometry":{"x":172643.90000000224,"y":2545582.3000000007}},{"attributes":{"ID":431541,"DIS_CODE":0,"TOWNNAME":"永康區","LI":"復國里","LIN":"25鄰","STREET":"復華三街","SECT":" ","MAREA":" ","LANE":"９０巷","ALLEY":" ","HOUSE_NO":"１６號十二樓之３","E_COORD97":172657.44,"N_COORD97":2545612.7999999998,"ADDRESS":"復華三街９０巷１６號十二樓之３","OBJECTID":431516},"geometry":{"x":172657.44000000134,"y":2545612.8000000007}},{"attributes":{"ID":431542,"DIS_CODE":0,"TOWNNAME":"永康區","LI":"龍潭里","LIN":"32鄰","STREET":"龍國街","SECT":" ","MAREA":" ","LANE":"２４０巷","ALLEY":" ","HOUSE_NO":"２６號二樓","E_COORD97":174478.67000000001,"N_COORD97":2547950.3599999999,"ADDRESS":"龍國街２４０巷２６號二樓","OBJECTID":431517},"geometry":{"x":174478.66999999993,"y":2547950.3599999975}},{"attributes":{"ID":431543,"DIS_CODE":0,"TOWNNAME":"永康區","LI":"網寮里","LIN":"26鄰","STREET":"永大一路","SECT":" ","MAREA":" ","LANE":"１０８巷","ALLEY":" ","HOUSE_NO":"２１號二樓之２","E_COORD97":174022.76000000001,"N_COORD97":2546453.4300000002,"ADDRESS":"永大一路１０８巷２１號二樓之２","OBJECTID":431518},"geometry":{"x":174022.76000000071,"y":2546453.4300000016}},{"attributes":{"ID":431544,"DIS_CODE":0,"TOWNNAME":"永康區","LI":"崑山里","LIN":"41鄰","STREET":"國光五街","SECT":" ","MAREA":" ","LANE":"６３巷","ALLEY":" ","HOUSE_NO":"１號五樓","E_COORD97":173996.66,"N_COORD97":2545062.7599999998,"ADDRESS":"國光五街６３巷１號五樓","OBJECTID":431519},"geometry":{"x":173996.66000000108,"y":2545062.7599999998}},{"attributes":{"ID":431545,"DIS_CODE":0,"TOWNNAME":"永康區","LI":"崑山里","LIN":"20鄰","STREET":"崑山街","SECT":" ","MAREA":" ","LANE":"２１巷","ALLEY":" ","HOUSE_NO":"１９號四樓之２","E_COORD97":173867.89000000001,"N_COORD97":2544557.3599999999,"ADDRESS":"崑山街２１巷１９號四樓之２","OBJECTID":431520},"geometry":{"x":173867.8900000006,"y":2544557.3600000013}},{"attributes":{"ID":431546,"DIS_CODE":0,"TOWNNAME":"永康區","LI":"網寮里","LIN":"26鄰","STREET":"永大一路","SECT":" ","MAREA":" ","LANE":"１０８巷","ALLEY":" ","HOUSE_NO":"２３號六樓之４","E_COORD97":174019.64000000001,"N_COORD97":2546467.1699999999,"ADDRESS":"永大一路１０８巷２３號六樓之４","OBJECTID":431521},"geometry":{"x":174019.63999999873,"y":2546467.1699999999}},{"attributes":{"ID":431547,"DIS_CODE":0,"TOWNNAME":"永康區","LI":"復華里","LIN":"26鄰","STREET":"復華八街","SECT":" ","MAREA":" ","LANE":"４７巷","ALLEY":" ","HOUSE_NO":"３６號四樓之５","E_COORD97":172690.42999999999,"N_COORD97":2546385.6800000002,"ADDRESS":"復華八街４７巷３６號四樓之５","OBJECTID":431522},"geometry":{"x":172690.43000000156,"y":2546385.6800000034}},{"attributes":{"ID":431548,"DIS_CODE":0,"TOWNNAME":"永康區","LI":"復國里","LIN":"25鄰","STREET":"復華三街","SECT":" ","MAREA":" ","LANE":"９０巷","ALLEY":" ","HOUSE_NO":"１６號十七樓之４","E_COORD97":172657.37,"N_COORD97":2545612.7999999998,"ADDRESS":"復華三街９０巷１６號十七樓之４","OBJECTID":431523},"geometry":{"x":172657.37000000197,"y":2545612.8000000007}},{"attributes":{"ID":431549,"DIS_CODE":0,"TOWNNAME":"永康區","LI":"復國里","LIN":"25鄰","STREET":"復華三街","SECT":" ","MAREA":" ","LANE":"９０巷","ALLEY":" ","HOUSE_NO":"１６號十樓之４","E_COORD97":172656.12,"N_COORD97":2545612.7999999998,"ADDRESS":"復華三街９０巷１６號十樓之４","OBJECTID":431524},"geometry":{"x":172656.12000000104,"y":2545612.8000000007}},{"attributes":{"ID":431550,"DIS_CODE":0,"TOWNNAME":"永康區","LI":"勝利里","LIN":"39鄰","STREET":"勝華街","SECT":" ","MAREA":" ","LANE":"３７巷","ALLEY":" ","HOUSE_NO":"５６號四樓之５","E_COORD97":171422.67000000001,"N_COORD97":2545110.29,"ADDRESS":"勝華街３７巷５６號四樓之５","OBJECTID":431525},"geometry":{"x":171422.66999999899,"y":2545110.290000001}},{"attributes":{"ID":431551,"DIS_CODE":0,"TOWNNAME":"永康區","LI":"復華里","LIN":"18鄰","STREET":"國華街","SECT":" ","MAREA":" ","LANE":"１０２巷","ALLEY":" ","HOUSE_NO":"５９號九樓之１","E_COORD97":172842.41,"N_COORD97":2546109.02,"ADDRESS":"國華街１０２巷５９號九樓之１","OBJECTID":431526},"geometry":{"x":172842.41000000108,"y":2546109.0200000014}},{"attributes":{"ID":431552,"DIS_CODE":0,"TOWNNAME":"永康區","LI":"五王里","LIN":"32鄰","STREET":"中華路","SECT":" ","MAREA":" ","LANE":"５７８巷","ALLEY":" ","HOUSE_NO":"２號之３三樓之２","E_COORD97":171247.87,"N_COORD97":2545918.5499999998,"ADDRESS":"中華路５７８巷２號之３三樓之２","OBJECTID":431527},"geometry":{"x":171247.87000000011,"y":2545918.5500000007}},{"attributes":{"ID":431553,"DIS_CODE":0,"TOWNNAME":"永康區","LI":"永康里","LIN":"42鄰","STREET":"永信路","SECT":" ","MAREA":" ","LANE":"５８巷","ALLEY":" ","HOUSE_NO":"１２號二樓","E_COORD97":174186.45999999999,"N_COORD97":2546499,"ADDRESS":"永信路５８巷１２號二樓","OBJECTID":431528},"geometry":{"x":174186.46000000089,"y":2546498.9999999981}},{"attributes":{"ID":431554,"DIS_CODE":0,"TOWNNAME":"永康區","LI":"五王里","LIN":"41鄰","STREET":"中山南路","SECT":" ","MAREA":" ","LANE":"２６２巷","ALLEY":" ","HOUSE_NO":"２號九樓之１７","E_COORD97":171550.53,"N_COORD97":2546054.6200000001,"ADDRESS":"中山南路２６２巷２號九樓之１７","OBJECTID":431529},"geometry":{"x":171550.53000000026,"y":2546054.620000001}},{"attributes":{"ID":431555,"DIS_CODE":0,"TOWNNAME":"永康區","LI":"西灣里","LIN":"25鄰","STREET":"國光七街","SECT":" ","MAREA":" ","LANE":"２０巷","ALLEY":" ","HOUSE_NO":"１號六樓之１","E_COORD97":174313.32999999999,"N_COORD97":2545560.9300000002,"ADDRESS":"國光七街２０巷１號六樓之１","OBJECTID":431530},"geometry":{"x":174313.33000000007,"y":2545560.9300000016}},{"attributes":{"ID":431556,"DIS_CODE":0,"TOWNNAME":"永康區","LI":"五王里","LIN":"32鄰","STREET":"中華路","SECT":" ","MAREA":" ","LANE":"５７８巷","ALLEY":" ","HOUSE_NO":"２號之２八樓之１","E_COORD97":171242.57999999999,"N_COORD97":2545916.0499999998,"ADDRESS":"中華路５７８巷２號之２八樓之１","OBJECTID":431531},"geometry":{"x":171242.58000000101,"y":2545916.0500000007}},{"attributes":{"ID":431557,"DIS_CODE":0,"TOWNNAME":"永康區","LI":"永康里","LIN":"41鄰","STREET":"永福街","SECT":" ","MAREA":" ","LANE":"９７巷","ALLEY":" ","HOUSE_NO":"１０號十樓之５","E_COORD97":174257.87,"N_COORD97":2546628.23,"ADDRESS":"永福街９７巷１０號十樓之５","OBJECTID":431532},"geometry":{"x":174257.87000000104,"y":2546628.2300000023}},{"attributes":{"ID":431558,"DIS_CODE":0,"TOWNNAME":"永康區","LI":"永康里","LIN":"41鄰","STREET":"永福街","SECT":" ","MAREA":" ","LANE":"９７巷","ALLEY":" ","HOUSE_NO":"１０號九樓之３","E_COORD97":174257.81,"N_COORD97":2546628.23,"ADDRESS":"永福街９７巷１０號九樓之３","OBJECTID":431533},"geometry":{"x":174257.81000000052,"y":2546628.2300000023}},{"attributes":{"ID":431559,"DIS_CODE":0,"TOWNNAME":"永康區","LI":"永康里","LIN":"36鄰","STREET":"永平街","SECT":" ","MAREA":" ","LANE":"５６巷","ALLEY":" ","HOUSE_NO":"２號六樓之６","E_COORD97":174356.54999999999,"N_COORD97":2546819.5499999998,"ADDRESS":"永平街５６巷２號六樓之６","OBJECTID":431534},"geometry":{"x":174356.55000000075,"y":2546819.5500000026}},{"attributes":{"ID":431560,"DIS_CODE":0,"TOWNNAME":"永康區","LI":"西灣里","LIN":"42鄰","STREET":"大灣路","SECT":" ","MAREA":" ","LANE":"９４２巷","ALLEY":" ","HOUSE_NO":"４９９號三樓之１","E_COORD97":173959.20999999999,"N_COORD97":2545486.4399999999,"ADDRESS":"大灣路９４２巷４９９號三樓之１","OBJECTID":431535},"geometry":{"x":173959.21000000089,"y":2545486.4400000013}},{"attributes":{"ID":431561,"DIS_CODE":0,"TOWNNAME":"永康區","LI":"五王里","LIN":"41鄰","STREET":"中山南路","SECT":" ","MAREA":" ","LANE":"２６２巷","ALLEY":" ","HOUSE_NO":"２號八樓之１２","E_COORD97":171550.57999999999,"N_COORD97":2546054.6200000001,"ADDRESS":"中山南路２６２巷２號八樓之１２","OBJECTID":431536},"geometry":{"x":171550.57999999914,"y":2546054.620000001}},{"attributes":{"ID":431562,"DIS_CODE":0,"TOWNNAME":"永康區","LI":"尚頂里","LIN":"26鄰","STREET":"南台街","SECT":" ","MAREA":" ","LANE":"１０巷","ALLEY":" ","HOUSE_NO":"３號四樓之１","E_COORD97":170463.98999999999,"N_COORD97":2546989.4300000002,"ADDRESS":"南台街１０巷３號四樓之１","OBJECTID":431537},"geometry":{"x":170463.99000000022,"y":2546989.4299999997}},{"attributes":{"ID":431563,"DIS_CODE":0,"TOWNNAME":"永康區","LI":"\u25A0行里","LIN":"39鄰","STREET":"永安路","SECT":" ","MAREA":" ","LANE":"１０５巷","ALLEY":" ","HOUSE_NO":"９號六樓","E_COORD97":172732.59,"N_COORD97":2549229.3799999999,"ADDRESS":"永安路１０５巷９號六樓","OBJECTID":431538},"geometry":{"x":172732.59000000078,"y":2549229.3800000008}},{"attributes":{"ID":431564,"DIS_CODE":0,"TOWNNAME":"永康區","LI":"五王里","LIN":"32鄰","STREET":"中華路","SECT":" ","MAREA":" ","LANE":"５７８巷","ALLEY":" ","HOUSE_NO":"２號二樓之５","E_COORD97":171285.03,"N_COORD97":2545927.0499999998,"ADDRESS":"中華路５７８巷２號二樓之５","OBJECTID":431539},"geometry":{"x":171285.03000000212,"y":2545927.0500000026}},{"attributes":{"ID":431565,"DIS_CODE":0,"TOWNNAME":"七股區","LI":"樹林里","LIN":"11鄰","STREET":" ","SECT":" ","MAREA":"樹林","LANE":" ","ALLEY":" ","HOUSE_NO":"９８號之１","E_COORD97":164138.264884,"N_COORD97":2556872.5849600001,"ADDRESS":"樹林９８號之１","OBJECTID":431540},"geometry":{"x":164138.26488400064,"y":2556872.5849619992}},{"attributes":{"ID":431566,"DIS_CODE":0,"TOWNNAME":"永康區","LI":"五王里","LIN":"32鄰","STREET":"中華路","SECT":" ","MAREA":" ","LANE":"５７８巷","ALLEY":" ","HOUSE_NO":"２號之１五樓之１","E_COORD97":171237.89999999999,"N_COORD97":2545914.2999999998,"ADDRESS":"中華路５７８巷２號之１五樓之１","OBJECTID":431541},"geometry":{"x":171237.90000000037,"y":2545914.3000000007}},{"attributes":{"ID":431567,"DIS_CODE":0,"TOWNNAME":"永康區","LI":"大橋里","LIN":"4鄰","STREET":"大橋一街","SECT":" ","MAREA":" ","LANE":"２４７巷","ALLEY":" ","HOUSE_NO":"１６５號二樓","E_COORD97":171015.01000000001,"N_COORD97":2547046.6200000001,"ADDRESS":"大橋一街２４７巷１６５號二樓","OBJECTID":431542},"geometry":{"x":171015.00999999978,"y":2547046.6200000029}},{"attributes":{"ID":431568,"DIS_CODE":0,"TOWNNAME":"永康區","LI":"五王里","LIN":"32鄰","STREET":"中華路","SECT":" ","MAREA":" ","LANE":"５７８巷","ALLEY":" ","HOUSE_NO":"２號四樓之１","E_COORD97":171284.88,"N_COORD97":2545927.0499999998,"ADDRESS":"中華路５７８巷２號四樓之１","OBJECTID":431543},"geometry":{"x":171284.87999999989,"y":2545927.0500000026}},{"attributes":{"ID":431569,"DIS_CODE":0,"TOWNNAME":"永康區","LI":"安康里","LIN":"24鄰","STREET":"中華路","SECT":" ","MAREA":" ","LANE":"７０３巷","ALLEY":" ","HOUSE_NO":"５０號五樓","E_COORD97":170772.51999999999,"N_COORD97":2546271,"ADDRESS":"中華路７０３巷５０號五樓","OBJECTID":431544},"geometry":{"x":170772.52000000142,"y":2546271}},{"attributes":{"ID":431570,"DIS_CODE":0,"TOWNNAME":"永康區","LI":"五王里","LIN":"18鄰","STREET":"成功路","SECT":" ","MAREA":" ","LANE":"１８８巷","ALLEY":" ","HOUSE_NO":"２號四樓之９","E_COORD97":171440.95000000001,"N_COORD97":2545664.04,"ADDRESS":"成功路１８８巷２號四樓之９","OBJECTID":431545},"geometry":{"x":171440.95000000019,"y":2545664.0400000028}},{"attributes":{"ID":431571,"DIS_CODE":0,"TOWNNAME":"永康區","LI":"三合里","LIN":"24鄰","STREET":"南工街","SECT":" ","MAREA":" ","LANE":"２６７巷","ALLEY":" ","HOUSE_NO":"４６號十一樓之６","E_COORD97":171856.60000000001,"N_COORD97":2545843.79,"ADDRESS":"南工街２６７巷４６號十一樓之６","OBJECTID":431546},"geometry":{"x":171856.59999999963,"y":2545843.7899999991}},{"attributes":{"ID":431572,"DIS_CODE":0,"TOWNNAME":"永康區","LI":"三合里","LIN":"24鄰","STREET":"南工街","SECT":" ","MAREA":" ","LANE":"２６７巷","ALLEY":" ","HOUSE_NO":"５８號七樓之６","E_COORD97":171830.60999999999,"N_COORD97":2545838.54,"ADDRESS":"南工街２６７巷５８號七樓之６","OBJECTID":431547},"geometry":{"x":171830.61000000127,"y":2545838.540000001}},{"attributes":{"ID":431573,"DIS_CODE":0,"TOWNNAME":"永康區","LI":"正強里","LIN":"32鄰","STREET":"四維街","SECT":" ","MAREA":" ","LANE":"５１巷","ALLEY":" ","HOUSE_NO":"５號七樓之３","E_COORD97":173382.56,"N_COORD97":2548047.1899999999,"ADDRESS":"四維街５１巷５號七樓之３","OBJECTID":431548},"geometry":{"x":173382.55999999959,"y":2548047.1900000013}},{"attributes":{"ID":431574,"DIS_CODE":0,"TOWNNAME":"永康區","LI":"五王里","LIN":"32鄰","STREET":"中華路","SECT":" ","MAREA":" ","LANE":"５７８巷","ALLEY":" ","HOUSE_NO":"２號三樓之６","E_COORD97":171284.98000000001,"N_COORD97":2545927.0499999998,"ADDRESS":"中華路５７８巷２號三樓之６","OBJECTID":431549},"geometry":{"x":171284.98000000045,"y":2545927.0500000026}},{"attributes":{"ID":431575,"DIS_CODE":0,"TOWNNAME":"永康區","LI":"西橋里","LIN":"4鄰","STREET":"中華西街","SECT":" ","MAREA":" ","LANE":"２１巷","ALLEY":" ","HOUSE_NO":"１７號二樓之１","E_COORD97":170777.75,"N_COORD97":2545919.5499999998,"ADDRESS":"中華西街２１巷１７號二樓之１","OBJECTID":431550},"geometry":{"x":170777.75,"y":2545919.5500000007}},{"attributes":{"ID":431576,"DIS_CODE":0,"TOWNNAME":"永康區","LI":"西灣里","LIN":"25鄰","STREET":"國光七街","SECT":" ","MAREA":" ","LANE":"２０巷","ALLEY":" ","HOUSE_NO":"１號五樓之３","E_COORD97":174313.42999999999,"N_COORD97":2545560.9300000002,"ADDRESS":"國光七街２０巷１號五樓之３","OBJECTID":431551},"geometry":{"x":174313.43000000063,"y":2545560.9300000016}},{"attributes":{"ID":431577,"DIS_CODE":0,"TOWNNAME":"永康區","LI":"永康里","LIN":"36鄰","STREET":"永平街","SECT":" ","MAREA":" ","LANE":"５６巷","ALLEY":" ","HOUSE_NO":"２號十七樓之８","E_COORD97":174357.85000000001,"N_COORD97":2546819.5499999998,"ADDRESS":"永平街５６巷２號十七樓之８","OBJECTID":431552},"geometry":{"x":174357.85000000056,"y":2546819.5500000026}},{"attributes":{"ID":431578,"DIS_CODE":0,"TOWNNAME":"永康區","LI":"五王里","LIN":"5鄰","STREET":"中華二路","SECT":" ","MAREA":" ","LANE":"２０６巷","ALLEY":" ","HOUSE_NO":"５８號五樓之２","E_COORD97":171610.89000000001,"N_COORD97":2545620.4399999999,"ADDRESS":"中華二路２０６巷５８號五樓之２","OBJECTID":431553},"geometry":{"x":171610.89000000153,"y":2545620.4399999995}},{"attributes":{"ID":431579,"DIS_CODE":0,"TOWNNAME":"永康區","LI":"\u25A0行里","LIN":"20鄰","STREET":"正南五街","SECT":" ","MAREA":" ","LANE":"２８９巷","ALLEY":" ","HOUSE_NO":"７６號七樓","E_COORD97":171802.54000000001,"N_COORD97":2548315.1200000001,"ADDRESS":"正南五街２８９巷７６號七樓","OBJECTID":431554},"geometry":{"x":171802.54000000097,"y":2548315.120000001}},{"attributes":{"ID":431580,"DIS_CODE":0,"TOWNNAME":"永康區","LI":"永康里","LIN":"41鄰","STREET":"永福街","SECT":" ","MAREA":" ","LANE":"９７巷","ALLEY":" ","HOUSE_NO":"１０號七樓之１","E_COORD97":174257.70999999999,"N_COORD97":2546628.23,"ADDRESS":"永福街９７巷１０號七樓之１","OBJECTID":431555},"geometry":{"x":174257.71000000089,"y":2546628.2300000023}},{"attributes":{"ID":431581,"DIS_CODE":0,"TOWNNAME":"永康區","LI":"五王里","LIN":"41鄰","STREET":"中山南路","SECT":" ","MAREA":" ","LANE":"２６２巷","ALLEY":" ","HOUSE_NO":"６號五樓之８","E_COORD97":171560.41,"N_COORD97":2546015.2000000002,"ADDRESS":"中山南路２６２巷６號五樓之８","OBJECTID":431556},"geometry":{"x":171560.41000000201,"y":2546015.1999999993}},{"attributes":{"ID":431582,"DIS_CODE":0,"TOWNNAME":"永康區","LI":"五王里","LIN":"4鄰","STREET":"中華二路","SECT":" ","MAREA":" ","LANE":"２０６巷","ALLEY":" ","HOUSE_NO":"４６號三樓之２","E_COORD97":171617.13,"N_COORD97":2545597.6800000002,"ADDRESS":"中華二路２０６巷４６號三樓之２","OBJECTID":431557},"geometry":{"x":171617.12999999989,"y":2545597.6799999997}},{"attributes":{"ID":431583,"DIS_CODE":0,"TOWNNAME":"永康區","LI":"正強里","LIN":"32鄰","STREET":"四維街","SECT":" ","MAREA":" ","LANE":"５１巷","ALLEY":" ","HOUSE_NO":"５號三樓之２","E_COORD97":173382.59,"N_COORD97":2548047.1899999999,"ADDRESS":"四維街５１巷５號三樓之２","OBJECTID":431558},"geometry":{"x":173382.58999999985,"y":2548047.1900000013}},{"attributes":{"ID":431584,"DIS_CODE":0,"TOWNNAME":"永康區","LI":"正強里","LIN":"32鄰","STREET":"四維街","SECT":" ","MAREA":" ","LANE":"５１巷","ALLEY":" ","HOUSE_NO":"５號二樓之３","E_COORD97":173382.56,"N_COORD97":2548047.1899999999,"ADDRESS":"四維街５１巷５號二樓之３","OBJECTID":431559},"geometry":{"x":173382.55999999959,"y":2548047.1900000013}},{"attributes":{"ID":431585,"DIS_CODE":0,"TOWNNAME":"永康區","LI":"五王里","LIN":"41鄰","STREET":"中山南路","SECT":" ","MAREA":" ","LANE":"２６２巷","ALLEY":" ","HOUSE_NO":"６號七樓之３","E_COORD97":171560.35999999999,"N_COORD97":2546015.2000000002,"ADDRESS":"中山南路２６２巷６號七樓之３","OBJECTID":431560},"geometry":{"x":171560.36000000034,"y":2546015.1999999993}},{"attributes":{"ID":431586,"DIS_CODE":0,"TOWNNAME":"永康區","LI":"五王里","LIN":"41鄰","STREET":"中山南路","SECT":" ","MAREA":" ","LANE":"２６２巷","ALLEY":" ","HOUSE_NO":"２號十一樓之３","E_COORD97":171550.54999999999,"N_COORD97":2546054.6200000001,"ADDRESS":"中山南路２６２巷２號十一樓之３","OBJECTID":431561},"geometry":{"x":171550.55000000168,"y":2546054.620000001}},{"attributes":{"ID":431587,"DIS_CODE":0,"TOWNNAME":"仁德區","LI":"太子里","LIN":"4鄰","STREET":"太子路","SECT":" ","MAREA":" ","LANE":"１９０巷","ALLEY":" ","HOUSE_NO":"３６號一樓","E_COORD97":174325.73999999999,"N_COORD97":2543684,"ADDRESS":"太子路１９０巷３６號一樓","OBJECTID":431562},"geometry":{"x":174325.74000000022,"y":2543684}},{"attributes":{"ID":431588,"DIS_CODE":0,"TOWNNAME":"仁德區","LI":"太子里","LIN":"4鄰","STREET":"太子路","SECT":" ","MAREA":" ","LANE":"１９０巷","ALLEY":" ","HOUSE_NO":"３１號五樓","E_COORD97":174310.39000000001,"N_COORD97":2543626.48,"ADDRESS":"太子路１９０巷３１號五樓","OBJECTID":431563},"geometry":{"x":174310.3900000006,"y":2543626.4800000023}},{"attributes":{"ID":431589,"DIS_CODE":0,"TOWNNAME":"仁德區","LI":"太子里","LIN":"4鄰","STREET":"太子路","SECT":" ","MAREA":" ","LANE":"１９０巷","ALLEY":" ","HOUSE_NO":"１８號三樓","E_COORD97":174327.85000000001,"N_COORD97":2543647.0099999998,"ADDRESS":"太子路１９０巷１８號三樓","OBJECTID":431564},"geometry":{"x":174327.84999999963,"y":2543647.0099999998}},{"attributes":{"ID":431590,"DIS_CODE":0,"TOWNNAME":"東區","LI":"路東里","LIN":"6鄰","STREET":"大同路","SECT":"二段","MAREA":" ","LANE":"６１巷","ALLEY":" ","HOUSE_NO":"１６號七樓","E_COORD97":169386.85999999999,"N_COORD97":2542216.9399999999,"ADDRESS":"大同路二段６１巷１６號七樓","OBJECTID":431565},"geometry":{"x":169386.86000000034,"y":2542216.9400000032}},{"attributes":{"ID":431591,"DIS_CODE":0,"TOWNNAME":"東區","LI":"路東里","LIN":"6鄰","STREET":"大同路","SECT":"二段","MAREA":" ","LANE":"６１巷","ALLEY":" ","HOUSE_NO":"１６號七樓之１","E_COORD97":169386.85999999999,"N_COORD97":2542216.9399999999,"ADDRESS":"大同路二段６１巷１６號七樓之１","OBJECTID":431566},"geometry":{"x":169386.86000000034,"y":2542216.9400000032}},{"attributes":{"ID":431592,"DIS_CODE":0,"TOWNNAME":"東區","LI":"路東里","LIN":"6鄰","STREET":"大同路","SECT":"二段","MAREA":" ","LANE":"６１巷","ALLEY":" ","HOUSE_NO":"１６號九樓","E_COORD97":169386.85999999999,"N_COORD97":2542216.9399999999,"ADDRESS":"大同路二段６１巷１６號九樓","OBJECTID":431567},"geometry":{"x":169386.86000000034,"y":2542216.9400000032}},{"attributes":{"ID":431593,"DIS_CODE":0,"TOWNNAME":"東區","LI":"路東里","LIN":"6鄰","STREET":"大同路","SECT":"二段","MAREA":" ","LANE":"６１巷","ALLEY":" ","HOUSE_NO":"１６號九樓之１","E_COORD97":169386.85999999999,"N_COORD97":2542216.9399999999,"ADDRESS":"大同路二段６１巷１６號九樓之１","OBJECTID":431568},"geometry":{"x":169386.86000000034,"y":2542216.9400000032}},{"attributes":{"ID":431594,"DIS_CODE":0,"TOWNNAME":"東區","LI":"路東里","LIN":"6鄰","STREET":"大同路","SECT":"二段","MAREA":" ","LANE":"６１巷","ALLEY":" ","HOUSE_NO":"１６號八樓","E_COORD97":169386.85999999999,"N_COORD97":2542216.9399999999,"ADDRESS":"大同路二段６１巷１６號八樓","OBJECTID":431569},"geometry":{"x":169386.86000000034,"y":2542216.9400000032}},{"attributes":{"ID":431595,"DIS_CODE":0,"TOWNNAME":"東區","LI":"路東里","LIN":"6鄰","STREET":"大同路","SECT":"二段","MAREA":" ","LANE":"６１巷","ALLEY":" ","HOUSE_NO":"１６號八樓之１","E_COORD97":169386.85999999999,"N_COORD97":2542216.9399999999,"ADDRESS":"大同路二段６１巷１６號八樓之１","OBJECTID":431570},"geometry":{"x":169386.86000000034,"y":2542216.9400000032}},{"attributes":{"ID":431596,"DIS_CODE":0,"TOWNNAME":"東區","LI":"路東里","LIN":"6鄰","STREET":"大同路","SECT":"二段","MAREA":" ","LANE":"６１巷","ALLEY":" ","HOUSE_NO":"１６號十一樓","E_COORD97":169386.85999999999,"N_COORD97":2542216.9399999999,"ADDRESS":"大同路二段６１巷１６號十一樓","OBJECTID":431571},"geometry":{"x":169386.86000000034,"y":2542216.9400000032}},{"attributes":{"ID":431597,"DIS_CODE":0,"TOWNNAME":"東區","LI":"路東里","LIN":"6鄰","STREET":"大同路","SECT":"二段","MAREA":" ","LANE":"６１巷","ALLEY":" ","HOUSE_NO":"１６號十一樓之１","E_COORD97":169386.85999999999,"N_COORD97":2542216.9399999999,"ADDRESS":"大同路二段６１巷１６號十一樓之１","OBJECTID":431572},"geometry":{"x":169386.86000000034,"y":2542216.9400000032}},{"attributes":{"ID":431598,"DIS_CODE":0,"TOWNNAME":"佳里區","LI":"鎮山里","LIN":"14鄰","STREET":"安南路","SECT":" ","MAREA":" ","LANE":"２巷","ALLEY":" ","HOUSE_NO":"１號","E_COORD97":166015.31,"N_COORD97":2561399.8300000001,"ADDRESS":"安南路２巷１號","OBJECTID":431573},"geometry":{"x":166015.30999999959,"y":2561399.8300000001}},{"attributes":{"ID":431599,"DIS_CODE":0,"TOWNNAME":"東區","LI":"路東里","LIN":"6鄰","STREET":"大同路","SECT":"二段","MAREA":" ","LANE":"６１巷","ALLEY":" ","HOUSE_NO":"１６號十二樓","E_COORD97":169386.85999999999,"N_COORD97":2542216.9399999999,"ADDRESS":"大同路二段６１巷１６號十二樓","OBJECTID":431574},"geometry":{"x":169386.86000000034,"y":2542216.9400000032}},{"attributes":{"ID":431600,"DIS_CODE":0,"TOWNNAME":"東區","LI":"路東里","LIN":"6鄰","STREET":"大同路","SECT":"二段","MAREA":" ","LANE":"６１巷","ALLEY":" ","HOUSE_NO":"１６號十二樓之１","E_COORD97":169386.85999999999,"N_COORD97":2542216.9399999999,"ADDRESS":"大同路二段６１巷１６號十二樓之１","OBJECTID":431575},"geometry":{"x":169386.86000000034,"y":2542216.9400000032}},{"attributes":{"ID":431601,"DIS_CODE":0,"TOWNNAME":"北區","LI":"賢北里","LIN":"4鄰","STREET":"中華北路","SECT":"一段","MAREA":" ","LANE":"１０５巷","ALLEY":" ","HOUSE_NO":"４６號七樓之２","E_COORD97":166368.51999999999,"N_COORD97":2545489.8199999998,"ADDRESS":"中華北路一段１０５巷４６號七樓之２","OBJECTID":431576},"geometry":{"x":166368.52000000048,"y":2545489.8200000003}},{"attributes":{"ID":431602,"DIS_CODE":0,"TOWNNAME":"北區","LI":"賢北里","LIN":"4鄰","STREET":"中華北路","SECT":"一段","MAREA":" ","LANE":"１０５巷","ALLEY":" ","HOUSE_NO":"４６號七樓之３","E_COORD97":166368.51999999999,"N_COORD97":2545489.8199999998,"ADDRESS":"中華北路一段１０５巷４６號七樓之３","OBJECTID":431577},"geometry":{"x":166368.52000000048,"y":2545489.8200000003}},{"attributes":{"ID":431603,"DIS_CODE":0,"TOWNNAME":"北區","LI":"賢北里","LIN":"4鄰","STREET":"中華北路","SECT":"一段","MAREA":" ","LANE":"１０５巷","ALLEY":" ","HOUSE_NO":"４６號七樓之１２","E_COORD97":166368.51999999999,"N_COORD97":2545489.8199999998,"ADDRESS":"中華北路一段１０５巷４６號七樓之１２","OBJECTID":431578},"geometry":{"x":166368.52000000048,"y":2545489.8200000003}},{"attributes":{"ID":431604,"DIS_CODE":0,"TOWNNAME":"北區","LI":"賢北里","LIN":"4鄰","STREET":"中華北路","SECT":"一段","MAREA":" ","LANE":"１０５巷","ALLEY":" ","HOUSE_NO":"４６號七樓之５","E_COORD97":166368.51999999999,"N_COORD97":2545489.8199999998,"ADDRESS":"中華北路一段１０５巷４６號七樓之５","OBJECTID":431579},"geometry":{"x":166368.52000000048,"y":2545489.8200000003}},{"attributes":{"ID":431605,"DIS_CODE":0,"TOWNNAME":"北區","LI":"賢北里","LIN":"4鄰","STREET":"中華北路","SECT":"一段","MAREA":" ","LANE":"１０５巷","ALLEY":" ","HOUSE_NO":"４６號七樓之６","E_COORD97":166368.51999999999,"N_COORD97":2545489.8199999998,"ADDRESS":"中華北路一段１０５巷４６號七樓之６","OBJECTID":431580},"geometry":{"x":166368.52000000048,"y":2545489.8200000003}},{"attributes":{"ID":431606,"DIS_CODE":0,"TOWNNAME":"北區","LI":"賢北里","LIN":"4鄰","STREET":"中華北路","SECT":"一段","MAREA":" ","LANE":"１０５巷","ALLEY":" ","HOUSE_NO":"４６號四樓之９","E_COORD97":166368.51999999999,"N_COORD97":2545489.8199999998,"ADDRESS":"中華北路一段１０５巷４６號四樓之９","OBJECTID":431581},"geometry":{"x":166368.52000000048,"y":2545489.8200000003}},{"attributes":{"ID":431607,"DIS_CODE":0,"TOWNNAME":"北區","LI":"賢北里","LIN":"6鄰","STREET":"中華北路","SECT":"一段","MAREA":" ","LANE":"１０５巷","ALLEY":" ","HOUSE_NO":"５０號七樓之１","E_COORD97":166395.47,"N_COORD97":2545527.0099999998,"ADDRESS":"中華北路一段１０５巷５０號七樓之１","OBJECTID":431582},"geometry":{"x":166395.46999999974,"y":2545527.0100000016}},{"attributes":{"ID":431608,"DIS_CODE":0,"TOWNNAME":"北區","LI":"賢北里","LIN":"6鄰","STREET":"中華北路","SECT":"一段","MAREA":" ","LANE":"１０５巷","ALLEY":" ","HOUSE_NO":"５０號七樓之２","E_COORD97":166395.47,"N_COORD97":2545527.0099999998,"ADDRESS":"中華北路一段１０５巷５０號七樓之２","OBJECTID":431583},"geometry":{"x":166395.46999999974,"y":2545527.0100000016}},{"attributes":{"ID":431609,"DIS_CODE":0,"TOWNNAME":"北區","LI":"賢北里","LIN":"6鄰","STREET":"中華北路","SECT":"一段","MAREA":" ","LANE":"１０５巷","ALLEY":" ","HOUSE_NO":"５０號七樓之３","E_COORD97":166395.47,"N_COORD97":2545527.0099999998,"ADDRESS":"中華北路一段１０５巷５０號七樓之３","OBJECTID":431584},"geometry":{"x":166395.46999999974,"y":2545527.0100000016}},{"attributes":{"ID":431610,"DIS_CODE":0,"TOWNNAME":"北區","LI":"賢北里","LIN":"6鄰","STREET":"中華北路","SECT":"一段","MAREA":" ","LANE":"１０５巷","ALLEY":" ","HOUSE_NO":"５０號七樓之４","E_COORD97":166395.47,"N_COORD97":2545527.0099999998,"ADDRESS":"中華北路一段１０５巷５０號七樓之４","OBJECTID":431585},"geometry":{"x":166395.46999999974,"y":2545527.0100000016}},{"attributes":{"ID":431611,"DIS_CODE":0,"TOWNNAME":"北區","LI":"賢北里","LIN":"6鄰","STREET":"中華北路","SECT":"一段","MAREA":" ","LANE":"１０５巷","ALLEY":" ","HOUSE_NO":"５０號七樓之５","E_COORD97":166395.47,"N_COORD97":2545527.0099999998,"ADDRESS":"中華北路一段１０５巷５０號七樓之５","OBJECTID":431586},"geometry":{"x":166395.46999999974,"y":2545527.0100000016}},{"attributes":{"ID":431612,"DIS_CODE":0,"TOWNNAME":"北區","LI":"賢北里","LIN":"6鄰","STREET":"中華北路","SECT":"一段","MAREA":" ","LANE":"１０５巷","ALLEY":" ","HOUSE_NO":"５０號七樓之６","E_COORD97":166395.47,"N_COORD97":2545527.0099999998,"ADDRESS":"中華北路一段１０５巷５０號七樓之６","OBJECTID":431587},"geometry":{"x":166395.46999999974,"y":2545527.0100000016}},{"attributes":{"ID":431613,"DIS_CODE":0,"TOWNNAME":"北區","LI":"賢北里","LIN":"6鄰","STREET":"中華北路","SECT":"一段","MAREA":" ","LANE":"１０５巷","ALLEY":" ","HOUSE_NO":"５０號七樓之７","E_COORD97":166395.47,"N_COORD97":2545527.0099999998,"ADDRESS":"中華北路一段１０５巷５０號七樓之７","OBJECTID":431588},"geometry":{"x":166395.46999999974,"y":2545527.0100000016}},{"attributes":{"ID":431614,"DIS_CODE":0,"TOWNNAME":"北區","LI":"賢北里","LIN":"6鄰","STREET":"中華北路","SECT":"一段","MAREA":" ","LANE":"１０５巷","ALLEY":" ","HOUSE_NO":"５０號四樓之４","E_COORD97":166395.47,"N_COORD97":2545527.0099999998,"ADDRESS":"中華北路一段１０５巷５０號四樓之４","OBJECTID":431589},"geometry":{"x":166395.46999999974,"y":2545527.0100000016}},{"attributes":{"ID":431615,"DIS_CODE":0,"TOWNNAME":"北區","LI":"賢北里","LIN":"6鄰","STREET":"中華北路","SECT":"一段","MAREA":" ","LANE":"１０５巷","ALLEY":" ","HOUSE_NO":"５０號五樓之２","E_COORD97":166395.47,"N_COORD97":2545527.0099999998,"ADDRESS":"中華北路一段１０５巷５０號五樓之２","OBJECTID":431590},"geometry":{"x":166395.46999999974,"y":2545527.0100000016}},{"attributes":{"ID":431616,"DIS_CODE":0,"TOWNNAME":"北區","LI":"賢北里","LIN":"6鄰","STREET":"中華北路","SECT":"一段","MAREA":" ","LANE":"１０５巷","ALLEY":" ","HOUSE_NO":"５０號五樓之３","E_COORD97":166395.47,"N_COORD97":2545527.0099999998,"ADDRESS":"中華北路一段１０５巷５０號五樓之３","OBJECTID":431591},"geometry":{"x":166395.46999999974,"y":2545527.0100000016}},{"attributes":{"ID":431617,"DIS_CODE":0,"TOWNNAME":"北區","LI":"永祥里","LIN":"11鄰","STREET":"實踐街","SECT":" ","MAREA":" ","LANE":"７１巷","ALLEY":" ","HOUSE_NO":"４８號二樓","E_COORD97":169970.51999999999,"N_COORD97":2546157.0299999998,"ADDRESS":"實踐街７１巷４８號二樓","OBJECTID":431592},"geometry":{"x":169970.51999999862,"y":2546157.0300000012}},{"attributes":{"ID":431618,"DIS_CODE":0,"TOWNNAME":"新營區","LI":"民生里","LIN":"25鄰","STREET":"民生路","SECT":" ","MAREA":" ","LANE":"１６３巷","ALLEY":" ","HOUSE_NO":"１５號二樓之４","E_COORD97":179179.34,"N_COORD97":2578630.96,"ADDRESS":"民生路１６３巷１５號二樓之４","OBJECTID":431593},"geometry":{"x":179179.34000000078,"y":2578630.9600000046}},{"attributes":{"ID":431619,"DIS_CODE":0,"TOWNNAME":"新營區","LI":"民生里","LIN":"25鄰","STREET":"民生路","SECT":" ","MAREA":" ","LANE":"１６３巷","ALLEY":" ","HOUSE_NO":"１５號四樓之３","E_COORD97":179179.41,"N_COORD97":2578630.96,"ADDRESS":"民生路１６３巷１５號四樓之３","OBJECTID":431594},"geometry":{"x":179179.41000000015,"y":2578630.9600000046}},{"attributes":{"ID":431620,"DIS_CODE":0,"TOWNNAME":"新營區","LI":"新北里","LIN":"20鄰","STREET":"民生路","SECT":" ","MAREA":" ","LANE":"３３６巷","ALLEY":" ","HOUSE_NO":"５０號五樓","E_COORD97":178992.66,"N_COORD97":2579184.4199999999,"ADDRESS":"民生路３３６巷５０號五樓","OBJECTID":431595},"geometry":{"x":178992.66000000108,"y":2579184.4200000018}},{"attributes":{"ID":431621,"DIS_CODE":0,"TOWNNAME":"新營區","LI":"民生里","LIN":"26鄰","STREET":"民生路","SECT":" ","MAREA":" ","LANE":"１６３巷","ALLEY":" ","HOUSE_NO":"４７號三樓之６","E_COORD97":179111.94,"N_COORD97":2578622.4199999999,"ADDRESS":"民生路１６３巷４７號三樓之６","OBJECTID":431596},"geometry":{"x":179111.94000000041,"y":2578622.4199999999}},{"attributes":{"ID":431622,"DIS_CODE":0,"TOWNNAME":"新營區","LI":"民生里","LIN":"26鄰","STREET":"民生路","SECT":" ","MAREA":" ","LANE":"１６３巷","ALLEY":" ","HOUSE_NO":"４７號二樓","E_COORD97":179109.70000000001,"N_COORD97":2578622.3799999999,"ADDRESS":"民生路１６３巷４７號二樓","OBJECTID":431597},"geometry":{"x":179109.70000000019,"y":2578622.379999999}},{"attributes":{"ID":431623,"DIS_CODE":0,"TOWNNAME":"大內區","LI":"大內里","LIN":"4鄰","STREET":" ","SECT":" ","MAREA":"內庄","LANE":" ","ALLEY":" ","HOUSE_NO":"４６號","E_COORD97":184569.152642,"N_COORD97":2557509.8006899999,"ADDRESS":"內庄４６號","OBJECTID":431598},"geometry":{"x":184569.15264199954,"y":2557509.8006850034}},{"attributes":{"ID":431624,"DIS_CODE":0,"TOWNNAME":"新營區","LI":"新東里","LIN":"25鄰","STREET":"東興三街","SECT":" ","MAREA":" ","LANE":"２２巷","ALLEY":" ","HOUSE_NO":"１３號九樓","E_COORD97":180664.79000000001,"N_COORD97":2579370.2999999998,"ADDRESS":"東興三街２２巷１３號九樓","OBJECTID":431599},"geometry":{"x":180664.79000000097,"y":2579370.3000000007}},{"attributes":{"ID":431625,"DIS_CODE":0,"TOWNNAME":"新營區","LI":"新東里","LIN":"25鄰","STREET":"東興三街","SECT":" ","MAREA":" ","LANE":"２２巷","ALLEY":" ","HOUSE_NO":"１５號九樓","E_COORD97":180696.72,"N_COORD97":2579418.8700000001,"ADDRESS":"東興三街２２巷１５號九樓","OBJECTID":431600},"geometry":{"x":180696.7200000016,"y":2579418.8700000029}}]}