{"displayFieldName":"TOWNNAME","fieldAliases":{"ID":"ID","DIS_CODE":"DIS_CODE","TOWNNAME":"TOWNNAME","LI":"LI","LIN":"LIN","STREET":"STREET","SECT":"SECT","MAREA":"MAREA","LANE":"LANE","ALLEY":"ALLEY","HOUSE_NO":"HOUSE_NO","E_COORD97":"E_COORD97","N_COORD97":"N_COORD97","ADDRESS":"ADDRESS","OBJECTID":"OBJECTID"},"geometryType":"esriGeometryPoint","spatialReference":{"wkid":102443,"latestWkid":3826},"fields":[{"name":"ID","type":"esriFieldTypeDouble","alias":"ID"},{"name":"DIS_CODE","type":"esriFieldTypeInteger","alias":"DIS_CODE"},{"name":"TOWNNAME","type":"esriFieldTypeString","alias":"TOWNNAME","length":8},{"name":"LI","type":"esriFieldTypeString","alias":"LI","length":8},{"name":"LIN","type":"esriFieldTypeString","alias":"LIN","length":12},{"name":"STREET","type":"esriFieldTypeString","alias":"STREET","length":20},{"name":"SECT","type":"esriFieldTypeString","alias":"SECT","length":8},{"name":"MAREA","type":"esriFieldTypeString","alias":"MAREA","length":12},{"name":"LANE","type":"esriFieldTypeString","alias":"LANE","length":10},{"name":"ALLEY","type":"esriFieldTypeString","alias":"ALLEY","length":10},{"name":"HOUSE_NO","type":"esriFieldTypeString","alias":"HOUSE_NO","length":20},{"name":"E_COORD97","type":"esriFieldTypeDouble","alias":"E_COORD97"},{"name":"N_COORD97","type":"esriFieldTypeDouble","alias":"N_COORD97"},{"name":"ADDRESS","type":"esriFieldTypeString","alias":"ADDRESS","length":50},{"name":"OBJECTID","type":"esriFieldTypeOID","alias":"OBJECTID"}],"features":[{"attributes":{"ID":275606,"DIS_CODE":0,"TOWNNAME":"佳里區","LI":"民安里","LIN":"3鄰","STREET":" ","SECT":" ","MAREA":"同安寮","LANE":" ","ALLEY":" ","HOUSE_NO":"３４號之１","E_COORD97":167292.37,"N_COORD97":2562398.1499999999,"ADDRESS":"同安寮３４號之１","OBJECTID":275601},"geometry":{"x":167292.37000000104,"y":2562398.1500000004}},{"attributes":{"ID":275607,"DIS_CODE":0,"TOWNNAME":"佳里區","LI":"民安里","LIN":"3鄰","STREET":" ","SECT":" ","MAREA":"同安寮","LANE":" ","ALLEY":" ","HOUSE_NO":"３４號之２","E_COORD97":167304.28,"N_COORD97":2562449.96,"ADDRESS":"同安寮３４號之２","OBJECTID":275602},"geometry":{"x":167304.28000000026,"y":2562449.9600000028}},{"attributes":{"ID":275608,"DIS_CODE":0,"TOWNNAME":"佳里區","LI":"民安里","LIN":"3鄰","STREET":" ","SECT":" ","MAREA":"同安寮","LANE":" ","ALLEY":" ","HOUSE_NO":"３４號","E_COORD97":167282.37,"N_COORD97":2562372.5899999999,"ADDRESS":"同安寮３４號","OBJECTID":275603},"geometry":{"x":167282.37000000104,"y":2562372.5900000017}},{"attributes":{"ID":275609,"DIS_CODE":0,"TOWNNAME":"佳里區","LI":"民安里","LIN":"3鄰","STREET":" ","SECT":" ","MAREA":"同安寮","LANE":" ","ALLEY":" ","HOUSE_NO":"３５號之１","E_COORD97":167231.01999999999,"N_COORD97":2562369.4900000002,"ADDRESS":"同安寮３５號之１","OBJECTID":275604},"geometry":{"x":167231.01999999955,"y":2562369.4900000002}},{"attributes":{"ID":275610,"DIS_CODE":0,"TOWNNAME":"佳里區","LI":"民安里","LIN":"3鄰","STREET":" ","SECT":" ","MAREA":"同安寮","LANE":" ","ALLEY":" ","HOUSE_NO":"３５號","E_COORD97":167250.70000000001,"N_COORD97":2562400.4500000002,"ADDRESS":"同安寮３５號","OBJECTID":275605},"geometry":{"x":167250.70000000019,"y":2562400.4500000011}},{"attributes":{"ID":275611,"DIS_CODE":0,"TOWNNAME":"佳里區","LI":"民安里","LIN":"3鄰","STREET":" ","SECT":" ","MAREA":"同安寮","LANE":" ","ALLEY":" ","HOUSE_NO":"３６號","E_COORD97":167253.35999999999,"N_COORD97":2562361.1600000001,"ADDRESS":"同安寮３６號","OBJECTID":275606},"geometry":{"x":167253.3599999994,"y":2562361.1600000001}},{"attributes":{"ID":275612,"DIS_CODE":0,"TOWNNAME":"歸仁區","LI":"西埔里","LIN":"15鄰","STREET":"西埔二街","SECT":" ","MAREA":" ","LANE":"７０巷","ALLEY":" ","HOUSE_NO":"５６號","E_COORD97":176926.48999999999,"N_COORD97":2544884.3700000001,"ADDRESS":"西埔二街７０巷５６號","OBJECTID":275607},"geometry":{"x":176926.49000000022,"y":2544884.3700000029}},{"attributes":{"ID":275613,"DIS_CODE":0,"TOWNNAME":"佳里區","LI":"民安里","LIN":"3鄰","STREET":" ","SECT":" ","MAREA":"同安寮","LANE":" ","ALLEY":" ","HOUSE_NO":"４４號之１３","E_COORD97":167178.42000000001,"N_COORD97":2562476.71,"ADDRESS":"同安寮４４號之１３","OBJECTID":275608},"geometry":{"x":167178.42000000086,"y":2562476.7100000009}},{"attributes":{"ID":275614,"DIS_CODE":0,"TOWNNAME":"安南區","LI":"\u25A0南里","LIN":"3鄰","STREET":"環福街","SECT":" ","MAREA":" ","LANE":" ","ALLEY":" ","HOUSE_NO":"７７號之１２","E_COORD97":170347.26999999999,"N_COORD97":2552453.5800000001,"ADDRESS":"環福街７７號之１２","OBJECTID":275609},"geometry":{"x":170347.27000000048,"y":2552453.5800000019}},{"attributes":{"ID":275615,"DIS_CODE":0,"TOWNNAME":"安南區","LI":"\u25A0南里","LIN":"3鄰","STREET":"環福街","SECT":" ","MAREA":" ","LANE":" ","ALLEY":" ","HOUSE_NO":"１１７號","E_COORD97":170350.32000000001,"N_COORD97":2552470.8500000001,"ADDRESS":"環福街１１７號","OBJECTID":275610},"geometry":{"x":170350.3200000003,"y":2552470.8500000015}},{"attributes":{"ID":275616,"DIS_CODE":0,"TOWNNAME":"歸仁區","LI":"西埔里","LIN":"15鄰","STREET":"西埔二街","SECT":" ","MAREA":" ","LANE":"７０巷","ALLEY":" ","HOUSE_NO":"６６號","E_COORD97":176938.89000000001,"N_COORD97":2544892.3700000001,"ADDRESS":"西埔二街７０巷６６號","OBJECTID":275611},"geometry":{"x":176938.89000000153,"y":2544892.3700000029}},{"attributes":{"ID":275617,"DIS_CODE":0,"TOWNNAME":"歸仁區","LI":"西埔里","LIN":"15鄰","STREET":"西埔一街","SECT":" ","MAREA":" ","LANE":"６１１巷","ALLEY":" ","HOUSE_NO":"５６號","E_COORD97":176952.41,"N_COORD97":2545431.8199999998,"ADDRESS":"西埔一街６１１巷５６號","OBJECTID":275612},"geometry":{"x":176952.41000000015,"y":2545431.8200000003}},{"attributes":{"ID":275618,"DIS_CODE":0,"TOWNNAME":"歸仁區","LI":"西埔里","LIN":"15鄰","STREET":"西埔一街","SECT":" ","MAREA":" ","LANE":"６１１巷","ALLEY":" ","HOUSE_NO":"６１號","E_COORD97":176911.92999999999,"N_COORD97":2545381.54,"ADDRESS":"西埔一街６１１巷６１號","OBJECTID":275613},"geometry":{"x":176911.93000000063,"y":2545381.5399999991}},{"attributes":{"ID":275619,"DIS_CODE":0,"TOWNNAME":"歸仁區","LI":"西埔里","LIN":"15鄰","STREET":"西埔一街","SECT":" ","MAREA":" ","LANE":"６３３巷","ALLEY":" ","HOUSE_NO":"７７號","E_COORD97":176991.60000000001,"N_COORD97":2545574.0499999998,"ADDRESS":"西埔一街６３３巷７７號","OBJECTID":275614},"geometry":{"x":176991.60000000149,"y":2545574.0500000045}},{"attributes":{"ID":275620,"DIS_CODE":0,"TOWNNAME":"佳里區","LI":"民安里","LIN":"3鄰","STREET":" ","SECT":" ","MAREA":"同安寮","LANE":" ","ALLEY":" ","HOUSE_NO":"４４號之１４","E_COORD97":167174.39000000001,"N_COORD97":2562477.9100000001,"ADDRESS":"同安寮４４號之１４","OBJECTID":275615},"geometry":{"x":167174.38999999966,"y":2562477.9100000001}},{"attributes":{"ID":275621,"DIS_CODE":0,"TOWNNAME":"佳里區","LI":"民安里","LIN":"3鄰","STREET":" ","SECT":" ","MAREA":"同安寮","LANE":" ","ALLEY":" ","HOUSE_NO":"４４號之１５","E_COORD97":167170.92999999999,"N_COORD97":2562479.1499999999,"ADDRESS":"同安寮４４號之１５","OBJECTID":275616},"geometry":{"x":167170.93000000156,"y":2562479.1500000022}},{"attributes":{"ID":275622,"DIS_CODE":0,"TOWNNAME":"佳里區","LI":"子龍里","LIN":"1鄰","STREET":" ","SECT":" ","MAREA":"子良廟","LANE":" ","ALLEY":" ","HOUSE_NO":"１號","E_COORD97":168701.95999999999,"N_COORD97":2563910.9399999999,"ADDRESS":"子良廟１號","OBJECTID":275617},"geometry":{"x":168701.96000000089,"y":2563910.9399999995}},{"attributes":{"ID":275623,"DIS_CODE":0,"TOWNNAME":"七股區","LI":"竹橋里","LIN":"3鄰","STREET":" ","SECT":" ","MAREA":"竹橋","LANE":" ","ALLEY":" ","HOUSE_NO":"２６號","E_COORD97":164347.73000000001,"N_COORD97":2556090.9399999999,"ADDRESS":"竹橋２６號","OBJECTID":275618},"geometry":{"x":164347.73000000138,"y":2556090.9400000013}},{"attributes":{"ID":275624,"DIS_CODE":0,"TOWNNAME":"南區","LI":"鯤鯓里","LIN":"15鄰","STREET":"鯤鯓路","SECT":" ","MAREA":" ","LANE":"１８４巷","ALLEY":" ","HOUSE_NO":"１１之１號","E_COORD97":164923.60999999999,"N_COORD97":2540276.2200000002,"ADDRESS":"鯤鯓路１８４巷１１之１號","OBJECTID":275619},"geometry":{"x":164923.61000000034,"y":2540276.2200000007}},{"attributes":{"ID":275625,"DIS_CODE":0,"TOWNNAME":"南區","LI":"田寮里","LIN":"15鄰","STREET":"新興路","SECT":" ","MAREA":" ","LANE":"４１巷","ALLEY":" ","HOUSE_NO":"２０號","E_COORD97":167656.72,"N_COORD97":2542147.9900000002,"ADDRESS":"新興路４１巷２０號","OBJECTID":275620},"geometry":{"x":167656.71999999974,"y":2542147.9900000002}},{"attributes":{"ID":275626,"DIS_CODE":0,"TOWNNAME":"南區","LI":"田寮里","LIN":"15鄰","STREET":"新興路","SECT":" ","MAREA":" ","LANE":"４１巷","ALLEY":" ","HOUSE_NO":"２４號","E_COORD97":167657.73999999999,"N_COORD97":2542135.4100000001,"ADDRESS":"新興路４１巷２４號","OBJECTID":275621},"geometry":{"x":167657.74000000115,"y":2542135.4100000001}},{"attributes":{"ID":275627,"DIS_CODE":0,"TOWNNAME":"安平區","LI":"文平里","LIN":"15鄰","STREET":"建平五街","SECT":" ","MAREA":" ","LANE":"５２巷","ALLEY":" ","HOUSE_NO":"３號","E_COORD97":166013.56,"N_COORD97":2543138.9300000002,"ADDRESS":"建平五街５２巷３號","OBJECTID":275622},"geometry":{"x":166013.55999999959,"y":2543138.9299999997}},{"attributes":{"ID":275628,"DIS_CODE":0,"TOWNNAME":"安平區","LI":"文平里","LIN":"15鄰","STREET":"建平五街","SECT":" ","MAREA":" ","LANE":"５２巷","ALLEY":" ","HOUSE_NO":"５號","E_COORD97":166013.37,"N_COORD97":2543140.8100000001,"ADDRESS":"建平五街５２巷５號","OBJECTID":275623},"geometry":{"x":166013.37000000011,"y":2543140.8100000005}},{"attributes":{"ID":275629,"DIS_CODE":0,"TOWNNAME":"安平區","LI":"文平里","LIN":"15鄰","STREET":"建平五街","SECT":" ","MAREA":" ","LANE":"５２巷","ALLEY":" ","HOUSE_NO":"２號","E_COORD97":166038.63,"N_COORD97":2543133.27,"ADDRESS":"建平五街５２巷２號","OBJECTID":275624},"geometry":{"x":166038.62999999989,"y":2543133.2699999996}},{"attributes":{"ID":275630,"DIS_CODE":0,"TOWNNAME":"安平區","LI":"文平里","LIN":"15鄰","STREET":"建平五街","SECT":" ","MAREA":" ","LANE":"５２巷","ALLEY":" ","HOUSE_NO":"６號","E_COORD97":166038.63,"N_COORD97":2543135.9100000001,"ADDRESS":"建平五街５２巷６號","OBJECTID":275625},"geometry":{"x":166038.62999999989,"y":2543135.9100000001}},{"attributes":{"ID":275631,"DIS_CODE":0,"TOWNNAME":"安平區","LI":"文平里","LIN":"15鄰","STREET":"建平五街","SECT":" ","MAREA":" ","LANE":"５２巷","ALLEY":" ","HOUSE_NO":"７號","E_COORD97":166015.45000000001,"N_COORD97":2543142.8799999999,"ADDRESS":"建平五街５２巷７號","OBJECTID":275626},"geometry":{"x":166015.45000000112,"y":2543142.8800000008}},{"attributes":{"ID":275632,"DIS_CODE":0,"TOWNNAME":"安南區","LI":"安順里","LIN":"3鄰","STREET":"培安四街","SECT":" ","MAREA":" ","LANE":" ","ALLEY":" ","HOUSE_NO":"３９號","E_COORD97":169486.79000000001,"N_COORD97":2549817.6699999999,"ADDRESS":"培安四街３９號","OBJECTID":275627},"geometry":{"x":169486.79000000097,"y":2549817.6700000018}},{"attributes":{"ID":275633,"DIS_CODE":0,"TOWNNAME":"安南區","LI":"安順里","LIN":"3鄰","STREET":"培安四街","SECT":" ","MAREA":" ","LANE":" ","ALLEY":" ","HOUSE_NO":"１９號","E_COORD97":169459.48999999999,"N_COORD97":2549851.48,"ADDRESS":"培安四街１９號","OBJECTID":275628},"geometry":{"x":169459.48999999929,"y":2549851.4800000004}},{"attributes":{"ID":275634,"DIS_CODE":0,"TOWNNAME":"安南區","LI":"安順里","LIN":"3鄰","STREET":"培安四街","SECT":" ","MAREA":" ","LANE":" ","ALLEY":" ","HOUSE_NO":"２１號","E_COORD97":169462.35000000001,"N_COORD97":2549847.5099999998,"ADDRESS":"培安四街２１號","OBJECTID":275629},"geometry":{"x":169462.35000000056,"y":2549847.5099999998}},{"attributes":{"ID":275635,"DIS_CODE":0,"TOWNNAME":"安南區","LI":"安順里","LIN":"3鄰","STREET":"培安四街","SECT":" ","MAREA":" ","LANE":" ","ALLEY":" ","HOUSE_NO":"２３號","E_COORD97":169465.20999999999,"N_COORD97":2549843.7000000002,"ADDRESS":"培安四街２３號","OBJECTID":275630},"geometry":{"x":169465.21000000089,"y":2549843.7000000011}},{"attributes":{"ID":275636,"DIS_CODE":0,"TOWNNAME":"安南區","LI":"安順里","LIN":"3鄰","STREET":"培安四街","SECT":" ","MAREA":" ","LANE":" ","ALLEY":" ","HOUSE_NO":"２５號","E_COORD97":169467.89999999999,"N_COORD97":2549840.21,"ADDRESS":"培安四街２５號","OBJECTID":275631},"geometry":{"x":169467.9000000013,"y":2549840.2100000009}},{"attributes":{"ID":275637,"DIS_CODE":0,"TOWNNAME":"安南區","LI":"安順里","LIN":"3鄰","STREET":"培安四街","SECT":" ","MAREA":" ","LANE":" ","ALLEY":" ","HOUSE_NO":"２７號","E_COORD97":169470.60000000001,"N_COORD97":2549837.1899999999,"ADDRESS":"培安四街２７號","OBJECTID":275632},"geometry":{"x":169470.60000000056,"y":2549837.1900000013}},{"attributes":{"ID":275638,"DIS_CODE":0,"TOWNNAME":"安南區","LI":"安順里","LIN":"3鄰","STREET":"培安四街","SECT":" ","MAREA":" ","LANE":" ","ALLEY":" ","HOUSE_NO":"２９號","E_COORD97":169473.14000000001,"N_COORD97":2549833.54,"ADDRESS":"培安四街２９號","OBJECTID":275633},"geometry":{"x":169473.13999999873,"y":2549833.5399999991}},{"attributes":{"ID":275639,"DIS_CODE":0,"TOWNNAME":"安南區","LI":"安順里","LIN":"3鄰","STREET":"培安四街","SECT":" ","MAREA":" ","LANE":" ","ALLEY":" ","HOUSE_NO":"３１號","E_COORD97":169475.67999999999,"N_COORD97":2549830.3700000001,"ADDRESS":"培安四街３１號","OBJECTID":275634},"geometry":{"x":169475.6799999997,"y":2549830.3699999992}},{"attributes":{"ID":275640,"DIS_CODE":0,"TOWNNAME":"安南區","LI":"安和里","LIN":"3鄰","STREET":"府安路","SECT":"三段","MAREA":" ","LANE":" ","ALLEY":" ","HOUSE_NO":"２５２號","E_COORD97":169921.76999999999,"N_COORD97":2547933.4900000002,"ADDRESS":"府安路三段２５２號","OBJECTID":275635},"geometry":{"x":169921.77000000048,"y":2547933.4899999984}},{"attributes":{"ID":275641,"DIS_CODE":0,"TOWNNAME":"安南區","LI":"佃東里","LIN":"3鄰","STREET":"公學路","SECT":"四段","MAREA":" ","LANE":" ","ALLEY":" ","HOUSE_NO":"２５號","E_COORD97":165871.29000000001,"N_COORD97":2552007.8199999998,"ADDRESS":"公學路四段２５號","OBJECTID":275636},"geometry":{"x":165871.29000000004,"y":2552007.8200000022}},{"attributes":{"ID":275642,"DIS_CODE":0,"TOWNNAME":"安南區","LI":"顯宮里","LIN":"3鄰","STREET":"安中路","SECT":"五段","MAREA":" ","LANE":" ","ALLEY":" ","HOUSE_NO":"４６３之３號","E_COORD97":162362.94,"N_COORD97":2551170.1899999999,"ADDRESS":"安中路五段４６３之３號","OBJECTID":275637},"geometry":{"x":162362.94000000134,"y":2551170.1900000013}},{"attributes":{"ID":275643,"DIS_CODE":0,"TOWNNAME":"安平區","LI":"文平里","LIN":"15鄰","STREET":"建平五街","SECT":" ","MAREA":" ","LANE":"５２巷","ALLEY":" ","HOUSE_NO":"９號","E_COORD97":166013.85000000001,"N_COORD97":2543146.0099999998,"ADDRESS":"建平五街５２巷９號","OBJECTID":275638},"geometry":{"x":166013.85000000056,"y":2543146.0100000035}},{"attributes":{"ID":275644,"DIS_CODE":0,"TOWNNAME":"安平區","LI":"文平里","LIN":"15鄰","STREET":"建平五街","SECT":" ","MAREA":" ","LANE":"５２巷","ALLEY":" ","HOUSE_NO":"１１號","E_COORD97":166016.14999999999,"N_COORD97":2543147.6099999999,"ADDRESS":"建平五街５２巷１１號","OBJECTID":275639},"geometry":{"x":166016.1500000013,"y":2543147.6099999994}},{"attributes":{"ID":275645,"DIS_CODE":0,"TOWNNAME":"安平區","LI":"文平里","LIN":"15鄰","STREET":"建平五街","SECT":" ","MAREA":" ","LANE":"５２巷","ALLEY":" ","HOUSE_NO":"８號","E_COORD97":166038.54999999999,"N_COORD97":2543138.2400000002,"ADDRESS":"建平五街５２巷８號","OBJECTID":275640},"geometry":{"x":166038.55000000075,"y":2543138.2400000039}},{"attributes":{"ID":275646,"DIS_CODE":0,"TOWNNAME":"仁德區","LI":"保安里","LIN":"12鄰","STREET":"開發六路","SECT":" ","MAREA":" ","LANE":" ","ALLEY":" ","HOUSE_NO":"１２號","E_COORD97":172836.09842600001,"N_COORD97":2535556.35983,"ADDRESS":"開發六路１２號","OBJECTID":275641},"geometry":{"x":172836.09842600115,"y":2535556.359825002}},{"attributes":{"ID":275647,"DIS_CODE":0,"TOWNNAME":"安平區","LI":"文平里","LIN":"15鄰","STREET":"建平五街","SECT":" ","MAREA":" ","LANE":"５２巷","ALLEY":" ","HOUSE_NO":"１０號","E_COORD97":166039.81,"N_COORD97":2543139.8799999999,"ADDRESS":"建平五街５２巷１０號","OBJECTID":275642},"geometry":{"x":166039.81000000052,"y":2543139.8800000008}},{"attributes":{"ID":275648,"DIS_CODE":0,"TOWNNAME":"安平區","LI":"文平里","LIN":"15鄰","STREET":"建平五街","SECT":" ","MAREA":" ","LANE":"５２巷","ALLEY":" ","HOUSE_NO":"１２號","E_COORD97":166041.06,"N_COORD97":2543143.8100000001,"ADDRESS":"建平五街５２巷１２號","OBJECTID":275643},"geometry":{"x":166041.06000000145,"y":2543143.8100000005}},{"attributes":{"ID":275649,"DIS_CODE":0,"TOWNNAME":"安平區","LI":"文平里","LIN":"15鄰","STREET":"建平五街","SECT":" ","MAREA":" ","LANE":"５２巷","ALLEY":" ","HOUSE_NO":"１６號","E_COORD97":166041.64999999999,"N_COORD97":2543148.5299999998,"ADDRESS":"建平五街５２巷１６號","OBJECTID":275644},"geometry":{"x":166041.6500000013,"y":2543148.5300000031}},{"attributes":{"ID":275650,"DIS_CODE":0,"TOWNNAME":"安平區","LI":"億載里","LIN":"15鄰","STREET":"光州四街","SECT":" ","MAREA":" ","LANE":"５２巷","ALLEY":" ","HOUSE_NO":"２號","E_COORD97":164061.16,"N_COORD97":2543174.7200000002,"ADDRESS":"光州四街５２巷２號","OBJECTID":275645},"geometry":{"x":164061.16000000108,"y":2543174.7200000007}},{"attributes":{"ID":275651,"DIS_CODE":0,"TOWNNAME":"安平區","LI":"億載里","LIN":"15鄰","STREET":"光州四街","SECT":" ","MAREA":" ","LANE":"５２巷","ALLEY":" ","HOUSE_NO":"６號","E_COORD97":164061.79999999999,"N_COORD97":2543169.7999999998,"ADDRESS":"光州四街５２巷６號","OBJECTID":275646},"geometry":{"x":164061.80000000075,"y":2543169.8000000026}},{"attributes":{"ID":275652,"DIS_CODE":0,"TOWNNAME":"安平區","LI":"億載里","LIN":"15鄰","STREET":"光州四街","SECT":" ","MAREA":" ","LANE":"１５巷","ALLEY":" ","HOUSE_NO":"２號","E_COORD97":163999.57999999999,"N_COORD97":2543219.1000000001,"ADDRESS":"光州四街１５巷２號","OBJECTID":275647},"geometry":{"x":163999.58000000007,"y":2543219.0999999996}},{"attributes":{"ID":275653,"DIS_CODE":0,"TOWNNAME":"安平區","LI":"億載里","LIN":"15鄰","STREET":"光州四街","SECT":" ","MAREA":" ","LANE":"１５巷","ALLEY":" ","HOUSE_NO":"６號","E_COORD97":163998.31,"N_COORD97":2543224.1800000002,"ADDRESS":"光州四街１５巷６號","OBJECTID":275648},"geometry":{"x":163998.31000000145,"y":2543224.1800000016}},{"attributes":{"ID":275654,"DIS_CODE":0,"TOWNNAME":"安平區","LI":"金城里","LIN":"15鄰","STREET":"州平三街","SECT":" ","MAREA":" ","LANE":"８巷","ALLEY":" ","HOUSE_NO":"５號","E_COORD97":162793.35000000001,"N_COORD97":2544393.6099999999,"ADDRESS":"州平三街８巷５號","OBJECTID":275649},"geometry":{"x":162793.35000000056,"y":2544393.6100000013}},{"attributes":{"ID":275655,"DIS_CODE":0,"TOWNNAME":"七股區","LI":"竹橋里","LIN":"3鄰","STREET":" ","SECT":" ","MAREA":"竹橋","LANE":" ","ALLEY":" ","HOUSE_NO":"２６號之１０","E_COORD97":164344.38,"N_COORD97":2556185.0800000001,"ADDRESS":"竹橋２６號之１０","OBJECTID":275650},"geometry":{"x":164344.38000000082,"y":2556185.0800000038}},{"attributes":{"ID":275656,"DIS_CODE":0,"TOWNNAME":"安平區","LI":"金城里","LIN":"15鄰","STREET":"州平三街","SECT":" ","MAREA":" ","LANE":"８巷","ALLEY":" ","HOUSE_NO":"１０號","E_COORD97":162797.48000000001,"N_COORD97":2544400.5899999999,"ADDRESS":"州平三街８巷１０號","OBJECTID":275651},"geometry":{"x":162797.48000000045,"y":2544400.5900000017}},{"attributes":{"ID":275657,"DIS_CODE":0,"TOWNNAME":"鹽水區","LI":"橋南里","LIN":"15鄰","STREET":"月津路","SECT":" ","MAREA":" ","LANE":"１２巷","ALLEY":" ","HOUSE_NO":"９號","E_COORD97":174841.70999999999,"N_COORD97":2579553.6400000001,"ADDRESS":"月津路１２巷９號","OBJECTID":275652},"geometry":{"x":174841.71000000183,"y":2579553.6400000006}},{"attributes":{"ID":275658,"DIS_CODE":0,"TOWNNAME":"永康區","LI":"正強里","LIN":"15鄰","STREET":"正強街","SECT":" ","MAREA":" ","LANE":"７１巷","ALLEY":" ","HOUSE_NO":"１０號","E_COORD97":173309.67000000001,"N_COORD97":2547323.9199999999,"ADDRESS":"正強街７１巷１０號","OBJECTID":275653},"geometry":{"x":173309.67000000086,"y":2547323.9200000018}},{"attributes":{"ID":275659,"DIS_CODE":0,"TOWNNAME":"南區","LI":"喜南里","LIN":"15鄰","STREET":"喜樹路","SECT":" ","MAREA":" ","LANE":"２２２巷","ALLEY":" ","HOUSE_NO":"２５號","E_COORD97":165606.20999999999,"N_COORD97":2538015.1699999999,"ADDRESS":"喜樹路２２２巷２５號","OBJECTID":275654},"geometry":{"x":165606.20999999903,"y":2538015.1700000037}},{"attributes":{"ID":275660,"DIS_CODE":0,"TOWNNAME":"南區","LI":"喜南里","LIN":"15鄰","STREET":"喜樹路","SECT":" ","MAREA":" ","LANE":"２２２巷","ALLEY":" ","HOUSE_NO":"２７號","E_COORD97":165594.04999999999,"N_COORD97":2538014.8700000001,"ADDRESS":"喜樹路２２２巷２７號","OBJECTID":275655},"geometry":{"x":165594.05000000075,"y":2538014.8699999992}},{"attributes":{"ID":275661,"DIS_CODE":0,"TOWNNAME":"南區","LI":"喜南里","LIN":"15鄰","STREET":"喜樹路","SECT":" ","MAREA":" ","LANE":"２５２巷","ALLEY":" ","HOUSE_NO":"２９號","E_COORD97":165637.82000000001,"N_COORD97":2537973.3999999999,"ADDRESS":"喜樹路２５２巷２９號","OBJECTID":275656},"geometry":{"x":165637.8200000003,"y":2537973.4000000041}},{"attributes":{"ID":275662,"DIS_CODE":0,"TOWNNAME":"七股區","LI":"竹橋里","LIN":"3鄰","STREET":" ","SECT":" ","MAREA":"竹橋","LANE":" ","ALLEY":" ","HOUSE_NO":"２６號之１","E_COORD97":164360.75,"N_COORD97":2556126.1299999999,"ADDRESS":"竹橋２６號之１","OBJECTID":275657},"geometry":{"x":164360.75000000093,"y":2556126.1300000027}},{"attributes":{"ID":275663,"DIS_CODE":0,"TOWNNAME":"南區","LI":"喜南里","LIN":"15鄰","STREET":"喜樹路","SECT":" ","MAREA":" ","LANE":"２５２巷","ALLEY":" ","HOUSE_NO":"３１號","E_COORD97":165636.22,"N_COORD97":2537977.79,"ADDRESS":"喜樹路２５２巷３１號","OBJECTID":275658},"geometry":{"x":165636.21999999974,"y":2537977.790000001}},{"attributes":{"ID":275664,"DIS_CODE":0,"TOWNNAME":"七股區","LI":"竹橋里","LIN":"3鄰","STREET":" ","SECT":" ","MAREA":"竹橋","LANE":" ","ALLEY":" ","HOUSE_NO":"２６號之７","E_COORD97":164349.06,"N_COORD97":2556158.1400000001,"ADDRESS":"竹橋２６號之７","OBJECTID":275659},"geometry":{"x":164349.06000000145,"y":2556158.1400000043}},{"attributes":{"ID":275665,"DIS_CODE":0,"TOWNNAME":"七股區","LI":"竹橋里","LIN":"3鄰","STREET":" ","SECT":" ","MAREA":"竹橋","LANE":" ","ALLEY":" ","HOUSE_NO":"２７號之１","E_COORD97":164329.63,"N_COORD97":2556064.5699999998,"ADDRESS":"竹橋２７號之１","OBJECTID":275660},"geometry":{"x":164329.62999999989,"y":2556064.5700000022}},{"attributes":{"ID":275666,"DIS_CODE":0,"TOWNNAME":"七股區","LI":"竹橋里","LIN":"3鄰","STREET":" ","SECT":" ","MAREA":"竹橋","LANE":" ","ALLEY":" ","HOUSE_NO":"２７號之２","E_COORD97":164325.44,"N_COORD97":2556062.9900000002,"ADDRESS":"竹橋２７號之２","OBJECTID":275661},"geometry":{"x":164325.44000000227,"y":2556062.9900000002}},{"attributes":{"ID":275667,"DIS_CODE":0,"TOWNNAME":"七股區","LI":"竹橋里","LIN":"3鄰","STREET":" ","SECT":" ","MAREA":"竹橋","LANE":" ","ALLEY":" ","HOUSE_NO":"２９號","E_COORD97":164291.79000000001,"N_COORD97":2556078.6000000001,"ADDRESS":"竹橋２９號","OBJECTID":275662},"geometry":{"x":164291.79000000004,"y":2556078.5999999996}},{"attributes":{"ID":275668,"DIS_CODE":0,"TOWNNAME":"七股區","LI":"竹橋里","LIN":"3鄰","STREET":" ","SECT":" ","MAREA":"竹橋","LANE":" ","ALLEY":" ","HOUSE_NO":"３０號","E_COORD97":164290.87,"N_COORD97":2556098.5,"ADDRESS":"竹橋３０號","OBJECTID":275663},"geometry":{"x":164290.87000000011,"y":2556098.5000000019}},{"attributes":{"ID":275669,"DIS_CODE":0,"TOWNNAME":"七股區","LI":"竹橋里","LIN":"3鄰","STREET":" ","SECT":" ","MAREA":"竹橋","LANE":" ","ALLEY":" ","HOUSE_NO":"３２號之１","E_COORD97":164283.78,"N_COORD97":2556018.1699999999,"ADDRESS":"竹橋３２號之１","OBJECTID":275664},"geometry":{"x":164283.78000000026,"y":2556018.1700000037}},{"attributes":{"ID":275670,"DIS_CODE":0,"TOWNNAME":"仁德區","LI":"仁德里","LIN":"3鄰","STREET":"仁中六街","SECT":" ","MAREA":" ","LANE":" ","ALLEY":" ","HOUSE_NO":"５２號","E_COORD97":173394.56,"N_COORD97":2540393.2400000002,"ADDRESS":"仁中六街５２號","OBJECTID":275665},"geometry":{"x":173394.55999999866,"y":2540393.2400000021}},{"attributes":{"ID":275671,"DIS_CODE":0,"TOWNNAME":"官田區","LI":"隆田里","LIN":"3鄰","STREET":"中山路","SECT":"一段","MAREA":" ","LANE":" ","ALLEY":" ","HOUSE_NO":"２１號","E_COORD97":180247.73000000001,"N_COORD97":2565764.3999999999,"ADDRESS":"中山路一段２１號","OBJECTID":275666},"geometry":{"x":180247.73000000045,"y":2565764.4000000041}},{"attributes":{"ID":275672,"DIS_CODE":0,"TOWNNAME":"官田區","LI":"隆田里","LIN":"3鄰","STREET":"中山路","SECT":"一段","MAREA":" ","LANE":" ","ALLEY":" ","HOUSE_NO":"２３號","E_COORD97":180243.57000000001,"N_COORD97":2565764.1899999999,"ADDRESS":"中山路一段２３號","OBJECTID":275667},"geometry":{"x":180243.5700000003,"y":2565764.1899999995}},{"attributes":{"ID":275673,"DIS_CODE":0,"TOWNNAME":"官田區","LI":"隆田里","LIN":"3鄰","STREET":"中山路","SECT":"一段","MAREA":" ","LANE":" ","ALLEY":" ","HOUSE_NO":"２５號","E_COORD97":180239.38,"N_COORD97":2565764.1400000001,"ADDRESS":"中山路一段２５號","OBJECTID":275668},"geometry":{"x":180239.37999999989,"y":2565764.1400000025}},{"attributes":{"ID":275674,"DIS_CODE":0,"TOWNNAME":"官田區","LI":"隆田里","LIN":"3鄰","STREET":"中山路","SECT":"一段","MAREA":" ","LANE":" ","ALLEY":" ","HOUSE_NO":"２７號","E_COORD97":180234.39999999999,"N_COORD97":2565764.1899999999,"ADDRESS":"中山路一段２７號","OBJECTID":275669},"geometry":{"x":180234.40000000037,"y":2565764.1899999995}},{"attributes":{"ID":275675,"DIS_CODE":0,"TOWNNAME":"南區","LI":"喜南里","LIN":"15鄰","STREET":"喜樹路","SECT":" ","MAREA":" ","LANE":"２５２巷","ALLEY":" ","HOUSE_NO":"３３號","E_COORD97":165634.48999999999,"N_COORD97":2537982.7200000002,"ADDRESS":"喜樹路２５２巷３３號","OBJECTID":275670},"geometry":{"x":165634.49000000022,"y":2537982.7200000025}},{"attributes":{"ID":275676,"DIS_CODE":0,"TOWNNAME":"官田區","LI":"大崎里","LIN":"3鄰","STREET":" ","SECT":" ","MAREA":"大崎","LANE":" ","ALLEY":" ","HOUSE_NO":"２５號之１","E_COORD97":185586.19,"N_COORD97":2565529.1899999999,"ADDRESS":"大崎２５號之１","OBJECTID":275671},"geometry":{"x":185586.19000000041,"y":2565529.1900000013}},{"attributes":{"ID":275677,"DIS_CODE":0,"TOWNNAME":"官田區","LI":"大崎里","LIN":"3鄰","STREET":" ","SECT":" ","MAREA":"大崎","LANE":" ","ALLEY":" ","HOUSE_NO":"２５號","E_COORD97":185583,"N_COORD97":2565544.7000000002,"ADDRESS":"大崎２５號","OBJECTID":275672},"geometry":{"x":185583.00000000093,"y":2565544.7000000011}},{"attributes":{"ID":275678,"DIS_CODE":0,"TOWNNAME":"南區","LI":"喜南里","LIN":"15鄰","STREET":"喜樹路","SECT":" ","MAREA":" ","LANE":"２５２巷","ALLEY":" ","HOUSE_NO":"３５號","E_COORD97":165633.82000000001,"N_COORD97":2537988.71,"ADDRESS":"喜樹路２５２巷３５號","OBJECTID":275673},"geometry":{"x":165633.82000000123,"y":2537988.709999999}},{"attributes":{"ID":275679,"DIS_CODE":0,"TOWNNAME":"官田區","LI":"隆田里","LIN":"3鄰","STREET":"中山路","SECT":"一段","MAREA":" ","LANE":" ","ALLEY":" ","HOUSE_NO":"２９號","E_COORD97":180231.04000000001,"N_COORD97":2565764.1400000001,"ADDRESS":"中山路一段２９號","OBJECTID":275674},"geometry":{"x":180231.04000000097,"y":2565764.1400000025}},{"attributes":{"ID":275680,"DIS_CODE":0,"TOWNNAME":"中西區","LI":"中正里","LIN":"3鄰","STREET":"國華街","SECT":"三段","MAREA":" ","LANE":" ","ALLEY":" ","HOUSE_NO":"２６號","E_COORD97":167745.25,"N_COORD97":2543824.4500000002,"ADDRESS":"國華街三段２６號","OBJECTID":275675},"geometry":{"x":167745.25,"y":2543824.4500000011}},{"attributes":{"ID":275681,"DIS_CODE":0,"TOWNNAME":"後壁區","LI":"後壁里","LIN":"3鄰","STREET":" ","SECT":" ","MAREA":"後壁","LANE":" ","ALLEY":" ","HOUSE_NO":"６０號","E_COORD97":184639.45999999999,"N_COORD97":2584884.2599999998,"ADDRESS":"後壁６０號","OBJECTID":275676},"geometry":{"x":184639.45999999996,"y":2584884.2600000016}},{"attributes":{"ID":275682,"DIS_CODE":0,"TOWNNAME":"安南區","LI":"佃東里","LIN":"3鄰","STREET":"公學路","SECT":"四段","MAREA":" ","LANE":" ","ALLEY":" ","HOUSE_NO":"８８之１號","E_COORD97":165654.45999999999,"N_COORD97":2551997.0899999999,"ADDRESS":"公學路四段８８之１號","OBJECTID":275677},"geometry":{"x":165654.46000000089,"y":2551997.0899999999}},{"attributes":{"ID":275683,"DIS_CODE":0,"TOWNNAME":"南區","LI":"喜南里","LIN":"15鄰","STREET":"喜樹路","SECT":" ","MAREA":" ","LANE":"２５２巷","ALLEY":" ","HOUSE_NO":"３９號","E_COORD97":165630.48999999999,"N_COORD97":2537992.7000000002,"ADDRESS":"喜樹路２５２巷３９號","OBJECTID":275678},"geometry":{"x":165630.49000000115,"y":2537992.6999999993}},{"attributes":{"ID":275684,"DIS_CODE":0,"TOWNNAME":"南區","LI":"喜南里","LIN":"15鄰","STREET":"喜樹路","SECT":" ","MAREA":" ","LANE":"２５２巷","ALLEY":" ","HOUSE_NO":"４１號","E_COORD97":165631.54999999999,"N_COORD97":2538000.6899999999,"ADDRESS":"喜樹路２５２巷４１號","OBJECTID":275679},"geometry":{"x":165631.55000000075,"y":2538000.6899999995}},{"attributes":{"ID":275685,"DIS_CODE":0,"TOWNNAME":"南區","LI":"喜南里","LIN":"15鄰","STREET":"喜樹路","SECT":" ","MAREA":" ","LANE":"２５２巷","ALLEY":" ","HOUSE_NO":"４３號","E_COORD97":165621.16,"N_COORD97":2538013.3300000001,"ADDRESS":"喜樹路２５２巷４３號","OBJECTID":275680},"geometry":{"x":165621.16000000108,"y":2538013.3300000001}},{"attributes":{"ID":275686,"DIS_CODE":0,"TOWNNAME":"南區","LI":"喜南里","LIN":"15鄰","STREET":"喜樹路","SECT":" ","MAREA":" ","LANE":"２２２巷","ALLEY":" ","HOUSE_NO":"３１號","E_COORD97":165569.04000000001,"N_COORD97":2538005.5699999998,"ADDRESS":"喜樹路２２２巷３１號","OBJECTID":275681},"geometry":{"x":165569.04000000097,"y":2538005.5700000003}},{"attributes":{"ID":275687,"DIS_CODE":0,"TOWNNAME":"南區","LI":"喜南里","LIN":"15鄰","STREET":"喜樹路","SECT":" ","MAREA":" ","LANE":"２２２巷","ALLEY":" ","HOUSE_NO":"３３號","E_COORD97":165567.73000000001,"N_COORD97":2538010.9700000002,"ADDRESS":"喜樹路２２２巷３３號","OBJECTID":275682},"geometry":{"x":165567.73000000231,"y":2538010.9700000025}},{"attributes":{"ID":275688,"DIS_CODE":0,"TOWNNAME":"南區","LI":"喜南里","LIN":"15鄰","STREET":"喜樹路","SECT":" ","MAREA":" ","LANE":"２２２巷","ALLEY":" ","HOUSE_NO":"３５號","E_COORD97":165564.95000000001,"N_COORD97":2538014.8999999999,"ADDRESS":"喜樹路２２２巷３５號","OBJECTID":275683},"geometry":{"x":165564.95000000112,"y":2538014.9000000022}},{"attributes":{"ID":275689,"DIS_CODE":0,"TOWNNAME":"南區","LI":"喜南里","LIN":"15鄰","STREET":"喜樹路","SECT":" ","MAREA":" ","LANE":"２２２巷","ALLEY":" ","HOUSE_NO":"３９號","E_COORD97":165569.04000000001,"N_COORD97":2538025.21,"ADDRESS":"喜樹路２２２巷３９號","OBJECTID":275684},"geometry":{"x":165569.04000000097,"y":2538025.2100000009}},{"attributes":{"ID":275690,"DIS_CODE":0,"TOWNNAME":"安南區","LI":"佃東里","LIN":"3鄰","STREET":"公學路","SECT":"四段","MAREA":" ","LANE":" ","ALLEY":" ","HOUSE_NO":"８８之２號","E_COORD97":165640.06,"N_COORD97":2551993.2799999998,"ADDRESS":"公學路四段８８之２號","OBJECTID":275685},"geometry":{"x":165640.05999999959,"y":2551993.2800000012}},{"attributes":{"ID":275691,"DIS_CODE":0,"TOWNNAME":"官田區","LI":"大崎里","LIN":"3鄰","STREET":" ","SECT":" ","MAREA":"大崎","LANE":" ","ALLEY":" ","HOUSE_NO":"２６號","E_COORD97":185594.67000000001,"N_COORD97":2565505.3999999999,"ADDRESS":"大崎２６號","OBJECTID":275686},"geometry":{"x":185594.67000000179,"y":2565505.4000000004}},{"attributes":{"ID":275692,"DIS_CODE":0,"TOWNNAME":"官田區","LI":"大崎里","LIN":"3鄰","STREET":" ","SECT":" ","MAREA":"大崎","LANE":" ","ALLEY":" ","HOUSE_NO":"２７號之１","E_COORD97":185616.5,"N_COORD97":2565488.8399999999,"ADDRESS":"大崎２７號之１","OBJECTID":275687},"geometry":{"x":185616.50000000093,"y":2565488.8399999999}},{"attributes":{"ID":275693,"DIS_CODE":0,"TOWNNAME":"白河區","LI":"竹門里","LIN":"3鄰","STREET":" ","SECT":" ","MAREA":"竹子門","LANE":" ","ALLEY":" ","HOUSE_NO":"３５號","E_COORD97":193616.57000000001,"N_COORD97":2586094.2200000002,"ADDRESS":"竹子門３５號","OBJECTID":275688},"geometry":{"x":193616.5700000003,"y":2586094.2200000007}},{"attributes":{"ID":275694,"DIS_CODE":0,"TOWNNAME":"南區","LI":"喜南里","LIN":"15鄰","STREET":"喜樹路","SECT":" ","MAREA":" ","LANE":"２２２巷","ALLEY":" ","HOUSE_NO":"４３號","E_COORD97":165530.57000000001,"N_COORD97":2538032.5699999998,"ADDRESS":"喜樹路２２２巷４３號","OBJECTID":275689},"geometry":{"x":165530.5700000003,"y":2538032.5700000003}},{"attributes":{"ID":275695,"DIS_CODE":0,"TOWNNAME":"白河區","LI":"竹門里","LIN":"3鄰","STREET":" ","SECT":" ","MAREA":"竹子門","LANE":" ","ALLEY":" ","HOUSE_NO":"２９號","E_COORD97":193534.20000000001,"N_COORD97":2586074.3799999999,"ADDRESS":"竹子門２９號","OBJECTID":275690},"geometry":{"x":193534.20000000019,"y":2586074.379999999}},{"attributes":{"ID":275696,"DIS_CODE":0,"TOWNNAME":"安南區","LI":"南興里","LIN":"3鄰","STREET":"安興街","SECT":" ","MAREA":" ","LANE":" ","ALLEY":" ","HOUSE_NO":"４７９之２號","E_COORD97":163466.60216800001,"N_COORD97":2552338.2086499999,"ADDRESS":"安興街４７９之２號","OBJECTID":275691},"geometry":{"x":163466.6021680003,"y":2552338.2086529974}},{"attributes":{"ID":275697,"DIS_CODE":0,"TOWNNAME":"南區","LI":"喜南里","LIN":"15鄰","STREET":"喜樹路","SECT":" ","MAREA":" ","LANE":"２２２巷","ALLEY":" ","HOUSE_NO":"４３號之２","E_COORD97":165514.67999999999,"N_COORD97":2538039.1099999999,"ADDRESS":"喜樹路２２２巷４３號之２","OBJECTID":275692},"geometry":{"x":165514.68000000156,"y":2538039.1100000031}},{"attributes":{"ID":275698,"DIS_CODE":0,"TOWNNAME":"南區","LI":"喜南里","LIN":"15鄰","STREET":"喜樹路","SECT":" ","MAREA":" ","LANE":"２２２巷","ALLEY":" ","HOUSE_NO":"４３號之３","E_COORD97":165510.92000000001,"N_COORD97":2538041.5699999998,"ADDRESS":"喜樹路２２２巷４３號之３","OBJECTID":275693},"geometry":{"x":165510.91999999993,"y":2538041.5700000022}},{"attributes":{"ID":275699,"DIS_CODE":0,"TOWNNAME":"南區","LI":"喜南里","LIN":"15鄰","STREET":"喜樹路","SECT":" ","MAREA":" ","LANE":"２２２巷","ALLEY":" ","HOUSE_NO":"４３號之４","E_COORD97":165507.64000000001,"N_COORD97":2538036.9900000002,"ADDRESS":"喜樹路２２２巷４３號之４","OBJECTID":275694},"geometry":{"x":165507.63999999966,"y":2538036.9899999984}},{"attributes":{"ID":275700,"DIS_CODE":0,"TOWNNAME":"歸仁區","LI":"南興里","LIN":"15鄰","STREET":"文化街","SECT":"三段","MAREA":" ","LANE":"５３０巷","ALLEY":" ","HOUSE_NO":"７號","E_COORD97":175771.92000000001,"N_COORD97":2541251.2599999998,"ADDRESS":"文化街三段５３０巷７號","OBJECTID":275695},"geometry":{"x":175771.91999999993,"y":2541251.2599999998}},{"attributes":{"ID":275701,"DIS_CODE":0,"TOWNNAME":"歸仁區","LI":"南興里","LIN":"15鄰","STREET":"文化街","SECT":"三段","MAREA":" ","LANE":"５５０巷","ALLEY":" ","HOUSE_NO":"１４號","E_COORD97":175748.57000000001,"N_COORD97":2541250.2599999998,"ADDRESS":"文化街三段５５０巷１４號","OBJECTID":275696},"geometry":{"x":175748.57000000123,"y":2541250.2600000016}},{"attributes":{"ID":275702,"DIS_CODE":0,"TOWNNAME":"歸仁區","LI":"南興里","LIN":"15鄰","STREET":"文化街","SECT":"三段","MAREA":" ","LANE":"５５０巷","ALLEY":" ","HOUSE_NO":"１８號","E_COORD97":175748.67000000001,"N_COORD97":2541259.2599999998,"ADDRESS":"文化街三段５５０巷１８號","OBJECTID":275697},"geometry":{"x":175748.66999999993,"y":2541259.2600000035}},{"attributes":{"ID":275703,"DIS_CODE":0,"TOWNNAME":"北區","LI":"大港里","LIN":"15鄰","STREET":"大興街","SECT":" ","MAREA":" ","LANE":"２４６巷","ALLEY":" ","HOUSE_NO":"７８號","E_COORD97":166609.32000000001,"N_COORD97":2545875.9399999999,"ADDRESS":"大興街２４６巷７８號","OBJECTID":275698},"geometry":{"x":166609.3200000003,"y":2545875.9400000013}},{"attributes":{"ID":275704,"DIS_CODE":0,"TOWNNAME":"北區","LI":"大港里","LIN":"15鄰","STREET":"大興街","SECT":" ","MAREA":" ","LANE":"２４６巷","ALLEY":" ","HOUSE_NO":"８０號","E_COORD97":166608.10999999999,"N_COORD97":2545879.8700000001,"ADDRESS":"大興街２４６巷８０號","OBJECTID":275699},"geometry":{"x":166608.11000000127,"y":2545879.870000001}},{"attributes":{"ID":275705,"DIS_CODE":0,"TOWNNAME":"北區","LI":"大港里","LIN":"15鄰","STREET":"大興街","SECT":" ","MAREA":" ","LANE":"２４６巷","ALLEY":" ","HOUSE_NO":"８２號","E_COORD97":166607.35000000001,"N_COORD97":2545883.3500000001,"ADDRESS":"大興街２４６巷８２號","OBJECTID":275700},"geometry":{"x":166607.35000000056,"y":2545883.3500000015}},{"attributes":{"ID":275706,"DIS_CODE":0,"TOWNNAME":"白河區","LI":"竹門里","LIN":"3鄰","STREET":" ","SECT":" ","MAREA":"竹子門","LANE":" ","ALLEY":" ","HOUSE_NO":"３０號","E_COORD97":193563.64000000001,"N_COORD97":2586084.52,"ADDRESS":"竹子門３０號","OBJECTID":275701},"geometry":{"x":193563.64000000153,"y":2586084.5199999977}},{"attributes":{"ID":275707,"DIS_CODE":0,"TOWNNAME":"白河區","LI":"竹門里","LIN":"3鄰","STREET":" ","SECT":" ","MAREA":"竹子門","LANE":" ","ALLEY":" ","HOUSE_NO":"３１號","E_COORD97":193579.45000000001,"N_COORD97":2586090.4700000002,"ADDRESS":"竹子門３１號","OBJECTID":275702},"geometry":{"x":193579.45000000112,"y":2586090.4700000025}},{"attributes":{"ID":275708,"DIS_CODE":0,"TOWNNAME":"白河區","LI":"竹門里","LIN":"3鄰","STREET":" ","SECT":" ","MAREA":"竹子門","LANE":" ","ALLEY":" ","HOUSE_NO":"３３號之１","E_COORD97":193593.48000000001,"N_COORD97":2586089.7200000002,"ADDRESS":"竹子門３３號之１","OBJECTID":275703},"geometry":{"x":193593.48000000045,"y":2586089.7200000007}},{"attributes":{"ID":275709,"DIS_CODE":0,"TOWNNAME":"白河區","LI":"竹門里","LIN":"3鄰","STREET":" ","SECT":" ","MAREA":"竹子門","LANE":" ","ALLEY":" ","HOUSE_NO":"３３號","E_COORD97":193588.73999999999,"N_COORD97":2586099.0099999998,"ADDRESS":"竹子門３３號","OBJECTID":275704},"geometry":{"x":193588.74000000022,"y":2586099.0100000016}},{"attributes":{"ID":275710,"DIS_CODE":0,"TOWNNAME":"白河區","LI":"竹門里","LIN":"3鄰","STREET":" ","SECT":" ","MAREA":"竹子門","LANE":" ","ALLEY":" ","HOUSE_NO":"３６號","E_COORD97":193650.14000000001,"N_COORD97":2586084.77,"ADDRESS":"竹子門３６號","OBJECTID":275705},"geometry":{"x":193650.14000000153,"y":2586084.7699999996}},{"attributes":{"ID":275711,"DIS_CODE":0,"TOWNNAME":"白河區","LI":"竹門里","LIN":"3鄰","STREET":" ","SECT":" ","MAREA":"竹子門","LANE":" ","ALLEY":" ","HOUSE_NO":"３８號","E_COORD97":193573.82000000001,"N_COORD97":2586116.5499999998,"ADDRESS":"竹子門３８號","OBJECTID":275706},"geometry":{"x":193573.82000000123,"y":2586116.5500000026}},{"attributes":{"ID":275712,"DIS_CODE":0,"TOWNNAME":"白河區","LI":"竹門里","LIN":"3鄰","STREET":" ","SECT":" ","MAREA":"竹子門","LANE":" ","ALLEY":" ","HOUSE_NO":"３９之１號","E_COORD97":193609.92000000001,"N_COORD97":2586114.79,"ADDRESS":"竹子門３９之１號","OBJECTID":275707},"geometry":{"x":193609.92000000086,"y":2586114.7899999991}},{"attributes":{"ID":275713,"DIS_CODE":0,"TOWNNAME":"白河區","LI":"竹門里","LIN":"3鄰","STREET":" ","SECT":" ","MAREA":"竹子門","LANE":" ","ALLEY":" ","HOUSE_NO":"３９之３號","E_COORD97":193585.82999999999,"N_COORD97":2586130.4300000002,"ADDRESS":"竹子門３９之３號","OBJECTID":275708},"geometry":{"x":193585.83000000007,"y":2586130.4300000016}},{"attributes":{"ID":275714,"DIS_CODE":0,"TOWNNAME":"白河區","LI":"竹門里","LIN":"3鄰","STREET":" ","SECT":" ","MAREA":"竹子門","LANE":" ","ALLEY":" ","HOUSE_NO":"３９號","E_COORD97":193603.35000000001,"N_COORD97":2586132.0600000001,"ADDRESS":"竹子門３９號","OBJECTID":275709},"geometry":{"x":193603.35000000056,"y":2586132.0600000005}},{"attributes":{"ID":275715,"DIS_CODE":0,"TOWNNAME":"白河區","LI":"竹門里","LIN":"3鄰","STREET":" ","SECT":" ","MAREA":"竹子門","LANE":" ","ALLEY":" ","HOUSE_NO":"４１號","E_COORD97":193591.98999999999,"N_COORD97":2586149.8900000001,"ADDRESS":"竹子門４１號","OBJECTID":275710},"geometry":{"x":193591.99000000022,"y":2586149.8900000006}},{"attributes":{"ID":275716,"DIS_CODE":0,"TOWNNAME":"白河區","LI":"竹門里","LIN":"3鄰","STREET":" ","SECT":" ","MAREA":"竹子門","LANE":" ","ALLEY":" ","HOUSE_NO":"４３之１號","E_COORD97":193552.10999999999,"N_COORD97":2586143.8799999999,"ADDRESS":"竹子門４３之１號","OBJECTID":275711},"geometry":{"x":193552.11000000034,"y":2586143.8800000008}},{"attributes":{"ID":275717,"DIS_CODE":0,"TOWNNAME":"白河區","LI":"竹門里","LIN":"3鄰","STREET":" ","SECT":" ","MAREA":"竹子門","LANE":" ","ALLEY":" ","HOUSE_NO":"４３之２號","E_COORD97":193534.67000000001,"N_COORD97":2586157.8799999999,"ADDRESS":"竹子門４３之２號","OBJECTID":275712},"geometry":{"x":193534.66999999993,"y":2586157.8800000008}},{"attributes":{"ID":275718,"DIS_CODE":0,"TOWNNAME":"白河區","LI":"竹門里","LIN":"3鄰","STREET":" ","SECT":" ","MAREA":"竹子門","LANE":" ","ALLEY":" ","HOUSE_NO":"４５之１號","E_COORD97":193498.64000000001,"N_COORD97":2586139.4199999999,"ADDRESS":"竹子門４５之１號","OBJECTID":275713},"geometry":{"x":193498.63999999966,"y":2586139.4199999999}},{"attributes":{"ID":275719,"DIS_CODE":0,"TOWNNAME":"白河區","LI":"竹門里","LIN":"3鄰","STREET":" ","SECT":" ","MAREA":"竹子門","LANE":" ","ALLEY":" ","HOUSE_NO":"４５之２號","E_COORD97":193503.16,"N_COORD97":2586138.9300000002,"ADDRESS":"竹子門４５之２號","OBJECTID":275714},"geometry":{"x":193503.16000000108,"y":2586138.9299999997}},{"attributes":{"ID":275720,"DIS_CODE":0,"TOWNNAME":"白河區","LI":"竹門里","LIN":"3鄰","STREET":" ","SECT":" ","MAREA":"竹子門","LANE":" ","ALLEY":" ","HOUSE_NO":"４５之３號","E_COORD97":193512.22,"N_COORD97":2586133.73,"ADDRESS":"竹子門４５之３號","OBJECTID":275715},"geometry":{"x":193512.2200000016,"y":2586133.7300000004}},{"attributes":{"ID":275721,"DIS_CODE":0,"TOWNNAME":"白河區","LI":"竹門里","LIN":"3鄰","STREET":" ","SECT":" ","MAREA":"竹子門","LANE":" ","ALLEY":" ","HOUSE_NO":"４５之６號","E_COORD97":193507.44,"N_COORD97":2586134.4399999999,"ADDRESS":"竹子門４５之６號","OBJECTID":275716},"geometry":{"x":193507.44000000041,"y":2586134.4399999995}},{"attributes":{"ID":275722,"DIS_CODE":0,"TOWNNAME":"北區","LI":"大港里","LIN":"15鄰","STREET":"大興街","SECT":" ","MAREA":" ","LANE":"２４６巷","ALLEY":" ","HOUSE_NO":"８４號","E_COORD97":166606.29000000001,"N_COORD97":2545887.73,"ADDRESS":"大興街２４６巷８４號","OBJECTID":275717},"geometry":{"x":166606.29000000097,"y":2545887.7299999986}},{"attributes":{"ID":275723,"DIS_CODE":0,"TOWNNAME":"北區","LI":"大港里","LIN":"15鄰","STREET":"大興街","SECT":" ","MAREA":" ","LANE":"２４６巷","ALLEY":" ","HOUSE_NO":"８６號","E_COORD97":166606.53,"N_COORD97":2545891.8500000001,"ADDRESS":"大興街２４６巷８６號","OBJECTID":275718},"geometry":{"x":166606.53000000119,"y":2545891.8499999996}},{"attributes":{"ID":275724,"DIS_CODE":0,"TOWNNAME":"新營區","LI":"忠政里","LIN":"15鄰","STREET":"府西路","SECT":" ","MAREA":" ","LANE":"２３０巷","ALLEY":" ","HOUSE_NO":"４８號","E_COORD97":179952.60000000001,"N_COORD97":2579597.3300000001,"ADDRESS":"府西路２３０巷４８號","OBJECTID":275719},"geometry":{"x":179952.59999999963,"y":2579597.3300000038}},{"attributes":{"ID":275725,"DIS_CODE":0,"TOWNNAME":"新營區","LI":"忠政里","LIN":"15鄰","STREET":"府西路","SECT":" ","MAREA":" ","LANE":"２３０巷","ALLEY":" ","HOUSE_NO":"４５號","E_COORD97":179931.19,"N_COORD97":2579611.8300000001,"ADDRESS":"府西路２３０巷４５號","OBJECTID":275720},"geometry":{"x":179931.18999999948,"y":2579611.8300000019}},{"attributes":{"ID":275726,"DIS_CODE":0,"TOWNNAME":"永康區","LI":"永康里","LIN":"3鄰","STREET":"中山北路","SECT":" ","MAREA":" ","LANE":"３５巷","ALLEY":" ","HOUSE_NO":"３５號","E_COORD97":173893.98000000001,"N_COORD97":2547523.7400000002,"ADDRESS":"中山北路３５巷３５號","OBJECTID":275721},"geometry":{"x":173893.98000000045,"y":2547523.7400000002}},{"attributes":{"ID":275727,"DIS_CODE":0,"TOWNNAME":"永康區","LI":"龍潭里","LIN":"15鄰","STREET":"龍潭街","SECT":" ","MAREA":" ","LANE":" ","ALLEY":" ","HOUSE_NO":"２４８號","E_COORD97":174934.59,"N_COORD97":2548333,"ADDRESS":"龍潭街２４８號","OBJECTID":275722},"geometry":{"x":174934.59000000078,"y":2548333}},{"attributes":{"ID":275728,"DIS_CODE":0,"TOWNNAME":"永康區","LI":"龍潭里","LIN":"15鄰","STREET":"龍潭街","SECT":" ","MAREA":" ","LANE":" ","ALLEY":" ","HOUSE_NO":"２２２號","E_COORD97":174911.32999999999,"N_COORD97":2548288.4900000002,"ADDRESS":"龍潭街２２２號","OBJECTID":275723},"geometry":{"x":174911.33000000101,"y":2548288.4900000002}},{"attributes":{"ID":275729,"DIS_CODE":0,"TOWNNAME":"永康區","LI":"龍潭里","LIN":"15鄰","STREET":"龍潭街","SECT":" ","MAREA":" ","LANE":" ","ALLEY":" ","HOUSE_NO":"２４０號","E_COORD97":174927.82999999999,"N_COORD97":2548321.5600000001,"ADDRESS":"龍潭街２４０號","OBJECTID":275724},"geometry":{"x":174927.83000000101,"y":2548321.5600000024}},{"attributes":{"ID":275730,"DIS_CODE":0,"TOWNNAME":"新營區","LI":"南興里","LIN":"1鄰","STREET":"南昌街","SECT":" ","MAREA":" ","LANE":" ","ALLEY":" ","HOUSE_NO":"５之５號","E_COORD97":179670.32999999999,"N_COORD97":2577628.5699999998,"ADDRESS":"南昌街５之５號","OBJECTID":275725},"geometry":{"x":179670.33000000007,"y":2577628.5700000003}},{"attributes":{"ID":275731,"DIS_CODE":0,"TOWNNAME":"新營區","LI":"民權里","LIN":"3鄰","STREET":"信義街","SECT":" ","MAREA":" ","LANE":" ","ALLEY":" ","HOUSE_NO":"２０之１號","E_COORD97":179954.64999999999,"N_COORD97":2578207.54,"ADDRESS":"信義街２０之１號","OBJECTID":275726},"geometry":{"x":179954.65000000037,"y":2578207.5399999991}},{"attributes":{"ID":275732,"DIS_CODE":0,"TOWNNAME":"永康區","LI":"北灣里","LIN":"3鄰","STREET":"信義街","SECT":" ","MAREA":" ","LANE":" ","ALLEY":" ","HOUSE_NO":"９５號","E_COORD97":175266.75,"N_COORD97":2545637.4900000002,"ADDRESS":"信義街９５號","OBJECTID":275727},"geometry":{"x":175266.75,"y":2545637.4900000002}},{"attributes":{"ID":275733,"DIS_CODE":0,"TOWNNAME":"北區","LI":"大仁里","LIN":"3鄰","STREET":"北門路","SECT":"二段","MAREA":" ","LANE":" ","ALLEY":" ","HOUSE_NO":"３６０號三樓","E_COORD97":169585.91,"N_COORD97":2545417.46,"ADDRESS":"北門路二段３６０號三樓","OBJECTID":275728},"geometry":{"x":169585.91000000108,"y":2545417.4600000009}},{"attributes":{"ID":275734,"DIS_CODE":0,"TOWNNAME":"新營區","LI":"南興里","LIN":"15鄰","STREET":"興農街","SECT":" ","MAREA":" ","LANE":"１４０巷","ALLEY":" ","HOUSE_NO":"５之３號","E_COORD97":179231,"N_COORD97":2577524.3500000001,"ADDRESS":"興農街１４０巷５之３號","OBJECTID":275729},"geometry":{"x":179231.00000000093,"y":2577524.3499999996}},{"attributes":{"ID":275735,"DIS_CODE":0,"TOWNNAME":"新營區","LI":"南興里","LIN":"15鄰","STREET":"興農街","SECT":" ","MAREA":" ","LANE":"１４０巷","ALLEY":" ","HOUSE_NO":"９之３號","E_COORD97":179214.59,"N_COORD97":2577524.4199999999,"ADDRESS":"興農街１４０巷９之３號","OBJECTID":275730},"geometry":{"x":179214.59000000078,"y":2577524.4199999999}},{"attributes":{"ID":275736,"DIS_CODE":0,"TOWNNAME":"新營區","LI":"忠政里","LIN":"15鄰","STREET":"府西路","SECT":" ","MAREA":" ","LANE":"２３０巷","ALLEY":" ","HOUSE_NO":"５９號","E_COORD97":179970.01000000001,"N_COORD97":2579613.8599999999,"ADDRESS":"府西路２３０巷５９號","OBJECTID":275731},"geometry":{"x":179970.00999999978,"y":2579613.8600000013}},{"attributes":{"ID":275737,"DIS_CODE":0,"TOWNNAME":"新營區","LI":"忠政里","LIN":"15鄰","STREET":"府西路","SECT":" ","MAREA":" ","LANE":"２３０巷","ALLEY":" ","HOUSE_NO":"５７號","E_COORD97":179959.78,"N_COORD97":2579613.9100000001,"ADDRESS":"府西路２３０巷５７號","OBJECTID":275732},"geometry":{"x":179959.78000000119,"y":2579613.9100000039}},{"attributes":{"ID":275738,"DIS_CODE":0,"TOWNNAME":"新營區","LI":"南紙里","LIN":"15鄰","STREET":"南紙街","SECT":" ","MAREA":" ","LANE":"１５６巷","ALLEY":" ","HOUSE_NO":"１６號","E_COORD97":177795.70999999999,"N_COORD97":2577340.73,"ADDRESS":"南紙街１５６巷１６號","OBJECTID":275733},"geometry":{"x":177795.70999999996,"y":2577340.7300000023}},{"attributes":{"ID":275739,"DIS_CODE":0,"TOWNNAME":"新營區","LI":"忠政里","LIN":"15鄰","STREET":"府西路","SECT":" ","MAREA":" ","LANE":"２３０巷","ALLEY":" ","HOUSE_NO":"１５號","E_COORD97":179863.60000000001,"N_COORD97":2579609.9399999999,"ADDRESS":"府西路２３０巷１５號","OBJECTID":275734},"geometry":{"x":179863.60000000056,"y":2579609.9400000013}},{"attributes":{"ID":275740,"DIS_CODE":0,"TOWNNAME":"新營區","LI":"南興里","LIN":"15鄰","STREET":"興農街","SECT":" ","MAREA":" ","LANE":"１４０巷","ALLEY":" ","HOUSE_NO":"３號","E_COORD97":179236.76000000001,"N_COORD97":2577524.2599999998,"ADDRESS":"興農街１４０巷３號","OBJECTID":275735},"geometry":{"x":179236.76000000164,"y":2577524.2600000016}},{"attributes":{"ID":275741,"DIS_CODE":0,"TOWNNAME":"新營區","LI":"嘉芳里","LIN":"15鄰","STREET":"復興路","SECT":" ","MAREA":" ","LANE":"１０００巷","ALLEY":" ","HOUSE_NO":"３００號","E_COORD97":176324.75,"N_COORD97":2579218.3799999999,"ADDRESS":"復興路１０００巷３００號","OBJECTID":275736},"geometry":{"x":176324.75000000186,"y":2579218.379999999}},{"attributes":{"ID":275742,"DIS_CODE":0,"TOWNNAME":"永康區","LI":"東橋里","LIN":"15鄰","STREET":"東橋五路","SECT":" ","MAREA":" ","LANE":"８８巷","ALLEY":" ","HOUSE_NO":"１６號","E_COORD97":171771.14000000001,"N_COORD97":2546739.7999999998,"ADDRESS":"東橋五路８８巷１６號","OBJECTID":275737},"geometry":{"x":171771.13999999966,"y":2546739.8000000026}},{"attributes":{"ID":275743,"DIS_CODE":0,"TOWNNAME":"南區","LI":"日新里","LIN":"15鄰","STREET":"新興路","SECT":" ","MAREA":" ","LANE":"４６１巷","ALLEY":" ","HOUSE_NO":"１２號","E_COORD97":166840.56,"N_COORD97":2541587.8500000001,"ADDRESS":"新興路４６１巷１２號","OBJECTID":275738},"geometry":{"x":166840.55999999959,"y":2541587.8500000015}},{"attributes":{"ID":275744,"DIS_CODE":0,"TOWNNAME":"南區","LI":"日新里","LIN":"15鄰","STREET":"新興路","SECT":" ","MAREA":" ","LANE":"４６１巷","ALLEY":" ","HOUSE_NO":"１４號","E_COORD97":166836.92000000001,"N_COORD97":2541583.9100000001,"ADDRESS":"新興路４６１巷１４號","OBJECTID":275739},"geometry":{"x":166836.91999999993,"y":2541583.9100000039}},{"attributes":{"ID":275745,"DIS_CODE":0,"TOWNNAME":"南區","LI":"日新里","LIN":"15鄰","STREET":"新興路","SECT":" ","MAREA":" ","LANE":"４６１巷","ALLEY":" ","HOUSE_NO":"１６號","E_COORD97":166828.39999999999,"N_COORD97":2541595.8999999999,"ADDRESS":"新興路４６１巷１６號","OBJECTID":275740},"geometry":{"x":166828.4000000013,"y":2541595.9000000022}},{"attributes":{"ID":275746,"DIS_CODE":0,"TOWNNAME":"南區","LI":"日新里","LIN":"15鄰","STREET":"新興路","SECT":" ","MAREA":" ","LANE":"４６１巷","ALLEY":" ","HOUSE_NO":"１８號","E_COORD97":166821.29000000001,"N_COORD97":2541601.6600000001,"ADDRESS":"新興路４６１巷１８號","OBJECTID":275741},"geometry":{"x":166821.2900000019,"y":2541601.6600000001}},{"attributes":{"ID":275747,"DIS_CODE":0,"TOWNNAME":"南區","LI":"日新里","LIN":"15鄰","STREET":"新興路","SECT":" ","MAREA":" ","LANE":"４６１巷","ALLEY":" ","HOUSE_NO":"２０號","E_COORD97":166820.34,"N_COORD97":2541586.8300000001,"ADDRESS":"新興路４６１巷２０號","OBJECTID":275742},"geometry":{"x":166820.33999999985,"y":2541586.8300000001}},{"attributes":{"ID":275748,"DIS_CODE":0,"TOWNNAME":"南區","LI":"日新里","LIN":"15鄰","STREET":"新興路","SECT":" ","MAREA":" ","LANE":"４６１巷","ALLEY":" ","HOUSE_NO":"２２號","E_COORD97":166831.73000000001,"N_COORD97":2541577.1699999999,"ADDRESS":"新興路４６１巷２２號","OBJECTID":275743},"geometry":{"x":166831.73000000045,"y":2541577.1699999999}},{"attributes":{"ID":275749,"DIS_CODE":0,"TOWNNAME":"南區","LI":"日新里","LIN":"15鄰","STREET":"新興路","SECT":" ","MAREA":" ","LANE":"４６１巷","ALLEY":" ","HOUSE_NO":"２４號","E_COORD97":166828.39999999999,"N_COORD97":2541574.23,"ADDRESS":"新興路４６１巷２４號","OBJECTID":275744},"geometry":{"x":166828.4000000013,"y":2541574.2300000004}},{"attributes":{"ID":275750,"DIS_CODE":0,"TOWNNAME":"南區","LI":"日新里","LIN":"15鄰","STREET":"新興路","SECT":" ","MAREA":" ","LANE":"４６１巷","ALLEY":" ","HOUSE_NO":"２８號","E_COORD97":166821.95000000001,"N_COORD97":2541567.3799999999,"ADDRESS":"新興路４６１巷２８號","OBJECTID":275745},"geometry":{"x":166821.95000000019,"y":2541567.3800000008}},{"attributes":{"ID":275751,"DIS_CODE":0,"TOWNNAME":"南區","LI":"田寮里","LIN":"15鄰","STREET":"西門路","SECT":"一段","MAREA":" ","LANE":"３６１巷","ALLEY":" ","HOUSE_NO":"１號","E_COORD97":167703.45000000001,"N_COORD97":2542105.8500000001,"ADDRESS":"西門路一段３６１巷１號","OBJECTID":275746},"geometry":{"x":167703.45000000019,"y":2542105.8500000034}},{"attributes":{"ID":275752,"DIS_CODE":0,"TOWNNAME":"南區","LI":"田寮里","LIN":"15鄰","STREET":"西門路","SECT":"一段","MAREA":" ","LANE":"３６１巷","ALLEY":" ","HOUSE_NO":"３號","E_COORD97":167699.39999999999,"N_COORD97":2542106.3999999999,"ADDRESS":"西門路一段３６１巷３號","OBJECTID":275747},"geometry":{"x":167699.4000000013,"y":2542106.4000000041}},{"attributes":{"ID":275753,"DIS_CODE":0,"TOWNNAME":"南區","LI":"田寮里","LIN":"15鄰","STREET":"西門路","SECT":"一段","MAREA":" ","LANE":"３６１巷","ALLEY":" ","HOUSE_NO":"５號","E_COORD97":167694.98000000001,"N_COORD97":2542106.2200000002,"ADDRESS":"西門路一段３６１巷５號","OBJECTID":275748},"geometry":{"x":167694.98000000045,"y":2542106.2200000007}},{"attributes":{"ID":275754,"DIS_CODE":0,"TOWNNAME":"南區","LI":"田寮里","LIN":"15鄰","STREET":"西門路","SECT":"一段","MAREA":" ","LANE":"３６１巷","ALLEY":" ","HOUSE_NO":"７號","E_COORD97":167690.73999999999,"N_COORD97":2542106.2200000002,"ADDRESS":"西門路一段３６１巷７號","OBJECTID":275749},"geometry":{"x":167690.74000000022,"y":2542106.2200000007}},{"attributes":{"ID":275755,"DIS_CODE":0,"TOWNNAME":"中西區","LI":"民生里","LIN":"15鄰","STREET":"大仁街","SECT":" ","MAREA":" ","LANE":"１３９巷","ALLEY":" ","HOUSE_NO":"７號","E_COORD97":167186.64999999999,"N_COORD97":2543450.8399999999,"ADDRESS":"大仁街１３９巷７號","OBJECTID":275750},"geometry":{"x":167186.65000000037,"y":2543450.8399999999}},{"attributes":{"ID":275756,"DIS_CODE":0,"TOWNNAME":"永康區","LI":"安康里","LIN":"15鄰","STREET":"中華路","SECT":" ","MAREA":" ","LANE":"６１９巷","ALLEY":" ","HOUSE_NO":"２６號","E_COORD97":170978.14999999999,"N_COORD97":2546069.7400000002,"ADDRESS":"中華路６１９巷２６號","OBJECTID":275751},"geometry":{"x":170978.1500000013,"y":2546069.7400000002}},{"attributes":{"ID":275757,"DIS_CODE":0,"TOWNNAME":"新化區","LI":"知義里","LIN":"12鄰","STREET":" ","SECT":" ","MAREA":"口埤","LANE":" ","ALLEY":" ","HOUSE_NO":"３５號","E_COORD97":183306.70000000001,"N_COORD97":2547160.25,"ADDRESS":"口埤３５號","OBJECTID":275752},"geometry":{"x":183306.70000000112,"y":2547160.2500000019}},{"attributes":{"ID":275758,"DIS_CODE":0,"TOWNNAME":"新化區","LI":"太平里","LIN":"15鄰","STREET":"太平街","SECT":" ","MAREA":" ","LANE":"６３巷","ALLEY":" ","HOUSE_NO":"８號","E_COORD97":178824.26999999999,"N_COORD97":2548743.25,"ADDRESS":"太平街６３巷８號","OBJECTID":275753},"geometry":{"x":178824.26999999955,"y":2548743.2500000019}},{"attributes":{"ID":275759,"DIS_CODE":0,"TOWNNAME":"安南區","LI":"安西里","LIN":"15鄰","STREET":"安和路","SECT":"一段","MAREA":" ","LANE":"４５９巷","ALLEY":" ","HOUSE_NO":"１２之１號","E_COORD97":169319.75,"N_COORD97":2548497.3199999998,"ADDRESS":"安和路一段４５９巷１２之１號","OBJECTID":275754},"geometry":{"x":169319.75,"y":2548497.3200000003}},{"attributes":{"ID":275760,"DIS_CODE":0,"TOWNNAME":"安南區","LI":"幸福里","LIN":"15鄰","STREET":"府安路","SECT":"六段","MAREA":" ","LANE":"４５巷","ALLEY":" ","HOUSE_NO":"４５號","E_COORD97":166925.59,"N_COORD97":2546777.98,"ADDRESS":"府安路六段４５巷４５號","OBJECTID":275755},"geometry":{"x":166925.58999999985,"y":2546777.9800000042}},{"attributes":{"ID":275761,"DIS_CODE":0,"TOWNNAME":"仁德區","LI":"一甲里","LIN":"15鄰","STREET":"忠義路","SECT":" ","MAREA":" ","LANE":"７５巷","ALLEY":" ","HOUSE_NO":"１號","E_COORD97":174405.06,"N_COORD97":2541702.2599999998,"ADDRESS":"忠義路７５巷１號","OBJECTID":275756},"geometry":{"x":174405.06000000145,"y":2541702.2599999998}},{"attributes":{"ID":275762,"DIS_CODE":0,"TOWNNAME":"仁德區","LI":"一甲里","LIN":"15鄰","STREET":"忠義路","SECT":" ","MAREA":" ","LANE":"７５巷","ALLEY":" ","HOUSE_NO":"８號","E_COORD97":174370.5,"N_COORD97":2541674.52,"ADDRESS":"忠義路７５巷８號","OBJECTID":275757},"geometry":{"x":174370.50000000093,"y":2541674.5200000014}},{"attributes":{"ID":275763,"DIS_CODE":0,"TOWNNAME":"仁德區","LI":"新田里","LIN":"15鄰","STREET":"北保東路","SECT":" ","MAREA":" ","LANE":"８巷","ALLEY":" ","HOUSE_NO":"７號","E_COORD97":173369.12,"N_COORD97":2539379.75,"ADDRESS":"北保東路８巷７號","OBJECTID":275758},"geometry":{"x":173369.12000000011,"y":2539379.75}},{"attributes":{"ID":275764,"DIS_CODE":0,"TOWNNAME":"仁德區","LI":"後壁里","LIN":"15鄰","STREET":"德南路","SECT":" ","MAREA":" ","LANE":"１３７巷","ALLEY":" ","HOUSE_NO":"６６之８號","E_COORD97":173646.45999999999,"N_COORD97":2538644.3700000001,"ADDRESS":"德南路１３７巷６６之８號","OBJECTID":275759},"geometry":{"x":173646.45999999996,"y":2538644.370000001}},{"attributes":{"ID":275765,"DIS_CODE":0,"TOWNNAME":"仁德區","LI":"新田里","LIN":"15鄰","STREET":"北保東路","SECT":" ","MAREA":" ","LANE":"８巷","ALLEY":" ","HOUSE_NO":"１２號","E_COORD97":173353.79999999999,"N_COORD97":2539372.75,"ADDRESS":"北保東路８巷１２號","OBJECTID":275760},"geometry":{"x":173353.79999999981,"y":2539372.75}},{"attributes":{"ID":275766,"DIS_CODE":0,"TOWNNAME":"仁德區","LI":"新田里","LIN":"15鄰","STREET":"北保東路","SECT":" ","MAREA":" ","LANE":"８巷","ALLEY":" ","HOUSE_NO":"８號","E_COORD97":173356.42000000001,"N_COORD97":2539380,"ADDRESS":"北保東路８巷８號","OBJECTID":275761},"geometry":{"x":173356.41999999993,"y":2539380.0000000019}},{"attributes":{"ID":275767,"DIS_CODE":0,"TOWNNAME":"仁德區","LI":"二行里","LIN":"15鄰","STREET":"行大街","SECT":" ","MAREA":" ","LANE":"１７２巷","ALLEY":" ","HOUSE_NO":"１０６號","E_COORD97":169734.5,"N_COORD97":2535254,"ADDRESS":"行大街１７２巷１０６號","OBJECTID":275762},"geometry":{"x":169734.50000000093,"y":2535254.0000000019}},{"attributes":{"ID":275768,"DIS_CODE":0,"TOWNNAME":"永康區","LI":"安康里","LIN":"15鄰","STREET":"中華路","SECT":" ","MAREA":" ","LANE":"６１９巷","ALLEY":" ","HOUSE_NO":"６２號","E_COORD97":170920.64000000001,"N_COORD97":2546036.25,"ADDRESS":"中華路６１９巷６２號","OBJECTID":275763},"geometry":{"x":170920.63999999966,"y":2546036.2499999981}},{"attributes":{"ID":275769,"DIS_CODE":0,"TOWNNAME":"永康區","LI":"安康里","LIN":"15鄰","STREET":"中華路","SECT":" ","MAREA":" ","LANE":"６１９巷","ALLEY":" ","HOUSE_NO":"４６號","E_COORD97":170959.85999999999,"N_COORD97":2546058.2400000002,"ADDRESS":"中華路６１９巷４６號","OBJECTID":275764},"geometry":{"x":170959.86000000127,"y":2546058.2400000021}},{"attributes":{"ID":275770,"DIS_CODE":0,"TOWNNAME":"永康區","LI":"永康里","LIN":"15鄰","STREET":"永中街","SECT":" ","MAREA":" ","LANE":"１００巷","ALLEY":" ","HOUSE_NO":"２號","E_COORD97":173961.57000000001,"N_COORD97":2547203.2400000002,"ADDRESS":"永中街１００巷２號","OBJECTID":275765},"geometry":{"x":173961.57000000216,"y":2547203.2400000039}},{"attributes":{"ID":275771,"DIS_CODE":0,"TOWNNAME":"永康區","LI":"安康里","LIN":"15鄰","STREET":"中華路","SECT":" ","MAREA":" ","LANE":"６１９巷","ALLEY":" ","HOUSE_NO":"５６號之１","E_COORD97":170934.23999999999,"N_COORD97":2546042.79,"ADDRESS":"中華路６１９巷５６號之１","OBJECTID":275766},"geometry":{"x":170934.24000000022,"y":2546042.790000001}},{"attributes":{"ID":275772,"DIS_CODE":0,"TOWNNAME":"永康區","LI":"崑山里","LIN":"15鄰","STREET":"大灣路","SECT":" ","MAREA":" ","LANE":"９４２巷","ALLEY":" ","HOUSE_NO":"３號","E_COORD97":173606.06,"N_COORD97":2544437.4399999999,"ADDRESS":"大灣路９４２巷３號","OBJECTID":275767},"geometry":{"x":173606.05999999959,"y":2544437.4399999995}},{"attributes":{"ID":275773,"DIS_CODE":0,"TOWNNAME":"永康區","LI":"西灣里","LIN":"15鄰","STREET":"大安街","SECT":" ","MAREA":" ","LANE":"１０７巷","ALLEY":" ","HOUSE_NO":"６０號","E_COORD97":174422.31,"N_COORD97":2545128.9100000001,"ADDRESS":"大安街１０７巷６０號","OBJECTID":275768},"geometry":{"x":174422.31000000052,"y":2545128.9100000001}},{"attributes":{"ID":275774,"DIS_CODE":0,"TOWNNAME":"永康區","LI":"二王里","LIN":"15鄰","STREET":"忠孝路","SECT":" ","MAREA":" ","LANE":"４５０巷","ALLEY":" ","HOUSE_NO":"１３號","E_COORD97":172535.89000000001,"N_COORD97":2546621.9199999999,"ADDRESS":"忠孝路４５０巷１３號","OBJECTID":275769},"geometry":{"x":172535.88999999966,"y":2546621.9200000037}},{"attributes":{"ID":275775,"DIS_CODE":0,"TOWNNAME":"仁德區","LI":"仁義里","LIN":"4鄰","STREET":"仁義四街","SECT":" ","MAREA":" ","LANE":" ","ALLEY":" ","HOUSE_NO":"３９號","E_COORD97":173796.98999999999,"N_COORD97":2541061.52,"ADDRESS":"仁義四街３９號","OBJECTID":275770},"geometry":{"x":173796.99000000022,"y":2541061.5200000014}},{"attributes":{"ID":275776,"DIS_CODE":0,"TOWNNAME":"永康區","LI":"東橋里","LIN":"15鄰","STREET":"中山南路","SECT":" ","MAREA":" ","LANE":"３４７巷","ALLEY":" ","HOUSE_NO":"３５號","E_COORD97":171894.54000000001,"N_COORD97":2546538.1800000002,"ADDRESS":"中山南路３４７巷３５號","OBJECTID":275771},"geometry":{"x":171894.54000000004,"y":2546538.1799999978}},{"attributes":{"ID":275777,"DIS_CODE":0,"TOWNNAME":"永康區","LI":"正強里","LIN":"15鄰","STREET":"正強街","SECT":" ","MAREA":" ","LANE":"６３巷","ALLEY":" ","HOUSE_NO":"２２號","E_COORD97":173294.59,"N_COORD97":2547301.3999999999,"ADDRESS":"正強街６３巷２２號","OBJECTID":275772},"geometry":{"x":173294.58999999892,"y":2547301.4000000022}},{"attributes":{"ID":275778,"DIS_CODE":0,"TOWNNAME":"永康區","LI":"王行里","LIN":"15鄰","STREET":"龍昌街","SECT":" ","MAREA":" ","LANE":"１２０巷","ALLEY":" ","HOUSE_NO":"２８號","E_COORD97":175105.95999999999,"N_COORD97":2548061.0899999999,"ADDRESS":"龍昌街１２０巷２８號","OBJECTID":275773},"geometry":{"x":175105.95999999996,"y":2548061.0899999999}},{"attributes":{"ID":275779,"DIS_CODE":0,"TOWNNAME":"永康區","LI":"二王里","LIN":"15鄰","STREET":"忠孝路","SECT":" ","MAREA":" ","LANE":"４６８巷","ALLEY":" ","HOUSE_NO":"１２號","E_COORD97":172539.16,"N_COORD97":2546663.3999999999,"ADDRESS":"忠孝路４６８巷１２號","OBJECTID":275774},"geometry":{"x":172539.16000000108,"y":2546663.4000000022}},{"attributes":{"ID":275780,"DIS_CODE":0,"TOWNNAME":"七股區","LI":"竹橋里","LIN":"6鄰","STREET":" ","SECT":" ","MAREA":"竹橋","LANE":" ","ALLEY":" ","HOUSE_NO":"７４號","E_COORD97":164021.92000000001,"N_COORD97":2555817.1699999999,"ADDRESS":"竹橋７４號","OBJECTID":275775},"geometry":{"x":164021.92000000086,"y":2555817.1699999999}},{"attributes":{"ID":275781,"DIS_CODE":0,"TOWNNAME":"永康區","LI":"崑山里","LIN":"15鄰","STREET":"大灣路","SECT":" ","MAREA":" ","LANE":"９６０巷","ALLEY":" ","HOUSE_NO":"２１號","E_COORD97":173580.42999999999,"N_COORD97":2544489.2400000002,"ADDRESS":"大灣路９６０巷２１號","OBJECTID":275776},"geometry":{"x":173580.43000000156,"y":2544489.2400000002}},{"attributes":{"ID":275782,"DIS_CODE":0,"TOWNNAME":"永康區","LI":"復華里","LIN":"15鄰","STREET":"國華街","SECT":" ","MAREA":" ","LANE":"８７巷","ALLEY":" ","HOUSE_NO":"１４號","E_COORD97":172810.20000000001,"N_COORD97":2545894.98,"ADDRESS":"國華街８７巷１４號","OBJECTID":275777},"geometry":{"x":172810.20000000112,"y":2545894.9800000004}},{"attributes":{"ID":275783,"DIS_CODE":0,"TOWNNAME":"永康區","LI":"埔園里","LIN":"15鄰","STREET":"龍埔街","SECT":" ","MAREA":" ","LANE":"５３６巷","ALLEY":" ","HOUSE_NO":"３號","E_COORD97":173543.39999999999,"N_COORD97":2548408.75,"ADDRESS":"龍埔街５３６巷３號","OBJECTID":275778},"geometry":{"x":173543.40000000037,"y":2548408.75}},{"attributes":{"ID":275784,"DIS_CODE":0,"TOWNNAME":"安南區","LI":"溪心里","LIN":"15鄰","STREET":"仁安一街","SECT":" ","MAREA":" ","LANE":"２０７巷","ALLEY":" ","HOUSE_NO":"１９號","E_COORD97":165870.35999999999,"N_COORD97":2550459.75,"ADDRESS":"仁安一街２０７巷１９號","OBJECTID":275779},"geometry":{"x":165870.36000000127,"y":2550459.75}},{"attributes":{"ID":275785,"DIS_CODE":0,"TOWNNAME":"安南區","LI":"溪心里","LIN":"15鄰","STREET":"仁安一街","SECT":" ","MAREA":" ","LANE":"２０７巷","ALLEY":" ","HOUSE_NO":"２１號","E_COORD97":165868.29999999999,"N_COORD97":2550463.7200000002,"ADDRESS":"仁安一街２０７巷２１號","OBJECTID":275780},"geometry":{"x":165868.30000000168,"y":2550463.7200000007}},{"attributes":{"ID":275786,"DIS_CODE":0,"TOWNNAME":"南區","LI":"府南里","LIN":"15鄰","STREET":"金華路","SECT":"一段","MAREA":" ","LANE":"５３０巷","ALLEY":" ","HOUSE_NO":"１１號","E_COORD97":167108.62,"N_COORD97":2541658.4399999999,"ADDRESS":"金華路一段５３０巷１１號","OBJECTID":275781},"geometry":{"x":167108.62000000011,"y":2541658.4400000013}},{"attributes":{"ID":275787,"DIS_CODE":0,"TOWNNAME":"南區","LI":"建南里","LIN":"15鄰","STREET":"中華南路","SECT":"二段","MAREA":" ","LANE":"２３３巷","ALLEY":" ","HOUSE_NO":"７號","E_COORD97":166900.59,"N_COORD97":2540170.23,"ADDRESS":"中華南路二段２３３巷７號","OBJECTID":275782},"geometry":{"x":166900.59000000171,"y":2540170.2300000004}},{"attributes":{"ID":275788,"DIS_CODE":0,"TOWNNAME":"南區","LI":"建南里","LIN":"15鄰","STREET":"中華南路","SECT":"二段","MAREA":" ","LANE":"２３３巷","ALLEY":" ","HOUSE_NO":"９號","E_COORD97":166901.92999999999,"N_COORD97":2540166.96,"ADDRESS":"中華南路二段２３３巷９號","OBJECTID":275783},"geometry":{"x":166901.93000000063,"y":2540166.959999999}},{"attributes":{"ID":275789,"DIS_CODE":0,"TOWNNAME":"南區","LI":"建南里","LIN":"15鄰","STREET":"中華南路","SECT":"二段","MAREA":" ","LANE":"２３３巷","ALLEY":" ","HOUSE_NO":"１１號","E_COORD97":166904.31,"N_COORD97":2540162.2000000002,"ADDRESS":"中華南路二段２３３巷１１號","OBJECTID":275784},"geometry":{"x":166904.31000000052,"y":2540162.1999999993}},{"attributes":{"ID":275790,"DIS_CODE":0,"TOWNNAME":"南區","LI":"建南里","LIN":"15鄰","STREET":"中華南路","SECT":"二段","MAREA":" ","LANE":"２３３巷","ALLEY":" ","HOUSE_NO":"１３號","E_COORD97":166916.23999999999,"N_COORD97":2540154.5,"ADDRESS":"中華南路二段２３３巷１３號","OBJECTID":275785},"geometry":{"x":166916.24000000022,"y":2540154.5}},{"attributes":{"ID":275791,"DIS_CODE":0,"TOWNNAME":"南區","LI":"建南里","LIN":"15鄰","STREET":"中華南路","SECT":"二段","MAREA":" ","LANE":"２３３巷","ALLEY":" ","HOUSE_NO":"１５號","E_COORD97":166908.32999999999,"N_COORD97":2540153.8799999999,"ADDRESS":"中華南路二段２３３巷１５號","OBJECTID":275786},"geometry":{"x":166908.33000000101,"y":2540153.879999999}},{"attributes":{"ID":275792,"DIS_CODE":0,"TOWNNAME":"南區","LI":"建南里","LIN":"15鄰","STREET":"中華南路","SECT":"二段","MAREA":" ","LANE":"２３３巷","ALLEY":" ","HOUSE_NO":"１７號","E_COORD97":166909.51999999999,"N_COORD97":2540150.6099999999,"ADDRESS":"中華南路二段２３３巷１７號","OBJECTID":275787},"geometry":{"x":166909.52000000048,"y":2540150.6099999994}},{"attributes":{"ID":275793,"DIS_CODE":0,"TOWNNAME":"南區","LI":"建南里","LIN":"15鄰","STREET":"中華南路","SECT":"二段","MAREA":" ","LANE":"２３３巷","ALLEY":" ","HOUSE_NO":"１９號","E_COORD97":166913.07000000001,"N_COORD97":2540150,"ADDRESS":"中華南路二段２３３巷１９號","OBJECTID":275788},"geometry":{"x":166913.07000000123,"y":2540150.0000000019}},{"attributes":{"ID":275794,"DIS_CODE":0,"TOWNNAME":"新營區","LI":"民榮里","LIN":"3鄰","STREET":"新進路","SECT":"二段","MAREA":" ","LANE":" ","ALLEY":" ","HOUSE_NO":"４９６之１號十三樓","E_COORD97":178677.29999999999,"N_COORD97":2578064.1400000001,"ADDRESS":"新進路二段４９６之１號十三樓","OBJECTID":275789},"geometry":{"x":178677.30000000168,"y":2578064.1400000025}},{"attributes":{"ID":275795,"DIS_CODE":0,"TOWNNAME":"南區","LI":"建南里","LIN":"15鄰","STREET":"中華南路","SECT":"二段","MAREA":" ","LANE":"２３３巷","ALLEY":" ","HOUSE_NO":"２５號","E_COORD97":166912.23000000001,"N_COORD97":2540134.3999999999,"ADDRESS":"中華南路二段２３３巷２５號","OBJECTID":275790},"geometry":{"x":166912.23000000138,"y":2540134.4000000022}},{"attributes":{"ID":275796,"DIS_CODE":0,"TOWNNAME":"南區","LI":"建南里","LIN":"15鄰","STREET":"中華南路","SECT":"二段","MAREA":" ","LANE":"２３３巷","ALLEY":" ","HOUSE_NO":"２７號","E_COORD97":166914.22,"N_COORD97":2540129.6699999999,"ADDRESS":"中華南路二段２３３巷２７號","OBJECTID":275791},"geometry":{"x":166914.21999999974,"y":2540129.6699999999}},{"attributes":{"ID":275797,"DIS_CODE":0,"TOWNNAME":"南區","LI":"建南里","LIN":"15鄰","STREET":"中華南路","SECT":"二段","MAREA":" ","LANE":"２３３巷","ALLEY":" ","HOUSE_NO":"２９號","E_COORD97":166915.29000000001,"N_COORD97":2540125.3900000001,"ADDRESS":"中華南路二段２３３巷２９號","OBJECTID":275792},"geometry":{"x":166915.29000000097,"y":2540125.3900000006}},{"attributes":{"ID":275798,"DIS_CODE":0,"TOWNNAME":"新化區","LI":"知義里","LIN":"15鄰","STREET":"中興路","SECT":" ","MAREA":" ","LANE":"４１５巷","ALLEY":" ","HOUSE_NO":"２６號","E_COORD97":180625.85999999999,"N_COORD97":2547409.25,"ADDRESS":"中興路４１５巷２６號","OBJECTID":275793},"geometry":{"x":180625.86000000127,"y":2547409.25}},{"attributes":{"ID":275799,"DIS_CODE":0,"TOWNNAME":"南區","LI":"建南里","LIN":"15鄰","STREET":"中華南路","SECT":"二段","MAREA":" ","LANE":"２３３巷","ALLEY":" ","HOUSE_NO":"３３號","E_COORD97":166921.28,"N_COORD97":2540114.21,"ADDRESS":"中華南路二段２３３巷３３號","OBJECTID":275794},"geometry":{"x":166921.28000000026,"y":2540114.2100000009}},{"attributes":{"ID":275800,"DIS_CODE":0,"TOWNNAME":"南區","LI":"建南里","LIN":"15鄰","STREET":"中華南路","SECT":"二段","MAREA":" ","LANE":"２３３巷","ALLEY":" ","HOUSE_NO":"３５號","E_COORD97":166921.92000000001,"N_COORD97":2540109.5,"ADDRESS":"中華南路二段２３３巷３５號","OBJECTID":275795},"geometry":{"x":166921.91999999899,"y":2540109.5000000019}},{"attributes":{"ID":275801,"DIS_CODE":0,"TOWNNAME":"南區","LI":"建南里","LIN":"15鄰","STREET":"中華南路","SECT":"二段","MAREA":" ","LANE":"２３３巷","ALLEY":" ","HOUSE_NO":"３７號","E_COORD97":166923.85000000001,"N_COORD97":2540105.23,"ADDRESS":"中華南路二段２３３巷３７號","OBJECTID":275796},"geometry":{"x":166923.85000000149,"y":2540105.2300000023}},{"attributes":{"ID":275802,"DIS_CODE":0,"TOWNNAME":"中西區","LI":"元安里","LIN":"3鄰","STREET":"國華街","SECT":"二段","MAREA":" ","LANE":" ","ALLEY":" ","HOUSE_NO":"４５號七樓之１","E_COORD97":167587.14000000001,"N_COORD97":2543280.5,"ADDRESS":"國華街二段４５號七樓之１","OBJECTID":275797},"geometry":{"x":167587.1400000006,"y":2543280.5}},{"attributes":{"ID":275803,"DIS_CODE":0,"TOWNNAME":"南區","LI":"建南里","LIN":"15鄰","STREET":"中華南路","SECT":"二段","MAREA":" ","LANE":"２３３巷","ALLEY":" ","HOUSE_NO":"３９號","E_COORD97":166925.98999999999,"N_COORD97":2540100.7400000002,"ADDRESS":"中華南路二段２３３巷３９號","OBJECTID":275798},"geometry":{"x":166925.99000000115,"y":2540100.7400000021}},{"attributes":{"ID":275804,"DIS_CODE":0,"TOWNNAME":"南區","LI":"建南里","LIN":"15鄰","STREET":"中華南路","SECT":"二段","MAREA":" ","LANE":"２３３巷","ALLEY":" ","HOUSE_NO":"４１號","E_COORD97":166927.28,"N_COORD97":2540096.46,"ADDRESS":"中華南路二段２３３巷４１號","OBJECTID":275799},"geometry":{"x":166927.28000000119,"y":2540096.4600000028}},{"attributes":{"ID":275805,"DIS_CODE":0,"TOWNNAME":"中西區","LI":"元安里","LIN":"3鄰","STREET":"國華街","SECT":"二段","MAREA":" ","LANE":" ","ALLEY":" ","HOUSE_NO":"４５號七樓之２","E_COORD97":167587.14000000001,"N_COORD97":2543280.5,"ADDRESS":"國華街二段４５號七樓之２","OBJECTID":275800},"geometry":{"x":167587.1400000006,"y":2543280.5}}]}