{"displayFieldName":"TOWNNAME","fieldAliases":{"ID":"ID","DIS_CODE":"DIS_CODE","TOWNNAME":"TOWNNAME","LI":"LI","LIN":"LIN","STREET":"STREET","SECT":"SECT","MAREA":"MAREA","LANE":"LANE","ALLEY":"ALLEY","HOUSE_NO":"HOUSE_NO","E_COORD97":"E_COORD97","N_COORD97":"N_COORD97","ADDRESS":"ADDRESS","OBJECTID":"OBJECTID"},"geometryType":"esriGeometryPoint","spatialReference":{"wkid":102443,"latestWkid":3826},"fields":[{"name":"ID","type":"esriFieldTypeDouble","alias":"ID"},{"name":"DIS_CODE","type":"esriFieldTypeInteger","alias":"DIS_CODE"},{"name":"TOWNNAME","type":"esriFieldTypeString","alias":"TOWNNAME","length":8},{"name":"LI","type":"esriFieldTypeString","alias":"LI","length":8},{"name":"LIN","type":"esriFieldTypeString","alias":"LIN","length":12},{"name":"STREET","type":"esriFieldTypeString","alias":"STREET","length":20},{"name":"SECT","type":"esriFieldTypeString","alias":"SECT","length":8},{"name":"MAREA","type":"esriFieldTypeString","alias":"MAREA","length":12},{"name":"LANE","type":"esriFieldTypeString","alias":"LANE","length":10},{"name":"ALLEY","type":"esriFieldTypeString","alias":"ALLEY","length":10},{"name":"HOUSE_NO","type":"esriFieldTypeString","alias":"HOUSE_NO","length":20},{"name":"E_COORD97","type":"esriFieldTypeDouble","alias":"E_COORD97"},{"name":"N_COORD97","type":"esriFieldTypeDouble","alias":"N_COORD97"},{"name":"ADDRESS","type":"esriFieldTypeString","alias":"ADDRESS","length":50},{"name":"OBJECTID","type":"esriFieldTypeOID","alias":"OBJECTID"}],"features":[{"attributes":{"ID":298409,"DIS_CODE":0,"TOWNNAME":"東區","LI":"復興里","LIN":"8鄰","STREET":"裕學路","SECT":" ","MAREA":" ","LANE":"１８５巷","ALLEY":" ","HOUSE_NO":"２１號","E_COORD97":171697.72,"N_COORD97":2542784.0299999998,"ADDRESS":"裕學路１８５巷２１號","OBJECTID":298401},"geometry":{"x":171697.71999999974,"y":2542784.0300000012}},{"attributes":{"ID":298410,"DIS_CODE":0,"TOWNNAME":"東區","LI":"復興里","LIN":"8鄰","STREET":"裕學路","SECT":" ","MAREA":" ","LANE":"１８５巷","ALLEY":" ","HOUSE_NO":"２５號","E_COORD97":171697.38,"N_COORD97":2542775.8599999999,"ADDRESS":"裕學路１８５巷２５號","OBJECTID":298402},"geometry":{"x":171697.37999999989,"y":2542775.8599999994}},{"attributes":{"ID":298411,"DIS_CODE":0,"TOWNNAME":"東區","LI":"復興里","LIN":"8鄰","STREET":"裕學路","SECT":" ","MAREA":" ","LANE":"１８５巷","ALLEY":" ","HOUSE_NO":"２６號","E_COORD97":171675.22,"N_COORD97":2542780.6899999999,"ADDRESS":"裕學路１８５巷２６號","OBJECTID":298403},"geometry":{"x":171675.22000000067,"y":2542780.6899999995}},{"attributes":{"ID":298412,"DIS_CODE":0,"TOWNNAME":"東區","LI":"復興里","LIN":"8鄰","STREET":"裕學路","SECT":" ","MAREA":" ","LANE":"１８５巷","ALLEY":" ","HOUSE_NO":"２７號","E_COORD97":171697.72,"N_COORD97":2542771.0899999999,"ADDRESS":"裕學路１８５巷２７號","OBJECTID":298404},"geometry":{"x":171697.71999999974,"y":2542771.0899999999}},{"attributes":{"ID":298413,"DIS_CODE":0,"TOWNNAME":"東區","LI":"復興里","LIN":"8鄰","STREET":"裕學路","SECT":" ","MAREA":" ","LANE":"１８５巷","ALLEY":" ","HOUSE_NO":"２８號","E_COORD97":171675.91,"N_COORD97":2542776.6099999999,"ADDRESS":"裕學路１８５巷２８號","OBJECTID":298405},"geometry":{"x":171675.91000000108,"y":2542776.6100000013}},{"attributes":{"ID":298414,"DIS_CODE":0,"TOWNNAME":"東區","LI":"復興里","LIN":"8鄰","STREET":"裕學路","SECT":" ","MAREA":" ","LANE":"１８５巷","ALLEY":" ","HOUSE_NO":"２９號","E_COORD97":171699.42999999999,"N_COORD97":2542766.3300000001,"ADDRESS":"裕學路１８５巷２９號","OBJECTID":298406},"geometry":{"x":171699.43000000063,"y":2542766.3300000001}},{"attributes":{"ID":298415,"DIS_CODE":0,"TOWNNAME":"東區","LI":"復興里","LIN":"8鄰","STREET":"裕學路","SECT":" ","MAREA":" ","LANE":"１８５巷","ALLEY":" ","HOUSE_NO":"３０號","E_COORD97":171674.54000000001,"N_COORD97":2542772.8599999999,"ADDRESS":"裕學路１８５巷３０號","OBJECTID":298407},"geometry":{"x":171674.53999999911,"y":2542772.8599999994}},{"attributes":{"ID":298416,"DIS_CODE":0,"TOWNNAME":"東區","LI":"復興里","LIN":"8鄰","STREET":"裕學路","SECT":" ","MAREA":" ","LANE":"１８５巷","ALLEY":" ","HOUSE_NO":"３１號","E_COORD97":171699.42999999999,"N_COORD97":2542763.2599999998,"ADDRESS":"裕學路１８５巷３１號","OBJECTID":298408},"geometry":{"x":171699.43000000063,"y":2542763.2599999998}},{"attributes":{"ID":298417,"DIS_CODE":0,"TOWNNAME":"東區","LI":"復興里","LIN":"8鄰","STREET":"裕學路","SECT":" ","MAREA":" ","LANE":"１８５巷","ALLEY":" ","HOUSE_NO":"３２號","E_COORD97":171676.25,"N_COORD97":2542767.0800000001,"ADDRESS":"裕學路１８５巷３２號","OBJECTID":298409},"geometry":{"x":171676.25,"y":2542767.0800000019}},{"attributes":{"ID":298418,"DIS_CODE":0,"TOWNNAME":"東區","LI":"裕聖里","LIN":"14鄰","STREET":"裕信三街","SECT":" ","MAREA":" ","LANE":" ","ALLEY":" ","HOUSE_NO":"１３８號","E_COORD97":172819.45999999999,"N_COORD97":2542353.04,"ADDRESS":"裕信三街１３８號","OBJECTID":298410},"geometry":{"x":172819.46000000183,"y":2542353.040000001}},{"attributes":{"ID":298419,"DIS_CODE":0,"TOWNNAME":"安南區","LI":"頂安里","LIN":"4鄰","STREET":"長溪路","SECT":"一段","MAREA":" ","LANE":"４７６巷","ALLEY":" ","HOUSE_NO":"２５號","E_COORD97":168568.45000000001,"N_COORD97":2549074.77,"ADDRESS":"長溪路一段４７６巷２５號","OBJECTID":298411},"geometry":{"x":168568.45000000112,"y":2549074.7700000014}},{"attributes":{"ID":298420,"DIS_CODE":0,"TOWNNAME":"安南區","LI":"頂安里","LIN":"4鄰","STREET":"長溪路","SECT":"一段","MAREA":" ","LANE":"４７６巷","ALLEY":" ","HOUSE_NO":"２７號","E_COORD97":168578.23000000001,"N_COORD97":2549077.4700000002,"ADDRESS":"長溪路一段４７６巷２７號","OBJECTID":298412},"geometry":{"x":168578.23000000045,"y":2549077.4700000025}},{"attributes":{"ID":298421,"DIS_CODE":0,"TOWNNAME":"安南區","LI":"頂安里","LIN":"4鄰","STREET":"長溪路","SECT":"一段","MAREA":" ","LANE":"４７６巷","ALLEY":" ","HOUSE_NO":"３１號","E_COORD97":168601.51000000001,"N_COORD97":2549085.8900000001,"ADDRESS":"長溪路一段４７６巷３１號","OBJECTID":298413},"geometry":{"x":168601.51000000071,"y":2549085.8900000006}},{"attributes":{"ID":298422,"DIS_CODE":0,"TOWNNAME":"安南區","LI":"頂安里","LIN":"4鄰","STREET":"長溪路","SECT":"一段","MAREA":" ","LANE":"４７６巷","ALLEY":" ","HOUSE_NO":"３３號","E_COORD97":168595.44,"N_COORD97":2549078.1400000001,"ADDRESS":"長溪路一段４７６巷３３號","OBJECTID":298414},"geometry":{"x":168595.43999999948,"y":2549078.1400000006}},{"attributes":{"ID":298423,"DIS_CODE":0,"TOWNNAME":"安南區","LI":"頂安里","LIN":"4鄰","STREET":"長溪路","SECT":"一段","MAREA":" ","LANE":"４７６巷","ALLEY":" ","HOUSE_NO":"３５號","E_COORD97":168590.70999999999,"N_COORD97":2549075.7799999998,"ADDRESS":"長溪路一段４７６巷３５號","OBJECTID":298415},"geometry":{"x":168590.71000000089,"y":2549075.7799999993}},{"attributes":{"ID":298424,"DIS_CODE":0,"TOWNNAME":"安南區","LI":"頂安里","LIN":"4鄰","STREET":"長溪路","SECT":"一段","MAREA":" ","LANE":"４９０巷","ALLEY":" ","HOUSE_NO":"１０號","E_COORD97":168534.72,"N_COORD97":2549092.29,"ADDRESS":"長溪路一段４９０巷１０號","OBJECTID":298416},"geometry":{"x":168534.71999999974,"y":2549092.2899999991}},{"attributes":{"ID":298425,"DIS_CODE":0,"TOWNNAME":"安南區","LI":"頂安里","LIN":"4鄰","STREET":"長溪路","SECT":"一段","MAREA":" ","LANE":"４９０巷","ALLEY":" ","HOUSE_NO":"１２號","E_COORD97":168540.12,"N_COORD97":2549092.29,"ADDRESS":"長溪路一段４９０巷１２號","OBJECTID":298417},"geometry":{"x":168540.12000000104,"y":2549092.2899999991}},{"attributes":{"ID":298426,"DIS_CODE":0,"TOWNNAME":"安南區","LI":"頂安里","LIN":"4鄰","STREET":"長溪路","SECT":"一段","MAREA":" ","LANE":"４９０巷","ALLEY":" ","HOUSE_NO":"１３號","E_COORD97":168517.17999999999,"N_COORD97":2549109.1400000001,"ADDRESS":"長溪路一段４９０巷１３號","OBJECTID":298418},"geometry":{"x":168517.18000000063,"y":2549109.1400000006}},{"attributes":{"ID":298427,"DIS_CODE":0,"TOWNNAME":"安南區","LI":"頂安里","LIN":"4鄰","STREET":"長溪路","SECT":"一段","MAREA":" ","LANE":"４９０巷","ALLEY":" ","HOUSE_NO":"１７號","E_COORD97":168527.29999999999,"N_COORD97":2549111.8399999999,"ADDRESS":"長溪路一段４９０巷１７號","OBJECTID":298419},"geometry":{"x":168527.29999999981,"y":2549111.8400000017}},{"attributes":{"ID":298428,"DIS_CODE":0,"TOWNNAME":"東區","LI":"復興里","LIN":"8鄰","STREET":"裕學路","SECT":" ","MAREA":" ","LANE":"１８５巷","ALLEY":" ","HOUSE_NO":"３３號","E_COORD97":171700.79000000001,"N_COORD97":2542759.8599999999,"ADDRESS":"裕學路１８５巷３３號","OBJECTID":298420},"geometry":{"x":171700.79000000097,"y":2542759.8600000031}},{"attributes":{"ID":298429,"DIS_CODE":0,"TOWNNAME":"東區","LI":"復興里","LIN":"8鄰","STREET":"裕學路","SECT":" ","MAREA":" ","LANE":"１８５巷","ALLEY":" ","HOUSE_NO":"３６號","E_COORD97":171677.26999999999,"N_COORD97":2542763.6699999999,"ADDRESS":"裕學路１８５巷３６號","OBJECTID":298421},"geometry":{"x":171677.26999999955,"y":2542763.6699999999}},{"attributes":{"ID":298430,"DIS_CODE":0,"TOWNNAME":"東區","LI":"復興里","LIN":"8鄰","STREET":"裕學路","SECT":" ","MAREA":" ","LANE":"１８５巷","ALLEY":" ","HOUSE_NO":"３５號","E_COORD97":171700.79000000001,"N_COORD97":2542756.7999999998,"ADDRESS":"裕學路１８５巷３５號","OBJECTID":298422},"geometry":{"x":171700.79000000097,"y":2542756.8000000007}},{"attributes":{"ID":298431,"DIS_CODE":0,"TOWNNAME":"東區","LI":"復興里","LIN":"8鄰","STREET":"裕學路","SECT":" ","MAREA":" ","LANE":"１８５巷","ALLEY":" ","HOUSE_NO":"３８號","E_COORD97":171678.29000000001,"N_COORD97":2542760.9500000002,"ADDRESS":"裕學路１８５巷３８號","OBJECTID":298423},"geometry":{"x":171678.29000000097,"y":2542760.9499999993}},{"attributes":{"ID":298432,"DIS_CODE":0,"TOWNNAME":"東區","LI":"復興里","LIN":"8鄰","STREET":"裕學路","SECT":" ","MAREA":" ","LANE":"１８５巷","ALLEY":" ","HOUSE_NO":"３７號","E_COORD97":171700.79000000001,"N_COORD97":2542752.71,"ADDRESS":"裕學路１８５巷３７號","OBJECTID":298424},"geometry":{"x":171700.79000000097,"y":2542752.7100000028}},{"attributes":{"ID":298433,"DIS_CODE":0,"TOWNNAME":"東區","LI":"復興里","LIN":"8鄰","STREET":"裕學路","SECT":" ","MAREA":" ","LANE":"１８５巷","ALLEY":" ","HOUSE_NO":"４０號","E_COORD97":171678.29000000001,"N_COORD97":2542756.8599999999,"ADDRESS":"裕學路１８５巷４０號","OBJECTID":298425},"geometry":{"x":171678.29000000097,"y":2542756.8600000013}},{"attributes":{"ID":298434,"DIS_CODE":0,"TOWNNAME":"東區","LI":"裕聖里","LIN":"14鄰","STREET":"裕信三街","SECT":" ","MAREA":" ","LANE":" ","ALLEY":" ","HOUSE_NO":"２２６號","E_COORD97":172819.60999999999,"N_COORD97":2542345.6899999999,"ADDRESS":"裕信三街２２６號","OBJECTID":298426},"geometry":{"x":172819.61000000034,"y":2542345.6900000013}},{"attributes":{"ID":298435,"DIS_CODE":0,"TOWNNAME":"東區","LI":"裕聖里","LIN":"14鄰","STREET":"裕信三街","SECT":" ","MAREA":" ","LANE":" ","ALLEY":" ","HOUSE_NO":"２２８號","E_COORD97":172819.60999999999,"N_COORD97":2542338.3399999999,"ADDRESS":"裕信三街２２８號","OBJECTID":298427},"geometry":{"x":172819.61000000034,"y":2542338.3400000017}},{"attributes":{"ID":298436,"DIS_CODE":0,"TOWNNAME":"東區","LI":"裕聖里","LIN":"14鄰","STREET":"裕信三街","SECT":" ","MAREA":" ","LANE":" ","ALLEY":" ","HOUSE_NO":"２３０號","E_COORD97":172821.29999999999,"N_COORD97":2542325.0299999998,"ADDRESS":"裕信三街２３０號","OBJECTID":298428},"geometry":{"x":172821.29999999981,"y":2542325.0300000012}},{"attributes":{"ID":298437,"DIS_CODE":0,"TOWNNAME":"東區","LI":"裕聖里","LIN":"14鄰","STREET":"裕信三街","SECT":" ","MAREA":" ","LANE":" ","ALLEY":" ","HOUSE_NO":"２３２號","E_COORD97":172817.01000000001,"N_COORD97":2542325.0299999998,"ADDRESS":"裕信三街２３２號","OBJECTID":298429},"geometry":{"x":172817.00999999885,"y":2542325.0300000012}},{"attributes":{"ID":298438,"DIS_CODE":0,"TOWNNAME":"東區","LI":"裕聖里","LIN":"14鄰","STREET":"裕信三街","SECT":" ","MAREA":" ","LANE":" ","ALLEY":" ","HOUSE_NO":"２３６號","E_COORD97":172813.17999999999,"N_COORD97":2542325.1800000002,"ADDRESS":"裕信三街２３６號","OBJECTID":298430},"geometry":{"x":172813.18000000063,"y":2542325.1800000016}},{"attributes":{"ID":298439,"DIS_CODE":0,"TOWNNAME":"東區","LI":"裕聖里","LIN":"14鄰","STREET":"裕信三街","SECT":" ","MAREA":" ","LANE":" ","ALLEY":" ","HOUSE_NO":"２３８號","E_COORD97":172808.89999999999,"N_COORD97":2542324.8700000001,"ADDRESS":"裕信三街２３８號","OBJECTID":298431},"geometry":{"x":172808.9000000013,"y":2542324.8700000029}},{"attributes":{"ID":298440,"DIS_CODE":0,"TOWNNAME":"東區","LI":"裕聖里","LIN":"14鄰","STREET":"裕信三街","SECT":" ","MAREA":" ","LANE":" ","ALLEY":" ","HOUSE_NO":"２４０號","E_COORD97":172804.92000000001,"N_COORD97":2542325.1800000002,"ADDRESS":"裕信三街２４０號","OBJECTID":298432},"geometry":{"x":172804.92000000086,"y":2542325.1800000016}},{"attributes":{"ID":298441,"DIS_CODE":0,"TOWNNAME":"東區","LI":"裕聖里","LIN":"14鄰","STREET":"裕信三街","SECT":" ","MAREA":" ","LANE":" ","ALLEY":" ","HOUSE_NO":"２４２號","E_COORD97":172801.09,"N_COORD97":2542325.3300000001,"ADDRESS":"裕信三街２４２號","OBJECTID":298433},"geometry":{"x":172801.08999999985,"y":2542325.3300000001}},{"attributes":{"ID":298442,"DIS_CODE":0,"TOWNNAME":"東區","LI":"裕聖里","LIN":"14鄰","STREET":"裕信三街","SECT":" ","MAREA":" ","LANE":" ","ALLEY":" ","HOUSE_NO":"２４６號","E_COORD97":172796.5,"N_COORD97":2542325.6400000001,"ADDRESS":"裕信三街２４６號","OBJECTID":298434},"geometry":{"x":172796.5,"y":2542325.6400000025}},{"attributes":{"ID":298443,"DIS_CODE":0,"TOWNNAME":"東區","LI":"裕聖里","LIN":"14鄰","STREET":"裕信三街","SECT":" ","MAREA":" ","LANE":" ","ALLEY":" ","HOUSE_NO":"２４８號","E_COORD97":172791.14000000001,"N_COORD97":2542325.4900000002,"ADDRESS":"裕信三街２４８號","OBJECTID":298435},"geometry":{"x":172791.1400000006,"y":2542325.4900000002}},{"attributes":{"ID":298444,"DIS_CODE":0,"TOWNNAME":"永康區","LI":"勝利里","LIN":"39鄰","STREET":"勝華街","SECT":" ","MAREA":" ","LANE":"３７巷","ALLEY":" ","HOUSE_NO":"２８號","E_COORD97":171440.63,"N_COORD97":2545154.6000000001,"ADDRESS":"勝華街３７巷２８號","OBJECTID":298436},"geometry":{"x":171440.63000000082,"y":2545154.5999999996}},{"attributes":{"ID":298445,"DIS_CODE":0,"TOWNNAME":"安南區","LI":"安慶里","LIN":"4鄰","STREET":"長溪路","SECT":"一段","MAREA":" ","LANE":"１６８巷","ALLEY":" ","HOUSE_NO":"１４２號","E_COORD97":169086.54000000001,"N_COORD97":2548877.8399999999,"ADDRESS":"長溪路一段１６８巷１４２號","OBJECTID":298437},"geometry":{"x":169086.54000000097,"y":2548877.8400000017}},{"attributes":{"ID":298446,"DIS_CODE":0,"TOWNNAME":"安南區","LI":"安慶里","LIN":"4鄰","STREET":"長溪路","SECT":"一段","MAREA":" ","LANE":"１６８巷","ALLEY":" ","HOUSE_NO":"１４６號","E_COORD97":169085.57999999999,"N_COORD97":2548886.5800000001,"ADDRESS":"長溪路一段１６８巷１４６號","OBJECTID":298438},"geometry":{"x":169085.58000000007,"y":2548886.5800000019}},{"attributes":{"ID":298447,"DIS_CODE":0,"TOWNNAME":"安南區","LI":"安慶里","LIN":"4鄰","STREET":"長溪路","SECT":"一段","MAREA":" ","LANE":"１６８巷","ALLEY":" ","HOUSE_NO":"１６４號","E_COORD97":169081.95999999999,"N_COORD97":2548923.0699999998,"ADDRESS":"長溪路一段１６８巷１６４號","OBJECTID":298439},"geometry":{"x":169081.96000000089,"y":2548923.070000004}},{"attributes":{"ID":298448,"DIS_CODE":0,"TOWNNAME":"安南區","LI":"安慶里","LIN":"4鄰","STREET":"長溪路","SECT":"一段","MAREA":" ","LANE":"１６８巷","ALLEY":" ","HOUSE_NO":"１７２號","E_COORD97":169069.95000000001,"N_COORD97":2548946.1400000001,"ADDRESS":"長溪路一段１６８巷１７２號","OBJECTID":298440},"geometry":{"x":169069.95000000205,"y":2548946.1400000006}},{"attributes":{"ID":298449,"DIS_CODE":0,"TOWNNAME":"安南區","LI":"安慶里","LIN":"4鄰","STREET":"長溪路","SECT":"一段","MAREA":" ","LANE":"１６８巷","ALLEY":" ","HOUSE_NO":"１８號","E_COORD97":169058.72,"N_COORD97":2548597.6499999999,"ADDRESS":"長溪路一段１６８巷１８號","OBJECTID":298441},"geometry":{"x":169058.71999999974,"y":2548597.6500000022}},{"attributes":{"ID":298450,"DIS_CODE":0,"TOWNNAME":"安南區","LI":"安慶里","LIN":"4鄰","STREET":"長溪路","SECT":"一段","MAREA":" ","LANE":"１６８巷","ALLEY":" ","HOUSE_NO":"２０號","E_COORD97":169061.01999999999,"N_COORD97":2548604.71,"ADDRESS":"長溪路一段１６８巷２０號","OBJECTID":298442},"geometry":{"x":169061.02000000048,"y":2548604.7100000028}},{"attributes":{"ID":298451,"DIS_CODE":0,"TOWNNAME":"安南區","LI":"安慶里","LIN":"4鄰","STREET":"長溪路","SECT":"一段","MAREA":" ","LANE":"１６８巷","ALLEY":" ","HOUSE_NO":"３４號","E_COORD97":169067.82000000001,"N_COORD97":2548642.1499999999,"ADDRESS":"長溪路一段１６８巷３４號","OBJECTID":298443},"geometry":{"x":169067.82000000123,"y":2548642.1500000022}},{"attributes":{"ID":298452,"DIS_CODE":0,"TOWNNAME":"安南區","LI":"安慶里","LIN":"4鄰","STREET":"長溪路","SECT":"一段","MAREA":" ","LANE":"１６８巷","ALLEY":" ","HOUSE_NO":"４０號","E_COORD97":169070.39999999999,"N_COORD97":2548655.52,"ADDRESS":"長溪路一段１６８巷４０號","OBJECTID":298444},"geometry":{"x":169070.40000000224,"y":2548655.5200000014}},{"attributes":{"ID":298453,"DIS_CODE":0,"TOWNNAME":"安南區","LI":"安慶里","LIN":"4鄰","STREET":"長溪路","SECT":"一段","MAREA":" ","LANE":"１６８巷","ALLEY":" ","HOUSE_NO":"４２號","E_COORD97":169071.19,"N_COORD97":2548659.5600000001,"ADDRESS":"長溪路一段１６８巷４２號","OBJECTID":298445},"geometry":{"x":169071.19000000041,"y":2548659.5600000024}},{"attributes":{"ID":298454,"DIS_CODE":0,"TOWNNAME":"安南區","LI":"安慶里","LIN":"4鄰","STREET":"長溪路","SECT":"一段","MAREA":" ","LANE":"１６８巷","ALLEY":" ","HOUSE_NO":"４６號","E_COORD97":169070.07000000001,"N_COORD97":2548668.3799999999,"ADDRESS":"長溪路一段１６８巷４６號","OBJECTID":298446},"geometry":{"x":169070.0700000003,"y":2548668.379999999}},{"attributes":{"ID":298455,"DIS_CODE":0,"TOWNNAME":"安南區","LI":"安慶里","LIN":"4鄰","STREET":"長溪路","SECT":"一段","MAREA":" ","LANE":"１６８巷","ALLEY":" ","HOUSE_NO":"５２號","E_COORD97":169074.56,"N_COORD97":2548678.71,"ADDRESS":"長溪路一段１６８巷５２號","OBJECTID":298447},"geometry":{"x":169074.55999999959,"y":2548678.7100000046}},{"attributes":{"ID":298456,"DIS_CODE":0,"TOWNNAME":"永康區","LI":"大橋里","LIN":"8鄰","STREET":"大橋三街","SECT":" ","MAREA":" ","LANE":"１９９巷","ALLEY":" ","HOUSE_NO":"９２號","E_COORD97":170984.09,"N_COORD97":2546906.8999999999,"ADDRESS":"大橋三街１９９巷９２號","OBJECTID":298448},"geometry":{"x":170984.08999999892,"y":2546906.8999999985}},{"attributes":{"ID":298457,"DIS_CODE":0,"TOWNNAME":"永康區","LI":"正強里","LIN":"8鄰","STREET":"正義街","SECT":" ","MAREA":" ","LANE":"７９巷","ALLEY":" ","HOUSE_NO":"１１號","E_COORD97":173499.29000000001,"N_COORD97":2547542.3900000001,"ADDRESS":"正義街７９巷１１號","OBJECTID":298449},"geometry":{"x":173499.29000000097,"y":2547542.3900000025}},{"attributes":{"ID":298458,"DIS_CODE":0,"TOWNNAME":"永康區","LI":"正強里","LIN":"8鄰","STREET":"正義街","SECT":" ","MAREA":" ","LANE":"７９巷","ALLEY":" ","HOUSE_NO":"１５號","E_COORD97":173502.20999999999,"N_COORD97":2547531.3900000001,"ADDRESS":"正義街７９巷１５號","OBJECTID":298450},"geometry":{"x":173502.20999999996,"y":2547531.3900000043}},{"attributes":{"ID":298459,"DIS_CODE":0,"TOWNNAME":"永康區","LI":"復國里","LIN":"8鄰","STREET":"復國二路","SECT":" ","MAREA":" ","LANE":"６１巷","ALLEY":" ","HOUSE_NO":"２號之１","E_COORD97":172823.73999999999,"N_COORD97":2545107.9500000002,"ADDRESS":"復國二路６１巷２號之１","OBJECTID":298451},"geometry":{"x":172823.74000000022,"y":2545107.9499999993}},{"attributes":{"ID":298460,"DIS_CODE":0,"TOWNNAME":"永康區","LI":"西灣里","LIN":"8鄰","STREET":"大灣五街","SECT":" ","MAREA":" ","LANE":"９３巷","ALLEY":" ","HOUSE_NO":"８５號","E_COORD97":174536.09,"N_COORD97":2545181.25,"ADDRESS":"大灣五街９３巷８５號","OBJECTID":298452},"geometry":{"x":174536.09000000078,"y":2545181.25}},{"attributes":{"ID":298461,"DIS_CODE":0,"TOWNNAME":"東區","LI":"裕聖里","LIN":"14鄰","STREET":"裕信三街","SECT":" ","MAREA":" ","LANE":" ","ALLEY":" ","HOUSE_NO":"２５０號","E_COORD97":172785.17000000001,"N_COORD97":2542325.3300000001,"ADDRESS":"裕信三街２５０號","OBJECTID":298453},"geometry":{"x":172785.16999999993,"y":2542325.3300000001}},{"attributes":{"ID":298462,"DIS_CODE":0,"TOWNNAME":"七股區","LI":"大潭里","LIN":"4鄰","STREET":" ","SECT":" ","MAREA":"台潭","LANE":" ","ALLEY":" ","HOUSE_NO":"５３號之１５","E_COORD97":161224.64999999999,"N_COORD97":2565499.9900000002,"ADDRESS":"台潭５３號之１５","OBJECTID":298454},"geometry":{"x":161224.65000000037,"y":2565499.9900000021}},{"attributes":{"ID":298463,"DIS_CODE":0,"TOWNNAME":"東區","LI":"裕聖里","LIN":"14鄰","STREET":"裕信三街","SECT":" ","MAREA":" ","LANE":" ","ALLEY":" ","HOUSE_NO":"２５２號","E_COORD97":172779.35000000001,"N_COORD97":2542325.79,"ADDRESS":"裕信三街２５２號","OBJECTID":298455},"geometry":{"x":172779.35000000056,"y":2542325.7899999991}},{"attributes":{"ID":298464,"DIS_CODE":0,"TOWNNAME":"東區","LI":"裕聖里","LIN":"14鄰","STREET":"裕信三街","SECT":" ","MAREA":" ","LANE":" ","ALLEY":" ","HOUSE_NO":"９２號","E_COORD97":172820.23000000001,"N_COORD97":2542425.75,"ADDRESS":"裕信三街９２號","OBJECTID":298456},"geometry":{"x":172820.23000000138,"y":2542425.7500000037}},{"attributes":{"ID":298465,"DIS_CODE":0,"TOWNNAME":"東區","LI":"裕聖里","LIN":"14鄰","STREET":"裕信三街","SECT":" ","MAREA":" ","LANE":" ","ALLEY":" ","HOUSE_NO":"９０號","E_COORD97":172820.38,"N_COORD97":2542428.0499999998,"ADDRESS":"裕信三街９０號","OBJECTID":298457},"geometry":{"x":172820.38000000082,"y":2542428.0500000045}},{"attributes":{"ID":298466,"DIS_CODE":0,"TOWNNAME":"東區","LI":"裕聖里","LIN":"14鄰","STREET":"裕信三街","SECT":" ","MAREA":" ","LANE":" ","ALLEY":" ","HOUSE_NO":"９６號","E_COORD97":172820.53,"N_COORD97":2542422.0800000001,"ADDRESS":"裕信三街９６號","OBJECTID":298458},"geometry":{"x":172820.53000000026,"y":2542422.0800000001}},{"attributes":{"ID":298467,"DIS_CODE":0,"TOWNNAME":"東區","LI":"裕聖里","LIN":"14鄰","STREET":"裕信三街","SECT":" ","MAREA":" ","LANE":" ","ALLEY":" ","HOUSE_NO":"９８號","E_COORD97":172820.38,"N_COORD97":2542419.02,"ADDRESS":"裕信三街９８號","OBJECTID":298459},"geometry":{"x":172820.38000000082,"y":2542419.0199999996}},{"attributes":{"ID":298468,"DIS_CODE":0,"TOWNNAME":"善化區","LI":"文正里","LIN":"14鄰","STREET":"陽明路","SECT":" ","MAREA":" ","LANE":" ","ALLEY":" ","HOUSE_NO":"９７號之２","E_COORD97":176428.54000000001,"N_COORD97":2559393.77,"ADDRESS":"陽明路９７號之２","OBJECTID":298460},"geometry":{"x":176428.54000000097,"y":2559393.7699999977}},{"attributes":{"ID":298469,"DIS_CODE":0,"TOWNNAME":"善化區","LI":"東關里","LIN":"14鄰","STREET":"中興路","SECT":" ","MAREA":" ","LANE":" ","ALLEY":" ","HOUSE_NO":"１２５號","E_COORD97":177392.01999999999,"N_COORD97":2559023.5,"ADDRESS":"中興路１２５號","OBJECTID":298461},"geometry":{"x":177392.01999999862,"y":2559023.5000000037}},{"attributes":{"ID":298470,"DIS_CODE":0,"TOWNNAME":"善化區","LI":"光文里","LIN":"14鄰","STREET":"民生路","SECT":" ","MAREA":" ","LANE":" ","ALLEY":" ","HOUSE_NO":"１８６號","E_COORD97":178437.42999999999,"N_COORD97":2558965.2599999998,"ADDRESS":"民生路１８６號","OBJECTID":298462},"geometry":{"x":178437.43000000063,"y":2558965.2600000016}},{"attributes":{"ID":298471,"DIS_CODE":0,"TOWNNAME":"善化區","LI":"光文里","LIN":"14鄰","STREET":"民生路","SECT":" ","MAREA":" ","LANE":" ","ALLEY":" ","HOUSE_NO":"１６６號","E_COORD97":178483.92999999999,"N_COORD97":2558972.5099999998,"ADDRESS":"民生路１６６號","OBJECTID":298463},"geometry":{"x":178483.9299999997,"y":2558972.5100000016}},{"attributes":{"ID":298472,"DIS_CODE":0,"TOWNNAME":"善化區","LI":"東關里","LIN":"14鄰","STREET":"自由路","SECT":" ","MAREA":" ","LANE":" ","ALLEY":" ","HOUSE_NO":"１０號之１","E_COORD97":177397.32999999999,"N_COORD97":2558985.27,"ADDRESS":"自由路１０號之１","OBJECTID":298464},"geometry":{"x":177397.33000000194,"y":2558985.2700000014}},{"attributes":{"ID":298473,"DIS_CODE":0,"TOWNNAME":"善化區","LI":"文正里","LIN":"14鄰","STREET":"興農路","SECT":" ","MAREA":" ","LANE":" ","ALLEY":" ","HOUSE_NO":"１７４號之１","E_COORD97":176086.87,"N_COORD97":2559137.27,"ADDRESS":"興農路１７４號之１","OBJECTID":298465},"geometry":{"x":176086.87000000197,"y":2559137.2700000014}},{"attributes":{"ID":298474,"DIS_CODE":0,"TOWNNAME":"善化區","LI":"文昌里","LIN":"14鄰","STREET":"新興街","SECT":" ","MAREA":" ","LANE":" ","ALLEY":" ","HOUSE_NO":"１３號","E_COORD97":177601.26999999999,"N_COORD97":2558956.5,"ADDRESS":"新興街１３號","OBJECTID":298466},"geometry":{"x":177601.27000000048,"y":2558956.5000000019}},{"attributes":{"ID":298475,"DIS_CODE":0,"TOWNNAME":"仁德區","LI":"土庫里","LIN":"14鄰","STREET":"土庫路","SECT":" ","MAREA":" ","LANE":" ","ALLEY":" ","HOUSE_NO":"１５９號","E_COORD97":174362.92000000001,"N_COORD97":2543044.7400000002,"ADDRESS":"土庫路１５９號","OBJECTID":298467},"geometry":{"x":174362.92000000086,"y":2543044.7400000002}},{"attributes":{"ID":298476,"DIS_CODE":0,"TOWNNAME":"永康區","LI":"東灣里","LIN":"8鄰","STREET":"大灣路","SECT":" ","MAREA":" ","LANE":"４３６巷","ALLEY":" ","HOUSE_NO":"１５號","E_COORD97":174720.23999999999,"N_COORD97":2544979.46,"ADDRESS":"大灣路４３６巷１５號","OBJECTID":298468},"geometry":{"x":174720.24000000115,"y":2544979.4600000028}},{"attributes":{"ID":298477,"DIS_CODE":0,"TOWNNAME":"永康區","LI":"甲頂里","LIN":"8鄰","STREET":"中華路","SECT":" ","MAREA":" ","LANE":"８９３巷","ALLEY":" ","HOUSE_NO":"１號","E_COORD97":170470.42999999999,"N_COORD97":2546662.3100000001,"ADDRESS":"中華路８９３巷１號","OBJECTID":298469},"geometry":{"x":170470.43000000063,"y":2546662.3100000005}},{"attributes":{"ID":298478,"DIS_CODE":0,"TOWNNAME":"安南區","LI":"溪頂里","LIN":"8鄰","STREET":"惠安街","SECT":" ","MAREA":" ","LANE":"５１巷","ALLEY":" ","HOUSE_NO":"２８號","E_COORD97":168895.95000000001,"N_COORD97":2547456.3500000001,"ADDRESS":"惠安街５１巷２８號","OBJECTID":298470},"geometry":{"x":168895.95000000112,"y":2547456.3500000015}},{"attributes":{"ID":298479,"DIS_CODE":0,"TOWNNAME":"七股區","LI":"大潭里","LIN":"4鄰","STREET":" ","SECT":" ","MAREA":"台潭","LANE":" ","ALLEY":" ","HOUSE_NO":"５５號之４１","E_COORD97":161048,"N_COORD97":2565577.4500000002,"ADDRESS":"台潭５５號之４１","OBJECTID":298471},"geometry":{"x":161048.00000000093,"y":2565577.4500000011}},{"attributes":{"ID":298480,"DIS_CODE":0,"TOWNNAME":"七股區","LI":"大潭里","LIN":"4鄰","STREET":" ","SECT":" ","MAREA":"台潭","LANE":" ","ALLEY":" ","HOUSE_NO":"５５號之４２","E_COORD97":161043.60999999999,"N_COORD97":2565576.5800000001,"ADDRESS":"台潭５５號之４２","OBJECTID":298472},"geometry":{"x":161043.61000000034,"y":2565576.5800000038}},{"attributes":{"ID":298481,"DIS_CODE":0,"TOWNNAME":"麻豆區","LI":"磚井里","LIN":"4鄰","STREET":" ","SECT":" ","MAREA":"磚子井","LANE":" ","ALLEY":" ","HOUSE_NO":"３１號之７","E_COORD97":173489.92999999999,"N_COORD97":2563458.4700000002,"ADDRESS":"磚子井３１號之７","OBJECTID":298473},"geometry":{"x":173489.9299999997,"y":2563458.4700000007}},{"attributes":{"ID":298482,"DIS_CODE":0,"TOWNNAME":"麻豆區","LI":"磚井里","LIN":"4鄰","STREET":" ","SECT":" ","MAREA":"磚子井","LANE":" ","ALLEY":" ","HOUSE_NO":"３１號之８","E_COORD97":173494.47,"N_COORD97":2563459.6499999999,"ADDRESS":"磚子井３１號之８","OBJECTID":298474},"geometry":{"x":173494.47000000067,"y":2563459.6500000004}},{"attributes":{"ID":298483,"DIS_CODE":0,"TOWNNAME":"麻豆區","LI":"磚井里","LIN":"4鄰","STREET":" ","SECT":" ","MAREA":"磚子井","LANE":" ","ALLEY":" ","HOUSE_NO":"３１號","E_COORD97":173440.20000000001,"N_COORD97":2563503.04,"ADDRESS":"磚子井３１號","OBJECTID":298475},"geometry":{"x":173440.20000000205,"y":2563503.0399999991}},{"attributes":{"ID":298484,"DIS_CODE":0,"TOWNNAME":"麻豆區","LI":"磚井里","LIN":"4鄰","STREET":" ","SECT":" ","MAREA":"磚子井","LANE":" ","ALLEY":" ","HOUSE_NO":"３２之１號","E_COORD97":173454.97,"N_COORD97":2563546.6400000001,"ADDRESS":"磚子井３２之１號","OBJECTID":298476},"geometry":{"x":173454.97000000067,"y":2563546.6400000025}},{"attributes":{"ID":298485,"DIS_CODE":0,"TOWNNAME":"麻豆區","LI":"磚井里","LIN":"4鄰","STREET":" ","SECT":" ","MAREA":"磚子井","LANE":" ","ALLEY":" ","HOUSE_NO":"３２號","E_COORD97":173461.06,"N_COORD97":2563513.6800000002,"ADDRESS":"磚子井３２號","OBJECTID":298477},"geometry":{"x":173461.06000000052,"y":2563513.6799999997}},{"attributes":{"ID":298486,"DIS_CODE":0,"TOWNNAME":"麻豆區","LI":"磚井里","LIN":"4鄰","STREET":" ","SECT":" ","MAREA":"磚子井","LANE":" ","ALLEY":" ","HOUSE_NO":"３３號之１","E_COORD97":173502.47,"N_COORD97":2563492.04,"ADDRESS":"磚子井３３號之１","OBJECTID":298478},"geometry":{"x":173502.47000000067,"y":2563492.040000001}},{"attributes":{"ID":298487,"DIS_CODE":0,"TOWNNAME":"麻豆區","LI":"磚井里","LIN":"4鄰","STREET":" ","SECT":" ","MAREA":"磚子井","LANE":" ","ALLEY":" ","HOUSE_NO":"３３號之３","E_COORD97":173471.07999999999,"N_COORD97":2563498.7799999998,"ADDRESS":"磚子井３３號之３","OBJECTID":298479},"geometry":{"x":173471.08000000007,"y":2563498.7799999993}},{"attributes":{"ID":298488,"DIS_CODE":0,"TOWNNAME":"麻豆區","LI":"磚井里","LIN":"4鄰","STREET":" ","SECT":" ","MAREA":"磚子井","LANE":" ","ALLEY":" ","HOUSE_NO":"３３號","E_COORD97":173487.17999999999,"N_COORD97":2563506.8999999999,"ADDRESS":"磚子井３３號","OBJECTID":298480},"geometry":{"x":173487.18000000156,"y":2563506.9000000022}},{"attributes":{"ID":298489,"DIS_CODE":0,"TOWNNAME":"麻豆區","LI":"磚井里","LIN":"4鄰","STREET":" ","SECT":" ","MAREA":"磚子井","LANE":" ","ALLEY":" ","HOUSE_NO":"３４號","E_COORD97":173488.23999999999,"N_COORD97":2563487.3700000001,"ADDRESS":"磚子井３４號","OBJECTID":298481},"geometry":{"x":173488.24000000022,"y":2563487.3700000029}},{"attributes":{"ID":298490,"DIS_CODE":0,"TOWNNAME":"麻豆區","LI":"磚井里","LIN":"4鄰","STREET":" ","SECT":" ","MAREA":"磚子井","LANE":" ","ALLEY":" ","HOUSE_NO":"３５號之１","E_COORD97":173516.87,"N_COORD97":2563459.3999999999,"ADDRESS":"磚子井３５號之１","OBJECTID":298482},"geometry":{"x":173516.87000000197,"y":2563459.4000000022}},{"attributes":{"ID":298491,"DIS_CODE":0,"TOWNNAME":"麻豆區","LI":"磚井里","LIN":"4鄰","STREET":" ","SECT":" ","MAREA":"磚子井","LANE":" ","ALLEY":" ","HOUSE_NO":"３５號之２","E_COORD97":173530.32000000001,"N_COORD97":2563461.02,"ADDRESS":"磚子井３５號之２","OBJECTID":298483},"geometry":{"x":173530.3200000003,"y":2563461.0200000014}},{"attributes":{"ID":298492,"DIS_CODE":0,"TOWNNAME":"麻豆區","LI":"磚井里","LIN":"4鄰","STREET":" ","SECT":" ","MAREA":"磚子井","LANE":" ","ALLEY":" ","HOUSE_NO":"３５號","E_COORD97":173514.89999999999,"N_COORD97":2563497.5600000001,"ADDRESS":"磚子井３５號","OBJECTID":298484},"geometry":{"x":173514.90000000037,"y":2563497.5600000005}},{"attributes":{"ID":298493,"DIS_CODE":0,"TOWNNAME":"麻豆區","LI":"磚井里","LIN":"4鄰","STREET":" ","SECT":" ","MAREA":"磚子井","LANE":" ","ALLEY":" ","HOUSE_NO":"３７號","E_COORD97":173484.79999999999,"N_COORD97":2563540.27,"ADDRESS":"磚子井３７號","OBJECTID":298485},"geometry":{"x":173484.80000000168,"y":2563540.2700000033}},{"attributes":{"ID":298494,"DIS_CODE":0,"TOWNNAME":"麻豆區","LI":"磚井里","LIN":"4鄰","STREET":" ","SECT":" ","MAREA":"磚子井","LANE":" ","ALLEY":" ","HOUSE_NO":"３８號","E_COORD97":173504.98000000001,"N_COORD97":2563538.77,"ADDRESS":"磚子井３８號","OBJECTID":298486},"geometry":{"x":173504.98000000138,"y":2563538.7699999996}},{"attributes":{"ID":298495,"DIS_CODE":0,"TOWNNAME":"安南區","LI":"海西里","LIN":"8鄰","STREET":"海中街","SECT":" ","MAREA":" ","LANE":"１０１巷","ALLEY":" ","HOUSE_NO":"１１７號之１１","E_COORD97":166146.39000000001,"N_COORD97":2548815.9100000001,"ADDRESS":"海中街１０１巷１１７號之１１","OBJECTID":298487},"geometry":{"x":166146.3900000006,"y":2548815.910000002}},{"attributes":{"ID":298496,"DIS_CODE":0,"TOWNNAME":"安南區","LI":"新順里","LIN":"8鄰","STREET":"總安街","SECT":"一段","MAREA":" ","LANE":"３４２巷","ALLEY":" ","HOUSE_NO":"１０號之２","E_COORD97":169258.82999999999,"N_COORD97":2550365.6400000001,"ADDRESS":"總安街一段３４２巷１０號之２","OBJECTID":298488},"geometry":{"x":169258.83000000194,"y":2550365.6400000006}},{"attributes":{"ID":298497,"DIS_CODE":0,"TOWNNAME":"中西區","LI":"銀同里","LIN":"8鄰","STREET":"府前路","SECT":"一段","MAREA":" ","LANE":"１２２巷","ALLEY":" ","HOUSE_NO":"１１７號","E_COORD97":168781.98999999999,"N_COORD97":2543515.9500000002,"ADDRESS":"府前路一段１２２巷１１７號","OBJECTID":298489},"geometry":{"x":168781.99000000115,"y":2543515.9500000011}},{"attributes":{"ID":298498,"DIS_CODE":0,"TOWNNAME":"永康區","LI":"復華里","LIN":"25鄰","STREET":"復華八街","SECT":" ","MAREA":" ","LANE":"４７巷","ALLEY":" ","HOUSE_NO":"１２號","E_COORD97":172762.37,"N_COORD97":2546384.52,"ADDRESS":"復華八街４７巷１２號","OBJECTID":298490},"geometry":{"x":172762.36999999918,"y":2546384.5200000014}},{"attributes":{"ID":298499,"DIS_CODE":0,"TOWNNAME":"仁德區","LI":"新田里","LIN":"14鄰","STREET":"北保東路","SECT":" ","MAREA":" ","LANE":" ","ALLEY":" ","HOUSE_NO":"５號","E_COORD97":173370.10999999999,"N_COORD97":2539422.2400000002,"ADDRESS":"北保東路５號","OBJECTID":298491},"geometry":{"x":173370.11000000127,"y":2539422.2400000039}},{"attributes":{"ID":298500,"DIS_CODE":0,"TOWNNAME":"仁德區","LI":"仁德里","LIN":"14鄰","STREET":"中正路","SECT":"三段","MAREA":" ","LANE":" ","ALLEY":" ","HOUSE_NO":"６１號","E_COORD97":173348.10000000001,"N_COORD97":2541552.7799999998,"ADDRESS":"中正路三段６１號","OBJECTID":298492},"geometry":{"x":173348.09999999963,"y":2541552.7799999993}},{"attributes":{"ID":298501,"DIS_CODE":0,"TOWNNAME":"下營區","LI":"開化里","LIN":"4鄰","STREET":" ","SECT":" ","MAREA":"中營","LANE":" ","ALLEY":" ","HOUSE_NO":"２６２號之１","E_COORD97":175842.41,"N_COORD97":2568117.1099999999,"ADDRESS":"中營２６２號之１","OBJECTID":298493},"geometry":{"x":175842.41000000201,"y":2568117.1099999994}},{"attributes":{"ID":298502,"DIS_CODE":0,"TOWNNAME":"下營區","LI":"開化里","LIN":"4鄰","STREET":" ","SECT":" ","MAREA":"中營","LANE":" ","ALLEY":" ","HOUSE_NO":"２６２號之３","E_COORD97":175782.45000000001,"N_COORD97":2568036.8900000001,"ADDRESS":"中營２６２號之３","OBJECTID":298494},"geometry":{"x":175782.45000000019,"y":2568036.8900000025}},{"attributes":{"ID":298503,"DIS_CODE":0,"TOWNNAME":"歸仁區","LI":"媽廟里","LIN":"5鄰","STREET":"中正北路","SECT":"三段","MAREA":" ","LANE":" ","ALLEY":" ","HOUSE_NO":"１５１號","E_COORD97":177568.777554,"N_COORD97":2543734.6674700002,"ADDRESS":"中正北路三段１５１號","OBJECTID":298495},"geometry":{"x":177568.77755400073,"y":2543734.6674720012}},{"attributes":{"ID":298504,"DIS_CODE":0,"TOWNNAME":"永康區","LI":"復華里","LIN":"18鄰","STREET":"國華街","SECT":" ","MAREA":" ","LANE":"１０２巷","ALLEY":" ","HOUSE_NO":"５５號","E_COORD97":172853.45999999999,"N_COORD97":2546097.7200000002,"ADDRESS":"國華街１０２巷５５號","OBJECTID":298496},"geometry":{"x":172853.46000000089,"y":2546097.7200000007}},{"attributes":{"ID":298505,"DIS_CODE":0,"TOWNNAME":"仁德區","LI":"土庫里","LIN":"14鄰","STREET":"土庫路","SECT":" ","MAREA":" ","LANE":" ","ALLEY":" ","HOUSE_NO":"１７９號","E_COORD97":174348.31,"N_COORD97":2542961.9900000002,"ADDRESS":"土庫路１７９號","OBJECTID":298497},"geometry":{"x":174348.30999999959,"y":2542961.9900000002}},{"attributes":{"ID":298506,"DIS_CODE":0,"TOWNNAME":"仁德區","LI":"仁德里","LIN":"14鄰","STREET":"中正路","SECT":"三段","MAREA":" ","LANE":" ","ALLEY":" ","HOUSE_NO":"４９號","E_COORD97":173330.92999999999,"N_COORD97":2541522.77,"ADDRESS":"中正路三段４９號","OBJECTID":298498},"geometry":{"x":173330.9299999997,"y":2541522.7699999996}},{"attributes":{"ID":298507,"DIS_CODE":0,"TOWNNAME":"中西區","LI":"銀同里","LIN":"8鄰","STREET":"府前路","SECT":"一段","MAREA":" ","LANE":"１２２巷","ALLEY":" ","HOUSE_NO":"１１９號","E_COORD97":168781.07999999999,"N_COORD97":2543518.25,"ADDRESS":"府前路一段１２２巷１１９號","OBJECTID":298499},"geometry":{"x":168781.08000000101,"y":2543518.2500000019}},{"attributes":{"ID":298508,"DIS_CODE":0,"TOWNNAME":"中西區","LI":"銀同里","LIN":"8鄰","STREET":"府前路","SECT":"一段","MAREA":" ","LANE":"１２２巷","ALLEY":" ","HOUSE_NO":"１２１號","E_COORD97":168778.70000000001,"N_COORD97":2543520.6299999999,"ADDRESS":"府前路一段１２２巷１２１號","OBJECTID":298500},"geometry":{"x":168778.70000000112,"y":2543520.6300000027}},{"attributes":{"ID":298509,"DIS_CODE":0,"TOWNNAME":"仁德區","LI":"仁德里","LIN":"14鄰","STREET":"四維街","SECT":" ","MAREA":" ","LANE":" ","ALLEY":" ","HOUSE_NO":"３號","E_COORD97":173301.56,"N_COORD97":2541526.2400000002,"ADDRESS":"四維街３號","OBJECTID":298501},"geometry":{"x":173301.56000000052,"y":2541526.2400000002}},{"attributes":{"ID":298510,"DIS_CODE":0,"TOWNNAME":"中西區","LI":"銀同里","LIN":"8鄰","STREET":"府前路","SECT":"一段","MAREA":" ","LANE":"１２２巷","ALLEY":" ","HOUSE_NO":"１２３號","E_COORD97":168775.17999999999,"N_COORD97":2543515.1899999999,"ADDRESS":"府前路一段１２２巷１２３號","OBJECTID":298502},"geometry":{"x":168775.18000000063,"y":2543515.1900000013}},{"attributes":{"ID":298511,"DIS_CODE":0,"TOWNNAME":"白河區","LI":"竹門里","LIN":"4鄰","STREET":" ","SECT":" ","MAREA":"竹子門","LANE":" ","ALLEY":" ","HOUSE_NO":"５８之３０號","E_COORD97":193794.04999999999,"N_COORD97":2586246.3199999998,"ADDRESS":"竹子門５８之３０號","OBJECTID":298503},"geometry":{"x":193794.04999999981,"y":2586246.320000004}},{"attributes":{"ID":298512,"DIS_CODE":0,"TOWNNAME":"白河區","LI":"竹門里","LIN":"4鄰","STREET":" ","SECT":" ","MAREA":"竹子門","LANE":" ","ALLEY":" ","HOUSE_NO":"５８之３６號","E_COORD97":193855.10000000001,"N_COORD97":2586258.3500000001,"ADDRESS":"竹子門５８之３６號","OBJECTID":298504},"geometry":{"x":193855.09999999963,"y":2586258.3499999996}},{"attributes":{"ID":298513,"DIS_CODE":0,"TOWNNAME":"白河區","LI":"竹門里","LIN":"4鄰","STREET":" ","SECT":" ","MAREA":"竹子門","LANE":" ","ALLEY":" ","HOUSE_NO":"５８之３號","E_COORD97":193655.98999999999,"N_COORD97":2586159.7799999998,"ADDRESS":"竹子門５８之３號","OBJECTID":298505},"geometry":{"x":193655.99000000022,"y":2586159.7799999993}},{"attributes":{"ID":298514,"DIS_CODE":0,"TOWNNAME":"白河區","LI":"竹門里","LIN":"4鄰","STREET":" ","SECT":" ","MAREA":"竹子門","LANE":" ","ALLEY":" ","HOUSE_NO":"５８之５號","E_COORD97":193657.28,"N_COORD97":2586155.2000000002,"ADDRESS":"竹子門５８之５號","OBJECTID":298506},"geometry":{"x":193657.28000000119,"y":2586155.2000000011}},{"attributes":{"ID":298515,"DIS_CODE":0,"TOWNNAME":"白河區","LI":"竹門里","LIN":"4鄰","STREET":" ","SECT":" ","MAREA":"竹子門","LANE":" ","ALLEY":" ","HOUSE_NO":"５８之６號","E_COORD97":193658.57000000001,"N_COORD97":2586150.6200000001,"ADDRESS":"竹子門５８之６號","OBJECTID":298507},"geometry":{"x":193658.57000000123,"y":2586150.6200000029}},{"attributes":{"ID":298516,"DIS_CODE":0,"TOWNNAME":"白河區","LI":"竹門里","LIN":"4鄰","STREET":" ","SECT":" ","MAREA":"竹子門","LANE":" ","ALLEY":" ","HOUSE_NO":"５８之７號","E_COORD97":193669.22,"N_COORD97":2586165.7200000002,"ADDRESS":"竹子門５８之７號","OBJECTID":298508},"geometry":{"x":193669.21999999974,"y":2586165.7199999988}},{"attributes":{"ID":298517,"DIS_CODE":0,"TOWNNAME":"中西區","LI":"銀同里","LIN":"8鄰","STREET":"府前路","SECT":"一段","MAREA":" ","LANE":"１２２巷","ALLEY":" ","HOUSE_NO":"１２５號","E_COORD97":168772.16,"N_COORD97":2543512.46,"ADDRESS":"府前路一段１２２巷１２５號","OBJECTID":298509},"geometry":{"x":168772.16000000108,"y":2543512.4600000009}},{"attributes":{"ID":298518,"DIS_CODE":0,"TOWNNAME":"永康區","LI":"復華里","LIN":"40鄰","STREET":"復華七街","SECT":" ","MAREA":" ","LANE":"３２巷","ALLEY":" ","HOUSE_NO":"１０號","E_COORD97":172663.95999999999,"N_COORD97":2545956.3199999998,"ADDRESS":"復華七街３２巷１０號","OBJECTID":298510},"geometry":{"x":172663.96000000089,"y":2545956.3200000022}},{"attributes":{"ID":298519,"DIS_CODE":0,"TOWNNAME":"仁德區","LI":"一甲里","LIN":"14鄰","STREET":"忠義路","SECT":" ","MAREA":" ","LANE":" ","ALLEY":" ","HOUSE_NO":"２６９號","E_COORD97":173795.20999999999,"N_COORD97":2541850.27,"ADDRESS":"忠義路２６９號","OBJECTID":298511},"geometry":{"x":173795.20999999996,"y":2541850.2700000014}},{"attributes":{"ID":298520,"DIS_CODE":0,"TOWNNAME":"仁德區","LI":"一甲里","LIN":"14鄰","STREET":"忠義路","SECT":" ","MAREA":" ","LANE":" ","ALLEY":" ","HOUSE_NO":"２６１號","E_COORD97":173811.57999999999,"N_COORD97":2541848.27,"ADDRESS":"忠義路２６１號","OBJECTID":298512},"geometry":{"x":173811.58000000007,"y":2541848.2699999996}},{"attributes":{"ID":298521,"DIS_CODE":0,"TOWNNAME":"永康區","LI":"崑山里","LIN":"46鄰","STREET":"永華路","SECT":" ","MAREA":" ","LANE":"３２巷","ALLEY":" ","HOUSE_NO":"３０號","E_COORD97":174168.26000000001,"N_COORD97":2545180.6699999999,"ADDRESS":"永華路３２巷３０號","OBJECTID":298513},"geometry":{"x":174168.26000000164,"y":2545180.6700000018}},{"attributes":{"ID":298522,"DIS_CODE":0,"TOWNNAME":"仁德區","LI":"一甲里","LIN":"14鄰","STREET":"忠義路","SECT":" ","MAREA":" ","LANE":" ","ALLEY":" ","HOUSE_NO":"２４５號","E_COORD97":173853.29999999999,"N_COORD97":2541818.5099999998,"ADDRESS":"忠義路２４５號","OBJECTID":298514},"geometry":{"x":173853.30000000075,"y":2541818.5099999998}},{"attributes":{"ID":298523,"DIS_CODE":0,"TOWNNAME":"中西區","LI":"銀同里","LIN":"8鄰","STREET":"府前路","SECT":"一段","MAREA":" ","LANE":"１２２巷","ALLEY":" ","HOUSE_NO":"１２７號","E_COORD97":168762.51999999999,"N_COORD97":2543509.9199999999,"ADDRESS":"府前路一段１２２巷１２７號","OBJECTID":298515},"geometry":{"x":168762.52000000048,"y":2543509.9200000018}},{"attributes":{"ID":298524,"DIS_CODE":0,"TOWNNAME":"中西區","LI":"銀同里","LIN":"8鄰","STREET":"府前路","SECT":"一段","MAREA":" ","LANE":"１２２巷","ALLEY":" ","HOUSE_NO":"１２９號","E_COORD97":168764.39999999999,"N_COORD97":2543506.1800000002,"ADDRESS":"府前路一段１２２巷１２９號","OBJECTID":298516},"geometry":{"x":168764.4000000013,"y":2543506.1799999997}},{"attributes":{"ID":298525,"DIS_CODE":0,"TOWNNAME":"中西區","LI":"赤嵌里","LIN":"8鄰","STREET":"公園路","SECT":" ","MAREA":" ","LANE":"９８巷","ALLEY":" ","HOUSE_NO":"５號","E_COORD97":168697.44,"N_COORD97":2544158.6699999999,"ADDRESS":"公園路９８巷５號","OBJECTID":298517},"geometry":{"x":168697.44000000134,"y":2544158.6700000037}},{"attributes":{"ID":298526,"DIS_CODE":0,"TOWNNAME":"中西區","LI":"銀同里","LIN":"8鄰","STREET":"府前路","SECT":"一段","MAREA":" ","LANE":"１２２巷","ALLEY":" ","HOUSE_NO":"１３１號","E_COORD97":168754.03,"N_COORD97":2543502.79,"ADDRESS":"府前路一段１２２巷１３１號","OBJECTID":298518},"geometry":{"x":168754.02999999933,"y":2543502.7900000028}},{"attributes":{"ID":298527,"DIS_CODE":0,"TOWNNAME":"安南區","LI":"安東里","LIN":"22鄰","STREET":"安和路","SECT":"二段","MAREA":" ","LANE":" ","ALLEY":" ","HOUSE_NO":"４０號之２","E_COORD97":169478.845203,"N_COORD97":2548642.2623700001,"ADDRESS":"安和路二段４０號之２","OBJECTID":298519},"geometry":{"x":169478.84520300105,"y":2548642.262368001}},{"attributes":{"ID":298528,"DIS_CODE":0,"TOWNNAME":"永康區","LI":"復華里","LIN":"32鄰","STREET":"國華街","SECT":" ","MAREA":" ","LANE":"１６２巷","ALLEY":" ","HOUSE_NO":"１２號","E_COORD97":172590.07000000001,"N_COORD97":2546327.25,"ADDRESS":"國華街１６２巷１２號","OBJECTID":298520},"geometry":{"x":172590.07000000216,"y":2546327.25}},{"attributes":{"ID":298529,"DIS_CODE":0,"TOWNNAME":"中西區","LI":"銀同里","LIN":"8鄰","STREET":"府前路","SECT":"一段","MAREA":" ","LANE":"１２２巷","ALLEY":" ","HOUSE_NO":"１３３號","E_COORD97":168750.37,"N_COORD97":2543511.4199999999,"ADDRESS":"府前路一段１２２巷１３３號","OBJECTID":298521},"geometry":{"x":168750.37000000104,"y":2543511.4199999999}},{"attributes":{"ID":298530,"DIS_CODE":0,"TOWNNAME":"仁德區","LI":"一甲里","LIN":"14鄰","STREET":"忠義路","SECT":" ","MAREA":" ","LANE":" ","ALLEY":" ","HOUSE_NO":"２４７號","E_COORD97":173848.45999999999,"N_COORD97":2541841.5099999998,"ADDRESS":"忠義路２４７號","OBJECTID":298522},"geometry":{"x":173848.46000000183,"y":2541841.5100000016}},{"attributes":{"ID":298531,"DIS_CODE":0,"TOWNNAME":"歸仁區","LI":"媽廟里","LIN":"20鄰","STREET":"中正北路","SECT":"三段","MAREA":" ","LANE":"１６０巷","ALLEY":" ","HOUSE_NO":"３號","E_COORD97":177656.702533,"N_COORD97":2543890.4540599999,"ADDRESS":"中正北路三段１６０巷３號","OBJECTID":298523},"geometry":{"x":177656.70253300015,"y":2543890.454055002}},{"attributes":{"ID":298532,"DIS_CODE":0,"TOWNNAME":"中西區","LI":"銀同里","LIN":"8鄰","STREET":"府前路","SECT":"一段","MAREA":" ","LANE":"１２２巷","ALLEY":" ","HOUSE_NO":"１３５號","E_COORD97":168757.87,"N_COORD97":2543516.3100000001,"ADDRESS":"府前路一段１２２巷１３５號","OBJECTID":298524},"geometry":{"x":168757.87000000011,"y":2543516.3100000005}},{"attributes":{"ID":298533,"DIS_CODE":0,"TOWNNAME":"中西區","LI":"銀同里","LIN":"8鄰","STREET":"府前路","SECT":"一段","MAREA":" ","LANE":"１２２巷","ALLEY":" ","HOUSE_NO":"１３７號","E_COORD97":168763.92999999999,"N_COORD97":2543524.3700000001,"ADDRESS":"府前路一段１２２巷１３７號","OBJECTID":298525},"geometry":{"x":168763.9299999997,"y":2543524.3700000048}},{"attributes":{"ID":298534,"DIS_CODE":0,"TOWNNAME":"中西區","LI":"銀同里","LIN":"8鄰","STREET":"府前路","SECT":"一段","MAREA":" ","LANE":"１２２巷","ALLEY":" ","HOUSE_NO":"１３９號","E_COORD97":168768.73999999999,"N_COORD97":2543525.6099999999,"ADDRESS":"府前路一段１２２巷１３９號","OBJECTID":298526},"geometry":{"x":168768.74000000115,"y":2543525.6100000013}},{"attributes":{"ID":298535,"DIS_CODE":0,"TOWNNAME":"中西區","LI":"銀同里","LIN":"8鄰","STREET":"府前路","SECT":"一段","MAREA":" ","LANE":"１２２巷","ALLEY":" ","HOUSE_NO":"１４１號","E_COORD97":168777.44,"N_COORD97":2543529.0299999998,"ADDRESS":"府前路一段１２２巷１４１號","OBJECTID":298527},"geometry":{"x":168777.44000000134,"y":2543529.0300000012}},{"attributes":{"ID":298536,"DIS_CODE":0,"TOWNNAME":"中西區","LI":"銀同里","LIN":"8鄰","STREET":"府前路","SECT":"一段","MAREA":" ","LANE":"１２２巷","ALLEY":" ","HOUSE_NO":"１４３號","E_COORD97":168772.47,"N_COORD97":2543531.9700000002,"ADDRESS":"府前路一段１２２巷１４３號","OBJECTID":298528},"geometry":{"x":168772.46999999974,"y":2543531.9700000007}},{"attributes":{"ID":298537,"DIS_CODE":0,"TOWNNAME":"中西區","LI":"銀同里","LIN":"8鄰","STREET":"府前路","SECT":"一段","MAREA":" ","LANE":"１２２巷","ALLEY":" ","HOUSE_NO":"１４５號","E_COORD97":168767.04000000001,"N_COORD97":2543533.5299999998,"ADDRESS":"府前路一段１２２巷１４５號","OBJECTID":298529},"geometry":{"x":168767.04000000004,"y":2543533.5299999993}},{"attributes":{"ID":298538,"DIS_CODE":0,"TOWNNAME":"中西區","LI":"銀同里","LIN":"8鄰","STREET":"府前路","SECT":"一段","MAREA":" ","LANE":"１２２巷","ALLEY":" ","HOUSE_NO":"１４７號","E_COORD97":168761.29000000001,"N_COORD97":2543536.1600000001,"ADDRESS":"府前路一段１２２巷１４７號","OBJECTID":298530},"geometry":{"x":168761.29000000097,"y":2543536.160000002}},{"attributes":{"ID":298539,"DIS_CODE":0,"TOWNNAME":"永康區","LI":"崑山里","LIN":"18鄰","STREET":"大灣路","SECT":" ","MAREA":" ","LANE":"８９６巷","ALLEY":" ","HOUSE_NO":"２０號","E_COORD97":173757.42000000001,"N_COORD97":2544517.1499999999,"ADDRESS":"大灣路８９６巷２０號","OBJECTID":298531},"geometry":{"x":173757.42000000086,"y":2544517.1500000004}},{"attributes":{"ID":298540,"DIS_CODE":0,"TOWNNAME":"新營區","LI":"太北里","LIN":"17鄰","STREET":" ","SECT":" ","MAREA":"太子宮","LANE":" ","ALLEY":" ","HOUSE_NO":"１４７之３７號","E_COORD97":175377.78163400001,"N_COORD97":2577166.4947000002,"ADDRESS":"太子宮１４７之３７號","OBJECTID":298532},"geometry":{"x":175377.78163400106,"y":2577166.4947040007}},{"attributes":{"ID":298541,"DIS_CODE":0,"TOWNNAME":"安平區","LI":"平通里","LIN":"4鄰","STREET":"慶平路","SECT":" ","MAREA":" ","LANE":" ","ALLEY":" ","HOUSE_NO":"５３９號五樓之５","E_COORD97":165071.10999999999,"N_COORD97":2544210.6600000001,"ADDRESS":"慶平路５３９號五樓之５","OBJECTID":298533},"geometry":{"x":165071.11000000034,"y":2544210.660000002}},{"attributes":{"ID":298542,"DIS_CODE":0,"TOWNNAME":"安平區","LI":"平通里","LIN":"4鄰","STREET":"慶平路","SECT":" ","MAREA":" ","LANE":" ","ALLEY":" ","HOUSE_NO":"５３９號五樓之６","E_COORD97":165071.10999999999,"N_COORD97":2544210.6600000001,"ADDRESS":"慶平路５３９號五樓之６","OBJECTID":298534},"geometry":{"x":165071.11000000034,"y":2544210.660000002}},{"attributes":{"ID":298543,"DIS_CODE":0,"TOWNNAME":"中西區","LI":"銀同里","LIN":"8鄰","STREET":"府前路","SECT":"一段","MAREA":" ","LANE":"１２２巷","ALLEY":" ","HOUSE_NO":"１５３號","E_COORD97":168753.67999999999,"N_COORD97":2543520.4900000002,"ADDRESS":"府前路一段１２２巷１５３號","OBJECTID":298535},"geometry":{"x":168753.6799999997,"y":2543520.4900000021}},{"attributes":{"ID":298544,"DIS_CODE":0,"TOWNNAME":"中西區","LI":"銀同里","LIN":"8鄰","STREET":"府前路","SECT":"一段","MAREA":" ","LANE":"１２２巷","ALLEY":" ","HOUSE_NO":"１５５號","E_COORD97":168739.85000000001,"N_COORD97":2543525.0699999998,"ADDRESS":"府前路一段１２２巷１５５號","OBJECTID":298536},"geometry":{"x":168739.85000000056,"y":2543525.0700000003}},{"attributes":{"ID":298545,"DIS_CODE":0,"TOWNNAME":"新營區","LI":"太北里","LIN":"17鄰","STREET":" ","SECT":" ","MAREA":"太子宮","LANE":" ","ALLEY":" ","HOUSE_NO":"１４７之３８號","E_COORD97":175376.298171,"N_COORD97":2577163.31971,"ADDRESS":"太子宮１４７之３８號","OBJECTID":298537},"geometry":{"x":175376.29817099869,"y":2577163.3197060023}},{"attributes":{"ID":298546,"DIS_CODE":0,"TOWNNAME":"中西區","LI":"銀同里","LIN":"8鄰","STREET":"府前路","SECT":"一段","MAREA":" ","LANE":"１２２巷","ALLEY":" ","HOUSE_NO":"１５７號","E_COORD97":168739.45000000001,"N_COORD97":2543529.6899999999,"ADDRESS":"府前路一段１２２巷１５７號","OBJECTID":298538},"geometry":{"x":168739.45000000205,"y":2543529.6899999995}},{"attributes":{"ID":298547,"DIS_CODE":0,"TOWNNAME":"永康區","LI":"復華里","LIN":"24鄰","STREET":"復華八街","SECT":" ","MAREA":" ","LANE":"５６巷","ALLEY":" ","HOUSE_NO":"１６號","E_COORD97":172778.82000000001,"N_COORD97":2546259.6499999999,"ADDRESS":"復華八街５６巷１６號","OBJECTID":298539},"geometry":{"x":172778.82000000123,"y":2546259.6500000004}},{"attributes":{"ID":298548,"DIS_CODE":0,"TOWNNAME":"新化區","LI":"協興里","LIN":"14鄰","STREET":"太平街","SECT":" ","MAREA":" ","LANE":" ","ALLEY":" ","HOUSE_NO":"１７２號之１","E_COORD97":178207.14999999999,"N_COORD97":2548657.2599999998,"ADDRESS":"太平街１７２號之１","OBJECTID":298540},"geometry":{"x":178207.15000000037,"y":2548657.2600000016}},{"attributes":{"ID":298549,"DIS_CODE":0,"TOWNNAME":"永康區","LI":"崑山里","LIN":"46鄰","STREET":"永華路","SECT":" ","MAREA":" ","LANE":"３２巷","ALLEY":" ","HOUSE_NO":"３６號","E_COORD97":174179.76000000001,"N_COORD97":2545176.4199999999,"ADDRESS":"永華路３２巷３６號","OBJECTID":298541},"geometry":{"x":174179.75999999978,"y":2545176.4199999999}},{"attributes":{"ID":298550,"DIS_CODE":0,"TOWNNAME":"中西區","LI":"銀同里","LIN":"8鄰","STREET":"府前路","SECT":"一段","MAREA":" ","LANE":"１２２巷","ALLEY":" ","HOUSE_NO":"１５９號","E_COORD97":168741.75,"N_COORD97":2543535.0600000001,"ADDRESS":"府前路一段１２２巷１５９號","OBJECTID":298542},"geometry":{"x":168741.75,"y":2543535.0600000005}},{"attributes":{"ID":298551,"DIS_CODE":0,"TOWNNAME":"新化區","LI":"太平里","LIN":"14鄰","STREET":"太平街","SECT":" ","MAREA":" ","LANE":" ","ALLEY":" ","HOUSE_NO":"８６號之１","E_COORD97":178610.39999999999,"N_COORD97":2548747.2599999998,"ADDRESS":"太平街８６號之１","OBJECTID":298543},"geometry":{"x":178610.40000000037,"y":2548747.2599999998}},{"attributes":{"ID":298552,"DIS_CODE":0,"TOWNNAME":"中西區","LI":"銀同里","LIN":"8鄰","STREET":"府前路","SECT":"一段","MAREA":" ","LANE":"１２２巷","ALLEY":" ","HOUSE_NO":"１６１號","E_COORD97":168743.29999999999,"N_COORD97":2543541.04,"ADDRESS":"府前路一段１２２巷１６１號","OBJECTID":298544},"geometry":{"x":168743.30000000168,"y":2543541.0399999991}},{"attributes":{"ID":298553,"DIS_CODE":0,"TOWNNAME":"中西區","LI":"銀同里","LIN":"8鄰","STREET":"府前路","SECT":"一段","MAREA":" ","LANE":"１２２巷","ALLEY":" ","HOUSE_NO":"１６３號","E_COORD97":168742.53,"N_COORD97":2543545.1600000001,"ADDRESS":"府前路一段１２２巷１６３號","OBJECTID":298545},"geometry":{"x":168742.53000000119,"y":2543545.1600000039}},{"attributes":{"ID":298554,"DIS_CODE":0,"TOWNNAME":"中西區","LI":"銀同里","LIN":"8鄰","STREET":"府前路","SECT":"一段","MAREA":" ","LANE":"１２２巷","ALLEY":" ","HOUSE_NO":"１６５號","E_COORD97":168742.53,"N_COORD97":2543548.5099999998,"ADDRESS":"府前路一段１２２巷１６５號","OBJECTID":298546},"geometry":{"x":168742.53000000119,"y":2543548.5099999998}},{"attributes":{"ID":298555,"DIS_CODE":0,"TOWNNAME":"中西區","LI":"銀同里","LIN":"8鄰","STREET":"府前路","SECT":"一段","MAREA":" ","LANE":"１２２巷","ALLEY":" ","HOUSE_NO":"１６７號","E_COORD97":168742.39000000001,"N_COORD97":2543551.8799999999,"ADDRESS":"府前路一段１２２巷１６７號","OBJECTID":298547},"geometry":{"x":168742.38999999966,"y":2543551.879999999}},{"attributes":{"ID":298556,"DIS_CODE":0,"TOWNNAME":"中西區","LI":"銀同里","LIN":"8鄰","STREET":"府前路","SECT":"一段","MAREA":" ","LANE":"１２２巷","ALLEY":" ","HOUSE_NO":"１６９號","E_COORD97":168736.60000000001,"N_COORD97":2543561.6299999999,"ADDRESS":"府前路一段１２２巷１６９號","OBJECTID":298548},"geometry":{"x":168736.60000000056,"y":2543561.6300000008}},{"attributes":{"ID":298557,"DIS_CODE":0,"TOWNNAME":"中西區","LI":"銀同里","LIN":"8鄰","STREET":"府前路","SECT":"一段","MAREA":" ","LANE":"１２２巷","ALLEY":" ","HOUSE_NO":"１７１號","E_COORD97":168738.14999999999,"N_COORD97":2543572.4399999999,"ADDRESS":"府前路一段１２２巷１７１號","OBJECTID":298549},"geometry":{"x":168738.15000000224,"y":2543572.4399999995}},{"attributes":{"ID":298558,"DIS_CODE":0,"TOWNNAME":"中西區","LI":"赤嵌里","LIN":"8鄰","STREET":"公園路","SECT":" ","MAREA":" ","LANE":"９８巷","ALLEY":" ","HOUSE_NO":"６號","E_COORD97":168702.39999999999,"N_COORD97":2544169.8999999999,"ADDRESS":"公園路９８巷６號","OBJECTID":298550},"geometry":{"x":168702.40000000037,"y":2544169.9000000004}},{"attributes":{"ID":298559,"DIS_CODE":0,"TOWNNAME":"中西區","LI":"赤嵌里","LIN":"8鄰","STREET":"公園路","SECT":" ","MAREA":" ","LANE":"９８巷","ALLEY":" ","HOUSE_NO":"９號","E_COORD97":168707.03,"N_COORD97":2544184.0899999999,"ADDRESS":"公園路９８巷９號","OBJECTID":298551},"geometry":{"x":168707.03000000119,"y":2544184.0900000017}},{"attributes":{"ID":298560,"DIS_CODE":0,"TOWNNAME":"下營區","LI":"宅內里","LIN":"8鄰","STREET":"人和三街","SECT":" ","MAREA":" ","LANE":"７１巷","ALLEY":" ","HOUSE_NO":"３號","E_COORD97":174245.64000000001,"N_COORD97":2570695.3100000001,"ADDRESS":"人和三街７１巷３號","OBJECTID":298552},"geometry":{"x":174245.6400000006,"y":2570695.3100000024}},{"attributes":{"ID":298561,"DIS_CODE":0,"TOWNNAME":"下營區","LI":"宅內里","LIN":"8鄰","STREET":"人和三街","SECT":" ","MAREA":" ","LANE":"７１巷","ALLEY":" ","HOUSE_NO":"５號","E_COORD97":174247.12,"N_COORD97":2570686.8300000001,"ADDRESS":"人和三街７１巷５號","OBJECTID":298553},"geometry":{"x":174247.12000000011,"y":2570686.8300000001}},{"attributes":{"ID":298562,"DIS_CODE":0,"TOWNNAME":"安南區","LI":"公\u25A0里","LIN":"8鄰","STREET":"安興街","SECT":" ","MAREA":" ","LANE":"１８１巷","ALLEY":" ","HOUSE_NO":"５０號","E_COORD97":163949.95999999999,"N_COORD97":2551965.5699999998,"ADDRESS":"安興街１８１巷５０號","OBJECTID":298554},"geometry":{"x":163949.95999999996,"y":2551965.5700000022}},{"attributes":{"ID":298563,"DIS_CODE":0,"TOWNNAME":"安南區","LI":"公\u25A0里","LIN":"8鄰","STREET":"安興街","SECT":" ","MAREA":" ","LANE":"１８１巷","ALLEY":" ","HOUSE_NO":"５４號","E_COORD97":163942.73999999999,"N_COORD97":2551960.6600000001,"ADDRESS":"安興街１８１巷５４號","OBJECTID":298555},"geometry":{"x":163942.74000000022,"y":2551960.660000002}},{"attributes":{"ID":298564,"DIS_CODE":0,"TOWNNAME":"安南區","LI":"公\u25A0里","LIN":"8鄰","STREET":"安興街","SECT":" ","MAREA":" ","LANE":"１８１巷","ALLEY":" ","HOUSE_NO":"２８號","E_COORD97":163984.14000000001,"N_COORD97":2551998.8900000001,"ADDRESS":"安興街１８１巷２８號","OBJECTID":298556},"geometry":{"x":163984.14000000153,"y":2551998.8900000006}},{"attributes":{"ID":298565,"DIS_CODE":0,"TOWNNAME":"北區","LI":"六甲里","LIN":"4鄰","STREET":"公園路","SECT":" ","MAREA":" ","LANE":"５０９巷","ALLEY":" ","HOUSE_NO":"１９號六樓之３","E_COORD97":168961.48999999999,"N_COORD97":2545547.29,"ADDRESS":"公園路５０９巷１９號六樓之３","OBJECTID":298557},"geometry":{"x":168961.49000000115,"y":2545547.290000001}},{"attributes":{"ID":298566,"DIS_CODE":0,"TOWNNAME":"佳里區","LI":"鎮山里","LIN":"8鄰","STREET":"仁愛路","SECT":" ","MAREA":" ","LANE":"１４６巷","ALLEY":" ","HOUSE_NO":"２９號","E_COORD97":166375.25,"N_COORD97":2561480.7200000002,"ADDRESS":"仁愛路１４６巷２９號","OBJECTID":298558},"geometry":{"x":166375.25,"y":2561480.7200000044}},{"attributes":{"ID":298567,"DIS_CODE":0,"TOWNNAME":"佳里區","LI":"鎮山里","LIN":"8鄰","STREET":"仁愛路","SECT":" ","MAREA":" ","LANE":"１４６巷","ALLEY":" ","HOUSE_NO":"３０號","E_COORD97":166388.45999999999,"N_COORD97":2561454.1800000002,"ADDRESS":"仁愛路１４６巷３０號","OBJECTID":298559},"geometry":{"x":166388.46000000089,"y":2561454.1800000016}},{"attributes":{"ID":298568,"DIS_CODE":0,"TOWNNAME":"佳里區","LI":"鎮山里","LIN":"8鄰","STREET":"仁愛路","SECT":" ","MAREA":" ","LANE":"１４６巷","ALLEY":" ","HOUSE_NO":"３８號","E_COORD97":166388.73000000001,"N_COORD97":2561471.9300000002,"ADDRESS":"仁愛路１４６巷３８號","OBJECTID":298560},"geometry":{"x":166388.73000000138,"y":2561471.9300000016}},{"attributes":{"ID":298569,"DIS_CODE":0,"TOWNNAME":"佳里區","LI":"鎮山里","LIN":"8鄰","STREET":"仁愛路","SECT":" ","MAREA":" ","LANE":"１４６巷","ALLEY":" ","HOUSE_NO":"３號","E_COORD97":166374.48999999999,"N_COORD97":2561422.0600000001,"ADDRESS":"仁愛路１４６巷３號","OBJECTID":298561},"geometry":{"x":166374.49000000115,"y":2561422.0600000024}},{"attributes":{"ID":298570,"DIS_CODE":0,"TOWNNAME":"佳里區","LI":"鎮山里","LIN":"8鄰","STREET":"仁愛路","SECT":" ","MAREA":" ","LANE":"１４６巷","ALLEY":" ","HOUSE_NO":"４０號","E_COORD97":166388.79000000001,"N_COORD97":2561476.3599999999,"ADDRESS":"仁愛路１４６巷４０號","OBJECTID":298562},"geometry":{"x":166388.79000000004,"y":2561476.3600000013}},{"attributes":{"ID":298571,"DIS_CODE":0,"TOWNNAME":"佳里區","LI":"鎮山里","LIN":"8鄰","STREET":"仁愛路","SECT":" ","MAREA":" ","LANE":"１４６巷","ALLEY":" ","HOUSE_NO":"４２號","E_COORD97":166388.85999999999,"N_COORD97":2561480.7999999998,"ADDRESS":"仁愛路１４６巷４２號","OBJECTID":298563},"geometry":{"x":166388.8600000022,"y":2561480.8000000026}},{"attributes":{"ID":298572,"DIS_CODE":0,"TOWNNAME":"佳里區","LI":"鎮山里","LIN":"8鄰","STREET":"仁愛路","SECT":" ","MAREA":" ","LANE":"１４６巷","ALLEY":" ","HOUSE_NO":"４４號","E_COORD97":166388.92999999999,"N_COORD97":2561485.2400000002,"ADDRESS":"仁愛路１４６巷４４號","OBJECTID":298564},"geometry":{"x":166388.9299999997,"y":2561485.2400000002}},{"attributes":{"ID":298573,"DIS_CODE":0,"TOWNNAME":"佳里區","LI":"鎮山里","LIN":"8鄰","STREET":"仁愛路","SECT":" ","MAREA":" ","LANE":"１４６巷","ALLEY":" ","HOUSE_NO":"４６號","E_COORD97":166388.98999999999,"N_COORD97":2561489.6699999999,"ADDRESS":"仁愛路１４６巷４６號","OBJECTID":298565},"geometry":{"x":166388.99000000022,"y":2561489.6699999999}},{"attributes":{"ID":298574,"DIS_CODE":0,"TOWNNAME":"佳里區","LI":"鎮山里","LIN":"8鄰","STREET":"仁愛路","SECT":" ","MAREA":" ","LANE":"１４６巷","ALLEY":" ","HOUSE_NO":"４８號","E_COORD97":166389.06,"N_COORD97":2561494.1099999999,"ADDRESS":"仁愛路１４６巷４８號","OBJECTID":298566},"geometry":{"x":166389.06000000052,"y":2561494.1100000013}},{"attributes":{"ID":298575,"DIS_CODE":0,"TOWNNAME":"佳里區","LI":"鎮山里","LIN":"8鄰","STREET":"仁愛路","SECT":" ","MAREA":" ","LANE":"１４６巷","ALLEY":" ","HOUSE_NO":"５０號","E_COORD97":166389.13,"N_COORD97":2561498.54,"ADDRESS":"仁愛路１４６巷５０號","OBJECTID":298567},"geometry":{"x":166389.12999999989,"y":2561498.540000001}},{"attributes":{"ID":298576,"DIS_CODE":0,"TOWNNAME":"佳里區","LI":"鎮山里","LIN":"8鄰","STREET":"仁愛路","SECT":" ","MAREA":" ","LANE":"１４６巷","ALLEY":" ","HOUSE_NO":"５號","E_COORD97":166374.57000000001,"N_COORD97":2561427.1400000001,"ADDRESS":"仁愛路１４６巷５號","OBJECTID":298568},"geometry":{"x":166374.57000000123,"y":2561427.1400000025}},{"attributes":{"ID":298577,"DIS_CODE":0,"TOWNNAME":"佳里區","LI":"鎮山里","LIN":"8鄰","STREET":"仁愛路","SECT":" ","MAREA":" ","LANE":"１４６巷","ALLEY":" ","HOUSE_NO":"７號","E_COORD97":166375.09,"N_COORD97":2561431.1099999999,"ADDRESS":"仁愛路１４６巷７號","OBJECTID":298569},"geometry":{"x":166375.09000000078,"y":2561431.1099999994}},{"attributes":{"ID":298578,"DIS_CODE":0,"TOWNNAME":"佳里區","LI":"鎮山里","LIN":"8鄰","STREET":"仁愛路","SECT":" ","MAREA":" ","LANE":"１４６巷","ALLEY":" ","HOUSE_NO":"９號","E_COORD97":166375.20999999999,"N_COORD97":2561435.4900000002,"ADDRESS":"仁愛路１４６巷９號","OBJECTID":298570},"geometry":{"x":166375.20999999996,"y":2561435.4900000021}},{"attributes":{"ID":298579,"DIS_CODE":0,"TOWNNAME":"東區","LI":"復興里","LIN":"8鄰","STREET":"裕學路","SECT":" ","MAREA":" ","LANE":"１８５巷","ALLEY":" ","HOUSE_NO":"３９號","E_COORD97":171700.45000000001,"N_COORD97":2542748.9700000002,"ADDRESS":"裕學路１８５巷３９號","OBJECTID":298571},"geometry":{"x":171700.45000000019,"y":2542748.9700000007}},{"attributes":{"ID":298580,"DIS_CODE":0,"TOWNNAME":"東區","LI":"復興里","LIN":"8鄰","STREET":"裕學路","SECT":" ","MAREA":" ","LANE":"１８５巷","ALLEY":" ","HOUSE_NO":"４２號","E_COORD97":171678.63,"N_COORD97":2542753.46,"ADDRESS":"裕學路１８５巷４２號","OBJECTID":298572},"geometry":{"x":171678.62999999989,"y":2542753.4600000009}},{"attributes":{"ID":298581,"DIS_CODE":0,"TOWNNAME":"東區","LI":"復興里","LIN":"8鄰","STREET":"裕學路","SECT":" ","MAREA":" ","LANE":"１８５巷","ALLEY":" ","HOUSE_NO":"４１號","E_COORD97":171702.5,"N_COORD97":2542745.5600000001,"ADDRESS":"裕學路１８５巷４１號","OBJECTID":298573},"geometry":{"x":171702.50000000093,"y":2542745.5600000005}},{"attributes":{"ID":298582,"DIS_CODE":0,"TOWNNAME":"東區","LI":"復興里","LIN":"8鄰","STREET":"裕學路","SECT":" ","MAREA":" ","LANE":"１８５巷","ALLEY":" ","HOUSE_NO":"５０號","E_COORD97":171679.32000000001,"N_COORD97":2542745.9700000002,"ADDRESS":"裕學路１８５巷５０號","OBJECTID":298574},"geometry":{"x":171679.3200000003,"y":2542745.9700000007}},{"attributes":{"ID":298583,"DIS_CODE":0,"TOWNNAME":"東區","LI":"復興里","LIN":"8鄰","STREET":"裕學路","SECT":" ","MAREA":" ","LANE":"１８５巷","ALLEY":" ","HOUSE_NO":"４７號","E_COORD97":171703.51999999999,"N_COORD97":2542732.9700000002,"ADDRESS":"裕學路１８５巷４７號","OBJECTID":298575},"geometry":{"x":171703.52000000048,"y":2542732.9700000007}},{"attributes":{"ID":298584,"DIS_CODE":0,"TOWNNAME":"東區","LI":"復興里","LIN":"8鄰","STREET":"裕學路","SECT":" ","MAREA":" ","LANE":"１８５巷","ALLEY":" ","HOUSE_NO":"５６號","E_COORD97":171680.34,"N_COORD97":2542738.8199999998,"ADDRESS":"裕學路１８５巷５６號","OBJECTID":298576},"geometry":{"x":171680.33999999985,"y":2542738.8200000022}},{"attributes":{"ID":298585,"DIS_CODE":0,"TOWNNAME":"東區","LI":"復興里","LIN":"8鄰","STREET":"裕學路","SECT":" ","MAREA":" ","LANE":"１８５巷","ALLEY":" ","HOUSE_NO":"４９號","E_COORD97":171705.22,"N_COORD97":2542728.8799999999,"ADDRESS":"裕學路１８５巷４９號","OBJECTID":298577},"geometry":{"x":171705.21999999881,"y":2542728.8800000027}},{"attributes":{"ID":298586,"DIS_CODE":0,"TOWNNAME":"東區","LI":"復興里","LIN":"8鄰","STREET":"裕學路","SECT":" ","MAREA":" ","LANE":"１８５巷","ALLEY":" ","HOUSE_NO":"５８號","E_COORD97":171680.34,"N_COORD97":2542735.4199999999,"ADDRESS":"裕學路１８５巷５８號","OBJECTID":298578},"geometry":{"x":171680.33999999985,"y":2542735.4199999999}},{"attributes":{"ID":298587,"DIS_CODE":0,"TOWNNAME":"永康區","LI":"西勢里","LIN":"8鄰","STREET":"西勢路","SECT":" ","MAREA":" ","LANE":"１９９巷","ALLEY":" ","HOUSE_NO":"５０號","E_COORD97":175828.79000000001,"N_COORD97":2546673.6200000001,"ADDRESS":"西勢路１９９巷５０號","OBJECTID":298579},"geometry":{"x":175828.79000000004,"y":2546673.6200000029}},{"attributes":{"ID":298588,"DIS_CODE":0,"TOWNNAME":"永康區","LI":"西灣里","LIN":"8鄰","STREET":"大灣五街","SECT":" ","MAREA":" ","LANE":"９３巷","ALLEY":" ","HOUSE_NO":"７６號","E_COORD97":174545.57999999999,"N_COORD97":2545198.75,"ADDRESS":"大灣五街９３巷７６號","OBJECTID":298580},"geometry":{"x":174545.58000000007,"y":2545198.7499999981}},{"attributes":{"ID":298589,"DIS_CODE":0,"TOWNNAME":"永康區","LI":"崑山里","LIN":"8鄰","STREET":"大灣路","SECT":" ","MAREA":" ","LANE":"９５９巷","ALLEY":" ","HOUSE_NO":"８號","E_COORD97":173384.48000000001,"N_COORD97":2544312.8799999999,"ADDRESS":"大灣路９５９巷８號","OBJECTID":298581},"geometry":{"x":173384.48000000138,"y":2544312.8800000008}},{"attributes":{"ID":298590,"DIS_CODE":0,"TOWNNAME":"永康區","LI":"網寮里","LIN":"8鄰","STREET":"永二街","SECT":" ","MAREA":" ","LANE":"２４４巷","ALLEY":" ","HOUSE_NO":"１號之２１","E_COORD97":173261.35999999999,"N_COORD97":2546437.5299999998,"ADDRESS":"永二街２４４巷１號之２１","OBJECTID":298582},"geometry":{"x":173261.36000000127,"y":2546437.5300000031}},{"attributes":{"ID":298591,"DIS_CODE":0,"TOWNNAME":"永康區","LI":"王行里","LIN":"8鄰","STREET":"王行路","SECT":" ","MAREA":" ","LANE":"３５１巷","ALLEY":" ","HOUSE_NO":"２６號","E_COORD97":175347.38,"N_COORD97":2548547.5600000001,"ADDRESS":"王行路３５１巷２６號","OBJECTID":298583},"geometry":{"x":175347.38000000175,"y":2548547.5600000024}},{"attributes":{"ID":298592,"DIS_CODE":0,"TOWNNAME":"永康區","LI":"烏竹里","LIN":"8鄰","STREET":"龍橋街","SECT":" ","MAREA":" ","LANE":"３８１巷","ALLEY":" ","HOUSE_NO":"２６號","E_COORD97":174395.44,"N_COORD97":2549122.8500000001,"ADDRESS":"龍橋街３８１巷２６號","OBJECTID":298584},"geometry":{"x":174395.44000000134,"y":2549122.8499999996}},{"attributes":{"ID":298593,"DIS_CODE":0,"TOWNNAME":"永康區","LI":"西勢里","LIN":"8鄰","STREET":"富強路","SECT":"一段","MAREA":" ","LANE":"３０６巷","ALLEY":" ","HOUSE_NO":"２４號","E_COORD97":175799.39000000001,"N_COORD97":2546642.7799999998,"ADDRESS":"富強路一段３０６巷２４號","OBJECTID":298585},"geometry":{"x":175799.38999999966,"y":2546642.7800000012}},{"attributes":{"ID":298594,"DIS_CODE":0,"TOWNNAME":"新化區","LI":"知義里","LIN":"14鄰","STREET":"復興路","SECT":" ","MAREA":" ","LANE":" ","ALLEY":" ","HOUSE_NO":"１４７號","E_COORD97":179444.82000000001,"N_COORD97":2547829.25,"ADDRESS":"復興路１４７號","OBJECTID":298586},"geometry":{"x":179444.8200000003,"y":2547829.25}},{"attributes":{"ID":298595,"DIS_CODE":0,"TOWNNAME":"永康區","LI":"尚頂里","LIN":"8鄰","STREET":"正南一街","SECT":" ","MAREA":" ","LANE":"１１８巷","ALLEY":" ","HOUSE_NO":"２６號","E_COORD97":170963.20000000001,"N_COORD97":2547343.27,"ADDRESS":"正南一街１１８巷２６號","OBJECTID":298587},"geometry":{"x":170963.20000000019,"y":2547343.2699999996}},{"attributes":{"ID":298596,"DIS_CODE":0,"TOWNNAME":"永康區","LI":"南灣里","LIN":"8鄰","STREET":"南興路","SECT":" ","MAREA":" ","LANE":"２巷","ALLEY":" ","HOUSE_NO":"２１號","E_COORD97":174521.39000000001,"N_COORD97":2544002.4900000002,"ADDRESS":"南興路２巷２１號","OBJECTID":298588},"geometry":{"x":174521.38999999873,"y":2544002.4900000021}},{"attributes":{"ID":298597,"DIS_CODE":0,"TOWNNAME":"永康區","LI":"東橋里","LIN":"8鄰","STREET":"大橋一街","SECT":" ","MAREA":" ","LANE":"３２４巷","ALLEY":" ","HOUSE_NO":"１２３號","E_COORD97":171539.10000000001,"N_COORD97":2546373.48,"ADDRESS":"大橋一街３２４巷１２３號","OBJECTID":298589},"geometry":{"x":171539.09999999963,"y":2546373.4800000004}},{"attributes":{"ID":298598,"DIS_CODE":0,"TOWNNAME":"安南區","LI":"淵東里","LIN":"8鄰","STREET":"安中路","SECT":"三段","MAREA":" ","LANE":"４００巷","ALLEY":" ","HOUSE_NO":"１０１之１號","E_COORD97":165490.07999999999,"N_COORD97":2550209.54,"ADDRESS":"安中路三段４００巷１０１之１號","OBJECTID":298590},"geometry":{"x":165490.08000000007,"y":2550209.5399999991}},{"attributes":{"ID":298599,"DIS_CODE":0,"TOWNNAME":"安南區","LI":"理想里","LIN":"8鄰","STREET":"海佃路","SECT":"二段","MAREA":" ","LANE":"１５０巷","ALLEY":" ","HOUSE_NO":"１２２之１６號","E_COORD97":167297.84413300001,"N_COORD97":2548585.6255299998,"ADDRESS":"海佃路二段１５０巷１２２之１６號","OBJECTID":298591},"geometry":{"x":167297.84413300082,"y":2548585.6255319994}},{"attributes":{"ID":298600,"DIS_CODE":0,"TOWNNAME":"安南區","LI":"海南里","LIN":"8鄰","STREET":"府安路","SECT":"六段","MAREA":" ","LANE":"１２６巷","ALLEY":" ","HOUSE_NO":"１５之５號","E_COORD97":166575.14999999999,"N_COORD97":2546426.8700000001,"ADDRESS":"府安路六段１２６巷１５之５號","OBJECTID":298592},"geometry":{"x":166575.15000000224,"y":2546426.8700000048}},{"attributes":{"ID":298601,"DIS_CODE":0,"TOWNNAME":"安南區","LI":"南興里","LIN":"8鄰","STREET":"安興街","SECT":" ","MAREA":" ","LANE":"６４６巷","ALLEY":" ","HOUSE_NO":"１７之１號","E_COORD97":163538.78,"N_COORD97":2552550.7799999998,"ADDRESS":"安興街６４６巷１７之１號","OBJECTID":298593},"geometry":{"x":163538.78000000119,"y":2552550.7799999993}},{"attributes":{"ID":298602,"DIS_CODE":0,"TOWNNAME":"中西區","LI":"民生里","LIN":"8鄰","STREET":"金華路","SECT":"三段","MAREA":" ","LANE":"５５巷","ALLEY":" ","HOUSE_NO":"１號","E_COORD97":167166.41,"N_COORD97":2543356.0499999998,"ADDRESS":"金華路三段５５巷１號","OBJECTID":298594},"geometry":{"x":167166.41000000201,"y":2543356.0500000007}},{"attributes":{"ID":298603,"DIS_CODE":0,"TOWNNAME":"中西區","LI":"民生里","LIN":"8鄰","STREET":"金華路","SECT":"三段","MAREA":" ","LANE":"５５巷","ALLEY":" ","HOUSE_NO":"２號","E_COORD97":167166.41,"N_COORD97":2543352.8599999999,"ADDRESS":"金華路三段５５巷２號","OBJECTID":298595},"geometry":{"x":167166.41000000201,"y":2543352.8599999994}},{"attributes":{"ID":298604,"DIS_CODE":0,"TOWNNAME":"中西區","LI":"民生里","LIN":"8鄰","STREET":"金華路","SECT":"三段","MAREA":" ","LANE":"５５巷","ALLEY":" ","HOUSE_NO":"３號","E_COORD97":167165.26999999999,"N_COORD97":2543348.7599999998,"ADDRESS":"金華路三段５５巷３號","OBJECTID":298596},"geometry":{"x":167165.27000000048,"y":2543348.7600000016}},{"attributes":{"ID":298605,"DIS_CODE":0,"TOWNNAME":"中西區","LI":"民生里","LIN":"8鄰","STREET":"金華路","SECT":"三段","MAREA":" ","LANE":"５５巷","ALLEY":" ","HOUSE_NO":"４號","E_COORD97":167164.57999999999,"N_COORD97":2543344.8900000001,"ADDRESS":"金華路三段５５巷４號","OBJECTID":298597},"geometry":{"x":167164.58000000007,"y":2543344.8900000025}},{"attributes":{"ID":298606,"DIS_CODE":0,"TOWNNAME":"中西區","LI":"民生里","LIN":"8鄰","STREET":"金華路","SECT":"三段","MAREA":" ","LANE":"５５巷","ALLEY":" ","HOUSE_NO":"５號","E_COORD97":167163.89999999999,"N_COORD97":2543341.9300000002,"ADDRESS":"金華路三段５５巷５號","OBJECTID":298598},"geometry":{"x":167163.9000000013,"y":2543341.9299999997}},{"attributes":{"ID":298607,"DIS_CODE":0,"TOWNNAME":"中西區","LI":"民生里","LIN":"8鄰","STREET":"金華路","SECT":"三段","MAREA":" ","LANE":"５５巷","ALLEY":" ","HOUSE_NO":"６號","E_COORD97":167163.67000000001,"N_COORD97":2543338.75,"ADDRESS":"金華路三段５５巷６號","OBJECTID":298599},"geometry":{"x":167163.66999999993,"y":2543338.7500000019}},{"attributes":{"ID":298608,"DIS_CODE":0,"TOWNNAME":"中西區","LI":"民生里","LIN":"8鄰","STREET":"大勇街","SECT":" ","MAREA":" ","LANE":"１５３巷","ALLEY":" ","HOUSE_NO":"１１號","E_COORD97":167137.92000000001,"N_COORD97":2543341.7000000002,"ADDRESS":"大勇街１５３巷１１號","OBJECTID":298600},"geometry":{"x":167137.92000000086,"y":2543341.7000000011}}]}