{"displayFieldName":"TOWNNAME","fieldAliases":{"ID":"ID","DIS_CODE":"DIS_CODE","TOWNNAME":"TOWNNAME","LI":"LI","LIN":"LIN","STREET":"STREET","SECT":"SECT","MAREA":"MAREA","LANE":"LANE","ALLEY":"ALLEY","HOUSE_NO":"HOUSE_NO","E_COORD97":"E_COORD97","N_COORD97":"N_COORD97","ADDRESS":"ADDRESS","OBJECTID":"OBJECTID"},"geometryType":"esriGeometryPoint","spatialReference":{"wkid":102443,"latestWkid":3826},"fields":[{"name":"ID","type":"esriFieldTypeDouble","alias":"ID"},{"name":"DIS_CODE","type":"esriFieldTypeInteger","alias":"DIS_CODE"},{"name":"TOWNNAME","type":"esriFieldTypeString","alias":"TOWNNAME","length":8},{"name":"LI","type":"esriFieldTypeString","alias":"LI","length":8},{"name":"LIN","type":"esriFieldTypeString","alias":"LIN","length":12},{"name":"STREET","type":"esriFieldTypeString","alias":"STREET","length":20},{"name":"SECT","type":"esriFieldTypeString","alias":"SECT","length":8},{"name":"MAREA","type":"esriFieldTypeString","alias":"MAREA","length":12},{"name":"LANE","type":"esriFieldTypeString","alias":"LANE","length":10},{"name":"ALLEY","type":"esriFieldTypeString","alias":"ALLEY","length":10},{"name":"HOUSE_NO","type":"esriFieldTypeString","alias":"HOUSE_NO","length":20},{"name":"E_COORD97","type":"esriFieldTypeDouble","alias":"E_COORD97"},{"name":"N_COORD97","type":"esriFieldTypeDouble","alias":"N_COORD97"},{"name":"ADDRESS","type":"esriFieldTypeString","alias":"ADDRESS","length":50},{"name":"OBJECTID","type":"esriFieldTypeOID","alias":"OBJECTID"}],"features":[{"attributes":{"ID":621428,"DIS_CODE":0,"TOWNNAME":"中西區","LI":"天后里","LIN":"6鄰","STREET":"民權路","SECT":"二段","MAREA":" ","LANE":" ","ALLEY":" ","HOUSE_NO":"２６２號","E_COORD97":168009.04999999999,"N_COORD97":2544070.8399999999,"ADDRESS":"民權路二段２６２號","OBJECTID":621401},"geometry":{"x":168009.04999999981,"y":2544070.8400000017}},{"attributes":{"ID":621429,"DIS_CODE":0,"TOWNNAME":"中西區","LI":"天后里","LIN":"6鄰","STREET":"民權路","SECT":"二段","MAREA":" ","LANE":" ","ALLEY":" ","HOUSE_NO":"２６４號","E_COORD97":168003.70000000001,"N_COORD97":2544072.3599999999,"ADDRESS":"民權路二段２６４號","OBJECTID":621402},"geometry":{"x":168003.70000000205,"y":2544072.3600000013}},{"attributes":{"ID":621430,"DIS_CODE":0,"TOWNNAME":"中西區","LI":"天后里","LIN":"6鄰","STREET":"民權路","SECT":"二段","MAREA":" ","LANE":" ","ALLEY":" ","HOUSE_NO":"２６６號","E_COORD97":167998.5,"N_COORD97":2544073.5800000001,"ADDRESS":"民權路二段２６６號","OBJECTID":621403},"geometry":{"x":167998.50000000093,"y":2544073.5800000001}},{"attributes":{"ID":621431,"DIS_CODE":0,"TOWNNAME":"中西區","LI":"天后里","LIN":"6鄰","STREET":"民權路","SECT":"二段","MAREA":" ","LANE":" ","ALLEY":" ","HOUSE_NO":"２６８號","E_COORD97":167994.98999999999,"N_COORD97":2544076.3300000001,"ADDRESS":"民權路二段２６８號","OBJECTID":621404},"geometry":{"x":167994.99000000209,"y":2544076.3300000038}},{"attributes":{"ID":621432,"DIS_CODE":0,"TOWNNAME":"中西區","LI":"天后里","LIN":"6鄰","STREET":"民權路","SECT":"二段","MAREA":" ","LANE":" ","ALLEY":" ","HOUSE_NO":"２７０號","E_COORD97":167991.17000000001,"N_COORD97":2544077.3999999999,"ADDRESS":"民權路二段２７０號","OBJECTID":621405},"geometry":{"x":167991.16999999993,"y":2544077.4000000022}},{"attributes":{"ID":621433,"DIS_CODE":0,"TOWNNAME":"中西區","LI":"法華里","LIN":"14鄰","STREET":"五妃街","SECT":" ","MAREA":" ","LANE":" ","ALLEY":" ","HOUSE_NO":"７５號","E_COORD97":168915.26999999999,"N_COORD97":2542553.4100000001,"ADDRESS":"五妃街７５號","OBJECTID":621406},"geometry":{"x":168915.27000000048,"y":2542553.4099999983}},{"attributes":{"ID":621434,"DIS_CODE":0,"TOWNNAME":"中西區","LI":"法華里","LIN":"17鄰","STREET":"法華街","SECT":" ","MAREA":" ","LANE":" ","ALLEY":" ","HOUSE_NO":"１７６號","E_COORD97":168858.97,"N_COORD97":2542526.6800000002,"ADDRESS":"法華街１７６號","OBJECTID":621407},"geometry":{"x":168858.96999999881,"y":2542526.6799999997}},{"attributes":{"ID":621435,"DIS_CODE":0,"TOWNNAME":"中西區","LI":"法華里","LIN":"17鄰","STREET":"法華街","SECT":" ","MAREA":" ","LANE":" ","ALLEY":" ","HOUSE_NO":"１７６號之１","E_COORD97":168858.97,"N_COORD97":2542532.5800000001,"ADDRESS":"法華街１７６號之１","OBJECTID":621408},"geometry":{"x":168858.96999999881,"y":2542532.5800000019}},{"attributes":{"ID":621436,"DIS_CODE":0,"TOWNNAME":"中西區","LI":"法華里","LIN":"17鄰","STREET":"法華街","SECT":" ","MAREA":" ","LANE":" ","ALLEY":" ","HOUSE_NO":"１６６號","E_COORD97":168859.37,"N_COORD97":2542556.9399999999,"ADDRESS":"法華街１６６號","OBJECTID":621409},"geometry":{"x":168859.37000000011,"y":2542556.9400000013}},{"attributes":{"ID":621437,"DIS_CODE":0,"TOWNNAME":"中西區","LI":"法華里","LIN":"17鄰","STREET":"法華街","SECT":" ","MAREA":" ","LANE":" ","ALLEY":" ","HOUSE_NO":"１７０號之１","E_COORD97":168860.54999999999,"N_COORD97":2542547.1200000001,"ADDRESS":"法華街１７０號之１","OBJECTID":621410},"geometry":{"x":168860.55000000075,"y":2542547.1200000029}},{"attributes":{"ID":621438,"DIS_CODE":0,"TOWNNAME":"中西區","LI":"法華里","LIN":"16鄰","STREET":"法華街","SECT":" ","MAREA":" ","LANE":" ","ALLEY":" ","HOUSE_NO":"１１２號","E_COORD97":168869.42999999999,"N_COORD97":2542667.25,"ADDRESS":"法華街１１２號","OBJECTID":621411},"geometry":{"x":168869.42999999877,"y":2542667.2500000019}},{"attributes":{"ID":621439,"DIS_CODE":0,"TOWNNAME":"中西區","LI":"法華里","LIN":"16鄰","STREET":"法華街","SECT":" ","MAREA":" ","LANE":" ","ALLEY":" ","HOUSE_NO":"１１４號","E_COORD97":168868.35000000001,"N_COORD97":2542650.5299999998,"ADDRESS":"法華街１１４號","OBJECTID":621412},"geometry":{"x":168868.35000000149,"y":2542650.5300000012}},{"attributes":{"ID":621440,"DIS_CODE":0,"TOWNNAME":"中西區","LI":"法華里","LIN":"16鄰","STREET":"法華街","SECT":" ","MAREA":" ","LANE":" ","ALLEY":" ","HOUSE_NO":"１１６號","E_COORD97":168884.81,"N_COORD97":2542651.6099999999,"ADDRESS":"法華街１１６號","OBJECTID":621413},"geometry":{"x":168884.80999999959,"y":2542651.6099999994}},{"attributes":{"ID":621441,"DIS_CODE":0,"TOWNNAME":"中西區","LI":"法華里","LIN":"16鄰","STREET":"法華街","SECT":" ","MAREA":" ","LANE":" ","ALLEY":" ","HOUSE_NO":"１１８號","E_COORD97":168896.23999999999,"N_COORD97":2542650.9700000002,"ADDRESS":"法華街１１８號","OBJECTID":621414},"geometry":{"x":168896.24000000022,"y":2542650.9700000007}},{"attributes":{"ID":621442,"DIS_CODE":0,"TOWNNAME":"中西區","LI":"法華里","LIN":"16鄰","STREET":"法華街","SECT":" ","MAREA":" ","LANE":" ","ALLEY":" ","HOUSE_NO":"１２０號","E_COORD97":168914.81,"N_COORD97":2542652.8799999999,"ADDRESS":"法華街１２０號","OBJECTID":621415},"geometry":{"x":168914.81000000052,"y":2542652.879999999}},{"attributes":{"ID":621443,"DIS_CODE":0,"TOWNNAME":"中西區","LI":"法華里","LIN":"16鄰","STREET":"法華街","SECT":" ","MAREA":" ","LANE":" ","ALLEY":" ","HOUSE_NO":"１２２號","E_COORD97":168912.26999999999,"N_COORD97":2542648.1099999999,"ADDRESS":"法華街１２２號","OBJECTID":621416},"geometry":{"x":168912.26999999955,"y":2542648.1099999994}},{"attributes":{"ID":621444,"DIS_CODE":0,"TOWNNAME":"中西區","LI":"法華里","LIN":"16鄰","STREET":"法華街","SECT":" ","MAREA":" ","LANE":" ","ALLEY":" ","HOUSE_NO":"１２４號","E_COORD97":168911.48000000001,"N_COORD97":2542645.8900000001,"ADDRESS":"法華街１２４號","OBJECTID":621417},"geometry":{"x":168911.48000000138,"y":2542645.8900000043}},{"attributes":{"ID":621445,"DIS_CODE":0,"TOWNNAME":"中西區","LI":"法華里","LIN":"16鄰","STREET":"法華街","SECT":" ","MAREA":" ","LANE":" ","ALLEY":" ","HOUSE_NO":"１２６號","E_COORD97":168911,"N_COORD97":2542643.1899999999,"ADDRESS":"法華街１２６號","OBJECTID":621418},"geometry":{"x":168911,"y":2542643.1900000013}},{"attributes":{"ID":621446,"DIS_CODE":0,"TOWNNAME":"中西區","LI":"法華里","LIN":"16鄰","STREET":"法華街","SECT":" ","MAREA":" ","LANE":" ","ALLEY":" ","HOUSE_NO":"１２８號","E_COORD97":168908.84,"N_COORD97":2542639.1800000002,"ADDRESS":"法華街１２８號","OBJECTID":621419},"geometry":{"x":168908.83999999985,"y":2542639.1799999978}},{"attributes":{"ID":621447,"DIS_CODE":0,"TOWNNAME":"中西區","LI":"法華里","LIN":"16鄰","STREET":"法華街","SECT":" ","MAREA":" ","LANE":" ","ALLEY":" ","HOUSE_NO":"１３０號","E_COORD97":168895.32000000001,"N_COORD97":2542631.8900000001,"ADDRESS":"法華街１３０號","OBJECTID":621420},"geometry":{"x":168895.32000000123,"y":2542631.8900000006}},{"attributes":{"ID":621448,"DIS_CODE":0,"TOWNNAME":"安南區","LI":"安順里","LIN":" ","STREET":"安和路","SECT":"四段","MAREA":" ","LANE":" ","ALLEY":" ","HOUSE_NO":"１３５號","E_COORD97":169911.17999999999,"N_COORD97":2550421.4399999999,"ADDRESS":"安和路四段１３５號","OBJECTID":621421},"geometry":{"x":169911.18000000063,"y":2550421.4399999995}},{"attributes":{"ID":621449,"DIS_CODE":0,"TOWNNAME":"安南區","LI":"安順里","LIN":" ","STREET":"總安街","SECT":"一段","MAREA":" ","LANE":" ","ALLEY":" ","HOUSE_NO":"５號","E_COORD97":169924.29999999999,"N_COORD97":2550084.0899999999,"ADDRESS":"總安街一段５號","OBJECTID":621422},"geometry":{"x":169924.29999999981,"y":2550084.0899999999}},{"attributes":{"ID":621450,"DIS_CODE":0,"TOWNNAME":"安南區","LI":"安順里","LIN":" ","STREET":"總安街","SECT":"一段","MAREA":" ","LANE":" ","ALLEY":" ","HOUSE_NO":"５４號","E_COORD97":169844.56,"N_COORD97":2550114.8900000001,"ADDRESS":"總安街一段５４號","OBJECTID":621423},"geometry":{"x":169844.55999999959,"y":2550114.8900000043}},{"attributes":{"ID":621451,"DIS_CODE":0,"TOWNNAME":"安南區","LI":"安順里","LIN":"13鄰","STREET":"總安街","SECT":"一段","MAREA":" ","LANE":" ","ALLEY":" ","HOUSE_NO":"１２５號","E_COORD97":169662.85000000001,"N_COORD97":2550143.6499999999,"ADDRESS":"總安街一段１２５號","OBJECTID":621424},"geometry":{"x":169662.84999999963,"y":2550143.6500000022}},{"attributes":{"ID":621452,"DIS_CODE":0,"TOWNNAME":"安南區","LI":"安順里","LIN":" ","STREET":"北安路","SECT":"三段","MAREA":" ","LANE":" ","ALLEY":" ","HOUSE_NO":"６１６號","E_COORD97":169411.82999999999,"N_COORD97":2550263.8700000001,"ADDRESS":"北安路三段６１６號","OBJECTID":621425},"geometry":{"x":169411.83000000101,"y":2550263.870000001}},{"attributes":{"ID":621453,"DIS_CODE":0,"TOWNNAME":"安南區","LI":"安順里","LIN":" ","STREET":"北安路","SECT":"三段","MAREA":" ","LANE":" ","ALLEY":" ","HOUSE_NO":"６１８號之２","E_COORD97":169411.03,"N_COORD97":2550274.8900000001,"ADDRESS":"北安路三段６１８號之２","OBJECTID":621426},"geometry":{"x":169411.03000000026,"y":2550274.8900000025}},{"attributes":{"ID":621454,"DIS_CODE":0,"TOWNNAME":"安南區","LI":"安順里","LIN":" ","STREET":"北安路","SECT":"三段","MAREA":" ","LANE":" ","ALLEY":" ","HOUSE_NO":"６１８號之３","E_COORD97":169411.03,"N_COORD97":2550279.8399999999,"ADDRESS":"北安路三段６１８號之３","OBJECTID":621427},"geometry":{"x":169411.03000000026,"y":2550279.8399999999}},{"attributes":{"ID":621455,"DIS_CODE":0,"TOWNNAME":"安南區","LI":"安順里","LIN":" ","STREET":"北安路","SECT":"三段","MAREA":" ","LANE":" ","ALLEY":" ","HOUSE_NO":"６１８號之５","E_COORD97":169410.87,"N_COORD97":2550284.9500000002,"ADDRESS":"北安路三段６１８號之５","OBJECTID":621428},"geometry":{"x":169410.87000000011,"y":2550284.9499999993}},{"attributes":{"ID":621456,"DIS_CODE":0,"TOWNNAME":"安南區","LI":"安順里","LIN":" ","STREET":"北安路","SECT":"三段","MAREA":" ","LANE":" ","ALLEY":" ","HOUSE_NO":"６１８號之６","E_COORD97":169411.03,"N_COORD97":2550288.9399999999,"ADDRESS":"北安路三段６１８號之６","OBJECTID":621429},"geometry":{"x":169411.03000000026,"y":2550288.9399999995}},{"attributes":{"ID":621457,"DIS_CODE":0,"TOWNNAME":"安南區","LI":"安順里","LIN":" ","STREET":"北安路","SECT":"三段","MAREA":" ","LANE":" ","ALLEY":" ","HOUSE_NO":"６２８號之１","E_COORD97":169467.89999999999,"N_COORD97":2550312.6400000001,"ADDRESS":"北安路三段６２８號之１","OBJECTID":621430},"geometry":{"x":169467.9000000013,"y":2550312.6400000006}},{"attributes":{"ID":621458,"DIS_CODE":0,"TOWNNAME":"安南區","LI":"安順里","LIN":" ","STREET":"北安路","SECT":"三段","MAREA":" ","LANE":" ","ALLEY":" ","HOUSE_NO":"６２８號之２","E_COORD97":169467.73999999999,"N_COORD97":2550320.1499999999,"ADDRESS":"北安路三段６２８號之２","OBJECTID":621431},"geometry":{"x":169467.74000000022,"y":2550320.1500000022}},{"attributes":{"ID":621459,"DIS_CODE":0,"TOWNNAME":"安南區","LI":"安順里","LIN":" ","STREET":"北安路","SECT":"三段","MAREA":" ","LANE":" ","ALLEY":" ","HOUSE_NO":"６２８號之３","E_COORD97":169467.73999999999,"N_COORD97":2550326.8500000001,"ADDRESS":"北安路三段６２８號之３","OBJECTID":621432},"geometry":{"x":169467.74000000022,"y":2550326.8499999996}},{"attributes":{"ID":621460,"DIS_CODE":0,"TOWNNAME":"安南區","LI":"安順里","LIN":"8鄰","STREET":"安和路","SECT":"四段","MAREA":" ","LANE":" ","ALLEY":" ","HOUSE_NO":"５３號","E_COORD97":169934.98999999999,"N_COORD97":2550235.3100000001,"ADDRESS":"安和路四段５３號","OBJECTID":621433},"geometry":{"x":169934.99000000115,"y":2550235.3100000024}},{"attributes":{"ID":621461,"DIS_CODE":0,"TOWNNAME":"安南區","LI":"安順里","LIN":"8鄰","STREET":"安和路","SECT":"四段","MAREA":" ","LANE":" ","ALLEY":" ","HOUSE_NO":"５５號","E_COORD97":169934.07999999999,"N_COORD97":2550239.4100000001,"ADDRESS":"安和路四段５５號","OBJECTID":621434},"geometry":{"x":169934.08000000101,"y":2550239.4099999983}},{"attributes":{"ID":621462,"DIS_CODE":0,"TOWNNAME":"安南區","LI":"州北里","LIN":" ","STREET":"安和路","SECT":"六段","MAREA":" ","LANE":" ","ALLEY":" ","HOUSE_NO":"６１號之１１","E_COORD97":169517.13,"N_COORD97":2552487.1000000001,"ADDRESS":"安和路六段６１號之１１","OBJECTID":621435},"geometry":{"x":169517.12999999989,"y":2552487.1000000015}},{"attributes":{"ID":621463,"DIS_CODE":0,"TOWNNAME":"安南區","LI":"州北里","LIN":" ","STREET":"安和路","SECT":"六段","MAREA":" ","LANE":" ","ALLEY":" ","HOUSE_NO":"４９號","E_COORD97":169554.04999999999,"N_COORD97":2552421.4700000002,"ADDRESS":"安和路六段４９號","OBJECTID":621436},"geometry":{"x":169554.05000000075,"y":2552421.4700000007}},{"attributes":{"ID":621464,"DIS_CODE":0,"TOWNNAME":"安南區","LI":"州北里","LIN":" ","STREET":"安和路","SECT":"六段","MAREA":" ","LANE":" ","ALLEY":" ","HOUSE_NO":"４９號之１","E_COORD97":169552.44,"N_COORD97":2552424.8999999999,"ADDRESS":"安和路六段４９號之１","OBJECTID":621437},"geometry":{"x":169552.44000000134,"y":2552424.9000000022}},{"attributes":{"ID":621465,"DIS_CODE":0,"TOWNNAME":"安南區","LI":"州南里","LIN":" ","STREET":"安和路","SECT":"四段","MAREA":" ","LANE":" ","ALLEY":" ","HOUSE_NO":"２７８號","E_COORD97":169952.06,"N_COORD97":2550775.5,"ADDRESS":"安和路四段２７８號","OBJECTID":621438},"geometry":{"x":169952.06000000052,"y":2550775.5000000019}},{"attributes":{"ID":621466,"DIS_CODE":0,"TOWNNAME":"安南區","LI":"州南里","LIN":"13鄰","STREET":"安和路","SECT":"五段","MAREA":" ","LANE":" ","ALLEY":" ","HOUSE_NO":"５８號","E_COORD97":169968.60000000001,"N_COORD97":2551637.5,"ADDRESS":"安和路五段５８號","OBJECTID":621439},"geometry":{"x":169968.60000000056,"y":2551637.5}},{"attributes":{"ID":621467,"DIS_CODE":0,"TOWNNAME":"安南區","LI":"州南里","LIN":" ","STREET":"安和路","SECT":"四段","MAREA":" ","LANE":" ","ALLEY":" ","HOUSE_NO":"３３４號","E_COORD97":169951.04999999999,"N_COORD97":2550902.6299999999,"ADDRESS":"安和路四段３３４號","OBJECTID":621440},"geometry":{"x":169951.05000000075,"y":2550902.6300000008}},{"attributes":{"ID":621468,"DIS_CODE":0,"TOWNNAME":"安南區","LI":"州南里","LIN":" ","STREET":"安和路","SECT":"四段","MAREA":" ","LANE":" ","ALLEY":" ","HOUSE_NO":"３２１號","E_COORD97":169904.70999999999,"N_COORD97":2550879.1600000001,"ADDRESS":"安和路四段３２１號","OBJECTID":621441},"geometry":{"x":169904.70999999996,"y":2550879.160000002}},{"attributes":{"ID":621469,"DIS_CODE":0,"TOWNNAME":"安南區","LI":"州南里","LIN":" ","STREET":"安和路","SECT":"四段","MAREA":" ","LANE":" ","ALLEY":" ","HOUSE_NO":"４８５號","E_COORD97":169917.35999999999,"N_COORD97":2551221.3799999999,"ADDRESS":"安和路四段４８５號","OBJECTID":621442},"geometry":{"x":169917.36000000127,"y":2551221.379999999}},{"attributes":{"ID":621470,"DIS_CODE":0,"TOWNNAME":"安南區","LI":"州南里","LIN":" ","STREET":"安和路","SECT":"四段","MAREA":" ","LANE":" ","ALLEY":" ","HOUSE_NO":"５０８號","E_COORD97":169960.19,"N_COORD97":2551266.6800000002,"ADDRESS":"安和路四段５０８號","OBJECTID":621443},"geometry":{"x":169960.19000000227,"y":2551266.6799999997}},{"attributes":{"ID":621471,"DIS_CODE":0,"TOWNNAME":"安南區","LI":"州南里","LIN":" ","STREET":"安和路","SECT":"四段","MAREA":" ","LANE":" ","ALLEY":" ","HOUSE_NO":"４７０號","E_COORD97":169959.98999999999,"N_COORD97":2551232.9100000001,"ADDRESS":"安和路四段４７０號","OBJECTID":621444},"geometry":{"x":169959.99000000115,"y":2551232.9100000039}},{"attributes":{"ID":621472,"DIS_CODE":0,"TOWNNAME":"安南區","LI":"州南里","LIN":" ","STREET":"安和路","SECT":"四段","MAREA":" ","LANE":" ","ALLEY":" ","HOUSE_NO":"４４６號","E_COORD97":169965.14999999999,"N_COORD97":2551144.8399999999,"ADDRESS":"安和路四段４４６號","OBJECTID":621445},"geometry":{"x":169965.15000000037,"y":2551144.8400000036}},{"attributes":{"ID":621473,"DIS_CODE":0,"TOWNNAME":"安南區","LI":"州南里","LIN":"17鄰","STREET":"安和路","SECT":"四段","MAREA":" ","LANE":" ","ALLEY":" ","HOUSE_NO":"３５７號","E_COORD97":169914.59,"N_COORD97":2550970.9399999999,"ADDRESS":"安和路四段３５７號","OBJECTID":621446},"geometry":{"x":169914.59000000171,"y":2550970.9400000032}},{"attributes":{"ID":621474,"DIS_CODE":0,"TOWNNAME":"安南區","LI":"州南里","LIN":"17鄰","STREET":"安和路","SECT":"四段","MAREA":" ","LANE":" ","ALLEY":" ","HOUSE_NO":"４１９號","E_COORD97":169916.20999999999,"N_COORD97":2551079.27,"ADDRESS":"安和路四段４１９號","OBJECTID":621447},"geometry":{"x":169916.21000000089,"y":2551079.2699999996}},{"attributes":{"ID":621475,"DIS_CODE":0,"TOWNNAME":"安南區","LI":"州南里","LIN":"4鄰","STREET":"安和路","SECT":"四段","MAREA":" ","LANE":" ","ALLEY":" ","HOUSE_NO":"５６０號","E_COORD97":169956.64000000001,"N_COORD97":2551376.1099999999,"ADDRESS":"安和路四段５６０號","OBJECTID":621448},"geometry":{"x":169956.6400000006,"y":2551376.1099999994}},{"attributes":{"ID":621476,"DIS_CODE":0,"TOWNNAME":"安南區","LI":"州南里","LIN":"4鄰","STREET":"安和路","SECT":"四段","MAREA":" ","LANE":" ","ALLEY":" ","HOUSE_NO":"５５７號","E_COORD97":169924.64000000001,"N_COORD97":2551340.9199999999,"ADDRESS":"安和路四段５５７號","OBJECTID":621449},"geometry":{"x":169924.6400000006,"y":2551340.9199999981}},{"attributes":{"ID":621477,"DIS_CODE":0,"TOWNNAME":"安南區","LI":"州南里","LIN":" ","STREET":"安和路","SECT":"四段","MAREA":" ","LANE":" ","ALLEY":" ","HOUSE_NO":"５５８號","E_COORD97":169960.37,"N_COORD97":2551370.2000000002,"ADDRESS":"安和路四段５５８號","OBJECTID":621450},"geometry":{"x":169960.37000000197,"y":2551370.2000000011}},{"attributes":{"ID":621478,"DIS_CODE":0,"TOWNNAME":"安南區","LI":"州南里","LIN":" ","STREET":"安和路","SECT":"四段","MAREA":" ","LANE":" ","ALLEY":" ","HOUSE_NO":"５５９號","E_COORD97":169915.72,"N_COORD97":2551353.9900000002,"ADDRESS":"安和路四段５５９號","OBJECTID":621451},"geometry":{"x":169915.72000000067,"y":2551353.9900000002}},{"attributes":{"ID":621479,"DIS_CODE":0,"TOWNNAME":"安南區","LI":"長安里","LIN":" ","STREET":"公學路","SECT":"二段","MAREA":" ","LANE":" ","ALLEY":" ","HOUSE_NO":"５６之６號","E_COORD97":167734.92999999999,"N_COORD97":2552451.7599999998,"ADDRESS":"公學路二段５６之６號","OBJECTID":621452},"geometry":{"x":167734.9299999997,"y":2552451.7600000016}},{"attributes":{"ID":621480,"DIS_CODE":0,"TOWNNAME":"安南區","LI":"長安里","LIN":"20鄰","STREET":"長溪路","SECT":"三段","MAREA":" ","LANE":" ","ALLEY":" ","HOUSE_NO":"４００號","E_COORD97":167674.28,"N_COORD97":2552054.7400000002,"ADDRESS":"長溪路三段４００號","OBJECTID":621453},"geometry":{"x":167674.28000000212,"y":2552054.7400000039}},{"attributes":{"ID":621481,"DIS_CODE":0,"TOWNNAME":"安南區","LI":"長安里","LIN":"20鄰","STREET":"長溪路","SECT":"三段","MAREA":" ","LANE":" ","ALLEY":" ","HOUSE_NO":"３８８號","E_COORD97":167683.04000000001,"N_COORD97":2552051.0899999999,"ADDRESS":"長溪路三段３８８號","OBJECTID":621454},"geometry":{"x":167683.04000000097,"y":2552051.0899999999}},{"attributes":{"ID":621482,"DIS_CODE":0,"TOWNNAME":"安南區","LI":"州南里","LIN":" ","STREET":"長和路","SECT":"三段","MAREA":" ","LANE":" ","ALLEY":" ","HOUSE_NO":"１４號","E_COORD97":169903.14000000001,"N_COORD97":2551523.5099999998,"ADDRESS":"長和路三段１４號","OBJECTID":621455},"geometry":{"x":169903.13999999966,"y":2551523.5100000035}},{"attributes":{"ID":621483,"DIS_CODE":0,"TOWNNAME":"安南區","LI":"青草里","LIN":"4鄰","STREET":"青砂街","SECT":"二段","MAREA":" ","LANE":" ","ALLEY":" ","HOUSE_NO":"４７８號","E_COORD97":158724.23000000001,"N_COORD97":2552950.5699999998,"ADDRESS":"青砂街二段４７８號","OBJECTID":621456},"geometry":{"x":158724.23000000231,"y":2552950.5700000003}},{"attributes":{"ID":621484,"DIS_CODE":0,"TOWNNAME":"安南區","LI":"青草里","LIN":" ","STREET":"青砂街","SECT":"二段","MAREA":" ","LANE":" ","ALLEY":" ","HOUSE_NO":"４２２號","E_COORD97":158901.64999999999,"N_COORD97":2552989.0099999998,"ADDRESS":"青砂街二段４２２號","OBJECTID":621457},"geometry":{"x":158901.6500000013,"y":2552989.0100000016}},{"attributes":{"ID":621485,"DIS_CODE":0,"TOWNNAME":"安南區","LI":"南興里","LIN":"4鄰","STREET":"安興街","SECT":" ","MAREA":" ","LANE":" ","ALLEY":" ","HOUSE_NO":"３８８號","E_COORD97":163703.53,"N_COORD97":2552359.4199999999,"ADDRESS":"安興街３８８號","OBJECTID":621458},"geometry":{"x":163703.53000000026,"y":2552359.4200000018}},{"attributes":{"ID":621486,"DIS_CODE":0,"TOWNNAME":"安南區","LI":"南興里","LIN":" ","STREET":"安興街","SECT":" ","MAREA":" ","LANE":" ","ALLEY":" ","HOUSE_NO":"４３７號","E_COORD97":163513.41,"N_COORD97":2552315.5899999999,"ADDRESS":"安興街４３７號","OBJECTID":621459},"geometry":{"x":163513.41000000201,"y":2552315.5899999999}},{"attributes":{"ID":621487,"DIS_CODE":0,"TOWNNAME":"永康區","LI":"\u25A0洲里","LIN":"26鄰","STREET":"洲尾街","SECT":" ","MAREA":" ","LANE":" ","ALLEY":" ","HOUSE_NO":"１９７號","E_COORD97":170901.70000000001,"N_COORD97":2548989.3500000001,"ADDRESS":"洲尾街１９７號","OBJECTID":621460},"geometry":{"x":170901.70000000019,"y":2548989.3500000015}},{"attributes":{"ID":621488,"DIS_CODE":0,"TOWNNAME":"安南區","LI":"南興里","LIN":" ","STREET":"公學路","SECT":"五段","MAREA":" ","LANE":" ","ALLEY":" ","HOUSE_NO":"６３６號","E_COORD97":164036.51000000001,"N_COORD97":2552715.3399999999,"ADDRESS":"公學路五段６３６號","OBJECTID":621461},"geometry":{"x":164036.51000000071,"y":2552715.3400000017}},{"attributes":{"ID":621489,"DIS_CODE":0,"TOWNNAME":"安南區","LI":"南興里","LIN":" ","STREET":"安中路","SECT":"五段","MAREA":" ","LANE":" ","ALLEY":" ","HOUSE_NO":"４１８號","E_COORD97":162456.72,"N_COORD97":2551172.1000000001,"ADDRESS":"安中路五段４１８號","OBJECTID":621462},"geometry":{"x":162456.72000000067,"y":2551172.0999999996}},{"attributes":{"ID":621490,"DIS_CODE":0,"TOWNNAME":"安南區","LI":"城中里","LIN":"8鄰","STREET":"青砂街","SECT":"一段","MAREA":" ","LANE":" ","ALLEY":" ","HOUSE_NO":"３０號之２","E_COORD97":160693.32757699999,"N_COORD97":2551498.6646799999,"ADDRESS":"青砂街一段３０號之２","OBJECTID":621463},"geometry":{"x":160693.32757699955,"y":2551498.6646829993}},{"attributes":{"ID":621491,"DIS_CODE":0,"TOWNNAME":"安南區","LI":"城北里","LIN":" ","STREET":"安明路","SECT":"四段","MAREA":" ","LANE":" ","ALLEY":" ","HOUSE_NO":"２號","E_COORD97":161276.73000000001,"N_COORD97":2551326.6299999999,"ADDRESS":"安明路四段２號","OBJECTID":621464},"geometry":{"x":161276.73000000045,"y":2551326.6300000008}},{"attributes":{"ID":621492,"DIS_CODE":0,"TOWNNAME":"安南區","LI":"城中里","LIN":"8鄰","STREET":"青砂街","SECT":"一段","MAREA":" ","LANE":" ","ALLEY":" ","HOUSE_NO":"９０號","E_COORD97":160668.48000000001,"N_COORD97":2551550.6200000001,"ADDRESS":"青砂街一段９０號","OBJECTID":621465},"geometry":{"x":160668.48000000045,"y":2551550.620000001}},{"attributes":{"ID":621493,"DIS_CODE":0,"TOWNNAME":"安南區","LI":"城中里","LIN":"8鄰","STREET":"青砂街","SECT":"一段","MAREA":" ","LANE":" ","ALLEY":" ","HOUSE_NO":"７０號","E_COORD97":160674.91,"N_COORD97":2551535.52,"ADDRESS":"青砂街一段７０號","OBJECTID":621466},"geometry":{"x":160674.91000000015,"y":2551535.5199999996}},{"attributes":{"ID":621494,"DIS_CODE":0,"TOWNNAME":"安南區","LI":"城中里","LIN":"8鄰","STREET":"城西街","SECT":"一段","MAREA":" ","LANE":" ","ALLEY":" ","HOUSE_NO":"４０號","E_COORD97":160757.39999999999,"N_COORD97":2551458.0699999998,"ADDRESS":"城西街一段４０號","OBJECTID":621467},"geometry":{"x":160757.4000000013,"y":2551458.0700000003}},{"attributes":{"ID":621495,"DIS_CODE":0,"TOWNNAME":"安南區","LI":"城中里","LIN":"8鄰","STREET":"城西街","SECT":"一段","MAREA":" ","LANE":" ","ALLEY":" ","HOUSE_NO":"３１號","E_COORD97":160765.09,"N_COORD97":2551414.4100000001,"ADDRESS":"城西街一段３１號","OBJECTID":621468},"geometry":{"x":160765.08999999985,"y":2551414.4100000001}},{"attributes":{"ID":621496,"DIS_CODE":0,"TOWNNAME":"安南區","LI":"城中里","LIN":"8鄰","STREET":"城西街","SECT":"一段","MAREA":" ","LANE":" ","ALLEY":" ","HOUSE_NO":"４１號","E_COORD97":160745.31,"N_COORD97":2551412.2200000002,"ADDRESS":"城西街一段４１號","OBJECTID":621469},"geometry":{"x":160745.31000000052,"y":2551412.2200000025}},{"attributes":{"ID":621497,"DIS_CODE":0,"TOWNNAME":"安南區","LI":"城中里","LIN":"8鄰","STREET":"城西街","SECT":"一段","MAREA":" ","LANE":" ","ALLEY":" ","HOUSE_NO":"４５號","E_COORD97":160737.29000000001,"N_COORD97":2551411.4399999999,"ADDRESS":"城西街一段４５號","OBJECTID":621470},"geometry":{"x":160737.2900000019,"y":2551411.4399999995}},{"attributes":{"ID":621498,"DIS_CODE":0,"TOWNNAME":"安南區","LI":"城北里","LIN":"7鄰","STREET":"安中路","SECT":"六段","MAREA":" ","LANE":" ","ALLEY":" ","HOUSE_NO":"２１８之１號","E_COORD97":161569.32999999999,"N_COORD97":2551309.7400000002,"ADDRESS":"安中路六段２１８之１號","OBJECTID":621471},"geometry":{"x":161569.33000000194,"y":2551309.7400000021}},{"attributes":{"ID":621499,"DIS_CODE":0,"TOWNNAME":"安南區","LI":"城北里","LIN":" ","STREET":"安明路","SECT":"四段","MAREA":" ","LANE":" ","ALLEY":" ","HOUSE_NO":"６７２之２號","E_COORD97":161275.60000000001,"N_COORD97":2551407.8999999999,"ADDRESS":"安明路四段６７２之２號","OBJECTID":621472},"geometry":{"x":161275.60000000149,"y":2551407.9000000004}},{"attributes":{"ID":621500,"DIS_CODE":0,"TOWNNAME":"安南區","LI":"城北里","LIN":" ","STREET":"安明路","SECT":"四段","MAREA":" ","LANE":" ","ALLEY":" ","HOUSE_NO":"６７０號","E_COORD97":161278.26999999999,"N_COORD97":2551470.6000000001,"ADDRESS":"安明路四段６７０號","OBJECTID":621473},"geometry":{"x":161278.27000000048,"y":2551470.5999999996}},{"attributes":{"ID":621501,"DIS_CODE":0,"TOWNNAME":"安南區","LI":"城北里","LIN":" ","STREET":"安明路","SECT":"四段","MAREA":" ","LANE":" ","ALLEY":" ","HOUSE_NO":"６７２之１號","E_COORD97":161279.79000000001,"N_COORD97":2551486.5499999998,"ADDRESS":"安明路四段６７２之１號","OBJECTID":621474},"geometry":{"x":161279.7900000019,"y":2551486.5500000007}},{"attributes":{"ID":621502,"DIS_CODE":0,"TOWNNAME":"安南區","LI":"城北里","LIN":" ","STREET":"城北路","SECT":" ","MAREA":" ","LANE":" ","ALLEY":" ","HOUSE_NO":"１８號","E_COORD97":160879.54999999999,"N_COORD97":2551488.6699999999,"ADDRESS":"城北路１８號","OBJECTID":621475},"geometry":{"x":160879.55000000075,"y":2551488.6700000037}},{"attributes":{"ID":621503,"DIS_CODE":0,"TOWNNAME":"安南區","LI":"城北里","LIN":" ","STREET":"城北路","SECT":" ","MAREA":" ","LANE":" ","ALLEY":" ","HOUSE_NO":"１３號","E_COORD97":160848.67999999999,"N_COORD97":2551503.5600000001,"ADDRESS":"城北路１３號","OBJECTID":621476},"geometry":{"x":160848.68000000063,"y":2551503.5600000042}},{"attributes":{"ID":621504,"DIS_CODE":0,"TOWNNAME":"安南區","LI":"城北里","LIN":"8鄰","STREET":"安中路","SECT":"六段","MAREA":" ","LANE":" ","ALLEY":" ","HOUSE_NO":"３０１之１號","E_COORD97":161267.67000000001,"N_COORD97":2551288.7799999998,"ADDRESS":"安中路六段３０１之１號","OBJECTID":621477},"geometry":{"x":161267.67000000086,"y":2551288.7800000012}},{"attributes":{"ID":621505,"DIS_CODE":0,"TOWNNAME":"安南區","LI":"城北里","LIN":"8鄰","STREET":"安中路","SECT":"六段","MAREA":" ","LANE":" ","ALLEY":" ","HOUSE_NO":"２１３號之１１","E_COORD97":161463.85000000001,"N_COORD97":2551276.0800000001,"ADDRESS":"安中路六段２１３號之１１","OBJECTID":621478},"geometry":{"x":161463.85000000056,"y":2551276.0800000019}},{"attributes":{"ID":621506,"DIS_CODE":0,"TOWNNAME":"安南區","LI":"城北里","LIN":" ","STREET":"安中路","SECT":"六段","MAREA":" ","LANE":" ","ALLEY":" ","HOUSE_NO":"６５０號","E_COORD97":160750.51000000001,"N_COORD97":2551635.21,"ADDRESS":"安中路六段６５０號","OBJECTID":621479},"geometry":{"x":160750.50999999978,"y":2551635.2100000046}},{"attributes":{"ID":621507,"DIS_CODE":0,"TOWNNAME":"安南區","LI":"城北里","LIN":" ","STREET":"安中路","SECT":"六段","MAREA":" ","LANE":" ","ALLEY":" ","HOUSE_NO":"６４６號","E_COORD97":160754.57000000001,"N_COORD97":2551627.8799999999,"ADDRESS":"安中路六段６４６號","OBJECTID":621480},"geometry":{"x":160754.57000000123,"y":2551627.879999999}},{"attributes":{"ID":621508,"DIS_CODE":0,"TOWNNAME":"安南區","LI":"城北里","LIN":" ","STREET":"安中路","SECT":"六段","MAREA":" ","LANE":" ","ALLEY":" ","HOUSE_NO":"６４８號","E_COORD97":160752.79000000001,"N_COORD97":2551631.4199999999,"ADDRESS":"安中路六段６４８號","OBJECTID":621481},"geometry":{"x":160752.79000000097,"y":2551631.4199999999}},{"attributes":{"ID":621509,"DIS_CODE":0,"TOWNNAME":"安南區","LI":"城西里","LIN":"4鄰","STREET":"城西街","SECT":"三段","MAREA":" ","LANE":" ","ALLEY":" ","HOUSE_NO":"９７５號","E_COORD97":155876.89294699999,"N_COORD97":2550696.32748,"ADDRESS":"城西街三段９７５號","OBJECTID":621482},"geometry":{"x":155876.89294700045,"y":2550696.327482}},{"attributes":{"ID":621510,"DIS_CODE":0,"TOWNNAME":"安南區","LI":"城西里","LIN":" ","STREET":"城西街","SECT":"三段","MAREA":" ","LANE":" ","ALLEY":" ","HOUSE_NO":"５４１號","E_COORD97":157048.51000000001,"N_COORD97":2550802.21,"ADDRESS":"城西街三段５４１號","OBJECTID":621483},"geometry":{"x":157048.51000000164,"y":2550802.2100000028}},{"attributes":{"ID":621511,"DIS_CODE":0,"TOWNNAME":"安南區","LI":"長安里","LIN":"11鄰","STREET":"長和路","SECT":"四段","MAREA":" ","LANE":" ","ALLEY":" ","HOUSE_NO":"４３５號","E_COORD97":167846.73999999999,"N_COORD97":2551919.27,"ADDRESS":"長和路四段４３５號","OBJECTID":621484},"geometry":{"x":167846.74000000022,"y":2551919.2700000014}},{"attributes":{"ID":621512,"DIS_CODE":0,"TOWNNAME":"安南區","LI":"青草里","LIN":"3鄰","STREET":"青砂街","SECT":"二段","MAREA":" ","LANE":"３７２巷","ALLEY":" ","HOUSE_NO":"１６７號","E_COORD97":158843.64999999999,"N_COORD97":2553099.5899999999,"ADDRESS":"青砂街二段３７２巷１６７號","OBJECTID":621485},"geometry":{"x":158843.6500000013,"y":2553099.5900000036}},{"attributes":{"ID":621513,"DIS_CODE":0,"TOWNNAME":"安南區","LI":"城西里","LIN":"5鄰","STREET":"城西街","SECT":"三段","MAREA":" ","LANE":" ","ALLEY":" ","HOUSE_NO":"５１８號","E_COORD97":157118.32999999999,"N_COORD97":2550856.8999999999,"ADDRESS":"城西街三段５１８號","OBJECTID":621486},"geometry":{"x":157118.33000000101,"y":2550856.9000000041}},{"attributes":{"ID":621514,"DIS_CODE":0,"TOWNNAME":"安南區","LI":"城東里","LIN":"13鄰","STREET":"城安一街","SECT":" ","MAREA":" ","LANE":" ","ALLEY":" ","HOUSE_NO":"６１號","E_COORD97":160670.12,"N_COORD97":2551838.1499999999,"ADDRESS":"城安一街６１號","OBJECTID":621487},"geometry":{"x":160670.12000000011,"y":2551838.1500000004}},{"attributes":{"ID":621515,"DIS_CODE":0,"TOWNNAME":"安南區","LI":"城南里","LIN":" ","STREET":"青砂街","SECT":"一段","MAREA":" ","LANE":" ","ALLEY":" ","HOUSE_NO":"８７號","E_COORD97":160579.92000000001,"N_COORD97":2551651.98,"ADDRESS":"青砂街一段８７號","OBJECTID":621488},"geometry":{"x":160579.91999999993,"y":2551651.9800000004}},{"attributes":{"ID":621516,"DIS_CODE":0,"TOWNNAME":"安南區","LI":"城南里","LIN":" ","STREET":"青砂街","SECT":"一段","MAREA":" ","LANE":" ","ALLEY":" ","HOUSE_NO":"１４９號","E_COORD97":160490.14000000001,"N_COORD97":2551794.6899999999,"ADDRESS":"青砂街一段１４９號","OBJECTID":621489},"geometry":{"x":160490.13999999966,"y":2551794.6900000013}},{"attributes":{"ID":621517,"DIS_CODE":0,"TOWNNAME":"安南區","LI":"城南里","LIN":" ","STREET":"青砂街","SECT":"一段","MAREA":" ","LANE":" ","ALLEY":" ","HOUSE_NO":"１０５號","E_COORD97":160558.79000000001,"N_COORD97":2551690.21,"ADDRESS":"青砂街一段１０５號","OBJECTID":621490},"geometry":{"x":160558.79000000004,"y":2551690.2100000028}},{"attributes":{"ID":621518,"DIS_CODE":0,"TOWNNAME":"安南區","LI":"城南里","LIN":" ","STREET":"城西街","SECT":"一段","MAREA":" ","LANE":" ","ALLEY":" ","HOUSE_NO":"１０３號","E_COORD97":160631.85999999999,"N_COORD97":2551368.6400000001,"ADDRESS":"城西街一段１０３號","OBJECTID":621491},"geometry":{"x":160631.86000000034,"y":2551368.6400000025}},{"attributes":{"ID":621519,"DIS_CODE":0,"TOWNNAME":"安南區","LI":"城南里","LIN":" ","STREET":"城西街","SECT":"一段","MAREA":" ","LANE":" ","ALLEY":" ","HOUSE_NO":"１６９號","E_COORD97":160530.32000000001,"N_COORD97":2551279.5499999998,"ADDRESS":"城西街一段１６９號","OBJECTID":621492},"geometry":{"x":160530.3200000003,"y":2551279.5500000007}},{"attributes":{"ID":621520,"DIS_CODE":0,"TOWNNAME":"安南區","LI":"城南里","LIN":" ","STREET":"城西街","SECT":"一段","MAREA":" ","LANE":" ","ALLEY":" ","HOUSE_NO":"２１３號","E_COORD97":160442.76999999999,"N_COORD97":2551223.5299999998,"ADDRESS":"城西街一段２１３號","OBJECTID":621493},"geometry":{"x":160442.77000000048,"y":2551223.5299999993}},{"attributes":{"ID":621521,"DIS_CODE":0,"TOWNNAME":"安南區","LI":"城南里","LIN":" ","STREET":"城西街","SECT":"一段","MAREA":" ","LANE":" ","ALLEY":" ","HOUSE_NO":"１９６號","E_COORD97":160460.92000000001,"N_COORD97":2551270.7200000002,"ADDRESS":"城西街一段１９６號","OBJECTID":621494},"geometry":{"x":160460.91999999993,"y":2551270.7200000007}},{"attributes":{"ID":621522,"DIS_CODE":0,"TOWNNAME":"安南區","LI":"城南里","LIN":" ","STREET":"城西街","SECT":"一段","MAREA":" ","LANE":" ","ALLEY":" ","HOUSE_NO":"２２０號","E_COORD97":160408.53,"N_COORD97":2551245.5899999999,"ADDRESS":"城西街一段２２０號","OBJECTID":621495},"geometry":{"x":160408.53000000026,"y":2551245.5900000017}},{"attributes":{"ID":621523,"DIS_CODE":0,"TOWNNAME":"安南區","LI":"城東里","LIN":"13鄰","STREET":"城北路","SECT":" ","MAREA":" ","LANE":" ","ALLEY":" ","HOUSE_NO":"１７９號","E_COORD97":160970.5,"N_COORD97":2551790.8599999999,"ADDRESS":"城北路１７９號","OBJECTID":621496},"geometry":{"x":160970.50000000093,"y":2551790.8599999994}},{"attributes":{"ID":621524,"DIS_CODE":0,"TOWNNAME":"安南區","LI":"城南里","LIN":" ","STREET":"青砂街","SECT":"一段","MAREA":" ","LANE":" ","ALLEY":" ","HOUSE_NO":"１７１號","E_COORD97":160457.57000000001,"N_COORD97":2551872.0099999998,"ADDRESS":"青砂街一段１７１號","OBJECTID":621497},"geometry":{"x":160457.56999999937,"y":2551872.0099999998}},{"attributes":{"ID":621525,"DIS_CODE":0,"TOWNNAME":"安南區","LI":"城南里","LIN":" ","STREET":"城西街","SECT":"一段","MAREA":" ","LANE":" ","ALLEY":" ","HOUSE_NO":"７８號","E_COORD97":160685.01000000001,"N_COORD97":2551419.4199999999,"ADDRESS":"城西街一段７８號","OBJECTID":621498},"geometry":{"x":160685.01000000071,"y":2551419.4200000018}},{"attributes":{"ID":621526,"DIS_CODE":0,"TOWNNAME":"安南區","LI":"城南里","LIN":" ","STREET":"城西街","SECT":"一段","MAREA":" ","LANE":" ","ALLEY":" ","HOUSE_NO":"８０號","E_COORD97":160682.79000000001,"N_COORD97":2551417.2000000002,"ADDRESS":"城西街一段８０號","OBJECTID":621499},"geometry":{"x":160682.79000000004,"y":2551417.2000000011}},{"attributes":{"ID":621527,"DIS_CODE":0,"TOWNNAME":"安南區","LI":"城南里","LIN":" ","STREET":"城西街","SECT":"一段","MAREA":" ","LANE":" ","ALLEY":" ","HOUSE_NO":"２５５號","E_COORD97":160348.07000000001,"N_COORD97":2551171.3799999999,"ADDRESS":"城西街一段２５５號","OBJECTID":621500},"geometry":{"x":160348.07000000123,"y":2551171.3800000008}},{"attributes":{"ID":621528,"DIS_CODE":0,"TOWNNAME":"安南區","LI":"頂安里","LIN":"13鄰","STREET":"安中路","SECT":"一段","MAREA":" ","LANE":" ","ALLEY":" ","HOUSE_NO":"３７０號","E_COORD97":168409.76999999999,"N_COORD97":2548746.5600000001,"ADDRESS":"安中路一段３７０號","OBJECTID":621501},"geometry":{"x":168409.77000000048,"y":2548746.5600000005}},{"attributes":{"ID":621529,"DIS_CODE":0,"TOWNNAME":"安南區","LI":"州北里","LIN":"13鄰","STREET":"安和路","SECT":"五段","MAREA":" ","LANE":" ","ALLEY":" ","HOUSE_NO":"１１１號之１","E_COORD97":169876.63,"N_COORD97":2551725.1299999999,"ADDRESS":"安和路五段１１１號之１","OBJECTID":621502},"geometry":{"x":169876.62999999989,"y":2551725.1300000027}},{"attributes":{"ID":621530,"DIS_CODE":0,"TOWNNAME":"安南區","LI":"安慶里","LIN":"13鄰","STREET":"安和路","SECT":"二段","MAREA":" ","LANE":" ","ALLEY":" ","HOUSE_NO":"５５號","E_COORD97":169433.25,"N_COORD97":2548630.0499999998,"ADDRESS":"安和路二段５５號","OBJECTID":621503},"geometry":{"x":169433.25,"y":2548630.0500000026}},{"attributes":{"ID":621531,"DIS_CODE":0,"TOWNNAME":"安南區","LI":"淵中里","LIN":"4鄰","STREET":"安中路","SECT":"四段","MAREA":" ","LANE":" ","ALLEY":" ","HOUSE_NO":"５６號","E_COORD97":165202.03,"N_COORD97":2550066.0299999998,"ADDRESS":"安中路四段５６號","OBJECTID":621504},"geometry":{"x":165202.03000000026,"y":2550066.0300000012}},{"attributes":{"ID":621532,"DIS_CODE":0,"TOWNNAME":"安南區","LI":"城北里","LIN":"9鄰","STREET":"安中路","SECT":"六段","MAREA":" ","LANE":" ","ALLEY":" ","HOUSE_NO":"６２６號","E_COORD97":160767.75,"N_COORD97":2551602.3199999998,"ADDRESS":"安中路六段６２６號","OBJECTID":621505},"geometry":{"x":160767.75,"y":2551602.3200000003}},{"attributes":{"ID":621533,"DIS_CODE":0,"TOWNNAME":"安南區","LI":"州北里","LIN":"23鄰","STREET":"安和路","SECT":"五段","MAREA":" ","LANE":" ","ALLEY":" ","HOUSE_NO":"２３５號","E_COORD97":169759.98000000001,"N_COORD97":2551949.5499999998,"ADDRESS":"安和路五段２３５號","OBJECTID":621506},"geometry":{"x":169759.98000000231,"y":2551949.5500000026}},{"attributes":{"ID":621534,"DIS_CODE":0,"TOWNNAME":"安南區","LI":"總頭里","LIN":"2鄰","STREET":"總安街","SECT":"二段","MAREA":" ","LANE":" ","ALLEY":" ","HOUSE_NO":"３２２號","E_COORD97":168405.07000000001,"N_COORD97":2550504.3300000001,"ADDRESS":"總安街二段３２２號","OBJECTID":621507},"geometry":{"x":168405.07000000123,"y":2550504.3299999982}},{"attributes":{"ID":621535,"DIS_CODE":0,"TOWNNAME":"安南區","LI":"總頭里","LIN":"2鄰","STREET":"總安街","SECT":"二段","MAREA":" ","LANE":" ","ALLEY":" ","HOUSE_NO":"３２６號","E_COORD97":168393.60999999999,"N_COORD97":2550510.0499999998,"ADDRESS":"總安街二段３２６號","OBJECTID":621508},"geometry":{"x":168393.61000000034,"y":2550510.0500000007}},{"attributes":{"ID":621536,"DIS_CODE":0,"TOWNNAME":"安南區","LI":"總頭里","LIN":"2鄰","STREET":"總安街","SECT":"二段","MAREA":" ","LANE":" ","ALLEY":" ","HOUSE_NO":"３２６之１號","E_COORD97":168388.51000000001,"N_COORD97":2550510.3700000001,"ADDRESS":"總安街二段３２６之１號","OBJECTID":621509},"geometry":{"x":168388.50999999978,"y":2550510.370000001}},{"attributes":{"ID":621537,"DIS_CODE":0,"TOWNNAME":"安南區","LI":"佃東里","LIN":"14鄰","STREET":"公學路","SECT":"二段","MAREA":" ","LANE":" ","ALLEY":" ","HOUSE_NO":"２７７號之１５５","E_COORD97":167055.64000000001,"N_COORD97":2552059.7000000002,"ADDRESS":"公學路二段２７７號之１５５","OBJECTID":621510},"geometry":{"x":167055.63999999966,"y":2552059.6999999993}},{"attributes":{"ID":621538,"DIS_CODE":0,"TOWNNAME":"安南區","LI":"淵中里","LIN":"17鄰","STREET":"樂安一街","SECT":" ","MAREA":" ","LANE":" ","ALLEY":" ","HOUSE_NO":"１６０號之２０","E_COORD97":165700.84,"N_COORD97":2549832.1800000002,"ADDRESS":"樂安一街１６０號之２０","OBJECTID":621511},"geometry":{"x":165700.84000000078,"y":2549832.1799999997}},{"attributes":{"ID":621539,"DIS_CODE":0,"TOWNNAME":"安南區","LI":"淵中里","LIN":"1鄰","STREET":"樂安一街","SECT":" ","MAREA":" ","LANE":" ","ALLEY":" ","HOUSE_NO":"２１３號","E_COORD97":165581.75,"N_COORD97":2549840.8500000001,"ADDRESS":"樂安一街２１３號","OBJECTID":621512},"geometry":{"x":165581.75,"y":2549840.8500000015}},{"attributes":{"ID":621540,"DIS_CODE":0,"TOWNNAME":"安南區","LI":"淵中里","LIN":"1鄰","STREET":"樂安一街","SECT":" ","MAREA":" ","LANE":" ","ALLEY":" ","HOUSE_NO":"２１５號","E_COORD97":165577.89999999999,"N_COORD97":2549842.3900000001,"ADDRESS":"樂安一街２１５號","OBJECTID":621513},"geometry":{"x":165577.90000000037,"y":2549842.3900000006}},{"attributes":{"ID":621541,"DIS_CODE":0,"TOWNNAME":"安南區","LI":"淵中里","LIN":"1鄰","STREET":"樂安一街","SECT":" ","MAREA":" ","LANE":" ","ALLEY":" ","HOUSE_NO":"２１９號","E_COORD97":165569.73999999999,"N_COORD97":2549844.8500000001,"ADDRESS":"樂安一街２１９號","OBJECTID":621514},"geometry":{"x":165569.74000000115,"y":2549844.8499999996}},{"attributes":{"ID":621542,"DIS_CODE":0,"TOWNNAME":"安南區","LI":"淵中里","LIN":"1鄰","STREET":"樂安一街","SECT":" ","MAREA":" ","LANE":" ","ALLEY":" ","HOUSE_NO":"２２１號","E_COORD97":165565.97,"N_COORD97":2549846.3100000001,"ADDRESS":"樂安一街２２１號","OBJECTID":621515},"geometry":{"x":165565.97000000067,"y":2549846.3100000005}},{"attributes":{"ID":621543,"DIS_CODE":0,"TOWNNAME":"安南區","LI":"淵中里","LIN":"1鄰","STREET":"樂安一街","SECT":" ","MAREA":" ","LANE":" ","ALLEY":" ","HOUSE_NO":"２２３號","E_COORD97":165561.41,"N_COORD97":2549847.8700000001,"ADDRESS":"樂安一街２２３號","OBJECTID":621516},"geometry":{"x":165561.41000000108,"y":2549847.8700000029}},{"attributes":{"ID":621544,"DIS_CODE":0,"TOWNNAME":"安南區","LI":"淵中里","LIN":"1鄰","STREET":"樂安一街","SECT":" ","MAREA":" ","LANE":" ","ALLEY":" ","HOUSE_NO":"２２５號","E_COORD97":165556.41,"N_COORD97":2549849.02,"ADDRESS":"樂安一街２２５號","OBJECTID":621517},"geometry":{"x":165556.41000000108,"y":2549849.0200000014}},{"attributes":{"ID":621545,"DIS_CODE":0,"TOWNNAME":"安南區","LI":"安順里","LIN":"19鄰","STREET":"安豐五街","SECT":" ","MAREA":" ","LANE":" ","ALLEY":" ","HOUSE_NO":"１０５號","E_COORD97":169647.42999999999,"N_COORD97":2549801.7999999998,"ADDRESS":"安豐五街１０５號","OBJECTID":621518},"geometry":{"x":169647.4299999997,"y":2549801.8000000026}},{"attributes":{"ID":621546,"DIS_CODE":0,"TOWNNAME":"安南區","LI":"安順里","LIN":"19鄰","STREET":"安豐五街","SECT":" ","MAREA":" ","LANE":" ","ALLEY":" ","HOUSE_NO":"１０７號","E_COORD97":169666.16,"N_COORD97":2549801.23,"ADDRESS":"安豐五街１０７號","OBJECTID":621519},"geometry":{"x":169666.16000000015,"y":2549801.2300000023}},{"attributes":{"ID":621547,"DIS_CODE":0,"TOWNNAME":"安南區","LI":"淵東里","LIN":"12鄰","STREET":"海佃路","SECT":"四段","MAREA":" ","LANE":" ","ALLEY":" ","HOUSE_NO":"１３５號","E_COORD97":165639.29000000001,"N_COORD97":2550721.6699999999,"ADDRESS":"海佃路四段１３５號","OBJECTID":621520},"geometry":{"x":165639.29000000004,"y":2550721.6699999999}},{"attributes":{"ID":621548,"DIS_CODE":0,"TOWNNAME":"安南區","LI":"溪墘里","LIN":"25鄰","STREET":"府安路","SECT":"五段","MAREA":" ","LANE":" ","ALLEY":" ","HOUSE_NO":"２６１號","E_COORD97":167324.54999999999,"N_COORD97":2546842.6000000001,"ADDRESS":"府安路五段２６１號","OBJECTID":621521},"geometry":{"x":167324.55000000168,"y":2546842.5999999996}},{"attributes":{"ID":621549,"DIS_CODE":0,"TOWNNAME":"安南區","LI":"安富里","LIN":"26鄰","STREET":"郡安路","SECT":"五段","MAREA":" ","LANE":" ","ALLEY":" ","HOUSE_NO":"１６３號","E_COORD97":167650.20000000001,"N_COORD97":2547714.1099999999,"ADDRESS":"郡安路五段１６３號","OBJECTID":621522},"geometry":{"x":167650.20000000019,"y":2547714.1099999994}},{"attributes":{"ID":621550,"DIS_CODE":0,"TOWNNAME":"安南區","LI":"溪東里","LIN":"4鄰","STREET":"府安路","SECT":"五段","MAREA":" ","LANE":" ","ALLEY":" ","HOUSE_NO":"１０２號","E_COORD97":168046.73274400001,"N_COORD97":2547130.83238,"ADDRESS":"府安路五段１０２號","OBJECTID":621523},"geometry":{"x":168046.73274399899,"y":2547130.8323839996}},{"attributes":{"ID":621551,"DIS_CODE":0,"TOWNNAME":"安南區","LI":"鳳凰里","LIN":"21鄰","STREET":"怡安路","SECT":"二段","MAREA":" ","LANE":" ","ALLEY":" ","HOUSE_NO":"６１５號","E_COORD97":167289.15810199999,"N_COORD97":2549507.1061800001,"ADDRESS":"怡安路二段６１５號","OBJECTID":621524},"geometry":{"x":167289.15810200106,"y":2549507.1061820034}},{"attributes":{"ID":621552,"DIS_CODE":0,"TOWNNAME":"安南區","LI":"溪東里","LIN":"8鄰","STREET":"府安路","SECT":"五段","MAREA":" ","LANE":" ","ALLEY":" ","HOUSE_NO":"２６號","E_COORD97":168410.87,"N_COORD97":2547210.5499999998,"ADDRESS":"府安路五段２６號","OBJECTID":621525},"geometry":{"x":168410.86999999918,"y":2547210.5500000007}},{"attributes":{"ID":621553,"DIS_CODE":0,"TOWNNAME":"安南區","LI":"溪東里","LIN":"8鄰","STREET":"府安路","SECT":"五段","MAREA":" ","LANE":" ","ALLEY":" ","HOUSE_NO":"３０號","E_COORD97":168390.78,"N_COORD97":2547213.04,"ADDRESS":"府安路五段３０號","OBJECTID":621526},"geometry":{"x":168390.78000000026,"y":2547213.0399999991}},{"attributes":{"ID":621554,"DIS_CODE":0,"TOWNNAME":"安南區","LI":"溪東里","LIN":"8鄰","STREET":"府安路","SECT":"五段","MAREA":" ","LANE":" ","ALLEY":" ","HOUSE_NO":"３４號","E_COORD97":168375.73999999999,"N_COORD97":2547206.27,"ADDRESS":"府安路五段３４號","OBJECTID":621527},"geometry":{"x":168375.74000000022,"y":2547206.2700000014}},{"attributes":{"ID":621555,"DIS_CODE":0,"TOWNNAME":"安南區","LI":"溪東里","LIN":"8鄰","STREET":"府安路","SECT":"五段","MAREA":" ","LANE":" ","ALLEY":" ","HOUSE_NO":"３８號","E_COORD97":168355.91,"N_COORD97":2547206.73,"ADDRESS":"府安路五段３８號","OBJECTID":621528},"geometry":{"x":168355.91000000015,"y":2547206.7300000042}},{"attributes":{"ID":621556,"DIS_CODE":0,"TOWNNAME":"麻豆區","LI":"中興里","LIN":"8鄰","STREET":"三民路","SECT":" ","MAREA":" ","LANE":" ","ALLEY":" ","HOUSE_NO":"５３號","E_COORD97":172824.73999999999,"N_COORD97":2564428.4300000002,"ADDRESS":"三民路５３號","OBJECTID":621529},"geometry":{"x":172824.74000000115,"y":2564428.4300000016}},{"attributes":{"ID":621557,"DIS_CODE":0,"TOWNNAME":"中西區","LI":"西湖里","LIN":"39鄰","STREET":"中華西路","SECT":"二段","MAREA":" ","LANE":" ","ALLEY":" ","HOUSE_NO":"７７１號","E_COORD97":166622.85999999999,"N_COORD97":2544970.3900000001,"ADDRESS":"中華西路二段７７１號","OBJECTID":621530},"geometry":{"x":166622.8600000022,"y":2544970.3900000006}},{"attributes":{"ID":621558,"DIS_CODE":0,"TOWNNAME":"中西區","LI":"光賢里","LIN":"20鄰","STREET":"光賢街","SECT":" ","MAREA":" ","LANE":" ","ALLEY":" ","HOUSE_NO":"９之１號","E_COORD97":166662.44,"N_COORD97":2544997.2400000002,"ADDRESS":"光賢街９之１號","OBJECTID":621531},"geometry":{"x":166662.44000000041,"y":2544997.2400000021}},{"attributes":{"ID":621559,"DIS_CODE":0,"TOWNNAME":"中西區","LI":"光賢里","LIN":"20鄰","STREET":"中華西路","SECT":"二段","MAREA":" ","LANE":" ","ALLEY":" ","HOUSE_NO":"６５６號","E_COORD97":166626.92999999999,"N_COORD97":2545144.3500000001,"ADDRESS":"中華西路二段６５６號","OBJECTID":621532},"geometry":{"x":166626.93000000063,"y":2545144.3500000015}},{"attributes":{"ID":621560,"DIS_CODE":0,"TOWNNAME":"中西區","LI":"光賢里","LIN":"11鄰","STREET":"中華西路","SECT":"二段","MAREA":" ","LANE":" ","ALLEY":" ","HOUSE_NO":"５９６號","E_COORD97":166663.89999999999,"N_COORD97":2544943.29,"ADDRESS":"中華西路二段５９６號","OBJECTID":621533},"geometry":{"x":166663.9000000013,"y":2544943.2899999972}},{"attributes":{"ID":621561,"DIS_CODE":0,"TOWNNAME":"中西區","LI":"光賢里","LIN":"11鄰","STREET":"中華西路","SECT":"二段","MAREA":" ","LANE":" ","ALLEY":" ","HOUSE_NO":"５９６之１號","E_COORD97":166663.10000000001,"N_COORD97":2544944.8700000001,"ADDRESS":"中華西路二段５９６之１號","OBJECTID":621534},"geometry":{"x":166663.10000000056,"y":2544944.8699999992}},{"attributes":{"ID":621562,"DIS_CODE":0,"TOWNNAME":"中西區","LI":"西湖里","LIN":"39鄰","STREET":"中華西路","SECT":"二段","MAREA":" ","LANE":" ","ALLEY":" ","HOUSE_NO":"７６９號","E_COORD97":166623.23999999999,"N_COORD97":2544966.3199999998,"ADDRESS":"中華西路二段７６９號","OBJECTID":621535},"geometry":{"x":166623.24000000022,"y":2544966.3200000022}},{"attributes":{"ID":621563,"DIS_CODE":0,"TOWNNAME":"中西區","LI":"光賢里","LIN":"13鄰","STREET":"中華西路","SECT":"二段","MAREA":" ","LANE":" ","ALLEY":" ","HOUSE_NO":"３９８號","E_COORD97":166652.89999999999,"N_COORD97":2544451.6800000002,"ADDRESS":"中華西路二段３９８號","OBJECTID":621536},"geometry":{"x":166652.90000000037,"y":2544451.6799999997}},{"attributes":{"ID":621564,"DIS_CODE":0,"TOWNNAME":"中西區","LI":"西湖里","LIN":"40鄰","STREET":"中華西路","SECT":"二段","MAREA":" ","LANE":" ","ALLEY":" ","HOUSE_NO":"７３５號","E_COORD97":166629.07999999999,"N_COORD97":2544910.2999999998,"ADDRESS":"中華西路二段７３５號","OBJECTID":621537},"geometry":{"x":166629.08000000007,"y":2544910.3000000007}},{"attributes":{"ID":621565,"DIS_CODE":0,"TOWNNAME":"中西區","LI":"西賢里","LIN":"13鄰","STREET":"西賢一街","SECT":" ","MAREA":" ","LANE":" ","ALLEY":" ","HOUSE_NO":"２２８之２號","E_COORD97":165699.22,"N_COORD97":2544915.79,"ADDRESS":"西賢一街２２８之２號","OBJECTID":621538},"geometry":{"x":165699.2200000016,"y":2544915.7899999991}},{"attributes":{"ID":621566,"DIS_CODE":0,"TOWNNAME":"中西區","LI":"西賢里","LIN":"13鄰","STREET":"西賢一街","SECT":" ","MAREA":" ","LANE":" ","ALLEY":" ","HOUSE_NO":"２２８之３號","E_COORD97":165699.73000000001,"N_COORD97":2544917.8199999998,"ADDRESS":"西賢一街２２８之３號","OBJECTID":621539},"geometry":{"x":165699.73000000045,"y":2544917.8200000022}},{"attributes":{"ID":621567,"DIS_CODE":0,"TOWNNAME":"中西區","LI":"西賢里","LIN":"13鄰","STREET":"西賢一街","SECT":" ","MAREA":" ","LANE":" ","ALLEY":" ","HOUSE_NO":"２２８之６號","E_COORD97":165698.45999999999,"N_COORD97":2544927.8500000001,"ADDRESS":"西賢一街２２８之６號","OBJECTID":621540},"geometry":{"x":165698.46000000089,"y":2544927.8500000015}},{"attributes":{"ID":621568,"DIS_CODE":0,"TOWNNAME":"中西區","LI":"光賢里","LIN":"13鄰","STREET":"西和路","SECT":" ","MAREA":" ","LANE":" ","ALLEY":" ","HOUSE_NO":"１３號","E_COORD97":166718.37,"N_COORD97":2544437.8100000001,"ADDRESS":"西和路１３號","OBJECTID":621541},"geometry":{"x":166718.37000000011,"y":2544437.8100000024}},{"attributes":{"ID":621569,"DIS_CODE":0,"TOWNNAME":"中西區","LI":"西賢里","LIN":"13鄰","STREET":"西賢一街","SECT":" ","MAREA":" ","LANE":" ","ALLEY":" ","HOUSE_NO":"２２８之５號","E_COORD97":165699.09,"N_COORD97":2544921.75,"ADDRESS":"西賢一街２２８之５號","OBJECTID":621542},"geometry":{"x":165699.09000000078,"y":2544921.7500000019}},{"attributes":{"ID":621570,"DIS_CODE":0,"TOWNNAME":"中西區","LI":"民生里","LIN":"15鄰","STREET":"南華街","SECT":" ","MAREA":" ","LANE":" ","ALLEY":" ","HOUSE_NO":"７８之１號","E_COORD97":167124.39000000001,"N_COORD97":2543485.3399999999,"ADDRESS":"南華街７８之１號","OBJECTID":621543},"geometry":{"x":167124.3900000006,"y":2543485.3399999999}},{"attributes":{"ID":621571,"DIS_CODE":0,"TOWNNAME":"中西區","LI":"大涼里","LIN":"4鄰","STREET":"府前路","SECT":"二段","MAREA":" ","LANE":" ","ALLEY":" ","HOUSE_NO":"２３２號","E_COORD97":167153.98999999999,"N_COORD97":2543606.2799999998,"ADDRESS":"府前路二段２３２號","OBJECTID":621544},"geometry":{"x":167153.98999999929,"y":2543606.2800000012}},{"attributes":{"ID":621572,"DIS_CODE":0,"TOWNNAME":"中西區","LI":"西湖里","LIN":"32鄰","STREET":"西湖街","SECT":" ","MAREA":" ","LANE":" ","ALLEY":" ","HOUSE_NO":"２２０號","E_COORD97":166209.35000000001,"N_COORD97":2544925.8500000001,"ADDRESS":"西湖街２２０號","OBJECTID":621545},"geometry":{"x":166209.35000000056,"y":2544925.8499999996}},{"attributes":{"ID":621573,"DIS_CODE":0,"TOWNNAME":"中西區","LI":"西湖里","LIN":"32鄰","STREET":"西湖街","SECT":" ","MAREA":" ","LANE":" ","ALLEY":" ","HOUSE_NO":"２１８號","E_COORD97":166212.51999999999,"N_COORD97":2544926.3300000001,"ADDRESS":"西湖街２１８號","OBJECTID":621546},"geometry":{"x":166212.52000000048,"y":2544926.3300000001}},{"attributes":{"ID":621574,"DIS_CODE":0,"TOWNNAME":"中西區","LI":"文賢里","LIN":"6鄰","STREET":"和美街","SECT":" ","MAREA":" ","LANE":" ","ALLEY":" ","HOUSE_NO":"４５號","E_COORD97":167121.44,"N_COORD97":2544773.1099999999,"ADDRESS":"和美街４５號","OBJECTID":621547},"geometry":{"x":167121.44000000134,"y":2544773.1100000013}},{"attributes":{"ID":621575,"DIS_CODE":0,"TOWNNAME":"永康區","LI":"東橋里","LIN":" ","STREET":"中山南路","SECT":" ","MAREA":" ","LANE":" ","ALLEY":" ","HOUSE_NO":"４２５之１號","E_COORD97":172854.12,"N_COORD97":2546842.54,"ADDRESS":"中山南路４２５之１號","OBJECTID":621548},"geometry":{"x":172854.12000000197,"y":2546842.5399999991}},{"attributes":{"ID":621576,"DIS_CODE":0,"TOWNNAME":"永康區","LI":"東橋里","LIN":" ","STREET":"中山南路","SECT":" ","MAREA":" ","LANE":" ","ALLEY":" ","HOUSE_NO":"４８７號","E_COORD97":173030.39999999999,"N_COORD97":2546907.4399999999,"ADDRESS":"中山南路４８７號","OBJECTID":621549},"geometry":{"x":173030.40000000224,"y":2546907.4400000013}},{"attributes":{"ID":621577,"DIS_CODE":0,"TOWNNAME":"永康區","LI":"蔦松里","LIN":" ","STREET":"中正北路","SECT":" ","MAREA":" ","LANE":" ","ALLEY":" ","HOUSE_NO":"６９７之３號","E_COORD97":174150.22,"N_COORD97":2549415.8399999999,"ADDRESS":"中正北路６９７之３號","OBJECTID":621550},"geometry":{"x":174150.22000000067,"y":2549415.8400000036}},{"attributes":{"ID":621578,"DIS_CODE":0,"TOWNNAME":"永康區","LI":"永康里","LIN":" ","STREET":"文化路","SECT":" ","MAREA":" ","LANE":" ","ALLEY":" ","HOUSE_NO":"３８之１號","E_COORD97":174304.38,"N_COORD97":2546361.3199999998,"ADDRESS":"文化路３８之１號","OBJECTID":621551},"geometry":{"x":174304.37999999989,"y":2546361.3200000003}},{"attributes":{"ID":621579,"DIS_CODE":0,"TOWNNAME":"永康區","LI":"新樹里","LIN":" ","STREET":"中山北路","SECT":" ","MAREA":" ","LANE":" ","ALLEY":" ","HOUSE_NO":"６３２號","E_COORD97":175934.14999999999,"N_COORD97":2547813.7400000002,"ADDRESS":"中山北路６３２號","OBJECTID":621552},"geometry":{"x":175934.14999999944,"y":2547813.7400000021}},{"attributes":{"ID":621580,"DIS_CODE":0,"TOWNNAME":"永康區","LI":"\u25A0洲里","LIN":"20鄰","STREET":"中正南路","SECT":" ","MAREA":" ","LANE":" ","ALLEY":" ","HOUSE_NO":"８０３號","E_COORD97":171714.16,"N_COORD97":2548985.7400000002,"ADDRESS":"中正南路８０３號","OBJECTID":621553},"geometry":{"x":171714.16000000015,"y":2548985.7400000002}},{"attributes":{"ID":621581,"DIS_CODE":0,"TOWNNAME":"永康區","LI":"\u25A0洲里","LIN":"20鄰","STREET":"中正南路","SECT":" ","MAREA":" ","LANE":" ","ALLEY":" ","HOUSE_NO":"８４３號","E_COORD97":171750.92999999999,"N_COORD97":2549046.9900000002,"ADDRESS":"中正南路８４３號","OBJECTID":621554},"geometry":{"x":171750.9299999997,"y":2549046.9900000021}},{"attributes":{"ID":621582,"DIS_CODE":0,"TOWNNAME":"永康區","LI":"\u25A0洲里","LIN":"26鄰","STREET":"洲尾街","SECT":" ","MAREA":" ","LANE":" ","ALLEY":" ","HOUSE_NO":"２２３號","E_COORD97":170913.73000000001,"N_COORD97":2549074.25,"ADDRESS":"洲尾街２２３號","OBJECTID":621555},"geometry":{"x":170913.73000000045,"y":2549074.2500000037}},{"attributes":{"ID":621583,"DIS_CODE":0,"TOWNNAME":"永康區","LI":"\u25A0洲里","LIN":"25鄰","STREET":"國聖街","SECT":" ","MAREA":" ","LANE":" ","ALLEY":" ","HOUSE_NO":"２１６號","E_COORD97":170668.01000000001,"N_COORD97":2548242.8799999999,"ADDRESS":"國聖街２１６號","OBJECTID":621556},"geometry":{"x":170668.01000000071,"y":2548242.8800000008}},{"attributes":{"ID":621584,"DIS_CODE":0,"TOWNNAME":"永康區","LI":"\u25A0洲里","LIN":"39鄰","STREET":"\u25A0洲一街","SECT":" ","MAREA":" ","LANE":" ","ALLEY":" ","HOUSE_NO":"８２號","E_COORD97":171608.85000000001,"N_COORD97":2549069.7400000002,"ADDRESS":"\u25A0洲一街８２號","OBJECTID":621557},"geometry":{"x":171608.84999999963,"y":2549069.7400000002}},{"attributes":{"ID":621585,"DIS_CODE":0,"TOWNNAME":"永康區","LI":"龍潭里","LIN":" ","STREET":"永明街","SECT":" ","MAREA":" ","LANE":" ","ALLEY":" ","HOUSE_NO":"３３２之６號","E_COORD97":174591.51000000001,"N_COORD97":2547136.5499999998,"ADDRESS":"永明街３３２之６號","OBJECTID":621558},"geometry":{"x":174591.50999999978,"y":2547136.5500000007}},{"attributes":{"ID":621586,"DIS_CODE":0,"TOWNNAME":"永康區","LI":"南灣里","LIN":" ","STREET":"大灣東路","SECT":" ","MAREA":" ","LANE":" ","ALLEY":" ","HOUSE_NO":"１６２之５號","E_COORD97":174599.10000000001,"N_COORD97":2544342.7999999998,"ADDRESS":"大灣東路１６２之５號","OBJECTID":621559},"geometry":{"x":174599.09999999963,"y":2544342.8000000026}},{"attributes":{"ID":621587,"DIS_CODE":0,"TOWNNAME":"永康區","LI":"五王里","LIN":" ","STREET":"中華二路","SECT":" ","MAREA":" ","LANE":" ","ALLEY":" ","HOUSE_NO":"２２６號","E_COORD97":171554.47,"N_COORD97":2545440.0600000001,"ADDRESS":"中華二路２２６號","OBJECTID":621560},"geometry":{"x":171554.4700000016,"y":2545440.0600000005}},{"attributes":{"ID":621588,"DIS_CODE":0,"TOWNNAME":"永康區","LI":"甲頂里","LIN":" ","STREET":"中正南路","SECT":" ","MAREA":" ","LANE":" ","ALLEY":" ","HOUSE_NO":"１２５號","E_COORD97":169717.10999999999,"N_COORD97":2547009.9900000002,"ADDRESS":"中正南路１２５號","OBJECTID":621561},"geometry":{"x":169717.11000000127,"y":2547009.9900000002}},{"attributes":{"ID":621589,"DIS_CODE":0,"TOWNNAME":"永康區","LI":"\u25A0洲里","LIN":"26鄰","STREET":"洲尾街","SECT":" ","MAREA":" ","LANE":" ","ALLEY":" ","HOUSE_NO":"２１１號","E_COORD97":170884.98999999999,"N_COORD97":2549035.6299999999,"ADDRESS":"洲尾街２１１號","OBJECTID":621562},"geometry":{"x":170884.99000000022,"y":2549035.629999999}},{"attributes":{"ID":621590,"DIS_CODE":0,"TOWNNAME":"永康區","LI":"網寮里","LIN":" ","STREET":"永大一路","SECT":" ","MAREA":" ","LANE":" ","ALLEY":" ","HOUSE_NO":"３２８之１號","E_COORD97":173566.42999999999,"N_COORD97":2546258.29,"ADDRESS":"永大一路３２８之１號","OBJECTID":621563},"geometry":{"x":173566.4299999997,"y":2546258.2899999991}},{"attributes":{"ID":621591,"DIS_CODE":0,"TOWNNAME":"永康區","LI":"復華里","LIN":" ","STREET":"復華一街","SECT":" ","MAREA":" ","LANE":" ","ALLEY":" ","HOUSE_NO":"６７之１號","E_COORD97":172509.25,"N_COORD97":2545051.8900000001,"ADDRESS":"復華一街６７之１號","OBJECTID":621564},"geometry":{"x":172509.25000000093,"y":2545051.8900000006}},{"attributes":{"ID":621592,"DIS_CODE":0,"TOWNNAME":"永康區","LI":"甲頂里","LIN":" ","STREET":"中正南路","SECT":" ","MAREA":" ","LANE":" ","ALLEY":" ","HOUSE_NO":"５７號","E_COORD97":169638.54999999999,"N_COORD97":2546811.2000000002,"ADDRESS":"中正南路５７號","OBJECTID":621565},"geometry":{"x":169638.55000000168,"y":2546811.1999999993}},{"attributes":{"ID":621593,"DIS_CODE":0,"TOWNNAME":"永康區","LI":"永康里","LIN":" ","STREET":"永中街","SECT":" ","MAREA":" ","LANE":" ","ALLEY":" ","HOUSE_NO":"８７之１號","E_COORD97":173941.85000000001,"N_COORD97":2547278.7999999998,"ADDRESS":"永中街８７之１號","OBJECTID":621566},"geometry":{"x":173941.8499999987,"y":2547278.8000000026}},{"attributes":{"ID":621594,"DIS_CODE":0,"TOWNNAME":"永康區","LI":"永康里","LIN":" ","STREET":"中山北路","SECT":" ","MAREA":" ","LANE":" ","ALLEY":" ","HOUSE_NO":"３０號","E_COORD97":173946.06,"N_COORD97":2547356.2599999998,"ADDRESS":"中山北路３０號","OBJECTID":621567},"geometry":{"x":173946.06000000052,"y":2547356.2600000016}},{"attributes":{"ID":621595,"DIS_CODE":0,"TOWNNAME":"永康區","LI":"永康里","LIN":" ","STREET":"中山北路","SECT":" ","MAREA":" ","LANE":" ","ALLEY":" ","HOUSE_NO":"１５３號","E_COORD97":174188.63,"N_COORD97":2547534.98,"ADDRESS":"中山北路１５３號","OBJECTID":621568},"geometry":{"x":174188.63000000082,"y":2547534.9800000023}},{"attributes":{"ID":621596,"DIS_CODE":0,"TOWNNAME":"永康區","LI":"\u25A0洲里","LIN":"20鄰","STREET":"中正南路","SECT":" ","MAREA":" ","LANE":" ","ALLEY":" ","HOUSE_NO":"７８７號","E_COORD97":171688.87,"N_COORD97":2548966.9900000002,"ADDRESS":"中正南路７８７號","OBJECTID":621569},"geometry":{"x":171688.87000000011,"y":2548966.9900000002}},{"attributes":{"ID":621597,"DIS_CODE":0,"TOWNNAME":"永康區","LI":"\u25A0洲里","LIN":"25鄰","STREET":"國聖街","SECT":" ","MAREA":" ","LANE":" ","ALLEY":" ","HOUSE_NO":"２０６號","E_COORD97":170645.03,"N_COORD97":2548219.3799999999,"ADDRESS":"國聖街２０６號","OBJECTID":621570},"geometry":{"x":170645.03000000119,"y":2548219.3800000008}},{"attributes":{"ID":621598,"DIS_CODE":0,"TOWNNAME":"永康區","LI":"正強里","LIN":" ","STREET":"自強路","SECT":" ","MAREA":" ","LANE":" ","ALLEY":" ","HOUSE_NO":"２８３之１號","E_COORD97":173339.75,"N_COORD97":2547653.7999999998,"ADDRESS":"自強路２８３之１號","OBJECTID":621571},"geometry":{"x":173339.75000000093,"y":2547653.8000000007}},{"attributes":{"ID":621599,"DIS_CODE":0,"TOWNNAME":"永康區","LI":"甲頂里","LIN":" ","STREET":"中正南路","SECT":" ","MAREA":" ","LANE":" ","ALLEY":" ","HOUSE_NO":"１６１號","E_COORD97":169805.82999999999,"N_COORD97":2547123.9900000002,"ADDRESS":"中正南路１６１號","OBJECTID":621572},"geometry":{"x":169805.83000000007,"y":2547123.9900000021}},{"attributes":{"ID":621600,"DIS_CODE":0,"TOWNNAME":"永康區","LI":"甲頂里","LIN":" ","STREET":"中正南路","SECT":" ","MAREA":" ","LANE":" ","ALLEY":" ","HOUSE_NO":"１３之１號","E_COORD97":171133.06,"N_COORD97":2548164.1099999999,"ADDRESS":"中正南路１３之１號","OBJECTID":621573},"geometry":{"x":171133.05999999959,"y":2548164.1100000013}},{"attributes":{"ID":621601,"DIS_CODE":0,"TOWNNAME":"永康區","LI":"崑山里","LIN":" ","STREET":"大仁街","SECT":" ","MAREA":" ","LANE":" ","ALLEY":" ","HOUSE_NO":"２０３之４號","E_COORD97":173926.37,"N_COORD97":2545068.52,"ADDRESS":"大仁街２０３之４號","OBJECTID":621574},"geometry":{"x":173926.37000000011,"y":2545068.5200000014}},{"attributes":{"ID":621602,"DIS_CODE":0,"TOWNNAME":"永康區","LI":"永康里","LIN":" ","STREET":"永平街","SECT":" ","MAREA":" ","LANE":" ","ALLEY":" ","HOUSE_NO":"１０５號","E_COORD97":173872.34,"N_COORD97":2547010.6200000001,"ADDRESS":"永平街１０５號","OBJECTID":621575},"geometry":{"x":173872.33999999985,"y":2547010.620000001}},{"attributes":{"ID":621603,"DIS_CODE":0,"TOWNNAME":"永康區","LI":"六合里","LIN":" ","STREET":"新興街","SECT":" ","MAREA":" ","LANE":" ","ALLEY":" ","HOUSE_NO":"９７號","E_COORD97":171075.85999999999,"N_COORD97":2545802.6400000001,"ADDRESS":"新興街９７號","OBJECTID":621576},"geometry":{"x":171075.86000000034,"y":2545802.6400000006}},{"attributes":{"ID":621604,"DIS_CODE":0,"TOWNNAME":"永康區","LI":"龍潭里","LIN":" ","STREET":"龍潭街","SECT":" ","MAREA":" ","LANE":" ","ALLEY":" ","HOUSE_NO":"２４６號","E_COORD97":174932.06,"N_COORD97":2548330.5600000001,"ADDRESS":"龍潭街２４６號","OBJECTID":621577},"geometry":{"x":174932.05999999866,"y":2548330.5600000024}},{"attributes":{"ID":621605,"DIS_CODE":0,"TOWNNAME":"永康區","LI":"永康里","LIN":" ","STREET":"中山南路","SECT":" ","MAREA":" ","LANE":" ","ALLEY":" ","HOUSE_NO":"５２９號","E_COORD97":173380.79999999999,"N_COORD97":2547115.2400000002,"ADDRESS":"中山南路５２９號","OBJECTID":621578},"geometry":{"x":173380.79999999981,"y":2547115.2400000021}},{"attributes":{"ID":621606,"DIS_CODE":0,"TOWNNAME":"永康區","LI":"\u25A0洲里","LIN":"25鄰","STREET":"國聖街","SECT":" ","MAREA":" ","LANE":" ","ALLEY":" ","HOUSE_NO":"１６１號","E_COORD97":170641.32999999999,"N_COORD97":2548248.4900000002,"ADDRESS":"國聖街１６１號","OBJECTID":621579},"geometry":{"x":170641.33000000007,"y":2548248.4900000002}},{"attributes":{"ID":621607,"DIS_CODE":0,"TOWNNAME":"永康區","LI":"龍潭里","LIN":" ","STREET":"永明街","SECT":" ","MAREA":" ","LANE":" ","ALLEY":" ","HOUSE_NO":"３３６之４號","E_COORD97":174606.89000000001,"N_COORD97":2547136.0499999998,"ADDRESS":"永明街３３６之４號","OBJECTID":621580},"geometry":{"x":174606.8900000006,"y":2547136.0500000007}},{"attributes":{"ID":621608,"DIS_CODE":0,"TOWNNAME":"永康區","LI":"永康里","LIN":" ","STREET":"中山北路","SECT":" ","MAREA":" ","LANE":" ","ALLEY":" ","HOUSE_NO":"７１號","E_COORD97":174011.42999999999,"N_COORD97":2547403.6000000001,"ADDRESS":"中山北路７１號","OBJECTID":621581},"geometry":{"x":174011.43000000063,"y":2547403.6000000034}},{"attributes":{"ID":621609,"DIS_CODE":0,"TOWNNAME":"永康區","LI":"\u25A0洲里","LIN":"20鄰","STREET":"中正南路","SECT":" ","MAREA":" ","LANE":" ","ALLEY":" ","HOUSE_NO":"８２５號","E_COORD97":171747.20999999999,"N_COORD97":2549016.75,"ADDRESS":"中正南路８２５號","OBJECTID":621582},"geometry":{"x":171747.20999999996,"y":2549016.7500000037}},{"attributes":{"ID":621610,"DIS_CODE":0,"TOWNNAME":"永康區","LI":"\u25A0洲里","LIN":"20鄰","STREET":"中正南路","SECT":" ","MAREA":" ","LANE":" ","ALLEY":" ","HOUSE_NO":"７９３號","E_COORD97":171697.82000000001,"N_COORD97":2548975.7400000002,"ADDRESS":"中正南路７９３號","OBJECTID":621583},"geometry":{"x":171697.8200000003,"y":2548975.7400000002}},{"attributes":{"ID":621611,"DIS_CODE":0,"TOWNNAME":"永康區","LI":"\u25A0洲里","LIN":"20鄰","STREET":"中正南路","SECT":" ","MAREA":" ","LANE":" ","ALLEY":" ","HOUSE_NO":"８３９號","E_COORD97":171769.82000000001,"N_COORD97":2549037.75,"ADDRESS":"中正南路８３９號","OBJECTID":621584},"geometry":{"x":171769.82000000123,"y":2549037.7500000019}},{"attributes":{"ID":621612,"DIS_CODE":0,"TOWNNAME":"永康區","LI":"中華里","LIN":"25鄰","STREET":"忠義街","SECT":" ","MAREA":" ","LANE":" ","ALLEY":" ","HOUSE_NO":"８６號","E_COORD97":171731.37,"N_COORD97":2544624.29,"ADDRESS":"忠義街８６號","OBJECTID":621585},"geometry":{"x":171731.37000000011,"y":2544624.2899999991}},{"attributes":{"ID":621613,"DIS_CODE":0,"TOWNNAME":"永康區","LI":"西灣里","LIN":" ","STREET":"永華路","SECT":" ","MAREA":" ","LANE":" ","ALLEY":" ","HOUSE_NO":"２０７號","E_COORD97":174083.26000000001,"N_COORD97":2545654.8199999998,"ADDRESS":"永華路２０７號","OBJECTID":621586},"geometry":{"x":174083.25999999978,"y":2545654.8200000022}},{"attributes":{"ID":621614,"DIS_CODE":0,"TOWNNAME":"永康區","LI":"\u25A0洲里","LIN":"20鄰","STREET":"中正南路","SECT":" ","MAREA":" ","LANE":" ","ALLEY":" ","HOUSE_NO":"７７７號","E_COORD97":171674.35000000001,"N_COORD97":2548951.9900000002,"ADDRESS":"中正南路７７７號","OBJECTID":621587},"geometry":{"x":171674.35000000056,"y":2548951.9900000021}},{"attributes":{"ID":621615,"DIS_CODE":0,"TOWNNAME":"永康區","LI":"\u25A0洲里","LIN":"38鄰","STREET":"\u25A0行路","SECT":" ","MAREA":" ","LANE":" ","ALLEY":" ","HOUSE_NO":"２０６號","E_COORD97":171285.54000000001,"N_COORD97":2549176.02,"ADDRESS":"\u25A0行路２０６號","OBJECTID":621588},"geometry":{"x":171285.54000000097,"y":2549176.0199999996}},{"attributes":{"ID":621616,"DIS_CODE":0,"TOWNNAME":"永康區","LI":"\u25A0洲里","LIN":"20鄰","STREET":"中正南路","SECT":" ","MAREA":" ","LANE":" ","ALLEY":" ","HOUSE_NO":"７９１號","E_COORD97":171696.89999999999,"N_COORD97":2548970.9900000002,"ADDRESS":"中正南路７９１號","OBJECTID":621589},"geometry":{"x":171696.9000000013,"y":2548970.9900000039}},{"attributes":{"ID":621617,"DIS_CODE":0,"TOWNNAME":"永康區","LI":"\u25A0洲里","LIN":"20鄰","STREET":"中正南路","SECT":" ","MAREA":" ","LANE":" ","ALLEY":" ","HOUSE_NO":"８１９號","E_COORD97":171737.87,"N_COORD97":2549008,"ADDRESS":"中正南路８１９號","OBJECTID":621590},"geometry":{"x":171737.87000000011,"y":2549008.0000000037}},{"attributes":{"ID":621618,"DIS_CODE":0,"TOWNNAME":"永康區","LI":"中華里","LIN":"8鄰","STREET":"忠勇街","SECT":" ","MAREA":" ","LANE":" ","ALLEY":" ","HOUSE_NO":"３６號","E_COORD97":171900.41,"N_COORD97":2544440.1000000001,"ADDRESS":"忠勇街３６號","OBJECTID":621591},"geometry":{"x":171900.41000000015,"y":2544440.1000000034}},{"attributes":{"ID":621619,"DIS_CODE":0,"TOWNNAME":"永康區","LI":"龍潭里","LIN":" ","STREET":"龍昌街","SECT":" ","MAREA":" ","LANE":" ","ALLEY":" ","HOUSE_NO":"２２之１號","E_COORD97":175028.89999999999,"N_COORD97":2547799.48,"ADDRESS":"龍昌街２２之１號","OBJECTID":621592},"geometry":{"x":175028.89999999944,"y":2547799.4800000023}},{"attributes":{"ID":621620,"DIS_CODE":0,"TOWNNAME":"永康區","LI":"東灣里","LIN":" ","STREET":"大灣東路","SECT":" ","MAREA":" ","LANE":" ","ALLEY":" ","HOUSE_NO":"２２２之５號","E_COORD97":174803.48000000001,"N_COORD97":2544414.79,"ADDRESS":"大灣東路２２２之５號","OBJECTID":621593},"geometry":{"x":174803.48000000138,"y":2544414.7900000028}},{"attributes":{"ID":621621,"DIS_CODE":0,"TOWNNAME":"永康區","LI":"中華里","LIN":"20鄰","STREET":"中華路","SECT":" ","MAREA":" ","LANE":" ","ALLEY":" ","HOUSE_NO":"８號之２","E_COORD97":171576.87,"N_COORD97":2544437.3700000001,"ADDRESS":"中華路８號之２","OBJECTID":621594},"geometry":{"x":171576.87000000011,"y":2544437.3700000029}},{"attributes":{"ID":621622,"DIS_CODE":0,"TOWNNAME":"永康區","LI":"中華里","LIN":"20鄰","STREET":"中華路","SECT":" ","MAREA":" ","LANE":" ","ALLEY":" ","HOUSE_NO":"８號之３","E_COORD97":171577.03,"N_COORD97":2544441.73,"ADDRESS":"中華路８號之３","OBJECTID":621595},"geometry":{"x":171577.03000000119,"y":2544441.7300000023}},{"attributes":{"ID":621623,"DIS_CODE":0,"TOWNNAME":"永康區","LI":"\u25A0洲里","LIN":"8鄰","STREET":"\u25A0行路","SECT":" ","MAREA":" ","LANE":" ","ALLEY":" ","HOUSE_NO":"１５號","E_COORD97":171775.26999999999,"N_COORD97":2549096.8100000001,"ADDRESS":"\u25A0行路１５號","OBJECTID":621596},"geometry":{"x":171775.26999999955,"y":2549096.8100000005}},{"attributes":{"ID":621624,"DIS_CODE":0,"TOWNNAME":"永康區","LI":"中華里","LIN":"7鄰","STREET":"忠勇街","SECT":" ","MAREA":" ","LANE":" ","ALLEY":" ","HOUSE_NO":"１４號","E_COORD97":171900.17999999999,"N_COORD97":2544383.29,"ADDRESS":"忠勇街１４號","OBJECTID":621597},"geometry":{"x":171900.1799999997,"y":2544383.2899999991}},{"attributes":{"ID":621625,"DIS_CODE":0,"TOWNNAME":"永康區","LI":"中華里","LIN":"7鄰","STREET":"忠勇街","SECT":" ","MAREA":" ","LANE":" ","ALLEY":" ","HOUSE_NO":"２２號","E_COORD97":171900.39999999999,"N_COORD97":2544400.6099999999,"ADDRESS":"忠勇街２２號","OBJECTID":621598},"geometry":{"x":171900.4000000013,"y":2544400.6100000013}},{"attributes":{"ID":621626,"DIS_CODE":0,"TOWNNAME":"永康區","LI":"東橋里","LIN":" ","STREET":"自強路","SECT":" ","MAREA":" ","LANE":" ","ALLEY":" ","HOUSE_NO":"１１７號","E_COORD97":172878.76999999999,"N_COORD97":2547310.4900000002,"ADDRESS":"自強路１１７號","OBJECTID":621599},"geometry":{"x":172878.76999999955,"y":2547310.4900000021}},{"attributes":{"ID":621627,"DIS_CODE":0,"TOWNNAME":"永康區","LI":"龍潭里","LIN":" ","STREET":"永明街","SECT":" ","MAREA":" ","LANE":" ","ALLEY":" ","HOUSE_NO":"３３８之４號","E_COORD97":174594.51999999999,"N_COORD97":2547104.79,"ADDRESS":"永明街３３８之４號","OBJECTID":621600},"geometry":{"x":174594.51999999955,"y":2547104.790000001}}]}