{"displayFieldName":"TOWNNAME","fieldAliases":{"ID":"ID","DIS_CODE":"DIS_CODE","TOWNNAME":"TOWNNAME","LI":"LI","LIN":"LIN","STREET":"STREET","SECT":"SECT","MAREA":"MAREA","LANE":"LANE","ALLEY":"ALLEY","HOUSE_NO":"HOUSE_NO","E_COORD97":"E_COORD97","N_COORD97":"N_COORD97","ADDRESS":"ADDRESS","OBJECTID":"OBJECTID"},"geometryType":"esriGeometryPoint","spatialReference":{"wkid":102443,"latestWkid":3826},"fields":[{"name":"ID","type":"esriFieldTypeDouble","alias":"ID"},{"name":"DIS_CODE","type":"esriFieldTypeInteger","alias":"DIS_CODE"},{"name":"TOWNNAME","type":"esriFieldTypeString","alias":"TOWNNAME","length":8},{"name":"LI","type":"esriFieldTypeString","alias":"LI","length":8},{"name":"LIN","type":"esriFieldTypeString","alias":"LIN","length":12},{"name":"STREET","type":"esriFieldTypeString","alias":"STREET","length":20},{"name":"SECT","type":"esriFieldTypeString","alias":"SECT","length":8},{"name":"MAREA","type":"esriFieldTypeString","alias":"MAREA","length":12},{"name":"LANE","type":"esriFieldTypeString","alias":"LANE","length":10},{"name":"ALLEY","type":"esriFieldTypeString","alias":"ALLEY","length":10},{"name":"HOUSE_NO","type":"esriFieldTypeString","alias":"HOUSE_NO","length":20},{"name":"E_COORD97","type":"esriFieldTypeDouble","alias":"E_COORD97"},{"name":"N_COORD97","type":"esriFieldTypeDouble","alias":"N_COORD97"},{"name":"ADDRESS","type":"esriFieldTypeString","alias":"ADDRESS","length":50},{"name":"OBJECTID","type":"esriFieldTypeOID","alias":"OBJECTID"}],"features":[{"attributes":{"ID":15001,"DIS_CODE":0,"TOWNNAME":"佳里區","LI":"六安里","LIN":"14鄰","STREET":" ","SECT":" ","MAREA":"六安","LANE":" ","ALLEY":" ","HOUSE_NO":"１１６號之２０","E_COORD97":166391.39000000001,"N_COORD97":2564183.1600000001,"ADDRESS":"六安１１６號之２０","OBJECTID":15001},"geometry":{"x":166391.39000000153,"y":2564183.160000002}},{"attributes":{"ID":15002,"DIS_CODE":0,"TOWNNAME":"佳里區","LI":"六安里","LIN":"14鄰","STREET":" ","SECT":" ","MAREA":"六安","LANE":" ","ALLEY":" ","HOUSE_NO":"１１６號之２１","E_COORD97":166235.54000000001,"N_COORD97":2564108.27,"ADDRESS":"六安１１６號之２１","OBJECTID":15002},"geometry":{"x":166235.54000000097,"y":2564108.2699999996}},{"attributes":{"ID":15003,"DIS_CODE":0,"TOWNNAME":"佳里區","LI":"六安里","LIN":"14鄰","STREET":" ","SECT":" ","MAREA":"六安","LANE":" ","ALLEY":" ","HOUSE_NO":"１１６號之２２","E_COORD97":166215.26000000001,"N_COORD97":2564036.3399999999,"ADDRESS":"六安１１６號之２２","OBJECTID":15003},"geometry":{"x":166215.25999999978,"y":2564036.3400000017}},{"attributes":{"ID":15004,"DIS_CODE":0,"TOWNNAME":"佳里區","LI":"六安里","LIN":"14鄰","STREET":" ","SECT":" ","MAREA":"六安","LANE":" ","ALLEY":" ","HOUSE_NO":"１１６號之２３","E_COORD97":166312.64000000001,"N_COORD97":2564195.75,"ADDRESS":"六安１１６號之２３","OBJECTID":15004},"geometry":{"x":166312.63999999966,"y":2564195.7500000019}},{"attributes":{"ID":15005,"DIS_CODE":0,"TOWNNAME":"東區","LI":"德高里","LIN":"13鄰","STREET":"崇善路","SECT":" ","MAREA":" ","LANE":" ","ALLEY":" ","HOUSE_NO":"９５１號","E_COORD97":171489.91,"N_COORD97":2540589.1099999999,"ADDRESS":"崇善路９５１號","OBJECTID":15005},"geometry":{"x":171489.91000000108,"y":2540589.1100000013}},{"attributes":{"ID":15006,"DIS_CODE":0,"TOWNNAME":"東區","LI":"德高里","LIN":"13鄰","STREET":"崇善路","SECT":" ","MAREA":" ","LANE":" ","ALLEY":" ","HOUSE_NO":"９５３號","E_COORD97":171492.89999999999,"N_COORD97":2540585.0800000001,"ADDRESS":"崇善路９５３號","OBJECTID":15006},"geometry":{"x":171492.90000000224,"y":2540585.0800000001}},{"attributes":{"ID":15007,"DIS_CODE":0,"TOWNNAME":"新營區","LI":"新南里","LIN":"24鄰","STREET":"隋唐街","SECT":" ","MAREA":" ","LANE":"２９５巷","ALLEY":"４１弄","HOUSE_NO":"１９號","E_COORD97":178219.60999999999,"N_COORD97":2578478.2400000002,"ADDRESS":"隋唐街２９５巷４１弄１９號","OBJECTID":15007},"geometry":{"x":178219.6100000022,"y":2578478.2400000002}},{"attributes":{"ID":15008,"DIS_CODE":0,"TOWNNAME":"新營區","LI":"新南里","LIN":"24鄰","STREET":"隋唐街","SECT":" ","MAREA":" ","LANE":"２９５巷","ALLEY":"２７弄","HOUSE_NO":"２２號","E_COORD97":178225.92000000001,"N_COORD97":2578498.1400000001,"ADDRESS":"隋唐街２９５巷２７弄２２號","OBJECTID":15008},"geometry":{"x":178225.92000000086,"y":2578498.1400000025}},{"attributes":{"ID":15009,"DIS_CODE":0,"TOWNNAME":"新營區","LI":"新南里","LIN":"24鄰","STREET":"隋唐街","SECT":" ","MAREA":" ","LANE":"２９５巷","ALLEY":"２７弄","HOUSE_NO":"１８號","E_COORD97":178215.54999999999,"N_COORD97":2578484.9100000001,"ADDRESS":"隋唐街２９５巷２７弄１８號","OBJECTID":15009},"geometry":{"x":178215.54999999981,"y":2578484.9100000039}},{"attributes":{"ID":15010,"DIS_CODE":0,"TOWNNAME":"新營區","LI":"新南里","LIN":"24鄰","STREET":"隋唐街","SECT":" ","MAREA":" ","LANE":"２９５巷","ALLEY":"２７弄","HOUSE_NO":"３８號","E_COORD97":178263.73999999999,"N_COORD97":2578490.21,"ADDRESS":"隋唐街２９５巷２７弄３８號","OBJECTID":15010},"geometry":{"x":178263.74000000022,"y":2578490.209999999}},{"attributes":{"ID":15011,"DIS_CODE":0,"TOWNNAME":"新營區","LI":"新南里","LIN":"24鄰","STREET":"隋唐街","SECT":" ","MAREA":" ","LANE":"２９５巷","ALLEY":"２７弄","HOUSE_NO":"３０號","E_COORD97":178241.26999999999,"N_COORD97":2578496.96,"ADDRESS":"隋唐街２９５巷２７弄３０號","OBJECTID":15011},"geometry":{"x":178241.26999999955,"y":2578496.9600000028}},{"attributes":{"ID":15012,"DIS_CODE":0,"TOWNNAME":"新營區","LI":"新南里","LIN":"24鄰","STREET":"隋唐街","SECT":" ","MAREA":" ","LANE":"２９５巷","ALLEY":"２７弄","HOUSE_NO":"８號","E_COORD97":178190.85000000001,"N_COORD97":2578486.1299999999,"ADDRESS":"隋唐街２９５巷２７弄８號","OBJECTID":15012},"geometry":{"x":178190.85000000056,"y":2578486.1300000008}},{"attributes":{"ID":15013,"DIS_CODE":0,"TOWNNAME":"新營區","LI":"民生里","LIN":"24鄰","STREET":"民生路","SECT":" ","MAREA":" ","LANE":"１３９巷","ALLEY":"７弄","HOUSE_NO":"１４號","E_COORD97":179190.64000000001,"N_COORD97":2578547.77,"ADDRESS":"民生路１３９巷７弄１４號","OBJECTID":15013},"geometry":{"x":179190.6400000006,"y":2578547.7700000014}},{"attributes":{"ID":15014,"DIS_CODE":0,"TOWNNAME":"新營區","LI":"新南里","LIN":"24鄰","STREET":"隋唐街","SECT":" ","MAREA":" ","LANE":"２９５巷","ALLEY":"４１弄","HOUSE_NO":"２１號","E_COORD97":178224.73999999999,"N_COORD97":2578466.04,"ADDRESS":"隋唐街２９５巷４１弄２１號","OBJECTID":15014},"geometry":{"x":178224.74000000022,"y":2578466.0400000028}},{"attributes":{"ID":15015,"DIS_CODE":0,"TOWNNAME":"新營區","LI":"新南里","LIN":"24鄰","STREET":"隋唐街","SECT":" ","MAREA":" ","LANE":"２９５巷","ALLEY":"２７弄","HOUSE_NO":"２８號","E_COORD97":178237.16,"N_COORD97":2578496.98,"ADDRESS":"隋唐街２９５巷２７弄２８號","OBJECTID":15015},"geometry":{"x":178237.16000000015,"y":2578496.9800000004}},{"attributes":{"ID":15016,"DIS_CODE":0,"TOWNNAME":"新營區","LI":"民生里","LIN":"24鄰","STREET":"民生路","SECT":" ","MAREA":" ","LANE":"１３９巷","ALLEY":"７弄","HOUSE_NO":"１９號","E_COORD97":179203.92000000001,"N_COORD97":2578544.3900000001,"ADDRESS":"民生路１３９巷７弄１９號","OBJECTID":15016},"geometry":{"x":179203.92000000086,"y":2578544.3900000025}},{"attributes":{"ID":15017,"DIS_CODE":0,"TOWNNAME":"新營區","LI":"新南里","LIN":"24鄰","STREET":"隋唐街","SECT":" ","MAREA":" ","LANE":"２９５巷","ALLEY":"１１弄","HOUSE_NO":"１號","E_COORD97":178188.67999999999,"N_COORD97":2578550.9199999999,"ADDRESS":"隋唐街２９５巷１１弄１號","OBJECTID":15017},"geometry":{"x":178188.68000000063,"y":2578550.9199999999}},{"attributes":{"ID":15018,"DIS_CODE":0,"TOWNNAME":"新營區","LI":"新南里","LIN":"24鄰","STREET":"隋唐街","SECT":" ","MAREA":" ","LANE":"２９５巷","ALLEY":"１１弄","HOUSE_NO":"３號","E_COORD97":178197.04999999999,"N_COORD97":2578550.8599999999,"ADDRESS":"隋唐街２９５巷１１弄３號","OBJECTID":15018},"geometry":{"x":178197.04999999981,"y":2578550.8599999994}},{"attributes":{"ID":15019,"DIS_CODE":0,"TOWNNAME":"楠西區","LI":"楠西里","LIN":"24鄰","STREET":"中興路","SECT":" ","MAREA":" ","LANE":"６３巷","ALLEY":"３弄","HOUSE_NO":"７號","E_COORD97":197159.62,"N_COORD97":2564311.8900000001,"ADDRESS":"中興路６３巷３弄７號","OBJECTID":15019},"geometry":{"x":197159.62000000197,"y":2564311.8900000025}},{"attributes":{"ID":15020,"DIS_CODE":0,"TOWNNAME":"東區","LI":"裕聖里","LIN":"20鄰","STREET":"裕忠路","SECT":" ","MAREA":" ","LANE":" ","ALLEY":" ","HOUSE_NO":"２９３之１號","E_COORD97":172277.64999999999,"N_COORD97":2542388.1099999999,"ADDRESS":"裕忠路２９３之１號","OBJECTID":15020},"geometry":{"x":172277.64999999944,"y":2542388.1099999994}},{"attributes":{"ID":15021,"DIS_CODE":0,"TOWNNAME":"東區","LI":"裕聖里","LIN":"20鄰","STREET":"裕忠路","SECT":" ","MAREA":" ","LANE":" ","ALLEY":" ","HOUSE_NO":"２９３之２號","E_COORD97":172283.57000000001,"N_COORD97":2542388.1099999999,"ADDRESS":"裕忠路２９３之２號","OBJECTID":15021},"geometry":{"x":172283.57000000123,"y":2542388.1099999994}},{"attributes":{"ID":15022,"DIS_CODE":0,"TOWNNAME":"東區","LI":"裕聖里","LIN":"20鄰","STREET":"裕忠路","SECT":" ","MAREA":" ","LANE":" ","ALLEY":" ","HOUSE_NO":"２９３之３號","E_COORD97":172288.23000000001,"N_COORD97":2542388.3900000001,"ADDRESS":"裕忠路２９３之３號","OBJECTID":15022},"geometry":{"x":172288.23000000138,"y":2542388.3900000025}},{"attributes":{"ID":15023,"DIS_CODE":0,"TOWNNAME":"東區","LI":"裕聖里","LIN":"20鄰","STREET":"裕忠路","SECT":" ","MAREA":" ","LANE":" ","ALLEY":" ","HOUSE_NO":"２９３之５號","E_COORD97":172292.88,"N_COORD97":2542387.6800000002,"ADDRESS":"裕忠路２９３之５號","OBJECTID":15023},"geometry":{"x":172292.88000000082,"y":2542387.6799999997}},{"attributes":{"ID":15024,"DIS_CODE":0,"TOWNNAME":"鹽水區","LI":"橋南里","LIN":"24鄰","STREET":"行昌路","SECT":" ","MAREA":" ","LANE":"２９巷","ALLEY":"３０弄","HOUSE_NO":"３之１號","E_COORD97":175053.82000000001,"N_COORD97":2579253.6200000001,"ADDRESS":"行昌路２９巷３０弄３之１號","OBJECTID":15024},"geometry":{"x":175053.82000000123,"y":2579253.620000001}},{"attributes":{"ID":15025,"DIS_CODE":0,"TOWNNAME":"南區","LI":"田寮里","LIN":"24鄰","STREET":"大成路","SECT":"二段","MAREA":" ","LANE":"４２巷","ALLEY":"５弄","HOUSE_NO":"７號","E_COORD97":167588.95999999999,"N_COORD97":2541778.46,"ADDRESS":"大成路二段４２巷５弄７號","OBJECTID":15025},"geometry":{"x":167588.95999999996,"y":2541778.4600000028}},{"attributes":{"ID":15026,"DIS_CODE":0,"TOWNNAME":"永康區","LI":"光復里","LIN":"24鄰","STREET":"復興路","SECT":" ","MAREA":" ","LANE":"１２８巷","ALLEY":"１弄","HOUSE_NO":"１１號","E_COORD97":172675.5,"N_COORD97":2544368.2799999998,"ADDRESS":"復興路１２８巷１弄１１號","OBJECTID":15026},"geometry":{"x":172675.50000000093,"y":2544368.2800000012}},{"attributes":{"ID":15027,"DIS_CODE":0,"TOWNNAME":"永康區","LI":"西橋里","LIN":"24鄰","STREET":"大橋三街","SECT":" ","MAREA":" ","LANE":"５７巷","ALLEY":"３６弄","HOUSE_NO":"１號","E_COORD97":170537.95000000001,"N_COORD97":2546594.2400000002,"ADDRESS":"大橋三街５７巷３６弄１號","OBJECTID":15027},"geometry":{"x":170537.95000000205,"y":2546594.2400000021}},{"attributes":{"ID":15028,"DIS_CODE":0,"TOWNNAME":"七股區","LI":"龍山里","LIN":"8鄰","STREET":" ","SECT":" ","MAREA":"龍山","LANE":" ","ALLEY":" ","HOUSE_NO":"８４號","E_COORD97":159411.51999999999,"N_COORD97":2559863.48,"ADDRESS":"龍山８４號","OBJECTID":15028},"geometry":{"x":159411.52000000048,"y":2559863.4800000004}},{"attributes":{"ID":15029,"DIS_CODE":0,"TOWNNAME":"永康區","LI":"西勢里","LIN":"24鄰","STREET":"廣興街","SECT":" ","MAREA":" ","LANE":"３８巷","ALLEY":"２５弄","HOUSE_NO":"４５號","E_COORD97":176055.72,"N_COORD97":2546565.8599999999,"ADDRESS":"廣興街３８巷２５弄４５號","OBJECTID":15029},"geometry":{"x":176055.72000000067,"y":2546565.8599999994}},{"attributes":{"ID":15030,"DIS_CODE":0,"TOWNNAME":"永康區","LI":"西橋里","LIN":"24鄰","STREET":"大橋三街","SECT":" ","MAREA":" ","LANE":"５７巷","ALLEY":"３６弄","HOUSE_NO":"６號","E_COORD97":170550.57000000001,"N_COORD97":2546590.4900000002,"ADDRESS":"大橋三街５７巷３６弄６號","OBJECTID":15030},"geometry":{"x":170550.5700000003,"y":2546590.4900000002}},{"attributes":{"ID":15031,"DIS_CODE":0,"TOWNNAME":"永康區","LI":"西橋里","LIN":"24鄰","STREET":"大橋三街","SECT":" ","MAREA":" ","LANE":"５７巷","ALLEY":"３６弄","HOUSE_NO":"３號","E_COORD97":170540.14999999999,"N_COORD97":2546597.7400000002,"ADDRESS":"大橋三街５７巷３６弄３號","OBJECTID":15031},"geometry":{"x":170540.15000000224,"y":2546597.7400000021}},{"attributes":{"ID":15032,"DIS_CODE":0,"TOWNNAME":"永康區","LI":"西橋里","LIN":"24鄰","STREET":"大橋三街","SECT":" ","MAREA":" ","LANE":"５７巷","ALLEY":"３６弄","HOUSE_NO":"２號","E_COORD97":170548.57000000001,"N_COORD97":2546586.9900000002,"ADDRESS":"大橋三街５７巷３６弄２號","OBJECTID":15032},"geometry":{"x":170548.5700000003,"y":2546586.9900000002}},{"attributes":{"ID":15033,"DIS_CODE":0,"TOWNNAME":"永康區","LI":"光復里","LIN":"24鄰","STREET":"復興路","SECT":" ","MAREA":" ","LANE":"１２８巷","ALLEY":"１弄","HOUSE_NO":"１３號","E_COORD97":172667.64000000001,"N_COORD97":2544368.2799999998,"ADDRESS":"復興路１２８巷１弄１３號","OBJECTID":15033},"geometry":{"x":172667.6400000006,"y":2544368.2800000012}},{"attributes":{"ID":15034,"DIS_CODE":0,"TOWNNAME":"永康區","LI":"西橋里","LIN":"24鄰","STREET":"大橋三街","SECT":" ","MAREA":" ","LANE":"５７巷","ALLEY":"６０弄","HOUSE_NO":"２號","E_COORD97":170515.37,"N_COORD97":2546611.2400000002,"ADDRESS":"大橋三街５７巷６０弄２號","OBJECTID":15034},"geometry":{"x":170515.37000000104,"y":2546611.2400000021}},{"attributes":{"ID":15035,"DIS_CODE":0,"TOWNNAME":"永康區","LI":"西勢里","LIN":"24鄰","STREET":"廣興街","SECT":" ","MAREA":" ","LANE":"３８巷","ALLEY":"２５弄","HOUSE_NO":"６６號","E_COORD97":176095.89999999999,"N_COORD97":2546541.7000000002,"ADDRESS":"廣興街３８巷２５弄６６號","OBJECTID":15035},"geometry":{"x":176095.9000000013,"y":2546541.7000000011}},{"attributes":{"ID":15036,"DIS_CODE":0,"TOWNNAME":"東山區","LI":"聖賢里","LIN":"14鄰","STREET":" ","SECT":" ","MAREA":"田尾","LANE":" ","ALLEY":" ","HOUSE_NO":"６９號","E_COORD97":184929.67000000001,"N_COORD97":2578493.0299999998,"ADDRESS":"田尾６９號","OBJECTID":15036},"geometry":{"x":184929.66999999993,"y":2578493.0299999993}},{"attributes":{"ID":15037,"DIS_CODE":0,"TOWNNAME":"永康區","LI":"西勢里","LIN":"24鄰","STREET":"廣興街","SECT":" ","MAREA":" ","LANE":"３８巷","ALLEY":"２５弄","HOUSE_NO":"４６號","E_COORD97":176056.48000000001,"N_COORD97":2546513.75,"ADDRESS":"廣興街３８巷２５弄４６號","OBJECTID":15037},"geometry":{"x":176056.48000000138,"y":2546513.75}},{"attributes":{"ID":15038,"DIS_CODE":0,"TOWNNAME":"北區","LI":"三德里","LIN":"12鄰","STREET":"裕民街","SECT":" ","MAREA":" ","LANE":" ","ALLEY":" ","HOUSE_NO":"３７號","E_COORD97":168459.16,"N_COORD97":2544461.5600000001,"ADDRESS":"裕民街３７號","OBJECTID":15038},"geometry":{"x":168459.16000000015,"y":2544461.5599999987}},{"attributes":{"ID":15039,"DIS_CODE":0,"TOWNNAME":"永康區","LI":"西勢里","LIN":"24鄰","STREET":"廣興街","SECT":" ","MAREA":" ","LANE":"３８巷","ALLEY":"２５弄","HOUSE_NO":"６０號","E_COORD97":176080.70999999999,"N_COORD97":2546515.98,"ADDRESS":"廣興街３８巷２５弄６０號","OBJECTID":15039},"geometry":{"x":176080.70999999996,"y":2546515.9800000004}},{"attributes":{"ID":15040,"DIS_CODE":0,"TOWNNAME":"永康區","LI":"西勢里","LIN":"24鄰","STREET":"廣興街","SECT":" ","MAREA":" ","LANE":"３８巷","ALLEY":"２５弄","HOUSE_NO":"５４號","E_COORD97":176070.20999999999,"N_COORD97":2546523.23,"ADDRESS":"廣興街３８巷２５弄５４號","OBJECTID":15040},"geometry":{"x":176070.20999999996,"y":2546523.2300000023}},{"attributes":{"ID":15041,"DIS_CODE":0,"TOWNNAME":"永康區","LI":"西橋里","LIN":"24鄰","STREET":"大橋三街","SECT":" ","MAREA":" ","LANE":"５７巷","ALLEY":"３６弄","HOUSE_NO":"５號","E_COORD97":170542.48000000001,"N_COORD97":2546600.9900000002,"ADDRESS":"大橋三街５７巷３６弄５號","OBJECTID":15041},"geometry":{"x":170542.48000000045,"y":2546600.9899999984}},{"attributes":{"ID":15042,"DIS_CODE":0,"TOWNNAME":"永康區","LI":"西勢里","LIN":"24鄰","STREET":"廣興街","SECT":" ","MAREA":" ","LANE":"３８巷","ALLEY":"２５弄","HOUSE_NO":"７２號","E_COORD97":176085.23999999999,"N_COORD97":2546548.9500000002,"ADDRESS":"廣興街３８巷２５弄７２號","OBJECTID":15042},"geometry":{"x":176085.24000000022,"y":2546548.9499999993}},{"attributes":{"ID":15043,"DIS_CODE":0,"TOWNNAME":"永康區","LI":"西勢里","LIN":"24鄰","STREET":"廣興街","SECT":" ","MAREA":" ","LANE":"３８巷","ALLEY":"２５弄","HOUSE_NO":"５６號","E_COORD97":176074,"N_COORD97":2546520.98,"ADDRESS":"廣興街３８巷２５弄５６號","OBJECTID":15043},"geometry":{"x":176074.00000000186,"y":2546520.9800000023}},{"attributes":{"ID":15044,"DIS_CODE":0,"TOWNNAME":"永康區","LI":"西勢里","LIN":"24鄰","STREET":"廣興街","SECT":" ","MAREA":" ","LANE":"３８巷","ALLEY":"２５弄","HOUSE_NO":"４７號","E_COORD97":176059.67999999999,"N_COORD97":2546564.1099999999,"ADDRESS":"廣興街３８巷２５弄４７號","OBJECTID":15044},"geometry":{"x":176059.6799999997,"y":2546564.1099999994}},{"attributes":{"ID":15045,"DIS_CODE":0,"TOWNNAME":"永康區","LI":"西勢里","LIN":"24鄰","STREET":"廣興街","SECT":" ","MAREA":" ","LANE":"３８巷","ALLEY":"２５弄","HOUSE_NO":"７０號","E_COORD97":176089,"N_COORD97":2546547.2000000002,"ADDRESS":"廣興街３８巷２５弄７０號","OBJECTID":15045},"geometry":{"x":176089,"y":2546547.1999999993}},{"attributes":{"ID":15046,"DIS_CODE":0,"TOWNNAME":"永康區","LI":"永康里","LIN":"24鄰","STREET":"中山南路","SECT":" ","MAREA":" ","LANE":"６２１巷","ALLEY":"３５弄","HOUSE_NO":"１號","E_COORD97":173530.54000000001,"N_COORD97":2547318.7400000002,"ADDRESS":"中山南路６２１巷３５弄１號","OBJECTID":15046},"geometry":{"x":173530.54000000004,"y":2547318.7400000021}},{"attributes":{"ID":15047,"DIS_CODE":0,"TOWNNAME":"永康區","LI":"永康里","LIN":"24鄰","STREET":"中山南路","SECT":" ","MAREA":" ","LANE":"６２１巷","ALLEY":"３５弄","HOUSE_NO":"５號","E_COORD97":173516.09,"N_COORD97":2547317.7400000002,"ADDRESS":"中山南路６２１巷３５弄５號","OBJECTID":15047},"geometry":{"x":173516.08999999985,"y":2547317.7400000002}},{"attributes":{"ID":15048,"DIS_CODE":0,"TOWNNAME":"安南區","LI":"海東里","LIN":"24鄰","STREET":"同安路","SECT":" ","MAREA":" ","LANE":"２２５巷","ALLEY":"１１７弄","HOUSE_NO":"２號","E_COORD97":166980.76000000001,"N_COORD97":2549298.6800000002,"ADDRESS":"同安路２２５巷１１７弄２號","OBJECTID":15048},"geometry":{"x":166980.76000000071,"y":2549298.6800000016}},{"attributes":{"ID":15049,"DIS_CODE":0,"TOWNNAME":"安南區","LI":"海東里","LIN":"24鄰","STREET":"同安路","SECT":" ","MAREA":" ","LANE":"２２５巷","ALLEY":"１１７弄","HOUSE_NO":"６號","E_COORD97":166978.54000000001,"N_COORD97":2549295.5,"ADDRESS":"同安路２２５巷１１７弄６號","OBJECTID":15049},"geometry":{"x":166978.54000000004,"y":2549295.5}},{"attributes":{"ID":15050,"DIS_CODE":0,"TOWNNAME":"新營區","LI":"民榮里","LIN":"39鄰","STREET":"太子路","SECT":" ","MAREA":" ","LANE":"５３巷","ALLEY":"７弄","HOUSE_NO":"１８號","E_COORD97":178311.01000000001,"N_COORD97":2577919.6499999999,"ADDRESS":"太子路５３巷７弄１８號","OBJECTID":15050},"geometry":{"x":178311.00999999978,"y":2577919.6500000004}},{"attributes":{"ID":15051,"DIS_CODE":0,"TOWNNAME":"仁德區","LI":"上崙里","LIN":"24鄰","STREET":"中正路","SECT":"一段","MAREA":" ","LANE":"７６６巷","ALLEY":"２５弄","HOUSE_NO":"１１號","E_COORD97":173040.07999999999,"N_COORD97":2537832.5299999998,"ADDRESS":"中正路一段７６６巷２５弄１１號","OBJECTID":15051},"geometry":{"x":173040.08000000007,"y":2537832.5300000031}},{"attributes":{"ID":15052,"DIS_CODE":0,"TOWNNAME":"仁德區","LI":"上崙里","LIN":"24鄰","STREET":"中正路","SECT":"一段","MAREA":" ","LANE":"７６６巷","ALLEY":"２５弄","HOUSE_NO":"３號","E_COORD97":173009.01000000001,"N_COORD97":2537809.0299999998,"ADDRESS":"中正路一段７６６巷２５弄３號","OBJECTID":15052},"geometry":{"x":173009.01000000071,"y":2537809.0300000031}},{"attributes":{"ID":15053,"DIS_CODE":0,"TOWNNAME":"永康區","LI":"勝利里","LIN":"24鄰","STREET":"勝利街","SECT":" ","MAREA":" ","LANE":"１１６巷","ALLEY":"１２弄","HOUSE_NO":"１２號","E_COORD97":171403.82999999999,"N_COORD97":2544837.02,"ADDRESS":"勝利街１１６巷１２弄１２號","OBJECTID":15053},"geometry":{"x":171403.83000000101,"y":2544837.0199999996}},{"attributes":{"ID":15054,"DIS_CODE":0,"TOWNNAME":"永康區","LI":"西勢里","LIN":"24鄰","STREET":"廣興街","SECT":" ","MAREA":" ","LANE":"３８巷","ALLEY":"２５弄","HOUSE_NO":"７號之１","E_COORD97":176005.95999999999,"N_COORD97":2546504.54,"ADDRESS":"廣興街３８巷２５弄７號之１","OBJECTID":15054},"geometry":{"x":176005.95999999996,"y":2546504.5399999972}},{"attributes":{"ID":15055,"DIS_CODE":0,"TOWNNAME":"永康區","LI":"西勢里","LIN":"24鄰","STREET":"廣興街","SECT":" ","MAREA":" ","LANE":"３８巷","ALLEY":"２５弄","HOUSE_NO":"２８號","E_COORD97":176057.35000000001,"N_COORD97":2546486.8799999999,"ADDRESS":"廣興街３８巷２５弄２８號","OBJECTID":15055},"geometry":{"x":176057.34999999963,"y":2546486.8800000008}},{"attributes":{"ID":15056,"DIS_CODE":0,"TOWNNAME":"永康區","LI":"復興里","LIN":"24鄰","STREET":"復興路","SECT":" ","MAREA":" ","LANE":"３５６巷","ALLEY":"８０弄","HOUSE_NO":"２８號","E_COORD97":172402.26000000001,"N_COORD97":2544528.27,"ADDRESS":"復興路３５６巷８０弄２８號","OBJECTID":15056},"geometry":{"x":172402.26000000071,"y":2544528.2700000014}},{"attributes":{"ID":15057,"DIS_CODE":0,"TOWNNAME":"永康區","LI":"復興里","LIN":"24鄰","STREET":"復興路","SECT":" ","MAREA":" ","LANE":"３５６巷","ALLEY":"８０弄","HOUSE_NO":"７１號","E_COORD97":172455.48000000001,"N_COORD97":2544592.02,"ADDRESS":"復興路３５６巷８０弄７１號","OBJECTID":15057},"geometry":{"x":172455.48000000138,"y":2544592.0199999996}},{"attributes":{"ID":15058,"DIS_CODE":0,"TOWNNAME":"永康區","LI":"二王里","LIN":"24鄰","STREET":"中山南路","SECT":" ","MAREA":" ","LANE":"５４４巷","ALLEY":"６３弄","HOUSE_NO":"２２號","E_COORD97":172402.09,"N_COORD97":2546388.0699999998,"ADDRESS":"中山南路５４４巷６３弄２２號","OBJECTID":15058},"geometry":{"x":172402.09000000078,"y":2546388.0700000022}},{"attributes":{"ID":15059,"DIS_CODE":0,"TOWNNAME":"北區","LI":"玉皇里","LIN":"4鄰","STREET":"北華街","SECT":" ","MAREA":" ","LANE":" ","ALLEY":" ","HOUSE_NO":"１３５號","E_COORD97":168683.88,"N_COORD97":2544614.9399999999,"ADDRESS":"北華街１３５號","OBJECTID":15059},"geometry":{"x":168683.88000000082,"y":2544614.9400000013}},{"attributes":{"ID":15060,"DIS_CODE":0,"TOWNNAME":"白河區","LI":"外角里","LIN":"13鄰","STREET":"三民路","SECT":" ","MAREA":" ","LANE":" ","ALLEY":" ","HOUSE_NO":"２０７號","E_COORD97":190783.14000000001,"N_COORD97":2583287.1299999999,"ADDRESS":"三民路２０７號","OBJECTID":15060},"geometry":{"x":190783.13999999966,"y":2583287.1300000008}},{"attributes":{"ID":15061,"DIS_CODE":0,"TOWNNAME":"安南區","LI":"長安里","LIN":"13鄰","STREET":"長和路","SECT":"四段","MAREA":" ","LANE":" ","ALLEY":" ","HOUSE_NO":"３３６號","E_COORD97":168275.62,"N_COORD97":2551872.0299999998,"ADDRESS":"長和路四段３３６號","OBJECTID":15061},"geometry":{"x":168275.62000000104,"y":2551872.0300000031}},{"attributes":{"ID":15062,"DIS_CODE":0,"TOWNNAME":"玉井區","LI":"玉田里","LIN":"40鄰","STREET":"信義街","SECT":" ","MAREA":" ","LANE":" ","ALLEY":" ","HOUSE_NO":"１６３號","E_COORD97":195320.26000000001,"N_COORD97":2557511.27,"ADDRESS":"信義街１６３號","OBJECTID":15062},"geometry":{"x":195320.25999999978,"y":2557511.2699999996}},{"attributes":{"ID":15063,"DIS_CODE":0,"TOWNNAME":"佳里區","LI":"六安里","LIN":"14鄰","STREET":" ","SECT":" ","MAREA":"六安","LANE":" ","ALLEY":" ","HOUSE_NO":"１１６號之２４","E_COORD97":166312.98000000001,"N_COORD97":2564202.0699999998,"ADDRESS":"六安１１６號之２４","OBJECTID":15063},"geometry":{"x":166312.98000000045,"y":2564202.0700000003}},{"attributes":{"ID":15064,"DIS_CODE":0,"TOWNNAME":"佳里區","LI":"六安里","LIN":"14鄰","STREET":" ","SECT":" ","MAREA":"六安","LANE":" ","ALLEY":" ","HOUSE_NO":"１１６號之２６","E_COORD97":166319.95999999999,"N_COORD97":2564052.0800000001,"ADDRESS":"六安１１６號之２６","OBJECTID":15064},"geometry":{"x":166319.96000000183,"y":2564052.0800000019}},{"attributes":{"ID":15065,"DIS_CODE":0,"TOWNNAME":"玉井區","LI":"玉田里","LIN":"40鄰","STREET":"和平街","SECT":" ","MAREA":" ","LANE":" ","ALLEY":" ","HOUSE_NO":"１３１號","E_COORD97":195264.54000000001,"N_COORD97":2557516.25,"ADDRESS":"和平街１３１號","OBJECTID":15065},"geometry":{"x":195264.54000000004,"y":2557516.2500000037}},{"attributes":{"ID":15066,"DIS_CODE":0,"TOWNNAME":"玉井區","LI":"玉田里","LIN":"40鄰","STREET":"和平街","SECT":" ","MAREA":" ","LANE":" ","ALLEY":" ","HOUSE_NO":"１３３號","E_COORD97":195267.54000000001,"N_COORD97":2557515.25,"ADDRESS":"和平街１３３號","OBJECTID":15066},"geometry":{"x":195267.54000000004,"y":2557515.25}},{"attributes":{"ID":15067,"DIS_CODE":0,"TOWNNAME":"玉井區","LI":"玉田里","LIN":"40鄰","STREET":"信義街","SECT":" ","MAREA":" ","LANE":" ","ALLEY":" ","HOUSE_NO":"１５３號","E_COORD97":195330.57000000001,"N_COORD97":2557531.27,"ADDRESS":"信義街１５３號","OBJECTID":15067},"geometry":{"x":195330.5700000003,"y":2557531.2699999996}},{"attributes":{"ID":15068,"DIS_CODE":0,"TOWNNAME":"玉井區","LI":"玉田里","LIN":"40鄰","STREET":"中華路","SECT":" ","MAREA":" ","LANE":" ","ALLEY":" ","HOUSE_NO":"２９４號","E_COORD97":195423.54999999999,"N_COORD97":2557580.2400000002,"ADDRESS":"中華路２９４號","OBJECTID":15068},"geometry":{"x":195423.54999999981,"y":2557580.2400000002}},{"attributes":{"ID":15069,"DIS_CODE":0,"TOWNNAME":"玉井區","LI":"玉田里","LIN":"40鄰","STREET":"中華路","SECT":" ","MAREA":" ","LANE":" ","ALLEY":" ","HOUSE_NO":"２３２號","E_COORD97":195343.26000000001,"N_COORD97":2557618.25,"ADDRESS":"中華路２３２號","OBJECTID":15069},"geometry":{"x":195343.26000000071,"y":2557618.2500000019}},{"attributes":{"ID":15070,"DIS_CODE":0,"TOWNNAME":"北區","LI":"三德里","LIN":"7鄰","STREET":"裕民街","SECT":" ","MAREA":" ","LANE":" ","ALLEY":" ","HOUSE_NO":"８號","E_COORD97":168436.22,"N_COORD97":2544396.04,"ADDRESS":"裕民街８號","OBJECTID":15070},"geometry":{"x":168436.21999999974,"y":2544396.0400000028}},{"attributes":{"ID":15071,"DIS_CODE":0,"TOWNNAME":"佳里區","LI":"六安里","LIN":"14鄰","STREET":" ","SECT":" ","MAREA":"六安","LANE":" ","ALLEY":" ","HOUSE_NO":"１１６號之２７","E_COORD97":166466.10000000001,"N_COORD97":2564121.5299999998,"ADDRESS":"六安１１６號之２７","OBJECTID":15071},"geometry":{"x":166466.0999999987,"y":2564121.5300000031}},{"attributes":{"ID":15072,"DIS_CODE":0,"TOWNNAME":"永康區","LI":"勝利里","LIN":"24鄰","STREET":"勝利街","SECT":" ","MAREA":" ","LANE":"１１６巷","ALLEY":"１２弄","HOUSE_NO":"３３號","E_COORD97":171420.17999999999,"N_COORD97":2544787.7599999998,"ADDRESS":"勝利街１１６巷１２弄３３號","OBJECTID":15072},"geometry":{"x":171420.1799999997,"y":2544787.7599999998}},{"attributes":{"ID":15073,"DIS_CODE":0,"TOWNNAME":"佳里區","LI":"六安里","LIN":"14鄰","STREET":" ","SECT":" ","MAREA":"六安","LANE":" ","ALLEY":" ","HOUSE_NO":"１１６號之２８","E_COORD97":166466.28,"N_COORD97":2564160.3399999999,"ADDRESS":"六安１１６號之２８","OBJECTID":15073},"geometry":{"x":166466.28000000119,"y":2564160.3399999999}},{"attributes":{"ID":15074,"DIS_CODE":0,"TOWNNAME":"永康區","LI":"二王里","LIN":"24鄰","STREET":"中山南路","SECT":" ","MAREA":" ","LANE":"５４４巷","ALLEY":"６７弄","HOUSE_NO":"２３號","E_COORD97":172409.89999999999,"N_COORD97":2546360.0699999998,"ADDRESS":"中山南路５４４巷６７弄２３號","OBJECTID":15074},"geometry":{"x":172409.89999999944,"y":2546360.070000004}},{"attributes":{"ID":15075,"DIS_CODE":0,"TOWNNAME":"佳里區","LI":"六安里","LIN":"14鄰","STREET":" ","SECT":" ","MAREA":"六安","LANE":" ","ALLEY":" ","HOUSE_NO":"１１６號之２","E_COORD97":166469.59,"N_COORD97":2564202.1099999999,"ADDRESS":"六安１１６號之２","OBJECTID":15075},"geometry":{"x":166469.58999999985,"y":2564202.1099999994}},{"attributes":{"ID":15076,"DIS_CODE":0,"TOWNNAME":"佳里區","LI":"六安里","LIN":"14鄰","STREET":" ","SECT":" ","MAREA":"六安","LANE":" ","ALLEY":" ","HOUSE_NO":"１１６號之３８","E_COORD97":166304.45999999999,"N_COORD97":2564160.29,"ADDRESS":"六安１１６號之３８","OBJECTID":15076},"geometry":{"x":166304.45999999996,"y":2564160.2900000028}},{"attributes":{"ID":15077,"DIS_CODE":0,"TOWNNAME":"佳里區","LI":"六安里","LIN":"14鄰","STREET":" ","SECT":" ","MAREA":"六安","LANE":" ","ALLEY":" ","HOUSE_NO":"１１６號之３９","E_COORD97":166320.37,"N_COORD97":2564161.0099999998,"ADDRESS":"六安１１６號之３９","OBJECTID":15077},"geometry":{"x":166320.37000000011,"y":2564161.0100000016}},{"attributes":{"ID":15078,"DIS_CODE":0,"TOWNNAME":"佳里區","LI":"六安里","LIN":"14鄰","STREET":" ","SECT":" ","MAREA":"六安","LANE":" ","ALLEY":" ","HOUSE_NO":"１１６號之３","E_COORD97":166317.82000000001,"N_COORD97":2564218.2999999998,"ADDRESS":"六安１１６號之３","OBJECTID":15078},"geometry":{"x":166317.81999999937,"y":2564218.3000000007}},{"attributes":{"ID":15079,"DIS_CODE":0,"TOWNNAME":"佳里區","LI":"六安里","LIN":"14鄰","STREET":" ","SECT":" ","MAREA":"六安","LANE":" ","ALLEY":" ","HOUSE_NO":"１１６號之４","E_COORD97":166343.57000000001,"N_COORD97":2564135.2799999998,"ADDRESS":"六安１１６號之４","OBJECTID":15079},"geometry":{"x":166343.57000000123,"y":2564135.2799999993}},{"attributes":{"ID":15080,"DIS_CODE":0,"TOWNNAME":"佳里區","LI":"六安里","LIN":"14鄰","STREET":" ","SECT":" ","MAREA":"六安","LANE":" ","ALLEY":" ","HOUSE_NO":"１１６號之５１","E_COORD97":166382.01000000001,"N_COORD97":2564364.8500000001,"ADDRESS":"六安１１６號之５１","OBJECTID":15080},"geometry":{"x":166382.00999999978,"y":2564364.8500000015}},{"attributes":{"ID":15081,"DIS_CODE":0,"TOWNNAME":"佳里區","LI":"六安里","LIN":"14鄰","STREET":" ","SECT":" ","MAREA":"六安","LANE":" ","ALLEY":" ","HOUSE_NO":"１１６號之５２","E_COORD97":166381.88,"N_COORD97":2564370.25,"ADDRESS":"六安１１６號之５２","OBJECTID":15081},"geometry":{"x":166381.88000000082,"y":2564370.25}},{"attributes":{"ID":15082,"DIS_CODE":0,"TOWNNAME":"佳里區","LI":"六安里","LIN":"14鄰","STREET":" ","SECT":" ","MAREA":"六安","LANE":" ","ALLEY":" ","HOUSE_NO":"１１６號之５３","E_COORD97":166381.75,"N_COORD97":2564375.6499999999,"ADDRESS":"六安１１６號之５３","OBJECTID":15082},"geometry":{"x":166381.75,"y":2564375.6500000004}},{"attributes":{"ID":15083,"DIS_CODE":0,"TOWNNAME":"佳里區","LI":"六安里","LIN":"14鄰","STREET":" ","SECT":" ","MAREA":"六安","LANE":" ","ALLEY":" ","HOUSE_NO":"１１６號之５","E_COORD97":166377.69,"N_COORD97":2564148.8300000001,"ADDRESS":"六安１１６號之５","OBJECTID":15083},"geometry":{"x":166377.69000000041,"y":2564148.8300000019}},{"attributes":{"ID":15084,"DIS_CODE":0,"TOWNNAME":"佳里區","LI":"六安里","LIN":"14鄰","STREET":" ","SECT":" ","MAREA":"六安","LANE":" ","ALLEY":" ","HOUSE_NO":"１１６號之６","E_COORD97":166357.57000000001,"N_COORD97":2564177.48,"ADDRESS":"六安１１６號之６","OBJECTID":15084},"geometry":{"x":166357.57000000123,"y":2564177.4800000042}},{"attributes":{"ID":15085,"DIS_CODE":0,"TOWNNAME":"佳里區","LI":"六安里","LIN":"14鄰","STREET":" ","SECT":" ","MAREA":"六安","LANE":" ","ALLEY":" ","HOUSE_NO":"１１６號之７","E_COORD97":166368.10000000001,"N_COORD97":2564146.6499999999,"ADDRESS":"六安１１６號之７","OBJECTID":15085},"geometry":{"x":166368.10000000056,"y":2564146.6500000022}},{"attributes":{"ID":15086,"DIS_CODE":0,"TOWNNAME":"佳里區","LI":"六安里","LIN":"14鄰","STREET":" ","SECT":" ","MAREA":"六安","LANE":" ","ALLEY":" ","HOUSE_NO":"１１６號之９","E_COORD97":166282.23999999999,"N_COORD97":2564083.2200000002,"ADDRESS":"六安１１６號之９","OBJECTID":15086},"geometry":{"x":166282.24000000022,"y":2564083.2200000007}},{"attributes":{"ID":15087,"DIS_CODE":0,"TOWNNAME":"佳里區","LI":"六安里","LIN":"14鄰","STREET":" ","SECT":" ","MAREA":"六安","LANE":" ","ALLEY":" ","HOUSE_NO":"１１６號","E_COORD97":166516.76999999999,"N_COORD97":2564236.77,"ADDRESS":"六安１１６號","OBJECTID":15087},"geometry":{"x":166516.76999999955,"y":2564236.7700000014}},{"attributes":{"ID":15088,"DIS_CODE":0,"TOWNNAME":"佳里區","LI":"六安里","LIN":"14鄰","STREET":" ","SECT":" ","MAREA":"六安","LANE":" ","ALLEY":" ","HOUSE_NO":"１１７號之１９","E_COORD97":166390.37,"N_COORD97":2564420.5699999998,"ADDRESS":"六安１１７號之１９","OBJECTID":15088},"geometry":{"x":166390.37000000197,"y":2564420.570000004}},{"attributes":{"ID":15089,"DIS_CODE":0,"TOWNNAME":"佳里區","LI":"六安里","LIN":"14鄰","STREET":" ","SECT":" ","MAREA":"六安","LANE":" ","ALLEY":" ","HOUSE_NO":"１１７號之３","E_COORD97":166369.20999999999,"N_COORD97":2564333.3300000001,"ADDRESS":"六安１１７號之３","OBJECTID":15089},"geometry":{"x":166369.21000000183,"y":2564333.3300000001}},{"attributes":{"ID":15090,"DIS_CODE":0,"TOWNNAME":"佳里區","LI":"六安里","LIN":"14鄰","STREET":" ","SECT":" ","MAREA":"六安","LANE":" ","ALLEY":" ","HOUSE_NO":"１１７號之５","E_COORD97":166360.85000000001,"N_COORD97":2564265.8799999999,"ADDRESS":"六安１１７號之５","OBJECTID":15090},"geometry":{"x":166360.84999999963,"y":2564265.8800000008}},{"attributes":{"ID":15091,"DIS_CODE":0,"TOWNNAME":"佳里區","LI":"六安里","LIN":"14鄰","STREET":" ","SECT":" ","MAREA":"六安","LANE":" ","ALLEY":" ","HOUSE_NO":"１１７號之７","E_COORD97":166377.29000000001,"N_COORD97":2564276.54,"ADDRESS":"六安１１７號之７","OBJECTID":15091},"geometry":{"x":166377.2900000019,"y":2564276.5399999991}},{"attributes":{"ID":15092,"DIS_CODE":0,"TOWNNAME":"佳里區","LI":"六安里","LIN":"14鄰","STREET":" ","SECT":" ","MAREA":"六安","LANE":" ","ALLEY":" ","HOUSE_NO":"１１７號之９","E_COORD97":166369.23999999999,"N_COORD97":2564264.1699999999,"ADDRESS":"六安１１７號之９","OBJECTID":15092},"geometry":{"x":166369.24000000209,"y":2564264.1700000018}},{"attributes":{"ID":15093,"DIS_CODE":0,"TOWNNAME":"麻豆區","LI":"磚井里","LIN":"14鄰","STREET":" ","SECT":" ","MAREA":"磚子井","LANE":" ","ALLEY":" ","HOUSE_NO":"１３９號之３","E_COORD97":172856.10999999999,"N_COORD97":2563834.0899999999,"ADDRESS":"磚子井１３９號之３","OBJECTID":15093},"geometry":{"x":172856.1100000022,"y":2563834.0900000017}},{"attributes":{"ID":15094,"DIS_CODE":0,"TOWNNAME":"麻豆區","LI":"磚井里","LIN":"14鄰","STREET":" ","SECT":" ","MAREA":"磚子井","LANE":" ","ALLEY":" ","HOUSE_NO":"１３９號之４","E_COORD97":172780.72,"N_COORD97":2563758.5699999998,"ADDRESS":"磚子井１３９號之４","OBJECTID":15094},"geometry":{"x":172780.72000000067,"y":2563758.5700000003}},{"attributes":{"ID":15095,"DIS_CODE":0,"TOWNNAME":"麻豆區","LI":"磚井里","LIN":"14鄰","STREET":" ","SECT":" ","MAREA":"磚子井","LANE":" ","ALLEY":" ","HOUSE_NO":"１３９號之５","E_COORD97":172835.07000000001,"N_COORD97":2563873.5699999998,"ADDRESS":"磚子井１３９號之５","OBJECTID":15095},"geometry":{"x":172835.07000000123,"y":2563873.5700000003}},{"attributes":{"ID":15096,"DIS_CODE":0,"TOWNNAME":"麻豆區","LI":"磚井里","LIN":"14鄰","STREET":" ","SECT":" ","MAREA":"磚子井","LANE":" ","ALLEY":" ","HOUSE_NO":"１３９號之６","E_COORD97":172770.84,"N_COORD97":2563843.4300000002,"ADDRESS":"磚子井１３９號之６","OBJECTID":15096},"geometry":{"x":172770.84000000171,"y":2563843.4299999997}},{"attributes":{"ID":15097,"DIS_CODE":0,"TOWNNAME":"麻豆區","LI":"磚井里","LIN":"14鄰","STREET":" ","SECT":" ","MAREA":"磚子井","LANE":" ","ALLEY":" ","HOUSE_NO":"１３９號之７","E_COORD97":172569.51000000001,"N_COORD97":2563863.1299999999,"ADDRESS":"磚子井１３９號之７","OBJECTID":15097},"geometry":{"x":172569.50999999885,"y":2563863.1300000008}},{"attributes":{"ID":15098,"DIS_CODE":0,"TOWNNAME":"麻豆區","LI":"磚井里","LIN":"14鄰","STREET":" ","SECT":" ","MAREA":"磚子井","LANE":" ","ALLEY":" ","HOUSE_NO":"１３９號之８","E_COORD97":172528.87,"N_COORD97":2563862.1800000002,"ADDRESS":"磚子井１３９號之８","OBJECTID":15098},"geometry":{"x":172528.87000000104,"y":2563862.1799999997}},{"attributes":{"ID":15099,"DIS_CODE":0,"TOWNNAME":"麻豆區","LI":"磚井里","LIN":"14鄰","STREET":" ","SECT":" ","MAREA":"磚子井","LANE":" ","ALLEY":" ","HOUSE_NO":"１４０號之１０","E_COORD97":172907.23000000001,"N_COORD97":2563840.6400000001,"ADDRESS":"磚子井１４０號之１０","OBJECTID":15099},"geometry":{"x":172907.23000000045,"y":2563840.6400000043}},{"attributes":{"ID":15100,"DIS_CODE":0,"TOWNNAME":"麻豆區","LI":"磚井里","LIN":"14鄰","STREET":" ","SECT":" ","MAREA":"磚子井","LANE":" ","ALLEY":" ","HOUSE_NO":"１４０號之１１","E_COORD97":172912,"N_COORD97":2563841.5699999998,"ADDRESS":"磚子井１４０號之１１","OBJECTID":15100},"geometry":{"x":172912,"y":2563841.5700000022}},{"attributes":{"ID":15101,"DIS_CODE":0,"TOWNNAME":"麻豆區","LI":"磚井里","LIN":"14鄰","STREET":" ","SECT":" ","MAREA":"磚子井","LANE":" ","ALLEY":" ","HOUSE_NO":"１４０號之１２","E_COORD97":172916.69,"N_COORD97":2563842.1200000001,"ADDRESS":"磚子井１４０號之１２","OBJECTID":15101},"geometry":{"x":172916.69000000227,"y":2563842.1200000029}},{"attributes":{"ID":15102,"DIS_CODE":0,"TOWNNAME":"麻豆區","LI":"磚井里","LIN":"14鄰","STREET":" ","SECT":" ","MAREA":"磚子井","LANE":" ","ALLEY":" ","HOUSE_NO":"１４０號之１３","E_COORD97":172922.07000000001,"N_COORD97":2563843.0600000001,"ADDRESS":"磚子井１４０號之１３","OBJECTID":15102},"geometry":{"x":172922.0700000003,"y":2563843.0600000005}},{"attributes":{"ID":15103,"DIS_CODE":0,"TOWNNAME":"麻豆區","LI":"磚井里","LIN":"14鄰","STREET":" ","SECT":" ","MAREA":"磚子井","LANE":" ","ALLEY":" ","HOUSE_NO":"１４０號之１４","E_COORD97":172927.17000000001,"N_COORD97":2563843.3300000001,"ADDRESS":"磚子井１４０號之１４","OBJECTID":15103},"geometry":{"x":172927.17000000086,"y":2563843.3300000019}},{"attributes":{"ID":15104,"DIS_CODE":0,"TOWNNAME":"麻豆區","LI":"磚井里","LIN":"14鄰","STREET":" ","SECT":" ","MAREA":"磚子井","LANE":" ","ALLEY":" ","HOUSE_NO":"１４０號之１５","E_COORD97":172932.37,"N_COORD97":2563845.27,"ADDRESS":"磚子井１４０號之１５","OBJECTID":15104},"geometry":{"x":172932.37000000104,"y":2563845.2699999977}},{"attributes":{"ID":15105,"DIS_CODE":0,"TOWNNAME":"麻豆區","LI":"磚井里","LIN":"14鄰","STREET":" ","SECT":" ","MAREA":"磚子井","LANE":" ","ALLEY":" ","HOUSE_NO":"１４０號之１６","E_COORD97":172937.19,"N_COORD97":2563846.0499999998,"ADDRESS":"磚子井１４０號之１６","OBJECTID":15105},"geometry":{"x":172937.19000000134,"y":2563846.0500000026}},{"attributes":{"ID":15106,"DIS_CODE":0,"TOWNNAME":"麻豆區","LI":"磚井里","LIN":"14鄰","STREET":" ","SECT":" ","MAREA":"磚子井","LANE":" ","ALLEY":" ","HOUSE_NO":"１４０號之１７","E_COORD97":172942.10000000001,"N_COORD97":2563846.54,"ADDRESS":"磚子井１４０號之１７","OBJECTID":15106},"geometry":{"x":172942.10000000056,"y":2563846.5400000028}},{"attributes":{"ID":15107,"DIS_CODE":0,"TOWNNAME":"永康區","LI":"大橋里","LIN":"24鄰","STREET":"大橋一街","SECT":" ","MAREA":" ","LANE":"２２３巷","ALLEY":"６弄","HOUSE_NO":"１１號","E_COORD97":171205.29999999999,"N_COORD97":2546739.75,"ADDRESS":"大橋一街２２３巷６弄１１號","OBJECTID":15107},"geometry":{"x":171205.30000000075,"y":2546739.7500000019}},{"attributes":{"ID":15108,"DIS_CODE":0,"TOWNNAME":"麻豆區","LI":"磚井里","LIN":"14鄰","STREET":" ","SECT":" ","MAREA":"磚子井","LANE":" ","ALLEY":" ","HOUSE_NO":"１４０號之１８","E_COORD97":172947.16,"N_COORD97":2563847.4399999999,"ADDRESS":"磚子井１４０號之１８","OBJECTID":15108},"geometry":{"x":172947.16000000201,"y":2563847.4399999976}},{"attributes":{"ID":15109,"DIS_CODE":0,"TOWNNAME":"麻豆區","LI":"磚井里","LIN":"14鄰","STREET":" ","SECT":" ","MAREA":"磚子井","LANE":" ","ALLEY":" ","HOUSE_NO":"１４０號之１９","E_COORD97":172952.35999999999,"N_COORD97":2563848,"ADDRESS":"磚子井１４０號之１９","OBJECTID":15109},"geometry":{"x":172952.36000000034,"y":2563848.0000000037}},{"attributes":{"ID":15110,"DIS_CODE":0,"TOWNNAME":"麻豆區","LI":"磚井里","LIN":"14鄰","STREET":" ","SECT":" ","MAREA":"磚子井","LANE":" ","ALLEY":" ","HOUSE_NO":"１４０號之１","E_COORD97":172892.70000000001,"N_COORD97":2563865.5600000001,"ADDRESS":"磚子井１４０號之１","OBJECTID":15110},"geometry":{"x":172892.70000000112,"y":2563865.5600000024}},{"attributes":{"ID":15111,"DIS_CODE":0,"TOWNNAME":"麻豆區","LI":"磚井里","LIN":"14鄰","STREET":" ","SECT":" ","MAREA":"磚子井","LANE":" ","ALLEY":" ","HOUSE_NO":"１４０號之２０","E_COORD97":172961.60000000001,"N_COORD97":2563867.71,"ADDRESS":"磚子井１４０號之２０","OBJECTID":15111},"geometry":{"x":172961.59999999963,"y":2563867.7100000046}},{"attributes":{"ID":15112,"DIS_CODE":0,"TOWNNAME":"新營區","LI":"新東里","LIN":"4鄰","STREET":"東大街","SECT":" ","MAREA":" ","LANE":"５２巷","ALLEY":"２弄","HOUSE_NO":"２８號","E_COORD97":181071.19,"N_COORD97":2579088.1899999999,"ADDRESS":"東大街５２巷２弄２８號","OBJECTID":15112},"geometry":{"x":181071.19000000134,"y":2579088.1899999995}},{"attributes":{"ID":15113,"DIS_CODE":0,"TOWNNAME":"新營區","LI":"忠政里","LIN":"13鄰","STREET":"中正路","SECT":" ","MAREA":" ","LANE":"１０７巷","ALLEY":"４０弄","HOUSE_NO":"３號","E_COORD97":179925.31,"N_COORD97":2579711.52,"ADDRESS":"中正路１０７巷４０弄３號","OBJECTID":15113},"geometry":{"x":179925.31000000052,"y":2579711.5200000014}},{"attributes":{"ID":15114,"DIS_CODE":0,"TOWNNAME":"麻豆區","LI":"磚井里","LIN":"14鄰","STREET":" ","SECT":" ","MAREA":"磚子井","LANE":" ","ALLEY":" ","HOUSE_NO":"１４０號之２１","E_COORD97":172963.03,"N_COORD97":2563861.4199999999,"ADDRESS":"磚子井１４０號之２１","OBJECTID":15114},"geometry":{"x":172963.03000000026,"y":2563861.4199999999}},{"attributes":{"ID":15115,"DIS_CODE":0,"TOWNNAME":"永康區","LI":"西勢里","LIN":"24鄰","STREET":"廣興街","SECT":" ","MAREA":" ","LANE":"３８巷","ALLEY":"２５弄","HOUSE_NO":"４９號","E_COORD97":176064.12,"N_COORD97":2546562.1099999999,"ADDRESS":"廣興街３８巷２５弄４９號","OBJECTID":15115},"geometry":{"x":176064.12000000011,"y":2546562.1099999975}},{"attributes":{"ID":15116,"DIS_CODE":0,"TOWNNAME":"麻豆區","LI":"磚井里","LIN":"14鄰","STREET":" ","SECT":" ","MAREA":"磚子井","LANE":" ","ALLEY":" ","HOUSE_NO":"１４０號之２２","E_COORD97":172963.89000000001,"N_COORD97":2563856.4199999999,"ADDRESS":"磚子井１４０號之２２","OBJECTID":15116},"geometry":{"x":172963.8900000006,"y":2563856.4200000018}},{"attributes":{"ID":15117,"DIS_CODE":0,"TOWNNAME":"麻豆區","LI":"磚井里","LIN":"14鄰","STREET":" ","SECT":" ","MAREA":"磚子井","LANE":" ","ALLEY":" ","HOUSE_NO":"１４０號之２３","E_COORD97":172963.17000000001,"N_COORD97":2563848.75,"ADDRESS":"磚子井１４０號之２３","OBJECTID":15117},"geometry":{"x":172963.16999999993,"y":2563848.75}},{"attributes":{"ID":15118,"DIS_CODE":0,"TOWNNAME":"麻豆區","LI":"磚井里","LIN":"14鄰","STREET":" ","SECT":" ","MAREA":"磚子井","LANE":" ","ALLEY":" ","HOUSE_NO":"１４０號之２４","E_COORD97":172967.17000000001,"N_COORD97":2563849.3100000001,"ADDRESS":"磚子井１４０號之２４","OBJECTID":15118},"geometry":{"x":172967.17000000179,"y":2563849.3100000005}},{"attributes":{"ID":15119,"DIS_CODE":0,"TOWNNAME":"麻豆區","LI":"磚井里","LIN":"14鄰","STREET":" ","SECT":" ","MAREA":"磚子井","LANE":" ","ALLEY":" ","HOUSE_NO":"１４０號之２５","E_COORD97":172972.73000000001,"N_COORD97":2563851.1699999999,"ADDRESS":"磚子井１４０號之２５","OBJECTID":15119},"geometry":{"x":172972.73000000138,"y":2563851.1700000018}},{"attributes":{"ID":15120,"DIS_CODE":0,"TOWNNAME":"麻豆區","LI":"磚井里","LIN":"14鄰","STREET":" ","SECT":" ","MAREA":"磚子井","LANE":" ","ALLEY":" ","HOUSE_NO":"１４０號之２６","E_COORD97":172977.53,"N_COORD97":2563851.75,"ADDRESS":"磚子井１４０號之２６","OBJECTID":15120},"geometry":{"x":172977.53000000119,"y":2563851.75}},{"attributes":{"ID":15121,"DIS_CODE":0,"TOWNNAME":"麻豆區","LI":"磚井里","LIN":"14鄰","STREET":" ","SECT":" ","MAREA":"磚子井","LANE":" ","ALLEY":" ","HOUSE_NO":"１４０號之２７","E_COORD97":172983.06,"N_COORD97":2563851.9700000002,"ADDRESS":"磚子井１４０號之２７","OBJECTID":15121},"geometry":{"x":172983.06000000052,"y":2563851.9700000044}},{"attributes":{"ID":15122,"DIS_CODE":0,"TOWNNAME":"麻豆區","LI":"磚井里","LIN":"14鄰","STREET":" ","SECT":" ","MAREA":"磚子井","LANE":" ","ALLEY":" ","HOUSE_NO":"１４０號之２８","E_COORD97":172988.13,"N_COORD97":2563852.6600000001,"ADDRESS":"磚子井１４０號之２８","OBJECTID":15122},"geometry":{"x":172988.13000000082,"y":2563852.6600000001}},{"attributes":{"ID":15123,"DIS_CODE":0,"TOWNNAME":"麻豆區","LI":"磚井里","LIN":"14鄰","STREET":" ","SECT":" ","MAREA":"磚子井","LANE":" ","ALLEY":" ","HOUSE_NO":"１４０號之２９","E_COORD97":172993.92000000001,"N_COORD97":2563853.0499999998,"ADDRESS":"磚子井１４０號之２９","OBJECTID":15123},"geometry":{"x":172993.91999999993,"y":2563853.0500000026}},{"attributes":{"ID":15124,"DIS_CODE":0,"TOWNNAME":"永康區","LI":"正強里","LIN":"24鄰","STREET":"中正路","SECT":" ","MAREA":" ","LANE":"１２７巷","ALLEY":"２４弄","HOUSE_NO":"１號","E_COORD97":173366.54999999999,"N_COORD97":2547793.3399999999,"ADDRESS":"中正路１２７巷２４弄１號","OBJECTID":15124},"geometry":{"x":173366.55000000075,"y":2547793.3400000017}},{"attributes":{"ID":15125,"DIS_CODE":0,"TOWNNAME":"永康區","LI":"北灣里","LIN":"24鄰","STREET":"大灣路","SECT":" ","MAREA":" ","LANE":"３７巷","ALLEY":"３０弄","HOUSE_NO":"３０號","E_COORD97":175431.42000000001,"N_COORD97":2545785.4700000002,"ADDRESS":"大灣路３７巷３０弄３０號","OBJECTID":15125},"geometry":{"x":175431.41999999993,"y":2545785.4700000025}},{"attributes":{"ID":15126,"DIS_CODE":0,"TOWNNAME":"新營區","LI":"新南里","LIN":"25鄰","STREET":"復興路","SECT":" ","MAREA":" ","LANE":"６２０巷","ALLEY":"６４弄","HOUSE_NO":"３６號","E_COORD97":178125.23000000001,"N_COORD97":2578530.0899999999,"ADDRESS":"復興路６２０巷６４弄３６號","OBJECTID":15126},"geometry":{"x":178125.23000000045,"y":2578530.0899999999}},{"attributes":{"ID":15127,"DIS_CODE":0,"TOWNNAME":"南區","LI":"明亮里","LIN":"24鄰","STREET":"金華路","SECT":"一段","MAREA":" ","LANE":"４８４巷","ALLEY":"３２弄","HOUSE_NO":"１號","E_COORD97":167100.70000000001,"N_COORD97":2541451.4300000002,"ADDRESS":"金華路一段４８４巷３２弄１號","OBJECTID":15127},"geometry":{"x":167100.70000000112,"y":2541451.4300000016}},{"attributes":{"ID":15128,"DIS_CODE":0,"TOWNNAME":"永康區","LI":"大橋里","LIN":"13鄰","STREET":"大橋二街","SECT":" ","MAREA":" ","LANE":"２３９巷","ALLEY":" ","HOUSE_NO":"２號","E_COORD97":171108.72,"N_COORD97":2546829,"ADDRESS":"大橋二街２３９巷２號","OBJECTID":15128},"geometry":{"x":171108.7200000016,"y":2546829.0000000019}},{"attributes":{"ID":15129,"DIS_CODE":0,"TOWNNAME":"白河區","LI":"外角里","LIN":"13鄰","STREET":"三民路","SECT":" ","MAREA":" ","LANE":" ","ALLEY":" ","HOUSE_NO":"２４２之１號","E_COORD97":190793.22,"N_COORD97":2583312.1800000002,"ADDRESS":"三民路２４２之１號","OBJECTID":15129},"geometry":{"x":190793.2200000016,"y":2583312.1799999997}},{"attributes":{"ID":15130,"DIS_CODE":0,"TOWNNAME":"白河區","LI":"外角里","LIN":"13鄰","STREET":"三民路","SECT":" ","MAREA":" ","LANE":" ","ALLEY":" ","HOUSE_NO":"２４６號","E_COORD97":190789.13,"N_COORD97":2583311.79,"ADDRESS":"三民路２４６號","OBJECTID":15130},"geometry":{"x":190789.13000000082,"y":2583311.7899999991}},{"attributes":{"ID":15131,"DIS_CODE":0,"TOWNNAME":"白河區","LI":"外角里","LIN":"13鄰","STREET":"三民路","SECT":" ","MAREA":" ","LANE":" ","ALLEY":" ","HOUSE_NO":"２４８號","E_COORD97":190785.04999999999,"N_COORD97":2583311.3900000001,"ADDRESS":"三民路２４８號","OBJECTID":15131},"geometry":{"x":190785.05000000075,"y":2583311.3900000025}},{"attributes":{"ID":15132,"DIS_CODE":0,"TOWNNAME":"白河區","LI":"外角里","LIN":"13鄰","STREET":"三民路","SECT":" ","MAREA":" ","LANE":" ","ALLEY":" ","HOUSE_NO":"２５０號","E_COORD97":190780.95999999999,"N_COORD97":2583311,"ADDRESS":"三民路２５０號","OBJECTID":15132},"geometry":{"x":190780.95999999996,"y":2583311}},{"attributes":{"ID":15133,"DIS_CODE":0,"TOWNNAME":"白河區","LI":"外角里","LIN":"13鄰","STREET":"三民路","SECT":" ","MAREA":" ","LANE":" ","ALLEY":" ","HOUSE_NO":"２５２號","E_COORD97":190776.87,"N_COORD97":2583310.6099999999,"ADDRESS":"三民路２５２號","OBJECTID":15133},"geometry":{"x":190776.87000000011,"y":2583310.6100000031}},{"attributes":{"ID":15134,"DIS_CODE":0,"TOWNNAME":"白河區","LI":"外角里","LIN":"13鄰","STREET":"三民路","SECT":" ","MAREA":" ","LANE":" ","ALLEY":" ","HOUSE_NO":"２５４號","E_COORD97":190772.78,"N_COORD97":2583310.21,"ADDRESS":"三民路２５４號","OBJECTID":15134},"geometry":{"x":190772.78000000026,"y":2583310.2100000009}},{"attributes":{"ID":15135,"DIS_CODE":0,"TOWNNAME":"新營區","LI":"姑爺里","LIN":"4鄰","STREET":" ","SECT":" ","MAREA":"姑爺","LANE":" ","ALLEY":" ","HOUSE_NO":"３６號","E_COORD97":174275.44,"N_COORD97":2574257.4100000001,"ADDRESS":"姑爺３６號","OBJECTID":15135},"geometry":{"x":174275.44000000041,"y":2574257.410000002}},{"attributes":{"ID":15136,"DIS_CODE":0,"TOWNNAME":"白河區","LI":"永安里","LIN":"13鄰","STREET":"三民路","SECT":" ","MAREA":" ","LANE":" ","ALLEY":" ","HOUSE_NO":"４０８號","E_COORD97":190323.57000000001,"N_COORD97":2583319.1899999999,"ADDRESS":"三民路４０８號","OBJECTID":15136},"geometry":{"x":190323.57000000216,"y":2583319.1899999995}},{"attributes":{"ID":15137,"DIS_CODE":0,"TOWNNAME":"善化區","LI":"嘉北里","LIN":"13鄰","STREET":" ","SECT":" ","MAREA":"茄拔","LANE":" ","ALLEY":" ","HOUSE_NO":"２８０之１２號","E_COORD97":180682.39999999999,"N_COORD97":2559697.52,"ADDRESS":"茄拔２８０之１２號","OBJECTID":15137},"geometry":{"x":180682.39999999944,"y":2559697.5200000033}},{"attributes":{"ID":15138,"DIS_CODE":0,"TOWNNAME":"南區","LI":"明亮里","LIN":"24鄰","STREET":"金華路","SECT":"一段","MAREA":" ","LANE":"４８４巷","ALLEY":"３２弄","HOUSE_NO":"３號","E_COORD97":167098.29999999999,"N_COORD97":2541447.1099999999,"ADDRESS":"金華路一段４８４巷３２弄３號","OBJECTID":15138},"geometry":{"x":167098.29999999981,"y":2541447.1100000013}},{"attributes":{"ID":15139,"DIS_CODE":0,"TOWNNAME":"善化區","LI":"嘉北里","LIN":"13鄰","STREET":" ","SECT":" ","MAREA":"茄拔","LANE":" ","ALLEY":" ","HOUSE_NO":"２８０號之８","E_COORD97":180687.75,"N_COORD97":2559713.02,"ADDRESS":"茄拔２８０號之８","OBJECTID":15139},"geometry":{"x":180687.75,"y":2559713.0199999996}},{"attributes":{"ID":15140,"DIS_CODE":0,"TOWNNAME":"善化區","LI":"胡厝里","LIN":"13鄰","STREET":" ","SECT":" ","MAREA":"胡厝寮","LANE":" ","ALLEY":" ","HOUSE_NO":"２２７號之３","E_COORD97":175010.06,"N_COORD97":2560225.77,"ADDRESS":"胡厝寮２２７號之３","OBJECTID":15140},"geometry":{"x":175010.05999999866,"y":2560225.7700000014}},{"attributes":{"ID":15141,"DIS_CODE":0,"TOWNNAME":"善化區","LI":"嘉北里","LIN":"13鄰","STREET":" ","SECT":" ","MAREA":"茄拔","LANE":" ","ALLEY":" ","HOUSE_NO":"２８０號之１０","E_COORD97":180685.25,"N_COORD97":2559705.02,"ADDRESS":"茄拔２８０號之１０","OBJECTID":15141},"geometry":{"x":180685.25000000093,"y":2559705.0200000014}},{"attributes":{"ID":15142,"DIS_CODE":0,"TOWNNAME":"善化區","LI":"嘉北里","LIN":"13鄰","STREET":" ","SECT":" ","MAREA":"茄拔","LANE":" ","ALLEY":" ","HOUSE_NO":"２８０號之９","E_COORD97":180686.35999999999,"N_COORD97":2559709.27,"ADDRESS":"茄拔２８０號之９","OBJECTID":15142},"geometry":{"x":180686.36000000127,"y":2559709.2700000033}},{"attributes":{"ID":15143,"DIS_CODE":0,"TOWNNAME":"南區","LI":"明亮里","LIN":"24鄰","STREET":"金華路","SECT":"一段","MAREA":" ","LANE":"４８４巷","ALLEY":"３２弄","HOUSE_NO":"５號","E_COORD97":167096.38,"N_COORD97":2541444.23,"ADDRESS":"金華路一段４８４巷３２弄５號","OBJECTID":15143},"geometry":{"x":167096.37999999989,"y":2541444.2300000023}},{"attributes":{"ID":15144,"DIS_CODE":0,"TOWNNAME":"南區","LI":"明亮里","LIN":"24鄰","STREET":"金華路","SECT":"一段","MAREA":" ","LANE":"４８４巷","ALLEY":"３２弄","HOUSE_NO":"６號","E_COORD97":167078.60999999999,"N_COORD97":2541437.52,"ADDRESS":"金華路一段４８４巷３２弄６號","OBJECTID":15144},"geometry":{"x":167078.61000000034,"y":2541437.5200000014}},{"attributes":{"ID":15145,"DIS_CODE":0,"TOWNNAME":"南區","LI":"明亮里","LIN":"24鄰","STREET":"金華路","SECT":"一段","MAREA":" ","LANE":"４８４巷","ALLEY":"３２弄","HOUSE_NO":"７號","E_COORD97":167093.98000000001,"N_COORD97":2541440.3999999999,"ADDRESS":"金華路一段４８４巷３２弄７號","OBJECTID":15145},"geometry":{"x":167093.98000000138,"y":2541440.4000000004}},{"attributes":{"ID":15146,"DIS_CODE":0,"TOWNNAME":"南區","LI":"明亮里","LIN":"24鄰","STREET":"金華路","SECT":"一段","MAREA":" ","LANE":"４８４巷","ALLEY":"３２弄","HOUSE_NO":"８號","E_COORD97":167077.64999999999,"N_COORD97":2541433.6800000002,"ADDRESS":"金華路一段４８４巷３２弄８號","OBJECTID":15146},"geometry":{"x":167077.6500000013,"y":2541433.6800000016}},{"attributes":{"ID":15147,"DIS_CODE":0,"TOWNNAME":"南區","LI":"明亮里","LIN":"24鄰","STREET":"金華路","SECT":"一段","MAREA":" ","LANE":"４８４巷","ALLEY":"３２弄","HOUSE_NO":"９號","E_COORD97":167092.06,"N_COORD97":2541438,"ADDRESS":"金華路一段４８４巷３２弄９號","OBJECTID":15147},"geometry":{"x":167092.06000000145,"y":2541438.0000000019}},{"attributes":{"ID":15148,"DIS_CODE":0,"TOWNNAME":"安南區","LI":"大安里","LIN":"13鄰","STREET":"義安街","SECT":" ","MAREA":" ","LANE":" ","ALLEY":" ","HOUSE_NO":"４０號","E_COORD97":167382.32999999999,"N_COORD97":2547955.2200000002,"ADDRESS":"義安街４０號","OBJECTID":15148},"geometry":{"x":167382.33000000194,"y":2547955.2200000007}},{"attributes":{"ID":15149,"DIS_CODE":0,"TOWNNAME":"安南區","LI":"大安里","LIN":"13鄰","STREET":"義安街","SECT":" ","MAREA":" ","LANE":" ","ALLEY":" ","HOUSE_NO":"４２號","E_COORD97":167383.72,"N_COORD97":2547959.3799999999,"ADDRESS":"義安街４２號","OBJECTID":15149},"geometry":{"x":167383.71999999974,"y":2547959.379999999}},{"attributes":{"ID":15150,"DIS_CODE":0,"TOWNNAME":"善化區","LI":"胡厝里","LIN":"13鄰","STREET":" ","SECT":" ","MAREA":"胡厝寮","LANE":" ","ALLEY":" ","HOUSE_NO":"２２０號之２","E_COORD97":175093.56,"N_COORD97":2560336.5099999998,"ADDRESS":"胡厝寮２２０號之２","OBJECTID":15150},"geometry":{"x":175093.56000000052,"y":2560336.5100000016}},{"attributes":{"ID":15151,"DIS_CODE":0,"TOWNNAME":"善化區","LI":"嘉北里","LIN":"13鄰","STREET":" ","SECT":" ","MAREA":"茄拔","LANE":" ","ALLEY":" ","HOUSE_NO":"２８０號之１５","E_COORD97":180678.14999999999,"N_COORD97":2559685.52,"ADDRESS":"茄拔２８０號之１５","OBJECTID":15151},"geometry":{"x":180678.1500000013,"y":2559685.5199999996}},{"attributes":{"ID":15152,"DIS_CODE":0,"TOWNNAME":"善化區","LI":"溪美里","LIN":"13鄰","STREET":" ","SECT":" ","MAREA":"溪尾","LANE":" ","ALLEY":" ","HOUSE_NO":"１１６之２１號","E_COORD97":176874.01000000001,"N_COORD97":2561493.52,"ADDRESS":"溪尾１１６之２１號","OBJECTID":15152},"geometry":{"x":176874.01000000071,"y":2561493.5199999996}},{"attributes":{"ID":15153,"DIS_CODE":0,"TOWNNAME":"麻豆區","LI":"磚井里","LIN":"14鄰","STREET":" ","SECT":" ","MAREA":"磚子井","LANE":" ","ALLEY":" ","HOUSE_NO":"１４０號之２","E_COORD97":172891.72,"N_COORD97":2563861.5899999999,"ADDRESS":"磚子井１４０號之２","OBJECTID":15153},"geometry":{"x":172891.71999999974,"y":2563861.5900000017}},{"attributes":{"ID":15154,"DIS_CODE":0,"TOWNNAME":"麻豆區","LI":"磚井里","LIN":"14鄰","STREET":" ","SECT":" ","MAREA":"磚子井","LANE":" ","ALLEY":" ","HOUSE_NO":"１４０號之３０","E_COORD97":172998.42000000001,"N_COORD97":2563853.6800000002,"ADDRESS":"磚子井１４０號之３０","OBJECTID":15154},"geometry":{"x":172998.42000000086,"y":2563853.6800000016}},{"attributes":{"ID":15155,"DIS_CODE":0,"TOWNNAME":"麻豆區","LI":"磚井里","LIN":"14鄰","STREET":" ","SECT":" ","MAREA":"磚子井","LANE":" ","ALLEY":" ","HOUSE_NO":"１４０號之３１","E_COORD97":172987.48000000001,"N_COORD97":2563858.8500000001,"ADDRESS":"磚子井１４０號之３１","OBJECTID":15155},"geometry":{"x":172987.47999999952,"y":2563858.8500000034}},{"attributes":{"ID":15156,"DIS_CODE":0,"TOWNNAME":"安南區","LI":"大安里","LIN":"13鄰","STREET":"義安街","SECT":" ","MAREA":" ","LANE":" ","ALLEY":" ","HOUSE_NO":"５４號","E_COORD97":167398.13,"N_COORD97":2547982.7200000002,"ADDRESS":"義安街５４號","OBJECTID":15156},"geometry":{"x":167398.12999999989,"y":2547982.7200000007}},{"attributes":{"ID":15157,"DIS_CODE":0,"TOWNNAME":"安南區","LI":"大安里","LIN":"13鄰","STREET":"義安街","SECT":" ","MAREA":" ","LANE":" ","ALLEY":" ","HOUSE_NO":"５８號","E_COORD97":167403.75,"N_COORD97":2547990.3799999999,"ADDRESS":"義安街５８號","OBJECTID":15157},"geometry":{"x":167403.75000000093,"y":2547990.379999999}},{"attributes":{"ID":15158,"DIS_CODE":0,"TOWNNAME":"安南區","LI":"大安里","LIN":"13鄰","STREET":"義安街","SECT":" ","MAREA":" ","LANE":" ","ALLEY":" ","HOUSE_NO":"６０號","E_COORD97":167411.01000000001,"N_COORD97":2547991.6000000001,"ADDRESS":"義安街６０號","OBJECTID":15158},"geometry":{"x":167411.00999999978,"y":2547991.6000000015}},{"attributes":{"ID":15159,"DIS_CODE":0,"TOWNNAME":"安南區","LI":"大安里","LIN":"13鄰","STREET":"義安街","SECT":" ","MAREA":" ","LANE":" ","ALLEY":" ","HOUSE_NO":"６６號","E_COORD97":167413.88,"N_COORD97":2548005.8500000001,"ADDRESS":"義安街６６號","OBJECTID":15159},"geometry":{"x":167413.88000000175,"y":2548005.8500000015}},{"attributes":{"ID":15160,"DIS_CODE":0,"TOWNNAME":"安南區","LI":"大安里","LIN":"13鄰","STREET":"義安街","SECT":" ","MAREA":" ","LANE":" ","ALLEY":" ","HOUSE_NO":"６９號","E_COORD97":167394.56,"N_COORD97":2548019.5299999998,"ADDRESS":"義安街６９號","OBJECTID":15160},"geometry":{"x":167394.55999999959,"y":2548019.5299999993}},{"attributes":{"ID":15161,"DIS_CODE":0,"TOWNNAME":"安南區","LI":"大安里","LIN":"13鄰","STREET":"義安街","SECT":" ","MAREA":" ","LANE":" ","ALLEY":" ","HOUSE_NO":"７７號","E_COORD97":167405.04000000001,"N_COORD97":2548033.8700000001,"ADDRESS":"義安街７７號","OBJECTID":15161},"geometry":{"x":167405.04000000097,"y":2548033.8700000048}},{"attributes":{"ID":15162,"DIS_CODE":0,"TOWNNAME":"善化區","LI":"田寮里","LIN":"13鄰","STREET":" ","SECT":" ","MAREA":"六分寮","LANE":" ","ALLEY":" ","HOUSE_NO":"１４１號之２","E_COORD97":178697.35000000001,"N_COORD97":2561207.52,"ADDRESS":"六分寮１４１號之２","OBJECTID":15162},"geometry":{"x":178697.35000000056,"y":2561207.5200000014}},{"attributes":{"ID":15163,"DIS_CODE":0,"TOWNNAME":"善化區","LI":"田寮里","LIN":"13鄰","STREET":" ","SECT":" ","MAREA":"六分寮","LANE":" ","ALLEY":" ","HOUSE_NO":"１４１號之１２","E_COORD97":178676.37,"N_COORD97":2561228.77,"ADDRESS":"六分寮１４１號之１２","OBJECTID":15163},"geometry":{"x":178676.37000000011,"y":2561228.7700000014}},{"attributes":{"ID":15164,"DIS_CODE":0,"TOWNNAME":"善化區","LI":"田寮里","LIN":"13鄰","STREET":" ","SECT":" ","MAREA":"六分寮","LANE":" ","ALLEY":" ","HOUSE_NO":"１４１號之１","E_COORD97":178701.34,"N_COORD97":2561208.77,"ADDRESS":"六分寮１４１號之１","OBJECTID":15164},"geometry":{"x":178701.34000000078,"y":2561208.7700000014}},{"attributes":{"ID":15165,"DIS_CODE":0,"TOWNNAME":"安定區","LI":"安加里","LIN":"13鄰","STREET":" ","SECT":" ","MAREA":"安定","LANE":" ","ALLEY":" ","HOUSE_NO":"３１４號","E_COORD97":171660.12,"N_COORD97":2557485.3199999998,"ADDRESS":"安定３１４號","OBJECTID":15165},"geometry":{"x":171660.12000000011,"y":2557485.3199999984}},{"attributes":{"ID":15166,"DIS_CODE":0,"TOWNNAME":"南區","LI":"明亮里","LIN":"24鄰","STREET":"金華路","SECT":"一段","MAREA":" ","LANE":"４８４巷","ALLEY":"３２弄","HOUSE_NO":"１０號","E_COORD97":167075.73000000001,"N_COORD97":2541429.3700000001,"ADDRESS":"金華路一段４８４巷３２弄１０號","OBJECTID":15166},"geometry":{"x":167075.73000000045,"y":2541429.3700000048}},{"attributes":{"ID":15167,"DIS_CODE":0,"TOWNNAME":"麻豆區","LI":"磚井里","LIN":"14鄰","STREET":" ","SECT":" ","MAREA":"磚子井","LANE":" ","ALLEY":" ","HOUSE_NO":"１４０號之３２","E_COORD97":172986.57999999999,"N_COORD97":2563864.0099999998,"ADDRESS":"磚子井１４０號之３２","OBJECTID":15167},"geometry":{"x":172986.58000000194,"y":2563864.0099999998}},{"attributes":{"ID":15168,"DIS_CODE":0,"TOWNNAME":"麻豆區","LI":"磚井里","LIN":"14鄰","STREET":" ","SECT":" ","MAREA":"磚子井","LANE":" ","ALLEY":" ","HOUSE_NO":"１４０號之３３","E_COORD97":172985.98000000001,"N_COORD97":2563868.7000000002,"ADDRESS":"磚子井１４０號之３３","OBJECTID":15168},"geometry":{"x":172985.98000000231,"y":2563868.6999999993}},{"attributes":{"ID":15169,"DIS_CODE":0,"TOWNNAME":"麻豆區","LI":"磚井里","LIN":"14鄰","STREET":" ","SECT":" ","MAREA":"磚子井","LANE":" ","ALLEY":" ","HOUSE_NO":"１４０號之３４","E_COORD97":173008.60999999999,"N_COORD97":2563878.0600000001,"ADDRESS":"磚子井１４０號之３４","OBJECTID":15169},"geometry":{"x":173008.6100000022,"y":2563878.0600000005}},{"attributes":{"ID":15170,"DIS_CODE":0,"TOWNNAME":"南區","LI":"明亮里","LIN":"24鄰","STREET":"金華路","SECT":"一段","MAREA":" ","LANE":"４８４巷","ALLEY":"３２弄","HOUSE_NO":"１１號","E_COORD97":167090.14000000001,"N_COORD97":2541434.1600000001,"ADDRESS":"金華路一段４８４巷３２弄１１號","OBJECTID":15170},"geometry":{"x":167090.1400000006,"y":2541434.160000002}},{"attributes":{"ID":15171,"DIS_CODE":0,"TOWNNAME":"麻豆區","LI":"磚井里","LIN":"14鄰","STREET":" ","SECT":" ","MAREA":"磚子井","LANE":" ","ALLEY":" ","HOUSE_NO":"１４０號之３５","E_COORD97":173009.28,"N_COORD97":2563873.3900000001,"ADDRESS":"磚子井１４０號之３５","OBJECTID":15171},"geometry":{"x":173009.28000000119,"y":2563873.3900000025}},{"attributes":{"ID":15172,"DIS_CODE":0,"TOWNNAME":"麻豆區","LI":"磚井里","LIN":"14鄰","STREET":" ","SECT":" ","MAREA":"磚子井","LANE":" ","ALLEY":" ","HOUSE_NO":"１４０號之３６","E_COORD97":173009.76000000001,"N_COORD97":2563867.6200000001,"ADDRESS":"磚子井１４０號之３６","OBJECTID":15172},"geometry":{"x":173009.75999999978,"y":2563867.620000001}},{"attributes":{"ID":15173,"DIS_CODE":0,"TOWNNAME":"麻豆區","LI":"磚井里","LIN":"14鄰","STREET":" ","SECT":" ","MAREA":"磚子井","LANE":" ","ALLEY":" ","HOUSE_NO":"１４０號之３７","E_COORD97":173010.51000000001,"N_COORD97":2563862.4500000002,"ADDRESS":"磚子井１４０號之３７","OBJECTID":15173},"geometry":{"x":173010.51000000164,"y":2563862.4500000011}},{"attributes":{"ID":15174,"DIS_CODE":0,"TOWNNAME":"南區","LI":"明亮里","LIN":"24鄰","STREET":"金華路","SECT":"一段","MAREA":" ","LANE":"４８４巷","ALLEY":"３２弄","HOUSE_NO":"１２號","E_COORD97":167074.29000000001,"N_COORD97":2541425.5299999998,"ADDRESS":"金華路一段４８４巷３２弄１２號","OBJECTID":15174},"geometry":{"x":167074.29000000097,"y":2541425.5299999993}},{"attributes":{"ID":15175,"DIS_CODE":0,"TOWNNAME":"麻豆區","LI":"磚井里","LIN":"14鄰","STREET":" ","SECT":" ","MAREA":"磚子井","LANE":" ","ALLEY":" ","HOUSE_NO":"１４０號之３９","E_COORD97":173010.57000000001,"N_COORD97":2563849.3799999999,"ADDRESS":"磚子井１４０號之３９","OBJECTID":15175},"geometry":{"x":173010.57000000216,"y":2563849.379999999}},{"attributes":{"ID":15176,"DIS_CODE":0,"TOWNNAME":"麻豆區","LI":"磚井里","LIN":"14鄰","STREET":" ","SECT":" ","MAREA":"磚子井","LANE":" ","ALLEY":" ","HOUSE_NO":"１４０號之３","E_COORD97":172890.63,"N_COORD97":2563857.23,"ADDRESS":"磚子井１４０號之３","OBJECTID":15176},"geometry":{"x":172890.62999999989,"y":2563857.2300000023}},{"attributes":{"ID":15177,"DIS_CODE":0,"TOWNNAME":"麻豆區","LI":"磚井里","LIN":"14鄰","STREET":" ","SECT":" ","MAREA":"磚子井","LANE":" ","ALLEY":" ","HOUSE_NO":"１４０號之４","E_COORD97":172889.70000000001,"N_COORD97":2563852.9300000002,"ADDRESS":"磚子井１４０號之４","OBJECTID":15177},"geometry":{"x":172889.70000000112,"y":2563852.9300000016}},{"attributes":{"ID":15178,"DIS_CODE":0,"TOWNNAME":"麻豆區","LI":"磚井里","LIN":"14鄰","STREET":" ","SECT":" ","MAREA":"磚子井","LANE":" ","ALLEY":" ","HOUSE_NO":"１４０號之６","E_COORD97":172885.09,"N_COORD97":2563843.04,"ADDRESS":"磚子井１４０號之６","OBJECTID":15178},"geometry":{"x":172885.09000000078,"y":2563843.0399999972}},{"attributes":{"ID":15179,"DIS_CODE":0,"TOWNNAME":"麻豆區","LI":"磚井里","LIN":"14鄰","STREET":" ","SECT":" ","MAREA":"磚子井","LANE":" ","ALLEY":" ","HOUSE_NO":"１４０號之７","E_COORD97":172883.95000000001,"N_COORD97":2563838.3599999999,"ADDRESS":"磚子井１４０號之７","OBJECTID":15179},"geometry":{"x":172883.94999999925,"y":2563838.3600000013}},{"attributes":{"ID":15180,"DIS_CODE":0,"TOWNNAME":"麻豆區","LI":"磚井里","LIN":"14鄰","STREET":" ","SECT":" ","MAREA":"磚子井","LANE":" ","ALLEY":" ","HOUSE_NO":"１４０號之８","E_COORD97":172882.95999999999,"N_COORD97":2563833.6299999999,"ADDRESS":"磚子井１４０號之８","OBJECTID":15180},"geometry":{"x":172882.95999999996,"y":2563833.6300000008}},{"attributes":{"ID":15181,"DIS_CODE":0,"TOWNNAME":"麻豆區","LI":"磚井里","LIN":"14鄰","STREET":" ","SECT":" ","MAREA":"磚子井","LANE":" ","ALLEY":" ","HOUSE_NO":"１４０號之９","E_COORD97":172881.76000000001,"N_COORD97":2563829.21,"ADDRESS":"磚子井１４０號之９","OBJECTID":15181},"geometry":{"x":172881.76000000071,"y":2563829.2100000009}},{"attributes":{"ID":15182,"DIS_CODE":0,"TOWNNAME":"麻豆區","LI":"磚井里","LIN":"14鄰","STREET":" ","SECT":" ","MAREA":"磚子井","LANE":" ","ALLEY":" ","HOUSE_NO":"１４０號","E_COORD97":172940.76000000001,"N_COORD97":2563869.21,"ADDRESS":"磚子井１４０號","OBJECTID":15182},"geometry":{"x":172940.75999999885,"y":2563869.2100000028}},{"attributes":{"ID":15183,"DIS_CODE":0,"TOWNNAME":"麻豆區","LI":"磚井里","LIN":"14鄰","STREET":" ","SECT":" ","MAREA":"磚子井","LANE":" ","ALLEY":" ","HOUSE_NO":"１４１號之１０","E_COORD97":172824.73000000001,"N_COORD97":2563454.3999999999,"ADDRESS":"磚子井１４１號之１０","OBJECTID":15183},"geometry":{"x":172824.72999999952,"y":2563454.4000000004}},{"attributes":{"ID":15184,"DIS_CODE":0,"TOWNNAME":"麻豆區","LI":"磚井里","LIN":"14鄰","STREET":" ","SECT":" ","MAREA":"磚子井","LANE":" ","ALLEY":" ","HOUSE_NO":"１４１號之１１","E_COORD97":172986.60999999999,"N_COORD97":2563801.8799999999,"ADDRESS":"磚子井１４１號之１１","OBJECTID":15184},"geometry":{"x":172986.6100000022,"y":2563801.879999999}},{"attributes":{"ID":15185,"DIS_CODE":0,"TOWNNAME":"南區","LI":"明亮里","LIN":"24鄰","STREET":"金華路","SECT":"一段","MAREA":" ","LANE":"４８４巷","ALLEY":"３２弄","HOUSE_NO":"１３號","E_COORD97":167088.22,"N_COORD97":2541429.3700000001,"ADDRESS":"金華路一段４８４巷３２弄１３號","OBJECTID":15185},"geometry":{"x":167088.22000000067,"y":2541429.3700000048}},{"attributes":{"ID":15186,"DIS_CODE":0,"TOWNNAME":"南區","LI":"明亮里","LIN":"24鄰","STREET":"金華路","SECT":"一段","MAREA":" ","LANE":"４８４巷","ALLEY":"３２弄","HOUSE_NO":"１４號","E_COORD97":167071.41,"N_COORD97":2541423.1299999999,"ADDRESS":"金華路一段４８４巷３２弄１４號","OBJECTID":15186},"geometry":{"x":167071.40999999922,"y":2541423.1300000008}},{"attributes":{"ID":15187,"DIS_CODE":0,"TOWNNAME":"南區","LI":"明亮里","LIN":"24鄰","STREET":"金華路","SECT":"一段","MAREA":" ","LANE":"４８４巷","ALLEY":"３２弄","HOUSE_NO":"１５號","E_COORD97":167085.82000000001,"N_COORD97":2541426.4900000002,"ADDRESS":"金華路一段４８４巷３２弄１５號","OBJECTID":15187},"geometry":{"x":167085.82000000216,"y":2541426.4900000002}},{"attributes":{"ID":15188,"DIS_CODE":0,"TOWNNAME":"南區","LI":"明亮里","LIN":"24鄰","STREET":"金華路","SECT":"一段","MAREA":" ","LANE":"４８４巷","ALLEY":"３２弄","HOUSE_NO":"１６號","E_COORD97":167069.48999999999,"N_COORD97":2541418.8100000001,"ADDRESS":"金華路一段４８４巷３２弄１６號","OBJECTID":15188},"geometry":{"x":167069.49000000209,"y":2541418.8100000042}},{"attributes":{"ID":15189,"DIS_CODE":0,"TOWNNAME":"善化區","LI":"坐駕里","LIN":"13鄰","STREET":"自立路","SECT":" ","MAREA":" ","LANE":" ","ALLEY":" ","HOUSE_NO":"８號","E_COORD97":178266.38,"N_COORD97":2558680,"ADDRESS":"自立路８號","OBJECTID":15189},"geometry":{"x":178266.37999999896,"y":2558680}},{"attributes":{"ID":15190,"DIS_CODE":0,"TOWNNAME":"南區","LI":"明亮里","LIN":"24鄰","STREET":"金華路","SECT":"一段","MAREA":" ","LANE":"４８４巷","ALLEY":"３２弄","HOUSE_NO":"１７號","E_COORD97":167083.41,"N_COORD97":2541423.6099999999,"ADDRESS":"金華路一段４８４巷３２弄１７號","OBJECTID":15190},"geometry":{"x":167083.41000000201,"y":2541423.6100000013}},{"attributes":{"ID":15191,"DIS_CODE":0,"TOWNNAME":"南區","LI":"明亮里","LIN":"24鄰","STREET":"金華路","SECT":"一段","MAREA":" ","LANE":"４８４巷","ALLEY":"３２弄","HOUSE_NO":"１８號","E_COORD97":167066.12,"N_COORD97":2541415.46,"ADDRESS":"金華路一段４８４巷３２弄１８號","OBJECTID":15191},"geometry":{"x":167066.12000000011,"y":2541415.4600000028}},{"attributes":{"ID":15192,"DIS_CODE":0,"TOWNNAME":"南區","LI":"明亮里","LIN":"24鄰","STREET":"金華路","SECT":"一段","MAREA":" ","LANE":"４８４巷","ALLEY":"３２弄","HOUSE_NO":"１９號","E_COORD97":167081.01000000001,"N_COORD97":2541419.77,"ADDRESS":"金華路一段４８４巷３２弄１９號","OBJECTID":15192},"geometry":{"x":167081.01000000071,"y":2541419.7700000014}},{"attributes":{"ID":15193,"DIS_CODE":0,"TOWNNAME":"南區","LI":"明亮里","LIN":"24鄰","STREET":"金華路","SECT":"一段","MAREA":" ","LANE":"４８４巷","ALLEY":"３２弄","HOUSE_NO":"２０號","E_COORD97":167063.72,"N_COORD97":2541411.1400000001,"ADDRESS":"金華路一段４８４巷３２弄２０號","OBJECTID":15193},"geometry":{"x":167063.71999999974,"y":2541411.1400000025}},{"attributes":{"ID":15194,"DIS_CODE":0,"TOWNNAME":"南區","LI":"明亮里","LIN":"24鄰","STREET":"金華路","SECT":"一段","MAREA":" ","LANE":"４８４巷","ALLEY":"３２弄","HOUSE_NO":"２１號","E_COORD97":167079.09,"N_COORD97":2541415.46,"ADDRESS":"金華路一段４８４巷３２弄２１號","OBJECTID":15194},"geometry":{"x":167079.09000000078,"y":2541415.4600000028}},{"attributes":{"ID":15195,"DIS_CODE":0,"TOWNNAME":"南區","LI":"明亮里","LIN":"24鄰","STREET":"金華路","SECT":"一段","MAREA":" ","LANE":"４８４巷","ALLEY":"３２弄","HOUSE_NO":"２３號","E_COORD97":167077.17000000001,"N_COORD97":2541412.5800000001,"ADDRESS":"金華路一段４８４巷３２弄２３號","OBJECTID":15195},"geometry":{"x":167077.16999999993,"y":2541412.5800000001}},{"attributes":{"ID":15196,"DIS_CODE":0,"TOWNNAME":"南區","LI":"明亮里","LIN":"24鄰","STREET":"金華路","SECT":"一段","MAREA":" ","LANE":"４８４巷","ALLEY":"３２弄","HOUSE_NO":"２５號","E_COORD97":167076.69,"N_COORD97":2541407.7799999998,"ADDRESS":"金華路一段４８４巷３２弄２５號","OBJECTID":15196},"geometry":{"x":167076.69000000227,"y":2541407.7800000031}},{"attributes":{"ID":15197,"DIS_CODE":0,"TOWNNAME":"南區","LI":"明亮里","LIN":"24鄰","STREET":"金華路","SECT":"一段","MAREA":" ","LANE":"４８４巷","ALLEY":"３２弄","HOUSE_NO":"２７號","E_COORD97":167075.73000000001,"N_COORD97":2541404.4300000002,"ADDRESS":"金華路一段４８４巷３２弄２７號","OBJECTID":15197},"geometry":{"x":167075.73000000045,"y":2541404.4300000016}},{"attributes":{"ID":15198,"DIS_CODE":0,"TOWNNAME":"南區","LI":"明亮里","LIN":"24鄰","STREET":"金華路","SECT":"一段","MAREA":" ","LANE":"４８４巷","ALLEY":"３２弄","HOUSE_NO":"２９號","E_COORD97":167072.37,"N_COORD97":2541400.5899999999,"ADDRESS":"金華路一段４８４巷３２弄２９號","OBJECTID":15198},"geometry":{"x":167072.37000000104,"y":2541400.5900000017}},{"attributes":{"ID":15199,"DIS_CODE":0,"TOWNNAME":"東區","LI":"後甲里","LIN":"24鄰","STREET":"裕農路","SECT":" ","MAREA":" ","LANE":"６２１巷","ALLEY":"４５弄","HOUSE_NO":"２１號","E_COORD97":171556.28,"N_COORD97":2543453.8999999999,"ADDRESS":"裕農路６２１巷４５弄２１號","OBJECTID":15199},"geometry":{"x":171556.28000000212,"y":2543453.9000000022}},{"attributes":{"ID":15200,"DIS_CODE":0,"TOWNNAME":"東區","LI":"後甲里","LIN":"24鄰","STREET":"裕農路","SECT":" ","MAREA":" ","LANE":"６２１巷","ALLEY":"４５弄","HOUSE_NO":"２３號","E_COORD97":171551.94,"N_COORD97":2543453.8999999999,"ADDRESS":"裕農路６２１巷４５弄２３號","OBJECTID":15200},"geometry":{"x":171551.94000000227,"y":2543453.9000000022}}]}