{"displayFieldName":"TOWNNAME","fieldAliases":{"ID":"ID","DIS_CODE":"DIS_CODE","TOWNNAME":"TOWNNAME","LI":"LI","LIN":"LIN","STREET":"STREET","SECT":"SECT","MAREA":"MAREA","LANE":"LANE","ALLEY":"ALLEY","HOUSE_NO":"HOUSE_NO","E_COORD97":"E_COORD97","N_COORD97":"N_COORD97","ADDRESS":"ADDRESS","OBJECTID":"OBJECTID"},"geometryType":"esriGeometryPoint","spatialReference":{"wkid":102443,"latestWkid":3826},"fields":[{"name":"ID","type":"esriFieldTypeDouble","alias":"ID"},{"name":"DIS_CODE","type":"esriFieldTypeInteger","alias":"DIS_CODE"},{"name":"TOWNNAME","type":"esriFieldTypeString","alias":"TOWNNAME","length":8},{"name":"LI","type":"esriFieldTypeString","alias":"LI","length":8},{"name":"LIN","type":"esriFieldTypeString","alias":"LIN","length":12},{"name":"STREET","type":"esriFieldTypeString","alias":"STREET","length":20},{"name":"SECT","type":"esriFieldTypeString","alias":"SECT","length":8},{"name":"MAREA","type":"esriFieldTypeString","alias":"MAREA","length":12},{"name":"LANE","type":"esriFieldTypeString","alias":"LANE","length":10},{"name":"ALLEY","type":"esriFieldTypeString","alias":"ALLEY","length":10},{"name":"HOUSE_NO","type":"esriFieldTypeString","alias":"HOUSE_NO","length":20},{"name":"E_COORD97","type":"esriFieldTypeDouble","alias":"E_COORD97"},{"name":"N_COORD97","type":"esriFieldTypeDouble","alias":"N_COORD97"},{"name":"ADDRESS","type":"esriFieldTypeString","alias":"ADDRESS","length":50},{"name":"OBJECTID","type":"esriFieldTypeOID","alias":"OBJECTID"}],"features":[{"attributes":{"ID":489826,"DIS_CODE":0,"TOWNNAME":"永康區","LI":"復國里","LIN":"13鄰","STREET":"復華三街","SECT":" ","MAREA":" ","LANE":" ","ALLEY":" ","HOUSE_NO":"３４號","E_COORD97":172840.82000000001,"N_COORD97":2545571.52,"ADDRESS":"復華三街３４號","OBJECTID":489801},"geometry":{"x":172840.8200000003,"y":2545571.5199999996}},{"attributes":{"ID":489827,"DIS_CODE":0,"TOWNNAME":"東區","LI":"崇善里","LIN":"13鄰","STREET":"崇善十街","SECT":" ","MAREA":" ","LANE":" ","ALLEY":" ","HOUSE_NO":"１８號之７","E_COORD97":171157.70999999999,"N_COORD97":2541273.48,"ADDRESS":"崇善十街１８號之７","OBJECTID":489802},"geometry":{"x":171157.70999999996,"y":2541273.4800000023}},{"attributes":{"ID":489828,"DIS_CODE":0,"TOWNNAME":"東區","LI":"崇善里","LIN":"13鄰","STREET":"崇善十街","SECT":" ","MAREA":" ","LANE":" ","ALLEY":" ","HOUSE_NO":"２０號","E_COORD97":171151.04000000001,"N_COORD97":2541279.6600000001,"ADDRESS":"崇善十街２０號","OBJECTID":489803},"geometry":{"x":171151.04000000097,"y":2541279.6600000001}},{"attributes":{"ID":489829,"DIS_CODE":0,"TOWNNAME":"東區","LI":"崇善里","LIN":"13鄰","STREET":"崇善十街","SECT":" ","MAREA":" ","LANE":" ","ALLEY":" ","HOUSE_NO":"２２號","E_COORD97":171158.19,"N_COORD97":2541282.75,"ADDRESS":"崇善十街２２號","OBJECTID":489804},"geometry":{"x":171158.19000000041,"y":2541282.75}},{"attributes":{"ID":489830,"DIS_CODE":0,"TOWNNAME":"東區","LI":"崇善里","LIN":"13鄰","STREET":"崇善十街","SECT":" ","MAREA":" ","LANE":" ","ALLEY":" ","HOUSE_NO":"２３號","E_COORD97":171159.26999999999,"N_COORD97":2541310.1400000001,"ADDRESS":"崇善十街２３號","OBJECTID":489805},"geometry":{"x":171159.27000000048,"y":2541310.1400000006}},{"attributes":{"ID":489831,"DIS_CODE":0,"TOWNNAME":"東區","LI":"崇善里","LIN":"13鄰","STREET":"崇善十街","SECT":" ","MAREA":" ","LANE":" ","ALLEY":" ","HOUSE_NO":"２４號","E_COORD97":171163.66,"N_COORD97":2541286.5600000001,"ADDRESS":"崇善十街２４號","OBJECTID":489806},"geometry":{"x":171163.66000000201,"y":2541286.5600000024}},{"attributes":{"ID":489832,"DIS_CODE":0,"TOWNNAME":"東區","LI":"崇善里","LIN":"13鄰","STREET":"崇善十街","SECT":" ","MAREA":" ","LANE":" ","ALLEY":" ","HOUSE_NO":"２６號","E_COORD97":171170.79999999999,"N_COORD97":2541289.1699999999,"ADDRESS":"崇善十街２６號","OBJECTID":489807},"geometry":{"x":171170.79999999888,"y":2541289.1699999999}},{"attributes":{"ID":489833,"DIS_CODE":0,"TOWNNAME":"東區","LI":"崇善里","LIN":"13鄰","STREET":"崇善十街","SECT":" ","MAREA":" ","LANE":" ","ALLEY":" ","HOUSE_NO":"２７號","E_COORD97":171171.63,"N_COORD97":2541315.4900000002,"ADDRESS":"崇善十街２７號","OBJECTID":489808},"geometry":{"x":171171.62999999989,"y":2541315.4899999984}},{"attributes":{"ID":489834,"DIS_CODE":0,"TOWNNAME":"東區","LI":"崇善里","LIN":"13鄰","STREET":"崇善十街","SECT":" ","MAREA":" ","LANE":" ","ALLEY":" ","HOUSE_NO":"２９號","E_COORD97":171175.60000000001,"N_COORD97":2541317.4199999999,"ADDRESS":"崇善十街２９號","OBJECTID":489809},"geometry":{"x":171175.60000000056,"y":2541317.4200000018}},{"attributes":{"ID":489835,"DIS_CODE":0,"TOWNNAME":"東區","LI":"崇善里","LIN":"13鄰","STREET":"崇善十街","SECT":" ","MAREA":" ","LANE":" ","ALLEY":" ","HOUSE_NO":"３１號","E_COORD97":171180.10999999999,"N_COORD97":2541319.5699999998,"ADDRESS":"崇善十街３１號","OBJECTID":489810},"geometry":{"x":171180.11000000127,"y":2541319.5700000022}},{"attributes":{"ID":489836,"DIS_CODE":0,"TOWNNAME":"東區","LI":"崇善里","LIN":"13鄰","STREET":"崇善十街","SECT":" ","MAREA":" ","LANE":" ","ALLEY":" ","HOUSE_NO":"３３號","E_COORD97":171184.73000000001,"N_COORD97":2541321.29,"ADDRESS":"崇善十街３３號","OBJECTID":489811},"geometry":{"x":171184.73000000138,"y":2541321.2899999991}},{"attributes":{"ID":489837,"DIS_CODE":0,"TOWNNAME":"東區","LI":"崇善里","LIN":"13鄰","STREET":"崇善十街","SECT":" ","MAREA":" ","LANE":" ","ALLEY":" ","HOUSE_NO":"３８號","E_COORD97":171218.94,"N_COORD97":2541315.5899999999,"ADDRESS":"崇善十街３８號","OBJECTID":489812},"geometry":{"x":171218.94000000041,"y":2541315.5900000017}},{"attributes":{"ID":489838,"DIS_CODE":0,"TOWNNAME":"東區","LI":"崇善里","LIN":"13鄰","STREET":"崇善十街","SECT":" ","MAREA":" ","LANE":" ","ALLEY":" ","HOUSE_NO":"３９號","E_COORD97":171212.596124,"N_COORD97":2541335.9540400002,"ADDRESS":"崇善十街３９號","OBJECTID":489813},"geometry":{"x":171212.59612399992,"y":2541335.9540410005}},{"attributes":{"ID":489839,"DIS_CODE":0,"TOWNNAME":"東區","LI":"崇善里","LIN":"13鄰","STREET":"崇善十街","SECT":" ","MAREA":" ","LANE":" ","ALLEY":" ","HOUSE_NO":"４２號","E_COORD97":171231.32999999999,"N_COORD97":2541322.6400000001,"ADDRESS":"崇善十街４２號","OBJECTID":489814},"geometry":{"x":171231.33000000007,"y":2541322.6400000025}},{"attributes":{"ID":489840,"DIS_CODE":0,"TOWNNAME":"東區","LI":"崇善里","LIN":"13鄰","STREET":"崇善十街","SECT":" ","MAREA":" ","LANE":" ","ALLEY":" ","HOUSE_NO":"４４號","E_COORD97":171234.64999999999,"N_COORD97":2541324.96,"ADDRESS":"崇善十街４４號","OBJECTID":489815},"geometry":{"x":171234.65000000037,"y":2541324.9600000028}},{"attributes":{"ID":489841,"DIS_CODE":0,"TOWNNAME":"東區","LI":"崇善里","LIN":"13鄰","STREET":"崇善十街","SECT":" ","MAREA":" ","LANE":" ","ALLEY":" ","HOUSE_NO":"４６號","E_COORD97":171238.95999999999,"N_COORD97":2541326.9500000002,"ADDRESS":"崇善十街４６號","OBJECTID":489816},"geometry":{"x":171238.95999999996,"y":2541326.9499999993}},{"attributes":{"ID":489842,"DIS_CODE":0,"TOWNNAME":"東區","LI":"崇善里","LIN":"13鄰","STREET":"崇善十街","SECT":" ","MAREA":" ","LANE":" ","ALLEY":" ","HOUSE_NO":"４８號","E_COORD97":171237.64000000001,"N_COORD97":2541307.3900000001,"ADDRESS":"崇善十街４８號","OBJECTID":489817},"geometry":{"x":171237.63999999966,"y":2541307.3900000025}},{"attributes":{"ID":489843,"DIS_CODE":0,"TOWNNAME":"東區","LI":"崇善里","LIN":"13鄰","STREET":"崇善十街","SECT":" ","MAREA":" ","LANE":" ","ALLEY":" ","HOUSE_NO":"５２號","E_COORD97":171263.85999999999,"N_COORD97":2541317.3399999999,"ADDRESS":"崇善十街５２號","OBJECTID":489818},"geometry":{"x":171263.86000000034,"y":2541317.3400000017}},{"attributes":{"ID":489844,"DIS_CODE":0,"TOWNNAME":"東區","LI":"崇善里","LIN":"13鄰","STREET":"崇善十街","SECT":" ","MAREA":" ","LANE":" ","ALLEY":" ","HOUSE_NO":"５８號","E_COORD97":171252.23999999999,"N_COORD97":2541333.5899999999,"ADDRESS":"崇善十街５８號","OBJECTID":489819},"geometry":{"x":171252.24000000022,"y":2541333.5899999999}},{"attributes":{"ID":489845,"DIS_CODE":0,"TOWNNAME":"東區","LI":"崇善里","LIN":"13鄰","STREET":"崇善十街","SECT":" ","MAREA":" ","LANE":" ","ALLEY":" ","HOUSE_NO":"６０號","E_COORD97":171256.89000000001,"N_COORD97":2541336.5699999998,"ADDRESS":"崇善十街６０號","OBJECTID":489820},"geometry":{"x":171256.8900000006,"y":2541336.5700000022}},{"attributes":{"ID":489846,"DIS_CODE":0,"TOWNNAME":"東區","LI":"崇善里","LIN":"13鄰","STREET":"崇善十街","SECT":" ","MAREA":" ","LANE":" ","ALLEY":" ","HOUSE_NO":"６４號","E_COORD97":171264.85999999999,"N_COORD97":2541340.8799999999,"ADDRESS":"崇善十街６４號","OBJECTID":489821},"geometry":{"x":171264.86000000127,"y":2541340.879999999}},{"attributes":{"ID":489847,"DIS_CODE":0,"TOWNNAME":"東區","LI":"崇善里","LIN":"13鄰","STREET":"崇善十街","SECT":" ","MAREA":" ","LANE":" ","ALLEY":" ","HOUSE_NO":"６６號","E_COORD97":171269.17999999999,"N_COORD97":2541342.21,"ADDRESS":"崇善十街６６號","OBJECTID":489822},"geometry":{"x":171269.1799999997,"y":2541342.2100000046}},{"attributes":{"ID":489848,"DIS_CODE":0,"TOWNNAME":"東區","LI":"崇善里","LIN":"13鄰","STREET":"崇善十街","SECT":" ","MAREA":" ","LANE":" ","ALLEY":" ","HOUSE_NO":"６８號","E_COORD97":171272.16,"N_COORD97":2541345.8599999999,"ADDRESS":"崇善十街６８號","OBJECTID":489823},"geometry":{"x":171272.16000000201,"y":2541345.8599999994}},{"attributes":{"ID":489849,"DIS_CODE":0,"TOWNNAME":"東區","LI":"崇善里","LIN":"13鄰","STREET":"崇善十街","SECT":" ","MAREA":" ","LANE":" ","ALLEY":" ","HOUSE_NO":"７０號","E_COORD97":171276.81,"N_COORD97":2541347.8500000001,"ADDRESS":"崇善十街７０號","OBJECTID":489824},"geometry":{"x":171276.80999999959,"y":2541347.8500000015}},{"attributes":{"ID":489850,"DIS_CODE":0,"TOWNNAME":"東區","LI":"崇善里","LIN":"13鄰","STREET":"崇善十街","SECT":" ","MAREA":" ","LANE":" ","ALLEY":" ","HOUSE_NO":"７２號","E_COORD97":171276.81,"N_COORD97":2541329.2799999998,"ADDRESS":"崇善十街７２號","OBJECTID":489825},"geometry":{"x":171276.80999999959,"y":2541329.2799999993}},{"attributes":{"ID":489851,"DIS_CODE":0,"TOWNNAME":"東區","LI":"崇善里","LIN":"13鄰","STREET":"崇善十街","SECT":" ","MAREA":" ","LANE":" ","ALLEY":" ","HOUSE_NO":"７４號","E_COORD97":171279.14000000001,"N_COORD97":2541325.6299999999,"ADDRESS":"崇善十街７４號","OBJECTID":489826},"geometry":{"x":171279.1400000006,"y":2541325.629999999}},{"attributes":{"ID":489852,"DIS_CODE":0,"TOWNNAME":"東區","LI":"崇善里","LIN":"13鄰","STREET":"崇善十街","SECT":" ","MAREA":" ","LANE":" ","ALLEY":" ","HOUSE_NO":"７８號","E_COORD97":171299.39000000001,"N_COORD97":2541340.8799999999,"ADDRESS":"崇善十街７８號","OBJECTID":489827},"geometry":{"x":171299.3900000006,"y":2541340.879999999}},{"attributes":{"ID":489853,"DIS_CODE":0,"TOWNNAME":"東區","LI":"崇善里","LIN":"13鄰","STREET":"崇善十街","SECT":" ","MAREA":" ","LANE":" ","ALLEY":" ","HOUSE_NO":"７號","E_COORD97":171126.51999999999,"N_COORD97":2541294.5800000001,"ADDRESS":"崇善十街７號","OBJECTID":489828},"geometry":{"x":171126.51999999955,"y":2541294.5800000038}},{"attributes":{"ID":489854,"DIS_CODE":0,"TOWNNAME":"東區","LI":"崇善里","LIN":"13鄰","STREET":"崇善十街","SECT":" ","MAREA":" ","LANE":" ","ALLEY":" ","HOUSE_NO":"８０號","E_COORD97":171286.76999999999,"N_COORD97":2541351.1699999999,"ADDRESS":"崇善十街８０號","OBJECTID":489829},"geometry":{"x":171286.77000000048,"y":2541351.1699999981}},{"attributes":{"ID":489855,"DIS_CODE":0,"TOWNNAME":"東區","LI":"崇善里","LIN":"13鄰","STREET":"崇善十街","SECT":" ","MAREA":" ","LANE":" ","ALLEY":" ","HOUSE_NO":"８２號","E_COORD97":171289.76000000001,"N_COORD97":2541354.1499999999,"ADDRESS":"崇善十街８２號","OBJECTID":489830},"geometry":{"x":171289.76000000164,"y":2541354.1500000004}},{"attributes":{"ID":489856,"DIS_CODE":0,"TOWNNAME":"東區","LI":"崇善里","LIN":"13鄰","STREET":"崇善十街","SECT":" ","MAREA":" ","LANE":" ","ALLEY":" ","HOUSE_NO":"８４號","E_COORD97":171294.07999999999,"N_COORD97":2541357.4700000002,"ADDRESS":"崇善十街８４號","OBJECTID":489831},"geometry":{"x":171294.08000000007,"y":2541357.4700000025}},{"attributes":{"ID":489857,"DIS_CODE":0,"TOWNNAME":"東區","LI":"崇善里","LIN":"13鄰","STREET":"崇善十街","SECT":" ","MAREA":" ","LANE":" ","ALLEY":" ","HOUSE_NO":"８６號","E_COORD97":171297.73000000001,"N_COORD97":2541359.46,"ADDRESS":"崇善十街８６號","OBJECTID":489832},"geometry":{"x":171297.73000000138,"y":2541359.4600000009}},{"attributes":{"ID":489858,"DIS_CODE":0,"TOWNNAME":"東區","LI":"東智里","LIN":"13鄰","STREET":"崇德路","SECT":" ","MAREA":" ","LANE":" ","ALLEY":" ","HOUSE_NO":"１０１７號","E_COORD97":170798.04000000001,"N_COORD97":2540129.73,"ADDRESS":"崇德路１０１７號","OBJECTID":489833},"geometry":{"x":170798.04000000004,"y":2540129.7300000004}},{"attributes":{"ID":489859,"DIS_CODE":0,"TOWNNAME":"東區","LI":"東智里","LIN":"13鄰","STREET":"崇德路","SECT":" ","MAREA":" ","LANE":" ","ALLEY":" ","HOUSE_NO":"１０１９號","E_COORD97":170797.76000000001,"N_COORD97":2540125.9100000001,"ADDRESS":"崇德路１０１９號","OBJECTID":489834},"geometry":{"x":170797.75999999978,"y":2540125.9099999983}},{"attributes":{"ID":489860,"DIS_CODE":0,"TOWNNAME":"東區","LI":"東智里","LIN":"13鄰","STREET":"崇德路","SECT":" ","MAREA":" ","LANE":" ","ALLEY":" ","HOUSE_NO":"１０２３號","E_COORD97":170797.04999999999,"N_COORD97":2540117.9900000002,"ADDRESS":"崇德路１０２３號","OBJECTID":489835},"geometry":{"x":170797.05000000075,"y":2540117.9900000002}},{"attributes":{"ID":489861,"DIS_CODE":0,"TOWNNAME":"東區","LI":"東聖里","LIN":"13鄰","STREET":"富農街","SECT":"二段","MAREA":" ","LANE":" ","ALLEY":" ","HOUSE_NO":"１０１號","E_COORD97":171619.97,"N_COORD97":2543139.1600000001,"ADDRESS":"富農街二段１０１號","OBJECTID":489836},"geometry":{"x":171619.96999999974,"y":2543139.160000002}},{"attributes":{"ID":489862,"DIS_CODE":0,"TOWNNAME":"東區","LI":"東聖里","LIN":"13鄰","STREET":"富農街","SECT":"二段","MAREA":" ","LANE":" ","ALLEY":" ","HOUSE_NO":"１０３號","E_COORD97":171619.19,"N_COORD97":2543143.1400000001,"ADDRESS":"富農街二段１０３號","OBJECTID":489837},"geometry":{"x":171619.19000000041,"y":2543143.1400000025}},{"attributes":{"ID":489863,"DIS_CODE":0,"TOWNNAME":"東區","LI":"東聖里","LIN":"13鄰","STREET":"富農街","SECT":"二段","MAREA":" ","LANE":" ","ALLEY":" ","HOUSE_NO":"１０５號","E_COORD97":171618.98999999999,"N_COORD97":2543147.5099999998,"ADDRESS":"富農街二段１０５號","OBJECTID":489838},"geometry":{"x":171618.99000000022,"y":2543147.5100000016}},{"attributes":{"ID":489864,"DIS_CODE":0,"TOWNNAME":"東區","LI":"東聖里","LIN":"13鄰","STREET":"富農街","SECT":"二段","MAREA":" ","LANE":" ","ALLEY":" ","HOUSE_NO":"１０７號","E_COORD97":171618.51000000001,"N_COORD97":2543151.1000000001,"ADDRESS":"富農街二段１０７號","OBJECTID":489839},"geometry":{"x":171618.50999999885,"y":2543151.0999999996}},{"attributes":{"ID":489865,"DIS_CODE":0,"TOWNNAME":"東區","LI":"東聖里","LIN":"13鄰","STREET":"富農街","SECT":"二段","MAREA":" ","LANE":" ","ALLEY":" ","HOUSE_NO":"８９號","E_COORD97":171616.85999999999,"N_COORD97":2543116.6299999999,"ADDRESS":"富農街二段８９號","OBJECTID":489840},"geometry":{"x":171616.8600000022,"y":2543116.629999999}},{"attributes":{"ID":489866,"DIS_CODE":0,"TOWNNAME":"東區","LI":"東聖里","LIN":"13鄰","STREET":"富農街","SECT":"二段","MAREA":" ","LANE":" ","ALLEY":" ","HOUSE_NO":"９１號","E_COORD97":171616.95000000001,"N_COORD97":2543121.29,"ADDRESS":"富農街二段９１號","OBJECTID":489841},"geometry":{"x":171616.95000000019,"y":2543121.2899999991}},{"attributes":{"ID":489867,"DIS_CODE":0,"TOWNNAME":"東區","LI":"東聖里","LIN":"13鄰","STREET":"富農街","SECT":"二段","MAREA":" ","LANE":" ","ALLEY":" ","HOUSE_NO":"９５號","E_COORD97":171615.59,"N_COORD97":2543130.0299999998,"ADDRESS":"富農街二段９５號","OBJECTID":489842},"geometry":{"x":171615.59000000078,"y":2543130.0299999993}},{"attributes":{"ID":489868,"DIS_CODE":0,"TOWNNAME":"東區","LI":"東聖里","LIN":"13鄰","STREET":"富農街","SECT":"二段","MAREA":" ","LANE":" ","ALLEY":" ","HOUSE_NO":"９７號","E_COORD97":171615.10999999999,"N_COORD97":2543134.5,"ADDRESS":"富農街二段９７號","OBJECTID":489843},"geometry":{"x":171615.1100000022,"y":2543134.5}},{"attributes":{"ID":489869,"DIS_CODE":0,"TOWNNAME":"永康區","LI":"大橋里","LIN":"13鄰","STREET":"大橋三街","SECT":" ","MAREA":" ","LANE":" ","ALLEY":" ","HOUSE_NO":"２７０號","E_COORD97":171078.91,"N_COORD97":2546898.3199999998,"ADDRESS":"大橋三街２７０號","OBJECTID":489844},"geometry":{"x":171078.91000000201,"y":2546898.3200000022}},{"attributes":{"ID":489870,"DIS_CODE":0,"TOWNNAME":"永康區","LI":"大灣里","LIN":"13鄰","STREET":"民族路","SECT":" ","MAREA":" ","LANE":" ","ALLEY":" ","HOUSE_NO":"３０２號","E_COORD97":174969.67000000001,"N_COORD97":2545257.9900000002,"ADDRESS":"民族路３０２號","OBJECTID":489845},"geometry":{"x":174969.67000000086,"y":2545257.9900000002}},{"attributes":{"ID":489871,"DIS_CODE":0,"TOWNNAME":"南區","LI":"南華里","LIN":"20鄰","STREET":"金華路","SECT":"一段","MAREA":" ","LANE":" ","ALLEY":" ","HOUSE_NO":"４１號","E_COORD97":166859.23000000001,"N_COORD97":2540339.9500000002,"ADDRESS":"金華路一段４１號","OBJECTID":489846},"geometry":{"x":166859.23000000045,"y":2540339.9500000011}},{"attributes":{"ID":489872,"DIS_CODE":0,"TOWNNAME":"南區","LI":"南華里","LIN":"20鄰","STREET":"金華路","SECT":"一段","MAREA":" ","LANE":" ","ALLEY":" ","HOUSE_NO":"４１號之１","E_COORD97":166860.63,"N_COORD97":2540344.9100000001,"ADDRESS":"金華路一段４１號之１","OBJECTID":489847},"geometry":{"x":166860.62999999989,"y":2540344.9100000001}},{"attributes":{"ID":489873,"DIS_CODE":0,"TOWNNAME":"南區","LI":"南華里","LIN":"20鄰","STREET":"金華路","SECT":"一段","MAREA":" ","LANE":" ","ALLEY":" ","HOUSE_NO":"４９號","E_COORD97":166865.44,"N_COORD97":2540356.7000000002,"ADDRESS":"金華路一段４９號","OBJECTID":489848},"geometry":{"x":166865.44000000134,"y":2540356.6999999993}},{"attributes":{"ID":489874,"DIS_CODE":0,"TOWNNAME":"南區","LI":"南華里","LIN":"20鄰","STREET":"金華路","SECT":"一段","MAREA":" ","LANE":" ","ALLEY":" ","HOUSE_NO":"５１號","E_COORD97":166865.91,"N_COORD97":2540363.7400000002,"ADDRESS":"金華路一段５１號","OBJECTID":489849},"geometry":{"x":166865.91000000015,"y":2540363.7400000002}},{"attributes":{"ID":489875,"DIS_CODE":0,"TOWNNAME":"南區","LI":"南華里","LIN":"20鄰","STREET":"金華路","SECT":"一段","MAREA":" ","LANE":" ","ALLEY":" ","HOUSE_NO":"５３號","E_COORD97":166865.75,"N_COORD97":2540367.6200000001,"ADDRESS":"金華路一段５３號","OBJECTID":489850},"geometry":{"x":166865.75000000186,"y":2540367.6200000029}},{"attributes":{"ID":489876,"DIS_CODE":0,"TOWNNAME":"南區","LI":"南華里","LIN":"20鄰","STREET":"金華路","SECT":"一段","MAREA":" ","LANE":" ","ALLEY":" ","HOUSE_NO":"５５號","E_COORD97":166866.06,"N_COORD97":2540372.7400000002,"ADDRESS":"金華路一段５５號","OBJECTID":489851},"geometry":{"x":166866.05999999959,"y":2540372.7400000021}},{"attributes":{"ID":489877,"DIS_CODE":0,"TOWNNAME":"南區","LI":"南華里","LIN":"20鄰","STREET":"金華路","SECT":"一段","MAREA":" ","LANE":" ","ALLEY":" ","HOUSE_NO":"５７號","E_COORD97":166866.22,"N_COORD97":2540376.9300000002,"ADDRESS":"金華路一段５７號","OBJECTID":489852},"geometry":{"x":166866.22000000067,"y":2540376.9300000016}},{"attributes":{"ID":489878,"DIS_CODE":0,"TOWNNAME":"南區","LI":"南華里","LIN":"20鄰","STREET":"金華路","SECT":"一段","MAREA":" ","LANE":" ","ALLEY":" ","HOUSE_NO":"６３號","E_COORD97":166867.14999999999,"N_COORD97":2540390.27,"ADDRESS":"金華路一段６３號","OBJECTID":489853},"geometry":{"x":166867.1500000013,"y":2540390.2699999996}},{"attributes":{"ID":489879,"DIS_CODE":0,"TOWNNAME":"南區","LI":"南華里","LIN":"20鄰","STREET":"金華路","SECT":"一段","MAREA":" ","LANE":" ","ALLEY":" ","HOUSE_NO":"６９號","E_COORD97":166867.45999999999,"N_COORD97":2540404.0299999998,"ADDRESS":"金華路一段６９號","OBJECTID":489854},"geometry":{"x":166867.45999999903,"y":2540404.0300000012}},{"attributes":{"ID":489880,"DIS_CODE":0,"TOWNNAME":"南區","LI":"南華里","LIN":"20鄰","STREET":"金華路","SECT":"一段","MAREA":" ","LANE":" ","ALLEY":" ","HOUSE_NO":"７１號","E_COORD97":166868.07999999999,"N_COORD97":2540408.0600000001,"ADDRESS":"金華路一段７１號","OBJECTID":489855},"geometry":{"x":166868.08000000007,"y":2540408.0600000024}},{"attributes":{"ID":489881,"DIS_CODE":0,"TOWNNAME":"南區","LI":"南華里","LIN":"20鄰","STREET":"金華路","SECT":"一段","MAREA":" ","LANE":" ","ALLEY":" ","HOUSE_NO":"７３號","E_COORD97":166868.54999999999,"N_COORD97":2540413.3399999999,"ADDRESS":"金華路一段７３號","OBJECTID":489856},"geometry":{"x":166868.55000000168,"y":2540413.3399999999}},{"attributes":{"ID":489882,"DIS_CODE":0,"TOWNNAME":"南區","LI":"南華里","LIN":"20鄰","STREET":"金華路","SECT":"一段","MAREA":" ","LANE":" ","ALLEY":" ","HOUSE_NO":"８９號","E_COORD97":166872.42999999999,"N_COORD97":2540440.6099999999,"ADDRESS":"金華路一段８９號","OBJECTID":489857},"geometry":{"x":166872.4299999997,"y":2540440.6100000013}},{"attributes":{"ID":489883,"DIS_CODE":0,"TOWNNAME":"南區","LI":"南華里","LIN":"20鄰","STREET":"金華路","SECT":"一段","MAREA":" ","LANE":" ","ALLEY":" ","HOUSE_NO":"９１號","E_COORD97":166875.85000000001,"N_COORD97":2540444.3399999999,"ADDRESS":"金華路一段９１號","OBJECTID":489858},"geometry":{"x":166875.84999999963,"y":2540444.3399999999}},{"attributes":{"ID":489884,"DIS_CODE":0,"TOWNNAME":"南區","LI":"南華里","LIN":"20鄰","STREET":"金華路","SECT":"一段","MAREA":" ","LANE":" ","ALLEY":" ","HOUSE_NO":"９７號","E_COORD97":166877.54999999999,"N_COORD97":2540459.23,"ADDRESS":"金華路一段９７號","OBJECTID":489859},"geometry":{"x":166877.55000000075,"y":2540459.2300000004}},{"attributes":{"ID":489885,"DIS_CODE":0,"TOWNNAME":"永康區","LI":"王行里","LIN":"13鄰","STREET":"王行路","SECT":" ","MAREA":" ","LANE":" ","ALLEY":" ","HOUSE_NO":"１１０２號之４","E_COORD97":175644.70000000001,"N_COORD97":2550227.54,"ADDRESS":"王行路１１０２號之４","OBJECTID":489860},"geometry":{"x":175644.70000000112,"y":2550227.5400000028}},{"attributes":{"ID":489886,"DIS_CODE":0,"TOWNNAME":"永康區","LI":"中興里","LIN":"13鄰","STREET":"中興街","SECT":" ","MAREA":" ","LANE":" ","ALLEY":" ","HOUSE_NO":"５０號","E_COORD97":172089.59,"N_COORD97":2545237.6800000002,"ADDRESS":"中興街５０號","OBJECTID":489861},"geometry":{"x":172089.59000000078,"y":2545237.6800000016}},{"attributes":{"ID":489887,"DIS_CODE":0,"TOWNNAME":"永康區","LI":"中興里","LIN":"13鄰","STREET":"中興街","SECT":" ","MAREA":" ","LANE":" ","ALLEY":" ","HOUSE_NO":"６５號","E_COORD97":172065.10000000001,"N_COORD97":2545285.25,"ADDRESS":"中興街６５號","OBJECTID":489862},"geometry":{"x":172065.09999999963,"y":2545285.2500000019}},{"attributes":{"ID":489888,"DIS_CODE":0,"TOWNNAME":"永康區","LI":"中興里","LIN":"13鄰","STREET":"中興街","SECT":" ","MAREA":" ","LANE":" ","ALLEY":" ","HOUSE_NO":"８８號","E_COORD97":172088.95000000001,"N_COORD97":2545332.9900000002,"ADDRESS":"中興街８８號","OBJECTID":489863},"geometry":{"x":172088.94999999925,"y":2545332.9899999984}},{"attributes":{"ID":489889,"DIS_CODE":0,"TOWNNAME":"永康區","LI":"中興里","LIN":"13鄰","STREET":"中興街","SECT":" ","MAREA":" ","LANE":" ","ALLEY":" ","HOUSE_NO":"１０８號","E_COORD97":172089.60000000001,"N_COORD97":2545371,"ADDRESS":"中興街１０８號","OBJECTID":489864},"geometry":{"x":172089.60000000056,"y":2545371.0000000019}},{"attributes":{"ID":489890,"DIS_CODE":0,"TOWNNAME":"永康區","LI":"王行里","LIN":"13鄰","STREET":"王行路","SECT":" ","MAREA":" ","LANE":" ","ALLEY":" ","HOUSE_NO":"１１５６號","E_COORD97":175526.92000000001,"N_COORD97":2550289.04,"ADDRESS":"王行路１１５６號","OBJECTID":489865},"geometry":{"x":175526.92000000179,"y":2550289.040000001}},{"attributes":{"ID":489891,"DIS_CODE":0,"TOWNNAME":"永康區","LI":"中興里","LIN":"13鄰","STREET":"中興街","SECT":" ","MAREA":" ","LANE":" ","ALLEY":" ","HOUSE_NO":"１１８號","E_COORD97":172090.94,"N_COORD97":2545399.75,"ADDRESS":"中興街１１８號","OBJECTID":489866},"geometry":{"x":172090.93999999948,"y":2545399.7500000019}},{"attributes":{"ID":489892,"DIS_CODE":0,"TOWNNAME":"永康區","LI":"復國里","LIN":"13鄰","STREET":"復國二路","SECT":" ","MAREA":" ","LANE":" ","ALLEY":" ","HOUSE_NO":"１２６號","E_COORD97":172876.12,"N_COORD97":2545509.7799999998,"ADDRESS":"復國二路１２６號","OBJECTID":489867},"geometry":{"x":172876.12000000197,"y":2545509.7799999975}},{"attributes":{"ID":489893,"DIS_CODE":0,"TOWNNAME":"永康區","LI":"復華里","LIN":"13鄰","STREET":"復國二路","SECT":" ","MAREA":" ","LANE":" ","ALLEY":" ","HOUSE_NO":"１８３號","E_COORD97":172970.70999999999,"N_COORD97":2545937.5299999998,"ADDRESS":"復國二路１８３號","OBJECTID":489868},"geometry":{"x":172970.71000000089,"y":2545937.5299999993}},{"attributes":{"ID":489894,"DIS_CODE":0,"TOWNNAME":"永康區","LI":"復華里","LIN":"13鄰","STREET":"復國二路","SECT":" ","MAREA":" ","LANE":" ","ALLEY":" ","HOUSE_NO":"１９９號","E_COORD97":172978.87,"N_COORD97":2545972.52,"ADDRESS":"復國二路１９９號","OBJECTID":489869},"geometry":{"x":172978.87000000011,"y":2545972.5199999996}},{"attributes":{"ID":489895,"DIS_CODE":0,"TOWNNAME":"永康區","LI":"復興里","LIN":"13鄰","STREET":"復興路","SECT":" ","MAREA":" ","LANE":" ","ALLEY":" ","HOUSE_NO":"２７６號之１","E_COORD97":172380.92999999999,"N_COORD97":2544347.9900000002,"ADDRESS":"復興路２７６號之１","OBJECTID":489870},"geometry":{"x":172380.93000000063,"y":2544347.9900000021}},{"attributes":{"ID":489896,"DIS_CODE":0,"TOWNNAME":"永康區","LI":"復華里","LIN":"13鄰","STREET":"復國二路","SECT":" ","MAREA":" ","LANE":" ","ALLEY":" ","HOUSE_NO":"１８７號","E_COORD97":172972.81,"N_COORD97":2545946.52,"ADDRESS":"復國二路１８７號","OBJECTID":489871},"geometry":{"x":172972.81000000052,"y":2545946.5200000014}},{"attributes":{"ID":489897,"DIS_CODE":0,"TOWNNAME":"永康區","LI":"復興里","LIN":"13鄰","STREET":"復興路","SECT":" ","MAREA":" ","LANE":" ","ALLEY":" ","HOUSE_NO":"２８０號","E_COORD97":172371.23000000001,"N_COORD97":2544347.9700000002,"ADDRESS":"復興路２８０號","OBJECTID":489872},"geometry":{"x":172371.23000000138,"y":2544347.9700000025}},{"attributes":{"ID":489898,"DIS_CODE":0,"TOWNNAME":"永康區","LI":"復國里","LIN":"13鄰","STREET":"復華三街","SECT":" ","MAREA":" ","LANE":" ","ALLEY":" ","HOUSE_NO":"１１號","E_COORD97":172910.20999999999,"N_COORD97":2545526.9399999999,"ADDRESS":"復華三街１１號","OBJECTID":489873},"geometry":{"x":172910.20999999996,"y":2545526.9400000013}},{"attributes":{"ID":489899,"DIS_CODE":0,"TOWNNAME":"永康區","LI":"復國里","LIN":"13鄰","STREET":"復華三街","SECT":" ","MAREA":" ","LANE":" ","ALLEY":" ","HOUSE_NO":"４５號","E_COORD97":172818.60999999999,"N_COORD97":2545536.8199999998,"ADDRESS":"復華三街４５號","OBJECTID":489874},"geometry":{"x":172818.6099999994,"y":2545536.8200000003}},{"attributes":{"ID":489900,"DIS_CODE":0,"TOWNNAME":"永康區","LI":"復華里","LIN":"13鄰","STREET":"復國二路","SECT":" ","MAREA":" ","LANE":" ","ALLEY":" ","HOUSE_NO":"２０１號","E_COORD97":172979.45999999999,"N_COORD97":2545977.77,"ADDRESS":"復國二路２０１號","OBJECTID":489875},"geometry":{"x":172979.46000000089,"y":2545977.7699999996}},{"attributes":{"ID":489901,"DIS_CODE":0,"TOWNNAME":"永康區","LI":"復國里","LIN":"13鄰","STREET":"復華三街","SECT":" ","MAREA":" ","LANE":" ","ALLEY":" ","HOUSE_NO":"６３號","E_COORD97":172782.34,"N_COORD97":2545539.5499999998,"ADDRESS":"復華三街６３號","OBJECTID":489876},"geometry":{"x":172782.33999999985,"y":2545539.5500000007}},{"attributes":{"ID":489902,"DIS_CODE":0,"TOWNNAME":"永康區","LI":"復興里","LIN":"13鄰","STREET":"復興路","SECT":" ","MAREA":" ","LANE":" ","ALLEY":" ","HOUSE_NO":"２９０號","E_COORD97":172349.01999999999,"N_COORD97":2544348.7799999998,"ADDRESS":"復興路２９０號","OBJECTID":489877},"geometry":{"x":172349.02000000142,"y":2544348.7800000012}},{"attributes":{"ID":489903,"DIS_CODE":0,"TOWNNAME":"永康區","LI":"復興里","LIN":"13鄰","STREET":"復興路","SECT":" ","MAREA":" ","LANE":" ","ALLEY":" ","HOUSE_NO":"２８４號","E_COORD97":172364.54999999999,"N_COORD97":2544348.0299999998,"ADDRESS":"復興路２８４號","OBJECTID":489878},"geometry":{"x":172364.55000000075,"y":2544348.0299999993}},{"attributes":{"ID":489904,"DIS_CODE":0,"TOWNNAME":"永康區","LI":"復國里","LIN":"13鄰","STREET":"復華三街","SECT":" ","MAREA":" ","LANE":" ","ALLEY":" ","HOUSE_NO":"１８號","E_COORD97":172906.45999999999,"N_COORD97":2545545.77,"ADDRESS":"復華三街１８號","OBJECTID":489879},"geometry":{"x":172906.46000000089,"y":2545545.7700000014}},{"attributes":{"ID":489905,"DIS_CODE":0,"TOWNNAME":"永康區","LI":"復國里","LIN":"13鄰","STREET":"復華三街","SECT":" ","MAREA":" ","LANE":" ","ALLEY":" ","HOUSE_NO":"３４號之１","E_COORD97":172793.89999999999,"N_COORD97":2545557.79,"ADDRESS":"復華三街３４號之１","OBJECTID":489880},"geometry":{"x":172793.9000000013,"y":2545557.790000001}},{"attributes":{"ID":489906,"DIS_CODE":0,"TOWNNAME":"永康區","LI":"復國里","LIN":"13鄰","STREET":"復華三街","SECT":" ","MAREA":" ","LANE":" ","ALLEY":" ","HOUSE_NO":"１６號","E_COORD97":172910.28,"N_COORD97":2545545.02,"ADDRESS":"復華三街１６號","OBJECTID":489881},"geometry":{"x":172910.28000000026,"y":2545545.0199999996}},{"attributes":{"ID":489907,"DIS_CODE":0,"TOWNNAME":"永康區","LI":"復國里","LIN":"13鄰","STREET":"復華三街","SECT":" ","MAREA":" ","LANE":" ","ALLEY":" ","HOUSE_NO":"１０號","E_COORD97":172922.53,"N_COORD97":2545542.27,"ADDRESS":"復華三街１０號","OBJECTID":489882},"geometry":{"x":172922.52999999933,"y":2545542.2700000014}},{"attributes":{"ID":489908,"DIS_CODE":0,"TOWNNAME":"永康區","LI":"復國里","LIN":"13鄰","STREET":"復華三街","SECT":" ","MAREA":" ","LANE":" ","ALLEY":" ","HOUSE_NO":"３１號","E_COORD97":172846.82999999999,"N_COORD97":2545534.9500000002,"ADDRESS":"復華三街３１號","OBJECTID":489883},"geometry":{"x":172846.83000000007,"y":2545534.9499999993}},{"attributes":{"ID":489909,"DIS_CODE":0,"TOWNNAME":"永康區","LI":"復國里","LIN":"13鄰","STREET":"復華三街","SECT":" ","MAREA":" ","LANE":" ","ALLEY":" ","HOUSE_NO":"２３號","E_COORD97":172876.14000000001,"N_COORD97":2545532.7400000002,"ADDRESS":"復華三街２３號","OBJECTID":489884},"geometry":{"x":172876.1400000006,"y":2545532.7400000021}},{"attributes":{"ID":489910,"DIS_CODE":0,"TOWNNAME":"永康區","LI":"復華里","LIN":"13鄰","STREET":"復國二路","SECT":" ","MAREA":" ","LANE":" ","ALLEY":" ","HOUSE_NO":"１９１號","E_COORD97":172974.76000000001,"N_COORD97":2545955.52,"ADDRESS":"復國二路１９１號","OBJECTID":489885},"geometry":{"x":172974.76000000164,"y":2545955.5199999996}},{"attributes":{"ID":489911,"DIS_CODE":0,"TOWNNAME":"永康區","LI":"復國里","LIN":"13鄰","STREET":"復華三街","SECT":" ","MAREA":" ","LANE":" ","ALLEY":" ","HOUSE_NO":"５１號","E_COORD97":172806.70999999999,"N_COORD97":2545537.7999999998,"ADDRESS":"復華三街５１號","OBJECTID":489886},"geometry":{"x":172806.70999999996,"y":2545537.8000000007}},{"attributes":{"ID":489912,"DIS_CODE":0,"TOWNNAME":"永康區","LI":"復國里","LIN":"13鄰","STREET":"復華三街","SECT":" ","MAREA":" ","LANE":" ","ALLEY":" ","HOUSE_NO":"３２號","E_COORD97":172854.20999999999,"N_COORD97":2545551.52,"ADDRESS":"復華三街３２號","OBJECTID":489887},"geometry":{"x":172854.20999999996,"y":2545551.5199999996}},{"attributes":{"ID":489913,"DIS_CODE":0,"TOWNNAME":"永康區","LI":"復國里","LIN":"13鄰","STREET":"復華三街","SECT":" ","MAREA":" ","LANE":" ","ALLEY":" ","HOUSE_NO":"１５號","E_COORD97":172899.10000000001,"N_COORD97":2545529.6200000001,"ADDRESS":"復華三街１５號","OBJECTID":489888},"geometry":{"x":172899.09999999963,"y":2545529.6199999992}},{"attributes":{"ID":489914,"DIS_CODE":0,"TOWNNAME":"永康區","LI":"復國里","LIN":"13鄰","STREET":"復華三街","SECT":" ","MAREA":" ","LANE":" ","ALLEY":" ","HOUSE_NO":"５５號","E_COORD97":172798.95999999999,"N_COORD97":2545538.2999999998,"ADDRESS":"復華三街５５號","OBJECTID":489889},"geometry":{"x":172798.96000000183,"y":2545538.2999999989}},{"attributes":{"ID":489915,"DIS_CODE":0,"TOWNNAME":"永康區","LI":"復國里","LIN":"13鄰","STREET":"復華三街","SECT":" ","MAREA":" ","LANE":" ","ALLEY":" ","HOUSE_NO":"７號","E_COORD97":172917.01000000001,"N_COORD97":2545525.6899999999,"ADDRESS":"復華三街７號","OBJECTID":489890},"geometry":{"x":172917.00999999978,"y":2545525.6900000013}},{"attributes":{"ID":489916,"DIS_CODE":0,"TOWNNAME":"永康區","LI":"復華里","LIN":"13鄰","STREET":"復國二路","SECT":" ","MAREA":" ","LANE":" ","ALLEY":" ","HOUSE_NO":"１８１號","E_COORD97":172969.76000000001,"N_COORD97":2545933.2799999998,"ADDRESS":"復國二路１８１號","OBJECTID":489891},"geometry":{"x":172969.76000000164,"y":2545933.2799999993}},{"attributes":{"ID":489917,"DIS_CODE":0,"TOWNNAME":"永康區","LI":"復國里","LIN":"13鄰","STREET":"復華三街","SECT":" ","MAREA":" ","LANE":" ","ALLEY":" ","HOUSE_NO":"５號之１","E_COORD97":172932.17000000001,"N_COORD97":2545523.0899999999,"ADDRESS":"復華三街５號之１","OBJECTID":489892},"geometry":{"x":172932.17000000086,"y":2545523.0900000017}},{"attributes":{"ID":489918,"DIS_CODE":0,"TOWNNAME":"永康區","LI":"復興里","LIN":"13鄰","STREET":"復興路","SECT":" ","MAREA":" ","LANE":" ","ALLEY":" ","HOUSE_NO":"２７０號","E_COORD97":172391.60999999999,"N_COORD97":2544347.7799999998,"ADDRESS":"復興路２７０號","OBJECTID":489893},"geometry":{"x":172391.6100000022,"y":2544347.7800000012}},{"attributes":{"ID":489919,"DIS_CODE":0,"TOWNNAME":"永康區","LI":"復國里","LIN":"13鄰","STREET":"復華三街","SECT":" ","MAREA":" ","LANE":" ","ALLEY":" ","HOUSE_NO":"３７號","E_COORD97":172834.82999999999,"N_COORD97":2545535.9500000002,"ADDRESS":"復華三街３７號","OBJECTID":489894},"geometry":{"x":172834.83000000007,"y":2545535.950000003}},{"attributes":{"ID":489920,"DIS_CODE":0,"TOWNNAME":"永康區","LI":"復興里","LIN":"13鄰","STREET":"復興路","SECT":" ","MAREA":" ","LANE":" ","ALLEY":" ","HOUSE_NO":"２７６號","E_COORD97":172382.17999999999,"N_COORD97":2544347.9700000002,"ADDRESS":"復興路２７６號","OBJECTID":489895},"geometry":{"x":172382.18000000063,"y":2544347.9700000025}},{"attributes":{"ID":489921,"DIS_CODE":0,"TOWNNAME":"永康區","LI":"復華里","LIN":"13鄰","STREET":"復國二路","SECT":" ","MAREA":" ","LANE":" ","ALLEY":" ","HOUSE_NO":"１８９號","E_COORD97":172973.87,"N_COORD97":2545951.02,"ADDRESS":"復國二路１８９號","OBJECTID":489896},"geometry":{"x":172973.87000000011,"y":2545951.0200000014}},{"attributes":{"ID":489922,"DIS_CODE":0,"TOWNNAME":"官田區","LI":"隆田里","LIN":"13鄰","STREET":"勝利路","SECT":" ","MAREA":" ","LANE":" ","ALLEY":" ","HOUSE_NO":"１０１號之１","E_COORD97":180062.47,"N_COORD97":2566020.8599999999,"ADDRESS":"勝利路１０１號之１","OBJECTID":489897},"geometry":{"x":180062.46999999881,"y":2566020.8599999994}},{"attributes":{"ID":489923,"DIS_CODE":0,"TOWNNAME":"官田區","LI":"隆田里","LIN":"13鄰","STREET":"勝利路","SECT":" ","MAREA":" ","LANE":" ","ALLEY":" ","HOUSE_NO":"１０１號之２","E_COORD97":180067.44,"N_COORD97":2566025.4900000002,"ADDRESS":"勝利路１０１號之２","OBJECTID":489898},"geometry":{"x":180067.44000000134,"y":2566025.4900000021}},{"attributes":{"ID":489924,"DIS_CODE":0,"TOWNNAME":"官田區","LI":"隆田里","LIN":"13鄰","STREET":"勝利路","SECT":" ","MAREA":" ","LANE":" ","ALLEY":" ","HOUSE_NO":"１０１號之３","E_COORD97":180071.45999999999,"N_COORD97":2566028.1200000001,"ADDRESS":"勝利路１０１號之３","OBJECTID":489899},"geometry":{"x":180071.46000000183,"y":2566028.1200000048}},{"attributes":{"ID":489925,"DIS_CODE":0,"TOWNNAME":"官田區","LI":"隆田里","LIN":"13鄰","STREET":"勝利路","SECT":" ","MAREA":" ","LANE":" ","ALLEY":" ","HOUSE_NO":"１０１號","E_COORD97":180056.89999999999,"N_COORD97":2566017.0800000001,"ADDRESS":"勝利路１０１號","OBJECTID":489900},"geometry":{"x":180056.90000000224,"y":2566017.0800000038}},{"attributes":{"ID":489926,"DIS_CODE":0,"TOWNNAME":"官田區","LI":"隆田里","LIN":"13鄰","STREET":"勝利路","SECT":" ","MAREA":" ","LANE":" ","ALLEY":" ","HOUSE_NO":"１０３號","E_COORD97":180076.04999999999,"N_COORD97":2566029.1099999999,"ADDRESS":"勝利路１０３號","OBJECTID":489901},"geometry":{"x":180076.05000000075,"y":2566029.1099999994}},{"attributes":{"ID":489927,"DIS_CODE":0,"TOWNNAME":"官田區","LI":"隆田里","LIN":"13鄰","STREET":"勝利路","SECT":" ","MAREA":" ","LANE":" ","ALLEY":" ","HOUSE_NO":"１０５號","E_COORD97":180080.44,"N_COORD97":2566030.98,"ADDRESS":"勝利路１０５號","OBJECTID":489902},"geometry":{"x":180080.44000000227,"y":2566030.9800000004}},{"attributes":{"ID":489928,"DIS_CODE":0,"TOWNNAME":"官田區","LI":"隆田里","LIN":"13鄰","STREET":"勝利路","SECT":" ","MAREA":" ","LANE":" ","ALLEY":" ","HOUSE_NO":"１１３號","E_COORD97":180094.87,"N_COORD97":2566045.75,"ADDRESS":"勝利路１１３號","OBJECTID":489903},"geometry":{"x":180094.87000000104,"y":2566045.75}},{"attributes":{"ID":489929,"DIS_CODE":0,"TOWNNAME":"白河區","LI":"白河里","LIN":"13鄰","STREET":"中山路","SECT":" ","MAREA":" ","LANE":" ","ALLEY":" ","HOUSE_NO":"１０４號","E_COORD97":190263.95999999999,"N_COORD97":2583209.3799999999,"ADDRESS":"中山路１０４號","OBJECTID":489904},"geometry":{"x":190263.95999999996,"y":2583209.379999999}},{"attributes":{"ID":489930,"DIS_CODE":0,"TOWNNAME":"白河區","LI":"白河里","LIN":"13鄰","STREET":"中山路","SECT":" ","MAREA":" ","LANE":" ","ALLEY":" ","HOUSE_NO":"１０６號","E_COORD97":190266.67000000001,"N_COORD97":2583213.8500000001,"ADDRESS":"中山路１０６號","OBJECTID":489905},"geometry":{"x":190266.67000000086,"y":2583213.8499999996}},{"attributes":{"ID":489931,"DIS_CODE":0,"TOWNNAME":"白河區","LI":"白河里","LIN":"13鄰","STREET":"中山路","SECT":" ","MAREA":" ","LANE":" ","ALLEY":" ","HOUSE_NO":"１０８號","E_COORD97":190268.45999999999,"N_COORD97":2583217.7799999998,"ADDRESS":"中山路１０８號","OBJECTID":489906},"geometry":{"x":190268.46000000089,"y":2583217.7800000031}},{"attributes":{"ID":489932,"DIS_CODE":0,"TOWNNAME":"白河區","LI":"白河里","LIN":"13鄰","STREET":"中山路","SECT":" ","MAREA":" ","LANE":" ","ALLEY":" ","HOUSE_NO":"１１２號","E_COORD97":190271.20999999999,"N_COORD97":2583221.6299999999,"ADDRESS":"中山路１１２號","OBJECTID":489907},"geometry":{"x":190271.20999999903,"y":2583221.6299999971}},{"attributes":{"ID":489933,"DIS_CODE":0,"TOWNNAME":"白河區","LI":"白河里","LIN":"13鄰","STREET":"中山路","SECT":" ","MAREA":" ","LANE":" ","ALLEY":" ","HOUSE_NO":"１１４號","E_COORD97":190272.89000000001,"N_COORD97":2583225.6899999999,"ADDRESS":"中山路１１４號","OBJECTID":489908},"geometry":{"x":190272.88999999966,"y":2583225.6900000013}},{"attributes":{"ID":489934,"DIS_CODE":0,"TOWNNAME":"白河區","LI":"永安里","LIN":"13鄰","STREET":"中山路","SECT":" ","MAREA":" ","LANE":" ","ALLEY":" ","HOUSE_NO":"１１５號","E_COORD97":190331.26999999999,"N_COORD97":2583337.2999999998,"ADDRESS":"中山路１１５號","OBJECTID":489909},"geometry":{"x":190331.26999999955,"y":2583337.3000000007}},{"attributes":{"ID":489935,"DIS_CODE":0,"TOWNNAME":"白河區","LI":"白河里","LIN":"13鄰","STREET":"中山路","SECT":" ","MAREA":" ","LANE":" ","ALLEY":" ","HOUSE_NO":"１１６號","E_COORD97":190275.29999999999,"N_COORD97":2583230.29,"ADDRESS":"中山路１１６號","OBJECTID":489910},"geometry":{"x":190275.29999999981,"y":2583230.2899999991}},{"attributes":{"ID":489936,"DIS_CODE":0,"TOWNNAME":"白河區","LI":"永安里","LIN":"13鄰","STREET":"中山路","SECT":" ","MAREA":" ","LANE":" ","ALLEY":" ","HOUSE_NO":"１１７號","E_COORD97":190334.01000000001,"N_COORD97":2583340.7400000002,"ADDRESS":"中山路１１７號","OBJECTID":489911},"geometry":{"x":190334.01000000071,"y":2583340.7400000002}},{"attributes":{"ID":489937,"DIS_CODE":0,"TOWNNAME":"白河區","LI":"白河里","LIN":"13鄰","STREET":"中山路","SECT":" ","MAREA":" ","LANE":" ","ALLEY":" ","HOUSE_NO":"１１８號","E_COORD97":190277.76000000001,"N_COORD97":2583233.8199999998,"ADDRESS":"中山路１１８號","OBJECTID":489912},"geometry":{"x":190277.76000000071,"y":2583233.8200000003}},{"attributes":{"ID":489938,"DIS_CODE":0,"TOWNNAME":"白河區","LI":"永安里","LIN":"13鄰","STREET":"中山路","SECT":" ","MAREA":" ","LANE":" ","ALLEY":" ","HOUSE_NO":"１１９號","E_COORD97":190336.54999999999,"N_COORD97":2583344.1600000001,"ADDRESS":"中山路１１９號","OBJECTID":489913},"geometry":{"x":190336.54999999888,"y":2583344.1600000001}},{"attributes":{"ID":489939,"DIS_CODE":0,"TOWNNAME":"白河區","LI":"白河里","LIN":"13鄰","STREET":"中山路","SECT":" ","MAREA":" ","LANE":" ","ALLEY":" ","HOUSE_NO":"１２０號","E_COORD97":190279.75,"N_COORD97":2583237.2000000002,"ADDRESS":"中山路１２０號","OBJECTID":489914},"geometry":{"x":190279.75000000093,"y":2583237.1999999993}},{"attributes":{"ID":489940,"DIS_CODE":0,"TOWNNAME":"白河區","LI":"永安里","LIN":"13鄰","STREET":"中山路","SECT":" ","MAREA":" ","LANE":" ","ALLEY":" ","HOUSE_NO":"１２１號","E_COORD97":190339.14999999999,"N_COORD97":2583347.7799999998,"ADDRESS":"中山路１２１號","OBJECTID":489915},"geometry":{"x":190339.15000000037,"y":2583347.7800000012}},{"attributes":{"ID":489941,"DIS_CODE":0,"TOWNNAME":"白河區","LI":"白河里","LIN":"13鄰","STREET":"中山路","SECT":" ","MAREA":" ","LANE":" ","ALLEY":" ","HOUSE_NO":"１２２號","E_COORD97":190281.48000000001,"N_COORD97":2583240.8199999998,"ADDRESS":"中山路１２２號","OBJECTID":489916},"geometry":{"x":190281.48000000045,"y":2583240.8200000003}},{"attributes":{"ID":489942,"DIS_CODE":0,"TOWNNAME":"白河區","LI":"永安里","LIN":"13鄰","STREET":"中山路","SECT":" ","MAREA":" ","LANE":" ","ALLEY":" ","HOUSE_NO":"１２３號","E_COORD97":190342.66,"N_COORD97":2583352.6200000001,"ADDRESS":"中山路１２３號","OBJECTID":489917},"geometry":{"x":190342.66000000015,"y":2583352.620000001}},{"attributes":{"ID":489943,"DIS_CODE":0,"TOWNNAME":"白河區","LI":"永安里","LIN":"13鄰","STREET":"中山路","SECT":" ","MAREA":" ","LANE":" ","ALLEY":" ","HOUSE_NO":"１２５號","E_COORD97":190344.56,"N_COORD97":2583355.8500000001,"ADDRESS":"中山路１２５號","OBJECTID":489918},"geometry":{"x":190344.55999999959,"y":2583355.8499999996}},{"attributes":{"ID":489944,"DIS_CODE":0,"TOWNNAME":"白河區","LI":"永安里","LIN":"13鄰","STREET":"中山路","SECT":" ","MAREA":" ","LANE":" ","ALLEY":" ","HOUSE_NO":"１２９號","E_COORD97":190349.17999999999,"N_COORD97":2583362.2999999998,"ADDRESS":"中山路１２９號","OBJECTID":489919},"geometry":{"x":190349.18000000156,"y":2583362.3000000026}},{"attributes":{"ID":489945,"DIS_CODE":0,"TOWNNAME":"白河區","LI":"永安里","LIN":"13鄰","STREET":"中山路","SECT":" ","MAREA":" ","LANE":" ","ALLEY":" ","HOUSE_NO":"１３１之１號","E_COORD97":190353.64999999999,"N_COORD97":2583367.7999999998,"ADDRESS":"中山路１３１之１號","OBJECTID":489920},"geometry":{"x":190353.65000000224,"y":2583367.8000000007}},{"attributes":{"ID":489946,"DIS_CODE":0,"TOWNNAME":"白河區","LI":"白河里","LIN":"13鄰","STREET":"中山路","SECT":" ","MAREA":" ","LANE":" ","ALLEY":" ","HOUSE_NO":"８６號","E_COORD97":190236.04999999999,"N_COORD97":2583171.7599999998,"ADDRESS":"中山路８６號","OBJECTID":489921},"geometry":{"x":190236.04999999981,"y":2583171.7600000016}},{"attributes":{"ID":489947,"DIS_CODE":0,"TOWNNAME":"中西區","LI":"公正里","LIN":"15鄰","STREET":"衛民街","SECT":" ","MAREA":" ","LANE":" ","ALLEY":" ","HOUSE_NO":"１０６號之４３","E_COORD97":168899.20999999999,"N_COORD97":2543795.1499999999,"ADDRESS":"衛民街１０６號之４３","OBJECTID":489922},"geometry":{"x":168899.21000000089,"y":2543795.1500000004}},{"attributes":{"ID":489948,"DIS_CODE":0,"TOWNNAME":"南區","LI":"南都里","LIN":"4鄰","STREET":"濱南路","SECT":" ","MAREA":" ","LANE":" ","ALLEY":" ","HOUSE_NO":"６１號","E_COORD97":166328,"N_COORD97":2540140.25,"ADDRESS":"濱南路６１號","OBJECTID":489923},"geometry":{"x":166328,"y":2540140.25}},{"attributes":{"ID":489949,"DIS_CODE":0,"TOWNNAME":"南區","LI":"南都里","LIN":"4鄰","STREET":"濱南路","SECT":" ","MAREA":" ","LANE":" ","ALLEY":" ","HOUSE_NO":"６３號","E_COORD97":166327.69,"N_COORD97":2540135.3399999999,"ADDRESS":"濱南路６３號","OBJECTID":489924},"geometry":{"x":166327.69000000134,"y":2540135.3399999999}},{"attributes":{"ID":489950,"DIS_CODE":0,"TOWNNAME":"南區","LI":"南都里","LIN":"4鄰","STREET":"濱南路","SECT":" ","MAREA":" ","LANE":" ","ALLEY":" ","HOUSE_NO":"６５號","E_COORD97":166327.69,"N_COORD97":2540131.3500000001,"ADDRESS":"濱南路６５號","OBJECTID":489925},"geometry":{"x":166327.69000000134,"y":2540131.3499999996}},{"attributes":{"ID":489951,"DIS_CODE":0,"TOWNNAME":"南區","LI":"南都里","LIN":"4鄰","STREET":"濱南路","SECT":" ","MAREA":" ","LANE":" ","ALLEY":" ","HOUSE_NO":"６７號","E_COORD97":166328.60999999999,"N_COORD97":2540124.9100000001,"ADDRESS":"濱南路６７號","OBJECTID":489926},"geometry":{"x":166328.61000000127,"y":2540124.9100000001}},{"attributes":{"ID":489952,"DIS_CODE":0,"TOWNNAME":"安平區","LI":"建平里","LIN":"22鄰","STREET":"永華三街","SECT":" ","MAREA":" ","LANE":" ","ALLEY":" ","HOUSE_NO":"８６號","E_COORD97":166110.51999999999,"N_COORD97":2543647.04,"ADDRESS":"永華三街８６號","OBJECTID":489927},"geometry":{"x":166110.51999999955,"y":2543647.040000001}},{"attributes":{"ID":489953,"DIS_CODE":0,"TOWNNAME":"安南區","LI":"海東里","LIN":"13鄰","STREET":"海佃路","SECT":"二段","MAREA":" ","LANE":" ","ALLEY":" ","HOUSE_NO":"３９１號","E_COORD97":166732.75,"N_COORD97":2548938.02,"ADDRESS":"海佃路二段３９１號","OBJECTID":489928},"geometry":{"x":166732.75,"y":2548938.0199999996}},{"attributes":{"ID":489954,"DIS_CODE":0,"TOWNNAME":"安南區","LI":"理想里","LIN":"13鄰","STREET":"海佃路","SECT":"二段","MAREA":" ","LANE":" ","ALLEY":" ","HOUSE_NO":"１０６號","E_COORD97":167016.54999999999,"N_COORD97":2548049.5,"ADDRESS":"海佃路二段１０６號","OBJECTID":489929},"geometry":{"x":167016.55000000075,"y":2548049.5000000019}},{"attributes":{"ID":489955,"DIS_CODE":0,"TOWNNAME":"安南區","LI":"頂安里","LIN":"13鄰","STREET":"安中路","SECT":"一段","MAREA":" ","LANE":" ","ALLEY":" ","HOUSE_NO":"３６１號（房屋已拆除","E_COORD97":168379.53,"N_COORD97":2548697.2999999998,"ADDRESS":"安中路一段３６１號（房屋已拆除）","OBJECTID":489930},"geometry":{"x":168379.53000000212,"y":2548697.3000000007}},{"attributes":{"ID":489956,"DIS_CODE":0,"TOWNNAME":"安南區","LI":"頂安里","LIN":"13鄰","STREET":"安中路","SECT":"一段","MAREA":" ","LANE":" ","ALLEY":" ","HOUSE_NO":"３６２號","E_COORD97":168424.56,"N_COORD97":2548737.0299999998,"ADDRESS":"安中路一段３６２號","OBJECTID":489931},"geometry":{"x":168424.56000000052,"y":2548737.0300000012}},{"attributes":{"ID":489957,"DIS_CODE":0,"TOWNNAME":"安南區","LI":"頂安里","LIN":"13鄰","STREET":"安中路","SECT":"一段","MAREA":" ","LANE":" ","ALLEY":" ","HOUSE_NO":"３６４號","E_COORD97":168421.60000000001,"N_COORD97":2548739.0099999998,"ADDRESS":"安中路一段３６４號","OBJECTID":489932},"geometry":{"x":168421.59999999963,"y":2548739.0099999998}},{"attributes":{"ID":489958,"DIS_CODE":0,"TOWNNAME":"安南區","LI":"頂安里","LIN":"13鄰","STREET":"安中路","SECT":"一段","MAREA":" ","LANE":" ","ALLEY":" ","HOUSE_NO":"３６６號","E_COORD97":168417.32999999999,"N_COORD97":2548742.6200000001,"ADDRESS":"安中路一段３６６號","OBJECTID":489933},"geometry":{"x":168417.33000000007,"y":2548742.620000001}},{"attributes":{"ID":489959,"DIS_CODE":0,"TOWNNAME":"安南區","LI":"頂安里","LIN":"13鄰","STREET":"安中路","SECT":"一段","MAREA":" ","LANE":" ","ALLEY":" ","HOUSE_NO":"３６８號","E_COORD97":168414.04000000001,"N_COORD97":2548745.5699999998,"ADDRESS":"安中路一段３６８號","OBJECTID":489934},"geometry":{"x":168414.04000000004,"y":2548745.5700000003}},{"attributes":{"ID":489960,"DIS_CODE":0,"TOWNNAME":"安南區","LI":"頂安里","LIN":"13鄰","STREET":"安中路","SECT":"一段","MAREA":" ","LANE":" ","ALLEY":" ","HOUSE_NO":"３７６號","E_COORD97":168394,"N_COORD97":2548757.0699999998,"ADDRESS":"安中路一段３７６號","OBJECTID":489935},"geometry":{"x":168394,"y":2548757.070000004}},{"attributes":{"ID":489961,"DIS_CODE":0,"TOWNNAME":"安南區","LI":"頂安里","LIN":"13鄰","STREET":"安中路","SECT":"一段","MAREA":" ","LANE":" ","ALLEY":" ","HOUSE_NO":"３７８號","E_COORD97":168390.04999999999,"N_COORD97":2548759.6899999999,"ADDRESS":"安中路一段３７８號","OBJECTID":489936},"geometry":{"x":168390.04999999981,"y":2548759.6900000013}},{"attributes":{"ID":489962,"DIS_CODE":0,"TOWNNAME":"安南區","LI":"頂安里","LIN":"13鄰","STREET":"安中路","SECT":"一段","MAREA":" ","LANE":" ","ALLEY":" ","HOUSE_NO":"３８０號","E_COORD97":168386.10999999999,"N_COORD97":2548761.9900000002,"ADDRESS":"安中路一段３８０號","OBJECTID":489937},"geometry":{"x":168386.11000000127,"y":2548761.9900000021}},{"attributes":{"ID":489963,"DIS_CODE":0,"TOWNNAME":"安南區","LI":"頂安里","LIN":"13鄰","STREET":"安中路","SECT":"一段","MAREA":" ","LANE":" ","ALLEY":" ","HOUSE_NO":"３８２號","E_COORD97":168382.16,"N_COORD97":2548764.9500000002,"ADDRESS":"安中路一段３８２號","OBJECTID":489938},"geometry":{"x":168382.16000000108,"y":2548764.9500000011}},{"attributes":{"ID":489964,"DIS_CODE":0,"TOWNNAME":"安南區","LI":"海東里","LIN":"13鄰","STREET":"海佃路","SECT":"二段","MAREA":" ","LANE":" ","ALLEY":" ","HOUSE_NO":"３８９號","E_COORD97":166733.32999999999,"N_COORD97":2548932.8199999998,"ADDRESS":"海佃路二段３８９號","OBJECTID":489939},"geometry":{"x":166733.33000000101,"y":2548932.8200000022}},{"attributes":{"ID":489965,"DIS_CODE":0,"TOWNNAME":"安南區","LI":"海東里","LIN":"13鄰","STREET":"海佃路","SECT":"二段","MAREA":" ","LANE":" ","ALLEY":" ","HOUSE_NO":"３９９號","E_COORD97":166729.39000000001,"N_COORD97":2548957.8599999999,"ADDRESS":"海佃路二段３９９號","OBJECTID":489940},"geometry":{"x":166729.3900000006,"y":2548957.8600000013}},{"attributes":{"ID":489966,"DIS_CODE":0,"TOWNNAME":"安南區","LI":"海東里","LIN":"13鄰","STREET":"海佃路","SECT":"二段","MAREA":" ","LANE":" ","ALLEY":" ","HOUSE_NO":"４０５號","E_COORD97":166726.06,"N_COORD97":2548971.5699999998,"ADDRESS":"海佃路二段４０５號","OBJECTID":489941},"geometry":{"x":166726.06000000052,"y":2548971.5700000022}},{"attributes":{"ID":489967,"DIS_CODE":0,"TOWNNAME":"安南區","LI":"海東里","LIN":"13鄰","STREET":"海佃路","SECT":"二段","MAREA":" ","LANE":" ","ALLEY":" ","HOUSE_NO":"４０７號","E_COORD97":166725.81,"N_COORD97":2548976.8900000001,"ADDRESS":"海佃路二段４０７號","OBJECTID":489942},"geometry":{"x":166725.81000000145,"y":2548976.8900000025}},{"attributes":{"ID":489968,"DIS_CODE":0,"TOWNNAME":"安南區","LI":"海東里","LIN":"13鄰","STREET":"海佃路","SECT":"二段","MAREA":" ","LANE":" ","ALLEY":" ","HOUSE_NO":"４１５號","E_COORD97":166719.94,"N_COORD97":2548993.8100000001,"ADDRESS":"海佃路二段４１５號","OBJECTID":489943},"geometry":{"x":166719.94000000041,"y":2548993.8100000024}},{"attributes":{"ID":489969,"DIS_CODE":0,"TOWNNAME":"安南區","LI":"理想里","LIN":"13鄰","STREET":"大安街","SECT":" ","MAREA":" ","LANE":" ","ALLEY":" ","HOUSE_NO":"４５號","E_COORD97":167158.14000000001,"N_COORD97":2547986.6200000001,"ADDRESS":"大安街４５號","OBJECTID":489944},"geometry":{"x":167158.1400000006,"y":2547986.620000001}},{"attributes":{"ID":489970,"DIS_CODE":0,"TOWNNAME":"安南區","LI":"溪心里","LIN":"13鄰","STREET":"海中街","SECT":" ","MAREA":" ","LANE":" ","ALLEY":" ","HOUSE_NO":"７２４號","E_COORD97":165855.75,"N_COORD97":2549737.5299999998,"ADDRESS":"海中街７２４號","OBJECTID":489945},"geometry":{"x":165855.75000000093,"y":2549737.5300000012}},{"attributes":{"ID":489971,"DIS_CODE":0,"TOWNNAME":"安南區","LI":"溪心里","LIN":"13鄰","STREET":"海中街","SECT":" ","MAREA":" ","LANE":" ","ALLEY":" ","HOUSE_NO":"７２６號","E_COORD97":165855.38,"N_COORD97":2549742.0899999999,"ADDRESS":"海中街７２６號","OBJECTID":489946},"geometry":{"x":165855.37999999989,"y":2549742.0899999999}},{"attributes":{"ID":489972,"DIS_CODE":0,"TOWNNAME":"安南區","LI":"溪心里","LIN":"13鄰","STREET":"海中街","SECT":" ","MAREA":" ","LANE":" ","ALLEY":" ","HOUSE_NO":"７２８號","E_COORD97":165855.69,"N_COORD97":2549746.5499999998,"ADDRESS":"海中街７２８號","OBJECTID":489947},"geometry":{"x":165855.69000000041,"y":2549746.5500000007}},{"attributes":{"ID":489973,"DIS_CODE":0,"TOWNNAME":"安南區","LI":"溪心里","LIN":"13鄰","STREET":"海中街","SECT":" ","MAREA":" ","LANE":" ","ALLEY":" ","HOUSE_NO":"７３０號","E_COORD97":165855.75,"N_COORD97":2549750.7000000002,"ADDRESS":"海中街７３０號","OBJECTID":489948},"geometry":{"x":165855.75000000093,"y":2549750.6999999993}},{"attributes":{"ID":489974,"DIS_CODE":0,"TOWNNAME":"安南區","LI":"溪心里","LIN":"13鄰","STREET":"海中街","SECT":" ","MAREA":" ","LANE":" ","ALLEY":" ","HOUSE_NO":"７３２號","E_COORD97":165855.69,"N_COORD97":2549754.73,"ADDRESS":"海中街７３２號","OBJECTID":489949},"geometry":{"x":165855.69000000041,"y":2549754.7300000004}},{"attributes":{"ID":489975,"DIS_CODE":0,"TOWNNAME":"安南區","LI":"溪心里","LIN":"13鄰","STREET":"海中街","SECT":" ","MAREA":" ","LANE":" ","ALLEY":" ","HOUSE_NO":"７３４號","E_COORD97":165855.5,"N_COORD97":2549759.5,"ADDRESS":"海中街７３４號","OBJECTID":489950},"geometry":{"x":165855.50000000093,"y":2549759.5}},{"attributes":{"ID":489976,"DIS_CODE":0,"TOWNNAME":"安南區","LI":"溪心里","LIN":"13鄰","STREET":"海中街","SECT":" ","MAREA":" ","LANE":" ","ALLEY":" ","HOUSE_NO":"７３６號","E_COORD97":165855.56,"N_COORD97":2549763.21,"ADDRESS":"海中街７３６號","OBJECTID":489951},"geometry":{"x":165855.55999999959,"y":2549763.2100000009}},{"attributes":{"ID":489977,"DIS_CODE":0,"TOWNNAME":"安南區","LI":"溪心里","LIN":"13鄰","STREET":"海中街","SECT":" ","MAREA":" ","LANE":" ","ALLEY":" ","HOUSE_NO":"７３８號","E_COORD97":165854.88,"N_COORD97":2549767.7999999998,"ADDRESS":"海中街７３８號","OBJECTID":489952},"geometry":{"x":165854.88000000082,"y":2549767.8000000026}},{"attributes":{"ID":489978,"DIS_CODE":0,"TOWNNAME":"安南區","LI":"溪心里","LIN":"13鄰","STREET":"海中街","SECT":" ","MAREA":" ","LANE":" ","ALLEY":" ","HOUSE_NO":"７５８號","E_COORD97":165853.37,"N_COORD97":2549821.0099999998,"ADDRESS":"海中街７５８號","OBJECTID":489953},"geometry":{"x":165853.37000000104,"y":2549821.0099999998}},{"attributes":{"ID":489979,"DIS_CODE":0,"TOWNNAME":"安南區","LI":"溪心里","LIN":"13鄰","STREET":"海中街","SECT":" ","MAREA":" ","LANE":" ","ALLEY":" ","HOUSE_NO":"７６０號","E_COORD97":165852.56,"N_COORD97":2549826.79,"ADDRESS":"海中街７６０號","OBJECTID":489954},"geometry":{"x":165852.55999999959,"y":2549826.790000001}},{"attributes":{"ID":489980,"DIS_CODE":0,"TOWNNAME":"安南區","LI":"城東里","LIN":"13鄰","STREET":"城北路","SECT":" ","MAREA":" ","LANE":" ","ALLEY":" ","HOUSE_NO":"１５５號","E_COORD97":160963.25,"N_COORD97":2551737.54,"ADDRESS":"城北路１５５號","OBJECTID":489955},"geometry":{"x":160963.25000000093,"y":2551737.540000001}},{"attributes":{"ID":489981,"DIS_CODE":0,"TOWNNAME":"安南區","LI":"城東里","LIN":"13鄰","STREET":"城北路","SECT":" ","MAREA":" ","LANE":" ","ALLEY":" ","HOUSE_NO":"１５７號","E_COORD97":160964.73000000001,"N_COORD97":2551742.1699999999,"ADDRESS":"城北路１５７號","OBJECTID":489956},"geometry":{"x":160964.73000000045,"y":2551742.1699999999}},{"attributes":{"ID":489982,"DIS_CODE":0,"TOWNNAME":"安南區","LI":"城東里","LIN":"13鄰","STREET":"城北路","SECT":" ","MAREA":" ","LANE":" ","ALLEY":" ","HOUSE_NO":"１５９號","E_COORD97":160964.23999999999,"N_COORD97":2551746.8900000001,"ADDRESS":"城北路１５９號","OBJECTID":489957},"geometry":{"x":160964.24000000022,"y":2551746.8900000025}},{"attributes":{"ID":489983,"DIS_CODE":0,"TOWNNAME":"安南區","LI":"城東里","LIN":"13鄰","STREET":"城北路","SECT":" ","MAREA":" ","LANE":" ","ALLEY":" ","HOUSE_NO":"１６３號","E_COORD97":160965.29999999999,"N_COORD97":2551755.96,"ADDRESS":"城北路１６３號","OBJECTID":489958},"geometry":{"x":160965.29999999981,"y":2551755.9600000028}},{"attributes":{"ID":489984,"DIS_CODE":0,"TOWNNAME":"安南區","LI":"城東里","LIN":"13鄰","STREET":"城北路","SECT":" ","MAREA":" ","LANE":" ","ALLEY":" ","HOUSE_NO":"１６５號","E_COORD97":160965.48000000001,"N_COORD97":2551759.1800000002,"ADDRESS":"城北路１６５號","OBJECTID":489959},"geometry":{"x":160965.48000000138,"y":2551759.1799999997}},{"attributes":{"ID":489985,"DIS_CODE":0,"TOWNNAME":"安南區","LI":"城東里","LIN":"13鄰","STREET":"城北路","SECT":" ","MAREA":" ","LANE":" ","ALLEY":" ","HOUSE_NO":"１６７號","E_COORD97":160964.76000000001,"N_COORD97":2551764.02,"ADDRESS":"城北路１６７號","OBJECTID":489960},"geometry":{"x":160964.76000000071,"y":2551764.0200000033}},{"attributes":{"ID":489986,"DIS_CODE":0,"TOWNNAME":"安南區","LI":"城東里","LIN":"13鄰","STREET":"城北路","SECT":" ","MAREA":" ","LANE":" ","ALLEY":" ","HOUSE_NO":"１７３號","E_COORD97":160967.26999999999,"N_COORD97":2551780.0899999999,"ADDRESS":"城北路１７３號","OBJECTID":489961},"geometry":{"x":160967.26999999955,"y":2551780.0899999999}},{"attributes":{"ID":489987,"DIS_CODE":0,"TOWNNAME":"安南區","LI":"城東里","LIN":"13鄰","STREET":"城北路","SECT":" ","MAREA":" ","LANE":" ","ALLEY":" ","HOUSE_NO":"１７７號","E_COORD97":160969.23999999999,"N_COORD97":2551786.9199999999,"ADDRESS":"城北路１７７號","OBJECTID":489962},"geometry":{"x":160969.24000000022,"y":2551786.9200000018}},{"attributes":{"ID":489988,"DIS_CODE":0,"TOWNNAME":"安南區","LI":"城東里","LIN":"13鄰","STREET":"城北路","SECT":" ","MAREA":" ","LANE":" ","ALLEY":" ","HOUSE_NO":"１８１號","E_COORD97":160970.32000000001,"N_COORD97":2551794.6200000001,"ADDRESS":"城北路１８１號","OBJECTID":489963},"geometry":{"x":160970.32000000123,"y":2551794.620000001}},{"attributes":{"ID":489989,"DIS_CODE":0,"TOWNNAME":"安南區","LI":"城東里","LIN":"13鄰","STREET":"城北路","SECT":" ","MAREA":" ","LANE":" ","ALLEY":" ","HOUSE_NO":"１８３號","E_COORD97":160971.04000000001,"N_COORD97":2551798.21,"ADDRESS":"城北路１８３號","OBJECTID":489964},"geometry":{"x":160971.04000000004,"y":2551798.2100000028}},{"attributes":{"ID":489990,"DIS_CODE":0,"TOWNNAME":"安南區","LI":"城東里","LIN":"13鄰","STREET":"城北路","SECT":" ","MAREA":" ","LANE":" ","ALLEY":" ","HOUSE_NO":"１９１號","E_COORD97":160973.19,"N_COORD97":2551811.8799999999,"ADDRESS":"城北路１９１號","OBJECTID":489965},"geometry":{"x":160973.19000000041,"y":2551811.8800000027}},{"attributes":{"ID":489991,"DIS_CODE":0,"TOWNNAME":"安南區","LI":"城東里","LIN":"13鄰","STREET":"城北路","SECT":" ","MAREA":" ","LANE":" ","ALLEY":" ","HOUSE_NO":"１９５號","E_COORD97":160940.98000000001,"N_COORD97":2551863.02,"ADDRESS":"城北路１９５號","OBJECTID":489966},"geometry":{"x":160940.98000000045,"y":2551863.0200000014}},{"attributes":{"ID":489992,"DIS_CODE":0,"TOWNNAME":"仁德區","LI":"太子里","LIN":"13鄰","STREET":"長興二街","SECT":" ","MAREA":" ","LANE":" ","ALLEY":" ","HOUSE_NO":"６２號","E_COORD97":174295.37,"N_COORD97":2543705,"ADDRESS":"長興二街６２號","OBJECTID":489967},"geometry":{"x":174295.37000000104,"y":2543705}},{"attributes":{"ID":489993,"DIS_CODE":0,"TOWNNAME":"仁德區","LI":"保安里","LIN":"13鄰","STREET":"二仁路","SECT":"一段","MAREA":" ","LANE":" ","ALLEY":" ","HOUSE_NO":"１７４號之１","E_COORD97":170231.41,"N_COORD97":2536433.29,"ADDRESS":"二仁路一段１７４號之１","OBJECTID":489968},"geometry":{"x":170231.41000000201,"y":2536433.2899999991}},{"attributes":{"ID":489994,"DIS_CODE":0,"TOWNNAME":"仁德區","LI":"太子里","LIN":"13鄰","STREET":"長興二街","SECT":" ","MAREA":" ","LANE":" ","ALLEY":" ","HOUSE_NO":"６０號","E_COORD97":174300.01999999999,"N_COORD97":2543705.25,"ADDRESS":"長興二街６０號","OBJECTID":489969},"geometry":{"x":174300.01999999862,"y":2543705.2500000019}},{"attributes":{"ID":489995,"DIS_CODE":0,"TOWNNAME":"仁德區","LI":"太子里","LIN":"13鄰","STREET":"長興二街","SECT":" ","MAREA":" ","LANE":" ","ALLEY":" ","HOUSE_NO":"３８號","E_COORD97":174373.20999999999,"N_COORD97":2543707.25,"ADDRESS":"長興二街３８號","OBJECTID":489970},"geometry":{"x":174373.20999999996,"y":2543707.2500000037}},{"attributes":{"ID":489996,"DIS_CODE":0,"TOWNNAME":"仁德區","LI":"成功里","LIN":"13鄰","STREET":"全福路","SECT":" ","MAREA":" ","LANE":" ","ALLEY":" ","HOUSE_NO":"１１號","E_COORD97":170842.92000000001,"N_COORD97":2539327.2400000002,"ADDRESS":"全福路１１號","OBJECTID":489971},"geometry":{"x":170842.91999999899,"y":2539327.2400000039}},{"attributes":{"ID":489997,"DIS_CODE":0,"TOWNNAME":"仁德區","LI":"仁德里","LIN":"13鄰","STREET":"中正路","SECT":"三段","MAREA":" ","LANE":" ","ALLEY":" ","HOUSE_NO":"５號","E_COORD97":173270.32999999999,"N_COORD97":2541428.02,"ADDRESS":"中正路三段５號","OBJECTID":489972},"geometry":{"x":173270.33000000101,"y":2541428.0200000014}},{"attributes":{"ID":489998,"DIS_CODE":0,"TOWNNAME":"仁德區","LI":"成功里","LIN":"13鄰","STREET":"全福路","SECT":" ","MAREA":" ","LANE":" ","ALLEY":" ","HOUSE_NO":"２０號","E_COORD97":170860.07999999999,"N_COORD97":2539305,"ADDRESS":"全福路２０號","OBJECTID":489973},"geometry":{"x":170860.08000000007,"y":2539305.0000000037}},{"attributes":{"ID":489999,"DIS_CODE":0,"TOWNNAME":"仁德區","LI":"太子里","LIN":"13鄰","STREET":"長興二街","SECT":" ","MAREA":" ","LANE":" ","ALLEY":" ","HOUSE_NO":"５８號","E_COORD97":174304.88,"N_COORD97":2543705.5,"ADDRESS":"長興二街５８號","OBJECTID":489974},"geometry":{"x":174304.88000000175,"y":2543705.5000000037}},{"attributes":{"ID":490000,"DIS_CODE":0,"TOWNNAME":"仁德區","LI":"保安里","LIN":"13鄰","STREET":"二仁路","SECT":"一段","MAREA":" ","LANE":" ","ALLEY":" ","HOUSE_NO":"８０號","E_COORD97":170490.12,"N_COORD97":2535811.02,"ADDRESS":"二仁路一段８０號","OBJECTID":489975},"geometry":{"x":170490.12000000011,"y":2535811.0199999996}},{"attributes":{"ID":490001,"DIS_CODE":0,"TOWNNAME":"仁德區","LI":"保安里","LIN":"13鄰","STREET":"二仁路","SECT":"一段","MAREA":" ","LANE":" ","ALLEY":" ","HOUSE_NO":"８４號","E_COORD97":170484.03,"N_COORD97":2535822.27,"ADDRESS":"二仁路一段８４號","OBJECTID":489976},"geometry":{"x":170484.03000000119,"y":2535822.2700000014}},{"attributes":{"ID":490002,"DIS_CODE":0,"TOWNNAME":"仁德區","LI":"太子里","LIN":"13鄰","STREET":"長興二街","SECT":" ","MAREA":" ","LANE":" ","ALLEY":" ","HOUSE_NO":"６４號","E_COORD97":174291.60000000001,"N_COORD97":2543704.5,"ADDRESS":"長興二街６４號","OBJECTID":489977},"geometry":{"x":174291.60000000056,"y":2543704.5}},{"attributes":{"ID":490003,"DIS_CODE":0,"TOWNNAME":"東區","LI":"崇善里","LIN":"13鄰","STREET":"崇善十街","SECT":" ","MAREA":" ","LANE":" ","ALLEY":" ","HOUSE_NO":"９號","E_COORD97":171128.66,"N_COORD97":2541300.27,"ADDRESS":"崇善十街９號","OBJECTID":489978},"geometry":{"x":171128.66000000108,"y":2541300.2700000014}},{"attributes":{"ID":490004,"DIS_CODE":0,"TOWNNAME":"東區","LI":"崇善里","LIN":"13鄰","STREET":"崇善十街","SECT":" ","MAREA":" ","LANE":" ","ALLEY":" ","HOUSE_NO":"１１號","E_COORD97":171133.28,"N_COORD97":2541300.27,"ADDRESS":"崇善十街１１號","OBJECTID":489979},"geometry":{"x":171133.28000000119,"y":2541300.2700000014}},{"attributes":{"ID":490005,"DIS_CODE":0,"TOWNNAME":"仁德區","LI":"後壁里","LIN":"13鄰","STREET":"德善路","SECT":" ","MAREA":" ","LANE":" ","ALLEY":" ","HOUSE_NO":"１２６號","E_COORD97":173499.94,"N_COORD97":2538848.77,"ADDRESS":"德善路１２６號","OBJECTID":489980},"geometry":{"x":173499.94000000134,"y":2538848.7700000014}},{"attributes":{"ID":490006,"DIS_CODE":0,"TOWNNAME":"仁德區","LI":"成功里","LIN":"13鄰","STREET":"全福路","SECT":" ","MAREA":" ","LANE":" ","ALLEY":" ","HOUSE_NO":"２２號","E_COORD97":170864.12,"N_COORD97":2539303.75,"ADDRESS":"全福路２２號","OBJECTID":489981},"geometry":{"x":170864.12000000104,"y":2539303.7500000019}},{"attributes":{"ID":490007,"DIS_CODE":0,"TOWNNAME":"仁德區","LI":"新田里","LIN":"13鄰","STREET":"中正路","SECT":"二段","MAREA":" ","LANE":" ","ALLEY":" ","HOUSE_NO":"４０３號","E_COORD97":173284.85000000001,"N_COORD97":2539350.02,"ADDRESS":"中正路二段４０３號","OBJECTID":489982},"geometry":{"x":173284.85000000056,"y":2539350.0199999996}},{"attributes":{"ID":490008,"DIS_CODE":0,"TOWNNAME":"仁德區","LI":"成功里","LIN":"13鄰","STREET":"成功二街","SECT":" ","MAREA":" ","LANE":" ","ALLEY":" ","HOUSE_NO":"２１５號","E_COORD97":170923.95000000001,"N_COORD97":2539468.02,"ADDRESS":"成功二街２１５號","OBJECTID":489983},"geometry":{"x":170923.95000000019,"y":2539468.0200000014}},{"attributes":{"ID":490009,"DIS_CODE":0,"TOWNNAME":"仁德區","LI":"新田里","LIN":"13鄰","STREET":"北保一街","SECT":" ","MAREA":" ","LANE":" ","ALLEY":" ","HOUSE_NO":"９號","E_COORD97":173250.78,"N_COORD97":2539438.2400000002,"ADDRESS":"北保一街９號","OBJECTID":489984},"geometry":{"x":173250.78000000026,"y":2539438.2400000002}},{"attributes":{"ID":490010,"DIS_CODE":0,"TOWNNAME":"仁德區","LI":"土庫里","LIN":"13鄰","STREET":"土庫路","SECT":" ","MAREA":" ","LANE":" ","ALLEY":" ","HOUSE_NO":"２０５號","E_COORD97":174306.32000000001,"N_COORD97":2542914.5,"ADDRESS":"土庫路２０５號","OBJECTID":489985},"geometry":{"x":174306.32000000123,"y":2542914.5}},{"attributes":{"ID":490011,"DIS_CODE":0,"TOWNNAME":"仁德區","LI":"新田里","LIN":"13鄰","STREET":"北保二街","SECT":" ","MAREA":" ","LANE":" ","ALLEY":" ","HOUSE_NO":"３０號","E_COORD97":173236.44,"N_COORD97":2539446.4900000002,"ADDRESS":"北保二街３０號","OBJECTID":489986},"geometry":{"x":173236.44000000041,"y":2539446.4900000002}},{"attributes":{"ID":490012,"DIS_CODE":0,"TOWNNAME":"仁德區","LI":"新田里","LIN":"13鄰","STREET":"北保一街","SECT":" ","MAREA":" ","LANE":" ","ALLEY":" ","HOUSE_NO":"７號","E_COORD97":173255.45999999999,"N_COORD97":2539438.7400000002,"ADDRESS":"北保一街７號","OBJECTID":489987},"geometry":{"x":173255.46000000089,"y":2539438.7400000002}},{"attributes":{"ID":490013,"DIS_CODE":0,"TOWNNAME":"仁德區","LI":"新田里","LIN":"13鄰","STREET":"中正路","SECT":"二段","MAREA":" ","LANE":" ","ALLEY":" ","HOUSE_NO":"４１３號","E_COORD97":173293.10000000001,"N_COORD97":2539372.2799999998,"ADDRESS":"中正路二段４１３號","OBJECTID":489988},"geometry":{"x":173293.10000000056,"y":2539372.2799999993}},{"attributes":{"ID":490014,"DIS_CODE":0,"TOWNNAME":"仁德區","LI":"新田里","LIN":"13鄰","STREET":"中正路","SECT":"二段","MAREA":" ","LANE":" ","ALLEY":" ","HOUSE_NO":"４１７號","E_COORD97":173296.34,"N_COORD97":2539380.2799999998,"ADDRESS":"中正路二段４１７號","OBJECTID":489989},"geometry":{"x":173296.34000000171,"y":2539380.2800000031}},{"attributes":{"ID":490015,"DIS_CODE":0,"TOWNNAME":"仁德區","LI":"新田里","LIN":"13鄰","STREET":"中正路","SECT":"二段","MAREA":" ","LANE":" ","ALLEY":" ","HOUSE_NO":"４０５號","E_COORD97":173286.17999999999,"N_COORD97":2539354.27,"ADDRESS":"中正路二段４０５號","OBJECTID":489990},"geometry":{"x":173286.18000000063,"y":2539354.2700000014}},{"attributes":{"ID":490016,"DIS_CODE":0,"TOWNNAME":"仁德區","LI":"新田里","LIN":"13鄰","STREET":"中正路","SECT":"二段","MAREA":" ","LANE":" ","ALLEY":" ","HOUSE_NO":"３９９號","E_COORD97":173281.35000000001,"N_COORD97":2539341.77,"ADDRESS":"中正路二段３９９號","OBJECTID":489991},"geometry":{"x":173281.35000000056,"y":2539341.7699999996}},{"attributes":{"ID":490017,"DIS_CODE":0,"TOWNNAME":"仁德區","LI":"新田里","LIN":"13鄰","STREET":"中正路","SECT":"二段","MAREA":" ","LANE":" ","ALLEY":" ","HOUSE_NO":"４２３號","E_COORD97":173301.89999999999,"N_COORD97":2539394.0299999998,"ADDRESS":"中正路二段４２３號","OBJECTID":489992},"geometry":{"x":173301.9000000013,"y":2539394.0299999993}},{"attributes":{"ID":490018,"DIS_CODE":0,"TOWNNAME":"安南區","LI":"理想里","LIN":"13鄰","STREET":"大安街","SECT":" ","MAREA":" ","LANE":" ","ALLEY":" ","HOUSE_NO":"１３號","E_COORD97":167078.89000000001,"N_COORD97":2547975.9500000002,"ADDRESS":"大安街１３號","OBJECTID":489993},"geometry":{"x":167078.88999999966,"y":2547975.9499999993}},{"attributes":{"ID":490019,"DIS_CODE":0,"TOWNNAME":"安南區","LI":"理想里","LIN":"13鄰","STREET":"大安街","SECT":" ","MAREA":" ","LANE":" ","ALLEY":" ","HOUSE_NO":"１７號","E_COORD97":167088.37,"N_COORD97":2547977.5600000001,"ADDRESS":"大安街１７號","OBJECTID":489994},"geometry":{"x":167088.37000000011,"y":2547977.5600000042}},{"attributes":{"ID":490020,"DIS_CODE":0,"TOWNNAME":"安南區","LI":"理想里","LIN":"13鄰","STREET":"大安街","SECT":" ","MAREA":" ","LANE":" ","ALLEY":" ","HOUSE_NO":"２１號","E_COORD97":167098.04000000001,"N_COORD97":2547977.7599999998,"ADDRESS":"大安街２１號","OBJECTID":489995},"geometry":{"x":167098.04000000097,"y":2547977.7599999998}},{"attributes":{"ID":490021,"DIS_CODE":0,"TOWNNAME":"安南區","LI":"理想里","LIN":"13鄰","STREET":"大安街","SECT":" ","MAREA":" ","LANE":" ","ALLEY":" ","HOUSE_NO":"２３號","E_COORD97":167102.48000000001,"N_COORD97":2547980.1800000002,"ADDRESS":"大安街２３號","OBJECTID":489996},"geometry":{"x":167102.48000000138,"y":2547980.1800000016}},{"attributes":{"ID":490022,"DIS_CODE":0,"TOWNNAME":"安南區","LI":"理想里","LIN":"13鄰","STREET":"大安街","SECT":" ","MAREA":" ","LANE":" ","ALLEY":" ","HOUSE_NO":"３１號","E_COORD97":167124.06,"N_COORD97":2547983,"ADDRESS":"大安街３１號","OBJECTID":489997},"geometry":{"x":167124.05999999866,"y":2547983}},{"attributes":{"ID":490023,"DIS_CODE":0,"TOWNNAME":"新營區","LI":"太北里","LIN":"10鄰","STREET":" ","SECT":" ","MAREA":"太子宮","LANE":" ","ALLEY":" ","HOUSE_NO":"８５號","E_COORD97":176156.17073499999,"N_COORD97":2577072.3560100002,"ADDRESS":"太子宮８５號","OBJECTID":489998},"geometry":{"x":176156.17073500063,"y":2577072.356005}},{"attributes":{"ID":490024,"DIS_CODE":0,"TOWNNAME":"安南區","LI":"理想里","LIN":"13鄰","STREET":"大安街","SECT":" ","MAREA":" ","LANE":" ","ALLEY":" ","HOUSE_NO":"３３號","E_COORD97":167128.5,"N_COORD97":2547983.6000000001,"ADDRESS":"大安街３３號","OBJECTID":489999},"geometry":{"x":167128.50000000186,"y":2547983.6000000015}},{"attributes":{"ID":490025,"DIS_CODE":0,"TOWNNAME":"安南區","LI":"理想里","LIN":"13鄰","STREET":"大安街","SECT":" ","MAREA":" ","LANE":" ","ALLEY":" ","HOUSE_NO":"３７號","E_COORD97":167138.57999999999,"N_COORD97":2547984.8100000001,"ADDRESS":"大安街３７號","OBJECTID":490000},"geometry":{"x":167138.58000000101,"y":2547984.8100000005}}]}