{"displayFieldName":"TOWNNAME","fieldAliases":{"ID":"ID","DIS_CODE":"DIS_CODE","TOWNNAME":"TOWNNAME","LI":"LI","LIN":"LIN","STREET":"STREET","SECT":"SECT","MAREA":"MAREA","LANE":"LANE","ALLEY":"ALLEY","HOUSE_NO":"HOUSE_NO","E_COORD97":"E_COORD97","N_COORD97":"N_COORD97","ADDRESS":"ADDRESS","OBJECTID":"OBJECTID"},"geometryType":"esriGeometryPoint","spatialReference":{"wkid":102443,"latestWkid":3826},"fields":[{"name":"ID","type":"esriFieldTypeDouble","alias":"ID"},{"name":"DIS_CODE","type":"esriFieldTypeInteger","alias":"DIS_CODE"},{"name":"TOWNNAME","type":"esriFieldTypeString","alias":"TOWNNAME","length":8},{"name":"LI","type":"esriFieldTypeString","alias":"LI","length":8},{"name":"LIN","type":"esriFieldTypeString","alias":"LIN","length":12},{"name":"STREET","type":"esriFieldTypeString","alias":"STREET","length":20},{"name":"SECT","type":"esriFieldTypeString","alias":"SECT","length":8},{"name":"MAREA","type":"esriFieldTypeString","alias":"MAREA","length":12},{"name":"LANE","type":"esriFieldTypeString","alias":"LANE","length":10},{"name":"ALLEY","type":"esriFieldTypeString","alias":"ALLEY","length":10},{"name":"HOUSE_NO","type":"esriFieldTypeString","alias":"HOUSE_NO","length":20},{"name":"E_COORD97","type":"esriFieldTypeDouble","alias":"E_COORD97"},{"name":"N_COORD97","type":"esriFieldTypeDouble","alias":"N_COORD97"},{"name":"ADDRESS","type":"esriFieldTypeString","alias":"ADDRESS","length":50},{"name":"OBJECTID","type":"esriFieldTypeOID","alias":"OBJECTID"}],"features":[{"attributes":{"ID":231805,"DIS_CODE":0,"TOWNNAME":"東區","LI":"自強里","LIN":"15鄰","STREET":"中華東路","SECT":"二段","MAREA":" ","LANE":"２９５巷","ALLEY":" ","HOUSE_NO":"６１號","E_COORD97":171285.75,"N_COORD97":2542483.4900000002,"ADDRESS":"中華東路二段２９５巷６１號","OBJECTID":231801},"geometry":{"x":171285.75000000093,"y":2542483.4900000021}},{"attributes":{"ID":231806,"DIS_CODE":0,"TOWNNAME":"仁德區","LI":"上崙里","LIN":"2鄰","STREET":"德崙路","SECT":" ","MAREA":" ","LANE":"１７５巷","ALLEY":" ","HOUSE_NO":"１４號","E_COORD97":173669.85999999999,"N_COORD97":2538329.52,"ADDRESS":"德崙路１７５巷１４號","OBJECTID":231802},"geometry":{"x":173669.8600000022,"y":2538329.5199999996}},{"attributes":{"ID":231807,"DIS_CODE":0,"TOWNNAME":"永康區","LI":"二王里","LIN":"5鄰","STREET":"永二街","SECT":" ","MAREA":" ","LANE":"３５８巷","ALLEY":" ","HOUSE_NO":"１２號","E_COORD97":172923.94,"N_COORD97":2546716.1200000001,"ADDRESS":"永二街３５８巷１２號","OBJECTID":231803},"geometry":{"x":172923.94000000134,"y":2546716.120000001}},{"attributes":{"ID":231808,"DIS_CODE":0,"TOWNNAME":"仁德區","LI":"仁愛里","LIN":"23鄰","STREET":" ","SECT":" ","MAREA":"仁愛","LANE":" ","ALLEY":" ","HOUSE_NO":"４８７號","E_COORD97":170104.898269,"N_COORD97":2540050.6848399998,"ADDRESS":"仁愛４８７號","OBJECTID":231804},"geometry":{"x":170104.89826900046,"y":2540050.6848390009}},{"attributes":{"ID":231809,"DIS_CODE":0,"TOWNNAME":"永康區","LI":"三合里","LIN":"8鄰","STREET":"南工街","SECT":" ","MAREA":" ","LANE":"１３５巷","ALLEY":" ","HOUSE_NO":"７號之１","E_COORD97":172062.87,"N_COORD97":2545780.04,"ADDRESS":"南工街１３５巷７號之１","OBJECTID":231805},"geometry":{"x":172062.87000000104,"y":2545780.040000001}},{"attributes":{"ID":231810,"DIS_CODE":0,"TOWNNAME":"永康區","LI":"二王里","LIN":"9鄰","STREET":"中山南路","SECT":" ","MAREA":" ","LANE":"７６２巷","ALLEY":" ","HOUSE_NO":"７號","E_COORD97":172725.31,"N_COORD97":2546710.5,"ADDRESS":"中山南路７６２巷７號","OBJECTID":231806},"geometry":{"x":172725.31000000052,"y":2546710.5000000019}},{"attributes":{"ID":231811,"DIS_CODE":0,"TOWNNAME":"永康區","LI":"大橋里","LIN":"23鄰","STREET":"大橋一街","SECT":" ","MAREA":" ","LANE":"１９７巷","ALLEY":" ","HOUSE_NO":"１號","E_COORD97":171168.39999999999,"N_COORD97":2546599.2400000002,"ADDRESS":"大橋一街１９７巷１號","OBJECTID":231807},"geometry":{"x":171168.40000000037,"y":2546599.2400000002}},{"attributes":{"ID":231812,"DIS_CODE":0,"TOWNNAME":"永康區","LI":"王行里","LIN":"14鄰","STREET":"經中路","SECT":" ","MAREA":" ","LANE":" ","ALLEY":" ","HOUSE_NO":"６號","E_COORD97":175086.20000000001,"N_COORD97":2549563.7400000002,"ADDRESS":"經中路６號","OBJECTID":231808},"geometry":{"x":175086.20000000205,"y":2549563.7400000021}},{"attributes":{"ID":231813,"DIS_CODE":0,"TOWNNAME":"永康區","LI":"復華里","LIN":"23鄰","STREET":"國華街","SECT":" ","MAREA":" ","LANE":"１３４巷","ALLEY":" ","HOUSE_NO":"１３號","E_COORD97":172724.14000000001,"N_COORD97":2546172.4900000002,"ADDRESS":"國華街１３４巷１３號","OBJECTID":231809},"geometry":{"x":172724.13999999966,"y":2546172.4900000002}},{"attributes":{"ID":231814,"DIS_CODE":0,"TOWNNAME":"永康區","LI":"復華里","LIN":"23鄰","STREET":"國華街","SECT":" ","MAREA":" ","LANE":"１３４巷","ALLEY":" ","HOUSE_NO":"２３號","E_COORD97":172737.53,"N_COORD97":2546192.9900000002,"ADDRESS":"國華街１３４巷２３號","OBJECTID":231810},"geometry":{"x":172737.53000000026,"y":2546192.9900000002}},{"attributes":{"ID":231815,"DIS_CODE":0,"TOWNNAME":"仁德區","LI":"太子里","LIN":"23鄰","STREET":"長興四街","SECT":" ","MAREA":" ","LANE":"９０巷","ALLEY":" ","HOUSE_NO":"９號","E_COORD97":173820.28,"N_COORD97":2543593.25,"ADDRESS":"長興四街９０巷９號","OBJECTID":231811},"geometry":{"x":173820.28000000026,"y":2543593.2500000019}},{"attributes":{"ID":231816,"DIS_CODE":0,"TOWNNAME":"仁德區","LI":"仁德里","LIN":"23鄰","STREET":"文心路","SECT":" ","MAREA":" ","LANE":"５８巷","ALLEY":" ","HOUSE_NO":"４６號","E_COORD97":172247.07000000001,"N_COORD97":2541360.5800000001,"ADDRESS":"文心路５８巷４６號","OBJECTID":231812},"geometry":{"x":172247.0700000003,"y":2541360.5800000019}},{"attributes":{"ID":231817,"DIS_CODE":0,"TOWNNAME":"仁德區","LI":"太子里","LIN":"23鄰","STREET":"長興四街","SECT":" ","MAREA":" ","LANE":"９０巷","ALLEY":" ","HOUSE_NO":"５號","E_COORD97":173827.07000000001,"N_COORD97":2543592,"ADDRESS":"長興四街９０巷５號","OBJECTID":231813},"geometry":{"x":173827.0700000003,"y":2543592}},{"attributes":{"ID":231818,"DIS_CODE":0,"TOWNNAME":"永康區","LI":"中興里","LIN":"26鄰","STREET":"中山東路","SECT":" ","MAREA":" ","LANE":"３８６巷","ALLEY":" ","HOUSE_NO":"３號","E_COORD97":171879.87,"N_COORD97":2545240.52,"ADDRESS":"中山東路３８６巷３號","OBJECTID":231814},"geometry":{"x":171879.87000000104,"y":2545240.5199999977}},{"attributes":{"ID":231819,"DIS_CODE":0,"TOWNNAME":"永康區","LI":"二王里","LIN":"34鄰","STREET":"中山南路","SECT":" ","MAREA":" ","LANE":"４９０巷","ALLEY":" ","HOUSE_NO":"６號","E_COORD97":172092.54000000001,"N_COORD97":2546389.75,"ADDRESS":"中山南路４９０巷６號","OBJECTID":231815},"geometry":{"x":172092.54000000004,"y":2546389.7500000019}},{"attributes":{"ID":231820,"DIS_CODE":0,"TOWNNAME":"中西區","LI":"西湖里","LIN":"23鄰","STREET":"湖美街","SECT":" ","MAREA":" ","LANE":"４６巷","ALLEY":" ","HOUSE_NO":"１０號","E_COORD97":165982.70999999999,"N_COORD97":2544598.7400000002,"ADDRESS":"湖美街４６巷１０號","OBJECTID":231816},"geometry":{"x":165982.71000000183,"y":2544598.7400000002}},{"attributes":{"ID":231821,"DIS_CODE":0,"TOWNNAME":"中西區","LI":"西湖里","LIN":"23鄰","STREET":"湖美街","SECT":" ","MAREA":" ","LANE":"４６巷","ALLEY":" ","HOUSE_NO":"１１號","E_COORD97":165986.19,"N_COORD97":2544627.0499999998,"ADDRESS":"湖美街４６巷１１號","OBJECTID":231817},"geometry":{"x":165986.19000000041,"y":2544627.0500000007}},{"attributes":{"ID":231822,"DIS_CODE":0,"TOWNNAME":"仁德區","LI":"仁義里","LIN":"2鄰","STREET":"仁義三街","SECT":" ","MAREA":" ","LANE":"２４５巷","ALLEY":" ","HOUSE_NO":"５號","E_COORD97":173999.26000000001,"N_COORD97":2541121.5099999998,"ADDRESS":"仁義三街２４５巷５號","OBJECTID":231818},"geometry":{"x":173999.26000000071,"y":2541121.5099999979}},{"attributes":{"ID":231823,"DIS_CODE":0,"TOWNNAME":"東區","LI":"崇德里","LIN":"14鄰","STREET":"崇明路","SECT":" ","MAREA":" ","LANE":" ","ALLEY":" ","HOUSE_NO":"４０１號","E_COORD97":170421.20999999999,"N_COORD97":2541599.29,"ADDRESS":"崇明路４０１號","OBJECTID":231819},"geometry":{"x":170421.21000000089,"y":2541599.2899999991}},{"attributes":{"ID":231824,"DIS_CODE":0,"TOWNNAME":"麻豆區","LI":"穀興里","LIN":"14鄰","STREET":"仁愛路","SECT":" ","MAREA":" ","LANE":" ","ALLEY":" ","HOUSE_NO":"１０號之１","E_COORD97":172837.48000000001,"N_COORD97":2564777.02,"ADDRESS":"仁愛路１０號之１","OBJECTID":231820},"geometry":{"x":172837.48000000138,"y":2564777.0200000014}},{"attributes":{"ID":231825,"DIS_CODE":0,"TOWNNAME":"麻豆區","LI":"穀興里","LIN":"14鄰","STREET":"仁愛路","SECT":" ","MAREA":" ","LANE":" ","ALLEY":" ","HOUSE_NO":"１２號之１","E_COORD97":172830.60999999999,"N_COORD97":2564767.2599999998,"ADDRESS":"仁愛路１２號之１","OBJECTID":231821},"geometry":{"x":172830.6100000022,"y":2564767.2599999998}},{"attributes":{"ID":231826,"DIS_CODE":0,"TOWNNAME":"麻豆區","LI":"穀興里","LIN":"14鄰","STREET":"仁愛路","SECT":" ","MAREA":" ","LANE":" ","ALLEY":" ","HOUSE_NO":"１２號之２","E_COORD97":172826.85000000001,"N_COORD97":2564767.1499999999,"ADDRESS":"仁愛路１２號之２","OBJECTID":231822},"geometry":{"x":172826.85000000056,"y":2564767.1500000022}},{"attributes":{"ID":231827,"DIS_CODE":0,"TOWNNAME":"麻豆區","LI":"穀興里","LIN":"14鄰","STREET":"仁愛路","SECT":" ","MAREA":" ","LANE":" ","ALLEY":" ","HOUSE_NO":"１２號之３","E_COORD97":172822.69,"N_COORD97":2564767.2599999998,"ADDRESS":"仁愛路１２號之３","OBJECTID":231823},"geometry":{"x":172822.69000000041,"y":2564767.2599999998}},{"attributes":{"ID":231828,"DIS_CODE":0,"TOWNNAME":"麻豆區","LI":"穀興里","LIN":"14鄰","STREET":"仁愛路","SECT":" ","MAREA":" ","LANE":" ","ALLEY":" ","HOUSE_NO":"１２號之４","E_COORD97":172810.78,"N_COORD97":2564761.6499999999,"ADDRESS":"仁愛路１２號之４","OBJECTID":231824},"geometry":{"x":172810.78000000212,"y":2564761.6500000004}},{"attributes":{"ID":231829,"DIS_CODE":0,"TOWNNAME":"麻豆區","LI":"穀興里","LIN":"14鄰","STREET":"仁愛路","SECT":" ","MAREA":" ","LANE":" ","ALLEY":" ","HOUSE_NO":"８號","E_COORD97":172879.57000000001,"N_COORD97":2564769.5499999998,"ADDRESS":"仁愛路８號","OBJECTID":231825},"geometry":{"x":172879.5700000003,"y":2564769.5500000007}},{"attributes":{"ID":231830,"DIS_CODE":0,"TOWNNAME":"麻豆區","LI":"大埕里","LIN":"14鄰","STREET":"平等路","SECT":" ","MAREA":" ","LANE":" ","ALLEY":" ","HOUSE_NO":"１１９號","E_COORD97":173007.76000000001,"N_COORD97":2565143.8199999998,"ADDRESS":"平等路１１９號","OBJECTID":231826},"geometry":{"x":173007.76000000071,"y":2565143.8200000003}},{"attributes":{"ID":231831,"DIS_CODE":0,"TOWNNAME":"麻豆區","LI":"大埕里","LIN":"14鄰","STREET":"平等路","SECT":" ","MAREA":" ","LANE":" ","ALLEY":" ","HOUSE_NO":"１２１號","E_COORD97":173008.39999999999,"N_COORD97":2565140.0899999999,"ADDRESS":"平等路１２１號","OBJECTID":231827},"geometry":{"x":173008.40000000224,"y":2565140.0900000017}},{"attributes":{"ID":231832,"DIS_CODE":0,"TOWNNAME":"麻豆區","LI":"大埕里","LIN":"14鄰","STREET":"平等路","SECT":" ","MAREA":" ","LANE":" ","ALLEY":" ","HOUSE_NO":"１２３號","E_COORD97":173008.04999999999,"N_COORD97":2565135.8199999998,"ADDRESS":"平等路１２３號","OBJECTID":231828},"geometry":{"x":173008.04999999981,"y":2565135.8200000022}},{"attributes":{"ID":231833,"DIS_CODE":0,"TOWNNAME":"麻豆區","LI":"大埕里","LIN":"14鄰","STREET":"平等路","SECT":" ","MAREA":" ","LANE":" ","ALLEY":" ","HOUSE_NO":"１２５號","E_COORD97":173008.64000000001,"N_COORD97":2565131.71,"ADDRESS":"平等路１２５號","OBJECTID":231829},"geometry":{"x":173008.63999999966,"y":2565131.7100000009}},{"attributes":{"ID":231834,"DIS_CODE":0,"TOWNNAME":"麻豆區","LI":"大埕里","LIN":"14鄰","STREET":"平等路","SECT":" ","MAREA":" ","LANE":" ","ALLEY":" ","HOUSE_NO":"１３５號","E_COORD97":173040.92000000001,"N_COORD97":2565132.8599999999,"ADDRESS":"平等路１３５號","OBJECTID":231830},"geometry":{"x":173040.91999999993,"y":2565132.8599999975}},{"attributes":{"ID":231835,"DIS_CODE":0,"TOWNNAME":"麻豆區","LI":"大埕里","LIN":"14鄰","STREET":"平等路","SECT":" ","MAREA":" ","LANE":" ","ALLEY":" ","HOUSE_NO":"１３７號","E_COORD97":173038.97,"N_COORD97":2565138.4300000002,"ADDRESS":"平等路１３７號","OBJECTID":231831},"geometry":{"x":173038.96999999974,"y":2565138.4299999997}},{"attributes":{"ID":231836,"DIS_CODE":0,"TOWNNAME":"新市區","LI":"新和里","LIN":"14鄰","STREET":"忠孝街","SECT":" ","MAREA":" ","LANE":" ","ALLEY":" ","HOUSE_NO":"１０８號","E_COORD97":177698.62,"N_COORD97":2552601,"ADDRESS":"忠孝街１０８號","OBJECTID":231832},"geometry":{"x":177698.62000000011,"y":2552601}},{"attributes":{"ID":231837,"DIS_CODE":0,"TOWNNAME":"中西區","LI":"西湖里","LIN":"23鄰","STREET":"湖美街","SECT":" ","MAREA":" ","LANE":"４６巷","ALLEY":" ","HOUSE_NO":"１５號","E_COORD97":165994.73999999999,"N_COORD97":2544628.3900000001,"ADDRESS":"湖美街４６巷１５號","OBJECTID":231833},"geometry":{"x":165994.74000000209,"y":2544628.3900000006}},{"attributes":{"ID":231838,"DIS_CODE":0,"TOWNNAME":"中西區","LI":"西湖里","LIN":"23鄰","STREET":"湖美街","SECT":" ","MAREA":" ","LANE":"４６巷","ALLEY":" ","HOUSE_NO":"１６號","E_COORD97":165995.54999999999,"N_COORD97":2544600.0800000001,"ADDRESS":"湖美街４６巷１６號","OBJECTID":231834},"geometry":{"x":165995.55000000168,"y":2544600.0800000038}},{"attributes":{"ID":231839,"DIS_CODE":0,"TOWNNAME":"仁德區","LI":"土庫里","LIN":"2鄰","STREET":"太乙路","SECT":" ","MAREA":" ","LANE":"５４巷","ALLEY":" ","HOUSE_NO":"６號","E_COORD97":173389.32000000001,"N_COORD97":2542621.0099999998,"ADDRESS":"太乙路５４巷６號","OBJECTID":231835},"geometry":{"x":173389.32000000123,"y":2542621.0100000016}},{"attributes":{"ID":231840,"DIS_CODE":0,"TOWNNAME":"仁德區","LI":"土庫里","LIN":"2鄰","STREET":"太乙路","SECT":" ","MAREA":" ","LANE":"５４巷","ALLEY":" ","HOUSE_NO":"５號","E_COORD97":173376.62,"N_COORD97":2542623.25,"ADDRESS":"太乙路５４巷５號","OBJECTID":231836},"geometry":{"x":173376.62000000104,"y":2542623.2500000019}},{"attributes":{"ID":231841,"DIS_CODE":0,"TOWNNAME":"仁德區","LI":"上崙里","LIN":"2鄰","STREET":"德崙路","SECT":" ","MAREA":" ","LANE":"１７５巷","ALLEY":" ","HOUSE_NO":"１０號","E_COORD97":173646.79999999999,"N_COORD97":2538339.77,"ADDRESS":"德崙路１７５巷１０號","OBJECTID":231837},"geometry":{"x":173646.79999999981,"y":2538339.7700000033}},{"attributes":{"ID":231842,"DIS_CODE":0,"TOWNNAME":"東區","LI":"自強里","LIN":"13鄰","STREET":"富農街","SECT":"一段","MAREA":" ","LANE":"１３１巷","ALLEY":" ","HOUSE_NO":"４９號","E_COORD97":171381.23000000001,"N_COORD97":2542468.77,"ADDRESS":"富農街一段１３１巷４９號","OBJECTID":231838},"geometry":{"x":171381.23000000138,"y":2542468.7699999996}},{"attributes":{"ID":231843,"DIS_CODE":0,"TOWNNAME":"東區","LI":"崇學里","LIN":"2鄰","STREET":"崇善路","SECT":" ","MAREA":" ","LANE":"１８２巷","ALLEY":" ","HOUSE_NO":"３７號","E_COORD97":170498.81,"N_COORD97":2542050.1200000001,"ADDRESS":"崇善路１８２巷３７號","OBJECTID":231839},"geometry":{"x":170498.80999999959,"y":2542050.120000001}},{"attributes":{"ID":231844,"DIS_CODE":0,"TOWNNAME":"東區","LI":"自強里","LIN":"13鄰","STREET":"富農街","SECT":"一段","MAREA":" ","LANE":"１３１巷","ALLEY":" ","HOUSE_NO":"５３號","E_COORD97":171363.14999999999,"N_COORD97":2542468.6299999999,"ADDRESS":"富農街一段１３１巷５３號","OBJECTID":231840},"geometry":{"x":171363.1500000013,"y":2542468.629999999}},{"attributes":{"ID":231845,"DIS_CODE":0,"TOWNNAME":"東區","LI":"自強里","LIN":"13鄰","STREET":"富農街","SECT":"一段","MAREA":" ","LANE":"１３１巷","ALLEY":" ","HOUSE_NO":"５４號","E_COORD97":171351.91,"N_COORD97":2542487.9100000001,"ADDRESS":"富農街一段１３１巷５４號","OBJECTID":231841},"geometry":{"x":171351.91000000201,"y":2542487.9100000001}},{"attributes":{"ID":231846,"DIS_CODE":0,"TOWNNAME":"東區","LI":"自強里","LIN":"13鄰","STREET":"富農街","SECT":"一段","MAREA":" ","LANE":"１３１巷","ALLEY":" ","HOUSE_NO":"５５號","E_COORD97":171356.12,"N_COORD97":2542468.2000000002,"ADDRESS":"富農街一段１３１巷５５號","OBJECTID":231842},"geometry":{"x":171356.12000000104,"y":2542468.1999999993}},{"attributes":{"ID":231847,"DIS_CODE":0,"TOWNNAME":"東區","LI":"自強里","LIN":"28鄰","STREET":"中華東路","SECT":"二段","MAREA":" ","LANE":"１８５巷","ALLEY":" ","HOUSE_NO":"１０號","E_COORD97":171356.84,"N_COORD97":2542772.2400000002,"ADDRESS":"中華東路二段１８５巷１０號","OBJECTID":231843},"geometry":{"x":171356.83999999985,"y":2542772.2400000021}},{"attributes":{"ID":231848,"DIS_CODE":0,"TOWNNAME":"永康區","LI":"三合里","LIN":"23鄰","STREET":"南工街","SECT":" ","MAREA":" ","LANE":"３２３巷","ALLEY":" ","HOUSE_NO":"１號","E_COORD97":171792.63,"N_COORD97":2546028.75,"ADDRESS":"南工街３２３巷１號","OBJECTID":231844},"geometry":{"x":171792.63000000175,"y":2546028.75}},{"attributes":{"ID":231849,"DIS_CODE":0,"TOWNNAME":"東區","LI":"大智里","LIN":"2鄰","STREET":"生產路","SECT":" ","MAREA":" ","LANE":"５５０巷","ALLEY":" ","HOUSE_NO":"１０號","E_COORD97":171120.95999999999,"N_COORD97":2540633.46,"ADDRESS":"生產路５５０巷１０號","OBJECTID":231845},"geometry":{"x":171120.96000000089,"y":2540633.4600000009}},{"attributes":{"ID":231850,"DIS_CODE":0,"TOWNNAME":"東區","LI":"大智里","LIN":"2鄰","STREET":"生產路","SECT":" ","MAREA":" ","LANE":"５５０巷","ALLEY":" ","HOUSE_NO":"１１號","E_COORD97":171138.25,"N_COORD97":2540638.5899999999,"ADDRESS":"生產路５５０巷１１號","OBJECTID":231846},"geometry":{"x":171138.25000000093,"y":2540638.5899999999}},{"attributes":{"ID":231851,"DIS_CODE":0,"TOWNNAME":"東區","LI":"自強里","LIN":"28鄰","STREET":"中華東路","SECT":"二段","MAREA":" ","LANE":"１８５巷","ALLEY":" ","HOUSE_NO":"１４號","E_COORD97":171421.07000000001,"N_COORD97":2542749.3100000001,"ADDRESS":"中華東路二段１８５巷１４號","OBJECTID":231847},"geometry":{"x":171421.07000000123,"y":2542749.3100000024}},{"attributes":{"ID":231852,"DIS_CODE":0,"TOWNNAME":"東區","LI":"大福里","LIN":"2鄰","STREET":"榮譽街","SECT":" ","MAREA":" ","LANE":"２５巷","ALLEY":" ","HOUSE_NO":"１１號","E_COORD97":169539.85000000001,"N_COORD97":2541680.5899999999,"ADDRESS":"榮譽街２５巷１１號","OBJECTID":231848},"geometry":{"x":169539.85000000056,"y":2541680.589999998}},{"attributes":{"ID":231853,"DIS_CODE":0,"TOWNNAME":"東區","LI":"大福里","LIN":"2鄰","STREET":"榮譽街","SECT":" ","MAREA":" ","LANE":"２５巷","ALLEY":" ","HOUSE_NO":"１５號","E_COORD97":169546.47,"N_COORD97":2541681.29,"ADDRESS":"榮譽街２５巷１５號","OBJECTID":231849},"geometry":{"x":169546.47000000067,"y":2541681.2899999991}},{"attributes":{"ID":231854,"DIS_CODE":0,"TOWNNAME":"東區","LI":"大福里","LIN":"2鄰","STREET":"榮譽街","SECT":" ","MAREA":" ","LANE":"２５巷","ALLEY":" ","HOUSE_NO":"１７號","E_COORD97":169551.35999999999,"N_COORD97":2541683.0299999998,"ADDRESS":"榮譽街２５巷１７號","OBJECTID":231850},"geometry":{"x":169551.36000000034,"y":2541683.0299999993}},{"attributes":{"ID":231855,"DIS_CODE":0,"TOWNNAME":"東區","LI":"大福里","LIN":"2鄰","STREET":"榮譽街","SECT":" ","MAREA":" ","LANE":"２５巷","ALLEY":" ","HOUSE_NO":"１９號","E_COORD97":169556.94,"N_COORD97":2541684.4199999999,"ADDRESS":"榮譽街２５巷１９號","OBJECTID":231851},"geometry":{"x":169556.94000000134,"y":2541684.4199999999}},{"attributes":{"ID":231856,"DIS_CODE":0,"TOWNNAME":"東區","LI":"成大里","LIN":"23鄰","STREET":"育樂街","SECT":" ","MAREA":" ","LANE":"１４１巷","ALLEY":" ","HOUSE_NO":"２７號","E_COORD97":169588.88,"N_COORD97":2543958.9300000002,"ADDRESS":"育樂街１４１巷２７號","OBJECTID":231852},"geometry":{"x":169588.88000000175,"y":2543958.9299999997}},{"attributes":{"ID":231857,"DIS_CODE":0,"TOWNNAME":"東區","LI":"衛國里","LIN":"2鄰","STREET":"衛國街","SECT":" ","MAREA":" ","LANE":"１１２巷","ALLEY":" ","HOUSE_NO":"２號","E_COORD97":170416.01000000001,"N_COORD97":2543078.0699999998,"ADDRESS":"衛國街１１２巷２號","OBJECTID":231853},"geometry":{"x":170416.00999999978,"y":2543078.070000004}},{"attributes":{"ID":231858,"DIS_CODE":0,"TOWNNAME":"東區","LI":"衛國里","LIN":"2鄰","STREET":"衛國街","SECT":" ","MAREA":" ","LANE":"１１２巷","ALLEY":" ","HOUSE_NO":"１０號","E_COORD97":170459.94,"N_COORD97":2543084.0099999998,"ADDRESS":"衛國街１１２巷１０號","OBJECTID":231854},"geometry":{"x":170459.94000000041,"y":2543084.0099999998}},{"attributes":{"ID":231859,"DIS_CODE":0,"TOWNNAME":"中西區","LI":"郡王里","LIN":"14鄰","STREET":"南門路","SECT":" ","MAREA":" ","LANE":" ","ALLEY":" ","HOUSE_NO":"１０９號","E_COORD97":168451.41,"N_COORD97":2543139.4100000001,"ADDRESS":"南門路１０９號","OBJECTID":231855},"geometry":{"x":168451.41000000201,"y":2543139.4100000001}},{"attributes":{"ID":231860,"DIS_CODE":0,"TOWNNAME":"中西區","LI":"郡王里","LIN":"14鄰","STREET":"南門路","SECT":" ","MAREA":" ","LANE":" ","ALLEY":" ","HOUSE_NO":"１１１號","E_COORD97":168452.07999999999,"N_COORD97":2543129.4399999999,"ADDRESS":"南門路１１１號","OBJECTID":231856},"geometry":{"x":168452.08000000101,"y":2543129.4400000013}},{"attributes":{"ID":231861,"DIS_CODE":0,"TOWNNAME":"中西區","LI":"郡王里","LIN":"14鄰","STREET":"南門路","SECT":" ","MAREA":" ","LANE":" ","ALLEY":" ","HOUSE_NO":"１１３號","E_COORD97":168453.14000000001,"N_COORD97":2543122.9300000002,"ADDRESS":"南門路１１３號","OBJECTID":231857},"geometry":{"x":168453.1400000006,"y":2543122.9300000016}},{"attributes":{"ID":231862,"DIS_CODE":0,"TOWNNAME":"中西區","LI":"西湖里","LIN":"23鄰","STREET":"湖美街","SECT":" ","MAREA":" ","LANE":"６０巷","ALLEY":" ","HOUSE_NO":"１４號","E_COORD97":165989.66,"N_COORD97":2544645.75,"ADDRESS":"湖美街６０巷１４號","OBJECTID":231858},"geometry":{"x":165989.66000000015,"y":2544645.75}},{"attributes":{"ID":231863,"DIS_CODE":0,"TOWNNAME":"中西區","LI":"西湖里","LIN":"23鄰","STREET":"湖美街","SECT":" ","MAREA":" ","LANE":"６０巷","ALLEY":" ","HOUSE_NO":"１６號","E_COORD97":165994.48000000001,"N_COORD97":2544646.5499999998,"ADDRESS":"湖美街６０巷１６號","OBJECTID":231859},"geometry":{"x":165994.48000000045,"y":2544646.5500000026}},{"attributes":{"ID":231864,"DIS_CODE":0,"TOWNNAME":"中西區","LI":"西湖里","LIN":"23鄰","STREET":"湖美街","SECT":" ","MAREA":" ","LANE":"６０巷","ALLEY":" ","HOUSE_NO":"２０號","E_COORD97":166002.5,"N_COORD97":2544646.5499999998,"ADDRESS":"湖美街６０巷２０號","OBJECTID":231860},"geometry":{"x":166002.5,"y":2544646.5500000026}},{"attributes":{"ID":231865,"DIS_CODE":0,"TOWNNAME":"中西區","LI":"西湖里","LIN":"23鄰","STREET":"湖美街","SECT":" ","MAREA":" ","LANE":"６０巷","ALLEY":" ","HOUSE_NO":"２２號","E_COORD97":166007.31,"N_COORD97":2544646.0099999998,"ADDRESS":"湖美街６０巷２２號","OBJECTID":231861},"geometry":{"x":166007.31000000052,"y":2544646.0100000016}},{"attributes":{"ID":231866,"DIS_CODE":0,"TOWNNAME":"東區","LI":"衛國里","LIN":"2鄰","STREET":"衛國街","SECT":" ","MAREA":" ","LANE":"１１２巷","ALLEY":" ","HOUSE_NO":"１２號","E_COORD97":170470.87,"N_COORD97":2543085.7400000002,"ADDRESS":"衛國街１１２巷１２號","OBJECTID":231862},"geometry":{"x":170470.87000000104,"y":2543085.7400000002}},{"attributes":{"ID":231867,"DIS_CODE":0,"TOWNNAME":"東區","LI":"衛國里","LIN":"2鄰","STREET":"衛國街","SECT":" ","MAREA":" ","LANE":"１１２巷","ALLEY":" ","HOUSE_NO":"４號","E_COORD97":170427.70999999999,"N_COORD97":2543079.7999999998,"ADDRESS":"衛國街１１２巷４號","OBJECTID":231863},"geometry":{"x":170427.71000000089,"y":2543079.8000000007}},{"attributes":{"ID":231868,"DIS_CODE":0,"TOWNNAME":"東區","LI":"衛國里","LIN":"2鄰","STREET":"衛國街","SECT":" ","MAREA":" ","LANE":"１１２巷","ALLEY":" ","HOUSE_NO":"６號","E_COORD97":170439.22,"N_COORD97":2543080.9500000002,"ADDRESS":"衛國街１１２巷６號","OBJECTID":231864},"geometry":{"x":170439.22000000067,"y":2543080.9499999993}},{"attributes":{"ID":231869,"DIS_CODE":0,"TOWNNAME":"東區","LI":"衛國里","LIN":"2鄰","STREET":"衛國街","SECT":" ","MAREA":" ","LANE":"１１２巷","ALLEY":" ","HOUSE_NO":"８號之１","E_COORD97":170448.81,"N_COORD97":2543082.48,"ADDRESS":"衛國街１１２巷８號之１","OBJECTID":231865},"geometry":{"x":170448.81000000052,"y":2543082.4800000042}},{"attributes":{"ID":231870,"DIS_CODE":0,"TOWNNAME":"東區","LI":"東光里","LIN":"2鄰","STREET":"東興路","SECT":" ","MAREA":" ","LANE":"２０巷","ALLEY":" ","HOUSE_NO":"１０１號","E_COORD97":171054.29000000001,"N_COORD97":2543421.98,"ADDRESS":"東興路２０巷１０１號","OBJECTID":231866},"geometry":{"x":171054.2900000019,"y":2543421.9800000023}},{"attributes":{"ID":231871,"DIS_CODE":0,"TOWNNAME":"東區","LI":"東光里","LIN":"2鄰","STREET":"東興路","SECT":" ","MAREA":" ","LANE":"２０巷","ALLEY":" ","HOUSE_NO":"１０３號","E_COORD97":171058.34,"N_COORD97":2543424.4100000001,"ADDRESS":"東興路２０巷１０３號","OBJECTID":231867},"geometry":{"x":171058.33999999985,"y":2543424.4100000001}},{"attributes":{"ID":231872,"DIS_CODE":0,"TOWNNAME":"東區","LI":"東光里","LIN":"2鄰","STREET":"東興路","SECT":" ","MAREA":" ","LANE":"２０巷","ALLEY":" ","HOUSE_NO":"１０５號","E_COORD97":171054.29000000001,"N_COORD97":2543432.1000000001,"ADDRESS":"東興路２０巷１０５號","OBJECTID":231868},"geometry":{"x":171054.2900000019,"y":2543432.0999999996}},{"attributes":{"ID":231873,"DIS_CODE":0,"TOWNNAME":"善化區","LI":"坐駕里","LIN":"23鄰","STREET":" ","SECT":" ","MAREA":"坐駕","LANE":" ","ALLEY":" ","HOUSE_NO":"２２號之７","E_COORD97":178732.20999999999,"N_COORD97":2558208.29,"ADDRESS":"坐駕２２號之７","OBJECTID":231869},"geometry":{"x":178732.21000000183,"y":2558208.290000001}},{"attributes":{"ID":231874,"DIS_CODE":0,"TOWNNAME":"東區","LI":"東光里","LIN":"2鄰","STREET":"東興路","SECT":" ","MAREA":" ","LANE":"２０巷","ALLEY":" ","HOUSE_NO":"１０７號","E_COORD97":171054.97,"N_COORD97":2543435.8700000001,"ADDRESS":"東興路２０巷１０７號","OBJECTID":231870},"geometry":{"x":171054.97000000067,"y":2543435.870000001}},{"attributes":{"ID":231875,"DIS_CODE":0,"TOWNNAME":"東區","LI":"自強里","LIN":"29鄰","STREET":"中華東路","SECT":"二段","MAREA":" ","LANE":"１８５巷","ALLEY":" ","HOUSE_NO":"１６號","E_COORD97":171383.23999999999,"N_COORD97":2542776.96,"ADDRESS":"中華東路二段１８５巷１６號","OBJECTID":231871},"geometry":{"x":171383.24000000022,"y":2542776.9600000009}},{"attributes":{"ID":231876,"DIS_CODE":0,"TOWNNAME":"中西區","LI":"郡王里","LIN":"14鄰","STREET":"南門路","SECT":" ","MAREA":" ","LANE":" ","ALLEY":" ","HOUSE_NO":"１１５號","E_COORD97":168452.60999999999,"N_COORD97":2543117.6099999999,"ADDRESS":"南門路１１５號","OBJECTID":231872},"geometry":{"x":168452.61000000127,"y":2543117.6100000031}},{"attributes":{"ID":231877,"DIS_CODE":0,"TOWNNAME":"中西區","LI":"郡王里","LIN":"14鄰","STREET":"南門路","SECT":" ","MAREA":" ","LANE":" ","ALLEY":" ","HOUSE_NO":"１１７號","E_COORD97":168453.95000000001,"N_COORD97":2543097.1099999999,"ADDRESS":"南門路１１７號","OBJECTID":231873},"geometry":{"x":168453.95000000019,"y":2543097.1099999975}},{"attributes":{"ID":231878,"DIS_CODE":0,"TOWNNAME":"中西區","LI":"郡王里","LIN":"14鄰","STREET":"建業街","SECT":" ","MAREA":" ","LANE":" ","ALLEY":" ","HOUSE_NO":"３９號","E_COORD97":168517.34,"N_COORD97":2543147.0600000001,"ADDRESS":"建業街３９號","OBJECTID":231874},"geometry":{"x":168517.33999999985,"y":2543147.0600000024}},{"attributes":{"ID":231879,"DIS_CODE":0,"TOWNNAME":"中西區","LI":"郡王里","LIN":"14鄰","STREET":"建業街","SECT":" ","MAREA":" ","LANE":" ","ALLEY":" ","HOUSE_NO":"３９號之１","E_COORD97":168512.45999999999,"N_COORD97":2543145.5299999998,"ADDRESS":"建業街３９號之１","OBJECTID":231875},"geometry":{"x":168512.46000000089,"y":2543145.5300000012}},{"attributes":{"ID":231880,"DIS_CODE":0,"TOWNNAME":"中西區","LI":"郡王里","LIN":"14鄰","STREET":"建業街","SECT":" ","MAREA":" ","LANE":" ","ALLEY":" ","HOUSE_NO":"３９號之２","E_COORD97":168508.39000000001,"N_COORD97":2543147.1499999999,"ADDRESS":"建業街３９號之２","OBJECTID":231876},"geometry":{"x":168508.38999999966,"y":2543147.1500000022}},{"attributes":{"ID":231881,"DIS_CODE":0,"TOWNNAME":"永康區","LI":"二王里","LIN":"1鄰","STREET":"中山南路","SECT":" ","MAREA":" ","LANE":"９０２巷","ALLEY":" ","HOUSE_NO":"７號","E_COORD97":173072.47,"N_COORD97":2546862.25,"ADDRESS":"中山南路９０２巷７號","OBJECTID":231877},"geometry":{"x":173072.47000000067,"y":2546862.25}},{"attributes":{"ID":231882,"DIS_CODE":0,"TOWNNAME":"永康區","LI":"三民里","LIN":"6鄰","STREET":"三民街","SECT":" ","MAREA":" ","LANE":"１８巷","ALLEY":" ","HOUSE_NO":"２２號","E_COORD97":173342.23000000001,"N_COORD97":2550166.04,"ADDRESS":"三民街１８巷２２號","OBJECTID":231878},"geometry":{"x":173342.23000000138,"y":2550166.0399999991}},{"attributes":{"ID":231883,"DIS_CODE":0,"TOWNNAME":"新市區","LI":"大營里","LIN":"23鄰","STREET":" ","SECT":" ","MAREA":"大營","LANE":" ","ALLEY":" ","HOUSE_NO":"１３０之２９號","E_COORD97":179261.12,"N_COORD97":2554604.0499999998,"ADDRESS":"大營１３０之２９號","OBJECTID":231879},"geometry":{"x":179261.12000000011,"y":2554604.0500000026}},{"attributes":{"ID":231884,"DIS_CODE":0,"TOWNNAME":"永康區","LI":"安康里","LIN":"11鄰","STREET":"中華路","SECT":" ","MAREA":" ","LANE":"６１９巷","ALLEY":" ","HOUSE_NO":"２９號之４","E_COORD97":170967.28,"N_COORD97":2546048.29,"ADDRESS":"中華路６１９巷２９號之４","OBJECTID":231880},"geometry":{"x":170967.28000000026,"y":2546048.2899999991}},{"attributes":{"ID":231885,"DIS_CODE":0,"TOWNNAME":"新市區","LI":"大營里","LIN":"23鄰","STREET":" ","SECT":" ","MAREA":"大營","LANE":" ","ALLEY":" ","HOUSE_NO":"１３０之１號","E_COORD97":179236.54000000001,"N_COORD97":2554647.2999999998,"ADDRESS":"大營１３０之１號","OBJECTID":231881},"geometry":{"x":179236.54000000004,"y":2554647.3000000007}},{"attributes":{"ID":231886,"DIS_CODE":0,"TOWNNAME":"新市區","LI":"大社里","LIN":"23鄰","STREET":" ","SECT":" ","MAREA":"大社","LANE":" ","ALLEY":" ","HOUSE_NO":"８５１號之７","E_COORD97":179654.34,"N_COORD97":2554172.0499999998,"ADDRESS":"大社８５１號之７","OBJECTID":231882},"geometry":{"x":179654.33999999985,"y":2554172.0500000045}},{"attributes":{"ID":231887,"DIS_CODE":0,"TOWNNAME":"新市區","LI":"大社里","LIN":"23鄰","STREET":" ","SECT":" ","MAREA":"大社","LANE":" ","ALLEY":" ","HOUSE_NO":"８６６號","E_COORD97":179736.57000000001,"N_COORD97":2554089.5,"ADDRESS":"大社８６６號","OBJECTID":231883},"geometry":{"x":179736.5700000003,"y":2554089.5}},{"attributes":{"ID":231888,"DIS_CODE":0,"TOWNNAME":"永康區","LI":"復國里","LIN":"36鄰","STREET":"復國一路","SECT":" ","MAREA":" ","LANE":"５７巷","ALLEY":" ","HOUSE_NO":"５號","E_COORD97":172672.48000000001,"N_COORD97":2544889.2799999998,"ADDRESS":"復國一路５７巷５號","OBJECTID":231884},"geometry":{"x":172672.48000000138,"y":2544889.2799999993}},{"attributes":{"ID":231889,"DIS_CODE":0,"TOWNNAME":"新市區","LI":"大營里","LIN":"23鄰","STREET":" ","SECT":" ","MAREA":"大營","LANE":" ","ALLEY":" ","HOUSE_NO":"１３０之２２號","E_COORD97":179240.73000000001,"N_COORD97":2554600.5499999998,"ADDRESS":"大營１３０之２２號","OBJECTID":231885},"geometry":{"x":179240.73000000045,"y":2554600.5500000026}},{"attributes":{"ID":231890,"DIS_CODE":0,"TOWNNAME":"永康區","LI":"西灣里","LIN":"2鄰","STREET":"大灣路","SECT":" ","MAREA":" ","LANE":"４０６巷","ALLEY":" ","HOUSE_NO":"５８號","E_COORD97":174668.85999999999,"N_COORD97":2545102.8799999999,"ADDRESS":"大灣路４０６巷５８號","OBJECTID":231886},"geometry":{"x":174668.86000000127,"y":2545102.8800000008}},{"attributes":{"ID":231891,"DIS_CODE":0,"TOWNNAME":"中西區","LI":"永華里","LIN":"14鄰","STREET":"府中街","SECT":" ","MAREA":" ","LANE":" ","ALLEY":" ","HOUSE_NO":"８０號","E_COORD97":168612.62,"N_COORD97":2543422.8900000001,"ADDRESS":"府中街８０號","OBJECTID":231887},"geometry":{"x":168612.62000000197,"y":2543422.8900000025}},{"attributes":{"ID":231892,"DIS_CODE":0,"TOWNNAME":"中西區","LI":"永華里","LIN":"14鄰","STREET":"府中街","SECT":" ","MAREA":" ","LANE":" ","ALLEY":" ","HOUSE_NO":"８２號","E_COORD97":168607.31,"N_COORD97":2543422.0800000001,"ADDRESS":"府中街８２號","OBJECTID":231888},"geometry":{"x":168607.30999999866,"y":2543422.0800000001}},{"attributes":{"ID":231893,"DIS_CODE":0,"TOWNNAME":"中西區","LI":"永華里","LIN":"14鄰","STREET":"府中街","SECT":" ","MAREA":" ","LANE":" ","ALLEY":" ","HOUSE_NO":"８４號","E_COORD97":168602.04000000001,"N_COORD97":2543421.4100000001,"ADDRESS":"府中街８４號","OBJECTID":231889},"geometry":{"x":168602.04000000097,"y":2543421.4100000039}},{"attributes":{"ID":231894,"DIS_CODE":0,"TOWNNAME":"中西區","LI":"永華里","LIN":"14鄰","STREET":"府中街","SECT":" ","MAREA":" ","LANE":" ","ALLEY":" ","HOUSE_NO":"８６號","E_COORD97":168592.89999999999,"N_COORD97":2543418.7400000002,"ADDRESS":"府中街８６號","OBJECTID":231890},"geometry":{"x":168592.9000000013,"y":2543418.7400000002}},{"attributes":{"ID":231895,"DIS_CODE":0,"TOWNNAME":"中西區","LI":"永華里","LIN":"14鄰","STREET":"開山路","SECT":" ","MAREA":" ","LANE":" ","ALLEY":" ","HOUSE_NO":"５８號","E_COORD97":168632.20000000001,"N_COORD97":2543463.73,"ADDRESS":"開山路５８號","OBJECTID":231891},"geometry":{"x":168632.20000000019,"y":2543463.7300000042}},{"attributes":{"ID":231896,"DIS_CODE":0,"TOWNNAME":"中西區","LI":"永華里","LIN":"14鄰","STREET":"開山路","SECT":" ","MAREA":" ","LANE":" ","ALLEY":" ","HOUSE_NO":"６０號","E_COORD97":168634.20000000001,"N_COORD97":2543460.3999999999,"ADDRESS":"開山路６０號","OBJECTID":231892},"geometry":{"x":168634.20000000205,"y":2543460.4000000022}},{"attributes":{"ID":231897,"DIS_CODE":0,"TOWNNAME":"新市區","LI":"大營里","LIN":"23鄰","STREET":" ","SECT":" ","MAREA":"大營","LANE":" ","ALLEY":" ","HOUSE_NO":"１３０之１０號","E_COORD97":179226.23000000001,"N_COORD97":2554619.7999999998,"ADDRESS":"大營１３０之１０號","OBJECTID":231893},"geometry":{"x":179226.23000000138,"y":2554619.8000000007}},{"attributes":{"ID":231898,"DIS_CODE":0,"TOWNNAME":"新市區","LI":"大營里","LIN":"23鄰","STREET":" ","SECT":" ","MAREA":"大營","LANE":" ","ALLEY":" ","HOUSE_NO":"１３０之１６號","E_COORD97":179233.67000000001,"N_COORD97":2554610.0499999998,"ADDRESS":"大營１３０之１６號","OBJECTID":231894},"geometry":{"x":179233.66999999993,"y":2554610.0500000026}},{"attributes":{"ID":231899,"DIS_CODE":0,"TOWNNAME":"新市區","LI":"大營里","LIN":"23鄰","STREET":" ","SECT":" ","MAREA":"大營","LANE":" ","ALLEY":" ","HOUSE_NO":"１３０之１９號","E_COORD97":179248.48000000001,"N_COORD97":2554619.7999999998,"ADDRESS":"大營１３０之１９號","OBJECTID":231895},"geometry":{"x":179248.48000000138,"y":2554619.8000000007}},{"attributes":{"ID":231900,"DIS_CODE":0,"TOWNNAME":"永康區","LI":"三合里","LIN":"23鄰","STREET":"南工街","SECT":" ","MAREA":" ","LANE":"３２３巷","ALLEY":" ","HOUSE_NO":"１８號","E_COORD97":171778.04000000001,"N_COORD97":2545984.4900000002,"ADDRESS":"南工街３２３巷１８號","OBJECTID":231896},"geometry":{"x":171778.0400000019,"y":2545984.4900000021}},{"attributes":{"ID":231901,"DIS_CODE":0,"TOWNNAME":"新市區","LI":"大營里","LIN":"23鄰","STREET":" ","SECT":" ","MAREA":"大營","LANE":" ","ALLEY":" ","HOUSE_NO":"１３０號","E_COORD97":179237.82000000001,"N_COORD97":2554650.25,"ADDRESS":"大營１３０號","OBJECTID":231897},"geometry":{"x":179237.8200000003,"y":2554650.25}},{"attributes":{"ID":231902,"DIS_CODE":0,"TOWNNAME":"永康區","LI":"三合里","LIN":"18鄰","STREET":"南工街","SECT":" ","MAREA":" ","LANE":"２６７巷","ALLEY":" ","HOUSE_NO":"１號","E_COORD97":171892.25,"N_COORD97":2545954.2400000002,"ADDRESS":"南工街２６７巷１號","OBJECTID":231898},"geometry":{"x":171892.25000000093,"y":2545954.2400000002}},{"attributes":{"ID":231903,"DIS_CODE":0,"TOWNNAME":"新市區","LI":"大營里","LIN":"23鄰","STREET":" ","SECT":" ","MAREA":"大營","LANE":" ","ALLEY":" ","HOUSE_NO":"１３０之４號","E_COORD97":179219.23000000001,"N_COORD97":2554626.7999999998,"ADDRESS":"大營１３０之４號","OBJECTID":231899},"geometry":{"x":179219.23000000138,"y":2554626.8000000007}},{"attributes":{"ID":231904,"DIS_CODE":0,"TOWNNAME":"永康區","LI":"二王里","LIN":"6鄰","STREET":"永二街","SECT":" ","MAREA":" ","LANE":"３７６巷","ALLEY":" ","HOUSE_NO":"４號","E_COORD97":172881.62,"N_COORD97":2546690.52,"ADDRESS":"永二街３７６巷４號","OBJECTID":231900},"geometry":{"x":172881.62000000104,"y":2546690.5199999996}},{"attributes":{"ID":231905,"DIS_CODE":0,"TOWNNAME":"中西區","LI":"永華里","LIN":"14鄰","STREET":"開山路","SECT":" ","MAREA":" ","LANE":" ","ALLEY":" ","HOUSE_NO":"７０號之１","E_COORD97":168649.57000000001,"N_COORD97":2543432.2799999998,"ADDRESS":"開山路７０號之１","OBJECTID":231901},"geometry":{"x":168649.57000000123,"y":2543432.2800000012}},{"attributes":{"ID":231906,"DIS_CODE":0,"TOWNNAME":"新市區","LI":"大營里","LIN":"23鄰","STREET":" ","SECT":" ","MAREA":"大營","LANE":" ","ALLEY":" ","HOUSE_NO":"１３０之３５號","E_COORD97":179289.20000000001,"N_COORD97":2554621.2999999998,"ADDRESS":"大營１３０之３５號","OBJECTID":231902},"geometry":{"x":179289.20000000112,"y":2554621.3000000045}},{"attributes":{"ID":231907,"DIS_CODE":0,"TOWNNAME":"新市區","LI":"大營里","LIN":"23鄰","STREET":" ","SECT":" ","MAREA":"大營","LANE":" ","ALLEY":" ","HOUSE_NO":"１３０之３８號","E_COORD97":179297.35000000001,"N_COORD97":2554630.7999999998,"ADDRESS":"大營１３０之３８號","OBJECTID":231903},"geometry":{"x":179297.35000000056,"y":2554630.8000000007}},{"attributes":{"ID":231908,"DIS_CODE":0,"TOWNNAME":"新市區","LI":"大營里","LIN":"23鄰","STREET":" ","SECT":" ","MAREA":"大營","LANE":" ","ALLEY":" ","HOUSE_NO":"１３０之３６號","E_COORD97":179291.85000000001,"N_COORD97":2554624.2999999998,"ADDRESS":"大營１３０之３６號","OBJECTID":231904},"geometry":{"x":179291.84999999963,"y":2554624.3000000007}},{"attributes":{"ID":231909,"DIS_CODE":0,"TOWNNAME":"新市區","LI":"大社里","LIN":"23鄰","STREET":" ","SECT":" ","MAREA":"大社","LANE":" ","ALLEY":" ","HOUSE_NO":"８５１之１５號","E_COORD97":179669,"N_COORD97":2554145.0499999998,"ADDRESS":"大社８５１之１５號","OBJECTID":231905},"geometry":{"x":179669,"y":2554145.0500000045}},{"attributes":{"ID":231910,"DIS_CODE":0,"TOWNNAME":"新市區","LI":"大營里","LIN":"23鄰","STREET":" ","SECT":" ","MAREA":"大營","LANE":" ","ALLEY":" ","HOUSE_NO":"１３０之３１號","E_COORD97":179263.98000000001,"N_COORD97":2554600.2999999998,"ADDRESS":"大營１３０之３１號","OBJECTID":231906},"geometry":{"x":179263.98000000138,"y":2554600.3000000007}},{"attributes":{"ID":231911,"DIS_CODE":0,"TOWNNAME":"新市區","LI":"大社里","LIN":"23鄰","STREET":" ","SECT":" ","MAREA":"大社","LANE":" ","ALLEY":" ","HOUSE_NO":"８５１號之９","E_COORD97":179656.57000000001,"N_COORD97":2554164.2999999998,"ADDRESS":"大社８５１號之９","OBJECTID":231907},"geometry":{"x":179656.5700000003,"y":2554164.3000000026}},{"attributes":{"ID":231912,"DIS_CODE":0,"TOWNNAME":"新市區","LI":"大社里","LIN":"23鄰","STREET":" ","SECT":" ","MAREA":"大社","LANE":" ","ALLEY":" ","HOUSE_NO":"８５１號之１０","E_COORD97":179658.85999999999,"N_COORD97":2554160.2999999998,"ADDRESS":"大社８５１號之１０","OBJECTID":231908},"geometry":{"x":179658.8600000022,"y":2554160.3000000045}},{"attributes":{"ID":231913,"DIS_CODE":0,"TOWNNAME":"新市區","LI":"大社里","LIN":"23鄰","STREET":" ","SECT":" ","MAREA":"大社","LANE":" ","ALLEY":" ","HOUSE_NO":"８４５號","E_COORD97":179710.76000000001,"N_COORD97":2554209.75,"ADDRESS":"大社８４５號","OBJECTID":231909},"geometry":{"x":179710.75999999978,"y":2554209.75}},{"attributes":{"ID":231914,"DIS_CODE":0,"TOWNNAME":"中西區","LI":"永華里","LIN":"14鄰","STREET":"開山路","SECT":" ","MAREA":" ","LANE":" ","ALLEY":" ","HOUSE_NO":"７２號","E_COORD97":168651.13,"N_COORD97":2543428.9399999999,"ADDRESS":"開山路７２號","OBJECTID":231910},"geometry":{"x":168651.12999999989,"y":2543428.9400000013}},{"attributes":{"ID":231915,"DIS_CODE":0,"TOWNNAME":"中西區","LI":"永華里","LIN":"14鄰","STREET":"府中街","SECT":" ","MAREA":" ","LANE":" ","ALLEY":" ","HOUSE_NO":"７２號","E_COORD97":168643.42000000001,"N_COORD97":2543423.1899999999,"ADDRESS":"府中街７２號","OBJECTID":231911},"geometry":{"x":168643.42000000086,"y":2543423.1900000013}},{"attributes":{"ID":231916,"DIS_CODE":0,"TOWNNAME":"永康區","LI":"大橋里","LIN":"23鄰","STREET":"大橋一街","SECT":" ","MAREA":" ","LANE":"１８１巷","ALLEY":" ","HOUSE_NO":"１２號","E_COORD97":171141.01999999999,"N_COORD97":2546582.2400000002,"ADDRESS":"大橋一街１８１巷１２號","OBJECTID":231912},"geometry":{"x":171141.02000000048,"y":2546582.2400000002}},{"attributes":{"ID":231917,"DIS_CODE":0,"TOWNNAME":"永康區","LI":"大橋里","LIN":"23鄰","STREET":"大橋一街","SECT":" ","MAREA":" ","LANE":"１８１巷","ALLEY":" ","HOUSE_NO":"１８號","E_COORD97":171132.10000000001,"N_COORD97":2546594.4900000002,"ADDRESS":"大橋一街１８１巷１８號","OBJECTID":231913},"geometry":{"x":171132.10000000056,"y":2546594.4900000039}},{"attributes":{"ID":231918,"DIS_CODE":0,"TOWNNAME":"永康區","LI":"大橋里","LIN":"23鄰","STREET":"大橋一街","SECT":" ","MAREA":" ","LANE":"１９７巷","ALLEY":" ","HOUSE_NO":"６號","E_COORD97":171169.37,"N_COORD97":2546613,"ADDRESS":"大橋一街１９７巷６號","OBJECTID":231914},"geometry":{"x":171169.37000000104,"y":2546613}},{"attributes":{"ID":231919,"DIS_CODE":0,"TOWNNAME":"永康區","LI":"東橋里","LIN":"2鄰","STREET":"大橋一街","SECT":" ","MAREA":" ","LANE":"３２４巷","ALLEY":" ","HOUSE_NO":"３８號","E_COORD97":171383.34,"N_COORD97":2546556.29,"ADDRESS":"大橋一街３２４巷３８號","OBJECTID":231915},"geometry":{"x":171383.34000000078,"y":2546556.2899999991}},{"attributes":{"ID":231920,"DIS_CODE":0,"TOWNNAME":"安南區","LI":"城南里","LIN":"2鄰","STREET":"城西街","SECT":"一段","MAREA":" ","LANE":"６１巷","ALLEY":" ","HOUSE_NO":"２０號","E_COORD97":160728.01000000001,"N_COORD97":2551363.0800000001,"ADDRESS":"城西街一段６１巷２０號","OBJECTID":231916},"geometry":{"x":160728.00999999978,"y":2551363.0800000001}},{"attributes":{"ID":231921,"DIS_CODE":0,"TOWNNAME":"中西區","LI":"永華里","LIN":"14鄰","STREET":"府中街","SECT":" ","MAREA":" ","LANE":" ","ALLEY":" ","HOUSE_NO":"７４號","E_COORD97":168635.48000000001,"N_COORD97":2543423.1899999999,"ADDRESS":"府中街７４號","OBJECTID":231917},"geometry":{"x":168635.48000000045,"y":2543423.1900000013}},{"attributes":{"ID":231922,"DIS_CODE":0,"TOWNNAME":"仁德區","LI":"成功里","LIN":"14鄰","STREET":"全福路","SECT":" ","MAREA":" ","LANE":" ","ALLEY":" ","HOUSE_NO":"３７號","E_COORD97":170922.17000000001,"N_COORD97":2539325.2400000002,"ADDRESS":"全福路３７號","OBJECTID":231918},"geometry":{"x":170922.16999999993,"y":2539325.2400000021}},{"attributes":{"ID":231923,"DIS_CODE":0,"TOWNNAME":"仁德區","LI":"成功里","LIN":"14鄰","STREET":"全福路","SECT":" ","MAREA":" ","LANE":" ","ALLEY":" ","HOUSE_NO":"４２號","E_COORD97":170925.14999999999,"N_COORD97":2539307,"ADDRESS":"全福路４２號","OBJECTID":231919},"geometry":{"x":170925.1500000013,"y":2539307}},{"attributes":{"ID":231924,"DIS_CODE":0,"TOWNNAME":"仁德區","LI":"成功里","LIN":"14鄰","STREET":"全福路","SECT":" ","MAREA":" ","LANE":" ","ALLEY":" ","HOUSE_NO":"３６號","E_COORD97":170911.98000000001,"N_COORD97":2539308.25,"ADDRESS":"全福路３６號","OBJECTID":231920},"geometry":{"x":170911.98000000045,"y":2539308.25}},{"attributes":{"ID":231925,"DIS_CODE":0,"TOWNNAME":"仁德區","LI":"仁德里","LIN":"14鄰","STREET":"中正路","SECT":"三段","MAREA":" ","LANE":" ","ALLEY":" ","HOUSE_NO":"４１號","E_COORD97":173326.29000000001,"N_COORD97":2541502.77,"ADDRESS":"中正路三段４１號","OBJECTID":231921},"geometry":{"x":173326.29000000097,"y":2541502.7700000033}},{"attributes":{"ID":231926,"DIS_CODE":0,"TOWNNAME":"仁德區","LI":"仁德里","LIN":"14鄰","STREET":"中正路","SECT":"三段","MAREA":" ","LANE":" ","ALLEY":" ","HOUSE_NO":"６１之１號","E_COORD97":173349.32000000001,"N_COORD97":2541548.2999999998,"ADDRESS":"中正路三段６１之１號","OBJECTID":231922},"geometry":{"x":173349.3200000003,"y":2541548.3000000026}},{"attributes":{"ID":231927,"DIS_CODE":0,"TOWNNAME":"仁德區","LI":"成功里","LIN":"14鄰","STREET":"成功二街","SECT":" ","MAREA":" ","LANE":" ","ALLEY":" ","HOUSE_NO":"２８７號","E_COORD97":170892.95999999999,"N_COORD97":2539327.7599999998,"ADDRESS":"成功二街２８７號","OBJECTID":231923},"geometry":{"x":170892.95999999996,"y":2539327.7600000016}},{"attributes":{"ID":231928,"DIS_CODE":0,"TOWNNAME":"永康區","LI":"大橋里","LIN":"23鄰","STREET":"大橋一街","SECT":" ","MAREA":" ","LANE":"２２３巷","ALLEY":" ","HOUSE_NO":"１號","E_COORD97":171226.10999999999,"N_COORD97":2546636,"ADDRESS":"大橋一街２２３巷１號","OBJECTID":231924},"geometry":{"x":171226.11000000127,"y":2546636.0000000019}},{"attributes":{"ID":231929,"DIS_CODE":0,"TOWNNAME":"永康區","LI":"大橋里","LIN":"23鄰","STREET":"大橋一街","SECT":" ","MAREA":" ","LANE":"２１１巷","ALLEY":" ","HOUSE_NO":"３號","E_COORD97":171189.01999999999,"N_COORD97":2546626.25,"ADDRESS":"大橋一街２１１巷３號","OBJECTID":231925},"geometry":{"x":171189.01999999955,"y":2546626.2500000037}},{"attributes":{"ID":231930,"DIS_CODE":0,"TOWNNAME":"永康區","LI":"大橋里","LIN":"23鄰","STREET":"大橋一街","SECT":" ","MAREA":" ","LANE":"１８１巷","ALLEY":" ","HOUSE_NO":"２６號","E_COORD97":171123.26999999999,"N_COORD97":2546607.7400000002,"ADDRESS":"大橋一街１８１巷２６號","OBJECTID":231926},"geometry":{"x":171123.27000000142,"y":2546607.7400000021}},{"attributes":{"ID":231931,"DIS_CODE":0,"TOWNNAME":"永康區","LI":"三合里","LIN":"23鄰","STREET":"南工街","SECT":" ","MAREA":" ","LANE":"３２３巷","ALLEY":" ","HOUSE_NO":"１２號","E_COORD97":171778,"N_COORD97":2546000,"ADDRESS":"南工街３２３巷１２號","OBJECTID":231927},"geometry":{"x":171778,"y":2546000}},{"attributes":{"ID":231932,"DIS_CODE":0,"TOWNNAME":"安南區","LI":"城南里","LIN":"2鄰","STREET":"城西街","SECT":"一段","MAREA":" ","LANE":"６１巷","ALLEY":" ","HOUSE_NO":"２４號","E_COORD97":160734.97,"N_COORD97":2551353.1499999999,"ADDRESS":"城西街一段６１巷２４號","OBJECTID":231928},"geometry":{"x":160734.96999999974,"y":2551353.1500000004}},{"attributes":{"ID":231933,"DIS_CODE":0,"TOWNNAME":"安南區","LI":"城南里","LIN":"2鄰","STREET":"城西街","SECT":"一段","MAREA":" ","LANE":"６１巷","ALLEY":" ","HOUSE_NO":"３０號","E_COORD97":160738.95000000001,"N_COORD97":2551341.8500000001,"ADDRESS":"城西街一段６１巷３０號","OBJECTID":231929},"geometry":{"x":160738.95000000019,"y":2551341.8500000015}},{"attributes":{"ID":231934,"DIS_CODE":0,"TOWNNAME":"安南區","LI":"城南里","LIN":"2鄰","STREET":"城西街","SECT":"一段","MAREA":" ","LANE":"６１巷","ALLEY":" ","HOUSE_NO":"３２號","E_COORD97":160739.95000000001,"N_COORD97":2551337.6299999999,"ADDRESS":"城西街一段６１巷３２號","OBJECTID":231930},"geometry":{"x":160739.95000000112,"y":2551337.629999999}},{"attributes":{"ID":231935,"DIS_CODE":0,"TOWNNAME":"安南區","LI":"城南里","LIN":"2鄰","STREET":"城西街","SECT":"一段","MAREA":" ","LANE":"６１巷","ALLEY":" ","HOUSE_NO":"３４號","E_COORD97":160742.92999999999,"N_COORD97":2551333.9100000001,"ADDRESS":"城西街一段６１巷３４號","OBJECTID":231931},"geometry":{"x":160742.93000000063,"y":2551333.9100000001}},{"attributes":{"ID":231936,"DIS_CODE":0,"TOWNNAME":"安南區","LI":"城西里","LIN":"2鄰","STREET":"城西街","SECT":"三段","MAREA":" ","LANE":"４６２巷","ALLEY":" ","HOUSE_NO":"２１號","E_COORD97":157231.13,"N_COORD97":2550941.04,"ADDRESS":"城西街三段４６２巷２１號","OBJECTID":231932},"geometry":{"x":157231.13000000082,"y":2550941.040000001}},{"attributes":{"ID":231937,"DIS_CODE":0,"TOWNNAME":"安南區","LI":"城西里","LIN":"2鄰","STREET":"城西街","SECT":"三段","MAREA":" ","LANE":"４６２巷","ALLEY":" ","HOUSE_NO":"２２號","E_COORD97":157255.54999999999,"N_COORD97":2550945.4500000002,"ADDRESS":"城西街三段４６２巷２２號","OBJECTID":231933},"geometry":{"x":157255.55000000075,"y":2550945.4499999993}},{"attributes":{"ID":231938,"DIS_CODE":0,"TOWNNAME":"安南區","LI":"城西里","LIN":"2鄰","STREET":"城西街","SECT":"三段","MAREA":" ","LANE":"４６２巷","ALLEY":" ","HOUSE_NO":"３１號","E_COORD97":157228.26999999999,"N_COORD97":2550971.1499999999,"ADDRESS":"城西街三段４６２巷３１號","OBJECTID":231934},"geometry":{"x":157228.27000000048,"y":2550971.1500000022}},{"attributes":{"ID":231939,"DIS_CODE":0,"TOWNNAME":"安南區","LI":"城西里","LIN":"2鄰","STREET":"城西街","SECT":"三段","MAREA":" ","LANE":"４６２巷","ALLEY":" ","HOUSE_NO":"３２號","E_COORD97":157247.5,"N_COORD97":2550975.8199999998,"ADDRESS":"城西街三段４６２巷３２號","OBJECTID":231935},"geometry":{"x":157247.50000000093,"y":2550975.8199999984}},{"attributes":{"ID":231940,"DIS_CODE":0,"TOWNNAME":"安南區","LI":"城西里","LIN":"2鄰","STREET":"城西街","SECT":"三段","MAREA":" ","LANE":"４８４巷","ALLEY":" ","HOUSE_NO":"２２號","E_COORD97":157208.57000000001,"N_COORD97":2550922.1699999999,"ADDRESS":"城西街三段４８４巷２２號","OBJECTID":231936},"geometry":{"x":157208.57000000123,"y":2550922.1699999981}},{"attributes":{"ID":231941,"DIS_CODE":0,"TOWNNAME":"安南區","LI":"城西里","LIN":"2鄰","STREET":"城西街","SECT":"三段","MAREA":" ","LANE":"４８４巷","ALLEY":" ","HOUSE_NO":"２９號","E_COORD97":157188.45999999999,"N_COORD97":2550928.48,"ADDRESS":"城西街三段４８４巷２９號","OBJECTID":231937},"geometry":{"x":157188.46000000089,"y":2550928.4800000023}},{"attributes":{"ID":231942,"DIS_CODE":0,"TOWNNAME":"安南區","LI":"城西里","LIN":"2鄰","STREET":"城西街","SECT":"三段","MAREA":" ","LANE":"４８４巷","ALLEY":" ","HOUSE_NO":"３０號","E_COORD97":157209.98000000001,"N_COORD97":2550938.9399999999,"ADDRESS":"城西街三段４８４巷３０號","OBJECTID":231938},"geometry":{"x":157209.98000000045,"y":2550938.9399999995}},{"attributes":{"ID":231943,"DIS_CODE":0,"TOWNNAME":"安南區","LI":"砂崙里","LIN":"2鄰","STREET":"城北路","SECT":" ","MAREA":" ","LANE":"８７１巷","ALLEY":" ","HOUSE_NO":"１１０號","E_COORD97":160597.42000000001,"N_COORD97":2553261.23,"ADDRESS":"城北路８７１巷１１０號","OBJECTID":231939},"geometry":{"x":160597.42000000086,"y":2553261.2300000004}},{"attributes":{"ID":231944,"DIS_CODE":0,"TOWNNAME":"仁德區","LI":"成功里","LIN":"14鄰","STREET":"全福路","SECT":" ","MAREA":" ","LANE":" ","ALLEY":" ","HOUSE_NO":"６４號","E_COORD97":170972.29000000001,"N_COORD97":2539303.25,"ADDRESS":"全福路６４號","OBJECTID":231940},"geometry":{"x":170972.29000000004,"y":2539303.2500000037}},{"attributes":{"ID":231945,"DIS_CODE":0,"TOWNNAME":"仁德區","LI":"仁德里","LIN":"14鄰","STREET":"中正路","SECT":"三段","MAREA":" ","LANE":" ","ALLEY":" ","HOUSE_NO":"３７號","E_COORD97":173320.89999999999,"N_COORD97":2541490.77,"ADDRESS":"中正路三段３７號","OBJECTID":231941},"geometry":{"x":173320.9000000013,"y":2541490.7700000014}},{"attributes":{"ID":231946,"DIS_CODE":0,"TOWNNAME":"仁德區","LI":"成功里","LIN":"14鄰","STREET":"全福路","SECT":" ","MAREA":" ","LANE":" ","ALLEY":" ","HOUSE_NO":"５９號","E_COORD97":170968.84,"N_COORD97":2539320.9900000002,"ADDRESS":"全福路５９號","OBJECTID":231942},"geometry":{"x":170968.83999999892,"y":2539320.9900000002}},{"attributes":{"ID":231947,"DIS_CODE":0,"TOWNNAME":"仁德區","LI":"後壁里","LIN":"14鄰","STREET":"德善路","SECT":" ","MAREA":" ","LANE":" ","ALLEY":" ","HOUSE_NO":"１７６號","E_COORD97":173634.28,"N_COORD97":2538776.27,"ADDRESS":"德善路１７６號","OBJECTID":231943},"geometry":{"x":173634.28000000026,"y":2538776.2699999996}},{"attributes":{"ID":231948,"DIS_CODE":0,"TOWNNAME":"永康區","LI":"復華里","LIN":"23鄰","STREET":"復華八街","SECT":" ","MAREA":" ","LANE":" ","ALLEY":" ","HOUSE_NO":"８號","E_COORD97":172668.72,"N_COORD97":2546129.7400000002,"ADDRESS":"復華八街８號","OBJECTID":231944},"geometry":{"x":172668.72000000067,"y":2546129.7400000021}},{"attributes":{"ID":231949,"DIS_CODE":0,"TOWNNAME":"安南區","LI":"砂崙里","LIN":"2鄰","STREET":"城北路","SECT":" ","MAREA":" ","LANE":"８７１巷","ALLEY":" ","HOUSE_NO":"１２６號","E_COORD97":160555.64000000001,"N_COORD97":2553256.6499999999,"ADDRESS":"城北路８７１巷１２６號","OBJECTID":231945},"geometry":{"x":160555.6400000006,"y":2553256.6500000022}},{"attributes":{"ID":231950,"DIS_CODE":0,"TOWNNAME":"安南區","LI":"砂崙里","LIN":"2鄰","STREET":"城北路","SECT":" ","MAREA":" ","LANE":"８７１巷","ALLEY":" ","HOUSE_NO":"１２８號","E_COORD97":160550.95999999999,"N_COORD97":2553255.04,"ADDRESS":"城北路８７１巷１２８號","OBJECTID":231946},"geometry":{"x":160550.95999999996,"y":2553255.0400000028}},{"attributes":{"ID":231951,"DIS_CODE":0,"TOWNNAME":"安南區","LI":"砂崙里","LIN":"2鄰","STREET":"城北路","SECT":" ","MAREA":" ","LANE":"８７１巷","ALLEY":" ","HOUSE_NO":"１３２號","E_COORD97":160543.13,"N_COORD97":2553257.6699999999,"ADDRESS":"城北路８７１巷１３２號","OBJECTID":231947},"geometry":{"x":160543.12999999989,"y":2553257.6699999999}},{"attributes":{"ID":231952,"DIS_CODE":0,"TOWNNAME":"安南區","LI":"淵中里","LIN":"2鄰","STREET":"安中路","SECT":"三段","MAREA":" ","LANE":"４３９巷","ALLEY":" ","HOUSE_NO":"１３號","E_COORD97":165306.23000000001,"N_COORD97":2550047.1400000001,"ADDRESS":"安中路三段４３９巷１３號","OBJECTID":231948},"geometry":{"x":165306.23000000045,"y":2550047.1400000006}},{"attributes":{"ID":231953,"DIS_CODE":0,"TOWNNAME":"安南區","LI":"淵中里","LIN":"2鄰","STREET":"安中路","SECT":"三段","MAREA":" ","LANE":"４３９巷","ALLEY":" ","HOUSE_NO":"２１號","E_COORD97":165303.60999999999,"N_COORD97":2550026.1899999999,"ADDRESS":"安中路三段４３９巷２１號","OBJECTID":231949},"geometry":{"x":165303.61000000034,"y":2550026.1899999995}},{"attributes":{"ID":231954,"DIS_CODE":0,"TOWNNAME":"安南區","LI":"城中里","LIN":"2鄰","STREET":"安中路","SECT":"六段","MAREA":" ","LANE":"５８１巷","ALLEY":" ","HOUSE_NO":"７號","E_COORD97":160820.92000000001,"N_COORD97":2551418.9300000002,"ADDRESS":"安中路六段５８１巷７號","OBJECTID":231950},"geometry":{"x":160820.91999999899,"y":2551418.9300000034}},{"attributes":{"ID":231955,"DIS_CODE":0,"TOWNNAME":"安南區","LI":"城西里","LIN":"2鄰","STREET":"城西街","SECT":"三段","MAREA":" ","LANE":"４８４巷","ALLEY":" ","HOUSE_NO":"７號","E_COORD97":157190.47,"N_COORD97":2550885.6299999999,"ADDRESS":"城西街三段４８４巷７號","OBJECTID":231951},"geometry":{"x":157190.46999999974,"y":2550885.6300000008}},{"attributes":{"ID":231956,"DIS_CODE":0,"TOWNNAME":"安南區","LI":"南興里","LIN":"2鄰","STREET":"安興街","SECT":" ","MAREA":" ","LANE":"４３５巷","ALLEY":" ","HOUSE_NO":"２７號","E_COORD97":163597.28,"N_COORD97":2552249.6000000001,"ADDRESS":"安興街４３５巷２７號","OBJECTID":231952},"geometry":{"x":163597.27999999933,"y":2552249.6000000015}},{"attributes":{"ID":231957,"DIS_CODE":0,"TOWNNAME":"安南區","LI":"南興里","LIN":"2鄰","STREET":"安興街","SECT":" ","MAREA":" ","LANE":"４３５巷","ALLEY":" ","HOUSE_NO":"２９號","E_COORD97":163599.39000000001,"N_COORD97":2552246.9700000002,"ADDRESS":"安興街４３５巷２９號","OBJECTID":231953},"geometry":{"x":163599.39000000153,"y":2552246.9700000044}},{"attributes":{"ID":231958,"DIS_CODE":0,"TOWNNAME":"安南區","LI":"南興里","LIN":"2鄰","STREET":"安興街","SECT":" ","MAREA":" ","LANE":"４３５巷","ALLEY":" ","HOUSE_NO":"３１號","E_COORD97":163602.01999999999,"N_COORD97":2552242.2400000002,"ADDRESS":"安興街４３５巷３１號","OBJECTID":231954},"geometry":{"x":163602.02000000048,"y":2552242.2400000021}},{"attributes":{"ID":231959,"DIS_CODE":0,"TOWNNAME":"安南區","LI":"南興里","LIN":"2鄰","STREET":"安興街","SECT":" ","MAREA":" ","LANE":"４３５巷","ALLEY":" ","HOUSE_NO":"３３號","E_COORD97":163603.60000000001,"N_COORD97":2552237.5099999998,"ADDRESS":"安興街４３５巷３３號","OBJECTID":231955},"geometry":{"x":163603.60000000056,"y":2552237.5099999998}},{"attributes":{"ID":231960,"DIS_CODE":0,"TOWNNAME":"安南區","LI":"南興里","LIN":"2鄰","STREET":"安興街","SECT":" ","MAREA":" ","LANE":"４３５巷","ALLEY":" ","HOUSE_NO":"３５號","E_COORD97":163605.70000000001,"N_COORD97":2552233.3100000001,"ADDRESS":"安興街４３５巷３５號","OBJECTID":231956},"geometry":{"x":163605.70000000019,"y":2552233.3100000005}},{"attributes":{"ID":231961,"DIS_CODE":0,"TOWNNAME":"安南區","LI":"南興里","LIN":"2鄰","STREET":"安興街","SECT":" ","MAREA":" ","LANE":"４３５巷","ALLEY":" ","HOUSE_NO":"３７號","E_COORD97":163606.75,"N_COORD97":2552227,"ADDRESS":"安興街４３５巷３７號","OBJECTID":231957},"geometry":{"x":163606.75,"y":2552227.0000000019}},{"attributes":{"ID":231962,"DIS_CODE":0,"TOWNNAME":"善化區","LI":"文正里","LIN":"2鄰","STREET":"文正路","SECT":" ","MAREA":" ","LANE":"７９巷","ALLEY":" ","HOUSE_NO":"２４號","E_COORD97":177066.39000000001,"N_COORD97":2559431.0299999998,"ADDRESS":"文正路７９巷２４號","OBJECTID":231958},"geometry":{"x":177066.3900000006,"y":2559431.0299999993}},{"attributes":{"ID":231963,"DIS_CODE":0,"TOWNNAME":"東區","LI":"崇誨里","LIN":"2鄰","STREET":"林森路","SECT":"二段","MAREA":" ","LANE":"１９２巷","ALLEY":" ","HOUSE_NO":"２６號","E_COORD97":170586.97,"N_COORD97":2543324.2200000002,"ADDRESS":"林森路二段１９２巷２６號","OBJECTID":231959},"geometry":{"x":170586.97000000067,"y":2543324.2200000007}},{"attributes":{"ID":231964,"DIS_CODE":0,"TOWNNAME":"東區","LI":"崇誨里","LIN":"2鄰","STREET":"林森路","SECT":"二段","MAREA":" ","LANE":"１９２巷","ALLEY":" ","HOUSE_NO":"２８號","E_COORD97":170593.85000000001,"N_COORD97":2543325,"ADDRESS":"林森路二段１９２巷２８號","OBJECTID":231960},"geometry":{"x":170593.8499999987,"y":2543325}},{"attributes":{"ID":231965,"DIS_CODE":0,"TOWNNAME":"東區","LI":"東光里","LIN":"2鄰","STREET":"東興路","SECT":" ","MAREA":" ","LANE":"２０巷","ALLEY":" ","HOUSE_NO":"１１１號之１","E_COORD97":171056.32000000001,"N_COORD97":2543448.6899999999,"ADDRESS":"東興路２０巷１１１號之１","OBJECTID":231961},"geometry":{"x":171056.32000000123,"y":2543448.6899999995}},{"attributes":{"ID":231966,"DIS_CODE":0,"TOWNNAME":"東區","LI":"成大里","LIN":"23鄰","STREET":"育樂街","SECT":" ","MAREA":" ","LANE":"１４１巷","ALLEY":" ","HOUSE_NO":"３１號","E_COORD97":169589.89999999999,"N_COORD97":2543968.25,"ADDRESS":"育樂街１４１巷３１號","OBJECTID":231962},"geometry":{"x":169589.9000000013,"y":2543968.2500000037}},{"attributes":{"ID":231967,"DIS_CODE":0,"TOWNNAME":"東區","LI":"自強里","LIN":"2鄰","STREET":"富農街","SECT":"一段","MAREA":" ","LANE":"１３１巷","ALLEY":" ","HOUSE_NO":"１號","E_COORD97":171506.07999999999,"N_COORD97":2542472.5,"ADDRESS":"富農街一段１３１巷１號","OBJECTID":231963},"geometry":{"x":171506.08000000007,"y":2542472.5000000019}},{"attributes":{"ID":231968,"DIS_CODE":0,"TOWNNAME":"東區","LI":"自強里","LIN":"2鄰","STREET":"富農街","SECT":"一段","MAREA":" ","LANE":"１４１巷","ALLEY":" ","HOUSE_NO":"４號","E_COORD97":171513.70000000001,"N_COORD97":2542505.5299999998,"ADDRESS":"富農街一段１４１巷４號","OBJECTID":231964},"geometry":{"x":171513.70000000019,"y":2542505.5300000012}},{"attributes":{"ID":231969,"DIS_CODE":0,"TOWNNAME":"永康區","LI":"東橋里","LIN":"2鄰","STREET":"大橋一街","SECT":" ","MAREA":" ","LANE":"３２４巷","ALLEY":" ","HOUSE_NO":"１０號","E_COORD97":171323.59,"N_COORD97":2546632.79,"ADDRESS":"大橋一街３２４巷１０號","OBJECTID":231965},"geometry":{"x":171323.59000000078,"y":2546632.790000001}},{"attributes":{"ID":231970,"DIS_CODE":0,"TOWNNAME":"永康區","LI":"\u25A0行里","LIN":"2鄰","STREET":"中正路","SECT":" ","MAREA":" ","LANE":"９５６巷","ALLEY":" ","HOUSE_NO":"８號","E_COORD97":171985.07000000001,"N_COORD97":2548972.7400000002,"ADDRESS":"中正路９５６巷８號","OBJECTID":231966},"geometry":{"x":171985.07000000216,"y":2548972.7400000039}},{"attributes":{"ID":231971,"DIS_CODE":0,"TOWNNAME":"東區","LI":"成大里","LIN":"23鄰","STREET":"育樂街","SECT":" ","MAREA":" ","LANE":"１４１巷","ALLEY":" ","HOUSE_NO":"３號","E_COORD97":169535.42000000001,"N_COORD97":2543939.9500000002,"ADDRESS":"育樂街１４１巷３號","OBJECTID":231967},"geometry":{"x":169535.41999999993,"y":2543939.9500000011}},{"attributes":{"ID":231972,"DIS_CODE":0,"TOWNNAME":"東區","LI":"成大里","LIN":"23鄰","STREET":"育樂街","SECT":" ","MAREA":" ","LANE":"１４１巷","ALLEY":" ","HOUSE_NO":"７號","E_COORD97":169547.81,"N_COORD97":2543944.1899999999,"ADDRESS":"育樂街１４１巷７號","OBJECTID":231968},"geometry":{"x":169547.80999999959,"y":2543944.1899999976}},{"attributes":{"ID":231973,"DIS_CODE":0,"TOWNNAME":"東區","LI":"成大里","LIN":"22鄰","STREET":"育樂街","SECT":" ","MAREA":" ","LANE":"５７巷","ALLEY":" ","HOUSE_NO":"３號","E_COORD97":169666.14000000001,"N_COORD97":2543968.1899999999,"ADDRESS":"育樂街５７巷３號","OBJECTID":231969},"geometry":{"x":169666.13999999966,"y":2543968.1900000032}},{"attributes":{"ID":231974,"DIS_CODE":0,"TOWNNAME":"東區","LI":"成大里","LIN":"22鄰","STREET":"育樂街","SECT":" ","MAREA":" ","LANE":"５７巷","ALLEY":" ","HOUSE_NO":"３號之８","E_COORD97":169647.13,"N_COORD97":2543957.6000000001,"ADDRESS":"育樂街５７巷３號之８","OBJECTID":231970},"geometry":{"x":169647.13000000082,"y":2543957.5999999996}},{"attributes":{"ID":231975,"DIS_CODE":0,"TOWNNAME":"永康區","LI":"\u25A0行里","LIN":"2鄰","STREET":"中正路","SECT":" ","MAREA":" ","LANE":"９５６巷","ALLEY":" ","HOUSE_NO":"２號","E_COORD97":171973.87,"N_COORD97":2548959.4900000002,"ADDRESS":"中正路９５６巷２號","OBJECTID":231971},"geometry":{"x":171973.87000000011,"y":2548959.4900000002}},{"attributes":{"ID":231976,"DIS_CODE":0,"TOWNNAME":"東區","LI":"成大里","LIN":"22鄰","STREET":"育樂街","SECT":" ","MAREA":" ","LANE":"５７巷","ALLEY":" ","HOUSE_NO":"３號之１","E_COORD97":169671.10999999999,"N_COORD97":2543968.1899999999,"ADDRESS":"育樂街５７巷３號之１","OBJECTID":231972},"geometry":{"x":169671.11000000127,"y":2543968.1900000032}},{"attributes":{"ID":231977,"DIS_CODE":0,"TOWNNAME":"東區","LI":"成大里","LIN":"22鄰","STREET":"育樂街","SECT":" ","MAREA":" ","LANE":"５７巷","ALLEY":" ","HOUSE_NO":"３號之１０","E_COORD97":169637.45999999999,"N_COORD97":2543956.9300000002,"ADDRESS":"育樂街５７巷３號之１０","OBJECTID":231973},"geometry":{"x":169637.46000000183,"y":2543956.9300000016}},{"attributes":{"ID":231978,"DIS_CODE":0,"TOWNNAME":"東區","LI":"成大里","LIN":"22鄰","STREET":"育樂街","SECT":" ","MAREA":" ","LANE":"５７巷","ALLEY":" ","HOUSE_NO":"３號之１１","E_COORD97":169640.89999999999,"N_COORD97":2543971.8199999998,"ADDRESS":"育樂街５７巷３號之１１","OBJECTID":231974},"geometry":{"x":169640.90000000037,"y":2543971.8200000022}},{"attributes":{"ID":231979,"DIS_CODE":0,"TOWNNAME":"東區","LI":"成大里","LIN":"22鄰","STREET":"育樂街","SECT":" ","MAREA":" ","LANE":"５７巷","ALLEY":" ","HOUSE_NO":"３號之１３","E_COORD97":169647.20999999999,"N_COORD97":2543971.8199999998,"ADDRESS":"育樂街５７巷３號之１３","OBJECTID":231975},"geometry":{"x":169647.20999999996,"y":2543971.8200000022}},{"attributes":{"ID":231980,"DIS_CODE":0,"TOWNNAME":"仁德區","LI":"仁愛里","LIN":"23鄰","STREET":" ","SECT":" ","MAREA":"仁愛","LANE":" ","ALLEY":" ","HOUSE_NO":"４９４號之１","E_COORD97":170061.72,"N_COORD97":2540060.54,"ADDRESS":"仁愛４９４號之１","OBJECTID":231976},"geometry":{"x":170061.72000000067,"y":2540060.540000001}},{"attributes":{"ID":231981,"DIS_CODE":0,"TOWNNAME":"永康區","LI":"三合里","LIN":"18鄰","STREET":"南工街","SECT":" ","MAREA":" ","LANE":"２６７巷","ALLEY":" ","HOUSE_NO":"２１號","E_COORD97":171886.42999999999,"N_COORD97":2545894.1099999999,"ADDRESS":"南工街２６７巷２１號","OBJECTID":231977},"geometry":{"x":171886.4299999997,"y":2545894.1099999975}},{"attributes":{"ID":231982,"DIS_CODE":0,"TOWNNAME":"永康區","LI":"二王里","LIN":"14鄰","STREET":"永二街","SECT":" ","MAREA":" ","LANE":"４５９巷","ALLEY":" ","HOUSE_NO":"２０號之４","E_COORD97":172596.45999999999,"N_COORD97":2546620.1099999999,"ADDRESS":"永二街４５９巷２０號之４","OBJECTID":231978},"geometry":{"x":172596.45999999996,"y":2546620.1100000031}},{"attributes":{"ID":231983,"DIS_CODE":0,"TOWNNAME":"永康區","LI":"二王里","LIN":"31鄰","STREET":"中山南路","SECT":" ","MAREA":" ","LANE":"４９０巷","ALLEY":" ","HOUSE_NO":"１１號","E_COORD97":172125.12,"N_COORD97":2546384.0299999998,"ADDRESS":"中山南路４９０巷１１號","OBJECTID":231979},"geometry":{"x":172125.12000000197,"y":2546384.0300000012}},{"attributes":{"ID":231984,"DIS_CODE":0,"TOWNNAME":"仁德區","LI":"成功里","LIN":"23鄰","STREET":"成功一街","SECT":" ","MAREA":" ","LANE":"１３１巷","ALLEY":" ","HOUSE_NO":"３８號","E_COORD97":170652.37,"N_COORD97":2539869.1600000001,"ADDRESS":"成功一街１３１巷３８號","OBJECTID":231980},"geometry":{"x":170652.37000000104,"y":2539869.1600000001}},{"attributes":{"ID":231985,"DIS_CODE":0,"TOWNNAME":"仁德區","LI":"太子里","LIN":"23鄰","STREET":"長興四街","SECT":" ","MAREA":" ","LANE":"９０巷","ALLEY":" ","HOUSE_NO":"７號","E_COORD97":173824.01999999999,"N_COORD97":2543592.5,"ADDRESS":"長興四街９０巷７號","OBJECTID":231981},"geometry":{"x":173824.02000000048,"y":2543592.5}},{"attributes":{"ID":231986,"DIS_CODE":0,"TOWNNAME":"仁德區","LI":"太子里","LIN":"23鄰","STREET":"長興四街","SECT":" ","MAREA":" ","LANE":"１０２巷","ALLEY":" ","HOUSE_NO":"１號","E_COORD97":173799.48000000001,"N_COORD97":2543567.25,"ADDRESS":"長興四街１０２巷１號","OBJECTID":231982},"geometry":{"x":173799.47999999952,"y":2543567.25}},{"attributes":{"ID":231987,"DIS_CODE":0,"TOWNNAME":"仁德區","LI":"後壁里","LIN":"14鄰","STREET":"德善路","SECT":" ","MAREA":" ","LANE":" ","ALLEY":" ","HOUSE_NO":"１９６之８號","E_COORD97":173730.60000000001,"N_COORD97":2538747.2999999998,"ADDRESS":"德善路１９６之８號","OBJECTID":231983},"geometry":{"x":173730.60000000056,"y":2538747.2999999989}},{"attributes":{"ID":231988,"DIS_CODE":0,"TOWNNAME":"仁德區","LI":"新田里","LIN":"14鄰","STREET":"北保路","SECT":" ","MAREA":" ","LANE":" ","ALLEY":" ","HOUSE_NO":"１７８號","E_COORD97":173480.95000000001,"N_COORD97":2539434.2400000002,"ADDRESS":"北保路１７８號","OBJECTID":231984},"geometry":{"x":173480.95000000112,"y":2539434.2400000002}},{"attributes":{"ID":231989,"DIS_CODE":0,"TOWNNAME":"仁德區","LI":"新田里","LIN":"14鄰","STREET":"北保東路","SECT":" ","MAREA":" ","LANE":" ","ALLEY":" ","HOUSE_NO":"４７號","E_COORD97":173459.37,"N_COORD97":2539383.25,"ADDRESS":"北保東路４７號","OBJECTID":231985},"geometry":{"x":173459.37000000104,"y":2539383.25}},{"attributes":{"ID":231990,"DIS_CODE":0,"TOWNNAME":"仁德區","LI":"後壁里","LIN":"14鄰","STREET":"德善路","SECT":" ","MAREA":" ","LANE":" ","ALLEY":" ","HOUSE_NO":"１９６之７號","E_COORD97":173726.48999999999,"N_COORD97":2538748.5499999998,"ADDRESS":"德善路１９６之７號","OBJECTID":231986},"geometry":{"x":173726.49000000209,"y":2538748.5500000007}},{"attributes":{"ID":231991,"DIS_CODE":0,"TOWNNAME":"仁德區","LI":"新田里","LIN":"14鄰","STREET":"北保路","SECT":" ","MAREA":" ","LANE":" ","ALLEY":" ","HOUSE_NO":"１７２號","E_COORD97":173467.14000000001,"N_COORD97":2539440.4900000002,"ADDRESS":"北保路１７２號","OBJECTID":231987},"geometry":{"x":173467.14000000153,"y":2539440.4899999984}},{"attributes":{"ID":231992,"DIS_CODE":0,"TOWNNAME":"仁德區","LI":"新田里","LIN":"14鄰","STREET":"北保東路","SECT":" ","MAREA":" ","LANE":" ","ALLEY":" ","HOUSE_NO":"５１號","E_COORD97":173466.62,"N_COORD97":2539379.5,"ADDRESS":"北保東路５１號","OBJECTID":231988},"geometry":{"x":173466.62000000104,"y":2539379.5000000037}},{"attributes":{"ID":231993,"DIS_CODE":0,"TOWNNAME":"永康區","LI":"大灣里","LIN":"23鄰","STREET":"大灣路","SECT":" ","MAREA":" ","LANE":"２４１巷","ALLEY":" ","HOUSE_NO":"３號","E_COORD97":174946.62,"N_COORD97":2545204.25,"ADDRESS":"大灣路２４１巷３號","OBJECTID":231989},"geometry":{"x":174946.62000000104,"y":2545204.25}},{"attributes":{"ID":231994,"DIS_CODE":0,"TOWNNAME":"永康區","LI":"二王里","LIN":"18鄰","STREET":"中山南路","SECT":" ","MAREA":" ","LANE":"６４４巷","ALLEY":" ","HOUSE_NO":"１號","E_COORD97":172403.75,"N_COORD97":2546664.1200000001,"ADDRESS":"中山南路６４４巷１號","OBJECTID":231990},"geometry":{"x":172403.75000000186,"y":2546664.120000001}},{"attributes":{"ID":231995,"DIS_CODE":0,"TOWNNAME":"永康區","LI":"三合里","LIN":"19鄰","STREET":"南工街","SECT":" ","MAREA":" ","LANE":"２６７巷","ALLEY":" ","HOUSE_NO":"３３號","E_COORD97":171882.67000000001,"N_COORD97":2545858.75,"ADDRESS":"南工街２６７巷３３號","OBJECTID":231991},"geometry":{"x":171882.67000000086,"y":2545858.75}},{"attributes":{"ID":231996,"DIS_CODE":0,"TOWNNAME":"永康區","LI":"大灣里","LIN":"23鄰","STREET":"大灣路","SECT":" ","MAREA":" ","LANE":"２４１巷","ALLEY":" ","HOUSE_NO":"２號","E_COORD97":174944.79000000001,"N_COORD97":2545206.5,"ADDRESS":"大灣路２４１巷２號","OBJECTID":231992},"geometry":{"x":174944.7900000019,"y":2545206.5}},{"attributes":{"ID":231997,"DIS_CODE":0,"TOWNNAME":"永康區","LI":"大灣里","LIN":"23鄰","STREET":"大灣路","SECT":" ","MAREA":" ","LANE":"２４１巷","ALLEY":" ","HOUSE_NO":"４號","E_COORD97":174950.60999999999,"N_COORD97":2545200.75,"ADDRESS":"大灣路２４１巷４號","OBJECTID":231993},"geometry":{"x":174950.61000000034,"y":2545200.75}},{"attributes":{"ID":231998,"DIS_CODE":0,"TOWNNAME":"永康區","LI":"大灣里","LIN":"23鄰","STREET":"大灣路","SECT":" ","MAREA":" ","LANE":"２４１巷","ALLEY":" ","HOUSE_NO":"８號","E_COORD97":174959.59,"N_COORD97":2545191.75,"ADDRESS":"大灣路２４１巷８號","OBJECTID":231994},"geometry":{"x":174959.59000000078,"y":2545191.75}},{"attributes":{"ID":231999,"DIS_CODE":0,"TOWNNAME":"永康區","LI":"大橋里","LIN":"23鄰","STREET":"大橋一街","SECT":" ","MAREA":" ","LANE":"１８１巷","ALLEY":" ","HOUSE_NO":"３２號","E_COORD97":171118.48999999999,"N_COORD97":2546618.75,"ADDRESS":"大橋一街１８１巷３２號","OBJECTID":231995},"geometry":{"x":171118.49000000022,"y":2546618.75}},{"attributes":{"ID":232000,"DIS_CODE":0,"TOWNNAME":"永康區","LI":"大橋里","LIN":"23鄰","STREET":"大橋一街","SECT":" ","MAREA":" ","LANE":"１９７巷","ALLEY":" ","HOUSE_NO":"５號","E_COORD97":171162.26999999999,"N_COORD97":2546608.4900000002,"ADDRESS":"大橋一街１９７巷５號","OBJECTID":231996},"geometry":{"x":171162.27000000142,"y":2546608.4900000021}},{"attributes":{"ID":232001,"DIS_CODE":0,"TOWNNAME":"東區","LI":"成大里","LIN":"22鄰","STREET":"育樂街","SECT":" ","MAREA":" ","LANE":"５７巷","ALLEY":" ","HOUSE_NO":"３號之１５","E_COORD97":169652.56,"N_COORD97":2543970.0899999999,"ADDRESS":"育樂街５７巷３號之１５","OBJECTID":231997},"geometry":{"x":169652.55999999959,"y":2543970.0900000017}},{"attributes":{"ID":232002,"DIS_CODE":0,"TOWNNAME":"官田區","LI":"隆本里","LIN":"14鄰","STREET":"復興街","SECT":" ","MAREA":" ","LANE":" ","ALLEY":" ","HOUSE_NO":"１００號","E_COORD97":179777.78,"N_COORD97":2566417.4100000001,"ADDRESS":"復興街１００號","OBJECTID":231998},"geometry":{"x":179777.78000000026,"y":2566417.4100000001}},{"attributes":{"ID":232003,"DIS_CODE":0,"TOWNNAME":"官田區","LI":"隆本里","LIN":"14鄰","STREET":"復興街","SECT":" ","MAREA":" ","LANE":" ","ALLEY":" ","HOUSE_NO":"１０２號","E_COORD97":179773.85999999999,"N_COORD97":2566416.1600000001,"ADDRESS":"復興街１０２號","OBJECTID":231999},"geometry":{"x":179773.86000000034,"y":2566416.1600000001}},{"attributes":{"ID":232004,"DIS_CODE":0,"TOWNNAME":"官田區","LI":"隆本里","LIN":"14鄰","STREET":"復興街","SECT":" ","MAREA":" ","LANE":" ","ALLEY":" ","HOUSE_NO":"１０６號","E_COORD97":179770.10999999999,"N_COORD97":2566414.8300000001,"ADDRESS":"復興街１０６號","OBJECTID":232000},"geometry":{"x":179770.11000000034,"y":2566414.8300000001}}]}