{"displayFieldName":"TOWNNAME","fieldAliases":{"ID":"ID","DIS_CODE":"DIS_CODE","TOWNNAME":"TOWNNAME","LI":"LI","LIN":"LIN","STREET":"STREET","SECT":"SECT","MAREA":"MAREA","LANE":"LANE","ALLEY":"ALLEY","HOUSE_NO":"HOUSE_NO","E_COORD97":"E_COORD97","N_COORD97":"N_COORD97","ADDRESS":"ADDRESS","OBJECTID":"OBJECTID"},"geometryType":"esriGeometryPoint","spatialReference":{"wkid":102443,"latestWkid":3826},"fields":[{"name":"ID","type":"esriFieldTypeDouble","alias":"ID"},{"name":"DIS_CODE","type":"esriFieldTypeInteger","alias":"DIS_CODE"},{"name":"TOWNNAME","type":"esriFieldTypeString","alias":"TOWNNAME","length":8},{"name":"LI","type":"esriFieldTypeString","alias":"LI","length":8},{"name":"LIN","type":"esriFieldTypeString","alias":"LIN","length":12},{"name":"STREET","type":"esriFieldTypeString","alias":"STREET","length":20},{"name":"SECT","type":"esriFieldTypeString","alias":"SECT","length":8},{"name":"MAREA","type":"esriFieldTypeString","alias":"MAREA","length":12},{"name":"LANE","type":"esriFieldTypeString","alias":"LANE","length":10},{"name":"ALLEY","type":"esriFieldTypeString","alias":"ALLEY","length":10},{"name":"HOUSE_NO","type":"esriFieldTypeString","alias":"HOUSE_NO","length":20},{"name":"E_COORD97","type":"esriFieldTypeDouble","alias":"E_COORD97"},{"name":"N_COORD97","type":"esriFieldTypeDouble","alias":"N_COORD97"},{"name":"ADDRESS","type":"esriFieldTypeString","alias":"ADDRESS","length":50},{"name":"OBJECTID","type":"esriFieldTypeOID","alias":"OBJECTID"}],"features":[{"attributes":{"ID":68001,"DIS_CODE":0,"TOWNNAME":"後壁區","LI":"頂安里","LIN":"7鄰","STREET":" ","SECT":" ","MAREA":"頂寮","LANE":" ","ALLEY":" ","HOUSE_NO":"７７號之２","E_COORD97":183847.98999999999,"N_COORD97":2581405.7000000002,"ADDRESS":"頂寮７７號之２","OBJECTID":68001},"geometry":{"x":183847.99000000022,"y":2581405.7000000011}},{"attributes":{"ID":68002,"DIS_CODE":0,"TOWNNAME":"後壁區","LI":"頂安里","LIN":"7鄰","STREET":" ","SECT":" ","MAREA":"頂寮","LANE":" ","ALLEY":" ","HOUSE_NO":"７７號","E_COORD97":183822.25,"N_COORD97":2581396.8599999999,"ADDRESS":"頂寮７７號","OBJECTID":68002},"geometry":{"x":183822.25,"y":2581396.8600000031}},{"attributes":{"ID":68003,"DIS_CODE":0,"TOWNNAME":"關廟區","LI":"布袋里","LIN":"6鄰","STREET":"長富街","SECT":" ","MAREA":" ","LANE":"５６巷","ALLEY":"２１弄","HOUSE_NO":"９號","E_COORD97":183439.14000000001,"N_COORD97":2534711.25,"ADDRESS":"長富街５６巷２１弄９號","OBJECTID":68003},"geometry":{"x":183439.13999999966,"y":2534711.25}},{"attributes":{"ID":68004,"DIS_CODE":0,"TOWNNAME":"北區","LI":"文元里","LIN":"6鄰","STREET":"海安路","SECT":"三段","MAREA":" ","LANE":"７８１巷","ALLEY":"１４０弄","HOUSE_NO":"１號","E_COORD97":167741.34,"N_COORD97":2546008.27,"ADDRESS":"海安路三段７８１巷１４０弄１號","OBJECTID":68004},"geometry":{"x":167741.34000000171,"y":2546008.2699999996}},{"attributes":{"ID":68005,"DIS_CODE":0,"TOWNNAME":"北區","LI":"文元里","LIN":"6鄰","STREET":"海安路","SECT":"三段","MAREA":" ","LANE":"７８１巷","ALLEY":"１４０弄","HOUSE_NO":"１０號","E_COORD97":167759.91,"N_COORD97":2546007.3900000001,"ADDRESS":"海安路三段７８１巷１４０弄１０號","OBJECTID":68005},"geometry":{"x":167759.91000000108,"y":2546007.3900000006}},{"attributes":{"ID":68006,"DIS_CODE":0,"TOWNNAME":"北區","LI":"文元里","LIN":"6鄰","STREET":"海安路","SECT":"三段","MAREA":" ","LANE":"７８１巷","ALLEY":"１４０弄","HOUSE_NO":"１１號","E_COORD97":167741.01999999999,"N_COORD97":2546022.71,"ADDRESS":"海安路三段７８１巷１４０弄１１號","OBJECTID":68006},"geometry":{"x":167741.01999999955,"y":2546022.7100000009}},{"attributes":{"ID":68007,"DIS_CODE":0,"TOWNNAME":"北區","LI":"文元里","LIN":"6鄰","STREET":"海安路","SECT":"三段","MAREA":" ","LANE":"７８１巷","ALLEY":"１４０弄","HOUSE_NO":"１５號","E_COORD97":167741.01999999999,"N_COORD97":2546027.9500000002,"ADDRESS":"海安路三段７８１巷１４０弄１５號","OBJECTID":68007},"geometry":{"x":167741.01999999955,"y":2546027.9500000011}},{"attributes":{"ID":68008,"DIS_CODE":0,"TOWNNAME":"北區","LI":"文元里","LIN":"6鄰","STREET":"海安路","SECT":"三段","MAREA":" ","LANE":"７８１巷","ALLEY":"１４０弄","HOUSE_NO":"１３號","E_COORD97":167741.01999999999,"N_COORD97":2546025.73,"ADDRESS":"海安路三段７８１巷１４０弄１３號","OBJECTID":68008},"geometry":{"x":167741.01999999955,"y":2546025.7300000004}},{"attributes":{"ID":68009,"DIS_CODE":0,"TOWNNAME":"北區","LI":"文元里","LIN":"6鄰","STREET":"海安路","SECT":"三段","MAREA":" ","LANE":"７８１巷","ALLEY":"１４０弄","HOUSE_NO":"１７號","E_COORD97":167740.85999999999,"N_COORD97":2546030.3300000001,"ADDRESS":"海安路三段７８１巷１４０弄１７號","OBJECTID":68009},"geometry":{"x":167740.86000000034,"y":2546030.3300000019}},{"attributes":{"ID":68010,"DIS_CODE":0,"TOWNNAME":"北區","LI":"文元里","LIN":"6鄰","STREET":"海安路","SECT":"三段","MAREA":" ","LANE":"７８１巷","ALLEY":"１４０弄","HOUSE_NO":"１９號","E_COORD97":167741.01999999999,"N_COORD97":2546032.3999999999,"ADDRESS":"海安路三段７８１巷１４０弄１９號","OBJECTID":68010},"geometry":{"x":167741.01999999955,"y":2546032.4000000041}},{"attributes":{"ID":68011,"DIS_CODE":0,"TOWNNAME":"北區","LI":"文元里","LIN":"6鄰","STREET":"海安路","SECT":"三段","MAREA":" ","LANE":"７８１巷","ALLEY":"１４０弄","HOUSE_NO":"３號","E_COORD97":167741.66,"N_COORD97":2546010.3300000001,"ADDRESS":"海安路三段７８１巷１４０弄３號","OBJECTID":68011},"geometry":{"x":167741.66000000108,"y":2546010.3300000019}},{"attributes":{"ID":68012,"DIS_CODE":0,"TOWNNAME":"仁德區","LI":"保安里","LIN":" ","STREET":"中正路","SECT":"一段","MAREA":" ","LANE":" ","ALLEY":" ","HOUSE_NO":"９３號","E_COORD97":171149.95999999999,"N_COORD97":2535565.0299999998,"ADDRESS":"中正路一段９３號","OBJECTID":68012},"geometry":{"x":171149.96000000089,"y":2535565.0300000012}},{"attributes":{"ID":68013,"DIS_CODE":0,"TOWNNAME":"北區","LI":"文元里","LIN":"6鄰","STREET":"海安路","SECT":"三段","MAREA":" ","LANE":"７８１巷","ALLEY":"１４０弄","HOUSE_NO":"５號","E_COORD97":167741.17999999999,"N_COORD97":2546012.71,"ADDRESS":"海安路三段７８１巷１４０弄５號","OBJECTID":68013},"geometry":{"x":167741.18000000063,"y":2546012.7100000009}},{"attributes":{"ID":68014,"DIS_CODE":0,"TOWNNAME":"北區","LI":"文元里","LIN":"6鄰","STREET":"海安路","SECT":"三段","MAREA":" ","LANE":"７８１巷","ALLEY":"１４０弄","HOUSE_NO":"７號","E_COORD97":167741.34,"N_COORD97":2546016.8399999999,"ADDRESS":"海安路三段７８１巷１４０弄７號","OBJECTID":68014},"geometry":{"x":167741.34000000171,"y":2546016.8400000017}},{"attributes":{"ID":68015,"DIS_CODE":0,"TOWNNAME":"北區","LI":"文元里","LIN":"6鄰","STREET":"海安路","SECT":"三段","MAREA":" ","LANE":"７８１巷","ALLEY":"１４０弄","HOUSE_NO":"９號","E_COORD97":167741.5,"N_COORD97":2546019.0600000001,"ADDRESS":"海安路三段７８１巷１４０弄９號","OBJECTID":68015},"geometry":{"x":167741.5,"y":2546019.0600000024}},{"attributes":{"ID":68016,"DIS_CODE":0,"TOWNNAME":"北區","LI":"文元里","LIN":"6鄰","STREET":"海安路","SECT":"三段","MAREA":" ","LANE":"７８１巷","ALLEY":"１４０弄","HOUSE_NO":"１２號","E_COORD97":167759.60000000001,"N_COORD97":2546012.4700000002,"ADDRESS":"海安路三段７８１巷１４０弄１２號","OBJECTID":68016},"geometry":{"x":167759.60000000149,"y":2546012.4700000025}},{"attributes":{"ID":68017,"DIS_CODE":0,"TOWNNAME":"北區","LI":"文元里","LIN":"6鄰","STREET":"海安路","SECT":"三段","MAREA":" ","LANE":"７８１巷","ALLEY":"１４０弄","HOUSE_NO":"１６號","E_COORD97":167759.60000000001,"N_COORD97":2546017.8700000001,"ADDRESS":"海安路三段７８１巷１４０弄１６號","OBJECTID":68017},"geometry":{"x":167759.60000000149,"y":2546017.8700000029}},{"attributes":{"ID":68018,"DIS_CODE":0,"TOWNNAME":"北區","LI":"文元里","LIN":"6鄰","STREET":"海安路","SECT":"三段","MAREA":" ","LANE":"７８１巷","ALLEY":"１４０弄","HOUSE_NO":"１８號","E_COORD97":167759.60000000001,"N_COORD97":2546022,"ADDRESS":"海安路三段７８１巷１４０弄１８號","OBJECTID":68018},"geometry":{"x":167759.60000000149,"y":2546022.0000000019}},{"attributes":{"ID":68019,"DIS_CODE":0,"TOWNNAME":"佳里區","LI":"子龍里","LIN":"7鄰","STREET":" ","SECT":" ","MAREA":"子良廟","LANE":" ","ALLEY":" ","HOUSE_NO":"７５號","E_COORD97":168842.45999999999,"N_COORD97":2563767,"ADDRESS":"子良廟７５號","OBJECTID":68019},"geometry":{"x":168842.46000000183,"y":2563767.0000000019}},{"attributes":{"ID":68020,"DIS_CODE":0,"TOWNNAME":"白河區","LI":"蓮潭里","LIN":"6鄰","STREET":" ","SECT":" ","MAREA":"山子腳","LANE":" ","ALLEY":" ","HOUSE_NO":"４１號","E_COORD97":189147.10999999999,"N_COORD97":2588439.7999999998,"ADDRESS":"山子腳４１號","OBJECTID":68020},"geometry":{"x":189147.11000000127,"y":2588439.8000000007}},{"attributes":{"ID":68021,"DIS_CODE":0,"TOWNNAME":"白河區","LI":"蓮潭里","LIN":"6鄰","STREET":" ","SECT":" ","MAREA":"山子腳","LANE":" ","ALLEY":" ","HOUSE_NO":"４３號","E_COORD97":189162.64000000001,"N_COORD97":2588474.6400000001,"ADDRESS":"山子腳４３號","OBJECTID":68021},"geometry":{"x":189162.63999999966,"y":2588474.6400000006}},{"attributes":{"ID":68022,"DIS_CODE":0,"TOWNNAME":"麻豆區","LI":"埤頭里","LIN":"6鄰","STREET":" ","SECT":" ","MAREA":"埤頭","LANE":" ","ALLEY":" ","HOUSE_NO":"３８號之１","E_COORD97":170773.59,"N_COORD97":2565876.7999999998,"ADDRESS":"埤頭３８號之１","OBJECTID":68022},"geometry":{"x":170773.58999999985,"y":2565876.8000000007}},{"attributes":{"ID":68023,"DIS_CODE":0,"TOWNNAME":"鹽水區","LI":"河南里","LIN":"6鄰","STREET":" ","SECT":" ","MAREA":"?頭港","LANE":" ","ALLEY":" ","HOUSE_NO":"５５號","E_COORD97":172917.32999999999,"N_COORD97":2572716.4199999999,"ADDRESS":"?頭港５５號","OBJECTID":68023},"geometry":{"x":172917.33000000101,"y":2572716.4199999999}},{"attributes":{"ID":68024,"DIS_CODE":0,"TOWNNAME":"鹽水區","LI":"南港里","LIN":"6鄰","STREET":" ","SECT":" ","MAREA":"?頭港","LANE":" ","ALLEY":" ","HOUSE_NO":"１６７號","E_COORD97":173015.72,"N_COORD97":2572613.75,"ADDRESS":"?頭港１６７號","OBJECTID":68024},"geometry":{"x":173015.7200000016,"y":2572613.7500000037}},{"attributes":{"ID":68025,"DIS_CODE":0,"TOWNNAME":"鹽水區","LI":"南港里","LIN":"6鄰","STREET":" ","SECT":" ","MAREA":"?頭港","LANE":" ","ALLEY":" ","HOUSE_NO":"１８１號","E_COORD97":172997.67999999999,"N_COORD97":2572657.8300000001,"ADDRESS":"?頭港１８１號","OBJECTID":68025},"geometry":{"x":172997.68000000063,"y":2572657.8300000019}},{"attributes":{"ID":68026,"DIS_CODE":0,"TOWNNAME":"鹽水區","LI":"南港里","LIN":"6鄰","STREET":" ","SECT":" ","MAREA":"?頭港","LANE":" ","ALLEY":" ","HOUSE_NO":"１８３號","E_COORD97":173013.26000000001,"N_COORD97":2572656.54,"ADDRESS":"?頭港１８３號","OBJECTID":68026},"geometry":{"x":173013.25999999978,"y":2572656.5399999991}},{"attributes":{"ID":68027,"DIS_CODE":0,"TOWNNAME":"鹽水區","LI":"南港里","LIN":"6鄰","STREET":" ","SECT":" ","MAREA":"?頭港","LANE":" ","ALLEY":" ","HOUSE_NO":"１８４號","E_COORD97":173028.20000000001,"N_COORD97":2572662.23,"ADDRESS":"?頭港１８４號","OBJECTID":68027},"geometry":{"x":173028.20000000205,"y":2572662.2300000023}},{"attributes":{"ID":68028,"DIS_CODE":0,"TOWNNAME":"鹽水區","LI":"南港里","LIN":"6鄰","STREET":" ","SECT":" ","MAREA":"?頭港","LANE":" ","ALLEY":" ","HOUSE_NO":"１８５號","E_COORD97":173022.01000000001,"N_COORD97":2572682.3100000001,"ADDRESS":"?頭港１８５號","OBJECTID":68028},"geometry":{"x":173022.00999999978,"y":2572682.3100000024}},{"attributes":{"ID":68029,"DIS_CODE":0,"TOWNNAME":"鹽水區","LI":"南港里","LIN":"6鄰","STREET":" ","SECT":" ","MAREA":"?頭港","LANE":" ","ALLEY":" ","HOUSE_NO":"１８６號","E_COORD97":173007.72,"N_COORD97":2572673.1299999999,"ADDRESS":"?頭港１８６號","OBJECTID":68029},"geometry":{"x":173007.72000000067,"y":2572673.129999999}},{"attributes":{"ID":68030,"DIS_CODE":0,"TOWNNAME":"鹽水區","LI":"河南里","LIN":"6鄰","STREET":" ","SECT":" ","MAREA":"?頭港","LANE":" ","ALLEY":" ","HOUSE_NO":"４９號","E_COORD97":172972.75,"N_COORD97":2572723.6299999999,"ADDRESS":"?頭港４９號","OBJECTID":68030},"geometry":{"x":172972.75,"y":2572723.629999999}},{"attributes":{"ID":68031,"DIS_CODE":0,"TOWNNAME":"鹽水區","LI":"河南里","LIN":"6鄰","STREET":" ","SECT":" ","MAREA":"?頭港","LANE":" ","ALLEY":" ","HOUSE_NO":"５０號之１","E_COORD97":172951.63,"N_COORD97":2572735.4900000002,"ADDRESS":"?頭港５０號之１","OBJECTID":68031},"geometry":{"x":172951.62999999989,"y":2572735.4900000021}},{"attributes":{"ID":68032,"DIS_CODE":0,"TOWNNAME":"北區","LI":"文元里","LIN":"6鄰","STREET":"海安路","SECT":"三段","MAREA":" ","LANE":"７８１巷","ALLEY":"１４０弄","HOUSE_NO":"２０號","E_COORD97":167759.60000000001,"N_COORD97":2546026.1299999999,"ADDRESS":"海安路三段７８１巷１４０弄２０號","OBJECTID":68032},"geometry":{"x":167759.60000000149,"y":2546026.1300000027}},{"attributes":{"ID":68033,"DIS_CODE":0,"TOWNNAME":"北區","LI":"文元里","LIN":"6鄰","STREET":"海安路","SECT":"三段","MAREA":" ","LANE":"７８１巷","ALLEY":"１４０弄","HOUSE_NO":"２２號","E_COORD97":167760.07000000001,"N_COORD97":2546030.0899999999,"ADDRESS":"海安路三段７８１巷１４０弄２２號","OBJECTID":68033},"geometry":{"x":167760.0700000003,"y":2546030.0899999999}},{"attributes":{"ID":68034,"DIS_CODE":0,"TOWNNAME":"北區","LI":"文元里","LIN":"6鄰","STREET":"海安路","SECT":"三段","MAREA":" ","LANE":"７８１巷","ALLEY":"１４０弄","HOUSE_NO":"２６號","E_COORD97":167759.91,"N_COORD97":2546033.5899999999,"ADDRESS":"海安路三段７８１巷１４０弄２６號","OBJECTID":68034},"geometry":{"x":167759.91000000108,"y":2546033.5899999999}},{"attributes":{"ID":68035,"DIS_CODE":0,"TOWNNAME":"北區","LI":"文元里","LIN":"6鄰","STREET":"海安路","SECT":"三段","MAREA":" ","LANE":"７８１巷","ALLEY":"１４０弄","HOUSE_NO":"２號","E_COORD97":167760.39000000001,"N_COORD97":2545992.9500000002,"ADDRESS":"海安路三段７８１巷１４０弄２號","OBJECTID":68035},"geometry":{"x":167760.38999999966,"y":2545992.9499999993}},{"attributes":{"ID":68036,"DIS_CODE":0,"TOWNNAME":"北區","LI":"文元里","LIN":"6鄰","STREET":"海安路","SECT":"三段","MAREA":" ","LANE":"７８１巷","ALLEY":"１４０弄","HOUSE_NO":"６號","E_COORD97":167760.23000000001,"N_COORD97":2545997.3900000001,"ADDRESS":"海安路三段７８１巷１４０弄６號","OBJECTID":68036},"geometry":{"x":167760.23000000138,"y":2545997.3900000006}},{"attributes":{"ID":68037,"DIS_CODE":0,"TOWNNAME":"鹽水區","LI":"河南里","LIN":"6鄰","STREET":" ","SECT":" ","MAREA":"?頭港","LANE":" ","ALLEY":" ","HOUSE_NO":"５０號","E_COORD97":172953.72,"N_COORD97":2572720.48,"ADDRESS":"?頭港５０號","OBJECTID":68037},"geometry":{"x":172953.72000000067,"y":2572720.4800000004}},{"attributes":{"ID":68038,"DIS_CODE":0,"TOWNNAME":"鹽水區","LI":"河南里","LIN":"6鄰","STREET":" ","SECT":" ","MAREA":"?頭港","LANE":" ","ALLEY":" ","HOUSE_NO":"５１號之１","E_COORD97":172940.01000000001,"N_COORD97":2572733.9100000001,"ADDRESS":"?頭港５１號之１","OBJECTID":68038},"geometry":{"x":172940.01000000071,"y":2572733.9100000001}},{"attributes":{"ID":68039,"DIS_CODE":0,"TOWNNAME":"鹽水區","LI":"河南里","LIN":"6鄰","STREET":" ","SECT":" ","MAREA":"?頭港","LANE":" ","ALLEY":" ","HOUSE_NO":"５１號","E_COORD97":172942.42000000001,"N_COORD97":2572718.3500000001,"ADDRESS":"?頭港５１號","OBJECTID":68039},"geometry":{"x":172942.42000000086,"y":2572718.3500000015}},{"attributes":{"ID":68040,"DIS_CODE":0,"TOWNNAME":"鹽水區","LI":"河南里","LIN":"6鄰","STREET":" ","SECT":" ","MAREA":"?頭港","LANE":" ","ALLEY":" ","HOUSE_NO":"５２號","E_COORD97":172928.59,"N_COORD97":2572729.5600000001,"ADDRESS":"?頭港５２號","OBJECTID":68040},"geometry":{"x":172928.59000000171,"y":2572729.5600000005}},{"attributes":{"ID":68041,"DIS_CODE":0,"TOWNNAME":"鹽水區","LI":"河南里","LIN":"6鄰","STREET":" ","SECT":" ","MAREA":"?頭港","LANE":" ","ALLEY":" ","HOUSE_NO":"５３號","E_COORD97":172947.94,"N_COORD97":2572687.71,"ADDRESS":"?頭港５３號","OBJECTID":68041},"geometry":{"x":172947.94000000134,"y":2572687.7100000028}},{"attributes":{"ID":68042,"DIS_CODE":0,"TOWNNAME":"鹽水區","LI":"河南里","LIN":"6鄰","STREET":" ","SECT":" ","MAREA":"?頭港","LANE":" ","ALLEY":" ","HOUSE_NO":"５４號","E_COORD97":172926.35000000001,"N_COORD97":2572699.2799999998,"ADDRESS":"?頭港５４號","OBJECTID":68042},"geometry":{"x":172926.34999999963,"y":2572699.2799999993}},{"attributes":{"ID":68043,"DIS_CODE":0,"TOWNNAME":"鹽水區","LI":"竹埔里","LIN":"6鄰","STREET":" ","SECT":" ","MAREA":"竹子腳","LANE":" ","ALLEY":" ","HOUSE_NO":"１０３號","E_COORD97":172826.67000000001,"N_COORD97":2574265.7599999998,"ADDRESS":"竹子腳１０３號","OBJECTID":68043},"geometry":{"x":172826.67000000086,"y":2574265.7600000016}},{"attributes":{"ID":68044,"DIS_CODE":0,"TOWNNAME":"鹽水區","LI":"竹埔里","LIN":"6鄰","STREET":" ","SECT":" ","MAREA":"竹子腳","LANE":" ","ALLEY":" ","HOUSE_NO":"１０５之１號","E_COORD97":172756.10000000001,"N_COORD97":2574233.52,"ADDRESS":"竹子腳１０５之１號","OBJECTID":68044},"geometry":{"x":172756.10000000056,"y":2574233.5200000014}},{"attributes":{"ID":68045,"DIS_CODE":0,"TOWNNAME":"鹽水區","LI":"竹埔里","LIN":"6鄰","STREET":" ","SECT":" ","MAREA":"竹子腳","LANE":" ","ALLEY":" ","HOUSE_NO":"１０５之２號","E_COORD97":172792.20000000001,"N_COORD97":2574241.0699999998,"ADDRESS":"竹子腳１０５之２號","OBJECTID":68045},"geometry":{"x":172792.20000000019,"y":2574241.0700000003}},{"attributes":{"ID":68046,"DIS_CODE":0,"TOWNNAME":"新化區","LI":"崙頂里","LIN":"7鄰","STREET":" ","SECT":" ","MAREA":"崙子頂","LANE":" ","ALLEY":" ","HOUSE_NO":"４０４號","E_COORD97":176913.92999999999,"N_COORD97":2547028.25,"ADDRESS":"崙子頂４０４號","OBJECTID":68046},"geometry":{"x":176913.93000000063,"y":2547028.25}},{"attributes":{"ID":68047,"DIS_CODE":0,"TOWNNAME":"新化區","LI":"崙頂里","LIN":"7鄰","STREET":" ","SECT":" ","MAREA":"崙子頂","LANE":" ","ALLEY":" ","HOUSE_NO":"２８３號","E_COORD97":176773.03,"N_COORD97":2547119.25,"ADDRESS":"崙子頂２８３號","OBJECTID":68047},"geometry":{"x":176773.03000000119,"y":2547119.2500000019}},{"attributes":{"ID":68048,"DIS_CODE":0,"TOWNNAME":"北區","LI":"文元里","LIN":"6鄰","STREET":"海安路","SECT":"三段","MAREA":" ","LANE":"７８１巷","ALLEY":"１４０弄","HOUSE_NO":"８號","E_COORD97":167759.91,"N_COORD97":2546002.4700000002,"ADDRESS":"海安路三段７８１巷１４０弄８號","OBJECTID":68048},"geometry":{"x":167759.91000000108,"y":2546002.4700000025}},{"attributes":{"ID":68049,"DIS_CODE":0,"TOWNNAME":"新化區","LI":"全興里","LIN":"7鄰","STREET":" ","SECT":" ","MAREA":"竹子\u25A0","LANE":" ","ALLEY":" ","HOUSE_NO":"９５號之１","E_COORD97":177540.01000000001,"N_COORD97":2547821.2599999998,"ADDRESS":"竹子\u25A0９５號之１","OBJECTID":68049},"geometry":{"x":177540.01000000164,"y":2547821.2599999998}},{"attributes":{"ID":68050,"DIS_CODE":0,"TOWNNAME":"新化區","LI":"唪口里","LIN":"7鄰","STREET":" ","SECT":" ","MAREA":"唪口","LANE":" ","ALLEY":" ","HOUSE_NO":"３２號之１","E_COORD97":178031.53,"N_COORD97":2548933.2599999998,"ADDRESS":"唪口３２號之１","OBJECTID":68050},"geometry":{"x":178031.53000000026,"y":2548933.2599999998}},{"attributes":{"ID":68051,"DIS_CODE":0,"TOWNNAME":"安南區","LI":"長安里","LIN":"14鄰","STREET":"長溪路","SECT":"三段","MAREA":" ","LANE":"３８０巷","ALLEY":"１２５弄","HOUSE_NO":"１１３號","E_COORD97":167894.73999999999,"N_COORD97":2552273.54,"ADDRESS":"長溪路三段３８０巷１２５弄１１３號","OBJECTID":68051},"geometry":{"x":167894.74000000022,"y":2552273.5399999991}},{"attributes":{"ID":68052,"DIS_CODE":0,"TOWNNAME":"安南區","LI":"長安里","LIN":"14鄰","STREET":"長溪路","SECT":"三段","MAREA":" ","LANE":"３８０巷","ALLEY":"１２５弄","HOUSE_NO":"１３３號","E_COORD97":167907.76000000001,"N_COORD97":2552286.9300000002,"ADDRESS":"長溪路三段３８０巷１２５弄１３３號","OBJECTID":68052},"geometry":{"x":167907.75999999885,"y":2552286.9300000034}},{"attributes":{"ID":68053,"DIS_CODE":0,"TOWNNAME":"安南區","LI":"長安里","LIN":"14鄰","STREET":"長溪路","SECT":"三段","MAREA":" ","LANE":"３８０巷","ALLEY":"１２５弄","HOUSE_NO":"１０１號","E_COORD97":167882.73000000001,"N_COORD97":2552247.3199999998,"ADDRESS":"長溪路三段３８０巷１２５弄１０１號","OBJECTID":68053},"geometry":{"x":167882.73000000045,"y":2552247.320000004}},{"attributes":{"ID":68054,"DIS_CODE":0,"TOWNNAME":"新化區","LI":"礁坑里","LIN":"7鄰","STREET":" ","SECT":" ","MAREA":"三十六崙","LANE":" ","ALLEY":" ","HOUSE_NO":"３１號","E_COORD97":185052.01999999999,"N_COORD97":2549197.25,"ADDRESS":"三十六崙３１號","OBJECTID":68054},"geometry":{"x":185052.01999999955,"y":2549197.2500000019}},{"attributes":{"ID":68055,"DIS_CODE":0,"TOWNNAME":"安南區","LI":"長安里","LIN":"14鄰","STREET":"長溪路","SECT":"三段","MAREA":" ","LANE":"３８０巷","ALLEY":"１２５弄","HOUSE_NO":"１０３號","E_COORD97":167885.88,"N_COORD97":2552250.3599999999,"ADDRESS":"長溪路三段３８０巷１２５弄１０３號","OBJECTID":68055},"geometry":{"x":167885.88000000082,"y":2552250.3600000013}},{"attributes":{"ID":68056,"DIS_CODE":0,"TOWNNAME":"安南區","LI":"長安里","LIN":"14鄰","STREET":"長溪路","SECT":"三段","MAREA":" ","LANE":"３８０巷","ALLEY":"１２５弄","HOUSE_NO":"１０５號","E_COORD97":167888.32999999999,"N_COORD97":2552253.0099999998,"ADDRESS":"長溪路三段３８０巷１２５弄１０５號","OBJECTID":68056},"geometry":{"x":167888.33000000007,"y":2552253.0100000016}},{"attributes":{"ID":68057,"DIS_CODE":0,"TOWNNAME":"新化區","LI":"全興里","LIN":"7鄰","STREET":" ","SECT":" ","MAREA":"竹子\u25A0","LANE":" ","ALLEY":" ","HOUSE_NO":"８１號","E_COORD97":177585.07999999999,"N_COORD97":2547786.25,"ADDRESS":"竹子\u25A0８１號","OBJECTID":68057},"geometry":{"x":177585.08000000007,"y":2547786.2500000019}},{"attributes":{"ID":68058,"DIS_CODE":0,"TOWNNAME":"安南區","LI":"長安里","LIN":"14鄰","STREET":"長溪路","SECT":"三段","MAREA":" ","LANE":"３８０巷","ALLEY":"１２５弄","HOUSE_NO":"１０７號","E_COORD97":167872.45000000001,"N_COORD97":2552257.9100000001,"ADDRESS":"長溪路三段３８０巷１２５弄１０７號","OBJECTID":68058},"geometry":{"x":167872.45000000019,"y":2552257.910000002}},{"attributes":{"ID":68059,"DIS_CODE":0,"TOWNNAME":"新化區","LI":"崙頂里","LIN":"7鄰","STREET":" ","SECT":" ","MAREA":"崙子頂","LANE":" ","ALLEY":" ","HOUSE_NO":"２７２號之１","E_COORD97":176757.08384400001,"N_COORD97":2547078.83666,"ADDRESS":"崙子頂２７２號之１","OBJECTID":68059},"geometry":{"x":176757.08384400047,"y":2547078.8366600014}},{"attributes":{"ID":68060,"DIS_CODE":0,"TOWNNAME":"新化區","LI":"全興里","LIN":"7鄰","STREET":" ","SECT":" ","MAREA":"竹子\u25A0","LANE":" ","ALLEY":" ","HOUSE_NO":"９８號之２２","E_COORD97":177347.48999999999,"N_COORD97":2548130.2599999998,"ADDRESS":"竹子\u25A0９８號之２２","OBJECTID":68060},"geometry":{"x":177347.49000000115,"y":2548130.2599999998}},{"attributes":{"ID":68061,"DIS_CODE":0,"TOWNNAME":"安南區","LI":"長安里","LIN":"14鄰","STREET":"長溪路","SECT":"三段","MAREA":" ","LANE":"３８０巷","ALLEY":"１２５弄","HOUSE_NO":"１０９號","E_COORD97":167869.88,"N_COORD97":2552261.3500000001,"ADDRESS":"長溪路三段３８０巷１２５弄１０９號","OBJECTID":68061},"geometry":{"x":167869.88000000175,"y":2552261.3500000015}},{"attributes":{"ID":68062,"DIS_CODE":0,"TOWNNAME":"新化區","LI":"唪口里","LIN":"7鄰","STREET":" ","SECT":" ","MAREA":"唪口","LANE":" ","ALLEY":" ","HOUSE_NO":"１４號之１","E_COORD97":177998.42999999999,"N_COORD97":2548864.2599999998,"ADDRESS":"唪口１４號之１","OBJECTID":68062},"geometry":{"x":177998.43000000063,"y":2548864.2600000016}},{"attributes":{"ID":68063,"DIS_CODE":0,"TOWNNAME":"關廟區","LI":"布袋里","LIN":"6鄰","STREET":"南雄南路","SECT":" ","MAREA":" ","LANE":"３１８巷","ALLEY":"８弄","HOUSE_NO":"１５號","E_COORD97":183394.54000000001,"N_COORD97":2535042.25,"ADDRESS":"南雄南路３１８巷８弄１５號","OBJECTID":68063},"geometry":{"x":183394.54000000004,"y":2535042.2500000019}},{"attributes":{"ID":68064,"DIS_CODE":0,"TOWNNAME":"鹽水區","LI":"竹埔里","LIN":"6鄰","STREET":" ","SECT":" ","MAREA":"竹子腳","LANE":" ","ALLEY":" ","HOUSE_NO":"１０５號","E_COORD97":172774.73999999999,"N_COORD97":2574239.3399999999,"ADDRESS":"竹子腳１０５號","OBJECTID":68064},"geometry":{"x":172774.74000000022,"y":2574239.3399999999}},{"attributes":{"ID":68065,"DIS_CODE":0,"TOWNNAME":"關廟區","LI":"北勢里","LIN":"6鄰","STREET":"中正路","SECT":" ","MAREA":" ","LANE":"７０６巷","ALLEY":"７弄","HOUSE_NO":"２號","E_COORD97":181689.26000000001,"N_COORD97":2540379.25,"ADDRESS":"中正路７０６巷７弄２號","OBJECTID":68065},"geometry":{"x":181689.25999999978,"y":2540379.2500000019}},{"attributes":{"ID":68066,"DIS_CODE":0,"TOWNNAME":"新化區","LI":"護國里","LIN":"7鄰","STREET":"民生路","SECT":" ","MAREA":" ","LANE":" ","ALLEY":" ","HOUSE_NO":"８１號","E_COORD97":179368.16,"N_COORD97":2548527.2400000002,"ADDRESS":"民生路８１號","OBJECTID":68066},"geometry":{"x":179368.16000000015,"y":2548527.2400000002}},{"attributes":{"ID":68067,"DIS_CODE":0,"TOWNNAME":"鹽水區","LI":"竹埔里","LIN":"6鄰","STREET":" ","SECT":" ","MAREA":"竹子腳","LANE":" ","ALLEY":" ","HOUSE_NO":"１０６號之１０","E_COORD97":172762.94,"N_COORD97":2574505.8799999999,"ADDRESS":"竹子腳１０６號之１０","OBJECTID":68067},"geometry":{"x":172762.94000000134,"y":2574505.879999999}},{"attributes":{"ID":68068,"DIS_CODE":0,"TOWNNAME":"麻豆區","LI":"南勢里","LIN":"6鄰","STREET":" ","SECT":" ","MAREA":"\u25A0帝\u25A0","LANE":" ","ALLEY":" ","HOUSE_NO":"３９號之１２","E_COORD97":173997.39999999999,"N_COORD97":2565231.4300000002,"ADDRESS":"\u25A0帝\u25A0３９號之１２","OBJECTID":68068},"geometry":{"x":173997.4000000013,"y":2565231.4300000034}},{"attributes":{"ID":68069,"DIS_CODE":0,"TOWNNAME":"新化區","LI":"全興里","LIN":"7鄰","STREET":" ","SECT":" ","MAREA":"竹子\u25A0","LANE":" ","ALLEY":" ","HOUSE_NO":"９８號之６","E_COORD97":177472.92999999999,"N_COORD97":2547834.2599999998,"ADDRESS":"竹子\u25A0９８號之６","OBJECTID":68069},"geometry":{"x":177472.93000000063,"y":2547834.2600000016}},{"attributes":{"ID":68070,"DIS_CODE":0,"TOWNNAME":"新化區","LI":"礁坑里","LIN":"7鄰","STREET":" ","SECT":" ","MAREA":"三十六崙","LANE":" ","ALLEY":" ","HOUSE_NO":"４５號","E_COORD97":185085.01999999999,"N_COORD97":2549097.25,"ADDRESS":"三十六崙４５號","OBJECTID":68070},"geometry":{"x":185085.02000000142,"y":2549097.25}},{"attributes":{"ID":68071,"DIS_CODE":0,"TOWNNAME":"新化區","LI":"礁坑里","LIN":"7鄰","STREET":" ","SECT":" ","MAREA":"三十六崙","LANE":" ","ALLEY":" ","HOUSE_NO":"４３號","E_COORD97":185057.68398199999,"N_COORD97":2549076.14329,"ADDRESS":"三十六崙４３號","OBJECTID":68071},"geometry":{"x":185057.68398199975,"y":2549076.1432880014}},{"attributes":{"ID":68072,"DIS_CODE":0,"TOWNNAME":"關廟區","LI":"東勢里","LIN":"6鄰","STREET":"旺萊路","SECT":" ","MAREA":" ","LANE":"２１５巷","ALLEY":"３弄","HOUSE_NO":"６號","E_COORD97":181925.04000000001,"N_COORD97":2539448.25,"ADDRESS":"旺萊路２１５巷３弄６號","OBJECTID":68072},"geometry":{"x":181925.04000000004,"y":2539448.25}},{"attributes":{"ID":68073,"DIS_CODE":0,"TOWNNAME":"關廟區","LI":"北勢里","LIN":"6鄰","STREET":"中正路","SECT":" ","MAREA":" ","LANE":"７０６巷","ALLEY":"７弄","HOUSE_NO":"１６號","E_COORD97":181656.31,"N_COORD97":2540374.25,"ADDRESS":"中正路７０６巷７弄１６號","OBJECTID":68073},"geometry":{"x":181656.30999999959,"y":2540374.2499999981}},{"attributes":{"ID":68074,"DIS_CODE":0,"TOWNNAME":"關廟區","LI":"東勢里","LIN":"6鄰","STREET":"旺萊路","SECT":" ","MAREA":" ","LANE":"２１５巷","ALLEY":"１５弄","HOUSE_NO":"６號","E_COORD97":181893.69,"N_COORD97":2539508.25,"ADDRESS":"旺萊路２１５巷１５弄６號","OBJECTID":68074},"geometry":{"x":181893.69000000041,"y":2539508.2500000019}},{"attributes":{"ID":68075,"DIS_CODE":0,"TOWNNAME":"關廟區","LI":"東勢里","LIN":"6鄰","STREET":"旺萊路","SECT":" ","MAREA":" ","LANE":"２１５巷","ALLEY":"９弄","HOUSE_NO":"２號","E_COORD97":181904.34,"N_COORD97":2539486.25,"ADDRESS":"旺萊路２１５巷９弄２號","OBJECTID":68075},"geometry":{"x":181904.33999999985,"y":2539486.2500000037}},{"attributes":{"ID":68076,"DIS_CODE":0,"TOWNNAME":"關廟區","LI":"關廟里","LIN":"6鄰","STREET":"民生街","SECT":" ","MAREA":" ","LANE":"１６７巷","ALLEY":"２６弄","HOUSE_NO":"７號","E_COORD97":180789.23999999999,"N_COORD97":2539961.29,"ADDRESS":"民生街１６７巷２６弄７號","OBJECTID":68076},"geometry":{"x":180789.24000000115,"y":2539961.290000001}},{"attributes":{"ID":68077,"DIS_CODE":0,"TOWNNAME":"麻豆區","LI":"南勢里","LIN":"6鄰","STREET":" ","SECT":" ","MAREA":"\u25A0帝\u25A0","LANE":" ","ALLEY":" ","HOUSE_NO":"３９號之１６","E_COORD97":174040.42000000001,"N_COORD97":2565174.3999999999,"ADDRESS":"\u25A0帝\u25A0３９號之１６","OBJECTID":68077},"geometry":{"x":174040.42000000086,"y":2565174.4000000041}},{"attributes":{"ID":68078,"DIS_CODE":0,"TOWNNAME":"鹽水區","LI":"竹埔里","LIN":"6鄰","STREET":" ","SECT":" ","MAREA":"竹子腳","LANE":" ","ALLEY":" ","HOUSE_NO":"１０６之４號","E_COORD97":172711.39000000001,"N_COORD97":2574278.6899999999,"ADDRESS":"竹子腳１０６之４號","OBJECTID":68078},"geometry":{"x":172711.3900000006,"y":2574278.6900000013}},{"attributes":{"ID":68079,"DIS_CODE":0,"TOWNNAME":"鹽水區","LI":"竹埔里","LIN":"6鄰","STREET":" ","SECT":" ","MAREA":"竹子腳","LANE":" ","ALLEY":" ","HOUSE_NO":"１０６號之５","E_COORD97":172705.57999999999,"N_COORD97":2574349.5899999999,"ADDRESS":"竹子腳１０６號之５","OBJECTID":68079},"geometry":{"x":172705.58000000101,"y":2574349.5899999999}},{"attributes":{"ID":68080,"DIS_CODE":0,"TOWNNAME":"鹽水區","LI":"竹埔里","LIN":"6鄰","STREET":" ","SECT":" ","MAREA":"竹子腳","LANE":" ","ALLEY":" ","HOUSE_NO":"１０６號之６","E_COORD97":172737.17999999999,"N_COORD97":2574345.6899999999,"ADDRESS":"竹子腳１０６號之６","OBJECTID":68080},"geometry":{"x":172737.1799999997,"y":2574345.6899999976}},{"attributes":{"ID":68081,"DIS_CODE":0,"TOWNNAME":"七股區","LI":"?榔里","LIN":"6鄰","STREET":" ","SECT":" ","MAREA":"?榔","LANE":" ","ALLEY":" ","HOUSE_NO":"５１號之２","E_COORD97":162346.5,"N_COORD97":2555137.1299999999,"ADDRESS":"?榔５１號之２","OBJECTID":68081},"geometry":{"x":162346.50000000093,"y":2555137.1300000008}},{"attributes":{"ID":68082,"DIS_CODE":0,"TOWNNAME":"鹽水區","LI":"竹埔里","LIN":"6鄰","STREET":" ","SECT":" ","MAREA":"竹子腳","LANE":" ","ALLEY":" ","HOUSE_NO":"１０６號之７","E_COORD97":172678.37,"N_COORD97":2574518.71,"ADDRESS":"竹子腳１０６號之７","OBJECTID":68082},"geometry":{"x":172678.37000000104,"y":2574518.7100000009}},{"attributes":{"ID":68083,"DIS_CODE":0,"TOWNNAME":"鹽水區","LI":"竹埔里","LIN":"6鄰","STREET":" ","SECT":" ","MAREA":"竹子腳","LANE":" ","ALLEY":" ","HOUSE_NO":"１０６號之８","E_COORD97":172715.07999999999,"N_COORD97":2574511.52,"ADDRESS":"竹子腳１０６號之８","OBJECTID":68083},"geometry":{"x":172715.08000000007,"y":2574511.5200000014}},{"attributes":{"ID":68084,"DIS_CODE":0,"TOWNNAME":"鹽水區","LI":"竹埔里","LIN":"6鄰","STREET":" ","SECT":" ","MAREA":"竹子腳","LANE":" ","ALLEY":" ","HOUSE_NO":"１０６號之９","E_COORD97":172677.35000000001,"N_COORD97":2574319.46,"ADDRESS":"竹子腳１０６號之９","OBJECTID":68084},"geometry":{"x":172677.35000000149,"y":2574319.4600000028}},{"attributes":{"ID":68085,"DIS_CODE":0,"TOWNNAME":"鹽水區","LI":"竹埔里","LIN":"6鄰","STREET":" ","SECT":" ","MAREA":"竹子腳","LANE":" ","ALLEY":" ","HOUSE_NO":"１０６號","E_COORD97":172757.88,"N_COORD97":2574283.0099999998,"ADDRESS":"竹子腳１０６號","OBJECTID":68085},"geometry":{"x":172757.88000000082,"y":2574283.0100000035}},{"attributes":{"ID":68086,"DIS_CODE":0,"TOWNNAME":"關廟區","LI":"東勢里","LIN":"6鄰","STREET":"旺萊路","SECT":" ","MAREA":" ","LANE":"２１５巷","ALLEY":"３弄","HOUSE_NO":"３０號","E_COORD97":181886.79000000001,"N_COORD97":2539453.25,"ADDRESS":"旺萊路２１５巷３弄３０號","OBJECTID":68086},"geometry":{"x":181886.79000000097,"y":2539453.2500000019}},{"attributes":{"ID":68087,"DIS_CODE":0,"TOWNNAME":"關廟區","LI":"東勢里","LIN":"6鄰","STREET":"旺萊路","SECT":" ","MAREA":" ","LANE":"２１５巷","ALLEY":"３弄","HOUSE_NO":"１２號","E_COORD97":181913.59,"N_COORD97":2539450.25,"ADDRESS":"旺萊路２１５巷３弄１２號","OBJECTID":68087},"geometry":{"x":181913.59000000078,"y":2539450.2500000019}},{"attributes":{"ID":68088,"DIS_CODE":0,"TOWNNAME":"關廟區","LI":"東勢里","LIN":"6鄰","STREET":"旺萊路","SECT":" ","MAREA":" ","LANE":"２１５巷","ALLEY":"３弄","HOUSE_NO":"２２號","E_COORD97":181897.89000000001,"N_COORD97":2539449.25,"ADDRESS":"旺萊路２１５巷３弄２２號","OBJECTID":68088},"geometry":{"x":181897.8900000006,"y":2539449.2500000019}},{"attributes":{"ID":68089,"DIS_CODE":0,"TOWNNAME":"關廟區","LI":"東勢里","LIN":"6鄰","STREET":"旺萊路","SECT":" ","MAREA":" ","LANE":"２１５巷","ALLEY":"３弄","HOUSE_NO":"３２號","E_COORD97":181882.48999999999,"N_COORD97":2539453.25,"ADDRESS":"旺萊路２１５巷３弄３２號","OBJECTID":68089},"geometry":{"x":181882.49000000115,"y":2539453.2500000019}},{"attributes":{"ID":68090,"DIS_CODE":0,"TOWNNAME":"關廟區","LI":"東勢里","LIN":"6鄰","STREET":"旺萊路","SECT":" ","MAREA":" ","LANE":"２１５巷","ALLEY":"３弄","HOUSE_NO":"２６號","E_COORD97":181894.39000000001,"N_COORD97":2539450.25,"ADDRESS":"旺萊路２１５巷３弄２６號","OBJECTID":68090},"geometry":{"x":181894.3900000006,"y":2539450.2500000019}},{"attributes":{"ID":68091,"DIS_CODE":0,"TOWNNAME":"關廟區","LI":"北勢里","LIN":"6鄰","STREET":"中正路","SECT":" ","MAREA":" ","LANE":"７３８巷","ALLEY":"５０弄","HOUSE_NO":"３號","E_COORD97":181654.81,"N_COORD97":2540389.25,"ADDRESS":"中正路７３８巷５０弄３號","OBJECTID":68091},"geometry":{"x":181654.80999999959,"y":2540389.2500000019}},{"attributes":{"ID":68092,"DIS_CODE":0,"TOWNNAME":"關廟區","LI":"東勢里","LIN":"6鄰","STREET":"旺萊路","SECT":" ","MAREA":" ","LANE":"２１５巷","ALLEY":"３弄","HOUSE_NO":"２０號","E_COORD97":181901.29000000001,"N_COORD97":2539450.25,"ADDRESS":"旺萊路２１５巷３弄２０號","OBJECTID":68092},"geometry":{"x":181901.29000000004,"y":2539450.2500000019}},{"attributes":{"ID":68093,"DIS_CODE":0,"TOWNNAME":"安南區","LI":"淵東里","LIN":"7鄰","STREET":"本原街","SECT":"三段","MAREA":" ","LANE":" ","ALLEY":" ","HOUSE_NO":"２１７號","E_COORD97":165422.09,"N_COORD97":2550308.3599999999,"ADDRESS":"本原街三段２１７號","OBJECTID":68093},"geometry":{"x":165422.08999999985,"y":2550308.3600000013}},{"attributes":{"ID":68094,"DIS_CODE":0,"TOWNNAME":"安南區","LI":"淵東里","LIN":"7鄰","STREET":"本原街","SECT":"三段","MAREA":" ","LANE":" ","ALLEY":" ","HOUSE_NO":"２１９號","E_COORD97":165417.89999999999,"N_COORD97":2550306.8300000001,"ADDRESS":"本原街三段２１９號","OBJECTID":68094},"geometry":{"x":165417.9000000013,"y":2550306.8300000001}},{"attributes":{"ID":68095,"DIS_CODE":0,"TOWNNAME":"安南區","LI":"淵東里","LIN":"7鄰","STREET":"本原街","SECT":"三段","MAREA":" ","LANE":" ","ALLEY":" ","HOUSE_NO":"２２１號","E_COORD97":165413.98000000001,"N_COORD97":2550305.1200000001,"ADDRESS":"本原街三段２２１號","OBJECTID":68095},"geometry":{"x":165413.98000000138,"y":2550305.1200000029}},{"attributes":{"ID":68096,"DIS_CODE":0,"TOWNNAME":"安南區","LI":"淵東里","LIN":"7鄰","STREET":"本原街","SECT":"三段","MAREA":" ","LANE":" ","ALLEY":" ","HOUSE_NO":"２２３號","E_COORD97":165409.62,"N_COORD97":2550303.0800000001,"ADDRESS":"本原街三段２２３號","OBJECTID":68096},"geometry":{"x":165409.62000000011,"y":2550303.0800000019}},{"attributes":{"ID":68097,"DIS_CODE":0,"TOWNNAME":"安南區","LI":"淵東里","LIN":"7鄰","STREET":"本原街","SECT":"三段","MAREA":" ","LANE":" ","ALLEY":" ","HOUSE_NO":"２２５號","E_COORD97":165404.85000000001,"N_COORD97":2550301.0299999998,"ADDRESS":"本原街三段２２５號","OBJECTID":68097},"geometry":{"x":165404.84999999963,"y":2550301.0299999993}},{"attributes":{"ID":68098,"DIS_CODE":0,"TOWNNAME":"安南區","LI":"淵東里","LIN":"7鄰","STREET":"本原街","SECT":"三段","MAREA":" ","LANE":" ","ALLEY":" ","HOUSE_NO":"２２７號","E_COORD97":165400.39000000001,"N_COORD97":2550298.7000000002,"ADDRESS":"本原街三段２２７號","OBJECTID":68098},"geometry":{"x":165400.3900000006,"y":2550298.7000000011}},{"attributes":{"ID":68099,"DIS_CODE":0,"TOWNNAME":"安南區","LI":"淵東里","LIN":"7鄰","STREET":"本原街","SECT":"三段","MAREA":" ","LANE":" ","ALLEY":" ","HOUSE_NO":"２２９號","E_COORD97":165395.89999999999,"N_COORD97":2550296.2599999998,"ADDRESS":"本原街三段２２９號","OBJECTID":68099},"geometry":{"x":165395.9000000013,"y":2550296.2599999998}},{"attributes":{"ID":68100,"DIS_CODE":0,"TOWNNAME":"鹽水區","LI":"竹埔里","LIN":"6鄰","STREET":" ","SECT":" ","MAREA":"竹子腳","LANE":" ","ALLEY":" ","HOUSE_NO":"１０７號之１","E_COORD97":172766.76000000001,"N_COORD97":2574283.2999999998,"ADDRESS":"竹子腳１０７號之１","OBJECTID":68100},"geometry":{"x":172766.76000000071,"y":2574283.3000000026}},{"attributes":{"ID":68101,"DIS_CODE":0,"TOWNNAME":"鹽水區","LI":"竹埔里","LIN":"6鄰","STREET":" ","SECT":" ","MAREA":"竹子腳","LANE":" ","ALLEY":" ","HOUSE_NO":"１０７號","E_COORD97":172780.26999999999,"N_COORD97":2574276.3999999999,"ADDRESS":"竹子腳１０７號","OBJECTID":68101},"geometry":{"x":172780.27000000048,"y":2574276.4000000004}},{"attributes":{"ID":68102,"DIS_CODE":0,"TOWNNAME":"鹽水區","LI":"竹埔里","LIN":"6鄰","STREET":" ","SECT":" ","MAREA":"竹子腳","LANE":" ","ALLEY":" ","HOUSE_NO":"１０８號","E_COORD97":172815.04999999999,"N_COORD97":2574285.27,"ADDRESS":"竹子腳１０８號","OBJECTID":68102},"geometry":{"x":172815.04999999981,"y":2574285.2700000014}},{"attributes":{"ID":68103,"DIS_CODE":0,"TOWNNAME":"關廟區","LI":"東勢里","LIN":"6鄰","STREET":"旺萊路","SECT":" ","MAREA":" ","LANE":"２１５巷","ALLEY":"９弄","HOUSE_NO":"８號","E_COORD97":181888.94,"N_COORD97":2539484.25,"ADDRESS":"旺萊路２１５巷９弄８號","OBJECTID":68103},"geometry":{"x":181888.94000000041,"y":2539484.2500000019}},{"attributes":{"ID":68104,"DIS_CODE":0,"TOWNNAME":"鹽水區","LI":"竹埔里","LIN":"6鄰","STREET":" ","SECT":" ","MAREA":"竹子腳","LANE":" ","ALLEY":" ","HOUSE_NO":"１０９號","E_COORD97":172873.34,"N_COORD97":2574293.04,"ADDRESS":"竹子腳１０９號","OBJECTID":68104},"geometry":{"x":172873.34000000078,"y":2574293.040000001}},{"attributes":{"ID":68105,"DIS_CODE":0,"TOWNNAME":"鹽水區","LI":"竹埔里","LIN":"6鄰","STREET":" ","SECT":" ","MAREA":"竹子腳","LANE":" ","ALLEY":" ","HOUSE_NO":"１１０號之１","E_COORD97":172853.60999999999,"N_COORD97":2574320.1800000002,"ADDRESS":"竹子腳１１０號之１","OBJECTID":68105},"geometry":{"x":172853.61000000034,"y":2574320.1800000016}},{"attributes":{"ID":68106,"DIS_CODE":0,"TOWNNAME":"鹽水區","LI":"竹埔里","LIN":"6鄰","STREET":" ","SECT":" ","MAREA":"竹子腳","LANE":" ","ALLEY":" ","HOUSE_NO":"１１０之２號","E_COORD97":172856.10999999999,"N_COORD97":2574304.9500000002,"ADDRESS":"竹子腳１１０之２號","OBJECTID":68106},"geometry":{"x":172856.1100000022,"y":2574304.9500000011}},{"attributes":{"ID":68107,"DIS_CODE":0,"TOWNNAME":"鹽水區","LI":"竹埔里","LIN":"6鄰","STREET":" ","SECT":" ","MAREA":"竹子腳","LANE":" ","ALLEY":" ","HOUSE_NO":"１１０之３號","E_COORD97":172888.51999999999,"N_COORD97":2574309.2200000002,"ADDRESS":"竹子腳１１０之３號","OBJECTID":68107},"geometry":{"x":172888.52000000048,"y":2574309.2200000007}},{"attributes":{"ID":68108,"DIS_CODE":0,"TOWNNAME":"鹽水區","LI":"竹埔里","LIN":"6鄰","STREET":" ","SECT":" ","MAREA":"竹子腳","LANE":" ","ALLEY":" ","HOUSE_NO":"１１０之４號","E_COORD97":172887.85000000001,"N_COORD97":2574313.5099999998,"ADDRESS":"竹子腳１１０之４號","OBJECTID":68108},"geometry":{"x":172887.85000000056,"y":2574313.5100000035}},{"attributes":{"ID":68109,"DIS_CODE":0,"TOWNNAME":"鹽水區","LI":"竹埔里","LIN":"6鄰","STREET":" ","SECT":" ","MAREA":"竹子腳","LANE":" ","ALLEY":" ","HOUSE_NO":"１１０號之４","E_COORD97":172887.85000000001,"N_COORD97":2574313.5099999998,"ADDRESS":"竹子腳１１０號之４","OBJECTID":68109},"geometry":{"x":172887.85000000056,"y":2574313.5100000035}},{"attributes":{"ID":68110,"DIS_CODE":0,"TOWNNAME":"關廟區","LI":"東勢里","LIN":"6鄰","STREET":"旺萊路","SECT":" ","MAREA":" ","LANE":"２１５巷","ALLEY":"３弄","HOUSE_NO":"８號","E_COORD97":181920.04000000001,"N_COORD97":2539449.25,"ADDRESS":"旺萊路２１５巷３弄８號","OBJECTID":68110},"geometry":{"x":181920.04000000004,"y":2539449.2500000019}},{"attributes":{"ID":68111,"DIS_CODE":0,"TOWNNAME":"鹽水區","LI":"竹埔里","LIN":"6鄰","STREET":" ","SECT":" ","MAREA":"竹子腳","LANE":" ","ALLEY":" ","HOUSE_NO":"１１０號之５","E_COORD97":172887.34,"N_COORD97":2574318.04,"ADDRESS":"竹子腳１１０號之５","OBJECTID":68111},"geometry":{"x":172887.33999999985,"y":2574318.0399999991}},{"attributes":{"ID":68112,"DIS_CODE":0,"TOWNNAME":"關廟區","LI":"東勢里","LIN":"6鄰","STREET":"旺萊路","SECT":" ","MAREA":" ","LANE":"２１５巷","ALLEY":"３弄","HOUSE_NO":"１０號","E_COORD97":181917.89000000001,"N_COORD97":2539449.25,"ADDRESS":"旺萊路２１５巷３弄１０號","OBJECTID":68112},"geometry":{"x":181917.8900000006,"y":2539449.2500000019}},{"attributes":{"ID":68113,"DIS_CODE":0,"TOWNNAME":"關廟區","LI":"關廟里","LIN":"6鄰","STREET":"民生街","SECT":" ","MAREA":" ","LANE":"１６７巷","ALLEY":"２２弄","HOUSE_NO":"３號","E_COORD97":180804.64000000001,"N_COORD97":2539949.29,"ADDRESS":"民生街１６７巷２２弄３號","OBJECTID":68113},"geometry":{"x":180804.6400000006,"y":2539949.2899999972}},{"attributes":{"ID":68114,"DIS_CODE":0,"TOWNNAME":"關廟區","LI":"關廟里","LIN":"6鄰","STREET":"民生街","SECT":" ","MAREA":" ","LANE":"１６７巷","ALLEY":"２２弄","HOUSE_NO":"５號","E_COORD97":180808.84,"N_COORD97":2539960.29,"ADDRESS":"民生街１６７巷２２弄５號","OBJECTID":68114},"geometry":{"x":180808.83999999985,"y":2539960.290000001}},{"attributes":{"ID":68115,"DIS_CODE":0,"TOWNNAME":"關廟區","LI":"關廟里","LIN":"6鄰","STREET":"民生街","SECT":" ","MAREA":" ","LANE":"１６７巷","ALLEY":"２６弄","HOUSE_NO":"５號","E_COORD97":180796.94,"N_COORD97":2539960.29,"ADDRESS":"民生街１６７巷２６弄５號","OBJECTID":68115},"geometry":{"x":180796.94000000041,"y":2539960.290000001}},{"attributes":{"ID":68116,"DIS_CODE":0,"TOWNNAME":"鹽水區","LI":"竹埔里","LIN":"6鄰","STREET":" ","SECT":" ","MAREA":"竹子腳","LANE":" ","ALLEY":" ","HOUSE_NO":"１１０號之６","E_COORD97":172886.60000000001,"N_COORD97":2574322.23,"ADDRESS":"竹子腳１１０號之６","OBJECTID":68116},"geometry":{"x":172886.60000000056,"y":2574322.2300000004}},{"attributes":{"ID":68117,"DIS_CODE":0,"TOWNNAME":"鹽水區","LI":"竹埔里","LIN":"6鄰","STREET":" ","SECT":" ","MAREA":"竹子腳","LANE":" ","ALLEY":" ","HOUSE_NO":"１１０之７號","E_COORD97":172885.76000000001,"N_COORD97":2574326.77,"ADDRESS":"竹子腳１１０之７號","OBJECTID":68117},"geometry":{"x":172885.76000000071,"y":2574326.7700000014}},{"attributes":{"ID":68118,"DIS_CODE":0,"TOWNNAME":"關廟區","LI":"關廟里","LIN":"6鄰","STREET":"民生街","SECT":" ","MAREA":" ","LANE":"１６７巷","ALLEY":"２６弄","HOUSE_NO":"１號","E_COORD97":180794.23999999999,"N_COORD97":2539940.29,"ADDRESS":"民生街１６７巷２６弄１號","OBJECTID":68118},"geometry":{"x":180794.24000000115,"y":2539940.290000001}},{"attributes":{"ID":68119,"DIS_CODE":0,"TOWNNAME":"鹽水區","LI":"竹埔里","LIN":"6鄰","STREET":" ","SECT":" ","MAREA":"竹子腳","LANE":" ","ALLEY":" ","HOUSE_NO":"１１０之８號","E_COORD97":172884.79999999999,"N_COORD97":2574331.2799999998,"ADDRESS":"竹子腳１１０之８號","OBJECTID":68119},"geometry":{"x":172884.80000000168,"y":2574331.2799999993}},{"attributes":{"ID":68120,"DIS_CODE":0,"TOWNNAME":"鹽水區","LI":"竹埔里","LIN":"6鄰","STREET":" ","SECT":" ","MAREA":"竹子腳","LANE":" ","ALLEY":" ","HOUSE_NO":"１１０號","E_COORD97":172868.01999999999,"N_COORD97":2574316.1400000001,"ADDRESS":"竹子腳１１０號","OBJECTID":68120},"geometry":{"x":172868.02000000048,"y":2574316.1400000006}},{"attributes":{"ID":68121,"DIS_CODE":0,"TOWNNAME":"關廟區","LI":"關廟里","LIN":"6鄰","STREET":"民生街","SECT":" ","MAREA":" ","LANE":"１６７巷","ALLEY":"２８弄","HOUSE_NO":"３號","E_COORD97":180767.04000000001,"N_COORD97":2539960.29,"ADDRESS":"民生街１６７巷２８弄３號","OBJECTID":68121},"geometry":{"x":180767.04000000004,"y":2539960.290000001}},{"attributes":{"ID":68122,"DIS_CODE":0,"TOWNNAME":"關廟區","LI":"關廟里","LIN":"6鄰","STREET":"民生街","SECT":" ","MAREA":" ","LANE":"１６７巷","ALLEY":"２８弄","HOUSE_NO":"１號","E_COORD97":180780.04000000001,"N_COORD97":2539946.29,"ADDRESS":"民生街１６７巷２８弄１號","OBJECTID":68122},"geometry":{"x":180780.04000000097,"y":2539946.2900000028}},{"attributes":{"ID":68123,"DIS_CODE":0,"TOWNNAME":"關廟區","LI":"北勢里","LIN":"6鄰","STREET":"中正路","SECT":" ","MAREA":" ","LANE":"７０６巷","ALLEY":"３弄","HOUSE_NO":"２號","E_COORD97":181665.06,"N_COORD97":2540354.25,"ADDRESS":"中正路７０６巷３弄２號","OBJECTID":68123},"geometry":{"x":181665.05999999959,"y":2540354.2500000037}},{"attributes":{"ID":68124,"DIS_CODE":0,"TOWNNAME":"關廟區","LI":"五甲里","LIN":"6鄰","STREET":"五甲路","SECT":" ","MAREA":" ","LANE":"３６巷","ALLEY":"３弄","HOUSE_NO":"６號","E_COORD97":181214.42000000001,"N_COORD97":2539156.25,"ADDRESS":"五甲路３６巷３弄６號","OBJECTID":68124},"geometry":{"x":181214.42000000086,"y":2539156.25}},{"attributes":{"ID":68125,"DIS_CODE":0,"TOWNNAME":"關廟區","LI":"北勢里","LIN":"6鄰","STREET":"中正路","SECT":" ","MAREA":" ","LANE":"７０６巷","ALLEY":"７弄","HOUSE_NO":"１０號","E_COORD97":181663.31,"N_COORD97":2540374.25,"ADDRESS":"中正路７０６巷７弄１０號","OBJECTID":68125},"geometry":{"x":181663.30999999959,"y":2540374.2499999981}},{"attributes":{"ID":68126,"DIS_CODE":0,"TOWNNAME":"北區","LI":"成德里","LIN":"6鄰","STREET":"西門路","SECT":"四段","MAREA":" ","LANE":"７巷","ALLEY":"８４弄","HOUSE_NO":"１０號","E_COORD97":168395.20000000001,"N_COORD97":2545366.73,"ADDRESS":"西門路四段７巷８４弄１０號","OBJECTID":68126},"geometry":{"x":168395.20000000205,"y":2545366.7300000023}},{"attributes":{"ID":68127,"DIS_CODE":0,"TOWNNAME":"北區","LI":"成德里","LIN":"6鄰","STREET":"西門路","SECT":"四段","MAREA":" ","LANE":"７巷","ALLEY":"８４弄","HOUSE_NO":"１１號","E_COORD97":168376.67999999999,"N_COORD97":2545390.02,"ADDRESS":"西門路四段７巷８４弄１１號","OBJECTID":68127},"geometry":{"x":168376.68000000063,"y":2545390.0200000033}},{"attributes":{"ID":68128,"DIS_CODE":0,"TOWNNAME":"北區","LI":"成德里","LIN":"6鄰","STREET":"西門路","SECT":"四段","MAREA":" ","LANE":"７巷","ALLEY":"８４弄","HOUSE_NO":"１２號","E_COORD97":168398.10000000001,"N_COORD97":2545369.8500000001,"ADDRESS":"西門路四段７巷８４弄１２號","OBJECTID":68128},"geometry":{"x":168398.09999999963,"y":2545369.8499999996}},{"attributes":{"ID":68129,"DIS_CODE":0,"TOWNNAME":"安南區","LI":"公親里","LIN":"7鄰","STREET":"公學路","SECT":"一段","MAREA":" ","LANE":" ","ALLEY":" ","HOUSE_NO":"４６號","E_COORD97":168543.35999999999,"N_COORD97":2553066.46,"ADDRESS":"公學路一段４６號","OBJECTID":68129},"geometry":{"x":168543.3599999994,"y":2553066.4600000009}},{"attributes":{"ID":68130,"DIS_CODE":0,"TOWNNAME":"安南區","LI":"公親里","LIN":"7鄰","STREET":"公學路","SECT":"一段","MAREA":" ","LANE":" ","ALLEY":" ","HOUSE_NO":"５４號","E_COORD97":168520.01000000001,"N_COORD97":2553064.5099999998,"ADDRESS":"公學路一段５４號","OBJECTID":68130},"geometry":{"x":168520.01000000071,"y":2553064.5099999998}},{"attributes":{"ID":68131,"DIS_CODE":0,"TOWNNAME":"安南區","LI":"公親里","LIN":"7鄰","STREET":"公學路","SECT":"一段","MAREA":" ","LANE":" ","ALLEY":" ","HOUSE_NO":"５７號","E_COORD97":168498.60999999999,"N_COORD97":2553034.7200000002,"ADDRESS":"公學路一段５７號","OBJECTID":68131},"geometry":{"x":168498.61000000034,"y":2553034.7200000007}},{"attributes":{"ID":68132,"DIS_CODE":0,"TOWNNAME":"安南區","LI":"公親里","LIN":"7鄰","STREET":"公學路","SECT":"一段","MAREA":" ","LANE":" ","ALLEY":" ","HOUSE_NO":"６３號","E_COORD97":168484.34,"N_COORD97":2553032.7799999998,"ADDRESS":"公學路一段６３號","OBJECTID":68132},"geometry":{"x":168484.34000000078,"y":2553032.7799999993}},{"attributes":{"ID":68133,"DIS_CODE":0,"TOWNNAME":"北區","LI":"成德里","LIN":"6鄰","STREET":"西門路","SECT":"四段","MAREA":" ","LANE":"７巷","ALLEY":"８４弄","HOUSE_NO":"１３號","E_COORD97":168379.14000000001,"N_COORD97":2545394.0299999998,"ADDRESS":"西門路四段７巷８４弄１３號","OBJECTID":68133},"geometry":{"x":168379.13999999966,"y":2545394.0300000012}},{"attributes":{"ID":68134,"DIS_CODE":0,"TOWNNAME":"鹽水區","LI":"竹埔里","LIN":"6鄰","STREET":" ","SECT":" ","MAREA":"竹子腳","LANE":" ","ALLEY":" ","HOUSE_NO":"７６號","E_COORD97":172889.39000000001,"N_COORD97":2574262.7000000002,"ADDRESS":"竹子腳７６號","OBJECTID":68134},"geometry":{"x":172889.3900000006,"y":2574262.6999999993}},{"attributes":{"ID":68135,"DIS_CODE":0,"TOWNNAME":"鹽水區","LI":"竹埔里","LIN":"6鄰","STREET":" ","SECT":" ","MAREA":"竹子腳","LANE":" ","ALLEY":" ","HOUSE_NO":"７７號","E_COORD97":172868.98999999999,"N_COORD97":2574257.3799999999,"ADDRESS":"竹子腳７７號","OBJECTID":68135},"geometry":{"x":172868.99000000115,"y":2574257.3800000008}},{"attributes":{"ID":68136,"DIS_CODE":0,"TOWNNAME":"七股區","LI":"?榔里","LIN":"6鄰","STREET":" ","SECT":" ","MAREA":"?榔","LANE":" ","ALLEY":" ","HOUSE_NO":"４９號之１","E_COORD97":162394.95999999999,"N_COORD97":2555165.3199999998,"ADDRESS":"?榔４９號之１","OBJECTID":68136},"geometry":{"x":162394.95999999996,"y":2555165.3200000003}},{"attributes":{"ID":68137,"DIS_CODE":0,"TOWNNAME":"七股區","LI":"?榔里","LIN":"6鄰","STREET":" ","SECT":" ","MAREA":"?榔","LANE":" ","ALLEY":" ","HOUSE_NO":"４９號","E_COORD97":162384.79000000001,"N_COORD97":2555165.71,"ADDRESS":"?榔４９號","OBJECTID":68137},"geometry":{"x":162384.79000000004,"y":2555165.7100000028}},{"attributes":{"ID":68138,"DIS_CODE":0,"TOWNNAME":"七股區","LI":"?榔里","LIN":"6鄰","STREET":" ","SECT":" ","MAREA":"?榔","LANE":" ","ALLEY":" ","HOUSE_NO":"５０號之１０","E_COORD97":162363.66,"N_COORD97":2555158.1400000001,"ADDRESS":"?榔５０號之１０","OBJECTID":68138},"geometry":{"x":162363.66000000015,"y":2555158.1400000043}},{"attributes":{"ID":68139,"DIS_CODE":0,"TOWNNAME":"七股區","LI":"?榔里","LIN":"6鄰","STREET":" ","SECT":" ","MAREA":"?榔","LANE":" ","ALLEY":" ","HOUSE_NO":"５０號之１１","E_COORD97":162363.66,"N_COORD97":2555153.9100000001,"ADDRESS":"?榔５０號之１１","OBJECTID":68139},"geometry":{"x":162363.66000000015,"y":2555153.910000002}},{"attributes":{"ID":68140,"DIS_CODE":0,"TOWNNAME":"七股區","LI":"?榔里","LIN":"6鄰","STREET":" ","SECT":" ","MAREA":"?榔","LANE":" ","ALLEY":" ","HOUSE_NO":"５０號之１２","E_COORD97":162363.66,"N_COORD97":2555149.6800000002,"ADDRESS":"?榔５０號之１２","OBJECTID":68140},"geometry":{"x":162363.66000000015,"y":2555149.6799999978}},{"attributes":{"ID":68141,"DIS_CODE":0,"TOWNNAME":"七股區","LI":"?榔里","LIN":"6鄰","STREET":" ","SECT":" ","MAREA":"?榔","LANE":" ","ALLEY":" ","HOUSE_NO":"５０號之２","E_COORD97":162363.04000000001,"N_COORD97":2555191.7200000002,"ADDRESS":"?榔５０號之２","OBJECTID":68141},"geometry":{"x":162363.0400000019,"y":2555191.7200000025}},{"attributes":{"ID":68142,"DIS_CODE":0,"TOWNNAME":"七股區","LI":"?榔里","LIN":"6鄰","STREET":" ","SECT":" ","MAREA":"?榔","LANE":" ","ALLEY":" ","HOUSE_NO":"５０號之３","E_COORD97":162359.31,"N_COORD97":2555191.3100000001,"ADDRESS":"?榔５０號之３","OBJECTID":68142},"geometry":{"x":162359.31000000052,"y":2555191.3100000024}},{"attributes":{"ID":68143,"DIS_CODE":0,"TOWNNAME":"七股區","LI":"?榔里","LIN":"6鄰","STREET":" ","SECT":" ","MAREA":"?榔","LANE":" ","ALLEY":" ","HOUSE_NO":"５０號之５","E_COORD97":162363.51000000001,"N_COORD97":2555178.7999999998,"ADDRESS":"?榔５０號之５","OBJECTID":68143},"geometry":{"x":162363.51000000071,"y":2555178.8000000026}},{"attributes":{"ID":68144,"DIS_CODE":0,"TOWNNAME":"七股區","LI":"?榔里","LIN":"6鄰","STREET":" ","SECT":" ","MAREA":"?榔","LANE":" ","ALLEY":" ","HOUSE_NO":"５０號之６","E_COORD97":162363.54000000001,"N_COORD97":2555174.6499999999,"ADDRESS":"?榔５０號之６","OBJECTID":68144},"geometry":{"x":162363.54000000097,"y":2555174.6500000041}},{"attributes":{"ID":68145,"DIS_CODE":0,"TOWNNAME":"七股區","LI":"?榔里","LIN":"6鄰","STREET":" ","SECT":" ","MAREA":"?榔","LANE":" ","ALLEY":" ","HOUSE_NO":"５０號之７","E_COORD97":162363.57000000001,"N_COORD97":2555170.5,"ADDRESS":"?榔５０號之７","OBJECTID":68145},"geometry":{"x":162363.57000000123,"y":2555170.5}},{"attributes":{"ID":68146,"DIS_CODE":0,"TOWNNAME":"七股區","LI":"?榔里","LIN":"6鄰","STREET":" ","SECT":" ","MAREA":"?榔","LANE":" ","ALLEY":" ","HOUSE_NO":"５０號之８","E_COORD97":162363.60000000001,"N_COORD97":2555166.3500000001,"ADDRESS":"?榔５０號之８","OBJECTID":68146},"geometry":{"x":162363.59999999963,"y":2555166.3500000015}},{"attributes":{"ID":68147,"DIS_CODE":0,"TOWNNAME":"七股區","LI":"?榔里","LIN":"6鄰","STREET":" ","SECT":" ","MAREA":"?榔","LANE":" ","ALLEY":" ","HOUSE_NO":"５０號之９","E_COORD97":162363.63,"N_COORD97":2555162.21,"ADDRESS":"?榔５０號之９","OBJECTID":68147},"geometry":{"x":162363.62999999989,"y":2555162.2100000028}},{"attributes":{"ID":68148,"DIS_CODE":0,"TOWNNAME":"七股區","LI":"?榔里","LIN":"6鄰","STREET":" ","SECT":" ","MAREA":"?榔","LANE":" ","ALLEY":" ","HOUSE_NO":"５０號","E_COORD97":162372.75,"N_COORD97":2555191.6600000001,"ADDRESS":"?榔５０號","OBJECTID":68148},"geometry":{"x":162372.75,"y":2555191.660000002}},{"attributes":{"ID":68149,"DIS_CODE":0,"TOWNNAME":"七股區","LI":"?榔里","LIN":"6鄰","STREET":" ","SECT":" ","MAREA":"?榔","LANE":" ","ALLEY":" ","HOUSE_NO":"５１號之１","E_COORD97":162346.69,"N_COORD97":2555159.2599999998,"ADDRESS":"?榔５１號之１","OBJECTID":68149},"geometry":{"x":162346.69000000041,"y":2555159.2599999998}},{"attributes":{"ID":68150,"DIS_CODE":0,"TOWNNAME":"七股區","LI":"?榔里","LIN":"6鄰","STREET":" ","SECT":" ","MAREA":"?榔","LANE":" ","ALLEY":" ","HOUSE_NO":"５１號之３","E_COORD97":162343.01000000001,"N_COORD97":2555189.73,"ADDRESS":"?榔５１號之３","OBJECTID":68150},"geometry":{"x":162343.01000000071,"y":2555189.7300000004}},{"attributes":{"ID":68151,"DIS_CODE":0,"TOWNNAME":"七股區","LI":"?榔里","LIN":"6鄰","STREET":" ","SECT":" ","MAREA":"?榔","LANE":" ","ALLEY":" ","HOUSE_NO":"５１號之４","E_COORD97":162349.89000000001,"N_COORD97":2555191.27,"ADDRESS":"?榔５１號之４","OBJECTID":68151},"geometry":{"x":162349.88999999966,"y":2555191.2700000014}},{"attributes":{"ID":68152,"DIS_CODE":0,"TOWNNAME":"七股區","LI":"?榔里","LIN":"6鄰","STREET":" ","SECT":" ","MAREA":"?榔","LANE":" ","ALLEY":" ","HOUSE_NO":"５１號","E_COORD97":162337.39999999999,"N_COORD97":2555188.4100000001,"ADDRESS":"?榔５１號","OBJECTID":68152},"geometry":{"x":162337.4000000013,"y":2555188.4100000001}},{"attributes":{"ID":68153,"DIS_CODE":0,"TOWNNAME":"七股區","LI":"?榔里","LIN":"6鄰","STREET":" ","SECT":" ","MAREA":"?榔","LANE":" ","ALLEY":" ","HOUSE_NO":"５２號之１０","E_COORD97":162260.39000000001,"N_COORD97":2555166.3999999999,"ADDRESS":"?榔５２號之１０","OBJECTID":68153},"geometry":{"x":162260.3900000006,"y":2555166.4000000022}},{"attributes":{"ID":68154,"DIS_CODE":0,"TOWNNAME":"七股區","LI":"?榔里","LIN":"6鄰","STREET":" ","SECT":" ","MAREA":"?榔","LANE":" ","ALLEY":" ","HOUSE_NO":"５２號之１１","E_COORD97":162256.39000000001,"N_COORD97":2555165.98,"ADDRESS":"?榔５２號之１１","OBJECTID":68154},"geometry":{"x":162256.38999999966,"y":2555165.9800000023}},{"attributes":{"ID":68155,"DIS_CODE":0,"TOWNNAME":"北區","LI":"成德里","LIN":"6鄰","STREET":"西門路","SECT":"四段","MAREA":" ","LANE":"７巷","ALLEY":"８４弄","HOUSE_NO":"１４號","E_COORD97":168401.45000000001,"N_COORD97":2545372.9700000002,"ADDRESS":"西門路四段７巷８４弄１４號","OBJECTID":68155},"geometry":{"x":168401.45000000019,"y":2545372.9700000007}},{"attributes":{"ID":68156,"DIS_CODE":0,"TOWNNAME":"北區","LI":"成德里","LIN":"6鄰","STREET":"西門路","SECT":"四段","MAREA":" ","LANE":"７巷","ALLEY":"８４弄","HOUSE_NO":"１５號","E_COORD97":168382.26000000001,"N_COORD97":2545397.3700000001,"ADDRESS":"西門路四段７巷８４弄１５號","OBJECTID":68156},"geometry":{"x":168382.25999999978,"y":2545397.3700000029}},{"attributes":{"ID":68157,"DIS_CODE":0,"TOWNNAME":"北區","LI":"成德里","LIN":"6鄰","STREET":"西門路","SECT":"四段","MAREA":" ","LANE":"７巷","ALLEY":"８４弄","HOUSE_NO":"１６號","E_COORD97":168404.23000000001,"N_COORD97":2545376.5800000001,"ADDRESS":"西門路四段７巷８４弄１６號","OBJECTID":68157},"geometry":{"x":168404.23000000138,"y":2545376.5800000038}},{"attributes":{"ID":68158,"DIS_CODE":0,"TOWNNAME":"北區","LI":"成德里","LIN":"6鄰","STREET":"西門路","SECT":"四段","MAREA":" ","LANE":"７巷","ALLEY":"８４弄","HOUSE_NO":"１７號","E_COORD97":168385.38,"N_COORD97":2545400.9399999999,"ADDRESS":"西門路四段７巷８４弄１７號","OBJECTID":68158},"geometry":{"x":168385.38000000082,"y":2545400.9400000013}},{"attributes":{"ID":68159,"DIS_CODE":0,"TOWNNAME":"北區","LI":"成德里","LIN":"6鄰","STREET":"西門路","SECT":"四段","MAREA":" ","LANE":"７巷","ALLEY":"８４弄","HOUSE_NO":"１８號","E_COORD97":168406.54999999999,"N_COORD97":2545380.8900000001,"ADDRESS":"西門路四段７巷８４弄１８號","OBJECTID":68159},"geometry":{"x":168406.55000000075,"y":2545380.8900000006}},{"attributes":{"ID":68160,"DIS_CODE":0,"TOWNNAME":"北區","LI":"成德里","LIN":"6鄰","STREET":"西門路","SECT":"四段","MAREA":" ","LANE":"７巷","ALLEY":"８４弄","HOUSE_NO":"１９號","E_COORD97":168388.95000000001,"N_COORD97":2545403.8399999999,"ADDRESS":"西門路四段７巷８４弄１９號","OBJECTID":68160},"geometry":{"x":168388.95000000112,"y":2545403.8399999999}},{"attributes":{"ID":68161,"DIS_CODE":0,"TOWNNAME":"北區","LI":"成德里","LIN":"6鄰","STREET":"西門路","SECT":"四段","MAREA":" ","LANE":"７巷","ALLEY":"８４弄","HOUSE_NO":"２０號","E_COORD97":168409.04000000001,"N_COORD97":2545384.3700000001,"ADDRESS":"西門路四段７巷８４弄２０號","OBJECTID":68161},"geometry":{"x":168409.04000000004,"y":2545384.370000001}},{"attributes":{"ID":68162,"DIS_CODE":0,"TOWNNAME":"北區","LI":"成德里","LIN":"6鄰","STREET":"西門路","SECT":"四段","MAREA":" ","LANE":"７巷","ALLEY":"８４弄","HOUSE_NO":"２１號","E_COORD97":168391.17999999999,"N_COORD97":2545407.3999999999,"ADDRESS":"西門路四段７巷８４弄２１號","OBJECTID":68162},"geometry":{"x":168391.1799999997,"y":2545407.4000000004}},{"attributes":{"ID":68163,"DIS_CODE":0,"TOWNNAME":"北區","LI":"成德里","LIN":"6鄰","STREET":"西門路","SECT":"四段","MAREA":" ","LANE":"７巷","ALLEY":"８４弄","HOUSE_NO":"２２號","E_COORD97":168411.69,"N_COORD97":2545388.5099999998,"ADDRESS":"西門路四段７巷８４弄２２號","OBJECTID":68163},"geometry":{"x":168411.69000000041,"y":2545388.5100000016}},{"attributes":{"ID":68164,"DIS_CODE":0,"TOWNNAME":"北區","LI":"成德里","LIN":"6鄰","STREET":"西門路","SECT":"四段","MAREA":" ","LANE":"７巷","ALLEY":"８４弄","HOUSE_NO":"２３號","E_COORD97":168393.41,"N_COORD97":2545410.2999999998,"ADDRESS":"西門路四段７巷８４弄２３號","OBJECTID":68164},"geometry":{"x":168393.41000000015,"y":2545410.3000000026}},{"attributes":{"ID":68165,"DIS_CODE":0,"TOWNNAME":"北區","LI":"成德里","LIN":"6鄰","STREET":"西門路","SECT":"四段","MAREA":" ","LANE":"７巷","ALLEY":"８４弄","HOUSE_NO":"２４號","E_COORD97":168413.51000000001,"N_COORD97":2545391.6600000001,"ADDRESS":"西門路四段７巷８４弄２４號","OBJECTID":68165},"geometry":{"x":168413.51000000071,"y":2545391.6600000001}},{"attributes":{"ID":68166,"DIS_CODE":0,"TOWNNAME":"北區","LI":"成德里","LIN":"6鄰","STREET":"西門路","SECT":"四段","MAREA":" ","LANE":"７巷","ALLEY":"８４弄","HOUSE_NO":"２５號","E_COORD97":168396.31,"N_COORD97":2545413.8599999999,"ADDRESS":"西門路四段７巷８４弄２５號","OBJECTID":68166},"geometry":{"x":168396.31000000052,"y":2545413.8599999994}},{"attributes":{"ID":68167,"DIS_CODE":0,"TOWNNAME":"七股區","LI":"?榔里","LIN":"6鄰","STREET":" ","SECT":" ","MAREA":"?榔","LANE":" ","ALLEY":" ","HOUSE_NO":"５２號之１２","E_COORD97":162260.84,"N_COORD97":2555150.5899999999,"ADDRESS":"?榔５２號之１２","OBJECTID":68167},"geometry":{"x":162260.84000000171,"y":2555150.5900000036}},{"attributes":{"ID":68168,"DIS_CODE":0,"TOWNNAME":"北區","LI":"成德里","LIN":"6鄰","STREET":"西門路","SECT":"四段","MAREA":" ","LANE":"７巷","ALLEY":"８４弄","HOUSE_NO":"２６號","E_COORD97":168416.41,"N_COORD97":2545395.1699999999,"ADDRESS":"西門路四段７巷８４弄２６號","OBJECTID":68168},"geometry":{"x":168416.41000000108,"y":2545395.1699999999}},{"attributes":{"ID":68169,"DIS_CODE":0,"TOWNNAME":"北區","LI":"成德里","LIN":"6鄰","STREET":"西門路","SECT":"四段","MAREA":" ","LANE":"７巷","ALLEY":"８４弄","HOUSE_NO":"２７號","E_COORD97":168398.10000000001,"N_COORD97":2545417.8799999999,"ADDRESS":"西門路四段７巷８４弄２７號","OBJECTID":68169},"geometry":{"x":168398.09999999963,"y":2545417.8800000008}},{"attributes":{"ID":68170,"DIS_CODE":0,"TOWNNAME":"北區","LI":"成德里","LIN":"6鄰","STREET":"西門路","SECT":"四段","MAREA":" ","LANE":"７巷","ALLEY":"８４弄","HOUSE_NO":"２８號","E_COORD97":168418.89999999999,"N_COORD97":2545398.8199999998,"ADDRESS":"西門路四段７巷８４弄２８號","OBJECTID":68170},"geometry":{"x":168418.90000000037,"y":2545398.820000004}},{"attributes":{"ID":68171,"DIS_CODE":0,"TOWNNAME":"北區","LI":"成德里","LIN":"6鄰","STREET":"西門路","SECT":"四段","MAREA":" ","LANE":"７巷","ALLEY":"８４弄","HOUSE_NO":"２９號","E_COORD97":168401,"N_COORD97":2545421.2200000002,"ADDRESS":"西門路四段７巷８４弄２９號","OBJECTID":68171},"geometry":{"x":168401,"y":2545421.2200000025}},{"attributes":{"ID":68172,"DIS_CODE":0,"TOWNNAME":"北區","LI":"成德里","LIN":"6鄰","STREET":"西門路","SECT":"四段","MAREA":" ","LANE":"７巷","ALLEY":"８４弄","HOUSE_NO":"３０號","E_COORD97":168421.06,"N_COORD97":2545402.1299999999,"ADDRESS":"西門路四段７巷８４弄３０號","OBJECTID":68172},"geometry":{"x":168421.06000000145,"y":2545402.1300000027}},{"attributes":{"ID":68173,"DIS_CODE":0,"TOWNNAME":"北區","LI":"成德里","LIN":"6鄰","STREET":"西門路","SECT":"四段","MAREA":" ","LANE":"７巷","ALLEY":"８４弄","HOUSE_NO":"３１號","E_COORD97":168402.78,"N_COORD97":2545424.7799999998,"ADDRESS":"西門路四段７巷８４弄３１號","OBJECTID":68173},"geometry":{"x":168402.78000000026,"y":2545424.7799999993}},{"attributes":{"ID":68174,"DIS_CODE":0,"TOWNNAME":"北區","LI":"成德里","LIN":"6鄰","STREET":"西門路","SECT":"四段","MAREA":" ","LANE":"７巷","ALLEY":"８４弄","HOUSE_NO":"３２號","E_COORD97":168423.20999999999,"N_COORD97":2545405.6099999999,"ADDRESS":"西門路四段７巷８４弄３２號","OBJECTID":68174},"geometry":{"x":168423.20999999996,"y":2545405.6099999994}},{"attributes":{"ID":68175,"DIS_CODE":0,"TOWNNAME":"北區","LI":"成德里","LIN":"6鄰","STREET":"西門路","SECT":"四段","MAREA":" ","LANE":"７巷","ALLEY":"８４弄","HOUSE_NO":"３３號","E_COORD97":168404.35000000001,"N_COORD97":2545428.1299999999,"ADDRESS":"西門路四段７巷８４弄３３號","OBJECTID":68175},"geometry":{"x":168404.35000000056,"y":2545428.129999999}},{"attributes":{"ID":68176,"DIS_CODE":0,"TOWNNAME":"北區","LI":"成德里","LIN":"6鄰","STREET":"西門路","SECT":"四段","MAREA":" ","LANE":"７巷","ALLEY":"８４弄","HOUSE_NO":"３４號","E_COORD97":168425.87,"N_COORD97":2545409.25,"ADDRESS":"西門路四段７巷８４弄３４號","OBJECTID":68176},"geometry":{"x":168425.87000000011,"y":2545409.2500000037}},{"attributes":{"ID":68177,"DIS_CODE":0,"TOWNNAME":"北區","LI":"成德里","LIN":"6鄰","STREET":"西門路","SECT":"四段","MAREA":" ","LANE":"７巷","ALLEY":"８４弄","HOUSE_NO":"３５號","E_COORD97":168406.57999999999,"N_COORD97":2545432.3599999999,"ADDRESS":"西門路四段７巷８４弄３５號","OBJECTID":68177},"geometry":{"x":168406.58000000101,"y":2545432.3600000013}},{"attributes":{"ID":68178,"DIS_CODE":0,"TOWNNAME":"北區","LI":"成德里","LIN":"6鄰","STREET":"西門路","SECT":"四段","MAREA":" ","LANE":"７巷","ALLEY":"８４弄","HOUSE_NO":"３６號","E_COORD97":168427.85999999999,"N_COORD97":2545412.73,"ADDRESS":"西門路四段７巷８４弄３６號","OBJECTID":68178},"geometry":{"x":168427.86000000034,"y":2545412.7300000004}},{"attributes":{"ID":68179,"DIS_CODE":0,"TOWNNAME":"北區","LI":"成德里","LIN":"6鄰","STREET":"西門路","SECT":"四段","MAREA":" ","LANE":"７巷","ALLEY":"８４弄","HOUSE_NO":"３７號","E_COORD97":168409.25,"N_COORD97":2545435.9199999999,"ADDRESS":"西門路四段７巷８４弄３７號","OBJECTID":68179},"geometry":{"x":168409.25,"y":2545435.9200000018}},{"attributes":{"ID":68180,"DIS_CODE":0,"TOWNNAME":"北區","LI":"成德里","LIN":"6鄰","STREET":"西門路","SECT":"四段","MAREA":" ","LANE":"７巷","ALLEY":"８４弄","HOUSE_NO":"３８號","E_COORD97":168430.17999999999,"N_COORD97":2545416.0499999998,"ADDRESS":"西門路四段７巷８４弄３８號","OBJECTID":68180},"geometry":{"x":168430.1799999997,"y":2545416.0500000026}},{"attributes":{"ID":68181,"DIS_CODE":0,"TOWNNAME":"七股區","LI":"?榔里","LIN":"6鄰","STREET":" ","SECT":" ","MAREA":"?榔","LANE":" ","ALLEY":" ","HOUSE_NO":"５４號","E_COORD97":162362.12,"N_COORD97":2555245.4199999999,"ADDRESS":"?榔５４號","OBJECTID":68181},"geometry":{"x":162362.12000000011,"y":2555245.4199999999}},{"attributes":{"ID":68182,"DIS_CODE":0,"TOWNNAME":"北區","LI":"成德里","LIN":"6鄰","STREET":"西門路","SECT":"四段","MAREA":" ","LANE":"７巷","ALLEY":"８４弄","HOUSE_NO":"３９號","E_COORD97":168411.48000000001,"N_COORD97":2545439.27,"ADDRESS":"西門路四段７巷８４弄３９號","OBJECTID":68182},"geometry":{"x":168411.48000000045,"y":2545439.2700000033}},{"attributes":{"ID":68183,"DIS_CODE":0,"TOWNNAME":"北區","LI":"成德里","LIN":"6鄰","STREET":"西門路","SECT":"四段","MAREA":" ","LANE":"７巷","ALLEY":"８４弄","HOUSE_NO":"３號","E_COORD97":168366.87,"N_COORD97":2545374.98,"ADDRESS":"西門路四段７巷８４弄３號","OBJECTID":68183},"geometry":{"x":168366.87000000197,"y":2545374.9800000023}},{"attributes":{"ID":68184,"DIS_CODE":0,"TOWNNAME":"北區","LI":"成德里","LIN":"6鄰","STREET":"西門路","SECT":"四段","MAREA":" ","LANE":"７巷","ALLEY":"８４弄","HOUSE_NO":"４０號","E_COORD97":168433.32999999999,"N_COORD97":2545419.3599999999,"ADDRESS":"西門路四段７巷８４弄４０號","OBJECTID":68184},"geometry":{"x":168433.33000000194,"y":2545419.3600000013}},{"attributes":{"ID":68185,"DIS_CODE":0,"TOWNNAME":"北區","LI":"成德里","LIN":"6鄰","STREET":"西門路","SECT":"四段","MAREA":" ","LANE":"７巷","ALLEY":"８４弄","HOUSE_NO":"４１號","E_COORD97":168413.48999999999,"N_COORD97":2545442.8300000001,"ADDRESS":"西門路四段７巷８４弄４１號","OBJECTID":68185},"geometry":{"x":168413.49000000022,"y":2545442.8300000038}},{"attributes":{"ID":68186,"DIS_CODE":0,"TOWNNAME":"北區","LI":"成德里","LIN":"6鄰","STREET":"西門路","SECT":"四段","MAREA":" ","LANE":"７巷","ALLEY":"８４弄","HOUSE_NO":"４２號","E_COORD97":168436.32000000001,"N_COORD97":2545422.5099999998,"ADDRESS":"西門路四段７巷８４弄４２號","OBJECTID":68186},"geometry":{"x":168436.3200000003,"y":2545422.5099999998}},{"attributes":{"ID":68187,"DIS_CODE":0,"TOWNNAME":"北區","LI":"成德里","LIN":"6鄰","STREET":"西門路","SECT":"四段","MAREA":" ","LANE":"７巷","ALLEY":"８４弄","HOUSE_NO":"４３號","E_COORD97":168416.17000000001,"N_COORD97":2545446.6200000001,"ADDRESS":"西門路四段７巷８４弄４３號","OBJECTID":68187},"geometry":{"x":168416.17000000086,"y":2545446.6200000029}},{"attributes":{"ID":68188,"DIS_CODE":0,"TOWNNAME":"北區","LI":"成德里","LIN":"6鄰","STREET":"西門路","SECT":"四段","MAREA":" ","LANE":"７巷","ALLEY":"８４弄","HOUSE_NO":"４４號","E_COORD97":168438.64000000001,"N_COORD97":2545426.3199999998,"ADDRESS":"西門路四段７巷８４弄４４號","OBJECTID":68188},"geometry":{"x":168438.63999999966,"y":2545426.3200000022}},{"attributes":{"ID":68189,"DIS_CODE":0,"TOWNNAME":"北區","LI":"成德里","LIN":"6鄰","STREET":"西門路","SECT":"四段","MAREA":" ","LANE":"７巷","ALLEY":"８４弄","HOUSE_NO":"４５號","E_COORD97":168418.17999999999,"N_COORD97":2545449.96,"ADDRESS":"西門路四段７巷８４弄４５號","OBJECTID":68189},"geometry":{"x":168418.1799999997,"y":2545449.9600000028}},{"attributes":{"ID":68190,"DIS_CODE":0,"TOWNNAME":"北區","LI":"成功里","LIN":"6鄰","STREET":"北安路","SECT":"一段","MAREA":" ","LANE":"１７６巷","ALLEY":"２１弄","HOUSE_NO":"４號","E_COORD97":168909.39999999999,"N_COORD97":2546545.02,"ADDRESS":"北安路一段１７６巷２１弄４號","OBJECTID":68190},"geometry":{"x":168909.40000000224,"y":2546545.0199999996}},{"attributes":{"ID":68191,"DIS_CODE":0,"TOWNNAME":"永康區","LI":"西橋里","LIN":"7鄰","STREET":"中華西街","SECT":" ","MAREA":" ","LANE":" ","ALLEY":" ","HOUSE_NO":"４５號","E_COORD97":170765.78,"N_COORD97":2546015.0299999998,"ADDRESS":"中華西街４５號","OBJECTID":68191},"geometry":{"x":170765.78000000026,"y":2546015.0300000012}},{"attributes":{"ID":68192,"DIS_CODE":0,"TOWNNAME":"永康區","LI":"西橋里","LIN":"7鄰","STREET":"中華西街","SECT":" ","MAREA":" ","LANE":" ","ALLEY":" ","HOUSE_NO":"５３號","E_COORD97":170757.67000000001,"N_COORD97":2546029.0299999998,"ADDRESS":"中華西街５３號","OBJECTID":68192},"geometry":{"x":170757.66999999993,"y":2546029.0299999993}},{"attributes":{"ID":68193,"DIS_CODE":0,"TOWNNAME":"七股區","LI":"?榔里","LIN":"6鄰","STREET":" ","SECT":" ","MAREA":"?榔","LANE":" ","ALLEY":" ","HOUSE_NO":"５２號之１３","E_COORD97":162261.09,"N_COORD97":2555146.3199999998,"ADDRESS":"?榔５２號之１３","OBJECTID":68193},"geometry":{"x":162261.09000000078,"y":2555146.320000004}},{"attributes":{"ID":68194,"DIS_CODE":0,"TOWNNAME":"七股區","LI":"?榔里","LIN":"6鄰","STREET":" ","SECT":" ","MAREA":"?榔","LANE":" ","ALLEY":" ","HOUSE_NO":"５２號之１４","E_COORD97":162261.35000000001,"N_COORD97":2555142.0499999998,"ADDRESS":"?榔５２號之１４","OBJECTID":68194},"geometry":{"x":162261.34999999963,"y":2555142.0500000026}},{"attributes":{"ID":68195,"DIS_CODE":0,"TOWNNAME":"七股區","LI":"?榔里","LIN":"6鄰","STREET":" ","SECT":" ","MAREA":"?榔","LANE":" ","ALLEY":" ","HOUSE_NO":"５２號之１５","E_COORD97":162261.60999999999,"N_COORD97":2555137.7799999998,"ADDRESS":"?榔５２號之１５","OBJECTID":68195},"geometry":{"x":162261.61000000127,"y":2555137.7799999993}},{"attributes":{"ID":68196,"DIS_CODE":0,"TOWNNAME":"七股區","LI":"?榔里","LIN":"6鄰","STREET":" ","SECT":" ","MAREA":"?榔","LANE":" ","ALLEY":" ","HOUSE_NO":"５２號之１６","E_COORD97":162261.85999999999,"N_COORD97":2555133.5099999998,"ADDRESS":"?榔５２號之１６","OBJECTID":68196},"geometry":{"x":162261.86000000127,"y":2555133.5099999998}},{"attributes":{"ID":68197,"DIS_CODE":0,"TOWNNAME":"七股區","LI":"?榔里","LIN":"6鄰","STREET":" ","SECT":" ","MAREA":"?榔","LANE":" ","ALLEY":" ","HOUSE_NO":"５２號之１７","E_COORD97":162262.12,"N_COORD97":2555129.2400000002,"ADDRESS":"?榔５２號之１７","OBJECTID":68197},"geometry":{"x":162262.12000000011,"y":2555129.2400000002}},{"attributes":{"ID":68198,"DIS_CODE":0,"TOWNNAME":"七股區","LI":"?榔里","LIN":"6鄰","STREET":" ","SECT":" ","MAREA":"?榔","LANE":" ","ALLEY":" ","HOUSE_NO":"５２號之１８","E_COORD97":162262.37,"N_COORD97":2555124.9700000002,"ADDRESS":"?榔５２號之１８","OBJECTID":68198},"geometry":{"x":162262.36999999918,"y":2555124.9700000007}},{"attributes":{"ID":68199,"DIS_CODE":0,"TOWNNAME":"七股區","LI":"?榔里","LIN":"6鄰","STREET":" ","SECT":" ","MAREA":"?榔","LANE":" ","ALLEY":" ","HOUSE_NO":"５２號之１９","E_COORD97":162262.63,"N_COORD97":2555120.7000000002,"ADDRESS":"?榔５２號之１９","OBJECTID":68199},"geometry":{"x":162262.63000000082,"y":2555120.6999999993}},{"attributes":{"ID":68200,"DIS_CODE":0,"TOWNNAME":"七股區","LI":"?榔里","LIN":"6鄰","STREET":" ","SECT":" ","MAREA":"?榔","LANE":" ","ALLEY":" ","HOUSE_NO":"５２號之２０","E_COORD97":162262.88,"N_COORD97":2555116.4300000002,"ADDRESS":"?榔５２號之２０","OBJECTID":68200},"geometry":{"x":162262.88000000082,"y":2555116.4299999997}}]}