{"displayFieldName":"TOWNNAME","fieldAliases":{"ID":"ID","DIS_CODE":"DIS_CODE","TOWNNAME":"TOWNNAME","LI":"LI","LIN":"LIN","STREET":"STREET","SECT":"SECT","MAREA":"MAREA","LANE":"LANE","ALLEY":"ALLEY","HOUSE_NO":"HOUSE_NO","E_COORD97":"E_COORD97","N_COORD97":"N_COORD97","ADDRESS":"ADDRESS","OBJECTID":"OBJECTID"},"geometryType":"esriGeometryPoint","spatialReference":{"wkid":102443,"latestWkid":3826},"fields":[{"name":"ID","type":"esriFieldTypeDouble","alias":"ID"},{"name":"DIS_CODE","type":"esriFieldTypeInteger","alias":"DIS_CODE"},{"name":"TOWNNAME","type":"esriFieldTypeString","alias":"TOWNNAME","length":8},{"name":"LI","type":"esriFieldTypeString","alias":"LI","length":8},{"name":"LIN","type":"esriFieldTypeString","alias":"LIN","length":12},{"name":"STREET","type":"esriFieldTypeString","alias":"STREET","length":20},{"name":"SECT","type":"esriFieldTypeString","alias":"SECT","length":8},{"name":"MAREA","type":"esriFieldTypeString","alias":"MAREA","length":12},{"name":"LANE","type":"esriFieldTypeString","alias":"LANE","length":10},{"name":"ALLEY","type":"esriFieldTypeString","alias":"ALLEY","length":10},{"name":"HOUSE_NO","type":"esriFieldTypeString","alias":"HOUSE_NO","length":20},{"name":"E_COORD97","type":"esriFieldTypeDouble","alias":"E_COORD97"},{"name":"N_COORD97","type":"esriFieldTypeDouble","alias":"N_COORD97"},{"name":"ADDRESS","type":"esriFieldTypeString","alias":"ADDRESS","length":50},{"name":"OBJECTID","type":"esriFieldTypeOID","alias":"OBJECTID"}],"features":[{"attributes":{"ID":190802,"DIS_CODE":0,"TOWNNAME":"永康區","LI":"\u25A0洲里","LIN":"40鄰","STREET":"正南六街","SECT":" ","MAREA":" ","LANE":" ","ALLEY":" ","HOUSE_NO":"７５號","E_COORD97":170910,"N_COORD97":2548575.7400000002,"ADDRESS":"正南六街７５號","OBJECTID":190801},"geometry":{"x":170910,"y":2548575.7400000002}},{"attributes":{"ID":190803,"DIS_CODE":0,"TOWNNAME":"安平區","LI":"平安里","LIN":"5鄰","STREET":"安平路","SECT":" ","MAREA":" ","LANE":"３３６巷","ALLEY":"７弄","HOUSE_NO":"２０號","E_COORD97":165599.07999999999,"N_COORD97":2544368.29,"ADDRESS":"安平路３３６巷７弄２０號","OBJECTID":190802},"geometry":{"x":165599.08000000101,"y":2544368.290000001}},{"attributes":{"ID":190804,"DIS_CODE":0,"TOWNNAME":"安平區","LI":"平安里","LIN":"5鄰","STREET":"安平路","SECT":" ","MAREA":" ","LANE":"３３６巷","ALLEY":"７弄","HOUSE_NO":"２２號","E_COORD97":165590.13,"N_COORD97":2544371.6000000001,"ADDRESS":"安平路３３６巷７弄２２號","OBJECTID":190803},"geometry":{"x":165590.13000000082,"y":2544371.5999999996}},{"attributes":{"ID":190805,"DIS_CODE":0,"TOWNNAME":"安平區","LI":"平安里","LIN":"5鄰","STREET":"安平路","SECT":" ","MAREA":" ","LANE":"３３６巷","ALLEY":"７弄","HOUSE_NO":"２４號","E_COORD97":165569.54999999999,"N_COORD97":2544370.98,"ADDRESS":"安平路３３６巷７弄２４號","OBJECTID":190804},"geometry":{"x":165569.54999999981,"y":2544370.9800000023}},{"attributes":{"ID":190806,"DIS_CODE":0,"TOWNNAME":"安平區","LI":"平安里","LIN":"5鄰","STREET":"安平路","SECT":" ","MAREA":" ","LANE":"３３６巷","ALLEY":"７弄","HOUSE_NO":"２６號","E_COORD97":165560.85000000001,"N_COORD97":2544369.9399999999,"ADDRESS":"安平路３３６巷７弄２６號","OBJECTID":190805},"geometry":{"x":165560.8499999987,"y":2544369.9400000032}},{"attributes":{"ID":190807,"DIS_CODE":0,"TOWNNAME":"安平區","LI":"平安里","LIN":"5鄰","STREET":"安平路","SECT":" ","MAREA":" ","LANE":"３３６巷","ALLEY":"７弄","HOUSE_NO":"２號","E_COORD97":165650.89000000001,"N_COORD97":2544368.6000000001,"ADDRESS":"安平路３３６巷７弄２號","OBJECTID":190806},"geometry":{"x":165650.8900000006,"y":2544368.5999999996}},{"attributes":{"ID":190808,"DIS_CODE":0,"TOWNNAME":"安平區","LI":"平安里","LIN":"5鄰","STREET":"安平路","SECT":" ","MAREA":" ","LANE":"３３６巷","ALLEY":"７弄","HOUSE_NO":"４號","E_COORD97":165644.94,"N_COORD97":2544368.3100000001,"ADDRESS":"安平路３３６巷７弄４號","OBJECTID":190807},"geometry":{"x":165644.94000000134,"y":2544368.3099999987}},{"attributes":{"ID":190809,"DIS_CODE":0,"TOWNNAME":"安平區","LI":"平安里","LIN":"5鄰","STREET":"安平路","SECT":" ","MAREA":" ","LANE":"３３６巷","ALLEY":"７弄","HOUSE_NO":"６號","E_COORD97":165639.03,"N_COORD97":2544368.8300000001,"ADDRESS":"安平路３３６巷７弄６號","OBJECTID":190808},"geometry":{"x":165639.03000000119,"y":2544368.8300000019}},{"attributes":{"ID":190810,"DIS_CODE":0,"TOWNNAME":"安平區","LI":"平安里","LIN":"5鄰","STREET":"安平路","SECT":" ","MAREA":" ","LANE":"３３６巷","ALLEY":"７弄","HOUSE_NO":"８號","E_COORD97":165633.04999999999,"N_COORD97":2544368.2400000002,"ADDRESS":"安平路３３６巷７弄８號","OBJECTID":190809},"geometry":{"x":165633.05000000075,"y":2544368.2400000002}},{"attributes":{"ID":190811,"DIS_CODE":0,"TOWNNAME":"安平區","LI":"石門里","LIN":"5鄰","STREET":"安北路","SECT":" ","MAREA":" ","LANE":"１６巷","ALLEY":"１７弄","HOUSE_NO":"１０號","E_COORD97":164710.13,"N_COORD97":2544552.1499999999,"ADDRESS":"安北路１６巷１７弄１０號","OBJECTID":190810},"geometry":{"x":164710.13000000175,"y":2544552.1500000004}},{"attributes":{"ID":190812,"DIS_CODE":0,"TOWNNAME":"安平區","LI":"石門里","LIN":"5鄰","STREET":"安北路","SECT":" ","MAREA":" ","LANE":"１６巷","ALLEY":"１７弄","HOUSE_NO":"１１號","E_COORD97":164699.98000000001,"N_COORD97":2544537.6000000001,"ADDRESS":"安北路１６巷１７弄１１號","OBJECTID":190811},"geometry":{"x":164699.98000000138,"y":2544537.5999999996}},{"attributes":{"ID":190813,"DIS_CODE":0,"TOWNNAME":"安平區","LI":"石門里","LIN":"5鄰","STREET":"安北路","SECT":" ","MAREA":" ","LANE":"１６巷","ALLEY":"１７弄","HOUSE_NO":"１２號","E_COORD97":164707.03,"N_COORD97":2544554.9900000002,"ADDRESS":"安北路１６巷１７弄１２號","OBJECTID":190812},"geometry":{"x":164707.03000000026,"y":2544554.9900000021}},{"attributes":{"ID":190814,"DIS_CODE":0,"TOWNNAME":"安平區","LI":"石門里","LIN":"5鄰","STREET":"安北路","SECT":" ","MAREA":" ","LANE":"１６巷","ALLEY":"１７弄","HOUSE_NO":"１３號","E_COORD97":164697.41,"N_COORD97":2544539.9199999999,"ADDRESS":"安北路１６巷１７弄１３號","OBJECTID":190813},"geometry":{"x":164697.41000000015,"y":2544539.9200000037}},{"attributes":{"ID":190815,"DIS_CODE":0,"TOWNNAME":"安定區","LI":"港口里","LIN":"22鄰","STREET":" ","SECT":" ","MAREA":"港口","LANE":" ","ALLEY":" ","HOUSE_NO":"４１７號之３","E_COORD97":171733.12,"N_COORD97":2555035.2999999998,"ADDRESS":"港口４１７號之３","OBJECTID":190814},"geometry":{"x":171733.12000000011,"y":2555035.3000000026}},{"attributes":{"ID":190816,"DIS_CODE":0,"TOWNNAME":"安平區","LI":"石門里","LIN":"5鄰","STREET":"安北路","SECT":" ","MAREA":" ","LANE":"１６巷","ALLEY":"１７弄","HOUSE_NO":"１４號","E_COORD97":164705.75,"N_COORD97":2544557.5600000001,"ADDRESS":"安北路１６巷１７弄１４號","OBJECTID":190815},"geometry":{"x":164705.75,"y":2544557.5600000024}},{"attributes":{"ID":190817,"DIS_CODE":0,"TOWNNAME":"安平區","LI":"石門里","LIN":"5鄰","STREET":"安北路","SECT":" ","MAREA":" ","LANE":"１６巷","ALLEY":"１７弄","HOUSE_NO":"１６號","E_COORD97":164702.91,"N_COORD97":2544559.8799999999,"ADDRESS":"安北路１６巷１７弄１６號","OBJECTID":190816},"geometry":{"x":164702.91000000015,"y":2544559.8800000027}},{"attributes":{"ID":190818,"DIS_CODE":0,"TOWNNAME":"安平區","LI":"石門里","LIN":"5鄰","STREET":"安北路","SECT":" ","MAREA":" ","LANE":"１６巷","ALLEY":"１７弄","HOUSE_NO":"１７號","E_COORD97":164691.98999999999,"N_COORD97":2544546.1000000001,"ADDRESS":"安北路１６巷１７弄１７號","OBJECTID":190817},"geometry":{"x":164691.99000000022,"y":2544546.1000000015}},{"attributes":{"ID":190819,"DIS_CODE":0,"TOWNNAME":"安平區","LI":"石門里","LIN":"5鄰","STREET":"安北路","SECT":" ","MAREA":" ","LANE":"１６巷","ALLEY":"１７弄","HOUSE_NO":"１９號","E_COORD97":164684.51000000001,"N_COORD97":2544544.5499999998,"ADDRESS":"安北路１６巷１７弄１９號","OBJECTID":190818},"geometry":{"x":164684.50999999978,"y":2544544.5500000026}},{"attributes":{"ID":190820,"DIS_CODE":0,"TOWNNAME":"安平區","LI":"石門里","LIN":"5鄰","STREET":"安北路","SECT":" ","MAREA":" ","LANE":"１６巷","ALLEY":"１７弄","HOUSE_NO":"１號","E_COORD97":164714.17000000001,"N_COORD97":2544522.9100000001,"ADDRESS":"安北路１６巷１７弄１號","OBJECTID":190819},"geometry":{"x":164714.16999999993,"y":2544522.9100000001}},{"attributes":{"ID":190821,"DIS_CODE":0,"TOWNNAME":"永康區","LI":"網寮里","LIN":"21鄰","STREET":"永勝街","SECT":" ","MAREA":" ","LANE":" ","ALLEY":" ","HOUSE_NO":"３５號","E_COORD97":173601.75,"N_COORD97":2546265.2799999998,"ADDRESS":"永勝街３５號","OBJECTID":190820},"geometry":{"x":173601.75,"y":2546265.2799999993}},{"attributes":{"ID":190822,"DIS_CODE":0,"TOWNNAME":"永康區","LI":"復國里","LIN":"21鄰","STREET":"復華六街","SECT":" ","MAREA":" ","LANE":" ","ALLEY":" ","HOUSE_NO":"５５號","E_COORD97":172726.26000000001,"N_COORD97":2545835.02,"ADDRESS":"復華六街５５號","OBJECTID":190821},"geometry":{"x":172726.26000000071,"y":2545835.0200000014}},{"attributes":{"ID":190823,"DIS_CODE":0,"TOWNNAME":"安定區","LI":"港口里","LIN":"22鄰","STREET":" ","SECT":" ","MAREA":"港口","LANE":" ","ALLEY":" ","HOUSE_NO":"４１６號之１","E_COORD97":171736.13,"N_COORD97":2554896.2999999998,"ADDRESS":"港口４１６號之１","OBJECTID":190822},"geometry":{"x":171736.12999999989,"y":2554896.3000000026}},{"attributes":{"ID":190824,"DIS_CODE":0,"TOWNNAME":"安定區","LI":"港南里","LIN":"22鄰","STREET":" ","SECT":" ","MAREA":"港口","LANE":" ","ALLEY":" ","HOUSE_NO":"２００號之７","E_COORD97":171320.89999999999,"N_COORD97":2554565.2999999998,"ADDRESS":"港口２００號之７","OBJECTID":190823},"geometry":{"x":171320.90000000037,"y":2554565.3000000026}},{"attributes":{"ID":190825,"DIS_CODE":0,"TOWNNAME":"安定區","LI":"港南里","LIN":"22鄰","STREET":" ","SECT":" ","MAREA":"港口","LANE":" ","ALLEY":" ","HOUSE_NO":"１７９號","E_COORD97":171373.51699900001,"N_COORD97":2554518.2962400001,"ADDRESS":"港口１７９號","OBJECTID":190824},"geometry":{"x":171373.51699900161,"y":2554518.2962370012}},{"attributes":{"ID":190826,"DIS_CODE":0,"TOWNNAME":"安定區","LI":"港口里","LIN":"22鄰","STREET":" ","SECT":" ","MAREA":"港口","LANE":" ","ALLEY":" ","HOUSE_NO":"４１４號之４","E_COORD97":171702.64999999999,"N_COORD97":2555114.2999999998,"ADDRESS":"港口４１４號之４","OBJECTID":190825},"geometry":{"x":171702.65000000037,"y":2555114.3000000026}},{"attributes":{"ID":190827,"DIS_CODE":0,"TOWNNAME":"安定區","LI":"蘇林里","LIN":"22鄰","STREET":" ","SECT":" ","MAREA":"蘇厝","LANE":" ","ALLEY":" ","HOUSE_NO":"２４９之８號","E_COORD97":173279.42000000001,"N_COORD97":2558660.2999999998,"ADDRESS":"蘇厝２４９之８號","OBJECTID":190826},"geometry":{"x":173279.42000000086,"y":2558660.3000000026}},{"attributes":{"ID":190828,"DIS_CODE":0,"TOWNNAME":"安定區","LI":"港口里","LIN":"22鄰","STREET":" ","SECT":" ","MAREA":"港口","LANE":" ","ALLEY":" ","HOUSE_NO":"４０６之３號","E_COORD97":171612.48999999999,"N_COORD97":2555042.2999999998,"ADDRESS":"港口４０６之３號","OBJECTID":190827},"geometry":{"x":171612.49000000209,"y":2555042.3000000026}},{"attributes":{"ID":190829,"DIS_CODE":0,"TOWNNAME":"安定區","LI":"港南里","LIN":"22鄰","STREET":" ","SECT":" ","MAREA":"港口","LANE":" ","ALLEY":" ","HOUSE_NO":"１８１號之２","E_COORD97":171367.33209800001,"N_COORD97":2554512.2807499999,"ADDRESS":"港口１８１號之２","OBJECTID":190828},"geometry":{"x":171367.33209800161,"y":2554512.280749999}},{"attributes":{"ID":190830,"DIS_CODE":0,"TOWNNAME":"安定區","LI":"蘇林里","LIN":"22鄰","STREET":" ","SECT":" ","MAREA":"蘇厝","LANE":" ","ALLEY":" ","HOUSE_NO":"２４６之２號","E_COORD97":173300.01999999999,"N_COORD97":2558718.2999999998,"ADDRESS":"蘇厝２４６之２號","OBJECTID":190829},"geometry":{"x":173300.02000000142,"y":2558718.3000000026}},{"attributes":{"ID":190831,"DIS_CODE":0,"TOWNNAME":"永康區","LI":"\u25A0行里","LIN":"1鄰","STREET":"中正路","SECT":" ","MAREA":" ","LANE":" ","ALLEY":" ","HOUSE_NO":"９８６號","E_COORD97":171932.07000000001,"N_COORD97":2549018.25,"ADDRESS":"中正路９８６號","OBJECTID":190830},"geometry":{"x":171932.0700000003,"y":2549018.2500000019}},{"attributes":{"ID":190832,"DIS_CODE":0,"TOWNNAME":"永康區","LI":"大灣里","LIN":"21鄰","STREET":"大灣五街","SECT":" ","MAREA":" ","LANE":" ","ALLEY":" ","HOUSE_NO":"３７號","E_COORD97":174755.63,"N_COORD97":2545225.1600000001,"ADDRESS":"大灣五街３７號","OBJECTID":190831},"geometry":{"x":174755.62999999896,"y":2545225.160000002}},{"attributes":{"ID":190833,"DIS_CODE":0,"TOWNNAME":"安平區","LI":"石門里","LIN":"5鄰","STREET":"安北路","SECT":" ","MAREA":" ","LANE":"１６巷","ALLEY":"１７弄","HOUSE_NO":"２０號","E_COORD97":164696.20000000001,"N_COORD97":2544565.8100000001,"ADDRESS":"安北路１６巷１７弄２０號","OBJECTID":190832},"geometry":{"x":164696.19999999925,"y":2544565.8100000024}},{"attributes":{"ID":190834,"DIS_CODE":0,"TOWNNAME":"東區","LI":"崇德里","LIN":"21鄰","STREET":"崇德路","SECT":" ","MAREA":" ","LANE":" ","ALLEY":" ","HOUSE_NO":"４０６號","E_COORD97":170579.45000000001,"N_COORD97":2541753.27,"ADDRESS":"崇德路４０６號","OBJECTID":190833},"geometry":{"x":170579.45000000112,"y":2541753.2699999996}},{"attributes":{"ID":190835,"DIS_CODE":0,"TOWNNAME":"關廟區","LI":"新光里","LIN":"1鄰","STREET":"新湖街","SECT":" ","MAREA":" ","LANE":" ","ALLEY":" ","HOUSE_NO":"２５８號","E_COORD97":183031.27965800001,"N_COORD97":2542527.4826000002,"ADDRESS":"新湖街２５８號","OBJECTID":190834},"geometry":{"x":183031.27965799998,"y":2542527.4825960025}},{"attributes":{"ID":190836,"DIS_CODE":0,"TOWNNAME":"安平區","LI":"石門里","LIN":"5鄰","STREET":"安北路","SECT":" ","MAREA":" ","LANE":"１６巷","ALLEY":"１７弄","HOUSE_NO":"２１號","E_COORD97":164682.19,"N_COORD97":2544547.3900000001,"ADDRESS":"安北路１６巷１７弄２１號","OBJECTID":190835},"geometry":{"x":164682.19000000134,"y":2544547.3900000006}},{"attributes":{"ID":190837,"DIS_CODE":0,"TOWNNAME":"安平區","LI":"石門里","LIN":"5鄰","STREET":"安北路","SECT":" ","MAREA":" ","LANE":"１６巷","ALLEY":"１７弄","HOUSE_NO":"２２號","E_COORD97":164694.64999999999,"N_COORD97":2544568.3799999999,"ADDRESS":"安北路１６巷１７弄２２號","OBJECTID":190836},"geometry":{"x":164694.65000000037,"y":2544568.379999999}},{"attributes":{"ID":190838,"DIS_CODE":0,"TOWNNAME":"安平區","LI":"石門里","LIN":"5鄰","STREET":"安北路","SECT":" ","MAREA":" ","LANE":"１６巷","ALLEY":"１７弄","HOUSE_NO":"２３號","E_COORD97":164678.82999999999,"N_COORD97":2544549.96,"ADDRESS":"安北路１６巷１７弄２３號","OBJECTID":190837},"geometry":{"x":164678.83000000101,"y":2544549.9600000009}},{"attributes":{"ID":190839,"DIS_CODE":0,"TOWNNAME":"東區","LI":"崇德里","LIN":"21鄰","STREET":"崇德路","SECT":" ","MAREA":" ","LANE":" ","ALLEY":" ","HOUSE_NO":"４０８號","E_COORD97":170582.45999999999,"N_COORD97":2541750.9700000002,"ADDRESS":"崇德路４０８號","OBJECTID":190838},"geometry":{"x":170582.46000000089,"y":2541750.9700000025}},{"attributes":{"ID":190840,"DIS_CODE":0,"TOWNNAME":"東區","LI":"崇德里","LIN":"21鄰","STREET":"崇德路","SECT":" ","MAREA":" ","LANE":" ","ALLEY":" ","HOUSE_NO":"４１０號","E_COORD97":170586.53,"N_COORD97":2541748.4900000002,"ADDRESS":"崇德路４１０號","OBJECTID":190839},"geometry":{"x":170586.52999999933,"y":2541748.4900000002}},{"attributes":{"ID":190841,"DIS_CODE":0,"TOWNNAME":"安平區","LI":"石門里","LIN":"5鄰","STREET":"安北路","SECT":" ","MAREA":" ","LANE":"１６巷","ALLEY":"１７弄","HOUSE_NO":"２４號","E_COORD97":164684.59,"N_COORD97":2544575.6000000001,"ADDRESS":"安北路１６巷１７弄２４號","OBJECTID":190840},"geometry":{"x":164684.58999999985,"y":2544575.5999999978}},{"attributes":{"ID":190842,"DIS_CODE":0,"TOWNNAME":"安平區","LI":"石門里","LIN":"5鄰","STREET":"安北路","SECT":" ","MAREA":" ","LANE":"１６巷","ALLEY":"１７弄","HOUSE_NO":"２５號","E_COORD97":164676,"N_COORD97":2544552.7999999998,"ADDRESS":"安北路１６巷１７弄２５號","OBJECTID":190841},"geometry":{"x":164676.00000000093,"y":2544552.8000000026}},{"attributes":{"ID":190843,"DIS_CODE":0,"TOWNNAME":"安平區","LI":"石門里","LIN":"5鄰","STREET":"安北路","SECT":" ","MAREA":" ","LANE":"１６巷","ALLEY":"１７弄","HOUSE_NO":"２６號","E_COORD97":164682.79000000001,"N_COORD97":2544577.6600000001,"ADDRESS":"安北路１６巷１７弄２６號","OBJECTID":190842},"geometry":{"x":164682.79000000097,"y":2544577.6600000001}},{"attributes":{"ID":190844,"DIS_CODE":0,"TOWNNAME":"安平區","LI":"石門里","LIN":"5鄰","STREET":"安北路","SECT":" ","MAREA":" ","LANE":"１６巷","ALLEY":"１７弄","HOUSE_NO":"２７號","E_COORD97":164673.42000000001,"N_COORD97":2544555.6299999999,"ADDRESS":"安北路１６巷１７弄２７號","OBJECTID":190843},"geometry":{"x":164673.41999999993,"y":2544555.6300000008}},{"attributes":{"ID":190845,"DIS_CODE":0,"TOWNNAME":"安平區","LI":"石門里","LIN":"5鄰","STREET":"安北路","SECT":" ","MAREA":" ","LANE":"１６巷","ALLEY":"１７弄","HOUSE_NO":"２８號","E_COORD97":164679.42999999999,"N_COORD97":2544579.98,"ADDRESS":"安北路１６巷１７弄２８號","OBJECTID":190844},"geometry":{"x":164679.43000000063,"y":2544579.9800000004}},{"attributes":{"ID":190846,"DIS_CODE":0,"TOWNNAME":"安平區","LI":"石門里","LIN":"5鄰","STREET":"安北路","SECT":" ","MAREA":" ","LANE":"１６巷","ALLEY":"１７弄","HOUSE_NO":"２９號","E_COORD97":164670.84,"N_COORD97":2544558.7200000002,"ADDRESS":"安北路１６巷１７弄２９號","OBJECTID":190845},"geometry":{"x":164670.83999999985,"y":2544558.7200000007}},{"attributes":{"ID":190847,"DIS_CODE":0,"TOWNNAME":"安平區","LI":"石門里","LIN":"5鄰","STREET":"安北路","SECT":" ","MAREA":" ","LANE":"１６巷","ALLEY":"１７弄","HOUSE_NO":"２號","E_COORD97":164721.48000000001,"N_COORD97":2544540.0499999998,"ADDRESS":"安北路１６巷１７弄２號","OBJECTID":190846},"geometry":{"x":164721.48000000045,"y":2544540.0500000045}},{"attributes":{"ID":190848,"DIS_CODE":0,"TOWNNAME":"安平區","LI":"石門里","LIN":"5鄰","STREET":"安北路","SECT":" ","MAREA":" ","LANE":"１６巷","ALLEY":"１７弄","HOUSE_NO":"３０號","E_COORD97":164677.63,"N_COORD97":2544584.3599999999,"ADDRESS":"安北路１６巷１７弄３０號","OBJECTID":190847},"geometry":{"x":164677.62999999989,"y":2544584.3600000013}},{"attributes":{"ID":190849,"DIS_CODE":0,"TOWNNAME":"東區","LI":"崇德里","LIN":"21鄰","STREET":"崇德路","SECT":" ","MAREA":" ","LANE":" ","ALLEY":" ","HOUSE_NO":"４１２號","E_COORD97":170590.07000000001,"N_COORD97":2541744.4199999999,"ADDRESS":"崇德路４１２號","OBJECTID":190848},"geometry":{"x":170590.07000000123,"y":2541744.4200000018}},{"attributes":{"ID":190850,"DIS_CODE":0,"TOWNNAME":"東區","LI":"崇德里","LIN":"21鄰","STREET":"崇德路","SECT":" ","MAREA":" ","LANE":" ","ALLEY":" ","HOUSE_NO":"４１４號","E_COORD97":170594.5,"N_COORD97":2541743,"ADDRESS":"崇德路４１４號","OBJECTID":190849},"geometry":{"x":170594.5,"y":2541743.0000000019}},{"attributes":{"ID":190851,"DIS_CODE":0,"TOWNNAME":"永康區","LI":"\u25A0行里","LIN":"25鄰","STREET":"\u25A0和街","SECT":" ","MAREA":" ","LANE":" ","ALLEY":" ","HOUSE_NO":"２３８號","E_COORD97":171730.54000000001,"N_COORD97":2548231.4900000002,"ADDRESS":"\u25A0和街２３８號","OBJECTID":190850},"geometry":{"x":171730.5400000019,"y":2548231.4900000002}},{"attributes":{"ID":190852,"DIS_CODE":0,"TOWNNAME":"永康區","LI":"\u25A0行里","LIN":"43鄰","STREET":"\u25A0信街","SECT":" ","MAREA":" ","LANE":" ","ALLEY":" ","HOUSE_NO":"６１０號","E_COORD97":171560.92999999999,"N_COORD97":2548219.4900000002,"ADDRESS":"\u25A0信街６１０號","OBJECTID":190851},"geometry":{"x":171560.9299999997,"y":2548219.4900000021}},{"attributes":{"ID":190853,"DIS_CODE":0,"TOWNNAME":"永康區","LI":"\u25A0洲里","LIN":"7鄰","STREET":"三村二街","SECT":" ","MAREA":" ","LANE":" ","ALLEY":" ","HOUSE_NO":"１０號","E_COORD97":171985.04000000001,"N_COORD97":2549409,"ADDRESS":"三村二街１０號","OBJECTID":190852},"geometry":{"x":171985.04000000097,"y":2549409.0000000019}},{"attributes":{"ID":190854,"DIS_CODE":0,"TOWNNAME":"仁德區","LI":"一甲里","LIN":"20鄰","STREET":"太乙六街","SECT":" ","MAREA":" ","LANE":" ","ALLEY":" ","HOUSE_NO":"６３號","E_COORD97":173203.10999999999,"N_COORD97":2542236.75,"ADDRESS":"太乙六街６３號","OBJECTID":190853},"geometry":{"x":173203.11000000034,"y":2542236.7500000019}},{"attributes":{"ID":190855,"DIS_CODE":0,"TOWNNAME":"安定區","LI":"蘇林里","LIN":"22鄰","STREET":" ","SECT":" ","MAREA":"蘇厝","LANE":" ","ALLEY":" ","HOUSE_NO":"２４７號","E_COORD97":173278.82000000001,"N_COORD97":2558699.25,"ADDRESS":"蘇厝２４７號","OBJECTID":190854},"geometry":{"x":173278.82000000123,"y":2558699.2499999981}},{"attributes":{"ID":190856,"DIS_CODE":0,"TOWNNAME":"安定區","LI":"港口里","LIN":"22鄰","STREET":" ","SECT":" ","MAREA":"港口","LANE":" ","ALLEY":" ","HOUSE_NO":"４１４號之５","E_COORD97":171452.98000000001,"N_COORD97":2555342.2999999998,"ADDRESS":"港口４１４號之５","OBJECTID":190855},"geometry":{"x":171452.98000000045,"y":2555342.3000000007}},{"attributes":{"ID":190857,"DIS_CODE":0,"TOWNNAME":"安定區","LI":"蘇林里","LIN":"22鄰","STREET":" ","SECT":" ","MAREA":"蘇厝","LANE":" ","ALLEY":" ","HOUSE_NO":"２４８之２號","E_COORD97":173309.92000000001,"N_COORD97":2558669.2999999998,"ADDRESS":"蘇厝２４８之２號","OBJECTID":190856},"geometry":{"x":173309.92000000086,"y":2558669.3000000045}},{"attributes":{"ID":190858,"DIS_CODE":0,"TOWNNAME":"安定區","LI":"港南里","LIN":"22鄰","STREET":" ","SECT":" ","MAREA":"港口","LANE":" ","ALLEY":" ","HOUSE_NO":"１９０號","E_COORD97":171353.09,"N_COORD97":2554532.25,"ADDRESS":"港口１９０號","OBJECTID":190857},"geometry":{"x":171353.08999999985,"y":2554532.25}},{"attributes":{"ID":190859,"DIS_CODE":0,"TOWNNAME":"安定區","LI":"蘇林里","LIN":"22鄰","STREET":" ","SECT":" ","MAREA":"蘇厝","LANE":" ","ALLEY":" ","HOUSE_NO":"２４９之５號","E_COORD97":173281.62,"N_COORD97":2558645.2999999998,"ADDRESS":"蘇厝２４９之５號","OBJECTID":190858},"geometry":{"x":173281.62000000104,"y":2558645.3000000007}},{"attributes":{"ID":190860,"DIS_CODE":0,"TOWNNAME":"安定區","LI":"港口里","LIN":"22鄰","STREET":" ","SECT":" ","MAREA":"港口","LANE":" ","ALLEY":" ","HOUSE_NO":"４０６號","E_COORD97":171601.29000000001,"N_COORD97":2555076.25,"ADDRESS":"港口４０６號","OBJECTID":190859},"geometry":{"x":171601.29000000004,"y":2555076.2500000019}},{"attributes":{"ID":190861,"DIS_CODE":0,"TOWNNAME":"安定區","LI":"港南里","LIN":"22鄰","STREET":" ","SECT":" ","MAREA":"港口","LANE":" ","ALLEY":" ","HOUSE_NO":"１８１之１號","E_COORD97":171377.19,"N_COORD97":2554521.2999999998,"ADDRESS":"港口１８１之１號","OBJECTID":190860},"geometry":{"x":171377.19000000041,"y":2554521.3000000026}},{"attributes":{"ID":190862,"DIS_CODE":0,"TOWNNAME":"安定區","LI":"港南里","LIN":"22鄰","STREET":" ","SECT":" ","MAREA":"港口","LANE":" ","ALLEY":" ","HOUSE_NO":"１９８之３號","E_COORD97":171314.79000000001,"N_COORD97":2554510.2999999998,"ADDRESS":"港口１９８之３號","OBJECTID":190861},"geometry":{"x":171314.79000000004,"y":2554510.3000000026}},{"attributes":{"ID":190863,"DIS_CODE":0,"TOWNNAME":"安定區","LI":"港南里","LIN":"22鄰","STREET":" ","SECT":" ","MAREA":"港口","LANE":" ","ALLEY":" ","HOUSE_NO":"１８７號","E_COORD97":171364.41970699999,"N_COORD97":2554510.0053300001,"ADDRESS":"港口１８７號","OBJECTID":190862},"geometry":{"x":171364.41970700026,"y":2554510.0053339992}},{"attributes":{"ID":190864,"DIS_CODE":0,"TOWNNAME":"安平區","LI":"石門里","LIN":"5鄰","STREET":"安北路","SECT":" ","MAREA":" ","LANE":"１６巷","ALLEY":"１７弄","HOUSE_NO":"３１號","E_COORD97":164668.41,"N_COORD97":2544560.8700000001,"ADDRESS":"安北路１６巷１７弄３１號","OBJECTID":190863},"geometry":{"x":164668.41000000108,"y":2544560.870000001}},{"attributes":{"ID":190865,"DIS_CODE":0,"TOWNNAME":"安平區","LI":"石門里","LIN":"5鄰","STREET":"安北路","SECT":" ","MAREA":" ","LANE":"１６巷","ALLEY":"１７弄","HOUSE_NO":"３１號之１","E_COORD97":164660.51999999999,"N_COORD97":2544569.2200000002,"ADDRESS":"安北路１６巷１７弄３１號之１","OBJECTID":190864},"geometry":{"x":164660.51999999955,"y":2544569.2200000044}},{"attributes":{"ID":190866,"DIS_CODE":0,"TOWNNAME":"安平區","LI":"石門里","LIN":"5鄰","STREET":"安北路","SECT":" ","MAREA":" ","LANE":"１６巷","ALLEY":"１７弄","HOUSE_NO":"３１號之２","E_COORD97":164662.84,"N_COORD97":2544566.8999999999,"ADDRESS":"安北路１６巷１７弄３１號之２","OBJECTID":190865},"geometry":{"x":164662.84000000171,"y":2544566.9000000004}},{"attributes":{"ID":190867,"DIS_CODE":0,"TOWNNAME":"七股區","LI":"龍山里","LIN":"22鄰","STREET":" ","SECT":" ","MAREA":"龍山","LANE":" ","ALLEY":" ","HOUSE_NO":"２２５號之３","E_COORD97":156656.98000000001,"N_COORD97":2558237.6899999999,"ADDRESS":"龍山２２５號之３","OBJECTID":190866},"geometry":{"x":156656.98000000045,"y":2558237.6899999995}},{"attributes":{"ID":190868,"DIS_CODE":0,"TOWNNAME":"安平區","LI":"石門里","LIN":"5鄰","STREET":"安北路","SECT":" ","MAREA":" ","LANE":"１６巷","ALLEY":"１７弄","HOUSE_NO":"３１號之３","E_COORD97":164665.16,"N_COORD97":2544563.1000000001,"ADDRESS":"安北路１６巷１７弄３１號之３","OBJECTID":190867},"geometry":{"x":164665.16000000108,"y":2544563.1000000015}},{"attributes":{"ID":190869,"DIS_CODE":0,"TOWNNAME":"安平區","LI":"石門里","LIN":"5鄰","STREET":"安北路","SECT":" ","MAREA":" ","LANE":"１６巷","ALLEY":"１７弄","HOUSE_NO":"３２號","E_COORD97":164674.53,"N_COORD97":2544587.1899999999,"ADDRESS":"安北路１６巷１７弄３２號","OBJECTID":190868},"geometry":{"x":164674.53000000119,"y":2544587.1899999995}},{"attributes":{"ID":190870,"DIS_CODE":0,"TOWNNAME":"安平區","LI":"石門里","LIN":"5鄰","STREET":"安北路","SECT":" ","MAREA":" ","LANE":"１６巷","ALLEY":"１７弄","HOUSE_NO":"３３號","E_COORD97":164654.07000000001,"N_COORD97":2544575.9199999999,"ADDRESS":"安北路１６巷１７弄３３號","OBJECTID":190869},"geometry":{"x":164654.07000000123,"y":2544575.9199999999}},{"attributes":{"ID":190871,"DIS_CODE":0,"TOWNNAME":"安平區","LI":"石門里","LIN":"5鄰","STREET":"安北路","SECT":" ","MAREA":" ","LANE":"１６巷","ALLEY":"１７弄","HOUSE_NO":"３５號","E_COORD97":164653.04000000001,"N_COORD97":2544580.2999999998,"ADDRESS":"安北路１６巷１７弄３５號","OBJECTID":190870},"geometry":{"x":164653.03999999911,"y":2544580.3000000026}},{"attributes":{"ID":190872,"DIS_CODE":0,"TOWNNAME":"安平區","LI":"石門里","LIN":"5鄰","STREET":"安北路","SECT":" ","MAREA":" ","LANE":"１６巷","ALLEY":"１７弄","HOUSE_NO":"３６號","E_COORD97":164670.14999999999,"N_COORD97":2544592.6000000001,"ADDRESS":"安北路１６巷１７弄３６號","OBJECTID":190871},"geometry":{"x":164670.1500000013,"y":2544592.5999999978}},{"attributes":{"ID":190873,"DIS_CODE":0,"TOWNNAME":"安平區","LI":"石門里","LIN":"5鄰","STREET":"安北路","SECT":" ","MAREA":" ","LANE":"１６巷","ALLEY":"１７弄","HOUSE_NO":"３７號","E_COORD97":164649.17000000001,"N_COORD97":2544582.3599999999,"ADDRESS":"安北路１６巷１７弄３７號","OBJECTID":190872},"geometry":{"x":164649.17000000086,"y":2544582.3599999994}},{"attributes":{"ID":190874,"DIS_CODE":0,"TOWNNAME":"安平區","LI":"石門里","LIN":"5鄰","STREET":"安北路","SECT":" ","MAREA":" ","LANE":"１６巷","ALLEY":"１７弄","HOUSE_NO":"３８號","E_COORD97":164667.31,"N_COORD97":2544595.6899999999,"ADDRESS":"安北路１６巷１７弄３８號","OBJECTID":190873},"geometry":{"x":164667.30999999959,"y":2544595.6900000013}},{"attributes":{"ID":190875,"DIS_CODE":0,"TOWNNAME":"安平區","LI":"石門里","LIN":"5鄰","STREET":"安北路","SECT":" ","MAREA":" ","LANE":"１６巷","ALLEY":"１７弄","HOUSE_NO":"３９號","E_COORD97":164646.85000000001,"N_COORD97":2544586.48,"ADDRESS":"安北路１６巷１７弄３９號","OBJECTID":190874},"geometry":{"x":164646.84999999963,"y":2544586.4800000004}},{"attributes":{"ID":190876,"DIS_CODE":0,"TOWNNAME":"永康區","LI":"\u25A0行里","LIN":"3鄰","STREET":"中正路","SECT":" ","MAREA":" ","LANE":" ","ALLEY":" ","HOUSE_NO":"８７０號","E_COORD97":172097.38,"N_COORD97":2548811.0499999998,"ADDRESS":"中正路８７０號","OBJECTID":190875},"geometry":{"x":172097.37999999989,"y":2548811.0500000007}},{"attributes":{"ID":190877,"DIS_CODE":0,"TOWNNAME":"永康區","LI":"\u25A0洲里","LIN":"36鄰","STREET":"\u25A0洲二街","SECT":" ","MAREA":" ","LANE":" ","ALLEY":" ","HOUSE_NO":"１８３號","E_COORD97":171734.48999999999,"N_COORD97":2549420,"ADDRESS":"\u25A0洲二街１８３號","OBJECTID":190876},"geometry":{"x":171734.49000000209,"y":2549420.0000000019}},{"attributes":{"ID":190878,"DIS_CODE":0,"TOWNNAME":"永康區","LI":"\u25A0行里","LIN":"18鄰","STREET":"中正南路","SECT":" ","MAREA":" ","LANE":" ","ALLEY":" ","HOUSE_NO":"６７８號","E_COORD97":171597.84,"N_COORD97":2548833.25,"ADDRESS":"中正南路６７８號","OBJECTID":190877},"geometry":{"x":171597.84000000171,"y":2548833.2499999981}},{"attributes":{"ID":190879,"DIS_CODE":0,"TOWNNAME":"永康區","LI":"\u25A0行里","LIN":"42鄰","STREET":"永安二街","SECT":" ","MAREA":" ","LANE":" ","ALLEY":" ","HOUSE_NO":"２２號","E_COORD97":172439.48999999999,"N_COORD97":2549612.3100000001,"ADDRESS":"永安二街２２號","OBJECTID":190878},"geometry":{"x":172439.49000000022,"y":2549612.3100000005}},{"attributes":{"ID":190880,"DIS_CODE":0,"TOWNNAME":"大內區","LI":"頭社里","LIN":"3鄰","STREET":" ","SECT":" ","MAREA":"頭社","LANE":" ","ALLEY":" ","HOUSE_NO":"３６號","E_COORD97":187089.14000000001,"N_COORD97":2560305.25,"ADDRESS":"頭社３６號","OBJECTID":190879},"geometry":{"x":187089.13999999966,"y":2560305.25}},{"attributes":{"ID":190881,"DIS_CODE":0,"TOWNNAME":"永康區","LI":"\u25A0行里","LIN":"44鄰","STREET":"\u25A0和街","SECT":" ","MAREA":" ","LANE":" ","ALLEY":" ","HOUSE_NO":"２２６號","E_COORD97":171788.53,"N_COORD97":2548146.7400000002,"ADDRESS":"\u25A0和街２２６號","OBJECTID":190880},"geometry":{"x":171788.53000000212,"y":2548146.7400000021}},{"attributes":{"ID":190882,"DIS_CODE":0,"TOWNNAME":"東區","LI":"莊敬里","LIN":"21鄰","STREET":"莊敬路","SECT":" ","MAREA":" ","LANE":" ","ALLEY":" ","HOUSE_NO":"１３８號","E_COORD97":171377.89999999999,"N_COORD97":2544046.9500000002,"ADDRESS":"莊敬路１３８號","OBJECTID":190881},"geometry":{"x":171377.9000000013,"y":2544046.9499999993}},{"attributes":{"ID":190883,"DIS_CODE":0,"TOWNNAME":"東區","LI":"莊敬里","LIN":"21鄰","STREET":"莊敬路","SECT":" ","MAREA":" ","LANE":" ","ALLEY":" ","HOUSE_NO":"１４４號","E_COORD97":171378.95999999999,"N_COORD97":2544059.5499999998,"ADDRESS":"莊敬路１４４號","OBJECTID":190882},"geometry":{"x":171378.96000000089,"y":2544059.5500000026}},{"attributes":{"ID":190884,"DIS_CODE":0,"TOWNNAME":"東區","LI":"莊敬里","LIN":"21鄰","STREET":"莊敬路","SECT":" ","MAREA":" ","LANE":" ","ALLEY":" ","HOUSE_NO":"１４６號","E_COORD97":171379.28,"N_COORD97":2544063.29,"ADDRESS":"莊敬路１４６號","OBJECTID":190883},"geometry":{"x":171379.28000000026,"y":2544063.290000001}},{"attributes":{"ID":190885,"DIS_CODE":0,"TOWNNAME":"東區","LI":"莊敬里","LIN":"21鄰","STREET":"莊敬路","SECT":" ","MAREA":" ","LANE":" ","ALLEY":" ","HOUSE_NO":"１４８號","E_COORD97":171379.45000000001,"N_COORD97":2544067.5899999999,"ADDRESS":"莊敬路１４８號","OBJECTID":190884},"geometry":{"x":171379.45000000112,"y":2544067.5900000036}},{"attributes":{"ID":190886,"DIS_CODE":0,"TOWNNAME":"東區","LI":"莊敬里","LIN":"21鄰","STREET":"莊敬路","SECT":" ","MAREA":" ","LANE":" ","ALLEY":" ","HOUSE_NO":"１５０號","E_COORD97":171380.57999999999,"N_COORD97":2544071.8999999999,"ADDRESS":"莊敬路１５０號","OBJECTID":190885},"geometry":{"x":171380.58000000007,"y":2544071.9000000004}},{"attributes":{"ID":190887,"DIS_CODE":0,"TOWNNAME":"仁德區","LI":"一甲里","LIN":"20鄰","STREET":"太新路","SECT":" ","MAREA":" ","LANE":" ","ALLEY":" ","HOUSE_NO":"１５號","E_COORD97":173211.47,"N_COORD97":2542308.0099999998,"ADDRESS":"太新路１５號","OBJECTID":190886},"geometry":{"x":173211.47000000067,"y":2542308.0099999998}},{"attributes":{"ID":190888,"DIS_CODE":0,"TOWNNAME":"仁德區","LI":"一甲里","LIN":"20鄰","STREET":"太乙七街","SECT":" ","MAREA":" ","LANE":" ","ALLEY":" ","HOUSE_NO":"４８號","E_COORD97":173064.89000000001,"N_COORD97":2542113,"ADDRESS":"太乙七街４８號","OBJECTID":190887},"geometry":{"x":173064.88999999966,"y":2542113.0000000019}},{"attributes":{"ID":190889,"DIS_CODE":0,"TOWNNAME":"安定區","LI":"港口里","LIN":"22鄰","STREET":" ","SECT":" ","MAREA":"港口","LANE":" ","ALLEY":" ","HOUSE_NO":"４１８號","E_COORD97":171734.98999999999,"N_COORD97":2555069.25,"ADDRESS":"港口４１８號","OBJECTID":190888},"geometry":{"x":171734.99000000115,"y":2555069.2500000019}},{"attributes":{"ID":190890,"DIS_CODE":0,"TOWNNAME":"安定區","LI":"蘇林里","LIN":"22鄰","STREET":" ","SECT":" ","MAREA":"蘇厝","LANE":" ","ALLEY":" ","HOUSE_NO":"２４９之２號","E_COORD97":173282.92000000001,"N_COORD97":2558636.2999999998,"ADDRESS":"蘇厝２４９之２號","OBJECTID":190889},"geometry":{"x":173282.92000000086,"y":2558636.3000000026}},{"attributes":{"ID":190891,"DIS_CODE":0,"TOWNNAME":"安定區","LI":"港南里","LIN":"22鄰","STREET":" ","SECT":" ","MAREA":"港口","LANE":" ","ALLEY":" ","HOUSE_NO":"１８０之１號","E_COORD97":171362.19,"N_COORD97":2554541.2999999998,"ADDRESS":"港口１８０之１號","OBJECTID":190890},"geometry":{"x":171362.19000000227,"y":2554541.3000000026}},{"attributes":{"ID":190892,"DIS_CODE":0,"TOWNNAME":"安定區","LI":"蘇林里","LIN":"22鄰","STREET":" ","SECT":" ","MAREA":"蘇厝","LANE":" ","ALLEY":" ","HOUSE_NO":"２４９之３號","E_COORD97":173282.22,"N_COORD97":2558641.2999999998,"ADDRESS":"蘇厝２４９之３號","OBJECTID":190891},"geometry":{"x":173282.22000000067,"y":2558641.3000000007}},{"attributes":{"ID":190893,"DIS_CODE":0,"TOWNNAME":"安定區","LI":"蘇林里","LIN":"22鄰","STREET":" ","SECT":" ","MAREA":"蘇厝","LANE":" ","ALLEY":" ","HOUSE_NO":"２５０之１號","E_COORD97":173305.04999999999,"N_COORD97":2558605.2999999998,"ADDRESS":"蘇厝２５０號之１","OBJECTID":190892},"geometry":{"x":173305.05000000168,"y":2558605.3000000026}},{"attributes":{"ID":190894,"DIS_CODE":0,"TOWNNAME":"安定區","LI":"港口里","LIN":"22鄰","STREET":" ","SECT":" ","MAREA":"港口","LANE":" ","ALLEY":" ","HOUSE_NO":"４１４之７號","E_COORD97":171627.79000000001,"N_COORD97":2555303.2999999998,"ADDRESS":"港口４１４之７號","OBJECTID":190893},"geometry":{"x":171627.79000000097,"y":2555303.3000000026}},{"attributes":{"ID":190895,"DIS_CODE":0,"TOWNNAME":"安定區","LI":"港口里","LIN":"22鄰","STREET":" ","SECT":" ","MAREA":"港口","LANE":" ","ALLEY":" ","HOUSE_NO":"４２０號","E_COORD97":171736.59,"N_COORD97":2555102.25,"ADDRESS":"港口４２０號","OBJECTID":190894},"geometry":{"x":171736.58999999985,"y":2555102.2500000037}},{"attributes":{"ID":190896,"DIS_CODE":0,"TOWNNAME":"安定區","LI":"蘇厝里","LIN":"22鄰","STREET":" ","SECT":" ","MAREA":"蘇厝","LANE":" ","ALLEY":" ","HOUSE_NO":"５１６號","E_COORD97":172666.32000000001,"N_COORD97":2558773.25,"ADDRESS":"蘇厝５１６號","OBJECTID":190895},"geometry":{"x":172666.31999999937,"y":2558773.25}},{"attributes":{"ID":190897,"DIS_CODE":0,"TOWNNAME":"安定區","LI":"蘇厝里","LIN":"22鄰","STREET":" ","SECT":" ","MAREA":"蘇厝","LANE":" ","ALLEY":" ","HOUSE_NO":"５１７號","E_COORD97":172667.22,"N_COORD97":2558766.25,"ADDRESS":"蘇厝５１７號","OBJECTID":190896},"geometry":{"x":172667.22000000067,"y":2558766.25}},{"attributes":{"ID":190898,"DIS_CODE":0,"TOWNNAME":"安定區","LI":"港口里","LIN":"22鄰","STREET":" ","SECT":" ","MAREA":"港口","LANE":" ","ALLEY":" ","HOUSE_NO":"４０９之７號","E_COORD97":171697.89000000001,"N_COORD97":2555033.2999999998,"ADDRESS":"港口４０９之７號","OBJECTID":190897},"geometry":{"x":171697.8900000006,"y":2555033.3000000007}},{"attributes":{"ID":190899,"DIS_CODE":0,"TOWNNAME":"安定區","LI":"蘇厝里","LIN":"22鄰","STREET":" ","SECT":" ","MAREA":"蘇厝","LANE":" ","ALLEY":" ","HOUSE_NO":"５１０號","E_COORD97":172668.10245499999,"N_COORD97":2558800.2702700002,"ADDRESS":"蘇厝５１０號","OBJECTID":190898},"geometry":{"x":172668.10245500226,"y":2558800.2702730019}},{"attributes":{"ID":190900,"DIS_CODE":0,"TOWNNAME":"安定區","LI":"蘇厝里","LIN":"22鄰","STREET":" ","SECT":" ","MAREA":"蘇厝","LANE":" ","ALLEY":" ","HOUSE_NO":"５１４號","E_COORD97":172665.32000000001,"N_COORD97":2558782.25,"ADDRESS":"蘇厝５１４號","OBJECTID":190899},"geometry":{"x":172665.32000000123,"y":2558782.2500000019}},{"attributes":{"ID":190901,"DIS_CODE":0,"TOWNNAME":"七股區","LI":"龍山里","LIN":"22鄰","STREET":" ","SECT":" ","MAREA":"龍山","LANE":" ","ALLEY":" ","HOUSE_NO":"２２５號之４","E_COORD97":158137.92999999999,"N_COORD97":2558353.71,"ADDRESS":"龍山２２５號之４","OBJECTID":190900},"geometry":{"x":158137.93000000063,"y":2558353.7100000009}},{"attributes":{"ID":190902,"DIS_CODE":0,"TOWNNAME":"安平區","LI":"石門里","LIN":"5鄰","STREET":"安北路","SECT":" ","MAREA":" ","LANE":"１６巷","ALLEY":"１７弄","HOUSE_NO":"３號","E_COORD97":164712.88,"N_COORD97":2544526.7799999998,"ADDRESS":"安北路１６巷１７弄３號","OBJECTID":190901},"geometry":{"x":164712.87999999989,"y":2544526.7800000031}},{"attributes":{"ID":190903,"DIS_CODE":0,"TOWNNAME":"安平區","LI":"石門里","LIN":"5鄰","STREET":"安北路","SECT":" ","MAREA":" ","LANE":"１６巷","ALLEY":"１７弄","HOUSE_NO":"４０號","E_COORD97":164663.44,"N_COORD97":2544598.7799999998,"ADDRESS":"安北路１６巷１７弄４０號","OBJECTID":190902},"geometry":{"x":164663.44000000134,"y":2544598.7800000012}},{"attributes":{"ID":190904,"DIS_CODE":0,"TOWNNAME":"安平區","LI":"石門里","LIN":"5鄰","STREET":"安北路","SECT":" ","MAREA":" ","LANE":"１６巷","ALLEY":"１７弄","HOUSE_NO":"４１號","E_COORD97":164643.75,"N_COORD97":2544588.7999999998,"ADDRESS":"安北路１６巷１７弄４１號","OBJECTID":190903},"geometry":{"x":164643.75000000093,"y":2544588.8000000007}},{"attributes":{"ID":190905,"DIS_CODE":0,"TOWNNAME":"安平區","LI":"石門里","LIN":"5鄰","STREET":"安北路","SECT":" ","MAREA":" ","LANE":"１６巷","ALLEY":"１７弄","HOUSE_NO":"４２號","E_COORD97":164655.75,"N_COORD97":2544607.3500000001,"ADDRESS":"安北路１６巷１７弄４２號","OBJECTID":190904},"geometry":{"x":164655.75000000093,"y":2544607.3499999996}},{"attributes":{"ID":190906,"DIS_CODE":0,"TOWNNAME":"安平區","LI":"石門里","LIN":"5鄰","STREET":"安北路","SECT":" ","MAREA":" ","LANE":"１６巷","ALLEY":"１７弄","HOUSE_NO":"４５號","E_COORD97":164621.10999999999,"N_COORD97":2544612.6099999999,"ADDRESS":"安北路１６巷１７弄４５號","OBJECTID":190905},"geometry":{"x":164621.11000000127,"y":2544612.6099999975}},{"attributes":{"ID":190907,"DIS_CODE":0,"TOWNNAME":"安平區","LI":"石門里","LIN":"5鄰","STREET":"安北路","SECT":" ","MAREA":" ","LANE":"１６巷","ALLEY":"１７弄","HOUSE_NO":"４６號","E_COORD97":164651.37,"N_COORD97":2544612.7599999998,"ADDRESS":"安北路１６巷１７弄４６號","OBJECTID":190906},"geometry":{"x":164651.37000000104,"y":2544612.7600000016}},{"attributes":{"ID":190908,"DIS_CODE":0,"TOWNNAME":"安平區","LI":"石門里","LIN":"5鄰","STREET":"安北路","SECT":" ","MAREA":" ","LANE":"１６巷","ALLEY":"１７弄","HOUSE_NO":"４８號","E_COORD97":164649.04999999999,"N_COORD97":2544616.1099999999,"ADDRESS":"安北路１６巷１７弄４８號","OBJECTID":190907},"geometry":{"x":164649.04999999981,"y":2544616.1100000031}},{"attributes":{"ID":190909,"DIS_CODE":0,"TOWNNAME":"安平區","LI":"石門里","LIN":"5鄰","STREET":"安北路","SECT":" ","MAREA":" ","LANE":"１６巷","ALLEY":"１７弄","HOUSE_NO":"４號","E_COORD97":164718.64000000001,"N_COORD97":2544544.6800000002,"ADDRESS":"安北路１６巷１７弄４號","OBJECTID":190908},"geometry":{"x":164718.6400000006,"y":2544544.6799999978}},{"attributes":{"ID":190910,"DIS_CODE":0,"TOWNNAME":"安平區","LI":"石門里","LIN":"5鄰","STREET":"安北路","SECT":" ","MAREA":" ","LANE":"１６巷","ALLEY":"１７弄","HOUSE_NO":"５０號","E_COORD97":164646.20999999999,"N_COORD97":2544618.4300000002,"ADDRESS":"安北路１６巷１７弄５０號","OBJECTID":190909},"geometry":{"x":164646.20999999996,"y":2544618.4300000016}},{"attributes":{"ID":190911,"DIS_CODE":0,"TOWNNAME":"安平區","LI":"石門里","LIN":"5鄰","STREET":"安北路","SECT":" ","MAREA":" ","LANE":"１６巷","ALLEY":"１７弄","HOUSE_NO":"５２號","E_COORD97":164642.60000000001,"N_COORD97":2544621.2599999998,"ADDRESS":"安北路１６巷１７弄５２號","OBJECTID":190910},"geometry":{"x":164642.60000000056,"y":2544621.2599999998}},{"attributes":{"ID":190912,"DIS_CODE":0,"TOWNNAME":"安平區","LI":"石門里","LIN":"5鄰","STREET":"安北路","SECT":" ","MAREA":" ","LANE":"１６巷","ALLEY":"１７弄","HOUSE_NO":"５４號","E_COORD97":164640.01999999999,"N_COORD97":2544624.3500000001,"ADDRESS":"安北路１６巷１７弄５４號","OBJECTID":190911},"geometry":{"x":164640.02000000048,"y":2544624.3499999996}},{"attributes":{"ID":190913,"DIS_CODE":0,"TOWNNAME":"安平區","LI":"石門里","LIN":"5鄰","STREET":"安北路","SECT":" ","MAREA":" ","LANE":"１６巷","ALLEY":"１７弄","HOUSE_NO":"５６號","E_COORD97":164636.92000000001,"N_COORD97":2544626.4100000001,"ADDRESS":"安北路１６巷１７弄５６號","OBJECTID":190912},"geometry":{"x":164636.92000000179,"y":2544626.410000002}},{"attributes":{"ID":190914,"DIS_CODE":0,"TOWNNAME":"安平區","LI":"石門里","LIN":"5鄰","STREET":"安北路","SECT":" ","MAREA":" ","LANE":"１６巷","ALLEY":"１７弄","HOUSE_NO":"５８號","E_COORD97":164633.82999999999,"N_COORD97":2544628.9900000002,"ADDRESS":"安北路１６巷１７弄５８號","OBJECTID":190913},"geometry":{"x":164633.83000000007,"y":2544628.9900000021}},{"attributes":{"ID":190915,"DIS_CODE":0,"TOWNNAME":"安平區","LI":"石門里","LIN":"5鄰","STREET":"安北路","SECT":" ","MAREA":" ","LANE":"１６巷","ALLEY":"１７弄","HOUSE_NO":"５號","E_COORD97":164709.26999999999,"N_COORD97":2544529.1000000001,"ADDRESS":"安北路１６巷１７弄５號","OBJECTID":190914},"geometry":{"x":164709.27000000048,"y":2544529.1000000015}},{"attributes":{"ID":190916,"DIS_CODE":0,"TOWNNAME":"安平區","LI":"石門里","LIN":"5鄰","STREET":"安北路","SECT":" ","MAREA":" ","LANE":"１６巷","ALLEY":"１７弄","HOUSE_NO":"６號","E_COORD97":164715.29000000001,"N_COORD97":2544546.7400000002,"ADDRESS":"安北路１６巷１７弄６號","OBJECTID":190915},"geometry":{"x":164715.29000000004,"y":2544546.7400000002}},{"attributes":{"ID":190917,"DIS_CODE":0,"TOWNNAME":"安平區","LI":"石門里","LIN":"5鄰","STREET":"安北路","SECT":" ","MAREA":" ","LANE":"１６巷","ALLEY":"１７弄","HOUSE_NO":"７號","E_COORD97":164705.39999999999,"N_COORD97":2544531.6699999999,"ADDRESS":"安北路１６巷１７弄７號","OBJECTID":190916},"geometry":{"x":164705.40000000224,"y":2544531.6700000037}},{"attributes":{"ID":190918,"DIS_CODE":0,"TOWNNAME":"歸仁區","LI":"媽廟里","LIN":"5鄰","STREET":"中正北路","SECT":"三段","MAREA":" ","LANE":"２０５巷","ALLEY":"１１弄","HOUSE_NO":"４１號","E_COORD97":177542.45999999999,"N_COORD97":2543782.7200000002,"ADDRESS":"中正北路三段２０５巷１１弄４１號","OBJECTID":190917},"geometry":{"x":177542.46000000089,"y":2543782.7200000044}},{"attributes":{"ID":190919,"DIS_CODE":0,"TOWNNAME":"歸仁區","LI":"辜厝里","LIN":"5鄰","STREET":"大順街","SECT":" ","MAREA":" ","LANE":"７０巷","ALLEY":"２３弄","HOUSE_NO":"３號","E_COORD97":177315.70999999999,"N_COORD97":2540640.54,"ADDRESS":"大順街７０巷２３弄３號","OBJECTID":190918},"geometry":{"x":177315.71000000089,"y":2540640.540000001}},{"attributes":{"ID":190920,"DIS_CODE":0,"TOWNNAME":"永康區","LI":"\u25A0行里","LIN":"29鄰","STREET":"竹林街","SECT":" ","MAREA":" ","LANE":"２４巷","ALLEY":" ","HOUSE_NO":"７號之１０","E_COORD97":172696.04000000001,"N_COORD97":2548930.8599999999,"ADDRESS":"竹林街２４巷７號之１０","OBJECTID":190919},"geometry":{"x":172696.04000000004,"y":2548930.8600000013}},{"attributes":{"ID":190921,"DIS_CODE":0,"TOWNNAME":"東區","LI":"崇明里","LIN":"15鄰","STREET":"崇明路","SECT":" ","MAREA":" ","LANE":" ","ALLEY":" ","HOUSE_NO":"４８８號","E_COORD97":170372.98999999999,"N_COORD97":2541599.8500000001,"ADDRESS":"崇明路４８８號","OBJECTID":190920},"geometry":{"x":170372.99000000022,"y":2541599.8499999996}},{"attributes":{"ID":190922,"DIS_CODE":0,"TOWNNAME":"東區","LI":"崇明里","LIN":"15鄰","STREET":"崇明路","SECT":" ","MAREA":" ","LANE":" ","ALLEY":" ","HOUSE_NO":"４９０號","E_COORD97":170376.38,"N_COORD97":2541597.1699999999,"ADDRESS":"崇明路４９０號","OBJECTID":190921},"geometry":{"x":170376.37999999989,"y":2541597.1700000018}},{"attributes":{"ID":190923,"DIS_CODE":0,"TOWNNAME":"東區","LI":"崇明里","LIN":"15鄰","STREET":"崇明路","SECT":" ","MAREA":" ","LANE":" ","ALLEY":" ","HOUSE_NO":"４９２號","E_COORD97":170379.91,"N_COORD97":2541594.6299999999,"ADDRESS":"崇明路４９２號","OBJECTID":190922},"geometry":{"x":170379.91000000015,"y":2541594.6300000027}},{"attributes":{"ID":190924,"DIS_CODE":0,"TOWNNAME":"東區","LI":"崇明里","LIN":"15鄰","STREET":"崇明路","SECT":" ","MAREA":" ","LANE":" ","ALLEY":" ","HOUSE_NO":"４９４號","E_COORD97":170382.87,"N_COORD97":2541591.6600000001,"ADDRESS":"崇明路４９４號","OBJECTID":190923},"geometry":{"x":170382.87000000104,"y":2541591.6600000001}},{"attributes":{"ID":190925,"DIS_CODE":0,"TOWNNAME":"東區","LI":"崇明里","LIN":"15鄰","STREET":"崇明路","SECT":" ","MAREA":" ","LANE":" ","ALLEY":" ","HOUSE_NO":"４９６號","E_COORD97":170386.69,"N_COORD97":2541588.8399999999,"ADDRESS":"崇明路４９６號","OBJECTID":190924},"geometry":{"x":170386.69000000041,"y":2541588.8400000017}},{"attributes":{"ID":190926,"DIS_CODE":0,"TOWNNAME":"東區","LI":"崇明里","LIN":"15鄰","STREET":"崇明路","SECT":" ","MAREA":" ","LANE":" ","ALLEY":" ","HOUSE_NO":"４９８號","E_COORD97":170389.09,"N_COORD97":2541584.75,"ADDRESS":"崇明路４９８號","OBJECTID":190925},"geometry":{"x":170389.08999999892,"y":2541584.7500000037}},{"attributes":{"ID":190927,"DIS_CODE":0,"TOWNNAME":"東區","LI":"崇明里","LIN":"15鄰","STREET":"崇明路","SECT":" ","MAREA":" ","LANE":" ","ALLEY":" ","HOUSE_NO":"５００號","E_COORD97":170391.48999999999,"N_COORD97":2541581.2200000002,"ADDRESS":"崇明路５００號","OBJECTID":190926},"geometry":{"x":170391.49000000022,"y":2541581.2200000007}},{"attributes":{"ID":190928,"DIS_CODE":0,"TOWNNAME":"東區","LI":"崇明里","LIN":"15鄰","STREET":"崇明路","SECT":" ","MAREA":" ","LANE":" ","ALLEY":" ","HOUSE_NO":"５０２號","E_COORD97":170394.45999999999,"N_COORD97":2541577.4100000001,"ADDRESS":"崇明路５０２號","OBJECTID":190927},"geometry":{"x":170394.45999999996,"y":2541577.4100000039}},{"attributes":{"ID":190929,"DIS_CODE":0,"TOWNNAME":"永康區","LI":"崑山里","LIN":" ","STREET":"永大路","SECT":"一段","MAREA":" ","LANE":" ","ALLEY":" ","HOUSE_NO":"２５７之２號","E_COORD97":173938.67000000001,"N_COORD97":2544280.7799999998,"ADDRESS":"永大路一段２５７之２號","OBJECTID":190928},"geometry":{"x":173938.67000000086,"y":2544280.7800000012}},{"attributes":{"ID":190930,"DIS_CODE":0,"TOWNNAME":"新營區","LI":"南紙里","LIN":"5鄰","STREET":"南紙街","SECT":" ","MAREA":" ","LANE":"２９巷","ALLEY":"６弄","HOUSE_NO":"２８號","E_COORD97":177904.85000000001,"N_COORD97":2577681.29,"ADDRESS":"南紙街２９巷６弄２８號","OBJECTID":190929},"geometry":{"x":177904.84999999963,"y":2577681.290000001}},{"attributes":{"ID":190931,"DIS_CODE":0,"TOWNNAME":"新營區","LI":"南紙里","LIN":"5鄰","STREET":"南紙街","SECT":" ","MAREA":" ","LANE":"２９巷","ALLEY":"６弄","HOUSE_NO":"１５號","E_COORD97":177887.42000000001,"N_COORD97":2577686.9199999999,"ADDRESS":"南紙街２９巷６弄１５號","OBJECTID":190930},"geometry":{"x":177887.41999999993,"y":2577686.9199999999}},{"attributes":{"ID":190932,"DIS_CODE":0,"TOWNNAME":"永康區","LI":"\u25A0洲里","LIN":"40鄰","STREET":"洲工街","SECT":" ","MAREA":" ","LANE":" ","ALLEY":" ","HOUSE_NO":"１８１號","E_COORD97":170885.56,"N_COORD97":2548816.25,"ADDRESS":"洲工街１８１號","OBJECTID":190931},"geometry":{"x":170885.55999999959,"y":2548816.25}},{"attributes":{"ID":190933,"DIS_CODE":0,"TOWNNAME":"永康區","LI":"\u25A0行里","LIN":"1鄰","STREET":"中正路","SECT":" ","MAREA":" ","LANE":" ","ALLEY":" ","HOUSE_NO":"９９４號","E_COORD97":171898.88,"N_COORD97":2549008,"ADDRESS":"中正路９９４號","OBJECTID":190932},"geometry":{"x":171898.87999999989,"y":2549008.0000000037}},{"attributes":{"ID":190934,"DIS_CODE":0,"TOWNNAME":"新營區","LI":"南紙里","LIN":"5鄰","STREET":"南紙街","SECT":" ","MAREA":" ","LANE":"２９巷","ALLEY":"６弄","HOUSE_NO":"１７號","E_COORD97":177891.51999999999,"N_COORD97":2577688.0099999998,"ADDRESS":"南紙街２９巷６弄１７號","OBJECTID":190933},"geometry":{"x":177891.51999999955,"y":2577688.0100000016}},{"attributes":{"ID":190935,"DIS_CODE":0,"TOWNNAME":"新營區","LI":"南紙里","LIN":"5鄰","STREET":"南紙街","SECT":" ","MAREA":" ","LANE":"２９巷","ALLEY":"６弄","HOUSE_NO":"１４號","E_COORD97":177878.14000000001,"N_COORD97":2577671.46,"ADDRESS":"南紙街２９巷６弄１４號","OBJECTID":190934},"geometry":{"x":177878.1400000006,"y":2577671.4600000046}},{"attributes":{"ID":190936,"DIS_CODE":0,"TOWNNAME":"永康區","LI":"\u25A0行里","LIN":"1鄰","STREET":"中正北路","SECT":" ","MAREA":" ","LANE":" ","ALLEY":" ","HOUSE_NO":"１０號","E_COORD97":171895.04999999999,"N_COORD97":2549049.7400000002,"ADDRESS":"中正北路１０號","OBJECTID":190935},"geometry":{"x":171895.05000000075,"y":2549049.7400000002}},{"attributes":{"ID":190937,"DIS_CODE":0,"TOWNNAME":"新營區","LI":"南紙里","LIN":"5鄰","STREET":"南紙街","SECT":" ","MAREA":" ","LANE":"２９巷","ALLEY":"６弄","HOUSE_NO":"３４號","E_COORD97":177917.17000000001,"N_COORD97":2577685.6699999999,"ADDRESS":"南紙街２９巷６弄３４號","OBJECTID":190936},"geometry":{"x":177917.17000000086,"y":2577685.6699999999}},{"attributes":{"ID":190938,"DIS_CODE":0,"TOWNNAME":"永康區","LI":"\u25A0行里","LIN":"44鄰","STREET":"\u25A0和街","SECT":" ","MAREA":" ","LANE":" ","ALLEY":" ","HOUSE_NO":"１６９號","E_COORD97":171915.41,"N_COORD97":2547912.9900000002,"ADDRESS":"\u25A0和街１６９號","OBJECTID":190937},"geometry":{"x":171915.41000000108,"y":2547912.9900000002}},{"attributes":{"ID":190939,"DIS_CODE":0,"TOWNNAME":"永康區","LI":"\u25A0洲里","LIN":"23鄰","STREET":"正南六街","SECT":" ","MAREA":" ","LANE":" ","ALLEY":" ","HOUSE_NO":"２３號","E_COORD97":171055.38,"N_COORD97":2548457.9900000002,"ADDRESS":"正南六街２３號","OBJECTID":190938},"geometry":{"x":171055.38000000082,"y":2548457.9900000002}},{"attributes":{"ID":190940,"DIS_CODE":0,"TOWNNAME":"永康區","LI":"\u25A0行里","LIN":"16鄰","STREET":"中正六街","SECT":" ","MAREA":" ","LANE":" ","ALLEY":" ","HOUSE_NO":"２０６號","E_COORD97":171873.39000000001,"N_COORD97":2548839.3599999999,"ADDRESS":"中正六街２０６號","OBJECTID":190939},"geometry":{"x":171873.38999999966,"y":2548839.3600000013}},{"attributes":{"ID":190941,"DIS_CODE":0,"TOWNNAME":"永康區","LI":"\u25A0行里","LIN":"25鄰","STREET":"\u25A0和街","SECT":" ","MAREA":" ","LANE":" ","ALLEY":" ","HOUSE_NO":"２５０號","E_COORD97":171666.57999999999,"N_COORD97":2548306.25,"ADDRESS":"\u25A0和街２５０號","OBJECTID":190940},"geometry":{"x":171666.58000000101,"y":2548306.2500000019}},{"attributes":{"ID":190942,"DIS_CODE":0,"TOWNNAME":"新營區","LI":"南紙里","LIN":"5鄰","STREET":"南紙街","SECT":" ","MAREA":" ","LANE":"２９巷","ALLEY":"６弄","HOUSE_NO":"３０號","E_COORD97":177908.97,"N_COORD97":2577683.4900000002,"ADDRESS":"南紙街２９巷６弄３０號","OBJECTID":190941},"geometry":{"x":177908.96999999974,"y":2577683.4900000002}},{"attributes":{"ID":190943,"DIS_CODE":0,"TOWNNAME":"歸仁區","LI":"大廟里","LIN":"5鄰","STREET":"和順路","SECT":"二段","MAREA":" ","LANE":"１５１巷","ALLEY":"４２弄","HOUSE_NO":"５號","E_COORD97":176166.14999999999,"N_COORD97":2543461.98,"ADDRESS":"和順路二段１５１巷４２弄５號","OBJECTID":190942},"geometry":{"x":176166.15000000037,"y":2543461.9800000042}},{"attributes":{"ID":190944,"DIS_CODE":0,"TOWNNAME":"歸仁區","LI":"大廟里","LIN":"5鄰","STREET":"和順路","SECT":"二段","MAREA":" ","LANE":"１５１巷","ALLEY":"４２弄","HOUSE_NO":"１０號","E_COORD97":176158.29999999999,"N_COORD97":2543474.98,"ADDRESS":"和順路二段１５１巷４２弄１０號","OBJECTID":190943},"geometry":{"x":176158.30000000075,"y":2543474.9800000004}},{"attributes":{"ID":190945,"DIS_CODE":0,"TOWNNAME":"關廟區","LI":"五甲里","LIN":"5鄰","STREET":"五甲路","SECT":" ","MAREA":" ","LANE":"２１巷","ALLEY":"１１弄","HOUSE_NO":"１２號","E_COORD97":181319.82000000001,"N_COORD97":2539044.25,"ADDRESS":"五甲路２１巷１１弄１２號","OBJECTID":190944},"geometry":{"x":181319.8200000003,"y":2539044.25}},{"attributes":{"ID":190946,"DIS_CODE":0,"TOWNNAME":"關廟區","LI":"五甲里","LIN":"5鄰","STREET":"五甲路","SECT":" ","MAREA":" ","LANE":"２１巷","ALLEY":"１１弄","HOUSE_NO":"８號","E_COORD97":181309.76999999999,"N_COORD97":2539043.25,"ADDRESS":"五甲路２１巷１１弄８號","OBJECTID":190945},"geometry":{"x":181309.77000000142,"y":2539043.2500000019}},{"attributes":{"ID":190947,"DIS_CODE":0,"TOWNNAME":"關廟區","LI":"松腳里","LIN":"5鄰","STREET":"中山路","SECT":"一段","MAREA":" ","LANE":"２１巷","ALLEY":"３０弄","HOUSE_NO":"２０號","E_COORD97":182031.20999999999,"N_COORD97":2539887.2799999998,"ADDRESS":"中山路一段２１巷３０弄２０號","OBJECTID":190946},"geometry":{"x":182031.21000000089,"y":2539887.2799999993}},{"attributes":{"ID":190948,"DIS_CODE":0,"TOWNNAME":"關廟區","LI":"五甲里","LIN":"5鄰","STREET":"五甲路","SECT":" ","MAREA":" ","LANE":"２１巷","ALLEY":"１１弄","HOUSE_NO":"７號","E_COORD97":181301.67000000001,"N_COORD97":2539057.25,"ADDRESS":"五甲路２１巷１１弄７號","OBJECTID":190947},"geometry":{"x":181301.66999999993,"y":2539057.2500000019}},{"attributes":{"ID":190949,"DIS_CODE":0,"TOWNNAME":"關廟區","LI":"五甲里","LIN":"5鄰","STREET":"五甲路","SECT":" ","MAREA":" ","LANE":"２１巷","ALLEY":"１１弄","HOUSE_NO":"２０號","E_COORD97":181332.12,"N_COORD97":2539046.25,"ADDRESS":"五甲路２１巷１１弄２０號","OBJECTID":190948},"geometry":{"x":181332.12000000104,"y":2539046.2500000019}},{"attributes":{"ID":190950,"DIS_CODE":0,"TOWNNAME":"七股區","LI":"龍山里","LIN":"22鄰","STREET":" ","SECT":" ","MAREA":"龍山","LANE":" ","ALLEY":" ","HOUSE_NO":"２２７號之１","E_COORD97":158763.78,"N_COORD97":2559823.48,"ADDRESS":"龍山２２７號之１","OBJECTID":190949},"geometry":{"x":158763.78000000026,"y":2559823.4800000004}},{"attributes":{"ID":190951,"DIS_CODE":0,"TOWNNAME":"關廟區","LI":"東勢里","LIN":"5鄰","STREET":"東興路","SECT":" ","MAREA":" ","LANE":"２５０巷","ALLEY":"１弄","HOUSE_NO":"１０號","E_COORD97":181812.09011399999,"N_COORD97":2539529.8202800001,"ADDRESS":"東興路２５０巷１弄１０號","OBJECTID":190950},"geometry":{"x":181812.09011400212,"y":2539529.8202759996}},{"attributes":{"ID":190952,"DIS_CODE":0,"TOWNNAME":"永康區","LI":"\u25A0洲里","LIN":"25鄰","STREET":"中正南路","SECT":" ","MAREA":" ","LANE":" ","ALLEY":" ","HOUSE_NO":"４７５號","E_COORD97":170867.12,"N_COORD97":2548130.1499999999,"ADDRESS":"中正南路４７５號","OBJECTID":190951},"geometry":{"x":170867.12000000011,"y":2548130.1500000022}},{"attributes":{"ID":190953,"DIS_CODE":0,"TOWNNAME":"七股區","LI":"龍山里","LIN":"22鄰","STREET":" ","SECT":" ","MAREA":"龍山","LANE":" ","ALLEY":" ","HOUSE_NO":"２２８號","E_COORD97":157956.34,"N_COORD97":2559021.27,"ADDRESS":"龍山２２８號","OBJECTID":190952},"geometry":{"x":157956.33999999985,"y":2559021.2700000014}},{"attributes":{"ID":190954,"DIS_CODE":0,"TOWNNAME":"七股區","LI":"龍山里","LIN":"22鄰","STREET":" ","SECT":" ","MAREA":"龍山","LANE":" ","ALLEY":" ","HOUSE_NO":"２３１號","E_COORD97":156766.39999999999,"N_COORD97":2559219.5099999998,"ADDRESS":"龍山２３１號","OBJECTID":190953},"geometry":{"x":156766.40000000037,"y":2559219.5100000035}},{"attributes":{"ID":190955,"DIS_CODE":0,"TOWNNAME":"七股區","LI":"龍山里","LIN":"22鄰","STREET":" ","SECT":" ","MAREA":"龍山","LANE":" ","ALLEY":" ","HOUSE_NO":"２３５號","E_COORD97":157818.35000000001,"N_COORD97":2559836.3300000001,"ADDRESS":"龍山２３５號","OBJECTID":190954},"geometry":{"x":157818.34999999963,"y":2559836.3300000019}},{"attributes":{"ID":190956,"DIS_CODE":0,"TOWNNAME":"七股區","LI":"龍山里","LIN":"22鄰","STREET":" ","SECT":" ","MAREA":"龍山","LANE":" ","ALLEY":" ","HOUSE_NO":"２３７號","E_COORD97":158057.17000000001,"N_COORD97":2557853.7000000002,"ADDRESS":"龍山２３７號","OBJECTID":190955},"geometry":{"x":158057.16999999993,"y":2557853.6999999993}},{"attributes":{"ID":190957,"DIS_CODE":0,"TOWNNAME":"七股區","LI":"龍山里","LIN":"22鄰","STREET":" ","SECT":" ","MAREA":"龍山","LANE":" ","ALLEY":" ","HOUSE_NO":"２４０號","E_COORD97":158967.85000000001,"N_COORD97":2560375.5299999998,"ADDRESS":"龍山２４０號","OBJECTID":190956},"geometry":{"x":158967.84999999963,"y":2560375.5300000012}},{"attributes":{"ID":190958,"DIS_CODE":0,"TOWNNAME":"七股區","LI":"龍山里","LIN":"22鄰","STREET":" ","SECT":" ","MAREA":"龍山","LANE":" ","ALLEY":" ","HOUSE_NO":"２４３號","E_COORD97":159411.20000000001,"N_COORD97":2560340.4399999999,"ADDRESS":"龍山２４３號","OBJECTID":190957},"geometry":{"x":159411.20000000112,"y":2560340.4399999995}},{"attributes":{"ID":190959,"DIS_CODE":0,"TOWNNAME":"七股區","LI":"龍山里","LIN":"22鄰","STREET":" ","SECT":" ","MAREA":"龍山","LANE":" ","ALLEY":" ","HOUSE_NO":"２４４號","E_COORD97":159191.95999999999,"N_COORD97":2560430.3300000001,"ADDRESS":"龍山２４４號","OBJECTID":190958},"geometry":{"x":159191.96000000089,"y":2560430.3300000001}},{"attributes":{"ID":190960,"DIS_CODE":0,"TOWNNAME":"七股區","LI":"龍山里","LIN":"22鄰","STREET":" ","SECT":" ","MAREA":"龍山","LANE":" ","ALLEY":" ","HOUSE_NO":"２４８號","E_COORD97":158882.81,"N_COORD97":2560604.9199999999,"ADDRESS":"龍山２４８號","OBJECTID":190959},"geometry":{"x":158882.81000000052,"y":2560604.9200000018}},{"attributes":{"ID":190961,"DIS_CODE":0,"TOWNNAME":"永康區","LI":"\u25A0行里","LIN":"3鄰","STREET":"中正路","SECT":" ","MAREA":" ","LANE":" ","ALLEY":" ","HOUSE_NO":"９２８號","E_COORD97":172002.04000000001,"N_COORD97":2548901.75,"ADDRESS":"中正路９２８號","OBJECTID":190960},"geometry":{"x":172002.04000000097,"y":2548901.7500000019}},{"attributes":{"ID":190962,"DIS_CODE":0,"TOWNNAME":"永康區","LI":"\u25A0洲里","LIN":"36鄰","STREET":"\u25A0洲二街","SECT":" ","MAREA":" ","LANE":" ","ALLEY":" ","HOUSE_NO":"１７９號","E_COORD97":171728.13,"N_COORD97":2549414.75,"ADDRESS":"\u25A0洲二街１７９號","OBJECTID":190961},"geometry":{"x":171728.13000000175,"y":2549414.7500000019}},{"attributes":{"ID":190963,"DIS_CODE":0,"TOWNNAME":"關廟區","LI":"五甲里","LIN":"5鄰","STREET":"五甲路","SECT":" ","MAREA":" ","LANE":"２１巷","ALLEY":"１１弄","HOUSE_NO":"６號","E_COORD97":181305.97,"N_COORD97":2539042.25,"ADDRESS":"五甲路２１巷１１弄６號","OBJECTID":190962},"geometry":{"x":181305.97000000067,"y":2539042.2500000037}},{"attributes":{"ID":190964,"DIS_CODE":0,"TOWNNAME":"關廟區","LI":"東勢里","LIN":"5鄰","STREET":"東興路","SECT":" ","MAREA":" ","LANE":"２５０巷","ALLEY":"１弄","HOUSE_NO":"９號","E_COORD97":181812.72573100001,"N_COORD97":2539548.6586000002,"ADDRESS":"東興路２５０巷１弄９號","OBJECTID":190963},"geometry":{"x":181812.7257310003,"y":2539548.6585990004}},{"attributes":{"ID":190965,"DIS_CODE":0,"TOWNNAME":"中西區","LI":"西湖里","LIN":"21鄰","STREET":"湖美街","SECT":" ","MAREA":" ","LANE":" ","ALLEY":" ","HOUSE_NO":"２４號","E_COORD97":165957.84,"N_COORD97":2544525.5600000001,"ADDRESS":"湖美街２４號","OBJECTID":190964},"geometry":{"x":165957.83999999892,"y":2544525.5600000005}},{"attributes":{"ID":190966,"DIS_CODE":0,"TOWNNAME":"關廟區","LI":"東勢里","LIN":"5鄰","STREET":"和平路","SECT":" ","MAREA":" ","LANE":"１００巷","ALLEY":"９弄","HOUSE_NO":"１８號","E_COORD97":181800.75494799999,"N_COORD97":2539510.7173700002,"ADDRESS":"和平路１００巷９弄１８號","OBJECTID":190965},"geometry":{"x":181800.75494800135,"y":2539510.7173699997}},{"attributes":{"ID":190967,"DIS_CODE":0,"TOWNNAME":"關廟區","LI":"五甲里","LIN":"5鄰","STREET":"五甲路","SECT":" ","MAREA":" ","LANE":"２１巷","ALLEY":"１１弄","HOUSE_NO":"１號","E_COORD97":181284.47,"N_COORD97":2539057.25,"ADDRESS":"五甲路２１巷１１弄１號","OBJECTID":190966},"geometry":{"x":181284.46999999974,"y":2539057.2500000019}},{"attributes":{"ID":190968,"DIS_CODE":0,"TOWNNAME":"關廟區","LI":"五甲里","LIN":"5鄰","STREET":"五甲路","SECT":" ","MAREA":" ","LANE":"２１巷","ALLEY":"１１弄","HOUSE_NO":"９號","E_COORD97":181308.57000000001,"N_COORD97":2539058.25,"ADDRESS":"五甲路２１巷１１弄９號","OBJECTID":190967},"geometry":{"x":181308.57000000216,"y":2539058.25}},{"attributes":{"ID":190969,"DIS_CODE":0,"TOWNNAME":"關廟區","LI":"南花里","LIN":"5鄰","STREET":"四維街","SECT":" ","MAREA":" ","LANE":"３５０巷","ALLEY":"２６弄","HOUSE_NO":"６號","E_COORD97":181970.01000000001,"N_COORD97":2540220.25,"ADDRESS":"四維街３５０巷２６弄６號","OBJECTID":190968},"geometry":{"x":181970.01000000071,"y":2540220.25}},{"attributes":{"ID":190970,"DIS_CODE":0,"TOWNNAME":"北區","LI":"新勝里","LIN":"5鄰","STREET":"北園街","SECT":" ","MAREA":" ","LANE":"５３巷","ALLEY":"４弄","HOUSE_NO":"１０號","E_COORD97":170327.92000000001,"N_COORD97":2545612.73,"ADDRESS":"北園街５３巷４弄１０號","OBJECTID":190969},"geometry":{"x":170327.92000000086,"y":2545612.7300000004}},{"attributes":{"ID":190971,"DIS_CODE":0,"TOWNNAME":"北區","LI":"新勝里","LIN":"5鄰","STREET":"北園街","SECT":" ","MAREA":" ","LANE":"５３巷","ALLEY":"４弄","HOUSE_NO":"１２號","E_COORD97":170328.20000000001,"N_COORD97":2545609.8999999999,"ADDRESS":"北園街５３巷４弄１２號","OBJECTID":190970},"geometry":{"x":170328.20000000112,"y":2545609.9000000022}},{"attributes":{"ID":190972,"DIS_CODE":0,"TOWNNAME":"北區","LI":"新勝里","LIN":"5鄰","STREET":"北園街","SECT":" ","MAREA":" ","LANE":"５３巷","ALLEY":"４弄","HOUSE_NO":"１４號","E_COORD97":170326.29999999999,"N_COORD97":2545604.1000000001,"ADDRESS":"北園街５３巷４弄１４號","OBJECTID":190971},"geometry":{"x":170326.29999999981,"y":2545604.1000000015}},{"attributes":{"ID":190973,"DIS_CODE":0,"TOWNNAME":"北區","LI":"新勝里","LIN":"5鄰","STREET":"北園街","SECT":" ","MAREA":" ","LANE":"５３巷","ALLEY":"４弄","HOUSE_NO":"１６號","E_COORD97":170320.57999999999,"N_COORD97":2545602.2799999998,"ADDRESS":"北園街５３巷４弄１６號","OBJECTID":190972},"geometry":{"x":170320.58000000101,"y":2545602.2800000012}},{"attributes":{"ID":190974,"DIS_CODE":0,"TOWNNAME":"北區","LI":"新勝里","LIN":"5鄰","STREET":"北園街","SECT":" ","MAREA":" ","LANE":"５３巷","ALLEY":"４弄","HOUSE_NO":"１８號","E_COORD97":170315.82999999999,"N_COORD97":2545602.02,"ADDRESS":"北園街５３巷４弄１８號","OBJECTID":190973},"geometry":{"x":170315.83000000007,"y":2545602.0199999996}},{"attributes":{"ID":190975,"DIS_CODE":0,"TOWNNAME":"北區","LI":"新勝里","LIN":"5鄰","STREET":"北園街","SECT":" ","MAREA":" ","LANE":"５３巷","ALLEY":"４弄","HOUSE_NO":"２０號","E_COORD97":170314.78,"N_COORD97":2545614.96,"ADDRESS":"北園街５３巷４弄２０號","OBJECTID":190974},"geometry":{"x":170314.78000000026,"y":2545614.9600000009}},{"attributes":{"ID":190976,"DIS_CODE":0,"TOWNNAME":"北區","LI":"新勝里","LIN":"5鄰","STREET":"北園街","SECT":" ","MAREA":" ","LANE":"５３巷","ALLEY":"４弄","HOUSE_NO":"２２號","E_COORD97":170314.78,"N_COORD97":2545618.6699999999,"ADDRESS":"北園街５３巷４弄２２號","OBJECTID":190975},"geometry":{"x":170314.78000000026,"y":2545618.6699999999}},{"attributes":{"ID":190977,"DIS_CODE":0,"TOWNNAME":"北區","LI":"新勝里","LIN":"5鄰","STREET":"北園街","SECT":" ","MAREA":" ","LANE":"５３巷","ALLEY":"４弄","HOUSE_NO":"２６號","E_COORD97":170313.92999999999,"N_COORD97":2545626.1200000001,"ADDRESS":"北園街５３巷４弄２６號","OBJECTID":190976},"geometry":{"x":170313.93000000156,"y":2545626.1200000029}},{"attributes":{"ID":190978,"DIS_CODE":0,"TOWNNAME":"永康區","LI":"\u25A0行里","LIN":"42鄰","STREET":"永安二街","SECT":" ","MAREA":" ","LANE":" ","ALLEY":" ","HOUSE_NO":"１３號","E_COORD97":172462.09,"N_COORD97":2549596.8300000001,"ADDRESS":"永安二街１３號","OBJECTID":190977},"geometry":{"x":172462.08999999985,"y":2549596.8300000019}},{"attributes":{"ID":190979,"DIS_CODE":0,"TOWNNAME":"北區","LI":"新勝里","LIN":"5鄰","STREET":"北園街","SECT":" ","MAREA":" ","LANE":"５３巷","ALLEY":"４弄","HOUSE_NO":"２８號","E_COORD97":170311.72,"N_COORD97":2545631.6400000001,"ADDRESS":"北園街５３巷４弄２８號","OBJECTID":190978},"geometry":{"x":170311.71999999974,"y":2545631.6400000025}},{"attributes":{"ID":190980,"DIS_CODE":0,"TOWNNAME":"北區","LI":"新勝里","LIN":"5鄰","STREET":"北園街","SECT":" ","MAREA":" ","LANE":"５３巷","ALLEY":"４弄","HOUSE_NO":"３０號","E_COORD97":170311.45999999999,"N_COORD97":2545636.2000000002,"ADDRESS":"北園街５３巷４弄３０號","OBJECTID":190979},"geometry":{"x":170311.45999999996,"y":2545636.2000000011}},{"attributes":{"ID":190981,"DIS_CODE":0,"TOWNNAME":"北區","LI":"新勝里","LIN":"5鄰","STREET":"北園街","SECT":" ","MAREA":" ","LANE":"５３巷","ALLEY":"４弄","HOUSE_NO":"８號","E_COORD97":170340.35999999999,"N_COORD97":2545606.6600000001,"ADDRESS":"北園街５３巷４弄８號","OBJECTID":190980},"geometry":{"x":170340.3600000022,"y":2545606.6600000039}},{"attributes":{"ID":190982,"DIS_CODE":0,"TOWNNAME":"北區","LI":"新勝里","LIN":"5鄰","STREET":"北園街","SECT":" ","MAREA":" ","LANE":"５３巷","ALLEY":"４弄","HOUSE_NO":"８號之１","E_COORD97":170335.67000000001,"N_COORD97":2545605.5600000001,"ADDRESS":"北園街５３巷４弄８號之１","OBJECTID":190981},"geometry":{"x":170335.66999999993,"y":2545605.5600000024}},{"attributes":{"ID":190983,"DIS_CODE":0,"TOWNNAME":"南區","LI":"竹溪里","LIN":"5鄰","STREET":"健康路","SECT":"一段","MAREA":" ","LANE":"１３３巷","ALLEY":"３２弄","HOUSE_NO":"９號","E_COORD97":168838.32999999999,"N_COORD97":2542281.4300000002,"ADDRESS":"健康路一段１３３巷３２弄９號","OBJECTID":190982},"geometry":{"x":168838.33000000194,"y":2542281.4299999997}},{"attributes":{"ID":190984,"DIS_CODE":0,"TOWNNAME":"南區","LI":"文南里","LIN":"5鄰","STREET":"金華路","SECT":"二段","MAREA":" ","LANE":"２８９巷","ALLEY":"２３弄","HOUSE_NO":"２２號","E_COORD97":167016.92999999999,"N_COORD97":2542708.6200000001,"ADDRESS":"金華路二段２８９巷２３弄２２號","OBJECTID":190983},"geometry":{"x":167016.93000000063,"y":2542708.620000001}},{"attributes":{"ID":190985,"DIS_CODE":0,"TOWNNAME":"南區","LI":"文南里","LIN":"5鄰","STREET":"金華路","SECT":"二段","MAREA":" ","LANE":"２８９巷","ALLEY":"２３弄","HOUSE_NO":"２４號","E_COORD97":167016.10000000001,"N_COORD97":2542704.02,"ADDRESS":"金華路二段２８９巷２３弄２４號","OBJECTID":190984},"geometry":{"x":167016.10000000056,"y":2542704.0199999996}},{"attributes":{"ID":190986,"DIS_CODE":0,"TOWNNAME":"善化區","LI":"溪美里","LIN":"19鄰","STREET":" ","SECT":" ","MAREA":"溪尾","LANE":" ","ALLEY":" ","HOUSE_NO":"２２７號之５","E_COORD97":177307.57999999999,"N_COORD97":2561510.27,"ADDRESS":"溪尾２２７號之５","OBJECTID":190985},"geometry":{"x":177307.58000000194,"y":2561510.2700000014}},{"attributes":{"ID":190987,"DIS_CODE":0,"TOWNNAME":"善化區","LI":"小新里","LIN":"22鄰","STREET":" ","SECT":" ","MAREA":"成功新村","LANE":" ","ALLEY":" ","HOUSE_NO":"１１號四樓","E_COORD97":180355.04999999999,"N_COORD97":2558698.5,"ADDRESS":"成功新村１１號四樓","OBJECTID":190986},"geometry":{"x":180355.04999999981,"y":2558698.5000000019}},{"attributes":{"ID":190988,"DIS_CODE":0,"TOWNNAME":"善化區","LI":"小新里","LIN":"22鄰","STREET":" ","SECT":" ","MAREA":"成功新村","LANE":" ","ALLEY":" ","HOUSE_NO":"７號七樓","E_COORD97":180319.69,"N_COORD97":2558709.75,"ADDRESS":"成功新村７號七樓","OBJECTID":190987},"geometry":{"x":180319.69000000134,"y":2558709.7500000037}},{"attributes":{"ID":190989,"DIS_CODE":0,"TOWNNAME":"善化區","LI":"小新里","LIN":"22鄰","STREET":" ","SECT":" ","MAREA":"成功新村","LANE":" ","ALLEY":" ","HOUSE_NO":"１１號七樓","E_COORD97":180355.04999999999,"N_COORD97":2558698.5,"ADDRESS":"成功新村１１號七樓","OBJECTID":190988},"geometry":{"x":180355.04999999981,"y":2558698.5000000019}},{"attributes":{"ID":190990,"DIS_CODE":0,"TOWNNAME":"善化區","LI":"小新里","LIN":"22鄰","STREET":" ","SECT":" ","MAREA":"成功新村","LANE":" ","ALLEY":" ","HOUSE_NO":"５８號五樓","E_COORD97":180295.67999999999,"N_COORD97":2558645,"ADDRESS":"成功新村５８號五樓","OBJECTID":190989},"geometry":{"x":180295.68000000063,"y":2558645.0000000019}},{"attributes":{"ID":190991,"DIS_CODE":0,"TOWNNAME":"善化區","LI":"小新里","LIN":"22鄰","STREET":" ","SECT":" ","MAREA":"成功新村","LANE":" ","ALLEY":" ","HOUSE_NO":"７２號四樓","E_COORD97":180420.76999999999,"N_COORD97":2558632.25,"ADDRESS":"成功新村７２號四樓","OBJECTID":190990},"geometry":{"x":180420.76999999955,"y":2558632.2500000019}},{"attributes":{"ID":190992,"DIS_CODE":0,"TOWNNAME":"善化區","LI":"小新里","LIN":"22鄰","STREET":" ","SECT":" ","MAREA":"成功新村","LANE":" ","ALLEY":" ","HOUSE_NO":"９４號八樓","E_COORD97":180450.63,"N_COORD97":2558624.25,"ADDRESS":"成功新村９４號八樓","OBJECTID":190991},"geometry":{"x":180450.63000000082,"y":2558624.25}},{"attributes":{"ID":190993,"DIS_CODE":0,"TOWNNAME":"善化區","LI":"小新里","LIN":"22鄰","STREET":" ","SECT":" ","MAREA":"成功新村","LANE":" ","ALLEY":" ","HOUSE_NO":"３１號六樓","E_COORD97":180409.51000000001,"N_COORD97":2558660.25,"ADDRESS":"成功新村３１號六樓","OBJECTID":190992},"geometry":{"x":180409.50999999978,"y":2558660.2500000019}},{"attributes":{"ID":190994,"DIS_CODE":0,"TOWNNAME":"善化區","LI":"胡厝里","LIN":"21鄰","STREET":"興農路","SECT":" ","MAREA":" ","LANE":" ","ALLEY":" ","HOUSE_NO":"５２３號","E_COORD97":174831.25,"N_COORD97":2558792.9300000002,"ADDRESS":"興農路５２３號","OBJECTID":190993},"geometry":{"x":174831.24999999907,"y":2558792.9300000034}},{"attributes":{"ID":190995,"DIS_CODE":0,"TOWNNAME":"北門區","LI":"保吉里","LIN":"3鄰","STREET":" ","SECT":" ","MAREA":"蚵寮","LANE":" ","ALLEY":" ","HOUSE_NO":"２５號","E_COORD97":161493.63,"N_COORD97":2575685.9500000002,"ADDRESS":"蚵寮２５號","OBJECTID":190994},"geometry":{"x":161493.62999999989,"y":2575685.9499999993}},{"attributes":{"ID":190996,"DIS_CODE":0,"TOWNNAME":"善化區","LI":"小新里","LIN":"21鄰","STREET":" ","SECT":" ","MAREA":"小新營","LANE":" ","ALLEY":" ","HOUSE_NO":"３４５號","E_COORD97":180187.729295,"N_COORD97":2558348.16304,"ADDRESS":"小新營３４５號","OBJECTID":190995},"geometry":{"x":180187.72929500043,"y":2558348.1630400028}},{"attributes":{"ID":190997,"DIS_CODE":0,"TOWNNAME":"南區","LI":"文南里","LIN":"5鄰","STREET":"金華路","SECT":"二段","MAREA":" ","LANE":"２８９巷","ALLEY":"２３弄","HOUSE_NO":"２６號","E_COORD97":167016.10000000001,"N_COORD97":2542699,"ADDRESS":"金華路二段２８９巷２３弄２６號","OBJECTID":190996},"geometry":{"x":167016.10000000056,"y":2542699.0000000019}},{"attributes":{"ID":190998,"DIS_CODE":0,"TOWNNAME":"善化區","LI":"小新里","LIN":"22鄰","STREET":" ","SECT":" ","MAREA":"成功新村","LANE":" ","ALLEY":" ","HOUSE_NO":"４５號五樓","E_COORD97":180453.35000000001,"N_COORD97":2558659,"ADDRESS":"成功新村４５號五樓","OBJECTID":190997},"geometry":{"x":180453.35000000056,"y":2558659}},{"attributes":{"ID":190999,"DIS_CODE":0,"TOWNNAME":"善化區","LI":"小新里","LIN":"22鄰","STREET":" ","SECT":" ","MAREA":"成功新村","LANE":" ","ALLEY":" ","HOUSE_NO":"１５號三樓","E_COORD97":180344.45999999999,"N_COORD97":2558681.75,"ADDRESS":"成功新村１５號三樓","OBJECTID":190998},"geometry":{"x":180344.46000000089,"y":2558681.75}},{"attributes":{"ID":191000,"DIS_CODE":0,"TOWNNAME":"鹽水區","LI":"橋南里","LIN":"5鄰","STREET":"行昌路","SECT":" ","MAREA":" ","LANE":"４５巷","ALLEY":"２１弄","HOUSE_NO":"１１號","E_COORD97":175255,"N_COORD97":2579341.3399999999,"ADDRESS":"行昌路４５巷２１弄１１號","OBJECTID":190999},"geometry":{"x":175254.99999999907,"y":2579341.3399999999}},{"attributes":{"ID":191001,"DIS_CODE":0,"TOWNNAME":"善化區","LI":"小新里","LIN":"22鄰","STREET":" ","SECT":" ","MAREA":"成功新村","LANE":" ","ALLEY":" ","HOUSE_NO":"１９號八樓","E_COORD97":180366.81,"N_COORD97":2558675.25,"ADDRESS":"成功新村１９號八樓","OBJECTID":191000},"geometry":{"x":180366.80999999959,"y":2558675.25}}]}