{"displayFieldName":"TOWNNAME","fieldAliases":{"ID":"ID","DIS_CODE":"DIS_CODE","TOWNNAME":"TOWNNAME","LI":"LI","LIN":"LIN","STREET":"STREET","SECT":"SECT","MAREA":"MAREA","LANE":"LANE","ALLEY":"ALLEY","HOUSE_NO":"HOUSE_NO","E_COORD97":"E_COORD97","N_COORD97":"N_COORD97","ADDRESS":"ADDRESS","OBJECTID":"OBJECTID"},"geometryType":"esriGeometryPoint","spatialReference":{"wkid":102443,"latestWkid":3826},"fields":[{"name":"ID","type":"esriFieldTypeDouble","alias":"ID"},{"name":"DIS_CODE","type":"esriFieldTypeInteger","alias":"DIS_CODE"},{"name":"TOWNNAME","type":"esriFieldTypeString","alias":"TOWNNAME","length":8},{"name":"LI","type":"esriFieldTypeString","alias":"LI","length":8},{"name":"LIN","type":"esriFieldTypeString","alias":"LIN","length":12},{"name":"STREET","type":"esriFieldTypeString","alias":"STREET","length":20},{"name":"SECT","type":"esriFieldTypeString","alias":"SECT","length":8},{"name":"MAREA","type":"esriFieldTypeString","alias":"MAREA","length":12},{"name":"LANE","type":"esriFieldTypeString","alias":"LANE","length":10},{"name":"ALLEY","type":"esriFieldTypeString","alias":"ALLEY","length":10},{"name":"HOUSE_NO","type":"esriFieldTypeString","alias":"HOUSE_NO","length":20},{"name":"E_COORD97","type":"esriFieldTypeDouble","alias":"E_COORD97"},{"name":"N_COORD97","type":"esriFieldTypeDouble","alias":"N_COORD97"},{"name":"ADDRESS","type":"esriFieldTypeString","alias":"ADDRESS","length":50},{"name":"OBJECTID","type":"esriFieldTypeOID","alias":"OBJECTID"}],"features":[{"attributes":{"ID":622628,"DIS_CODE":0,"TOWNNAME":"新市區","LI":"新和里","LIN":"25鄰","STREET":"仁愛街","SECT":" ","MAREA":" ","LANE":" ","ALLEY":" ","HOUSE_NO":"２５０之１號","E_COORD97":177631.54000000001,"N_COORD97":2552869.0499999998,"ADDRESS":"仁愛街２５０之１號","OBJECTID":622601},"geometry":{"x":177631.5400000019,"y":2552869.0500000007}},{"attributes":{"ID":622629,"DIS_CODE":0,"TOWNNAME":"新市區","LI":"新和里","LIN":"20鄰","STREET":"成功街","SECT":" ","MAREA":" ","LANE":" ","ALLEY":" ","HOUSE_NO":"７號","E_COORD97":177444.26999999999,"N_COORD97":2552595.27,"ADDRESS":"成功街７號","OBJECTID":622602},"geometry":{"x":177444.26999999955,"y":2552595.2699999996}},{"attributes":{"ID":622630,"DIS_CODE":0,"TOWNNAME":"新市區","LI":"新和里","LIN":"26鄰","STREET":"永福街","SECT":" ","MAREA":" ","LANE":" ","ALLEY":" ","HOUSE_NO":"５號","E_COORD97":177811.59,"N_COORD97":2552672,"ADDRESS":"永福街５號","OBJECTID":622603},"geometry":{"x":177811.58999999985,"y":2552672}},{"attributes":{"ID":622631,"DIS_CODE":0,"TOWNNAME":"新市區","LI":"新和里","LIN":"39鄰","STREET":"中正路","SECT":" ","MAREA":" ","LANE":" ","ALLEY":" ","HOUSE_NO":"２０３號","E_COORD97":177425.06,"N_COORD97":2552988.4500000002,"ADDRESS":"中正路２０３號","OBJECTID":622604},"geometry":{"x":177425.05999999959,"y":2552988.4500000011}},{"attributes":{"ID":622632,"DIS_CODE":0,"TOWNNAME":"新市區","LI":"新和里","LIN":"5鄰","STREET":"昆明街","SECT":" ","MAREA":" ","LANE":" ","ALLEY":" ","HOUSE_NO":"２６號","E_COORD97":177329.34,"N_COORD97":2552361.75,"ADDRESS":"昆明街２６號","OBJECTID":622605},"geometry":{"x":177329.34000000171,"y":2552361.75}},{"attributes":{"ID":622633,"DIS_CODE":0,"TOWNNAME":"新市區","LI":"港墘里","LIN":"25鄰","STREET":"南昌街","SECT":" ","MAREA":" ","LANE":" ","ALLEY":" ","HOUSE_NO":"３４號","E_COORD97":178014.76000000001,"N_COORD97":2552932.75,"ADDRESS":"南昌街３４號","OBJECTID":622606},"geometry":{"x":178014.76000000071,"y":2552932.7500000019}},{"attributes":{"ID":622634,"DIS_CODE":0,"TOWNNAME":"新市區","LI":"新和里","LIN":"39鄰","STREET":"中正路","SECT":" ","MAREA":" ","LANE":" ","ALLEY":" ","HOUSE_NO":"２２５號","E_COORD97":177434.51000000001,"N_COORD97":2553047.5,"ADDRESS":"中正路２２５號","OBJECTID":622607},"geometry":{"x":177434.50999999978,"y":2553047.5000000019}},{"attributes":{"ID":622635,"DIS_CODE":0,"TOWNNAME":"新市區","LI":"新和里","LIN":"25鄰","STREET":"仁愛街","SECT":" ","MAREA":" ","LANE":" ","ALLEY":" ","HOUSE_NO":"２９４號","E_COORD97":177644.85999999999,"N_COORD97":2552961.0299999998,"ADDRESS":"仁愛街２９４號","OBJECTID":622608},"geometry":{"x":177644.8599999994,"y":2552961.0300000012}},{"attributes":{"ID":622636,"DIS_CODE":0,"TOWNNAME":"新市區","LI":"新和里","LIN":"25鄰","STREET":"仁愛街","SECT":" ","MAREA":" ","LANE":" ","ALLEY":" ","HOUSE_NO":"２３２號","E_COORD97":177617.31,"N_COORD97":2552826.5299999998,"ADDRESS":"仁愛街２３２號","OBJECTID":622609},"geometry":{"x":177617.31000000145,"y":2552826.5299999993}},{"attributes":{"ID":622637,"DIS_CODE":0,"TOWNNAME":"新市區","LI":"新市里","LIN":"4鄰","STREET":"華興街","SECT":" ","MAREA":" ","LANE":" ","ALLEY":" ","HOUSE_NO":"３２號","E_COORD97":177746.03,"N_COORD97":2553007.5,"ADDRESS":"華興街３２號","OBJECTID":622610},"geometry":{"x":177746.03000000119,"y":2553007.5}},{"attributes":{"ID":622638,"DIS_CODE":0,"TOWNNAME":"新市區","LI":"新和里","LIN":"18鄰","STREET":"銘傳街","SECT":" ","MAREA":" ","LANE":" ","ALLEY":" ","HOUSE_NO":"３２號","E_COORD97":177486.64999999999,"N_COORD97":2552667.75,"ADDRESS":"銘傳街３２號","OBJECTID":622611},"geometry":{"x":177486.65000000037,"y":2552667.7499999981}},{"attributes":{"ID":622639,"DIS_CODE":0,"TOWNNAME":"新市區","LI":"新和里","LIN":"41鄰","STREET":"西寧街","SECT":" ","MAREA":" ","LANE":" ","ALLEY":" ","HOUSE_NO":"３４號","E_COORD97":177065.12,"N_COORD97":2552912.5,"ADDRESS":"西寧街３４號","OBJECTID":622612},"geometry":{"x":177065.12000000104,"y":2552912.5}},{"attributes":{"ID":622640,"DIS_CODE":0,"TOWNNAME":"永康區","LI":"北灣里","LIN":"20鄰","STREET":"北興路","SECT":" ","MAREA":" ","LANE":" ","ALLEY":" ","HOUSE_NO":"２０號","E_COORD97":174626.09,"N_COORD97":2546029.8199999998,"ADDRESS":"北興路２０號","OBJECTID":622613},"geometry":{"x":174626.09000000078,"y":2546029.8200000022}},{"attributes":{"ID":622641,"DIS_CODE":0,"TOWNNAME":"永康區","LI":"五王里","LIN":"25鄰","STREET":"五福街","SECT":" ","MAREA":" ","LANE":" ","ALLEY":" ","HOUSE_NO":"３２號","E_COORD97":171332.60999999999,"N_COORD97":2545872.7999999998,"ADDRESS":"五福街３２號","OBJECTID":622614},"geometry":{"x":171332.61000000127,"y":2545872.8000000007}},{"attributes":{"ID":622642,"DIS_CODE":0,"TOWNNAME":"永康區","LI":"正強里","LIN":"4鄰","STREET":"中正路","SECT":" ","MAREA":" ","LANE":" ","ALLEY":" ","HOUSE_NO":"４７號","E_COORD97":173618.63,"N_COORD97":2547770.0800000001,"ADDRESS":"中正路４７號","OBJECTID":622615},"geometry":{"x":173618.63000000082,"y":2547770.0800000038}},{"attributes":{"ID":622643,"DIS_CODE":0,"TOWNNAME":"永康區","LI":"北灣里","LIN":"20鄰","STREET":"北興路","SECT":" ","MAREA":" ","LANE":" ","ALLEY":" ","HOUSE_NO":"２２號","E_COORD97":174631.14999999999,"N_COORD97":2546030.3199999998,"ADDRESS":"北興路２２號","OBJECTID":622616},"geometry":{"x":174631.1500000013,"y":2546030.3200000022}},{"attributes":{"ID":622644,"DIS_CODE":0,"TOWNNAME":"永康區","LI":"北灣里","LIN":"39鄰","STREET":"永大路","SECT":"二段","MAREA":" ","LANE":" ","ALLEY":" ","HOUSE_NO":"９７０號","E_COORD97":174475.98999999999,"N_COORD97":2546329.3399999999,"ADDRESS":"永大路二段９７０號","OBJECTID":622617},"geometry":{"x":174475.99000000115,"y":2546329.3399999999}},{"attributes":{"ID":622645,"DIS_CODE":0,"TOWNNAME":"永康區","LI":"正強里","LIN":"2鄰","STREET":"中正路","SECT":" ","MAREA":" ","LANE":" ","ALLEY":" ","HOUSE_NO":"５號","E_COORD97":173698.85000000001,"N_COORD97":2547701.7400000002,"ADDRESS":"中正路５號","OBJECTID":622618},"geometry":{"x":173698.84999999963,"y":2547701.7400000021}},{"attributes":{"ID":622646,"DIS_CODE":0,"TOWNNAME":"永康區","LI":"北灣里","LIN":"20鄰","STREET":"大安街","SECT":" ","MAREA":" ","LANE":" ","ALLEY":" ","HOUSE_NO":"４８０號","E_COORD97":174576.64999999999,"N_COORD97":2545992.2200000002,"ADDRESS":"大安街４８０號","OBJECTID":622619},"geometry":{"x":174576.6500000013,"y":2545992.2200000007}},{"attributes":{"ID":622647,"DIS_CODE":0,"TOWNNAME":"永康區","LI":"北灣里","LIN":"20鄰","STREET":"大安街","SECT":" ","MAREA":" ","LANE":" ","ALLEY":" ","HOUSE_NO":"４９０號","E_COORD97":174581.5,"N_COORD97":2546009.9700000002,"ADDRESS":"大安街４９０號","OBJECTID":622620},"geometry":{"x":174581.5,"y":2546009.9700000025}},{"attributes":{"ID":622648,"DIS_CODE":0,"TOWNNAME":"永康區","LI":"正強里","LIN":"25鄰","STREET":"中正路","SECT":" ","MAREA":" ","LANE":" ","ALLEY":" ","HOUSE_NO":"１４７號","E_COORD97":173310.23999999999,"N_COORD97":2547880,"ADDRESS":"中正路１４７號","OBJECTID":622621},"geometry":{"x":173310.24000000022,"y":2547880.0000000019}},{"attributes":{"ID":622649,"DIS_CODE":0,"TOWNNAME":"永康區","LI":"正強里","LIN":"4鄰","STREET":"中正路","SECT":" ","MAREA":" ","LANE":" ","ALLEY":" ","HOUSE_NO":"３３號","E_COORD97":173641.29000000001,"N_COORD97":2547752.8300000001,"ADDRESS":"中正路３３號","OBJECTID":622622},"geometry":{"x":173641.29000000097,"y":2547752.8300000019}},{"attributes":{"ID":622650,"DIS_CODE":0,"TOWNNAME":"永康區","LI":"北灣里","LIN":"20鄰","STREET":"大安街","SECT":" ","MAREA":" ","LANE":" ","ALLEY":" ","HOUSE_NO":"４５２號","E_COORD97":174582.64999999999,"N_COORD97":2545920.3199999998,"ADDRESS":"大安街４５２號","OBJECTID":622623},"geometry":{"x":174582.65000000037,"y":2545920.3200000003}},{"attributes":{"ID":622651,"DIS_CODE":0,"TOWNNAME":"永康區","LI":"正強里","LIN":"25鄰","STREET":"中正路","SECT":" ","MAREA":" ","LANE":" ","ALLEY":" ","HOUSE_NO":"１３９號","E_COORD97":173328.23999999999,"N_COORD97":2547877.75,"ADDRESS":"中正路１３９號","OBJECTID":622624},"geometry":{"x":173328.24000000115,"y":2547877.7500000019}},{"attributes":{"ID":622652,"DIS_CODE":0,"TOWNNAME":"永康區","LI":"正強里","LIN":"25鄰","STREET":"中正路","SECT":" ","MAREA":" ","LANE":" ","ALLEY":" ","HOUSE_NO":"１３７號","E_COORD97":173332.73999999999,"N_COORD97":2547877.2400000002,"ADDRESS":"中正路１３７號","OBJECTID":622625},"geometry":{"x":173332.74000000022,"y":2547877.2400000002}},{"attributes":{"ID":622653,"DIS_CODE":0,"TOWNNAME":"永康區","LI":"正強里","LIN":"4鄰","STREET":"中正路","SECT":" ","MAREA":" ","LANE":" ","ALLEY":" ","HOUSE_NO":"３９號","E_COORD97":173632.01000000001,"N_COORD97":2547760.5800000001,"ADDRESS":"中正路３９號","OBJECTID":622626},"geometry":{"x":173632.00999999978,"y":2547760.5800000019}},{"attributes":{"ID":622654,"DIS_CODE":0,"TOWNNAME":"永康區","LI":"正強里","LIN":"4鄰","STREET":"中正路","SECT":" ","MAREA":" ","LANE":" ","ALLEY":" ","HOUSE_NO":"４５號","E_COORD97":173622.45000000001,"N_COORD97":2547768.3300000001,"ADDRESS":"中正路４５號","OBJECTID":622627},"geometry":{"x":173622.45000000019,"y":2547768.3300000038}},{"attributes":{"ID":622655,"DIS_CODE":0,"TOWNNAME":"永康區","LI":"北灣里","LIN":"20鄰","STREET":"大安街","SECT":" ","MAREA":" ","LANE":" ","ALLEY":" ","HOUSE_NO":"４７６號","E_COORD97":174574.31,"N_COORD97":2545982.46,"ADDRESS":"大安街４７６號","OBJECTID":622628},"geometry":{"x":174574.30999999959,"y":2545982.4600000028}},{"attributes":{"ID":622656,"DIS_CODE":0,"TOWNNAME":"永康區","LI":"北灣里","LIN":"20鄰","STREET":"大安街","SECT":" ","MAREA":" ","LANE":" ","ALLEY":" ","HOUSE_NO":"４８６號","E_COORD97":174579.10999999999,"N_COORD97":2546000.9700000002,"ADDRESS":"大安街４８６號","OBJECTID":622629},"geometry":{"x":174579.11000000127,"y":2546000.9700000007}},{"attributes":{"ID":622657,"DIS_CODE":0,"TOWNNAME":"永康區","LI":"正強里","LIN":"26鄰","STREET":"中正路","SECT":" ","MAREA":" ","LANE":" ","ALLEY":" ","HOUSE_NO":"１７１號","E_COORD97":173232.13,"N_COORD97":2547895.1400000001,"ADDRESS":"中正路１７１號","OBJECTID":622630},"geometry":{"x":173232.13000000082,"y":2547895.1400000006}},{"attributes":{"ID":622658,"DIS_CODE":0,"TOWNNAME":"永康區","LI":"正強里","LIN":"39鄰","STREET":"中正路","SECT":" ","MAREA":" ","LANE":" ","ALLEY":" ","HOUSE_NO":"２４４號","E_COORD97":173219.13,"N_COORD97":2547921.2400000002,"ADDRESS":"中正路２４４號","OBJECTID":622631},"geometry":{"x":173219.12999999989,"y":2547921.2400000002}},{"attributes":{"ID":622659,"DIS_CODE":0,"TOWNNAME":"永康區","LI":"永康里","LIN":"32鄰","STREET":"永康街","SECT":" ","MAREA":" ","LANE":" ","ALLEY":" ","HOUSE_NO":"２６１號","E_COORD97":174329.51999999999,"N_COORD97":2547077.6400000001,"ADDRESS":"永康街２６１號","OBJECTID":622632},"geometry":{"x":174329.52000000048,"y":2547077.6400000006}},{"attributes":{"ID":622660,"DIS_CODE":0,"TOWNNAME":"永康區","LI":"北灣里","LIN":"18鄰","STREET":"大安街","SECT":" ","MAREA":" ","LANE":" ","ALLEY":" ","HOUSE_NO":"４３８號","E_COORD97":174600.04000000001,"N_COORD97":2545869.6600000001,"ADDRESS":"大安街４３８號","OBJECTID":622633},"geometry":{"x":174600.04000000004,"y":2545869.6600000001}},{"attributes":{"ID":622661,"DIS_CODE":0,"TOWNNAME":"永康區","LI":"正強里","LIN":"25鄰","STREET":"中正路","SECT":" ","MAREA":" ","LANE":" ","ALLEY":" ","HOUSE_NO":"１５１號","E_COORD97":173301,"N_COORD97":2547880.75,"ADDRESS":"中正路１５１號","OBJECTID":622634},"geometry":{"x":173301.00000000093,"y":2547880.7500000037}},{"attributes":{"ID":622662,"DIS_CODE":0,"TOWNNAME":"永康區","LI":"正強里","LIN":"5鄰","STREET":"中正路","SECT":" ","MAREA":" ","LANE":" ","ALLEY":" ","HOUSE_NO":"５７號之３","E_COORD97":173584,"N_COORD97":2547802.2200000002,"ADDRESS":"中正路５７號之３","OBJECTID":622635},"geometry":{"x":173584.00000000093,"y":2547802.2200000007}},{"attributes":{"ID":622663,"DIS_CODE":0,"TOWNNAME":"永康區","LI":"正強里","LIN":"26鄰","STREET":"中正路","SECT":" ","MAREA":" ","LANE":" ","ALLEY":" ","HOUSE_NO":"１６３號","E_COORD97":173249.79999999999,"N_COORD97":2547890.1400000001,"ADDRESS":"中正路１６３號","OBJECTID":622636},"geometry":{"x":173249.80000000075,"y":2547890.1400000025}},{"attributes":{"ID":622664,"DIS_CODE":0,"TOWNNAME":"永康區","LI":"正強里","LIN":"26鄰","STREET":"中正路","SECT":" ","MAREA":" ","LANE":" ","ALLEY":" ","HOUSE_NO":"１６５號","E_COORD97":173245.42999999999,"N_COORD97":2547891.3900000001,"ADDRESS":"中正路１６５號","OBJECTID":622637},"geometry":{"x":173245.43000000063,"y":2547891.3900000025}},{"attributes":{"ID":622665,"DIS_CODE":0,"TOWNNAME":"永康區","LI":"正強里","LIN":"39鄰","STREET":"中正路","SECT":" ","MAREA":" ","LANE":" ","ALLEY":" ","HOUSE_NO":"２３６號","E_COORD97":173243.79999999999,"N_COORD97":2547911.2400000002,"ADDRESS":"中正路２３６號","OBJECTID":622638},"geometry":{"x":173243.79999999981,"y":2547911.2400000002}},{"attributes":{"ID":622666,"DIS_CODE":0,"TOWNNAME":"永康區","LI":"北灣里","LIN":"20鄰","STREET":"大安街","SECT":" ","MAREA":" ","LANE":" ","ALLEY":" ","HOUSE_NO":"４８２號","E_COORD97":174577.82000000001,"N_COORD97":2545996.4700000002,"ADDRESS":"大安街４８２號","OBJECTID":622639},"geometry":{"x":174577.8200000003,"y":2545996.4700000025}},{"attributes":{"ID":622667,"DIS_CODE":0,"TOWNNAME":"永康區","LI":"正強里","LIN":"25鄰","STREET":"中正路","SECT":" ","MAREA":" ","LANE":" ","ALLEY":" ","HOUSE_NO":"１４１號","E_COORD97":173323.70000000001,"N_COORD97":2547878,"ADDRESS":"中正路１４１號","OBJECTID":622640},"geometry":{"x":173323.70000000112,"y":2547878}},{"attributes":{"ID":622668,"DIS_CODE":0,"TOWNNAME":"永康區","LI":"北灣里","LIN":"39鄰","STREET":"永大路","SECT":"二段","MAREA":" ","LANE":" ","ALLEY":" ","HOUSE_NO":"１０５２號","E_COORD97":174444.51000000001,"N_COORD97":2546446.73,"ADDRESS":"永大路二段１０５２號","OBJECTID":622641},"geometry":{"x":174444.51000000164,"y":2546446.7300000004}},{"attributes":{"ID":622669,"DIS_CODE":0,"TOWNNAME":"永康區","LI":"北灣里","LIN":"20鄰","STREET":"北興路","SECT":" ","MAREA":" ","LANE":" ","ALLEY":" ","HOUSE_NO":"８號","E_COORD97":174614.72,"N_COORD97":2546005.9399999999,"ADDRESS":"北興路８號","OBJECTID":622642},"geometry":{"x":174614.72000000067,"y":2546005.9399999995}},{"attributes":{"ID":622670,"DIS_CODE":0,"TOWNNAME":"永康區","LI":"北灣里","LIN":"20鄰","STREET":"北興路","SECT":" ","MAREA":" ","LANE":" ","ALLEY":" ","HOUSE_NO":"１０號","E_COORD97":174622.51999999999,"N_COORD97":2545999.0099999998,"ADDRESS":"北興路１０號","OBJECTID":622643},"geometry":{"x":174622.52000000048,"y":2545999.0099999998}},{"attributes":{"ID":622671,"DIS_CODE":0,"TOWNNAME":"永康區","LI":"北灣里","LIN":"39鄰","STREET":"大同街","SECT":" ","MAREA":" ","LANE":" ","ALLEY":" ","HOUSE_NO":"６２５號","E_COORD97":174573.07000000001,"N_COORD97":2546440.25,"ADDRESS":"大同街６２５號","OBJECTID":622644},"geometry":{"x":174573.0700000003,"y":2546440.2500000019}},{"attributes":{"ID":622672,"DIS_CODE":0,"TOWNNAME":"永康區","LI":"北灣里","LIN":"39鄰","STREET":"大同街","SECT":" ","MAREA":" ","LANE":" ","ALLEY":" ","HOUSE_NO":"６３７號","E_COORD97":174566.51999999999,"N_COORD97":2546475.2400000002,"ADDRESS":"大同街６３７號","OBJECTID":622645},"geometry":{"x":174566.52000000048,"y":2546475.2400000021}},{"attributes":{"ID":622673,"DIS_CODE":0,"TOWNNAME":"永康區","LI":"北灣里","LIN":"39鄰","STREET":"大同街","SECT":" ","MAREA":" ","LANE":" ","ALLEY":" ","HOUSE_NO":"６３３號","E_COORD97":174569.10000000001,"N_COORD97":2546467.2400000002,"ADDRESS":"大同街６３３號","OBJECTID":622646},"geometry":{"x":174569.0999999987,"y":2546467.2400000039}},{"attributes":{"ID":622674,"DIS_CODE":0,"TOWNNAME":"永康區","LI":"永康里","LIN":"38鄰","STREET":"大同街","SECT":" ","MAREA":" ","LANE":" ","ALLEY":" ","HOUSE_NO":"７７０號","E_COORD97":174528.20000000001,"N_COORD97":2546707.0899999999,"ADDRESS":"大同街７７０號","OBJECTID":622647},"geometry":{"x":174528.20000000019,"y":2546707.0899999999}},{"attributes":{"ID":622675,"DIS_CODE":0,"TOWNNAME":"永康區","LI":"北灣里","LIN":"39鄰","STREET":"永大路","SECT":"二段","MAREA":" ","LANE":" ","ALLEY":" ","HOUSE_NO":"９８８號","E_COORD97":174462.76000000001,"N_COORD97":2546375.3799999999,"ADDRESS":"永大路二段９８８號","OBJECTID":622648},"geometry":{"x":174462.75999999978,"y":2546375.379999999}},{"attributes":{"ID":622676,"DIS_CODE":0,"TOWNNAME":"永康區","LI":"北灣里","LIN":"20鄰","STREET":"大安街","SECT":" ","MAREA":" ","LANE":" ","ALLEY":" ","HOUSE_NO":"４９６號","E_COORD97":174587.81,"N_COORD97":2546018.2200000002,"ADDRESS":"大安街４９６號","OBJECTID":622649},"geometry":{"x":174587.80999999959,"y":2546018.2200000025}},{"attributes":{"ID":622677,"DIS_CODE":0,"TOWNNAME":"永康區","LI":"正強里","LIN":"32鄰","STREET":"四維街","SECT":" ","MAREA":" ","LANE":" ","ALLEY":" ","HOUSE_NO":"４７號","E_COORD97":173397.97,"N_COORD97":2548049.25,"ADDRESS":"四維街４７號","OBJECTID":622650},"geometry":{"x":173397.96999999974,"y":2548049.25}},{"attributes":{"ID":622678,"DIS_CODE":0,"TOWNNAME":"永康區","LI":"北灣里","LIN":"20鄰","STREET":"大安街","SECT":" ","MAREA":" ","LANE":" ","ALLEY":" ","HOUSE_NO":"４７０號","E_COORD97":174574.89999999999,"N_COORD97":2545960.2599999998,"ADDRESS":"大安街４７０號","OBJECTID":622651},"geometry":{"x":174574.9000000013,"y":2545960.2599999998}},{"attributes":{"ID":622679,"DIS_CODE":0,"TOWNNAME":"永康區","LI":"北灣里","LIN":"25鄰","STREET":"大灣路","SECT":" ","MAREA":" ","LANE":" ","ALLEY":" ","HOUSE_NO":"１７５號","E_COORD97":175030.59,"N_COORD97":2545401.3399999999,"ADDRESS":"大灣路１７５號","OBJECTID":622652},"geometry":{"x":175030.59000000171,"y":2545401.3399999999}},{"attributes":{"ID":622680,"DIS_CODE":0,"TOWNNAME":"永康區","LI":"北灣里","LIN":"39鄰","STREET":"大同街","SECT":" ","MAREA":" ","LANE":" ","ALLEY":" ","HOUSE_NO":"６４１號","E_COORD97":174561.20000000001,"N_COORD97":2546490.23,"ADDRESS":"大同街６４１號","OBJECTID":622653},"geometry":{"x":174561.20000000112,"y":2546490.2300000004}},{"attributes":{"ID":622681,"DIS_CODE":0,"TOWNNAME":"永康區","LI":"正強里","LIN":"32鄰","STREET":"中正路","SECT":" ","MAREA":" ","LANE":" ","ALLEY":" ","HOUSE_NO":"２２４號","E_COORD97":173323.79999999999,"N_COORD97":2547916.7400000002,"ADDRESS":"中正路２２４號","OBJECTID":622654},"geometry":{"x":173323.80000000168,"y":2547916.7400000002}},{"attributes":{"ID":622682,"DIS_CODE":0,"TOWNNAME":"永康區","LI":"北灣里","LIN":"41鄰","STREET":"信義二街","SECT":" ","MAREA":" ","LANE":" ","ALLEY":" ","HOUSE_NO":"５０號","E_COORD97":175122.84,"N_COORD97":2545756.2400000002,"ADDRESS":"信義二街５０號","OBJECTID":622655},"geometry":{"x":175122.84000000078,"y":2545756.2400000021}},{"attributes":{"ID":622683,"DIS_CODE":0,"TOWNNAME":"永康區","LI":"正強里","LIN":"25鄰","STREET":"中正路","SECT":" ","MAREA":" ","LANE":" ","ALLEY":" ","HOUSE_NO":"１２９號","E_COORD97":173354.34,"N_COORD97":2547875.25,"ADDRESS":"中正路１２９號","OBJECTID":622656},"geometry":{"x":173354.34000000078,"y":2547875.2500000019}},{"attributes":{"ID":622684,"DIS_CODE":0,"TOWNNAME":"永康區","LI":"北灣里","LIN":"25鄰","STREET":"大灣路","SECT":" ","MAREA":" ","LANE":" ","ALLEY":" ","HOUSE_NO":"２０５號","E_COORD97":174990.25,"N_COORD97":2545336.04,"ADDRESS":"大灣路２０５號","OBJECTID":622657},"geometry":{"x":174990.25,"y":2545336.040000001}},{"attributes":{"ID":622685,"DIS_CODE":0,"TOWNNAME":"永康區","LI":"北灣里","LIN":"39鄰","STREET":"大同街","SECT":" ","MAREA":" ","LANE":" ","ALLEY":" ","HOUSE_NO":"６５２號","E_COORD97":174622.85000000001,"N_COORD97":2546369.1899999999,"ADDRESS":"大同街６５２號","OBJECTID":622658},"geometry":{"x":174622.84999999963,"y":2546369.1900000013}},{"attributes":{"ID":622686,"DIS_CODE":0,"TOWNNAME":"永康區","LI":"北灣里","LIN":"25鄰","STREET":"大灣路","SECT":" ","MAREA":" ","LANE":" ","ALLEY":" ","HOUSE_NO":"１８１號","E_COORD97":175024.84,"N_COORD97":2545389.6699999999,"ADDRESS":"大灣路１８１號","OBJECTID":622659},"geometry":{"x":175024.83999999985,"y":2545389.6700000018}},{"attributes":{"ID":622687,"DIS_CODE":0,"TOWNNAME":"永康區","LI":"北灣里","LIN":"25鄰","STREET":"大灣路","SECT":" ","MAREA":" ","LANE":" ","ALLEY":" ","HOUSE_NO":"１８９號","E_COORD97":175016.07999999999,"N_COORD97":2545376.1699999999,"ADDRESS":"大灣路１８９號","OBJECTID":622660},"geometry":{"x":175016.08000000101,"y":2545376.1700000018}},{"attributes":{"ID":622688,"DIS_CODE":0,"TOWNNAME":"永康區","LI":"北灣里","LIN":"20鄰","STREET":"北興路","SECT":" ","MAREA":" ","LANE":" ","ALLEY":" ","HOUSE_NO":"１１號","E_COORD97":174626.07999999999,"N_COORD97":2546048.5800000001,"ADDRESS":"北興路１１號","OBJECTID":622661},"geometry":{"x":174626.08000000101,"y":2546048.5800000019}},{"attributes":{"ID":622689,"DIS_CODE":0,"TOWNNAME":"永康區","LI":"北灣里","LIN":"25鄰","STREET":"大灣路","SECT":" ","MAREA":" ","LANE":" ","ALLEY":" ","HOUSE_NO":"２１３號","E_COORD97":174981.09,"N_COORD97":2545319.54,"ADDRESS":"大灣路２１３號","OBJECTID":622662},"geometry":{"x":174981.08999999985,"y":2545319.540000001}},{"attributes":{"ID":622690,"DIS_CODE":0,"TOWNNAME":"永康區","LI":"北灣里","LIN":"39鄰","STREET":"大同街","SECT":" ","MAREA":" ","LANE":" ","ALLEY":" ","HOUSE_NO":"６５３號","E_COORD97":174561.10999999999,"N_COORD97":2546515.2400000002,"ADDRESS":"大同街６５３號","OBJECTID":622663},"geometry":{"x":174561.11000000034,"y":2546515.2400000021}},{"attributes":{"ID":622691,"DIS_CODE":0,"TOWNNAME":"永康區","LI":"北灣里","LIN":"20鄰","STREET":"大安街","SECT":" ","MAREA":" ","LANE":" ","ALLEY":" ","HOUSE_NO":"４７８號","E_COORD97":174575.57000000001,"N_COORD97":2545987.21,"ADDRESS":"大安街４７８號","OBJECTID":622664},"geometry":{"x":174575.57000000123,"y":2545987.2100000028}},{"attributes":{"ID":622692,"DIS_CODE":0,"TOWNNAME":"永康區","LI":"北灣里","LIN":"39鄰","STREET":"大同街","SECT":" ","MAREA":" ","LANE":" ","ALLEY":" ","HOUSE_NO":"６５９號","E_COORD97":174555.73000000001,"N_COORD97":2546526.7400000002,"ADDRESS":"大同街６５９號","OBJECTID":622665},"geometry":{"x":174555.73000000231,"y":2546526.7400000002}},{"attributes":{"ID":622693,"DIS_CODE":0,"TOWNNAME":"永康區","LI":"北灣里","LIN":"39鄰","STREET":"大同街","SECT":" ","MAREA":" ","LANE":" ","ALLEY":" ","HOUSE_NO":"６４７號","E_COORD97":174559.14000000001,"N_COORD97":2546501.73,"ADDRESS":"大同街６４７號","OBJECTID":622666},"geometry":{"x":174559.1400000006,"y":2546501.7300000042}},{"attributes":{"ID":622694,"DIS_CODE":0,"TOWNNAME":"永康區","LI":"北灣里","LIN":"25鄰","STREET":"大灣路","SECT":" ","MAREA":" ","LANE":" ","ALLEY":" ","HOUSE_NO":"１３７號","E_COORD97":175081.64999999999,"N_COORD97":2545478.1000000001,"ADDRESS":"大灣路１３７號","OBJECTID":622667},"geometry":{"x":175081.65000000224,"y":2545478.1000000015}},{"attributes":{"ID":622695,"DIS_CODE":0,"TOWNNAME":"永康區","LI":"北灣里","LIN":"25鄰","STREET":"大灣路","SECT":" ","MAREA":" ","LANE":" ","ALLEY":" ","HOUSE_NO":"１８７號","E_COORD97":175018.73000000001,"N_COORD97":2545379.9199999999,"ADDRESS":"大灣路１８７號","OBJECTID":622668},"geometry":{"x":175018.73000000138,"y":2545379.9199999999}},{"attributes":{"ID":622696,"DIS_CODE":0,"TOWNNAME":"永康區","LI":"永康里","LIN":"38鄰","STREET":"大同街","SECT":" ","MAREA":" ","LANE":" ","ALLEY":" ","HOUSE_NO":"７１３號","E_COORD97":174507.14999999999,"N_COORD97":2546677.9900000002,"ADDRESS":"大同街７１３號","OBJECTID":622669},"geometry":{"x":174507.1500000013,"y":2546677.9900000002}},{"attributes":{"ID":622697,"DIS_CODE":0,"TOWNNAME":"永康區","LI":"正強里","LIN":"26鄰","STREET":"中正路","SECT":" ","MAREA":" ","LANE":" ","ALLEY":" ","HOUSE_NO":"１５７號","E_COORD97":173266.45999999999,"N_COORD97":2547885.3900000001,"ADDRESS":"中正路１５７號","OBJECTID":622670},"geometry":{"x":173266.45999999996,"y":2547885.3900000025}},{"attributes":{"ID":622698,"DIS_CODE":0,"TOWNNAME":"永康區","LI":"北灣里","LIN":"25鄰","STREET":"大灣路","SECT":" ","MAREA":" ","LANE":" ","ALLEY":" ","HOUSE_NO":"１５１號","E_COORD97":175068.63,"N_COORD97":2545454.71,"ADDRESS":"大灣路１５１號","OBJECTID":622671},"geometry":{"x":175068.62999999989,"y":2545454.7100000046}},{"attributes":{"ID":622699,"DIS_CODE":0,"TOWNNAME":"永康區","LI":"北灣里","LIN":"25鄰","STREET":"大灣路","SECT":" ","MAREA":" ","LANE":" ","ALLEY":" ","HOUSE_NO":"１６５號","E_COORD97":175041.10999999999,"N_COORD97":2545418.0899999999,"ADDRESS":"大灣路１６５號","OBJECTID":622672},"geometry":{"x":175041.1100000022,"y":2545418.0900000017}},{"attributes":{"ID":622700,"DIS_CODE":0,"TOWNNAME":"永康區","LI":"北灣里","LIN":"41鄰","STREET":"信義二街","SECT":" ","MAREA":" ","LANE":" ","ALLEY":" ","HOUSE_NO":"４７號","E_COORD97":175103.67999999999,"N_COORD97":2545741.52,"ADDRESS":"信義二街４７號","OBJECTID":622673},"geometry":{"x":175103.6799999997,"y":2545741.5199999996}},{"attributes":{"ID":622701,"DIS_CODE":0,"TOWNNAME":"永康區","LI":"王行里","LIN":"14鄰","STREET":"環工路","SECT":" ","MAREA":" ","LANE":" ","ALLEY":" ","HOUSE_NO":"３號之１","E_COORD97":175732.10999999999,"N_COORD97":2550072.5600000001,"ADDRESS":"環工路３號之１","OBJECTID":622674},"geometry":{"x":175732.11000000034,"y":2550072.5599999987}},{"attributes":{"ID":622702,"DIS_CODE":0,"TOWNNAME":"永康區","LI":"正強里","LIN":"4鄰","STREET":"正義街","SECT":" ","MAREA":" ","LANE":" ","ALLEY":" ","HOUSE_NO":"８號","E_COORD97":173630.48999999999,"N_COORD97":2547728.2599999998,"ADDRESS":"正義街８號","OBJECTID":622675},"geometry":{"x":173630.49000000115,"y":2547728.2600000016}},{"attributes":{"ID":622703,"DIS_CODE":0,"TOWNNAME":"永康區","LI":"正強里","LIN":"39鄰","STREET":"中正路","SECT":" ","MAREA":" ","LANE":" ","ALLEY":" ","HOUSE_NO":"２５０號","E_COORD97":173201.60000000001,"N_COORD97":2547926.7400000002,"ADDRESS":"中正路２５０號","OBJECTID":622676},"geometry":{"x":173201.60000000056,"y":2547926.7400000021}},{"attributes":{"ID":622704,"DIS_CODE":0,"TOWNNAME":"永康區","LI":"北灣里","LIN":"25鄰","STREET":"大灣路","SECT":" ","MAREA":" ","LANE":" ","ALLEY":" ","HOUSE_NO":"１９９號","E_COORD97":174997.23999999999,"N_COORD97":2545347.79,"ADDRESS":"大灣路１９９號","OBJECTID":622677},"geometry":{"x":174997.24000000022,"y":2545347.790000001}},{"attributes":{"ID":622705,"DIS_CODE":0,"TOWNNAME":"永康區","LI":"五王里","LIN":"25鄰","STREET":"五福街","SECT":" ","MAREA":" ","LANE":" ","ALLEY":" ","HOUSE_NO":"５８號","E_COORD97":171376.89999999999,"N_COORD97":2545894.5600000001,"ADDRESS":"五福街５８號","OBJECTID":622678},"geometry":{"x":171376.90000000037,"y":2545894.5600000005}},{"attributes":{"ID":622706,"DIS_CODE":0,"TOWNNAME":"永康區","LI":"北灣里","LIN":"18鄰","STREET":"文賢街","SECT":" ","MAREA":" ","LANE":" ","ALLEY":" ","HOUSE_NO":"４３６號","E_COORD97":174674.62,"N_COORD97":2545827.0800000001,"ADDRESS":"文賢街４３６號","OBJECTID":622679},"geometry":{"x":174674.62000000197,"y":2545827.0800000001}},{"attributes":{"ID":622707,"DIS_CODE":0,"TOWNNAME":"永康區","LI":"北灣里","LIN":"18鄰","STREET":"文賢街","SECT":" ","MAREA":" ","LANE":" ","ALLEY":" ","HOUSE_NO":"４４８號","E_COORD97":174647.75,"N_COORD97":2545833.6800000002,"ADDRESS":"文賢街４４８號","OBJECTID":622680},"geometry":{"x":174647.75,"y":2545833.6800000016}},{"attributes":{"ID":622708,"DIS_CODE":0,"TOWNNAME":"永康區","LI":"正強里","LIN":"25鄰","STREET":"中正路","SECT":" ","MAREA":" ","LANE":" ","ALLEY":" ","HOUSE_NO":"１４３號","E_COORD97":173319.14999999999,"N_COORD97":2547878.75,"ADDRESS":"中正路１４３號","OBJECTID":622681},"geometry":{"x":173319.1500000013,"y":2547878.7500000019}},{"attributes":{"ID":622709,"DIS_CODE":0,"TOWNNAME":"永康區","LI":"北灣里","LIN":"39鄰","STREET":"永大路","SECT":"二段","MAREA":" ","LANE":" ","ALLEY":" ","HOUSE_NO":"９７８號","E_COORD97":174472.44,"N_COORD97":2546342.0600000001,"ADDRESS":"永大路二段９７８號","OBJECTID":622682},"geometry":{"x":174472.44000000041,"y":2546342.0600000005}},{"attributes":{"ID":622710,"DIS_CODE":0,"TOWNNAME":"永康區","LI":"北灣里","LIN":"39鄰","STREET":"大同街","SECT":" ","MAREA":" ","LANE":" ","ALLEY":" ","HOUSE_NO":"６２９號","E_COORD97":174571.26999999999,"N_COORD97":2546449.75,"ADDRESS":"大同街６２９號","OBJECTID":622683},"geometry":{"x":174571.26999999862,"y":2546449.75}},{"attributes":{"ID":622711,"DIS_CODE":0,"TOWNNAME":"永康區","LI":"正強里","LIN":"4鄰","STREET":"中正路","SECT":" ","MAREA":" ","LANE":" ","ALLEY":" ","HOUSE_NO":"３７號","E_COORD97":173635.42000000001,"N_COORD97":2547757.8300000001,"ADDRESS":"中正路３７號","OBJECTID":622684},"geometry":{"x":173635.42000000086,"y":2547757.8300000001}},{"attributes":{"ID":622712,"DIS_CODE":0,"TOWNNAME":"永康區","LI":"正強里","LIN":"40鄰","STREET":"四維街","SECT":" ","MAREA":" ","LANE":" ","ALLEY":" ","HOUSE_NO":"１８３號","E_COORD97":173262.75,"N_COORD97":2548441.7000000002,"ADDRESS":"四維街１８３號","OBJECTID":622685},"geometry":{"x":173262.75,"y":2548441.6999999993}},{"attributes":{"ID":622713,"DIS_CODE":0,"TOWNNAME":"永康區","LI":"正強里","LIN":"4鄰","STREET":"中正路","SECT":" ","MAREA":" ","LANE":" ","ALLEY":" ","HOUSE_NO":"３５號","E_COORD97":173638.37,"N_COORD97":2547755.3300000001,"ADDRESS":"中正路３５號","OBJECTID":622686},"geometry":{"x":173638.37000000011,"y":2547755.3300000019}},{"attributes":{"ID":622714,"DIS_CODE":0,"TOWNNAME":"永康區","LI":"北灣里","LIN":"18鄰","STREET":"文賢街","SECT":" ","MAREA":" ","LANE":" ","ALLEY":" ","HOUSE_NO":"４２８號","E_COORD97":174701.12,"N_COORD97":2545821.3300000001,"ADDRESS":"文賢街４２８號","OBJECTID":622687},"geometry":{"x":174701.12000000011,"y":2545821.3300000001}},{"attributes":{"ID":622715,"DIS_CODE":0,"TOWNNAME":"永康區","LI":"北灣里","LIN":"18鄰","STREET":"文賢街","SECT":" ","MAREA":" ","LANE":" ","ALLEY":" ","HOUSE_NO":"４３８號","E_COORD97":174666.95000000001,"N_COORD97":2545832.1600000001,"ADDRESS":"文賢街４３８號","OBJECTID":622688},"geometry":{"x":174666.95000000019,"y":2545832.1600000001}},{"attributes":{"ID":622716,"DIS_CODE":0,"TOWNNAME":"永康區","LI":"五王里","LIN":"25鄰","STREET":"五福街","SECT":" ","MAREA":" ","LANE":" ","ALLEY":" ","HOUSE_NO":"５０號","E_COORD97":171367.26999999999,"N_COORD97":2545888.5600000001,"ADDRESS":"五福街５０號","OBJECTID":622689},"geometry":{"x":171367.26999999955,"y":2545888.5600000005}},{"attributes":{"ID":622717,"DIS_CODE":0,"TOWNNAME":"永康區","LI":"北灣里","LIN":"18鄰","STREET":"文賢街","SECT":" ","MAREA":" ","LANE":" ","ALLEY":" ","HOUSE_NO":"４５２號","E_COORD97":174639.07999999999,"N_COORD97":2545836.6699999999,"ADDRESS":"文賢街４５２號","OBJECTID":622690},"geometry":{"x":174639.08000000007,"y":2545836.6699999981}},{"attributes":{"ID":622718,"DIS_CODE":0,"TOWNNAME":"永康區","LI":"正強里","LIN":"4鄰","STREET":"中正路","SECT":" ","MAREA":" ","LANE":" ","ALLEY":" ","HOUSE_NO":"４１號","E_COORD97":173628.70000000001,"N_COORD97":2547763.3300000001,"ADDRESS":"中正路４１號","OBJECTID":622691},"geometry":{"x":173628.70000000112,"y":2547763.3300000019}},{"attributes":{"ID":622719,"DIS_CODE":0,"TOWNNAME":"永康區","LI":"北灣里","LIN":"18鄰","STREET":"文賢街","SECT":" ","MAREA":" ","LANE":" ","ALLEY":" ","HOUSE_NO":"４４６號","E_COORD97":174653.73000000001,"N_COORD97":2545832.1800000002,"ADDRESS":"文賢街４４６號","OBJECTID":622692},"geometry":{"x":174653.73000000045,"y":2545832.1799999997}},{"attributes":{"ID":622720,"DIS_CODE":0,"TOWNNAME":"永康區","LI":"正強里","LIN":"4鄰","STREET":"中正路","SECT":" ","MAREA":" ","LANE":" ","ALLEY":" ","HOUSE_NO":"４３號","E_COORD97":173625.70000000001,"N_COORD97":2547766.0800000001,"ADDRESS":"中正路４３號","OBJECTID":622693},"geometry":{"x":173625.70000000112,"y":2547766.0800000001}},{"attributes":{"ID":622721,"DIS_CODE":0,"TOWNNAME":"永康區","LI":"北灣里","LIN":"25鄰","STREET":"大同街","SECT":" ","MAREA":" ","LANE":" ","ALLEY":" ","HOUSE_NO":"４３號","E_COORD97":175226.25,"N_COORD97":2545412.75,"ADDRESS":"大同街４３號","OBJECTID":622694},"geometry":{"x":175226.25000000186,"y":2545412.7500000037}},{"attributes":{"ID":622722,"DIS_CODE":0,"TOWNNAME":"永康區","LI":"北灣里","LIN":"25鄰","STREET":"大同街","SECT":" ","MAREA":" ","LANE":" ","ALLEY":" ","HOUSE_NO":"４１號","E_COORD97":175230.39000000001,"N_COORD97":2545412.25,"ADDRESS":"大同街４１號","OBJECTID":622695},"geometry":{"x":175230.3900000006,"y":2545412.25}},{"attributes":{"ID":622723,"DIS_CODE":0,"TOWNNAME":"永康區","LI":"正強里","LIN":"26鄰","STREET":"中正路","SECT":" ","MAREA":" ","LANE":" ","ALLEY":" ","HOUSE_NO":"１６７號","E_COORD97":173240.60000000001,"N_COORD97":2547893.1400000001,"ADDRESS":"中正路１６７號","OBJECTID":622696},"geometry":{"x":173240.60000000056,"y":2547893.1400000025}},{"attributes":{"ID":622724,"DIS_CODE":0,"TOWNNAME":"永康區","LI":"正強里","LIN":"25鄰","STREET":"中正路","SECT":" ","MAREA":" ","LANE":" ","ALLEY":" ","HOUSE_NO":"１５１號之１","E_COORD97":173296.22,"N_COORD97":2547881.2999999998,"ADDRESS":"中正路１５１號之１","OBJECTID":622697},"geometry":{"x":173296.22000000067,"y":2547881.3000000045}},{"attributes":{"ID":622725,"DIS_CODE":0,"TOWNNAME":"永康區","LI":"北灣里","LIN":"18鄰","STREET":"文賢街","SECT":" ","MAREA":" ","LANE":" ","ALLEY":" ","HOUSE_NO":"４６０號","E_COORD97":174625.04000000001,"N_COORD97":2545839.9199999999,"ADDRESS":"文賢街４６０號","OBJECTID":622698},"geometry":{"x":174625.04000000097,"y":2545839.9200000018}},{"attributes":{"ID":622726,"DIS_CODE":0,"TOWNNAME":"永康區","LI":"五王里","LIN":"25鄰","STREET":"五福街","SECT":" ","MAREA":" ","LANE":" ","ALLEY":" ","HOUSE_NO":"４０號","E_COORD97":171348.48000000001,"N_COORD97":2545882.7999999998,"ADDRESS":"五福街４０號","OBJECTID":622699},"geometry":{"x":171348.48000000138,"y":2545882.8000000007}},{"attributes":{"ID":622727,"DIS_CODE":0,"TOWNNAME":"永康區","LI":"正強里","LIN":"40鄰","STREET":"四維街","SECT":" ","MAREA":" ","LANE":" ","ALLEY":" ","HOUSE_NO":"１８５號","E_COORD97":173261.67999999999,"N_COORD97":2548447.0699999998,"ADDRESS":"四維街１８５號","OBJECTID":622700},"geometry":{"x":173261.68000000156,"y":2548447.0700000003}},{"attributes":{"ID":622728,"DIS_CODE":0,"TOWNNAME":"永康區","LI":"北灣里","LIN":"25鄰","STREET":"大灣六街","SECT":" ","MAREA":" ","LANE":" ","ALLEY":" ","HOUSE_NO":"８６號","E_COORD97":175107.32000000001,"N_COORD97":2545328.3900000001,"ADDRESS":"大灣六街８６號","OBJECTID":622701},"geometry":{"x":175107.3200000003,"y":2545328.3900000025}},{"attributes":{"ID":622729,"DIS_CODE":0,"TOWNNAME":"永康區","LI":"東灣里","LIN":"26鄰","STREET":"大灣東路","SECT":" ","MAREA":" ","LANE":" ","ALLEY":" ","HOUSE_NO":"２９８號","E_COORD97":174966.53,"N_COORD97":2544518.2599999998,"ADDRESS":"大灣東路２９８號","OBJECTID":622702},"geometry":{"x":174966.53000000026,"y":2544518.2600000016}},{"attributes":{"ID":622730,"DIS_CODE":0,"TOWNNAME":"永康區","LI":"北灣里","LIN":"25鄰","STREET":"大同街","SECT":" ","MAREA":" ","LANE":" ","ALLEY":" ","HOUSE_NO":"５１號","E_COORD97":175210.89000000001,"N_COORD97":2545414.75,"ADDRESS":"大同街５１號","OBJECTID":622703},"geometry":{"x":175210.88999999966,"y":2545414.75}},{"attributes":{"ID":622731,"DIS_CODE":0,"TOWNNAME":"永康區","LI":"復興里","LIN":"5鄰","STREET":"復興路","SECT":" ","MAREA":" ","LANE":" ","ALLEY":" ","HOUSE_NO":"４０７號","E_COORD97":172094.07000000001,"N_COORD97":2544302.6000000001,"ADDRESS":"復興路４０７號","OBJECTID":622704},"geometry":{"x":172094.07000000123,"y":2544302.6000000015}},{"attributes":{"ID":622732,"DIS_CODE":0,"TOWNNAME":"新市區","LI":"新市里","LIN":"4鄰","STREET":"華興街","SECT":" ","MAREA":" ","LANE":" ","ALLEY":" ","HOUSE_NO":"２８號","E_COORD97":177754.92999999999,"N_COORD97":2553008.75,"ADDRESS":"華興街２８號","OBJECTID":622705},"geometry":{"x":177754.9299999997,"y":2553008.7500000019}},{"attributes":{"ID":622733,"DIS_CODE":0,"TOWNNAME":"新市區","LI":"新和里","LIN":"5鄰","STREET":"昆明街","SECT":" ","MAREA":" ","LANE":" ","ALLEY":" ","HOUSE_NO":"２號之１","E_COORD97":177413.23999999999,"N_COORD97":2552384.2999999998,"ADDRESS":"昆明街２號之１","OBJECTID":622706},"geometry":{"x":177413.24000000022,"y":2552384.3000000026}},{"attributes":{"ID":622734,"DIS_CODE":0,"TOWNNAME":"新市區","LI":"新和里","LIN":"41鄰","STREET":"信義街","SECT":" ","MAREA":" ","LANE":" ","ALLEY":" ","HOUSE_NO":"４１號","E_COORD97":177211.04000000001,"N_COORD97":2552786.52,"ADDRESS":"信義街４１號","OBJECTID":622707},"geometry":{"x":177211.03999999911,"y":2552786.5199999996}},{"attributes":{"ID":622735,"DIS_CODE":0,"TOWNNAME":"新市區","LI":"新和里","LIN":"41鄰","STREET":"西寧街","SECT":" ","MAREA":" ","LANE":" ","ALLEY":" ","HOUSE_NO":"２０號","E_COORD97":177096.23999999999,"N_COORD97":2552909.75,"ADDRESS":"西寧街２０號","OBJECTID":622708},"geometry":{"x":177096.24000000022,"y":2552909.7500000019}},{"attributes":{"ID":622736,"DIS_CODE":0,"TOWNNAME":"新市區","LI":"新和里","LIN":"5鄰","STREET":"昆明街","SECT":" ","MAREA":" ","LANE":" ","ALLEY":" ","HOUSE_NO":"２號之３","E_COORD97":177405.38,"N_COORD97":2552382.0499999998,"ADDRESS":"昆明街２號之３","OBJECTID":622709},"geometry":{"x":177405.38000000175,"y":2552382.0500000045}},{"attributes":{"ID":622737,"DIS_CODE":0,"TOWNNAME":"新市區","LI":"新和里","LIN":"20鄰","STREET":"成功街","SECT":" ","MAREA":" ","LANE":" ","ALLEY":" ","HOUSE_NO":"１４號","E_COORD97":177460.12,"N_COORD97":2552611.02,"ADDRESS":"成功街１４號","OBJECTID":622710},"geometry":{"x":177460.12000000104,"y":2552611.0199999996}},{"attributes":{"ID":622738,"DIS_CODE":0,"TOWNNAME":"新市區","LI":"新和里","LIN":"32鄰","STREET":"華興街","SECT":" ","MAREA":" ","LANE":" ","ALLEY":" ","HOUSE_NO":"４７號","E_COORD97":177682.64999999999,"N_COORD97":2552982,"ADDRESS":"華興街４７號","OBJECTID":622711},"geometry":{"x":177682.6500000013,"y":2552982.0000000019}},{"attributes":{"ID":622739,"DIS_CODE":0,"TOWNNAME":"新市區","LI":"新和里","LIN":"41鄰","STREET":"西寧街","SECT":" ","MAREA":" ","LANE":" ","ALLEY":" ","HOUSE_NO":"８號","E_COORD97":177141.23999999999,"N_COORD97":2552913,"ADDRESS":"西寧街８號","OBJECTID":622712},"geometry":{"x":177141.24000000115,"y":2552913}},{"attributes":{"ID":622740,"DIS_CODE":0,"TOWNNAME":"新市區","LI":"新市里","LIN":"4鄰","STREET":"華興街","SECT":" ","MAREA":" ","LANE":" ","ALLEY":" ","HOUSE_NO":"４號","E_COORD97":177804.07000000001,"N_COORD97":2553015,"ADDRESS":"華興街４號","OBJECTID":622713},"geometry":{"x":177804.0700000003,"y":2553015}},{"attributes":{"ID":622741,"DIS_CODE":0,"TOWNNAME":"新市區","LI":"新和里","LIN":"25鄰","STREET":"仁愛街","SECT":" ","MAREA":" ","LANE":" ","ALLEY":" ","HOUSE_NO":"２９６號","E_COORD97":177646.39999999999,"N_COORD97":2552967.5299999998,"ADDRESS":"仁愛街２９６號","OBJECTID":622714},"geometry":{"x":177646.40000000224,"y":2552967.5300000012}},{"attributes":{"ID":622742,"DIS_CODE":0,"TOWNNAME":"新市區","LI":"新和里","LIN":"32鄰","STREET":"華興街","SECT":" ","MAREA":" ","LANE":" ","ALLEY":" ","HOUSE_NO":"３７號","E_COORD97":177738.06,"N_COORD97":2552989,"ADDRESS":"華興街３７號","OBJECTID":622715},"geometry":{"x":177738.06000000052,"y":2552989.0000000019}},{"attributes":{"ID":622743,"DIS_CODE":0,"TOWNNAME":"新市區","LI":"新和里","LIN":"5鄰","STREET":"昆明街","SECT":" ","MAREA":" ","LANE":" ","ALLEY":" ","HOUSE_NO":"２號","E_COORD97":177415.10000000001,"N_COORD97":2552385.25,"ADDRESS":"昆明街２號","OBJECTID":622716},"geometry":{"x":177415.09999999963,"y":2552385.25}},{"attributes":{"ID":622744,"DIS_CODE":0,"TOWNNAME":"新市區","LI":"新和里","LIN":"18鄰","STREET":"銘傳街","SECT":" ","MAREA":" ","LANE":" ","ALLEY":" ","HOUSE_NO":"４７號","E_COORD97":177432.14999999999,"N_COORD97":2552662.75,"ADDRESS":"銘傳街４７號","OBJECTID":622717},"geometry":{"x":177432.15000000037,"y":2552662.7500000019}},{"attributes":{"ID":622745,"DIS_CODE":0,"TOWNNAME":"新市區","LI":"新和里","LIN":"25鄰","STREET":"仁愛街","SECT":" ","MAREA":" ","LANE":" ","ALLEY":" ","HOUSE_NO":"２１６號","E_COORD97":177610.04000000001,"N_COORD97":2552790.0299999998,"ADDRESS":"仁愛街２１６號","OBJECTID":622718},"geometry":{"x":177610.04000000097,"y":2552790.0299999993}},{"attributes":{"ID":622746,"DIS_CODE":0,"TOWNNAME":"新市區","LI":"新和里","LIN":"26鄰","STREET":"永福街","SECT":" ","MAREA":" ","LANE":" ","ALLEY":" ","HOUSE_NO":"１１號","E_COORD97":177799.39000000001,"N_COORD97":2552674.75,"ADDRESS":"永福街１１號","OBJECTID":622719},"geometry":{"x":177799.38999999966,"y":2552674.7500000037}},{"attributes":{"ID":622747,"DIS_CODE":0,"TOWNNAME":"新市區","LI":"新和里","LIN":"41鄰","STREET":"光明街","SECT":" ","MAREA":" ","LANE":" ","ALLEY":" ","HOUSE_NO":"５９之２４號","E_COORD97":177096.84,"N_COORD97":2552769.2999999998,"ADDRESS":"光明街５９之２４號","OBJECTID":622720},"geometry":{"x":177096.83999999985,"y":2552769.3000000007}},{"attributes":{"ID":622748,"DIS_CODE":0,"TOWNNAME":"新市區","LI":"新和里","LIN":"40鄰","STREET":"信義街","SECT":" ","MAREA":" ","LANE":" ","ALLEY":" ","HOUSE_NO":"８３號","E_COORD97":177208.04000000001,"N_COORD97":2552939.02,"ADDRESS":"信義街８３號","OBJECTID":622721},"geometry":{"x":177208.04000000097,"y":2552939.0199999996}},{"attributes":{"ID":622749,"DIS_CODE":0,"TOWNNAME":"新市區","LI":"新和里","LIN":"40鄰","STREET":"信義街","SECT":" ","MAREA":" ","LANE":" ","ALLEY":" ","HOUSE_NO":"９９號","E_COORD97":177208.76000000001,"N_COORD97":2552989.27,"ADDRESS":"信義街９９號","OBJECTID":622722},"geometry":{"x":177208.75999999978,"y":2552989.2699999977}},{"attributes":{"ID":622750,"DIS_CODE":0,"TOWNNAME":"新市區","LI":"新和里","LIN":"38鄰","STREET":"成功街","SECT":" ","MAREA":" ","LANE":" ","ALLEY":" ","HOUSE_NO":"３０號","E_COORD97":177465.48000000001,"N_COORD97":2552688.27,"ADDRESS":"成功街３０號","OBJECTID":622723},"geometry":{"x":177465.48000000045,"y":2552688.2700000014}},{"attributes":{"ID":622751,"DIS_CODE":0,"TOWNNAME":"新市區","LI":"新和里","LIN":"20鄰","STREET":"成功街","SECT":" ","MAREA":" ","LANE":" ","ALLEY":" ","HOUSE_NO":"４號","E_COORD97":177464.82000000001,"N_COORD97":2552579.27,"ADDRESS":"成功街４號","OBJECTID":622724},"geometry":{"x":177464.8200000003,"y":2552579.2700000033}},{"attributes":{"ID":622752,"DIS_CODE":0,"TOWNNAME":"新市區","LI":"新和里","LIN":"41鄰","STREET":"光明街","SECT":" ","MAREA":" ","LANE":" ","ALLEY":" ","HOUSE_NO":"５９之１１號","E_COORD97":177096.20000000001,"N_COORD97":2552826.5499999998,"ADDRESS":"光明街５９之１１號","OBJECTID":622725},"geometry":{"x":177096.20000000019,"y":2552826.5500000026}},{"attributes":{"ID":622753,"DIS_CODE":0,"TOWNNAME":"新市區","LI":"豐華里","LIN":"9鄰","STREET":"環西路","SECT":"二段","MAREA":" ","LANE":" ","ALLEY":" ","HOUSE_NO":"２號","E_COORD97":175819.64999999999,"N_COORD97":2555819.7799999998,"ADDRESS":"環西路二段２號","OBJECTID":622726},"geometry":{"x":175819.6500000013,"y":2555819.7799999993}},{"attributes":{"ID":622754,"DIS_CODE":0,"TOWNNAME":"新市區","LI":"新和里","LIN":"38鄰","STREET":"成功街","SECT":" ","MAREA":" ","LANE":" ","ALLEY":" ","HOUSE_NO":"３３號","E_COORD97":177456.12,"N_COORD97":2552711.27,"ADDRESS":"成功街３３號","OBJECTID":622727},"geometry":{"x":177456.12000000011,"y":2552711.2699999977}},{"attributes":{"ID":622755,"DIS_CODE":0,"TOWNNAME":"新市區","LI":"新和里","LIN":"18鄰","STREET":"銘傳街","SECT":" ","MAREA":" ","LANE":" ","ALLEY":" ","HOUSE_NO":"３７號","E_COORD97":177468.73999999999,"N_COORD97":2552657.25,"ADDRESS":"銘傳街３７號","OBJECTID":622728},"geometry":{"x":177468.74000000022,"y":2552657.25}},{"attributes":{"ID":622756,"DIS_CODE":0,"TOWNNAME":"新市區","LI":"新和里","LIN":"41鄰","STREET":"西寧街","SECT":" ","MAREA":" ","LANE":" ","ALLEY":" ","HOUSE_NO":"３號","E_COORD97":177150.07000000001,"N_COORD97":2552900.75,"ADDRESS":"西寧街３號","OBJECTID":622729},"geometry":{"x":177150.06999999937,"y":2552900.75}},{"attributes":{"ID":622757,"DIS_CODE":0,"TOWNNAME":"新市區","LI":"新和里","LIN":"26鄰","STREET":"永福街","SECT":" ","MAREA":" ","LANE":" ","ALLEY":" ","HOUSE_NO":"２之１號","E_COORD97":177821.37,"N_COORD97":2552685.2999999998,"ADDRESS":"永福街２之１號","OBJECTID":622730},"geometry":{"x":177821.37000000104,"y":2552685.3000000045}},{"attributes":{"ID":622758,"DIS_CODE":0,"TOWNNAME":"新市區","LI":"新和里","LIN":"26鄰","STREET":"永福街","SECT":" ","MAREA":" ","LANE":" ","ALLEY":" ","HOUSE_NO":"２６號","E_COORD97":177780.37,"N_COORD97":2552692.5,"ADDRESS":"永福街２６號","OBJECTID":622731},"geometry":{"x":177780.37000000197,"y":2552692.5}},{"attributes":{"ID":622759,"DIS_CODE":0,"TOWNNAME":"新市區","LI":"新和里","LIN":"25鄰","STREET":"仁愛街","SECT":" ","MAREA":" ","LANE":" ","ALLEY":" ","HOUSE_NO":"２２２號","E_COORD97":177612.25,"N_COORD97":2552801.5299999998,"ADDRESS":"仁愛街２２２號","OBJECTID":622732},"geometry":{"x":177612.25000000093,"y":2552801.5300000012}},{"attributes":{"ID":622760,"DIS_CODE":0,"TOWNNAME":"新市區","LI":"新和里","LIN":"43鄰","STREET":"民權路","SECT":" ","MAREA":" ","LANE":" ","ALLEY":" ","HOUSE_NO":"４７號","E_COORD97":177333.01999999999,"N_COORD97":2553066.54,"ADDRESS":"民權路４７號","OBJECTID":622733},"geometry":{"x":177333.02000000048,"y":2553066.540000001}},{"attributes":{"ID":622761,"DIS_CODE":0,"TOWNNAME":"新市區","LI":"新和里","LIN":"40鄰","STREET":"勝利街","SECT":" ","MAREA":" ","LANE":" ","ALLEY":" ","HOUSE_NO":"６７號","E_COORD97":177172.79000000001,"N_COORD97":2552940.5099999998,"ADDRESS":"勝利街６７號","OBJECTID":622734},"geometry":{"x":177172.79000000097,"y":2552940.5100000035}},{"attributes":{"ID":622762,"DIS_CODE":0,"TOWNNAME":"新市區","LI":"新市里","LIN":"4鄰","STREET":"華興街","SECT":" ","MAREA":" ","LANE":" ","ALLEY":" ","HOUSE_NO":"１０號","E_COORD97":177792.98000000001,"N_COORD97":2553013.25,"ADDRESS":"華興街１０號","OBJECTID":622735},"geometry":{"x":177792.98000000045,"y":2553013.25}},{"attributes":{"ID":622763,"DIS_CODE":0,"TOWNNAME":"新市區","LI":"港墘里","LIN":"25鄰","STREET":"南昌街","SECT":" ","MAREA":" ","LANE":" ","ALLEY":" ","HOUSE_NO":"１４號","E_COORD97":178020.66,"N_COORD97":2552841,"ADDRESS":"南昌街１４號","OBJECTID":622736},"geometry":{"x":178020.65999999922,"y":2552841}},{"attributes":{"ID":622764,"DIS_CODE":0,"TOWNNAME":"新市區","LI":"新和里","LIN":"26鄰","STREET":"永福街","SECT":" ","MAREA":" ","LANE":" ","ALLEY":" ","HOUSE_NO":"２號","E_COORD97":177824.10999999999,"N_COORD97":2552685,"ADDRESS":"永福街２號","OBJECTID":622737},"geometry":{"x":177824.11000000034,"y":2552685}},{"attributes":{"ID":622765,"DIS_CODE":0,"TOWNNAME":"新市區","LI":"新和里","LIN":"32鄰","STREET":"華興街","SECT":" ","MAREA":" ","LANE":" ","ALLEY":" ","HOUSE_NO":"５１號","E_COORD97":177673.45000000001,"N_COORD97":2552980.75,"ADDRESS":"華興街５１號","OBJECTID":622738},"geometry":{"x":177673.45000000112,"y":2552980.7500000019}},{"attributes":{"ID":622766,"DIS_CODE":0,"TOWNNAME":"新市區","LI":"新和里","LIN":"5鄰","STREET":"昆明街","SECT":" ","MAREA":" ","LANE":" ","ALLEY":" ","HOUSE_NO":"３２號","E_COORD97":177311.84,"N_COORD97":2552357.25,"ADDRESS":"昆明街３２號","OBJECTID":622739},"geometry":{"x":177311.83999999985,"y":2552357.2500000019}},{"attributes":{"ID":622767,"DIS_CODE":0,"TOWNNAME":"新市區","LI":"新和里","LIN":"38鄰","STREET":"成功街","SECT":" ","MAREA":" ","LANE":" ","ALLEY":" ","HOUSE_NO":"４３號","E_COORD97":177462.57000000001,"N_COORD97":2552756.52,"ADDRESS":"成功街４３號","OBJECTID":622740},"geometry":{"x":177462.57000000123,"y":2552756.5199999996}},{"attributes":{"ID":622768,"DIS_CODE":0,"TOWNNAME":"新市區","LI":"新和里","LIN":"26鄰","STREET":"永福街","SECT":" ","MAREA":" ","LANE":" ","ALLEY":" ","HOUSE_NO":"２４號","E_COORD97":177784.62,"N_COORD97":2552691.5,"ADDRESS":"永福街２４號","OBJECTID":622741},"geometry":{"x":177784.62000000011,"y":2552691.5000000019}},{"attributes":{"ID":622769,"DIS_CODE":0,"TOWNNAME":"新市區","LI":"新和里","LIN":"41鄰","STREET":"光明街","SECT":" ","MAREA":" ","LANE":" ","ALLEY":" ","HOUSE_NO":"８０號","E_COORD97":177119.92999999999,"N_COORD97":2552971,"ADDRESS":"光明街８０號","OBJECTID":622742},"geometry":{"x":177119.93000000156,"y":2552971}},{"attributes":{"ID":622770,"DIS_CODE":0,"TOWNNAME":"新市區","LI":"新和里","LIN":"25鄰","STREET":"仁愛街","SECT":" ","MAREA":" ","LANE":" ","ALLEY":" ","HOUSE_NO":"２５６號","E_COORD97":177629.84,"N_COORD97":2552880.5299999998,"ADDRESS":"仁愛街２５６號","OBJECTID":622743},"geometry":{"x":177629.84000000078,"y":2552880.5300000012}},{"attributes":{"ID":622771,"DIS_CODE":0,"TOWNNAME":"新市區","LI":"新和里","LIN":"4鄰","STREET":"中正路","SECT":" ","MAREA":" ","LANE":" ","ALLEY":" ","HOUSE_NO":"４８號","E_COORD97":177471.07000000001,"N_COORD97":2552348,"ADDRESS":"中正路４８號","OBJECTID":622744},"geometry":{"x":177471.07000000123,"y":2552348.0000000019}},{"attributes":{"ID":622772,"DIS_CODE":0,"TOWNNAME":"新市區","LI":"新和里","LIN":"4鄰","STREET":"中正路","SECT":" ","MAREA":" ","LANE":" ","ALLEY":" ","HOUSE_NO":"４２之１號","E_COORD97":177475.45999999999,"N_COORD97":2552339.7999999998,"ADDRESS":"中正路４２之１號","OBJECTID":622745},"geometry":{"x":177475.45999999996,"y":2552339.8000000045}},{"attributes":{"ID":622773,"DIS_CODE":0,"TOWNNAME":"新市區","LI":"新和里","LIN":"18鄰","STREET":"銘傳街","SECT":" ","MAREA":" ","LANE":" ","ALLEY":" ","HOUSE_NO":"３９號","E_COORD97":177462.73999999999,"N_COORD97":2552657.25,"ADDRESS":"銘傳街３９號","OBJECTID":622746},"geometry":{"x":177462.74000000115,"y":2552657.25}},{"attributes":{"ID":622774,"DIS_CODE":0,"TOWNNAME":"新市區","LI":"新和里","LIN":"41鄰","STREET":"光明街","SECT":" ","MAREA":" ","LANE":" ","ALLEY":" ","HOUSE_NO":"３９號","E_COORD97":177109.87,"N_COORD97":2552778.75,"ADDRESS":"光明街３９號","OBJECTID":622747},"geometry":{"x":177109.87000000011,"y":2552778.75}},{"attributes":{"ID":622775,"DIS_CODE":0,"TOWNNAME":"新市區","LI":"新和里","LIN":"41鄰","STREET":"信義街","SECT":" ","MAREA":" ","LANE":" ","ALLEY":" ","HOUSE_NO":"５１號","E_COORD97":177211.35000000001,"N_COORD97":2552803.27,"ADDRESS":"信義街５１號","OBJECTID":622748},"geometry":{"x":177211.34999999963,"y":2552803.2700000033}},{"attributes":{"ID":622776,"DIS_CODE":0,"TOWNNAME":"新市區","LI":"新和里","LIN":"17鄰","STREET":"銘傳街","SECT":" ","MAREA":" ","LANE":" ","ALLEY":" ","HOUSE_NO":"８號","E_COORD97":177537.98999999999,"N_COORD97":2552660.25,"ADDRESS":"銘傳街８號","OBJECTID":622749},"geometry":{"x":177537.99000000115,"y":2552660.25}},{"attributes":{"ID":622777,"DIS_CODE":0,"TOWNNAME":"新市區","LI":"新和里","LIN":"4鄰","STREET":"中正路","SECT":" ","MAREA":" ","LANE":" ","ALLEY":" ","HOUSE_NO":"５０號","E_COORD97":177469.95999999999,"N_COORD97":2552352,"ADDRESS":"中正路５０號","OBJECTID":622750},"geometry":{"x":177469.96000000089,"y":2552352.0000000019}},{"attributes":{"ID":622778,"DIS_CODE":0,"TOWNNAME":"新市區","LI":"新和里","LIN":"41鄰","STREET":"信義街","SECT":" ","MAREA":" ","LANE":" ","ALLEY":" ","HOUSE_NO":"６１號","E_COORD97":177231.14999999999,"N_COORD97":2552863.02,"ADDRESS":"信義街６１號","OBJECTID":622751},"geometry":{"x":177231.15000000224,"y":2552863.0200000014}},{"attributes":{"ID":622779,"DIS_CODE":0,"TOWNNAME":"新市區","LI":"港墘里","LIN":"4鄰","STREET":"三民街","SECT":" ","MAREA":" ","LANE":" ","ALLEY":" ","HOUSE_NO":"９６號","E_COORD97":178380.47,"N_COORD97":2553468.9900000002,"ADDRESS":"三民街９６號","OBJECTID":622752},"geometry":{"x":178380.46999999974,"y":2553468.9900000002}},{"attributes":{"ID":622780,"DIS_CODE":0,"TOWNNAME":"新市區","LI":"港墘里","LIN":"4鄰","STREET":"三民街","SECT":" ","MAREA":" ","LANE":" ","ALLEY":" ","HOUSE_NO":"９８號","E_COORD97":178375.60000000001,"N_COORD97":2553472.3799999999,"ADDRESS":"三民街９８號","OBJECTID":622753},"geometry":{"x":178375.60000000056,"y":2553472.379999999}},{"attributes":{"ID":622781,"DIS_CODE":0,"TOWNNAME":"新市區","LI":"港墘里","LIN":"4鄰","STREET":"三民街","SECT":" ","MAREA":" ","LANE":" ","ALLEY":" ","HOUSE_NO":"１２０號","E_COORD97":178316.14999999999,"N_COORD97":2553511.5600000001,"ADDRESS":"三民街１２０號","OBJECTID":622754},"geometry":{"x":178316.1500000013,"y":2553511.5600000024}},{"attributes":{"ID":622782,"DIS_CODE":0,"TOWNNAME":"新市區","LI":"港墘里","LIN":"4鄰","STREET":"三民街","SECT":" ","MAREA":" ","LANE":" ","ALLEY":" ","HOUSE_NO":"１２２號","E_COORD97":178310.98000000001,"N_COORD97":2553516.4300000002,"ADDRESS":"三民街１２２號","OBJECTID":622755},"geometry":{"x":178310.98000000138,"y":2553516.4299999997}},{"attributes":{"ID":622783,"DIS_CODE":0,"TOWNNAME":"新市區","LI":"港墘里","LIN":"4鄰","STREET":"三民街","SECT":" ","MAREA":" ","LANE":" ","ALLEY":" ","HOUSE_NO":"１２６號","E_COORD97":178305.75,"N_COORD97":2553521.8700000001,"ADDRESS":"三民街１２６號","OBJECTID":622756},"geometry":{"x":178305.75,"y":2553521.870000001}},{"attributes":{"ID":622784,"DIS_CODE":0,"TOWNNAME":"新市區","LI":"港墘里","LIN":"4鄰","STREET":"三民街","SECT":" ","MAREA":" ","LANE":" ","ALLEY":" ","HOUSE_NO":"１２８號","E_COORD97":178300.64000000001,"N_COORD97":2553526,"ADDRESS":"三民街１２８號","OBJECTID":622757},"geometry":{"x":178300.6400000006,"y":2553526}},{"attributes":{"ID":622785,"DIS_CODE":0,"TOWNNAME":"新市區","LI":"港墘里","LIN":"4鄰","STREET":"三民街","SECT":" ","MAREA":" ","LANE":" ","ALLEY":" ","HOUSE_NO":"１３０號","E_COORD97":178296.60999999999,"N_COORD97":2553530.4399999999,"ADDRESS":"三民街１３０號","OBJECTID":622758},"geometry":{"x":178296.61000000127,"y":2553530.4399999995}},{"attributes":{"ID":622786,"DIS_CODE":0,"TOWNNAME":"新市區","LI":"港墘里","LIN":"4鄰","STREET":"三民街","SECT":" ","MAREA":" ","LANE":" ","ALLEY":" ","HOUSE_NO":"１３２號","E_COORD97":178292.98000000001,"N_COORD97":2553533.7200000002,"ADDRESS":"三民街１３２號","OBJECTID":622759},"geometry":{"x":178292.98000000045,"y":2553533.7200000044}},{"attributes":{"ID":622787,"DIS_CODE":0,"TOWNNAME":"新市區","LI":"新和里","LIN":"39鄰","STREET":"中正路","SECT":" ","MAREA":" ","LANE":" ","ALLEY":" ","HOUSE_NO":"２０３之２號","E_COORD97":177427.13,"N_COORD97":2552993.5499999998,"ADDRESS":"中正路２０３之２號","OBJECTID":622760},"geometry":{"x":177427.12999999989,"y":2552993.5500000026}},{"attributes":{"ID":622788,"DIS_CODE":0,"TOWNNAME":"新市區","LI":"新和里","LIN":"46鄰","STREET":"和平街","SECT":" ","MAREA":" ","LANE":" ","ALLEY":" ","HOUSE_NO":"２１６號","E_COORD97":177341.57999999999,"N_COORD97":2553200.6400000001,"ADDRESS":"和平街２１６號","OBJECTID":622761},"geometry":{"x":177341.58000000101,"y":2553200.6400000006}},{"attributes":{"ID":622789,"DIS_CODE":0,"TOWNNAME":"新市區","LI":"社內里","LIN":"4鄰","STREET":"富強路","SECT":" ","MAREA":" ","LANE":" ","ALLEY":" ","HOUSE_NO":"３９１號","E_COORD97":176676.66,"N_COORD97":2551813.6000000001,"ADDRESS":"富強路３９１號","OBJECTID":622762},"geometry":{"x":176676.66000000108,"y":2551813.5999999996}},{"attributes":{"ID":622790,"DIS_CODE":0,"TOWNNAME":"新市區","LI":"社內里","LIN":"4鄰","STREET":"富強路","SECT":" ","MAREA":" ","LANE":" ","ALLEY":" ","HOUSE_NO":"３９３號","E_COORD97":176660.29999999999,"N_COORD97":2551802.8700000001,"ADDRESS":"富強路３９３號","OBJECTID":622763},"geometry":{"x":176660.30000000075,"y":2551802.870000001}},{"attributes":{"ID":622791,"DIS_CODE":0,"TOWNNAME":"新市區","LI":"社內里","LIN":"4鄰","STREET":"富強路","SECT":" ","MAREA":" ","LANE":" ","ALLEY":" ","HOUSE_NO":"３９５號","E_COORD97":176635.01000000001,"N_COORD97":2551773.5,"ADDRESS":"富強路３９５號","OBJECTID":622764},"geometry":{"x":176635.01000000071,"y":2551773.5}},{"attributes":{"ID":622792,"DIS_CODE":0,"TOWNNAME":"新市區","LI":"社內里","LIN":"4鄰","STREET":"富強路","SECT":" ","MAREA":" ","LANE":" ","ALLEY":" ","HOUSE_NO":"４４１號","E_COORD97":176493.79999999999,"N_COORD97":2551692.5699999998,"ADDRESS":"富強路４４１號","OBJECTID":622765},"geometry":{"x":176493.80000000168,"y":2551692.5700000003}},{"attributes":{"ID":622793,"DIS_CODE":0,"TOWNNAME":"東區","LI":"崇德里","LIN":"25鄰","STREET":"崇道路","SECT":" ","MAREA":" ","LANE":" ","ALLEY":" ","HOUSE_NO":"４１號","E_COORD97":170690.23999999999,"N_COORD97":2541423.4900000002,"ADDRESS":"崇道路４１號","OBJECTID":622766},"geometry":{"x":170690.24000000209,"y":2541423.4900000002}},{"attributes":{"ID":622794,"DIS_CODE":0,"TOWNNAME":"新市區","LI":"新和里","LIN":"32鄰","STREET":"華興街","SECT":" ","MAREA":" ","LANE":" ","ALLEY":" ","HOUSE_NO":"１９號","E_COORD97":177776.79999999999,"N_COORD97":2552994.7799999998,"ADDRESS":"華興街１９號","OBJECTID":622767},"geometry":{"x":177776.79999999981,"y":2552994.7799999993}},{"attributes":{"ID":622795,"DIS_CODE":0,"TOWNNAME":"新市區","LI":"新和里","LIN":"40鄰","STREET":"信義街","SECT":" ","MAREA":" ","LANE":" ","ALLEY":" ","HOUSE_NO":"６９之１號","E_COORD97":177194.76000000001,"N_COORD97":2552901.0699999998,"ADDRESS":"信義街６９之１號","OBJECTID":622768},"geometry":{"x":177194.76000000071,"y":2552901.0700000022}},{"attributes":{"ID":622796,"DIS_CODE":0,"TOWNNAME":"新市區","LI":"豐華里","LIN":"8鄰","STREET":"堤塘港路","SECT":" ","MAREA":" ","LANE":" ","ALLEY":" ","HOUSE_NO":"１２號","E_COORD97":174686,"N_COORD97":2554784.1800000002,"ADDRESS":"堤塘港路１２號","OBJECTID":622769},"geometry":{"x":174686.00000000093,"y":2554784.1800000016}},{"attributes":{"ID":622797,"DIS_CODE":0,"TOWNNAME":"新市區","LI":"新和里","LIN":"8鄰","STREET":"仁愛街","SECT":" ","MAREA":" ","LANE":" ","ALLEY":" ","HOUSE_NO":"９５號","E_COORD97":177520.54999999999,"N_COORD97":2552527.4100000001,"ADDRESS":"仁愛街９５號","OBJECTID":622770},"geometry":{"x":177520.54999999981,"y":2552527.4100000001}},{"attributes":{"ID":622798,"DIS_CODE":0,"TOWNNAME":"新市區","LI":"港墘里","LIN":"1鄰","STREET":"民族路","SECT":" ","MAREA":" ","LANE":" ","ALLEY":" ","HOUSE_NO":"１之３５號","E_COORD97":178737.60000000001,"N_COORD97":2553940.3199999998,"ADDRESS":"民族路１之３５號","OBJECTID":622771},"geometry":{"x":178737.60000000149,"y":2553940.3200000022}},{"attributes":{"ID":622799,"DIS_CODE":0,"TOWNNAME":"東區","LI":"文聖里","LIN":"6鄰","STREET":"裕文路","SECT":" ","MAREA":" ","LANE":" ","ALLEY":" ","HOUSE_NO":"４５號","E_COORD97":171900.54999999999,"N_COORD97":2542608.71,"ADDRESS":"裕文路４５號","OBJECTID":622772},"geometry":{"x":171900.55000000075,"y":2542608.7100000009}},{"attributes":{"ID":622800,"DIS_CODE":0,"TOWNNAME":"新市區","LI":"港墘里","LIN":"6鄰","STREET":"國際路","SECT":" ","MAREA":" ","LANE":" ","ALLEY":" ","HOUSE_NO":"１９號","E_COORD97":177993.5,"N_COORD97":2553108.9900000002,"ADDRESS":"國際路１９號","OBJECTID":622773},"geometry":{"x":177993.50000000093,"y":2553108.9900000021}},{"attributes":{"ID":622801,"DIS_CODE":0,"TOWNNAME":"新市區","LI":"豐華里","LIN":"9鄰","STREET":"南科一路","SECT":" ","MAREA":" ","LANE":" ","ALLEY":" ","HOUSE_NO":"１之１號","E_COORD97":176800.62,"N_COORD97":2554696.46,"ADDRESS":"南科一路１之１號","OBJECTID":622774},"geometry":{"x":176800.62000000104,"y":2554696.4600000028}},{"attributes":{"ID":622802,"DIS_CODE":0,"TOWNNAME":"東區","LI":"忠孝里","LIN":"32鄰","STREET":"崇明六街","SECT":" ","MAREA":" ","LANE":" ","ALLEY":" ","HOUSE_NO":"２０號","E_COORD97":169676.79000000001,"N_COORD97":2542199.6699999999,"ADDRESS":"崇明六街２０號","OBJECTID":622775},"geometry":{"x":169676.79000000097,"y":2542199.6700000018}},{"attributes":{"ID":622803,"DIS_CODE":0,"TOWNNAME":"東區","LI":"東明里","LIN":"13鄰","STREET":"東安路","SECT":" ","MAREA":" ","LANE":" ","ALLEY":" ","HOUSE_NO":"９６之１號","E_COORD97":170720.60000000001,"N_COORD97":2543732.5099999998,"ADDRESS":"東安路９６之１號","OBJECTID":622776},"geometry":{"x":170720.59999999963,"y":2543732.5100000035}},{"attributes":{"ID":622804,"DIS_CODE":0,"TOWNNAME":"東區","LI":"東明里","LIN":"13鄰","STREET":"東安路","SECT":" ","MAREA":" ","LANE":" ","ALLEY":" ","HOUSE_NO":"９８號","E_COORD97":170722.64000000001,"N_COORD97":2543744.1800000002,"ADDRESS":"東安路９８號","OBJECTID":622777},"geometry":{"x":170722.64000000153,"y":2543744.1799999997}},{"attributes":{"ID":622805,"DIS_CODE":0,"TOWNNAME":"東區","LI":"東明里","LIN":"13鄰","STREET":"東安路","SECT":" ","MAREA":" ","LANE":" ","ALLEY":" ","HOUSE_NO":"１００號","E_COORD97":170725.22,"N_COORD97":2543755.2999999998,"ADDRESS":"東安路１００號","OBJECTID":622778},"geometry":{"x":170725.21999999974,"y":2543755.3000000045}},{"attributes":{"ID":622806,"DIS_CODE":0,"TOWNNAME":"東區","LI":"東明里","LIN":"13鄰","STREET":"東安路","SECT":" ","MAREA":" ","LANE":" ","ALLEY":" ","HOUSE_NO":"１０２號","E_COORD97":170726.98000000001,"N_COORD97":2543765.48,"ADDRESS":"東安路１０２號","OBJECTID":622779},"geometry":{"x":170726.98000000138,"y":2543765.4800000023}},{"attributes":{"ID":622807,"DIS_CODE":0,"TOWNNAME":"東區","LI":"東智里","LIN":"4鄰","STREET":"崇德二十七街","SECT":" ","MAREA":" ","LANE":" ","ALLEY":" ","HOUSE_NO":"２號","E_COORD97":170826.66,"N_COORD97":2540285.5099999998,"ADDRESS":"崇德二十七街２號","OBJECTID":622780},"geometry":{"x":170826.66000000108,"y":2540285.5100000016}},{"attributes":{"ID":622808,"DIS_CODE":0,"TOWNNAME":"東區","LI":"德高里","LIN":"4鄰","STREET":"德高街","SECT":" ","MAREA":" ","LANE":" ","ALLEY":" ","HOUSE_NO":"７１之１號","E_COORD97":171516.54999999999,"N_COORD97":2540823.8500000001,"ADDRESS":"德高街７１之１號","OBJECTID":622781},"geometry":{"x":171516.54999999981,"y":2540823.8499999996}},{"attributes":{"ID":622809,"DIS_CODE":0,"TOWNNAME":"東區","LI":"德高里","LIN":"4鄰","STREET":"德高街","SECT":" ","MAREA":" ","LANE":" ","ALLEY":" ","HOUSE_NO":"７１之２號","E_COORD97":171521.97,"N_COORD97":2540829.79,"ADDRESS":"德高街７１之２號","OBJECTID":622782},"geometry":{"x":171521.96999999974,"y":2540829.7899999991}},{"attributes":{"ID":622810,"DIS_CODE":0,"TOWNNAME":"東區","LI":"崇善里","LIN":"4鄰","STREET":"崇善路","SECT":" ","MAREA":" ","LANE":" ","ALLEY":" ","HOUSE_NO":"４２９號","E_COORD97":170905.59,"N_COORD97":2541887.6000000001,"ADDRESS":"崇善路４２９號","OBJECTID":622783},"geometry":{"x":170905.58999999985,"y":2541887.6000000015}},{"attributes":{"ID":622811,"DIS_CODE":0,"TOWNNAME":"東區","LI":"崇德里","LIN":"25鄰","STREET":"崇道路","SECT":" ","MAREA":" ","LANE":" ","ALLEY":" ","HOUSE_NO":"４３號","E_COORD97":170695.57000000001,"N_COORD97":2541421.9900000002,"ADDRESS":"崇道路４３號","OBJECTID":622784},"geometry":{"x":170695.57000000123,"y":2541421.9900000021}},{"attributes":{"ID":622812,"DIS_CODE":0,"TOWNNAME":"東區","LI":"圍下里","LIN":"24鄰","STREET":"北門路","SECT":"一段","MAREA":" ","LANE":" ","ALLEY":" ","HOUSE_NO":"１２８之１號","E_COORD97":169194.16,"N_COORD97":2543685.4199999999,"ADDRESS":"北門路一段１２８之１號","OBJECTID":622785},"geometry":{"x":169194.16000000108,"y":2543685.4199999981}},{"attributes":{"ID":622813,"DIS_CODE":0,"TOWNNAME":"東區","LI":"中西里","LIN":"1鄰","STREET":"東門路","SECT":"一段","MAREA":" ","LANE":" ","ALLEY":" ","HOUSE_NO":"２９１號","E_COORD97":169883.85999999999,"N_COORD97":2543038.02,"ADDRESS":"東門路一段２９１號","OBJECTID":622786},"geometry":{"x":169883.86000000034,"y":2543038.0200000014}},{"attributes":{"ID":622814,"DIS_CODE":0,"TOWNNAME":"東區","LI":"崇德里","LIN":"12鄰","STREET":"崇德十一街","SECT":" ","MAREA":" ","LANE":" ","ALLEY":" ","HOUSE_NO":"２４號","E_COORD97":170854.60999999999,"N_COORD97":2541446.21,"ADDRESS":"崇德十一街２４號","OBJECTID":622787},"geometry":{"x":170854.61000000127,"y":2541446.2100000009}},{"attributes":{"ID":622815,"DIS_CODE":0,"TOWNNAME":"東區","LI":"泉南里","LIN":"10鄰","STREET":"樹林街","SECT":"一段","MAREA":" ","LANE":" ","ALLEY":" ","HOUSE_NO":"２２之２號","E_COORD97":169658.57000000001,"N_COORD97":2542924.54,"ADDRESS":"樹林街一段２２之２號","OBJECTID":622788},"geometry":{"x":169658.5700000003,"y":2542924.5400000028}},{"attributes":{"ID":622816,"DIS_CODE":0,"TOWNNAME":"東區","LI":"崇善里","LIN":"10鄰","STREET":"崇善八街","SECT":" ","MAREA":" ","LANE":" ","ALLEY":" ","HOUSE_NO":"２１號","E_COORD97":171128.22,"N_COORD97":2541409.2799999998,"ADDRESS":"崇善八街２１號","OBJECTID":622789},"geometry":{"x":171128.21999999974,"y":2541409.2800000012}},{"attributes":{"ID":622817,"DIS_CODE":0,"TOWNNAME":"東區","LI":"龍山里","LIN":"10鄰","STREET":"府東街","SECT":" ","MAREA":" ","LANE":" ","ALLEY":" ","HOUSE_NO":"６２號","E_COORD97":169931.92440600001,"N_COORD97":2542933.1447399999,"ADDRESS":"府東街６２號","OBJECTID":622790},"geometry":{"x":169931.92440600041,"y":2542933.1447399985}},{"attributes":{"ID":622818,"DIS_CODE":0,"TOWNNAME":"東區","LI":"龍山里","LIN":"10鄰","STREET":"府東街","SECT":" ","MAREA":" ","LANE":" ","ALLEY":" ","HOUSE_NO":"６６號","E_COORD97":169936.05594300001,"N_COORD97":2542942.3786900002,"ADDRESS":"府東街６６號","OBJECTID":622791},"geometry":{"x":169936.05594300013,"y":2542942.3786940016}},{"attributes":{"ID":622819,"DIS_CODE":0,"TOWNNAME":"東區","LI":"衛國里","LIN":"20鄰","STREET":"林森路","SECT":"二段","MAREA":" ","LANE":" ","ALLEY":" ","HOUSE_NO":"１２２號","E_COORD97":170404.70000000001,"N_COORD97":2543178.4900000002,"ADDRESS":"林森路二段１２２號","OBJECTID":622792},"geometry":{"x":170404.70000000112,"y":2543178.4900000021}},{"attributes":{"ID":622820,"DIS_CODE":0,"TOWNNAME":"東區","LI":"忠孝里","LIN":"24鄰","STREET":"崇明路","SECT":" ","MAREA":" ","LANE":" ","ALLEY":" ","HOUSE_NO":"９６號","E_COORD97":169732.01000000001,"N_COORD97":2542286.4100000001,"ADDRESS":"崇明路９６號","OBJECTID":622793},"geometry":{"x":169732.01000000164,"y":2542286.410000002}},{"attributes":{"ID":622821,"DIS_CODE":0,"TOWNNAME":"東區","LI":"忠孝里","LIN":"24鄰","STREET":"崇明路","SECT":" ","MAREA":" ","LANE":" ","ALLEY":" ","HOUSE_NO":"９６號地下一層","E_COORD97":169732.01000000001,"N_COORD97":2542286.4100000001,"ADDRESS":"崇明路９６號地下一層","OBJECTID":622794},"geometry":{"x":169732.01000000164,"y":2542286.410000002}},{"attributes":{"ID":622822,"DIS_CODE":0,"TOWNNAME":"東區","LI":"小東里","LIN":"18鄰","STREET":"東和路","SECT":" ","MAREA":" ","LANE":" ","ALLEY":" ","HOUSE_NO":"５２號","E_COORD97":170933.66,"N_COORD97":2544338.73,"ADDRESS":"東和路５２號","OBJECTID":622795},"geometry":{"x":170933.66000000108,"y":2544338.7300000042}},{"attributes":{"ID":622823,"DIS_CODE":0,"TOWNNAME":"東區","LI":"德高里","LIN":"20鄰","STREET":"仁和路","SECT":" ","MAREA":" ","LANE":" ","ALLEY":" ","HOUSE_NO":"１４１號","E_COORD97":171544.20000000001,"N_COORD97":2541038.9500000002,"ADDRESS":"仁和路１４１號","OBJECTID":622796},"geometry":{"x":171544.20000000019,"y":2541038.9499999993}},{"attributes":{"ID":622824,"DIS_CODE":0,"TOWNNAME":"東區","LI":"後甲里","LIN":"25鄰","STREET":"中華東路","SECT":"一段","MAREA":" ","LANE":" ","ALLEY":" ","HOUSE_NO":"１４５之１號","E_COORD97":171475.94,"N_COORD97":2543540.1899999999,"ADDRESS":"中華東路一段１４５之１號","OBJECTID":622797},"geometry":{"x":171475.94000000134,"y":2543540.1899999995}},{"attributes":{"ID":622825,"DIS_CODE":0,"TOWNNAME":"東區","LI":"忠孝里","LIN":"24鄰","STREET":"崇明路","SECT":" ","MAREA":" ","LANE":" ","ALLEY":" ","HOUSE_NO":"８６號","E_COORD97":169721.10000000001,"N_COORD97":2542309.4100000001,"ADDRESS":"崇明路８６號","OBJECTID":622798},"geometry":{"x":169721.10000000056,"y":2542309.4100000039}},{"attributes":{"ID":622826,"DIS_CODE":0,"TOWNNAME":"東區","LI":"崇善里","LIN":"8鄰","STREET":"崇善七街","SECT":" ","MAREA":" ","LANE":" ","ALLEY":" ","HOUSE_NO":"２６號","E_COORD97":171100.88,"N_COORD97":2541456.1000000001,"ADDRESS":"崇善七街２６號","OBJECTID":622799},"geometry":{"x":171100.88000000175,"y":2541456.0999999996}},{"attributes":{"ID":622827,"DIS_CODE":0,"TOWNNAME":"東區","LI":"東門里","LIN":"4鄰","STREET":"青年路","SECT":" ","MAREA":" ","LANE":" ","ALLEY":" ","HOUSE_NO":"２３４號","E_COORD97":169217.98999999999,"N_COORD97":2543552.2999999998,"ADDRESS":"青年路２３４號","OBJECTID":622800},"geometry":{"x":169217.99000000115,"y":2543552.3000000026}}]}