{"displayFieldName":"TOWNNAME","fieldAliases":{"ID":"ID","DIS_CODE":"DIS_CODE","TOWNNAME":"TOWNNAME","LI":"LI","LIN":"LIN","STREET":"STREET","SECT":"SECT","MAREA":"MAREA","LANE":"LANE","ALLEY":"ALLEY","HOUSE_NO":"HOUSE_NO","E_COORD97":"E_COORD97","N_COORD97":"N_COORD97","ADDRESS":"ADDRESS","OBJECTID":"OBJECTID"},"geometryType":"esriGeometryPoint","spatialReference":{"wkid":102443,"latestWkid":3826},"fields":[{"name":"ID","type":"esriFieldTypeDouble","alias":"ID"},{"name":"DIS_CODE","type":"esriFieldTypeInteger","alias":"DIS_CODE"},{"name":"TOWNNAME","type":"esriFieldTypeString","alias":"TOWNNAME","length":8},{"name":"LI","type":"esriFieldTypeString","alias":"LI","length":8},{"name":"LIN","type":"esriFieldTypeString","alias":"LIN","length":12},{"name":"STREET","type":"esriFieldTypeString","alias":"STREET","length":20},{"name":"SECT","type":"esriFieldTypeString","alias":"SECT","length":8},{"name":"MAREA","type":"esriFieldTypeString","alias":"MAREA","length":12},{"name":"LANE","type":"esriFieldTypeString","alias":"LANE","length":10},{"name":"ALLEY","type":"esriFieldTypeString","alias":"ALLEY","length":10},{"name":"HOUSE_NO","type":"esriFieldTypeString","alias":"HOUSE_NO","length":20},{"name":"E_COORD97","type":"esriFieldTypeDouble","alias":"E_COORD97"},{"name":"N_COORD97","type":"esriFieldTypeDouble","alias":"N_COORD97"},{"name":"ADDRESS","type":"esriFieldTypeString","alias":"ADDRESS","length":50},{"name":"OBJECTID","type":"esriFieldTypeOID","alias":"OBJECTID"}],"features":[{"attributes":{"ID":289007,"DIS_CODE":0,"TOWNNAME":"南區","LI":"大忠里","LIN":"10鄰","STREET":"中華南路","SECT":"一段","MAREA":" ","LANE":"９７巷","ALLEY":" ","HOUSE_NO":"４３號","E_COORD97":169275.06,"N_COORD97":2541206.6600000001,"ADDRESS":"中華南路一段９７巷４３號","OBJECTID":289001},"geometry":{"x":169275.05999999959,"y":2541206.660000002}},{"attributes":{"ID":289008,"DIS_CODE":0,"TOWNNAME":"南區","LI":"大忠里","LIN":"10鄰","STREET":"中華南路","SECT":"一段","MAREA":" ","LANE":"９７巷","ALLEY":" ","HOUSE_NO":"４５號","E_COORD97":169275.54999999999,"N_COORD97":2541202.79,"ADDRESS":"中華南路一段９７巷４５號","OBJECTID":289002},"geometry":{"x":169275.54999999888,"y":2541202.7899999991}},{"attributes":{"ID":289009,"DIS_CODE":0,"TOWNNAME":"南區","LI":"大忠里","LIN":"10鄰","STREET":"中華南路","SECT":"一段","MAREA":" ","LANE":"９７巷","ALLEY":" ","HOUSE_NO":"４６號","E_COORD97":169252.73999999999,"N_COORD97":2541180.6000000001,"ADDRESS":"中華南路一段９７巷４６號","OBJECTID":289003},"geometry":{"x":169252.74000000209,"y":2541180.5999999996}},{"attributes":{"ID":289010,"DIS_CODE":0,"TOWNNAME":"南區","LI":"大忠里","LIN":"10鄰","STREET":"中華南路","SECT":"一段","MAREA":" ","LANE":"９７巷","ALLEY":" ","HOUSE_NO":"４７號","E_COORD97":169276.03,"N_COORD97":2541199.1600000001,"ADDRESS":"中華南路一段９７巷４７號","OBJECTID":289004},"geometry":{"x":169276.03000000026,"y":2541199.1600000039}},{"attributes":{"ID":289011,"DIS_CODE":0,"TOWNNAME":"歸仁區","LI":"辜厝里","LIN":"48鄰","STREET":"中正十街","SECT":" ","MAREA":" ","LANE":" ","ALLEY":" ","HOUSE_NO":"４６號","E_COORD97":177030.81,"N_COORD97":2540282.75,"ADDRESS":"中正十街４６號","OBJECTID":289005},"geometry":{"x":177030.81000000145,"y":2540282.7499999981}},{"attributes":{"ID":289012,"DIS_CODE":0,"TOWNNAME":"仁德區","LI":"成功里","LIN":"39鄰","STREET":"文賢路","SECT":"一段","MAREA":" ","LANE":" ","ALLEY":" ","HOUSE_NO":"８２號","E_COORD97":170238.76999999999,"N_COORD97":2538178.8199999998,"ADDRESS":"文賢路一段８２號","OBJECTID":289006},"geometry":{"x":170238.77000000048,"y":2538178.8200000022}},{"attributes":{"ID":289013,"DIS_CODE":0,"TOWNNAME":"南區","LI":"大忠里","LIN":"10鄰","STREET":"中華南路","SECT":"一段","MAREA":" ","LANE":"９７巷","ALLEY":" ","HOUSE_NO":"４９號","E_COORD97":169276.51999999999,"N_COORD97":2541195.2799999998,"ADDRESS":"中華南路一段９７巷４９號","OBJECTID":289007},"geometry":{"x":169276.51999999955,"y":2541195.2800000012}},{"attributes":{"ID":289014,"DIS_CODE":0,"TOWNNAME":"南區","LI":"大忠里","LIN":"10鄰","STREET":"中華南路","SECT":"一段","MAREA":" ","LANE":"９７巷","ALLEY":" ","HOUSE_NO":"５１號","E_COORD97":169276.28,"N_COORD97":2541190.6800000002,"ADDRESS":"中華南路一段９７巷５１號","OBJECTID":289008},"geometry":{"x":169276.28000000212,"y":2541190.6799999997}},{"attributes":{"ID":289015,"DIS_CODE":0,"TOWNNAME":"南區","LI":"大忠里","LIN":"10鄰","STREET":"中華南路","SECT":"一段","MAREA":" ","LANE":"９７巷","ALLEY":" ","HOUSE_NO":"５３號","E_COORD97":169272.63,"N_COORD97":2541183.5800000001,"ADDRESS":"中華南路一段９７巷５３號","OBJECTID":289009},"geometry":{"x":169272.63000000082,"y":2541183.5800000019}},{"attributes":{"ID":289016,"DIS_CODE":0,"TOWNNAME":"南區","LI":"大忠里","LIN":"10鄰","STREET":"中華南路","SECT":"一段","MAREA":" ","LANE":"９７巷","ALLEY":" ","HOUSE_NO":"５９號","E_COORD97":169273.62,"N_COORD97":2541169.1000000001,"ADDRESS":"中華南路一段９７巷５９號","OBJECTID":289010},"geometry":{"x":169273.62000000011,"y":2541169.1000000015}},{"attributes":{"ID":289017,"DIS_CODE":0,"TOWNNAME":"南區","LI":"大忠里","LIN":"10鄰","STREET":"中華南路","SECT":"一段","MAREA":" ","LANE":"９７巷","ALLEY":" ","HOUSE_NO":"６０號","E_COORD97":169256.14000000001,"N_COORD97":2541150.1499999999,"ADDRESS":"中華南路一段９７巷６０號","OBJECTID":289011},"geometry":{"x":169256.13999999873,"y":2541150.1500000022}},{"attributes":{"ID":289018,"DIS_CODE":0,"TOWNNAME":"南區","LI":"大忠里","LIN":"10鄰","STREET":"中華南路","SECT":"一段","MAREA":" ","LANE":"９７巷","ALLEY":" ","HOUSE_NO":"６１號","E_COORD97":169276.14000000001,"N_COORD97":2541156.4900000002,"ADDRESS":"中華南路一段９７巷６１號","OBJECTID":289012},"geometry":{"x":169276.13999999966,"y":2541156.4900000039}},{"attributes":{"ID":289019,"DIS_CODE":0,"TOWNNAME":"南區","LI":"大忠里","LIN":"10鄰","STREET":"中華南路","SECT":"一段","MAREA":" ","LANE":"９７巷","ALLEY":" ","HOUSE_NO":"６２號","E_COORD97":169257.26000000001,"N_COORD97":2541140.6499999999,"ADDRESS":"中華南路一段９７巷６２號","OBJECTID":289013},"geometry":{"x":169257.26000000164,"y":2541140.6500000004}},{"attributes":{"ID":289020,"DIS_CODE":0,"TOWNNAME":"北區","LI":"六甲里","LIN":"10鄰","STREET":"公園路","SECT":" ","MAREA":" ","LANE":"４８７巷","ALLEY":" ","HOUSE_NO":"３３號","E_COORD97":168935.56,"N_COORD97":2545543.25,"ADDRESS":"公園路４８７巷３３號","OBJECTID":289014},"geometry":{"x":168935.55999999959,"y":2545543.25}},{"attributes":{"ID":289021,"DIS_CODE":0,"TOWNNAME":"新營區","LI":"嘉芳里","LIN":"10鄰","STREET":"嘉芳街","SECT":" ","MAREA":" ","LANE":"２５巷","ALLEY":" ","HOUSE_NO":"３５號","E_COORD97":177033.42999999999,"N_COORD97":2578529.4500000002,"ADDRESS":"嘉芳街２５巷３５號","OBJECTID":289015},"geometry":{"x":177033.42999999877,"y":2578529.4499999993}},{"attributes":{"ID":289022,"DIS_CODE":0,"TOWNNAME":"永康區","LI":"南灣里","LIN":"10鄰","STREET":"南興路","SECT":" ","MAREA":" ","LANE":"３巷","ALLEY":" ","HOUSE_NO":"７之２號","E_COORD97":173891.35999999999,"N_COORD97":2543832.27,"ADDRESS":"南興路３巷７之２號","OBJECTID":289016},"geometry":{"x":173891.36000000034,"y":2543832.2700000033}},{"attributes":{"ID":289023,"DIS_CODE":0,"TOWNNAME":"永康區","LI":"南灣里","LIN":"10鄰","STREET":"南興路","SECT":" ","MAREA":" ","LANE":"３巷","ALLEY":" ","HOUSE_NO":"１０號","E_COORD97":173868.37,"N_COORD97":2543809.23,"ADDRESS":"南興路３巷１０號","OBJECTID":289017},"geometry":{"x":173868.37000000104,"y":2543809.2300000004}},{"attributes":{"ID":289024,"DIS_CODE":0,"TOWNNAME":"新化區","LI":"協興里","LIN":"10鄰","STREET":"正新路","SECT":" ","MAREA":" ","LANE":"３６３巷","ALLEY":" ","HOUSE_NO":"２８號","E_COORD97":178454.37,"N_COORD97":2548898.25,"ADDRESS":"正新路３６３巷２８號","OBJECTID":289018},"geometry":{"x":178454.37000000011,"y":2548898.2500000019}},{"attributes":{"ID":289025,"DIS_CODE":0,"TOWNNAME":"新化區","LI":"協興里","LIN":"10鄰","STREET":"正新路","SECT":" ","MAREA":" ","LANE":"３４１巷","ALLEY":" ","HOUSE_NO":"１９號","E_COORD97":178447.17000000001,"N_COORD97":2548806.25,"ADDRESS":"正新路３４１巷１９號","OBJECTID":289019},"geometry":{"x":178447.16999999993,"y":2548806.2500000037}},{"attributes":{"ID":289026,"DIS_CODE":0,"TOWNNAME":"新化區","LI":"協興里","LIN":"10鄰","STREET":"正新路","SECT":" ","MAREA":" ","LANE":"３４１巷","ALLEY":" ","HOUSE_NO":"１５號","E_COORD97":178457.47,"N_COORD97":2548807.25,"ADDRESS":"正新路３４１巷１５號","OBJECTID":289020},"geometry":{"x":178457.47000000067,"y":2548807.2500000019}},{"attributes":{"ID":289027,"DIS_CODE":0,"TOWNNAME":"新化區","LI":"協興里","LIN":"10鄰","STREET":"正新路","SECT":" ","MAREA":" ","LANE":"３４１巷","ALLEY":" ","HOUSE_NO":"１２號","E_COORD97":178496.26999999999,"N_COORD97":2548824.25,"ADDRESS":"正新路３４１巷１２號","OBJECTID":289021},"geometry":{"x":178496.27000000048,"y":2548824.2500000019}},{"attributes":{"ID":289028,"DIS_CODE":0,"TOWNNAME":"新化區","LI":"豐榮里","LIN":"10鄰","STREET":"信義路","SECT":" ","MAREA":" ","LANE":"４８４巷","ALLEY":" ","HOUSE_NO":"２６號","E_COORD97":178399.98000000001,"N_COORD97":2548350.25,"ADDRESS":"信義路４８４巷２６號","OBJECTID":289022},"geometry":{"x":178399.98000000045,"y":2548350.2500000019}},{"attributes":{"ID":289029,"DIS_CODE":0,"TOWNNAME":"新化區","LI":"協興里","LIN":"10鄰","STREET":"正新路","SECT":" ","MAREA":" ","LANE":"３４１巷","ALLEY":" ","HOUSE_NO":"５８號","E_COORD97":178423.37,"N_COORD97":2548811.25,"ADDRESS":"正新路３４１巷５８號","OBJECTID":289023},"geometry":{"x":178423.37000000104,"y":2548811.2500000019}},{"attributes":{"ID":289030,"DIS_CODE":0,"TOWNNAME":"中西區","LI":"三合里","LIN":"12鄰","STREET":"金華路","SECT":"四段","MAREA":" ","LANE":" ","ALLEY":" ","HOUSE_NO":"１０１號","E_COORD97":167501.14000000001,"N_COORD97":2544499.1699999999,"ADDRESS":"金華路四段１０１號","OBJECTID":289024},"geometry":{"x":167501.13999999966,"y":2544499.1700000018}},{"attributes":{"ID":289031,"DIS_CODE":0,"TOWNNAME":"中西區","LI":"安海里","LIN":"10鄰","STREET":"河中街","SECT":" ","MAREA":" ","LANE":" ","ALLEY":" ","HOUSE_NO":"４號","E_COORD97":167274.60000000001,"N_COORD97":2543902.96,"ADDRESS":"河中街４號","OBJECTID":289025},"geometry":{"x":167274.59999999963,"y":2543902.9600000009}},{"attributes":{"ID":289032,"DIS_CODE":0,"TOWNNAME":"中西區","LI":"安海里","LIN":"10鄰","STREET":"河中街","SECT":" ","MAREA":" ","LANE":" ","ALLEY":" ","HOUSE_NO":"６號","E_COORD97":167275.53,"N_COORD97":2543905.7799999998,"ADDRESS":"河中街６號","OBJECTID":289026},"geometry":{"x":167275.53000000026,"y":2543905.7799999993}},{"attributes":{"ID":289033,"DIS_CODE":0,"TOWNNAME":"東區","LI":"成大里","LIN":"27鄰","STREET":"育樂街","SECT":" ","MAREA":" ","LANE":" ","ALLEY":" ","HOUSE_NO":"５４號","E_COORD97":169715.09,"N_COORD97":2544008.3100000001,"ADDRESS":"育樂街５４號","OBJECTID":289027},"geometry":{"x":169715.09000000078,"y":2544008.3100000005}},{"attributes":{"ID":289034,"DIS_CODE":0,"TOWNNAME":"仁德區","LI":"仁義里","LIN":"48鄰","STREET":"仁義路","SECT":" ","MAREA":" ","LANE":" ","ALLEY":" ","HOUSE_NO":"１０９號","E_COORD97":173659.76999999999,"N_COORD97":2540979.6000000001,"ADDRESS":"仁義路１０９號","OBJECTID":289028},"geometry":{"x":173659.77000000048,"y":2540979.6000000015}},{"attributes":{"ID":289035,"DIS_CODE":0,"TOWNNAME":"永康區","LI":"西灣里","LIN":"48鄰","STREET":"永華路","SECT":" ","MAREA":" ","LANE":" ","ALLEY":" ","HOUSE_NO":"２３５號","E_COORD97":174069.89999999999,"N_COORD97":2545741.71,"ADDRESS":"永華路２３５號","OBJECTID":289029},"geometry":{"x":174069.9000000013,"y":2545741.7100000009}},{"attributes":{"ID":289036,"DIS_CODE":0,"TOWNNAME":"歸仁區","LI":"後市里","LIN":"48鄰","STREET":"民權北路","SECT":" ","MAREA":" ","LANE":" ","ALLEY":" ","HOUSE_NO":"１３２號","E_COORD97":177017.89389000001,"N_COORD97":2541149.2269000001,"ADDRESS":"民權北路１３２號","OBJECTID":289030},"geometry":{"x":177017.89389000088,"y":2541149.226900002}},{"attributes":{"ID":289037,"DIS_CODE":0,"TOWNNAME":"新化區","LI":"協興里","LIN":"10鄰","STREET":"正新路","SECT":" ","MAREA":" ","LANE":"３４１巷","ALLEY":" ","HOUSE_NO":"１３號","E_COORD97":178461.76999999999,"N_COORD97":2548805.25,"ADDRESS":"正新路３４１巷１３號","OBJECTID":289031},"geometry":{"x":178461.77000000142,"y":2548805.25}},{"attributes":{"ID":289038,"DIS_CODE":0,"TOWNNAME":"新化區","LI":"協興里","LIN":"10鄰","STREET":"正新路","SECT":" ","MAREA":" ","LANE":"３４１巷","ALLEY":" ","HOUSE_NO":"６０號","E_COORD97":178418.07000000001,"N_COORD97":2548810.25,"ADDRESS":"正新路３４１巷６０號","OBJECTID":289032},"geometry":{"x":178418.06999999937,"y":2548810.2500000019}},{"attributes":{"ID":289039,"DIS_CODE":0,"TOWNNAME":"新化區","LI":"太平里","LIN":"10鄰","STREET":"中正路","SECT":" ","MAREA":" ","LANE":"７７７巷","ALLEY":" ","HOUSE_NO":"３５號","E_COORD97":178652.76000000001,"N_COORD97":2549217.25,"ADDRESS":"中正路７７７巷３５號","OBJECTID":289033},"geometry":{"x":178652.76000000071,"y":2549217.2500000019}},{"attributes":{"ID":289040,"DIS_CODE":0,"TOWNNAME":"新營區","LI":"嘉芳里","LIN":"10鄰","STREET":"嘉芳街","SECT":" ","MAREA":" ","LANE":"２５巷","ALLEY":" ","HOUSE_NO":"２３號","E_COORD97":177024.41,"N_COORD97":2578569.3300000001,"ADDRESS":"嘉芳街２５巷２３號","OBJECTID":289034},"geometry":{"x":177024.41000000108,"y":2578569.3300000001}},{"attributes":{"ID":289041,"DIS_CODE":0,"TOWNNAME":"歸仁區","LI":"大廟里","LIN":"10鄰","STREET":"大廟一街","SECT":" ","MAREA":" ","LANE":"２９巷","ALLEY":" ","HOUSE_NO":"１號","E_COORD97":175890.70999999999,"N_COORD97":2544081.4500000002,"ADDRESS":"大廟一街２９巷１號","OBJECTID":289035},"geometry":{"x":175890.70999999996,"y":2544081.450000003}},{"attributes":{"ID":289042,"DIS_CODE":0,"TOWNNAME":"中西區","LI":"元安里","LIN":"10鄰","STREET":"西門路","SECT":"一段","MAREA":" ","LANE":"７４７巷","ALLEY":" ","HOUSE_NO":"３０號","E_COORD97":167653.72,"N_COORD97":2543371.8500000001,"ADDRESS":"西門路一段７４７巷３０號","OBJECTID":289036},"geometry":{"x":167653.71999999881,"y":2543371.8500000015}},{"attributes":{"ID":289043,"DIS_CODE":0,"TOWNNAME":"中西區","LI":"元安里","LIN":"10鄰","STREET":"西門路","SECT":"一段","MAREA":" ","LANE":"７４７巷","ALLEY":" ","HOUSE_NO":"３２號","E_COORD97":167656.54000000001,"N_COORD97":2543343.6000000001,"ADDRESS":"西門路一段７４７巷３２號","OBJECTID":289037},"geometry":{"x":167656.54000000004,"y":2543343.5999999996}},{"attributes":{"ID":289044,"DIS_CODE":0,"TOWNNAME":"永康區","LI":"安康里","LIN":"10鄰","STREET":"中山南路","SECT":" ","MAREA":" ","LANE":"９５巷","ALLEY":" ","HOUSE_NO":"１６號","E_COORD97":170867.48999999999,"N_COORD97":2545970.7400000002,"ADDRESS":"中山南路９５巷１６號","OBJECTID":289038},"geometry":{"x":170867.49000000022,"y":2545970.7400000002}},{"attributes":{"ID":289045,"DIS_CODE":0,"TOWNNAME":"永康區","LI":"西橋里","LIN":"10鄰","STREET":"中華西街","SECT":" ","MAREA":" ","LANE":"１２７巷","ALLEY":" ","HOUSE_NO":"３號","E_COORD97":170648.04999999999,"N_COORD97":2546168.9900000002,"ADDRESS":"中華西街１２７巷３號","OBJECTID":289039},"geometry":{"x":170648.04999999981,"y":2546168.9900000002}},{"attributes":{"ID":289046,"DIS_CODE":0,"TOWNNAME":"仁德區","LI":"仁義里","LIN":"48鄰","STREET":"仁義路","SECT":" ","MAREA":" ","LANE":"９５巷","ALLEY":" ","HOUSE_NO":"３９號","E_COORD97":173623.06,"N_COORD97":2541074.5099999998,"ADDRESS":"仁義路９５巷３９號","OBJECTID":289040},"geometry":{"x":173623.05999999959,"y":2541074.5100000035}},{"attributes":{"ID":289047,"DIS_CODE":0,"TOWNNAME":"永康區","LI":"西灣里","LIN":"48鄰","STREET":"永華路","SECT":" ","MAREA":" ","LANE":" ","ALLEY":" ","HOUSE_NO":"２４５號","E_COORD97":174065.89000000001,"N_COORD97":2545763.5099999998,"ADDRESS":"永華路２４５號","OBJECTID":289041},"geometry":{"x":174065.8900000006,"y":2545763.5100000016}},{"attributes":{"ID":289048,"DIS_CODE":0,"TOWNNAME":"永康區","LI":"\u25A0行里","LIN":"48鄰","STREET":"新行街","SECT":" ","MAREA":" ","LANE":" ","ALLEY":" ","HOUSE_NO":"１０４號","E_COORD97":172331.09,"N_COORD97":2548984.9300000002,"ADDRESS":"新行街１０４號","OBJECTID":289042},"geometry":{"x":172331.08999999985,"y":2548984.9300000016}},{"attributes":{"ID":289049,"DIS_CODE":0,"TOWNNAME":"歸仁區","LI":"後市里","LIN":"48鄰","STREET":"民權北路","SECT":" ","MAREA":" ","LANE":" ","ALLEY":" ","HOUSE_NO":"１２８號","E_COORD97":177016.41082399999,"N_COORD97":2541138.85525,"ADDRESS":"民權北路１２８號","OBJECTID":289043},"geometry":{"x":177016.41082400084,"y":2541138.8552480005}},{"attributes":{"ID":289050,"DIS_CODE":0,"TOWNNAME":"永康區","LI":"安康里","LIN":"10鄰","STREET":"中山南路","SECT":" ","MAREA":" ","LANE":"１２３巷","ALLEY":" ","HOUSE_NO":"３１號","E_COORD97":170951.01000000001,"N_COORD97":2546011,"ADDRESS":"中山南路１２３巷３１號","OBJECTID":289044},"geometry":{"x":170951.01000000071,"y":2546011.0000000037}},{"attributes":{"ID":289051,"DIS_CODE":0,"TOWNNAME":"中西區","LI":"安海里","LIN":"10鄰","STREET":"金華路","SECT":"三段","MAREA":" ","LANE":" ","ALLEY":" ","HOUSE_NO":"２０３號","E_COORD97":167302.57999999999,"N_COORD97":2543884.3900000001,"ADDRESS":"金華路三段２０３號","OBJECTID":289045},"geometry":{"x":167302.58000000194,"y":2543884.3900000025}},{"attributes":{"ID":289052,"DIS_CODE":0,"TOWNNAME":"永康區","LI":"安康里","LIN":"10鄰","STREET":"中山南路","SECT":" ","MAREA":" ","LANE":"１２３巷","ALLEY":" ","HOUSE_NO":"２３號","E_COORD97":170958.70999999999,"N_COORD97":2545996.25,"ADDRESS":"中山南路１２３巷２３號","OBJECTID":289046},"geometry":{"x":170958.71000000089,"y":2545996.2500000019}},{"attributes":{"ID":289053,"DIS_CODE":0,"TOWNNAME":"永康區","LI":"安康里","LIN":"10鄰","STREET":"中山南路","SECT":" ","MAREA":" ","LANE":"１２３巷","ALLEY":" ","HOUSE_NO":"２７號","E_COORD97":170954.70999999999,"N_COORD97":2546003.5,"ADDRESS":"中山南路１２３巷２７號","OBJECTID":289047},"geometry":{"x":170954.71000000183,"y":2546003.5}},{"attributes":{"ID":289054,"DIS_CODE":0,"TOWNNAME":"永康區","LI":"安康里","LIN":"10鄰","STREET":"中山南路","SECT":" ","MAREA":" ","LANE":"１２３巷","ALLEY":" ","HOUSE_NO":"３３號","E_COORD97":170947.32000000001,"N_COORD97":2546017.25,"ADDRESS":"中山南路１２３巷３３號","OBJECTID":289048},"geometry":{"x":170947.3200000003,"y":2546017.2500000019}},{"attributes":{"ID":289055,"DIS_CODE":0,"TOWNNAME":"仁德區","LI":"仁義里","LIN":"48鄰","STREET":"仁義路","SECT":" ","MAREA":" ","LANE":"９５巷","ALLEY":" ","HOUSE_NO":"９號","E_COORD97":173617.67000000001,"N_COORD97":2541010.7599999998,"ADDRESS":"仁義路９５巷９號","OBJECTID":289049},"geometry":{"x":173617.66999999993,"y":2541010.7599999998}},{"attributes":{"ID":289056,"DIS_CODE":0,"TOWNNAME":"中西區","LI":"安海里","LIN":"10鄰","STREET":"金華路","SECT":"三段","MAREA":" ","LANE":" ","ALLEY":" ","HOUSE_NO":"２０５號","E_COORD97":167303.51999999999,"N_COORD97":2543890.77,"ADDRESS":"金華路三段２０５號","OBJECTID":289050},"geometry":{"x":167303.51999999955,"y":2543890.7700000014}},{"attributes":{"ID":289057,"DIS_CODE":0,"TOWNNAME":"永康區","LI":"崑山里","LIN":"48鄰","STREET":"國光六街","SECT":" ","MAREA":" ","LANE":" ","ALLEY":" ","HOUSE_NO":"５９號","E_COORD97":174150.69,"N_COORD97":2545285.9100000001,"ADDRESS":"國光六街５９號","OBJECTID":289051},"geometry":{"x":174150.69000000227,"y":2545285.9100000001}},{"attributes":{"ID":289058,"DIS_CODE":0,"TOWNNAME":"永康區","LI":"崑山里","LIN":"48鄰","STREET":"國光六街","SECT":" ","MAREA":" ","LANE":" ","ALLEY":" ","HOUSE_NO":"３９之３號","E_COORD97":174198.70999999999,"N_COORD97":2545275.0800000001,"ADDRESS":"國光六街３９之３號","OBJECTID":289052},"geometry":{"x":174198.70999999996,"y":2545275.0800000038}},{"attributes":{"ID":289059,"DIS_CODE":0,"TOWNNAME":"永康區","LI":"\u25A0行里","LIN":"48鄰","STREET":"新民街","SECT":" ","MAREA":" ","LANE":" ","ALLEY":" ","HOUSE_NO":"５０號","E_COORD97":172393.19,"N_COORD97":2548958.7599999998,"ADDRESS":"新民街５０號","OBJECTID":289053},"geometry":{"x":172393.19000000134,"y":2548958.7600000035}},{"attributes":{"ID":289060,"DIS_CODE":0,"TOWNNAME":"永康區","LI":"\u25A0行里","LIN":"48鄰","STREET":"新民街","SECT":" ","MAREA":" ","LANE":" ","ALLEY":" ","HOUSE_NO":"７８號","E_COORD97":172341.67000000001,"N_COORD97":2548970.2400000002,"ADDRESS":"新民街７８號","OBJECTID":289054},"geometry":{"x":172341.67000000179,"y":2548970.2400000021}},{"attributes":{"ID":289061,"DIS_CODE":0,"TOWNNAME":"永康區","LI":"安康里","LIN":"10鄰","STREET":"中山南路","SECT":" ","MAREA":" ","LANE":"１２３巷","ALLEY":" ","HOUSE_NO":"２５號","E_COORD97":170956.81,"N_COORD97":2546000,"ADDRESS":"中山南路１２３巷２５號","OBJECTID":289055},"geometry":{"x":170956.80999999959,"y":2546000}},{"attributes":{"ID":289062,"DIS_CODE":0,"TOWNNAME":"南區","LI":"建南里","LIN":"7鄰","STREET":"永成路","SECT":"二段","MAREA":" ","LANE":"８８１巷","ALLEY":" ","HOUSE_NO":"２９號","E_COORD97":167419.95886799999,"N_COORD97":2540249.40973,"ADDRESS":"永成路二段８８１巷２９號","OBJECTID":289056},"geometry":{"x":167419.95886800066,"y":2540249.4097300004}},{"attributes":{"ID":289063,"DIS_CODE":0,"TOWNNAME":"永康區","LI":"西橋里","LIN":"10鄰","STREET":"中華西街","SECT":" ","MAREA":" ","LANE":"８５巷","ALLEY":" ","HOUSE_NO":"１０號","E_COORD97":170684.38,"N_COORD97":2546084.27,"ADDRESS":"中華西街８５巷１０號","OBJECTID":289057},"geometry":{"x":170684.38000000082,"y":2546084.2700000014}},{"attributes":{"ID":289064,"DIS_CODE":0,"TOWNNAME":"永康區","LI":"成功里","LIN":"10鄰","STREET":"忠孝路","SECT":" ","MAREA":" ","LANE":"１９５巷","ALLEY":" ","HOUSE_NO":"２３號","E_COORD97":172004.12,"N_COORD97":2544818.4900000002,"ADDRESS":"忠孝路１９５巷２３號","OBJECTID":289058},"geometry":{"x":172004.12000000011,"y":2544818.4900000021}},{"attributes":{"ID":289065,"DIS_CODE":0,"TOWNNAME":"永康區","LI":"安康里","LIN":"10鄰","STREET":"中華路","SECT":" ","MAREA":" ","LANE":"６１９巷","ALLEY":" ","HOUSE_NO":"３３號","E_COORD97":170924.06,"N_COORD97":2546023.75,"ADDRESS":"中華路６１９巷３３號","OBJECTID":289059},"geometry":{"x":170924.05999999959,"y":2546023.7500000019}},{"attributes":{"ID":289066,"DIS_CODE":0,"TOWNNAME":"中西區","LI":"元安里","LIN":"10鄰","STREET":"西門路","SECT":"一段","MAREA":" ","LANE":"７６１巷","ALLEY":" ","HOUSE_NO":"１號","E_COORD97":167702.45999999999,"N_COORD97":2543372.3399999999,"ADDRESS":"西門路一段７６１巷１號","OBJECTID":289060},"geometry":{"x":167702.45999999996,"y":2543372.3400000017}},{"attributes":{"ID":289067,"DIS_CODE":0,"TOWNNAME":"中西區","LI":"元安里","LIN":"10鄰","STREET":"西門路","SECT":"一段","MAREA":" ","LANE":"７６１巷","ALLEY":" ","HOUSE_NO":"３號","E_COORD97":167698.38,"N_COORD97":2543371.6899999999,"ADDRESS":"西門路一段７６１巷３號","OBJECTID":289061},"geometry":{"x":167698.37999999989,"y":2543371.6900000032}},{"attributes":{"ID":289068,"DIS_CODE":0,"TOWNNAME":"中西區","LI":"元安里","LIN":"10鄰","STREET":"西門路","SECT":"一段","MAREA":" ","LANE":"７６１巷","ALLEY":" ","HOUSE_NO":"５號","E_COORD97":167693.64999999999,"N_COORD97":2543371.5499999998,"ADDRESS":"西門路一段７６１巷５號","OBJECTID":289062},"geometry":{"x":167693.65000000037,"y":2543371.5500000026}},{"attributes":{"ID":289069,"DIS_CODE":0,"TOWNNAME":"中西區","LI":"元安里","LIN":"10鄰","STREET":"西門路","SECT":"一段","MAREA":" ","LANE":"７６１巷","ALLEY":" ","HOUSE_NO":"７號","E_COORD97":167689.28,"N_COORD97":2543372.0499999998,"ADDRESS":"西門路一段７６１巷７號","OBJECTID":289063},"geometry":{"x":167689.28000000026,"y":2543372.0500000007}},{"attributes":{"ID":289070,"DIS_CODE":0,"TOWNNAME":"永康區","LI":"崑山里","LIN":"48鄰","STREET":"國光六街","SECT":" ","MAREA":" ","LANE":" ","ALLEY":" ","HOUSE_NO":"３９之２號","E_COORD97":174202.60000000001,"N_COORD97":2545273.5800000001,"ADDRESS":"國光六街３９之２號","OBJECTID":289064},"geometry":{"x":174202.59999999963,"y":2545273.5800000001}},{"attributes":{"ID":289071,"DIS_CODE":0,"TOWNNAME":"永康區","LI":"崑山里","LIN":"48鄰","STREET":"永華路","SECT":" ","MAREA":" ","LANE":" ","ALLEY":" ","HOUSE_NO":"５４號","E_COORD97":174091.92000000001,"N_COORD97":2545279.1499999999,"ADDRESS":"永華路５４號","OBJECTID":289065},"geometry":{"x":174091.91999999993,"y":2545279.1500000022}},{"attributes":{"ID":289072,"DIS_CODE":0,"TOWNNAME":"永康區","LI":"崑山里","LIN":"48鄰","STREET":"永華路","SECT":" ","MAREA":" ","LANE":" ","ALLEY":" ","HOUSE_NO":"４０號","E_COORD97":174084.72,"N_COORD97":2545240.5099999998,"ADDRESS":"永華路４０號","OBJECTID":289066},"geometry":{"x":174084.71999999974,"y":2545240.5099999998}},{"attributes":{"ID":289073,"DIS_CODE":0,"TOWNNAME":"仁德區","LI":"成功里","LIN":"39鄰","STREET":"文賢路","SECT":"一段","MAREA":" ","LANE":" ","ALLEY":" ","HOUSE_NO":"１９號","E_COORD97":170132.95000000001,"N_COORD97":2538276.8199999998,"ADDRESS":"文賢路一段１９號","OBJECTID":289067},"geometry":{"x":170132.95000000112,"y":2538276.8200000022}},{"attributes":{"ID":289074,"DIS_CODE":0,"TOWNNAME":"仁德區","LI":"成功里","LIN":"39鄰","STREET":"二仁路","SECT":"二段","MAREA":" ","LANE":" ","ALLEY":" ","HOUSE_NO":"６００號","E_COORD97":170095.67000000001,"N_COORD97":2538215.27,"ADDRESS":"二仁路二段６００號","OBJECTID":289068},"geometry":{"x":170095.67000000086,"y":2538215.2700000014}},{"attributes":{"ID":289075,"DIS_CODE":0,"TOWNNAME":"永康區","LI":"\u25A0行里","LIN":"48鄰","STREET":"新民街","SECT":" ","MAREA":" ","LANE":" ","ALLEY":" ","HOUSE_NO":"４５號","E_COORD97":172371.17000000001,"N_COORD97":2548942.73,"ADDRESS":"新民街４５號","OBJECTID":289069},"geometry":{"x":172371.17000000086,"y":2548942.7300000042}},{"attributes":{"ID":289076,"DIS_CODE":0,"TOWNNAME":"永康區","LI":"\u25A0行里","LIN":"48鄰","STREET":"新民街","SECT":" ","MAREA":" ","LANE":" ","ALLEY":" ","HOUSE_NO":"７６號","E_COORD97":172345.72,"N_COORD97":2548968.9900000002,"ADDRESS":"新民街７６號","OBJECTID":289070},"geometry":{"x":172345.71999999974,"y":2548968.9900000021}},{"attributes":{"ID":289077,"DIS_CODE":0,"TOWNNAME":"中西區","LI":"元安里","LIN":"10鄰","STREET":"西門路","SECT":"一段","MAREA":" ","LANE":"７６１巷","ALLEY":" ","HOUSE_NO":"８號","E_COORD97":167673.34,"N_COORD97":2543392.1899999999,"ADDRESS":"西門路一段７６１巷８號","OBJECTID":289071},"geometry":{"x":167673.33999999892,"y":2543392.1900000013}},{"attributes":{"ID":289078,"DIS_CODE":0,"TOWNNAME":"仁德區","LI":"仁義里","LIN":"32鄰","STREET":"中清三街","SECT":" ","MAREA":" ","LANE":"４巷","ALLEY":" ","HOUSE_NO":"７號","E_COORD97":173531.92999999999,"N_COORD97":2541486.29,"ADDRESS":"中清三街４巷７號","OBJECTID":289072},"geometry":{"x":173531.93000000063,"y":2541486.290000001}},{"attributes":{"ID":289079,"DIS_CODE":0,"TOWNNAME":"安南區","LI":"砂崙里","LIN":"10鄰","STREET":"青砂街","SECT":"一段","MAREA":" ","LANE":"６９５巷","ALLEY":" ","HOUSE_NO":"１３號","E_COORD97":159885.70999999999,"N_COORD97":2552832.3900000001,"ADDRESS":"青砂街一段６９５巷１３號","OBJECTID":289073},"geometry":{"x":159885.71000000089,"y":2552832.3900000006}},{"attributes":{"ID":289080,"DIS_CODE":0,"TOWNNAME":"安南區","LI":"原佃里","LIN":"10鄰","STREET":"本原街","SECT":"一段","MAREA":" ","LANE":"４４０巷","ALLEY":" ","HOUSE_NO":"２８號","E_COORD97":167443.25,"N_COORD97":2550556.29,"ADDRESS":"本原街一段４４０巷２８號","OBJECTID":289074},"geometry":{"x":167443.25,"y":2550556.290000001}},{"attributes":{"ID":289081,"DIS_CODE":0,"TOWNNAME":"安南區","LI":"原佃里","LIN":"10鄰","STREET":"本原街","SECT":"一段","MAREA":" ","LANE":"４４０巷","ALLEY":" ","HOUSE_NO":"３０號","E_COORD97":167442.87,"N_COORD97":2550560.5299999998,"ADDRESS":"本原街一段４４０巷３０號","OBJECTID":289075},"geometry":{"x":167442.86999999918,"y":2550560.5300000012}},{"attributes":{"ID":289082,"DIS_CODE":0,"TOWNNAME":"安南區","LI":"原佃里","LIN":"10鄰","STREET":"本原街","SECT":"一段","MAREA":" ","LANE":"４４０巷","ALLEY":" ","HOUSE_NO":"３２號","E_COORD97":167442.48000000001,"N_COORD97":2550565.1600000001,"ADDRESS":"本原街一段４４０巷３２號","OBJECTID":289076},"geometry":{"x":167442.47999999952,"y":2550565.1600000001}},{"attributes":{"ID":289083,"DIS_CODE":0,"TOWNNAME":"仁德區","LI":"仁義里","LIN":"18鄰","STREET":"正義三街","SECT":" ","MAREA":" ","LANE":"２８６巷","ALLEY":" ","HOUSE_NO":"２７號","E_COORD97":174015.73000000001,"N_COORD97":2541463.1699999999,"ADDRESS":"正義三街２８６巷２７號","OBJECTID":289077},"geometry":{"x":174015.73000000045,"y":2541463.1700000037}},{"attributes":{"ID":289084,"DIS_CODE":0,"TOWNNAME":"安南區","LI":"淵東里","LIN":"10鄰","STREET":"本原街","SECT":"三段","MAREA":" ","LANE":"３２１巷","ALLEY":" ","HOUSE_NO":"６０號","E_COORD97":165440.66,"N_COORD97":2550186.5899999999,"ADDRESS":"本原街三段３２１巷６０號","OBJECTID":289078},"geometry":{"x":165440.65999999922,"y":2550186.5899999999}},{"attributes":{"ID":289085,"DIS_CODE":0,"TOWNNAME":"仁德區","LI":"一甲里","LIN":"14鄰","STREET":"忠義路","SECT":" ","MAREA":" ","LANE":"２４１巷","ALLEY":" ","HOUSE_NO":"４０號","E_COORD97":173922.53,"N_COORD97":2541761.52,"ADDRESS":"忠義路２４１巷４０號","OBJECTID":289079},"geometry":{"x":173922.53000000026,"y":2541761.5199999996}},{"attributes":{"ID":289086,"DIS_CODE":0,"TOWNNAME":"安南區","LI":"南興里","LIN":"10鄰","STREET":"安興街","SECT":" ","MAREA":" ","LANE":"６４６巷","ALLEY":" ","HOUSE_NO":"６０號","E_COORD97":163672.14000000001,"N_COORD97":2552488.1400000001,"ADDRESS":"安興街６４６巷６０號","OBJECTID":289080},"geometry":{"x":163672.13999999966,"y":2552488.1400000006}},{"attributes":{"ID":289087,"DIS_CODE":0,"TOWNNAME":"安南區","LI":"州北里","LIN":"10鄰","STREET":"安和路","SECT":"五段","MAREA":" ","LANE":"１７１巷","ALLEY":" ","HOUSE_NO":"８２號","E_COORD97":169667.07999999999,"N_COORD97":2551778.52,"ADDRESS":"安和路五段１７１巷８２號","OBJECTID":289081},"geometry":{"x":169667.08000000007,"y":2551778.5200000014}},{"attributes":{"ID":289088,"DIS_CODE":0,"TOWNNAME":"安南區","LI":"州北里","LIN":"10鄰","STREET":"安和路","SECT":"五段","MAREA":" ","LANE":"１７１巷","ALLEY":" ","HOUSE_NO":"８４號","E_COORD97":169661.19,"N_COORD97":2551776.21,"ADDRESS":"安和路五段１７１巷８４號","OBJECTID":289082},"geometry":{"x":169661.19000000041,"y":2551776.2100000009}},{"attributes":{"ID":289089,"DIS_CODE":0,"TOWNNAME":"安南區","LI":"州北里","LIN":"10鄰","STREET":"安和路","SECT":"五段","MAREA":" ","LANE":"１７１巷","ALLEY":" ","HOUSE_NO":"９０號","E_COORD97":169648.47,"N_COORD97":2551769.21,"ADDRESS":"安和路五段１７１巷９０號","OBJECTID":289083},"geometry":{"x":169648.46999999974,"y":2551769.2100000009}},{"attributes":{"ID":289090,"DIS_CODE":0,"TOWNNAME":"仁德區","LI":"仁義里","LIN":"48鄰","STREET":"仁義路","SECT":" ","MAREA":" ","LANE":" ","ALLEY":" ","HOUSE_NO":"１０１號","E_COORD97":173642.95000000001,"N_COORD97":2540978.6000000001,"ADDRESS":"仁義路１０１號","OBJECTID":289084},"geometry":{"x":173642.95000000019,"y":2540978.6000000034}},{"attributes":{"ID":289091,"DIS_CODE":0,"TOWNNAME":"新化區","LI":"太平里","LIN":"10鄰","STREET":"中正路","SECT":" ","MAREA":" ","LANE":"７７７巷","ALLEY":" ","HOUSE_NO":"５９號","E_COORD97":178629.16,"N_COORD97":2549294.25,"ADDRESS":"中正路７７７巷５９號","OBJECTID":289085},"geometry":{"x":178629.16000000015,"y":2549294.25}},{"attributes":{"ID":289092,"DIS_CODE":0,"TOWNNAME":"南區","LI":"同安里","LIN":"10鄰","STREET":"灣裡路","SECT":" ","MAREA":" ","LANE":"４００巷","ALLEY":" ","HOUSE_NO":"２號","E_COORD97":166155.29999999999,"N_COORD97":2536165.6600000001,"ADDRESS":"灣裡路４００巷２號","OBJECTID":289086},"geometry":{"x":166155.30000000075,"y":2536165.660000002}},{"attributes":{"ID":289093,"DIS_CODE":0,"TOWNNAME":"仁德區","LI":"仁義里","LIN":"48鄰","STREET":"仁義路","SECT":" ","MAREA":" ","LANE":" ","ALLEY":" ","HOUSE_NO":"９１號","E_COORD97":173607.88,"N_COORD97":2540975.3500000001,"ADDRESS":"仁義路９１號","OBJECTID":289087},"geometry":{"x":173607.87999999989,"y":2540975.3499999996}},{"attributes":{"ID":289094,"DIS_CODE":0,"TOWNNAME":"歸仁區","LI":"看東里","LIN":"11鄰","STREET":"中山一街","SECT":" ","MAREA":" ","LANE":" ","ALLEY":" ","HOUSE_NO":"１１０號","E_COORD97":178646.518453,"N_COORD97":2540379.15307,"ADDRESS":"中山一街１１０號","OBJECTID":289088},"geometry":{"x":178646.51845300198,"y":2540379.1530690026}},{"attributes":{"ID":289095,"DIS_CODE":0,"TOWNNAME":"南區","LI":"同安里","LIN":"10鄰","STREET":"灣裡路","SECT":" ","MAREA":" ","LANE":"４００巷","ALLEY":" ","HOUSE_NO":"４號","E_COORD97":166152.97,"N_COORD97":2536161.02,"ADDRESS":"灣裡路４００巷４號","OBJECTID":289089},"geometry":{"x":166152.96999999974,"y":2536161.0199999996}},{"attributes":{"ID":289096,"DIS_CODE":0,"TOWNNAME":"南區","LI":"竹溪里","LIN":"10鄰","STREET":"體育路","SECT":" ","MAREA":" ","LANE":"４３巷","ALLEY":" ","HOUSE_NO":"２０號","E_COORD97":168774.20000000001,"N_COORD97":2542208.9300000002,"ADDRESS":"體育路４３巷２０號","OBJECTID":289090},"geometry":{"x":168774.20000000019,"y":2542208.9299999997}},{"attributes":{"ID":289097,"DIS_CODE":0,"TOWNNAME":"南區","LI":"竹溪里","LIN":"10鄰","STREET":"體育路","SECT":" ","MAREA":" ","LANE":"４３巷","ALLEY":" ","HOUSE_NO":"６號","E_COORD97":168741.25,"N_COORD97":2542209.6299999999,"ADDRESS":"體育路４３巷６號","OBJECTID":289091},"geometry":{"x":168741.25000000093,"y":2542209.6300000008}},{"attributes":{"ID":289098,"DIS_CODE":0,"TOWNNAME":"南區","LI":"竹溪里","LIN":"10鄰","STREET":"體育路","SECT":" ","MAREA":" ","LANE":"４３巷","ALLEY":" ","HOUSE_NO":"８號","E_COORD97":168745.41,"N_COORD97":2542208.6000000001,"ADDRESS":"體育路４３巷８號","OBJECTID":289092},"geometry":{"x":168745.41000000108,"y":2542208.5999999996}},{"attributes":{"ID":289099,"DIS_CODE":0,"TOWNNAME":"南區","LI":"竹溪里","LIN":"10鄰","STREET":"體育路","SECT":" ","MAREA":" ","LANE":"４３巷","ALLEY":" ","HOUSE_NO":"１０號","E_COORD97":168749.23000000001,"N_COORD97":2542207.5600000001,"ADDRESS":"體育路４３巷１０號","OBJECTID":289093},"geometry":{"x":168749.23000000045,"y":2542207.5600000024}},{"attributes":{"ID":289100,"DIS_CODE":0,"TOWNNAME":"南區","LI":"竹溪里","LIN":"10鄰","STREET":"體育路","SECT":" ","MAREA":" ","LANE":"４３巷","ALLEY":" ","HOUSE_NO":"２號","E_COORD97":168724.60000000001,"N_COORD97":2542208.6000000001,"ADDRESS":"體育路４３巷２號","OBJECTID":289094},"geometry":{"x":168724.60000000056,"y":2542208.5999999996}},{"attributes":{"ID":289101,"DIS_CODE":0,"TOWNNAME":"南區","LI":"竹溪里","LIN":"10鄰","STREET":"體育路","SECT":" ","MAREA":" ","LANE":"４５巷","ALLEY":" ","HOUSE_NO":"１號","E_COORD97":168733.60999999999,"N_COORD97":2542194.3900000001,"ADDRESS":"體育路４５巷１號","OBJECTID":289095},"geometry":{"x":168733.61000000127,"y":2542194.3900000006}},{"attributes":{"ID":289102,"DIS_CODE":0,"TOWNNAME":"南區","LI":"竹溪里","LIN":"10鄰","STREET":"體育路","SECT":" ","MAREA":" ","LANE":"４５巷","ALLEY":" ","HOUSE_NO":"３號","E_COORD97":168739.51000000001,"N_COORD97":2542194.3900000001,"ADDRESS":"體育路４５巷３號","OBJECTID":289096},"geometry":{"x":168739.50999999978,"y":2542194.3900000006}},{"attributes":{"ID":289103,"DIS_CODE":0,"TOWNNAME":"南區","LI":"竹溪里","LIN":"10鄰","STREET":"體育路","SECT":" ","MAREA":" ","LANE":"４５巷","ALLEY":" ","HOUSE_NO":"５號","E_COORD97":168746.10000000001,"N_COORD97":2542194.04,"ADDRESS":"體育路４５巷５號","OBJECTID":289097},"geometry":{"x":168746.0999999987,"y":2542194.0399999991}},{"attributes":{"ID":289104,"DIS_CODE":0,"TOWNNAME":"麻豆區","LI":"磚井里","LIN":"1鄰","STREET":" ","SECT":" ","MAREA":"磚子井","LANE":" ","ALLEY":" ","HOUSE_NO":"１號之８","E_COORD97":172835.45999999999,"N_COORD97":2563342.6600000001,"ADDRESS":"磚子井１號之８","OBJECTID":289098},"geometry":{"x":172835.46000000089,"y":2563342.660000002}},{"attributes":{"ID":289105,"DIS_CODE":0,"TOWNNAME":"中西區","LI":"三合里","LIN":"6鄰","STREET":"民族路","SECT":"三段","MAREA":" ","LANE":" ","ALLEY":" ","HOUSE_NO":"１３６號","E_COORD97":167614.85000000001,"N_COORD97":2544379.0800000001,"ADDRESS":"民族路三段１３６號","OBJECTID":289099},"geometry":{"x":167614.84999999963,"y":2544379.0800000001}},{"attributes":{"ID":289106,"DIS_CODE":0,"TOWNNAME":"中西區","LI":"三合里","LIN":"6鄰","STREET":"民族路","SECT":"三段","MAREA":" ","LANE":" ","ALLEY":" ","HOUSE_NO":"１３８號","E_COORD97":167609.37,"N_COORD97":2544380.1800000002,"ADDRESS":"民族路三段１３８號","OBJECTID":289100},"geometry":{"x":167609.37000000104,"y":2544380.1800000016}},{"attributes":{"ID":289107,"DIS_CODE":0,"TOWNNAME":"南區","LI":"竹溪里","LIN":"10鄰","STREET":"體育路","SECT":" ","MAREA":" ","LANE":"４５巷","ALLEY":" ","HOUSE_NO":"７號","E_COORD97":168752.69,"N_COORD97":2542192.6600000001,"ADDRESS":"體育路４５巷７號","OBJECTID":289101},"geometry":{"x":168752.69000000041,"y":2542192.6600000039}},{"attributes":{"ID":289108,"DIS_CODE":0,"TOWNNAME":"中西區","LI":"三合里","LIN":"6鄰","STREET":"民族路","SECT":"三段","MAREA":" ","LANE":" ","ALLEY":" ","HOUSE_NO":"１４２號","E_COORD97":167598.82000000001,"N_COORD97":2544383.8799999999,"ADDRESS":"民族路三段１４２號","OBJECTID":289102},"geometry":{"x":167598.8200000003,"y":2544383.8800000008}},{"attributes":{"ID":289109,"DIS_CODE":0,"TOWNNAME":"中西區","LI":"三合里","LIN":"6鄰","STREET":"民族路","SECT":"三段","MAREA":" ","LANE":" ","ALLEY":" ","HOUSE_NO":"１４４號","E_COORD97":167591.01000000001,"N_COORD97":2544387.1600000001,"ADDRESS":"民族路三段１４４號","OBJECTID":289103},"geometry":{"x":167591.01000000071,"y":2544387.160000002}},{"attributes":{"ID":289110,"DIS_CODE":0,"TOWNNAME":"中西區","LI":"三合里","LIN":"6鄰","STREET":"民族路","SECT":"三段","MAREA":" ","LANE":" ","ALLEY":" ","HOUSE_NO":"１４６號","E_COORD97":167577.97,"N_COORD97":2544393.6299999999,"ADDRESS":"民族路三段１４６號","OBJECTID":289104},"geometry":{"x":167577.97000000067,"y":2544393.629999999}},{"attributes":{"ID":289111,"DIS_CODE":0,"TOWNNAME":"中西區","LI":"三合里","LIN":"6鄰","STREET":"忠孝街","SECT":" ","MAREA":" ","LANE":" ","ALLEY":" ","HOUSE_NO":"３１號","E_COORD97":167611.42999999999,"N_COORD97":2544385.52,"ADDRESS":"忠孝街３１號","OBJECTID":289105},"geometry":{"x":167611.4299999997,"y":2544385.5199999996}},{"attributes":{"ID":289112,"DIS_CODE":0,"TOWNNAME":"南區","LI":"竹溪里","LIN":"10鄰","STREET":"體育路","SECT":" ","MAREA":" ","LANE":"４５巷","ALLEY":" ","HOUSE_NO":"９號","E_COORD97":168759.29000000001,"N_COORD97":2542192.3100000001,"ADDRESS":"體育路４５巷９號","OBJECTID":289106},"geometry":{"x":168759.29000000097,"y":2542192.3100000024}},{"attributes":{"ID":289113,"DIS_CODE":0,"TOWNNAME":"南區","LI":"竹溪里","LIN":"10鄰","STREET":"體育路","SECT":" ","MAREA":" ","LANE":"４５巷","ALLEY":" ","HOUSE_NO":"１１號","E_COORD97":168762.06,"N_COORD97":2542191.27,"ADDRESS":"體育路４５巷１１號","OBJECTID":289107},"geometry":{"x":168762.06000000052,"y":2542191.2700000033}},{"attributes":{"ID":289114,"DIS_CODE":0,"TOWNNAME":"南區","LI":"竹溪里","LIN":"10鄰","STREET":"體育路","SECT":" ","MAREA":" ","LANE":"４５巷","ALLEY":" ","HOUSE_NO":"２號","E_COORD97":168733.25,"N_COORD97":2542180.04,"ADDRESS":"體育路４５巷２號","OBJECTID":289108},"geometry":{"x":168733.25,"y":2542180.040000001}},{"attributes":{"ID":289115,"DIS_CODE":0,"TOWNNAME":"南區","LI":"府南里","LIN":"10鄰","STREET":"金華路","SECT":"一段","MAREA":" ","LANE":"４８４巷","ALLEY":" ","HOUSE_NO":"２１９號","E_COORD97":167416.01999999999,"N_COORD97":2541142.0099999998,"ADDRESS":"金華路一段４８４巷２１９號","OBJECTID":289109},"geometry":{"x":167416.02000000142,"y":2541142.0100000035}},{"attributes":{"ID":289116,"DIS_CODE":0,"TOWNNAME":"南區","LI":"府南里","LIN":"10鄰","STREET":"金華路","SECT":"一段","MAREA":" ","LANE":"４８４巷","ALLEY":" ","HOUSE_NO":"２２１號","E_COORD97":167417.35999999999,"N_COORD97":2541138.1000000001,"ADDRESS":"金華路一段４８４巷２２１號","OBJECTID":289110},"geometry":{"x":167417.36000000034,"y":2541138.1000000034}},{"attributes":{"ID":289117,"DIS_CODE":0,"TOWNNAME":"南區","LI":"府南里","LIN":"10鄰","STREET":"金華路","SECT":"一段","MAREA":" ","LANE":"４８４巷","ALLEY":" ","HOUSE_NO":"２２３號","E_COORD97":167419.17000000001,"N_COORD97":2541134.77,"ADDRESS":"金華路一段４８４巷２２３號","OBJECTID":289111},"geometry":{"x":167419.17000000086,"y":2541134.7700000014}},{"attributes":{"ID":289118,"DIS_CODE":0,"TOWNNAME":"仁德區","LI":"土庫里","LIN":"4鄰","STREET":"中正路","SECT":"三段","MAREA":" ","LANE":"５２３巷","ALLEY":" ","HOUSE_NO":"１號之１","E_COORD97":173971.82000000001,"N_COORD97":2543060.54,"ADDRESS":"中正路三段５２３巷１號之１","OBJECTID":289112},"geometry":{"x":173971.82000000216,"y":2543060.540000001}},{"attributes":{"ID":289119,"DIS_CODE":0,"TOWNNAME":"安南區","LI":"海西里","LIN":"15鄰","STREET":"海環街","SECT":" ","MAREA":" ","LANE":"３８７巷","ALLEY":" ","HOUSE_NO":"２３之１號","E_COORD97":166053.64999999999,"N_COORD97":2548981.1699999999,"ADDRESS":"海環街３８７巷２３之１號","OBJECTID":289113},"geometry":{"x":166053.6500000013,"y":2548981.1700000018}},{"attributes":{"ID":289120,"DIS_CODE":0,"TOWNNAME":"安南區","LI":"幸福里","LIN":"15鄰","STREET":"海佃路","SECT":"一段","MAREA":" ","LANE":"９５巷","ALLEY":" ","HOUSE_NO":"５３號","E_COORD97":166951.14999999999,"N_COORD97":2546871.3799999999,"ADDRESS":"海佃路一段９５巷５３號","OBJECTID":289114},"geometry":{"x":166951.15000000037,"y":2546871.379999999}},{"attributes":{"ID":289121,"DIS_CODE":0,"TOWNNAME":"安南區","LI":"布袋里","LIN":"15鄰","STREET":"長和路","SECT":"四段","MAREA":" ","LANE":"１６０巷","ALLEY":" ","HOUSE_NO":"４８號","E_COORD97":168991.89999999999,"N_COORD97":2551821.6499999999,"ADDRESS":"長和路四段１６０巷４８號","OBJECTID":289115},"geometry":{"x":168991.90000000037,"y":2551821.6500000041}},{"attributes":{"ID":289122,"DIS_CODE":0,"TOWNNAME":"仁德區","LI":"後壁里","LIN":"15鄰","STREET":"德南路","SECT":" ","MAREA":" ","LANE":"４３巷","ALLEY":" ","HOUSE_NO":"２號","E_COORD97":173392.95999999999,"N_COORD97":2538776.02,"ADDRESS":"德南路４３巷２號","OBJECTID":289116},"geometry":{"x":173392.96000000089,"y":2538776.0200000014}},{"attributes":{"ID":289123,"DIS_CODE":0,"TOWNNAME":"仁德區","LI":"後壁里","LIN":"15鄰","STREET":"德南路","SECT":" ","MAREA":" ","LANE":"１３７巷","ALLEY":" ","HOUSE_NO":"１２號","E_COORD97":173605.44,"N_COORD97":2538622.5099999998,"ADDRESS":"德南路１３７巷１２號","OBJECTID":289117},"geometry":{"x":173605.44000000134,"y":2538622.5099999998}},{"attributes":{"ID":289124,"DIS_CODE":0,"TOWNNAME":"仁德區","LI":"成功里","LIN":"15鄰","STREET":"全福路","SECT":" ","MAREA":" ","LANE":"８０巷","ALLEY":" ","HOUSE_NO":"８號","E_COORD97":171015.20999999999,"N_COORD97":2539282.25,"ADDRESS":"全福路８０巷８號","OBJECTID":289118},"geometry":{"x":171015.20999999996,"y":2539282.25}},{"attributes":{"ID":289125,"DIS_CODE":0,"TOWNNAME":"仁德區","LI":"後壁里","LIN":"15鄰","STREET":"德南路","SECT":" ","MAREA":" ","LANE":"１３７巷","ALLEY":" ","HOUSE_NO":"４６號","E_COORD97":173623.98000000001,"N_COORD97":2538646.02,"ADDRESS":"德南路１３７巷４６號","OBJECTID":289119},"geometry":{"x":173623.98000000138,"y":2538646.0199999996}},{"attributes":{"ID":289126,"DIS_CODE":0,"TOWNNAME":"仁德區","LI":"新田里","LIN":"15鄰","STREET":"民安路","SECT":"二段","MAREA":" ","LANE":"６３巷","ALLEY":" ","HOUSE_NO":"１５號","E_COORD97":173465.87,"N_COORD97":2539272.8199999998,"ADDRESS":"民安路二段６３巷１５號","OBJECTID":289120},"geometry":{"x":173465.86999999918,"y":2539272.8200000022}},{"attributes":{"ID":289127,"DIS_CODE":0,"TOWNNAME":"仁德區","LI":"後壁里","LIN":"15鄰","STREET":"德南路","SECT":" ","MAREA":" ","LANE":"１３７巷","ALLEY":" ","HOUSE_NO":"１６號","E_COORD97":173602.42000000001,"N_COORD97":2538619.0099999998,"ADDRESS":"德南路１３７巷１６號","OBJECTID":289121},"geometry":{"x":173602.41999999993,"y":2538619.0099999998}},{"attributes":{"ID":289128,"DIS_CODE":0,"TOWNNAME":"仁德區","LI":"後壁里","LIN":"15鄰","STREET":"德南路","SECT":" ","MAREA":" ","LANE":"１３７巷","ALLEY":" ","HOUSE_NO":"３０號","E_COORD97":173618.29000000001,"N_COORD97":2538622.0099999998,"ADDRESS":"德南路１３７巷３０號","OBJECTID":289122},"geometry":{"x":173618.29000000004,"y":2538622.0099999998}},{"attributes":{"ID":289129,"DIS_CODE":0,"TOWNNAME":"仁德區","LI":"後壁里","LIN":"15鄰","STREET":"德南路","SECT":" ","MAREA":" ","LANE":"１３７巷","ALLEY":" ","HOUSE_NO":"２２號","E_COORD97":173610.29999999999,"N_COORD97":2538611.7599999998,"ADDRESS":"德南路１３７巷２２號","OBJECTID":289123},"geometry":{"x":173610.30000000168,"y":2538611.7600000016}},{"attributes":{"ID":289130,"DIS_CODE":0,"TOWNNAME":"永康區","LI":"復國里","LIN":"15鄰","STREET":"復國二路","SECT":" ","MAREA":" ","LANE":"１６９巷","ALLEY":" ","HOUSE_NO":"１號","E_COORD97":172904.76999999999,"N_COORD97":2545764.1400000001,"ADDRESS":"復國二路１６９巷１號","OBJECTID":289124},"geometry":{"x":172904.76999999955,"y":2545764.1400000025}},{"attributes":{"ID":289131,"DIS_CODE":0,"TOWNNAME":"永康區","LI":"復國里","LIN":"15鄰","STREET":"復國二路","SECT":" ","MAREA":" ","LANE":"１６９巷","ALLEY":" ","HOUSE_NO":"３號","E_COORD97":172899.14000000001,"N_COORD97":2545764.48,"ADDRESS":"復國二路１６９巷３號","OBJECTID":289125},"geometry":{"x":172899.14000000153,"y":2545764.4800000023}},{"attributes":{"ID":289132,"DIS_CODE":0,"TOWNNAME":"新化區","LI":"豐榮里","LIN":"10鄰","STREET":"正新路","SECT":" ","MAREA":" ","LANE":"２１７巷","ALLEY":" ","HOUSE_NO":"７０號","E_COORD97":178424.17000000001,"N_COORD97":2548361.25,"ADDRESS":"正新路２１７巷７０號","OBJECTID":289126},"geometry":{"x":178424.17000000086,"y":2548361.25}},{"attributes":{"ID":289133,"DIS_CODE":0,"TOWNNAME":"東區","LI":"大學里","LIN":"10鄰","STREET":"大學路","SECT":" ","MAREA":" ","LANE":"２２巷","ALLEY":" ","HOUSE_NO":"８號","E_COORD97":170147.53,"N_COORD97":2543999.0800000001,"ADDRESS":"大學路２２巷８號","OBJECTID":289127},"geometry":{"x":170147.53000000212,"y":2543999.0800000001}},{"attributes":{"ID":289134,"DIS_CODE":0,"TOWNNAME":"安南區","LI":"海東里","LIN":"10鄰","STREET":"海環街","SECT":" ","MAREA":" ","LANE":"３２巷","ALLEY":" ","HOUSE_NO":"６０號","E_COORD97":166561.44,"N_COORD97":2549003.1000000001,"ADDRESS":"海環街３２巷６０號","OBJECTID":289128},"geometry":{"x":166561.44000000227,"y":2549003.0999999996}},{"attributes":{"ID":289135,"DIS_CODE":0,"TOWNNAME":"安南區","LI":"海東里","LIN":"10鄰","STREET":"海環街","SECT":" ","MAREA":" ","LANE":"３２巷","ALLEY":" ","HOUSE_NO":"６６號","E_COORD97":166551.12,"N_COORD97":2549016.54,"ADDRESS":"海環街３２巷６６號","OBJECTID":289129},"geometry":{"x":166551.12000000011,"y":2549016.5399999991}},{"attributes":{"ID":289136,"DIS_CODE":0,"TOWNNAME":"安南區","LI":"海東里","LIN":"10鄰","STREET":"海環街","SECT":" ","MAREA":" ","LANE":"３２巷","ALLEY":" ","HOUSE_NO":"６８號","E_COORD97":166547.98999999999,"N_COORD97":2549020.1299999999,"ADDRESS":"海環街３２巷６８號","OBJECTID":289130},"geometry":{"x":166547.99000000115,"y":2549020.1300000008}},{"attributes":{"ID":289137,"DIS_CODE":0,"TOWNNAME":"安南區","LI":"海東里","LIN":"10鄰","STREET":"海環街","SECT":" ","MAREA":" ","LANE":"３２巷","ALLEY":" ","HOUSE_NO":"７０號","E_COORD97":166545.01999999999,"N_COORD97":2549023.9199999999,"ADDRESS":"海環街３２巷７０號","OBJECTID":289131},"geometry":{"x":166545.02000000048,"y":2549023.9199999999}},{"attributes":{"ID":289138,"DIS_CODE":0,"TOWNNAME":"安南區","LI":"海東里","LIN":"10鄰","STREET":"海環街","SECT":" ","MAREA":" ","LANE":"３２巷","ALLEY":" ","HOUSE_NO":"７２號","E_COORD97":166542.54999999999,"N_COORD97":2549026.6400000001,"ADDRESS":"海環街３２巷７２號","OBJECTID":289132},"geometry":{"x":166542.54999999981,"y":2549026.6400000006}},{"attributes":{"ID":289139,"DIS_CODE":0,"TOWNNAME":"中西區","LI":"小西里","LIN":"10鄰","STREET":"西門路","SECT":"一段","MAREA":" ","LANE":"７３４巷","ALLEY":" ","HOUSE_NO":"１０號","E_COORD97":167812.82000000001,"N_COORD97":2543362.25,"ADDRESS":"西門路一段７３４巷１０號","OBJECTID":289133},"geometry":{"x":167812.8200000003,"y":2543362.2500000019}},{"attributes":{"ID":289140,"DIS_CODE":0,"TOWNNAME":"中西區","LI":"小西里","LIN":"10鄰","STREET":"西門路","SECT":"一段","MAREA":" ","LANE":"７３４巷","ALLEY":" ","HOUSE_NO":"２號","E_COORD97":167799.95999999999,"N_COORD97":2543389.1800000002,"ADDRESS":"西門路一段７３４巷２號","OBJECTID":289134},"geometry":{"x":167799.96000000183,"y":2543389.1800000016}},{"attributes":{"ID":289141,"DIS_CODE":0,"TOWNNAME":"中西區","LI":"小西里","LIN":"10鄰","STREET":"西門路","SECT":"一段","MAREA":" ","LANE":"７３４巷","ALLEY":" ","HOUSE_NO":"４號","E_COORD97":167805.45999999999,"N_COORD97":2543383.5600000001,"ADDRESS":"西門路一段７３４巷４號","OBJECTID":289135},"geometry":{"x":167805.46000000089,"y":2543383.5600000042}},{"attributes":{"ID":289142,"DIS_CODE":0,"TOWNNAME":"中西區","LI":"小西里","LIN":"10鄰","STREET":"西門路","SECT":"一段","MAREA":" ","LANE":"７３４巷","ALLEY":" ","HOUSE_NO":"６號","E_COORD97":167812.79000000001,"N_COORD97":2543379.6600000001,"ADDRESS":"西門路一段７３４巷６號","OBJECTID":289136},"geometry":{"x":167812.79000000004,"y":2543379.660000002}},{"attributes":{"ID":289143,"DIS_CODE":0,"TOWNNAME":"南區","LI":"國宅里","LIN":"10鄰","STREET":"金華路","SECT":"二段","MAREA":" ","LANE":"３巷","ALLEY":" ","HOUSE_NO":"１７號","E_COORD97":166902.81,"N_COORD97":2541809.2400000002,"ADDRESS":"金華路二段３巷１７號","OBJECTID":289137},"geometry":{"x":166902.81000000052,"y":2541809.2400000021}},{"attributes":{"ID":289144,"DIS_CODE":0,"TOWNNAME":"南區","LI":"國宅里","LIN":"10鄰","STREET":"金華路","SECT":"二段","MAREA":" ","LANE":"３巷","ALLEY":" ","HOUSE_NO":"１８號","E_COORD97":166923.14999999999,"N_COORD97":2541821.3900000001,"ADDRESS":"金華路二段３巷１８號","OBJECTID":289138},"geometry":{"x":166923.1500000013,"y":2541821.3900000006}},{"attributes":{"ID":289145,"DIS_CODE":0,"TOWNNAME":"南區","LI":"國宅里","LIN":"10鄰","STREET":"金華路","SECT":"二段","MAREA":" ","LANE":"３巷","ALLEY":" ","HOUSE_NO":"１９號","E_COORD97":166897.56,"N_COORD97":2541809.4300000002,"ADDRESS":"金華路二段３巷１９號","OBJECTID":289139},"geometry":{"x":166897.56000000052,"y":2541809.4299999997}},{"attributes":{"ID":289146,"DIS_CODE":0,"TOWNNAME":"南區","LI":"國宅里","LIN":"10鄰","STREET":"金華路","SECT":"二段","MAREA":" ","LANE":"３巷","ALLEY":" ","HOUSE_NO":"２０號","E_COORD97":166918.87,"N_COORD97":2541821.8100000001,"ADDRESS":"金華路二段３巷２０號","OBJECTID":289140},"geometry":{"x":166918.87000000011,"y":2541821.8100000005}},{"attributes":{"ID":289147,"DIS_CODE":0,"TOWNNAME":"中西區","LI":"開山里","LIN":"8鄰","STREET":"府前路","SECT":"一段","MAREA":" ","LANE":"６１巷","ALLEY":" ","HOUSE_NO":"３３號","E_COORD97":168976.84,"N_COORD97":2543147.3300000001,"ADDRESS":"府前路一段６１巷３３號","OBJECTID":289141},"geometry":{"x":168976.83999999985,"y":2543147.3300000038}},{"attributes":{"ID":289148,"DIS_CODE":0,"TOWNNAME":"中西區","LI":"開山里","LIN":"8鄰","STREET":"府前路","SECT":"一段","MAREA":" ","LANE":"６１巷","ALLEY":" ","HOUSE_NO":"３５號","E_COORD97":168981.41,"N_COORD97":2543148.3999999999,"ADDRESS":"府前路一段６１巷３５號","OBJECTID":289142},"geometry":{"x":168981.41000000015,"y":2543148.4000000022}},{"attributes":{"ID":289149,"DIS_CODE":0,"TOWNNAME":"南區","LI":"國宅里","LIN":"10鄰","STREET":"金華路","SECT":"二段","MAREA":" ","LANE":"９巷","ALLEY":" ","HOUSE_NO":"２９號","E_COORD97":166919.94,"N_COORD97":2541840.6299999999,"ADDRESS":"金華路二段９巷２９號","OBJECTID":289143},"geometry":{"x":166919.94000000041,"y":2541840.629999999}},{"attributes":{"ID":289150,"DIS_CODE":0,"TOWNNAME":"南區","LI":"國宅里","LIN":"10鄰","STREET":"金華路","SECT":"二段","MAREA":" ","LANE":"９巷","ALLEY":" ","HOUSE_NO":"３０號","E_COORD97":166920.69,"N_COORD97":2541853.8900000001,"ADDRESS":"金華路二段９巷３０號","OBJECTID":289144},"geometry":{"x":166920.69000000227,"y":2541853.8900000025}},{"attributes":{"ID":289151,"DIS_CODE":0,"TOWNNAME":"南區","LI":"喜北里","LIN":"10鄰","STREET":"喜樹路","SECT":" ","MAREA":" ","LANE":"１４６巷","ALLEY":" ","HOUSE_NO":"５號","E_COORD97":165835.23000000001,"N_COORD97":2538268.3599999999,"ADDRESS":"喜樹路１４６巷５號","OBJECTID":289145},"geometry":{"x":165835.23000000045,"y":2538268.3600000013}},{"attributes":{"ID":289152,"DIS_CODE":0,"TOWNNAME":"南區","LI":"喜北里","LIN":"10鄰","STREET":"喜樹路","SECT":" ","MAREA":" ","LANE":"１４６巷","ALLEY":" ","HOUSE_NO":"１３號","E_COORD97":165788.76999999999,"N_COORD97":2538270.2400000002,"ADDRESS":"喜樹路１４６巷１３號","OBJECTID":289146},"geometry":{"x":165788.77000000048,"y":2538270.2400000021}},{"attributes":{"ID":289153,"DIS_CODE":0,"TOWNNAME":"南區","LI":"喜東里","LIN":"10鄰","STREET":"明興路","SECT":" ","MAREA":" ","LANE":"６１９巷","ALLEY":" ","HOUSE_NO":"１０１號","E_COORD97":166314.39000000001,"N_COORD97":2537970.3199999998,"ADDRESS":"明興路６１９巷１０１號","OBJECTID":289147},"geometry":{"x":166314.38999999966,"y":2537970.3199999984}},{"attributes":{"ID":289154,"DIS_CODE":0,"TOWNNAME":"南區","LI":"喜東里","LIN":"10鄰","STREET":"明興路","SECT":" ","MAREA":" ","LANE":"６１９巷","ALLEY":" ","HOUSE_NO":"１７１號","E_COORD97":166478.41,"N_COORD97":2537951.9399999999,"ADDRESS":"明興路６１９巷１７１號","OBJECTID":289148},"geometry":{"x":166478.41000000108,"y":2537951.9400000032}},{"attributes":{"ID":289155,"DIS_CODE":0,"TOWNNAME":"南區","LI":"喜東里","LIN":"10鄰","STREET":"明興路","SECT":" ","MAREA":" ","LANE":"６１９巷","ALLEY":" ","HOUSE_NO":"２１４號","E_COORD97":166525.17999999999,"N_COORD97":2537926.1699999999,"ADDRESS":"明興路６１９巷２１４號","OBJECTID":289149},"geometry":{"x":166525.18000000156,"y":2537926.1699999999}},{"attributes":{"ID":289156,"DIS_CODE":0,"TOWNNAME":"南區","LI":"喜東里","LIN":"10鄰","STREET":"明興路","SECT":" ","MAREA":" ","LANE":"６１９巷","ALLEY":" ","HOUSE_NO":"２１６號","E_COORD97":166524.57000000001,"N_COORD97":2537933.8599999999,"ADDRESS":"明興路６１９巷２１６號","OBJECTID":289150},"geometry":{"x":166524.5700000003,"y":2537933.8599999994}},{"attributes":{"ID":289157,"DIS_CODE":0,"TOWNNAME":"南區","LI":"喜東里","LIN":"10鄰","STREET":"明興路","SECT":" ","MAREA":" ","LANE":"６１９巷","ALLEY":" ","HOUSE_NO":"２３４號","E_COORD97":166580.17999999999,"N_COORD97":2537905.02,"ADDRESS":"明興路６１９巷２３４號","OBJECTID":289151},"geometry":{"x":166580.1799999997,"y":2537905.0200000014}},{"attributes":{"ID":289158,"DIS_CODE":0,"TOWNNAME":"南區","LI":"喜東里","LIN":"10鄰","STREET":"明興路","SECT":" ","MAREA":" ","LANE":"６１９巷","ALLEY":" ","HOUSE_NO":"２３６號","E_COORD97":166595.16,"N_COORD97":2537899.8199999998,"ADDRESS":"明興路６１９巷２３６號","OBJECTID":289152},"geometry":{"x":166595.16000000201,"y":2537899.8200000022}},{"attributes":{"ID":289159,"DIS_CODE":0,"TOWNNAME":"南區","LI":"喜東里","LIN":"10鄰","STREET":"明興路","SECT":" ","MAREA":" ","LANE":"６１９巷","ALLEY":" ","HOUSE_NO":"６號","E_COORD97":166153.89999999999,"N_COORD97":2537935.46,"ADDRESS":"明興路６１９巷６號","OBJECTID":289153},"geometry":{"x":166153.90000000037,"y":2537935.4600000009}},{"attributes":{"ID":289160,"DIS_CODE":0,"TOWNNAME":"永康區","LI":"埔園里","LIN":"10鄰","STREET":"自強路","SECT":" ","MAREA":" ","LANE":"４２０巷","ALLEY":" ","HOUSE_NO":"１０號","E_COORD97":173658.25,"N_COORD97":2547852.52,"ADDRESS":"自強路４２０巷１０號","OBJECTID":289154},"geometry":{"x":173658.25000000186,"y":2547852.5200000014}},{"attributes":{"ID":289161,"DIS_CODE":0,"TOWNNAME":"永康區","LI":"南灣里","LIN":"10鄰","STREET":"南興路","SECT":" ","MAREA":" ","LANE":"３巷","ALLEY":" ","HOUSE_NO":"７號","E_COORD97":173922.70999999999,"N_COORD97":2543817.71,"ADDRESS":"南興路３巷７號","OBJECTID":289155},"geometry":{"x":173922.70999999996,"y":2543817.7100000028}},{"attributes":{"ID":289162,"DIS_CODE":0,"TOWNNAME":"善化區","LI":"文正里","LIN":"10鄰","STREET":"文正路","SECT":" ","MAREA":" ","LANE":"２５巷","ALLEY":" ","HOUSE_NO":"１０號","E_COORD97":176920.76000000001,"N_COORD97":2559431.5299999998,"ADDRESS":"文正路２５巷１０號","OBJECTID":289156},"geometry":{"x":176920.75999999978,"y":2559431.5299999993}},{"attributes":{"ID":289163,"DIS_CODE":0,"TOWNNAME":"仁德區","LI":"成功里","LIN":"10鄰","STREET":"成功二街","SECT":" ","MAREA":" ","LANE":"２３巷","ALLEY":" ","HOUSE_NO":"８號","E_COORD97":170936.17000000001,"N_COORD97":2539915.77,"ADDRESS":"成功二街２３巷８號","OBJECTID":289157},"geometry":{"x":170936.16999999899,"y":2539915.7699999996}},{"attributes":{"ID":289164,"DIS_CODE":0,"TOWNNAME":"仁德區","LI":"田厝里","LIN":"10鄰","STREET":"田厝二街","SECT":" ","MAREA":" ","LANE":"８６巷","ALLEY":" ","HOUSE_NO":"２號","E_COORD97":172352.16,"N_COORD97":2537697.7400000002,"ADDRESS":"田厝二街８６巷２號","OBJECTID":289158},"geometry":{"x":172352.16000000201,"y":2537697.7400000021}},{"attributes":{"ID":289165,"DIS_CODE":0,"TOWNNAME":"新市區","LI":"新和里","LIN":"48鄰","STREET":"和平街","SECT":" ","MAREA":" ","LANE":" ","ALLEY":" ","HOUSE_NO":"１０４號","E_COORD97":177564.54000000001,"N_COORD97":2553386,"ADDRESS":"和平街１０４號","OBJECTID":289159},"geometry":{"x":177564.54000000097,"y":2553386.0000000019}},{"attributes":{"ID":289166,"DIS_CODE":0,"TOWNNAME":"新市區","LI":"新和里","LIN":"48鄰","STREET":"和平街","SECT":" ","MAREA":" ","LANE":" ","ALLEY":" ","HOUSE_NO":"６８號","E_COORD97":177616.10000000001,"N_COORD97":2553442,"ADDRESS":"和平街６８號","OBJECTID":289160},"geometry":{"x":177616.10000000056,"y":2553442}},{"attributes":{"ID":289167,"DIS_CODE":0,"TOWNNAME":"新市區","LI":"新和里","LIN":"48鄰","STREET":"和平街","SECT":" ","MAREA":" ","LANE":" ","ALLEY":" ","HOUSE_NO":"１４０號","E_COORD97":177502.32000000001,"N_COORD97":2553338.5,"ADDRESS":"和平街１４０號","OBJECTID":289161},"geometry":{"x":177502.3200000003,"y":2553338.5000000019}},{"attributes":{"ID":289168,"DIS_CODE":0,"TOWNNAME":"新市區","LI":"新和里","LIN":"48鄰","STREET":"和平街","SECT":" ","MAREA":" ","LANE":" ","ALLEY":" ","HOUSE_NO":"８４號","E_COORD97":177591.26000000001,"N_COORD97":2553411.5,"ADDRESS":"和平街８４號","OBJECTID":289162},"geometry":{"x":177591.26000000071,"y":2553411.5}},{"attributes":{"ID":289169,"DIS_CODE":0,"TOWNNAME":"新市區","LI":"新和里","LIN":"48鄰","STREET":"和平街","SECT":" ","MAREA":" ","LANE":" ","ALLEY":" ","HOUSE_NO":"７４號","E_COORD97":177606.64999999999,"N_COORD97":2553432.25,"ADDRESS":"和平街７４號","OBJECTID":289163},"geometry":{"x":177606.65000000037,"y":2553432.2500000019}},{"attributes":{"ID":289170,"DIS_CODE":0,"TOWNNAME":"新市區","LI":"新和里","LIN":"48鄰","STREET":"和平街","SECT":" ","MAREA":" ","LANE":" ","ALLEY":" ","HOUSE_NO":"１１４號","E_COORD97":177546.39000000001,"N_COORD97":2553372,"ADDRESS":"和平街１１４號","OBJECTID":289164},"geometry":{"x":177546.3900000006,"y":2553372.0000000019}},{"attributes":{"ID":289171,"DIS_CODE":0,"TOWNNAME":"南區","LI":"新昌里","LIN":"10鄰","STREET":"西門路","SECT":"一段","MAREA":" ","LANE":"５７５巷","ALLEY":" ","HOUSE_NO":"２８號","E_COORD97":167645.12,"N_COORD97":2542781.52,"ADDRESS":"西門路一段５７５巷２８號","OBJECTID":289165},"geometry":{"x":167645.12000000104,"y":2542781.5199999996}},{"attributes":{"ID":289172,"DIS_CODE":0,"TOWNNAME":"南區","LI":"新昌里","LIN":"10鄰","STREET":"西門路","SECT":"一段","MAREA":" ","LANE":"５７５巷","ALLEY":" ","HOUSE_NO":"２９號","E_COORD97":167639.32999999999,"N_COORD97":2542765.27,"ADDRESS":"西門路一段５７５巷２９號","OBJECTID":289166},"geometry":{"x":167639.33000000007,"y":2542765.2700000014}},{"attributes":{"ID":289173,"DIS_CODE":0,"TOWNNAME":"中西區","LI":"三民里","LIN":"12鄰","STREET":"中山路","SECT":" ","MAREA":" ","LANE":"７９巷","ALLEY":" ","HOUSE_NO":"２２號","E_COORD97":168726.21173000001,"N_COORD97":2543884.4063300001,"ADDRESS":"中山路７９巷２２號","OBJECTID":289167},"geometry":{"x":168726.21173000056,"y":2543884.4063270018}},{"attributes":{"ID":289174,"DIS_CODE":0,"TOWNNAME":"南區","LI":"興農里","LIN":"10鄰","STREET":"灣裡路","SECT":" ","MAREA":" ","LANE":"２６３巷","ALLEY":" ","HOUSE_NO":"５４號","E_COORD97":166408.17999999999,"N_COORD97":2536323.9900000002,"ADDRESS":"灣裡路２６３巷５４號","OBJECTID":289168},"geometry":{"x":166408.18000000156,"y":2536323.9900000002}},{"attributes":{"ID":289175,"DIS_CODE":0,"TOWNNAME":"南區","LI":"興農里","LIN":"10鄰","STREET":"灣裡路","SECT":" ","MAREA":" ","LANE":"２６３巷","ALLEY":" ","HOUSE_NO":"５４號之１","E_COORD97":166393.29999999999,"N_COORD97":2536332.1800000002,"ADDRESS":"灣裡路２６３巷５４號之１","OBJECTID":289169},"geometry":{"x":166393.29999999981,"y":2536332.1799999997}},{"attributes":{"ID":289176,"DIS_CODE":0,"TOWNNAME":"南區","LI":"興農里","LIN":"10鄰","STREET":"灣裡路","SECT":" ","MAREA":" ","LANE":"２６３巷","ALLEY":" ","HOUSE_NO":"５４號之２","E_COORD97":166397.41,"N_COORD97":2536330.8999999999,"ADDRESS":"灣裡路２６３巷５４號之２","OBJECTID":289170},"geometry":{"x":166397.41000000108,"y":2536330.9000000004}},{"attributes":{"ID":289177,"DIS_CODE":0,"TOWNNAME":"南區","LI":"興農里","LIN":"10鄰","STREET":"灣裡路","SECT":" ","MAREA":" ","LANE":"２６３巷","ALLEY":" ","HOUSE_NO":"５４號之３","E_COORD97":166416.39000000001,"N_COORD97":2536319.8900000001,"ADDRESS":"灣裡路２６３巷５４號之３","OBJECTID":289171},"geometry":{"x":166416.38999999966,"y":2536319.8900000025}},{"attributes":{"ID":289178,"DIS_CODE":0,"TOWNNAME":"南區","LI":"興農里","LIN":"10鄰","STREET":"灣裡路","SECT":" ","MAREA":" ","LANE":"２６３巷","ALLEY":" ","HOUSE_NO":"５８號","E_COORD97":166423.32000000001,"N_COORD97":2536318.8599999999,"ADDRESS":"灣裡路２６３巷５８號","OBJECTID":289172},"geometry":{"x":166423.32000000123,"y":2536318.8600000013}},{"attributes":{"ID":289179,"DIS_CODE":0,"TOWNNAME":"新市區","LI":"新和里","LIN":"48鄰","STREET":"和平街","SECT":" ","MAREA":" ","LANE":" ","ALLEY":" ","HOUSE_NO":"１４８之１號","E_COORD97":177489.42999999999,"N_COORD97":2553327.0499999998,"ADDRESS":"和平街１４８之１號","OBJECTID":289173},"geometry":{"x":177489.42999999877,"y":2553327.0500000007}},{"attributes":{"ID":289180,"DIS_CODE":0,"TOWNNAME":"中西區","LI":"三合里","LIN":"8鄰","STREET":"金華路","SECT":"四段","MAREA":" ","LANE":" ","ALLEY":" ","HOUSE_NO":"２１２號底三層","E_COORD97":167585.89999999999,"N_COORD97":2544632.9100000001,"ADDRESS":"金華路四段２１２號底三層","OBJECTID":289174},"geometry":{"x":167585.9000000013,"y":2544632.910000002}},{"attributes":{"ID":289181,"DIS_CODE":0,"TOWNNAME":"永康區","LI":"\u25A0行里","LIN":"48鄰","STREET":"新民街","SECT":" ","MAREA":" ","LANE":" ","ALLEY":" ","HOUSE_NO":"３８號","E_COORD97":172414.95000000001,"N_COORD97":2548957.2999999998,"ADDRESS":"新民街３８號","OBJECTID":289175},"geometry":{"x":172414.95000000112,"y":2548957.3000000026}},{"attributes":{"ID":289182,"DIS_CODE":0,"TOWNNAME":"永康區","LI":"\u25A0行里","LIN":"48鄰","STREET":"新民街","SECT":" ","MAREA":" ","LANE":" ","ALLEY":" ","HOUSE_NO":"２８號","E_COORD97":172431.44,"N_COORD97":2548954.0800000001,"ADDRESS":"新民街２８號","OBJECTID":289176},"geometry":{"x":172431.44000000041,"y":2548954.0800000019}},{"attributes":{"ID":289183,"DIS_CODE":0,"TOWNNAME":"南區","LI":"興農里","LIN":"10鄰","STREET":"灣裡路","SECT":" ","MAREA":" ","LANE":"３５１巷","ALLEY":" ","HOUSE_NO":"４１號","E_COORD97":166360.45000000001,"N_COORD97":2536276.3199999998,"ADDRESS":"灣裡路３５１巷４１號","OBJECTID":289177},"geometry":{"x":166360.45000000019,"y":2536276.3200000022}},{"attributes":{"ID":289184,"DIS_CODE":0,"TOWNNAME":"永康區","LI":"\u25A0行里","LIN":"48鄰","STREET":"新民街","SECT":" ","MAREA":" ","LANE":" ","ALLEY":" ","HOUSE_NO":"３０號","E_COORD97":172427.32000000001,"N_COORD97":2548954.8799999999,"ADDRESS":"新民街３０號","OBJECTID":289178},"geometry":{"x":172427.32000000216,"y":2548954.8800000008}},{"attributes":{"ID":289185,"DIS_CODE":0,"TOWNNAME":"永康區","LI":"\u25A0行里","LIN":"48鄰","STREET":"新民街","SECT":" ","MAREA":" ","LANE":" ","ALLEY":" ","HOUSE_NO":"３２號","E_COORD97":172423.20000000001,"N_COORD97":2548955.6899999999,"ADDRESS":"新民街３２號","OBJECTID":289179},"geometry":{"x":172423.20000000112,"y":2548955.6900000013}},{"attributes":{"ID":289186,"DIS_CODE":0,"TOWNNAME":"南區","LI":"興農里","LIN":"10鄰","STREET":"灣裡路","SECT":" ","MAREA":" ","LANE":"３５１巷","ALLEY":" ","HOUSE_NO":"４３號","E_COORD97":166373.03,"N_COORD97":2536289.9100000001,"ADDRESS":"灣裡路３５１巷４３號","OBJECTID":289180},"geometry":{"x":166373.03000000119,"y":2536289.9100000001}},{"attributes":{"ID":289187,"DIS_CODE":0,"TOWNNAME":"中西區","LI":"五妃里","LIN":"6鄰","STREET":"南門路","SECT":" ","MAREA":" ","LANE":"２２７巷","ALLEY":" ","HOUSE_NO":"１２號","E_COORD97":168504.60999999999,"N_COORD97":2542708.4300000002,"ADDRESS":"南門路２２７巷１２號","OBJECTID":289181},"geometry":{"x":168504.6100000022,"y":2542708.4299999997}},{"attributes":{"ID":289188,"DIS_CODE":0,"TOWNNAME":"中西區","LI":"五妃里","LIN":"6鄰","STREET":"南門路","SECT":" ","MAREA":" ","LANE":"２２７巷","ALLEY":" ","HOUSE_NO":"１２號之１","E_COORD97":168511.25,"N_COORD97":2542707.7799999998,"ADDRESS":"南門路２２７巷１２號之１","OBJECTID":289182},"geometry":{"x":168511.25,"y":2542707.7800000012}},{"attributes":{"ID":289189,"DIS_CODE":0,"TOWNNAME":"中西區","LI":"五妃里","LIN":"6鄰","STREET":"南門路","SECT":" ","MAREA":" ","LANE":"２２７巷","ALLEY":" ","HOUSE_NO":"１４號","E_COORD97":168516.60000000001,"N_COORD97":2542707,"ADDRESS":"南門路２２７巷１４號","OBJECTID":289183},"geometry":{"x":168516.59999999963,"y":2542707.0000000019}},{"attributes":{"ID":289190,"DIS_CODE":0,"TOWNNAME":"中西區","LI":"五妃里","LIN":"6鄰","STREET":"南門路","SECT":" ","MAREA":" ","LANE":"２２７巷","ALLEY":" ","HOUSE_NO":"１５號","E_COORD97":168494.25,"N_COORD97":2542723.1499999999,"ADDRESS":"南門路２２７巷１５號","OBJECTID":289184},"geometry":{"x":168494.25,"y":2542723.1500000022}},{"attributes":{"ID":289191,"DIS_CODE":0,"TOWNNAME":"中西區","LI":"五妃里","LIN":"6鄰","STREET":"南門路","SECT":" ","MAREA":" ","LANE":"２２７巷","ALLEY":" ","HOUSE_NO":"１６號","E_COORD97":168521.57999999999,"N_COORD97":2542705.21,"ADDRESS":"南門路２２７巷１６號","OBJECTID":289185},"geometry":{"x":168521.58000000101,"y":2542705.2100000028}},{"attributes":{"ID":289192,"DIS_CODE":0,"TOWNNAME":"中西區","LI":"五妃里","LIN":"6鄰","STREET":"南門路","SECT":" ","MAREA":" ","LANE":"２２７巷","ALLEY":" ","HOUSE_NO":"１７號","E_COORD97":168510.34,"N_COORD97":2542719.96,"ADDRESS":"南門路２２７巷１７號","OBJECTID":289186},"geometry":{"x":168510.33999999985,"y":2542719.959999999}},{"attributes":{"ID":289193,"DIS_CODE":0,"TOWNNAME":"永康區","LI":"西灣里","LIN":"10鄰","STREET":"大灣五街","SECT":" ","MAREA":" ","LANE":"１４１巷","ALLEY":" ","HOUSE_NO":"７號","E_COORD97":174479.75,"N_COORD97":2545289.2400000002,"ADDRESS":"大灣五街１４１巷７號","OBJECTID":289187},"geometry":{"x":174479.75,"y":2545289.2400000002}},{"attributes":{"ID":289194,"DIS_CODE":0,"TOWNNAME":"永康區","LI":"尚頂里","LIN":"10鄰","STREET":"正南一街","SECT":" ","MAREA":" ","LANE":"１０７巷","ALLEY":" ","HOUSE_NO":"４３號","E_COORD97":170806.72,"N_COORD97":2547116.1699999999,"ADDRESS":"正南一街１０７巷４３號","OBJECTID":289188},"geometry":{"x":170806.71999999974,"y":2547116.1700000018}},{"attributes":{"ID":289195,"DIS_CODE":0,"TOWNNAME":"永康區","LI":"西勢里","LIN":"10鄰","STREET":"西勢路","SECT":" ","MAREA":" ","LANE":"１４３巷","ALLEY":" ","HOUSE_NO":"１８號","E_COORD97":175949.10000000001,"N_COORD97":2546714.6800000002,"ADDRESS":"西勢路１４３巷１８號","OBJECTID":289189},"geometry":{"x":175949.10000000149,"y":2546714.6800000034}},{"attributes":{"ID":289196,"DIS_CODE":0,"TOWNNAME":"永康區","LI":"西勢里","LIN":"10鄰","STREET":"西勢路","SECT":" ","MAREA":" ","LANE":"１４３巷","ALLEY":" ","HOUSE_NO":"１４號","E_COORD97":175958.42999999999,"N_COORD97":2546714.6800000002,"ADDRESS":"西勢路１４３巷１４號","OBJECTID":289190},"geometry":{"x":175958.4299999997,"y":2546714.6800000034}},{"attributes":{"ID":289197,"DIS_CODE":0,"TOWNNAME":"東區","LI":"富強里","LIN":"10鄰","STREET":"中華東路","SECT":"二段","MAREA":" ","LANE":"２２６巷","ALLEY":" ","HOUSE_NO":"５６號","E_COORD97":171107.79999999999,"N_COORD97":2542693.9300000002,"ADDRESS":"中華東路二段２２６巷５６號","OBJECTID":289191},"geometry":{"x":171107.79999999981,"y":2542693.9299999997}},{"attributes":{"ID":289198,"DIS_CODE":0,"TOWNNAME":"東區","LI":"龍山里","LIN":"5鄰","STREET":"崇仁街","SECT":" ","MAREA":" ","LANE":"６６巷","ALLEY":" ","HOUSE_NO":"７號","E_COORD97":170322.06,"N_COORD97":2542709.3700000001,"ADDRESS":"崇仁街６６巷７號","OBJECTID":289192},"geometry":{"x":170322.06000000052,"y":2542709.370000001}},{"attributes":{"ID":289199,"DIS_CODE":0,"TOWNNAME":"新市區","LI":"新和里","LIN":"48鄰","STREET":"和平街","SECT":" ","MAREA":" ","LANE":" ","ALLEY":" ","HOUSE_NO":"６６號","E_COORD97":177618.64999999999,"N_COORD97":2553446,"ADDRESS":"和平街６６號","OBJECTID":289193},"geometry":{"x":177618.65000000037,"y":2553446.0000000037}},{"attributes":{"ID":289200,"DIS_CODE":0,"TOWNNAME":"中西區","LI":"三合里","LIN":"16鄰","STREET":"成功路","SECT":" ","MAREA":" ","LANE":" ","ALLEY":" ","HOUSE_NO":"４９５號","E_COORD97":167490.67000000001,"N_COORD97":2544690.3100000001,"ADDRESS":"成功路４９５號","OBJECTID":289194},"geometry":{"x":167490.67000000086,"y":2544690.3100000005}},{"attributes":{"ID":289201,"DIS_CODE":0,"TOWNNAME":"南區","LI":"喜東里","LIN":"10鄰","STREET":"明興路","SECT":" ","MAREA":" ","LANE":"６１９巷","ALLEY":" ","HOUSE_NO":"２之７７號","E_COORD97":166349.60999999999,"N_COORD97":2537826.02,"ADDRESS":"明興路６１９巷２之７７號","OBJECTID":289195},"geometry":{"x":166349.61000000034,"y":2537826.0200000033}},{"attributes":{"ID":289202,"DIS_CODE":0,"TOWNNAME":"南區","LI":"喜東里","LIN":"10鄰","STREET":"明興路","SECT":" ","MAREA":" ","LANE":"６１９巷","ALLEY":" ","HOUSE_NO":"４００號","E_COORD97":166933.53,"N_COORD97":2537910.5,"ADDRESS":"明興路６１９巷４００號","OBJECTID":289196},"geometry":{"x":166933.53000000212,"y":2537910.5}},{"attributes":{"ID":289203,"DIS_CODE":0,"TOWNNAME":"南區","LI":"喜東里","LIN":"10鄰","STREET":"明興路","SECT":" ","MAREA":" ","LANE":"６１９巷","ALLEY":" ","HOUSE_NO":"９號","E_COORD97":166151.37,"N_COORD97":2537980.77,"ADDRESS":"明興路６１９巷９號","OBJECTID":289197},"geometry":{"x":166151.37000000197,"y":2537980.7700000014}},{"attributes":{"ID":289204,"DIS_CODE":0,"TOWNNAME":"安南區","LI":"南興里","LIN":"10鄰","STREET":"安興街","SECT":" ","MAREA":" ","LANE":"６４６巷","ALLEY":" ","HOUSE_NO":"６７號","E_COORD97":163704.10999999999,"N_COORD97":2552528.0499999998,"ADDRESS":"安興街６４６巷６７號","OBJECTID":289198},"geometry":{"x":163704.11000000127,"y":2552528.0500000026}},{"attributes":{"ID":289205,"DIS_CODE":0,"TOWNNAME":"中西區","LI":"三合里","LIN":"16鄰","STREET":"成功路","SECT":" ","MAREA":" ","LANE":" ","ALLEY":" ","HOUSE_NO":"４９７號","E_COORD97":167491.16,"N_COORD97":2544693.5699999998,"ADDRESS":"成功路４９７號","OBJECTID":289199},"geometry":{"x":167491.16000000015,"y":2544693.5700000022}},{"attributes":{"ID":289206,"DIS_CODE":0,"TOWNNAME":"佳里區","LI":"安西里","LIN":"48鄰","STREET":" ","SECT":" ","MAREA":"安西","LANE":" ","ALLEY":" ","HOUSE_NO":"１２０號","E_COORD97":164937.45000000001,"N_COORD97":2562113.5,"ADDRESS":"安西１２０號","OBJECTID":289200},"geometry":{"x":164937.45000000112,"y":2562113.5000000019}}]}