{"displayFieldName":"TOWNNAME","fieldAliases":{"ID":"ID","DIS_CODE":"DIS_CODE","TOWNNAME":"TOWNNAME","LI":"LI","LIN":"LIN","STREET":"STREET","SECT":"SECT","MAREA":"MAREA","LANE":"LANE","ALLEY":"ALLEY","HOUSE_NO":"HOUSE_NO","E_COORD97":"E_COORD97","N_COORD97":"N_COORD97","ADDRESS":"ADDRESS","OBJECTID":"OBJECTID"},"geometryType":"esriGeometryPoint","spatialReference":{"wkid":102443,"latestWkid":3826},"fields":[{"name":"ID","type":"esriFieldTypeDouble","alias":"ID"},{"name":"DIS_CODE","type":"esriFieldTypeInteger","alias":"DIS_CODE"},{"name":"TOWNNAME","type":"esriFieldTypeString","alias":"TOWNNAME","length":8},{"name":"LI","type":"esriFieldTypeString","alias":"LI","length":8},{"name":"LIN","type":"esriFieldTypeString","alias":"LIN","length":12},{"name":"STREET","type":"esriFieldTypeString","alias":"STREET","length":20},{"name":"SECT","type":"esriFieldTypeString","alias":"SECT","length":8},{"name":"MAREA","type":"esriFieldTypeString","alias":"MAREA","length":12},{"name":"LANE","type":"esriFieldTypeString","alias":"LANE","length":10},{"name":"ALLEY","type":"esriFieldTypeString","alias":"ALLEY","length":10},{"name":"HOUSE_NO","type":"esriFieldTypeString","alias":"HOUSE_NO","length":20},{"name":"E_COORD97","type":"esriFieldTypeDouble","alias":"E_COORD97"},{"name":"N_COORD97","type":"esriFieldTypeDouble","alias":"N_COORD97"},{"name":"ADDRESS","type":"esriFieldTypeString","alias":"ADDRESS","length":50},{"name":"OBJECTID","type":"esriFieldTypeOID","alias":"OBJECTID"}],"features":[{"attributes":{"ID":97601,"DIS_CODE":0,"TOWNNAME":"北區","LI":"正覺里","LIN":"21鄰","STREET":"正覺街","SECT":" ","MAREA":" ","LANE":"１０２巷","ALLEY":"４０弄","HOUSE_NO":"２８號","E_COORD97":169414.41613600001,"N_COORD97":2546468.8850699998,"ADDRESS":"正覺街１０２巷４０弄２８號","OBJECTID":97601},"geometry":{"x":169414.41613599937,"y":2546468.8850730006}},{"attributes":{"ID":97602,"DIS_CODE":0,"TOWNNAME":"北區","LI":"正覺里","LIN":"21鄰","STREET":"正覺街","SECT":" ","MAREA":" ","LANE":"１０２巷","ALLEY":"４０弄","HOUSE_NO":"２號","E_COORD97":169466.39999999999,"N_COORD97":2546453.8900000001,"ADDRESS":"正覺街１０２巷４０弄２號","OBJECTID":97602},"geometry":{"x":169466.40000000037,"y":2546453.8900000025}},{"attributes":{"ID":97603,"DIS_CODE":0,"TOWNNAME":"北區","LI":"正覺里","LIN":"21鄰","STREET":"正覺街","SECT":" ","MAREA":" ","LANE":"１０２巷","ALLEY":"４０弄","HOUSE_NO":"３６號","E_COORD97":169405.12,"N_COORD97":2546460.5299999998,"ADDRESS":"正覺街１０２巷４０弄３６號","OBJECTID":97603},"geometry":{"x":169405.12000000104,"y":2546460.5299999993}},{"attributes":{"ID":97604,"DIS_CODE":0,"TOWNNAME":"新營區","LI":"姑爺里","LIN":"8鄰","STREET":" ","SECT":" ","MAREA":"挖仔","LANE":" ","ALLEY":" ","HOUSE_NO":"１２號","E_COORD97":173786.56,"N_COORD97":2575509.1200000001,"ADDRESS":"挖仔１２號","OBJECTID":97604},"geometry":{"x":173786.56000000052,"y":2575509.1200000029}},{"attributes":{"ID":97605,"DIS_CODE":0,"TOWNNAME":"北區","LI":"正覺里","LIN":"21鄰","STREET":"正覺街","SECT":" ","MAREA":" ","LANE":"１０２巷","ALLEY":"４０弄","HOUSE_NO":"３８號","E_COORD97":169409.54999999999,"N_COORD97":2546459.3199999998,"ADDRESS":"正覺街１０２巷４０弄３８號","OBJECTID":97605},"geometry":{"x":169409.55000000168,"y":2546459.3200000003}},{"attributes":{"ID":97606,"DIS_CODE":0,"TOWNNAME":"後壁區","LI":"頂安里","LIN":"10鄰","STREET":" ","SECT":" ","MAREA":"頂寮","LANE":" ","ALLEY":" ","HOUSE_NO":"１０６號之４６","E_COORD97":183511.04999999999,"N_COORD97":2581100.3999999999,"ADDRESS":"頂寮１０６號之４６","OBJECTID":97606},"geometry":{"x":183511.04999999981,"y":2581100.4000000022}},{"attributes":{"ID":97607,"DIS_CODE":0,"TOWNNAME":"後壁區","LI":"頂安里","LIN":"10鄰","STREET":" ","SECT":" ","MAREA":"頂寮","LANE":" ","ALLEY":" ","HOUSE_NO":"１０６號之４７","E_COORD97":183521.91,"N_COORD97":2581099.7999999998,"ADDRESS":"頂寮１０６號之４７","OBJECTID":97607},"geometry":{"x":183521.91000000108,"y":2581099.8000000007}},{"attributes":{"ID":97608,"DIS_CODE":0,"TOWNNAME":"後壁區","LI":"頂安里","LIN":"10鄰","STREET":" ","SECT":" ","MAREA":"頂寮","LANE":" ","ALLEY":" ","HOUSE_NO":"１０６號之４８","E_COORD97":183530.64999999999,"N_COORD97":2581099.0899999999,"ADDRESS":"頂寮１０６號之４８","OBJECTID":97608},"geometry":{"x":183530.6500000013,"y":2581099.0899999999}},{"attributes":{"ID":97609,"DIS_CODE":0,"TOWNNAME":"北區","LI":"正覺里","LIN":"21鄰","STREET":"正覺街","SECT":" ","MAREA":" ","LANE":"１０２巷","ALLEY":"４０弄","HOUSE_NO":"４０號","E_COORD97":169413.25,"N_COORD97":2546457.6299999999,"ADDRESS":"正覺街１０２巷４０弄４０號","OBJECTID":97609},"geometry":{"x":169413.25,"y":2546457.6300000008}},{"attributes":{"ID":97610,"DIS_CODE":0,"TOWNNAME":"後壁區","LI":"頂安里","LIN":"10鄰","STREET":" ","SECT":" ","MAREA":"頂寮","LANE":" ","ALLEY":" ","HOUSE_NO":"１０６號之４９","E_COORD97":183539.39000000001,"N_COORD97":2581098.3700000001,"ADDRESS":"頂寮１０６號之４９","OBJECTID":97610},"geometry":{"x":183539.38999999966,"y":2581098.370000001}},{"attributes":{"ID":97611,"DIS_CODE":0,"TOWNNAME":"後壁區","LI":"頂安里","LIN":"10鄰","STREET":" ","SECT":" ","MAREA":"頂寮","LANE":" ","ALLEY":" ","HOUSE_NO":"１０６號之５０","E_COORD97":183548.13,"N_COORD97":2581097.6600000001,"ADDRESS":"頂寮１０６號之５０","OBJECTID":97611},"geometry":{"x":183548.12999999989,"y":2581097.660000002}},{"attributes":{"ID":97612,"DIS_CODE":0,"TOWNNAME":"後壁區","LI":"頂安里","LIN":"10鄰","STREET":" ","SECT":" ","MAREA":"頂寮","LANE":" ","ALLEY":" ","HOUSE_NO":"１０６號之５１","E_COORD97":183556.87,"N_COORD97":2581096.9399999999,"ADDRESS":"頂寮１０６號之５１","OBJECTID":97612},"geometry":{"x":183556.87000000011,"y":2581096.9399999995}},{"attributes":{"ID":97613,"DIS_CODE":0,"TOWNNAME":"後壁區","LI":"頂安里","LIN":"10鄰","STREET":" ","SECT":" ","MAREA":"頂寮","LANE":" ","ALLEY":" ","HOUSE_NO":"１０６號之５２","E_COORD97":183565.60999999999,"N_COORD97":2581096.23,"ADDRESS":"頂寮１０６號之５２","OBJECTID":97613},"geometry":{"x":183565.61000000034,"y":2581096.2300000004}},{"attributes":{"ID":97614,"DIS_CODE":0,"TOWNNAME":"永康區","LI":"埔園里","LIN":"15鄰","STREET":"龍埔街","SECT":" ","MAREA":" ","LANE":"５３６巷","ALLEY":" ","HOUSE_NO":"７號","E_COORD97":173541.67000000001,"N_COORD97":2548416.75,"ADDRESS":"龍埔街５３６巷７號","OBJECTID":97614},"geometry":{"x":173541.66999999899,"y":2548416.7500000037}},{"attributes":{"ID":97615,"DIS_CODE":0,"TOWNNAME":"後壁區","LI":"頂安里","LIN":"10鄰","STREET":" ","SECT":" ","MAREA":"頂寮","LANE":" ","ALLEY":" ","HOUSE_NO":"１０６號之５３","E_COORD97":183574.34,"N_COORD97":2581095.5099999998,"ADDRESS":"頂寮１０６號之５３","OBJECTID":97615},"geometry":{"x":183574.34000000171,"y":2581095.5100000016}},{"attributes":{"ID":97616,"DIS_CODE":0,"TOWNNAME":"後壁區","LI":"頂安里","LIN":"10鄰","STREET":" ","SECT":" ","MAREA":"頂寮","LANE":" ","ALLEY":" ","HOUSE_NO":"１０６號之５５","E_COORD97":183577.29999999999,"N_COORD97":2581117.3399999999,"ADDRESS":"頂寮１０６號之５５","OBJECTID":97616},"geometry":{"x":183577.29999999981,"y":2581117.3400000017}},{"attributes":{"ID":97617,"DIS_CODE":0,"TOWNNAME":"後壁區","LI":"頂安里","LIN":"10鄰","STREET":" ","SECT":" ","MAREA":"頂寮","LANE":" ","ALLEY":" ","HOUSE_NO":"１０６號之５６","E_COORD97":183566.31,"N_COORD97":2581118.1200000001,"ADDRESS":"頂寮１０６號之５６","OBJECTID":97617},"geometry":{"x":183566.31000000052,"y":2581118.120000001}},{"attributes":{"ID":97618,"DIS_CODE":0,"TOWNNAME":"後壁區","LI":"頂安里","LIN":"10鄰","STREET":" ","SECT":" ","MAREA":"頂寮","LANE":" ","ALLEY":" ","HOUSE_NO":"１０６號之５７","E_COORD97":183557.48999999999,"N_COORD97":2581118.8199999998,"ADDRESS":"頂寮１０６號之５７","OBJECTID":97618},"geometry":{"x":183557.49000000115,"y":2581118.8200000003}},{"attributes":{"ID":97619,"DIS_CODE":0,"TOWNNAME":"後壁區","LI":"頂安里","LIN":"10鄰","STREET":" ","SECT":" ","MAREA":"頂寮","LANE":" ","ALLEY":" ","HOUSE_NO":"１０６號之５８","E_COORD97":183548.66,"N_COORD97":2581119.5099999998,"ADDRESS":"頂寮１０６號之５８","OBJECTID":97619},"geometry":{"x":183548.65999999922,"y":2581119.5100000016}},{"attributes":{"ID":97620,"DIS_CODE":0,"TOWNNAME":"永康區","LI":"埔園里","LIN":"15鄰","STREET":"龍埔街","SECT":" ","MAREA":" ","LANE":"５３６巷","ALLEY":" ","HOUSE_NO":"１２號","E_COORD97":173561.14999999999,"N_COORD97":2548422.25,"ADDRESS":"龍埔街５３６巷１２號","OBJECTID":97620},"geometry":{"x":173561.1500000013,"y":2548422.25}},{"attributes":{"ID":97621,"DIS_CODE":0,"TOWNNAME":"後壁區","LI":"頂安里","LIN":"10鄰","STREET":" ","SECT":" ","MAREA":"頂寮","LANE":" ","ALLEY":" ","HOUSE_NO":"１０６號之５９","E_COORD97":183539.82999999999,"N_COORD97":2581120.2000000002,"ADDRESS":"頂寮１０６號之５９","OBJECTID":97621},"geometry":{"x":183539.83000000101,"y":2581120.2000000011}},{"attributes":{"ID":97622,"DIS_CODE":0,"TOWNNAME":"後壁區","LI":"頂安里","LIN":"10鄰","STREET":" ","SECT":" ","MAREA":"頂寮","LANE":" ","ALLEY":" ","HOUSE_NO":"１０６號之６０","E_COORD97":183531,"N_COORD97":2581120.8900000001,"ADDRESS":"頂寮１０６號之６０","OBJECTID":97622},"geometry":{"x":183531.00000000186,"y":2581120.8900000025}},{"attributes":{"ID":97623,"DIS_CODE":0,"TOWNNAME":"後壁區","LI":"頂安里","LIN":"10鄰","STREET":" ","SECT":" ","MAREA":"頂寮","LANE":" ","ALLEY":" ","HOUSE_NO":"１０６號之６１","E_COORD97":183522.17000000001,"N_COORD97":2581121.5800000001,"ADDRESS":"頂寮１０６號之６１","OBJECTID":97623},"geometry":{"x":183522.17000000086,"y":2581121.5800000038}},{"attributes":{"ID":97624,"DIS_CODE":0,"TOWNNAME":"新營區","LI":"新北里","LIN":"4鄰","STREET":"三興街","SECT":" ","MAREA":" ","LANE":" ","ALLEY":" ","HOUSE_NO":"８９號之１１","E_COORD97":179389.04000000001,"N_COORD97":2579100.6099999999,"ADDRESS":"三興街８９號之１１","OBJECTID":97624},"geometry":{"x":179389.04000000004,"y":2579100.6100000013}},{"attributes":{"ID":97625,"DIS_CODE":0,"TOWNNAME":"新營區","LI":"三仙里","LIN":"25鄰","STREET":"育德一街","SECT":" ","MAREA":" ","LANE":" ","ALLEY":" ","HOUSE_NO":"２０號","E_COORD97":179556.70000000001,"N_COORD97":2578938.0699999998,"ADDRESS":"育德一街２０號","OBJECTID":97625},"geometry":{"x":179556.70000000112,"y":2578938.0699999984}},{"attributes":{"ID":97626,"DIS_CODE":0,"TOWNNAME":"新營區","LI":"大宏里","LIN":"25鄰","STREET":"綠川北街","SECT":" ","MAREA":" ","LANE":" ","ALLEY":" ","HOUSE_NO":"７０號","E_COORD97":180499.67999999999,"N_COORD97":2578713.2200000002,"ADDRESS":"綠川北街７０號","OBJECTID":97626},"geometry":{"x":180499.6799999997,"y":2578713.2200000007}},{"attributes":{"ID":97627,"DIS_CODE":0,"TOWNNAME":"新營區","LI":"民權里","LIN":"17鄰","STREET":"文化街","SECT":" ","MAREA":" ","LANE":" ","ALLEY":" ","HOUSE_NO":"５號","E_COORD97":179829.12,"N_COORD97":2577989.8900000001,"ADDRESS":"文化街５號","OBJECTID":97627},"geometry":{"x":179829.12000000011,"y":2577989.8900000006}},{"attributes":{"ID":97628,"DIS_CODE":0,"TOWNNAME":"永康區","LI":"中華里","LIN":"15鄰","STREET":"華興街","SECT":" ","MAREA":" ","LANE":" ","ALLEY":" ","HOUSE_NO":"９７號底一層之８","E_COORD97":171791.73999999999,"N_COORD97":2544563.1299999999,"ADDRESS":"華興街９７號底一層之８","OBJECTID":97628},"geometry":{"x":171791.74000000022,"y":2544563.129999999}},{"attributes":{"ID":97629,"DIS_CODE":0,"TOWNNAME":"後壁區","LI":"頂安里","LIN":"10鄰","STREET":" ","SECT":" ","MAREA":"頂寮","LANE":" ","ALLEY":" ","HOUSE_NO":"１０６號之６２","E_COORD97":183513.34,"N_COORD97":2581122.27,"ADDRESS":"頂寮１０６號之６２","OBJECTID":97629},"geometry":{"x":183513.34000000171,"y":2581122.2699999996}},{"attributes":{"ID":97630,"DIS_CODE":0,"TOWNNAME":"後壁區","LI":"頂安里","LIN":"10鄰","STREET":" ","SECT":" ","MAREA":"頂寮","LANE":" ","ALLEY":" ","HOUSE_NO":"１０６號之６３","E_COORD97":183504.51000000001,"N_COORD97":2581122.96,"ADDRESS":"頂寮１０６號之６３","OBJECTID":97630},"geometry":{"x":183504.50999999978,"y":2581122.9600000046}},{"attributes":{"ID":97631,"DIS_CODE":0,"TOWNNAME":"後壁區","LI":"頂安里","LIN":"10鄰","STREET":" ","SECT":" ","MAREA":"頂寮","LANE":" ","ALLEY":" ","HOUSE_NO":"１０６號之６５","E_COORD97":183495.69,"N_COORD97":2581123.6499999999,"ADDRESS":"頂寮１０６號之６５","OBJECTID":97631},"geometry":{"x":183495.69000000041,"y":2581123.6500000004}},{"attributes":{"ID":97632,"DIS_CODE":0,"TOWNNAME":"後壁區","LI":"頂安里","LIN":"10鄰","STREET":" ","SECT":" ","MAREA":"頂寮","LANE":" ","ALLEY":" ","HOUSE_NO":"１０６號之６６","E_COORD97":183486.85999999999,"N_COORD97":2581124.3399999999,"ADDRESS":"頂寮１０６號之６６","OBJECTID":97632},"geometry":{"x":183486.86000000127,"y":2581124.3400000017}},{"attributes":{"ID":97633,"DIS_CODE":0,"TOWNNAME":"後壁區","LI":"頂安里","LIN":"10鄰","STREET":" ","SECT":" ","MAREA":"頂寮","LANE":" ","ALLEY":" ","HOUSE_NO":"１０６號之６７","E_COORD97":183478.03,"N_COORD97":2581125.04,"ADDRESS":"頂寮１０６號之６７","OBJECTID":97633},"geometry":{"x":183478.03000000026,"y":2581125.040000001}},{"attributes":{"ID":97634,"DIS_CODE":0,"TOWNNAME":"後壁區","LI":"頂安里","LIN":"10鄰","STREET":" ","SECT":" ","MAREA":"頂寮","LANE":" ","ALLEY":" ","HOUSE_NO":"１０６號之６８","E_COORD97":183469.20000000001,"N_COORD97":2581125.73,"ADDRESS":"頂寮１０６號之６８","OBJECTID":97634},"geometry":{"x":183469.20000000112,"y":2581125.7300000023}},{"attributes":{"ID":97635,"DIS_CODE":0,"TOWNNAME":"後壁區","LI":"頂安里","LIN":"10鄰","STREET":" ","SECT":" ","MAREA":"頂寮","LANE":" ","ALLEY":" ","HOUSE_NO":"１０６號之６","E_COORD97":183577.48999999999,"N_COORD97":2581042.6499999999,"ADDRESS":"頂寮１０６號之６","OBJECTID":97635},"geometry":{"x":183577.49000000115,"y":2581042.6500000004}},{"attributes":{"ID":97636,"DIS_CODE":0,"TOWNNAME":"後壁區","LI":"頂安里","LIN":"10鄰","STREET":" ","SECT":" ","MAREA":"頂寮","LANE":" ","ALLEY":" ","HOUSE_NO":"１０６號之７","E_COORD97":183563.85000000001,"N_COORD97":2581043.75,"ADDRESS":"頂寮１０６號之７","OBJECTID":97636},"geometry":{"x":183563.85000000149,"y":2581043.7500000019}},{"attributes":{"ID":97637,"DIS_CODE":0,"TOWNNAME":"後壁區","LI":"頂安里","LIN":"10鄰","STREET":" ","SECT":" ","MAREA":"頂寮","LANE":" ","ALLEY":" ","HOUSE_NO":"１０６號之８","E_COORD97":183550.22,"N_COORD97":2581044.8599999999,"ADDRESS":"頂寮１０６號之８","OBJECTID":97637},"geometry":{"x":183550.22000000067,"y":2581044.8600000013}},{"attributes":{"ID":97638,"DIS_CODE":0,"TOWNNAME":"後壁區","LI":"頂安里","LIN":"10鄰","STREET":" ","SECT":" ","MAREA":"頂寮","LANE":" ","ALLEY":" ","HOUSE_NO":"１０６號之９","E_COORD97":183536.57999999999,"N_COORD97":2581045.96,"ADDRESS":"頂寮１０６號之９","OBJECTID":97638},"geometry":{"x":183536.58000000007,"y":2581045.9600000028}},{"attributes":{"ID":97639,"DIS_CODE":0,"TOWNNAME":"後壁區","LI":"頂安里","LIN":"10鄰","STREET":" ","SECT":" ","MAREA":"頂寮","LANE":" ","ALLEY":" ","HOUSE_NO":"１０６號","E_COORD97":183659.64000000001,"N_COORD97":2581134.25,"ADDRESS":"頂寮１０６號","OBJECTID":97639},"geometry":{"x":183659.63999999966,"y":2581134.2500000019}},{"attributes":{"ID":97640,"DIS_CODE":0,"TOWNNAME":"北區","LI":"正覺里","LIN":"21鄰","STREET":"正覺街","SECT":" ","MAREA":" ","LANE":"１０２巷","ALLEY":"４０弄","HOUSE_NO":"４２號","E_COORD97":169417.67999999999,"N_COORD97":2546456.1800000002,"ADDRESS":"正覺街１０２巷４０弄４２號","OBJECTID":97640},"geometry":{"x":169417.68000000063,"y":2546456.1799999997}},{"attributes":{"ID":97641,"DIS_CODE":0,"TOWNNAME":"北區","LI":"正覺里","LIN":"21鄰","STREET":"正覺街","SECT":" ","MAREA":" ","LANE":"１０２巷","ALLEY":"４０弄","HOUSE_NO":"４６號","E_COORD97":169425.97,"N_COORD97":2546453.6899999999,"ADDRESS":"正覺街１０２巷４０弄４６號","OBJECTID":97641},"geometry":{"x":169425.97000000067,"y":2546453.6900000013}},{"attributes":{"ID":97642,"DIS_CODE":0,"TOWNNAME":"後壁區","LI":"頂安里","LIN":"10鄰","STREET":" ","SECT":" ","MAREA":"頂寮","LANE":" ","ALLEY":" ","HOUSE_NO":"１０７號之３０","E_COORD97":183221.75,"N_COORD97":2581013.9300000002,"ADDRESS":"頂寮１０７號之３０","OBJECTID":97642},"geometry":{"x":183221.75,"y":2581013.9300000016}},{"attributes":{"ID":97643,"DIS_CODE":0,"TOWNNAME":"北區","LI":"正覺里","LIN":"21鄰","STREET":"正覺街","SECT":" ","MAREA":" ","LANE":"１０２巷","ALLEY":"４０弄","HOUSE_NO":"４８號","E_COORD97":169430.48000000001,"N_COORD97":2546452.3199999998,"ADDRESS":"正覺街１０２巷４０弄４８號","OBJECTID":97643},"geometry":{"x":169430.48000000045,"y":2546452.3200000003}},{"attributes":{"ID":97644,"DIS_CODE":0,"TOWNNAME":"北區","LI":"正覺里","LIN":"21鄰","STREET":"正覺街","SECT":" ","MAREA":" ","LANE":"１０２巷","ALLEY":"４０弄","HOUSE_NO":"４號","E_COORD97":169462.37,"N_COORD97":2546455.0099999998,"ADDRESS":"正覺街１０２巷４０弄４號","OBJECTID":97644},"geometry":{"x":169462.37000000104,"y":2546455.0100000035}},{"attributes":{"ID":97645,"DIS_CODE":0,"TOWNNAME":"北區","LI":"正覺里","LIN":"21鄰","STREET":"正覺街","SECT":" ","MAREA":" ","LANE":"１０２巷","ALLEY":"４０弄","HOUSE_NO":"５０號","E_COORD97":169434.82000000001,"N_COORD97":2546451.04,"ADDRESS":"正覺街１０２巷４０弄５０號","OBJECTID":97645},"geometry":{"x":169434.8200000003,"y":2546451.040000001}},{"attributes":{"ID":97646,"DIS_CODE":0,"TOWNNAME":"後壁區","LI":"頂安里","LIN":"10鄰","STREET":" ","SECT":" ","MAREA":"頂寮","LANE":" ","ALLEY":" ","HOUSE_NO":"１０７號之５","E_COORD97":183581.23000000001,"N_COORD97":2581218.9399999999,"ADDRESS":"頂寮１０７號之５","OBJECTID":97646},"geometry":{"x":183581.23000000138,"y":2581218.9399999995}},{"attributes":{"ID":97647,"DIS_CODE":0,"TOWNNAME":"後壁區","LI":"頂安里","LIN":"10鄰","STREET":" ","SECT":" ","MAREA":"頂寮","LANE":" ","ALLEY":" ","HOUSE_NO":"１０７號","E_COORD97":183678.12,"N_COORD97":2581177.2400000002,"ADDRESS":"頂寮１０７號","OBJECTID":97647},"geometry":{"x":183678.12000000104,"y":2581177.2400000002}},{"attributes":{"ID":97648,"DIS_CODE":0,"TOWNNAME":"後壁區","LI":"頂安里","LIN":"10鄰","STREET":" ","SECT":" ","MAREA":"頂寮","LANE":" ","ALLEY":" ","HOUSE_NO":"１１０號","E_COORD97":183030.09,"N_COORD97":2580936.4900000002,"ADDRESS":"頂寮１１０號","OBJECTID":97648},"geometry":{"x":183030.08999999892,"y":2580936.4900000021}},{"attributes":{"ID":97649,"DIS_CODE":0,"TOWNNAME":"後壁區","LI":"頂安里","LIN":"10鄰","STREET":" ","SECT":" ","MAREA":"頂寮","LANE":" ","ALLEY":" ","HOUSE_NO":"１１２號之６","E_COORD97":182959.35999999999,"N_COORD97":2581025.4500000002,"ADDRESS":"頂寮１１２號之６","OBJECTID":97649},"geometry":{"x":182959.3600000022,"y":2581025.4499999993}},{"attributes":{"ID":97650,"DIS_CODE":0,"TOWNNAME":"後壁區","LI":"頂安里","LIN":"10鄰","STREET":" ","SECT":" ","MAREA":"頂寮","LANE":" ","ALLEY":" ","HOUSE_NO":"１１５號之１","E_COORD97":182801.48000000001,"N_COORD97":2580956.79,"ADDRESS":"頂寮１１５號之１","OBJECTID":97650},"geometry":{"x":182801.48000000138,"y":2580956.790000001}},{"attributes":{"ID":97651,"DIS_CODE":0,"TOWNNAME":"後壁區","LI":"頂安里","LIN":"10鄰","STREET":" ","SECT":" ","MAREA":"頂寮","LANE":" ","ALLEY":" ","HOUSE_NO":"１１８號","E_COORD97":183216.20000000001,"N_COORD97":2581108.4900000002,"ADDRESS":"頂寮１１８號","OBJECTID":97651},"geometry":{"x":183216.20000000205,"y":2581108.4900000039}},{"attributes":{"ID":97652,"DIS_CODE":0,"TOWNNAME":"後壁區","LI":"頂安里","LIN":"10鄰","STREET":" ","SECT":" ","MAREA":"頂寮","LANE":" ","ALLEY":" ","HOUSE_NO":"１２０號","E_COORD97":183009.37,"N_COORD97":2581238.0899999999,"ADDRESS":"頂寮１２０號","OBJECTID":97652},"geometry":{"x":183009.37000000011,"y":2581238.0899999999}},{"attributes":{"ID":97653,"DIS_CODE":0,"TOWNNAME":"後壁區","LI":"頂安里","LIN":"10鄰","STREET":" ","SECT":" ","MAREA":"頂寮","LANE":" ","ALLEY":" ","HOUSE_NO":"１２３號之５","E_COORD97":183351.35999999999,"N_COORD97":2581286.0299999998,"ADDRESS":"頂寮１２３號之５","OBJECTID":97653},"geometry":{"x":183351.36000000127,"y":2581286.0299999993}},{"attributes":{"ID":97654,"DIS_CODE":0,"TOWNNAME":"後壁區","LI":"頂安里","LIN":"10鄰","STREET":" ","SECT":" ","MAREA":"頂寮","LANE":" ","ALLEY":" ","HOUSE_NO":"１２４號之６","E_COORD97":183641.23999999999,"N_COORD97":2581235.5899999999,"ADDRESS":"頂寮１２４號之６","OBJECTID":97654},"geometry":{"x":183641.24000000022,"y":2581235.5899999999}},{"attributes":{"ID":97655,"DIS_CODE":0,"TOWNNAME":"後壁區","LI":"頂安里","LIN":"10鄰","STREET":" ","SECT":" ","MAREA":"頂寮","LANE":" ","ALLEY":" ","HOUSE_NO":"１２４號","E_COORD97":183692.81,"N_COORD97":2581208.4500000002,"ADDRESS":"頂寮１２４號","OBJECTID":97655},"geometry":{"x":183692.80999999866,"y":2581208.4499999993}},{"attributes":{"ID":97656,"DIS_CODE":0,"TOWNNAME":"後壁區","LI":"頂安里","LIN":"10鄰","STREET":" ","SECT":" ","MAREA":"頂寮","LANE":" ","ALLEY":" ","HOUSE_NO":"１２８號之１５","E_COORD97":183552.5,"N_COORD97":2581295.1699999999,"ADDRESS":"頂寮１２８號之１５","OBJECTID":97656},"geometry":{"x":183552.5,"y":2581295.1699999999}},{"attributes":{"ID":97657,"DIS_CODE":0,"TOWNNAME":"北區","LI":"正覺里","LIN":"21鄰","STREET":"正覺街","SECT":" ","MAREA":" ","LANE":"１０２巷","ALLEY":"４０弄","HOUSE_NO":"５２號","E_COORD97":169438.76999999999,"N_COORD97":2546449.75,"ADDRESS":"正覺街１０２巷４０弄５２號","OBJECTID":97657},"geometry":{"x":169438.77000000048,"y":2546449.75}},{"attributes":{"ID":97658,"DIS_CODE":0,"TOWNNAME":"北區","LI":"正覺里","LIN":"21鄰","STREET":"正覺街","SECT":" ","MAREA":" ","LANE":"１０２巷","ALLEY":"４０弄","HOUSE_NO":"５４號","E_COORD97":169441.98999999999,"N_COORD97":2546447.6600000001,"ADDRESS":"正覺街１０２巷４０弄５４號","OBJECTID":97658},"geometry":{"x":169441.99000000022,"y":2546447.6600000039}},{"attributes":{"ID":97659,"DIS_CODE":0,"TOWNNAME":"北區","LI":"正覺里","LIN":"21鄰","STREET":"正覺街","SECT":" ","MAREA":" ","LANE":"１０２巷","ALLEY":"４０弄","HOUSE_NO":"５６號","E_COORD97":169446.01000000001,"N_COORD97":2546446.77,"ADDRESS":"正覺街１０２巷４０弄５６號","OBJECTID":97659},"geometry":{"x":169446.01000000071,"y":2546446.7700000014}},{"attributes":{"ID":97660,"DIS_CODE":0,"TOWNNAME":"七股區","LI":"?埕里","LIN":"12鄰","STREET":" ","SECT":" ","MAREA":"?埕","LANE":" ","ALLEY":" ","HOUSE_NO":"２００號","E_COORD97":156700.64000000001,"N_COORD97":2561249.7799999998,"ADDRESS":"?埕２００號","OBJECTID":97660},"geometry":{"x":156700.6400000006,"y":2561249.7800000012}},{"attributes":{"ID":97661,"DIS_CODE":0,"TOWNNAME":"七股區","LI":"?埕里","LIN":"12鄰","STREET":" ","SECT":" ","MAREA":"?埕","LANE":" ","ALLEY":" ","HOUSE_NO":"２０１號","E_COORD97":156722.64999999999,"N_COORD97":2561249.9300000002,"ADDRESS":"?埕２０１號","OBJECTID":97661},"geometry":{"x":156722.65000000224,"y":2561249.9299999997}},{"attributes":{"ID":97662,"DIS_CODE":0,"TOWNNAME":"七股區","LI":"?埕里","LIN":"12鄰","STREET":" ","SECT":" ","MAREA":"?埕","LANE":" ","ALLEY":" ","HOUSE_NO":"２０２號","E_COORD97":156700.60999999999,"N_COORD97":2561245.3599999999,"ADDRESS":"?埕２０２號","OBJECTID":97662},"geometry":{"x":156700.61000000034,"y":2561245.3600000013}},{"attributes":{"ID":97663,"DIS_CODE":0,"TOWNNAME":"永康區","LI":"復興里","LIN":"28鄰","STREET":"興國街","SECT":" ","MAREA":" ","LANE":"２３７巷","ALLEY":"１弄","HOUSE_NO":"２６號","E_COORD97":172330.07000000001,"N_COORD97":2544886.75,"ADDRESS":"興國街２３７巷１弄２６號","OBJECTID":97663},"geometry":{"x":172330.0700000003,"y":2544886.75}},{"attributes":{"ID":97664,"DIS_CODE":0,"TOWNNAME":"北區","LI":"正覺里","LIN":"21鄰","STREET":"正覺街","SECT":" ","MAREA":" ","LANE":"１０２巷","ALLEY":"４０弄","HOUSE_NO":"５８號","E_COORD97":169450.60000000001,"N_COORD97":2546445.3300000001,"ADDRESS":"正覺街１０２巷４０弄５８號","OBJECTID":97664},"geometry":{"x":169450.59999999963,"y":2546445.3300000001}},{"attributes":{"ID":97665,"DIS_CODE":0,"TOWNNAME":"北區","LI":"正覺里","LIN":"21鄰","STREET":"正覺街","SECT":" ","MAREA":" ","LANE":"１０２巷","ALLEY":"４０弄","HOUSE_NO":"６０號","E_COORD97":169454.63,"N_COORD97":2546444.1200000001,"ADDRESS":"正覺街１０２巷４０弄６０號","OBJECTID":97665},"geometry":{"x":169454.62999999989,"y":2546444.120000001}},{"attributes":{"ID":97666,"DIS_CODE":0,"TOWNNAME":"北區","LI":"正覺里","LIN":"21鄰","STREET":"正覺街","SECT":" ","MAREA":" ","LANE":"１０２巷","ALLEY":"４０弄","HOUSE_NO":"６２號","E_COORD97":169459.06,"N_COORD97":2546442.9100000001,"ADDRESS":"正覺街１０２巷４０弄６２號","OBJECTID":97666},"geometry":{"x":169459.06000000052,"y":2546442.910000002}},{"attributes":{"ID":97667,"DIS_CODE":0,"TOWNNAME":"北區","LI":"正覺里","LIN":"21鄰","STREET":"正覺街","SECT":" ","MAREA":" ","LANE":"１０２巷","ALLEY":"４０弄","HOUSE_NO":"６４號","E_COORD97":169462.60000000001,"N_COORD97":2546441.9500000002,"ADDRESS":"正覺街１０２巷４０弄６４號","OBJECTID":97667},"geometry":{"x":169462.59999999963,"y":2546441.9500000011}},{"attributes":{"ID":97668,"DIS_CODE":0,"TOWNNAME":"新化區","LI":"太平里","LIN":"14鄰","STREET":"民權街","SECT":" ","MAREA":" ","LANE":" ","ALLEY":" ","HOUSE_NO":"１６６號之１","E_COORD97":178717.73999999999,"N_COORD97":2548893.2599999998,"ADDRESS":"民權街１６６號之１","OBJECTID":97668},"geometry":{"x":178717.74000000115,"y":2548893.2599999998}},{"attributes":{"ID":97669,"DIS_CODE":0,"TOWNNAME":"新化區","LI":"唪口里","LIN":"4鄰","STREET":"大德路","SECT":" ","MAREA":" ","LANE":" ","ALLEY":" ","HOUSE_NO":"８６號之１７","E_COORD97":178178.17000000001,"N_COORD97":2549500.2599999998,"ADDRESS":"大德路８６號之１７","OBJECTID":97669},"geometry":{"x":178178.17000000179,"y":2549500.2599999998}},{"attributes":{"ID":97670,"DIS_CODE":0,"TOWNNAME":"北區","LI":"正覺里","LIN":"21鄰","STREET":"正覺街","SECT":" ","MAREA":" ","LANE":"１０２巷","ALLEY":"４０弄","HOUSE_NO":"６６號","E_COORD97":169459.54000000001,"N_COORD97":2546432.7000000002,"ADDRESS":"正覺街１０２巷４０弄６６號","OBJECTID":97670},"geometry":{"x":169459.54000000097,"y":2546432.700000003}},{"attributes":{"ID":97671,"DIS_CODE":0,"TOWNNAME":"北區","LI":"正覺里","LIN":"21鄰","STREET":"正覺街","SECT":" ","MAREA":" ","LANE":"１０２巷","ALLEY":"４０弄","HOUSE_NO":"８６號","E_COORD97":169418.54000000001,"N_COORD97":2546443.8900000001,"ADDRESS":"正覺街１０２巷４０弄８６號","OBJECTID":97671},"geometry":{"x":169418.54000000097,"y":2546443.8900000025}},{"attributes":{"ID":97672,"DIS_CODE":0,"TOWNNAME":"西港區","LI":"檨林里","LIN":"12鄰","STREET":" ","SECT":" ","MAREA":"檨子林","LANE":" ","ALLEY":" ","HOUSE_NO":"１１４號","E_COORD97":171160.13,"N_COORD97":2560068.1000000001,"ADDRESS":"檨子林１１４號","OBJECTID":97672},"geometry":{"x":171160.12999999896,"y":2560068.1000000015}},{"attributes":{"ID":97673,"DIS_CODE":0,"TOWNNAME":"新化區","LI":"唪口里","LIN":"4鄰","STREET":"大德路","SECT":" ","MAREA":" ","LANE":" ","ALLEY":" ","HOUSE_NO":"８６號之１１","E_COORD97":178177.06,"N_COORD97":2549478.2599999998,"ADDRESS":"大德路８６號之１１","OBJECTID":97673},"geometry":{"x":178177.06000000052,"y":2549478.2600000016}},{"attributes":{"ID":97674,"DIS_CODE":0,"TOWNNAME":"新化區","LI":"協興里","LIN":"14鄰","STREET":"太平街","SECT":" ","MAREA":" ","LANE":" ","ALLEY":" ","HOUSE_NO":"１６０號","E_COORD97":178261.62,"N_COORD97":2548672.25,"ADDRESS":"太平街１６０號","OBJECTID":97674},"geometry":{"x":178261.61999999918,"y":2548672.2500000019}},{"attributes":{"ID":97675,"DIS_CODE":0,"TOWNNAME":"新化區","LI":"協興里","LIN":"14鄰","STREET":"太平街","SECT":" ","MAREA":" ","LANE":" ","ALLEY":" ","HOUSE_NO":"１５８號之５","E_COORD97":178296.98000000001,"N_COORD97":2548680.2599999998,"ADDRESS":"太平街１５８號之５","OBJECTID":97675},"geometry":{"x":178296.98000000231,"y":2548680.2599999998}},{"attributes":{"ID":97676,"DIS_CODE":0,"TOWNNAME":"新化區","LI":"知義里","LIN":"14鄰","STREET":"復興路","SECT":" ","MAREA":" ","LANE":" ","ALLEY":" ","HOUSE_NO":"１３７號","E_COORD97":179467.32000000001,"N_COORD97":2547791.25,"ADDRESS":"復興路１３７號","OBJECTID":97676},"geometry":{"x":179467.3200000003,"y":2547791.25}},{"attributes":{"ID":97677,"DIS_CODE":0,"TOWNNAME":"新化區","LI":"唪口里","LIN":"4鄰","STREET":"大德路","SECT":" ","MAREA":" ","LANE":" ","ALLEY":" ","HOUSE_NO":"８８號之２１","E_COORD97":178148.26000000001,"N_COORD97":2549511.2599999998,"ADDRESS":"大德路８８號之２１","OBJECTID":97677},"geometry":{"x":178148.25999999978,"y":2549511.2600000035}},{"attributes":{"ID":97678,"DIS_CODE":0,"TOWNNAME":"新化區","LI":"唪口里","LIN":"4鄰","STREET":"大德路","SECT":" ","MAREA":" ","LANE":" ","ALLEY":" ","HOUSE_NO":"８６號之１","E_COORD97":178194.70999999999,"N_COORD97":2549478.2599999998,"ADDRESS":"大德路８６號之１","OBJECTID":97678},"geometry":{"x":178194.70999999903,"y":2549478.2600000016}},{"attributes":{"ID":97679,"DIS_CODE":0,"TOWNNAME":"後壁區","LI":"頂安里","LIN":"10鄰","STREET":" ","SECT":" ","MAREA":"頂寮","LANE":" ","ALLEY":" ","HOUSE_NO":"１２８號之１６","E_COORD97":183539.89000000001,"N_COORD97":2581300.0099999998,"ADDRESS":"頂寮１２８號之１６","OBJECTID":97679},"geometry":{"x":183539.89000000153,"y":2581300.0099999998}},{"attributes":{"ID":97680,"DIS_CODE":0,"TOWNNAME":"北區","LI":"正覺里","LIN":"21鄰","STREET":"正覺街","SECT":" ","MAREA":" ","LANE":"１０２巷","ALLEY":"４０弄","HOUSE_NO":"８８號","E_COORD97":169414.51999999999,"N_COORD97":2546444.6099999999,"ADDRESS":"正覺街１０２巷４０弄８８號","OBJECTID":97680},"geometry":{"x":169414.52000000142,"y":2546444.6100000013}},{"attributes":{"ID":97681,"DIS_CODE":0,"TOWNNAME":"北區","LI":"正覺里","LIN":"21鄰","STREET":"正覺街","SECT":" ","MAREA":" ","LANE":"１０２巷","ALLEY":"４０弄","HOUSE_NO":"８號","E_COORD97":169454,"N_COORD97":2546457.3500000001,"ADDRESS":"正覺街１０２巷４０弄８號","OBJECTID":97681},"geometry":{"x":169454,"y":2546457.3500000015}},{"attributes":{"ID":97682,"DIS_CODE":0,"TOWNNAME":"北區","LI":"正覺里","LIN":"21鄰","STREET":"正覺街","SECT":" ","MAREA":" ","LANE":"１０２巷","ALLEY":"４０弄","HOUSE_NO":"９０號","E_COORD97":169409.92999999999,"N_COORD97":2546445.98,"ADDRESS":"正覺街１０２巷４０弄９０號","OBJECTID":97682},"geometry":{"x":169409.9299999997,"y":2546445.9800000023}},{"attributes":{"ID":97683,"DIS_CODE":0,"TOWNNAME":"北區","LI":"正覺里","LIN":"21鄰","STREET":"正覺街","SECT":" ","MAREA":" ","LANE":"１０２巷","ALLEY":"４０弄","HOUSE_NO":"９２號","E_COORD97":169405.89999999999,"N_COORD97":2546446.8700000001,"ADDRESS":"正覺街１０２巷４０弄９２號","OBJECTID":97683},"geometry":{"x":169405.90000000037,"y":2546446.8700000048}},{"attributes":{"ID":97684,"DIS_CODE":0,"TOWNNAME":"北區","LI":"正覺里","LIN":"21鄰","STREET":"正覺街","SECT":" ","MAREA":" ","LANE":"１０２巷","ALLEY":"４０弄","HOUSE_NO":"９４號","E_COORD97":169401.56,"N_COORD97":2546448.1499999999,"ADDRESS":"正覺街１０２巷４０弄９４號","OBJECTID":97684},"geometry":{"x":169401.56000000052,"y":2546448.1500000022}},{"attributes":{"ID":97685,"DIS_CODE":0,"TOWNNAME":"北區","LI":"正覺里","LIN":"21鄰","STREET":"正覺街","SECT":" ","MAREA":" ","LANE":"１０２巷","ALLEY":"４０弄","HOUSE_NO":"９８號","E_COORD97":169396.25,"N_COORD97":2546438.2999999998,"ADDRESS":"正覺街１０２巷４０弄９８號","OBJECTID":97685},"geometry":{"x":169396.25,"y":2546438.3000000026}},{"attributes":{"ID":97686,"DIS_CODE":0,"TOWNNAME":"北區","LI":"大豐里","LIN":"21鄰","STREET":"大興街","SECT":" ","MAREA":" ","LANE":"２８５巷","ALLEY":"２９弄","HOUSE_NO":"１號","E_COORD97":166709.54999999999,"N_COORD97":2545622.5,"ADDRESS":"大興街２８５巷２９弄１號","OBJECTID":97686},"geometry":{"x":166709.55000000075,"y":2545622.5000000019}},{"attributes":{"ID":97687,"DIS_CODE":0,"TOWNNAME":"北區","LI":"大豐里","LIN":"21鄰","STREET":"大興街","SECT":" ","MAREA":" ","LANE":"２８５巷","ALLEY":"２９弄","HOUSE_NO":"１０號","E_COORD97":166727.07000000001,"N_COORD97":2545603.5699999998,"ADDRESS":"大興街２８５巷２９弄１０號","OBJECTID":97687},"geometry":{"x":166727.07000000123,"y":2545603.5700000003}},{"attributes":{"ID":97688,"DIS_CODE":0,"TOWNNAME":"安平區","LI":"平安里","LIN":"21鄰","STREET":"民權路","SECT":"四段","MAREA":" ","LANE":"４１９巷","ALLEY":"２弄","HOUSE_NO":"１０號","E_COORD97":165323.48000000001,"N_COORD97":2544444.23,"ADDRESS":"民權路四段４１９巷２弄１０號","OBJECTID":97688},"geometry":{"x":165323.47999999952,"y":2544444.2300000023}},{"attributes":{"ID":97689,"DIS_CODE":0,"TOWNNAME":"安平區","LI":"平安里","LIN":"21鄰","STREET":"民權路","SECT":"四段","MAREA":" ","LANE":"４１９巷","ALLEY":"２弄","HOUSE_NO":"１２號","E_COORD97":165317.10000000001,"N_COORD97":2544444.6699999999,"ADDRESS":"民權路四段４１９巷２弄１２號","OBJECTID":97689},"geometry":{"x":165317.10000000056,"y":2544444.6700000018}},{"attributes":{"ID":97690,"DIS_CODE":0,"TOWNNAME":"安平區","LI":"平安里","LIN":"21鄰","STREET":"民權路","SECT":"四段","MAREA":" ","LANE":"４１９巷","ALLEY":"２弄","HOUSE_NO":"１４號","E_COORD97":165312.92000000001,"N_COORD97":2544445.5499999998,"ADDRESS":"民權路四段４１９巷２弄１４號","OBJECTID":97690},"geometry":{"x":165312.91999999993,"y":2544445.5500000026}},{"attributes":{"ID":97691,"DIS_CODE":0,"TOWNNAME":"安平區","LI":"平安里","LIN":"21鄰","STREET":"民權路","SECT":"四段","MAREA":" ","LANE":"４１９巷","ALLEY":"２弄","HOUSE_NO":"１６號","E_COORD97":165306.75,"N_COORD97":2544448.1800000002,"ADDRESS":"民權路四段４１９巷２弄１６號","OBJECTID":97691},"geometry":{"x":165306.75000000093,"y":2544448.1800000016}},{"attributes":{"ID":97692,"DIS_CODE":0,"TOWNNAME":"安平區","LI":"平安里","LIN":"21鄰","STREET":"民權路","SECT":"四段","MAREA":" ","LANE":"４１９巷","ALLEY":"２弄","HOUSE_NO":"２號","E_COORD97":165345.92999999999,"N_COORD97":2544435.8700000001,"ADDRESS":"民權路四段４１９巷２弄２號","OBJECTID":97692},"geometry":{"x":165345.93000000063,"y":2544435.870000001}},{"attributes":{"ID":97693,"DIS_CODE":0,"TOWNNAME":"安平區","LI":"平安里","LIN":"21鄰","STREET":"民權路","SECT":"四段","MAREA":" ","LANE":"４１９巷","ALLEY":"２弄","HOUSE_NO":"２號之１","E_COORD97":165341.97,"N_COORD97":2544437.1899999999,"ADDRESS":"民權路四段４１９巷２弄２號之１","OBJECTID":97693},"geometry":{"x":165341.97000000067,"y":2544437.1900000013}},{"attributes":{"ID":97694,"DIS_CODE":0,"TOWNNAME":"安平區","LI":"平安里","LIN":"21鄰","STREET":"民權路","SECT":"四段","MAREA":" ","LANE":"４１９巷","ALLEY":"２弄","HOUSE_NO":"６號","E_COORD97":165334.92999999999,"N_COORD97":2544440.4900000002,"ADDRESS":"民權路四段４１９巷２弄６號","OBJECTID":97694},"geometry":{"x":165334.92999999877,"y":2544440.4900000002}},{"attributes":{"ID":97695,"DIS_CODE":0,"TOWNNAME":"安平區","LI":"平安里","LIN":"21鄰","STREET":"民權路","SECT":"四段","MAREA":" ","LANE":"４１９巷","ALLEY":"２弄","HOUSE_NO":"８號","E_COORD97":165328.76000000001,"N_COORD97":2544441.5899999999,"ADDRESS":"民權路四段４１９巷２弄８號","OBJECTID":97695},"geometry":{"x":165328.75999999978,"y":2544441.5900000017}},{"attributes":{"ID":97696,"DIS_CODE":0,"TOWNNAME":"歸仁區","LI":"南保里","LIN":"21鄰","STREET":"民權六街","SECT":" ","MAREA":" ","LANE":"１２８巷","ALLEY":"２弄","HOUSE_NO":"１１號","E_COORD97":176651.18671899999,"N_COORD97":2541154.7703900002,"ADDRESS":"民權六街１２８巷２弄１１號","OBJECTID":97696},"geometry":{"x":176651.18671900034,"y":2541154.7703870013}},{"attributes":{"ID":97697,"DIS_CODE":0,"TOWNNAME":"新化區","LI":"太平里","LIN":"13鄰","STREET":"太平街","SECT":" ","MAREA":" ","LANE":" ","ALLEY":" ","HOUSE_NO":"２４號","E_COORD97":178922.87,"N_COORD97":2548815.25,"ADDRESS":"太平街２４號","OBJECTID":97697},"geometry":{"x":178922.87000000197,"y":2548815.25}},{"attributes":{"ID":97698,"DIS_CODE":0,"TOWNNAME":"東區","LI":"衛國里","LIN":"25鄰","STREET":"林森路","SECT":"二段","MAREA":" ","LANE":" ","ALLEY":" ","HOUSE_NO":"９０號十四樓之４","E_COORD97":170384.75,"N_COORD97":2543098.96,"ADDRESS":"林森路二段９０號十四樓之４","OBJECTID":97698},"geometry":{"x":170384.74999999907,"y":2543098.9600000009}},{"attributes":{"ID":97699,"DIS_CODE":0,"TOWNNAME":"後壁區","LI":"頂安里","LIN":"10鄰","STREET":" ","SECT":" ","MAREA":"頂寮","LANE":" ","ALLEY":" ","HOUSE_NO":"１２８號之２５","E_COORD97":183490.48000000001,"N_COORD97":2581329.3500000001,"ADDRESS":"頂寮１２８號之２５","OBJECTID":97699},"geometry":{"x":183490.48000000045,"y":2581329.3500000034}},{"attributes":{"ID":97700,"DIS_CODE":0,"TOWNNAME":"歸仁區","LI":"歸南里","LIN":"21鄰","STREET":"民生八街","SECT":" ","MAREA":" ","LANE":"２８巷","ALLEY":"１９弄","HOUSE_NO":"４３號","E_COORD97":176008.31,"N_COORD97":2540416.25,"ADDRESS":"民生八街２８巷１９弄４３號","OBJECTID":97700},"geometry":{"x":176008.30999999959,"y":2540416.2500000019}},{"attributes":{"ID":97701,"DIS_CODE":0,"TOWNNAME":"歸仁區","LI":"歸南里","LIN":"21鄰","STREET":"民生八街","SECT":" ","MAREA":" ","LANE":"２８巷","ALLEY":"１９弄","HOUSE_NO":"１５號","E_COORD97":176067.70999999999,"N_COORD97":2540414.25,"ADDRESS":"民生八街２８巷１９弄１５號","OBJECTID":97701},"geometry":{"x":176067.71000000089,"y":2540414.25}},{"attributes":{"ID":97702,"DIS_CODE":0,"TOWNNAME":"歸仁區","LI":"歸南里","LIN":"21鄰","STREET":"民生八街","SECT":" ","MAREA":" ","LANE":"２８巷","ALLEY":"１９弄","HOUSE_NO":"１９號","E_COORD97":176059.51000000001,"N_COORD97":2540414.25,"ADDRESS":"民生八街２８巷１９弄１９號","OBJECTID":97702},"geometry":{"x":176059.50999999978,"y":2540414.25}},{"attributes":{"ID":97703,"DIS_CODE":0,"TOWNNAME":"歸仁區","LI":"歸南里","LIN":"21鄰","STREET":"民生八街","SECT":" ","MAREA":" ","LANE":"２８巷","ALLEY":"１９弄","HOUSE_NO":"４９號","E_COORD97":175997.01000000001,"N_COORD97":2540416.25,"ADDRESS":"民生八街２８巷１９弄４９號","OBJECTID":97703},"geometry":{"x":175997.00999999978,"y":2540416.2500000019}},{"attributes":{"ID":97704,"DIS_CODE":0,"TOWNNAME":"歸仁區","LI":"歸南里","LIN":"21鄰","STREET":"民生八街","SECT":" ","MAREA":" ","LANE":"２８巷","ALLEY":"１９弄","HOUSE_NO":"１７號","E_COORD97":176063.60999999999,"N_COORD97":2540414.25,"ADDRESS":"民生八街２８巷１９弄１７號","OBJECTID":97704},"geometry":{"x":176063.61000000127,"y":2540414.25}},{"attributes":{"ID":97705,"DIS_CODE":0,"TOWNNAME":"歸仁區","LI":"歸南里","LIN":"21鄰","STREET":"民生八街","SECT":" ","MAREA":" ","LANE":"２８巷","ALLEY":"１９弄","HOUSE_NO":"３７號","E_COORD97":176021.60999999999,"N_COORD97":2540416.25,"ADDRESS":"民生八街２８巷１９弄３７號","OBJECTID":97705},"geometry":{"x":176021.61000000127,"y":2540416.2500000019}},{"attributes":{"ID":97706,"DIS_CODE":0,"TOWNNAME":"歸仁區","LI":"歸南里","LIN":"21鄰","STREET":"民生八街","SECT":" ","MAREA":" ","LANE":"２８巷","ALLEY":"１９弄","HOUSE_NO":"３１號","E_COORD97":176033.91,"N_COORD97":2540415.25,"ADDRESS":"民生八街２８巷１９弄３１號","OBJECTID":97706},"geometry":{"x":176033.90999999922,"y":2540415.2500000037}},{"attributes":{"ID":97707,"DIS_CODE":0,"TOWNNAME":"歸仁區","LI":"歸南里","LIN":"21鄰","STREET":"民生八街","SECT":" ","MAREA":" ","LANE":"２８巷","ALLEY":"１９弄","HOUSE_NO":"３３號","E_COORD97":176029.81,"N_COORD97":2540416.25,"ADDRESS":"民生八街２８巷１９弄３３號","OBJECTID":97707},"geometry":{"x":176029.81000000052,"y":2540416.2500000019}},{"attributes":{"ID":97708,"DIS_CODE":0,"TOWNNAME":"歸仁區","LI":"歸南里","LIN":"21鄰","STREET":"民生八街","SECT":" ","MAREA":" ","LANE":"２８巷","ALLEY":"１９弄","HOUSE_NO":"３９號","E_COORD97":176016.51000000001,"N_COORD97":2540416.25,"ADDRESS":"民生八街２８巷１９弄３９號","OBJECTID":97708},"geometry":{"x":176016.51000000071,"y":2540416.2500000019}},{"attributes":{"ID":97709,"DIS_CODE":0,"TOWNNAME":"歸仁區","LI":"歸南里","LIN":"21鄰","STREET":"民生八街","SECT":" ","MAREA":" ","LANE":"２８巷","ALLEY":"１９弄","HOUSE_NO":"４５號","E_COORD97":176004.20999999999,"N_COORD97":2540416.25,"ADDRESS":"民生八街２８巷１９弄４５號","OBJECTID":97709},"geometry":{"x":176004.20999999996,"y":2540416.2500000019}},{"attributes":{"ID":97710,"DIS_CODE":0,"TOWNNAME":"歸仁區","LI":"歸南里","LIN":"21鄰","STREET":"民生八街","SECT":" ","MAREA":" ","LANE":"２８巷","ALLEY":"１９弄","HOUSE_NO":"１１號","E_COORD97":176075.91,"N_COORD97":2540414.25,"ADDRESS":"民生八街２８巷１９弄１１號","OBJECTID":97710},"geometry":{"x":176075.91000000015,"y":2540414.25}},{"attributes":{"ID":97711,"DIS_CODE":0,"TOWNNAME":"歸仁區","LI":"歸南里","LIN":"21鄰","STREET":"民生八街","SECT":" ","MAREA":" ","LANE":"２８巷","ALLEY":"１９弄","HOUSE_NO":"９號","E_COORD97":176079.76000000001,"N_COORD97":2540414.25,"ADDRESS":"民生八街２８巷１９弄９號","OBJECTID":97711},"geometry":{"x":176079.75999999978,"y":2540414.25}},{"attributes":{"ID":97712,"DIS_CODE":0,"TOWNNAME":"歸仁區","LI":"歸南里","LIN":"21鄰","STREET":"民生八街","SECT":" ","MAREA":" ","LANE":"２８巷","ALLEY":"１９弄","HOUSE_NO":"７號","E_COORD97":176083.85999999999,"N_COORD97":2540414.25,"ADDRESS":"民生八街２８巷１９弄７號","OBJECTID":97712},"geometry":{"x":176083.86000000127,"y":2540414.25}},{"attributes":{"ID":97713,"DIS_CODE":0,"TOWNNAME":"歸仁區","LI":"歸南里","LIN":"21鄰","STREET":"民生八街","SECT":" ","MAREA":" ","LANE":"２８巷","ALLEY":"１９弄","HOUSE_NO":"３號","E_COORD97":176092.06,"N_COORD97":2540414.25,"ADDRESS":"民生八街２８巷１９弄３號","OBJECTID":97713},"geometry":{"x":176092.06000000052,"y":2540414.25}},{"attributes":{"ID":97714,"DIS_CODE":0,"TOWNNAME":"歸仁區","LI":"歸南里","LIN":"21鄰","STREET":"民生八街","SECT":" ","MAREA":" ","LANE":"２８巷","ALLEY":"１９弄","HOUSE_NO":"１號","E_COORD97":176096.26000000001,"N_COORD97":2540414.25,"ADDRESS":"民生八街２８巷１９弄１號","OBJECTID":97714},"geometry":{"x":176096.26000000071,"y":2540414.25}},{"attributes":{"ID":97715,"DIS_CODE":0,"TOWNNAME":"歸仁區","LI":"歸南里","LIN":"21鄰","STREET":"民生八街","SECT":" ","MAREA":" ","LANE":"２８巷","ALLEY":"１９弄","HOUSE_NO":"２５號","E_COORD97":176046.20999999999,"N_COORD97":2540415.25,"ADDRESS":"民生八街２８巷１９弄２５號","OBJECTID":97715},"geometry":{"x":176046.20999999996,"y":2540415.2500000037}},{"attributes":{"ID":97716,"DIS_CODE":0,"TOWNNAME":"歸仁區","LI":"大潭里","LIN":"21鄰","STREET":"長榮路","SECT":"二段","MAREA":" ","LANE":"９０巷","ALLEY":"４１弄","HOUSE_NO":"５號","E_COORD97":176904.76999999999,"N_COORD97":2534411.2799999998,"ADDRESS":"長榮路二段９０巷４１弄５號","OBJECTID":97716},"geometry":{"x":176904.77000000048,"y":2534411.2800000012}},{"attributes":{"ID":97717,"DIS_CODE":0,"TOWNNAME":"新營區","LI":"南紙里","LIN":"21鄰","STREET":"建業路","SECT":" ","MAREA":" ","LANE":"２２７巷","ALLEY":"１６弄","HOUSE_NO":"１４號","E_COORD97":178087.67999999999,"N_COORD97":2577429.02,"ADDRESS":"建業路２２７巷１６弄１４號","OBJECTID":97717},"geometry":{"x":178087.6799999997,"y":2577429.0200000033}},{"attributes":{"ID":97718,"DIS_CODE":0,"TOWNNAME":"新營區","LI":"南紙里","LIN":"21鄰","STREET":"建業路","SECT":" ","MAREA":" ","LANE":"２２７巷","ALLEY":"１６弄","HOUSE_NO":"１８號","E_COORD97":178076.42999999999,"N_COORD97":2577429.0699999998,"ADDRESS":"建業路２２７巷１６弄１８號","OBJECTID":97718},"geometry":{"x":178076.43000000063,"y":2577429.0700000003}},{"attributes":{"ID":97719,"DIS_CODE":0,"TOWNNAME":"新營區","LI":"新南里","LIN":"21鄰","STREET":"復興路","SECT":" ","MAREA":" ","LANE":"３７８巷","ALLEY":"２４弄","HOUSE_NO":"３號","E_COORD97":178563.19,"N_COORD97":2578272.7999999998,"ADDRESS":"復興路３７８巷２４弄３號","OBJECTID":97719},"geometry":{"x":178563.18999999948,"y":2578272.8000000045}},{"attributes":{"ID":97720,"DIS_CODE":0,"TOWNNAME":"新營區","LI":"南紙里","LIN":"21鄰","STREET":"建業路","SECT":" ","MAREA":" ","LANE":"２２７巷","ALLEY":"１６弄","HOUSE_NO":"２０號","E_COORD97":178071.39000000001,"N_COORD97":2577430.2000000002,"ADDRESS":"建業路２２７巷１６弄２０號","OBJECTID":97720},"geometry":{"x":178071.3900000006,"y":2577430.1999999993}},{"attributes":{"ID":97721,"DIS_CODE":0,"TOWNNAME":"新營區","LI":"南紙里","LIN":"21鄰","STREET":"建業路","SECT":" ","MAREA":" ","LANE":"２２７巷","ALLEY":"１６弄","HOUSE_NO":"３０號","E_COORD97":178049.92999999999,"N_COORD97":2577431.4100000001,"ADDRESS":"建業路２２７巷１６弄３０號","OBJECTID":97721},"geometry":{"x":178049.9299999997,"y":2577431.410000002}},{"attributes":{"ID":97722,"DIS_CODE":0,"TOWNNAME":"歸仁區","LI":"大潭里","LIN":"21鄰","STREET":"長榮路","SECT":"二段","MAREA":" ","LANE":"９０巷","ALLEY":"４１弄","HOUSE_NO":"１２５號","E_COORD97":176962.76999999999,"N_COORD97":2534217.2799999998,"ADDRESS":"長榮路二段９０巷４１弄１２５號","OBJECTID":97722},"geometry":{"x":176962.76999999955,"y":2534217.2800000012}},{"attributes":{"ID":97723,"DIS_CODE":0,"TOWNNAME":"歸仁區","LI":"大潭里","LIN":"21鄰","STREET":"長榮路","SECT":"二段","MAREA":" ","LANE":"９０巷","ALLEY":"２０弄","HOUSE_NO":"１２號","E_COORD97":176968.82000000001,"N_COORD97":2534444.2799999998,"ADDRESS":"長榮路二段９０巷２０弄１２號","OBJECTID":97723},"geometry":{"x":176968.82000000216,"y":2534444.2800000012}},{"attributes":{"ID":97724,"DIS_CODE":0,"TOWNNAME":"歸仁區","LI":"南保里","LIN":"21鄰","STREET":"民權六街","SECT":" ","MAREA":" ","LANE":"１２８巷","ALLEY":"２弄","HOUSE_NO":"１２號","E_COORD97":176645.889203,"N_COORD97":2541141.32956,"ADDRESS":"民權六街１２８巷２弄１２號","OBJECTID":97724},"geometry":{"x":176645.88920299988,"y":2541141.3295610026}},{"attributes":{"ID":97725,"DIS_CODE":0,"TOWNNAME":"歸仁區","LI":"南保里","LIN":"21鄰","STREET":"民權六街","SECT":" ","MAREA":" ","LANE":"１２８巷","ALLEY":"２弄","HOUSE_NO":"７號","E_COORD97":176640.59168700001,"N_COORD97":2541155.1937199999,"ADDRESS":"民權六街１２８巷２弄７號","OBJECTID":97725},"geometry":{"x":176640.59168700036,"y":2541155.1937199999}},{"attributes":{"ID":97726,"DIS_CODE":0,"TOWNNAME":"南區","LI":"府南里","LIN":"21鄰","STREET":"大成路","SECT":"二段","MAREA":" ","LANE":"８１巷","ALLEY":"３３弄","HOUSE_NO":"１７號","E_COORD97":167448.48000000001,"N_COORD97":2541639.2599999998,"ADDRESS":"大成路二段８１巷３３弄１７號","OBJECTID":97726},"geometry":{"x":167448.48000000138,"y":2541639.2600000016}},{"attributes":{"ID":97727,"DIS_CODE":0,"TOWNNAME":"新化區","LI":"唪口里","LIN":"4鄰","STREET":"大德路","SECT":" ","MAREA":" ","LANE":" ","ALLEY":" ","HOUSE_NO":"８８號之２０","E_COORD97":178147.97,"N_COORD97":2549507.2599999998,"ADDRESS":"大德路８８號之２０","OBJECTID":97727},"geometry":{"x":178147.96999999974,"y":2549507.2599999998}},{"attributes":{"ID":97728,"DIS_CODE":0,"TOWNNAME":"新化區","LI":"東榮里","LIN":"20鄰","STREET":"復興路","SECT":" ","MAREA":" ","LANE":" ","ALLEY":" ","HOUSE_NO":"２５０號","E_COORD97":179388.01999999999,"N_COORD97":2548323.25,"ADDRESS":"復興路２５０號","OBJECTID":97728},"geometry":{"x":179388.02000000048,"y":2548323.25}},{"attributes":{"ID":97729,"DIS_CODE":0,"TOWNNAME":"新化區","LI":"太平里","LIN":"14鄰","STREET":"民權街","SECT":" ","MAREA":" ","LANE":" ","ALLEY":" ","HOUSE_NO":"１３５號","E_COORD97":178653.70999999999,"N_COORD97":2548841.25,"ADDRESS":"民權街１３５號","OBJECTID":97729},"geometry":{"x":178653.70999999996,"y":2548841.2500000019}},{"attributes":{"ID":97730,"DIS_CODE":0,"TOWNNAME":"新化區","LI":"東榮里","LIN":"25鄰","STREET":"中正路","SECT":" ","MAREA":" ","LANE":" ","ALLEY":" ","HOUSE_NO":"３０４號","E_COORD97":179168.70999999999,"N_COORD97":2547997.25,"ADDRESS":"中正路３０４號","OBJECTID":97730},"geometry":{"x":179168.70999999996,"y":2547997.2500000019}},{"attributes":{"ID":97731,"DIS_CODE":0,"TOWNNAME":"新化區","LI":"中央里","LIN":"4鄰","STREET":"中山路","SECT":" ","MAREA":" ","LANE":" ","ALLEY":" ","HOUSE_NO":"２６３號","E_COORD97":179032.31,"N_COORD97":2548415.25,"ADDRESS":"中山路２６３號","OBJECTID":97731},"geometry":{"x":179032.30999999959,"y":2548415.25}},{"attributes":{"ID":97732,"DIS_CODE":0,"TOWNNAME":"七股區","LI":"三股里","LIN":" ","STREET":" ","SECT":" ","MAREA":"三股","LANE":" ","ALLEY":" ","HOUSE_NO":"８２號","E_COORD97":159781.41,"N_COORD97":2555859.1400000001,"ADDRESS":"三股８２號","OBJECTID":97732},"geometry":{"x":159781.41000000015,"y":2555859.1400000006}},{"attributes":{"ID":97733,"DIS_CODE":0,"TOWNNAME":"南區","LI":"府南里","LIN":"21鄰","STREET":"大成路","SECT":"二段","MAREA":" ","LANE":"８１巷","ALLEY":"３３弄","HOUSE_NO":"１８號","E_COORD97":167434.42000000001,"N_COORD97":2541624.54,"ADDRESS":"大成路二段８１巷３３弄１８號","OBJECTID":97733},"geometry":{"x":167434.42000000086,"y":2541624.5399999991}},{"attributes":{"ID":97734,"DIS_CODE":0,"TOWNNAME":"南區","LI":"府南里","LIN":"21鄰","STREET":"大成路","SECT":"二段","MAREA":" ","LANE":"８１巷","ALLEY":"３３弄","HOUSE_NO":"１９號","E_COORD97":167453.92999999999,"N_COORD97":2541635.3900000001,"ADDRESS":"大成路二段８１巷３３弄１９號","OBJECTID":97734},"geometry":{"x":167453.92999999877,"y":2541635.3900000043}},{"attributes":{"ID":97735,"DIS_CODE":0,"TOWNNAME":"南區","LI":"府南里","LIN":"21鄰","STREET":"大成路","SECT":"二段","MAREA":" ","LANE":"８１巷","ALLEY":"３３弄","HOUSE_NO":"２０號","E_COORD97":167438.79000000001,"N_COORD97":2541622.96,"ADDRESS":"大成路二段８１巷３３弄２０號","OBJECTID":97735},"geometry":{"x":167438.79000000097,"y":2541622.9600000028}},{"attributes":{"ID":97736,"DIS_CODE":0,"TOWNNAME":"南區","LI":"府南里","LIN":"21鄰","STREET":"大成路","SECT":"二段","MAREA":" ","LANE":"８１巷","ALLEY":"３３弄","HOUSE_NO":"１５號","E_COORD97":167442.51999999999,"N_COORD97":2541641.7000000002,"ADDRESS":"大成路二段８１巷３３弄１５號","OBJECTID":97736},"geometry":{"x":167442.51999999955,"y":2541641.6999999993}},{"attributes":{"ID":97737,"DIS_CODE":0,"TOWNNAME":"後壁區","LI":"頂安里","LIN":"10鄰","STREET":" ","SECT":" ","MAREA":"頂寮","LANE":" ","ALLEY":" ","HOUSE_NO":"１２８號之２６","E_COORD97":183534.67999999999,"N_COORD97":2581316.3500000001,"ADDRESS":"頂寮１２８號之２６","OBJECTID":97737},"geometry":{"x":183534.68000000156,"y":2581316.3500000015}},{"attributes":{"ID":97738,"DIS_CODE":0,"TOWNNAME":"後壁區","LI":"頂安里","LIN":"10鄰","STREET":" ","SECT":" ","MAREA":"頂寮","LANE":" ","ALLEY":" ","HOUSE_NO":"１２８號之６０","E_COORD97":183599.92000000001,"N_COORD97":2581589.5,"ADDRESS":"頂寮１２８號之６０","OBJECTID":97738},"geometry":{"x":183599.92000000086,"y":2581589.4999999981}},{"attributes":{"ID":97739,"DIS_CODE":0,"TOWNNAME":"後壁區","LI":"頂安里","LIN":"10鄰","STREET":" ","SECT":" ","MAREA":"頂寮","LANE":" ","ALLEY":" ","HOUSE_NO":"１２８號","E_COORD97":183623.01000000001,"N_COORD97":2581246.6899999999,"ADDRESS":"頂寮１２８號","OBJECTID":97739},"geometry":{"x":183623.01000000071,"y":2581246.6900000013}},{"attributes":{"ID":97740,"DIS_CODE":0,"TOWNNAME":"後壁區","LI":"頂安里","LIN":"10鄰","STREET":" ","SECT":" ","MAREA":"頂寮","LANE":" ","ALLEY":" ","HOUSE_NO":"２８０號之８","E_COORD97":183854.07000000001,"N_COORD97":2582503.3199999998,"ADDRESS":"頂寮２８０號之８","OBJECTID":97740},"geometry":{"x":183854.0700000003,"y":2582503.320000004}},{"attributes":{"ID":97741,"DIS_CODE":0,"TOWNNAME":"南區","LI":"府南里","LIN":"21鄰","STREET":"大成路","SECT":"二段","MAREA":" ","LANE":"８１巷","ALLEY":"３３弄","HOUSE_NO":"２２號","E_COORD97":167446.54000000001,"N_COORD97":2541623.1800000002,"ADDRESS":"大成路二段８１巷３３弄２２號","OBJECTID":97741},"geometry":{"x":167446.54000000004,"y":2541623.1800000016}},{"attributes":{"ID":97742,"DIS_CODE":0,"TOWNNAME":"南區","LI":"府南里","LIN":"21鄰","STREET":"大成路","SECT":"二段","MAREA":" ","LANE":"８１巷","ALLEY":"３３弄","HOUSE_NO":"２４號","E_COORD97":167451.92000000001,"N_COORD97":2541622.1699999999,"ADDRESS":"大成路二段８１巷３３弄２４號","OBJECTID":97742},"geometry":{"x":167451.91999999993,"y":2541622.1699999999}},{"attributes":{"ID":97743,"DIS_CODE":0,"TOWNNAME":"南區","LI":"府南里","LIN":"21鄰","STREET":"大成路","SECT":"二段","MAREA":" ","LANE":"１４３巷","ALLEY":"５弄","HOUSE_NO":"１１號","E_COORD97":167358.44,"N_COORD97":2541677.2999999998,"ADDRESS":"大成路二段１４３巷５弄１１號","OBJECTID":97743},"geometry":{"x":167358.44000000134,"y":2541677.3000000026}},{"attributes":{"ID":97744,"DIS_CODE":0,"TOWNNAME":"南區","LI":"府南里","LIN":"21鄰","STREET":"大成路","SECT":"二段","MAREA":" ","LANE":"１４３巷","ALLEY":"５弄","HOUSE_NO":"９號","E_COORD97":167348.95000000001,"N_COORD97":2541679.9900000002,"ADDRESS":"大成路二段１４３巷５弄９號","OBJECTID":97744},"geometry":{"x":167348.95000000019,"y":2541679.9900000021}},{"attributes":{"ID":97745,"DIS_CODE":0,"TOWNNAME":"南區","LI":"郡南里","LIN":"21鄰","STREET":"新都路","SECT":" ","MAREA":" ","LANE":"３２９巷","ALLEY":"２弄","HOUSE_NO":"１０號","E_COORD97":167600.23999999999,"N_COORD97":2540820.6200000001,"ADDRESS":"新都路３２９巷２弄１０號","OBJECTID":97745},"geometry":{"x":167600.24000000115,"y":2540820.6200000048}},{"attributes":{"ID":97746,"DIS_CODE":0,"TOWNNAME":"南區","LI":"郡南里","LIN":"21鄰","STREET":"新都路","SECT":" ","MAREA":" ","LANE":"３２９巷","ALLEY":"２弄","HOUSE_NO":"６號","E_COORD97":167608.82999999999,"N_COORD97":2540820.9399999999,"ADDRESS":"新都路３２９巷２弄６號","OBJECTID":97746},"geometry":{"x":167608.83000000007,"y":2540820.9400000013}},{"attributes":{"ID":97747,"DIS_CODE":0,"TOWNNAME":"南區","LI":"郡南里","LIN":"21鄰","STREET":"新都路","SECT":" ","MAREA":" ","LANE":"３２９巷","ALLEY":"２弄","HOUSE_NO":"８號","E_COORD97":167603.73999999999,"N_COORD97":2540820.2999999998,"ADDRESS":"新都路３２９巷２弄８號","OBJECTID":97747},"geometry":{"x":167603.74000000115,"y":2540820.3000000026}},{"attributes":{"ID":97748,"DIS_CODE":0,"TOWNNAME":"南區","LI":"郡南里","LIN":"21鄰","STREET":"新都路","SECT":" ","MAREA":" ","LANE":"３２９巷","ALLEY":"２弄","HOUSE_NO":"２號","E_COORD97":167615.82999999999,"N_COORD97":2540819.3500000001,"ADDRESS":"新都路３２９巷２弄２號","OBJECTID":97748},"geometry":{"x":167615.83000000007,"y":2540819.3499999996}},{"attributes":{"ID":97749,"DIS_CODE":0,"TOWNNAME":"北區","LI":"大豐里","LIN":"21鄰","STREET":"大興街","SECT":" ","MAREA":" ","LANE":"２８５巷","ALLEY":"２６弄","HOUSE_NO":"９號","E_COORD97":166661.23000000001,"N_COORD97":2545587.46,"ADDRESS":"大興街２８５巷２６弄９號","OBJECTID":97749},"geometry":{"x":166661.23000000231,"y":2545587.4600000009}},{"attributes":{"ID":97750,"DIS_CODE":0,"TOWNNAME":"安平區","LI":"怡平里","LIN":"25鄰","STREET":"永華路","SECT":"二段","MAREA":" ","LANE":" ","ALLEY":" ","HOUSE_NO":"４８０號之１","E_COORD97":165445.26999999999,"N_COORD97":2543508.3700000001,"ADDRESS":"永華路二段４８０號之１","OBJECTID":97750},"geometry":{"x":165445.27000000048,"y":2543508.3700000029}},{"attributes":{"ID":97751,"DIS_CODE":0,"TOWNNAME":"歸仁區","LI":"南保里","LIN":"56鄰","STREET":"民權南路","SECT":" ","MAREA":" ","LANE":" ","ALLEY":" ","HOUSE_NO":"１３６號","E_COORD97":176946.76000000001,"N_COORD97":2540490.25,"ADDRESS":"民權南路１３６號","OBJECTID":97751},"geometry":{"x":176946.76000000071,"y":2540490.2500000019}},{"attributes":{"ID":97752,"DIS_CODE":0,"TOWNNAME":"後壁區","LI":"頂安里","LIN":"10鄰","STREET":" ","SECT":" ","MAREA":"頂寮","LANE":" ","ALLEY":" ","HOUSE_NO":"１３６號","E_COORD97":183282.34,"N_COORD97":2581310.5600000001,"ADDRESS":"頂寮１３６號","OBJECTID":97752},"geometry":{"x":183282.33999999985,"y":2581310.5600000005}},{"attributes":{"ID":97753,"DIS_CODE":0,"TOWNNAME":"後壁區","LI":"頂安里","LIN":"10鄰","STREET":" ","SECT":" ","MAREA":"頂寮","LANE":" ","ALLEY":" ","HOUSE_NO":"１３７號之２","E_COORD97":183257.82999999999,"N_COORD97":2581336.96,"ADDRESS":"頂寮１３７號之２","OBJECTID":97753},"geometry":{"x":183257.83000000101,"y":2581336.9600000028}},{"attributes":{"ID":97754,"DIS_CODE":0,"TOWNNAME":"後壁區","LI":"頂安里","LIN":"10鄰","STREET":" ","SECT":" ","MAREA":"頂寮","LANE":" ","ALLEY":" ","HOUSE_NO":"１３７號","E_COORD97":183311.54000000001,"N_COORD97":2581338.29,"ADDRESS":"頂寮１３７號","OBJECTID":97754},"geometry":{"x":183311.54000000004,"y":2581338.2899999991}},{"attributes":{"ID":97755,"DIS_CODE":0,"TOWNNAME":"後壁區","LI":"頂安里","LIN":"10鄰","STREET":" ","SECT":" ","MAREA":"頂寮","LANE":" ","ALLEY":" ","HOUSE_NO":"１３８號","E_COORD97":183360.95000000001,"N_COORD97":2581374.3799999999,"ADDRESS":"頂寮１３８號","OBJECTID":97755},"geometry":{"x":183360.95000000112,"y":2581374.379999999}},{"attributes":{"ID":97756,"DIS_CODE":0,"TOWNNAME":"後壁區","LI":"頂安里","LIN":"10鄰","STREET":" ","SECT":" ","MAREA":"頂寮","LANE":" ","ALLEY":" ","HOUSE_NO":"１５３號之２","E_COORD97":183479.59,"N_COORD97":2581542.9500000002,"ADDRESS":"頂寮１５３號之２","OBJECTID":97756},"geometry":{"x":183479.59000000078,"y":2581542.9500000011}},{"attributes":{"ID":97757,"DIS_CODE":0,"TOWNNAME":"後壁區","LI":"頂安里","LIN":"10鄰","STREET":" ","SECT":" ","MAREA":"頂寮","LANE":" ","ALLEY":" ","HOUSE_NO":"１９０號","E_COORD97":183722.92999999999,"N_COORD97":2582008.1800000002,"ADDRESS":"頂寮１９０號","OBJECTID":97757},"geometry":{"x":183722.93000000063,"y":2582008.1799999997}},{"attributes":{"ID":97758,"DIS_CODE":0,"TOWNNAME":"後壁區","LI":"頂安里","LIN":"10鄰","STREET":" ","SECT":" ","MAREA":"頂寮","LANE":" ","ALLEY":" ","HOUSE_NO":"１９５號之１６","E_COORD97":183697.54999999999,"N_COORD97":2581910.1899999999,"ADDRESS":"頂寮１９５號之１６","OBJECTID":97758},"geometry":{"x":183697.54999999981,"y":2581910.1900000013}},{"attributes":{"ID":97759,"DIS_CODE":0,"TOWNNAME":"後壁區","LI":"頂安里","LIN":"10鄰","STREET":" ","SECT":" ","MAREA":"頂寮","LANE":" ","ALLEY":" ","HOUSE_NO":"１９７號之１０","E_COORD97":183780.64999999999,"N_COORD97":2582067.1600000001,"ADDRESS":"頂寮１９７號之１０","OBJECTID":97759},"geometry":{"x":183780.65000000037,"y":2582067.160000002}},{"attributes":{"ID":97760,"DIS_CODE":0,"TOWNNAME":"歸仁區","LI":"南保里","LIN":"56鄰","STREET":"民權南路","SECT":" ","MAREA":" ","LANE":" ","ALLEY":" ","HOUSE_NO":"１６８號","E_COORD97":176952.23999999999,"N_COORD97":2540426.29,"ADDRESS":"民權南路１６８號","OBJECTID":97760},"geometry":{"x":176952.24000000209,"y":2540426.2899999991}},{"attributes":{"ID":97761,"DIS_CODE":0,"TOWNNAME":"歸仁區","LI":"南保里","LIN":"56鄰","STREET":"民權南路","SECT":" ","MAREA":" ","LANE":" ","ALLEY":" ","HOUSE_NO":"１６４號四樓之３","E_COORD97":176921.81,"N_COORD97":2540440.2599999998,"ADDRESS":"民權南路１６４號四樓之３","OBJECTID":97761},"geometry":{"x":176921.80999999959,"y":2540440.2600000016}},{"attributes":{"ID":97762,"DIS_CODE":0,"TOWNNAME":"歸仁區","LI":"南保里","LIN":"56鄰","STREET":"民權南路","SECT":" ","MAREA":" ","LANE":" ","ALLEY":" ","HOUSE_NO":"１６４號六樓之３","E_COORD97":176921.81,"N_COORD97":2540440.2599999998,"ADDRESS":"民權南路１６４號六樓之３","OBJECTID":97762},"geometry":{"x":176921.80999999959,"y":2540440.2600000016}},{"attributes":{"ID":97763,"DIS_CODE":0,"TOWNNAME":"歸仁區","LI":"南保里","LIN":"56鄰","STREET":"民權南路","SECT":" ","MAREA":" ","LANE":" ","ALLEY":" ","HOUSE_NO":"１６４號四樓之１","E_COORD97":176921.79000000001,"N_COORD97":2540440.2599999998,"ADDRESS":"民權南路１６４號四樓之１","OBJECTID":97763},"geometry":{"x":176921.79000000097,"y":2540440.2600000016}},{"attributes":{"ID":97764,"DIS_CODE":0,"TOWNNAME":"北區","LI":"大豐里","LIN":"21鄰","STREET":"大興街","SECT":" ","MAREA":" ","LANE":"２８５巷","ALLEY":"２６弄","HOUSE_NO":"３２號","E_COORD97":166624.32000000001,"N_COORD97":2545607.04,"ADDRESS":"大興街２８５巷２６弄３２號","OBJECTID":97764},"geometry":{"x":166624.3200000003,"y":2545607.040000001}},{"attributes":{"ID":97765,"DIS_CODE":0,"TOWNNAME":"後壁區","LI":"頂安里","LIN":"10鄰","STREET":" ","SECT":" ","MAREA":"頂寮","LANE":" ","ALLEY":" ","HOUSE_NO":"１９７號之１１","E_COORD97":183780.85000000001,"N_COORD97":2582072.3599999999,"ADDRESS":"頂寮１９７號之１１","OBJECTID":97765},"geometry":{"x":183780.85000000149,"y":2582072.3600000013}},{"attributes":{"ID":97766,"DIS_CODE":0,"TOWNNAME":"後壁區","LI":"頂安里","LIN":"10鄰","STREET":" ","SECT":" ","MAREA":"頂寮","LANE":" ","ALLEY":" ","HOUSE_NO":"１９７號之１２","E_COORD97":183781.92999999999,"N_COORD97":2582077.02,"ADDRESS":"頂寮１９７號之１２","OBJECTID":97766},"geometry":{"x":183781.9299999997,"y":2582077.0199999977}},{"attributes":{"ID":97767,"DIS_CODE":0,"TOWNNAME":"後壁區","LI":"頂安里","LIN":"10鄰","STREET":" ","SECT":" ","MAREA":"頂寮","LANE":" ","ALLEY":" ","HOUSE_NO":"１９７號之１３","E_COORD97":183783.07000000001,"N_COORD97":2582082.0699999998,"ADDRESS":"頂寮１９７號之１３","OBJECTID":97767},"geometry":{"x":183783.0700000003,"y":2582082.0700000022}},{"attributes":{"ID":97768,"DIS_CODE":0,"TOWNNAME":"後壁區","LI":"頂安里","LIN":"10鄰","STREET":" ","SECT":" ","MAREA":"頂寮","LANE":" ","ALLEY":" ","HOUSE_NO":"１９７號之１５","E_COORD97":183786.88,"N_COORD97":2582086.1000000001,"ADDRESS":"頂寮１９７號之１５","OBJECTID":97768},"geometry":{"x":183786.87999999989,"y":2582086.0999999996}},{"attributes":{"ID":97769,"DIS_CODE":0,"TOWNNAME":"後壁區","LI":"頂安里","LIN":"10鄰","STREET":" ","SECT":" ","MAREA":"頂寮","LANE":" ","ALLEY":" ","HOUSE_NO":"１９７號之１","E_COORD97":183769.73000000001,"N_COORD97":2582029.7999999998,"ADDRESS":"頂寮１９７號之１","OBJECTID":97769},"geometry":{"x":183769.73000000138,"y":2582029.8000000026}},{"attributes":{"ID":97770,"DIS_CODE":0,"TOWNNAME":"後壁區","LI":"頂安里","LIN":"10鄰","STREET":" ","SECT":" ","MAREA":"頂寮","LANE":" ","ALLEY":" ","HOUSE_NO":"１９７號之２","E_COORD97":183771.73000000001,"N_COORD97":2582033.98,"ADDRESS":"頂寮１９７號之２","OBJECTID":97770},"geometry":{"x":183771.73000000045,"y":2582033.9800000004}},{"attributes":{"ID":97771,"DIS_CODE":0,"TOWNNAME":"後壁區","LI":"頂安里","LIN":"10鄰","STREET":" ","SECT":" ","MAREA":"頂寮","LANE":" ","ALLEY":" ","HOUSE_NO":"１９７號之３","E_COORD97":183772.70999999999,"N_COORD97":2582038.5600000001,"ADDRESS":"頂寮１９７號之３","OBJECTID":97771},"geometry":{"x":183772.71000000089,"y":2582038.5600000024}},{"attributes":{"ID":97772,"DIS_CODE":0,"TOWNNAME":"後壁區","LI":"頂安里","LIN":"10鄰","STREET":" ","SECT":" ","MAREA":"頂寮","LANE":" ","ALLEY":" ","HOUSE_NO":"１９７號之５","E_COORD97":183774.79000000001,"N_COORD97":2582043.6099999999,"ADDRESS":"頂寮１９７號之５","OBJECTID":97772},"geometry":{"x":183774.78999999911,"y":2582043.6100000013}},{"attributes":{"ID":97773,"DIS_CODE":0,"TOWNNAME":"後壁區","LI":"頂安里","LIN":"10鄰","STREET":" ","SECT":" ","MAREA":"頂寮","LANE":" ","ALLEY":" ","HOUSE_NO":"２３５號之５","E_COORD97":184149.76000000001,"N_COORD97":2582575.8599999999,"ADDRESS":"頂寮２３５號之５","OBJECTID":97773},"geometry":{"x":184149.76000000071,"y":2582575.8599999994}},{"attributes":{"ID":97774,"DIS_CODE":0,"TOWNNAME":"後壁區","LI":"頂安里","LIN":"10鄰","STREET":" ","SECT":" ","MAREA":"頂寮","LANE":" ","ALLEY":" ","HOUSE_NO":"２８８號之１５","E_COORD97":183520.34,"N_COORD97":2582471.54,"ADDRESS":"頂寮２８８號之１５","OBJECTID":97774},"geometry":{"x":183520.34000000078,"y":2582471.540000001}},{"attributes":{"ID":97775,"DIS_CODE":0,"TOWNNAME":"後壁區","LI":"頂安里","LIN":"10鄰","STREET":" ","SECT":" ","MAREA":"頂寮","LANE":" ","ALLEY":" ","HOUSE_NO":"２９０號之２","E_COORD97":183827.10000000001,"N_COORD97":2582584.8300000001,"ADDRESS":"頂寮２９０號之２","OBJECTID":97775},"geometry":{"x":183827.10000000056,"y":2582584.8300000019}},{"attributes":{"ID":97776,"DIS_CODE":0,"TOWNNAME":"後壁區","LI":"頂安里","LIN":"10鄰","STREET":" ","SECT":" ","MAREA":"頂寮","LANE":" ","ALLEY":" ","HOUSE_NO":"３２０號","E_COORD97":184041.51999999999,"N_COORD97":2582899.3999999999,"ADDRESS":"頂寮３２０號","OBJECTID":97776},"geometry":{"x":184041.52000000048,"y":2582899.4000000041}},{"attributes":{"ID":97777,"DIS_CODE":0,"TOWNNAME":"後壁區","LI":"頂安里","LIN":"10鄰","STREET":" ","SECT":" ","MAREA":"頂寮","LANE":" ","ALLEY":" ","HOUSE_NO":"３２６號","E_COORD97":183928.17999999999,"N_COORD97":2582942.8199999998,"ADDRESS":"頂寮３２６號","OBJECTID":97777},"geometry":{"x":183928.18000000063,"y":2582942.8200000003}},{"attributes":{"ID":97778,"DIS_CODE":0,"TOWNNAME":"後壁區","LI":"頂安里","LIN":"10鄰","STREET":" ","SECT":" ","MAREA":"頂寮","LANE":" ","ALLEY":" ","HOUSE_NO":"３３０號","E_COORD97":183596.94,"N_COORD97":2582964.8100000001,"ADDRESS":"頂寮３３０號","OBJECTID":97778},"geometry":{"x":183596.94000000134,"y":2582964.8100000042}},{"attributes":{"ID":97779,"DIS_CODE":0,"TOWNNAME":"後壁區","LI":"頂安里","LIN":"10鄰","STREET":" ","SECT":" ","MAREA":"頂寮","LANE":" ","ALLEY":" ","HOUSE_NO":"３３５號","E_COORD97":184076.31,"N_COORD97":2583104.5899999999,"ADDRESS":"頂寮３３５號","OBJECTID":97779},"geometry":{"x":184076.31000000052,"y":2583104.5900000036}},{"attributes":{"ID":97780,"DIS_CODE":0,"TOWNNAME":"後壁區","LI":"頂安里","LIN":"10鄰","STREET":" ","SECT":" ","MAREA":"頂寮","LANE":" ","ALLEY":" ","HOUSE_NO":"３４５號","E_COORD97":183897.89000000001,"N_COORD97":2583135.8700000001,"ADDRESS":"頂寮３４５號","OBJECTID":97780},"geometry":{"x":183897.8900000006,"y":2583135.8700000029}},{"attributes":{"ID":97781,"DIS_CODE":0,"TOWNNAME":"白河區","LI":"內角里","LIN":"10鄰","STREET":" ","SECT":" ","MAREA":"內角","LANE":" ","ALLEY":" ","HOUSE_NO":"１４２號","E_COORD97":192539.89000000001,"N_COORD97":2589946.1299999999,"ADDRESS":"內角１４２號","OBJECTID":97781},"geometry":{"x":192539.8900000006,"y":2589946.1300000008}},{"attributes":{"ID":97782,"DIS_CODE":0,"TOWNNAME":"白河區","LI":"內角里","LIN":"10鄰","STREET":" ","SECT":" ","MAREA":"內角","LANE":" ","ALLEY":" ","HOUSE_NO":"１２０之１０號","E_COORD97":192332.10999999999,"N_COORD97":2589438.0299999998,"ADDRESS":"內角１２０之１０號","OBJECTID":97782},"geometry":{"x":192332.1100000022,"y":2589438.0300000012}},{"attributes":{"ID":97783,"DIS_CODE":0,"TOWNNAME":"白河區","LI":"內角里","LIN":"10鄰","STREET":" ","SECT":" ","MAREA":"內角","LANE":" ","ALLEY":" ","HOUSE_NO":"１２０之２０號","E_COORD97":192410.89000000001,"N_COORD97":2589326.98,"ADDRESS":"內角１２０之２０號","OBJECTID":97783},"geometry":{"x":192410.89000000153,"y":2589326.9800000042}},{"attributes":{"ID":97784,"DIS_CODE":0,"TOWNNAME":"白河區","LI":"內角里","LIN":"10鄰","STREET":" ","SECT":" ","MAREA":"內角","LANE":" ","ALLEY":" ","HOUSE_NO":"１２０之３０號","E_COORD97":192180.59,"N_COORD97":2589262.2400000002,"ADDRESS":"內角１２０之３０號","OBJECTID":97784},"geometry":{"x":192180.58999999985,"y":2589262.2400000021}},{"attributes":{"ID":97785,"DIS_CODE":0,"TOWNNAME":"白河區","LI":"內角里","LIN":"10鄰","STREET":" ","SECT":" ","MAREA":"內角","LANE":" ","ALLEY":" ","HOUSE_NO":"１２０之３２號","E_COORD97":192146.59,"N_COORD97":2589291.5299999998,"ADDRESS":"內角１２０之３２號","OBJECTID":97785},"geometry":{"x":192146.58999999985,"y":2589291.5299999975}},{"attributes":{"ID":97786,"DIS_CODE":0,"TOWNNAME":"白河區","LI":"內角里","LIN":"10鄰","STREET":" ","SECT":" ","MAREA":"內角","LANE":" ","ALLEY":" ","HOUSE_NO":"１２０之６號","E_COORD97":192290.98999999999,"N_COORD97":2589419.0299999998,"ADDRESS":"內角１２０之６號","OBJECTID":97786},"geometry":{"x":192290.99000000115,"y":2589419.0299999993}},{"attributes":{"ID":97787,"DIS_CODE":0,"TOWNNAME":"白河區","LI":"內角里","LIN":"10鄰","STREET":" ","SECT":" ","MAREA":"內角","LANE":" ","ALLEY":" ","HOUSE_NO":"１２０之８號","E_COORD97":192296.59,"N_COORD97":2589400.8799999999,"ADDRESS":"內角１２０之８號","OBJECTID":97787},"geometry":{"x":192296.59000000078,"y":2589400.8800000027}},{"attributes":{"ID":97788,"DIS_CODE":0,"TOWNNAME":"白河區","LI":"內角里","LIN":"10鄰","STREET":" ","SECT":" ","MAREA":"內角","LANE":" ","ALLEY":" ","HOUSE_NO":"１２０號","E_COORD97":192293.76999999999,"N_COORD97":2589409.98,"ADDRESS":"內角１２０號","OBJECTID":97788},"geometry":{"x":192293.76999999955,"y":2589409.9800000023}},{"attributes":{"ID":97789,"DIS_CODE":0,"TOWNNAME":"白河區","LI":"內角里","LIN":"10鄰","STREET":" ","SECT":" ","MAREA":"內角","LANE":" ","ALLEY":" ","HOUSE_NO":"１２５之２號","E_COORD97":193229.03,"N_COORD97":2589695.6600000001,"ADDRESS":"內角１２５之２號","OBJECTID":97789},"geometry":{"x":193229.03000000026,"y":2589695.660000002}},{"attributes":{"ID":97790,"DIS_CODE":0,"TOWNNAME":"白河區","LI":"內角里","LIN":"10鄰","STREET":" ","SECT":" ","MAREA":"內角","LANE":" ","ALLEY":" ","HOUSE_NO":"１２５號","E_COORD97":193191.84,"N_COORD97":2589715.27,"ADDRESS":"內角１２５號","OBJECTID":97790},"geometry":{"x":193191.84000000078,"y":2589715.2700000014}},{"attributes":{"ID":97791,"DIS_CODE":0,"TOWNNAME":"白河區","LI":"內角里","LIN":"10鄰","STREET":" ","SECT":" ","MAREA":"內角","LANE":" ","ALLEY":" ","HOUSE_NO":"１２７之２號","E_COORD97":193239.06,"N_COORD97":2589739.6099999999,"ADDRESS":"內角１２７之２號","OBJECTID":97791},"geometry":{"x":193239.06000000052,"y":2589739.6100000013}},{"attributes":{"ID":97792,"DIS_CODE":0,"TOWNNAME":"白河區","LI":"內角里","LIN":"10鄰","STREET":" ","SECT":" ","MAREA":"內角","LANE":" ","ALLEY":" ","HOUSE_NO":"１２７之３號","E_COORD97":193262.64999999999,"N_COORD97":2589811.0099999998,"ADDRESS":"內角１２７之３號","OBJECTID":97792},"geometry":{"x":193262.6500000013,"y":2589811.0100000035}},{"attributes":{"ID":97793,"DIS_CODE":0,"TOWNNAME":"白河區","LI":"內角里","LIN":"10鄰","STREET":" ","SECT":" ","MAREA":"內角","LANE":" ","ALLEY":" ","HOUSE_NO":"１２７之５號","E_COORD97":193130.44,"N_COORD97":2589741.2999999998,"ADDRESS":"內角１２７之５號","OBJECTID":97793},"geometry":{"x":193130.44000000134,"y":2589741.3000000007}},{"attributes":{"ID":97794,"DIS_CODE":0,"TOWNNAME":"白河區","LI":"內角里","LIN":"10鄰","STREET":" ","SECT":" ","MAREA":"內角","LANE":" ","ALLEY":" ","HOUSE_NO":"１２７號","E_COORD97":193443.94,"N_COORD97":2589701.1400000001,"ADDRESS":"內角１２７號","OBJECTID":97794},"geometry":{"x":193443.94000000134,"y":2589701.1400000006}},{"attributes":{"ID":97795,"DIS_CODE":0,"TOWNNAME":"白河區","LI":"內角里","LIN":"10鄰","STREET":" ","SECT":" ","MAREA":"內角","LANE":" ","ALLEY":" ","HOUSE_NO":"１３０號","E_COORD97":192273.66,"N_COORD97":2589841.1099999999,"ADDRESS":"內角１３０號","OBJECTID":97795},"geometry":{"x":192273.66000000015,"y":2589841.1100000013}},{"attributes":{"ID":97796,"DIS_CODE":0,"TOWNNAME":"白河區","LI":"內角里","LIN":"10鄰","STREET":" ","SECT":" ","MAREA":"內角","LANE":" ","ALLEY":" ","HOUSE_NO":"１３５之３號","E_COORD97":192439.98000000001,"N_COORD97":2589930.2799999998,"ADDRESS":"內角１３５之３號","OBJECTID":97796},"geometry":{"x":192439.98000000231,"y":2589930.2799999993}},{"attributes":{"ID":97797,"DIS_CODE":0,"TOWNNAME":"楠西區","LI":"密枝里","LIN":" ","STREET":" ","SECT":" ","MAREA":"密枝","LANE":" ","ALLEY":" ","HOUSE_NO":"８３號","E_COORD97":198971.57000000001,"N_COORD97":2568839.2799999998,"ADDRESS":"密枝８３號","OBJECTID":97797},"geometry":{"x":198971.5700000003,"y":2568839.2800000031}},{"attributes":{"ID":97798,"DIS_CODE":0,"TOWNNAME":"白河區","LI":"內角里","LIN":"10鄰","STREET":" ","SECT":" ","MAREA":"內角","LANE":" ","ALLEY":" ","HOUSE_NO":"１３５號","E_COORD97":192468.56,"N_COORD97":2589962.52,"ADDRESS":"內角１３５號","OBJECTID":97798},"geometry":{"x":192468.55999999959,"y":2589962.5199999996}},{"attributes":{"ID":97799,"DIS_CODE":0,"TOWNNAME":"白河區","LI":"內角里","LIN":"10鄰","STREET":" ","SECT":" ","MAREA":"內角","LANE":" ","ALLEY":" ","HOUSE_NO":"１３７號","E_COORD97":192481.85000000001,"N_COORD97":2589974.0699999998,"ADDRESS":"內角１３７號","OBJECTID":97799},"geometry":{"x":192481.84999999963,"y":2589974.070000004}},{"attributes":{"ID":97800,"DIS_CODE":0,"TOWNNAME":"白河區","LI":"內角里","LIN":"10鄰","STREET":" ","SECT":" ","MAREA":"內角","LANE":" ","ALLEY":" ","HOUSE_NO":"１３８之２號","E_COORD97":192521.32999999999,"N_COORD97":2590053.98,"ADDRESS":"內角１３８之２號","OBJECTID":97800},"geometry":{"x":192521.33000000007,"y":2590053.9800000023}}]}