{"displayFieldName":"TOWNNAME","fieldAliases":{"ID":"ID","DIS_CODE":"DIS_CODE","TOWNNAME":"TOWNNAME","LI":"LI","LIN":"LIN","STREET":"STREET","SECT":"SECT","MAREA":"MAREA","LANE":"LANE","ALLEY":"ALLEY","HOUSE_NO":"HOUSE_NO","E_COORD97":"E_COORD97","N_COORD97":"N_COORD97","ADDRESS":"ADDRESS","OBJECTID":"OBJECTID"},"geometryType":"esriGeometryPoint","spatialReference":{"wkid":102443,"latestWkid":3826},"fields":[{"name":"ID","type":"esriFieldTypeDouble","alias":"ID"},{"name":"DIS_CODE","type":"esriFieldTypeInteger","alias":"DIS_CODE"},{"name":"TOWNNAME","type":"esriFieldTypeString","alias":"TOWNNAME","length":8},{"name":"LI","type":"esriFieldTypeString","alias":"LI","length":8},{"name":"LIN","type":"esriFieldTypeString","alias":"LIN","length":12},{"name":"STREET","type":"esriFieldTypeString","alias":"STREET","length":20},{"name":"SECT","type":"esriFieldTypeString","alias":"SECT","length":8},{"name":"MAREA","type":"esriFieldTypeString","alias":"MAREA","length":12},{"name":"LANE","type":"esriFieldTypeString","alias":"LANE","length":10},{"name":"ALLEY","type":"esriFieldTypeString","alias":"ALLEY","length":10},{"name":"HOUSE_NO","type":"esriFieldTypeString","alias":"HOUSE_NO","length":20},{"name":"E_COORD97","type":"esriFieldTypeDouble","alias":"E_COORD97"},{"name":"N_COORD97","type":"esriFieldTypeDouble","alias":"N_COORD97"},{"name":"ADDRESS","type":"esriFieldTypeString","alias":"ADDRESS","length":50},{"name":"OBJECTID","type":"esriFieldTypeOID","alias":"OBJECTID"}],"features":[{"attributes":{"ID":439626,"DIS_CODE":0,"TOWNNAME":"新化區","LI":"豐榮里","LIN":"13鄰","STREET":"民治路","SECT":" ","MAREA":" ","LANE":"３３巷","ALLEY":" ","HOUSE_NO":"２５號","E_COORD97":178677.41,"N_COORD97":2548033.25,"ADDRESS":"民治路３３巷２５號","OBJECTID":439601},"geometry":{"x":178677.41000000108,"y":2548033.2500000037}},{"attributes":{"ID":439627,"DIS_CODE":0,"TOWNNAME":"官田區","LI":"隆本里","LIN":"29鄰","STREET":"中山路","SECT":"二段","MAREA":" ","LANE":"５８巷","ALLEY":" ","HOUSE_NO":"４１號","E_COORD97":179060.66,"N_COORD97":2566077.1899999999,"ADDRESS":"中山路二段５８巷４１號","OBJECTID":439602},"geometry":{"x":179060.66000000108,"y":2566077.1900000013}},{"attributes":{"ID":439628,"DIS_CODE":0,"TOWNNAME":"官田區","LI":"隆本里","LIN":"29鄰","STREET":"中山路","SECT":"二段","MAREA":" ","LANE":"５８巷","ALLEY":" ","HOUSE_NO":"６號","E_COORD97":179053.23999999999,"N_COORD97":2566003.9700000002,"ADDRESS":"中山路二段５８巷６號","OBJECTID":439603},"geometry":{"x":179053.24000000115,"y":2566003.9700000007}},{"attributes":{"ID":439629,"DIS_CODE":0,"TOWNNAME":"官田區","LI":"隆本里","LIN":"4鄰","STREET":"中華路","SECT":"二段","MAREA":" ","LANE":"１０８巷","ALLEY":" ","HOUSE_NO":"１６號","E_COORD97":180117.10000000001,"N_COORD97":2566520.0099999998,"ADDRESS":"中華路二段１０８巷１６號","OBJECTID":439604},"geometry":{"x":180117.09999999963,"y":2566520.0100000016}},{"attributes":{"ID":439630,"DIS_CODE":0,"TOWNNAME":"官田區","LI":"隆本里","LIN":"4鄰","STREET":"中華路","SECT":"二段","MAREA":" ","LANE":"１０８巷","ALLEY":" ","HOUSE_NO":"１８號","E_COORD97":180123.63,"N_COORD97":2566522.48,"ADDRESS":"中華路二段１０８巷１８號","OBJECTID":439605},"geometry":{"x":180123.62999999989,"y":2566522.4800000004}},{"attributes":{"ID":439631,"DIS_CODE":0,"TOWNNAME":"官田區","LI":"隆本里","LIN":"4鄰","STREET":"中華路","SECT":"二段","MAREA":" ","LANE":"１０８巷","ALLEY":" ","HOUSE_NO":"２０號","E_COORD97":180128.53,"N_COORD97":2566523.3500000001,"ADDRESS":"中華路二段１０８巷２０號","OBJECTID":439606},"geometry":{"x":180128.53000000026,"y":2566523.3500000034}},{"attributes":{"ID":439632,"DIS_CODE":0,"TOWNNAME":"官田區","LI":"隆本里","LIN":"4鄰","STREET":"中華路","SECT":"二段","MAREA":" ","LANE":"１０８巷","ALLEY":" ","HOUSE_NO":"２２號","E_COORD97":180132.79999999999,"N_COORD97":2566524.3500000001,"ADDRESS":"中華路二段１０８巷２２號","OBJECTID":439607},"geometry":{"x":180132.79999999981,"y":2566524.3500000015}},{"attributes":{"ID":439633,"DIS_CODE":0,"TOWNNAME":"官田區","LI":"隆本里","LIN":"4鄰","STREET":"中華路","SECT":"二段","MAREA":" ","LANE":"１０８巷","ALLEY":" ","HOUSE_NO":"２６號","E_COORD97":180136.92999999999,"N_COORD97":2566524.8599999999,"ADDRESS":"中華路二段１０８巷２６號","OBJECTID":439608},"geometry":{"x":180136.9299999997,"y":2566524.8599999994}},{"attributes":{"ID":439634,"DIS_CODE":0,"TOWNNAME":"白河區","LI":"外角里","LIN":"4鄰","STREET":"開明街","SECT":" ","MAREA":" ","LANE":"１２７巷","ALLEY":" ","HOUSE_NO":"１０號","E_COORD97":190599.10999999999,"N_COORD97":2583171.3100000001,"ADDRESS":"開明街１２７巷１０號","OBJECTID":439609},"geometry":{"x":190599.11000000034,"y":2583171.3100000042}},{"attributes":{"ID":439635,"DIS_CODE":0,"TOWNNAME":"白河區","LI":"外角里","LIN":"4鄰","STREET":"開明街","SECT":" ","MAREA":" ","LANE":"１２７巷","ALLEY":" ","HOUSE_NO":"１１號","E_COORD97":190587.26999999999,"N_COORD97":2583149.3500000001,"ADDRESS":"開明街１２７巷１１號","OBJECTID":439610},"geometry":{"x":190587.26999999955,"y":2583149.3499999996}},{"attributes":{"ID":439636,"DIS_CODE":0,"TOWNNAME":"白河區","LI":"外角里","LIN":"4鄰","STREET":"開明街","SECT":" ","MAREA":" ","LANE":"１２７巷","ALLEY":" ","HOUSE_NO":"１２號","E_COORD97":190593.79999999999,"N_COORD97":2583170.6699999999,"ADDRESS":"開明街１２７巷１２號","OBJECTID":439611},"geometry":{"x":190593.79999999981,"y":2583170.6699999999}},{"attributes":{"ID":439637,"DIS_CODE":0,"TOWNNAME":"西港區","LI":"慶安里","LIN":"25鄰","STREET":"慶安路","SECT":" ","MAREA":" ","LANE":"５９巷","ALLEY":" ","HOUSE_NO":"６號","E_COORD97":168260.35000000001,"N_COORD97":2557856.4500000002,"ADDRESS":"慶安路５９巷６號","OBJECTID":439612},"geometry":{"x":168260.35000000056,"y":2557856.450000003}},{"attributes":{"ID":439638,"DIS_CODE":0,"TOWNNAME":"白河區","LI":"外角里","LIN":"4鄰","STREET":"開明街","SECT":" ","MAREA":" ","LANE":"１２７巷","ALLEY":" ","HOUSE_NO":"１３號","E_COORD97":190583,"N_COORD97":2583149.2599999998,"ADDRESS":"開明街１２７巷１３號","OBJECTID":439613},"geometry":{"x":190583.00000000186,"y":2583149.2599999998}},{"attributes":{"ID":439639,"DIS_CODE":0,"TOWNNAME":"白河區","LI":"外角里","LIN":"4鄰","STREET":"開明街","SECT":" ","MAREA":" ","LANE":"１２７巷","ALLEY":" ","HOUSE_NO":"１４號","E_COORD97":190587.62,"N_COORD97":2583169.6600000001,"ADDRESS":"開明街１２７巷１４號","OBJECTID":439614},"geometry":{"x":190587.62000000104,"y":2583169.660000002}},{"attributes":{"ID":439640,"DIS_CODE":0,"TOWNNAME":"白河區","LI":"外角里","LIN":"4鄰","STREET":"開明街","SECT":" ","MAREA":" ","LANE":"１２７巷","ALLEY":" ","HOUSE_NO":"１５號","E_COORD97":190578.73999999999,"N_COORD97":2583149.3799999999,"ADDRESS":"開明街１２７巷１５號","OBJECTID":439615},"geometry":{"x":190578.74000000115,"y":2583149.3800000008}},{"attributes":{"ID":439641,"DIS_CODE":0,"TOWNNAME":"白河區","LI":"外角里","LIN":"4鄰","STREET":"開明街","SECT":" ","MAREA":" ","LANE":"１２７巷","ALLEY":" ","HOUSE_NO":"１６號","E_COORD97":190582.95000000001,"N_COORD97":2583167.1699999999,"ADDRESS":"開明街１２７巷１６號","OBJECTID":439616},"geometry":{"x":190582.95000000019,"y":2583167.1699999999}},{"attributes":{"ID":439642,"DIS_CODE":0,"TOWNNAME":"白河區","LI":"外角里","LIN":"4鄰","STREET":"開明街","SECT":" ","MAREA":" ","LANE":"１２７巷","ALLEY":" ","HOUSE_NO":"１７號","E_COORD97":190575.51999999999,"N_COORD97":2583149.3900000001,"ADDRESS":"開明街１２７巷１７號","OBJECTID":439617},"geometry":{"x":190575.51999999862,"y":2583149.3900000006}},{"attributes":{"ID":439643,"DIS_CODE":0,"TOWNNAME":"白河區","LI":"外角里","LIN":"4鄰","STREET":"開明街","SECT":" ","MAREA":" ","LANE":"１２７巷","ALLEY":" ","HOUSE_NO":"１８號","E_COORD97":190574.63,"N_COORD97":2583165.04,"ADDRESS":"開明街１２７巷１８號","OBJECTID":439618},"geometry":{"x":190574.62999999989,"y":2583165.0400000028}},{"attributes":{"ID":439644,"DIS_CODE":0,"TOWNNAME":"白河區","LI":"外角里","LIN":"4鄰","STREET":"開明街","SECT":" ","MAREA":" ","LANE":"１２７巷","ALLEY":" ","HOUSE_NO":"１９號","E_COORD97":190571.92000000001,"N_COORD97":2583149.6899999999,"ADDRESS":"開明街１２７巷１９號","OBJECTID":439619},"geometry":{"x":190571.92000000086,"y":2583149.6899999995}},{"attributes":{"ID":439645,"DIS_CODE":0,"TOWNNAME":"白河區","LI":"外角里","LIN":"4鄰","STREET":"開明街","SECT":" ","MAREA":" ","LANE":"１７５巷","ALLEY":" ","HOUSE_NO":"１０號","E_COORD97":190555.70999999999,"N_COORD97":2583119.6899999999,"ADDRESS":"開明街１７５巷１０號","OBJECTID":439620},"geometry":{"x":190555.70999999996,"y":2583119.6899999995}},{"attributes":{"ID":439646,"DIS_CODE":0,"TOWNNAME":"白河區","LI":"外角里","LIN":"4鄰","STREET":"開明街","SECT":" ","MAREA":" ","LANE":"１７５巷","ALLEY":" ","HOUSE_NO":"１１號","E_COORD97":190559.92999999999,"N_COORD97":2583119.5899999999,"ADDRESS":"開明街１７５巷１１號","OBJECTID":439621},"geometry":{"x":190559.93000000063,"y":2583119.5900000017}},{"attributes":{"ID":439647,"DIS_CODE":0,"TOWNNAME":"白河區","LI":"外角里","LIN":"4鄰","STREET":"開明街","SECT":" ","MAREA":" ","LANE":"１７５巷","ALLEY":" ","HOUSE_NO":"１２號","E_COORD97":190563.84,"N_COORD97":2583121.5299999998,"ADDRESS":"開明街１７５巷１２號","OBJECTID":439622},"geometry":{"x":190563.84000000078,"y":2583121.5300000012}},{"attributes":{"ID":439648,"DIS_CODE":0,"TOWNNAME":"白河區","LI":"外角里","LIN":"4鄰","STREET":"開明街","SECT":" ","MAREA":" ","LANE":"１７５巷","ALLEY":" ","HOUSE_NO":"１３號","E_COORD97":190568.31,"N_COORD97":2583121.5099999998,"ADDRESS":"開明街１７５巷１３號","OBJECTID":439623},"geometry":{"x":190568.30999999959,"y":2583121.5099999998}},{"attributes":{"ID":439649,"DIS_CODE":0,"TOWNNAME":"白河區","LI":"白河里","LIN":"15鄰","STREET":"開明街","SECT":" ","MAREA":" ","LANE":"１９３巷","ALLEY":" ","HOUSE_NO":"１０號","E_COORD97":190392.70000000001,"N_COORD97":2583160.1099999999,"ADDRESS":"開明街１９３巷１０號","OBJECTID":439624},"geometry":{"x":190392.70000000112,"y":2583160.1099999994}},{"attributes":{"ID":439650,"DIS_CODE":0,"TOWNNAME":"白河區","LI":"白河里","LIN":"15鄰","STREET":"開明街","SECT":" ","MAREA":" ","LANE":"１９３巷","ALLEY":" ","HOUSE_NO":"１３號","E_COORD97":190385.26000000001,"N_COORD97":2583145.5499999998,"ADDRESS":"開明街１９３巷１３號","OBJECTID":439625},"geometry":{"x":190385.25999999978,"y":2583145.5500000007}},{"attributes":{"ID":439651,"DIS_CODE":0,"TOWNNAME":"白河區","LI":"白河里","LIN":"15鄰","STREET":"開明街","SECT":" ","MAREA":" ","LANE":"１９３巷","ALLEY":" ","HOUSE_NO":"１４號","E_COORD97":190384.20000000001,"N_COORD97":2583138.8999999999,"ADDRESS":"開明街１９３巷１４號","OBJECTID":439626},"geometry":{"x":190384.20000000112,"y":2583138.9000000004}},{"attributes":{"ID":439652,"DIS_CODE":0,"TOWNNAME":"白河區","LI":"庄內里","LIN":"4鄰","STREET":"新興路","SECT":" ","MAREA":" ","LANE":"３２４巷","ALLEY":" ","HOUSE_NO":"１號","E_COORD97":190877.04000000001,"N_COORD97":2583436.5699999998,"ADDRESS":"新興路３２４巷１號","OBJECTID":439627},"geometry":{"x":190877.04000000004,"y":2583436.5700000003}},{"attributes":{"ID":439653,"DIS_CODE":0,"TOWNNAME":"白河區","LI":"庄內里","LIN":"4鄰","STREET":"新興路","SECT":" ","MAREA":" ","LANE":"３２４巷","ALLEY":" ","HOUSE_NO":"３號","E_COORD97":190877.88,"N_COORD97":2583441.79,"ADDRESS":"新興路３２４巷３號","OBJECTID":439628},"geometry":{"x":190877.87999999989,"y":2583441.790000001}},{"attributes":{"ID":439654,"DIS_CODE":0,"TOWNNAME":"白河區","LI":"庄內里","LIN":"4鄰","STREET":"新興路","SECT":" ","MAREA":" ","LANE":"３２４巷","ALLEY":" ","HOUSE_NO":"５號","E_COORD97":190878.94,"N_COORD97":2583446.5800000001,"ADDRESS":"新興路３２４巷５號","OBJECTID":439629},"geometry":{"x":190878.94000000227,"y":2583446.5800000001}},{"attributes":{"ID":439655,"DIS_CODE":0,"TOWNNAME":"白河區","LI":"庄內里","LIN":"4鄰","STREET":"新興路","SECT":" ","MAREA":" ","LANE":"３２４巷","ALLEY":" ","HOUSE_NO":"７號","E_COORD97":190879.29999999999,"N_COORD97":2583451.0899999999,"ADDRESS":"新興路３２４巷７號","OBJECTID":439630},"geometry":{"x":190879.30000000075,"y":2583451.0900000017}},{"attributes":{"ID":439656,"DIS_CODE":0,"TOWNNAME":"西港區","LI":"慶安里","LIN":"13鄰","STREET":"進學街","SECT":" ","MAREA":" ","LANE":"６１巷","ALLEY":" ","HOUSE_NO":"２９號","E_COORD97":168116.01999999999,"N_COORD97":2557978.4199999999,"ADDRESS":"進學街６１巷２９號","OBJECTID":439631},"geometry":{"x":168116.02000000142,"y":2557978.4199999999}},{"attributes":{"ID":439657,"DIS_CODE":0,"TOWNNAME":"西港區","LI":"慶安里","LIN":"13鄰","STREET":"進學街","SECT":" ","MAREA":" ","LANE":"６１巷","ALLEY":" ","HOUSE_NO":"３號","E_COORD97":168114.95000000001,"N_COORD97":2558030.6299999999,"ADDRESS":"進學街６１巷３號","OBJECTID":439632},"geometry":{"x":168114.95000000019,"y":2558030.629999999}},{"attributes":{"ID":439658,"DIS_CODE":0,"TOWNNAME":"永康區","LI":"東灣里","LIN":"26鄰","STREET":"大灣一街","SECT":" ","MAREA":" ","LANE":"２４２巷","ALLEY":" ","HOUSE_NO":"１８號","E_COORD97":174914.14000000001,"N_COORD97":2544582.0899999999,"ADDRESS":"大灣一街２４２巷１８號","OBJECTID":439633},"geometry":{"x":174914.13999999966,"y":2544582.0899999999}},{"attributes":{"ID":439659,"DIS_CODE":0,"TOWNNAME":"永康區","LI":"東灣里","LIN":"4鄰","STREET":"大灣路","SECT":" ","MAREA":" ","LANE":"４３６巷","ALLEY":" ","HOUSE_NO":"６６號","E_COORD97":174620.75,"N_COORD97":2544982.75,"ADDRESS":"大灣路４３６巷６６號","OBJECTID":439634},"geometry":{"x":174620.75,"y":2544982.7500000019}},{"attributes":{"ID":439660,"DIS_CODE":0,"TOWNNAME":"永康區","LI":"東灣里","LIN":"4鄰","STREET":"大灣路","SECT":" ","MAREA":" ","LANE":"４３６巷","ALLEY":" ","HOUSE_NO":"３８號","E_COORD97":174686.19,"N_COORD97":2544956.96,"ADDRESS":"大灣路４３６巷３８號","OBJECTID":439635},"geometry":{"x":174686.19000000041,"y":2544956.9600000009}},{"attributes":{"ID":439661,"DIS_CODE":0,"TOWNNAME":"永康區","LI":"烏竹里","LIN":"4鄰","STREET":"烏竹街","SECT":" ","MAREA":" ","LANE":"６２巷","ALLEY":" ","HOUSE_NO":"４１號","E_COORD97":174566.44,"N_COORD97":2549370.9900000002,"ADDRESS":"烏竹街６２巷４１號","OBJECTID":439636},"geometry":{"x":174566.44000000134,"y":2549370.9899999984}},{"attributes":{"ID":439662,"DIS_CODE":0,"TOWNNAME":"永康區","LI":"東橋里","LIN":"20鄰","STREET":"中山南路","SECT":" ","MAREA":" ","LANE":"４７１巷","ALLEY":" ","HOUSE_NO":"９號","E_COORD97":172947.67999999999,"N_COORD97":2547122.4900000002,"ADDRESS":"中山南路４７１巷９號","OBJECTID":439637},"geometry":{"x":172947.6799999997,"y":2547122.4900000002}},{"attributes":{"ID":439663,"DIS_CODE":0,"TOWNNAME":"永康區","LI":"南灣里","LIN":"20鄰","STREET":"立興街","SECT":" ","MAREA":" ","LANE":"１７８巷","ALLEY":" ","HOUSE_NO":"２之１號","E_COORD97":174282.73999999999,"N_COORD97":2544598.75,"ADDRESS":"立興街１７８巷２之１號","OBJECTID":439638},"geometry":{"x":174282.74000000115,"y":2544598.7499999981}},{"attributes":{"ID":439664,"DIS_CODE":0,"TOWNNAME":"永康區","LI":"埔園里","LIN":"32鄰","STREET":"龍埔街","SECT":" ","MAREA":" ","LANE":"２８３巷","ALLEY":" ","HOUSE_NO":"２２號","E_COORD97":174027.82000000001,"N_COORD97":2548259.4900000002,"ADDRESS":"龍埔街２８３巷２２號","OBJECTID":439639},"geometry":{"x":174027.82000000123,"y":2548259.4900000021}},{"attributes":{"ID":439665,"DIS_CODE":0,"TOWNNAME":"永康區","LI":"埔園里","LIN":"32鄰","STREET":"龍埔街","SECT":" ","MAREA":" ","LANE":"２８３巷","ALLEY":" ","HOUSE_NO":"４２號","E_COORD97":174023.75,"N_COORD97":2548227.2400000002,"ADDRESS":"龍埔街２８３巷４２號","OBJECTID":439640},"geometry":{"x":174023.75,"y":2548227.2400000021}},{"attributes":{"ID":439666,"DIS_CODE":0,"TOWNNAME":"永康區","LI":"南灣里","LIN":"20鄰","STREET":"大灣路","SECT":" ","MAREA":" ","LANE":"７６４巷","ALLEY":" ","HOUSE_NO":"１０２號","E_COORD97":174246.81,"N_COORD97":2544705.5800000001,"ADDRESS":"大灣路７６４巷１０２號","OBJECTID":439641},"geometry":{"x":174246.80999999959,"y":2544705.5800000019}},{"attributes":{"ID":439667,"DIS_CODE":0,"TOWNNAME":"永康區","LI":"埔園里","LIN":"39鄰","STREET":"聖龍街","SECT":" ","MAREA":" ","LANE":"１７９巷","ALLEY":" ","HOUSE_NO":"２３號","E_COORD97":174297.92999999999,"N_COORD97":2547912.6200000001,"ADDRESS":"聖龍街１７９巷２３號","OBJECTID":439642},"geometry":{"x":174297.93000000063,"y":2547912.620000001}},{"attributes":{"ID":439668,"DIS_CODE":0,"TOWNNAME":"永康區","LI":"南灣里","LIN":"20鄰","STREET":"立興街","SECT":" ","MAREA":" ","LANE":"１７６巷","ALLEY":" ","HOUSE_NO":"３號","E_COORD97":174267.32999999999,"N_COORD97":2544650.25,"ADDRESS":"立興街１７６巷３號","OBJECTID":439643},"geometry":{"x":174267.33000000007,"y":2544650.2500000019}},{"attributes":{"ID":439669,"DIS_CODE":0,"TOWNNAME":"永康區","LI":"埔園里","LIN":"26鄰","STREET":"自強路","SECT":" ","MAREA":" ","LANE":"４１７巷","ALLEY":" ","HOUSE_NO":"３７號","E_COORD97":173735.85000000001,"N_COORD97":2548064.9700000002,"ADDRESS":"自強路４１７巷３７號","OBJECTID":439644},"geometry":{"x":173735.85000000056,"y":2548064.9700000007}},{"attributes":{"ID":439670,"DIS_CODE":0,"TOWNNAME":"永康區","LI":"埔園里","LIN":"32鄰","STREET":"龍埔街","SECT":" ","MAREA":" ","LANE":"２９１巷","ALLEY":" ","HOUSE_NO":"４號","E_COORD97":173952.53,"N_COORD97":2548293.5,"ADDRESS":"龍埔街２９１巷４號","OBJECTID":439645},"geometry":{"x":173952.53000000026,"y":2548293.5000000019}},{"attributes":{"ID":439671,"DIS_CODE":0,"TOWNNAME":"將軍區","LI":"廣山里","LIN":"9鄰","STREET":" ","SECT":" ","MAREA":"廣山","LANE":" ","ALLEY":" ","HOUSE_NO":"８６號","E_COORD97":159468.16811599999,"N_COORD97":2568861.7513799998,"ADDRESS":"廣山８６號","OBJECTID":439646},"geometry":{"x":159468.16811599955,"y":2568861.7513800003}},{"attributes":{"ID":439672,"DIS_CODE":0,"TOWNNAME":"永康區","LI":"埔園里","LIN":"20鄰","STREET":"四維街","SECT":" ","MAREA":" ","LANE":"１０２巷","ALLEY":" ","HOUSE_NO":"３２號","E_COORD97":173451.70999999999,"N_COORD97":2548231.8799999999,"ADDRESS":"四維街１０２巷３２號","OBJECTID":439647},"geometry":{"x":173451.71000000183,"y":2548231.8800000008}},{"attributes":{"ID":439673,"DIS_CODE":0,"TOWNNAME":"永康區","LI":"埔園里","LIN":"32鄰","STREET":"龍埔街","SECT":" ","MAREA":" ","LANE":"２８３巷","ALLEY":" ","HOUSE_NO":"１３號","E_COORD97":174044.04000000001,"N_COORD97":2548265.7400000002,"ADDRESS":"龍埔街２８３巷１３號","OBJECTID":439648},"geometry":{"x":174044.04000000004,"y":2548265.7400000021}},{"attributes":{"ID":439674,"DIS_CODE":0,"TOWNNAME":"永康區","LI":"南灣里","LIN":"32鄰","STREET":"大灣一街","SECT":" ","MAREA":" ","LANE":"４５巷","ALLEY":" ","HOUSE_NO":"２９號","E_COORD97":174365.03,"N_COORD97":2544841.0299999998,"ADDRESS":"大灣一街４５巷２９號","OBJECTID":439649},"geometry":{"x":174365.03000000026,"y":2544841.0300000012}},{"attributes":{"ID":439675,"DIS_CODE":0,"TOWNNAME":"永康區","LI":"南灣里","LIN":"4鄰","STREET":"大灣路","SECT":" ","MAREA":" ","LANE":"５３７巷","ALLEY":" ","HOUSE_NO":"１號","E_COORD97":174469.82999999999,"N_COORD97":2544563.8199999998,"ADDRESS":"大灣路５３７巷１號","OBJECTID":439650},"geometry":{"x":174469.83000000194,"y":2544563.8200000003}},{"attributes":{"ID":439676,"DIS_CODE":0,"TOWNNAME":"永康區","LI":"東橋里","LIN":"5鄰","STREET":"中山南路","SECT":" ","MAREA":" ","LANE":"１９５巷","ALLEY":" ","HOUSE_NO":"４０號","E_COORD97":171431.12,"N_COORD97":2546452.7400000002,"ADDRESS":"中山南路１９５巷４０號","OBJECTID":439651},"geometry":{"x":171431.12000000011,"y":2546452.7400000002}},{"attributes":{"ID":439677,"DIS_CODE":0,"TOWNNAME":"永康區","LI":"埔園里","LIN":"4鄰","STREET":"埔聖街","SECT":" ","MAREA":" ","LANE":"８１巷","ALLEY":" ","HOUSE_NO":"６７號","E_COORD97":174002.76999999999,"N_COORD97":2547787.1200000001,"ADDRESS":"埔聖街８１巷６７號","OBJECTID":439652},"geometry":{"x":174002.76999999955,"y":2547787.120000001}},{"attributes":{"ID":439678,"DIS_CODE":0,"TOWNNAME":"永康區","LI":"埔園里","LIN":"38鄰","STREET":"龍國街","SECT":" ","MAREA":" ","LANE":"１９８巷","ALLEY":" ","HOUSE_NO":"８號","E_COORD97":174328.01999999999,"N_COORD97":2548028.96,"ADDRESS":"龍國街１９８巷８號","OBJECTID":439653},"geometry":{"x":174328.02000000048,"y":2548028.9600000009}},{"attributes":{"ID":439679,"DIS_CODE":0,"TOWNNAME":"永康區","LI":"西勢里","LIN":"26鄰","STREET":"廣興街","SECT":" ","MAREA":" ","LANE":"２６巷","ALLEY":" ","HOUSE_NO":"２３號","E_COORD97":175947.82000000001,"N_COORD97":2546454.25,"ADDRESS":"廣興街２６巷２３號","OBJECTID":439654},"geometry":{"x":175947.8200000003,"y":2546454.2500000019}},{"attributes":{"ID":439680,"DIS_CODE":0,"TOWNNAME":"永康區","LI":"西灣里","LIN":"4鄰","STREET":"大灣五街","SECT":" ","MAREA":" ","LANE":"６９巷","ALLEY":" ","HOUSE_NO":"１號","E_COORD97":174698.07999999999,"N_COORD97":2545251.1499999999,"ADDRESS":"大灣五街６９巷１號","OBJECTID":439655},"geometry":{"x":174698.08000000007,"y":2545251.1500000041}},{"attributes":{"ID":439681,"DIS_CODE":0,"TOWNNAME":"永康區","LI":"西勢里","LIN":"25鄰","STREET":"廣興街","SECT":" ","MAREA":" ","LANE":"２６巷","ALLEY":" ","HOUSE_NO":"３２號","E_COORD97":175935.17000000001,"N_COORD97":2546448,"ADDRESS":"廣興街２６巷３２號","OBJECTID":439656},"geometry":{"x":175935.16999999993,"y":2546448}},{"attributes":{"ID":439682,"DIS_CODE":0,"TOWNNAME":"永康區","LI":"西灣里","LIN":"38鄰","STREET":"大勇路","SECT":" ","MAREA":" ","LANE":"１３５巷","ALLEY":" ","HOUSE_NO":"１９號","E_COORD97":174196.57999999999,"N_COORD97":2545631.1099999999,"ADDRESS":"大勇路１３５巷１９號","OBJECTID":439657},"geometry":{"x":174196.58000000007,"y":2545631.1100000013}},{"attributes":{"ID":439683,"DIS_CODE":0,"TOWNNAME":"永康區","LI":"西勢里","LIN":"20鄰","STREET":"富強路","SECT":"一段","MAREA":" ","LANE":"２２７巷","ALLEY":" ","HOUSE_NO":"２９號","E_COORD97":175574.14000000001,"N_COORD97":2546509.0800000001,"ADDRESS":"富強路一段２２７巷２９號","OBJECTID":439658},"geometry":{"x":175574.14000000153,"y":2546509.0800000038}},{"attributes":{"ID":439684,"DIS_CODE":0,"TOWNNAME":"永康區","LI":"西勢里","LIN":"26鄰","STREET":"廣興街","SECT":" ","MAREA":" ","LANE":"３８巷","ALLEY":" ","HOUSE_NO":"１６號","E_COORD97":175957.07999999999,"N_COORD97":2546500.4900000002,"ADDRESS":"廣興街３８巷１６號","OBJECTID":439659},"geometry":{"x":175957.08000000101,"y":2546500.4900000021}},{"attributes":{"ID":439685,"DIS_CODE":0,"TOWNNAME":"永康區","LI":"西灣里","LIN":"40鄰","STREET":"大勇路","SECT":" ","MAREA":" ","LANE":"２３巷","ALLEY":" ","HOUSE_NO":"９號","E_COORD97":174173.10999999999,"N_COORD97":2545400.2599999998,"ADDRESS":"大勇路２３巷９號","OBJECTID":439660},"geometry":{"x":174173.1099999994,"y":2545400.2600000016}},{"attributes":{"ID":439686,"DIS_CODE":0,"TOWNNAME":"東區","LI":"裕農里","LIN":"20鄰","STREET":"裕豐街","SECT":" ","MAREA":" ","LANE":"２２２巷","ALLEY":" ","HOUSE_NO":"３１號","E_COORD97":170856.70999999999,"N_COORD97":2543223.6200000001,"ADDRESS":"裕豐街２２２巷３１號","OBJECTID":439661},"geometry":{"x":170856.71000000089,"y":2543223.620000001}},{"attributes":{"ID":439687,"DIS_CODE":0,"TOWNNAME":"東區","LI":"裕農里","LIN":"20鄰","STREET":"裕豐街","SECT":" ","MAREA":" ","LANE":"２２２巷","ALLEY":" ","HOUSE_NO":"３７號","E_COORD97":170856.94,"N_COORD97":2543234.77,"ADDRESS":"裕豐街２２２巷３７號","OBJECTID":439662},"geometry":{"x":170856.94000000227,"y":2543234.7699999996}},{"attributes":{"ID":439688,"DIS_CODE":0,"TOWNNAME":"東區","LI":"大智里","LIN":"4鄰","STREET":"生產路","SECT":" ","MAREA":" ","LANE":"５３４巷","ALLEY":" ","HOUSE_NO":"３５號","E_COORD97":171103.69,"N_COORD97":2540569.6499999999,"ADDRESS":"生產路５３４巷３５號","OBJECTID":439663},"geometry":{"x":171103.69000000041,"y":2540569.6500000022}},{"attributes":{"ID":439689,"DIS_CODE":0,"TOWNNAME":"東區","LI":"大智里","LIN":"4鄰","STREET":"生產路","SECT":" ","MAREA":" ","LANE":"５３４巷","ALLEY":" ","HOUSE_NO":"４１號","E_COORD97":171104.17999999999,"N_COORD97":2540553.6000000001,"ADDRESS":"生產路５３４巷４１號","OBJECTID":439664},"geometry":{"x":171104.18000000063,"y":2540553.5999999996}},{"attributes":{"ID":439690,"DIS_CODE":0,"TOWNNAME":"東區","LI":"東光里","LIN":"15鄰","STREET":"東光路","SECT":"一段","MAREA":" ","LANE":"１０２巷","ALLEY":" ","HOUSE_NO":"５號","E_COORD97":171225.28,"N_COORD97":2543835.2999999998,"ADDRESS":"東光路一段１０２巷５號","OBJECTID":439665},"geometry":{"x":171225.28000000026,"y":2543835.3000000007}},{"attributes":{"ID":439691,"DIS_CODE":0,"TOWNNAME":"東區","LI":"東光里","LIN":"15鄰","STREET":"東光路","SECT":"一段","MAREA":" ","LANE":"１０２巷","ALLEY":" ","HOUSE_NO":"７號","E_COORD97":171231.14999999999,"N_COORD97":2543834.6499999999,"ADDRESS":"東光路一段１０２巷７號","OBJECTID":439666},"geometry":{"x":171231.15000000037,"y":2543834.6500000022}},{"attributes":{"ID":439692,"DIS_CODE":0,"TOWNNAME":"東區","LI":"東光里","LIN":"15鄰","STREET":"東光路","SECT":"一段","MAREA":" ","LANE":"１０２巷","ALLEY":" ","HOUSE_NO":"１７號","E_COORD97":171261.13,"N_COORD97":2543832.2000000002,"ADDRESS":"東光路一段１０２巷１７號","OBJECTID":439667},"geometry":{"x":171261.12999999989,"y":2543832.200000003}},{"attributes":{"ID":439693,"DIS_CODE":0,"TOWNNAME":"東區","LI":"東光里","LIN":"15鄰","STREET":"東光路","SECT":"一段","MAREA":" ","LANE":"１０２巷","ALLEY":" ","HOUSE_NO":"１５號","E_COORD97":171254.94,"N_COORD97":2543832.5299999998,"ADDRESS":"東光路一段１０２巷１５號","OBJECTID":439668},"geometry":{"x":171254.94000000041,"y":2543832.5299999993}},{"attributes":{"ID":439694,"DIS_CODE":0,"TOWNNAME":"東區","LI":"東光里","LIN":"15鄰","STREET":"東光路","SECT":"一段","MAREA":" ","LANE":"１０２巷","ALLEY":" ","HOUSE_NO":"１３號","E_COORD97":171248.57999999999,"N_COORD97":2543832.6899999999,"ADDRESS":"東光路一段１０２巷１３號","OBJECTID":439669},"geometry":{"x":171248.58000000007,"y":2543832.6900000032}},{"attributes":{"ID":439695,"DIS_CODE":0,"TOWNNAME":"東區","LI":"東光里","LIN":"15鄰","STREET":"東光路","SECT":"一段","MAREA":" ","LANE":"１０２巷","ALLEY":" ","HOUSE_NO":"１１號","E_COORD97":171242.39999999999,"N_COORD97":2543832.8399999999,"ADDRESS":"東光路一段１０２巷１１號","OBJECTID":439670},"geometry":{"x":171242.4000000013,"y":2543832.8400000017}},{"attributes":{"ID":439696,"DIS_CODE":0,"TOWNNAME":"東區","LI":"東明里","LIN":"4鄰","STREET":"怡東路","SECT":" ","MAREA":" ","LANE":"７２巷","ALLEY":" ","HOUSE_NO":"１８號","E_COORD97":170921.60000000001,"N_COORD97":2543623.1400000001,"ADDRESS":"怡東路７２巷１８號","OBJECTID":439671},"geometry":{"x":170921.60000000056,"y":2543623.1400000006}},{"attributes":{"ID":439697,"DIS_CODE":0,"TOWNNAME":"東區","LI":"和平里","LIN":"15鄰","STREET":"文化一街","SECT":" ","MAREA":" ","LANE":"１５３巷","ALLEY":" ","HOUSE_NO":"２號","E_COORD97":171320.14000000001,"N_COORD97":2541749.9100000001,"ADDRESS":"文化一街１５３巷２號","OBJECTID":439672},"geometry":{"x":171320.13999999966,"y":2541749.9099999983}},{"attributes":{"ID":439698,"DIS_CODE":0,"TOWNNAME":"東區","LI":"和平里","LIN":"15鄰","STREET":"文化一街","SECT":" ","MAREA":" ","LANE":"１５３巷","ALLEY":" ","HOUSE_NO":"３號","E_COORD97":171321.60999999999,"N_COORD97":2541766.9300000002,"ADDRESS":"文化一街１５３巷３號","OBJECTID":439673},"geometry":{"x":171321.61000000034,"y":2541766.9300000016}},{"attributes":{"ID":439699,"DIS_CODE":0,"TOWNNAME":"東區","LI":"和平里","LIN":"15鄰","STREET":"文化一街","SECT":" ","MAREA":" ","LANE":"１５３巷","ALLEY":" ","HOUSE_NO":"５號","E_COORD97":171327.34,"N_COORD97":2541767.9199999999,"ADDRESS":"文化一街１５３巷５號","OBJECTID":439674},"geometry":{"x":171327.34000000078,"y":2541767.9200000018}},{"attributes":{"ID":439700,"DIS_CODE":0,"TOWNNAME":"東區","LI":"和平里","LIN":"15鄰","STREET":"文化一街","SECT":" ","MAREA":" ","LANE":"１５３巷","ALLEY":" ","HOUSE_NO":"６號","E_COORD97":171325.38,"N_COORD97":2541751.71,"ADDRESS":"文化一街１５３巷６號","OBJECTID":439675},"geometry":{"x":171325.38000000082,"y":2541751.7100000009}},{"attributes":{"ID":439701,"DIS_CODE":0,"TOWNNAME":"東區","LI":"和平里","LIN":"15鄰","STREET":"文化一街","SECT":" ","MAREA":" ","LANE":"１５３巷","ALLEY":" ","HOUSE_NO":"８號","E_COORD97":171330.45000000001,"N_COORD97":2541752.3599999999,"ADDRESS":"文化一街１５３巷８號","OBJECTID":439676},"geometry":{"x":171330.45000000019,"y":2541752.3599999994}},{"attributes":{"ID":439702,"DIS_CODE":0,"TOWNNAME":"東區","LI":"和平里","LIN":"15鄰","STREET":"文化一街","SECT":" ","MAREA":" ","LANE":"１５３巷","ALLEY":" ","HOUSE_NO":"９號","E_COORD97":171337.48999999999,"N_COORD97":2541770.7000000002,"ADDRESS":"文化一街１５３巷９號","OBJECTID":439677},"geometry":{"x":171337.49000000022,"y":2541770.6999999974}},{"attributes":{"ID":439703,"DIS_CODE":0,"TOWNNAME":"東區","LI":"泉南里","LIN":"19鄰","STREET":"府連東路","SECT":" ","MAREA":" ","LANE":"２２巷","ALLEY":" ","HOUSE_NO":"２６之１號","E_COORD97":169702.35999999999,"N_COORD97":2542740.2799999998,"ADDRESS":"府連東路２２巷２６之１號","OBJECTID":439678},"geometry":{"x":169702.36000000034,"y":2542740.2800000031}},{"attributes":{"ID":439704,"DIS_CODE":0,"TOWNNAME":"將軍區","LI":"廣山里","LIN":"10鄰","STREET":" ","SECT":" ","MAREA":"廣山","LANE":" ","ALLEY":" ","HOUSE_NO":"８９號","E_COORD97":159504.63957,"N_COORD97":2568919.5644200002,"ADDRESS":"廣山８９號","OBJECTID":439679},"geometry":{"x":159504.63957000151,"y":2568919.5644160025}},{"attributes":{"ID":439705,"DIS_CODE":0,"TOWNNAME":"東區","LI":"崇善里","LIN":"25鄰","STREET":"崇善東路","SECT":" ","MAREA":" ","LANE":"１５巷","ALLEY":" ","HOUSE_NO":"１０之１號","E_COORD97":171292.89999999999,"N_COORD97":2540950.1099999999,"ADDRESS":"崇善東路１５巷１０之１號","OBJECTID":439680},"geometry":{"x":171292.90000000224,"y":2540950.1099999994}},{"attributes":{"ID":439706,"DIS_CODE":0,"TOWNNAME":"東區","LI":"大智里","LIN":"31鄰","STREET":"崇善十六街","SECT":" ","MAREA":" ","LANE":"１５１巷","ALLEY":" ","HOUSE_NO":"１號","E_COORD97":171257.35999999999,"N_COORD97":2540382.1600000001,"ADDRESS":"崇善十六街１５１巷１號","OBJECTID":439681},"geometry":{"x":171257.3599999994,"y":2540382.1600000039}},{"attributes":{"ID":439707,"DIS_CODE":0,"TOWNNAME":"東區","LI":"崇善里","LIN":"9鄰","STREET":"仁和路","SECT":" ","MAREA":" ","LANE":"８２巷","ALLEY":" ","HOUSE_NO":"２０號","E_COORD97":171115.97,"N_COORD97":2541663.46,"ADDRESS":"仁和路８２巷２０號","OBJECTID":439682},"geometry":{"x":171115.97000000067,"y":2541663.4600000028}},{"attributes":{"ID":439708,"DIS_CODE":0,"TOWNNAME":"東區","LI":"虎尾里","LIN":"33鄰","STREET":"東門路","SECT":"三段","MAREA":" ","LANE":"１７９巷","ALLEY":" ","HOUSE_NO":"１２９號","E_COORD97":171707.17000000001,"N_COORD97":2542031.1800000002,"ADDRESS":"東門路三段１７９巷１２９號","OBJECTID":439683},"geometry":{"x":171707.16999999993,"y":2542031.1799999997}},{"attributes":{"ID":439709,"DIS_CODE":0,"TOWNNAME":"東區","LI":"虎尾里","LIN":"33鄰","STREET":"東門路","SECT":"三段","MAREA":" ","LANE":"１７９巷","ALLEY":" ","HOUSE_NO":"１３１號","E_COORD97":171713.88,"N_COORD97":2542031.7400000002,"ADDRESS":"東門路三段１７９巷１３１號","OBJECTID":439684},"geometry":{"x":171713.87999999989,"y":2542031.7400000002}},{"attributes":{"ID":439710,"DIS_CODE":0,"TOWNNAME":"東區","LI":"虎尾里","LIN":"33鄰","STREET":"東門路","SECT":"三段","MAREA":" ","LANE":"１７９巷","ALLEY":" ","HOUSE_NO":"１３５號","E_COORD97":171719.75,"N_COORD97":2542032.02,"ADDRESS":"東門路三段１７９巷１３５號","OBJECTID":439685},"geometry":{"x":171719.75000000093,"y":2542032.0199999996}},{"attributes":{"ID":439711,"DIS_CODE":0,"TOWNNAME":"東區","LI":"虎尾里","LIN":"33鄰","STREET":"東門路","SECT":"三段","MAREA":" ","LANE":"１７９巷","ALLEY":" ","HOUSE_NO":"１３５之１號","E_COORD97":171724.51000000001,"N_COORD97":2542031.7400000002,"ADDRESS":"東門路三段１７９巷１３５之１號","OBJECTID":439686},"geometry":{"x":171724.51000000071,"y":2542031.7400000002}},{"attributes":{"ID":439712,"DIS_CODE":0,"TOWNNAME":"東區","LI":"崇信里","LIN":"21鄰","STREET":"中華東路","SECT":"三段","MAREA":" ","LANE":"４４巷","ALLEY":" ","HOUSE_NO":"５０號","E_COORD97":170843.32999999999,"N_COORD97":2542415.5299999998,"ADDRESS":"中華東路三段４４巷５０號","OBJECTID":439687},"geometry":{"x":170843.33000000007,"y":2542415.5299999993}},{"attributes":{"ID":439713,"DIS_CODE":0,"TOWNNAME":"東區","LI":"崇信里","LIN":"21鄰","STREET":"中華東路","SECT":"三段","MAREA":" ","LANE":"４４巷","ALLEY":" ","HOUSE_NO":"５２號","E_COORD97":170844.32000000001,"N_COORD97":2542421.5099999998,"ADDRESS":"中華東路三段４４巷５２號","OBJECTID":439688},"geometry":{"x":170844.32000000123,"y":2542421.5100000016}},{"attributes":{"ID":439714,"DIS_CODE":0,"TOWNNAME":"東區","LI":"崇誨里","LIN":"1鄰","STREET":"林森路","SECT":"二段","MAREA":" ","LANE":"１巷","ALLEY":" ","HOUSE_NO":"２號","E_COORD97":170456.510263,"N_COORD97":2543290.8081700001,"ADDRESS":"林森路二段１巷２號","OBJECTID":439689},"geometry":{"x":170456.51026300155,"y":2543290.8081740011}},{"attributes":{"ID":439715,"DIS_CODE":0,"TOWNNAME":"東區","LI":"大智里","LIN":"4鄰","STREET":"生產路","SECT":" ","MAREA":" ","LANE":"５３４巷","ALLEY":" ","HOUSE_NO":"１２號","E_COORD97":171089.92999999999,"N_COORD97":2540552.0499999998,"ADDRESS":"生產路５３４巷１２號","OBJECTID":439690},"geometry":{"x":171089.9299999997,"y":2540552.0500000007}},{"attributes":{"ID":439716,"DIS_CODE":0,"TOWNNAME":"東區","LI":"大智里","LIN":"4鄰","STREET":"生產路","SECT":" ","MAREA":" ","LANE":"５３４巷","ALLEY":" ","HOUSE_NO":"１６號","E_COORD97":171089.92999999999,"N_COORD97":2540547.46,"ADDRESS":"生產路５３４巷１６號","OBJECTID":439691},"geometry":{"x":171089.9299999997,"y":2540547.4600000028}},{"attributes":{"ID":439717,"DIS_CODE":0,"TOWNNAME":"東區","LI":"大智里","LIN":"4鄰","STREET":"生產路","SECT":" ","MAREA":" ","LANE":"５３４巷","ALLEY":" ","HOUSE_NO":"１８號","E_COORD97":171090.26000000001,"N_COORD97":2540539.6000000001,"ADDRESS":"生產路５３４巷１８號","OBJECTID":439692},"geometry":{"x":171090.26000000071,"y":2540539.5999999996}},{"attributes":{"ID":439718,"DIS_CODE":0,"TOWNNAME":"東區","LI":"大智里","LIN":"4鄰","STREET":"生產路","SECT":" ","MAREA":" ","LANE":"５３４巷","ALLEY":" ","HOUSE_NO":"２０號","E_COORD97":171090.75,"N_COORD97":2540530.1099999999,"ADDRESS":"生產路５３４巷２０號","OBJECTID":439693},"geometry":{"x":171090.75000000093,"y":2540530.1099999994}},{"attributes":{"ID":439719,"DIS_CODE":0,"TOWNNAME":"東區","LI":"大智里","LIN":"4鄰","STREET":"生產路","SECT":" ","MAREA":" ","LANE":"５３４巷","ALLEY":" ","HOUSE_NO":"４３號","E_COORD97":171104.67000000001,"N_COORD97":2540548.4500000002,"ADDRESS":"生產路５３４巷４３號","OBJECTID":439694},"geometry":{"x":171104.67000000086,"y":2540548.4499999974}},{"attributes":{"ID":439720,"DIS_CODE":0,"TOWNNAME":"東區","LI":"大智里","LIN":"4鄰","STREET":"生產路","SECT":" ","MAREA":" ","LANE":"５３４巷","ALLEY":" ","HOUSE_NO":"４５號","E_COORD97":171104.34,"N_COORD97":2540541.0800000001,"ADDRESS":"生產路５３４巷４５號","OBJECTID":439695},"geometry":{"x":171104.33999999985,"y":2540541.0800000001}},{"attributes":{"ID":439721,"DIS_CODE":0,"TOWNNAME":"東區","LI":"大智里","LIN":"4鄰","STREET":"生產路","SECT":" ","MAREA":" ","LANE":"５３４巷","ALLEY":" ","HOUSE_NO":"４７號","E_COORD97":171104.17999999999,"N_COORD97":2540536.1699999999,"ADDRESS":"生產路５３４巷４７號","OBJECTID":439696},"geometry":{"x":171104.18000000063,"y":2540536.1699999999}},{"attributes":{"ID":439722,"DIS_CODE":0,"TOWNNAME":"東區","LI":"大智里","LIN":"4鄰","STREET":"生產路","SECT":" ","MAREA":" ","LANE":"５３４巷","ALLEY":" ","HOUSE_NO":"４９號","E_COORD97":171103.51999999999,"N_COORD97":2540531.4199999999,"ADDRESS":"生產路５３４巷４９號","OBJECTID":439697},"geometry":{"x":171103.52000000048,"y":2540531.4199999999}},{"attributes":{"ID":439723,"DIS_CODE":0,"TOWNNAME":"東區","LI":"大智里","LIN":"4鄰","STREET":"長東街","SECT":" ","MAREA":" ","LANE":"４１巷","ALLEY":" ","HOUSE_NO":"１１號","E_COORD97":171060.29999999999,"N_COORD97":2540515.0499999998,"ADDRESS":"長東街４１巷１１號","OBJECTID":439698},"geometry":{"x":171060.29999999981,"y":2540515.0500000007}},{"attributes":{"ID":439724,"DIS_CODE":0,"TOWNNAME":"東區","LI":"大智里","LIN":"4鄰","STREET":"長東街","SECT":" ","MAREA":" ","LANE":"４１巷","ALLEY":" ","HOUSE_NO":"１３號","E_COORD97":171066.85000000001,"N_COORD97":2540515.3700000001,"ADDRESS":"長東街４１巷１３號","OBJECTID":439699},"geometry":{"x":171066.8499999987,"y":2540515.3700000029}},{"attributes":{"ID":439725,"DIS_CODE":0,"TOWNNAME":"東區","LI":"衛國里","LIN":"24鄰","STREET":"衛國街","SECT":" ","MAREA":" ","LANE":"１１４巷","ALLEY":" ","HOUSE_NO":"２８號","E_COORD97":170579.32000000001,"N_COORD97":2543148.2799999998,"ADDRESS":"衛國街１１４巷２８號","OBJECTID":439700},"geometry":{"x":170579.3200000003,"y":2543148.2800000012}},{"attributes":{"ID":439726,"DIS_CODE":0,"TOWNNAME":"東區","LI":"小東里","LIN":"15鄰","STREET":"光明街","SECT":" ","MAREA":" ","LANE":"６６巷","ALLEY":" ","HOUSE_NO":"１６號","E_COORD97":170854.95999999999,"N_COORD97":2544222.4500000002,"ADDRESS":"光明街６６巷１６號","OBJECTID":439701},"geometry":{"x":170854.96000000089,"y":2544222.4499999993}},{"attributes":{"ID":439727,"DIS_CODE":0,"TOWNNAME":"西港區","LI":"南海里","LIN":"4鄰","STREET":"慶安路","SECT":" ","MAREA":" ","LANE":"２２８巷","ALLEY":" ","HOUSE_NO":"４號","E_COORD97":167713.14000000001,"N_COORD97":2557827.8100000001,"ADDRESS":"慶安路２２８巷４號","OBJECTID":439702},"geometry":{"x":167713.13999999966,"y":2557827.8100000005}},{"attributes":{"ID":439728,"DIS_CODE":0,"TOWNNAME":"西港區","LI":"南海里","LIN":"4鄰","STREET":"慶安路","SECT":" ","MAREA":" ","LANE":"２２８巷","ALLEY":" ","HOUSE_NO":"６號","E_COORD97":167713.23999999999,"N_COORD97":2557831.8999999999,"ADDRESS":"慶安路２２８巷６號","OBJECTID":439703},"geometry":{"x":167713.24000000022,"y":2557831.9000000022}},{"attributes":{"ID":439729,"DIS_CODE":0,"TOWNNAME":"西港區","LI":"南海里","LIN":"4鄰","STREET":"慶安路","SECT":" ","MAREA":" ","LANE":"２２８巷","ALLEY":" ","HOUSE_NO":"８號","E_COORD97":167712.84,"N_COORD97":2557835.6699999999,"ADDRESS":"慶安路２２８巷８號","OBJECTID":439704},"geometry":{"x":167712.84000000078,"y":2557835.6700000037}},{"attributes":{"ID":439730,"DIS_CODE":0,"TOWNNAME":"西港區","LI":"南海里","LIN":"4鄰","STREET":"慶安路","SECT":" ","MAREA":" ","LANE":"２３６巷","ALLEY":" ","HOUSE_NO":"５１號","E_COORD97":167203.85000000001,"N_COORD97":2557655.9100000001,"ADDRESS":"慶安路２３６巷５１號","OBJECTID":439705},"geometry":{"x":167203.85000000056,"y":2557655.910000002}},{"attributes":{"ID":439731,"DIS_CODE":0,"TOWNNAME":"西港區","LI":"南海里","LIN":"4鄰","STREET":"慶安路","SECT":" ","MAREA":" ","LANE":"２３６巷","ALLEY":" ","HOUSE_NO":"７１號","E_COORD97":167060.45999999999,"N_COORD97":2557654.5899999999,"ADDRESS":"慶安路２３６巷７１號","OBJECTID":439706},"geometry":{"x":167060.45999999996,"y":2557654.5899999999}},{"attributes":{"ID":439732,"DIS_CODE":0,"TOWNNAME":"西港區","LI":"慶安里","LIN":"25鄰","STREET":"慶安路","SECT":" ","MAREA":" ","LANE":"３３巷","ALLEY":" ","HOUSE_NO":"１０號","E_COORD97":168309.26999999999,"N_COORD97":2557876.8999999999,"ADDRESS":"慶安路３３巷１０號","OBJECTID":439707},"geometry":{"x":168309.27000000142,"y":2557876.9000000004}},{"attributes":{"ID":439733,"DIS_CODE":0,"TOWNNAME":"西港區","LI":"慶安里","LIN":"25鄰","STREET":"慶安路","SECT":" ","MAREA":" ","LANE":"３３巷","ALLEY":" ","HOUSE_NO":"２號","E_COORD97":168310.01000000001,"N_COORD97":2557892.48,"ADDRESS":"慶安路３３巷２號","OBJECTID":439708},"geometry":{"x":168310.01000000071,"y":2557892.4800000023}},{"attributes":{"ID":439734,"DIS_CODE":0,"TOWNNAME":"西港區","LI":"慶安里","LIN":"25鄰","STREET":"慶安路","SECT":" ","MAREA":" ","LANE":"３３巷","ALLEY":" ","HOUSE_NO":"４號","E_COORD97":168309.70999999999,"N_COORD97":2557888.7999999998,"ADDRESS":"慶安路３３巷４號","OBJECTID":439709},"geometry":{"x":168309.70999999996,"y":2557888.8000000007}},{"attributes":{"ID":439735,"DIS_CODE":0,"TOWNNAME":"西港區","LI":"慶安里","LIN":"25鄰","STREET":"慶安路","SECT":" ","MAREA":" ","LANE":"５９巷","ALLEY":" ","HOUSE_NO":"２號","E_COORD97":168268.76999999999,"N_COORD97":2557857.2200000002,"ADDRESS":"慶安路５９巷２號","OBJECTID":439710},"geometry":{"x":168268.77000000142,"y":2557857.2200000025}},{"attributes":{"ID":439736,"DIS_CODE":0,"TOWNNAME":"西港區","LI":"慶安里","LIN":"25鄰","STREET":"慶安路","SECT":" ","MAREA":" ","LANE":"５９巷","ALLEY":" ","HOUSE_NO":"３號","E_COORD97":168282.20000000001,"N_COORD97":2557858.46,"ADDRESS":"慶安路５９巷３號","OBJECTID":439711},"geometry":{"x":168282.20000000112,"y":2557858.4600000046}},{"attributes":{"ID":439737,"DIS_CODE":0,"TOWNNAME":"西港區","LI":"慶安里","LIN":"25鄰","STREET":"慶安路","SECT":" ","MAREA":" ","LANE":"５９巷","ALLEY":" ","HOUSE_NO":"４號","E_COORD97":168264.13,"N_COORD97":2557856.6600000001,"ADDRESS":"慶安路５９巷４號","OBJECTID":439712},"geometry":{"x":168264.12999999989,"y":2557856.660000002}},{"attributes":{"ID":439738,"DIS_CODE":0,"TOWNNAME":"西港區","LI":"慶安里","LIN":"25鄰","STREET":"慶安路","SECT":" ","MAREA":" ","LANE":"５９巷","ALLEY":" ","HOUSE_NO":"７號","E_COORD97":168290.12,"N_COORD97":2557859.3799999999,"ADDRESS":"慶安路５９巷７號","OBJECTID":439713},"geometry":{"x":168290.12000000011,"y":2557859.379999999}},{"attributes":{"ID":439739,"DIS_CODE":0,"TOWNNAME":"西港區","LI":"慶安里","LIN":"25鄰","STREET":"慶安路","SECT":" ","MAREA":" ","LANE":"５９巷","ALLEY":" ","HOUSE_NO":"８號","E_COORD97":168256.26999999999,"N_COORD97":2557855.98,"ADDRESS":"慶安路５９巷８號","OBJECTID":439714},"geometry":{"x":168256.26999999955,"y":2557855.9800000004}},{"attributes":{"ID":439740,"DIS_CODE":0,"TOWNNAME":"白河區","LI":"永安里","LIN":" ","STREET":"一心街","SECT":" ","MAREA":" ","LANE":"２１巷","ALLEY":" ","HOUSE_NO":"５號","E_COORD97":190081.10999999999,"N_COORD97":2583316.46,"ADDRESS":"一心街２１巷５號","OBJECTID":439715},"geometry":{"x":190081.11000000127,"y":2583316.4600000046}},{"attributes":{"ID":439741,"DIS_CODE":0,"TOWNNAME":"白河區","LI":"永安里","LIN":" ","STREET":"三民路","SECT":" ","MAREA":" ","LANE":"４９７巷","ALLEY":" ","HOUSE_NO":"７號","E_COORD97":189782.20000000001,"N_COORD97":2583445.0499999998,"ADDRESS":"三民路４９７巷７號","OBJECTID":439716},"geometry":{"x":189782.20000000112,"y":2583445.0500000026}},{"attributes":{"ID":439742,"DIS_CODE":0,"TOWNNAME":"白河區","LI":"白河里","LIN":" ","STREET":"中山路","SECT":" ","MAREA":" ","LANE":"１６巷","ALLEY":" ","HOUSE_NO":"６號","E_COORD97":190157.48000000001,"N_COORD97":2582866.1800000002,"ADDRESS":"中山路１６巷６號","OBJECTID":439717},"geometry":{"x":190157.48000000045,"y":2582866.1800000034}},{"attributes":{"ID":439743,"DIS_CODE":0,"TOWNNAME":"白河區","LI":"永安里","LIN":" ","STREET":"中正路","SECT":" ","MAREA":" ","LANE":"１２４巷","ALLEY":" ","HOUSE_NO":"２９號","E_COORD97":189857.79999999999,"N_COORD97":2583213.3599999999,"ADDRESS":"中正路１２４巷２９號","OBJECTID":439718},"geometry":{"x":189857.79999999981,"y":2583213.3599999994}},{"attributes":{"ID":439744,"DIS_CODE":0,"TOWNNAME":"白河區","LI":"永安里","LIN":" ","STREET":"中正路","SECT":" ","MAREA":" ","LANE":"９１巷","ALLEY":" ","HOUSE_NO":"１之３號","E_COORD97":190001.01000000001,"N_COORD97":2583075.8399999999,"ADDRESS":"中正路９１巷１之３號","OBJECTID":439719},"geometry":{"x":190001.00999999978,"y":2583075.8400000017}},{"attributes":{"ID":439745,"DIS_CODE":0,"TOWNNAME":"白河區","LI":"永安里","LIN":" ","STREET":"中正路","SECT":" ","MAREA":" ","LANE":"９１巷","ALLEY":" ","HOUSE_NO":"４５號","E_COORD97":189958.98999999999,"N_COORD97":2583042.54,"ADDRESS":"中正路９１巷４５號","OBJECTID":439720},"geometry":{"x":189958.99000000022,"y":2583042.5399999991}},{"attributes":{"ID":439746,"DIS_CODE":0,"TOWNNAME":"白河區","LI":"永安里","LIN":" ","STREET":"中正路","SECT":" ","MAREA":" ","LANE":"９１巷","ALLEY":" ","HOUSE_NO":"６號","E_COORD97":190027.56,"N_COORD97":2583104.9300000002,"ADDRESS":"中正路９１巷６號","OBJECTID":439721},"geometry":{"x":190027.55999999959,"y":2583104.9299999997}},{"attributes":{"ID":439747,"DIS_CODE":0,"TOWNNAME":"白河區","LI":"永安里","LIN":" ","STREET":"中正路","SECT":" ","MAREA":" ","LANE":"９１巷","ALLEY":" ","HOUSE_NO":"７號","E_COORD97":190048.47,"N_COORD97":2583087.96,"ADDRESS":"中正路９１巷７號","OBJECTID":439722},"geometry":{"x":190048.46999999974,"y":2583087.9600000009}},{"attributes":{"ID":439748,"DIS_CODE":0,"TOWNNAME":"白河區","LI":"白河里","LIN":" ","STREET":"文明街","SECT":" ","MAREA":" ","LANE":"３１巷","ALLEY":" ","HOUSE_NO":"１號","E_COORD97":190200.39000000001,"N_COORD97":2583016.3999999999,"ADDRESS":"文明街３１巷１號","OBJECTID":439723},"geometry":{"x":190200.39000000153,"y":2583016.4000000004}},{"attributes":{"ID":439749,"DIS_CODE":0,"TOWNNAME":"南區","LI":"同安里","LIN":"13鄰","STREET":"明興路","SECT":" ","MAREA":" ","LANE":"１２８５巷","ALLEY":" ","HOUSE_NO":"１００號","E_COORD97":166721.78,"N_COORD97":2535946.5299999998,"ADDRESS":"明興路１２８５巷１００號","OBJECTID":439724},"geometry":{"x":166721.78000000119,"y":2535946.5299999993}},{"attributes":{"ID":439750,"DIS_CODE":0,"TOWNNAME":"南區","LI":"省躬里","LIN":"14鄰","STREET":"永成路","SECT":"一段","MAREA":" ","LANE":"６４６巷","ALLEY":" ","HOUSE_NO":"１３號","E_COORD97":167558.29000000001,"N_COORD97":2537711.48,"ADDRESS":"永成路一段６４６巷１３號","OBJECTID":439725},"geometry":{"x":167558.29000000004,"y":2537711.4800000004}},{"attributes":{"ID":439751,"DIS_CODE":0,"TOWNNAME":"南區","LI":"省躬里","LIN":"14鄰","STREET":"永成路","SECT":"一段","MAREA":" ","LANE":"６４６巷","ALLEY":" ","HOUSE_NO":"１７７號","E_COORD97":167437.06,"N_COORD97":2537481.7999999998,"ADDRESS":"永成路一段６４６巷１７７號","OBJECTID":439726},"geometry":{"x":167437.05999999959,"y":2537481.8000000007}},{"attributes":{"ID":439752,"DIS_CODE":0,"TOWNNAME":"南區","LI":"開南里","LIN":"25鄰","STREET":"新建路","SECT":" ","MAREA":" ","LANE":"５１巷","ALLEY":" ","HOUSE_NO":"１１號之１","E_COORD97":166520.89999999999,"N_COORD97":2540794.75,"ADDRESS":"新建路５１巷１１號之１","OBJECTID":439727},"geometry":{"x":166520.90000000224,"y":2540794.7499999981}},{"attributes":{"ID":439753,"DIS_CODE":0,"TOWNNAME":"南區","LI":"光明里","LIN":"12鄰","STREET":"鹽埕路","SECT":" ","MAREA":" ","LANE":"２９１巷","ALLEY":" ","HOUSE_NO":"９７號","E_COORD97":166724.63,"N_COORD97":2541243.1800000002,"ADDRESS":"鹽埕路２９１巷９７號","OBJECTID":439728},"geometry":{"x":166724.63000000082,"y":2541243.1800000016}},{"attributes":{"ID":439754,"DIS_CODE":0,"TOWNNAME":"南區","LI":"府南里","LIN":"13鄰","STREET":"永成路","SECT":"三段","MAREA":" ","LANE":"３７２巷","ALLEY":" ","HOUSE_NO":"３９號","E_COORD97":167601.70000000001,"N_COORD97":2540998.6699999999,"ADDRESS":"永成路三段３７２巷３９號","OBJECTID":439729},"geometry":{"x":167601.70000000019,"y":2540998.6700000037}},{"attributes":{"ID":439755,"DIS_CODE":0,"TOWNNAME":"南區","LI":"府南里","LIN":"13鄰","STREET":"永成路","SECT":"三段","MAREA":" ","LANE":"３７２巷","ALLEY":" ","HOUSE_NO":"４１號","E_COORD97":167606.31,"N_COORD97":2541000.1000000001,"ADDRESS":"永成路三段３７２巷４１號","OBJECTID":439730},"geometry":{"x":167606.31000000052,"y":2541000.1000000015}},{"attributes":{"ID":439756,"DIS_CODE":0,"TOWNNAME":"南區","LI":"明興里","LIN":"20鄰","STREET":"金華路","SECT":"一段","MAREA":" ","LANE":"８４巷","ALLEY":" ","HOUSE_NO":"２５號","E_COORD97":166978.51999999999,"N_COORD97":2540439.29,"ADDRESS":"金華路一段８４巷２５號","OBJECTID":439731},"geometry":{"x":166978.51999999862,"y":2540439.290000001}},{"attributes":{"ID":439757,"DIS_CODE":0,"TOWNNAME":"南區","LI":"同安里","LIN":"4鄰","STREET":"明興路","SECT":" ","MAREA":" ","LANE":"１３０６巷","ALLEY":" ","HOUSE_NO":"２０號","E_COORD97":166360.84,"N_COORD97":2536057.1400000001,"ADDRESS":"明興路１３０６巷２０號","OBJECTID":439732},"geometry":{"x":166360.83999999985,"y":2536057.1400000025}},{"attributes":{"ID":439758,"DIS_CODE":0,"TOWNNAME":"南區","LI":" ","LIN":" ","STREET":"健康路","SECT":"一段","MAREA":" ","LANE":"１７５巷","ALLEY":" ","HOUSE_NO":"３之１號","E_COORD97":168807.63,"N_COORD97":2542376.7799999998,"ADDRESS":"健康路一段１７５巷３之１號","OBJECTID":439733},"geometry":{"x":168807.63000000082,"y":2542376.7799999993}},{"attributes":{"ID":439759,"DIS_CODE":0,"TOWNNAME":"南區","LI":"府南里","LIN":"8鄰","STREET":"金華路","SECT":"一段","MAREA":" ","LANE":"４８４巷","ALLEY":" ","HOUSE_NO":"１１３之２號","E_COORD97":167241.10999999999,"N_COORD97":2541360.0899999999,"ADDRESS":"金華路一段４８４巷１１３之２號","OBJECTID":439734},"geometry":{"x":167241.11000000034,"y":2541360.0900000017}},{"attributes":{"ID":439760,"DIS_CODE":0,"TOWNNAME":"南區","LI":"府南里","LIN":"8鄰","STREET":"金華路","SECT":"一段","MAREA":" ","LANE":"４８４巷","ALLEY":" ","HOUSE_NO":"１１３之３號","E_COORD97":167246.19,"N_COORD97":2541354.3700000001,"ADDRESS":"金華路一段４８４巷１１３之３號","OBJECTID":439735},"geometry":{"x":167246.19000000227,"y":2541354.3699999992}},{"attributes":{"ID":439761,"DIS_CODE":0,"TOWNNAME":"南區","LI":"府南里","LIN":"8鄰","STREET":"金華路","SECT":"一段","MAREA":" ","LANE":"４８４巷","ALLEY":" ","HOUSE_NO":"１１３之５號","E_COORD97":167250.32000000001,"N_COORD97":2541349.6099999999,"ADDRESS":"金華路一段４８４巷１１３之５號","OBJECTID":439736},"geometry":{"x":167250.32000000216,"y":2541349.6099999994}},{"attributes":{"ID":439762,"DIS_CODE":0,"TOWNNAME":"南區","LI":"府南里","LIN":"8鄰","STREET":"金華路","SECT":"一段","MAREA":" ","LANE":"４８４巷","ALLEY":" ","HOUSE_NO":"１１３之６號","E_COORD97":167254.44,"N_COORD97":2541345.48,"ADDRESS":"金華路一段４８４巷１１３之６號","OBJECTID":439737},"geometry":{"x":167254.44000000041,"y":2541345.4800000004}},{"attributes":{"ID":439763,"DIS_CODE":0,"TOWNNAME":"南區","LI":"建南里","LIN":"4鄰","STREET":"德興路","SECT":" ","MAREA":" ","LANE":"２６５巷","ALLEY":" ","HOUSE_NO":"２５號","E_COORD97":167286.85999999999,"N_COORD97":2540024.3300000001,"ADDRESS":"德興路２６５巷２５號","OBJECTID":439738},"geometry":{"x":167286.86000000034,"y":2540024.3300000001}},{"attributes":{"ID":439764,"DIS_CODE":0,"TOWNNAME":"南區","LI":" ","LIN":" ","STREET":"永安街","SECT":" ","MAREA":" ","LANE":"２巷","ALLEY":" ","HOUSE_NO":"５５號","E_COORD97":165272.92999999999,"N_COORD97":2547215.4399999999,"ADDRESS":"永安街２巷５５號","OBJECTID":439739},"geometry":{"x":165272.93000000063,"y":2547215.4400000013}},{"attributes":{"ID":439765,"DIS_CODE":0,"TOWNNAME":"南區","LI":"郡南里","LIN":"18鄰","STREET":"德興路","SECT":" ","MAREA":" ","LANE":"１３９巷","ALLEY":" ","HOUSE_NO":"２６號","E_COORD97":167281.60999999999,"N_COORD97":2540451.1499999999,"ADDRESS":"德興路１３９巷２６號","OBJECTID":439740},"geometry":{"x":167281.61000000034,"y":2540451.1500000022}},{"attributes":{"ID":439766,"DIS_CODE":0,"TOWNNAME":"南區","LI":"郡南里","LIN":"18鄰","STREET":"德興路","SECT":" ","MAREA":" ","LANE":"１３９巷","ALLEY":" ","HOUSE_NO":"２６之１號","E_COORD97":167285.89000000001,"N_COORD97":2540451.3100000001,"ADDRESS":"德興路１３９巷２６之１號","OBJECTID":439741},"geometry":{"x":167285.88999999966,"y":2540451.3100000005}},{"attributes":{"ID":439767,"DIS_CODE":0,"TOWNNAME":"南區","LI":"郡南里","LIN":"18鄰","STREET":"德興路","SECT":" ","MAREA":" ","LANE":"１３９巷","ALLEY":" ","HOUSE_NO":"２６之２號","E_COORD97":167290.34,"N_COORD97":2540451.6200000001,"ADDRESS":"德興路１３９巷２６之２號","OBJECTID":439742},"geometry":{"x":167290.34000000171,"y":2540451.6200000029}},{"attributes":{"ID":439768,"DIS_CODE":0,"TOWNNAME":"南區","LI":"南都里","LIN":"7鄰","STREET":"鯤鯓路","SECT":" ","MAREA":" ","LANE":"３０巷","ALLEY":" ","HOUSE_NO":"４０號","E_COORD97":166375.01000000001,"N_COORD97":2540068.21,"ADDRESS":"鯤鯓路３０巷４０號","OBJECTID":439743},"geometry":{"x":166375.00999999978,"y":2540068.2100000028}},{"attributes":{"ID":439769,"DIS_CODE":0,"TOWNNAME":"南區","LI":"南都里","LIN":"7鄰","STREET":"鯤鯓路","SECT":" ","MAREA":" ","LANE":"３０巷","ALLEY":" ","HOUSE_NO":"３６號","E_COORD97":166375.64999999999,"N_COORD97":2540059.9500000002,"ADDRESS":"鯤鯓路３０巷３６號","OBJECTID":439744},"geometry":{"x":166375.6500000013,"y":2540059.9499999993}},{"attributes":{"ID":439770,"DIS_CODE":0,"TOWNNAME":"南區","LI":"南都里","LIN":"7鄰","STREET":"鯤鯓路","SECT":" ","MAREA":" ","LANE":"３０巷","ALLEY":" ","HOUSE_NO":"３２號","E_COORD97":166375.79999999999,"N_COORD97":2540056.1400000001,"ADDRESS":"鯤鯓路３０巷３２號","OBJECTID":439745},"geometry":{"x":166375.80000000075,"y":2540056.1400000006}},{"attributes":{"ID":439771,"DIS_CODE":0,"TOWNNAME":"南區","LI":"南都里","LIN":"7鄰","STREET":"鯤鯓路","SECT":" ","MAREA":" ","LANE":"３０巷","ALLEY":" ","HOUSE_NO":"３０號","E_COORD97":166375.64999999999,"N_COORD97":2540052.1699999999,"ADDRESS":"鯤鯓路３０巷３０號","OBJECTID":439746},"geometry":{"x":166375.6500000013,"y":2540052.1699999999}},{"attributes":{"ID":439772,"DIS_CODE":0,"TOWNNAME":"南區","LI":"南都里","LIN":"7鄰","STREET":"鯤鯓路","SECT":" ","MAREA":" ","LANE":"３０巷","ALLEY":" ","HOUSE_NO":"２８號","E_COORD97":166375.48999999999,"N_COORD97":2540048.0499999998,"ADDRESS":"鯤鯓路３０巷２８號","OBJECTID":439747},"geometry":{"x":166375.49000000022,"y":2540048.0500000045}},{"attributes":{"ID":439773,"DIS_CODE":0,"TOWNNAME":"南區","LI":"明德里","LIN":"4鄰","STREET":"大成路","SECT":"一段","MAREA":" ","LANE":"１９３巷","ALLEY":" ","HOUSE_NO":"１７３號","E_COORD97":167914.03,"N_COORD97":2541602.96,"ADDRESS":"大成路一段１９３巷１７３號","OBJECTID":439748},"geometry":{"x":167914.03000000119,"y":2541602.9600000028}},{"attributes":{"ID":439774,"DIS_CODE":0,"TOWNNAME":"南區","LI":"明德里","LIN":"4鄰","STREET":"大成路","SECT":"一段","MAREA":" ","LANE":"１９３巷","ALLEY":" ","HOUSE_NO":"１７４號","E_COORD97":167920.38,"N_COORD97":2541602.96,"ADDRESS":"大成路一段１９３巷１７４號","OBJECTID":439749},"geometry":{"x":167920.37999999989,"y":2541602.9600000028}},{"attributes":{"ID":439775,"DIS_CODE":0,"TOWNNAME":"南區","LI":"明德里","LIN":"4鄰","STREET":"大成路","SECT":"一段","MAREA":" ","LANE":"１９３巷","ALLEY":" ","HOUSE_NO":"１７５號","E_COORD97":167933.70999999999,"N_COORD97":2541603.6000000001,"ADDRESS":"大成路一段１９３巷１７５號","OBJECTID":439750},"geometry":{"x":167933.70999999903,"y":2541603.6000000015}},{"attributes":{"ID":439776,"DIS_CODE":0,"TOWNNAME":"南區","LI":"明德里","LIN":"4鄰","STREET":"大成路","SECT":"一段","MAREA":" ","LANE":"１９３巷","ALLEY":" ","HOUSE_NO":"１７７號","E_COORD97":167944.35000000001,"N_COORD97":2541603.9199999999,"ADDRESS":"大成路一段１９３巷１７７號","OBJECTID":439751},"geometry":{"x":167944.35000000149,"y":2541603.9200000037}},{"attributes":{"ID":439777,"DIS_CODE":0,"TOWNNAME":"南區","LI":"明德里","LIN":"4鄰","STREET":"大成路","SECT":"一段","MAREA":" ","LANE":"１９３巷","ALLEY":" ","HOUSE_NO":"１７８號","E_COORD97":167949.59,"N_COORD97":2541603.9199999999,"ADDRESS":"大成路一段１９３巷１７８號","OBJECTID":439752},"geometry":{"x":167949.58999999985,"y":2541603.9200000037}},{"attributes":{"ID":439778,"DIS_CODE":0,"TOWNNAME":"南區","LI":"明德里","LIN":"4鄰","STREET":"大成路","SECT":"一段","MAREA":" ","LANE":"１９３巷","ALLEY":" ","HOUSE_NO":"１７６號","E_COORD97":167938.32000000001,"N_COORD97":2541603.7599999998,"ADDRESS":"大成路一段１９３巷１７６號","OBJECTID":439753},"geometry":{"x":167938.3200000003,"y":2541603.7599999998}},{"attributes":{"ID":439779,"DIS_CODE":0,"TOWNNAME":"南區","LI":"明德里","LIN":"4鄰","STREET":"大成路","SECT":"一段","MAREA":" ","LANE":"１９３巷","ALLEY":" ","HOUSE_NO":"１９６號","E_COORD97":167901.95999999999,"N_COORD97":2541587.8799999999,"ADDRESS":"大成路一段１９３巷１９６號","OBJECTID":439754},"geometry":{"x":167901.96000000089,"y":2541587.8800000008}},{"attributes":{"ID":439780,"DIS_CODE":0,"TOWNNAME":"南區","LI":"明德里","LIN":"4鄰","STREET":"大成路","SECT":"一段","MAREA":" ","LANE":"１９３巷","ALLEY":" ","HOUSE_NO":"１９７號","E_COORD97":167908.63,"N_COORD97":2541588.2000000002,"ADDRESS":"大成路一段１９３巷１９７號","OBJECTID":439755},"geometry":{"x":167908.62999999989,"y":2541588.2000000011}},{"attributes":{"ID":439781,"DIS_CODE":0,"TOWNNAME":"南區","LI":"明德里","LIN":"4鄰","STREET":"大成路","SECT":"一段","MAREA":" ","LANE":"１９３巷","ALLEY":" ","HOUSE_NO":"１９８號","E_COORD97":167915.45999999999,"N_COORD97":2541588.4399999999,"ADDRESS":"大成路一段１９３巷１９８號","OBJECTID":439756},"geometry":{"x":167915.46000000089,"y":2541588.4399999995}},{"attributes":{"ID":439782,"DIS_CODE":0,"TOWNNAME":"南區","LI":"明德里","LIN":"4鄰","STREET":"大成路","SECT":"一段","MAREA":" ","LANE":"１９３巷","ALLEY":" ","HOUSE_NO":"１３８號","E_COORD97":168010.07000000001,"N_COORD97":2541632.9700000002,"ADDRESS":"大成路一段１９３巷１３８號","OBJECTID":439757},"geometry":{"x":168010.07000000123,"y":2541632.9700000025}},{"attributes":{"ID":439783,"DIS_CODE":0,"TOWNNAME":"南區","LI":"明德里","LIN":"4鄰","STREET":"大成路","SECT":"一段","MAREA":" ","LANE":"１９３巷","ALLEY":" ","HOUSE_NO":"１３７號","E_COORD97":168004.20000000001,"N_COORD97":2541632.9700000002,"ADDRESS":"大成路一段１９３巷１３７號","OBJECTID":439758},"geometry":{"x":168004.20000000112,"y":2541632.9700000025}},{"attributes":{"ID":439784,"DIS_CODE":0,"TOWNNAME":"南區","LI":"明德里","LIN":"4鄰","STREET":"大成路","SECT":"一段","MAREA":" ","LANE":"１９３巷","ALLEY":" ","HOUSE_NO":"１３９號","E_COORD97":168015.94,"N_COORD97":2541633.4399999999,"ADDRESS":"大成路一段１９３巷１３９號","OBJECTID":439759},"geometry":{"x":168015.94000000227,"y":2541633.4399999995}},{"attributes":{"ID":439785,"DIS_CODE":0,"TOWNNAME":"南區","LI":"明德里","LIN":"4鄰","STREET":"大成路","SECT":"一段","MAREA":" ","LANE":"１９３巷","ALLEY":" ","HOUSE_NO":"１５１號","E_COORD97":167932.76000000001,"N_COORD97":2541616.6200000001,"ADDRESS":"大成路一段１９３巷１５１號","OBJECTID":439760},"geometry":{"x":167932.75999999978,"y":2541616.620000001}},{"attributes":{"ID":439786,"DIS_CODE":0,"TOWNNAME":"南區","LI":"明德里","LIN":"4鄰","STREET":"大成路","SECT":"一段","MAREA":" ","LANE":"１９３巷","ALLEY":" ","HOUSE_NO":"１５３號","E_COORD97":167943.54999999999,"N_COORD97":2541616.9300000002,"ADDRESS":"大成路一段１９３巷１５３號","OBJECTID":439761},"geometry":{"x":167943.55000000075,"y":2541616.9299999997}},{"attributes":{"ID":439787,"DIS_CODE":0,"TOWNNAME":"楠西區","LI":"灣丘里","LIN":"3鄰","STREET":" ","SECT":" ","MAREA":"灣丘","LANE":" ","ALLEY":" ","HOUSE_NO":"２８號之５","E_COORD97":199891.05816399999,"N_COORD97":2564012.99988,"ADDRESS":"灣丘２８號之５","OBJECTID":439762},"geometry":{"x":199891.05816400051,"y":2564012.9998780005}},{"attributes":{"ID":439788,"DIS_CODE":0,"TOWNNAME":"南區","LI":"明德里","LIN":"4鄰","STREET":"大成路","SECT":"一段","MAREA":" ","LANE":"１９３巷","ALLEY":" ","HOUSE_NO":"１５２號","E_COORD97":167938,"N_COORD97":2541616.7799999998,"ADDRESS":"大成路一段１９３巷１５２號","OBJECTID":439763},"geometry":{"x":167938,"y":2541616.7799999993}},{"attributes":{"ID":439789,"DIS_CODE":0,"TOWNNAME":"南區","LI":"明德里","LIN":"4鄰","STREET":"大成路","SECT":"一段","MAREA":" ","LANE":"１９３巷","ALLEY":" ","HOUSE_NO":"１５４號","E_COORD97":167949.42999999999,"N_COORD97":2541616.9300000002,"ADDRESS":"大成路一段１９３巷１５４號","OBJECTID":439764},"geometry":{"x":167949.43000000063,"y":2541616.9299999997}},{"attributes":{"ID":439790,"DIS_CODE":0,"TOWNNAME":"南區","LI":"明德里","LIN":"4鄰","STREET":"大成路","SECT":"一段","MAREA":" ","LANE":"１９３巷","ALLEY":" ","HOUSE_NO":"１５５號","E_COORD97":167954.35000000001,"N_COORD97":2541617.0899999999,"ADDRESS":"大成路一段１９３巷１５５號","OBJECTID":439765},"geometry":{"x":167954.34999999963,"y":2541617.0900000017}},{"attributes":{"ID":439791,"DIS_CODE":0,"TOWNNAME":"南區","LI":"明德里","LIN":"4鄰","STREET":"大成路","SECT":"一段","MAREA":" ","LANE":"１９３巷","ALLEY":" ","HOUSE_NO":"１６４號","E_COORD97":168005.94,"N_COORD97":2541614.8700000001,"ADDRESS":"大成路一段１９３巷１６４號","OBJECTID":439766},"geometry":{"x":168005.94000000134,"y":2541614.870000001}},{"attributes":{"ID":439792,"DIS_CODE":0,"TOWNNAME":"南區","LI":"金華里","LIN":"5鄰","STREET":"金華路","SECT":"二段","MAREA":" ","LANE":"十四七巷","ALLEY":" ","HOUSE_NO":"３號","E_COORD97":167052.85999999999,"N_COORD97":2542367.02,"ADDRESS":"金華路二段十四七巷３號","OBJECTID":439767},"geometry":{"x":167052.86000000034,"y":2542367.0200000014}},{"attributes":{"ID":439793,"DIS_CODE":0,"TOWNNAME":"南區","LI":"喜東里","LIN":"10鄰","STREET":"明興路","SECT":" ","MAREA":" ","LANE":"６１９巷","ALLEY":" ","HOUSE_NO":"３３３號","E_COORD97":166727.97,"N_COORD97":2538013.2599999998,"ADDRESS":"明興路６１９巷３３３號","OBJECTID":439768},"geometry":{"x":166727.96999999974,"y":2538013.2599999998}},{"attributes":{"ID":439794,"DIS_CODE":0,"TOWNNAME":"東區","LI":"虎尾里","LIN":"16鄰","STREET":"東成街","SECT":" ","MAREA":" ","LANE":"４６巷","ALLEY":" ","HOUSE_NO":"３３號","E_COORD97":171363.98000000001,"N_COORD97":2542164.8199999998,"ADDRESS":"東成街４６巷３３號","OBJECTID":439769},"geometry":{"x":171363.98000000138,"y":2542164.8200000022}},{"attributes":{"ID":439795,"DIS_CODE":0,"TOWNNAME":"南區","LI":"建南里","LIN":"19鄰","STREET":"明興路","SECT":" ","MAREA":" ","LANE":"３２１巷","ALLEY":" ","HOUSE_NO":"１１之１號","E_COORD97":166461.41,"N_COORD97":2539079.3599999999,"ADDRESS":"明興路３２１巷１１之１號","OBJECTID":439770},"geometry":{"x":166461.41000000108,"y":2539079.3600000013}},{"attributes":{"ID":439796,"DIS_CODE":0,"TOWNNAME":"南區","LI":"郡南里","LIN":"19鄰","STREET":"德興路","SECT":" ","MAREA":" ","LANE":"１７７巷","ALLEY":" ","HOUSE_NO":"５號","E_COORD97":167224.04000000001,"N_COORD97":2540364.3399999999,"ADDRESS":"德興路１７７巷５號","OBJECTID":439771},"geometry":{"x":167224.04000000004,"y":2540364.3400000017}},{"attributes":{"ID":439797,"DIS_CODE":0,"TOWNNAME":"南區","LI":"郡南里","LIN":"19鄰","STREET":"德興路","SECT":" ","MAREA":" ","LANE":"１７７巷","ALLEY":" ","HOUSE_NO":"７號","E_COORD97":167234.04000000001,"N_COORD97":2540366.2400000002,"ADDRESS":"德興路１７７巷７號","OBJECTID":439772},"geometry":{"x":167234.04000000097,"y":2540366.2400000021}},{"attributes":{"ID":439798,"DIS_CODE":0,"TOWNNAME":"南區","LI":"興農里","LIN":"11鄰","STREET":"明興路","SECT":" ","MAREA":" ","LANE":"１１８１巷","ALLEY":" ","HOUSE_NO":"１５９之６號","E_COORD97":167189.92999999999,"N_COORD97":2536190.75,"ADDRESS":"明興路１１８１巷１５９之６號","OBJECTID":439773},"geometry":{"x":167189.93000000063,"y":2536190.7500000037}},{"attributes":{"ID":439799,"DIS_CODE":0,"TOWNNAME":"南區","LI":"府南里","LIN":"15鄰","STREET":"金華路","SECT":"一段","MAREA":" ","LANE":"４８４巷","ALLEY":" ","HOUSE_NO":"３號","E_COORD97":167042.03,"N_COORD97":2541522.75,"ADDRESS":"金華路一段４８４巷３號","OBJECTID":439774},"geometry":{"x":167042.03000000212,"y":2541522.75}},{"attributes":{"ID":439800,"DIS_CODE":0,"TOWNNAME":"南區","LI":"府南里","LIN":"15鄰","STREET":"金華路","SECT":"一段","MAREA":" ","LANE":"４８４巷","ALLEY":" ","HOUSE_NO":"５號","E_COORD97":167046.95000000001,"N_COORD97":2541519.2599999998,"ADDRESS":"金華路一段４８４巷５號","OBJECTID":439775},"geometry":{"x":167046.95000000019,"y":2541519.2599999998}},{"attributes":{"ID":439801,"DIS_CODE":0,"TOWNNAME":"南區","LI":"國宅里","LIN":"15鄰","STREET":"新興路","SECT":" ","MAREA":" ","LANE":"４１６巷","ALLEY":" ","HOUSE_NO":"５０號","E_COORD97":166727.42999999999,"N_COORD97":2541906.2400000002,"ADDRESS":"新興路４１６巷５０號","OBJECTID":439776},"geometry":{"x":166727.43000000063,"y":2541906.2400000002}},{"attributes":{"ID":439802,"DIS_CODE":0,"TOWNNAME":"南區","LI":"國宅里","LIN":"15鄰","STREET":"新興路","SECT":" ","MAREA":" ","LANE":"４１６巷","ALLEY":" ","HOUSE_NO":"５２號","E_COORD97":166725.20999999999,"N_COORD97":2541913.0699999998,"ADDRESS":"新興路４１６巷５２號","OBJECTID":439777},"geometry":{"x":166725.21000000183,"y":2541913.0700000022}},{"attributes":{"ID":439803,"DIS_CODE":0,"TOWNNAME":"南區","LI":"再興里","LIN":"8鄰","STREET":"明興路","SECT":" ","MAREA":" ","LANE":"１巷","ALLEY":" ","HOUSE_NO":"９２２號","E_COORD97":166139.20000000001,"N_COORD97":2537068.5699999998,"ADDRESS":"明興路１巷９２２號","OBJECTID":439778},"geometry":{"x":166139.20000000112,"y":2537068.5700000022}},{"attributes":{"ID":439804,"DIS_CODE":0,"TOWNNAME":"南區","LI":"建南里","LIN":"4鄰","STREET":"德興路","SECT":" ","MAREA":" ","LANE":"２６５巷","ALLEY":" ","HOUSE_NO":"３５號","E_COORD97":167311.75,"N_COORD97":2540027.27,"ADDRESS":"德興路２６５巷３５號","OBJECTID":439779},"geometry":{"x":167311.75000000093,"y":2540027.2699999996}},{"attributes":{"ID":439805,"DIS_CODE":0,"TOWNNAME":"南區","LI":"新昌里","LIN":"17鄰","STREET":"大德街","SECT":" ","MAREA":" ","LANE":"１４１巷","ALLEY":" ","HOUSE_NO":"６９號","E_COORD97":167547.41,"N_COORD97":2542798.9199999999,"ADDRESS":"大德街１４１巷６９號","OBJECTID":439780},"geometry":{"x":167547.41000000015,"y":2542798.9200000018}},{"attributes":{"ID":439806,"DIS_CODE":0,"TOWNNAME":"東區","LI":"後甲里","LIN":"4鄰","STREET":"裕農路","SECT":" ","MAREA":" ","LANE":"６２１巷","ALLEY":" ","HOUSE_NO":"１６號","E_COORD97":171672.56,"N_COORD97":2543281.3599999999,"ADDRESS":"裕農路６２１巷１６號","OBJECTID":439781},"geometry":{"x":171672.56000000052,"y":2543281.3599999994}},{"attributes":{"ID":439807,"DIS_CODE":0,"TOWNNAME":"東區","LI":"後甲里","LIN":"4鄰","STREET":"裕農路","SECT":" ","MAREA":" ","LANE":"６２１巷","ALLEY":" ","HOUSE_NO":"１８號","E_COORD97":171683.89999999999,"N_COORD97":2543285.9399999999,"ADDRESS":"裕農路６２１巷１８號","OBJECTID":439782},"geometry":{"x":171683.90000000037,"y":2543285.9400000013}},{"attributes":{"ID":439808,"DIS_CODE":0,"TOWNNAME":"東區","LI":"後甲里","LIN":"4鄰","STREET":"裕農路","SECT":" ","MAREA":" ","LANE":"６２１巷","ALLEY":" ","HOUSE_NO":"２２號","E_COORD97":171662.42999999999,"N_COORD97":2543281.8399999999,"ADDRESS":"裕農路６２１巷２２號","OBJECTID":439783},"geometry":{"x":171662.4299999997,"y":2543281.8399999999}},{"attributes":{"ID":439809,"DIS_CODE":0,"TOWNNAME":"東區","LI":"後甲里","LIN":"4鄰","STREET":"裕農路","SECT":" ","MAREA":" ","LANE":"６２１巷","ALLEY":" ","HOUSE_NO":"２４號","E_COORD97":171653.01999999999,"N_COORD97":2543283.0499999998,"ADDRESS":"裕農路６２１巷２４號","OBJECTID":439784},"geometry":{"x":171653.02000000048,"y":2543283.0500000026}},{"attributes":{"ID":439810,"DIS_CODE":0,"TOWNNAME":"東區","LI":"後甲里","LIN":"4鄰","STREET":"裕農路","SECT":" ","MAREA":" ","LANE":"６２１巷","ALLEY":" ","HOUSE_NO":"２０號","E_COORD97":171690.66,"N_COORD97":2543285.2200000002,"ADDRESS":"裕農路６２１巷２０號","OBJECTID":439785},"geometry":{"x":171690.66000000015,"y":2543285.2200000025}},{"attributes":{"ID":439811,"DIS_CODE":0,"TOWNNAME":"東區","LI":"大德里","LIN":"4鄰","STREET":"立德八路","SECT":" ","MAREA":" ","LANE":"３巷","ALLEY":" ","HOUSE_NO":"７８號","E_COORD97":169431.17000000001,"N_COORD97":2542014.3999999999,"ADDRESS":"立德八路３巷７８號","OBJECTID":439786},"geometry":{"x":169431.17000000086,"y":2542014.4000000004}},{"attributes":{"ID":439812,"DIS_CODE":0,"TOWNNAME":"東區","LI":"大德里","LIN":"4鄰","STREET":"立德八路","SECT":" ","MAREA":" ","LANE":"３巷","ALLEY":" ","HOUSE_NO":"８２號","E_COORD97":169422.34,"N_COORD97":2542011.7400000002,"ADDRESS":"立德八路３巷８２號","OBJECTID":439787},"geometry":{"x":169422.33999999985,"y":2542011.7400000002}},{"attributes":{"ID":439813,"DIS_CODE":0,"TOWNNAME":"東區","LI":"大德里","LIN":"4鄰","STREET":"立德八路","SECT":" ","MAREA":" ","LANE":"３巷","ALLEY":" ","HOUSE_NO":"８４號","E_COORD97":169416.60000000001,"N_COORD97":2542010.9199999999,"ADDRESS":"立德八路３巷８４號","OBJECTID":439788},"geometry":{"x":169416.60000000056,"y":2542010.9200000037}},{"attributes":{"ID":439814,"DIS_CODE":0,"TOWNNAME":"東區","LI":"中西里","LIN":"25鄰","STREET":"東寧路","SECT":" ","MAREA":" ","LANE":"１２０巷","ALLEY":" ","HOUSE_NO":"１１號","E_COORD97":170250.70000000001,"N_COORD97":2543553.75,"ADDRESS":"東寧路１２０巷１１號","OBJECTID":439789},"geometry":{"x":170250.70000000019,"y":2543553.75}},{"attributes":{"ID":439815,"DIS_CODE":0,"TOWNNAME":"東區","LI":"中西里","LIN":"25鄰","STREET":"東寧路","SECT":" ","MAREA":" ","LANE":"１２０巷","ALLEY":" ","HOUSE_NO":"１５號","E_COORD97":170256.98000000001,"N_COORD97":2543551.8300000001,"ADDRESS":"東寧路１２０巷１５號","OBJECTID":439790},"geometry":{"x":170256.98000000138,"y":2543551.8300000019}},{"attributes":{"ID":439816,"DIS_CODE":0,"TOWNNAME":"東區","LI":"中西里","LIN":"25鄰","STREET":"東寧路","SECT":" ","MAREA":" ","LANE":"１２０巷","ALLEY":" ","HOUSE_NO":"１７號之１","E_COORD97":170237.07999999999,"N_COORD97":2543529.9100000001,"ADDRESS":"東寧路１２０巷１７號之１","OBJECTID":439791},"geometry":{"x":170237.08000000101,"y":2543529.9100000039}},{"attributes":{"ID":439817,"DIS_CODE":0,"TOWNNAME":"東區","LI":"中西里","LIN":"25鄰","STREET":"東寧路","SECT":" ","MAREA":" ","LANE":"１２０巷","ALLEY":" ","HOUSE_NO":"１９號","E_COORD97":170250.17000000001,"N_COORD97":2543533.04,"ADDRESS":"東寧路１２０巷１９號","OBJECTID":439792},"geometry":{"x":170250.17000000086,"y":2543533.040000001}},{"attributes":{"ID":439818,"DIS_CODE":0,"TOWNNAME":"東區","LI":"中西里","LIN":"25鄰","STREET":"東寧路","SECT":" ","MAREA":" ","LANE":"１２０巷","ALLEY":" ","HOUSE_NO":"２１號","E_COORD97":170259.95000000001,"N_COORD97":2543536.0099999998,"ADDRESS":"東寧路１２０巷２１號","OBJECTID":439793},"geometry":{"x":170259.95000000205,"y":2543536.0100000016}},{"attributes":{"ID":439819,"DIS_CODE":0,"TOWNNAME":"東區","LI":"圍下里","LIN":"1鄰","STREET":"勝利路","SECT":" ","MAREA":" ","LANE":"６５巷","ALLEY":" ","HOUSE_NO":"２號","E_COORD97":169757.73000000001,"N_COORD97":2543467.27,"ADDRESS":"勝利路６５巷２號","OBJECTID":439794},"geometry":{"x":169757.73000000045,"y":2543467.2700000014}},{"attributes":{"ID":439820,"DIS_CODE":0,"TOWNNAME":"楠西區","LI":"灣丘里","LIN":"3鄰","STREET":" ","SECT":" ","MAREA":"灣丘","LANE":" ","ALLEY":" ","HOUSE_NO":"２８號之３","E_COORD97":199889.78693,"N_COORD97":2564019.34987,"ADDRESS":"灣丘２８號之３","OBJECTID":439795},"geometry":{"x":199889.78693000134,"y":2564019.3498749975}},{"attributes":{"ID":439821,"DIS_CODE":0,"TOWNNAME":"東區","LI":"大學里","LIN":"13鄰","STREET":"東寧路","SECT":" ","MAREA":" ","LANE":"９３巷","ALLEY":" ","HOUSE_NO":"１１號","E_COORD97":170282.72,"N_COORD97":2543710.9500000002,"ADDRESS":"東寧路９３巷１１號","OBJECTID":439796},"geometry":{"x":170282.71999999974,"y":2543710.9499999993}},{"attributes":{"ID":439822,"DIS_CODE":0,"TOWNNAME":"東區","LI":"大學里","LIN":"13鄰","STREET":"東寧路","SECT":" ","MAREA":" ","LANE":"９３巷","ALLEY":" ","HOUSE_NO":"１３號","E_COORD97":170288.20000000001,"N_COORD97":2543696.5299999998,"ADDRESS":"東寧路９３巷１３號","OBJECTID":439797},"geometry":{"x":170288.20000000019,"y":2543696.5299999993}},{"attributes":{"ID":439823,"DIS_CODE":0,"TOWNNAME":"東區","LI":"大學里","LIN":"17鄰","STREET":"東寧路","SECT":" ","MAREA":" ","LANE":"８３巷","ALLEY":" ","HOUSE_NO":"１０號","E_COORD97":170316.69,"N_COORD97":2543636.2999999998,"ADDRESS":"東寧路８３巷１０號","OBJECTID":439798},"geometry":{"x":170316.69000000134,"y":2543636.2999999989}},{"attributes":{"ID":439824,"DIS_CODE":0,"TOWNNAME":"東區","LI":"大學里","LIN":"17鄰","STREET":"東寧路","SECT":" ","MAREA":" ","LANE":"８３巷","ALLEY":" ","HOUSE_NO":"１２號","E_COORD97":170311.91,"N_COORD97":2543638.4500000002,"ADDRESS":"東寧路８３巷１２號","OBJECTID":439799},"geometry":{"x":170311.91000000015,"y":2543638.4500000011}},{"attributes":{"ID":439825,"DIS_CODE":0,"TOWNNAME":"東區","LI":"大學里","LIN":"17鄰","STREET":"東寧路","SECT":" ","MAREA":" ","LANE":"８３巷","ALLEY":" ","HOUSE_NO":"１４號","E_COORD97":170306.60000000001,"N_COORD97":2543639.3799999999,"ADDRESS":"東寧路８３巷１４號","OBJECTID":439800},"geometry":{"x":170306.60000000056,"y":2543639.379999999}}]}