{"displayFieldName":"TOWNNAME","fieldAliases":{"ID":"ID","DIS_CODE":"DIS_CODE","TOWNNAME":"TOWNNAME","LI":"LI","LIN":"LIN","STREET":"STREET","SECT":"SECT","MAREA":"MAREA","LANE":"LANE","ALLEY":"ALLEY","HOUSE_NO":"HOUSE_NO","E_COORD97":"E_COORD97","N_COORD97":"N_COORD97","ADDRESS":"ADDRESS","OBJECTID":"OBJECTID"},"geometryType":"esriGeometryPoint","spatialReference":{"wkid":102443,"latestWkid":3826},"fields":[{"name":"ID","type":"esriFieldTypeDouble","alias":"ID"},{"name":"DIS_CODE","type":"esriFieldTypeInteger","alias":"DIS_CODE"},{"name":"TOWNNAME","type":"esriFieldTypeString","alias":"TOWNNAME","length":8},{"name":"LI","type":"esriFieldTypeString","alias":"LI","length":8},{"name":"LIN","type":"esriFieldTypeString","alias":"LIN","length":12},{"name":"STREET","type":"esriFieldTypeString","alias":"STREET","length":20},{"name":"SECT","type":"esriFieldTypeString","alias":"SECT","length":8},{"name":"MAREA","type":"esriFieldTypeString","alias":"MAREA","length":12},{"name":"LANE","type":"esriFieldTypeString","alias":"LANE","length":10},{"name":"ALLEY","type":"esriFieldTypeString","alias":"ALLEY","length":10},{"name":"HOUSE_NO","type":"esriFieldTypeString","alias":"HOUSE_NO","length":20},{"name":"E_COORD97","type":"esriFieldTypeDouble","alias":"E_COORD97"},{"name":"N_COORD97","type":"esriFieldTypeDouble","alias":"N_COORD97"},{"name":"ADDRESS","type":"esriFieldTypeString","alias":"ADDRESS","length":50},{"name":"OBJECTID","type":"esriFieldTypeOID","alias":"OBJECTID"}],"features":[{"attributes":{"ID":482226,"DIS_CODE":0,"TOWNNAME":"安平區","LI":"石門里","LIN":"11鄰","STREET":"\u25A0忠街","SECT":" ","MAREA":" ","LANE":" ","ALLEY":" ","HOUSE_NO":"２０號之２","E_COORD97":164374.73999999999,"N_COORD97":2544675.5,"ADDRESS":"\u25A0忠街２０號之２","OBJECTID":482201},"geometry":{"x":164374.74000000115,"y":2544675.5000000019}},{"attributes":{"ID":482227,"DIS_CODE":0,"TOWNNAME":"安平區","LI":"石門里","LIN":"11鄰","STREET":"\u25A0忠街","SECT":" ","MAREA":" ","LANE":" ","ALLEY":" ","HOUSE_NO":"２０號之３","E_COORD97":164376.20000000001,"N_COORD97":2544679.8900000001,"ADDRESS":"\u25A0忠街２０號之３","OBJECTID":482202},"geometry":{"x":164376.20000000112,"y":2544679.8900000043}},{"attributes":{"ID":482228,"DIS_CODE":0,"TOWNNAME":"安平區","LI":"石門里","LIN":"11鄰","STREET":"\u25A0忠街","SECT":" ","MAREA":" ","LANE":" ","ALLEY":" ","HOUSE_NO":"２０號之４","E_COORD97":164377.67000000001,"N_COORD97":2544683.1000000001,"ADDRESS":"\u25A0忠街２０號之４","OBJECTID":482203},"geometry":{"x":164377.67000000179,"y":2544683.0999999996}},{"attributes":{"ID":482229,"DIS_CODE":0,"TOWNNAME":"安平區","LI":"石門里","LIN":"11鄰","STREET":"\u25A0忠街","SECT":" ","MAREA":" ","LANE":" ","ALLEY":" ","HOUSE_NO":"２０號之５","E_COORD97":164380.01000000001,"N_COORD97":2544686.8999999999,"ADDRESS":"\u25A0忠街２０號之５","OBJECTID":482204},"geometry":{"x":164380.00999999978,"y":2544686.9000000022}},{"attributes":{"ID":482230,"DIS_CODE":0,"TOWNNAME":"安平區","LI":"石門里","LIN":"11鄰","STREET":"\u25A0忠街","SECT":" ","MAREA":" ","LANE":" ","ALLEY":" ","HOUSE_NO":"２０號之６","E_COORD97":164380.01000000001,"N_COORD97":2544690.71,"ADDRESS":"\u25A0忠街２０號之６","OBJECTID":482205},"geometry":{"x":164380.00999999978,"y":2544690.7100000009}},{"attributes":{"ID":482231,"DIS_CODE":0,"TOWNNAME":"安平區","LI":"石門里","LIN":"11鄰","STREET":"\u25A0忠街","SECT":" ","MAREA":" ","LANE":" ","ALLEY":" ","HOUSE_NO":"２０號之７","E_COORD97":164401.85999999999,"N_COORD97":2544657.0299999998,"ADDRESS":"\u25A0忠街２０號之７","OBJECTID":482206},"geometry":{"x":164401.86000000034,"y":2544657.0299999993}},{"attributes":{"ID":482232,"DIS_CODE":0,"TOWNNAME":"安平區","LI":"金城里","LIN":"11鄰","STREET":"世平路","SECT":" ","MAREA":" ","LANE":" ","ALLEY":" ","HOUSE_NO":"１０之２號","E_COORD97":163046.54999999999,"N_COORD97":2543853.7999999998,"ADDRESS":"世平路１０之２號","OBJECTID":482207},"geometry":{"x":163046.55000000075,"y":2543853.8000000026}},{"attributes":{"ID":482233,"DIS_CODE":0,"TOWNNAME":"安平區","LI":"金城里","LIN":"11鄰","STREET":"世平路","SECT":" ","MAREA":" ","LANE":" ","ALLEY":" ","HOUSE_NO":"１０之３號","E_COORD97":163044.89999999999,"N_COORD97":2543855.8599999999,"ADDRESS":"世平路１０之３號","OBJECTID":482208},"geometry":{"x":163044.90000000037,"y":2543855.8600000013}},{"attributes":{"ID":482234,"DIS_CODE":0,"TOWNNAME":"安平區","LI":"石門里","LIN":"11鄰","STREET":"平生路","SECT":" ","MAREA":" ","LANE":" ","ALLEY":" ","HOUSE_NO":"７６號","E_COORD97":164381.63,"N_COORD97":2544731.9700000002,"ADDRESS":"平生路７６號","OBJECTID":482209},"geometry":{"x":164381.63000000082,"y":2544731.9700000025}},{"attributes":{"ID":482235,"DIS_CODE":0,"TOWNNAME":"安南區","LI":"溪心里","LIN":"11鄰","STREET":"功安三街","SECT":" ","MAREA":" ","LANE":" ","ALLEY":" ","HOUSE_NO":"６號","E_COORD97":166274.76000000001,"N_COORD97":2549978.0899999999,"ADDRESS":"功安三街６號","OBJECTID":482210},"geometry":{"x":166274.75999999978,"y":2549978.0900000017}},{"attributes":{"ID":482236,"DIS_CODE":0,"TOWNNAME":"安南區","LI":"溪心里","LIN":"11鄰","STREET":"功安三街","SECT":" ","MAREA":" ","LANE":" ","ALLEY":" ","HOUSE_NO":"８號","E_COORD97":166272.01000000001,"N_COORD97":2549981.27,"ADDRESS":"功安三街８號","OBJECTID":482211},"geometry":{"x":166272.01000000164,"y":2549981.2699999996}},{"attributes":{"ID":482237,"DIS_CODE":0,"TOWNNAME":"安南區","LI":"溪心里","LIN":"11鄰","STREET":"功安三街","SECT":" ","MAREA":" ","LANE":" ","ALLEY":" ","HOUSE_NO":"１０號","E_COORD97":166268.82999999999,"N_COORD97":2549984.6499999999,"ADDRESS":"功安三街１０號","OBJECTID":482212},"geometry":{"x":166268.83000000101,"y":2549984.6500000022}},{"attributes":{"ID":482238,"DIS_CODE":0,"TOWNNAME":"安南區","LI":"溪心里","LIN":"11鄰","STREET":"功安三街","SECT":" ","MAREA":" ","LANE":" ","ALLEY":" ","HOUSE_NO":"１２號","E_COORD97":166266.5,"N_COORD97":2549987.8300000001,"ADDRESS":"功安三街１２號","OBJECTID":482213},"geometry":{"x":166266.5,"y":2549987.8300000001}},{"attributes":{"ID":482239,"DIS_CODE":0,"TOWNNAME":"安南區","LI":"溪心里","LIN":"11鄰","STREET":"功安三街","SECT":" ","MAREA":" ","LANE":" ","ALLEY":" ","HOUSE_NO":"１２之１號","E_COORD97":166263.75,"N_COORD97":2549991.21,"ADDRESS":"功安三街１２之１號","OBJECTID":482214},"geometry":{"x":166263.74999999907,"y":2549991.2100000028}},{"attributes":{"ID":482240,"DIS_CODE":0,"TOWNNAME":"安南區","LI":"溪心里","LIN":"11鄰","STREET":"安吉路","SECT":"一段","MAREA":" ","LANE":" ","ALLEY":" ","HOUSE_NO":"９９１號","E_COORD97":167003.16,"N_COORD97":2550599.7000000002,"ADDRESS":"安吉路一段９９１號","OBJECTID":482215},"geometry":{"x":167003.16000000015,"y":2550599.700000003}},{"attributes":{"ID":482241,"DIS_CODE":0,"TOWNNAME":"南區","LI":"彰南里","LIN":"11鄰","STREET":"新忠路","SECT":" ","MAREA":" ","LANE":" ","ALLEY":" ","HOUSE_NO":"１６之１號","E_COORD97":165963.10999999999,"N_COORD97":2542314.6000000001,"ADDRESS":"新忠路１６之１號","OBJECTID":482216},"geometry":{"x":165963.11000000034,"y":2542314.6000000034}},{"attributes":{"ID":482242,"DIS_CODE":0,"TOWNNAME":"安南區","LI":"淵東里","LIN":"11鄰","STREET":"仁安路","SECT":" ","MAREA":" ","LANE":" ","ALLEY":" ","HOUSE_NO":"４１之１號","E_COORD97":165546.23000000001,"N_COORD97":2550084.8799999999,"ADDRESS":"仁安路４１之１號","OBJECTID":482217},"geometry":{"x":165546.23000000138,"y":2550084.879999999}},{"attributes":{"ID":482243,"DIS_CODE":0,"TOWNNAME":"安南區","LI":"淵東里","LIN":"11鄰","STREET":"仁安路","SECT":" ","MAREA":" ","LANE":" ","ALLEY":" ","HOUSE_NO":"４１號","E_COORD97":165543.22,"N_COORD97":2550082.8199999998,"ADDRESS":"仁安路４１號","OBJECTID":482218},"geometry":{"x":165543.21999999881,"y":2550082.8200000003}},{"attributes":{"ID":482244,"DIS_CODE":0,"TOWNNAME":"安南區","LI":"淵東里","LIN":"11鄰","STREET":"仁安路","SECT":" ","MAREA":" ","LANE":" ","ALLEY":" ","HOUSE_NO":"３９號","E_COORD97":165541.47,"N_COORD97":2550078.3799999999,"ADDRESS":"仁安路３９號","OBJECTID":482219},"geometry":{"x":165541.46999999974,"y":2550078.379999999}},{"attributes":{"ID":482245,"DIS_CODE":0,"TOWNNAME":"安南區","LI":"淵東里","LIN":"11鄰","STREET":"仁安路","SECT":" ","MAREA":" ","LANE":" ","ALLEY":" ","HOUSE_NO":"３７號","E_COORD97":165537.98000000001,"N_COORD97":2550076.1499999999,"ADDRESS":"仁安路３７號","OBJECTID":482220},"geometry":{"x":165537.98000000138,"y":2550076.1500000022}},{"attributes":{"ID":482246,"DIS_CODE":0,"TOWNNAME":"安南區","LI":"淵東里","LIN":"11鄰","STREET":"仁安路","SECT":" ","MAREA":" ","LANE":" ","ALLEY":" ","HOUSE_NO":"３５號","E_COORD97":165534.48999999999,"N_COORD97":2550073.4500000002,"ADDRESS":"仁安路３５號","OBJECTID":482221},"geometry":{"x":165534.49000000022,"y":2550073.4500000011}},{"attributes":{"ID":482247,"DIS_CODE":0,"TOWNNAME":"安南區","LI":"淵東里","LIN":"11鄰","STREET":"仁安路","SECT":" ","MAREA":" ","LANE":" ","ALLEY":" ","HOUSE_NO":"７１號","E_COORD97":165611.48000000001,"N_COORD97":2550135.0499999998,"ADDRESS":"仁安路７１號","OBJECTID":482222},"geometry":{"x":165611.48000000045,"y":2550135.0500000026}},{"attributes":{"ID":482248,"DIS_CODE":0,"TOWNNAME":"安南區","LI":"淵東里","LIN":"11鄰","STREET":"仁安路","SECT":" ","MAREA":" ","LANE":" ","ALLEY":" ","HOUSE_NO":"７３號","E_COORD97":165614.81,"N_COORD97":2550135.8399999999,"ADDRESS":"仁安路７３號","OBJECTID":482223},"geometry":{"x":165614.80999999959,"y":2550135.8400000017}},{"attributes":{"ID":482249,"DIS_CODE":0,"TOWNNAME":"安南區","LI":"淵東里","LIN":"11鄰","STREET":"仁安路","SECT":" ","MAREA":" ","LANE":" ","ALLEY":" ","HOUSE_NO":"７９號","E_COORD97":165624.34,"N_COORD97":2550139.02,"ADDRESS":"仁安路７９號","OBJECTID":482224},"geometry":{"x":165624.34000000078,"y":2550139.0199999996}},{"attributes":{"ID":482250,"DIS_CODE":0,"TOWNNAME":"安南區","LI":"淵東里","LIN":"11鄰","STREET":"仁安路","SECT":" ","MAREA":" ","LANE":" ","ALLEY":" ","HOUSE_NO":"８１號","E_COORD97":165630.37,"N_COORD97":2550140.7599999998,"ADDRESS":"仁安路８１號","OBJECTID":482225},"geometry":{"x":165630.37000000011,"y":2550140.7599999998}},{"attributes":{"ID":482251,"DIS_CODE":0,"TOWNNAME":"安平區","LI":"育平里","LIN":"11鄰","STREET":"育平五街","SECT":" ","MAREA":" ","LANE":" ","ALLEY":" ","HOUSE_NO":"７７號五樓３","E_COORD97":164668.70000000001,"N_COORD97":2543499.4199999999,"ADDRESS":"育平五街７７號五樓３","OBJECTID":482226},"geometry":{"x":164668.70000000019,"y":2543499.4200000037}},{"attributes":{"ID":482252,"DIS_CODE":0,"TOWNNAME":"安平區","LI":"億載里","LIN":"5鄰","STREET":"光州七街","SECT":" ","MAREA":" ","LANE":" ","ALLEY":" ","HOUSE_NO":"７９號","E_COORD97":164060.92999999999,"N_COORD97":2543732.9100000001,"ADDRESS":"光州七街７９號","OBJECTID":482227},"geometry":{"x":164060.93000000063,"y":2543732.9100000001}},{"attributes":{"ID":482253,"DIS_CODE":0,"TOWNNAME":"安平區","LI":"億載里","LIN":"5鄰","STREET":"光州七街","SECT":" ","MAREA":" ","LANE":" ","ALLEY":" ","HOUSE_NO":"７７號","E_COORD97":164065.69,"N_COORD97":2543732.7799999998,"ADDRESS":"光州七街７７號","OBJECTID":482228},"geometry":{"x":164065.69000000041,"y":2543732.7799999993}},{"attributes":{"ID":482254,"DIS_CODE":0,"TOWNNAME":"安平區","LI":"怡平里","LIN":"5鄰","STREET":"建平十七街","SECT":" ","MAREA":" ","LANE":" ","ALLEY":" ","HOUSE_NO":"２０５號","E_COORD97":165625.44,"N_COORD97":2544220.4399999999,"ADDRESS":"建平十七街２０５號","OBJECTID":482229},"geometry":{"x":165625.44000000041,"y":2544220.4399999995}},{"attributes":{"ID":482255,"DIS_CODE":0,"TOWNNAME":"安平區","LI":"怡平里","LIN":"5鄰","STREET":"慶平路","SECT":" ","MAREA":" ","LANE":" ","ALLEY":" ","HOUSE_NO":"３８６－３號","E_COORD97":165610.62,"N_COORD97":2544186.7000000002,"ADDRESS":"慶平路３８６－３號","OBJECTID":482230},"geometry":{"x":165610.62000000197,"y":2544186.6999999993}},{"attributes":{"ID":482256,"DIS_CODE":0,"TOWNNAME":"安平區","LI":"怡平里","LIN":"5鄰","STREET":"慶平路","SECT":" ","MAREA":" ","LANE":" ","ALLEY":" ","HOUSE_NO":"３８６－２號","E_COORD97":165615.91,"N_COORD97":2544186.2999999998,"ADDRESS":"慶平路３８６－２號","OBJECTID":482231},"geometry":{"x":165615.91000000108,"y":2544186.3000000026}},{"attributes":{"ID":482257,"DIS_CODE":0,"TOWNNAME":"安平區","LI":"怡平里","LIN":"5鄰","STREET":"慶平路","SECT":" ","MAREA":" ","LANE":" ","ALLEY":" ","HOUSE_NO":"３８６－１號","E_COORD97":165621.87,"N_COORD97":2544186.9700000002,"ADDRESS":"慶平路３８６－１號","OBJECTID":482232},"geometry":{"x":165621.87000000011,"y":2544186.9700000007}},{"attributes":{"ID":482258,"DIS_CODE":0,"TOWNNAME":"安平區","LI":"建平里","LIN":"5鄰","STREET":"慶平路","SECT":" ","MAREA":" ","LANE":" ","ALLEY":" ","HOUSE_NO":"９２－１號","E_COORD97":166100.09,"N_COORD97":2544200.73,"ADDRESS":"慶平路９２－１號","OBJECTID":482233},"geometry":{"x":166100.08999999985,"y":2544200.7300000023}},{"attributes":{"ID":482259,"DIS_CODE":0,"TOWNNAME":"安平區","LI":"金城里","LIN":"15鄰","STREET":"州平三街","SECT":" ","MAREA":" ","LANE":" ","ALLEY":" ","HOUSE_NO":"１５號之１","E_COORD97":162724.14000000001,"N_COORD97":2544398.3700000001,"ADDRESS":"州平三街１５號之１","OBJECTID":482234},"geometry":{"x":162724.13999999966,"y":2544398.370000001}},{"attributes":{"ID":482260,"DIS_CODE":0,"TOWNNAME":"安平區","LI":"金城里","LIN":"15鄰","STREET":"州平三街","SECT":" ","MAREA":" ","LANE":" ","ALLEY":" ","HOUSE_NO":"１７號之３","E_COORD97":162696.35999999999,"N_COORD97":2544403.29,"ADDRESS":"州平三街１７號之３","OBJECTID":482235},"geometry":{"x":162696.36000000034,"y":2544403.2899999991}},{"attributes":{"ID":482261,"DIS_CODE":0,"TOWNNAME":"安平區","LI":"億載里","LIN":"15鄰","STREET":"光州路","SECT":" ","MAREA":" ","LANE":" ","ALLEY":" ","HOUSE_NO":"４０號","E_COORD97":164003.20999999999,"N_COORD97":2543021.7799999998,"ADDRESS":"光州路４０號","OBJECTID":482236},"geometry":{"x":164003.21000000089,"y":2543021.7800000012}},{"attributes":{"ID":482262,"DIS_CODE":0,"TOWNNAME":"安平區","LI":"億載里","LIN":"15鄰","STREET":"光州路","SECT":" ","MAREA":" ","LANE":" ","ALLEY":" ","HOUSE_NO":"４２號","E_COORD97":164002.25,"N_COORD97":2543025.4500000002,"ADDRESS":"光州路４２號","OBJECTID":482237},"geometry":{"x":164002.25,"y":2543025.4499999993}},{"attributes":{"ID":482263,"DIS_CODE":0,"TOWNNAME":"安平區","LI":"億載里","LIN":"15鄰","STREET":"光州路","SECT":" ","MAREA":" ","LANE":" ","ALLEY":" ","HOUSE_NO":"４６號","E_COORD97":164000.97,"N_COORD97":2543029.9300000002,"ADDRESS":"光州路４６號","OBJECTID":482238},"geometry":{"x":164000.97000000067,"y":2543029.9299999997}},{"attributes":{"ID":482264,"DIS_CODE":0,"TOWNNAME":"東區","LI":"關聖里","LIN":"15鄰","STREET":"裕忠路","SECT":" ","MAREA":" ","LANE":" ","ALLEY":" ","HOUSE_NO":"７１之２號","E_COORD97":172294.84,"N_COORD97":2543069.6400000001,"ADDRESS":"裕忠路７１之２號","OBJECTID":482239},"geometry":{"x":172294.84000000078,"y":2543069.6400000006}},{"attributes":{"ID":482265,"DIS_CODE":0,"TOWNNAME":"南區","LI":"府南里","LIN":"11鄰","STREET":"永成路","SECT":"三段","MAREA":" ","LANE":" ","ALLEY":" ","HOUSE_NO":"６００號","E_COORD97":167510.405195,"N_COORD97":2541553.9483699999,"ADDRESS":"永成路三段６００號","OBJECTID":482240},"geometry":{"x":167510.40519500151,"y":2541553.9483690001}},{"attributes":{"ID":482266,"DIS_CODE":0,"TOWNNAME":"東區","LI":"關聖里","LIN":"15鄰","STREET":"裕忠路","SECT":" ","MAREA":" ","LANE":" ","ALLEY":" ","HOUSE_NO":"７１之３號","E_COORD97":172300.92000000001,"N_COORD97":2543069.48,"ADDRESS":"裕忠路７１之３號","OBJECTID":482241},"geometry":{"x":172300.92000000179,"y":2543069.4800000023}},{"attributes":{"ID":482267,"DIS_CODE":0,"TOWNNAME":"東區","LI":"關聖里","LIN":"15鄰","STREET":"裕忠路","SECT":" ","MAREA":" ","LANE":" ","ALLEY":" ","HOUSE_NO":"７１之５號","E_COORD97":172307.82999999999,"N_COORD97":2543069.48,"ADDRESS":"裕忠路７１之５號","OBJECTID":482242},"geometry":{"x":172307.83000000007,"y":2543069.4800000023}},{"attributes":{"ID":482268,"DIS_CODE":0,"TOWNNAME":"東區","LI":"關聖里","LIN":"15鄰","STREET":"裕忠路","SECT":" ","MAREA":" ","LANE":" ","ALLEY":" ","HOUSE_NO":"７１之６號","E_COORD97":172314.23999999999,"N_COORD97":2543068.8199999998,"ADDRESS":"裕忠路７１之６號","OBJECTID":482243},"geometry":{"x":172314.24000000209,"y":2543068.8200000003}},{"attributes":{"ID":482269,"DIS_CODE":0,"TOWNNAME":"東區","LI":"關聖里","LIN":"15鄰","STREET":"裕忠路","SECT":" ","MAREA":" ","LANE":" ","ALLEY":" ","HOUSE_NO":"７１之７號","E_COORD97":172321.31,"N_COORD97":2543069.3100000001,"ADDRESS":"裕忠路７１之７號","OBJECTID":482244},"geometry":{"x":172321.30999999959,"y":2543069.3100000005}},{"attributes":{"ID":482270,"DIS_CODE":0,"TOWNNAME":"東區","LI":"關聖里","LIN":"15鄰","STREET":"裕忠路","SECT":" ","MAREA":" ","LANE":" ","ALLEY":" ","HOUSE_NO":"７１號","E_COORD97":172277.09,"N_COORD97":2543069.1499999999,"ADDRESS":"裕忠路７１號","OBJECTID":482245},"geometry":{"x":172277.08999999985,"y":2543069.1500000022}},{"attributes":{"ID":482271,"DIS_CODE":0,"TOWNNAME":"東區","LI":"關聖里","LIN":"15鄰","STREET":"裕忠路","SECT":" ","MAREA":" ","LANE":" ","ALLEY":" ","HOUSE_NO":"７３之１號","E_COORD97":172286.62,"N_COORD97":2543057.7999999998,"ADDRESS":"裕忠路７３之１號","OBJECTID":482246},"geometry":{"x":172286.62000000104,"y":2543057.8000000026}},{"attributes":{"ID":482272,"DIS_CODE":0,"TOWNNAME":"東區","LI":"關聖里","LIN":"15鄰","STREET":"裕忠路","SECT":" ","MAREA":" ","LANE":" ","ALLEY":" ","HOUSE_NO":"７３之２號","E_COORD97":172293.35999999999,"N_COORD97":2543057.48,"ADDRESS":"裕忠路７３之２號","OBJECTID":482247},"geometry":{"x":172293.3600000022,"y":2543057.4800000004}},{"attributes":{"ID":482273,"DIS_CODE":0,"TOWNNAME":"東區","LI":"關聖里","LIN":"15鄰","STREET":"裕忠路","SECT":" ","MAREA":" ","LANE":" ","ALLEY":" ","HOUSE_NO":"７３之３號","E_COORD97":172300.92000000001,"N_COORD97":2543057.6400000001,"ADDRESS":"裕忠路７３之３號","OBJECTID":482248},"geometry":{"x":172300.92000000179,"y":2543057.6400000043}},{"attributes":{"ID":482274,"DIS_CODE":0,"TOWNNAME":"東區","LI":"關聖里","LIN":"15鄰","STREET":"裕忠路","SECT":" ","MAREA":" ","LANE":" ","ALLEY":" ","HOUSE_NO":"７３之５號","E_COORD97":172307.98999999999,"N_COORD97":2543057.7999999998,"ADDRESS":"裕忠路７３之５號","OBJECTID":482249},"geometry":{"x":172307.99000000115,"y":2543057.8000000026}},{"attributes":{"ID":482275,"DIS_CODE":0,"TOWNNAME":"東區","LI":"關聖里","LIN":"15鄰","STREET":"裕忠路","SECT":" ","MAREA":" ","LANE":" ","ALLEY":" ","HOUSE_NO":"７３之６號","E_COORD97":172313.75,"N_COORD97":2543056.98,"ADDRESS":"裕忠路７３之６號","OBJECTID":482250},"geometry":{"x":172313.75,"y":2543056.9800000004}},{"attributes":{"ID":482276,"DIS_CODE":0,"TOWNNAME":"東區","LI":"關聖里","LIN":"15鄰","STREET":"裕忠路","SECT":" ","MAREA":" ","LANE":" ","ALLEY":" ","HOUSE_NO":"７３之７號","E_COORD97":172321.14999999999,"N_COORD97":2543056.8199999998,"ADDRESS":"裕忠路７３之７號","OBJECTID":482251},"geometry":{"x":172321.15000000037,"y":2543056.8200000022}},{"attributes":{"ID":482277,"DIS_CODE":0,"TOWNNAME":"安南區","LI":"新順里","LIN":"15鄰","STREET":"育安三街","SECT":" ","MAREA":" ","LANE":" ","ALLEY":" ","HOUSE_NO":"１３號","E_COORD97":169239.20000000001,"N_COORD97":2549849.29,"ADDRESS":"育安三街１３號","OBJECTID":482252},"geometry":{"x":169239.20000000019,"y":2549849.2900000028}},{"attributes":{"ID":482278,"DIS_CODE":0,"TOWNNAME":"東區","LI":"崇信里","LIN":"25鄰","STREET":"崇信街","SECT":" ","MAREA":" ","LANE":" ","ALLEY":" ","HOUSE_NO":"１２２號七樓","E_COORD97":170761.76000000001,"N_COORD97":2542272.7799999998,"ADDRESS":"崇信街１２２號七樓","OBJECTID":482253},"geometry":{"x":170761.75999999978,"y":2542272.7800000012}},{"attributes":{"ID":482279,"DIS_CODE":0,"TOWNNAME":"東區","LI":"崇信里","LIN":"25鄰","STREET":"崇信街","SECT":" ","MAREA":" ","LANE":" ","ALLEY":" ","HOUSE_NO":"１２２號七樓之１","E_COORD97":170761.76000000001,"N_COORD97":2542272.7799999998,"ADDRESS":"崇信街１２２號七樓之１","OBJECTID":482254},"geometry":{"x":170761.75999999978,"y":2542272.7800000012}},{"attributes":{"ID":482280,"DIS_CODE":0,"TOWNNAME":"東區","LI":"崇信里","LIN":"25鄰","STREET":"崇信街","SECT":" ","MAREA":" ","LANE":" ","ALLEY":" ","HOUSE_NO":"１２２號七樓之２","E_COORD97":170761.76000000001,"N_COORD97":2542272.7799999998,"ADDRESS":"崇信街１２２號七樓之２","OBJECTID":482255},"geometry":{"x":170761.75999999978,"y":2542272.7800000012}},{"attributes":{"ID":482281,"DIS_CODE":0,"TOWNNAME":"東區","LI":"崇信里","LIN":"25鄰","STREET":"崇信街","SECT":" ","MAREA":" ","LANE":" ","ALLEY":" ","HOUSE_NO":"１２２號九樓","E_COORD97":170761.76000000001,"N_COORD97":2542272.7799999998,"ADDRESS":"崇信街１２２號九樓","OBJECTID":482256},"geometry":{"x":170761.75999999978,"y":2542272.7800000012}},{"attributes":{"ID":482282,"DIS_CODE":0,"TOWNNAME":"東區","LI":"崇信里","LIN":"25鄰","STREET":"崇信街","SECT":" ","MAREA":" ","LANE":" ","ALLEY":" ","HOUSE_NO":"１２２號九樓之１","E_COORD97":170761.76000000001,"N_COORD97":2542272.7799999998,"ADDRESS":"崇信街１２２號九樓之１","OBJECTID":482257},"geometry":{"x":170761.75999999978,"y":2542272.7800000012}},{"attributes":{"ID":482283,"DIS_CODE":0,"TOWNNAME":"東區","LI":"崇信里","LIN":"25鄰","STREET":"崇信街","SECT":" ","MAREA":" ","LANE":" ","ALLEY":" ","HOUSE_NO":"１２２號九樓之２","E_COORD97":170761.76000000001,"N_COORD97":2542272.7799999998,"ADDRESS":"崇信街１２２號九樓之２","OBJECTID":482258},"geometry":{"x":170761.75999999978,"y":2542272.7800000012}},{"attributes":{"ID":482284,"DIS_CODE":0,"TOWNNAME":"東區","LI":"崇信里","LIN":"25鄰","STREET":"崇信街","SECT":" ","MAREA":" ","LANE":" ","ALLEY":" ","HOUSE_NO":"１２２號八樓","E_COORD97":170761.76000000001,"N_COORD97":2542272.7799999998,"ADDRESS":"崇信街１２２號八樓","OBJECTID":482259},"geometry":{"x":170761.75999999978,"y":2542272.7800000012}},{"attributes":{"ID":482285,"DIS_CODE":0,"TOWNNAME":"東區","LI":"崇信里","LIN":"25鄰","STREET":"崇信街","SECT":" ","MAREA":" ","LANE":" ","ALLEY":" ","HOUSE_NO":"１２２號八樓之１","E_COORD97":170761.76000000001,"N_COORD97":2542272.7799999998,"ADDRESS":"崇信街１２２號八樓之１","OBJECTID":482260},"geometry":{"x":170761.75999999978,"y":2542272.7800000012}},{"attributes":{"ID":482286,"DIS_CODE":0,"TOWNNAME":"中西區","LI":"萬昌里","LIN":"15鄰","STREET":"民權路","SECT":"一段","MAREA":" ","LANE":" ","ALLEY":" ","HOUSE_NO":"１９６號","E_COORD97":168806.82999999999,"N_COORD97":2543595.1499999999,"ADDRESS":"民權路一段１９６號","OBJECTID":482261},"geometry":{"x":168806.83000000101,"y":2543595.1500000004}},{"attributes":{"ID":482287,"DIS_CODE":0,"TOWNNAME":"東區","LI":"崇信里","LIN":"25鄰","STREET":"崇信街","SECT":" ","MAREA":" ","LANE":" ","ALLEY":" ","HOUSE_NO":"１２２號八樓之２","E_COORD97":170761.76000000001,"N_COORD97":2542272.7799999998,"ADDRESS":"崇信街１２２號八樓之２","OBJECTID":482262},"geometry":{"x":170761.75999999978,"y":2542272.7800000012}},{"attributes":{"ID":482288,"DIS_CODE":0,"TOWNNAME":"東區","LI":"崇信里","LIN":"25鄰","STREET":"崇信街","SECT":" ","MAREA":" ","LANE":" ","ALLEY":" ","HOUSE_NO":"１２２號十一樓","E_COORD97":170761.76000000001,"N_COORD97":2542272.7799999998,"ADDRESS":"崇信街１２２號十一樓","OBJECTID":482263},"geometry":{"x":170761.75999999978,"y":2542272.7800000012}},{"attributes":{"ID":482289,"DIS_CODE":0,"TOWNNAME":"東區","LI":"崇信里","LIN":"25鄰","STREET":"崇信街","SECT":" ","MAREA":" ","LANE":" ","ALLEY":" ","HOUSE_NO":"１２２號十一樓之１","E_COORD97":170761.76000000001,"N_COORD97":2542272.7799999998,"ADDRESS":"崇信街１２２號十一樓之１","OBJECTID":482264},"geometry":{"x":170761.75999999978,"y":2542272.7800000012}},{"attributes":{"ID":482290,"DIS_CODE":0,"TOWNNAME":"東區","LI":"崇信里","LIN":"25鄰","STREET":"崇信街","SECT":" ","MAREA":" ","LANE":" ","ALLEY":" ","HOUSE_NO":"１２２號十樓","E_COORD97":170761.76000000001,"N_COORD97":2542272.7799999998,"ADDRESS":"崇信街１２２號十樓","OBJECTID":482265},"geometry":{"x":170761.75999999978,"y":2542272.7800000012}},{"attributes":{"ID":482291,"DIS_CODE":0,"TOWNNAME":"東區","LI":"崇信里","LIN":"25鄰","STREET":"崇信街","SECT":" ","MAREA":" ","LANE":" ","ALLEY":" ","HOUSE_NO":"１２２號十樓之１","E_COORD97":170761.76000000001,"N_COORD97":2542272.7799999998,"ADDRESS":"崇信街１２２號十樓之１","OBJECTID":482266},"geometry":{"x":170761.75999999978,"y":2542272.7800000012}},{"attributes":{"ID":482292,"DIS_CODE":0,"TOWNNAME":"東區","LI":"崇信里","LIN":"25鄰","STREET":"崇信街","SECT":" ","MAREA":" ","LANE":" ","ALLEY":" ","HOUSE_NO":"１２２號十樓之２","E_COORD97":170761.76000000001,"N_COORD97":2542272.7799999998,"ADDRESS":"崇信街１２２號十樓之２","OBJECTID":482267},"geometry":{"x":170761.75999999978,"y":2542272.7800000012}},{"attributes":{"ID":482293,"DIS_CODE":0,"TOWNNAME":"東區","LI":"崇信里","LIN":"25鄰","STREET":"崇信街","SECT":" ","MAREA":" ","LANE":" ","ALLEY":" ","HOUSE_NO":"１２２號五樓","E_COORD97":170761.76000000001,"N_COORD97":2542272.7799999998,"ADDRESS":"崇信街１２２號五樓","OBJECTID":482268},"geometry":{"x":170761.75999999978,"y":2542272.7800000012}},{"attributes":{"ID":482294,"DIS_CODE":0,"TOWNNAME":"東區","LI":"崇信里","LIN":"25鄰","STREET":"崇信街","SECT":" ","MAREA":" ","LANE":" ","ALLEY":" ","HOUSE_NO":"１２２號五樓之１","E_COORD97":170761.76000000001,"N_COORD97":2542272.7799999998,"ADDRESS":"崇信街１２２號五樓之１","OBJECTID":482269},"geometry":{"x":170761.75999999978,"y":2542272.7800000012}},{"attributes":{"ID":482295,"DIS_CODE":0,"TOWNNAME":"東區","LI":"崇信里","LIN":"25鄰","STREET":"崇信街","SECT":" ","MAREA":" ","LANE":" ","ALLEY":" ","HOUSE_NO":"１２２號五樓之２","E_COORD97":170761.76000000001,"N_COORD97":2542272.7799999998,"ADDRESS":"崇信街１２２號五樓之２","OBJECTID":482270},"geometry":{"x":170761.75999999978,"y":2542272.7800000012}},{"attributes":{"ID":482296,"DIS_CODE":0,"TOWNNAME":"東區","LI":"崇信里","LIN":"25鄰","STREET":"崇信街","SECT":" ","MAREA":" ","LANE":" ","ALLEY":" ","HOUSE_NO":"１２２號六樓","E_COORD97":170761.76000000001,"N_COORD97":2542272.7799999998,"ADDRESS":"崇信街１２２號六樓","OBJECTID":482271},"geometry":{"x":170761.75999999978,"y":2542272.7800000012}},{"attributes":{"ID":482297,"DIS_CODE":0,"TOWNNAME":"東區","LI":"崇信里","LIN":"25鄰","STREET":"崇信街","SECT":" ","MAREA":" ","LANE":" ","ALLEY":" ","HOUSE_NO":"１２２號六樓之１","E_COORD97":170761.76000000001,"N_COORD97":2542272.7799999998,"ADDRESS":"崇信街１２２號六樓之１","OBJECTID":482272},"geometry":{"x":170761.75999999978,"y":2542272.7800000012}},{"attributes":{"ID":482298,"DIS_CODE":0,"TOWNNAME":"東區","LI":"崇信里","LIN":"25鄰","STREET":"崇信街","SECT":" ","MAREA":" ","LANE":" ","ALLEY":" ","HOUSE_NO":"１２２號六樓之２","E_COORD97":170761.76000000001,"N_COORD97":2542272.7799999998,"ADDRESS":"崇信街１２２號六樓之２","OBJECTID":482273},"geometry":{"x":170761.75999999978,"y":2542272.7800000012}},{"attributes":{"ID":482299,"DIS_CODE":0,"TOWNNAME":"東區","LI":"崇信里","LIN":"25鄰","STREET":"崇信街","SECT":" ","MAREA":" ","LANE":" ","ALLEY":" ","HOUSE_NO":"１２２號四樓","E_COORD97":170761.76000000001,"N_COORD97":2542272.7799999998,"ADDRESS":"崇信街１２２號四樓","OBJECTID":482274},"geometry":{"x":170761.75999999978,"y":2542272.7800000012}},{"attributes":{"ID":482300,"DIS_CODE":0,"TOWNNAME":"東區","LI":"崇信里","LIN":"25鄰","STREET":"崇信街","SECT":" ","MAREA":" ","LANE":" ","ALLEY":" ","HOUSE_NO":"１２２號四樓之１","E_COORD97":170761.76000000001,"N_COORD97":2542272.7799999998,"ADDRESS":"崇信街１２２號四樓之１","OBJECTID":482275},"geometry":{"x":170761.75999999978,"y":2542272.7800000012}},{"attributes":{"ID":482301,"DIS_CODE":0,"TOWNNAME":"東區","LI":"崇信里","LIN":"25鄰","STREET":"崇信街","SECT":" ","MAREA":" ","LANE":" ","ALLEY":" ","HOUSE_NO":"１２２號四樓之２","E_COORD97":170761.76000000001,"N_COORD97":2542272.7799999998,"ADDRESS":"崇信街１２２號四樓之２","OBJECTID":482276},"geometry":{"x":170761.75999999978,"y":2542272.7800000012}},{"attributes":{"ID":482302,"DIS_CODE":0,"TOWNNAME":"東區","LI":"崇信里","LIN":"25鄰","STREET":"崇信街","SECT":" ","MAREA":" ","LANE":" ","ALLEY":" ","HOUSE_NO":"１３２號七樓","E_COORD97":170768.39000000001,"N_COORD97":2542252.6699999999,"ADDRESS":"崇信街１３２號七樓","OBJECTID":482277},"geometry":{"x":170768.39000000153,"y":2542252.6699999999}},{"attributes":{"ID":482303,"DIS_CODE":0,"TOWNNAME":"東區","LI":"崇信里","LIN":"25鄰","STREET":"崇信街","SECT":" ","MAREA":" ","LANE":" ","ALLEY":" ","HOUSE_NO":"１３２號七樓之１","E_COORD97":170768.39000000001,"N_COORD97":2542252.6699999999,"ADDRESS":"崇信街１３２號七樓之１","OBJECTID":482278},"geometry":{"x":170768.39000000153,"y":2542252.6699999999}},{"attributes":{"ID":482304,"DIS_CODE":0,"TOWNNAME":"東區","LI":"崇信里","LIN":"25鄰","STREET":"崇信街","SECT":" ","MAREA":" ","LANE":" ","ALLEY":" ","HOUSE_NO":"１３２號七樓之２","E_COORD97":170768.39000000001,"N_COORD97":2542252.6699999999,"ADDRESS":"崇信街１３２號七樓之２","OBJECTID":482279},"geometry":{"x":170768.39000000153,"y":2542252.6699999999}},{"attributes":{"ID":482305,"DIS_CODE":0,"TOWNNAME":"東區","LI":"崇信里","LIN":"25鄰","STREET":"崇信街","SECT":" ","MAREA":" ","LANE":" ","ALLEY":" ","HOUSE_NO":"１３２號九樓","E_COORD97":170768.39000000001,"N_COORD97":2542252.6699999999,"ADDRESS":"崇信街１３２號九樓","OBJECTID":482280},"geometry":{"x":170768.39000000153,"y":2542252.6699999999}},{"attributes":{"ID":482306,"DIS_CODE":0,"TOWNNAME":"東區","LI":"崇信里","LIN":"25鄰","STREET":"崇信街","SECT":" ","MAREA":" ","LANE":" ","ALLEY":" ","HOUSE_NO":"１３２號九樓之１","E_COORD97":170768.39000000001,"N_COORD97":2542252.6699999999,"ADDRESS":"崇信街１３２號九樓之１","OBJECTID":482281},"geometry":{"x":170768.39000000153,"y":2542252.6699999999}},{"attributes":{"ID":482307,"DIS_CODE":0,"TOWNNAME":"東區","LI":"崇信里","LIN":"25鄰","STREET":"崇信街","SECT":" ","MAREA":" ","LANE":" ","ALLEY":" ","HOUSE_NO":"１３２號九樓之２","E_COORD97":170768.39000000001,"N_COORD97":2542252.6699999999,"ADDRESS":"崇信街１３２號九樓之２","OBJECTID":482282},"geometry":{"x":170768.39000000153,"y":2542252.6699999999}},{"attributes":{"ID":482308,"DIS_CODE":0,"TOWNNAME":"東區","LI":"崇信里","LIN":"25鄰","STREET":"崇信街","SECT":" ","MAREA":" ","LANE":" ","ALLEY":" ","HOUSE_NO":"１３２號八樓","E_COORD97":170768.39000000001,"N_COORD97":2542252.6699999999,"ADDRESS":"崇信街１３２號八樓","OBJECTID":482283},"geometry":{"x":170768.39000000153,"y":2542252.6699999999}},{"attributes":{"ID":482309,"DIS_CODE":0,"TOWNNAME":"東區","LI":"崇信里","LIN":"25鄰","STREET":"崇信街","SECT":" ","MAREA":" ","LANE":" ","ALLEY":" ","HOUSE_NO":"１３２號八樓之１","E_COORD97":170768.39000000001,"N_COORD97":2542252.6699999999,"ADDRESS":"崇信街１３２號八樓之１","OBJECTID":482284},"geometry":{"x":170768.39000000153,"y":2542252.6699999999}},{"attributes":{"ID":482310,"DIS_CODE":0,"TOWNNAME":"東區","LI":"崇信里","LIN":"25鄰","STREET":"崇信街","SECT":" ","MAREA":" ","LANE":" ","ALLEY":" ","HOUSE_NO":"１３２號八樓之２","E_COORD97":170768.39000000001,"N_COORD97":2542252.6699999999,"ADDRESS":"崇信街１３２號八樓之２","OBJECTID":482285},"geometry":{"x":170768.39000000153,"y":2542252.6699999999}},{"attributes":{"ID":482311,"DIS_CODE":0,"TOWNNAME":"東區","LI":"崇信里","LIN":"25鄰","STREET":"崇信街","SECT":" ","MAREA":" ","LANE":" ","ALLEY":" ","HOUSE_NO":"１３２號十一樓","E_COORD97":170768.39000000001,"N_COORD97":2542252.6699999999,"ADDRESS":"崇信街１３２號十一樓","OBJECTID":482286},"geometry":{"x":170768.39000000153,"y":2542252.6699999999}},{"attributes":{"ID":482312,"DIS_CODE":0,"TOWNNAME":"東區","LI":"崇信里","LIN":"25鄰","STREET":"崇信街","SECT":" ","MAREA":" ","LANE":" ","ALLEY":" ","HOUSE_NO":"１３２號十一樓之１","E_COORD97":170768.39000000001,"N_COORD97":2542252.6699999999,"ADDRESS":"崇信街１３２號十一樓之１","OBJECTID":482287},"geometry":{"x":170768.39000000153,"y":2542252.6699999999}},{"attributes":{"ID":482313,"DIS_CODE":0,"TOWNNAME":"東區","LI":"崇信里","LIN":"25鄰","STREET":"崇信街","SECT":" ","MAREA":" ","LANE":" ","ALLEY":" ","HOUSE_NO":"１３２號十樓","E_COORD97":170768.39000000001,"N_COORD97":2542252.6699999999,"ADDRESS":"崇信街１３２號十樓","OBJECTID":482288},"geometry":{"x":170768.39000000153,"y":2542252.6699999999}},{"attributes":{"ID":482314,"DIS_CODE":0,"TOWNNAME":"東區","LI":"崇信里","LIN":"25鄰","STREET":"崇信街","SECT":" ","MAREA":" ","LANE":" ","ALLEY":" ","HOUSE_NO":"１３２號十樓之１","E_COORD97":170768.39000000001,"N_COORD97":2542252.6699999999,"ADDRESS":"崇信街１３２號十樓之１","OBJECTID":482289},"geometry":{"x":170768.39000000153,"y":2542252.6699999999}},{"attributes":{"ID":482315,"DIS_CODE":0,"TOWNNAME":"東區","LI":"崇信里","LIN":"25鄰","STREET":"崇信街","SECT":" ","MAREA":" ","LANE":" ","ALLEY":" ","HOUSE_NO":"１３２號十樓之２","E_COORD97":170768.39000000001,"N_COORD97":2542252.6699999999,"ADDRESS":"崇信街１３２號十樓之２","OBJECTID":482290},"geometry":{"x":170768.39000000153,"y":2542252.6699999999}},{"attributes":{"ID":482316,"DIS_CODE":0,"TOWNNAME":"東區","LI":"崇信里","LIN":"25鄰","STREET":"崇信街","SECT":" ","MAREA":" ","LANE":" ","ALLEY":" ","HOUSE_NO":"１３２號五樓","E_COORD97":170768.39000000001,"N_COORD97":2542252.6699999999,"ADDRESS":"崇信街１３２號五樓","OBJECTID":482291},"geometry":{"x":170768.39000000153,"y":2542252.6699999999}},{"attributes":{"ID":482317,"DIS_CODE":0,"TOWNNAME":"東區","LI":"崇信里","LIN":"25鄰","STREET":"崇信街","SECT":" ","MAREA":" ","LANE":" ","ALLEY":" ","HOUSE_NO":"１３２號五樓之１","E_COORD97":170768.39000000001,"N_COORD97":2542252.6699999999,"ADDRESS":"崇信街１３２號五樓之１","OBJECTID":482292},"geometry":{"x":170768.39000000153,"y":2542252.6699999999}},{"attributes":{"ID":482318,"DIS_CODE":0,"TOWNNAME":"東區","LI":"崇信里","LIN":"25鄰","STREET":"崇信街","SECT":" ","MAREA":" ","LANE":" ","ALLEY":" ","HOUSE_NO":"１３２號五樓之２","E_COORD97":170768.39000000001,"N_COORD97":2542252.6699999999,"ADDRESS":"崇信街１３２號五樓之２","OBJECTID":482293},"geometry":{"x":170768.39000000153,"y":2542252.6699999999}},{"attributes":{"ID":482319,"DIS_CODE":0,"TOWNNAME":"東區","LI":"崇信里","LIN":"25鄰","STREET":"崇信街","SECT":" ","MAREA":" ","LANE":" ","ALLEY":" ","HOUSE_NO":"１３２號六樓","E_COORD97":170768.39000000001,"N_COORD97":2542252.6699999999,"ADDRESS":"崇信街１３２號六樓","OBJECTID":482294},"geometry":{"x":170768.39000000153,"y":2542252.6699999999}},{"attributes":{"ID":482320,"DIS_CODE":0,"TOWNNAME":"東區","LI":"崇信里","LIN":"25鄰","STREET":"崇信街","SECT":" ","MAREA":" ","LANE":" ","ALLEY":" ","HOUSE_NO":"１３２號六樓之１","E_COORD97":170768.39000000001,"N_COORD97":2542252.6699999999,"ADDRESS":"崇信街１３２號六樓之１","OBJECTID":482295},"geometry":{"x":170768.39000000153,"y":2542252.6699999999}},{"attributes":{"ID":482321,"DIS_CODE":0,"TOWNNAME":"東區","LI":"崇信里","LIN":"25鄰","STREET":"崇信街","SECT":" ","MAREA":" ","LANE":" ","ALLEY":" ","HOUSE_NO":"１３２號六樓之２","E_COORD97":170768.39000000001,"N_COORD97":2542252.6699999999,"ADDRESS":"崇信街１３２號六樓之２","OBJECTID":482296},"geometry":{"x":170768.39000000153,"y":2542252.6699999999}},{"attributes":{"ID":482322,"DIS_CODE":0,"TOWNNAME":"東區","LI":"崇信里","LIN":"25鄰","STREET":"崇信街","SECT":" ","MAREA":" ","LANE":" ","ALLEY":" ","HOUSE_NO":"１３２號四樓","E_COORD97":170768.39000000001,"N_COORD97":2542252.6699999999,"ADDRESS":"崇信街１３２號四樓","OBJECTID":482297},"geometry":{"x":170768.39000000153,"y":2542252.6699999999}},{"attributes":{"ID":482323,"DIS_CODE":0,"TOWNNAME":"東區","LI":"崇信里","LIN":"25鄰","STREET":"崇信街","SECT":" ","MAREA":" ","LANE":" ","ALLEY":" ","HOUSE_NO":"１３２號四樓之１","E_COORD97":170768.39000000001,"N_COORD97":2542252.6699999999,"ADDRESS":"崇信街１３２號四樓之１","OBJECTID":482298},"geometry":{"x":170768.39000000153,"y":2542252.6699999999}},{"attributes":{"ID":482324,"DIS_CODE":0,"TOWNNAME":"東區","LI":"崇信里","LIN":"25鄰","STREET":"崇信街","SECT":" ","MAREA":" ","LANE":" ","ALLEY":" ","HOUSE_NO":"１３２號四樓之２","E_COORD97":170768.39000000001,"N_COORD97":2542252.6699999999,"ADDRESS":"崇信街１３２號四樓之２","OBJECTID":482299},"geometry":{"x":170768.39000000153,"y":2542252.6699999999}},{"attributes":{"ID":482325,"DIS_CODE":0,"TOWNNAME":"東區","LI":"新東里","LIN":"25鄰","STREET":"裕農路","SECT":" ","MAREA":" ","LANE":" ","ALLEY":" ","HOUSE_NO":"２７號之１１十三樓","E_COORD97":170544.57000000001,"N_COORD97":2542865.9900000002,"ADDRESS":"裕農路２７號之１１十三樓","OBJECTID":482300},"geometry":{"x":170544.57000000123,"y":2542865.9900000021}},{"attributes":{"ID":482326,"DIS_CODE":0,"TOWNNAME":"東區","LI":"新東里","LIN":"25鄰","STREET":"裕農路","SECT":" ","MAREA":" ","LANE":" ","ALLEY":" ","HOUSE_NO":"２７號之１１十樓","E_COORD97":170544.57000000001,"N_COORD97":2542865.9900000002,"ADDRESS":"裕農路２７號之１１十樓","OBJECTID":482301},"geometry":{"x":170544.57000000123,"y":2542865.9900000021}},{"attributes":{"ID":482327,"DIS_CODE":0,"TOWNNAME":"東區","LI":"新東里","LIN":"25鄰","STREET":"裕農路","SECT":" ","MAREA":" ","LANE":" ","ALLEY":" ","HOUSE_NO":"２７號之１１十樓之１","E_COORD97":170544.57000000001,"N_COORD97":2542865.9900000002,"ADDRESS":"裕農路２７號之１１十樓之１","OBJECTID":482302},"geometry":{"x":170544.57000000123,"y":2542865.9900000021}},{"attributes":{"ID":482328,"DIS_CODE":0,"TOWNNAME":"東區","LI":"新東里","LIN":"25鄰","STREET":"裕農路","SECT":" ","MAREA":" ","LANE":" ","ALLEY":" ","HOUSE_NO":"２７號之１１三樓","E_COORD97":170544.57000000001,"N_COORD97":2542865.9900000002,"ADDRESS":"裕農路２７號之１１三樓","OBJECTID":482303},"geometry":{"x":170544.57000000123,"y":2542865.9900000021}},{"attributes":{"ID":482329,"DIS_CODE":0,"TOWNNAME":"東區","LI":"新東里","LIN":"25鄰","STREET":"裕農路","SECT":" ","MAREA":" ","LANE":" ","ALLEY":" ","HOUSE_NO":"２７號之１１三樓之１","E_COORD97":170544.57000000001,"N_COORD97":2542865.9900000002,"ADDRESS":"裕農路２７號之１１三樓之１","OBJECTID":482304},"geometry":{"x":170544.57000000123,"y":2542865.9900000021}},{"attributes":{"ID":482330,"DIS_CODE":0,"TOWNNAME":"東區","LI":"新東里","LIN":"25鄰","STREET":"裕農路","SECT":" ","MAREA":" ","LANE":" ","ALLEY":" ","HOUSE_NO":"２７號之１１五樓","E_COORD97":170544.57000000001,"N_COORD97":2542865.9900000002,"ADDRESS":"裕農路２７號之１１五樓","OBJECTID":482305},"geometry":{"x":170544.57000000123,"y":2542865.9900000021}},{"attributes":{"ID":482331,"DIS_CODE":0,"TOWNNAME":"東區","LI":"新東里","LIN":"25鄰","STREET":"裕農路","SECT":" ","MAREA":" ","LANE":" ","ALLEY":" ","HOUSE_NO":"２７號之１１五樓之１","E_COORD97":170544.57000000001,"N_COORD97":2542865.9900000002,"ADDRESS":"裕農路２７號之１１五樓之１","OBJECTID":482306},"geometry":{"x":170544.57000000123,"y":2542865.9900000021}},{"attributes":{"ID":482332,"DIS_CODE":0,"TOWNNAME":"東區","LI":"新東里","LIN":"25鄰","STREET":"裕農路","SECT":" ","MAREA":" ","LANE":" ","ALLEY":" ","HOUSE_NO":"２７號之１１六樓","E_COORD97":170544.57000000001,"N_COORD97":2542865.9900000002,"ADDRESS":"裕農路２７號之１１六樓","OBJECTID":482307},"geometry":{"x":170544.57000000123,"y":2542865.9900000021}},{"attributes":{"ID":482333,"DIS_CODE":0,"TOWNNAME":"東區","LI":"新東里","LIN":"25鄰","STREET":"裕農路","SECT":" ","MAREA":" ","LANE":" ","ALLEY":" ","HOUSE_NO":"２７號之１１六樓之１","E_COORD97":170544.57000000001,"N_COORD97":2542865.9900000002,"ADDRESS":"裕農路２７號之１１六樓之１","OBJECTID":482308},"geometry":{"x":170544.57000000123,"y":2542865.9900000021}},{"attributes":{"ID":482334,"DIS_CODE":0,"TOWNNAME":"東區","LI":"新東里","LIN":"25鄰","STREET":"裕農路","SECT":" ","MAREA":" ","LANE":" ","ALLEY":" ","HOUSE_NO":"２７號之１１四樓","E_COORD97":170544.57000000001,"N_COORD97":2542865.9900000002,"ADDRESS":"裕農路２７號之１１四樓","OBJECTID":482309},"geometry":{"x":170544.57000000123,"y":2542865.9900000021}},{"attributes":{"ID":482335,"DIS_CODE":0,"TOWNNAME":"東區","LI":"新東里","LIN":"25鄰","STREET":"裕農路","SECT":" ","MAREA":" ","LANE":" ","ALLEY":" ","HOUSE_NO":"２７號之１１四樓之１","E_COORD97":170544.57000000001,"N_COORD97":2542865.9900000002,"ADDRESS":"裕農路２７號之１１四樓之１","OBJECTID":482310},"geometry":{"x":170544.57000000123,"y":2542865.9900000021}},{"attributes":{"ID":482336,"DIS_CODE":0,"TOWNNAME":"東區","LI":"新東里","LIN":"25鄰","STREET":"裕農路","SECT":" ","MAREA":" ","LANE":" ","ALLEY":" ","HOUSE_NO":"２７號之７七樓","E_COORD97":170520.89000000001,"N_COORD97":2542918.7799999998,"ADDRESS":"裕農路２７號之７七樓","OBJECTID":482311},"geometry":{"x":170520.89000000153,"y":2542918.7799999993}},{"attributes":{"ID":482337,"DIS_CODE":0,"TOWNNAME":"東區","LI":"新東里","LIN":"25鄰","STREET":"裕農路","SECT":" ","MAREA":" ","LANE":" ","ALLEY":" ","HOUSE_NO":"２７號之７七樓之１","E_COORD97":170520.89000000001,"N_COORD97":2542918.7799999998,"ADDRESS":"裕農路２７號之７七樓之１","OBJECTID":482312},"geometry":{"x":170520.89000000153,"y":2542918.7799999993}},{"attributes":{"ID":482338,"DIS_CODE":0,"TOWNNAME":"東區","LI":"新東里","LIN":"25鄰","STREET":"裕農路","SECT":" ","MAREA":" ","LANE":" ","ALLEY":" ","HOUSE_NO":"２７號之７七樓之２","E_COORD97":170520.89000000001,"N_COORD97":2542918.7799999998,"ADDRESS":"裕農路２７號之７七樓之２","OBJECTID":482313},"geometry":{"x":170520.89000000153,"y":2542918.7799999993}},{"attributes":{"ID":482339,"DIS_CODE":0,"TOWNNAME":"東區","LI":"新東里","LIN":"25鄰","STREET":"裕農路","SECT":" ","MAREA":" ","LANE":" ","ALLEY":" ","HOUSE_NO":"２７號之７九樓","E_COORD97":170520.89000000001,"N_COORD97":2542918.7799999998,"ADDRESS":"裕農路２７號之７九樓","OBJECTID":482314},"geometry":{"x":170520.89000000153,"y":2542918.7799999993}},{"attributes":{"ID":482340,"DIS_CODE":0,"TOWNNAME":"東區","LI":"新東里","LIN":"25鄰","STREET":"裕農路","SECT":" ","MAREA":" ","LANE":" ","ALLEY":" ","HOUSE_NO":"２７號之７九樓之１","E_COORD97":170520.89000000001,"N_COORD97":2542918.7799999998,"ADDRESS":"裕農路２７號之７九樓之１","OBJECTID":482315},"geometry":{"x":170520.89000000153,"y":2542918.7799999993}},{"attributes":{"ID":482341,"DIS_CODE":0,"TOWNNAME":"東區","LI":"新東里","LIN":"25鄰","STREET":"裕農路","SECT":" ","MAREA":" ","LANE":" ","ALLEY":" ","HOUSE_NO":"２７號之７二樓","E_COORD97":170520.89000000001,"N_COORD97":2542918.7799999998,"ADDRESS":"裕農路２７號之７二樓","OBJECTID":482316},"geometry":{"x":170520.89000000153,"y":2542918.7799999993}},{"attributes":{"ID":482342,"DIS_CODE":0,"TOWNNAME":"東區","LI":"新東里","LIN":"25鄰","STREET":"裕農路","SECT":" ","MAREA":" ","LANE":" ","ALLEY":" ","HOUSE_NO":"２７號之７二樓之１","E_COORD97":170520.89000000001,"N_COORD97":2542918.7799999998,"ADDRESS":"裕農路２７號之７二樓之１","OBJECTID":482317},"geometry":{"x":170520.89000000153,"y":2542918.7799999993}},{"attributes":{"ID":482343,"DIS_CODE":0,"TOWNNAME":"東區","LI":"新東里","LIN":"25鄰","STREET":"裕農路","SECT":" ","MAREA":" ","LANE":" ","ALLEY":" ","HOUSE_NO":"２７號之７八樓","E_COORD97":170520.89000000001,"N_COORD97":2542918.7799999998,"ADDRESS":"裕農路２７號之７八樓","OBJECTID":482318},"geometry":{"x":170520.89000000153,"y":2542918.7799999993}},{"attributes":{"ID":482344,"DIS_CODE":0,"TOWNNAME":"東區","LI":"新東里","LIN":"25鄰","STREET":"裕農路","SECT":" ","MAREA":" ","LANE":" ","ALLEY":" ","HOUSE_NO":"２７號之７八樓之１","E_COORD97":170520.89000000001,"N_COORD97":2542918.7799999998,"ADDRESS":"裕農路２７號之７八樓之１","OBJECTID":482319},"geometry":{"x":170520.89000000153,"y":2542918.7799999993}},{"attributes":{"ID":482345,"DIS_CODE":0,"TOWNNAME":"東區","LI":"新東里","LIN":"25鄰","STREET":"裕農路","SECT":" ","MAREA":" ","LANE":" ","ALLEY":" ","HOUSE_NO":"２７號之７八樓之２","E_COORD97":170520.89000000001,"N_COORD97":2542918.7799999998,"ADDRESS":"裕農路２７號之７八樓之２","OBJECTID":482320},"geometry":{"x":170520.89000000153,"y":2542918.7799999993}},{"attributes":{"ID":482346,"DIS_CODE":0,"TOWNNAME":"東區","LI":"新東里","LIN":"25鄰","STREET":"裕農路","SECT":" ","MAREA":" ","LANE":" ","ALLEY":" ","HOUSE_NO":"２７號之７十一樓","E_COORD97":170520.89000000001,"N_COORD97":2542918.7799999998,"ADDRESS":"裕農路２７號之７十一樓","OBJECTID":482321},"geometry":{"x":170520.89000000153,"y":2542918.7799999993}},{"attributes":{"ID":482347,"DIS_CODE":0,"TOWNNAME":"東區","LI":"新東里","LIN":"25鄰","STREET":"裕農路","SECT":" ","MAREA":" ","LANE":" ","ALLEY":" ","HOUSE_NO":"２７號之７十一樓之１","E_COORD97":170520.89000000001,"N_COORD97":2542918.7799999998,"ADDRESS":"裕農路２７號之７十一樓之１","OBJECTID":482322},"geometry":{"x":170520.89000000153,"y":2542918.7799999993}},{"attributes":{"ID":482348,"DIS_CODE":0,"TOWNNAME":"東區","LI":"新東里","LIN":"25鄰","STREET":"裕農路","SECT":" ","MAREA":" ","LANE":" ","ALLEY":" ","HOUSE_NO":"２７號之７十二樓","E_COORD97":170520.89000000001,"N_COORD97":2542918.7799999998,"ADDRESS":"裕農路２７號之７十二樓","OBJECTID":482323},"geometry":{"x":170520.89000000153,"y":2542918.7799999993}},{"attributes":{"ID":482349,"DIS_CODE":0,"TOWNNAME":"東區","LI":"新東里","LIN":"25鄰","STREET":"裕農路","SECT":" ","MAREA":" ","LANE":" ","ALLEY":" ","HOUSE_NO":"２７號之７十二樓之１","E_COORD97":170520.89000000001,"N_COORD97":2542918.7799999998,"ADDRESS":"裕農路２７號之７十二樓之１","OBJECTID":482324},"geometry":{"x":170520.89000000153,"y":2542918.7799999993}},{"attributes":{"ID":482350,"DIS_CODE":0,"TOWNNAME":"東區","LI":"新東里","LIN":"25鄰","STREET":"裕農路","SECT":" ","MAREA":" ","LANE":" ","ALLEY":" ","HOUSE_NO":"２７號之７十三樓","E_COORD97":170520.89000000001,"N_COORD97":2542918.7799999998,"ADDRESS":"裕農路２７號之７十三樓","OBJECTID":482325},"geometry":{"x":170520.89000000153,"y":2542918.7799999993}},{"attributes":{"ID":482351,"DIS_CODE":0,"TOWNNAME":"東區","LI":"新東里","LIN":"25鄰","STREET":"裕農路","SECT":" ","MAREA":" ","LANE":" ","ALLEY":" ","HOUSE_NO":"２７號之７十樓","E_COORD97":170520.89000000001,"N_COORD97":2542918.7799999998,"ADDRESS":"裕農路２７號之７十樓","OBJECTID":482326},"geometry":{"x":170520.89000000153,"y":2542918.7799999993}},{"attributes":{"ID":482352,"DIS_CODE":0,"TOWNNAME":"東區","LI":"新東里","LIN":"25鄰","STREET":"裕農路","SECT":" ","MAREA":" ","LANE":" ","ALLEY":" ","HOUSE_NO":"２７號之７十樓之１","E_COORD97":170520.89000000001,"N_COORD97":2542918.7799999998,"ADDRESS":"裕農路２７號之７十樓之１","OBJECTID":482327},"geometry":{"x":170520.89000000153,"y":2542918.7799999993}},{"attributes":{"ID":482353,"DIS_CODE":0,"TOWNNAME":"東區","LI":"新東里","LIN":"25鄰","STREET":"裕農路","SECT":" ","MAREA":" ","LANE":" ","ALLEY":" ","HOUSE_NO":"２７號之７三樓","E_COORD97":170520.89000000001,"N_COORD97":2542918.7799999998,"ADDRESS":"裕農路２７號之７三樓","OBJECTID":482328},"geometry":{"x":170520.89000000153,"y":2542918.7799999993}},{"attributes":{"ID":482354,"DIS_CODE":0,"TOWNNAME":"東區","LI":"新東里","LIN":"25鄰","STREET":"裕農路","SECT":" ","MAREA":" ","LANE":" ","ALLEY":" ","HOUSE_NO":"２７號之７三樓之１","E_COORD97":170520.89000000001,"N_COORD97":2542918.7799999998,"ADDRESS":"裕農路２７號之７三樓之１","OBJECTID":482329},"geometry":{"x":170520.89000000153,"y":2542918.7799999993}},{"attributes":{"ID":482355,"DIS_CODE":0,"TOWNNAME":"東區","LI":"新東里","LIN":"25鄰","STREET":"裕農路","SECT":" ","MAREA":" ","LANE":" ","ALLEY":" ","HOUSE_NO":"２７號之７三樓之２","E_COORD97":170520.89000000001,"N_COORD97":2542918.7799999998,"ADDRESS":"裕農路２７號之７三樓之２","OBJECTID":482330},"geometry":{"x":170520.89000000153,"y":2542918.7799999993}},{"attributes":{"ID":482356,"DIS_CODE":0,"TOWNNAME":"東區","LI":"新東里","LIN":"25鄰","STREET":"裕農路","SECT":" ","MAREA":" ","LANE":" ","ALLEY":" ","HOUSE_NO":"２７號之７三樓之３","E_COORD97":170520.89000000001,"N_COORD97":2542918.7799999998,"ADDRESS":"裕農路２７號之７三樓之３","OBJECTID":482331},"geometry":{"x":170520.89000000153,"y":2542918.7799999993}},{"attributes":{"ID":482357,"DIS_CODE":0,"TOWNNAME":"東區","LI":"新東里","LIN":"25鄰","STREET":"裕農路","SECT":" ","MAREA":" ","LANE":" ","ALLEY":" ","HOUSE_NO":"２７號之７五樓","E_COORD97":170520.89000000001,"N_COORD97":2542918.7799999998,"ADDRESS":"裕農路２７號之７五樓","OBJECTID":482332},"geometry":{"x":170520.89000000153,"y":2542918.7799999993}},{"attributes":{"ID":482358,"DIS_CODE":0,"TOWNNAME":"東區","LI":"新東里","LIN":"25鄰","STREET":"裕農路","SECT":" ","MAREA":" ","LANE":" ","ALLEY":" ","HOUSE_NO":"２７號之７五樓之１","E_COORD97":170520.89000000001,"N_COORD97":2542918.7799999998,"ADDRESS":"裕農路２７號之７五樓之１","OBJECTID":482333},"geometry":{"x":170520.89000000153,"y":2542918.7799999993}},{"attributes":{"ID":482359,"DIS_CODE":0,"TOWNNAME":"東區","LI":"新東里","LIN":"25鄰","STREET":"裕農路","SECT":" ","MAREA":" ","LANE":" ","ALLEY":" ","HOUSE_NO":"２７號之７五樓之２","E_COORD97":170520.89000000001,"N_COORD97":2542918.7799999998,"ADDRESS":"裕農路２７號之７五樓之２","OBJECTID":482334},"geometry":{"x":170520.89000000153,"y":2542918.7799999993}},{"attributes":{"ID":482360,"DIS_CODE":0,"TOWNNAME":"東區","LI":"新東里","LIN":"25鄰","STREET":"裕農路","SECT":" ","MAREA":" ","LANE":" ","ALLEY":" ","HOUSE_NO":"２７號之７六樓","E_COORD97":170520.89000000001,"N_COORD97":2542918.7799999998,"ADDRESS":"裕農路２７號之７六樓","OBJECTID":482335},"geometry":{"x":170520.89000000153,"y":2542918.7799999993}},{"attributes":{"ID":482361,"DIS_CODE":0,"TOWNNAME":"東區","LI":"新東里","LIN":"25鄰","STREET":"裕農路","SECT":" ","MAREA":" ","LANE":" ","ALLEY":" ","HOUSE_NO":"２７號之７六樓之１","E_COORD97":170520.89000000001,"N_COORD97":2542918.7799999998,"ADDRESS":"裕農路２７號之７六樓之１","OBJECTID":482336},"geometry":{"x":170520.89000000153,"y":2542918.7799999993}},{"attributes":{"ID":482362,"DIS_CODE":0,"TOWNNAME":"東區","LI":"新東里","LIN":"25鄰","STREET":"裕農路","SECT":" ","MAREA":" ","LANE":" ","ALLEY":" ","HOUSE_NO":"２７號之７四樓","E_COORD97":170520.89000000001,"N_COORD97":2542918.7799999998,"ADDRESS":"裕農路２７號之７四樓","OBJECTID":482337},"geometry":{"x":170520.89000000153,"y":2542918.7799999993}},{"attributes":{"ID":482363,"DIS_CODE":0,"TOWNNAME":"東區","LI":"新東里","LIN":"25鄰","STREET":"裕農路","SECT":" ","MAREA":" ","LANE":" ","ALLEY":" ","HOUSE_NO":"２７號之７四樓之１","E_COORD97":170520.89000000001,"N_COORD97":2542918.7799999998,"ADDRESS":"裕農路２７號之７四樓之１","OBJECTID":482338},"geometry":{"x":170520.89000000153,"y":2542918.7799999993}},{"attributes":{"ID":482364,"DIS_CODE":0,"TOWNNAME":"東區","LI":"新東里","LIN":"25鄰","STREET":"裕農路","SECT":" ","MAREA":" ","LANE":" ","ALLEY":" ","HOUSE_NO":"２７號之７四樓之２","E_COORD97":170520.89000000001,"N_COORD97":2542918.7799999998,"ADDRESS":"裕農路２７號之７四樓之２","OBJECTID":482339},"geometry":{"x":170520.89000000153,"y":2542918.7799999993}},{"attributes":{"ID":482365,"DIS_CODE":0,"TOWNNAME":"東區","LI":"新東里","LIN":"25鄰","STREET":"裕農路","SECT":" ","MAREA":" ","LANE":" ","ALLEY":" ","HOUSE_NO":"２７號之８七樓","E_COORD97":170528.01999999999,"N_COORD97":2542906.3799999999,"ADDRESS":"裕農路２７號之８七樓","OBJECTID":482340},"geometry":{"x":170528.01999999955,"y":2542906.3800000008}},{"attributes":{"ID":482366,"DIS_CODE":0,"TOWNNAME":"東區","LI":"新東里","LIN":"25鄰","STREET":"裕農路","SECT":" ","MAREA":" ","LANE":" ","ALLEY":" ","HOUSE_NO":"２７號之８七樓之１","E_COORD97":170528.01999999999,"N_COORD97":2542906.3799999999,"ADDRESS":"裕農路２７號之８七樓之１","OBJECTID":482341},"geometry":{"x":170528.01999999955,"y":2542906.3800000008}},{"attributes":{"ID":482367,"DIS_CODE":0,"TOWNNAME":"東區","LI":"新東里","LIN":"25鄰","STREET":"裕農路","SECT":" ","MAREA":" ","LANE":" ","ALLEY":" ","HOUSE_NO":"２７號之８九樓","E_COORD97":170528.01999999999,"N_COORD97":2542906.3799999999,"ADDRESS":"裕農路２７號之８九樓","OBJECTID":482342},"geometry":{"x":170528.01999999955,"y":2542906.3800000008}},{"attributes":{"ID":482368,"DIS_CODE":0,"TOWNNAME":"東區","LI":"新東里","LIN":"25鄰","STREET":"裕農路","SECT":" ","MAREA":" ","LANE":" ","ALLEY":" ","HOUSE_NO":"２７號之８九樓之１","E_COORD97":170528.01999999999,"N_COORD97":2542906.3799999999,"ADDRESS":"裕農路２７號之８九樓之１","OBJECTID":482343},"geometry":{"x":170528.01999999955,"y":2542906.3800000008}},{"attributes":{"ID":482369,"DIS_CODE":0,"TOWNNAME":"東區","LI":"新東里","LIN":"25鄰","STREET":"裕農路","SECT":" ","MAREA":" ","LANE":" ","ALLEY":" ","HOUSE_NO":"２７號之８八樓","E_COORD97":170528.01999999999,"N_COORD97":2542906.3799999999,"ADDRESS":"裕農路２７號之８八樓","OBJECTID":482344},"geometry":{"x":170528.01999999955,"y":2542906.3800000008}},{"attributes":{"ID":482370,"DIS_CODE":0,"TOWNNAME":"東區","LI":"新東里","LIN":"25鄰","STREET":"裕農路","SECT":" ","MAREA":" ","LANE":" ","ALLEY":" ","HOUSE_NO":"２７號之８八樓之１","E_COORD97":170528.01999999999,"N_COORD97":2542906.3799999999,"ADDRESS":"裕農路２７號之８八樓之１","OBJECTID":482345},"geometry":{"x":170528.01999999955,"y":2542906.3800000008}},{"attributes":{"ID":482371,"DIS_CODE":0,"TOWNNAME":"東區","LI":"新東里","LIN":"25鄰","STREET":"裕農路","SECT":" ","MAREA":" ","LANE":" ","ALLEY":" ","HOUSE_NO":"２７號之８十一樓","E_COORD97":170528.01999999999,"N_COORD97":2542906.3799999999,"ADDRESS":"裕農路２７號之８十一樓","OBJECTID":482346},"geometry":{"x":170528.01999999955,"y":2542906.3800000008}},{"attributes":{"ID":482372,"DIS_CODE":0,"TOWNNAME":"東區","LI":"新東里","LIN":"25鄰","STREET":"裕農路","SECT":" ","MAREA":" ","LANE":" ","ALLEY":" ","HOUSE_NO":"２７號之８十一樓之１","E_COORD97":170528.01999999999,"N_COORD97":2542906.3799999999,"ADDRESS":"裕農路２７號之８十一樓之１","OBJECTID":482347},"geometry":{"x":170528.01999999955,"y":2542906.3800000008}},{"attributes":{"ID":482373,"DIS_CODE":0,"TOWNNAME":"東區","LI":"新東里","LIN":"25鄰","STREET":"裕農路","SECT":" ","MAREA":" ","LANE":" ","ALLEY":" ","HOUSE_NO":"２７號之８十二樓","E_COORD97":170528.01999999999,"N_COORD97":2542906.3799999999,"ADDRESS":"裕農路２７號之８十二樓","OBJECTID":482348},"geometry":{"x":170528.01999999955,"y":2542906.3800000008}},{"attributes":{"ID":482374,"DIS_CODE":0,"TOWNNAME":"東區","LI":"新東里","LIN":"25鄰","STREET":"裕農路","SECT":" ","MAREA":" ","LANE":" ","ALLEY":" ","HOUSE_NO":"２７號之８十二樓之１","E_COORD97":170528.01999999999,"N_COORD97":2542906.3799999999,"ADDRESS":"裕農路２７號之８十二樓之１","OBJECTID":482349},"geometry":{"x":170528.01999999955,"y":2542906.3800000008}},{"attributes":{"ID":482375,"DIS_CODE":0,"TOWNNAME":"東區","LI":"新東里","LIN":"25鄰","STREET":"裕農路","SECT":" ","MAREA":" ","LANE":" ","ALLEY":" ","HOUSE_NO":"２７號之８十樓","E_COORD97":170528.01999999999,"N_COORD97":2542906.3799999999,"ADDRESS":"裕農路２７號之８十樓","OBJECTID":482350},"geometry":{"x":170528.01999999955,"y":2542906.3800000008}},{"attributes":{"ID":482376,"DIS_CODE":0,"TOWNNAME":"北區","LI":"中樓里","LIN":"5鄰","STREET":"開元路","SECT":" ","MAREA":" ","LANE":" ","ALLEY":" ","HOUSE_NO":"２號","E_COORD97":169531.66,"N_COORD97":2545083.04,"ADDRESS":"開元路２號","OBJECTID":482351},"geometry":{"x":169531.66000000108,"y":2545083.0399999991}},{"attributes":{"ID":482377,"DIS_CODE":0,"TOWNNAME":"東區","LI":"新東里","LIN":"25鄰","STREET":"裕農路","SECT":" ","MAREA":" ","LANE":" ","ALLEY":" ","HOUSE_NO":"２７號之８十樓之１","E_COORD97":170528.01999999999,"N_COORD97":2542906.3799999999,"ADDRESS":"裕農路２７號之８十樓之１","OBJECTID":482352},"geometry":{"x":170528.01999999955,"y":2542906.3800000008}},{"attributes":{"ID":482378,"DIS_CODE":0,"TOWNNAME":"東區","LI":"新東里","LIN":"25鄰","STREET":"裕農路","SECT":" ","MAREA":" ","LANE":" ","ALLEY":" ","HOUSE_NO":"２７號之８三樓","E_COORD97":170528.01999999999,"N_COORD97":2542906.3799999999,"ADDRESS":"裕農路２７號之８三樓","OBJECTID":482353},"geometry":{"x":170528.01999999955,"y":2542906.3800000008}},{"attributes":{"ID":482379,"DIS_CODE":0,"TOWNNAME":"東區","LI":"新東里","LIN":"25鄰","STREET":"裕農路","SECT":" ","MAREA":" ","LANE":" ","ALLEY":" ","HOUSE_NO":"２７號之８三樓之１","E_COORD97":170528.01999999999,"N_COORD97":2542906.3799999999,"ADDRESS":"裕農路２７號之８三樓之１","OBJECTID":482354},"geometry":{"x":170528.01999999955,"y":2542906.3800000008}},{"attributes":{"ID":482380,"DIS_CODE":0,"TOWNNAME":"東區","LI":"新東里","LIN":"25鄰","STREET":"裕農路","SECT":" ","MAREA":" ","LANE":" ","ALLEY":" ","HOUSE_NO":"２７號之８五樓","E_COORD97":170528.01999999999,"N_COORD97":2542906.3799999999,"ADDRESS":"裕農路２７號之８五樓","OBJECTID":482355},"geometry":{"x":170528.01999999955,"y":2542906.3800000008}},{"attributes":{"ID":482381,"DIS_CODE":0,"TOWNNAME":"東區","LI":"新東里","LIN":"25鄰","STREET":"裕農路","SECT":" ","MAREA":" ","LANE":" ","ALLEY":" ","HOUSE_NO":"２７號之８五樓之１","E_COORD97":170528.01999999999,"N_COORD97":2542906.3799999999,"ADDRESS":"裕農路２７號之８五樓之１","OBJECTID":482356},"geometry":{"x":170528.01999999955,"y":2542906.3800000008}},{"attributes":{"ID":482382,"DIS_CODE":0,"TOWNNAME":"東區","LI":"新東里","LIN":"25鄰","STREET":"裕農路","SECT":" ","MAREA":" ","LANE":" ","ALLEY":" ","HOUSE_NO":"２７號之８六樓","E_COORD97":170528.01999999999,"N_COORD97":2542906.3799999999,"ADDRESS":"裕農路２７號之８六樓","OBJECTID":482357},"geometry":{"x":170528.01999999955,"y":2542906.3800000008}},{"attributes":{"ID":482383,"DIS_CODE":0,"TOWNNAME":"東區","LI":"新東里","LIN":"25鄰","STREET":"裕農路","SECT":" ","MAREA":" ","LANE":" ","ALLEY":" ","HOUSE_NO":"２７號之８六樓之１","E_COORD97":170528.01999999999,"N_COORD97":2542906.3799999999,"ADDRESS":"裕農路２７號之８六樓之１","OBJECTID":482358},"geometry":{"x":170528.01999999955,"y":2542906.3800000008}},{"attributes":{"ID":482384,"DIS_CODE":0,"TOWNNAME":"東區","LI":"新東里","LIN":"25鄰","STREET":"裕農路","SECT":" ","MAREA":" ","LANE":" ","ALLEY":" ","HOUSE_NO":"２７號之８四樓","E_COORD97":170528.01999999999,"N_COORD97":2542906.3799999999,"ADDRESS":"裕農路２７號之８四樓","OBJECTID":482359},"geometry":{"x":170528.01999999955,"y":2542906.3800000008}},{"attributes":{"ID":482385,"DIS_CODE":0,"TOWNNAME":"東區","LI":"新東里","LIN":"25鄰","STREET":"裕農路","SECT":" ","MAREA":" ","LANE":" ","ALLEY":" ","HOUSE_NO":"２７號之８四樓之１","E_COORD97":170528.01999999999,"N_COORD97":2542906.3799999999,"ADDRESS":"裕農路２７號之８四樓之１","OBJECTID":482360},"geometry":{"x":170528.01999999955,"y":2542906.3800000008}},{"attributes":{"ID":482386,"DIS_CODE":0,"TOWNNAME":"東區","LI":"新東里","LIN":"25鄰","STREET":"裕農路","SECT":" ","MAREA":" ","LANE":" ","ALLEY":" ","HOUSE_NO":"２７號之９七樓","E_COORD97":170538.19,"N_COORD97":2542891.29,"ADDRESS":"裕農路２７號之９七樓","OBJECTID":482361},"geometry":{"x":170538.19000000227,"y":2542891.2899999991}},{"attributes":{"ID":482387,"DIS_CODE":0,"TOWNNAME":"東區","LI":"新東里","LIN":"25鄰","STREET":"裕農路","SECT":" ","MAREA":" ","LANE":" ","ALLEY":" ","HOUSE_NO":"２７號之９七樓之１","E_COORD97":170538.19,"N_COORD97":2542891.29,"ADDRESS":"裕農路２７號之９七樓之１","OBJECTID":482362},"geometry":{"x":170538.19000000227,"y":2542891.2899999991}},{"attributes":{"ID":482388,"DIS_CODE":0,"TOWNNAME":"東區","LI":"新東里","LIN":"25鄰","STREET":"裕農路","SECT":" ","MAREA":" ","LANE":" ","ALLEY":" ","HOUSE_NO":"２７號之９九樓","E_COORD97":170538.19,"N_COORD97":2542891.29,"ADDRESS":"裕農路２７號之９九樓","OBJECTID":482363},"geometry":{"x":170538.19000000227,"y":2542891.2899999991}},{"attributes":{"ID":482389,"DIS_CODE":0,"TOWNNAME":"東區","LI":"新東里","LIN":"25鄰","STREET":"裕農路","SECT":" ","MAREA":" ","LANE":" ","ALLEY":" ","HOUSE_NO":"２７號之９九樓之１","E_COORD97":170538.19,"N_COORD97":2542891.29,"ADDRESS":"裕農路２７號之９九樓之１","OBJECTID":482364},"geometry":{"x":170538.19000000227,"y":2542891.2899999991}},{"attributes":{"ID":482390,"DIS_CODE":0,"TOWNNAME":"東區","LI":"新東里","LIN":"25鄰","STREET":"裕農路","SECT":" ","MAREA":" ","LANE":" ","ALLEY":" ","HOUSE_NO":"２７號之９八樓","E_COORD97":170538.19,"N_COORD97":2542891.29,"ADDRESS":"裕農路２７號之９八樓","OBJECTID":482365},"geometry":{"x":170538.19000000227,"y":2542891.2899999991}},{"attributes":{"ID":482391,"DIS_CODE":0,"TOWNNAME":"北區","LI":"成德里","LIN":"25鄰","STREET":"育德一街","SECT":" ","MAREA":" ","LANE":" ","ALLEY":" ","HOUSE_NO":"２號三樓","E_COORD97":168522.95999999999,"N_COORD97":2545781.23,"ADDRESS":"育德一街２號三樓","OBJECTID":482366},"geometry":{"x":168522.95999999996,"y":2545781.2300000004}},{"attributes":{"ID":482392,"DIS_CODE":0,"TOWNNAME":"東區","LI":"新東里","LIN":"25鄰","STREET":"裕農路","SECT":" ","MAREA":" ","LANE":" ","ALLEY":" ","HOUSE_NO":"２７號之９八樓之１","E_COORD97":170538.19,"N_COORD97":2542891.29,"ADDRESS":"裕農路２７號之９八樓之１","OBJECTID":482367},"geometry":{"x":170538.19000000227,"y":2542891.2899999991}},{"attributes":{"ID":482393,"DIS_CODE":0,"TOWNNAME":"東區","LI":"新東里","LIN":"25鄰","STREET":"裕農路","SECT":" ","MAREA":" ","LANE":" ","ALLEY":" ","HOUSE_NO":"２７號之９十一樓","E_COORD97":170538.19,"N_COORD97":2542891.29,"ADDRESS":"裕農路２７號之９十一樓","OBJECTID":482368},"geometry":{"x":170538.19000000227,"y":2542891.2899999991}},{"attributes":{"ID":482394,"DIS_CODE":0,"TOWNNAME":"東區","LI":"新東里","LIN":"25鄰","STREET":"裕農路","SECT":" ","MAREA":" ","LANE":" ","ALLEY":" ","HOUSE_NO":"２７號之９十一樓之１","E_COORD97":170538.19,"N_COORD97":2542891.29,"ADDRESS":"裕農路２７號之９十一樓之１","OBJECTID":482369},"geometry":{"x":170538.19000000227,"y":2542891.2899999991}},{"attributes":{"ID":482395,"DIS_CODE":0,"TOWNNAME":"東區","LI":"新東里","LIN":"25鄰","STREET":"裕農路","SECT":" ","MAREA":" ","LANE":" ","ALLEY":" ","HOUSE_NO":"２７號之９十二樓","E_COORD97":170538.19,"N_COORD97":2542891.29,"ADDRESS":"裕農路２７號之９十二樓","OBJECTID":482370},"geometry":{"x":170538.19000000227,"y":2542891.2899999991}},{"attributes":{"ID":482396,"DIS_CODE":0,"TOWNNAME":"東區","LI":"新東里","LIN":"25鄰","STREET":"裕農路","SECT":" ","MAREA":" ","LANE":" ","ALLEY":" ","HOUSE_NO":"２７號之９十二樓之１","E_COORD97":170538.19,"N_COORD97":2542891.29,"ADDRESS":"裕農路２７號之９十二樓之１","OBJECTID":482371},"geometry":{"x":170538.19000000227,"y":2542891.2899999991}},{"attributes":{"ID":482397,"DIS_CODE":0,"TOWNNAME":"東區","LI":"新東里","LIN":"25鄰","STREET":"裕農路","SECT":" ","MAREA":" ","LANE":" ","ALLEY":" ","HOUSE_NO":"２７號之９十樓","E_COORD97":170538.19,"N_COORD97":2542891.29,"ADDRESS":"裕農路２７號之９十樓","OBJECTID":482372},"geometry":{"x":170538.19000000227,"y":2542891.2899999991}},{"attributes":{"ID":482398,"DIS_CODE":0,"TOWNNAME":"東區","LI":"新東里","LIN":"25鄰","STREET":"裕農路","SECT":" ","MAREA":" ","LANE":" ","ALLEY":" ","HOUSE_NO":"２７號之９十樓之１","E_COORD97":170538.19,"N_COORD97":2542891.29,"ADDRESS":"裕農路２７號之９十樓之１","OBJECTID":482373},"geometry":{"x":170538.19000000227,"y":2542891.2899999991}},{"attributes":{"ID":482399,"DIS_CODE":0,"TOWNNAME":"東區","LI":"新東里","LIN":"25鄰","STREET":"裕農路","SECT":" ","MAREA":" ","LANE":" ","ALLEY":" ","HOUSE_NO":"２７號之９三樓","E_COORD97":170538.19,"N_COORD97":2542891.29,"ADDRESS":"裕農路２７號之９三樓","OBJECTID":482374},"geometry":{"x":170538.19000000227,"y":2542891.2899999991}},{"attributes":{"ID":482400,"DIS_CODE":0,"TOWNNAME":"東區","LI":"新東里","LIN":"25鄰","STREET":"裕農路","SECT":" ","MAREA":" ","LANE":" ","ALLEY":" ","HOUSE_NO":"２７號之９三樓之１","E_COORD97":170538.19,"N_COORD97":2542891.29,"ADDRESS":"裕農路２７號之９三樓之１","OBJECTID":482375},"geometry":{"x":170538.19000000227,"y":2542891.2899999991}},{"attributes":{"ID":482401,"DIS_CODE":0,"TOWNNAME":"東區","LI":"新東里","LIN":"25鄰","STREET":"裕農路","SECT":" ","MAREA":" ","LANE":" ","ALLEY":" ","HOUSE_NO":"２７號之９五樓","E_COORD97":170538.19,"N_COORD97":2542891.29,"ADDRESS":"裕農路２７號之９五樓","OBJECTID":482376},"geometry":{"x":170538.19000000227,"y":2542891.2899999991}},{"attributes":{"ID":482402,"DIS_CODE":0,"TOWNNAME":"東區","LI":"新東里","LIN":"25鄰","STREET":"裕農路","SECT":" ","MAREA":" ","LANE":" ","ALLEY":" ","HOUSE_NO":"２７號之９五樓之１","E_COORD97":170538.19,"N_COORD97":2542891.29,"ADDRESS":"裕農路２７號之９五樓之１","OBJECTID":482377},"geometry":{"x":170538.19000000227,"y":2542891.2899999991}},{"attributes":{"ID":482403,"DIS_CODE":0,"TOWNNAME":"東區","LI":"新東里","LIN":"25鄰","STREET":"裕農路","SECT":" ","MAREA":" ","LANE":" ","ALLEY":" ","HOUSE_NO":"２７號之９六樓","E_COORD97":170538.19,"N_COORD97":2542891.29,"ADDRESS":"裕農路２７號之９六樓","OBJECTID":482378},"geometry":{"x":170538.19000000227,"y":2542891.2899999991}},{"attributes":{"ID":482404,"DIS_CODE":0,"TOWNNAME":"東區","LI":"新東里","LIN":"25鄰","STREET":"裕農路","SECT":" ","MAREA":" ","LANE":" ","ALLEY":" ","HOUSE_NO":"２７號之９六樓之１","E_COORD97":170538.19,"N_COORD97":2542891.29,"ADDRESS":"裕農路２７號之９六樓之１","OBJECTID":482379},"geometry":{"x":170538.19000000227,"y":2542891.2899999991}},{"attributes":{"ID":482405,"DIS_CODE":0,"TOWNNAME":"東區","LI":"新東里","LIN":"25鄰","STREET":"裕農路","SECT":" ","MAREA":" ","LANE":" ","ALLEY":" ","HOUSE_NO":"２７號之９四樓","E_COORD97":170538.19,"N_COORD97":2542891.29,"ADDRESS":"裕農路２７號之９四樓","OBJECTID":482380},"geometry":{"x":170538.19000000227,"y":2542891.2899999991}},{"attributes":{"ID":482406,"DIS_CODE":0,"TOWNNAME":"東區","LI":"新東里","LIN":"25鄰","STREET":"裕農路","SECT":" ","MAREA":" ","LANE":" ","ALLEY":" ","HOUSE_NO":"２７號之９四樓之１","E_COORD97":170538.19,"N_COORD97":2542891.29,"ADDRESS":"裕農路２７號之９四樓之１","OBJECTID":482381},"geometry":{"x":170538.19000000227,"y":2542891.2899999991}},{"attributes":{"ID":482407,"DIS_CODE":0,"TOWNNAME":"安平區","LI":"怡平里","LIN":"25鄰","STREET":"永華路","SECT":"二段","MAREA":" ","LANE":" ","ALLEY":" ","HOUSE_NO":"５０２號二樓","E_COORD97":165394.89000000001,"N_COORD97":2543514.8500000001,"ADDRESS":"永華路二段５０２號二樓","OBJECTID":482382},"geometry":{"x":165394.8900000006,"y":2543514.8499999996}},{"attributes":{"ID":482408,"DIS_CODE":0,"TOWNNAME":"安平區","LI":"怡平里","LIN":"25鄰","STREET":"永華路","SECT":"二段","MAREA":" ","LANE":" ","ALLEY":" ","HOUSE_NO":"５０２號三樓","E_COORD97":165394.89000000001,"N_COORD97":2543514.8500000001,"ADDRESS":"永華路二段５０２號三樓","OBJECTID":482383},"geometry":{"x":165394.8900000006,"y":2543514.8499999996}},{"attributes":{"ID":482409,"DIS_CODE":0,"TOWNNAME":"安平區","LI":"怡平里","LIN":"25鄰","STREET":"永華路","SECT":"二段","MAREA":" ","LANE":" ","ALLEY":" ","HOUSE_NO":"５０２號四樓","E_COORD97":165394.89000000001,"N_COORD97":2543514.8500000001,"ADDRESS":"永華路二段５０２號四樓","OBJECTID":482384},"geometry":{"x":165394.8900000006,"y":2543514.8499999996}},{"attributes":{"ID":482410,"DIS_CODE":0,"TOWNNAME":"安平區","LI":"怡平里","LIN":"25鄰","STREET":"永華路","SECT":"二段","MAREA":" ","LANE":" ","ALLEY":" ","HOUSE_NO":"５０２號五樓","E_COORD97":165394.89000000001,"N_COORD97":2543514.8500000001,"ADDRESS":"永華路二段５０２號五樓","OBJECTID":482385},"geometry":{"x":165394.8900000006,"y":2543514.8499999996}},{"attributes":{"ID":482411,"DIS_CODE":0,"TOWNNAME":"中西區","LI":"萬昌里","LIN":"15鄰","STREET":"民權路","SECT":"一段","MAREA":" ","LANE":" ","ALLEY":" ","HOUSE_NO":"１９８號","E_COORD97":168803.73999999999,"N_COORD97":2543598.8900000001,"ADDRESS":"民權路一段１９８號","OBJECTID":482386},"geometry":{"x":168803.74000000115,"y":2543598.8900000025}},{"attributes":{"ID":482412,"DIS_CODE":0,"TOWNNAME":"歸仁區","LI":"文化里","LIN":"25鄰","STREET":"民權北路","SECT":" ","MAREA":" ","LANE":" ","ALLEY":" ","HOUSE_NO":"１８６號四樓之５","E_COORD97":177048.26000000001,"N_COORD97":2541430.3399999999,"ADDRESS":"民權北路１８６號四樓之５","OBJECTID":482387},"geometry":{"x":177048.26000000164,"y":2541430.3399999999}},{"attributes":{"ID":482413,"DIS_CODE":0,"TOWNNAME":"歸仁區","LI":"文化里","LIN":"25鄰","STREET":"民權北路","SECT":" ","MAREA":" ","LANE":" ","ALLEY":" ","HOUSE_NO":"１８６號八樓之３","E_COORD97":177048.25,"N_COORD97":2541430.3399999999,"ADDRESS":"民權北路１８６號八樓之３","OBJECTID":482388},"geometry":{"x":177048.25,"y":2541430.3399999999}},{"attributes":{"ID":482414,"DIS_CODE":0,"TOWNNAME":"歸仁區","LI":"文化里","LIN":"25鄰","STREET":"民權北路","SECT":" ","MAREA":" ","LANE":" ","ALLEY":" ","HOUSE_NO":"１８６號五樓之３","E_COORD97":177048.25,"N_COORD97":2541430.3399999999,"ADDRESS":"民權北路１８６號五樓之３","OBJECTID":482389},"geometry":{"x":177048.25,"y":2541430.3399999999}},{"attributes":{"ID":482415,"DIS_CODE":0,"TOWNNAME":"歸仁區","LI":"文化里","LIN":"25鄰","STREET":"民權北路","SECT":" ","MAREA":" ","LANE":" ","ALLEY":" ","HOUSE_NO":"１８６號六樓之６","E_COORD97":177048.25,"N_COORD97":2541430.3399999999,"ADDRESS":"民權北路１８６號六樓之６","OBJECTID":482390},"geometry":{"x":177048.25,"y":2541430.3399999999}},{"attributes":{"ID":482416,"DIS_CODE":0,"TOWNNAME":"歸仁區","LI":"文化里","LIN":"25鄰","STREET":"民權北路","SECT":" ","MAREA":" ","LANE":" ","ALLEY":" ","HOUSE_NO":"１８６號八樓之１","E_COORD97":177048.23000000001,"N_COORD97":2541430.3399999999,"ADDRESS":"民權北路１８６號八樓之１","OBJECTID":482391},"geometry":{"x":177048.23000000138,"y":2541430.3399999999}},{"attributes":{"ID":482417,"DIS_CODE":0,"TOWNNAME":"歸仁區","LI":"文化里","LIN":"25鄰","STREET":"民權北路","SECT":" ","MAREA":" ","LANE":" ","ALLEY":" ","HOUSE_NO":"１８６號四樓之３","E_COORD97":177048.25,"N_COORD97":2541430.3399999999,"ADDRESS":"民權北路１８６號四樓之３","OBJECTID":482392},"geometry":{"x":177048.25,"y":2541430.3399999999}},{"attributes":{"ID":482418,"DIS_CODE":0,"TOWNNAME":"歸仁區","LI":"文化里","LIN":"25鄰","STREET":"民權北路","SECT":" ","MAREA":" ","LANE":" ","ALLEY":" ","HOUSE_NO":"１８６號七樓之７","E_COORD97":177048.25,"N_COORD97":2541430.3399999999,"ADDRESS":"民權北路１８６號七樓之７","OBJECTID":482393},"geometry":{"x":177048.25,"y":2541430.3399999999}},{"attributes":{"ID":482419,"DIS_CODE":0,"TOWNNAME":"歸仁區","LI":"文化里","LIN":"25鄰","STREET":"民權北路","SECT":" ","MAREA":" ","LANE":" ","ALLEY":" ","HOUSE_NO":"１８６號六樓之１","E_COORD97":177048.23000000001,"N_COORD97":2541430.3399999999,"ADDRESS":"民權北路１８６號六樓之１","OBJECTID":482394},"geometry":{"x":177048.23000000138,"y":2541430.3399999999}},{"attributes":{"ID":482420,"DIS_CODE":0,"TOWNNAME":"歸仁區","LI":"文化里","LIN":"25鄰","STREET":"民權北路","SECT":" ","MAREA":" ","LANE":" ","ALLEY":" ","HOUSE_NO":"１８６號四樓之２","E_COORD97":177048.26000000001,"N_COORD97":2541430.3399999999,"ADDRESS":"民權北路１８６號四樓之２","OBJECTID":482395},"geometry":{"x":177048.26000000164,"y":2541430.3399999999}},{"attributes":{"ID":482421,"DIS_CODE":0,"TOWNNAME":"歸仁區","LI":"文化里","LIN":"25鄰","STREET":"民權北路","SECT":" ","MAREA":" ","LANE":" ","ALLEY":" ","HOUSE_NO":"１８６號五樓之２","E_COORD97":177048.26000000001,"N_COORD97":2541430.3399999999,"ADDRESS":"民權北路１８６號五樓之２","OBJECTID":482396},"geometry":{"x":177048.26000000164,"y":2541430.3399999999}},{"attributes":{"ID":482422,"DIS_CODE":0,"TOWNNAME":"歸仁區","LI":"文化里","LIN":"25鄰","STREET":"民權北路","SECT":" ","MAREA":" ","LANE":" ","ALLEY":" ","HOUSE_NO":"１８６號七樓之３","E_COORD97":177048.25,"N_COORD97":2541430.3399999999,"ADDRESS":"民權北路１８６號七樓之３","OBJECTID":482397},"geometry":{"x":177048.25,"y":2541430.3399999999}},{"attributes":{"ID":482423,"DIS_CODE":0,"TOWNNAME":"歸仁區","LI":"文化里","LIN":"25鄰","STREET":"民權北路","SECT":" ","MAREA":" ","LANE":" ","ALLEY":" ","HOUSE_NO":"１８６號七樓之６","E_COORD97":177048.25,"N_COORD97":2541430.3399999999,"ADDRESS":"民權北路１８６號七樓之６","OBJECTID":482398},"geometry":{"x":177048.25,"y":2541430.3399999999}},{"attributes":{"ID":482424,"DIS_CODE":0,"TOWNNAME":"北區","LI":"成德里","LIN":"25鄰","STREET":"育德一街","SECT":" ","MAREA":" ","LANE":" ","ALLEY":" ","HOUSE_NO":"８號七樓","E_COORD97":168556.29999999999,"N_COORD97":2545776.79,"ADDRESS":"育德一街８號七樓","OBJECTID":482399},"geometry":{"x":168556.29999999981,"y":2545776.7899999991}},{"attributes":{"ID":482425,"DIS_CODE":0,"TOWNNAME":"北區","LI":"中樓里","LIN":"5鄰","STREET":"前鋒路","SECT":" ","MAREA":" ","LANE":" ","ALLEY":" ","HOUSE_NO":"２８３號","E_COORD97":169553.67999999999,"N_COORD97":2545020.3199999998,"ADDRESS":"前鋒路２８３號","OBJECTID":482400},"geometry":{"x":169553.6799999997,"y":2545020.3200000022}}]}