{"displayFieldName":"TOWNNAME","fieldAliases":{"ID":"ID","DIS_CODE":"DIS_CODE","TOWNNAME":"TOWNNAME","LI":"LI","LIN":"LIN","STREET":"STREET","SECT":"SECT","MAREA":"MAREA","LANE":"LANE","ALLEY":"ALLEY","HOUSE_NO":"HOUSE_NO","E_COORD97":"E_COORD97","N_COORD97":"N_COORD97","ADDRESS":"ADDRESS","OBJECTID":"OBJECTID"},"geometryType":"esriGeometryPoint","spatialReference":{"wkid":102443,"latestWkid":3826},"fields":[{"name":"ID","type":"esriFieldTypeDouble","alias":"ID"},{"name":"DIS_CODE","type":"esriFieldTypeInteger","alias":"DIS_CODE"},{"name":"TOWNNAME","type":"esriFieldTypeString","alias":"TOWNNAME","length":8},{"name":"LI","type":"esriFieldTypeString","alias":"LI","length":8},{"name":"LIN","type":"esriFieldTypeString","alias":"LIN","length":12},{"name":"STREET","type":"esriFieldTypeString","alias":"STREET","length":20},{"name":"SECT","type":"esriFieldTypeString","alias":"SECT","length":8},{"name":"MAREA","type":"esriFieldTypeString","alias":"MAREA","length":12},{"name":"LANE","type":"esriFieldTypeString","alias":"LANE","length":10},{"name":"ALLEY","type":"esriFieldTypeString","alias":"ALLEY","length":10},{"name":"HOUSE_NO","type":"esriFieldTypeString","alias":"HOUSE_NO","length":20},{"name":"E_COORD97","type":"esriFieldTypeDouble","alias":"E_COORD97"},{"name":"N_COORD97","type":"esriFieldTypeDouble","alias":"N_COORD97"},{"name":"ADDRESS","type":"esriFieldTypeString","alias":"ADDRESS","length":50},{"name":"OBJECTID","type":"esriFieldTypeOID","alias":"OBJECTID"}],"features":[{"attributes":{"ID":658628,"DIS_CODE":0,"TOWNNAME":"善化區","LI":"胡厝里","LIN":"23鄰","STREET":" ","SECT":" ","MAREA":"烏橋","LANE":" ","ALLEY":" ","HOUSE_NO":"５號之２","E_COORD97":175425.34701200001,"N_COORD97":2558876.6351399999,"ADDRESS":"烏橋５號之２","OBJECTID":658601},"geometry":{"x":175425.34701200016,"y":2558876.6351410002}},{"attributes":{"ID":658629,"DIS_CODE":0,"TOWNNAME":"善化區","LI":"胡厝里","LIN":"23鄰","STREET":" ","SECT":" ","MAREA":"烏橋","LANE":" ","ALLEY":" ","HOUSE_NO":"５號之３","E_COORD97":175427.67887199999,"N_COORD97":2558876.4234699998,"ADDRESS":"烏橋５號之３","OBJECTID":658602},"geometry":{"x":175427.67887200043,"y":2558876.4234739989}},{"attributes":{"ID":658630,"DIS_CODE":0,"TOWNNAME":"善化區","LI":"胡厝里","LIN":"23鄰","STREET":" ","SECT":" ","MAREA":"烏橋","LANE":" ","ALLEY":" ","HOUSE_NO":"６號之１","E_COORD97":175423.16099400001,"N_COORD97":2558883.6794199999,"ADDRESS":"烏橋６號之１","OBJECTID":658603},"geometry":{"x":175423.16099400073,"y":2558883.6794150006}},{"attributes":{"ID":658631,"DIS_CODE":0,"TOWNNAME":"善化區","LI":"胡厝里","LIN":"23鄰","STREET":" ","SECT":" ","MAREA":"烏橋","LANE":" ","ALLEY":" ","HOUSE_NO":"６號之２","E_COORD97":175425.06888000001,"N_COORD97":2558884.1027500001,"ADDRESS":"烏橋６號之２","OBJECTID":658604},"geometry":{"x":175425.06888000015,"y":2558884.1027489994}},{"attributes":{"ID":658632,"DIS_CODE":0,"TOWNNAME":"善化區","LI":"胡厝里","LIN":"23鄰","STREET":" ","SECT":" ","MAREA":"烏橋","LANE":" ","ALLEY":" ","HOUSE_NO":"６號之３","E_COORD97":175426.97676600001,"N_COORD97":2558884.3144100001,"ADDRESS":"烏橋６號之３","OBJECTID":658605},"geometry":{"x":175426.97676599957,"y":2558884.3144150004}},{"attributes":{"ID":658633,"DIS_CODE":0,"TOWNNAME":"善化區","LI":"胡厝里","LIN":"22鄰","STREET":" ","SECT":" ","MAREA":"烏橋","LANE":" ","ALLEY":" ","HOUSE_NO":"１號之１","E_COORD97":175439.16603600001,"N_COORD97":2558903.1527399998,"ADDRESS":"烏橋１號之１","OBJECTID":658606},"geometry":{"x":175439.16603600234,"y":2558903.1527380012}},{"attributes":{"ID":658634,"DIS_CODE":0,"TOWNNAME":"善化區","LI":"胡厝里","LIN":"22鄰","STREET":" ","SECT":" ","MAREA":"烏橋","LANE":" ","ALLEY":" ","HOUSE_NO":"１號之２","E_COORD97":175440.86193399999,"N_COORD97":2558904.2110700002,"ADDRESS":"烏橋１號之２","OBJECTID":658607},"geometry":{"x":175440.86193399969,"y":2558904.2110709976}},{"attributes":{"ID":658635,"DIS_CODE":0,"TOWNNAME":"善化區","LI":"胡厝里","LIN":"22鄰","STREET":" ","SECT":" ","MAREA":"烏橋","LANE":" ","ALLEY":" ","HOUSE_NO":"１號之３","E_COORD97":175442.345845,"N_COORD97":2558904.6343999999,"ADDRESS":"烏橋１號之３","OBJECTID":658608},"geometry":{"x":175442.34584500082,"y":2558904.6344040018}},{"attributes":{"ID":658636,"DIS_CODE":0,"TOWNNAME":"北區","LI":"文元里","LIN":"3鄰","STREET":"文成三路","SECT":" ","MAREA":" ","LANE":" ","ALLEY":" ","HOUSE_NO":"９１０號","E_COORD97":167664.212203,"N_COORD97":2546257.2850100002,"ADDRESS":"文成三路９１０號","OBJECTID":658609},"geometry":{"x":167664.21220299974,"y":2546257.285007}},{"attributes":{"ID":658637,"DIS_CODE":0,"TOWNNAME":"善化區","LI":"胡厝里","LIN":"22鄰","STREET":" ","SECT":" ","MAREA":"烏橋","LANE":" ","ALLEY":" ","HOUSE_NO":"２號之１","E_COORD97":175438.63606799999,"N_COORD97":2558897.0144099998,"ADDRESS":"烏橋２號之１","OBJECTID":658610},"geometry":{"x":175438.63606800046,"y":2558897.0144080035}},{"attributes":{"ID":658638,"DIS_CODE":0,"TOWNNAME":"善化區","LI":"胡厝里","LIN":"22鄰","STREET":" ","SECT":" ","MAREA":"烏橋","LANE":" ","ALLEY":" ","HOUSE_NO":"２號之２","E_COORD97":175439.90799099999,"N_COORD97":2558897.6494100001,"ADDRESS":"烏橋２號之２","OBJECTID":658611},"geometry":{"x":175439.90799099952,"y":2558897.6494080033}},{"attributes":{"ID":658639,"DIS_CODE":0,"TOWNNAME":"善化區","LI":"胡厝里","LIN":"22鄰","STREET":" ","SECT":" ","MAREA":"烏橋","LANE":" ","ALLEY":" ","HOUSE_NO":"２號之３","E_COORD97":175441.39190300001,"N_COORD97":2558898.4960699999,"ADDRESS":"烏橋２號之３","OBJECTID":658612},"geometry":{"x":175441.39190299995,"y":2558898.4960740004}},{"attributes":{"ID":658640,"DIS_CODE":0,"TOWNNAME":"北區","LI":"文元里","LIN":"15鄰","STREET":"和緯路","SECT":"三段","MAREA":" ","LANE":" ","ALLEY":" ","HOUSE_NO":"３３２號","E_COORD97":167548.36143600001,"N_COORD97":2545635.09118,"ADDRESS":"和緯路三段３３２號","OBJECTID":658613},"geometry":{"x":167548.36143600009,"y":2545635.0911759995}},{"attributes":{"ID":658641,"DIS_CODE":0,"TOWNNAME":"善化區","LI":"胡厝里","LIN":"22鄰","STREET":" ","SECT":" ","MAREA":"烏橋","LANE":" ","ALLEY":" ","HOUSE_NO":"３號之１","E_COORD97":175438.84805500001,"N_COORD97":2558885.7960799998,"ADDRESS":"烏橋３號之１","OBJECTID":658614},"geometry":{"x":175438.84805500042,"y":2558885.7960810009}},{"attributes":{"ID":658642,"DIS_CODE":0,"TOWNNAME":"善化區","LI":"胡厝里","LIN":"22鄰","STREET":" ","SECT":" ","MAREA":"烏橋","LANE":" ","ALLEY":" ","HOUSE_NO":"３號之２","E_COORD97":175440.331966,"N_COORD97":2558887.0660799998,"ADDRESS":"烏橋３號之２","OBJECTID":658615},"geometry":{"x":175440.33196599968,"y":2558887.0660800021}},{"attributes":{"ID":658643,"DIS_CODE":0,"TOWNNAME":"善化區","LI":"胡厝里","LIN":"22鄰","STREET":" ","SECT":" ","MAREA":"烏橋","LANE":" ","ALLEY":" ","HOUSE_NO":"３號之３","E_COORD97":175441.60389,"N_COORD97":2558888.7594099999,"ADDRESS":"烏橋３號之３","OBJECTID":658616},"geometry":{"x":175441.60389000084,"y":2558888.7594130002}},{"attributes":{"ID":658644,"DIS_CODE":0,"TOWNNAME":"善化區","LI":"胡厝里","LIN":"22鄰","STREET":" ","SECT":" ","MAREA":"烏橋","LANE":" ","ALLEY":" ","HOUSE_NO":"４號之１","E_COORD97":175439.27202999999,"N_COORD97":2558878.81109,"ADDRESS":"烏橋４號之１","OBJECTID":658617},"geometry":{"x":175439.27203000057,"y":2558878.8110850025}},{"attributes":{"ID":658645,"DIS_CODE":0,"TOWNNAME":"善化區","LI":"胡厝里","LIN":"22鄰","STREET":" ","SECT":" ","MAREA":"烏橋","LANE":" ","ALLEY":" ","HOUSE_NO":"４號之２","E_COORD97":175440.967928,"N_COORD97":2558879.4460800001,"ADDRESS":"烏橋４號之２","OBJECTID":658618},"geometry":{"x":175440.96792800073,"y":2558879.446084002}},{"attributes":{"ID":658646,"DIS_CODE":0,"TOWNNAME":"善化區","LI":"胡厝里","LIN":"22鄰","STREET":" ","SECT":" ","MAREA":"烏橋","LANE":" ","ALLEY":" ","HOUSE_NO":"４號之３","E_COORD97":175442.45183899999,"N_COORD97":2558880.5044200001,"ADDRESS":"烏橋４號之３","OBJECTID":658619},"geometry":{"x":175442.45183900185,"y":2558880.5044170003}},{"attributes":{"ID":658647,"DIS_CODE":0,"TOWNNAME":"善化區","LI":"胡厝里","LIN":"23鄰","STREET":" ","SECT":" ","MAREA":"烏橋","LANE":" ","ALLEY":" ","HOUSE_NO":"１０號之１","E_COORD97":175421.88907,"N_COORD97":2558919.4510599999,"ADDRESS":"烏橋１０號之１","OBJECTID":658620},"geometry":{"x":175421.8890700005,"y":2558919.4510600027}},{"attributes":{"ID":658648,"DIS_CODE":0,"TOWNNAME":"善化區","LI":"胡厝里","LIN":"23鄰","STREET":" ","SECT":" ","MAREA":"烏橋","LANE":" ","ALLEY":" ","HOUSE_NO":"１０號之２","E_COORD97":175423.58496000001,"N_COORD97":2558920.0860600001,"ADDRESS":"烏橋１０號之２","OBJECTID":658621},"geometry":{"x":175423.58496000059,"y":2558920.0860600024}},{"attributes":{"ID":658649,"DIS_CODE":0,"TOWNNAME":"北區","LI":"三德里","LIN":"12鄰","STREET":"裕民街","SECT":" ","MAREA":" ","LANE":"５１巷","ALLEY":" ","HOUSE_NO":"１３號","E_COORD97":168446.999106,"N_COORD97":2544499.3942900002,"ADDRESS":"裕民街５１巷１３號","OBJECTID":658622},"geometry":{"x":168446.99910600111,"y":2544499.3942900002}},{"attributes":{"ID":658650,"DIS_CODE":0,"TOWNNAME":"善化區","LI":"胡厝里","LIN":"23鄰","STREET":" ","SECT":" ","MAREA":"烏橋","LANE":" ","ALLEY":" ","HOUSE_NO":"１０號之３","E_COORD97":175425.28086,"N_COORD97":2558920.9327199999,"ADDRESS":"烏橋１０號之３","OBJECTID":658623},"geometry":{"x":175425.28086000122,"y":2558920.9327200036}},{"attributes":{"ID":658651,"DIS_CODE":0,"TOWNNAME":"北區","LI":"三德里","LIN":"12鄰","STREET":"裕民街","SECT":" ","MAREA":" ","LANE":"５１巷","ALLEY":" ","HOUSE_NO":"１５號","E_COORD97":168443.18683200001,"N_COORD97":2544501.0876199999,"ADDRESS":"裕民街５１巷１５號","OBJECTID":658624},"geometry":{"x":168443.1868320005,"y":2544501.0876219999}},{"attributes":{"ID":658652,"DIS_CODE":0,"TOWNNAME":"善化區","LI":"胡厝里","LIN":"23鄰","STREET":" ","SECT":" ","MAREA":"烏橋","LANE":" ","ALLEY":" ","HOUSE_NO":"７號之１","E_COORD97":175421.78307,"N_COORD97":2558894.05107,"ADDRESS":"烏橋７號之１","OBJECTID":658625},"geometry":{"x":175421.78307000082,"y":2558894.051070001}},{"attributes":{"ID":658653,"DIS_CODE":0,"TOWNNAME":"善化區","LI":"胡厝里","LIN":"23鄰","STREET":" ","SECT":" ","MAREA":"烏橋","LANE":" ","ALLEY":" ","HOUSE_NO":"７號之２","E_COORD97":175423.26697999999,"N_COORD97":2558895.5327400002,"ADDRESS":"烏橋７號之２","OBJECTID":658626},"geometry":{"x":175423.26698000077,"y":2558895.5327400025}},{"attributes":{"ID":658654,"DIS_CODE":0,"TOWNNAME":"善化區","LI":"胡厝里","LIN":"23鄰","STREET":" ","SECT":" ","MAREA":"烏橋","LANE":" ","ALLEY":" ","HOUSE_NO":"７號之３","E_COORD97":175424.53891,"N_COORD97":2558895.7444000002,"ADDRESS":"烏橋７號之３","OBJECTID":658627},"geometry":{"x":175424.53890999965,"y":2558895.7444000002}},{"attributes":{"ID":658655,"DIS_CODE":0,"TOWNNAME":"善化區","LI":"胡厝里","LIN":"23鄰","STREET":" ","SECT":" ","MAREA":"烏橋","LANE":" ","ALLEY":" ","HOUSE_NO":"８號之１","E_COORD97":175421.14710999999,"N_COORD97":2558901.4594000001,"ADDRESS":"烏橋８號之１","OBJECTID":658628},"geometry":{"x":175421.14711000118,"y":2558901.4594000019}},{"attributes":{"ID":658656,"DIS_CODE":0,"TOWNNAME":"北區","LI":"大港里","LIN":"34鄰","STREET":"大興街","SECT":" ","MAREA":" ","LANE":"５２８巷","ALLEY":" ","HOUSE_NO":"１９號","E_COORD97":165977.069219,"N_COORD97":2545514.5470799999,"ADDRESS":"大興街５２８巷１９號","OBJECTID":658629},"geometry":{"x":165977.06921900064,"y":2545514.5470750015}},{"attributes":{"ID":658657,"DIS_CODE":0,"TOWNNAME":"善化區","LI":"胡厝里","LIN":"23鄰","STREET":" ","SECT":" ","MAREA":"烏橋","LANE":" ","ALLEY":" ","HOUSE_NO":"８號之２","E_COORD97":175422.41902999999,"N_COORD97":2558901.8827300002,"ADDRESS":"烏橋８號之２","OBJECTID":658630},"geometry":{"x":175422.41903000046,"y":2558901.8827300016}},{"attributes":{"ID":658658,"DIS_CODE":0,"TOWNNAME":"北區","LI":"大港里","LIN":"34鄰","STREET":"大興街","SECT":" ","MAREA":" ","LANE":"５２８巷","ALLEY":" ","HOUSE_NO":"２１號","E_COORD97":165974.52770400001,"N_COORD97":2545518.56874,"ADDRESS":"大興街５２８巷２１號","OBJECTID":658631},"geometry":{"x":165974.52770400047,"y":2545518.5687390026}},{"attributes":{"ID":658659,"DIS_CODE":0,"TOWNNAME":"善化區","LI":"胡厝里","LIN":"23鄰","STREET":" ","SECT":" ","MAREA":"烏橋","LANE":" ","ALLEY":" ","HOUSE_NO":"８號之３","E_COORD97":175423.90294999999,"N_COORD97":2558902.3060699999,"ADDRESS":"烏橋８號之３","OBJECTID":658632},"geometry":{"x":175423.90295000002,"y":2558902.3060699999}},{"attributes":{"ID":658660,"DIS_CODE":0,"TOWNNAME":"善化區","LI":"胡厝里","LIN":"23鄰","STREET":" ","SECT":" ","MAREA":"烏橋","LANE":" ","ALLEY":" ","HOUSE_NO":"９號之１","E_COORD97":175421.14710999999,"N_COORD97":2558912.46606,"ADDRESS":"烏橋９號之１","OBJECTID":658633},"geometry":{"x":175421.14711000118,"y":2558912.4660600014}},{"attributes":{"ID":658661,"DIS_CODE":0,"TOWNNAME":"北區","LI":"文元里","LIN":"2鄰","STREET":"海安路","SECT":"三段","MAREA":" ","LANE":" ","ALLEY":" ","HOUSE_NO":"９６９號","E_COORD97":167950.97991600001,"N_COORD97":2546615.5306500001,"ADDRESS":"海安路三段９６９號","OBJECTID":658634},"geometry":{"x":167950.97991599981,"y":2546615.5306470022}},{"attributes":{"ID":658662,"DIS_CODE":0,"TOWNNAME":"善化區","LI":"胡厝里","LIN":"22鄰","STREET":" ","SECT":" ","MAREA":"烏橋","LANE":" ","ALLEY":" ","HOUSE_NO":"９號之２","E_COORD97":175422.419039,"N_COORD97":2558912.6777300001,"ADDRESS":"烏橋９號之２","OBJECTID":658635},"geometry":{"x":175422.41903900169,"y":2558912.6777330022}},{"attributes":{"ID":658663,"DIS_CODE":0,"TOWNNAME":"善化區","LI":"胡厝里","LIN":"23鄰","STREET":" ","SECT":" ","MAREA":"烏橋","LANE":" ","ALLEY":" ","HOUSE_NO":"９號之３","E_COORD97":175423.90294999999,"N_COORD97":2558912.8894000002,"ADDRESS":"烏橋９號之３","OBJECTID":658636},"geometry":{"x":175423.90295000002,"y":2558912.8893999998}},{"attributes":{"ID":658664,"DIS_CODE":0,"TOWNNAME":"北區","LI":"賢北里","LIN":"2鄰","STREET":"中華北路","SECT":"一段","MAREA":" ","LANE":" ","ALLEY":" ","HOUSE_NO":"８７號","E_COORD97":166507.82246,"N_COORD97":2545474.8596000001,"ADDRESS":"中華北路一段８７號","OBJECTID":658637},"geometry":{"x":166507.8224600004,"y":2545474.8595960028}},{"attributes":{"ID":658665,"DIS_CODE":0,"TOWNNAME":"北區","LI":"大山里","LIN":"11鄰","STREET":"和緯路","SECT":"一段","MAREA":" ","LANE":" ","ALLEY":" ","HOUSE_NO":"１９３號","E_COORD97":169309.684916,"N_COORD97":2545613.0514000002,"ADDRESS":"和緯路一段１９３號","OBJECTID":658638},"geometry":{"x":169309.68491599988,"y":2545613.0513970032}},{"attributes":{"ID":658666,"DIS_CODE":0,"TOWNNAME":"北區","LI":"和順里","LIN":"1鄰","STREET":"海安路","SECT":"三段","MAREA":" ","LANE":" ","ALLEY":" ","HOUSE_NO":"２５０號","E_COORD97":168012.02924599999,"N_COORD97":2545301.3724000002,"ADDRESS":"海安路三段２５０號","OBJECTID":658639},"geometry":{"x":168012.02924599964,"y":2545301.3723980021}},{"attributes":{"ID":658667,"DIS_CODE":0,"TOWNNAME":"北區","LI":"大港里","LIN":"29鄰","STREET":"大興街","SECT":" ","MAREA":" ","LANE":" ","ALLEY":" ","HOUSE_NO":"４１６號","E_COORD97":166192.09205599999,"N_COORD97":2545529.65478,"ADDRESS":"大興街４１６號","OBJECTID":658640},"geometry":{"x":166192.09205600061,"y":2545529.6547750011}},{"attributes":{"ID":658668,"DIS_CODE":0,"TOWNNAME":"北區","LI":"大港里","LIN":"29鄰","STREET":"大興街","SECT":" ","MAREA":" ","LANE":" ","ALLEY":" ","HOUSE_NO":"４１８號","E_COORD97":166185.52647300001,"N_COORD97":2545527.7497800002,"ADDRESS":"大興街４１８號","OBJECTID":658641},"geometry":{"x":166185.52647299971,"y":2545527.749776002}},{"attributes":{"ID":658669,"DIS_CODE":0,"TOWNNAME":"北區","LI":"大港里","LIN":"33鄰","STREET":"大興街","SECT":" ","MAREA":" ","LANE":"５２８巷","ALLEY":" ","HOUSE_NO":"１號","E_COORD97":165996.183537,"N_COORD97":2545469.4356399998,"ADDRESS":"大興街５２８巷１號","OBJECTID":658642},"geometry":{"x":165996.18353700172,"y":2545469.435641}},{"attributes":{"ID":658670,"DIS_CODE":0,"TOWNNAME":"北區","LI":"大港里","LIN":"33鄰","STREET":"大興街","SECT":" ","MAREA":" ","LANE":"５２８巷","ALLEY":" ","HOUSE_NO":"３號","E_COORD97":165993.853814,"N_COORD97":2545473.2456399999,"ADDRESS":"大興街５２８巷３號","OBJECTID":658643},"geometry":{"x":165993.85381400026,"y":2545473.2456390038}},{"attributes":{"ID":658671,"DIS_CODE":0,"TOWNNAME":"北區","LI":"成功里","LIN":"20鄰","STREET":"中華北路","SECT":"二段","MAREA":" ","LANE":"２６８巷","ALLEY":" ","HOUSE_NO":"２５號","E_COORD97":168870.21445500001,"N_COORD97":2546914.5890299999,"ADDRESS":"中華北路二段２６８巷２５號","OBJECTID":658644},"geometry":{"x":168870.21445500106,"y":2546914.5890270006}},{"attributes":{"ID":658672,"DIS_CODE":0,"TOWNNAME":"北區","LI":"公園里","LIN":"17鄰","STREET":"成功路","SECT":" ","MAREA":" ","LANE":" ","ALLEY":" ","HOUSE_NO":"５４號十一樓之１","E_COORD97":168749.28065599999,"N_COORD97":2544294.4746099999,"ADDRESS":"成功路５４號十一樓之１","OBJECTID":658645},"geometry":{"x":168749.28065599967,"y":2544294.4746090006}},{"attributes":{"ID":658673,"DIS_CODE":0,"TOWNNAME":"北區","LI":"大仁里","LIN":"11鄰","STREET":"北門路","SECT":"二段","MAREA":" ","LANE":"２３１巷","ALLEY":" ","HOUSE_NO":"１４之１號","E_COORD97":169432.12106199999,"N_COORD97":2545288.8210800001,"ADDRESS":"北門路二段２３１巷１４之１號","OBJECTID":658646},"geometry":{"x":169432.12106200121,"y":2545288.8210829999}},{"attributes":{"ID":658674,"DIS_CODE":0,"TOWNNAME":"北區","LI":"正風里","LIN":"3鄰","STREET":"公園路","SECT":" ","MAREA":" ","LANE":" ","ALLEY":" ","HOUSE_NO":"９１６號","E_COORD97":169387.62473700001,"N_COORD97":2546169.5227600001,"ADDRESS":"公園路９１６號","OBJECTID":658647},"geometry":{"x":169387.62473700009,"y":2546169.5227629989}},{"attributes":{"ID":658675,"DIS_CODE":0,"TOWNNAME":"北區","LI":"文元里","LIN":"3鄰","STREET":"文成三路","SECT":" ","MAREA":" ","LANE":" ","ALLEY":" ","HOUSE_NO":"８８０號","E_COORD97":167729.92097899999,"N_COORD97":2546269.1118800002,"ADDRESS":"文成三路８８０號","OBJECTID":658648},"geometry":{"x":167729.92097900063,"y":2546269.1118759997}},{"attributes":{"ID":658676,"DIS_CODE":0,"TOWNNAME":"北區","LI":"文元里","LIN":"3鄰","STREET":"文成三路","SECT":" ","MAREA":" ","LANE":" ","ALLEY":" ","HOUSE_NO":"８８２號","E_COORD97":167722.93181099999,"N_COORD97":2546267.8418800002,"ADDRESS":"文成三路８８２號","OBJECTID":658649},"geometry":{"x":167722.93181100208,"y":2546267.8418760002}},{"attributes":{"ID":658677,"DIS_CODE":0,"TOWNNAME":"北區","LI":"大和里","LIN":"17鄰","STREET":"中華北路","SECT":"一段","MAREA":" ","LANE":" ","ALLEY":" ","HOUSE_NO":"６２７號","E_COORD97":167223.31213999999,"N_COORD97":2546464.1625999999,"ADDRESS":"中華北路一段６２７號","OBJECTID":658650},"geometry":{"x":167223.31214000192,"y":2546464.1626040023}},{"attributes":{"ID":658678,"DIS_CODE":0,"TOWNNAME":"北區","LI":"大和里","LIN":"17鄰","STREET":"中華北路","SECT":"一段","MAREA":" ","LANE":" ","ALLEY":" ","HOUSE_NO":"６２８號","E_COORD97":167228.60696400001,"N_COORD97":2546465.64427,"ADDRESS":"中華北路一段６２８號","OBJECTID":658651},"geometry":{"x":167228.60696399957,"y":2546465.6442699991}},{"attributes":{"ID":658679,"DIS_CODE":0,"TOWNNAME":"北區","LI":"興北里","LIN":"7鄰","STREET":"公園北路","SECT":" ","MAREA":" ","LANE":"８８巷","ALLEY":" ","HOUSE_NO":"１９之１號","E_COORD97":169115.258948,"N_COORD97":2545058.4850300001,"ADDRESS":"公園北路８８巷１９之１號","OBJECTID":658652},"geometry":{"x":169115.25894800015,"y":2545058.485030001}},{"attributes":{"ID":658680,"DIS_CODE":0,"TOWNNAME":"北區","LI":"和順里","LIN":"25鄰","STREET":"公園南路","SECT":" ","MAREA":" ","LANE":" ","ALLEY":" ","HOUSE_NO":"３８５號","E_COORD97":168169.815026,"N_COORD97":2544818.9843299999,"ADDRESS":"公園南路３８５號","OBJECTID":658653},"geometry":{"x":168169.81502600107,"y":2544818.9843260013}},{"attributes":{"ID":658681,"DIS_CODE":0,"TOWNNAME":"北區","LI":"大和里","LIN":"21鄰","STREET":"大港街","SECT":" ","MAREA":" ","LANE":"３８巷","ALLEY":"１５弄","HOUSE_NO":"１２號","E_COORD97":167114.87412699999,"N_COORD97":2546135.4444499998,"ADDRESS":"大港街３８巷１５弄１２號","OBJECTID":658654},"geometry":{"x":167114.87412700057,"y":2546135.4444480017}},{"attributes":{"ID":658682,"DIS_CODE":0,"TOWNNAME":"北區","LI":"成德里","LIN":"12鄰","STREET":"育德二路","SECT":" ","MAREA":" ","LANE":"５１巷","ALLEY":" ","HOUSE_NO":"６號","E_COORD97":168215.13872700001,"N_COORD97":2545377.0431900001,"ADDRESS":"育德二路５１巷６號","OBJECTID":658655},"geometry":{"x":168215.13872699998,"y":2545377.0431910045}},{"attributes":{"ID":658683,"DIS_CODE":0,"TOWNNAME":"北區","LI":"公園里","LIN":"16鄰","STREET":"成功路","SECT":" ","MAREA":" ","LANE":"２２巷","ALLEY":" ","HOUSE_NO":"１號二樓之２","E_COORD97":168905.60635099999,"N_COORD97":2544340.0064099999,"ADDRESS":"成功路２２巷１號二樓之２","OBJECTID":658656},"geometry":{"x":168905.60635100026,"y":2544340.006409999}},{"attributes":{"ID":658684,"DIS_CODE":0,"TOWNNAME":"北區","LI":"公園里","LIN":"16鄰","STREET":"成功路","SECT":" ","MAREA":" ","LANE":"２２巷","ALLEY":" ","HOUSE_NO":"１號七樓之１","E_COORD97":168905.60635099999,"N_COORD97":2544340.0064099999,"ADDRESS":"成功路２２巷１號七樓之１","OBJECTID":658657},"geometry":{"x":168905.60635100026,"y":2544340.006409999}},{"attributes":{"ID":658685,"DIS_CODE":0,"TOWNNAME":"北區","LI":"公園里","LIN":"16鄰","STREET":"成功路","SECT":" ","MAREA":" ","LANE":"２２巷","ALLEY":" ","HOUSE_NO":"１號七樓之２","E_COORD97":168905.60635099999,"N_COORD97":2544340.0064099999,"ADDRESS":"成功路２２巷１號七樓之２","OBJECTID":658658},"geometry":{"x":168905.60635100026,"y":2544340.006409999}},{"attributes":{"ID":658686,"DIS_CODE":0,"TOWNNAME":"北區","LI":"公園里","LIN":"16鄰","STREET":"成功路","SECT":" ","MAREA":" ","LANE":"２２巷","ALLEY":" ","HOUSE_NO":"１號八樓之１","E_COORD97":168905.60635099999,"N_COORD97":2544340.0064099999,"ADDRESS":"成功路２２巷１號八樓之１","OBJECTID":658659},"geometry":{"x":168905.60635100026,"y":2544340.006409999}},{"attributes":{"ID":658687,"DIS_CODE":0,"TOWNNAME":"北區","LI":"公園里","LIN":"16鄰","STREET":"成功路","SECT":" ","MAREA":" ","LANE":"２２巷","ALLEY":" ","HOUSE_NO":"１號八樓之２","E_COORD97":168905.60635099999,"N_COORD97":2544340.0064099999,"ADDRESS":"成功路２２巷１號八樓之２","OBJECTID":658660},"geometry":{"x":168905.60635100026,"y":2544340.006409999}},{"attributes":{"ID":658688,"DIS_CODE":0,"TOWNNAME":"北區","LI":"公園里","LIN":"16鄰","STREET":"成功路","SECT":" ","MAREA":" ","LANE":"２２巷","ALLEY":" ","HOUSE_NO":"１號九樓之１","E_COORD97":168905.60635099999,"N_COORD97":2544340.0064099999,"ADDRESS":"成功路２２巷１號九樓之１","OBJECTID":658661},"geometry":{"x":168905.60635100026,"y":2544340.006409999}},{"attributes":{"ID":658689,"DIS_CODE":0,"TOWNNAME":"北區","LI":"公園里","LIN":"16鄰","STREET":"成功路","SECT":" ","MAREA":" ","LANE":"２２巷","ALLEY":" ","HOUSE_NO":"１號九樓之２","E_COORD97":168905.60635099999,"N_COORD97":2544340.0064099999,"ADDRESS":"成功路２２巷１號九樓之２","OBJECTID":658662},"geometry":{"x":168905.60635100026,"y":2544340.006409999}},{"attributes":{"ID":658690,"DIS_CODE":0,"TOWNNAME":"北區","LI":"公園里","LIN":"16鄰","STREET":"成功路","SECT":" ","MAREA":" ","LANE":"２２巷","ALLEY":" ","HOUSE_NO":"１號十樓之１","E_COORD97":168905.60635099999,"N_COORD97":2544340.0064099999,"ADDRESS":"成功路２２巷１號十樓之１","OBJECTID":658663},"geometry":{"x":168905.60635100026,"y":2544340.006409999}},{"attributes":{"ID":658691,"DIS_CODE":0,"TOWNNAME":"北區","LI":"公園里","LIN":"16鄰","STREET":"成功路","SECT":" ","MAREA":" ","LANE":"２２巷","ALLEY":" ","HOUSE_NO":"１號十一樓之１","E_COORD97":168905.60635099999,"N_COORD97":2544340.0064099999,"ADDRESS":"成功路２２巷１號十一樓之１","OBJECTID":658664},"geometry":{"x":168905.60635100026,"y":2544340.006409999}},{"attributes":{"ID":658692,"DIS_CODE":0,"TOWNNAME":"北區","LI":"公園里","LIN":"16鄰","STREET":"成功路","SECT":" ","MAREA":" ","LANE":"２２巷","ALLEY":" ","HOUSE_NO":"１號十一樓之２","E_COORD97":168905.60635099999,"N_COORD97":2544340.0064099999,"ADDRESS":"成功路２２巷１號十一樓之２","OBJECTID":658665},"geometry":{"x":168905.60635100026,"y":2544340.006409999}},{"attributes":{"ID":658693,"DIS_CODE":0,"TOWNNAME":"北區","LI":"公園里","LIN":"16鄰","STREET":"成功路","SECT":" ","MAREA":" ","LANE":"２２巷","ALLEY":" ","HOUSE_NO":"１號十二樓之１","E_COORD97":168905.60635099999,"N_COORD97":2544340.0064099999,"ADDRESS":"成功路２２巷１號十二樓之１","OBJECTID":658666},"geometry":{"x":168905.60635100026,"y":2544340.006409999}},{"attributes":{"ID":658694,"DIS_CODE":0,"TOWNNAME":"北區","LI":"公園里","LIN":"16鄰","STREET":"成功路","SECT":" ","MAREA":" ","LANE":"２２巷","ALLEY":" ","HOUSE_NO":"１號十二樓之２","E_COORD97":168905.60635099999,"N_COORD97":2544340.0064099999,"ADDRESS":"成功路２２巷１號十二樓之２","OBJECTID":658667},"geometry":{"x":168905.60635100026,"y":2544340.006409999}},{"attributes":{"ID":658695,"DIS_CODE":0,"TOWNNAME":"北區","LI":"公園里","LIN":"16鄰","STREET":"成功路","SECT":" ","MAREA":" ","LANE":"２２巷","ALLEY":" ","HOUSE_NO":"１號十三樓之１","E_COORD97":168905.60635099999,"N_COORD97":2544340.0064099999,"ADDRESS":"成功路２２巷１號十三樓之１","OBJECTID":658668},"geometry":{"x":168905.60635100026,"y":2544340.006409999}},{"attributes":{"ID":658696,"DIS_CODE":0,"TOWNNAME":"北區","LI":"公園里","LIN":"16鄰","STREET":"成功路","SECT":" ","MAREA":" ","LANE":"２２巷","ALLEY":" ","HOUSE_NO":"１號十三樓之２","E_COORD97":168905.60635099999,"N_COORD97":2544340.0064099999,"ADDRESS":"成功路２２巷１號十三樓之２","OBJECTID":658669},"geometry":{"x":168905.60635100026,"y":2544340.006409999}},{"attributes":{"ID":658697,"DIS_CODE":0,"TOWNNAME":"北區","LI":"公園里","LIN":"16鄰","STREET":"成功路","SECT":" ","MAREA":" ","LANE":"２２巷","ALLEY":" ","HOUSE_NO":"１號十四樓之１","E_COORD97":168905.60635099999,"N_COORD97":2544340.0064099999,"ADDRESS":"成功路２２巷１號十四樓之１","OBJECTID":658670},"geometry":{"x":168905.60635100026,"y":2544340.006409999}},{"attributes":{"ID":658698,"DIS_CODE":0,"TOWNNAME":"北區","LI":"公園里","LIN":"16鄰","STREET":"成功路","SECT":" ","MAREA":" ","LANE":"２２巷","ALLEY":" ","HOUSE_NO":"１號十四樓之２","E_COORD97":168905.60635099999,"N_COORD97":2544340.0064099999,"ADDRESS":"成功路２２巷１號十四樓之２","OBJECTID":658671},"geometry":{"x":168905.60635100026,"y":2544340.006409999}},{"attributes":{"ID":658699,"DIS_CODE":0,"TOWNNAME":"北區","LI":"公園里","LIN":"16鄰","STREET":"成功路","SECT":" ","MAREA":" ","LANE":"２２巷","ALLEY":" ","HOUSE_NO":"１號十五樓之１","E_COORD97":168905.60635099999,"N_COORD97":2544340.0064099999,"ADDRESS":"成功路２２巷１號十五樓之１","OBJECTID":658672},"geometry":{"x":168905.60635100026,"y":2544340.006409999}},{"attributes":{"ID":658700,"DIS_CODE":0,"TOWNNAME":"北區","LI":"公園里","LIN":"16鄰","STREET":"成功路","SECT":" ","MAREA":" ","LANE":"２２巷","ALLEY":" ","HOUSE_NO":"１號十五樓之２","E_COORD97":168905.60635099999,"N_COORD97":2544340.0064099999,"ADDRESS":"成功路２２巷１號十五樓之２","OBJECTID":658673},"geometry":{"x":168905.60635100026,"y":2544340.006409999}},{"attributes":{"ID":658701,"DIS_CODE":0,"TOWNNAME":"山上區","LI":"明和里","LIN":"1鄰","STREET":" ","SECT":" ","MAREA":"明和","LANE":" ","ALLEY":" ","HOUSE_NO":"７６之７９號","E_COORD97":182487.53837699999,"N_COORD97":2556029.0980400001,"ADDRESS":"明和７６之７９號","OBJECTID":658674},"geometry":{"x":182487.53837700002,"y":2556029.0980449989}},{"attributes":{"ID":658702,"DIS_CODE":0,"TOWNNAME":"仁德區","LI":"仁德里","LIN":"4鄰","STREET":"仁中三街","SECT":" ","MAREA":" ","LANE":"７０巷","ALLEY":" ","HOUSE_NO":"３２號","E_COORD97":173292.21119199999,"N_COORD97":2540487.4819999998,"ADDRESS":"仁中三街７０巷３２號","OBJECTID":658675},"geometry":{"x":173292.21119199973,"y":2540487.4819980003}},{"attributes":{"ID":658703,"DIS_CODE":0,"TOWNNAME":"仁德區","LI":"仁德里","LIN":"4鄰","STREET":"仁中三街","SECT":" ","MAREA":" ","LANE":"７０巷","ALLEY":" ","HOUSE_NO":"３６號","E_COORD97":173292.21119199999,"N_COORD97":2540492.1386600002,"ADDRESS":"仁中三街７０巷３６號","OBJECTID":658676},"geometry":{"x":173292.21119199973,"y":2540492.1386629995}},{"attributes":{"ID":658704,"DIS_CODE":0,"TOWNNAME":"仁德區","LI":"仁德里","LIN":"4鄰","STREET":"仁中三街","SECT":" ","MAREA":" ","LANE":"７０巷","ALLEY":" ","HOUSE_NO":"３８號","E_COORD97":173292.21119199999,"N_COORD97":2540497.6419899999,"ADDRESS":"仁中三街７０巷３８號","OBJECTID":658677},"geometry":{"x":173292.21119199973,"y":2540497.641993003}},{"attributes":{"ID":658705,"DIS_CODE":0,"TOWNNAME":"仁德區","LI":"仁德里","LIN":"4鄰","STREET":"仁中三街","SECT":" ","MAREA":" ","LANE":"７０巷","ALLEY":" ","HOUSE_NO":"４０號","E_COORD97":173292.21119199999,"N_COORD97":2540502.9336600001,"ADDRESS":"仁中三街７０巷４０號","OBJECTID":658678},"geometry":{"x":173292.21119199973,"y":2540502.9336570036}},{"attributes":{"ID":658706,"DIS_CODE":0,"TOWNNAME":"仁德區","LI":"仁德里","LIN":"4鄰","STREET":"仁中三街","SECT":" ","MAREA":" ","LANE":"７０巷","ALLEY":" ","HOUSE_NO":"４２號","E_COORD97":173292.21119199999,"N_COORD97":2540508.6486499999,"ADDRESS":"仁中三街７０巷４２號","OBJECTID":658679},"geometry":{"x":173292.21119199973,"y":2540508.6486540027}},{"attributes":{"ID":658707,"DIS_CODE":0,"TOWNNAME":"仁德區","LI":"仁德里","LIN":"4鄰","STREET":"仁中三街","SECT":" ","MAREA":" ","LANE":"７０巷","ALLEY":" ","HOUSE_NO":"４６號","E_COORD97":173292.21119199999,"N_COORD97":2540513.9403200001,"ADDRESS":"仁中三街７０巷４６號","OBJECTID":658680},"geometry":{"x":173292.21119199973,"y":2540513.9403169993}},{"attributes":{"ID":658708,"DIS_CODE":0,"TOWNNAME":"仁德區","LI":"仁德里","LIN":"4鄰","STREET":"仁中三街","SECT":" ","MAREA":" ","LANE":"７０巷","ALLEY":" ","HOUSE_NO":"５０號","E_COORD97":173292.21119199999,"N_COORD97":2540520.2903100001,"ADDRESS":"仁中三街７０巷５０號","OBJECTID":658681},"geometry":{"x":173292.21119199973,"y":2540520.290314002}},{"attributes":{"ID":658709,"DIS_CODE":0,"TOWNNAME":"仁德區","LI":"仁德里","LIN":"4鄰","STREET":"仁中三街","SECT":" ","MAREA":" ","LANE":"７０巷","ALLEY":" ","HOUSE_NO":"５２號","E_COORD97":173292.21119199999,"N_COORD97":2540525.5819799998,"ADDRESS":"仁中三街７０巷５２號","OBJECTID":658682},"geometry":{"x":173292.21119199973,"y":2540525.5819780026}},{"attributes":{"ID":658710,"DIS_CODE":0,"TOWNNAME":"仁德區","LI":"仁德里","LIN":"4鄰","STREET":"仁中三街","SECT":" ","MAREA":" ","LANE":"７０巷","ALLEY":" ","HOUSE_NO":"５６號","E_COORD97":173292.21119199999,"N_COORD97":2540531.7203099998,"ADDRESS":"仁中三街７０巷５６號","OBJECTID":658683},"geometry":{"x":173292.21119199973,"y":2540531.7203080002}},{"attributes":{"ID":658711,"DIS_CODE":0,"TOWNNAME":"仁德區","LI":"仁德里","LIN":"4鄰","STREET":"仁中三街","SECT":" ","MAREA":" ","LANE":"７０巷","ALLEY":" ","HOUSE_NO":"５８號","E_COORD97":173292.21119199999,"N_COORD97":2540536.48281,"ADDRESS":"仁中三街７０巷５８號","OBJECTID":658684},"geometry":{"x":173292.21119199973,"y":2540536.4828050006}},{"attributes":{"ID":658712,"DIS_CODE":0,"TOWNNAME":"北區","LI":"正風里","LIN":"3鄰","STREET":"公園路","SECT":" ","MAREA":" ","LANE":"９１８巷","ALLEY":"１０弄","HOUSE_NO":"２號","E_COORD97":169440.24805299999,"N_COORD97":2546132.96918,"ADDRESS":"公園路９１８巷１０弄２號","OBJECTID":658685},"geometry":{"x":169440.24805300031,"y":2546132.9691829998}},{"attributes":{"ID":658713,"DIS_CODE":0,"TOWNNAME":"北區","LI":"正風里","LIN":"3鄰","STREET":"公園路","SECT":" ","MAREA":" ","LANE":"９１８巷","ALLEY":"１０弄","HOUSE_NO":"６號","E_COORD97":169438.55325299999,"N_COORD97":2546128.10085,"ADDRESS":"公園路９１８巷１０弄６號","OBJECTID":658686},"geometry":{"x":169438.55325299967,"y":2546128.1008520015}},{"attributes":{"ID":658714,"DIS_CODE":0,"TOWNNAME":"北區","LI":"正風里","LIN":"3鄰","STREET":"公園路","SECT":" ","MAREA":" ","LANE":"９１８巷","ALLEY":"１０弄","HOUSE_NO":"８號","E_COORD97":169437.07030200001,"N_COORD97":2546121.9625200001,"ADDRESS":"公園路９１８巷１０弄８號","OBJECTID":658687},"geometry":{"x":169437.07030200027,"y":2546121.9625220001}},{"attributes":{"ID":658715,"DIS_CODE":0,"TOWNNAME":"北區","LI":"正風里","LIN":"3鄰","STREET":"公園路","SECT":" ","MAREA":" ","LANE":"９１８巷","ALLEY":"１０弄","HOUSE_NO":"１０號","E_COORD97":169435.16365199999,"N_COORD97":2546114.9775299998,"ADDRESS":"公園路９１８巷１０弄１０號","OBJECTID":658688},"geometry":{"x":169435.16365199909,"y":2546114.9775260016}},{"attributes":{"ID":658716,"DIS_CODE":0,"TOWNNAME":"北區","LI":"正風里","LIN":"3鄰","STREET":"公園路","SECT":" ","MAREA":" ","LANE":"９１８巷","ALLEY":"１０弄","HOUSE_NO":"１２號","E_COORD97":169434.31625199999,"N_COORD97":2546110.3208599999,"ADDRESS":"公園路９１８巷１０弄１２號","OBJECTID":658689},"geometry":{"x":169434.3162519997,"y":2546110.3208620008}},{"attributes":{"ID":658717,"DIS_CODE":0,"TOWNNAME":"北區","LI":"正風里","LIN":"3鄰","STREET":"公園路","SECT":" ","MAREA":" ","LANE":"９１８巷","ALLEY":"１０弄","HOUSE_NO":"１６號","E_COORD97":169432.197751,"N_COORD97":2546105.6642,"ADDRESS":"公園路９１８巷１０弄１６號","OBJECTID":658690},"geometry":{"x":169432.19775100052,"y":2546105.664198}},{"attributes":{"ID":658718,"DIS_CODE":0,"TOWNNAME":"北區","LI":"正風里","LIN":"3鄰","STREET":"公園路","SECT":" ","MAREA":" ","LANE":"９１８巷","ALLEY":"８弄","HOUSE_NO":"１號","E_COORD97":169425.206699,"N_COORD97":2546145.24584,"ADDRESS":"公園路９１８巷８弄１號","OBJECTID":658691},"geometry":{"x":169425.20669899881,"y":2546145.2458430044}},{"attributes":{"ID":658719,"DIS_CODE":0,"TOWNNAME":"北區","LI":"正風里","LIN":"3鄰","STREET":"公園路","SECT":" ","MAREA":" ","LANE":"９１８巷","ALLEY":"８弄","HOUSE_NO":"３號","E_COORD97":169421.817098,"N_COORD97":2546139.10751,"ADDRESS":"公園路９１８巷８弄３號","OBJECTID":658692},"geometry":{"x":169421.81709800195,"y":2546139.1075130012}},{"attributes":{"ID":658720,"DIS_CODE":0,"TOWNNAME":"北區","LI":"正風里","LIN":"3鄰","STREET":"公園路","SECT":" ","MAREA":" ","LANE":"９１８巷","ALLEY":"８弄","HOUSE_NO":"５號","E_COORD97":169419.48674699999,"N_COORD97":2546134.4508500001,"ADDRESS":"公園路９１８巷８弄５號","OBJECTID":658693},"geometry":{"x":169419.48674700037,"y":2546134.4508490004}},{"attributes":{"ID":658721,"DIS_CODE":0,"TOWNNAME":"北區","LI":"正風里","LIN":"3鄰","STREET":"公園路","SECT":" ","MAREA":" ","LANE":"９１８巷","ALLEY":"８弄","HOUSE_NO":"７號","E_COORD97":169416.520846,"N_COORD97":2546127.2541899998,"ADDRESS":"公園路９１８巷８弄７號","OBJECTID":658694},"geometry":{"x":169416.52084599901,"y":2546127.2541860007}},{"attributes":{"ID":658722,"DIS_CODE":0,"TOWNNAME":"新營區","LI":"土庫里","LIN":"16鄰","STREET":" ","SECT":" ","MAREA":"卯舍","LANE":" ","ALLEY":" ","HOUSE_NO":"４號之１","E_COORD97":181992.019898,"N_COORD97":2580161.9898000001,"ADDRESS":"卯舍４號之１","OBJECTID":658695},"geometry":{"x":181992.0198980011,"y":2580161.9897980019}},{"attributes":{"ID":658723,"DIS_CODE":0,"TOWNNAME":"新營區","LI":"土庫里","LIN":"16鄰","STREET":" ","SECT":" ","MAREA":"卯舍","LANE":" ","ALLEY":" ","HOUSE_NO":"４號之１","E_COORD97":181992.019898,"N_COORD97":2580161.9898000001,"ADDRESS":"卯舍４號之１","OBJECTID":658696},"geometry":{"x":181992.0198980011,"y":2580161.9897980019}},{"attributes":{"ID":658724,"DIS_CODE":0,"TOWNNAME":"北區","LI":"正風里","LIN":"3鄰","STREET":"公園路","SECT":" ","MAREA":" ","LANE":"９１８巷","ALLEY":"８弄","HOUSE_NO":"９號","E_COORD97":169415.03789499999,"N_COORD97":2546124.07919,"ADDRESS":"公園路９１８巷８弄９號","OBJECTID":658697},"geometry":{"x":169415.03789500054,"y":2546124.0791880004}},{"attributes":{"ID":658725,"DIS_CODE":0,"TOWNNAME":"新化區","LI":"清水里","LIN":"2鄰","STREET":"中山路","SECT":" ","MAREA":" ","LANE":"４３３巷","ALLEY":" ","HOUSE_NO":"２號","E_COORD97":178723.94128999999,"N_COORD97":2548378.4015000002,"ADDRESS":"中山路４３３巷２號","OBJECTID":658698},"geometry":{"x":178723.94129000138,"y":2548378.4014960025}},{"attributes":{"ID":658726,"DIS_CODE":0,"TOWNNAME":"新化區","LI":"清水里","LIN":"2鄰","STREET":"中山路","SECT":" ","MAREA":" ","LANE":"４３３巷","ALLEY":" ","HOUSE_NO":"４號","E_COORD97":178724.78894200001,"N_COORD97":2548371.83983,"ADDRESS":"中山路４３３巷４號","OBJECTID":658699},"geometry":{"x":178724.78894200083,"y":2548371.8398330025}},{"attributes":{"ID":658727,"DIS_CODE":0,"TOWNNAME":"北區","LI":"正風里","LIN":"3鄰","STREET":"公園路","SECT":" ","MAREA":" ","LANE":"９１８巷","ALLEY":"８弄","HOUSE_NO":"１１號","E_COORD97":169413.34309499999,"N_COORD97":2546121.1158599998,"ADDRESS":"公園路９１８巷８弄１１號","OBJECTID":658700},"geometry":{"x":169413.34309500083,"y":2546121.1158559993}},{"attributes":{"ID":658728,"DIS_CODE":0,"TOWNNAME":"新化區","LI":"清水里","LIN":"2鄰","STREET":"中山路","SECT":" ","MAREA":" ","LANE":"４３３巷","ALLEY":" ","HOUSE_NO":"６號","E_COORD97":178727.33189999999,"N_COORD97":2548363.37317,"ADDRESS":"中山路４３３巷６號","OBJECTID":658701},"geometry":{"x":178727.33190000057,"y":2548363.3731699977}},{"attributes":{"ID":658729,"DIS_CODE":0,"TOWNNAME":"新化區","LI":"清水里","LIN":"2鄰","STREET":"中山路","SECT":" ","MAREA":" ","LANE":"４３３巷","ALLEY":" ","HOUSE_NO":"３號","E_COORD97":178714.61710999999,"N_COORD97":2548369.5115,"ADDRESS":"中山路４３３巷３號","OBJECTID":658702},"geometry":{"x":178714.61711000185,"y":2548369.511500001}},{"attributes":{"ID":658730,"DIS_CODE":0,"TOWNNAME":"新化區","LI":"清水里","LIN":"2鄰","STREET":"中山路","SECT":" ","MAREA":" ","LANE":"４３３巷","ALLEY":" ","HOUSE_NO":"５號","E_COORD97":178713.981371,"N_COORD97":2548361.4681699998,"ADDRESS":"中山路４３３巷５號","OBJECTID":658703},"geometry":{"x":178713.98137100041,"y":2548361.4681710042}},{"attributes":{"ID":658731,"DIS_CODE":0,"TOWNNAME":"北區","LI":"正風里","LIN":"3鄰","STREET":"公園路","SECT":" ","MAREA":" ","LANE":"９１８巷","ALLEY":"８弄","HOUSE_NO":"２號","E_COORD97":169416.94454600001,"N_COORD97":2546151.1725099999,"ADDRESS":"公園路９１８巷８弄２號","OBJECTID":658704},"geometry":{"x":169416.9445460001,"y":2546151.1725069992}},{"attributes":{"ID":658732,"DIS_CODE":0,"TOWNNAME":"新營區","LI":"土庫里","LIN":"16鄰","STREET":" ","SECT":" ","MAREA":"卯舍","LANE":" ","ALLEY":" ","HOUSE_NO":"５號","E_COORD97":181966.38214999999,"N_COORD97":2580108.9673299999,"ADDRESS":"卯舍５號","OBJECTID":658705},"geometry":{"x":181966.38215000182,"y":2580108.9673260003}},{"attributes":{"ID":658733,"DIS_CODE":0,"TOWNNAME":"北區","LI":"正風里","LIN":"3鄰","STREET":"公園路","SECT":" ","MAREA":" ","LANE":"９１８巷","ALLEY":"８弄","HOUSE_NO":"６號","E_COORD97":169413.766795,"N_COORD97":2546144.1875100001,"ADDRESS":"公園路９１８巷８弄６號","OBJECTID":658706},"geometry":{"x":169413.76679500006,"y":2546144.1875100005}},{"attributes":{"ID":658734,"DIS_CODE":0,"TOWNNAME":"新化區","LI":"清水里","LIN":"1鄰","STREET":"大同街","SECT":" ","MAREA":" ","LANE":"１２９巷","ALLEY":" ","HOUSE_NO":"５０號","E_COORD97":178866.34693999999,"N_COORD97":2548362.9498399999,"ADDRESS":"大同街１２９巷５０號","OBJECTID":658707},"geometry":{"x":178866.34694000147,"y":2548362.9498369992}},{"attributes":{"ID":658735,"DIS_CODE":0,"TOWNNAME":"新化區","LI":"清水里","LIN":"1鄰","STREET":"中山路","SECT":" ","MAREA":" ","LANE":" ","ALLEY":" ","HOUSE_NO":"３４７號","E_COORD97":178883.511906,"N_COORD97":2548404.01315,"ADDRESS":"中山路３４７號","OBJECTID":658708},"geometry":{"x":178883.51190600079,"y":2548404.0131480005}},{"attributes":{"ID":658736,"DIS_CODE":0,"TOWNNAME":"新化區","LI":"清水里","LIN":"3鄰","STREET":"中山路","SECT":" ","MAREA":" ","LANE":" ","ALLEY":" ","HOUSE_NO":"４７９號","E_COORD97":178600.43833999999,"N_COORD97":2548400.8740699999,"ADDRESS":"中山路４７９號","OBJECTID":658709},"geometry":{"x":178600.43834000081,"y":2548400.8740699999}},{"attributes":{"ID":658737,"DIS_CODE":0,"TOWNNAME":"新營區","LI":"土庫里","LIN":"16鄰","STREET":" ","SECT":" ","MAREA":"卯舍","LANE":" ","ALLEY":" ","HOUSE_NO":"６之２號","E_COORD97":181946.88897999999,"N_COORD97":2580114.47065,"ADDRESS":"卯舍６之２號","OBJECTID":658710},"geometry":{"x":181946.88898000028,"y":2580114.4706500024}},{"attributes":{"ID":658738,"DIS_CODE":0,"TOWNNAME":"新化區","LI":"清水里","LIN":"3鄰","STREET":"中山路","SECT":" ","MAREA":" ","LANE":" ","ALLEY":" ","HOUSE_NO":"４８５號","E_COORD97":178591.328041,"N_COORD97":2548402.1440699999,"ADDRESS":"中山路４８５號","OBJECTID":658711},"geometry":{"x":178591.32804100122,"y":2548402.1440690048}},{"attributes":{"ID":658739,"DIS_CODE":0,"TOWNNAME":"新化區","LI":"清水里","LIN":"5鄰","STREET":"中山路","SECT":" ","MAREA":" ","LANE":" ","ALLEY":" ","HOUSE_NO":"４８８號","E_COORD97":178605.05800200001,"N_COORD97":2548431.5298000001,"ADDRESS":"中山路４８８號","OBJECTID":658712},"geometry":{"x":178605.05800200067,"y":2548431.5298000015}},{"attributes":{"ID":658740,"DIS_CODE":0,"TOWNNAME":"新營區","LI":"土庫里","LIN":"16鄰","STREET":" ","SECT":" ","MAREA":"卯舍","LANE":" ","ALLEY":" ","HOUSE_NO":"６號之１","E_COORD97":181914.68288800001,"N_COORD97":2580146.3264700002,"ADDRESS":"卯舍６號之１","OBJECTID":658713},"geometry":{"x":181914.6828880012,"y":2580146.3264730014}},{"attributes":{"ID":658741,"DIS_CODE":0,"TOWNNAME":"北區","LI":"正風里","LIN":"3鄰","STREET":"公園路","SECT":" ","MAREA":" ","LANE":"９１８巷","ALLEY":"８弄","HOUSE_NO":"８號","E_COORD97":169411.43644399999,"N_COORD97":2546139.9541799999,"ADDRESS":"公園路９１８巷８弄８號","OBJECTID":658714},"geometry":{"x":169411.43644400127,"y":2546139.9541790038}},{"attributes":{"ID":658742,"DIS_CODE":0,"TOWNNAME":"新化區","LI":"清水里","LIN":"8鄰","STREET":"民權街","SECT":" ","MAREA":" ","LANE":"６１巷","ALLEY":" ","HOUSE_NO":"１２號","E_COORD97":178689.82326899999,"N_COORD97":2548571.0180600001,"ADDRESS":"民權街６１巷１２號","OBJECTID":658715},"geometry":{"x":178689.82326900214,"y":2548571.0180580039}},{"attributes":{"ID":658743,"DIS_CODE":0,"TOWNNAME":"北區","LI":"正風里","LIN":"3鄰","STREET":"公園路","SECT":" ","MAREA":" ","LANE":"９１８巷","ALLEY":"８弄","HOUSE_NO":"１０號","E_COORD97":169409.95349399999,"N_COORD97":2546135.9325199998,"ADDRESS":"公園路９１８巷８弄１０號","OBJECTID":658716},"geometry":{"x":169409.95349400118,"y":2546135.9325150028}},{"attributes":{"ID":658744,"DIS_CODE":0,"TOWNNAME":"北區","LI":"正風里","LIN":"3鄰","STREET":"公園路","SECT":" ","MAREA":" ","LANE":"９１８巷","ALLEY":"８弄","HOUSE_NO":"１２號","E_COORD97":169407.623143,"N_COORD97":2546131.9108500001,"ADDRESS":"公園路９１８巷８弄１２號","OBJECTID":658717},"geometry":{"x":169407.62314300053,"y":2546131.9108500015}},{"attributes":{"ID":658745,"DIS_CODE":0,"TOWNNAME":"新營區","LI":"土庫里","LIN":"16鄰","STREET":" ","SECT":" ","MAREA":"卯舍","LANE":" ","ALLEY":" ","HOUSE_NO":"６號","E_COORD97":181945.617692,"N_COORD97":2580126.6414800002,"ADDRESS":"卯舍６號","OBJECTID":658718},"geometry":{"x":181945.61769200023,"y":2580126.6414829995}},{"attributes":{"ID":658746,"DIS_CODE":0,"TOWNNAME":"北區","LI":"正風里","LIN":"3鄰","STREET":"公園路","SECT":" ","MAREA":" ","LANE":"９１８巷","ALLEY":"８弄","HOUSE_NO":"１６號","E_COORD97":169403.597992,"N_COORD97":2546125.56085,"ADDRESS":"公園路９１８巷８弄１６號","OBJECTID":658719},"geometry":{"x":169403.59799200017,"y":2546125.5608540028}},{"attributes":{"ID":658747,"DIS_CODE":0,"TOWNNAME":"新化區","LI":"清水里","LIN":"2鄰","STREET":"民治路","SECT":" ","MAREA":" ","LANE":" ","ALLEY":" ","HOUSE_NO":"１９２號","E_COORD97":178684.737353,"N_COORD97":2548350.4615099998,"ADDRESS":"民治路１９２號","OBJECTID":658720},"geometry":{"x":178684.73735300079,"y":2548350.4615110029}},{"attributes":{"ID":658748,"DIS_CODE":0,"TOWNNAME":"新化區","LI":"清水里","LIN":"6鄰","STREET":"長青街","SECT":" ","MAREA":" ","LANE":" ","ALLEY":" ","HOUSE_NO":"５２號","E_COORD97":178708.471628,"N_COORD97":2548489.9497699998,"ADDRESS":"長青街５２號","OBJECTID":658721},"geometry":{"x":178708.47162800003,"y":2548489.9497689996}},{"attributes":{"ID":658749,"DIS_CODE":0,"TOWNNAME":"北區","LI":"大道里","LIN":"20鄰","STREET":"和緯路","SECT":"一段","MAREA":" ","LANE":"９６巷","ALLEY":" ","HOUSE_NO":"１２號","E_COORD97":169459.31455899999,"N_COORD97":2545607.6127999998,"ADDRESS":"和緯路一段９６巷１２號","OBJECTID":658722},"geometry":{"x":169459.31455899961,"y":2545607.6128000021}},{"attributes":{"ID":658750,"DIS_CODE":0,"TOWNNAME":"新化區","LI":"清水里","LIN":"6鄰","STREET":"長青街","SECT":" ","MAREA":" ","LANE":" ","ALLEY":" ","HOUSE_NO":"４１號","E_COORD97":178685.16118,"N_COORD97":2548477.6731099999,"ADDRESS":"長青街４１號","OBJECTID":658723},"geometry":{"x":178685.16118000075,"y":2548477.6731090005}},{"attributes":{"ID":658751,"DIS_CODE":0,"TOWNNAME":"新營區","LI":"土庫里","LIN":"16鄰","STREET":" ","SECT":" ","MAREA":"卯舍","LANE":" ","ALLEY":" ","HOUSE_NO":"１３之３號","E_COORD97":181718.69183299999,"N_COORD97":2580201.0951899998,"ADDRESS":"卯舍１３之３號","OBJECTID":658724},"geometry":{"x":181718.69183300063,"y":2580201.0951930005}},{"attributes":{"ID":658752,"DIS_CODE":0,"TOWNNAME":"北區","LI":"和順里","LIN":"31鄰","STREET":"臨安路","SECT":"二段","MAREA":" ","LANE":"１４３巷","ALLEY":" ","HOUSE_NO":"５０號","E_COORD97":167781.74978300001,"N_COORD97":2544977.8426199998,"ADDRESS":"臨安路二段１４３巷５０號","OBJECTID":658725},"geometry":{"x":167781.74978300184,"y":2544977.8426180016}},{"attributes":{"ID":658753,"DIS_CODE":0,"TOWNNAME":"新營區","LI":"土庫里","LIN":"16鄰","STREET":" ","SECT":" ","MAREA":"卯舍","LANE":" ","ALLEY":" ","HOUSE_NO":"１２之２號","E_COORD97":181767.318803,"N_COORD97":2580114.4177399999,"ADDRESS":"卯舍１２之２號","OBJECTID":658726},"geometry":{"x":181767.31880300213,"y":2580114.4177400041}},{"attributes":{"ID":658754,"DIS_CODE":0,"TOWNNAME":"北區","LI":"和順里","LIN":"31鄰","STREET":"臨安路","SECT":"二段","MAREA":" ","LANE":"１４３巷","ALLEY":" ","HOUSE_NO":"５２號","E_COORD97":167787.046034,"N_COORD97":2544977.41928,"ADDRESS":"臨安路二段１４３巷５２號","OBJECTID":658727},"geometry":{"x":167787.04603399988,"y":2544977.4192849994}},{"attributes":{"ID":658755,"DIS_CODE":0,"TOWNNAME":"新營區","LI":"土庫里","LIN":"16鄰","STREET":" ","SECT":" ","MAREA":"卯舍","LANE":" ","ALLEY":" ","HOUSE_NO":"１２之９號","E_COORD97":181738.92658500001,"N_COORD97":2580109.02024,"ADDRESS":"卯舍１２之９號","OBJECTID":658728},"geometry":{"x":181738.92658500001,"y":2580109.0202430021}},{"attributes":{"ID":658756,"DIS_CODE":0,"TOWNNAME":"北區","LI":"和順里","LIN":"31鄰","STREET":"臨安路","SECT":"二段","MAREA":" ","LANE":"１４３巷","ALLEY":" ","HOUSE_NO":"５６號","E_COORD97":167792.13043600001,"N_COORD97":2544977.20762,"ADDRESS":"臨安路二段１４３巷５６號","OBJECTID":658729},"geometry":{"x":167792.13043600041,"y":2544977.2076190002}},{"attributes":{"ID":658757,"DIS_CODE":0,"TOWNNAME":"北區","LI":"和順里","LIN":"31鄰","STREET":"臨安路","SECT":"二段","MAREA":" ","LANE":"１４３巷","ALLEY":" ","HOUSE_NO":"５８號","E_COORD97":167797.85038799999,"N_COORD97":2544977.20762,"ADDRESS":"臨安路二段１４３巷５８號","OBJECTID":658730},"geometry":{"x":167797.85038800165,"y":2544977.2076190002}},{"attributes":{"ID":658758,"DIS_CODE":0,"TOWNNAME":"北區","LI":"和順里","LIN":"31鄰","STREET":"臨安路","SECT":"二段","MAREA":" ","LANE":"１４３巷","ALLEY":" ","HOUSE_NO":"７２號","E_COORD97":167780.26683199999,"N_COORD97":2544990.1192800002,"ADDRESS":"臨安路二段１４３巷７２號","OBJECTID":658731},"geometry":{"x":167780.26683199964,"y":2544990.1192780007}},{"attributes":{"ID":658759,"DIS_CODE":0,"TOWNNAME":"北區","LI":"和順里","LIN":"31鄰","STREET":"臨安路","SECT":"二段","MAREA":" ","LANE":"１４３巷","ALLEY":" ","HOUSE_NO":"７０號","E_COORD97":167785.77493399999,"N_COORD97":2544990.1192800002,"ADDRESS":"臨安路二段１４３巷７０號","OBJECTID":658732},"geometry":{"x":167785.77493400127,"y":2544990.1192780007}},{"attributes":{"ID":658760,"DIS_CODE":0,"TOWNNAME":"新營區","LI":"土庫里","LIN":"16鄰","STREET":" ","SECT":" ","MAREA":"卯舍","LANE":" ","ALLEY":" ","HOUSE_NO":"１２之１９號","E_COORD97":181766.25939200001,"N_COORD97":2580128.7581500001,"ADDRESS":"卯舍１２之１９號","OBJECTID":658733},"geometry":{"x":181766.25939200073,"y":2580128.7581490017}},{"attributes":{"ID":658761,"DIS_CODE":0,"TOWNNAME":"北區","LI":"和順里","LIN":"31鄰","STREET":"臨安路","SECT":"二段","MAREA":" ","LANE":"１４３巷","ALLEY":" ","HOUSE_NO":"６８號","E_COORD97":167790.64748499999,"N_COORD97":2544989.48428,"ADDRESS":"臨安路二段１４３巷６８號","OBJECTID":658734},"geometry":{"x":167790.64748500101,"y":2544989.4842790011}},{"attributes":{"ID":658762,"DIS_CODE":0,"TOWNNAME":"新營區","LI":"土庫里","LIN":"16鄰","STREET":" ","SECT":" ","MAREA":"卯舍","LANE":" ","ALLEY":" ","HOUSE_NO":"１２之２１號","E_COORD97":181756.72469199999,"N_COORD97":2580126.8531499999,"ADDRESS":"卯舍１２之２１號","OBJECTID":658735},"geometry":{"x":181756.72469200194,"y":2580126.8531500008}},{"attributes":{"ID":658763,"DIS_CODE":0,"TOWNNAME":"北區","LI":"和順里","LIN":"31鄰","STREET":"臨安路","SECT":"二段","MAREA":" ","LANE":"１４３巷","ALLEY":" ","HOUSE_NO":"６６號","E_COORD97":167794.884487,"N_COORD97":2544988.6376100001,"ADDRESS":"臨安路二段１４３巷６６號","OBJECTID":658736},"geometry":{"x":167794.88448700029,"y":2544988.6376120001}},{"attributes":{"ID":658764,"DIS_CODE":0,"TOWNNAME":"北區","LI":"和順里","LIN":"31鄰","STREET":"臨安路","SECT":"二段","MAREA":" ","LANE":"１４３巷","ALLEY":" ","HOUSE_NO":"６２號","E_COORD97":167799.333338,"N_COORD97":2544988.4259500001,"ADDRESS":"臨安路二段１４３巷６２號","OBJECTID":658737},"geometry":{"x":167799.33333800081,"y":2544988.4259460028}},{"attributes":{"ID":658765,"DIS_CODE":0,"TOWNNAME":"北區","LI":"和順里","LIN":"31鄰","STREET":"臨安路","SECT":"二段","MAREA":" ","LANE":"１４３巷","ALLEY":" ","HOUSE_NO":"６０號","E_COORD97":167803.14663900001,"N_COORD97":2544988.21428,"ADDRESS":"臨安路二段１４３巷６０號","OBJECTID":658738},"geometry":{"x":167803.14663899969,"y":2544988.2142790016}},{"attributes":{"ID":658766,"DIS_CODE":0,"TOWNNAME":"北區","LI":"和順里","LIN":"30鄰","STREET":"海安路","SECT":"三段","MAREA":" ","LANE":"１３５巷","ALLEY":" ","HOUSE_NO":"５９號","E_COORD97":167799.121488,"N_COORD97":2544998.7976099998,"ADDRESS":"海安路三段１３５巷５９號","OBJECTID":658739},"geometry":{"x":167799.12148800213,"y":2544998.7976070028}},{"attributes":{"ID":658767,"DIS_CODE":0,"TOWNNAME":"北區","LI":"和順里","LIN":"30鄰","STREET":"海安路","SECT":"三段","MAREA":" ","LANE":"１３５巷","ALLEY":" ","HOUSE_NO":"６１號","E_COORD97":167795.30818699999,"N_COORD97":2544998.5859400001,"ADDRESS":"海安路三段１３５巷６１號","OBJECTID":658740},"geometry":{"x":167795.30818700045,"y":2544998.5859400015}},{"attributes":{"ID":658768,"DIS_CODE":0,"TOWNNAME":"善化區","LI":"南關里","LIN":"8鄰","STREET":"三民路","SECT":" ","MAREA":" ","LANE":" ","ALLEY":" ","HOUSE_NO":"２３號之１","E_COORD97":177052.73314999999,"N_COORD97":2558868.4385000002,"ADDRESS":"三民路２３號之１","OBJECTID":658741},"geometry":{"x":177052.73314999975,"y":2558868.4385000002}},{"attributes":{"ID":658769,"DIS_CODE":0,"TOWNNAME":"安南區","LI":"安東里","LIN":"5鄰","STREET":"安和路","SECT":"一段","MAREA":" ","LANE":"２８８巷","ALLEY":" ","HOUSE_NO":"７０號","E_COORD97":169461.08910899999,"N_COORD97":2548114.59932,"ADDRESS":"安和路一段２８８巷７０號","OBJECTID":658742},"geometry":{"x":169461.08910899889,"y":2548114.5993169993}},{"attributes":{"ID":658770,"DIS_CODE":0,"TOWNNAME":"仁德區","LI":"成功里","LIN":"47鄰","STREET":"文賢路","SECT":"一段","MAREA":" ","LANE":" ","ALLEY":" ","HOUSE_NO":"４０號","E_COORD97":170134.75737800001,"N_COORD97":2538235.0422800002,"ADDRESS":"文賢路一段４０號","OBJECTID":658743},"geometry":{"x":170134.75737799983,"y":2538235.0422840007}},{"attributes":{"ID":658771,"DIS_CODE":0,"TOWNNAME":"善化區","LI":"文正里","LIN":"14鄰","STREET":"陽明路","SECT":" ","MAREA":" ","LANE":"１４１巷","ALLEY":" ","HOUSE_NO":"１３號","E_COORD97":176261.444456,"N_COORD97":2559467.2306400002,"ADDRESS":"陽明路１４１巷１３號","OBJECTID":658744},"geometry":{"x":176261.44445600081,"y":2559467.230636999}},{"attributes":{"ID":658772,"DIS_CODE":0,"TOWNNAME":"仁德區","LI":"成功里","LIN":"47鄰","STREET":"文賢路","SECT":"一段","MAREA":" ","LANE":" ","ALLEY":" ","HOUSE_NO":"５１號","E_COORD97":170193.84801799999,"N_COORD97":2538231.6027000002,"ADDRESS":"文賢路一段５１號","OBJECTID":658745},"geometry":{"x":170193.8480179999,"y":2538231.602702003}},{"attributes":{"ID":658773,"DIS_CODE":0,"TOWNNAME":"善化區","LI":"南關里","LIN":"9鄰","STREET":"三民路","SECT":" ","MAREA":" ","LANE":" ","ALLEY":" ","HOUSE_NO":"４１號","E_COORD97":177039.17071000001,"N_COORD97":2558935.96013,"ADDRESS":"三民路４１號","OBJECTID":658746},"geometry":{"x":177039.17071000021,"y":2558935.9601310026}},{"attributes":{"ID":658774,"DIS_CODE":0,"TOWNNAME":"善化區","LI":"文正里","LIN":"11鄰","STREET":"文正路","SECT":" ","MAREA":" ","LANE":"２５巷","ALLEY":" ","HOUSE_NO":"６號之１","E_COORD97":176888.97229000001,"N_COORD97":2559352.2956900001,"ADDRESS":"文正路２５巷６號之１","OBJECTID":658747},"geometry":{"x":176888.97228999995,"y":2559352.2956900019}},{"attributes":{"ID":658775,"DIS_CODE":0,"TOWNNAME":"善化區","LI":"南關里","LIN":"8鄰","STREET":"自由路","SECT":" ","MAREA":" ","LANE":" ","ALLEY":" ","HOUSE_NO":"１５２號","E_COORD97":177014.376869,"N_COORD97":2558897.2251499998,"ADDRESS":"自由路１５２號","OBJECTID":658748},"geometry":{"x":177014.37686900049,"y":2558897.2251520008}},{"attributes":{"ID":658776,"DIS_CODE":0,"TOWNNAME":"善化區","LI":"六分里","LIN":"3鄰","STREET":" ","SECT":" ","MAREA":"東勢宅","LANE":" ","ALLEY":" ","HOUSE_NO":"２００號","E_COORD97":177827.355721,"N_COORD97":2560124.2041699998,"ADDRESS":"東勢宅２００號","OBJECTID":658749},"geometry":{"x":177827.35572100151,"y":2560124.2041709982}},{"attributes":{"ID":658777,"DIS_CODE":0,"TOWNNAME":"善化區","LI":"六分里","LIN":"3鄰","STREET":" ","SECT":" ","MAREA":"東勢宅","LANE":" ","ALLEY":" ","HOUSE_NO":"３４號之１","E_COORD97":177748.10019,"N_COORD97":2561048.12867,"ADDRESS":"東勢宅３４號之１","OBJECTID":658750},"geometry":{"x":177748.10019000061,"y":2561048.1286699995}},{"attributes":{"ID":658778,"DIS_CODE":0,"TOWNNAME":"善化區","LI":"六分里","LIN":"7鄰","STREET":" ","SECT":" ","MAREA":"溪底寮","LANE":" ","ALLEY":" ","HOUSE_NO":"３號","E_COORD97":177933.52421900001,"N_COORD97":2561951.3098499998,"ADDRESS":"溪底寮３號","OBJECTID":658751},"geometry":{"x":177933.52421900071,"y":2561951.3098510001}},{"attributes":{"ID":658779,"DIS_CODE":0,"TOWNNAME":"善化區","LI":"六分里","LIN":"7鄰","STREET":" ","SECT":" ","MAREA":"溪底寮","LANE":" ","ALLEY":" ","HOUSE_NO":"５號","E_COORD97":177964.67545499999,"N_COORD97":2562006.9781499999,"ADDRESS":"溪底寮５號","OBJECTID":658752},"geometry":{"x":177964.67545500025,"y":2562006.9781540018}},{"attributes":{"ID":658780,"DIS_CODE":0,"TOWNNAME":"善化區","LI":"六分里","LIN":"7鄰","STREET":" ","SECT":" ","MAREA":"溪底寮","LANE":" ","ALLEY":" ","HOUSE_NO":"５號之１","E_COORD97":177967.00649,"N_COORD97":2562014.3864799999,"ADDRESS":"溪底寮５號之１","OBJECTID":658753},"geometry":{"x":177967.00649000052,"y":2562014.3864800017}},{"attributes":{"ID":658781,"DIS_CODE":0,"TOWNNAME":"善化區","LI":"胡厝里","LIN":"24鄰","STREET":" ","SECT":" ","MAREA":"烏橋","LANE":" ","ALLEY":" ","HOUSE_NO":"１１號之１","E_COORD97":175398.478069,"N_COORD97":2558938.28846,"ADDRESS":"烏橋１１號之１","OBJECTID":658754},"geometry":{"x":175398.47806899995,"y":2558938.2884630021}},{"attributes":{"ID":658782,"DIS_CODE":0,"TOWNNAME":"善化區","LI":"胡厝里","LIN":"24鄰","STREET":" ","SECT":" ","MAREA":"烏橋","LANE":" ","ALLEY":" ","HOUSE_NO":"１１號之２","E_COORD97":175399.96146200001,"N_COORD97":2558938.7118000002,"ADDRESS":"烏橋１１號之２","OBJECTID":658755},"geometry":{"x":175399.96146200132,"y":2558938.7117960006}},{"attributes":{"ID":658783,"DIS_CODE":0,"TOWNNAME":"善化區","LI":"胡厝里","LIN":"24鄰","STREET":" ","SECT":" ","MAREA":"烏橋","LANE":" ","ALLEY":" ","HOUSE_NO":"１１號之３","E_COORD97":175401.444854,"N_COORD97":2558939.3467999999,"ADDRESS":"烏橋１１號之３","OBJECTID":658756},"geometry":{"x":175401.44485400058,"y":2558939.3467959985}},{"attributes":{"ID":658784,"DIS_CODE":0,"TOWNNAME":"善化區","LI":"胡厝里","LIN":"24鄰","STREET":" ","SECT":" ","MAREA":"烏橋","LANE":" ","ALLEY":" ","HOUSE_NO":"１２號之１","E_COORD97":175398.05424299999,"N_COORD97":2558930.6684699999,"ADDRESS":"烏橋１２號之１","OBJECTID":658757},"geometry":{"x":175398.05424300209,"y":2558930.668467002}},{"attributes":{"ID":658785,"DIS_CODE":0,"TOWNNAME":"善化區","LI":"胡厝里","LIN":"24鄰","STREET":" ","SECT":" ","MAREA":"烏橋","LANE":" ","ALLEY":" ","HOUSE_NO":"１２號之２","E_COORD97":175399.74954799999,"N_COORD97":2558931.0918000001,"ADDRESS":"烏橋１２號之２","OBJECTID":658758},"geometry":{"x":175399.74954800121,"y":2558931.0918000005}},{"attributes":{"ID":658786,"DIS_CODE":0,"TOWNNAME":"善化區","LI":"胡厝里","LIN":"24鄰","STREET":" ","SECT":" ","MAREA":"烏橋","LANE":" ","ALLEY":" ","HOUSE_NO":"１２號之３","E_COORD97":175401.444854,"N_COORD97":2558931.9384699999,"ADDRESS":"烏橋１２號之３","OBJECTID":658759},"geometry":{"x":175401.44485400058,"y":2558931.9384660032}},{"attributes":{"ID":658787,"DIS_CODE":0,"TOWNNAME":"善化區","LI":"胡厝里","LIN":"24鄰","STREET":" ","SECT":" ","MAREA":"烏橋","LANE":" ","ALLEY":" ","HOUSE_NO":"１３號之１","E_COORD97":175398.266156,"N_COORD97":2558919.87347,"ADDRESS":"烏橋１３號之１","OBJECTID":658760},"geometry":{"x":175398.26615600009,"y":2558919.8734729998}},{"attributes":{"ID":658788,"DIS_CODE":0,"TOWNNAME":"善化區","LI":"胡厝里","LIN":"24鄰","STREET":" ","SECT":" ","MAREA":"烏橋","LANE":" ","ALLEY":" ","HOUSE_NO":"１３號之２","E_COORD97":175399.74954799999,"N_COORD97":2558920.7201399999,"ADDRESS":"烏橋１３號之２","OBJECTID":658761},"geometry":{"x":175399.74954800121,"y":2558920.7201390006}},{"attributes":{"ID":658789,"DIS_CODE":0,"TOWNNAME":"善化區","LI":"胡厝里","LIN":"24鄰","STREET":" ","SECT":" ","MAREA":"烏橋","LANE":" ","ALLEY":" ","HOUSE_NO":"１３號之３","E_COORD97":175401.444854,"N_COORD97":2558921.7784699998,"ADDRESS":"烏橋１３號之３","OBJECTID":658762},"geometry":{"x":175401.44485400058,"y":2558921.7784719989}},{"attributes":{"ID":658790,"DIS_CODE":0,"TOWNNAME":"善化區","LI":"胡厝里","LIN":"24鄰","STREET":" ","SECT":" ","MAREA":"烏橋","LANE":" ","ALLEY":" ","HOUSE_NO":"１４號之１","E_COORD97":175398.478069,"N_COORD97":2558912.6768100001,"ADDRESS":"烏橋１４號之１","OBJECTID":658763},"geometry":{"x":175398.47806899995,"y":2558912.6768100001}},{"attributes":{"ID":658791,"DIS_CODE":0,"TOWNNAME":"善化區","LI":"胡厝里","LIN":"24鄰","STREET":" ","SECT":" ","MAREA":"烏橋","LANE":" ","ALLEY":" ","HOUSE_NO":"１４號之２","E_COORD97":175400.17337500001,"N_COORD97":2558913.52348,"ADDRESS":"烏橋１４號之２","OBJECTID":658764},"geometry":{"x":175400.17337500118,"y":2558913.5234760009}},{"attributes":{"ID":658792,"DIS_CODE":0,"TOWNNAME":"善化區","LI":"胡厝里","LIN":"24鄰","STREET":" ","SECT":" ","MAREA":"烏橋","LANE":" ","ALLEY":" ","HOUSE_NO":"１４號之３","E_COORD97":175401.65676700001,"N_COORD97":2558914.79348,"ADDRESS":"烏橋１４號之３","OBJECTID":658765},"geometry":{"x":175401.65676700044,"y":2558914.7934760004}},{"attributes":{"ID":658793,"DIS_CODE":0,"TOWNNAME":"善化區","LI":"胡厝里","LIN":"24鄰","STREET":" ","SECT":" ","MAREA":"烏橋","LANE":" ","ALLEY":" ","HOUSE_NO":"１５號之１","E_COORD97":175399.113809,"N_COORD97":2558902.3051499999,"ADDRESS":"烏橋１５號之１","OBJECTID":658766},"geometry":{"x":175399.1138090007,"y":2558902.3051490001}},{"attributes":{"ID":658794,"DIS_CODE":0,"TOWNNAME":"善化區","LI":"胡厝里","LIN":"24鄰","STREET":" ","SECT":" ","MAREA":"烏橋","LANE":" ","ALLEY":" ","HOUSE_NO":"１５號之２","E_COORD97":175400.597201,"N_COORD97":2558903.5751499999,"ADDRESS":"烏橋１５號之２","OBJECTID":658767},"geometry":{"x":175400.59720099997,"y":2558903.5751479995}},{"attributes":{"ID":658795,"DIS_CODE":0,"TOWNNAME":"善化區","LI":"胡厝里","LIN":"24鄰","STREET":" ","SECT":" ","MAREA":"烏橋","LANE":" ","ALLEY":" ","HOUSE_NO":"１５號之３","E_COORD97":175402.08059299999,"N_COORD97":2558904.84515,"ADDRESS":"烏橋１５號之３","OBJECTID":658768},"geometry":{"x":175402.0805930011,"y":2558904.8451480046}},{"attributes":{"ID":658796,"DIS_CODE":0,"TOWNNAME":"善化區","LI":"胡厝里","LIN":"24鄰","STREET":" ","SECT":" ","MAREA":"烏橋","LANE":" ","ALLEY":" ","HOUSE_NO":"１６號之１","E_COORD97":175399.96146200001,"N_COORD97":2558893.83849,"ADDRESS":"烏橋１６號之１","OBJECTID":658769},"geometry":{"x":175399.96146200132,"y":2558893.8384869993}},{"attributes":{"ID":658797,"DIS_CODE":0,"TOWNNAME":"善化區","LI":"胡厝里","LIN":"24鄰","STREET":" ","SECT":" ","MAREA":"烏橋","LANE":" ","ALLEY":" ","HOUSE_NO":"１６號之２","E_COORD97":175401.444854,"N_COORD97":2558895.7434899998,"ADDRESS":"烏橋１６號之２","OBJECTID":658770},"geometry":{"x":175401.44485400058,"y":2558895.7434860002}},{"attributes":{"ID":658798,"DIS_CODE":0,"TOWNNAME":"善化區","LI":"胡厝里","LIN":"24鄰","STREET":" ","SECT":" ","MAREA":"烏橋","LANE":" ","ALLEY":" ","HOUSE_NO":"１６號之３","E_COORD97":175403.140159,"N_COORD97":2558897.0134899998,"ADDRESS":"烏橋１６號之３","OBJECTID":658771},"geometry":{"x":175403.14015900064,"y":2558897.0134849995}},{"attributes":{"ID":658799,"DIS_CODE":0,"TOWNNAME":"善化區","LI":"胡厝里","LIN":"24鄰","STREET":" ","SECT":" ","MAREA":"烏橋","LANE":" ","ALLEY":" ","HOUSE_NO":"１７號之１","E_COORD97":175400.36942599999,"N_COORD97":2558885.38099,"ADDRESS":"烏橋１７號之１","OBJECTID":658772},"geometry":{"x":175400.36942599993,"y":2558885.3809880037}},{"attributes":{"ID":658800,"DIS_CODE":0,"TOWNNAME":"善化區","LI":"胡厝里","LIN":"24鄰","STREET":" ","SECT":" ","MAREA":"烏橋","LANE":" ","ALLEY":" ","HOUSE_NO":"１７號之２","E_COORD97":175401.851838,"N_COORD97":2558886.2276499998,"ADDRESS":"烏橋１７號之２","OBJECTID":658773},"geometry":{"x":175401.85183800198,"y":2558886.2276540007}},{"attributes":{"ID":658801,"DIS_CODE":0,"TOWNNAME":"善化區","LI":"胡厝里","LIN":"24鄰","STREET":" ","SECT":" ","MAREA":"烏橋","LANE":" ","ALLEY":" ","HOUSE_NO":"１７號之３","E_COORD97":175403.33424900001,"N_COORD97":2558887.4976499998,"ADDRESS":"烏橋１７號之３","OBJECTID":658774},"geometry":{"x":175403.33424900007,"y":2558887.4976540003}},{"attributes":{"ID":658802,"DIS_CODE":0,"TOWNNAME":"善化區","LI":"胡厝里","LIN":"24鄰","STREET":" ","SECT":" ","MAREA":"烏橋","LANE":" ","ALLEY":" ","HOUSE_NO":"１８號之１","E_COORD97":175400.157653,"N_COORD97":2558875.8559900001,"ADDRESS":"烏橋１８號之１","OBJECTID":658775},"geometry":{"x":175400.15765300021,"y":2558875.8559930008}},{"attributes":{"ID":658803,"DIS_CODE":0,"TOWNNAME":"善化區","LI":"胡厝里","LIN":"24鄰","STREET":" ","SECT":" ","MAREA":"烏橋","LANE":" ","ALLEY":" ","HOUSE_NO":"１８號之２","E_COORD97":175401.851838,"N_COORD97":2558877.1259900001,"ADDRESS":"烏橋１８號之２","OBJECTID":658776},"geometry":{"x":175401.85183800198,"y":2558877.1259920001}},{"attributes":{"ID":658804,"DIS_CODE":0,"TOWNNAME":"善化區","LI":"胡厝里","LIN":"24鄰","STREET":" ","SECT":" ","MAREA":"烏橋","LANE":" ","ALLEY":" ","HOUSE_NO":"１８號之３","E_COORD97":175403.33424900001,"N_COORD97":2558878.3959900001,"ADDRESS":"烏橋１８號之３","OBJECTID":658777},"geometry":{"x":175403.33424900007,"y":2558878.3959919997}},{"attributes":{"ID":658805,"DIS_CODE":0,"TOWNNAME":"新化區","LI":"東榮里","LIN":"13鄰","STREET":"中興路","SECT":" ","MAREA":" ","LANE":"５８０巷","ALLEY":" ","HOUSE_NO":"４號","E_COORD97":179860.54454599999,"N_COORD97":2547987.5192900002,"ADDRESS":"中興路５８０巷４號","OBJECTID":658778},"geometry":{"x":179860.54454600159,"y":2547987.5192860011}},{"attributes":{"ID":658806,"DIS_CODE":0,"TOWNNAME":"善化區","LI":"胡厝里","LIN":"25鄰","STREET":" ","SECT":" ","MAREA":"烏橋","LANE":" ","ALLEY":" ","HOUSE_NO":"１９號之１","E_COORD97":175382.58048400001,"N_COORD97":2558876.9143300001,"ADDRESS":"烏橋１９號之１","OBJECTID":658779},"geometry":{"x":175382.58048400003,"y":2558876.9143260028}},{"attributes":{"ID":658807,"DIS_CODE":0,"TOWNNAME":"善化區","LI":"胡厝里","LIN":"25鄰","STREET":" ","SECT":" ","MAREA":"烏橋","LANE":" ","ALLEY":" ","HOUSE_NO":"１９號之２","E_COORD97":175384.06289500001,"N_COORD97":2558877.7609899999,"ADDRESS":"烏橋１９號之２","OBJECTID":658780},"geometry":{"x":175384.06289500091,"y":2558877.7609919999}},{"attributes":{"ID":658808,"DIS_CODE":0,"TOWNNAME":"善化區","LI":"胡厝里","LIN":"25鄰","STREET":" ","SECT":" ","MAREA":"烏橋","LANE":" ","ALLEY":" ","HOUSE_NO":"１９號之３","E_COORD97":175386.18062699999,"N_COORD97":2558879.24266,"ADDRESS":"烏橋１９號之３","OBJECTID":658781},"geometry":{"x":175386.18062699959,"y":2558879.2426580004}},{"attributes":{"ID":658809,"DIS_CODE":0,"TOWNNAME":"善化區","LI":"胡厝里","LIN":"25鄰","STREET":" ","SECT":" ","MAREA":"烏橋","LANE":" ","ALLEY":" ","HOUSE_NO":"２０號之１","E_COORD97":175382.15693699999,"N_COORD97":2558884.5343200001,"ADDRESS":"烏橋２０號之１","OBJECTID":658782},"geometry":{"x":175382.15693700034,"y":2558884.534322001}},{"attributes":{"ID":658810,"DIS_CODE":0,"TOWNNAME":"善化區","LI":"胡厝里","LIN":"25鄰","STREET":" ","SECT":" ","MAREA":"烏橋","LANE":" ","ALLEY":" ","HOUSE_NO":"２０號之２","E_COORD97":175383.85112199999,"N_COORD97":2558886.65099,"ADDRESS":"烏橋２０號之２","OBJECTID":658783},"geometry":{"x":175383.85112200119,"y":2558886.6509869993}},{"attributes":{"ID":658811,"DIS_CODE":0,"TOWNNAME":"善化區","LI":"胡厝里","LIN":"25鄰","STREET":" ","SECT":" ","MAREA":"烏橋","LANE":" ","ALLEY":" ","HOUSE_NO":"２０號之３","E_COORD97":175385.333534,"N_COORD97":2558888.5559899998,"ADDRESS":"烏橋２０號之３","OBJECTID":658784},"geometry":{"x":175385.33353400137,"y":2558888.5559860021}},{"attributes":{"ID":658812,"DIS_CODE":0,"TOWNNAME":"善化區","LI":"胡厝里","LIN":"25鄰","STREET":" ","SECT":" ","MAREA":"烏橋","LANE":" ","ALLEY":" ","HOUSE_NO":"２１號之１","E_COORD97":175381.945164,"N_COORD97":2558895.1176499999,"ADDRESS":"烏橋２１號之１","OBJECTID":658785},"geometry":{"x":175381.94516400155,"y":2558895.1176490039}},{"attributes":{"ID":658813,"DIS_CODE":0,"TOWNNAME":"善化區","LI":"胡厝里","LIN":"25鄰","STREET":" ","SECT":" ","MAREA":"烏橋","LANE":" ","ALLEY":" ","HOUSE_NO":"２１號之２","E_COORD97":175384.06289500001,"N_COORD97":2558896.59932,"ADDRESS":"烏橋２１號之２","OBJECTID":658786},"geometry":{"x":175384.06289500091,"y":2558896.5993150007}},{"attributes":{"ID":658814,"DIS_CODE":0,"TOWNNAME":"善化區","LI":"胡厝里","LIN":"25鄰","STREET":" ","SECT":" ","MAREA":"烏橋","LANE":" ","ALLEY":" ","HOUSE_NO":"２１號之３","E_COORD97":175386.18062699999,"N_COORD97":2558897.65765,"ADDRESS":"烏橋２１號之３","OBJECTID":658787},"geometry":{"x":175386.18062699959,"y":2558897.6576480027}},{"attributes":{"ID":658815,"DIS_CODE":0,"TOWNNAME":"善化區","LI":"胡厝里","LIN":"25鄰","STREET":" ","SECT":" ","MAREA":"烏橋","LANE":" ","ALLEY":" ","HOUSE_NO":"２２號之１","E_COORD97":175381.30984500001,"N_COORD97":2558902.1026499998,"ADDRESS":"烏橋２２號之１","OBJECTID":658788},"geometry":{"x":175381.30984499957,"y":2558902.1026460007}},{"attributes":{"ID":658816,"DIS_CODE":0,"TOWNNAME":"善化區","LI":"胡厝里","LIN":"25鄰","STREET":" ","SECT":" ","MAREA":"烏橋","LANE":" ","ALLEY":" ","HOUSE_NO":"２２號之２","E_COORD97":175383.00403000001,"N_COORD97":2558902.9493100001,"ADDRESS":"烏橋２２號之２","OBJECTID":658789},"geometry":{"x":175383.00403000042,"y":2558902.9493119977}},{"attributes":{"ID":658817,"DIS_CODE":0,"TOWNNAME":"善化區","LI":"胡厝里","LIN":"25鄰","STREET":" ","SECT":" ","MAREA":"烏橋","LANE":" ","ALLEY":" ","HOUSE_NO":"２２號之３","E_COORD97":175384.69821500001,"N_COORD97":2558904.00764,"ADDRESS":"烏橋２２號之３","OBJECTID":658790},"geometry":{"x":175384.69821500219,"y":2558904.0076450016}},{"attributes":{"ID":658818,"DIS_CODE":0,"TOWNNAME":"善化區","LI":"胡厝里","LIN":"25鄰","STREET":" ","SECT":" ","MAREA":"烏橋","LANE":" ","ALLEY":" ","HOUSE_NO":"２３號之１","E_COORD97":175381.09807199999,"N_COORD97":2558912.8976400001,"ADDRESS":"烏橋２３號之１","OBJECTID":658791},"geometry":{"x":175381.09807199985,"y":2558912.8976400048}},{"attributes":{"ID":658819,"DIS_CODE":0,"TOWNNAME":"善化區","LI":"胡厝里","LIN":"25鄰","STREET":" ","SECT":" ","MAREA":"烏橋","LANE":" ","ALLEY":" ","HOUSE_NO":"２３號之２","E_COORD97":175383.00403000001,"N_COORD97":2558913.5326399999,"ADDRESS":"烏橋２３號之２","OBJECTID":658792},"geometry":{"x":175383.00403000042,"y":2558913.5326390006}},{"attributes":{"ID":658820,"DIS_CODE":0,"TOWNNAME":"善化區","LI":"胡厝里","LIN":"25鄰","STREET":" ","SECT":" ","MAREA":"烏橋","LANE":" ","ALLEY":" ","HOUSE_NO":"２３號之３","E_COORD97":175384.69821500001,"N_COORD97":2558914.1676400001,"ADDRESS":"烏橋２３號之３","OBJECTID":658793},"geometry":{"x":175384.69821500219,"y":2558914.1676390003}},{"attributes":{"ID":658821,"DIS_CODE":0,"TOWNNAME":"善化區","LI":"胡厝里","LIN":"25鄰","STREET":" ","SECT":" ","MAREA":"烏橋","LANE":" ","ALLEY":" ","HOUSE_NO":"２４號之１","E_COORD97":175380.88629900001,"N_COORD97":2558920.0943,"ADDRESS":"烏橋２４號之１","OBJECTID":658794},"geometry":{"x":175380.88629900105,"y":2558920.0943030007}},{"attributes":{"ID":658822,"DIS_CODE":0,"TOWNNAME":"善化區","LI":"胡厝里","LIN":"25鄰","STREET":" ","SECT":" ","MAREA":"烏橋","LANE":" ","ALLEY":" ","HOUSE_NO":"２４號之２","E_COORD97":175382.36871000001,"N_COORD97":2558920.5176400002,"ADDRESS":"烏橋２４號之２","OBJECTID":658795},"geometry":{"x":175382.36871000193,"y":2558920.517636003}},{"attributes":{"ID":658823,"DIS_CODE":0,"TOWNNAME":"善化區","LI":"胡厝里","LIN":"25鄰","STREET":" ","SECT":" ","MAREA":"烏橋","LANE":" ","ALLEY":" ","HOUSE_NO":"２４號之３","E_COORD97":175384.48644199999,"N_COORD97":2558921.5759700001,"ADDRESS":"烏橋２４號之３","OBJECTID":658796},"geometry":{"x":175384.48644200061,"y":2558921.575968001}},{"attributes":{"ID":658824,"DIS_CODE":0,"TOWNNAME":"善化區","LI":"胡厝里","LIN":"25鄰","STREET":" ","SECT":" ","MAREA":"烏橋","LANE":" ","ALLEY":" ","HOUSE_NO":"２５號之１","E_COORD97":175380.67452500001,"N_COORD97":2558931.7359600002,"ADDRESS":"烏橋２５號之１","OBJECTID":658797},"geometry":{"x":175380.67452500015,"y":2558931.735963}},{"attributes":{"ID":658825,"DIS_CODE":0,"TOWNNAME":"善化區","LI":"胡厝里","LIN":"25鄰","STREET":" ","SECT":" ","MAREA":"烏橋","LANE":" ","ALLEY":" ","HOUSE_NO":"２５號之２","E_COORD97":175382.58048400001,"N_COORD97":2558932.5826300001,"ADDRESS":"烏橋２５號之２","OBJECTID":658798},"geometry":{"x":175382.58048400003,"y":2558932.5826290008}},{"attributes":{"ID":658826,"DIS_CODE":0,"TOWNNAME":"善化區","LI":"六分里","LIN":"8鄰","STREET":" ","SECT":" ","MAREA":"溪底寮","LANE":" ","ALLEY":" ","HOUSE_NO":"１４號","E_COORD97":177846.182998,"N_COORD97":2561948.3743799999,"ADDRESS":"溪底寮１４號","OBJECTID":658799},"geometry":{"x":177846.18299800158,"y":2561948.3743750025}},{"attributes":{"ID":658827,"DIS_CODE":0,"TOWNNAME":"善化區","LI":"胡厝里","LIN":"25鄰","STREET":" ","SECT":" ","MAREA":"烏橋","LANE":" ","ALLEY":" ","HOUSE_NO":"２５號之３","E_COORD97":175384.27466900001,"N_COORD97":2558933.64096,"ADDRESS":"烏橋２５號之３","OBJECTID":658800},"geometry":{"x":175384.27466900088,"y":2558933.6409620047}}]}