{"displayFieldName":"TOWNNAME","fieldAliases":{"ID":"ID","DIS_CODE":"DIS_CODE","TOWNNAME":"TOWNNAME","LI":"LI","LIN":"LIN","STREET":"STREET","SECT":"SECT","MAREA":"MAREA","LANE":"LANE","ALLEY":"ALLEY","HOUSE_NO":"HOUSE_NO","E_COORD97":"E_COORD97","N_COORD97":"N_COORD97","ADDRESS":"ADDRESS","OBJECTID":"OBJECTID"},"geometryType":"esriGeometryPoint","spatialReference":{"wkid":102443,"latestWkid":3826},"fields":[{"name":"ID","type":"esriFieldTypeDouble","alias":"ID"},{"name":"DIS_CODE","type":"esriFieldTypeInteger","alias":"DIS_CODE"},{"name":"TOWNNAME","type":"esriFieldTypeString","alias":"TOWNNAME","length":8},{"name":"LI","type":"esriFieldTypeString","alias":"LI","length":8},{"name":"LIN","type":"esriFieldTypeString","alias":"LIN","length":12},{"name":"STREET","type":"esriFieldTypeString","alias":"STREET","length":20},{"name":"SECT","type":"esriFieldTypeString","alias":"SECT","length":8},{"name":"MAREA","type":"esriFieldTypeString","alias":"MAREA","length":12},{"name":"LANE","type":"esriFieldTypeString","alias":"LANE","length":10},{"name":"ALLEY","type":"esriFieldTypeString","alias":"ALLEY","length":10},{"name":"HOUSE_NO","type":"esriFieldTypeString","alias":"HOUSE_NO","length":20},{"name":"E_COORD97","type":"esriFieldTypeDouble","alias":"E_COORD97"},{"name":"N_COORD97","type":"esriFieldTypeDouble","alias":"N_COORD97"},{"name":"ADDRESS","type":"esriFieldTypeString","alias":"ADDRESS","length":50},{"name":"OBJECTID","type":"esriFieldTypeOID","alias":"OBJECTID"}],"features":[{"attributes":{"ID":357010,"DIS_CODE":0,"TOWNNAME":"東山區","LI":"東原里","LIN":"26鄰","STREET":" ","SECT":" ","MAREA":"前大埔","LANE":" ","ALLEY":" ","HOUSE_NO":"１１８號之２","E_COORD97":194422.82999999999,"N_COORD97":2573120.1200000001,"ADDRESS":"前大埔１１８號之２","OBJECTID":357001},"geometry":{"x":194422.83000000101,"y":2573120.120000001}},{"attributes":{"ID":357011,"DIS_CODE":0,"TOWNNAME":"永康區","LI":"龍潭里","LIN":"30鄰","STREET":"龍潭街","SECT":" ","MAREA":" ","LANE":"６８巷","ALLEY":" ","HOUSE_NO":"６號","E_COORD97":174800.57999999999,"N_COORD97":2547876.5,"ADDRESS":"龍潭街６８巷６號","OBJECTID":357002},"geometry":{"x":174800.58000000101,"y":2547876.5000000019}},{"attributes":{"ID":357012,"DIS_CODE":0,"TOWNNAME":"永康區","LI":"龍潭里","LIN":"30鄰","STREET":"龍潭街","SECT":" ","MAREA":" ","LANE":"６８巷","ALLEY":" ","HOUSE_NO":"７號","E_COORD97":174805.78,"N_COORD97":2547896.4399999999,"ADDRESS":"龍潭街６８巷７號","OBJECTID":357003},"geometry":{"x":174805.78000000026,"y":2547896.4400000013}},{"attributes":{"ID":357013,"DIS_CODE":0,"TOWNNAME":"永康區","LI":"龍潭里","LIN":"30鄰","STREET":"龍潭街","SECT":" ","MAREA":" ","LANE":"６８巷","ALLEY":" ","HOUSE_NO":"９號","E_COORD97":174807.57000000001,"N_COORD97":2547900.9500000002,"ADDRESS":"龍潭街６８巷９號","OBJECTID":357004},"geometry":{"x":174807.57000000123,"y":2547900.9499999993}},{"attributes":{"ID":357014,"DIS_CODE":0,"TOWNNAME":"東山區","LI":"東原里","LIN":"26鄰","STREET":" ","SECT":" ","MAREA":"前大埔","LANE":" ","ALLEY":" ","HOUSE_NO":"１１８號","E_COORD97":194459.04000000001,"N_COORD97":2573142.3199999998,"ADDRESS":"前大埔１１８號","OBJECTID":357005},"geometry":{"x":194459.04000000004,"y":2573142.320000004}},{"attributes":{"ID":357015,"DIS_CODE":0,"TOWNNAME":"永康區","LI":"崑山里","LIN":"5鄰","STREET":"崑大路","SECT":" ","MAREA":" ","LANE":"１５５巷","ALLEY":" ","HOUSE_NO":"１５號","E_COORD97":173611.48999999999,"N_COORD97":2544236.0899999999,"ADDRESS":"崑大路１５５巷１５號","OBJECTID":357006},"geometry":{"x":173611.49000000115,"y":2544236.0899999999}},{"attributes":{"ID":357016,"DIS_CODE":0,"TOWNNAME":"東山區","LI":"東原里","LIN":"26鄰","STREET":" ","SECT":" ","MAREA":"前大埔","LANE":" ","ALLEY":" ","HOUSE_NO":"１１９號之２","E_COORD97":194478.04999999999,"N_COORD97":2573114.0299999998,"ADDRESS":"前大埔１１９號之２","OBJECTID":357007},"geometry":{"x":194478.05000000168,"y":2573114.0300000012}},{"attributes":{"ID":357017,"DIS_CODE":0,"TOWNNAME":"東山區","LI":"東原里","LIN":"26鄰","STREET":" ","SECT":" ","MAREA":"前大埔","LANE":" ","ALLEY":" ","HOUSE_NO":"１１９號之３","E_COORD97":194498.97,"N_COORD97":2573108.5099999998,"ADDRESS":"前大埔１１９號之３","OBJECTID":357008},"geometry":{"x":194498.9700000016,"y":2573108.5099999998}},{"attributes":{"ID":357018,"DIS_CODE":0,"TOWNNAME":"東山區","LI":"東原里","LIN":"26鄰","STREET":" ","SECT":" ","MAREA":"前大埔","LANE":" ","ALLEY":" ","HOUSE_NO":"１１９號","E_COORD97":194500.87,"N_COORD97":2573149.98,"ADDRESS":"前大埔１１９號","OBJECTID":357009},"geometry":{"x":194500.87000000011,"y":2573149.9800000004}},{"attributes":{"ID":357019,"DIS_CODE":0,"TOWNNAME":"東山區","LI":"東原里","LIN":"26鄰","STREET":" ","SECT":" ","MAREA":"前大埔","LANE":" ","ALLEY":" ","HOUSE_NO":"１２０號","E_COORD97":194523.29000000001,"N_COORD97":2573132.5,"ADDRESS":"前大埔１２０號","OBJECTID":357010},"geometry":{"x":194523.29000000004,"y":2573132.5}},{"attributes":{"ID":357020,"DIS_CODE":0,"TOWNNAME":"歸仁區","LI":"崙頂里","LIN":"26鄰","STREET":"成功十街","SECT":" ","MAREA":" ","LANE":"１３３巷","ALLEY":" ","HOUSE_NO":"１５號","E_COORD97":177744.23000000001,"N_COORD97":2539848.25,"ADDRESS":"成功十街１３３巷１５號","OBJECTID":357011},"geometry":{"x":177744.23000000231,"y":2539848.25}},{"attributes":{"ID":357021,"DIS_CODE":0,"TOWNNAME":"歸仁區","LI":"南保里","LIN":"26鄰","STREET":"民權六街","SECT":" ","MAREA":" ","LANE":"１８１巷","ALLEY":" ","HOUSE_NO":"１號","E_COORD97":176623.64000000001,"N_COORD97":2541083.29,"ADDRESS":"民權六街１８１巷１號","OBJECTID":357012},"geometry":{"x":176623.64000000153,"y":2541083.290000001}},{"attributes":{"ID":357022,"DIS_CODE":0,"TOWNNAME":"關廟區","LI":"香洋里","LIN":"26鄰","STREET":"民權街","SECT":" ","MAREA":" ","LANE":"２２８巷","ALLEY":" ","HOUSE_NO":"３２號","E_COORD97":181138.73999999999,"N_COORD97":2539837.29,"ADDRESS":"民權街２２８巷３２號","OBJECTID":357013},"geometry":{"x":181138.74000000022,"y":2539837.2899999991}},{"attributes":{"ID":357023,"DIS_CODE":0,"TOWNNAME":"關廟區","LI":"香洋里","LIN":"26鄰","STREET":"民權街","SECT":" ","MAREA":" ","LANE":"２２８巷","ALLEY":" ","HOUSE_NO":"２７號","E_COORD97":181126.14000000001,"N_COORD97":2539838.29,"ADDRESS":"民權街２２８巷２７號","OBJECTID":357014},"geometry":{"x":181126.1400000006,"y":2539838.290000001}},{"attributes":{"ID":357024,"DIS_CODE":0,"TOWNNAME":"關廟區","LI":"香洋里","LIN":"26鄰","STREET":"民權街","SECT":" ","MAREA":" ","LANE":"２２８巷","ALLEY":" ","HOUSE_NO":"２２號","E_COORD97":181143.04000000001,"N_COORD97":2539821.29,"ADDRESS":"民權街２２８巷２２號","OBJECTID":357015},"geometry":{"x":181143.04000000097,"y":2539821.290000001}},{"attributes":{"ID":357025,"DIS_CODE":0,"TOWNNAME":"南區","LI":"府南里","LIN":"26鄰","STREET":"大成路","SECT":"二段","MAREA":" ","LANE":"８１巷","ALLEY":" ","HOUSE_NO":"４２號","E_COORD97":167373.67000000001,"N_COORD97":2541627.29,"ADDRESS":"大成路二段８１巷４２號","OBJECTID":357016},"geometry":{"x":167373.67000000086,"y":2541627.2899999991}},{"attributes":{"ID":357026,"DIS_CODE":0,"TOWNNAME":"南區","LI":"府南里","LIN":"26鄰","STREET":"大成路","SECT":"二段","MAREA":" ","LANE":"８１巷","ALLEY":" ","HOUSE_NO":"４６號","E_COORD97":167368.37,"N_COORD97":2541629.75,"ADDRESS":"大成路二段８１巷４６號","OBJECTID":357017},"geometry":{"x":167368.37000000197,"y":2541629.7500000019}},{"attributes":{"ID":357027,"DIS_CODE":0,"TOWNNAME":"南區","LI":"府南里","LIN":"26鄰","STREET":"大成路","SECT":"二段","MAREA":" ","LANE":"８１巷","ALLEY":" ","HOUSE_NO":"４８號","E_COORD97":167362.57999999999,"N_COORD97":2541632,"ADDRESS":"大成路二段８１巷４８號","OBJECTID":357018},"geometry":{"x":167362.58000000101,"y":2541632.0000000019}},{"attributes":{"ID":357028,"DIS_CODE":0,"TOWNNAME":"永康區","LI":"六合里","LIN":"30鄰","STREET":"中華二路","SECT":" ","MAREA":" ","LANE":"２６６巷","ALLEY":" ","HOUSE_NO":"１０號","E_COORD97":171393.92999999999,"N_COORD97":2545466.2400000002,"ADDRESS":"中華二路２６６巷１０號","OBJECTID":357019},"geometry":{"x":171393.93000000063,"y":2545466.2400000002}},{"attributes":{"ID":357029,"DIS_CODE":0,"TOWNNAME":"永康區","LI":"六合里","LIN":"30鄰","STREET":"中華二路","SECT":" ","MAREA":" ","LANE":"２６６巷","ALLEY":" ","HOUSE_NO":"２６號","E_COORD97":171379.34,"N_COORD97":2545500.25,"ADDRESS":"中華二路２６６巷２６號","OBJECTID":357020},"geometry":{"x":171379.34000000078,"y":2545500.25}},{"attributes":{"ID":357030,"DIS_CODE":0,"TOWNNAME":"永康區","LI":"六合里","LIN":"30鄰","STREET":"中華二路","SECT":" ","MAREA":" ","LANE":"２６６巷","ALLEY":" ","HOUSE_NO":"２８號","E_COORD97":171377.48999999999,"N_COORD97":2545503.75,"ADDRESS":"中華二路２６６巷２８號","OBJECTID":357021},"geometry":{"x":171377.49000000115,"y":2545503.75}},{"attributes":{"ID":357031,"DIS_CODE":0,"TOWNNAME":"永康區","LI":"六合里","LIN":"30鄰","STREET":"中華二路","SECT":" ","MAREA":" ","LANE":"２６６巷","ALLEY":" ","HOUSE_NO":"２號","E_COORD97":171392.92999999999,"N_COORD97":2545453.2400000002,"ADDRESS":"中華二路２６６巷２號","OBJECTID":357022},"geometry":{"x":171392.9299999997,"y":2545453.2400000002}},{"attributes":{"ID":357032,"DIS_CODE":0,"TOWNNAME":"永康區","LI":"六合里","LIN":"30鄰","STREET":"中華二路","SECT":" ","MAREA":" ","LANE":"２６６巷","ALLEY":" ","HOUSE_NO":"３０號","E_COORD97":171375.57999999999,"N_COORD97":2545506.75,"ADDRESS":"中華二路２６６巷３０號","OBJECTID":357023},"geometry":{"x":171375.58000000007,"y":2545506.75}},{"attributes":{"ID":357033,"DIS_CODE":0,"TOWNNAME":"永康區","LI":"六合里","LIN":"30鄰","STREET":"中華二路","SECT":" ","MAREA":" ","LANE":"２６６巷","ALLEY":" ","HOUSE_NO":"３２號","E_COORD97":171373.45000000001,"N_COORD97":2545510,"ADDRESS":"中華二路２６６巷３２號","OBJECTID":357024},"geometry":{"x":171373.45000000019,"y":2545510.0000000019}},{"attributes":{"ID":357034,"DIS_CODE":0,"TOWNNAME":"永康區","LI":"六合里","LIN":"30鄰","STREET":"中華二路","SECT":" ","MAREA":" ","LANE":"２６６巷","ALLEY":" ","HOUSE_NO":"３６號","E_COORD97":171369.79000000001,"N_COORD97":2545516.75,"ADDRESS":"中華二路２６６巷３６號","OBJECTID":357025},"geometry":{"x":171369.79000000097,"y":2545516.75}},{"attributes":{"ID":357035,"DIS_CODE":0,"TOWNNAME":"東區","LI":"自強里","LIN":"8鄰","STREET":"東門路","SECT":"三段","MAREA":" ","LANE":" ","ALLEY":" ","HOUSE_NO":"１５號二十一樓之１","E_COORD97":171070.75,"N_COORD97":2542365.1800000002,"ADDRESS":"東門路三段１５號二十一樓之１","OBJECTID":357026},"geometry":{"x":171070.75,"y":2542365.1800000016}},{"attributes":{"ID":357036,"DIS_CODE":0,"TOWNNAME":"東區","LI":"自強里","LIN":"8鄰","STREET":"東門路","SECT":"三段","MAREA":" ","LANE":" ","ALLEY":" ","HOUSE_NO":"１５號二十一樓之２","E_COORD97":171070.75,"N_COORD97":2542365.1800000002,"ADDRESS":"東門路三段１５號二十一樓之２","OBJECTID":357027},"geometry":{"x":171070.75,"y":2542365.1800000016}},{"attributes":{"ID":357037,"DIS_CODE":0,"TOWNNAME":"東區","LI":"自強里","LIN":"8鄰","STREET":"東門路","SECT":"三段","MAREA":" ","LANE":" ","ALLEY":" ","HOUSE_NO":"１５號二十一樓之３","E_COORD97":171070.75,"N_COORD97":2542365.1800000002,"ADDRESS":"東門路三段１５號二十一樓之３","OBJECTID":357028},"geometry":{"x":171070.75,"y":2542365.1800000016}},{"attributes":{"ID":357038,"DIS_CODE":0,"TOWNNAME":"東區","LI":"自強里","LIN":"8鄰","STREET":"東門路","SECT":"三段","MAREA":" ","LANE":" ","ALLEY":" ","HOUSE_NO":"１５號二十二樓","E_COORD97":171070.75,"N_COORD97":2542365.1800000002,"ADDRESS":"東門路三段１５號二十二樓","OBJECTID":357029},"geometry":{"x":171070.75,"y":2542365.1800000016}},{"attributes":{"ID":357039,"DIS_CODE":0,"TOWNNAME":"東區","LI":"自強里","LIN":"8鄰","STREET":"東門路","SECT":"三段","MAREA":" ","LANE":" ","ALLEY":" ","HOUSE_NO":"１５號二十二樓之１","E_COORD97":171070.75,"N_COORD97":2542365.1800000002,"ADDRESS":"東門路三段１５號二十二樓之１","OBJECTID":357030},"geometry":{"x":171070.75,"y":2542365.1800000016}},{"attributes":{"ID":357040,"DIS_CODE":0,"TOWNNAME":"東區","LI":"自強里","LIN":"8鄰","STREET":"東門路","SECT":"三段","MAREA":" ","LANE":" ","ALLEY":" ","HOUSE_NO":"１５號二十二樓之２","E_COORD97":171070.75,"N_COORD97":2542365.1800000002,"ADDRESS":"東門路三段１５號二十二樓之２","OBJECTID":357031},"geometry":{"x":171070.75,"y":2542365.1800000016}},{"attributes":{"ID":357041,"DIS_CODE":0,"TOWNNAME":"東區","LI":"自強里","LIN":"8鄰","STREET":"東門路","SECT":"三段","MAREA":" ","LANE":" ","ALLEY":" ","HOUSE_NO":"１５號二十二樓之３","E_COORD97":171070.75,"N_COORD97":2542365.1800000002,"ADDRESS":"東門路三段１５號二十二樓之３","OBJECTID":357032},"geometry":{"x":171070.75,"y":2542365.1800000016}},{"attributes":{"ID":357042,"DIS_CODE":0,"TOWNNAME":"歸仁區","LI":"許厝里","LIN":"26鄰","STREET":"信義北路","SECT":" ","MAREA":" ","LANE":" ","ALLEY":" ","HOUSE_NO":"４６號","E_COORD97":178000.82999999999,"N_COORD97":2540839.23,"ADDRESS":"信義北路４６號","OBJECTID":357033},"geometry":{"x":178000.83000000194,"y":2540839.2300000004}},{"attributes":{"ID":357043,"DIS_CODE":0,"TOWNNAME":"北區","LI":"成德里","LIN":"26鄰","STREET":"育德路","SECT":" ","MAREA":" ","LANE":"２２１巷","ALLEY":" ","HOUSE_NO":"４６號","E_COORD97":168495.45999999999,"N_COORD97":2545771.77,"ADDRESS":"育德路２２１巷４６號","OBJECTID":357034},"geometry":{"x":168495.46000000089,"y":2545771.7700000014}},{"attributes":{"ID":357044,"DIS_CODE":0,"TOWNNAME":"東山區","LI":"東山里","LIN":"26鄰","STREET":" ","SECT":" ","MAREA":"東山","LANE":" ","ALLEY":" ","HOUSE_NO":"４４６號","E_COORD97":188754.70000000001,"N_COORD97":2580323.96,"ADDRESS":"東山４４６號","OBJECTID":357035},"geometry":{"x":188754.70000000112,"y":2580323.9600000028}},{"attributes":{"ID":357045,"DIS_CODE":0,"TOWNNAME":"北區","LI":"成德里","LIN":"26鄰","STREET":"育德路","SECT":" ","MAREA":" ","LANE":"２２１巷","ALLEY":" ","HOUSE_NO":"４８號","E_COORD97":168488.95000000001,"N_COORD97":2545771.77,"ADDRESS":"育德路２２１巷４８號","OBJECTID":357036},"geometry":{"x":168488.95000000112,"y":2545771.7700000014}},{"attributes":{"ID":357046,"DIS_CODE":0,"TOWNNAME":"永康區","LI":"六合里","LIN":"30鄰","STREET":"中華二路","SECT":" ","MAREA":" ","LANE":"２６６巷","ALLEY":" ","HOUSE_NO":"４０號","E_COORD97":171365.95000000001,"N_COORD97":2545523.25,"ADDRESS":"中華二路２６６巷４０號","OBJECTID":357037},"geometry":{"x":171365.95000000112,"y":2545523.25}},{"attributes":{"ID":357047,"DIS_CODE":0,"TOWNNAME":"永康區","LI":"六合里","LIN":"30鄰","STREET":"中華二路","SECT":" ","MAREA":" ","LANE":"２６６巷","ALLEY":" ","HOUSE_NO":"４２號","E_COORD97":171364.14000000001,"N_COORD97":2545526.4900000002,"ADDRESS":"中華二路２６６巷４２號","OBJECTID":357038},"geometry":{"x":171364.1400000006,"y":2545526.4900000039}},{"attributes":{"ID":357048,"DIS_CODE":0,"TOWNNAME":"永康區","LI":"六合里","LIN":"30鄰","STREET":"中華二路","SECT":" ","MAREA":" ","LANE":"２６６巷","ALLEY":" ","HOUSE_NO":"６號","E_COORD97":171392.82999999999,"N_COORD97":2545457.9900000002,"ADDRESS":"中華二路２６６巷６號","OBJECTID":357039},"geometry":{"x":171392.83000000007,"y":2545457.9900000002}},{"attributes":{"ID":357049,"DIS_CODE":0,"TOWNNAME":"永康區","LI":"六合里","LIN":"30鄰","STREET":"中華二路","SECT":" ","MAREA":" ","LANE":"２６６巷","ALLEY":" ","HOUSE_NO":"８號","E_COORD97":171392.82999999999,"N_COORD97":2545461.9900000002,"ADDRESS":"中華二路２６６巷８號","OBJECTID":357040},"geometry":{"x":171392.83000000007,"y":2545461.9900000039}},{"attributes":{"ID":357050,"DIS_CODE":0,"TOWNNAME":"永康區","LI":"埔園里","LIN":"30鄰","STREET":"八德街","SECT":" ","MAREA":" ","LANE":"１８１巷","ALLEY":" ","HOUSE_NO":"１３號","E_COORD97":173857.04000000001,"N_COORD97":2548471.2799999998,"ADDRESS":"八德街１８１巷１３號","OBJECTID":357041},"geometry":{"x":173857.04000000097,"y":2548471.2800000012}},{"attributes":{"ID":357051,"DIS_CODE":0,"TOWNNAME":"永康區","LI":"埔園里","LIN":"30鄰","STREET":"八德街","SECT":" ","MAREA":" ","LANE":"１８１巷","ALLEY":" ","HOUSE_NO":"４２號","E_COORD97":173831.07000000001,"N_COORD97":2548434.4100000001,"ADDRESS":"八德街１８１巷４２號","OBJECTID":357042},"geometry":{"x":173831.07000000216,"y":2548434.4100000001}},{"attributes":{"ID":357052,"DIS_CODE":0,"TOWNNAME":"永康區","LI":"埔園里","LIN":"30鄰","STREET":"八德街","SECT":" ","MAREA":" ","LANE":"１８１巷","ALLEY":" ","HOUSE_NO":"４６號","E_COORD97":173831.44,"N_COORD97":2548428.6499999999,"ADDRESS":"八德街１８１巷４６號","OBJECTID":357043},"geometry":{"x":173831.44000000041,"y":2548428.6500000022}},{"attributes":{"ID":357053,"DIS_CODE":0,"TOWNNAME":"永康區","LI":"埔園里","LIN":"30鄰","STREET":"八德街","SECT":" ","MAREA":" ","LANE":"１８１巷","ALLEY":" ","HOUSE_NO":"４８號","E_COORD97":173832.23999999999,"N_COORD97":2548423.73,"ADDRESS":"八德街１８１巷４８號","OBJECTID":357044},"geometry":{"x":173832.24000000115,"y":2548423.7299999986}},{"attributes":{"ID":357054,"DIS_CODE":0,"TOWNNAME":"永康區","LI":"西勢里","LIN":"2鄰","STREET":"西勢路","SECT":" ","MAREA":" ","LANE":"２７０巷","ALLEY":" ","HOUSE_NO":"５號","E_COORD97":175589.13,"N_COORD97":2546826.9399999999,"ADDRESS":"西勢路２７０巷５號","OBJECTID":357045},"geometry":{"x":175589.12999999989,"y":2546826.9399999995}},{"attributes":{"ID":357055,"DIS_CODE":0,"TOWNNAME":"永康區","LI":"埔園里","LIN":"30鄰","STREET":"八德街","SECT":" ","MAREA":" ","LANE":"１８１巷","ALLEY":" ","HOUSE_NO":"５０號","E_COORD97":173834.14000000001,"N_COORD97":2548415.48,"ADDRESS":"八德街１８１巷５０號","OBJECTID":357046},"geometry":{"x":173834.13999999966,"y":2548415.4800000042}},{"attributes":{"ID":357056,"DIS_CODE":0,"TOWNNAME":"永康區","LI":"\u25A0行里","LIN":"30鄰","STREET":"中正北路","SECT":" ","MAREA":" ","LANE":"３１８巷","ALLEY":" ","HOUSE_NO":"３之２號","E_COORD97":172993.76000000001,"N_COORD97":2549048.71,"ADDRESS":"中正北路３１８巷３之２號","OBJECTID":357047},"geometry":{"x":172993.76000000071,"y":2549048.7100000028}},{"attributes":{"ID":357057,"DIS_CODE":0,"TOWNNAME":"永康區","LI":"埔園里","LIN":"30鄰","STREET":"龍埔街","SECT":" ","MAREA":" ","LANE":"４３６巷","ALLEY":" ","HOUSE_NO":"３２號","E_COORD97":173910.03,"N_COORD97":2548426.5600000001,"ADDRESS":"龍埔街４３６巷３２號","OBJECTID":357048},"geometry":{"x":173910.03000000119,"y":2548426.5600000024}},{"attributes":{"ID":357058,"DIS_CODE":0,"TOWNNAME":"永康區","LI":"埔園里","LIN":"30鄰","STREET":"龍埔街","SECT":" ","MAREA":" ","LANE":"４３６巷","ALLEY":" ","HOUSE_NO":"３０號","E_COORD97":173907.82999999999,"N_COORD97":2548422.4500000002,"ADDRESS":"龍埔街４３６巷３０號","OBJECTID":357049},"geometry":{"x":173907.83000000007,"y":2548422.4500000011}},{"attributes":{"ID":357059,"DIS_CODE":0,"TOWNNAME":"永康區","LI":"埔園里","LIN":"30鄰","STREET":"龍埔街","SECT":" ","MAREA":" ","LANE":"４３６巷","ALLEY":" ","HOUSE_NO":"２８號","E_COORD97":173907.26999999999,"N_COORD97":2548418.3900000001,"ADDRESS":"龍埔街４３６巷２８號","OBJECTID":357050},"geometry":{"x":173907.27000000048,"y":2548418.3900000006}},{"attributes":{"ID":357060,"DIS_CODE":0,"TOWNNAME":"永康區","LI":"埔園里","LIN":"30鄰","STREET":"龍埔街","SECT":" ","MAREA":" ","LANE":"４３６巷","ALLEY":" ","HOUSE_NO":"２６號","E_COORD97":173906.70000000001,"N_COORD97":2548414.29,"ADDRESS":"龍埔街４３６巷２６號","OBJECTID":357051},"geometry":{"x":173906.70000000112,"y":2548414.2899999991}},{"attributes":{"ID":357061,"DIS_CODE":0,"TOWNNAME":"東區","LI":"自強里","LIN":"8鄰","STREET":"東門路","SECT":"三段","MAREA":" ","LANE":" ","ALLEY":" ","HOUSE_NO":"１５號二十三樓","E_COORD97":171070.75,"N_COORD97":2542365.1800000002,"ADDRESS":"東門路三段１５號二十三樓","OBJECTID":357052},"geometry":{"x":171070.75,"y":2542365.1800000016}},{"attributes":{"ID":357062,"DIS_CODE":0,"TOWNNAME":"東區","LI":"自強里","LIN":"8鄰","STREET":"東門路","SECT":"三段","MAREA":" ","LANE":" ","ALLEY":" ","HOUSE_NO":"１５號二十三樓之１","E_COORD97":171070.75,"N_COORD97":2542365.1800000002,"ADDRESS":"東門路三段１５號二十三樓之１","OBJECTID":357053},"geometry":{"x":171070.75,"y":2542365.1800000016}},{"attributes":{"ID":357063,"DIS_CODE":0,"TOWNNAME":"北區","LI":"大港里","LIN":"26鄰","STREET":"賢北街","SECT":" ","MAREA":" ","LANE":"１７０巷","ALLEY":" ","HOUSE_NO":"１０號","E_COORD97":166216.25,"N_COORD97":2545689.3300000001,"ADDRESS":"賢北街１７０巷１０號","OBJECTID":357054},"geometry":{"x":166216.24999999907,"y":2545689.3300000001}},{"attributes":{"ID":357064,"DIS_CODE":0,"TOWNNAME":"永康區","LI":"埔園里","LIN":"30鄰","STREET":"龍埔街","SECT":" ","MAREA":" ","LANE":"４３６巷","ALLEY":" ","HOUSE_NO":"２０號","E_COORD97":173909.26000000001,"N_COORD97":2548403.1899999999,"ADDRESS":"龍埔街４３６巷２０號","OBJECTID":357055},"geometry":{"x":173909.26000000071,"y":2548403.1900000013}},{"attributes":{"ID":357065,"DIS_CODE":0,"TOWNNAME":"永康區","LI":"埔園里","LIN":"30鄰","STREET":"龍埔街","SECT":" ","MAREA":" ","LANE":"４３６巷","ALLEY":" ","HOUSE_NO":"１８號","E_COORD97":173911.70000000001,"N_COORD97":2548395.0600000001,"ADDRESS":"龍埔街４３６巷１８號","OBJECTID":357056},"geometry":{"x":173911.70000000112,"y":2548395.0600000024}},{"attributes":{"ID":357066,"DIS_CODE":0,"TOWNNAME":"歸仁區","LI":"崙頂里","LIN":"30鄰","STREET":"凱旋路","SECT":"二段","MAREA":" ","LANE":"１巷","ALLEY":" ","HOUSE_NO":"６７５號","E_COORD97":177332.23000000001,"N_COORD97":2538727.25,"ADDRESS":"凱旋路二段１巷６７５號","OBJECTID":357057},"geometry":{"x":177332.22999999952,"y":2538727.2500000019}},{"attributes":{"ID":357067,"DIS_CODE":0,"TOWNNAME":"歸仁區","LI":"崙頂里","LIN":"30鄰","STREET":"成功路","SECT":"二段","MAREA":" ","LANE":"２５９巷","ALLEY":" ","HOUSE_NO":"５０號","E_COORD97":177748.28,"N_COORD97":2539554.25,"ADDRESS":"成功路二段２５９巷５０號","OBJECTID":357058},"geometry":{"x":177748.28000000026,"y":2539554.2500000037}},{"attributes":{"ID":357068,"DIS_CODE":0,"TOWNNAME":"歸仁區","LI":"辜厝里","LIN":"30鄰","STREET":"大順三街","SECT":" ","MAREA":" ","LANE":"７８巷","ALLEY":" ","HOUSE_NO":"１２號","E_COORD97":177373.48000000001,"N_COORD97":2540470.9500000002,"ADDRESS":"大順三街７８巷１２號","OBJECTID":357059},"geometry":{"x":177373.48000000138,"y":2540470.950000003}},{"attributes":{"ID":357069,"DIS_CODE":0,"TOWNNAME":"安平區","LI":"育平里","LIN":"30鄰","STREET":"府平路","SECT":" ","MAREA":" ","LANE":"３８６巷","ALLEY":" ","HOUSE_NO":"３７號","E_COORD97":164606.48999999999,"N_COORD97":2543132.21,"ADDRESS":"府平路３８６巷３７號","OBJECTID":357060},"geometry":{"x":164606.49000000115,"y":2543132.2100000046}},{"attributes":{"ID":357070,"DIS_CODE":0,"TOWNNAME":"安平區","LI":"育平里","LIN":"30鄰","STREET":"府平路","SECT":" ","MAREA":" ","LANE":"３８６巷","ALLEY":" ","HOUSE_NO":"３９號","E_COORD97":164608.41,"N_COORD97":2543136.3500000001,"ADDRESS":"府平路３８６巷３９號","OBJECTID":357061},"geometry":{"x":164608.41000000201,"y":2543136.3499999978}},{"attributes":{"ID":357071,"DIS_CODE":0,"TOWNNAME":"安平區","LI":"育平里","LIN":"30鄰","STREET":"府平路","SECT":" ","MAREA":" ","LANE":"３８６巷","ALLEY":" ","HOUSE_NO":"４１號","E_COORD97":164610.04000000001,"N_COORD97":2543139.46,"ADDRESS":"府平路３８６巷４１號","OBJECTID":357062},"geometry":{"x":164610.04000000004,"y":2543139.4600000009}},{"attributes":{"ID":357072,"DIS_CODE":0,"TOWNNAME":"新營區","LI":"忠政里","LIN":"30鄰","STREET":"府西路","SECT":" ","MAREA":" ","LANE":"４７巷","ALLEY":" ","HOUSE_NO":"２１號","E_COORD97":179734.57000000001,"N_COORD97":2579022.9300000002,"ADDRESS":"府西路４７巷２１號","OBJECTID":357063},"geometry":{"x":179734.5700000003,"y":2579022.9299999997}},{"attributes":{"ID":357073,"DIS_CODE":0,"TOWNNAME":"新營區","LI":"大宏里","LIN":"30鄰","STREET":"開元路","SECT":" ","MAREA":" ","LANE":"３１巷","ALLEY":" ","HOUSE_NO":"１１之１號","E_COORD97":180774.84,"N_COORD97":2578626.73,"ADDRESS":"開元路３１巷１１之１號","OBJECTID":357064},"geometry":{"x":180774.83999999985,"y":2578626.7300000023}},{"attributes":{"ID":357074,"DIS_CODE":0,"TOWNNAME":"新營區","LI":"新南里","LIN":"30鄰","STREET":"明清三街","SECT":" ","MAREA":" ","LANE":"２９巷","ALLEY":" ","HOUSE_NO":"１９號","E_COORD97":178258.95000000001,"N_COORD97":2578785.9199999999,"ADDRESS":"明清三街２９巷１９號","OBJECTID":357065},"geometry":{"x":178258.95000000019,"y":2578785.9199999999}},{"attributes":{"ID":357075,"DIS_CODE":0,"TOWNNAME":"南區","LI":"開南里","LIN":"30鄰","STREET":"新建路","SECT":" ","MAREA":" ","LANE":"５７巷","ALLEY":" ","HOUSE_NO":"１１號","E_COORD97":166552.26999999999,"N_COORD97":2540669.8900000001,"ADDRESS":"新建路５７巷１１號","OBJECTID":357066},"geometry":{"x":166552.26999999955,"y":2540669.8900000025}},{"attributes":{"ID":357076,"DIS_CODE":0,"TOWNNAME":"南區","LI":"開南里","LIN":"30鄰","STREET":"新建路","SECT":" ","MAREA":" ","LANE":"５７巷","ALLEY":" ","HOUSE_NO":"１３號","E_COORD97":166570.79000000001,"N_COORD97":2540670.0299999998,"ADDRESS":"新建路５７巷１３號","OBJECTID":357067},"geometry":{"x":166570.79000000097,"y":2540670.0299999975}},{"attributes":{"ID":357077,"DIS_CODE":0,"TOWNNAME":"南區","LI":"開南里","LIN":"30鄰","STREET":"新建路","SECT":" ","MAREA":" ","LANE":"５７巷","ALLEY":" ","HOUSE_NO":"１５號","E_COORD97":166575.10999999999,"N_COORD97":2540670.3100000001,"ADDRESS":"新建路５７巷１５號","OBJECTID":357068},"geometry":{"x":166575.11000000034,"y":2540670.3100000024}},{"attributes":{"ID":357078,"DIS_CODE":0,"TOWNNAME":"南區","LI":"開南里","LIN":"30鄰","STREET":"新建路","SECT":" ","MAREA":" ","LANE":"５７巷","ALLEY":" ","HOUSE_NO":"１號","E_COORD97":166483.79999999999,"N_COORD97":2540670.1699999999,"ADDRESS":"新建路５７巷１號","OBJECTID":357069},"geometry":{"x":166483.80000000168,"y":2540670.1700000037}},{"attributes":{"ID":357079,"DIS_CODE":0,"TOWNNAME":"南區","LI":"開南里","LIN":"30鄰","STREET":"新建路","SECT":" ","MAREA":" ","LANE":"５７巷","ALLEY":" ","HOUSE_NO":"２號","E_COORD97":166480.04000000001,"N_COORD97":2540643.7200000002,"ADDRESS":"新建路５７巷２號","OBJECTID":357070},"geometry":{"x":166480.04000000004,"y":2540643.7200000025}},{"attributes":{"ID":357080,"DIS_CODE":0,"TOWNNAME":"南區","LI":"開南里","LIN":"30鄰","STREET":"新建路","SECT":" ","MAREA":" ","LANE":"５７巷","ALLEY":" ","HOUSE_NO":"３號","E_COORD97":166488.41,"N_COORD97":2540670.4500000002,"ADDRESS":"新建路５７巷３號","OBJECTID":357071},"geometry":{"x":166488.41000000201,"y":2540670.4499999974}},{"attributes":{"ID":357081,"DIS_CODE":0,"TOWNNAME":"南區","LI":"開南里","LIN":"30鄰","STREET":"新建路","SECT":" ","MAREA":" ","LANE":"５７巷","ALLEY":" ","HOUSE_NO":"４號","E_COORD97":166485.20000000001,"N_COORD97":2540643.5800000001,"ADDRESS":"新建路５７巷４號","OBJECTID":357072},"geometry":{"x":166485.20000000112,"y":2540643.5800000038}},{"attributes":{"ID":357082,"DIS_CODE":0,"TOWNNAME":"南區","LI":"開南里","LIN":"30鄰","STREET":"新建路","SECT":" ","MAREA":" ","LANE":"５７巷","ALLEY":" ","HOUSE_NO":"５號","E_COORD97":166507.23000000001,"N_COORD97":2540669.7599999998,"ADDRESS":"新建路５７巷５號","OBJECTID":357073},"geometry":{"x":166507.23000000138,"y":2540669.7600000016}},{"attributes":{"ID":357083,"DIS_CODE":0,"TOWNNAME":"歸仁區","LI":"辜厝里","LIN":"30鄰","STREET":"大順三街","SECT":" ","MAREA":" ","LANE":"７８巷","ALLEY":" ","HOUSE_NO":"１４號","E_COORD97":177369.38,"N_COORD97":2540470.9500000002,"ADDRESS":"大順三街７８巷１４號","OBJECTID":357074},"geometry":{"x":177369.37999999989,"y":2540470.950000003}},{"attributes":{"ID":357084,"DIS_CODE":0,"TOWNNAME":"歸仁區","LI":"南保里","LIN":"30鄰","STREET":"民權北路","SECT":" ","MAREA":" ","LANE":"６１巷","ALLEY":" ","HOUSE_NO":"３號","E_COORD97":176963.48999999999,"N_COORD97":2541016.29,"ADDRESS":"民權北路６１巷３號","OBJECTID":357075},"geometry":{"x":176963.49000000022,"y":2541016.2899999991}},{"attributes":{"ID":357085,"DIS_CODE":0,"TOWNNAME":"歸仁區","LI":"辜厝里","LIN":"30鄰","STREET":"大順三街","SECT":" ","MAREA":" ","LANE":"７８巷","ALLEY":" ","HOUSE_NO":"２號","E_COORD97":177389.63,"N_COORD97":2540469.9500000002,"ADDRESS":"大順三街７８巷２號","OBJECTID":357076},"geometry":{"x":177389.62999999989,"y":2540469.9499999993}},{"attributes":{"ID":357086,"DIS_CODE":0,"TOWNNAME":"歸仁區","LI":"辜厝里","LIN":"30鄰","STREET":"大順三街","SECT":" ","MAREA":" ","LANE":"７８巷","ALLEY":" ","HOUSE_NO":"８號","E_COORD97":177381.42999999999,"N_COORD97":2540469.9500000002,"ADDRESS":"大順三街７８巷８號","OBJECTID":357077},"geometry":{"x":177381.43000000063,"y":2540469.9499999993}},{"attributes":{"ID":357087,"DIS_CODE":0,"TOWNNAME":"歸仁區","LI":"崙頂里","LIN":"30鄰","STREET":"凱旋路","SECT":"二段","MAREA":" ","LANE":"１巷","ALLEY":" ","HOUSE_NO":"３５０號","E_COORD97":177427.13,"N_COORD97":2539260.25,"ADDRESS":"凱旋路二段１巷３５０號","OBJECTID":357078},"geometry":{"x":177427.12999999989,"y":2539260.2500000019}},{"attributes":{"ID":357088,"DIS_CODE":0,"TOWNNAME":"歸仁區","LI":"崙頂里","LIN":"30鄰","STREET":"凱旋路","SECT":"二段","MAREA":" ","LANE":"２１１巷","ALLEY":" ","HOUSE_NO":"１５號","E_COORD97":177057.88,"N_COORD97":2539300.25,"ADDRESS":"凱旋路二段２１１巷１５號","OBJECTID":357079},"geometry":{"x":177057.88000000175,"y":2539300.2500000019}},{"attributes":{"ID":357089,"DIS_CODE":0,"TOWNNAME":"北區","LI":"成德里","LIN":"30鄰","STREET":"立賢路","SECT":"一段","MAREA":" ","LANE":"６８２巷","ALLEY":" ","HOUSE_NO":"１號","E_COORD97":168215.88,"N_COORD97":2545589.1400000001,"ADDRESS":"立賢路一段６８２巷１號","OBJECTID":357080},"geometry":{"x":168215.88000000082,"y":2545589.1400000006}},{"attributes":{"ID":357090,"DIS_CODE":0,"TOWNNAME":"北區","LI":"成德里","LIN":"30鄰","STREET":"立賢路","SECT":"一段","MAREA":" ","LANE":"６８２巷","ALLEY":" ","HOUSE_NO":"３號","E_COORD97":168215.12,"N_COORD97":2545601.0699999998,"ADDRESS":"立賢路一段６８２巷３號","OBJECTID":357081},"geometry":{"x":168215.12000000104,"y":2545601.0700000022}},{"attributes":{"ID":357091,"DIS_CODE":0,"TOWNNAME":"玉井區","LI":"玉田里","LIN":"30鄰","STREET":"中華路","SECT":" ","MAREA":" ","LANE":"３８１巷","ALLEY":" ","HOUSE_NO":"２號","E_COORD97":195494.85000000001,"N_COORD97":2557589.2400000002,"ADDRESS":"中華路３８１巷２號","OBJECTID":357082},"geometry":{"x":195494.85000000056,"y":2557589.2400000021}},{"attributes":{"ID":357092,"DIS_CODE":0,"TOWNNAME":"玉井區","LI":"玉田里","LIN":"30鄰","STREET":"中華路","SECT":" ","MAREA":" ","LANE":"３８１巷","ALLEY":" ","HOUSE_NO":"６號","E_COORD97":195501.85000000001,"N_COORD97":2557595.25,"ADDRESS":"中華路３８１巷６號","OBJECTID":357083},"geometry":{"x":195501.85000000056,"y":2557595.2500000019}},{"attributes":{"ID":357093,"DIS_CODE":0,"TOWNNAME":"玉井區","LI":"玉田里","LIN":"30鄰","STREET":"仁愛街","SECT":" ","MAREA":" ","LANE":"２６巷","ALLEY":" ","HOUSE_NO":"２號","E_COORD97":195542.14000000001,"N_COORD97":2557637.2799999998,"ADDRESS":"仁愛街２６巷２號","OBJECTID":357084},"geometry":{"x":195542.1400000006,"y":2557637.2800000031}},{"attributes":{"ID":357094,"DIS_CODE":0,"TOWNNAME":"東區","LI":"自強里","LIN":"8鄰","STREET":"東門路","SECT":"三段","MAREA":" ","LANE":" ","ALLEY":" ","HOUSE_NO":"１５號二十樓","E_COORD97":171070.75,"N_COORD97":2542365.1800000002,"ADDRESS":"東門路三段１５號二十樓","OBJECTID":357085},"geometry":{"x":171070.75,"y":2542365.1800000016}},{"attributes":{"ID":357095,"DIS_CODE":0,"TOWNNAME":"新營區","LI":"新東里","LIN":"26鄰","STREET":"東興五街","SECT":" ","MAREA":" ","LANE":"２１巷","ALLEY":" ","HOUSE_NO":"１２號","E_COORD97":180700.70999999999,"N_COORD97":2579491.9300000002,"ADDRESS":"東興五街２１巷１２號","OBJECTID":357086},"geometry":{"x":180700.71000000089,"y":2579491.9300000016}},{"attributes":{"ID":357096,"DIS_CODE":0,"TOWNNAME":"鹽水區","LI":"岸內里","LIN":"26鄰","STREET":" ","SECT":" ","MAREA":"新岸內","LANE":" ","ALLEY":" ","HOUSE_NO":"１之３５號","E_COORD97":174376.29999999999,"N_COORD97":2580453.8500000001,"ADDRESS":"新岸內１之３５號","OBJECTID":357087},"geometry":{"x":174376.29999999981,"y":2580453.8499999996}},{"attributes":{"ID":357097,"DIS_CODE":0,"TOWNNAME":"歸仁區","LI":"六甲里","LIN":"30鄰","STREET":"民生十二街","SECT":" ","MAREA":" ","LANE":"１１５巷","ALLEY":" ","HOUSE_NO":"５２號","E_COORD97":175766.35000000001,"N_COORD97":2539338.7999999998,"ADDRESS":"民生十二街１１５巷５２號","OBJECTID":357088},"geometry":{"x":175766.35000000056,"y":2539338.8000000026}},{"attributes":{"ID":357098,"DIS_CODE":0,"TOWNNAME":"鹽水區","LI":"岸內里","LIN":"26鄰","STREET":" ","SECT":" ","MAREA":"新岸內","LANE":" ","ALLEY":" ","HOUSE_NO":"１之３７號","E_COORD97":174364.89999999999,"N_COORD97":2580455.2999999998,"ADDRESS":"新岸內１之３７號","OBJECTID":357089},"geometry":{"x":174364.9000000013,"y":2580455.3000000007}},{"attributes":{"ID":357099,"DIS_CODE":0,"TOWNNAME":"鹽水區","LI":"岸內里","LIN":"26鄰","STREET":" ","SECT":" ","MAREA":"新岸內","LANE":" ","ALLEY":" ","HOUSE_NO":"１之３９號","E_COORD97":174369.44,"N_COORD97":2580469.0099999998,"ADDRESS":"新岸內１之３９號","OBJECTID":357090},"geometry":{"x":174369.44000000227,"y":2580469.0099999998}},{"attributes":{"ID":357100,"DIS_CODE":0,"TOWNNAME":"鹽水區","LI":"岸內里","LIN":"26鄰","STREET":" ","SECT":" ","MAREA":"新岸內","LANE":" ","ALLEY":" ","HOUSE_NO":"１之４０號","E_COORD97":174368.72,"N_COORD97":2580472.7799999998,"ADDRESS":"新岸內１之４０號","OBJECTID":357091},"geometry":{"x":174368.72000000067,"y":2580472.7800000012}},{"attributes":{"ID":357101,"DIS_CODE":0,"TOWNNAME":"鹽水區","LI":"岸內里","LIN":"26鄰","STREET":" ","SECT":" ","MAREA":"新岸內","LANE":" ","ALLEY":" ","HOUSE_NO":"１之４１號","E_COORD97":174368.35999999999,"N_COORD97":2580477.0499999998,"ADDRESS":"新岸內１之４１號","OBJECTID":357092},"geometry":{"x":174368.36000000127,"y":2580477.0500000007}},{"attributes":{"ID":357102,"DIS_CODE":0,"TOWNNAME":"鹽水區","LI":"岸內里","LIN":"26鄰","STREET":" ","SECT":" ","MAREA":"新岸內","LANE":" ","ALLEY":" ","HOUSE_NO":"１之４２號","E_COORD97":174368.09,"N_COORD97":2580481.1499999999,"ADDRESS":"新岸內１之４２號","OBJECTID":357093},"geometry":{"x":174368.09000000078,"y":2580481.1500000022}},{"attributes":{"ID":357103,"DIS_CODE":0,"TOWNNAME":"鹽水區","LI":"岸內里","LIN":"26鄰","STREET":" ","SECT":" ","MAREA":"新岸內","LANE":" ","ALLEY":" ","HOUSE_NO":"１之４３號","E_COORD97":174367.82999999999,"N_COORD97":2580485.3300000001,"ADDRESS":"新岸內１之４３號","OBJECTID":357094},"geometry":{"x":174367.83000000007,"y":2580485.3300000001}},{"attributes":{"ID":357104,"DIS_CODE":0,"TOWNNAME":"鹽水區","LI":"岸內里","LIN":"26鄰","STREET":" ","SECT":" ","MAREA":"新岸內","LANE":" ","ALLEY":" ","HOUSE_NO":"１號之４３","E_COORD97":174367.82999999999,"N_COORD97":2580485.3300000001,"ADDRESS":"新岸內１號之４３","OBJECTID":357095},"geometry":{"x":174367.83000000007,"y":2580485.3300000001}},{"attributes":{"ID":357105,"DIS_CODE":0,"TOWNNAME":"永康區","LI":"南灣里","LIN":"1鄰","STREET":"大灣路","SECT":" ","MAREA":" ","LANE":" ","ALLEY":" ","HOUSE_NO":"４２５號","E_COORD97":174710.72,"N_COORD97":2544803.6600000001,"ADDRESS":"大灣路４２５號","OBJECTID":357096},"geometry":{"x":174710.71999999974,"y":2544803.660000002}},{"attributes":{"ID":357106,"DIS_CODE":0,"TOWNNAME":"南區","LI":"大忠里","LIN":"26鄰","STREET":"國民路","SECT":" ","MAREA":" ","LANE":"２３８巷","ALLEY":" ","HOUSE_NO":"１０號","E_COORD97":169077.25,"N_COORD97":2541036.4500000002,"ADDRESS":"國民路２３８巷１０號","OBJECTID":357097},"geometry":{"x":169077.25,"y":2541036.4499999993}},{"attributes":{"ID":357107,"DIS_CODE":0,"TOWNNAME":"南區","LI":"大忠里","LIN":"26鄰","STREET":"國民路","SECT":" ","MAREA":" ","LANE":"２３８巷","ALLEY":" ","HOUSE_NO":"１１號","E_COORD97":169068.70999999999,"N_COORD97":2541055.6499999999,"ADDRESS":"國民路２３８巷１１號","OBJECTID":357098},"geometry":{"x":169068.71000000089,"y":2541055.6500000004}},{"attributes":{"ID":357108,"DIS_CODE":0,"TOWNNAME":"鹽水區","LI":"岸內里","LIN":"26鄰","STREET":" ","SECT":" ","MAREA":"新岸內","LANE":" ","ALLEY":" ","HOUSE_NO":"１之４４號","E_COORD97":174367.06,"N_COORD97":2580489.2599999998,"ADDRESS":"新岸內１之４４號","OBJECTID":357099},"geometry":{"x":174367.05999999959,"y":2580489.2600000035}},{"attributes":{"ID":357109,"DIS_CODE":0,"TOWNNAME":"鹽水區","LI":"岸內里","LIN":"26鄰","STREET":" ","SECT":" ","MAREA":"新岸內","LANE":" ","ALLEY":" ","HOUSE_NO":"１之４５號","E_COORD97":174366.60999999999,"N_COORD97":2580493.1400000001,"ADDRESS":"新岸內１之４５號","OBJECTID":357100},"geometry":{"x":174366.61000000127,"y":2580493.1400000006}},{"attributes":{"ID":357110,"DIS_CODE":0,"TOWNNAME":"鹽水區","LI":"岸內里","LIN":"26鄰","STREET":" ","SECT":" ","MAREA":"新岸內","LANE":" ","ALLEY":" ","HOUSE_NO":"１之４６號","E_COORD97":174366.16,"N_COORD97":2580497.2799999998,"ADDRESS":"新岸內１之４６號","OBJECTID":357101},"geometry":{"x":174366.16000000108,"y":2580497.2799999993}},{"attributes":{"ID":357111,"DIS_CODE":0,"TOWNNAME":"鹽水區","LI":"岸內里","LIN":"26鄰","STREET":" ","SECT":" ","MAREA":"新岸內","LANE":" ","ALLEY":" ","HOUSE_NO":"１之４７號","E_COORD97":174365.72,"N_COORD97":2580501.6200000001,"ADDRESS":"新岸內１之４７號","OBJECTID":357102},"geometry":{"x":174365.72000000067,"y":2580501.6200000048}},{"attributes":{"ID":357112,"DIS_CODE":0,"TOWNNAME":"鹽水區","LI":"岸內里","LIN":"26鄰","STREET":" ","SECT":" ","MAREA":"新岸內","LANE":" ","ALLEY":" ","HOUSE_NO":"１號之４８","E_COORD97":174365.59,"N_COORD97":2580505.5,"ADDRESS":"新岸內１號之４８","OBJECTID":357103},"geometry":{"x":174365.58999999985,"y":2580505.5000000019}},{"attributes":{"ID":357113,"DIS_CODE":0,"TOWNNAME":"鹽水區","LI":"岸內里","LIN":"26鄰","STREET":" ","SECT":" ","MAREA":"新岸內","LANE":" ","ALLEY":" ","HOUSE_NO":"１之４９號","E_COORD97":174365.07999999999,"N_COORD97":2580509.6099999999,"ADDRESS":"新岸內１之４９號","OBJECTID":357104},"geometry":{"x":174365.08000000101,"y":2580509.6099999994}},{"attributes":{"ID":357114,"DIS_CODE":0,"TOWNNAME":"鹽水區","LI":"岸內里","LIN":"26鄰","STREET":" ","SECT":" ","MAREA":"新岸內","LANE":" ","ALLEY":" ","HOUSE_NO":"１號之４９","E_COORD97":174365.07999999999,"N_COORD97":2580509.6099999999,"ADDRESS":"新岸內１號之４９","OBJECTID":357105},"geometry":{"x":174365.08000000101,"y":2580509.6099999994}},{"attributes":{"ID":357115,"DIS_CODE":0,"TOWNNAME":"鹽水區","LI":"岸內里","LIN":"26鄰","STREET":" ","SECT":" ","MAREA":"新岸內","LANE":" ","ALLEY":" ","HOUSE_NO":"１之４號","E_COORD97":174521.17000000001,"N_COORD97":2580373.6899999999,"ADDRESS":"新岸內１之４號","OBJECTID":357106},"geometry":{"x":174521.16999999993,"y":2580373.6899999995}},{"attributes":{"ID":357116,"DIS_CODE":0,"TOWNNAME":"鹽水區","LI":"岸內里","LIN":"26鄰","STREET":" ","SECT":" ","MAREA":"新岸內","LANE":" ","ALLEY":" ","HOUSE_NO":"１之５０號","E_COORD97":174365.03,"N_COORD97":2580514.0499999998,"ADDRESS":"新岸內１之５０號","OBJECTID":357107},"geometry":{"x":174365.03000000026,"y":2580514.0500000007}},{"attributes":{"ID":357117,"DIS_CODE":0,"TOWNNAME":"鹽水區","LI":"岸內里","LIN":"26鄰","STREET":" ","SECT":" ","MAREA":"新岸內","LANE":" ","ALLEY":" ","HOUSE_NO":"１號之５１","E_COORD97":174364.67000000001,"N_COORD97":2580518.0699999998,"ADDRESS":"新岸內１號之５１","OBJECTID":357108},"geometry":{"x":174364.67000000086,"y":2580518.070000004}},{"attributes":{"ID":357118,"DIS_CODE":0,"TOWNNAME":"鹽水區","LI":"岸內里","LIN":"26鄰","STREET":" ","SECT":" ","MAREA":"新岸內","LANE":" ","ALLEY":" ","HOUSE_NO":"１之５２號","E_COORD97":174364.35999999999,"N_COORD97":2580522.3500000001,"ADDRESS":"新岸內１之５２號","OBJECTID":357109},"geometry":{"x":174364.36000000034,"y":2580522.3500000034}},{"attributes":{"ID":357119,"DIS_CODE":0,"TOWNNAME":"鹽水區","LI":"岸內里","LIN":"26鄰","STREET":" ","SECT":" ","MAREA":"新岸內","LANE":" ","ALLEY":" ","HOUSE_NO":"１之５３號","E_COORD97":174364.07999999999,"N_COORD97":2580526.5699999998,"ADDRESS":"新岸內１之５３號","OBJECTID":357110},"geometry":{"x":174364.08000000007,"y":2580526.5700000022}},{"attributes":{"ID":357120,"DIS_CODE":0,"TOWNNAME":"新營區","LI":"王公里","LIN":"30鄰","STREET":"民族路","SECT":" ","MAREA":" ","LANE":"２６８巷","ALLEY":" ","HOUSE_NO":"４號","E_COORD97":180417.53,"N_COORD97":2579554.1600000001,"ADDRESS":"民族路２６８巷４號","OBJECTID":357111},"geometry":{"x":180417.53000000119,"y":2579554.1600000001}},{"attributes":{"ID":357121,"DIS_CODE":0,"TOWNNAME":"新營區","LI":"王公里","LIN":"30鄰","STREET":"民族路","SECT":" ","MAREA":" ","LANE":"２６８巷","ALLEY":" ","HOUSE_NO":"３０號","E_COORD97":180476.03,"N_COORD97":2579545.0299999998,"ADDRESS":"民族路２６８巷３０號","OBJECTID":357112},"geometry":{"x":180476.03000000026,"y":2579545.0300000012}},{"attributes":{"ID":357122,"DIS_CODE":0,"TOWNNAME":"新營區","LI":"民榮里","LIN":"30鄰","STREET":"太子路","SECT":" ","MAREA":" ","LANE":"４４巷","ALLEY":" ","HOUSE_NO":"３２號","E_COORD97":178133.72,"N_COORD97":2578044.54,"ADDRESS":"太子路４４巷３２號","OBJECTID":357113},"geometry":{"x":178133.72000000067,"y":2578044.5399999991}},{"attributes":{"ID":357123,"DIS_CODE":0,"TOWNNAME":"新營區","LI":"王公里","LIN":"30鄰","STREET":"民族路","SECT":" ","MAREA":" ","LANE":"２６８巷","ALLEY":" ","HOUSE_NO":"３２號","E_COORD97":180481.13,"N_COORD97":2579543.8900000001,"ADDRESS":"民族路２６８巷３２號","OBJECTID":357114},"geometry":{"x":180481.13000000082,"y":2579543.8900000025}},{"attributes":{"ID":357124,"DIS_CODE":0,"TOWNNAME":"新營區","LI":"王公里","LIN":"30鄰","STREET":"民族路","SECT":" ","MAREA":" ","LANE":"２６８巷","ALLEY":" ","HOUSE_NO":"１５號","E_COORD97":180464.5,"N_COORD97":2579569.23,"ADDRESS":"民族路２６８巷１５號","OBJECTID":357115},"geometry":{"x":180464.50000000186,"y":2579569.2300000023}},{"attributes":{"ID":357125,"DIS_CODE":0,"TOWNNAME":"東區","LI":"自強里","LIN":"8鄰","STREET":"東門路","SECT":"三段","MAREA":" ","LANE":" ","ALLEY":" ","HOUSE_NO":"１５號二十樓之１","E_COORD97":171070.75,"N_COORD97":2542365.1800000002,"ADDRESS":"東門路三段１５號二十樓之１","OBJECTID":357116},"geometry":{"x":171070.75,"y":2542365.1800000016}},{"attributes":{"ID":357126,"DIS_CODE":0,"TOWNNAME":"東區","LI":"自強里","LIN":"8鄰","STREET":"東門路","SECT":"三段","MAREA":" ","LANE":" ","ALLEY":" ","HOUSE_NO":"１５號二十樓之２","E_COORD97":171070.75,"N_COORD97":2542365.1800000002,"ADDRESS":"東門路三段１５號二十樓之２","OBJECTID":357117},"geometry":{"x":171070.75,"y":2542365.1800000016}},{"attributes":{"ID":357127,"DIS_CODE":0,"TOWNNAME":"新營區","LI":"民榮里","LIN":"30鄰","STREET":"太子路","SECT":" ","MAREA":" ","LANE":"４４巷","ALLEY":" ","HOUSE_NO":"２３號","E_COORD97":178169.57999999999,"N_COORD97":2578059.8700000001,"ADDRESS":"太子路４４巷２３號","OBJECTID":357118},"geometry":{"x":178169.58000000007,"y":2578059.8700000029}},{"attributes":{"ID":357128,"DIS_CODE":0,"TOWNNAME":"北區","LI":"和順里","LIN":"30鄰","STREET":"海安路","SECT":"三段","MAREA":" ","LANE":"１３５巷","ALLEY":" ","HOUSE_NO":"１５號","E_COORD97":167929.92999999999,"N_COORD97":2545002.2000000002,"ADDRESS":"海安路三段１３５巷１５號","OBJECTID":357119},"geometry":{"x":167929.9299999997,"y":2545002.2000000011}},{"attributes":{"ID":357129,"DIS_CODE":0,"TOWNNAME":"北區","LI":"和順里","LIN":"30鄰","STREET":"海安路","SECT":"三段","MAREA":" ","LANE":"１３５巷","ALLEY":" ","HOUSE_NO":"１７號","E_COORD97":167925.79000000001,"N_COORD97":2545002.52,"ADDRESS":"海安路三段１３５巷１７號","OBJECTID":357120},"geometry":{"x":167925.79000000004,"y":2545002.5199999996}},{"attributes":{"ID":357130,"DIS_CODE":0,"TOWNNAME":"北區","LI":"和順里","LIN":"30鄰","STREET":"海安路","SECT":"三段","MAREA":" ","LANE":"１３５巷","ALLEY":" ","HOUSE_NO":"１９號","E_COORD97":167921.66,"N_COORD97":2545002.2000000002,"ADDRESS":"海安路三段１３５巷１９號","OBJECTID":357121},"geometry":{"x":167921.66000000015,"y":2545002.2000000011}},{"attributes":{"ID":357131,"DIS_CODE":0,"TOWNNAME":"北區","LI":"和順里","LIN":"30鄰","STREET":"海安路","SECT":"三段","MAREA":" ","LANE":"１３５巷","ALLEY":" ","HOUSE_NO":"２１號","E_COORD97":167914.97,"N_COORD97":2545002.3599999999,"ADDRESS":"海安路三段１３５巷２１號","OBJECTID":357122},"geometry":{"x":167914.9700000016,"y":2545002.3600000013}},{"attributes":{"ID":357132,"DIS_CODE":0,"TOWNNAME":"北區","LI":"和順里","LIN":"30鄰","STREET":"海安路","SECT":"三段","MAREA":" ","LANE":"１３５巷","ALLEY":" ","HOUSE_NO":"２３號","E_COORD97":167897.14999999999,"N_COORD97":2545000.77,"ADDRESS":"海安路三段１３５巷２３號","OBJECTID":357123},"geometry":{"x":167897.15000000037,"y":2545000.7699999996}},{"attributes":{"ID":357133,"DIS_CODE":0,"TOWNNAME":"北區","LI":"和順里","LIN":"30鄰","STREET":"海安路","SECT":"三段","MAREA":" ","LANE":"１３５巷","ALLEY":" ","HOUSE_NO":"２５號","E_COORD97":167892.22,"N_COORD97":2545000.6099999999,"ADDRESS":"海安路三段１３５巷２５號","OBJECTID":357124},"geometry":{"x":167892.21999999974,"y":2545000.6100000013}},{"attributes":{"ID":357134,"DIS_CODE":0,"TOWNNAME":"北區","LI":"和順里","LIN":"30鄰","STREET":"海安路","SECT":"三段","MAREA":" ","LANE":"１３５巷","ALLEY":" ","HOUSE_NO":"２７號","E_COORD97":167887.60999999999,"N_COORD97":2545000.4500000002,"ADDRESS":"海安路三段１３５巷２７號","OBJECTID":357125},"geometry":{"x":167887.61000000127,"y":2545000.450000003}},{"attributes":{"ID":357135,"DIS_CODE":0,"TOWNNAME":"北區","LI":"和順里","LIN":"30鄰","STREET":"海安路","SECT":"三段","MAREA":" ","LANE":"１３５巷","ALLEY":" ","HOUSE_NO":"２９號","E_COORD97":167883.14999999999,"N_COORD97":2545000.4500000002,"ADDRESS":"海安路三段１３５巷２９號","OBJECTID":357126},"geometry":{"x":167883.15000000037,"y":2545000.450000003}},{"attributes":{"ID":357136,"DIS_CODE":0,"TOWNNAME":"北區","LI":"和順里","LIN":"30鄰","STREET":"海安路","SECT":"三段","MAREA":" ","LANE":"１３５巷","ALLEY":" ","HOUSE_NO":"３１號","E_COORD97":167879.01999999999,"N_COORD97":2545000.29,"ADDRESS":"海安路三段１３５巷３１號","OBJECTID":357127},"geometry":{"x":167879.02000000048,"y":2545000.2899999991}},{"attributes":{"ID":357137,"DIS_CODE":0,"TOWNNAME":"北區","LI":"和順里","LIN":"30鄰","STREET":"海安路","SECT":"三段","MAREA":" ","LANE":"１３５巷","ALLEY":" ","HOUSE_NO":"３３號","E_COORD97":167874.56,"N_COORD97":2545000.29,"ADDRESS":"海安路三段１３５巷３３號","OBJECTID":357128},"geometry":{"x":167874.55999999959,"y":2545000.2899999991}},{"attributes":{"ID":357138,"DIS_CODE":0,"TOWNNAME":"永康區","LI":"復華里","LIN":"30鄰","STREET":"復華八街","SECT":" ","MAREA":" ","LANE":"４７巷","ALLEY":" ","HOUSE_NO":"４３號五樓之５","E_COORD97":172678.28,"N_COORD97":2546351.2999999998,"ADDRESS":"復華八街４７巷４３號五樓之５","OBJECTID":357129},"geometry":{"x":172678.28000000026,"y":2546351.3000000007}},{"attributes":{"ID":357139,"DIS_CODE":0,"TOWNNAME":"永康區","LI":"復華里","LIN":"30鄰","STREET":"復華八街","SECT":" ","MAREA":" ","LANE":"４７巷","ALLEY":" ","HOUSE_NO":"４１號四樓之１","E_COORD97":172690.67000000001,"N_COORD97":2546351.2999999998,"ADDRESS":"復華八街４７巷４１號四樓之１","OBJECTID":357130},"geometry":{"x":172690.66999999899,"y":2546351.3000000007}},{"attributes":{"ID":357140,"DIS_CODE":0,"TOWNNAME":"永康區","LI":"復華里","LIN":"30鄰","STREET":"復華八街","SECT":" ","MAREA":" ","LANE":"４７巷","ALLEY":" ","HOUSE_NO":"４１號五樓之５","E_COORD97":172690.82000000001,"N_COORD97":2546351.2999999998,"ADDRESS":"復華八街４７巷４１號五樓之５","OBJECTID":357131},"geometry":{"x":172690.82000000123,"y":2546351.3000000007}},{"attributes":{"ID":357141,"DIS_CODE":0,"TOWNNAME":"永康區","LI":"復華里","LIN":"30鄰","STREET":"復華八街","SECT":" ","MAREA":" ","LANE":"４７巷","ALLEY":" ","HOUSE_NO":"４３號四樓之５","E_COORD97":172678.28,"N_COORD97":2546351.2999999998,"ADDRESS":"復華八街４７巷４３號四樓之５","OBJECTID":357132},"geometry":{"x":172678.28000000026,"y":2546351.3000000007}},{"attributes":{"ID":357142,"DIS_CODE":0,"TOWNNAME":"永康區","LI":"復華里","LIN":"30鄰","STREET":"復華八街","SECT":" ","MAREA":" ","LANE":"４７巷","ALLEY":" ","HOUSE_NO":"４３號五樓之３","E_COORD97":172678.22,"N_COORD97":2546351.2999999998,"ADDRESS":"復華八街４７巷４３號五樓之３","OBJECTID":357133},"geometry":{"x":172678.21999999974,"y":2546351.3000000007}},{"attributes":{"ID":357143,"DIS_CODE":0,"TOWNNAME":"永康區","LI":"復華里","LIN":"30鄰","STREET":"復華八街","SECT":" ","MAREA":" ","LANE":"４７巷","ALLEY":" ","HOUSE_NO":"４１號五樓之１","E_COORD97":172690.67000000001,"N_COORD97":2546351.2999999998,"ADDRESS":"復華八街４７巷４１號五樓之１","OBJECTID":357134},"geometry":{"x":172690.66999999899,"y":2546351.3000000007}},{"attributes":{"ID":357144,"DIS_CODE":0,"TOWNNAME":"永康區","LI":"復華里","LIN":"30鄰","STREET":"復華八街","SECT":" ","MAREA":" ","LANE":"４７巷","ALLEY":" ","HOUSE_NO":"４３號五樓之１","E_COORD97":172678.13,"N_COORD97":2546351.2999999998,"ADDRESS":"復華八街４７巷４３號五樓之１","OBJECTID":357135},"geometry":{"x":172678.13000000082,"y":2546351.3000000007}},{"attributes":{"ID":357145,"DIS_CODE":0,"TOWNNAME":"永康區","LI":"復華里","LIN":"30鄰","STREET":"復華八街","SECT":" ","MAREA":" ","LANE":"４７巷","ALLEY":" ","HOUSE_NO":"４１號三樓之２","E_COORD97":172690.79999999999,"N_COORD97":2546351.2999999998,"ADDRESS":"復華八街４７巷４１號三樓之２","OBJECTID":357136},"geometry":{"x":172690.79999999981,"y":2546351.3000000007}},{"attributes":{"ID":357146,"DIS_CODE":0,"TOWNNAME":"永康區","LI":"復華里","LIN":"30鄰","STREET":"復華八街","SECT":" ","MAREA":" ","LANE":"４７巷","ALLEY":" ","HOUSE_NO":"４１號六樓之１","E_COORD97":172690.67000000001,"N_COORD97":2546351.2999999998,"ADDRESS":"復華八街４７巷４１號六樓之１","OBJECTID":357137},"geometry":{"x":172690.66999999899,"y":2546351.3000000007}},{"attributes":{"ID":357147,"DIS_CODE":0,"TOWNNAME":"永康區","LI":"復華里","LIN":"30鄰","STREET":"復華八街","SECT":" ","MAREA":" ","LANE":"４７巷","ALLEY":" ","HOUSE_NO":"４３號三樓之１","E_COORD97":172678.13,"N_COORD97":2546351.2999999998,"ADDRESS":"復華八街４７巷４３號三樓之１","OBJECTID":357138},"geometry":{"x":172678.13000000082,"y":2546351.3000000007}},{"attributes":{"ID":357148,"DIS_CODE":0,"TOWNNAME":"永康區","LI":"復華里","LIN":"30鄰","STREET":"復華八街","SECT":" ","MAREA":" ","LANE":"４７巷","ALLEY":" ","HOUSE_NO":"４１號五樓之３","E_COORD97":172690.76000000001,"N_COORD97":2546351.2999999998,"ADDRESS":"復華八街４７巷４１號五樓之３","OBJECTID":357139},"geometry":{"x":172690.76000000071,"y":2546351.3000000007}},{"attributes":{"ID":357149,"DIS_CODE":0,"TOWNNAME":"永康區","LI":"復華里","LIN":"30鄰","STREET":"復華八街","SECT":" ","MAREA":" ","LANE":"４７巷","ALLEY":" ","HOUSE_NO":"４３號四樓之３","E_COORD97":172678.22,"N_COORD97":2546351.2999999998,"ADDRESS":"復華八街４７巷４３號四樓之３","OBJECTID":357140},"geometry":{"x":172678.21999999974,"y":2546351.3000000007}},{"attributes":{"ID":357150,"DIS_CODE":0,"TOWNNAME":"永康區","LI":"復華里","LIN":"30鄰","STREET":"復華八街","SECT":" ","MAREA":" ","LANE":"４７巷","ALLEY":" ","HOUSE_NO":"４１號四樓之５","E_COORD97":172690.82000000001,"N_COORD97":2546351.2999999998,"ADDRESS":"復華八街４７巷４１號四樓之５","OBJECTID":357141},"geometry":{"x":172690.82000000123,"y":2546351.3000000007}},{"attributes":{"ID":357151,"DIS_CODE":0,"TOWNNAME":"永康區","LI":"復華里","LIN":"30鄰","STREET":"復華八街","SECT":" ","MAREA":" ","LANE":"４７巷","ALLEY":" ","HOUSE_NO":"４１號四樓之３","E_COORD97":172690.76000000001,"N_COORD97":2546351.2999999998,"ADDRESS":"復華八街４７巷４１號四樓之３","OBJECTID":357142},"geometry":{"x":172690.76000000071,"y":2546351.3000000007}},{"attributes":{"ID":357152,"DIS_CODE":0,"TOWNNAME":"永康區","LI":"復華里","LIN":"30鄰","STREET":"復華八街","SECT":" ","MAREA":" ","LANE":"４７巷","ALLEY":" ","HOUSE_NO":"４３號五樓之２","E_COORD97":172678.26000000001,"N_COORD97":2546351.2999999998,"ADDRESS":"復華八街４７巷４３號五樓之２","OBJECTID":357143},"geometry":{"x":172678.26000000164,"y":2546351.3000000007}},{"attributes":{"ID":357153,"DIS_CODE":0,"TOWNNAME":"永康區","LI":"復華里","LIN":"30鄰","STREET":"復華八街","SECT":" ","MAREA":" ","LANE":"４７巷","ALLEY":" ","HOUSE_NO":"４３號六樓之１","E_COORD97":172678.13,"N_COORD97":2546351.2999999998,"ADDRESS":"復華八街４７巷４３號六樓之１","OBJECTID":357144},"geometry":{"x":172678.13000000082,"y":2546351.3000000007}},{"attributes":{"ID":357154,"DIS_CODE":0,"TOWNNAME":"永康區","LI":"復華里","LIN":"30鄰","STREET":"復華八街","SECT":" ","MAREA":" ","LANE":"４７巷","ALLEY":" ","HOUSE_NO":"４３號六樓之２","E_COORD97":172678.26000000001,"N_COORD97":2546351.2999999998,"ADDRESS":"復華八街４７巷４３號六樓之２","OBJECTID":357145},"geometry":{"x":172678.26000000164,"y":2546351.3000000007}},{"attributes":{"ID":357155,"DIS_CODE":0,"TOWNNAME":"永康區","LI":"復華里","LIN":"30鄰","STREET":"復華八街","SECT":" ","MAREA":" ","LANE":"４７巷","ALLEY":" ","HOUSE_NO":"４１號六樓之３","E_COORD97":172690.76000000001,"N_COORD97":2546351.2999999998,"ADDRESS":"復華八街４７巷４１號六樓之３","OBJECTID":357146},"geometry":{"x":172690.76000000071,"y":2546351.3000000007}},{"attributes":{"ID":357156,"DIS_CODE":0,"TOWNNAME":"北區","LI":"文元里","LIN":"26鄰","STREET":"文賢二街","SECT":" ","MAREA":" ","LANE":"３９６巷","ALLEY":" ","HOUSE_NO":"１３號","E_COORD97":167723.72,"N_COORD97":2546055.5600000001,"ADDRESS":"文賢二街３９６巷１３號","OBJECTID":357147},"geometry":{"x":167723.72000000067,"y":2546055.5600000024}},{"attributes":{"ID":357157,"DIS_CODE":0,"TOWNNAME":"北區","LI":"文元里","LIN":"26鄰","STREET":"文賢二街","SECT":" ","MAREA":" ","LANE":"３９６巷","ALLEY":" ","HOUSE_NO":"１５號","E_COORD97":167729.09,"N_COORD97":2546053.0899999999,"ADDRESS":"文賢二街３９６巷１５號","OBJECTID":357148},"geometry":{"x":167729.08999999985,"y":2546053.0899999999}},{"attributes":{"ID":357158,"DIS_CODE":0,"TOWNNAME":"北區","LI":"文元里","LIN":"26鄰","STREET":"文賢二街","SECT":" ","MAREA":" ","LANE":"３９６巷","ALLEY":" ","HOUSE_NO":"１７號","E_COORD97":167733.01000000001,"N_COORD97":2546055.77,"ADDRESS":"文賢二街３９６巷１７號","OBJECTID":357149},"geometry":{"x":167733.00999999978,"y":2546055.7699999996}},{"attributes":{"ID":357159,"DIS_CODE":0,"TOWNNAME":"永康區","LI":"復華里","LIN":"30鄰","STREET":"復華八街","SECT":" ","MAREA":" ","LANE":"４７巷","ALLEY":" ","HOUSE_NO":"４１號五樓之２","E_COORD97":172690.79999999999,"N_COORD97":2546351.2999999998,"ADDRESS":"復華八街４７巷４１號五樓之２","OBJECTID":357150},"geometry":{"x":172690.79999999981,"y":2546351.3000000007}},{"attributes":{"ID":357160,"DIS_CODE":0,"TOWNNAME":"永康區","LI":"復華里","LIN":"30鄰","STREET":"復華八街","SECT":" ","MAREA":" ","LANE":"４７巷","ALLEY":" ","HOUSE_NO":"４３號二樓之１","E_COORD97":172678.13,"N_COORD97":2546351.2999999998,"ADDRESS":"復華八街４７巷４３號二樓之１","OBJECTID":357151},"geometry":{"x":172678.13000000082,"y":2546351.3000000007}},{"attributes":{"ID":357161,"DIS_CODE":0,"TOWNNAME":"永康區","LI":"復華里","LIN":"30鄰","STREET":"復華八街","SECT":" ","MAREA":" ","LANE":"４７巷","ALLEY":" ","HOUSE_NO":"４１號六樓之５","E_COORD97":172690.82000000001,"N_COORD97":2546351.2999999998,"ADDRESS":"復華八街４７巷４１號六樓之５","OBJECTID":357152},"geometry":{"x":172690.82000000123,"y":2546351.3000000007}},{"attributes":{"ID":357162,"DIS_CODE":0,"TOWNNAME":"東區","LI":"後甲里","LIN":"30鄰","STREET":"建東街","SECT":" ","MAREA":" ","LANE":"５４巷","ALLEY":" ","HOUSE_NO":"３１號七樓之１","E_COORD97":171850.67000000001,"N_COORD97":2543484.2999999998,"ADDRESS":"建東街５４巷３１號七樓之１","OBJECTID":357153},"geometry":{"x":171850.67000000086,"y":2543484.3000000026}},{"attributes":{"ID":357163,"DIS_CODE":0,"TOWNNAME":"東區","LI":"後甲里","LIN":"30鄰","STREET":"建東街","SECT":" ","MAREA":" ","LANE":"５４巷","ALLEY":" ","HOUSE_NO":"３１號二樓","E_COORD97":171850.67000000001,"N_COORD97":2543484.2999999998,"ADDRESS":"建東街５４巷３１號二樓","OBJECTID":357154},"geometry":{"x":171850.67000000086,"y":2543484.3000000026}},{"attributes":{"ID":357164,"DIS_CODE":0,"TOWNNAME":"東區","LI":"後甲里","LIN":"30鄰","STREET":"建東街","SECT":" ","MAREA":" ","LANE":"５４巷","ALLEY":" ","HOUSE_NO":"３１號二樓之２","E_COORD97":171850.67000000001,"N_COORD97":2543484.2999999998,"ADDRESS":"建東街５４巷３１號二樓之２","OBJECTID":357155},"geometry":{"x":171850.67000000086,"y":2543484.3000000026}},{"attributes":{"ID":357165,"DIS_CODE":0,"TOWNNAME":"東區","LI":"後甲里","LIN":"30鄰","STREET":"建東街","SECT":" ","MAREA":" ","LANE":"５４巷","ALLEY":" ","HOUSE_NO":"３１號二樓之３","E_COORD97":171850.67000000001,"N_COORD97":2543484.2999999998,"ADDRESS":"建東街５４巷３１號二樓之３","OBJECTID":357156},"geometry":{"x":171850.67000000086,"y":2543484.3000000026}},{"attributes":{"ID":357166,"DIS_CODE":0,"TOWNNAME":"東區","LI":"後甲里","LIN":"30鄰","STREET":"建東街","SECT":" ","MAREA":" ","LANE":"５４巷","ALLEY":" ","HOUSE_NO":"３１號三樓之２","E_COORD97":171850.67000000001,"N_COORD97":2543484.2999999998,"ADDRESS":"建東街５４巷３１號三樓之２","OBJECTID":357157},"geometry":{"x":171850.67000000086,"y":2543484.3000000026}},{"attributes":{"ID":357167,"DIS_CODE":0,"TOWNNAME":"東區","LI":"後甲里","LIN":"30鄰","STREET":"建東街","SECT":" ","MAREA":" ","LANE":"５４巷","ALLEY":" ","HOUSE_NO":"３１號三樓之３","E_COORD97":171850.67000000001,"N_COORD97":2543484.2999999998,"ADDRESS":"建東街５４巷３１號三樓之３","OBJECTID":357158},"geometry":{"x":171850.67000000086,"y":2543484.3000000026}},{"attributes":{"ID":357168,"DIS_CODE":0,"TOWNNAME":"東區","LI":"後甲里","LIN":"30鄰","STREET":"建東街","SECT":" ","MAREA":" ","LANE":"５４巷","ALLEY":" ","HOUSE_NO":"３１號五樓","E_COORD97":171850.67000000001,"N_COORD97":2543484.2999999998,"ADDRESS":"建東街５４巷３１號五樓","OBJECTID":357159},"geometry":{"x":171850.67000000086,"y":2543484.3000000026}},{"attributes":{"ID":357169,"DIS_CODE":0,"TOWNNAME":"東區","LI":"後甲里","LIN":"30鄰","STREET":"建東街","SECT":" ","MAREA":" ","LANE":"５４巷","ALLEY":" ","HOUSE_NO":"３１號五樓之１","E_COORD97":171850.67000000001,"N_COORD97":2543484.2999999998,"ADDRESS":"建東街５４巷３１號五樓之１","OBJECTID":357160},"geometry":{"x":171850.67000000086,"y":2543484.3000000026}},{"attributes":{"ID":357170,"DIS_CODE":0,"TOWNNAME":"東區","LI":"後甲里","LIN":"30鄰","STREET":"建東街","SECT":" ","MAREA":" ","LANE":"５４巷","ALLEY":" ","HOUSE_NO":"３１號五樓之２","E_COORD97":171850.67000000001,"N_COORD97":2543484.2999999998,"ADDRESS":"建東街５４巷３１號五樓之２","OBJECTID":357161},"geometry":{"x":171850.67000000086,"y":2543484.3000000026}},{"attributes":{"ID":357171,"DIS_CODE":0,"TOWNNAME":"東區","LI":"後甲里","LIN":"30鄰","STREET":"建東街","SECT":" ","MAREA":" ","LANE":"５４巷","ALLEY":" ","HOUSE_NO":"３１號五樓之３","E_COORD97":171850.67000000001,"N_COORD97":2543484.2999999998,"ADDRESS":"建東街５４巷３１號五樓之３","OBJECTID":357162},"geometry":{"x":171850.67000000086,"y":2543484.3000000026}},{"attributes":{"ID":357172,"DIS_CODE":0,"TOWNNAME":"東區","LI":"後甲里","LIN":"30鄰","STREET":"建東街","SECT":" ","MAREA":" ","LANE":"５４巷","ALLEY":" ","HOUSE_NO":"３１號六樓","E_COORD97":171850.67000000001,"N_COORD97":2543484.2999999998,"ADDRESS":"建東街５４巷３１號六樓","OBJECTID":357163},"geometry":{"x":171850.67000000086,"y":2543484.3000000026}},{"attributes":{"ID":357173,"DIS_CODE":0,"TOWNNAME":"東區","LI":"後甲里","LIN":"30鄰","STREET":"建東街","SECT":" ","MAREA":" ","LANE":"５４巷","ALLEY":" ","HOUSE_NO":"３１號六樓之１","E_COORD97":171850.67000000001,"N_COORD97":2543484.2999999998,"ADDRESS":"建東街５４巷３１號六樓之１","OBJECTID":357164},"geometry":{"x":171850.67000000086,"y":2543484.3000000026}},{"attributes":{"ID":357174,"DIS_CODE":0,"TOWNNAME":"東區","LI":"後甲里","LIN":"30鄰","STREET":"建東街","SECT":" ","MAREA":" ","LANE":"５４巷","ALLEY":" ","HOUSE_NO":"３１號六樓之２","E_COORD97":171850.67000000001,"N_COORD97":2543484.2999999998,"ADDRESS":"建東街５４巷３１號六樓之２","OBJECTID":357165},"geometry":{"x":171850.67000000086,"y":2543484.3000000026}},{"attributes":{"ID":357175,"DIS_CODE":0,"TOWNNAME":"東區","LI":"後甲里","LIN":"30鄰","STREET":"建東街","SECT":" ","MAREA":" ","LANE":"５４巷","ALLEY":" ","HOUSE_NO":"３１號四樓","E_COORD97":171850.67000000001,"N_COORD97":2543484.2999999998,"ADDRESS":"建東街５４巷３１號四樓","OBJECTID":357166},"geometry":{"x":171850.67000000086,"y":2543484.3000000026}},{"attributes":{"ID":357176,"DIS_CODE":0,"TOWNNAME":"東區","LI":"後甲里","LIN":"30鄰","STREET":"建東街","SECT":" ","MAREA":" ","LANE":"５４巷","ALLEY":" ","HOUSE_NO":"３１號四樓之１","E_COORD97":171850.67000000001,"N_COORD97":2543484.2999999998,"ADDRESS":"建東街５４巷３１號四樓之１","OBJECTID":357167},"geometry":{"x":171850.67000000086,"y":2543484.3000000026}},{"attributes":{"ID":357177,"DIS_CODE":0,"TOWNNAME":"東區","LI":"後甲里","LIN":"30鄰","STREET":"建東街","SECT":" ","MAREA":" ","LANE":"５４巷","ALLEY":" ","HOUSE_NO":"３１號四樓之２","E_COORD97":171850.67000000001,"N_COORD97":2543484.2999999998,"ADDRESS":"建東街５４巷３１號四樓之２","OBJECTID":357168},"geometry":{"x":171850.67000000086,"y":2543484.3000000026}},{"attributes":{"ID":357178,"DIS_CODE":0,"TOWNNAME":"東區","LI":"後甲里","LIN":"30鄰","STREET":"建東街","SECT":" ","MAREA":" ","LANE":"５４巷","ALLEY":" ","HOUSE_NO":"３１號四樓之３","E_COORD97":171850.67000000001,"N_COORD97":2543484.2999999998,"ADDRESS":"建東街５４巷３１號四樓之３","OBJECTID":357169},"geometry":{"x":171850.67000000086,"y":2543484.3000000026}},{"attributes":{"ID":357179,"DIS_CODE":0,"TOWNNAME":"東區","LI":"後甲里","LIN":"30鄰","STREET":"建東街","SECT":" ","MAREA":" ","LANE":"５４巷","ALLEY":" ","HOUSE_NO":"３１號六樓之３","E_COORD97":171850.67000000001,"N_COORD97":2543484.2999999998,"ADDRESS":"建東街５４巷３１號六樓之３","OBJECTID":357170},"geometry":{"x":171850.67000000086,"y":2543484.3000000026}},{"attributes":{"ID":357180,"DIS_CODE":0,"TOWNNAME":"東區","LI":"後甲里","LIN":"30鄰","STREET":"建東街","SECT":" ","MAREA":" ","LANE":"５４巷","ALLEY":" ","HOUSE_NO":"３１號二樓之１","E_COORD97":171850.67000000001,"N_COORD97":2543484.2999999998,"ADDRESS":"建東街５４巷３１號二樓之１","OBJECTID":357171},"geometry":{"x":171850.67000000086,"y":2543484.3000000026}},{"attributes":{"ID":357181,"DIS_CODE":0,"TOWNNAME":"東區","LI":"後甲里","LIN":"30鄰","STREET":"建東街","SECT":" ","MAREA":" ","LANE":"５４巷","ALLEY":" ","HOUSE_NO":"３１號三樓","E_COORD97":171850.67000000001,"N_COORD97":2543484.2999999998,"ADDRESS":"建東街５４巷３１號三樓","OBJECTID":357172},"geometry":{"x":171850.67000000086,"y":2543484.3000000026}},{"attributes":{"ID":357182,"DIS_CODE":0,"TOWNNAME":"東區","LI":"後甲里","LIN":"30鄰","STREET":"建東街","SECT":" ","MAREA":" ","LANE":"５４巷","ALLEY":" ","HOUSE_NO":"３１號三樓之１","E_COORD97":171850.67000000001,"N_COORD97":2543484.2999999998,"ADDRESS":"建東街５４巷３１號三樓之１","OBJECTID":357173},"geometry":{"x":171850.67000000086,"y":2543484.3000000026}},{"attributes":{"ID":357183,"DIS_CODE":0,"TOWNNAME":"東區","LI":"自強里","LIN":"8鄰","STREET":"東門路","SECT":"三段","MAREA":" ","LANE":" ","ALLEY":" ","HOUSE_NO":"１５號二十樓之３","E_COORD97":171070.75,"N_COORD97":2542365.1800000002,"ADDRESS":"東門路三段１５號二十樓之３","OBJECTID":357174},"geometry":{"x":171070.75,"y":2542365.1800000016}},{"attributes":{"ID":357184,"DIS_CODE":0,"TOWNNAME":"東區","LI":"自強里","LIN":"8鄰","STREET":"東門路","SECT":"三段","MAREA":" ","LANE":" ","ALLEY":" ","HOUSE_NO":"１５號八樓","E_COORD97":171070.75,"N_COORD97":2542365.1800000002,"ADDRESS":"東門路三段１５號八樓","OBJECTID":357175},"geometry":{"x":171070.75,"y":2542365.1800000016}},{"attributes":{"ID":357185,"DIS_CODE":0,"TOWNNAME":"東區","LI":"自強里","LIN":"8鄰","STREET":"東門路","SECT":"三段","MAREA":" ","LANE":" ","ALLEY":" ","HOUSE_NO":"１５號八樓之１","E_COORD97":171070.75,"N_COORD97":2542365.1800000002,"ADDRESS":"東門路三段１５號八樓之１","OBJECTID":357176},"geometry":{"x":171070.75,"y":2542365.1800000016}},{"attributes":{"ID":357186,"DIS_CODE":0,"TOWNNAME":"北區","LI":"正覺里","LIN":"26鄰","STREET":"公園路","SECT":" ","MAREA":" ","LANE":"７６９巷","ALLEY":" ","HOUSE_NO":"６號","E_COORD97":169565.35000000001,"N_COORD97":2546558.2400000002,"ADDRESS":"公園路７６９巷６號","OBJECTID":357177},"geometry":{"x":169565.35000000056,"y":2546558.2400000002}},{"attributes":{"ID":357187,"DIS_CODE":0,"TOWNNAME":"北區","LI":"正覺里","LIN":"26鄰","STREET":"公園路","SECT":" ","MAREA":" ","LANE":"７６９巷","ALLEY":" ","HOUSE_NO":"６號之１","E_COORD97":169561.39999999999,"N_COORD97":2546559.2599999998,"ADDRESS":"公園路７６９巷６號之１","OBJECTID":357178},"geometry":{"x":169561.40000000037,"y":2546559.2600000016}},{"attributes":{"ID":357188,"DIS_CODE":0,"TOWNNAME":"北區","LI":"正覺里","LIN":"26鄰","STREET":"公園路","SECT":" ","MAREA":" ","LANE":"７６９巷","ALLEY":" ","HOUSE_NO":"６號之２","E_COORD97":169556.89000000001,"N_COORD97":2546559.7400000002,"ADDRESS":"公園路７６９巷６號之２","OBJECTID":357179},"geometry":{"x":169556.8900000006,"y":2546559.7400000021}},{"attributes":{"ID":357189,"DIS_CODE":0,"TOWNNAME":"北區","LI":"正覺里","LIN":"26鄰","STREET":"公園路","SECT":" ","MAREA":" ","LANE":"７６９巷","ALLEY":" ","HOUSE_NO":"６號之８","E_COORD97":169559.53,"N_COORD97":2546590.6499999999,"ADDRESS":"公園路７６９巷６號之８","OBJECTID":357180},"geometry":{"x":169559.53000000119,"y":2546590.6500000022}},{"attributes":{"ID":357190,"DIS_CODE":0,"TOWNNAME":"北區","LI":"正覺里","LIN":"26鄰","STREET":"公園路","SECT":" ","MAREA":" ","LANE":"７６９巷","ALLEY":" ","HOUSE_NO":"６號之９","E_COORD97":169560.85000000001,"N_COORD97":2546595.9199999999,"ADDRESS":"公園路７６９巷６號之９","OBJECTID":357181},"geometry":{"x":169560.84999999963,"y":2546595.9200000018}},{"attributes":{"ID":357191,"DIS_CODE":0,"TOWNNAME":"北區","LI":"正覺里","LIN":"26鄰","STREET":"公園路","SECT":" ","MAREA":" ","LANE":"７６９巷","ALLEY":" ","HOUSE_NO":"６號之１０","E_COORD97":169562.17000000001,"N_COORD97":2546600.9900000002,"ADDRESS":"公園路７６９巷６號之１０","OBJECTID":357182},"geometry":{"x":169562.17000000086,"y":2546600.9899999984}},{"attributes":{"ID":357192,"DIS_CODE":0,"TOWNNAME":"北區","LI":"正覺里","LIN":"26鄰","STREET":"公園路","SECT":" ","MAREA":" ","LANE":"７６９巷","ALLEY":" ","HOUSE_NO":"６號之１１","E_COORD97":169562.92000000001,"N_COORD97":2546605.8700000001,"ADDRESS":"公園路７６９巷６號之１１","OBJECTID":357183},"geometry":{"x":169562.91999999993,"y":2546605.870000001}},{"attributes":{"ID":357193,"DIS_CODE":0,"TOWNNAME":"北區","LI":"正覺里","LIN":"26鄰","STREET":"公園路","SECT":" ","MAREA":" ","LANE":"７６９巷","ALLEY":" ","HOUSE_NO":"６號之１２","E_COORD97":169564.51000000001,"N_COORD97":2546610,"ADDRESS":"公園路７６９巷６號之１２","OBJECTID":357184},"geometry":{"x":169564.51000000071,"y":2546610}},{"attributes":{"ID":357194,"DIS_CODE":0,"TOWNNAME":"北區","LI":"正覺里","LIN":"26鄰","STREET":"公園路","SECT":" ","MAREA":" ","LANE":"７６９巷","ALLEY":" ","HOUSE_NO":"６號之１３","E_COORD97":169565.73000000001,"N_COORD97":2546615.1600000001,"ADDRESS":"公園路７６９巷６號之１３","OBJECTID":357185},"geometry":{"x":169565.73000000138,"y":2546615.160000002}},{"attributes":{"ID":357195,"DIS_CODE":0,"TOWNNAME":"北區","LI":"正覺里","LIN":"26鄰","STREET":"公園路","SECT":" ","MAREA":" ","LANE":"７６９巷","ALLEY":" ","HOUSE_NO":"６號之１４","E_COORD97":169567.42999999999,"N_COORD97":2546620.3199999998,"ADDRESS":"公園路７６９巷６號之１４","OBJECTID":357186},"geometry":{"x":169567.4299999997,"y":2546620.3200000022}},{"attributes":{"ID":357196,"DIS_CODE":0,"TOWNNAME":"北區","LI":"正覺里","LIN":"26鄰","STREET":"公園路","SECT":" ","MAREA":" ","LANE":"７６９巷","ALLEY":" ","HOUSE_NO":"６號之１６","E_COORD97":169546.14000000001,"N_COORD97":2546616.7400000002,"ADDRESS":"公園路７６９巷６號之１６","OBJECTID":357187},"geometry":{"x":169546.14000000153,"y":2546616.7400000039}},{"attributes":{"ID":357197,"DIS_CODE":0,"TOWNNAME":"新營區","LI":"民榮里","LIN":"26鄰","STREET":"新進路","SECT":"二段","MAREA":" ","LANE":"４４５巷","ALLEY":" ","HOUSE_NO":"２０號","E_COORD97":178579.64000000001,"N_COORD97":2578034.6299999999,"ADDRESS":"新進路二段４４５巷２０號","OBJECTID":357188},"geometry":{"x":178579.63999999966,"y":2578034.6300000027}},{"attributes":{"ID":357198,"DIS_CODE":0,"TOWNNAME":"新營區","LI":"忠政里","LIN":"26鄰","STREET":"府西路","SECT":" ","MAREA":" ","LANE":"１５９巷","ALLEY":" ","HOUSE_NO":"１９號","E_COORD97":179737.78,"N_COORD97":2579391.2599999998,"ADDRESS":"府西路１５９巷１９號","OBJECTID":357189},"geometry":{"x":179737.78000000119,"y":2579391.2600000016}},{"attributes":{"ID":357199,"DIS_CODE":0,"TOWNNAME":"安南區","LI":"\u25A0南里","LIN":"4鄰","STREET":"安昌街","SECT":" ","MAREA":" ","LANE":" ","ALLEY":" ","HOUSE_NO":"２０６號","E_COORD97":170134.10999999999,"N_COORD97":2552514.96,"ADDRESS":"安昌街２０６號","OBJECTID":357190},"geometry":{"x":170134.11000000127,"y":2552514.9600000046}},{"attributes":{"ID":357200,"DIS_CODE":0,"TOWNNAME":"安南區","LI":"\u25A0南里","LIN":"4鄰","STREET":"安昌街","SECT":" ","MAREA":" ","LANE":" ","ALLEY":" ","HOUSE_NO":"２０８號","E_COORD97":170133.72,"N_COORD97":2552518.8500000001,"ADDRESS":"安昌街２０８號","OBJECTID":357191},"geometry":{"x":170133.71999999974,"y":2552518.8500000015}},{"attributes":{"ID":357201,"DIS_CODE":0,"TOWNNAME":"安南區","LI":"\u25A0南里","LIN":"4鄰","STREET":"安昌街","SECT":" ","MAREA":" ","LANE":" ","ALLEY":" ","HOUSE_NO":"２２０號","E_COORD97":170133.32999999999,"N_COORD97":2552523.3799999999,"ADDRESS":"安昌街２２０號","OBJECTID":357192},"geometry":{"x":170133.33000000007,"y":2552523.3799999971}},{"attributes":{"ID":357202,"DIS_CODE":0,"TOWNNAME":"安南區","LI":"\u25A0南里","LIN":"4鄰","STREET":"環福街","SECT":" ","MAREA":" ","LANE":" ","ALLEY":" ","HOUSE_NO":"１號","E_COORD97":170141.37,"N_COORD97":2552473.2400000002,"ADDRESS":"環福街１號","OBJECTID":357193},"geometry":{"x":170141.37000000011,"y":2552473.2400000021}},{"attributes":{"ID":357203,"DIS_CODE":0,"TOWNNAME":"安南區","LI":"安富里","LIN":" ","STREET":"安富街","SECT":" ","MAREA":" ","LANE":" ","ALLEY":" ","HOUSE_NO":"２２３號","E_COORD97":167640.92000000001,"N_COORD97":2547453.1099999999,"ADDRESS":"安富街２２３號","OBJECTID":357194},"geometry":{"x":167640.92000000179,"y":2547453.1099999994}},{"attributes":{"ID":357204,"DIS_CODE":0,"TOWNNAME":"善化區","LI":"東關里","LIN":" ","STREET":"中興路","SECT":" ","MAREA":" ","LANE":" ","ALLEY":" ","HOUSE_NO":"１５９號","E_COORD97":177322.79999999999,"N_COORD97":2559030.75,"ADDRESS":"中興路１５９號","OBJECTID":357195},"geometry":{"x":177322.80000000168,"y":2559030.75}},{"attributes":{"ID":357205,"DIS_CODE":0,"TOWNNAME":"安南區","LI":"\u25A0南里","LIN":"7鄰","STREET":"安昌街","SECT":" ","MAREA":" ","LANE":" ","ALLEY":" ","HOUSE_NO":"１０１號","E_COORD97":169944.14999999999,"N_COORD97":2552201.8300000001,"ADDRESS":"安昌街１０１號","OBJECTID":357196},"geometry":{"x":169944.1500000013,"y":2552201.8300000001}},{"attributes":{"ID":357206,"DIS_CODE":0,"TOWNNAME":"安南區","LI":"淵東里","LIN":"14鄰","STREET":"仁安路","SECT":" ","MAREA":" ","LANE":" ","ALLEY":" ","HOUSE_NO":"８５號","E_COORD97":165657.57000000001,"N_COORD97":2550155.8799999999,"ADDRESS":"仁安路８５號","OBJECTID":357197},"geometry":{"x":165657.57000000123,"y":2550155.879999999}},{"attributes":{"ID":357207,"DIS_CODE":0,"TOWNNAME":"安南區","LI":"新順里","LIN":"25鄰","STREET":"興安路","SECT":" ","MAREA":" ","LANE":" ","ALLEY":" ","HOUSE_NO":"８２號","E_COORD97":169449,"N_COORD97":2549110.1699999999,"ADDRESS":"興安路８２號","OBJECTID":357198},"geometry":{"x":169448.99999999907,"y":2549110.1700000018}},{"attributes":{"ID":357208,"DIS_CODE":0,"TOWNNAME":"安南區","LI":"新順里","LIN":"25鄰","STREET":"興安路","SECT":" ","MAREA":" ","LANE":" ","ALLEY":" ","HOUSE_NO":"８６號","E_COORD97":169444.75,"N_COORD97":2549114.4199999999,"ADDRESS":"興安路８６號","OBJECTID":357199},"geometry":{"x":169444.75000000093,"y":2549114.4200000018}},{"attributes":{"ID":357209,"DIS_CODE":0,"TOWNNAME":"安南區","LI":"新順里","LIN":"25鄰","STREET":"興安路","SECT":" ","MAREA":" ","LANE":" ","ALLEY":" ","HOUSE_NO":"８８號","E_COORD97":169439.42999999999,"N_COORD97":2549113.3599999999,"ADDRESS":"興安路８８號","OBJECTID":357200},"geometry":{"x":169439.43000000063,"y":2549113.3599999975}}]}