{"displayFieldName":"TOWNNAME","fieldAliases":{"ID":"ID","DIS_CODE":"DIS_CODE","TOWNNAME":"TOWNNAME","LI":"LI","LIN":"LIN","STREET":"STREET","SECT":"SECT","MAREA":"MAREA","LANE":"LANE","ALLEY":"ALLEY","HOUSE_NO":"HOUSE_NO","E_COORD97":"E_COORD97","N_COORD97":"N_COORD97","ADDRESS":"ADDRESS","OBJECTID":"OBJECTID"},"geometryType":"esriGeometryPoint","spatialReference":{"wkid":102443,"latestWkid":3826},"fields":[{"name":"ID","type":"esriFieldTypeDouble","alias":"ID"},{"name":"DIS_CODE","type":"esriFieldTypeInteger","alias":"DIS_CODE"},{"name":"TOWNNAME","type":"esriFieldTypeString","alias":"TOWNNAME","length":8},{"name":"LI","type":"esriFieldTypeString","alias":"LI","length":8},{"name":"LIN","type":"esriFieldTypeString","alias":"LIN","length":12},{"name":"STREET","type":"esriFieldTypeString","alias":"STREET","length":20},{"name":"SECT","type":"esriFieldTypeString","alias":"SECT","length":8},{"name":"MAREA","type":"esriFieldTypeString","alias":"MAREA","length":12},{"name":"LANE","type":"esriFieldTypeString","alias":"LANE","length":10},{"name":"ALLEY","type":"esriFieldTypeString","alias":"ALLEY","length":10},{"name":"HOUSE_NO","type":"esriFieldTypeString","alias":"HOUSE_NO","length":20},{"name":"E_COORD97","type":"esriFieldTypeDouble","alias":"E_COORD97"},{"name":"N_COORD97","type":"esriFieldTypeDouble","alias":"N_COORD97"},{"name":"ADDRESS","type":"esriFieldTypeString","alias":"ADDRESS","length":50},{"name":"OBJECTID","type":"esriFieldTypeOID","alias":"OBJECTID"}],"features":[{"attributes":{"ID":627828,"DIS_CODE":0,"TOWNNAME":"安平區","LI":"平通里","LIN":"4鄰","STREET":"慶平路","SECT":" ","MAREA":" ","LANE":" ","ALLEY":" ","HOUSE_NO":"５３９號十七樓之３","E_COORD97":165071.10999999999,"N_COORD97":2544210.6600000001,"ADDRESS":"慶平路５３９號十七樓之３","OBJECTID":627801},"geometry":{"x":165071.11000000034,"y":2544210.660000002}},{"attributes":{"ID":627829,"DIS_CODE":0,"TOWNNAME":"安平區","LI":"平通里","LIN":"4鄰","STREET":"慶平路","SECT":" ","MAREA":" ","LANE":" ","ALLEY":" ","HOUSE_NO":"５３９號十七樓之５","E_COORD97":165071.10999999999,"N_COORD97":2544210.6600000001,"ADDRESS":"慶平路５３９號十七樓之５","OBJECTID":627802},"geometry":{"x":165071.11000000034,"y":2544210.660000002}},{"attributes":{"ID":627830,"DIS_CODE":0,"TOWNNAME":"安平區","LI":"平通里","LIN":"4鄰","STREET":"慶平路","SECT":" ","MAREA":" ","LANE":" ","ALLEY":" ","HOUSE_NO":"５３９號十七樓之６","E_COORD97":165071.10999999999,"N_COORD97":2544210.6600000001,"ADDRESS":"慶平路５３９號十七樓之６","OBJECTID":627803},"geometry":{"x":165071.11000000034,"y":2544210.660000002}},{"attributes":{"ID":627831,"DIS_CODE":0,"TOWNNAME":"安平區","LI":"平通里","LIN":"4鄰","STREET":"慶平路","SECT":" ","MAREA":" ","LANE":" ","ALLEY":" ","HOUSE_NO":"５３９號十七樓之７","E_COORD97":165071.10999999999,"N_COORD97":2544210.6600000001,"ADDRESS":"慶平路５３９號十七樓之７","OBJECTID":627804},"geometry":{"x":165071.11000000034,"y":2544210.660000002}},{"attributes":{"ID":627832,"DIS_CODE":0,"TOWNNAME":"安平區","LI":"平通里","LIN":"4鄰","STREET":"慶平路","SECT":" ","MAREA":" ","LANE":" ","ALLEY":" ","HOUSE_NO":"５３９號十七樓之８","E_COORD97":165071.10999999999,"N_COORD97":2544210.6600000001,"ADDRESS":"慶平路５３９號十七樓之８","OBJECTID":627805},"geometry":{"x":165071.11000000034,"y":2544210.660000002}},{"attributes":{"ID":627833,"DIS_CODE":0,"TOWNNAME":"安平區","LI":"平通里","LIN":"4鄰","STREET":"慶平路","SECT":" ","MAREA":" ","LANE":" ","ALLEY":" ","HOUSE_NO":"５３９號十七樓之９","E_COORD97":165071.10999999999,"N_COORD97":2544210.6600000001,"ADDRESS":"慶平路５３９號十七樓之９","OBJECTID":627806},"geometry":{"x":165071.11000000034,"y":2544210.660000002}},{"attributes":{"ID":627834,"DIS_CODE":0,"TOWNNAME":"安平區","LI":"平通里","LIN":"4鄰","STREET":"慶平路","SECT":" ","MAREA":" ","LANE":" ","ALLEY":" ","HOUSE_NO":"５３９號十九樓之１","E_COORD97":165071.10999999999,"N_COORD97":2544210.6600000001,"ADDRESS":"慶平路５３９號十九樓之１","OBJECTID":627807},"geometry":{"x":165071.11000000034,"y":2544210.660000002}},{"attributes":{"ID":627835,"DIS_CODE":0,"TOWNNAME":"安平區","LI":"平通里","LIN":"4鄰","STREET":"慶平路","SECT":" ","MAREA":" ","LANE":" ","ALLEY":" ","HOUSE_NO":"５３９號十九樓之１０","E_COORD97":165071.10999999999,"N_COORD97":2544210.6600000001,"ADDRESS":"慶平路５３９號十九樓之１０","OBJECTID":627808},"geometry":{"x":165071.11000000034,"y":2544210.660000002}},{"attributes":{"ID":627836,"DIS_CODE":0,"TOWNNAME":"安平區","LI":"平通里","LIN":"4鄰","STREET":"慶平路","SECT":" ","MAREA":" ","LANE":" ","ALLEY":" ","HOUSE_NO":"５３９號十九樓之１１","E_COORD97":165071.10999999999,"N_COORD97":2544210.6600000001,"ADDRESS":"慶平路５３９號十九樓之１１","OBJECTID":627809},"geometry":{"x":165071.11000000034,"y":2544210.660000002}},{"attributes":{"ID":627837,"DIS_CODE":0,"TOWNNAME":"安平區","LI":"平通里","LIN":"4鄰","STREET":"慶平路","SECT":" ","MAREA":" ","LANE":" ","ALLEY":" ","HOUSE_NO":"５３９號十九樓之１２","E_COORD97":165071.10999999999,"N_COORD97":2544210.6600000001,"ADDRESS":"慶平路５３９號十九樓之１２","OBJECTID":627810},"geometry":{"x":165071.11000000034,"y":2544210.660000002}},{"attributes":{"ID":627838,"DIS_CODE":0,"TOWNNAME":"安平區","LI":"平通里","LIN":"4鄰","STREET":"慶平路","SECT":" ","MAREA":" ","LANE":" ","ALLEY":" ","HOUSE_NO":"５３９號十九樓之１３","E_COORD97":165071.10999999999,"N_COORD97":2544210.6600000001,"ADDRESS":"慶平路５３９號十九樓之１３","OBJECTID":627811},"geometry":{"x":165071.11000000034,"y":2544210.660000002}},{"attributes":{"ID":627839,"DIS_CODE":0,"TOWNNAME":"安平區","LI":"平通里","LIN":"4鄰","STREET":"慶平路","SECT":" ","MAREA":" ","LANE":" ","ALLEY":" ","HOUSE_NO":"５３９號十九樓之１４","E_COORD97":165071.10999999999,"N_COORD97":2544210.6600000001,"ADDRESS":"慶平路５３９號十九樓之１４","OBJECTID":627812},"geometry":{"x":165071.11000000034,"y":2544210.660000002}},{"attributes":{"ID":627840,"DIS_CODE":0,"TOWNNAME":"安平區","LI":"平通里","LIN":"4鄰","STREET":"慶平路","SECT":" ","MAREA":" ","LANE":" ","ALLEY":" ","HOUSE_NO":"５３９號十九樓之１５","E_COORD97":165071.10999999999,"N_COORD97":2544210.6600000001,"ADDRESS":"慶平路５３９號十九樓之１５","OBJECTID":627813},"geometry":{"x":165071.11000000034,"y":2544210.660000002}},{"attributes":{"ID":627841,"DIS_CODE":0,"TOWNNAME":"安平區","LI":"平通里","LIN":"4鄰","STREET":"慶平路","SECT":" ","MAREA":" ","LANE":" ","ALLEY":" ","HOUSE_NO":"５３９號十九樓之１６","E_COORD97":165071.10999999999,"N_COORD97":2544210.6600000001,"ADDRESS":"慶平路５３９號十九樓之１６","OBJECTID":627814},"geometry":{"x":165071.11000000034,"y":2544210.660000002}},{"attributes":{"ID":627842,"DIS_CODE":0,"TOWNNAME":"安平區","LI":"平通里","LIN":"4鄰","STREET":"慶平路","SECT":" ","MAREA":" ","LANE":" ","ALLEY":" ","HOUSE_NO":"５３９號十九樓之１７","E_COORD97":165071.10999999999,"N_COORD97":2544210.6600000001,"ADDRESS":"慶平路５３９號十九樓之１７","OBJECTID":627815},"geometry":{"x":165071.11000000034,"y":2544210.660000002}},{"attributes":{"ID":627843,"DIS_CODE":0,"TOWNNAME":"永康區","LI":"勝利里","LIN":"4鄰","STREET":"勝學路","SECT":" ","MAREA":" ","LANE":" ","ALLEY":" ","HOUSE_NO":"８７號","E_COORD97":171150.23999999999,"N_COORD97":2544825.25,"ADDRESS":"勝學路８７號","OBJECTID":627816},"geometry":{"x":171150.24000000115,"y":2544825.25}},{"attributes":{"ID":627844,"DIS_CODE":0,"TOWNNAME":"安平區","LI":"平通里","LIN":"4鄰","STREET":"慶平路","SECT":" ","MAREA":" ","LANE":" ","ALLEY":" ","HOUSE_NO":"５３９號十九樓之１８","E_COORD97":165071.10999999999,"N_COORD97":2544210.6600000001,"ADDRESS":"慶平路５３９號十九樓之１８","OBJECTID":627817},"geometry":{"x":165071.11000000034,"y":2544210.660000002}},{"attributes":{"ID":627845,"DIS_CODE":0,"TOWNNAME":"安平區","LI":"平通里","LIN":"4鄰","STREET":"慶平路","SECT":" ","MAREA":" ","LANE":" ","ALLEY":" ","HOUSE_NO":"５３９號十九樓之１９","E_COORD97":165071.10999999999,"N_COORD97":2544210.6600000001,"ADDRESS":"慶平路５３９號十九樓之１９","OBJECTID":627818},"geometry":{"x":165071.11000000034,"y":2544210.660000002}},{"attributes":{"ID":627846,"DIS_CODE":0,"TOWNNAME":"安平區","LI":"平通里","LIN":"4鄰","STREET":"慶平路","SECT":" ","MAREA":" ","LANE":" ","ALLEY":" ","HOUSE_NO":"５３９號十九樓之２","E_COORD97":165071.10999999999,"N_COORD97":2544210.6600000001,"ADDRESS":"慶平路５３９號十九樓之２","OBJECTID":627819},"geometry":{"x":165071.11000000034,"y":2544210.660000002}},{"attributes":{"ID":627847,"DIS_CODE":0,"TOWNNAME":"安平區","LI":"平通里","LIN":"4鄰","STREET":"慶平路","SECT":" ","MAREA":" ","LANE":" ","ALLEY":" ","HOUSE_NO":"５３９號十九樓之２０","E_COORD97":165071.10999999999,"N_COORD97":2544210.6600000001,"ADDRESS":"慶平路５３９號十九樓之２０","OBJECTID":627820},"geometry":{"x":165071.11000000034,"y":2544210.660000002}},{"attributes":{"ID":627848,"DIS_CODE":0,"TOWNNAME":"安平區","LI":"平通里","LIN":"4鄰","STREET":"慶平路","SECT":" ","MAREA":" ","LANE":" ","ALLEY":" ","HOUSE_NO":"５３９號十九樓之２１","E_COORD97":165071.10999999999,"N_COORD97":2544210.6600000001,"ADDRESS":"慶平路５３９號十九樓之２１","OBJECTID":627821},"geometry":{"x":165071.11000000034,"y":2544210.660000002}},{"attributes":{"ID":627849,"DIS_CODE":0,"TOWNNAME":"安平區","LI":"平通里","LIN":"4鄰","STREET":"慶平路","SECT":" ","MAREA":" ","LANE":" ","ALLEY":" ","HOUSE_NO":"５３９號十九樓之２２","E_COORD97":165071.10999999999,"N_COORD97":2544210.6600000001,"ADDRESS":"慶平路５３９號十九樓之２２","OBJECTID":627822},"geometry":{"x":165071.11000000034,"y":2544210.660000002}},{"attributes":{"ID":627850,"DIS_CODE":0,"TOWNNAME":"安平區","LI":"平通里","LIN":"4鄰","STREET":"慶平路","SECT":" ","MAREA":" ","LANE":" ","ALLEY":" ","HOUSE_NO":"５３９號十九樓之２３","E_COORD97":165071.10999999999,"N_COORD97":2544210.6600000001,"ADDRESS":"慶平路５３９號十九樓之２３","OBJECTID":627823},"geometry":{"x":165071.11000000034,"y":2544210.660000002}},{"attributes":{"ID":627851,"DIS_CODE":0,"TOWNNAME":"安平區","LI":"平通里","LIN":"4鄰","STREET":"慶平路","SECT":" ","MAREA":" ","LANE":" ","ALLEY":" ","HOUSE_NO":"５３９號十九樓之３","E_COORD97":165071.10999999999,"N_COORD97":2544210.6600000001,"ADDRESS":"慶平路５３９號十九樓之３","OBJECTID":627824},"geometry":{"x":165071.11000000034,"y":2544210.660000002}},{"attributes":{"ID":627852,"DIS_CODE":0,"TOWNNAME":"安平區","LI":"平通里","LIN":"4鄰","STREET":"慶平路","SECT":" ","MAREA":" ","LANE":" ","ALLEY":" ","HOUSE_NO":"５３９號十九樓之５","E_COORD97":165071.10999999999,"N_COORD97":2544210.6600000001,"ADDRESS":"慶平路５３９號十九樓之５","OBJECTID":627825},"geometry":{"x":165071.11000000034,"y":2544210.660000002}},{"attributes":{"ID":627853,"DIS_CODE":0,"TOWNNAME":"安平區","LI":"平通里","LIN":"4鄰","STREET":"慶平路","SECT":" ","MAREA":" ","LANE":" ","ALLEY":" ","HOUSE_NO":"５３９號十九樓之６","E_COORD97":165071.10999999999,"N_COORD97":2544210.6600000001,"ADDRESS":"慶平路５３９號十九樓之６","OBJECTID":627826},"geometry":{"x":165071.11000000034,"y":2544210.660000002}},{"attributes":{"ID":627854,"DIS_CODE":0,"TOWNNAME":"安平區","LI":"平通里","LIN":"4鄰","STREET":"慶平路","SECT":" ","MAREA":" ","LANE":" ","ALLEY":" ","HOUSE_NO":"５３９號十九樓之７","E_COORD97":165071.10999999999,"N_COORD97":2544210.6600000001,"ADDRESS":"慶平路５３９號十九樓之７","OBJECTID":627827},"geometry":{"x":165071.11000000034,"y":2544210.660000002}},{"attributes":{"ID":627855,"DIS_CODE":0,"TOWNNAME":"永康區","LI":"勝利里","LIN":"18鄰","STREET":"勝學路","SECT":" ","MAREA":" ","LANE":" ","ALLEY":" ","HOUSE_NO":"１５２號","E_COORD97":171189.54999999999,"N_COORD97":2545035,"ADDRESS":"勝學路１５２號","OBJECTID":627828},"geometry":{"x":171189.55000000168,"y":2545035.0000000019}},{"attributes":{"ID":627856,"DIS_CODE":0,"TOWNNAME":"永康區","LI":"勝利里","LIN":"20鄰","STREET":"勝學路","SECT":" ","MAREA":" ","LANE":" ","ALLEY":" ","HOUSE_NO":"２２３號地下三層","E_COORD97":171184.95000000001,"N_COORD97":2545228,"ADDRESS":"勝學路２２３號地下三層","OBJECTID":627829},"geometry":{"x":171184.95000000019,"y":2545228.0000000037}},{"attributes":{"ID":627857,"DIS_CODE":0,"TOWNNAME":"安平區","LI":"平通里","LIN":"4鄰","STREET":"慶平路","SECT":" ","MAREA":" ","LANE":" ","ALLEY":" ","HOUSE_NO":"５３９號十九樓之８","E_COORD97":165071.10999999999,"N_COORD97":2544210.6600000001,"ADDRESS":"慶平路５３９號十九樓之８","OBJECTID":627830},"geometry":{"x":165071.11000000034,"y":2544210.660000002}},{"attributes":{"ID":627858,"DIS_CODE":0,"TOWNNAME":"安平區","LI":"平通里","LIN":"4鄰","STREET":"慶平路","SECT":" ","MAREA":" ","LANE":" ","ALLEY":" ","HOUSE_NO":"５３９號十九樓之９","E_COORD97":165071.10999999999,"N_COORD97":2544210.6600000001,"ADDRESS":"慶平路５３９號十九樓之９","OBJECTID":627831},"geometry":{"x":165071.11000000034,"y":2544210.660000002}},{"attributes":{"ID":627859,"DIS_CODE":0,"TOWNNAME":"安平區","LI":"平通里","LIN":"4鄰","STREET":"慶平路","SECT":" ","MAREA":" ","LANE":" ","ALLEY":" ","HOUSE_NO":"５３９號十三樓之１","E_COORD97":165071.10999999999,"N_COORD97":2544210.6600000001,"ADDRESS":"慶平路５３９號十三樓之１","OBJECTID":627832},"geometry":{"x":165071.11000000034,"y":2544210.660000002}},{"attributes":{"ID":627860,"DIS_CODE":0,"TOWNNAME":"安平區","LI":"平通里","LIN":"4鄰","STREET":"慶平路","SECT":" ","MAREA":" ","LANE":" ","ALLEY":" ","HOUSE_NO":"５３９號十三樓之１０","E_COORD97":165071.10999999999,"N_COORD97":2544210.6600000001,"ADDRESS":"慶平路５３９號十三樓之１０","OBJECTID":627833},"geometry":{"x":165071.11000000034,"y":2544210.660000002}},{"attributes":{"ID":627861,"DIS_CODE":0,"TOWNNAME":"安平區","LI":"平通里","LIN":"4鄰","STREET":"慶平路","SECT":" ","MAREA":" ","LANE":" ","ALLEY":" ","HOUSE_NO":"５３９號十三樓之１１","E_COORD97":165071.10999999999,"N_COORD97":2544210.6600000001,"ADDRESS":"慶平路５３９號十三樓之１１","OBJECTID":627834},"geometry":{"x":165071.11000000034,"y":2544210.660000002}},{"attributes":{"ID":627862,"DIS_CODE":0,"TOWNNAME":"安平區","LI":"平通里","LIN":"4鄰","STREET":"慶平路","SECT":" ","MAREA":" ","LANE":" ","ALLEY":" ","HOUSE_NO":"５３９號十三樓之１２","E_COORD97":165071.10999999999,"N_COORD97":2544210.6600000001,"ADDRESS":"慶平路５３９號十三樓之１２","OBJECTID":627835},"geometry":{"x":165071.11000000034,"y":2544210.660000002}},{"attributes":{"ID":627863,"DIS_CODE":0,"TOWNNAME":"安平區","LI":"平通里","LIN":"4鄰","STREET":"慶平路","SECT":" ","MAREA":" ","LANE":" ","ALLEY":" ","HOUSE_NO":"５３９號十三樓之１３","E_COORD97":165071.10999999999,"N_COORD97":2544210.6600000001,"ADDRESS":"慶平路５３９號十三樓之１３","OBJECTID":627836},"geometry":{"x":165071.11000000034,"y":2544210.660000002}},{"attributes":{"ID":627864,"DIS_CODE":0,"TOWNNAME":"安平區","LI":"平通里","LIN":"4鄰","STREET":"慶平路","SECT":" ","MAREA":" ","LANE":" ","ALLEY":" ","HOUSE_NO":"５３９號十三樓之１４","E_COORD97":165071.10999999999,"N_COORD97":2544210.6600000001,"ADDRESS":"慶平路５３９號十三樓之１４","OBJECTID":627837},"geometry":{"x":165071.11000000034,"y":2544210.660000002}},{"attributes":{"ID":627865,"DIS_CODE":0,"TOWNNAME":"安平區","LI":"平通里","LIN":"4鄰","STREET":"慶平路","SECT":" ","MAREA":" ","LANE":" ","ALLEY":" ","HOUSE_NO":"５３９號十三樓之１５","E_COORD97":165071.10999999999,"N_COORD97":2544210.6600000001,"ADDRESS":"慶平路５３９號十三樓之１５","OBJECTID":627838},"geometry":{"x":165071.11000000034,"y":2544210.660000002}},{"attributes":{"ID":627866,"DIS_CODE":0,"TOWNNAME":"安平區","LI":"平通里","LIN":"4鄰","STREET":"慶平路","SECT":" ","MAREA":" ","LANE":" ","ALLEY":" ","HOUSE_NO":"５３９號十三樓之１６","E_COORD97":165071.10999999999,"N_COORD97":2544210.6600000001,"ADDRESS":"慶平路５３９號十三樓之１６","OBJECTID":627839},"geometry":{"x":165071.11000000034,"y":2544210.660000002}},{"attributes":{"ID":627867,"DIS_CODE":0,"TOWNNAME":"安平區","LI":"平通里","LIN":"4鄰","STREET":"慶平路","SECT":" ","MAREA":" ","LANE":" ","ALLEY":" ","HOUSE_NO":"５３９號十三樓之１７","E_COORD97":165071.10999999999,"N_COORD97":2544210.6600000001,"ADDRESS":"慶平路５３９號十三樓之１７","OBJECTID":627840},"geometry":{"x":165071.11000000034,"y":2544210.660000002}},{"attributes":{"ID":627868,"DIS_CODE":0,"TOWNNAME":"安平區","LI":"平通里","LIN":"4鄰","STREET":"慶平路","SECT":" ","MAREA":" ","LANE":" ","ALLEY":" ","HOUSE_NO":"５３９號十三樓之１８","E_COORD97":165071.10999999999,"N_COORD97":2544210.6600000001,"ADDRESS":"慶平路５３９號十三樓之１８","OBJECTID":627841},"geometry":{"x":165071.11000000034,"y":2544210.660000002}},{"attributes":{"ID":627869,"DIS_CODE":0,"TOWNNAME":"安平區","LI":"平通里","LIN":"4鄰","STREET":"慶平路","SECT":" ","MAREA":" ","LANE":" ","ALLEY":" ","HOUSE_NO":"５３９號十三樓之１９","E_COORD97":165071.10999999999,"N_COORD97":2544210.6600000001,"ADDRESS":"慶平路５３９號十三樓之１９","OBJECTID":627842},"geometry":{"x":165071.11000000034,"y":2544210.660000002}},{"attributes":{"ID":627870,"DIS_CODE":0,"TOWNNAME":"安平區","LI":"平通里","LIN":"4鄰","STREET":"慶平路","SECT":" ","MAREA":" ","LANE":" ","ALLEY":" ","HOUSE_NO":"５３９號十三樓之２","E_COORD97":165071.10999999999,"N_COORD97":2544210.6600000001,"ADDRESS":"慶平路５３９號十三樓之２","OBJECTID":627843},"geometry":{"x":165071.11000000034,"y":2544210.660000002}},{"attributes":{"ID":627871,"DIS_CODE":0,"TOWNNAME":"安平區","LI":"平通里","LIN":"4鄰","STREET":"慶平路","SECT":" ","MAREA":" ","LANE":" ","ALLEY":" ","HOUSE_NO":"５３９號十三樓之２０","E_COORD97":165071.10999999999,"N_COORD97":2544210.6600000001,"ADDRESS":"慶平路５３９號十三樓之２０","OBJECTID":627844},"geometry":{"x":165071.11000000034,"y":2544210.660000002}},{"attributes":{"ID":627872,"DIS_CODE":0,"TOWNNAME":"安平區","LI":"平通里","LIN":"4鄰","STREET":"慶平路","SECT":" ","MAREA":" ","LANE":" ","ALLEY":" ","HOUSE_NO":"５３９號十三樓之２１","E_COORD97":165071.10999999999,"N_COORD97":2544210.6600000001,"ADDRESS":"慶平路５３９號十三樓之２１","OBJECTID":627845},"geometry":{"x":165071.11000000034,"y":2544210.660000002}},{"attributes":{"ID":627873,"DIS_CODE":0,"TOWNNAME":"安平區","LI":"平通里","LIN":"4鄰","STREET":"慶平路","SECT":" ","MAREA":" ","LANE":" ","ALLEY":" ","HOUSE_NO":"５３９號十三樓之２２","E_COORD97":165071.10999999999,"N_COORD97":2544210.6600000001,"ADDRESS":"慶平路５３９號十三樓之２２","OBJECTID":627846},"geometry":{"x":165071.11000000034,"y":2544210.660000002}},{"attributes":{"ID":627874,"DIS_CODE":0,"TOWNNAME":"安平區","LI":"平通里","LIN":"4鄰","STREET":"慶平路","SECT":" ","MAREA":" ","LANE":" ","ALLEY":" ","HOUSE_NO":"５３９號十三樓之２３","E_COORD97":165071.10999999999,"N_COORD97":2544210.6600000001,"ADDRESS":"慶平路５３９號十三樓之２３","OBJECTID":627847},"geometry":{"x":165071.11000000034,"y":2544210.660000002}},{"attributes":{"ID":627875,"DIS_CODE":0,"TOWNNAME":"安平區","LI":"平通里","LIN":"4鄰","STREET":"慶平路","SECT":" ","MAREA":" ","LANE":" ","ALLEY":" ","HOUSE_NO":"５３９號十三樓之２４","E_COORD97":165071.10999999999,"N_COORD97":2544210.6600000001,"ADDRESS":"慶平路５３９號十三樓之２４","OBJECTID":627848},"geometry":{"x":165071.11000000034,"y":2544210.660000002}},{"attributes":{"ID":627876,"DIS_CODE":0,"TOWNNAME":"安平區","LI":"平通里","LIN":"4鄰","STREET":"慶平路","SECT":" ","MAREA":" ","LANE":" ","ALLEY":" ","HOUSE_NO":"５３９號十三樓之３","E_COORD97":165071.10999999999,"N_COORD97":2544210.6600000001,"ADDRESS":"慶平路５３９號十三樓之３","OBJECTID":627849},"geometry":{"x":165071.11000000034,"y":2544210.660000002}},{"attributes":{"ID":627877,"DIS_CODE":0,"TOWNNAME":"安平區","LI":"平通里","LIN":"4鄰","STREET":"慶平路","SECT":" ","MAREA":" ","LANE":" ","ALLEY":" ","HOUSE_NO":"５３９號十三樓之５","E_COORD97":165071.10999999999,"N_COORD97":2544210.6600000001,"ADDRESS":"慶平路５３９號十三樓之５","OBJECTID":627850},"geometry":{"x":165071.11000000034,"y":2544210.660000002}},{"attributes":{"ID":627878,"DIS_CODE":0,"TOWNNAME":"安平區","LI":"平通里","LIN":"4鄰","STREET":"慶平路","SECT":" ","MAREA":" ","LANE":" ","ALLEY":" ","HOUSE_NO":"５３９號十三樓之６","E_COORD97":165071.10999999999,"N_COORD97":2544210.6600000001,"ADDRESS":"慶平路５３９號十三樓之６","OBJECTID":627851},"geometry":{"x":165071.11000000034,"y":2544210.660000002}},{"attributes":{"ID":627879,"DIS_CODE":0,"TOWNNAME":"安平區","LI":"平通里","LIN":"4鄰","STREET":"慶平路","SECT":" ","MAREA":" ","LANE":" ","ALLEY":" ","HOUSE_NO":"５３９號十三樓之７","E_COORD97":165071.10999999999,"N_COORD97":2544210.6600000001,"ADDRESS":"慶平路５３９號十三樓之７","OBJECTID":627852},"geometry":{"x":165071.11000000034,"y":2544210.660000002}},{"attributes":{"ID":627880,"DIS_CODE":0,"TOWNNAME":"安平區","LI":"平通里","LIN":"4鄰","STREET":"慶平路","SECT":" ","MAREA":" ","LANE":" ","ALLEY":" ","HOUSE_NO":"５３９號十三樓之８","E_COORD97":165071.10999999999,"N_COORD97":2544210.6600000001,"ADDRESS":"慶平路５３９號十三樓之８","OBJECTID":627853},"geometry":{"x":165071.11000000034,"y":2544210.660000002}},{"attributes":{"ID":627881,"DIS_CODE":0,"TOWNNAME":"安平區","LI":"平通里","LIN":"4鄰","STREET":"慶平路","SECT":" ","MAREA":" ","LANE":" ","ALLEY":" ","HOUSE_NO":"５３９號十三樓之９","E_COORD97":165071.10999999999,"N_COORD97":2544210.6600000001,"ADDRESS":"慶平路５３９號十三樓之９","OBJECTID":627854},"geometry":{"x":165071.11000000034,"y":2544210.660000002}},{"attributes":{"ID":627882,"DIS_CODE":0,"TOWNNAME":"安平區","LI":"平通里","LIN":"4鄰","STREET":"慶平路","SECT":" ","MAREA":" ","LANE":" ","ALLEY":" ","HOUSE_NO":"５３９號十五樓之１","E_COORD97":165071.10999999999,"N_COORD97":2544210.6600000001,"ADDRESS":"慶平路５３９號十五樓之１","OBJECTID":627855},"geometry":{"x":165071.11000000034,"y":2544210.660000002}},{"attributes":{"ID":627883,"DIS_CODE":0,"TOWNNAME":"安平區","LI":"平通里","LIN":"4鄰","STREET":"慶平路","SECT":" ","MAREA":" ","LANE":" ","ALLEY":" ","HOUSE_NO":"５３９號十五樓之１０","E_COORD97":165071.10999999999,"N_COORD97":2544210.6600000001,"ADDRESS":"慶平路５３９號十五樓之１０","OBJECTID":627856},"geometry":{"x":165071.11000000034,"y":2544210.660000002}},{"attributes":{"ID":627884,"DIS_CODE":0,"TOWNNAME":"永康區","LI":"崑山里","LIN":"32鄰","STREET":"國光三街","SECT":" ","MAREA":" ","LANE":" ","ALLEY":" ","HOUSE_NO":"１３號","E_COORD97":174102.44,"N_COORD97":2544865.46,"ADDRESS":"國光三街１３號","OBJECTID":627857},"geometry":{"x":174102.44000000041,"y":2544865.4600000009}},{"attributes":{"ID":627885,"DIS_CODE":0,"TOWNNAME":"永康區","LI":"勝利里","LIN":"40鄰","STREET":"中華一路","SECT":" ","MAREA":" ","LANE":" ","ALLEY":" ","HOUSE_NO":"１５６號","E_COORD97":171563.45999999999,"N_COORD97":2544974,"ADDRESS":"中華一路１５６號","OBJECTID":627858},"geometry":{"x":171563.46000000089,"y":2544974.0000000019}},{"attributes":{"ID":627886,"DIS_CODE":0,"TOWNNAME":"安平區","LI":"平通里","LIN":"4鄰","STREET":"慶平路","SECT":" ","MAREA":" ","LANE":" ","ALLEY":" ","HOUSE_NO":"５３９號十五樓之１１","E_COORD97":165071.10999999999,"N_COORD97":2544210.6600000001,"ADDRESS":"慶平路５３９號十五樓之１１","OBJECTID":627859},"geometry":{"x":165071.11000000034,"y":2544210.660000002}},{"attributes":{"ID":627887,"DIS_CODE":0,"TOWNNAME":"安平區","LI":"平通里","LIN":"4鄰","STREET":"慶平路","SECT":" ","MAREA":" ","LANE":" ","ALLEY":" ","HOUSE_NO":"５３９號十五樓之１２","E_COORD97":165071.10999999999,"N_COORD97":2544210.6600000001,"ADDRESS":"慶平路５３９號十五樓之１２","OBJECTID":627860},"geometry":{"x":165071.11000000034,"y":2544210.660000002}},{"attributes":{"ID":627888,"DIS_CODE":0,"TOWNNAME":"安平區","LI":"平通里","LIN":"4鄰","STREET":"慶平路","SECT":" ","MAREA":" ","LANE":" ","ALLEY":" ","HOUSE_NO":"５３９號十五樓之１３","E_COORD97":165071.10999999999,"N_COORD97":2544210.6600000001,"ADDRESS":"慶平路５３９號十五樓之１３","OBJECTID":627861},"geometry":{"x":165071.11000000034,"y":2544210.660000002}},{"attributes":{"ID":627889,"DIS_CODE":0,"TOWNNAME":"安平區","LI":"平通里","LIN":"4鄰","STREET":"慶平路","SECT":" ","MAREA":" ","LANE":" ","ALLEY":" ","HOUSE_NO":"５３９號十五樓之１９","E_COORD97":165071.10999999999,"N_COORD97":2544210.6600000001,"ADDRESS":"慶平路５３９號十五樓之１９","OBJECTID":627862},"geometry":{"x":165071.11000000034,"y":2544210.660000002}},{"attributes":{"ID":627890,"DIS_CODE":0,"TOWNNAME":"安平區","LI":"平通里","LIN":"4鄰","STREET":"慶平路","SECT":" ","MAREA":" ","LANE":" ","ALLEY":" ","HOUSE_NO":"５３９號十五樓之２","E_COORD97":165071.10999999999,"N_COORD97":2544210.6600000001,"ADDRESS":"慶平路５３９號十五樓之２","OBJECTID":627863},"geometry":{"x":165071.11000000034,"y":2544210.660000002}},{"attributes":{"ID":627891,"DIS_CODE":0,"TOWNNAME":"安平區","LI":"平通里","LIN":"4鄰","STREET":"慶平路","SECT":" ","MAREA":" ","LANE":" ","ALLEY":" ","HOUSE_NO":"５３９號十五樓之２０","E_COORD97":165071.10999999999,"N_COORD97":2544210.6600000001,"ADDRESS":"慶平路５３９號十五樓之２０","OBJECTID":627864},"geometry":{"x":165071.11000000034,"y":2544210.660000002}},{"attributes":{"ID":627892,"DIS_CODE":0,"TOWNNAME":"安平區","LI":"平通里","LIN":"4鄰","STREET":"慶平路","SECT":" ","MAREA":" ","LANE":" ","ALLEY":" ","HOUSE_NO":"５３９號十五樓之２１","E_COORD97":165071.10999999999,"N_COORD97":2544210.6600000001,"ADDRESS":"慶平路５３９號十五樓之２１","OBJECTID":627865},"geometry":{"x":165071.11000000034,"y":2544210.660000002}},{"attributes":{"ID":627893,"DIS_CODE":0,"TOWNNAME":"安平區","LI":"平通里","LIN":"4鄰","STREET":"慶平路","SECT":" ","MAREA":" ","LANE":" ","ALLEY":" ","HOUSE_NO":"５３９號十五樓之２２","E_COORD97":165071.10999999999,"N_COORD97":2544210.6600000001,"ADDRESS":"慶平路５３９號十五樓之２２","OBJECTID":627866},"geometry":{"x":165071.11000000034,"y":2544210.660000002}},{"attributes":{"ID":627894,"DIS_CODE":0,"TOWNNAME":"安平區","LI":"平通里","LIN":"4鄰","STREET":"慶平路","SECT":" ","MAREA":" ","LANE":" ","ALLEY":" ","HOUSE_NO":"５３９號十五樓之２３","E_COORD97":165071.10999999999,"N_COORD97":2544210.6600000001,"ADDRESS":"慶平路５３９號十五樓之２３","OBJECTID":627867},"geometry":{"x":165071.11000000034,"y":2544210.660000002}},{"attributes":{"ID":627895,"DIS_CODE":0,"TOWNNAME":"安平區","LI":"平通里","LIN":"4鄰","STREET":"慶平路","SECT":" ","MAREA":" ","LANE":" ","ALLEY":" ","HOUSE_NO":"５３９號十五樓之２４","E_COORD97":165071.10999999999,"N_COORD97":2544210.6600000001,"ADDRESS":"慶平路５３９號十五樓之２４","OBJECTID":627868},"geometry":{"x":165071.11000000034,"y":2544210.660000002}},{"attributes":{"ID":627896,"DIS_CODE":0,"TOWNNAME":"安平區","LI":"平通里","LIN":"4鄰","STREET":"慶平路","SECT":" ","MAREA":" ","LANE":" ","ALLEY":" ","HOUSE_NO":"５３９號十五樓之３","E_COORD97":165071.10999999999,"N_COORD97":2544210.6600000001,"ADDRESS":"慶平路５３９號十五樓之３","OBJECTID":627869},"geometry":{"x":165071.11000000034,"y":2544210.660000002}},{"attributes":{"ID":627897,"DIS_CODE":0,"TOWNNAME":"安平區","LI":"平通里","LIN":"4鄰","STREET":"慶平路","SECT":" ","MAREA":" ","LANE":" ","ALLEY":" ","HOUSE_NO":"５３９號十五樓之５","E_COORD97":165071.10999999999,"N_COORD97":2544210.6600000001,"ADDRESS":"慶平路５３９號十五樓之５","OBJECTID":627870},"geometry":{"x":165071.11000000034,"y":2544210.660000002}},{"attributes":{"ID":627898,"DIS_CODE":0,"TOWNNAME":"安平區","LI":"平通里","LIN":"4鄰","STREET":"慶平路","SECT":" ","MAREA":" ","LANE":" ","ALLEY":" ","HOUSE_NO":"５３９號十五樓之６","E_COORD97":165071.10999999999,"N_COORD97":2544210.6600000001,"ADDRESS":"慶平路５３９號十五樓之６","OBJECTID":627871},"geometry":{"x":165071.11000000034,"y":2544210.660000002}},{"attributes":{"ID":627899,"DIS_CODE":0,"TOWNNAME":"安平區","LI":"平通里","LIN":"4鄰","STREET":"慶平路","SECT":" ","MAREA":" ","LANE":" ","ALLEY":" ","HOUSE_NO":"５３９號十五樓之７","E_COORD97":165071.10999999999,"N_COORD97":2544210.6600000001,"ADDRESS":"慶平路５３９號十五樓之７","OBJECTID":627872},"geometry":{"x":165071.11000000034,"y":2544210.660000002}},{"attributes":{"ID":627900,"DIS_CODE":0,"TOWNNAME":"安平區","LI":"平通里","LIN":"4鄰","STREET":"慶平路","SECT":" ","MAREA":" ","LANE":" ","ALLEY":" ","HOUSE_NO":"５３９號十五樓之８","E_COORD97":165071.10999999999,"N_COORD97":2544210.6600000001,"ADDRESS":"慶平路５３９號十五樓之８","OBJECTID":627873},"geometry":{"x":165071.11000000034,"y":2544210.660000002}},{"attributes":{"ID":627901,"DIS_CODE":0,"TOWNNAME":"安平區","LI":"平通里","LIN":"4鄰","STREET":"慶平路","SECT":" ","MAREA":" ","LANE":" ","ALLEY":" ","HOUSE_NO":"５３９號十五樓之９","E_COORD97":165071.10999999999,"N_COORD97":2544210.6600000001,"ADDRESS":"慶平路５３９號十五樓之９","OBJECTID":627874},"geometry":{"x":165071.11000000034,"y":2544210.660000002}},{"attributes":{"ID":627902,"DIS_CODE":0,"TOWNNAME":"安平區","LI":"平通里","LIN":"4鄰","STREET":"慶平路","SECT":" ","MAREA":" ","LANE":" ","ALLEY":" ","HOUSE_NO":"５３９號五樓","E_COORD97":165071.10999999999,"N_COORD97":2544210.6600000001,"ADDRESS":"慶平路５３９號五樓","OBJECTID":627875},"geometry":{"x":165071.11000000034,"y":2544210.660000002}},{"attributes":{"ID":627903,"DIS_CODE":0,"TOWNNAME":"安平區","LI":"平通里","LIN":"4鄰","STREET":"慶平路","SECT":" ","MAREA":" ","LANE":" ","ALLEY":" ","HOUSE_NO":"５３９號五樓之１","E_COORD97":165071.10999999999,"N_COORD97":2544210.6600000001,"ADDRESS":"慶平路５３９號五樓之１","OBJECTID":627876},"geometry":{"x":165071.11000000034,"y":2544210.660000002}},{"attributes":{"ID":627904,"DIS_CODE":0,"TOWNNAME":"安平區","LI":"平通里","LIN":"4鄰","STREET":"慶平路","SECT":" ","MAREA":" ","LANE":" ","ALLEY":" ","HOUSE_NO":"５３９號五樓之１０","E_COORD97":165071.10999999999,"N_COORD97":2544210.6600000001,"ADDRESS":"慶平路５３９號五樓之１０","OBJECTID":627877},"geometry":{"x":165071.11000000034,"y":2544210.660000002}},{"attributes":{"ID":627905,"DIS_CODE":0,"TOWNNAME":"安平區","LI":"平通里","LIN":"4鄰","STREET":"慶平路","SECT":" ","MAREA":" ","LANE":" ","ALLEY":" ","HOUSE_NO":"５３９號五樓之２","E_COORD97":165071.10999999999,"N_COORD97":2544210.6600000001,"ADDRESS":"慶平路５３９號五樓之２","OBJECTID":627878},"geometry":{"x":165071.11000000034,"y":2544210.660000002}},{"attributes":{"ID":627906,"DIS_CODE":0,"TOWNNAME":"安平區","LI":"平通里","LIN":"4鄰","STREET":"慶平路","SECT":" ","MAREA":" ","LANE":" ","ALLEY":" ","HOUSE_NO":"５３９號五樓之３","E_COORD97":165071.10999999999,"N_COORD97":2544210.6600000001,"ADDRESS":"慶平路５３９號五樓之３","OBJECTID":627879},"geometry":{"x":165071.11000000034,"y":2544210.660000002}},{"attributes":{"ID":627907,"DIS_CODE":0,"TOWNNAME":"永康區","LI":"復國里","LIN":"26鄰","STREET":"復華三街","SECT":" ","MAREA":" ","LANE":" ","ALLEY":" ","HOUSE_NO":"７４號","E_COORD97":172689.38,"N_COORD97":2545562.9900000002,"ADDRESS":"復華三街７４號","OBJECTID":627880},"geometry":{"x":172689.38000000175,"y":2545562.9900000002}},{"attributes":{"ID":627908,"DIS_CODE":0,"TOWNNAME":"安平區","LI":"平通里","LIN":"4鄰","STREET":"慶平路","SECT":" ","MAREA":" ","LANE":" ","ALLEY":" ","HOUSE_NO":"５３９號五樓之７","E_COORD97":165071.10999999999,"N_COORD97":2544210.6600000001,"ADDRESS":"慶平路５３９號五樓之７","OBJECTID":627881},"geometry":{"x":165071.11000000034,"y":2544210.660000002}},{"attributes":{"ID":627909,"DIS_CODE":0,"TOWNNAME":"安平區","LI":"平通里","LIN":"4鄰","STREET":"慶平路","SECT":" ","MAREA":" ","LANE":" ","ALLEY":" ","HOUSE_NO":"５３９號五樓之８","E_COORD97":165071.10999999999,"N_COORD97":2544210.6600000001,"ADDRESS":"慶平路５３９號五樓之８","OBJECTID":627882},"geometry":{"x":165071.11000000034,"y":2544210.660000002}},{"attributes":{"ID":627910,"DIS_CODE":0,"TOWNNAME":"安平區","LI":"平通里","LIN":"4鄰","STREET":"慶平路","SECT":" ","MAREA":" ","LANE":" ","ALLEY":" ","HOUSE_NO":"５３９號五樓之９","E_COORD97":165071.10999999999,"N_COORD97":2544210.6600000001,"ADDRESS":"慶平路５３９號五樓之９","OBJECTID":627883},"geometry":{"x":165071.11000000034,"y":2544210.660000002}},{"attributes":{"ID":627911,"DIS_CODE":0,"TOWNNAME":"北區","LI":"裕民里","LIN":"4鄰","STREET":"臨安路","SECT":"二段","MAREA":" ","LANE":" ","ALLEY":" ","HOUSE_NO":"９４號三樓之７","E_COORD97":167783.44,"N_COORD97":2544847.5099999998,"ADDRESS":"臨安路二段９４號三樓之７","OBJECTID":627884},"geometry":{"x":167783.43999999948,"y":2544847.5099999998}},{"attributes":{"ID":627912,"DIS_CODE":0,"TOWNNAME":"北區","LI":"裕民里","LIN":"4鄰","STREET":"臨安路","SECT":"二段","MAREA":" ","LANE":" ","ALLEY":" ","HOUSE_NO":"９４號三樓之８","E_COORD97":167783.44,"N_COORD97":2544847.5099999998,"ADDRESS":"臨安路二段９４號三樓之８","OBJECTID":627885},"geometry":{"x":167783.43999999948,"y":2544847.5099999998}},{"attributes":{"ID":627913,"DIS_CODE":0,"TOWNNAME":"北區","LI":"裕民里","LIN":"4鄰","STREET":"臨安路","SECT":"二段","MAREA":" ","LANE":" ","ALLEY":" ","HOUSE_NO":"９４號五樓之１","E_COORD97":167783.44,"N_COORD97":2544847.5099999998,"ADDRESS":"臨安路二段９４號五樓之１","OBJECTID":627886},"geometry":{"x":167783.43999999948,"y":2544847.5099999998}},{"attributes":{"ID":627914,"DIS_CODE":0,"TOWNNAME":"北區","LI":"裕民里","LIN":"4鄰","STREET":"臨安路","SECT":"二段","MAREA":" ","LANE":" ","ALLEY":" ","HOUSE_NO":"９４號五樓之２","E_COORD97":167783.44,"N_COORD97":2544847.5099999998,"ADDRESS":"臨安路二段９４號五樓之２","OBJECTID":627887},"geometry":{"x":167783.43999999948,"y":2544847.5099999998}},{"attributes":{"ID":627915,"DIS_CODE":0,"TOWNNAME":"北區","LI":"裕民里","LIN":"4鄰","STREET":"臨安路","SECT":"二段","MAREA":" ","LANE":" ","ALLEY":" ","HOUSE_NO":"９４號五樓之３","E_COORD97":167783.44,"N_COORD97":2544847.5099999998,"ADDRESS":"臨安路二段９４號五樓之３","OBJECTID":627888},"geometry":{"x":167783.43999999948,"y":2544847.5099999998}},{"attributes":{"ID":627916,"DIS_CODE":0,"TOWNNAME":"北區","LI":"裕民里","LIN":"4鄰","STREET":"臨安路","SECT":"二段","MAREA":" ","LANE":" ","ALLEY":" ","HOUSE_NO":"９４號五樓之４","E_COORD97":167783.44,"N_COORD97":2544847.5099999998,"ADDRESS":"臨安路二段９４號五樓之４","OBJECTID":627889},"geometry":{"x":167783.43999999948,"y":2544847.5099999998}},{"attributes":{"ID":627917,"DIS_CODE":0,"TOWNNAME":"北區","LI":"裕民里","LIN":"4鄰","STREET":"臨安路","SECT":"二段","MAREA":" ","LANE":" ","ALLEY":" ","HOUSE_NO":"９４號五樓之５","E_COORD97":167783.44,"N_COORD97":2544847.5099999998,"ADDRESS":"臨安路二段９４號五樓之５","OBJECTID":627890},"geometry":{"x":167783.43999999948,"y":2544847.5099999998}},{"attributes":{"ID":627918,"DIS_CODE":0,"TOWNNAME":"北區","LI":"裕民里","LIN":"4鄰","STREET":"臨安路","SECT":"二段","MAREA":" ","LANE":" ","ALLEY":" ","HOUSE_NO":"９４號五樓之６","E_COORD97":167783.44,"N_COORD97":2544847.5099999998,"ADDRESS":"臨安路二段９４號五樓之６","OBJECTID":627891},"geometry":{"x":167783.43999999948,"y":2544847.5099999998}},{"attributes":{"ID":627919,"DIS_CODE":0,"TOWNNAME":"北區","LI":"裕民里","LIN":"4鄰","STREET":"臨安路","SECT":"二段","MAREA":" ","LANE":" ","ALLEY":" ","HOUSE_NO":"９４號五樓之７","E_COORD97":167783.44,"N_COORD97":2544847.5099999998,"ADDRESS":"臨安路二段９４號五樓之７","OBJECTID":627892},"geometry":{"x":167783.43999999948,"y":2544847.5099999998}},{"attributes":{"ID":627920,"DIS_CODE":0,"TOWNNAME":"北區","LI":"裕民里","LIN":"4鄰","STREET":"臨安路","SECT":"二段","MAREA":" ","LANE":" ","ALLEY":" ","HOUSE_NO":"９４號五樓之８","E_COORD97":167783.44,"N_COORD97":2544847.5099999998,"ADDRESS":"臨安路二段９４號五樓之８","OBJECTID":627893},"geometry":{"x":167783.43999999948,"y":2544847.5099999998}},{"attributes":{"ID":627921,"DIS_CODE":0,"TOWNNAME":"北區","LI":"裕民里","LIN":"4鄰","STREET":"臨安路","SECT":"二段","MAREA":" ","LANE":" ","ALLEY":" ","HOUSE_NO":"９４號四樓之１","E_COORD97":167783.44,"N_COORD97":2544847.5099999998,"ADDRESS":"臨安路二段９４號四樓之１","OBJECTID":627894},"geometry":{"x":167783.43999999948,"y":2544847.5099999998}},{"attributes":{"ID":627922,"DIS_CODE":0,"TOWNNAME":"北區","LI":"裕民里","LIN":"4鄰","STREET":"臨安路","SECT":"二段","MAREA":" ","LANE":" ","ALLEY":" ","HOUSE_NO":"９４號四樓之２","E_COORD97":167783.44,"N_COORD97":2544847.5099999998,"ADDRESS":"臨安路二段９４號四樓之２","OBJECTID":627895},"geometry":{"x":167783.43999999948,"y":2544847.5099999998}},{"attributes":{"ID":627923,"DIS_CODE":0,"TOWNNAME":"北區","LI":"裕民里","LIN":"4鄰","STREET":"臨安路","SECT":"二段","MAREA":" ","LANE":" ","ALLEY":" ","HOUSE_NO":"９４號四樓之３","E_COORD97":167783.44,"N_COORD97":2544847.5099999998,"ADDRESS":"臨安路二段９４號四樓之３","OBJECTID":627896},"geometry":{"x":167783.43999999948,"y":2544847.5099999998}},{"attributes":{"ID":627924,"DIS_CODE":0,"TOWNNAME":"北區","LI":"裕民里","LIN":"4鄰","STREET":"臨安路","SECT":"二段","MAREA":" ","LANE":" ","ALLEY":" ","HOUSE_NO":"９４號四樓之４","E_COORD97":167783.44,"N_COORD97":2544847.5099999998,"ADDRESS":"臨安路二段９４號四樓之４","OBJECTID":627897},"geometry":{"x":167783.43999999948,"y":2544847.5099999998}},{"attributes":{"ID":627925,"DIS_CODE":0,"TOWNNAME":"北區","LI":"裕民里","LIN":"4鄰","STREET":"臨安路","SECT":"二段","MAREA":" ","LANE":" ","ALLEY":" ","HOUSE_NO":"９６號二樓之１","E_COORD97":167792.32999999999,"N_COORD97":2544850.5299999998,"ADDRESS":"臨安路二段９６號二樓之１","OBJECTID":627898},"geometry":{"x":167792.32999999914,"y":2544850.5300000031}},{"attributes":{"ID":627926,"DIS_CODE":0,"TOWNNAME":"南區","LI":"新興里","LIN":"4鄰","STREET":"健康路","SECT":"二段","MAREA":" ","LANE":" ","ALLEY":" ","HOUSE_NO":"５６號七樓之３","E_COORD97":167587.47,"N_COORD97":2542472.9500000002,"ADDRESS":"健康路二段５６號七樓之３","OBJECTID":627899},"geometry":{"x":167587.46999999974,"y":2542472.9499999993}},{"attributes":{"ID":627927,"DIS_CODE":0,"TOWNNAME":"南區","LI":"新興里","LIN":"4鄰","STREET":"健康路","SECT":"二段","MAREA":" ","LANE":" ","ALLEY":" ","HOUSE_NO":"５６號七樓之５","E_COORD97":167587.47,"N_COORD97":2542472.9500000002,"ADDRESS":"健康路二段５６號七樓之５","OBJECTID":627900},"geometry":{"x":167587.46999999974,"y":2542472.9499999993}},{"attributes":{"ID":627928,"DIS_CODE":0,"TOWNNAME":"南區","LI":"新興里","LIN":"4鄰","STREET":"健康路","SECT":"二段","MAREA":" ","LANE":" ","ALLEY":" ","HOUSE_NO":"５６號七樓之６","E_COORD97":167587.47,"N_COORD97":2542472.9500000002,"ADDRESS":"健康路二段５６號七樓之６","OBJECTID":627901},"geometry":{"x":167587.46999999974,"y":2542472.9499999993}},{"attributes":{"ID":627929,"DIS_CODE":0,"TOWNNAME":"南區","LI":"新興里","LIN":"4鄰","STREET":"健康路","SECT":"二段","MAREA":" ","LANE":" ","ALLEY":" ","HOUSE_NO":"５６號七樓之７","E_COORD97":167587.47,"N_COORD97":2542472.9500000002,"ADDRESS":"健康路二段５６號七樓之７","OBJECTID":627902},"geometry":{"x":167587.46999999974,"y":2542472.9499999993}},{"attributes":{"ID":627930,"DIS_CODE":0,"TOWNNAME":"南區","LI":"新興里","LIN":"4鄰","STREET":"健康路","SECT":"二段","MAREA":" ","LANE":" ","ALLEY":" ","HOUSE_NO":"５６號九樓之１","E_COORD97":167587.47,"N_COORD97":2542472.9500000002,"ADDRESS":"健康路二段５６號九樓之１","OBJECTID":627903},"geometry":{"x":167587.46999999974,"y":2542472.9499999993}},{"attributes":{"ID":627931,"DIS_CODE":0,"TOWNNAME":"南區","LI":"新興里","LIN":"4鄰","STREET":"健康路","SECT":"二段","MAREA":" ","LANE":" ","ALLEY":" ","HOUSE_NO":"５６號九樓之２","E_COORD97":167587.47,"N_COORD97":2542472.9500000002,"ADDRESS":"健康路二段５６號九樓之２","OBJECTID":627904},"geometry":{"x":167587.46999999974,"y":2542472.9499999993}},{"attributes":{"ID":627932,"DIS_CODE":0,"TOWNNAME":"南區","LI":"新興里","LIN":"4鄰","STREET":"健康路","SECT":"二段","MAREA":" ","LANE":" ","ALLEY":" ","HOUSE_NO":"５６號九樓之３","E_COORD97":167587.47,"N_COORD97":2542472.9500000002,"ADDRESS":"健康路二段５６號九樓之３","OBJECTID":627905},"geometry":{"x":167587.46999999974,"y":2542472.9499999993}},{"attributes":{"ID":627933,"DIS_CODE":0,"TOWNNAME":"南區","LI":"新興里","LIN":"4鄰","STREET":"健康路","SECT":"二段","MAREA":" ","LANE":" ","ALLEY":" ","HOUSE_NO":"５６號九樓之４","E_COORD97":167587.47,"N_COORD97":2542472.9500000002,"ADDRESS":"健康路二段５６號九樓之４","OBJECTID":627906},"geometry":{"x":167587.46999999974,"y":2542472.9499999993}},{"attributes":{"ID":627934,"DIS_CODE":0,"TOWNNAME":"南區","LI":"新興里","LIN":"4鄰","STREET":"健康路","SECT":"二段","MAREA":" ","LANE":" ","ALLEY":" ","HOUSE_NO":"５６號九樓之５","E_COORD97":167587.47,"N_COORD97":2542472.9500000002,"ADDRESS":"健康路二段５６號九樓之５","OBJECTID":627907},"geometry":{"x":167587.46999999974,"y":2542472.9499999993}},{"attributes":{"ID":627935,"DIS_CODE":0,"TOWNNAME":"南區","LI":"新興里","LIN":"4鄰","STREET":"健康路","SECT":"二段","MAREA":" ","LANE":" ","ALLEY":" ","HOUSE_NO":"５６號九樓之６","E_COORD97":167587.47,"N_COORD97":2542472.9500000002,"ADDRESS":"健康路二段５６號九樓之６","OBJECTID":627908},"geometry":{"x":167587.46999999974,"y":2542472.9499999993}},{"attributes":{"ID":627936,"DIS_CODE":0,"TOWNNAME":"南區","LI":"新興里","LIN":"4鄰","STREET":"健康路","SECT":"二段","MAREA":" ","LANE":" ","ALLEY":" ","HOUSE_NO":"５６號九樓之７","E_COORD97":167587.47,"N_COORD97":2542472.9500000002,"ADDRESS":"健康路二段５６號九樓之７","OBJECTID":627909},"geometry":{"x":167587.46999999974,"y":2542472.9499999993}},{"attributes":{"ID":627937,"DIS_CODE":0,"TOWNNAME":"南區","LI":"新興里","LIN":"4鄰","STREET":"健康路","SECT":"二段","MAREA":" ","LANE":" ","ALLEY":" ","HOUSE_NO":"５６號九樓之８","E_COORD97":167587.47,"N_COORD97":2542472.9500000002,"ADDRESS":"健康路二段５６號九樓之８","OBJECTID":627910},"geometry":{"x":167587.46999999974,"y":2542472.9499999993}},{"attributes":{"ID":627938,"DIS_CODE":0,"TOWNNAME":"南區","LI":"新興里","LIN":"4鄰","STREET":"健康路","SECT":"二段","MAREA":" ","LANE":" ","ALLEY":" ","HOUSE_NO":"５６號二樓之１","E_COORD97":167587.47,"N_COORD97":2542472.9500000002,"ADDRESS":"健康路二段５６號二樓之１","OBJECTID":627911},"geometry":{"x":167587.46999999974,"y":2542472.9499999993}},{"attributes":{"ID":627939,"DIS_CODE":0,"TOWNNAME":"南區","LI":"新興里","LIN":"4鄰","STREET":"健康路","SECT":"二段","MAREA":" ","LANE":" ","ALLEY":" ","HOUSE_NO":"５６號二樓之２","E_COORD97":167587.47,"N_COORD97":2542472.9500000002,"ADDRESS":"健康路二段５６號二樓之２","OBJECTID":627912},"geometry":{"x":167587.46999999974,"y":2542472.9499999993}},{"attributes":{"ID":627940,"DIS_CODE":0,"TOWNNAME":"南區","LI":"新興里","LIN":"4鄰","STREET":"健康路","SECT":"二段","MAREA":" ","LANE":" ","ALLEY":" ","HOUSE_NO":"５６號二樓之３","E_COORD97":167587.47,"N_COORD97":2542472.9500000002,"ADDRESS":"健康路二段５６號二樓之３","OBJECTID":627913},"geometry":{"x":167587.46999999974,"y":2542472.9499999993}},{"attributes":{"ID":627941,"DIS_CODE":0,"TOWNNAME":"南區","LI":"新興里","LIN":"4鄰","STREET":"健康路","SECT":"二段","MAREA":" ","LANE":" ","ALLEY":" ","HOUSE_NO":"５６號二樓之４","E_COORD97":167587.47,"N_COORD97":2542472.9500000002,"ADDRESS":"健康路二段５６號二樓之４","OBJECTID":627914},"geometry":{"x":167587.46999999974,"y":2542472.9499999993}},{"attributes":{"ID":627942,"DIS_CODE":0,"TOWNNAME":"南區","LI":"新興里","LIN":"4鄰","STREET":"健康路","SECT":"二段","MAREA":" ","LANE":" ","ALLEY":" ","HOUSE_NO":"５６號八樓之１","E_COORD97":167587.47,"N_COORD97":2542472.9500000002,"ADDRESS":"健康路二段５６號八樓之１","OBJECTID":627915},"geometry":{"x":167587.46999999974,"y":2542472.9499999993}},{"attributes":{"ID":627943,"DIS_CODE":0,"TOWNNAME":"南區","LI":"新興里","LIN":"4鄰","STREET":"健康路","SECT":"二段","MAREA":" ","LANE":" ","ALLEY":" ","HOUSE_NO":"５６號八樓之２","E_COORD97":167587.47,"N_COORD97":2542472.9500000002,"ADDRESS":"健康路二段５６號八樓之２","OBJECTID":627916},"geometry":{"x":167587.46999999974,"y":2542472.9499999993}},{"attributes":{"ID":627944,"DIS_CODE":0,"TOWNNAME":"南區","LI":"新興里","LIN":"4鄰","STREET":"健康路","SECT":"二段","MAREA":" ","LANE":" ","ALLEY":" ","HOUSE_NO":"５６號八樓之３","E_COORD97":167587.47,"N_COORD97":2542472.9500000002,"ADDRESS":"健康路二段５６號八樓之３","OBJECTID":627917},"geometry":{"x":167587.46999999974,"y":2542472.9499999993}},{"attributes":{"ID":627945,"DIS_CODE":0,"TOWNNAME":"南區","LI":"新興里","LIN":"4鄰","STREET":"健康路","SECT":"二段","MAREA":" ","LANE":" ","ALLEY":" ","HOUSE_NO":"５６號八樓之４","E_COORD97":167587.47,"N_COORD97":2542472.9500000002,"ADDRESS":"健康路二段５６號八樓之４","OBJECTID":627918},"geometry":{"x":167587.46999999974,"y":2542472.9499999993}},{"attributes":{"ID":627946,"DIS_CODE":0,"TOWNNAME":"南區","LI":"新興里","LIN":"4鄰","STREET":"健康路","SECT":"二段","MAREA":" ","LANE":" ","ALLEY":" ","HOUSE_NO":"５６號八樓之５","E_COORD97":167587.47,"N_COORD97":2542472.9500000002,"ADDRESS":"健康路二段５６號八樓之５","OBJECTID":627919},"geometry":{"x":167587.46999999974,"y":2542472.9499999993}},{"attributes":{"ID":627947,"DIS_CODE":0,"TOWNNAME":"南區","LI":"新興里","LIN":"4鄰","STREET":"健康路","SECT":"二段","MAREA":" ","LANE":" ","ALLEY":" ","HOUSE_NO":"５６號八樓之６","E_COORD97":167587.47,"N_COORD97":2542472.9500000002,"ADDRESS":"健康路二段５６號八樓之６","OBJECTID":627920},"geometry":{"x":167587.46999999974,"y":2542472.9499999993}},{"attributes":{"ID":627948,"DIS_CODE":0,"TOWNNAME":"南區","LI":"新興里","LIN":"4鄰","STREET":"健康路","SECT":"二段","MAREA":" ","LANE":" ","ALLEY":" ","HOUSE_NO":"５６號八樓之７","E_COORD97":167587.47,"N_COORD97":2542472.9500000002,"ADDRESS":"健康路二段５６號八樓之７","OBJECTID":627921},"geometry":{"x":167587.46999999974,"y":2542472.9499999993}},{"attributes":{"ID":627949,"DIS_CODE":0,"TOWNNAME":"南區","LI":"新興里","LIN":"4鄰","STREET":"健康路","SECT":"二段","MAREA":" ","LANE":" ","ALLEY":" ","HOUSE_NO":"５６號八樓之８","E_COORD97":167587.47,"N_COORD97":2542472.9500000002,"ADDRESS":"健康路二段５６號八樓之８","OBJECTID":627922},"geometry":{"x":167587.46999999974,"y":2542472.9499999993}},{"attributes":{"ID":627950,"DIS_CODE":0,"TOWNNAME":"南區","LI":"新興里","LIN":"4鄰","STREET":"健康路","SECT":"二段","MAREA":" ","LANE":" ","ALLEY":" ","HOUSE_NO":"５６號十一樓之１","E_COORD97":167587.47,"N_COORD97":2542472.9500000002,"ADDRESS":"健康路二段５６號十一樓之１","OBJECTID":627923},"geometry":{"x":167587.46999999974,"y":2542472.9499999993}},{"attributes":{"ID":627951,"DIS_CODE":0,"TOWNNAME":"南區","LI":"新興里","LIN":"4鄰","STREET":"健康路","SECT":"二段","MAREA":" ","LANE":" ","ALLEY":" ","HOUSE_NO":"５６號十一樓之２","E_COORD97":167587.47,"N_COORD97":2542472.9500000002,"ADDRESS":"健康路二段５６號十一樓之２","OBJECTID":627924},"geometry":{"x":167587.46999999974,"y":2542472.9499999993}},{"attributes":{"ID":627952,"DIS_CODE":0,"TOWNNAME":"南區","LI":"新興里","LIN":"4鄰","STREET":"健康路","SECT":"二段","MAREA":" ","LANE":" ","ALLEY":" ","HOUSE_NO":"５６號十一樓之３","E_COORD97":167587.47,"N_COORD97":2542472.9500000002,"ADDRESS":"健康路二段５６號十一樓之３","OBJECTID":627925},"geometry":{"x":167587.46999999974,"y":2542472.9499999993}},{"attributes":{"ID":627953,"DIS_CODE":0,"TOWNNAME":"南區","LI":"新興里","LIN":"4鄰","STREET":"健康路","SECT":"二段","MAREA":" ","LANE":" ","ALLEY":" ","HOUSE_NO":"５６號十一樓之４","E_COORD97":167587.47,"N_COORD97":2542472.9500000002,"ADDRESS":"健康路二段５６號十一樓之４","OBJECTID":627926},"geometry":{"x":167587.46999999974,"y":2542472.9499999993}},{"attributes":{"ID":627954,"DIS_CODE":0,"TOWNNAME":"南區","LI":"新興里","LIN":"4鄰","STREET":"健康路","SECT":"二段","MAREA":" ","LANE":" ","ALLEY":" ","HOUSE_NO":"５６號十一樓之５","E_COORD97":167587.47,"N_COORD97":2542472.9500000002,"ADDRESS":"健康路二段５６號十一樓之５","OBJECTID":627927},"geometry":{"x":167587.46999999974,"y":2542472.9499999993}},{"attributes":{"ID":627955,"DIS_CODE":0,"TOWNNAME":"南區","LI":"新興里","LIN":"4鄰","STREET":"健康路","SECT":"二段","MAREA":" ","LANE":" ","ALLEY":" ","HOUSE_NO":"５６號十一樓之６","E_COORD97":167587.47,"N_COORD97":2542472.9500000002,"ADDRESS":"健康路二段５６號十一樓之６","OBJECTID":627928},"geometry":{"x":167587.46999999974,"y":2542472.9499999993}},{"attributes":{"ID":627956,"DIS_CODE":0,"TOWNNAME":"南區","LI":"新興里","LIN":"4鄰","STREET":"健康路","SECT":"二段","MAREA":" ","LANE":" ","ALLEY":" ","HOUSE_NO":"５６號十二樓之１","E_COORD97":167587.47,"N_COORD97":2542472.9500000002,"ADDRESS":"健康路二段５６號十二樓之１","OBJECTID":627929},"geometry":{"x":167587.46999999974,"y":2542472.9499999993}},{"attributes":{"ID":627957,"DIS_CODE":0,"TOWNNAME":"南區","LI":"新興里","LIN":"4鄰","STREET":"健康路","SECT":"二段","MAREA":" ","LANE":" ","ALLEY":" ","HOUSE_NO":"５６號十二樓之２","E_COORD97":167587.47,"N_COORD97":2542472.9500000002,"ADDRESS":"健康路二段５６號十二樓之２","OBJECTID":627930},"geometry":{"x":167587.46999999974,"y":2542472.9499999993}},{"attributes":{"ID":627958,"DIS_CODE":0,"TOWNNAME":"南區","LI":"新興里","LIN":"4鄰","STREET":"健康路","SECT":"二段","MAREA":" ","LANE":" ","ALLEY":" ","HOUSE_NO":"５６號十二樓之３","E_COORD97":167587.47,"N_COORD97":2542472.9500000002,"ADDRESS":"健康路二段５６號十二樓之３","OBJECTID":627931},"geometry":{"x":167587.46999999974,"y":2542472.9499999993}},{"attributes":{"ID":627959,"DIS_CODE":0,"TOWNNAME":"南區","LI":"新興里","LIN":"4鄰","STREET":"健康路","SECT":"二段","MAREA":" ","LANE":" ","ALLEY":" ","HOUSE_NO":"５６號十二樓之４","E_COORD97":167587.47,"N_COORD97":2542472.9500000002,"ADDRESS":"健康路二段５６號十二樓之４","OBJECTID":627932},"geometry":{"x":167587.46999999974,"y":2542472.9499999993}},{"attributes":{"ID":627960,"DIS_CODE":0,"TOWNNAME":"南區","LI":"新興里","LIN":"4鄰","STREET":"健康路","SECT":"二段","MAREA":" ","LANE":" ","ALLEY":" ","HOUSE_NO":"５６號十二樓之５","E_COORD97":167587.47,"N_COORD97":2542472.9500000002,"ADDRESS":"健康路二段５６號十二樓之５","OBJECTID":627933},"geometry":{"x":167587.46999999974,"y":2542472.9499999993}},{"attributes":{"ID":627961,"DIS_CODE":0,"TOWNNAME":"南區","LI":"新興里","LIN":"4鄰","STREET":"健康路","SECT":"二段","MAREA":" ","LANE":" ","ALLEY":" ","HOUSE_NO":"５６號十二樓之６","E_COORD97":167587.47,"N_COORD97":2542472.9500000002,"ADDRESS":"健康路二段５６號十二樓之６","OBJECTID":627934},"geometry":{"x":167587.46999999974,"y":2542472.9499999993}},{"attributes":{"ID":627962,"DIS_CODE":0,"TOWNNAME":"南區","LI":"新興里","LIN":"4鄰","STREET":"健康路","SECT":"二段","MAREA":" ","LANE":" ","ALLEY":" ","HOUSE_NO":"５６號十二樓之７","E_COORD97":167587.47,"N_COORD97":2542472.9500000002,"ADDRESS":"健康路二段５６號十二樓之７","OBJECTID":627935},"geometry":{"x":167587.46999999974,"y":2542472.9499999993}},{"attributes":{"ID":627963,"DIS_CODE":0,"TOWNNAME":"南區","LI":"新興里","LIN":"4鄰","STREET":"健康路","SECT":"二段","MAREA":" ","LANE":" ","ALLEY":" ","HOUSE_NO":"５６號十二樓之８","E_COORD97":167587.47,"N_COORD97":2542472.9500000002,"ADDRESS":"健康路二段５６號十二樓之８","OBJECTID":627936},"geometry":{"x":167587.46999999974,"y":2542472.9499999993}},{"attributes":{"ID":627964,"DIS_CODE":0,"TOWNNAME":"南區","LI":"新興里","LIN":"4鄰","STREET":"健康路","SECT":"二段","MAREA":" ","LANE":" ","ALLEY":" ","HOUSE_NO":"５６號十三樓之１","E_COORD97":167587.47,"N_COORD97":2542472.9500000002,"ADDRESS":"健康路二段５６號十三樓之１","OBJECTID":627937},"geometry":{"x":167587.46999999974,"y":2542472.9499999993}},{"attributes":{"ID":627965,"DIS_CODE":0,"TOWNNAME":"南區","LI":"新興里","LIN":"4鄰","STREET":"健康路","SECT":"二段","MAREA":" ","LANE":" ","ALLEY":" ","HOUSE_NO":"５６號十三樓之２","E_COORD97":167587.47,"N_COORD97":2542472.9500000002,"ADDRESS":"健康路二段５６號十三樓之２","OBJECTID":627938},"geometry":{"x":167587.46999999974,"y":2542472.9499999993}},{"attributes":{"ID":627966,"DIS_CODE":0,"TOWNNAME":"南區","LI":"新興里","LIN":"4鄰","STREET":"健康路","SECT":"二段","MAREA":" ","LANE":" ","ALLEY":" ","HOUSE_NO":"５６號十三樓之３","E_COORD97":167587.47,"N_COORD97":2542472.9500000002,"ADDRESS":"健康路二段５６號十三樓之３","OBJECTID":627939},"geometry":{"x":167587.46999999974,"y":2542472.9499999993}},{"attributes":{"ID":627967,"DIS_CODE":0,"TOWNNAME":"南區","LI":"新興里","LIN":"4鄰","STREET":"健康路","SECT":"二段","MAREA":" ","LANE":" ","ALLEY":" ","HOUSE_NO":"５６號十三樓之４","E_COORD97":167587.47,"N_COORD97":2542472.9500000002,"ADDRESS":"健康路二段５６號十三樓之４","OBJECTID":627940},"geometry":{"x":167587.46999999974,"y":2542472.9499999993}},{"attributes":{"ID":627968,"DIS_CODE":0,"TOWNNAME":"永康區","LI":"勝利里","LIN":"20鄰","STREET":"勝學路","SECT":" ","MAREA":" ","LANE":" ","ALLEY":" ","HOUSE_NO":"２２９號","E_COORD97":171179.95999999999,"N_COORD97":2545246.25,"ADDRESS":"勝學路２２９號","OBJECTID":627941},"geometry":{"x":171179.95999999996,"y":2545246.2499999981}},{"attributes":{"ID":627969,"DIS_CODE":0,"TOWNNAME":"南區","LI":"新興里","LIN":"4鄰","STREET":"健康路","SECT":"二段","MAREA":" ","LANE":" ","ALLEY":" ","HOUSE_NO":"５６號十樓之１","E_COORD97":167587.47,"N_COORD97":2542472.9500000002,"ADDRESS":"健康路二段５６號十樓之１","OBJECTID":627942},"geometry":{"x":167587.46999999974,"y":2542472.9499999993}},{"attributes":{"ID":627970,"DIS_CODE":0,"TOWNNAME":"南區","LI":"新興里","LIN":"4鄰","STREET":"健康路","SECT":"二段","MAREA":" ","LANE":" ","ALLEY":" ","HOUSE_NO":"５６號十樓之２","E_COORD97":167587.47,"N_COORD97":2542472.9500000002,"ADDRESS":"健康路二段５６號十樓之２","OBJECTID":627943},"geometry":{"x":167587.46999999974,"y":2542472.9499999993}},{"attributes":{"ID":627971,"DIS_CODE":0,"TOWNNAME":"南區","LI":"新興里","LIN":"4鄰","STREET":"健康路","SECT":"二段","MAREA":" ","LANE":" ","ALLEY":" ","HOUSE_NO":"５６號十樓之３","E_COORD97":167587.47,"N_COORD97":2542472.9500000002,"ADDRESS":"健康路二段５６號十樓之３","OBJECTID":627944},"geometry":{"x":167587.46999999974,"y":2542472.9499999993}},{"attributes":{"ID":627972,"DIS_CODE":0,"TOWNNAME":"南區","LI":"新興里","LIN":"4鄰","STREET":"健康路","SECT":"二段","MAREA":" ","LANE":" ","ALLEY":" ","HOUSE_NO":"５６號十樓之４","E_COORD97":167587.47,"N_COORD97":2542472.9500000002,"ADDRESS":"健康路二段５６號十樓之４","OBJECTID":627945},"geometry":{"x":167587.46999999974,"y":2542472.9499999993}},{"attributes":{"ID":627973,"DIS_CODE":0,"TOWNNAME":"南區","LI":"新興里","LIN":"4鄰","STREET":"健康路","SECT":"二段","MAREA":" ","LANE":" ","ALLEY":" ","HOUSE_NO":"５６號十樓之５","E_COORD97":167587.47,"N_COORD97":2542472.9500000002,"ADDRESS":"健康路二段５６號十樓之５","OBJECTID":627946},"geometry":{"x":167587.46999999974,"y":2542472.9499999993}},{"attributes":{"ID":627974,"DIS_CODE":0,"TOWNNAME":"南區","LI":"新興里","LIN":"4鄰","STREET":"健康路","SECT":"二段","MAREA":" ","LANE":" ","ALLEY":" ","HOUSE_NO":"５６號十樓之６","E_COORD97":167587.47,"N_COORD97":2542472.9500000002,"ADDRESS":"健康路二段５６號十樓之６","OBJECTID":627947},"geometry":{"x":167587.46999999974,"y":2542472.9499999993}},{"attributes":{"ID":627975,"DIS_CODE":0,"TOWNNAME":"南區","LI":"新興里","LIN":"4鄰","STREET":"健康路","SECT":"二段","MAREA":" ","LANE":" ","ALLEY":" ","HOUSE_NO":"５６號十樓之７","E_COORD97":167587.47,"N_COORD97":2542472.9500000002,"ADDRESS":"健康路二段５６號十樓之７","OBJECTID":627948},"geometry":{"x":167587.46999999974,"y":2542472.9499999993}},{"attributes":{"ID":627976,"DIS_CODE":0,"TOWNNAME":"南區","LI":"新興里","LIN":"4鄰","STREET":"健康路","SECT":"二段","MAREA":" ","LANE":" ","ALLEY":" ","HOUSE_NO":"５６號十樓之８","E_COORD97":167587.47,"N_COORD97":2542472.9500000002,"ADDRESS":"健康路二段５６號十樓之８","OBJECTID":627949},"geometry":{"x":167587.46999999974,"y":2542472.9499999993}},{"attributes":{"ID":627977,"DIS_CODE":0,"TOWNNAME":"南區","LI":"新興里","LIN":"4鄰","STREET":"健康路","SECT":"二段","MAREA":" ","LANE":" ","ALLEY":" ","HOUSE_NO":"５６號三樓之１","E_COORD97":167587.47,"N_COORD97":2542472.9500000002,"ADDRESS":"健康路二段５６號三樓之１","OBJECTID":627950},"geometry":{"x":167587.46999999974,"y":2542472.9499999993}},{"attributes":{"ID":627978,"DIS_CODE":0,"TOWNNAME":"南區","LI":"新興里","LIN":"4鄰","STREET":"健康路","SECT":"二段","MAREA":" ","LANE":" ","ALLEY":" ","HOUSE_NO":"５６號三樓之２","E_COORD97":167587.47,"N_COORD97":2542472.9500000002,"ADDRESS":"健康路二段５６號三樓之２","OBJECTID":627951},"geometry":{"x":167587.46999999974,"y":2542472.9499999993}},{"attributes":{"ID":627979,"DIS_CODE":0,"TOWNNAME":"南區","LI":"新興里","LIN":"4鄰","STREET":"健康路","SECT":"二段","MAREA":" ","LANE":" ","ALLEY":" ","HOUSE_NO":"５６號三樓之３","E_COORD97":167587.47,"N_COORD97":2542472.9500000002,"ADDRESS":"健康路二段５６號三樓之３","OBJECTID":627952},"geometry":{"x":167587.46999999974,"y":2542472.9499999993}},{"attributes":{"ID":627980,"DIS_CODE":0,"TOWNNAME":"南區","LI":"新興里","LIN":"4鄰","STREET":"健康路","SECT":"二段","MAREA":" ","LANE":" ","ALLEY":" ","HOUSE_NO":"５６號三樓之４","E_COORD97":167587.47,"N_COORD97":2542472.9500000002,"ADDRESS":"健康路二段５６號三樓之４","OBJECTID":627953},"geometry":{"x":167587.46999999974,"y":2542472.9499999993}},{"attributes":{"ID":627981,"DIS_CODE":0,"TOWNNAME":"南區","LI":"新興里","LIN":"4鄰","STREET":"健康路","SECT":"二段","MAREA":" ","LANE":" ","ALLEY":" ","HOUSE_NO":"５６號三樓之５","E_COORD97":167587.47,"N_COORD97":2542472.9500000002,"ADDRESS":"健康路二段５６號三樓之５","OBJECTID":627954},"geometry":{"x":167587.46999999974,"y":2542472.9499999993}},{"attributes":{"ID":627982,"DIS_CODE":0,"TOWNNAME":"南區","LI":"新興里","LIN":"4鄰","STREET":"健康路","SECT":"二段","MAREA":" ","LANE":" ","ALLEY":" ","HOUSE_NO":"５６號三樓之６","E_COORD97":167587.47,"N_COORD97":2542472.9500000002,"ADDRESS":"健康路二段５６號三樓之６","OBJECTID":627955},"geometry":{"x":167587.46999999974,"y":2542472.9499999993}},{"attributes":{"ID":627983,"DIS_CODE":0,"TOWNNAME":"南區","LI":"新興里","LIN":"4鄰","STREET":"健康路","SECT":"二段","MAREA":" ","LANE":" ","ALLEY":" ","HOUSE_NO":"５６號三樓之７","E_COORD97":167587.47,"N_COORD97":2542472.9500000002,"ADDRESS":"健康路二段５６號三樓之７","OBJECTID":627956},"geometry":{"x":167587.46999999974,"y":2542472.9499999993}},{"attributes":{"ID":627984,"DIS_CODE":0,"TOWNNAME":"南區","LI":"新興里","LIN":"4鄰","STREET":"健康路","SECT":"二段","MAREA":" ","LANE":" ","ALLEY":" ","HOUSE_NO":"５６號五樓之１","E_COORD97":167587.47,"N_COORD97":2542472.9500000002,"ADDRESS":"健康路二段５６號五樓之１","OBJECTID":627957},"geometry":{"x":167587.46999999974,"y":2542472.9499999993}},{"attributes":{"ID":627985,"DIS_CODE":0,"TOWNNAME":"南區","LI":"新興里","LIN":"4鄰","STREET":"健康路","SECT":"二段","MAREA":" ","LANE":" ","ALLEY":" ","HOUSE_NO":"５６號五樓之２","E_COORD97":167587.47,"N_COORD97":2542472.9500000002,"ADDRESS":"健康路二段５６號五樓之２","OBJECTID":627958},"geometry":{"x":167587.46999999974,"y":2542472.9499999993}},{"attributes":{"ID":627986,"DIS_CODE":0,"TOWNNAME":"南區","LI":"新興里","LIN":"4鄰","STREET":"健康路","SECT":"二段","MAREA":" ","LANE":" ","ALLEY":" ","HOUSE_NO":"５６號五樓之３","E_COORD97":167587.47,"N_COORD97":2542472.9500000002,"ADDRESS":"健康路二段５６號五樓之３","OBJECTID":627959},"geometry":{"x":167587.46999999974,"y":2542472.9499999993}},{"attributes":{"ID":627987,"DIS_CODE":0,"TOWNNAME":"南區","LI":"新興里","LIN":"4鄰","STREET":"健康路","SECT":"二段","MAREA":" ","LANE":" ","ALLEY":" ","HOUSE_NO":"５６號五樓之４","E_COORD97":167587.47,"N_COORD97":2542472.9500000002,"ADDRESS":"健康路二段５６號五樓之４","OBJECTID":627960},"geometry":{"x":167587.46999999974,"y":2542472.9499999993}},{"attributes":{"ID":627988,"DIS_CODE":0,"TOWNNAME":"南區","LI":"新興里","LIN":"4鄰","STREET":"健康路","SECT":"二段","MAREA":" ","LANE":" ","ALLEY":" ","HOUSE_NO":"５６號五樓之５","E_COORD97":167587.47,"N_COORD97":2542472.9500000002,"ADDRESS":"健康路二段５６號五樓之５","OBJECTID":627961},"geometry":{"x":167587.46999999974,"y":2542472.9499999993}},{"attributes":{"ID":627989,"DIS_CODE":0,"TOWNNAME":"南區","LI":"新興里","LIN":"4鄰","STREET":"健康路","SECT":"二段","MAREA":" ","LANE":" ","ALLEY":" ","HOUSE_NO":"５６號五樓之６","E_COORD97":167587.47,"N_COORD97":2542472.9500000002,"ADDRESS":"健康路二段５６號五樓之６","OBJECTID":627962},"geometry":{"x":167587.46999999974,"y":2542472.9499999993}},{"attributes":{"ID":627990,"DIS_CODE":0,"TOWNNAME":"南區","LI":"新興里","LIN":"4鄰","STREET":"健康路","SECT":"二段","MAREA":" ","LANE":" ","ALLEY":" ","HOUSE_NO":"５６號五樓之７","E_COORD97":167587.47,"N_COORD97":2542472.9500000002,"ADDRESS":"健康路二段５６號五樓之７","OBJECTID":627963},"geometry":{"x":167587.46999999974,"y":2542472.9499999993}},{"attributes":{"ID":627991,"DIS_CODE":0,"TOWNNAME":"南區","LI":"新興里","LIN":"4鄰","STREET":"健康路","SECT":"二段","MAREA":" ","LANE":" ","ALLEY":" ","HOUSE_NO":"５６號六樓之１","E_COORD97":167587.47,"N_COORD97":2542472.9500000002,"ADDRESS":"健康路二段５６號六樓之１","OBJECTID":627964},"geometry":{"x":167587.46999999974,"y":2542472.9499999993}},{"attributes":{"ID":627992,"DIS_CODE":0,"TOWNNAME":"南區","LI":"新興里","LIN":"4鄰","STREET":"健康路","SECT":"二段","MAREA":" ","LANE":" ","ALLEY":" ","HOUSE_NO":"５６號六樓之２","E_COORD97":167587.47,"N_COORD97":2542472.9500000002,"ADDRESS":"健康路二段５６號六樓之２","OBJECTID":627965},"geometry":{"x":167587.46999999974,"y":2542472.9499999993}},{"attributes":{"ID":627993,"DIS_CODE":0,"TOWNNAME":"南區","LI":"田寮里","LIN":"4鄰","STREET":"新興路","SECT":" ","MAREA":" ","LANE":" ","ALLEY":" ","HOUSE_NO":"２４１號七樓之２","E_COORD97":167268.5,"N_COORD97":2541924.8399999999,"ADDRESS":"新興路２４１號七樓之２","OBJECTID":627966},"geometry":{"x":167268.5,"y":2541924.8399999999}},{"attributes":{"ID":627994,"DIS_CODE":0,"TOWNNAME":"永康區","LI":"勝利里","LIN":"18鄰","STREET":"勝學路","SECT":" ","MAREA":" ","LANE":" ","ALLEY":" ","HOUSE_NO":"１７０號","E_COORD97":171192.38,"N_COORD97":2545068.5099999998,"ADDRESS":"勝學路１７０號","OBJECTID":627967},"geometry":{"x":171192.38000000175,"y":2545068.5100000016}},{"attributes":{"ID":627995,"DIS_CODE":0,"TOWNNAME":"永康區","LI":"勝利里","LIN":"18鄰","STREET":"勝學路","SECT":" ","MAREA":" ","LANE":" ","ALLEY":" ","HOUSE_NO":"１９０號","E_COORD97":171195.32999999999,"N_COORD97":2545102.2599999998,"ADDRESS":"勝學路１９０號","OBJECTID":627968},"geometry":{"x":171195.33000000101,"y":2545102.2599999998}},{"attributes":{"ID":627996,"DIS_CODE":0,"TOWNNAME":"南區","LI":"田寮里","LIN":"4鄰","STREET":"新興路","SECT":" ","MAREA":" ","LANE":" ","ALLEY":" ","HOUSE_NO":"２４１號七樓之３","E_COORD97":167268.5,"N_COORD97":2541924.8399999999,"ADDRESS":"新興路２４１號七樓之３","OBJECTID":627969},"geometry":{"x":167268.5,"y":2541924.8399999999}},{"attributes":{"ID":627997,"DIS_CODE":0,"TOWNNAME":"南區","LI":"田寮里","LIN":"4鄰","STREET":"新興路","SECT":" ","MAREA":" ","LANE":" ","ALLEY":" ","HOUSE_NO":"２４１號五樓之１","E_COORD97":167268.5,"N_COORD97":2541924.8399999999,"ADDRESS":"新興路２４１號五樓之１","OBJECTID":627970},"geometry":{"x":167268.5,"y":2541924.8399999999}},{"attributes":{"ID":627998,"DIS_CODE":0,"TOWNNAME":"南區","LI":"田寮里","LIN":"4鄰","STREET":"新興路","SECT":" ","MAREA":" ","LANE":" ","ALLEY":" ","HOUSE_NO":"２４１號五樓之２","E_COORD97":167268.5,"N_COORD97":2541924.8399999999,"ADDRESS":"新興路２４１號五樓之２","OBJECTID":627971},"geometry":{"x":167268.5,"y":2541924.8399999999}},{"attributes":{"ID":627999,"DIS_CODE":0,"TOWNNAME":"南區","LI":"田寮里","LIN":"4鄰","STREET":"新興路","SECT":" ","MAREA":" ","LANE":" ","ALLEY":" ","HOUSE_NO":"２４１號五樓之３","E_COORD97":167268.5,"N_COORD97":2541924.8399999999,"ADDRESS":"新興路２４１號五樓之３","OBJECTID":627972},"geometry":{"x":167268.5,"y":2541924.8399999999}},{"attributes":{"ID":628000,"DIS_CODE":0,"TOWNNAME":"南區","LI":"田寮里","LIN":"4鄰","STREET":"新興路","SECT":" ","MAREA":" ","LANE":" ","ALLEY":" ","HOUSE_NO":"２４１號六樓之１","E_COORD97":167268.5,"N_COORD97":2541924.8399999999,"ADDRESS":"新興路２４１號六樓之１","OBJECTID":627973},"geometry":{"x":167268.5,"y":2541924.8399999999}},{"attributes":{"ID":628001,"DIS_CODE":0,"TOWNNAME":"南區","LI":"田寮里","LIN":"4鄰","STREET":"新興路","SECT":" ","MAREA":" ","LANE":" ","ALLEY":" ","HOUSE_NO":"２４１號六樓之２","E_COORD97":167268.5,"N_COORD97":2541924.8399999999,"ADDRESS":"新興路２４１號六樓之２","OBJECTID":627974},"geometry":{"x":167268.5,"y":2541924.8399999999}},{"attributes":{"ID":628002,"DIS_CODE":0,"TOWNNAME":"南區","LI":"田寮里","LIN":"4鄰","STREET":"新興路","SECT":" ","MAREA":" ","LANE":" ","ALLEY":" ","HOUSE_NO":"２４１號六樓之３","E_COORD97":167268.5,"N_COORD97":2541924.8399999999,"ADDRESS":"新興路２４１號六樓之３","OBJECTID":627975},"geometry":{"x":167268.5,"y":2541924.8399999999}},{"attributes":{"ID":628003,"DIS_CODE":0,"TOWNNAME":"南區","LI":"田寮里","LIN":"4鄰","STREET":"新興路","SECT":" ","MAREA":" ","LANE":" ","ALLEY":" ","HOUSE_NO":"２４１號四樓之１","E_COORD97":167268.5,"N_COORD97":2541924.8399999999,"ADDRESS":"新興路２４１號四樓之１","OBJECTID":627976},"geometry":{"x":167268.5,"y":2541924.8399999999}},{"attributes":{"ID":628004,"DIS_CODE":0,"TOWNNAME":"南區","LI":"田寮里","LIN":"4鄰","STREET":"新興路","SECT":" ","MAREA":" ","LANE":" ","ALLEY":" ","HOUSE_NO":"２４１號四樓之２","E_COORD97":167268.5,"N_COORD97":2541924.8399999999,"ADDRESS":"新興路２４１號四樓之２","OBJECTID":627977},"geometry":{"x":167268.5,"y":2541924.8399999999}},{"attributes":{"ID":628005,"DIS_CODE":0,"TOWNNAME":"南區","LI":"田寮里","LIN":"4鄰","STREET":"新興路","SECT":" ","MAREA":" ","LANE":" ","ALLEY":" ","HOUSE_NO":"２４１號四樓之３","E_COORD97":167268.5,"N_COORD97":2541924.8399999999,"ADDRESS":"新興路２４１號四樓之３","OBJECTID":627978},"geometry":{"x":167268.5,"y":2541924.8399999999}},{"attributes":{"ID":628006,"DIS_CODE":0,"TOWNNAME":"南區","LI":"田寮里","LIN":"4鄰","STREET":"新興路","SECT":" ","MAREA":" ","LANE":" ","ALLEY":" ","HOUSE_NO":"２６１號七樓之１","E_COORD97":167260.09,"N_COORD97":2541897.1200000001,"ADDRESS":"新興路２６１號七樓之１","OBJECTID":627979},"geometry":{"x":167260.09000000078,"y":2541897.120000001}},{"attributes":{"ID":628007,"DIS_CODE":0,"TOWNNAME":"南區","LI":"田寮里","LIN":"4鄰","STREET":"新興路","SECT":" ","MAREA":" ","LANE":" ","ALLEY":" ","HOUSE_NO":"２６１號七樓之２","E_COORD97":167260.09,"N_COORD97":2541897.1200000001,"ADDRESS":"新興路２６１號七樓之２","OBJECTID":627980},"geometry":{"x":167260.09000000078,"y":2541897.120000001}},{"attributes":{"ID":628008,"DIS_CODE":0,"TOWNNAME":"南區","LI":"田寮里","LIN":"4鄰","STREET":"新興路","SECT":" ","MAREA":" ","LANE":" ","ALLEY":" ","HOUSE_NO":"２６１號七樓之３","E_COORD97":167260.09,"N_COORD97":2541897.1200000001,"ADDRESS":"新興路２６１號七樓之３","OBJECTID":627981},"geometry":{"x":167260.09000000078,"y":2541897.120000001}},{"attributes":{"ID":628009,"DIS_CODE":0,"TOWNNAME":"南區","LI":"田寮里","LIN":"4鄰","STREET":"新興路","SECT":" ","MAREA":" ","LANE":" ","ALLEY":" ","HOUSE_NO":"２６１號七樓之４","E_COORD97":167260.09,"N_COORD97":2541897.1200000001,"ADDRESS":"新興路２６１號七樓之４","OBJECTID":627982},"geometry":{"x":167260.09000000078,"y":2541897.120000001}},{"attributes":{"ID":628010,"DIS_CODE":0,"TOWNNAME":"南區","LI":"田寮里","LIN":"4鄰","STREET":"新興路","SECT":" ","MAREA":" ","LANE":" ","ALLEY":" ","HOUSE_NO":"２６１號七樓之６","E_COORD97":167260.09,"N_COORD97":2541897.1200000001,"ADDRESS":"新興路２６１號七樓之６","OBJECTID":627983},"geometry":{"x":167260.09000000078,"y":2541897.120000001}},{"attributes":{"ID":628011,"DIS_CODE":0,"TOWNNAME":"南區","LI":"田寮里","LIN":"4鄰","STREET":"新興路","SECT":" ","MAREA":" ","LANE":" ","ALLEY":" ","HOUSE_NO":"２６１號二樓之１","E_COORD97":167260.09,"N_COORD97":2541897.1200000001,"ADDRESS":"新興路２６１號二樓之１","OBJECTID":627984},"geometry":{"x":167260.09000000078,"y":2541897.120000001}},{"attributes":{"ID":628012,"DIS_CODE":0,"TOWNNAME":"南區","LI":"田寮里","LIN":"4鄰","STREET":"新興路","SECT":" ","MAREA":" ","LANE":" ","ALLEY":" ","HOUSE_NO":"２６１號二樓之２","E_COORD97":167260.09,"N_COORD97":2541897.1200000001,"ADDRESS":"新興路２６１號二樓之２","OBJECTID":627985},"geometry":{"x":167260.09000000078,"y":2541897.120000001}},{"attributes":{"ID":628013,"DIS_CODE":0,"TOWNNAME":"南區","LI":"田寮里","LIN":"4鄰","STREET":"新興路","SECT":" ","MAREA":" ","LANE":" ","ALLEY":" ","HOUSE_NO":"２６１號二樓之３","E_COORD97":167260.09,"N_COORD97":2541897.1200000001,"ADDRESS":"新興路２６１號二樓之３","OBJECTID":627986},"geometry":{"x":167260.09000000078,"y":2541897.120000001}},{"attributes":{"ID":628014,"DIS_CODE":0,"TOWNNAME":"南區","LI":"田寮里","LIN":"4鄰","STREET":"新興路","SECT":" ","MAREA":" ","LANE":" ","ALLEY":" ","HOUSE_NO":"２６１號二樓之４","E_COORD97":167260.09,"N_COORD97":2541897.1200000001,"ADDRESS":"新興路２６１號二樓之４","OBJECTID":627987},"geometry":{"x":167260.09000000078,"y":2541897.120000001}},{"attributes":{"ID":628015,"DIS_CODE":0,"TOWNNAME":"南區","LI":"田寮里","LIN":"4鄰","STREET":"新興路","SECT":" ","MAREA":" ","LANE":" ","ALLEY":" ","HOUSE_NO":"２６１號二樓之５","E_COORD97":167260.09,"N_COORD97":2541897.1200000001,"ADDRESS":"新興路２６１號二樓之５","OBJECTID":627988},"geometry":{"x":167260.09000000078,"y":2541897.120000001}},{"attributes":{"ID":628016,"DIS_CODE":0,"TOWNNAME":"南區","LI":"田寮里","LIN":"4鄰","STREET":"新興路","SECT":" ","MAREA":" ","LANE":" ","ALLEY":" ","HOUSE_NO":"２６１號三樓之１","E_COORD97":167260.09,"N_COORD97":2541897.1200000001,"ADDRESS":"新興路２６１號三樓之１","OBJECTID":627989},"geometry":{"x":167260.09000000078,"y":2541897.120000001}},{"attributes":{"ID":628017,"DIS_CODE":0,"TOWNNAME":"南區","LI":"田寮里","LIN":"4鄰","STREET":"新興路","SECT":" ","MAREA":" ","LANE":" ","ALLEY":" ","HOUSE_NO":"２６１號三樓之２","E_COORD97":167260.09,"N_COORD97":2541897.1200000001,"ADDRESS":"新興路２６１號三樓之２","OBJECTID":627990},"geometry":{"x":167260.09000000078,"y":2541897.120000001}},{"attributes":{"ID":628018,"DIS_CODE":0,"TOWNNAME":"南區","LI":"田寮里","LIN":"4鄰","STREET":"新興路","SECT":" ","MAREA":" ","LANE":" ","ALLEY":" ","HOUSE_NO":"２６１號三樓之３","E_COORD97":167260.09,"N_COORD97":2541897.1200000001,"ADDRESS":"新興路２６１號三樓之３","OBJECTID":627991},"geometry":{"x":167260.09000000078,"y":2541897.120000001}},{"attributes":{"ID":628019,"DIS_CODE":0,"TOWNNAME":"南區","LI":"田寮里","LIN":"4鄰","STREET":"新興路","SECT":" ","MAREA":" ","LANE":" ","ALLEY":" ","HOUSE_NO":"２６１號三樓之４","E_COORD97":167260.09,"N_COORD97":2541897.1200000001,"ADDRESS":"新興路２６１號三樓之４","OBJECTID":627992},"geometry":{"x":167260.09000000078,"y":2541897.120000001}},{"attributes":{"ID":628020,"DIS_CODE":0,"TOWNNAME":"南區","LI":"田寮里","LIN":"4鄰","STREET":"新興路","SECT":" ","MAREA":" ","LANE":" ","ALLEY":" ","HOUSE_NO":"２６１號三樓之５","E_COORD97":167260.09,"N_COORD97":2541897.1200000001,"ADDRESS":"新興路２６１號三樓之５","OBJECTID":627993},"geometry":{"x":167260.09000000078,"y":2541897.120000001}},{"attributes":{"ID":628021,"DIS_CODE":0,"TOWNNAME":"南區","LI":"田寮里","LIN":"4鄰","STREET":"新興路","SECT":" ","MAREA":" ","LANE":" ","ALLEY":" ","HOUSE_NO":"２６１號三樓之６","E_COORD97":167260.09,"N_COORD97":2541897.1200000001,"ADDRESS":"新興路２６１號三樓之６","OBJECTID":627994},"geometry":{"x":167260.09000000078,"y":2541897.120000001}},{"attributes":{"ID":628022,"DIS_CODE":0,"TOWNNAME":"南區","LI":"田寮里","LIN":"4鄰","STREET":"新興路","SECT":" ","MAREA":" ","LANE":" ","ALLEY":" ","HOUSE_NO":"２６１號五樓之１","E_COORD97":167260.09,"N_COORD97":2541897.1200000001,"ADDRESS":"新興路２６１號五樓之１","OBJECTID":627995},"geometry":{"x":167260.09000000078,"y":2541897.120000001}},{"attributes":{"ID":628023,"DIS_CODE":0,"TOWNNAME":"南區","LI":"田寮里","LIN":"4鄰","STREET":"新興路","SECT":" ","MAREA":" ","LANE":" ","ALLEY":" ","HOUSE_NO":"２６１號五樓之２","E_COORD97":167260.09,"N_COORD97":2541897.1200000001,"ADDRESS":"新興路２６１號五樓之２","OBJECTID":627996},"geometry":{"x":167260.09000000078,"y":2541897.120000001}},{"attributes":{"ID":628024,"DIS_CODE":0,"TOWNNAME":"永康區","LI":"復國里","LIN":"4鄰","STREET":"復國一路","SECT":" ","MAREA":" ","LANE":" ","ALLEY":" ","HOUSE_NO":"５８號","E_COORD97":172725.10000000001,"N_COORD97":2544839.6400000001,"ADDRESS":"復國一路５８號","OBJECTID":627997},"geometry":{"x":172725.10000000056,"y":2544839.6400000006}},{"attributes":{"ID":628025,"DIS_CODE":0,"TOWNNAME":"永康區","LI":"勝利里","LIN":"18鄰","STREET":"勝學路","SECT":" ","MAREA":" ","LANE":" ","ALLEY":" ","HOUSE_NO":"１７２號","E_COORD97":171192.98999999999,"N_COORD97":2545072.7599999998,"ADDRESS":"勝學路１７２號","OBJECTID":627998},"geometry":{"x":171192.99000000022,"y":2545072.7599999998}},{"attributes":{"ID":628026,"DIS_CODE":0,"TOWNNAME":"南區","LI":"田寮里","LIN":"4鄰","STREET":"新興路","SECT":" ","MAREA":" ","LANE":" ","ALLEY":" ","HOUSE_NO":"２６１號五樓之３","E_COORD97":167260.09,"N_COORD97":2541897.1200000001,"ADDRESS":"新興路２６１號五樓之３","OBJECTID":627999},"geometry":{"x":167260.09000000078,"y":2541897.120000001}},{"attributes":{"ID":628027,"DIS_CODE":0,"TOWNNAME":"南區","LI":"田寮里","LIN":"4鄰","STREET":"新興路","SECT":" ","MAREA":" ","LANE":" ","ALLEY":" ","HOUSE_NO":"２６１號五樓之４","E_COORD97":167260.09,"N_COORD97":2541897.1200000001,"ADDRESS":"新興路２６１號五樓之４","OBJECTID":628000},"geometry":{"x":167260.09000000078,"y":2541897.120000001}}]}