{"displayFieldName":"TOWNNAME","fieldAliases":{"ID":"ID","DIS_CODE":"DIS_CODE","TOWNNAME":"TOWNNAME","LI":"LI","LIN":"LIN","STREET":"STREET","SECT":"SECT","MAREA":"MAREA","LANE":"LANE","ALLEY":"ALLEY","HOUSE_NO":"HOUSE_NO","E_COORD97":"E_COORD97","N_COORD97":"N_COORD97","ADDRESS":"ADDRESS","OBJECTID":"OBJECTID"},"geometryType":"esriGeometryPoint","spatialReference":{"wkid":102443,"latestWkid":3826},"fields":[{"name":"ID","type":"esriFieldTypeDouble","alias":"ID"},{"name":"DIS_CODE","type":"esriFieldTypeInteger","alias":"DIS_CODE"},{"name":"TOWNNAME","type":"esriFieldTypeString","alias":"TOWNNAME","length":8},{"name":"LI","type":"esriFieldTypeString","alias":"LI","length":8},{"name":"LIN","type":"esriFieldTypeString","alias":"LIN","length":12},{"name":"STREET","type":"esriFieldTypeString","alias":"STREET","length":20},{"name":"SECT","type":"esriFieldTypeString","alias":"SECT","length":8},{"name":"MAREA","type":"esriFieldTypeString","alias":"MAREA","length":12},{"name":"LANE","type":"esriFieldTypeString","alias":"LANE","length":10},{"name":"ALLEY","type":"esriFieldTypeString","alias":"ALLEY","length":10},{"name":"HOUSE_NO","type":"esriFieldTypeString","alias":"HOUSE_NO","length":20},{"name":"E_COORD97","type":"esriFieldTypeDouble","alias":"E_COORD97"},{"name":"N_COORD97","type":"esriFieldTypeDouble","alias":"N_COORD97"},{"name":"ADDRESS","type":"esriFieldTypeString","alias":"ADDRESS","length":50},{"name":"OBJECTID","type":"esriFieldTypeOID","alias":"OBJECTID"}],"features":[{"attributes":{"ID":41801,"DIS_CODE":0,"TOWNNAME":"新化區","LI":"太平里","LIN":"14鄰","STREET":"民權街","SECT":" ","MAREA":" ","LANE":" ","ALLEY":" ","HOUSE_NO":"１５８號","E_COORD97":178720.70999999999,"N_COORD97":2548864.25,"ADDRESS":"民權街１５８號","OBJECTID":41801},"geometry":{"x":178720.71000000089,"y":2548864.2500000037}},{"attributes":{"ID":41802,"DIS_CODE":0,"TOWNNAME":"北區","LI":"成功里","LIN":"7鄰","STREET":"北安路","SECT":"一段","MAREA":" ","LANE":"１７６巷","ALLEY":"５７弄","HOUSE_NO":"７號","E_COORD97":168932.48999999999,"N_COORD97":2546604.2599999998,"ADDRESS":"北安路一段１７６巷５７弄７號","OBJECTID":41802},"geometry":{"x":168932.49000000209,"y":2546604.2599999998}},{"attributes":{"ID":41803,"DIS_CODE":0,"TOWNNAME":"北區","LI":"成功里","LIN":"7鄰","STREET":"北安路","SECT":"一段","MAREA":" ","LANE":"１７６巷","ALLEY":"５７弄","HOUSE_NO":"９號","E_COORD97":168928.64000000001,"N_COORD97":2546605.8599999999,"ADDRESS":"北安路一段１７６巷５７弄９號","OBJECTID":41803},"geometry":{"x":168928.63999999966,"y":2546605.8600000013}},{"attributes":{"ID":41804,"DIS_CODE":0,"TOWNNAME":"安平區","LI":"育平里","LIN":"18鄰","STREET":"育平四街","SECT":" ","MAREA":" ","LANE":" ","ALLEY":" ","HOUSE_NO":"１８號","E_COORD97":164753.60999999999,"N_COORD97":2543389.1299999999,"ADDRESS":"育平四街１８號","OBJECTID":41804},"geometry":{"x":164753.61000000127,"y":2543389.1300000008}},{"attributes":{"ID":41805,"DIS_CODE":0,"TOWNNAME":"安平區","LI":"育平里","LIN":"18鄰","STREET":"育平四街","SECT":" ","MAREA":" ","LANE":" ","ALLEY":" ","HOUSE_NO":"２０號","E_COORD97":164750.14999999999,"N_COORD97":2543389.8500000001,"ADDRESS":"育平四街２０號","OBJECTID":41805},"geometry":{"x":164750.1500000013,"y":2543389.8499999996}},{"attributes":{"ID":41806,"DIS_CODE":0,"TOWNNAME":"安平區","LI":"育平里","LIN":"18鄰","STREET":"育平四街","SECT":" ","MAREA":" ","LANE":" ","ALLEY":" ","HOUSE_NO":"２２號","E_COORD97":164740.79999999999,"N_COORD97":2543391.8599999999,"ADDRESS":"育平四街２２號","OBJECTID":41806},"geometry":{"x":164740.79999999981,"y":2543391.8600000013}},{"attributes":{"ID":41807,"DIS_CODE":0,"TOWNNAME":"安平區","LI":"育平里","LIN":"18鄰","STREET":"育平四街","SECT":" ","MAREA":" ","LANE":" ","ALLEY":" ","HOUSE_NO":"２４號","E_COORD97":164735.32999999999,"N_COORD97":2543391.5699999998,"ADDRESS":"育平四街２４號","OBJECTID":41807},"geometry":{"x":164735.33000000007,"y":2543391.5700000022}},{"attributes":{"ID":41808,"DIS_CODE":0,"TOWNNAME":"南區","LI":"明興里","LIN":"6鄰","STREET":"永仁街","SECT":" ","MAREA":" ","LANE":" ","ALLEY":" ","HOUSE_NO":"２３號","E_COORD97":167021.32000000001,"N_COORD97":2540686.8300000001,"ADDRESS":"永仁街２３號","OBJECTID":41808},"geometry":{"x":167021.31999999937,"y":2540686.8300000019}},{"attributes":{"ID":41809,"DIS_CODE":0,"TOWNNAME":"西港區","LI":"金砂里","LIN":"7鄰","STREET":" ","SECT":" ","MAREA":"砂凹子","LANE":" ","ALLEY":" ","HOUSE_NO":"３２號","E_COORD97":168851.01999999999,"N_COORD97":2561892.3599999999,"ADDRESS":"砂凹子３２號","OBJECTID":41809},"geometry":{"x":168851.01999999955,"y":2561892.3600000013}},{"attributes":{"ID":41810,"DIS_CODE":0,"TOWNNAME":"西港區","LI":"金砂里","LIN":"7鄰","STREET":" ","SECT":" ","MAREA":"砂凹子","LANE":" ","ALLEY":" ","HOUSE_NO":"３３之１號","E_COORD97":168875.76999999999,"N_COORD97":2561896.5600000001,"ADDRESS":"砂凹子３３之１號","OBJECTID":41810},"geometry":{"x":168875.77000000048,"y":2561896.5600000024}},{"attributes":{"ID":41811,"DIS_CODE":0,"TOWNNAME":"西港區","LI":"金砂里","LIN":"7鄰","STREET":" ","SECT":" ","MAREA":"砂凹子","LANE":" ","ALLEY":" ","HOUSE_NO":"３３號","E_COORD97":168877.20000000001,"N_COORD97":2561866.8399999999,"ADDRESS":"砂凹子３３號","OBJECTID":41811},"geometry":{"x":168877.20000000112,"y":2561866.8400000017}},{"attributes":{"ID":41812,"DIS_CODE":0,"TOWNNAME":"西港區","LI":"金砂里","LIN":"7鄰","STREET":" ","SECT":" ","MAREA":"砂凹子","LANE":" ","ALLEY":" ","HOUSE_NO":"３４號之１","E_COORD97":168895.94,"N_COORD97":2561897.7000000002,"ADDRESS":"砂凹子３４號之１","OBJECTID":41812},"geometry":{"x":168895.94000000134,"y":2561897.7000000011}},{"attributes":{"ID":41813,"DIS_CODE":0,"TOWNNAME":"北區","LI":"成德里","LIN":"7鄰","STREET":"西門路","SECT":"四段","MAREA":" ","LANE":"６５巷","ALLEY":"１０８弄","HOUSE_NO":"１０號","E_COORD97":168488.78,"N_COORD97":2545497.2999999998,"ADDRESS":"西門路四段６５巷１０８弄１０號","OBJECTID":41813},"geometry":{"x":168488.78000000119,"y":2545497.3000000007}},{"attributes":{"ID":41814,"DIS_CODE":0,"TOWNNAME":"西港區","LI":"金砂里","LIN":"7鄰","STREET":" ","SECT":" ","MAREA":"砂凹子","LANE":" ","ALLEY":" ","HOUSE_NO":"３４號之２","E_COORD97":168915.17999999999,"N_COORD97":2561931.9199999999,"ADDRESS":"砂凹子３４號之２","OBJECTID":41814},"geometry":{"x":168915.17999999877,"y":2561931.9199999999}},{"attributes":{"ID":41815,"DIS_CODE":0,"TOWNNAME":"西港區","LI":"金砂里","LIN":"7鄰","STREET":" ","SECT":" ","MAREA":"砂凹子","LANE":" ","ALLEY":" ","HOUSE_NO":"３５號","E_COORD97":168876.92000000001,"N_COORD97":2561926.6299999999,"ADDRESS":"砂凹子３５號","OBJECTID":41815},"geometry":{"x":168876.92000000086,"y":2561926.6299999971}},{"attributes":{"ID":41816,"DIS_CODE":0,"TOWNNAME":"西港區","LI":"金砂里","LIN":"7鄰","STREET":" ","SECT":" ","MAREA":"砂凹子","LANE":" ","ALLEY":" ","HOUSE_NO":"３６號","E_COORD97":168906.22,"N_COORD97":2561880.6299999999,"ADDRESS":"砂凹子３６號","OBJECTID":41816},"geometry":{"x":168906.21999999974,"y":2561880.6300000008}},{"attributes":{"ID":41817,"DIS_CODE":0,"TOWNNAME":"西港區","LI":"金砂里","LIN":"7鄰","STREET":" ","SECT":" ","MAREA":"砂凹子","LANE":" ","ALLEY":" ","HOUSE_NO":"３７號之１１","E_COORD97":168965.03,"N_COORD97":2561872.77,"ADDRESS":"砂凹子３７號之１１","OBJECTID":41817},"geometry":{"x":168965.03000000119,"y":2561872.7700000014}},{"attributes":{"ID":41818,"DIS_CODE":0,"TOWNNAME":"北區","LI":"成德里","LIN":"7鄰","STREET":"西門路","SECT":"四段","MAREA":" ","LANE":"６５巷","ALLEY":"１０８弄","HOUSE_NO":"１２號","E_COORD97":168491.23999999999,"N_COORD97":2545500.8100000001,"ADDRESS":"西門路四段６５巷１０８弄１２號","OBJECTID":41818},"geometry":{"x":168491.24000000022,"y":2545500.8100000042}},{"attributes":{"ID":41819,"DIS_CODE":0,"TOWNNAME":"西港區","LI":"金砂里","LIN":"7鄰","STREET":" ","SECT":" ","MAREA":"砂凹子","LANE":" ","ALLEY":" ","HOUSE_NO":"３７號之１２","E_COORD97":168965.19,"N_COORD97":2561868.0800000001,"ADDRESS":"砂凹子３７號之１２","OBJECTID":41819},"geometry":{"x":168965.19000000227,"y":2561868.0800000019}},{"attributes":{"ID":41820,"DIS_CODE":0,"TOWNNAME":"西港區","LI":"金砂里","LIN":"7鄰","STREET":" ","SECT":" ","MAREA":"砂凹子","LANE":" ","ALLEY":" ","HOUSE_NO":"３７號之１９","E_COORD97":168966.37,"N_COORD97":2561835.27,"ADDRESS":"砂凹子３７號之１９","OBJECTID":41820},"geometry":{"x":168966.37000000011,"y":2561835.2700000014}},{"attributes":{"ID":41821,"DIS_CODE":0,"TOWNNAME":"西港區","LI":"金砂里","LIN":"7鄰","STREET":" ","SECT":" ","MAREA":"砂凹子","LANE":" ","ALLEY":" ","HOUSE_NO":"３７號之１","E_COORD97":168939.94,"N_COORD97":2561852.5699999998,"ADDRESS":"砂凹子３７號之１","OBJECTID":41821},"geometry":{"x":168939.94000000134,"y":2561852.5700000003}},{"attributes":{"ID":41822,"DIS_CODE":0,"TOWNNAME":"西港區","LI":"金砂里","LIN":"7鄰","STREET":" ","SECT":" ","MAREA":"砂凹子","LANE":" ","ALLEY":" ","HOUSE_NO":"３７號之２０","E_COORD97":168966.54000000001,"N_COORD97":2561830.5800000001,"ADDRESS":"砂凹子３７號之２０","OBJECTID":41822},"geometry":{"x":168966.54000000097,"y":2561830.5800000019}},{"attributes":{"ID":41823,"DIS_CODE":0,"TOWNNAME":"西港區","LI":"金砂里","LIN":"7鄰","STREET":" ","SECT":" ","MAREA":"砂凹子","LANE":" ","ALLEY":" ","HOUSE_NO":"３７號之３","E_COORD97":168940.98999999999,"N_COORD97":2561875.4700000002,"ADDRESS":"砂凹子３７號之３","OBJECTID":41823},"geometry":{"x":168940.99000000115,"y":2561875.4700000044}},{"attributes":{"ID":41824,"DIS_CODE":0,"TOWNNAME":"西港區","LI":"金砂里","LIN":"7鄰","STREET":" ","SECT":" ","MAREA":"砂凹子","LANE":" ","ALLEY":" ","HOUSE_NO":"３９號","E_COORD97":168895.70999999999,"N_COORD97":2561850.9199999999,"ADDRESS":"砂凹子３９號","OBJECTID":41824},"geometry":{"x":168895.71000000089,"y":2561850.9199999999}},{"attributes":{"ID":41825,"DIS_CODE":0,"TOWNNAME":"西港區","LI":"金砂里","LIN":"7鄰","STREET":" ","SECT":" ","MAREA":"砂凹子","LANE":" ","ALLEY":" ","HOUSE_NO":"４１號之１","E_COORD97":168815.17000000001,"N_COORD97":2561832.9900000002,"ADDRESS":"砂凹子４１號之１","OBJECTID":41825},"geometry":{"x":168815.16999999993,"y":2561832.9900000002}},{"attributes":{"ID":41826,"DIS_CODE":0,"TOWNNAME":"西港區","LI":"金砂里","LIN":"7鄰","STREET":" ","SECT":" ","MAREA":"砂凹子","LANE":" ","ALLEY":" ","HOUSE_NO":"４１號","E_COORD97":168856.20000000001,"N_COORD97":2561832.3900000001,"ADDRESS":"砂凹子４１號","OBJECTID":41826},"geometry":{"x":168856.19999999925,"y":2561832.3900000025}},{"attributes":{"ID":41827,"DIS_CODE":0,"TOWNNAME":"西港區","LI":"港東里","LIN":"7鄰","STREET":" ","SECT":" ","MAREA":"烏竹林","LANE":" ","ALLEY":" ","HOUSE_NO":"１１號","E_COORD97":169902.14999999999,"N_COORD97":2557910.0699999998,"ADDRESS":"烏竹林１１號","OBJECTID":41827},"geometry":{"x":169902.15000000037,"y":2557910.0700000003}},{"attributes":{"ID":41828,"DIS_CODE":0,"TOWNNAME":"西港區","LI":"港東里","LIN":"7鄰","STREET":" ","SECT":" ","MAREA":"烏竹林","LANE":" ","ALLEY":" ","HOUSE_NO":"１２號","E_COORD97":169904.10000000001,"N_COORD97":2557898.79,"ADDRESS":"烏竹林１２號","OBJECTID":41828},"geometry":{"x":169904.10000000149,"y":2557898.790000001}},{"attributes":{"ID":41829,"DIS_CODE":0,"TOWNNAME":"西港區","LI":"港東里","LIN":"7鄰","STREET":" ","SECT":" ","MAREA":"烏竹林","LANE":" ","ALLEY":" ","HOUSE_NO":"１４號","E_COORD97":169897.39999999999,"N_COORD97":2557967.2400000002,"ADDRESS":"烏竹林１４號","OBJECTID":41829},"geometry":{"x":169897.40000000037,"y":2557967.2399999984}},{"attributes":{"ID":41830,"DIS_CODE":0,"TOWNNAME":"西港區","LI":"港東里","LIN":"7鄰","STREET":" ","SECT":" ","MAREA":"烏竹林","LANE":" ","ALLEY":" ","HOUSE_NO":"１５號","E_COORD97":169903.57999999999,"N_COORD97":2557998,"ADDRESS":"烏竹林１５號","OBJECTID":41830},"geometry":{"x":169903.58000000101,"y":2557998}},{"attributes":{"ID":41831,"DIS_CODE":0,"TOWNNAME":"西港區","LI":"港東里","LIN":"7鄰","STREET":" ","SECT":" ","MAREA":"烏竹林","LANE":" ","ALLEY":" ","HOUSE_NO":"１６號","E_COORD97":169935.59,"N_COORD97":2557986.96,"ADDRESS":"烏竹林１６號","OBJECTID":41831},"geometry":{"x":169935.59000000078,"y":2557986.9600000046}},{"attributes":{"ID":41832,"DIS_CODE":0,"TOWNNAME":"北區","LI":"成德里","LIN":"7鄰","STREET":"西門路","SECT":"四段","MAREA":" ","LANE":"６５巷","ALLEY":"１０８弄","HOUSE_NO":"１４號","E_COORD97":168494.22,"N_COORD97":2545504.3100000001,"ADDRESS":"西門路四段６５巷１０８弄１４號","OBJECTID":41832},"geometry":{"x":168494.21999999974,"y":2545504.3100000042}},{"attributes":{"ID":41833,"DIS_CODE":0,"TOWNNAME":"西港區","LI":"港東里","LIN":"7鄰","STREET":" ","SECT":" ","MAREA":"烏竹林","LANE":" ","ALLEY":" ","HOUSE_NO":"１７號之１","E_COORD97":169948.57999999999,"N_COORD97":2558045.5499999998,"ADDRESS":"烏竹林１７號之１","OBJECTID":41833},"geometry":{"x":169948.57999999914,"y":2558045.5500000026}},{"attributes":{"ID":41834,"DIS_CODE":0,"TOWNNAME":"西港區","LI":"港東里","LIN":"7鄰","STREET":" ","SECT":" ","MAREA":"烏竹林","LANE":" ","ALLEY":" ","HOUSE_NO":"１７號之２","E_COORD97":169953.32999999999,"N_COORD97":2558031.8599999999,"ADDRESS":"烏竹林１７號之２","OBJECTID":41834},"geometry":{"x":169953.33000000007,"y":2558031.8600000013}},{"attributes":{"ID":41835,"DIS_CODE":0,"TOWNNAME":"西港區","LI":"港東里","LIN":"7鄰","STREET":" ","SECT":" ","MAREA":"烏竹林","LANE":" ","ALLEY":" ","HOUSE_NO":"１７之６號","E_COORD97":169931.10000000001,"N_COORD97":2558019.0699999998,"ADDRESS":"烏竹林１７之６號","OBJECTID":41835},"geometry":{"x":169931.10000000149,"y":2558019.0700000003}},{"attributes":{"ID":41836,"DIS_CODE":0,"TOWNNAME":"西港區","LI":"港東里","LIN":"7鄰","STREET":" ","SECT":" ","MAREA":"烏竹林","LANE":" ","ALLEY":" ","HOUSE_NO":"１７號","E_COORD97":169952.89000000001,"N_COORD97":2557987.5899999999,"ADDRESS":"烏竹林１７號","OBJECTID":41836},"geometry":{"x":169952.88999999873,"y":2557987.5899999999}},{"attributes":{"ID":41837,"DIS_CODE":0,"TOWNNAME":"西港區","LI":"港東里","LIN":"7鄰","STREET":" ","SECT":" ","MAREA":"烏竹林","LANE":" ","ALLEY":" ","HOUSE_NO":"１９號","E_COORD97":169944.67999999999,"N_COORD97":2557966.25,"ADDRESS":"烏竹林１９號","OBJECTID":41837},"geometry":{"x":169944.68000000063,"y":2557966.25}},{"attributes":{"ID":41838,"DIS_CODE":0,"TOWNNAME":"西港區","LI":"港東里","LIN":"7鄰","STREET":" ","SECT":" ","MAREA":"烏竹林","LANE":" ","ALLEY":" ","HOUSE_NO":"２０號之１","E_COORD97":169950.67000000001,"N_COORD97":2557928.1099999999,"ADDRESS":"烏竹林２０號之１","OBJECTID":41838},"geometry":{"x":169950.66999999993,"y":2557928.1100000013}},{"attributes":{"ID":41839,"DIS_CODE":0,"TOWNNAME":"西港區","LI":"新復里","LIN":"7鄰","STREET":" ","SECT":" ","MAREA":"新港","LANE":" ","ALLEY":" ","HOUSE_NO":"５７之２號","E_COORD97":165898.64999999999,"N_COORD97":2557481.7599999998,"ADDRESS":"新港５７之２號","OBJECTID":41839},"geometry":{"x":165898.64999999944,"y":2557481.7599999998}},{"attributes":{"ID":41840,"DIS_CODE":0,"TOWNNAME":"北區","LI":"成德里","LIN":"7鄰","STREET":"西門路","SECT":"四段","MAREA":" ","LANE":"６５巷","ALLEY":"１０８弄","HOUSE_NO":"１６號","E_COORD97":168496.32999999999,"N_COORD97":2545507.29,"ADDRESS":"西門路四段６５巷１０８弄１６號","OBJECTID":41840},"geometry":{"x":168496.33000000101,"y":2545507.290000001}},{"attributes":{"ID":41841,"DIS_CODE":0,"TOWNNAME":"西港區","LI":"新復里","LIN":"7鄰","STREET":" ","SECT":" ","MAREA":"新港","LANE":" ","ALLEY":" ","HOUSE_NO":"５７號","E_COORD97":165875.12,"N_COORD97":2557490.9300000002,"ADDRESS":"新港５７號","OBJECTID":41841},"geometry":{"x":165875.12000000104,"y":2557490.9300000034}},{"attributes":{"ID":41842,"DIS_CODE":0,"TOWNNAME":"東區","LI":"富強里","LIN":"6鄰","STREET":"中華東路","SECT":"二段","MAREA":" ","LANE":" ","ALLEY":" ","HOUSE_NO":"８４號","E_COORD97":171365.20000000001,"N_COORD97":2542924.1699999999,"ADDRESS":"中華東路二段８４號","OBJECTID":41842},"geometry":{"x":171365.20000000205,"y":2542924.1699999999}},{"attributes":{"ID":41843,"DIS_CODE":0,"TOWNNAME":"西港區","LI":"新復里","LIN":"7鄰","STREET":" ","SECT":" ","MAREA":"新港","LANE":" ","ALLEY":" ","HOUSE_NO":"６２號","E_COORD97":165782.14000000001,"N_COORD97":2557521.3500000001,"ADDRESS":"新港６２號","OBJECTID":41843},"geometry":{"x":165782.13999999966,"y":2557521.3499999996}},{"attributes":{"ID":41844,"DIS_CODE":0,"TOWNNAME":"西港區","LI":"新復里","LIN":"7鄰","STREET":" ","SECT":" ","MAREA":"新港","LANE":" ","ALLEY":" ","HOUSE_NO":"６３號","E_COORD97":165931.87,"N_COORD97":2557594.1499999999,"ADDRESS":"新港６３號","OBJECTID":41844},"geometry":{"x":165931.87000000011,"y":2557594.1500000004}},{"attributes":{"ID":41845,"DIS_CODE":0,"TOWNNAME":"白河區","LI":"河東里","LIN":"7鄰","STREET":" ","SECT":" ","MAREA":"糞箕湖","LANE":" ","ALLEY":" ","HOUSE_NO":"８８號","E_COORD97":192219.89999999999,"N_COORD97":2582651.3399999999,"ADDRESS":"糞箕湖８８號","OBJECTID":41845},"geometry":{"x":192219.90000000224,"y":2582651.3399999999}},{"attributes":{"ID":41846,"DIS_CODE":0,"TOWNNAME":"安平區","LI":"育平里","LIN":"18鄰","STREET":"育平四街","SECT":" ","MAREA":" ","LANE":" ","ALLEY":" ","HOUSE_NO":"２８號","E_COORD97":164704.70000000001,"N_COORD97":2543399.9199999999,"ADDRESS":"育平四街２８號","OBJECTID":41846},"geometry":{"x":164704.69999999925,"y":2543399.9199999999}},{"attributes":{"ID":41847,"DIS_CODE":0,"TOWNNAME":"安平區","LI":"育平里","LIN":"18鄰","STREET":"育平四街","SECT":" ","MAREA":" ","LANE":" ","ALLEY":" ","HOUSE_NO":"３０號","E_COORD97":164693.89000000001,"N_COORD97":2543401.6600000001,"ADDRESS":"育平四街３０號","OBJECTID":41847},"geometry":{"x":164693.88999999966,"y":2543401.6600000001}},{"attributes":{"ID":41848,"DIS_CODE":0,"TOWNNAME":"安平區","LI":"育平里","LIN":"18鄰","STREET":"育平四街","SECT":" ","MAREA":" ","LANE":" ","ALLEY":" ","HOUSE_NO":"３２號","E_COORD97":164654.32000000001,"N_COORD97":2543403.2200000002,"ADDRESS":"育平四街３２號","OBJECTID":41848},"geometry":{"x":164654.3200000003,"y":2543403.2200000044}},{"attributes":{"ID":41849,"DIS_CODE":0,"TOWNNAME":"白河區","LI":"河東里","LIN":"7鄰","STREET":" ","SECT":" ","MAREA":"糞箕湖","LANE":" ","ALLEY":" ","HOUSE_NO":"８９號","E_COORD97":192209.60000000001,"N_COORD97":2582671.98,"ADDRESS":"糞箕湖８９號","OBJECTID":41849},"geometry":{"x":192209.60000000056,"y":2582671.9800000042}},{"attributes":{"ID":41850,"DIS_CODE":0,"TOWNNAME":"北區","LI":"成德里","LIN":"7鄰","STREET":"西門路","SECT":"四段","MAREA":" ","LANE":"６５巷","ALLEY":"１０８弄","HOUSE_NO":"１８號","E_COORD97":168498.79000000001,"N_COORD97":2545509.9199999999,"ADDRESS":"西門路四段６５巷１０８弄１８號","OBJECTID":41850},"geometry":{"x":168498.79000000004,"y":2545509.9200000037}},{"attributes":{"ID":41851,"DIS_CODE":0,"TOWNNAME":"北區","LI":"成德里","LIN":"7鄰","STREET":"西門路","SECT":"四段","MAREA":" ","LANE":"６５巷","ALLEY":"１０８弄","HOUSE_NO":"２０號","E_COORD97":168500.72,"N_COORD97":2545513.96,"ADDRESS":"西門路四段６５巷１０８弄２０號","OBJECTID":41851},"geometry":{"x":168500.71999999974,"y":2545513.9600000046}},{"attributes":{"ID":41852,"DIS_CODE":0,"TOWNNAME":"北區","LI":"成德里","LIN":"7鄰","STREET":"西門路","SECT":"四段","MAREA":" ","LANE":"６５巷","ALLEY":"１０８弄","HOUSE_NO":"２２號","E_COORD97":168503,"N_COORD97":2545517.1099999999,"ADDRESS":"西門路四段６５巷１０８弄２２號","OBJECTID":41852},"geometry":{"x":168503,"y":2545517.1099999994}},{"attributes":{"ID":41853,"DIS_CODE":0,"TOWNNAME":"北區","LI":"成德里","LIN":"7鄰","STREET":"西門路","SECT":"四段","MAREA":" ","LANE":"６５巷","ALLEY":"１０８弄","HOUSE_NO":"２４號","E_COORD97":168505.63,"N_COORD97":2545520.6200000001,"ADDRESS":"西門路四段６５巷１０８弄２４號","OBJECTID":41853},"geometry":{"x":168505.63000000175,"y":2545520.6200000029}},{"attributes":{"ID":41854,"DIS_CODE":0,"TOWNNAME":"北區","LI":"成德里","LIN":"7鄰","STREET":"西門路","SECT":"四段","MAREA":" ","LANE":"６５巷","ALLEY":"１０８弄","HOUSE_NO":"２６號","E_COORD97":168507.04000000001,"N_COORD97":2545524.1200000001,"ADDRESS":"西門路四段６５巷１０８弄２６號","OBJECTID":41854},"geometry":{"x":168507.04000000097,"y":2545524.1200000029}},{"attributes":{"ID":41855,"DIS_CODE":0,"TOWNNAME":"北區","LI":"成德里","LIN":"7鄰","STREET":"西門路","SECT":"四段","MAREA":" ","LANE":"６５巷","ALLEY":"１０８弄","HOUSE_NO":"２８號","E_COORD97":168510.01999999999,"N_COORD97":2545527.2799999998,"ADDRESS":"西門路四段６５巷１０８弄２８號","OBJECTID":41855},"geometry":{"x":168510.02000000048,"y":2545527.2800000012}},{"attributes":{"ID":41856,"DIS_CODE":0,"TOWNNAME":"北區","LI":"成德里","LIN":"7鄰","STREET":"西門路","SECT":"四段","MAREA":" ","LANE":"６５巷","ALLEY":"１０８弄","HOUSE_NO":"２號","E_COORD97":168480.35999999999,"N_COORD97":2545483.98,"ADDRESS":"西門路四段６５巷１０８弄２號","OBJECTID":41856},"geometry":{"x":168480.36000000034,"y":2545483.9800000023}},{"attributes":{"ID":41857,"DIS_CODE":0,"TOWNNAME":"北區","LI":"成德里","LIN":"7鄰","STREET":"西門路","SECT":"四段","MAREA":" ","LANE":"６５巷","ALLEY":"１０８弄","HOUSE_NO":"３０號","E_COORD97":168512.48000000001,"N_COORD97":2545530.0800000001,"ADDRESS":"西門路四段６５巷１０８弄３０號","OBJECTID":41857},"geometry":{"x":168512.48000000138,"y":2545530.0800000019}},{"attributes":{"ID":41858,"DIS_CODE":0,"TOWNNAME":"北區","LI":"成德里","LIN":"7鄰","STREET":"西門路","SECT":"四段","MAREA":" ","LANE":"６５巷","ALLEY":"１０８弄","HOUSE_NO":"３２號","E_COORD97":168514.57999999999,"N_COORD97":2545533.7599999998,"ADDRESS":"西門路四段６５巷１０８弄３２號","OBJECTID":41858},"geometry":{"x":168514.58000000194,"y":2545533.7599999998}},{"attributes":{"ID":41859,"DIS_CODE":0,"TOWNNAME":"北區","LI":"成德里","LIN":"7鄰","STREET":"西門路","SECT":"四段","MAREA":" ","LANE":"６５巷","ALLEY":"１０８弄","HOUSE_NO":"３４號","E_COORD97":168517.04000000001,"N_COORD97":2545537.27,"ADDRESS":"西門路四段６５巷１０８弄３４號","OBJECTID":41859},"geometry":{"x":168517.04000000097,"y":2545537.2699999977}},{"attributes":{"ID":41860,"DIS_CODE":0,"TOWNNAME":"北區","LI":"成德里","LIN":"7鄰","STREET":"西門路","SECT":"四段","MAREA":" ","LANE":"６５巷","ALLEY":"１０８弄","HOUSE_NO":"３６號","E_COORD97":168518.97,"N_COORD97":2545540.9500000002,"ADDRESS":"西門路四段６５巷１０８弄３６號","OBJECTID":41860},"geometry":{"x":168518.97000000067,"y":2545540.9500000011}},{"attributes":{"ID":41861,"DIS_CODE":0,"TOWNNAME":"北區","LI":"成德里","LIN":"7鄰","STREET":"西門路","SECT":"四段","MAREA":" ","LANE":"６５巷","ALLEY":"１０８弄","HOUSE_NO":"４３號","E_COORD97":168521.89999999999,"N_COORD97":2545559.5800000001,"ADDRESS":"西門路四段６５巷１０８弄４３號","OBJECTID":41861},"geometry":{"x":168521.9000000013,"y":2545559.5800000038}},{"attributes":{"ID":41862,"DIS_CODE":0,"TOWNNAME":"北區","LI":"成德里","LIN":"7鄰","STREET":"西門路","SECT":"四段","MAREA":" ","LANE":"６５巷","ALLEY":"１０８弄","HOUSE_NO":"４５號","E_COORD97":168525.63,"N_COORD97":2545557.3900000001,"ADDRESS":"西門路四段６５巷１０８弄４５號","OBJECTID":41862},"geometry":{"x":168525.62999999989,"y":2545557.3900000006}},{"attributes":{"ID":41863,"DIS_CODE":0,"TOWNNAME":"北區","LI":"成德里","LIN":"7鄰","STREET":"西門路","SECT":"四段","MAREA":" ","LANE":"６５巷","ALLEY":"１０８弄","HOUSE_NO":"４７號","E_COORD97":168529.14000000001,"N_COORD97":2545555.2000000002,"ADDRESS":"西門路四段６５巷１０８弄４７號","OBJECTID":41863},"geometry":{"x":168529.1400000006,"y":2545555.2000000011}},{"attributes":{"ID":41864,"DIS_CODE":0,"TOWNNAME":"北區","LI":"成德里","LIN":"7鄰","STREET":"西門路","SECT":"四段","MAREA":" ","LANE":"６５巷","ALLEY":"１０８弄","HOUSE_NO":"４９號","E_COORD97":168532.64999999999,"N_COORD97":2545553.6600000001,"ADDRESS":"西門路四段６５巷１０８弄４９號","OBJECTID":41864},"geometry":{"x":168532.65000000037,"y":2545553.660000002}},{"attributes":{"ID":41865,"DIS_CODE":0,"TOWNNAME":"北區","LI":"成德里","LIN":"7鄰","STREET":"西門路","SECT":"四段","MAREA":" ","LANE":"６５巷","ALLEY":"１０８弄","HOUSE_NO":"４號","E_COORD97":168482.64000000001,"N_COORD97":2545487.4900000002,"ADDRESS":"西門路四段６５巷１０８弄４號","OBJECTID":41865},"geometry":{"x":168482.63999999966,"y":2545487.4900000021}},{"attributes":{"ID":41866,"DIS_CODE":0,"TOWNNAME":"北區","LI":"成德里","LIN":"7鄰","STREET":"西門路","SECT":"四段","MAREA":" ","LANE":"６５巷","ALLEY":"１０８弄","HOUSE_NO":"６號","E_COORD97":168484.39999999999,"N_COORD97":2545490.4700000002,"ADDRESS":"西門路四段６５巷１０８弄６號","OBJECTID":41866},"geometry":{"x":168484.4000000013,"y":2545490.4700000025}},{"attributes":{"ID":41867,"DIS_CODE":0,"TOWNNAME":"北區","LI":"成德里","LIN":"7鄰","STREET":"西門路","SECT":"四段","MAREA":" ","LANE":"６５巷","ALLEY":"１０８弄","HOUSE_NO":"８號","E_COORD97":168486.85000000001,"N_COORD97":2545494.1499999999,"ADDRESS":"西門路四段６５巷１０８弄８號","OBJECTID":41867},"geometry":{"x":168486.85000000149,"y":2545494.1500000004}},{"attributes":{"ID":41868,"DIS_CODE":0,"TOWNNAME":"北區","LI":"力行里","LIN":"7鄰","STREET":"開南街","SECT":" ","MAREA":" ","LANE":"２７５巷","ALLEY":"８弄","HOUSE_NO":"１０號","E_COORD97":170973.89999999999,"N_COORD97":2545027.3300000001,"ADDRESS":"開南街２７５巷８弄１０號","OBJECTID":41868},"geometry":{"x":170973.90000000037,"y":2545027.3300000019}},{"attributes":{"ID":41869,"DIS_CODE":0,"TOWNNAME":"北區","LI":"力行里","LIN":"7鄰","STREET":"開南街","SECT":" ","MAREA":" ","LANE":"２７５巷","ALLEY":"８弄","HOUSE_NO":"１１號","E_COORD97":170979.57999999999,"N_COORD97":2545035.4900000002,"ADDRESS":"開南街２７５巷８弄１１號","OBJECTID":41869},"geometry":{"x":170979.58000000101,"y":2545035.4900000021}},{"attributes":{"ID":41870,"DIS_CODE":0,"TOWNNAME":"北區","LI":"力行里","LIN":"7鄰","STREET":"開南街","SECT":" ","MAREA":" ","LANE":"２７５巷","ALLEY":"８弄","HOUSE_NO":"１２號","E_COORD97":170978.16,"N_COORD97":2545026.98,"ADDRESS":"開南街２７５巷８弄１２號","OBJECTID":41870},"geometry":{"x":170978.16000000015,"y":2545026.9800000004}},{"attributes":{"ID":41871,"DIS_CODE":0,"TOWNNAME":"北區","LI":"力行里","LIN":"7鄰","STREET":"開南街","SECT":" ","MAREA":" ","LANE":"２７５巷","ALLEY":"８弄","HOUSE_NO":"１３號","E_COORD97":170983.97,"N_COORD97":2545035.02,"ADDRESS":"開南街２７５巷８弄１３號","OBJECTID":41871},"geometry":{"x":170983.97000000067,"y":2545035.0200000014}},{"attributes":{"ID":41872,"DIS_CODE":0,"TOWNNAME":"北區","LI":"力行里","LIN":"7鄰","STREET":"開南街","SECT":" ","MAREA":" ","LANE":"２７５巷","ALLEY":"８弄","HOUSE_NO":"１４號","E_COORD97":170983.48999999999,"N_COORD97":2545026.7400000002,"ADDRESS":"開南街２７５巷８弄１４號","OBJECTID":41872},"geometry":{"x":170983.49000000209,"y":2545026.7400000021}},{"attributes":{"ID":41873,"DIS_CODE":0,"TOWNNAME":"北區","LI":"力行里","LIN":"7鄰","STREET":"開南街","SECT":" ","MAREA":" ","LANE":"２７５巷","ALLEY":"８弄","HOUSE_NO":"１５號","E_COORD97":170987.88,"N_COORD97":2545035.1400000001,"ADDRESS":"開南街２７５巷８弄１５號","OBJECTID":41873},"geometry":{"x":170987.88000000082,"y":2545035.1400000025}},{"attributes":{"ID":41874,"DIS_CODE":0,"TOWNNAME":"歸仁區","LI":"後市里","LIN":"47鄰","STREET":"文化街","SECT":"二段","MAREA":" ","LANE":"１２１巷","ALLEY":"１２弄","HOUSE_NO":"２號","E_COORD97":177183.69,"N_COORD97":2541144.7599999998,"ADDRESS":"文化街二段１２１巷１２弄２號","OBJECTID":41874},"geometry":{"x":177183.69000000134,"y":2541144.7600000016}},{"attributes":{"ID":41875,"DIS_CODE":0,"TOWNNAME":"北區","LI":"力行里","LIN":"7鄰","STREET":"開南街","SECT":" ","MAREA":" ","LANE":"２７５巷","ALLEY":"８弄","HOUSE_NO":"１８號","E_COORD97":170991.67000000001,"N_COORD97":2545025.79,"ADDRESS":"開南街２７５巷８弄１８號","OBJECTID":41875},"geometry":{"x":170991.66999999993,"y":2545025.790000001}},{"attributes":{"ID":41876,"DIS_CODE":0,"TOWNNAME":"北區","LI":"力行里","LIN":"7鄰","STREET":"開南街","SECT":" ","MAREA":" ","LANE":"２７５巷","ALLEY":"８弄","HOUSE_NO":"１９號","E_COORD97":170996.64000000001,"N_COORD97":2545033.96,"ADDRESS":"開南街２７５巷８弄１９號","OBJECTID":41876},"geometry":{"x":170996.63999999966,"y":2545033.9600000028}},{"attributes":{"ID":41877,"DIS_CODE":0,"TOWNNAME":"北區","LI":"成德里","LIN":"20鄰","STREET":"文成三路","SECT":" ","MAREA":" ","LANE":" ","ALLEY":" ","HOUSE_NO":"２４５號","E_COORD97":168358.26999999999,"N_COORD97":2546317.5499999998,"ADDRESS":"文成三路２４５號","OBJECTID":41877},"geometry":{"x":168358.26999999955,"y":2546317.5500000026}},{"attributes":{"ID":41878,"DIS_CODE":0,"TOWNNAME":"北區","LI":"力行里","LIN":"7鄰","STREET":"開南街","SECT":" ","MAREA":" ","LANE":"２７５巷","ALLEY":"８弄","HOUSE_NO":"１號","E_COORD97":170956.60000000001,"N_COORD97":2545037.3900000001,"ADDRESS":"開南街２７５巷８弄１號","OBJECTID":41878},"geometry":{"x":170956.59999999963,"y":2545037.3900000025}},{"attributes":{"ID":41879,"DIS_CODE":0,"TOWNNAME":"北區","LI":"力行里","LIN":"7鄰","STREET":"開南街","SECT":" ","MAREA":" ","LANE":"２７５巷","ALLEY":"８弄","HOUSE_NO":"２０號","E_COORD97":170996.29000000001,"N_COORD97":2545025.6699999999,"ADDRESS":"開南街２７５巷８弄２０號","OBJECTID":41879},"geometry":{"x":170996.29000000004,"y":2545025.6699999999}},{"attributes":{"ID":41880,"DIS_CODE":0,"TOWNNAME":"北區","LI":"力行里","LIN":"7鄰","STREET":"開南街","SECT":" ","MAREA":" ","LANE":"２７５巷","ALLEY":"８弄","HOUSE_NO":"２１號","E_COORD97":171001.85999999999,"N_COORD97":2545033.8399999999,"ADDRESS":"開南街２７５巷８弄２１號","OBJECTID":41880},"geometry":{"x":171001.86000000127,"y":2545033.8399999999}},{"attributes":{"ID":41881,"DIS_CODE":0,"TOWNNAME":"北區","LI":"力行里","LIN":"7鄰","STREET":"開南街","SECT":" ","MAREA":" ","LANE":"２７５巷","ALLEY":"８弄","HOUSE_NO":"２２號","E_COORD97":170999.84,"N_COORD97":2545025.0800000001,"ADDRESS":"開南街２７５巷８弄２２號","OBJECTID":41881},"geometry":{"x":170999.84000000078,"y":2545025.0800000019}},{"attributes":{"ID":41882,"DIS_CODE":0,"TOWNNAME":"北區","LI":"力行里","LIN":"7鄰","STREET":"開南街","SECT":" ","MAREA":" ","LANE":"２７５巷","ALLEY":"８弄","HOUSE_NO":"２３號","E_COORD97":171005.88,"N_COORD97":2545033.48,"ADDRESS":"開南街２７５巷８弄２３號","OBJECTID":41882},"geometry":{"x":171005.87999999896,"y":2545033.4800000023}},{"attributes":{"ID":41883,"DIS_CODE":0,"TOWNNAME":"北區","LI":"力行里","LIN":"7鄰","STREET":"開南街","SECT":" ","MAREA":" ","LANE":"２７５巷","ALLEY":"８弄","HOUSE_NO":"２４號","E_COORD97":171004.82000000001,"N_COORD97":2545024.8500000001,"ADDRESS":"開南街２７５巷８弄２４號","OBJECTID":41883},"geometry":{"x":171004.8200000003,"y":2545024.8499999978}},{"attributes":{"ID":41884,"DIS_CODE":0,"TOWNNAME":"北區","LI":"力行里","LIN":"7鄰","STREET":"開南街","SECT":" ","MAREA":" ","LANE":"２７５巷","ALLEY":"８弄","HOUSE_NO":"２５號","E_COORD97":171009.91,"N_COORD97":2545033.1299999999,"ADDRESS":"開南街２７５巷８弄２５號","OBJECTID":41884},"geometry":{"x":171009.91000000108,"y":2545033.1300000008}},{"attributes":{"ID":41885,"DIS_CODE":0,"TOWNNAME":"北區","LI":"力行里","LIN":"7鄰","STREET":"開南街","SECT":" ","MAREA":" ","LANE":"２７５巷","ALLEY":"８弄","HOUSE_NO":"２６號","E_COORD97":171008.25,"N_COORD97":2545024.4900000002,"ADDRESS":"開南街２７５巷８弄２６號","OBJECTID":41885},"geometry":{"x":171008.25,"y":2545024.4899999984}},{"attributes":{"ID":41886,"DIS_CODE":0,"TOWNNAME":"北區","LI":"力行里","LIN":"7鄰","STREET":"開南街","SECT":" ","MAREA":" ","LANE":"２７５巷","ALLEY":"８弄","HOUSE_NO":"２７號","E_COORD97":171014.06,"N_COORD97":2545032.6499999999,"ADDRESS":"開南街２７５巷８弄２７號","OBJECTID":41886},"geometry":{"x":171014.05999999959,"y":2545032.6500000004}},{"attributes":{"ID":41887,"DIS_CODE":0,"TOWNNAME":"北區","LI":"力行里","LIN":"7鄰","STREET":"開南街","SECT":" ","MAREA":" ","LANE":"２７５巷","ALLEY":"８弄","HOUSE_NO":"２８號","E_COORD97":171012.64000000001,"N_COORD97":2545024.1400000001,"ADDRESS":"開南街２７５巷８弄２８號","OBJECTID":41887},"geometry":{"x":171012.6400000006,"y":2545024.1400000043}},{"attributes":{"ID":41888,"DIS_CODE":0,"TOWNNAME":"北區","LI":"力行里","LIN":"7鄰","STREET":"開南街","SECT":" ","MAREA":" ","LANE":"２７５巷","ALLEY":"８弄","HOUSE_NO":"２９號","E_COORD97":171018.09,"N_COORD97":2545032.2999999998,"ADDRESS":"開南街２７５巷８弄２９號","OBJECTID":41888},"geometry":{"x":171018.09000000171,"y":2545032.3000000007}},{"attributes":{"ID":41889,"DIS_CODE":0,"TOWNNAME":"北區","LI":"力行里","LIN":"7鄰","STREET":"開南街","SECT":" ","MAREA":" ","LANE":"２７５巷","ALLEY":"８弄","HOUSE_NO":"２號","E_COORD97":170955.89000000001,"N_COORD97":2545028.75,"ADDRESS":"開南街２７５巷８弄２號","OBJECTID":41889},"geometry":{"x":170955.88999999966,"y":2545028.75}},{"attributes":{"ID":41890,"DIS_CODE":0,"TOWNNAME":"北區","LI":"力行里","LIN":"7鄰","STREET":"開南街","SECT":" ","MAREA":" ","LANE":"２７５巷","ALLEY":"８弄","HOUSE_NO":"３０號","E_COORD97":171018.20999999999,"N_COORD97":2545023.54,"ADDRESS":"開南街２７５巷８弄３０號","OBJECTID":41890},"geometry":{"x":171018.21000000089,"y":2545023.540000001}},{"attributes":{"ID":41891,"DIS_CODE":0,"TOWNNAME":"北區","LI":"力行里","LIN":"7鄰","STREET":"開南街","SECT":" ","MAREA":" ","LANE":"２７５巷","ALLEY":"８弄","HOUSE_NO":"３１號","E_COORD97":171022.35000000001,"N_COORD97":2545032.1800000002,"ADDRESS":"開南街２７５巷８弄３１號","OBJECTID":41891},"geometry":{"x":171022.34999999963,"y":2545032.1799999997}},{"attributes":{"ID":41892,"DIS_CODE":0,"TOWNNAME":"北區","LI":"力行里","LIN":"7鄰","STREET":"開南街","SECT":" ","MAREA":" ","LANE":"２７５巷","ALLEY":"８弄","HOUSE_NO":"３號","E_COORD97":170961.69,"N_COORD97":2545036.4399999999,"ADDRESS":"開南街２７５巷８弄３號","OBJECTID":41892},"geometry":{"x":170961.69000000041,"y":2545036.4399999995}},{"attributes":{"ID":41893,"DIS_CODE":0,"TOWNNAME":"北區","LI":"力行里","LIN":"7鄰","STREET":"開南街","SECT":" ","MAREA":" ","LANE":"２７５巷","ALLEY":"８弄","HOUSE_NO":"４號","E_COORD97":170960.26999999999,"N_COORD97":2545028.6299999999,"ADDRESS":"開南街２７５巷８弄４號","OBJECTID":41893},"geometry":{"x":170960.26999999955,"y":2545028.629999999}},{"attributes":{"ID":41894,"DIS_CODE":0,"TOWNNAME":"北區","LI":"力行里","LIN":"7鄰","STREET":"開南街","SECT":" ","MAREA":" ","LANE":"２７５巷","ALLEY":"８弄","HOUSE_NO":"５號","E_COORD97":170965.72,"N_COORD97":2545036.4399999999,"ADDRESS":"開南街２７５巷８弄５號","OBJECTID":41894},"geometry":{"x":170965.71999999974,"y":2545036.4399999995}},{"attributes":{"ID":41895,"DIS_CODE":0,"TOWNNAME":"北區","LI":"力行里","LIN":"7鄰","STREET":"開南街","SECT":" ","MAREA":" ","LANE":"２７５巷","ALLEY":"８弄","HOUSE_NO":"６號","E_COORD97":170964.29999999999,"N_COORD97":2545028.3999999999,"ADDRESS":"開南街２７５巷８弄６號","OBJECTID":41895},"geometry":{"x":170964.30000000075,"y":2545028.4000000004}},{"attributes":{"ID":41896,"DIS_CODE":0,"TOWNNAME":"七股區","LI":"玉成里","LIN":"1鄰","STREET":" ","SECT":" ","MAREA":"玉成","LANE":" ","ALLEY":" ","HOUSE_NO":"５號之５","E_COORD97":161538.51000000001,"N_COORD97":2559895.3700000001,"ADDRESS":"玉成５號之５","OBJECTID":41896},"geometry":{"x":161538.50999999978,"y":2559895.370000001}},{"attributes":{"ID":41897,"DIS_CODE":0,"TOWNNAME":"北區","LI":"力行里","LIN":"7鄰","STREET":"開南街","SECT":" ","MAREA":" ","LANE":"２７５巷","ALLEY":"８弄","HOUSE_NO":"７號","E_COORD97":170970.10000000001,"N_COORD97":2545036.0899999999,"ADDRESS":"開南街２７５巷８弄７號","OBJECTID":41897},"geometry":{"x":170970.09999999963,"y":2545036.0899999999}},{"attributes":{"ID":41898,"DIS_CODE":0,"TOWNNAME":"北區","LI":"力行里","LIN":"7鄰","STREET":"開南街","SECT":" ","MAREA":" ","LANE":"２７５巷","ALLEY":"８弄","HOUSE_NO":"８號","E_COORD97":170969.51000000001,"N_COORD97":2545027.7999999998,"ADDRESS":"開南街２７５巷８弄８號","OBJECTID":41898},"geometry":{"x":170969.51000000164,"y":2545027.8000000026}},{"attributes":{"ID":41899,"DIS_CODE":0,"TOWNNAME":"北區","LI":"力行里","LIN":"7鄰","STREET":"開南街","SECT":" ","MAREA":" ","LANE":"２７５巷","ALLEY":"８弄","HOUSE_NO":"９號","E_COORD97":170974.84,"N_COORD97":2545035.6099999999,"ADDRESS":"開南街２７５巷８弄９號","OBJECTID":41899},"geometry":{"x":170974.84000000078,"y":2545035.6099999994}},{"attributes":{"ID":41900,"DIS_CODE":0,"TOWNNAME":"北區","LI":"力行里","LIN":"7鄰","STREET":"開南街","SECT":" ","MAREA":" ","LANE":"２７５巷","ALLEY":"１０弄","HOUSE_NO":"１０號","E_COORD97":170976.62,"N_COORD97":2545059.5800000001,"ADDRESS":"開南街２７５巷１０弄１０號","OBJECTID":41900},"geometry":{"x":170976.62000000011,"y":2545059.5800000001}},{"attributes":{"ID":41901,"DIS_CODE":0,"TOWNNAME":"北區","LI":"力行里","LIN":"7鄰","STREET":"開南街","SECT":" ","MAREA":" ","LANE":"２７５巷","ALLEY":"１０弄","HOUSE_NO":"１１號","E_COORD97":170999.84,"N_COORD97":2545068.2200000002,"ADDRESS":"開南街２７５巷１０弄１１號","OBJECTID":41901},"geometry":{"x":170999.84000000078,"y":2545068.2200000025}},{"attributes":{"ID":41902,"DIS_CODE":0,"TOWNNAME":"北區","LI":"力行里","LIN":"7鄰","STREET":"開南街","SECT":" ","MAREA":" ","LANE":"２７５巷","ALLEY":"１０弄","HOUSE_NO":"１２號","E_COORD97":170981.12,"N_COORD97":2545059.5800000001,"ADDRESS":"開南街２７５巷１０弄１２號","OBJECTID":41902},"geometry":{"x":170981.12000000104,"y":2545059.5800000001}},{"attributes":{"ID":41903,"DIS_CODE":0,"TOWNNAME":"北區","LI":"力行里","LIN":"7鄰","STREET":"開南街","SECT":" ","MAREA":" ","LANE":"２７５巷","ALLEY":"１０弄","HOUSE_NO":"１３號","E_COORD97":171004.01000000001,"N_COORD97":2545067.2799999998,"ADDRESS":"開南街２７５巷１０弄１３號","OBJECTID":41903},"geometry":{"x":171004.01000000071,"y":2545067.2800000012}},{"attributes":{"ID":41904,"DIS_CODE":0,"TOWNNAME":"北區","LI":"力行里","LIN":"7鄰","STREET":"開南街","SECT":" ","MAREA":" ","LANE":"２７５巷","ALLEY":"１０弄","HOUSE_NO":"１４號","E_COORD97":170985.62,"N_COORD97":2545058.75,"ADDRESS":"開南街２７５巷１０弄１４號","OBJECTID":41904},"geometry":{"x":170985.62000000011,"y":2545058.75}},{"attributes":{"ID":41905,"DIS_CODE":0,"TOWNNAME":"北區","LI":"力行里","LIN":"7鄰","STREET":"開南街","SECT":" ","MAREA":" ","LANE":"２７５巷","ALLEY":"１０弄","HOUSE_NO":"１５號","E_COORD97":171007.42999999999,"N_COORD97":2545067.0899999999,"ADDRESS":"開南街２７５巷１０弄１５號","OBJECTID":41905},"geometry":{"x":171007.43000000063,"y":2545067.0899999999}},{"attributes":{"ID":41906,"DIS_CODE":0,"TOWNNAME":"北區","LI":"力行里","LIN":"7鄰","STREET":"開南街","SECT":" ","MAREA":" ","LANE":"２７５巷","ALLEY":"１０弄","HOUSE_NO":"１６號","E_COORD97":170989.53,"N_COORD97":2545058.75,"ADDRESS":"開南街２７５巷１０弄１６號","OBJECTID":41906},"geometry":{"x":170989.53000000026,"y":2545058.75}},{"attributes":{"ID":41907,"DIS_CODE":0,"TOWNNAME":"麻豆區","LI":"安業里","LIN":"4鄰","STREET":" ","SECT":" ","MAREA":"安業","LANE":" ","ALLEY":" ","HOUSE_NO":"１０１號","E_COORD97":172636.75,"N_COORD97":2562034.9900000002,"ADDRESS":"安業１０１號","OBJECTID":41907},"geometry":{"x":172636.75000000093,"y":2562034.9900000021}},{"attributes":{"ID":41908,"DIS_CODE":0,"TOWNNAME":"白河區","LI":"河東里","LIN":"7鄰","STREET":" ","SECT":" ","MAREA":"糞箕湖","LANE":" ","ALLEY":" ","HOUSE_NO":"９０之１號","E_COORD97":192193.45000000001,"N_COORD97":2582631.29,"ADDRESS":"糞箕湖９０之１號","OBJECTID":41908},"geometry":{"x":192193.45000000019,"y":2582631.290000001}},{"attributes":{"ID":41909,"DIS_CODE":0,"TOWNNAME":"白河區","LI":"河東里","LIN":"7鄰","STREET":" ","SECT":" ","MAREA":"糞箕湖","LANE":" ","ALLEY":" ","HOUSE_NO":"９０之２號","E_COORD97":192179.32000000001,"N_COORD97":2582678.8599999999,"ADDRESS":"糞箕湖９０之２號","OBJECTID":41909},"geometry":{"x":192179.3200000003,"y":2582678.8600000013}},{"attributes":{"ID":41910,"DIS_CODE":0,"TOWNNAME":"白河區","LI":"河東里","LIN":"7鄰","STREET":" ","SECT":" ","MAREA":"糞箕湖","LANE":" ","ALLEY":" ","HOUSE_NO":"９０之３號","E_COORD97":192172.17999999999,"N_COORD97":2582674.7400000002,"ADDRESS":"糞箕湖９０之３號","OBJECTID":41910},"geometry":{"x":192172.18000000063,"y":2582674.7400000021}},{"attributes":{"ID":41911,"DIS_CODE":0,"TOWNNAME":"白河區","LI":"河東里","LIN":"7鄰","STREET":" ","SECT":" ","MAREA":"糞箕湖","LANE":" ","ALLEY":" ","HOUSE_NO":"９１號","E_COORD97":192182.32999999999,"N_COORD97":2582712.6899999999,"ADDRESS":"糞箕湖９１號","OBJECTID":41911},"geometry":{"x":192182.33000000007,"y":2582712.6899999995}},{"attributes":{"ID":41912,"DIS_CODE":0,"TOWNNAME":"北區","LI":"力行里","LIN":"7鄰","STREET":"開南街","SECT":" ","MAREA":" ","LANE":"２７５巷","ALLEY":"１０弄","HOUSE_NO":"１７號","E_COORD97":171012.17000000001,"N_COORD97":2545066.8999999999,"ADDRESS":"開南街２７５巷１０弄１７號","OBJECTID":41912},"geometry":{"x":171012.16999999993,"y":2545066.9000000022}},{"attributes":{"ID":41913,"DIS_CODE":0,"TOWNNAME":"北區","LI":"力行里","LIN":"7鄰","STREET":"開南街","SECT":" ","MAREA":" ","LANE":"２７５巷","ALLEY":"１０弄","HOUSE_NO":"１８號","E_COORD97":170995.69,"N_COORD97":2545058.27,"ADDRESS":"開南街２７５巷１０弄１８號","OBJECTID":41913},"geometry":{"x":170995.69000000041,"y":2545058.2699999996}},{"attributes":{"ID":41914,"DIS_CODE":0,"TOWNNAME":"北區","LI":"力行里","LIN":"7鄰","STREET":"開南街","SECT":" ","MAREA":" ","LANE":"２７５巷","ALLEY":"１０弄","HOUSE_NO":"１９號","E_COORD97":171016.14999999999,"N_COORD97":2545066.52,"ADDRESS":"開南街２７５巷１０弄１９號","OBJECTID":41914},"geometry":{"x":171016.15000000037,"y":2545066.5199999996}},{"attributes":{"ID":41915,"DIS_CODE":0,"TOWNNAME":"北區","LI":"力行里","LIN":"7鄰","STREET":"開南街","SECT":" ","MAREA":" ","LANE":"２７５巷","ALLEY":"１０弄","HOUSE_NO":"１號","E_COORD97":170979.73999999999,"N_COORD97":2545069.7400000002,"ADDRESS":"開南街２７５巷１０弄１號","OBJECTID":41915},"geometry":{"x":170979.74000000022,"y":2545069.7400000002}},{"attributes":{"ID":41916,"DIS_CODE":0,"TOWNNAME":"北區","LI":"力行里","LIN":"7鄰","STREET":"開南街","SECT":" ","MAREA":" ","LANE":"２７５巷","ALLEY":"１０弄","HOUSE_NO":"２０號","E_COORD97":170999.13,"N_COORD97":2545057.7999999998,"ADDRESS":"開南街２７５巷１０弄２０號","OBJECTID":41916},"geometry":{"x":170999.13000000175,"y":2545057.8000000026}},{"attributes":{"ID":41917,"DIS_CODE":0,"TOWNNAME":"白河區","LI":"河東里","LIN":"7鄰","STREET":" ","SECT":" ","MAREA":"糞箕湖","LANE":" ","ALLEY":" ","HOUSE_NO":"９４號","E_COORD97":192195.17000000001,"N_COORD97":2582739.2000000002,"ADDRESS":"糞箕湖９４號","OBJECTID":41917},"geometry":{"x":192195.16999999993,"y":2582739.1999999993}},{"attributes":{"ID":41918,"DIS_CODE":0,"TOWNNAME":"白河區","LI":"河東里","LIN":"7鄰","STREET":" ","SECT":" ","MAREA":"糞箕湖","LANE":" ","ALLEY":" ","HOUSE_NO":"９６號","E_COORD97":192171.62,"N_COORD97":2582718.23,"ADDRESS":"糞箕湖９６號","OBJECTID":41918},"geometry":{"x":192171.62000000011,"y":2582718.2300000023}},{"attributes":{"ID":41919,"DIS_CODE":0,"TOWNNAME":"白河區","LI":"河東里","LIN":"7鄰","STREET":" ","SECT":" ","MAREA":"糞箕湖","LANE":" ","ALLEY":" ","HOUSE_NO":"９７之１號","E_COORD97":192086.51000000001,"N_COORD97":2582682.3199999998,"ADDRESS":"糞箕湖９７之１號","OBJECTID":41919},"geometry":{"x":192086.51000000071,"y":2582682.3200000003}},{"attributes":{"ID":41920,"DIS_CODE":0,"TOWNNAME":"白河區","LI":"河東里","LIN":"7鄰","STREET":" ","SECT":" ","MAREA":"糞箕湖","LANE":" ","ALLEY":" ","HOUSE_NO":"９７號","E_COORD97":192149.82000000001,"N_COORD97":2582711.1499999999,"ADDRESS":"糞箕湖９７號","OBJECTID":41920},"geometry":{"x":192149.82000000123,"y":2582711.1500000041}},{"attributes":{"ID":41921,"DIS_CODE":0,"TOWNNAME":"白河區","LI":"關嶺里","LIN":"7鄰","STREET":" ","SECT":" ","MAREA":"關子嶺","LANE":" ","ALLEY":" ","HOUSE_NO":"１２４之４號","E_COORD97":197579.62,"N_COORD97":2580533.0899999999,"ADDRESS":"關子嶺１２４之４號","OBJECTID":41921},"geometry":{"x":197579.62000000011,"y":2580533.0899999999}},{"attributes":{"ID":41922,"DIS_CODE":0,"TOWNNAME":"白河區","LI":"關嶺里","LIN":"7鄰","STREET":" ","SECT":" ","MAREA":"關子嶺","LANE":" ","ALLEY":" ","HOUSE_NO":"１２６之８號","E_COORD97":197559.17000000001,"N_COORD97":2580567.8599999999,"ADDRESS":"關子嶺１２６之８號","OBJECTID":41922},"geometry":{"x":197559.17000000179,"y":2580567.8599999994}},{"attributes":{"ID":41923,"DIS_CODE":0,"TOWNNAME":"北區","LI":"力行里","LIN":"7鄰","STREET":"開南街","SECT":" ","MAREA":" ","LANE":"２７５巷","ALLEY":"１０弄","HOUSE_NO":"２１號","E_COORD97":171019.94,"N_COORD97":2545066.1400000001,"ADDRESS":"開南街２７５巷１０弄２１號","OBJECTID":41923},"geometry":{"x":171019.94000000134,"y":2545066.1400000025}},{"attributes":{"ID":41924,"DIS_CODE":0,"TOWNNAME":"北區","LI":"力行里","LIN":"7鄰","STREET":"開南街","SECT":" ","MAREA":" ","LANE":"２７５巷","ALLEY":"１０弄","HOUSE_NO":"２２號","E_COORD97":171002.92000000001,"N_COORD97":2545057.21,"ADDRESS":"開南街２７５巷１０弄２２號","OBJECTID":41924},"geometry":{"x":171002.92000000086,"y":2545057.2100000009}},{"attributes":{"ID":41925,"DIS_CODE":0,"TOWNNAME":"北區","LI":"力行里","LIN":"7鄰","STREET":"開南街","SECT":" ","MAREA":" ","LANE":"２７５巷","ALLEY":"１０弄","HOUSE_NO":"２３號","E_COORD97":171024.29999999999,"N_COORD97":2545065.3799999999,"ADDRESS":"開南街２７５巷１０弄２３號","OBJECTID":41925},"geometry":{"x":171024.29999999981,"y":2545065.3800000008}},{"attributes":{"ID":41926,"DIS_CODE":0,"TOWNNAME":"北區","LI":"力行里","LIN":"7鄰","STREET":"開南街","SECT":" ","MAREA":" ","LANE":"２７５巷","ALLEY":"１０弄","HOUSE_NO":"２４號","E_COORD97":171007.17999999999,"N_COORD97":2545057.0899999999,"ADDRESS":"開南街２７５巷１０弄２４號","OBJECTID":41926},"geometry":{"x":171007.18000000156,"y":2545057.0899999999}},{"attributes":{"ID":41927,"DIS_CODE":0,"TOWNNAME":"北區","LI":"力行里","LIN":"7鄰","STREET":"開南街","SECT":" ","MAREA":" ","LANE":"２７５巷","ALLEY":"１０弄","HOUSE_NO":"２６號","E_COORD97":171011.45000000001,"N_COORD97":2545056.8500000001,"ADDRESS":"開南街２７５巷１０弄２６號","OBJECTID":41927},"geometry":{"x":171011.45000000112,"y":2545056.8500000015}},{"attributes":{"ID":41928,"DIS_CODE":0,"TOWNNAME":"北區","LI":"力行里","LIN":"7鄰","STREET":"開南街","SECT":" ","MAREA":" ","LANE":"２７５巷","ALLEY":"１０弄","HOUSE_NO":"２８號","E_COORD97":171016.42999999999,"N_COORD97":2545056.7400000002,"ADDRESS":"開南街２７５巷１０弄２８號","OBJECTID":41928},"geometry":{"x":171016.43000000063,"y":2545056.7399999984}},{"attributes":{"ID":41929,"DIS_CODE":0,"TOWNNAME":"北區","LI":"力行里","LIN":"7鄰","STREET":"開南街","SECT":" ","MAREA":" ","LANE":"２７５巷","ALLEY":"１０弄","HOUSE_NO":"２號","E_COORD97":170958.95999999999,"N_COORD97":2545061.4700000002,"ADDRESS":"開南街２７５巷１０弄２號","OBJECTID":41929},"geometry":{"x":170958.95999999996,"y":2545061.4700000007}},{"attributes":{"ID":41930,"DIS_CODE":0,"TOWNNAME":"北區","LI":"力行里","LIN":"7鄰","STREET":"開南街","SECT":" ","MAREA":" ","LANE":"２７５巷","ALLEY":"１０弄","HOUSE_NO":"３０號","E_COORD97":171020.10000000001,"N_COORD97":2545056.1400000001,"ADDRESS":"開南街２７５巷１０弄３０號","OBJECTID":41930},"geometry":{"x":171020.10000000056,"y":2545056.1400000025}},{"attributes":{"ID":41931,"DIS_CODE":0,"TOWNNAME":"北區","LI":"力行里","LIN":"7鄰","STREET":"開南街","SECT":" ","MAREA":" ","LANE":"２７５巷","ALLEY":"１０弄","HOUSE_NO":"３２號","E_COORD97":171025.54999999999,"N_COORD97":2545055.5499999998,"ADDRESS":"開南街２７５巷１０弄３２號","OBJECTID":41931},"geometry":{"x":171025.55000000075,"y":2545055.5500000045}},{"attributes":{"ID":41932,"DIS_CODE":0,"TOWNNAME":"北區","LI":"力行里","LIN":"7鄰","STREET":"開南街","SECT":" ","MAREA":" ","LANE":"２７５巷","ALLEY":"１０弄","HOUSE_NO":"３號","E_COORD97":170983.34,"N_COORD97":2545068.2200000002,"ADDRESS":"開南街２７５巷１０弄３號","OBJECTID":41932},"geometry":{"x":170983.33999999985,"y":2545068.2200000025}},{"attributes":{"ID":41933,"DIS_CODE":0,"TOWNNAME":"北區","LI":"力行里","LIN":"7鄰","STREET":"開南街","SECT":" ","MAREA":" ","LANE":"２７５巷","ALLEY":"１０弄","HOUSE_NO":"４號","E_COORD97":170963.23000000001,"N_COORD97":2545061.23,"ADDRESS":"開南街２７５巷１０弄４號","OBJECTID":41933},"geometry":{"x":170963.23000000045,"y":2545061.2300000023}},{"attributes":{"ID":41934,"DIS_CODE":0,"TOWNNAME":"北區","LI":"力行里","LIN":"7鄰","STREET":"開南街","SECT":" ","MAREA":" ","LANE":"２７５巷","ALLEY":"１０弄","HOUSE_NO":"５號","E_COORD97":170987.89999999999,"N_COORD97":2545068.79,"ADDRESS":"開南街２７５巷１０弄５號","OBJECTID":41934},"geometry":{"x":170987.9000000013,"y":2545068.7899999972}},{"attributes":{"ID":41935,"DIS_CODE":0,"TOWNNAME":"白河區","LI":"關嶺里","LIN":"7鄰","STREET":" ","SECT":" ","MAREA":"關子嶺","LANE":" ","ALLEY":" ","HOUSE_NO":"１２８之１５號","E_COORD97":197416.57000000001,"N_COORD97":2580555.0299999998,"ADDRESS":"關子嶺１２８之１５號","OBJECTID":41935},"geometry":{"x":197416.57000000123,"y":2580555.0300000012}},{"attributes":{"ID":41936,"DIS_CODE":0,"TOWNNAME":"白河區","LI":"關嶺里","LIN":"7鄰","STREET":" ","SECT":" ","MAREA":"關子嶺","LANE":" ","ALLEY":" ","HOUSE_NO":"１２９號","E_COORD97":197725.56,"N_COORD97":2580287.7400000002,"ADDRESS":"關子嶺１２９號","OBJECTID":41936},"geometry":{"x":197725.55999999959,"y":2580287.7400000021}},{"attributes":{"ID":41937,"DIS_CODE":0,"TOWNNAME":"白河區","LI":"關嶺里","LIN":"7鄰","STREET":" ","SECT":" ","MAREA":"關子嶺","LANE":" ","ALLEY":" ","HOUSE_NO":"１５５之１號","E_COORD97":197542.28,"N_COORD97":2580656.25,"ADDRESS":"關子嶺１５５之１號","OBJECTID":41937},"geometry":{"x":197542.28000000119,"y":2580656.2500000019}},{"attributes":{"ID":41938,"DIS_CODE":0,"TOWNNAME":"白河區","LI":"汴頭里","LIN":"7鄰","STREET":" ","SECT":" ","MAREA":"五汴頭","LANE":" ","ALLEY":" ","HOUSE_NO":"７９號","E_COORD97":194858.76000000001,"N_COORD97":2585574.29,"ADDRESS":"五汴頭７９號","OBJECTID":41938},"geometry":{"x":194858.76000000071,"y":2585574.290000001}},{"attributes":{"ID":41939,"DIS_CODE":0,"TOWNNAME":"北區","LI":"力行里","LIN":"7鄰","STREET":"開南街","SECT":" ","MAREA":" ","LANE":"２７５巷","ALLEY":"１０弄","HOUSE_NO":"６號","E_COORD97":170967.85000000001,"N_COORD97":2545060.8799999999,"ADDRESS":"開南街２７５巷１０弄６號","OBJECTID":41939},"geometry":{"x":170967.84999999963,"y":2545060.879999999}},{"attributes":{"ID":41940,"DIS_CODE":0,"TOWNNAME":"北區","LI":"力行里","LIN":"7鄰","STREET":"開南街","SECT":" ","MAREA":" ","LANE":"２７５巷","ALLEY":"１０弄","HOUSE_NO":"７號","E_COORD97":170992.07000000001,"N_COORD97":2545068.79,"ADDRESS":"開南街２７５巷１０弄７號","OBJECTID":41940},"geometry":{"x":170992.07000000123,"y":2545068.7899999972}},{"attributes":{"ID":41941,"DIS_CODE":0,"TOWNNAME":"安平區","LI":"石門里","LIN":"20鄰","STREET":"\u25A0忠街","SECT":" ","MAREA":" ","LANE":" ","ALLEY":" ","HOUSE_NO":"１號之７","E_COORD97":164394.97,"N_COORD97":2544566.5499999998,"ADDRESS":"\u25A0忠街１號之７","OBJECTID":41941},"geometry":{"x":164394.96999999974,"y":2544566.5500000007}},{"attributes":{"ID":41942,"DIS_CODE":0,"TOWNNAME":"白河區","LI":"崎內里","LIN":"7鄰","STREET":" ","SECT":" ","MAREA":"內崎內","LANE":" ","ALLEY":" ","HOUSE_NO":"８２號","E_COORD97":196751.19,"N_COORD97":2586411.1299999999,"ADDRESS":"內崎內８２號","OBJECTID":41942},"geometry":{"x":196751.19000000134,"y":2586411.129999999}},{"attributes":{"ID":41943,"DIS_CODE":0,"TOWNNAME":"北區","LI":"力行里","LIN":"7鄰","STREET":"開南街","SECT":" ","MAREA":" ","LANE":"２７５巷","ALLEY":"１０弄","HOUSE_NO":"８號","E_COORD97":170972.12,"N_COORD97":2545060.3999999999,"ADDRESS":"開南街２７５巷１０弄８號","OBJECTID":41943},"geometry":{"x":170972.12000000011,"y":2545060.4000000022}},{"attributes":{"ID":41944,"DIS_CODE":0,"TOWNNAME":"北區","LI":"力行里","LIN":"7鄰","STREET":"開南街","SECT":" ","MAREA":" ","LANE":"２７５巷","ALLEY":"１０弄","HOUSE_NO":"９號","E_COORD97":170995.67000000001,"N_COORD97":2545067.2799999998,"ADDRESS":"開南街２７５巷１０弄９號","OBJECTID":41944},"geometry":{"x":170995.67000000179,"y":2545067.2800000012}},{"attributes":{"ID":41945,"DIS_CODE":0,"TOWNNAME":"北區","LI":"大仁里","LIN":"7鄰","STREET":"北門路","SECT":"二段","MAREA":" ","LANE":"２３７巷","ALLEY":"２弄","HOUSE_NO":"１號","E_COORD97":169495.26999999999,"N_COORD97":2545334.46,"ADDRESS":"北門路二段２３７巷２弄１號","OBJECTID":41945},"geometry":{"x":169495.26999999955,"y":2545334.4600000028}},{"attributes":{"ID":41946,"DIS_CODE":0,"TOWNNAME":"北區","LI":"大仁里","LIN":"7鄰","STREET":"北門路","SECT":"二段","MAREA":" ","LANE":"２３７巷","ALLEY":"２弄","HOUSE_NO":"２號","E_COORD97":169500.91,"N_COORD97":2545336.2000000002,"ADDRESS":"北門路二段２３７巷２弄２號","OBJECTID":41946},"geometry":{"x":169500.91000000108,"y":2545336.1999999993}},{"attributes":{"ID":41947,"DIS_CODE":0,"TOWNNAME":"北區","LI":"大仁里","LIN":"7鄰","STREET":"北門路","SECT":"二段","MAREA":" ","LANE":"２３７巷","ALLEY":"２弄","HOUSE_NO":"３號","E_COORD97":169495.35000000001,"N_COORD97":2545350.7599999998,"ADDRESS":"北門路二段２３７巷２弄３號","OBJECTID":41947},"geometry":{"x":169495.34999999963,"y":2545350.7599999998}},{"attributes":{"ID":41948,"DIS_CODE":0,"TOWNNAME":"北區","LI":"大仁里","LIN":"7鄰","STREET":"北門路","SECT":"二段","MAREA":" ","LANE":"２３７巷","ALLEY":"２弄","HOUSE_NO":"４號","E_COORD97":169500.31,"N_COORD97":2545341.8999999999,"ADDRESS":"北門路二段２３７巷２弄４號","OBJECTID":41948},"geometry":{"x":169500.30999999959,"y":2545341.9000000022}},{"attributes":{"ID":41949,"DIS_CODE":0,"TOWNNAME":"善化區","LI":"東昌里","LIN":"7鄰","STREET":" ","SECT":" ","MAREA":"東勢寮","LANE":" ","ALLEY":" ","HOUSE_NO":"６９之２號","E_COORD97":180416.70999999999,"N_COORD97":2561807.02,"ADDRESS":"東勢寮６９之２號","OBJECTID":41949},"geometry":{"x":180416.70999999996,"y":2561807.0200000014}},{"attributes":{"ID":41950,"DIS_CODE":0,"TOWNNAME":"善化區","LI":"嘉北里","LIN":"7鄰","STREET":" ","SECT":" ","MAREA":"茄拔","LANE":" ","ALLEY":" ","HOUSE_NO":"１６９號","E_COORD97":181041.91,"N_COORD97":2559903.7599999998,"ADDRESS":"茄拔１６９號","OBJECTID":41950},"geometry":{"x":181041.91000000108,"y":2559903.7600000016}},{"attributes":{"ID":41951,"DIS_CODE":0,"TOWNNAME":"北區","LI":"大仁里","LIN":"7鄰","STREET":"北門路","SECT":"二段","MAREA":" ","LANE":"２３７巷","ALLEY":"２弄","HOUSE_NO":"５號","E_COORD97":169493.09,"N_COORD97":2545358.0899999999,"ADDRESS":"北門路二段２３７巷２弄５號","OBJECTID":41951},"geometry":{"x":169493.09000000078,"y":2545358.0899999999}},{"attributes":{"ID":41952,"DIS_CODE":0,"TOWNNAME":"善化區","LI":"南關里","LIN":"7鄰","STREET":" ","SECT":" ","MAREA":"三抱竹","LANE":" ","ALLEY":" ","HOUSE_NO":"１之３１號","E_COORD97":176533.26000000001,"N_COORD97":2558235.52,"ADDRESS":"三抱竹１之３１號","OBJECTID":41952},"geometry":{"x":176533.26000000071,"y":2558235.5199999996}},{"attributes":{"ID":41953,"DIS_CODE":0,"TOWNNAME":"善化區","LI":"什乃里","LIN":"7鄰","STREET":" ","SECT":" ","MAREA":"什乃","LANE":" ","ALLEY":" ","HOUSE_NO":"５７號之１","E_COORD97":176074.66,"N_COORD97":2560428.52,"ADDRESS":"什乃５７號之１","OBJECTID":41953},"geometry":{"x":176074.66000000201,"y":2560428.5199999996}},{"attributes":{"ID":41954,"DIS_CODE":0,"TOWNNAME":"善化區","LI":"田寮里","LIN":"7鄰","STREET":" ","SECT":" ","MAREA":"六分寮","LANE":" ","ALLEY":" ","HOUSE_NO":"７８號","E_COORD97":178472,"N_COORD97":2561367.25,"ADDRESS":"六分寮７８號","OBJECTID":41954},"geometry":{"x":178472,"y":2561367.25}},{"attributes":{"ID":41955,"DIS_CODE":0,"TOWNNAME":"善化區","LI":"小新里","LIN":"7鄰","STREET":" ","SECT":" ","MAREA":"小新營","LANE":" ","ALLEY":" ","HOUSE_NO":"５６之９２號","E_COORD97":179499.94,"N_COORD97":2558444.77,"ADDRESS":"小新營５６之９２號","OBJECTID":41955},"geometry":{"x":179499.94000000041,"y":2558444.7700000033}},{"attributes":{"ID":41956,"DIS_CODE":0,"TOWNNAME":"善化區","LI":"嘉南里","LIN":"7鄰","STREET":" ","SECT":" ","MAREA":"茄拔","LANE":" ","ALLEY":" ","HOUSE_NO":"１０８號","E_COORD97":181066.70000000001,"N_COORD97":2559553.0099999998,"ADDRESS":"茄拔１０８號","OBJECTID":41956},"geometry":{"x":181066.70000000205,"y":2559553.0100000016}},{"attributes":{"ID":41957,"DIS_CODE":0,"TOWNNAME":"善化區","LI":"溪美里","LIN":"7鄰","STREET":" ","SECT":" ","MAREA":"溪尾","LANE":" ","ALLEY":" ","HOUSE_NO":"６７號之１","E_COORD97":176749.69,"N_COORD97":2561300.27,"ADDRESS":"溪尾６７號之１","OBJECTID":41957},"geometry":{"x":176749.69000000134,"y":2561300.2700000014}},{"attributes":{"ID":41958,"DIS_CODE":0,"TOWNNAME":"善化區","LI":"溪美里","LIN":"7鄰","STREET":" ","SECT":" ","MAREA":"溪尾","LANE":" ","ALLEY":" ","HOUSE_NO":"６２號之６","E_COORD97":176827.09,"N_COORD97":2561291.27,"ADDRESS":"溪尾６２號之６","OBJECTID":41958},"geometry":{"x":176827.08999999985,"y":2561291.2699999996}},{"attributes":{"ID":41959,"DIS_CODE":0,"TOWNNAME":"善化區","LI":"溪美里","LIN":"7鄰","STREET":" ","SECT":" ","MAREA":"溪尾","LANE":" ","ALLEY":" ","HOUSE_NO":"６３號之３","E_COORD97":176840.39999999999,"N_COORD97":2561319.02,"ADDRESS":"溪尾６３號之３","OBJECTID":41959},"geometry":{"x":176840.40000000037,"y":2561319.0200000014}},{"attributes":{"ID":41960,"DIS_CODE":0,"TOWNNAME":"善化區","LI":"嘉北里","LIN":"7鄰","STREET":" ","SECT":" ","MAREA":"茄拔","LANE":" ","ALLEY":" ","HOUSE_NO":"１７４之５號","E_COORD97":181070.39000000001,"N_COORD97":2559940.27,"ADDRESS":"茄拔１７４之５號","OBJECTID":41960},"geometry":{"x":181070.3900000006,"y":2559940.2700000014}},{"attributes":{"ID":41961,"DIS_CODE":0,"TOWNNAME":"善化區","LI":"溪美里","LIN":"7鄰","STREET":" ","SECT":" ","MAREA":"溪尾","LANE":" ","ALLEY":" ","HOUSE_NO":"６２號之１","E_COORD97":176848.44,"N_COORD97":2561304.77,"ADDRESS":"溪尾６２號之１","OBJECTID":41961},"geometry":{"x":176848.44000000134,"y":2561304.7699999996}},{"attributes":{"ID":41962,"DIS_CODE":0,"TOWNNAME":"善化區","LI":"小新里","LIN":"7鄰","STREET":" ","SECT":" ","MAREA":"小新營","LANE":" ","ALLEY":" ","HOUSE_NO":"５２號之３","E_COORD97":179680.45999999999,"N_COORD97":2558336.02,"ADDRESS":"小新營５２號之３","OBJECTID":41962},"geometry":{"x":179680.46000000089,"y":2558336.0200000014}},{"attributes":{"ID":41963,"DIS_CODE":0,"TOWNNAME":"善化區","LI":"嘉北里","LIN":"7鄰","STREET":" ","SECT":" ","MAREA":"茄拔","LANE":" ","ALLEY":" ","HOUSE_NO":"１７０號之１","E_COORD97":181102.59,"N_COORD97":2559903.77,"ADDRESS":"茄拔１７０號之１","OBJECTID":41963},"geometry":{"x":181102.58999999985,"y":2559903.7700000014}},{"attributes":{"ID":41964,"DIS_CODE":0,"TOWNNAME":"善化區","LI":"嘉北里","LIN":"7鄰","STREET":" ","SECT":" ","MAREA":"茄拔","LANE":" ","ALLEY":" ","HOUSE_NO":"１７２號之２","E_COORD97":181108.88,"N_COORD97":2559923.77,"ADDRESS":"茄拔１７２號之２","OBJECTID":41964},"geometry":{"x":181108.87999999989,"y":2559923.7700000014}},{"attributes":{"ID":41965,"DIS_CODE":0,"TOWNNAME":"善化區","LI":"六分里","LIN":"7鄰","STREET":" ","SECT":" ","MAREA":"溪底寮","LANE":" ","ALLEY":" ","HOUSE_NO":"８號之１","E_COORD97":177923.04999999999,"N_COORD97":2561970.27,"ADDRESS":"溪底寮８號之１","OBJECTID":41965},"geometry":{"x":177923.05000000075,"y":2561970.2699999996}},{"attributes":{"ID":41966,"DIS_CODE":0,"TOWNNAME":"善化區","LI":"小新里","LIN":"7鄰","STREET":" ","SECT":" ","MAREA":"小新營","LANE":" ","ALLEY":" ","HOUSE_NO":"５４號","E_COORD97":179711.85000000001,"N_COORD97":2558356,"ADDRESS":"小新營５４號","OBJECTID":41966},"geometry":{"x":179711.84999999963,"y":2558356.0000000019}},{"attributes":{"ID":41967,"DIS_CODE":0,"TOWNNAME":"善化區","LI":"小新里","LIN":"7鄰","STREET":" ","SECT":" ","MAREA":"小新營","LANE":" ","ALLEY":" ","HOUSE_NO":"５６號之２","E_COORD97":179575.60000000001,"N_COORD97":2558570.77,"ADDRESS":"小新營５６號之２","OBJECTID":41967},"geometry":{"x":179575.60000000056,"y":2558570.7700000014}},{"attributes":{"ID":41968,"DIS_CODE":0,"TOWNNAME":"善化區","LI":"小新里","LIN":"7鄰","STREET":" ","SECT":" ","MAREA":"小新營","LANE":" ","ALLEY":" ","HOUSE_NO":"５６號之７","E_COORD97":179581.60000000001,"N_COORD97":2558606.77,"ADDRESS":"小新營５６號之７","OBJECTID":41968},"geometry":{"x":179581.59999999963,"y":2558606.7699999996}},{"attributes":{"ID":41969,"DIS_CODE":0,"TOWNNAME":"善化區","LI":"小新里","LIN":"7鄰","STREET":" ","SECT":" ","MAREA":"小新營","LANE":" ","ALLEY":" ","HOUSE_NO":"５４號之９","E_COORD97":179725.51000000001,"N_COORD97":2558389.52,"ADDRESS":"小新營５４號之９","OBJECTID":41969},"geometry":{"x":179725.51000000071,"y":2558389.5200000014}},{"attributes":{"ID":41970,"DIS_CODE":0,"TOWNNAME":"善化區","LI":"小新里","LIN":"7鄰","STREET":" ","SECT":" ","MAREA":"小新營","LANE":" ","ALLEY":" ","HOUSE_NO":"５４號之５","E_COORD97":179733.57000000001,"N_COORD97":2558349.77,"ADDRESS":"小新營５４號之５","OBJECTID":41970},"geometry":{"x":179733.56999999937,"y":2558349.7700000033}},{"attributes":{"ID":41971,"DIS_CODE":0,"TOWNNAME":"善化區","LI":"小新里","LIN":"7鄰","STREET":" ","SECT":" ","MAREA":"小新營","LANE":" ","ALLEY":" ","HOUSE_NO":"５６號之５","E_COORD97":179590.10000000001,"N_COORD97":2558604.27,"ADDRESS":"小新營５６號之５","OBJECTID":41971},"geometry":{"x":179590.09999999963,"y":2558604.2700000014}},{"attributes":{"ID":41972,"DIS_CODE":0,"TOWNNAME":"善化區","LI":"小新里","LIN":"7鄰","STREET":" ","SECT":" ","MAREA":"小新營","LANE":" ","ALLEY":" ","HOUSE_NO":"５５號之３","E_COORD97":179776.45999999999,"N_COORD97":2558463.52,"ADDRESS":"小新營５５號之３","OBJECTID":41972},"geometry":{"x":179776.46000000183,"y":2558463.5200000033}},{"attributes":{"ID":41973,"DIS_CODE":0,"TOWNNAME":"北區","LI":"大仁里","LIN":"7鄰","STREET":"北門路","SECT":"二段","MAREA":" ","LANE":"２３７巷","ALLEY":"２弄","HOUSE_NO":"７號","E_COORD97":169492.01000000001,"N_COORD97":2545362.0499999998,"ADDRESS":"北門路二段２３７巷２弄７號","OBJECTID":41973},"geometry":{"x":169492.01000000071,"y":2545362.0500000026}},{"attributes":{"ID":41974,"DIS_CODE":0,"TOWNNAME":"北區","LI":"大仁里","LIN":"7鄰","STREET":"北門路","SECT":"二段","MAREA":" ","LANE":"２３７巷","ALLEY":"２弄","HOUSE_NO":"９號","E_COORD97":169489.62,"N_COORD97":2545370.8100000001,"ADDRESS":"北門路二段２３７巷２弄９號","OBJECTID":41974},"geometry":{"x":169489.62000000104,"y":2545370.8100000005}},{"attributes":{"ID":41975,"DIS_CODE":0,"TOWNNAME":"東區","LI":"崇德里","LIN":"20鄰","STREET":"崇明十四街","SECT":" ","MAREA":" ","LANE":" ","ALLEY":" ","HOUSE_NO":"２０號","E_COORD97":170583.45999999999,"N_COORD97":2541546.2799999998,"ADDRESS":"崇明十四街２０號","OBJECTID":41975},"geometry":{"x":170583.46000000183,"y":2541546.2799999993}},{"attributes":{"ID":41976,"DIS_CODE":0,"TOWNNAME":"善化區","LI":"小新里","LIN":"7鄰","STREET":" ","SECT":" ","MAREA":"小新營","LANE":" ","ALLEY":" ","HOUSE_NO":"５６之１０號","E_COORD97":179591.26000000001,"N_COORD97":2558623.02,"ADDRESS":"小新營５６之１０號","OBJECTID":41976},"geometry":{"x":179591.26000000071,"y":2558623.0200000014}},{"attributes":{"ID":41977,"DIS_CODE":0,"TOWNNAME":"北區","LI":"大仁里","LIN":"7鄰","STREET":"北門路","SECT":"二段","MAREA":" ","LANE":"２３７巷","ALLEY":"３４弄","HOUSE_NO":"１０號","E_COORD97":169446.25,"N_COORD97":2545359.1299999999,"ADDRESS":"北門路二段２３７巷３４弄１０號","OBJECTID":41977},"geometry":{"x":169446.25000000093,"y":2545359.1300000008}},{"attributes":{"ID":41978,"DIS_CODE":0,"TOWNNAME":"北區","LI":"大仁里","LIN":"7鄰","STREET":"北門路","SECT":"二段","MAREA":" ","LANE":"２３７巷","ALLEY":"３４弄","HOUSE_NO":"１２號","E_COORD97":169445.59,"N_COORD97":2545362.9100000001,"ADDRESS":"北門路二段２３７巷３４弄１２號","OBJECTID":41978},"geometry":{"x":169445.59000000078,"y":2545362.9100000001}},{"attributes":{"ID":41979,"DIS_CODE":0,"TOWNNAME":"北區","LI":"新勝里","LIN":"7鄰","STREET":"北園街","SECT":" ","MAREA":" ","LANE":"５３巷","ALLEY":"５弄","HOUSE_NO":"４０號","E_COORD97":170211.81,"N_COORD97":2545584.54,"ADDRESS":"北園街５３巷５弄４０號","OBJECTID":41979},"geometry":{"x":170211.81000000052,"y":2545584.5399999991}},{"attributes":{"ID":41980,"DIS_CODE":0,"TOWNNAME":"北區","LI":"大仁里","LIN":"7鄰","STREET":"北門路","SECT":"二段","MAREA":" ","LANE":"２３７巷","ALLEY":"３４弄","HOUSE_NO":"１４號","E_COORD97":169443.39999999999,"N_COORD97":2545368.2799999998,"ADDRESS":"北門路二段２３７巷３４弄１４號","OBJECTID":41980},"geometry":{"x":169443.40000000224,"y":2545368.2800000012}},{"attributes":{"ID":41981,"DIS_CODE":0,"TOWNNAME":"北區","LI":"大仁里","LIN":"7鄰","STREET":"北門路","SECT":"二段","MAREA":" ","LANE":"２３７巷","ALLEY":"３４弄","HOUSE_NO":"２號","E_COORD97":169447.97,"N_COORD97":2545340.9300000002,"ADDRESS":"北門路二段２３７巷３４弄２號","OBJECTID":41981},"geometry":{"x":169447.97000000067,"y":2545340.9300000016}},{"attributes":{"ID":41982,"DIS_CODE":0,"TOWNNAME":"北區","LI":"大仁里","LIN":"7鄰","STREET":"北門路","SECT":"二段","MAREA":" ","LANE":"２３７巷","ALLEY":"３４弄","HOUSE_NO":"４號","E_COORD97":169447.04000000001,"N_COORD97":2545346.5,"ADDRESS":"北門路二段２３７巷３４弄４號","OBJECTID":41982},"geometry":{"x":169447.03999999911,"y":2545346.5000000037}},{"attributes":{"ID":41983,"DIS_CODE":0,"TOWNNAME":"安平區","LI":"石門里","LIN":"7鄰","STREET":"安北路","SECT":" ","MAREA":" ","LANE":"４０巷","ALLEY":"１７弄","HOUSE_NO":"９號之１","E_COORD97":164583.79000000001,"N_COORD97":2544642.5299999998,"ADDRESS":"安北路４０巷１７弄９號之１","OBJECTID":41983},"geometry":{"x":164583.7900000019,"y":2544642.5299999993}},{"attributes":{"ID":41984,"DIS_CODE":0,"TOWNNAME":"善化區","LI":"小新里","LIN":"7鄰","STREET":" ","SECT":" ","MAREA":"小新營","LANE":" ","ALLEY":" ","HOUSE_NO":"５５號之１","E_COORD97":179708.69,"N_COORD97":2558452.02,"ADDRESS":"小新營５５號之１","OBJECTID":41984},"geometry":{"x":179708.69000000041,"y":2558452.0199999996}},{"attributes":{"ID":41985,"DIS_CODE":0,"TOWNNAME":"善化區","LI":"小新里","LIN":"7鄰","STREET":" ","SECT":" ","MAREA":"小新營","LANE":" ","ALLEY":" ","HOUSE_NO":"５５號之２","E_COORD97":179813.01000000001,"N_COORD97":2558440.02,"ADDRESS":"小新營５５號之２","OBJECTID":41985},"geometry":{"x":179813.00999999978,"y":2558440.0200000014}},{"attributes":{"ID":41986,"DIS_CODE":0,"TOWNNAME":"善化區","LI":"六分里","LIN":"7鄰","STREET":" ","SECT":" ","MAREA":"溪底寮","LANE":" ","ALLEY":" ","HOUSE_NO":"５號之３","E_COORD97":177969.35000000001,"N_COORD97":2562039.52,"ADDRESS":"溪底寮５號之３","OBJECTID":41986},"geometry":{"x":177969.34999999963,"y":2562039.5199999996}},{"attributes":{"ID":41987,"DIS_CODE":0,"TOWNNAME":"官田區","LI":"東庄里","LIN":"7鄰","STREET":" ","SECT":" ","MAREA":"西庄","LANE":" ","ALLEY":" ","HOUSE_NO":"１４２號之２","E_COORD97":178086.06,"N_COORD97":2565227.1800000002,"ADDRESS":"西庄１４２號之２","OBJECTID":41987},"geometry":{"x":178086.06000000052,"y":2565227.1800000016}},{"attributes":{"ID":41988,"DIS_CODE":0,"TOWNNAME":"官田區","LI":"東庄里","LIN":"7鄰","STREET":" ","SECT":" ","MAREA":"西庄","LANE":" ","ALLEY":" ","HOUSE_NO":"１４２號","E_COORD97":178088.44,"N_COORD97":2565198.21,"ADDRESS":"西庄１４２號","OBJECTID":41988},"geometry":{"x":178088.44000000041,"y":2565198.2100000028}},{"attributes":{"ID":41989,"DIS_CODE":0,"TOWNNAME":"官田區","LI":"東庄里","LIN":"7鄰","STREET":" ","SECT":" ","MAREA":"西庄","LANE":" ","ALLEY":" ","HOUSE_NO":"１４３號","E_COORD97":178068.45999999999,"N_COORD97":2565211.25,"ADDRESS":"西庄１４３號","OBJECTID":41989},"geometry":{"x":178068.46000000089,"y":2565211.25}},{"attributes":{"ID":41990,"DIS_CODE":0,"TOWNNAME":"官田區","LI":"東庄里","LIN":"7鄰","STREET":" ","SECT":" ","MAREA":"西庄","LANE":" ","ALLEY":" ","HOUSE_NO":"１４４號之１","E_COORD97":178046.56,"N_COORD97":2565193.1899999999,"ADDRESS":"西庄１４４號之１","OBJECTID":41990},"geometry":{"x":178046.56000000052,"y":2565193.1900000013}},{"attributes":{"ID":41991,"DIS_CODE":0,"TOWNNAME":"官田區","LI":"東庄里","LIN":"7鄰","STREET":" ","SECT":" ","MAREA":"西庄","LANE":" ","ALLEY":" ","HOUSE_NO":"１４４號之２","E_COORD97":178045.60999999999,"N_COORD97":2565187.7200000002,"ADDRESS":"西庄１４４號之２","OBJECTID":41991},"geometry":{"x":178045.61000000127,"y":2565187.7200000025}},{"attributes":{"ID":41992,"DIS_CODE":0,"TOWNNAME":"官田區","LI":"東庄里","LIN":"7鄰","STREET":" ","SECT":" ","MAREA":"西庄","LANE":" ","ALLEY":" ","HOUSE_NO":"１４４號之３","E_COORD97":178046.29999999999,"N_COORD97":2565182.6800000002,"ADDRESS":"西庄１４４號之３","OBJECTID":41992},"geometry":{"x":178046.29999999981,"y":2565182.6800000016}},{"attributes":{"ID":41993,"DIS_CODE":0,"TOWNNAME":"官田區","LI":"東庄里","LIN":"7鄰","STREET":" ","SECT":" ","MAREA":"西庄","LANE":" ","ALLEY":" ","HOUSE_NO":"１４４號之４","E_COORD97":178040.25,"N_COORD97":2565222.25,"ADDRESS":"西庄１４４號之４","OBJECTID":41993},"geometry":{"x":178040.25000000186,"y":2565222.25}},{"attributes":{"ID":41994,"DIS_CODE":0,"TOWNNAME":"安平區","LI":"石門里","LIN":"7鄰","STREET":"安北路","SECT":" ","MAREA":" ","LANE":"４０巷","ALLEY":"１７弄","HOUSE_NO":"９號之２","E_COORD97":164579.76999999999,"N_COORD97":2544650.0299999998,"ADDRESS":"安北路４０巷１７弄９號之２","OBJECTID":41994},"geometry":{"x":164579.76999999862,"y":2544650.0299999993}},{"attributes":{"ID":41995,"DIS_CODE":0,"TOWNNAME":"安平區","LI":"石門里","LIN":"7鄰","STREET":"安北路","SECT":" ","MAREA":" ","LANE":"４０巷","ALLEY":"１７弄","HOUSE_NO":"１０號","E_COORD97":164617.07000000001,"N_COORD97":2544647.02,"ADDRESS":"安北路４０巷１７弄１０號","OBJECTID":41995},"geometry":{"x":164617.0700000003,"y":2544647.0199999996}},{"attributes":{"ID":41996,"DIS_CODE":0,"TOWNNAME":"官田區","LI":"東庄里","LIN":"7鄰","STREET":" ","SECT":" ","MAREA":"西庄","LANE":" ","ALLEY":" ","HOUSE_NO":"１４４號之６","E_COORD97":178028.91,"N_COORD97":2565210.4300000002,"ADDRESS":"西庄１４４號之６","OBJECTID":41996},"geometry":{"x":178028.91000000015,"y":2565210.4299999997}},{"attributes":{"ID":41997,"DIS_CODE":0,"TOWNNAME":"官田區","LI":"東庄里","LIN":"7鄰","STREET":" ","SECT":" ","MAREA":"西庄","LANE":" ","ALLEY":" ","HOUSE_NO":"１４４號","E_COORD97":178049.42999999999,"N_COORD97":2565208.0699999998,"ADDRESS":"西庄１４４號","OBJECTID":41997},"geometry":{"x":178049.43000000063,"y":2565208.0700000022}},{"attributes":{"ID":41998,"DIS_CODE":0,"TOWNNAME":"官田區","LI":"西庄里","LIN":"7鄰","STREET":" ","SECT":" ","MAREA":"西庄","LANE":" ","ALLEY":" ","HOUSE_NO":"５３號","E_COORD97":177874.26999999999,"N_COORD97":2565126.54,"ADDRESS":"西庄５３號","OBJECTID":41998},"geometry":{"x":177874.27000000048,"y":2565126.5399999991}},{"attributes":{"ID":41999,"DIS_CODE":0,"TOWNNAME":"安平區","LI":"石門里","LIN":"7鄰","STREET":"安北路","SECT":" ","MAREA":" ","LANE":"４０巷","ALLEY":"１７弄","HOUSE_NO":"１號","E_COORD97":164603.66,"N_COORD97":2544638.7799999998,"ADDRESS":"安北路４０巷１７弄１號","OBJECTID":41999},"geometry":{"x":164603.66000000108,"y":2544638.7800000031}},{"attributes":{"ID":42000,"DIS_CODE":0,"TOWNNAME":"安平區","LI":"石門里","LIN":"7鄰","STREET":"安北路","SECT":" ","MAREA":" ","LANE":"４０巷","ALLEY":"１７弄","HOUSE_NO":"２號","E_COORD97":164625.84,"N_COORD97":2544638.0099999998,"ADDRESS":"安北路４０巷１７弄２號","OBJECTID":42000},"geometry":{"x":164625.84000000078,"y":2544638.0100000016}}]}