{"displayFieldName":"TOWNNAME","fieldAliases":{"ID":"ID","DIS_CODE":"DIS_CODE","TOWNNAME":"TOWNNAME","LI":"LI","LIN":"LIN","STREET":"STREET","SECT":"SECT","MAREA":"MAREA","LANE":"LANE","ALLEY":"ALLEY","HOUSE_NO":"HOUSE_NO","E_COORD97":"E_COORD97","N_COORD97":"N_COORD97","ADDRESS":"ADDRESS","OBJECTID":"OBJECTID"},"geometryType":"esriGeometryPoint","spatialReference":{"wkid":102443,"latestWkid":3826},"fields":[{"name":"ID","type":"esriFieldTypeDouble","alias":"ID"},{"name":"DIS_CODE","type":"esriFieldTypeInteger","alias":"DIS_CODE"},{"name":"TOWNNAME","type":"esriFieldTypeString","alias":"TOWNNAME","length":8},{"name":"LI","type":"esriFieldTypeString","alias":"LI","length":8},{"name":"LIN","type":"esriFieldTypeString","alias":"LIN","length":12},{"name":"STREET","type":"esriFieldTypeString","alias":"STREET","length":20},{"name":"SECT","type":"esriFieldTypeString","alias":"SECT","length":8},{"name":"MAREA","type":"esriFieldTypeString","alias":"MAREA","length":12},{"name":"LANE","type":"esriFieldTypeString","alias":"LANE","length":10},{"name":"ALLEY","type":"esriFieldTypeString","alias":"ALLEY","length":10},{"name":"HOUSE_NO","type":"esriFieldTypeString","alias":"HOUSE_NO","length":20},{"name":"E_COORD97","type":"esriFieldTypeDouble","alias":"E_COORD97"},{"name":"N_COORD97","type":"esriFieldTypeDouble","alias":"N_COORD97"},{"name":"ADDRESS","type":"esriFieldTypeString","alias":"ADDRESS","length":50},{"name":"OBJECTID","type":"esriFieldTypeOID","alias":"OBJECTID"}],"features":[{"attributes":{"ID":382611,"DIS_CODE":0,"TOWNNAME":"北區","LI":"文成里","LIN":"9鄰","STREET":"文賢路","SECT":" ","MAREA":" ","LANE":"５０２巷","ALLEY":" ","HOUSE_NO":"６號","E_COORD97":167385.5,"N_COORD97":2545237.0099999998,"ADDRESS":"文賢路５０２巷６號","OBJECTID":382601},"geometry":{"x":167385.5,"y":2545237.0099999998}},{"attributes":{"ID":382612,"DIS_CODE":0,"TOWNNAME":"北區","LI":"文成里","LIN":"9鄰","STREET":"文賢路","SECT":" ","MAREA":" ","LANE":"５０２巷","ALLEY":" ","HOUSE_NO":"７０號","E_COORD97":167549.20999999999,"N_COORD97":2545235.6400000001,"ADDRESS":"文賢路５０２巷７０號","OBJECTID":382602},"geometry":{"x":167549.21000000089,"y":2545235.6400000025}},{"attributes":{"ID":382613,"DIS_CODE":0,"TOWNNAME":"北區","LI":"文成里","LIN":"9鄰","STREET":"文賢路","SECT":" ","MAREA":" ","LANE":"５０２巷","ALLEY":" ","HOUSE_NO":"７號","E_COORD97":167391.17000000001,"N_COORD97":2545249.02,"ADDRESS":"文賢路５０２巷７號","OBJECTID":382603},"geometry":{"x":167391.16999999993,"y":2545249.0200000014}},{"attributes":{"ID":382614,"DIS_CODE":0,"TOWNNAME":"北區","LI":"文成里","LIN":"9鄰","STREET":"文賢路","SECT":" ","MAREA":" ","LANE":"５０２巷","ALLEY":" ","HOUSE_NO":"８號","E_COORD97":167389.92999999999,"N_COORD97":2545236.4100000001,"ADDRESS":"文賢路５０２巷８號","OBJECTID":382604},"geometry":{"x":167389.93000000063,"y":2545236.410000002}},{"attributes":{"ID":382615,"DIS_CODE":0,"TOWNNAME":"北區","LI":"文成里","LIN":"9鄰","STREET":"文賢路","SECT":" ","MAREA":" ","LANE":"５０２巷","ALLEY":" ","HOUSE_NO":"９號","E_COORD97":167396.41,"N_COORD97":2545249.02,"ADDRESS":"文賢路５０２巷９號","OBJECTID":382605},"geometry":{"x":167396.41000000015,"y":2545249.0200000014}},{"attributes":{"ID":382616,"DIS_CODE":0,"TOWNNAME":"南區","LI":"明興里","LIN":"9鄰","STREET":"金華路","SECT":"一段","MAREA":" ","LANE":"１１６巷","ALLEY":" ","HOUSE_NO":"３７號","E_COORD97":167014.03,"N_COORD97":2540550.5,"ADDRESS":"金華路一段１１６巷３７號","OBJECTID":382606},"geometry":{"x":167014.03000000026,"y":2540550.5000000019}},{"attributes":{"ID":382617,"DIS_CODE":0,"TOWNNAME":"南區","LI":"建南里","LIN":"9鄰","STREET":"德興路","SECT":" ","MAREA":" ","LANE":"２７４巷","ALLEY":" ","HOUSE_NO":"５１號","E_COORD97":167064.17000000001,"N_COORD97":2540003.77,"ADDRESS":"德興路２７４巷５１號","OBJECTID":382607},"geometry":{"x":167064.16999999993,"y":2540003.7699999996}},{"attributes":{"ID":382618,"DIS_CODE":0,"TOWNNAME":"南區","LI":"建南里","LIN":"9鄰","STREET":"德興路","SECT":" ","MAREA":" ","LANE":"２７４巷","ALLEY":" ","HOUSE_NO":"５３號","E_COORD97":167059.37,"N_COORD97":2540004.02,"ADDRESS":"德興路２７４巷５３號","OBJECTID":382608},"geometry":{"x":167059.37000000011,"y":2540004.0200000014}},{"attributes":{"ID":382619,"DIS_CODE":0,"TOWNNAME":"南區","LI":"建南里","LIN":"9鄰","STREET":"德興路","SECT":" ","MAREA":" ","LANE":"２７４巷","ALLEY":" ","HOUSE_NO":"５５號","E_COORD97":167054.32000000001,"N_COORD97":2540004.6299999999,"ADDRESS":"德興路２７４巷５５號","OBJECTID":382609},"geometry":{"x":167054.32000000123,"y":2540004.6300000027}},{"attributes":{"ID":382620,"DIS_CODE":0,"TOWNNAME":"南區","LI":"建南里","LIN":"9鄰","STREET":"德興路","SECT":" ","MAREA":" ","LANE":"２７４巷","ALLEY":" ","HOUSE_NO":"５７號","E_COORD97":167049.76999999999,"N_COORD97":2540005.25,"ADDRESS":"德興路２７４巷５７號","OBJECTID":382610},"geometry":{"x":167049.77000000142,"y":2540005.2500000019}},{"attributes":{"ID":382621,"DIS_CODE":0,"TOWNNAME":"南區","LI":"建南里","LIN":"9鄰","STREET":"德興路","SECT":" ","MAREA":" ","LANE":"２７４巷","ALLEY":" ","HOUSE_NO":"６３號","E_COORD97":167032.54000000001,"N_COORD97":2540002.9100000001,"ADDRESS":"德興路２７４巷６３號","OBJECTID":382611},"geometry":{"x":167032.54000000004,"y":2540002.9100000001}},{"attributes":{"ID":382622,"DIS_CODE":0,"TOWNNAME":"南區","LI":"建南里","LIN":"9鄰","STREET":"德興路","SECT":" ","MAREA":" ","LANE":"２７４巷","ALLEY":" ","HOUSE_NO":"６５號","E_COORD97":167027.37,"N_COORD97":2540003.2799999998,"ADDRESS":"德興路２７４巷６５號","OBJECTID":382612},"geometry":{"x":167027.37000000011,"y":2540003.2799999993}},{"attributes":{"ID":382623,"DIS_CODE":0,"TOWNNAME":"南區","LI":"建南里","LIN":"9鄰","STREET":"德興路","SECT":" ","MAREA":" ","LANE":"２７４巷","ALLEY":" ","HOUSE_NO":"６７號","E_COORD97":167022.69,"N_COORD97":2540003.6499999999,"ADDRESS":"德興路２７４巷６７號","OBJECTID":382613},"geometry":{"x":167022.69000000134,"y":2540003.6500000022}},{"attributes":{"ID":382624,"DIS_CODE":0,"TOWNNAME":"南區","LI":"建南里","LIN":"9鄰","STREET":"德興路","SECT":" ","MAREA":" ","LANE":"２７４巷","ALLEY":" ","HOUSE_NO":"６９號","E_COORD97":167017.76999999999,"N_COORD97":2540003.6499999999,"ADDRESS":"德興路２７４巷６９號","OBJECTID":382614},"geometry":{"x":167017.77000000048,"y":2540003.6500000022}},{"attributes":{"ID":382625,"DIS_CODE":0,"TOWNNAME":"北區","LI":"大豐里","LIN":"9鄰","STREET":"文賢路","SECT":" ","MAREA":" ","LANE":"３６５巷","ALLEY":" ","HOUSE_NO":"６１號","E_COORD97":167169.41,"N_COORD97":2545381.8700000001,"ADDRESS":"文賢路３６５巷６１號","OBJECTID":382615},"geometry":{"x":167169.41000000015,"y":2545381.870000001}},{"attributes":{"ID":382626,"DIS_CODE":0,"TOWNNAME":"東區","LI":"東聖里","LIN":"9鄰","STREET":"富農街","SECT":"二段","MAREA":" ","LANE":"４３巷","ALLEY":" ","HOUSE_NO":"２４號二樓","E_COORD97":171605.10000000001,"N_COORD97":2542990.73,"ADDRESS":"富農街二段４３巷２４號二樓","OBJECTID":382616},"geometry":{"x":171605.10000000056,"y":2542990.7300000023}},{"attributes":{"ID":382627,"DIS_CODE":0,"TOWNNAME":"東區","LI":"東聖里","LIN":"9鄰","STREET":"富農街","SECT":"二段","MAREA":" ","LANE":"４３巷","ALLEY":" ","HOUSE_NO":"２４號三樓","E_COORD97":171605.10000000001,"N_COORD97":2542990.73,"ADDRESS":"富農街二段４３巷２４號三樓","OBJECTID":382617},"geometry":{"x":171605.10000000056,"y":2542990.7300000023}},{"attributes":{"ID":382628,"DIS_CODE":0,"TOWNNAME":"東區","LI":"東聖里","LIN":"9鄰","STREET":"富農街","SECT":"二段","MAREA":" ","LANE":"４３巷","ALLEY":" ","HOUSE_NO":"２４號五樓","E_COORD97":171605.10000000001,"N_COORD97":2542990.73,"ADDRESS":"富農街二段４３巷２４號五樓","OBJECTID":382618},"geometry":{"x":171605.10000000056,"y":2542990.7300000023}},{"attributes":{"ID":382629,"DIS_CODE":0,"TOWNNAME":"東區","LI":"東聖里","LIN":"9鄰","STREET":"富農街","SECT":"二段","MAREA":" ","LANE":"４３巷","ALLEY":" ","HOUSE_NO":"２４號四樓之２","E_COORD97":171605.10000000001,"N_COORD97":2542990.73,"ADDRESS":"富農街二段４３巷２４號四樓之２","OBJECTID":382619},"geometry":{"x":171605.10000000056,"y":2542990.7300000023}},{"attributes":{"ID":382630,"DIS_CODE":0,"TOWNNAME":"東區","LI":"東聖里","LIN":"9鄰","STREET":"富農街","SECT":"二段","MAREA":" ","LANE":"４３巷","ALLEY":" ","HOUSE_NO":"２６號二樓","E_COORD97":171598.59,"N_COORD97":2542992.96,"ADDRESS":"富農街二段４３巷２６號二樓","OBJECTID":382620},"geometry":{"x":171598.59000000078,"y":2542992.9600000028}},{"attributes":{"ID":382631,"DIS_CODE":0,"TOWNNAME":"東區","LI":"東聖里","LIN":"9鄰","STREET":"富農街","SECT":"二段","MAREA":" ","LANE":"４３巷","ALLEY":" ","HOUSE_NO":"２６號三樓","E_COORD97":171598.59,"N_COORD97":2542992.96,"ADDRESS":"富農街二段４３巷２６號三樓","OBJECTID":382621},"geometry":{"x":171598.59000000078,"y":2542992.9600000028}},{"attributes":{"ID":382632,"DIS_CODE":0,"TOWNNAME":"東區","LI":"東聖里","LIN":"9鄰","STREET":"富農街","SECT":"二段","MAREA":" ","LANE":"４３巷","ALLEY":" ","HOUSE_NO":"２６號四樓之１","E_COORD97":171598.59,"N_COORD97":2542992.96,"ADDRESS":"富農街二段４３巷２６號四樓之１","OBJECTID":382622},"geometry":{"x":171598.59000000078,"y":2542992.9600000028}},{"attributes":{"ID":382633,"DIS_CODE":0,"TOWNNAME":"東區","LI":"東聖里","LIN":"9鄰","STREET":"富農街","SECT":"二段","MAREA":" ","LANE":"４３巷","ALLEY":" ","HOUSE_NO":"２８號二樓","E_COORD97":171592.82000000001,"N_COORD97":2542991.48,"ADDRESS":"富農街二段４３巷２８號二樓","OBJECTID":382623},"geometry":{"x":171592.8200000003,"y":2542991.4800000023}},{"attributes":{"ID":382634,"DIS_CODE":0,"TOWNNAME":"東區","LI":"東聖里","LIN":"9鄰","STREET":"富農街","SECT":"二段","MAREA":" ","LANE":"４３巷","ALLEY":" ","HOUSE_NO":"２８號三樓","E_COORD97":171592.82000000001,"N_COORD97":2542991.48,"ADDRESS":"富農街二段４３巷２８號三樓","OBJECTID":382624},"geometry":{"x":171592.8200000003,"y":2542991.4800000023}},{"attributes":{"ID":382635,"DIS_CODE":0,"TOWNNAME":"東區","LI":"東聖里","LIN":"9鄰","STREET":"富農街","SECT":"二段","MAREA":" ","LANE":"４３巷","ALLEY":" ","HOUSE_NO":"２８號四樓之１","E_COORD97":171592.82000000001,"N_COORD97":2542991.48,"ADDRESS":"富農街二段４３巷２８號四樓之１","OBJECTID":382625},"geometry":{"x":171592.8200000003,"y":2542991.4800000023}},{"attributes":{"ID":382636,"DIS_CODE":0,"TOWNNAME":"東區","LI":"東聖里","LIN":"9鄰","STREET":"富農街","SECT":"二段","MAREA":" ","LANE":"４３巷","ALLEY":" ","HOUSE_NO":"２８號四樓之２","E_COORD97":171592.82000000001,"N_COORD97":2542991.48,"ADDRESS":"富農街二段４３巷２８號四樓之２","OBJECTID":382626},"geometry":{"x":171592.8200000003,"y":2542991.4800000023}},{"attributes":{"ID":382637,"DIS_CODE":0,"TOWNNAME":"東區","LI":"東聖里","LIN":"9鄰","STREET":"富農街","SECT":"二段","MAREA":" ","LANE":"４３巷","ALLEY":" ","HOUSE_NO":"３０號二樓","E_COORD97":171584.07000000001,"N_COORD97":2542990.5499999998,"ADDRESS":"富農街二段４３巷３０號二樓","OBJECTID":382627},"geometry":{"x":171584.0700000003,"y":2542990.5500000045}},{"attributes":{"ID":382638,"DIS_CODE":0,"TOWNNAME":"東區","LI":"東聖里","LIN":"9鄰","STREET":"富農街","SECT":"二段","MAREA":" ","LANE":"４３巷","ALLEY":" ","HOUSE_NO":"３０號三樓","E_COORD97":171584.07000000001,"N_COORD97":2542990.5499999998,"ADDRESS":"富農街二段４３巷３０號三樓","OBJECTID":382628},"geometry":{"x":171584.0700000003,"y":2542990.5500000045}},{"attributes":{"ID":382639,"DIS_CODE":0,"TOWNNAME":"東區","LI":"東聖里","LIN":"9鄰","STREET":"富農街","SECT":"二段","MAREA":" ","LANE":"４３巷","ALLEY":" ","HOUSE_NO":"３０號四樓之１","E_COORD97":171584.07000000001,"N_COORD97":2542990.5499999998,"ADDRESS":"富農街二段４３巷３０號四樓之１","OBJECTID":382629},"geometry":{"x":171584.0700000003,"y":2542990.5500000045}},{"attributes":{"ID":382640,"DIS_CODE":0,"TOWNNAME":"東區","LI":"東聖里","LIN":"9鄰","STREET":"富農街","SECT":"二段","MAREA":" ","LANE":"４３巷","ALLEY":" ","HOUSE_NO":"３２號二樓","E_COORD97":171571.23000000001,"N_COORD97":2542992.2200000002,"ADDRESS":"富農街二段４３巷３２號二樓","OBJECTID":382630},"geometry":{"x":171571.23000000138,"y":2542992.2200000007}},{"attributes":{"ID":382641,"DIS_CODE":0,"TOWNNAME":"東區","LI":"東聖里","LIN":"9鄰","STREET":"富農街","SECT":"二段","MAREA":" ","LANE":"４３巷","ALLEY":" ","HOUSE_NO":"３２號三樓","E_COORD97":171571.23000000001,"N_COORD97":2542992.2200000002,"ADDRESS":"富農街二段４３巷３２號三樓","OBJECTID":382631},"geometry":{"x":171571.23000000138,"y":2542992.2200000007}},{"attributes":{"ID":382642,"DIS_CODE":0,"TOWNNAME":"東區","LI":"東聖里","LIN":"9鄰","STREET":"富農街","SECT":"二段","MAREA":" ","LANE":"４３巷","ALLEY":" ","HOUSE_NO":"３２號五樓","E_COORD97":171571.23000000001,"N_COORD97":2542992.2200000002,"ADDRESS":"富農街二段４３巷３２號五樓","OBJECTID":382632},"geometry":{"x":171571.23000000138,"y":2542992.2200000007}},{"attributes":{"ID":382643,"DIS_CODE":0,"TOWNNAME":"東區","LI":"東聖里","LIN":"9鄰","STREET":"富農街","SECT":"二段","MAREA":" ","LANE":"４３巷","ALLEY":" ","HOUSE_NO":"３２號四樓","E_COORD97":171571.23000000001,"N_COORD97":2542992.2200000002,"ADDRESS":"富農街二段４３巷３２號四樓","OBJECTID":382633},"geometry":{"x":171571.23000000138,"y":2542992.2200000007}},{"attributes":{"ID":382644,"DIS_CODE":0,"TOWNNAME":"東區","LI":"東聖里","LIN":"9鄰","STREET":"富農街","SECT":"二段","MAREA":" ","LANE":"４３巷","ALLEY":" ","HOUSE_NO":"３４號三樓之２","E_COORD97":171572.35000000001,"N_COORD97":2542985.5299999998,"ADDRESS":"富農街二段４３巷３４號三樓之２","OBJECTID":382634},"geometry":{"x":171572.35000000056,"y":2542985.5299999993}},{"attributes":{"ID":382645,"DIS_CODE":0,"TOWNNAME":"東區","LI":"東聖里","LIN":"9鄰","STREET":"富農街","SECT":"二段","MAREA":" ","LANE":"４３巷","ALLEY":" ","HOUSE_NO":"３４號三樓之３","E_COORD97":171572.35000000001,"N_COORD97":2542985.5299999998,"ADDRESS":"富農街二段４３巷３４號三樓之３","OBJECTID":382635},"geometry":{"x":171572.35000000056,"y":2542985.5299999993}},{"attributes":{"ID":382646,"DIS_CODE":0,"TOWNNAME":"東區","LI":"東聖里","LIN":"9鄰","STREET":"富農街","SECT":"二段","MAREA":" ","LANE":"４３巷","ALLEY":" ","HOUSE_NO":"３４號五樓之１","E_COORD97":171572.35000000001,"N_COORD97":2542985.5299999998,"ADDRESS":"富農街二段４３巷３４號五樓之１","OBJECTID":382636},"geometry":{"x":171572.35000000056,"y":2542985.5299999993}},{"attributes":{"ID":382647,"DIS_CODE":0,"TOWNNAME":"東區","LI":"東聖里","LIN":"9鄰","STREET":"富農街","SECT":"二段","MAREA":" ","LANE":"４３巷","ALLEY":" ","HOUSE_NO":"３４號四樓之１","E_COORD97":171572.35000000001,"N_COORD97":2542985.5299999998,"ADDRESS":"富農街二段４３巷３４號四樓之１","OBJECTID":382637},"geometry":{"x":171572.35000000056,"y":2542985.5299999993}},{"attributes":{"ID":382648,"DIS_CODE":0,"TOWNNAME":"東區","LI":"東聖里","LIN":"9鄰","STREET":"富農街","SECT":"二段","MAREA":" ","LANE":"４３巷","ALLEY":" ","HOUSE_NO":"３４號四樓之４","E_COORD97":171572.35000000001,"N_COORD97":2542985.5299999998,"ADDRESS":"富農街二段４３巷３４號四樓之４","OBJECTID":382638},"geometry":{"x":171572.35000000056,"y":2542985.5299999993}},{"attributes":{"ID":382649,"DIS_CODE":0,"TOWNNAME":"東區","LI":"東聖里","LIN":"9鄰","STREET":"富農街","SECT":"二段","MAREA":" ","LANE":"４３巷","ALLEY":" ","HOUSE_NO":"３６號五樓之１","E_COORD97":171574.39999999999,"N_COORD97":2542976.0499999998,"ADDRESS":"富農街二段４３巷３６號五樓之１","OBJECTID":382639},"geometry":{"x":171574.4000000013,"y":2542976.0500000007}},{"attributes":{"ID":382650,"DIS_CODE":0,"TOWNNAME":"東區","LI":"東聖里","LIN":"9鄰","STREET":"富農街","SECT":"二段","MAREA":" ","LANE":"４３巷","ALLEY":" ","HOUSE_NO":"３６號五樓之２","E_COORD97":171574.39999999999,"N_COORD97":2542976.0499999998,"ADDRESS":"富農街二段４３巷３６號五樓之２","OBJECTID":382640},"geometry":{"x":171574.4000000013,"y":2542976.0500000007}},{"attributes":{"ID":382651,"DIS_CODE":0,"TOWNNAME":"東區","LI":"東聖里","LIN":"9鄰","STREET":"富農街","SECT":"二段","MAREA":" ","LANE":"４３巷","ALLEY":" ","HOUSE_NO":"３６號四樓之１","E_COORD97":171574.39999999999,"N_COORD97":2542976.0499999998,"ADDRESS":"富農街二段４３巷３６號四樓之１","OBJECTID":382641},"geometry":{"x":171574.4000000013,"y":2542976.0500000007}},{"attributes":{"ID":382652,"DIS_CODE":0,"TOWNNAME":"東區","LI":"東聖里","LIN":"9鄰","STREET":"富農街","SECT":"二段","MAREA":" ","LANE":"４３巷","ALLEY":" ","HOUSE_NO":"３６號四樓之２","E_COORD97":171574.39999999999,"N_COORD97":2542976.0499999998,"ADDRESS":"富農街二段４３巷３６號四樓之２","OBJECTID":382642},"geometry":{"x":171574.4000000013,"y":2542976.0500000007}},{"attributes":{"ID":382653,"DIS_CODE":0,"TOWNNAME":"東區","LI":"東聖里","LIN":"9鄰","STREET":"富農街","SECT":"二段","MAREA":" ","LANE":"４３巷","ALLEY":" ","HOUSE_NO":"３０號五樓","E_COORD97":171584.07000000001,"N_COORD97":2542990.5499999998,"ADDRESS":"富農街二段４３巷３０號五樓","OBJECTID":382643},"geometry":{"x":171584.0700000003,"y":2542990.5500000045}},{"attributes":{"ID":382654,"DIS_CODE":0,"TOWNNAME":"東區","LI":"東聖里","LIN":"9鄰","STREET":"富農街","SECT":"二段","MAREA":" ","LANE":"４３巷","ALLEY":" ","HOUSE_NO":"３４號三樓之１","E_COORD97":171572.35000000001,"N_COORD97":2542985.5299999998,"ADDRESS":"富農街二段４３巷３４號三樓之１","OBJECTID":382644},"geometry":{"x":171572.35000000056,"y":2542985.5299999993}},{"attributes":{"ID":382655,"DIS_CODE":0,"TOWNNAME":"東區","LI":"東聖里","LIN":"9鄰","STREET":"富農街","SECT":"二段","MAREA":" ","LANE":"４３巷","ALLEY":" ","HOUSE_NO":"２２號二樓","E_COORD97":171609.92999999999,"N_COORD97":2542993.71,"ADDRESS":"富農街二段４３巷２２號二樓","OBJECTID":382645},"geometry":{"x":171609.9299999997,"y":2542993.7100000028}},{"attributes":{"ID":382656,"DIS_CODE":0,"TOWNNAME":"東區","LI":"東聖里","LIN":"9鄰","STREET":"富農街","SECT":"二段","MAREA":" ","LANE":"４３巷","ALLEY":" ","HOUSE_NO":"２２號四樓","E_COORD97":171609.92999999999,"N_COORD97":2542993.71,"ADDRESS":"富農街二段４３巷２２號四樓","OBJECTID":382646},"geometry":{"x":171609.9299999997,"y":2542993.7100000028}},{"attributes":{"ID":382657,"DIS_CODE":0,"TOWNNAME":"東區","LI":"東聖里","LIN":"9鄰","STREET":"富農街","SECT":"二段","MAREA":" ","LANE":"４３巷","ALLEY":" ","HOUSE_NO":"２２號五樓","E_COORD97":171609.92999999999,"N_COORD97":2542993.71,"ADDRESS":"富農街二段４３巷２２號五樓","OBJECTID":382647},"geometry":{"x":171609.9299999997,"y":2542993.7100000028}},{"attributes":{"ID":382658,"DIS_CODE":0,"TOWNNAME":"東區","LI":"東聖里","LIN":"9鄰","STREET":"富農街","SECT":"二段","MAREA":" ","LANE":"４３巷","ALLEY":" ","HOUSE_NO":"２４號四樓之１","E_COORD97":171605.10000000001,"N_COORD97":2542990.73,"ADDRESS":"富農街二段４３巷２４號四樓之１","OBJECTID":382648},"geometry":{"x":171605.10000000056,"y":2542990.7300000023}},{"attributes":{"ID":382659,"DIS_CODE":0,"TOWNNAME":"東區","LI":"東聖里","LIN":"9鄰","STREET":"富農街","SECT":"二段","MAREA":" ","LANE":"４３巷","ALLEY":" ","HOUSE_NO":"２６號四樓之２","E_COORD97":171598.59,"N_COORD97":2542992.96,"ADDRESS":"富農街二段４３巷２６號四樓之２","OBJECTID":382649},"geometry":{"x":171598.59000000078,"y":2542992.9600000028}},{"attributes":{"ID":382660,"DIS_CODE":0,"TOWNNAME":"東區","LI":"東聖里","LIN":"9鄰","STREET":"富農街","SECT":"二段","MAREA":" ","LANE":"４３巷","ALLEY":" ","HOUSE_NO":"２６號五樓","E_COORD97":171598.59,"N_COORD97":2542992.96,"ADDRESS":"富農街二段４３巷２６號五樓","OBJECTID":382650},"geometry":{"x":171598.59000000078,"y":2542992.9600000028}},{"attributes":{"ID":382661,"DIS_CODE":0,"TOWNNAME":"東區","LI":"東聖里","LIN":"9鄰","STREET":"富農街","SECT":"二段","MAREA":" ","LANE":"４３巷","ALLEY":" ","HOUSE_NO":"２８號五樓","E_COORD97":171592.82000000001,"N_COORD97":2542991.48,"ADDRESS":"富農街二段４３巷２８號五樓","OBJECTID":382651},"geometry":{"x":171592.8200000003,"y":2542991.4800000023}},{"attributes":{"ID":382662,"DIS_CODE":0,"TOWNNAME":"東區","LI":"東聖里","LIN":"9鄰","STREET":"富農街","SECT":"二段","MAREA":" ","LANE":"４３巷","ALLEY":" ","HOUSE_NO":"３０號四樓之２","E_COORD97":171584.07000000001,"N_COORD97":2542990.5499999998,"ADDRESS":"富農街二段４３巷３０號四樓之２","OBJECTID":382652},"geometry":{"x":171584.0700000003,"y":2542990.5500000045}},{"attributes":{"ID":382663,"DIS_CODE":0,"TOWNNAME":"東區","LI":"東聖里","LIN":"9鄰","STREET":"富農街","SECT":"二段","MAREA":" ","LANE":"４３巷","ALLEY":" ","HOUSE_NO":"３４號三樓之４","E_COORD97":171572.35000000001,"N_COORD97":2542985.5299999998,"ADDRESS":"富農街二段４３巷３４號三樓之４","OBJECTID":382653},"geometry":{"x":171572.35000000056,"y":2542985.5299999993}},{"attributes":{"ID":382664,"DIS_CODE":0,"TOWNNAME":"東區","LI":"東聖里","LIN":"9鄰","STREET":"富農街","SECT":"二段","MAREA":" ","LANE":"４３巷","ALLEY":" ","HOUSE_NO":"３４號四樓之２","E_COORD97":171572.35000000001,"N_COORD97":2542985.5299999998,"ADDRESS":"富農街二段４３巷３４號四樓之２","OBJECTID":382654},"geometry":{"x":171572.35000000056,"y":2542985.5299999993}},{"attributes":{"ID":382665,"DIS_CODE":0,"TOWNNAME":"東區","LI":"東聖里","LIN":"9鄰","STREET":"富農街","SECT":"二段","MAREA":" ","LANE":"４３巷","ALLEY":" ","HOUSE_NO":"３４號四樓之３","E_COORD97":171572.35000000001,"N_COORD97":2542985.5299999998,"ADDRESS":"富農街二段４３巷３４號四樓之３","OBJECTID":382655},"geometry":{"x":171572.35000000056,"y":2542985.5299999993}},{"attributes":{"ID":382666,"DIS_CODE":0,"TOWNNAME":"東區","LI":"東聖里","LIN":"9鄰","STREET":"富農街","SECT":"二段","MAREA":" ","LANE":"４３巷","ALLEY":" ","HOUSE_NO":"３４號五樓之２","E_COORD97":171572.35000000001,"N_COORD97":2542985.5299999998,"ADDRESS":"富農街二段４３巷３４號五樓之２","OBJECTID":382656},"geometry":{"x":171572.35000000056,"y":2542985.5299999993}},{"attributes":{"ID":382667,"DIS_CODE":0,"TOWNNAME":"麻豆區","LI":"巷口里","LIN":"6鄰","STREET":"建南街","SECT":" ","MAREA":" ","LANE":"７４巷","ALLEY":" ","HOUSE_NO":"１８號","E_COORD97":173158.66,"N_COORD97":2564187.3500000001,"ADDRESS":"建南街７４巷１８號","OBJECTID":382657},"geometry":{"x":173158.66000000015,"y":2564187.3500000034}},{"attributes":{"ID":382668,"DIS_CODE":0,"TOWNNAME":"麻豆區","LI":"巷口里","LIN":"6鄰","STREET":"建南街","SECT":" ","MAREA":" ","LANE":"７４巷","ALLEY":" ","HOUSE_NO":"２０號","E_COORD97":173120.92999999999,"N_COORD97":2564173.02,"ADDRESS":"建南街７４巷２０號","OBJECTID":382658},"geometry":{"x":173120.92999999877,"y":2564173.0200000014}},{"attributes":{"ID":382669,"DIS_CODE":0,"TOWNNAME":"麻豆區","LI":"巷口里","LIN":"6鄰","STREET":"建南街","SECT":" ","MAREA":" ","LANE":"７４巷","ALLEY":" ","HOUSE_NO":"２２號","E_COORD97":173155.64000000001,"N_COORD97":2564176.3900000001,"ADDRESS":"建南街７４巷２２號","OBJECTID":382659},"geometry":{"x":173155.6400000006,"y":2564176.3900000006}},{"attributes":{"ID":382670,"DIS_CODE":0,"TOWNNAME":"麻豆區","LI":"巷口里","LIN":"9鄰","STREET":"建南街","SECT":" ","MAREA":" ","LANE":"７４巷","ALLEY":" ","HOUSE_NO":"２７號","E_COORD97":173218.95999999999,"N_COORD97":2564206.6400000001,"ADDRESS":"建南街７４巷２７號","OBJECTID":382660},"geometry":{"x":173218.95999999996,"y":2564206.6399999987}},{"attributes":{"ID":382671,"DIS_CODE":0,"TOWNNAME":"東區","LI":"東聖里","LIN":"9鄰","STREET":"富農街","SECT":"二段","MAREA":" ","LANE":"４３巷","ALLEY":" ","HOUSE_NO":"３４號五樓之３","E_COORD97":171572.35000000001,"N_COORD97":2542985.5299999998,"ADDRESS":"富農街二段４３巷３４號五樓之３","OBJECTID":382661},"geometry":{"x":171572.35000000056,"y":2542985.5299999993}},{"attributes":{"ID":382672,"DIS_CODE":0,"TOWNNAME":"東區","LI":"東聖里","LIN":"9鄰","STREET":"富農街","SECT":"二段","MAREA":" ","LANE":"４３巷","ALLEY":" ","HOUSE_NO":"３４號五樓之４","E_COORD97":171572.35000000001,"N_COORD97":2542985.5299999998,"ADDRESS":"富農街二段４３巷３４號五樓之４","OBJECTID":382662},"geometry":{"x":171572.35000000056,"y":2542985.5299999993}},{"attributes":{"ID":382673,"DIS_CODE":0,"TOWNNAME":"仁德區","LI":"一甲里","LIN":"5鄰","STREET":"忠義三街","SECT":" ","MAREA":" ","LANE":"８巷","ALLEY":" ","HOUSE_NO":"２３號","E_COORD97":173668.73000000001,"N_COORD97":2541657.52,"ADDRESS":"忠義三街８巷２３號","OBJECTID":382663},"geometry":{"x":173668.73000000045,"y":2541657.5200000014}},{"attributes":{"ID":382674,"DIS_CODE":0,"TOWNNAME":"仁德區","LI":"二行里","LIN":"1鄰","STREET":"二仁路","SECT":"一段","MAREA":" ","LANE":"４９１巷","ALLEY":" ","HOUSE_NO":"１６９號","E_COORD97":169689.85000000001,"N_COORD97":2536383.7799999998,"ADDRESS":"二仁路一段４９１巷１６９號","OBJECTID":382664},"geometry":{"x":169689.84999999963,"y":2536383.7800000012}},{"attributes":{"ID":382675,"DIS_CODE":0,"TOWNNAME":"仁德區","LI":"一甲里","LIN":"14鄰","STREET":"忠義路","SECT":" ","MAREA":" ","LANE":"２４１巷","ALLEY":" ","HOUSE_NO":"７號","E_COORD97":173902.17000000001,"N_COORD97":2541807.2599999998,"ADDRESS":"忠義路２４１巷７號","OBJECTID":382665},"geometry":{"x":173902.16999999993,"y":2541807.2599999998}},{"attributes":{"ID":382676,"DIS_CODE":0,"TOWNNAME":"仁德區","LI":"土庫里","LIN":"6鄰","STREET":"土庫三街","SECT":" ","MAREA":" ","LANE":"７１巷","ALLEY":" ","HOUSE_NO":"６號","E_COORD97":174306.12,"N_COORD97":2543097.75,"ADDRESS":"土庫三街７１巷６號","OBJECTID":382666},"geometry":{"x":174306.12000000011,"y":2543097.7500000019}},{"attributes":{"ID":382677,"DIS_CODE":0,"TOWNNAME":"仁德區","LI":"上崙里","LIN":"1鄰","STREET":"德崙路","SECT":" ","MAREA":" ","LANE":"７７巷","ALLEY":" ","HOUSE_NO":"１２２號","E_COORD97":173734.75,"N_COORD97":2538405.3399999999,"ADDRESS":"德崙路７７巷１２２號","OBJECTID":382667},"geometry":{"x":173734.75000000093,"y":2538405.3400000017}},{"attributes":{"ID":382678,"DIS_CODE":0,"TOWNNAME":"仁德區","LI":"土庫里","LIN":"13鄰","STREET":"土庫路","SECT":" ","MAREA":" ","LANE":"２４５巷","ALLEY":" ","HOUSE_NO":"１６號","E_COORD97":174278.16,"N_COORD97":2542825.75,"ADDRESS":"土庫路２４５巷１６號","OBJECTID":382668},"geometry":{"x":174278.16000000108,"y":2542825.7500000037}},{"attributes":{"ID":382679,"DIS_CODE":0,"TOWNNAME":"中西區","LI":"公正里","LIN":"9鄰","STREET":"民族路","SECT":"二段","MAREA":" ","LANE":"５７巷","ALLEY":" ","HOUSE_NO":"３８號二樓之１","E_COORD97":169071.44,"N_COORD97":2543811.8199999998,"ADDRESS":"民族路二段５７巷３８號二樓之１","OBJECTID":382669},"geometry":{"x":169071.44000000041,"y":2543811.8200000003}},{"attributes":{"ID":382680,"DIS_CODE":0,"TOWNNAME":"中西區","LI":"公正里","LIN":"9鄰","STREET":"民族路","SECT":"二段","MAREA":" ","LANE":"５７巷","ALLEY":" ","HOUSE_NO":"３８號二樓之１０","E_COORD97":169071.44,"N_COORD97":2543811.8199999998,"ADDRESS":"民族路二段５７巷３８號二樓之１０","OBJECTID":382670},"geometry":{"x":169071.44000000041,"y":2543811.8200000003}},{"attributes":{"ID":382681,"DIS_CODE":0,"TOWNNAME":"中西區","LI":"公正里","LIN":"9鄰","STREET":"民族路","SECT":"二段","MAREA":" ","LANE":"５７巷","ALLEY":" ","HOUSE_NO":"３８號二樓之２","E_COORD97":169071.44,"N_COORD97":2543811.8199999998,"ADDRESS":"民族路二段５７巷３８號二樓之２","OBJECTID":382671},"geometry":{"x":169071.44000000041,"y":2543811.8200000003}},{"attributes":{"ID":382682,"DIS_CODE":0,"TOWNNAME":"中西區","LI":"公正里","LIN":"9鄰","STREET":"民族路","SECT":"二段","MAREA":" ","LANE":"５７巷","ALLEY":" ","HOUSE_NO":"３８號二樓之３","E_COORD97":169071.44,"N_COORD97":2543811.8199999998,"ADDRESS":"民族路二段５７巷３８號二樓之３","OBJECTID":382672},"geometry":{"x":169071.44000000041,"y":2543811.8200000003}},{"attributes":{"ID":382683,"DIS_CODE":0,"TOWNNAME":"中西區","LI":"公正里","LIN":"9鄰","STREET":"民族路","SECT":"二段","MAREA":" ","LANE":"５７巷","ALLEY":" ","HOUSE_NO":"３８號二樓之４","E_COORD97":169071.44,"N_COORD97":2543811.8199999998,"ADDRESS":"民族路二段５７巷３８號二樓之４","OBJECTID":382673},"geometry":{"x":169071.44000000041,"y":2543811.8200000003}},{"attributes":{"ID":382684,"DIS_CODE":0,"TOWNNAME":"中西區","LI":"公正里","LIN":"9鄰","STREET":"民族路","SECT":"二段","MAREA":" ","LANE":"５７巷","ALLEY":" ","HOUSE_NO":"３８號二樓之５","E_COORD97":169071.44,"N_COORD97":2543811.8199999998,"ADDRESS":"民族路二段５７巷３８號二樓之５","OBJECTID":382674},"geometry":{"x":169071.44000000041,"y":2543811.8200000003}},{"attributes":{"ID":382685,"DIS_CODE":0,"TOWNNAME":"中西區","LI":"公正里","LIN":"9鄰","STREET":"民族路","SECT":"二段","MAREA":" ","LANE":"５７巷","ALLEY":" ","HOUSE_NO":"３８號二樓之６","E_COORD97":169071.44,"N_COORD97":2543811.8199999998,"ADDRESS":"民族路二段５７巷３８號二樓之６","OBJECTID":382675},"geometry":{"x":169071.44000000041,"y":2543811.8200000003}},{"attributes":{"ID":382686,"DIS_CODE":0,"TOWNNAME":"中西區","LI":"公正里","LIN":"9鄰","STREET":"民族路","SECT":"二段","MAREA":" ","LANE":"５７巷","ALLEY":" ","HOUSE_NO":"３８號二樓之７","E_COORD97":169071.44,"N_COORD97":2543811.8199999998,"ADDRESS":"民族路二段５７巷３８號二樓之７","OBJECTID":382676},"geometry":{"x":169071.44000000041,"y":2543811.8200000003}},{"attributes":{"ID":382687,"DIS_CODE":0,"TOWNNAME":"中西區","LI":"公正里","LIN":"9鄰","STREET":"民族路","SECT":"二段","MAREA":" ","LANE":"５７巷","ALLEY":" ","HOUSE_NO":"３８號二樓之８","E_COORD97":169071.44,"N_COORD97":2543811.8199999998,"ADDRESS":"民族路二段５７巷３８號二樓之８","OBJECTID":382677},"geometry":{"x":169071.44000000041,"y":2543811.8200000003}},{"attributes":{"ID":382688,"DIS_CODE":0,"TOWNNAME":"中西區","LI":"公正里","LIN":"9鄰","STREET":"民族路","SECT":"二段","MAREA":" ","LANE":"５７巷","ALLEY":" ","HOUSE_NO":"３８號二樓之９","E_COORD97":169071.44,"N_COORD97":2543811.8199999998,"ADDRESS":"民族路二段５７巷３８號二樓之９","OBJECTID":382678},"geometry":{"x":169071.44000000041,"y":2543811.8200000003}},{"attributes":{"ID":382689,"DIS_CODE":0,"TOWNNAME":"東區","LI":"圍下里","LIN":"18鄰","STREET":"慶東街","SECT":" ","MAREA":" ","LANE":"１８０巷","ALLEY":" ","HOUSE_NO":"６號","E_COORD97":169695.72,"N_COORD97":2543451.6600000001,"ADDRESS":"慶東街１８０巷６號","OBJECTID":382679},"geometry":{"x":169695.71999999974,"y":2543451.660000002}},{"attributes":{"ID":382690,"DIS_CODE":0,"TOWNNAME":"中西區","LI":"公正里","LIN":"9鄰","STREET":"民族路","SECT":"二段","MAREA":" ","LANE":"５７巷","ALLEY":" ","HOUSE_NO":"３８號三樓之１","E_COORD97":169071.44,"N_COORD97":2543811.8199999998,"ADDRESS":"民族路二段５７巷３８號三樓之１","OBJECTID":382680},"geometry":{"x":169071.44000000041,"y":2543811.8200000003}},{"attributes":{"ID":382691,"DIS_CODE":0,"TOWNNAME":"中西區","LI":"公正里","LIN":"9鄰","STREET":"民族路","SECT":"二段","MAREA":" ","LANE":"５７巷","ALLEY":" ","HOUSE_NO":"３８號三樓之１０","E_COORD97":169071.44,"N_COORD97":2543811.8199999998,"ADDRESS":"民族路二段５７巷３８號三樓之１０","OBJECTID":382681},"geometry":{"x":169071.44000000041,"y":2543811.8200000003}},{"attributes":{"ID":382692,"DIS_CODE":0,"TOWNNAME":"中西區","LI":"公正里","LIN":"9鄰","STREET":"民族路","SECT":"二段","MAREA":" ","LANE":"５７巷","ALLEY":" ","HOUSE_NO":"３８號三樓之２","E_COORD97":169071.44,"N_COORD97":2543811.8199999998,"ADDRESS":"民族路二段５７巷３８號三樓之２","OBJECTID":382682},"geometry":{"x":169071.44000000041,"y":2543811.8200000003}},{"attributes":{"ID":382693,"DIS_CODE":0,"TOWNNAME":"中西區","LI":"公正里","LIN":"9鄰","STREET":"民族路","SECT":"二段","MAREA":" ","LANE":"５７巷","ALLEY":" ","HOUSE_NO":"３８號三樓之３","E_COORD97":169071.44,"N_COORD97":2543811.8199999998,"ADDRESS":"民族路二段５７巷３８號三樓之３","OBJECTID":382683},"geometry":{"x":169071.44000000041,"y":2543811.8200000003}},{"attributes":{"ID":382694,"DIS_CODE":0,"TOWNNAME":"仁德區","LI":"土庫里","LIN":"9鄰","STREET":"土庫路","SECT":" ","MAREA":" ","LANE":"５３巷","ALLEY":" ","HOUSE_NO":"９號","E_COORD97":174257.03,"N_COORD97":2543341,"ADDRESS":"土庫路５３巷９號","OBJECTID":382684},"geometry":{"x":174257.03000000119,"y":2543341.0000000019}},{"attributes":{"ID":382695,"DIS_CODE":0,"TOWNNAME":"中西區","LI":"公正里","LIN":"9鄰","STREET":"民族路","SECT":"二段","MAREA":" ","LANE":"５７巷","ALLEY":" ","HOUSE_NO":"３８號三樓之４","E_COORD97":169071.44,"N_COORD97":2543811.8199999998,"ADDRESS":"民族路二段５７巷３８號三樓之４","OBJECTID":382685},"geometry":{"x":169071.44000000041,"y":2543811.8200000003}},{"attributes":{"ID":382696,"DIS_CODE":0,"TOWNNAME":"中西區","LI":"公正里","LIN":"9鄰","STREET":"民族路","SECT":"二段","MAREA":" ","LANE":"５７巷","ALLEY":" ","HOUSE_NO":"３８號三樓之５","E_COORD97":169071.44,"N_COORD97":2543811.8199999998,"ADDRESS":"民族路二段５７巷３８號三樓之５","OBJECTID":382686},"geometry":{"x":169071.44000000041,"y":2543811.8200000003}},{"attributes":{"ID":382697,"DIS_CODE":0,"TOWNNAME":"中西區","LI":"公正里","LIN":"9鄰","STREET":"民族路","SECT":"二段","MAREA":" ","LANE":"５７巷","ALLEY":" ","HOUSE_NO":"３８號三樓之６","E_COORD97":169071.44,"N_COORD97":2543811.8199999998,"ADDRESS":"民族路二段５７巷３８號三樓之６","OBJECTID":382687},"geometry":{"x":169071.44000000041,"y":2543811.8200000003}},{"attributes":{"ID":382698,"DIS_CODE":0,"TOWNNAME":"中西區","LI":"公正里","LIN":"9鄰","STREET":"民族路","SECT":"二段","MAREA":" ","LANE":"５７巷","ALLEY":" ","HOUSE_NO":"３８號三樓之７","E_COORD97":169071.44,"N_COORD97":2543811.8199999998,"ADDRESS":"民族路二段５７巷３８號三樓之７","OBJECTID":382688},"geometry":{"x":169071.44000000041,"y":2543811.8200000003}},{"attributes":{"ID":382699,"DIS_CODE":0,"TOWNNAME":"中西區","LI":"公正里","LIN":"9鄰","STREET":"民族路","SECT":"二段","MAREA":" ","LANE":"５７巷","ALLEY":" ","HOUSE_NO":"３８號三樓之８","E_COORD97":169071.44,"N_COORD97":2543811.8199999998,"ADDRESS":"民族路二段５７巷３８號三樓之８","OBJECTID":382689},"geometry":{"x":169071.44000000041,"y":2543811.8200000003}},{"attributes":{"ID":382700,"DIS_CODE":0,"TOWNNAME":"中西區","LI":"公正里","LIN":"9鄰","STREET":"民族路","SECT":"二段","MAREA":" ","LANE":"５７巷","ALLEY":" ","HOUSE_NO":"３８號三樓之９","E_COORD97":169071.44,"N_COORD97":2543811.8199999998,"ADDRESS":"民族路二段５７巷３８號三樓之９","OBJECTID":382690},"geometry":{"x":169071.44000000041,"y":2543811.8200000003}},{"attributes":{"ID":382701,"DIS_CODE":0,"TOWNNAME":"中西區","LI":"公正里","LIN":"9鄰","STREET":"民族路","SECT":"二段","MAREA":" ","LANE":"５７巷","ALLEY":" ","HOUSE_NO":"３８號五樓之１","E_COORD97":169071.44,"N_COORD97":2543811.8199999998,"ADDRESS":"民族路二段５７巷３８號五樓之１","OBJECTID":382691},"geometry":{"x":169071.44000000041,"y":2543811.8200000003}},{"attributes":{"ID":382702,"DIS_CODE":0,"TOWNNAME":"中西區","LI":"公正里","LIN":"9鄰","STREET":"民族路","SECT":"二段","MAREA":" ","LANE":"５７巷","ALLEY":" ","HOUSE_NO":"３８號五樓之２","E_COORD97":169071.44,"N_COORD97":2543811.8199999998,"ADDRESS":"民族路二段５７巷３８號五樓之２","OBJECTID":382692},"geometry":{"x":169071.44000000041,"y":2543811.8200000003}},{"attributes":{"ID":382703,"DIS_CODE":0,"TOWNNAME":"中西區","LI":"公正里","LIN":"9鄰","STREET":"民族路","SECT":"二段","MAREA":" ","LANE":"５７巷","ALLEY":" ","HOUSE_NO":"３８號五樓之３","E_COORD97":169071.44,"N_COORD97":2543811.8199999998,"ADDRESS":"民族路二段５７巷３８號五樓之３","OBJECTID":382693},"geometry":{"x":169071.44000000041,"y":2543811.8200000003}},{"attributes":{"ID":382704,"DIS_CODE":0,"TOWNNAME":"中西區","LI":"公正里","LIN":"9鄰","STREET":"民族路","SECT":"二段","MAREA":" ","LANE":"５７巷","ALLEY":" ","HOUSE_NO":"３８號五樓之４","E_COORD97":169071.44,"N_COORD97":2543811.8199999998,"ADDRESS":"民族路二段５７巷３８號五樓之４","OBJECTID":382694},"geometry":{"x":169071.44000000041,"y":2543811.8200000003}},{"attributes":{"ID":382705,"DIS_CODE":0,"TOWNNAME":"中西區","LI":"公正里","LIN":"9鄰","STREET":"民族路","SECT":"二段","MAREA":" ","LANE":"５７巷","ALLEY":" ","HOUSE_NO":"３８號五樓之５","E_COORD97":169071.44,"N_COORD97":2543811.8199999998,"ADDRESS":"民族路二段５７巷３８號五樓之５","OBJECTID":382695},"geometry":{"x":169071.44000000041,"y":2543811.8200000003}},{"attributes":{"ID":382706,"DIS_CODE":0,"TOWNNAME":"中西區","LI":"公正里","LIN":"9鄰","STREET":"民族路","SECT":"二段","MAREA":" ","LANE":"５７巷","ALLEY":" ","HOUSE_NO":"３８號五樓之６","E_COORD97":169071.44,"N_COORD97":2543811.8199999998,"ADDRESS":"民族路二段５７巷３８號五樓之６","OBJECTID":382696},"geometry":{"x":169071.44000000041,"y":2543811.8200000003}},{"attributes":{"ID":382707,"DIS_CODE":0,"TOWNNAME":"中西區","LI":"公正里","LIN":"9鄰","STREET":"民族路","SECT":"二段","MAREA":" ","LANE":"５７巷","ALLEY":" ","HOUSE_NO":"３８號五樓之７","E_COORD97":169071.44,"N_COORD97":2543811.8199999998,"ADDRESS":"民族路二段５７巷３８號五樓之７","OBJECTID":382697},"geometry":{"x":169071.44000000041,"y":2543811.8200000003}},{"attributes":{"ID":382708,"DIS_CODE":0,"TOWNNAME":"中西區","LI":"公正里","LIN":"9鄰","STREET":"民族路","SECT":"二段","MAREA":" ","LANE":"５７巷","ALLEY":" ","HOUSE_NO":"３８號五樓之８","E_COORD97":169071.44,"N_COORD97":2543811.8199999998,"ADDRESS":"民族路二段５７巷３８號五樓之８","OBJECTID":382698},"geometry":{"x":169071.44000000041,"y":2543811.8200000003}},{"attributes":{"ID":382709,"DIS_CODE":0,"TOWNNAME":"中西區","LI":"公正里","LIN":"9鄰","STREET":"民族路","SECT":"二段","MAREA":" ","LANE":"５７巷","ALLEY":" ","HOUSE_NO":"３８號五樓之９","E_COORD97":169071.44,"N_COORD97":2543811.8199999998,"ADDRESS":"民族路二段５７巷３８號五樓之９","OBJECTID":382699},"geometry":{"x":169071.44000000041,"y":2543811.8200000003}},{"attributes":{"ID":382710,"DIS_CODE":0,"TOWNNAME":"中西區","LI":"公正里","LIN":"9鄰","STREET":"民族路","SECT":"二段","MAREA":" ","LANE":"５７巷","ALLEY":" ","HOUSE_NO":"３８號四樓之１","E_COORD97":169071.44,"N_COORD97":2543811.8199999998,"ADDRESS":"民族路二段５７巷３８號四樓之１","OBJECTID":382700},"geometry":{"x":169071.44000000041,"y":2543811.8200000003}},{"attributes":{"ID":382711,"DIS_CODE":0,"TOWNNAME":"中西區","LI":"公正里","LIN":"9鄰","STREET":"民族路","SECT":"二段","MAREA":" ","LANE":"５７巷","ALLEY":" ","HOUSE_NO":"３８號四樓之２","E_COORD97":169071.44,"N_COORD97":2543811.8199999998,"ADDRESS":"民族路二段５７巷３８號四樓之２","OBJECTID":382701},"geometry":{"x":169071.44000000041,"y":2543811.8200000003}},{"attributes":{"ID":382712,"DIS_CODE":0,"TOWNNAME":"中西區","LI":"公正里","LIN":"9鄰","STREET":"民族路","SECT":"二段","MAREA":" ","LANE":"５７巷","ALLEY":" ","HOUSE_NO":"３８號四樓之３","E_COORD97":169071.44,"N_COORD97":2543811.8199999998,"ADDRESS":"民族路二段５７巷３８號四樓之３","OBJECTID":382702},"geometry":{"x":169071.44000000041,"y":2543811.8200000003}},{"attributes":{"ID":382713,"DIS_CODE":0,"TOWNNAME":"中西區","LI":"公正里","LIN":"9鄰","STREET":"民族路","SECT":"二段","MAREA":" ","LANE":"５７巷","ALLEY":" ","HOUSE_NO":"３８號四樓之４","E_COORD97":169071.44,"N_COORD97":2543811.8199999998,"ADDRESS":"民族路二段５７巷３８號四樓之４","OBJECTID":382703},"geometry":{"x":169071.44000000041,"y":2543811.8200000003}},{"attributes":{"ID":382714,"DIS_CODE":0,"TOWNNAME":"中西區","LI":"公正里","LIN":"9鄰","STREET":"民族路","SECT":"二段","MAREA":" ","LANE":"５７巷","ALLEY":" ","HOUSE_NO":"３８號四樓之５","E_COORD97":169071.44,"N_COORD97":2543811.8199999998,"ADDRESS":"民族路二段５７巷３８號四樓之５","OBJECTID":382704},"geometry":{"x":169071.44000000041,"y":2543811.8200000003}},{"attributes":{"ID":382715,"DIS_CODE":0,"TOWNNAME":"中西區","LI":"公正里","LIN":"9鄰","STREET":"民族路","SECT":"二段","MAREA":" ","LANE":"５７巷","ALLEY":" ","HOUSE_NO":"３８號四樓之６","E_COORD97":169071.44,"N_COORD97":2543811.8199999998,"ADDRESS":"民族路二段５７巷３８號四樓之６","OBJECTID":382705},"geometry":{"x":169071.44000000041,"y":2543811.8200000003}},{"attributes":{"ID":382716,"DIS_CODE":0,"TOWNNAME":"中西區","LI":"公正里","LIN":"9鄰","STREET":"民族路","SECT":"二段","MAREA":" ","LANE":"５７巷","ALLEY":" ","HOUSE_NO":"３８號四樓之７","E_COORD97":169071.44,"N_COORD97":2543811.8199999998,"ADDRESS":"民族路二段５７巷３８號四樓之７","OBJECTID":382706},"geometry":{"x":169071.44000000041,"y":2543811.8200000003}},{"attributes":{"ID":382717,"DIS_CODE":0,"TOWNNAME":"中西區","LI":"公正里","LIN":"9鄰","STREET":"民族路","SECT":"二段","MAREA":" ","LANE":"５７巷","ALLEY":" ","HOUSE_NO":"３８號四樓之８","E_COORD97":169071.44,"N_COORD97":2543811.8199999998,"ADDRESS":"民族路二段５７巷３８號四樓之８","OBJECTID":382707},"geometry":{"x":169071.44000000041,"y":2543811.8200000003}},{"attributes":{"ID":382718,"DIS_CODE":0,"TOWNNAME":"中西區","LI":"公正里","LIN":"9鄰","STREET":"民族路","SECT":"二段","MAREA":" ","LANE":"５７巷","ALLEY":" ","HOUSE_NO":"３８號四樓之９","E_COORD97":169071.44,"N_COORD97":2543811.8199999998,"ADDRESS":"民族路二段５７巷３８號四樓之９","OBJECTID":382708},"geometry":{"x":169071.44000000041,"y":2543811.8200000003}},{"attributes":{"ID":382719,"DIS_CODE":0,"TOWNNAME":"中西區","LI":"公正里","LIN":"9鄰","STREET":"民族路","SECT":"二段","MAREA":" ","LANE":"５７巷","ALLEY":" ","HOUSE_NO":"１２號二樓之１","E_COORD97":169011.82000000001,"N_COORD97":2543813.9500000002,"ADDRESS":"民族路二段５７巷１２號二樓之１","OBJECTID":382709},"geometry":{"x":169011.82000000123,"y":2543813.9500000011}},{"attributes":{"ID":382720,"DIS_CODE":0,"TOWNNAME":"中西區","LI":"公正里","LIN":"9鄰","STREET":"民族路","SECT":"二段","MAREA":" ","LANE":"５７巷","ALLEY":" ","HOUSE_NO":"１２號二樓之２","E_COORD97":169011.82000000001,"N_COORD97":2543813.9500000002,"ADDRESS":"民族路二段５７巷１２號二樓之２","OBJECTID":382710},"geometry":{"x":169011.82000000123,"y":2543813.9500000011}},{"attributes":{"ID":382721,"DIS_CODE":0,"TOWNNAME":"中西區","LI":"公正里","LIN":"9鄰","STREET":"民族路","SECT":"二段","MAREA":" ","LANE":"５７巷","ALLEY":" ","HOUSE_NO":"１２號二樓之３","E_COORD97":169011.82000000001,"N_COORD97":2543813.9500000002,"ADDRESS":"民族路二段５７巷１２號二樓之３","OBJECTID":382711},"geometry":{"x":169011.82000000123,"y":2543813.9500000011}},{"attributes":{"ID":382722,"DIS_CODE":0,"TOWNNAME":"中西區","LI":"公正里","LIN":"9鄰","STREET":"民族路","SECT":"二段","MAREA":" ","LANE":"５７巷","ALLEY":" ","HOUSE_NO":"１２號二樓之４","E_COORD97":169011.82000000001,"N_COORD97":2543813.9500000002,"ADDRESS":"民族路二段５７巷１２號二樓之４","OBJECTID":382712},"geometry":{"x":169011.82000000123,"y":2543813.9500000011}},{"attributes":{"ID":382723,"DIS_CODE":0,"TOWNNAME":"中西區","LI":"公正里","LIN":"9鄰","STREET":"民族路","SECT":"二段","MAREA":" ","LANE":"５７巷","ALLEY":" ","HOUSE_NO":"１２號二樓之５","E_COORD97":169011.82000000001,"N_COORD97":2543813.9500000002,"ADDRESS":"民族路二段５７巷１２號二樓之５","OBJECTID":382713},"geometry":{"x":169011.82000000123,"y":2543813.9500000011}},{"attributes":{"ID":382724,"DIS_CODE":0,"TOWNNAME":"中西區","LI":"公正里","LIN":"9鄰","STREET":"民族路","SECT":"二段","MAREA":" ","LANE":"５７巷","ALLEY":" ","HOUSE_NO":"１２號二樓之６","E_COORD97":169011.82000000001,"N_COORD97":2543813.9500000002,"ADDRESS":"民族路二段５７巷１２號二樓之６","OBJECTID":382714},"geometry":{"x":169011.82000000123,"y":2543813.9500000011}},{"attributes":{"ID":382725,"DIS_CODE":0,"TOWNNAME":"中西區","LI":"公正里","LIN":"9鄰","STREET":"民族路","SECT":"二段","MAREA":" ","LANE":"５７巷","ALLEY":" ","HOUSE_NO":"１２號三樓之１","E_COORD97":169011.82000000001,"N_COORD97":2543813.9500000002,"ADDRESS":"民族路二段５７巷１２號三樓之１","OBJECTID":382715},"geometry":{"x":169011.82000000123,"y":2543813.9500000011}},{"attributes":{"ID":382726,"DIS_CODE":0,"TOWNNAME":"中西區","LI":"公正里","LIN":"9鄰","STREET":"民族路","SECT":"二段","MAREA":" ","LANE":"５７巷","ALLEY":" ","HOUSE_NO":"１２號三樓之２","E_COORD97":169011.82000000001,"N_COORD97":2543813.9500000002,"ADDRESS":"民族路二段５７巷１２號三樓之２","OBJECTID":382716},"geometry":{"x":169011.82000000123,"y":2543813.9500000011}},{"attributes":{"ID":382727,"DIS_CODE":0,"TOWNNAME":"中西區","LI":"公正里","LIN":"9鄰","STREET":"民族路","SECT":"二段","MAREA":" ","LANE":"５７巷","ALLEY":" ","HOUSE_NO":"１２號三樓之３","E_COORD97":169011.82000000001,"N_COORD97":2543813.9500000002,"ADDRESS":"民族路二段５７巷１２號三樓之３","OBJECTID":382717},"geometry":{"x":169011.82000000123,"y":2543813.9500000011}},{"attributes":{"ID":382728,"DIS_CODE":0,"TOWNNAME":"中西區","LI":"公正里","LIN":"9鄰","STREET":"民族路","SECT":"二段","MAREA":" ","LANE":"５７巷","ALLEY":" ","HOUSE_NO":"１２號三樓之５","E_COORD97":169011.82000000001,"N_COORD97":2543813.9500000002,"ADDRESS":"民族路二段５７巷１２號三樓之５","OBJECTID":382718},"geometry":{"x":169011.82000000123,"y":2543813.9500000011}},{"attributes":{"ID":382729,"DIS_CODE":0,"TOWNNAME":"中西區","LI":"公正里","LIN":"9鄰","STREET":"民族路","SECT":"二段","MAREA":" ","LANE":"５７巷","ALLEY":" ","HOUSE_NO":"１２號三樓之６","E_COORD97":169011.82000000001,"N_COORD97":2543813.9500000002,"ADDRESS":"民族路二段５７巷１２號三樓之６","OBJECTID":382719},"geometry":{"x":169011.82000000123,"y":2543813.9500000011}},{"attributes":{"ID":382730,"DIS_CODE":0,"TOWNNAME":"白河區","LI":"外角里","LIN":"13鄰","STREET":"三民路","SECT":" ","MAREA":" ","LANE":" ","ALLEY":" ","HOUSE_NO":"２０３號","E_COORD97":190794.35000000001,"N_COORD97":2583288.04,"ADDRESS":"三民路２０３號","OBJECTID":382720},"geometry":{"x":190794.35000000056,"y":2583288.040000001}},{"attributes":{"ID":382731,"DIS_CODE":0,"TOWNNAME":"中西區","LI":"公正里","LIN":"9鄰","STREET":"民族路","SECT":"二段","MAREA":" ","LANE":"５７巷","ALLEY":" ","HOUSE_NO":"１２號五樓之１","E_COORD97":169011.82000000001,"N_COORD97":2543813.9500000002,"ADDRESS":"民族路二段５７巷１２號五樓之１","OBJECTID":382721},"geometry":{"x":169011.82000000123,"y":2543813.9500000011}},{"attributes":{"ID":382732,"DIS_CODE":0,"TOWNNAME":"中西區","LI":"公正里","LIN":"9鄰","STREET":"民族路","SECT":"二段","MAREA":" ","LANE":"５７巷","ALLEY":" ","HOUSE_NO":"１２號五樓之２","E_COORD97":169011.82000000001,"N_COORD97":2543813.9500000002,"ADDRESS":"民族路二段５７巷１２號五樓之２","OBJECTID":382722},"geometry":{"x":169011.82000000123,"y":2543813.9500000011}},{"attributes":{"ID":382733,"DIS_CODE":0,"TOWNNAME":"中西區","LI":"公正里","LIN":"9鄰","STREET":"民族路","SECT":"二段","MAREA":" ","LANE":"５７巷","ALLEY":" ","HOUSE_NO":"１２號五樓之３","E_COORD97":169011.82000000001,"N_COORD97":2543813.9500000002,"ADDRESS":"民族路二段５７巷１２號五樓之３","OBJECTID":382723},"geometry":{"x":169011.82000000123,"y":2543813.9500000011}},{"attributes":{"ID":382734,"DIS_CODE":0,"TOWNNAME":"中西區","LI":"公正里","LIN":"9鄰","STREET":"民族路","SECT":"二段","MAREA":" ","LANE":"５７巷","ALLEY":" ","HOUSE_NO":"１２號五樓之４","E_COORD97":169011.82000000001,"N_COORD97":2543813.9500000002,"ADDRESS":"民族路二段５７巷１２號五樓之４","OBJECTID":382724},"geometry":{"x":169011.82000000123,"y":2543813.9500000011}},{"attributes":{"ID":382735,"DIS_CODE":0,"TOWNNAME":"中西區","LI":"公正里","LIN":"9鄰","STREET":"民族路","SECT":"二段","MAREA":" ","LANE":"５７巷","ALLEY":" ","HOUSE_NO":"１２號五樓之５","E_COORD97":169011.82000000001,"N_COORD97":2543813.9500000002,"ADDRESS":"民族路二段５７巷１２號五樓之５","OBJECTID":382725},"geometry":{"x":169011.82000000123,"y":2543813.9500000011}},{"attributes":{"ID":382736,"DIS_CODE":0,"TOWNNAME":"中西區","LI":"公正里","LIN":"9鄰","STREET":"民族路","SECT":"二段","MAREA":" ","LANE":"５７巷","ALLEY":" ","HOUSE_NO":"１２號五樓之６","E_COORD97":169011.82000000001,"N_COORD97":2543813.9500000002,"ADDRESS":"民族路二段５７巷１２號五樓之６","OBJECTID":382726},"geometry":{"x":169011.82000000123,"y":2543813.9500000011}},{"attributes":{"ID":382737,"DIS_CODE":0,"TOWNNAME":"中西區","LI":"公正里","LIN":"9鄰","STREET":"民族路","SECT":"二段","MAREA":" ","LANE":"５７巷","ALLEY":" ","HOUSE_NO":"１２號六樓之１","E_COORD97":169011.82000000001,"N_COORD97":2543813.9500000002,"ADDRESS":"民族路二段５７巷１２號六樓之１","OBJECTID":382727},"geometry":{"x":169011.82000000123,"y":2543813.9500000011}},{"attributes":{"ID":382738,"DIS_CODE":0,"TOWNNAME":"中西區","LI":"公正里","LIN":"9鄰","STREET":"民族路","SECT":"二段","MAREA":" ","LANE":"５７巷","ALLEY":" ","HOUSE_NO":"１２號六樓之２","E_COORD97":169011.82000000001,"N_COORD97":2543813.9500000002,"ADDRESS":"民族路二段５７巷１２號六樓之２","OBJECTID":382728},"geometry":{"x":169011.82000000123,"y":2543813.9500000011}},{"attributes":{"ID":382739,"DIS_CODE":0,"TOWNNAME":"中西區","LI":"公正里","LIN":"9鄰","STREET":"民族路","SECT":"二段","MAREA":" ","LANE":"５７巷","ALLEY":" ","HOUSE_NO":"１２號六樓之３","E_COORD97":169011.82000000001,"N_COORD97":2543813.9500000002,"ADDRESS":"民族路二段５７巷１２號六樓之３","OBJECTID":382729},"geometry":{"x":169011.82000000123,"y":2543813.9500000011}},{"attributes":{"ID":382740,"DIS_CODE":0,"TOWNNAME":"中西區","LI":"公正里","LIN":"9鄰","STREET":"民族路","SECT":"二段","MAREA":" ","LANE":"５７巷","ALLEY":" ","HOUSE_NO":"１２號六樓之４","E_COORD97":169011.82000000001,"N_COORD97":2543813.9500000002,"ADDRESS":"民族路二段５７巷１２號六樓之４","OBJECTID":382730},"geometry":{"x":169011.82000000123,"y":2543813.9500000011}},{"attributes":{"ID":382741,"DIS_CODE":0,"TOWNNAME":"中西區","LI":"公正里","LIN":"9鄰","STREET":"民族路","SECT":"二段","MAREA":" ","LANE":"５７巷","ALLEY":" ","HOUSE_NO":"１２號六樓之５","E_COORD97":169011.82000000001,"N_COORD97":2543813.9500000002,"ADDRESS":"民族路二段５７巷１２號六樓之５","OBJECTID":382731},"geometry":{"x":169011.82000000123,"y":2543813.9500000011}},{"attributes":{"ID":382742,"DIS_CODE":0,"TOWNNAME":"中西區","LI":"公正里","LIN":"9鄰","STREET":"民族路","SECT":"二段","MAREA":" ","LANE":"５７巷","ALLEY":" ","HOUSE_NO":"１２號六樓之６","E_COORD97":169011.82000000001,"N_COORD97":2543813.9500000002,"ADDRESS":"民族路二段５７巷１２號六樓之６","OBJECTID":382732},"geometry":{"x":169011.82000000123,"y":2543813.9500000011}},{"attributes":{"ID":382743,"DIS_CODE":0,"TOWNNAME":"中西區","LI":"公正里","LIN":"9鄰","STREET":"民族路","SECT":"二段","MAREA":" ","LANE":"５７巷","ALLEY":" ","HOUSE_NO":"１２號四樓之１","E_COORD97":169011.82000000001,"N_COORD97":2543813.9500000002,"ADDRESS":"民族路二段５７巷１２號四樓之１","OBJECTID":382733},"geometry":{"x":169011.82000000123,"y":2543813.9500000011}},{"attributes":{"ID":382744,"DIS_CODE":0,"TOWNNAME":"中西區","LI":"公正里","LIN":"9鄰","STREET":"民族路","SECT":"二段","MAREA":" ","LANE":"５７巷","ALLEY":" ","HOUSE_NO":"１２號四樓之２","E_COORD97":169011.82000000001,"N_COORD97":2543813.9500000002,"ADDRESS":"民族路二段５７巷１２號四樓之２","OBJECTID":382734},"geometry":{"x":169011.82000000123,"y":2543813.9500000011}},{"attributes":{"ID":382745,"DIS_CODE":0,"TOWNNAME":"中西區","LI":"公正里","LIN":"9鄰","STREET":"民族路","SECT":"二段","MAREA":" ","LANE":"５７巷","ALLEY":" ","HOUSE_NO":"１２號四樓之３","E_COORD97":169011.82000000001,"N_COORD97":2543813.9500000002,"ADDRESS":"民族路二段５７巷１２號四樓之３","OBJECTID":382735},"geometry":{"x":169011.82000000123,"y":2543813.9500000011}},{"attributes":{"ID":382746,"DIS_CODE":0,"TOWNNAME":"中西區","LI":"公正里","LIN":"9鄰","STREET":"民族路","SECT":"二段","MAREA":" ","LANE":"５７巷","ALLEY":" ","HOUSE_NO":"１２號四樓之４","E_COORD97":169011.82000000001,"N_COORD97":2543813.9500000002,"ADDRESS":"民族路二段５７巷１２號四樓之４","OBJECTID":382736},"geometry":{"x":169011.82000000123,"y":2543813.9500000011}},{"attributes":{"ID":382747,"DIS_CODE":0,"TOWNNAME":"中西區","LI":"公正里","LIN":"9鄰","STREET":"民族路","SECT":"二段","MAREA":" ","LANE":"５７巷","ALLEY":" ","HOUSE_NO":"１２號四樓之５","E_COORD97":169011.82000000001,"N_COORD97":2543813.9500000002,"ADDRESS":"民族路二段５７巷１２號四樓之５","OBJECTID":382737},"geometry":{"x":169011.82000000123,"y":2543813.9500000011}},{"attributes":{"ID":382748,"DIS_CODE":0,"TOWNNAME":"中西區","LI":"公正里","LIN":"9鄰","STREET":"民族路","SECT":"二段","MAREA":" ","LANE":"５７巷","ALLEY":" ","HOUSE_NO":"１２號四樓之６","E_COORD97":169011.82000000001,"N_COORD97":2543813.9500000002,"ADDRESS":"民族路二段５７巷１２號四樓之６","OBJECTID":382738},"geometry":{"x":169011.82000000123,"y":2543813.9500000011}},{"attributes":{"ID":382749,"DIS_CODE":0,"TOWNNAME":"仁德區","LI":"土庫里","LIN":"21鄰","STREET":"太子二街","SECT":" ","MAREA":" ","LANE":"１２５巷","ALLEY":" ","HOUSE_NO":"４６號","E_COORD97":174576.57999999999,"N_COORD97":2543321.0099999998,"ADDRESS":"太子二街１２５巷４６號","OBJECTID":382739},"geometry":{"x":174576.58000000194,"y":2543321.0099999998}},{"attributes":{"ID":382750,"DIS_CODE":0,"TOWNNAME":"東區","LI":"龍山里","LIN":"9鄰","STREET":"東門路","SECT":"二段","MAREA":" ","LANE":"１５８巷","ALLEY":" ","HOUSE_NO":"２２號二樓","E_COORD97":170111.98000000001,"N_COORD97":2542837.3300000001,"ADDRESS":"東門路二段１５８巷２２號二樓","OBJECTID":382740},"geometry":{"x":170111.98000000045,"y":2542837.3300000001}},{"attributes":{"ID":382751,"DIS_CODE":0,"TOWNNAME":"東區","LI":"龍山里","LIN":"9鄰","STREET":"東門路","SECT":"二段","MAREA":" ","LANE":"１５８巷","ALLEY":" ","HOUSE_NO":"２２號二樓之１","E_COORD97":170111.98000000001,"N_COORD97":2542837.3300000001,"ADDRESS":"東門路二段１５８巷２２號二樓之１","OBJECTID":382741},"geometry":{"x":170111.98000000045,"y":2542837.3300000001}},{"attributes":{"ID":382752,"DIS_CODE":0,"TOWNNAME":"東區","LI":"龍山里","LIN":"9鄰","STREET":"東門路","SECT":"二段","MAREA":" ","LANE":"１５８巷","ALLEY":" ","HOUSE_NO":"２２號二樓之２","E_COORD97":170111.98000000001,"N_COORD97":2542837.3300000001,"ADDRESS":"東門路二段１５８巷２２號二樓之２","OBJECTID":382742},"geometry":{"x":170111.98000000045,"y":2542837.3300000001}},{"attributes":{"ID":382753,"DIS_CODE":0,"TOWNNAME":"東區","LI":"龍山里","LIN":"9鄰","STREET":"東門路","SECT":"二段","MAREA":" ","LANE":"１５８巷","ALLEY":" ","HOUSE_NO":"２２號三樓","E_COORD97":170111.98000000001,"N_COORD97":2542837.3300000001,"ADDRESS":"東門路二段１５８巷２２號三樓","OBJECTID":382743},"geometry":{"x":170111.98000000045,"y":2542837.3300000001}},{"attributes":{"ID":382754,"DIS_CODE":0,"TOWNNAME":"東區","LI":"龍山里","LIN":"9鄰","STREET":"東門路","SECT":"二段","MAREA":" ","LANE":"１５８巷","ALLEY":" ","HOUSE_NO":"２２號三樓之１","E_COORD97":170111.98000000001,"N_COORD97":2542837.3300000001,"ADDRESS":"東門路二段１５８巷２２號三樓之１","OBJECTID":382744},"geometry":{"x":170111.98000000045,"y":2542837.3300000001}},{"attributes":{"ID":382755,"DIS_CODE":0,"TOWNNAME":"東區","LI":"龍山里","LIN":"9鄰","STREET":"東門路","SECT":"二段","MAREA":" ","LANE":"１５８巷","ALLEY":" ","HOUSE_NO":"２２號四樓","E_COORD97":170111.98000000001,"N_COORD97":2542837.3300000001,"ADDRESS":"東門路二段１５８巷２２號四樓","OBJECTID":382745},"geometry":{"x":170111.98000000045,"y":2542837.3300000001}},{"attributes":{"ID":382756,"DIS_CODE":0,"TOWNNAME":"東區","LI":"龍山里","LIN":"9鄰","STREET":"東門路","SECT":"二段","MAREA":" ","LANE":"１５８巷","ALLEY":" ","HOUSE_NO":"２２號四樓之１","E_COORD97":170111.98000000001,"N_COORD97":2542837.3300000001,"ADDRESS":"東門路二段１５８巷２２號四樓之１","OBJECTID":382746},"geometry":{"x":170111.98000000045,"y":2542837.3300000001}},{"attributes":{"ID":382757,"DIS_CODE":0,"TOWNNAME":"東區","LI":"龍山里","LIN":"9鄰","STREET":"東門路","SECT":"二段","MAREA":" ","LANE":"１５８巷","ALLEY":" ","HOUSE_NO":"２２號四樓之２","E_COORD97":170111.98000000001,"N_COORD97":2542837.3300000001,"ADDRESS":"東門路二段１５８巷２２號四樓之２","OBJECTID":382747},"geometry":{"x":170111.98000000045,"y":2542837.3300000001}},{"attributes":{"ID":382758,"DIS_CODE":0,"TOWNNAME":"東區","LI":"龍山里","LIN":"9鄰","STREET":"東門路","SECT":"二段","MAREA":" ","LANE":"１５８巷","ALLEY":" ","HOUSE_NO":"２２號五樓","E_COORD97":170111.98000000001,"N_COORD97":2542837.3300000001,"ADDRESS":"東門路二段１５８巷２２號五樓","OBJECTID":382748},"geometry":{"x":170111.98000000045,"y":2542837.3300000001}},{"attributes":{"ID":382759,"DIS_CODE":0,"TOWNNAME":"東區","LI":"龍山里","LIN":"9鄰","STREET":"東門路","SECT":"二段","MAREA":" ","LANE":"１５８巷","ALLEY":" ","HOUSE_NO":"２２號五樓之１","E_COORD97":170111.98000000001,"N_COORD97":2542837.3300000001,"ADDRESS":"東門路二段１５８巷２２號五樓之１","OBJECTID":382749},"geometry":{"x":170111.98000000045,"y":2542837.3300000001}},{"attributes":{"ID":382760,"DIS_CODE":0,"TOWNNAME":"東區","LI":"龍山里","LIN":"9鄰","STREET":"東門路","SECT":"二段","MAREA":" ","LANE":"１５８巷","ALLEY":" ","HOUSE_NO":"２２號五樓之２","E_COORD97":170111.98000000001,"N_COORD97":2542837.3300000001,"ADDRESS":"東門路二段１５８巷２２號五樓之２","OBJECTID":382750},"geometry":{"x":170111.98000000045,"y":2542837.3300000001}},{"attributes":{"ID":382761,"DIS_CODE":0,"TOWNNAME":"東區","LI":"龍山里","LIN":"9鄰","STREET":"東門路","SECT":"二段","MAREA":" ","LANE":"１５８巷","ALLEY":" ","HOUSE_NO":"２２號六樓","E_COORD97":170111.98000000001,"N_COORD97":2542837.3300000001,"ADDRESS":"東門路二段１５８巷２２號六樓","OBJECTID":382751},"geometry":{"x":170111.98000000045,"y":2542837.3300000001}},{"attributes":{"ID":382762,"DIS_CODE":0,"TOWNNAME":"東區","LI":"龍山里","LIN":"9鄰","STREET":"東門路","SECT":"二段","MAREA":" ","LANE":"１５８巷","ALLEY":" ","HOUSE_NO":"２２號六樓之１","E_COORD97":170111.98000000001,"N_COORD97":2542837.3300000001,"ADDRESS":"東門路二段１５８巷２２號六樓之１","OBJECTID":382752},"geometry":{"x":170111.98000000045,"y":2542837.3300000001}},{"attributes":{"ID":382763,"DIS_CODE":0,"TOWNNAME":"東區","LI":"龍山里","LIN":"9鄰","STREET":"東門路","SECT":"二段","MAREA":" ","LANE":"１５８巷","ALLEY":" ","HOUSE_NO":"２２號六樓之２","E_COORD97":170111.98000000001,"N_COORD97":2542837.3300000001,"ADDRESS":"東門路二段１５８巷２２號六樓之２","OBJECTID":382753},"geometry":{"x":170111.98000000045,"y":2542837.3300000001}},{"attributes":{"ID":382764,"DIS_CODE":0,"TOWNNAME":"東區","LI":"龍山里","LIN":"9鄰","STREET":"東門路","SECT":"二段","MAREA":" ","LANE":"１５８巷","ALLEY":" ","HOUSE_NO":"２２號七樓","E_COORD97":170111.98000000001,"N_COORD97":2542837.3300000001,"ADDRESS":"東門路二段１５８巷２２號七樓","OBJECTID":382754},"geometry":{"x":170111.98000000045,"y":2542837.3300000001}},{"attributes":{"ID":382765,"DIS_CODE":0,"TOWNNAME":"東區","LI":"龍山里","LIN":"9鄰","STREET":"東門路","SECT":"二段","MAREA":" ","LANE":"１５８巷","ALLEY":" ","HOUSE_NO":"２２號七樓之１","E_COORD97":170111.98000000001,"N_COORD97":2542837.3300000001,"ADDRESS":"東門路二段１５８巷２２號七樓之１","OBJECTID":382755},"geometry":{"x":170111.98000000045,"y":2542837.3300000001}},{"attributes":{"ID":382766,"DIS_CODE":0,"TOWNNAME":"東區","LI":"龍山里","LIN":"9鄰","STREET":"東門路","SECT":"二段","MAREA":" ","LANE":"１５８巷","ALLEY":" ","HOUSE_NO":"２２號七樓之２","E_COORD97":170111.98000000001,"N_COORD97":2542837.3300000001,"ADDRESS":"東門路二段１５８巷２２號七樓之２","OBJECTID":382756},"geometry":{"x":170111.98000000045,"y":2542837.3300000001}},{"attributes":{"ID":382767,"DIS_CODE":0,"TOWNNAME":"東區","LI":"龍山里","LIN":"9鄰","STREET":"東門路","SECT":"二段","MAREA":" ","LANE":"１５８巷","ALLEY":" ","HOUSE_NO":"２２號八樓","E_COORD97":170111.98000000001,"N_COORD97":2542837.3300000001,"ADDRESS":"東門路二段１５８巷２２號八樓","OBJECTID":382757},"geometry":{"x":170111.98000000045,"y":2542837.3300000001}},{"attributes":{"ID":382768,"DIS_CODE":0,"TOWNNAME":"東區","LI":"龍山里","LIN":"9鄰","STREET":"東門路","SECT":"二段","MAREA":" ","LANE":"１５８巷","ALLEY":" ","HOUSE_NO":"２２號八樓之１","E_COORD97":170111.98000000001,"N_COORD97":2542837.3300000001,"ADDRESS":"東門路二段１５８巷２２號八樓之１","OBJECTID":382758},"geometry":{"x":170111.98000000045,"y":2542837.3300000001}},{"attributes":{"ID":382769,"DIS_CODE":0,"TOWNNAME":"東區","LI":"龍山里","LIN":"9鄰","STREET":"東門路","SECT":"二段","MAREA":" ","LANE":"１５８巷","ALLEY":" ","HOUSE_NO":"２２號九樓","E_COORD97":170111.98000000001,"N_COORD97":2542837.3300000001,"ADDRESS":"東門路二段１５８巷２２號九樓","OBJECTID":382759},"geometry":{"x":170111.98000000045,"y":2542837.3300000001}},{"attributes":{"ID":382770,"DIS_CODE":0,"TOWNNAME":"東區","LI":"龍山里","LIN":"9鄰","STREET":"東門路","SECT":"二段","MAREA":" ","LANE":"１５８巷","ALLEY":" ","HOUSE_NO":"２２號九樓之１","E_COORD97":170111.98000000001,"N_COORD97":2542837.3300000001,"ADDRESS":"東門路二段１５８巷２２號九樓之１","OBJECTID":382760},"geometry":{"x":170111.98000000045,"y":2542837.3300000001}},{"attributes":{"ID":382771,"DIS_CODE":0,"TOWNNAME":"東區","LI":"龍山里","LIN":"9鄰","STREET":"東門路","SECT":"二段","MAREA":" ","LANE":"１５８巷","ALLEY":" ","HOUSE_NO":"２８號二樓","E_COORD97":170082,"N_COORD97":2542850.8700000001,"ADDRESS":"東門路二段１５８巷２８號二樓","OBJECTID":382761},"geometry":{"x":170082.00000000093,"y":2542850.8700000029}},{"attributes":{"ID":382772,"DIS_CODE":0,"TOWNNAME":"東區","LI":"龍山里","LIN":"9鄰","STREET":"東門路","SECT":"二段","MAREA":" ","LANE":"１５８巷","ALLEY":" ","HOUSE_NO":"２８號二樓之１","E_COORD97":170082,"N_COORD97":2542850.8700000001,"ADDRESS":"東門路二段１５８巷２８號二樓之１","OBJECTID":382762},"geometry":{"x":170082.00000000093,"y":2542850.8700000029}},{"attributes":{"ID":382773,"DIS_CODE":0,"TOWNNAME":"東區","LI":"龍山里","LIN":"9鄰","STREET":"東門路","SECT":"二段","MAREA":" ","LANE":"１５８巷","ALLEY":" ","HOUSE_NO":"２８號三樓","E_COORD97":170082,"N_COORD97":2542850.8700000001,"ADDRESS":"東門路二段１５８巷２８號三樓","OBJECTID":382763},"geometry":{"x":170082.00000000093,"y":2542850.8700000029}},{"attributes":{"ID":382774,"DIS_CODE":0,"TOWNNAME":"東區","LI":"龍山里","LIN":"9鄰","STREET":"東門路","SECT":"二段","MAREA":" ","LANE":"１５８巷","ALLEY":" ","HOUSE_NO":"２８號三樓之１","E_COORD97":170082,"N_COORD97":2542850.8700000001,"ADDRESS":"東門路二段１５８巷２８號三樓之１","OBJECTID":382764},"geometry":{"x":170082.00000000093,"y":2542850.8700000029}},{"attributes":{"ID":382775,"DIS_CODE":0,"TOWNNAME":"東區","LI":"龍山里","LIN":"9鄰","STREET":"東門路","SECT":"二段","MAREA":" ","LANE":"１５８巷","ALLEY":" ","HOUSE_NO":"２８號四樓","E_COORD97":170082,"N_COORD97":2542850.8700000001,"ADDRESS":"東門路二段１５８巷２８號四樓","OBJECTID":382765},"geometry":{"x":170082.00000000093,"y":2542850.8700000029}},{"attributes":{"ID":382776,"DIS_CODE":0,"TOWNNAME":"東區","LI":"龍山里","LIN":"9鄰","STREET":"東門路","SECT":"二段","MAREA":" ","LANE":"１５８巷","ALLEY":" ","HOUSE_NO":"２８號四樓之１","E_COORD97":170082,"N_COORD97":2542850.8700000001,"ADDRESS":"東門路二段１５８巷２８號四樓之１","OBJECTID":382766},"geometry":{"x":170082.00000000093,"y":2542850.8700000029}},{"attributes":{"ID":382777,"DIS_CODE":0,"TOWNNAME":"東區","LI":"圍下里","LIN":"14鄰","STREET":"前鋒路","SECT":" ","MAREA":" ","LANE":"８５巷","ALLEY":" ","HOUSE_NO":"４號","E_COORD97":169280.89999999999,"N_COORD97":2543619.3199999998,"ADDRESS":"前鋒路８５巷４號","OBJECTID":382767},"geometry":{"x":169280.9000000013,"y":2543619.3200000022}},{"attributes":{"ID":382778,"DIS_CODE":0,"TOWNNAME":"東區","LI":"龍山里","LIN":"9鄰","STREET":"東門路","SECT":"二段","MAREA":" ","LANE":"１５８巷","ALLEY":" ","HOUSE_NO":"２８號五樓","E_COORD97":170082,"N_COORD97":2542850.8700000001,"ADDRESS":"東門路二段１５８巷２８號五樓","OBJECTID":382768},"geometry":{"x":170082.00000000093,"y":2542850.8700000029}},{"attributes":{"ID":382779,"DIS_CODE":0,"TOWNNAME":"東區","LI":"龍山里","LIN":"9鄰","STREET":"東門路","SECT":"二段","MAREA":" ","LANE":"１５８巷","ALLEY":" ","HOUSE_NO":"２８號五樓之１","E_COORD97":170082,"N_COORD97":2542850.8700000001,"ADDRESS":"東門路二段１５８巷２８號五樓之１","OBJECTID":382769},"geometry":{"x":170082.00000000093,"y":2542850.8700000029}},{"attributes":{"ID":382780,"DIS_CODE":0,"TOWNNAME":"東區","LI":"龍山里","LIN":"9鄰","STREET":"東門路","SECT":"二段","MAREA":" ","LANE":"１５８巷","ALLEY":" ","HOUSE_NO":"２８號六樓","E_COORD97":170082,"N_COORD97":2542850.8700000001,"ADDRESS":"東門路二段１５８巷２８號六樓","OBJECTID":382770},"geometry":{"x":170082.00000000093,"y":2542850.8700000029}},{"attributes":{"ID":382781,"DIS_CODE":0,"TOWNNAME":"東區","LI":"龍山里","LIN":"9鄰","STREET":"東門路","SECT":"二段","MAREA":" ","LANE":"１５８巷","ALLEY":" ","HOUSE_NO":"２８號六樓之１","E_COORD97":170082,"N_COORD97":2542850.8700000001,"ADDRESS":"東門路二段１５８巷２８號六樓之１","OBJECTID":382771},"geometry":{"x":170082.00000000093,"y":2542850.8700000029}},{"attributes":{"ID":382782,"DIS_CODE":0,"TOWNNAME":"東區","LI":"龍山里","LIN":"9鄰","STREET":"東門路","SECT":"二段","MAREA":" ","LANE":"１５８巷","ALLEY":" ","HOUSE_NO":"２８號七樓","E_COORD97":170082,"N_COORD97":2542850.8700000001,"ADDRESS":"東門路二段１５８巷２８號七樓","OBJECTID":382772},"geometry":{"x":170082.00000000093,"y":2542850.8700000029}},{"attributes":{"ID":382783,"DIS_CODE":0,"TOWNNAME":"東區","LI":"龍山里","LIN":"9鄰","STREET":"東門路","SECT":"二段","MAREA":" ","LANE":"１５８巷","ALLEY":" ","HOUSE_NO":"２８號七樓之１","E_COORD97":170082,"N_COORD97":2542850.8700000001,"ADDRESS":"東門路二段１５８巷２８號七樓之１","OBJECTID":382773},"geometry":{"x":170082.00000000093,"y":2542850.8700000029}},{"attributes":{"ID":382784,"DIS_CODE":0,"TOWNNAME":"東區","LI":"龍山里","LIN":"9鄰","STREET":"東門路","SECT":"二段","MAREA":" ","LANE":"１５８巷","ALLEY":" ","HOUSE_NO":"２８號八樓","E_COORD97":170082,"N_COORD97":2542850.8700000001,"ADDRESS":"東門路二段１５８巷２８號八樓","OBJECTID":382774},"geometry":{"x":170082.00000000093,"y":2542850.8700000029}},{"attributes":{"ID":382785,"DIS_CODE":0,"TOWNNAME":"東區","LI":"龍山里","LIN":"9鄰","STREET":"東門路","SECT":"二段","MAREA":" ","LANE":"１５８巷","ALLEY":" ","HOUSE_NO":"２８號八樓之１","E_COORD97":170082,"N_COORD97":2542850.8700000001,"ADDRESS":"東門路二段１５８巷２８號八樓之１","OBJECTID":382775},"geometry":{"x":170082.00000000093,"y":2542850.8700000029}},{"attributes":{"ID":382786,"DIS_CODE":0,"TOWNNAME":"東區","LI":"龍山里","LIN":"9鄰","STREET":"東門路","SECT":"二段","MAREA":" ","LANE":"１５８巷","ALLEY":" ","HOUSE_NO":"２８號九樓","E_COORD97":170082,"N_COORD97":2542850.8700000001,"ADDRESS":"東門路二段１５８巷２８號九樓","OBJECTID":382776},"geometry":{"x":170082.00000000093,"y":2542850.8700000029}},{"attributes":{"ID":382787,"DIS_CODE":0,"TOWNNAME":"東區","LI":"龍山里","LIN":"9鄰","STREET":"東門路","SECT":"二段","MAREA":" ","LANE":"１５８巷","ALLEY":" ","HOUSE_NO":"２８號九樓之１","E_COORD97":170082,"N_COORD97":2542850.8700000001,"ADDRESS":"東門路二段１５８巷２８號九樓之１","OBJECTID":382777},"geometry":{"x":170082.00000000093,"y":2542850.8700000029}},{"attributes":{"ID":382788,"DIS_CODE":0,"TOWNNAME":"東區","LI":"龍山里","LIN":"9鄰","STREET":"東門路","SECT":"二段","MAREA":" ","LANE":"１５８巷","ALLEY":" ","HOUSE_NO":"３２號二樓","E_COORD97":170071.19,"N_COORD97":2542828.54,"ADDRESS":"東門路二段１５８巷３２號二樓","OBJECTID":382778},"geometry":{"x":170071.19000000134,"y":2542828.5399999991}},{"attributes":{"ID":382789,"DIS_CODE":0,"TOWNNAME":"東區","LI":"龍山里","LIN":"9鄰","STREET":"東門路","SECT":"二段","MAREA":" ","LANE":"１５８巷","ALLEY":" ","HOUSE_NO":"３２號二樓之１","E_COORD97":170071.19,"N_COORD97":2542828.54,"ADDRESS":"東門路二段１５８巷３２號二樓之１","OBJECTID":382779},"geometry":{"x":170071.19000000134,"y":2542828.5399999991}},{"attributes":{"ID":382790,"DIS_CODE":0,"TOWNNAME":"東區","LI":"龍山里","LIN":"9鄰","STREET":"東門路","SECT":"二段","MAREA":" ","LANE":"１５８巷","ALLEY":" ","HOUSE_NO":"３２號三樓","E_COORD97":170071.19,"N_COORD97":2542828.54,"ADDRESS":"東門路二段１５８巷３２號三樓","OBJECTID":382780},"geometry":{"x":170071.19000000134,"y":2542828.5399999991}},{"attributes":{"ID":382791,"DIS_CODE":0,"TOWNNAME":"東區","LI":"龍山里","LIN":"9鄰","STREET":"東門路","SECT":"二段","MAREA":" ","LANE":"１５８巷","ALLEY":" ","HOUSE_NO":"３２號三樓之１","E_COORD97":170071.19,"N_COORD97":2542828.54,"ADDRESS":"東門路二段１５８巷３２號三樓之１","OBJECTID":382781},"geometry":{"x":170071.19000000134,"y":2542828.5399999991}},{"attributes":{"ID":382792,"DIS_CODE":0,"TOWNNAME":"東區","LI":"龍山里","LIN":"9鄰","STREET":"東門路","SECT":"二段","MAREA":" ","LANE":"１５８巷","ALLEY":" ","HOUSE_NO":"３２號四樓","E_COORD97":170071.19,"N_COORD97":2542828.54,"ADDRESS":"東門路二段１５８巷３２號四樓","OBJECTID":382782},"geometry":{"x":170071.19000000134,"y":2542828.5399999991}},{"attributes":{"ID":382793,"DIS_CODE":0,"TOWNNAME":"東區","LI":"龍山里","LIN":"9鄰","STREET":"東門路","SECT":"二段","MAREA":" ","LANE":"１５８巷","ALLEY":" ","HOUSE_NO":"３２號四樓之１","E_COORD97":170071.19,"N_COORD97":2542828.54,"ADDRESS":"東門路二段１５８巷３２號四樓之１","OBJECTID":382783},"geometry":{"x":170071.19000000134,"y":2542828.5399999991}},{"attributes":{"ID":382794,"DIS_CODE":0,"TOWNNAME":"東區","LI":"龍山里","LIN":"9鄰","STREET":"東門路","SECT":"二段","MAREA":" ","LANE":"１５８巷","ALLEY":" ","HOUSE_NO":"３２號五樓","E_COORD97":170071.19,"N_COORD97":2542828.54,"ADDRESS":"東門路二段１５８巷３２號五樓","OBJECTID":382784},"geometry":{"x":170071.19000000134,"y":2542828.5399999991}},{"attributes":{"ID":382795,"DIS_CODE":0,"TOWNNAME":"東區","LI":"龍山里","LIN":"9鄰","STREET":"東門路","SECT":"二段","MAREA":" ","LANE":"１５８巷","ALLEY":" ","HOUSE_NO":"３２號五樓之１","E_COORD97":170071.19,"N_COORD97":2542828.54,"ADDRESS":"東門路二段１５８巷３２號五樓之１","OBJECTID":382785},"geometry":{"x":170071.19000000134,"y":2542828.5399999991}},{"attributes":{"ID":382796,"DIS_CODE":0,"TOWNNAME":"東區","LI":"龍山里","LIN":"9鄰","STREET":"東門路","SECT":"二段","MAREA":" ","LANE":"１５８巷","ALLEY":" ","HOUSE_NO":"３２號六樓","E_COORD97":170071.19,"N_COORD97":2542828.54,"ADDRESS":"東門路二段１５８巷３２號六樓","OBJECTID":382786},"geometry":{"x":170071.19000000134,"y":2542828.5399999991}},{"attributes":{"ID":382797,"DIS_CODE":0,"TOWNNAME":"東區","LI":"龍山里","LIN":"9鄰","STREET":"東門路","SECT":"二段","MAREA":" ","LANE":"１５８巷","ALLEY":" ","HOUSE_NO":"３２號六樓之１","E_COORD97":170071.19,"N_COORD97":2542828.54,"ADDRESS":"東門路二段１５８巷３２號六樓之１","OBJECTID":382787},"geometry":{"x":170071.19000000134,"y":2542828.5399999991}},{"attributes":{"ID":382798,"DIS_CODE":0,"TOWNNAME":"東區","LI":"龍山里","LIN":"9鄰","STREET":"東門路","SECT":"二段","MAREA":" ","LANE":"１５８巷","ALLEY":" ","HOUSE_NO":"３２號七樓","E_COORD97":170071.19,"N_COORD97":2542828.54,"ADDRESS":"東門路二段１５８巷３２號七樓","OBJECTID":382788},"geometry":{"x":170071.19000000134,"y":2542828.5399999991}},{"attributes":{"ID":382799,"DIS_CODE":0,"TOWNNAME":"東區","LI":"龍山里","LIN":"9鄰","STREET":"東門路","SECT":"二段","MAREA":" ","LANE":"１５８巷","ALLEY":" ","HOUSE_NO":"３２號七樓之１","E_COORD97":170071.19,"N_COORD97":2542828.54,"ADDRESS":"東門路二段１５８巷３２號七樓之１","OBJECTID":382789},"geometry":{"x":170071.19000000134,"y":2542828.5399999991}},{"attributes":{"ID":382800,"DIS_CODE":0,"TOWNNAME":"東區","LI":"龍山里","LIN":"9鄰","STREET":"東門路","SECT":"二段","MAREA":" ","LANE":"１５８巷","ALLEY":" ","HOUSE_NO":"３２號八樓","E_COORD97":170071.19,"N_COORD97":2542828.54,"ADDRESS":"東門路二段１５８巷３２號八樓","OBJECTID":382790},"geometry":{"x":170071.19000000134,"y":2542828.5399999991}},{"attributes":{"ID":382801,"DIS_CODE":0,"TOWNNAME":"東區","LI":"龍山里","LIN":"9鄰","STREET":"東門路","SECT":"二段","MAREA":" ","LANE":"１５８巷","ALLEY":" ","HOUSE_NO":"３２號八樓之１","E_COORD97":170071.19,"N_COORD97":2542828.54,"ADDRESS":"東門路二段１５８巷３２號八樓之１","OBJECTID":382791},"geometry":{"x":170071.19000000134,"y":2542828.5399999991}},{"attributes":{"ID":382802,"DIS_CODE":0,"TOWNNAME":"東區","LI":"龍山里","LIN":"9鄰","STREET":"東門路","SECT":"二段","MAREA":" ","LANE":"１５８巷","ALLEY":" ","HOUSE_NO":"３２號九樓","E_COORD97":170071.19,"N_COORD97":2542828.54,"ADDRESS":"東門路二段１５８巷３２號九樓","OBJECTID":382792},"geometry":{"x":170071.19000000134,"y":2542828.5399999991}},{"attributes":{"ID":382803,"DIS_CODE":0,"TOWNNAME":"東區","LI":"龍山里","LIN":"9鄰","STREET":"東門路","SECT":"二段","MAREA":" ","LANE":"１５８巷","ALLEY":" ","HOUSE_NO":"３２號九樓之１","E_COORD97":170071.19,"N_COORD97":2542828.54,"ADDRESS":"東門路二段１５８巷３２號九樓之１","OBJECTID":382793},"geometry":{"x":170071.19000000134,"y":2542828.5399999991}},{"attributes":{"ID":382804,"DIS_CODE":0,"TOWNNAME":"東區","LI":"龍山里","LIN":"9鄰","STREET":"東門路","SECT":"二段","MAREA":" ","LANE":"１５８巷","ALLEY":" ","HOUSE_NO":"３８號二樓","E_COORD97":170095.26000000001,"N_COORD97":2542813.4199999999,"ADDRESS":"東門路二段１５８巷３８號二樓","OBJECTID":382794},"geometry":{"x":170095.26000000071,"y":2542813.4199999999}},{"attributes":{"ID":382805,"DIS_CODE":0,"TOWNNAME":"東區","LI":"東光里","LIN":"9鄰","STREET":"東興路","SECT":" ","MAREA":" ","LANE":"１９９巷","ALLEY":" ","HOUSE_NO":"２號九樓","E_COORD97":171000.48999999999,"N_COORD97":2543880.4900000002,"ADDRESS":"東興路１９９巷２號九樓","OBJECTID":382795},"geometry":{"x":171000.49000000209,"y":2543880.4900000002}},{"attributes":{"ID":382806,"DIS_CODE":0,"TOWNNAME":"東區","LI":"龍山里","LIN":"9鄰","STREET":"東門路","SECT":"二段","MAREA":" ","LANE":"１５８巷","ALLEY":" ","HOUSE_NO":"３８號二樓之１","E_COORD97":170095.26000000001,"N_COORD97":2542813.4199999999,"ADDRESS":"東門路二段１５８巷３８號二樓之１","OBJECTID":382796},"geometry":{"x":170095.26000000071,"y":2542813.4199999999}},{"attributes":{"ID":382807,"DIS_CODE":0,"TOWNNAME":"東區","LI":"龍山里","LIN":"9鄰","STREET":"東門路","SECT":"二段","MAREA":" ","LANE":"１５８巷","ALLEY":" ","HOUSE_NO":"３８號二樓之２","E_COORD97":170095.26000000001,"N_COORD97":2542813.4199999999,"ADDRESS":"東門路二段１５８巷３８號二樓之２","OBJECTID":382797},"geometry":{"x":170095.26000000071,"y":2542813.4199999999}},{"attributes":{"ID":382808,"DIS_CODE":0,"TOWNNAME":"東區","LI":"龍山里","LIN":"9鄰","STREET":"東門路","SECT":"二段","MAREA":" ","LANE":"１５８巷","ALLEY":" ","HOUSE_NO":"３８號三樓","E_COORD97":170095.26000000001,"N_COORD97":2542813.4199999999,"ADDRESS":"東門路二段１５８巷３８號三樓","OBJECTID":382798},"geometry":{"x":170095.26000000071,"y":2542813.4199999999}},{"attributes":{"ID":382809,"DIS_CODE":0,"TOWNNAME":"東區","LI":"龍山里","LIN":"9鄰","STREET":"東門路","SECT":"二段","MAREA":" ","LANE":"１５８巷","ALLEY":" ","HOUSE_NO":"３８號三樓之１","E_COORD97":170095.26000000001,"N_COORD97":2542813.4199999999,"ADDRESS":"東門路二段１５８巷３８號三樓之１","OBJECTID":382799},"geometry":{"x":170095.26000000071,"y":2542813.4199999999}},{"attributes":{"ID":382810,"DIS_CODE":0,"TOWNNAME":"東區","LI":"龍山里","LIN":"9鄰","STREET":"東門路","SECT":"二段","MAREA":" ","LANE":"１５８巷","ALLEY":" ","HOUSE_NO":"３８號三樓之２","E_COORD97":170095.26000000001,"N_COORD97":2542813.4199999999,"ADDRESS":"東門路二段１５８巷３８號三樓之２","OBJECTID":382800},"geometry":{"x":170095.26000000071,"y":2542813.4199999999}}]}