{"displayFieldName":"TOWNNAME","fieldAliases":{"ID":"ID","DIS_CODE":"DIS_CODE","TOWNNAME":"TOWNNAME","LI":"LI","LIN":"LIN","STREET":"STREET","SECT":"SECT","MAREA":"MAREA","LANE":"LANE","ALLEY":"ALLEY","HOUSE_NO":"HOUSE_NO","E_COORD97":"E_COORD97","N_COORD97":"N_COORD97","ADDRESS":"ADDRESS","OBJECTID":"OBJECTID"},"geometryType":"esriGeometryPoint","spatialReference":{"wkid":102443,"latestWkid":3826},"fields":[{"name":"ID","type":"esriFieldTypeDouble","alias":"ID"},{"name":"DIS_CODE","type":"esriFieldTypeInteger","alias":"DIS_CODE"},{"name":"TOWNNAME","type":"esriFieldTypeString","alias":"TOWNNAME","length":8},{"name":"LI","type":"esriFieldTypeString","alias":"LI","length":8},{"name":"LIN","type":"esriFieldTypeString","alias":"LIN","length":12},{"name":"STREET","type":"esriFieldTypeString","alias":"STREET","length":20},{"name":"SECT","type":"esriFieldTypeString","alias":"SECT","length":8},{"name":"MAREA","type":"esriFieldTypeString","alias":"MAREA","length":12},{"name":"LANE","type":"esriFieldTypeString","alias":"LANE","length":10},{"name":"ALLEY","type":"esriFieldTypeString","alias":"ALLEY","length":10},{"name":"HOUSE_NO","type":"esriFieldTypeString","alias":"HOUSE_NO","length":20},{"name":"E_COORD97","type":"esriFieldTypeDouble","alias":"E_COORD97"},{"name":"N_COORD97","type":"esriFieldTypeDouble","alias":"N_COORD97"},{"name":"ADDRESS","type":"esriFieldTypeString","alias":"ADDRESS","length":50},{"name":"OBJECTID","type":"esriFieldTypeOID","alias":"OBJECTID"}],"features":[{"attributes":{"ID":163402,"DIS_CODE":0,"TOWNNAME":"新化區","LI":"全興里","LIN":"18鄰","STREET":" ","SECT":" ","MAREA":"竹子\u25A0","LANE":" ","ALLEY":" ","HOUSE_NO":"２４７號之８５","E_COORD97":178407.04000000001,"N_COORD97":2546759.2599999998,"ADDRESS":"竹子\u25A0２４７號之８５","OBJECTID":163401},"geometry":{"x":178407.04000000097,"y":2546759.2600000016}},{"attributes":{"ID":163403,"DIS_CODE":0,"TOWNNAME":"仁德區","LI":"仁德里","LIN":"5鄰","STREET":"仁德四街","SECT":" ","MAREA":" ","LANE":"１２巷","ALLEY":"１５弄","HOUSE_NO":"８號","E_COORD97":173230.60999999999,"N_COORD97":2540892.79,"ADDRESS":"仁德四街１２巷１５弄８號","OBJECTID":163402},"geometry":{"x":173230.6100000022,"y":2540892.790000001}},{"attributes":{"ID":163404,"DIS_CODE":0,"TOWNNAME":"新化區","LI":"全興里","LIN":"18鄰","STREET":" ","SECT":" ","MAREA":"竹子\u25A0","LANE":" ","ALLEY":" ","HOUSE_NO":"２４７號之１９７","E_COORD97":178439.57999999999,"N_COORD97":2546740.2599999998,"ADDRESS":"竹子\u25A0２４７號之１９７","OBJECTID":163403},"geometry":{"x":178439.58000000007,"y":2546740.2599999998}},{"attributes":{"ID":163405,"DIS_CODE":0,"TOWNNAME":"仁德區","LI":"成功里","LIN":"38鄰","STREET":"保華路","SECT":" ","MAREA":" ","LANE":"２巷","ALLEY":"５弄","HOUSE_NO":"９號","E_COORD97":170736.70000000001,"N_COORD97":2540025.75,"ADDRESS":"保華路２巷５弄９號","OBJECTID":163404},"geometry":{"x":170736.70000000112,"y":2540025.7500000019}},{"attributes":{"ID":163406,"DIS_CODE":0,"TOWNNAME":"仁德區","LI":"太子里","LIN":"26鄰","STREET":"長興五街","SECT":" ","MAREA":" ","LANE":"１４巷","ALLEY":"６弄","HOUSE_NO":"８號","E_COORD97":173653.32000000001,"N_COORD97":2543567.75,"ADDRESS":"長興五街１４巷６弄８號","OBJECTID":163405},"geometry":{"x":173653.32000000123,"y":2543567.75}},{"attributes":{"ID":163407,"DIS_CODE":0,"TOWNNAME":"仁德區","LI":"後壁里","LIN":"32鄰","STREET":"德洋路","SECT":" ","MAREA":" ","LANE":"２０５巷","ALLEY":"３０弄","HOUSE_NO":"１０號","E_COORD97":172429.17999999999,"N_COORD97":2539545.2599999998,"ADDRESS":"德洋路２０５巷３０弄１０號","OBJECTID":163406},"geometry":{"x":172429.1799999997,"y":2539545.2599999998}},{"attributes":{"ID":163408,"DIS_CODE":0,"TOWNNAME":"仁德區","LI":"後壁里","LIN":"32鄰","STREET":"德洋路","SECT":" ","MAREA":" ","LANE":"２０５巷","ALLEY":"３０弄","HOUSE_NO":"９號","E_COORD97":172415.95000000001,"N_COORD97":2539545.5099999998,"ADDRESS":"德洋路２０５巷３０弄９號","OBJECTID":163407},"geometry":{"x":172415.95000000019,"y":2539545.5100000035}},{"attributes":{"ID":163409,"DIS_CODE":0,"TOWNNAME":"永康區","LI":"大橋里","LIN":"12鄰","STREET":"大橋二街","SECT":" ","MAREA":" ","LANE":" ","ALLEY":" ","HOUSE_NO":"２６１號","E_COORD97":171159.67000000001,"N_COORD97":2546838.8999999999,"ADDRESS":"大橋二街２６１號","OBJECTID":163408},"geometry":{"x":171159.66999999993,"y":2546838.9000000004}},{"attributes":{"ID":163410,"DIS_CODE":0,"TOWNNAME":"仁德區","LI":"成功里","LIN":"32鄰","STREET":"成功一街","SECT":" ","MAREA":" ","LANE":"３５巷","ALLEY":"１弄","HOUSE_NO":"２號","E_COORD97":170588.89999999999,"N_COORD97":2540129.77,"ADDRESS":"成功一街３５巷１弄２號","OBJECTID":163409},"geometry":{"x":170588.90000000037,"y":2540129.7700000033}},{"attributes":{"ID":163411,"DIS_CODE":0,"TOWNNAME":"仁德區","LI":"後壁里","LIN":"32鄰","STREET":"德洋路","SECT":" ","MAREA":" ","LANE":"２０５巷","ALLEY":"３０弄","HOUSE_NO":"１１號","E_COORD97":172418.92999999999,"N_COORD97":2539549.2599999998,"ADDRESS":"德洋路２０５巷３０弄１１號","OBJECTID":163410},"geometry":{"x":172418.9299999997,"y":2539549.2599999998}},{"attributes":{"ID":163412,"DIS_CODE":0,"TOWNNAME":"仁德區","LI":"仁德里","LIN":"30鄰","STREET":"淨修街","SECT":" ","MAREA":" ","LANE":"１７５巷","ALLEY":"４９弄","HOUSE_NO":"９號","E_COORD97":172043.26999999999,"N_COORD97":2541218.9300000002,"ADDRESS":"淨修街１７５巷４９弄９號","OBJECTID":163411},"geometry":{"x":172043.26999999955,"y":2541218.9299999997}},{"attributes":{"ID":163413,"DIS_CODE":0,"TOWNNAME":"仁德區","LI":"保安里","LIN":"4鄰","STREET":"文賢路","SECT":"一段","MAREA":" ","LANE":"８３４巷","ALLEY":"１８弄","HOUSE_NO":"８號","E_COORD97":171435.03,"N_COORD97":2536200.3300000001,"ADDRESS":"文賢路一段８３４巷１８弄８號","OBJECTID":163412},"geometry":{"x":171435.03000000119,"y":2536200.3299999982}},{"attributes":{"ID":163414,"DIS_CODE":0,"TOWNNAME":"仁德區","LI":"保安里","LIN":"4鄰","STREET":"文賢路","SECT":"一段","MAREA":" ","LANE":"８６２巷","ALLEY":"６弄","HOUSE_NO":"１號","E_COORD97":171459.09,"N_COORD97":2536100.0699999998,"ADDRESS":"文賢路一段８６２巷６弄１號","OBJECTID":163413},"geometry":{"x":171459.09000000078,"y":2536100.0700000003}},{"attributes":{"ID":163415,"DIS_CODE":0,"TOWNNAME":"永康區","LI":"大灣里","LIN":"12鄰","STREET":"民族路","SECT":" ","MAREA":" ","LANE":" ","ALLEY":" ","HOUSE_NO":"３１８號","E_COORD97":174925.23000000001,"N_COORD97":2545301.6800000002,"ADDRESS":"民族路３１８號","OBJECTID":163414},"geometry":{"x":174925.23000000231,"y":2545301.6800000016}},{"attributes":{"ID":163416,"DIS_CODE":0,"TOWNNAME":"永康區","LI":"大橋里","LIN":"12鄰","STREET":"大橋二街","SECT":" ","MAREA":" ","LANE":" ","ALLEY":" ","HOUSE_NO":"２５９號","E_COORD97":171156.16,"N_COORD97":2546836.6499999999,"ADDRESS":"大橋二街２５９號","OBJECTID":163415},"geometry":{"x":171156.16000000015,"y":2546836.6500000004}},{"attributes":{"ID":163417,"DIS_CODE":0,"TOWNNAME":"仁德區","LI":"保安里","LIN":"4鄰","STREET":"文賢路","SECT":"一段","MAREA":" ","LANE":"８６２巷","ALLEY":"６弄","HOUSE_NO":"６號","E_COORD97":171475.28,"N_COORD97":2536118.5699999998,"ADDRESS":"文賢路一段８６２巷６弄６號","OBJECTID":163416},"geometry":{"x":171475.28000000119,"y":2536118.5700000022}},{"attributes":{"ID":163418,"DIS_CODE":0,"TOWNNAME":"永康區","LI":"大橋里","LIN":"12鄰","STREET":"大橋二街","SECT":" ","MAREA":" ","LANE":" ","ALLEY":" ","HOUSE_NO":"２３７號","E_COORD97":171106.56,"N_COORD97":2546803.8999999999,"ADDRESS":"大橋二街２３７號","OBJECTID":163417},"geometry":{"x":171106.56000000052,"y":2546803.9000000004}},{"attributes":{"ID":163419,"DIS_CODE":0,"TOWNNAME":"仁德區","LI":"後壁里","LIN":"36鄰","STREET":"民安路","SECT":"一段","MAREA":" ","LANE":"３１０巷","ALLEY":"２９弄","HOUSE_NO":"２號","E_COORD97":172787.75,"N_COORD97":2539434.6899999999,"ADDRESS":"民安路一段３１０巷２９弄２號","OBJECTID":163418},"geometry":{"x":172787.75000000093,"y":2539434.6899999995}},{"attributes":{"ID":163420,"DIS_CODE":0,"TOWNNAME":"永康區","LI":"大橋里","LIN":"12鄰","STREET":"大橋二街","SECT":" ","MAREA":" ","LANE":" ","ALLEY":" ","HOUSE_NO":"２５３號","E_COORD97":171144.42999999999,"N_COORD97":2546829.1499999999,"ADDRESS":"大橋二街２５３號","OBJECTID":163419},"geometry":{"x":171144.43000000156,"y":2546829.1500000022}},{"attributes":{"ID":163421,"DIS_CODE":0,"TOWNNAME":"仁德區","LI":"成功里","LIN":"18鄰","STREET":"全福路","SECT":" ","MAREA":" ","LANE":"７５巷","ALLEY":"１４弄","HOUSE_NO":"２０號","E_COORD97":171096.28,"N_COORD97":2539336.7400000002,"ADDRESS":"全福路７５巷１４弄２０號","OBJECTID":163420},"geometry":{"x":171096.28000000026,"y":2539336.7400000002}},{"attributes":{"ID":163422,"DIS_CODE":0,"TOWNNAME":"永康區","LI":"五王里","LIN":"12鄰","STREET":"中山東路","SECT":" ","MAREA":" ","LANE":" ","ALLEY":" ","HOUSE_NO":"１８６號","E_COORD97":171761.72,"N_COORD97":2545806.3599999999,"ADDRESS":"中山東路１８６號","OBJECTID":163421},"geometry":{"x":171761.72000000067,"y":2545806.3599999994}},{"attributes":{"ID":163423,"DIS_CODE":0,"TOWNNAME":"永康區","LI":"中興里","LIN":"12鄰","STREET":"中興街","SECT":" ","MAREA":" ","LANE":" ","ALLEY":" ","HOUSE_NO":"４７號","E_COORD97":172071.29999999999,"N_COORD97":2545225.6400000001,"ADDRESS":"中興街４７號","OBJECTID":163422},"geometry":{"x":172071.30000000075,"y":2545225.6400000025}},{"attributes":{"ID":163424,"DIS_CODE":0,"TOWNNAME":"永康區","LI":"五王里","LIN":"12鄰","STREET":"中山東路","SECT":" ","MAREA":" ","LANE":" ","ALLEY":" ","HOUSE_NO":"１９０號","E_COORD97":171762.85999999999,"N_COORD97":2545798.1099999999,"ADDRESS":"中山東路１９０號","OBJECTID":163423},"geometry":{"x":171762.86000000127,"y":2545798.1099999994}},{"attributes":{"ID":163425,"DIS_CODE":0,"TOWNNAME":"永康區","LI":"中興里","LIN":"12鄰","STREET":"中興街","SECT":" ","MAREA":" ","LANE":" ","ALLEY":" ","HOUSE_NO":"３６號","E_COORD97":172094.29000000001,"N_COORD97":2545200.79,"ADDRESS":"中興街３６號","OBJECTID":163424},"geometry":{"x":172094.29000000004,"y":2545200.7899999991}},{"attributes":{"ID":163426,"DIS_CODE":0,"TOWNNAME":"永康區","LI":"北灣里","LIN":"12鄰","STREET":"大同街","SECT":" ","MAREA":" ","LANE":" ","ALLEY":" ","HOUSE_NO":"１５２號","E_COORD97":174962.16,"N_COORD97":2545557.1699999999,"ADDRESS":"大同街１５２號","OBJECTID":163425},"geometry":{"x":174962.16000000015,"y":2545557.1699999999}},{"attributes":{"ID":163427,"DIS_CODE":0,"TOWNNAME":"中西區","LI":"仙草里","LIN":"6鄰","STREET":"五妃街","SECT":" ","MAREA":" ","LANE":" ","ALLEY":" ","HOUSE_NO":"２４０號","E_COORD97":167960.60000000001,"N_COORD97":2542594.2799999998,"ADDRESS":"五妃街２４０號","OBJECTID":163426},"geometry":{"x":167960.59999999963,"y":2542594.2800000031}},{"attributes":{"ID":163428,"DIS_CODE":0,"TOWNNAME":"中西區","LI":"仙草里","LIN":"6鄰","STREET":"五妃街","SECT":" ","MAREA":" ","LANE":" ","ALLEY":" ","HOUSE_NO":"２４２號","E_COORD97":167956.95000000001,"N_COORD97":2542593.9500000002,"ADDRESS":"五妃街２４２號","OBJECTID":163427},"geometry":{"x":167956.95000000112,"y":2542593.9500000011}},{"attributes":{"ID":163429,"DIS_CODE":0,"TOWNNAME":"中西區","LI":"仙草里","LIN":"6鄰","STREET":"五妃街","SECT":" ","MAREA":" ","LANE":" ","ALLEY":" ","HOUSE_NO":"２４４號","E_COORD97":167954.29999999999,"N_COORD97":2542594.7400000002,"ADDRESS":"五妃街２４４號","OBJECTID":163428},"geometry":{"x":167954.29999999981,"y":2542594.7400000002}},{"attributes":{"ID":163430,"DIS_CODE":0,"TOWNNAME":"新化區","LI":"全興里","LIN":"18鄰","STREET":" ","SECT":" ","MAREA":"竹子\u25A0","LANE":" ","ALLEY":" ","HOUSE_NO":"２４７號之９４","E_COORD97":178486.01999999999,"N_COORD97":2546756.2599999998,"ADDRESS":"竹子\u25A0２４７號之９４","OBJECTID":163429},"geometry":{"x":178486.02000000048,"y":2546756.2600000016}},{"attributes":{"ID":163431,"DIS_CODE":0,"TOWNNAME":"新化區","LI":"全興里","LIN":"18鄰","STREET":" ","SECT":" ","MAREA":"竹子\u25A0","LANE":" ","ALLEY":" ","HOUSE_NO":"２４７號之１６３","E_COORD97":178555.38,"N_COORD97":2546740.2599999998,"ADDRESS":"竹子\u25A0２４７號之１６３","OBJECTID":163430},"geometry":{"x":178555.38000000082,"y":2546740.2599999998}},{"attributes":{"ID":163432,"DIS_CODE":0,"TOWNNAME":"新化區","LI":"全興里","LIN":"18鄰","STREET":" ","SECT":" ","MAREA":"竹子\u25A0","LANE":" ","ALLEY":" ","HOUSE_NO":"２４７號之２０７","E_COORD97":178416.67999999999,"N_COORD97":2546741.2599999998,"ADDRESS":"竹子\u25A0２４７號之２０７","OBJECTID":163431},"geometry":{"x":178416.67999999877,"y":2546741.2600000035}},{"attributes":{"ID":163433,"DIS_CODE":0,"TOWNNAME":"新化區","LI":"全興里","LIN":"18鄰","STREET":" ","SECT":" ","MAREA":"竹子\u25A0","LANE":" ","ALLEY":" ","HOUSE_NO":"２４７號之７８","E_COORD97":178425.14000000001,"N_COORD97":2546782.2599999998,"ADDRESS":"竹子\u25A0２４７號之７８","OBJECTID":163432},"geometry":{"x":178425.13999999966,"y":2546782.2600000035}},{"attributes":{"ID":163434,"DIS_CODE":0,"TOWNNAME":"新化區","LI":"全興里","LIN":"18鄰","STREET":" ","SECT":" ","MAREA":"竹子\u25A0","LANE":" ","ALLEY":" ","HOUSE_NO":"２４７號之２２９","E_COORD97":178366.07999999999,"N_COORD97":2546744.2599999998,"ADDRESS":"竹子\u25A0２４７號之２２９","OBJECTID":163433},"geometry":{"x":178366.08000000101,"y":2546744.2599999998}},{"attributes":{"ID":163435,"DIS_CODE":0,"TOWNNAME":"新化區","LI":"全興里","LIN":"18鄰","STREET":" ","SECT":" ","MAREA":"竹子\u25A0","LANE":" ","ALLEY":" ","HOUSE_NO":"２４７號之１８１","E_COORD97":178495.66,"N_COORD97":2546742.2599999998,"ADDRESS":"竹子\u25A0２４７號之１８１","OBJECTID":163434},"geometry":{"x":178495.66000000108,"y":2546742.2600000016}},{"attributes":{"ID":163436,"DIS_CODE":0,"TOWNNAME":"新化區","LI":"全興里","LIN":"18鄰","STREET":" ","SECT":" ","MAREA":"竹子\u25A0","LANE":" ","ALLEY":" ","HOUSE_NO":"２４７號之７９","E_COORD97":178431.42999999999,"N_COORD97":2546782.2599999998,"ADDRESS":"竹子\u25A0２４７號之７９","OBJECTID":163435},"geometry":{"x":178431.4299999997,"y":2546782.2600000035}},{"attributes":{"ID":163437,"DIS_CODE":0,"TOWNNAME":"西港區","LI":"南海里","LIN":"18鄰","STREET":" ","SECT":" ","MAREA":"中港","LANE":" ","ALLEY":" ","HOUSE_NO":"３號之２","E_COORD97":167395.89999999999,"N_COORD97":2556466.02,"ADDRESS":"中港３號之２","OBJECTID":163436},"geometry":{"x":167395.9000000013,"y":2556466.0199999996}},{"attributes":{"ID":163438,"DIS_CODE":0,"TOWNNAME":"仁德區","LI":"後壁里","LIN":"20鄰","STREET":"中正路","SECT":"二段","MAREA":" ","LANE":"１０６巷","ALLEY":"１５弄","HOUSE_NO":"６號","E_COORD97":173271.48000000001,"N_COORD97":2538522.02,"ADDRESS":"中正路二段１０６巷１５弄６號","OBJECTID":163437},"geometry":{"x":173271.48000000138,"y":2538522.0200000014}},{"attributes":{"ID":163439,"DIS_CODE":0,"TOWNNAME":"仁德區","LI":"太子里","LIN":"25鄰","STREET":"長興五街","SECT":" ","MAREA":" ","LANE":"１４巷","ALLEY":"９弄","HOUSE_NO":"１１號","E_COORD97":173634.832517,"N_COORD97":2543633.6353500001,"ADDRESS":"長興五街１４巷９弄１１號","OBJECTID":163438},"geometry":{"x":173634.83251699992,"y":2543633.6353500038}},{"attributes":{"ID":163440,"DIS_CODE":0,"TOWNNAME":"永康區","LI":"五王里","LIN":"12鄰","STREET":"中山東路","SECT":" ","MAREA":" ","LANE":" ","ALLEY":" ","HOUSE_NO":"２１０號","E_COORD97":171772.31,"N_COORD97":2545764.8500000001,"ADDRESS":"中山東路２１０號","OBJECTID":163439},"geometry":{"x":171772.31000000145,"y":2545764.8500000015}},{"attributes":{"ID":163441,"DIS_CODE":0,"TOWNNAME":"仁德區","LI":"後壁里","LIN":"20鄰","STREET":"中正路","SECT":"二段","MAREA":" ","LANE":"１０６巷","ALLEY":"１５弄","HOUSE_NO":"２號","E_COORD97":173246.81,"N_COORD97":2538511.71,"ADDRESS":"中正路二段１０６巷１５弄２號","OBJECTID":163440},"geometry":{"x":173246.80999999959,"y":2538511.7100000028}},{"attributes":{"ID":163442,"DIS_CODE":0,"TOWNNAME":"仁德區","LI":"後壁里","LIN":"32鄰","STREET":"德洋路","SECT":" ","MAREA":" ","LANE":"２２７巷","ALLEY":"２弄","HOUSE_NO":"９號","E_COORD97":172505.95999999999,"N_COORD97":2539572.02,"ADDRESS":"德洋路２２７巷２弄９號","OBJECTID":163441},"geometry":{"x":172505.96000000089,"y":2539572.0200000033}},{"attributes":{"ID":163443,"DIS_CODE":0,"TOWNNAME":"仁德區","LI":"保安里","LIN":"4鄰","STREET":"文賢路","SECT":"一段","MAREA":" ","LANE":"８３４巷","ALLEY":"１８弄","HOUSE_NO":"２號","E_COORD97":171442.25,"N_COORD97":2536187.5800000001,"ADDRESS":"文賢路一段８３４巷１８弄２號","OBJECTID":163442},"geometry":{"x":171442.25,"y":2536187.5800000001}},{"attributes":{"ID":163444,"DIS_CODE":0,"TOWNNAME":"仁德區","LI":"後壁里","LIN":"43鄰","STREET":"德崙路","SECT":" ","MAREA":" ","LANE":"２１巷","ALLEY":"１０弄","HOUSE_NO":"４號","E_COORD97":173298.47,"N_COORD97":2538644.3999999999,"ADDRESS":"德崙路２１巷１０弄４號","OBJECTID":163443},"geometry":{"x":173298.46999999974,"y":2538644.4000000004}},{"attributes":{"ID":163445,"DIS_CODE":0,"TOWNNAME":"永康區","LI":"復興里","LIN":"12鄰","STREET":"復興路","SECT":" ","MAREA":" ","LANE":" ","ALLEY":" ","HOUSE_NO":"３２８號","E_COORD97":172273.51999999999,"N_COORD97":2544344.9500000002,"ADDRESS":"復興路３２８號","OBJECTID":163444},"geometry":{"x":172273.52000000048,"y":2544344.9499999993}},{"attributes":{"ID":163446,"DIS_CODE":0,"TOWNNAME":"仁德區","LI":"保安里","LIN":"4鄰","STREET":"文賢路","SECT":"一段","MAREA":" ","LANE":"８６４巷","ALLEY":"１３弄","HOUSE_NO":"６號","E_COORD97":171523.991599,"N_COORD97":2535997.8988899998,"ADDRESS":"文賢路一段８６４巷１３弄６號","OBJECTID":163445},"geometry":{"x":171523.99159900099,"y":2535997.8988930006}},{"attributes":{"ID":163447,"DIS_CODE":0,"TOWNNAME":"仁德區","LI":"後壁里","LIN":"34鄰","STREET":"德洋二街","SECT":" ","MAREA":" ","LANE":"３９巷","ALLEY":"２９弄","HOUSE_NO":"１７號","E_COORD97":172338.72,"N_COORD97":2539390.52,"ADDRESS":"德洋二街３９巷２９弄１７號","OBJECTID":163446},"geometry":{"x":172338.71999999974,"y":2539390.5200000014}},{"attributes":{"ID":163448,"DIS_CODE":0,"TOWNNAME":"永康區","LI":"復興里","LIN":"12鄰","STREET":"復興路","SECT":" ","MAREA":" ","LANE":" ","ALLEY":" ","HOUSE_NO":"３２６號","E_COORD97":172278.62,"N_COORD97":2544346.4500000002,"ADDRESS":"復興路３２６號","OBJECTID":163447},"geometry":{"x":172278.62000000011,"y":2544346.4500000011}},{"attributes":{"ID":163449,"DIS_CODE":0,"TOWNNAME":"永康區","LI":"復興里","LIN":"12鄰","STREET":"復興路","SECT":" ","MAREA":" ","LANE":" ","ALLEY":" ","HOUSE_NO":"３３０號","E_COORD97":172270.88,"N_COORD97":2544348.6099999999,"ADDRESS":"復興路３３０號","OBJECTID":163448},"geometry":{"x":172270.88000000082,"y":2544348.6100000031}},{"attributes":{"ID":163450,"DIS_CODE":0,"TOWNNAME":"仁德區","LI":"太子里","LIN":"34鄰","STREET":"土庫路","SECT":" ","MAREA":" ","LANE":"３５巷","ALLEY":"１弄","HOUSE_NO":"４號","E_COORD97":174261.35000000001,"N_COORD97":2543403.75,"ADDRESS":"土庫路３５巷１弄４號","OBJECTID":163449},"geometry":{"x":174261.35000000056,"y":2543403.7500000019}},{"attributes":{"ID":163451,"DIS_CODE":0,"TOWNNAME":"永康區","LI":"復興里","LIN":"12鄰","STREET":"復興路","SECT":" ","MAREA":" ","LANE":" ","ALLEY":" ","HOUSE_NO":"３２０號","E_COORD97":172286.98999999999,"N_COORD97":2544348.54,"ADDRESS":"復興路３２０號","OBJECTID":163450},"geometry":{"x":172286.99000000022,"y":2544348.5400000028}},{"attributes":{"ID":163452,"DIS_CODE":0,"TOWNNAME":"永康區","LI":"復興里","LIN":"12鄰","STREET":"復興路","SECT":" ","MAREA":" ","LANE":" ","ALLEY":" ","HOUSE_NO":"３０２號","E_COORD97":172324.23999999999,"N_COORD97":2544348.2000000002,"ADDRESS":"復興路３０２號","OBJECTID":163451},"geometry":{"x":172324.24000000022,"y":2544348.2000000011}},{"attributes":{"ID":163453,"DIS_CODE":0,"TOWNNAME":"仁德區","LI":"成功里","LIN":"38鄰","STREET":"保華路","SECT":" ","MAREA":" ","LANE":"２巷","ALLEY":"５弄","HOUSE_NO":"７號","E_COORD97":170743.64999999999,"N_COORD97":2540025.5,"ADDRESS":"保華路２巷５弄７號","OBJECTID":163452},"geometry":{"x":170743.65000000224,"y":2540025.5}},{"attributes":{"ID":163454,"DIS_CODE":0,"TOWNNAME":"永康區","LI":"復興里","LIN":"12鄰","STREET":"復興路","SECT":" ","MAREA":" ","LANE":" ","ALLEY":" ","HOUSE_NO":"３００號","E_COORD97":172330.54999999999,"N_COORD97":2544348.4500000002,"ADDRESS":"復興路３００號","OBJECTID":163453},"geometry":{"x":172330.55000000075,"y":2544348.4499999993}},{"attributes":{"ID":163455,"DIS_CODE":0,"TOWNNAME":"永康區","LI":"復興里","LIN":"12鄰","STREET":"復興路","SECT":" ","MAREA":" ","LANE":" ","ALLEY":" ","HOUSE_NO":"３０４號","E_COORD97":172318.29000000001,"N_COORD97":2544348.4500000002,"ADDRESS":"復興路３０４號","OBJECTID":163454},"geometry":{"x":172318.29000000004,"y":2544348.4499999993}},{"attributes":{"ID":163456,"DIS_CODE":0,"TOWNNAME":"中西區","LI":"仙草里","LIN":"6鄰","STREET":"五妃街","SECT":" ","MAREA":" ","LANE":" ","ALLEY":" ","HOUSE_NO":"２４６號","E_COORD97":167955.48999999999,"N_COORD97":2542608.1099999999,"ADDRESS":"五妃街２４６號","OBJECTID":163455},"geometry":{"x":167955.49000000022,"y":2542608.1099999994}},{"attributes":{"ID":163457,"DIS_CODE":0,"TOWNNAME":"中西區","LI":"仙草里","LIN":"6鄰","STREET":"五妃街","SECT":" ","MAREA":" ","LANE":" ","ALLEY":" ","HOUSE_NO":"２４８號","E_COORD97":167947.87,"N_COORD97":2542608.25,"ADDRESS":"五妃街２４８號","OBJECTID":163456},"geometry":{"x":167947.87000000011,"y":2542608.25}},{"attributes":{"ID":163458,"DIS_CODE":0,"TOWNNAME":"仁德區","LI":"太子里","LIN":"26鄰","STREET":"長興五街","SECT":" ","MAREA":" ","LANE":"１４巷","ALLEY":"６弄","HOUSE_NO":"６號","E_COORD97":173653.32000000001,"N_COORD97":2543574,"ADDRESS":"長興五街１４巷６弄６號","OBJECTID":163457},"geometry":{"x":173653.32000000123,"y":2543574.0000000019}},{"attributes":{"ID":163459,"DIS_CODE":0,"TOWNNAME":"中西區","LI":"五妃里","LIN":"8鄰","STREET":"南寧街","SECT":" ","MAREA":" ","LANE":" ","ALLEY":" ","HOUSE_NO":"１１號","E_COORD97":168520.20000000001,"N_COORD97":2542783.54,"ADDRESS":"南寧街１１號","OBJECTID":163458},"geometry":{"x":168520.20000000019,"y":2542783.540000001}},{"attributes":{"ID":163460,"DIS_CODE":0,"TOWNNAME":"中西區","LI":"五妃里","LIN":"8鄰","STREET":"南寧街","SECT":" ","MAREA":" ","LANE":" ","ALLEY":" ","HOUSE_NO":"１３號","E_COORD97":168515.09,"N_COORD97":2542784.3100000001,"ADDRESS":"南寧街１３號","OBJECTID":163459},"geometry":{"x":168515.09000000078,"y":2542784.3100000005}},{"attributes":{"ID":163461,"DIS_CODE":0,"TOWNNAME":"仁德區","LI":"後壁里","LIN":"32鄰","STREET":"德洋路","SECT":" ","MAREA":" ","LANE":"２０５巷","ALLEY":"３０弄","HOUSE_NO":"５號","E_COORD97":172412.79000000001,"N_COORD97":2539537.7599999998,"ADDRESS":"德洋路２０５巷３０弄５號","OBJECTID":163460},"geometry":{"x":172412.79000000097,"y":2539537.7600000016}},{"attributes":{"ID":163462,"DIS_CODE":0,"TOWNNAME":"中西區","LI":"五妃里","LIN":"8鄰","STREET":"南寧街","SECT":" ","MAREA":" ","LANE":" ","ALLEY":" ","HOUSE_NO":"１５號","E_COORD97":168512.67000000001,"N_COORD97":2542779.3399999999,"ADDRESS":"南寧街１５號","OBJECTID":163461},"geometry":{"x":168512.67000000086,"y":2542779.3399999999}},{"attributes":{"ID":163463,"DIS_CODE":0,"TOWNNAME":"永康區","LI":"埔園里","LIN":"4鄰","STREET":"聖龍街","SECT":" ","MAREA":" ","LANE":" ","ALLEY":" ","HOUSE_NO":"５９號","E_COORD97":173936.22,"N_COORD97":2547819.4900000002,"ADDRESS":"聖龍街５９號","OBJECTID":163462},"geometry":{"x":173936.2200000016,"y":2547819.4900000021}},{"attributes":{"ID":163464,"DIS_CODE":0,"TOWNNAME":"官田區","LI":"湖山里","LIN":"12鄰","STREET":" ","SECT":" ","MAREA":"烏山頭","LANE":" ","ALLEY":" ","HOUSE_NO":"７０號之５","E_COORD97":183444.64999999999,"N_COORD97":2567820.1400000001,"ADDRESS":"烏山頭７０號之５","OBJECTID":163463},"geometry":{"x":183444.6500000013,"y":2567820.1400000006}},{"attributes":{"ID":163465,"DIS_CODE":0,"TOWNNAME":"西港區","LI":"南海里","LIN":"18鄰","STREET":" ","SECT":" ","MAREA":"中港","LANE":" ","ALLEY":" ","HOUSE_NO":"８之９號","E_COORD97":167241.38,"N_COORD97":2556518.5,"ADDRESS":"中港８之９號","OBJECTID":163464},"geometry":{"x":167241.38000000082,"y":2556518.5000000019}},{"attributes":{"ID":163466,"DIS_CODE":0,"TOWNNAME":"西港區","LI":"南海里","LIN":"18鄰","STREET":" ","SECT":" ","MAREA":"中港","LANE":" ","ALLEY":" ","HOUSE_NO":"９號","E_COORD97":167274.84,"N_COORD97":2556508.96,"ADDRESS":"中港９號","OBJECTID":163465},"geometry":{"x":167274.83999999985,"y":2556508.9600000046}},{"attributes":{"ID":163467,"DIS_CODE":0,"TOWNNAME":"西港區","LI":"\u25A0林里","LIN":"18鄰","STREET":" ","SECT":" ","MAREA":"中周寮","LANE":" ","ALLEY":" ","HOUSE_NO":"１號之１１","E_COORD97":170696.28,"N_COORD97":2559378.8100000001,"ADDRESS":"中周寮１號之１１","OBJECTID":163466},"geometry":{"x":170696.28000000026,"y":2559378.8100000024}},{"attributes":{"ID":163468,"DIS_CODE":0,"TOWNNAME":"西港區","LI":"\u25A0林里","LIN":"18鄰","STREET":" ","SECT":" ","MAREA":"中周寮","LANE":" ","ALLEY":" ","HOUSE_NO":"１號之１","E_COORD97":170731.23000000001,"N_COORD97":2559356.8900000001,"ADDRESS":"中周寮１號之１","OBJECTID":163467},"geometry":{"x":170731.23000000231,"y":2559356.8900000043}},{"attributes":{"ID":163469,"DIS_CODE":0,"TOWNNAME":"西港區","LI":"\u25A0林里","LIN":"18鄰","STREET":" ","SECT":" ","MAREA":"中周寮","LANE":" ","ALLEY":" ","HOUSE_NO":"１號之２０","E_COORD97":170741.29999999999,"N_COORD97":2559515.6400000001,"ADDRESS":"中周寮１號之２０","OBJECTID":163468},"geometry":{"x":170741.29999999981,"y":2559515.6400000025}},{"attributes":{"ID":163470,"DIS_CODE":0,"TOWNNAME":"官田區","LI":"湖山里","LIN":"12鄰","STREET":" ","SECT":" ","MAREA":"烏山頭","LANE":" ","ALLEY":" ","HOUSE_NO":"７１號之１","E_COORD97":183503.04999999999,"N_COORD97":2567830.6800000002,"ADDRESS":"烏山頭７１號之１","OBJECTID":163469},"geometry":{"x":183503.04999999981,"y":2567830.6800000016}},{"attributes":{"ID":163471,"DIS_CODE":0,"TOWNNAME":"白河區","LI":"大竹里","LIN":"12鄰","STREET":" ","SECT":" ","MAREA":"大排竹","LANE":" ","ALLEY":" ","HOUSE_NO":"１９２之１８號","E_COORD97":189329.38,"N_COORD97":2584903.5,"ADDRESS":"大排竹１９２之１８號","OBJECTID":163470},"geometry":{"x":189329.38000000175,"y":2584903.5000000019}},{"attributes":{"ID":163472,"DIS_CODE":0,"TOWNNAME":"白河區","LI":"大竹里","LIN":"12鄰","STREET":" ","SECT":" ","MAREA":"大排竹","LANE":" ","ALLEY":" ","HOUSE_NO":"１９２之２號","E_COORD97":189552.32000000001,"N_COORD97":2584961.5600000001,"ADDRESS":"大排竹１９２之２號","OBJECTID":163471},"geometry":{"x":189552.32000000216,"y":2584961.5600000005}},{"attributes":{"ID":163473,"DIS_CODE":0,"TOWNNAME":"白河區","LI":"大竹里","LIN":"12鄰","STREET":" ","SECT":" ","MAREA":"大排竹","LANE":" ","ALLEY":" ","HOUSE_NO":"１９２之３號","E_COORD97":189532.92000000001,"N_COORD97":2584936.0600000001,"ADDRESS":"大排竹１９２之３號","OBJECTID":163472},"geometry":{"x":189532.92000000086,"y":2584936.0600000042}},{"attributes":{"ID":163474,"DIS_CODE":0,"TOWNNAME":"白河區","LI":"大竹里","LIN":"12鄰","STREET":" ","SECT":" ","MAREA":"大排竹","LANE":" ","ALLEY":" ","HOUSE_NO":"１９２之５號","E_COORD97":189662.67999999999,"N_COORD97":2585030.4300000002,"ADDRESS":"大排竹１９２之５號","OBJECTID":163473},"geometry":{"x":189662.68000000156,"y":2585030.4299999997}},{"attributes":{"ID":163475,"DIS_CODE":0,"TOWNNAME":"白河區","LI":"大竹里","LIN":"12鄰","STREET":" ","SECT":" ","MAREA":"大排竹","LANE":" ","ALLEY":" ","HOUSE_NO":"１９２之９號","E_COORD97":189415.76000000001,"N_COORD97":2584718.52,"ADDRESS":"大排竹１９２之９號","OBJECTID":163474},"geometry":{"x":189415.75999999978,"y":2584718.5200000033}},{"attributes":{"ID":163476,"DIS_CODE":0,"TOWNNAME":"白河區","LI":"大竹里","LIN":"12鄰","STREET":" ","SECT":" ","MAREA":"大排竹","LANE":" ","ALLEY":" ","HOUSE_NO":"１９２號","E_COORD97":189588.79000000001,"N_COORD97":2585023.1200000001,"ADDRESS":"大排竹１９２號","OBJECTID":163475},"geometry":{"x":189588.79000000004,"y":2585023.120000001}},{"attributes":{"ID":163477,"DIS_CODE":0,"TOWNNAME":"西港區","LI":"\u25A0林里","LIN":"18鄰","STREET":" ","SECT":" ","MAREA":"中周寮","LANE":" ","ALLEY":" ","HOUSE_NO":"１號之２１","E_COORD97":170740.87,"N_COORD97":2559502.8100000001,"ADDRESS":"中周寮１號之２１","OBJECTID":163476},"geometry":{"x":170740.87000000104,"y":2559502.8100000005}},{"attributes":{"ID":163478,"DIS_CODE":0,"TOWNNAME":"白河區","LI":"白河里","LIN":"12鄰","STREET":"中山路","SECT":" ","MAREA":" ","LANE":" ","ALLEY":" ","HOUSE_NO":"６０號","E_COORD97":190209.28,"N_COORD97":2583116.0099999998,"ADDRESS":"中山路６０號","OBJECTID":163477},"geometry":{"x":190209.28000000119,"y":2583116.0100000016}},{"attributes":{"ID":163479,"DIS_CODE":0,"TOWNNAME":"白河區","LI":"白河里","LIN":"12鄰","STREET":"中山路","SECT":" ","MAREA":" ","LANE":" ","ALLEY":" ","HOUSE_NO":"６２號","E_COORD97":190212.29999999999,"N_COORD97":2583123.8700000001,"ADDRESS":"中山路６２號","OBJECTID":163478},"geometry":{"x":190212.29999999981,"y":2583123.8699999992}},{"attributes":{"ID":163480,"DIS_CODE":0,"TOWNNAME":"白河區","LI":"白河里","LIN":"12鄰","STREET":"中山路","SECT":" ","MAREA":" ","LANE":" ","ALLEY":" ","HOUSE_NO":"６４號","E_COORD97":190214.41,"N_COORD97":2583130.8399999999,"ADDRESS":"中山路６４號","OBJECTID":163479},"geometry":{"x":190214.41000000108,"y":2583130.8400000017}},{"attributes":{"ID":163481,"DIS_CODE":0,"TOWNNAME":"白河區","LI":"白河里","LIN":"12鄰","STREET":"中山路","SECT":" ","MAREA":" ","LANE":" ","ALLEY":" ","HOUSE_NO":"６６號","E_COORD97":190215.59,"N_COORD97":2583136.71,"ADDRESS":"中山路６６號","OBJECTID":163480},"geometry":{"x":190215.58999999985,"y":2583136.7100000028}},{"attributes":{"ID":163482,"DIS_CODE":0,"TOWNNAME":"仁德區","LI":"保安里","LIN":"4鄰","STREET":"文賢路","SECT":"一段","MAREA":" ","LANE":"８６２巷","ALLEY":"６弄","HOUSE_NO":"１１號","E_COORD97":171433.48000000001,"N_COORD97":2536117.3199999998,"ADDRESS":"文賢路一段８６２巷６弄１１號","OBJECTID":163481},"geometry":{"x":171433.48000000138,"y":2536117.3200000022}},{"attributes":{"ID":163483,"DIS_CODE":0,"TOWNNAME":"仁德區","LI":"新田里","LIN":"5鄰","STREET":"勝利二街","SECT":" ","MAREA":" ","LANE":"１９巷","ALLEY":"１２弄","HOUSE_NO":"５號","E_COORD97":174932.54000000001,"N_COORD97":2539307.5099999998,"ADDRESS":"勝利二街１９巷１２弄５號","OBJECTID":163482},"geometry":{"x":174932.54000000004,"y":2539307.5099999998}},{"attributes":{"ID":163484,"DIS_CODE":0,"TOWNNAME":"仁德區","LI":"成功里","LIN":"18鄰","STREET":"全福路","SECT":" ","MAREA":" ","LANE":"７５巷","ALLEY":"１４弄","HOUSE_NO":"２１號","E_COORD97":171103.09,"N_COORD97":2539352.9900000002,"ADDRESS":"全福路７５巷１４弄２１號","OBJECTID":163483},"geometry":{"x":171103.09000000078,"y":2539352.9900000021}},{"attributes":{"ID":163485,"DIS_CODE":0,"TOWNNAME":"仁德區","LI":"後壁里","LIN":"32鄰","STREET":"德洋路","SECT":" ","MAREA":" ","LANE":"２２７巷","ALLEY":"２弄","HOUSE_NO":"２號","E_COORD97":172533.76000000001,"N_COORD97":2539576.27,"ADDRESS":"德洋路２２７巷２弄２號","OBJECTID":163484},"geometry":{"x":172533.75999999978,"y":2539576.2699999996}},{"attributes":{"ID":163486,"DIS_CODE":0,"TOWNNAME":"仁德區","LI":"後壁里","LIN":"32鄰","STREET":"德洋路","SECT":" ","MAREA":" ","LANE":"２２７巷","ALLEY":"２弄","HOUSE_NO":"１４號","E_COORD97":172507.51000000001,"N_COORD97":2539585.0099999998,"ADDRESS":"德洋路２２７巷２弄１４號","OBJECTID":163485},"geometry":{"x":172507.51000000071,"y":2539585.0099999998}},{"attributes":{"ID":163487,"DIS_CODE":0,"TOWNNAME":"仁德區","LI":"新田里","LIN":"4鄰","STREET":"勝利路","SECT":" ","MAREA":" ","LANE":"１３２巷","ALLEY":"１０弄","HOUSE_NO":"４２號","E_COORD97":174399.67999999999,"N_COORD97":2539466.4100000001,"ADDRESS":"勝利路１３２巷１０弄４２號","OBJECTID":163486},"geometry":{"x":174399.68000000063,"y":2539466.410000002}},{"attributes":{"ID":163488,"DIS_CODE":0,"TOWNNAME":"仁德區","LI":"新田里","LIN":"4鄰","STREET":"勝利路","SECT":" ","MAREA":" ","LANE":"１３２巷","ALLEY":"１２弄","HOUSE_NO":"１號","E_COORD97":174256.70886499999,"N_COORD97":2539467.5789000001,"ADDRESS":"勝利路１３２巷１２弄１號","OBJECTID":163487},"geometry":{"x":174256.70886499994,"y":2539467.5789010003}},{"attributes":{"ID":163489,"DIS_CODE":0,"TOWNNAME":"仁德區","LI":"新田里","LIN":"4鄰","STREET":"勝利路","SECT":" ","MAREA":" ","LANE":"１３２巷","ALLEY":"１２弄","HOUSE_NO":"４號","E_COORD97":174264.96801800001,"N_COORD97":2539446.7297499999,"ADDRESS":"勝利路１３２巷１２弄４號","OBJECTID":163488},"geometry":{"x":174264.96801800001,"y":2539446.7297450006}},{"attributes":{"ID":163490,"DIS_CODE":0,"TOWNNAME":"仁德區","LI":"後壁里","LIN":"36鄰","STREET":"民安路","SECT":"一段","MAREA":" ","LANE":"３１０巷","ALLEY":"３１弄","HOUSE_NO":"３號","E_COORD97":172783.48999999999,"N_COORD97":2539410.9500000002,"ADDRESS":"民安路一段３１０巷３１弄３號","OBJECTID":163489},"geometry":{"x":172783.49000000022,"y":2539410.9500000011}},{"attributes":{"ID":163491,"DIS_CODE":0,"TOWNNAME":"仁德區","LI":"後壁里","LIN":"18鄰","STREET":"德南路","SECT":" ","MAREA":" ","LANE":"７０巷","ALLEY":"４１弄","HOUSE_NO":"５號","E_COORD97":173388.26999999999,"N_COORD97":2538598.5099999998,"ADDRESS":"德南路７０巷４１弄５號","OBJECTID":163490},"geometry":{"x":173388.27000000048,"y":2538598.5099999998}},{"attributes":{"ID":163492,"DIS_CODE":0,"TOWNNAME":"白河區","LI":"白河里","LIN":"12鄰","STREET":"中山路","SECT":" ","MAREA":" ","LANE":" ","ALLEY":" ","HOUSE_NO":"６８號","E_COORD97":190216.72,"N_COORD97":2583139.1499999999,"ADDRESS":"中山路６８號","OBJECTID":163491},"geometry":{"x":190216.71999999881,"y":2583139.1500000022}},{"attributes":{"ID":163493,"DIS_CODE":0,"TOWNNAME":"白河區","LI":"白河里","LIN":"12鄰","STREET":"中山路","SECT":" ","MAREA":" ","LANE":" ","ALLEY":" ","HOUSE_NO":"７２號","E_COORD97":190219.63,"N_COORD97":2583144.8199999998,"ADDRESS":"中山路７２號","OBJECTID":163492},"geometry":{"x":190219.63000000082,"y":2583144.8200000022}},{"attributes":{"ID":163494,"DIS_CODE":0,"TOWNNAME":"西港區","LI":"\u25A0林里","LIN":"18鄰","STREET":" ","SECT":" ","MAREA":"中周寮","LANE":" ","ALLEY":" ","HOUSE_NO":"１號之３","E_COORD97":170736.70999999999,"N_COORD97":2559370.7599999998,"ADDRESS":"中周寮１號之３","OBJECTID":163493},"geometry":{"x":170736.71000000089,"y":2559370.7600000035}},{"attributes":{"ID":163495,"DIS_CODE":0,"TOWNNAME":"西港區","LI":"\u25A0林里","LIN":"18鄰","STREET":" ","SECT":" ","MAREA":"中周寮","LANE":" ","ALLEY":" ","HOUSE_NO":"１號之６","E_COORD97":170742.01999999999,"N_COORD97":2559405.2200000002,"ADDRESS":"中周寮１號之６","OBJECTID":163494},"geometry":{"x":170742.02000000142,"y":2559405.2200000007}},{"attributes":{"ID":163496,"DIS_CODE":0,"TOWNNAME":"西港區","LI":"\u25A0林里","LIN":"18鄰","STREET":" ","SECT":" ","MAREA":"中周寮","LANE":" ","ALLEY":" ","HOUSE_NO":"１號之７","E_COORD97":170719.20999999999,"N_COORD97":2559375.75,"ADDRESS":"中周寮１號之７","OBJECTID":163495},"geometry":{"x":170719.21000000089,"y":2559375.7500000019}},{"attributes":{"ID":163497,"DIS_CODE":0,"TOWNNAME":"仁德區","LI":"後壁里","LIN":"36鄰","STREET":"民安路","SECT":"一段","MAREA":" ","LANE":"３１０巷","ALLEY":"２９弄","HOUSE_NO":"１２號","E_COORD97":172815.32000000001,"N_COORD97":2539406.4500000002,"ADDRESS":"民安路一段３１０巷２９弄１２號","OBJECTID":163496},"geometry":{"x":172815.3200000003,"y":2539406.4500000011}},{"attributes":{"ID":163498,"DIS_CODE":0,"TOWNNAME":"仁德區","LI":"後壁里","LIN":"36鄰","STREET":"民安路","SECT":"一段","MAREA":" ","LANE":"３１０巷","ALLEY":"２９弄","HOUSE_NO":"１３號","E_COORD97":172839.88,"N_COORD97":2539426.9399999999,"ADDRESS":"民安路一段３１０巷２９弄１３號","OBJECTID":163497},"geometry":{"x":172839.87999999989,"y":2539426.9400000032}},{"attributes":{"ID":163499,"DIS_CODE":0,"TOWNNAME":"仁德區","LI":"後壁里","LIN":"18鄰","STREET":"德南路","SECT":" ","MAREA":" ","LANE":"７０巷","ALLEY":"４１弄","HOUSE_NO":"１號","E_COORD97":173380.95999999999,"N_COORD97":2538605.7599999998,"ADDRESS":"德南路７０巷４１弄１號","OBJECTID":163498},"geometry":{"x":173380.96000000089,"y":2538605.7600000016}},{"attributes":{"ID":163500,"DIS_CODE":0,"TOWNNAME":"仁德區","LI":"後壁里","LIN":"18鄰","STREET":"德南路","SECT":" ","MAREA":" ","LANE":"７０巷","ALLEY":"４１弄","HOUSE_NO":"１７號","E_COORD97":173416.72,"N_COORD97":2538630.7599999998,"ADDRESS":"德南路７０巷４１弄１７號","OBJECTID":163499},"geometry":{"x":173416.71999999974,"y":2538630.7599999998}},{"attributes":{"ID":163501,"DIS_CODE":0,"TOWNNAME":"仁德區","LI":"後壁里","LIN":"18鄰","STREET":"德南路","SECT":" ","MAREA":" ","LANE":"７０巷","ALLEY":"４１弄","HOUSE_NO":"１１號","E_COORD97":173407.09,"N_COORD97":2538621.5099999998,"ADDRESS":"德南路７０巷４１弄１１號","OBJECTID":163500},"geometry":{"x":173407.09000000078,"y":2538621.5099999998}},{"attributes":{"ID":163502,"DIS_CODE":0,"TOWNNAME":"仁德區","LI":"新田里","LIN":"4鄰","STREET":"勝利路","SECT":" ","MAREA":" ","LANE":"１３２巷","ALLEY":"１２弄","HOUSE_NO":"３６號","E_COORD97":174403.25588899999,"N_COORD97":2539420.1655899999,"ADDRESS":"勝利路１３２巷１２弄３６號","OBJECTID":163501},"geometry":{"x":174403.25588900037,"y":2539420.165593002}},{"attributes":{"ID":163503,"DIS_CODE":0,"TOWNNAME":"仁德區","LI":"新田里","LIN":"4鄰","STREET":"勝利路","SECT":" ","MAREA":" ","LANE":"１５０巷","ALLEY":"３弄","HOUSE_NO":"３號","E_COORD97":174405.17000000001,"N_COORD97":2539520.7599999998,"ADDRESS":"勝利路１５０巷３弄３號","OBJECTID":163502},"geometry":{"x":174405.17000000086,"y":2539520.7600000016}},{"attributes":{"ID":163504,"DIS_CODE":0,"TOWNNAME":"仁德區","LI":"新田里","LIN":"4鄰","STREET":"勝利路","SECT":" ","MAREA":" ","LANE":"１５０巷","ALLEY":"２弄","HOUSE_NO":"３號","E_COORD97":174384.35000000001,"N_COORD97":2539516.2599999998,"ADDRESS":"勝利路１５０巷２弄３號","OBJECTID":163503},"geometry":{"x":174384.35000000149,"y":2539516.2599999979}},{"attributes":{"ID":163505,"DIS_CODE":0,"TOWNNAME":"仁德區","LI":"新田里","LIN":"4鄰","STREET":"勝利路","SECT":" ","MAREA":" ","LANE":"１５０巷","ALLEY":"２弄","HOUSE_NO":"６號","E_COORD97":174381.32999999999,"N_COORD97":2539527.2599999998,"ADDRESS":"勝利路１５０巷２弄６號","OBJECTID":163504},"geometry":{"x":174381.33000000007,"y":2539527.2600000016}},{"attributes":{"ID":163506,"DIS_CODE":0,"TOWNNAME":"仁德區","LI":"新田里","LIN":"4鄰","STREET":"勝利路","SECT":" ","MAREA":" ","LANE":"１３２巷","ALLEY":"１０弄","HOUSE_NO":"３６號","E_COORD97":174378.07000000001,"N_COORD97":2539469.4100000001,"ADDRESS":"勝利路１３２巷１０弄３６號","OBJECTID":163505},"geometry":{"x":174378.0700000003,"y":2539469.410000002}},{"attributes":{"ID":163507,"DIS_CODE":0,"TOWNNAME":"仁德區","LI":"新田里","LIN":"4鄰","STREET":"勝利路","SECT":" ","MAREA":" ","LANE":"１３２巷","ALLEY":"１０弄","HOUSE_NO":"４５號","E_COORD97":174420.82999999999,"N_COORD97":2539477.1600000001,"ADDRESS":"勝利路１３２巷１０弄４５號","OBJECTID":163506},"geometry":{"x":174420.83000000101,"y":2539477.160000002}},{"attributes":{"ID":163508,"DIS_CODE":0,"TOWNNAME":"仁德區","LI":"新田里","LIN":"4鄰","STREET":"勝利路","SECT":" ","MAREA":" ","LANE":"１５０巷","ALLEY":"３弄","HOUSE_NO":"１２號","E_COORD97":174425.26000000001,"N_COORD97":2539507.77,"ADDRESS":"勝利路１５０巷３弄１２號","OBJECTID":163507},"geometry":{"x":174425.25999999978,"y":2539507.7699999996}},{"attributes":{"ID":163509,"DIS_CODE":0,"TOWNNAME":"仁德區","LI":"新田里","LIN":"4鄰","STREET":"勝利路","SECT":" ","MAREA":" ","LANE":"１５０巷","ALLEY":"３弄","HOUSE_NO":"１０號","E_COORD97":174420.70000000001,"N_COORD97":2539508.77,"ADDRESS":"勝利路１５０巷３弄１０號","OBJECTID":163508},"geometry":{"x":174420.70000000112,"y":2539508.7699999996}},{"attributes":{"ID":163510,"DIS_CODE":0,"TOWNNAME":"安南區","LI":"溪心里","LIN":"12鄰","STREET":"海佃路","SECT":"二段","MAREA":" ","LANE":" ","ALLEY":" ","HOUSE_NO":"６２２號","E_COORD97":166663.95999999999,"N_COORD97":2549322.7799999998,"ADDRESS":"海佃路二段６２２號","OBJECTID":163509},"geometry":{"x":166663.95999999996,"y":2549322.7799999993}},{"attributes":{"ID":163511,"DIS_CODE":0,"TOWNNAME":"安南區","LI":"頂安里","LIN":"12鄰","STREET":"怡安路","SECT":"一段","MAREA":" ","LANE":" ","ALLEY":" ","HOUSE_NO":"４５８號","E_COORD97":168558.17999999999,"N_COORD97":2549215.3599999999,"ADDRESS":"怡安路一段４５８號","OBJECTID":163510},"geometry":{"x":168558.18000000063,"y":2549215.3600000031}},{"attributes":{"ID":163512,"DIS_CODE":0,"TOWNNAME":"安南區","LI":"頂安里","LIN":"12鄰","STREET":"怡安路","SECT":"一段","MAREA":" ","LANE":" ","ALLEY":" ","HOUSE_NO":"４８２號","E_COORD97":168500.20000000001,"N_COORD97":2549233.3300000001,"ADDRESS":"怡安路一段４８２號","OBJECTID":163511},"geometry":{"x":168500.19999999925,"y":2549233.3300000038}},{"attributes":{"ID":163513,"DIS_CODE":0,"TOWNNAME":"安南區","LI":"頂安里","LIN":"12鄰","STREET":"怡安路","SECT":"一段","MAREA":" ","LANE":" ","ALLEY":" ","HOUSE_NO":"４９２號","E_COORD97":168472.73000000001,"N_COORD97":2549237.4300000002,"ADDRESS":"怡安路一段４９２號","OBJECTID":163512},"geometry":{"x":168472.73000000045,"y":2549237.4299999997}},{"attributes":{"ID":163514,"DIS_CODE":0,"TOWNNAME":"安南區","LI":"頂安里","LIN":"12鄰","STREET":"怡安路","SECT":"一段","MAREA":" ","LANE":" ","ALLEY":" ","HOUSE_NO":"４９４號","E_COORD97":168469.26999999999,"N_COORD97":2549239.4700000002,"ADDRESS":"怡安路一段４９４號","OBJECTID":163513},"geometry":{"x":168469.27000000048,"y":2549239.4700000044}},{"attributes":{"ID":163515,"DIS_CODE":0,"TOWNNAME":"安南區","LI":"頂安里","LIN":"12鄰","STREET":"怡安路","SECT":"一段","MAREA":" ","LANE":" ","ALLEY":" ","HOUSE_NO":"４９６號","E_COORD97":168464.67999999999,"N_COORD97":2549240.2400000002,"ADDRESS":"怡安路一段４９６號","OBJECTID":163514},"geometry":{"x":168464.68000000063,"y":2549240.2400000002}},{"attributes":{"ID":163516,"DIS_CODE":0,"TOWNNAME":"安南區","LI":"頂安里","LIN":"12鄰","STREET":"怡安路","SECT":"一段","MAREA":" ","LANE":" ","ALLEY":" ","HOUSE_NO":"４９８號","E_COORD97":168459.70000000001,"N_COORD97":2549241,"ADDRESS":"怡安路一段４９８號","OBJECTID":163515},"geometry":{"x":168459.70000000205,"y":2549241}},{"attributes":{"ID":163517,"DIS_CODE":0,"TOWNNAME":"南區","LI":"郡南里","LIN":"12鄰","STREET":"永吉街","SECT":" ","MAREA":" ","LANE":" ","ALLEY":" ","HOUSE_NO":"４８號","E_COORD97":167322.89000000001,"N_COORD97":2540677.21,"ADDRESS":"永吉街４８號","OBJECTID":163516},"geometry":{"x":167322.88999999966,"y":2540677.209999999}},{"attributes":{"ID":163518,"DIS_CODE":0,"TOWNNAME":"中西區","LI":"郡王里","LIN":"4鄰","STREET":"開山路","SECT":" ","MAREA":" ","LANE":" ","ALLEY":" ","HOUSE_NO":"２１２號","E_COORD97":168972.03,"N_COORD97":2542980.96,"ADDRESS":"開山路２１２號","OBJECTID":163517},"geometry":{"x":168972.03000000026,"y":2542980.959999999}},{"attributes":{"ID":163519,"DIS_CODE":0,"TOWNNAME":"中西區","LI":"仙草里","LIN":"14鄰","STREET":"府緯街","SECT":" ","MAREA":" ","LANE":" ","ALLEY":" ","HOUSE_NO":"６２號","E_COORD97":167812.79999999999,"N_COORD97":2542738.4700000002,"ADDRESS":"府緯街６２號","OBJECTID":163518},"geometry":{"x":167812.80000000168,"y":2542738.4700000025}},{"attributes":{"ID":163520,"DIS_CODE":0,"TOWNNAME":"中西區","LI":"法華里","LIN":"7鄰","STREET":"府連路","SECT":" ","MAREA":" ","LANE":" ","ALLEY":" ","HOUSE_NO":"１６號","E_COORD97":168984.07000000001,"N_COORD97":2542496.52,"ADDRESS":"府連路１６號","OBJECTID":163519},"geometry":{"x":168984.0700000003,"y":2542496.5199999996}},{"attributes":{"ID":163521,"DIS_CODE":0,"TOWNNAME":"中西區","LI":"法華里","LIN":"7鄰","STREET":"府連路","SECT":" ","MAREA":" ","LANE":" ","ALLEY":" ","HOUSE_NO":"１８號","E_COORD97":168985,"N_COORD97":2542501.6200000001,"ADDRESS":"府連路１８號","OBJECTID":163520},"geometry":{"x":168985.00000000093,"y":2542501.620000001}},{"attributes":{"ID":163522,"DIS_CODE":0,"TOWNNAME":"後壁區","LI":"長安里","LIN":"12鄰","STREET":" ","SECT":" ","MAREA":"中寮","LANE":" ","ALLEY":" ","HOUSE_NO":"１６４號","E_COORD97":184249.60999999999,"N_COORD97":2581429.0099999998,"ADDRESS":"中寮１６４號","OBJECTID":163521},"geometry":{"x":184249.61000000127,"y":2581429.0099999998}},{"attributes":{"ID":163523,"DIS_CODE":0,"TOWNNAME":"後壁區","LI":"長安里","LIN":"12鄰","STREET":" ","SECT":" ","MAREA":"中寮","LANE":" ","ALLEY":" ","HOUSE_NO":"１６５號","E_COORD97":184300.64000000001,"N_COORD97":2581437.77,"ADDRESS":"中寮１６５號","OBJECTID":163522},"geometry":{"x":184300.63999999966,"y":2581437.7699999996}},{"attributes":{"ID":163524,"DIS_CODE":0,"TOWNNAME":"西港區","LI":"\u25A0林里","LIN":"18鄰","STREET":" ","SECT":" ","MAREA":"中周寮","LANE":" ","ALLEY":" ","HOUSE_NO":"２號之１","E_COORD97":170684.94,"N_COORD97":2559351.8199999998,"ADDRESS":"中周寮２號之１","OBJECTID":163523},"geometry":{"x":170684.94000000041,"y":2559351.8200000022}},{"attributes":{"ID":163525,"DIS_CODE":0,"TOWNNAME":"西港區","LI":"\u25A0林里","LIN":"18鄰","STREET":" ","SECT":" ","MAREA":"中周寮","LANE":" ","ALLEY":" ","HOUSE_NO":"２號","E_COORD97":170703.56,"N_COORD97":2559326.48,"ADDRESS":"中周寮２號","OBJECTID":163524},"geometry":{"x":170703.55999999959,"y":2559326.4800000023}},{"attributes":{"ID":163526,"DIS_CODE":0,"TOWNNAME":"西港區","LI":"\u25A0林里","LIN":"18鄰","STREET":" ","SECT":" ","MAREA":"中周寮","LANE":" ","ALLEY":" ","HOUSE_NO":"３號之１","E_COORD97":170770.94,"N_COORD97":2559368.2400000002,"ADDRESS":"中周寮３號之１","OBJECTID":163525},"geometry":{"x":170770.94000000134,"y":2559368.2400000021}},{"attributes":{"ID":163527,"DIS_CODE":0,"TOWNNAME":"西港區","LI":"\u25A0林里","LIN":"18鄰","STREET":" ","SECT":" ","MAREA":"中周寮","LANE":" ","ALLEY":" ","HOUSE_NO":"３號","E_COORD97":170724.07999999999,"N_COORD97":2559296.6400000001,"ADDRESS":"中周寮３號","OBJECTID":163526},"geometry":{"x":170724.08000000101,"y":2559296.6400000006}},{"attributes":{"ID":163528,"DIS_CODE":0,"TOWNNAME":"西港區","LI":"\u25A0林里","LIN":"18鄰","STREET":" ","SECT":" ","MAREA":"中周寮","LANE":" ","ALLEY":" ","HOUSE_NO":"５號","E_COORD97":170647.67999999999,"N_COORD97":2559330.2799999998,"ADDRESS":"中周寮５號","OBJECTID":163527},"geometry":{"x":170647.67999999877,"y":2559330.2800000012}},{"attributes":{"ID":163529,"DIS_CODE":0,"TOWNNAME":"安南區","LI":"溪心里","LIN":"12鄰","STREET":"海佃路","SECT":"二段","MAREA":" ","LANE":" ","ALLEY":" ","HOUSE_NO":"６２０號","E_COORD97":166666.32000000001,"N_COORD97":2549318.3799999999,"ADDRESS":"海佃路二段６２０號","OBJECTID":163528},"geometry":{"x":166666.3200000003,"y":2549318.379999999}},{"attributes":{"ID":163530,"DIS_CODE":0,"TOWNNAME":"仁德區","LI":"新田里","LIN":"4鄰","STREET":"勝利路","SECT":" ","MAREA":" ","LANE":"１３２巷","ALLEY":"１０弄","HOUSE_NO":"４３號","E_COORD97":174415.04000000001,"N_COORD97":2539478.1600000001,"ADDRESS":"勝利路１３２巷１０弄４３號","OBJECTID":163529},"geometry":{"x":174415.04000000004,"y":2539478.160000002}},{"attributes":{"ID":163531,"DIS_CODE":0,"TOWNNAME":"仁德區","LI":"新田里","LIN":"4鄰","STREET":"勝利路","SECT":" ","MAREA":" ","LANE":"１３２巷","ALLEY":"１０弄","HOUSE_NO":"２３號","E_COORD97":174345.12,"N_COORD97":2539490.4100000001,"ADDRESS":"勝利路１３２巷１０弄２３號","OBJECTID":163530},"geometry":{"x":174345.12000000011,"y":2539490.4100000001}},{"attributes":{"ID":163532,"DIS_CODE":0,"TOWNNAME":"仁德區","LI":"新田里","LIN":"4鄰","STREET":"勝利路","SECT":" ","MAREA":" ","LANE":"１３２巷","ALLEY":"１０弄","HOUSE_NO":"２５號","E_COORD97":174352.53,"N_COORD97":2539488.9100000001,"ADDRESS":"勝利路１３２巷１０弄２５號","OBJECTID":163531},"geometry":{"x":174352.53000000026,"y":2539488.9100000039}},{"attributes":{"ID":163533,"DIS_CODE":0,"TOWNNAME":"仁德區","LI":"新田里","LIN":"4鄰","STREET":"勝利路","SECT":" ","MAREA":" ","LANE":"１５０巷","ALLEY":"３弄","HOUSE_NO":"５號","E_COORD97":174410.14999999999,"N_COORD97":2539519.7599999998,"ADDRESS":"勝利路１５０巷３弄５號","OBJECTID":163532},"geometry":{"x":174410.15000000037,"y":2539519.7600000035}},{"attributes":{"ID":163534,"DIS_CODE":0,"TOWNNAME":"仁德區","LI":"新田里","LIN":"4鄰","STREET":"勝利路","SECT":" ","MAREA":" ","LANE":"１５０巷","ALLEY":"３弄","HOUSE_NO":"７號","E_COORD97":174415.01000000001,"N_COORD97":2539519.5099999998,"ADDRESS":"勝利路１５０巷３弄７號","OBJECTID":163533},"geometry":{"x":174415.00999999978,"y":2539519.5100000016}},{"attributes":{"ID":163535,"DIS_CODE":0,"TOWNNAME":"仁德區","LI":"新田里","LIN":"17鄰","STREET":"北保東路","SECT":" ","MAREA":" ","LANE":"４６巷","ALLEY":"３弄","HOUSE_NO":"８號","E_COORD97":173522.26000000001,"N_COORD97":2539350.4900000002,"ADDRESS":"北保東路４６巷３弄８號","OBJECTID":163534},"geometry":{"x":173522.25999999885,"y":2539350.4900000021}},{"attributes":{"ID":163536,"DIS_CODE":0,"TOWNNAME":"安南區","LI":"溪心里","LIN":"12鄰","STREET":"海佃路","SECT":"二段","MAREA":" ","LANE":" ","ALLEY":" ","HOUSE_NO":"６２４號","E_COORD97":166661.64999999999,"N_COORD97":2549326.98,"ADDRESS":"海佃路二段６２４號","OBJECTID":163535},"geometry":{"x":166661.65000000224,"y":2549326.9800000004}},{"attributes":{"ID":163537,"DIS_CODE":0,"TOWNNAME":"安南區","LI":"溪心里","LIN":"12鄰","STREET":"海佃路","SECT":"二段","MAREA":" ","LANE":" ","ALLEY":" ","HOUSE_NO":"６２６號","E_COORD97":166659.85999999999,"N_COORD97":2549330.8700000001,"ADDRESS":"海佃路二段６２６號","OBJECTID":163536},"geometry":{"x":166659.86000000034,"y":2549330.870000001}},{"attributes":{"ID":163538,"DIS_CODE":0,"TOWNNAME":"安南區","LI":"溪心里","LIN":"12鄰","STREET":"海佃路","SECT":"二段","MAREA":" ","LANE":" ","ALLEY":" ","HOUSE_NO":"６２８號","E_COORD97":166658.91,"N_COORD97":2549336.0099999998,"ADDRESS":"海佃路二段６２８號","OBJECTID":163537},"geometry":{"x":166658.91000000015,"y":2549336.0099999998}},{"attributes":{"ID":163539,"DIS_CODE":0,"TOWNNAME":"安南區","LI":"溪心里","LIN":"12鄰","STREET":"海佃路","SECT":"二段","MAREA":" ","LANE":" ","ALLEY":" ","HOUSE_NO":"６３０號","E_COORD97":166656.92000000001,"N_COORD97":2549339.0600000001,"ADDRESS":"海佃路二段６３０號","OBJECTID":163538},"geometry":{"x":166656.91999999993,"y":2549339.0600000005}},{"attributes":{"ID":163540,"DIS_CODE":0,"TOWNNAME":"官田區","LI":"隆本里","LIN":"20鄰","STREET":"勝利路","SECT":" ","MAREA":" ","LANE":"２３２巷","ALLEY":"３弄","HOUSE_NO":"２２號","E_COORD97":180127.42000000001,"N_COORD97":2566252.96,"ADDRESS":"勝利路２３２巷３弄２２號","OBJECTID":163539},"geometry":{"x":180127.41999999993,"y":2566252.9600000046}},{"attributes":{"ID":163541,"DIS_CODE":0,"TOWNNAME":"官田區","LI":"隆本里","LIN":"20鄰","STREET":"勝利路","SECT":" ","MAREA":" ","LANE":"２３２巷","ALLEY":"３弄","HOUSE_NO":"２６號","E_COORD97":180126.87,"N_COORD97":2566246.0299999998,"ADDRESS":"勝利路２３２巷３弄２６號","OBJECTID":163540},"geometry":{"x":180126.87000000104,"y":2566246.0299999993}},{"attributes":{"ID":163542,"DIS_CODE":0,"TOWNNAME":"官田區","LI":"隆本里","LIN":"20鄰","STREET":"勝利路","SECT":" ","MAREA":" ","LANE":"２３２巷","ALLEY":"３弄","HOUSE_NO":"２號","E_COORD97":180122.20000000001,"N_COORD97":2566307.2999999998,"ADDRESS":"勝利路２３２巷３弄２號","OBJECTID":163541},"geometry":{"x":180122.20000000019,"y":2566307.3000000007}},{"attributes":{"ID":163543,"DIS_CODE":0,"TOWNNAME":"官田區","LI":"隆本里","LIN":"20鄰","STREET":"勝利路","SECT":" ","MAREA":" ","LANE":"２３２巷","ALLEY":"３弄","HOUSE_NO":"５號","E_COORD97":180136.09,"N_COORD97":2566281.23,"ADDRESS":"勝利路２３２巷３弄５號","OBJECTID":163542},"geometry":{"x":180136.08999999985,"y":2566281.2300000042}},{"attributes":{"ID":163544,"DIS_CODE":0,"TOWNNAME":"官田區","LI":"隆本里","LIN":"20鄰","STREET":"勝利路","SECT":" ","MAREA":" ","LANE":"２３２巷","ALLEY":"３弄","HOUSE_NO":"６號","E_COORD97":180122.57999999999,"N_COORD97":2566300.04,"ADDRESS":"勝利路２３２巷３弄６號","OBJECTID":163543},"geometry":{"x":180122.58000000007,"y":2566300.0399999991}},{"attributes":{"ID":163545,"DIS_CODE":0,"TOWNNAME":"安南區","LI":"溪心里","LIN":"12鄰","STREET":"海佃路","SECT":"二段","MAREA":" ","LANE":" ","ALLEY":" ","HOUSE_NO":"６３２號","E_COORD97":166654.31,"N_COORD97":2549342.71,"ADDRESS":"海佃路二段６３２號","OBJECTID":163544},"geometry":{"x":166654.30999999959,"y":2549342.7100000009}},{"attributes":{"ID":163546,"DIS_CODE":0,"TOWNNAME":"安南區","LI":"溪心里","LIN":"12鄰","STREET":"海佃路","SECT":"二段","MAREA":" ","LANE":" ","ALLEY":" ","HOUSE_NO":"６３４號","E_COORD97":166652.28,"N_COORD97":2549346.6200000001,"ADDRESS":"海佃路二段６３４號","OBJECTID":163545},"geometry":{"x":166652.28000000119,"y":2549346.620000001}},{"attributes":{"ID":163547,"DIS_CODE":0,"TOWNNAME":"安南區","LI":"溪心里","LIN":"12鄰","STREET":"海佃路","SECT":"二段","MAREA":" ","LANE":" ","ALLEY":" ","HOUSE_NO":"６３４號之１","E_COORD97":166651.88,"N_COORD97":2549352.6899999999,"ADDRESS":"海佃路二段６３４號之１","OBJECTID":163546},"geometry":{"x":166651.88000000082,"y":2549352.6900000013}},{"attributes":{"ID":163548,"DIS_CODE":0,"TOWNNAME":"安南區","LI":"溪心里","LIN":"12鄰","STREET":"海佃路","SECT":"二段","MAREA":" ","LANE":" ","ALLEY":" ","HOUSE_NO":"６４４號","E_COORD97":166629.25,"N_COORD97":2549377.7599999998,"ADDRESS":"海佃路二段６４４號","OBJECTID":163547},"geometry":{"x":166629.25,"y":2549377.7599999998}},{"attributes":{"ID":163549,"DIS_CODE":0,"TOWNNAME":"後壁區","LI":"福安里","LIN":"12鄰","STREET":" ","SECT":" ","MAREA":"下寮","LANE":" ","ALLEY":" ","HOUSE_NO":"１２５號","E_COORD97":184174.32999999999,"N_COORD97":2580880.2200000002,"ADDRESS":"下寮１２５號","OBJECTID":163548},"geometry":{"x":184174.33000000007,"y":2580880.2200000044}},{"attributes":{"ID":163550,"DIS_CODE":0,"TOWNNAME":"西港區","LI":"\u25A0林里","LIN":"18鄰","STREET":" ","SECT":" ","MAREA":"中周寮","LANE":" ","ALLEY":" ","HOUSE_NO":"６號","E_COORD97":170648.76000000001,"N_COORD97":2559297.6000000001,"ADDRESS":"中周寮６號","OBJECTID":163549},"geometry":{"x":170648.75999999978,"y":2559297.6000000015}},{"attributes":{"ID":163551,"DIS_CODE":0,"TOWNNAME":"西港區","LI":"南海里","LIN":"18鄰","STREET":" ","SECT":" ","MAREA":"中港","LANE":" ","ALLEY":" ","HOUSE_NO":"１０號","E_COORD97":167267.72,"N_COORD97":2556529.3300000001,"ADDRESS":"中港１０號","OBJECTID":163550},"geometry":{"x":167267.72000000067,"y":2556529.3300000038}},{"attributes":{"ID":163552,"DIS_CODE":0,"TOWNNAME":"西港區","LI":"南海里","LIN":"18鄰","STREET":" ","SECT":" ","MAREA":"中港","LANE":" ","ALLEY":" ","HOUSE_NO":"１１號之１","E_COORD97":167257.23000000001,"N_COORD97":2556566.0699999998,"ADDRESS":"中港１１號之１","OBJECTID":163551},"geometry":{"x":167257.23000000045,"y":2556566.0700000022}},{"attributes":{"ID":163553,"DIS_CODE":0,"TOWNNAME":"西港區","LI":"南海里","LIN":"18鄰","STREET":" ","SECT":" ","MAREA":"中港","LANE":" ","ALLEY":" ","HOUSE_NO":"１１號之２","E_COORD97":167281.19,"N_COORD97":2556586.6400000001,"ADDRESS":"中港１１號之２","OBJECTID":163552},"geometry":{"x":167281.19000000041,"y":2556586.6400000025}},{"attributes":{"ID":163554,"DIS_CODE":0,"TOWNNAME":"西港區","LI":"南海里","LIN":"18鄰","STREET":" ","SECT":" ","MAREA":"中港","LANE":" ","ALLEY":" ","HOUSE_NO":"１１號之３","E_COORD97":167300.45000000001,"N_COORD97":2556582.5800000001,"ADDRESS":"中港１１號之３","OBJECTID":163553},"geometry":{"x":167300.45000000112,"y":2556582.5800000019}},{"attributes":{"ID":163555,"DIS_CODE":0,"TOWNNAME":"西港區","LI":"南海里","LIN":"18鄰","STREET":" ","SECT":" ","MAREA":"中港","LANE":" ","ALLEY":" ","HOUSE_NO":"１１號之４","E_COORD97":167261.92999999999,"N_COORD97":2556585.1600000001,"ADDRESS":"中港１１號之４","OBJECTID":163554},"geometry":{"x":167261.9299999997,"y":2556585.160000002}},{"attributes":{"ID":163556,"DIS_CODE":0,"TOWNNAME":"西港區","LI":"南海里","LIN":"18鄰","STREET":" ","SECT":" ","MAREA":"中港","LANE":" ","ALLEY":" ","HOUSE_NO":"１１號之５","E_COORD97":167298.63,"N_COORD97":2556560.3300000001,"ADDRESS":"中港１１號之５","OBJECTID":163555},"geometry":{"x":167298.63000000175,"y":2556560.3300000019}},{"attributes":{"ID":163557,"DIS_CODE":0,"TOWNNAME":"西港區","LI":"南海里","LIN":"18鄰","STREET":" ","SECT":" ","MAREA":"中港","LANE":" ","ALLEY":" ","HOUSE_NO":"１１號之６","E_COORD97":167298.82000000001,"N_COORD97":2556554.8199999998,"ADDRESS":"中港１１號之６","OBJECTID":163556},"geometry":{"x":167298.8200000003,"y":2556554.8200000022}},{"attributes":{"ID":163558,"DIS_CODE":0,"TOWNNAME":"西港區","LI":"南海里","LIN":"18鄰","STREET":" ","SECT":" ","MAREA":"中港","LANE":" ","ALLEY":" ","HOUSE_NO":"１１號之７","E_COORD97":167297.42999999999,"N_COORD97":2556549.3700000001,"ADDRESS":"中港１１號之７","OBJECTID":163557},"geometry":{"x":167297.4299999997,"y":2556549.370000001}},{"attributes":{"ID":163559,"DIS_CODE":0,"TOWNNAME":"西港區","LI":"南海里","LIN":"18鄰","STREET":" ","SECT":" ","MAREA":"中港","LANE":" ","ALLEY":" ","HOUSE_NO":"１１號之８","E_COORD97":167296.79000000001,"N_COORD97":2556543.3999999999,"ADDRESS":"中港１１號之８","OBJECTID":163558},"geometry":{"x":167296.79000000097,"y":2556543.4000000022}},{"attributes":{"ID":163560,"DIS_CODE":0,"TOWNNAME":"西港區","LI":"南海里","LIN":"18鄰","STREET":" ","SECT":" ","MAREA":"中港","LANE":" ","ALLEY":" ","HOUSE_NO":"１１號","E_COORD97":167277.45000000001,"N_COORD97":2556561.7400000002,"ADDRESS":"中港１１號","OBJECTID":163559},"geometry":{"x":167277.45000000019,"y":2556561.7400000021}},{"attributes":{"ID":163561,"DIS_CODE":0,"TOWNNAME":"西港區","LI":"南海里","LIN":"18鄰","STREET":" ","SECT":" ","MAREA":"中港","LANE":" ","ALLEY":" ","HOUSE_NO":"１號之２","E_COORD97":167184.85000000001,"N_COORD97":2556517.1600000001,"ADDRESS":"中港１號之２","OBJECTID":163560},"geometry":{"x":167184.8499999987,"y":2556517.160000002}},{"attributes":{"ID":163562,"DIS_CODE":0,"TOWNNAME":"西港區","LI":"南海里","LIN":"18鄰","STREET":" ","SECT":" ","MAREA":"中港","LANE":" ","ALLEY":" ","HOUSE_NO":"２號之１","E_COORD97":167213.32999999999,"N_COORD97":2556500.3900000001,"ADDRESS":"中港２號之１","OBJECTID":163561},"geometry":{"x":167213.33000000101,"y":2556500.3900000025}},{"attributes":{"ID":163563,"DIS_CODE":0,"TOWNNAME":"將軍區","LI":"將貴里","LIN":"12鄰","STREET":" ","SECT":" ","MAREA":"將榮","LANE":" ","ALLEY":" ","HOUSE_NO":"４號","E_COORD97":161806.09,"N_COORD97":2568472.8700000001,"ADDRESS":"將榮４號","OBJECTID":163562},"geometry":{"x":161806.08999999985,"y":2568472.870000001}},{"attributes":{"ID":163564,"DIS_CODE":0,"TOWNNAME":"西港區","LI":"南海里","LIN":"18鄰","STREET":" ","SECT":" ","MAREA":"中港","LANE":" ","ALLEY":" ","HOUSE_NO":"３號之１","E_COORD97":167317.79999999999,"N_COORD97":2556462.6299999999,"ADDRESS":"中港３號之１","OBJECTID":163563},"geometry":{"x":167317.80000000168,"y":2556462.6300000008}},{"attributes":{"ID":163565,"DIS_CODE":0,"TOWNNAME":"西港區","LI":"南海里","LIN":"18鄰","STREET":" ","SECT":" ","MAREA":"中港","LANE":" ","ALLEY":" ","HOUSE_NO":"２之５號","E_COORD97":167223.37,"N_COORD97":2556532.6000000001,"ADDRESS":"中港２之５號","OBJECTID":163564},"geometry":{"x":167223.37000000104,"y":2556532.5999999996}},{"attributes":{"ID":163566,"DIS_CODE":0,"TOWNNAME":"西港區","LI":"南海里","LIN":"18鄰","STREET":" ","SECT":" ","MAREA":"中港","LANE":" ","ALLEY":" ","HOUSE_NO":"５號","E_COORD97":167194.53,"N_COORD97":2556549.0899999999,"ADDRESS":"中港５號","OBJECTID":163565},"geometry":{"x":167194.53000000212,"y":2556549.0900000017}},{"attributes":{"ID":163567,"DIS_CODE":0,"TOWNNAME":"西港區","LI":"南海里","LIN":"18鄰","STREET":" ","SECT":" ","MAREA":"中港","LANE":" ","ALLEY":" ","HOUSE_NO":"７號","E_COORD97":167240.89000000001,"N_COORD97":2556582.7799999998,"ADDRESS":"中港７號","OBJECTID":163566},"geometry":{"x":167240.8900000006,"y":2556582.7799999975}},{"attributes":{"ID":163568,"DIS_CODE":0,"TOWNNAME":"西港區","LI":"南海里","LIN":"18鄰","STREET":" ","SECT":" ","MAREA":"中港","LANE":" ","ALLEY":" ","HOUSE_NO":"８之１０號","E_COORD97":167239.63,"N_COORD97":2556513.8999999999,"ADDRESS":"中港８之１０號","OBJECTID":163567},"geometry":{"x":167239.63000000082,"y":2556513.9000000004}},{"attributes":{"ID":163569,"DIS_CODE":0,"TOWNNAME":"西港區","LI":"南海里","LIN":"18鄰","STREET":" ","SECT":" ","MAREA":"中港","LANE":" ","ALLEY":" ","HOUSE_NO":"８之１號","E_COORD97":167251.19,"N_COORD97":2556495.79,"ADDRESS":"中港８之１號","OBJECTID":163568},"geometry":{"x":167251.18999999948,"y":2556495.790000001}},{"attributes":{"ID":163570,"DIS_CODE":0,"TOWNNAME":"西港區","LI":"南海里","LIN":"18鄰","STREET":" ","SECT":" ","MAREA":"中港","LANE":" ","ALLEY":" ","HOUSE_NO":"８之２號","E_COORD97":167247.44,"N_COORD97":2556497.2400000002,"ADDRESS":"中港８之２號","OBJECTID":163569},"geometry":{"x":167247.44000000041,"y":2556497.2400000021}},{"attributes":{"ID":163571,"DIS_CODE":0,"TOWNNAME":"西港區","LI":"西港里","LIN":"18鄰","STREET":" ","SECT":" ","MAREA":"西港","LANE":" ","ALLEY":" ","HOUSE_NO":"５７號","E_COORD97":168523.20999999999,"N_COORD97":2557819.54,"ADDRESS":"西港５７號","OBJECTID":163570},"geometry":{"x":168523.20999999996,"y":2557819.540000001}},{"attributes":{"ID":163572,"DIS_CODE":0,"TOWNNAME":"西港區","LI":"營西里","LIN":"18鄰","STREET":" ","SECT":" ","MAREA":"後營","LANE":" ","ALLEY":" ","HOUSE_NO":"１４４號","E_COORD97":169821.5,"N_COORD97":2560557.1899999999,"ADDRESS":"後營１４４號","OBJECTID":163571},"geometry":{"x":169821.5,"y":2560557.1900000032}},{"attributes":{"ID":163573,"DIS_CODE":0,"TOWNNAME":"西港區","LI":"營西里","LIN":"18鄰","STREET":" ","SECT":" ","MAREA":"後營","LANE":" ","ALLEY":" ","HOUSE_NO":"１４５號","E_COORD97":169824.79999999999,"N_COORD97":2560575.8999999999,"ADDRESS":"後營１４５號","OBJECTID":163572},"geometry":{"x":169824.79999999888,"y":2560575.9000000004}},{"attributes":{"ID":163574,"DIS_CODE":0,"TOWNNAME":"西港區","LI":"營西里","LIN":"18鄰","STREET":" ","SECT":" ","MAREA":"後營","LANE":" ","ALLEY":" ","HOUSE_NO":"１３６號之１","E_COORD97":169689.44,"N_COORD97":2560594.5099999998,"ADDRESS":"後營１３６號之１","OBJECTID":163573},"geometry":{"x":169689.44000000134,"y":2560594.5099999998}},{"attributes":{"ID":163575,"DIS_CODE":0,"TOWNNAME":"西港區","LI":"營西里","LIN":"18鄰","STREET":" ","SECT":" ","MAREA":"後營","LANE":" ","ALLEY":" ","HOUSE_NO":"１３６號之２","E_COORD97":169683.92000000001,"N_COORD97":2560621.3399999999,"ADDRESS":"後營１３６號之２","OBJECTID":163574},"geometry":{"x":169683.92000000086,"y":2560621.3400000036}},{"attributes":{"ID":163576,"DIS_CODE":0,"TOWNNAME":"西港區","LI":"營西里","LIN":"18鄰","STREET":" ","SECT":" ","MAREA":"後營","LANE":" ","ALLEY":" ","HOUSE_NO":"１３６號之６","E_COORD97":169689.54000000001,"N_COORD97":2560575.5299999998,"ADDRESS":"後營１３６號之６","OBJECTID":163575},"geometry":{"x":169689.5400000019,"y":2560575.5300000012}},{"attributes":{"ID":163577,"DIS_CODE":0,"TOWNNAME":"西港區","LI":"營西里","LIN":"18鄰","STREET":" ","SECT":" ","MAREA":"後營","LANE":" ","ALLEY":" ","HOUSE_NO":"１３６號之８","E_COORD97":169708.85000000001,"N_COORD97":2560673.7999999998,"ADDRESS":"後營１３６號之８","OBJECTID":163576},"geometry":{"x":169708.84999999963,"y":2560673.8000000026}},{"attributes":{"ID":163578,"DIS_CODE":0,"TOWNNAME":"西港區","LI":"營西里","LIN":"18鄰","STREET":" ","SECT":" ","MAREA":"後營","LANE":" ","ALLEY":" ","HOUSE_NO":"１３６號","E_COORD97":169670.44,"N_COORD97":2560573.6299999999,"ADDRESS":"後營１３６號","OBJECTID":163577},"geometry":{"x":169670.44000000227,"y":2560573.629999999}},{"attributes":{"ID":163579,"DIS_CODE":0,"TOWNNAME":"西港區","LI":"營西里","LIN":"18鄰","STREET":" ","SECT":" ","MAREA":"後營","LANE":" ","ALLEY":" ","HOUSE_NO":"１３７號之１","E_COORD97":169630.97,"N_COORD97":2560565.0800000001,"ADDRESS":"後營１３７號之１","OBJECTID":163578},"geometry":{"x":169630.97000000067,"y":2560565.0800000001}},{"attributes":{"ID":163580,"DIS_CODE":0,"TOWNNAME":"西港區","LI":"營西里","LIN":"18鄰","STREET":" ","SECT":" ","MAREA":"後營","LANE":" ","ALLEY":" ","HOUSE_NO":"１３７號之２","E_COORD97":169587.48000000001,"N_COORD97":2560567.46,"ADDRESS":"後營１３７號之２","OBJECTID":163579},"geometry":{"x":169587.48000000138,"y":2560567.4600000028}},{"attributes":{"ID":163581,"DIS_CODE":0,"TOWNNAME":"西港區","LI":"營西里","LIN":"18鄰","STREET":" ","SECT":" ","MAREA":"後營","LANE":" ","ALLEY":" ","HOUSE_NO":"１３７號之３","E_COORD97":169609.29999999999,"N_COORD97":2560546.1400000001,"ADDRESS":"後營１３７號之３","OBJECTID":163580},"geometry":{"x":169609.29999999981,"y":2560546.1400000025}},{"attributes":{"ID":163582,"DIS_CODE":0,"TOWNNAME":"官田區","LI":"隆本里","LIN":"20鄰","STREET":"勝利路","SECT":" ","MAREA":" ","LANE":"２３２巷","ALLEY":"３弄","HOUSE_NO":"８號","E_COORD97":180122.70999999999,"N_COORD97":2566293.6699999999,"ADDRESS":"勝利路２３２巷３弄８號","OBJECTID":163581},"geometry":{"x":180122.71000000089,"y":2566293.6699999999}},{"attributes":{"ID":163583,"DIS_CODE":0,"TOWNNAME":"永康區","LI":"復華里","LIN":"24鄰","STREET":"國華街","SECT":" ","MAREA":" ","LANE":"１３２巷","ALLEY":"３弄","HOUSE_NO":"６號","E_COORD97":172834.99184999999,"N_COORD97":2546323.5839999998,"ADDRESS":"國華街１３２巷３弄６號","OBJECTID":163582},"geometry":{"x":172834.99185000081,"y":2546323.5839980002}},{"attributes":{"ID":163584,"DIS_CODE":0,"TOWNNAME":"新市區","LI":"新和里","LIN":"26鄰","STREET":"永福街","SECT":" ","MAREA":" ","LANE":"１５巷","ALLEY":"１１弄","HOUSE_NO":"３號","E_COORD97":177809.70000000001,"N_COORD97":2552653,"ADDRESS":"永福街１５巷１１弄３號","OBJECTID":163583},"geometry":{"x":177809.70000000019,"y":2552653.0000000037}},{"attributes":{"ID":163585,"DIS_CODE":0,"TOWNNAME":"新市區","LI":"新和里","LIN":"26鄰","STREET":"永福街","SECT":" ","MAREA":" ","LANE":"１６巷","ALLEY":"１８弄","HOUSE_NO":"２號","E_COORD97":177809.95000000001,"N_COORD97":2552715.25,"ADDRESS":"永福街１６巷１８弄２號","OBJECTID":163584},"geometry":{"x":177809.95000000019,"y":2552715.2499999981}},{"attributes":{"ID":163586,"DIS_CODE":0,"TOWNNAME":"新市區","LI":"新和里","LIN":"50鄰","STREET":"自強街","SECT":" ","MAREA":" ","LANE":"３４巷","ALLEY":"１弄","HOUSE_NO":"１９號","E_COORD97":177625.60000000001,"N_COORD97":2553520.25,"ADDRESS":"自強街３４巷１弄１９號","OBJECTID":163585},"geometry":{"x":177625.60000000149,"y":2553520.2500000019}},{"attributes":{"ID":163587,"DIS_CODE":0,"TOWNNAME":"新市區","LI":"新和里","LIN":"20鄰","STREET":"中正路","SECT":" ","MAREA":" ","LANE":"１１６巷","ALLEY":"２弄","HOUSE_NO":"４號","E_COORD97":177451.54000000001,"N_COORD97":2552557.75,"ADDRESS":"中正路１１６巷２弄４號","OBJECTID":163586},"geometry":{"x":177451.54000000004,"y":2552557.7500000019}},{"attributes":{"ID":163588,"DIS_CODE":0,"TOWNNAME":"新市區","LI":"新和里","LIN":"50鄰","STREET":"自強街","SECT":" ","MAREA":" ","LANE":"３４巷","ALLEY":"１弄","HOUSE_NO":"２１號","E_COORD97":177621.54999999999,"N_COORD97":2553519.25,"ADDRESS":"自強街３４巷１弄２１號","OBJECTID":163587},"geometry":{"x":177621.55000000075,"y":2553519.2500000037}},{"attributes":{"ID":163589,"DIS_CODE":0,"TOWNNAME":"新市區","LI":"新和里","LIN":"50鄰","STREET":"自強街","SECT":" ","MAREA":" ","LANE":"３４巷","ALLEY":"１弄","HOUSE_NO":"５號","E_COORD97":177653.79999999999,"N_COORD97":2553527.25,"ADDRESS":"自強街３４巷１弄５號","OBJECTID":163588},"geometry":{"x":177653.80000000075,"y":2553527.2500000019}},{"attributes":{"ID":163590,"DIS_CODE":0,"TOWNNAME":"新市區","LI":"新和里","LIN":"20鄰","STREET":"中正路","SECT":" ","MAREA":" ","LANE":"１１６巷","ALLEY":"２弄","HOUSE_NO":"８號","E_COORD97":177452.64999999999,"N_COORD97":2552547.75,"ADDRESS":"中正路１１６巷２弄８號","OBJECTID":163589},"geometry":{"x":177452.65000000037,"y":2552547.75}},{"attributes":{"ID":163591,"DIS_CODE":0,"TOWNNAME":"新市區","LI":"新和里","LIN":"26鄰","STREET":"永福街","SECT":" ","MAREA":" ","LANE":"１６巷","ALLEY":"１８弄","HOUSE_NO":"７號","E_COORD97":177827.57000000001,"N_COORD97":2552727.25,"ADDRESS":"永福街１６巷１８弄７號","OBJECTID":163590},"geometry":{"x":177827.5700000003,"y":2552727.2500000019}},{"attributes":{"ID":163592,"DIS_CODE":0,"TOWNNAME":"新市區","LI":"新市里","LIN":"26鄰","STREET":"復興路","SECT":" ","MAREA":" ","LANE":"６巷","ALLEY":"１９弄","HOUSE_NO":"１６號","E_COORD97":177891.37,"N_COORD97":2553410.5299999998,"ADDRESS":"復興路６巷１９弄１６號","OBJECTID":163591},"geometry":{"x":177891.37000000011,"y":2553410.5299999993}},{"attributes":{"ID":163593,"DIS_CODE":0,"TOWNNAME":"新市區","LI":"新和里","LIN":"50鄰","STREET":"自強街","SECT":" ","MAREA":" ","LANE":"３４巷","ALLEY":"１弄","HOUSE_NO":"１８號","E_COORD97":177636.69,"N_COORD97":2553535,"ADDRESS":"自強街３４巷１弄１８號","OBJECTID":163592},"geometry":{"x":177636.69000000134,"y":2553535.0000000019}},{"attributes":{"ID":163594,"DIS_CODE":0,"TOWNNAME":"新市區","LI":"新和里","LIN":"46鄰","STREET":"和平街","SECT":" ","MAREA":" ","LANE":"２０８巷","ALLEY":"１３弄","HOUSE_NO":"１０號","E_COORD97":177323.92999999999,"N_COORD97":2553278,"ADDRESS":"和平街２０８巷１３弄１０號","OBJECTID":163593},"geometry":{"x":177323.93000000063,"y":2553278.0000000019}},{"attributes":{"ID":163595,"DIS_CODE":0,"TOWNNAME":"新市區","LI":"新和里","LIN":"50鄰","STREET":"自強街","SECT":" ","MAREA":" ","LANE":"３４巷","ALLEY":"１弄","HOUSE_NO":"１號","E_COORD97":177663.29999999999,"N_COORD97":2553528.75,"ADDRESS":"自強街３４巷１弄１號","OBJECTID":163594},"geometry":{"x":177663.29999999981,"y":2553528.75}},{"attributes":{"ID":163596,"DIS_CODE":0,"TOWNNAME":"新市區","LI":"新和里","LIN":"20鄰","STREET":"中正路","SECT":" ","MAREA":" ","LANE":"１１６巷","ALLEY":"２弄","HOUSE_NO":"１２號","E_COORD97":177454.98999999999,"N_COORD97":2552537,"ADDRESS":"中正路１１６巷２弄１２號","OBJECTID":163595},"geometry":{"x":177454.99000000022,"y":2552537}},{"attributes":{"ID":163597,"DIS_CODE":0,"TOWNNAME":"新市區","LI":"新和里","LIN":"50鄰","STREET":"自強街","SECT":" ","MAREA":" ","LANE":"３４巷","ALLEY":"１弄","HOUSE_NO":"２０號","E_COORD97":177632.75,"N_COORD97":2553534.5,"ADDRESS":"自強街３４巷１弄２０號","OBJECTID":163596},"geometry":{"x":177632.75,"y":2553534.5000000037}},{"attributes":{"ID":163598,"DIS_CODE":0,"TOWNNAME":"新市區","LI":"新和里","LIN":"26鄰","STREET":"永福街","SECT":" ","MAREA":" ","LANE":"１５巷","ALLEY":"１１弄","HOUSE_NO":"５號","E_COORD97":177818.81,"N_COORD97":2552651,"ADDRESS":"永福街１５巷１１弄５號","OBJECTID":163597},"geometry":{"x":177818.80999999959,"y":2552651.0000000019}},{"attributes":{"ID":163599,"DIS_CODE":0,"TOWNNAME":"新市區","LI":"新和里","LIN":"50鄰","STREET":"自強街","SECT":" ","MAREA":" ","LANE":"３４巷","ALLEY":"１弄","HOUSE_NO":"２３號","E_COORD97":177617.14000000001,"N_COORD97":2553518.25,"ADDRESS":"自強街３４巷１弄２３號","OBJECTID":163598},"geometry":{"x":177617.1400000006,"y":2553518.25}},{"attributes":{"ID":163600,"DIS_CODE":0,"TOWNNAME":"新市區","LI":"新市里","LIN":"25鄰","STREET":"復興路","SECT":" ","MAREA":" ","LANE":"６巷","ALLEY":"２２弄","HOUSE_NO":"５號","E_COORD97":177902.57000000001,"N_COORD97":2553320.0299999998,"ADDRESS":"復興路６巷２２弄５號","OBJECTID":163599},"geometry":{"x":177902.5700000003,"y":2553320.0300000012}},{"attributes":{"ID":163601,"DIS_CODE":0,"TOWNNAME":"永康區","LI":"大灣里","LIN":"12鄰","STREET":"大灣路","SECT":" ","MAREA":" ","LANE":" ","ALLEY":" ","HOUSE_NO":"２７６號","E_COORD97":174945.41,"N_COORD97":2545314.8700000001,"ADDRESS":"大灣路２７６號","OBJECTID":163600},"geometry":{"x":174945.41000000015,"y":2545314.8700000029}}]}