{"displayFieldName":"TOWNNAME","fieldAliases":{"ID":"ID","DIS_CODE":"DIS_CODE","TOWNNAME":"TOWNNAME","LI":"LI","LIN":"LIN","STREET":"STREET","SECT":"SECT","MAREA":"MAREA","LANE":"LANE","ALLEY":"ALLEY","HOUSE_NO":"HOUSE_NO","E_COORD97":"E_COORD97","N_COORD97":"N_COORD97","ADDRESS":"ADDRESS","OBJECTID":"OBJECTID"},"geometryType":"esriGeometryPoint","spatialReference":{"wkid":102443,"latestWkid":3826},"fields":[{"name":"ID","type":"esriFieldTypeDouble","alias":"ID"},{"name":"DIS_CODE","type":"esriFieldTypeInteger","alias":"DIS_CODE"},{"name":"TOWNNAME","type":"esriFieldTypeString","alias":"TOWNNAME","length":8},{"name":"LI","type":"esriFieldTypeString","alias":"LI","length":8},{"name":"LIN","type":"esriFieldTypeString","alias":"LIN","length":12},{"name":"STREET","type":"esriFieldTypeString","alias":"STREET","length":20},{"name":"SECT","type":"esriFieldTypeString","alias":"SECT","length":8},{"name":"MAREA","type":"esriFieldTypeString","alias":"MAREA","length":12},{"name":"LANE","type":"esriFieldTypeString","alias":"LANE","length":10},{"name":"ALLEY","type":"esriFieldTypeString","alias":"ALLEY","length":10},{"name":"HOUSE_NO","type":"esriFieldTypeString","alias":"HOUSE_NO","length":20},{"name":"E_COORD97","type":"esriFieldTypeDouble","alias":"E_COORD97"},{"name":"N_COORD97","type":"esriFieldTypeDouble","alias":"N_COORD97"},{"name":"ADDRESS","type":"esriFieldTypeString","alias":"ADDRESS","length":50},{"name":"OBJECTID","type":"esriFieldTypeOID","alias":"OBJECTID"}],"features":[{"attributes":{"ID":111001,"DIS_CODE":0,"TOWNNAME":"大內區","LI":"頭社里","LIN":"9鄰","STREET":" ","SECT":" ","MAREA":"頭社","LANE":" ","ALLEY":" ","HOUSE_NO":"１１７號","E_COORD97":185815.48999999999,"N_COORD97":2561414.25,"ADDRESS":"頭社１１７號","OBJECTID":111001},"geometry":{"x":185815.49000000115,"y":2561414.25}},{"attributes":{"ID":111002,"DIS_CODE":0,"TOWNNAME":"大內區","LI":"環湖里","LIN":"9鄰","STREET":" ","SECT":" ","MAREA":"環湖","LANE":" ","ALLEY":" ","HOUSE_NO":"１３３之１號","E_COORD97":188760.79000000001,"N_COORD97":2561790.2999999998,"ADDRESS":"環湖１３３之１號","OBJECTID":111002},"geometry":{"x":188760.79000000097,"y":2561790.3000000007}},{"attributes":{"ID":111003,"DIS_CODE":0,"TOWNNAME":"大內區","LI":"環湖里","LIN":"9鄰","STREET":" ","SECT":" ","MAREA":"環湖","LANE":" ","ALLEY":" ","HOUSE_NO":"１３０號之５","E_COORD97":189145.48000000001,"N_COORD97":2561499.2999999998,"ADDRESS":"環湖１３０號之５","OBJECTID":111003},"geometry":{"x":189145.48000000045,"y":2561499.3000000007}},{"attributes":{"ID":111004,"DIS_CODE":0,"TOWNNAME":"大內區","LI":"環湖里","LIN":"9鄰","STREET":" ","SECT":" ","MAREA":"環湖","LANE":" ","ALLEY":" ","HOUSE_NO":"１２５號","E_COORD97":190247.29000000001,"N_COORD97":2560740.25,"ADDRESS":"環湖１２５號","OBJECTID":111004},"geometry":{"x":190247.29000000097,"y":2560740.2499999981}},{"attributes":{"ID":111005,"DIS_CODE":0,"TOWNNAME":"大內區","LI":"石林里","LIN":"9鄰","STREET":" ","SECT":" ","MAREA":"石子瀨","LANE":" ","ALLEY":" ","HOUSE_NO":"２０１號之２","E_COORD97":184176.84,"N_COORD97":2558108.2999999998,"ADDRESS":"石子瀨２０１號之２","OBJECTID":111005},"geometry":{"x":184176.84000000078,"y":2558108.3000000026}},{"attributes":{"ID":111006,"DIS_CODE":0,"TOWNNAME":"大內區","LI":"環湖里","LIN":"9鄰","STREET":" ","SECT":" ","MAREA":"環湖","LANE":" ","ALLEY":" ","HOUSE_NO":"１２５號之１","E_COORD97":190211.63,"N_COORD97":2560725.2999999998,"ADDRESS":"環湖１２５號之１","OBJECTID":111006},"geometry":{"x":190211.62999999989,"y":2560725.3000000026}},{"attributes":{"ID":111007,"DIS_CODE":0,"TOWNNAME":"大內區","LI":"環湖里","LIN":"9鄰","STREET":" ","SECT":" ","MAREA":"環湖","LANE":" ","ALLEY":" ","HOUSE_NO":"１２６號","E_COORD97":190196.89000000001,"N_COORD97":2560726.25,"ADDRESS":"環湖１２６號","OBJECTID":111007},"geometry":{"x":190196.89000000153,"y":2560726.25}},{"attributes":{"ID":111008,"DIS_CODE":0,"TOWNNAME":"大內區","LI":"環湖里","LIN":"9鄰","STREET":" ","SECT":" ","MAREA":"環湖","LANE":" ","ALLEY":" ","HOUSE_NO":"１１８號之１","E_COORD97":190336.82999999999,"N_COORD97":2560778.2999999998,"ADDRESS":"環湖１１８號之１","OBJECTID":111008},"geometry":{"x":190336.83000000194,"y":2560778.3000000045}},{"attributes":{"ID":111009,"DIS_CODE":0,"TOWNNAME":"新化區","LI":"\u25A0拔里","LIN":"1鄰","STREET":" ","SECT":" ","MAREA":"\u25A0拔林","LANE":" ","ALLEY":" ","HOUSE_NO":"１２號之５","E_COORD97":183039.92999999999,"N_COORD97":2551868.2599999998,"ADDRESS":"\u25A0拔林１２號之５","OBJECTID":111009},"geometry":{"x":183039.93000000063,"y":2551868.2600000016}},{"attributes":{"ID":111010,"DIS_CODE":0,"TOWNNAME":"新化區","LI":"知義里","LIN":"1鄰","STREET":" ","SECT":" ","MAREA":"知母義","LANE":" ","ALLEY":" ","HOUSE_NO":"１０號之２","E_COORD97":179513.42999999999,"N_COORD97":2547001.2599999998,"ADDRESS":"知母義１０號之２","OBJECTID":111010},"geometry":{"x":179513.4299999997,"y":2547001.2599999998}},{"attributes":{"ID":111011,"DIS_CODE":0,"TOWNNAME":"新化區","LI":"\u25A0拔里","LIN":"1鄰","STREET":" ","SECT":" ","MAREA":"\u25A0拔林","LANE":" ","ALLEY":" ","HOUSE_NO":"２１號之２","E_COORD97":183178.73000000001,"N_COORD97":2551840.2599999998,"ADDRESS":"\u25A0拔林２１號之２","OBJECTID":111011},"geometry":{"x":183178.73000000045,"y":2551840.2599999979}},{"attributes":{"ID":111012,"DIS_CODE":0,"TOWNNAME":"新化區","LI":"知義里","LIN":"1鄰","STREET":" ","SECT":" ","MAREA":"知母義","LANE":" ","ALLEY":" ","HOUSE_NO":"１７４號之５","E_COORD97":179653.67999999999,"N_COORD97":2547090.2599999998,"ADDRESS":"知母義１７４號之５","OBJECTID":111012},"geometry":{"x":179653.6799999997,"y":2547090.2599999998}},{"attributes":{"ID":111013,"DIS_CODE":0,"TOWNNAME":"新化區","LI":"知義里","LIN":"1鄰","STREET":" ","SECT":" ","MAREA":"知母義","LANE":" ","ALLEY":" ","HOUSE_NO":"４７號之１","E_COORD97":179681.39999999999,"N_COORD97":2546999.2599999998,"ADDRESS":"知母義４７號之１","OBJECTID":111013},"geometry":{"x":179681.4000000013,"y":2546999.2600000035}},{"attributes":{"ID":111014,"DIS_CODE":0,"TOWNNAME":"新化區","LI":"\u25A0拔里","LIN":"1鄰","STREET":" ","SECT":" ","MAREA":"\u25A0拔林","LANE":" ","ALLEY":" ","HOUSE_NO":"３１號之２","E_COORD97":183196.92999999999,"N_COORD97":2551923.2599999998,"ADDRESS":"\u25A0拔林３１號之２","OBJECTID":111014},"geometry":{"x":183196.9299999997,"y":2551923.2600000016}},{"attributes":{"ID":111015,"DIS_CODE":0,"TOWNNAME":"新化區","LI":"羊林里","LIN":"1鄰","STREET":" ","SECT":" ","MAREA":"\u25A0拔林","LANE":" ","ALLEY":" ","HOUSE_NO":"３７８號","E_COORD97":183593.12,"N_COORD97":2551785.25,"ADDRESS":"\u25A0拔林３７８號","OBJECTID":111015},"geometry":{"x":183593.12000000197,"y":2551785.25}},{"attributes":{"ID":111016,"DIS_CODE":0,"TOWNNAME":"新化區","LI":"羊林里","LIN":"1鄰","STREET":" ","SECT":" ","MAREA":"\u25A0拔林","LANE":" ","ALLEY":" ","HOUSE_NO":"３８１號","E_COORD97":183598.82000000001,"N_COORD97":2551835.25,"ADDRESS":"\u25A0拔林３８１號","OBJECTID":111016},"geometry":{"x":183598.82000000123,"y":2551835.2500000019}},{"attributes":{"ID":111017,"DIS_CODE":0,"TOWNNAME":"大內區","LI":"環湖里","LIN":"9鄰","STREET":" ","SECT":" ","MAREA":"環湖","LANE":" ","ALLEY":" ","HOUSE_NO":"１１５號之１","E_COORD97":190375.53,"N_COORD97":2560751.2999999998,"ADDRESS":"環湖１１５號之１","OBJECTID":111017},"geometry":{"x":190375.53000000026,"y":2560751.3000000045}},{"attributes":{"ID":111018,"DIS_CODE":0,"TOWNNAME":"永康區","LI":"復興里","LIN":"9鄰","STREET":"復興路","SECT":" ","MAREA":" ","LANE":"２７７巷","ALLEY":"６弄","HOUSE_NO":"８號","E_COORD97":172300.91,"N_COORD97":2544257.27,"ADDRESS":"復興路２７７巷６弄８號","OBJECTID":111018},"geometry":{"x":172300.91000000015,"y":2544257.2700000014}},{"attributes":{"ID":111019,"DIS_CODE":0,"TOWNNAME":"永康區","LI":"復興里","LIN":"9鄰","STREET":"復興路","SECT":" ","MAREA":" ","LANE":"２７７巷","ALLEY":"４弄","HOUSE_NO":"８號","E_COORD97":172290.28,"N_COORD97":2544283.27,"ADDRESS":"復興路２７７巷４弄８號","OBJECTID":111019},"geometry":{"x":172290.28000000212,"y":2544283.2700000033}},{"attributes":{"ID":111020,"DIS_CODE":0,"TOWNNAME":"仁德區","LI":"上崙里","LIN":"9鄰","STREET":"民安路","SECT":"二段","MAREA":" ","LANE":"３８２巷","ALLEY":"５３弄","HOUSE_NO":"６號","E_COORD97":173975.51999999999,"N_COORD97":2538631.7799999998,"ADDRESS":"民安路二段３８２巷５３弄６號","OBJECTID":111020},"geometry":{"x":173975.51999999955,"y":2538631.7800000012}},{"attributes":{"ID":111021,"DIS_CODE":0,"TOWNNAME":"仁德區","LI":"上崙里","LIN":"9鄰","STREET":"民安路","SECT":"二段","MAREA":" ","LANE":"３８２巷","ALLEY":"５３弄","HOUSE_NO":"１１號","E_COORD97":173996.10000000001,"N_COORD97":2538628.0299999998,"ADDRESS":"民安路二段３８２巷５３弄１１號","OBJECTID":111021},"geometry":{"x":173996.0999999987,"y":2538628.0299999993}},{"attributes":{"ID":111022,"DIS_CODE":0,"TOWNNAME":"仁德區","LI":"上崙里","LIN":"9鄰","STREET":"德善路","SECT":" ","MAREA":" ","LANE":"３０５巷","ALLEY":"１３弄","HOUSE_NO":"２５號","E_COORD97":174046.38,"N_COORD97":2538498.1600000001,"ADDRESS":"德善路３０５巷１３弄２５號","OBJECTID":111022},"geometry":{"x":174046.37999999989,"y":2538498.160000002}},{"attributes":{"ID":111023,"DIS_CODE":0,"TOWNNAME":"仁德區","LI":"上崙里","LIN":"9鄰","STREET":"德善路","SECT":" ","MAREA":" ","LANE":"３０５巷","ALLEY":"１３弄","HOUSE_NO":"９號","E_COORD97":174029.67000000001,"N_COORD97":2538555.71,"ADDRESS":"德善路３０５巷１３弄９號","OBJECTID":111023},"geometry":{"x":174029.66999999993,"y":2538555.7100000028}},{"attributes":{"ID":111024,"DIS_CODE":0,"TOWNNAME":"仁德區","LI":"上崙里","LIN":"9鄰","STREET":"德善路","SECT":" ","MAREA":" ","LANE":"３０５巷","ALLEY":"１３弄","HOUSE_NO":"５號","E_COORD97":174021.17999999999,"N_COORD97":2538559.02,"ADDRESS":"德善路３０５巷１３弄５號","OBJECTID":111024},"geometry":{"x":174021.18000000156,"y":2538559.0200000014}},{"attributes":{"ID":111025,"DIS_CODE":0,"TOWNNAME":"仁德區","LI":"上崙里","LIN":"9鄰","STREET":"德善路","SECT":" ","MAREA":" ","LANE":"３０５巷","ALLEY":"１３弄","HOUSE_NO":"３０號","E_COORD97":174013.60000000001,"N_COORD97":2538500.5299999998,"ADDRESS":"德善路３０５巷１３弄３０號","OBJECTID":111025},"geometry":{"x":174013.60000000056,"y":2538500.5300000031}},{"attributes":{"ID":111026,"DIS_CODE":0,"TOWNNAME":"仁德區","LI":"上崙里","LIN":"9鄰","STREET":"民安路","SECT":"二段","MAREA":" ","LANE":"３８２巷","ALLEY":"５１弄","HOUSE_NO":"１號","E_COORD97":174008.32000000001,"N_COORD97":2538674.0699999998,"ADDRESS":"民安路二段３８２巷５１弄１號","OBJECTID":111026},"geometry":{"x":174008.3200000003,"y":2538674.070000004}},{"attributes":{"ID":111027,"DIS_CODE":0,"TOWNNAME":"仁德區","LI":"上崙里","LIN":"9鄰","STREET":"德善路","SECT":" ","MAREA":" ","LANE":"３０５巷","ALLEY":"１３弄","HOUSE_NO":"６２號","E_COORD97":174028.14000000001,"N_COORD97":2538453.79,"ADDRESS":"德善路３０５巷１３弄６２號","OBJECTID":111027},"geometry":{"x":174028.14000000153,"y":2538453.7899999991}},{"attributes":{"ID":111028,"DIS_CODE":0,"TOWNNAME":"仁德區","LI":"上崙里","LIN":"9鄰","STREET":"德善路","SECT":" ","MAREA":" ","LANE":"３０５巷","ALLEY":"１３弄","HOUSE_NO":"３６號","E_COORD97":174018.03,"N_COORD97":2538485.5299999998,"ADDRESS":"德善路３０５巷１３弄３６號","OBJECTID":111028},"geometry":{"x":174018.03000000119,"y":2538485.5299999993}},{"attributes":{"ID":111029,"DIS_CODE":0,"TOWNNAME":"歸仁區","LI":"後市里","LIN":"8鄰","STREET":"中山五街","SECT":" ","MAREA":" ","LANE":" ","ALLEY":" ","HOUSE_NO":"５９號","E_COORD97":177101.48999999999,"N_COORD97":2540667.25,"ADDRESS":"中山五街５９號","OBJECTID":111029},"geometry":{"x":177101.49000000209,"y":2540667.2500000019}},{"attributes":{"ID":111030,"DIS_CODE":0,"TOWNNAME":"歸仁區","LI":"歸仁里","LIN":"8鄰","STREET":"大通一街","SECT":" ","MAREA":" ","LANE":" ","ALLEY":" ","HOUSE_NO":"１０９號","E_COORD97":177895.26000000001,"N_COORD97":2540997.4900000002,"ADDRESS":"大通一街１０９號","OBJECTID":111030},"geometry":{"x":177895.25999999978,"y":2540997.4900000021}},{"attributes":{"ID":111031,"DIS_CODE":0,"TOWNNAME":"歸仁區","LI":"歸仁里","LIN":"8鄰","STREET":"大通一街","SECT":" ","MAREA":" ","LANE":" ","ALLEY":" ","HOUSE_NO":"８１號","E_COORD97":177877.41,"N_COORD97":2540955.4900000002,"ADDRESS":"大通一街８１號","OBJECTID":111031},"geometry":{"x":177877.41000000108,"y":2540955.4900000002}},{"attributes":{"ID":111032,"DIS_CODE":0,"TOWNNAME":"歸仁區","LI":"歸仁里","LIN":"8鄰","STREET":"大通一街","SECT":" ","MAREA":" ","LANE":" ","ALLEY":" ","HOUSE_NO":"７３號","E_COORD97":177899.91,"N_COORD97":2540952.4900000002,"ADDRESS":"大通一街７３號","OBJECTID":111032},"geometry":{"x":177899.91000000015,"y":2540952.4900000002}},{"attributes":{"ID":111033,"DIS_CODE":0,"TOWNNAME":"歸仁區","LI":"新厝里","LIN":"8鄰","STREET":"和平南街","SECT":" ","MAREA":" ","LANE":" ","ALLEY":" ","HOUSE_NO":"９２號","E_COORD97":177801.32000000001,"N_COORD97":2540543.27,"ADDRESS":"和平南街９２號","OBJECTID":111033},"geometry":{"x":177801.32000000123,"y":2540543.2699999977}},{"attributes":{"ID":111034,"DIS_CODE":0,"TOWNNAME":"歸仁區","LI":"歸仁里","LIN":"8鄰","STREET":"和平北街","SECT":" ","MAREA":" ","LANE":" ","ALLEY":" ","HOUSE_NO":"３８號","E_COORD97":177853.60000000001,"N_COORD97":2540915.48,"ADDRESS":"和平北街３８號","OBJECTID":111034},"geometry":{"x":177853.60000000056,"y":2540915.4800000004}},{"attributes":{"ID":111035,"DIS_CODE":0,"TOWNNAME":"歸仁區","LI":"新厝里","LIN":"8鄰","STREET":"和平南街","SECT":" ","MAREA":" ","LANE":" ","ALLEY":" ","HOUSE_NO":"９６號","E_COORD97":177801.32000000001,"N_COORD97":2540540.27,"ADDRESS":"和平南街９６號","OBJECTID":111035},"geometry":{"x":177801.32000000123,"y":2540540.2700000033}},{"attributes":{"ID":111036,"DIS_CODE":0,"TOWNNAME":"鹽水區","LI":"田寮里","LIN":"1鄰","STREET":" ","SECT":" ","MAREA":"田寮","LANE":" ","ALLEY":" ","HOUSE_NO":"１０號","E_COORD97":171041.10999999999,"N_COORD97":2575125.7599999998,"ADDRESS":"田寮１０號","OBJECTID":111036},"geometry":{"x":171041.11000000127,"y":2575125.7600000035}},{"attributes":{"ID":111037,"DIS_CODE":0,"TOWNNAME":"鹽水區","LI":"田寮里","LIN":"1鄰","STREET":" ","SECT":" ","MAREA":"田寮","LANE":" ","ALLEY":" ","HOUSE_NO":"１２號","E_COORD97":171079.70000000001,"N_COORD97":2575110.3500000001,"ADDRESS":"田寮１２號","OBJECTID":111037},"geometry":{"x":171079.70000000019,"y":2575110.3499999996}},{"attributes":{"ID":111038,"DIS_CODE":0,"TOWNNAME":"鹽水區","LI":"田寮里","LIN":"1鄰","STREET":" ","SECT":" ","MAREA":"田寮","LANE":" ","ALLEY":" ","HOUSE_NO":"１３號","E_COORD97":171034.84,"N_COORD97":2575087.1499999999,"ADDRESS":"田寮１３號","OBJECTID":111038},"geometry":{"x":171034.83999999985,"y":2575087.1500000022}},{"attributes":{"ID":111039,"DIS_CODE":0,"TOWNNAME":"鹽水區","LI":"田寮里","LIN":"1鄰","STREET":" ","SECT":" ","MAREA":"田寮","LANE":" ","ALLEY":" ","HOUSE_NO":"１號","E_COORD97":171159.5,"N_COORD97":2575166.2400000002,"ADDRESS":"田寮１號","OBJECTID":111039},"geometry":{"x":171159.50000000186,"y":2575166.2400000002}},{"attributes":{"ID":111040,"DIS_CODE":0,"TOWNNAME":"鹽水區","LI":"田寮里","LIN":"1鄰","STREET":" ","SECT":" ","MAREA":"田寮","LANE":" ","ALLEY":" ","HOUSE_NO":"２號","E_COORD97":171144.87,"N_COORD97":2575129.4199999999,"ADDRESS":"田寮２號","OBJECTID":111040},"geometry":{"x":171144.87000000011,"y":2575129.4200000018}},{"attributes":{"ID":111041,"DIS_CODE":0,"TOWNNAME":"仁德區","LI":"上崙里","LIN":"9鄰","STREET":"德善路","SECT":" ","MAREA":" ","LANE":"３０５巷","ALLEY":"１３弄","HOUSE_NO":"５３號","E_COORD97":174062.48999999999,"N_COORD97":2538461.6699999999,"ADDRESS":"德善路３０５巷１３弄５３號","OBJECTID":111041},"geometry":{"x":174062.49000000115,"y":2538461.6699999999}},{"attributes":{"ID":111042,"DIS_CODE":0,"TOWNNAME":"鹽水區","LI":"田寮里","LIN":"1鄰","STREET":" ","SECT":" ","MAREA":"田寮","LANE":" ","ALLEY":" ","HOUSE_NO":"７之１號","E_COORD97":171059.14999999999,"N_COORD97":2575130.0499999998,"ADDRESS":"田寮７之１號","OBJECTID":111042},"geometry":{"x":171059.1500000013,"y":2575130.0500000007}},{"attributes":{"ID":111043,"DIS_CODE":0,"TOWNNAME":"仁德區","LI":"上崙里","LIN":"9鄰","STREET":"民安路","SECT":"二段","MAREA":" ","LANE":"３８２巷","ALLEY":"５３弄","HOUSE_NO":"２７號","E_COORD97":174027.06,"N_COORD97":2538591,"ADDRESS":"民安路二段３８２巷５３弄２７號","OBJECTID":111043},"geometry":{"x":174027.06000000145,"y":2538591.0000000019}},{"attributes":{"ID":111044,"DIS_CODE":0,"TOWNNAME":"鹽水區","LI":"田寮里","LIN":"1鄰","STREET":" ","SECT":" ","MAREA":"田寮","LANE":" ","ALLEY":" ","HOUSE_NO":"７號","E_COORD97":171057.84,"N_COORD97":2575145.6400000001,"ADDRESS":"田寮７號","OBJECTID":111044},"geometry":{"x":171057.84000000078,"y":2575145.6400000025}},{"attributes":{"ID":111045,"DIS_CODE":0,"TOWNNAME":"大內區","LI":"環湖里","LIN":"9鄰","STREET":" ","SECT":" ","MAREA":"環湖","LANE":" ","ALLEY":" ","HOUSE_NO":"１２４號","E_COORD97":190264.69,"N_COORD97":2560755.25,"ADDRESS":"環湖１２４號","OBJECTID":111045},"geometry":{"x":190264.69000000041,"y":2560755.2500000019}},{"attributes":{"ID":111046,"DIS_CODE":0,"TOWNNAME":"大內區","LI":"曲溪里","LIN":"9鄰","STREET":" ","SECT":" ","MAREA":"二重溪","LANE":" ","ALLEY":" ","HOUSE_NO":"８８號","E_COORD97":187378.19,"N_COORD97":2557664.3100000001,"ADDRESS":"二重溪８８號","OBJECTID":111046},"geometry":{"x":187378.18999999948,"y":2557664.3100000005}},{"attributes":{"ID":111047,"DIS_CODE":0,"TOWNNAME":"仁德區","LI":"上崙里","LIN":"9鄰","STREET":"民安路","SECT":"二段","MAREA":" ","LANE":"３８２巷","ALLEY":"５３弄","HOUSE_NO":"２號","E_COORD97":173977.60999999999,"N_COORD97":2538637.04,"ADDRESS":"民安路二段３８２巷５３弄２號","OBJECTID":111047},"geometry":{"x":173977.61000000034,"y":2538637.040000001}},{"attributes":{"ID":111048,"DIS_CODE":0,"TOWNNAME":"大內區","LI":"頭社里","LIN":"9鄰","STREET":" ","SECT":" ","MAREA":"頭社","LANE":" ","ALLEY":" ","HOUSE_NO":"１１８號","E_COORD97":185830.09,"N_COORD97":2561443.25,"ADDRESS":"頭社１１８號","OBJECTID":111048},"geometry":{"x":185830.08999999985,"y":2561443.2500000019}},{"attributes":{"ID":111049,"DIS_CODE":0,"TOWNNAME":"南化區","LI":"南化里","LIN":"1鄰","STREET":" ","SECT":" ","MAREA":"南化","LANE":" ","ALLEY":" ","HOUSE_NO":"１３號","E_COORD97":194814.98999999999,"N_COORD97":2549732.75,"ADDRESS":"南化１３號","OBJECTID":111049},"geometry":{"x":194814.99000000115,"y":2549732.7500000019}},{"attributes":{"ID":111050,"DIS_CODE":0,"TOWNNAME":"大內區","LI":"內江里","LIN":"9鄰","STREET":" ","SECT":" ","MAREA":"內庄","LANE":" ","ALLEY":" ","HOUSE_NO":"３１２號之３","E_COORD97":184615.60999999999,"N_COORD97":2557180.2999999998,"ADDRESS":"內庄３１２號之３","OBJECTID":111050},"geometry":{"x":184615.6100000022,"y":2557180.3000000007}},{"attributes":{"ID":111051,"DIS_CODE":0,"TOWNNAME":"大內區","LI":"環湖里","LIN":"9鄰","STREET":" ","SECT":" ","MAREA":"環湖","LANE":" ","ALLEY":" ","HOUSE_NO":"１１６之２號","E_COORD97":190376.48999999999,"N_COORD97":2560769.2999999998,"ADDRESS":"環湖１１６之２號","OBJECTID":111051},"geometry":{"x":190376.49000000209,"y":2560769.3000000026}},{"attributes":{"ID":111052,"DIS_CODE":0,"TOWNNAME":"大內區","LI":"石湖里","LIN":"9鄰","STREET":" ","SECT":" ","MAREA":"石子瀨","LANE":" ","ALLEY":" ","HOUSE_NO":"３１３號","E_COORD97":183927.87,"N_COORD97":2558412.25,"ADDRESS":"石子瀨３１３號","OBJECTID":111052},"geometry":{"x":183927.87000000011,"y":2558412.2500000019}},{"attributes":{"ID":111053,"DIS_CODE":0,"TOWNNAME":"仁德區","LI":"上崙里","LIN":"9鄰","STREET":"民安路","SECT":"二段","MAREA":" ","LANE":"３８２巷","ALLEY":"５３弄","HOUSE_NO":"１號","E_COORD97":173988.60999999999,"N_COORD97":2538650.29,"ADDRESS":"民安路二段３８２巷５３弄１號","OBJECTID":111053},"geometry":{"x":173988.61000000127,"y":2538650.2899999991}},{"attributes":{"ID":111054,"DIS_CODE":0,"TOWNNAME":"大內區","LI":"石湖里","LIN":"9鄰","STREET":" ","SECT":" ","MAREA":"石子瀨","LANE":" ","ALLEY":" ","HOUSE_NO":"３１７號之１","E_COORD97":183868.60000000001,"N_COORD97":2558370.2999999998,"ADDRESS":"石子瀨３１７號之１","OBJECTID":111054},"geometry":{"x":183868.59999999963,"y":2558370.3000000007}},{"attributes":{"ID":111055,"DIS_CODE":0,"TOWNNAME":"仁德區","LI":"上崙里","LIN":"9鄰","STREET":"民安路","SECT":"二段","MAREA":" ","LANE":"３８２巷","ALLEY":"５１弄","HOUSE_NO":"１３號","E_COORD97":174017.17999999999,"N_COORD97":2538647.5699999998,"ADDRESS":"民安路二段３８２巷５１弄１３號","OBJECTID":111055},"geometry":{"x":174017.1799999997,"y":2538647.5700000022}},{"attributes":{"ID":111056,"DIS_CODE":0,"TOWNNAME":"仁德區","LI":"上崙里","LIN":"9鄰","STREET":"德善路","SECT":" ","MAREA":" ","LANE":"３０５巷","ALLEY":"１３弄","HOUSE_NO":"４３號","E_COORD97":174040.42000000001,"N_COORD97":2538470.4199999999,"ADDRESS":"德善路３０５巷１３弄４３號","OBJECTID":111056},"geometry":{"x":174040.42000000086,"y":2538470.4199999999}},{"attributes":{"ID":111057,"DIS_CODE":0,"TOWNNAME":"大內區","LI":"環湖里","LIN":"9鄰","STREET":" ","SECT":" ","MAREA":"環湖","LANE":" ","ALLEY":" ","HOUSE_NO":"１２２號","E_COORD97":190291.69,"N_COORD97":2560743.25,"ADDRESS":"環湖１２２號","OBJECTID":111057},"geometry":{"x":190291.69000000041,"y":2560743.25}},{"attributes":{"ID":111058,"DIS_CODE":0,"TOWNNAME":"大內區","LI":"內郭里","LIN":"9鄰","STREET":" ","SECT":" ","MAREA":"後堀","LANE":" ","ALLEY":" ","HOUSE_NO":"２５號","E_COORD97":185692.35999999999,"N_COORD97":2557393.3199999998,"ADDRESS":"後堀２５號","OBJECTID":111058},"geometry":{"x":185692.36000000127,"y":2557393.3200000003}},{"attributes":{"ID":111059,"DIS_CODE":0,"TOWNNAME":"仁德區","LI":"上崙里","LIN":"9鄰","STREET":"德善路","SECT":" ","MAREA":" ","LANE":"３０５巷","ALLEY":"１３弄","HOUSE_NO":"２２號","E_COORD97":173997.26999999999,"N_COORD97":2538505.3500000001,"ADDRESS":"德善路３０５巷１３弄２２號","OBJECTID":111059},"geometry":{"x":173997.27000000048,"y":2538505.3500000034}},{"attributes":{"ID":111060,"DIS_CODE":0,"TOWNNAME":"大內區","LI":"石湖里","LIN":"9鄰","STREET":" ","SECT":" ","MAREA":"石子瀨","LANE":" ","ALLEY":" ","HOUSE_NO":"３１７號之２","E_COORD97":183866.84,"N_COORD97":2558378.2999999998,"ADDRESS":"石子瀨３１７號之２","OBJECTID":111060},"geometry":{"x":183866.83999999985,"y":2558378.3000000026}},{"attributes":{"ID":111061,"DIS_CODE":0,"TOWNNAME":"仁德區","LI":"上崙里","LIN":"9鄰","STREET":"民安路","SECT":"二段","MAREA":" ","LANE":"３８２巷","ALLEY":"５３弄","HOUSE_NO":"３３號","E_COORD97":174032.76000000001,"N_COORD97":2538575.5099999998,"ADDRESS":"民安路二段３８２巷５３弄３３號","OBJECTID":111061},"geometry":{"x":174032.76000000071,"y":2538575.5100000035}},{"attributes":{"ID":111062,"DIS_CODE":0,"TOWNNAME":"仁德區","LI":"上崙里","LIN":"9鄰","STREET":"民安路","SECT":"二段","MAREA":" ","LANE":"３８２巷","ALLEY":"５３弄","HOUSE_NO":"８號","E_COORD97":173976.26000000001,"N_COORD97":2538627.5299999998,"ADDRESS":"民安路二段３８２巷５３弄８號","OBJECTID":111062},"geometry":{"x":173976.25999999978,"y":2538627.5300000012}},{"attributes":{"ID":111063,"DIS_CODE":0,"TOWNNAME":"北區","LI":"新勝里","LIN":"1鄰","STREET":"開元路","SECT":" ","MAREA":" ","LANE":"３５７巷","ALLEY":" ","HOUSE_NO":"６號","E_COORD97":170317.69,"N_COORD97":2545515.6899999999,"ADDRESS":"開元路３５７巷６號","OBJECTID":111063},"geometry":{"x":170317.69000000041,"y":2545515.6900000013}},{"attributes":{"ID":111064,"DIS_CODE":0,"TOWNNAME":"歸仁區","LI":"歸仁里","LIN":"8鄰","STREET":"大通一街","SECT":" ","MAREA":" ","LANE":" ","ALLEY":" ","HOUSE_NO":"７７號","E_COORD97":177888.60999999999,"N_COORD97":2540953.4900000002,"ADDRESS":"大通一街７７號","OBJECTID":111064},"geometry":{"x":177888.61000000034,"y":2540953.4900000021}},{"attributes":{"ID":111065,"DIS_CODE":0,"TOWNNAME":"歸仁區","LI":"新厝里","LIN":"8鄰","STREET":"和平南街","SECT":" ","MAREA":" ","LANE":" ","ALLEY":" ","HOUSE_NO":"１００號","E_COORD97":177801.47,"N_COORD97":2540533.27,"ADDRESS":"和平南街１００號","OBJECTID":111065},"geometry":{"x":177801.47000000067,"y":2540533.2700000033}},{"attributes":{"ID":111066,"DIS_CODE":0,"TOWNNAME":"新營區","LI":"五興里","LIN":"10鄰","STREET":" ","SECT":" ","MAREA":"五間厝","LANE":" ","ALLEY":" ","HOUSE_NO":"１１１號","E_COORD97":175623.59,"N_COORD97":2574767.7799999998,"ADDRESS":"五間厝１１１號","OBJECTID":111066},"geometry":{"x":175623.58999999985,"y":2574767.7799999993}},{"attributes":{"ID":111067,"DIS_CODE":0,"TOWNNAME":"新營區","LI":"姑爺里","LIN":"5鄰","STREET":" ","SECT":" ","MAREA":"姑爺","LANE":" ","ALLEY":" ","HOUSE_NO":"４４號","E_COORD97":174184.97,"N_COORD97":2574175.9199999999,"ADDRESS":"姑爺４４號","OBJECTID":111067},"geometry":{"x":174184.96999999974,"y":2574175.9200000018}},{"attributes":{"ID":111068,"DIS_CODE":0,"TOWNNAME":"新營區","LI":"太北里","LIN":"19鄰","STREET":" ","SECT":" ","MAREA":"太子宮","LANE":" ","ALLEY":" ","HOUSE_NO":"４４之１３號","E_COORD97":175678.48000000001,"N_COORD97":2577241.6299999999,"ADDRESS":"太子宮４４之１３號","OBJECTID":111068},"geometry":{"x":175678.48000000138,"y":2577241.6300000008}},{"attributes":{"ID":111069,"DIS_CODE":0,"TOWNNAME":"大內區","LI":"內江里","LIN":"9鄰","STREET":" ","SECT":" ","MAREA":"內庄","LANE":" ","ALLEY":" ","HOUSE_NO":"３０８號","E_COORD97":184569.28,"N_COORD97":2557265.25,"ADDRESS":"內庄３０８號","OBJECTID":111069},"geometry":{"x":184569.28000000119,"y":2557265.2500000037}},{"attributes":{"ID":111070,"DIS_CODE":0,"TOWNNAME":"大內區","LI":"環湖里","LIN":"9鄰","STREET":" ","SECT":" ","MAREA":"環湖","LANE":" ","ALLEY":" ","HOUSE_NO":"１１７號","E_COORD97":190354.79000000001,"N_COORD97":2560745.25,"ADDRESS":"環湖１１７號","OBJECTID":111070},"geometry":{"x":190354.79000000004,"y":2560745.2500000019}},{"attributes":{"ID":111071,"DIS_CODE":0,"TOWNNAME":"大內區","LI":"石湖里","LIN":"9鄰","STREET":" ","SECT":" ","MAREA":"石子瀨","LANE":" ","ALLEY":" ","HOUSE_NO":"３１６號","E_COORD97":183876.26999999999,"N_COORD97":2558397.25,"ADDRESS":"石子瀨３１６號","OBJECTID":111071},"geometry":{"x":183876.27000000142,"y":2558397.25}},{"attributes":{"ID":111072,"DIS_CODE":0,"TOWNNAME":"大內區","LI":"內江里","LIN":"9鄰","STREET":" ","SECT":" ","MAREA":"內庄","LANE":" ","ALLEY":" ","HOUSE_NO":"３０３號","E_COORD97":184518.88,"N_COORD97":2557270.25,"ADDRESS":"內庄３０３號","OBJECTID":111072},"geometry":{"x":184518.88000000082,"y":2557270.2500000019}},{"attributes":{"ID":111073,"DIS_CODE":0,"TOWNNAME":"大內區","LI":"頭社里","LIN":"9鄰","STREET":" ","SECT":" ","MAREA":"頭社","LANE":" ","ALLEY":" ","HOUSE_NO":"１２２號","E_COORD97":185853.09,"N_COORD97":2561577.25,"ADDRESS":"頭社１２２號","OBJECTID":111073},"geometry":{"x":185853.09000000078,"y":2561577.25}},{"attributes":{"ID":111074,"DIS_CODE":0,"TOWNNAME":"大內區","LI":"環湖里","LIN":"9鄰","STREET":" ","SECT":" ","MAREA":"環湖","LANE":" ","ALLEY":" ","HOUSE_NO":"１２９之２號","E_COORD97":189092.59,"N_COORD97":2561445.2999999998,"ADDRESS":"環湖１２９之２號","OBJECTID":111074},"geometry":{"x":189092.59000000078,"y":2561445.3000000007}},{"attributes":{"ID":111075,"DIS_CODE":0,"TOWNNAME":"大內區","LI":"石湖里","LIN":"9鄰","STREET":" ","SECT":" ","MAREA":"石子瀨","LANE":" ","ALLEY":" ","HOUSE_NO":"３１９號","E_COORD97":183897.17000000001,"N_COORD97":2558388.25,"ADDRESS":"石子瀨３１９號","OBJECTID":111075},"geometry":{"x":183897.16999999993,"y":2558388.2500000019}},{"attributes":{"ID":111076,"DIS_CODE":0,"TOWNNAME":"大內區","LI":"石林里","LIN":"9鄰","STREET":" ","SECT":" ","MAREA":"石子瀨","LANE":" ","ALLEY":" ","HOUSE_NO":"２０６號之１","E_COORD97":184159.10000000001,"N_COORD97":2558129.2999999998,"ADDRESS":"石子瀨２０６號之１","OBJECTID":111076},"geometry":{"x":184159.10000000056,"y":2558129.3000000007}},{"attributes":{"ID":111077,"DIS_CODE":0,"TOWNNAME":"大內區","LI":"頭社里","LIN":"9鄰","STREET":" ","SECT":" ","MAREA":"頭社","LANE":" ","ALLEY":" ","HOUSE_NO":"１２１號","E_COORD97":185825.48999999999,"N_COORD97":2561513.25,"ADDRESS":"頭社１２１號","OBJECTID":111077},"geometry":{"x":185825.49000000115,"y":2561513.2499999981}},{"attributes":{"ID":111078,"DIS_CODE":0,"TOWNNAME":"大內區","LI":"石林里","LIN":"9鄰","STREET":" ","SECT":" ","MAREA":"石子瀨","LANE":" ","ALLEY":" ","HOUSE_NO":"１９９號之２","E_COORD97":184150.84,"N_COORD97":2558091.2999999998,"ADDRESS":"石子瀨１９９號之２","OBJECTID":111078},"geometry":{"x":184150.84000000171,"y":2558091.3000000026}},{"attributes":{"ID":111079,"DIS_CODE":0,"TOWNNAME":"仁德區","LI":"上崙里","LIN":"9鄰","STREET":"民安路","SECT":"二段","MAREA":" ","LANE":"３８２巷","ALLEY":"５１弄","HOUSE_NO":"１９號","E_COORD97":174020.95999999999,"N_COORD97":2538634.3100000001,"ADDRESS":"民安路二段３８２巷５１弄１９號","OBJECTID":111079},"geometry":{"x":174020.95999999996,"y":2538634.3100000005}},{"attributes":{"ID":111080,"DIS_CODE":0,"TOWNNAME":"仁德區","LI":"上崙里","LIN":"9鄰","STREET":"民安路","SECT":"二段","MAREA":" ","LANE":"３８２巷","ALLEY":"５３弄","HOUSE_NO":"２１號","E_COORD97":174021.63,"N_COORD97":2538609.75,"ADDRESS":"民安路二段３８２巷５３弄２１號","OBJECTID":111080},"geometry":{"x":174021.62999999896,"y":2538609.7500000019}},{"attributes":{"ID":111081,"DIS_CODE":0,"TOWNNAME":"仁德區","LI":"上崙里","LIN":"9鄰","STREET":"德善路","SECT":" ","MAREA":" ","LANE":"３０５巷","ALLEY":"１３弄","HOUSE_NO":"４８號","E_COORD97":174004.17999999999,"N_COORD97":2538472.8599999999,"ADDRESS":"德善路３０５巷１３弄４８號","OBJECTID":111081},"geometry":{"x":174004.18000000156,"y":2538472.8599999994}},{"attributes":{"ID":111082,"DIS_CODE":0,"TOWNNAME":"仁德區","LI":"上崙里","LIN":"9鄰","STREET":"德善路","SECT":" ","MAREA":" ","LANE":"３０５巷","ALLEY":"１３弄","HOUSE_NO":"３５號","E_COORD97":174054.91,"N_COORD97":2538485.4100000001,"ADDRESS":"德善路３０５巷１３弄３５號","OBJECTID":111082},"geometry":{"x":174054.91000000015,"y":2538485.410000002}},{"attributes":{"ID":111083,"DIS_CODE":0,"TOWNNAME":"大內區","LI":"石城里","LIN":"9鄰","STREET":" ","SECT":" ","MAREA":"石子瀨","LANE":" ","ALLEY":" ","HOUSE_NO":"８１號","E_COORD97":184181.12,"N_COORD97":2557939.25,"ADDRESS":"石子瀨８１號","OBJECTID":111083},"geometry":{"x":184181.12000000011,"y":2557939.25}},{"attributes":{"ID":111084,"DIS_CODE":0,"TOWNNAME":"大內區","LI":"頭社里","LIN":"9鄰","STREET":" ","SECT":" ","MAREA":"頭社","LANE":" ","ALLEY":" ","HOUSE_NO":"１２３號","E_COORD97":185968.48999999999,"N_COORD97":2561491.25,"ADDRESS":"頭社１２３號","OBJECTID":111084},"geometry":{"x":185968.49000000022,"y":2561491.2500000019}},{"attributes":{"ID":111085,"DIS_CODE":0,"TOWNNAME":"大內區","LI":"頭社里","LIN":"9鄰","STREET":" ","SECT":" ","MAREA":"頭社","LANE":" ","ALLEY":" ","HOUSE_NO":"１２２之５號","E_COORD97":186220.39000000001,"N_COORD97":2561192.2999999998,"ADDRESS":"頭社１２２之５號","OBJECTID":111085},"geometry":{"x":186220.3900000006,"y":2561192.3000000026}},{"attributes":{"ID":111086,"DIS_CODE":0,"TOWNNAME":"新營區","LI":"埤寮里","LIN":"7鄰","STREET":" ","SECT":" ","MAREA":"埤寮","LANE":" ","ALLEY":" ","HOUSE_NO":"３７號","E_COORD97":180455.20999999999,"N_COORD97":2580990.3500000001,"ADDRESS":"埤寮３７號","OBJECTID":111086},"geometry":{"x":180455.21000000089,"y":2580990.3500000034}},{"attributes":{"ID":111087,"DIS_CODE":0,"TOWNNAME":"大內區","LI":"石城里","LIN":"9鄰","STREET":" ","SECT":" ","MAREA":"石子瀨","LANE":" ","ALLEY":" ","HOUSE_NO":"７９號","E_COORD97":184175.92000000001,"N_COORD97":2557898.25,"ADDRESS":"石子瀨７９號","OBJECTID":111087},"geometry":{"x":184175.92000000086,"y":2557898.25}},{"attributes":{"ID":111088,"DIS_CODE":0,"TOWNNAME":"大內區","LI":"石城里","LIN":"9鄰","STREET":" ","SECT":" ","MAREA":"石子瀨","LANE":" ","ALLEY":" ","HOUSE_NO":"８０號","E_COORD97":184186.12,"N_COORD97":2557916.25,"ADDRESS":"石子瀨８０號","OBJECTID":111088},"geometry":{"x":184186.12000000011,"y":2557916.2500000037}},{"attributes":{"ID":111089,"DIS_CODE":0,"TOWNNAME":"大內區","LI":"環湖里","LIN":"9鄰","STREET":" ","SECT":" ","MAREA":"環湖","LANE":" ","ALLEY":" ","HOUSE_NO":"１２２號之１","E_COORD97":190280.73000000001,"N_COORD97":2560758.2999999998,"ADDRESS":"環湖１２２號之１","OBJECTID":111089},"geometry":{"x":190280.73000000138,"y":2560758.3000000026}},{"attributes":{"ID":111090,"DIS_CODE":0,"TOWNNAME":"大內區","LI":"石林里","LIN":"9鄰","STREET":" ","SECT":" ","MAREA":"石子瀨","LANE":" ","ALLEY":" ","HOUSE_NO":"２０１號之１","E_COORD97":184187.60000000001,"N_COORD97":2558094.2999999998,"ADDRESS":"石子瀨２０１號之１","OBJECTID":111090},"geometry":{"x":184187.5999999987,"y":2558094.3000000026}},{"attributes":{"ID":111091,"DIS_CODE":0,"TOWNNAME":"大內區","LI":"石林里","LIN":"9鄰","STREET":" ","SECT":" ","MAREA":"石子瀨","LANE":" ","ALLEY":" ","HOUSE_NO":"２０３號","E_COORD97":184265.97,"N_COORD97":2558142.25,"ADDRESS":"石子瀨２０３號","OBJECTID":111091},"geometry":{"x":184265.96999999974,"y":2558142.25}},{"attributes":{"ID":111092,"DIS_CODE":0,"TOWNNAME":"大內區","LI":"頭社里","LIN":"9鄰","STREET":" ","SECT":" ","MAREA":"頭社","LANE":" ","ALLEY":" ","HOUSE_NO":"１１３號之３","E_COORD97":186026.92000000001,"N_COORD97":2561548.2999999998,"ADDRESS":"頭社１１３號之３","OBJECTID":111092},"geometry":{"x":186026.92000000179,"y":2561548.3000000026}},{"attributes":{"ID":111093,"DIS_CODE":0,"TOWNNAME":"大內區","LI":"石林里","LIN":"9鄰","STREET":" ","SECT":" ","MAREA":"石子瀨","LANE":" ","ALLEY":" ","HOUSE_NO":"２０１號","E_COORD97":184162.97,"N_COORD97":2558092.25,"ADDRESS":"石子瀨２０１號","OBJECTID":111093},"geometry":{"x":184162.96999999974,"y":2558092.25}},{"attributes":{"ID":111094,"DIS_CODE":0,"TOWNNAME":"仁德區","LI":"上崙里","LIN":"9鄰","STREET":"德善路","SECT":" ","MAREA":" ","LANE":"３０５巷","ALLEY":"１３弄","HOUSE_NO":"３２號","E_COORD97":174015,"N_COORD97":2538495.2799999998,"ADDRESS":"德善路３０５巷１３弄３２號","OBJECTID":111094},"geometry":{"x":174015.00000000093,"y":2538495.2800000031}},{"attributes":{"ID":111095,"DIS_CODE":0,"TOWNNAME":"安平區","LI":"西門里","LIN":"1鄰","STREET":"國勝路","SECT":" ","MAREA":" ","LANE":"３５巷","ALLEY":" ","HOUSE_NO":"３號","E_COORD97":163881.51999999999,"N_COORD97":2544622.52,"ADDRESS":"國勝路３５巷３號","OBJECTID":111095},"geometry":{"x":163881.52000000142,"y":2544622.5199999996}},{"attributes":{"ID":111096,"DIS_CODE":0,"TOWNNAME":"歸仁區","LI":"歸仁里","LIN":"8鄰","STREET":"和平北街","SECT":" ","MAREA":" ","LANE":" ","ALLEY":" ","HOUSE_NO":"３６號","E_COORD97":177852.5,"N_COORD97":2540908.48,"ADDRESS":"和平北街３６號","OBJECTID":111096},"geometry":{"x":177852.50000000093,"y":2540908.4800000004}},{"attributes":{"ID":111097,"DIS_CODE":0,"TOWNNAME":"歸仁區","LI":"歸仁里","LIN":"8鄰","STREET":"大通一街","SECT":" ","MAREA":" ","LANE":" ","ALLEY":" ","HOUSE_NO":"７５號","E_COORD97":177893.81,"N_COORD97":2540952.4900000002,"ADDRESS":"大通一街７５號","OBJECTID":111097},"geometry":{"x":177893.81000000145,"y":2540952.4900000002}},{"attributes":{"ID":111098,"DIS_CODE":0,"TOWNNAME":"歸仁區","LI":"新厝里","LIN":"8鄰","STREET":"和平南街","SECT":" ","MAREA":" ","LANE":" ","ALLEY":" ","HOUSE_NO":"１０６號","E_COORD97":177799.37,"N_COORD97":2540524.27,"ADDRESS":"和平南街１０６號","OBJECTID":111098},"geometry":{"x":177799.37000000104,"y":2540524.2700000014}},{"attributes":{"ID":111099,"DIS_CODE":0,"TOWNNAME":"仁德區","LI":"上崙里","LIN":"9鄰","STREET":"德善路","SECT":" ","MAREA":" ","LANE":"３０５巷","ALLEY":"１３弄","HOUSE_NO":"２７號","E_COORD97":174050.67999999999,"N_COORD97":2538497.6600000001,"ADDRESS":"德善路３０５巷１３弄２７號","OBJECTID":111099},"geometry":{"x":174050.68000000063,"y":2538497.660000002}},{"attributes":{"ID":111100,"DIS_CODE":0,"TOWNNAME":"鹽水區","LI":"後宅里","LIN":"1鄰","STREET":" ","SECT":" ","MAREA":"後寮","LANE":" ","ALLEY":" ","HOUSE_NO":"１之１１號","E_COORD97":173798.60000000001,"N_COORD97":2579294.4700000002,"ADDRESS":"後寮１之１１號","OBJECTID":111100},"geometry":{"x":173798.60000000056,"y":2579294.4700000007}},{"attributes":{"ID":111101,"DIS_CODE":0,"TOWNNAME":"鹽水區","LI":"後宅里","LIN":"1鄰","STREET":" ","SECT":" ","MAREA":"後寮","LANE":" ","ALLEY":" ","HOUSE_NO":"１號之１","E_COORD97":173555.26000000001,"N_COORD97":2578845.6200000001,"ADDRESS":"後寮１號之１","OBJECTID":111101},"geometry":{"x":173555.26000000071,"y":2578845.620000001}},{"attributes":{"ID":111102,"DIS_CODE":0,"TOWNNAME":"安平區","LI":"國平里","LIN":"1鄰","STREET":"永華路","SECT":"二段","MAREA":" ","LANE":" ","ALLEY":" ","HOUSE_NO":"４７１號","E_COORD97":165581.78,"N_COORD97":2543432.3900000001,"ADDRESS":"永華路二段４７１號","OBJECTID":111102},"geometry":{"x":165581.78000000026,"y":2543432.3900000043}},{"attributes":{"ID":111103,"DIS_CODE":0,"TOWNNAME":"鹽水區","LI":"後宅里","LIN":"1鄰","STREET":" ","SECT":" ","MAREA":"後寮","LANE":" ","ALLEY":" ","HOUSE_NO":"１之２號","E_COORD97":173956.88,"N_COORD97":2578867.6299999999,"ADDRESS":"後寮１之２號","OBJECTID":111103},"geometry":{"x":173956.87999999989,"y":2578867.629999999}},{"attributes":{"ID":111104,"DIS_CODE":0,"TOWNNAME":"鹽水區","LI":"後宅里","LIN":"1鄰","STREET":" ","SECT":" ","MAREA":"後寮","LANE":" ","ALLEY":" ","HOUSE_NO":"１號之２","E_COORD97":173956.88,"N_COORD97":2578867.6299999999,"ADDRESS":"後寮１號之２","OBJECTID":111104},"geometry":{"x":173956.87999999989,"y":2578867.629999999}},{"attributes":{"ID":111105,"DIS_CODE":0,"TOWNNAME":"鹽水區","LI":"後宅里","LIN":"1鄰","STREET":" ","SECT":" ","MAREA":"後寮","LANE":" ","ALLEY":" ","HOUSE_NO":"１號之３","E_COORD97":173444.37,"N_COORD97":2579040.4500000002,"ADDRESS":"後寮１號之３","OBJECTID":111105},"geometry":{"x":173444.37000000104,"y":2579040.4500000011}},{"attributes":{"ID":111106,"DIS_CODE":0,"TOWNNAME":"鹽水區","LI":"孫厝里","LIN":"1鄰","STREET":" ","SECT":" ","MAREA":"孫厝寮","LANE":" ","ALLEY":" ","HOUSE_NO":"５號","E_COORD97":170598.53,"N_COORD97":2577084.2200000002,"ADDRESS":"孫厝寮５號","OBJECTID":111106},"geometry":{"x":170598.53000000212,"y":2577084.2200000025}},{"attributes":{"ID":111107,"DIS_CODE":0,"TOWNNAME":"鹽水區","LI":"孫厝里","LIN":"1鄰","STREET":" ","SECT":" ","MAREA":"孫厝寮","LANE":" ","ALLEY":" ","HOUSE_NO":"６號","E_COORD97":170580.14000000001,"N_COORD97":2577077.5800000001,"ADDRESS":"孫厝寮６號","OBJECTID":111107},"geometry":{"x":170580.14000000153,"y":2577077.5800000019}},{"attributes":{"ID":111108,"DIS_CODE":0,"TOWNNAME":"鹽水區","LI":"桐寮里","LIN":"1鄰","STREET":" ","SECT":" ","MAREA":"桐寮","LANE":" ","ALLEY":" ","HOUSE_NO":"１８號","E_COORD97":174040.38,"N_COORD97":2576579.1000000001,"ADDRESS":"桐寮１８號","OBJECTID":111108},"geometry":{"x":174040.38000000175,"y":2576579.1000000015}},{"attributes":{"ID":111109,"DIS_CODE":0,"TOWNNAME":"鹽水區","LI":"桐寮里","LIN":"1鄰","STREET":" ","SECT":" ","MAREA":"桐寮","LANE":" ","ALLEY":" ","HOUSE_NO":"２０號","E_COORD97":174001.20000000001,"N_COORD97":2576559.77,"ADDRESS":"桐寮２０號","OBJECTID":111109},"geometry":{"x":174001.20000000205,"y":2576559.7700000014}},{"attributes":{"ID":111110,"DIS_CODE":0,"TOWNNAME":"鹽水區","LI":"桐寮里","LIN":"1鄰","STREET":" ","SECT":" ","MAREA":"桐寮","LANE":" ","ALLEY":" ","HOUSE_NO":"２１號","E_COORD97":174002.70000000001,"N_COORD97":2576536.3900000001,"ADDRESS":"桐寮２１號","OBJECTID":111110},"geometry":{"x":174002.70000000019,"y":2576536.3900000025}},{"attributes":{"ID":111111,"DIS_CODE":0,"TOWNNAME":"鹽水區","LI":"福得里","LIN":"1鄰","STREET":"康樂路","SECT":" ","MAREA":" ","LANE":" ","ALLEY":" ","HOUSE_NO":"１０７號","E_COORD97":175202.85000000001,"N_COORD97":2579959.1000000001,"ADDRESS":"康樂路１０７號","OBJECTID":111111},"geometry":{"x":175202.84999999963,"y":2579959.1000000015}},{"attributes":{"ID":111112,"DIS_CODE":0,"TOWNNAME":"仁德區","LI":"上崙里","LIN":"9鄰","STREET":"民安路","SECT":"二段","MAREA":" ","LANE":"３８２巷","ALLEY":"５３弄","HOUSE_NO":"１７號","E_COORD97":174019.04000000001,"N_COORD97":2538619.75,"ADDRESS":"民安路二段３８２巷５３弄１７號","OBJECTID":111112},"geometry":{"x":174019.0400000019,"y":2538619.7500000019}},{"attributes":{"ID":111113,"DIS_CODE":0,"TOWNNAME":"仁德區","LI":"上崙里","LIN":"9鄰","STREET":"民安路","SECT":"二段","MAREA":" ","LANE":"３８２巷","ALLEY":"５１弄","HOUSE_NO":"５號","E_COORD97":174010.56,"N_COORD97":2538665.3199999998,"ADDRESS":"民安路二段３８２巷５１弄５號","OBJECTID":111113},"geometry":{"x":174010.56000000052,"y":2538665.3200000003}},{"attributes":{"ID":111114,"DIS_CODE":0,"TOWNNAME":"仁德區","LI":"上崙里","LIN":"9鄰","STREET":"民安路","SECT":"二段","MAREA":" ","LANE":"３８２巷","ALLEY":"５１弄","HOUSE_NO":"７號","E_COORD97":174011.79000000001,"N_COORD97":2538661.0699999998,"ADDRESS":"民安路二段３８２巷５１弄７號","OBJECTID":111114},"geometry":{"x":174011.79000000004,"y":2538661.0700000022}},{"attributes":{"ID":111115,"DIS_CODE":0,"TOWNNAME":"仁德區","LI":"上崙里","LIN":"9鄰","STREET":"德善路","SECT":" ","MAREA":" ","LANE":"３０５巷","ALLEY":"１３弄","HOUSE_NO":"６４號","E_COORD97":174029.89000000001,"N_COORD97":2538448.29,"ADDRESS":"德善路３０５巷１３弄６４號","OBJECTID":111115},"geometry":{"x":174029.89000000153,"y":2538448.290000001}},{"attributes":{"ID":111116,"DIS_CODE":0,"TOWNNAME":"仁德區","LI":"上崙里","LIN":"9鄰","STREET":"德善路","SECT":" ","MAREA":" ","LANE":"３０５巷","ALLEY":"１３弄","HOUSE_NO":"２０號","E_COORD97":173993.32999999999,"N_COORD97":2538503.8500000001,"ADDRESS":"德善路３０５巷１３弄２０號","OBJECTID":111116},"geometry":{"x":173993.32999999914,"y":2538503.8499999996}},{"attributes":{"ID":111117,"DIS_CODE":0,"TOWNNAME":"仁德區","LI":"上崙里","LIN":"9鄰","STREET":"民安路","SECT":"二段","MAREA":" ","LANE":"３８２巷","ALLEY":"５３弄","HOUSE_NO":"４１號","E_COORD97":174015.51000000001,"N_COORD97":2538581.3900000001,"ADDRESS":"民安路二段３８２巷５３弄４１號","OBJECTID":111117},"geometry":{"x":174015.50999999885,"y":2538581.3900000025}},{"attributes":{"ID":111118,"DIS_CODE":0,"TOWNNAME":"鹽水區","LI":"福得里","LIN":"1鄰","STREET":"康樂路","SECT":" ","MAREA":" ","LANE":" ","ALLEY":" ","HOUSE_NO":"９９號","E_COORD97":175195.64999999999,"N_COORD97":2579943.02,"ADDRESS":"康樂路９９號","OBJECTID":111118},"geometry":{"x":175195.6500000013,"y":2579943.0199999996}},{"attributes":{"ID":111119,"DIS_CODE":0,"TOWNNAME":"鹽水區","LI":"桐寮里","LIN":"1鄰","STREET":" ","SECT":" ","MAREA":"桐寮","LANE":" ","ALLEY":" ","HOUSE_NO":"２３號","E_COORD97":174049.03,"N_COORD97":2576554.2000000002,"ADDRESS":"桐寮２３號","OBJECTID":111119},"geometry":{"x":174049.03000000119,"y":2576554.2000000011}},{"attributes":{"ID":111120,"DIS_CODE":0,"TOWNNAME":"仁德區","LI":"上崙里","LIN":"9鄰","STREET":"德善路","SECT":" ","MAREA":" ","LANE":"３０５巷","ALLEY":"１３弄","HOUSE_NO":"３９號","E_COORD97":174037.38,"N_COORD97":2538480.9100000001,"ADDRESS":"德善路３０５巷１３弄３９號","OBJECTID":111120},"geometry":{"x":174037.38000000082,"y":2538480.9100000001}},{"attributes":{"ID":111121,"DIS_CODE":0,"TOWNNAME":"北區","LI":"大和里","LIN":"1鄰","STREET":"大興街","SECT":" ","MAREA":" ","LANE":" ","ALLEY":" ","HOUSE_NO":"２號","E_COORD97":167346.13,"N_COORD97":2545857.1299999999,"ADDRESS":"大興街２號","OBJECTID":111121},"geometry":{"x":167346.13000000175,"y":2545857.1300000008}},{"attributes":{"ID":111122,"DIS_CODE":0,"TOWNNAME":"北區","LI":"大道里","LIN":"1鄰","STREET":"和緯路","SECT":"一段","MAREA":" ","LANE":" ","ALLEY":" ","HOUSE_NO":"１０號","E_COORD97":169675.14999999999,"N_COORD97":2545521.8199999998,"ADDRESS":"和緯路一段１０號","OBJECTID":111122},"geometry":{"x":169675.15000000037,"y":2545521.8200000022}},{"attributes":{"ID":111123,"DIS_CODE":0,"TOWNNAME":"北區","LI":"大道里","LIN":"1鄰","STREET":"和緯路","SECT":"一段","MAREA":" ","LANE":" ","ALLEY":" ","HOUSE_NO":"１２號","E_COORD97":169670.39000000001,"N_COORD97":2545523.2400000002,"ADDRESS":"和緯路一段１２號","OBJECTID":111123},"geometry":{"x":169670.3900000006,"y":2545523.2400000002}},{"attributes":{"ID":111124,"DIS_CODE":0,"TOWNNAME":"鹽水區","LI":"桐寮里","LIN":"1鄰","STREET":" ","SECT":" ","MAREA":"桐寮","LANE":" ","ALLEY":" ","HOUSE_NO":"２４之１號","E_COORD97":174084.45000000001,"N_COORD97":2576517.77,"ADDRESS":"桐寮２４之１號","OBJECTID":111124},"geometry":{"x":174084.45000000112,"y":2576517.7699999996}},{"attributes":{"ID":111125,"DIS_CODE":0,"TOWNNAME":"鹽水區","LI":"桐寮里","LIN":"1鄰","STREET":" ","SECT":" ","MAREA":"桐寮","LANE":" ","ALLEY":" ","HOUSE_NO":"２４號之２","E_COORD97":174065.01000000001,"N_COORD97":2576506.3300000001,"ADDRESS":"桐寮２４號之２","OBJECTID":111125},"geometry":{"x":174065.01000000071,"y":2576506.3300000019}},{"attributes":{"ID":111126,"DIS_CODE":0,"TOWNNAME":"鹽水區","LI":"桐寮里","LIN":"1鄰","STREET":" ","SECT":" ","MAREA":"桐寮","LANE":" ","ALLEY":" ","HOUSE_NO":"２５之２號","E_COORD97":174052.35999999999,"N_COORD97":2576517.2599999998,"ADDRESS":"桐寮２５之２號","OBJECTID":111126},"geometry":{"x":174052.36000000034,"y":2576517.2600000016}},{"attributes":{"ID":111127,"DIS_CODE":0,"TOWNNAME":"新營區","LI":"埤寮里","LIN":"5鄰","STREET":" ","SECT":" ","MAREA":"埤寮","LANE":" ","ALLEY":" ","HOUSE_NO":"３號之１","E_COORD97":180120.94,"N_COORD97":2580975.3700000001,"ADDRESS":"埤寮３號之１","OBJECTID":111127},"geometry":{"x":180120.94000000041,"y":2580975.3700000029}},{"attributes":{"ID":111128,"DIS_CODE":0,"TOWNNAME":"大內區","LI":"曲溪里","LIN":"9鄰","STREET":" ","SECT":" ","MAREA":"二重溪","LANE":" ","ALLEY":" ","HOUSE_NO":"８２號之２","E_COORD97":187308.85999999999,"N_COORD97":2557644.3100000001,"ADDRESS":"二重溪８２號之２","OBJECTID":111128},"geometry":{"x":187308.86000000034,"y":2557644.3100000005}},{"attributes":{"ID":111129,"DIS_CODE":0,"TOWNNAME":"大內區","LI":"石林里","LIN":"9鄰","STREET":" ","SECT":" ","MAREA":"石子瀨","LANE":" ","ALLEY":" ","HOUSE_NO":"２０７之２號","E_COORD97":184131.67000000001,"N_COORD97":2558127.2999999998,"ADDRESS":"石子瀨２０７之２號","OBJECTID":111129},"geometry":{"x":184131.67000000179,"y":2558127.3000000026}},{"attributes":{"ID":111130,"DIS_CODE":0,"TOWNNAME":"大內區","LI":"曲溪里","LIN":"9鄰","STREET":" ","SECT":" ","MAREA":"二重溪","LANE":" ","ALLEY":" ","HOUSE_NO":"８５號","E_COORD97":187338.69,"N_COORD97":2557647.3100000001,"ADDRESS":"二重溪８５號","OBJECTID":111130},"geometry":{"x":187338.69000000041,"y":2557647.3100000005}},{"attributes":{"ID":111131,"DIS_CODE":0,"TOWNNAME":"新化區","LI":"全興里","LIN":"1鄰","STREET":" ","SECT":" ","MAREA":"竹子\u25A0","LANE":" ","ALLEY":" ","HOUSE_NO":"１號之２","E_COORD97":177763.98999999999,"N_COORD97":2547824.2599999998,"ADDRESS":"竹子\u25A0１號之２","OBJECTID":111131},"geometry":{"x":177763.99000000022,"y":2547824.2600000016}},{"attributes":{"ID":111132,"DIS_CODE":0,"TOWNNAME":"新化區","LI":"\u25A0拔里","LIN":"1鄰","STREET":" ","SECT":" ","MAREA":"\u25A0拔林","LANE":" ","ALLEY":" ","HOUSE_NO":"１２號之４","E_COORD97":183045.60999999999,"N_COORD97":2551870.2599999998,"ADDRESS":"\u25A0拔林１２號之４","OBJECTID":111132},"geometry":{"x":183045.61000000034,"y":2551870.2599999998}},{"attributes":{"ID":111133,"DIS_CODE":0,"TOWNNAME":"北區","LI":"文元里","LIN":"1鄰","STREET":"海安路","SECT":"三段","MAREA":" ","LANE":" ","ALLEY":" ","HOUSE_NO":"９２５號","E_COORD97":167988.17999999999,"N_COORD97":2546487.6000000001,"ADDRESS":"海安路三段９２５號","OBJECTID":111133},"geometry":{"x":167988.18000000063,"y":2546487.5999999996}},{"attributes":{"ID":111134,"DIS_CODE":0,"TOWNNAME":"北區","LI":"文元里","LIN":"1鄰","STREET":"海安路","SECT":"三段","MAREA":" ","LANE":" ","ALLEY":" ","HOUSE_NO":"９２７號","E_COORD97":167987.79999999999,"N_COORD97":2546492.6800000002,"ADDRESS":"海安路三段９２７號","OBJECTID":111134},"geometry":{"x":167987.80000000075,"y":2546492.6799999997}},{"attributes":{"ID":111135,"DIS_CODE":0,"TOWNNAME":"仁德區","LI":"土庫里","LIN":"9鄰","STREET":"土庫路","SECT":" ","MAREA":" ","LANE":"５３巷","ALLEY":"１１弄","HOUSE_NO":"８號","E_COORD97":174268.47,"N_COORD97":2543373.7400000002,"ADDRESS":"土庫路５３巷１１弄８號","OBJECTID":111135},"geometry":{"x":174268.4700000016,"y":2543373.7400000002}},{"attributes":{"ID":111136,"DIS_CODE":0,"TOWNNAME":"仁德區","LI":"土庫里","LIN":"9鄰","STREET":"土庫路","SECT":" ","MAREA":" ","LANE":"５３巷","ALLEY":"１１弄","HOUSE_NO":"７號","E_COORD97":174250.07999999999,"N_COORD97":2543370.0099999998,"ADDRESS":"土庫路５３巷１１弄７號","OBJECTID":111136},"geometry":{"x":174250.08000000101,"y":2543370.0100000016}},{"attributes":{"ID":111137,"DIS_CODE":0,"TOWNNAME":"仁德區","LI":"仁義里","LIN":"9鄰","STREET":"仁義一街","SECT":" ","MAREA":" ","LANE":"１０２巷","ALLEY":"１弄","HOUSE_NO":"１３號","E_COORD97":173588.26000000001,"N_COORD97":2541158.77,"ADDRESS":"仁義一街１０２巷１弄１３號","OBJECTID":111137},"geometry":{"x":173588.25999999978,"y":2541158.7699999996}},{"attributes":{"ID":111138,"DIS_CODE":0,"TOWNNAME":"仁德區","LI":"仁義里","LIN":"9鄰","STREET":"仁義一街","SECT":" ","MAREA":" ","LANE":"１０２巷","ALLEY":"１弄","HOUSE_NO":"２號","E_COORD97":173539.38,"N_COORD97":2541150.0800000001,"ADDRESS":"仁義一街１０２巷１弄２號","OBJECTID":111138},"geometry":{"x":173539.38000000082,"y":2541150.0800000019}},{"attributes":{"ID":111139,"DIS_CODE":0,"TOWNNAME":"安南區","LI":"頂安里","LIN":"9鄰","STREET":"頂安街","SECT":" ","MAREA":" ","LANE":"２６０巷","ALLEY":"４５弄","HOUSE_NO":"５號","E_COORD97":169137.53,"N_COORD97":2549478.5899999999,"ADDRESS":"頂安街２６０巷４５弄５號","OBJECTID":111139},"geometry":{"x":169137.53000000119,"y":2549478.5900000036}},{"attributes":{"ID":111140,"DIS_CODE":0,"TOWNNAME":"新化區","LI":"\u25A0拔里","LIN":"1鄰","STREET":" ","SECT":" ","MAREA":"\u25A0拔林","LANE":" ","ALLEY":" ","HOUSE_NO":"２１號之５","E_COORD97":183164.23000000001,"N_COORD97":2551834.2599999998,"ADDRESS":"\u25A0拔林２１號之５","OBJECTID":111140},"geometry":{"x":183164.23000000138,"y":2551834.2600000016}},{"attributes":{"ID":111141,"DIS_CODE":0,"TOWNNAME":"新營區","LI":"土庫里","LIN":"15鄰","STREET":" ","SECT":" ","MAREA":"土庫","LANE":" ","ALLEY":" ","HOUSE_NO":"１３０號","E_COORD97":183275.10000000001,"N_COORD97":2579678.3399999999,"ADDRESS":"土庫１３０號","OBJECTID":111141},"geometry":{"x":183275.09999999963,"y":2579678.3400000036}},{"attributes":{"ID":111142,"DIS_CODE":0,"TOWNNAME":"安南區","LI":"頂安里","LIN":"9鄰","STREET":"頂安街","SECT":" ","MAREA":" ","LANE":"２６０巷","ALLEY":"４５弄","HOUSE_NO":"７號","E_COORD97":169133.85000000001,"N_COORD97":2549472.23,"ADDRESS":"頂安街２６０巷４５弄７號","OBJECTID":111142},"geometry":{"x":169133.84999999963,"y":2549472.2300000023}},{"attributes":{"ID":111143,"DIS_CODE":0,"TOWNNAME":"安南區","LI":"頂安里","LIN":"9鄰","STREET":"頂安街","SECT":" ","MAREA":" ","LANE":"２６０巷","ALLEY":"４５弄","HOUSE_NO":"９號","E_COORD97":169129.20999999999,"N_COORD97":2549467.6400000001,"ADDRESS":"頂安街２６０巷４５弄９號","OBJECTID":111143},"geometry":{"x":169129.21000000089,"y":2549467.6400000006}},{"attributes":{"ID":111144,"DIS_CODE":0,"TOWNNAME":"新化區","LI":"\u25A0拔里","LIN":"1鄰","STREET":" ","SECT":" ","MAREA":"\u25A0拔林","LANE":" ","ALLEY":" ","HOUSE_NO":"４９號之２","E_COORD97":183239.82999999999,"N_COORD97":2551949.2599999998,"ADDRESS":"\u25A0拔林４９號之２","OBJECTID":111144},"geometry":{"x":183239.83000000101,"y":2551949.2600000016}},{"attributes":{"ID":111145,"DIS_CODE":0,"TOWNNAME":"大內區","LI":"石林里","LIN":"9鄰","STREET":" ","SECT":" ","MAREA":"石子瀨","LANE":" ","ALLEY":" ","HOUSE_NO":"２０４號","E_COORD97":184225.67000000001,"N_COORD97":2558104.25,"ADDRESS":"石子瀨２０４號","OBJECTID":111145},"geometry":{"x":184225.67000000086,"y":2558104.2500000019}},{"attributes":{"ID":111146,"DIS_CODE":0,"TOWNNAME":"大內區","LI":"曲溪里","LIN":"9鄰","STREET":" ","SECT":" ","MAREA":"二重溪","LANE":" ","ALLEY":" ","HOUSE_NO":"８３號","E_COORD97":187327.39000000001,"N_COORD97":2557654.3100000001,"ADDRESS":"二重溪８３號","OBJECTID":111146},"geometry":{"x":187327.3900000006,"y":2557654.3100000005}},{"attributes":{"ID":111147,"DIS_CODE":0,"TOWNNAME":"大內區","LI":"曲溪里","LIN":"9鄰","STREET":" ","SECT":" ","MAREA":"二重溪","LANE":" ","ALLEY":" ","HOUSE_NO":"８９號","E_COORD97":187392.48999999999,"N_COORD97":2557668.3100000001,"ADDRESS":"二重溪８９號","OBJECTID":111147},"geometry":{"x":187392.49000000022,"y":2557668.3100000005}},{"attributes":{"ID":111148,"DIS_CODE":0,"TOWNNAME":"安南區","LI":"頂安里","LIN":"9鄰","STREET":"頂安街","SECT":" ","MAREA":" ","LANE":"２６０巷","ALLEY":"４５弄","HOUSE_NO":"１１號","E_COORD97":169125.63,"N_COORD97":2549463.6899999999,"ADDRESS":"頂安街２６０巷４５弄１１號","OBJECTID":111148},"geometry":{"x":169125.62999999989,"y":2549463.6899999995}},{"attributes":{"ID":111149,"DIS_CODE":0,"TOWNNAME":"安南區","LI":"頂安里","LIN":"9鄰","STREET":"頂安街","SECT":" ","MAREA":" ","LANE":"２６０巷","ALLEY":"４５弄","HOUSE_NO":"１３號","E_COORD97":169123.42999999999,"N_COORD97":2549459.79,"ADDRESS":"頂安街２６０巷４５弄１３號","OBJECTID":111149},"geometry":{"x":169123.4299999997,"y":2549459.790000001}},{"attributes":{"ID":111150,"DIS_CODE":0,"TOWNNAME":"大內區","LI":"石林里","LIN":"9鄰","STREET":" ","SECT":" ","MAREA":"石子瀨","LANE":" ","ALLEY":" ","HOUSE_NO":"２０７號","E_COORD97":184129.97,"N_COORD97":2558119.25,"ADDRESS":"石子瀨２０７號","OBJECTID":111150},"geometry":{"x":184129.97000000067,"y":2558119.25}},{"attributes":{"ID":111151,"DIS_CODE":0,"TOWNNAME":"麻豆區","LI":"油車里","LIN":"9鄰","STREET":" ","SECT":" ","MAREA":"油車","LANE":" ","ALLEY":" ","HOUSE_NO":"４３號之１５","E_COORD97":172530.95000000001,"N_COORD97":2565667.6200000001,"ADDRESS":"油車４３號之１５","OBJECTID":111151},"geometry":{"x":172530.95000000019,"y":2565667.620000001}},{"attributes":{"ID":111152,"DIS_CODE":0,"TOWNNAME":"安南區","LI":"頂安里","LIN":"9鄰","STREET":"頂安街","SECT":" ","MAREA":" ","LANE":"２６０巷","ALLEY":"４５弄","HOUSE_NO":"１５號","E_COORD97":169120.54999999999,"N_COORD97":2549456.6400000001,"ADDRESS":"頂安街２６０巷４５弄１５號","OBJECTID":111152},"geometry":{"x":169120.54999999981,"y":2549456.6400000025}},{"attributes":{"ID":111153,"DIS_CODE":0,"TOWNNAME":"大內區","LI":"頭社里","LIN":"9鄰","STREET":" ","SECT":" ","MAREA":"頭社","LANE":" ","ALLEY":" ","HOUSE_NO":"１１３號之２","E_COORD97":186007.95999999999,"N_COORD97":2561550.2999999998,"ADDRESS":"頭社１１３號之２","OBJECTID":111153},"geometry":{"x":186007.96000000183,"y":2561550.3000000007}},{"attributes":{"ID":111154,"DIS_CODE":0,"TOWNNAME":"大內區","LI":"二溪里","LIN":"9鄰","STREET":" ","SECT":" ","MAREA":"二重溪","LANE":" ","ALLEY":" ","HOUSE_NO":"２３２號之１","E_COORD97":188786.48000000001,"N_COORD97":2560347.3100000001,"ADDRESS":"二重溪２３２號之１","OBJECTID":111154},"geometry":{"x":188786.48000000045,"y":2560347.3100000042}},{"attributes":{"ID":111155,"DIS_CODE":0,"TOWNNAME":"安南區","LI":"頂安里","LIN":"9鄰","STREET":"頂安街","SECT":" ","MAREA":" ","LANE":"２６０巷","ALLEY":"４５弄","HOUSE_NO":"１７號","E_COORD97":169114.39000000001,"N_COORD97":2549457.1299999999,"ADDRESS":"頂安街２６０巷４５弄１７號","OBJECTID":111155},"geometry":{"x":169114.3900000006,"y":2549457.1300000027}},{"attributes":{"ID":111156,"DIS_CODE":0,"TOWNNAME":"北區","LI":"中樓里","LIN":"1鄰","STREET":"小東路","SECT":" ","MAREA":" ","LANE":" ","ALLEY":" ","HOUSE_NO":"３５號","E_COORD97":169812.89999999999,"N_COORD97":2544658.6200000001,"ADDRESS":"小東路３５號","OBJECTID":111156},"geometry":{"x":169812.90000000224,"y":2544658.6200000048}},{"attributes":{"ID":111157,"DIS_CODE":0,"TOWNNAME":"後壁區","LI":"後部里","LIN":"8鄰","STREET":" ","SECT":" ","MAREA":"後部","LANE":" ","ALLEY":" ","HOUSE_NO":"８５號","E_COORD97":182226.57000000001,"N_COORD97":2586728.2400000002,"ADDRESS":"後部８５號","OBJECTID":111157},"geometry":{"x":182226.5700000003,"y":2586728.2400000039}},{"attributes":{"ID":111158,"DIS_CODE":0,"TOWNNAME":"大內區","LI":"內郭里","LIN":"9鄰","STREET":" ","SECT":" ","MAREA":"後堀","LANE":" ","ALLEY":" ","HOUSE_NO":"３４號之１","E_COORD97":185716.48999999999,"N_COORD97":2557228.3100000001,"ADDRESS":"後堀３４號之１","OBJECTID":111158},"geometry":{"x":185716.49000000209,"y":2557228.3100000042}},{"attributes":{"ID":111159,"DIS_CODE":0,"TOWNNAME":"大內區","LI":"大內里","LIN":"9鄰","STREET":" ","SECT":" ","MAREA":"內庄","LANE":" ","ALLEY":" ","HOUSE_NO":"９６號","E_COORD97":184635.23000000001,"N_COORD97":2557446.25,"ADDRESS":"內庄９６號","OBJECTID":111159},"geometry":{"x":184635.23000000231,"y":2557446.2500000019}},{"attributes":{"ID":111160,"DIS_CODE":0,"TOWNNAME":"大內區","LI":"大內里","LIN":"9鄰","STREET":" ","SECT":" ","MAREA":"內庄","LANE":" ","ALLEY":" ","HOUSE_NO":"９７號","E_COORD97":184638.32999999999,"N_COORD97":2557444.25,"ADDRESS":"內庄９７號","OBJECTID":111160},"geometry":{"x":184638.33000000101,"y":2557444.25}},{"attributes":{"ID":111161,"DIS_CODE":0,"TOWNNAME":"大內區","LI":"大內里","LIN":"9鄰","STREET":" ","SECT":" ","MAREA":"內庄","LANE":" ","ALLEY":" ","HOUSE_NO":"１０９號","E_COORD97":184704.57999999999,"N_COORD97":2557466.25,"ADDRESS":"內庄１０９號","OBJECTID":111161},"geometry":{"x":184704.58000000007,"y":2557466.2500000019}},{"attributes":{"ID":111162,"DIS_CODE":0,"TOWNNAME":"麻豆區","LI":"安正里","LIN":"9鄰","STREET":" ","SECT":" ","MAREA":"社子","LANE":" ","ALLEY":" ","HOUSE_NO":"２７號之１","E_COORD97":172065.41,"N_COORD97":2562370.4900000002,"ADDRESS":"社子２７號之１","OBJECTID":111162},"geometry":{"x":172065.40999999922,"y":2562370.4900000021}},{"attributes":{"ID":111163,"DIS_CODE":0,"TOWNNAME":"新化區","LI":"\u25A0拔里","LIN":"1鄰","STREET":" ","SECT":" ","MAREA":"\u25A0拔林","LANE":" ","ALLEY":" ","HOUSE_NO":"５０號之３","E_COORD97":183306.01999999999,"N_COORD97":2551945.2599999998,"ADDRESS":"\u25A0拔林５０號之３","OBJECTID":111163},"geometry":{"x":183306.01999999955,"y":2551945.2599999998}},{"attributes":{"ID":111164,"DIS_CODE":0,"TOWNNAME":"新化區","LI":"知義里","LIN":"1鄰","STREET":" ","SECT":" ","MAREA":"知母義","LANE":" ","ALLEY":" ","HOUSE_NO":"１７１號之４","E_COORD97":179687.35999999999,"N_COORD97":2547097.2599999998,"ADDRESS":"知母義１７１號之４","OBJECTID":111164},"geometry":{"x":179687.36000000034,"y":2547097.2600000035}},{"attributes":{"ID":111165,"DIS_CODE":0,"TOWNNAME":"安南區","LI":"頂安里","LIN":"9鄰","STREET":"頂安街","SECT":" ","MAREA":" ","LANE":"２６０巷","ALLEY":"４５弄","HOUSE_NO":"１９號","E_COORD97":169110.22,"N_COORD97":2549455.6099999999,"ADDRESS":"頂安街２６０巷４５弄１９號","OBJECTID":111165},"geometry":{"x":169110.22000000067,"y":2549455.6100000013}},{"attributes":{"ID":111166,"DIS_CODE":0,"TOWNNAME":"新化區","LI":"\u25A0拔里","LIN":"1鄰","STREET":" ","SECT":" ","MAREA":"\u25A0拔林","LANE":" ","ALLEY":" ","HOUSE_NO":"３９號之３","E_COORD97":183075.22,"N_COORD97":2552008.2599999998,"ADDRESS":"\u25A0拔林３９號之３","OBJECTID":111166},"geometry":{"x":183075.22000000067,"y":2552008.2600000016}},{"attributes":{"ID":111167,"DIS_CODE":0,"TOWNNAME":"新化區","LI":"知義里","LIN":"1鄰","STREET":" ","SECT":" ","MAREA":"知母義","LANE":" ","ALLEY":" ","HOUSE_NO":"４７號","E_COORD97":179683.07000000001,"N_COORD97":2546993.25,"ADDRESS":"知母義４７號","OBJECTID":111167},"geometry":{"x":179683.07000000123,"y":2546993.2500000019}},{"attributes":{"ID":111168,"DIS_CODE":0,"TOWNNAME":"新化區","LI":"\u25A0拔里","LIN":"1鄰","STREET":" ","SECT":" ","MAREA":"\u25A0拔林","LANE":" ","ALLEY":" ","HOUSE_NO":"３６號之１３","E_COORD97":183068.87,"N_COORD97":2552078.2599999998,"ADDRESS":"\u25A0拔林３６號之１３","OBJECTID":111168},"geometry":{"x":183068.87000000011,"y":2552078.2600000016}},{"attributes":{"ID":111169,"DIS_CODE":0,"TOWNNAME":"新化區","LI":"\u25A0拔里","LIN":"1鄰","STREET":" ","SECT":" ","MAREA":"\u25A0拔林","LANE":" ","ALLEY":" ","HOUSE_NO":"１號","E_COORD97":182433.51999999999,"N_COORD97":2551694.25,"ADDRESS":"\u25A0拔林１號","OBJECTID":111169},"geometry":{"x":182433.51999999862,"y":2551694.25}},{"attributes":{"ID":111170,"DIS_CODE":0,"TOWNNAME":"新化區","LI":"\u25A0拔里","LIN":"1鄰","STREET":" ","SECT":" ","MAREA":"\u25A0拔林","LANE":" ","ALLEY":" ","HOUSE_NO":"４２號","E_COORD97":183204.76999999999,"N_COORD97":2552069.25,"ADDRESS":"\u25A0拔林４２號","OBJECTID":111170},"geometry":{"x":183204.76999999955,"y":2552069.2500000019}},{"attributes":{"ID":111171,"DIS_CODE":0,"TOWNNAME":"新化區","LI":"\u25A0拔里","LIN":"1鄰","STREET":" ","SECT":" ","MAREA":"\u25A0拔林","LANE":" ","ALLEY":" ","HOUSE_NO":"２６號之１","E_COORD97":183109.70000000001,"N_COORD97":2551907.2599999998,"ADDRESS":"\u25A0拔林２６號之１","OBJECTID":111171},"geometry":{"x":183109.70000000112,"y":2551907.2599999998}},{"attributes":{"ID":111172,"DIS_CODE":0,"TOWNNAME":"新化區","LI":"\u25A0拔里","LIN":"1鄰","STREET":" ","SECT":" ","MAREA":"\u25A0拔林","LANE":" ","ALLEY":" ","HOUSE_NO":"１３號","E_COORD97":183118.37,"N_COORD97":2551882.25,"ADDRESS":"\u25A0拔林１３號","OBJECTID":111172},"geometry":{"x":183118.37000000197,"y":2551882.2500000019}},{"attributes":{"ID":111173,"DIS_CODE":0,"TOWNNAME":"新化區","LI":"知義里","LIN":"1鄰","STREET":" ","SECT":" ","MAREA":"知母義","LANE":" ","ALLEY":" ","HOUSE_NO":"１７２號","E_COORD97":179679.72,"N_COORD97":2547096.25,"ADDRESS":"知母義１７２號","OBJECTID":111173},"geometry":{"x":179679.72000000067,"y":2547096.25}},{"attributes":{"ID":111174,"DIS_CODE":0,"TOWNNAME":"新化區","LI":"羊林里","LIN":"1鄰","STREET":" ","SECT":" ","MAREA":"\u25A0拔林","LANE":" ","ALLEY":" ","HOUSE_NO":"３７９號","E_COORD97":183612.22,"N_COORD97":2551811.25,"ADDRESS":"\u25A0拔林３７９號","OBJECTID":111174},"geometry":{"x":183612.21999999881,"y":2551811.2500000019}},{"attributes":{"ID":111175,"DIS_CODE":0,"TOWNNAME":"新化區","LI":"\u25A0拔里","LIN":"1鄰","STREET":" ","SECT":" ","MAREA":"\u25A0拔林","LANE":" ","ALLEY":" ","HOUSE_NO":"２３號","E_COORD97":183276.37,"N_COORD97":2551911.25,"ADDRESS":"\u25A0拔林２３號","OBJECTID":111175},"geometry":{"x":183276.37000000104,"y":2551911.25}},{"attributes":{"ID":111176,"DIS_CODE":0,"TOWNNAME":"新營區","LI":"太南里","LIN":"19鄰","STREET":" ","SECT":" ","MAREA":"太子宮","LANE":" ","ALLEY":" ","HOUSE_NO":"３１４之３號","E_COORD97":175952.42999999999,"N_COORD97":2576381.98,"ADDRESS":"太子宮３１４之３號","OBJECTID":111176},"geometry":{"x":175952.43000000063,"y":2576381.9800000004}},{"attributes":{"ID":111177,"DIS_CODE":0,"TOWNNAME":"麻豆區","LI":"安正里","LIN":"9鄰","STREET":" ","SECT":" ","MAREA":"社子","LANE":" ","ALLEY":" ","HOUSE_NO":"２８號之１１","E_COORD97":172198.01999999999,"N_COORD97":2562087.1800000002,"ADDRESS":"社子２８號之１１","OBJECTID":111177},"geometry":{"x":172198.02000000142,"y":2562087.1800000016}},{"attributes":{"ID":111178,"DIS_CODE":0,"TOWNNAME":"麻豆區","LI":"安正里","LIN":"9鄰","STREET":" ","SECT":" ","MAREA":"社子","LANE":" ","ALLEY":" ","HOUSE_NO":"２８號之１","E_COORD97":172108.16,"N_COORD97":2562326.9100000001,"ADDRESS":"社子２８號之１","OBJECTID":111178},"geometry":{"x":172108.16000000108,"y":2562326.910000002}},{"attributes":{"ID":111179,"DIS_CODE":0,"TOWNNAME":"麻豆區","LI":"安正里","LIN":"9鄰","STREET":" ","SECT":" ","MAREA":"社子","LANE":" ","ALLEY":" ","HOUSE_NO":"２８號之２","E_COORD97":172101.35000000001,"N_COORD97":2562339.2999999998,"ADDRESS":"社子２８號之２","OBJECTID":111179},"geometry":{"x":172101.35000000056,"y":2562339.3000000026}},{"attributes":{"ID":111180,"DIS_CODE":0,"TOWNNAME":"麻豆區","LI":"安正里","LIN":"9鄰","STREET":" ","SECT":" ","MAREA":"社子","LANE":" ","ALLEY":" ","HOUSE_NO":"２８號之６","E_COORD97":172079.64259500001,"N_COORD97":2562318.4853300001,"ADDRESS":"社子２８號之６","OBJECTID":111180},"geometry":{"x":172079.64259500057,"y":2562318.4853320029}},{"attributes":{"ID":111181,"DIS_CODE":0,"TOWNNAME":"麻豆區","LI":"安正里","LIN":"9鄰","STREET":" ","SECT":" ","MAREA":"社子","LANE":" ","ALLEY":" ","HOUSE_NO":"２８號","E_COORD97":172089.920641,"N_COORD97":2562324.62366,"ADDRESS":"社子２８號","OBJECTID":111181},"geometry":{"x":172089.92064100038,"y":2562324.6236619987}},{"attributes":{"ID":111182,"DIS_CODE":0,"TOWNNAME":"麻豆區","LI":"安正里","LIN":"9鄰","STREET":" ","SECT":" ","MAREA":"社子","LANE":" ","ALLEY":" ","HOUSE_NO":"２９號之１","E_COORD97":172103.04000000001,"N_COORD97":2562357.79,"ADDRESS":"社子２９號之１","OBJECTID":111182},"geometry":{"x":172103.04000000004,"y":2562357.790000001}},{"attributes":{"ID":111183,"DIS_CODE":0,"TOWNNAME":"麻豆區","LI":"安正里","LIN":"9鄰","STREET":" ","SECT":" ","MAREA":"社子","LANE":" ","ALLEY":" ","HOUSE_NO":"２９號","E_COORD97":172089.29000000001,"N_COORD97":2562364.98,"ADDRESS":"社子２９號","OBJECTID":111183},"geometry":{"x":172089.29000000004,"y":2562364.9800000023}},{"attributes":{"ID":111184,"DIS_CODE":0,"TOWNNAME":"麻豆區","LI":"安正里","LIN":"9鄰","STREET":" ","SECT":" ","MAREA":"社子","LANE":" ","ALLEY":" ","HOUSE_NO":"３０號","E_COORD97":172139.42000000001,"N_COORD97":2562353.8799999999,"ADDRESS":"社子３０號","OBJECTID":111184},"geometry":{"x":172139.41999999993,"y":2562353.8800000008}},{"attributes":{"ID":111185,"DIS_CODE":0,"TOWNNAME":"麻豆區","LI":"油車里","LIN":"9鄰","STREET":" ","SECT":" ","MAREA":"油車","LANE":" ","ALLEY":" ","HOUSE_NO":"４１號之１","E_COORD97":172558.51999999999,"N_COORD97":2565608.4900000002,"ADDRESS":"油車４１號之１","OBJECTID":111185},"geometry":{"x":172558.51999999955,"y":2565608.4900000021}},{"attributes":{"ID":111186,"DIS_CODE":0,"TOWNNAME":"麻豆區","LI":"油車里","LIN":"9鄰","STREET":" ","SECT":" ","MAREA":"油車","LANE":" ","ALLEY":" ","HOUSE_NO":"４１號","E_COORD97":172587.70999999999,"N_COORD97":2565609.8999999999,"ADDRESS":"油車４１號","OBJECTID":111186},"geometry":{"x":172587.71000000089,"y":2565609.9000000022}},{"attributes":{"ID":111187,"DIS_CODE":0,"TOWNNAME":"麻豆區","LI":"油車里","LIN":"9鄰","STREET":" ","SECT":" ","MAREA":"油車","LANE":" ","ALLEY":" ","HOUSE_NO":"４２號之１","E_COORD97":172530.78,"N_COORD97":2565601.5299999998,"ADDRESS":"油車４２號之１","OBJECTID":111187},"geometry":{"x":172530.78000000026,"y":2565601.5299999993}},{"attributes":{"ID":111188,"DIS_CODE":0,"TOWNNAME":"南化區","LI":"東和里","LIN":"1鄰","STREET":" ","SECT":" ","MAREA":"東和","LANE":" ","ALLEY":" ","HOUSE_NO":"１之３號","E_COORD97":195916.12,"N_COORD97":2547608.7999999998,"ADDRESS":"東和１之３號","OBJECTID":111188},"geometry":{"x":195916.12000000104,"y":2547608.8000000007}},{"attributes":{"ID":111189,"DIS_CODE":0,"TOWNNAME":"安南區","LI":"頂安里","LIN":"9鄰","STREET":"頂安街","SECT":" ","MAREA":" ","LANE":"２６０巷","ALLEY":"４５弄","HOUSE_NO":"２１號","E_COORD97":169103.19,"N_COORD97":2549452.1099999999,"ADDRESS":"頂安街２６０巷４５弄２１號","OBJECTID":111189},"geometry":{"x":169103.19000000134,"y":2549452.1100000013}},{"attributes":{"ID":111190,"DIS_CODE":0,"TOWNNAME":"安南區","LI":"頂安里","LIN":"9鄰","STREET":"頂安街","SECT":" ","MAREA":" ","LANE":"２６０巷","ALLEY":"４５弄","HOUSE_NO":"２３號","E_COORD97":169087.75,"N_COORD97":2549470.0299999998,"ADDRESS":"頂安街２６０巷４５弄２３號","OBJECTID":111190},"geometry":{"x":169087.75,"y":2549470.0299999993}},{"attributes":{"ID":111191,"DIS_CODE":0,"TOWNNAME":"安南區","LI":"頂安里","LIN":"9鄰","STREET":"頂安街","SECT":" ","MAREA":" ","LANE":"２６０巷","ALLEY":"４５弄","HOUSE_NO":"２５號","E_COORD97":169091.23000000001,"N_COORD97":2549474.23,"ADDRESS":"頂安街２６０巷４５弄２５號","OBJECTID":111191},"geometry":{"x":169091.23000000045,"y":2549474.2300000004}},{"attributes":{"ID":111192,"DIS_CODE":0,"TOWNNAME":"安南區","LI":"頂安里","LIN":"9鄰","STREET":"頂安街","SECT":" ","MAREA":" ","LANE":"２６０巷","ALLEY":"４５弄","HOUSE_NO":"２７號","E_COORD97":169094.59,"N_COORD97":2549476.79,"ADDRESS":"頂安街２６０巷４５弄２７號","OBJECTID":111192},"geometry":{"x":169094.59000000078,"y":2549476.790000001}},{"attributes":{"ID":111193,"DIS_CODE":0,"TOWNNAME":"安南區","LI":"頂安里","LIN":"9鄰","STREET":"頂安街","SECT":" ","MAREA":" ","LANE":"２６０巷","ALLEY":"４５弄","HOUSE_NO":"２９號","E_COORD97":169097.94,"N_COORD97":2549479.3500000001,"ADDRESS":"頂安街２６０巷４５弄２９號","OBJECTID":111193},"geometry":{"x":169097.94000000134,"y":2549479.3499999996}},{"attributes":{"ID":111194,"DIS_CODE":0,"TOWNNAME":"安南區","LI":"頂安里","LIN":"9鄰","STREET":"頂安街","SECT":" ","MAREA":" ","LANE":"２６０巷","ALLEY":"４５弄","HOUSE_NO":"３１號","E_COORD97":169101.29999999999,"N_COORD97":2549481.9100000001,"ADDRESS":"頂安街２６０巷４５弄３１號","OBJECTID":111194},"geometry":{"x":169101.30000000075,"y":2549481.9100000001}},{"attributes":{"ID":111195,"DIS_CODE":0,"TOWNNAME":"安南區","LI":"頂安里","LIN":"9鄰","STREET":"頂安街","SECT":" ","MAREA":" ","LANE":"２６０巷","ALLEY":"４５弄","HOUSE_NO":"３３號","E_COORD97":169104.64999999999,"N_COORD97":2549484.4700000002,"ADDRESS":"頂安街２６０巷４５弄３３號","OBJECTID":111195},"geometry":{"x":169104.6500000013,"y":2549484.4700000025}},{"attributes":{"ID":111196,"DIS_CODE":0,"TOWNNAME":"安南區","LI":"頂安里","LIN":"9鄰","STREET":"頂安街","SECT":" ","MAREA":" ","LANE":"２６０巷","ALLEY":"４５弄","HOUSE_NO":"３５號","E_COORD97":169108.01000000001,"N_COORD97":2549487.0299999998,"ADDRESS":"頂安街２６０巷４５弄３５號","OBJECTID":111196},"geometry":{"x":169108.01000000164,"y":2549487.0299999993}},{"attributes":{"ID":111197,"DIS_CODE":0,"TOWNNAME":"麻豆區","LI":"油車里","LIN":"9鄰","STREET":" ","SECT":" ","MAREA":"油車","LANE":" ","ALLEY":" ","HOUSE_NO":"４３號之１","E_COORD97":172545.10000000001,"N_COORD97":2565650.2400000002,"ADDRESS":"油車４３號之１","OBJECTID":111197},"geometry":{"x":172545.10000000149,"y":2565650.2400000039}},{"attributes":{"ID":111198,"DIS_CODE":0,"TOWNNAME":"麻豆區","LI":"油車里","LIN":"9鄰","STREET":" ","SECT":" ","MAREA":"油車","LANE":" ","ALLEY":" ","HOUSE_NO":"４３號之２","E_COORD97":172563.42000000001,"N_COORD97":2565629.3900000001,"ADDRESS":"油車４３號之２","OBJECTID":111198},"geometry":{"x":172563.41999999993,"y":2565629.3900000025}},{"attributes":{"ID":111199,"DIS_CODE":0,"TOWNNAME":"麻豆區","LI":"油車里","LIN":"9鄰","STREET":" ","SECT":" ","MAREA":"油車","LANE":" ","ALLEY":" ","HOUSE_NO":"４３號之４","E_COORD97":172529.89000000001,"N_COORD97":2565630.2200000002,"ADDRESS":"油車４３號之４","OBJECTID":111199},"geometry":{"x":172529.8900000006,"y":2565630.2200000044}},{"attributes":{"ID":111200,"DIS_CODE":0,"TOWNNAME":"麻豆區","LI":"油車里","LIN":"9鄰","STREET":" ","SECT":" ","MAREA":"油車","LANE":" ","ALLEY":" ","HOUSE_NO":"４４號之１","E_COORD97":172531.82999999999,"N_COORD97":2565678.5600000001,"ADDRESS":"油車４４號之１","OBJECTID":111200},"geometry":{"x":172531.83000000007,"y":2565678.5599999987}}]}