{"displayFieldName":"TOWNNAME","fieldAliases":{"ID":"ID","DIS_CODE":"DIS_CODE","TOWNNAME":"TOWNNAME","LI":"LI","LIN":"LIN","STREET":"STREET","SECT":"SECT","MAREA":"MAREA","LANE":"LANE","ALLEY":"ALLEY","HOUSE_NO":"HOUSE_NO","E_COORD97":"E_COORD97","N_COORD97":"N_COORD97","ADDRESS":"ADDRESS","OBJECTID":"OBJECTID"},"geometryType":"esriGeometryPoint","spatialReference":{"wkid":102443,"latestWkid":3826},"fields":[{"name":"ID","type":"esriFieldTypeDouble","alias":"ID"},{"name":"DIS_CODE","type":"esriFieldTypeInteger","alias":"DIS_CODE"},{"name":"TOWNNAME","type":"esriFieldTypeString","alias":"TOWNNAME","length":8},{"name":"LI","type":"esriFieldTypeString","alias":"LI","length":8},{"name":"LIN","type":"esriFieldTypeString","alias":"LIN","length":12},{"name":"STREET","type":"esriFieldTypeString","alias":"STREET","length":20},{"name":"SECT","type":"esriFieldTypeString","alias":"SECT","length":8},{"name":"MAREA","type":"esriFieldTypeString","alias":"MAREA","length":12},{"name":"LANE","type":"esriFieldTypeString","alias":"LANE","length":10},{"name":"ALLEY","type":"esriFieldTypeString","alias":"ALLEY","length":10},{"name":"HOUSE_NO","type":"esriFieldTypeString","alias":"HOUSE_NO","length":20},{"name":"E_COORD97","type":"esriFieldTypeDouble","alias":"E_COORD97"},{"name":"N_COORD97","type":"esriFieldTypeDouble","alias":"N_COORD97"},{"name":"ADDRESS","type":"esriFieldTypeString","alias":"ADDRESS","length":50},{"name":"OBJECTID","type":"esriFieldTypeOID","alias":"OBJECTID"}],"features":[{"attributes":{"ID":464826,"DIS_CODE":0,"TOWNNAME":"東區","LI":"龍山里","LIN":"5鄰","STREET":"龍山街","SECT":" ","MAREA":" ","LANE":" ","ALLEY":" ","HOUSE_NO":"１０９號九樓","E_COORD97":170359.76999999999,"N_COORD97":2542706.96,"ADDRESS":"龍山街１０９號九樓","OBJECTID":464801},"geometry":{"x":170359.76999999955,"y":2542706.9600000028}},{"attributes":{"ID":464827,"DIS_CODE":0,"TOWNNAME":"東區","LI":"龍山里","LIN":"5鄰","STREET":"龍山街","SECT":" ","MAREA":" ","LANE":" ","ALLEY":" ","HOUSE_NO":"１０９號十樓","E_COORD97":170359.76999999999,"N_COORD97":2542706.96,"ADDRESS":"龍山街１０９號十樓","OBJECTID":464802},"geometry":{"x":170359.76999999955,"y":2542706.9600000028}},{"attributes":{"ID":464828,"DIS_CODE":0,"TOWNNAME":"東區","LI":"龍山里","LIN":"5鄰","STREET":"龍山街","SECT":" ","MAREA":" ","LANE":" ","ALLEY":" ","HOUSE_NO":"１０９號十一樓","E_COORD97":170359.76999999999,"N_COORD97":2542706.96,"ADDRESS":"龍山街１０９號十一樓","OBJECTID":464803},"geometry":{"x":170359.76999999955,"y":2542706.9600000028}},{"attributes":{"ID":464829,"DIS_CODE":0,"TOWNNAME":"東區","LI":"龍山里","LIN":"5鄰","STREET":"龍山街","SECT":" ","MAREA":" ","LANE":" ","ALLEY":" ","HOUSE_NO":"１０９號十二樓","E_COORD97":170359.76999999999,"N_COORD97":2542706.96,"ADDRESS":"龍山街１０９號十二樓","OBJECTID":464804},"geometry":{"x":170359.76999999955,"y":2542706.9600000028}},{"attributes":{"ID":464830,"DIS_CODE":0,"TOWNNAME":"東區","LI":"龍山里","LIN":"5鄰","STREET":"龍山街","SECT":" ","MAREA":" ","LANE":" ","ALLEY":" ","HOUSE_NO":"８５號四樓","E_COORD97":170312.63,"N_COORD97":2542649.2599999998,"ADDRESS":"龍山街８５號四樓","OBJECTID":464805},"geometry":{"x":170312.63000000175,"y":2542649.2600000035}},{"attributes":{"ID":464831,"DIS_CODE":0,"TOWNNAME":"東區","LI":"龍山里","LIN":"5鄰","STREET":"龍山街","SECT":" ","MAREA":" ","LANE":" ","ALLEY":" ","HOUSE_NO":"８５號五樓","E_COORD97":170312.63,"N_COORD97":2542649.2599999998,"ADDRESS":"龍山街８５號五樓","OBJECTID":464806},"geometry":{"x":170312.63000000175,"y":2542649.2600000035}},{"attributes":{"ID":464832,"DIS_CODE":0,"TOWNNAME":"東區","LI":"龍山里","LIN":"5鄰","STREET":"龍山街","SECT":" ","MAREA":" ","LANE":" ","ALLEY":" ","HOUSE_NO":"８５號六樓","E_COORD97":170312.63,"N_COORD97":2542649.2599999998,"ADDRESS":"龍山街８５號六樓","OBJECTID":464807},"geometry":{"x":170312.63000000175,"y":2542649.2600000035}},{"attributes":{"ID":464833,"DIS_CODE":0,"TOWNNAME":"東區","LI":"龍山里","LIN":"5鄰","STREET":"龍山街","SECT":" ","MAREA":" ","LANE":" ","ALLEY":" ","HOUSE_NO":"８５號七樓","E_COORD97":170312.63,"N_COORD97":2542649.2599999998,"ADDRESS":"龍山街８５號七樓","OBJECTID":464808},"geometry":{"x":170312.63000000175,"y":2542649.2600000035}},{"attributes":{"ID":464834,"DIS_CODE":0,"TOWNNAME":"東區","LI":"龍山里","LIN":"5鄰","STREET":"龍山街","SECT":" ","MAREA":" ","LANE":" ","ALLEY":" ","HOUSE_NO":"８５號八樓","E_COORD97":170312.63,"N_COORD97":2542649.2599999998,"ADDRESS":"龍山街８５號八樓","OBJECTID":464809},"geometry":{"x":170312.63000000175,"y":2542649.2600000035}},{"attributes":{"ID":464835,"DIS_CODE":0,"TOWNNAME":"東區","LI":"龍山里","LIN":"5鄰","STREET":"龍山街","SECT":" ","MAREA":" ","LANE":" ","ALLEY":" ","HOUSE_NO":"８５號九樓","E_COORD97":170312.63,"N_COORD97":2542649.2599999998,"ADDRESS":"龍山街８５號九樓","OBJECTID":464810},"geometry":{"x":170312.63000000175,"y":2542649.2600000035}},{"attributes":{"ID":464836,"DIS_CODE":0,"TOWNNAME":"東區","LI":"龍山里","LIN":"5鄰","STREET":"龍山街","SECT":" ","MAREA":" ","LANE":" ","ALLEY":" ","HOUSE_NO":"８５號十樓","E_COORD97":170312.63,"N_COORD97":2542649.2599999998,"ADDRESS":"龍山街８５號十樓","OBJECTID":464811},"geometry":{"x":170312.63000000175,"y":2542649.2600000035}},{"attributes":{"ID":464837,"DIS_CODE":0,"TOWNNAME":"東區","LI":"龍山里","LIN":"5鄰","STREET":"龍山街","SECT":" ","MAREA":" ","LANE":" ","ALLEY":" ","HOUSE_NO":"１０１號九樓","E_COORD97":170338.07000000001,"N_COORD97":2542681.2200000002,"ADDRESS":"龍山街１０１號九樓","OBJECTID":464812},"geometry":{"x":170338.0700000003,"y":2542681.2200000025}},{"attributes":{"ID":464838,"DIS_CODE":0,"TOWNNAME":"東區","LI":"龍山里","LIN":"5鄰","STREET":"龍山街","SECT":" ","MAREA":" ","LANE":" ","ALLEY":" ","HOUSE_NO":"８５號十一樓","E_COORD97":170312.63,"N_COORD97":2542649.2599999998,"ADDRESS":"龍山街８５號十一樓","OBJECTID":464813},"geometry":{"x":170312.63000000175,"y":2542649.2600000035}},{"attributes":{"ID":464839,"DIS_CODE":0,"TOWNNAME":"東區","LI":"龍山里","LIN":"5鄰","STREET":"龍山街","SECT":" ","MAREA":" ","LANE":" ","ALLEY":" ","HOUSE_NO":"８５號十二樓","E_COORD97":170312.63,"N_COORD97":2542649.2599999998,"ADDRESS":"龍山街８５號十二樓","OBJECTID":464814},"geometry":{"x":170312.63000000175,"y":2542649.2600000035}},{"attributes":{"ID":464840,"DIS_CODE":0,"TOWNNAME":"東區","LI":"龍山里","LIN":"5鄰","STREET":"龍山街","SECT":" ","MAREA":" ","LANE":" ","ALLEY":" ","HOUSE_NO":"１０９號二樓","E_COORD97":170359.76999999999,"N_COORD97":2542706.96,"ADDRESS":"龍山街１０９號二樓","OBJECTID":464815},"geometry":{"x":170359.76999999955,"y":2542706.9600000028}},{"attributes":{"ID":464841,"DIS_CODE":0,"TOWNNAME":"東區","LI":"龍山里","LIN":"5鄰","STREET":"龍山街","SECT":" ","MAREA":" ","LANE":" ","ALLEY":" ","HOUSE_NO":"１０９號三樓","E_COORD97":170359.76999999999,"N_COORD97":2542706.96,"ADDRESS":"龍山街１０９號三樓","OBJECTID":464816},"geometry":{"x":170359.76999999955,"y":2542706.9600000028}},{"attributes":{"ID":464842,"DIS_CODE":0,"TOWNNAME":"東區","LI":"龍山里","LIN":"5鄰","STREET":"龍山街","SECT":" ","MAREA":" ","LANE":" ","ALLEY":" ","HOUSE_NO":"１０９號四樓","E_COORD97":170359.76999999999,"N_COORD97":2542706.96,"ADDRESS":"龍山街１０９號四樓","OBJECTID":464817},"geometry":{"x":170359.76999999955,"y":2542706.9600000028}},{"attributes":{"ID":464843,"DIS_CODE":0,"TOWNNAME":"東區","LI":"龍山里","LIN":"5鄰","STREET":"龍山街","SECT":" ","MAREA":" ","LANE":" ","ALLEY":" ","HOUSE_NO":"１０９號五樓","E_COORD97":170359.76999999999,"N_COORD97":2542706.96,"ADDRESS":"龍山街１０９號五樓","OBJECTID":464818},"geometry":{"x":170359.76999999955,"y":2542706.9600000028}},{"attributes":{"ID":464844,"DIS_CODE":0,"TOWNNAME":"永康區","LI":"北灣里","LIN":"4鄰","STREET":"信義街","SECT":" ","MAREA":" ","LANE":" ","ALLEY":" ","HOUSE_NO":"９０號","E_COORD97":175297.42000000001,"N_COORD97":2545656.98,"ADDRESS":"信義街９０號","OBJECTID":464819},"geometry":{"x":175297.41999999993,"y":2545656.9800000023}},{"attributes":{"ID":464845,"DIS_CODE":0,"TOWNNAME":"東區","LI":"龍山里","LIN":"5鄰","STREET":"崇仁街","SECT":" ","MAREA":" ","LANE":" ","ALLEY":" ","HOUSE_NO":"７０號二樓","E_COORD97":170350.20000000001,"N_COORD97":2542725.6099999999,"ADDRESS":"崇仁街７０號二樓","OBJECTID":464820},"geometry":{"x":170350.20000000112,"y":2542725.6100000013}},{"attributes":{"ID":464846,"DIS_CODE":0,"TOWNNAME":"東區","LI":"龍山里","LIN":"5鄰","STREET":"崇仁街","SECT":" ","MAREA":" ","LANE":" ","ALLEY":" ","HOUSE_NO":"７０號三樓","E_COORD97":170350.20000000001,"N_COORD97":2542725.6099999999,"ADDRESS":"崇仁街７０號三樓","OBJECTID":464821},"geometry":{"x":170350.20000000112,"y":2542725.6100000013}},{"attributes":{"ID":464847,"DIS_CODE":0,"TOWNNAME":"東區","LI":"龍山里","LIN":"5鄰","STREET":"崇仁街","SECT":" ","MAREA":" ","LANE":" ","ALLEY":" ","HOUSE_NO":"７０號四樓","E_COORD97":170350.20000000001,"N_COORD97":2542725.6099999999,"ADDRESS":"崇仁街７０號四樓","OBJECTID":464822},"geometry":{"x":170350.20000000112,"y":2542725.6100000013}},{"attributes":{"ID":464848,"DIS_CODE":0,"TOWNNAME":"東區","LI":"龍山里","LIN":"5鄰","STREET":"崇仁街","SECT":" ","MAREA":" ","LANE":" ","ALLEY":" ","HOUSE_NO":"７０號五樓","E_COORD97":170350.20000000001,"N_COORD97":2542725.6099999999,"ADDRESS":"崇仁街７０號五樓","OBJECTID":464823},"geometry":{"x":170350.20000000112,"y":2542725.6100000013}},{"attributes":{"ID":464849,"DIS_CODE":0,"TOWNNAME":"東區","LI":"龍山里","LIN":"5鄰","STREET":"崇仁街","SECT":" ","MAREA":" ","LANE":" ","ALLEY":" ","HOUSE_NO":"７０號六樓","E_COORD97":170350.20000000001,"N_COORD97":2542725.6099999999,"ADDRESS":"崇仁街７０號六樓","OBJECTID":464824},"geometry":{"x":170350.20000000112,"y":2542725.6100000013}},{"attributes":{"ID":464850,"DIS_CODE":0,"TOWNNAME":"東區","LI":"龍山里","LIN":"5鄰","STREET":"崇仁街","SECT":" ","MAREA":" ","LANE":" ","ALLEY":" ","HOUSE_NO":"７０號七樓","E_COORD97":170350.20000000001,"N_COORD97":2542725.6099999999,"ADDRESS":"崇仁街７０號七樓","OBJECTID":464825},"geometry":{"x":170350.20000000112,"y":2542725.6100000013}},{"attributes":{"ID":464851,"DIS_CODE":0,"TOWNNAME":"東區","LI":"龍山里","LIN":"5鄰","STREET":"崇仁街","SECT":" ","MAREA":" ","LANE":" ","ALLEY":" ","HOUSE_NO":"７０號八樓","E_COORD97":170350.20000000001,"N_COORD97":2542725.6099999999,"ADDRESS":"崇仁街７０號八樓","OBJECTID":464826},"geometry":{"x":170350.20000000112,"y":2542725.6100000013}},{"attributes":{"ID":464852,"DIS_CODE":0,"TOWNNAME":"東區","LI":"龍山里","LIN":"5鄰","STREET":"崇仁街","SECT":" ","MAREA":" ","LANE":" ","ALLEY":" ","HOUSE_NO":"７０號九樓","E_COORD97":170350.20000000001,"N_COORD97":2542725.6099999999,"ADDRESS":"崇仁街７０號九樓","OBJECTID":464827},"geometry":{"x":170350.20000000112,"y":2542725.6100000013}},{"attributes":{"ID":464853,"DIS_CODE":0,"TOWNNAME":"東區","LI":"龍山里","LIN":"5鄰","STREET":"崇仁街","SECT":" ","MAREA":" ","LANE":" ","ALLEY":" ","HOUSE_NO":"７０號十樓","E_COORD97":170350.20000000001,"N_COORD97":2542725.6099999999,"ADDRESS":"崇仁街７０號十樓","OBJECTID":464828},"geometry":{"x":170350.20000000112,"y":2542725.6100000013}},{"attributes":{"ID":464854,"DIS_CODE":0,"TOWNNAME":"東區","LI":"龍山里","LIN":"5鄰","STREET":"崇仁街","SECT":" ","MAREA":" ","LANE":" ","ALLEY":" ","HOUSE_NO":"７０號十一樓","E_COORD97":170350.20000000001,"N_COORD97":2542725.6099999999,"ADDRESS":"崇仁街７０號十一樓","OBJECTID":464829},"geometry":{"x":170350.20000000112,"y":2542725.6100000013}},{"attributes":{"ID":464855,"DIS_CODE":0,"TOWNNAME":"東區","LI":"龍山里","LIN":"5鄰","STREET":"崇仁街","SECT":" ","MAREA":" ","LANE":" ","ALLEY":" ","HOUSE_NO":"７０號十二樓","E_COORD97":170350.20000000001,"N_COORD97":2542725.6099999999,"ADDRESS":"崇仁街７０號十二樓","OBJECTID":464830},"geometry":{"x":170350.20000000112,"y":2542725.6100000013}},{"attributes":{"ID":464856,"DIS_CODE":0,"TOWNNAME":"東區","LI":"龍山里","LIN":"5鄰","STREET":"崇仁街","SECT":" ","MAREA":" ","LANE":" ","ALLEY":" ","HOUSE_NO":"７０號十三樓","E_COORD97":170350.20000000001,"N_COORD97":2542725.6099999999,"ADDRESS":"崇仁街７０號十三樓","OBJECTID":464831},"geometry":{"x":170350.20000000112,"y":2542725.6100000013}},{"attributes":{"ID":464857,"DIS_CODE":0,"TOWNNAME":"東區","LI":"龍山里","LIN":"5鄰","STREET":"崇仁街","SECT":" ","MAREA":" ","LANE":" ","ALLEY":" ","HOUSE_NO":"７０號十四樓","E_COORD97":170350.20000000001,"N_COORD97":2542725.6099999999,"ADDRESS":"崇仁街７０號十四樓","OBJECTID":464832},"geometry":{"x":170350.20000000112,"y":2542725.6100000013}},{"attributes":{"ID":464858,"DIS_CODE":0,"TOWNNAME":"南區","LI":"郡南里","LIN":"5鄰","STREET":"永興二街","SECT":" ","MAREA":" ","LANE":" ","ALLEY":" ","HOUSE_NO":"４２號二樓之２","E_COORD97":167215.57000000001,"N_COORD97":2540679.1299999999,"ADDRESS":"永興二街４２號二樓之２","OBJECTID":464833},"geometry":{"x":167215.5700000003,"y":2540679.1299999971}},{"attributes":{"ID":464859,"DIS_CODE":0,"TOWNNAME":"南區","LI":"郡南里","LIN":"5鄰","STREET":"永興二街","SECT":" ","MAREA":" ","LANE":" ","ALLEY":" ","HOUSE_NO":"４２號五樓之１","E_COORD97":167211.59,"N_COORD97":2540689.2400000002,"ADDRESS":"永興二街４２號五樓之１","OBJECTID":464834},"geometry":{"x":167211.58999999985,"y":2540689.2400000002}},{"attributes":{"ID":464860,"DIS_CODE":0,"TOWNNAME":"南區","LI":"郡南里","LIN":"5鄰","STREET":"永興二街","SECT":" ","MAREA":" ","LANE":" ","ALLEY":" ","HOUSE_NO":"４２號八樓之２","E_COORD97":167211.59,"N_COORD97":2540689.2400000002,"ADDRESS":"永興二街４２號八樓之２","OBJECTID":464835},"geometry":{"x":167211.58999999985,"y":2540689.2400000002}},{"attributes":{"ID":464861,"DIS_CODE":0,"TOWNNAME":"南區","LI":"郡南里","LIN":"5鄰","STREET":"永興二街","SECT":" ","MAREA":" ","LANE":" ","ALLEY":" ","HOUSE_NO":"４２號八樓之１","E_COORD97":167211.59,"N_COORD97":2540689.2400000002,"ADDRESS":"永興二街４２號八樓之１","OBJECTID":464836},"geometry":{"x":167211.58999999985,"y":2540689.2400000002}},{"attributes":{"ID":464862,"DIS_CODE":0,"TOWNNAME":"東區","LI":"龍山里","LIN":"5鄰","STREET":"崇仁街","SECT":" ","MAREA":" ","LANE":" ","ALLEY":" ","HOUSE_NO":"７２號三樓","E_COORD97":170359.12,"N_COORD97":2542719.2000000002,"ADDRESS":"崇仁街７２號三樓","OBJECTID":464837},"geometry":{"x":170359.12000000104,"y":2542719.1999999993}},{"attributes":{"ID":464863,"DIS_CODE":0,"TOWNNAME":"東區","LI":"龍山里","LIN":"5鄰","STREET":"崇仁街","SECT":" ","MAREA":" ","LANE":" ","ALLEY":" ","HOUSE_NO":"７２號四樓","E_COORD97":170359.12,"N_COORD97":2542719.2000000002,"ADDRESS":"崇仁街７２號四樓","OBJECTID":464838},"geometry":{"x":170359.12000000104,"y":2542719.1999999993}},{"attributes":{"ID":464864,"DIS_CODE":0,"TOWNNAME":"東區","LI":"龍山里","LIN":"5鄰","STREET":"崇仁街","SECT":" ","MAREA":" ","LANE":" ","ALLEY":" ","HOUSE_NO":"７２號五樓","E_COORD97":170359.12,"N_COORD97":2542719.2000000002,"ADDRESS":"崇仁街７２號五樓","OBJECTID":464839},"geometry":{"x":170359.12000000104,"y":2542719.1999999993}},{"attributes":{"ID":464865,"DIS_CODE":0,"TOWNNAME":"東區","LI":"龍山里","LIN":"5鄰","STREET":"崇仁街","SECT":" ","MAREA":" ","LANE":" ","ALLEY":" ","HOUSE_NO":"７２號六樓","E_COORD97":170359.12,"N_COORD97":2542719.2000000002,"ADDRESS":"崇仁街７２號六樓","OBJECTID":464840},"geometry":{"x":170359.12000000104,"y":2542719.1999999993}},{"attributes":{"ID":464866,"DIS_CODE":0,"TOWNNAME":"東區","LI":"龍山里","LIN":"5鄰","STREET":"崇仁街","SECT":" ","MAREA":" ","LANE":" ","ALLEY":" ","HOUSE_NO":"７２號七樓","E_COORD97":170359.12,"N_COORD97":2542719.2000000002,"ADDRESS":"崇仁街７２號七樓","OBJECTID":464841},"geometry":{"x":170359.12000000104,"y":2542719.1999999993}},{"attributes":{"ID":464867,"DIS_CODE":0,"TOWNNAME":"東區","LI":"龍山里","LIN":"5鄰","STREET":"崇仁街","SECT":" ","MAREA":" ","LANE":" ","ALLEY":" ","HOUSE_NO":"７２號八樓","E_COORD97":170359.12,"N_COORD97":2542719.2000000002,"ADDRESS":"崇仁街７２號八樓","OBJECTID":464842},"geometry":{"x":170359.12000000104,"y":2542719.1999999993}},{"attributes":{"ID":464868,"DIS_CODE":0,"TOWNNAME":"東區","LI":"龍山里","LIN":"5鄰","STREET":"崇仁街","SECT":" ","MAREA":" ","LANE":" ","ALLEY":" ","HOUSE_NO":"７２號九樓","E_COORD97":170359.12,"N_COORD97":2542719.2000000002,"ADDRESS":"崇仁街７２號九樓","OBJECTID":464843},"geometry":{"x":170359.12000000104,"y":2542719.1999999993}},{"attributes":{"ID":464869,"DIS_CODE":0,"TOWNNAME":"東區","LI":"龍山里","LIN":"5鄰","STREET":"崇仁街","SECT":" ","MAREA":" ","LANE":" ","ALLEY":" ","HOUSE_NO":"７２號十樓","E_COORD97":170359.12,"N_COORD97":2542719.2000000002,"ADDRESS":"崇仁街７２號十樓","OBJECTID":464844},"geometry":{"x":170359.12000000104,"y":2542719.1999999993}},{"attributes":{"ID":464870,"DIS_CODE":0,"TOWNNAME":"東區","LI":"龍山里","LIN":"5鄰","STREET":"崇仁街","SECT":" ","MAREA":" ","LANE":" ","ALLEY":" ","HOUSE_NO":"７２號十一樓","E_COORD97":170359.12,"N_COORD97":2542719.2000000002,"ADDRESS":"崇仁街７２號十一樓","OBJECTID":464845},"geometry":{"x":170359.12000000104,"y":2542719.1999999993}},{"attributes":{"ID":464871,"DIS_CODE":0,"TOWNNAME":"東區","LI":"龍山里","LIN":"5鄰","STREET":"崇仁街","SECT":" ","MAREA":" ","LANE":" ","ALLEY":" ","HOUSE_NO":"７２號十二樓","E_COORD97":170359.12,"N_COORD97":2542719.2000000002,"ADDRESS":"崇仁街７２號十二樓","OBJECTID":464846},"geometry":{"x":170359.12000000104,"y":2542719.1999999993}},{"attributes":{"ID":464872,"DIS_CODE":0,"TOWNNAME":"永康區","LI":"永康里","LIN":"26鄰","STREET":"中山北路","SECT":" ","MAREA":" ","LANE":" ","ALLEY":" ","HOUSE_NO":"６６號","E_COORD97":174053.13,"N_COORD97":2547398.3500000001,"ADDRESS":"中山北路６６號","OBJECTID":464847},"geometry":{"x":174053.12999999989,"y":2547398.3500000034}},{"attributes":{"ID":464873,"DIS_CODE":0,"TOWNNAME":"永康區","LI":"永康里","LIN":"42鄰","STREET":"永忠路","SECT":" ","MAREA":" ","LANE":" ","ALLEY":" ","HOUSE_NO":"７８號","E_COORD97":174212.14999999999,"N_COORD97":2546564.0699999998,"ADDRESS":"永忠路７８號","OBJECTID":464848},"geometry":{"x":174212.1500000013,"y":2546564.0700000022}},{"attributes":{"ID":464874,"DIS_CODE":0,"TOWNNAME":"永康區","LI":"永康里","LIN":"4鄰","STREET":"中山北路","SECT":" ","MAREA":" ","LANE":" ","ALLEY":" ","HOUSE_NO":"３６號","E_COORD97":173962.48999999999,"N_COORD97":2547359.2599999998,"ADDRESS":"中山北路３６號","OBJECTID":464849},"geometry":{"x":173962.49000000115,"y":2547359.2600000016}},{"attributes":{"ID":464875,"DIS_CODE":0,"TOWNNAME":"永康區","LI":"永康里","LIN":"39鄰","STREET":"永忠路","SECT":" ","MAREA":" ","LANE":" ","ALLEY":" ","HOUSE_NO":"２０號","E_COORD97":174254.72,"N_COORD97":2546401.2200000002,"ADDRESS":"永忠路２０號","OBJECTID":464850},"geometry":{"x":174254.71999999974,"y":2546401.2200000025}},{"attributes":{"ID":464876,"DIS_CODE":0,"TOWNNAME":"東區","LI":"龍山里","LIN":"5鄰","STREET":"龍山街","SECT":" ","MAREA":" ","LANE":" ","ALLEY":" ","HOUSE_NO":"８７號三樓","E_COORD97":170318.62,"N_COORD97":2542658.3399999999,"ADDRESS":"龍山街８７號三樓","OBJECTID":464851},"geometry":{"x":170318.62000000104,"y":2542658.3399999999}},{"attributes":{"ID":464877,"DIS_CODE":0,"TOWNNAME":"東區","LI":"龍山里","LIN":"5鄰","STREET":"崇仁街","SECT":" ","MAREA":" ","LANE":" ","ALLEY":" ","HOUSE_NO":"６８號二樓","E_COORD97":170344.01999999999,"N_COORD97":2542733.8500000001,"ADDRESS":"崇仁街６８號二樓","OBJECTID":464852},"geometry":{"x":170344.02000000048,"y":2542733.8500000015}},{"attributes":{"ID":464878,"DIS_CODE":0,"TOWNNAME":"東區","LI":"龍山里","LIN":"5鄰","STREET":"崇仁街","SECT":" ","MAREA":" ","LANE":" ","ALLEY":" ","HOUSE_NO":"６８號三樓","E_COORD97":170344.01999999999,"N_COORD97":2542733.8500000001,"ADDRESS":"崇仁街６８號三樓","OBJECTID":464853},"geometry":{"x":170344.02000000048,"y":2542733.8500000015}},{"attributes":{"ID":464879,"DIS_CODE":0,"TOWNNAME":"東區","LI":"龍山里","LIN":"5鄰","STREET":"崇仁街","SECT":" ","MAREA":" ","LANE":" ","ALLEY":" ","HOUSE_NO":"６８號四樓","E_COORD97":170344.01999999999,"N_COORD97":2542733.8500000001,"ADDRESS":"崇仁街６８號四樓","OBJECTID":464854},"geometry":{"x":170344.02000000048,"y":2542733.8500000015}},{"attributes":{"ID":464880,"DIS_CODE":0,"TOWNNAME":"東區","LI":"龍山里","LIN":"5鄰","STREET":"崇仁街","SECT":" ","MAREA":" ","LANE":" ","ALLEY":" ","HOUSE_NO":"６８號五樓","E_COORD97":170344.01999999999,"N_COORD97":2542733.8500000001,"ADDRESS":"崇仁街６８號五樓","OBJECTID":464855},"geometry":{"x":170344.02000000048,"y":2542733.8500000015}},{"attributes":{"ID":464881,"DIS_CODE":0,"TOWNNAME":"東區","LI":"龍山里","LIN":"5鄰","STREET":"崇仁街","SECT":" ","MAREA":" ","LANE":" ","ALLEY":" ","HOUSE_NO":"６８號六樓","E_COORD97":170344.01999999999,"N_COORD97":2542733.8500000001,"ADDRESS":"崇仁街６８號六樓","OBJECTID":464856},"geometry":{"x":170344.02000000048,"y":2542733.8500000015}},{"attributes":{"ID":464882,"DIS_CODE":0,"TOWNNAME":"東區","LI":"龍山里","LIN":"5鄰","STREET":"崇仁街","SECT":" ","MAREA":" ","LANE":" ","ALLEY":" ","HOUSE_NO":"６８號七樓","E_COORD97":170344.01999999999,"N_COORD97":2542733.8500000001,"ADDRESS":"崇仁街６８號七樓","OBJECTID":464857},"geometry":{"x":170344.02000000048,"y":2542733.8500000015}},{"attributes":{"ID":464883,"DIS_CODE":0,"TOWNNAME":"東區","LI":"龍山里","LIN":"5鄰","STREET":"崇仁街","SECT":" ","MAREA":" ","LANE":" ","ALLEY":" ","HOUSE_NO":"６８號八樓","E_COORD97":170344.01999999999,"N_COORD97":2542733.8500000001,"ADDRESS":"崇仁街６８號八樓","OBJECTID":464858},"geometry":{"x":170344.02000000048,"y":2542733.8500000015}},{"attributes":{"ID":464884,"DIS_CODE":0,"TOWNNAME":"東區","LI":"龍山里","LIN":"5鄰","STREET":"崇仁街","SECT":" ","MAREA":" ","LANE":" ","ALLEY":" ","HOUSE_NO":"６８號九樓","E_COORD97":170344.01999999999,"N_COORD97":2542733.8500000001,"ADDRESS":"崇仁街６８號九樓","OBJECTID":464859},"geometry":{"x":170344.02000000048,"y":2542733.8500000015}},{"attributes":{"ID":464885,"DIS_CODE":0,"TOWNNAME":"東區","LI":"龍山里","LIN":"5鄰","STREET":"崇仁街","SECT":" ","MAREA":" ","LANE":" ","ALLEY":" ","HOUSE_NO":"６８號十樓","E_COORD97":170344.01999999999,"N_COORD97":2542733.8500000001,"ADDRESS":"崇仁街６８號十樓","OBJECTID":464860},"geometry":{"x":170344.02000000048,"y":2542733.8500000015}},{"attributes":{"ID":464886,"DIS_CODE":0,"TOWNNAME":"東區","LI":"龍山里","LIN":"5鄰","STREET":"崇仁街","SECT":" ","MAREA":" ","LANE":" ","ALLEY":" ","HOUSE_NO":"６８號十一樓","E_COORD97":170344.01999999999,"N_COORD97":2542733.8500000001,"ADDRESS":"崇仁街６８號十一樓","OBJECTID":464861},"geometry":{"x":170344.02000000048,"y":2542733.8500000015}},{"attributes":{"ID":464887,"DIS_CODE":0,"TOWNNAME":"東區","LI":"龍山里","LIN":"5鄰","STREET":"崇仁街","SECT":" ","MAREA":" ","LANE":" ","ALLEY":" ","HOUSE_NO":"６８號十二樓","E_COORD97":170344.01999999999,"N_COORD97":2542733.8500000001,"ADDRESS":"崇仁街６８號十二樓","OBJECTID":464862},"geometry":{"x":170344.02000000048,"y":2542733.8500000015}},{"attributes":{"ID":464888,"DIS_CODE":0,"TOWNNAME":"東區","LI":"龍山里","LIN":"5鄰","STREET":"龍山街","SECT":" ","MAREA":" ","LANE":" ","ALLEY":" ","HOUSE_NO":"１０３號二樓","E_COORD97":170343.56,"N_COORD97":2542689.6899999999,"ADDRESS":"龍山街１０３號二樓","OBJECTID":464863},"geometry":{"x":170343.56000000052,"y":2542689.6899999995}},{"attributes":{"ID":464889,"DIS_CODE":0,"TOWNNAME":"東區","LI":"龍山里","LIN":"5鄰","STREET":"龍山街","SECT":" ","MAREA":" ","LANE":" ","ALLEY":" ","HOUSE_NO":"１０３號三樓","E_COORD97":170343.56,"N_COORD97":2542689.6899999999,"ADDRESS":"龍山街１０３號三樓","OBJECTID":464864},"geometry":{"x":170343.56000000052,"y":2542689.6899999995}},{"attributes":{"ID":464890,"DIS_CODE":0,"TOWNNAME":"東區","LI":"龍山里","LIN":"5鄰","STREET":"龍山街","SECT":" ","MAREA":" ","LANE":" ","ALLEY":" ","HOUSE_NO":"１０３號四樓","E_COORD97":170343.56,"N_COORD97":2542689.6899999999,"ADDRESS":"龍山街１０３號四樓","OBJECTID":464865},"geometry":{"x":170343.56000000052,"y":2542689.6899999995}},{"attributes":{"ID":464891,"DIS_CODE":0,"TOWNNAME":"東區","LI":"龍山里","LIN":"5鄰","STREET":"龍山街","SECT":" ","MAREA":" ","LANE":" ","ALLEY":" ","HOUSE_NO":"１０３號五樓","E_COORD97":170343.56,"N_COORD97":2542689.6899999999,"ADDRESS":"龍山街１０３號五樓","OBJECTID":464866},"geometry":{"x":170343.56000000052,"y":2542689.6899999995}},{"attributes":{"ID":464892,"DIS_CODE":0,"TOWNNAME":"東區","LI":"龍山里","LIN":"5鄰","STREET":"龍山街","SECT":" ","MAREA":" ","LANE":" ","ALLEY":" ","HOUSE_NO":"１０３號六樓","E_COORD97":170343.56,"N_COORD97":2542689.6899999999,"ADDRESS":"龍山街１０３號六樓","OBJECTID":464867},"geometry":{"x":170343.56000000052,"y":2542689.6899999995}},{"attributes":{"ID":464893,"DIS_CODE":0,"TOWNNAME":"東區","LI":"龍山里","LIN":"5鄰","STREET":"龍山街","SECT":" ","MAREA":" ","LANE":" ","ALLEY":" ","HOUSE_NO":"１０３號七樓","E_COORD97":170343.56,"N_COORD97":2542689.6899999999,"ADDRESS":"龍山街１０３號七樓","OBJECTID":464868},"geometry":{"x":170343.56000000052,"y":2542689.6899999995}},{"attributes":{"ID":464894,"DIS_CODE":0,"TOWNNAME":"永康區","LI":"復華里","LIN":"4鄰","STREET":"復國二路","SECT":" ","MAREA":" ","LANE":" ","ALLEY":" ","HOUSE_NO":"２５７號","E_COORD97":173025.76000000001,"N_COORD97":2546157.77,"ADDRESS":"復國二路２５７號","OBJECTID":464869},"geometry":{"x":173025.76000000164,"y":2546157.7700000033}},{"attributes":{"ID":464895,"DIS_CODE":0,"TOWNNAME":"東區","LI":"龍山里","LIN":"5鄰","STREET":"龍山街","SECT":" ","MAREA":" ","LANE":" ","ALLEY":" ","HOUSE_NO":"１０３號八樓","E_COORD97":170343.56,"N_COORD97":2542689.6899999999,"ADDRESS":"龍山街１０３號八樓","OBJECTID":464870},"geometry":{"x":170343.56000000052,"y":2542689.6899999995}},{"attributes":{"ID":464896,"DIS_CODE":0,"TOWNNAME":"東區","LI":"龍山里","LIN":"5鄰","STREET":"龍山街","SECT":" ","MAREA":" ","LANE":" ","ALLEY":" ","HOUSE_NO":"１０３號九樓","E_COORD97":170343.56,"N_COORD97":2542689.6899999999,"ADDRESS":"龍山街１０３號九樓","OBJECTID":464871},"geometry":{"x":170343.56000000052,"y":2542689.6899999995}},{"attributes":{"ID":464897,"DIS_CODE":0,"TOWNNAME":"東區","LI":"龍山里","LIN":"5鄰","STREET":"龍山街","SECT":" ","MAREA":" ","LANE":" ","ALLEY":" ","HOUSE_NO":"１０３號十樓","E_COORD97":170343.56,"N_COORD97":2542689.6899999999,"ADDRESS":"龍山街１０３號十樓","OBJECTID":464872},"geometry":{"x":170343.56000000052,"y":2542689.6899999995}},{"attributes":{"ID":464898,"DIS_CODE":0,"TOWNNAME":"東區","LI":"龍山里","LIN":"5鄰","STREET":"龍山街","SECT":" ","MAREA":" ","LANE":" ","ALLEY":" ","HOUSE_NO":"１０３號十一樓","E_COORD97":170343.56,"N_COORD97":2542689.6899999999,"ADDRESS":"龍山街１０３號十一樓","OBJECTID":464873},"geometry":{"x":170343.56000000052,"y":2542689.6899999995}},{"attributes":{"ID":464899,"DIS_CODE":0,"TOWNNAME":"東區","LI":"龍山里","LIN":"5鄰","STREET":"龍山街","SECT":" ","MAREA":" ","LANE":" ","ALLEY":" ","HOUSE_NO":"１０３號十二樓","E_COORD97":170343.56,"N_COORD97":2542689.6899999999,"ADDRESS":"龍山街１０３號十二樓","OBJECTID":464874},"geometry":{"x":170343.56000000052,"y":2542689.6899999995}},{"attributes":{"ID":464900,"DIS_CODE":0,"TOWNNAME":"東區","LI":"龍山里","LIN":"5鄰","STREET":"龍山街","SECT":" ","MAREA":" ","LANE":" ","ALLEY":" ","HOUSE_NO":"１０３號十三樓","E_COORD97":170343.56,"N_COORD97":2542689.6899999999,"ADDRESS":"龍山街１０３號十三樓","OBJECTID":464875},"geometry":{"x":170343.56000000052,"y":2542689.6899999995}},{"attributes":{"ID":464901,"DIS_CODE":0,"TOWNNAME":"東區","LI":"龍山里","LIN":"5鄰","STREET":"龍山街","SECT":" ","MAREA":" ","LANE":" ","ALLEY":" ","HOUSE_NO":"１０３號十四樓","E_COORD97":170343.56,"N_COORD97":2542689.6899999999,"ADDRESS":"龍山街１０３號十四樓","OBJECTID":464876},"geometry":{"x":170343.56000000052,"y":2542689.6899999995}},{"attributes":{"ID":464902,"DIS_CODE":0,"TOWNNAME":"東區","LI":"龍山里","LIN":"5鄰","STREET":"龍山街","SECT":" ","MAREA":" ","LANE":" ","ALLEY":" ","HOUSE_NO":"１０５號二樓","E_COORD97":170349.51000000001,"N_COORD97":2542695.1800000002,"ADDRESS":"龍山街１０５號二樓","OBJECTID":464877},"geometry":{"x":170349.51000000071,"y":2542695.1800000016}},{"attributes":{"ID":464903,"DIS_CODE":0,"TOWNNAME":"東區","LI":"龍山里","LIN":"5鄰","STREET":"龍山街","SECT":" ","MAREA":" ","LANE":" ","ALLEY":" ","HOUSE_NO":"１０５號三樓","E_COORD97":170349.51000000001,"N_COORD97":2542695.1800000002,"ADDRESS":"龍山街１０５號三樓","OBJECTID":464878},"geometry":{"x":170349.51000000071,"y":2542695.1800000016}},{"attributes":{"ID":464904,"DIS_CODE":0,"TOWNNAME":"東區","LI":"龍山里","LIN":"5鄰","STREET":"龍山街","SECT":" ","MAREA":" ","LANE":" ","ALLEY":" ","HOUSE_NO":"１０５號四樓","E_COORD97":170349.51000000001,"N_COORD97":2542695.1800000002,"ADDRESS":"龍山街１０５號四樓","OBJECTID":464879},"geometry":{"x":170349.51000000071,"y":2542695.1800000016}},{"attributes":{"ID":464905,"DIS_CODE":0,"TOWNNAME":"東區","LI":"龍山里","LIN":"5鄰","STREET":"龍山街","SECT":" ","MAREA":" ","LANE":" ","ALLEY":" ","HOUSE_NO":"１０５號五樓","E_COORD97":170349.51000000001,"N_COORD97":2542695.1800000002,"ADDRESS":"龍山街１０５號五樓","OBJECTID":464880},"geometry":{"x":170349.51000000071,"y":2542695.1800000016}},{"attributes":{"ID":464906,"DIS_CODE":0,"TOWNNAME":"東區","LI":"龍山里","LIN":"5鄰","STREET":"龍山街","SECT":" ","MAREA":" ","LANE":" ","ALLEY":" ","HOUSE_NO":"１０５號六樓","E_COORD97":170349.51000000001,"N_COORD97":2542695.1800000002,"ADDRESS":"龍山街１０５號六樓","OBJECTID":464881},"geometry":{"x":170349.51000000071,"y":2542695.1800000016}},{"attributes":{"ID":464907,"DIS_CODE":0,"TOWNNAME":"東區","LI":"龍山里","LIN":"5鄰","STREET":"龍山街","SECT":" ","MAREA":" ","LANE":" ","ALLEY":" ","HOUSE_NO":"１０５號七樓","E_COORD97":170349.51000000001,"N_COORD97":2542695.1800000002,"ADDRESS":"龍山街１０５號七樓","OBJECTID":464882},"geometry":{"x":170349.51000000071,"y":2542695.1800000016}},{"attributes":{"ID":464908,"DIS_CODE":0,"TOWNNAME":"東區","LI":"龍山里","LIN":"5鄰","STREET":"龍山街","SECT":" ","MAREA":" ","LANE":" ","ALLEY":" ","HOUSE_NO":"１０５號八樓","E_COORD97":170349.51000000001,"N_COORD97":2542695.1800000002,"ADDRESS":"龍山街１０５號八樓","OBJECTID":464883},"geometry":{"x":170349.51000000071,"y":2542695.1800000016}},{"attributes":{"ID":464909,"DIS_CODE":0,"TOWNNAME":"東區","LI":"龍山里","LIN":"5鄰","STREET":"龍山街","SECT":" ","MAREA":" ","LANE":" ","ALLEY":" ","HOUSE_NO":"１０５號九樓","E_COORD97":170349.51000000001,"N_COORD97":2542695.1800000002,"ADDRESS":"龍山街１０５號九樓","OBJECTID":464884},"geometry":{"x":170349.51000000071,"y":2542695.1800000016}},{"attributes":{"ID":464910,"DIS_CODE":0,"TOWNNAME":"東區","LI":"龍山里","LIN":"5鄰","STREET":"龍山街","SECT":" ","MAREA":" ","LANE":" ","ALLEY":" ","HOUSE_NO":"１０５號十樓","E_COORD97":170349.51000000001,"N_COORD97":2542695.1800000002,"ADDRESS":"龍山街１０５號十樓","OBJECTID":464885},"geometry":{"x":170349.51000000071,"y":2542695.1800000016}},{"attributes":{"ID":464911,"DIS_CODE":0,"TOWNNAME":"東區","LI":"龍山里","LIN":"5鄰","STREET":"龍山街","SECT":" ","MAREA":" ","LANE":" ","ALLEY":" ","HOUSE_NO":"１０５號十一樓","E_COORD97":170349.51000000001,"N_COORD97":2542695.1800000002,"ADDRESS":"龍山街１０５號十一樓","OBJECTID":464886},"geometry":{"x":170349.51000000071,"y":2542695.1800000016}},{"attributes":{"ID":464912,"DIS_CODE":0,"TOWNNAME":"東區","LI":"龍山里","LIN":"5鄰","STREET":"龍山街","SECT":" ","MAREA":" ","LANE":" ","ALLEY":" ","HOUSE_NO":"１０５號十二樓","E_COORD97":170349.51000000001,"N_COORD97":2542695.1800000002,"ADDRESS":"龍山街１０５號十二樓","OBJECTID":464887},"geometry":{"x":170349.51000000071,"y":2542695.1800000016}},{"attributes":{"ID":464913,"DIS_CODE":0,"TOWNNAME":"東區","LI":"龍山里","LIN":"5鄰","STREET":"龍山街","SECT":" ","MAREA":" ","LANE":" ","ALLEY":" ","HOUSE_NO":"７７號二樓","E_COORD97":170279.5,"N_COORD97":2542645.0699999998,"ADDRESS":"龍山街７７號二樓","OBJECTID":464888},"geometry":{"x":170279.5,"y":2542645.0700000022}},{"attributes":{"ID":464914,"DIS_CODE":0,"TOWNNAME":"東區","LI":"龍山里","LIN":"5鄰","STREET":"龍山街","SECT":" ","MAREA":" ","LANE":" ","ALLEY":" ","HOUSE_NO":"７７號六樓","E_COORD97":170279.5,"N_COORD97":2542645.0699999998,"ADDRESS":"龍山街７７號六樓","OBJECTID":464889},"geometry":{"x":170279.5,"y":2542645.0700000022}},{"attributes":{"ID":464915,"DIS_CODE":0,"TOWNNAME":"東區","LI":"龍山里","LIN":"5鄰","STREET":"龍山街","SECT":" ","MAREA":" ","LANE":" ","ALLEY":" ","HOUSE_NO":"７７號七樓","E_COORD97":170279.5,"N_COORD97":2542645.0699999998,"ADDRESS":"龍山街７７號七樓","OBJECTID":464890},"geometry":{"x":170279.5,"y":2542645.0700000022}},{"attributes":{"ID":464916,"DIS_CODE":0,"TOWNNAME":"東區","LI":"龍山里","LIN":"5鄰","STREET":"龍山街","SECT":" ","MAREA":" ","LANE":" ","ALLEY":" ","HOUSE_NO":"７７號八樓","E_COORD97":170279.5,"N_COORD97":2542645.0699999998,"ADDRESS":"龍山街７７號八樓","OBJECTID":464891},"geometry":{"x":170279.5,"y":2542645.0700000022}},{"attributes":{"ID":464917,"DIS_CODE":0,"TOWNNAME":"東區","LI":"龍山里","LIN":"5鄰","STREET":"龍山街","SECT":" ","MAREA":" ","LANE":" ","ALLEY":" ","HOUSE_NO":"７７號九樓","E_COORD97":170279.5,"N_COORD97":2542645.0699999998,"ADDRESS":"龍山街７７號九樓","OBJECTID":464892},"geometry":{"x":170279.5,"y":2542645.0700000022}},{"attributes":{"ID":464918,"DIS_CODE":0,"TOWNNAME":"東區","LI":"龍山里","LIN":"5鄰","STREET":"龍山街","SECT":" ","MAREA":" ","LANE":" ","ALLEY":" ","HOUSE_NO":"７７號十樓","E_COORD97":170279.5,"N_COORD97":2542645.0699999998,"ADDRESS":"龍山街７７號十樓","OBJECTID":464893},"geometry":{"x":170279.5,"y":2542645.0700000022}},{"attributes":{"ID":464919,"DIS_CODE":0,"TOWNNAME":"東區","LI":"龍山里","LIN":"5鄰","STREET":"龍山街","SECT":" ","MAREA":" ","LANE":" ","ALLEY":" ","HOUSE_NO":"７７號十一樓","E_COORD97":170279.5,"N_COORD97":2542645.0699999998,"ADDRESS":"龍山街７７號十一樓","OBJECTID":464894},"geometry":{"x":170279.5,"y":2542645.0700000022}},{"attributes":{"ID":464920,"DIS_CODE":0,"TOWNNAME":"東區","LI":"龍山里","LIN":"5鄰","STREET":"龍山街","SECT":" ","MAREA":" ","LANE":" ","ALLEY":" ","HOUSE_NO":"７７號十二樓","E_COORD97":170279.5,"N_COORD97":2542645.0699999998,"ADDRESS":"龍山街７７號十二樓","OBJECTID":464895},"geometry":{"x":170279.5,"y":2542645.0700000022}},{"attributes":{"ID":464921,"DIS_CODE":0,"TOWNNAME":"東區","LI":"龍山里","LIN":"5鄰","STREET":"龍山街","SECT":" ","MAREA":" ","LANE":" ","ALLEY":" ","HOUSE_NO":"７７號十三樓","E_COORD97":170279.5,"N_COORD97":2542645.0699999998,"ADDRESS":"龍山街７７號十三樓","OBJECTID":464896},"geometry":{"x":170279.5,"y":2542645.0700000022}},{"attributes":{"ID":464922,"DIS_CODE":0,"TOWNNAME":"東區","LI":"龍山里","LIN":"5鄰","STREET":"龍山街","SECT":" ","MAREA":" ","LANE":" ","ALLEY":" ","HOUSE_NO":"７７號十四樓","E_COORD97":170279.5,"N_COORD97":2542645.0699999998,"ADDRESS":"龍山街７７號十四樓","OBJECTID":464897},"geometry":{"x":170279.5,"y":2542645.0700000022}},{"attributes":{"ID":464923,"DIS_CODE":0,"TOWNNAME":"東區","LI":"龍山里","LIN":"5鄰","STREET":"龍山街","SECT":" ","MAREA":" ","LANE":" ","ALLEY":" ","HOUSE_NO":"７７號三樓","E_COORD97":170279.5,"N_COORD97":2542645.0699999998,"ADDRESS":"龍山街７７號三樓","OBJECTID":464898},"geometry":{"x":170279.5,"y":2542645.0700000022}},{"attributes":{"ID":464924,"DIS_CODE":0,"TOWNNAME":"東區","LI":"龍山里","LIN":"5鄰","STREET":"龍山街","SECT":" ","MAREA":" ","LANE":" ","ALLEY":" ","HOUSE_NO":"７７號四樓","E_COORD97":170279.5,"N_COORD97":2542645.0699999998,"ADDRESS":"龍山街７７號四樓","OBJECTID":464899},"geometry":{"x":170279.5,"y":2542645.0700000022}},{"attributes":{"ID":464925,"DIS_CODE":0,"TOWNNAME":"東區","LI":"龍山里","LIN":"5鄰","STREET":"龍山街","SECT":" ","MAREA":" ","LANE":" ","ALLEY":" ","HOUSE_NO":"７７號五樓","E_COORD97":170279.5,"N_COORD97":2542645.0699999998,"ADDRESS":"龍山街７７號五樓","OBJECTID":464900},"geometry":{"x":170279.5,"y":2542645.0700000022}},{"attributes":{"ID":464926,"DIS_CODE":0,"TOWNNAME":"東區","LI":"龍山里","LIN":"5鄰","STREET":"龍山街","SECT":" ","MAREA":" ","LANE":" ","ALLEY":" ","HOUSE_NO":"８１號二樓","E_COORD97":170298.26000000001,"N_COORD97":2542633.1800000002,"ADDRESS":"龍山街８１號二樓","OBJECTID":464901},"geometry":{"x":170298.26000000071,"y":2542633.1800000016}},{"attributes":{"ID":464927,"DIS_CODE":0,"TOWNNAME":"東區","LI":"龍山里","LIN":"5鄰","STREET":"龍山街","SECT":" ","MAREA":" ","LANE":" ","ALLEY":" ","HOUSE_NO":"８１號三樓","E_COORD97":170298.26000000001,"N_COORD97":2542633.1800000002,"ADDRESS":"龍山街８１號三樓","OBJECTID":464902},"geometry":{"x":170298.26000000071,"y":2542633.1800000016}},{"attributes":{"ID":464928,"DIS_CODE":0,"TOWNNAME":"東區","LI":"龍山里","LIN":"5鄰","STREET":"龍山街","SECT":" ","MAREA":" ","LANE":" ","ALLEY":" ","HOUSE_NO":"８１號四樓","E_COORD97":170298.26000000001,"N_COORD97":2542633.1800000002,"ADDRESS":"龍山街８１號四樓","OBJECTID":464903},"geometry":{"x":170298.26000000071,"y":2542633.1800000016}},{"attributes":{"ID":464929,"DIS_CODE":0,"TOWNNAME":"東區","LI":"龍山里","LIN":"5鄰","STREET":"龍山街","SECT":" ","MAREA":" ","LANE":" ","ALLEY":" ","HOUSE_NO":"８１號五樓","E_COORD97":170298.26000000001,"N_COORD97":2542633.1800000002,"ADDRESS":"龍山街８１號五樓","OBJECTID":464904},"geometry":{"x":170298.26000000071,"y":2542633.1800000016}},{"attributes":{"ID":464930,"DIS_CODE":0,"TOWNNAME":"東區","LI":"龍山里","LIN":"5鄰","STREET":"龍山街","SECT":" ","MAREA":" ","LANE":" ","ALLEY":" ","HOUSE_NO":"８１號六樓","E_COORD97":170298.26000000001,"N_COORD97":2542633.1800000002,"ADDRESS":"龍山街８１號六樓","OBJECTID":464905},"geometry":{"x":170298.26000000071,"y":2542633.1800000016}},{"attributes":{"ID":464931,"DIS_CODE":0,"TOWNNAME":"東區","LI":"龍山里","LIN":"5鄰","STREET":"龍山街","SECT":" ","MAREA":" ","LANE":" ","ALLEY":" ","HOUSE_NO":"８１號七樓","E_COORD97":170298.26000000001,"N_COORD97":2542633.1800000002,"ADDRESS":"龍山街８１號七樓","OBJECTID":464906},"geometry":{"x":170298.26000000071,"y":2542633.1800000016}},{"attributes":{"ID":464932,"DIS_CODE":0,"TOWNNAME":"東區","LI":"龍山里","LIN":"5鄰","STREET":"龍山街","SECT":" ","MAREA":" ","LANE":" ","ALLEY":" ","HOUSE_NO":"８１號八樓","E_COORD97":170298.26000000001,"N_COORD97":2542633.1800000002,"ADDRESS":"龍山街８１號八樓","OBJECTID":464907},"geometry":{"x":170298.26000000071,"y":2542633.1800000016}},{"attributes":{"ID":464933,"DIS_CODE":0,"TOWNNAME":"東區","LI":"龍山里","LIN":"5鄰","STREET":"龍山街","SECT":" ","MAREA":" ","LANE":" ","ALLEY":" ","HOUSE_NO":"８１號九樓","E_COORD97":170298.26000000001,"N_COORD97":2542633.1800000002,"ADDRESS":"龍山街８１號九樓","OBJECTID":464908},"geometry":{"x":170298.26000000071,"y":2542633.1800000016}},{"attributes":{"ID":464934,"DIS_CODE":0,"TOWNNAME":"東區","LI":"龍山里","LIN":"5鄰","STREET":"龍山街","SECT":" ","MAREA":" ","LANE":" ","ALLEY":" ","HOUSE_NO":"８１號十樓","E_COORD97":170298.26000000001,"N_COORD97":2542633.1800000002,"ADDRESS":"龍山街８１號十樓","OBJECTID":464909},"geometry":{"x":170298.26000000071,"y":2542633.1800000016}},{"attributes":{"ID":464935,"DIS_CODE":0,"TOWNNAME":"東區","LI":"龍山里","LIN":"5鄰","STREET":"龍山街","SECT":" ","MAREA":" ","LANE":" ","ALLEY":" ","HOUSE_NO":"８１號十一樓","E_COORD97":170298.26000000001,"N_COORD97":2542633.1800000002,"ADDRESS":"龍山街８１號十一樓","OBJECTID":464910},"geometry":{"x":170298.26000000071,"y":2542633.1800000016}},{"attributes":{"ID":464936,"DIS_CODE":0,"TOWNNAME":"東區","LI":"龍山里","LIN":"5鄰","STREET":"龍山街","SECT":" ","MAREA":" ","LANE":" ","ALLEY":" ","HOUSE_NO":"８１號十二樓","E_COORD97":170298.26000000001,"N_COORD97":2542633.1800000002,"ADDRESS":"龍山街８１號十二樓","OBJECTID":464911},"geometry":{"x":170298.26000000071,"y":2542633.1800000016}},{"attributes":{"ID":464937,"DIS_CODE":0,"TOWNNAME":"東區","LI":"龍山里","LIN":"5鄰","STREET":"龍山街","SECT":" ","MAREA":" ","LANE":" ","ALLEY":" ","HOUSE_NO":"８５號二樓","E_COORD97":170312.63,"N_COORD97":2542649.2599999998,"ADDRESS":"龍山街８５號二樓","OBJECTID":464912},"geometry":{"x":170312.63000000175,"y":2542649.2600000035}},{"attributes":{"ID":464938,"DIS_CODE":0,"TOWNNAME":"東區","LI":"龍山里","LIN":"5鄰","STREET":"龍山街","SECT":" ","MAREA":" ","LANE":" ","ALLEY":" ","HOUSE_NO":"８５號三樓","E_COORD97":170312.63,"N_COORD97":2542649.2599999998,"ADDRESS":"龍山街８５號三樓","OBJECTID":464913},"geometry":{"x":170312.63000000175,"y":2542649.2600000035}},{"attributes":{"ID":464939,"DIS_CODE":0,"TOWNNAME":"東區","LI":"龍山里","LIN":"5鄰","STREET":"龍山街","SECT":" ","MAREA":" ","LANE":" ","ALLEY":" ","HOUSE_NO":"８７號二樓","E_COORD97":170318.62,"N_COORD97":2542658.3399999999,"ADDRESS":"龍山街８７號二樓","OBJECTID":464914},"geometry":{"x":170318.62000000104,"y":2542658.3399999999}},{"attributes":{"ID":464940,"DIS_CODE":0,"TOWNNAME":"東區","LI":"龍山里","LIN":"5鄰","STREET":"龍山街","SECT":" ","MAREA":" ","LANE":" ","ALLEY":" ","HOUSE_NO":"８７號四樓","E_COORD97":170318.62,"N_COORD97":2542658.3399999999,"ADDRESS":"龍山街８７號四樓","OBJECTID":464915},"geometry":{"x":170318.62000000104,"y":2542658.3399999999}},{"attributes":{"ID":464941,"DIS_CODE":0,"TOWNNAME":"東區","LI":"龍山里","LIN":"5鄰","STREET":"龍山街","SECT":" ","MAREA":" ","LANE":" ","ALLEY":" ","HOUSE_NO":"８７號五樓","E_COORD97":170318.62,"N_COORD97":2542658.3399999999,"ADDRESS":"龍山街８７號五樓","OBJECTID":464916},"geometry":{"x":170318.62000000104,"y":2542658.3399999999}},{"attributes":{"ID":464942,"DIS_CODE":0,"TOWNNAME":"東區","LI":"龍山里","LIN":"5鄰","STREET":"龍山街","SECT":" ","MAREA":" ","LANE":" ","ALLEY":" ","HOUSE_NO":"８７號六樓","E_COORD97":170318.62,"N_COORD97":2542658.3399999999,"ADDRESS":"龍山街８７號六樓","OBJECTID":464917},"geometry":{"x":170318.62000000104,"y":2542658.3399999999}},{"attributes":{"ID":464943,"DIS_CODE":0,"TOWNNAME":"東區","LI":"龍山里","LIN":"5鄰","STREET":"龍山街","SECT":" ","MAREA":" ","LANE":" ","ALLEY":" ","HOUSE_NO":"８７號七樓","E_COORD97":170318.62,"N_COORD97":2542658.3399999999,"ADDRESS":"龍山街８７號七樓","OBJECTID":464918},"geometry":{"x":170318.62000000104,"y":2542658.3399999999}},{"attributes":{"ID":464944,"DIS_CODE":0,"TOWNNAME":"東區","LI":"龍山里","LIN":"5鄰","STREET":"龍山街","SECT":" ","MAREA":" ","LANE":" ","ALLEY":" ","HOUSE_NO":"８７號八樓","E_COORD97":170318.62,"N_COORD97":2542658.3399999999,"ADDRESS":"龍山街８７號八樓","OBJECTID":464919},"geometry":{"x":170318.62000000104,"y":2542658.3399999999}},{"attributes":{"ID":464945,"DIS_CODE":0,"TOWNNAME":"東區","LI":"龍山里","LIN":"5鄰","STREET":"龍山街","SECT":" ","MAREA":" ","LANE":" ","ALLEY":" ","HOUSE_NO":"８７號九樓","E_COORD97":170318.62,"N_COORD97":2542658.3399999999,"ADDRESS":"龍山街８７號九樓","OBJECTID":464920},"geometry":{"x":170318.62000000104,"y":2542658.3399999999}},{"attributes":{"ID":464946,"DIS_CODE":0,"TOWNNAME":"東區","LI":"龍山里","LIN":"5鄰","STREET":"龍山街","SECT":" ","MAREA":" ","LANE":" ","ALLEY":" ","HOUSE_NO":"８７號十樓","E_COORD97":170318.62,"N_COORD97":2542658.3399999999,"ADDRESS":"龍山街８７號十樓","OBJECTID":464921},"geometry":{"x":170318.62000000104,"y":2542658.3399999999}},{"attributes":{"ID":464947,"DIS_CODE":0,"TOWNNAME":"東區","LI":"龍山里","LIN":"5鄰","STREET":"龍山街","SECT":" ","MAREA":" ","LANE":" ","ALLEY":" ","HOUSE_NO":"８７號十一樓","E_COORD97":170318.62,"N_COORD97":2542658.3399999999,"ADDRESS":"龍山街８７號十一樓","OBJECTID":464922},"geometry":{"x":170318.62000000104,"y":2542658.3399999999}},{"attributes":{"ID":464948,"DIS_CODE":0,"TOWNNAME":"東區","LI":"龍山里","LIN":"5鄰","STREET":"龍山街","SECT":" ","MAREA":" ","LANE":" ","ALLEY":" ","HOUSE_NO":"８７號十二樓","E_COORD97":170318.62,"N_COORD97":2542658.3399999999,"ADDRESS":"龍山街８７號十二樓","OBJECTID":464923},"geometry":{"x":170318.62000000104,"y":2542658.3399999999}},{"attributes":{"ID":464949,"DIS_CODE":0,"TOWNNAME":"東區","LI":"龍山里","LIN":"5鄰","STREET":"龍山街","SECT":" ","MAREA":" ","LANE":" ","ALLEY":" ","HOUSE_NO":"８７號十三樓","E_COORD97":170318.62,"N_COORD97":2542658.3399999999,"ADDRESS":"龍山街８７號十三樓","OBJECTID":464924},"geometry":{"x":170318.62000000104,"y":2542658.3399999999}},{"attributes":{"ID":464950,"DIS_CODE":0,"TOWNNAME":"東區","LI":"龍山里","LIN":"5鄰","STREET":"龍山街","SECT":" ","MAREA":" ","LANE":" ","ALLEY":" ","HOUSE_NO":"８７號十四樓","E_COORD97":170318.62,"N_COORD97":2542658.3399999999,"ADDRESS":"龍山街８７號十四樓","OBJECTID":464925},"geometry":{"x":170318.62000000104,"y":2542658.3399999999}},{"attributes":{"ID":464951,"DIS_CODE":0,"TOWNNAME":"東區","LI":"龍山里","LIN":"5鄰","STREET":"龍山街","SECT":" ","MAREA":" ","LANE":" ","ALLEY":" ","HOUSE_NO":"８９號二樓","E_COORD97":170324.79999999999,"N_COORD97":2542665.8900000001,"ADDRESS":"龍山街８９號二樓","OBJECTID":464926},"geometry":{"x":170324.79999999981,"y":2542665.8899999987}},{"attributes":{"ID":464952,"DIS_CODE":0,"TOWNNAME":"東區","LI":"龍山里","LIN":"5鄰","STREET":"龍山街","SECT":" ","MAREA":" ","LANE":" ","ALLEY":" ","HOUSE_NO":"８９號三樓","E_COORD97":170324.79999999999,"N_COORD97":2542665.8900000001,"ADDRESS":"龍山街８９號三樓","OBJECTID":464927},"geometry":{"x":170324.79999999981,"y":2542665.8899999987}},{"attributes":{"ID":464953,"DIS_CODE":0,"TOWNNAME":"東區","LI":"龍山里","LIN":"5鄰","STREET":"龍山街","SECT":" ","MAREA":" ","LANE":" ","ALLEY":" ","HOUSE_NO":"８９號四樓","E_COORD97":170324.79999999999,"N_COORD97":2542665.8900000001,"ADDRESS":"龍山街８９號四樓","OBJECTID":464928},"geometry":{"x":170324.79999999981,"y":2542665.8899999987}},{"attributes":{"ID":464954,"DIS_CODE":0,"TOWNNAME":"永康區","LI":"三民里","LIN":" ","STREET":"中正北路","SECT":" ","MAREA":" ","LANE":" ","ALLEY":" ","HOUSE_NO":"９１８號","E_COORD97":175309.57000000001,"N_COORD97":2550370,"ADDRESS":"中正北路９１８號","OBJECTID":464929},"geometry":{"x":175309.57000000123,"y":2550370}},{"attributes":{"ID":464955,"DIS_CODE":0,"TOWNNAME":"永康區","LI":"烏竹里","LIN":"1鄰","STREET":"烏竹街","SECT":" ","MAREA":" ","LANE":" ","ALLEY":" ","HOUSE_NO":"６９號","E_COORD97":174484.14999999999,"N_COORD97":2549378.5800000001,"ADDRESS":"烏竹街６９號","OBJECTID":464930},"geometry":{"x":174484.15000000037,"y":2549378.5800000019}},{"attributes":{"ID":464956,"DIS_CODE":0,"TOWNNAME":"東區","LI":"龍山里","LIN":"5鄰","STREET":"龍山街","SECT":" ","MAREA":" ","LANE":" ","ALLEY":" ","HOUSE_NO":"８９號五樓","E_COORD97":170324.79999999999,"N_COORD97":2542665.8900000001,"ADDRESS":"龍山街８９號五樓","OBJECTID":464931},"geometry":{"x":170324.79999999981,"y":2542665.8899999987}},{"attributes":{"ID":464957,"DIS_CODE":0,"TOWNNAME":"東區","LI":"龍山里","LIN":"5鄰","STREET":"龍山街","SECT":" ","MAREA":" ","LANE":" ","ALLEY":" ","HOUSE_NO":"８９號六樓","E_COORD97":170324.79999999999,"N_COORD97":2542665.8900000001,"ADDRESS":"龍山街８９號六樓","OBJECTID":464932},"geometry":{"x":170324.79999999981,"y":2542665.8899999987}},{"attributes":{"ID":464958,"DIS_CODE":0,"TOWNNAME":"東區","LI":"龍山里","LIN":"5鄰","STREET":"龍山街","SECT":" ","MAREA":" ","LANE":" ","ALLEY":" ","HOUSE_NO":"８９號七樓","E_COORD97":170324.79999999999,"N_COORD97":2542665.8900000001,"ADDRESS":"龍山街８９號七樓","OBJECTID":464933},"geometry":{"x":170324.79999999981,"y":2542665.8899999987}},{"attributes":{"ID":464959,"DIS_CODE":0,"TOWNNAME":"東區","LI":"龍山里","LIN":"5鄰","STREET":"龍山街","SECT":" ","MAREA":" ","LANE":" ","ALLEY":" ","HOUSE_NO":"８９號八樓","E_COORD97":170324.79999999999,"N_COORD97":2542665.8900000001,"ADDRESS":"龍山街８９號八樓","OBJECTID":464934},"geometry":{"x":170324.79999999981,"y":2542665.8899999987}},{"attributes":{"ID":464960,"DIS_CODE":0,"TOWNNAME":"東區","LI":"龍山里","LIN":"5鄰","STREET":"龍山街","SECT":" ","MAREA":" ","LANE":" ","ALLEY":" ","HOUSE_NO":"８９號九樓","E_COORD97":170324.79999999999,"N_COORD97":2542665.8900000001,"ADDRESS":"龍山街８９號九樓","OBJECTID":464935},"geometry":{"x":170324.79999999981,"y":2542665.8899999987}},{"attributes":{"ID":464961,"DIS_CODE":0,"TOWNNAME":"東區","LI":"龍山里","LIN":"5鄰","STREET":"龍山街","SECT":" ","MAREA":" ","LANE":" ","ALLEY":" ","HOUSE_NO":"８９號十樓","E_COORD97":170324.79999999999,"N_COORD97":2542665.8900000001,"ADDRESS":"龍山街８９號十樓","OBJECTID":464936},"geometry":{"x":170324.79999999981,"y":2542665.8899999987}},{"attributes":{"ID":464962,"DIS_CODE":0,"TOWNNAME":"東區","LI":"龍山里","LIN":"5鄰","STREET":"龍山街","SECT":" ","MAREA":" ","LANE":" ","ALLEY":" ","HOUSE_NO":"８９號十一樓","E_COORD97":170324.79999999999,"N_COORD97":2542665.8900000001,"ADDRESS":"龍山街８９號十一樓","OBJECTID":464937},"geometry":{"x":170324.79999999981,"y":2542665.8899999987}},{"attributes":{"ID":464963,"DIS_CODE":0,"TOWNNAME":"東區","LI":"龍山里","LIN":"5鄰","STREET":"龍山街","SECT":" ","MAREA":" ","LANE":" ","ALLEY":" ","HOUSE_NO":"８９號十二樓","E_COORD97":170324.79999999999,"N_COORD97":2542665.8900000001,"ADDRESS":"龍山街８９號十二樓","OBJECTID":464938},"geometry":{"x":170324.79999999981,"y":2542665.8899999987}},{"attributes":{"ID":464964,"DIS_CODE":0,"TOWNNAME":"東區","LI":"龍山里","LIN":"5鄰","STREET":"龍山街","SECT":" ","MAREA":" ","LANE":" ","ALLEY":" ","HOUSE_NO":"９１號二樓","E_COORD97":170330.06,"N_COORD97":2542672.7599999998,"ADDRESS":"龍山街９１號二樓","OBJECTID":464939},"geometry":{"x":170330.06000000052,"y":2542672.7600000035}},{"attributes":{"ID":464965,"DIS_CODE":0,"TOWNNAME":"東區","LI":"龍山里","LIN":"5鄰","STREET":"龍山街","SECT":" ","MAREA":" ","LANE":" ","ALLEY":" ","HOUSE_NO":"９１號三樓","E_COORD97":170330.06,"N_COORD97":2542672.7599999998,"ADDRESS":"龍山街９１號三樓","OBJECTID":464940},"geometry":{"x":170330.06000000052,"y":2542672.7600000035}},{"attributes":{"ID":464966,"DIS_CODE":0,"TOWNNAME":"東區","LI":"龍山里","LIN":"5鄰","STREET":"龍山街","SECT":" ","MAREA":" ","LANE":" ","ALLEY":" ","HOUSE_NO":"９１號四樓","E_COORD97":170330.06,"N_COORD97":2542672.7599999998,"ADDRESS":"龍山街９１號四樓","OBJECTID":464941},"geometry":{"x":170330.06000000052,"y":2542672.7600000035}},{"attributes":{"ID":464967,"DIS_CODE":0,"TOWNNAME":"東區","LI":"龍山里","LIN":"5鄰","STREET":"龍山街","SECT":" ","MAREA":" ","LANE":" ","ALLEY":" ","HOUSE_NO":"９１號五樓","E_COORD97":170330.06,"N_COORD97":2542672.7599999998,"ADDRESS":"龍山街９１號五樓","OBJECTID":464942},"geometry":{"x":170330.06000000052,"y":2542672.7600000035}},{"attributes":{"ID":464968,"DIS_CODE":0,"TOWNNAME":"東區","LI":"龍山里","LIN":"5鄰","STREET":"龍山街","SECT":" ","MAREA":" ","LANE":" ","ALLEY":" ","HOUSE_NO":"９１號六樓","E_COORD97":170330.06,"N_COORD97":2542672.7599999998,"ADDRESS":"龍山街９１號六樓","OBJECTID":464943},"geometry":{"x":170330.06000000052,"y":2542672.7600000035}},{"attributes":{"ID":464969,"DIS_CODE":0,"TOWNNAME":"東區","LI":"龍山里","LIN":"5鄰","STREET":"龍山街","SECT":" ","MAREA":" ","LANE":" ","ALLEY":" ","HOUSE_NO":"９１號七樓","E_COORD97":170330.06,"N_COORD97":2542672.7599999998,"ADDRESS":"龍山街９１號七樓","OBJECTID":464944},"geometry":{"x":170330.06000000052,"y":2542672.7600000035}},{"attributes":{"ID":464970,"DIS_CODE":0,"TOWNNAME":"東區","LI":"龍山里","LIN":"5鄰","STREET":"龍山街","SECT":" ","MAREA":" ","LANE":" ","ALLEY":" ","HOUSE_NO":"９１號八樓","E_COORD97":170330.06,"N_COORD97":2542672.7599999998,"ADDRESS":"龍山街９１號八樓","OBJECTID":464945},"geometry":{"x":170330.06000000052,"y":2542672.7600000035}},{"attributes":{"ID":464971,"DIS_CODE":0,"TOWNNAME":"東區","LI":"龍山里","LIN":"5鄰","STREET":"龍山街","SECT":" ","MAREA":" ","LANE":" ","ALLEY":" ","HOUSE_NO":"９１號九樓","E_COORD97":170330.06,"N_COORD97":2542672.7599999998,"ADDRESS":"龍山街９１號九樓","OBJECTID":464946},"geometry":{"x":170330.06000000052,"y":2542672.7600000035}},{"attributes":{"ID":464972,"DIS_CODE":0,"TOWNNAME":"東區","LI":"龍山里","LIN":"5鄰","STREET":"龍山街","SECT":" ","MAREA":" ","LANE":" ","ALLEY":" ","HOUSE_NO":"９１號十樓","E_COORD97":170330.06,"N_COORD97":2542672.7599999998,"ADDRESS":"龍山街９１號十樓","OBJECTID":464947},"geometry":{"x":170330.06000000052,"y":2542672.7600000035}},{"attributes":{"ID":464973,"DIS_CODE":0,"TOWNNAME":"東區","LI":"龍山里","LIN":"5鄰","STREET":"龍山街","SECT":" ","MAREA":" ","LANE":" ","ALLEY":" ","HOUSE_NO":"９１號十一樓","E_COORD97":170330.06,"N_COORD97":2542672.7599999998,"ADDRESS":"龍山街９１號十一樓","OBJECTID":464948},"geometry":{"x":170330.06000000052,"y":2542672.7600000035}},{"attributes":{"ID":464974,"DIS_CODE":0,"TOWNNAME":"東區","LI":"龍山里","LIN":"5鄰","STREET":"龍山街","SECT":" ","MAREA":" ","LANE":" ","ALLEY":" ","HOUSE_NO":"９１號十二樓","E_COORD97":170330.06,"N_COORD97":2542672.7599999998,"ADDRESS":"龍山街９１號十二樓","OBJECTID":464949},"geometry":{"x":170330.06000000052,"y":2542672.7600000035}},{"attributes":{"ID":464975,"DIS_CODE":0,"TOWNNAME":"東區","LI":"龍山里","LIN":"5鄰","STREET":"龍山街","SECT":" ","MAREA":" ","LANE":" ","ALLEY":" ","HOUSE_NO":"９３號二樓","E_COORD97":170320,"N_COORD97":2542678.71,"ADDRESS":"龍山街９３號二樓","OBJECTID":464950},"geometry":{"x":170320,"y":2542678.7100000028}},{"attributes":{"ID":464976,"DIS_CODE":0,"TOWNNAME":"東區","LI":"龍山里","LIN":"5鄰","STREET":"龍山街","SECT":" ","MAREA":" ","LANE":" ","ALLEY":" ","HOUSE_NO":"９３號八樓","E_COORD97":170320,"N_COORD97":2542678.71,"ADDRESS":"龍山街９３號八樓","OBJECTID":464951},"geometry":{"x":170320,"y":2542678.7100000028}},{"attributes":{"ID":464977,"DIS_CODE":0,"TOWNNAME":"東區","LI":"龍山里","LIN":"5鄰","STREET":"龍山街","SECT":" ","MAREA":" ","LANE":" ","ALLEY":" ","HOUSE_NO":"９３號九樓","E_COORD97":170320,"N_COORD97":2542678.71,"ADDRESS":"龍山街９３號九樓","OBJECTID":464952},"geometry":{"x":170320,"y":2542678.7100000028}},{"attributes":{"ID":464978,"DIS_CODE":0,"TOWNNAME":"東區","LI":"龍山里","LIN":"5鄰","STREET":"龍山街","SECT":" ","MAREA":" ","LANE":" ","ALLEY":" ","HOUSE_NO":"９３號十樓","E_COORD97":170320,"N_COORD97":2542678.71,"ADDRESS":"龍山街９３號十樓","OBJECTID":464953},"geometry":{"x":170320,"y":2542678.7100000028}},{"attributes":{"ID":464979,"DIS_CODE":0,"TOWNNAME":"東區","LI":"龍山里","LIN":"5鄰","STREET":"龍山街","SECT":" ","MAREA":" ","LANE":" ","ALLEY":" ","HOUSE_NO":"９３號十一樓","E_COORD97":170320,"N_COORD97":2542678.71,"ADDRESS":"龍山街９３號十一樓","OBJECTID":464954},"geometry":{"x":170320,"y":2542678.7100000028}},{"attributes":{"ID":464980,"DIS_CODE":0,"TOWNNAME":"東區","LI":"龍山里","LIN":"5鄰","STREET":"龍山街","SECT":" ","MAREA":" ","LANE":" ","ALLEY":" ","HOUSE_NO":"９３號十二樓","E_COORD97":170320,"N_COORD97":2542678.71,"ADDRESS":"龍山街９３號十二樓","OBJECTID":464955},"geometry":{"x":170320,"y":2542678.7100000028}},{"attributes":{"ID":464981,"DIS_CODE":0,"TOWNNAME":"東區","LI":"龍山里","LIN":"5鄰","STREET":"龍山街","SECT":" ","MAREA":" ","LANE":" ","ALLEY":" ","HOUSE_NO":"９３號三樓","E_COORD97":170320,"N_COORD97":2542678.71,"ADDRESS":"龍山街９３號三樓","OBJECTID":464956},"geometry":{"x":170320,"y":2542678.7100000028}},{"attributes":{"ID":464982,"DIS_CODE":0,"TOWNNAME":"東區","LI":"龍山里","LIN":"5鄰","STREET":"龍山街","SECT":" ","MAREA":" ","LANE":" ","ALLEY":" ","HOUSE_NO":"９３號四樓","E_COORD97":170320,"N_COORD97":2542678.71,"ADDRESS":"龍山街９３號四樓","OBJECTID":464957},"geometry":{"x":170320,"y":2542678.7100000028}},{"attributes":{"ID":464983,"DIS_CODE":0,"TOWNNAME":"東區","LI":"龍山里","LIN":"5鄰","STREET":"龍山街","SECT":" ","MAREA":" ","LANE":" ","ALLEY":" ","HOUSE_NO":"９３號五樓","E_COORD97":170320,"N_COORD97":2542678.71,"ADDRESS":"龍山街９３號五樓","OBJECTID":464958},"geometry":{"x":170320,"y":2542678.7100000028}},{"attributes":{"ID":464984,"DIS_CODE":0,"TOWNNAME":"東區","LI":"龍山里","LIN":"5鄰","STREET":"龍山街","SECT":" ","MAREA":" ","LANE":" ","ALLEY":" ","HOUSE_NO":"９３號六樓","E_COORD97":170320,"N_COORD97":2542678.71,"ADDRESS":"龍山街９３號六樓","OBJECTID":464959},"geometry":{"x":170320,"y":2542678.7100000028}},{"attributes":{"ID":464985,"DIS_CODE":0,"TOWNNAME":"東區","LI":"龍山里","LIN":"5鄰","STREET":"龍山街","SECT":" ","MAREA":" ","LANE":" ","ALLEY":" ","HOUSE_NO":"９３號七樓","E_COORD97":170320,"N_COORD97":2542678.71,"ADDRESS":"龍山街９３號七樓","OBJECTID":464960},"geometry":{"x":170320,"y":2542678.7100000028}},{"attributes":{"ID":464986,"DIS_CODE":0,"TOWNNAME":"東區","LI":"龍山里","LIN":"5鄰","STREET":"龍山街","SECT":" ","MAREA":" ","LANE":" ","ALLEY":" ","HOUSE_NO":"９５號二樓","E_COORD97":170313.13,"N_COORD97":2542684.6600000001,"ADDRESS":"龍山街９５號二樓","OBJECTID":464961},"geometry":{"x":170313.13000000082,"y":2542684.660000002}},{"attributes":{"ID":464987,"DIS_CODE":0,"TOWNNAME":"東區","LI":"龍山里","LIN":"5鄰","STREET":"龍山街","SECT":" ","MAREA":" ","LANE":" ","ALLEY":" ","HOUSE_NO":"９５號三樓","E_COORD97":170313.13,"N_COORD97":2542684.6600000001,"ADDRESS":"龍山街９５號三樓","OBJECTID":464962},"geometry":{"x":170313.13000000082,"y":2542684.660000002}},{"attributes":{"ID":464988,"DIS_CODE":0,"TOWNNAME":"東區","LI":"龍山里","LIN":"5鄰","STREET":"龍山街","SECT":" ","MAREA":" ","LANE":" ","ALLEY":" ","HOUSE_NO":"９５號四樓","E_COORD97":170313.13,"N_COORD97":2542684.6600000001,"ADDRESS":"龍山街９５號四樓","OBJECTID":464963},"geometry":{"x":170313.13000000082,"y":2542684.660000002}},{"attributes":{"ID":464989,"DIS_CODE":0,"TOWNNAME":"東區","LI":"龍山里","LIN":"5鄰","STREET":"龍山街","SECT":" ","MAREA":" ","LANE":" ","ALLEY":" ","HOUSE_NO":"９５號五樓","E_COORD97":170313.13,"N_COORD97":2542684.6600000001,"ADDRESS":"龍山街９５號五樓","OBJECTID":464964},"geometry":{"x":170313.13000000082,"y":2542684.660000002}},{"attributes":{"ID":464990,"DIS_CODE":0,"TOWNNAME":"東區","LI":"龍山里","LIN":"5鄰","STREET":"龍山街","SECT":" ","MAREA":" ","LANE":" ","ALLEY":" ","HOUSE_NO":"９５號六樓","E_COORD97":170313.13,"N_COORD97":2542684.6600000001,"ADDRESS":"龍山街９５號六樓","OBJECTID":464965},"geometry":{"x":170313.13000000082,"y":2542684.660000002}},{"attributes":{"ID":464991,"DIS_CODE":0,"TOWNNAME":"東區","LI":"龍山里","LIN":"5鄰","STREET":"龍山街","SECT":" ","MAREA":" ","LANE":" ","ALLEY":" ","HOUSE_NO":"９５號七樓","E_COORD97":170313.13,"N_COORD97":2542684.6600000001,"ADDRESS":"龍山街９５號七樓","OBJECTID":464966},"geometry":{"x":170313.13000000082,"y":2542684.660000002}},{"attributes":{"ID":464992,"DIS_CODE":0,"TOWNNAME":"東區","LI":"龍山里","LIN":"5鄰","STREET":"龍山街","SECT":" ","MAREA":" ","LANE":" ","ALLEY":" ","HOUSE_NO":"９５號八樓","E_COORD97":170313.13,"N_COORD97":2542684.6600000001,"ADDRESS":"龍山街９５號八樓","OBJECTID":464967},"geometry":{"x":170313.13000000082,"y":2542684.660000002}},{"attributes":{"ID":464993,"DIS_CODE":0,"TOWNNAME":"東區","LI":"龍山里","LIN":"5鄰","STREET":"龍山街","SECT":" ","MAREA":" ","LANE":" ","ALLEY":" ","HOUSE_NO":"９５號九樓","E_COORD97":170313.13,"N_COORD97":2542684.6600000001,"ADDRESS":"龍山街９５號九樓","OBJECTID":464968},"geometry":{"x":170313.13000000082,"y":2542684.660000002}},{"attributes":{"ID":464994,"DIS_CODE":0,"TOWNNAME":"東區","LI":"龍山里","LIN":"5鄰","STREET":"龍山街","SECT":" ","MAREA":" ","LANE":" ","ALLEY":" ","HOUSE_NO":"９５號十樓","E_COORD97":170313.13,"N_COORD97":2542684.6600000001,"ADDRESS":"龍山街９５號十樓","OBJECTID":464969},"geometry":{"x":170313.13000000082,"y":2542684.660000002}},{"attributes":{"ID":464995,"DIS_CODE":0,"TOWNNAME":"東區","LI":"龍山里","LIN":"5鄰","STREET":"龍山街","SECT":" ","MAREA":" ","LANE":" ","ALLEY":" ","HOUSE_NO":"９５號十一樓","E_COORD97":170313.13,"N_COORD97":2542684.6600000001,"ADDRESS":"龍山街９５號十一樓","OBJECTID":464970},"geometry":{"x":170313.13000000082,"y":2542684.660000002}},{"attributes":{"ID":464996,"DIS_CODE":0,"TOWNNAME":"東區","LI":"龍山里","LIN":"5鄰","STREET":"龍山街","SECT":" ","MAREA":" ","LANE":" ","ALLEY":" ","HOUSE_NO":"９５號十二樓","E_COORD97":170313.13,"N_COORD97":2542684.6600000001,"ADDRESS":"龍山街９５號十二樓","OBJECTID":464971},"geometry":{"x":170313.13000000082,"y":2542684.660000002}},{"attributes":{"ID":464997,"DIS_CODE":0,"TOWNNAME":"東區","LI":"龍山里","LIN":"5鄰","STREET":"龍山街","SECT":" ","MAREA":" ","LANE":" ","ALLEY":" ","HOUSE_NO":"９５號十三樓","E_COORD97":170313.13,"N_COORD97":2542684.6600000001,"ADDRESS":"龍山街９５號十三樓","OBJECTID":464972},"geometry":{"x":170313.13000000082,"y":2542684.660000002}},{"attributes":{"ID":464998,"DIS_CODE":0,"TOWNNAME":"東區","LI":"龍山里","LIN":"5鄰","STREET":"龍山街","SECT":" ","MAREA":" ","LANE":" ","ALLEY":" ","HOUSE_NO":"９５號十四樓","E_COORD97":170313.13,"N_COORD97":2542684.6600000001,"ADDRESS":"龍山街９５號十四樓","OBJECTID":464973},"geometry":{"x":170313.13000000082,"y":2542684.660000002}},{"attributes":{"ID":464999,"DIS_CODE":0,"TOWNNAME":"東區","LI":"龍山里","LIN":"5鄰","STREET":"龍山街","SECT":" ","MAREA":" ","LANE":" ","ALLEY":" ","HOUSE_NO":"９７號二樓","E_COORD97":170324.34,"N_COORD97":2542695.6400000001,"ADDRESS":"龍山街９７號二樓","OBJECTID":464974},"geometry":{"x":170324.33999999985,"y":2542695.6400000025}},{"attributes":{"ID":465000,"DIS_CODE":0,"TOWNNAME":"東區","LI":"龍山里","LIN":"5鄰","STREET":"龍山街","SECT":" ","MAREA":" ","LANE":" ","ALLEY":" ","HOUSE_NO":"９７號三樓","E_COORD97":170324.34,"N_COORD97":2542695.6400000001,"ADDRESS":"龍山街９７號三樓","OBJECTID":464975},"geometry":{"x":170324.33999999985,"y":2542695.6400000025}},{"attributes":{"ID":465001,"DIS_CODE":0,"TOWNNAME":"東區","LI":"龍山里","LIN":"5鄰","STREET":"龍山街","SECT":" ","MAREA":" ","LANE":" ","ALLEY":" ","HOUSE_NO":"９７號四樓","E_COORD97":170324.34,"N_COORD97":2542695.6400000001,"ADDRESS":"龍山街９７號四樓","OBJECTID":464976},"geometry":{"x":170324.33999999985,"y":2542695.6400000025}},{"attributes":{"ID":465002,"DIS_CODE":0,"TOWNNAME":"東區","LI":"龍山里","LIN":"5鄰","STREET":"龍山街","SECT":" ","MAREA":" ","LANE":" ","ALLEY":" ","HOUSE_NO":"９７號五樓","E_COORD97":170324.34,"N_COORD97":2542695.6400000001,"ADDRESS":"龍山街９７號五樓","OBJECTID":464977},"geometry":{"x":170324.33999999985,"y":2542695.6400000025}},{"attributes":{"ID":465003,"DIS_CODE":0,"TOWNNAME":"東區","LI":"龍山里","LIN":"5鄰","STREET":"龍山街","SECT":" ","MAREA":" ","LANE":" ","ALLEY":" ","HOUSE_NO":"９７號六樓","E_COORD97":170324.34,"N_COORD97":2542695.6400000001,"ADDRESS":"龍山街９７號六樓","OBJECTID":464978},"geometry":{"x":170324.33999999985,"y":2542695.6400000025}},{"attributes":{"ID":465004,"DIS_CODE":0,"TOWNNAME":"東區","LI":"龍山里","LIN":"5鄰","STREET":"龍山街","SECT":" ","MAREA":" ","LANE":" ","ALLEY":" ","HOUSE_NO":"９７號七樓","E_COORD97":170324.34,"N_COORD97":2542695.6400000001,"ADDRESS":"龍山街９７號七樓","OBJECTID":464979},"geometry":{"x":170324.33999999985,"y":2542695.6400000025}},{"attributes":{"ID":465005,"DIS_CODE":0,"TOWNNAME":"東區","LI":"龍山里","LIN":"5鄰","STREET":"龍山街","SECT":" ","MAREA":" ","LANE":" ","ALLEY":" ","HOUSE_NO":"９７號八樓","E_COORD97":170324.34,"N_COORD97":2542695.6400000001,"ADDRESS":"龍山街９７號八樓","OBJECTID":464980},"geometry":{"x":170324.33999999985,"y":2542695.6400000025}},{"attributes":{"ID":465006,"DIS_CODE":0,"TOWNNAME":"東區","LI":"龍山里","LIN":"5鄰","STREET":"龍山街","SECT":" ","MAREA":" ","LANE":" ","ALLEY":" ","HOUSE_NO":"９７號九樓","E_COORD97":170324.34,"N_COORD97":2542695.6400000001,"ADDRESS":"龍山街９７號九樓","OBJECTID":464981},"geometry":{"x":170324.33999999985,"y":2542695.6400000025}},{"attributes":{"ID":465007,"DIS_CODE":0,"TOWNNAME":"東區","LI":"龍山里","LIN":"5鄰","STREET":"龍山街","SECT":" ","MAREA":" ","LANE":" ","ALLEY":" ","HOUSE_NO":"９７號十樓","E_COORD97":170324.34,"N_COORD97":2542695.6400000001,"ADDRESS":"龍山街９７號十樓","OBJECTID":464982},"geometry":{"x":170324.33999999985,"y":2542695.6400000025}},{"attributes":{"ID":465008,"DIS_CODE":0,"TOWNNAME":"東區","LI":"龍山里","LIN":"5鄰","STREET":"龍山街","SECT":" ","MAREA":" ","LANE":" ","ALLEY":" ","HOUSE_NO":"９７號十一樓","E_COORD97":170324.34,"N_COORD97":2542695.6400000001,"ADDRESS":"龍山街９７號十一樓","OBJECTID":464983},"geometry":{"x":170324.33999999985,"y":2542695.6400000025}},{"attributes":{"ID":465009,"DIS_CODE":0,"TOWNNAME":"東區","LI":"龍山里","LIN":"5鄰","STREET":"龍山街","SECT":" ","MAREA":" ","LANE":" ","ALLEY":" ","HOUSE_NO":"９７號十二樓","E_COORD97":170324.34,"N_COORD97":2542695.6400000001,"ADDRESS":"龍山街９７號十二樓","OBJECTID":464984},"geometry":{"x":170324.33999999985,"y":2542695.6400000025}},{"attributes":{"ID":465010,"DIS_CODE":0,"TOWNNAME":"永康區","LI":"中華里","LIN":"24鄰","STREET":"華興街","SECT":" ","MAREA":" ","LANE":" ","ALLEY":" ","HOUSE_NO":"１５８號","E_COORD97":171690.32999999999,"N_COORD97":2544580.9399999999,"ADDRESS":"華興街１５８號","OBJECTID":464985},"geometry":{"x":171690.33000000101,"y":2544580.9400000013}},{"attributes":{"ID":465011,"DIS_CODE":0,"TOWNNAME":"東區","LI":"龍山里","LIN":"5鄰","STREET":"龍山街","SECT":" ","MAREA":" ","LANE":" ","ALLEY":" ","HOUSE_NO":"９９號二樓","E_COORD97":170331.66,"N_COORD97":2542690.8300000001,"ADDRESS":"龍山街９９號二樓","OBJECTID":464986},"geometry":{"x":170331.66000000108,"y":2542690.8300000019}},{"attributes":{"ID":465012,"DIS_CODE":0,"TOWNNAME":"東區","LI":"龍山里","LIN":"5鄰","STREET":"龍山街","SECT":" ","MAREA":" ","LANE":" ","ALLEY":" ","HOUSE_NO":"９９號三樓","E_COORD97":170331.66,"N_COORD97":2542690.8300000001,"ADDRESS":"龍山街９９號三樓","OBJECTID":464987},"geometry":{"x":170331.66000000108,"y":2542690.8300000019}},{"attributes":{"ID":465013,"DIS_CODE":0,"TOWNNAME":"東區","LI":"龍山里","LIN":"5鄰","STREET":"龍山街","SECT":" ","MAREA":" ","LANE":" ","ALLEY":" ","HOUSE_NO":"９９號四樓","E_COORD97":170331.66,"N_COORD97":2542690.8300000001,"ADDRESS":"龍山街９９號四樓","OBJECTID":464988},"geometry":{"x":170331.66000000108,"y":2542690.8300000019}},{"attributes":{"ID":465014,"DIS_CODE":0,"TOWNNAME":"東區","LI":"龍山里","LIN":"5鄰","STREET":"龍山街","SECT":" ","MAREA":" ","LANE":" ","ALLEY":" ","HOUSE_NO":"９９號五樓","E_COORD97":170331.66,"N_COORD97":2542690.8300000001,"ADDRESS":"龍山街９９號五樓","OBJECTID":464989},"geometry":{"x":170331.66000000108,"y":2542690.8300000019}},{"attributes":{"ID":465015,"DIS_CODE":0,"TOWNNAME":"東區","LI":"龍山里","LIN":"5鄰","STREET":"龍山街","SECT":" ","MAREA":" ","LANE":" ","ALLEY":" ","HOUSE_NO":"９９號六樓","E_COORD97":170331.66,"N_COORD97":2542690.8300000001,"ADDRESS":"龍山街９９號六樓","OBJECTID":464990},"geometry":{"x":170331.66000000108,"y":2542690.8300000019}},{"attributes":{"ID":465016,"DIS_CODE":0,"TOWNNAME":"東區","LI":"龍山里","LIN":"5鄰","STREET":"龍山街","SECT":" ","MAREA":" ","LANE":" ","ALLEY":" ","HOUSE_NO":"９９號七樓","E_COORD97":170331.66,"N_COORD97":2542690.8300000001,"ADDRESS":"龍山街９９號七樓","OBJECTID":464991},"geometry":{"x":170331.66000000108,"y":2542690.8300000019}},{"attributes":{"ID":465017,"DIS_CODE":0,"TOWNNAME":"東區","LI":"龍山里","LIN":"5鄰","STREET":"龍山街","SECT":" ","MAREA":" ","LANE":" ","ALLEY":" ","HOUSE_NO":"９９號八樓","E_COORD97":170331.66,"N_COORD97":2542690.8300000001,"ADDRESS":"龍山街９９號八樓","OBJECTID":464992},"geometry":{"x":170331.66000000108,"y":2542690.8300000019}},{"attributes":{"ID":465018,"DIS_CODE":0,"TOWNNAME":"東區","LI":"龍山里","LIN":"5鄰","STREET":"龍山街","SECT":" ","MAREA":" ","LANE":" ","ALLEY":" ","HOUSE_NO":"９９號九樓","E_COORD97":170331.66,"N_COORD97":2542690.8300000001,"ADDRESS":"龍山街９９號九樓","OBJECTID":464993},"geometry":{"x":170331.66000000108,"y":2542690.8300000019}},{"attributes":{"ID":465019,"DIS_CODE":0,"TOWNNAME":"東區","LI":"龍山里","LIN":"5鄰","STREET":"龍山街","SECT":" ","MAREA":" ","LANE":" ","ALLEY":" ","HOUSE_NO":"９９號十樓","E_COORD97":170331.66,"N_COORD97":2542690.8300000001,"ADDRESS":"龍山街９９號十樓","OBJECTID":464994},"geometry":{"x":170331.66000000108,"y":2542690.8300000019}},{"attributes":{"ID":465020,"DIS_CODE":0,"TOWNNAME":"東區","LI":"龍山里","LIN":"5鄰","STREET":"龍山街","SECT":" ","MAREA":" ","LANE":" ","ALLEY":" ","HOUSE_NO":"９９號十一樓","E_COORD97":170331.66,"N_COORD97":2542690.8300000001,"ADDRESS":"龍山街９９號十一樓","OBJECTID":464995},"geometry":{"x":170331.66000000108,"y":2542690.8300000019}},{"attributes":{"ID":465021,"DIS_CODE":0,"TOWNNAME":"東區","LI":"龍山里","LIN":"5鄰","STREET":"龍山街","SECT":" ","MAREA":" ","LANE":" ","ALLEY":" ","HOUSE_NO":"９９號十二樓","E_COORD97":170331.66,"N_COORD97":2542690.8300000001,"ADDRESS":"龍山街９９號十二樓","OBJECTID":464996},"geometry":{"x":170331.66000000108,"y":2542690.8300000019}},{"attributes":{"ID":465022,"DIS_CODE":0,"TOWNNAME":"東區","LI":"龍山里","LIN":"5鄰","STREET":"龍山街","SECT":" ","MAREA":" ","LANE":" ","ALLEY":" ","HOUSE_NO":"９９號十三樓","E_COORD97":170331.66,"N_COORD97":2542690.8300000001,"ADDRESS":"龍山街９９號十三樓","OBJECTID":464997},"geometry":{"x":170331.66000000108,"y":2542690.8300000019}},{"attributes":{"ID":465023,"DIS_CODE":0,"TOWNNAME":"東區","LI":"龍山里","LIN":"5鄰","STREET":"龍山街","SECT":" ","MAREA":" ","LANE":" ","ALLEY":" ","HOUSE_NO":"９９號十四樓","E_COORD97":170331.66,"N_COORD97":2542690.8300000001,"ADDRESS":"龍山街９９號十四樓","OBJECTID":464998},"geometry":{"x":170331.66000000108,"y":2542690.8300000019}},{"attributes":{"ID":465024,"DIS_CODE":0,"TOWNNAME":"永康區","LI":"永康里","LIN":" ","STREET":"永中街","SECT":" ","MAREA":" ","LANE":" ","ALLEY":" ","HOUSE_NO":"３８號","E_COORD97":173885.94,"N_COORD97":2547099.5699999998,"ADDRESS":"永中街３８號","OBJECTID":464999},"geometry":{"x":173885.94000000041,"y":2547099.5700000022}},{"attributes":{"ID":465025,"DIS_CODE":0,"TOWNNAME":"永康區","LI":"崑山里","LIN":"34鄰","STREET":"大仁街","SECT":" ","MAREA":" ","LANE":" ","ALLEY":" ","HOUSE_NO":"１４５號","E_COORD97":173870.85999999999,"N_COORD97":2544911.6899999999,"ADDRESS":"大仁街１４５號","OBJECTID":465000},"geometry":{"x":173870.86000000034,"y":2544911.6900000013}}]}