{"displayFieldName":"TOWNNAME","fieldAliases":{"ID":"ID","DIS_CODE":"DIS_CODE","TOWNNAME":"TOWNNAME","LI":"LI","LIN":"LIN","STREET":"STREET","SECT":"SECT","MAREA":"MAREA","LANE":"LANE","ALLEY":"ALLEY","HOUSE_NO":"HOUSE_NO","E_COORD97":"E_COORD97","N_COORD97":"N_COORD97","ADDRESS":"ADDRESS","OBJECTID":"OBJECTID"},"geometryType":"esriGeometryPoint","spatialReference":{"wkid":102443,"latestWkid":3826},"fields":[{"name":"ID","type":"esriFieldTypeDouble","alias":"ID"},{"name":"DIS_CODE","type":"esriFieldTypeInteger","alias":"DIS_CODE"},{"name":"TOWNNAME","type":"esriFieldTypeString","alias":"TOWNNAME","length":8},{"name":"LI","type":"esriFieldTypeString","alias":"LI","length":8},{"name":"LIN","type":"esriFieldTypeString","alias":"LIN","length":12},{"name":"STREET","type":"esriFieldTypeString","alias":"STREET","length":20},{"name":"SECT","type":"esriFieldTypeString","alias":"SECT","length":8},{"name":"MAREA","type":"esriFieldTypeString","alias":"MAREA","length":12},{"name":"LANE","type":"esriFieldTypeString","alias":"LANE","length":10},{"name":"ALLEY","type":"esriFieldTypeString","alias":"ALLEY","length":10},{"name":"HOUSE_NO","type":"esriFieldTypeString","alias":"HOUSE_NO","length":20},{"name":"E_COORD97","type":"esriFieldTypeDouble","alias":"E_COORD97"},{"name":"N_COORD97","type":"esriFieldTypeDouble","alias":"N_COORD97"},{"name":"ADDRESS","type":"esriFieldTypeString","alias":"ADDRESS","length":50},{"name":"OBJECTID","type":"esriFieldTypeOID","alias":"OBJECTID"}],"features":[{"attributes":{"ID":645228,"DIS_CODE":0,"TOWNNAME":"歸仁區","LI":"許厝里","LIN":"39鄰","STREET":"公園路","SECT":" ","MAREA":" ","LANE":" ","ALLEY":" ","HOUSE_NO":"９０號","E_COORD97":177980.14000000001,"N_COORD97":2540517.2799999998,"ADDRESS":"公園路９０號","OBJECTID":645201},"geometry":{"x":177980.1400000006,"y":2540517.2800000012}},{"attributes":{"ID":645229,"DIS_CODE":0,"TOWNNAME":"歸仁區","LI":"看西里","LIN":"4鄰","STREET":"仁愛十街","SECT":" ","MAREA":" ","LANE":" ","ALLEY":" ","HOUSE_NO":"２號","E_COORD97":178253.10999999999,"N_COORD97":2540327.2799999998,"ADDRESS":"仁愛十街２號","OBJECTID":645202},"geometry":{"x":178253.11000000034,"y":2540327.2800000012}},{"attributes":{"ID":645230,"DIS_CODE":0,"TOWNNAME":"歸仁區","LI":"後市里","LIN":"4鄰","STREET":"大吉街","SECT":" ","MAREA":" ","LANE":" ","ALLEY":" ","HOUSE_NO":"２１號","E_COORD97":177222.66,"N_COORD97":2540746.25,"ADDRESS":"大吉街２１號","OBJECTID":645203},"geometry":{"x":177222.66000000108,"y":2540746.25}},{"attributes":{"ID":645231,"DIS_CODE":0,"TOWNNAME":"歸仁區","LI":"南興里","LIN":"36鄰","STREET":"中山路","SECT":"三段","MAREA":" ","LANE":" ","ALLEY":" ","HOUSE_NO":"３６８號","E_COORD97":176101.41,"N_COORD97":2540998.25,"ADDRESS":"中山路三段３６８號","OBJECTID":645204},"geometry":{"x":176101.41000000015,"y":2540998.2500000037}},{"attributes":{"ID":645232,"DIS_CODE":0,"TOWNNAME":"歸仁區","LI":"南保里","LIN":"4鄰","STREET":"文化街","SECT":"三段","MAREA":" ","LANE":" ","ALLEY":" ","HOUSE_NO":"７０號","E_COORD97":176826.26999999999,"N_COORD97":2541240.2599999998,"ADDRESS":"文化街三段７０號","OBJECTID":645205},"geometry":{"x":176826.27000000048,"y":2541240.2600000016}},{"attributes":{"ID":645233,"DIS_CODE":0,"TOWNNAME":"歸仁區","LI":"南興里","LIN":"38鄰","STREET":"文化街","SECT":"三段","MAREA":" ","LANE":" ","ALLEY":" ","HOUSE_NO":"４３１號","E_COORD97":175743.42000000001,"N_COORD97":2541192.2599999998,"ADDRESS":"文化街三段４３１號","OBJECTID":645206},"geometry":{"x":175743.41999999993,"y":2541192.2600000016}},{"attributes":{"ID":645234,"DIS_CODE":0,"TOWNNAME":"歸仁區","LI":"後市里","LIN":"20鄰","STREET":"民族北街","SECT":" ","MAREA":" ","LANE":" ","ALLEY":" ","HOUSE_NO":"２６號","E_COORD97":177445.07999999999,"N_COORD97":2540905.25,"ADDRESS":"民族北街２６號","OBJECTID":645207},"geometry":{"x":177445.08000000101,"y":2540905.25}},{"attributes":{"ID":645235,"DIS_CODE":0,"TOWNNAME":"歸仁區","LI":"後市里","LIN":"20鄰","STREET":"民族北街","SECT":" ","MAREA":" ","LANE":" ","ALLEY":" ","HOUSE_NO":"２４號","E_COORD97":177444.07999999999,"N_COORD97":2540900.25,"ADDRESS":"民族北街２４號","OBJECTID":645208},"geometry":{"x":177444.08000000007,"y":2540900.2500000037}},{"attributes":{"ID":645236,"DIS_CODE":0,"TOWNNAME":"歸仁區","LI":"南保里","LIN":"39鄰","STREET":"中山路","SECT":"三段","MAREA":" ","LANE":" ","ALLEY":" ","HOUSE_NO":"１４２號","E_COORD97":176645.51000000001,"N_COORD97":2540916.0499999998,"ADDRESS":"中山路三段１４２號","OBJECTID":645209},"geometry":{"x":176645.51000000071,"y":2540916.0500000026}},{"attributes":{"ID":645237,"DIS_CODE":0,"TOWNNAME":"歸仁區","LI":"許厝里","LIN":"39鄰","STREET":"公園路","SECT":" ","MAREA":" ","LANE":" ","ALLEY":" ","HOUSE_NO":"８６號","E_COORD97":177986.23999999999,"N_COORD97":2540519.2799999998,"ADDRESS":"公園路８６號","OBJECTID":645210},"geometry":{"x":177986.23999999929,"y":2540519.2800000031}},{"attributes":{"ID":645238,"DIS_CODE":0,"TOWNNAME":"歸仁區","LI":"後市里","LIN":"4鄰","STREET":"大吉街","SECT":" ","MAREA":" ","LANE":" ","ALLEY":" ","HOUSE_NO":"３３號","E_COORD97":177220.45999999999,"N_COORD97":2540722.25,"ADDRESS":"大吉街３３號","OBJECTID":645211},"geometry":{"x":177220.46000000089,"y":2540722.25}},{"attributes":{"ID":645239,"DIS_CODE":0,"TOWNNAME":"北區","LI":"文元里","LIN":"25鄰","STREET":"文成三路","SECT":" ","MAREA":" ","LANE":" ","ALLEY":" ","HOUSE_NO":"６９５號","E_COORD97":167711.78,"N_COORD97":2546243.8900000001,"ADDRESS":"文成三路６９５號","OBJECTID":645212},"geometry":{"x":167711.78000000119,"y":2546243.8900000025}},{"attributes":{"ID":645240,"DIS_CODE":0,"TOWNNAME":"中西區","LI":"大涼里","LIN":"27鄰","STREET":"永華一街","SECT":" ","MAREA":" ","LANE":"４４巷","ALLEY":" ","HOUSE_NO":"１０號四樓之１１","E_COORD97":166887.70999999999,"N_COORD97":2543347.3799999999,"ADDRESS":"永華一街４４巷１０號四樓之１１","OBJECTID":645213},"geometry":{"x":166887.70999999996,"y":2543347.3800000008}},{"attributes":{"ID":645241,"DIS_CODE":0,"TOWNNAME":"仁德區","LI":"成功里","LIN":"19鄰","STREET":"保生路","SECT":" ","MAREA":" ","LANE":"１２３巷","ALLEY":" ","HOUSE_NO":"９號","E_COORD97":170621.31,"N_COORD97":2539783.02,"ADDRESS":"保生路１２３巷９號","OBJECTID":645214},"geometry":{"x":170621.31000000145,"y":2539783.0200000014}},{"attributes":{"ID":645242,"DIS_CODE":0,"TOWNNAME":"佳里區","LI":"龍安里","LIN":"5鄰","STREET":" ","SECT":" ","MAREA":"塭子內","LANE":" ","ALLEY":" ","HOUSE_NO":"５６號之６","E_COORD97":164632.71917,"N_COORD97":2558284.6346800001,"ADDRESS":"塭子內５６號之６","OBJECTID":645215},"geometry":{"x":164632.71917000134,"y":2558284.6346770041}},{"attributes":{"ID":645243,"DIS_CODE":0,"TOWNNAME":"中西區","LI":"三合里","LIN":"6鄰","STREET":"忠孝街","SECT":" ","MAREA":" ","LANE":" ","ALLEY":" ","HOUSE_NO":"４９之１號","E_COORD97":167635.88,"N_COORD97":2544424.8999999999,"ADDRESS":"忠孝街４９之１號","OBJECTID":645216},"geometry":{"x":167635.88000000175,"y":2544424.9000000004}},{"attributes":{"ID":645244,"DIS_CODE":0,"TOWNNAME":"仁德區","LI":"二行里","LIN":"8鄰","STREET":"行大一街","SECT":" ","MAREA":" ","LANE":"９９巷","ALLEY":" ","HOUSE_NO":"６號","E_COORD97":170133.89999999999,"N_COORD97":2535038,"ADDRESS":"行大一街９９巷６號","OBJECTID":645217},"geometry":{"x":170133.9000000013,"y":2535038.0000000019}},{"attributes":{"ID":645245,"DIS_CODE":0,"TOWNNAME":"北區","LI":"仁愛里","LIN":"10鄰","STREET":"東豐路","SECT":" ","MAREA":" ","LANE":"２２７巷","ALLEY":"２４弄","HOUSE_NO":"１１之６號","E_COORD97":170177.92000000001,"N_COORD97":2545012.7000000002,"ADDRESS":"東豐路２２７巷２４弄１１之６號","OBJECTID":645218},"geometry":{"x":170177.91999999993,"y":2545012.7000000011}},{"attributes":{"ID":645246,"DIS_CODE":0,"TOWNNAME":"安平區","LI":"億載里","LIN":"13鄰","STREET":"光州路","SECT":" ","MAREA":" ","LANE":" ","ALLEY":" ","HOUSE_NO":"８２號","E_COORD97":163923.37,"N_COORD97":2543271.2400000002,"ADDRESS":"光州路８２號","OBJECTID":645219},"geometry":{"x":163923.37000000011,"y":2543271.2400000021}},{"attributes":{"ID":645247,"DIS_CODE":0,"TOWNNAME":"永康區","LI":"復國里","LIN":"28鄰","STREET":"復國一路","SECT":" ","MAREA":" ","LANE":"２３７巷","ALLEY":"９弄","HOUSE_NO":"２之１號","E_COORD97":172696.39999999999,"N_COORD97":2545380.0299999998,"ADDRESS":"復國一路２３７巷９弄２之１號","OBJECTID":645220},"geometry":{"x":172696.40000000224,"y":2545380.0300000012}},{"attributes":{"ID":645248,"DIS_CODE":0,"TOWNNAME":"六甲區","LI":"六甲里","LIN":"24鄰","STREET":"中正路","SECT":" ","MAREA":" ","LANE":" ","ALLEY":" ","HOUSE_NO":"４４３號","E_COORD97":183573.669834,"N_COORD97":2569769.0696399999,"ADDRESS":"中正路４４３號","OBJECTID":645221},"geometry":{"x":183573.66983400099,"y":2569769.0696409997}},{"attributes":{"ID":645249,"DIS_CODE":0,"TOWNNAME":"南區","LI":"田寮里","LIN":"10鄰","STREET":"夏林路","SECT":" ","MAREA":" ","LANE":" ","ALLEY":" ","HOUSE_NO":"３７３號","E_COORD97":167509.67000000001,"N_COORD97":2541921.4300000002,"ADDRESS":"夏林路３７３號","OBJECTID":645222},"geometry":{"x":167509.66999999993,"y":2541921.4299999997}},{"attributes":{"ID":645250,"DIS_CODE":0,"TOWNNAME":"新營區","LI":"新北里","LIN":"11鄰","STREET":"三興街","SECT":" ","MAREA":" ","LANE":"３０１巷","ALLEY":" ","HOUSE_NO":"４２號","E_COORD97":179212.70999999999,"N_COORD97":2579723.7799999998,"ADDRESS":"三興街３０１巷４２號","OBJECTID":645223},"geometry":{"x":179212.71000000089,"y":2579723.7800000012}},{"attributes":{"ID":645251,"DIS_CODE":0,"TOWNNAME":"鹽水區","LI":"橋南里","LIN":"23鄰","STREET":"四維路","SECT":" ","MAREA":" ","LANE":" ","ALLEY":" ","HOUSE_NO":"３１號","E_COORD97":175972.47,"N_COORD97":2578503.5499999998,"ADDRESS":"四維路３１號","OBJECTID":645224},"geometry":{"x":175972.47000000067,"y":2578503.5500000007}},{"attributes":{"ID":645252,"DIS_CODE":0,"TOWNNAME":"仁德區","LI":"保安里","LIN":"20鄰","STREET":"保安路","SECT":"一段","MAREA":" ","LANE":" ","ALLEY":" ","HOUSE_NO":"２１之１號","E_COORD97":170548.974625,"N_COORD97":2536216.95175,"ADDRESS":"保安路一段２１之１號","OBJECTID":645225},"geometry":{"x":170548.9746249998,"y":2536216.9517490026}},{"attributes":{"ID":645253,"DIS_CODE":0,"TOWNNAME":"玉井區","LI":"層林里","LIN":"3鄰","STREET":" ","SECT":" ","MAREA":"豐里","LANE":" ","ALLEY":" ","HOUSE_NO":"２５號","E_COORD97":193256.92224799999,"N_COORD97":2558257.96172,"ADDRESS":"豐里２５號","OBJECTID":645226},"geometry":{"x":193256.92224800214,"y":2558257.9617149998}},{"attributes":{"ID":645254,"DIS_CODE":0,"TOWNNAME":"玉井區","LI":"豐里里","LIN":"3鄰","STREET":" ","SECT":" ","MAREA":"豐里","LANE":" ","ALLEY":" ","HOUSE_NO":"２５號","E_COORD97":193256.92224799999,"N_COORD97":2558257.96172,"ADDRESS":"豐里２５號","OBJECTID":645227},"geometry":{"x":193256.92224800214,"y":2558257.9617149998}},{"attributes":{"ID":645255,"DIS_CODE":0,"TOWNNAME":"大內區","LI":"石林里","LIN":"1鄰","STREET":" ","SECT":" ","MAREA":"石子瀨","LANE":" ","ALLEY":" ","HOUSE_NO":"１３１之２號","E_COORD97":183967.20718500001,"N_COORD97":2558094.27391,"ADDRESS":"石子瀨１３１之２號","OBJECTID":645228},"geometry":{"x":183967.20718500111,"y":2558094.2739060037}},{"attributes":{"ID":645256,"DIS_CODE":0,"TOWNNAME":"玉井區","LI":"豐里里","LIN":"3鄰","STREET":" ","SECT":" ","MAREA":"豐里","LANE":" ","ALLEY":" ","HOUSE_NO":"２５號","E_COORD97":193256.92224799999,"N_COORD97":2558257.96172,"ADDRESS":"豐里２５號","OBJECTID":645229},"geometry":{"x":193256.92224800214,"y":2558257.9617149998}},{"attributes":{"ID":645257,"DIS_CODE":0,"TOWNNAME":"仁德區","LI":"中洲里","LIN":"10鄰","STREET":" ","SECT":" ","MAREA":"中洲","LANE":" ","ALLEY":" ","HOUSE_NO":"３１６號之１","E_COORD97":173346.01214599999,"N_COORD97":2534072.1188300001,"ADDRESS":"中洲３１６號之１","OBJECTID":645230},"geometry":{"x":173346.01214600075,"y":2534072.1188319996}},{"attributes":{"ID":645258,"DIS_CODE":0,"TOWNNAME":"仁德區","LI":"上崙里","LIN":"1鄰","STREET":"德崙路","SECT":" ","MAREA":" ","LANE":"７７巷","ALLEY":" ","HOUSE_NO":"８８號五樓之２","E_COORD97":173564.48678499999,"N_COORD97":2538442.1179900002,"ADDRESS":"德崙路７７巷８８號五樓之２","OBJECTID":645231},"geometry":{"x":173564.48678500112,"y":2538442.1179939993}},{"attributes":{"ID":645259,"DIS_CODE":0,"TOWNNAME":"安南區","LI":"原佃里","LIN":"4鄰","STREET":"本原街","SECT":"一段","MAREA":" ","LANE":"９４巷","ALLEY":"１７弄","HOUSE_NO":"１１之５號","E_COORD97":167944.940049,"N_COORD97":2550202.9955099998,"ADDRESS":"本原街一段９４巷１７弄１１之５號","OBJECTID":645232},"geometry":{"x":167944.94004900102,"y":2550202.9955080021}},{"attributes":{"ID":645260,"DIS_CODE":0,"TOWNNAME":"仁德區","LI":"上崙里","LIN":"1鄰","STREET":"德崙路","SECT":" ","MAREA":" ","LANE":"７７巷","ALLEY":" ","HOUSE_NO":"８８號五樓之３","E_COORD97":173564.48678499999,"N_COORD97":2538442.1179900002,"ADDRESS":"德崙路７７巷８８號五樓之３","OBJECTID":645233},"geometry":{"x":173564.48678500112,"y":2538442.1179939993}},{"attributes":{"ID":645261,"DIS_CODE":0,"TOWNNAME":"仁德區","LI":"太子里","LIN":"43鄰","STREET":"太子路","SECT":" ","MAREA":" ","LANE":"３１巷","ALLEY":" ","HOUSE_NO":"２７號","E_COORD97":175410.197113,"N_COORD97":2543399.9818699998,"ADDRESS":"太子路３１巷２７號","OBJECTID":645234},"geometry":{"x":175410.19711299986,"y":2543399.9818740003}},{"attributes":{"ID":645262,"DIS_CODE":0,"TOWNNAME":"仁德區","LI":"上崙里","LIN":"1鄰","STREET":"德崙路","SECT":" ","MAREA":" ","LANE":"７７巷","ALLEY":" ","HOUSE_NO":"８８號五樓之４","E_COORD97":173564.48678499999,"N_COORD97":2538442.1179900002,"ADDRESS":"德崙路７７巷８８號五樓之４","OBJECTID":645235},"geometry":{"x":173564.48678500112,"y":2538442.1179939993}},{"attributes":{"ID":645263,"DIS_CODE":0,"TOWNNAME":"仁德區","LI":"上崙里","LIN":"1鄰","STREET":"德崙路","SECT":" ","MAREA":" ","LANE":"７７巷","ALLEY":" ","HOUSE_NO":"８８號五樓之５","E_COORD97":173564.48678499999,"N_COORD97":2538442.1179900002,"ADDRESS":"德崙路７７巷８８號五樓之５","OBJECTID":645236},"geometry":{"x":173564.48678500112,"y":2538442.1179939993}},{"attributes":{"ID":645264,"DIS_CODE":0,"TOWNNAME":"善化區","LI":"小新里","LIN":"20鄰","STREET":" ","SECT":" ","MAREA":"小新營","LANE":" ","ALLEY":" ","HOUSE_NO":"３９９之２５號","E_COORD97":180152.74374500001,"N_COORD97":2557881.1007099999,"ADDRESS":"小新營３９９之２５號","OBJECTID":645237},"geometry":{"x":180152.74374500103,"y":2557881.1007090006}},{"attributes":{"ID":645265,"DIS_CODE":0,"TOWNNAME":"善化區","LI":"小新里","LIN":"20鄰","STREET":" ","SECT":" ","MAREA":"小新營","LANE":" ","ALLEY":" ","HOUSE_NO":"３９９之２６號","E_COORD97":180152.637896,"N_COORD97":2557873.90405,"ADDRESS":"小新營３９９之２６號","OBJECTID":645238},"geometry":{"x":180152.63789600227,"y":2557873.9040470049}},{"attributes":{"ID":645266,"DIS_CODE":0,"TOWNNAME":"仁德區","LI":"上崙里","LIN":"1鄰","STREET":"德崙路","SECT":" ","MAREA":" ","LANE":"７７巷","ALLEY":" ","HOUSE_NO":"８８號四樓之１","E_COORD97":173564.48678499999,"N_COORD97":2538442.1179900002,"ADDRESS":"德崙路７７巷８８號四樓之１","OBJECTID":645239},"geometry":{"x":173564.48678500112,"y":2538442.1179939993}},{"attributes":{"ID":645267,"DIS_CODE":0,"TOWNNAME":"善化區","LI":"小新里","LIN":"20鄰","STREET":" ","SECT":" ","MAREA":"小新營","LANE":" ","ALLEY":" ","HOUSE_NO":"３９９之２７號","E_COORD97":180158.77716100001,"N_COORD97":2557873.4807099998,"ADDRESS":"小新營３９９之２７號","OBJECTID":645240},"geometry":{"x":180158.77716100123,"y":2557873.4807130024}},{"attributes":{"ID":645268,"DIS_CODE":0,"TOWNNAME":"仁德區","LI":"太子里","LIN":"43鄰","STREET":"太子路","SECT":" ","MAREA":" ","LANE":"３１巷","ALLEY":" ","HOUSE_NO":"３１號","E_COORD97":175316.17034700001,"N_COORD97":2543331.8252400002,"ADDRESS":"太子路３１巷３１號","OBJECTID":645241},"geometry":{"x":175316.17034700047,"y":2543331.825244002}},{"attributes":{"ID":645269,"DIS_CODE":0,"TOWNNAME":"善化區","LI":"小新里","LIN":"20鄰","STREET":" ","SECT":" ","MAREA":"小新營","LANE":" ","ALLEY":" ","HOUSE_NO":"３９９之２８號","E_COORD97":180158.77716100001,"N_COORD97":2557873.4807099998,"ADDRESS":"小新營３９９之２８號","OBJECTID":645242},"geometry":{"x":180158.77716100123,"y":2557873.4807130024}},{"attributes":{"ID":645270,"DIS_CODE":0,"TOWNNAME":"仁德區","LI":"上崙里","LIN":"1鄰","STREET":"德崙路","SECT":" ","MAREA":" ","LANE":"７７巷","ALLEY":" ","HOUSE_NO":"８８號四樓之２","E_COORD97":173564.48678499999,"N_COORD97":2538442.1179900002,"ADDRESS":"德崙路７７巷８８號四樓之２","OBJECTID":645243},"geometry":{"x":173564.48678500112,"y":2538442.1179939993}},{"attributes":{"ID":645271,"DIS_CODE":0,"TOWNNAME":"仁德區","LI":"上崙里","LIN":"1鄰","STREET":"德崙路","SECT":" ","MAREA":" ","LANE":"７７巷","ALLEY":" ","HOUSE_NO":"８８號四樓之３","E_COORD97":173564.48678499999,"N_COORD97":2538442.1179900002,"ADDRESS":"德崙路７７巷８８號四樓之３","OBJECTID":645244},"geometry":{"x":173564.48678500112,"y":2538442.1179939993}},{"attributes":{"ID":645272,"DIS_CODE":0,"TOWNNAME":"大內區","LI":"石林里","LIN":"2鄰","STREET":" ","SECT":" ","MAREA":"石子瀨","LANE":" ","ALLEY":" ","HOUSE_NO":"１３１之１號","E_COORD97":183971.65596599999,"N_COORD97":2558095.2264,"ADDRESS":"石子瀨１３１之１號","OBJECTID":645245},"geometry":{"x":183971.65596600156,"y":2558095.2264050003}},{"attributes":{"ID":645273,"DIS_CODE":0,"TOWNNAME":"善化區","LI":"小新里","LIN":"20鄰","STREET":" ","SECT":" ","MAREA":"小新營","LANE":" ","ALLEY":" ","HOUSE_NO":"３９９之２８號","E_COORD97":180163.64623300001,"N_COORD97":2557873.2690499998,"ADDRESS":"小新營３９９之２８號","OBJECTID":645246},"geometry":{"x":180163.64623300079,"y":2557873.2690469995}},{"attributes":{"ID":645274,"DIS_CODE":0,"TOWNNAME":"仁德區","LI":"上崙里","LIN":"1鄰","STREET":"德崙路","SECT":" ","MAREA":" ","LANE":"７７巷","ALLEY":" ","HOUSE_NO":"８８號四樓之５","E_COORD97":173564.48678499999,"N_COORD97":2538442.1179900002,"ADDRESS":"德崙路７７巷８８號四樓之５","OBJECTID":645247},"geometry":{"x":173564.48678500112,"y":2538442.1179939993}},{"attributes":{"ID":645275,"DIS_CODE":0,"TOWNNAME":"善化區","LI":"小新里","LIN":"20鄰","STREET":" ","SECT":" ","MAREA":"小新營","LANE":" ","ALLEY":" ","HOUSE_NO":"３９９之２９號","E_COORD97":180177.618353,"N_COORD97":2557870.5173800001,"ADDRESS":"小新營３９９之２９號","OBJECTID":645248},"geometry":{"x":180177.61835299991,"y":2557870.5173819996}},{"attributes":{"ID":645276,"DIS_CODE":0,"TOWNNAME":"仁德區","LI":"上崙里","LIN":"1鄰","STREET":"德崙路","SECT":" ","MAREA":" ","LANE":"７７巷","ALLEY":" ","HOUSE_NO":"８８號四樓之６","E_COORD97":173564.48678499999,"N_COORD97":2538442.1179900002,"ADDRESS":"德崙路７７巷８８號四樓之６","OBJECTID":645249},"geometry":{"x":173564.48678500112,"y":2538442.1179939993}},{"attributes":{"ID":645277,"DIS_CODE":0,"TOWNNAME":"善化區","LI":"小新里","LIN":"20鄰","STREET":" ","SECT":" ","MAREA":"小新營","LANE":" ","ALLEY":" ","HOUSE_NO":"３９９之３０號","E_COORD97":180177.51250400001,"N_COORD97":2557864.8023899999,"ADDRESS":"小新營３９９之３０號","OBJECTID":645250},"geometry":{"x":180177.51250400115,"y":2557864.8023850005}},{"attributes":{"ID":645278,"DIS_CODE":0,"TOWNNAME":"善化區","LI":"小新里","LIN":"20鄰","STREET":" ","SECT":" ","MAREA":"小新營","LANE":" ","ALLEY":" ","HOUSE_NO":"３９９之３１號","E_COORD97":180177.30080500001,"N_COORD97":2557859.08739,"ADDRESS":"小新營３９９之３１號","OBJECTID":645251},"geometry":{"x":180177.30080499966,"y":2557859.0873880014}},{"attributes":{"ID":645279,"DIS_CODE":0,"TOWNNAME":"仁德區","LI":"上崙里","LIN":"1鄰","STREET":"德崙路","SECT":" ","MAREA":" ","LANE":"７７巷","ALLEY":" ","HOUSE_NO":"８８號四樓之７","E_COORD97":173564.48678499999,"N_COORD97":2538442.1179900002,"ADDRESS":"德崙路７７巷８８號四樓之７","OBJECTID":645252},"geometry":{"x":173564.48678500112,"y":2538442.1179939993}},{"attributes":{"ID":645280,"DIS_CODE":0,"TOWNNAME":"仁德區","LI":"太子里","LIN":"43鄰","STREET":"太子路","SECT":" ","MAREA":" ","LANE":"３１巷","ALLEY":" ","HOUSE_NO":"４８號","E_COORD97":175248.40330800001,"N_COORD97":2543169.68866,"ADDRESS":"太子路３１巷４８號","OBJECTID":645253},"geometry":{"x":175248.40330800135,"y":2543169.6886650007}},{"attributes":{"ID":645281,"DIS_CODE":0,"TOWNNAME":"善化區","LI":"小新里","LIN":"20鄰","STREET":" ","SECT":" ","MAREA":"小新營","LANE":" ","ALLEY":" ","HOUSE_NO":"３９９之３３號","E_COORD97":180176.877408,"N_COORD97":2557848.60989,"ADDRESS":"小新營３９９之３３號","OBJECTID":645254},"geometry":{"x":180176.87740800064,"y":2557848.609894}},{"attributes":{"ID":645282,"DIS_CODE":0,"TOWNNAME":"善化區","LI":"小新里","LIN":"20鄰","STREET":" ","SECT":" ","MAREA":"小新營","LANE":" ","ALLEY":" ","HOUSE_NO":"３９９之３２號","E_COORD97":180176.77155800001,"N_COORD97":2557854.1132200002,"ADDRESS":"小新營３９９之３２號","OBJECTID":645255},"geometry":{"x":180176.77155800071,"y":2557854.1132240035}},{"attributes":{"ID":645283,"DIS_CODE":0,"TOWNNAME":"仁德區","LI":"中洲里","LIN":"10鄰","STREET":" ","SECT":" ","MAREA":"中洲","LANE":" ","ALLEY":" ","HOUSE_NO":"３１８號之５","E_COORD97":173397.28319700001,"N_COORD97":2533990.6272100001,"ADDRESS":"中洲３１８號之５","OBJECTID":645256},"geometry":{"x":173397.28319700062,"y":2533990.6272100024}},{"attributes":{"ID":645284,"DIS_CODE":0,"TOWNNAME":"仁德區","LI":"太子里","LIN":"43鄰","STREET":"太子路","SECT":" ","MAREA":" ","LANE":"３１巷","ALLEY":" ","HOUSE_NO":"５２號","E_COORD97":175229.76737300001,"N_COORD97":2543202.0736500002,"ADDRESS":"太子路３１巷５２號","OBJECTID":645257},"geometry":{"x":175229.7673730012,"y":2543202.0736480001}},{"attributes":{"ID":645285,"DIS_CODE":0,"TOWNNAME":"善化區","LI":"小新里","LIN":"20鄰","STREET":" ","SECT":" ","MAREA":"小新營","LANE":" ","ALLEY":" ","HOUSE_NO":"３９９之３５號","E_COORD97":180176.559859,"N_COORD97":2557842.7890599999,"ADDRESS":"小新營３９９之３５號","OBJECTID":645258},"geometry":{"x":180176.55985900108,"y":2557842.7890630011}},{"attributes":{"ID":645286,"DIS_CODE":0,"TOWNNAME":"善化區","LI":"小新里","LIN":"11鄰","STREET":"龍目井路","SECT":" ","MAREA":" ","LANE":" ","ALLEY":" ","HOUSE_NO":"４５８號","E_COORD97":178755.584638,"N_COORD97":2556569.8793299999,"ADDRESS":"龍目井路４５８號","OBJECTID":645259},"geometry":{"x":178755.58463799953,"y":2556569.8793340009}},{"attributes":{"ID":645287,"DIS_CODE":0,"TOWNNAME":"善化區","LI":"小新里","LIN":"11鄰","STREET":"龍目井路","SECT":" ","MAREA":" ","LANE":" ","ALLEY":" ","HOUSE_NO":"４５６號","E_COORD97":178761.829753,"N_COORD97":2556569.4559999998,"ADDRESS":"龍目井路４５６號","OBJECTID":645260},"geometry":{"x":178761.82975300122,"y":2556569.4560010023}},{"attributes":{"ID":645288,"DIS_CODE":0,"TOWNNAME":"善化區","LI":"小新里","LIN":"11鄰","STREET":"龍目井路","SECT":" ","MAREA":" ","LANE":" ","ALLEY":" ","HOUSE_NO":"４５２號","E_COORD97":178761.829753,"N_COORD97":2556569.4559999998,"ADDRESS":"龍目井路４５２號","OBJECTID":645261},"geometry":{"x":178761.82975300122,"y":2556569.4560010023}},{"attributes":{"ID":645289,"DIS_CODE":0,"TOWNNAME":"安南區","LI":"佃西里","LIN":"2鄰","STREET":"十二佃路","SECT":" ","MAREA":" ","LANE":"２１３巷","ALLEY":" ","HOUSE_NO":"４５號","E_COORD97":165219.096747,"N_COORD97":2552081.3340400001,"ADDRESS":"十二佃路２１３巷４５號","OBJECTID":645262},"geometry":{"x":165219.09674699977,"y":2552081.3340410013}},{"attributes":{"ID":645290,"DIS_CODE":0,"TOWNNAME":"安南區","LI":"布袋里","LIN":"4鄰","STREET":"長和路","SECT":"四段","MAREA":" ","LANE":"２３１巷","ALLEY":"６０弄","HOUSE_NO":"３３號","E_COORD97":168731.634467,"N_COORD97":2551533.15105,"ADDRESS":"長和路四段２３１巷６０弄３３號","OBJECTID":645263},"geometry":{"x":168731.63446700107,"y":2551533.1510499995}},{"attributes":{"ID":645291,"DIS_CODE":0,"TOWNNAME":"安南區","LI":"佃西里","LIN":"2鄰","STREET":"十二佃路","SECT":" ","MAREA":" ","LANE":"２１３巷","ALLEY":" ","HOUSE_NO":"４７號","E_COORD97":165214.22379600001,"N_COORD97":2552080.4873799998,"ADDRESS":"十二佃路２１３巷４７號","OBJECTID":645264},"geometry":{"x":165214.2237960007,"y":2552080.4873750005}},{"attributes":{"ID":645292,"DIS_CODE":0,"TOWNNAME":"善化區","LI":"小新里","LIN":"11鄰","STREET":"龍目井路","SECT":" ","MAREA":" ","LANE":" ","ALLEY":" ","HOUSE_NO":"４５２號","E_COORD97":178767.969018,"N_COORD97":2556569.4559999998,"ADDRESS":"龍目井路４５２號","OBJECTID":645265},"geometry":{"x":178767.96901800018,"y":2556569.4560010023}},{"attributes":{"ID":645293,"DIS_CODE":0,"TOWNNAME":"安南區","LI":"溪東里","LIN":"2鄰","STREET":"府安路","SECT":"五段","MAREA":" ","LANE":"１１９巷","ALLEY":" ","HOUSE_NO":"６９號","E_COORD97":167925.51596600001,"N_COORD97":2547293.4832799998,"ADDRESS":"府安路五段１１９巷６９號","OBJECTID":645266},"geometry":{"x":167925.51596600004,"y":2547293.4832779989}},{"attributes":{"ID":645294,"DIS_CODE":0,"TOWNNAME":"安南區","LI":"佃西里","LIN":"2鄰","STREET":"十二佃路","SECT":" ","MAREA":" ","LANE":"２１３巷","ALLEY":" ","HOUSE_NO":"４９號","E_COORD97":165208.92710999999,"N_COORD97":2552081.12237,"ADDRESS":"十二佃路２１３巷４９號","OBJECTID":645267},"geometry":{"x":165208.92711000051,"y":2552081.122374}},{"attributes":{"ID":645295,"DIS_CODE":0,"TOWNNAME":"安南區","LI":"布袋里","LIN":"4鄰","STREET":"長和路","SECT":"四段","MAREA":" ","LANE":"２３１巷","ALLEY":"６０弄","HOUSE_NO":"２９號","E_COORD97":168738.40992500001,"N_COORD97":2551539.9243800002,"ADDRESS":"長和路四段２３１巷６０弄２９號","OBJECTID":645268},"geometry":{"x":168738.40992499981,"y":2551539.9243800007}},{"attributes":{"ID":645296,"DIS_CODE":0,"TOWNNAME":"善化區","LI":"小新里","LIN":"11鄰","STREET":"龍目井路","SECT":" ","MAREA":" ","LANE":" ","ALLEY":" ","HOUSE_NO":"４５０號","E_COORD97":178774.21413199999,"N_COORD97":2556569.2443300001,"ADDRESS":"龍目井路４５０號","OBJECTID":645269},"geometry":{"x":178774.21413200069,"y":2556569.244334003}},{"attributes":{"ID":645297,"DIS_CODE":0,"TOWNNAME":"善化區","LI":"小新里","LIN":"11鄰","STREET":"龍目井路","SECT":" ","MAREA":" ","LANE":" ","ALLEY":" ","HOUSE_NO":"４４８號","E_COORD97":178780.45924600001,"N_COORD97":2556569.1384999999,"ADDRESS":"龍目井路４４８號","OBJECTID":645270},"geometry":{"x":178780.45924600028,"y":2556569.1385010015}},{"attributes":{"ID":645298,"DIS_CODE":0,"TOWNNAME":"善化區","LI":"小新里","LIN":"11鄰","STREET":"龍目井路","SECT":" ","MAREA":" ","LANE":" ","ALLEY":" ","HOUSE_NO":"４４６號","E_COORD97":178786.38681299999,"N_COORD97":2556569.1384999999,"ADDRESS":"龍目井路４４６號","OBJECTID":645271},"geometry":{"x":178786.38681299984,"y":2556569.1385010015}},{"attributes":{"ID":645299,"DIS_CODE":0,"TOWNNAME":"善化區","LI":"小新里","LIN":"11鄰","STREET":"龍目井路","SECT":" ","MAREA":" ","LANE":" ","ALLEY":" ","HOUSE_NO":"４４２號","E_COORD97":178792.63192700001,"N_COORD97":2556569.0326700001,"ADDRESS":"龍目井路４４２號","OBJECTID":645272},"geometry":{"x":178792.63192700036,"y":2556569.0326680001}},{"attributes":{"ID":645300,"DIS_CODE":0,"TOWNNAME":"善化區","LI":"小新里","LIN":"11鄰","STREET":"龍目井路","SECT":" ","MAREA":" ","LANE":" ","ALLEY":" ","HOUSE_NO":"４４０號","E_COORD97":178798.877041,"N_COORD97":2556569.0326700001,"ADDRESS":"龍目井路４４０號","OBJECTID":645273},"geometry":{"x":178798.87704099994,"y":2556569.0326680001}},{"attributes":{"ID":645301,"DIS_CODE":0,"TOWNNAME":"善化區","LI":"小新里","LIN":"11鄰","STREET":"龍目井路","SECT":" ","MAREA":" ","LANE":"４３８巷","ALLEY":" ","HOUSE_NO":"１號","E_COORD97":178799.30043900001,"N_COORD97":2556587.1301600002,"ADDRESS":"龍目井路４３８巷１號","OBJECTID":645274},"geometry":{"x":178799.30043900106,"y":2556587.1301579997}},{"attributes":{"ID":645302,"DIS_CODE":0,"TOWNNAME":"安南區","LI":"佃西里","LIN":"2鄰","STREET":"十二佃路","SECT":" ","MAREA":" ","LANE":"２１３巷","ALLEY":" ","HOUSE_NO":"１６號","E_COORD97":165283.08070699999,"N_COORD97":2552087.8957000002,"ADDRESS":"十二佃路２１３巷１６號","OBJECTID":645275},"geometry":{"x":165283.0807070015,"y":2552087.8957040031}},{"attributes":{"ID":645303,"DIS_CODE":0,"TOWNNAME":"安南區","LI":"布袋里","LIN":"5鄰","STREET":"長和路","SECT":"四段","MAREA":" ","LANE":"２５１巷","ALLEY":" ","HOUSE_NO":"９號","E_COORD97":168648.423381,"N_COORD97":2551645.3343199999,"ADDRESS":"長和路四段２５１巷９號","OBJECTID":645276},"geometry":{"x":168648.42338099983,"y":2551645.3343230002}},{"attributes":{"ID":645304,"DIS_CODE":0,"TOWNNAME":"善化區","LI":"小新里","LIN":"11鄰","STREET":"龍目井路","SECT":" ","MAREA":" ","LANE":"４３８巷","ALLEY":" ","HOUSE_NO":"３號","E_COORD97":178793.16117400001,"N_COORD97":2556587.1301600002,"ADDRESS":"龍目井路４３８巷３號","OBJECTID":645277},"geometry":{"x":178793.16117400117,"y":2556587.1301579997}},{"attributes":{"ID":645305,"DIS_CODE":0,"TOWNNAME":"安南區","LI":"佃西里","LIN":"2鄰","STREET":"十二佃路","SECT":" ","MAREA":" ","LANE":"２１３巷","ALLEY":" ","HOUSE_NO":"１８號","E_COORD97":165277.36028699999,"N_COORD97":2552090.4356999998,"ADDRESS":"十二佃路２１３巷１８號","OBJECTID":645278},"geometry":{"x":165277.36028700136,"y":2552090.4357030019}},{"attributes":{"ID":645306,"DIS_CODE":0,"TOWNNAME":"善化區","LI":"小新里","LIN":"11鄰","STREET":"龍目井路","SECT":" ","MAREA":" ","LANE":"４３８巷","ALLEY":" ","HOUSE_NO":"５號","E_COORD97":178786.81021,"N_COORD97":2556587.4476600001,"ADDRESS":"龍目井路４３８巷５號","OBJECTID":645279},"geometry":{"x":178786.81021000072,"y":2556587.4476580024}},{"attributes":{"ID":645307,"DIS_CODE":0,"TOWNNAME":"善化區","LI":"小新里","LIN":"11鄰","STREET":"龍目井路","SECT":" ","MAREA":" ","LANE":"４３８巷","ALLEY":" ","HOUSE_NO":"７號","E_COORD97":178780.882644,"N_COORD97":2556587.3418299998,"ADDRESS":"龍目井路４３８巷７號","OBJECTID":645280},"geometry":{"x":178780.88264400139,"y":2556587.3418250009}},{"attributes":{"ID":645308,"DIS_CODE":0,"TOWNNAME":"善化區","LI":"小新里","LIN":"11鄰","STREET":"龍目井路","SECT":" ","MAREA":" ","LANE":"４３８巷","ALLEY":" ","HOUSE_NO":"９號","E_COORD97":178774.425831,"N_COORD97":2556587.3418299998,"ADDRESS":"龍目井路４３８巷９號","OBJECTID":645281},"geometry":{"x":178774.42583100218,"y":2556587.3418250009}},{"attributes":{"ID":645309,"DIS_CODE":0,"TOWNNAME":"善化區","LI":"小新里","LIN":"11鄰","STREET":"龍目井路","SECT":" ","MAREA":" ","LANE":"４３８巷","ALLEY":" ","HOUSE_NO":"１１號","E_COORD97":178768.39241500001,"N_COORD97":2556588.0826599998,"ADDRESS":"龍目井路４３８巷１１號","OBJECTID":645282},"geometry":{"x":178768.39241500106,"y":2556588.0826580022}},{"attributes":{"ID":645310,"DIS_CODE":0,"TOWNNAME":"善化區","LI":"小新里","LIN":"11鄰","STREET":"龍目井路","SECT":" ","MAREA":" ","LANE":"４３８巷","ALLEY":" ","HOUSE_NO":"１３號","E_COORD97":178762.25315,"N_COORD97":2556588.0826599998,"ADDRESS":"龍目井路４３８巷１３號","OBJECTID":645283},"geometry":{"x":178762.25315000024,"y":2556588.0826580022}},{"attributes":{"ID":645311,"DIS_CODE":0,"TOWNNAME":"安南區","LI":"佃西里","LIN":"2鄰","STREET":"十二佃路","SECT":" ","MAREA":" ","LANE":"２１３巷","ALLEY":" ","HOUSE_NO":"２０號","E_COORD97":165273.75854099999,"N_COORD97":2552090.85904,"ADDRESS":"十二佃路２１３巷２０號","OBJECTID":645284},"geometry":{"x":165273.75854100101,"y":2552090.8590360004}},{"attributes":{"ID":645312,"DIS_CODE":0,"TOWNNAME":"安南區","LI":"溪東里","LIN":"11鄰","STREET":"府安路","SECT":"五段","MAREA":" ","LANE":"１１巷","ALLEY":" ","HOUSE_NO":"４２之１號","E_COORD97":168479.11534799999,"N_COORD97":2547353.7024099999,"ADDRESS":"府安路五段１１巷４２之１號","OBJECTID":645285},"geometry":{"x":168479.11534800101,"y":2547353.7024120018}},{"attributes":{"ID":645313,"DIS_CODE":0,"TOWNNAME":"善化區","LI":"小新里","LIN":"11鄰","STREET":"龍目井路","SECT":" ","MAREA":" ","LANE":"４３８巷","ALLEY":" ","HOUSE_NO":"１５號","E_COORD97":178756.00803600001,"N_COORD97":2556588.1884900001,"ADDRESS":"龍目井路４３８巷１５號","OBJECTID":645286},"geometry":{"x":178756.00803599972,"y":2556588.1884910017}},{"attributes":{"ID":645314,"DIS_CODE":0,"TOWNNAME":"安南區","LI":"佃西里","LIN":"2鄰","STREET":"十二佃路","SECT":" ","MAREA":" ","LANE":"２１３巷","ALLEY":" ","HOUSE_NO":"２２號","E_COORD97":165269.30932500001,"N_COORD97":2552091.7056999998,"ADDRESS":"十二佃路２１３巷２２號","OBJECTID":645287},"geometry":{"x":165269.30932500027,"y":2552091.7057020012}},{"attributes":{"ID":645315,"DIS_CODE":0,"TOWNNAME":"安南區","LI":"佃西里","LIN":"2鄰","STREET":"十二佃路","SECT":" ","MAREA":" ","LANE":"２１３巷","ALLEY":" ","HOUSE_NO":"２６號","E_COORD97":165264.01263899999,"N_COORD97":2552092.5523700002,"ADDRESS":"十二佃路２１３巷２６號","OBJECTID":645288},"geometry":{"x":165264.01263900008,"y":2552092.5523680039}},{"attributes":{"ID":645316,"DIS_CODE":0,"TOWNNAME":"安南區","LI":"佃西里","LIN":"2鄰","STREET":"十二佃路","SECT":" ","MAREA":" ","LANE":"２１３巷","ALLEY":" ","HOUSE_NO":"２８號","E_COORD97":165259.35155600001,"N_COORD97":2552092.3407000001,"ADDRESS":"十二佃路２１３巷２８號","OBJECTID":645289},"geometry":{"x":165259.35155600123,"y":2552092.340702001}},{"attributes":{"ID":645317,"DIS_CODE":0,"TOWNNAME":"善化區","LI":"小新里","LIN":"11鄰","STREET":"龍目井路","SECT":" ","MAREA":" ","LANE":"４３８巷","ALLEY":" ","HOUSE_NO":"２號","E_COORD97":178799.72863600001,"N_COORD97":2556601.8066099999,"ADDRESS":"龍目井路４３８巷２號","OBJECTID":645290},"geometry":{"x":178799.72863600124,"y":2556601.8066110034}},{"attributes":{"ID":645318,"DIS_CODE":0,"TOWNNAME":"仁德區","LI":"太子里","LIN":"43鄰","STREET":"太子路","SECT":" ","MAREA":" ","LANE":"３１巷","ALLEY":" ","HOUSE_NO":"７９號","E_COORD97":175205.83713699999,"N_COORD97":2543086.0803800002,"ADDRESS":"太子路３１巷７９號","OBJECTID":645291},"geometry":{"x":175205.8371369997,"y":2543086.0803769995}},{"attributes":{"ID":645319,"DIS_CODE":0,"TOWNNAME":"善化區","LI":"小新里","LIN":"11鄰","STREET":"龍目井路","SECT":" ","MAREA":" ","LANE":"４３８巷","ALLEY":" ","HOUSE_NO":"６號","E_COORD97":178794.009689,"N_COORD97":2556602.01828,"ADDRESS":"龍目井路４３８巷６號","OBJECTID":645292},"geometry":{"x":178794.00968900044,"y":2556602.0182770006}},{"attributes":{"ID":645320,"DIS_CODE":0,"TOWNNAME":"安南區","LI":"佃西里","LIN":"2鄰","STREET":"十二佃路","SECT":" ","MAREA":" ","LANE":"２１３巷","ALLEY":" ","HOUSE_NO":"３０號","E_COORD97":165255.96167799999,"N_COORD97":2552092.5523700002,"ADDRESS":"十二佃路２１３巷３０號","OBJECTID":645293},"geometry":{"x":165255.9616780011,"y":2552092.5523680039}},{"attributes":{"ID":645321,"DIS_CODE":0,"TOWNNAME":"善化區","LI":"小新里","LIN":"11鄰","STREET":"龍目井路","SECT":" ","MAREA":" ","LANE":"４３８巷","ALLEY":" ","HOUSE_NO":"８號","E_COORD97":178787.551156,"N_COORD97":2556602.05265,"ADDRESS":"龍目井路４３８巷８號","OBJECTID":645294},"geometry":{"x":178787.55115600117,"y":2556602.0526500046}},{"attributes":{"ID":645322,"DIS_CODE":0,"TOWNNAME":"善化區","LI":"小新里","LIN":"11鄰","STREET":"龍目井路","SECT":" ","MAREA":" ","LANE":"４３８巷","ALLEY":" ","HOUSE_NO":"１０號","E_COORD97":178781.30604200001,"N_COORD97":2556602.2643200001,"ADDRESS":"龍目井路４３８巷１０號","OBJECTID":645295},"geometry":{"x":178781.30604200158,"y":2556602.2643170003}},{"attributes":{"ID":645323,"DIS_CODE":0,"TOWNNAME":"善化區","LI":"小新里","LIN":"11鄰","STREET":"龍目井路","SECT":" ","MAREA":" ","LANE":"４３８巷","ALLEY":" ","HOUSE_NO":"１２號","E_COORD97":178775.06092700001,"N_COORD97":2556602.4759800001,"ADDRESS":"龍目井路４３８巷１２號","OBJECTID":645296},"geometry":{"x":178775.0609269999,"y":2556602.4759830032}},{"attributes":{"ID":645324,"DIS_CODE":0,"TOWNNAME":"安南區","LI":"佃西里","LIN":"2鄰","STREET":"十二佃路","SECT":" ","MAREA":" ","LANE":"２１３巷","ALLEY":" ","HOUSE_NO":"３２號","E_COORD97":165251.300594,"N_COORD97":2552093.1873699999,"ADDRESS":"十二佃路２１３巷３２號","OBJECTID":645297},"geometry":{"x":165251.30059400015,"y":2552093.1873680037}},{"attributes":{"ID":645325,"DIS_CODE":0,"TOWNNAME":"善化區","LI":"小新里","LIN":"11鄰","STREET":"龍目井路","SECT":" ","MAREA":" ","LANE":"４３８巷","ALLEY":" ","HOUSE_NO":"１６號","E_COORD97":178768.92166200001,"N_COORD97":2556602.4759800001,"ADDRESS":"龍目井路４３８巷１６號","OBJECTID":645298},"geometry":{"x":178768.92166200001,"y":2556602.4759830032}},{"attributes":{"ID":645326,"DIS_CODE":0,"TOWNNAME":"善化區","LI":"小新里","LIN":"11鄰","STREET":"龍目井路","SECT":" ","MAREA":" ","LANE":"４３８巷","ALLEY":" ","HOUSE_NO":"１８號","E_COORD97":178762.782397,"N_COORD97":2556602.6876500002,"ADDRESS":"龍目井路４３８巷１８號","OBJECTID":645299},"geometry":{"x":178762.78239700105,"y":2556602.6876500025}},{"attributes":{"ID":645327,"DIS_CODE":0,"TOWNNAME":"安南區","LI":"佃西里","LIN":"2鄰","STREET":"十二佃路","SECT":" ","MAREA":" ","LANE":"２１３巷","ALLEY":" ","HOUSE_NO":"３６號","E_COORD97":165246.851379,"N_COORD97":2552093.1873699999,"ADDRESS":"十二佃路２１３巷３６號","OBJECTID":645300},"geometry":{"x":165246.85137899965,"y":2552093.1873680037}},{"attributes":{"ID":645328,"DIS_CODE":0,"TOWNNAME":"善化區","LI":"小新里","LIN":"11鄰","STREET":"龍目井路","SECT":" ","MAREA":" ","LANE":"４３８巷","ALLEY":" ","HOUSE_NO":"２０號","E_COORD97":178756.32558400001,"N_COORD97":2556603.1109799999,"ADDRESS":"龍目井路４３８巷２０號","OBJECTID":645301},"geometry":{"x":178756.32558399998,"y":2556603.1109830011}},{"attributes":{"ID":645329,"DIS_CODE":0,"TOWNNAME":"安南區","LI":"佃西里","LIN":"2鄰","STREET":"十二佃路","SECT":" ","MAREA":" ","LANE":"２１３巷","ALLEY":" ","HOUSE_NO":"３８號","E_COORD97":165243.4615,"N_COORD97":2552094.66903,"ADDRESS":"十二佃路２１３巷３８號","OBJECTID":645302},"geometry":{"x":165243.46150000021,"y":2552094.6690339986}},{"attributes":{"ID":645330,"DIS_CODE":0,"TOWNNAME":"東山區","LI":"高原里","LIN":"12鄰","STREET":" ","SECT":" ","MAREA":"高原","LANE":" ","ALLEY":" ","HOUSE_NO":"１０２號之３","E_COORD97":200065.32146000001,"N_COORD97":2576149.1892400002,"ADDRESS":"高原１０２號之３","OBJECTID":645303},"geometry":{"x":200065.32145999931,"y":2576149.189240003}},{"attributes":{"ID":645331,"DIS_CODE":0,"TOWNNAME":"大內區","LI":"大內里","LIN":"5鄰","STREET":" ","SECT":" ","MAREA":"內庄","LANE":" ","ALLEY":" ","HOUSE_NO":"７２之１號","E_COORD97":184499.91128900001,"N_COORD97":2557663.2477199999,"ADDRESS":"內庄７２之１號","OBJECTID":645304},"geometry":{"x":184499.91128900088,"y":2557663.2477170024}},{"attributes":{"ID":645332,"DIS_CODE":0,"TOWNNAME":"安南區","LI":"布袋里","LIN":"12鄰","STREET":"長和路","SECT":"四段","MAREA":" ","LANE":"１６０巷","ALLEY":"５弄","HOUSE_NO":"１８３號","E_COORD97":168568.176557,"N_COORD97":2552221.9140099999,"ADDRESS":"長和路四段１６０巷５弄１８３號","OBJECTID":645305},"geometry":{"x":168568.17655700073,"y":2552221.9140110016}},{"attributes":{"ID":645333,"DIS_CODE":0,"TOWNNAME":"仁德區","LI":"保安里","LIN":"19鄰","STREET":"文賢路","SECT":"二段","MAREA":" ","LANE":" ","ALLEY":" ","HOUSE_NO":"４５號","E_COORD97":171849.41294099999,"N_COORD97":2535767.02581,"ADDRESS":"文賢路二段４５號","OBJECTID":645306},"geometry":{"x":171849.41294100042,"y":2535767.0258070026}},{"attributes":{"ID":645334,"DIS_CODE":0,"TOWNNAME":"東山區","LI":"高原里","LIN":"12鄰","STREET":" ","SECT":" ","MAREA":"高原","LANE":" ","ALLEY":" ","HOUSE_NO":"１０４號之１","E_COORD97":200191.26225,"N_COORD97":2576075.21178,"ADDRESS":"高原１０４號之１","OBJECTID":645307},"geometry":{"x":200191.26224999968,"y":2576075.2117800005}},{"attributes":{"ID":645335,"DIS_CODE":0,"TOWNNAME":"善化區","LI":"小新里","LIN":"20鄰","STREET":" ","SECT":" ","MAREA":"小新營","LANE":" ","ALLEY":" ","HOUSE_NO":"３９９之２３號","E_COORD97":180158.82573899999,"N_COORD97":2557880.6959199999,"ADDRESS":"小新營３９９之２３號","OBJECTID":645308},"geometry":{"x":180158.82573900092,"y":2557880.6959200017}},{"attributes":{"ID":645336,"DIS_CODE":0,"TOWNNAME":"安南區","LI":"總頭里","LIN":"1鄰","STREET":"總安街","SECT":"二段","MAREA":" ","LANE":" ","ALLEY":" ","HOUSE_NO":"３７３號","E_COORD97":168282.595359,"N_COORD97":2550491.4528199998,"ADDRESS":"總安街二段３７３號","OBJECTID":645309},"geometry":{"x":168282.59535900131,"y":2550491.4528209995}},{"attributes":{"ID":645337,"DIS_CODE":0,"TOWNNAME":"仁德區","LI":"太子里","LIN":"43鄰","STREET":"太子路","SECT":" ","MAREA":" ","LANE":"３１巷","ALLEY":" ","HOUSE_NO":"９號","E_COORD97":175425.65646900001,"N_COORD97":2543526.7701400002,"ADDRESS":"太子路３１巷９號","OBJECTID":645310},"geometry":{"x":175425.65646899957,"y":2543526.7701390013}},{"attributes":{"ID":645338,"DIS_CODE":0,"TOWNNAME":"仁德區","LI":"中洲里","LIN":"10鄰","STREET":" ","SECT":" ","MAREA":"中洲","LANE":" ","ALLEY":" ","HOUSE_NO":"３１８號之９","E_COORD97":173366.562939,"N_COORD97":2533982.1476199999,"ADDRESS":"中洲３１８號之９","OBJECTID":645311},"geometry":{"x":173366.56293900125,"y":2533982.1476180013}},{"attributes":{"ID":645339,"DIS_CODE":0,"TOWNNAME":"東山區","LI":"高原里","LIN":"12鄰","STREET":" ","SECT":" ","MAREA":"高原","LANE":" ","ALLEY":" ","HOUSE_NO":"１０７號","E_COORD97":200228.86123000001,"N_COORD97":2576054.04513,"ADDRESS":"高原１０７號","OBJECTID":645312},"geometry":{"x":200228.86123000178,"y":2576054.045127999}},{"attributes":{"ID":645340,"DIS_CODE":0,"TOWNNAME":"安南區","LI":"總頭里","LIN":"1鄰","STREET":"北安路","SECT":"三段","MAREA":" ","LANE":" ","ALLEY":" ","HOUSE_NO":"２９９之３號","E_COORD97":168733.926156,"N_COORD97":2549561.2837,"ADDRESS":"北安路三段２９９之３號","OBJECTID":645313},"geometry":{"x":168733.9261560021,"y":2549561.2837039996}},{"attributes":{"ID":645341,"DIS_CODE":0,"TOWNNAME":"東山區","LI":"高原里","LIN":"12鄰","STREET":" ","SECT":" ","MAREA":"高原","LANE":" ","ALLEY":" ","HOUSE_NO":"１０８號之１","E_COORD97":200217.42168999999,"N_COORD97":2576056.7967900001,"ADDRESS":"高原１０８號之１","OBJECTID":645314},"geometry":{"x":200217.42169000022,"y":2576056.7967900038}},{"attributes":{"ID":645342,"DIS_CODE":0,"TOWNNAME":"仁德區","LI":"中洲里","LIN":"10鄰","STREET":" ","SECT":" ","MAREA":"中洲","LANE":" ","ALLEY":" ","HOUSE_NO":"３４０號之５","E_COORD97":173301.732601,"N_COORD97":2534140.6858700002,"ADDRESS":"中洲３４０號之５","OBJECTID":645315},"geometry":{"x":173301.732601,"y":2534140.6858660001}},{"attributes":{"ID":645343,"DIS_CODE":0,"TOWNNAME":"東山區","LI":"高原里","LIN":"13鄰","STREET":" ","SECT":" ","MAREA":"高原","LANE":" ","ALLEY":" ","HOUSE_NO":"１０９之１７號","E_COORD97":199614.19813,"N_COORD97":2575350.9946699999,"ADDRESS":"高原１０９之１７號","OBJECTID":645316},"geometry":{"x":199614.19813000038,"y":2575350.9946699999}},{"attributes":{"ID":645344,"DIS_CODE":0,"TOWNNAME":"關廟區","LI":"深坑里","LIN":"11鄰","STREET":"深坑二街","SECT":" ","MAREA":" ","LANE":"９０巷","ALLEY":" ","HOUSE_NO":"２號","E_COORD97":181621.59414100001,"N_COORD97":2537488.9827200002,"ADDRESS":"深坑二街９０巷２號","OBJECTID":645317},"geometry":{"x":181621.59414099995,"y":2537488.9827220012}},{"attributes":{"ID":645345,"DIS_CODE":0,"TOWNNAME":"善化區","LI":"小新里","LIN":"11鄰","STREET":"陽光大道","SECT":" ","MAREA":" ","LANE":"３５８巷","ALLEY":" ","HOUSE_NO":"２０號","E_COORD97":179104.20959700001,"N_COORD97":2557088.5338499998,"ADDRESS":"陽光大道３５８巷２０號","OBJECTID":645318},"geometry":{"x":179104.20959700085,"y":2557088.5338480026}},{"attributes":{"ID":645346,"DIS_CODE":0,"TOWNNAME":"善化區","LI":"小新里","LIN":"11鄰","STREET":"陽光大道","SECT":" ","MAREA":" ","LANE":"３５８巷","ALLEY":" ","HOUSE_NO":"１８號","E_COORD97":179096.690241,"N_COORD97":2557088.7455099998,"ADDRESS":"陽光大道３５８巷１８號","OBJECTID":645319},"geometry":{"x":179096.69024100062,"y":2557088.7455139998}},{"attributes":{"ID":645347,"DIS_CODE":0,"TOWNNAME":"永康區","LI":"王行里","LIN":"16鄰","STREET":"金專二路","SECT":" ","MAREA":" ","LANE":" ","ALLEY":" ","HOUSE_NO":"５８號","E_COORD97":176341.74406299999,"N_COORD97":2549493.7609999999,"ADDRESS":"金專二路５８號","OBJECTID":645320},"geometry":{"x":176341.74406300113,"y":2549493.7609950025}},{"attributes":{"ID":645348,"DIS_CODE":0,"TOWNNAME":"善化區","LI":"小新里","LIN":"11鄰","STREET":"陽光大道","SECT":" ","MAREA":" ","LANE":"３５８巷","ALLEY":" ","HOUSE_NO":"１６號","E_COORD97":179089.382698,"N_COORD97":2557089.0630100002,"ADDRESS":"陽光大道３５８巷１６號","OBJECTID":645321},"geometry":{"x":179089.38269800134,"y":2557089.0630140025}},{"attributes":{"ID":645349,"DIS_CODE":0,"TOWNNAME":"新營區","LI":"延平里","LIN":"1鄰","STREET":"延平路","SECT":" ","MAREA":" ","LANE":" ","ALLEY":" ","HOUSE_NO":"４６之５３號","E_COORD97":179708.95625700001,"N_COORD97":2577790.9586399999,"ADDRESS":"延平路４６之５３號","OBJECTID":645322},"geometry":{"x":179708.95625700057,"y":2577790.9586440008}},{"attributes":{"ID":645350,"DIS_CODE":0,"TOWNNAME":"善化區","LI":"小新里","LIN":"11鄰","STREET":"陽光大道","SECT":" ","MAREA":" ","LANE":"３５８巷","ALLEY":" ","HOUSE_NO":"１２號","E_COORD97":179081.96924800001,"N_COORD97":2557089.0630100002,"ADDRESS":"陽光大道３５８巷１２號","OBJECTID":645323},"geometry":{"x":179081.96924800146,"y":2557089.0630140025}},{"attributes":{"ID":645351,"DIS_CODE":0,"TOWNNAME":"善化區","LI":"小新里","LIN":"11鄰","STREET":"陽光大道","SECT":" ","MAREA":" ","LANE":"３５８巷","ALLEY":" ","HOUSE_NO":"１０號","E_COORD97":179074.13217299999,"N_COORD97":2557089.16885,"ADDRESS":"陽光大道３５８巷１０號","OBJECTID":645324},"geometry":{"x":179074.13217300177,"y":2557089.1688480023}},{"attributes":{"ID":645352,"DIS_CODE":0,"TOWNNAME":"東山區","LI":"高原里","LIN":"13鄰","STREET":" ","SECT":" ","MAREA":"高原","LANE":" ","ALLEY":" ","HOUSE_NO":"１０９號之１０","E_COORD97":200309.36165000001,"N_COORD97":2575698.2336499998,"ADDRESS":"高原１０９號之１０","OBJECTID":645325},"geometry":{"x":200309.36165000219,"y":2575698.2336499989}},{"attributes":{"ID":645353,"DIS_CODE":0,"TOWNNAME":"新營區","LI":"延平里","LIN":"1鄰","STREET":"延平路","SECT":" ","MAREA":" ","LANE":" ","ALLEY":" ","HOUSE_NO":"４６之５４號","E_COORD97":179711.49933699999,"N_COORD97":2577791.3819800001,"ADDRESS":"延平路４６之５４號","OBJECTID":645326},"geometry":{"x":179711.49933699891,"y":2577791.3819779977}},{"attributes":{"ID":645354,"DIS_CODE":0,"TOWNNAME":"善化區","LI":"小新里","LIN":"11鄰","STREET":"陽光大道","SECT":" ","MAREA":" ","LANE":"３５８巷","ALLEY":" ","HOUSE_NO":"８號","E_COORD97":179067.03644299999,"N_COORD97":2557089.0630100002,"ADDRESS":"陽光大道３５８巷８號","OBJECTID":645327},"geometry":{"x":179067.03644300066,"y":2557089.0630140025}},{"attributes":{"ID":645355,"DIS_CODE":0,"TOWNNAME":"善化區","LI":"小新里","LIN":"11鄰","STREET":"陽光大道","SECT":" ","MAREA":" ","LANE":"３５８巷","ALLEY":" ","HOUSE_NO":"６號","E_COORD97":179059.411181,"N_COORD97":2557089.2746799998,"ADDRESS":"陽光大道３５８巷６號","OBJECTID":645328},"geometry":{"x":179059.41118100099,"y":2557089.274681}},{"attributes":{"ID":645356,"DIS_CODE":0,"TOWNNAME":"新營區","LI":"延平里","LIN":"1鄰","STREET":"延平路","SECT":" ","MAREA":" ","LANE":" ","ALLEY":" ","HOUSE_NO":"４６之５５號","E_COORD97":179714.67818700001,"N_COORD97":2577790.9586399999,"ADDRESS":"延平路４６之５５號","OBJECTID":645329},"geometry":{"x":179714.67818699963,"y":2577790.9586440008}},{"attributes":{"ID":645357,"DIS_CODE":0,"TOWNNAME":"善化區","LI":"小新里","LIN":"11鄰","STREET":"陽光大道","SECT":" ","MAREA":" ","LANE":"３５８巷","ALLEY":" ","HOUSE_NO":"２號","E_COORD97":179051.468199,"N_COORD97":2557089.4863499999,"ADDRESS":"陽光大道３５８巷２號","OBJECTID":645330},"geometry":{"x":179051.46819900069,"y":2557089.486347001}},{"attributes":{"ID":645358,"DIS_CODE":0,"TOWNNAME":"新營區","LI":"延平里","LIN":"1鄰","STREET":"延平路","SECT":" ","MAREA":" ","LANE":" ","ALLEY":" ","HOUSE_NO":"４６之５６號","E_COORD97":179717.43319099999,"N_COORD97":2577791.3819800001,"ADDRESS":"延平路４６之５６號","OBJECTID":645331},"geometry":{"x":179717.43319099955,"y":2577791.3819779977}},{"attributes":{"ID":645359,"DIS_CODE":0,"TOWNNAME":"善化區","LI":"小新里","LIN":"11鄰","STREET":"陽光大道","SECT":" ","MAREA":" ","LANE":"３５８巷","ALLEY":" ","HOUSE_NO":"１３號","E_COORD97":179104.63322300001,"N_COORD97":2557096.2596800001,"ADDRESS":"陽光大道３５８巷１３號","OBJECTID":645332},"geometry":{"x":179104.63322300185,"y":2557096.2596770022}},{"attributes":{"ID":645360,"DIS_CODE":0,"TOWNNAME":"善化區","LI":"小新里","LIN":"11鄰","STREET":"陽光大道","SECT":" ","MAREA":" ","LANE":"３５８巷","ALLEY":" ","HOUSE_NO":"１１號","E_COORD97":179096.79614699999,"N_COORD97":2557096.57718,"ADDRESS":"陽光大道３５８巷１１號","OBJECTID":645333},"geometry":{"x":179096.79614700004,"y":2557096.5771769993}},{"attributes":{"ID":645361,"DIS_CODE":0,"TOWNNAME":"善化區","LI":"小新里","LIN":"11鄰","STREET":"陽光大道","SECT":" ","MAREA":" ","LANE":"３５８巷","ALLEY":" ","HOUSE_NO":"９號","E_COORD97":179089.48860400001,"N_COORD97":2557096.57718,"ADDRESS":"陽光大道３５８巷９號","OBJECTID":645334},"geometry":{"x":179089.48860400077,"y":2557096.5771769993}},{"attributes":{"ID":645362,"DIS_CODE":0,"TOWNNAME":"善化區","LI":"小新里","LIN":"11鄰","STREET":"陽光大道","SECT":" ","MAREA":" ","LANE":"３５８巷","ALLEY":" ","HOUSE_NO":"７號","E_COORD97":179081.863342,"N_COORD97":2557096.6830099998,"ADDRESS":"陽光大道３５８巷７號","OBJECTID":645335},"geometry":{"x":179081.86334200203,"y":2557096.6830100007}},{"attributes":{"ID":645363,"DIS_CODE":0,"TOWNNAME":"新營區","LI":"延平里","LIN":"1鄰","STREET":"延平路","SECT":" ","MAREA":" ","LANE":" ","ALLEY":" ","HOUSE_NO":"４６之５７號","E_COORD97":179722.519351,"N_COORD97":2577792.2286399999,"ADDRESS":"延平路４６之５７號","OBJECTID":645336},"geometry":{"x":179722.5193510009,"y":2577792.2286440004}},{"attributes":{"ID":645364,"DIS_CODE":0,"TOWNNAME":"善化區","LI":"小新里","LIN":"11鄰","STREET":"陽光大道","SECT":" ","MAREA":" ","LANE":"３５８巷","ALLEY":" ","HOUSE_NO":"５號","E_COORD97":179074.66170500001,"N_COORD97":2557097.2121799998,"ADDRESS":"陽光大道３５８巷５號","OBJECTID":645337},"geometry":{"x":179074.66170500219,"y":2557097.2121769991}},{"attributes":{"ID":645365,"DIS_CODE":0,"TOWNNAME":"東山區","LI":"高原里","LIN":"13鄰","STREET":" ","SECT":" ","MAREA":"高原","LANE":" ","ALLEY":" ","HOUSE_NO":"１０９號之１４","E_COORD97":200281.29242000001,"N_COORD97":2575342.9513400001,"ADDRESS":"高原１０９號之１４","OBJECTID":645338},"geometry":{"x":200281.29242000077,"y":2575342.9513400048}},{"attributes":{"ID":645366,"DIS_CODE":0,"TOWNNAME":"善化區","LI":"小新里","LIN":"11鄰","STREET":"陽光大道","SECT":" ","MAREA":" ","LANE":"３５８巷","ALLEY":" ","HOUSE_NO":"３號","E_COORD97":179067.24825599999,"N_COORD97":2557097.31801,"ADDRESS":"陽光大道３５８巷３號","OBJECTID":645339},"geometry":{"x":179067.24825600069,"y":2557097.3180100005}},{"attributes":{"ID":645367,"DIS_CODE":0,"TOWNNAME":"新營區","LI":"延平里","LIN":"1鄰","STREET":"延平路","SECT":" ","MAREA":" ","LANE":" ","ALLEY":" ","HOUSE_NO":"４６之５８號","E_COORD97":179725.69820099999,"N_COORD97":2577792.44031,"ADDRESS":"延平路４６之５８號","OBJECTID":645340},"geometry":{"x":179725.69820100069,"y":2577792.4403100014}},{"attributes":{"ID":645368,"DIS_CODE":0,"TOWNNAME":"善化區","LI":"小新里","LIN":"11鄰","STREET":"陽光大道","SECT":" ","MAREA":" ","LANE":"３５８巷","ALLEY":" ","HOUSE_NO":"１號","E_COORD97":179056.97533300001,"N_COORD97":2557097.6355099999,"ADDRESS":"陽光大道３５８巷１號","OBJECTID":645341},"geometry":{"x":179056.97533300053,"y":2557097.6355099976}},{"attributes":{"ID":645369,"DIS_CODE":0,"TOWNNAME":"新營區","LI":"延平里","LIN":"1鄰","STREET":"延平路","SECT":" ","MAREA":" ","LANE":" ","ALLEY":" ","HOUSE_NO":"４６之５９號","E_COORD97":179728.87705099999,"N_COORD97":2577792.2286399999,"ADDRESS":"延平路４６之５９號","OBJECTID":645342},"geometry":{"x":179728.87705100141,"y":2577792.2286440004}},{"attributes":{"ID":645370,"DIS_CODE":0,"TOWNNAME":"新營區","LI":"延平里","LIN":"1鄰","STREET":"延平路","SECT":" ","MAREA":" ","LANE":" ","ALLEY":" ","HOUSE_NO":"４６之６０號","E_COORD97":179732.69167100001,"N_COORD97":2577792.6519800001,"ADDRESS":"延平路４６之６０號","OBJECTID":645343},"geometry":{"x":179732.69167100079,"y":2577792.6519769989}},{"attributes":{"ID":645371,"DIS_CODE":0,"TOWNNAME":"永康區","LI":"\u25A0行里","LIN":"9鄰","STREET":"正南五街","SECT":" ","MAREA":" ","LANE":" ","ALLEY":" ","HOUSE_NO":"３６號","E_COORD97":172070.077678,"N_COORD97":2547856.41438,"ADDRESS":"正南五街３６號","OBJECTID":645344},"geometry":{"x":172070.07767800055,"y":2547856.4143790007}},{"attributes":{"ID":645372,"DIS_CODE":0,"TOWNNAME":"新營區","LI":"延平里","LIN":"1鄰","STREET":"延平路","SECT":" ","MAREA":" ","LANE":" ","ALLEY":" ","HOUSE_NO":"４６之６１號","E_COORD97":179735.870521,"N_COORD97":2577793.4986399999,"ADDRESS":"延平路４６之６１號","OBJECTID":645345},"geometry":{"x":179735.87052100059,"y":2577793.4986429997}},{"attributes":{"ID":645373,"DIS_CODE":0,"TOWNNAME":"新營區","LI":"延平里","LIN":"1鄰","STREET":"延平路","SECT":" ","MAREA":" ","LANE":" ","ALLEY":" ","HOUSE_NO":"４６之６２號","E_COORD97":179739.049371,"N_COORD97":2577793.0753100002,"ADDRESS":"延平路４６之６２號","OBJECTID":645346},"geometry":{"x":179739.04937100131,"y":2577793.0753100011}},{"attributes":{"ID":645374,"DIS_CODE":0,"TOWNNAME":"新營區","LI":"延平里","LIN":"1鄰","STREET":"延平路","SECT":" ","MAREA":" ","LANE":" ","ALLEY":" ","HOUSE_NO":"４６之６３號","E_COORD97":179742.228221,"N_COORD97":2577793.4986399999,"ADDRESS":"延平路４６之６３號","OBJECTID":645347},"geometry":{"x":179742.2282210011,"y":2577793.4986429997}},{"attributes":{"ID":645375,"DIS_CODE":0,"TOWNNAME":"善化區","LI":"小新里","LIN":"11鄰","STREET":"陽光大道","SECT":" ","MAREA":" ","LANE":"３６０巷","ALLEY":" ","HOUSE_NO":"１６號","E_COORD97":179105.05684800001,"N_COORD97":2557116.5796699999,"ADDRESS":"陽光大道３６０巷１６號","OBJECTID":645348},"geometry":{"x":179105.05684800074,"y":2557116.5796659999}},{"attributes":{"ID":645376,"DIS_CODE":0,"TOWNNAME":"善化區","LI":"小新里","LIN":"11鄰","STREET":"陽光大道","SECT":" ","MAREA":" ","LANE":"３６０巷","ALLEY":" ","HOUSE_NO":"１２號","E_COORD97":179097.64339899999,"N_COORD97":2557116.5796699999,"ADDRESS":"陽光大道３６０巷１２號","OBJECTID":645349},"geometry":{"x":179097.64339900017,"y":2557116.5796659999}},{"attributes":{"ID":645377,"DIS_CODE":0,"TOWNNAME":"善化區","LI":"小新里","LIN":"11鄰","STREET":"陽光大道","SECT":" ","MAREA":" ","LANE":"３６０巷","ALLEY":" ","HOUSE_NO":"１０號","E_COORD97":179090.018136,"N_COORD97":2557116.47383,"ADDRESS":"陽光大道３６０巷１０號","OBJECTID":645350},"geometry":{"x":179090.01813600119,"y":2557116.4738330022}},{"attributes":{"ID":645378,"DIS_CODE":0,"TOWNNAME":"善化區","LI":"小新里","LIN":"11鄰","STREET":"陽光大道","SECT":" ","MAREA":" ","LANE":"３６０巷","ALLEY":" ","HOUSE_NO":"８號","E_COORD97":179082.498781,"N_COORD97":2557116.6855000001,"ADDRESS":"陽光大道３６０巷８號","OBJECTID":645351},"geometry":{"x":179082.4987810012,"y":2557116.6854989994}},{"attributes":{"ID":645379,"DIS_CODE":0,"TOWNNAME":"新營區","LI":"延平里","LIN":"1鄰","STREET":"延平路","SECT":" ","MAREA":" ","LANE":" ","ALLEY":" ","HOUSE_NO":"４６之６４號","E_COORD97":179746.67861100001,"N_COORD97":2577793.7632300002,"ADDRESS":"延平路４６之６４號","OBJECTID":645352},"geometry":{"x":179746.678611001,"y":2577793.7632260006}},{"attributes":{"ID":645380,"DIS_CODE":0,"TOWNNAME":"善化區","LI":"小新里","LIN":"11鄰","STREET":"陽光大道","SECT":" ","MAREA":" ","LANE":"３６０巷","ALLEY":" ","HOUSE_NO":"６號","E_COORD97":179075.19123699999,"N_COORD97":2557117.2146700001,"ADDRESS":"陽光大道３６０巷６號","OBJECTID":645353},"geometry":{"x":179075.19123699982,"y":2557117.2146659996}},{"attributes":{"ID":645381,"DIS_CODE":0,"TOWNNAME":"新營區","LI":"延平里","LIN":"1鄰","STREET":"延平路","SECT":" ","MAREA":" ","LANE":" ","ALLEY":" ","HOUSE_NO":"４６之６５號","E_COORD97":179749.64553800001,"N_COORD97":2577793.9748900002,"ADDRESS":"延平路４６之６５號","OBJECTID":645354},"geometry":{"x":179749.64553800039,"y":2577793.9748930018}},{"attributes":{"ID":645382,"DIS_CODE":0,"TOWNNAME":"善化區","LI":"小新里","LIN":"11鄰","STREET":"陽光大道","SECT":" ","MAREA":" ","LANE":"３６０巷","ALLEY":" ","HOUSE_NO":"２號","E_COORD97":179066.93053700001,"N_COORD97":2557117.53217,"ADDRESS":"陽光大道３６０巷２號","OBJECTID":645355},"geometry":{"x":179066.93053700123,"y":2557117.5321660005}},{"attributes":{"ID":645383,"DIS_CODE":0,"TOWNNAME":"新營區","LI":"延平里","LIN":"1鄰","STREET":"延平路","SECT":" ","MAREA":" ","LANE":" ","ALLEY":" ","HOUSE_NO":"４６之６６號","E_COORD97":179752.61246400001,"N_COORD97":2577793.9748900002,"ADDRESS":"延平路４６之６６號","OBJECTID":645356},"geometry":{"x":179752.61246399954,"y":2577793.9748930018}},{"attributes":{"ID":645384,"DIS_CODE":0,"TOWNNAME":"善化區","LI":"小新里","LIN":"11鄰","STREET":"陽光大道","SECT":" ","MAREA":" ","LANE":"３６０巷","ALLEY":" ","HOUSE_NO":"１號","E_COORD97":179072.64948299999,"N_COORD97":2557126.4221600001,"ADDRESS":"陽光大道３６０巷１號","OBJECTID":645357},"geometry":{"x":179072.64948299993,"y":2557126.4221609998}},{"attributes":{"ID":645385,"DIS_CODE":0,"TOWNNAME":"善化區","LI":"小新里","LIN":"11鄰","STREET":"陽光大道","SECT":" ","MAREA":" ","LANE":"３６０巷","ALLEY":" ","HOUSE_NO":"３號","E_COORD97":179082.60468700001,"N_COORD97":2557125.9988299999,"ADDRESS":"陽光大道３６０巷３號","OBJECTID":645358},"geometry":{"x":179082.60468700062,"y":2557125.9988280013}},{"attributes":{"ID":645386,"DIS_CODE":0,"TOWNNAME":"善化區","LI":"小新里","LIN":"11鄰","STREET":"陽光大道","SECT":" ","MAREA":" ","LANE":"３６０巷","ALLEY":" ","HOUSE_NO":"５號","E_COORD97":179090.229949,"N_COORD97":2557125.9988299999,"ADDRESS":"陽光大道３６０巷５號","OBJECTID":645359},"geometry":{"x":179090.22994900122,"y":2557125.9988280013}},{"attributes":{"ID":645387,"DIS_CODE":0,"TOWNNAME":"善化區","LI":"小新里","LIN":"11鄰","STREET":"陽光大道","SECT":" ","MAREA":" ","LANE":"３６０巷","ALLEY":" ","HOUSE_NO":"７號","E_COORD97":179097.85521199999,"N_COORD97":2557125.5754999998,"ADDRESS":"陽光大道３６０巷７號","OBJECTID":645360},"geometry":{"x":179097.8552120002,"y":2557125.5754950028}},{"attributes":{"ID":645388,"DIS_CODE":0,"TOWNNAME":"善化區","LI":"小新里","LIN":"11鄰","STREET":"陽光大道","SECT":" ","MAREA":" ","LANE":"３６０巷","ALLEY":" ","HOUSE_NO":"９號","E_COORD97":179105.162755,"N_COORD97":2557125.2579999999,"ADDRESS":"陽光大道３６０巷９號","OBJECTID":645361},"geometry":{"x":179105.16275500227,"y":2557125.2579950001}},{"attributes":{"ID":645389,"DIS_CODE":0,"TOWNNAME":"新營區","LI":"延平里","LIN":"1鄰","STREET":"延平路","SECT":" ","MAREA":" ","LANE":" ","ALLEY":" ","HOUSE_NO":"４８號","E_COORD97":179776.771725,"N_COORD97":2577789.9532300001,"ADDRESS":"延平路４８號","OBJECTID":645362},"geometry":{"x":179776.77172500081,"y":2577789.9532280006}},{"attributes":{"ID":645390,"DIS_CODE":0,"TOWNNAME":"安南區","LI":"溪頂里","LIN":"22鄰","STREET":"郡安路","SECT":"四段","MAREA":" ","LANE":"２５３巷","ALLEY":" ","HOUSE_NO":"１１號","E_COORD97":168700.97409199999,"N_COORD97":2547586.2949100002,"ADDRESS":"郡安路四段２５３巷１１號","OBJECTID":645363},"geometry":{"x":168700.9740920011,"y":2547586.2949119974}},{"attributes":{"ID":645391,"DIS_CODE":0,"TOWNNAME":"新營區","LI":"延平里","LIN":"1鄰","STREET":"延平路","SECT":" ","MAREA":" ","LANE":" ","ALLEY":" ","HOUSE_NO":"５０號","E_COORD97":179776.13595500001,"N_COORD97":2577785.8257300002,"ADDRESS":"延平路５０號","OBJECTID":645364},"geometry":{"x":179776.13595500123,"y":2577785.8257310037}},{"attributes":{"ID":645392,"DIS_CODE":0,"TOWNNAME":"新營區","LI":"延平里","LIN":"1鄰","STREET":"延平路","SECT":" ","MAREA":" ","LANE":" ","ALLEY":" ","HOUSE_NO":"５２號","E_COORD97":179775.71210800001,"N_COORD97":2577782.2274000002,"ADDRESS":"延平路５２號","OBJECTID":645365},"geometry":{"x":179775.71210800204,"y":2577782.2273990009}},{"attributes":{"ID":645393,"DIS_CODE":0,"TOWNNAME":"永康區","LI":"\u25A0行里","LIN":"44鄰","STREET":"中正二街","SECT":" ","MAREA":" ","LANE":" ","ALLEY":" ","HOUSE_NO":"３９３號","E_COORD97":171989.112284,"N_COORD97":2548085.33176,"ADDRESS":"中正二街３９３號","OBJECTID":645366},"geometry":{"x":171989.11228400096,"y":2548085.331755003}},{"attributes":{"ID":645394,"DIS_CODE":0,"TOWNNAME":"安南區","LI":"溪頂里","LIN":"22鄰","STREET":"郡安路","SECT":"四段","MAREA":" ","LANE":" ","ALLEY":" ","HOUSE_NO":"２５１號","E_COORD97":168704.574785,"N_COORD97":2547632.4382199999,"ADDRESS":"郡安路四段２５１號","OBJECTID":645367},"geometry":{"x":168704.57478500158,"y":2547632.438221002}},{"attributes":{"ID":645395,"DIS_CODE":0,"TOWNNAME":"安南區","LI":"溪頂里","LIN":"22鄰","STREET":"郡安路","SECT":"四段","MAREA":" ","LANE":" ","ALLEY":" ","HOUSE_NO":"２５２號","E_COORD97":168698.22062199999,"N_COORD97":2547632.4382199999,"ADDRESS":"郡安路四段２５２號","OBJECTID":645368},"geometry":{"x":168698.22062200122,"y":2547632.438221002}},{"attributes":{"ID":645396,"DIS_CODE":0,"TOWNNAME":"新營區","LI":"延平里","LIN":"1鄰","STREET":"延平路","SECT":" ","MAREA":" ","LANE":" ","ALLEY":" ","HOUSE_NO":"５４號","E_COORD97":179774.86441499999,"N_COORD97":2577778.6290699998,"ADDRESS":"延平路５４號","OBJECTID":645369},"geometry":{"x":179774.86441499926,"y":2577778.6290680021}},{"attributes":{"ID":645397,"DIS_CODE":0,"TOWNNAME":"新營區","LI":"延平里","LIN":"1鄰","STREET":"延平路","SECT":" ","MAREA":" ","LANE":" ","ALLEY":" ","HOUSE_NO":"５８號","E_COORD97":179773.169028,"N_COORD97":2577771.4324099999,"ADDRESS":"延平路５８號","OBJECTID":645370},"geometry":{"x":179773.16902800091,"y":2577771.4324050024}},{"attributes":{"ID":645398,"DIS_CODE":0,"TOWNNAME":"新營區","LI":"延平里","LIN":"1鄰","STREET":"延平路","SECT":" ","MAREA":" ","LANE":" ","ALLEY":" ","HOUSE_NO":"６０號","E_COORD97":179772.32133499999,"N_COORD97":2577767.6224099998,"ADDRESS":"延平路６０號","OBJECTID":645371},"geometry":{"x":179772.32133500092,"y":2577767.6224070024}},{"attributes":{"ID":645399,"DIS_CODE":0,"TOWNNAME":"新營區","LI":"延平里","LIN":"1鄰","STREET":"延平路","SECT":" ","MAREA":" ","LANE":" ","ALLEY":" ","HOUSE_NO":"６２號","E_COORD97":179772.10941100001,"N_COORD97":2577764.2357399999,"ADDRESS":"延平路６２號","OBJECTID":645372},"geometry":{"x":179772.10941099934,"y":2577764.2357419971}},{"attributes":{"ID":645400,"DIS_CODE":0,"TOWNNAME":"新營區","LI":"延平里","LIN":"1鄰","STREET":"延平路","SECT":" ","MAREA":" ","LANE":" ","ALLEY":" ","HOUSE_NO":"６４號","E_COORD97":179771.89748799999,"N_COORD97":2577760.63741,"ADDRESS":"延平路６４號","OBJECTID":645373},"geometry":{"x":179771.89748799987,"y":2577760.6374110002}},{"attributes":{"ID":645401,"DIS_CODE":0,"TOWNNAME":"安南區","LI":"溪頂里","LIN":"22鄰","STREET":"郡安路","SECT":"四段","MAREA":" ","LANE":"２５３巷","ALLEY":" ","HOUSE_NO":"１３號","E_COORD97":168701.397703,"N_COORD97":2547580.1565800002,"ADDRESS":"郡安路四段２５３巷１３號","OBJECTID":645374},"geometry":{"x":168701.39770300128,"y":2547580.1565820016}},{"attributes":{"ID":645402,"DIS_CODE":0,"TOWNNAME":"安南區","LI":"溪頂里","LIN":"22鄰","STREET":"郡安路","SECT":"四段","MAREA":" ","LANE":"２５３巷","ALLEY":" ","HOUSE_NO":"１５號","E_COORD97":168701.75886900001,"N_COORD97":2547574.53559,"ADDRESS":"郡安路四段２５３巷１５號","OBJECTID":645375},"geometry":{"x":168701.75886900071,"y":2547574.535588}},{"attributes":{"ID":645403,"DIS_CODE":0,"TOWNNAME":"仁德區","LI":"太子里","LIN":"43鄰","STREET":"太子一街","SECT":" ","MAREA":" ","LANE":"２１巷","ALLEY":" ","HOUSE_NO":"１號","E_COORD97":174854.29562399999,"N_COORD97":2543405.5910399999,"ADDRESS":"太子一街２１巷１號","OBJECTID":645376},"geometry":{"x":174854.29562400002,"y":2543405.5910379998}},{"attributes":{"ID":645404,"DIS_CODE":0,"TOWNNAME":"安南區","LI":"總頭里","LIN":"1鄰","STREET":"北安路","SECT":"三段","MAREA":" ","LANE":" ","ALLEY":" ","HOUSE_NO":"２９９之９號","E_COORD97":168816.448516,"N_COORD97":2549631.3982500001,"ADDRESS":"北安路三段２９９之９號","OBJECTID":645377},"geometry":{"x":168816.44851600006,"y":2549631.3982499987}},{"attributes":{"ID":645405,"DIS_CODE":0,"TOWNNAME":"善化區","LI":"小新里","LIN":"2鄰","STREET":" ","SECT":" ","MAREA":"小新營","LANE":" ","ALLEY":" ","HOUSE_NO":"１１之７號","E_COORD97":179882.72769,"N_COORD97":2558432.19312,"ADDRESS":"小新營１１之７號","OBJECTID":645378},"geometry":{"x":179882.72769000102,"y":2558432.1931200009}},{"attributes":{"ID":645406,"DIS_CODE":0,"TOWNNAME":"善化區","LI":"小新里","LIN":"2鄰","STREET":" ","SECT":" ","MAREA":"小新營","LANE":" ","ALLEY":" ","HOUSE_NO":"１１之８號","E_COORD97":179882.72769,"N_COORD97":2558426.9014499998,"ADDRESS":"小新營１１之８號","OBJECTID":645379},"geometry":{"x":179882.72769000102,"y":2558426.9014500007}},{"attributes":{"ID":645407,"DIS_CODE":0,"TOWNNAME":"新營區","LI":"埤寮里","LIN":"3鄰","STREET":"建國路","SECT":" ","MAREA":" ","LANE":" ","ALLEY":" ","HOUSE_NO":"１６號","E_COORD97":180098.95082999999,"N_COORD97":2581098.4801099999,"ADDRESS":"建國路１６號","OBJECTID":645380},"geometry":{"x":180098.95083000045,"y":2581098.4801100027}},{"attributes":{"ID":645408,"DIS_CODE":0,"TOWNNAME":"新營區","LI":"延平里","LIN":"1鄰","STREET":"延平路","SECT":" ","MAREA":" ","LANE":" ","ALLEY":" ","HOUSE_NO":"７４號","E_COORD97":179767.870945,"N_COORD97":2577727.40576,"ADDRESS":"延平路７４號","OBJECTID":645381},"geometry":{"x":179767.87094500009,"y":2577727.405762}},{"attributes":{"ID":645409,"DIS_CODE":0,"TOWNNAME":"安南區","LI":"溪頂里","LIN":"22鄰","STREET":"郡安路","SECT":"四段","MAREA":" ","LANE":"２５３巷","ALLEY":" ","HOUSE_NO":"７號","E_COORD97":168699.64081499999,"N_COORD97":2547599.9355700002,"ADDRESS":"郡安路四段２５３巷７號","OBJECTID":645382},"geometry":{"x":168699.64081500005,"y":2547599.9355739988}},{"attributes":{"ID":645410,"DIS_CODE":0,"TOWNNAME":"新營區","LI":"延平里","LIN":"1鄰","STREET":"延平路","SECT":" ","MAREA":" ","LANE":" ","ALLEY":" ","HOUSE_NO":"７６號","E_COORD97":179766.81132800001,"N_COORD97":2577724.0191000002,"ADDRESS":"延平路７６號","OBJECTID":645383},"geometry":{"x":179766.81132800039,"y":2577724.0190970041}},{"attributes":{"ID":645411,"DIS_CODE":0,"TOWNNAME":"安南區","LI":"溪頂里","LIN":"22鄰","STREET":"郡安路","SECT":"四段","MAREA":" ","LANE":"２５３巷","ALLEY":" ","HOUSE_NO":"９號","E_COORD97":168700.276231,"N_COORD97":2547592.7389099998,"ADDRESS":"郡安路四段２５３巷９號","OBJECTID":645384},"geometry":{"x":168700.27623100113,"y":2547592.7389119994}},{"attributes":{"ID":645412,"DIS_CODE":0,"TOWNNAME":"仁德區","LI":"中洲里","LIN":"12鄰","STREET":" ","SECT":" ","MAREA":"中洲","LANE":" ","ALLEY":" ","HOUSE_NO":"３４８號之２","E_COORD97":173329.274901,"N_COORD97":2534135.4200599999,"ADDRESS":"中洲３４８號之２","OBJECTID":645385},"geometry":{"x":173329.27490099985,"y":2534135.4200609997}},{"attributes":{"ID":645413,"DIS_CODE":0,"TOWNNAME":"新營區","LI":"埤寮里","LIN":"3鄰","STREET":"建國路","SECT":" ","MAREA":" ","LANE":" ","ALLEY":" ","HOUSE_NO":"２８號","E_COORD97":180026.47505099999,"N_COORD97":2581105.5709500001,"ADDRESS":"建國路２８號","OBJECTID":645386},"geometry":{"x":180026.47505099978,"y":2581105.5709460024}},{"attributes":{"ID":645414,"DIS_CODE":0,"TOWNNAME":"新營區","LI":"埤寮里","LIN":"3鄰","STREET":"建國路","SECT":" ","MAREA":" ","LANE":" ","ALLEY":" ","HOUSE_NO":"３０號","E_COORD97":180015.24342499999,"N_COORD97":2581103.8776099999,"ADDRESS":"建國路３０號","OBJECTID":645387},"geometry":{"x":180015.24342500139,"y":2581103.8776130006}},{"attributes":{"ID":645415,"DIS_CODE":0,"TOWNNAME":"新營區","LI":"延平里","LIN":"1鄰","STREET":"延平路","SECT":" ","MAREA":" ","LANE":" ","ALLEY":" ","HOUSE_NO":"７８號","E_COORD97":179766.38748100001,"N_COORD97":2577719.78577,"ADDRESS":"延平路７８號","OBJECTID":645388},"geometry":{"x":179766.38748100121,"y":2577719.7857660018}},{"attributes":{"ID":645416,"DIS_CODE":0,"TOWNNAME":"善化區","LI":"小新里","LIN":"2鄰","STREET":" ","SECT":" ","MAREA":"小新營","LANE":" ","ALLEY":" ","HOUSE_NO":"１１之６號","E_COORD97":179882.48457599999,"N_COORD97":2558438.4998599999,"ADDRESS":"小新營１１之６號","OBJECTID":645389},"geometry":{"x":179882.4845759999,"y":2558438.4998620022}},{"attributes":{"ID":645417,"DIS_CODE":0,"TOWNNAME":"新營區","LI":"延平里","LIN":"1鄰","STREET":"延平路","SECT":" ","MAREA":" ","LANE":" ","ALLEY":" ","HOUSE_NO":"８０號","E_COORD97":179765.75171099999,"N_COORD97":2577715.5524400002,"ADDRESS":"延平路８０號","OBJECTID":645390},"geometry":{"x":179765.75171099976,"y":2577715.5524349995}},{"attributes":{"ID":645418,"DIS_CODE":0,"TOWNNAME":"仁德區","LI":"中洲里","LIN":"12鄰","STREET":" ","SECT":" ","MAREA":"中洲","LANE":" ","ALLEY":" ","HOUSE_NO":"３４９號之４","E_COORD97":173359.571432,"N_COORD97":2534111.5017400002,"ADDRESS":"中洲３４９號之４","OBJECTID":645391},"geometry":{"x":173359.57143200096,"y":2534111.5017410014}},{"attributes":{"ID":645419,"DIS_CODE":0,"TOWNNAME":"新營區","LI":"延平里","LIN":"1鄰","STREET":"延平路","SECT":" ","MAREA":" ","LANE":" ","ALLEY":" ","HOUSE_NO":"８２號","E_COORD97":179765.115941,"N_COORD97":2577711.3191,"ADDRESS":"延平路８２號","OBJECTID":645392},"geometry":{"x":179765.11594100017,"y":2577711.3191040009}},{"attributes":{"ID":645420,"DIS_CODE":0,"TOWNNAME":"新營區","LI":"延平里","LIN":"1鄰","STREET":"延平路","SECT":" ","MAREA":" ","LANE":" ","ALLEY":" ","HOUSE_NO":"８８號","E_COORD97":179764.37421000001,"N_COORD97":2577702.79953,"ADDRESS":"延平路８８號","OBJECTID":645393},"geometry":{"x":179764.37421000097,"y":2577702.7995250039}},{"attributes":{"ID":645421,"DIS_CODE":0,"TOWNNAME":"仁德區","LI":"中洲里","LIN":"12鄰","STREET":" ","SECT":" ","MAREA":"中洲","LANE":" ","ALLEY":" ","HOUSE_NO":"３７４號之３","E_COORD97":173412.96112200001,"N_COORD97":2534138.8067299998,"ADDRESS":"中洲３７４號之３","OBJECTID":645394},"geometry":{"x":173412.96112200059,"y":2534138.8067260012}},{"attributes":{"ID":645422,"DIS_CODE":0,"TOWNNAME":"永康區","LI":"崑山里","LIN":"19鄰","STREET":"國光一街","SECT":" ","MAREA":" ","LANE":" ","ALLEY":" ","HOUSE_NO":"３號","E_COORD97":174053.94179300001,"N_COORD97":2544554.6278300001,"ADDRESS":"國光一街３號","OBJECTID":645395},"geometry":{"x":174053.94179300126,"y":2544554.627828002}},{"attributes":{"ID":645423,"DIS_CODE":0,"TOWNNAME":"新營區","LI":"延平里","LIN":"1鄰","STREET":"延平路","SECT":" ","MAREA":" ","LANE":" ","ALLEY":" ","HOUSE_NO":"９０號","E_COORD97":179764.37421000001,"N_COORD97":2577698.88369,"ADDRESS":"延平路９０號","OBJECTID":645396},"geometry":{"x":179764.37421000097,"y":2577698.8836940024}},{"attributes":{"ID":645424,"DIS_CODE":0,"TOWNNAME":"新營區","LI":"延平里","LIN":"1鄰","STREET":"延平路","SECT":" ","MAREA":" ","LANE":" ","ALLEY":" ","HOUSE_NO":"９４號","E_COORD97":179763.20863099999,"N_COORD97":2577692.3220299999,"ADDRESS":"延平路９４號","OBJECTID":645397},"geometry":{"x":179763.20863100141,"y":2577692.3220310025}},{"attributes":{"ID":645425,"DIS_CODE":0,"TOWNNAME":"新營區","LI":"延平里","LIN":"1鄰","STREET":"延平路","SECT":" ","MAREA":" ","LANE":" ","ALLEY":" ","HOUSE_NO":"９６號","E_COORD97":179762.99670799999,"N_COORD97":2577689.0411999999,"ADDRESS":"延平路９６號","OBJECTID":645398},"geometry":{"x":179762.99670800101,"y":2577689.0412000008}},{"attributes":{"ID":645426,"DIS_CODE":0,"TOWNNAME":"新營區","LI":"延平里","LIN":"1鄰","STREET":"延平路","SECT":" ","MAREA":" ","LANE":" ","ALLEY":" ","HOUSE_NO":"９８號","E_COORD97":179762.57286099999,"N_COORD97":2577684.38454,"ADDRESS":"延平路９８號","OBJECTID":645399},"geometry":{"x":179762.57286100183,"y":2577684.3845350016}},{"attributes":{"ID":645427,"DIS_CODE":0,"TOWNNAME":"永康區","LI":"崑山里","LIN":"19鄰","STREET":"國光一街","SECT":" ","MAREA":" ","LANE":" ","ALLEY":" ","HOUSE_NO":"５號","E_COORD97":174044.82788699999,"N_COORD97":2544557.5911599998,"ADDRESS":"國光一街５號","OBJECTID":645400},"geometry":{"x":174044.82788700052,"y":2544557.5911600012}}]}