{"displayFieldName":"TOWNNAME","fieldAliases":{"ID":"ID","DIS_CODE":"DIS_CODE","TOWNNAME":"TOWNNAME","LI":"LI","LIN":"LIN","STREET":"STREET","SECT":"SECT","MAREA":"MAREA","LANE":"LANE","ALLEY":"ALLEY","HOUSE_NO":"HOUSE_NO","E_COORD97":"E_COORD97","N_COORD97":"N_COORD97","ADDRESS":"ADDRESS","OBJECTID":"OBJECTID"},"geometryType":"esriGeometryPoint","spatialReference":{"wkid":102443,"latestWkid":3826},"fields":[{"name":"ID","type":"esriFieldTypeDouble","alias":"ID"},{"name":"DIS_CODE","type":"esriFieldTypeInteger","alias":"DIS_CODE"},{"name":"TOWNNAME","type":"esriFieldTypeString","alias":"TOWNNAME","length":8},{"name":"LI","type":"esriFieldTypeString","alias":"LI","length":8},{"name":"LIN","type":"esriFieldTypeString","alias":"LIN","length":12},{"name":"STREET","type":"esriFieldTypeString","alias":"STREET","length":20},{"name":"SECT","type":"esriFieldTypeString","alias":"SECT","length":8},{"name":"MAREA","type":"esriFieldTypeString","alias":"MAREA","length":12},{"name":"LANE","type":"esriFieldTypeString","alias":"LANE","length":10},{"name":"ALLEY","type":"esriFieldTypeString","alias":"ALLEY","length":10},{"name":"HOUSE_NO","type":"esriFieldTypeString","alias":"HOUSE_NO","length":20},{"name":"E_COORD97","type":"esriFieldTypeDouble","alias":"E_COORD97"},{"name":"N_COORD97","type":"esriFieldTypeDouble","alias":"N_COORD97"},{"name":"ADDRESS","type":"esriFieldTypeString","alias":"ADDRESS","length":50},{"name":"OBJECTID","type":"esriFieldTypeOID","alias":"OBJECTID"}],"features":[{"attributes":{"ID":203602,"DIS_CODE":0,"TOWNNAME":"東區","LI":"富強里","LIN":"26鄰","STREET":"東門路","SECT":"二段","MAREA":" ","LANE":"３０１巷","ALLEY":"１２０弄","HOUSE_NO":"３５號","E_COORD97":171055.32999999999,"N_COORD97":2542651.2400000002,"ADDRESS":"東門路二段３０１巷１２０弄３５號","OBJECTID":203601},"geometry":{"x":171055.33000000007,"y":2542651.2400000021}},{"attributes":{"ID":203603,"DIS_CODE":0,"TOWNNAME":"安南區","LI":"海佃里","LIN":"26鄰","STREET":"國安街","SECT":" ","MAREA":" ","LANE":"１５６巷","ALLEY":"４４弄","HOUSE_NO":"８號之１","E_COORD97":166760.42999999999,"N_COORD97":2547087.8300000001,"ADDRESS":"國安街１５６巷４４弄８號之１","OBJECTID":203602},"geometry":{"x":166760.4299999997,"y":2547087.8300000019}},{"attributes":{"ID":203604,"DIS_CODE":0,"TOWNNAME":"龍崎區","LI":"崎頂里","LIN":"9鄰","STREET":" ","SECT":" ","MAREA":"新市子","LANE":" ","ALLEY":" ","HOUSE_NO":"３０１號","E_COORD97":184322.87,"N_COORD97":2540583.25,"ADDRESS":"新市子３０１號","OBJECTID":203603},"geometry":{"x":184322.87000000011,"y":2540583.25}},{"attributes":{"ID":203605,"DIS_CODE":0,"TOWNNAME":"龍崎區","LI":"楠坑里","LIN":"9鄰","STREET":" ","SECT":" ","MAREA":"楠坑","LANE":" ","ALLEY":" ","HOUSE_NO":"４１號","E_COORD97":184834.39000000001,"N_COORD97":2535343.2799999998,"ADDRESS":"楠坑４１號","OBJECTID":203604},"geometry":{"x":184834.38999999966,"y":2535343.2800000012}},{"attributes":{"ID":203606,"DIS_CODE":0,"TOWNNAME":"龍崎區","LI":"崎頂里","LIN":"9鄰","STREET":" ","SECT":" ","MAREA":"新市子","LANE":" ","ALLEY":" ","HOUSE_NO":"３１３號","E_COORD97":184346.76999999999,"N_COORD97":2540636.25,"ADDRESS":"新市子３１３號","OBJECTID":203605},"geometry":{"x":184346.76999999955,"y":2540636.2500000019}},{"attributes":{"ID":203607,"DIS_CODE":0,"TOWNNAME":"龍崎區","LI":"崎頂里","LIN":"9鄰","STREET":" ","SECT":" ","MAREA":"新市子","LANE":" ","ALLEY":" ","HOUSE_NO":"３１１號","E_COORD97":184341.97,"N_COORD97":2540628.25,"ADDRESS":"新市子３１１號","OBJECTID":203606},"geometry":{"x":184341.97000000067,"y":2540628.25}},{"attributes":{"ID":203608,"DIS_CODE":0,"TOWNNAME":"龍崎區","LI":"崎頂里","LIN":"9鄰","STREET":" ","SECT":" ","MAREA":"新市子","LANE":" ","ALLEY":" ","HOUSE_NO":"３０６號","E_COORD97":184330.17000000001,"N_COORD97":2540610.25,"ADDRESS":"新市子３０６號","OBJECTID":203607},"geometry":{"x":184330.17000000086,"y":2540610.25}},{"attributes":{"ID":203609,"DIS_CODE":0,"TOWNNAME":"東區","LI":"富強里","LIN":"26鄰","STREET":"東門路","SECT":"二段","MAREA":" ","LANE":"３０１巷","ALLEY":"１２０弄","HOUSE_NO":"３７號","E_COORD97":171054.82000000001,"N_COORD97":2542646.4500000002,"ADDRESS":"東門路二段３０１巷１２０弄３７號","OBJECTID":203608},"geometry":{"x":171054.82000000123,"y":2542646.4499999993}},{"attributes":{"ID":203610,"DIS_CODE":0,"TOWNNAME":"龍崎區","LI":"大坪里","LIN":"9鄰","STREET":" ","SECT":" ","MAREA":"大坪","LANE":" ","ALLEY":" ","HOUSE_NO":"３９號","E_COORD97":187614.67000000001,"N_COORD97":2536371.25,"ADDRESS":"大坪３９號","OBJECTID":203609},"geometry":{"x":187614.66999999993,"y":2536371.2500000019}},{"attributes":{"ID":203611,"DIS_CODE":0,"TOWNNAME":"龍崎區","LI":"大坪里","LIN":"9鄰","STREET":" ","SECT":" ","MAREA":"大坪","LANE":" ","ALLEY":" ","HOUSE_NO":"３１號","E_COORD97":187632.57000000001,"N_COORD97":2536223.25,"ADDRESS":"大坪３１號","OBJECTID":203610},"geometry":{"x":187632.5700000003,"y":2536223.25}},{"attributes":{"ID":203612,"DIS_CODE":0,"TOWNNAME":"龍崎區","LI":"大坪里","LIN":"9鄰","STREET":" ","SECT":" ","MAREA":"大坪","LANE":" ","ALLEY":" ","HOUSE_NO":"３２號","E_COORD97":187625.76999999999,"N_COORD97":2536183.25,"ADDRESS":"大坪３２號","OBJECTID":203611},"geometry":{"x":187625.76999999955,"y":2536183.25}},{"attributes":{"ID":203613,"DIS_CODE":0,"TOWNNAME":"西港區","LI":"竹林里","LIN":"9鄰","STREET":" ","SECT":" ","MAREA":"大竹林","LANE":" ","ALLEY":" ","HOUSE_NO":"７２號","E_COORD97":166705.01999999999,"N_COORD97":2558074.8900000001,"ADDRESS":"大竹林７２號","OBJECTID":203612},"geometry":{"x":166705.01999999955,"y":2558074.8900000006}},{"attributes":{"ID":203614,"DIS_CODE":0,"TOWNNAME":"東區","LI":"富強里","LIN":"26鄰","STREET":"東門路","SECT":"二段","MAREA":" ","LANE":"３０１巷","ALLEY":"１２０弄","HOUSE_NO":"５號","E_COORD97":171045.73999999999,"N_COORD97":2542717.8100000001,"ADDRESS":"東門路二段３０１巷１２０弄５號","OBJECTID":203613},"geometry":{"x":171045.74000000022,"y":2542717.8100000024}},{"attributes":{"ID":203615,"DIS_CODE":0,"TOWNNAME":"永康區","LI":"復華里","LIN":"26鄰","STREET":"復華八街","SECT":" ","MAREA":" ","LANE":"５１巷","ALLEY":"３７弄","HOUSE_NO":"２號","E_COORD97":172686.20000000001,"N_COORD97":2546416.8599999999,"ADDRESS":"復華八街５１巷３７弄２號","OBJECTID":203614},"geometry":{"x":172686.20000000112,"y":2546416.8599999994}},{"attributes":{"ID":203616,"DIS_CODE":0,"TOWNNAME":"永康區","LI":"二王里","LIN":"26鄰","STREET":"中山南路","SECT":" ","MAREA":" ","LANE":"５４４巷","ALLEY":"９２弄","HOUSE_NO":"５號","E_COORD97":172283.34,"N_COORD97":2546227.2799999998,"ADDRESS":"中山南路５４４巷９２弄５號","OBJECTID":203615},"geometry":{"x":172283.34000000078,"y":2546227.2799999993}},{"attributes":{"ID":203617,"DIS_CODE":0,"TOWNNAME":"永康區","LI":"二王里","LIN":"26鄰","STREET":"中山南路","SECT":" ","MAREA":" ","LANE":"５４４巷","ALLEY":"１２１弄","HOUSE_NO":"１３號","E_COORD97":172369.03,"N_COORD97":2546201.7200000002,"ADDRESS":"中山南路５４４巷１２１弄１３號","OBJECTID":203616},"geometry":{"x":172369.03000000119,"y":2546201.7200000025}},{"attributes":{"ID":203618,"DIS_CODE":0,"TOWNNAME":"永康區","LI":"二王里","LIN":"26鄰","STREET":"中山南路","SECT":" ","MAREA":" ","LANE":"５４４巷","ALLEY":"１２１弄","HOUSE_NO":"５號","E_COORD97":172351.78,"N_COORD97":2546202.4700000002,"ADDRESS":"中山南路５４４巷１２１弄５號","OBJECTID":203617},"geometry":{"x":172351.78000000119,"y":2546202.4700000025}},{"attributes":{"ID":203619,"DIS_CODE":0,"TOWNNAME":"東區","LI":"富強里","LIN":"26鄰","STREET":"東門路","SECT":"二段","MAREA":" ","LANE":"３０１巷","ALLEY":"１２０弄","HOUSE_NO":"３９號","E_COORD97":171055.85000000001,"N_COORD97":2542642.1699999999,"ADDRESS":"東門路二段３０１巷１２０弄３９號","OBJECTID":203618},"geometry":{"x":171055.85000000056,"y":2542642.1699999999}},{"attributes":{"ID":203620,"DIS_CODE":0,"TOWNNAME":"東區","LI":"富強里","LIN":"26鄰","STREET":"東門路","SECT":"二段","MAREA":" ","LANE":"３０１巷","ALLEY":"１２０弄","HOUSE_NO":"３號","E_COORD97":171045.06,"N_COORD97":2542722.0899999999,"ADDRESS":"東門路二段３０１巷１２０弄３號","OBJECTID":203619},"geometry":{"x":171045.06000000145,"y":2542722.0900000017}},{"attributes":{"ID":203621,"DIS_CODE":0,"TOWNNAME":"東區","LI":"富強里","LIN":"26鄰","STREET":"東門路","SECT":"二段","MAREA":" ","LANE":"３０１巷","ALLEY":"１２０弄","HOUSE_NO":"７號","E_COORD97":171046.60000000001,"N_COORD97":2542713.1899999999,"ADDRESS":"東門路二段３０１巷１２０弄７號","OBJECTID":203620},"geometry":{"x":171046.60000000149,"y":2542713.1899999995}},{"attributes":{"ID":203622,"DIS_CODE":0,"TOWNNAME":"西港區","LI":"竹林里","LIN":"9鄰","STREET":" ","SECT":" ","MAREA":"大竹林","LANE":" ","ALLEY":" ","HOUSE_NO":"７３號","E_COORD97":166689.14999999999,"N_COORD97":2558125.1699999999,"ADDRESS":"大竹林７３號","OBJECTID":203621},"geometry":{"x":166689.1500000013,"y":2558125.1700000018}},{"attributes":{"ID":203623,"DIS_CODE":0,"TOWNNAME":"新市區","LI":"新市里","LIN":"26鄰","STREET":"復興路","SECT":" ","MAREA":" ","LANE":"６巷","ALLEY":"１９弄","HOUSE_NO":"２０號","E_COORD97":177891.28,"N_COORD97":2553418.2799999998,"ADDRESS":"復興路６巷１９弄２０號","OBJECTID":203622},"geometry":{"x":177891.28000000212,"y":2553418.2799999993}},{"attributes":{"ID":203624,"DIS_CODE":0,"TOWNNAME":"仁德區","LI":"太子里","LIN":"26鄰","STREET":"長興五街","SECT":" ","MAREA":" ","LANE":"１４巷","ALLEY":"２弄","HOUSE_NO":"６號","E_COORD97":173611.17000000001,"N_COORD97":2543574,"ADDRESS":"長興五街１４巷２弄６號","OBJECTID":203623},"geometry":{"x":173611.16999999899,"y":2543574.0000000019}},{"attributes":{"ID":203625,"DIS_CODE":0,"TOWNNAME":"西港區","LI":"竹林里","LIN":"9鄰","STREET":" ","SECT":" ","MAREA":"大竹林","LANE":" ","ALLEY":" ","HOUSE_NO":"７５號之１","E_COORD97":166653.34,"N_COORD97":2558151.8599999999,"ADDRESS":"大竹林７５號之１","OBJECTID":203624},"geometry":{"x":166653.34000000078,"y":2558151.8599999994}},{"attributes":{"ID":203626,"DIS_CODE":0,"TOWNNAME":"永康區","LI":"東灣里","LIN":"26鄰","STREET":"大灣東路","SECT":" ","MAREA":" ","LANE":"２１８巷","ALLEY":"４３弄","HOUSE_NO":"５３號","E_COORD97":175002.23000000001,"N_COORD97":2544395.5899999999,"ADDRESS":"大灣東路２１８巷４３弄５３號","OBJECTID":203625},"geometry":{"x":175002.23000000138,"y":2544395.5899999999}},{"attributes":{"ID":203627,"DIS_CODE":0,"TOWNNAME":"永康區","LI":"\u25A0行里","LIN":"25鄰","STREET":"\u25A0和街","SECT":" ","MAREA":" ","LANE":"２７４巷","ALLEY":" ","HOUSE_NO":"２號","E_COORD97":171582.79999999999,"N_COORD97":2548437.9399999999,"ADDRESS":"\u25A0和街２７４巷２號","OBJECTID":203626},"geometry":{"x":171582.80000000168,"y":2548437.9399999995}},{"attributes":{"ID":203628,"DIS_CODE":0,"TOWNNAME":"新市區","LI":"新和里","LIN":"40鄰","STREET":"勝利街","SECT":" ","MAREA":" ","LANE":" ","ALLEY":" ","HOUSE_NO":"７５號","E_COORD97":177142.29000000001,"N_COORD97":2552940.5099999998,"ADDRESS":"勝利街７５號","OBJECTID":203627},"geometry":{"x":177142.29000000097,"y":2552940.5100000035}},{"attributes":{"ID":203629,"DIS_CODE":0,"TOWNNAME":"新市區","LI":"新和里","LIN":"40鄰","STREET":"勝利街","SECT":" ","MAREA":" ","LANE":" ","ALLEY":" ","HOUSE_NO":"２７號","E_COORD97":177318.20000000001,"N_COORD97":2552940.5099999998,"ADDRESS":"勝利街２７號","OBJECTID":203628},"geometry":{"x":177318.20000000019,"y":2552940.5100000035}},{"attributes":{"ID":203630,"DIS_CODE":0,"TOWNNAME":"新市區","LI":"新和里","LIN":"40鄰","STREET":"勝利街","SECT":" ","MAREA":" ","LANE":" ","ALLEY":" ","HOUSE_NO":"３２號","E_COORD97":177303.07000000001,"N_COORD97":2552959.5099999998,"ADDRESS":"勝利街３２號","OBJECTID":203629},"geometry":{"x":177303.07000000123,"y":2552959.5099999998}},{"attributes":{"ID":203631,"DIS_CODE":0,"TOWNNAME":"新化區","LI":"太平里","LIN":"9鄰","STREET":"中正路","SECT":" ","MAREA":" ","LANE":" ","ALLEY":" ","HOUSE_NO":"６９０號","E_COORD97":178597.20999999999,"N_COORD97":2549598.25,"ADDRESS":"中正路６９０號","OBJECTID":203630},"geometry":{"x":178597.21000000089,"y":2549598.25}},{"attributes":{"ID":203632,"DIS_CODE":0,"TOWNNAME":"新化區","LI":"護國里","LIN":"9鄰","STREET":"中山路","SECT":" ","MAREA":" ","LANE":" ","ALLEY":" ","HOUSE_NO":"１５７號","E_COORD97":179432.10999999999,"N_COORD97":2548780.25,"ADDRESS":"中山路１５７號","OBJECTID":203631},"geometry":{"x":179432.11000000127,"y":2548780.2500000019}},{"attributes":{"ID":203633,"DIS_CODE":0,"TOWNNAME":"新化區","LI":"太平里","LIN":"9鄰","STREET":"中正路","SECT":" ","MAREA":" ","LANE":" ","ALLEY":" ","HOUSE_NO":"６７０號之１９","E_COORD97":178677.89999999999,"N_COORD97":2549559.2599999998,"ADDRESS":"中正路６７０號之１９","OBJECTID":203632},"geometry":{"x":178677.9000000013,"y":2549559.2600000016}},{"attributes":{"ID":203634,"DIS_CODE":0,"TOWNNAME":"新化區","LI":"\u25A0拔里","LIN":"9鄰","STREET":" ","SECT":" ","MAREA":"\u25A0拔林","LANE":" ","ALLEY":" ","HOUSE_NO":"３４１號","E_COORD97":183379.12,"N_COORD97":2551828.25,"ADDRESS":"\u25A0拔林３４１號","OBJECTID":203633},"geometry":{"x":183379.12000000011,"y":2551828.2500000019}},{"attributes":{"ID":203635,"DIS_CODE":0,"TOWNNAME":"楠西區","LI":"龜丹里","LIN":"2鄰","STREET":" ","SECT":" ","MAREA":"龜丹","LANE":" ","ALLEY":" ","HOUSE_NO":"２９號","E_COORD97":197610.84,"N_COORD97":2559403.2400000002,"ADDRESS":"龜丹２９號","OBJECTID":203634},"geometry":{"x":197610.84000000078,"y":2559403.2400000021}},{"attributes":{"ID":203636,"DIS_CODE":0,"TOWNNAME":"新化區","LI":"\u25A0拔里","LIN":"9鄰","STREET":" ","SECT":" ","MAREA":"\u25A0拔林","LANE":" ","ALLEY":" ","HOUSE_NO":"３５３號","E_COORD97":183227.82000000001,"N_COORD97":2551751.25,"ADDRESS":"\u25A0拔林３５３號","OBJECTID":203635},"geometry":{"x":183227.82000000123,"y":2551751.25}},{"attributes":{"ID":203637,"DIS_CODE":0,"TOWNNAME":"新市區","LI":"新和里","LIN":"26鄰","STREET":"永福街","SECT":" ","MAREA":" ","LANE":"１５巷","ALLEY":"１１弄","HOUSE_NO":"４號","E_COORD97":177811.31,"N_COORD97":2552637.5,"ADDRESS":"永福街１５巷１１弄４號","OBJECTID":203636},"geometry":{"x":177811.31000000052,"y":2552637.5000000019}},{"attributes":{"ID":203638,"DIS_CODE":0,"TOWNNAME":"安定區","LI":"蘇林里","LIN":"9鄰","STREET":" ","SECT":" ","MAREA":"蘇厝","LANE":" ","ALLEY":" ","HOUSE_NO":"１０６之１號","E_COORD97":173577.32000000001,"N_COORD97":2558816.2999999998,"ADDRESS":"蘇厝１０６之１號","OBJECTID":203637},"geometry":{"x":173577.32000000123,"y":2558816.3000000026}},{"attributes":{"ID":203639,"DIS_CODE":0,"TOWNNAME":"新市區","LI":"新和里","LIN":"26鄰","STREET":"永福街","SECT":" ","MAREA":" ","LANE":"１５巷","ALLEY":"１１弄","HOUSE_NO":"２號","E_COORD97":177804.89999999999,"N_COORD97":2552638.75,"ADDRESS":"永福街１５巷１１弄２號","OBJECTID":203638},"geometry":{"x":177804.9000000013,"y":2552638.7500000019}},{"attributes":{"ID":203640,"DIS_CODE":0,"TOWNNAME":"安定區","LI":"管寮里","LIN":"9鄰","STREET":" ","SECT":" ","MAREA":"管寮","LANE":" ","ALLEY":" ","HOUSE_NO":"８７號之１","E_COORD97":169803.67999999999,"N_COORD97":2556395.2999999998,"ADDRESS":"管寮８７號之１","OBJECTID":203639},"geometry":{"x":169803.68000000156,"y":2556395.3000000026}},{"attributes":{"ID":203641,"DIS_CODE":0,"TOWNNAME":"新市區","LI":"新和里","LIN":"26鄰","STREET":"永福街","SECT":" ","MAREA":" ","LANE":"１６巷","ALLEY":"１８弄","HOUSE_NO":"１６號","E_COORD97":177842.81,"N_COORD97":2552708.5,"ADDRESS":"永福街１６巷１８弄１６號","OBJECTID":203640},"geometry":{"x":177842.81000000145,"y":2552708.5000000019}},{"attributes":{"ID":203642,"DIS_CODE":0,"TOWNNAME":"安定區","LI":"安加里","LIN":"9鄰","STREET":" ","SECT":" ","MAREA":"安定","LANE":" ","ALLEY":" ","HOUSE_NO":"２４９號之２","E_COORD97":171785.89000000001,"N_COORD97":2557407.3199999998,"ADDRESS":"安定２４９號之２","OBJECTID":203641},"geometry":{"x":171785.8900000006,"y":2557407.3200000003}},{"attributes":{"ID":203643,"DIS_CODE":0,"TOWNNAME":"新市區","LI":"新市里","LIN":"26鄰","STREET":"復興路","SECT":" ","MAREA":" ","LANE":"６巷","ALLEY":"１９弄","HOUSE_NO":"８號","E_COORD97":177890.42000000001,"N_COORD97":2553393.7799999998,"ADDRESS":"復興路６巷１９弄８號","OBJECTID":203642},"geometry":{"x":177890.42000000086,"y":2553393.7800000012}},{"attributes":{"ID":203644,"DIS_CODE":0,"TOWNNAME":"永康區","LI":"永康里","LIN":"26鄰","STREET":"永明街","SECT":" ","MAREA":" ","LANE":"６９巷","ALLEY":"５弄","HOUSE_NO":"７號","E_COORD97":174146.26000000001,"N_COORD97":2547319.7400000002,"ADDRESS":"永明街６９巷５弄７號","OBJECTID":203643},"geometry":{"x":174146.26000000164,"y":2547319.7400000021}},{"attributes":{"ID":203645,"DIS_CODE":0,"TOWNNAME":"安定區","LI":"安加里","LIN":"9鄰","STREET":" ","SECT":" ","MAREA":"安定","LANE":" ","ALLEY":" ","HOUSE_NO":"２５３號","E_COORD97":171768.92000000001,"N_COORD97":2557357.3199999998,"ADDRESS":"安定２５３號","OBJECTID":203644},"geometry":{"x":171768.92000000086,"y":2557357.3200000022}},{"attributes":{"ID":203646,"DIS_CODE":0,"TOWNNAME":"永康區","LI":"北灣里","LIN":"26鄰","STREET":"文賢街","SECT":" ","MAREA":" ","LANE":"７８巷","ALLEY":"１９弄","HOUSE_NO":"８１號","E_COORD97":175444.95999999999,"N_COORD97":2545439.7599999998,"ADDRESS":"文賢街７８巷１９弄８１號","OBJECTID":203645},"geometry":{"x":175444.95999999996,"y":2545439.7600000016}},{"attributes":{"ID":203647,"DIS_CODE":0,"TOWNNAME":"永康區","LI":"\u25A0行里","LIN":"1鄰","STREET":"中正北路","SECT":" ","MAREA":" ","LANE":" ","ALLEY":" ","HOUSE_NO":"６號","E_COORD97":171883.82000000001,"N_COORD97":2549047.4900000002,"ADDRESS":"中正北路６號","OBJECTID":203646},"geometry":{"x":171883.82000000123,"y":2549047.4900000002}},{"attributes":{"ID":203648,"DIS_CODE":0,"TOWNNAME":"安定區","LI":"安定里","LIN":"9鄰","STREET":" ","SECT":" ","MAREA":"安定","LANE":" ","ALLEY":" ","HOUSE_NO":"７６號","E_COORD97":171806.563181,"N_COORD97":2557795.3544899998,"ADDRESS":"安定７６號","OBJECTID":203647},"geometry":{"x":171806.56318099983,"y":2557795.3544880021}},{"attributes":{"ID":203649,"DIS_CODE":0,"TOWNNAME":"安定區","LI":"安加里","LIN":"9鄰","STREET":" ","SECT":" ","MAREA":"安定","LANE":" ","ALLEY":" ","HOUSE_NO":"２５６之２號","E_COORD97":171760.01999999999,"N_COORD97":2557280.3199999998,"ADDRESS":"安定２５６之２號","OBJECTID":203648},"geometry":{"x":171760.01999999955,"y":2557280.3200000022}},{"attributes":{"ID":203650,"DIS_CODE":0,"TOWNNAME":"安定區","LI":"安定里","LIN":"9鄰","STREET":" ","SECT":" ","MAREA":"安定","LANE":" ","ALLEY":" ","HOUSE_NO":"８３號","E_COORD97":171860.37,"N_COORD97":2557851.3199999998,"ADDRESS":"安定８３號","OBJECTID":203649},"geometry":{"x":171860.37000000011,"y":2557851.3200000003}},{"attributes":{"ID":203651,"DIS_CODE":0,"TOWNNAME":"永康區","LI":"崑山里","LIN":"26鄰","STREET":"大灣路","SECT":" ","MAREA":" ","LANE":"９４２巷","ALLEY":"１６９弄","HOUSE_NO":"７１號","E_COORD97":173574.57999999999,"N_COORD97":2544784.4199999999,"ADDRESS":"大灣路９４２巷１６９弄７１號","OBJECTID":203650},"geometry":{"x":173574.58000000007,"y":2544784.4200000037}},{"attributes":{"ID":203652,"DIS_CODE":0,"TOWNNAME":"佳里區","LI":"三協里","LIN":"9鄰","STREET":" ","SECT":" ","MAREA":"後庄","LANE":" ","ALLEY":" ","HOUSE_NO":"１５號之９","E_COORD97":168502.76999999999,"N_COORD97":2564454.3399999999,"ADDRESS":"後庄１５號之９","OBJECTID":203651},"geometry":{"x":168502.77000000048,"y":2564454.3399999999}},{"attributes":{"ID":203653,"DIS_CODE":0,"TOWNNAME":"佳里區","LI":"三協里","LIN":"9鄰","STREET":" ","SECT":" ","MAREA":"後庄","LANE":" ","ALLEY":" ","HOUSE_NO":"１５號","E_COORD97":168490.45999999999,"N_COORD97":2564507.8199999998,"ADDRESS":"後庄１５號","OBJECTID":203652},"geometry":{"x":168490.46000000089,"y":2564507.8200000022}},{"attributes":{"ID":203654,"DIS_CODE":0,"TOWNNAME":"佳里區","LI":"通興里","LIN":"9鄰","STREET":" ","SECT":" ","MAREA":"埔頂","LANE":" ","ALLEY":" ","HOUSE_NO":"２９號之１","E_COORD97":163490.73999999999,"N_COORD97":2560687.7599999998,"ADDRESS":"埔頂２９號之１","OBJECTID":203653},"geometry":{"x":163490.73999999929,"y":2560687.7599999998}},{"attributes":{"ID":203655,"DIS_CODE":0,"TOWNNAME":"永康區","LI":"\u25A0行里","LIN":"5鄰","STREET":"新行街","SECT":" ","MAREA":" ","LANE":" ","ALLEY":" ","HOUSE_NO":"１７號","E_COORD97":172210.04999999999,"N_COORD97":2548775.8799999999,"ADDRESS":"新行街１７號","OBJECTID":203654},"geometry":{"x":172210.05000000168,"y":2548775.879999999}},{"attributes":{"ID":203656,"DIS_CODE":0,"TOWNNAME":"永康區","LI":"東橋里","LIN":"26鄰","STREET":"中正路","SECT":" ","MAREA":" ","LANE":"２７９巷","ALLEY":"２弄","HOUSE_NO":"２３之１號","E_COORD97":172744.97,"N_COORD97":2547931.0899999999,"ADDRESS":"中正路２７９巷２弄２３之１號","OBJECTID":203655},"geometry":{"x":172744.97000000067,"y":2547931.0899999999}},{"attributes":{"ID":203657,"DIS_CODE":0,"TOWNNAME":"東區","LI":"崇明里","LIN":"15鄰","STREET":"崇明路","SECT":" ","MAREA":" ","LANE":" ","ALLEY":" ","HOUSE_NO":"５５６號","E_COORD97":170461.04999999999,"N_COORD97":2541518.3999999999,"ADDRESS":"崇明路５５６號","OBJECTID":203656},"geometry":{"x":170461.05000000075,"y":2541518.4000000004}},{"attributes":{"ID":203658,"DIS_CODE":0,"TOWNNAME":"佳里區","LI":"通興里","LIN":"9鄰","STREET":" ","SECT":" ","MAREA":"埔頂","LANE":" ","ALLEY":" ","HOUSE_NO":"２９號","E_COORD97":163475.17000000001,"N_COORD97":2560683.5800000001,"ADDRESS":"埔頂２９號","OBJECTID":203657},"geometry":{"x":163475.16999999993,"y":2560683.5800000001}},{"attributes":{"ID":203659,"DIS_CODE":0,"TOWNNAME":"永康區","LI":"東灣里","LIN":"26鄰","STREET":"民族路","SECT":" ","MAREA":" ","LANE":"１巷","ALLEY":"１８弄","HOUSE_NO":"９５號","E_COORD97":175162.97,"N_COORD97":2544114.4199999999,"ADDRESS":"民族路１巷１８弄９５號","OBJECTID":203658},"geometry":{"x":175162.96999999974,"y":2544114.4200000018}},{"attributes":{"ID":203660,"DIS_CODE":0,"TOWNNAME":"永康區","LI":"龍潭里","LIN":"5鄰","STREET":"龍埔街","SECT":" ","MAREA":" ","LANE":" ","ALLEY":" ","HOUSE_NO":"５１號","E_COORD97":174741.88,"N_COORD97":2548206.71,"ADDRESS":"龍埔街５１號","OBJECTID":203659},"geometry":{"x":174741.87999999989,"y":2548206.7100000009}},{"attributes":{"ID":203661,"DIS_CODE":0,"TOWNNAME":"永康區","LI":"龍潭里","LIN":"44鄰","STREET":"永平街","SECT":" ","MAREA":" ","LANE":" ","ALLEY":" ","HOUSE_NO":"２７８之１２號","E_COORD97":174685.51000000001,"N_COORD97":2547032.0499999998,"ADDRESS":"永平街２７８之１２號","OBJECTID":203660},"geometry":{"x":174685.51000000071,"y":2547032.0500000045}},{"attributes":{"ID":203662,"DIS_CODE":0,"TOWNNAME":"永康區","LI":"正強里","LIN":"26鄰","STREET":"中正路","SECT":" ","MAREA":" ","LANE":"１５５巷","ALLEY":"１９弄","HOUSE_NO":"１１號","E_COORD97":173261.53,"N_COORD97":2547801.1400000001,"ADDRESS":"中正路１５５巷１９弄１１號","OBJECTID":203661},"geometry":{"x":173261.52999999933,"y":2547801.1400000025}},{"attributes":{"ID":203663,"DIS_CODE":0,"TOWNNAME":"永康區","LI":"永康里","LIN":"26鄰","STREET":"永明街","SECT":" ","MAREA":" ","LANE":"６９巷","ALLEY":"５弄","HOUSE_NO":"１２號","E_COORD97":174155.14999999999,"N_COORD97":2547329.4900000002,"ADDRESS":"永明街６９巷５弄１２號","OBJECTID":203662},"geometry":{"x":174155.1500000013,"y":2547329.4900000002}},{"attributes":{"ID":203664,"DIS_CODE":0,"TOWNNAME":"永康區","LI":"蔦松里","LIN":"5鄰","STREET":"蔦松二街","SECT":" ","MAREA":" ","LANE":" ","ALLEY":" ","HOUSE_NO":"９９號","E_COORD97":173758.12,"N_COORD97":2549375.3199999998,"ADDRESS":"蔦松二街９９號","OBJECTID":203663},"geometry":{"x":173758.12000000104,"y":2549375.3200000003}},{"attributes":{"ID":203665,"DIS_CODE":0,"TOWNNAME":"東區","LI":"自強里","LIN":"26鄰","STREET":"中華東路","SECT":"二段","MAREA":" ","LANE":"２０３巷","ALLEY":"１７弄","HOUSE_NO":"１６號","E_COORD97":171345.09,"N_COORD97":2542666.3700000001,"ADDRESS":"中華東路二段２０３巷１７弄１６號","OBJECTID":203664},"geometry":{"x":171345.08999999985,"y":2542666.370000001}},{"attributes":{"ID":203666,"DIS_CODE":0,"TOWNNAME":"東區","LI":"自強里","LIN":"26鄰","STREET":"中華東路","SECT":"二段","MAREA":" ","LANE":"２０３巷","ALLEY":"１７弄","HOUSE_NO":"１７號","E_COORD97":171371.37,"N_COORD97":2542682.3199999998,"ADDRESS":"中華東路二段２０３巷１７弄１７號","OBJECTID":203665},"geometry":{"x":171371.37000000104,"y":2542682.3200000003}},{"attributes":{"ID":203667,"DIS_CODE":0,"TOWNNAME":"東區","LI":"自強里","LIN":"26鄰","STREET":"中華東路","SECT":"二段","MAREA":" ","LANE":"２０３巷","ALLEY":"１７弄","HOUSE_NO":"１８號","E_COORD97":171348.76999999999,"N_COORD97":2542667.1400000001,"ADDRESS":"中華東路二段２０３巷１７弄１８號","OBJECTID":203666},"geometry":{"x":171348.77000000142,"y":2542667.1400000006}},{"attributes":{"ID":203668,"DIS_CODE":0,"TOWNNAME":"東區","LI":"自強里","LIN":"26鄰","STREET":"中華東路","SECT":"二段","MAREA":" ","LANE":"２０３巷","ALLEY":"１７弄","HOUSE_NO":"１９號","E_COORD97":171379.69,"N_COORD97":2542684.0600000001,"ADDRESS":"中華東路二段２０３巷１７弄１９號","OBJECTID":203667},"geometry":{"x":171379.69000000134,"y":2542684.0600000005}},{"attributes":{"ID":203669,"DIS_CODE":0,"TOWNNAME":"佳里區","LI":"蚶寮里","LIN":"9鄰","STREET":" ","SECT":" ","MAREA":"蚶寮","LANE":" ","ALLEY":" ","HOUSE_NO":"８７號","E_COORD97":163056.70000000001,"N_COORD97":2558785.8199999998,"ADDRESS":"蚶寮８７號","OBJECTID":203668},"geometry":{"x":163056.70000000019,"y":2558785.8200000003}},{"attributes":{"ID":203670,"DIS_CODE":0,"TOWNNAME":"佳里區","LI":"頂\u25A0里","LIN":"9鄰","STREET":" ","SECT":" ","MAREA":"頂\u25A0","LANE":" ","ALLEY":" ","HOUSE_NO":"１００號","E_COORD97":163025.64999999999,"N_COORD97":2563711.2200000002,"ADDRESS":"頂\u25A0１００號","OBJECTID":203669},"geometry":{"x":163025.6500000013,"y":2563711.2199999988}},{"attributes":{"ID":203671,"DIS_CODE":0,"TOWNNAME":"佳里區","LI":"頂\u25A0里","LIN":"9鄰","STREET":" ","SECT":" ","MAREA":"頂\u25A0","LANE":" ","ALLEY":" ","HOUSE_NO":"１０１號之１","E_COORD97":163006.60999999999,"N_COORD97":2563712.0299999998,"ADDRESS":"頂\u25A0１０１號之１","OBJECTID":203670},"geometry":{"x":163006.61000000034,"y":2563712.0300000012}},{"attributes":{"ID":203672,"DIS_CODE":0,"TOWNNAME":"佳里區","LI":"頂\u25A0里","LIN":"9鄰","STREET":" ","SECT":" ","MAREA":"頂\u25A0","LANE":" ","ALLEY":" ","HOUSE_NO":"１０１號","E_COORD97":163014.53,"N_COORD97":2563712.27,"ADDRESS":"頂\u25A0１０１號","OBJECTID":203671},"geometry":{"x":163014.53000000119,"y":2563712.2699999996}},{"attributes":{"ID":203673,"DIS_CODE":0,"TOWNNAME":"佳里區","LI":"頂\u25A0里","LIN":"9鄰","STREET":" ","SECT":" ","MAREA":"頂\u25A0","LANE":" ","ALLEY":" ","HOUSE_NO":"９７號","E_COORD97":163031.84,"N_COORD97":2563737.3100000001,"ADDRESS":"頂\u25A0９７號","OBJECTID":203672},"geometry":{"x":163031.83999999985,"y":2563737.3100000005}},{"attributes":{"ID":203674,"DIS_CODE":0,"TOWNNAME":"東區","LI":"自強里","LIN":"26鄰","STREET":"中華東路","SECT":"二段","MAREA":" ","LANE":"２０３巷","ALLEY":"１７弄","HOUSE_NO":"２０號","E_COORD97":171353.41,"N_COORD97":2542667.9199999999,"ADDRESS":"中華東路二段２０３巷１７弄２０號","OBJECTID":203673},"geometry":{"x":171353.41000000015,"y":2542667.9199999999}},{"attributes":{"ID":203675,"DIS_CODE":0,"TOWNNAME":"學甲區","LI":"明宜里","LIN":"9鄰","STREET":"中山路","SECT":" ","MAREA":" ","LANE":" ","ALLEY":" ","HOUSE_NO":"１６７號之３","E_COORD97":165869.59,"N_COORD97":2570534.3500000001,"ADDRESS":"中山路１６７號之３","OBJECTID":203674},"geometry":{"x":165869.58999999985,"y":2570534.3500000034}},{"attributes":{"ID":203676,"DIS_CODE":0,"TOWNNAME":"學甲區","LI":"明宜里","LIN":"9鄰","STREET":"中山路","SECT":" ","MAREA":" ","LANE":" ","ALLEY":" ","HOUSE_NO":"１６７號","E_COORD97":165882.75,"N_COORD97":2570536.27,"ADDRESS":"中山路１６７號","OBJECTID":203675},"geometry":{"x":165882.75000000093,"y":2570536.2700000014}},{"attributes":{"ID":203677,"DIS_CODE":0,"TOWNNAME":"學甲區","LI":"明宜里","LIN":"9鄰","STREET":"中山路","SECT":" ","MAREA":" ","LANE":" ","ALLEY":" ","HOUSE_NO":"１７３號之２","E_COORD97":165853.89999999999,"N_COORD97":2570538.73,"ADDRESS":"中山路１７３號之２","OBJECTID":203676},"geometry":{"x":165853.90000000037,"y":2570538.7300000004}},{"attributes":{"ID":203678,"DIS_CODE":0,"TOWNNAME":"東區","LI":"自強里","LIN":"26鄰","STREET":"中華東路","SECT":"二段","MAREA":" ","LANE":"２０３巷","ALLEY":"１７弄","HOUSE_NO":"２１號","E_COORD97":171387.42999999999,"N_COORD97":2542685.7999999998,"ADDRESS":"中華東路二段２０３巷１７弄２１號","OBJECTID":203677},"geometry":{"x":171387.43000000063,"y":2542685.8000000007}},{"attributes":{"ID":203679,"DIS_CODE":0,"TOWNNAME":"東區","LI":"自強里","LIN":"26鄰","STREET":"中華東路","SECT":"二段","MAREA":" ","LANE":"２０３巷","ALLEY":"１７弄","HOUSE_NO":"２２號","E_COORD97":171357.09,"N_COORD97":2542668.8799999999,"ADDRESS":"中華東路二段２０３巷１７弄２２號","OBJECTID":203678},"geometry":{"x":171357.09000000171,"y":2542668.8800000008}},{"attributes":{"ID":203680,"DIS_CODE":0,"TOWNNAME":"東區","LI":"自強里","LIN":"26鄰","STREET":"中華東路","SECT":"二段","MAREA":" ","LANE":"２０３巷","ALLEY":"１７弄","HOUSE_NO":"２４號","E_COORD97":171360.38,"N_COORD97":2542669.46,"ADDRESS":"中華東路二段２０３巷１７弄２４號","OBJECTID":203679},"geometry":{"x":171360.38000000175,"y":2542669.4600000046}},{"attributes":{"ID":203681,"DIS_CODE":0,"TOWNNAME":"東區","LI":"自強里","LIN":"26鄰","STREET":"中華東路","SECT":"二段","MAREA":" ","LANE":"２０３巷","ALLEY":"１７弄","HOUSE_NO":"２６號","E_COORD97":171364.44,"N_COORD97":2542670.4300000002,"ADDRESS":"中華東路二段２０３巷１７弄２６號","OBJECTID":203680},"geometry":{"x":171364.44000000134,"y":2542670.4299999997}},{"attributes":{"ID":203682,"DIS_CODE":0,"TOWNNAME":"東區","LI":"自強里","LIN":"26鄰","STREET":"中華東路","SECT":"二段","MAREA":" ","LANE":"２０３巷","ALLEY":"１７弄","HOUSE_NO":"２８號","E_COORD97":171368.31,"N_COORD97":2542671.0099999998,"ADDRESS":"中華東路二段２０３巷１７弄２８號","OBJECTID":203681},"geometry":{"x":171368.30999999959,"y":2542671.0099999979}},{"attributes":{"ID":203683,"DIS_CODE":0,"TOWNNAME":"東區","LI":"自強里","LIN":"26鄰","STREET":"中華東路","SECT":"二段","MAREA":" ","LANE":"２０３巷","ALLEY":"１７弄","HOUSE_NO":"２號","E_COORD97":171316.06,"N_COORD97":2542660.5699999998,"ADDRESS":"中華東路二段２０３巷１７弄２號","OBJECTID":203682},"geometry":{"x":171316.05999999959,"y":2542660.5700000003}},{"attributes":{"ID":203684,"DIS_CODE":0,"TOWNNAME":"學甲區","LI":"大灣里","LIN":"9鄰","STREET":" ","SECT":" ","MAREA":"大灣","LANE":" ","ALLEY":" ","HOUSE_NO":"８９號","E_COORD97":166865.53,"N_COORD97":2567610.2000000002,"ADDRESS":"大灣８９號","OBJECTID":203683},"geometry":{"x":166865.53000000026,"y":2567610.2000000011}},{"attributes":{"ID":203685,"DIS_CODE":0,"TOWNNAME":"東區","LI":"自強里","LIN":"26鄰","STREET":"中華東路","SECT":"二段","MAREA":" ","LANE":"２０３巷","ALLEY":"１７弄","HOUSE_NO":"３０號","E_COORD97":171373.14999999999,"N_COORD97":2542671.7799999998,"ADDRESS":"中華東路二段２０３巷１７弄３０號","OBJECTID":203684},"geometry":{"x":171373.1500000013,"y":2542671.7799999993}},{"attributes":{"ID":203686,"DIS_CODE":0,"TOWNNAME":"東區","LI":"自強里","LIN":"26鄰","STREET":"中華東路","SECT":"二段","MAREA":" ","LANE":"２０３巷","ALLEY":"１７弄","HOUSE_NO":"３２號","E_COORD97":171375.85999999999,"N_COORD97":2542672.9399999999,"ADDRESS":"中華東路二段２０３巷１７弄３２號","OBJECTID":203685},"geometry":{"x":171375.86000000034,"y":2542672.9400000013}},{"attributes":{"ID":203687,"DIS_CODE":0,"TOWNNAME":"東區","LI":"自強里","LIN":"26鄰","STREET":"中華東路","SECT":"二段","MAREA":" ","LANE":"２０３巷","ALLEY":"１７弄","HOUSE_NO":"３８號","E_COORD97":171389.41,"N_COORD97":2542675.4500000002,"ADDRESS":"中華東路二段２０３巷１７弄３８號","OBJECTID":203686},"geometry":{"x":171389.41000000108,"y":2542675.4500000011}},{"attributes":{"ID":203688,"DIS_CODE":0,"TOWNNAME":"東區","LI":"自強里","LIN":"26鄰","STREET":"中華東路","SECT":"二段","MAREA":" ","LANE":"２０３巷","ALLEY":"１７弄","HOUSE_NO":"３號","E_COORD97":171323.17999999999,"N_COORD97":2542672.4700000002,"ADDRESS":"中華東路二段２０３巷１７弄３號","OBJECTID":203687},"geometry":{"x":171323.18000000063,"y":2542672.4700000044}},{"attributes":{"ID":203689,"DIS_CODE":0,"TOWNNAME":"學甲區","LI":"大灣里","LIN":"9鄰","STREET":" ","SECT":" ","MAREA":"大灣","LANE":" ","ALLEY":" ","HOUSE_NO":"９０號","E_COORD97":166851.29000000001,"N_COORD97":2567642.8300000001,"ADDRESS":"大灣９０號","OBJECTID":203688},"geometry":{"x":166851.29000000004,"y":2567642.8300000038}},{"attributes":{"ID":203690,"DIS_CODE":0,"TOWNNAME":"東區","LI":"自強里","LIN":"26鄰","STREET":"中華東路","SECT":"二段","MAREA":" ","LANE":"２０３巷","ALLEY":"１７弄","HOUSE_NO":"４號","E_COORD97":171320.12,"N_COORD97":2542661.73,"ADDRESS":"中華東路二段２０３巷１７弄４號","OBJECTID":203689},"geometry":{"x":171320.12000000104,"y":2542661.7300000023}},{"attributes":{"ID":203691,"DIS_CODE":0,"TOWNNAME":"學甲區","LI":"大灣里","LIN":"9鄰","STREET":" ","SECT":" ","MAREA":"大灣","LANE":" ","ALLEY":" ","HOUSE_NO":"９１號","E_COORD97":166869.12,"N_COORD97":2567648.9399999999,"ADDRESS":"大灣９１號","OBJECTID":203690},"geometry":{"x":166869.12000000104,"y":2567648.9400000013}},{"attributes":{"ID":203692,"DIS_CODE":0,"TOWNNAME":"東區","LI":"自強里","LIN":"26鄰","STREET":"中華東路","SECT":"二段","MAREA":" ","LANE":"２０３巷","ALLEY":"１７弄","HOUSE_NO":"５號","E_COORD97":171328.98999999999,"N_COORD97":2542673.8199999998,"ADDRESS":"中華東路二段２０３巷１７弄５號","OBJECTID":203691},"geometry":{"x":171328.99000000022,"y":2542673.8200000022}},{"attributes":{"ID":203693,"DIS_CODE":0,"TOWNNAME":"東區","LI":"自強里","LIN":"26鄰","STREET":"中華東路","SECT":"二段","MAREA":" ","LANE":"２０３巷","ALLEY":"１７弄","HOUSE_NO":"６號","E_COORD97":171324.38,"N_COORD97":2542662.5,"ADDRESS":"中華東路二段２０３巷１７弄６號","OBJECTID":203692},"geometry":{"x":171324.37999999989,"y":2542662.5000000019}},{"attributes":{"ID":203694,"DIS_CODE":0,"TOWNNAME":"東區","LI":"自強里","LIN":"26鄰","STREET":"中華東路","SECT":"二段","MAREA":" ","LANE":"２０３巷","ALLEY":"１７弄","HOUSE_NO":"７號","E_COORD97":171336.73000000001,"N_COORD97":2542675.3700000001,"ADDRESS":"中華東路二段２０３巷１７弄７號","OBJECTID":203693},"geometry":{"x":171336.73000000138,"y":2542675.370000001}},{"attributes":{"ID":203695,"DIS_CODE":0,"TOWNNAME":"東區","LI":"自強里","LIN":"26鄰","STREET":"中華東路","SECT":"二段","MAREA":" ","LANE":"２０３巷","ALLEY":"１７弄","HOUSE_NO":"８號","E_COORD97":171328.25,"N_COORD97":2542663.4700000002,"ADDRESS":"中華東路二段２０３巷１７弄８號","OBJECTID":203694},"geometry":{"x":171328.25,"y":2542663.4700000025}},{"attributes":{"ID":203696,"DIS_CODE":0,"TOWNNAME":"東區","LI":"自強里","LIN":"26鄰","STREET":"中華東路","SECT":"二段","MAREA":" ","LANE":"２０３巷","ALLEY":"１７弄","HOUSE_NO":"９號","E_COORD97":171343.31,"N_COORD97":2542676.3300000001,"ADDRESS":"中華東路二段２０３巷１７弄９號","OBJECTID":203695},"geometry":{"x":171343.30999999959,"y":2542676.3300000038}},{"attributes":{"ID":203697,"DIS_CODE":0,"TOWNNAME":"東區","LI":"自強里","LIN":"26鄰","STREET":"中華東路","SECT":"二段","MAREA":" ","LANE":"２０３巷","ALLEY":"１弄","HOUSE_NO":"１８號","E_COORD97":171377.10000000001,"N_COORD97":2542716.9900000002,"ADDRESS":"中華東路二段２０３巷１弄１８號","OBJECTID":203696},"geometry":{"x":171377.10000000149,"y":2542716.9900000021}},{"attributes":{"ID":203698,"DIS_CODE":0,"TOWNNAME":"學甲區","LI":"大灣里","LIN":"9鄰","STREET":" ","SECT":" ","MAREA":"大灣","LANE":" ","ALLEY":" ","HOUSE_NO":"９２號","E_COORD97":166872.26000000001,"N_COORD97":2567666.9100000001,"ADDRESS":"大灣９２號","OBJECTID":203697},"geometry":{"x":166872.26000000071,"y":2567666.910000002}},{"attributes":{"ID":203699,"DIS_CODE":0,"TOWNNAME":"楠西區","LI":"照興里","LIN":"2鄰","STREET":" ","SECT":" ","MAREA":"興北","LANE":" ","ALLEY":" ","HOUSE_NO":"１３號","E_COORD97":196592.57000000001,"N_COORD97":2567872.25,"ADDRESS":"興北１３號","OBJECTID":203698},"geometry":{"x":196592.57000000123,"y":2567872.25}},{"attributes":{"ID":203700,"DIS_CODE":0,"TOWNNAME":"楠西區","LI":"照興里","LIN":"2鄰","STREET":" ","SECT":" ","MAREA":"興北","LANE":" ","ALLEY":" ","HOUSE_NO":"１５號","E_COORD97":196645.76999999999,"N_COORD97":2567497.25,"ADDRESS":"興北１５號","OBJECTID":203699},"geometry":{"x":196645.76999999955,"y":2567497.25}},{"attributes":{"ID":203701,"DIS_CODE":0,"TOWNNAME":"楠西區","LI":"鹿田里","LIN":"2鄰","STREET":" ","SECT":" ","MAREA":"鹿陶洋","LANE":" ","ALLEY":" ","HOUSE_NO":"１５號","E_COORD97":197085.42000000001,"N_COORD97":2561353.25,"ADDRESS":"鹿陶洋１５號","OBJECTID":203700},"geometry":{"x":197085.41999999993,"y":2561353.25}},{"attributes":{"ID":203702,"DIS_CODE":0,"TOWNNAME":"東區","LI":"自強里","LIN":"26鄰","STREET":"中華東路","SECT":"二段","MAREA":" ","LANE":"２０３巷","ALLEY":"１弄","HOUSE_NO":"２２號","E_COORD97":171381.79999999999,"N_COORD97":2542730.54,"ADDRESS":"中華東路二段２０３巷１弄２２號","OBJECTID":203701},"geometry":{"x":171381.80000000075,"y":2542730.5399999991}},{"attributes":{"ID":203703,"DIS_CODE":0,"TOWNNAME":"東區","LI":"自強里","LIN":"26鄰","STREET":"中華東路","SECT":"二段","MAREA":" ","LANE":"２０３巷","ALLEY":"１弄","HOUSE_NO":"２號","E_COORD97":171320.31,"N_COORD97":2542704.5299999998,"ADDRESS":"中華東路二段２０３巷１弄２號","OBJECTID":203702},"geometry":{"x":171320.31000000052,"y":2542704.5300000031}},{"attributes":{"ID":203704,"DIS_CODE":0,"TOWNNAME":"東區","LI":"自強里","LIN":"26鄰","STREET":"中華東路","SECT":"二段","MAREA":" ","LANE":"２０３巷","ALLEY":"１弄","HOUSE_NO":"６號","E_COORD97":171326.48999999999,"N_COORD97":2542705.4700000002,"ADDRESS":"中華東路二段２０３巷１弄６號","OBJECTID":203703},"geometry":{"x":171326.49000000115,"y":2542705.4700000007}},{"attributes":{"ID":203705,"DIS_CODE":0,"TOWNNAME":"東區","LI":"自強里","LIN":"26鄰","STREET":"中華東路","SECT":"二段","MAREA":" ","LANE":"２０３巷","ALLEY":"１弄","HOUSE_NO":"８號","E_COORD97":171334.14000000001,"N_COORD97":2542706.52,"ADDRESS":"中華東路二段２０３巷１弄８號","OBJECTID":203704},"geometry":{"x":171334.13999999966,"y":2542706.5199999996}},{"attributes":{"ID":203706,"DIS_CODE":0,"TOWNNAME":"楠西區","LI":"鹿田里","LIN":"2鄰","STREET":" ","SECT":" ","MAREA":"鹿陶洋","LANE":" ","ALLEY":" ","HOUSE_NO":"１９號之２","E_COORD97":197125.59,"N_COORD97":2561367.2999999998,"ADDRESS":"鹿陶洋１９號之２","OBJECTID":203705},"geometry":{"x":197125.58999999892,"y":2561367.3000000007}},{"attributes":{"ID":203707,"DIS_CODE":0,"TOWNNAME":"東區","LI":"自強里","LIN":"26鄰","STREET":"中華東路","SECT":"二段","MAREA":" ","LANE":"２０３巷","ALLEY":"９弄","HOUSE_NO":"１０號","E_COORD97":171340.60000000001,"N_COORD97":2542695.6600000001,"ADDRESS":"中華東路二段２０３巷９弄１０號","OBJECTID":203706},"geometry":{"x":171340.60000000056,"y":2542695.660000002}},{"attributes":{"ID":203708,"DIS_CODE":0,"TOWNNAME":"東區","LI":"自強里","LIN":"26鄰","STREET":"中華東路","SECT":"二段","MAREA":" ","LANE":"２０３巷","ALLEY":"９弄","HOUSE_NO":"１２號","E_COORD97":171346.39999999999,"N_COORD97":2542697.79,"ADDRESS":"中華東路二段２０３巷９弄１２號","OBJECTID":203707},"geometry":{"x":171346.40000000037,"y":2542697.7899999991}},{"attributes":{"ID":203709,"DIS_CODE":0,"TOWNNAME":"東區","LI":"自強里","LIN":"26鄰","STREET":"中華東路","SECT":"二段","MAREA":" ","LANE":"２０３巷","ALLEY":"９弄","HOUSE_NO":"１４號","E_COORD97":171354.14999999999,"N_COORD97":2542698.5600000001,"ADDRESS":"中華東路二段２０３巷９弄１４號","OBJECTID":203708},"geometry":{"x":171354.1500000013,"y":2542698.5599999987}},{"attributes":{"ID":203710,"DIS_CODE":0,"TOWNNAME":"東區","LI":"自強里","LIN":"26鄰","STREET":"中華東路","SECT":"二段","MAREA":" ","LANE":"２０３巷","ALLEY":"９弄","HOUSE_NO":"１６號","E_COORD97":171361.69,"N_COORD97":2542700.6899999999,"ADDRESS":"中華東路二段２０３巷９弄１６號","OBJECTID":203709},"geometry":{"x":171361.69000000041,"y":2542700.6900000013}},{"attributes":{"ID":203711,"DIS_CODE":0,"TOWNNAME":"東區","LI":"自強里","LIN":"26鄰","STREET":"中華東路","SECT":"二段","MAREA":" ","LANE":"２０３巷","ALLEY":"９弄","HOUSE_NO":"１８號","E_COORD97":171370.20999999999,"N_COORD97":2542701.8500000001,"ADDRESS":"中華東路二段２０３巷９弄１８號","OBJECTID":203710},"geometry":{"x":171370.21000000089,"y":2542701.8499999996}},{"attributes":{"ID":203712,"DIS_CODE":0,"TOWNNAME":"東區","LI":"自強里","LIN":"26鄰","STREET":"中華東路","SECT":"二段","MAREA":" ","LANE":"２０３巷","ALLEY":"９弄","HOUSE_NO":"２０號","E_COORD97":171375.63,"N_COORD97":2542703.7799999998,"ADDRESS":"中華東路二段２０３巷９弄２０號","OBJECTID":203711},"geometry":{"x":171375.63000000175,"y":2542703.7800000012}},{"attributes":{"ID":203713,"DIS_CODE":0,"TOWNNAME":"東區","LI":"自強里","LIN":"26鄰","STREET":"中華東路","SECT":"二段","MAREA":" ","LANE":"２０３巷","ALLEY":"９弄","HOUSE_NO":"２１號","E_COORD97":171385.69,"N_COORD97":2542712.2799999998,"ADDRESS":"中華東路二段２０３巷９弄２１號","OBJECTID":203712},"geometry":{"x":171385.69000000041,"y":2542712.2799999993}},{"attributes":{"ID":203714,"DIS_CODE":0,"TOWNNAME":"東區","LI":"自強里","LIN":"26鄰","STREET":"中華東路","SECT":"二段","MAREA":" ","LANE":"２０３巷","ALLEY":"９弄","HOUSE_NO":"２２號","E_COORD97":171383.76000000001,"N_COORD97":2542704.7400000002,"ADDRESS":"中華東路二段２０３巷９弄２２號","OBJECTID":203713},"geometry":{"x":171383.76000000071,"y":2542704.7400000021}},{"attributes":{"ID":203715,"DIS_CODE":0,"TOWNNAME":"東區","LI":"自強里","LIN":"26鄰","STREET":"中華東路","SECT":"二段","MAREA":" ","LANE":"２０３巷","ALLEY":"９弄","HOUSE_NO":"４號","E_COORD97":171319.70000000001,"N_COORD97":2542692.1800000002,"ADDRESS":"中華東路二段２０３巷９弄４號","OBJECTID":203714},"geometry":{"x":171319.70000000112,"y":2542692.1799999997}},{"attributes":{"ID":203716,"DIS_CODE":0,"TOWNNAME":"東區","LI":"自強里","LIN":"26鄰","STREET":"中華東路","SECT":"二段","MAREA":" ","LANE":"２０３巷","ALLEY":"９弄","HOUSE_NO":"６號","E_COORD97":171325.70000000001,"N_COORD97":2542693.3399999999,"ADDRESS":"中華東路二段２０３巷９弄６號","OBJECTID":203715},"geometry":{"x":171325.70000000019,"y":2542693.3400000017}},{"attributes":{"ID":203717,"DIS_CODE":0,"TOWNNAME":"東區","LI":"自強里","LIN":"26鄰","STREET":"中華東路","SECT":"二段","MAREA":" ","LANE":"２０３巷","ALLEY":"９弄","HOUSE_NO":"７號","E_COORD97":171332.85999999999,"N_COORD97":2542700.4900000002,"ADDRESS":"中華東路二段２０３巷９弄７號","OBJECTID":203716},"geometry":{"x":171332.86000000127,"y":2542700.4900000021}},{"attributes":{"ID":203718,"DIS_CODE":0,"TOWNNAME":"東區","LI":"自強里","LIN":"26鄰","STREET":"中華東路","SECT":"二段","MAREA":" ","LANE":"２０３巷","ALLEY":"９弄","HOUSE_NO":"８號","E_COORD97":171333.44,"N_COORD97":2542695.27,"ADDRESS":"中華東路二段２０３巷９弄８號","OBJECTID":203717},"geometry":{"x":171333.44000000134,"y":2542695.2699999996}},{"attributes":{"ID":203719,"DIS_CODE":0,"TOWNNAME":"東區","LI":"自強里","LIN":"26鄰","STREET":"中華東路","SECT":"二段","MAREA":" ","LANE":"２０３巷","ALLEY":"９弄","HOUSE_NO":"９號","E_COORD97":171340.01999999999,"N_COORD97":2542702.23,"ADDRESS":"中華東路二段２０３巷９弄９號","OBJECTID":203718},"geometry":{"x":171340.01999999955,"y":2542702.2300000023}},{"attributes":{"ID":203720,"DIS_CODE":0,"TOWNNAME":"永康區","LI":"北灣里","LIN":"26鄰","STREET":"文賢街","SECT":" ","MAREA":" ","LANE":"７８巷","ALLEY":"１９弄","HOUSE_NO":"３７號","E_COORD97":175437.41,"N_COORD97":2545398.5800000001,"ADDRESS":"文賢街７８巷１９弄３７號","OBJECTID":203719},"geometry":{"x":175437.41000000108,"y":2545398.5800000019}},{"attributes":{"ID":203721,"DIS_CODE":0,"TOWNNAME":"永康區","LI":"東灣里","LIN":"26鄰","STREET":"民族路","SECT":" ","MAREA":" ","LANE":"１巷","ALLEY":"７０弄","HOUSE_NO":"１１號","E_COORD97":175418.63,"N_COORD97":2544029.29,"ADDRESS":"民族路１巷７０弄１１號","OBJECTID":203720},"geometry":{"x":175418.63000000175,"y":2544029.290000001}},{"attributes":{"ID":203722,"DIS_CODE":0,"TOWNNAME":"永康區","LI":"北灣里","LIN":"26鄰","STREET":"文賢街","SECT":" ","MAREA":" ","LANE":"７８巷","ALLEY":"１９弄","HOUSE_NO":"７３號","E_COORD97":175443.67999999999,"N_COORD97":2545421.7599999998,"ADDRESS":"文賢街７８巷１９弄７３號","OBJECTID":203721},"geometry":{"x":175443.68000000063,"y":2545421.7599999998}},{"attributes":{"ID":203723,"DIS_CODE":0,"TOWNNAME":"安南區","LI":"海佃里","LIN":"26鄰","STREET":"國安街","SECT":" ","MAREA":" ","LANE":"１５６巷","ALLEY":"４４弄","HOUSE_NO":"１０號","E_COORD97":166769.73999999999,"N_COORD97":2547088.4900000002,"ADDRESS":"國安街１５６巷４４弄１０號","OBJECTID":203722},"geometry":{"x":166769.74000000115,"y":2547088.4900000002}},{"attributes":{"ID":203724,"DIS_CODE":0,"TOWNNAME":"安南區","LI":"海佃里","LIN":"26鄰","STREET":"國安街","SECT":" ","MAREA":" ","LANE":"１５６巷","ALLEY":"４４弄","HOUSE_NO":"１１號","E_COORD97":166772.39999999999,"N_COORD97":2547111.0800000001,"ADDRESS":"國安街１５６巷４４弄１１號","OBJECTID":203723},"geometry":{"x":166772.4000000013,"y":2547111.0800000001}},{"attributes":{"ID":203725,"DIS_CODE":0,"TOWNNAME":"學甲區","LI":"新達里","LIN":"9鄰","STREET":"中學路","SECT":" ","MAREA":" ","LANE":"３２巷","ALLEY":" ","HOUSE_NO":"３號","E_COORD97":166626.82000000001,"N_COORD97":2570722.27,"ADDRESS":"中學路３２巷３號","OBJECTID":203724},"geometry":{"x":166626.82000000123,"y":2570722.2700000014}},{"attributes":{"ID":203726,"DIS_CODE":0,"TOWNNAME":"佳里區","LI":"安西里","LIN":"40鄰","STREET":"文化路","SECT":" ","MAREA":" ","LANE":" ","ALLEY":" ","HOUSE_NO":"５８０號","E_COORD97":164757.10999999999,"N_COORD97":2562581.9500000002,"ADDRESS":"文化路５８０號","OBJECTID":203725},"geometry":{"x":164757.11000000127,"y":2562581.9499999993}},{"attributes":{"ID":203727,"DIS_CODE":0,"TOWNNAME":"楠西區","LI":"灣丘里","LIN":"2鄰","STREET":" ","SECT":" ","MAREA":"灣丘","LANE":" ","ALLEY":" ","HOUSE_NO":"１９號","E_COORD97":199606.87,"N_COORD97":2564157.25,"ADDRESS":"灣丘１９號","OBJECTID":203726},"geometry":{"x":199606.87000000011,"y":2564157.25}},{"attributes":{"ID":203728,"DIS_CODE":0,"TOWNNAME":"楠西區","LI":"灣丘里","LIN":"2鄰","STREET":" ","SECT":" ","MAREA":"灣丘","LANE":" ","ALLEY":" ","HOUSE_NO":"２０號之１","E_COORD97":199557,"N_COORD97":2563989.2999999998,"ADDRESS":"灣丘２０號之１","OBJECTID":203727},"geometry":{"x":199557,"y":2563989.3000000026}},{"attributes":{"ID":203729,"DIS_CODE":0,"TOWNNAME":"楠西區","LI":"灣丘里","LIN":"2鄰","STREET":" ","SECT":" ","MAREA":"灣丘","LANE":" ","ALLEY":" ","HOUSE_NO":"１３號","E_COORD97":199385.67000000001,"N_COORD97":2564048.25,"ADDRESS":"灣丘１３號","OBJECTID":203728},"geometry":{"x":199385.67000000086,"y":2564048.25}},{"attributes":{"ID":203730,"DIS_CODE":0,"TOWNNAME":"楠西區","LI":"灣丘里","LIN":"2鄰","STREET":" ","SECT":" ","MAREA":"灣丘","LANE":" ","ALLEY":" ","HOUSE_NO":"１３號之２","E_COORD97":199425.44,"N_COORD97":2564059.2999999998,"ADDRESS":"灣丘１３號之２","OBJECTID":203729},"geometry":{"x":199425.44000000041,"y":2564059.3000000007}},{"attributes":{"ID":203731,"DIS_CODE":0,"TOWNNAME":"學甲區","LI":"中洲里","LIN":"9鄰","STREET":" ","SECT":" ","MAREA":"中洲","LANE":" ","ALLEY":" ","HOUSE_NO":"８３號之１","E_COORD97":163854.01000000001,"N_COORD97":2571328.2000000002,"ADDRESS":"中洲８３號之１","OBJECTID":203730},"geometry":{"x":163854.00999999978,"y":2571328.200000003}},{"attributes":{"ID":203732,"DIS_CODE":0,"TOWNNAME":"學甲區","LI":"中洲里","LIN":"9鄰","STREET":" ","SECT":" ","MAREA":"中洲","LANE":" ","ALLEY":" ","HOUSE_NO":"８３號","E_COORD97":163831.73999999999,"N_COORD97":2571319.7200000002,"ADDRESS":"中洲８３號","OBJECTID":203731},"geometry":{"x":163831.74000000115,"y":2571319.7200000025}},{"attributes":{"ID":203733,"DIS_CODE":0,"TOWNNAME":"學甲區","LI":"中洲里","LIN":"9鄰","STREET":" ","SECT":" ","MAREA":"中洲","LANE":" ","ALLEY":" ","HOUSE_NO":"８６號之１","E_COORD97":163855.12,"N_COORD97":2571269.5099999998,"ADDRESS":"中洲８６號之１","OBJECTID":203732},"geometry":{"x":163855.12000000104,"y":2571269.5100000016}},{"attributes":{"ID":203734,"DIS_CODE":0,"TOWNNAME":"學甲區","LI":"中洲里","LIN":"9鄰","STREET":" ","SECT":" ","MAREA":"中洲","LANE":" ","ALLEY":" ","HOUSE_NO":"８６號之２","E_COORD97":163822.81,"N_COORD97":2571241.2599999998,"ADDRESS":"中洲８６號之２","OBJECTID":203733},"geometry":{"x":163822.80999999959,"y":2571241.2600000016}},{"attributes":{"ID":203735,"DIS_CODE":0,"TOWNNAME":"學甲區","LI":"中洲里","LIN":"9鄰","STREET":" ","SECT":" ","MAREA":"中洲","LANE":" ","ALLEY":" ","HOUSE_NO":"８６號","E_COORD97":163835,"N_COORD97":2571259.3599999999,"ADDRESS":"中洲８６號","OBJECTID":203734},"geometry":{"x":163835.00000000093,"y":2571259.3600000031}},{"attributes":{"ID":203736,"DIS_CODE":0,"TOWNNAME":"學甲區","LI":"中洲里","LIN":"9鄰","STREET":" ","SECT":" ","MAREA":"中洲","LANE":" ","ALLEY":" ","HOUSE_NO":"８７號之１８","E_COORD97":163849.95999999999,"N_COORD97":2571163.23,"ADDRESS":"中洲８７號之１８","OBJECTID":203735},"geometry":{"x":163849.95999999996,"y":2571163.2300000042}},{"attributes":{"ID":203737,"DIS_CODE":0,"TOWNNAME":"安南區","LI":"海佃里","LIN":"26鄰","STREET":"國安街","SECT":" ","MAREA":" ","LANE":"１５６巷","ALLEY":"４４弄","HOUSE_NO":"１２號","E_COORD97":166776.39000000001,"N_COORD97":2547089.8199999998,"ADDRESS":"國安街１５６巷４４弄１２號","OBJECTID":203736},"geometry":{"x":166776.3900000006,"y":2547089.8200000003}},{"attributes":{"ID":203738,"DIS_CODE":0,"TOWNNAME":"學甲區","LI":"中洲里","LIN":"9鄰","STREET":" ","SECT":" ","MAREA":"中洲","LANE":" ","ALLEY":" ","HOUSE_NO":"８７號之１","E_COORD97":163799.13,"N_COORD97":2571237.9100000001,"ADDRESS":"中洲８７號之１","OBJECTID":203737},"geometry":{"x":163799.12999999989,"y":2571237.9100000001}},{"attributes":{"ID":203739,"DIS_CODE":0,"TOWNNAME":"學甲區","LI":"中洲里","LIN":"9鄰","STREET":" ","SECT":" ","MAREA":"中洲","LANE":" ","ALLEY":" ","HOUSE_NO":"８７號","E_COORD97":163786.56,"N_COORD97":2571260.04,"ADDRESS":"中洲８７號","OBJECTID":203738},"geometry":{"x":163786.56000000052,"y":2571260.0399999991}},{"attributes":{"ID":203740,"DIS_CODE":0,"TOWNNAME":"學甲區","LI":"中洲里","LIN":"9鄰","STREET":" ","SECT":" ","MAREA":"中洲","LANE":" ","ALLEY":" ","HOUSE_NO":"８８號","E_COORD97":163795.39000000001,"N_COORD97":2571274.8199999998,"ADDRESS":"中洲８８號","OBJECTID":203739},"geometry":{"x":163795.38999999966,"y":2571274.8200000022}},{"attributes":{"ID":203741,"DIS_CODE":0,"TOWNNAME":"安南區","LI":"海佃里","LIN":"26鄰","STREET":"國安街","SECT":" ","MAREA":" ","LANE":"１５６巷","ALLEY":"４４弄","HOUSE_NO":"１３號","E_COORD97":166777.72,"N_COORD97":2547113.7400000002,"ADDRESS":"國安街１５６巷４４弄１３號","OBJECTID":203740},"geometry":{"x":166777.72000000067,"y":2547113.7400000002}},{"attributes":{"ID":203742,"DIS_CODE":0,"TOWNNAME":"學甲區","LI":"中洲里","LIN":"9鄰","STREET":" ","SECT":" ","MAREA":"中洲","LANE":" ","ALLEY":" ","HOUSE_NO":"８９號","E_COORD97":163798.29000000001,"N_COORD97":2571292.1400000001,"ADDRESS":"中洲８９號","OBJECTID":203741},"geometry":{"x":163798.29000000004,"y":2571292.1400000006}},{"attributes":{"ID":203743,"DIS_CODE":0,"TOWNNAME":"安南區","LI":"海佃里","LIN":"26鄰","STREET":"國安街","SECT":" ","MAREA":" ","LANE":"１５６巷","ALLEY":"４４弄","HOUSE_NO":"１４號","E_COORD97":166781.70999999999,"N_COORD97":2547091.8199999998,"ADDRESS":"國安街１５６巷４４弄１４號","OBJECTID":203742},"geometry":{"x":166781.71000000089,"y":2547091.8200000022}},{"attributes":{"ID":203744,"DIS_CODE":0,"TOWNNAME":"學甲區","LI":"中洲里","LIN":"9鄰","STREET":" ","SECT":" ","MAREA":"中洲","LANE":" ","ALLEY":" ","HOUSE_NO":"９０號","E_COORD97":163812.04000000001,"N_COORD97":2571306.7000000002,"ADDRESS":"中洲９０號","OBJECTID":203743},"geometry":{"x":163812.04000000004,"y":2571306.6999999993}},{"attributes":{"ID":203745,"DIS_CODE":0,"TOWNNAME":"安南區","LI":"海佃里","LIN":"26鄰","STREET":"國安街","SECT":" ","MAREA":" ","LANE":"１５６巷","ALLEY":"４４弄","HOUSE_NO":"１６號","E_COORD97":166787.70000000001,"N_COORD97":2547091.1499999999,"ADDRESS":"國安街１５６巷４４弄１６號","OBJECTID":203744},"geometry":{"x":166787.70000000019,"y":2547091.1500000004}},{"attributes":{"ID":203746,"DIS_CODE":0,"TOWNNAME":"安南區","LI":"海佃里","LIN":"26鄰","STREET":"國安街","SECT":" ","MAREA":" ","LANE":"１５６巷","ALLEY":"４４弄","HOUSE_NO":"１７號","E_COORD97":166788.35999999999,"N_COORD97":2547115.0699999998,"ADDRESS":"國安街１５６巷４４弄１７號","OBJECTID":203745},"geometry":{"x":166788.36000000034,"y":2547115.0700000003}},{"attributes":{"ID":203747,"DIS_CODE":0,"TOWNNAME":"安南區","LI":"海佃里","LIN":"26鄰","STREET":"國安街","SECT":" ","MAREA":" ","LANE":"１５６巷","ALLEY":"４４弄","HOUSE_NO":"１８號","E_COORD97":166793.01999999999,"N_COORD97":2547094.4700000002,"ADDRESS":"國安街１５６巷４４弄１８號","OBJECTID":203746},"geometry":{"x":166793.01999999955,"y":2547094.4700000025}},{"attributes":{"ID":203748,"DIS_CODE":0,"TOWNNAME":"楠西區","LI":"灣丘里","LIN":"2鄰","STREET":" ","SECT":" ","MAREA":"灣丘","LANE":" ","ALLEY":" ","HOUSE_NO":"１３號之１","E_COORD97":199412.10000000001,"N_COORD97":2564054.2999999998,"ADDRESS":"灣丘１３號之１","OBJECTID":203747},"geometry":{"x":199412.0999999987,"y":2564054.3000000026}},{"attributes":{"ID":203749,"DIS_CODE":0,"TOWNNAME":"柳營區","LI":"八翁里","LIN":"2鄰","STREET":" ","SECT":" ","MAREA":"八老爺","LANE":" ","ALLEY":" ","HOUSE_NO":"１４之１號","E_COORD97":178242.76000000001,"N_COORD97":2575005.4199999999,"ADDRESS":"八老爺１４之１號","OBJECTID":203748},"geometry":{"x":178242.75999999978,"y":2575005.4199999999}},{"attributes":{"ID":203750,"DIS_CODE":0,"TOWNNAME":"柳營區","LI":"八翁里","LIN":"2鄰","STREET":" ","SECT":" ","MAREA":"八老爺","LANE":" ","ALLEY":" ","HOUSE_NO":"１４之２號","E_COORD97":178240.54000000001,"N_COORD97":2575014.1400000001,"ADDRESS":"八老爺１４之２號","OBJECTID":203749},"geometry":{"x":178240.54000000097,"y":2575014.1400000006}},{"attributes":{"ID":203751,"DIS_CODE":0,"TOWNNAME":"柳營區","LI":"八翁里","LIN":"2鄰","STREET":" ","SECT":" ","MAREA":"八老爺","LANE":" ","ALLEY":" ","HOUSE_NO":"１４號","E_COORD97":178244.14000000001,"N_COORD97":2575000.3199999998,"ADDRESS":"八老爺１４號","OBJECTID":203750},"geometry":{"x":178244.14000000153,"y":2575000.320000004}},{"attributes":{"ID":203752,"DIS_CODE":0,"TOWNNAME":"柳營區","LI":"八翁里","LIN":"2鄰","STREET":" ","SECT":" ","MAREA":"八老爺","LANE":" ","ALLEY":" ","HOUSE_NO":"１５之１號","E_COORD97":178252.95000000001,"N_COORD97":2574980.21,"ADDRESS":"八老爺１５之１號","OBJECTID":203751},"geometry":{"x":178252.95000000112,"y":2574980.2100000009}},{"attributes":{"ID":203753,"DIS_CODE":0,"TOWNNAME":"安南區","LI":"海佃里","LIN":"26鄰","STREET":"國安街","SECT":" ","MAREA":" ","LANE":"１５６巷","ALLEY":"４４弄","HOUSE_NO":"１９號","E_COORD97":166794.35000000001,"N_COORD97":2547115.0699999998,"ADDRESS":"國安街１５６巷４４弄１９號","OBJECTID":203752},"geometry":{"x":166794.34999999963,"y":2547115.0700000003}},{"attributes":{"ID":203754,"DIS_CODE":0,"TOWNNAME":"安南區","LI":"海佃里","LIN":"26鄰","STREET":"國安街","SECT":" ","MAREA":" ","LANE":"１５６巷","ALLEY":"４４弄","HOUSE_NO":"１號","E_COORD97":166737.82000000001,"N_COORD97":2547105.1000000001,"ADDRESS":"國安街１５６巷４４弄１號","OBJECTID":203753},"geometry":{"x":166737.8200000003,"y":2547105.1000000034}},{"attributes":{"ID":203755,"DIS_CODE":0,"TOWNNAME":"安南區","LI":"海佃里","LIN":"26鄰","STREET":"國安街","SECT":" ","MAREA":" ","LANE":"１５６巷","ALLEY":"４４弄","HOUSE_NO":"２０號","E_COORD97":166798.34,"N_COORD97":2547095.7999999998,"ADDRESS":"國安街１５６巷４４弄２０號","OBJECTID":203754},"geometry":{"x":166798.33999999985,"y":2547095.8000000026}},{"attributes":{"ID":203756,"DIS_CODE":0,"TOWNNAME":"學甲區","LI":"新達里","LIN":"9鄰","STREET":"中學路","SECT":" ","MAREA":" ","LANE":" ","ALLEY":" ","HOUSE_NO":"１９號","E_COORD97":166645.29000000001,"N_COORD97":2570677.0499999998,"ADDRESS":"中學路１９號","OBJECTID":203755},"geometry":{"x":166645.29000000097,"y":2570677.0500000026}},{"attributes":{"ID":203757,"DIS_CODE":0,"TOWNNAME":"安南區","LI":"海佃里","LIN":"26鄰","STREET":"國安街","SECT":" ","MAREA":" ","LANE":"１５６巷","ALLEY":"４４弄","HOUSE_NO":"２１號","E_COORD97":166800.32999999999,"N_COORD97":2547116.3900000001,"ADDRESS":"國安街１５６巷４４弄２１號","OBJECTID":203756},"geometry":{"x":166800.33000000007,"y":2547116.3900000006}},{"attributes":{"ID":203758,"DIS_CODE":0,"TOWNNAME":"安南區","LI":"海佃里","LIN":"26鄰","STREET":"國安街","SECT":" ","MAREA":" ","LANE":"１５６巷","ALLEY":"４４弄","HOUSE_NO":"２２號","E_COORD97":166803.66,"N_COORD97":2547096.46,"ADDRESS":"國安街１５６巷４４弄２２號","OBJECTID":203757},"geometry":{"x":166803.66000000201,"y":2547096.4600000009}},{"attributes":{"ID":203759,"DIS_CODE":0,"TOWNNAME":"安南區","LI":"海佃里","LIN":"26鄰","STREET":"國安街","SECT":" ","MAREA":" ","LANE":"１５６巷","ALLEY":"４４弄","HOUSE_NO":"２３號","E_COORD97":166804.98999999999,"N_COORD97":2547117.7200000002,"ADDRESS":"國安街１５６巷４４弄２３號","OBJECTID":203758},"geometry":{"x":166804.99000000209,"y":2547117.7200000007}},{"attributes":{"ID":203760,"DIS_CODE":0,"TOWNNAME":"安南區","LI":"海佃里","LIN":"26鄰","STREET":"國安街","SECT":" ","MAREA":" ","LANE":"１５６巷","ALLEY":"４４弄","HOUSE_NO":"２４號","E_COORD97":166808.98000000001,"N_COORD97":2547097.79,"ADDRESS":"國安街１５６巷４４弄２４號","OBJECTID":203759},"geometry":{"x":166808.98000000138,"y":2547097.790000001}},{"attributes":{"ID":203761,"DIS_CODE":0,"TOWNNAME":"安南區","LI":"海佃里","LIN":"26鄰","STREET":"國安街","SECT":" ","MAREA":" ","LANE":"１５６巷","ALLEY":"４４弄","HOUSE_NO":"２號","E_COORD97":166741.81,"N_COORD97":2547083.8399999999,"ADDRESS":"國安街１５６巷４４弄２號","OBJECTID":203760},"geometry":{"x":166741.81000000052,"y":2547083.8400000017}},{"attributes":{"ID":203762,"DIS_CODE":0,"TOWNNAME":"安南區","LI":"海佃里","LIN":"26鄰","STREET":"國安街","SECT":" ","MAREA":" ","LANE":"１５６巷","ALLEY":"４４弄","HOUSE_NO":"３號","E_COORD97":166742.48000000001,"N_COORD97":2547106.4300000002,"ADDRESS":"國安街１５６巷４４弄３號","OBJECTID":203761},"geometry":{"x":166742.48000000231,"y":2547106.4300000034}},{"attributes":{"ID":203763,"DIS_CODE":0,"TOWNNAME":"安南區","LI":"海佃里","LIN":"26鄰","STREET":"國安街","SECT":" ","MAREA":" ","LANE":"１５６巷","ALLEY":"４４弄","HOUSE_NO":"４號","E_COORD97":166746.47,"N_COORD97":2547083.8399999999,"ADDRESS":"國安街１５６巷４４弄４號","OBJECTID":203762},"geometry":{"x":166746.46999999974,"y":2547083.8400000017}},{"attributes":{"ID":203764,"DIS_CODE":0,"TOWNNAME":"安南區","LI":"海佃里","LIN":"26鄰","STREET":"國安街","SECT":" ","MAREA":" ","LANE":"１５６巷","ALLEY":"４４弄","HOUSE_NO":"５號","E_COORD97":166747.13,"N_COORD97":2547107.0899999999,"ADDRESS":"國安街１５６巷４４弄５號","OBJECTID":203763},"geometry":{"x":166747.12999999989,"y":2547107.0899999999}},{"attributes":{"ID":203765,"DIS_CODE":0,"TOWNNAME":"安南區","LI":"海佃里","LIN":"26鄰","STREET":"國安街","SECT":" ","MAREA":" ","LANE":"１５６巷","ALLEY":"４４弄","HOUSE_NO":"６號","E_COORD97":166750.45999999999,"N_COORD97":2547086.5,"ADDRESS":"國安街１５６巷４４弄６號","OBJECTID":203764},"geometry":{"x":166750.45999999903,"y":2547086.5000000019}},{"attributes":{"ID":203766,"DIS_CODE":0,"TOWNNAME":"安南區","LI":"海佃里","LIN":"26鄰","STREET":"國安街","SECT":" ","MAREA":" ","LANE":"１５６巷","ALLEY":"４４弄","HOUSE_NO":"７號","E_COORD97":166751.79000000001,"N_COORD97":2547108.4199999999,"ADDRESS":"國安街１５６巷４４弄７號","OBJECTID":203765},"geometry":{"x":166751.7900000019,"y":2547108.4199999999}},{"attributes":{"ID":203767,"DIS_CODE":0,"TOWNNAME":"安南區","LI":"海佃里","LIN":"26鄰","STREET":"國安街","SECT":" ","MAREA":" ","LANE":"１５６巷","ALLEY":"４４弄","HOUSE_NO":"７號之１","E_COORD97":166755.78,"N_COORD97":2547108.4199999999,"ADDRESS":"國安街１５６巷４４弄７號之１","OBJECTID":203766},"geometry":{"x":166755.78000000119,"y":2547108.4199999999}},{"attributes":{"ID":203768,"DIS_CODE":0,"TOWNNAME":"安南區","LI":"海佃里","LIN":"26鄰","STREET":"國安街","SECT":" ","MAREA":" ","LANE":"１５６巷","ALLEY":"４４弄","HOUSE_NO":"７號之２","E_COORD97":166761.10000000001,"N_COORD97":2547109.75,"ADDRESS":"國安街１５６巷４４弄７號之２","OBJECTID":203767},"geometry":{"x":166761.10000000149,"y":2547109.75}},{"attributes":{"ID":203769,"DIS_CODE":0,"TOWNNAME":"安南區","LI":"海佃里","LIN":"26鄰","STREET":"國安街","SECT":" ","MAREA":" ","LANE":"１５６巷","ALLEY":"４４弄","HOUSE_NO":"８號","E_COORD97":166755.78,"N_COORD97":2547086.5,"ADDRESS":"國安街１５６巷４４弄８號","OBJECTID":203768},"geometry":{"x":166755.78000000119,"y":2547086.5000000019}},{"attributes":{"ID":203770,"DIS_CODE":0,"TOWNNAME":"安南區","LI":"海佃里","LIN":"26鄰","STREET":"國安街","SECT":" ","MAREA":" ","LANE":"１５６巷","ALLEY":"４４弄","HOUSE_NO":"８號之２","E_COORD97":166764.42000000001,"N_COORD97":2547087.8300000001,"ADDRESS":"國安街１５６巷４４弄８號之２","OBJECTID":203769},"geometry":{"x":166764.42000000179,"y":2547087.8300000019}},{"attributes":{"ID":203771,"DIS_CODE":0,"TOWNNAME":"安南區","LI":"海佃里","LIN":"26鄰","STREET":"國安街","SECT":" ","MAREA":" ","LANE":"１５６巷","ALLEY":"４４弄","HOUSE_NO":"９號","E_COORD97":166766.42000000001,"N_COORD97":2547109.75,"ADDRESS":"國安街１５６巷４４弄９號","OBJECTID":203770},"geometry":{"x":166766.42000000086,"y":2547109.75}},{"attributes":{"ID":203772,"DIS_CODE":0,"TOWNNAME":"安南區","LI":"海佃里","LIN":"26鄰","STREET":"國安街","SECT":" ","MAREA":" ","LANE":"１５６巷","ALLEY":"５８弄","HOUSE_NO":"１０號","E_COORD97":166763.09,"N_COORD97":2547129.02,"ADDRESS":"國安街１５６巷５８弄１０號","OBJECTID":203771},"geometry":{"x":166763.09000000171,"y":2547129.0199999977}},{"attributes":{"ID":203773,"DIS_CODE":0,"TOWNNAME":"安南區","LI":"海佃里","LIN":"26鄰","STREET":"國安街","SECT":" ","MAREA":" ","LANE":"１５６巷","ALLEY":"５８弄","HOUSE_NO":"１２號","E_COORD97":166769.07999999999,"N_COORD97":2547130.3399999999,"ADDRESS":"國安街１５６巷５８弄１２號","OBJECTID":203772},"geometry":{"x":166769.08000000101,"y":2547130.3399999999}},{"attributes":{"ID":203774,"DIS_CODE":0,"TOWNNAME":"安南區","LI":"海佃里","LIN":"26鄰","STREET":"國安街","SECT":" ","MAREA":" ","LANE":"１５６巷","ALLEY":"５８弄","HOUSE_NO":"１４號","E_COORD97":166774.39999999999,"N_COORD97":2547131.6699999999,"ADDRESS":"國安街１５６巷５８弄１４號","OBJECTID":203773},"geometry":{"x":166774.40000000037,"y":2547131.6699999999}},{"attributes":{"ID":203775,"DIS_CODE":0,"TOWNNAME":"安南區","LI":"海佃里","LIN":"26鄰","STREET":"國安街","SECT":" ","MAREA":" ","LANE":"１５６巷","ALLEY":"５８弄","HOUSE_NO":"１６號","E_COORD97":166779.72,"N_COORD97":2547131.0099999998,"ADDRESS":"國安街１５６巷５８弄１６號","OBJECTID":203774},"geometry":{"x":166779.72000000067,"y":2547131.0100000016}},{"attributes":{"ID":203776,"DIS_CODE":0,"TOWNNAME":"安南區","LI":"海佃里","LIN":"26鄰","STREET":"國安街","SECT":" ","MAREA":" ","LANE":"１５６巷","ALLEY":"５８弄","HOUSE_NO":"１８號","E_COORD97":166785.70000000001,"N_COORD97":2547133.6699999999,"ADDRESS":"國安街１５６巷５８弄１８號","OBJECTID":203775},"geometry":{"x":166785.70000000019,"y":2547133.6700000018}},{"attributes":{"ID":203777,"DIS_CODE":0,"TOWNNAME":"安南區","LI":"海佃里","LIN":"26鄰","STREET":"國安街","SECT":" ","MAREA":" ","LANE":"１５６巷","ALLEY":"５８弄","HOUSE_NO":"２０號","E_COORD97":166790.35999999999,"N_COORD97":2547134.3300000001,"ADDRESS":"國安街１５６巷５８弄２０號","OBJECTID":203776},"geometry":{"x":166790.36000000034,"y":2547134.3300000038}},{"attributes":{"ID":203778,"DIS_CODE":0,"TOWNNAME":"安南區","LI":"海佃里","LIN":"26鄰","STREET":"國安街","SECT":" ","MAREA":" ","LANE":"１５６巷","ALLEY":"５８弄","HOUSE_NO":"２２號","E_COORD97":166796.34,"N_COORD97":2547134.9900000002,"ADDRESS":"國安街１５６巷５８弄２２號","OBJECTID":203777},"geometry":{"x":166796.33999999985,"y":2547134.9900000021}},{"attributes":{"ID":203779,"DIS_CODE":0,"TOWNNAME":"安南區","LI":"海佃里","LIN":"26鄰","STREET":"國安街","SECT":" ","MAREA":" ","LANE":"１５６巷","ALLEY":"５８弄","HOUSE_NO":"２４號","E_COORD97":166801.66,"N_COORD97":2547137.6499999999,"ADDRESS":"國安街１５６巷５８弄２４號","OBJECTID":203778},"geometry":{"x":166801.66000000015,"y":2547137.6500000022}},{"attributes":{"ID":203780,"DIS_CODE":0,"TOWNNAME":"安南區","LI":"海佃里","LIN":"26鄰","STREET":"國安街","SECT":" ","MAREA":" ","LANE":"１５６巷","ALLEY":"５８弄","HOUSE_NO":"２號","E_COORD97":166740.48000000001,"N_COORD97":2547122.3700000001,"ADDRESS":"國安街１５６巷５８弄２號","OBJECTID":203779},"geometry":{"x":166740.48000000045,"y":2547122.3700000029}},{"attributes":{"ID":203781,"DIS_CODE":0,"TOWNNAME":"安南區","LI":"海佃里","LIN":"26鄰","STREET":"國安街","SECT":" ","MAREA":" ","LANE":"１５６巷","ALLEY":"５８弄","HOUSE_NO":"４號","E_COORD97":166746.47,"N_COORD97":2547125.6899999999,"ADDRESS":"國安街１５６巷５８弄４號","OBJECTID":203780},"geometry":{"x":166746.46999999974,"y":2547125.6900000013}},{"attributes":{"ID":203782,"DIS_CODE":0,"TOWNNAME":"安南區","LI":"海佃里","LIN":"26鄰","STREET":"國安街","SECT":" ","MAREA":" ","LANE":"１５６巷","ALLEY":"５８弄","HOUSE_NO":"６號","E_COORD97":166752.45000000001,"N_COORD97":2547125.6899999999,"ADDRESS":"國安街１５６巷５８弄６號","OBJECTID":203781},"geometry":{"x":166752.44999999925,"y":2547125.6900000013}},{"attributes":{"ID":203783,"DIS_CODE":0,"TOWNNAME":"安南區","LI":"海佃里","LIN":"26鄰","STREET":"國安街","SECT":" ","MAREA":" ","LANE":"１５６巷","ALLEY":"５８弄","HOUSE_NO":"８號","E_COORD97":166757.76999999999,"N_COORD97":2547127.6899999999,"ADDRESS":"國安街１５６巷５８弄８號","OBJECTID":203782},"geometry":{"x":166757.76999999955,"y":2547127.6899999995}},{"attributes":{"ID":203784,"DIS_CODE":0,"TOWNNAME":"佳里區","LI":"建南里","LIN":"26鄰","STREET":"公園路","SECT":" ","MAREA":" ","LANE":"７５巷","ALLEY":"１３弄","HOUSE_NO":"１３號","E_COORD97":165316.75,"N_COORD97":2561524.2200000002,"ADDRESS":"公園路７５巷１３弄１３號","OBJECTID":203783},"geometry":{"x":165316.75000000093,"y":2561524.2200000007}},{"attributes":{"ID":203785,"DIS_CODE":0,"TOWNNAME":"佳里區","LI":"建南里","LIN":"26鄰","STREET":"公園路","SECT":" ","MAREA":" ","LANE":"７５巷","ALLEY":"１３弄","HOUSE_NO":"１５號","E_COORD97":165319.48999999999,"N_COORD97":2561519.2400000002,"ADDRESS":"公園路７５巷１３弄１５號","OBJECTID":203784},"geometry":{"x":165319.49000000022,"y":2561519.2400000002}},{"attributes":{"ID":203786,"DIS_CODE":0,"TOWNNAME":"佳里區","LI":"建南里","LIN":"26鄰","STREET":"公園路","SECT":" ","MAREA":" ","LANE":"７５巷","ALLEY":"１３弄","HOUSE_NO":"１７號","E_COORD97":165323.31,"N_COORD97":2561514.8199999998,"ADDRESS":"公園路７５巷１３弄１７號","OBJECTID":203785},"geometry":{"x":165323.30999999959,"y":2561514.8200000022}},{"attributes":{"ID":203787,"DIS_CODE":0,"TOWNNAME":"佳里區","LI":"建南里","LIN":"26鄰","STREET":"公園路","SECT":" ","MAREA":" ","LANE":"７５巷","ALLEY":"１３弄","HOUSE_NO":"１９號","E_COORD97":165325.45000000001,"N_COORD97":2561510.5800000001,"ADDRESS":"公園路７５巷１３弄１９號","OBJECTID":203786},"geometry":{"x":165325.45000000112,"y":2561510.5800000001}},{"attributes":{"ID":203788,"DIS_CODE":0,"TOWNNAME":"柳營區","LI":"八翁里","LIN":"2鄰","STREET":" ","SECT":" ","MAREA":"八老爺","LANE":" ","ALLEY":" ","HOUSE_NO":"１５號","E_COORD97":178242.16,"N_COORD97":2574985.6699999999,"ADDRESS":"八老爺１５號","OBJECTID":203787},"geometry":{"x":178242.16000000015,"y":2574985.6699999999}},{"attributes":{"ID":203789,"DIS_CODE":0,"TOWNNAME":"柳營區","LI":"八翁里","LIN":"2鄰","STREET":" ","SECT":" ","MAREA":"八老爺","LANE":" ","ALLEY":" ","HOUSE_NO":"１６號之２","E_COORD97":178217.29999999999,"N_COORD97":2574999.1000000001,"ADDRESS":"八老爺１６號之２","OBJECTID":203788},"geometry":{"x":178217.29999999981,"y":2574999.1000000015}},{"attributes":{"ID":203790,"DIS_CODE":0,"TOWNNAME":"佳里區","LI":"建南里","LIN":"26鄰","STREET":"公園路","SECT":" ","MAREA":" ","LANE":"７５巷","ALLEY":"１３弄","HOUSE_NO":"１號","E_COORD97":165303.87,"N_COORD97":2561545.9100000001,"ADDRESS":"公園路７５巷１３弄１號","OBJECTID":203789},"geometry":{"x":165303.87000000104,"y":2561545.9100000001}},{"attributes":{"ID":203791,"DIS_CODE":0,"TOWNNAME":"柳營區","LI":"八翁里","LIN":"2鄰","STREET":" ","SECT":" ","MAREA":"八老爺","LANE":" ","ALLEY":" ","HOUSE_NO":"１６號","E_COORD97":178222.19,"N_COORD97":2575038.1200000001,"ADDRESS":"八老爺１６號","OBJECTID":203790},"geometry":{"x":178222.19000000041,"y":2575038.120000001}},{"attributes":{"ID":203792,"DIS_CODE":0,"TOWNNAME":"柳營區","LI":"八翁里","LIN":"2鄰","STREET":" ","SECT":" ","MAREA":"八老爺","LANE":" ","ALLEY":" ","HOUSE_NO":"１７號","E_COORD97":178250.79999999999,"N_COORD97":2574944.0699999998,"ADDRESS":"八老爺１７號","OBJECTID":203791},"geometry":{"x":178250.80000000075,"y":2574944.0699999984}},{"attributes":{"ID":203793,"DIS_CODE":0,"TOWNNAME":"佳里區","LI":"建南里","LIN":"26鄰","STREET":"公園路","SECT":" ","MAREA":" ","LANE":"７５巷","ALLEY":"１３弄","HOUSE_NO":"２１號","E_COORD97":165329.62,"N_COORD97":2561505.5800000001,"ADDRESS":"公園路７５巷１３弄２１號","OBJECTID":203792},"geometry":{"x":165329.62000000104,"y":2561505.5800000019}},{"attributes":{"ID":203794,"DIS_CODE":0,"TOWNNAME":"佳里區","LI":"建南里","LIN":"26鄰","STREET":"公園路","SECT":" ","MAREA":" ","LANE":"７５巷","ALLEY":"１３弄","HOUSE_NO":"２５號之１","E_COORD97":165377.14999999999,"N_COORD97":2561465.2200000002,"ADDRESS":"公園路７５巷１３弄２５號之１","OBJECTID":203793},"geometry":{"x":165377.1500000013,"y":2561465.2200000025}},{"attributes":{"ID":203795,"DIS_CODE":0,"TOWNNAME":"柳營區","LI":"八翁里","LIN":"2鄰","STREET":" ","SECT":" ","MAREA":"八老爺","LANE":" ","ALLEY":" ","HOUSE_NO":"１８之１號","E_COORD97":178289.70999999999,"N_COORD97":2574939.6400000001,"ADDRESS":"八老爺１８之１號","OBJECTID":203794},"geometry":{"x":178289.71000000183,"y":2574939.6400000006}},{"attributes":{"ID":203796,"DIS_CODE":0,"TOWNNAME":"佳里區","LI":"建南里","LIN":"26鄰","STREET":"公園路","SECT":" ","MAREA":" ","LANE":"７５巷","ALLEY":"１３弄","HOUSE_NO":"２號","E_COORD97":165285.57000000001,"N_COORD97":2561538.5699999998,"ADDRESS":"公園路７５巷１３弄２號","OBJECTID":203795},"geometry":{"x":165285.57000000216,"y":2561538.5699999984}},{"attributes":{"ID":203797,"DIS_CODE":0,"TOWNNAME":"佳里區","LI":"建南里","LIN":"26鄰","STREET":"公園路","SECT":" ","MAREA":" ","LANE":"７５巷","ALLEY":"１３弄","HOUSE_NO":"３號","E_COORD97":165305.89000000001,"N_COORD97":2561542.6600000001,"ADDRESS":"公園路７５巷１３弄３號","OBJECTID":203796},"geometry":{"x":165305.88999999966,"y":2561542.660000002}},{"attributes":{"ID":203798,"DIS_CODE":0,"TOWNNAME":"佳里區","LI":"建南里","LIN":"26鄰","STREET":"公園路","SECT":" ","MAREA":" ","LANE":"７５巷","ALLEY":"１３弄","HOUSE_NO":"５號","E_COORD97":165308.20000000001,"N_COORD97":2561539.2999999998,"ADDRESS":"公園路７５巷１３弄５號","OBJECTID":203797},"geometry":{"x":165308.19999999925,"y":2561539.3000000026}},{"attributes":{"ID":203799,"DIS_CODE":0,"TOWNNAME":"柳營區","LI":"八翁里","LIN":"2鄰","STREET":" ","SECT":" ","MAREA":"八老爺","LANE":" ","ALLEY":" ","HOUSE_NO":"１８號之１","E_COORD97":178289.70999999999,"N_COORD97":2574939.6400000001,"ADDRESS":"八老爺１８號之１","OBJECTID":203798},"geometry":{"x":178289.71000000183,"y":2574939.6400000006}},{"attributes":{"ID":203800,"DIS_CODE":0,"TOWNNAME":"柳營區","LI":"八翁里","LIN":"2鄰","STREET":" ","SECT":" ","MAREA":"八老爺","LANE":" ","ALLEY":" ","HOUSE_NO":"１９號之３","E_COORD97":178274.97,"N_COORD97":2574931.7999999998,"ADDRESS":"八老爺１９號之３","OBJECTID":203799},"geometry":{"x":178274.97000000067,"y":2574931.8000000007}},{"attributes":{"ID":203801,"DIS_CODE":0,"TOWNNAME":"柳營區","LI":"八翁里","LIN":"2鄰","STREET":" ","SECT":" ","MAREA":"八老爺","LANE":" ","ALLEY":" ","HOUSE_NO":"１９之５號","E_COORD97":178302.44,"N_COORD97":2574910.2000000002,"ADDRESS":"八老爺１９之５號","OBJECTID":203800},"geometry":{"x":178302.44000000134,"y":2574910.1999999993}}]}