{"displayFieldName":"TOWNNAME","fieldAliases":{"ID":"ID","DIS_CODE":"DIS_CODE","TOWNNAME":"TOWNNAME","LI":"LI","LIN":"LIN","STREET":"STREET","SECT":"SECT","MAREA":"MAREA","LANE":"LANE","ALLEY":"ALLEY","HOUSE_NO":"HOUSE_NO","E_COORD97":"E_COORD97","N_COORD97":"N_COORD97","ADDRESS":"ADDRESS","OBJECTID":"OBJECTID"},"geometryType":"esriGeometryPoint","spatialReference":{"wkid":102443,"latestWkid":3826},"fields":[{"name":"ID","type":"esriFieldTypeDouble","alias":"ID"},{"name":"DIS_CODE","type":"esriFieldTypeInteger","alias":"DIS_CODE"},{"name":"TOWNNAME","type":"esriFieldTypeString","alias":"TOWNNAME","length":8},{"name":"LI","type":"esriFieldTypeString","alias":"LI","length":8},{"name":"LIN","type":"esriFieldTypeString","alias":"LIN","length":12},{"name":"STREET","type":"esriFieldTypeString","alias":"STREET","length":20},{"name":"SECT","type":"esriFieldTypeString","alias":"SECT","length":8},{"name":"MAREA","type":"esriFieldTypeString","alias":"MAREA","length":12},{"name":"LANE","type":"esriFieldTypeString","alias":"LANE","length":10},{"name":"ALLEY","type":"esriFieldTypeString","alias":"ALLEY","length":10},{"name":"HOUSE_NO","type":"esriFieldTypeString","alias":"HOUSE_NO","length":20},{"name":"E_COORD97","type":"esriFieldTypeDouble","alias":"E_COORD97"},{"name":"N_COORD97","type":"esriFieldTypeDouble","alias":"N_COORD97"},{"name":"ADDRESS","type":"esriFieldTypeString","alias":"ADDRESS","length":50},{"name":"OBJECTID","type":"esriFieldTypeOID","alias":"OBJECTID"}],"features":[{"attributes":{"ID":154002,"DIS_CODE":0,"TOWNNAME":"龍崎區","LI":"牛埔里","LIN":"5鄰","STREET":" ","SECT":" ","MAREA":"烏山腳","LANE":" ","ALLEY":" ","HOUSE_NO":"１４號","E_COORD97":189915.64000000001,"N_COORD97":2536864.25,"ADDRESS":"烏山腳１４號","OBJECTID":154001},"geometry":{"x":189915.64000000153,"y":2536864.25}},{"attributes":{"ID":154003,"DIS_CODE":0,"TOWNNAME":"龍崎區","LI":"崎頂里","LIN":"5鄰","STREET":" ","SECT":" ","MAREA":"新市子","LANE":" ","ALLEY":" ","HOUSE_NO":"１７３號","E_COORD97":184461.07000000001,"N_COORD97":2540555.25,"ADDRESS":"新市子１７３號","OBJECTID":154002},"geometry":{"x":184461.0700000003,"y":2540555.2500000019}},{"attributes":{"ID":154004,"DIS_CODE":0,"TOWNNAME":"龍崎區","LI":"崎頂里","LIN":"5鄰","STREET":" ","SECT":" ","MAREA":"新市子","LANE":" ","ALLEY":" ","HOUSE_NO":"１９４號","E_COORD97":184406.26999999999,"N_COORD97":2540536.25,"ADDRESS":"新市子１９４號","OBJECTID":154003},"geometry":{"x":184406.26999999955,"y":2540536.25}},{"attributes":{"ID":154005,"DIS_CODE":0,"TOWNNAME":"龍崎區","LI":"崎頂里","LIN":"5鄰","STREET":" ","SECT":" ","MAREA":"新市子","LANE":" ","ALLEY":" ","HOUSE_NO":"１８１號","E_COORD97":184417.07000000001,"N_COORD97":2540544.25,"ADDRESS":"新市子１８１號","OBJECTID":154004},"geometry":{"x":184417.0700000003,"y":2540544.2500000037}},{"attributes":{"ID":154006,"DIS_CODE":0,"TOWNNAME":"龍崎區","LI":"崎頂里","LIN":"5鄰","STREET":" ","SECT":" ","MAREA":"新市子","LANE":" ","ALLEY":" ","HOUSE_NO":"１９９號","E_COORD97":184377.57000000001,"N_COORD97":2540541.25,"ADDRESS":"新市子１９９號","OBJECTID":154005},"geometry":{"x":184377.57000000123,"y":2540541.2500000019}},{"attributes":{"ID":154007,"DIS_CODE":0,"TOWNNAME":"龍崎區","LI":"崎頂里","LIN":"5鄰","STREET":" ","SECT":" ","MAREA":"新市子","LANE":" ","ALLEY":" ","HOUSE_NO":"２０１號","E_COORD97":184397.76999999999,"N_COORD97":2540595.25,"ADDRESS":"新市子２０１號","OBJECTID":154006},"geometry":{"x":184397.76999999955,"y":2540595.2500000019}},{"attributes":{"ID":154008,"DIS_CODE":0,"TOWNNAME":"龍崎區","LI":"崎頂里","LIN":"5鄰","STREET":" ","SECT":" ","MAREA":"新市子","LANE":" ","ALLEY":" ","HOUSE_NO":"２００號","E_COORD97":184372.26999999999,"N_COORD97":2540540.25,"ADDRESS":"新市子２００號","OBJECTID":154007},"geometry":{"x":184372.26999999955,"y":2540540.25}},{"attributes":{"ID":154009,"DIS_CODE":0,"TOWNNAME":"龍崎區","LI":"土崎里","LIN":"5鄰","STREET":" ","SECT":" ","MAREA":"土崎","LANE":" ","ALLEY":" ","HOUSE_NO":"８之１號","E_COORD97":187778.42000000001,"N_COORD97":2542449.2999999998,"ADDRESS":"土崎８之１號","OBJECTID":154008},"geometry":{"x":187778.42000000086,"y":2542449.3000000007}},{"attributes":{"ID":154010,"DIS_CODE":0,"TOWNNAME":"龍崎區","LI":"崎頂里","LIN":"5鄰","STREET":" ","SECT":" ","MAREA":"新市子","LANE":" ","ALLEY":" ","HOUSE_NO":"１９８號","E_COORD97":184388.26999999999,"N_COORD97":2540543.25,"ADDRESS":"新市子１９８號","OBJECTID":154009},"geometry":{"x":184388.27000000142,"y":2540543.25}},{"attributes":{"ID":154011,"DIS_CODE":0,"TOWNNAME":"中西區","LI":"銀同里","LIN":"7鄰","STREET":"開山路","SECT":" ","MAREA":" ","LANE":"３５巷","ALLEY":"３１弄","HOUSE_NO":"８號","E_COORD97":168712,"N_COORD97":2543497.02,"ADDRESS":"開山路３５巷３１弄８號","OBJECTID":154010},"geometry":{"x":168712.00000000093,"y":2543497.0199999996}},{"attributes":{"ID":154012,"DIS_CODE":0,"TOWNNAME":"中西區","LI":"銀同里","LIN":"10鄰","STREET":"開山路","SECT":" ","MAREA":" ","LANE":"３５巷","ALLEY":"１弄","HOUSE_NO":"２６號","E_COORD97":168709.64999999999,"N_COORD97":2543529.9100000001,"ADDRESS":"開山路３５巷１弄２６號","OBJECTID":154011},"geometry":{"x":168709.6500000013,"y":2543529.9100000039}},{"attributes":{"ID":154013,"DIS_CODE":0,"TOWNNAME":"永康區","LI":"北灣里","LIN":"2鄰","STREET":"文賢街","SECT":" ","MAREA":" ","LANE":"１２２巷","ALLEY":"２７弄","HOUSE_NO":"３８號","E_COORD97":175478,"N_COORD97":2545579.7200000002,"ADDRESS":"文賢街１２２巷２７弄３８號","OBJECTID":154012},"geometry":{"x":175478.00000000093,"y":2545579.7200000044}},{"attributes":{"ID":154014,"DIS_CODE":0,"TOWNNAME":"永康區","LI":"北灣里","LIN":"2鄰","STREET":"文賢街","SECT":" ","MAREA":" ","LANE":"１２２巷","ALLEY":"２７弄","HOUSE_NO":"２８號","E_COORD97":175494.85999999999,"N_COORD97":2545565.8799999999,"ADDRESS":"文賢街１２２巷２７弄２８號","OBJECTID":154013},"geometry":{"x":175494.86000000034,"y":2545565.879999999}},{"attributes":{"ID":154015,"DIS_CODE":0,"TOWNNAME":"永康區","LI":"北灣里","LIN":"2鄰","STREET":"文賢街","SECT":" ","MAREA":" ","LANE":"１２２巷","ALLEY":"２７弄","HOUSE_NO":"１２號","E_COORD97":175476.56,"N_COORD97":2545539.3199999998,"ADDRESS":"文賢街１２２巷２７弄１２號","OBJECTID":154014},"geometry":{"x":175476.56000000052,"y":2545539.3200000022}},{"attributes":{"ID":154016,"DIS_CODE":0,"TOWNNAME":"永康區","LI":"北灣里","LIN":"2鄰","STREET":"文賢街","SECT":" ","MAREA":" ","LANE":"１２２巷","ALLEY":"２７弄","HOUSE_NO":"２６號","E_COORD97":175476.45999999999,"N_COORD97":2545559.5699999998,"ADDRESS":"文賢街１２２巷２７弄２６號","OBJECTID":154015},"geometry":{"x":175476.46000000089,"y":2545559.5700000003}},{"attributes":{"ID":154017,"DIS_CODE":0,"TOWNNAME":"永康區","LI":"埔園里","LIN":"2鄰","STREET":"永埔街","SECT":" ","MAREA":" ","LANE":"１１６巷","ALLEY":"９弄","HOUSE_NO":"１２號","E_COORD97":173995.76000000001,"N_COORD97":2547712.7400000002,"ADDRESS":"永埔街１１６巷９弄１２號","OBJECTID":154016},"geometry":{"x":173995.76000000071,"y":2547712.7400000021}},{"attributes":{"ID":154018,"DIS_CODE":0,"TOWNNAME":"永康區","LI":"龍潭里","LIN":"2鄰","STREET":"龍潭街","SECT":" ","MAREA":" ","LANE":"８９巷","ALLEY":"６弄","HOUSE_NO":"１２號","E_COORD97":174828.04000000001,"N_COORD97":2548155,"ADDRESS":"龍潭街８９巷６弄１２號","OBJECTID":154017},"geometry":{"x":174828.04000000097,"y":2548155.0000000019}},{"attributes":{"ID":154019,"DIS_CODE":0,"TOWNNAME":"永康區","LI":"龍潭里","LIN":"2鄰","STREET":"龍潭街","SECT":" ","MAREA":" ","LANE":"８９巷","ALLEY":"６弄","HOUSE_NO":"７號","E_COORD97":174794.39999999999,"N_COORD97":2548133.29,"ADDRESS":"龍潭街８９巷６弄７號","OBJECTID":154018},"geometry":{"x":174794.40000000037,"y":2548133.2899999991}},{"attributes":{"ID":154020,"DIS_CODE":0,"TOWNNAME":"永康區","LI":"龍潭里","LIN":"2鄰","STREET":"龍潭街","SECT":" ","MAREA":" ","LANE":"８９巷","ALLEY":"６弄","HOUSE_NO":"２１號","E_COORD97":174808.64999999999,"N_COORD97":2548140.04,"ADDRESS":"龍潭街８９巷６弄２１號","OBJECTID":154019},"geometry":{"x":174808.65000000224,"y":2548140.040000001}},{"attributes":{"ID":154021,"DIS_CODE":0,"TOWNNAME":"中西區","LI":"天后里","LIN":"16鄰","STREET":"西門路","SECT":"二段","MAREA":" ","LANE":"３７２巷","ALLEY":"８弄","HOUSE_NO":"１１號","E_COORD97":168070.87,"N_COORD97":2544266.6499999999,"ADDRESS":"西門路二段３７２巷８弄１１號","OBJECTID":154020},"geometry":{"x":168070.87000000104,"y":2544266.6500000004}},{"attributes":{"ID":154022,"DIS_CODE":0,"TOWNNAME":"中西區","LI":"天后里","LIN":"16鄰","STREET":"西門路","SECT":"二段","MAREA":" ","LANE":"３７２巷","ALLEY":"８弄","HOUSE_NO":"１３號","E_COORD97":168068.07999999999,"N_COORD97":2544263.8599999999,"ADDRESS":"西門路二段３７２巷８弄１３號","OBJECTID":154021},"geometry":{"x":168068.08000000007,"y":2544263.8599999994}},{"attributes":{"ID":154023,"DIS_CODE":0,"TOWNNAME":"仁德區","LI":"後壁里","LIN":"33鄰","STREET":"德洋二街","SECT":" ","MAREA":" ","LANE":"３９巷","ALLEY":"７弄","HOUSE_NO":"６號","E_COORD97":172353.98999999999,"N_COORD97":2539409.02,"ADDRESS":"德洋二街３９巷７弄６號","OBJECTID":154022},"geometry":{"x":172353.99000000115,"y":2539409.0199999996}},{"attributes":{"ID":154024,"DIS_CODE":0,"TOWNNAME":"仁德區","LI":"新田里","LIN":"16鄰","STREET":"北保東路","SECT":" ","MAREA":" ","LANE":"３２巷","ALLEY":"８弄","HOUSE_NO":"６號","E_COORD97":173420.56,"N_COORD97":2539340.4900000002,"ADDRESS":"北保東路３２巷８弄６號","OBJECTID":154023},"geometry":{"x":173420.56000000052,"y":2539340.4900000021}},{"attributes":{"ID":154025,"DIS_CODE":0,"TOWNNAME":"仁德區","LI":"新田里","LIN":"3鄰","STREET":"新田二街","SECT":" ","MAREA":" ","LANE":"１２０巷","ALLEY":"２２弄","HOUSE_NO":"２號","E_COORD97":174962.47,"N_COORD97":2539942.4500000002,"ADDRESS":"新田二街１２０巷２２弄２號","OBJECTID":154024},"geometry":{"x":174962.47000000067,"y":2539942.4500000011}},{"attributes":{"ID":154026,"DIS_CODE":0,"TOWNNAME":"仁德區","LI":"後壁里","LIN":"23鄰","STREET":"中正路","SECT":"二段","MAREA":" ","LANE":"９７巷","ALLEY":"６４弄","HOUSE_NO":"４號","E_COORD97":173116.17999999999,"N_COORD97":2538569.0299999998,"ADDRESS":"中正路二段９７巷６４弄４號","OBJECTID":154025},"geometry":{"x":173116.18000000063,"y":2538569.0300000012}},{"attributes":{"ID":154027,"DIS_CODE":0,"TOWNNAME":"仁德區","LI":"後壁里","LIN":"19鄰","STREET":"德崙路","SECT":" ","MAREA":" ","LANE":"２１巷","ALLEY":"９弄","HOUSE_NO":"５號","E_COORD97":173252.59,"N_COORD97":2538651.02,"ADDRESS":"德崙路２１巷９弄５號","OBJECTID":154026},"geometry":{"x":173252.59000000078,"y":2538651.0200000014}},{"attributes":{"ID":154028,"DIS_CODE":0,"TOWNNAME":"仁德區","LI":"後壁里","LIN":"41鄰","STREET":"德善路","SECT":" ","MAREA":" ","LANE":"２５１巷","ALLEY":"７弄","HOUSE_NO":"１５號","E_COORD97":173841.73000000001,"N_COORD97":2538723.7400000002,"ADDRESS":"德善路２５１巷７弄１５號","OBJECTID":154027},"geometry":{"x":173841.73000000045,"y":2538723.7400000039}},{"attributes":{"ID":154029,"DIS_CODE":0,"TOWNNAME":"歸仁區","LI":"南保里","LIN":"19鄰","STREET":"文化街","SECT":"三段","MAREA":" ","LANE":"６１巷","ALLEY":" ","HOUSE_NO":"５號","E_COORD97":176904.19,"N_COORD97":2541209.3300000001,"ADDRESS":"文化街三段６１巷５號","OBJECTID":154028},"geometry":{"x":176904.19000000134,"y":2541209.3300000019}},{"attributes":{"ID":154030,"DIS_CODE":0,"TOWNNAME":"中西區","LI":"民生里","LIN":"15鄰","STREET":"金華路","SECT":"三段","MAREA":" ","LANE":" ","ALLEY":" ","HOUSE_NO":"９５號","E_COORD97":167202.60999999999,"N_COORD97":2543460.0800000001,"ADDRESS":"金華路三段９５號","OBJECTID":154029},"geometry":{"x":167202.6100000022,"y":2543460.0800000001}},{"attributes":{"ID":154031,"DIS_CODE":0,"TOWNNAME":"中西區","LI":"民生里","LIN":"15鄰","STREET":"金華路","SECT":"三段","MAREA":" ","LANE":" ","ALLEY":" ","HOUSE_NO":"９７號","E_COORD97":167203.29000000001,"N_COORD97":2543466,"ADDRESS":"金華路三段９７號","OBJECTID":154030},"geometry":{"x":167203.29000000097,"y":2543466.0000000019}},{"attributes":{"ID":154032,"DIS_CODE":0,"TOWNNAME":"仁德區","LI":"新田里","LIN":"4鄰","STREET":"勝利路","SECT":" ","MAREA":" ","LANE":"１３２巷","ALLEY":"１０弄","HOUSE_NO":"３８號","E_COORD97":174385.54999999999,"N_COORD97":2539468.4100000001,"ADDRESS":"勝利路１３２巷１０弄３８號","OBJECTID":154031},"geometry":{"x":174385.55000000075,"y":2539468.4100000039}},{"attributes":{"ID":154033,"DIS_CODE":0,"TOWNNAME":"仁德區","LI":"後壁里","LIN":"30鄰","STREET":"德洋一街","SECT":" ","MAREA":" ","LANE":"３７巷","ALLEY":"１４弄","HOUSE_NO":"１６號","E_COORD97":173091.54000000001,"N_COORD97":2539244.2599999998,"ADDRESS":"德洋一街３７巷１４弄１６號","OBJECTID":154032},"geometry":{"x":173091.54000000004,"y":2539244.2599999998}},{"attributes":{"ID":154034,"DIS_CODE":0,"TOWNNAME":"安南區","LI":"佃西里","LIN":"2鄰","STREET":"公學路","SECT":"四段","MAREA":" ","LANE":"１２６巷","ALLEY":"１２２弄","HOUSE_NO":"２４號","E_COORD97":165242.79999999999,"N_COORD97":2551985.1000000001,"ADDRESS":"公學路四段１２６巷１２２弄２４號","OBJECTID":154033},"geometry":{"x":165242.80000000168,"y":2551985.1000000015}},{"attributes":{"ID":154035,"DIS_CODE":0,"TOWNNAME":"安南區","LI":"佃西里","LIN":"2鄰","STREET":"公學路","SECT":"四段","MAREA":" ","LANE":"１２６巷","ALLEY":"１２２弄","HOUSE_NO":"１０號","E_COORD97":165290.81401900001,"N_COORD97":2552015.7171100001,"ADDRESS":"公學路四段１２６巷１２２弄１０號","OBJECTID":154034},"geometry":{"x":165290.81401900109,"y":2552015.7171080019}},{"attributes":{"ID":154036,"DIS_CODE":0,"TOWNNAME":"安南區","LI":"佃西里","LIN":"2鄰","STREET":"公學路","SECT":"四段","MAREA":" ","LANE":"１２６巷","ALLEY":"１２２弄","HOUSE_NO":"１１號","E_COORD97":165290.39028399999,"N_COORD97":2552020.4796099998,"ADDRESS":"公學路四段１２６巷１２２弄１１號","OBJECTID":154035},"geometry":{"x":165290.39028399996,"y":2552020.4796059988}},{"attributes":{"ID":154037,"DIS_CODE":0,"TOWNNAME":"安南區","LI":"佃西里","LIN":"2鄰","STREET":"公學路","SECT":"四段","MAREA":" ","LANE":"１２６巷","ALLEY":"１２２弄","HOUSE_NO":"２５號","E_COORD97":165246.321861,"N_COORD97":2551988.8354600002,"ADDRESS":"公學路四段１２６巷１２２弄２５號","OBJECTID":154036},"geometry":{"x":165246.32186100073,"y":2551988.8354560006}},{"attributes":{"ID":154038,"DIS_CODE":0,"TOWNNAME":"安南區","LI":"佃西里","LIN":"2鄰","STREET":"公學路","SECT":"四段","MAREA":" ","LANE":"１２６巷","ALLEY":"１２２弄","HOUSE_NO":"２２號","E_COORD97":165261.78818199999,"N_COORD97":2551984.81379,"ADDRESS":"公學路四段１２６巷１２２弄２２號","OBJECTID":154037},"geometry":{"x":165261.7881819997,"y":2551984.8137919996}},{"attributes":{"ID":154039,"DIS_CODE":0,"TOWNNAME":"安南區","LI":"佃西里","LIN":"2鄰","STREET":"公學路","SECT":"四段","MAREA":" ","LANE":"１２６巷","ALLEY":"１２２弄","HOUSE_NO":"２１號","E_COORD97":165258.18643599999,"N_COORD97":2551989.5762900002,"ADDRESS":"公學路四段１２６巷１２２弄２１號","OBJECTID":154038},"geometry":{"x":165258.18643600028,"y":2551989.576289}},{"attributes":{"ID":154040,"DIS_CODE":0,"TOWNNAME":"安南區","LI":"佃西里","LIN":"2鄰","STREET":"公學路","SECT":"四段","MAREA":" ","LANE":"１２６巷","ALLEY":"１２２弄","HOUSE_NO":"２０號","E_COORD97":165261.36444800001,"N_COORD97":2551992.8571199998,"ADDRESS":"公學路四段１２６巷１２２弄２０號","OBJECTID":154039},"geometry":{"x":165261.36444800068,"y":2551992.8571210001}},{"attributes":{"ID":154041,"DIS_CODE":0,"TOWNNAME":"安南區","LI":"佃西里","LIN":"2鄰","STREET":"公學路","SECT":"四段","MAREA":" ","LANE":"１２６巷","ALLEY":"１２２弄","HOUSE_NO":"１９號","E_COORD97":165260.09324300001,"N_COORD97":2551997.61962,"ADDRESS":"公學路四段１２６巷１２２弄１９號","OBJECTID":154040},"geometry":{"x":165260.09324300103,"y":2551997.6196180023}},{"attributes":{"ID":154042,"DIS_CODE":0,"TOWNNAME":"仁德區","LI":"後壁里","LIN":"18鄰","STREET":"德南路","SECT":" ","MAREA":" ","LANE":"２２巷","ALLEY":"９弄","HOUSE_NO":"５２號","E_COORD97":173373.17000000001,"N_COORD97":2538661.8700000001,"ADDRESS":"德南路２２巷９弄５２號","OBJECTID":154041},"geometry":{"x":173373.16999999993,"y":2538661.870000001}},{"attributes":{"ID":154043,"DIS_CODE":0,"TOWNNAME":"仁德區","LI":"後壁里","LIN":"18鄰","STREET":"德南路","SECT":" ","MAREA":" ","LANE":"２２巷","ALLEY":"９弄","HOUSE_NO":"４０號","E_COORD97":173356.35000000001,"N_COORD97":2538675.1200000001,"ADDRESS":"德南路２２巷９弄４０號","OBJECTID":154042},"geometry":{"x":173356.34999999963,"y":2538675.1200000029}},{"attributes":{"ID":154044,"DIS_CODE":0,"TOWNNAME":"安南區","LI":"佃西里","LIN":"2鄰","STREET":"公學路","SECT":"四段","MAREA":" ","LANE":"１２６巷","ALLEY":"１２２弄","HOUSE_NO":"２３號","E_COORD97":165258.61017100001,"N_COORD97":2551980.6862900001,"ADDRESS":"公學路四段１２６巷１２２弄２３號","OBJECTID":154043},"geometry":{"x":165258.6101710014,"y":2551980.6862940025}},{"attributes":{"ID":154045,"DIS_CODE":0,"TOWNNAME":"玉井區","LI":"玉田里","LIN":"19鄰","STREET":"民主街","SECT":" ","MAREA":" ","LANE":" ","ALLEY":" ","HOUSE_NO":"７６號","E_COORD97":195070.25,"N_COORD97":2558094.2799999998,"ADDRESS":"民主街７６號","OBJECTID":154044},"geometry":{"x":195070.25000000186,"y":2558094.2799999993}},{"attributes":{"ID":154046,"DIS_CODE":0,"TOWNNAME":"東區","LI":"龍山里","LIN":" ","STREET":"林森路","SECT":"一段","MAREA":" ","LANE":" ","ALLEY":" ","HOUSE_NO":"３５０號","E_COORD97":170117.66,"N_COORD97":2542696.7200000002,"ADDRESS":"林森路一段３５０號","OBJECTID":154045},"geometry":{"x":170117.65999999922,"y":2542696.7200000007}},{"attributes":{"ID":154047,"DIS_CODE":0,"TOWNNAME":"東區","LI":"龍山里","LIN":" ","STREET":"府連路","SECT":" ","MAREA":" ","LANE":" ","ALLEY":" ","HOUSE_NO":"４５６號","E_COORD97":169760.54999999999,"N_COORD97":2542986.98,"ADDRESS":"府連路４５６號","OBJECTID":154046},"geometry":{"x":169760.55000000168,"y":2542986.9800000004}},{"attributes":{"ID":154048,"DIS_CODE":0,"TOWNNAME":"東區","LI":"龍山里","LIN":" ","STREET":"長榮路","SECT":"一段","MAREA":" ","LANE":" ","ALLEY":" ","HOUSE_NO":"２２９號","E_COORD97":169874.41,"N_COORD97":2542961.0699999998,"ADDRESS":"長榮路一段２２９號","OBJECTID":154047},"geometry":{"x":169874.41000000108,"y":2542961.0700000022}},{"attributes":{"ID":154049,"DIS_CODE":0,"TOWNNAME":"東區","LI":"龍山里","LIN":" ","STREET":"東門路","SECT":"一段","MAREA":" ","LANE":" ","ALLEY":" ","HOUSE_NO":"３６６號","E_COORD97":169872.01000000001,"N_COORD97":2542971.0699999998,"ADDRESS":"東門路一段３６６號","OBJECTID":154048},"geometry":{"x":169872.00999999978,"y":2542971.0700000022}},{"attributes":{"ID":154050,"DIS_CODE":0,"TOWNNAME":"東區","LI":"衛國里","LIN":"20鄰","STREET":"林森路","SECT":"二段","MAREA":" ","LANE":" ","ALLEY":" ","HOUSE_NO":"１２６號","E_COORD97":170423.69,"N_COORD97":2543183.0899999999,"ADDRESS":"林森路二段１２６號","OBJECTID":154049},"geometry":{"x":170423.69000000134,"y":2543183.0900000017}},{"attributes":{"ID":154051,"DIS_CODE":0,"TOWNNAME":"東區","LI":"龍山里","LIN":"19鄰","STREET":"德光街","SECT":" ","MAREA":" ","LANE":" ","ALLEY":" ","HOUSE_NO":"６號","E_COORD97":170534.78,"N_COORD97":2542705.4300000002,"ADDRESS":"德光街６號","OBJECTID":154050},"geometry":{"x":170534.78000000119,"y":2542705.4300000034}},{"attributes":{"ID":154052,"DIS_CODE":0,"TOWNNAME":"東區","LI":"關聖里","LIN":" ","STREET":"裕農路","SECT":" ","MAREA":" ","LANE":" ","ALLEY":" ","HOUSE_NO":"６８８號之４","E_COORD97":171767.48999999999,"N_COORD97":2543205.46,"ADDRESS":"裕農路６８８號之４","OBJECTID":154051},"geometry":{"x":171767.49000000115,"y":2543205.4600000028}},{"attributes":{"ID":154053,"DIS_CODE":0,"TOWNNAME":"東區","LI":"關聖里","LIN":" ","STREET":"裕農路","SECT":" ","MAREA":" ","LANE":" ","ALLEY":" ","HOUSE_NO":"６８８號之８","E_COORD97":171767.48999999999,"N_COORD97":2543197.9199999999,"ADDRESS":"裕農路６８８號之８","OBJECTID":154052},"geometry":{"x":171767.49000000115,"y":2543197.9200000018}},{"attributes":{"ID":154054,"DIS_CODE":0,"TOWNNAME":"東區","LI":"關聖里","LIN":" ","STREET":"裕農路","SECT":" ","MAREA":" ","LANE":" ","ALLEY":" ","HOUSE_NO":"６８８號之９","E_COORD97":171775.97,"N_COORD97":2543189.4399999999,"ADDRESS":"裕農路６８８號之９","OBJECTID":154053},"geometry":{"x":171775.96999999974,"y":2543189.4399999995}},{"attributes":{"ID":154055,"DIS_CODE":0,"TOWNNAME":"新市區","LI":"港墘里","LIN":"1鄰","STREET":"民族路","SECT":" ","MAREA":" ","LANE":" ","ALLEY":" ","HOUSE_NO":"７６號","E_COORD97":178329.98999999999,"N_COORD97":2553731.29,"ADDRESS":"民族路７６號","OBJECTID":154054},"geometry":{"x":178329.99000000022,"y":2553731.2900000028}},{"attributes":{"ID":154056,"DIS_CODE":0,"TOWNNAME":"新市區","LI":"港墘里","LIN":"1鄰","STREET":"民族路","SECT":" ","MAREA":" ","LANE":" ","ALLEY":" ","HOUSE_NO":"２之２１號","E_COORD97":178647.67999999999,"N_COORD97":2553950.5499999998,"ADDRESS":"民族路２之２１號","OBJECTID":154055},"geometry":{"x":178647.68000000063,"y":2553950.5500000007}},{"attributes":{"ID":154057,"DIS_CODE":0,"TOWNNAME":"仁德區","LI":"新田里","LIN":"4鄰","STREET":"勝利路","SECT":" ","MAREA":" ","LANE":"１５０巷","ALLEY":"２弄","HOUSE_NO":"８號","E_COORD97":174377.20000000001,"N_COORD97":2539528.2599999998,"ADDRESS":"勝利路１５０巷２弄８號","OBJECTID":154056},"geometry":{"x":174377.20000000019,"y":2539528.2600000016}},{"attributes":{"ID":154058,"DIS_CODE":0,"TOWNNAME":"安南區","LI":"佃西里","LIN":"2鄰","STREET":"公學路","SECT":"四段","MAREA":" ","LANE":"１２６巷","ALLEY":"１２２弄","HOUSE_NO":"１６號","E_COORD97":165265.389929,"N_COORD97":2552008.62628,"ADDRESS":"公學路四段１２６巷１２２弄１６號","OBJECTID":154057},"geometry":{"x":165265.38992900215,"y":2552008.6262790021}},{"attributes":{"ID":154059,"DIS_CODE":0,"TOWNNAME":"安南區","LI":"佃西里","LIN":"2鄰","STREET":"公學路","SECT":"四段","MAREA":" ","LANE":"１２６巷","ALLEY":"１２２弄","HOUSE_NO":"１８號","E_COORD97":165263.27125399999,"N_COORD97":2552001.3237800002,"ADDRESS":"公學路四段１２６巷１２２弄１８號","OBJECTID":154058},"geometry":{"x":165263.27125400025,"y":2552001.3237830009}},{"attributes":{"ID":154060,"DIS_CODE":0,"TOWNNAME":"新市區","LI":"港墘里","LIN":"18鄰","STREET":"南港街","SECT":" ","MAREA":" ","LANE":" ","ALLEY":" ","HOUSE_NO":"８１號","E_COORD97":178088.59,"N_COORD97":2552740,"ADDRESS":"南港街８１號","OBJECTID":154059},"geometry":{"x":178088.58999999892,"y":2552740}},{"attributes":{"ID":154061,"DIS_CODE":0,"TOWNNAME":"新市區","LI":"港墘里","LIN":"13鄰","STREET":"中山路","SECT":" ","MAREA":" ","LANE":" ","ALLEY":" ","HOUSE_NO":"１０４號","E_COORD97":178393.76999999999,"N_COORD97":2552794.5,"ADDRESS":"中山路１０４號","OBJECTID":154060},"geometry":{"x":178393.76999999955,"y":2552794.5}},{"attributes":{"ID":154062,"DIS_CODE":0,"TOWNNAME":"龍崎區","LI":"崎頂里","LIN":"5鄰","STREET":" ","SECT":" ","MAREA":"新市子","LANE":" ","ALLEY":" ","HOUSE_NO":"１８７號","E_COORD97":184406.26999999999,"N_COORD97":2540567.25,"ADDRESS":"新市子１８７號","OBJECTID":154061},"geometry":{"x":184406.26999999955,"y":2540567.25}},{"attributes":{"ID":154063,"DIS_CODE":0,"TOWNNAME":"龍崎區","LI":"大坪里","LIN":"5鄰","STREET":" ","SECT":" ","MAREA":"大坪","LANE":" ","ALLEY":" ","HOUSE_NO":"１號之１","E_COORD97":187810.25,"N_COORD97":2537013.2999999998,"ADDRESS":"大坪１號之１","OBJECTID":154062},"geometry":{"x":187810.25000000093,"y":2537013.3000000026}},{"attributes":{"ID":154064,"DIS_CODE":0,"TOWNNAME":"安南區","LI":"佃西里","LIN":"2鄰","STREET":"公學路","SECT":"四段","MAREA":" ","LANE":"１２６巷","ALLEY":"１２２弄","HOUSE_NO":"１２號","E_COORD97":165264.96619400001,"N_COORD97":2552025.5595999998,"ADDRESS":"公學路四段１２６巷１２２弄１２號","OBJECTID":154063},"geometry":{"x":165264.96619400103,"y":2552025.5596030019}},{"attributes":{"ID":154065,"DIS_CODE":0,"TOWNNAME":"龍崎區","LI":"崎頂里","LIN":"5鄰","STREET":" ","SECT":" ","MAREA":"新市子","LANE":" ","ALLEY":" ","HOUSE_NO":"１８５號","E_COORD97":184411.26999999999,"N_COORD97":2540557.25,"ADDRESS":"新市子１８５號","OBJECTID":154064},"geometry":{"x":184411.26999999955,"y":2540557.25}},{"attributes":{"ID":154066,"DIS_CODE":0,"TOWNNAME":"龍崎區","LI":"崎頂里","LIN":"5鄰","STREET":" ","SECT":" ","MAREA":"新市子","LANE":" ","ALLEY":" ","HOUSE_NO":"１７７號","E_COORD97":184450.97,"N_COORD97":2540548.25,"ADDRESS":"新市子１７７號","OBJECTID":154065},"geometry":{"x":184450.96999999974,"y":2540548.2500000019}},{"attributes":{"ID":154067,"DIS_CODE":0,"TOWNNAME":"安南區","LI":"佃西里","LIN":"2鄰","STREET":"公學路","SECT":"四段","MAREA":" ","LANE":"１２６巷","ALLEY":"１２２弄","HOUSE_NO":"１３號","E_COORD97":165264.75432599999,"N_COORD97":2552020.5854400001,"ADDRESS":"公學路四段１２６巷１２２弄１３號","OBJECTID":154066},"geometry":{"x":165264.75432600081,"y":2552020.5854389984}},{"attributes":{"ID":154068,"DIS_CODE":0,"TOWNNAME":"安南區","LI":"佃西里","LIN":"2鄰","STREET":"公學路","SECT":"四段","MAREA":" ","LANE":"１２６巷","ALLEY":"１２２弄","HOUSE_NO":"１４號","E_COORD97":165264.33059100001,"N_COORD97":2552016.8812699998,"ADDRESS":"公學路四段１２６巷１２２弄１４號","OBJECTID":154067},"geometry":{"x":165264.33059099875,"y":2552016.8812740017}},{"attributes":{"ID":154069,"DIS_CODE":0,"TOWNNAME":"龍崎區","LI":"大坪里","LIN":"5鄰","STREET":" ","SECT":" ","MAREA":"大坪","LANE":" ","ALLEY":" ","HOUSE_NO":"５號","E_COORD97":187768.22,"N_COORD97":2536875.25,"ADDRESS":"大坪５號","OBJECTID":154068},"geometry":{"x":187768.21999999974,"y":2536875.25}},{"attributes":{"ID":154070,"DIS_CODE":0,"TOWNNAME":"龍崎區","LI":"崎頂里","LIN":"5鄰","STREET":" ","SECT":" ","MAREA":"新市子","LANE":" ","ALLEY":" ","HOUSE_NO":"１７８號","E_COORD97":184446.26999999999,"N_COORD97":2540546.25,"ADDRESS":"新市子１７８號","OBJECTID":154069},"geometry":{"x":184446.27000000048,"y":2540546.25}},{"attributes":{"ID":154071,"DIS_CODE":0,"TOWNNAME":"龍崎區","LI":"中坑里","LIN":"5鄰","STREET":" ","SECT":" ","MAREA":"三塊厝","LANE":" ","ALLEY":" ","HOUSE_NO":"２６號","E_COORD97":184901.29000000001,"N_COORD97":2538704.27,"ADDRESS":"三塊厝２６號","OBJECTID":154070},"geometry":{"x":184901.29000000097,"y":2538704.2699999996}},{"attributes":{"ID":154072,"DIS_CODE":0,"TOWNNAME":"龍崎區","LI":"中坑里","LIN":"5鄰","STREET":" ","SECT":" ","MAREA":"三塊厝","LANE":" ","ALLEY":" ","HOUSE_NO":"１４之３號","E_COORD97":185709.48999999999,"N_COORD97":2539184.2999999998,"ADDRESS":"三塊厝１４之３號","OBJECTID":154071},"geometry":{"x":185709.49000000022,"y":2539184.3000000007}},{"attributes":{"ID":154073,"DIS_CODE":0,"TOWNNAME":"龍崎區","LI":"崎頂里","LIN":"5鄰","STREET":" ","SECT":" ","MAREA":"新市子","LANE":" ","ALLEY":" ","HOUSE_NO":"１８８號","E_COORD97":184405.17000000001,"N_COORD97":2540572.25,"ADDRESS":"新市子１８８號","OBJECTID":154072},"geometry":{"x":184405.17000000086,"y":2540572.2500000019}},{"attributes":{"ID":154074,"DIS_CODE":0,"TOWNNAME":"龍崎區","LI":"崎頂里","LIN":"5鄰","STREET":" ","SECT":" ","MAREA":"新市子","LANE":" ","ALLEY":" ","HOUSE_NO":"１６４號","E_COORD97":184485.97,"N_COORD97":2540577.25,"ADDRESS":"新市子１６４號","OBJECTID":154073},"geometry":{"x":184485.97000000067,"y":2540577.25}},{"attributes":{"ID":154075,"DIS_CODE":0,"TOWNNAME":"善化區","LI":"溪美里","LIN":"5鄰","STREET":" ","SECT":" ","MAREA":"溪尾","LANE":" ","ALLEY":" ","HOUSE_NO":"４３號","E_COORD97":176688.20999999999,"N_COORD97":2561161.52,"ADDRESS":"溪尾４３號","OBJECTID":154074},"geometry":{"x":176688.21000000089,"y":2561161.5199999996}},{"attributes":{"ID":154076,"DIS_CODE":0,"TOWNNAME":"安南區","LI":"佃西里","LIN":"2鄰","STREET":"公學路","SECT":"四段","MAREA":" ","LANE":"１２６巷","ALLEY":"１２２弄","HOUSE_NO":"１７號","E_COORD97":165262.21191700001,"N_COORD97":2552004.9221100002,"ADDRESS":"公學路四段１２６巷１２２弄１７號","OBJECTID":154075},"geometry":{"x":165262.21191700175,"y":2552004.9221139997}},{"attributes":{"ID":154077,"DIS_CODE":0,"TOWNNAME":"龍崎區","LI":"大坪里","LIN":"5鄰","STREET":" ","SECT":" ","MAREA":"大坪","LANE":" ","ALLEY":" ","HOUSE_NO":"２號","E_COORD97":187836.92000000001,"N_COORD97":2536986.25,"ADDRESS":"大坪２號","OBJECTID":154076},"geometry":{"x":187836.91999999993,"y":2536986.25}},{"attributes":{"ID":154078,"DIS_CODE":0,"TOWNNAME":"安南區","LI":"佃西里","LIN":"2鄰","STREET":"公學路","SECT":"四段","MAREA":" ","LANE":"１２６巷","ALLEY":"１２２弄","HOUSE_NO":"１５號","E_COORD97":165262.42378499999,"N_COORD97":2552013.0712799998,"ADDRESS":"公學路四段１２６巷１２２弄１５號","OBJECTID":154077},"geometry":{"x":165262.42378500197,"y":2552013.0712760016}},{"attributes":{"ID":154079,"DIS_CODE":0,"TOWNNAME":"安南區","LI":"佃西里","LIN":"2鄰","STREET":"公學路","SECT":"四段","MAREA":" ","LANE":"１２６巷","ALLEY":"１２２弄","HOUSE_NO":"２６號","E_COORD97":165246.74559599999,"N_COORD97":2551994.1271199998,"ADDRESS":"公學路四段１２６巷１２２弄２６號","OBJECTID":154078},"geometry":{"x":165246.74559599999,"y":2551994.1271200012}},{"attributes":{"ID":154080,"DIS_CODE":0,"TOWNNAME":"安南區","LI":"佃西里","LIN":"2鄰","STREET":"公學路","SECT":"四段","MAREA":" ","LANE":"１２６巷","ALLEY":"１２２弄","HOUSE_NO":"２７號","E_COORD97":165247.80493300001,"N_COORD97":2551998.0429500001,"ADDRESS":"公學路四段１２６巷１２２弄２７號","OBJECTID":154079},"geometry":{"x":165247.80493300036,"y":2551998.0429510009}},{"attributes":{"ID":154081,"DIS_CODE":0,"TOWNNAME":"安南區","LI":"佃西里","LIN":"2鄰","STREET":"公學路","SECT":"四段","MAREA":" ","LANE":"１２６巷","ALLEY":"１２２弄","HOUSE_NO":"２８號","E_COORD97":165248.65240200001,"N_COORD97":2552003.22878,"ADDRESS":"公學路四段１２６巷１２２弄２８號","OBJECTID":154080},"geometry":{"x":165248.65240199957,"y":2552003.228782}},{"attributes":{"ID":154082,"DIS_CODE":0,"TOWNNAME":"龍崎區","LI":"崎頂里","LIN":"5鄰","STREET":" ","SECT":" ","MAREA":"新市子","LANE":" ","ALLEY":" ","HOUSE_NO":"１８３號","E_COORD97":184416.17000000001,"N_COORD97":2540552.25,"ADDRESS":"新市子１８３號","OBJECTID":154081},"geometry":{"x":184416.16999999993,"y":2540552.2500000019}},{"attributes":{"ID":154083,"DIS_CODE":0,"TOWNNAME":"安南區","LI":"佃西里","LIN":"2鄰","STREET":"公學路","SECT":"四段","MAREA":" ","LANE":"１２６巷","ALLEY":"１２２弄","HOUSE_NO":"２９號","E_COORD97":165249.28800500001,"N_COORD97":2552008.2029499998,"ADDRESS":"公學路四段１２６巷１２２弄２９號","OBJECTID":154082},"geometry":{"x":165249.28800500091,"y":2552008.2029459998}},{"attributes":{"ID":154084,"DIS_CODE":0,"TOWNNAME":"仁德區","LI":"新田里","LIN":"4鄰","STREET":"勝利路","SECT":" ","MAREA":" ","LANE":"１５０巷","ALLEY":"３弄","HOUSE_NO":"２號","E_COORD97":174398.82999999999,"N_COORD97":2539511.77,"ADDRESS":"勝利路１５０巷３弄２號","OBJECTID":154083},"geometry":{"x":174398.83000000101,"y":2539511.7699999996}},{"attributes":{"ID":154085,"DIS_CODE":0,"TOWNNAME":"仁德區","LI":"後壁里","LIN":"30鄰","STREET":"德洋一街","SECT":" ","MAREA":" ","LANE":"３７巷","ALLEY":"１４弄","HOUSE_NO":"１２號","E_COORD97":173090.19,"N_COORD97":2539235.5099999998,"ADDRESS":"德洋一街３７巷１４弄１２號","OBJECTID":154084},"geometry":{"x":173090.19000000134,"y":2539235.5099999998}},{"attributes":{"ID":154086,"DIS_CODE":0,"TOWNNAME":"龍崎區","LI":"中坑里","LIN":"5鄰","STREET":" ","SECT":" ","MAREA":"三塊厝","LANE":" ","ALLEY":" ","HOUSE_NO":"１４之２號","E_COORD97":185708.98999999999,"N_COORD97":2539153.2999999998,"ADDRESS":"三塊厝１４之２號","OBJECTID":154085},"geometry":{"x":185708.99000000022,"y":2539153.3000000007}},{"attributes":{"ID":154087,"DIS_CODE":0,"TOWNNAME":"龍崎區","LI":"牛埔里","LIN":"5鄰","STREET":" ","SECT":" ","MAREA":"烏山腳","LANE":" ","ALLEY":" ","HOUSE_NO":"１１號","E_COORD97":189950.34,"N_COORD97":2536996.25,"ADDRESS":"烏山腳１１號","OBJECTID":154086},"geometry":{"x":189950.34000000078,"y":2536996.25}},{"attributes":{"ID":154088,"DIS_CODE":0,"TOWNNAME":"安南區","LI":"佃西里","LIN":"2鄰","STREET":"公學路","SECT":"四段","MAREA":" ","LANE":"１２６巷","ALLEY":"１２８弄","HOUSE_NO":"１０號","E_COORD97":165228.418913,"N_COORD97":2551951.6352900001,"ADDRESS":"公學路四段１２６巷１２８弄１０號","OBJECTID":154087},"geometry":{"x":165228.41891300026,"y":2551951.6352860015}},{"attributes":{"ID":154089,"DIS_CODE":0,"TOWNNAME":"西港區","LI":"港東里","LIN":"5鄰","STREET":" ","SECT":" ","MAREA":"下面厝","LANE":" ","ALLEY":" ","HOUSE_NO":"１８號","E_COORD97":169799.89000000001,"N_COORD97":2557845.5899999999,"ADDRESS":"下面厝１８號","OBJECTID":154088},"geometry":{"x":169799.88999999966,"y":2557845.5899999999}},{"attributes":{"ID":154090,"DIS_CODE":0,"TOWNNAME":"安南區","LI":"佃西里","LIN":"2鄰","STREET":"公學路","SECT":"四段","MAREA":" ","LANE":"１２６巷","ALLEY":"１２８弄","HOUSE_NO":"１６號","E_COORD97":165233.13296300001,"N_COORD97":2551968.7670499999,"ADDRESS":"公學路四段１２６巷１２８弄１６號","OBJECTID":154089},"geometry":{"x":165233.1329630008,"y":2551968.7670469992}},{"attributes":{"ID":154091,"DIS_CODE":0,"TOWNNAME":"西港區","LI":"港東里","LIN":"5鄰","STREET":" ","SECT":" ","MAREA":"下面厝","LANE":" ","ALLEY":" ","HOUSE_NO":"１９號","E_COORD97":169833.79000000001,"N_COORD97":2557834.8399999999,"ADDRESS":"下面厝１９號","OBJECTID":154090},"geometry":{"x":169833.7900000019,"y":2557834.8400000017}},{"attributes":{"ID":154092,"DIS_CODE":0,"TOWNNAME":"西港區","LI":"港東里","LIN":"5鄰","STREET":" ","SECT":" ","MAREA":"下面厝","LANE":" ","ALLEY":" ","HOUSE_NO":"２０號","E_COORD97":169811.82000000001,"N_COORD97":2557875.5600000001,"ADDRESS":"下面厝２０號","OBJECTID":154091},"geometry":{"x":169811.82000000216,"y":2557875.5600000024}},{"attributes":{"ID":154093,"DIS_CODE":0,"TOWNNAME":"西港區","LI":"港東里","LIN":"5鄰","STREET":" ","SECT":" ","MAREA":"下面厝","LANE":" ","ALLEY":" ","HOUSE_NO":"２１號之２","E_COORD97":169728.07999999999,"N_COORD97":2557875.2999999998,"ADDRESS":"下面厝２１號之２","OBJECTID":154092},"geometry":{"x":169728.08000000007,"y":2557875.3000000007}},{"attributes":{"ID":154094,"DIS_CODE":0,"TOWNNAME":"西港區","LI":"港東里","LIN":"5鄰","STREET":" ","SECT":" ","MAREA":"下面厝","LANE":" ","ALLEY":" ","HOUSE_NO":"２１之３號","E_COORD97":169767.14000000001,"N_COORD97":2557871.9199999999,"ADDRESS":"下面厝２１之３號","OBJECTID":154093},"geometry":{"x":169767.1400000006,"y":2557871.9200000018}},{"attributes":{"ID":154095,"DIS_CODE":0,"TOWNNAME":"西港區","LI":"港東里","LIN":"5鄰","STREET":" ","SECT":" ","MAREA":"下面厝","LANE":" ","ALLEY":" ","HOUSE_NO":"２２之２號","E_COORD97":169808.76999999999,"N_COORD97":2557893.0600000001,"ADDRESS":"下面厝２２之２號","OBJECTID":154094},"geometry":{"x":169808.76999999955,"y":2557893.0600000005}},{"attributes":{"ID":154096,"DIS_CODE":0,"TOWNNAME":"西港區","LI":"港東里","LIN":"5鄰","STREET":" ","SECT":" ","MAREA":"下面厝","LANE":" ","ALLEY":" ","HOUSE_NO":"２４號","E_COORD97":169887.14999999999,"N_COORD97":2557873.96,"ADDRESS":"下面厝２４號","OBJECTID":154095},"geometry":{"x":169887.15000000037,"y":2557873.9600000009}},{"attributes":{"ID":154097,"DIS_CODE":0,"TOWNNAME":"玉井區","LI":"玉田里","LIN":"19鄰","STREET":"民族路","SECT":" ","MAREA":" ","LANE":" ","ALLEY":" ","HOUSE_NO":"５８號","E_COORD97":195112.04000000001,"N_COORD97":2558094.2799999998,"ADDRESS":"民族路５８號","OBJECTID":154096},"geometry":{"x":195112.04000000004,"y":2558094.2799999993}},{"attributes":{"ID":154098,"DIS_CODE":0,"TOWNNAME":"西港區","LI":"港東里","LIN":"5鄰","STREET":" ","SECT":" ","MAREA":"下面厝","LANE":" ","ALLEY":" ","HOUSE_NO":"２５號之１０","E_COORD97":169925.01000000001,"N_COORD97":2557838.5600000001,"ADDRESS":"下面厝２５號之１０","OBJECTID":154097},"geometry":{"x":169925.00999999885,"y":2557838.5600000005}},{"attributes":{"ID":154099,"DIS_CODE":0,"TOWNNAME":"西港區","LI":"港東里","LIN":"5鄰","STREET":" ","SECT":" ","MAREA":"下面厝","LANE":" ","ALLEY":" ","HOUSE_NO":"２５號之１１","E_COORD97":169925.44,"N_COORD97":2557834.1699999999,"ADDRESS":"下面厝２５號之１１","OBJECTID":154098},"geometry":{"x":169925.44000000041,"y":2557834.1699999999}},{"attributes":{"ID":154100,"DIS_CODE":0,"TOWNNAME":"西港區","LI":"港東里","LIN":"5鄰","STREET":" ","SECT":" ","MAREA":"下面厝","LANE":" ","ALLEY":" ","HOUSE_NO":"２５號之１２","E_COORD97":169925.62,"N_COORD97":2557829.0499999998,"ADDRESS":"下面厝２５號之１２","OBJECTID":154099},"geometry":{"x":169925.62000000011,"y":2557829.0500000007}},{"attributes":{"ID":154101,"DIS_CODE":0,"TOWNNAME":"安南區","LI":"佃西里","LIN":"2鄰","STREET":"公學路","SECT":"四段","MAREA":" ","LANE":"１２６巷","ALLEY":"１２２弄","HOUSE_NO":"３號","E_COORD97":165284.03426099999,"N_COORD97":2551988.5179599999,"ADDRESS":"公學路四段１２６巷１２２弄３號","OBJECTID":154100},"geometry":{"x":165284.03426100034,"y":2551988.5179560035}},{"attributes":{"ID":154102,"DIS_CODE":0,"TOWNNAME":"西港區","LI":"港東里","LIN":"5鄰","STREET":" ","SECT":" ","MAREA":"下面厝","LANE":" ","ALLEY":" ","HOUSE_NO":"２５號之１３","E_COORD97":169925.70000000001,"N_COORD97":2557824.6600000001,"ADDRESS":"下面厝２５號之１３","OBJECTID":154101},"geometry":{"x":169925.70000000019,"y":2557824.6600000001}},{"attributes":{"ID":154103,"DIS_CODE":0,"TOWNNAME":"安南區","LI":"佃西里","LIN":"2鄰","STREET":"公學路","SECT":"四段","MAREA":" ","LANE":"１２６巷","ALLEY":"１２２弄","HOUSE_NO":"５號","E_COORD97":165286.57667000001,"N_COORD97":2551996.1379499999,"ADDRESS":"公學路四段１２６巷１２２弄５號","OBJECTID":154102},"geometry":{"x":165286.57667000126,"y":2551996.1379520018}},{"attributes":{"ID":154104,"DIS_CODE":0,"TOWNNAME":"西港區","LI":"港東里","LIN":"5鄰","STREET":" ","SECT":" ","MAREA":"下面厝","LANE":" ","ALLEY":" ","HOUSE_NO":"２５號之１４","E_COORD97":169925.60000000001,"N_COORD97":2557819.6000000001,"ADDRESS":"下面厝２５號之１４","OBJECTID":154103},"geometry":{"x":169925.59999999963,"y":2557819.6000000015}},{"attributes":{"ID":154105,"DIS_CODE":0,"TOWNNAME":"西港區","LI":"港東里","LIN":"5鄰","STREET":" ","SECT":" ","MAREA":"下面厝","LANE":" ","ALLEY":" ","HOUSE_NO":"２５號之１５","E_COORD97":169925.89999999999,"N_COORD97":2557815.1000000001,"ADDRESS":"下面厝２５號之１５","OBJECTID":154104},"geometry":{"x":169925.90000000037,"y":2557815.1000000034}},{"attributes":{"ID":154106,"DIS_CODE":0,"TOWNNAME":"西港區","LI":"竹林里","LIN":"5鄰","STREET":" ","SECT":" ","MAREA":"大竹林","LANE":" ","ALLEY":" ","HOUSE_NO":"４１號之１","E_COORD97":166593.10999999999,"N_COORD97":2558153.1000000001,"ADDRESS":"大竹林４１號之１","OBJECTID":154105},"geometry":{"x":166593.11000000127,"y":2558153.0999999996}},{"attributes":{"ID":154107,"DIS_CODE":0,"TOWNNAME":"西港區","LI":"港東里","LIN":"5鄰","STREET":" ","SECT":" ","MAREA":"下面厝","LANE":" ","ALLEY":" ","HOUSE_NO":"２５號之１６","E_COORD97":169926.12,"N_COORD97":2557809.1400000001,"ADDRESS":"下面厝２５號之１６","OBJECTID":154106},"geometry":{"x":169926.12000000011,"y":2557809.1400000043}},{"attributes":{"ID":154108,"DIS_CODE":0,"TOWNNAME":"西港區","LI":"港東里","LIN":"5鄰","STREET":" ","SECT":" ","MAREA":"下面厝","LANE":" ","ALLEY":" ","HOUSE_NO":"２５號之１７","E_COORD97":169925.91,"N_COORD97":2557804.0600000001,"ADDRESS":"下面厝２５號之１７","OBJECTID":154107},"geometry":{"x":169925.91000000015,"y":2557804.0600000024}},{"attributes":{"ID":154109,"DIS_CODE":0,"TOWNNAME":"西港區","LI":"港東里","LIN":"5鄰","STREET":" ","SECT":" ","MAREA":"下面厝","LANE":" ","ALLEY":" ","HOUSE_NO":"２５號之１８","E_COORD97":169953.10999999999,"N_COORD97":2557813.25,"ADDRESS":"下面厝２５號之１８","OBJECTID":154108},"geometry":{"x":169953.11000000034,"y":2557813.25}},{"attributes":{"ID":154110,"DIS_CODE":0,"TOWNNAME":"西港區","LI":"港東里","LIN":"5鄰","STREET":" ","SECT":" ","MAREA":"下面厝","LANE":" ","ALLEY":" ","HOUSE_NO":"２５號之１９","E_COORD97":169946.07999999999,"N_COORD97":2557813.54,"ADDRESS":"下面厝２５號之１９","OBJECTID":154109},"geometry":{"x":169946.08000000101,"y":2557813.5399999991}},{"attributes":{"ID":154111,"DIS_CODE":0,"TOWNNAME":"西港區","LI":"港東里","LIN":"5鄰","STREET":" ","SECT":" ","MAREA":"下面厝","LANE":" ","ALLEY":" ","HOUSE_NO":"２５號之１","E_COORD97":169905.12,"N_COORD97":2557863.79,"ADDRESS":"下面厝２５號之１","OBJECTID":154110},"geometry":{"x":169905.12000000104,"y":2557863.7899999991}},{"attributes":{"ID":154112,"DIS_CODE":0,"TOWNNAME":"西港區","LI":"港東里","LIN":"5鄰","STREET":" ","SECT":" ","MAREA":"下面厝","LANE":" ","ALLEY":" ","HOUSE_NO":"２５號之２０","E_COORD97":169943.85000000001,"N_COORD97":2557826.29,"ADDRESS":"下面厝２５號之２０","OBJECTID":154111},"geometry":{"x":169943.85000000056,"y":2557826.2899999991}},{"attributes":{"ID":154113,"DIS_CODE":0,"TOWNNAME":"西港區","LI":"港東里","LIN":"5鄰","STREET":" ","SECT":" ","MAREA":"下面厝","LANE":" ","ALLEY":" ","HOUSE_NO":"２５號之２１","E_COORD97":169943.79999999999,"N_COORD97":2557831.0600000001,"ADDRESS":"下面厝２５號之２１","OBJECTID":154112},"geometry":{"x":169943.80000000075,"y":2557831.0600000024}},{"attributes":{"ID":154114,"DIS_CODE":0,"TOWNNAME":"安南區","LI":"佃西里","LIN":"2鄰","STREET":"公學路","SECT":"四段","MAREA":" ","LANE":"１２６巷","ALLEY":"１２２弄","HOUSE_NO":"６號","E_COORD97":165289.754682,"N_COORD97":2551999.8421200002,"ADDRESS":"公學路四段１２６巷１２２弄６號","OBJECTID":154113},"geometry":{"x":165289.7546819998,"y":2551999.8421170004}},{"attributes":{"ID":154115,"DIS_CODE":0,"TOWNNAME":"西港區","LI":"港東里","LIN":"5鄰","STREET":" ","SECT":" ","MAREA":"下面厝","LANE":" ","ALLEY":" ","HOUSE_NO":"２５號之２２","E_COORD97":169943.70999999999,"N_COORD97":2557835.1800000002,"ADDRESS":"下面厝２５號之２２","OBJECTID":154114},"geometry":{"x":169943.70999999996,"y":2557835.1800000034}},{"attributes":{"ID":154116,"DIS_CODE":0,"TOWNNAME":"安南區","LI":"佃西里","LIN":"2鄰","STREET":"公學路","SECT":"四段","MAREA":" ","LANE":"１２６巷","ALLEY":"１２２弄","HOUSE_NO":"７號","E_COORD97":165288.90721199999,"N_COORD97":2552003.75795,"ADDRESS":"公學路四段１２６巷１２２弄７號","OBJECTID":154115},"geometry":{"x":165288.9072120022,"y":2552003.757948}},{"attributes":{"ID":154117,"DIS_CODE":0,"TOWNNAME":"安南區","LI":"佃西里","LIN":"2鄰","STREET":"公學路","SECT":"四段","MAREA":" ","LANE":"１２６巷","ALLEY":"１２２弄","HOUSE_NO":"９號","E_COORD97":165289.11908,"N_COORD97":2552012.0129399998,"ADDRESS":"公學路四段１２６巷１２２弄９號","OBJECTID":154116},"geometry":{"x":165289.11907999963,"y":2552012.0129440036}},{"attributes":{"ID":154118,"DIS_CODE":0,"TOWNNAME":"西港區","LI":"港東里","LIN":"5鄰","STREET":" ","SECT":" ","MAREA":"下面厝","LANE":" ","ALLEY":" ","HOUSE_NO":"２５號之２３","E_COORD97":169943.45000000001,"N_COORD97":2557839.3300000001,"ADDRESS":"下面厝２５號之２３","OBJECTID":154117},"geometry":{"x":169943.45000000112,"y":2557839.3300000019}},{"attributes":{"ID":154119,"DIS_CODE":0,"TOWNNAME":"西港區","LI":"港東里","LIN":"5鄰","STREET":" ","SECT":" ","MAREA":"下面厝","LANE":" ","ALLEY":" ","HOUSE_NO":"２５號之２４","E_COORD97":169943.84,"N_COORD97":2557843.6200000001,"ADDRESS":"下面厝２５號之２４","OBJECTID":154118},"geometry":{"x":169943.84000000078,"y":2557843.6200000048}},{"attributes":{"ID":154120,"DIS_CODE":0,"TOWNNAME":"西港區","LI":"港東里","LIN":"5鄰","STREET":" ","SECT":" ","MAREA":"下面厝","LANE":" ","ALLEY":" ","HOUSE_NO":"２５號之２５","E_COORD97":169943.38,"N_COORD97":2557848.1499999999,"ADDRESS":"下面厝２５號之２５","OBJECTID":154119},"geometry":{"x":169943.38000000082,"y":2557848.1500000004}},{"attributes":{"ID":154121,"DIS_CODE":0,"TOWNNAME":"西港區","LI":"港東里","LIN":"5鄰","STREET":" ","SECT":" ","MAREA":"下面厝","LANE":" ","ALLEY":" ","HOUSE_NO":"２５號之２６","E_COORD97":169945.35999999999,"N_COORD97":2557851.9300000002,"ADDRESS":"下面厝２５號之２６","OBJECTID":154120},"geometry":{"x":169945.3600000022,"y":2557851.9300000016}},{"attributes":{"ID":154122,"DIS_CODE":0,"TOWNNAME":"西港區","LI":"港東里","LIN":"5鄰","STREET":" ","SECT":" ","MAREA":"下面厝","LANE":" ","ALLEY":" ","HOUSE_NO":"２５號之２７","E_COORD97":169952.01000000001,"N_COORD97":2557851.7799999998,"ADDRESS":"下面厝２５號之２７","OBJECTID":154121},"geometry":{"x":169952.00999999978,"y":2557851.7800000012}},{"attributes":{"ID":154123,"DIS_CODE":0,"TOWNNAME":"西港區","LI":"港東里","LIN":"5鄰","STREET":" ","SECT":" ","MAREA":"下面厝","LANE":" ","ALLEY":" ","HOUSE_NO":"２５號之２","E_COORD97":169910.20999999999,"N_COORD97":2557863.48,"ADDRESS":"下面厝２５號之２","OBJECTID":154122},"geometry":{"x":169910.20999999996,"y":2557863.4800000004}},{"attributes":{"ID":154124,"DIS_CODE":0,"TOWNNAME":"西港區","LI":"港東里","LIN":"5鄰","STREET":" ","SECT":" ","MAREA":"下面厝","LANE":" ","ALLEY":" ","HOUSE_NO":"２５號之３","E_COORD97":169914.5,"N_COORD97":2557862.9500000002,"ADDRESS":"下面厝２５號之３","OBJECTID":154123},"geometry":{"x":169914.5,"y":2557862.9499999993}},{"attributes":{"ID":154125,"DIS_CODE":0,"TOWNNAME":"安南區","LI":"佃西里","LIN":"2鄰","STREET":"公學路","SECT":"四段","MAREA":" ","LANE":"１２６巷","ALLEY":"１２２弄","HOUSE_NO":"３０號","E_COORD97":165248.65240200001,"N_COORD97":2552013.3887800002,"ADDRESS":"公學路四段１２６巷１２２弄３０號","OBJECTID":154124},"geometry":{"x":165248.65240199957,"y":2552013.3887760043}},{"attributes":{"ID":154126,"DIS_CODE":0,"TOWNNAME":"西港區","LI":"港東里","LIN":"5鄰","STREET":" ","SECT":" ","MAREA":"下面厝","LANE":" ","ALLEY":" ","HOUSE_NO":"２５號之４","E_COORD97":169918.47,"N_COORD97":2557862.3100000001,"ADDRESS":"下面厝２５號之４","OBJECTID":154125},"geometry":{"x":169918.46999999881,"y":2557862.3100000042}},{"attributes":{"ID":154127,"DIS_CODE":0,"TOWNNAME":"安南區","LI":"佃西里","LIN":"2鄰","STREET":"公學路","SECT":"四段","MAREA":" ","LANE":"１２６巷","ALLEY":"１２２弄","HOUSE_NO":"８號","E_COORD97":165290.17841699999,"N_COORD97":2552007.6737799998,"ADDRESS":"公學路四段１２６巷１２２弄８號","OBJECTID":154126},"geometry":{"x":165290.17841700092,"y":2552007.6737789996}},{"attributes":{"ID":154128,"DIS_CODE":0,"TOWNNAME":"玉井區","LI":"玉井里","LIN":"19鄰","STREET":"中正路","SECT":" ","MAREA":" ","LANE":" ","ALLEY":" ","HOUSE_NO":"６２號","E_COORD97":194769.20999999999,"N_COORD97":2558130.25,"ADDRESS":"中正路６２號","OBJECTID":154127},"geometry":{"x":194769.21000000089,"y":2558130.2500000019}},{"attributes":{"ID":154129,"DIS_CODE":0,"TOWNNAME":"西港區","LI":"港東里","LIN":"5鄰","STREET":" ","SECT":" ","MAREA":"下面厝","LANE":" ","ALLEY":" ","HOUSE_NO":"２５號之５","E_COORD97":169922.51999999999,"N_COORD97":2557861.3799999999,"ADDRESS":"下面厝２５號之５","OBJECTID":154128},"geometry":{"x":169922.51999999955,"y":2557861.3800000008}},{"attributes":{"ID":154130,"DIS_CODE":0,"TOWNNAME":"西港區","LI":"港東里","LIN":"5鄰","STREET":" ","SECT":" ","MAREA":"下面厝","LANE":" ","ALLEY":" ","HOUSE_NO":"２５號之６","E_COORD97":169927.06,"N_COORD97":2557860.9100000001,"ADDRESS":"下面厝２５號之６","OBJECTID":154129},"geometry":{"x":169927.06000000052,"y":2557860.9099999983}},{"attributes":{"ID":154131,"DIS_CODE":0,"TOWNNAME":"安南區","LI":"佃西里","LIN":"2鄰","STREET":"公學路","SECT":"四段","MAREA":" ","LANE":"１２６巷","ALLEY":"１２２弄","HOUSE_NO":"３１號","E_COORD97":165251.61854600001,"N_COORD97":2552019.4212699998,"ADDRESS":"公學路四段１２６巷１２２弄３１號","OBJECTID":154130},"geometry":{"x":165251.61854599975,"y":2552019.4212730005}},{"attributes":{"ID":154132,"DIS_CODE":0,"TOWNNAME":"安南區","LI":"佃西里","LIN":"2鄰","STREET":"公學路","SECT":"四段","MAREA":" ","LANE":"１２６巷","ALLEY":"１２２弄","HOUSE_NO":"３９號","E_COORD97":165224.49951699999,"N_COORD97":2551988.20046,"ADDRESS":"公學路四段１２６巷１２２弄３９號","OBJECTID":154131},"geometry":{"x":165224.49951700214,"y":2551988.2004569992}},{"attributes":{"ID":154133,"DIS_CODE":0,"TOWNNAME":"東區","LI":"復國里","LIN":" ","STREET":" ","SECT":" ","MAREA":"精忠三村","LANE":" ","ALLEY":" ","HOUSE_NO":"４８３號","E_COORD97":171484.13,"N_COORD97":2543560.2999999998,"ADDRESS":"精忠三村４８３號","OBJECTID":154132},"geometry":{"x":171484.13000000175,"y":2543560.3000000007}},{"attributes":{"ID":154134,"DIS_CODE":0,"TOWNNAME":"西港區","LI":"港東里","LIN":"5鄰","STREET":" ","SECT":" ","MAREA":"下面厝","LANE":" ","ALLEY":" ","HOUSE_NO":"２５號之７","E_COORD97":169931.69,"N_COORD97":2557859.29,"ADDRESS":"下面厝２５號之７","OBJECTID":154133},"geometry":{"x":169931.69000000134,"y":2557859.2899999991}},{"attributes":{"ID":154135,"DIS_CODE":0,"TOWNNAME":"西港區","LI":"港東里","LIN":"5鄰","STREET":" ","SECT":" ","MAREA":"下面厝","LANE":" ","ALLEY":" ","HOUSE_NO":"２５號之８","E_COORD97":169924.76000000001,"N_COORD97":2557848.23,"ADDRESS":"下面厝２５號之８","OBJECTID":154134},"geometry":{"x":169924.75999999978,"y":2557848.2300000004}},{"attributes":{"ID":154136,"DIS_CODE":0,"TOWNNAME":"西港區","LI":"港東里","LIN":"5鄰","STREET":" ","SECT":" ","MAREA":"下面厝","LANE":" ","ALLEY":" ","HOUSE_NO":"２５號之９","E_COORD97":169924.51999999999,"N_COORD97":2557843.3700000001,"ADDRESS":"下面厝２５號之９","OBJECTID":154135},"geometry":{"x":169924.51999999955,"y":2557843.3700000029}},{"attributes":{"ID":154137,"DIS_CODE":0,"TOWNNAME":"西港區","LI":"港東里","LIN":"5鄰","STREET":" ","SECT":" ","MAREA":"下面厝","LANE":" ","ALLEY":" ","HOUSE_NO":"２５號","E_COORD97":169900.95000000001,"N_COORD97":2557864.0099999998,"ADDRESS":"下面厝２５號","OBJECTID":154136},"geometry":{"x":169900.95000000112,"y":2557864.0100000016}},{"attributes":{"ID":154138,"DIS_CODE":0,"TOWNNAME":"西港區","LI":"港東里","LIN":"5鄰","STREET":" ","SECT":" ","MAREA":"下面厝","LANE":" ","ALLEY":" ","HOUSE_NO":"２６號","E_COORD97":169973.54000000001,"N_COORD97":2557844.0499999998,"ADDRESS":"下面厝２６號","OBJECTID":154137},"geometry":{"x":169973.54000000004,"y":2557844.0500000045}},{"attributes":{"ID":154139,"DIS_CODE":0,"TOWNNAME":"西港區","LI":"竹林里","LIN":"5鄰","STREET":" ","SECT":" ","MAREA":"大竹林","LANE":" ","ALLEY":" ","HOUSE_NO":"３８號","E_COORD97":166577.51000000001,"N_COORD97":2558201.1800000002,"ADDRESS":"大竹林３８號","OBJECTID":154138},"geometry":{"x":166577.51000000071,"y":2558201.1800000034}},{"attributes":{"ID":154140,"DIS_CODE":0,"TOWNNAME":"西港區","LI":"竹林里","LIN":"5鄰","STREET":" ","SECT":" ","MAREA":"大竹林","LANE":" ","ALLEY":" ","HOUSE_NO":"３９號","E_COORD97":166587.39000000001,"N_COORD97":2558190.3300000001,"ADDRESS":"大竹林３９號","OBJECTID":154139},"geometry":{"x":166587.38999999966,"y":2558190.3299999982}},{"attributes":{"ID":154141,"DIS_CODE":0,"TOWNNAME":"西港區","LI":"竹林里","LIN":"5鄰","STREET":" ","SECT":" ","MAREA":"大竹林","LANE":" ","ALLEY":" ","HOUSE_NO":"４１號","E_COORD97":166611.14000000001,"N_COORD97":2558154.54,"ADDRESS":"大竹林４１號","OBJECTID":154140},"geometry":{"x":166611.13999999966,"y":2558154.540000001}},{"attributes":{"ID":154142,"DIS_CODE":0,"TOWNNAME":"安南區","LI":"佃西里","LIN":"2鄰","STREET":"公學路","SECT":"四段","MAREA":" ","LANE":"１２６巷","ALLEY":"１２２弄","HOUSE_NO":"３８號","E_COORD97":165224.71138399999,"N_COORD97":2551994.2329500001,"ADDRESS":"公學路四段１２６巷１２２弄３８號","OBJECTID":154141},"geometry":{"x":165224.71138400026,"y":2551994.2329530008}},{"attributes":{"ID":154143,"DIS_CODE":0,"TOWNNAME":"安南區","LI":"佃西里","LIN":"2鄰","STREET":"公學路","SECT":"四段","MAREA":" ","LANE":"１２６巷","ALLEY":"１２２弄","HOUSE_NO":"３７號","E_COORD97":165226.406323,"N_COORD97":2551996.87879,"ADDRESS":"公學路四段１２６巷１２２弄３７號","OBJECTID":154142},"geometry":{"x":165226.40632300172,"y":2551996.8787850011}},{"attributes":{"ID":154144,"DIS_CODE":0,"TOWNNAME":"安南區","LI":"佃西里","LIN":"2鄰","STREET":"公學路","SECT":"四段","MAREA":" ","LANE":"１２６巷","ALLEY":"１２２弄","HOUSE_NO":"３６號","E_COORD97":165227.04192600001,"N_COORD97":2552002.0646199998,"ADDRESS":"公學路四段１２６巷１２２弄３６號","OBJECTID":154143},"geometry":{"x":165227.04192600027,"y":2552002.0646160021}},{"attributes":{"ID":154145,"DIS_CODE":0,"TOWNNAME":"安南區","LI":"佃西里","LIN":"2鄰","STREET":"公學路","SECT":"四段","MAREA":" ","LANE":"１２６巷","ALLEY":"１２２弄","HOUSE_NO":"３２號","E_COORD97":165233.18608099999,"N_COORD97":2552021.0087700002,"ADDRESS":"公學路四段１２６巷１２２弄３２號","OBJECTID":154144},"geometry":{"x":165233.18608099967,"y":2552021.0087720025}},{"attributes":{"ID":154146,"DIS_CODE":0,"TOWNNAME":"安南區","LI":"佃西里","LIN":"2鄰","STREET":"公學路","SECT":"四段","MAREA":" ","LANE":"１２６巷","ALLEY":"１２２弄","HOUSE_NO":"３３號","E_COORD97":165228.52499800001,"N_COORD97":2552016.4579400001,"ADDRESS":"公學路四段１２６巷１２２弄３３號","OBJECTID":154145},"geometry":{"x":165228.52499800082,"y":2552016.4579410031}},{"attributes":{"ID":154147,"DIS_CODE":0,"TOWNNAME":"安南區","LI":"佃西里","LIN":"2鄰","STREET":"公學路","SECT":"四段","MAREA":" ","LANE":"１２６巷","ALLEY":"１２２弄","HOUSE_NO":"３４號","E_COORD97":165229.58433499999,"N_COORD97":2552011.90711,"ADDRESS":"公學路四段１２６巷１２２弄３４號","OBJECTID":154146},"geometry":{"x":165229.58433499932,"y":2552011.9071100019}},{"attributes":{"ID":154148,"DIS_CODE":0,"TOWNNAME":"安南區","LI":"佃西里","LIN":"2鄰","STREET":"公學路","SECT":"四段","MAREA":" ","LANE":"１２６巷","ALLEY":"１２２弄","HOUSE_NO":"３５號","E_COORD97":165227.677528,"N_COORD97":2552007.3562799999,"ADDRESS":"公學路四段１２６巷１２２弄３５號","OBJECTID":154147},"geometry":{"x":165227.67752800044,"y":2552007.3562800027}},{"attributes":{"ID":154149,"DIS_CODE":0,"TOWNNAME":"麻豆區","LI":"\u25A0江里","LIN":"19鄰","STREET":"民生路","SECT":" ","MAREA":" ","LANE":" ","ALLEY":" ","HOUSE_NO":"８號","E_COORD97":173557.76000000001,"N_COORD97":2564787.5699999998,"ADDRESS":"民生路８號","OBJECTID":154148},"geometry":{"x":173557.75999999978,"y":2564787.5700000022}},{"attributes":{"ID":154150,"DIS_CODE":0,"TOWNNAME":"西港區","LI":"竹林里","LIN":"5鄰","STREET":" ","SECT":" ","MAREA":"大竹林","LANE":" ","ALLEY":" ","HOUSE_NO":"４２號","E_COORD97":166647.92999999999,"N_COORD97":2558186.1899999999,"ADDRESS":"大竹林４２號","OBJECTID":154149},"geometry":{"x":166647.93000000063,"y":2558186.1899999995}},{"attributes":{"ID":154151,"DIS_CODE":0,"TOWNNAME":"西港區","LI":"竹林里","LIN":"5鄰","STREET":" ","SECT":" ","MAREA":"大竹林","LANE":" ","ALLEY":" ","HOUSE_NO":"４３號","E_COORD97":166628.64000000001,"N_COORD97":2558178.2400000002,"ADDRESS":"大竹林４３號","OBJECTID":154150},"geometry":{"x":166628.64000000153,"y":2558178.2400000021}},{"attributes":{"ID":154152,"DIS_CODE":0,"TOWNNAME":"新化區","LI":"唪口里","LIN":"5鄰","STREET":" ","SECT":" ","MAREA":"唪口","LANE":" ","ALLEY":" ","HOUSE_NO":"５６號","E_COORD97":178101.39999999999,"N_COORD97":2549106.25,"ADDRESS":"唪口５６號","OBJECTID":154151},"geometry":{"x":178101.4000000013,"y":2549106.2500000019}},{"attributes":{"ID":154153,"DIS_CODE":0,"TOWNNAME":"新化區","LI":"知義里","LIN":"5鄰","STREET":" ","SECT":" ","MAREA":"知母義","LANE":" ","ALLEY":" ","HOUSE_NO":"８３號","E_COORD97":180049.07000000001,"N_COORD97":2547182.25,"ADDRESS":"知母義８３號","OBJECTID":154152},"geometry":{"x":180049.07000000216,"y":2547182.2500000037}},{"attributes":{"ID":154154,"DIS_CODE":0,"TOWNNAME":"新化區","LI":"全興里","LIN":"5鄰","STREET":" ","SECT":" ","MAREA":"竹子\u25A0","LANE":" ","ALLEY":" ","HOUSE_NO":"１９７號之５","E_COORD97":177767.79000000001,"N_COORD97":2547595.25,"ADDRESS":"竹子\u25A0１９７號之５","OBJECTID":154153},"geometry":{"x":177767.79000000097,"y":2547595.25}},{"attributes":{"ID":154155,"DIS_CODE":0,"TOWNNAME":"安定區","LI":"南安里","LIN":"5鄰","STREET":" ","SECT":" ","MAREA":"油車","LANE":" ","ALLEY":" ","HOUSE_NO":"５２之２號","E_COORD97":170594.84,"N_COORD97":2555622.2999999998,"ADDRESS":"油車５２之２號","OBJECTID":154154},"geometry":{"x":170594.84000000078,"y":2555622.3000000026}},{"attributes":{"ID":154156,"DIS_CODE":0,"TOWNNAME":"安定區","LI":"南安里","LIN":"5鄰","STREET":" ","SECT":" ","MAREA":"油車","LANE":" ","ALLEY":" ","HOUSE_NO":"５５之８號","E_COORD97":170539.73999999999,"N_COORD97":2555540.2999999998,"ADDRESS":"油車５５之８號","OBJECTID":154155},"geometry":{"x":170539.74000000115,"y":2555540.3000000045}},{"attributes":{"ID":154157,"DIS_CODE":0,"TOWNNAME":"安定區","LI":"大同里","LIN":"5鄰","STREET":" ","SECT":" ","MAREA":"大同","LANE":" ","ALLEY":" ","HOUSE_NO":"４９之２號","E_COORD97":170376.57000000001,"N_COORD97":2553934.2999999998,"ADDRESS":"大同４９之２號","OBJECTID":154156},"geometry":{"x":170376.57000000123,"y":2553934.3000000026}},{"attributes":{"ID":154158,"DIS_CODE":0,"TOWNNAME":"安定區","LI":"中沙里","LIN":"5鄰","STREET":" ","SECT":" ","MAREA":"沙崙","LANE":" ","ALLEY":" ","HOUSE_NO":"５５之２號","E_COORD97":169077.37,"N_COORD97":2552798.2999999998,"ADDRESS":"沙崙５５之２號","OBJECTID":154157},"geometry":{"x":169077.37000000104,"y":2552798.3000000026}},{"attributes":{"ID":154159,"DIS_CODE":0,"TOWNNAME":"安定區","LI":"南安里","LIN":"5鄰","STREET":" ","SECT":" ","MAREA":"油車","LANE":" ","ALLEY":" ","HOUSE_NO":"６２之７號","E_COORD97":170508.64000000001,"N_COORD97":2555478.2999999998,"ADDRESS":"油車６２之７號","OBJECTID":154158},"geometry":{"x":170508.63999999966,"y":2555478.3000000007}},{"attributes":{"ID":154160,"DIS_CODE":0,"TOWNNAME":"安定區","LI":"中沙里","LIN":"5鄰","STREET":" ","SECT":" ","MAREA":"沙崙","LANE":" ","ALLEY":" ","HOUSE_NO":"１之９號","E_COORD97":168802.12,"N_COORD97":2552410.2999999998,"ADDRESS":"沙崙１之９號","OBJECTID":154159},"geometry":{"x":168802.12000000011,"y":2552410.3000000007}},{"attributes":{"ID":154161,"DIS_CODE":0,"TOWNNAME":"安定區","LI":"海寮里","LIN":"5鄰","STREET":" ","SECT":" ","MAREA":"海寮","LANE":" ","ALLEY":" ","HOUSE_NO":"５５之５號","E_COORD97":169466.98999999999,"N_COORD97":2555344.2999999998,"ADDRESS":"海寮５５之５號","OBJECTID":154160},"geometry":{"x":169466.99000000115,"y":2555344.3000000026}},{"attributes":{"ID":154162,"DIS_CODE":0,"TOWNNAME":"六甲區","LI":"中社里","LIN":"19鄰","STREET":" ","SECT":" ","MAREA":"林鳳營","LANE":" ","ALLEY":" ","HOUSE_NO":"２０７號","E_COORD97":180362.64000000001,"N_COORD97":2571316.5099999998,"ADDRESS":"林鳳營２０７號","OBJECTID":154161},"geometry":{"x":180362.63999999966,"y":2571316.5100000035}},{"attributes":{"ID":154163,"DIS_CODE":0,"TOWNNAME":"安定區","LI":"新吉里","LIN":"5鄰","STREET":" ","SECT":" ","MAREA":"新吉","LANE":" ","ALLEY":" ","HOUSE_NO":"４１之８號","E_COORD97":169305.17000000001,"N_COORD97":2554090.2999999998,"ADDRESS":"新吉４１之８號","OBJECTID":154162},"geometry":{"x":169305.16999999993,"y":2554090.3000000026}},{"attributes":{"ID":154164,"DIS_CODE":0,"TOWNNAME":"安南區","LI":"佃西里","LIN":"2鄰","STREET":"公學路","SECT":"四段","MAREA":" ","LANE":"１２６巷","ALLEY":"１２２弄","HOUSE_NO":"４５號","E_COORD97":165213.27054299999,"N_COORD97":2552013.9179400001,"ADDRESS":"公學路四段１２６巷１２２弄４５號","OBJECTID":154163},"geometry":{"x":165213.27054300066,"y":2552013.9179430027}},{"attributes":{"ID":154165,"DIS_CODE":0,"TOWNNAME":"安南區","LI":"佃西里","LIN":"2鄰","STREET":"公學路","SECT":"四段","MAREA":" ","LANE":"１２６巷","ALLEY":"１２２弄","HOUSE_NO":"４４號","E_COORD97":165210.94000199999,"N_COORD97":2552009.36711,"ADDRESS":"公學路四段１２６巷１２２弄４４號","OBJECTID":154164},"geometry":{"x":165210.94000199996,"y":2552009.3671120033}},{"attributes":{"ID":154166,"DIS_CODE":0,"TOWNNAME":"安南區","LI":"佃西里","LIN":"2鄰","STREET":"公學路","SECT":"四段","MAREA":" ","LANE":"１２６巷","ALLEY":"１２２弄","HOUSE_NO":"４０號","E_COORD97":165217.29602400001,"N_COORD97":2551992.75129,"ADDRESS":"公學路四段１２６巷１２２弄４０號","OBJECTID":154165},"geometry":{"x":165217.29602400027,"y":2551992.7512870003}},{"attributes":{"ID":154167,"DIS_CODE":0,"TOWNNAME":"安南區","LI":"佃西里","LIN":"2鄰","STREET":"公學路","SECT":"四段","MAREA":" ","LANE":"１２６巷","ALLEY":"１２２弄","HOUSE_NO":"４１號","E_COORD97":165212.846808,"N_COORD97":2551995.1854500002,"ADDRESS":"公學路四段１２６巷１２２弄４１號","OBJECTID":154166},"geometry":{"x":165212.84680799954,"y":2551995.1854529995}},{"attributes":{"ID":154168,"DIS_CODE":0,"TOWNNAME":"安南區","LI":"佃西里","LIN":"2鄰","STREET":"公學路","SECT":"四段","MAREA":" ","LANE":"１２６巷","ALLEY":"１２２弄","HOUSE_NO":"４２號","E_COORD97":165209.245062,"N_COORD97":2551997.4079499999,"ADDRESS":"公學路四段１２６巷１２２弄４２號","OBJECTID":154167},"geometry":{"x":165209.24506200198,"y":2551997.4079520013}},{"attributes":{"ID":154169,"DIS_CODE":0,"TOWNNAME":"安南區","LI":"佃西里","LIN":"2鄰","STREET":"公學路","SECT":"四段","MAREA":" ","LANE":"１２６巷","ALLEY":"１２２弄","HOUSE_NO":"４３號","E_COORD97":165205.00771400001,"N_COORD97":2551999.6304500001,"ADDRESS":"公學路四段１２６巷１２２弄４３號","OBJECTID":154168},"geometry":{"x":165205.0077139996,"y":2551999.6304499991}},{"attributes":{"ID":154170,"DIS_CODE":0,"TOWNNAME":"安南區","LI":"佃西里","LIN":"2鄰","STREET":"公學路","SECT":"四段","MAREA":" ","LANE":"１２６巷","ALLEY":"１２８弄","HOUSE_NO":"１８號","E_COORD97":165226.98880799999,"N_COORD97":2551966.8620500001,"ADDRESS":"公學路四段１２６巷１２８弄１８號","OBJECTID":154169},"geometry":{"x":165226.98880800139,"y":2551966.8620480001}},{"attributes":{"ID":154171,"DIS_CODE":0,"TOWNNAME":"安南區","LI":"佃西里","LIN":"2鄰","STREET":"公學路","SECT":"四段","MAREA":" ","LANE":"１２６巷","ALLEY":"１２８弄","HOUSE_NO":"２０號","E_COORD97":165222.115857,"N_COORD97":2551969.19038,"ADDRESS":"公學路四段１２６巷１２８弄２０號","OBJECTID":154170},"geometry":{"x":165222.11585699953,"y":2551969.1903799977}},{"attributes":{"ID":154172,"DIS_CODE":0,"TOWNNAME":"安南區","LI":"佃西里","LIN":"2鄰","STREET":"公學路","SECT":"四段","MAREA":" ","LANE":"１２６巷","ALLEY":"１２８弄","HOUSE_NO":"２２號","E_COORD97":165216.81917199999,"N_COORD97":2551970.6720500002,"ADDRESS":"公學路四段１２６巷１２８弄２２號","OBJECTID":154171},"geometry":{"x":165216.81917200051,"y":2551970.6720460001}},{"attributes":{"ID":154173,"DIS_CODE":0,"TOWNNAME":"安南區","LI":"佃西里","LIN":"2鄰","STREET":"公學路","SECT":"四段","MAREA":" ","LANE":"１２６巷","ALLEY":"１２８弄","HOUSE_NO":"２４號","E_COORD97":165211.310619,"N_COORD97":2551970.6720500002,"ADDRESS":"公學路四段１２６巷１２８弄２４號","OBJECTID":154172},"geometry":{"x":165211.31061900128,"y":2551970.6720460001}},{"attributes":{"ID":154174,"DIS_CODE":0,"TOWNNAME":"安南區","LI":"佃西里","LIN":"2鄰","STREET":"公學路","SECT":"四段","MAREA":" ","LANE":"１２６巷","ALLEY":"１２８弄","HOUSE_NO":"２６號","E_COORD97":165206.64953600001,"N_COORD97":2551973.2120400001,"ADDRESS":"公學路四段１２６巷１２８弄２６號","OBJECTID":154173},"geometry":{"x":165206.64953600056,"y":2551973.212044999}},{"attributes":{"ID":154175,"DIS_CODE":0,"TOWNNAME":"安南區","LI":"佃西里","LIN":"2鄰","STREET":"公學路","SECT":"四段","MAREA":" ","LANE":"１２６巷","ALLEY":"１２８弄","HOUSE_NO":"６號","E_COORD97":165242.98000000001,"N_COORD97":2551951.4300000002,"ADDRESS":"公學路四段１２６巷１２８弄６號","OBJECTID":154174},"geometry":{"x":165242.98000000138,"y":2551951.4300000016}},{"attributes":{"ID":154176,"DIS_CODE":0,"TOWNNAME":"安南區","LI":"佃西里","LIN":"2鄰","STREET":"公學路","SECT":"四段","MAREA":" ","LANE":"１２６巷","ALLEY":"１２８弄","HOUSE_NO":"８號","E_COORD97":165246.63951099999,"N_COORD97":2551960.10195,"ADDRESS":"公學路四段１２６巷１２８弄８號","OBJECTID":154175},"geometry":{"x":165246.6395110013,"y":2551960.1019480005}},{"attributes":{"ID":154177,"DIS_CODE":0,"TOWNNAME":"仁德區","LI":"新田里","LIN":"4鄰","STREET":"勝利路","SECT":" ","MAREA":" ","LANE":"１３２巷","ALLEY":"１２弄","HOUSE_NO":"２號","E_COORD97":174250.56744399999,"N_COORD97":2539449.1639100001,"ADDRESS":"勝利路１３２巷１２弄２號","OBJECTID":154176},"geometry":{"x":174250.56744400132,"y":2539449.1639109999}},{"attributes":{"ID":154178,"DIS_CODE":0,"TOWNNAME":"仁德區","LI":"後壁里","LIN":"36鄰","STREET":"民安路","SECT":"一段","MAREA":" ","LANE":"３１０巷","ALLEY":"３１弄","HOUSE_NO":"７號","E_COORD97":172798.51000000001,"N_COORD97":2539404.9500000002,"ADDRESS":"民安路一段３１０巷３１弄７號","OBJECTID":154177},"geometry":{"x":172798.51000000164,"y":2539404.9499999993}},{"attributes":{"ID":154179,"DIS_CODE":0,"TOWNNAME":"仁德區","LI":"後壁里","LIN":"36鄰","STREET":"民安路","SECT":"一段","MAREA":" ","LANE":"３１０巷","ALLEY":"３４弄","HOUSE_NO":"６號","E_COORD97":172745.70000000001,"N_COORD97":2539423.4399999999,"ADDRESS":"民安路一段３１０巷３４弄６號","OBJECTID":154178},"geometry":{"x":172745.70000000112,"y":2539423.4400000032}},{"attributes":{"ID":154180,"DIS_CODE":0,"TOWNNAME":"仁德區","LI":"後壁里","LIN":"19鄰","STREET":"德崙路","SECT":" ","MAREA":" ","LANE":"２１巷","ALLEY":"９弄","HOUSE_NO":"１１號","E_COORD97":173242.47,"N_COORD97":2538658.02,"ADDRESS":"德崙路２１巷９弄１１號","OBJECTID":154179},"geometry":{"x":173242.46999999974,"y":2538658.0200000014}},{"attributes":{"ID":154181,"DIS_CODE":0,"TOWNNAME":"仁德區","LI":"新田里","LIN":"4鄰","STREET":"勝利路","SECT":" ","MAREA":" ","LANE":"１３２巷","ALLEY":"１０弄","HOUSE_NO":"４０號","E_COORD97":174392.60999999999,"N_COORD97":2539467.4100000001,"ADDRESS":"勝利路１３２巷１０弄４０號","OBJECTID":154180},"geometry":{"x":174392.61000000127,"y":2539467.4100000001}},{"attributes":{"ID":154182,"DIS_CODE":0,"TOWNNAME":"仁德區","LI":"新田里","LIN":"8鄰","STREET":"北保路","SECT":" ","MAREA":" ","LANE":"１８３巷","ALLEY":"１弄","HOUSE_NO":"８號","E_COORD97":173484.34,"N_COORD97":2539474.5,"ADDRESS":"北保路１８３巷１弄８號","OBJECTID":154181},"geometry":{"x":173484.33999999985,"y":2539474.5000000037}},{"attributes":{"ID":154183,"DIS_CODE":0,"TOWNNAME":"仁德區","LI":"新田里","LIN":"1鄰","STREET":"新田二街","SECT":" ","MAREA":" ","LANE":"１２０巷","ALLEY":"２２弄","HOUSE_NO":"２３號","E_COORD97":175018.47,"N_COORD97":2539976.9900000002,"ADDRESS":"新田二街１２０巷２２弄２３號","OBJECTID":154182},"geometry":{"x":175018.47000000067,"y":2539976.9900000021}},{"attributes":{"ID":154184,"DIS_CODE":0,"TOWNNAME":"新市區","LI":"新市里","LIN":"2鄰","STREET":"光華街","SECT":" ","MAREA":" ","LANE":"１８３巷","ALLEY":"３弄","HOUSE_NO":"８號","E_COORD97":177775.70000000001,"N_COORD97":2553073.5,"ADDRESS":"光華街１８３巷３弄８號","OBJECTID":154183},"geometry":{"x":177775.70000000019,"y":2553073.5000000019}},{"attributes":{"ID":154185,"DIS_CODE":0,"TOWNNAME":"東區","LI":"崇學里","LIN":"2鄰","STREET":"崇德四街","SECT":" ","MAREA":" ","LANE":"７巷","ALLEY":"１６弄","HOUSE_NO":"２４號","E_COORD97":170581.75,"N_COORD97":2542064.4199999999,"ADDRESS":"崇德四街７巷１６弄２４號","OBJECTID":154184},"geometry":{"x":170581.75000000093,"y":2542064.4199999999}},{"attributes":{"ID":154186,"DIS_CODE":0,"TOWNNAME":"仁德區","LI":"後壁里","LIN":"36鄰","STREET":"民安路","SECT":"一段","MAREA":" ","LANE":"３１０巷","ALLEY":"３２弄","HOUSE_NO":"１２號","E_COORD97":172741.84,"N_COORD97":2539476.7000000002,"ADDRESS":"民安路一段３１０巷３２弄１２號","OBJECTID":154185},"geometry":{"x":172741.83999999985,"y":2539476.7000000011}},{"attributes":{"ID":154187,"DIS_CODE":0,"TOWNNAME":"永康區","LI":"光復里","LIN":"2鄰","STREET":"復興路","SECT":" ","MAREA":" ","LANE":"１１２巷","ALLEY":"５７弄","HOUSE_NO":"１７號","E_COORD97":172574.75,"N_COORD97":2544600.27,"ADDRESS":"復興路１１２巷５７弄１７號","OBJECTID":154186},"geometry":{"x":172574.75,"y":2544600.2699999996}},{"attributes":{"ID":154188,"DIS_CODE":0,"TOWNNAME":"仁德區","LI":"後壁里","LIN":"30鄰","STREET":"德洋一街","SECT":" ","MAREA":" ","LANE":"３７巷","ALLEY":"１４弄","HOUSE_NO":"１４號","E_COORD97":173090.79999999999,"N_COORD97":2539240.0099999998,"ADDRESS":"德洋一街３７巷１４弄１４號","OBJECTID":154187},"geometry":{"x":173090.79999999981,"y":2539240.0100000035}},{"attributes":{"ID":154189,"DIS_CODE":0,"TOWNNAME":"安定區","LI":"六嘉里","LIN":"5鄰","STREET":" ","SECT":" ","MAREA":"六塊寮","LANE":" ","ALLEY":" ","HOUSE_NO":"３９之７號","E_COORD97":170243.69347900001,"N_COORD97":2553512.0253499998,"ADDRESS":"六塊寮３９之７號","OBJECTID":154188},"geometry":{"x":170243.69347899966,"y":2553512.0253539998}},{"attributes":{"ID":154190,"DIS_CODE":0,"TOWNNAME":"仁德區","LI":"後壁里","LIN":"28鄰","STREET":"德洋路","SECT":" ","MAREA":" ","LANE":"２５巷","ALLEY":"３５弄","HOUSE_NO":"７號","E_COORD97":173119.85000000001,"N_COORD97":2538917.0099999998,"ADDRESS":"德洋路２５巷３５弄７號","OBJECTID":154189},"geometry":{"x":173119.85000000149,"y":2538917.0099999998}},{"attributes":{"ID":154191,"DIS_CODE":0,"TOWNNAME":"安南區","LI":"溪墘里","LIN":"2鄰","STREET":"海佃路","SECT":"一段","MAREA":" ","LANE":"１５８巷","ALLEY":"３７弄","HOUSE_NO":"２號","E_COORD97":167283.76000000001,"N_COORD97":2547253.1299999999,"ADDRESS":"海佃路一段１５８巷３７弄２號","OBJECTID":154190},"geometry":{"x":167283.75999999978,"y":2547253.1299999971}},{"attributes":{"ID":154192,"DIS_CODE":0,"TOWNNAME":"安南區","LI":"溪墘里","LIN":"2鄰","STREET":"海佃路","SECT":"一段","MAREA":" ","LANE":"１５８巷","ALLEY":"３７弄","HOUSE_NO":"６號","E_COORD97":167281.01999999999,"N_COORD97":2547264.7200000002,"ADDRESS":"海佃路一段１５８巷３７弄６號","OBJECTID":154191},"geometry":{"x":167281.02000000048,"y":2547264.7200000044}},{"attributes":{"ID":154193,"DIS_CODE":0,"TOWNNAME":"安南區","LI":"溪墘里","LIN":"2鄰","STREET":"海佃路","SECT":"一段","MAREA":" ","LANE":"１５８巷","ALLEY":"３７弄","HOUSE_NO":"８號","E_COORD97":167279.26999999999,"N_COORD97":2547270.3100000001,"ADDRESS":"海佃路一段１５８巷３７弄８號","OBJECTID":154192},"geometry":{"x":167279.27000000048,"y":2547270.3100000005}},{"attributes":{"ID":154194,"DIS_CODE":0,"TOWNNAME":"北區","LI":"國姓里","LIN":"2鄰","STREET":"公園路","SECT":" ","MAREA":" ","LANE":"４３３巷","ALLEY":"１１弄","HOUSE_NO":"１號","E_COORD97":168935.39000000001,"N_COORD97":2545351.6299999999,"ADDRESS":"公園路４３３巷１１弄１號","OBJECTID":154193},"geometry":{"x":168935.38999999966,"y":2545351.6300000008}},{"attributes":{"ID":154195,"DIS_CODE":0,"TOWNNAME":"北區","LI":"國姓里","LIN":"2鄰","STREET":"公園路","SECT":" ","MAREA":" ","LANE":"４３３巷","ALLEY":"１１弄","HOUSE_NO":"３號","E_COORD97":168937.06,"N_COORD97":2545344.98,"ADDRESS":"公園路４３３巷１１弄３號","OBJECTID":154194},"geometry":{"x":168937.06000000052,"y":2545344.9800000023}},{"attributes":{"ID":154196,"DIS_CODE":0,"TOWNNAME":"新營區","LI":"忠政里","LIN":"2鄰","STREET":"中正路","SECT":" ","MAREA":" ","LANE":"３１巷","ALLEY":"９弄","HOUSE_NO":"３號","E_COORD97":180043.92999999999,"N_COORD97":2579057.5699999998,"ADDRESS":"中正路３１巷９弄３號","OBJECTID":154195},"geometry":{"x":180043.9299999997,"y":2579057.5700000022}},{"attributes":{"ID":154197,"DIS_CODE":0,"TOWNNAME":"六甲區","LI":"甲東里","LIN":"2鄰","STREET":"仁愛街","SECT":" ","MAREA":" ","LANE":"６０巷","ALLEY":"２弄","HOUSE_NO":"３號","E_COORD97":183953.20999999999,"N_COORD97":2569993.6800000002,"ADDRESS":"仁愛街６０巷２弄３號","OBJECTID":154196},"geometry":{"x":183953.20999999996,"y":2569993.6800000016}},{"attributes":{"ID":154198,"DIS_CODE":0,"TOWNNAME":"六甲區","LI":"甲東里","LIN":"2鄰","STREET":"仁愛街","SECT":" ","MAREA":" ","LANE":"６０巷","ALLEY":"２弄","HOUSE_NO":"５號","E_COORD97":183945.14999999999,"N_COORD97":2569980.8599999999,"ADDRESS":"仁愛街６０巷２弄５號","OBJECTID":154197},"geometry":{"x":183945.15000000037,"y":2569980.8599999994}},{"attributes":{"ID":154199,"DIS_CODE":0,"TOWNNAME":"六甲區","LI":"甲東里","LIN":"2鄰","STREET":"仁愛街","SECT":" ","MAREA":" ","LANE":"６０巷","ALLEY":"２弄","HOUSE_NO":"７號","E_COORD97":183945.42999999999,"N_COORD97":2569976.5099999998,"ADDRESS":"仁愛街６０巷２弄７號","OBJECTID":154198},"geometry":{"x":183945.43000000063,"y":2569976.5099999998}},{"attributes":{"ID":154200,"DIS_CODE":0,"TOWNNAME":"六甲區","LI":"甲東里","LIN":"2鄰","STREET":"仁愛街","SECT":" ","MAREA":" ","LANE":"６０巷","ALLEY":"４弄","HOUSE_NO":"５號","E_COORD97":183965.38,"N_COORD97":2569965.7200000002,"ADDRESS":"仁愛街６０巷４弄５號","OBJECTID":154199},"geometry":{"x":183965.37999999989,"y":2569965.7200000007}},{"attributes":{"ID":154201,"DIS_CODE":0,"TOWNNAME":"六甲區","LI":"甲東里","LIN":"2鄰","STREET":"仁愛街","SECT":" ","MAREA":" ","LANE":"６０巷","ALLEY":"４弄","HOUSE_NO":"３號","E_COORD97":183974.73073400001,"N_COORD97":2569978.41041,"ADDRESS":"仁愛街６０巷４弄３號","OBJECTID":154200},"geometry":{"x":183974.73073400185,"y":2569978.4104130026}}]}