{"displayFieldName":"TOWNNAME","fieldAliases":{"ID":"ID","DIS_CODE":"DIS_CODE","TOWNNAME":"TOWNNAME","LI":"LI","LIN":"LIN","STREET":"STREET","SECT":"SECT","MAREA":"MAREA","LANE":"LANE","ALLEY":"ALLEY","HOUSE_NO":"HOUSE_NO","E_COORD97":"E_COORD97","N_COORD97":"N_COORD97","ADDRESS":"ADDRESS","OBJECTID":"OBJECTID"},"geometryType":"esriGeometryPoint","spatialReference":{"wkid":102443,"latestWkid":3826},"fields":[{"name":"ID","type":"esriFieldTypeDouble","alias":"ID"},{"name":"DIS_CODE","type":"esriFieldTypeInteger","alias":"DIS_CODE"},{"name":"TOWNNAME","type":"esriFieldTypeString","alias":"TOWNNAME","length":8},{"name":"LI","type":"esriFieldTypeString","alias":"LI","length":8},{"name":"LIN","type":"esriFieldTypeString","alias":"LIN","length":12},{"name":"STREET","type":"esriFieldTypeString","alias":"STREET","length":20},{"name":"SECT","type":"esriFieldTypeString","alias":"SECT","length":8},{"name":"MAREA","type":"esriFieldTypeString","alias":"MAREA","length":12},{"name":"LANE","type":"esriFieldTypeString","alias":"LANE","length":10},{"name":"ALLEY","type":"esriFieldTypeString","alias":"ALLEY","length":10},{"name":"HOUSE_NO","type":"esriFieldTypeString","alias":"HOUSE_NO","length":20},{"name":"E_COORD97","type":"esriFieldTypeDouble","alias":"E_COORD97"},{"name":"N_COORD97","type":"esriFieldTypeDouble","alias":"N_COORD97"},{"name":"ADDRESS","type":"esriFieldTypeString","alias":"ADDRESS","length":50},{"name":"OBJECTID","type":"esriFieldTypeOID","alias":"OBJECTID"}],"features":[{"attributes":{"ID":61001,"DIS_CODE":0,"TOWNNAME":"歸仁區","LI":"六甲里","LIN":"35鄰","STREET":"六甲六街","SECT":" ","MAREA":" ","LANE":"１１巷","ALLEY":"３弄","HOUSE_NO":"１９號","E_COORD97":175564.48416600001,"N_COORD97":2539346.0857699998,"ADDRESS":"六甲六街１１巷３弄１９號","OBJECTID":61001},"geometry":{"x":175564.48416600097,"y":2539346.0857740007}},{"attributes":{"ID":61002,"DIS_CODE":0,"TOWNNAME":"柳營區","LI":"旭山里","LIN":"8鄰","STREET":" ","SECT":" ","MAREA":"尖山","LANE":" ","ALLEY":" ","HOUSE_NO":"９號","E_COORD97":188863.04000000001,"N_COORD97":2570730.4199999999,"ADDRESS":"尖山９號","OBJECTID":61002},"geometry":{"x":188863.04000000004,"y":2570730.4199999999}},{"attributes":{"ID":61003,"DIS_CODE":0,"TOWNNAME":"歸仁區","LI":"六甲里","LIN":"35鄰","STREET":"六甲六街","SECT":" ","MAREA":" ","LANE":"１１巷","ALLEY":"３弄","HOUSE_NO":"１４號","E_COORD97":175582.98999999999,"N_COORD97":2539360.6699999999,"ADDRESS":"六甲六街１１巷３弄１４號","OBJECTID":61003},"geometry":{"x":175582.99000000115,"y":2539360.6699999999}},{"attributes":{"ID":61004,"DIS_CODE":0,"TOWNNAME":"六甲區","LI":"二甲里","LIN":" ","STREET":"進化街","SECT":" ","MAREA":" ","LANE":" ","ALLEY":" ","HOUSE_NO":"９５號","E_COORD97":183084.16,"N_COORD97":2569517.0299999998,"ADDRESS":"進化街９５號","OBJECTID":61004},"geometry":{"x":183084.15999999922,"y":2569517.0300000012}},{"attributes":{"ID":61005,"DIS_CODE":0,"TOWNNAME":"玉井區","LI":"三埔里","LIN":"7鄰","STREET":" ","SECT":" ","MAREA":"三埔","LANE":" ","ALLEY":" ","HOUSE_NO":"７９號","E_COORD97":197927.34,"N_COORD97":2554950.2400000002,"ADDRESS":"三埔７９號","OBJECTID":61005},"geometry":{"x":197927.33999999985,"y":2554950.2400000039}},{"attributes":{"ID":61006,"DIS_CODE":0,"TOWNNAME":"歸仁區","LI":"六甲里","LIN":"35鄰","STREET":"六甲六街","SECT":" ","MAREA":" ","LANE":"１１巷","ALLEY":"３弄","HOUSE_NO":"２４號","E_COORD97":175562.48999999999,"N_COORD97":2539361.6699999999,"ADDRESS":"六甲六街１１巷３弄２４號","OBJECTID":61006},"geometry":{"x":175562.49000000115,"y":2539361.6700000018}},{"attributes":{"ID":61007,"DIS_CODE":0,"TOWNNAME":"歸仁區","LI":"六甲里","LIN":"35鄰","STREET":"六甲六街","SECT":" ","MAREA":" ","LANE":"１１巷","ALLEY":"３弄","HOUSE_NO":"１１號","E_COORD97":175580.58609,"N_COORD97":2539345.23911,"ADDRESS":"六甲六街１１巷３弄１１號","OBJECTID":61007},"geometry":{"x":175580.58609000035,"y":2539345.239108}},{"attributes":{"ID":61008,"DIS_CODE":0,"TOWNNAME":"歸仁區","LI":"六甲里","LIN":"35鄰","STREET":"六甲六街","SECT":" ","MAREA":" ","LANE":"１１巷","ALLEY":"３弄","HOUSE_NO":"２１號","E_COORD97":175560.24681700001,"N_COORD97":2539345.7682699999,"ADDRESS":"六甲六街１１巷３弄２１號","OBJECTID":61008},"geometry":{"x":175560.24681700207,"y":2539345.7682739981}},{"attributes":{"ID":61009,"DIS_CODE":0,"TOWNNAME":"歸仁區","LI":"六甲里","LIN":"35鄰","STREET":"六甲六街","SECT":" ","MAREA":" ","LANE":"１１巷","ALLEY":"３弄","HOUSE_NO":"１６號","E_COORD97":175578.89000000001,"N_COORD97":2539361.6699999999,"ADDRESS":"六甲六街１１巷３弄１６號","OBJECTID":61009},"geometry":{"x":175578.88999999966,"y":2539361.6700000018}},{"attributes":{"ID":61010,"DIS_CODE":0,"TOWNNAME":"歸仁區","LI":"六甲里","LIN":"35鄰","STREET":"六甲六街","SECT":" ","MAREA":" ","LANE":"１１巷","ALLEY":"３弄","HOUSE_NO":"２號","E_COORD97":175602.34,"N_COORD97":2539359.6699999999,"ADDRESS":"六甲六街１１巷３弄２號","OBJECTID":61010},"geometry":{"x":175602.34000000078,"y":2539359.6699999999}},{"attributes":{"ID":61011,"DIS_CODE":0,"TOWNNAME":"歸仁區","LI":"六甲里","LIN":"35鄰","STREET":"六甲六街","SECT":" ","MAREA":" ","LANE":"１１巷","ALLEY":"３弄","HOUSE_NO":"８號","E_COORD97":175594.04000000001,"N_COORD97":2539359.6699999999,"ADDRESS":"六甲六街１１巷３弄８號","OBJECTID":61011},"geometry":{"x":175594.0400000019,"y":2539359.6699999999}},{"attributes":{"ID":61012,"DIS_CODE":0,"TOWNNAME":"安定區","LI":"安定里","LIN":"8鄰","STREET":" ","SECT":" ","MAREA":"安定","LANE":" ","ALLEY":" ","HOUSE_NO":"５８之２３號","E_COORD97":171926.82000000001,"N_COORD97":2558071.3199999998,"ADDRESS":"安定５８之２３號","OBJECTID":61012},"geometry":{"x":171926.8200000003,"y":2558071.3200000003}},{"attributes":{"ID":61013,"DIS_CODE":0,"TOWNNAME":"歸仁區","LI":"六甲里","LIN":"35鄰","STREET":"六甲六街","SECT":" ","MAREA":" ","LANE":"１１巷","ALLEY":"３弄","HOUSE_NO":"９號","E_COORD97":175584.61157099999,"N_COORD97":2539345.1332700001,"ADDRESS":"六甲六街１１巷３弄９號","OBJECTID":61013},"geometry":{"x":175584.61157100089,"y":2539345.1332750022}},{"attributes":{"ID":61014,"DIS_CODE":0,"TOWNNAME":"歸仁區","LI":"六甲里","LIN":"35鄰","STREET":"六甲六街","SECT":" ","MAREA":" ","LANE":"１１巷","ALLEY":"３弄","HOUSE_NO":"７號","E_COORD97":175588.42518399999,"N_COORD97":2539344.6041100002,"ADDRESS":"六甲六街１１巷３弄７號","OBJECTID":61014},"geometry":{"x":175588.42518400028,"y":2539344.6041080002}},{"attributes":{"ID":61015,"DIS_CODE":0,"TOWNNAME":"安定區","LI":"港南里","LIN":"8鄰","STREET":" ","SECT":" ","MAREA":"港口","LANE":" ","ALLEY":" ","HOUSE_NO":"５９之１號","E_COORD97":171493.44,"N_COORD97":2554293.2999999998,"ADDRESS":"港口５９之１號","OBJECTID":61015},"geometry":{"x":171493.44000000134,"y":2554293.3000000026}},{"attributes":{"ID":61016,"DIS_CODE":0,"TOWNNAME":"新營區","LI":"土庫里","LIN":"2鄰","STREET":" ","SECT":" ","MAREA":"土庫","LANE":" ","ALLEY":" ","HOUSE_NO":"１１之２號","E_COORD97":183167.70999999999,"N_COORD97":2580080.8900000001,"ADDRESS":"土庫１１之２號","OBJECTID":61016},"geometry":{"x":183167.70999999996,"y":2580080.8900000006}},{"attributes":{"ID":61017,"DIS_CODE":0,"TOWNNAME":"南化區","LI":"北寮里","LIN":"1鄰","STREET":" ","SECT":" ","MAREA":"北寮","LANE":" ","ALLEY":" ","HOUSE_NO":"１之８號","E_COORD97":197940.23999999999,"N_COORD97":2552948.7999999998,"ADDRESS":"北寮１之８號","OBJECTID":61017},"geometry":{"x":197940.24000000022,"y":2552948.8000000007}},{"attributes":{"ID":61018,"DIS_CODE":0,"TOWNNAME":"南化區","LI":"北寮里","LIN":"1鄰","STREET":" ","SECT":" ","MAREA":"北寮","LANE":" ","ALLEY":" ","HOUSE_NO":"１之１２號","E_COORD97":197962.59,"N_COORD97":2552926.7999999998,"ADDRESS":"北寮１之１２號","OBJECTID":61018},"geometry":{"x":197962.58999999985,"y":2552926.8000000026}},{"attributes":{"ID":61019,"DIS_CODE":0,"TOWNNAME":"學甲區","LI":"秀昌里","LIN":"1鄰","STREET":" ","SECT":" ","MAREA":"一秀","LANE":" ","ALLEY":" ","HOUSE_NO":"８號之１","E_COORD97":165748.89999999999,"N_COORD97":2570742.9300000002,"ADDRESS":"一秀８號之１","OBJECTID":61019},"geometry":{"x":165748.90000000037,"y":2570742.9299999997}},{"attributes":{"ID":61020,"DIS_CODE":0,"TOWNNAME":"學甲區","LI":"秀昌里","LIN":"1鄰","STREET":" ","SECT":" ","MAREA":"一秀","LANE":" ","ALLEY":" ","HOUSE_NO":"８號","E_COORD97":165764.95000000001,"N_COORD97":2570736.1800000002,"ADDRESS":"一秀８號","OBJECTID":61020},"geometry":{"x":165764.95000000112,"y":2570736.1800000016}},{"attributes":{"ID":61021,"DIS_CODE":0,"TOWNNAME":"學甲區","LI":"秀昌里","LIN":"1鄰","STREET":" ","SECT":" ","MAREA":"一秀","LANE":" ","ALLEY":" ","HOUSE_NO":"９號","E_COORD97":165760.56,"N_COORD97":2570759.4900000002,"ADDRESS":"一秀９號","OBJECTID":61021},"geometry":{"x":165760.55999999959,"y":2570759.4900000002}},{"attributes":{"ID":61022,"DIS_CODE":0,"TOWNNAME":"南化區","LI":"北寮里","LIN":"1鄰","STREET":" ","SECT":" ","MAREA":"北寮","LANE":" ","ALLEY":" ","HOUSE_NO":"１之１６號","E_COORD97":197983.19,"N_COORD97":2552917.7999999998,"ADDRESS":"北寮１之１６號","OBJECTID":61022},"geometry":{"x":197983.19000000041,"y":2552917.8000000007}},{"attributes":{"ID":61023,"DIS_CODE":0,"TOWNNAME":"南化區","LI":"北寮里","LIN":"1鄰","STREET":" ","SECT":" ","MAREA":"北寮","LANE":" ","ALLEY":" ","HOUSE_NO":"１之４號","E_COORD97":197912.04000000001,"N_COORD97":2552966.7999999998,"ADDRESS":"北寮１之４號","OBJECTID":61023},"geometry":{"x":197912.04000000004,"y":2552966.8000000045}},{"attributes":{"ID":61024,"DIS_CODE":0,"TOWNNAME":"歸仁區","LI":"六甲里","LIN":"35鄰","STREET":"六甲六街","SECT":" ","MAREA":" ","LANE":"１１巷","ALLEY":"３弄","HOUSE_NO":"３號","E_COORD97":175596.04000000001,"N_COORD97":2539344.6699999999,"ADDRESS":"六甲六街１１巷３弄３號","OBJECTID":61024},"geometry":{"x":175596.04000000097,"y":2539344.6700000018}},{"attributes":{"ID":61025,"DIS_CODE":0,"TOWNNAME":"歸仁區","LI":"六甲里","LIN":"35鄰","STREET":"六甲六街","SECT":" ","MAREA":" ","LANE":"１１巷","ALLEY":"３弄","HOUSE_NO":"１２號","E_COORD97":175587.09,"N_COORD97":2539360.6699999999,"ADDRESS":"六甲六街１１巷３弄１２號","OBJECTID":61025},"geometry":{"x":175587.09000000078,"y":2539360.6699999999}},{"attributes":{"ID":61026,"DIS_CODE":0,"TOWNNAME":"歸仁區","LI":"六甲里","LIN":"35鄰","STREET":"六甲六街","SECT":" ","MAREA":" ","LANE":"１１巷","ALLEY":"３弄","HOUSE_NO":"５號","E_COORD97":175592.662533,"N_COORD97":2539345.1332700001,"ADDRESS":"六甲六街１１巷３弄５號","OBJECTID":61026},"geometry":{"x":175592.66253300197,"y":2539345.1332750022}},{"attributes":{"ID":61027,"DIS_CODE":0,"TOWNNAME":"永康區","LI":"北灣里","LIN":"35鄰","STREET":"大灣路","SECT":" ","MAREA":" ","LANE":"４０巷","ALLEY":"５８弄","HOUSE_NO":"４９號之２","E_COORD97":175130.63,"N_COORD97":2546139.1200000001,"ADDRESS":"大灣路４０巷５８弄４９號之２","OBJECTID":61027},"geometry":{"x":175130.63000000082,"y":2546139.120000001}},{"attributes":{"ID":61028,"DIS_CODE":0,"TOWNNAME":"永康區","LI":"北灣里","LIN":"35鄰","STREET":"大灣路","SECT":" ","MAREA":" ","LANE":"４０巷","ALLEY":"５８弄","HOUSE_NO":"１３號之１","E_COORD97":175107.60999999999,"N_COORD97":2546116.1699999999,"ADDRESS":"大灣路４０巷５８弄１３號之１","OBJECTID":61028},"geometry":{"x":175107.61000000127,"y":2546116.1700000018}},{"attributes":{"ID":61029,"DIS_CODE":0,"TOWNNAME":"安南區","LI":"城中里","LIN":"8鄰","STREET":"青砂街","SECT":"一段","MAREA":" ","LANE":" ","ALLEY":" ","HOUSE_NO":"１１０號","E_COORD97":160642.16,"N_COORD97":2551594.98,"ADDRESS":"青砂街一段１１０號","OBJECTID":61029},"geometry":{"x":160642.16000000108,"y":2551594.9800000004}},{"attributes":{"ID":61030,"DIS_CODE":0,"TOWNNAME":"安南區","LI":"城北里","LIN":"8鄰","STREET":"安明路","SECT":"四段","MAREA":" ","LANE":" ","ALLEY":" ","HOUSE_NO":"３０３之２號","E_COORD97":161223.87,"N_COORD97":2551120.6400000001,"ADDRESS":"安明路四段３０３之２號","OBJECTID":61030},"geometry":{"x":161223.87000000104,"y":2551120.6400000025}},{"attributes":{"ID":61031,"DIS_CODE":0,"TOWNNAME":"佳里區","LI":"忠仁里","LIN":"8鄰","STREET":"延平路","SECT":" ","MAREA":" ","LANE":" ","ALLEY":" ","HOUSE_NO":"２１６號","E_COORD97":165907.29000000001,"N_COORD97":2562108.4700000002,"ADDRESS":"延平路２１６號","OBJECTID":61031},"geometry":{"x":165907.29000000004,"y":2562108.4700000007}},{"attributes":{"ID":61032,"DIS_CODE":0,"TOWNNAME":"佳里區","LI":"六安里","LIN":"8鄰","STREET":"延平路","SECT":" ","MAREA":" ","LANE":" ","ALLEY":" ","HOUSE_NO":"４８８號","E_COORD97":165879.10000000001,"N_COORD97":2562888.4100000001,"ADDRESS":"延平路４８８號","OBJECTID":61032},"geometry":{"x":165879.09999999963,"y":2562888.4100000001}},{"attributes":{"ID":61033,"DIS_CODE":0,"TOWNNAME":"佳里區","LI":"六安里","LIN":"8鄰","STREET":"延平路","SECT":" ","MAREA":" ","LANE":" ","ALLEY":" ","HOUSE_NO":"４６８號之２","E_COORD97":165865.14999999999,"N_COORD97":2562815.25,"ADDRESS":"延平路４６８號之２","OBJECTID":61033},"geometry":{"x":165865.1500000013,"y":2562815.2499999981}},{"attributes":{"ID":61034,"DIS_CODE":0,"TOWNNAME":"佳里區","LI":"六安里","LIN":"8鄰","STREET":"延平路","SECT":" ","MAREA":" ","LANE":" ","ALLEY":" ","HOUSE_NO":"４６８號","E_COORD97":165868.81,"N_COORD97":2562794.6800000002,"ADDRESS":"延平路４６８號","OBJECTID":61034},"geometry":{"x":165868.81000000052,"y":2562794.6799999997}},{"attributes":{"ID":61035,"DIS_CODE":0,"TOWNNAME":"佳里區","LI":"六安里","LIN":"8鄰","STREET":"延平路","SECT":" ","MAREA":" ","LANE":" ","ALLEY":" ","HOUSE_NO":"４８２號","E_COORD97":165877.45000000001,"N_COORD97":2562874.7200000002,"ADDRESS":"延平路４８２號","OBJECTID":61035},"geometry":{"x":165877.45000000019,"y":2562874.7200000025}},{"attributes":{"ID":61036,"DIS_CODE":0,"TOWNNAME":"佳里區","LI":"六安里","LIN":"8鄰","STREET":"延平路","SECT":" ","MAREA":" ","LANE":" ","ALLEY":" ","HOUSE_NO":"４８６號之１","E_COORD97":165878.67000000001,"N_COORD97":2562884.4199999999,"ADDRESS":"延平路４８６號之１","OBJECTID":61036},"geometry":{"x":165878.66999999993,"y":2562884.4199999999}},{"attributes":{"ID":61037,"DIS_CODE":0,"TOWNNAME":"北區","LI":"成德里","LIN":"35鄰","STREET":"育德路","SECT":" ","MAREA":" ","LANE":"５９９巷","ALLEY":"４３弄","HOUSE_NO":"９號","E_COORD97":168606.51999999999,"N_COORD97":2546264.1800000002,"ADDRESS":"育德路５９９巷４３弄９號","OBJECTID":61037},"geometry":{"x":168606.52000000048,"y":2546264.1800000016}},{"attributes":{"ID":61038,"DIS_CODE":0,"TOWNNAME":"北區","LI":"成德里","LIN":"35鄰","STREET":"育德路","SECT":" ","MAREA":" ","LANE":"５９９巷","ALLEY":"４３弄","HOUSE_NO":"７號","E_COORD97":168608.42999999999,"N_COORD97":2546272.9100000001,"ADDRESS":"育德路５９９巷４３弄７號","OBJECTID":61038},"geometry":{"x":168608.43000000156,"y":2546272.9100000039}},{"attributes":{"ID":61039,"DIS_CODE":0,"TOWNNAME":"安定區","LI":"新吉里","LIN":"6鄰","STREET":" ","SECT":" ","MAREA":"新吉","LANE":" ","ALLEY":" ","HOUSE_NO":"４８號","E_COORD97":169176.17000000001,"N_COORD97":2554081.25,"ADDRESS":"新吉４８號","OBJECTID":61039},"geometry":{"x":169176.16999999993,"y":2554081.25}},{"attributes":{"ID":61040,"DIS_CODE":0,"TOWNNAME":"北區","LI":"成德里","LIN":"35鄰","STREET":"育德路","SECT":" ","MAREA":" ","LANE":"５９９巷","ALLEY":"４３弄","HOUSE_NO":"５號","E_COORD97":168610.32999999999,"N_COORD97":2546283.5499999998,"ADDRESS":"育德路５９９巷４３弄５號","OBJECTID":61040},"geometry":{"x":168610.33000000101,"y":2546283.5500000026}},{"attributes":{"ID":61041,"DIS_CODE":0,"TOWNNAME":"永康區","LI":"網寮里","LIN":"14鄰","STREET":"永勝街","SECT":" ","MAREA":" ","LANE":"３０８巷","ALLEY":"２弄","HOUSE_NO":"２７號","E_COORD97":173471.35999999999,"N_COORD97":2546678.7000000002,"ADDRESS":"永勝街３０８巷２弄２７號","OBJECTID":61041},"geometry":{"x":173471.3600000022,"y":2546678.6999999993}},{"attributes":{"ID":61042,"DIS_CODE":0,"TOWNNAME":"佳里區","LI":"忠仁里","LIN":"8鄰","STREET":" ","SECT":" ","MAREA":"忠仁","LANE":" ","ALLEY":" ","HOUSE_NO":"４９號之１０","E_COORD97":165932.23000000001,"N_COORD97":2562120.9500000002,"ADDRESS":"忠仁４９號之１０","OBJECTID":61042},"geometry":{"x":165932.23000000231,"y":2562120.9499999993}},{"attributes":{"ID":61043,"DIS_CODE":0,"TOWNNAME":"佳里區","LI":"忠仁里","LIN":"8鄰","STREET":" ","SECT":" ","MAREA":"忠仁","LANE":" ","ALLEY":" ","HOUSE_NO":"４９號之１","E_COORD97":165947.82000000001,"N_COORD97":2562122.0699999998,"ADDRESS":"忠仁４９號之１","OBJECTID":61043},"geometry":{"x":165947.8200000003,"y":2562122.070000004}},{"attributes":{"ID":61044,"DIS_CODE":0,"TOWNNAME":"佳里區","LI":"忠仁里","LIN":"8鄰","STREET":" ","SECT":" ","MAREA":"忠仁","LANE":" ","ALLEY":" ","HOUSE_NO":"４９號之２","E_COORD97":165947.07999999999,"N_COORD97":2562125.5,"ADDRESS":"忠仁４９號之２","OBJECTID":61044},"geometry":{"x":165947.08000000101,"y":2562125.5000000037}},{"attributes":{"ID":61045,"DIS_CODE":0,"TOWNNAME":"北區","LI":"成德里","LIN":"35鄰","STREET":"育德路","SECT":" ","MAREA":" ","LANE":"５９９巷","ALLEY":"４３弄","HOUSE_NO":"３號","E_COORD97":168612.07999999999,"N_COORD97":2546292.2799999998,"ADDRESS":"育德路５９９巷４３弄３號","OBJECTID":61045},"geometry":{"x":168612.08000000007,"y":2546292.2799999993}},{"attributes":{"ID":61046,"DIS_CODE":0,"TOWNNAME":"北區","LI":"成德里","LIN":"35鄰","STREET":"育德路","SECT":" ","MAREA":" ","LANE":"５９９巷","ALLEY":"４３弄","HOUSE_NO":"１號","E_COORD97":168613.35000000001,"N_COORD97":2546301.4900000002,"ADDRESS":"育德路５９９巷４３弄１號","OBJECTID":61046},"geometry":{"x":168613.34999999963,"y":2546301.4900000002}},{"attributes":{"ID":61047,"DIS_CODE":0,"TOWNNAME":"北區","LI":"成德里","LIN":"35鄰","STREET":"育德路","SECT":" ","MAREA":" ","LANE":"５９９巷","ALLEY":"４３弄","HOUSE_NO":"２號","E_COORD97":168603.03,"N_COORD97":2546303.71,"ADDRESS":"育德路５９９巷４３弄２號","OBJECTID":61047},"geometry":{"x":168603.03000000026,"y":2546303.7100000028}},{"attributes":{"ID":61048,"DIS_CODE":0,"TOWNNAME":"北區","LI":"成德里","LIN":"35鄰","STREET":"育德路","SECT":" ","MAREA":" ","LANE":"５９９巷","ALLEY":"４３弄","HOUSE_NO":"６號","E_COORD97":168601.28,"N_COORD97":2546294.8199999998,"ADDRESS":"育德路５９９巷４３弄６號","OBJECTID":61048},"geometry":{"x":168601.28000000026,"y":2546294.8200000022}},{"attributes":{"ID":61049,"DIS_CODE":0,"TOWNNAME":"北區","LI":"成德里","LIN":"35鄰","STREET":"育德路","SECT":" ","MAREA":" ","LANE":"５９９巷","ALLEY":"４３弄","HOUSE_NO":"８號","E_COORD97":168598.59,"N_COORD97":2546285.1400000001,"ADDRESS":"育德路５９９巷４３弄８號","OBJECTID":61049},"geometry":{"x":168598.58999999985,"y":2546285.1399999987}},{"attributes":{"ID":61050,"DIS_CODE":0,"TOWNNAME":"佳里區","LI":"六安里","LIN":"8鄰","STREET":"延平路","SECT":" ","MAREA":" ","LANE":" ","ALLEY":" ","HOUSE_NO":"５００號","E_COORD97":165884.29000000001,"N_COORD97":2562911.46,"ADDRESS":"延平路５００號","OBJECTID":61050},"geometry":{"x":165884.29000000097,"y":2562911.4600000028}},{"attributes":{"ID":61051,"DIS_CODE":0,"TOWNNAME":"佳里區","LI":"六安里","LIN":"8鄰","STREET":"延平路","SECT":" ","MAREA":" ","LANE":" ","ALLEY":" ","HOUSE_NO":"５０２號","E_COORD97":165885.22,"N_COORD97":2562916.9399999999,"ADDRESS":"延平路５０２號","OBJECTID":61051},"geometry":{"x":165885.21999999974,"y":2562916.9400000013}},{"attributes":{"ID":61052,"DIS_CODE":0,"TOWNNAME":"佳里區","LI":"忠仁里","LIN":"8鄰","STREET":" ","SECT":" ","MAREA":"忠仁","LANE":" ","ALLEY":" ","HOUSE_NO":"４９號之３","E_COORD97":165946.44,"N_COORD97":2562128.54,"ADDRESS":"忠仁４９號之３","OBJECTID":61052},"geometry":{"x":165946.44000000134,"y":2562128.540000001}},{"attributes":{"ID":61053,"DIS_CODE":0,"TOWNNAME":"佳里區","LI":"忠仁里","LIN":"8鄰","STREET":" ","SECT":" ","MAREA":"忠仁","LANE":" ","ALLEY":" ","HOUSE_NO":"４９號之５","E_COORD97":165945.29999999999,"N_COORD97":2562135.0499999998,"ADDRESS":"忠仁４９號之５","OBJECTID":61053},"geometry":{"x":165945.30000000075,"y":2562135.0500000007}},{"attributes":{"ID":61054,"DIS_CODE":0,"TOWNNAME":"佳里區","LI":"忠仁里","LIN":"8鄰","STREET":" ","SECT":" ","MAREA":"忠仁","LANE":" ","ALLEY":" ","HOUSE_NO":"４９號之６","E_COORD97":165930.07000000001,"N_COORD97":2562133.48,"ADDRESS":"忠仁４９號之６","OBJECTID":61054},"geometry":{"x":165930.07000000123,"y":2562133.4800000023}},{"attributes":{"ID":61055,"DIS_CODE":0,"TOWNNAME":"佳里區","LI":"忠仁里","LIN":"8鄰","STREET":" ","SECT":" ","MAREA":"忠仁","LANE":" ","ALLEY":" ","HOUSE_NO":"４９號之７","E_COORD97":165930.51000000001,"N_COORD97":2562130.5699999998,"ADDRESS":"忠仁４９號之７","OBJECTID":61055},"geometry":{"x":165930.50999999978,"y":2562130.5700000003}},{"attributes":{"ID":61056,"DIS_CODE":0,"TOWNNAME":"佳里區","LI":"六安里","LIN":"8鄰","STREET":"延平路","SECT":" ","MAREA":" ","LANE":" ","ALLEY":" ","HOUSE_NO":"５０４號","E_COORD97":165886.19,"N_COORD97":2562923.0899999999,"ADDRESS":"延平路５０４號","OBJECTID":61056},"geometry":{"x":165886.19000000041,"y":2562923.0900000017}},{"attributes":{"ID":61057,"DIS_CODE":0,"TOWNNAME":"佳里區","LI":"忠仁里","LIN":"8鄰","STREET":" ","SECT":" ","MAREA":"忠仁","LANE":" ","ALLEY":" ","HOUSE_NO":"４９號之８","E_COORD97":165930.92000000001,"N_COORD97":2562127.3199999998,"ADDRESS":"忠仁４９號之８","OBJECTID":61057},"geometry":{"x":165930.92000000086,"y":2562127.3200000022}},{"attributes":{"ID":61058,"DIS_CODE":0,"TOWNNAME":"佳里區","LI":"忠仁里","LIN":"8鄰","STREET":" ","SECT":" ","MAREA":"忠仁","LANE":" ","ALLEY":" ","HOUSE_NO":"４９號之９","E_COORD97":165931.57999999999,"N_COORD97":2562123.9500000002,"ADDRESS":"忠仁４９號之９","OBJECTID":61058},"geometry":{"x":165931.58000000101,"y":2562123.9499999993}},{"attributes":{"ID":61059,"DIS_CODE":0,"TOWNNAME":"佳里區","LI":"忠仁里","LIN":"8鄰","STREET":" ","SECT":" ","MAREA":"忠仁","LANE":" ","ALLEY":" ","HOUSE_NO":"５０號","E_COORD97":165982.26999999999,"N_COORD97":2562127.71,"ADDRESS":"忠仁５０號","OBJECTID":61059},"geometry":{"x":165982.27000000048,"y":2562127.7100000009}},{"attributes":{"ID":61060,"DIS_CODE":0,"TOWNNAME":"南化區","LI":"北寮里","LIN":"1鄰","STREET":" ","SECT":" ","MAREA":"北寮","LANE":" ","ALLEY":" ","HOUSE_NO":"１之５０號","E_COORD97":198280.79000000001,"N_COORD97":2552698.7999999998,"ADDRESS":"北寮１之５０號","OBJECTID":61060},"geometry":{"x":198280.79000000097,"y":2552698.7999999989}},{"attributes":{"ID":61061,"DIS_CODE":0,"TOWNNAME":"南化區","LI":"北寮里","LIN":"1鄰","STREET":" ","SECT":" ","MAREA":"北寮","LANE":" ","ALLEY":" ","HOUSE_NO":"１之９號","E_COORD97":197946.54000000001,"N_COORD97":2552941.7999999998,"ADDRESS":"北寮１之９號","OBJECTID":61061},"geometry":{"x":197946.54000000004,"y":2552941.8000000007}},{"attributes":{"ID":61062,"DIS_CODE":0,"TOWNNAME":"南化區","LI":"北寮里","LIN":"1鄰","STREET":" ","SECT":" ","MAREA":"北寮","LANE":" ","ALLEY":" ","HOUSE_NO":"１之２９號","E_COORD97":198171.19,"N_COORD97":2552782.7999999998,"ADDRESS":"北寮１之２９號","OBJECTID":61062},"geometry":{"x":198171.19000000041,"y":2552782.8000000007}},{"attributes":{"ID":61063,"DIS_CODE":0,"TOWNNAME":"南化區","LI":"北寮里","LIN":"1鄰","STREET":" ","SECT":" ","MAREA":"北寮","LANE":" ","ALLEY":" ","HOUSE_NO":"１之１７號","E_COORD97":197997.48999999999,"N_COORD97":2552905.7999999998,"ADDRESS":"北寮１之１７號","OBJECTID":61063},"geometry":{"x":197997.49000000022,"y":2552905.8000000045}},{"attributes":{"ID":61064,"DIS_CODE":0,"TOWNNAME":"新市區","LI":"大營里","LIN":"1鄰","STREET":" ","SECT":" ","MAREA":"大營","LANE":" ","ALLEY":" ","HOUSE_NO":"１７之１號","E_COORD97":179716.59,"N_COORD97":2555601.2999999998,"ADDRESS":"大營１７之１號","OBJECTID":61064},"geometry":{"x":179716.59000000078,"y":2555601.3000000045}},{"attributes":{"ID":61065,"DIS_CODE":0,"TOWNNAME":"新市區","LI":"三舍里","LIN":"1鄰","STREET":" ","SECT":" ","MAREA":"三舍","LANE":" ","ALLEY":" ","HOUSE_NO":"２０之１號","E_COORD97":177763.39000000001,"N_COORD97":2554293.0499999998,"ADDRESS":"三舍２０之１號","OBJECTID":61065},"geometry":{"x":177763.3900000006,"y":2554293.0500000007}},{"attributes":{"ID":61066,"DIS_CODE":0,"TOWNNAME":"新市區","LI":"大營里","LIN":"1鄰","STREET":" ","SECT":" ","MAREA":"大營","LANE":" ","ALLEY":" ","HOUSE_NO":"１０之１０號","E_COORD97":179773.20999999999,"N_COORD97":2555588.0499999998,"ADDRESS":"大營１０之１０號","OBJECTID":61066},"geometry":{"x":179773.21000000089,"y":2555588.0500000007}},{"attributes":{"ID":61067,"DIS_CODE":0,"TOWNNAME":"新市區","LI":"永就里","LIN":"1鄰","STREET":" ","SECT":" ","MAREA":"永就","LANE":" ","ALLEY":" ","HOUSE_NO":"１之３號","E_COORD97":178385.60999999999,"N_COORD97":2551224.0499999998,"ADDRESS":"永就１之３號","OBJECTID":61067},"geometry":{"x":178385.6099999994,"y":2551224.0500000026}},{"attributes":{"ID":61068,"DIS_CODE":0,"TOWNNAME":"新市區","LI":"永就里","LIN":"1鄰","STREET":" ","SECT":" ","MAREA":"永就","LANE":" ","ALLEY":" ","HOUSE_NO":"１之５號","E_COORD97":178400.01000000001,"N_COORD97":2551226.0499999998,"ADDRESS":"永就１之５號","OBJECTID":61068},"geometry":{"x":178400.01000000071,"y":2551226.0500000045}},{"attributes":{"ID":61069,"DIS_CODE":0,"TOWNNAME":"新市區","LI":"永就里","LIN":"1鄰","STREET":" ","SECT":" ","MAREA":"永就","LANE":" ","ALLEY":" ","HOUSE_NO":"３之１號","E_COORD97":178457.26000000001,"N_COORD97":2551244.0499999998,"ADDRESS":"永就３之１號","OBJECTID":61069},"geometry":{"x":178457.26000000071,"y":2551244.0500000026}},{"attributes":{"ID":61070,"DIS_CODE":0,"TOWNNAME":"新市區","LI":"永就里","LIN":"1鄰","STREET":" ","SECT":" ","MAREA":"永就","LANE":" ","ALLEY":" ","HOUSE_NO":"７之１號","E_COORD97":178486.85999999999,"N_COORD97":2551309.2999999998,"ADDRESS":"永就７之１號","OBJECTID":61070},"geometry":{"x":178486.86000000034,"y":2551309.3000000026}},{"attributes":{"ID":61071,"DIS_CODE":0,"TOWNNAME":"山上區","LI":"山上里","LIN":"1鄰","STREET":" ","SECT":" ","MAREA":"山上","LANE":" ","ALLEY":" ","HOUSE_NO":"４０之９號","E_COORD97":184046.45999999999,"N_COORD97":2555377.2999999998,"ADDRESS":"山上４０之９號","OBJECTID":61071},"geometry":{"x":184046.45999999996,"y":2555377.3000000045}},{"attributes":{"ID":61072,"DIS_CODE":0,"TOWNNAME":"山上區","LI":"山上里","LIN":"1鄰","STREET":" ","SECT":" ","MAREA":"山上","LANE":" ","ALLEY":" ","HOUSE_NO":"４０之１１號","E_COORD97":184047.01000000001,"N_COORD97":2555369.2999999998,"ADDRESS":"山上４０之１１號","OBJECTID":61072},"geometry":{"x":184047.00999999978,"y":2555369.3000000007}},{"attributes":{"ID":61073,"DIS_CODE":0,"TOWNNAME":"北區","LI":"成德里","LIN":"35鄰","STREET":"育德路","SECT":" ","MAREA":" ","LANE":"５９９巷","ALLEY":"４３弄","HOUSE_NO":"１０號","E_COORD97":168596.20000000001,"N_COORD97":2546276.8799999999,"ADDRESS":"育德路５９９巷４３弄１０號","OBJECTID":61073},"geometry":{"x":168596.20000000019,"y":2546276.879999999}},{"attributes":{"ID":61074,"DIS_CODE":0,"TOWNNAME":"北區","LI":"成德里","LIN":"35鄰","STREET":"育德路","SECT":" ","MAREA":" ","LANE":"５９９巷","ALLEY":"４３弄","HOUSE_NO":"１２號","E_COORD97":168594.14000000001,"N_COORD97":2546267.3599999999,"ADDRESS":"育德路５９９巷４３弄１２號","OBJECTID":61074},"geometry":{"x":168594.1400000006,"y":2546267.3599999994}},{"attributes":{"ID":61075,"DIS_CODE":0,"TOWNNAME":"山上區","LI":"山上里","LIN":"1鄰","STREET":" ","SECT":" ","MAREA":"山上","LANE":" ","ALLEY":" ","HOUSE_NO":"４０之３號","E_COORD97":184044.56,"N_COORD97":2555404.2999999998,"ADDRESS":"山上４０之３號","OBJECTID":61075},"geometry":{"x":184044.56000000052,"y":2555404.2999999989}},{"attributes":{"ID":61076,"DIS_CODE":0,"TOWNNAME":"新市區","LI":"永就里","LIN":"1鄰","STREET":" ","SECT":" ","MAREA":"永就","LANE":" ","ALLEY":" ","HOUSE_NO":"１之６號","E_COORD97":178407.31,"N_COORD97":2551226.7999999998,"ADDRESS":"永就１之６號","OBJECTID":61076},"geometry":{"x":178407.31000000145,"y":2551226.8000000007}},{"attributes":{"ID":61077,"DIS_CODE":0,"TOWNNAME":"安定區","LI":"保西里","LIN":"1鄰","STREET":" ","SECT":" ","MAREA":"安定","LANE":" ","ALLEY":" ","HOUSE_NO":"３３４號之１","E_COORD97":171724.85000000001,"N_COORD97":2557566.3199999998,"ADDRESS":"安定３３４號之１","OBJECTID":61077},"geometry":{"x":171724.85000000056,"y":2557566.3200000003}},{"attributes":{"ID":61078,"DIS_CODE":0,"TOWNNAME":"新市區","LI":"永就里","LIN":"1鄰","STREET":" ","SECT":" ","MAREA":"永就","LANE":" ","ALLEY":" ","HOUSE_NO":"１之１號","E_COORD97":178370.67000000001,"N_COORD97":2551222.0499999998,"ADDRESS":"永就１之１號","OBJECTID":61078},"geometry":{"x":178370.66999999993,"y":2551222.0500000007}},{"attributes":{"ID":61079,"DIS_CODE":0,"TOWNNAME":"北區","LI":"成德里","LIN":"35鄰","STREET":"育德路","SECT":" ","MAREA":" ","LANE":"５９９巷","ALLEY":"４３弄","HOUSE_NO":"１５號","E_COORD97":168599.38,"N_COORD97":2546239.3399999999,"ADDRESS":"育德路５９９巷４３弄１５號","OBJECTID":61079},"geometry":{"x":168599.38000000082,"y":2546239.3400000036}},{"attributes":{"ID":61080,"DIS_CODE":0,"TOWNNAME":"北區","LI":"成德里","LIN":"35鄰","STREET":"育德路","SECT":" ","MAREA":" ","LANE":"５９９巷","ALLEY":"４３弄","HOUSE_NO":"１３號","E_COORD97":168601.60000000001,"N_COORD97":2546247.5099999998,"ADDRESS":"育德路５９９巷４３弄１３號","OBJECTID":61080},"geometry":{"x":168601.59999999963,"y":2546247.5099999998}},{"attributes":{"ID":61081,"DIS_CODE":0,"TOWNNAME":"北區","LI":"成德里","LIN":"35鄰","STREET":"育德路","SECT":" ","MAREA":" ","LANE":"５９９巷","ALLEY":"４３弄","HOUSE_NO":"１１號","E_COORD97":168603.98000000001,"N_COORD97":2546255.77,"ADDRESS":"育德路５９９巷４３弄１１號","OBJECTID":61081},"geometry":{"x":168603.98000000138,"y":2546255.7699999996}},{"attributes":{"ID":61082,"DIS_CODE":0,"TOWNNAME":"北區","LI":"成德里","LIN":"35鄰","STREET":"育德路","SECT":" ","MAREA":" ","LANE":"５９９巷","ALLEY":"４３弄","HOUSE_NO":"１６號","E_COORD97":168591.44,"N_COORD97":2546258.4700000002,"ADDRESS":"育德路５９９巷４３弄１６號","OBJECTID":61082},"geometry":{"x":168591.44000000041,"y":2546258.4700000007}},{"attributes":{"ID":61083,"DIS_CODE":0,"TOWNNAME":"北區","LI":"成德里","LIN":"35鄰","STREET":"育德路","SECT":" ","MAREA":" ","LANE":"５９９巷","ALLEY":"４３弄","HOUSE_NO":"１８號","E_COORD97":168589.70000000001,"N_COORD97":2546251.0099999998,"ADDRESS":"育德路５９９巷４３弄１８號","OBJECTID":61083},"geometry":{"x":168589.70000000019,"y":2546251.0099999998}},{"attributes":{"ID":61084,"DIS_CODE":0,"TOWNNAME":"北區","LI":"成德里","LIN":"35鄰","STREET":"育德路","SECT":" ","MAREA":" ","LANE":"５９９巷","ALLEY":"４３弄","HOUSE_NO":"２０號","E_COORD97":168587.95000000001,"N_COORD97":2546240.5299999998,"ADDRESS":"育德路５９９巷４３弄２０號","OBJECTID":61084},"geometry":{"x":168587.95000000019,"y":2546240.5300000031}},{"attributes":{"ID":61085,"DIS_CODE":0,"TOWNNAME":"北區","LI":"大港里","LIN":"35鄰","STREET":"大興街","SECT":" ","MAREA":" ","LANE":"６０２巷","ALLEY":"１弄","HOUSE_NO":"１１號","E_COORD97":165818.23000000001,"N_COORD97":2545403.6899999999,"ADDRESS":"大興街６０２巷１弄１１號","OBJECTID":61085},"geometry":{"x":165818.23000000045,"y":2545403.6900000013}},{"attributes":{"ID":61086,"DIS_CODE":0,"TOWNNAME":"北區","LI":"大港里","LIN":"35鄰","STREET":"大興街","SECT":" ","MAREA":" ","LANE":"６０２巷","ALLEY":"１弄","HOUSE_NO":"１３號","E_COORD97":165815.17999999999,"N_COORD97":2545401.7000000002,"ADDRESS":"大興街６０２巷１弄１３號","OBJECTID":61086},"geometry":{"x":165815.18000000063,"y":2545401.6999999993}},{"attributes":{"ID":61087,"DIS_CODE":0,"TOWNNAME":"北區","LI":"大港里","LIN":"35鄰","STREET":"大興街","SECT":" ","MAREA":" ","LANE":"６０２巷","ALLEY":"１弄","HOUSE_NO":"４１號","E_COORD97":165758.89999999999,"N_COORD97":2545376.8399999999,"ADDRESS":"大興街６０２巷１弄４１號","OBJECTID":61087},"geometry":{"x":165758.90000000037,"y":2545376.8399999999}},{"attributes":{"ID":61088,"DIS_CODE":0,"TOWNNAME":"佳里區","LI":"忠仁里","LIN":"8鄰","STREET":"忠仁街","SECT":" ","MAREA":" ","LANE":" ","ALLEY":" ","HOUSE_NO":"６１號","E_COORD97":166025.01999999999,"N_COORD97":2562142.2999999998,"ADDRESS":"忠仁街６１號","OBJECTID":61088},"geometry":{"x":166025.02000000048,"y":2562142.3000000026}},{"attributes":{"ID":61089,"DIS_CODE":0,"TOWNNAME":"佳里區","LI":"六安里","LIN":"8鄰","STREET":"忠孝東路","SECT":" ","MAREA":" ","LANE":" ","ALLEY":" ","HOUSE_NO":"７９號","E_COORD97":165904.22,"N_COORD97":2562797.6400000001,"ADDRESS":"忠孝東路７９號","OBJECTID":61089},"geometry":{"x":165904.21999999974,"y":2562797.6400000025}},{"attributes":{"ID":61090,"DIS_CODE":0,"TOWNNAME":"佳里區","LI":"六安里","LIN":"8鄰","STREET":"忠孝東路","SECT":" ","MAREA":" ","LANE":" ","ALLEY":" ","HOUSE_NO":"８５號","E_COORD97":165885.01000000001,"N_COORD97":2562805.3900000001,"ADDRESS":"忠孝東路８５號","OBJECTID":61090},"geometry":{"x":165885.00999999978,"y":2562805.3900000025}},{"attributes":{"ID":61091,"DIS_CODE":0,"TOWNNAME":"佳里區","LI":"六安里","LIN":"8鄰","STREET":"忠孝東路","SECT":" ","MAREA":" ","LANE":" ","ALLEY":" ","HOUSE_NO":"９１號","E_COORD97":165877.89000000001,"N_COORD97":2562810.6099999999,"ADDRESS":"忠孝東路９１號","OBJECTID":61091},"geometry":{"x":165877.8900000006,"y":2562810.6100000013}},{"attributes":{"ID":61092,"DIS_CODE":0,"TOWNNAME":"佳里區","LI":"鎮山里","LIN":"8鄰","STREET":"信義一街","SECT":" ","MAREA":" ","LANE":" ","ALLEY":" ","HOUSE_NO":"４１號","E_COORD97":166332.07000000001,"N_COORD97":2561638.8300000001,"ADDRESS":"信義一街４１號","OBJECTID":61092},"geometry":{"x":166332.07000000123,"y":2561638.8300000019}},{"attributes":{"ID":61093,"DIS_CODE":0,"TOWNNAME":"佳里區","LI":"鎮山里","LIN":"8鄰","STREET":"信義一街","SECT":" ","MAREA":" ","LANE":" ","ALLEY":" ","HOUSE_NO":"４３號","E_COORD97":166329.06,"N_COORD97":2561641.8399999999,"ADDRESS":"信義一街４３號","OBJECTID":61093},"geometry":{"x":166329.06000000145,"y":2561641.8400000036}},{"attributes":{"ID":61094,"DIS_CODE":0,"TOWNNAME":"佳里區","LI":"鎮山里","LIN":"8鄰","STREET":"信義一街","SECT":" ","MAREA":" ","LANE":" ","ALLEY":" ","HOUSE_NO":"４５號","E_COORD97":166326.04000000001,"N_COORD97":2561644.8500000001,"ADDRESS":"信義一街４５號","OBJECTID":61094},"geometry":{"x":166326.04000000004,"y":2561644.8500000034}},{"attributes":{"ID":61095,"DIS_CODE":0,"TOWNNAME":"佳里區","LI":"鎮山里","LIN":"8鄰","STREET":"信義一街","SECT":" ","MAREA":" ","LANE":" ","ALLEY":" ","HOUSE_NO":"４７號","E_COORD97":166323.03,"N_COORD97":2561647.8599999999,"ADDRESS":"信義一街４７號","OBJECTID":61095},"geometry":{"x":166323.03000000026,"y":2561647.8600000031}},{"attributes":{"ID":61096,"DIS_CODE":0,"TOWNNAME":"佳里區","LI":"鎮山里","LIN":"8鄰","STREET":"信義一街","SECT":" ","MAREA":" ","LANE":" ","ALLEY":" ","HOUSE_NO":"４９號","E_COORD97":166320.01999999999,"N_COORD97":2561650.8700000001,"ADDRESS":"信義一街４９號","OBJECTID":61096},"geometry":{"x":166320.01999999955,"y":2561650.8700000029}},{"attributes":{"ID":61097,"DIS_CODE":0,"TOWNNAME":"北區","LI":"大港里","LIN":"35鄰","STREET":"大興街","SECT":" ","MAREA":" ","LANE":"６０２巷","ALLEY":"１弄","HOUSE_NO":"４３號","E_COORD97":165755.42000000001,"N_COORD97":2545374.8500000001,"ADDRESS":"大興街６０２巷１弄４３號","OBJECTID":61097},"geometry":{"x":165755.41999999993,"y":2545374.8500000015}},{"attributes":{"ID":61098,"DIS_CODE":0,"TOWNNAME":"北區","LI":"大港里","LIN":"35鄰","STREET":"大興街","SECT":" ","MAREA":" ","LANE":"６０２巷","ALLEY":"１弄","HOUSE_NO":"４５號","E_COORD97":165750.92999999999,"N_COORD97":2545372.8700000001,"ADDRESS":"大興街６０２巷１弄４５號","OBJECTID":61098},"geometry":{"x":165750.93000000063,"y":2545372.8700000029}},{"attributes":{"ID":61099,"DIS_CODE":0,"TOWNNAME":"永康區","LI":"埔園里","LIN":"36鄰","STREET":"龍中街","SECT":" ","MAREA":" ","LANE":"４８７巷","ALLEY":"１５弄","HOUSE_NO":"７號","E_COORD97":174359.89999999999,"N_COORD97":2548331.1499999999,"ADDRESS":"龍中街４８７巷１５弄７號","OBJECTID":61099},"geometry":{"x":174359.9000000013,"y":2548331.1500000004}},{"attributes":{"ID":61100,"DIS_CODE":0,"TOWNNAME":"北區","LI":"大港里","LIN":"35鄰","STREET":"大興街","SECT":" ","MAREA":" ","LANE":"６０２巷","ALLEY":"１弄","HOUSE_NO":"４７號","E_COORD97":165747.59,"N_COORD97":2545371.1600000001,"ADDRESS":"大興街６０２巷１弄４７號","OBJECTID":61100},"geometry":{"x":165747.58999999985,"y":2545371.1600000001}},{"attributes":{"ID":61101,"DIS_CODE":0,"TOWNNAME":"北區","LI":"大港里","LIN":"35鄰","STREET":"大興街","SECT":" ","MAREA":" ","LANE":"６０２巷","ALLEY":"１弄","HOUSE_NO":"５號","E_COORD97":165830.84,"N_COORD97":2545409.6499999999,"ADDRESS":"大興街６０２巷１弄５號","OBJECTID":61101},"geometry":{"x":165830.84000000171,"y":2545409.6500000004}},{"attributes":{"ID":61102,"DIS_CODE":0,"TOWNNAME":"歸仁區","LI":"六甲里","LIN":"35鄰","STREET":"六甲六街","SECT":" ","MAREA":" ","LANE":"１１巷","ALLEY":"３弄","HOUSE_NO":"１號","E_COORD97":175600.14000000001,"N_COORD97":2539344.6699999999,"ADDRESS":"六甲六街１１巷３弄１號","OBJECTID":61102},"geometry":{"x":175600.1400000006,"y":2539344.6700000018}},{"attributes":{"ID":61103,"DIS_CODE":0,"TOWNNAME":"永康區","LI":"埔園里","LIN":"38鄰","STREET":"龍國街","SECT":" ","MAREA":" ","LANE":"１２８巷","ALLEY":"１９弄","HOUSE_NO":"３０號","E_COORD97":174272.20000000001,"N_COORD97":2547996.1600000001,"ADDRESS":"龍國街１２８巷１９弄３０號","OBJECTID":61103},"geometry":{"x":174272.20000000019,"y":2547996.1600000001}},{"attributes":{"ID":61104,"DIS_CODE":0,"TOWNNAME":"永康區","LI":"網寮里","LIN":"14鄰","STREET":"永勝街","SECT":" ","MAREA":" ","LANE":"３０８巷","ALLEY":"２弄","HOUSE_NO":"３號","E_COORD97":173479.70000000001,"N_COORD97":2546723.1699999999,"ADDRESS":"永勝街３０８巷２弄３號","OBJECTID":61104},"geometry":{"x":173479.70000000112,"y":2546723.1700000018}},{"attributes":{"ID":61105,"DIS_CODE":0,"TOWNNAME":"新市區","LI":"三舍里","LIN":"1鄰","STREET":" ","SECT":" ","MAREA":"三舍","LANE":" ","ALLEY":" ","HOUSE_NO":"４０之４號","E_COORD97":177889.07000000001,"N_COORD97":2554385.7999999998,"ADDRESS":"三舍４０之４號","OBJECTID":61105},"geometry":{"x":177889.0700000003,"y":2554385.8000000007}},{"attributes":{"ID":61106,"DIS_CODE":0,"TOWNNAME":"新市區","LI":"三舍里","LIN":"1鄰","STREET":" ","SECT":" ","MAREA":"三舍","LANE":" ","ALLEY":" ","HOUSE_NO":"３８之２號","E_COORD97":177898.57000000001,"N_COORD97":2554358.7999999998,"ADDRESS":"三舍３８之２號","OBJECTID":61106},"geometry":{"x":177898.57000000123,"y":2554358.8000000007}},{"attributes":{"ID":61107,"DIS_CODE":0,"TOWNNAME":"新市區","LI":"三舍里","LIN":"1鄰","STREET":" ","SECT":" ","MAREA":"三舍","LANE":" ","ALLEY":" ","HOUSE_NO":"２８之６號","E_COORD97":177816.07000000001,"N_COORD97":2554356.0499999998,"ADDRESS":"三舍２８之６號","OBJECTID":61107},"geometry":{"x":177816.0700000003,"y":2554356.0500000026}},{"attributes":{"ID":61108,"DIS_CODE":0,"TOWNNAME":"新市區","LI":"大社里","LIN":"1鄰","STREET":" ","SECT":" ","MAREA":"大社","LANE":" ","ALLEY":" ","HOUSE_NO":"６３之１２號","E_COORD97":180345.14999999999,"N_COORD97":2554189.2999999998,"ADDRESS":"大社６３之１２號","OBJECTID":61108},"geometry":{"x":180345.15000000224,"y":2554189.3000000007}},{"attributes":{"ID":61109,"DIS_CODE":0,"TOWNNAME":"新市區","LI":"三舍里","LIN":"1鄰","STREET":" ","SECT":" ","MAREA":"三舍","LANE":" ","ALLEY":" ","HOUSE_NO":"２９之１號","E_COORD97":177908.26000000001,"N_COORD97":2554153.2999999998,"ADDRESS":"三舍２９之１號","OBJECTID":61109},"geometry":{"x":177908.26000000071,"y":2554153.2999999989}},{"attributes":{"ID":61110,"DIS_CODE":0,"TOWNNAME":"新市區","LI":"三舍里","LIN":"1鄰","STREET":" ","SECT":" ","MAREA":"三舍","LANE":" ","ALLEY":" ","HOUSE_NO":"２８之４號","E_COORD97":177812.53,"N_COORD97":2554342.0499999998,"ADDRESS":"三舍２８之４號","OBJECTID":61110},"geometry":{"x":177812.53000000026,"y":2554342.0500000026}},{"attributes":{"ID":61111,"DIS_CODE":0,"TOWNNAME":"新市區","LI":"大營里","LIN":"1鄰","STREET":" ","SECT":" ","MAREA":"大營","LANE":" ","ALLEY":" ","HOUSE_NO":"１０之３號","E_COORD97":179789.45999999999,"N_COORD97":2555585.2999999998,"ADDRESS":"大營１０之３號","OBJECTID":61111},"geometry":{"x":179789.45999999996,"y":2555585.3000000026}},{"attributes":{"ID":61112,"DIS_CODE":0,"TOWNNAME":"新市區","LI":"大營里","LIN":"1鄰","STREET":" ","SECT":" ","MAREA":"大營","LANE":" ","ALLEY":" ","HOUSE_NO":"１０之１號","E_COORD97":179780.45000000001,"N_COORD97":2555586.2999999998,"ADDRESS":"大營１０之１號","OBJECTID":61112},"geometry":{"x":179780.45000000112,"y":2555586.3000000007}},{"attributes":{"ID":61113,"DIS_CODE":0,"TOWNNAME":"新市區","LI":"三舍里","LIN":"1鄰","STREET":" ","SECT":" ","MAREA":"三舍","LANE":" ","ALLEY":" ","HOUSE_NO":"４０之３號","E_COORD97":177890.12,"N_COORD97":2554381.0499999998,"ADDRESS":"三舍４０之３號","OBJECTID":61113},"geometry":{"x":177890.12000000011,"y":2554381.0500000007}},{"attributes":{"ID":61114,"DIS_CODE":0,"TOWNNAME":"新市區","LI":"三舍里","LIN":"1鄰","STREET":" ","SECT":" ","MAREA":"三舍","LANE":" ","ALLEY":" ","HOUSE_NO":"２８之７號","E_COORD97":177814.57000000001,"N_COORD97":2554361.5499999998,"ADDRESS":"三舍２８之７號","OBJECTID":61114},"geometry":{"x":177814.56999999937,"y":2554361.5500000007}},{"attributes":{"ID":61115,"DIS_CODE":0,"TOWNNAME":"佳里區","LI":"三協里","LIN":"1鄰","STREET":" ","SECT":" ","MAREA":"菜寮","LANE":" ","ALLEY":" ","HOUSE_NO":"２號之１","E_COORD97":167755.48000000001,"N_COORD97":2563622.3700000001,"ADDRESS":"菜寮２號之１","OBJECTID":61115},"geometry":{"x":167755.48000000045,"y":2563622.3699999992}},{"attributes":{"ID":61116,"DIS_CODE":0,"TOWNNAME":"佳里區","LI":"三協里","LIN":"1鄰","STREET":" ","SECT":" ","MAREA":"菜寮","LANE":" ","ALLEY":" ","HOUSE_NO":"２號之２","E_COORD97":167765.39000000001,"N_COORD97":2563622.6699999999,"ADDRESS":"菜寮２號之２","OBJECTID":61116},"geometry":{"x":167765.38999999966,"y":2563622.6700000037}},{"attributes":{"ID":61117,"DIS_CODE":0,"TOWNNAME":"佳里區","LI":"三協里","LIN":"1鄰","STREET":" ","SECT":" ","MAREA":"菜寮","LANE":" ","ALLEY":" ","HOUSE_NO":"２號之３","E_COORD97":167769.37,"N_COORD97":2563623.7200000002,"ADDRESS":"菜寮２號之３","OBJECTID":61117},"geometry":{"x":167769.37000000011,"y":2563623.7200000025}},{"attributes":{"ID":61118,"DIS_CODE":0,"TOWNNAME":"佳里區","LI":"三協里","LIN":"1鄰","STREET":" ","SECT":" ","MAREA":"菜寮","LANE":" ","ALLEY":" ","HOUSE_NO":"２號之５","E_COORD97":167774.70999999999,"N_COORD97":2563625.04,"ADDRESS":"菜寮２號之５","OBJECTID":61118},"geometry":{"x":167774.71000000089,"y":2563625.0399999991}},{"attributes":{"ID":61119,"DIS_CODE":0,"TOWNNAME":"佳里區","LI":"三協里","LIN":"1鄰","STREET":" ","SECT":" ","MAREA":"菜寮","LANE":" ","ALLEY":" ","HOUSE_NO":"２號之６","E_COORD97":167779.32000000001,"N_COORD97":2563626.2200000002,"ADDRESS":"菜寮２號之６","OBJECTID":61119},"geometry":{"x":167779.32000000123,"y":2563626.2200000007}},{"attributes":{"ID":61120,"DIS_CODE":0,"TOWNNAME":"佳里區","LI":"三協里","LIN":"1鄰","STREET":" ","SECT":" ","MAREA":"菜寮","LANE":" ","ALLEY":" ","HOUSE_NO":"２號之７","E_COORD97":167790.09,"N_COORD97":2563626.8799999999,"ADDRESS":"菜寮２號之７","OBJECTID":61120},"geometry":{"x":167790.08999999985,"y":2563626.8799999971}},{"attributes":{"ID":61121,"DIS_CODE":0,"TOWNNAME":"佳里區","LI":"三協里","LIN":"1鄰","STREET":" ","SECT":" ","MAREA":"菜寮","LANE":" ","ALLEY":" ","HOUSE_NO":"２號之８","E_COORD97":167794.59,"N_COORD97":2563627.7599999998,"ADDRESS":"菜寮２號之８","OBJECTID":61121},"geometry":{"x":167794.59000000078,"y":2563627.7599999998}},{"attributes":{"ID":61122,"DIS_CODE":0,"TOWNNAME":"佳里區","LI":"三協里","LIN":"1鄰","STREET":" ","SECT":" ","MAREA":"菜寮","LANE":" ","ALLEY":" ","HOUSE_NO":"２號之９","E_COORD97":167799.10000000001,"N_COORD97":2563628.9500000002,"ADDRESS":"菜寮２號之９","OBJECTID":61122},"geometry":{"x":167799.10000000056,"y":2563628.9499999993}},{"attributes":{"ID":61123,"DIS_CODE":0,"TOWNNAME":"佳里區","LI":"三協里","LIN":"1鄰","STREET":" ","SECT":" ","MAREA":"菜寮","LANE":" ","ALLEY":" ","HOUSE_NO":"２號","E_COORD97":167774.41,"N_COORD97":2563654.1299999999,"ADDRESS":"菜寮２號","OBJECTID":61123},"geometry":{"x":167774.41000000015,"y":2563654.1300000008}},{"attributes":{"ID":61124,"DIS_CODE":0,"TOWNNAME":"佳里區","LI":"三協里","LIN":"1鄰","STREET":" ","SECT":" ","MAREA":"菜寮","LANE":" ","ALLEY":" ","HOUSE_NO":"３號之１","E_COORD97":167799.84,"N_COORD97":2563705.3799999999,"ADDRESS":"菜寮３號之１","OBJECTID":61124},"geometry":{"x":167799.83999999985,"y":2563705.3800000027}},{"attributes":{"ID":61125,"DIS_CODE":0,"TOWNNAME":"新營區","LI":"民榮里","LIN":"35鄰","STREET":"新進路","SECT":"二段","MAREA":" ","LANE":"４４５巷","ALLEY":"１１弄","HOUSE_NO":"３２號","E_COORD97":178607.87,"N_COORD97":2577947,"ADDRESS":"新進路二段４４５巷１１弄３２號","OBJECTID":61125},"geometry":{"x":178607.87000000104,"y":2577947}},{"attributes":{"ID":61126,"DIS_CODE":0,"TOWNNAME":"新營區","LI":"民榮里","LIN":"35鄰","STREET":"新進路","SECT":"二段","MAREA":" ","LANE":"４４５巷","ALLEY":"１１弄","HOUSE_NO":"９號","E_COORD97":178615.94,"N_COORD97":2577995.6800000002,"ADDRESS":"新進路二段４４５巷１１弄９號","OBJECTID":61126},"geometry":{"x":178615.94000000227,"y":2577995.6800000016}},{"attributes":{"ID":61127,"DIS_CODE":0,"TOWNNAME":"佳里區","LI":"三協里","LIN":"1鄰","STREET":" ","SECT":" ","MAREA":"菜寮","LANE":" ","ALLEY":" ","HOUSE_NO":"３號之２１","E_COORD97":167814.60999999999,"N_COORD97":2563622.9900000002,"ADDRESS":"菜寮３號之２１","OBJECTID":61127},"geometry":{"x":167814.6100000022,"y":2563622.9900000002}},{"attributes":{"ID":61128,"DIS_CODE":0,"TOWNNAME":"安南區","LI":"砂崙里","LIN":"8鄰","STREET":"青砂街","SECT":"一段","MAREA":" ","LANE":" ","ALLEY":" ","HOUSE_NO":"６７９號","E_COORD97":159932.64999999999,"N_COORD97":2552794.3399999999,"ADDRESS":"青砂街一段６７９號","OBJECTID":61128},"geometry":{"x":159932.65000000037,"y":2552794.3400000017}},{"attributes":{"ID":61129,"DIS_CODE":0,"TOWNNAME":"新營區","LI":"民榮里","LIN":"35鄰","STREET":"新進路","SECT":"二段","MAREA":" ","LANE":"４４５巷","ALLEY":"１１弄","HOUSE_NO":"６號","E_COORD97":178595.51000000001,"N_COORD97":2577992.46,"ADDRESS":"新進路二段４４５巷１１弄６號","OBJECTID":61129},"geometry":{"x":178595.50999999978,"y":2577992.4600000009}},{"attributes":{"ID":61130,"DIS_CODE":0,"TOWNNAME":"佳里區","LI":"三協里","LIN":"1鄰","STREET":" ","SECT":" ","MAREA":"菜寮","LANE":" ","ALLEY":" ","HOUSE_NO":"３號之２２","E_COORD97":167813.81,"N_COORD97":2563627.3100000001,"ADDRESS":"菜寮３號之２２","OBJECTID":61130},"geometry":{"x":167813.80999999959,"y":2563627.3100000024}},{"attributes":{"ID":61131,"DIS_CODE":0,"TOWNNAME":"佳里區","LI":"三協里","LIN":"1鄰","STREET":" ","SECT":" ","MAREA":"菜寮","LANE":" ","ALLEY":" ","HOUSE_NO":"３號之２３","E_COORD97":167813.01000000001,"N_COORD97":2563631.6299999999,"ADDRESS":"菜寮３號之２３","OBJECTID":61131},"geometry":{"x":167813.01000000164,"y":2563631.629999999}},{"attributes":{"ID":61132,"DIS_CODE":0,"TOWNNAME":"佳里區","LI":"三協里","LIN":"1鄰","STREET":" ","SECT":" ","MAREA":"菜寮","LANE":" ","ALLEY":" ","HOUSE_NO":"３號之２４","E_COORD97":167812.22,"N_COORD97":2563635.9500000002,"ADDRESS":"菜寮３號之２４","OBJECTID":61132},"geometry":{"x":167812.22000000067,"y":2563635.9499999993}},{"attributes":{"ID":61133,"DIS_CODE":0,"TOWNNAME":"六甲區","LI":"甲東里","LIN":"20鄰","STREET":"裕農街","SECT":" ","MAREA":" ","LANE":"１５１巷","ALLEY":" ","HOUSE_NO":"１號","E_COORD97":184322.45999999999,"N_COORD97":2569909.6600000001,"ADDRESS":"裕農街１５１巷１號","OBJECTID":61133},"geometry":{"x":184322.45999999996,"y":2569909.660000002}},{"attributes":{"ID":61134,"DIS_CODE":0,"TOWNNAME":"六甲區","LI":"甲東里","LIN":" ","STREET":"裕農街","SECT":" ","MAREA":" ","LANE":" ","ALLEY":" ","HOUSE_NO":"３號","E_COORD97":183954.84,"N_COORD97":2569659.02,"ADDRESS":"裕農街３號","OBJECTID":61134},"geometry":{"x":183954.84000000078,"y":2569659.0200000014}},{"attributes":{"ID":61135,"DIS_CODE":0,"TOWNNAME":"永康區","LI":"永康里","LIN":"39鄰","STREET":"文化路","SECT":" ","MAREA":" ","LANE":" ","ALLEY":" ","HOUSE_NO":"５１號","E_COORD97":174267.76999999999,"N_COORD97":2546303.1299999999,"ADDRESS":"文化路５１號","OBJECTID":61135},"geometry":{"x":174267.76999999955,"y":2546303.129999999}},{"attributes":{"ID":61136,"DIS_CODE":0,"TOWNNAME":"柳營區","LI":"東昇里","LIN":" ","STREET":"十美街","SECT":" ","MAREA":" ","LANE":" ","ALLEY":" ","HOUSE_NO":"３０９號","E_COORD97":180017.56,"N_COORD97":2575533.1699999999,"ADDRESS":"十美街３０９號","OBJECTID":61136},"geometry":{"x":180017.55999999959,"y":2575533.1700000037}},{"attributes":{"ID":61137,"DIS_CODE":0,"TOWNNAME":"柳營區","LI":"東昇里","LIN":" ","STREET":"中山西路","SECT":"一段","MAREA":" ","LANE":" ","ALLEY":" ","HOUSE_NO":"２０１號","E_COORD97":180411.45000000001,"N_COORD97":2575331.2799999998,"ADDRESS":"中山西路一段２０１號","OBJECTID":61137},"geometry":{"x":180411.45000000112,"y":2575331.2799999993}},{"attributes":{"ID":61138,"DIS_CODE":0,"TOWNNAME":"新營區","LI":"民榮里","LIN":"35鄰","STREET":"新進路","SECT":"二段","MAREA":" ","LANE":"４４５巷","ALLEY":"１１弄","HOUSE_NO":"３０號","E_COORD97":178597.72,"N_COORD97":2577963.6600000001,"ADDRESS":"新進路二段４４５巷１１弄３０號","OBJECTID":61138},"geometry":{"x":178597.71999999974,"y":2577963.6600000001}},{"attributes":{"ID":61139,"DIS_CODE":0,"TOWNNAME":"柳營區","LI":"東昇里","LIN":" ","STREET":"中山西路","SECT":"一段","MAREA":" ","LANE":" ","ALLEY":" ","HOUSE_NO":"２２５號","E_COORD97":180352.60999999999,"N_COORD97":2575332.3300000001,"ADDRESS":"中山西路一段２２５號","OBJECTID":61139},"geometry":{"x":180352.61000000127,"y":2575332.3300000038}},{"attributes":{"ID":61140,"DIS_CODE":0,"TOWNNAME":"安定區","LI":"蘇林里","LIN":"8鄰","STREET":" ","SECT":" ","MAREA":"蘇厝","LANE":" ","ALLEY":" ","HOUSE_NO":"９０號","E_COORD97":173635.07000000001,"N_COORD97":2558706.25,"ADDRESS":"蘇厝９０號","OBJECTID":61140},"geometry":{"x":173635.07000000123,"y":2558706.2500000037}},{"attributes":{"ID":61141,"DIS_CODE":0,"TOWNNAME":"佳里區","LI":"三協里","LIN":"1鄰","STREET":" ","SECT":" ","MAREA":"菜寮","LANE":" ","ALLEY":" ","HOUSE_NO":"３號之２５","E_COORD97":167811.42000000001,"N_COORD97":2563640.27,"ADDRESS":"菜寮３號之２５","OBJECTID":61141},"geometry":{"x":167811.41999999993,"y":2563640.2700000014}},{"attributes":{"ID":61142,"DIS_CODE":0,"TOWNNAME":"佳里區","LI":"三協里","LIN":"1鄰","STREET":" ","SECT":" ","MAREA":"菜寮","LANE":" ","ALLEY":" ","HOUSE_NO":"３號之２６","E_COORD97":167810.62,"N_COORD97":2563644.5899999999,"ADDRESS":"菜寮３號之２６","OBJECTID":61142},"geometry":{"x":167810.62000000011,"y":2563644.5900000017}},{"attributes":{"ID":61143,"DIS_CODE":0,"TOWNNAME":"佳里區","LI":"三協里","LIN":"1鄰","STREET":" ","SECT":" ","MAREA":"菜寮","LANE":" ","ALLEY":" ","HOUSE_NO":"３號之２７","E_COORD97":167809.82999999999,"N_COORD97":2563648.8999999999,"ADDRESS":"菜寮３號之２７","OBJECTID":61143},"geometry":{"x":167809.83000000101,"y":2563648.9000000041}},{"attributes":{"ID":61144,"DIS_CODE":0,"TOWNNAME":"新營區","LI":"民榮里","LIN":"35鄰","STREET":"新進路","SECT":"二段","MAREA":" ","LANE":"４４５巷","ALLEY":"１１弄","HOUSE_NO":"８號","E_COORD97":178596.57999999999,"N_COORD97":2577989.1299999999,"ADDRESS":"新進路二段４４５巷１１弄８號","OBJECTID":61144},"geometry":{"x":178596.58000000101,"y":2577989.129999999}},{"attributes":{"ID":61145,"DIS_CODE":0,"TOWNNAME":"佳里區","LI":"三協里","LIN":"1鄰","STREET":" ","SECT":" ","MAREA":"菜寮","LANE":" ","ALLEY":" ","HOUSE_NO":"３號之２８","E_COORD97":167809.03,"N_COORD97":2563653.2200000002,"ADDRESS":"菜寮３號之２８","OBJECTID":61145},"geometry":{"x":167809.03000000119,"y":2563653.2200000007}},{"attributes":{"ID":61146,"DIS_CODE":0,"TOWNNAME":"佳里區","LI":"三協里","LIN":"1鄰","STREET":" ","SECT":" ","MAREA":"菜寮","LANE":" ","ALLEY":" ","HOUSE_NO":"３號之２９","E_COORD97":167808.23999999999,"N_COORD97":2563657.54,"ADDRESS":"菜寮３號之２９","OBJECTID":61146},"geometry":{"x":167808.24000000022,"y":2563657.540000001}},{"attributes":{"ID":61147,"DIS_CODE":0,"TOWNNAME":"新營區","LI":"民榮里","LIN":"35鄰","STREET":"新進路","SECT":"二段","MAREA":" ","LANE":"４４５巷","ALLEY":"１１弄","HOUSE_NO":"１５號","E_COORD97":178621.25,"N_COORD97":2577982.3700000001,"ADDRESS":"新進路二段４４５巷１１弄１５號","OBJECTID":61147},"geometry":{"x":178621.25,"y":2577982.3700000029}},{"attributes":{"ID":61148,"DIS_CODE":0,"TOWNNAME":"新營區","LI":"民榮里","LIN":"35鄰","STREET":"新進路","SECT":"二段","MAREA":" ","LANE":"４４５巷","ALLEY":"１１弄","HOUSE_NO":"１號","E_COORD97":178609.92000000001,"N_COORD97":2578012.3300000001,"ADDRESS":"新進路二段４４５巷１１弄１號","OBJECTID":61148},"geometry":{"x":178609.91999999993,"y":2578012.3300000001}},{"attributes":{"ID":61149,"DIS_CODE":0,"TOWNNAME":"新營區","LI":"民榮里","LIN":"35鄰","STREET":"新進路","SECT":"二段","MAREA":" ","LANE":"４４５巷","ALLEY":"１１弄","HOUSE_NO":"２６號","E_COORD97":178564.20000000001,"N_COORD97":2578016.9900000002,"ADDRESS":"新進路二段４４５巷１１弄２６號","OBJECTID":61149},"geometry":{"x":178564.20000000019,"y":2578016.9900000021}},{"attributes":{"ID":61150,"DIS_CODE":0,"TOWNNAME":"新營區","LI":"民榮里","LIN":"35鄰","STREET":"新進路","SECT":"二段","MAREA":" ","LANE":"４４５巷","ALLEY":"１１弄","HOUSE_NO":"２號","E_COORD97":178592.54000000001,"N_COORD97":2578001.3399999999,"ADDRESS":"新進路二段４４５巷１１弄２號","OBJECTID":61150},"geometry":{"x":178592.54000000004,"y":2578001.3400000017}},{"attributes":{"ID":61151,"DIS_CODE":0,"TOWNNAME":"新營區","LI":"民榮里","LIN":"35鄰","STREET":"新進路","SECT":"二段","MAREA":" ","LANE":"４４５巷","ALLEY":"１１弄","HOUSE_NO":"１８號","E_COORD97":178568.10999999999,"N_COORD97":2577992.6000000001,"ADDRESS":"新進路二段４４５巷１１弄１８號","OBJECTID":61151},"geometry":{"x":178568.11000000034,"y":2577992.6000000015}},{"attributes":{"ID":61152,"DIS_CODE":0,"TOWNNAME":"新營區","LI":"民榮里","LIN":"35鄰","STREET":"新進路","SECT":"二段","MAREA":" ","LANE":"４４５巷","ALLEY":"１１弄","HOUSE_NO":"２１號","E_COORD97":178626.38,"N_COORD97":2577970.1699999999,"ADDRESS":"新進路二段４４５巷１１弄２１號","OBJECTID":61152},"geometry":{"x":178626.38000000082,"y":2577970.1699999999}},{"attributes":{"ID":61153,"DIS_CODE":0,"TOWNNAME":"新營區","LI":"民榮里","LIN":"35鄰","STREET":"新進路","SECT":"二段","MAREA":" ","LANE":"４４５巷","ALLEY":"１１弄","HOUSE_NO":"１９號","E_COORD97":178624.28,"N_COORD97":2577973.5,"ADDRESS":"新進路二段４４５巷１１弄１９號","OBJECTID":61153},"geometry":{"x":178624.28000000119,"y":2577973.5000000019}},{"attributes":{"ID":61154,"DIS_CODE":0,"TOWNNAME":"新營區","LI":"民榮里","LIN":"35鄰","STREET":"新進路","SECT":"二段","MAREA":" ","LANE":"４４５巷","ALLEY":"１１弄","HOUSE_NO":"１４號","E_COORD97":178576.29999999999,"N_COORD97":2577994.77,"ADDRESS":"新進路二段４４５巷１１弄１４號","OBJECTID":61154},"geometry":{"x":178576.30000000075,"y":2577994.7700000014}},{"attributes":{"ID":61155,"DIS_CODE":0,"TOWNNAME":"新營區","LI":"民榮里","LIN":"35鄰","STREET":"新進路","SECT":"二段","MAREA":" ","LANE":"４４５巷","ALLEY":"１１弄","HOUSE_NO":"３號","E_COORD97":178612.04000000001,"N_COORD97":2578007.8900000001,"ADDRESS":"新進路二段４４５巷１１弄３號","OBJECTID":61155},"geometry":{"x":178612.04000000097,"y":2578007.8900000025}},{"attributes":{"ID":61156,"DIS_CODE":0,"TOWNNAME":"新營區","LI":"民榮里","LIN":"35鄰","STREET":"新進路","SECT":"二段","MAREA":" ","LANE":"４４５巷","ALLEY":"１１弄","HOUSE_NO":"１６號","E_COORD97":178571.19,"N_COORD97":2577993.6899999999,"ADDRESS":"新進路二段４４５巷１１弄１６號","OBJECTID":61156},"geometry":{"x":178571.19000000041,"y":2577993.6899999995}},{"attributes":{"ID":61157,"DIS_CODE":0,"TOWNNAME":"佳里區","LI":"建南里","LIN":"8鄰","STREET":"建南街","SECT":" ","MAREA":" ","LANE":" ","ALLEY":" ","HOUSE_NO":"１３５號","E_COORD97":165678.20000000001,"N_COORD97":2562095.4700000002,"ADDRESS":"建南街１３５號","OBJECTID":61157},"geometry":{"x":165678.20000000112,"y":2562095.4700000007}},{"attributes":{"ID":61158,"DIS_CODE":0,"TOWNNAME":"佳里區","LI":"建南里","LIN":"8鄰","STREET":"建南街","SECT":" ","MAREA":" ","LANE":" ","ALLEY":" ","HOUSE_NO":"１３６號","E_COORD97":165707.04999999999,"N_COORD97":2562117.7200000002,"ADDRESS":"建南街１３６號","OBJECTID":61158},"geometry":{"x":165707.04999999981,"y":2562117.7199999988}},{"attributes":{"ID":61159,"DIS_CODE":0,"TOWNNAME":"佳里區","LI":"建南里","LIN":"8鄰","STREET":"建南街","SECT":" ","MAREA":" ","LANE":" ","ALLEY":" ","HOUSE_NO":"１３７號","E_COORD97":165679.10999999999,"N_COORD97":2562099.5800000001,"ADDRESS":"建南街１３７號","OBJECTID":61159},"geometry":{"x":165679.11000000127,"y":2562099.5800000019}},{"attributes":{"ID":61160,"DIS_CODE":0,"TOWNNAME":"佳里區","LI":"建南里","LIN":"8鄰","STREET":"建南街","SECT":" ","MAREA":" ","LANE":" ","ALLEY":" ","HOUSE_NO":"１６３號","E_COORD97":165702.39000000001,"N_COORD97":2562164.21,"ADDRESS":"建南街１６３號","OBJECTID":61160},"geometry":{"x":165702.38999999966,"y":2562164.2100000009}},{"attributes":{"ID":61161,"DIS_CODE":0,"TOWNNAME":"新市區","LI":"新市里","LIN":"8鄰","STREET":"中正路","SECT":" ","MAREA":" ","LANE":" ","ALLEY":" ","HOUSE_NO":"２７７號","E_COORD97":177542.70000000001,"N_COORD97":2553226,"ADDRESS":"中正路２７７號","OBJECTID":61161},"geometry":{"x":177542.70000000112,"y":2553226.0000000037}},{"attributes":{"ID":61162,"DIS_CODE":0,"TOWNNAME":"安南區","LI":"砂崙里","LIN":"8鄰","STREET":"青砂街","SECT":"一段","MAREA":" ","LANE":" ","ALLEY":" ","HOUSE_NO":"６８５號","E_COORD97":159939.62,"N_COORD97":2552820.77,"ADDRESS":"青砂街一段６８５號","OBJECTID":61162},"geometry":{"x":159939.62000000011,"y":2552820.7700000014}},{"attributes":{"ID":61163,"DIS_CODE":0,"TOWNNAME":"佳里區","LI":"三協里","LIN":"1鄰","STREET":" ","SECT":" ","MAREA":"菜寮","LANE":" ","ALLEY":" ","HOUSE_NO":"３號之３０","E_COORD97":167807.44,"N_COORD97":2563661.8599999999,"ADDRESS":"菜寮３號之３０","OBJECTID":61163},"geometry":{"x":167807.44000000134,"y":2563661.8600000031}},{"attributes":{"ID":61164,"DIS_CODE":0,"TOWNNAME":"新營區","LI":"民榮里","LIN":"35鄰","STREET":"新進路","SECT":"二段","MAREA":" ","LANE":"４４５巷","ALLEY":"１１弄","HOUSE_NO":"４號","E_COORD97":178594.59,"N_COORD97":2577998.0099999998,"ADDRESS":"新進路二段４４５巷１１弄４號","OBJECTID":61164},"geometry":{"x":178594.59000000078,"y":2577998.0099999998}},{"attributes":{"ID":61165,"DIS_CODE":0,"TOWNNAME":"新營區","LI":"民榮里","LIN":"35鄰","STREET":"新進路","SECT":"二段","MAREA":" ","LANE":"４４５巷","ALLEY":"１１弄","HOUSE_NO":"７號","E_COORD97":178613.97,"N_COORD97":2577999.02,"ADDRESS":"新進路二段４４５巷１１弄７號","OBJECTID":61165},"geometry":{"x":178613.97000000067,"y":2577999.0200000014}},{"attributes":{"ID":61166,"DIS_CODE":0,"TOWNNAME":"新營區","LI":"民榮里","LIN":"35鄰","STREET":"新進路","SECT":"二段","MAREA":" ","LANE":"４４５巷","ALLEY":"１１弄","HOUSE_NO":"５號","E_COORD97":178612.95999999999,"N_COORD97":2578003.46,"ADDRESS":"新進路二段４４５巷１１弄５號","OBJECTID":61166},"geometry":{"x":178612.95999999996,"y":2578003.4600000009}},{"attributes":{"ID":61167,"DIS_CODE":0,"TOWNNAME":"永康區","LI":"埔園里","LIN":"38鄰","STREET":"龍國街","SECT":" ","MAREA":" ","LANE":"１２８巷","ALLEY":"１９弄","HOUSE_NO":"２５號","E_COORD97":174276.12,"N_COORD97":2548027.5299999998,"ADDRESS":"龍國街１２８巷１９弄２５號","OBJECTID":61167},"geometry":{"x":174276.12000000011,"y":2548027.5300000031}},{"attributes":{"ID":61168,"DIS_CODE":0,"TOWNNAME":"永康區","LI":"埔園里","LIN":"34鄰","STREET":"八德街","SECT":" ","MAREA":" ","LANE":"８８巷","ALLEY":"５７弄","HOUSE_NO":"１８號","E_COORD97":174169.57000000001,"N_COORD97":2548695.3399999999,"ADDRESS":"八德街８８巷５７弄１８號","OBJECTID":61168},"geometry":{"x":174169.5700000003,"y":2548695.3400000017}},{"attributes":{"ID":61169,"DIS_CODE":0,"TOWNNAME":"永康區","LI":"\u25A0行里","LIN":"21鄰","STREET":"正南五街","SECT":" ","MAREA":" ","LANE":"３２７巷","ALLEY":"１１弄","HOUSE_NO":"１３號","E_COORD97":171774.10999999999,"N_COORD97":2548527.2200000002,"ADDRESS":"正南五街３２７巷１１弄１３號","OBJECTID":61169},"geometry":{"x":171774.11000000034,"y":2548527.2200000025}},{"attributes":{"ID":61170,"DIS_CODE":0,"TOWNNAME":"安南區","LI":"安富里","LIN":"35鄰","STREET":"海佃路","SECT":"一段","MAREA":" ","LANE":"１５８巷","ALLEY":"１５０弄","HOUSE_NO":"８號","E_COORD97":167697.07999999999,"N_COORD97":2547235.4399999999,"ADDRESS":"海佃路一段１５８巷１５０弄８號","OBJECTID":61170},"geometry":{"x":167697.08000000007,"y":2547235.4400000013}},{"attributes":{"ID":61171,"DIS_CODE":0,"TOWNNAME":"安南區","LI":"安富里","LIN":"35鄰","STREET":"海佃路","SECT":"一段","MAREA":" ","LANE":"１５８巷","ALLEY":"１５０弄","HOUSE_NO":"１２號","E_COORD97":167698.19,"N_COORD97":2547224.1600000001,"ADDRESS":"海佃路一段１５８巷１５０弄１２號","OBJECTID":61171},"geometry":{"x":167698.19000000041,"y":2547224.160000002}},{"attributes":{"ID":61172,"DIS_CODE":0,"TOWNNAME":"安南區","LI":"安富里","LIN":"35鄰","STREET":"海佃路","SECT":"一段","MAREA":" ","LANE":"１５８巷","ALLEY":"１５０弄","HOUSE_NO":"２號","E_COORD97":167696.44,"N_COORD97":2547243.21,"ADDRESS":"海佃路一段１５８巷１５０弄２號","OBJECTID":61172},"geometry":{"x":167696.44000000041,"y":2547243.2100000009}},{"attributes":{"ID":61173,"DIS_CODE":0,"TOWNNAME":"安南區","LI":"安富里","LIN":"35鄰","STREET":"海佃路","SECT":"一段","MAREA":" ","LANE":"１５８巷","ALLEY":"１５０弄","HOUSE_NO":"６號","E_COORD97":167697.07999999999,"N_COORD97":2547239.25,"ADDRESS":"海佃路一段１５８巷１５０弄６號","OBJECTID":61173},"geometry":{"x":167697.08000000007,"y":2547239.25}},{"attributes":{"ID":61174,"DIS_CODE":0,"TOWNNAME":"安南區","LI":"安富里","LIN":"35鄰","STREET":"海佃路","SECT":"一段","MAREA":" ","LANE":"１５８巷","ALLEY":"１５０弄","HOUSE_NO":"１０號","E_COORD97":167697.54999999999,"N_COORD97":2547230.8300000001,"ADDRESS":"海佃路一段１５８巷１５０弄１０號","OBJECTID":61174},"geometry":{"x":167697.55000000168,"y":2547230.8300000019}},{"attributes":{"ID":61175,"DIS_CODE":0,"TOWNNAME":"安南區","LI":"安富里","LIN":"35鄰","STREET":"海佃路","SECT":"一段","MAREA":" ","LANE":"１５８巷","ALLEY":"１５０弄","HOUSE_NO":"１１號","E_COORD97":167705.48999999999,"N_COORD97":2547229.7200000002,"ADDRESS":"海佃路一段１５８巷１５０弄１１號","OBJECTID":61175},"geometry":{"x":167705.49000000115,"y":2547229.7200000007}},{"attributes":{"ID":61176,"DIS_CODE":0,"TOWNNAME":"安南區","LI":"安富里","LIN":"35鄰","STREET":"海佃路","SECT":"一段","MAREA":" ","LANE":"１５８巷","ALLEY":"１５０弄","HOUSE_NO":"１３號","E_COORD97":167705.64999999999,"N_COORD97":2547225.4300000002,"ADDRESS":"海佃路一段１５８巷１５０弄１３號","OBJECTID":61176},"geometry":{"x":167705.65000000037,"y":2547225.4300000016}},{"attributes":{"ID":61177,"DIS_CODE":0,"TOWNNAME":"安南區","LI":"安富里","LIN":"35鄰","STREET":"海佃路","SECT":"一段","MAREA":" ","LANE":"１５８巷","ALLEY":"１５０弄","HOUSE_NO":"１５號","E_COORD97":167706.13,"N_COORD97":2547220.9900000002,"ADDRESS":"海佃路一段１５８巷１５０弄１５號","OBJECTID":61177},"geometry":{"x":167706.13000000082,"y":2547220.9900000002}},{"attributes":{"ID":61178,"DIS_CODE":0,"TOWNNAME":"安南區","LI":"安富里","LIN":"35鄰","STREET":"海佃路","SECT":"一段","MAREA":" ","LANE":"１５８巷","ALLEY":"１５０弄","HOUSE_NO":"１６號","E_COORD97":167698.35000000001,"N_COORD97":2547219.0800000001,"ADDRESS":"海佃路一段１５８巷１５０弄１６號","OBJECTID":61178},"geometry":{"x":167698.34999999963,"y":2547219.0800000019}},{"attributes":{"ID":61179,"DIS_CODE":0,"TOWNNAME":"新營區","LI":"王公里","LIN":"20鄰","STREET":"樂利街","SECT":" ","MAREA":" ","LANE":" ","ALLEY":" ","HOUSE_NO":"１８號","E_COORD97":180396.85000000001,"N_COORD97":2579257.4700000002,"ADDRESS":"樂利街１８號","OBJECTID":61179},"geometry":{"x":180396.84999999963,"y":2579257.4700000007}},{"attributes":{"ID":61180,"DIS_CODE":0,"TOWNNAME":"柳營區","LI":"光福里","LIN":" ","STREET":"中山西路","SECT":"二段","MAREA":" ","LANE":" ","ALLEY":" ","HOUSE_NO":"１８２號","E_COORD97":179789.32000000001,"N_COORD97":2575100.3799999999,"ADDRESS":"中山西路二段１８２號","OBJECTID":61180},"geometry":{"x":179789.3200000003,"y":2575100.3800000027}},{"attributes":{"ID":61181,"DIS_CODE":0,"TOWNNAME":"柳營區","LI":"光福里","LIN":" ","STREET":"中山西路","SECT":"二段","MAREA":" ","LANE":" ","ALLEY":" ","HOUSE_NO":"１８６號","E_COORD97":179785.78,"N_COORD97":2575099.4300000002,"ADDRESS":"中山西路二段１８６號","OBJECTID":61181},"geometry":{"x":179785.78000000026,"y":2575099.4299999997}},{"attributes":{"ID":61182,"DIS_CODE":0,"TOWNNAME":"安定區","LI":"管寮里","LIN":"8鄰","STREET":" ","SECT":" ","MAREA":"管寮","LANE":" ","ALLEY":" ","HOUSE_NO":"７２號","E_COORD97":169858.34,"N_COORD97":2556526.25,"ADDRESS":"管寮７２號","OBJECTID":61182},"geometry":{"x":169858.33999999985,"y":2556526.2500000037}},{"attributes":{"ID":61183,"DIS_CODE":0,"TOWNNAME":"安定區","LI":"六嘉里","LIN":"8鄰","STREET":" ","SECT":" ","MAREA":"六塊寮","LANE":" ","ALLEY":" ","HOUSE_NO":"６７之２３號","E_COORD97":170006.44,"N_COORD97":2553097.8799999999,"ADDRESS":"六塊寮６７之２３號","OBJECTID":61183},"geometry":{"x":170006.44000000134,"y":2553097.8800000008}},{"attributes":{"ID":61184,"DIS_CODE":0,"TOWNNAME":"安定區","LI":"蘇厝里","LIN":"8鄰","STREET":" ","SECT":" ","MAREA":"蘇厝","LANE":" ","ALLEY":" ","HOUSE_NO":"３４４之６號","E_COORD97":172926.81,"N_COORD97":2558712.1600000001,"ADDRESS":"蘇厝３４４之６號","OBJECTID":61184},"geometry":{"x":172926.81000000145,"y":2558712.1600000001}},{"attributes":{"ID":61185,"DIS_CODE":0,"TOWNNAME":"安定區","LI":"蘇厝里","LIN":"8鄰","STREET":" ","SECT":" ","MAREA":"蘇厝","LANE":" ","ALLEY":" ","HOUSE_NO":"３５３之１０號","E_COORD97":172973.44566600001,"N_COORD97":2558819.87096,"ADDRESS":"蘇厝３５３之１０號","OBJECTID":61185},"geometry":{"x":172973.44566600118,"y":2558819.8709580041}},{"attributes":{"ID":61186,"DIS_CODE":0,"TOWNNAME":"安定區","LI":"港尾里","LIN":"8鄰","STREET":" ","SECT":" ","MAREA":"港子尾","LANE":" ","ALLEY":" ","HOUSE_NO":"４８之７號","E_COORD97":171613.04999999999,"N_COORD97":2555825.1600000001,"ADDRESS":"港子尾４８之７號","OBJECTID":61186},"geometry":{"x":171613.04999999981,"y":2555825.1600000039}},{"attributes":{"ID":61187,"DIS_CODE":0,"TOWNNAME":"新市區","LI":"大社里","LIN":"8鄰","STREET":" ","SECT":" ","MAREA":"大社","LANE":" ","ALLEY":" ","HOUSE_NO":"２７４號","E_COORD97":180309.76000000001,"N_COORD97":2554446.75,"ADDRESS":"大社２７４號","OBJECTID":61187},"geometry":{"x":180309.75999999885,"y":2554446.75}},{"attributes":{"ID":61188,"DIS_CODE":0,"TOWNNAME":"新營區","LI":"護鎮里","LIN":"4鄰","STREET":" ","SECT":" ","MAREA":"後鎮","LANE":" ","ALLEY":" ","HOUSE_NO":"４７號之１","E_COORD97":179203.57999999999,"N_COORD97":2581142.54,"ADDRESS":"後鎮４７之１號","OBJECTID":61188},"geometry":{"x":179203.58000000101,"y":2581142.540000001}},{"attributes":{"ID":61189,"DIS_CODE":0,"TOWNNAME":"新市區","LI":"潭頂里","LIN":"8鄰","STREET":" ","SECT":" ","MAREA":"潭頂","LANE":" ","ALLEY":" ","HOUSE_NO":"３０９號","E_COORD97":180677.42000000001,"N_COORD97":2552946.75,"ADDRESS":"潭頂３０９號","OBJECTID":61189},"geometry":{"x":180677.42000000086,"y":2552946.7500000019}},{"attributes":{"ID":61190,"DIS_CODE":0,"TOWNNAME":"新市區","LI":"三舍里","LIN":"8鄰","STREET":" ","SECT":" ","MAREA":"三舍","LANE":" ","ALLEY":" ","HOUSE_NO":"１８２之１０號","E_COORD97":177408.23000000001,"N_COORD97":2554934.0499999998,"ADDRESS":"三舍１８２之１０號","OBJECTID":61190},"geometry":{"x":177408.23000000045,"y":2554934.0500000007}},{"attributes":{"ID":61191,"DIS_CODE":0,"TOWNNAME":"安定區","LI":"安加里","LIN":"8鄰","STREET":" ","SECT":" ","MAREA":"安定","LANE":" ","ALLEY":" ","HOUSE_NO":"２３５之１號","E_COORD97":171857.46063799999,"N_COORD97":2557523.2701599998,"ADDRESS":"安定２３５之１號","OBJECTID":61191},"geometry":{"x":171857.4606379997,"y":2557523.2701639999}},{"attributes":{"ID":61192,"DIS_CODE":0,"TOWNNAME":"安定區","LI":"安加里","LIN":"8鄰","STREET":" ","SECT":" ","MAREA":"安定","LANE":" ","ALLEY":" ","HOUSE_NO":"２３５之２號","E_COORD97":171857.73000000001,"N_COORD97":2557532.7400000002,"ADDRESS":"安定２３５之２號","OBJECTID":61192},"geometry":{"x":171857.73000000045,"y":2557532.7400000002}},{"attributes":{"ID":61193,"DIS_CODE":0,"TOWNNAME":"安南區","LI":"安富里","LIN":"35鄰","STREET":"海佃路","SECT":"一段","MAREA":" ","LANE":"１５８巷","ALLEY":"１５０弄","HOUSE_NO":"１９號","E_COORD97":167706.76000000001,"N_COORD97":2547208.4500000002,"ADDRESS":"海佃路一段１５８巷１５０弄１９號","OBJECTID":61193},"geometry":{"x":167706.76000000071,"y":2547208.4500000011}},{"attributes":{"ID":61194,"DIS_CODE":0,"TOWNNAME":"安定區","LI":"六嘉里","LIN":"8鄰","STREET":" ","SECT":" ","MAREA":"六塊寮","LANE":" ","ALLEY":" ","HOUSE_NO":"６７之２６號","E_COORD97":170189.62,"N_COORD97":2553178.27,"ADDRESS":"六塊寮６７之２６號","OBJECTID":61194},"geometry":{"x":170189.62000000104,"y":2553178.2699999996}},{"attributes":{"ID":61195,"DIS_CODE":0,"TOWNNAME":"安南區","LI":"安富里","LIN":"35鄰","STREET":"海佃路","SECT":"一段","MAREA":" ","LANE":"１５８巷","ALLEY":"１５０弄","HOUSE_NO":"２１號","E_COORD97":167707.39999999999,"N_COORD97":2547203.5299999998,"ADDRESS":"海佃路一段１５８巷１５０弄２１號","OBJECTID":61195},"geometry":{"x":167707.39999999944,"y":2547203.5300000031}},{"attributes":{"ID":61196,"DIS_CODE":0,"TOWNNAME":"安南區","LI":"安富里","LIN":"35鄰","STREET":"海佃路","SECT":"一段","MAREA":" ","LANE":"１５８巷","ALLEY":"１５０弄","HOUSE_NO":"２３號","E_COORD97":167708.35000000001,"N_COORD97":2547196.0699999998,"ADDRESS":"海佃路一段１５８巷１５０弄２３號","OBJECTID":61196},"geometry":{"x":167708.34999999963,"y":2547196.0700000003}},{"attributes":{"ID":61197,"DIS_CODE":0,"TOWNNAME":"新營區","LI":"中營里","LIN":"8鄰","STREET":"新進路","SECT":" ","MAREA":" ","LANE":" ","ALLEY":" ","HOUSE_NO":"５６號","E_COORD97":180561.91,"N_COORD97":2578244.48,"ADDRESS":"新進路５６號","OBJECTID":61197},"geometry":{"x":180561.91000000201,"y":2578244.4800000023}},{"attributes":{"ID":61198,"DIS_CODE":0,"TOWNNAME":"新市區","LI":"大社里","LIN":"8鄰","STREET":" ","SECT":" ","MAREA":"大社","LANE":" ","ALLEY":" ","HOUSE_NO":"２７６之１號","E_COORD97":180354.45999999999,"N_COORD97":2554472.2999999998,"ADDRESS":"大社２７６之１號","OBJECTID":61198},"geometry":{"x":180354.46000000183,"y":2554472.3000000045}},{"attributes":{"ID":61199,"DIS_CODE":0,"TOWNNAME":"新市區","LI":"大社里","LIN":"8鄰","STREET":" ","SECT":" ","MAREA":"大社","LANE":" ","ALLEY":" ","HOUSE_NO":"２８１號之１","E_COORD97":180445.34,"N_COORD97":2554542.7999999998,"ADDRESS":"大社２８１號之１","OBJECTID":61199},"geometry":{"x":180445.34000000078,"y":2554542.8000000007}},{"attributes":{"ID":61200,"DIS_CODE":0,"TOWNNAME":"新市區","LI":"大社里","LIN":"8鄰","STREET":" ","SECT":" ","MAREA":"大社","LANE":" ","ALLEY":" ","HOUSE_NO":"２７８號之１","E_COORD97":180445.01000000001,"N_COORD97":2554484.2999999998,"ADDRESS":"大社２７８號之１","OBJECTID":61200},"geometry":{"x":180445.00999999978,"y":2554484.3000000007}}]}