{"displayFieldName":"TOWNNAME","fieldAliases":{"ID":"ID","DIS_CODE":"DIS_CODE","TOWNNAME":"TOWNNAME","LI":"LI","LIN":"LIN","STREET":"STREET","SECT":"SECT","MAREA":"MAREA","LANE":"LANE","ALLEY":"ALLEY","HOUSE_NO":"HOUSE_NO","E_COORD97":"E_COORD97","N_COORD97":"N_COORD97","ADDRESS":"ADDRESS","OBJECTID":"OBJECTID"},"geometryType":"esriGeometryPoint","spatialReference":{"wkid":102443,"latestWkid":3826},"fields":[{"name":"ID","type":"esriFieldTypeDouble","alias":"ID"},{"name":"DIS_CODE","type":"esriFieldTypeInteger","alias":"DIS_CODE"},{"name":"TOWNNAME","type":"esriFieldTypeString","alias":"TOWNNAME","length":8},{"name":"LI","type":"esriFieldTypeString","alias":"LI","length":8},{"name":"LIN","type":"esriFieldTypeString","alias":"LIN","length":12},{"name":"STREET","type":"esriFieldTypeString","alias":"STREET","length":20},{"name":"SECT","type":"esriFieldTypeString","alias":"SECT","length":8},{"name":"MAREA","type":"esriFieldTypeString","alias":"MAREA","length":12},{"name":"LANE","type":"esriFieldTypeString","alias":"LANE","length":10},{"name":"ALLEY","type":"esriFieldTypeString","alias":"ALLEY","length":10},{"name":"HOUSE_NO","type":"esriFieldTypeString","alias":"HOUSE_NO","length":20},{"name":"E_COORD97","type":"esriFieldTypeDouble","alias":"E_COORD97"},{"name":"N_COORD97","type":"esriFieldTypeDouble","alias":"N_COORD97"},{"name":"ADDRESS","type":"esriFieldTypeString","alias":"ADDRESS","length":50},{"name":"OBJECTID","type":"esriFieldTypeOID","alias":"OBJECTID"}],"features":[{"attributes":{"ID":242205,"DIS_CODE":0,"TOWNNAME":"北區","LI":"重興里","LIN":"25鄰","STREET":"東豐路","SECT":" ","MAREA":" ","LANE":"４５１巷","ALLEY":" ","HOUSE_NO":"５７號","E_COORD97":170876.42000000001,"N_COORD97":2544906.4700000002,"ADDRESS":"東豐路４５１巷５７號","OBJECTID":242201},"geometry":{"x":170876.41999999993,"y":2544906.4699999988}},{"attributes":{"ID":242206,"DIS_CODE":0,"TOWNNAME":"東區","LI":"中西里","LIN":"14鄰","STREET":"東寧路","SECT":" ","MAREA":" ","LANE":" ","ALLEY":" ","HOUSE_NO":"７０號十樓之２","E_COORD97":170138.82999999999,"N_COORD97":2543586.9500000002,"ADDRESS":"東寧路７０號十樓之２","OBJECTID":242202},"geometry":{"x":170138.83000000101,"y":2543586.9500000011}},{"attributes":{"ID":242207,"DIS_CODE":0,"TOWNNAME":"東區","LI":"中西里","LIN":"14鄰","STREET":"東寧路","SECT":" ","MAREA":" ","LANE":" ","ALLEY":" ","HOUSE_NO":"７０號十一樓","E_COORD97":170138.82999999999,"N_COORD97":2543586.9500000002,"ADDRESS":"東寧路７０號十一樓","OBJECTID":242203},"geometry":{"x":170138.83000000101,"y":2543586.9500000011}},{"attributes":{"ID":242208,"DIS_CODE":0,"TOWNNAME":"關廟區","LI":"香洋里","LIN":"14鄰","STREET":"香洋路","SECT":" ","MAREA":" ","LANE":" ","ALLEY":" ","HOUSE_NO":"６９號","E_COORD97":181356.09,"N_COORD97":2540107.25,"ADDRESS":"香洋路６９號","OBJECTID":242204},"geometry":{"x":181356.09000000078,"y":2540107.2500000019}},{"attributes":{"ID":242209,"DIS_CODE":0,"TOWNNAME":"仁德區","LI":"太子里","LIN":"40鄰","STREET":"太子路","SECT":" ","MAREA":" ","LANE":"２８巷","ALLEY":" ","HOUSE_NO":"２３之１號","E_COORD97":175313.79999999999,"N_COORD97":2543692.29,"ADDRESS":"太子路２８巷２３之１號","OBJECTID":242205},"geometry":{"x":175313.79999999888,"y":2543692.2899999972}},{"attributes":{"ID":242210,"DIS_CODE":0,"TOWNNAME":"永康區","LI":"三合里","LIN":"24鄰","STREET":"南工街","SECT":" ","MAREA":" ","LANE":"２６７巷","ALLEY":" ","HOUSE_NO":"６６號四樓之５","E_COORD97":171848.06,"N_COORD97":2545837.79,"ADDRESS":"南工街２６７巷６６號四樓之５","OBJECTID":242206},"geometry":{"x":171848.05999999959,"y":2545837.7899999991}},{"attributes":{"ID":242211,"DIS_CODE":0,"TOWNNAME":"永康區","LI":"三合里","LIN":"24鄰","STREET":"南工街","SECT":" ","MAREA":" ","LANE":"２６７巷","ALLEY":" ","HOUSE_NO":"５８號四樓之２","E_COORD97":171830.64000000001,"N_COORD97":2545838.54,"ADDRESS":"南工街２６７巷５８號四樓之２","OBJECTID":242207},"geometry":{"x":171830.63999999966,"y":2545838.540000001}},{"attributes":{"ID":242212,"DIS_CODE":0,"TOWNNAME":"永康區","LI":"三合里","LIN":"24鄰","STREET":"南工街","SECT":" ","MAREA":" ","LANE":"２６７巷","ALLEY":" ","HOUSE_NO":"５８號三樓之７","E_COORD97":171830.57999999999,"N_COORD97":2545838.54,"ADDRESS":"南工街２６７巷５８號三樓之７","OBJECTID":242208},"geometry":{"x":171830.58000000101,"y":2545838.540000001}},{"attributes":{"ID":242213,"DIS_CODE":0,"TOWNNAME":"永康區","LI":"三合里","LIN":"24鄰","STREET":"南工街","SECT":" ","MAREA":" ","LANE":"２６７巷","ALLEY":" ","HOUSE_NO":"５８號八樓之２","E_COORD97":171830.64000000001,"N_COORD97":2545838.54,"ADDRESS":"南工街２６７巷５８號八樓之２","OBJECTID":242209},"geometry":{"x":171830.63999999966,"y":2545838.540000001}},{"attributes":{"ID":242214,"DIS_CODE":0,"TOWNNAME":"永康區","LI":"三合里","LIN":"24鄰","STREET":"南工街","SECT":" ","MAREA":" ","LANE":"２６７巷","ALLEY":" ","HOUSE_NO":"５８號四樓之７","E_COORD97":171830.57999999999,"N_COORD97":2545838.54,"ADDRESS":"南工街２６７巷５８號四樓之７","OBJECTID":242210},"geometry":{"x":171830.58000000101,"y":2545838.540000001}},{"attributes":{"ID":242215,"DIS_CODE":0,"TOWNNAME":"永康區","LI":"三合里","LIN":"24鄰","STREET":"南工街","SECT":" ","MAREA":" ","LANE":"２６７巷","ALLEY":" ","HOUSE_NO":"６６號八樓之２","E_COORD97":171848.04000000001,"N_COORD97":2545837.79,"ADDRESS":"南工街２６７巷６６號八樓之２","OBJECTID":242211},"geometry":{"x":171848.04000000097,"y":2545837.7899999991}},{"attributes":{"ID":242216,"DIS_CODE":0,"TOWNNAME":"永康區","LI":"三合里","LIN":"24鄰","STREET":"南工街","SECT":" ","MAREA":" ","LANE":"２６７巷","ALLEY":" ","HOUSE_NO":"６６號九樓之３","E_COORD97":171848,"N_COORD97":2545837.79,"ADDRESS":"南工街２６７巷６６號九樓之３","OBJECTID":242212},"geometry":{"x":171848.00000000093,"y":2545837.7899999991}},{"attributes":{"ID":242217,"DIS_CODE":0,"TOWNNAME":"永康區","LI":"三合里","LIN":"24鄰","STREET":"南工街","SECT":" ","MAREA":" ","LANE":"２６７巷","ALLEY":" ","HOUSE_NO":"６６號二樓之１","E_COORD97":171847.89999999999,"N_COORD97":2545837.79,"ADDRESS":"南工街２６７巷６６號二樓之１","OBJECTID":242213},"geometry":{"x":171847.9000000013,"y":2545837.7899999991}},{"attributes":{"ID":242218,"DIS_CODE":0,"TOWNNAME":"永康區","LI":"三合里","LIN":"24鄰","STREET":"南工街","SECT":" ","MAREA":" ","LANE":"２６７巷","ALLEY":" ","HOUSE_NO":"６６號二樓之３","E_COORD97":171848,"N_COORD97":2545837.79,"ADDRESS":"南工街２６７巷６６號二樓之３","OBJECTID":242214},"geometry":{"x":171848.00000000093,"y":2545837.7899999991}},{"attributes":{"ID":242219,"DIS_CODE":0,"TOWNNAME":"永康區","LI":"三合里","LIN":"24鄰","STREET":"南工街","SECT":" ","MAREA":" ","LANE":"２６７巷","ALLEY":" ","HOUSE_NO":"４６號十一樓之２","E_COORD97":171856.63,"N_COORD97":2545843.79,"ADDRESS":"南工街２６７巷４６號十一樓之２","OBJECTID":242215},"geometry":{"x":171856.62999999989,"y":2545843.7899999991}},{"attributes":{"ID":242220,"DIS_CODE":0,"TOWNNAME":"永康區","LI":"三合里","LIN":"24鄰","STREET":"南工街","SECT":" ","MAREA":" ","LANE":"２６７巷","ALLEY":" ","HOUSE_NO":"５８號九樓之２","E_COORD97":171830.64000000001,"N_COORD97":2545838.54,"ADDRESS":"南工街２６７巷５８號九樓之２","OBJECTID":242216},"geometry":{"x":171830.63999999966,"y":2545838.540000001}},{"attributes":{"ID":242221,"DIS_CODE":0,"TOWNNAME":"永康區","LI":"三合里","LIN":"24鄰","STREET":"南工街","SECT":" ","MAREA":" ","LANE":"２６７巷","ALLEY":" ","HOUSE_NO":"５８號九樓之７","E_COORD97":171830.57999999999,"N_COORD97":2545838.54,"ADDRESS":"南工街２６７巷５８號九樓之７","OBJECTID":242217},"geometry":{"x":171830.58000000101,"y":2545838.540000001}},{"attributes":{"ID":242222,"DIS_CODE":0,"TOWNNAME":"永康區","LI":"三合里","LIN":"24鄰","STREET":"南工街","SECT":" ","MAREA":" ","LANE":"２６７巷","ALLEY":" ","HOUSE_NO":"５８號五樓之５","E_COORD97":171830.66,"N_COORD97":2545838.54,"ADDRESS":"南工街２６７巷５８號五樓之５","OBJECTID":242218},"geometry":{"x":171830.66000000108,"y":2545838.540000001}},{"attributes":{"ID":242223,"DIS_CODE":0,"TOWNNAME":"永康區","LI":"三合里","LIN":"24鄰","STREET":"南工街","SECT":" ","MAREA":" ","LANE":"２６７巷","ALLEY":" ","HOUSE_NO":"５８號八樓之７","E_COORD97":171830.57999999999,"N_COORD97":2545838.54,"ADDRESS":"南工街２６７巷５８號八樓之７","OBJECTID":242219},"geometry":{"x":171830.58000000101,"y":2545838.540000001}},{"attributes":{"ID":242224,"DIS_CODE":0,"TOWNNAME":"永康區","LI":"三合里","LIN":"24鄰","STREET":"南工街","SECT":" ","MAREA":" ","LANE":"２６７巷","ALLEY":" ","HOUSE_NO":"６６號四樓之１","E_COORD97":171847.89999999999,"N_COORD97":2545837.79,"ADDRESS":"南工街２６７巷６６號四樓之１","OBJECTID":242220},"geometry":{"x":171847.9000000013,"y":2545837.7899999991}},{"attributes":{"ID":242225,"DIS_CODE":0,"TOWNNAME":"永康區","LI":"三合里","LIN":"24鄰","STREET":"南工街","SECT":" ","MAREA":" ","LANE":"２６７巷","ALLEY":" ","HOUSE_NO":"５０號七樓之３","E_COORD97":171844.29999999999,"N_COORD97":2545845.04,"ADDRESS":"南工街２６７巷５０號七樓之３","OBJECTID":242221},"geometry":{"x":171844.30000000075,"y":2545845.040000001}},{"attributes":{"ID":242226,"DIS_CODE":0,"TOWNNAME":"永康區","LI":"三合里","LIN":"24鄰","STREET":"南工街","SECT":" ","MAREA":" ","LANE":"２６７巷","ALLEY":" ","HOUSE_NO":"６６號九樓之１","E_COORD97":171847.89999999999,"N_COORD97":2545837.79,"ADDRESS":"南工街２６７巷６６號九樓之１","OBJECTID":242222},"geometry":{"x":171847.9000000013,"y":2545837.7899999991}},{"attributes":{"ID":242227,"DIS_CODE":0,"TOWNNAME":"北區","LI":"重興里","LIN":"24鄰","STREET":"東豐路","SECT":" ","MAREA":" ","LANE":"４５１巷","ALLEY":" ","HOUSE_NO":"６１號","E_COORD97":170798.29000000001,"N_COORD97":2544813.6699999999,"ADDRESS":"東豐路４５１巷６１號","OBJECTID":242223},"geometry":{"x":170798.2900000019,"y":2544813.6700000018}},{"attributes":{"ID":242228,"DIS_CODE":0,"TOWNNAME":"北區","LI":"重興里","LIN":"25鄰","STREET":"東豐路","SECT":" ","MAREA":" ","LANE":"４５１巷","ALLEY":" ","HOUSE_NO":"７３號","E_COORD97":170829.89000000001,"N_COORD97":2544865.4500000002,"ADDRESS":"東豐路４５１巷７３號","OBJECTID":242224},"geometry":{"x":170829.8900000006,"y":2544865.4500000011}},{"attributes":{"ID":242229,"DIS_CODE":0,"TOWNNAME":"北區","LI":"重興里","LIN":"25鄰","STREET":"東豐路","SECT":" ","MAREA":" ","LANE":"４５１巷","ALLEY":" ","HOUSE_NO":"７５號","E_COORD97":170835.26000000001,"N_COORD97":2544874.3900000001,"ADDRESS":"東豐路４５１巷７５號","OBJECTID":242225},"geometry":{"x":170835.25999999978,"y":2544874.3900000025}},{"attributes":{"ID":242230,"DIS_CODE":0,"TOWNNAME":"北區","LI":"重興里","LIN":"25鄰","STREET":"東豐路","SECT":" ","MAREA":" ","LANE":"４５１巷","ALLEY":" ","HOUSE_NO":"７７號","E_COORD97":170841.13,"N_COORD97":2544881.7400000002,"ADDRESS":"東豐路４５１巷７７號","OBJECTID":242226},"geometry":{"x":170841.12999999989,"y":2544881.7400000021}},{"attributes":{"ID":242231,"DIS_CODE":0,"TOWNNAME":"北區","LI":"重興里","LIN":"25鄰","STREET":"東豐路","SECT":" ","MAREA":" ","LANE":"４５１巷","ALLEY":" ","HOUSE_NO":"７９號","E_COORD97":170846.14000000001,"N_COORD97":2544890.9199999999,"ADDRESS":"東豐路４５１巷７９號","OBJECTID":242227},"geometry":{"x":170846.13999999966,"y":2544890.9200000018}},{"attributes":{"ID":242232,"DIS_CODE":0,"TOWNNAME":"北區","LI":"重興里","LIN":"25鄰","STREET":"東豐路","SECT":" ","MAREA":" ","LANE":"４５１巷","ALLEY":" ","HOUSE_NO":"８１號","E_COORD97":170851.07000000001,"N_COORD97":2544899.8199999998,"ADDRESS":"東豐路４５１巷８１號","OBJECTID":242228},"geometry":{"x":170851.07000000123,"y":2544899.8200000003}},{"attributes":{"ID":242233,"DIS_CODE":0,"TOWNNAME":"北區","LI":"重興里","LIN":"25鄰","STREET":"東豐路","SECT":" ","MAREA":" ","LANE":"４５１巷","ALLEY":" ","HOUSE_NO":"８３號","E_COORD97":170854.95000000001,"N_COORD97":2544906.4399999999,"ADDRESS":"東豐路４５１巷８３號","OBJECTID":242229},"geometry":{"x":170854.95000000205,"y":2544906.4400000013}},{"attributes":{"ID":242234,"DIS_CODE":0,"TOWNNAME":"北區","LI":"重興里","LIN":"25鄰","STREET":"東豐路","SECT":" ","MAREA":" ","LANE":"４５１巷","ALLEY":" ","HOUSE_NO":"８５號","E_COORD97":170861.57999999999,"N_COORD97":2544916.7599999998,"ADDRESS":"東豐路４５１巷８５號","OBJECTID":242230},"geometry":{"x":170861.58000000007,"y":2544916.7599999998}},{"attributes":{"ID":242235,"DIS_CODE":0,"TOWNNAME":"北區","LI":"重興里","LIN":"25鄰","STREET":"東豐路","SECT":" ","MAREA":" ","LANE":"４５１巷","ALLEY":" ","HOUSE_NO":"８７號","E_COORD97":170865.75,"N_COORD97":2544923.6600000001,"ADDRESS":"東豐路４５１巷８７號","OBJECTID":242231},"geometry":{"x":170865.75,"y":2544923.6600000001}},{"attributes":{"ID":242236,"DIS_CODE":0,"TOWNNAME":"東區","LI":"中西里","LIN":"14鄰","STREET":"東寧路","SECT":" ","MAREA":" ","LANE":" ","ALLEY":" ","HOUSE_NO":"７０號十一樓之１","E_COORD97":170138.82999999999,"N_COORD97":2543586.9500000002,"ADDRESS":"東寧路７０號十一樓之１","OBJECTID":242232},"geometry":{"x":170138.83000000101,"y":2543586.9500000011}},{"attributes":{"ID":242237,"DIS_CODE":0,"TOWNNAME":"中西區","LI":"三合里","LIN":"16鄰","STREET":"信義街","SECT":" ","MAREA":" ","LANE":"１０８巷","ALLEY":" ","HOUSE_NO":"５７號五樓之３","E_COORD97":167490.64000000001,"N_COORD97":2544632.8100000001,"ADDRESS":"信義街１０８巷５７號五樓之３","OBJECTID":242233},"geometry":{"x":167490.6400000006,"y":2544632.8099999987}},{"attributes":{"ID":242238,"DIS_CODE":0,"TOWNNAME":"永康區","LI":"三合里","LIN":"24鄰","STREET":"南工街","SECT":" ","MAREA":" ","LANE":"２６７巷","ALLEY":" ","HOUSE_NO":"６６號四樓之７","E_COORD97":171847.98000000001,"N_COORD97":2545837.79,"ADDRESS":"南工街２６７巷６６號四樓之７","OBJECTID":242234},"geometry":{"x":171847.98000000045,"y":2545837.7899999991}},{"attributes":{"ID":242239,"DIS_CODE":0,"TOWNNAME":"永康區","LI":"三合里","LIN":"24鄰","STREET":"南工街","SECT":" ","MAREA":" ","LANE":"２６７巷","ALLEY":" ","HOUSE_NO":"６６號六樓之２","E_COORD97":171848.04000000001,"N_COORD97":2545837.79,"ADDRESS":"南工街２６７巷６６號六樓之２","OBJECTID":242235},"geometry":{"x":171848.04000000097,"y":2545837.7899999991}},{"attributes":{"ID":242240,"DIS_CODE":0,"TOWNNAME":"永康區","LI":"三合里","LIN":"24鄰","STREET":"南工街","SECT":" ","MAREA":" ","LANE":"３１１巷","ALLEY":" ","HOUSE_NO":"７９號八樓之１","E_COORD97":171800.12,"N_COORD97":2545806.7999999998,"ADDRESS":"南工街３１１巷７９號八樓之１","OBJECTID":242236},"geometry":{"x":171800.12000000104,"y":2545806.8000000026}},{"attributes":{"ID":242241,"DIS_CODE":0,"TOWNNAME":"永康區","LI":"三合里","LIN":"24鄰","STREET":"南工街","SECT":" ","MAREA":" ","LANE":"２６７巷","ALLEY":" ","HOUSE_NO":"４６號八樓之６","E_COORD97":171855.35000000001,"N_COORD97":2545843.79,"ADDRESS":"南工街２６７巷４６號八樓之６","OBJECTID":242237},"geometry":{"x":171855.35000000056,"y":2545843.7899999991}},{"attributes":{"ID":242242,"DIS_CODE":0,"TOWNNAME":"永康區","LI":"三合里","LIN":"24鄰","STREET":"南工街","SECT":" ","MAREA":" ","LANE":"２６７巷","ALLEY":" ","HOUSE_NO":"４６號三樓之６","E_COORD97":171855.35000000001,"N_COORD97":2545843.79,"ADDRESS":"南工街２６７巷４６號三樓之６","OBJECTID":242238},"geometry":{"x":171855.35000000056,"y":2545843.7899999991}},{"attributes":{"ID":242243,"DIS_CODE":0,"TOWNNAME":"永康區","LI":"三合里","LIN":"24鄰","STREET":"南工街","SECT":" ","MAREA":" ","LANE":"２６７巷","ALLEY":" ","HOUSE_NO":"４６號六樓之６","E_COORD97":171855.35000000001,"N_COORD97":2545843.79,"ADDRESS":"南工街２６７巷４６號六樓之６","OBJECTID":242239},"geometry":{"x":171855.35000000056,"y":2545843.7899999991}},{"attributes":{"ID":242244,"DIS_CODE":0,"TOWNNAME":"永康區","LI":"三合里","LIN":"24鄰","STREET":"南工街","SECT":" ","MAREA":" ","LANE":"２６７巷","ALLEY":" ","HOUSE_NO":"６６號十樓之３","E_COORD97":171848,"N_COORD97":2545837.79,"ADDRESS":"南工街２６７巷６６號十樓之３","OBJECTID":242240},"geometry":{"x":171848.00000000093,"y":2545837.7899999991}},{"attributes":{"ID":242245,"DIS_CODE":0,"TOWNNAME":"北區","LI":"重興里","LIN":"26鄰","STREET":"東豐路","SECT":" ","MAREA":" ","LANE":"４５１巷","ALLEY":" ","HOUSE_NO":"８９號","E_COORD97":170787.67999999999,"N_COORD97":2544821.21,"ADDRESS":"東豐路４５１巷８９號","OBJECTID":242241},"geometry":{"x":170787.6799999997,"y":2544821.2100000028}},{"attributes":{"ID":242246,"DIS_CODE":0,"TOWNNAME":"北區","LI":"重興里","LIN":"26鄰","STREET":"東豐路","SECT":" ","MAREA":" ","LANE":"４５１巷","ALLEY":" ","HOUSE_NO":"９１號","E_COORD97":170792.25,"N_COORD97":2544829.7400000002,"ADDRESS":"東豐路４５１巷９１號","OBJECTID":242242},"geometry":{"x":170792.25000000093,"y":2544829.7400000039}},{"attributes":{"ID":242247,"DIS_CODE":0,"TOWNNAME":"東區","LI":"中西里","LIN":"14鄰","STREET":"東寧路","SECT":" ","MAREA":" ","LANE":" ","ALLEY":" ","HOUSE_NO":"７０號十一樓之２","E_COORD97":170138.82999999999,"N_COORD97":2543586.9500000002,"ADDRESS":"東寧路７０號十一樓之２","OBJECTID":242243},"geometry":{"x":170138.83000000101,"y":2543586.9500000011}},{"attributes":{"ID":242248,"DIS_CODE":0,"TOWNNAME":"東區","LI":"中西里","LIN":"14鄰","STREET":"東寧路","SECT":" ","MAREA":" ","LANE":" ","ALLEY":" ","HOUSE_NO":"７０號十二樓","E_COORD97":170138.82999999999,"N_COORD97":2543586.9500000002,"ADDRESS":"東寧路７０號十二樓","OBJECTID":242244},"geometry":{"x":170138.83000000101,"y":2543586.9500000011}},{"attributes":{"ID":242249,"DIS_CODE":0,"TOWNNAME":"仁德區","LI":"仁德里","LIN":"33鄰","STREET":"中山路","SECT":" ","MAREA":" ","LANE":" ","ALLEY":" ","HOUSE_NO":"６９４號","E_COORD97":172811.64000000001,"N_COORD97":2541492.4900000002,"ADDRESS":"中山路６９４號","OBJECTID":242245},"geometry":{"x":172811.6400000006,"y":2541492.4900000021}},{"attributes":{"ID":242250,"DIS_CODE":0,"TOWNNAME":"東區","LI":"崇信里","LIN":"16鄰","STREET":"崇善路","SECT":" ","MAREA":" ","LANE":"２０５巷","ALLEY":" ","HOUSE_NO":"１２號二樓","E_COORD97":170563.39000000001,"N_COORD97":2542282.3100000001,"ADDRESS":"崇善路２０５巷１２號二樓","OBJECTID":242246},"geometry":{"x":170563.3900000006,"y":2542282.3100000005}},{"attributes":{"ID":242251,"DIS_CODE":0,"TOWNNAME":"北區","LI":"重興里","LIN":"18鄰","STREET":"林森路","SECT":"三段","MAREA":" ","LANE":"１４０巷","ALLEY":" ","HOUSE_NO":"３３號","E_COORD97":170659.89999999999,"N_COORD97":2545064.9399999999,"ADDRESS":"林森路三段１４０巷３３號","OBJECTID":242247},"geometry":{"x":170659.90000000037,"y":2545064.9400000032}},{"attributes":{"ID":242252,"DIS_CODE":0,"TOWNNAME":"東區","LI":"崇信里","LIN":"16鄰","STREET":"崇善路","SECT":" ","MAREA":" ","LANE":"２０５巷","ALLEY":" ","HOUSE_NO":"１２號二樓之１","E_COORD97":170563.39000000001,"N_COORD97":2542282.3100000001,"ADDRESS":"崇善路２０５巷１２號二樓之１","OBJECTID":242248},"geometry":{"x":170563.3900000006,"y":2542282.3100000005}},{"attributes":{"ID":242253,"DIS_CODE":0,"TOWNNAME":"東區","LI":"崇信里","LIN":"16鄰","STREET":"崇善路","SECT":" ","MAREA":" ","LANE":"２０５巷","ALLEY":" ","HOUSE_NO":"１２號三樓","E_COORD97":170563.39000000001,"N_COORD97":2542282.3100000001,"ADDRESS":"崇善路２０５巷１２號三樓","OBJECTID":242249},"geometry":{"x":170563.3900000006,"y":2542282.3100000005}},{"attributes":{"ID":242254,"DIS_CODE":0,"TOWNNAME":"北區","LI":"重興里","LIN":"26鄰","STREET":"東豐路","SECT":" ","MAREA":" ","LANE":"４５１巷","ALLEY":" ","HOUSE_NO":"９３號","E_COORD97":170797.39999999999,"N_COORD97":2544837.3900000001,"ADDRESS":"東豐路４５１巷９３號","OBJECTID":242250},"geometry":{"x":170797.40000000037,"y":2544837.3900000025}},{"attributes":{"ID":242255,"DIS_CODE":0,"TOWNNAME":"北區","LI":"重興里","LIN":"26鄰","STREET":"東豐路","SECT":" ","MAREA":" ","LANE":"４５１巷","ALLEY":" ","HOUSE_NO":"９５號","E_COORD97":170801.67999999999,"N_COORD97":2544845.3399999999,"ADDRESS":"東豐路４５１巷９５號","OBJECTID":242251},"geometry":{"x":170801.6799999997,"y":2544845.3399999999}},{"attributes":{"ID":242256,"DIS_CODE":0,"TOWNNAME":"北區","LI":"重興里","LIN":"26鄰","STREET":"東豐路","SECT":" ","MAREA":" ","LANE":"４５１巷","ALLEY":" ","HOUSE_NO":"９７號","E_COORD97":170805.79999999999,"N_COORD97":2544851.8100000001,"ADDRESS":"東豐路４５１巷９７號","OBJECTID":242252},"geometry":{"x":170805.79999999981,"y":2544851.8100000005}},{"attributes":{"ID":242257,"DIS_CODE":0,"TOWNNAME":"北區","LI":"重興里","LIN":"26鄰","STREET":"東豐路","SECT":" ","MAREA":" ","LANE":"４５１巷","ALLEY":" ","HOUSE_NO":"９９號","E_COORD97":170810.07000000001,"N_COORD97":2544859.3100000001,"ADDRESS":"東豐路４５１巷９９號","OBJECTID":242253},"geometry":{"x":170810.06999999937,"y":2544859.3100000005}},{"attributes":{"ID":242258,"DIS_CODE":0,"TOWNNAME":"永康區","LI":"六合里","LIN":"24鄰","STREET":"中華二路","SECT":" ","MAREA":" ","LANE":"３５８巷","ALLEY":" ","HOUSE_NO":"８號三樓之１","E_COORD97":171159.35999999999,"N_COORD97":2545457.4500000002,"ADDRESS":"中華二路３５８巷８號三樓之１","OBJECTID":242254},"geometry":{"x":171159.36000000127,"y":2545457.4499999993}},{"attributes":{"ID":242259,"DIS_CODE":0,"TOWNNAME":"北區","LI":"重興里","LIN":"27鄰","STREET":"東豐路","SECT":" ","MAREA":" ","LANE":"４５１巷","ALLEY":" ","HOUSE_NO":"１０１號","E_COORD97":170819.01000000001,"N_COORD97":2544871.71,"ADDRESS":"東豐路４５１巷１０１號","OBJECTID":242255},"geometry":{"x":170819.01000000071,"y":2544871.7100000028}},{"attributes":{"ID":242260,"DIS_CODE":0,"TOWNNAME":"北區","LI":"重興里","LIN":"18鄰","STREET":"林森路","SECT":"三段","MAREA":" ","LANE":"１４０巷","ALLEY":" ","HOUSE_NO":"２９號","E_COORD97":170659.23999999999,"N_COORD97":2545048.3700000001,"ADDRESS":"林森路三段１４０巷２９號","OBJECTID":242256},"geometry":{"x":170659.24000000022,"y":2545048.3700000029}},{"attributes":{"ID":242261,"DIS_CODE":0,"TOWNNAME":"北區","LI":"重興里","LIN":"18鄰","STREET":"林森路","SECT":"三段","MAREA":" ","LANE":"１４０巷","ALLEY":" ","HOUSE_NO":"３１號","E_COORD97":170651.92999999999,"N_COORD97":2545054.0600000001,"ADDRESS":"林森路三段１４０巷３１號","OBJECTID":242257},"geometry":{"x":170651.93000000063,"y":2545054.0600000005}},{"attributes":{"ID":242262,"DIS_CODE":0,"TOWNNAME":"永康區","LI":"三合里","LIN":"24鄰","STREET":"南工街","SECT":" ","MAREA":" ","LANE":"２６７巷","ALLEY":" ","HOUSE_NO":"４６號六樓之５","E_COORD97":171855.39999999999,"N_COORD97":2545843.79,"ADDRESS":"南工街２６７巷４６號六樓之５","OBJECTID":242258},"geometry":{"x":171855.40000000037,"y":2545843.7899999991}},{"attributes":{"ID":242263,"DIS_CODE":0,"TOWNNAME":"永康區","LI":"安康里","LIN":"24鄰","STREET":"中華路","SECT":" ","MAREA":" ","LANE":"７０３巷","ALLEY":" ","HOUSE_NO":"４８號四樓之１","E_COORD97":170778.60000000001,"N_COORD97":2546259.54,"ADDRESS":"中華路７０３巷４８號四樓之１","OBJECTID":242259},"geometry":{"x":170778.59999999963,"y":2546259.5399999991}},{"attributes":{"ID":242264,"DIS_CODE":0,"TOWNNAME":"永康區","LI":"安康里","LIN":"24鄰","STREET":"中華路","SECT":" ","MAREA":" ","LANE":"７０３巷","ALLEY":" ","HOUSE_NO":"５２號二樓","E_COORD97":170770.67999999999,"N_COORD97":2546278.9900000002,"ADDRESS":"中華路７０３巷５２號二樓","OBJECTID":242260},"geometry":{"x":170770.6799999997,"y":2546278.9899999984}},{"attributes":{"ID":242265,"DIS_CODE":0,"TOWNNAME":"永康區","LI":"西灣里","LIN":"24鄰","STREET":"國光八街","SECT":" ","MAREA":" ","LANE":"１１巷","ALLEY":" ","HOUSE_NO":"５號五樓","E_COORD97":174417.54000000001,"N_COORD97":2545720.2599999998,"ADDRESS":"國光八街１１巷５號五樓","OBJECTID":242261},"geometry":{"x":174417.5400000019,"y":2545720.2599999998}},{"attributes":{"ID":242266,"DIS_CODE":0,"TOWNNAME":"北區","LI":"重興里","LIN":"17鄰","STREET":"林森路","SECT":"三段","MAREA":" ","LANE":"１４０巷","ALLEY":" ","HOUSE_NO":"１７號","E_COORD97":170622.42999999999,"N_COORD97":2545018.6699999999,"ADDRESS":"林森路三段１４０巷１７號","OBJECTID":242262},"geometry":{"x":170622.43000000156,"y":2545018.6699999999}},{"attributes":{"ID":242267,"DIS_CODE":0,"TOWNNAME":"北區","LI":"重興里","LIN":"18鄰","STREET":"林森路","SECT":"三段","MAREA":" ","LANE":"１４０巷","ALLEY":" ","HOUSE_NO":"２１號","E_COORD97":170639.88,"N_COORD97":2545025.2400000002,"ADDRESS":"林森路三段１４０巷２１號","OBJECTID":242263},"geometry":{"x":170639.88000000175,"y":2545025.2400000002}},{"attributes":{"ID":242268,"DIS_CODE":0,"TOWNNAME":"東區","LI":"中西里","LIN":"14鄰","STREET":"東寧路","SECT":" ","MAREA":" ","LANE":" ","ALLEY":" ","HOUSE_NO":"７０號十二樓之１","E_COORD97":170138.82999999999,"N_COORD97":2543586.9500000002,"ADDRESS":"東寧路７０號十二樓之１","OBJECTID":242264},"geometry":{"x":170138.83000000101,"y":2543586.9500000011}},{"attributes":{"ID":242269,"DIS_CODE":0,"TOWNNAME":"東區","LI":"中西里","LIN":"14鄰","STREET":"東寧路","SECT":" ","MAREA":" ","LANE":" ","ALLEY":" ","HOUSE_NO":"７０號十二樓之２","E_COORD97":170138.82999999999,"N_COORD97":2543586.9500000002,"ADDRESS":"東寧路７０號十二樓之２","OBJECTID":242265},"geometry":{"x":170138.83000000101,"y":2543586.9500000011}},{"attributes":{"ID":242270,"DIS_CODE":0,"TOWNNAME":"東區","LI":"中西里","LIN":"14鄰","STREET":"東寧路","SECT":" ","MAREA":" ","LANE":" ","ALLEY":" ","HOUSE_NO":"７０號十三樓","E_COORD97":170138.82999999999,"N_COORD97":2543586.9500000002,"ADDRESS":"東寧路７０號十三樓","OBJECTID":242266},"geometry":{"x":170138.83000000101,"y":2543586.9500000011}},{"attributes":{"ID":242271,"DIS_CODE":0,"TOWNNAME":"東區","LI":"崇信里","LIN":"16鄰","STREET":"崇善路","SECT":" ","MAREA":" ","LANE":"２０５巷","ALLEY":" ","HOUSE_NO":"２０號二樓","E_COORD97":170582.51000000001,"N_COORD97":2542296.5600000001,"ADDRESS":"崇善路２０５巷２０號二樓","OBJECTID":242267},"geometry":{"x":170582.50999999978,"y":2542296.5600000024}},{"attributes":{"ID":242272,"DIS_CODE":0,"TOWNNAME":"東區","LI":"崇信里","LIN":"16鄰","STREET":"崇善路","SECT":" ","MAREA":" ","LANE":"２０５巷","ALLEY":" ","HOUSE_NO":"２０號三樓","E_COORD97":170582.51000000001,"N_COORD97":2542296.5600000001,"ADDRESS":"崇善路２０５巷２０號三樓","OBJECTID":242268},"geometry":{"x":170582.50999999978,"y":2542296.5600000024}},{"attributes":{"ID":242273,"DIS_CODE":0,"TOWNNAME":"東區","LI":"崇信里","LIN":"16鄰","STREET":"崇善路","SECT":" ","MAREA":" ","LANE":"２０５巷","ALLEY":" ","HOUSE_NO":"２０號五樓","E_COORD97":170582.51000000001,"N_COORD97":2542296.5600000001,"ADDRESS":"崇善路２０５巷２０號五樓","OBJECTID":242269},"geometry":{"x":170582.50999999978,"y":2542296.5600000024}},{"attributes":{"ID":242274,"DIS_CODE":0,"TOWNNAME":"東區","LI":"崇信里","LIN":"16鄰","STREET":"崇善路","SECT":" ","MAREA":" ","LANE":"２０５巷","ALLEY":" ","HOUSE_NO":"２０號六樓","E_COORD97":170582.51000000001,"N_COORD97":2542296.5600000001,"ADDRESS":"崇善路２０５巷２０號六樓","OBJECTID":242270},"geometry":{"x":170582.50999999978,"y":2542296.5600000024}},{"attributes":{"ID":242275,"DIS_CODE":0,"TOWNNAME":"東區","LI":"崇信里","LIN":"16鄰","STREET":"崇善路","SECT":" ","MAREA":" ","LANE":"２０５巷","ALLEY":" ","HOUSE_NO":"２０號四樓","E_COORD97":170582.51000000001,"N_COORD97":2542296.5600000001,"ADDRESS":"崇善路２０５巷２０號四樓","OBJECTID":242271},"geometry":{"x":170582.50999999978,"y":2542296.5600000024}},{"attributes":{"ID":242276,"DIS_CODE":0,"TOWNNAME":"東區","LI":"崇信里","LIN":"16鄰","STREET":"崇善路","SECT":" ","MAREA":" ","LANE":"２０５巷","ALLEY":" ","HOUSE_NO":"２２號二樓","E_COORD97":170587.35000000001,"N_COORD97":2542303.8900000001,"ADDRESS":"崇善路２０５巷２２號二樓","OBJECTID":242272},"geometry":{"x":170587.35000000056,"y":2542303.8900000025}},{"attributes":{"ID":242277,"DIS_CODE":0,"TOWNNAME":"東區","LI":"崇信里","LIN":"16鄰","STREET":"崇善路","SECT":" ","MAREA":" ","LANE":"２０５巷","ALLEY":" ","HOUSE_NO":"２２號三樓","E_COORD97":170587.35000000001,"N_COORD97":2542303.8900000001,"ADDRESS":"崇善路２０５巷２２號三樓","OBJECTID":242273},"geometry":{"x":170587.35000000056,"y":2542303.8900000025}},{"attributes":{"ID":242278,"DIS_CODE":0,"TOWNNAME":"東區","LI":"崇信里","LIN":"16鄰","STREET":"崇善路","SECT":" ","MAREA":" ","LANE":"２０５巷","ALLEY":" ","HOUSE_NO":"２２號五樓","E_COORD97":170587.35000000001,"N_COORD97":2542303.8900000001,"ADDRESS":"崇善路２０５巷２２號五樓","OBJECTID":242274},"geometry":{"x":170587.35000000056,"y":2542303.8900000025}},{"attributes":{"ID":242279,"DIS_CODE":0,"TOWNNAME":"東區","LI":"崇信里","LIN":"16鄰","STREET":"崇善路","SECT":" ","MAREA":" ","LANE":"２０５巷","ALLEY":" ","HOUSE_NO":"２２號六樓","E_COORD97":170587.35000000001,"N_COORD97":2542303.8900000001,"ADDRESS":"崇善路２０５巷２２號六樓","OBJECTID":242275},"geometry":{"x":170587.35000000056,"y":2542303.8900000025}},{"attributes":{"ID":242280,"DIS_CODE":0,"TOWNNAME":"北區","LI":"重興里","LIN":"18鄰","STREET":"林森路","SECT":"三段","MAREA":" ","LANE":"１４０巷","ALLEY":" ","HOUSE_NO":"２３號","E_COORD97":170632.79000000001,"N_COORD97":2545031.4500000002,"ADDRESS":"林森路三段１４０巷２３號","OBJECTID":242276},"geometry":{"x":170632.79000000097,"y":2545031.4500000011}},{"attributes":{"ID":242281,"DIS_CODE":0,"TOWNNAME":"北區","LI":"重興里","LIN":"18鄰","STREET":"林森路","SECT":"三段","MAREA":" ","LANE":"１４０巷","ALLEY":" ","HOUSE_NO":"２５號","E_COORD97":170641.48999999999,"N_COORD97":2545041.4500000002,"ADDRESS":"林森路三段１４０巷２５號","OBJECTID":242277},"geometry":{"x":170641.49000000115,"y":2545041.4500000011}},{"attributes":{"ID":242282,"DIS_CODE":0,"TOWNNAME":"北區","LI":"重興里","LIN":"18鄰","STREET":"林森路","SECT":"三段","MAREA":" ","LANE":"１４０巷","ALLEY":" ","HOUSE_NO":"２７號","E_COORD97":170648.94,"N_COORD97":2545035.1000000001,"ADDRESS":"林森路三段１４０巷２７號","OBJECTID":242278},"geometry":{"x":170648.94000000134,"y":2545035.1000000015}},{"attributes":{"ID":242283,"DIS_CODE":0,"TOWNNAME":"北區","LI":"重興里","LIN":"18鄰","STREET":"林森路","SECT":"三段","MAREA":" ","LANE":"１４０巷","ALLEY":" ","HOUSE_NO":"３５號","E_COORD97":170667.94,"N_COORD97":2545057.79,"ADDRESS":"林森路三段１４０巷３５號","OBJECTID":242279},"geometry":{"x":170667.94000000041,"y":2545057.7899999991}},{"attributes":{"ID":242284,"DIS_CODE":0,"TOWNNAME":"安南區","LI":"鳳凰里","LIN":"24鄰","STREET":"怡安路","SECT":"二段","MAREA":" ","LANE":"５４５巷","ALLEY":" ","HOUSE_NO":"１０號十一樓","E_COORD97":167506.10000000001,"N_COORD97":2549379.1200000001,"ADDRESS":"怡安路二段５４５巷１０號十一樓","OBJECTID":242280},"geometry":{"x":167506.10000000056,"y":2549379.1200000029}},{"attributes":{"ID":242285,"DIS_CODE":0,"TOWNNAME":"安南區","LI":"鳳凰里","LIN":"24鄰","STREET":"怡安路","SECT":"二段","MAREA":" ","LANE":"５４５巷","ALLEY":" ","HOUSE_NO":"１０號十二樓","E_COORD97":167506.10000000001,"N_COORD97":2549379.1200000001,"ADDRESS":"怡安路二段５４５巷１０號十二樓","OBJECTID":242281},"geometry":{"x":167506.10000000056,"y":2549379.1200000029}},{"attributes":{"ID":242286,"DIS_CODE":0,"TOWNNAME":"安南區","LI":"鳳凰里","LIN":"24鄰","STREET":"怡安路","SECT":"二段","MAREA":" ","LANE":"５４５巷","ALLEY":" ","HOUSE_NO":"１０號十三樓","E_COORD97":167506.10000000001,"N_COORD97":2549379.1200000001,"ADDRESS":"怡安路二段５４５巷１０號十三樓","OBJECTID":242282},"geometry":{"x":167506.10000000056,"y":2549379.1200000029}},{"attributes":{"ID":242287,"DIS_CODE":0,"TOWNNAME":"東區","LI":"中西里","LIN":"14鄰","STREET":"東寧路","SECT":" ","MAREA":" ","LANE":" ","ALLEY":" ","HOUSE_NO":"７０號十三樓之１","E_COORD97":170138.82999999999,"N_COORD97":2543586.9500000002,"ADDRESS":"東寧路７０號十三樓之１","OBJECTID":242283},"geometry":{"x":170138.83000000101,"y":2543586.9500000011}},{"attributes":{"ID":242288,"DIS_CODE":0,"TOWNNAME":"東區","LI":"中西里","LIN":"14鄰","STREET":"東寧路","SECT":" ","MAREA":" ","LANE":" ","ALLEY":" ","HOUSE_NO":"７０號十三樓之２","E_COORD97":170138.82999999999,"N_COORD97":2543586.9500000002,"ADDRESS":"東寧路７０號十三樓之２","OBJECTID":242284},"geometry":{"x":170138.83000000101,"y":2543586.9500000011}},{"attributes":{"ID":242289,"DIS_CODE":0,"TOWNNAME":"東區","LI":"中西里","LIN":"14鄰","STREET":"東寧路","SECT":" ","MAREA":" ","LANE":" ","ALLEY":" ","HOUSE_NO":"７０號十四樓","E_COORD97":170138.82999999999,"N_COORD97":2543586.9500000002,"ADDRESS":"東寧路７０號十四樓","OBJECTID":242285},"geometry":{"x":170138.83000000101,"y":2543586.9500000011}},{"attributes":{"ID":242290,"DIS_CODE":0,"TOWNNAME":"東區","LI":"中西里","LIN":"14鄰","STREET":"東寧路","SECT":" ","MAREA":" ","LANE":" ","ALLEY":" ","HOUSE_NO":"７０號十四樓之１","E_COORD97":170138.82999999999,"N_COORD97":2543586.9500000002,"ADDRESS":"東寧路７０號十四樓之１","OBJECTID":242286},"geometry":{"x":170138.83000000101,"y":2543586.9500000011}},{"attributes":{"ID":242291,"DIS_CODE":0,"TOWNNAME":"東區","LI":"中西里","LIN":"14鄰","STREET":"東寧路","SECT":" ","MAREA":" ","LANE":" ","ALLEY":" ","HOUSE_NO":"７０號十四樓之２","E_COORD97":170138.82999999999,"N_COORD97":2543586.9500000002,"ADDRESS":"東寧路７０號十四樓之２","OBJECTID":242287},"geometry":{"x":170138.83000000101,"y":2543586.9500000011}},{"attributes":{"ID":242292,"DIS_CODE":0,"TOWNNAME":"東區","LI":"中西里","LIN":"14鄰","STREET":"東寧路","SECT":" ","MAREA":" ","LANE":" ","ALLEY":" ","HOUSE_NO":"７０號十五樓","E_COORD97":170138.82999999999,"N_COORD97":2543586.9500000002,"ADDRESS":"東寧路７０號十五樓","OBJECTID":242288},"geometry":{"x":170138.83000000101,"y":2543586.9500000011}},{"attributes":{"ID":242293,"DIS_CODE":0,"TOWNNAME":"東區","LI":"中西里","LIN":"14鄰","STREET":"東寧路","SECT":" ","MAREA":" ","LANE":" ","ALLEY":" ","HOUSE_NO":"７０號十五樓之１","E_COORD97":170138.82999999999,"N_COORD97":2543586.9500000002,"ADDRESS":"東寧路７０號十五樓之１","OBJECTID":242289},"geometry":{"x":170138.83000000101,"y":2543586.9500000011}},{"attributes":{"ID":242294,"DIS_CODE":0,"TOWNNAME":"東區","LI":"中西里","LIN":"14鄰","STREET":"東寧路","SECT":" ","MAREA":" ","LANE":" ","ALLEY":" ","HOUSE_NO":"７０號十五樓之２","E_COORD97":170138.82999999999,"N_COORD97":2543586.9500000002,"ADDRESS":"東寧路７０號十五樓之２","OBJECTID":242290},"geometry":{"x":170138.83000000101,"y":2543586.9500000011}},{"attributes":{"ID":242295,"DIS_CODE":0,"TOWNNAME":"東區","LI":"忠孝里","LIN":"14鄰","STREET":"榮譽街","SECT":" ","MAREA":" ","LANE":" ","ALLEY":" ","HOUSE_NO":"１１５號三樓之１","E_COORD97":169853.32999999999,"N_COORD97":2541756.6200000001,"ADDRESS":"榮譽街１１５號三樓之１","OBJECTID":242291},"geometry":{"x":169853.33000000007,"y":2541756.6200000048}},{"attributes":{"ID":242296,"DIS_CODE":0,"TOWNNAME":"新營區","LI":"新南里","LIN":"16鄰","STREET":"隋唐街","SECT":" ","MAREA":" ","LANE":"３１巷","ALLEY":" ","HOUSE_NO":"５５號七樓之４","E_COORD97":178688.94,"N_COORD97":2578323.2200000002,"ADDRESS":"隋唐街３１巷５５號七樓之４","OBJECTID":242292},"geometry":{"x":178688.94000000134,"y":2578323.2200000007}},{"attributes":{"ID":242297,"DIS_CODE":0,"TOWNNAME":"安南區","LI":"鳳凰里","LIN":"24鄰","STREET":"怡安路","SECT":"二段","MAREA":" ","LANE":"５４５巷","ALLEY":" ","HOUSE_NO":"１０號十五樓","E_COORD97":167506.10000000001,"N_COORD97":2549379.1200000001,"ADDRESS":"怡安路二段５４５巷１０號十五樓","OBJECTID":242293},"geometry":{"x":167506.10000000056,"y":2549379.1200000029}},{"attributes":{"ID":242298,"DIS_CODE":0,"TOWNNAME":"安南區","LI":"鳳凰里","LIN":"24鄰","STREET":"怡安路","SECT":"二段","MAREA":" ","LANE":"５４５巷","ALLEY":" ","HOUSE_NO":"１０號十六樓","E_COORD97":167506.10000000001,"N_COORD97":2549379.1200000001,"ADDRESS":"怡安路二段５４５巷１０號十六樓","OBJECTID":242294},"geometry":{"x":167506.10000000056,"y":2549379.1200000029}},{"attributes":{"ID":242299,"DIS_CODE":0,"TOWNNAME":"東區","LI":"忠孝里","LIN":"14鄰","STREET":"榮譽街","SECT":" ","MAREA":" ","LANE":" ","ALLEY":" ","HOUSE_NO":"１１５號四樓","E_COORD97":169853.32999999999,"N_COORD97":2541756.6200000001,"ADDRESS":"榮譽街１１５號四樓","OBJECTID":242295},"geometry":{"x":169853.33000000007,"y":2541756.6200000048}},{"attributes":{"ID":242300,"DIS_CODE":0,"TOWNNAME":"新營區","LI":"新南里","LIN":"16鄰","STREET":"隋唐街","SECT":" ","MAREA":" ","LANE":"３１巷","ALLEY":" ","HOUSE_NO":"５５號六樓之３","E_COORD97":178689.01000000001,"N_COORD97":2578323.2200000002,"ADDRESS":"隋唐街３１巷５５號六樓之３","OBJECTID":242296},"geometry":{"x":178689.00999999978,"y":2578323.2200000007}},{"attributes":{"ID":242301,"DIS_CODE":0,"TOWNNAME":"下營區","LI":"紅厝里","LIN":"16鄰","STREET":" ","SECT":" ","MAREA":"紅毛厝","LANE":" ","ALLEY":" ","HOUSE_NO":"１２０號","E_COORD97":175062.62,"N_COORD97":2571390.04,"ADDRESS":"紅毛厝１２０號","OBJECTID":242297},"geometry":{"x":175062.62000000011,"y":2571390.0400000028}},{"attributes":{"ID":242302,"DIS_CODE":0,"TOWNNAME":"新營區","LI":"新南里","LIN":"16鄰","STREET":"隋唐街","SECT":" ","MAREA":" ","LANE":"３１巷","ALLEY":" ","HOUSE_NO":"５７號六樓之１","E_COORD97":178688.92000000001,"N_COORD97":2578323.2200000002,"ADDRESS":"隋唐街３１巷５７號六樓之１","OBJECTID":242298},"geometry":{"x":178688.92000000086,"y":2578323.2200000007}},{"attributes":{"ID":242303,"DIS_CODE":0,"TOWNNAME":"新營區","LI":"新南里","LIN":"16鄰","STREET":"隋唐街","SECT":" ","MAREA":" ","LANE":"３１巷","ALLEY":" ","HOUSE_NO":"５５號三樓之１","E_COORD97":178688.92000000001,"N_COORD97":2578323.2200000002,"ADDRESS":"隋唐街３１巷５５號三樓之１","OBJECTID":242299},"geometry":{"x":178688.92000000086,"y":2578323.2200000007}},{"attributes":{"ID":242304,"DIS_CODE":0,"TOWNNAME":"南區","LI":"新興里","LIN":"16鄰","STREET":"三官路","SECT":" ","MAREA":" ","LANE":"７巷","ALLEY":" ","HOUSE_NO":"４５號三樓","E_COORD97":167416.12,"N_COORD97":2542354.7799999998,"ADDRESS":"三官路７巷４５號三樓","OBJECTID":242300},"geometry":{"x":167416.12000000104,"y":2542354.7800000012}},{"attributes":{"ID":242305,"DIS_CODE":0,"TOWNNAME":"安南區","LI":"鳳凰里","LIN":"24鄰","STREET":"怡安路","SECT":"二段","MAREA":" ","LANE":"５４５巷","ALLEY":" ","HOUSE_NO":"１０號十四樓","E_COORD97":167506.10000000001,"N_COORD97":2549379.1200000001,"ADDRESS":"怡安路二段５４５巷１０號十四樓","OBJECTID":242301},"geometry":{"x":167506.10000000056,"y":2549379.1200000029}},{"attributes":{"ID":242306,"DIS_CODE":0,"TOWNNAME":"安南區","LI":"鳳凰里","LIN":"24鄰","STREET":"怡安路","SECT":"二段","MAREA":" ","LANE":"５４５巷","ALLEY":" ","HOUSE_NO":"１０號十樓","E_COORD97":167506.10000000001,"N_COORD97":2549379.1200000001,"ADDRESS":"怡安路二段５４５巷１０號十樓","OBJECTID":242302},"geometry":{"x":167506.10000000056,"y":2549379.1200000029}},{"attributes":{"ID":242307,"DIS_CODE":0,"TOWNNAME":"安南區","LI":"鳳凰里","LIN":"24鄰","STREET":"怡安路","SECT":"二段","MAREA":" ","LANE":"５４５巷","ALLEY":" ","HOUSE_NO":"１０號三樓","E_COORD97":167506.10000000001,"N_COORD97":2549379.1200000001,"ADDRESS":"怡安路二段５４５巷１０號三樓","OBJECTID":242303},"geometry":{"x":167506.10000000056,"y":2549379.1200000029}},{"attributes":{"ID":242308,"DIS_CODE":0,"TOWNNAME":"安南區","LI":"鳳凰里","LIN":"24鄰","STREET":"怡安路","SECT":"二段","MAREA":" ","LANE":"５４５巷","ALLEY":" ","HOUSE_NO":"１０號五樓","E_COORD97":167506.10000000001,"N_COORD97":2549379.1200000001,"ADDRESS":"怡安路二段５４５巷１０號五樓","OBJECTID":242304},"geometry":{"x":167506.10000000056,"y":2549379.1200000029}},{"attributes":{"ID":242309,"DIS_CODE":0,"TOWNNAME":"安南區","LI":"鳳凰里","LIN":"24鄰","STREET":"怡安路","SECT":"二段","MAREA":" ","LANE":"５４５巷","ALLEY":" ","HOUSE_NO":"１０號六樓","E_COORD97":167506.10000000001,"N_COORD97":2549379.1200000001,"ADDRESS":"怡安路二段５４５巷１０號六樓","OBJECTID":242305},"geometry":{"x":167506.10000000056,"y":2549379.1200000029}},{"attributes":{"ID":242310,"DIS_CODE":0,"TOWNNAME":"安南區","LI":"鳳凰里","LIN":"24鄰","STREET":"怡安路","SECT":"二段","MAREA":" ","LANE":"５４５巷","ALLEY":" ","HOUSE_NO":"８號十三樓","E_COORD97":167508.26000000001,"N_COORD97":2549383.3399999999,"ADDRESS":"怡安路二段５４５巷８號十三樓","OBJECTID":242306},"geometry":{"x":167508.26000000071,"y":2549383.3400000017}},{"attributes":{"ID":242311,"DIS_CODE":0,"TOWNNAME":"安南區","LI":"鳳凰里","LIN":"24鄰","STREET":"怡安路","SECT":"二段","MAREA":" ","LANE":"５４５巷","ALLEY":" ","HOUSE_NO":"１０號四樓","E_COORD97":167506.10000000001,"N_COORD97":2549379.1200000001,"ADDRESS":"怡安路二段５４５巷１０號四樓","OBJECTID":242307},"geometry":{"x":167506.10000000056,"y":2549379.1200000029}},{"attributes":{"ID":242312,"DIS_CODE":0,"TOWNNAME":"安南區","LI":"鳳凰里","LIN":"24鄰","STREET":"怡安路","SECT":"二段","MAREA":" ","LANE":"５４５巷","ALLEY":" ","HOUSE_NO":"１６號七樓","E_COORD97":167503.32000000001,"N_COORD97":2549370.79,"ADDRESS":"怡安路二段５４５巷１６號七樓","OBJECTID":242308},"geometry":{"x":167503.32000000123,"y":2549370.7899999991}},{"attributes":{"ID":242313,"DIS_CODE":0,"TOWNNAME":"安南區","LI":"鳳凰里","LIN":"24鄰","STREET":"怡安路","SECT":"二段","MAREA":" ","LANE":"５４５巷","ALLEY":" ","HOUSE_NO":"１６號九樓","E_COORD97":167503.32000000001,"N_COORD97":2549370.79,"ADDRESS":"怡安路二段５４５巷１６號九樓","OBJECTID":242309},"geometry":{"x":167503.32000000123,"y":2549370.7899999991}},{"attributes":{"ID":242314,"DIS_CODE":0,"TOWNNAME":"安南區","LI":"鳳凰里","LIN":"24鄰","STREET":"怡安路","SECT":"二段","MAREA":" ","LANE":"５４５巷","ALLEY":" ","HOUSE_NO":"１６號八樓","E_COORD97":167503.32000000001,"N_COORD97":2549370.79,"ADDRESS":"怡安路二段５４５巷１６號八樓","OBJECTID":242310},"geometry":{"x":167503.32000000123,"y":2549370.7899999991}},{"attributes":{"ID":242315,"DIS_CODE":0,"TOWNNAME":"安南區","LI":"鳳凰里","LIN":"24鄰","STREET":"怡安路","SECT":"二段","MAREA":" ","LANE":"５４５巷","ALLEY":" ","HOUSE_NO":"１６號十一樓","E_COORD97":167503.32000000001,"N_COORD97":2549370.79,"ADDRESS":"怡安路二段５４５巷１６號十一樓","OBJECTID":242311},"geometry":{"x":167503.32000000123,"y":2549370.7899999991}},{"attributes":{"ID":242316,"DIS_CODE":0,"TOWNNAME":"安南區","LI":"鳳凰里","LIN":"24鄰","STREET":"怡安路","SECT":"二段","MAREA":" ","LANE":"５４５巷","ALLEY":" ","HOUSE_NO":"１６號十二樓","E_COORD97":167503.32000000001,"N_COORD97":2549370.79,"ADDRESS":"怡安路二段５４５巷１６號十二樓","OBJECTID":242312},"geometry":{"x":167503.32000000123,"y":2549370.7899999991}},{"attributes":{"ID":242317,"DIS_CODE":0,"TOWNNAME":"安南區","LI":"鳳凰里","LIN":"24鄰","STREET":"怡安路","SECT":"二段","MAREA":" ","LANE":"５４５巷","ALLEY":" ","HOUSE_NO":"１６號十三樓","E_COORD97":167503.32000000001,"N_COORD97":2549370.79,"ADDRESS":"怡安路二段５４５巷１６號十三樓","OBJECTID":242313},"geometry":{"x":167503.32000000123,"y":2549370.7899999991}},{"attributes":{"ID":242318,"DIS_CODE":0,"TOWNNAME":"安南區","LI":"鳳凰里","LIN":"24鄰","STREET":"怡安路","SECT":"二段","MAREA":" ","LANE":"５４５巷","ALLEY":" ","HOUSE_NO":"１６號十五樓","E_COORD97":167503.32000000001,"N_COORD97":2549370.79,"ADDRESS":"怡安路二段５４５巷１６號十五樓","OBJECTID":242314},"geometry":{"x":167503.32000000123,"y":2549370.7899999991}},{"attributes":{"ID":242319,"DIS_CODE":0,"TOWNNAME":"安南區","LI":"鳳凰里","LIN":"24鄰","STREET":"怡安路","SECT":"二段","MAREA":" ","LANE":"５４５巷","ALLEY":" ","HOUSE_NO":"１６號十六樓","E_COORD97":167503.32000000001,"N_COORD97":2549370.79,"ADDRESS":"怡安路二段５４５巷１６號十六樓","OBJECTID":242315},"geometry":{"x":167503.32000000123,"y":2549370.7899999991}},{"attributes":{"ID":242320,"DIS_CODE":0,"TOWNNAME":"北區","LI":"重興里","LIN":"19鄰","STREET":"林森路","SECT":"三段","MAREA":" ","LANE":"１４０巷","ALLEY":" ","HOUSE_NO":"３７號","E_COORD97":170679.31,"N_COORD97":2545039.8399999999,"ADDRESS":"林森路三段１４０巷３７號","OBJECTID":242316},"geometry":{"x":170679.31000000052,"y":2545039.8400000017}},{"attributes":{"ID":242321,"DIS_CODE":0,"TOWNNAME":"安南區","LI":"鳳凰里","LIN":"24鄰","STREET":"怡安路","SECT":"二段","MAREA":" ","LANE":"５４５巷","ALLEY":" ","HOUSE_NO":"１６號十四樓","E_COORD97":167503.32000000001,"N_COORD97":2549370.79,"ADDRESS":"怡安路二段５４５巷１６號十四樓","OBJECTID":242317},"geometry":{"x":167503.32000000123,"y":2549370.7899999991}},{"attributes":{"ID":242322,"DIS_CODE":0,"TOWNNAME":"安南區","LI":"鳳凰里","LIN":"24鄰","STREET":"怡安路","SECT":"二段","MAREA":" ","LANE":"５４５巷","ALLEY":" ","HOUSE_NO":"１６號十樓","E_COORD97":167503.32000000001,"N_COORD97":2549370.79,"ADDRESS":"怡安路二段５４５巷１６號十樓","OBJECTID":242318},"geometry":{"x":167503.32000000123,"y":2549370.7899999991}},{"attributes":{"ID":242323,"DIS_CODE":0,"TOWNNAME":"安南區","LI":"鳳凰里","LIN":"24鄰","STREET":"怡安路","SECT":"二段","MAREA":" ","LANE":"５４５巷","ALLEY":" ","HOUSE_NO":"１６號五樓","E_COORD97":167503.32000000001,"N_COORD97":2549370.79,"ADDRESS":"怡安路二段５４５巷１６號五樓","OBJECTID":242319},"geometry":{"x":167503.32000000123,"y":2549370.7899999991}},{"attributes":{"ID":242324,"DIS_CODE":0,"TOWNNAME":"東區","LI":"忠孝里","LIN":"14鄰","STREET":"榮譽街","SECT":" ","MAREA":" ","LANE":" ","ALLEY":" ","HOUSE_NO":"１１５號四樓之１","E_COORD97":169853.32999999999,"N_COORD97":2541756.6200000001,"ADDRESS":"榮譽街１１５號四樓之１","OBJECTID":242320},"geometry":{"x":169853.33000000007,"y":2541756.6200000048}},{"attributes":{"ID":242325,"DIS_CODE":0,"TOWNNAME":"東區","LI":"忠孝里","LIN":"14鄰","STREET":"榮譽街","SECT":" ","MAREA":" ","LANE":" ","ALLEY":" ","HOUSE_NO":"１１５號五樓","E_COORD97":169853.32999999999,"N_COORD97":2541756.6200000001,"ADDRESS":"榮譽街１１５號五樓","OBJECTID":242321},"geometry":{"x":169853.33000000007,"y":2541756.6200000048}},{"attributes":{"ID":242326,"DIS_CODE":0,"TOWNNAME":"東區","LI":"忠孝里","LIN":"14鄰","STREET":"榮譽街","SECT":" ","MAREA":" ","LANE":" ","ALLEY":" ","HOUSE_NO":"１１５號五樓之１","E_COORD97":169853.32999999999,"N_COORD97":2541756.6200000001,"ADDRESS":"榮譽街１１５號五樓之１","OBJECTID":242322},"geometry":{"x":169853.33000000007,"y":2541756.6200000048}},{"attributes":{"ID":242327,"DIS_CODE":0,"TOWNNAME":"東區","LI":"忠孝里","LIN":"14鄰","STREET":"榮譽街","SECT":" ","MAREA":" ","LANE":" ","ALLEY":" ","HOUSE_NO":"１１５號六樓","E_COORD97":169853.32999999999,"N_COORD97":2541756.6200000001,"ADDRESS":"榮譽街１１５號六樓","OBJECTID":242323},"geometry":{"x":169853.33000000007,"y":2541756.6200000048}},{"attributes":{"ID":242328,"DIS_CODE":0,"TOWNNAME":"關廟區","LI":"埤頭里","LIN":"14鄰","STREET":"關新一街","SECT":" ","MAREA":" ","LANE":" ","ALLEY":" ","HOUSE_NO":"１８８號","E_COORD97":180951.32000000001,"N_COORD97":2543464.2999999998,"ADDRESS":"關新一街１８８號","OBJECTID":242324},"geometry":{"x":180951.32000000123,"y":2543464.3000000026}},{"attributes":{"ID":242329,"DIS_CODE":0,"TOWNNAME":"北區","LI":"元寶里","LIN":"16鄰","STREET":"北園街","SECT":" ","MAREA":" ","LANE":"８巷","ALLEY":" ","HOUSE_NO":"２６號十樓之１","E_COORD97":170485.51000000001,"N_COORD97":2545628.0899999999,"ADDRESS":"北園街８巷２６號十樓之１","OBJECTID":242325},"geometry":{"x":170485.50999999978,"y":2545628.0900000017}},{"attributes":{"ID":242330,"DIS_CODE":0,"TOWNNAME":"北區","LI":"元寶里","LIN":"16鄰","STREET":"北園街","SECT":" ","MAREA":" ","LANE":"８巷","ALLEY":" ","HOUSE_NO":"２６號十樓之２","E_COORD97":170485.51000000001,"N_COORD97":2545628.0899999999,"ADDRESS":"北園街８巷２６號十樓之２","OBJECTID":242326},"geometry":{"x":170485.50999999978,"y":2545628.0900000017}},{"attributes":{"ID":242331,"DIS_CODE":0,"TOWNNAME":"安南區","LI":"四草里","LIN":"8鄰","STREET":"四草大道","SECT":" ","MAREA":" ","LANE":"８１巷","ALLEY":" ","HOUSE_NO":"２６０號","E_COORD97":161120.34258200001,"N_COORD97":2544924.3206600002,"ADDRESS":"四草大道８１巷２６０號","OBJECTID":242327},"geometry":{"x":161120.34258200228,"y":2544924.3206569981}},{"attributes":{"ID":242332,"DIS_CODE":0,"TOWNNAME":"北區","LI":"元寶里","LIN":"16鄰","STREET":"北園街","SECT":" ","MAREA":" ","LANE":"８巷","ALLEY":" ","HOUSE_NO":"２６號十樓之３","E_COORD97":170485.51000000001,"N_COORD97":2545628.0899999999,"ADDRESS":"北園街８巷２６號十樓之３","OBJECTID":242328},"geometry":{"x":170485.50999999978,"y":2545628.0900000017}},{"attributes":{"ID":242333,"DIS_CODE":0,"TOWNNAME":"善化區","LI":"胡厝里","LIN":"6鄰","STREET":" ","SECT":" ","MAREA":"胡厝寮","LANE":" ","ALLEY":" ","HOUSE_NO":"１９７號","E_COORD97":175231.20999999999,"N_COORD97":2560462.25,"ADDRESS":"胡厝寮１９７號","OBJECTID":242329},"geometry":{"x":175231.20999999996,"y":2560462.2499999981}},{"attributes":{"ID":242334,"DIS_CODE":0,"TOWNNAME":"安南區","LI":"鳳凰里","LIN":"24鄰","STREET":"怡安路","SECT":"二段","MAREA":" ","LANE":"５４５巷","ALLEY":" ","HOUSE_NO":"１６號六樓","E_COORD97":167503.32000000001,"N_COORD97":2549370.79,"ADDRESS":"怡安路二段５４５巷１６號六樓","OBJECTID":242330},"geometry":{"x":167503.32000000123,"y":2549370.7899999991}},{"attributes":{"ID":242335,"DIS_CODE":0,"TOWNNAME":"安南區","LI":"鳳凰里","LIN":"24鄰","STREET":"怡安路","SECT":"二段","MAREA":" ","LANE":"５４５巷","ALLEY":" ","HOUSE_NO":"１６號四樓","E_COORD97":167503.32000000001,"N_COORD97":2549370.79,"ADDRESS":"怡安路二段５４５巷１６號四樓","OBJECTID":242331},"geometry":{"x":167503.32000000123,"y":2549370.7899999991}},{"attributes":{"ID":242336,"DIS_CODE":0,"TOWNNAME":"安南區","LI":"鳳凰里","LIN":"24鄰","STREET":"怡安路","SECT":"二段","MAREA":" ","LANE":"５４５巷","ALLEY":" ","HOUSE_NO":"１８號七樓","E_COORD97":167498.17000000001,"N_COORD97":2549364.8300000001,"ADDRESS":"怡安路二段５４５巷１８號七樓","OBJECTID":242332},"geometry":{"x":167498.16999999993,"y":2549364.8300000001}},{"attributes":{"ID":242337,"DIS_CODE":0,"TOWNNAME":"安南區","LI":"鳳凰里","LIN":"24鄰","STREET":"怡安路","SECT":"二段","MAREA":" ","LANE":"５４５巷","ALLEY":" ","HOUSE_NO":"１８號九樓","E_COORD97":167498.17000000001,"N_COORD97":2549364.8300000001,"ADDRESS":"怡安路二段５４５巷１８號九樓","OBJECTID":242333},"geometry":{"x":167498.16999999993,"y":2549364.8300000001}},{"attributes":{"ID":242338,"DIS_CODE":0,"TOWNNAME":"東區","LI":"忠孝里","LIN":"14鄰","STREET":"榮譽街","SECT":" ","MAREA":" ","LANE":" ","ALLEY":" ","HOUSE_NO":"１１５號六樓之１","E_COORD97":169853.32999999999,"N_COORD97":2541756.6200000001,"ADDRESS":"榮譽街１１５號六樓之１","OBJECTID":242334},"geometry":{"x":169853.33000000007,"y":2541756.6200000048}},{"attributes":{"ID":242339,"DIS_CODE":0,"TOWNNAME":"東區","LI":"忠孝里","LIN":"14鄰","STREET":"榮譽街","SECT":" ","MAREA":" ","LANE":" ","ALLEY":" ","HOUSE_NO":"１１５號七樓","E_COORD97":169853.32999999999,"N_COORD97":2541756.6200000001,"ADDRESS":"榮譽街１１５號七樓","OBJECTID":242335},"geometry":{"x":169853.33000000007,"y":2541756.6200000048}},{"attributes":{"ID":242340,"DIS_CODE":0,"TOWNNAME":"東區","LI":"忠孝里","LIN":"14鄰","STREET":"榮譽街","SECT":" ","MAREA":" ","LANE":" ","ALLEY":" ","HOUSE_NO":"１１５號七樓之１","E_COORD97":169853.32999999999,"N_COORD97":2541756.6200000001,"ADDRESS":"榮譽街１１５號七樓之１","OBJECTID":242336},"geometry":{"x":169853.33000000007,"y":2541756.6200000048}},{"attributes":{"ID":242341,"DIS_CODE":0,"TOWNNAME":"安南區","LI":"鳳凰里","LIN":"24鄰","STREET":"怡安路","SECT":"二段","MAREA":" ","LANE":"５４５巷","ALLEY":" ","HOUSE_NO":"１８號八樓","E_COORD97":167498.17000000001,"N_COORD97":2549364.8300000001,"ADDRESS":"怡安路二段５４５巷１８號八樓","OBJECTID":242337},"geometry":{"x":167498.16999999993,"y":2549364.8300000001}},{"attributes":{"ID":242342,"DIS_CODE":0,"TOWNNAME":"安南區","LI":"鳳凰里","LIN":"24鄰","STREET":"怡安路","SECT":"二段","MAREA":" ","LANE":"５４５巷","ALLEY":" ","HOUSE_NO":"１８號十一樓","E_COORD97":167498.17000000001,"N_COORD97":2549364.8300000001,"ADDRESS":"怡安路二段５４５巷１８號十一樓","OBJECTID":242338},"geometry":{"x":167498.16999999993,"y":2549364.8300000001}},{"attributes":{"ID":242343,"DIS_CODE":0,"TOWNNAME":"安南區","LI":"鳳凰里","LIN":"24鄰","STREET":"怡安路","SECT":"二段","MAREA":" ","LANE":"５４５巷","ALLEY":" ","HOUSE_NO":"１８號十二樓","E_COORD97":167498.17000000001,"N_COORD97":2549364.8300000001,"ADDRESS":"怡安路二段５４５巷１８號十二樓","OBJECTID":242339},"geometry":{"x":167498.16999999993,"y":2549364.8300000001}},{"attributes":{"ID":242344,"DIS_CODE":0,"TOWNNAME":"安南區","LI":"鳳凰里","LIN":"24鄰","STREET":"怡安路","SECT":"二段","MAREA":" ","LANE":"５４５巷","ALLEY":" ","HOUSE_NO":"１８號十三樓","E_COORD97":167498.17000000001,"N_COORD97":2549364.8300000001,"ADDRESS":"怡安路二段５４５巷１８號十三樓","OBJECTID":242340},"geometry":{"x":167498.16999999993,"y":2549364.8300000001}},{"attributes":{"ID":242345,"DIS_CODE":0,"TOWNNAME":"安南區","LI":"鳳凰里","LIN":"24鄰","STREET":"怡安路","SECT":"二段","MAREA":" ","LANE":"５４５巷","ALLEY":" ","HOUSE_NO":"１８號十五樓","E_COORD97":167498.17000000001,"N_COORD97":2549364.8300000001,"ADDRESS":"怡安路二段５４５巷１８號十五樓","OBJECTID":242341},"geometry":{"x":167498.16999999993,"y":2549364.8300000001}},{"attributes":{"ID":242346,"DIS_CODE":0,"TOWNNAME":"安南區","LI":"鳳凰里","LIN":"24鄰","STREET":"怡安路","SECT":"二段","MAREA":" ","LANE":"５４５巷","ALLEY":" ","HOUSE_NO":"１８號十六樓","E_COORD97":167498.17000000001,"N_COORD97":2549364.8300000001,"ADDRESS":"怡安路二段５４５巷１８號十六樓","OBJECTID":242342},"geometry":{"x":167498.16999999993,"y":2549364.8300000001}},{"attributes":{"ID":242347,"DIS_CODE":0,"TOWNNAME":"安南區","LI":"鳳凰里","LIN":"24鄰","STREET":"怡安路","SECT":"二段","MAREA":" ","LANE":"５４５巷","ALLEY":" ","HOUSE_NO":"１８號十四樓","E_COORD97":167498.17000000001,"N_COORD97":2549364.8300000001,"ADDRESS":"怡安路二段５４５巷１８號十四樓","OBJECTID":242343},"geometry":{"x":167498.16999999993,"y":2549364.8300000001}},{"attributes":{"ID":242348,"DIS_CODE":0,"TOWNNAME":"安南區","LI":"鳳凰里","LIN":"24鄰","STREET":"怡安路","SECT":"二段","MAREA":" ","LANE":"５４５巷","ALLEY":" ","HOUSE_NO":"１８號十樓","E_COORD97":167498.17000000001,"N_COORD97":2549364.8300000001,"ADDRESS":"怡安路二段５４５巷１８號十樓","OBJECTID":242344},"geometry":{"x":167498.16999999993,"y":2549364.8300000001}},{"attributes":{"ID":242349,"DIS_CODE":0,"TOWNNAME":"安南區","LI":"鳳凰里","LIN":"24鄰","STREET":"怡安路","SECT":"二段","MAREA":" ","LANE":"５４５巷","ALLEY":" ","HOUSE_NO":"１８號五樓","E_COORD97":167498.17000000001,"N_COORD97":2549364.8300000001,"ADDRESS":"怡安路二段５４５巷１８號五樓","OBJECTID":242345},"geometry":{"x":167498.16999999993,"y":2549364.8300000001}},{"attributes":{"ID":242350,"DIS_CODE":0,"TOWNNAME":"安南區","LI":"鳳凰里","LIN":"24鄰","STREET":"怡安路","SECT":"二段","MAREA":" ","LANE":"５４５巷","ALLEY":" ","HOUSE_NO":"１８號六樓","E_COORD97":167498.17000000001,"N_COORD97":2549364.8300000001,"ADDRESS":"怡安路二段５４５巷１８號六樓","OBJECTID":242346},"geometry":{"x":167498.16999999993,"y":2549364.8300000001}},{"attributes":{"ID":242351,"DIS_CODE":0,"TOWNNAME":"安南區","LI":"鳳凰里","LIN":"24鄰","STREET":"怡安路","SECT":"二段","MAREA":" ","LANE":"５４５巷","ALLEY":" ","HOUSE_NO":"１８號四樓","E_COORD97":167498.17000000001,"N_COORD97":2549364.8300000001,"ADDRESS":"怡安路二段５４５巷１８號四樓","OBJECTID":242347},"geometry":{"x":167498.16999999993,"y":2549364.8300000001}},{"attributes":{"ID":242352,"DIS_CODE":0,"TOWNNAME":"安南區","LI":"鳳凰里","LIN":"24鄰","STREET":"怡安路","SECT":"二段","MAREA":" ","LANE":"５４５巷","ALLEY":" ","HOUSE_NO":"８號九樓","E_COORD97":167508.26000000001,"N_COORD97":2549383.3399999999,"ADDRESS":"怡安路二段５４５巷８號九樓","OBJECTID":242348},"geometry":{"x":167508.26000000071,"y":2549383.3400000017}},{"attributes":{"ID":242353,"DIS_CODE":0,"TOWNNAME":"安南區","LI":"鳳凰里","LIN":"24鄰","STREET":"怡安路","SECT":"二段","MAREA":" ","LANE":"５４５巷","ALLEY":" ","HOUSE_NO":"８號八樓","E_COORD97":167508.26000000001,"N_COORD97":2549383.3399999999,"ADDRESS":"怡安路二段５４５巷８號八樓","OBJECTID":242349},"geometry":{"x":167508.26000000071,"y":2549383.3400000017}},{"attributes":{"ID":242354,"DIS_CODE":0,"TOWNNAME":"安南區","LI":"鳳凰里","LIN":"24鄰","STREET":"怡安路","SECT":"二段","MAREA":" ","LANE":"５４５巷","ALLEY":" ","HOUSE_NO":"８號十一樓","E_COORD97":167508.26000000001,"N_COORD97":2549383.3399999999,"ADDRESS":"怡安路二段５４５巷８號十一樓","OBJECTID":242350},"geometry":{"x":167508.26000000071,"y":2549383.3400000017}},{"attributes":{"ID":242355,"DIS_CODE":0,"TOWNNAME":"安南區","LI":"鳳凰里","LIN":"24鄰","STREET":"怡安路","SECT":"二段","MAREA":" ","LANE":"５４５巷","ALLEY":" ","HOUSE_NO":"８號十二樓","E_COORD97":167508.26000000001,"N_COORD97":2549383.3399999999,"ADDRESS":"怡安路二段５４５巷８號十二樓","OBJECTID":242351},"geometry":{"x":167508.26000000071,"y":2549383.3400000017}},{"attributes":{"ID":242356,"DIS_CODE":0,"TOWNNAME":"安南區","LI":"鳳凰里","LIN":"24鄰","STREET":"怡安路","SECT":"二段","MAREA":" ","LANE":"５４５巷","ALLEY":" ","HOUSE_NO":"８號十五樓","E_COORD97":167508.26000000001,"N_COORD97":2549383.3399999999,"ADDRESS":"怡安路二段５４５巷８號十五樓","OBJECTID":242352},"geometry":{"x":167508.26000000071,"y":2549383.3400000017}},{"attributes":{"ID":242357,"DIS_CODE":0,"TOWNNAME":"安南區","LI":"鳳凰里","LIN":"24鄰","STREET":"怡安路","SECT":"二段","MAREA":" ","LANE":"５４５巷","ALLEY":" ","HOUSE_NO":"８號十六樓","E_COORD97":167508.26000000001,"N_COORD97":2549383.3399999999,"ADDRESS":"怡安路二段５４５巷８號十六樓","OBJECTID":242353},"geometry":{"x":167508.26000000071,"y":2549383.3400000017}},{"attributes":{"ID":242358,"DIS_CODE":0,"TOWNNAME":"安南區","LI":"鳳凰里","LIN":"24鄰","STREET":"怡安路","SECT":"二段","MAREA":" ","LANE":"５４５巷","ALLEY":" ","HOUSE_NO":"８號十四樓","E_COORD97":167508.26000000001,"N_COORD97":2549383.3399999999,"ADDRESS":"怡安路二段５４５巷８號十四樓","OBJECTID":242354},"geometry":{"x":167508.26000000071,"y":2549383.3400000017}},{"attributes":{"ID":242359,"DIS_CODE":0,"TOWNNAME":"安南區","LI":"鳳凰里","LIN":"24鄰","STREET":"怡安路","SECT":"二段","MAREA":" ","LANE":"５４５巷","ALLEY":" ","HOUSE_NO":"８號十樓","E_COORD97":167508.26000000001,"N_COORD97":2549383.3399999999,"ADDRESS":"怡安路二段５４５巷８號十樓","OBJECTID":242355},"geometry":{"x":167508.26000000071,"y":2549383.3400000017}},{"attributes":{"ID":242360,"DIS_CODE":0,"TOWNNAME":"安南區","LI":"鳳凰里","LIN":"24鄰","STREET":"怡安路","SECT":"二段","MAREA":" ","LANE":"５４５巷","ALLEY":" ","HOUSE_NO":"８號五樓","E_COORD97":167508.26000000001,"N_COORD97":2549383.3399999999,"ADDRESS":"怡安路二段５４５巷８號五樓","OBJECTID":242356},"geometry":{"x":167508.26000000071,"y":2549383.3400000017}},{"attributes":{"ID":242361,"DIS_CODE":0,"TOWNNAME":"北區","LI":"重興里","LIN":"20鄰","STREET":"林森路","SECT":"三段","MAREA":" ","LANE":"１４０巷","ALLEY":" ","HOUSE_NO":"５３號","E_COORD97":170643.47,"N_COORD97":2544975.0800000001,"ADDRESS":"林森路三段１４０巷５３號","OBJECTID":242357},"geometry":{"x":170643.46999999974,"y":2544975.0800000001}},{"attributes":{"ID":242362,"DIS_CODE":0,"TOWNNAME":"北區","LI":"重興里","LIN":"20鄰","STREET":"林森路","SECT":"三段","MAREA":" ","LANE":"１４０巷","ALLEY":" ","HOUSE_NO":"５５號","E_COORD97":170654.87,"N_COORD97":2544970.1099999999,"ADDRESS":"林森路三段１４０巷５５號","OBJECTID":242358},"geometry":{"x":170654.87000000011,"y":2544970.1100000013}},{"attributes":{"ID":242363,"DIS_CODE":0,"TOWNNAME":"安南區","LI":"鳳凰里","LIN":"24鄰","STREET":"怡安路","SECT":"二段","MAREA":" ","LANE":"５４５巷","ALLEY":" ","HOUSE_NO":"８號六樓","E_COORD97":167508.26000000001,"N_COORD97":2549383.3399999999,"ADDRESS":"怡安路二段５４５巷８號六樓","OBJECTID":242359},"geometry":{"x":167508.26000000071,"y":2549383.3400000017}},{"attributes":{"ID":242364,"DIS_CODE":0,"TOWNNAME":"安南區","LI":"鳳凰里","LIN":"24鄰","STREET":"怡安路","SECT":"二段","MAREA":" ","LANE":"５４５巷","ALLEY":" ","HOUSE_NO":"８號四樓","E_COORD97":167508.26000000001,"N_COORD97":2549383.3399999999,"ADDRESS":"怡安路二段５４５巷８號四樓","OBJECTID":242360},"geometry":{"x":167508.26000000071,"y":2549383.3400000017}},{"attributes":{"ID":242365,"DIS_CODE":0,"TOWNNAME":"永康區","LI":"埔園里","LIN":"24鄰","STREET":"中正路","SECT":" ","MAREA":" ","LANE":"１４８巷","ALLEY":" ","HOUSE_NO":"２號之６三樓","E_COORD97":173554.22,"N_COORD97":2547916.8900000001,"ADDRESS":"中正路１４８巷２號之６三樓","OBJECTID":242361},"geometry":{"x":173554.21999999974,"y":2547916.8900000006}},{"attributes":{"ID":242366,"DIS_CODE":0,"TOWNNAME":"關廟區","LI":"五甲里","LIN":"14鄰","STREET":"光復街","SECT":" ","MAREA":" ","LANE":" ","ALLEY":" ","HOUSE_NO":"２９號","E_COORD97":181429.39000000001,"N_COORD97":2539207.2799999998,"ADDRESS":"光復街２９號","OBJECTID":242362},"geometry":{"x":181429.39000000153,"y":2539207.2800000031}},{"attributes":{"ID":242367,"DIS_CODE":0,"TOWNNAME":"善化區","LI":"嘉南里","LIN":"5鄰","STREET":" ","SECT":" ","MAREA":"茄拔","LANE":" ","ALLEY":" ","HOUSE_NO":"９７號","E_COORD97":180957.92999999999,"N_COORD97":2559529.0099999998,"ADDRESS":"茄拔９７號","OBJECTID":242363},"geometry":{"x":180957.93000000156,"y":2559529.0100000016}},{"attributes":{"ID":242368,"DIS_CODE":0,"TOWNNAME":"永康區","LI":"安康里","LIN":"24鄰","STREET":"中華路","SECT":" ","MAREA":" ","LANE":"７０３巷","ALLEY":" ","HOUSE_NO":"５０號三樓","E_COORD97":170772.51999999999,"N_COORD97":2546271,"ADDRESS":"中華路７０３巷５０號三樓","OBJECTID":242364},"geometry":{"x":170772.52000000142,"y":2546271}},{"attributes":{"ID":242369,"DIS_CODE":0,"TOWNNAME":"永康區","LI":"安康里","LIN":"24鄰","STREET":"中華路","SECT":" ","MAREA":" ","LANE":"７０３巷","ALLEY":" ","HOUSE_NO":"６４號三樓之２","E_COORD97":170755.51000000001,"N_COORD97":2546246.7999999998,"ADDRESS":"中華路７０３巷６４號三樓之２","OBJECTID":242365},"geometry":{"x":170755.50999999978,"y":2546246.8000000007}},{"attributes":{"ID":242370,"DIS_CODE":0,"TOWNNAME":"永康區","LI":"西灣里","LIN":"24鄰","STREET":"國光八街","SECT":" ","MAREA":" ","LANE":"１１巷","ALLEY":" ","HOUSE_NO":"１號七樓","E_COORD97":174420.84,"N_COORD97":2545732.5,"ADDRESS":"國光八街１１巷１號七樓","OBJECTID":242366},"geometry":{"x":174420.84000000078,"y":2545732.5}},{"attributes":{"ID":242371,"DIS_CODE":0,"TOWNNAME":"北區","LI":"重興里","LIN":"19鄰","STREET":"林森路","SECT":"三段","MAREA":" ","LANE":"１４０巷","ALLEY":" ","HOUSE_NO":"５１號","E_COORD97":170715.48000000001,"N_COORD97":2545010.6800000002,"ADDRESS":"林森路三段１４０巷５１號","OBJECTID":242367},"geometry":{"x":170715.48000000045,"y":2545010.6800000016}},{"attributes":{"ID":242372,"DIS_CODE":0,"TOWNNAME":"北區","LI":"裕民里","LIN":"2鄰","STREET":"康樂街","SECT":" ","MAREA":" ","LANE":"４３５巷","ALLEY":" ","HOUSE_NO":"４號","E_COORD97":167730.84,"N_COORD97":2544673.02,"ADDRESS":"康樂街４３５巷４號","OBJECTID":242368},"geometry":{"x":167730.83999999985,"y":2544673.0199999996}},{"attributes":{"ID":242373,"DIS_CODE":0,"TOWNNAME":"北區","LI":"重興里","LIN":"20鄰","STREET":"林森路","SECT":"三段","MAREA":" ","LANE":"１４０巷","ALLEY":" ","HOUSE_NO":"５７號","E_COORD97":170643.10000000001,"N_COORD97":2544956.3900000001,"ADDRESS":"林森路三段１４０巷５７號","OBJECTID":242369},"geometry":{"x":170643.10000000149,"y":2544956.3900000006}},{"attributes":{"ID":242374,"DIS_CODE":0,"TOWNNAME":"北區","LI":"重興里","LIN":"20鄰","STREET":"林森路","SECT":"三段","MAREA":" ","LANE":"１４０巷","ALLEY":" ","HOUSE_NO":"５９號","E_COORD97":170634.54999999999,"N_COORD97":2544963.6200000001,"ADDRESS":"林森路三段１４０巷５９號","OBJECTID":242370},"geometry":{"x":170634.54999999981,"y":2544963.6200000048}},{"attributes":{"ID":242375,"DIS_CODE":0,"TOWNNAME":"永康區","LI":"西灣里","LIN":"24鄰","STREET":"國光八街","SECT":" ","MAREA":" ","LANE":"１１巷","ALLEY":" ","HOUSE_NO":"１１號四樓","E_COORD97":174414,"N_COORD97":2545703.5099999998,"ADDRESS":"國光八街１１巷１１號四樓","OBJECTID":242371},"geometry":{"x":174414,"y":2545703.5100000016}},{"attributes":{"ID":242376,"DIS_CODE":0,"TOWNNAME":"永康區","LI":"西灣里","LIN":"24鄰","STREET":"國光八街","SECT":" ","MAREA":" ","LANE":"１１巷","ALLEY":" ","HOUSE_NO":"５號七樓","E_COORD97":174417.54000000001,"N_COORD97":2545720.2599999998,"ADDRESS":"國光八街１１巷５號七樓","OBJECTID":242372},"geometry":{"x":174417.5400000019,"y":2545720.2599999998}},{"attributes":{"ID":242377,"DIS_CODE":0,"TOWNNAME":"永康區","LI":"西灣里","LIN":"24鄰","STREET":"國光八街","SECT":" ","MAREA":" ","LANE":"１１巷","ALLEY":" ","HOUSE_NO":"５號三樓","E_COORD97":174417.54000000001,"N_COORD97":2545720.2599999998,"ADDRESS":"國光八街１１巷５號三樓","OBJECTID":242373},"geometry":{"x":174417.5400000019,"y":2545720.2599999998}},{"attributes":{"ID":242378,"DIS_CODE":0,"TOWNNAME":"永康區","LI":"西灣里","LIN":"24鄰","STREET":"國光八街","SECT":" ","MAREA":" ","LANE":"１１巷","ALLEY":" ","HOUSE_NO":"３號三樓","E_COORD97":174419.70000000001,"N_COORD97":2545728.0099999998,"ADDRESS":"國光八街１１巷３號三樓","OBJECTID":242374},"geometry":{"x":174419.70000000019,"y":2545728.0099999998}},{"attributes":{"ID":242379,"DIS_CODE":0,"TOWNNAME":"永康區","LI":"西灣里","LIN":"24鄰","STREET":"國光八街","SECT":" ","MAREA":" ","LANE":"１１巷","ALLEY":" ","HOUSE_NO":"１號三樓","E_COORD97":174420.84,"N_COORD97":2545732.5,"ADDRESS":"國光八街１１巷１號三樓","OBJECTID":242375},"geometry":{"x":174420.84000000078,"y":2545732.5}},{"attributes":{"ID":242380,"DIS_CODE":0,"TOWNNAME":"永康區","LI":"西灣里","LIN":"24鄰","STREET":"國光八街","SECT":" ","MAREA":" ","LANE":"１１巷","ALLEY":" ","HOUSE_NO":"９號六樓","E_COORD97":174414.13,"N_COORD97":2545708.0099999998,"ADDRESS":"國光八街１１巷９號六樓","OBJECTID":242376},"geometry":{"x":174414.13000000082,"y":2545708.0099999998}},{"attributes":{"ID":242381,"DIS_CODE":0,"TOWNNAME":"永康區","LI":"西灣里","LIN":"24鄰","STREET":"國光八街","SECT":" ","MAREA":" ","LANE":"１１巷","ALLEY":" ","HOUSE_NO":"９號三樓","E_COORD97":174414.13,"N_COORD97":2545708.0099999998,"ADDRESS":"國光八街１１巷９號三樓","OBJECTID":242377},"geometry":{"x":174414.13000000082,"y":2545708.0099999998}},{"attributes":{"ID":242382,"DIS_CODE":0,"TOWNNAME":"永康區","LI":"西灣里","LIN":"24鄰","STREET":"國光八街","SECT":" ","MAREA":" ","LANE":"１１巷","ALLEY":" ","HOUSE_NO":"１１號七樓","E_COORD97":174414,"N_COORD97":2545703.5099999998,"ADDRESS":"國光八街１１巷１１號七樓","OBJECTID":242378},"geometry":{"x":174414,"y":2545703.5100000016}},{"attributes":{"ID":242383,"DIS_CODE":0,"TOWNNAME":"永康區","LI":"西灣里","LIN":"24鄰","STREET":"國光八街","SECT":" ","MAREA":" ","LANE":"１１巷","ALLEY":" ","HOUSE_NO":"１號四樓","E_COORD97":174420.84,"N_COORD97":2545732.5,"ADDRESS":"國光八街１１巷１號四樓","OBJECTID":242379},"geometry":{"x":174420.84000000078,"y":2545732.5}},{"attributes":{"ID":242384,"DIS_CODE":0,"TOWNNAME":"永康區","LI":"西灣里","LIN":"24鄰","STREET":"國光八街","SECT":" ","MAREA":" ","LANE":"１１巷","ALLEY":" ","HOUSE_NO":"９號五樓","E_COORD97":174414.13,"N_COORD97":2545708.0099999998,"ADDRESS":"國光八街１１巷９號五樓","OBJECTID":242380},"geometry":{"x":174414.13000000082,"y":2545708.0099999998}},{"attributes":{"ID":242385,"DIS_CODE":0,"TOWNNAME":"永康區","LI":"西灣里","LIN":"24鄰","STREET":"國光八街","SECT":" ","MAREA":" ","LANE":"１１巷","ALLEY":" ","HOUSE_NO":"３號五樓","E_COORD97":174419.70000000001,"N_COORD97":2545728.0099999998,"ADDRESS":"國光八街１１巷３號五樓","OBJECTID":242381},"geometry":{"x":174419.70000000019,"y":2545728.0099999998}},{"attributes":{"ID":242386,"DIS_CODE":0,"TOWNNAME":"北區","LI":"重興里","LIN":"17鄰","STREET":"林森路","SECT":"三段","MAREA":" ","LANE":"１４０巷","ALLEY":" ","HOUSE_NO":"５號","E_COORD97":170603.01000000001,"N_COORD97":2544978.8399999999,"ADDRESS":"林森路三段１４０巷５號","OBJECTID":242382},"geometry":{"x":170603.00999999978,"y":2544978.8400000017}},{"attributes":{"ID":242387,"DIS_CODE":0,"TOWNNAME":"北區","LI":"重興里","LIN":"17鄰","STREET":"林森路","SECT":"三段","MAREA":" ","LANE":"１４０巷","ALLEY":" ","HOUSE_NO":"７號","E_COORD97":170596.5,"N_COORD97":2544984.1699999999,"ADDRESS":"林森路三段１４０巷７號","OBJECTID":242383},"geometry":{"x":170596.5,"y":2544984.1700000018}},{"attributes":{"ID":242388,"DIS_CODE":0,"TOWNNAME":"永康區","LI":"西灣里","LIN":"24鄰","STREET":"國光八街","SECT":" ","MAREA":" ","LANE":"１１巷","ALLEY":" ","HOUSE_NO":"３號六樓","E_COORD97":174419.70000000001,"N_COORD97":2545728.0099999998,"ADDRESS":"國光八街１１巷３號六樓","OBJECTID":242384},"geometry":{"x":174419.70000000019,"y":2545728.0099999998}},{"attributes":{"ID":242389,"DIS_CODE":0,"TOWNNAME":"永康區","LI":"西灣里","LIN":"24鄰","STREET":"國光八街","SECT":" ","MAREA":" ","LANE":"１１巷","ALLEY":" ","HOUSE_NO":"１１號六樓","E_COORD97":174414,"N_COORD97":2545703.5099999998,"ADDRESS":"國光八街１１巷１１號六樓","OBJECTID":242385},"geometry":{"x":174414,"y":2545703.5100000016}},{"attributes":{"ID":242390,"DIS_CODE":0,"TOWNNAME":"永康區","LI":"西灣里","LIN":"24鄰","STREET":"國光八街","SECT":" ","MAREA":" ","LANE":"１１巷","ALLEY":" ","HOUSE_NO":"３號四樓","E_COORD97":174419.70000000001,"N_COORD97":2545728.0099999998,"ADDRESS":"國光八街１１巷３號四樓","OBJECTID":242386},"geometry":{"x":174419.70000000019,"y":2545728.0099999998}},{"attributes":{"ID":242391,"DIS_CODE":0,"TOWNNAME":"永康區","LI":"西灣里","LIN":"24鄰","STREET":"國光八街","SECT":" ","MAREA":" ","LANE":"１１巷","ALLEY":" ","HOUSE_NO":"３號七樓","E_COORD97":174419.70000000001,"N_COORD97":2545728.0099999998,"ADDRESS":"國光八街１１巷３號七樓","OBJECTID":242387},"geometry":{"x":174419.70000000019,"y":2545728.0099999998}},{"attributes":{"ID":242392,"DIS_CODE":0,"TOWNNAME":"永康區","LI":"西灣里","LIN":"24鄰","STREET":"國光八街","SECT":" ","MAREA":" ","LANE":"１１巷","ALLEY":" ","HOUSE_NO":"５號四樓","E_COORD97":174417.54000000001,"N_COORD97":2545720.2599999998,"ADDRESS":"國光八街１１巷５號四樓","OBJECTID":242388},"geometry":{"x":174417.5400000019,"y":2545720.2599999998}},{"attributes":{"ID":242393,"DIS_CODE":0,"TOWNNAME":"永康區","LI":"安康里","LIN":"24鄰","STREET":"中華路","SECT":" ","MAREA":" ","LANE":"７０３巷","ALLEY":" ","HOUSE_NO":"４８號三樓之２","E_COORD97":170778.73000000001,"N_COORD97":2546259.54,"ADDRESS":"中華路７０３巷４８號三樓之２","OBJECTID":242389},"geometry":{"x":170778.73000000231,"y":2546259.5399999991}},{"attributes":{"ID":242394,"DIS_CODE":0,"TOWNNAME":"永康區","LI":"安康里","LIN":"24鄰","STREET":"中華路","SECT":" ","MAREA":" ","LANE":"７０３巷","ALLEY":" ","HOUSE_NO":"４８號六樓之１","E_COORD97":170778.60000000001,"N_COORD97":2546259.54,"ADDRESS":"中華路７０３巷４８號六樓之１","OBJECTID":242390},"geometry":{"x":170778.59999999963,"y":2546259.5399999991}},{"attributes":{"ID":242395,"DIS_CODE":0,"TOWNNAME":"關廟區","LI":"五甲里","LIN":"14鄰","STREET":"光復街","SECT":" ","MAREA":" ","LANE":" ","ALLEY":" ","HOUSE_NO":"２３號","E_COORD97":181418.98999999999,"N_COORD97":2539192.2799999998,"ADDRESS":"光復街２３號","OBJECTID":242391},"geometry":{"x":181418.99000000022,"y":2539192.2799999993}},{"attributes":{"ID":242396,"DIS_CODE":0,"TOWNNAME":"永康區","LI":"安康里","LIN":"24鄰","STREET":"中華路","SECT":" ","MAREA":" ","LANE":"７０３巷","ALLEY":" ","HOUSE_NO":"４８號三樓之１","E_COORD97":170778.60000000001,"N_COORD97":2546259.54,"ADDRESS":"中華路７０３巷４８號三樓之１","OBJECTID":242392},"geometry":{"x":170778.59999999963,"y":2546259.5399999991}},{"attributes":{"ID":242397,"DIS_CODE":0,"TOWNNAME":"永康區","LI":"安康里","LIN":"24鄰","STREET":"中華路","SECT":" ","MAREA":" ","LANE":"７０３巷","ALLEY":" ","HOUSE_NO":"４８號五樓之１","E_COORD97":170778.60000000001,"N_COORD97":2546259.54,"ADDRESS":"中華路７０３巷４８號五樓之１","OBJECTID":242393},"geometry":{"x":170778.59999999963,"y":2546259.5399999991}},{"attributes":{"ID":242398,"DIS_CODE":0,"TOWNNAME":"永康區","LI":"安康里","LIN":"24鄰","STREET":"中華路","SECT":" ","MAREA":" ","LANE":"７０３巷","ALLEY":" ","HOUSE_NO":"５０號二樓","E_COORD97":170772.51999999999,"N_COORD97":2546271,"ADDRESS":"中華路７０３巷５０號二樓","OBJECTID":242394},"geometry":{"x":170772.52000000142,"y":2546271}},{"attributes":{"ID":242399,"DIS_CODE":0,"TOWNNAME":"永康區","LI":"安康里","LIN":"24鄰","STREET":"中華路","SECT":" ","MAREA":" ","LANE":"７０３巷","ALLEY":" ","HOUSE_NO":"４８號五樓之２","E_COORD97":170778.73000000001,"N_COORD97":2546259.54,"ADDRESS":"中華路７０３巷４８號五樓之２","OBJECTID":242395},"geometry":{"x":170778.73000000231,"y":2546259.5399999991}},{"attributes":{"ID":242400,"DIS_CODE":0,"TOWNNAME":"永康區","LI":"安康里","LIN":"24鄰","STREET":"中華路","SECT":" ","MAREA":" ","LANE":"７０３巷","ALLEY":" ","HOUSE_NO":"５０號六樓","E_COORD97":170772.51999999999,"N_COORD97":2546271,"ADDRESS":"中華路７０３巷５０號六樓","OBJECTID":242396},"geometry":{"x":170772.52000000142,"y":2546271}},{"attributes":{"ID":242401,"DIS_CODE":0,"TOWNNAME":"北區","LI":"振興里","LIN":"4鄰","STREET":"開元路","SECT":" ","MAREA":" ","LANE":"１６６巷","ALLEY":" ","HOUSE_NO":"２１號","E_COORD97":170105.76999999999,"N_COORD97":2545262.6299999999,"ADDRESS":"開元路１６６巷２１號","OBJECTID":242397},"geometry":{"x":170105.76999999955,"y":2545262.629999999}},{"attributes":{"ID":242402,"DIS_CODE":0,"TOWNNAME":"北區","LI":"振興里","LIN":"4鄰","STREET":"開元路","SECT":" ","MAREA":" ","LANE":"１６６巷","ALLEY":" ","HOUSE_NO":"２３號","E_COORD97":170107.57000000001,"N_COORD97":2545274.5899999999,"ADDRESS":"開元路１６６巷２３號","OBJECTID":242398},"geometry":{"x":170107.5700000003,"y":2545274.5900000036}},{"attributes":{"ID":242403,"DIS_CODE":0,"TOWNNAME":"北區","LI":"振興里","LIN":"4鄰","STREET":"開元路","SECT":" ","MAREA":" ","LANE":"１６６巷","ALLEY":" ","HOUSE_NO":"２３號之１","E_COORD97":170137.81,"N_COORD97":2545257.8700000001,"ADDRESS":"開元路１６６巷２３號之１","OBJECTID":242399},"geometry":{"x":170137.80999999959,"y":2545257.8700000029}},{"attributes":{"ID":242404,"DIS_CODE":0,"TOWNNAME":"永康區","LI":"三合里","LIN":"24鄰","STREET":"南工街","SECT":" ","MAREA":" ","LANE":"２６７巷","ALLEY":" ","HOUSE_NO":"５０號三樓之３","E_COORD97":171844.29999999999,"N_COORD97":2545845.04,"ADDRESS":"南工街２６７巷５０號三樓之３","OBJECTID":242400},"geometry":{"x":171844.30000000075,"y":2545845.040000001}}]}