{"displayFieldName":"TOWNNAME","fieldAliases":{"ID":"ID","DIS_CODE":"DIS_CODE","TOWNNAME":"TOWNNAME","LI":"LI","LIN":"LIN","STREET":"STREET","SECT":"SECT","MAREA":"MAREA","LANE":"LANE","ALLEY":"ALLEY","HOUSE_NO":"HOUSE_NO","E_COORD97":"E_COORD97","N_COORD97":"N_COORD97","ADDRESS":"ADDRESS","OBJECTID":"OBJECTID"},"geometryType":"esriGeometryPoint","spatialReference":{"wkid":102443,"latestWkid":3826},"fields":[{"name":"ID","type":"esriFieldTypeDouble","alias":"ID"},{"name":"DIS_CODE","type":"esriFieldTypeInteger","alias":"DIS_CODE"},{"name":"TOWNNAME","type":"esriFieldTypeString","alias":"TOWNNAME","length":8},{"name":"LI","type":"esriFieldTypeString","alias":"LI","length":8},{"name":"LIN","type":"esriFieldTypeString","alias":"LIN","length":12},{"name":"STREET","type":"esriFieldTypeString","alias":"STREET","length":20},{"name":"SECT","type":"esriFieldTypeString","alias":"SECT","length":8},{"name":"MAREA","type":"esriFieldTypeString","alias":"MAREA","length":12},{"name":"LANE","type":"esriFieldTypeString","alias":"LANE","length":10},{"name":"ALLEY","type":"esriFieldTypeString","alias":"ALLEY","length":10},{"name":"HOUSE_NO","type":"esriFieldTypeString","alias":"HOUSE_NO","length":20},{"name":"E_COORD97","type":"esriFieldTypeDouble","alias":"E_COORD97"},{"name":"N_COORD97","type":"esriFieldTypeDouble","alias":"N_COORD97"},{"name":"ADDRESS","type":"esriFieldTypeString","alias":"ADDRESS","length":50},{"name":"OBJECTID","type":"esriFieldTypeOID","alias":"OBJECTID"}],"features":[{"attributes":{"ID":649628,"DIS_CODE":0,"TOWNNAME":"安平區","LI":"育平里","LIN":"32鄰","STREET":"育平路","SECT":" ","MAREA":" ","LANE":" ","ALLEY":" ","HOUSE_NO":"５２號十三樓之５","E_COORD97":164564.30156699999,"N_COORD97":2543066.38509,"ADDRESS":"育平路５２號十三樓之５","OBJECTID":649601},"geometry":{"x":164564.30156700127,"y":2543066.3850860018}},{"attributes":{"ID":649629,"DIS_CODE":0,"TOWNNAME":"安平區","LI":"育平里","LIN":"32鄰","STREET":"育平路","SECT":" ","MAREA":" ","LANE":" ","ALLEY":" ","HOUSE_NO":"５２號十三樓之６","E_COORD97":164564.30156699999,"N_COORD97":2543066.38509,"ADDRESS":"育平路５２號十三樓之６","OBJECTID":649602},"geometry":{"x":164564.30156700127,"y":2543066.3850860018}},{"attributes":{"ID":649630,"DIS_CODE":0,"TOWNNAME":"安平區","LI":"育平里","LIN":"32鄰","STREET":"育平路","SECT":" ","MAREA":" ","LANE":" ","ALLEY":" ","HOUSE_NO":"５２號十三樓之７","E_COORD97":164564.30156699999,"N_COORD97":2543066.38509,"ADDRESS":"育平路５２號十三樓之７","OBJECTID":649603},"geometry":{"x":164564.30156700127,"y":2543066.3850860018}},{"attributes":{"ID":649631,"DIS_CODE":0,"TOWNNAME":"安平區","LI":"育平里","LIN":"32鄰","STREET":"育平路","SECT":" ","MAREA":" ","LANE":" ","ALLEY":" ","HOUSE_NO":"５２號十三樓之８","E_COORD97":164564.30156699999,"N_COORD97":2543066.38509,"ADDRESS":"育平路５２號十三樓之８","OBJECTID":649604},"geometry":{"x":164564.30156700127,"y":2543066.3850860018}},{"attributes":{"ID":649632,"DIS_CODE":0,"TOWNNAME":"六甲區","LI":"甲東里","LIN":"14鄰","STREET":"忠孝街","SECT":" ","MAREA":" ","LANE":" ","ALLEY":" ","HOUSE_NO":"１５０號","E_COORD97":184005.137452,"N_COORD97":2569826.7081399998,"ADDRESS":"忠孝街１５０號","OBJECTID":649605},"geometry":{"x":184005.13745199982,"y":2569826.7081370018}},{"attributes":{"ID":649633,"DIS_CODE":0,"TOWNNAME":"安平區","LI":"育平里","LIN":"32鄰","STREET":"育平路","SECT":" ","MAREA":" ","LANE":" ","ALLEY":" ","HOUSE_NO":"５２號十四樓","E_COORD97":164564.30156699999,"N_COORD97":2543066.38509,"ADDRESS":"育平路５２號十四樓","OBJECTID":649606},"geometry":{"x":164564.30156700127,"y":2543066.3850860018}},{"attributes":{"ID":649634,"DIS_CODE":0,"TOWNNAME":"六甲區","LI":"二甲里","LIN":"24鄰","STREET":"信義街","SECT":" ","MAREA":" ","LANE":"３１８巷","ALLEY":" ","HOUSE_NO":"７號","E_COORD97":183421.29151400001,"N_COORD97":2569968.62237,"ADDRESS":"信義街３１８巷７號","OBJECTID":649607},"geometry":{"x":183421.29151400086,"y":2569968.6223730016}},{"attributes":{"ID":649635,"DIS_CODE":0,"TOWNNAME":"安平區","LI":"育平里","LIN":"32鄰","STREET":"育平路","SECT":" ","MAREA":" ","LANE":" ","ALLEY":" ","HOUSE_NO":"６６號十四樓","E_COORD97":164584.43278199999,"N_COORD97":2543071.8884200002,"ADDRESS":"育平路６６號十四樓","OBJECTID":649608},"geometry":{"x":164584.432781999,"y":2543071.888417}},{"attributes":{"ID":649636,"DIS_CODE":0,"TOWNNAME":"安平區","LI":"育平里","LIN":"32鄰","STREET":"育平路","SECT":" ","MAREA":" ","LANE":" ","ALLEY":" ","HOUSE_NO":"６８號十四樓","E_COORD97":164584.85659700001,"N_COORD97":2543084.5884099999,"ADDRESS":"育平路６８號十四樓","OBJECTID":649609},"geometry":{"x":164584.85659700073,"y":2543084.5884100012}},{"attributes":{"ID":649637,"DIS_CODE":0,"TOWNNAME":"安南區","LI":"鳳凰里","LIN":"20鄰","STREET":"怡安路","SECT":"二段","MAREA":" ","LANE":"４９５巷","ALLEY":" ","HOUSE_NO":"６號","E_COORD97":167640.50275099999,"N_COORD97":2549391.4567399998,"ADDRESS":"怡安路二段４９５巷６號","OBJECTID":649610},"geometry":{"x":167640.50275100116,"y":2549391.4567409996}},{"attributes":{"ID":649638,"DIS_CODE":0,"TOWNNAME":"安平區","LI":"育平里","LIN":"32鄰","STREET":"育平路","SECT":" ","MAREA":" ","LANE":" ","ALLEY":" ","HOUSE_NO":"７０號十四樓","E_COORD97":164564.93728899999,"N_COORD97":2543080.9900799999,"ADDRESS":"育平路７０號十四樓","OBJECTID":649611},"geometry":{"x":164564.93728900049,"y":2543080.9900780004}},{"attributes":{"ID":649639,"DIS_CODE":0,"TOWNNAME":"安南區","LI":"鳳凰里","LIN":"20鄰","STREET":"怡安路","SECT":"二段","MAREA":" ","LANE":"４９５巷","ALLEY":" ","HOUSE_NO":"１０號","E_COORD97":167630.97476400001,"N_COORD97":2549381.5084099998,"ADDRESS":"怡安路二段４９５巷１０號","OBJECTID":649612},"geometry":{"x":167630.97476400062,"y":2549381.5084129982}},{"attributes":{"ID":649640,"DIS_CODE":0,"TOWNNAME":"七股區","LI":"大埕里","LIN":"11鄰","STREET":" ","SECT":" ","MAREA":"大埕","LANE":" ","ALLEY":" ","HOUSE_NO":"３９８號","E_COORD97":161900.30767800001,"N_COORD97":2560022.1948199999,"ADDRESS":"大埕３９８號","OBJECTID":649613},"geometry":{"x":161900.30767800007,"y":2560022.1948200017}},{"attributes":{"ID":649641,"DIS_CODE":0,"TOWNNAME":"安南區","LI":"\u25A0南里","LIN":"22鄰","STREET":"長和路","SECT":"二段","MAREA":" ","LANE":"１２巷","ALLEY":" ","HOUSE_NO":"３２８號","E_COORD97":170399.40946299999,"N_COORD97":2552364.0896200002,"ADDRESS":"長和路二段１２巷３２８號","OBJECTID":649614},"geometry":{"x":170399.40946300048,"y":2552364.0896220021}},{"attributes":{"ID":649642,"DIS_CODE":0,"TOWNNAME":"七股區","LI":"大埕里","LIN":"4鄰","STREET":" ","SECT":" ","MAREA":"大埕","LANE":" ","ALLEY":" ","HOUSE_NO":"３號","E_COORD97":163602.30635,"N_COORD97":2561441.6307199998,"ADDRESS":"大埕３號","OBJECTID":649615},"geometry":{"x":163602.3063500002,"y":2561441.6307200044}},{"attributes":{"ID":649643,"DIS_CODE":0,"TOWNNAME":"山上區","LI":"山上里","LIN":"2鄰","STREET":" ","SECT":" ","MAREA":"山上","LANE":" ","ALLEY":" ","HOUSE_NO":"１６號","E_COORD97":184357.355774,"N_COORD97":2555287.8196100001,"ADDRESS":"山上１６號","OBJECTID":649616},"geometry":{"x":184357.35577400029,"y":2555287.8196089994}},{"attributes":{"ID":649644,"DIS_CODE":0,"TOWNNAME":"安平區","LI":"育平里","LIN":"22鄰","STREET":"郡平路","SECT":" ","MAREA":" ","LANE":" ","ALLEY":" ","HOUSE_NO":"１８８號十四樓之１","E_COORD97":164672.79821899999,"N_COORD97":2543361.44826,"ADDRESS":"郡平路１８８號十四樓之１","OBJECTID":649617},"geometry":{"x":164672.79821900185,"y":2543361.44826}},{"attributes":{"ID":649645,"DIS_CODE":0,"TOWNNAME":"安平區","LI":"育平里","LIN":"34鄰","STREET":"郡平路","SECT":" ","MAREA":" ","LANE":"２７４巷","ALLEY":"２０弄","HOUSE_NO":"２２號四樓之５","E_COORD97":164481.233817,"N_COORD97":2543403.35824,"ADDRESS":"郡平路２７４巷２０弄２２號四樓之５","OBJECTID":649618},"geometry":{"x":164481.23381699994,"y":2543403.3582380004}},{"attributes":{"ID":649646,"DIS_CODE":0,"TOWNNAME":"關廟區","LI":"東勢里","LIN":"14鄰","STREET":"東榮街","SECT":" ","MAREA":" ","LANE":"１７２巷","ALLEY":" ","HOUSE_NO":"１０號","E_COORD97":182210.36433400001,"N_COORD97":2539311.2973500001,"ADDRESS":"東榮街１７２巷１０號","OBJECTID":649619},"geometry":{"x":182210.36433400027,"y":2539311.2973520029}},{"attributes":{"ID":649647,"DIS_CODE":0,"TOWNNAME":"六甲區","LI":"甲東里","LIN":"10鄰","STREET":"曾文街","SECT":" ","MAREA":" ","LANE":"１００巷","ALLEY":" ","HOUSE_NO":"１５號","E_COORD97":184262.216893,"N_COORD97":2570292.6206499999,"ADDRESS":"曾文街１００巷１５號","OBJECTID":649620},"geometry":{"x":184262.2168929996,"y":2570292.6206459999}},{"attributes":{"ID":649648,"DIS_CODE":0,"TOWNNAME":"學甲區","LI":"豐和里","LIN":"2鄰","STREET":" ","SECT":" ","MAREA":"美豐","LANE":" ","ALLEY":" ","HOUSE_NO":"１１號之２０","E_COORD97":167760.65218400001,"N_COORD97":2568828.6856300002,"ADDRESS":"美豐１１號之２０","OBJECTID":649621},"geometry":{"x":167760.65218400117,"y":2568828.6856260002}},{"attributes":{"ID":649649,"DIS_CODE":0,"TOWNNAME":"新營區","LI":"延平里","LIN":"1鄰","STREET":"延平路","SECT":" ","MAREA":" ","LANE":" ","ALLEY":" ","HOUSE_NO":"４６之１４０號","E_COORD97":179704.08202100001,"N_COORD97":2577801.64781,"ADDRESS":"延平路４６之１４０號","OBJECTID":649622},"geometry":{"x":179704.08202100173,"y":2577801.6478050034}},{"attributes":{"ID":649650,"DIS_CODE":0,"TOWNNAME":"新營區","LI":"延平里","LIN":"1鄰","STREET":"延平路","SECT":" ","MAREA":" ","LANE":" ","ALLEY":" ","HOUSE_NO":"４６之１４１號","E_COORD97":179703.87009700001,"N_COORD97":2577799.0548899998,"ADDRESS":"延平路４６之１４１號","OBJECTID":649623},"geometry":{"x":179703.87009700015,"y":2577799.0548899993}},{"attributes":{"ID":649651,"DIS_CODE":0,"TOWNNAME":"新營區","LI":"延平里","LIN":"1鄰","STREET":"延平路","SECT":" ","MAREA":" ","LANE":" ","ALLEY":" ","HOUSE_NO":"４６之１４２號","E_COORD97":179704.293944,"N_COORD97":2577796.5148900002,"ADDRESS":"延平路４６之１４２號","OBJECTID":649624},"geometry":{"x":179704.2939440012,"y":2577796.5148910005}},{"attributes":{"ID":649652,"DIS_CODE":0,"TOWNNAME":"新營區","LI":"延平里","LIN":"1鄰","STREET":"延平路","SECT":" ","MAREA":" ","LANE":" ","ALLEY":" ","HOUSE_NO":"４６之１４３號","E_COORD97":179704.08202100001,"N_COORD97":2577794.1865599998,"ADDRESS":"延平路４６之１４３號","OBJECTID":649625},"geometry":{"x":179704.08202100173,"y":2577794.1865589991}},{"attributes":{"ID":649653,"DIS_CODE":0,"TOWNNAME":"新營區","LI":"延平里","LIN":"1鄰","STREET":"延平路","SECT":" ","MAREA":" ","LANE":" ","ALLEY":" ","HOUSE_NO":"４６之１４４號","E_COORD97":179704.08202100001,"N_COORD97":2577791.54073,"ADDRESS":"延平路４６之１４４號","OBJECTID":649626},"geometry":{"x":179704.08202100173,"y":2577791.5407280009}},{"attributes":{"ID":649654,"DIS_CODE":0,"TOWNNAME":"山上區","LI":"山上里","LIN":"2鄰","STREET":" ","SECT":" ","MAREA":"山上","LANE":" ","ALLEY":" ","HOUSE_NO":"１９１之１號","E_COORD97":184196.972137,"N_COORD97":2555494.30033,"ADDRESS":"山上１９１之１號","OBJECTID":649627},"geometry":{"x":184196.97213700041,"y":2555494.3003310002}},{"attributes":{"ID":649655,"DIS_CODE":0,"TOWNNAME":"新營區","LI":"延平里","LIN":"1鄰","STREET":"延平路","SECT":" ","MAREA":" ","LANE":" ","ALLEY":" ","HOUSE_NO":"４６之１４５號","E_COORD97":179701.221055,"N_COORD97":2577791.4348900001,"ADDRESS":"延平路４６之１４５號","OBJECTID":649628},"geometry":{"x":179701.22105500102,"y":2577791.4348940011}},{"attributes":{"ID":649656,"DIS_CODE":0,"TOWNNAME":"新營區","LI":"延平里","LIN":"1鄰","STREET":"延平路","SECT":" ","MAREA":" ","LANE":" ","ALLEY":" ","HOUSE_NO":"４６之１４６號","E_COORD97":179698.04220500001,"N_COORD97":2577791.2232300001,"ADDRESS":"延平路４６之１４６號","OBJECTID":649629},"geometry":{"x":179698.0422050003,"y":2577791.2232280001}},{"attributes":{"ID":649657,"DIS_CODE":0,"TOWNNAME":"新營區","LI":"延平里","LIN":"1鄰","STREET":"延平路","SECT":" ","MAREA":" ","LANE":" ","ALLEY":" ","HOUSE_NO":"４６之１４７號","E_COORD97":179695.28720200001,"N_COORD97":2577790.7999,"ADDRESS":"延平路４６之１４７號","OBJECTID":649630},"geometry":{"x":179695.28720199969,"y":2577790.7998950016}},{"attributes":{"ID":649658,"DIS_CODE":0,"TOWNNAME":"新營區","LI":"延平里","LIN":"1鄰","STREET":"延平路","SECT":" ","MAREA":" ","LANE":" ","ALLEY":" ","HOUSE_NO":"４６之１４８號","E_COORD97":179692.53219900001,"N_COORD97":2577790.5882299999,"ADDRESS":"延平路４６之１４８號","OBJECTID":649631},"geometry":{"x":179692.53219900094,"y":2577790.5882280003}},{"attributes":{"ID":649659,"DIS_CODE":0,"TOWNNAME":"新營區","LI":"延平里","LIN":"1鄰","STREET":"延平路","SECT":" ","MAREA":" ","LANE":" ","ALLEY":" ","HOUSE_NO":"４６之１４９號","E_COORD97":179689.56527200001,"N_COORD97":2577790.27073,"ADDRESS":"延平路４６之１４９號","OBJECTID":649632},"geometry":{"x":179689.56527200155,"y":2577790.2707280032}},{"attributes":{"ID":649660,"DIS_CODE":0,"TOWNNAME":"新營區","LI":"延平里","LIN":"1鄰","STREET":"延平路","SECT":" ","MAREA":" ","LANE":" ","ALLEY":" ","HOUSE_NO":"４６之１５４號","E_COORD97":179698.73095600001,"N_COORD97":2577787.0692699999,"ADDRESS":"延平路４６之１５４號","OBJECTID":649633},"geometry":{"x":179698.73095600028,"y":2577787.0692720022}},{"attributes":{"ID":649661,"DIS_CODE":0,"TOWNNAME":"新營區","LI":"延平里","LIN":"1鄰","STREET":"延平路","SECT":" ","MAREA":" ","LANE":" ","ALLEY":" ","HOUSE_NO":"４６之１５５號","E_COORD97":179701.80384499999,"N_COORD97":2577787.28094,"ADDRESS":"延平路４６之１５５號","OBJECTID":649634},"geometry":{"x":179701.80384499952,"y":2577787.2809379995}},{"attributes":{"ID":649662,"DIS_CODE":0,"TOWNNAME":"新營區","LI":"延平里","LIN":"1鄰","STREET":"延平路","SECT":" ","MAREA":" ","LANE":" ","ALLEY":" ","HOUSE_NO":"４６之１５６號","E_COORD97":179704.34692499999,"N_COORD97":2577787.4926,"ADDRESS":"延平路４６之１５６號","OBJECTID":649635},"geometry":{"x":179704.34692499973,"y":2577787.4926050007}},{"attributes":{"ID":649663,"DIS_CODE":0,"TOWNNAME":"安南區","LI":"淵西里","LIN":"7鄰","STREET":"安中路","SECT":"四段","MAREA":" ","LANE":"３０６巷","ALLEY":" ","HOUSE_NO":"１２０號","E_COORD97":164721.66819699999,"N_COORD97":2550350.2937099999,"ADDRESS":"安中路四段３０６巷１２０號","OBJECTID":649636},"geometry":{"x":164721.6681970004,"y":2550350.2937060017}},{"attributes":{"ID":649664,"DIS_CODE":0,"TOWNNAME":"下營區","LI":"茅港里","LIN":"10鄰","STREET":" ","SECT":" ","MAREA":"茅港尾","LANE":" ","ALLEY":" ","HOUSE_NO":"３４１號","E_COORD97":176665.95104700001,"N_COORD97":2568765.9005399998,"ADDRESS":"茅港尾３４１號","OBJECTID":649637},"geometry":{"x":176665.95104699954,"y":2568765.9005350024}},{"attributes":{"ID":649665,"DIS_CODE":0,"TOWNNAME":"安南區","LI":"淵西里","LIN":"7鄰","STREET":"安中路","SECT":"四段","MAREA":" ","LANE":"３０６巷","ALLEY":" ","HOUSE_NO":"１０６號","E_COORD97":164729.50545299999,"N_COORD97":2550322.5653900001,"ADDRESS":"安中路四段３０６巷１０６號","OBJECTID":649638},"geometry":{"x":164729.50545299985,"y":2550322.5653879996}},{"attributes":{"ID":649666,"DIS_CODE":0,"TOWNNAME":"下營區","LI":"茅港里","LIN":"10鄰","STREET":" ","SECT":" ","MAREA":"茅港尾","LANE":" ","ALLEY":" ","HOUSE_NO":"３４０號","E_COORD97":176660.658635,"N_COORD97":2568736.5372899999,"ADDRESS":"茅港尾３４０號","OBJECTID":649639},"geometry":{"x":176660.65863499977,"y":2568736.5372880008}},{"attributes":{"ID":649667,"DIS_CODE":0,"TOWNNAME":"安南區","LI":"淵西里","LIN":"7鄰","STREET":"安中路","SECT":"四段","MAREA":" ","LANE":"３０６巷","ALLEY":" ","HOUSE_NO":"１０８號","E_COORD97":164728.43312,"N_COORD97":2550325.8329799999,"ADDRESS":"安中路四段３０６巷１０８號","OBJECTID":649640},"geometry":{"x":164728.43312000018,"y":2550325.8329840004}},{"attributes":{"ID":649668,"DIS_CODE":0,"TOWNNAME":"下營區","LI":"茅港里","LIN":"10鄰","STREET":" ","SECT":" ","MAREA":"茅港尾","LANE":" ","ALLEY":" ","HOUSE_NO":"３４６號","E_COORD97":176473.73728299999,"N_COORD97":2568882.7632599999,"ADDRESS":"茅港尾３４６號","OBJECTID":649641},"geometry":{"x":176473.73728300165,"y":2568882.763263002}},{"attributes":{"ID":649669,"DIS_CODE":0,"TOWNNAME":"安南區","LI":"淵西里","LIN":"7鄰","STREET":"安中路","SECT":"四段","MAREA":" ","LANE":"３０６巷","ALLEY":" ","HOUSE_NO":"１１０號","E_COORD97":164725.679489,"N_COORD97":2550330.4896499999,"ADDRESS":"安中路四段３０６巷１１０號","OBJECTID":649642},"geometry":{"x":164725.67948899884,"y":2550330.4896480013}},{"attributes":{"ID":649670,"DIS_CODE":0,"TOWNNAME":"安南區","LI":"淵西里","LIN":"7鄰","STREET":"安中路","SECT":"四段","MAREA":" ","LANE":"３０６巷","ALLEY":" ","HOUSE_NO":"１１２號","E_COORD97":164725.679489,"N_COORD97":2550333.8763100002,"ADDRESS":"安中路四段３０６巷１１２號","OBJECTID":649643},"geometry":{"x":164725.67948899884,"y":2550333.8763130028}},{"attributes":{"ID":649671,"DIS_CODE":0,"TOWNNAME":"安南區","LI":"淵西里","LIN":"7鄰","STREET":"安中路","SECT":"四段","MAREA":" ","LANE":"３０６巷","ALLEY":" ","HOUSE_NO":"１１６號","E_COORD97":164720.595864,"N_COORD97":2550341.0729800002,"ADDRESS":"安中路四段３０６巷１１６號","OBJECTID":649644},"geometry":{"x":164720.59586400073,"y":2550341.0729760025}},{"attributes":{"ID":649672,"DIS_CODE":0,"TOWNNAME":"下營區","LI":"茅港里","LIN":"10鄰","STREET":" ","SECT":" ","MAREA":"茅港尾","LANE":" ","ALLEY":" ","HOUSE_NO":"３４２號之６","E_COORD97":176671.20222000001,"N_COORD97":2568926.68407,"ADDRESS":"茅港尾３４２號之６","OBJECTID":649645},"geometry":{"x":176671.20222000126,"y":2568926.6840700023}},{"attributes":{"ID":649673,"DIS_CODE":0,"TOWNNAME":"安南區","LI":"淵西里","LIN":"7鄰","STREET":"安中路","SECT":"四段","MAREA":" ","LANE":"３０６巷","ALLEY":" ","HOUSE_NO":"１１８號","E_COORD97":164719.219048,"N_COORD97":2550345.14756,"ADDRESS":"安中路四段３０６巷１１８號","OBJECTID":649646},"geometry":{"x":164719.21904800087,"y":2550345.1475570016}},{"attributes":{"ID":649674,"DIS_CODE":0,"TOWNNAME":"下營區","LI":"茅港里","LIN":"10鄰","STREET":" ","SECT":" ","MAREA":"茅港尾","LANE":" ","ALLEY":" ","HOUSE_NO":"３４７號之５","E_COORD97":176335.17282000001,"N_COORD97":2568874.1907600001,"ADDRESS":"茅港尾３４７號之５","OBJECTID":649647},"geometry":{"x":176335.17282000091,"y":2568874.1907600015}},{"attributes":{"ID":649675,"DIS_CODE":0,"TOWNNAME":"安南區","LI":"淵西里","LIN":"7鄰","STREET":"安中路","SECT":"四段","MAREA":" ","LANE":"３０６巷","ALLEY":" ","HOUSE_NO":"１２２號","E_COORD97":164716.571326,"N_COORD97":2550353.5613000002,"ADDRESS":"安中路四段３０６巷１２２號","OBJECTID":649648},"geometry":{"x":164716.57132599968,"y":2550353.5613019988}},{"attributes":{"ID":649676,"DIS_CODE":0,"TOWNNAME":"安南區","LI":"淵西里","LIN":"7鄰","STREET":"安中路","SECT":"四段","MAREA":" ","LANE":"３０６巷","ALLEY":" ","HOUSE_NO":"１２４號","E_COORD97":164715.93587300001,"N_COORD97":2550356.7363,"ADDRESS":"安中路四段３０６巷１２４號","OBJECTID":649649},"geometry":{"x":164715.93587300181,"y":2550356.736301003}},{"attributes":{"ID":649677,"DIS_CODE":0,"TOWNNAME":"安南區","LI":"淵西里","LIN":"7鄰","STREET":"安中路","SECT":"四段","MAREA":" ","LANE":"３０６巷","ALLEY":" ","HOUSE_NO":"１２６號","E_COORD97":164712.54678900001,"N_COORD97":2550361.3929699999,"ADDRESS":"安中路四段３０６巷１２６號","OBJECTID":649650},"geometry":{"x":164712.54678900074,"y":2550361.3929650001}},{"attributes":{"ID":649678,"DIS_CODE":0,"TOWNNAME":"安南區","LI":"淵西里","LIN":"7鄰","STREET":"安中路","SECT":"四段","MAREA":" ","LANE":"３０６巷","ALLEY":" ","HOUSE_NO":"１２８號","E_COORD97":164713.605878,"N_COORD97":2550363.9329599999,"ADDRESS":"安中路四段３０６巷１２８號","OBJECTID":649651},"geometry":{"x":164713.60587800201,"y":2550363.9329640027}},{"attributes":{"ID":649679,"DIS_CODE":0,"TOWNNAME":"下營區","LI":"茅港里","LIN":"3鄰","STREET":" ","SECT":" ","MAREA":"茅港尾","LANE":" ","ALLEY":" ","HOUSE_NO":"４３號之６","E_COORD97":176193.00654,"N_COORD97":2569366.8446599999,"ADDRESS":"茅港尾４３號之６","OBJECTID":649652},"geometry":{"x":176193.00654000044,"y":2569366.844659999}},{"attributes":{"ID":649680,"DIS_CODE":0,"TOWNNAME":"安南區","LI":"淵西里","LIN":"7鄰","STREET":"安中路","SECT":"四段","MAREA":" ","LANE":"３０６巷","ALLEY":" ","HOUSE_NO":"１３０號","E_COORD97":164710.64043,"N_COORD97":2550368.3779600002,"ADDRESS":"安中路四段３０６巷１３０號","OBJECTID":649653},"geometry":{"x":164710.64043000154,"y":2550368.3779610023}},{"attributes":{"ID":649681,"DIS_CODE":0,"TOWNNAME":"安南區","LI":"淵西里","LIN":"7鄰","STREET":"安中路","SECT":"四段","MAREA":" ","LANE":"３０６巷","ALLEY":" ","HOUSE_NO":"１３２號","E_COORD97":164708.522252,"N_COORD97":2550372.82296,"ADDRESS":"安中路四段３０６巷１３２號","OBJECTID":649654},"geometry":{"x":164708.52225200087,"y":2550372.8229590021}},{"attributes":{"ID":649682,"DIS_CODE":0,"TOWNNAME":"安南區","LI":"淵西里","LIN":"7鄰","STREET":"安中路","SECT":"四段","MAREA":" ","LANE":"３０６巷","ALLEY":" ","HOUSE_NO":"１３４號","E_COORD97":164704.497715,"N_COORD97":2550378.96129,"ADDRESS":"安中路四段３０６巷１３４號","OBJECTID":649655},"geometry":{"x":164704.49771500006,"y":2550378.9612889998}},{"attributes":{"ID":649683,"DIS_CODE":0,"TOWNNAME":"下營區","LI":"茅港里","LIN":"3鄰","STREET":" ","SECT":" ","MAREA":"茅港尾","LANE":" ","ALLEY":" ","HOUSE_NO":"４３號之９","E_COORD97":176510.39118000001,"N_COORD97":2569096.4406400002,"ADDRESS":"茅港尾４３號之９","OBJECTID":649656},"geometry":{"x":176510.39118000027,"y":2569096.4406400006}},{"attributes":{"ID":649684,"DIS_CODE":0,"TOWNNAME":"安南區","LI":"安和里","LIN":"3鄰","STREET":"府安路","SECT":"三段","MAREA":" ","LANE":" ","ALLEY":" ","HOUSE_NO":"２６９號","E_COORD97":169944.32430400001,"N_COORD97":2547876.12892,"ADDRESS":"府安路三段２６９號","OBJECTID":649657},"geometry":{"x":169944.32430400141,"y":2547876.1289229989}},{"attributes":{"ID":649685,"DIS_CODE":0,"TOWNNAME":"六甲區","LI":"中社里","LIN":"13鄰","STREET":" ","SECT":" ","MAREA":"港子頭","LANE":" ","ALLEY":" ","HOUSE_NO":"４２號","E_COORD97":180862.266111,"N_COORD97":2571289.54593,"ADDRESS":"港子頭４２號","OBJECTID":649658},"geometry":{"x":180862.26611100137,"y":2571289.5459310021}},{"attributes":{"ID":649686,"DIS_CODE":0,"TOWNNAME":"安南區","LI":"安和里","LIN":"3鄰","STREET":"府安路","SECT":"三段","MAREA":" ","LANE":" ","ALLEY":" ","HOUSE_NO":"２７０號","E_COORD97":169944.53603700001,"N_COORD97":2547870.4139299998,"ADDRESS":"府安路三段２７０號","OBJECTID":649659},"geometry":{"x":169944.53603700083,"y":2547870.4139260016}},{"attributes":{"ID":649687,"DIS_CODE":0,"TOWNNAME":"安南區","LI":"安和里","LIN":"3鄰","STREET":"府安路","SECT":"三段","MAREA":" ","LANE":" ","ALLEY":" ","HOUSE_NO":"２７１號","E_COORD97":169943.689105,"N_COORD97":2547865.3339300002,"ADDRESS":"府安路三段２７１號","OBJECTID":649660},"geometry":{"x":169943.68910500128,"y":2547865.3339290023}},{"attributes":{"ID":649688,"DIS_CODE":0,"TOWNNAME":"安南區","LI":"安和里","LIN":"3鄰","STREET":"府安路","SECT":"三段","MAREA":" ","LANE":" ","ALLEY":" ","HOUSE_NO":"２７２號","E_COORD97":169944.53603700001,"N_COORD97":2547860.6772699999,"ADDRESS":"府安路三段２７２號","OBJECTID":649661},"geometry":{"x":169944.53603700083,"y":2547860.6772650015}},{"attributes":{"ID":649689,"DIS_CODE":0,"TOWNNAME":"安南區","LI":"安和里","LIN":"3鄰","STREET":"府安路","SECT":"三段","MAREA":" ","LANE":" ","ALLEY":" ","HOUSE_NO":"２７３號","E_COORD97":169944.74776999999,"N_COORD97":2547855.17393,"ADDRESS":"府安路三段２７３號","OBJECTID":649662},"geometry":{"x":169944.74777000118,"y":2547855.1739350036}},{"attributes":{"ID":649690,"DIS_CODE":0,"TOWNNAME":"安南區","LI":"安和里","LIN":"3鄰","STREET":"府安路","SECT":"三段","MAREA":" ","LANE":" ","ALLEY":" ","HOUSE_NO":"２７５號","E_COORD97":169944.74776999999,"N_COORD97":2547851.15227,"ADDRESS":"府安路三段２７５號","OBJECTID":649663},"geometry":{"x":169944.74777000118,"y":2547851.1522700023}},{"attributes":{"ID":649691,"DIS_CODE":0,"TOWNNAME":"新營區","LI":"延平里","LIN":"1鄰","STREET":"延平路","SECT":" ","MAREA":" ","LANE":" ","ALLEY":" ","HOUSE_NO":"４６之１６２號","E_COORD97":179686.81026900001,"N_COORD97":2577782.9153100001,"ADDRESS":"延平路４６之１６２號","OBJECTID":649664},"geometry":{"x":179686.81026900094,"y":2577782.9153150041}},{"attributes":{"ID":649692,"DIS_CODE":0,"TOWNNAME":"新營區","LI":"延平里","LIN":"1鄰","STREET":"延平路","SECT":" ","MAREA":" ","LANE":" ","ALLEY":" ","HOUSE_NO":"４６之１６０號","E_COORD97":179693.803739,"N_COORD97":2577782.9153100001,"ADDRESS":"延平路４６之１６０號","OBJECTID":649665},"geometry":{"x":179693.80373900011,"y":2577782.9153150041}},{"attributes":{"ID":649693,"DIS_CODE":0,"TOWNNAME":"新營區","LI":"延平里","LIN":"1鄰","STREET":"延平路","SECT":" ","MAREA":" ","LANE":" ","ALLEY":" ","HOUSE_NO":"４６之１５９號","E_COORD97":179698.572014,"N_COORD97":2577783.3386499998,"ADDRESS":"延平路４６之１５９號","OBJECTID":649666},"geometry":{"x":179698.5720140012,"y":2577783.338649001}},{"attributes":{"ID":649694,"DIS_CODE":0,"TOWNNAME":"新營區","LI":"延平里","LIN":"1鄰","STREET":"延平路","SECT":" ","MAREA":" ","LANE":" ","ALLEY":" ","HOUSE_NO":"４６之１５８號","E_COORD97":179701.750864,"N_COORD97":2577783.6561500002,"ADDRESS":"延平路４６之１５８號","OBJECTID":649667},"geometry":{"x":179701.75086400099,"y":2577783.6561479997}},{"attributes":{"ID":649695,"DIS_CODE":0,"TOWNNAME":"新營區","LI":"延平里","LIN":"1鄰","STREET":"延平路","SECT":" ","MAREA":" ","LANE":" ","ALLEY":" ","HOUSE_NO":"４６之１５７號","E_COORD97":179704.293944,"N_COORD97":2577783.9736500001,"ADDRESS":"延平路４６之１５７號","OBJECTID":649668},"geometry":{"x":179704.2939440012,"y":2577783.9736480024}},{"attributes":{"ID":649696,"DIS_CODE":0,"TOWNNAME":"新化區","LI":"豐榮里","LIN":"12鄰","STREET":"民治路","SECT":" ","MAREA":" ","LANE":"３３巷","ALLEY":" ","HOUSE_NO":"４６號","E_COORD97":178645.44295900001,"N_COORD97":2548046.49058,"ADDRESS":"民治路３３巷４６號","OBJECTID":649669},"geometry":{"x":178645.44295900222,"y":2548046.4905849993}},{"attributes":{"ID":649697,"DIS_CODE":0,"TOWNNAME":"新化區","LI":"豐榮里","LIN":"12鄰","STREET":"民治路","SECT":" ","MAREA":" ","LANE":"３３巷","ALLEY":" ","HOUSE_NO":"４８號","E_COORD97":178640.35566599999,"N_COORD97":2548046.49058,"ADDRESS":"民治路３３巷４８號","OBJECTID":649670},"geometry":{"x":178640.3556660004,"y":2548046.4905849993}},{"attributes":{"ID":649698,"DIS_CODE":0,"TOWNNAME":"新化區","LI":"豐榮里","LIN":"12鄰","STREET":"民治路","SECT":" ","MAREA":" ","LANE":"４３巷","ALLEY":" ","HOUSE_NO":"３１號","E_COORD97":178644.59507700001,"N_COORD97":2548060.8839099999,"ADDRESS":"民治路４３巷３１號","OBJECTID":649671},"geometry":{"x":178644.59507699963,"y":2548060.8839110024}},{"attributes":{"ID":649699,"DIS_CODE":0,"TOWNNAME":"新化區","LI":"豐榮里","LIN":"12鄰","STREET":"民治路","SECT":" ","MAREA":" ","LANE":"４３巷","ALLEY":" ","HOUSE_NO":"３１號之１","E_COORD97":178644.38310000001,"N_COORD97":2548056.2272399999,"ADDRESS":"民治路４３巷３１號之１","OBJECTID":649672},"geometry":{"x":178644.38310000114,"y":2548056.2272400036}},{"attributes":{"ID":649700,"DIS_CODE":0,"TOWNNAME":"安南區","LI":"安和里","LIN":"3鄰","STREET":"府安路","SECT":"三段","MAREA":" ","LANE":"２７６巷","ALLEY":" ","HOUSE_NO":"６號","E_COORD97":169921.457135,"N_COORD97":2547858.5606,"ADDRESS":"府安路三段２７６巷６號","OBJECTID":649673},"geometry":{"x":169921.4571350012,"y":2547858.5605989993}},{"attributes":{"ID":649701,"DIS_CODE":0,"TOWNNAME":"安南區","LI":"安和里","LIN":"3鄰","STREET":"府安路","SECT":"三段","MAREA":" ","LANE":"２７６巷","ALLEY":" ","HOUSE_NO":"８號","E_COORD97":169917.85767299999,"N_COORD97":2547857.9256000002,"ADDRESS":"府安路三段２７６巷８號","OBJECTID":649674},"geometry":{"x":169917.85767300148,"y":2547857.9255999997}},{"attributes":{"ID":649702,"DIS_CODE":0,"TOWNNAME":"安南區","LI":"安和里","LIN":"3鄰","STREET":"府安路","SECT":"三段","MAREA":" ","LANE":"２７６巷","ALLEY":" ","HOUSE_NO":"１０號","E_COORD97":169914.25821199999,"N_COORD97":2547858.3489299999,"ADDRESS":"府安路三段２７６巷１０號","OBJECTID":649675},"geometry":{"x":169914.25821200013,"y":2547858.348933002}},{"attributes":{"ID":649703,"DIS_CODE":0,"TOWNNAME":"新營區","LI":"延平里","LIN":"1鄰","STREET":"延平路","SECT":" ","MAREA":" ","LANE":" ","ALLEY":" ","HOUSE_NO":"４６之１６６號","E_COORD97":179679.05298000001,"N_COORD97":2577774.3854,"ADDRESS":"延平路４６之１６６號","OBJECTID":649676},"geometry":{"x":179679.05298000108,"y":2577774.385405004}},{"attributes":{"ID":649704,"DIS_CODE":0,"TOWNNAME":"安南區","LI":"安和里","LIN":"3鄰","STREET":"府安路","SECT":"三段","MAREA":" ","LANE":"２７６巷","ALLEY":" ","HOUSE_NO":"１２號","E_COORD97":169909.60008500001,"N_COORD97":2547858.7722700001,"ADDRESS":"府安路三段２７６巷１２號","OBJECTID":649677},"geometry":{"x":169909.60008499958,"y":2547858.7722660005}},{"attributes":{"ID":649705,"DIS_CODE":0,"TOWNNAME":"新營區","LI":"延平里","LIN":"1鄰","STREET":"延平路","SECT":" ","MAREA":" ","LANE":" ","ALLEY":" ","HOUSE_NO":"４６之１６９號","E_COORD97":179681.38413699999,"N_COORD97":2577766.4479100001,"ADDRESS":"延平路４６之１６９號","OBJECTID":649678},"geometry":{"x":179681.38413699903,"y":2577766.4479089975}},{"attributes":{"ID":649706,"DIS_CODE":0,"TOWNNAME":"安南區","LI":"安和里","LIN":"3鄰","STREET":"府安路","SECT":"三段","MAREA":" ","LANE":"２７６巷","ALLEY":" ","HOUSE_NO":"１６號","E_COORD97":169906.000623,"N_COORD97":2547858.9839300001,"ADDRESS":"府安路三段２７６巷１６號","OBJECTID":649679},"geometry":{"x":169906.00062299985,"y":2547858.9839330018}},{"attributes":{"ID":649707,"DIS_CODE":0,"TOWNNAME":"安南區","LI":"安和里","LIN":"3鄰","STREET":"府安路","SECT":"三段","MAREA":" ","LANE":"２７６巷","ALLEY":" ","HOUSE_NO":"１８號","E_COORD97":169901.97769500001,"N_COORD97":2547859.4072699999,"ADDRESS":"府安路三段２７６巷１８號","OBJECTID":649680},"geometry":{"x":169901.97769500129,"y":2547859.4072660003}},{"attributes":{"ID":649708,"DIS_CODE":0,"TOWNNAME":"安南區","LI":"安和里","LIN":"3鄰","STREET":"府安路","SECT":"三段","MAREA":" ","LANE":"２７６巷","ALLEY":" ","HOUSE_NO":"２０號","E_COORD97":169897.53130100001,"N_COORD97":2547860.04226,"ADDRESS":"府安路三段２７６巷２０號","OBJECTID":649681},"geometry":{"x":169897.53130100109,"y":2547860.0422650017}},{"attributes":{"ID":649709,"DIS_CODE":0,"TOWNNAME":"安南區","LI":"安和里","LIN":"3鄰","STREET":"府安路","SECT":"三段","MAREA":" ","LANE":"２７６巷","ALLEY":" ","HOUSE_NO":"２２號","E_COORD97":169894.77877100001,"N_COORD97":2547860.8889299999,"ADDRESS":"府安路三段２７６巷２２號","OBJECTID":649682},"geometry":{"x":169894.77877100091,"y":2547860.8889320008}},{"attributes":{"ID":649710,"DIS_CODE":0,"TOWNNAME":"安南區","LI":"安和里","LIN":"3鄰","STREET":"府安路","SECT":"三段","MAREA":" ","LANE":"２７６巷","ALLEY":" ","HOUSE_NO":"２６號","E_COORD97":169889.90891100001,"N_COORD97":2547860.8889299999,"ADDRESS":"府安路三段２７６巷２６號","OBJECTID":649683},"geometry":{"x":169889.90891100094,"y":2547860.8889320008}},{"attributes":{"ID":649711,"DIS_CODE":0,"TOWNNAME":"新營區","LI":"忠政里","LIN":"18鄰","STREET":"中正路","SECT":" ","MAREA":" ","LANE":"１０７巷","ALLEY":"４０弄","HOUSE_NO":"２號","E_COORD97":179956.31167699999,"N_COORD97":2579703.71349,"ADDRESS":"中正路１０７巷４０弄２號","OBJECTID":649684},"geometry":{"x":179956.31167700049,"y":2579703.7134950031}},{"attributes":{"ID":649712,"DIS_CODE":0,"TOWNNAME":"新營區","LI":"忠政里","LIN":"18鄰","STREET":"中正路","SECT":" ","MAREA":" ","LANE":"１０７巷","ALLEY":"４０弄","HOUSE_NO":"８號","E_COORD97":179964.575083,"N_COORD97":2579704.5601599999,"ADDRESS":"中正路１０７巷４０弄８號","OBJECTID":649685},"geometry":{"x":179964.57508299965,"y":2579704.5601610001}},{"attributes":{"ID":649713,"DIS_CODE":0,"TOWNNAME":"新營區","LI":"忠政里","LIN":"18鄰","STREET":"中正路","SECT":" ","MAREA":" ","LANE":"１０７巷","ALLEY":"４０弄","HOUSE_NO":"１０號","E_COORD97":179968.177081,"N_COORD97":2579704.98349,"ADDRESS":"中正路１０７巷４０弄１０號","OBJECTID":649686},"geometry":{"x":179968.17708100099,"y":2579704.9834940024}},{"attributes":{"ID":649714,"DIS_CODE":0,"TOWNNAME":"新營區","LI":"忠政里","LIN":"18鄰","STREET":"中正路","SECT":" ","MAREA":" ","LANE":"１０７巷","ALLEY":"４０弄","HOUSE_NO":"１２號","E_COORD97":179971.779079,"N_COORD97":2579704.98349,"ADDRESS":"中正路１０７巷４０弄１２號","OBJECTID":649687},"geometry":{"x":179971.77907900047,"y":2579704.9834940024}},{"attributes":{"ID":649715,"DIS_CODE":0,"TOWNNAME":"新營區","LI":"忠政里","LIN":"18鄰","STREET":"中正路","SECT":" ","MAREA":" ","LANE":"１０７巷","ALLEY":"４０弄","HOUSE_NO":"１６號","E_COORD97":179975.381077,"N_COORD97":2579705.8301599999,"ADDRESS":"中正路１０７巷４０弄１６號","OBJECTID":649688},"geometry":{"x":179975.38107700087,"y":2579705.8301609997}},{"attributes":{"ID":649716,"DIS_CODE":0,"TOWNNAME":"新營區","LI":"忠政里","LIN":"18鄰","STREET":"中正路","SECT":" ","MAREA":" ","LANE":"１０７巷","ALLEY":"４０弄","HOUSE_NO":"１８號","E_COORD97":179978.77119199999,"N_COORD97":2579705.4068300002,"ADDRESS":"中正路１０７巷４０弄１８號","OBJECTID":649689},"geometry":{"x":179978.77119200118,"y":2579705.4068280011}},{"attributes":{"ID":649717,"DIS_CODE":0,"TOWNNAME":"新營區","LI":"忠政里","LIN":"18鄰","STREET":"中正路","SECT":" ","MAREA":" ","LANE":"１０７巷","ALLEY":"４０弄","HOUSE_NO":"２０號","E_COORD97":179964.99884799999,"N_COORD97":2579712.39182,"ADDRESS":"中正路１０７巷４０弄２０號","OBJECTID":649690},"geometry":{"x":179964.99884799961,"y":2579712.3918239996}},{"attributes":{"ID":649718,"DIS_CODE":0,"TOWNNAME":"後壁區","LI":"長安里","LIN":"13鄰","STREET":" ","SECT":" ","MAREA":"中寮","LANE":" ","ALLEY":" ","HOUSE_NO":"１８３號","E_COORD97":184116.76896300001,"N_COORD97":2581508.99016,"ADDRESS":"中寮１８３號","OBJECTID":649691},"geometry":{"x":184116.76896300074,"y":2581508.990158001}},{"attributes":{"ID":649719,"DIS_CODE":0,"TOWNNAME":"新營區","LI":"忠政里","LIN":"18鄰","STREET":"中正路","SECT":" ","MAREA":" ","LANE":"１０７巷","ALLEY":"４０弄","HOUSE_NO":"２２號","E_COORD97":179956.947323,"N_COORD97":2579713.9793199999,"ADDRESS":"中正路１０７巷４０弄２２號","OBJECTID":649692},"geometry":{"x":179956.94732300099,"y":2579713.9793230016}},{"attributes":{"ID":649720,"DIS_CODE":0,"TOWNNAME":"新營區","LI":"延平里","LIN":"1鄰","STREET":"延平路","SECT":" ","MAREA":" ","LANE":" ","ALLEY":" ","HOUSE_NO":"４６之１７０號","E_COORD97":179687.00010500001,"N_COORD97":2577777.5603999998,"ADDRESS":"延平路４６之１７０號","OBJECTID":649693},"geometry":{"x":179687.00010500196,"y":2577777.5604030024}},{"attributes":{"ID":649721,"DIS_CODE":0,"TOWNNAME":"仁德區","LI":"上崙里","LIN":"12鄰","STREET":"德崙路","SECT":" ","MAREA":" ","LANE":"５３９巷","ALLEY":" ","HOUSE_NO":"１號","E_COORD97":174493.471644,"N_COORD97":2537886.6137999999,"ADDRESS":"德崙路５３９巷１號","OBJECTID":649694},"geometry":{"x":174493.47164400108,"y":2537886.6137969997}},{"attributes":{"ID":649722,"DIS_CODE":0,"TOWNNAME":"新營區","LI":"延平里","LIN":"1鄰","STREET":"延平路","SECT":" ","MAREA":" ","LANE":" ","ALLEY":" ","HOUSE_NO":"４６之１７１號","E_COORD97":179690.28491700001,"N_COORD97":2577777.7720699999,"ADDRESS":"延平路４６之１７１號","OBJECTID":649695},"geometry":{"x":179690.28491700068,"y":2577777.7720699999}},{"attributes":{"ID":649723,"DIS_CODE":0,"TOWNNAME":"新營區","LI":"延平里","LIN":"1鄰","STREET":"延平路","SECT":" ","MAREA":" ","LANE":" ","ALLEY":" ","HOUSE_NO":"４６之１７２號","E_COORD97":179694.099537,"N_COORD97":2577777.7720699999,"ADDRESS":"延平路４６之１７２號","OBJECTID":649696},"geometry":{"x":179694.09953700006,"y":2577777.7720699999}},{"attributes":{"ID":649724,"DIS_CODE":0,"TOWNNAME":"新營區","LI":"延平里","LIN":"1鄰","STREET":"延平路","SECT":" ","MAREA":" ","LANE":" ","ALLEY":" ","HOUSE_NO":"４６之１７３號","E_COORD97":179698.76185000001,"N_COORD97":2577778.1954000001,"ADDRESS":"延平路４６之１７３號","OBJECTID":649697},"geometry":{"x":179698.76185000222,"y":2577778.1954030022}},{"attributes":{"ID":649725,"DIS_CODE":0,"TOWNNAME":"新營區","LI":"延平里","LIN":"1鄰","STREET":"延平路","SECT":" ","MAREA":" ","LANE":" ","ALLEY":" ","HOUSE_NO":"４６之１７４號","E_COORD97":179702.152623,"N_COORD97":2577778.5129,"ADDRESS":"延平路４６之１７４號","OBJECTID":649698},"geometry":{"x":179702.15262299962,"y":2577778.5129030012}},{"attributes":{"ID":649726,"DIS_CODE":0,"TOWNNAME":"新營區","LI":"延平里","LIN":"1鄰","STREET":"延平路","SECT":" ","MAREA":" ","LANE":" ","ALLEY":" ","HOUSE_NO":"４６之１７５號","E_COORD97":179704.69570400001,"N_COORD97":2577778.9362400002,"ADDRESS":"延平路４６之１７５號","OBJECTID":649699},"geometry":{"x":179704.69570400007,"y":2577778.9362359997}},{"attributes":{"ID":649727,"DIS_CODE":0,"TOWNNAME":"新營區","LI":"延平里","LIN":"1鄰","STREET":"延平路","SECT":" ","MAREA":" ","LANE":" ","ALLEY":" ","HOUSE_NO":"４６之１７６號","E_COORD97":179704.69570400001,"N_COORD97":2577776.2903999998,"ADDRESS":"延平路４６之１７６號","OBJECTID":649700},"geometry":{"x":179704.69570400007,"y":2577776.2904039994}},{"attributes":{"ID":649728,"DIS_CODE":0,"TOWNNAME":"新營區","LI":"忠政里","LIN":"18鄰","STREET":"中正路","SECT":" ","MAREA":" ","LANE":"１０７巷","ALLEY":"４０弄","HOUSE_NO":"２６號","E_COORD97":179956.31167699999,"N_COORD97":2579720.1176499999,"ADDRESS":"中正路１０７巷４０弄２６號","OBJECTID":649701},"geometry":{"x":179956.31167700049,"y":2579720.117653003}},{"attributes":{"ID":649729,"DIS_CODE":0,"TOWNNAME":"新營區","LI":"延平里","LIN":"1鄰","STREET":"延平路","SECT":" ","MAREA":" ","LANE":" ","ALLEY":" ","HOUSE_NO":"４６之１７７號","E_COORD97":179702.04666200001,"N_COORD97":2577775.8670700002,"ADDRESS":"延平路４６之１７７號","OBJECTID":649702},"geometry":{"x":179702.04666200094,"y":2577775.8670710009}},{"attributes":{"ID":649730,"DIS_CODE":0,"TOWNNAME":"新營區","LI":"延平里","LIN":"1鄰","STREET":"延平路","SECT":" ","MAREA":" ","LANE":" ","ALLEY":" ","HOUSE_NO":"４６之１７８號","E_COORD97":179698.76185000001,"N_COORD97":2577775.5495699998,"ADDRESS":"延平路４６之１７８號","OBJECTID":649703},"geometry":{"x":179698.76185000222,"y":2577775.5495710019}},{"attributes":{"ID":649731,"DIS_CODE":0,"TOWNNAME":"新營區","LI":"忠政里","LIN":"18鄰","STREET":"中正路","SECT":" ","MAREA":" ","LANE":"１０７巷","ALLEY":"４０弄","HOUSE_NO":"２８號","E_COORD97":179956.31167699999,"N_COORD97":2579724.7743199999,"ADDRESS":"中正路１０７巷４０弄２８號","OBJECTID":649704},"geometry":{"x":179956.31167700049,"y":2579724.7743170001}},{"attributes":{"ID":649732,"DIS_CODE":0,"TOWNNAME":"新營區","LI":"延平里","LIN":"1鄰","STREET":"延平路","SECT":" ","MAREA":" ","LANE":" ","ALLEY":" ","HOUSE_NO":"４６之１７９號","E_COORD97":179694.31146,"N_COORD97":2577775.2320699999,"ADDRESS":"延平路４６之１７９號","OBJECTID":649705},"geometry":{"x":179694.31146000046,"y":2577775.2320710011}},{"attributes":{"ID":649733,"DIS_CODE":0,"TOWNNAME":"新營區","LI":"延平里","LIN":"1鄰","STREET":"延平路","SECT":" ","MAREA":" ","LANE":" ","ALLEY":" ","HOUSE_NO":"４６之１８０號","E_COORD97":179690.49684000001,"N_COORD97":2577774.91457,"ADDRESS":"延平路４６之１８０號","OBJECTID":649706},"geometry":{"x":179690.49684000015,"y":2577774.9145710021}},{"attributes":{"ID":649734,"DIS_CODE":0,"TOWNNAME":"新營區","LI":"忠政里","LIN":"18鄰","STREET":"中正路","SECT":" ","MAREA":" ","LANE":"１０７巷","ALLEY":"４０弄","HOUSE_NO":"３０號","E_COORD97":179956.735441,"N_COORD97":2579729.8543099998,"ADDRESS":"中正路１０７巷４０弄３０號","OBJECTID":649707},"geometry":{"x":179956.73544100206,"y":2579729.8543139994}},{"attributes":{"ID":649735,"DIS_CODE":0,"TOWNNAME":"新營區","LI":"忠政里","LIN":"18鄰","STREET":"中正路","SECT":" ","MAREA":" ","LANE":"１０７巷","ALLEY":"４０弄","HOUSE_NO":"３２號","E_COORD97":179956.09979400001,"N_COORD97":2579733.87598,"ADDRESS":"中正路１０７巷４０弄３２號","OBJECTID":649708},"geometry":{"x":179956.09979400132,"y":2579733.8759789988}},{"attributes":{"ID":649736,"DIS_CODE":0,"TOWNNAME":"新營區","LI":"延平里","LIN":"1鄰","STREET":"延平路","SECT":" ","MAREA":" ","LANE":" ","ALLEY":" ","HOUSE_NO":"４６之１８１號","E_COORD97":179687.21202800001,"N_COORD97":2577774.5970700001,"ADDRESS":"延平路４６之１８１號","OBJECTID":649709},"geometry":{"x":179687.21202799957,"y":2577774.5970710013}},{"attributes":{"ID":649737,"DIS_CODE":0,"TOWNNAME":"新營區","LI":"延平里","LIN":"1鄰","STREET":"延平路","SECT":" ","MAREA":" ","LANE":" ","ALLEY":" ","HOUSE_NO":"４６之１８２號","E_COORD97":179687.79481699999,"N_COORD97":2577769.91395,"ADDRESS":"延平路４６之１８２號","OBJECTID":649710},"geometry":{"x":179687.79481700063,"y":2577769.9139490034}},{"attributes":{"ID":649738,"DIS_CODE":0,"TOWNNAME":"仁德區","LI":"上崙里","LIN":"12鄰","STREET":"崑崙路","SECT":" ","MAREA":" ","LANE":" ","ALLEY":" ","HOUSE_NO":"８３９號","E_COORD97":174438.808602,"N_COORD97":2538039.0137100001,"ADDRESS":"崑崙路８３９號","OBJECTID":649711},"geometry":{"x":174438.80860200152,"y":2538039.0137150008}},{"attributes":{"ID":649739,"DIS_CODE":0,"TOWNNAME":"新化區","LI":"\u25A0拔里","LIN":"1鄰","STREET":" ","SECT":" ","MAREA":"\u25A0拔林","LANE":" ","ALLEY":" ","HOUSE_NO":"１號之６","E_COORD97":182572.98256,"N_COORD97":2551745.6973600001,"ADDRESS":"\u25A0拔林１號之６","OBJECTID":649712},"geometry":{"x":182572.98256000131,"y":2551745.6973600015}},{"attributes":{"ID":649740,"DIS_CODE":0,"TOWNNAME":"仁德區","LI":"上崙里","LIN":"12鄰","STREET":"崑崙路","SECT":" ","MAREA":" ","LANE":" ","ALLEY":" ","HOUSE_NO":"８８０號","E_COORD97":174681.19046499999,"N_COORD97":2538170.67031,"ADDRESS":"崑崙路８８０號","OBJECTID":649713},"geometry":{"x":174681.19046499953,"y":2538170.6703100037}},{"attributes":{"ID":649741,"DIS_CODE":0,"TOWNNAME":"新營區","LI":"延平里","LIN":"1鄰","STREET":"延平路","SECT":" ","MAREA":" ","LANE":" ","ALLEY":" ","HOUSE_NO":"４６之１８４號","E_COORD97":179694.04655599999,"N_COORD97":2577770.1785300002,"ADDRESS":"延平路４６之１８４號","OBJECTID":649714},"geometry":{"x":179694.04655599967,"y":2577770.1785320025}},{"attributes":{"ID":649742,"DIS_CODE":0,"TOWNNAME":"新營區","LI":"延平里","LIN":"1鄰","STREET":"延平路","SECT":" ","MAREA":" ","LANE":" ","ALLEY":" ","HOUSE_NO":"４６之１８５號","E_COORD97":179698.920793,"N_COORD97":2577770.28437,"ADDRESS":"延平路４６之１８５號","OBJECTID":649715},"geometry":{"x":179698.92079300061,"y":2577770.2843649983}},{"attributes":{"ID":649743,"DIS_CODE":0,"TOWNNAME":"下營區","LI":"茅港里","LIN":"3鄰","STREET":" ","SECT":" ","MAREA":"茅港尾","LANE":" ","ALLEY":" ","HOUSE_NO":"４８號","E_COORD97":176631.627741,"N_COORD97":2569889.60892,"ADDRESS":"茅港尾４８號","OBJECTID":649716},"geometry":{"x":176631.62774100062,"y":2569889.6089220028}},{"attributes":{"ID":649744,"DIS_CODE":0,"TOWNNAME":"安南區","LI":"安和里","LIN":"5鄰","STREET":"府安路","SECT":"三段","MAREA":" ","LANE":"２８９巷","ALLEY":"３３弄","HOUSE_NO":"１號","E_COORD97":169814.10848200001,"N_COORD97":2547791.0389700001,"ADDRESS":"府安路三段２８９巷３３弄１號","OBJECTID":649717},"geometry":{"x":169814.10848200135,"y":2547791.0389690008}},{"attributes":{"ID":649745,"DIS_CODE":0,"TOWNNAME":"新營區","LI":"忠政里","LIN":"18鄰","STREET":"中正路","SECT":" ","MAREA":" ","LANE":"１０７巷","ALLEY":"４０弄","HOUSE_NO":"６號","E_COORD97":179960.337439,"N_COORD97":2579704.1368300002,"ADDRESS":"中正路１０７巷４０弄６號","OBJECTID":649718},"geometry":{"x":179960.33743900154,"y":2579704.1368280016}},{"attributes":{"ID":649746,"DIS_CODE":0,"TOWNNAME":"新營區","LI":"延平里","LIN":"1鄰","STREET":"延平路","SECT":" ","MAREA":" ","LANE":" ","ALLEY":" ","HOUSE_NO":"４６之１８７號","E_COORD97":179704.74868399999,"N_COORD97":2577770.49603,"ADDRESS":"延平路４６之１８７號","OBJECTID":649719},"geometry":{"x":179704.74868400116,"y":2577770.4960319996}},{"attributes":{"ID":649747,"DIS_CODE":0,"TOWNNAME":"下營區","LI":"茅港里","LIN":"3鄰","STREET":" ","SECT":" ","MAREA":"茅港尾","LANE":" ","ALLEY":" ","HOUSE_NO":"５０之１號","E_COORD97":176639.467015,"N_COORD97":2569776.3673200002,"ADDRESS":"茅港尾５０之１號","OBJECTID":649720},"geometry":{"x":176639.46701500099,"y":2569776.3673170023}},{"attributes":{"ID":649748,"DIS_CODE":0,"TOWNNAME":"安南區","LI":"安和里","LIN":"5鄰","STREET":"府安路","SECT":"三段","MAREA":" ","LANE":"２８９巷","ALLEY":"３３弄","HOUSE_NO":"５號","E_COORD97":169808.39168900001,"N_COORD97":2547777.28064,"ADDRESS":"府安路三段２８９巷３３弄５號","OBJECTID":649721},"geometry":{"x":169808.39168900158,"y":2547777.2806429993}},{"attributes":{"ID":649749,"DIS_CODE":0,"TOWNNAME":"新化區","LI":"\u25A0拔里","LIN":"1鄰","STREET":" ","SECT":" ","MAREA":"\u25A0拔林","LANE":" ","ALLEY":" ","HOUSE_NO":"１５１號","E_COORD97":183870.69179000001,"N_COORD97":2552156.9654700002,"ADDRESS":"\u25A0拔林１５１號","OBJECTID":649722},"geometry":{"x":183870.69179000054,"y":2552156.965470003}},{"attributes":{"ID":649750,"DIS_CODE":0,"TOWNNAME":"安南區","LI":"安和里","LIN":"5鄰","STREET":"府安路","SECT":"三段","MAREA":" ","LANE":"２８９巷","ALLEY":"３３弄","HOUSE_NO":"７號","E_COORD97":169805.42742699999,"N_COORD97":2547768.8139800001,"ADDRESS":"府安路三段２８９巷３３弄７號","OBJECTID":649723},"geometry":{"x":169805.42742700037,"y":2547768.8139810003}},{"attributes":{"ID":649751,"DIS_CODE":0,"TOWNNAME":"安南區","LI":"安和里","LIN":"5鄰","STREET":"府安路","SECT":"三段","MAREA":" ","LANE":"２８９巷","ALLEY":"３３弄","HOUSE_NO":"９號","E_COORD97":169803.310096,"N_COORD97":2547759.0773200002,"ADDRESS":"府安路三段２８９巷３３弄９號","OBJECTID":649724},"geometry":{"x":169803.31009600032,"y":2547759.0773200002}},{"attributes":{"ID":649752,"DIS_CODE":0,"TOWNNAME":"新營區","LI":"延平里","LIN":"1鄰","STREET":"延平路","SECT":" ","MAREA":" ","LANE":" ","ALLEY":" ","HOUSE_NO":"４６號之１８８","E_COORD97":179704.96060799999,"N_COORD97":2577767.3739499999,"ADDRESS":"延平路４６號之１８８","OBJECTID":649725},"geometry":{"x":179704.96060799994,"y":2577767.3739500046}},{"attributes":{"ID":649753,"DIS_CODE":0,"TOWNNAME":"下營區","LI":"茅港里","LIN":"4鄰","STREET":" ","SECT":" ","MAREA":"茅港尾","LANE":" ","ALLEY":" ","HOUSE_NO":"５２號之７","E_COORD97":176967.86900999999,"N_COORD97":2569207.7251200001,"ADDRESS":"茅港尾５２號之７","OBJECTID":649726},"geometry":{"x":176967.86901000049,"y":2569207.7251200005}},{"attributes":{"ID":649754,"DIS_CODE":0,"TOWNNAME":"新營區","LI":"延平里","LIN":"1鄰","STREET":"延平路","SECT":" ","MAREA":" ","LANE":" ","ALLEY":" ","HOUSE_NO":"４６之１８９號","E_COORD97":179702.20560399999,"N_COORD97":2577767.3739499999,"ADDRESS":"延平路４６之１８９號","OBJECTID":649727},"geometry":{"x":179702.20560400002,"y":2577767.3739500046}},{"attributes":{"ID":649755,"DIS_CODE":0,"TOWNNAME":"新營區","LI":"延平里","LIN":"1鄰","STREET":"延平路","SECT":" ","MAREA":" ","LANE":" ","ALLEY":" ","HOUSE_NO":"４６之１９０號","E_COORD97":179699.13271599999,"N_COORD97":2577767.2681200001,"ADDRESS":"延平路４６之１９０號","OBJECTID":649728},"geometry":{"x":179699.13271600101,"y":2577767.2681170031}},{"attributes":{"ID":649756,"DIS_CODE":0,"TOWNNAME":"新營區","LI":"延平里","LIN":"1鄰","STREET":"延平路","SECT":" ","MAREA":" ","LANE":" ","ALLEY":" ","HOUSE_NO":"４６號之１９１","E_COORD97":179694.25847900001,"N_COORD97":2577767.05645,"ADDRESS":"延平路４６號之１９１","OBJECTID":649729},"geometry":{"x":179694.25847900007,"y":2577767.0564500019}},{"attributes":{"ID":649757,"DIS_CODE":0,"TOWNNAME":"新營區","LI":"延平里","LIN":"1鄰","STREET":"延平路","SECT":" ","MAREA":" ","LANE":" ","ALLEY":" ","HOUSE_NO":"４６之１９２號","E_COORD97":179690.86770599999,"N_COORD97":2577766.8447799999,"ADDRESS":"延平路４６之１９２號","OBJECTID":649730},"geometry":{"x":179690.86770599987,"y":2577766.844783999}},{"attributes":{"ID":649758,"DIS_CODE":0,"TOWNNAME":"新營區","LI":"延平里","LIN":"1鄰","STREET":"延平路","SECT":" ","MAREA":" ","LANE":" ","ALLEY":" ","HOUSE_NO":"４６之１９３號","E_COORD97":179687.90077899999,"N_COORD97":2577766.8447799999,"ADDRESS":"延平路４６之１９３號","OBJECTID":649731},"geometry":{"x":179687.90077899955,"y":2577766.844783999}},{"attributes":{"ID":649759,"DIS_CODE":0,"TOWNNAME":"楠西區","LI":"灣丘里","LIN":"13鄰","STREET":" ","SECT":" ","MAREA":"鳳興","LANE":" ","ALLEY":" ","HOUSE_NO":"１號","E_COORD97":198559.47038700001,"N_COORD97":2562759.9632299999,"ADDRESS":"鳳興１號","OBJECTID":649732},"geometry":{"x":198559.47038700059,"y":2562759.9632280003}},{"attributes":{"ID":649760,"DIS_CODE":0,"TOWNNAME":"新營區","LI":"延平里","LIN":"1鄰","STREET":"延平路","SECT":" ","MAREA":" ","LANE":" ","ALLEY":" ","HOUSE_NO":"４６之１９４號","E_COORD97":179688.11270200001,"N_COORD97":2577761.7647899999,"ADDRESS":"延平路４６之１９４號","OBJECTID":649733},"geometry":{"x":179688.11270199995,"y":2577761.7647869997}},{"attributes":{"ID":649761,"DIS_CODE":0,"TOWNNAME":"新營區","LI":"延平里","LIN":"1鄰","STREET":"延平路","SECT":" ","MAREA":" ","LANE":" ","ALLEY":" ","HOUSE_NO":"４６之１９５號","E_COORD97":179690.97366799999,"N_COORD97":2577762.0822899998,"ADDRESS":"延平路４６之１９５號","OBJECTID":649734},"geometry":{"x":179690.97366800066,"y":2577762.082286004}},{"attributes":{"ID":649762,"DIS_CODE":0,"TOWNNAME":"仁德區","LI":"上崙里","LIN":"12鄰","STREET":"崑崙路","SECT":" ","MAREA":" ","LANE":" ","ALLEY":" ","HOUSE_NO":"１０１５號","E_COORD97":174765.51562399999,"N_COORD97":2538328.1502299998,"ADDRESS":"崑崙路１０１５號","OBJECTID":649735},"geometry":{"x":174765.51562400069,"y":2538328.1502250042}},{"attributes":{"ID":649763,"DIS_CODE":0,"TOWNNAME":"新營區","LI":"延平里","LIN":"1鄰","STREET":"延平路","SECT":" ","MAREA":" ","LANE":" ","ALLEY":" ","HOUSE_NO":"４６之１９６號","E_COORD97":179694.25847900001,"N_COORD97":2577762.6114500002,"ADDRESS":"延平路４６之１９６號","OBJECTID":649736},"geometry":{"x":179694.25847900007,"y":2577762.6114530023}},{"attributes":{"ID":649764,"DIS_CODE":0,"TOWNNAME":"新營區","LI":"延平里","LIN":"1鄰","STREET":"延平路","SECT":" ","MAREA":" ","LANE":" ","ALLEY":" ","HOUSE_NO":"４６之１９７號","E_COORD97":179698.920793,"N_COORD97":2577762.8231199998,"ADDRESS":"延平路４６之１９７號","OBJECTID":649737},"geometry":{"x":179698.92079300061,"y":2577762.8231189996}},{"attributes":{"ID":649765,"DIS_CODE":0,"TOWNNAME":"新營區","LI":"延平里","LIN":"1鄰","STREET":"延平路","SECT":" ","MAREA":" ","LANE":" ","ALLEY":" ","HOUSE_NO":"４６之１９８號","E_COORD97":179701.357911,"N_COORD97":2577762.9289500001,"ADDRESS":"延平路４６之１９８號","OBJECTID":649738},"geometry":{"x":179701.35791100096,"y":2577762.9289529994}},{"attributes":{"ID":649766,"DIS_CODE":0,"TOWNNAME":"新營區","LI":"延平里","LIN":"1鄰","STREET":"延平路","SECT":" ","MAREA":" ","LANE":" ","ALLEY":" ","HOUSE_NO":"４６之１９９號","E_COORD97":179703.58310600001,"N_COORD97":2577763.0347899999,"ADDRESS":"延平路４６之１９９號","OBJECTID":649739},"geometry":{"x":179703.58310599998,"y":2577763.0347860008}},{"attributes":{"ID":649767,"DIS_CODE":0,"TOWNNAME":"楠西區","LI":"灣丘里","LIN":"13鄰","STREET":" ","SECT":" ","MAREA":"鳳興","LANE":" ","ALLEY":" ","HOUSE_NO":"１號之２","E_COORD97":98541.673228,"N_COORD97":2562795.7348799999,"ADDRESS":"鳳興１號之２","OBJECTID":649740},"geometry":{"x":98541.673228001222,"y":2562795.734875001}},{"attributes":{"ID":649768,"DIS_CODE":0,"TOWNNAME":"新營區","LI":"延平里","LIN":"1鄰","STREET":"延平路","SECT":" ","MAREA":" ","LANE":" ","ALLEY":" ","HOUSE_NO":"４６之２００號","E_COORD97":179705.70233900001,"N_COORD97":2577763.24645,"ADDRESS":"延平路４６之２００號","OBJECTID":649741},"geometry":{"x":179705.702339001,"y":2577763.2464520019}},{"attributes":{"ID":649769,"DIS_CODE":0,"TOWNNAME":"七股區","LI":"大埕里","LIN":"4鄰","STREET":" ","SECT":" ","MAREA":"大埕","LANE":" ","ALLEY":" ","HOUSE_NO":"１０號之１","E_COORD97":163115.049157,"N_COORD97":2561696.8289200002,"ADDRESS":"大埕１０號之１","OBJECTID":649742},"geometry":{"x":163115.04915700108,"y":2561696.8289219998}},{"attributes":{"ID":649770,"DIS_CODE":0,"TOWNNAME":"下營區","LI":"茅港里","LIN":"4鄰","STREET":" ","SECT":" ","MAREA":"茅港尾","LANE":" ","ALLEY":" ","HOUSE_NO":"５４號","E_COORD97":176787.35385000001,"N_COORD97":2569533.1624400001,"ADDRESS":"茅港尾５４號","OBJECTID":649743},"geometry":{"x":176787.35384999961,"y":2569533.1624400001}},{"attributes":{"ID":649771,"DIS_CODE":0,"TOWNNAME":"新營區","LI":"延平里","LIN":"1鄰","STREET":"延平路","SECT":" ","MAREA":" ","LANE":" ","ALLEY":" ","HOUSE_NO":"４６之２０１號","E_COORD97":179706.02022400001,"N_COORD97":2577759.1718700002,"ADDRESS":"延平路４６之２０１號","OBJECTID":649744},"geometry":{"x":179706.02022400033,"y":2577759.171870999}},{"attributes":{"ID":649772,"DIS_CODE":0,"TOWNNAME":"安南區","LI":"安和里","LIN":"5鄰","STREET":"府安路","SECT":"三段","MAREA":" ","LANE":"２８９巷","ALLEY":"３３弄","HOUSE_NO":"３號","E_COORD97":169811.33606999999,"N_COORD97":2547785.3040999998,"ADDRESS":"府安路三段２８９巷３３弄３號","OBJECTID":649745},"geometry":{"x":169811.33607000113,"y":2547785.3040960021}},{"attributes":{"ID":649773,"DIS_CODE":0,"TOWNNAME":"新營區","LI":"延平里","LIN":"1鄰","STREET":"延平路","SECT":" ","MAREA":" ","LANE":" ","ALLEY":" ","HOUSE_NO":"４６之２０２號","E_COORD97":179703.37118300001,"N_COORD97":2577759.2777,"ADDRESS":"延平路４６之２０２號","OBJECTID":649746},"geometry":{"x":179703.3711830005,"y":2577759.2777049989}},{"attributes":{"ID":649774,"DIS_CODE":0,"TOWNNAME":"新營區","LI":"延平里","LIN":"1鄰","STREET":"延平路","SECT":" ","MAREA":" ","LANE":" ","ALLEY":" ","HOUSE_NO":"４６之２０３號","E_COORD97":179701.040026,"N_COORD97":2577759.3835399998,"ADDRESS":"延平路４６之２０３號","OBJECTID":649747},"geometry":{"x":179701.04002599977,"y":2577759.3835380003}},{"attributes":{"ID":649775,"DIS_CODE":0,"TOWNNAME":"新營區","LI":"延平里","LIN":"1鄰","STREET":"延平路","SECT":" ","MAREA":" ","LANE":" ","ALLEY":" ","HOUSE_NO":"４６之２０４號","E_COORD97":179698.920793,"N_COORD97":2577759.1718700002,"ADDRESS":"延平路４６之２０４號","OBJECTID":649748},"geometry":{"x":179698.92079300061,"y":2577759.171870999}},{"attributes":{"ID":649776,"DIS_CODE":0,"TOWNNAME":"新營區","LI":"延平里","LIN":"1鄰","STREET":"延平路","SECT":" ","MAREA":" ","LANE":" ","ALLEY":" ","HOUSE_NO":"４６之２０５號","E_COORD97":179694.57636400001,"N_COORD97":2577758.1135399998,"ADDRESS":"延平路４６之２０５號","OBJECTID":649749},"geometry":{"x":179694.57636400033,"y":2577758.1135389991}},{"attributes":{"ID":649777,"DIS_CODE":0,"TOWNNAME":"楠西區","LI":"灣丘里","LIN":"14鄰","STREET":" ","SECT":" ","MAREA":"鳳興","LANE":" ","ALLEY":" ","HOUSE_NO":"２３號","E_COORD97":198666.67775,"N_COORD97":2562655.5057799998,"ADDRESS":"鳳興２３號","OBJECTID":649750},"geometry":{"x":198666.67775000166,"y":2562655.5057839975}},{"attributes":{"ID":649778,"DIS_CODE":0,"TOWNNAME":"新化區","LI":"豐榮里","LIN":"4鄰","STREET":" ","SECT":" ","MAREA":"洋子","LANE":" ","ALLEY":" ","HOUSE_NO":"６３號","E_COORD97":178025.51214800001,"N_COORD97":2548317.8256000001,"ADDRESS":"洋子６３號","OBJECTID":649751},"geometry":{"x":178025.51214800123,"y":2548317.8256010022}},{"attributes":{"ID":649779,"DIS_CODE":0,"TOWNNAME":"安南區","LI":"安和里","LIN":"5鄰","STREET":"府安路","SECT":"三段","MAREA":" ","LANE":"２８９巷","ALLEY":"３３弄","HOUSE_NO":"２號","E_COORD97":169800.74941799999,"N_COORD97":2547795.0407599998,"ADDRESS":"府安路三段２８９巷３３弄２號","OBJECTID":649752},"geometry":{"x":169800.74941799976,"y":2547795.0407580007}},{"attributes":{"ID":649780,"DIS_CODE":0,"TOWNNAME":"安南區","LI":"安和里","LIN":"5鄰","STREET":"府安路","SECT":"三段","MAREA":" ","LANE":"２８９巷","ALLEY":"３３弄","HOUSE_NO":"６號","E_COORD97":169798.84382000001,"N_COORD97":2547787.4207600001,"ADDRESS":"府安路三段２８９巷３３弄６號","OBJECTID":649753},"geometry":{"x":169798.84382000007,"y":2547787.4207620025}},{"attributes":{"ID":649781,"DIS_CODE":0,"TOWNNAME":"安南區","LI":"安和里","LIN":"5鄰","STREET":"府安路","SECT":"三段","MAREA":" ","LANE":"２８９巷","ALLEY":"３３弄","HOUSE_NO":"８號","E_COORD97":169796.514757,"N_COORD97":2547778.3191,"ADDRESS":"府安路三段２８９巷３３弄８號","OBJECTID":649754},"geometry":{"x":169796.51475699991,"y":2547778.3191000037}},{"attributes":{"ID":649782,"DIS_CODE":0,"TOWNNAME":"安南區","LI":"安和里","LIN":"5鄰","STREET":"府安路","SECT":"三段","MAREA":" ","LANE":"２８９巷","ALLEY":"３３弄","HOUSE_NO":"１０號","E_COORD97":169793.33876099999,"N_COORD97":2547770.91077,"ADDRESS":"府安路三段２８９巷３３弄１０號","OBJECTID":649755},"geometry":{"x":169793.33876099903,"y":2547770.9107710011}},{"attributes":{"ID":649783,"DIS_CODE":0,"TOWNNAME":"北門區","LI":"鯤江里","LIN":"3鄰","STREET":" ","SECT":" ","MAREA":"蚵寮","LANE":" ","ALLEY":" ","HOUSE_NO":"８２８號","E_COORD97":161700.33036600001,"N_COORD97":2576114.32669,"ADDRESS":"蚵寮８２８號","OBJECTID":649756},"geometry":{"x":161700.3303659996,"y":2576114.3266930021}},{"attributes":{"ID":649784,"DIS_CODE":0,"TOWNNAME":"安南區","LI":"安和里","LIN":"5鄰","STREET":"府安路","SECT":"三段","MAREA":" ","LANE":"２８９巷","ALLEY":"３３弄","HOUSE_NO":"１２號","E_COORD97":169791.22143100001,"N_COORD97":2547763.9257700001,"ADDRESS":"府安路三段２８９巷３３弄１２號","OBJECTID":649757},"geometry":{"x":169791.22143100109,"y":2547763.9257750027}},{"attributes":{"ID":649785,"DIS_CODE":0,"TOWNNAME":"安南區","LI":"安和里","LIN":"5鄰","STREET":"府安路","SECT":"三段","MAREA":" ","LANE":"２８９巷","ALLEY":"３３弄","HOUSE_NO":"１６號","E_COORD97":169789.315833,"N_COORD97":2547755.6707799998,"ADDRESS":"府安路三段２８９巷３３弄１６號","OBJECTID":649758},"geometry":{"x":169789.3158330014,"y":2547755.6707790028}},{"attributes":{"ID":649786,"DIS_CODE":0,"TOWNNAME":"下營區","LI":"茅港里","LIN":"4鄰","STREET":" ","SECT":" ","MAREA":"茅港尾","LANE":" ","ALLEY":" ","HOUSE_NO":"５４號之１１","E_COORD97":176997.10738,"N_COORD97":2569539.8299400001,"ADDRESS":"茅港尾５４號之１１","OBJECTID":649759},"geometry":{"x":176997.10738000087,"y":2569539.8299400024}},{"attributes":{"ID":649787,"DIS_CODE":0,"TOWNNAME":"新化區","LI":"豐榮里","LIN":"7鄰","STREET":"大智路","SECT":" ","MAREA":" ","LANE":" ","ALLEY":" ","HOUSE_NO":"２３７號","E_COORD97":177958.74143200001,"N_COORD97":2547994.6107800002,"ADDRESS":"大智路２３７號","OBJECTID":649760},"geometry":{"x":177958.74143200088,"y":2547994.6107760035}},{"attributes":{"ID":649788,"DIS_CODE":0,"TOWNNAME":"七股區","LI":"大埕里","LIN":"4鄰","STREET":" ","SECT":" ","MAREA":"大埕","LANE":" ","ALLEY":" ","HOUSE_NO":"１０號之３","E_COORD97":162835.021725,"N_COORD97":2561601.5789700001,"ADDRESS":"大埕１０號之３","OBJECTID":649761},"geometry":{"x":162835.02172500081,"y":2561601.5789730027}},{"attributes":{"ID":649789,"DIS_CODE":0,"TOWNNAME":"楠西區","LI":"灣丘里","LIN":"14鄰","STREET":" ","SECT":" ","MAREA":"鳳興","LANE":" ","ALLEY":" ","HOUSE_NO":"２５號之１","E_COORD97":198688.94714999999,"N_COORD97":2562611.1160599999,"ADDRESS":"鳳興２５號之１","OBJECTID":649762},"geometry":{"x":198688.94715000037,"y":2562611.1160600018}},{"attributes":{"ID":649790,"DIS_CODE":0,"TOWNNAME":"安南區","LI":"安和里","LIN":"6鄰","STREET":"府安路","SECT":"三段","MAREA":" ","LANE":"２８９巷","ALLEY":"３９弄","HOUSE_NO":"１號","E_COORD97":169788.46890099999,"N_COORD97":2547799.48575,"ADDRESS":"府安路三段２８９巷３９弄１號","OBJECTID":649763},"geometry":{"x":169788.46890100092,"y":2547799.4857550003}},{"attributes":{"ID":649791,"DIS_CODE":0,"TOWNNAME":"安南區","LI":"安和里","LIN":"6鄰","STREET":"府安路","SECT":"三段","MAREA":" ","LANE":"２８９巷","ALLEY":"３９弄","HOUSE_NO":"３號","E_COORD97":169785.08117200001,"N_COORD97":2547790.1724299998,"ADDRESS":"府安路三段２８９巷３９弄３號","OBJECTID":649764},"geometry":{"x":169785.08117200062,"y":2547790.1724270042}},{"attributes":{"ID":649792,"DIS_CODE":0,"TOWNNAME":"安南區","LI":"安和里","LIN":"6鄰","STREET":"府安路","SECT":"三段","MAREA":" ","LANE":"２８９巷","ALLEY":"３９弄","HOUSE_NO":"５號","E_COORD97":169783.387308,"N_COORD97":2547783.6107600001,"ADDRESS":"府安路三段２８９巷３９弄５號","OBJECTID":649765},"geometry":{"x":169783.38730800059,"y":2547783.6107640024}},{"attributes":{"ID":649793,"DIS_CODE":0,"TOWNNAME":"新營區","LI":"延平里","LIN":"1鄰","STREET":"延平路","SECT":" ","MAREA":" ","LANE":" ","ALLEY":" ","HOUSE_NO":"４６之２１４號","E_COORD97":179706.38312899999,"N_COORD97":2577755.7878700001,"ADDRESS":"延平路４６之２１４號","OBJECTID":649766},"geometry":{"x":179706.38312899973,"y":2577755.7878730018}},{"attributes":{"ID":649794,"DIS_CODE":0,"TOWNNAME":"七股區","LI":"大埕里","LIN":"4鄰","STREET":" ","SECT":" ","MAREA":"大埕","LANE":" ","ALLEY":" ","HOUSE_NO":"１０８號之１","E_COORD97":162839.68531599999,"N_COORD97":2561296.9907999998,"ADDRESS":"大埕１０８號之１","OBJECTID":649767},"geometry":{"x":162839.68531600107,"y":2561296.9908040017}},{"attributes":{"ID":649795,"DIS_CODE":0,"TOWNNAME":"安南區","LI":"安和里","LIN":"6鄰","STREET":"府安路","SECT":"三段","MAREA":" ","LANE":"２８９巷","ALLEY":"３９弄","HOUSE_NO":"７號","E_COORD97":169779.999579,"N_COORD97":2547775.5674399999,"ADDRESS":"府安路三段２８９巷３９弄７號","OBJECTID":649768},"geometry":{"x":169779.99957900029,"y":2547775.567435002}},{"attributes":{"ID":649796,"DIS_CODE":0,"TOWNNAME":"仁德區","LI":"後壁里","LIN":"7鄰","STREET":"德善二街","SECT":" ","MAREA":" ","LANE":" ","ALLEY":" ","HOUSE_NO":"４１號","E_COORD97":173606.51684299999,"N_COORD97":2538968.1122300001,"ADDRESS":"德善二街４１號","OBJECTID":649769},"geometry":{"x":173606.51684300136,"y":2538968.1122319996}},{"attributes":{"ID":649797,"DIS_CODE":0,"TOWNNAME":"安南區","LI":"安和里","LIN":"6鄰","STREET":"府安路","SECT":"三段","MAREA":" ","LANE":"２８９巷","ALLEY":"３９弄","HOUSE_NO":"９號","E_COORD97":169778.09398199999,"N_COORD97":2547767.31244,"ADDRESS":"府安路三段２８９巷３９弄９號","OBJECTID":649770},"geometry":{"x":169778.0939819999,"y":2547767.312439004}},{"attributes":{"ID":649798,"DIS_CODE":0,"TOWNNAME":"仁德區","LI":"上崙里","LIN":"12鄰","STREET":"德崙路","SECT":" ","MAREA":" ","LANE":"５３９巷","ALLEY":" ","HOUSE_NO":"１３８號","E_COORD97":174660.21511200001,"N_COORD97":2537662.8822499998,"ADDRESS":"德崙路５３９巷１３８號","OBJECTID":649771},"geometry":{"x":174660.21511199977,"y":2537662.8822510019}},{"attributes":{"ID":649799,"DIS_CODE":0,"TOWNNAME":"新化區","LI":"中央里","LIN":"1鄰","STREET":"大同街","SECT":" ","MAREA":" ","LANE":"１２９巷","ALLEY":" ","HOUSE_NO":"２１號","E_COORD97":178855.82801900001,"N_COORD97":2548337.0192,"ADDRESS":"大同街１２９巷２１號","OBJECTID":649772},"geometry":{"x":178855.82801900059,"y":2548337.0192020014}},{"attributes":{"ID":649800,"DIS_CODE":0,"TOWNNAME":"安南區","LI":"安和里","LIN":"6鄰","STREET":"府安路","SECT":"三段","MAREA":" ","LANE":"２８９巷","ALLEY":"３９弄","HOUSE_NO":"１１號","E_COORD97":169775.553185,"N_COORD97":2547758.4224399999,"ADDRESS":"府安路三段２８９巷３９弄１１號","OBJECTID":649773},"geometry":{"x":169775.55318500008,"y":2547758.4224440008}},{"attributes":{"ID":649801,"DIS_CODE":0,"TOWNNAME":"安南區","LI":"安和里","LIN":"6鄰","STREET":"府安路","SECT":"三段","MAREA":" ","LANE":"２８９巷","ALLEY":" ","HOUSE_NO":"５０號","E_COORD97":169796.938223,"N_COORD97":2547821.49908,"ADDRESS":"府安路三段２８９巷５０號","OBJECTID":649774},"geometry":{"x":169796.93822299968,"y":2547821.4990769997}},{"attributes":{"ID":649802,"DIS_CODE":0,"TOWNNAME":"仁德區","LI":"後壁里","LIN":"7鄰","STREET":"德善二街","SECT":" ","MAREA":" ","LANE":" ","ALLEY":" ","HOUSE_NO":"３７號","E_COORD97":173579.62581,"N_COORD97":2538984.4105600002,"ADDRESS":"德善二街３７號","OBJECTID":649775},"geometry":{"x":173579.62581000011,"y":2538984.410557}},{"attributes":{"ID":649803,"DIS_CODE":0,"TOWNNAME":"安南區","LI":"安和里","LIN":"6鄰","STREET":"府安路","SECT":"三段","MAREA":" ","LANE":"２８９巷","ALLEY":"５２弄","HOUSE_NO":"２號","E_COORD97":169799.05555300001,"N_COORD97":2547831.0240699998,"ADDRESS":"府安路三段２８９巷５２弄２號","OBJECTID":649776},"geometry":{"x":169799.05555300042,"y":2547831.0240719989}},{"attributes":{"ID":649804,"DIS_CODE":0,"TOWNNAME":"安南區","LI":"安和里","LIN":"6鄰","STREET":"府安路","SECT":"三段","MAREA":" ","LANE":"２８９巷","ALLEY":"５２弄","HOUSE_NO":"６號","E_COORD97":169802.23154899999,"N_COORD97":2547840.12573,"ADDRESS":"府安路三段２８９巷５２弄６號","OBJECTID":649777},"geometry":{"x":169802.23154900037,"y":2547840.1257329993}},{"attributes":{"ID":649805,"DIS_CODE":0,"TOWNNAME":"新營區","LI":"延平里","LIN":"1鄰","STREET":"延平路","SECT":" ","MAREA":" ","LANE":" ","ALLEY":" ","HOUSE_NO":"４６之２１３號","E_COORD97":179703.52216399999,"N_COORD97":2577755.7878700001,"ADDRESS":"延平路４６之２１３號","OBJECTID":649778},"geometry":{"x":179703.5221640002,"y":2577755.7878730018}},{"attributes":{"ID":649806,"DIS_CODE":0,"TOWNNAME":"安南區","LI":"安和里","LIN":"6鄰","STREET":"府安路","SECT":"三段","MAREA":" ","LANE":"２８９巷","ALLEY":"５２弄","HOUSE_NO":"８號","E_COORD97":169803.71367999999,"N_COORD97":2547847.53406,"ADDRESS":"府安路三段２８９巷５２弄８號","OBJECTID":649779},"geometry":{"x":169803.71368000098,"y":2547847.5340630002}},{"attributes":{"ID":649807,"DIS_CODE":0,"TOWNNAME":"仁德區","LI":"後壁里","LIN":"10鄰","STREET":"德善二街","SECT":" ","MAREA":" ","LANE":" ","ALLEY":" ","HOUSE_NO":"３４號","E_COORD97":173611.81035300001,"N_COORD97":2538951.6022399999,"ADDRESS":"德善二街３４號","OBJECTID":649780},"geometry":{"x":173611.81035299972,"y":2538951.602241002}},{"attributes":{"ID":649808,"DIS_CODE":0,"TOWNNAME":"新營區","LI":"延平里","LIN":"1鄰","STREET":"延平路","SECT":" ","MAREA":" ","LANE":" ","ALLEY":" ","HOUSE_NO":"４６之２１２號","E_COORD97":179701.19100699999,"N_COORD97":2577755.5762100001,"ADDRESS":"延平路４６之２１２號","OBJECTID":649781},"geometry":{"x":179701.19100700039,"y":2577755.5762060024}},{"attributes":{"ID":649809,"DIS_CODE":0,"TOWNNAME":"安南區","LI":"安和里","LIN":"6鄰","STREET":"府安路","SECT":"三段","MAREA":" ","LANE":"２８９巷","ALLEY":"５２弄","HOUSE_NO":"１０號","E_COORD97":169807.524875,"N_COORD97":2547855.5773900002,"ADDRESS":"府安路三段２８９巷５２弄１０號","OBJECTID":649782},"geometry":{"x":169807.52487500105,"y":2547855.5773920007}},{"attributes":{"ID":649810,"DIS_CODE":0,"TOWNNAME":"新營區","LI":"延平里","LIN":"1鄰","STREET":"延平路","SECT":" ","MAREA":" ","LANE":" ","ALLEY":" ","HOUSE_NO":"４６之２１１號","E_COORD97":179698.96581200001,"N_COORD97":2577755.6820399999,"ADDRESS":"延平路４６之２１１號","OBJECTID":649783},"geometry":{"x":179698.96581200045,"y":2577755.682039002}},{"attributes":{"ID":649811,"DIS_CODE":0,"TOWNNAME":"仁德區","LI":"上崙里","LIN":"12鄰","STREET":"德崙路","SECT":" ","MAREA":" ","LANE":"５３９巷","ALLEY":" ","HOUSE_NO":"６８號","E_COORD97":174596.01781700001,"N_COORD97":2537779.51052,"ADDRESS":"德崙路５３９巷６８號","OBJECTID":649784},"geometry":{"x":174596.01781700179,"y":2537779.5105220024}},{"attributes":{"ID":649812,"DIS_CODE":0,"TOWNNAME":"安南區","LI":"安和里","LIN":"6鄰","STREET":"府安路","SECT":"三段","MAREA":" ","LANE":"２８９巷","ALLEY":"５２弄","HOUSE_NO":"１２號","E_COORD97":169809.218739,"N_COORD97":2547863.8323900001,"ADDRESS":"府安路三段２８９巷５２弄１２號","OBJECTID":649785},"geometry":{"x":169809.21873900108,"y":2547863.8323870003}},{"attributes":{"ID":649813,"DIS_CODE":0,"TOWNNAME":"新營區","LI":"延平里","LIN":"1鄰","STREET":"延平路","SECT":" ","MAREA":" ","LANE":" ","ALLEY":" ","HOUSE_NO":"４６之２１０號","E_COORD97":179694.727346,"N_COORD97":2577755.6820399999,"ADDRESS":"延平路４６之２１０號","OBJECTID":649786},"geometry":{"x":179694.72734600026,"y":2577755.682039002}},{"attributes":{"ID":649814,"DIS_CODE":0,"TOWNNAME":"安南區","LI":"安和里","LIN":"6鄰","STREET":"府安路","SECT":"三段","MAREA":" ","LANE":"２８９巷","ALLEY":"５２弄","HOUSE_NO":"１６號","E_COORD97":169811.12433699999,"N_COORD97":2547872.29905,"ADDRESS":"府安路三段２８９巷５２弄１６號","OBJECTID":649787},"geometry":{"x":169811.12433700077,"y":2547872.2990490012}},{"attributes":{"ID":649815,"DIS_CODE":0,"TOWNNAME":"新營區","LI":"延平里","LIN":"1鄰","STREET":"延平路","SECT":" ","MAREA":" ","LANE":" ","ALLEY":" ","HOUSE_NO":"４６之２０９號","E_COORD97":179691.336572,"N_COORD97":2577755.2587100002,"ADDRESS":"延平路４６之２０９號","OBJECTID":649788},"geometry":{"x":179691.33657200076,"y":2577755.2587059997}},{"attributes":{"ID":649816,"DIS_CODE":0,"TOWNNAME":"新營區","LI":"延平里","LIN":"1鄰","STREET":"延平路","SECT":" ","MAREA":" ","LANE":" ","ALLEY":" ","HOUSE_NO":"４６之２０９號","E_COORD97":179691.336572,"N_COORD97":2577755.2587100002,"ADDRESS":"延平路４６之２０９號","OBJECTID":649789},"geometry":{"x":179691.33657200076,"y":2577755.2587059997}},{"attributes":{"ID":649817,"DIS_CODE":0,"TOWNNAME":"仁德區","LI":"上崙里","LIN":"12鄰","STREET":"德崙路","SECT":" ","MAREA":" ","LANE":"５３９巷","ALLEY":" ","HOUSE_NO":"７０號","E_COORD97":174587.119183,"N_COORD97":2537774.64219,"ADDRESS":"德崙路５３９巷７０號","OBJECTID":649790},"geometry":{"x":174587.11918300018,"y":2537774.6421910003}},{"attributes":{"ID":649818,"DIS_CODE":0,"TOWNNAME":"安南區","LI":"安和里","LIN":"6鄰","STREET":"府安路","SECT":"三段","MAREA":" ","LANE":"２８９巷","ALLEY":"５２弄","HOUSE_NO":"１８號","E_COORD97":169813.665133,"N_COORD97":2547880.5540499999,"ADDRESS":"府安路三段２８９巷５２弄１８號","OBJECTID":649791},"geometry":{"x":169813.66513300128,"y":2547880.5540449992}},{"attributes":{"ID":649819,"DIS_CODE":0,"TOWNNAME":"新營區","LI":"延平里","LIN":"1鄰","STREET":"延平路","SECT":" ","MAREA":" ","LANE":" ","ALLEY":" ","HOUSE_NO":"４６之２０８號","E_COORD97":179688.793492,"N_COORD97":2577754.9412099998,"ADDRESS":"延平路４６之２０８號","OBJECTID":649792},"geometry":{"x":179688.79349200055,"y":2577754.9412060026}},{"attributes":{"ID":649820,"DIS_CODE":0,"TOWNNAME":"安南區","LI":"安和里","LIN":"6鄰","STREET":"府安路","SECT":"三段","MAREA":" ","LANE":"２８９巷","ALLEY":"５２弄","HOUSE_NO":"２０號","E_COORD97":169816.20593,"N_COORD97":2547890.0790400002,"ADDRESS":"府安路三段２８９巷５２弄２０號","OBJECTID":649793},"geometry":{"x":169816.20593000203,"y":2547890.0790400021}},{"attributes":{"ID":649821,"DIS_CODE":0,"TOWNNAME":"仁德區","LI":"上崙里","LIN":"12鄰","STREET":"德崙路","SECT":" ","MAREA":" ","LANE":"５３９巷","ALLEY":" ","HOUSE_NO":"７２號","E_COORD97":174578.64429200001,"N_COORD97":2537769.56219,"ADDRESS":"德崙路５３９巷７２號","OBJECTID":649794},"geometry":{"x":174578.64429200068,"y":2537769.5621940009}},{"attributes":{"ID":649822,"DIS_CODE":0,"TOWNNAME":"安南區","LI":"安和里","LIN":"6鄰","STREET":"府安路","SECT":"三段","MAREA":" ","LANE":"２８９巷","ALLEY":"５２弄","HOUSE_NO":"２２號","E_COORD97":169817.68806099999,"N_COORD97":2547896.85237,"ADDRESS":"府安路三段２８９巷５２弄２２號","OBJECTID":649795},"geometry":{"x":169817.68806099985,"y":2547896.8523699995}},{"attributes":{"ID":649823,"DIS_CODE":0,"TOWNNAME":"新營區","LI":"延平里","LIN":"1鄰","STREET":"新進路","SECT":"二段","MAREA":" ","LANE":" ","ALLEY":" ","HOUSE_NO":"４０號","E_COORD97":179685.614642,"N_COORD97":2577753.1420399998,"ADDRESS":"新進路二段４０號","OBJECTID":649796},"geometry":{"x":179685.61464199983,"y":2577753.1420410033}},{"attributes":{"ID":649824,"DIS_CODE":0,"TOWNNAME":"安南區","LI":"安和里","LIN":"6鄰","STREET":"府安路","SECT":"三段","MAREA":" ","LANE":"２８９巷","ALLEY":"５２弄","HOUSE_NO":"２６號","E_COORD97":169820.44059099999,"N_COORD97":2547906.3773599998,"ADDRESS":"府安路三段２８９巷５２弄２６號","OBJECTID":649797},"geometry":{"x":169820.44059100002,"y":2547906.3773640022}},{"attributes":{"ID":649825,"DIS_CODE":0,"TOWNNAME":"安南區","LI":"安和里","LIN":"6鄰","STREET":"府安路","SECT":"三段","MAREA":" ","LANE":"２８９巷","ALLEY":"５２弄","HOUSE_NO":"２８號","E_COORD97":169822.98138700001,"N_COORD97":2547915.2673599999,"ADDRESS":"府安路三段２８９巷５２弄２８號","OBJECTID":649798},"geometry":{"x":169822.98138700053,"y":2547915.2673599999}},{"attributes":{"ID":649826,"DIS_CODE":0,"TOWNNAME":"新營區","LI":"延平里","LIN":"1鄰","STREET":"新進路","SECT":"二段","MAREA":" ","LANE":" ","ALLEY":" ","HOUSE_NO":"４２號","E_COORD97":179681.05828999999,"N_COORD97":2577753.2478700001,"ADDRESS":"新進路二段４２號","OBJECTID":649799},"geometry":{"x":179681.05829000007,"y":2577753.2478739992}},{"attributes":{"ID":649827,"DIS_CODE":0,"TOWNNAME":"楠西區","LI":"灣丘里","LIN":"15鄰","STREET":" ","SECT":" ","MAREA":"鳳興","LANE":" ","ALLEY":" ","HOUSE_NO":"３３號之１","E_COORD97":198761.19558999999,"N_COORD97":2562681.6238099998,"ADDRESS":"鳳興３３號之１","OBJECTID":649800},"geometry":{"x":198761.19558999967,"y":2562681.6238130014}}]}