{"displayFieldName":"TOWNNAME","fieldAliases":{"ID":"ID","DIS_CODE":"DIS_CODE","TOWNNAME":"TOWNNAME","LI":"LI","LIN":"LIN","STREET":"STREET","SECT":"SECT","MAREA":"MAREA","LANE":"LANE","ALLEY":"ALLEY","HOUSE_NO":"HOUSE_NO","E_COORD97":"E_COORD97","N_COORD97":"N_COORD97","ADDRESS":"ADDRESS","OBJECTID":"OBJECTID"},"geometryType":"esriGeometryPoint","spatialReference":{"wkid":102443,"latestWkid":3826},"fields":[{"name":"ID","type":"esriFieldTypeDouble","alias":"ID"},{"name":"DIS_CODE","type":"esriFieldTypeInteger","alias":"DIS_CODE"},{"name":"TOWNNAME","type":"esriFieldTypeString","alias":"TOWNNAME","length":8},{"name":"LI","type":"esriFieldTypeString","alias":"LI","length":8},{"name":"LIN","type":"esriFieldTypeString","alias":"LIN","length":12},{"name":"STREET","type":"esriFieldTypeString","alias":"STREET","length":20},{"name":"SECT","type":"esriFieldTypeString","alias":"SECT","length":8},{"name":"MAREA","type":"esriFieldTypeString","alias":"MAREA","length":12},{"name":"LANE","type":"esriFieldTypeString","alias":"LANE","length":10},{"name":"ALLEY","type":"esriFieldTypeString","alias":"ALLEY","length":10},{"name":"HOUSE_NO","type":"esriFieldTypeString","alias":"HOUSE_NO","length":20},{"name":"E_COORD97","type":"esriFieldTypeDouble","alias":"E_COORD97"},{"name":"N_COORD97","type":"esriFieldTypeDouble","alias":"N_COORD97"},{"name":"ADDRESS","type":"esriFieldTypeString","alias":"ADDRESS","length":50},{"name":"OBJECTID","type":"esriFieldTypeOID","alias":"OBJECTID"}],"features":[{"attributes":{"ID":583428,"DIS_CODE":0,"TOWNNAME":"中西區","LI":"萬昌里","LIN":"16鄰","STREET":"青年路","SECT":" ","MAREA":" ","LANE":" ","ALLEY":" ","HOUSE_NO":"１１４號","E_COORD97":168872.35999999999,"N_COORD97":2543599.79,"ADDRESS":"青年路１１４號","OBJECTID":583401},"geometry":{"x":168872.3600000022,"y":2543599.7899999991}},{"attributes":{"ID":583429,"DIS_CODE":0,"TOWNNAME":"中西區","LI":"萬昌里","LIN":"16鄰","STREET":"青年路","SECT":" ","MAREA":" ","LANE":" ","ALLEY":" ","HOUSE_NO":"１１６號","E_COORD97":168877.82000000001,"N_COORD97":2543599.9199999999,"ADDRESS":"青年路１１６號","OBJECTID":583402},"geometry":{"x":168877.82000000123,"y":2543599.9199999999}},{"attributes":{"ID":583430,"DIS_CODE":0,"TOWNNAME":"中西區","LI":"公正里","LIN":"16鄰","STREET":"西華南街","SECT":" ","MAREA":" ","LANE":" ","ALLEY":" ","HOUSE_NO":"９號","E_COORD97":168930.95000000001,"N_COORD97":2543758.6899999999,"ADDRESS":"西華南街９號","OBJECTID":583403},"geometry":{"x":168930.95000000205,"y":2543758.6900000013}},{"attributes":{"ID":583431,"DIS_CODE":0,"TOWNNAME":"中西區","LI":"萬昌里","LIN":"16鄰","STREET":"青年路","SECT":" ","MAREA":" ","LANE":" ","ALLEY":" ","HOUSE_NO":"１１８號","E_COORD97":168882.67000000001,"N_COORD97":2543599.4199999999,"ADDRESS":"青年路１１８號","OBJECTID":583404},"geometry":{"x":168882.66999999993,"y":2543599.4199999999}},{"attributes":{"ID":583432,"DIS_CODE":0,"TOWNNAME":"中西區","LI":"萬昌里","LIN":"16鄰","STREET":"青年路","SECT":" ","MAREA":" ","LANE":" ","ALLEY":" ","HOUSE_NO":"１２０號","E_COORD97":168885.89000000001,"N_COORD97":2543598.6800000002,"ADDRESS":"青年路１２０號","OBJECTID":583405},"geometry":{"x":168885.88999999966,"y":2543598.6799999978}},{"attributes":{"ID":583433,"DIS_CODE":0,"TOWNNAME":"中西區","LI":"萬昌里","LIN":"16鄰","STREET":"青年路","SECT":" ","MAREA":" ","LANE":" ","ALLEY":" ","HOUSE_NO":"１２２號","E_COORD97":168890.60999999999,"N_COORD97":2543597.0600000001,"ADDRESS":"青年路１２２號","OBJECTID":583406},"geometry":{"x":168890.61000000034,"y":2543597.0599999987}},{"attributes":{"ID":583434,"DIS_CODE":0,"TOWNNAME":"中西區","LI":"萬昌里","LIN":"16鄰","STREET":"青年路","SECT":" ","MAREA":" ","LANE":" ","ALLEY":" ","HOUSE_NO":"１２４號","E_COORD97":168894.82999999999,"N_COORD97":2543595.8199999998,"ADDRESS":"青年路１２４號","OBJECTID":583407},"geometry":{"x":168894.83000000101,"y":2543595.8200000022}},{"attributes":{"ID":583435,"DIS_CODE":0,"TOWNNAME":"中西區","LI":"萬昌里","LIN":"16鄰","STREET":"青年路","SECT":" ","MAREA":" ","LANE":" ","ALLEY":" ","HOUSE_NO":"１２６號","E_COORD97":168898.79999999999,"N_COORD97":2543595.2000000002,"ADDRESS":"青年路１２６號","OBJECTID":583408},"geometry":{"x":168898.79999999981,"y":2543595.2000000011}},{"attributes":{"ID":583436,"DIS_CODE":0,"TOWNNAME":"中西區","LI":"萬昌里","LIN":"16鄰","STREET":"青年路","SECT":" ","MAREA":" ","LANE":" ","ALLEY":" ","HOUSE_NO":"１２８號","E_COORD97":168902.92000000001,"N_COORD97":2543592.29,"ADDRESS":"青年路１２８號","OBJECTID":583409},"geometry":{"x":168902.91999999993,"y":2543592.290000001}},{"attributes":{"ID":583437,"DIS_CODE":0,"TOWNNAME":"中西區","LI":"萬昌里","LIN":"16鄰","STREET":"青年路","SECT":" ","MAREA":" ","LANE":" ","ALLEY":" ","HOUSE_NO":"１３０號","E_COORD97":168913.01999999999,"N_COORD97":2543583.8399999999,"ADDRESS":"青年路１３０號","OBJECTID":583410},"geometry":{"x":168913.02000000048,"y":2543583.8399999999}},{"attributes":{"ID":583438,"DIS_CODE":0,"TOWNNAME":"中西區","LI":"萬昌里","LIN":"16鄰","STREET":"城隍街","SECT":" ","MAREA":" ","LANE":" ","ALLEY":" ","HOUSE_NO":"１０６號","E_COORD97":168902.17999999999,"N_COORD97":2543531.1099999999,"ADDRESS":"城隍街１０６號","OBJECTID":583411},"geometry":{"x":168902.18000000063,"y":2543531.1099999975}},{"attributes":{"ID":583439,"DIS_CODE":0,"TOWNNAME":"中西區","LI":"萬昌里","LIN":"16鄰","STREET":"城隍街","SECT":" ","MAREA":" ","LANE":" ","ALLEY":" ","HOUSE_NO":"１０７號","E_COORD97":168887.89000000001,"N_COORD97":2543557.8500000001,"ADDRESS":"城隍街１０７號","OBJECTID":583412},"geometry":{"x":168887.88999999966,"y":2543557.8500000015}},{"attributes":{"ID":583440,"DIS_CODE":0,"TOWNNAME":"中西區","LI":"萬昌里","LIN":"16鄰","STREET":"城隍街","SECT":" ","MAREA":" ","LANE":" ","ALLEY":" ","HOUSE_NO":"１１７號","E_COORD97":168891.59,"N_COORD97":2543577.3399999999,"ADDRESS":"城隍街１１７號","OBJECTID":583413},"geometry":{"x":168891.58999999985,"y":2543577.3399999999}},{"attributes":{"ID":583441,"DIS_CODE":0,"TOWNNAME":"中西區","LI":"萬昌里","LIN":"16鄰","STREET":"城隍街","SECT":" ","MAREA":" ","LANE":" ","ALLEY":" ","HOUSE_NO":"１１８號","E_COORD97":168913.79000000001,"N_COORD97":2543569.1899999999,"ADDRESS":"城隍街１１８號","OBJECTID":583414},"geometry":{"x":168913.79000000097,"y":2543569.1900000013}},{"attributes":{"ID":583442,"DIS_CODE":0,"TOWNNAME":"中西區","LI":"公正里","LIN":"16鄰","STREET":"西華南街","SECT":" ","MAREA":" ","LANE":" ","ALLEY":" ","HOUSE_NO":"１１號","E_COORD97":168931.42999999999,"N_COORD97":2543762.7799999998,"ADDRESS":"西華南街１１號","OBJECTID":583415},"geometry":{"x":168931.4299999997,"y":2543762.7799999993}},{"attributes":{"ID":583443,"DIS_CODE":0,"TOWNNAME":"中西區","LI":"公正里","LIN":"16鄰","STREET":"西華南街","SECT":" ","MAREA":" ","LANE":" ","ALLEY":" ","HOUSE_NO":"１３號","E_COORD97":168932.38,"N_COORD97":2543767.3599999999,"ADDRESS":"西華南街１３號","OBJECTID":583416},"geometry":{"x":168932.37999999989,"y":2543767.3600000013}},{"attributes":{"ID":583444,"DIS_CODE":0,"TOWNNAME":"中西區","LI":"公正里","LIN":"16鄰","STREET":"西華南街","SECT":" ","MAREA":" ","LANE":" ","ALLEY":" ","HOUSE_NO":"１５號","E_COORD97":168933.42999999999,"N_COORD97":2543771.75,"ADDRESS":"西華南街１５號","OBJECTID":583417},"geometry":{"x":168933.4299999997,"y":2543771.7500000037}},{"attributes":{"ID":583445,"DIS_CODE":0,"TOWNNAME":"中西區","LI":"公正里","LIN":"16鄰","STREET":"西華南街","SECT":" ","MAREA":" ","LANE":" ","ALLEY":" ","HOUSE_NO":"１７號","E_COORD97":168934.57999999999,"N_COORD97":2543775.9399999999,"ADDRESS":"西華南街１７號","OBJECTID":583418},"geometry":{"x":168934.58000000007,"y":2543775.9399999995}},{"attributes":{"ID":583446,"DIS_CODE":0,"TOWNNAME":"中西區","LI":"公正里","LIN":"16鄰","STREET":"西華南街","SECT":" ","MAREA":" ","LANE":" ","ALLEY":" ","HOUSE_NO":"１９號","E_COORD97":168935.63,"N_COORD97":2543780.2799999998,"ADDRESS":"西華南街１９號","OBJECTID":583419},"geometry":{"x":168935.62999999989,"y":2543780.2799999993}},{"attributes":{"ID":583447,"DIS_CODE":0,"TOWNNAME":"中西區","LI":"公正里","LIN":"16鄰","STREET":"西華南街","SECT":" ","MAREA":" ","LANE":" ","ALLEY":" ","HOUSE_NO":"２１號","E_COORD97":168936.67999999999,"N_COORD97":2543783.8100000001,"ADDRESS":"西華南街２１號","OBJECTID":583420},"geometry":{"x":168936.6799999997,"y":2543783.8100000005}},{"attributes":{"ID":583448,"DIS_CODE":0,"TOWNNAME":"中西區","LI":"公正里","LIN":"16鄰","STREET":"西華南街","SECT":" ","MAREA":" ","LANE":" ","ALLEY":" ","HOUSE_NO":"２３號","E_COORD97":168937.44,"N_COORD97":2543788.1000000001,"ADDRESS":"西華南街２３號","OBJECTID":583421},"geometry":{"x":168937.44000000041,"y":2543788.0999999996}},{"attributes":{"ID":583449,"DIS_CODE":0,"TOWNNAME":"中西區","LI":"公正里","LIN":"16鄰","STREET":"西華南街","SECT":" ","MAREA":" ","LANE":" ","ALLEY":" ","HOUSE_NO":"２５號","E_COORD97":168937.28,"N_COORD97":2543793.6699999999,"ADDRESS":"西華南街２５號","OBJECTID":583422},"geometry":{"x":168937.28000000212,"y":2543793.6700000018}},{"attributes":{"ID":583450,"DIS_CODE":0,"TOWNNAME":"中西區","LI":"公正里","LIN":"16鄰","STREET":"西華南街","SECT":" ","MAREA":" ","LANE":" ","ALLEY":" ","HOUSE_NO":"２７號","E_COORD97":168939.06,"N_COORD97":2543797.1299999999,"ADDRESS":"西華南街２７號","OBJECTID":583423},"geometry":{"x":168939.05999999959,"y":2543797.129999999}},{"attributes":{"ID":583451,"DIS_CODE":0,"TOWNNAME":"中西區","LI":"公正里","LIN":"16鄰","STREET":"西華南街","SECT":" ","MAREA":" ","LANE":" ","ALLEY":" ","HOUSE_NO":"２９號","E_COORD97":168939.98999999999,"N_COORD97":2543801.0899999999,"ADDRESS":"西華南街２９號","OBJECTID":583424},"geometry":{"x":168939.99000000115,"y":2543801.0900000017}},{"attributes":{"ID":583452,"DIS_CODE":0,"TOWNNAME":"中西區","LI":"公正里","LIN":"16鄰","STREET":"西華南街","SECT":" ","MAREA":" ","LANE":" ","ALLEY":" ","HOUSE_NO":"３１號","E_COORD97":168941.25,"N_COORD97":2543805.6800000002,"ADDRESS":"西華南街３１號","OBJECTID":583425},"geometry":{"x":168941.25000000093,"y":2543805.6800000034}},{"attributes":{"ID":583453,"DIS_CODE":0,"TOWNNAME":"中西區","LI":"公正里","LIN":"16鄰","STREET":"衛民街","SECT":" ","MAREA":" ","LANE":" ","ALLEY":" ","HOUSE_NO":"１０６號","E_COORD97":168929.73999999999,"N_COORD97":2543743.29,"ADDRESS":"衛民街１０６號","OBJECTID":583426},"geometry":{"x":168929.74000000115,"y":2543743.2900000028}},{"attributes":{"ID":583454,"DIS_CODE":0,"TOWNNAME":"中西區","LI":"公正里","LIN":"16鄰","STREET":"衛民街","SECT":" ","MAREA":" ","LANE":" ","ALLEY":" ","HOUSE_NO":"１０６號之１７","E_COORD97":168911.26000000001,"N_COORD97":2543744.1499999999,"ADDRESS":"衛民街１０６號之１７","OBJECTID":583427},"geometry":{"x":168911.25999999978,"y":2543744.1500000004}},{"attributes":{"ID":583455,"DIS_CODE":0,"TOWNNAME":"中西區","LI":"公正里","LIN":"16鄰","STREET":"衛民街","SECT":" ","MAREA":" ","LANE":" ","ALLEY":" ","HOUSE_NO":"１０６號之１８","E_COORD97":168906.95999999999,"N_COORD97":2543746.1899999999,"ADDRESS":"衛民街１０６號之１８","OBJECTID":583428},"geometry":{"x":168906.96000000183,"y":2543746.1899999995}},{"attributes":{"ID":583456,"DIS_CODE":0,"TOWNNAME":"中西區","LI":"公正里","LIN":"16鄰","STREET":"衛民街","SECT":" ","MAREA":" ","LANE":" ","ALLEY":" ","HOUSE_NO":"１０６號之１９","E_COORD97":168902.54999999999,"N_COORD97":2543747.4700000002,"ADDRESS":"衛民街１０６號之１９","OBJECTID":583429},"geometry":{"x":168902.54999999981,"y":2543747.4700000025}},{"attributes":{"ID":583457,"DIS_CODE":0,"TOWNNAME":"中西區","LI":"公正里","LIN":"16鄰","STREET":"衛民街","SECT":" ","MAREA":" ","LANE":" ","ALLEY":" ","HOUSE_NO":"１０６號之２","E_COORD97":168921.04000000001,"N_COORD97":2543743.7200000002,"ADDRESS":"衛民街１０６號之２","OBJECTID":583430},"geometry":{"x":168921.04000000004,"y":2543743.7200000025}},{"attributes":{"ID":583458,"DIS_CODE":0,"TOWNNAME":"中西區","LI":"公正里","LIN":"16鄰","STREET":"衛民街","SECT":" ","MAREA":" ","LANE":" ","ALLEY":" ","HOUSE_NO":"１０６號之２０","E_COORD97":168905.98999999999,"N_COORD97":2543758.96,"ADDRESS":"衛民街１０６號之２０","OBJECTID":583431},"geometry":{"x":168905.99000000115,"y":2543758.9600000028}},{"attributes":{"ID":583459,"DIS_CODE":0,"TOWNNAME":"中西區","LI":"公正里","LIN":"16鄰","STREET":"衛民街","SECT":" ","MAREA":" ","LANE":" ","ALLEY":" ","HOUSE_NO":"１０６號之２１","E_COORD97":168907.39000000001,"N_COORD97":2543763.6800000002,"ADDRESS":"衛民街１０６號之２１","OBJECTID":583432},"geometry":{"x":168907.3900000006,"y":2543763.6799999997}},{"attributes":{"ID":583460,"DIS_CODE":0,"TOWNNAME":"中西區","LI":"公正里","LIN":"16鄰","STREET":"衛民街","SECT":" ","MAREA":" ","LANE":" ","ALLEY":" ","HOUSE_NO":"１０６號之２２","E_COORD97":168908.57000000001,"N_COORD97":2543768.1899999999,"ADDRESS":"衛民街１０６號之２２","OBJECTID":583433},"geometry":{"x":168908.57000000123,"y":2543768.1900000032}},{"attributes":{"ID":583461,"DIS_CODE":0,"TOWNNAME":"中西區","LI":"公正里","LIN":"16鄰","STREET":"衛民街","SECT":" ","MAREA":" ","LANE":" ","ALLEY":" ","HOUSE_NO":"１０６號之２３","E_COORD97":168909.64000000001,"N_COORD97":2543772.1699999999,"ADDRESS":"衛民街１０６號之２３","OBJECTID":583434},"geometry":{"x":168909.63999999966,"y":2543772.1700000037}},{"attributes":{"ID":583462,"DIS_CODE":0,"TOWNNAME":"中西區","LI":"公正里","LIN":"16鄰","STREET":"衛民街","SECT":" ","MAREA":" ","LANE":" ","ALLEY":" ","HOUSE_NO":"１０６號之２４","E_COORD97":168910.60999999999,"N_COORD97":2543776.3500000001,"ADDRESS":"衛民街１０６號之２４","OBJECTID":583435},"geometry":{"x":168910.61000000034,"y":2543776.3499999996}},{"attributes":{"ID":583463,"DIS_CODE":0,"TOWNNAME":"中西區","LI":"公正里","LIN":"16鄰","STREET":"衛民街","SECT":" ","MAREA":" ","LANE":" ","ALLEY":" ","HOUSE_NO":"１０６號之２５","E_COORD97":168911.04000000001,"N_COORD97":2543780.1099999999,"ADDRESS":"衛民街１０６號之２５","OBJECTID":583436},"geometry":{"x":168911.04000000004,"y":2543780.1100000013}},{"attributes":{"ID":583464,"DIS_CODE":0,"TOWNNAME":"中西區","LI":"公正里","LIN":"16鄰","STREET":"衛民街","SECT":" ","MAREA":" ","LANE":" ","ALLEY":" ","HOUSE_NO":"１０６號之２６","E_COORD97":168912.32999999999,"N_COORD97":2543784.9900000002,"ADDRESS":"衛民街１０６號之２６","OBJECTID":583437},"geometry":{"x":168912.33000000007,"y":2543784.9900000021}},{"attributes":{"ID":583465,"DIS_CODE":0,"TOWNNAME":"中西區","LI":"公正里","LIN":"16鄰","STREET":"衛民街","SECT":" ","MAREA":" ","LANE":" ","ALLEY":" ","HOUSE_NO":"１０６號之２７","E_COORD97":168912.76000000001,"N_COORD97":2543789.1800000002,"ADDRESS":"衛民街１０６號之２７","OBJECTID":583438},"geometry":{"x":168912.75999999978,"y":2543789.1800000016}},{"attributes":{"ID":583466,"DIS_CODE":0,"TOWNNAME":"中西區","LI":"公正里","LIN":"16鄰","STREET":"衛民街","SECT":" ","MAREA":" ","LANE":" ","ALLEY":" ","HOUSE_NO":"１０６號之２８","E_COORD97":168913.84,"N_COORD97":2543793.7999999998,"ADDRESS":"衛民街１０６號之２８","OBJECTID":583439},"geometry":{"x":168913.83999999985,"y":2543793.8000000026}},{"attributes":{"ID":583467,"DIS_CODE":0,"TOWNNAME":"中西區","LI":"公正里","LIN":"16鄰","STREET":"衛民街","SECT":" ","MAREA":" ","LANE":" ","ALLEY":" ","HOUSE_NO":"１０６號之２９","E_COORD97":168916.17999999999,"N_COORD97":2543798.1800000002,"ADDRESS":"衛民街１０６號之２９","OBJECTID":583440},"geometry":{"x":168916.1799999997,"y":2543798.1799999997}},{"attributes":{"ID":583468,"DIS_CODE":0,"TOWNNAME":"中西區","LI":"公正里","LIN":"16鄰","STREET":"衛民街","SECT":" ","MAREA":" ","LANE":" ","ALLEY":" ","HOUSE_NO":"１０６號之３０","E_COORD97":168916.94,"N_COORD97":2543802.3100000001,"ADDRESS":"衛民街１０６號之３０","OBJECTID":583441},"geometry":{"x":168916.94000000041,"y":2543802.3100000042}},{"attributes":{"ID":583469,"DIS_CODE":0,"TOWNNAME":"中西區","LI":"公正里","LIN":"16鄰","STREET":"衛民街","SECT":" ","MAREA":" ","LANE":" ","ALLEY":" ","HOUSE_NO":"１０６號之３１","E_COORD97":168917.53,"N_COORD97":2543806.4399999999,"ADDRESS":"衛民街１０６號之３１","OBJECTID":583442},"geometry":{"x":168917.53000000119,"y":2543806.4399999995}},{"attributes":{"ID":583470,"DIS_CODE":0,"TOWNNAME":"中西區","LI":"公正里","LIN":"16鄰","STREET":"衛民街","SECT":" ","MAREA":" ","LANE":" ","ALLEY":" ","HOUSE_NO":"１０６號之３２","E_COORD97":168918.12,"N_COORD97":2543810.7400000002,"ADDRESS":"衛民街１０６號之３２","OBJECTID":583443},"geometry":{"x":168918.12000000104,"y":2543810.7400000021}},{"attributes":{"ID":583471,"DIS_CODE":0,"TOWNNAME":"中西區","LI":"公正里","LIN":"16鄰","STREET":"衛民街","SECT":" ","MAREA":" ","LANE":" ","ALLEY":" ","HOUSE_NO":"１０６號之３３","E_COORD97":168918.12,"N_COORD97":2543814.96,"ADDRESS":"衛民街１０６號之３３","OBJECTID":583444},"geometry":{"x":168918.12000000104,"y":2543814.9600000009}},{"attributes":{"ID":583472,"DIS_CODE":0,"TOWNNAME":"白河區","LI":"永安里","LIN":"16鄰","STREET":"中正路","SECT":" ","MAREA":" ","LANE":" ","ALLEY":" ","HOUSE_NO":"７２之１號","E_COORD97":190065.56,"N_COORD97":2583174.23,"ADDRESS":"中正路７２之１號","OBJECTID":583445},"geometry":{"x":190065.56000000052,"y":2583174.2300000004}},{"attributes":{"ID":583473,"DIS_CODE":0,"TOWNNAME":"白河區","LI":"永安里","LIN":"16鄰","STREET":"中正路","SECT":" ","MAREA":" ","LANE":" ","ALLEY":" ","HOUSE_NO":"７２之２號","E_COORD97":190062.39999999999,"N_COORD97":2583173.6499999999,"ADDRESS":"中正路７２之２號","OBJECTID":583446},"geometry":{"x":190062.4000000013,"y":2583173.6500000022}},{"attributes":{"ID":583474,"DIS_CODE":0,"TOWNNAME":"白河區","LI":"永安里","LIN":"16鄰","STREET":"中正路","SECT":" ","MAREA":" ","LANE":" ","ALLEY":" ","HOUSE_NO":"７４之１號","E_COORD97":190058.19,"N_COORD97":2583153.8500000001,"ADDRESS":"中正路７４之１號","OBJECTID":583447},"geometry":{"x":190058.19000000041,"y":2583153.8500000015}},{"attributes":{"ID":583475,"DIS_CODE":0,"TOWNNAME":"白河區","LI":"永安里","LIN":"16鄰","STREET":"中正路","SECT":" ","MAREA":" ","LANE":" ","ALLEY":" ","HOUSE_NO":"７４之２號","E_COORD97":190052.82000000001,"N_COORD97":2583149.6899999999,"ADDRESS":"中正路７４之２號","OBJECTID":583448},"geometry":{"x":190052.82000000123,"y":2583149.6899999995}},{"attributes":{"ID":583476,"DIS_CODE":0,"TOWNNAME":"白河區","LI":"永安里","LIN":"16鄰","STREET":"中正路","SECT":" ","MAREA":" ","LANE":" ","ALLEY":" ","HOUSE_NO":"７４號","E_COORD97":190060.28,"N_COORD97":2583157.6400000001,"ADDRESS":"中正路７４號","OBJECTID":583449},"geometry":{"x":190060.28000000026,"y":2583157.6400000006}},{"attributes":{"ID":583477,"DIS_CODE":0,"TOWNNAME":"白河區","LI":"永安里","LIN":"16鄰","STREET":"中正路","SECT":" ","MAREA":" ","LANE":" ","ALLEY":" ","HOUSE_NO":"７６之１號","E_COORD97":190040.56,"N_COORD97":2583148.25,"ADDRESS":"中正路７６之１號","OBJECTID":583450},"geometry":{"x":190040.56000000052,"y":2583148.2500000019}},{"attributes":{"ID":583478,"DIS_CODE":0,"TOWNNAME":"白河區","LI":"永安里","LIN":"16鄰","STREET":"中正路","SECT":" ","MAREA":" ","LANE":" ","ALLEY":" ","HOUSE_NO":"７６號","E_COORD97":190021.92000000001,"N_COORD97":2583164.4399999999,"ADDRESS":"中正路７６號","OBJECTID":583451},"geometry":{"x":190021.91999999993,"y":2583164.4399999995}},{"attributes":{"ID":583479,"DIS_CODE":0,"TOWNNAME":"安南區","LI":"海西里","LIN":"16鄰","STREET":"海環街","SECT":" ","MAREA":" ","LANE":" ","ALLEY":" ","HOUSE_NO":"１１７號","E_COORD97":166518.73999999999,"N_COORD97":2548745.23,"ADDRESS":"海環街１１７號","OBJECTID":583452},"geometry":{"x":166518.74000000115,"y":2548745.2300000004}},{"attributes":{"ID":583480,"DIS_CODE":0,"TOWNNAME":"安南區","LI":"海南里","LIN":"16鄰","STREET":"府安路","SECT":"七段","MAREA":" ","LANE":" ","ALLEY":" ","HOUSE_NO":"８９號","E_COORD97":165845.09,"N_COORD97":2545825.3599999999,"ADDRESS":"府安路七段８９號","OBJECTID":583453},"geometry":{"x":165845.09000000078,"y":2545825.3600000013}},{"attributes":{"ID":583481,"DIS_CODE":0,"TOWNNAME":"鹽水區","LI":"橋南里","LIN":" ","STREET":"自強街","SECT":" ","MAREA":" ","LANE":" ","ALLEY":" ","HOUSE_NO":"６號","E_COORD97":175719.95000000001,"N_COORD97":2578550.21,"ADDRESS":"自強街６號","OBJECTID":583454},"geometry":{"x":175719.95000000019,"y":2578550.2100000009}},{"attributes":{"ID":583482,"DIS_CODE":0,"TOWNNAME":"安南區","LI":"海南里","LIN":"16鄰","STREET":"府安路","SECT":"七段","MAREA":" ","LANE":" ","ALLEY":" ","HOUSE_NO":"９０號","E_COORD97":165842.13,"N_COORD97":2545822.9300000002,"ADDRESS":"府安路七段９０號","OBJECTID":583455},"geometry":{"x":165842.12999999989,"y":2545822.9300000016}},{"attributes":{"ID":583483,"DIS_CODE":0,"TOWNNAME":"安南區","LI":"頂安里","LIN":"16鄰","STREET":"安中路","SECT":"一段","MAREA":" ","LANE":" ","ALLEY":" ","HOUSE_NO":"３２４號","E_COORD97":167247.38,"N_COORD97":2549232.5899999999,"ADDRESS":"安中路一段３２４號","OBJECTID":583456},"geometry":{"x":167247.37999999989,"y":2549232.5900000017}},{"attributes":{"ID":583484,"DIS_CODE":0,"TOWNNAME":"安南區","LI":"淵東里","LIN":"16鄰","STREET":"功安一街","SECT":" ","MAREA":" ","LANE":" ","ALLEY":" ","HOUSE_NO":"２０１號","E_COORD97":165593.51999999999,"N_COORD97":2550019.2200000002,"ADDRESS":"功安一街２０１號","OBJECTID":583457},"geometry":{"x":165593.51999999862,"y":2550019.2200000025}},{"attributes":{"ID":583485,"DIS_CODE":0,"TOWNNAME":"東區","LI":"泉南里","LIN":"41鄰","STREET":"慶東街","SECT":" ","MAREA":" ","LANE":" ","ALLEY":" ","HOUSE_NO":"３１號","E_COORD97":169575.19,"N_COORD97":2542953.5800000001,"ADDRESS":"慶東街３１號","OBJECTID":583458},"geometry":{"x":169575.19000000041,"y":2542953.5800000019}},{"attributes":{"ID":583486,"DIS_CODE":0,"TOWNNAME":"東區","LI":"泉南里","LIN":"41鄰","STREET":"慶東街","SECT":" ","MAREA":" ","LANE":" ","ALLEY":" ","HOUSE_NO":"３９號","E_COORD97":169588.13,"N_COORD97":2542989.1600000001,"ADDRESS":"慶東街３９號","OBJECTID":583459},"geometry":{"x":169588.12999999989,"y":2542989.1600000039}},{"attributes":{"ID":583487,"DIS_CODE":0,"TOWNNAME":"東區","LI":"泉南里","LIN":"41鄰","STREET":"慶東街","SECT":" ","MAREA":" ","LANE":" ","ALLEY":" ","HOUSE_NO":"４３號","E_COORD97":169591.66,"N_COORD97":2542997.52,"ADDRESS":"慶東街４３號","OBJECTID":583460},"geometry":{"x":169591.66000000015,"y":2542997.5200000014}},{"attributes":{"ID":583488,"DIS_CODE":0,"TOWNNAME":"東區","LI":"泉南里","LIN":"41鄰","STREET":"慶東街","SECT":" ","MAREA":" ","LANE":" ","ALLEY":" ","HOUSE_NO":"３１號地下層","E_COORD97":169577.73000000001,"N_COORD97":2542955.48,"ADDRESS":"慶東街３１號地下層","OBJECTID":583461},"geometry":{"x":169577.73000000045,"y":2542955.4800000004}},{"attributes":{"ID":583489,"DIS_CODE":0,"TOWNNAME":"安南區","LI":"淵東里","LIN":"16鄰","STREET":"仁安路","SECT":" ","MAREA":" ","LANE":" ","ALLEY":" ","HOUSE_NO":"６２號","E_COORD97":165554.62,"N_COORD97":2550056.6499999999,"ADDRESS":"仁安路６２號","OBJECTID":583462},"geometry":{"x":165554.62000000197,"y":2550056.6500000022}},{"attributes":{"ID":583490,"DIS_CODE":0,"TOWNNAME":"安南區","LI":"淵東里","LIN":"16鄰","STREET":"仁安路","SECT":" ","MAREA":" ","LANE":" ","ALLEY":" ","HOUSE_NO":"６０號","E_COORD97":165551.26999999999,"N_COORD97":2550052.9199999999,"ADDRESS":"仁安路６０號","OBJECTID":583463},"geometry":{"x":165551.27000000142,"y":2550052.9200000037}},{"attributes":{"ID":583491,"DIS_CODE":0,"TOWNNAME":"安南區","LI":"淵東里","LIN":"16鄰","STREET":"仁安路","SECT":" ","MAREA":" ","LANE":" ","ALLEY":" ","HOUSE_NO":"５８號","E_COORD97":165547.67000000001,"N_COORD97":2550050.0899999999,"ADDRESS":"仁安路５８號","OBJECTID":583464},"geometry":{"x":165547.67000000086,"y":2550050.0899999999}},{"attributes":{"ID":583492,"DIS_CODE":0,"TOWNNAME":"安南區","LI":"淵東里","LIN":"16鄰","STREET":"仁安路","SECT":" ","MAREA":" ","LANE":" ","ALLEY":" ","HOUSE_NO":"５６號","E_COORD97":165544.57000000001,"N_COORD97":2550047.2599999998,"ADDRESS":"仁安路５６號","OBJECTID":583465},"geometry":{"x":165544.5700000003,"y":2550047.2600000016}},{"attributes":{"ID":583493,"DIS_CODE":0,"TOWNNAME":"安南區","LI":"淵東里","LIN":"16鄰","STREET":"仁安路","SECT":" ","MAREA":" ","LANE":" ","ALLEY":" ","HOUSE_NO":"５２號","E_COORD97":165538.38,"N_COORD97":2550040.7400000002,"ADDRESS":"仁安路５２號","OBJECTID":583466},"geometry":{"x":165538.37999999989,"y":2550040.7400000039}},{"attributes":{"ID":583494,"DIS_CODE":0,"TOWNNAME":"安南區","LI":"淵東里","LIN":"16鄰","STREET":"功安一街","SECT":" ","MAREA":" ","LANE":" ","ALLEY":" ","HOUSE_NO":"２１３號","E_COORD97":165564.92999999999,"N_COORD97":2549996.0299999998,"ADDRESS":"功安一街２１３號","OBJECTID":583467},"geometry":{"x":165564.9299999997,"y":2549996.0299999993}},{"attributes":{"ID":583495,"DIS_CODE":0,"TOWNNAME":"安南區","LI":"淵東里","LIN":"16鄰","STREET":"功安一街","SECT":" ","MAREA":" ","LANE":" ","ALLEY":" ","HOUSE_NO":"２１１號","E_COORD97":165569.98999999999,"N_COORD97":2550000.1899999999,"ADDRESS":"功安一街２１１號","OBJECTID":583468},"geometry":{"x":165569.99000000022,"y":2550000.1900000013}},{"attributes":{"ID":583496,"DIS_CODE":0,"TOWNNAME":"安南區","LI":"淵東里","LIN":"16鄰","STREET":"功安一街","SECT":" ","MAREA":" ","LANE":" ","ALLEY":" ","HOUSE_NO":"２０９號","E_COORD97":165575.04999999999,"N_COORD97":2550004.6499999999,"ADDRESS":"功安一街２０９號","OBJECTID":583469},"geometry":{"x":165575.05000000168,"y":2550004.6500000022}},{"attributes":{"ID":583497,"DIS_CODE":0,"TOWNNAME":"安南區","LI":"淵東里","LIN":"16鄰","STREET":"功安一街","SECT":" ","MAREA":" ","LANE":" ","ALLEY":" ","HOUSE_NO":"２０７號","E_COORD97":165579.51999999999,"N_COORD97":2550008.2200000002,"ADDRESS":"功安一街２０７號","OBJECTID":583470},"geometry":{"x":165579.51999999955,"y":2550008.2200000025}},{"attributes":{"ID":583498,"DIS_CODE":0,"TOWNNAME":"安南區","LI":"淵東里","LIN":"16鄰","STREET":"功安一街","SECT":" ","MAREA":" ","LANE":" ","ALLEY":" ","HOUSE_NO":"２０５號","E_COORD97":165584.88,"N_COORD97":2550012.3799999999,"ADDRESS":"功安一街２０５號","OBJECTID":583471},"geometry":{"x":165584.88000000175,"y":2550012.3800000008}},{"attributes":{"ID":583499,"DIS_CODE":0,"TOWNNAME":"安南區","LI":"淵東里","LIN":"16鄰","STREET":"功安一街","SECT":" ","MAREA":" ","LANE":" ","ALLEY":" ","HOUSE_NO":"２０３號","E_COORD97":165589.64999999999,"N_COORD97":2550015.9500000002,"ADDRESS":"功安一街２０３號","OBJECTID":583472},"geometry":{"x":165589.65000000037,"y":2550015.9500000011}},{"attributes":{"ID":583500,"DIS_CODE":0,"TOWNNAME":"安南區","LI":"淵東里","LIN":"16鄰","STREET":"安中路","SECT":"三段","MAREA":" ","LANE":" ","ALLEY":" ","HOUSE_NO":"３１０號","E_COORD97":165589.14999999999,"N_COORD97":2549935.6800000002,"ADDRESS":"安中路三段３１０號","OBJECTID":583473},"geometry":{"x":165589.1500000013,"y":2549935.6800000034}},{"attributes":{"ID":583501,"DIS_CODE":0,"TOWNNAME":"安南區","LI":"淵東里","LIN":"16鄰","STREET":"智安一街","SECT":" ","MAREA":" ","LANE":" ","ALLEY":" ","HOUSE_NO":"２號","E_COORD97":165667.22,"N_COORD97":2549935.1099999999,"ADDRESS":"智安一街２號","OBJECTID":583474},"geometry":{"x":165667.22000000067,"y":2549935.1099999994}},{"attributes":{"ID":583502,"DIS_CODE":0,"TOWNNAME":"安南區","LI":"淵東里","LIN":"16鄰","STREET":"智安一街","SECT":" ","MAREA":" ","LANE":" ","ALLEY":" ","HOUSE_NO":"６號","E_COORD97":165666.10000000001,"N_COORD97":2549944.8199999998,"ADDRESS":"智安一街６號","OBJECTID":583475},"geometry":{"x":165666.10000000149,"y":2549944.8200000003}},{"attributes":{"ID":583503,"DIS_CODE":0,"TOWNNAME":"安南區","LI":"淵東里","LIN":"16鄰","STREET":"安中路","SECT":"三段","MAREA":" ","LANE":" ","ALLEY":" ","HOUSE_NO":"２９０號","E_COORD97":165638.29999999999,"N_COORD97":2549929.5,"ADDRESS":"安中路三段２９０號","OBJECTID":583476},"geometry":{"x":165638.30000000075,"y":2549929.5}},{"attributes":{"ID":583504,"DIS_CODE":0,"TOWNNAME":"安南區","LI":"淵東里","LIN":"16鄰","STREET":"安中路","SECT":"三段","MAREA":" ","LANE":" ","ALLEY":" ","HOUSE_NO":"２９４號","E_COORD97":165626.92000000001,"N_COORD97":2549927.48,"ADDRESS":"安中路三段２９４號","OBJECTID":583477},"geometry":{"x":165626.92000000179,"y":2549927.4800000042}},{"attributes":{"ID":583505,"DIS_CODE":0,"TOWNNAME":"安南區","LI":"淵東里","LIN":"16鄰","STREET":"安中路","SECT":"三段","MAREA":" ","LANE":" ","ALLEY":" ","HOUSE_NO":"３００號","E_COORD97":165615.04000000001,"N_COORD97":2549930.75,"ADDRESS":"安中路三段３００號","OBJECTID":583478},"geometry":{"x":165615.04000000097,"y":2549930.75}},{"attributes":{"ID":583506,"DIS_CODE":0,"TOWNNAME":"安南區","LI":"理想里","LIN":"16鄰","STREET":"大安街","SECT":" ","MAREA":" ","LANE":" ","ALLEY":" ","HOUSE_NO":"１６１號","E_COORD97":167327.22,"N_COORD97":2548233.5800000001,"ADDRESS":"大安街１６１號","OBJECTID":583479},"geometry":{"x":167327.22000000067,"y":2548233.5800000001}},{"attributes":{"ID":583507,"DIS_CODE":0,"TOWNNAME":"東區","LI":"忠孝里","LIN":"26鄰","STREET":"林森路","SECT":"一段","MAREA":" ","LANE":" ","ALLEY":" ","HOUSE_NO":"１５６號","E_COORD97":169517.66,"N_COORD97":2542467.5499999998,"ADDRESS":"林森路一段１５６號","OBJECTID":583480},"geometry":{"x":169517.66000000201,"y":2542467.5500000007}},{"attributes":{"ID":583508,"DIS_CODE":0,"TOWNNAME":"東區","LI":"泉南里","LIN":"41鄰","STREET":"慶東街","SECT":" ","MAREA":" ","LANE":" ","ALLEY":" ","HOUSE_NO":"３７號","E_COORD97":169586.09,"N_COORD97":2542984.52,"ADDRESS":"慶東街３７號","OBJECTID":583481},"geometry":{"x":169586.09000000078,"y":2542984.5199999996}},{"attributes":{"ID":583509,"DIS_CODE":0,"TOWNNAME":"東區","LI":"泉南里","LIN":"41鄰","STREET":"慶東街","SECT":" ","MAREA":" ","LANE":" ","ALLEY":" ","HOUSE_NO":"４１號","E_COORD97":169590.07999999999,"N_COORD97":2542993.0600000001,"ADDRESS":"慶東街４１號","OBJECTID":583482},"geometry":{"x":169590.08000000101,"y":2542993.0600000005}},{"attributes":{"ID":583510,"DIS_CODE":0,"TOWNNAME":"東區","LI":"泉南里","LIN":"41鄰","STREET":"慶東街","SECT":" ","MAREA":" ","LANE":" ","ALLEY":" ","HOUSE_NO":"４５號","E_COORD97":169592.12,"N_COORD97":2543001.8799999999,"ADDRESS":"慶東街４５號","OBJECTID":583483},"geometry":{"x":169592.12000000011,"y":2543001.879999999}},{"attributes":{"ID":583511,"DIS_CODE":0,"TOWNNAME":"東區","LI":"虎尾里","LIN":"16鄰","STREET":"東成街","SECT":" ","MAREA":" ","LANE":" ","ALLEY":" ","HOUSE_NO":"７６號之１","E_COORD97":171446.09,"N_COORD97":2542182.8999999999,"ADDRESS":"東成街７６號之１","OBJECTID":583484},"geometry":{"x":171446.09000000078,"y":2542182.9000000004}},{"attributes":{"ID":583512,"DIS_CODE":0,"TOWNNAME":"安南區","LI":"理想里","LIN":"16鄰","STREET":"大安街","SECT":" ","MAREA":" ","LANE":" ","ALLEY":" ","HOUSE_NO":"１９５號","E_COORD97":167379.34,"N_COORD97":2548313.9399999999,"ADDRESS":"大安街１９５號","OBJECTID":583485},"geometry":{"x":167379.34000000078,"y":2548313.9400000013}},{"attributes":{"ID":583513,"DIS_CODE":0,"TOWNNAME":"安南區","LI":"頂安里","LIN":"16鄰","STREET":"安中路","SECT":"一段","MAREA":" ","LANE":" ","ALLEY":" ","HOUSE_NO":"２２２號","E_COORD97":168685.64000000001,"N_COORD97":2548566.5499999998,"ADDRESS":"安中路一段２２２號","OBJECTID":583486},"geometry":{"x":168685.6400000006,"y":2548566.5500000007}},{"attributes":{"ID":583514,"DIS_CODE":0,"TOWNNAME":"安南區","LI":"溪北里","LIN":"16鄰","STREET":"府安路","SECT":"四段","MAREA":" ","LANE":" ","ALLEY":" ","HOUSE_NO":"６０號","E_COORD97":169254.73000000001,"N_COORD97":2547295.1499999999,"ADDRESS":"府安路四段６０號","OBJECTID":583487},"geometry":{"x":169254.73000000231,"y":2547295.1499999985}},{"attributes":{"ID":583515,"DIS_CODE":0,"TOWNNAME":"安南區","LI":"溪北里","LIN":"16鄰","STREET":"府安路","SECT":"四段","MAREA":" ","LANE":" ","ALLEY":" ","HOUSE_NO":"６２號","E_COORD97":169247.67000000001,"N_COORD97":2547294.7400000002,"ADDRESS":"府安路四段６２號","OBJECTID":583488},"geometry":{"x":169247.66999999993,"y":2547294.7400000039}},{"attributes":{"ID":583516,"DIS_CODE":0,"TOWNNAME":"安南區","LI":"溪北里","LIN":"16鄰","STREET":"府安路","SECT":"四段","MAREA":" ","LANE":" ","ALLEY":" ","HOUSE_NO":"６４號","E_COORD97":169232.87,"N_COORD97":2547293.0499999998,"ADDRESS":"府安路四段６４號","OBJECTID":583489},"geometry":{"x":169232.87000000011,"y":2547293.0500000045}},{"attributes":{"ID":583517,"DIS_CODE":0,"TOWNNAME":"安南區","LI":"溪北里","LIN":"16鄰","STREET":"府安路","SECT":"四段","MAREA":" ","LANE":" ","ALLEY":" ","HOUSE_NO":"６７號","E_COORD97":169215.48999999999,"N_COORD97":2547292.4700000002,"ADDRESS":"府安路四段６７號","OBJECTID":583490},"geometry":{"x":169215.49000000209,"y":2547292.4700000007}},{"attributes":{"ID":583518,"DIS_CODE":0,"TOWNNAME":"安南區","LI":"溪北里","LIN":"16鄰","STREET":"府安路","SECT":"四段","MAREA":" ","LANE":" ","ALLEY":" ","HOUSE_NO":"７６號","E_COORD97":169191.26000000001,"N_COORD97":2547291.4199999999,"ADDRESS":"府安路四段７６號","OBJECTID":583491},"geometry":{"x":169191.26000000071,"y":2547291.4199999999}},{"attributes":{"ID":583519,"DIS_CODE":0,"TOWNNAME":"安南區","LI":"溪北里","LIN":"16鄰","STREET":"府安路","SECT":"四段","MAREA":" ","LANE":" ","ALLEY":" ","HOUSE_NO":"８２號","E_COORD97":169168.45000000001,"N_COORD97":2547287.73,"ADDRESS":"府安路四段８２號","OBJECTID":583492},"geometry":{"x":169168.45000000112,"y":2547287.7300000004}},{"attributes":{"ID":583520,"DIS_CODE":0,"TOWNNAME":"安南區","LI":"溪北里","LIN":"16鄰","STREET":"府安路","SECT":"四段","MAREA":" ","LANE":" ","ALLEY":" ","HOUSE_NO":"８３號","E_COORD97":169153.17000000001,"N_COORD97":2547285.6200000001,"ADDRESS":"府安路四段８３號","OBJECTID":583493},"geometry":{"x":169153.17000000086,"y":2547285.620000001}},{"attributes":{"ID":583521,"DIS_CODE":0,"TOWNNAME":"安南區","LI":"溪北里","LIN":"16鄰","STREET":"府安路","SECT":"四段","MAREA":" ","LANE":" ","ALLEY":" ","HOUSE_NO":"８５號","E_COORD97":169143.79999999999,"N_COORD97":2547286.7599999998,"ADDRESS":"府安路四段８５號","OBJECTID":583494},"geometry":{"x":169143.80000000075,"y":2547286.7599999998}},{"attributes":{"ID":583522,"DIS_CODE":0,"TOWNNAME":"安南區","LI":"溪北里","LIN":"16鄰","STREET":"府安路","SECT":"四段","MAREA":" ","LANE":" ","ALLEY":" ","HOUSE_NO":"８６號","E_COORD97":169139.60000000001,"N_COORD97":2547284.0099999998,"ADDRESS":"府安路四段８６號","OBJECTID":583495},"geometry":{"x":169139.60000000149,"y":2547284.0099999998}},{"attributes":{"ID":583523,"DIS_CODE":0,"TOWNNAME":"東區","LI":"圍下里","LIN":"2鄰","STREET":"青年路","SECT":" ","MAREA":" ","LANE":" ","ALLEY":" ","HOUSE_NO":"４３４號","E_COORD97":169722.01000000001,"N_COORD97":2543513.8599999999,"ADDRESS":"青年路４３４號","OBJECTID":583496},"geometry":{"x":169722.01000000071,"y":2543513.8600000013}},{"attributes":{"ID":583524,"DIS_CODE":0,"TOWNNAME":"東區","LI":"小東里","LIN":"18鄰","STREET":"東興路","SECT":" ","MAREA":" ","LANE":" ","ALLEY":" ","HOUSE_NO":"３９９號","E_COORD97":170983.14999999999,"N_COORD97":2544369.8199999998,"ADDRESS":"東興路３９９號","OBJECTID":583497},"geometry":{"x":170983.1500000013,"y":2544369.8200000022}},{"attributes":{"ID":583525,"DIS_CODE":0,"TOWNNAME":"東區","LI":"小東里","LIN":"18鄰","STREET":"東興路","SECT":" ","MAREA":" ","LANE":" ","ALLEY":" ","HOUSE_NO":"３８７號","E_COORD97":170990.17999999999,"N_COORD97":2544362.9100000001,"ADDRESS":"東興路３８７號","OBJECTID":583498},"geometry":{"x":170990.18000000156,"y":2544362.9100000001}},{"attributes":{"ID":583526,"DIS_CODE":0,"TOWNNAME":"東區","LI":"小東里","LIN":"18鄰","STREET":"東興路","SECT":" ","MAREA":" ","LANE":" ","ALLEY":" ","HOUSE_NO":"３８９號","E_COORD97":170990.17999999999,"N_COORD97":2544369.9100000001,"ADDRESS":"東興路３８９號","OBJECTID":583499},"geometry":{"x":170990.18000000156,"y":2544369.9100000001}},{"attributes":{"ID":583527,"DIS_CODE":0,"TOWNNAME":"東區","LI":"小東里","LIN":"18鄰","STREET":"東興路","SECT":" ","MAREA":" ","LANE":" ","ALLEY":" ","HOUSE_NO":"３９３號","E_COORD97":170968.92000000001,"N_COORD97":2544369.0499999998,"ADDRESS":"東興路３９３號","OBJECTID":583500},"geometry":{"x":170968.92000000086,"y":2544369.0500000007}},{"attributes":{"ID":583528,"DIS_CODE":0,"TOWNNAME":"東區","LI":"小東里","LIN":"18鄰","STREET":"東興路","SECT":" ","MAREA":" ","LANE":" ","ALLEY":" ","HOUSE_NO":"３９５號","E_COORD97":170961.69,"N_COORD97":2544368.5499999998,"ADDRESS":"東興路３９５號","OBJECTID":583501},"geometry":{"x":170961.69000000041,"y":2544368.5500000026}},{"attributes":{"ID":583529,"DIS_CODE":0,"TOWNNAME":"東區","LI":"小東里","LIN":"18鄰","STREET":"東興路","SECT":" ","MAREA":" ","LANE":" ","ALLEY":" ","HOUSE_NO":"３８３號","E_COORD97":170993.67999999999,"N_COORD97":2544351.5699999998,"ADDRESS":"東興路３８３號","OBJECTID":583502},"geometry":{"x":170993.68000000156,"y":2544351.5700000003}},{"attributes":{"ID":583530,"DIS_CODE":0,"TOWNNAME":"東區","LI":"後甲里","LIN":"1鄰","STREET":"裕農路","SECT":" ","MAREA":" ","LANE":" ","ALLEY":" ","HOUSE_NO":"８２１號","E_COORD97":172135.12,"N_COORD97":2543530.98,"ADDRESS":"裕農路８２１號","OBJECTID":583503},"geometry":{"x":172135.12000000011,"y":2543530.9800000023}},{"attributes":{"ID":583531,"DIS_CODE":0,"TOWNNAME":"東區","LI":"德高里","LIN":"12鄰","STREET":"崇善路","SECT":" ","MAREA":" ","LANE":" ","ALLEY":" ","HOUSE_NO":"８７９號","E_COORD97":171370.89000000001,"N_COORD97":2540745.3300000001,"ADDRESS":"崇善路８７９號","OBJECTID":583504},"geometry":{"x":171370.8900000006,"y":2540745.3300000001}},{"attributes":{"ID":583532,"DIS_CODE":0,"TOWNNAME":"安南區","LI":"溪北里","LIN":"16鄰","STREET":"府安路","SECT":"四段","MAREA":" ","LANE":" ","ALLEY":" ","HOUSE_NO":"８７號","E_COORD97":169134.59,"N_COORD97":2547287.3799999999,"ADDRESS":"府安路四段８７號","OBJECTID":583505},"geometry":{"x":169134.58999999892,"y":2547287.379999999}},{"attributes":{"ID":583533,"DIS_CODE":0,"TOWNNAME":"安南區","LI":"溪北里","LIN":"16鄰","STREET":"府安路","SECT":"四段","MAREA":" ","LANE":" ","ALLEY":" ","HOUSE_NO":"８８號","E_COORD97":169131.14000000001,"N_COORD97":2547285.4500000002,"ADDRESS":"府安路四段８８號","OBJECTID":583506},"geometry":{"x":169131.1400000006,"y":2547285.450000003}},{"attributes":{"ID":583534,"DIS_CODE":0,"TOWNNAME":"安南區","LI":"溪北里","LIN":"16鄰","STREET":"府安路","SECT":"四段","MAREA":" ","LANE":" ","ALLEY":" ","HOUSE_NO":"８４號","E_COORD97":169148.79999999999,"N_COORD97":2547282.96,"ADDRESS":"府安路四段８４號","OBJECTID":583507},"geometry":{"x":169148.80000000075,"y":2547282.9600000009}},{"attributes":{"ID":583535,"DIS_CODE":0,"TOWNNAME":"安南區","LI":"溪北里","LIN":"16鄰","STREET":"府安路","SECT":"四段","MAREA":" ","LANE":" ","ALLEY":" ","HOUSE_NO":"８９號","E_COORD97":169124.48000000001,"N_COORD97":2547285.3599999999,"ADDRESS":"府安路四段８９號","OBJECTID":583508},"geometry":{"x":169124.48000000138,"y":2547285.3599999994}},{"attributes":{"ID":583536,"DIS_CODE":0,"TOWNNAME":"安南區","LI":"溪北里","LIN":"16鄰","STREET":"府安路","SECT":"四段","MAREA":" ","LANE":" ","ALLEY":" ","HOUSE_NO":"５８號","E_COORD97":169265.28,"N_COORD97":2547295.1600000001,"ADDRESS":"府安路四段５８號","OBJECTID":583509},"geometry":{"x":169265.28000000026,"y":2547295.1600000039}},{"attributes":{"ID":583537,"DIS_CODE":0,"TOWNNAME":"安南區","LI":"溪頂里","LIN":"16鄰","STREET":"德安街","SECT":" ","MAREA":" ","LANE":" ","ALLEY":" ","HOUSE_NO":"１３號","E_COORD97":168697.54000000001,"N_COORD97":2547359.2400000002,"ADDRESS":"德安街１３號","OBJECTID":583510},"geometry":{"x":168697.54000000004,"y":2547359.2400000039}},{"attributes":{"ID":583538,"DIS_CODE":0,"TOWNNAME":"安南區","LI":"溪頂里","LIN":"16鄰","STREET":"德安街","SECT":" ","MAREA":" ","LANE":" ","ALLEY":" ","HOUSE_NO":"４５號","E_COORD97":168618.88,"N_COORD97":2547349.27,"ADDRESS":"德安街４５號","OBJECTID":583511},"geometry":{"x":168618.87999999989,"y":2547349.2700000014}},{"attributes":{"ID":583539,"DIS_CODE":0,"TOWNNAME":"安南區","LI":"學東里","LIN":"16鄰","STREET":"安明路","SECT":"四段","MAREA":" ","LANE":" ","ALLEY":" ","HOUSE_NO":"１２０９號","E_COORD97":161398.04000000001,"N_COORD97":2553286.6600000001,"ADDRESS":"安明路四段１２０９號","OBJECTID":583512},"geometry":{"x":161398.04000000004,"y":2553286.660000002}},{"attributes":{"ID":583540,"DIS_CODE":0,"TOWNNAME":"安南區","LI":"學東里","LIN":"16鄰","STREET":"城北路","SECT":" ","MAREA":" ","LANE":" ","ALLEY":" ","HOUSE_NO":"７５６號","E_COORD97":160929.88,"N_COORD97":2553066.98,"ADDRESS":"城北路７５６號","OBJECTID":583513},"geometry":{"x":160929.88000000175,"y":2553066.9800000042}},{"attributes":{"ID":583541,"DIS_CODE":0,"TOWNNAME":"安南區","LI":"溪墘里","LIN":"16鄰","STREET":"海佃路","SECT":"一段","MAREA":" ","LANE":" ","ALLEY":" ","HOUSE_NO":"３４２號","E_COORD97":167101.63,"N_COORD97":2547524.73,"ADDRESS":"海佃路一段３４２號","OBJECTID":583514},"geometry":{"x":167101.62999999989,"y":2547524.7300000004}},{"attributes":{"ID":583542,"DIS_CODE":0,"TOWNNAME":"中西區","LI":"文賢里","LIN":"2鄰","STREET":"文和街","SECT":" ","MAREA":" ","LANE":" ","ALLEY":" ","HOUSE_NO":"１４號","E_COORD97":167279.20000000001,"N_COORD97":2544988.1899999999,"ADDRESS":"文和街１４號","OBJECTID":583515},"geometry":{"x":167279.20000000019,"y":2544988.1899999995}},{"attributes":{"ID":583543,"DIS_CODE":0,"TOWNNAME":"東區","LI":"小東里","LIN":"18鄰","STREET":"東興路","SECT":" ","MAREA":" ","LANE":" ","ALLEY":" ","HOUSE_NO":"３８５號","E_COORD97":170990.35000000001,"N_COORD97":2544356.7400000002,"ADDRESS":"東興路３８５號","OBJECTID":583516},"geometry":{"x":170990.34999999963,"y":2544356.7400000021}},{"attributes":{"ID":583544,"DIS_CODE":0,"TOWNNAME":"東區","LI":"小東里","LIN":"18鄰","STREET":"東興路","SECT":" ","MAREA":" ","LANE":" ","ALLEY":" ","HOUSE_NO":"３９１號","E_COORD97":170976.13,"N_COORD97":2544369.4900000002,"ADDRESS":"東興路３９１號","OBJECTID":583517},"geometry":{"x":170976.13000000082,"y":2544369.4900000002}},{"attributes":{"ID":583545,"DIS_CODE":0,"TOWNNAME":"東區","LI":"小東里","LIN":"18鄰","STREET":"東興路","SECT":" ","MAREA":" ","LANE":" ","ALLEY":" ","HOUSE_NO":"３９７號","E_COORD97":170955.07999999999,"N_COORD97":2544368.0499999998,"ADDRESS":"東興路３９７號","OBJECTID":583518},"geometry":{"x":170955.08000000007,"y":2544368.0500000026}},{"attributes":{"ID":583546,"DIS_CODE":0,"TOWNNAME":"東區","LI":"龍山里","LIN":"18鄰","STREET":"東門路","SECT":"一段","MAREA":" ","LANE":" ","ALLEY":" ","HOUSE_NO":"２９８號","E_COORD97":169698.48000000001,"N_COORD97":2543053.2000000002,"ADDRESS":"東門路一段２９８號","OBJECTID":583519},"geometry":{"x":169698.48000000045,"y":2543053.2000000011}},{"attributes":{"ID":583547,"DIS_CODE":0,"TOWNNAME":"永康區","LI":"大灣里","LIN":"16鄰","STREET":"大灣五街","SECT":" ","MAREA":" ","LANE":" ","ALLEY":" ","HOUSE_NO":"６號","E_COORD97":174852.79000000001,"N_COORD97":2545196.75,"ADDRESS":"大灣五街６號","OBJECTID":583520},"geometry":{"x":174852.79000000004,"y":2545196.7500000019}},{"attributes":{"ID":583548,"DIS_CODE":0,"TOWNNAME":"永康區","LI":"\u25A0行里","LIN":"16鄰","STREET":"中正六街","SECT":" ","MAREA":" ","LANE":" ","ALLEY":" ","HOUSE_NO":"２１８號","E_COORD97":171888.07999999999,"N_COORD97":2548856.8599999999,"ADDRESS":"中正六街２１８號","OBJECTID":583521},"geometry":{"x":171888.08000000194,"y":2548856.8600000013}},{"attributes":{"ID":583549,"DIS_CODE":0,"TOWNNAME":"永康區","LI":"龍潭里","LIN":"16鄰","STREET":"龍橋街","SECT":" ","MAREA":" ","LANE":" ","ALLEY":" ","HOUSE_NO":"３３號","E_COORD97":174829.14999999999,"N_COORD97":2548354.7000000002,"ADDRESS":"龍橋街３３號","OBJECTID":583522},"geometry":{"x":174829.1500000013,"y":2548354.6999999993}},{"attributes":{"ID":583550,"DIS_CODE":0,"TOWNNAME":"東區","LI":"莊敬里","LIN":"12鄰","STREET":"東光路","SECT":"二段","MAREA":" ","LANE":" ","ALLEY":" ","HOUSE_NO":"５０號","E_COORD97":171227.38,"N_COORD97":2544097.5299999998,"ADDRESS":"東光路二段５０號","OBJECTID":583523},"geometry":{"x":171227.37999999989,"y":2544097.5299999993}},{"attributes":{"ID":583551,"DIS_CODE":0,"TOWNNAME":"白河區","LI":"永安里","LIN":"16鄰","STREET":"中正路","SECT":" ","MAREA":" ","LANE":" ","ALLEY":" ","HOUSE_NO":"９２號","E_COORD97":190008.79000000001,"N_COORD97":2583143.6200000001,"ADDRESS":"中正路９２號","OBJECTID":583524},"geometry":{"x":190008.79000000097,"y":2583143.6200000029}},{"attributes":{"ID":583552,"DIS_CODE":0,"TOWNNAME":"安南區","LI":"頂安里","LIN":"16鄰","STREET":"安中路","SECT":"一段","MAREA":" ","LANE":" ","ALLEY":" ","HOUSE_NO":"３０６號","E_COORD97":168583.97,"N_COORD97":2548634.6800000002,"ADDRESS":"安中路一段３０６號","OBJECTID":583525},"geometry":{"x":168583.96999999974,"y":2548634.6800000016}},{"attributes":{"ID":583553,"DIS_CODE":0,"TOWNNAME":"安南區","LI":"淵中里","LIN":"16鄰","STREET":"本田路","SECT":"三段","MAREA":" ","LANE":" ","ALLEY":" ","HOUSE_NO":"７１０號","E_COORD97":164974.125053,"N_COORD97":2549867.1652000002,"ADDRESS":"本田路三段７１０號","OBJECTID":583526},"geometry":{"x":164974.12505300157,"y":2549867.1651990004}},{"attributes":{"ID":583554,"DIS_CODE":0,"TOWNNAME":"安南區","LI":"淵中里","LIN":"16鄰","STREET":"本田路","SECT":"三段","MAREA":" ","LANE":" ","ALLEY":" ","HOUSE_NO":"７２２號","E_COORD97":164998.17975499999,"N_COORD97":2549887.1197000002,"ADDRESS":"本田路三段７２２號","OBJECTID":583527},"geometry":{"x":164998.1797550004,"y":2549887.1197000016}},{"attributes":{"ID":583555,"DIS_CODE":0,"TOWNNAME":"東區","LI":"莊敬里","LIN":"12鄰","STREET":"東光路","SECT":"二段","MAREA":" ","LANE":" ","ALLEY":" ","HOUSE_NO":"５２號","E_COORD97":171227.67000000001,"N_COORD97":2544102.9700000002,"ADDRESS":"東光路二段５２號","OBJECTID":583528},"geometry":{"x":171227.66999999993,"y":2544102.9699999988}},{"attributes":{"ID":583556,"DIS_CODE":0,"TOWNNAME":"安南區","LI":"新順里","LIN":"16鄰","STREET":"頂安街","SECT":" ","MAREA":" ","LANE":" ","ALLEY":" ","HOUSE_NO":"６０號","E_COORD97":169568.01000000001,"N_COORD97":2549353.4100000001,"ADDRESS":"頂安街６０號","OBJECTID":583529},"geometry":{"x":169568.01000000071,"y":2549353.4100000001}},{"attributes":{"ID":583557,"DIS_CODE":0,"TOWNNAME":"安南區","LI":"新順里","LIN":"16鄰","STREET":"頂安街","SECT":" ","MAREA":" ","LANE":" ","ALLEY":" ","HOUSE_NO":"５８號","E_COORD97":169573.57000000001,"N_COORD97":2549352.1899999999,"ADDRESS":"頂安街５８號","OBJECTID":583530},"geometry":{"x":169573.5700000003,"y":2549352.1900000032}},{"attributes":{"ID":583558,"DIS_CODE":0,"TOWNNAME":"安南區","LI":"新順里","LIN":"16鄰","STREET":"頂安街","SECT":" ","MAREA":" ","LANE":" ","ALLEY":" ","HOUSE_NO":"５６號","E_COORD97":169577.45999999999,"N_COORD97":2549351.6200000001,"ADDRESS":"頂安街５６號","OBJECTID":583531},"geometry":{"x":169577.45999999996,"y":2549351.6200000029}},{"attributes":{"ID":583559,"DIS_CODE":0,"TOWNNAME":"安南區","LI":"新順里","LIN":"16鄰","STREET":"頂安街","SECT":" ","MAREA":" ","LANE":" ","ALLEY":" ","HOUSE_NO":"５２號","E_COORD97":169581.29000000001,"N_COORD97":2549350.8500000001,"ADDRESS":"頂安街５２號","OBJECTID":583532},"geometry":{"x":169581.29000000097,"y":2549350.8499999996}},{"attributes":{"ID":583560,"DIS_CODE":0,"TOWNNAME":"安南區","LI":"新順里","LIN":"16鄰","STREET":"頂安街","SECT":" ","MAREA":" ","LANE":" ","ALLEY":" ","HOUSE_NO":"５０號","E_COORD97":169586.07999999999,"N_COORD97":2549350.3399999999,"ADDRESS":"頂安街５０號","OBJECTID":583533},"geometry":{"x":169586.08000000101,"y":2549350.3399999999}},{"attributes":{"ID":583561,"DIS_CODE":0,"TOWNNAME":"安南區","LI":"新順里","LIN":"16鄰","STREET":"頂安街","SECT":" ","MAREA":" ","LANE":" ","ALLEY":" ","HOUSE_NO":"４８號","E_COORD97":169590.29000000001,"N_COORD97":2549349.1299999999,"ADDRESS":"頂安街４８號","OBJECTID":583534},"geometry":{"x":169590.29000000097,"y":2549349.1300000008}},{"attributes":{"ID":583562,"DIS_CODE":0,"TOWNNAME":"安南區","LI":"新順里","LIN":"16鄰","STREET":"頂安街","SECT":" ","MAREA":" ","LANE":" ","ALLEY":" ","HOUSE_NO":"４６號","E_COORD97":169595.26999999999,"N_COORD97":2549348.3599999999,"ADDRESS":"頂安街４６號","OBJECTID":583535},"geometry":{"x":169595.26999999955,"y":2549348.3600000013}},{"attributes":{"ID":583563,"DIS_CODE":0,"TOWNNAME":"白河區","LI":"永安里","LIN":"16鄰","STREET":"中正路","SECT":" ","MAREA":" ","LANE":" ","ALLEY":" ","HOUSE_NO":"９８號","E_COORD97":189951.63,"N_COORD97":2583142.6099999999,"ADDRESS":"中正路９８號","OBJECTID":583536},"geometry":{"x":189951.63000000082,"y":2583142.6100000013}},{"attributes":{"ID":583564,"DIS_CODE":0,"TOWNNAME":"東區","LI":"東智里","LIN":"16鄰","STREET":"崇德三十四街","SECT":" ","MAREA":" ","LANE":" ","ALLEY":" ","HOUSE_NO":"５３號","E_COORD97":171008.98999999999,"N_COORD97":2540039.3999999999,"ADDRESS":"崇德三十四街５３號","OBJECTID":583537},"geometry":{"x":171008.99000000209,"y":2540039.4000000022}},{"attributes":{"ID":583565,"DIS_CODE":0,"TOWNNAME":"東區","LI":"東智里","LIN":"16鄰","STREET":"崇德三十四街","SECT":" ","MAREA":" ","LANE":" ","ALLEY":" ","HOUSE_NO":"５２號","E_COORD97":171005.03,"N_COORD97":2540038.98,"ADDRESS":"崇德三十四街５２號","OBJECTID":583538},"geometry":{"x":171005.03000000026,"y":2540038.9800000023}},{"attributes":{"ID":583566,"DIS_CODE":0,"TOWNNAME":"東區","LI":"東智里","LIN":"16鄰","STREET":"崇德三十四街","SECT":" ","MAREA":" ","LANE":" ","ALLEY":" ","HOUSE_NO":"５１號","E_COORD97":171001.76999999999,"N_COORD97":2540038.8300000001,"ADDRESS":"崇德三十四街５１號","OBJECTID":583539},"geometry":{"x":171001.77000000048,"y":2540038.8300000019}},{"attributes":{"ID":583567,"DIS_CODE":0,"TOWNNAME":"東區","LI":"東智里","LIN":"16鄰","STREET":"崇德三十四街","SECT":" ","MAREA":" ","LANE":" ","ALLEY":" ","HOUSE_NO":"５０號","E_COORD97":170997.51999999999,"N_COORD97":2540037.9900000002,"ADDRESS":"崇德三十四街５０號","OBJECTID":583540},"geometry":{"x":170997.51999999955,"y":2540037.9900000021}},{"attributes":{"ID":583568,"DIS_CODE":0,"TOWNNAME":"東區","LI":"東智里","LIN":"16鄰","STREET":"崇德三十四街","SECT":" ","MAREA":" ","LANE":" ","ALLEY":" ","HOUSE_NO":"４９號","E_COORD97":170993.70000000001,"N_COORD97":2540037.4199999999,"ADDRESS":"崇德三十四街４９號","OBJECTID":583541},"geometry":{"x":170993.70000000019,"y":2540037.4199999981}},{"attributes":{"ID":583569,"DIS_CODE":0,"TOWNNAME":"東區","LI":"東智里","LIN":"16鄰","STREET":"崇德三十四街","SECT":" ","MAREA":" ","LANE":" ","ALLEY":" ","HOUSE_NO":"５８號","E_COORD97":171027.67999999999,"N_COORD97":2540043.3599999999,"ADDRESS":"崇德三十四街５８號","OBJECTID":583542},"geometry":{"x":171027.68000000063,"y":2540043.3599999994}},{"attributes":{"ID":583570,"DIS_CODE":0,"TOWNNAME":"東區","LI":"東智里","LIN":"16鄰","STREET":"崇德三十四街","SECT":" ","MAREA":" ","LANE":" ","ALLEY":" ","HOUSE_NO":"４８號","E_COORD97":170990.01999999999,"N_COORD97":2540036.8500000001,"ADDRESS":"崇德三十四街４８號","OBJECTID":583543},"geometry":{"x":170990.02000000048,"y":2540036.8499999996}},{"attributes":{"ID":583571,"DIS_CODE":0,"TOWNNAME":"東區","LI":"東智里","LIN":"16鄰","STREET":"崇德三十四街","SECT":" ","MAREA":" ","LANE":" ","ALLEY":" ","HOUSE_NO":"４７號","E_COORD97":170986.76000000001,"N_COORD97":2540036.8500000001,"ADDRESS":"崇德三十四街４７號","OBJECTID":583544},"geometry":{"x":170986.76000000071,"y":2540036.8499999996}},{"attributes":{"ID":583572,"DIS_CODE":0,"TOWNNAME":"東區","LI":"東智里","LIN":"16鄰","STREET":"崇德三十四街","SECT":" ","MAREA":" ","LANE":" ","ALLEY":" ","HOUSE_NO":"４６號","E_COORD97":170982.79999999999,"N_COORD97":2540036.29,"ADDRESS":"崇德三十四街４６號","OBJECTID":583545},"geometry":{"x":170982.80000000168,"y":2540036.2899999991}},{"attributes":{"ID":583573,"DIS_CODE":0,"TOWNNAME":"東區","LI":"東智里","LIN":"16鄰","STREET":"崇德三十四街","SECT":" ","MAREA":" ","LANE":" ","ALLEY":" ","HOUSE_NO":"４５號","E_COORD97":170978.98000000001,"N_COORD97":2540035.8599999999,"ADDRESS":"崇德三十四街４５號","OBJECTID":583546},"geometry":{"x":170978.98000000138,"y":2540035.8599999994}},{"attributes":{"ID":583574,"DIS_CODE":0,"TOWNNAME":"東區","LI":"東智里","LIN":"16鄰","STREET":"崇德三十四街","SECT":" ","MAREA":" ","LANE":" ","ALLEY":" ","HOUSE_NO":"４３號","E_COORD97":170975.57999999999,"N_COORD97":2540035.2999999998,"ADDRESS":"崇德三十四街４３號","OBJECTID":583547},"geometry":{"x":170975.58000000007,"y":2540035.3000000007}},{"attributes":{"ID":583575,"DIS_CODE":0,"TOWNNAME":"東區","LI":"東智里","LIN":"16鄰","STREET":"崇德三十四街","SECT":" ","MAREA":" ","LANE":" ","ALLEY":" ","HOUSE_NO":"４２號","E_COORD97":170971.47,"N_COORD97":2540034.8700000001,"ADDRESS":"崇德三十四街４２號","OBJECTID":583548},"geometry":{"x":170971.47000000067,"y":2540034.870000001}},{"attributes":{"ID":583576,"DIS_CODE":0,"TOWNNAME":"東區","LI":"東智里","LIN":"16鄰","STREET":"崇德三十四街","SECT":" ","MAREA":" ","LANE":" ","ALLEY":" ","HOUSE_NO":"４１號","E_COORD97":170968.07000000001,"N_COORD97":2540034.3100000001,"ADDRESS":"崇德三十四街４１號","OBJECTID":583549},"geometry":{"x":170968.07000000123,"y":2540034.3100000005}},{"attributes":{"ID":583577,"DIS_CODE":0,"TOWNNAME":"東區","LI":"東智里","LIN":"16鄰","STREET":"崇德三十四街","SECT":" ","MAREA":" ","LANE":" ","ALLEY":" ","HOUSE_NO":"４０號","E_COORD97":170964.89999999999,"N_COORD97":2540033.46,"ADDRESS":"崇德三十四街４０號","OBJECTID":583550},"geometry":{"x":170964.90000000037,"y":2540033.4600000009}},{"attributes":{"ID":583578,"DIS_CODE":0,"TOWNNAME":"東區","LI":"東智里","LIN":"16鄰","STREET":"崇德三十四街","SECT":" ","MAREA":" ","LANE":" ","ALLEY":" ","HOUSE_NO":"３９號","E_COORD97":170960.51000000001,"N_COORD97":2540032.8900000001,"ADDRESS":"崇德三十四街３９號","OBJECTID":583551},"geometry":{"x":170960.50999999978,"y":2540032.8900000025}},{"attributes":{"ID":583579,"DIS_CODE":0,"TOWNNAME":"東區","LI":"東智里","LIN":"16鄰","STREET":"崇德三十四街","SECT":" ","MAREA":" ","LANE":" ","ALLEY":" ","HOUSE_NO":"３８號","E_COORD97":170956.26000000001,"N_COORD97":2540032.3300000001,"ADDRESS":"崇德三十四街３８號","OBJECTID":583552},"geometry":{"x":170956.26000000071,"y":2540032.3300000019}},{"attributes":{"ID":583580,"DIS_CODE":0,"TOWNNAME":"東區","LI":"東智里","LIN":"16鄰","STREET":"崇德三十四街","SECT":" ","MAREA":" ","LANE":" ","ALLEY":" ","HOUSE_NO":"５７號","E_COORD97":171024.42999999999,"N_COORD97":2540041.7999999998,"ADDRESS":"崇德三十四街５７號","OBJECTID":583553},"geometry":{"x":171024.43000000063,"y":2540041.8000000007}},{"attributes":{"ID":583581,"DIS_CODE":0,"TOWNNAME":"東區","LI":"東智里","LIN":"16鄰","STREET":"崇德三十四街","SECT":" ","MAREA":" ","LANE":" ","ALLEY":" ","HOUSE_NO":"３７號","E_COORD97":170953.29000000001,"N_COORD97":2540032.04,"ADDRESS":"崇德三十四街３７號","OBJECTID":583554},"geometry":{"x":170953.29000000097,"y":2540032.0399999991}},{"attributes":{"ID":583582,"DIS_CODE":0,"TOWNNAME":"東區","LI":"東智里","LIN":"16鄰","STREET":"崇德三十四街","SECT":" ","MAREA":" ","LANE":" ","ALLEY":" ","HOUSE_NO":"３６號","E_COORD97":170949.75,"N_COORD97":2540031.7599999998,"ADDRESS":"崇德三十四街３６號","OBJECTID":583555},"geometry":{"x":170949.75000000093,"y":2540031.7600000035}},{"attributes":{"ID":583583,"DIS_CODE":0,"TOWNNAME":"東區","LI":"東智里","LIN":"16鄰","STREET":"崇德三十四街","SECT":" ","MAREA":" ","LANE":" ","ALLEY":" ","HOUSE_NO":"３５號","E_COORD97":170946.06,"N_COORD97":2540031.48,"ADDRESS":"崇德三十四街３５號","OBJECTID":583556},"geometry":{"x":170946.05999999959,"y":2540031.4800000023}},{"attributes":{"ID":583584,"DIS_CODE":0,"TOWNNAME":"東區","LI":"東智里","LIN":"16鄰","STREET":"崇德三十四街","SECT":" ","MAREA":" ","LANE":" ","ALLEY":" ","HOUSE_NO":"３４號","E_COORD97":170942.10000000001,"N_COORD97":2540031.0499999998,"ADDRESS":"崇德三十四街３４號","OBJECTID":583557},"geometry":{"x":170942.10000000056,"y":2540031.0500000045}},{"attributes":{"ID":583585,"DIS_CODE":0,"TOWNNAME":"東區","LI":"忠孝里","LIN":"26鄰","STREET":"林森路","SECT":"一段","MAREA":" ","LANE":" ","ALLEY":" ","HOUSE_NO":"１６０號地下層","E_COORD97":169552.09,"N_COORD97":2542470.5,"ADDRESS":"林森路一段１６０號地下層","OBJECTID":583558},"geometry":{"x":169552.09000000078,"y":2542470.5}},{"attributes":{"ID":583586,"DIS_CODE":0,"TOWNNAME":"善化區","LI":"文昌里","LIN":"16鄰","STREET":"大同路","SECT":" ","MAREA":" ","LANE":" ","ALLEY":" ","HOUSE_NO":"７０號","E_COORD97":177591.20999999999,"N_COORD97":2558537.8399999999,"ADDRESS":"大同路７０號","OBJECTID":583559},"geometry":{"x":177591.20999999903,"y":2558537.8399999999}},{"attributes":{"ID":583587,"DIS_CODE":0,"TOWNNAME":"東區","LI":"東智里","LIN":"16鄰","STREET":"崇德三十四街","SECT":" ","MAREA":" ","LANE":" ","ALLEY":" ","HOUSE_NO":"３３號","E_COORD97":170937.98999999999,"N_COORD97":2540030.6299999999,"ADDRESS":"崇德三十四街３３號","OBJECTID":583560},"geometry":{"x":170937.99000000115,"y":2540030.629999999}},{"attributes":{"ID":583588,"DIS_CODE":0,"TOWNNAME":"東區","LI":"東智里","LIN":"16鄰","STREET":"崇德三十四街","SECT":" ","MAREA":" ","LANE":" ","ALLEY":" ","HOUSE_NO":"３２號","E_COORD97":170934.31,"N_COORD97":2540030.21,"ADDRESS":"崇德三十四街３２號","OBJECTID":583561},"geometry":{"x":170934.30999999959,"y":2540030.2100000028}},{"attributes":{"ID":583589,"DIS_CODE":0,"TOWNNAME":"東區","LI":"東智里","LIN":"16鄰","STREET":"崇德三十四街","SECT":" ","MAREA":" ","LANE":" ","ALLEY":" ","HOUSE_NO":"３１號","E_COORD97":170929.92000000001,"N_COORD97":2540029.7799999998,"ADDRESS":"崇德三十四街３１號","OBJECTID":583562},"geometry":{"x":170929.92000000086,"y":2540029.7799999993}},{"attributes":{"ID":583590,"DIS_CODE":0,"TOWNNAME":"東區","LI":"東智里","LIN":"16鄰","STREET":"崇德三十四街","SECT":" ","MAREA":" ","LANE":" ","ALLEY":" ","HOUSE_NO":"３０號","E_COORD97":170925.10999999999,"N_COORD97":2540029.5,"ADDRESS":"崇德三十四街３０號","OBJECTID":583563},"geometry":{"x":170925.1099999994,"y":2540029.5}},{"attributes":{"ID":583591,"DIS_CODE":0,"TOWNNAME":"東區","LI":"東智里","LIN":"16鄰","STREET":"崇德三十三街","SECT":" ","MAREA":" ","LANE":" ","ALLEY":" ","HOUSE_NO":"４０號","E_COORD97":170910.76000000001,"N_COORD97":2540046.5099999998,"ADDRESS":"崇德三十三街４０號","OBJECTID":583564},"geometry":{"x":170910.76000000071,"y":2540046.5099999998}},{"attributes":{"ID":583592,"DIS_CODE":0,"TOWNNAME":"東區","LI":"東智里","LIN":"16鄰","STREET":"崇德三十三街","SECT":" ","MAREA":" ","LANE":" ","ALLEY":" ","HOUSE_NO":"３８號","E_COORD97":170900.29000000001,"N_COORD97":2540046.0899999999,"ADDRESS":"崇德三十三街３８號","OBJECTID":583565},"geometry":{"x":170900.29000000097,"y":2540046.0899999999}},{"attributes":{"ID":583593,"DIS_CODE":0,"TOWNNAME":"東區","LI":"自強里","LIN":"1鄰","STREET":"東成街","SECT":" ","MAREA":" ","LANE":" ","ALLEY":" ","HOUSE_NO":"１５號","E_COORD97":171303.28,"N_COORD97":2542268.4100000001,"ADDRESS":"東成街１５號","OBJECTID":583566},"geometry":{"x":171303.28000000026,"y":2542268.4100000001}},{"attributes":{"ID":583594,"DIS_CODE":0,"TOWNNAME":"東區","LI":"東智里","LIN":"16鄰","STREET":"崇德三十四街","SECT":" ","MAREA":" ","LANE":" ","ALLEY":" ","HOUSE_NO":"５６號","E_COORD97":171020.32000000001,"N_COORD97":2540040.9500000002,"ADDRESS":"崇德三十四街５６號","OBJECTID":583567},"geometry":{"x":171020.32000000216,"y":2540040.9500000011}},{"attributes":{"ID":583595,"DIS_CODE":0,"TOWNNAME":"東區","LI":"東智里","LIN":"16鄰","STREET":"崇德三十三街","SECT":" ","MAREA":" ","LANE":" ","ALLEY":" ","HOUSE_NO":"３６號","E_COORD97":170890.79999999999,"N_COORD97":2540045.52,"ADDRESS":"崇德三十三街３６號","OBJECTID":583568},"geometry":{"x":170890.79999999981,"y":2540045.5199999996}},{"attributes":{"ID":583596,"DIS_CODE":0,"TOWNNAME":"東區","LI":"東智里","LIN":"16鄰","STREET":"崇德三十三街","SECT":" ","MAREA":" ","LANE":" ","ALLEY":" ","HOUSE_NO":"３４號","E_COORD97":170884.14000000001,"N_COORD97":2540044.6699999999,"ADDRESS":"崇德三十三街３４號","OBJECTID":583569},"geometry":{"x":170884.1400000006,"y":2540044.6699999999}},{"attributes":{"ID":583597,"DIS_CODE":0,"TOWNNAME":"東區","LI":"東智里","LIN":"16鄰","STREET":"崇德三十三街","SECT":" ","MAREA":" ","LANE":" ","ALLEY":" ","HOUSE_NO":"３２號","E_COORD97":170878.42999999999,"N_COORD97":2540044.8199999998,"ADDRESS":"崇德三十三街３２號","OBJECTID":583570},"geometry":{"x":170878.43000000156,"y":2540044.8200000003}},{"attributes":{"ID":583598,"DIS_CODE":0,"TOWNNAME":"東區","LI":"東智里","LIN":"16鄰","STREET":"崇德三十三街","SECT":" ","MAREA":" ","LANE":" ","ALLEY":" ","HOUSE_NO":"３０號","E_COORD97":170870.92999999999,"N_COORD97":2540044.25,"ADDRESS":"崇德三十三街３０號","OBJECTID":583571},"geometry":{"x":170870.9299999997,"y":2540044.25}},{"attributes":{"ID":583599,"DIS_CODE":0,"TOWNNAME":"東區","LI":"東智里","LIN":"16鄰","STREET":"崇德三十三街","SECT":" ","MAREA":" ","LANE":" ","ALLEY":" ","HOUSE_NO":"２８號","E_COORD97":170863.70999999999,"N_COORD97":2540043.9700000002,"ADDRESS":"崇德三十三街２８號","OBJECTID":583572},"geometry":{"x":170863.71000000089,"y":2540043.9700000007}},{"attributes":{"ID":583600,"DIS_CODE":0,"TOWNNAME":"東區","LI":"東智里","LIN":"16鄰","STREET":"崇德三十三街","SECT":" ","MAREA":" ","LANE":" ","ALLEY":" ","HOUSE_NO":"２６號","E_COORD97":170858.89000000001,"N_COORD97":2540043.2599999998,"ADDRESS":"崇德三十三街２６號","OBJECTID":583573},"geometry":{"x":170858.8900000006,"y":2540043.2600000016}},{"attributes":{"ID":583601,"DIS_CODE":0,"TOWNNAME":"東區","LI":"崇德里","LIN":"15鄰","STREET":"崇明十三街","SECT":" ","MAREA":" ","LANE":" ","ALLEY":" ","HOUSE_NO":"７８號","E_COORD97":170583.67999999999,"N_COORD97":2541700.73,"ADDRESS":"崇明十三街７８號","OBJECTID":583574},"geometry":{"x":170583.68000000063,"y":2541700.7300000042}},{"attributes":{"ID":583602,"DIS_CODE":0,"TOWNNAME":"東區","LI":"圍下里","LIN":"1鄰","STREET":"勝利路","SECT":" ","MAREA":" ","LANE":" ","ALLEY":" ","HOUSE_NO":"５７號之１","E_COORD97":169778.56,"N_COORD97":2543434.96,"ADDRESS":"勝利路５７號之１","OBJECTID":583575},"geometry":{"x":169778.55999999959,"y":2543434.9600000009}},{"attributes":{"ID":583603,"DIS_CODE":0,"TOWNNAME":"東區","LI":"富強里","LIN":"6鄰","STREET":"中華東路","SECT":"二段","MAREA":" ","LANE":" ","ALLEY":" ","HOUSE_NO":"５２號","E_COORD97":171369.47,"N_COORD97":2543000.5299999998,"ADDRESS":"中華東路二段５２號","OBJECTID":583576},"geometry":{"x":171369.46999999974,"y":2543000.5300000012}},{"attributes":{"ID":583604,"DIS_CODE":0,"TOWNNAME":"東區","LI":"富強里","LIN":"6鄰","STREET":"中華東路","SECT":"二段","MAREA":" ","LANE":" ","ALLEY":" ","HOUSE_NO":"５０號","E_COORD97":171368.89999999999,"N_COORD97":2543005.5099999998,"ADDRESS":"中華東路二段５０號","OBJECTID":583577},"geometry":{"x":171368.90000000037,"y":2543005.5099999998}},{"attributes":{"ID":583605,"DIS_CODE":0,"TOWNNAME":"善化區","LI":"文昌里","LIN":"16鄰","STREET":"大同路","SECT":" ","MAREA":" ","LANE":" ","ALLEY":" ","HOUSE_NO":"７２號","E_COORD97":177586.14000000001,"N_COORD97":2558537.4500000002,"ADDRESS":"大同路７２號","OBJECTID":583578},"geometry":{"x":177586.13999999966,"y":2558537.4499999993}},{"attributes":{"ID":583606,"DIS_CODE":0,"TOWNNAME":"東區","LI":"東智里","LIN":"16鄰","STREET":"崇德三十三街","SECT":" ","MAREA":" ","LANE":" ","ALLEY":" ","HOUSE_NO":"２４號","E_COORD97":170855.07000000001,"N_COORD97":2540042.7000000002,"ADDRESS":"崇德三十三街２４號","OBJECTID":583579},"geometry":{"x":170855.07000000123,"y":2540042.7000000011}},{"attributes":{"ID":583607,"DIS_CODE":0,"TOWNNAME":"東區","LI":"東智里","LIN":"16鄰","STREET":"崇德三十三街","SECT":" ","MAREA":" ","LANE":" ","ALLEY":" ","HOUSE_NO":"２２號","E_COORD97":170851.25,"N_COORD97":2540042.27,"ADDRESS":"崇德三十三街２２號","OBJECTID":583580},"geometry":{"x":170851.25000000093,"y":2540042.2700000014}},{"attributes":{"ID":583608,"DIS_CODE":0,"TOWNNAME":"東區","LI":"東智里","LIN":"16鄰","STREET":"崇德三十三街","SECT":" ","MAREA":" ","LANE":" ","ALLEY":" ","HOUSE_NO":"２０號","E_COORD97":170846.85999999999,"N_COORD97":2540042.1299999999,"ADDRESS":"崇德三十三街２０號","OBJECTID":583581},"geometry":{"x":170846.86000000034,"y":2540042.1300000027}},{"attributes":{"ID":583609,"DIS_CODE":0,"TOWNNAME":"東區","LI":"東智里","LIN":"16鄰","STREET":"崇德三十三街","SECT":" ","MAREA":" ","LANE":" ","ALLEY":" ","HOUSE_NO":"１８號","E_COORD97":170842.04000000001,"N_COORD97":2540041.9900000002,"ADDRESS":"崇德三十三街１８號","OBJECTID":583582},"geometry":{"x":170842.04000000004,"y":2540041.9900000021}},{"attributes":{"ID":583610,"DIS_CODE":0,"TOWNNAME":"東區","LI":"東智里","LIN":"16鄰","STREET":"崇德三十四街","SECT":" ","MAREA":" ","LANE":" ","ALLEY":" ","HOUSE_NO":"５５號","E_COORD97":171016.20999999999,"N_COORD97":2540040.8100000001,"ADDRESS":"崇德三十四街５５號","OBJECTID":583583},"geometry":{"x":171016.21000000089,"y":2540040.8100000005}},{"attributes":{"ID":583611,"DIS_CODE":0,"TOWNNAME":"東區","LI":"東智里","LIN":"16鄰","STREET":"崇德三十三街","SECT":" ","MAREA":" ","LANE":" ","ALLEY":" ","HOUSE_NO":"１６號","E_COORD97":170838.35999999999,"N_COORD97":2540041.8500000001,"ADDRESS":"崇德三十三街１６號","OBJECTID":583584},"geometry":{"x":170838.36000000034,"y":2540041.8500000015}},{"attributes":{"ID":583612,"DIS_CODE":0,"TOWNNAME":"東區","LI":"東智里","LIN":"16鄰","STREET":"崇德三十三街","SECT":" ","MAREA":" ","LANE":" ","ALLEY":" ","HOUSE_NO":"１４號","E_COORD97":170833.82999999999,"N_COORD97":2540041.8500000001,"ADDRESS":"崇德三十三街１４號","OBJECTID":583585},"geometry":{"x":170833.83000000101,"y":2540041.8500000015}},{"attributes":{"ID":583613,"DIS_CODE":0,"TOWNNAME":"東區","LI":"東智里","LIN":"16鄰","STREET":"崇德三十三街","SECT":" ","MAREA":" ","LANE":" ","ALLEY":" ","HOUSE_NO":"１２號","E_COORD97":170830.29000000001,"N_COORD97":2540041.5600000001,"ADDRESS":"崇德三十三街１２號","OBJECTID":583586},"geometry":{"x":170830.29000000004,"y":2540041.5600000024}},{"attributes":{"ID":583614,"DIS_CODE":0,"TOWNNAME":"東區","LI":"東智里","LIN":"16鄰","STREET":"崇德三十三街","SECT":" ","MAREA":" ","LANE":" ","ALLEY":" ","HOUSE_NO":"１０號","E_COORD97":170826.26000000001,"N_COORD97":2540041.9199999999,"ADDRESS":"崇德三十三街１０號","OBJECTID":583587},"geometry":{"x":170826.25999999978,"y":2540041.9200000018}},{"attributes":{"ID":583615,"DIS_CODE":0,"TOWNNAME":"東區","LI":"東智里","LIN":"16鄰","STREET":"崇德三十三街","SECT":" ","MAREA":" ","LANE":" ","ALLEY":" ","HOUSE_NO":"８號","E_COORD97":170821.73000000001,"N_COORD97":2540041.9199999999,"ADDRESS":"崇德三十三街８號","OBJECTID":583588},"geometry":{"x":170821.73000000138,"y":2540041.9200000018}},{"attributes":{"ID":583616,"DIS_CODE":0,"TOWNNAME":"東區","LI":"和平里","LIN":"4鄰","STREET":"東門路","SECT":"三段","MAREA":" ","LANE":" ","ALLEY":" ","HOUSE_NO":"２５４號","E_COORD97":171620.67000000001,"N_COORD97":2541869.0899999999,"ADDRESS":"東門路三段２５４號","OBJECTID":583589},"geometry":{"x":171620.66999999993,"y":2541869.0899999999}},{"attributes":{"ID":583617,"DIS_CODE":0,"TOWNNAME":"東區","LI":"裕農里","LIN":"26鄰","STREET":"東寧路","SECT":" ","MAREA":" ","LANE":" ","ALLEY":" ","HOUSE_NO":"４３４號","E_COORD97":170964.07999999999,"N_COORD97":2543329.5800000001,"ADDRESS":"東寧路４３４號","OBJECTID":583590},"geometry":{"x":170964.08000000194,"y":2543329.5800000019}},{"attributes":{"ID":583618,"DIS_CODE":0,"TOWNNAME":"東區","LI":"莊敬里","LIN":"15鄰","STREET":"東光路","SECT":"二段","MAREA":" ","LANE":" ","ALLEY":" ","HOUSE_NO":"４９號","E_COORD97":171202.04999999999,"N_COORD97":2544084.1400000001,"ADDRESS":"東光路二段４９號","OBJECTID":583591},"geometry":{"x":171202.05000000075,"y":2544084.1400000006}},{"attributes":{"ID":583619,"DIS_CODE":0,"TOWNNAME":"東區","LI":"莊敬里","LIN":"15鄰","STREET":"東光路","SECT":"二段","MAREA":" ","LANE":" ","ALLEY":" ","HOUSE_NO":"５１號","E_COORD97":171202.85999999999,"N_COORD97":2544088.71,"ADDRESS":"東光路二段５１號","OBJECTID":583592},"geometry":{"x":171202.86000000034,"y":2544088.7100000028}},{"attributes":{"ID":583620,"DIS_CODE":0,"TOWNNAME":"東區","LI":"崇德里","LIN":"10鄰","STREET":"崇德九街","SECT":" ","MAREA":" ","LANE":" ","ALLEY":" ","HOUSE_NO":"４８號","E_COORD97":170913.23000000001,"N_COORD97":2541556.75,"ADDRESS":"崇德九街４８號","OBJECTID":583593},"geometry":{"x":170913.23000000138,"y":2541556.75}},{"attributes":{"ID":583621,"DIS_CODE":0,"TOWNNAME":"東區","LI":"崇德里","LIN":"10鄰","STREET":"崇德九街","SECT":" ","MAREA":" ","LANE":" ","ALLEY":" ","HOUSE_NO":"５０號","E_COORD97":170919.12,"N_COORD97":2541559.3100000001,"ADDRESS":"崇德九街５０號","OBJECTID":583594},"geometry":{"x":170919.12000000011,"y":2541559.3100000024}},{"attributes":{"ID":583622,"DIS_CODE":0,"TOWNNAME":"東區","LI":"崇善里","LIN":"23鄰","STREET":"崇善路","SECT":" ","MAREA":" ","LANE":" ","ALLEY":" ","HOUSE_NO":"７４３號","E_COORD97":171182.39999999999,"N_COORD97":2541007.98,"ADDRESS":"崇善路７４３號","OBJECTID":583595},"geometry":{"x":171182.40000000037,"y":2541007.9800000023}},{"attributes":{"ID":583623,"DIS_CODE":0,"TOWNNAME":"東區","LI":"東智里","LIN":"16鄰","STREET":"崇德三十三街","SECT":" ","MAREA":" ","LANE":" ","ALLEY":" ","HOUSE_NO":"６號","E_COORD97":170817.06,"N_COORD97":2540042.0600000001,"ADDRESS":"崇德三十三街６號","OBJECTID":583596},"geometry":{"x":170817.06000000052,"y":2540042.0600000024}},{"attributes":{"ID":583624,"DIS_CODE":0,"TOWNNAME":"東區","LI":"東智里","LIN":"16鄰","STREET":"崇德三十三街","SECT":" ","MAREA":" ","LANE":" ","ALLEY":" ","HOUSE_NO":"２號","E_COORD97":170814.07999999999,"N_COORD97":2540042.3399999999,"ADDRESS":"崇德三十三街２號","OBJECTID":583597},"geometry":{"x":170814.08000000101,"y":2540042.3400000017}},{"attributes":{"ID":583625,"DIS_CODE":0,"TOWNNAME":"東區","LI":"東智里","LIN":"16鄰","STREET":"崇德三十四街","SECT":" ","MAREA":" ","LANE":" ","ALLEY":" ","HOUSE_NO":"５４號","E_COORD97":171012.25,"N_COORD97":2540040.1099999999,"ADDRESS":"崇德三十四街５４號","OBJECTID":583598},"geometry":{"x":171012.25000000093,"y":2540040.1100000013}},{"attributes":{"ID":583626,"DIS_CODE":0,"TOWNNAME":"仁德區","LI":"新田里","LIN":"16鄰","STREET":"北保東路","SECT":" ","MAREA":" ","LANE":" ","ALLEY":" ","HOUSE_NO":"３６號","E_COORD97":173447.60000000001,"N_COORD97":2539352.9900000002,"ADDRESS":"北保東路３６號","OBJECTID":583599},"geometry":{"x":173447.60000000056,"y":2539352.9900000021}},{"attributes":{"ID":583627,"DIS_CODE":0,"TOWNNAME":"仁德區","LI":"保安里","LIN":"16鄰","STREET":"中正路","SECT":"一段","MAREA":" ","LANE":" ","ALLEY":" ","HOUSE_NO":"１６３號","E_COORD97":171483.63,"N_COORD97":2535692.02,"ADDRESS":"中正路一段１６３號","OBJECTID":583600},"geometry":{"x":171483.62999999989,"y":2535692.0199999996}}]}