{"displayFieldName":"TOWNNAME","fieldAliases":{"ID":"ID","DIS_CODE":"DIS_CODE","TOWNNAME":"TOWNNAME","LI":"LI","LIN":"LIN","STREET":"STREET","SECT":"SECT","MAREA":"MAREA","LANE":"LANE","ALLEY":"ALLEY","HOUSE_NO":"HOUSE_NO","E_COORD97":"E_COORD97","N_COORD97":"N_COORD97","ADDRESS":"ADDRESS","OBJECTID":"OBJECTID"},"geometryType":"esriGeometryPoint","spatialReference":{"wkid":102443,"latestWkid":3826},"fields":[{"name":"ID","type":"esriFieldTypeDouble","alias":"ID"},{"name":"DIS_CODE","type":"esriFieldTypeInteger","alias":"DIS_CODE"},{"name":"TOWNNAME","type":"esriFieldTypeString","alias":"TOWNNAME","length":8},{"name":"LI","type":"esriFieldTypeString","alias":"LI","length":8},{"name":"LIN","type":"esriFieldTypeString","alias":"LIN","length":12},{"name":"STREET","type":"esriFieldTypeString","alias":"STREET","length":20},{"name":"SECT","type":"esriFieldTypeString","alias":"SECT","length":8},{"name":"MAREA","type":"esriFieldTypeString","alias":"MAREA","length":12},{"name":"LANE","type":"esriFieldTypeString","alias":"LANE","length":10},{"name":"ALLEY","type":"esriFieldTypeString","alias":"ALLEY","length":10},{"name":"HOUSE_NO","type":"esriFieldTypeString","alias":"HOUSE_NO","length":20},{"name":"E_COORD97","type":"esriFieldTypeDouble","alias":"E_COORD97"},{"name":"N_COORD97","type":"esriFieldTypeDouble","alias":"N_COORD97"},{"name":"ADDRESS","type":"esriFieldTypeString","alias":"ADDRESS","length":50},{"name":"OBJECTID","type":"esriFieldTypeOID","alias":"OBJECTID"}],"features":[{"attributes":{"ID":100001,"DIS_CODE":0,"TOWNNAME":"麻豆區","LI":"安業里","LIN":"10鄰","STREET":" ","SECT":" ","MAREA":"安業","LANE":" ","ALLEY":" ","HOUSE_NO":"１９０號之３","E_COORD97":172615.54999999999,"N_COORD97":2561888.3500000001,"ADDRESS":"安業１９０號之３","OBJECTID":100001},"geometry":{"x":172615.55000000075,"y":2561888.3499999996}},{"attributes":{"ID":100002,"DIS_CODE":0,"TOWNNAME":"麻豆區","LI":"安業里","LIN":"10鄰","STREET":" ","SECT":" ","MAREA":"安業","LANE":" ","ALLEY":" ","HOUSE_NO":"１９０號之５","E_COORD97":172619.60000000001,"N_COORD97":2561889.46,"ADDRESS":"安業１９０號之５","OBJECTID":100002},"geometry":{"x":172619.5999999987,"y":2561889.4600000046}},{"attributes":{"ID":100003,"DIS_CODE":0,"TOWNNAME":"麻豆區","LI":"安業里","LIN":"10鄰","STREET":" ","SECT":" ","MAREA":"安業","LANE":" ","ALLEY":" ","HOUSE_NO":"１９０號之６","E_COORD97":172623.76999999999,"N_COORD97":2561890.4900000002,"ADDRESS":"安業１９０號之６","OBJECTID":100003},"geometry":{"x":172623.77000000048,"y":2561890.4900000002}},{"attributes":{"ID":100004,"DIS_CODE":0,"TOWNNAME":"新化區","LI":"護國里","LIN":"9鄰","STREET":"中山路","SECT":" ","MAREA":" ","LANE":"１１１巷","ALLEY":"８弄","HOUSE_NO":"３３號","E_COORD97":179718.35999999999,"N_COORD97":2549070.25,"ADDRESS":"中山路１１１巷８弄３３號","OBJECTID":100004},"geometry":{"x":179718.36000000127,"y":2549070.25}},{"attributes":{"ID":100005,"DIS_CODE":0,"TOWNNAME":"新化區","LI":"護國里","LIN":"9鄰","STREET":"中山路","SECT":" ","MAREA":" ","LANE":"１１１巷","ALLEY":"８弄","HOUSE_NO":"１號","E_COORD97":179717.70999999999,"N_COORD97":2549148.25,"ADDRESS":"中山路１１１巷８弄１號","OBJECTID":100005},"geometry":{"x":179717.71000000089,"y":2549148.25}},{"attributes":{"ID":100006,"DIS_CODE":0,"TOWNNAME":"新化區","LI":"協興里","LIN":"9鄰","STREET":"正新路","SECT":" ","MAREA":" ","LANE":"３４１巷","ALLEY":"８２弄","HOUSE_NO":"１３號","E_COORD97":178359.32000000001,"N_COORD97":2548829.25,"ADDRESS":"正新路３４１巷８２弄１３號","OBJECTID":100006},"geometry":{"x":178359.32000000123,"y":2548829.25}},{"attributes":{"ID":100007,"DIS_CODE":0,"TOWNNAME":"麻豆區","LI":"安業里","LIN":"10鄰","STREET":" ","SECT":" ","MAREA":"安業","LANE":" ","ALLEY":" ","HOUSE_NO":"１９０號之７","E_COORD97":172628.17000000001,"N_COORD97":2561892.1299999999,"ADDRESS":"安業１９０號之７","OBJECTID":100007},"geometry":{"x":172628.17000000179,"y":2561892.129999999}},{"attributes":{"ID":100008,"DIS_CODE":0,"TOWNNAME":"麻豆區","LI":"安業里","LIN":"10鄰","STREET":" ","SECT":" ","MAREA":"安業","LANE":" ","ALLEY":" ","HOUSE_NO":"１９２號之２","E_COORD97":172539.34,"N_COORD97":2561843.3799999999,"ADDRESS":"安業１９２號之２","OBJECTID":100008},"geometry":{"x":172539.34000000078,"y":2561843.379999999}},{"attributes":{"ID":100009,"DIS_CODE":0,"TOWNNAME":"新化區","LI":"協興里","LIN":"9鄰","STREET":"正新路","SECT":" ","MAREA":" ","LANE":"３４１巷","ALLEY":"４７弄","HOUSE_NO":"１８號","E_COORD97":178372.92000000001,"N_COORD97":2548771.25,"ADDRESS":"正新路３４１巷４７弄１８號","OBJECTID":100009},"geometry":{"x":178372.91999999899,"y":2548771.25}},{"attributes":{"ID":100010,"DIS_CODE":0,"TOWNNAME":"麻豆區","LI":"安業里","LIN":"10鄰","STREET":" ","SECT":" ","MAREA":"安業","LANE":" ","ALLEY":" ","HOUSE_NO":"１９２號","E_COORD97":172551.10999999999,"N_COORD97":2561874.9700000002,"ADDRESS":"安業１９２號","OBJECTID":100010},"geometry":{"x":172551.11000000127,"y":2561874.9700000007}},{"attributes":{"ID":100011,"DIS_CODE":0,"TOWNNAME":"麻豆區","LI":"安業里","LIN":"10鄰","STREET":" ","SECT":" ","MAREA":"安業","LANE":" ","ALLEY":" ","HOUSE_NO":"１９３號","E_COORD97":172563.04000000001,"N_COORD97":2561844.7200000002,"ADDRESS":"安業１９３號","OBJECTID":100011},"geometry":{"x":172563.0400000019,"y":2561844.7200000025}},{"attributes":{"ID":100012,"DIS_CODE":0,"TOWNNAME":"麻豆區","LI":"安業里","LIN":"10鄰","STREET":" ","SECT":" ","MAREA":"安業","LANE":" ","ALLEY":" ","HOUSE_NO":"１９４號之２","E_COORD97":172661.47,"N_COORD97":2561738.4300000002,"ADDRESS":"安業１９４號之２","OBJECTID":100012},"geometry":{"x":172661.4700000016,"y":2561738.4299999997}},{"attributes":{"ID":100013,"DIS_CODE":0,"TOWNNAME":"麻豆區","LI":"安業里","LIN":"10鄰","STREET":" ","SECT":" ","MAREA":"安業","LANE":" ","ALLEY":" ","HOUSE_NO":"１９４號之３","E_COORD97":172601.04999999999,"N_COORD97":2561744.3199999998,"ADDRESS":"安業１９４號之３","OBJECTID":100013},"geometry":{"x":172601.04999999981,"y":2561744.3200000022}},{"attributes":{"ID":100014,"DIS_CODE":0,"TOWNNAME":"麻豆區","LI":"安業里","LIN":"10鄰","STREET":" ","SECT":" ","MAREA":"安業","LANE":" ","ALLEY":" ","HOUSE_NO":"１９４號之４","E_COORD97":172614.60000000001,"N_COORD97":2561759.9300000002,"ADDRESS":"安業１９４號之４","OBJECTID":100014},"geometry":{"x":172614.60000000149,"y":2561759.9300000016}},{"attributes":{"ID":100015,"DIS_CODE":0,"TOWNNAME":"新化區","LI":"協興里","LIN":"9鄰","STREET":"正新路","SECT":" ","MAREA":" ","LANE":"３４１巷","ALLEY":"４７弄","HOUSE_NO":"１０號","E_COORD97":178370.01999999999,"N_COORD97":2548783.25,"ADDRESS":"正新路３４１巷４７弄１０號","OBJECTID":100015},"geometry":{"x":178370.01999999955,"y":2548783.2500000019}},{"attributes":{"ID":100016,"DIS_CODE":0,"TOWNNAME":"新化區","LI":"協興里","LIN":"9鄰","STREET":"正新路","SECT":" ","MAREA":" ","LANE":"３４１巷","ALLEY":"４７弄","HOUSE_NO":"１２號","E_COORD97":178371.22,"N_COORD97":2548779.25,"ADDRESS":"正新路３４１巷４７弄１２號","OBJECTID":100016},"geometry":{"x":178371.22000000067,"y":2548779.2500000037}},{"attributes":{"ID":100017,"DIS_CODE":0,"TOWNNAME":"仁德區","LI":"上崙里","LIN":"9鄰","STREET":"德善路","SECT":" ","MAREA":" ","LANE":"３０５巷","ALLEY":"１３弄","HOUSE_NO":"２４號","E_COORD97":174001.28,"N_COORD97":2538506.6000000001,"ADDRESS":"德善路３０５巷１３弄２４號","OBJECTID":100017},"geometry":{"x":174001.28000000119,"y":2538506.5999999996}},{"attributes":{"ID":100018,"DIS_CODE":0,"TOWNNAME":"永康區","LI":"神洲里","LIN":"9鄰","STREET":"忠孝路","SECT":" ","MAREA":" ","LANE":"６巷","ALLEY":"３１弄","HOUSE_NO":"２號","E_COORD97":172269.07999999999,"N_COORD97":2544559,"ADDRESS":"忠孝路６巷３１弄２號","OBJECTID":100018},"geometry":{"x":172269.08000000007,"y":2544559}},{"attributes":{"ID":100019,"DIS_CODE":0,"TOWNNAME":"麻豆區","LI":"安業里","LIN":"10鄰","STREET":" ","SECT":" ","MAREA":"安業","LANE":" ","ALLEY":" ","HOUSE_NO":"１９４號之５","E_COORD97":172582.56,"N_COORD97":2561731.4500000002,"ADDRESS":"安業１９４號之５","OBJECTID":100019},"geometry":{"x":172582.55999999866,"y":2561731.4499999993}},{"attributes":{"ID":100020,"DIS_CODE":0,"TOWNNAME":"仁德區","LI":"上崙里","LIN":"9鄰","STREET":"德善路","SECT":" ","MAREA":" ","LANE":"３０５巷","ALLEY":"１３弄","HOUSE_NO":"１１號","E_COORD97":174025.10000000001,"N_COORD97":2538544.02,"ADDRESS":"德善路３０５巷１３弄１１號","OBJECTID":100020},"geometry":{"x":174025.10000000149,"y":2538544.0199999996}},{"attributes":{"ID":100021,"DIS_CODE":0,"TOWNNAME":"柳營區","LI":"東昇里","LIN":"10鄰","STREET":" ","SECT":" ","MAREA":"柳營","LANE":" ","ALLEY":" ","HOUSE_NO":"４４９號","E_COORD97":180108.59,"N_COORD97":2575428.29,"ADDRESS":"柳營４４９號","OBJECTID":100021},"geometry":{"x":180108.58999999985,"y":2575428.2899999991}},{"attributes":{"ID":100022,"DIS_CODE":0,"TOWNNAME":"南區","LI":"國宅里","LIN":"18鄰","STREET":"新興路","SECT":" ","MAREA":" ","LANE":" ","ALLEY":" ","HOUSE_NO":"４６８號","E_COORD97":166678.26000000001,"N_COORD97":2541747.21,"ADDRESS":"新興路４６８號","OBJECTID":100022},"geometry":{"x":166678.25999999978,"y":2541747.2100000009}},{"attributes":{"ID":100023,"DIS_CODE":0,"TOWNNAME":"南區","LI":"國宅里","LIN":"18鄰","STREET":"新興路","SECT":" ","MAREA":" ","LANE":" ","ALLEY":" ","HOUSE_NO":"４７０號","E_COORD97":166673.45000000001,"N_COORD97":2541747.21,"ADDRESS":"新興路４７０號","OBJECTID":100023},"geometry":{"x":166673.45000000112,"y":2541747.2100000009}},{"attributes":{"ID":100024,"DIS_CODE":0,"TOWNNAME":"南區","LI":"國宅里","LIN":"18鄰","STREET":"新興路","SECT":" ","MAREA":" ","LANE":" ","ALLEY":" ","HOUSE_NO":"４７２號","E_COORD97":166668.79999999999,"N_COORD97":2541747.3700000001,"ADDRESS":"新興路４７２號","OBJECTID":100024},"geometry":{"x":166668.80000000075,"y":2541747.370000001}},{"attributes":{"ID":100025,"DIS_CODE":0,"TOWNNAME":"南區","LI":"國宅里","LIN":"18鄰","STREET":"新興路","SECT":" ","MAREA":" ","LANE":" ","ALLEY":" ","HOUSE_NO":"４７４號","E_COORD97":166663.82999999999,"N_COORD97":2541746.8900000001,"ADDRESS":"新興路４７４號","OBJECTID":100025},"geometry":{"x":166663.83000000101,"y":2541746.8900000006}},{"attributes":{"ID":100026,"DIS_CODE":0,"TOWNNAME":"南區","LI":"國宅里","LIN":"18鄰","STREET":"新興路","SECT":" ","MAREA":" ","LANE":" ","ALLEY":" ","HOUSE_NO":"４７６號","E_COORD97":166659.66,"N_COORD97":2541746.5699999998,"ADDRESS":"新興路４７６號","OBJECTID":100026},"geometry":{"x":166659.66000000201,"y":2541746.5700000022}},{"attributes":{"ID":100027,"DIS_CODE":0,"TOWNNAME":"南區","LI":"廣州里","LIN":"25鄰","STREET":"金華路","SECT":"二段","MAREA":" ","LANE":" ","ALLEY":" ","HOUSE_NO":"３０８號","E_COORD97":167135.32000000001,"N_COORD97":2542635.8599999999,"ADDRESS":"金華路二段３０８號","OBJECTID":100027},"geometry":{"x":167135.32000000123,"y":2542635.8600000013}},{"attributes":{"ID":100028,"DIS_CODE":0,"TOWNNAME":"南區","LI":"廣州里","LIN":"25鄰","STREET":"金華路","SECT":"二段","MAREA":" ","LANE":" ","ALLEY":" ","HOUSE_NO":"３０６號","E_COORD97":167133.09,"N_COORD97":2542628.0899999999,"ADDRESS":"金華路二段３０６號","OBJECTID":100028},"geometry":{"x":167133.09000000078,"y":2542628.0900000017}},{"attributes":{"ID":100029,"DIS_CODE":0,"TOWNNAME":"南區","LI":"竹溪里","LIN":"13鄰","STREET":"南門路","SECT":" ","MAREA":" ","LANE":" ","ALLEY":" ","HOUSE_NO":"３３５號之２","E_COORD97":168365.07999999999,"N_COORD97":2541922.1299999999,"ADDRESS":"南門路３３５號之２","OBJECTID":100029},"geometry":{"x":168365.08000000007,"y":2541922.129999999}},{"attributes":{"ID":100030,"DIS_CODE":0,"TOWNNAME":"柳營區","LI":"中埕里","LIN":"10鄰","STREET":" ","SECT":" ","MAREA":"柳營","LANE":" ","ALLEY":" ","HOUSE_NO":"３５８之１０號","E_COORD97":180137.69,"N_COORD97":2574665.0699999998,"ADDRESS":"柳營３５８之１０號","OBJECTID":100030},"geometry":{"x":180137.69000000041,"y":2574665.0700000003}},{"attributes":{"ID":100031,"DIS_CODE":0,"TOWNNAME":"柳營區","LI":"中埕里","LIN":"10鄰","STREET":" ","SECT":" ","MAREA":"柳營","LANE":" ","ALLEY":" ","HOUSE_NO":"３５８之１２號","E_COORD97":180426.42000000001,"N_COORD97":2574168,"ADDRESS":"柳營３５８之１２號","OBJECTID":100031},"geometry":{"x":180426.42000000086,"y":2574168.0000000037}},{"attributes":{"ID":100032,"DIS_CODE":0,"TOWNNAME":"柳營區","LI":"中埕里","LIN":"10鄰","STREET":" ","SECT":" ","MAREA":"柳營","LANE":" ","ALLEY":" ","HOUSE_NO":"３５８之１３號","E_COORD97":179919.73000000001,"N_COORD97":2574756.96,"ADDRESS":"柳營３５８之１３號","OBJECTID":100032},"geometry":{"x":179919.73000000138,"y":2574756.9600000028}},{"attributes":{"ID":100033,"DIS_CODE":0,"TOWNNAME":"柳營區","LI":"中埕里","LIN":"10鄰","STREET":" ","SECT":" ","MAREA":"柳營","LANE":" ","ALLEY":" ","HOUSE_NO":"３５８之１７號","E_COORD97":180322.51000000001,"N_COORD97":2574131.9700000002,"ADDRESS":"柳營３５８之１７號","OBJECTID":100033},"geometry":{"x":180322.51000000071,"y":2574131.9700000044}},{"attributes":{"ID":100034,"DIS_CODE":0,"TOWNNAME":"柳營區","LI":"中埕里","LIN":"10鄰","STREET":" ","SECT":" ","MAREA":"柳營","LANE":" ","ALLEY":" ","HOUSE_NO":"３５８號之１","E_COORD97":180166.44,"N_COORD97":2574840.52,"ADDRESS":"柳營３５８號之１","OBJECTID":100034},"geometry":{"x":180166.44000000041,"y":2574840.5199999996}},{"attributes":{"ID":100035,"DIS_CODE":0,"TOWNNAME":"柳營區","LI":"中埕里","LIN":"10鄰","STREET":" ","SECT":" ","MAREA":"柳營","LANE":" ","ALLEY":" ","HOUSE_NO":"３５８之２０號","E_COORD97":180300.75,"N_COORD97":2574756.3700000001,"ADDRESS":"柳營３５８之２０號","OBJECTID":100035},"geometry":{"x":180300.75000000093,"y":2574756.3699999992}},{"attributes":{"ID":100036,"DIS_CODE":0,"TOWNNAME":"柳營區","LI":"中埕里","LIN":"10鄰","STREET":" ","SECT":" ","MAREA":"柳營","LANE":" ","ALLEY":" ","HOUSE_NO":"３５８之２２號","E_COORD97":180323.53,"N_COORD97":2574754.9300000002,"ADDRESS":"柳營３５８之２２號","OBJECTID":100036},"geometry":{"x":180323.53000000026,"y":2574754.9300000034}},{"attributes":{"ID":100037,"DIS_CODE":0,"TOWNNAME":"柳營區","LI":"中埕里","LIN":"10鄰","STREET":" ","SECT":" ","MAREA":"柳營","LANE":" ","ALLEY":" ","HOUSE_NO":"３５８號之２３","E_COORD97":180196.70999999999,"N_COORD97":2574803.3199999998,"ADDRESS":"柳營３５８號之２３","OBJECTID":100037},"geometry":{"x":180196.70999999903,"y":2574803.3200000003}},{"attributes":{"ID":100038,"DIS_CODE":0,"TOWNNAME":"柳營區","LI":"中埕里","LIN":"10鄰","STREET":" ","SECT":" ","MAREA":"柳營","LANE":" ","ALLEY":" ","HOUSE_NO":"３５８號之２５","E_COORD97":180167.16,"N_COORD97":2574949.3799999999,"ADDRESS":"柳營３５８號之２５","OBJECTID":100038},"geometry":{"x":180167.16000000108,"y":2574949.379999999}},{"attributes":{"ID":100039,"DIS_CODE":0,"TOWNNAME":"仁德區","LI":"成功里","LIN":"9鄰","STREET":"成功二街","SECT":" ","MAREA":" ","LANE":"７巷","ALLEY":"１６弄","HOUSE_NO":"３９號","E_COORD97":170994.89000000001,"N_COORD97":2539898.52,"ADDRESS":"成功二街７巷１６弄３９號","OBJECTID":100039},"geometry":{"x":170994.88999999966,"y":2539898.5200000014}},{"attributes":{"ID":100040,"DIS_CODE":0,"TOWNNAME":"仁德區","LI":"二行里","LIN":"9鄰","STREET":"中正西路","SECT":" ","MAREA":" ","LANE":"２１１巷","ALLEY":"２９弄","HOUSE_NO":"１６號","E_COORD97":170099.29000000001,"N_COORD97":2535237.8900000001,"ADDRESS":"中正西路２１１巷２９弄１６號","OBJECTID":100040},"geometry":{"x":170099.29000000004,"y":2535237.8900000043}},{"attributes":{"ID":100041,"DIS_CODE":0,"TOWNNAME":"仁德區","LI":"上崙里","LIN":"9鄰","STREET":"德善路","SECT":" ","MAREA":" ","LANE":"３０５巷","ALLEY":"１３弄","HOUSE_NO":"５４號","E_COORD97":174022.16,"N_COORD97":2538475.04,"ADDRESS":"德善路３０５巷１３弄５４號","OBJECTID":100041},"geometry":{"x":174022.16000000108,"y":2538475.0399999991}},{"attributes":{"ID":100042,"DIS_CODE":0,"TOWNNAME":"新化區","LI":"護國里","LIN":"9鄰","STREET":"中山路","SECT":" ","MAREA":" ","LANE":"１１１巷","ALLEY":"８弄","HOUSE_NO":"１０號","E_COORD97":179702.85999999999,"N_COORD97":2549113.25,"ADDRESS":"中山路１１１巷８弄１０號","OBJECTID":100042},"geometry":{"x":179702.8600000022,"y":2549113.25}},{"attributes":{"ID":100043,"DIS_CODE":0,"TOWNNAME":"新化區","LI":"護國里","LIN":"9鄰","STREET":"中山路","SECT":" ","MAREA":" ","LANE":"１１１巷","ALLEY":"８弄","HOUSE_NO":"８號","E_COORD97":179702.91,"N_COORD97":2549117.25,"ADDRESS":"中山路１１１巷８弄８號","OBJECTID":100043},"geometry":{"x":179702.91000000108,"y":2549117.25}},{"attributes":{"ID":100044,"DIS_CODE":0,"TOWNNAME":"柳營區","LI":"中埕里","LIN":"10鄰","STREET":" ","SECT":" ","MAREA":"柳營","LANE":" ","ALLEY":" ","HOUSE_NO":"３５８號之２","E_COORD97":180196.64000000001,"N_COORD97":2574790.1800000002,"ADDRESS":"柳營３５８號之２","OBJECTID":100044},"geometry":{"x":180196.63999999966,"y":2574790.1799999978}},{"attributes":{"ID":100045,"DIS_CODE":0,"TOWNNAME":"柳營區","LI":"中埕里","LIN":"10鄰","STREET":" ","SECT":" ","MAREA":"柳營","LANE":" ","ALLEY":" ","HOUSE_NO":"３５８之３號","E_COORD97":180235,"N_COORD97":2574866.6600000001,"ADDRESS":"柳營３５８之３號","OBJECTID":100045},"geometry":{"x":180235,"y":2574866.660000002}},{"attributes":{"ID":100046,"DIS_CODE":0,"TOWNNAME":"柳營區","LI":"中埕里","LIN":"10鄰","STREET":" ","SECT":" ","MAREA":"柳營","LANE":" ","ALLEY":" ","HOUSE_NO":"３５８號之３","E_COORD97":180235,"N_COORD97":2574866.6600000001,"ADDRESS":"柳營３５８號之３","OBJECTID":100046},"geometry":{"x":180235,"y":2574866.660000002}},{"attributes":{"ID":100047,"DIS_CODE":0,"TOWNNAME":"柳營區","LI":"中埕里","LIN":"10鄰","STREET":" ","SECT":" ","MAREA":"柳營","LANE":" ","ALLEY":" ","HOUSE_NO":"３５８號之５","E_COORD97":180325.32000000001,"N_COORD97":2574796.5,"ADDRESS":"柳營３５８號之５","OBJECTID":100047},"geometry":{"x":180325.32000000216,"y":2574796.5000000019}},{"attributes":{"ID":100048,"DIS_CODE":0,"TOWNNAME":"柳營區","LI":"中埕里","LIN":"10鄰","STREET":" ","SECT":" ","MAREA":"柳營","LANE":" ","ALLEY":" ","HOUSE_NO":"３５８之７號","E_COORD97":180404.38,"N_COORD97":2574803.75,"ADDRESS":"柳營３５８之７號","OBJECTID":100048},"geometry":{"x":180404.38000000082,"y":2574803.7500000037}},{"attributes":{"ID":100049,"DIS_CODE":0,"TOWNNAME":"柳營區","LI":"中埕里","LIN":"10鄰","STREET":" ","SECT":" ","MAREA":"柳營","LANE":" ","ALLEY":" ","HOUSE_NO":"３５９號之１","E_COORD97":180056.12,"N_COORD97":2574873.5299999998,"ADDRESS":"柳營３５９號之１","OBJECTID":100049},"geometry":{"x":180056.12000000011,"y":2574873.5300000012}},{"attributes":{"ID":100050,"DIS_CODE":0,"TOWNNAME":"柳營區","LI":"中埕里","LIN":"10鄰","STREET":" ","SECT":" ","MAREA":"柳營","LANE":" ","ALLEY":" ","HOUSE_NO":"３５９號之２","E_COORD97":180056.88,"N_COORD97":2574860.4100000001,"ADDRESS":"柳營３５９號之２","OBJECTID":100050},"geometry":{"x":180056.88000000082,"y":2574860.4100000039}},{"attributes":{"ID":100051,"DIS_CODE":0,"TOWNNAME":"柳營區","LI":"中埕里","LIN":"10鄰","STREET":" ","SECT":" ","MAREA":"柳營","LANE":" ","ALLEY":" ","HOUSE_NO":"３５９號之６","E_COORD97":180031.51000000001,"N_COORD97":2574828.9399999999,"ADDRESS":"柳營３５９號之６","OBJECTID":100051},"geometry":{"x":180031.50999999978,"y":2574828.9399999976}},{"attributes":{"ID":100052,"DIS_CODE":0,"TOWNNAME":"柳營區","LI":"中埕里","LIN":"10鄰","STREET":" ","SECT":" ","MAREA":"柳營","LANE":" ","ALLEY":" ","HOUSE_NO":"３５９號","E_COORD97":180031.47,"N_COORD97":2574925.0899999999,"ADDRESS":"柳營３５９號","OBJECTID":100052},"geometry":{"x":180031.46999999974,"y":2574925.0899999999}},{"attributes":{"ID":100053,"DIS_CODE":0,"TOWNNAME":"柳營區","LI":"中埕里","LIN":"10鄰","STREET":" ","SECT":" ","MAREA":"柳營","LANE":" ","ALLEY":" ","HOUSE_NO":"３６０之１０１號","E_COORD97":180388.23999999999,"N_COORD97":2574240.8599999999,"ADDRESS":"柳營３６０之１０１號","OBJECTID":100053},"geometry":{"x":180388.24000000022,"y":2574240.8600000013}},{"attributes":{"ID":100054,"DIS_CODE":0,"TOWNNAME":"柳營區","LI":"中埕里","LIN":"10鄰","STREET":" ","SECT":" ","MAREA":"柳營","LANE":" ","ALLEY":" ","HOUSE_NO":"３６０之１０２號","E_COORD97":180380.01999999999,"N_COORD97":2574241.1400000001,"ADDRESS":"柳營３６０之１０２號","OBJECTID":100054},"geometry":{"x":180380.01999999955,"y":2574241.1400000006}},{"attributes":{"ID":100055,"DIS_CODE":0,"TOWNNAME":"柳營區","LI":"中埕里","LIN":"10鄰","STREET":" ","SECT":" ","MAREA":"柳營","LANE":" ","ALLEY":" ","HOUSE_NO":"３６０之１５１號","E_COORD97":180292.72,"N_COORD97":2574310.9700000002,"ADDRESS":"柳營３６０之１５１號","OBJECTID":100055},"geometry":{"x":180292.71999999974,"y":2574310.9700000007}},{"attributes":{"ID":100056,"DIS_CODE":0,"TOWNNAME":"柳營區","LI":"中埕里","LIN":"10鄰","STREET":" ","SECT":" ","MAREA":"柳營","LANE":" ","ALLEY":" ","HOUSE_NO":"３６０號之１５","E_COORD97":180317.98999999999,"N_COORD97":2574596.48,"ADDRESS":"柳營３６０號之１５","OBJECTID":100056},"geometry":{"x":180317.99000000115,"y":2574596.4800000023}},{"attributes":{"ID":100057,"DIS_CODE":0,"TOWNNAME":"柳營區","LI":"中埕里","LIN":"10鄰","STREET":" ","SECT":" ","MAREA":"柳營","LANE":" ","ALLEY":" ","HOUSE_NO":"３６０號之２０","E_COORD97":180280.91,"N_COORD97":2574553.5600000001,"ADDRESS":"柳營３６０號之２０","OBJECTID":100057},"geometry":{"x":180280.91000000108,"y":2574553.5600000005}},{"attributes":{"ID":100058,"DIS_CODE":0,"TOWNNAME":"柳營區","LI":"中埕里","LIN":"10鄰","STREET":" ","SECT":" ","MAREA":"柳營","LANE":" ","ALLEY":" ","HOUSE_NO":"３６０之２１號","E_COORD97":180302.81,"N_COORD97":2574477.46,"ADDRESS":"柳營３６０之２１號","OBJECTID":100058},"geometry":{"x":180302.81000000052,"y":2574477.4600000009}},{"attributes":{"ID":100059,"DIS_CODE":0,"TOWNNAME":"柳營區","LI":"中埕里","LIN":"10鄰","STREET":" ","SECT":" ","MAREA":"柳營","LANE":" ","ALLEY":" ","HOUSE_NO":"３６０之２８號","E_COORD97":180448.97,"N_COORD97":2574516.54,"ADDRESS":"柳營３６０之２８號","OBJECTID":100059},"geometry":{"x":180448.96999999974,"y":2574516.540000001}},{"attributes":{"ID":100060,"DIS_CODE":0,"TOWNNAME":"柳營區","LI":"中埕里","LIN":"10鄰","STREET":" ","SECT":" ","MAREA":"柳營","LANE":" ","ALLEY":" ","HOUSE_NO":"３６０之３０號","E_COORD97":180506.38,"N_COORD97":2574537.7400000002,"ADDRESS":"柳營３６０之３０號","OBJECTID":100060},"geometry":{"x":180506.38000000082,"y":2574537.7400000021}},{"attributes":{"ID":100061,"DIS_CODE":0,"TOWNNAME":"柳營區","LI":"中埕里","LIN":"10鄰","STREET":" ","SECT":" ","MAREA":"柳營","LANE":" ","ALLEY":" ","HOUSE_NO":"３６０號","E_COORD97":179954.19,"N_COORD97":2575027.7000000002,"ADDRESS":"柳營３６０號","OBJECTID":100061},"geometry":{"x":179954.19000000041,"y":2575027.7000000011}},{"attributes":{"ID":100062,"DIS_CODE":0,"TOWNNAME":"柳營區","LI":"中埕里","LIN":"10鄰","STREET":" ","SECT":" ","MAREA":"柳營","LANE":" ","ALLEY":" ","HOUSE_NO":"３６３號","E_COORD97":180007.32000000001,"N_COORD97":2575182.2799999998,"ADDRESS":"柳營３６３號","OBJECTID":100062},"geometry":{"x":180007.32000000123,"y":2575182.2799999993}},{"attributes":{"ID":100063,"DIS_CODE":0,"TOWNNAME":"柳營區","LI":"士林里","LIN":"10鄰","STREET":" ","SECT":" ","MAREA":"柳營","LANE":" ","ALLEY":" ","HOUSE_NO":"８５之１號","E_COORD97":179585.84,"N_COORD97":2575130.9399999999,"ADDRESS":"柳營８５之１號","OBJECTID":100063},"geometry":{"x":179585.84000000078,"y":2575130.9400000032}},{"attributes":{"ID":100064,"DIS_CODE":0,"TOWNNAME":"柳營區","LI":"士林里","LIN":"10鄰","STREET":" ","SECT":" ","MAREA":"柳營","LANE":" ","ALLEY":" ","HOUSE_NO":"８５之２號","E_COORD97":179598.32000000001,"N_COORD97":2575129.0800000001,"ADDRESS":"柳營８５之２號","OBJECTID":100064},"geometry":{"x":179598.32000000123,"y":2575129.0800000001}},{"attributes":{"ID":100065,"DIS_CODE":0,"TOWNNAME":"柳營區","LI":"士林里","LIN":"10鄰","STREET":" ","SECT":" ","MAREA":"柳營","LANE":" ","ALLEY":" ","HOUSE_NO":"８６之１號","E_COORD97":179588.41,"N_COORD97":2575139.7200000002,"ADDRESS":"柳營８６之１號","OBJECTID":100065},"geometry":{"x":179588.41000000015,"y":2575139.7200000007}},{"attributes":{"ID":100066,"DIS_CODE":0,"TOWNNAME":"柳營區","LI":"士林里","LIN":"10鄰","STREET":" ","SECT":" ","MAREA":"柳營","LANE":" ","ALLEY":" ","HOUSE_NO":"８６號之１","E_COORD97":179588.41,"N_COORD97":2575139.7200000002,"ADDRESS":"柳營８６號之１","OBJECTID":100066},"geometry":{"x":179588.41000000015,"y":2575139.7200000007}},{"attributes":{"ID":100067,"DIS_CODE":0,"TOWNNAME":"柳營區","LI":"士林里","LIN":"10鄰","STREET":" ","SECT":" ","MAREA":"柳營","LANE":" ","ALLEY":" ","HOUSE_NO":"８６之２號","E_COORD97":179587.84,"N_COORD97":2575145.6800000002,"ADDRESS":"柳營８６之２號","OBJECTID":100067},"geometry":{"x":179587.84000000078,"y":2575145.6799999997}},{"attributes":{"ID":100068,"DIS_CODE":0,"TOWNNAME":"柳營區","LI":"士林里","LIN":"10鄰","STREET":" ","SECT":" ","MAREA":"柳營","LANE":" ","ALLEY":" ","HOUSE_NO":"８６號之２","E_COORD97":179587.84,"N_COORD97":2575145.6800000002,"ADDRESS":"柳營８６號之２","OBJECTID":100068},"geometry":{"x":179587.84000000078,"y":2575145.6799999997}},{"attributes":{"ID":100069,"DIS_CODE":0,"TOWNNAME":"柳營區","LI":"士林里","LIN":"10鄰","STREET":" ","SECT":" ","MAREA":"柳營","LANE":" ","ALLEY":" ","HOUSE_NO":"８６號","E_COORD97":179586.39999999999,"N_COORD97":2575152.8599999999,"ADDRESS":"柳營８６號","OBJECTID":100069},"geometry":{"x":179586.4000000013,"y":2575152.8600000013}},{"attributes":{"ID":100070,"DIS_CODE":0,"TOWNNAME":"東山區","LI":"大客里","LIN":"10鄰","STREET":" ","SECT":" ","MAREA":"大庄","LANE":" ","ALLEY":" ","HOUSE_NO":"６０號之１","E_COORD97":189839.06,"N_COORD97":2578981.9700000002,"ADDRESS":"大庄６０號之１","OBJECTID":100070},"geometry":{"x":189839.05999999959,"y":2578981.9700000007}},{"attributes":{"ID":100071,"DIS_CODE":0,"TOWNNAME":"東山區","LI":"三榮里","LIN":"10鄰","STREET":" ","SECT":" ","MAREA":"木柵","LANE":" ","ALLEY":" ","HOUSE_NO":"５０號","E_COORD97":187343,"N_COORD97":2579683.7000000002,"ADDRESS":"木柵５０號","OBJECTID":100071},"geometry":{"x":187343,"y":2579683.7000000011}},{"attributes":{"ID":100072,"DIS_CODE":0,"TOWNNAME":"東山區","LI":"三榮里","LIN":"10鄰","STREET":" ","SECT":" ","MAREA":"木柵","LANE":" ","ALLEY":" ","HOUSE_NO":"５１號","E_COORD97":187371.73000000001,"N_COORD97":2579686.73,"ADDRESS":"木柵５１號","OBJECTID":100072},"geometry":{"x":187371.73000000138,"y":2579686.7300000042}},{"attributes":{"ID":100073,"DIS_CODE":0,"TOWNNAME":"東山區","LI":"三榮里","LIN":"10鄰","STREET":" ","SECT":" ","MAREA":"木柵","LANE":" ","ALLEY":" ","HOUSE_NO":"５２號之１","E_COORD97":187362.69,"N_COORD97":2579724.4300000002,"ADDRESS":"木柵５２號之１","OBJECTID":100073},"geometry":{"x":187362.69000000041,"y":2579724.4299999997}},{"attributes":{"ID":100074,"DIS_CODE":0,"TOWNNAME":"東山區","LI":"三榮里","LIN":"10鄰","STREET":" ","SECT":" ","MAREA":"木柵","LANE":" ","ALLEY":" ","HOUSE_NO":"５２號之２","E_COORD97":187357.95999999999,"N_COORD97":2579701.8399999999,"ADDRESS":"木柵５２號之２","OBJECTID":100074},"geometry":{"x":187357.96000000089,"y":2579701.8399999999}},{"attributes":{"ID":100075,"DIS_CODE":0,"TOWNNAME":"東山區","LI":"三榮里","LIN":"10鄰","STREET":" ","SECT":" ","MAREA":"木柵","LANE":" ","ALLEY":" ","HOUSE_NO":"５２號之３","E_COORD97":187374.76000000001,"N_COORD97":2579724.2000000002,"ADDRESS":"木柵５２號之３","OBJECTID":100075},"geometry":{"x":187374.75999999978,"y":2579724.2000000011}},{"attributes":{"ID":100076,"DIS_CODE":0,"TOWNNAME":"新化區","LI":"護國里","LIN":"9鄰","STREET":"中山路","SECT":" ","MAREA":" ","LANE":"１１１巷","ALLEY":"８弄","HOUSE_NO":"６號","E_COORD97":179702.31,"N_COORD97":2549123.25,"ADDRESS":"中山路１１１巷８弄６號","OBJECTID":100076},"geometry":{"x":179702.30999999959,"y":2549123.2500000019}},{"attributes":{"ID":100077,"DIS_CODE":0,"TOWNNAME":"永康區","LI":"西橋里","LIN":"9鄰","STREET":"中華西街","SECT":" ","MAREA":" ","LANE":"８５巷","ALLEY":"１２弄","HOUSE_NO":"１９號","E_COORD97":170614.89999999999,"N_COORD97":2546098.27,"ADDRESS":"中華西街８５巷１２弄１９號","OBJECTID":100077},"geometry":{"x":170614.9000000013,"y":2546098.2700000014}},{"attributes":{"ID":100078,"DIS_CODE":0,"TOWNNAME":"永康區","LI":"西橋里","LIN":"9鄰","STREET":"中華西街","SECT":" ","MAREA":" ","LANE":"８５巷","ALLEY":"１２弄","HOUSE_NO":"１７號","E_COORD97":170618.75,"N_COORD97":2546100.77,"ADDRESS":"中華西街８５巷１２弄１７號","OBJECTID":100078},"geometry":{"x":170618.75000000186,"y":2546100.7700000014}},{"attributes":{"ID":100079,"DIS_CODE":0,"TOWNNAME":"仁德區","LI":"上崙里","LIN":"9鄰","STREET":"德善路","SECT":" ","MAREA":" ","LANE":"３０５巷","ALLEY":"１３弄","HOUSE_NO":"４６號","E_COORD97":173999.79000000001,"N_COORD97":2538471.6099999999,"ADDRESS":"德善路３０５巷１３弄４６號","OBJECTID":100079},"geometry":{"x":173999.79000000004,"y":2538471.6099999994}},{"attributes":{"ID":100080,"DIS_CODE":0,"TOWNNAME":"永康區","LI":"西橋里","LIN":"9鄰","STREET":"中華西街","SECT":" ","MAREA":" ","LANE":"１２７巷","ALLEY":"２７弄","HOUSE_NO":"１５號","E_COORD97":170601.14000000001,"N_COORD97":2546100.27,"ADDRESS":"中華西街１２７巷２７弄１５號","OBJECTID":100080},"geometry":{"x":170601.1400000006,"y":2546100.2700000033}},{"attributes":{"ID":100081,"DIS_CODE":0,"TOWNNAME":"永康區","LI":"西橋里","LIN":"9鄰","STREET":"中華西街","SECT":" ","MAREA":" ","LANE":"１２７巷","ALLEY":"２７弄","HOUSE_NO":"３號","E_COORD97":170578.35000000001,"N_COORD97":2546111.25,"ADDRESS":"中華西街１２７巷２７弄３號","OBJECTID":100081},"geometry":{"x":170578.34999999963,"y":2546111.2500000037}},{"attributes":{"ID":100082,"DIS_CODE":0,"TOWNNAME":"東區","LI":"富強里","LIN":"9鄰","STREET":"中華東路","SECT":"二段","MAREA":" ","LANE":"９６巷","ALLEY":"１弄","HOUSE_NO":"１號","E_COORD97":171308.14999999999,"N_COORD97":2542837.8399999999,"ADDRESS":"中華東路二段９６巷１弄１號","OBJECTID":100082},"geometry":{"x":171308.15000000224,"y":2542837.8399999999}},{"attributes":{"ID":100083,"DIS_CODE":0,"TOWNNAME":"永康區","LI":"復興里","LIN":"9鄰","STREET":"復興路","SECT":" ","MAREA":" ","LANE":"２７７巷","ALLEY":"４弄","HOUSE_NO":"１號","E_COORD97":172320.32000000001,"N_COORD97":2544286.02,"ADDRESS":"復興路２７７巷４弄１號","OBJECTID":100083},"geometry":{"x":172320.3200000003,"y":2544286.0200000014}},{"attributes":{"ID":100084,"DIS_CODE":0,"TOWNNAME":"永康區","LI":"復興里","LIN":"9鄰","STREET":"復興路","SECT":" ","MAREA":" ","LANE":"２７７巷","ALLEY":"６弄","HOUSE_NO":"９號","E_COORD97":172292.07999999999,"N_COORD97":2544251.46,"ADDRESS":"復興路２７７巷６弄９號","OBJECTID":100084},"geometry":{"x":172292.08000000101,"y":2544251.4600000009}},{"attributes":{"ID":100085,"DIS_CODE":0,"TOWNNAME":"永康區","LI":"復興里","LIN":"9鄰","STREET":"復興路","SECT":" ","MAREA":" ","LANE":"２７７巷","ALLEY":"２弄","HOUSE_NO":"８號","E_COORD97":172311.01999999999,"N_COORD97":2544299.8100000001,"ADDRESS":"復興路２７７巷２弄８號","OBJECTID":100085},"geometry":{"x":172311.01999999955,"y":2544299.8100000005}},{"attributes":{"ID":100086,"DIS_CODE":0,"TOWNNAME":"永康區","LI":"新樹里","LIN":"9鄰","STREET":"富強路","SECT":"二段","MAREA":" ","LANE":"１２８巷","ALLEY":"１４弄","HOUSE_NO":"１１號","E_COORD97":175740.14999999999,"N_COORD97":2547057.75,"ADDRESS":"富強路二段１２８巷１４弄１１號","OBJECTID":100086},"geometry":{"x":175740.1500000013,"y":2547057.7500000019}},{"attributes":{"ID":100087,"DIS_CODE":0,"TOWNNAME":"永康區","LI":"新樹里","LIN":"9鄰","STREET":"富強路","SECT":"二段","MAREA":" ","LANE":"１２８巷","ALLEY":"１４弄","HOUSE_NO":"３４號","E_COORD97":175717.20000000001,"N_COORD97":2547034.73,"ADDRESS":"富強路二段１２８巷１４弄３４號","OBJECTID":100087},"geometry":{"x":175717.20000000112,"y":2547034.7300000023}},{"attributes":{"ID":100088,"DIS_CODE":0,"TOWNNAME":"安南區","LI":"安富里","LIN":"9鄰","STREET":"郡安路","SECT":"五段","MAREA":" ","LANE":"１８４巷","ALLEY":"１０８弄","HOUSE_NO":"４號","E_COORD97":167490.67000000001,"N_COORD97":2547490.6400000001,"ADDRESS":"郡安路五段１８４巷１０８弄４號","OBJECTID":100088},"geometry":{"x":167490.67000000086,"y":2547490.6400000006}},{"attributes":{"ID":100089,"DIS_CODE":0,"TOWNNAME":"安南區","LI":"安富里","LIN":"9鄰","STREET":"郡安路","SECT":"五段","MAREA":" ","LANE":"１８４巷","ALLEY":"１０８弄","HOUSE_NO":"３號","E_COORD97":167495.47,"N_COORD97":2547469.3999999999,"ADDRESS":"郡安路五段１８４巷１０８弄３號","OBJECTID":100089},"geometry":{"x":167495.46999999974,"y":2547469.4000000004}},{"attributes":{"ID":100090,"DIS_CODE":0,"TOWNNAME":"安南區","LI":"安富里","LIN":"9鄰","STREET":"郡安路","SECT":"五段","MAREA":" ","LANE":"１８４巷","ALLEY":"１０８弄","HOUSE_NO":"２９號","E_COORD97":167423.31,"N_COORD97":2547455.5499999998,"ADDRESS":"郡安路五段１８４巷１０８弄２９號","OBJECTID":100090},"geometry":{"x":167423.31000000052,"y":2547455.5499999989}},{"attributes":{"ID":100091,"DIS_CODE":0,"TOWNNAME":"安南區","LI":"安順里","LIN":"9鄰","STREET":"安和路","SECT":"四段","MAREA":" ","LANE":"１３１巷","ALLEY":"２５弄","HOUSE_NO":"３號","E_COORD97":169867.23000000001,"N_COORD97":2550392.0800000001,"ADDRESS":"安和路四段１３１巷２５弄３號","OBJECTID":100091},"geometry":{"x":169867.23000000138,"y":2550392.0800000019}},{"attributes":{"ID":100092,"DIS_CODE":0,"TOWNNAME":"安南區","LI":"安慶里","LIN":"9鄰","STREET":"長溪路","SECT":"一段","MAREA":" ","LANE":"３４２巷","ALLEY":"１４弄","HOUSE_NO":"９號","E_COORD97":168759.37,"N_COORD97":2548900.1899999999,"ADDRESS":"長溪路一段３４２巷１４弄９號","OBJECTID":100092},"geometry":{"x":168759.37000000011,"y":2548900.1899999995}},{"attributes":{"ID":100093,"DIS_CODE":0,"TOWNNAME":"安南區","LI":"安慶里","LIN":"9鄰","STREET":"長溪路","SECT":"一段","MAREA":" ","LANE":"３４２巷","ALLEY":"１４弄","HOUSE_NO":"１５號","E_COORD97":168781.20999999999,"N_COORD97":2548901.3100000001,"ADDRESS":"長溪路一段３４２巷１４弄１５號","OBJECTID":100093},"geometry":{"x":168781.20999999996,"y":2548901.3099999987}},{"attributes":{"ID":100094,"DIS_CODE":0,"TOWNNAME":"安南區","LI":"州南里","LIN":"9鄰","STREET":"安和路","SECT":"五段","MAREA":" ","LANE":"８１巷","ALLEY":"２１弄","HOUSE_NO":"９號","E_COORD97":169877.67999999999,"N_COORD97":2551639.1000000001,"ADDRESS":"安和路五段８１巷２１弄９號","OBJECTID":100094},"geometry":{"x":169877.6799999997,"y":2551639.1000000015}},{"attributes":{"ID":100095,"DIS_CODE":0,"TOWNNAME":"東山區","LI":"三榮里","LIN":"10鄰","STREET":" ","SECT":" ","MAREA":"木柵","LANE":" ","ALLEY":" ","HOUSE_NO":"５２號","E_COORD97":187388.89000000001,"N_COORD97":2579694.0899999999,"ADDRESS":"木柵５２號","OBJECTID":100095},"geometry":{"x":187388.88999999966,"y":2579694.0900000017}},{"attributes":{"ID":100096,"DIS_CODE":0,"TOWNNAME":"東山區","LI":"三榮里","LIN":"10鄰","STREET":" ","SECT":" ","MAREA":"木柵","LANE":" ","ALLEY":" ","HOUSE_NO":"５３號之１","E_COORD97":187408.04999999999,"N_COORD97":2579745.54,"ADDRESS":"木柵５３號之１","OBJECTID":100096},"geometry":{"x":187408.05000000075,"y":2579745.540000001}},{"attributes":{"ID":100097,"DIS_CODE":0,"TOWNNAME":"東山區","LI":"三榮里","LIN":"10鄰","STREET":" ","SECT":" ","MAREA":"木柵","LANE":" ","ALLEY":" ","HOUSE_NO":"５３號","E_COORD97":187395.72,"N_COORD97":2579721.6800000002,"ADDRESS":"木柵５３號","OBJECTID":100097},"geometry":{"x":187395.71999999974,"y":2579721.6800000016}},{"attributes":{"ID":100098,"DIS_CODE":0,"TOWNNAME":"安南區","LI":"州南里","LIN":"9鄰","STREET":"安和路","SECT":"五段","MAREA":" ","LANE":"８１巷","ALLEY":"２１弄","HOUSE_NO":"１７號","E_COORD97":169883.29999999999,"N_COORD97":2551622.9300000002,"ADDRESS":"安和路五段８１巷２１弄１７號","OBJECTID":100098},"geometry":{"x":169883.30000000075,"y":2551622.9300000016}},{"attributes":{"ID":100099,"DIS_CODE":0,"TOWNNAME":"安南區","LI":"州南里","LIN":"9鄰","STREET":"安和路","SECT":"五段","MAREA":" ","LANE":"８１巷","ALLEY":"２１弄","HOUSE_NO":"１９號","E_COORD97":169883.53,"N_COORD97":2551619.7799999998,"ADDRESS":"安和路五段８１巷２１弄１９號","OBJECTID":100099},"geometry":{"x":169883.53000000119,"y":2551619.7800000012}},{"attributes":{"ID":100100,"DIS_CODE":0,"TOWNNAME":"安南區","LI":"州南里","LIN":"9鄰","STREET":"安和路","SECT":"五段","MAREA":" ","LANE":"８１巷","ALLEY":"２１弄","HOUSE_NO":"２１號","E_COORD97":169883.98000000001,"N_COORD97":2551616.6400000001,"ADDRESS":"安和路五段８１巷２１弄２１號","OBJECTID":100100},"geometry":{"x":169883.98000000138,"y":2551616.6400000025}},{"attributes":{"ID":100101,"DIS_CODE":0,"TOWNNAME":"安南區","LI":"州南里","LIN":"9鄰","STREET":"安和路","SECT":"五段","MAREA":" ","LANE":"８１巷","ALLEY":"２１弄","HOUSE_NO":"２３號","E_COORD97":169885.32999999999,"N_COORD97":2551613.0499999998,"ADDRESS":"安和路五段８１巷２１弄２３號","OBJECTID":100101},"geometry":{"x":169885.33000000007,"y":2551613.0500000026}},{"attributes":{"ID":100102,"DIS_CODE":0,"TOWNNAME":"東山區","LI":"三榮里","LIN":"10鄰","STREET":" ","SECT":" ","MAREA":"木柵","LANE":" ","ALLEY":" ","HOUSE_NO":"５４號之１０","E_COORD97":187430.13,"N_COORD97":2579794.71,"ADDRESS":"木柵５４號之１０","OBJECTID":100102},"geometry":{"x":187430.12999999989,"y":2579794.7100000009}},{"attributes":{"ID":100103,"DIS_CODE":0,"TOWNNAME":"東山區","LI":"三榮里","LIN":"10鄰","STREET":" ","SECT":" ","MAREA":"木柵","LANE":" ","ALLEY":" ","HOUSE_NO":"５４號之１１","E_COORD97":187389.72,"N_COORD97":2579853.9300000002,"ADDRESS":"木柵５４號之１１","OBJECTID":100103},"geometry":{"x":187389.72000000067,"y":2579853.9300000034}},{"attributes":{"ID":100104,"DIS_CODE":0,"TOWNNAME":"安南區","LI":"幸福里","LIN":"9鄰","STREET":"國安街","SECT":" ","MAREA":" ","LANE":"１５５巷","ALLEY":"７３弄","HOUSE_NO":"１號","E_COORD97":166805.95999999999,"N_COORD97":2546772.02,"ADDRESS":"國安街１５５巷７３弄１號","OBJECTID":100104},"geometry":{"x":166805.95999999996,"y":2546772.0199999996}},{"attributes":{"ID":100105,"DIS_CODE":0,"TOWNNAME":"東山區","LI":"三榮里","LIN":"10鄰","STREET":" ","SECT":" ","MAREA":"木柵","LANE":" ","ALLEY":" ","HOUSE_NO":"５４號之２","E_COORD97":187376.76999999999,"N_COORD97":2579776.2000000002,"ADDRESS":"木柵５４號之２","OBJECTID":100105},"geometry":{"x":187376.77000000142,"y":2579776.1999999993}},{"attributes":{"ID":100106,"DIS_CODE":0,"TOWNNAME":"安南區","LI":"幸福里","LIN":"9鄰","STREET":"國安街","SECT":" ","MAREA":" ","LANE":"１５５巷","ALLEY":"７３弄","HOUSE_NO":"３號","E_COORD97":166812.59,"N_COORD97":2546773.2599999998,"ADDRESS":"國安街１５５巷７３弄３號","OBJECTID":100106},"geometry":{"x":166812.59000000078,"y":2546773.2600000016}},{"attributes":{"ID":100107,"DIS_CODE":0,"TOWNNAME":"東山區","LI":"三榮里","LIN":"10鄰","STREET":" ","SECT":" ","MAREA":"木柵","LANE":" ","ALLEY":" ","HOUSE_NO":"５４號之３","E_COORD97":187377.56,"N_COORD97":2579797.8100000001,"ADDRESS":"木柵５４號之３","OBJECTID":100107},"geometry":{"x":187377.55999999959,"y":2579797.8099999987}},{"attributes":{"ID":100108,"DIS_CODE":0,"TOWNNAME":"安南區","LI":"幸福里","LIN":"9鄰","STREET":"國安街","SECT":" ","MAREA":" ","LANE":"１５５巷","ALLEY":"７３弄","HOUSE_NO":"５號","E_COORD97":166818.81,"N_COORD97":2546774.2200000002,"ADDRESS":"國安街１５５巷７３弄５號","OBJECTID":100108},"geometry":{"x":166818.80999999959,"y":2546774.2200000025}},{"attributes":{"ID":100109,"DIS_CODE":0,"TOWNNAME":"東山區","LI":"三榮里","LIN":"10鄰","STREET":" ","SECT":" ","MAREA":"木柵","LANE":" ","ALLEY":" ","HOUSE_NO":"５４號之４","E_COORD97":187359.06,"N_COORD97":2579793.0499999998,"ADDRESS":"木柵５４號之４","OBJECTID":100109},"geometry":{"x":187359.05999999959,"y":2579793.0499999989}},{"attributes":{"ID":100110,"DIS_CODE":0,"TOWNNAME":"東山區","LI":"三榮里","LIN":"10鄰","STREET":" ","SECT":" ","MAREA":"木柵","LANE":" ","ALLEY":" ","HOUSE_NO":"５４號之５","E_COORD97":187391.76000000001,"N_COORD97":2579831.0099999998,"ADDRESS":"木柵５４號之５","OBJECTID":100110},"geometry":{"x":187391.75999999978,"y":2579831.0100000016}},{"attributes":{"ID":100111,"DIS_CODE":0,"TOWNNAME":"東山區","LI":"三榮里","LIN":"10鄰","STREET":" ","SECT":" ","MAREA":"木柵","LANE":" ","ALLEY":" ","HOUSE_NO":"５４號之６","E_COORD97":187399.04999999999,"N_COORD97":2579810.7599999998,"ADDRESS":"木柵５４號之６","OBJECTID":100111},"geometry":{"x":187399.05000000168,"y":2579810.7599999998}},{"attributes":{"ID":100112,"DIS_CODE":0,"TOWNNAME":"安南區","LI":"幸福里","LIN":"9鄰","STREET":"國安街","SECT":" ","MAREA":" ","LANE":"１５５巷","ALLEY":"７３弄","HOUSE_NO":"７號","E_COORD97":166824.70000000001,"N_COORD97":2546776.8999999999,"ADDRESS":"國安街１５５巷７３弄７號","OBJECTID":100112},"geometry":{"x":166824.70000000019,"y":2546776.9000000004}},{"attributes":{"ID":100113,"DIS_CODE":0,"TOWNNAME":"東山區","LI":"三榮里","LIN":"10鄰","STREET":" ","SECT":" ","MAREA":"木柵","LANE":" ","ALLEY":" ","HOUSE_NO":"５４號之７","E_COORD97":187395.10999999999,"N_COORD97":2579809.4100000001,"ADDRESS":"木柵５４號之７","OBJECTID":100113},"geometry":{"x":187395.11000000034,"y":2579809.4100000001}},{"attributes":{"ID":100114,"DIS_CODE":0,"TOWNNAME":"安南區","LI":"幸福里","LIN":"9鄰","STREET":"國安街","SECT":" ","MAREA":" ","LANE":"１５５巷","ALLEY":"７３弄","HOUSE_NO":"９號","E_COORD97":166831.10999999999,"N_COORD97":2546778.0899999999,"ADDRESS":"國安街１５５巷７３弄９號","OBJECTID":100114},"geometry":{"x":166831.11000000034,"y":2546778.0900000017}},{"attributes":{"ID":100115,"DIS_CODE":0,"TOWNNAME":"安南區","LI":"幸福里","LIN":"9鄰","STREET":"國安街","SECT":" ","MAREA":" ","LANE":"１５５巷","ALLEY":"７３弄","HOUSE_NO":"１１號","E_COORD97":166837.98000000001,"N_COORD97":2546778.8999999999,"ADDRESS":"國安街１５５巷７３弄１１號","OBJECTID":100115},"geometry":{"x":166837.98000000138,"y":2546778.9000000022}},{"attributes":{"ID":100116,"DIS_CODE":0,"TOWNNAME":"安南區","LI":"幸福里","LIN":"9鄰","STREET":"國安街","SECT":" ","MAREA":" ","LANE":"１５５巷","ALLEY":"７３弄","HOUSE_NO":"１３號","E_COORD97":166843.45999999999,"N_COORD97":2546779.3900000001,"ADDRESS":"國安街１５５巷７３弄１３號","OBJECTID":100116},"geometry":{"x":166843.45999999996,"y":2546779.3900000025}},{"attributes":{"ID":100117,"DIS_CODE":0,"TOWNNAME":"東山區","LI":"三榮里","LIN":"10鄰","STREET":" ","SECT":" ","MAREA":"木柵","LANE":" ","ALLEY":" ","HOUSE_NO":"５４號之８","E_COORD97":187403.28,"N_COORD97":2579812.48,"ADDRESS":"木柵５４號之８","OBJECTID":100117},"geometry":{"x":187403.28000000119,"y":2579812.4800000004}},{"attributes":{"ID":100118,"DIS_CODE":0,"TOWNNAME":"安南區","LI":"幸福里","LIN":"9鄰","STREET":"國安街","SECT":" ","MAREA":" ","LANE":"１５５巷","ALLEY":"７３弄","HOUSE_NO":"１７號","E_COORD97":166855.97,"N_COORD97":2546781.71,"ADDRESS":"國安街１５５巷７３弄１７號","OBJECTID":100118},"geometry":{"x":166855.97000000067,"y":2546781.7100000028}},{"attributes":{"ID":100119,"DIS_CODE":0,"TOWNNAME":"東山區","LI":"三榮里","LIN":"10鄰","STREET":" ","SECT":" ","MAREA":"木柵","LANE":" ","ALLEY":" ","HOUSE_NO":"５４號之９","E_COORD97":187434.31,"N_COORD97":2579794.3799999999,"ADDRESS":"木柵５４號之９","OBJECTID":100119},"geometry":{"x":187434.31000000145,"y":2579794.379999999}},{"attributes":{"ID":100120,"DIS_CODE":0,"TOWNNAME":"東山區","LI":"三榮里","LIN":"10鄰","STREET":" ","SECT":" ","MAREA":"木柵","LANE":" ","ALLEY":" ","HOUSE_NO":"５４號","E_COORD97":187344.35999999999,"N_COORD97":2579761.9700000002,"ADDRESS":"木柵５４號","OBJECTID":100120},"geometry":{"x":187344.36000000034,"y":2579761.9700000007}},{"attributes":{"ID":100121,"DIS_CODE":0,"TOWNNAME":"東山區","LI":"三榮里","LIN":"10鄰","STREET":" ","SECT":" ","MAREA":"木柵","LANE":" ","ALLEY":" ","HOUSE_NO":"５５號之１","E_COORD97":187326.42000000001,"N_COORD97":2579741.8399999999,"ADDRESS":"木柵５５號之１","OBJECTID":100121},"geometry":{"x":187326.41999999993,"y":2579741.8399999999}},{"attributes":{"ID":100122,"DIS_CODE":0,"TOWNNAME":"東山區","LI":"聖賢里","LIN":"10鄰","STREET":" ","SECT":" ","MAREA":"田尾","LANE":" ","ALLEY":" ","HOUSE_NO":"２號","E_COORD97":185062.88,"N_COORD97":2578230.7000000002,"ADDRESS":"田尾２號","OBJECTID":100122},"geometry":{"x":185062.88000000082,"y":2578230.6999999993}},{"attributes":{"ID":100123,"DIS_CODE":0,"TOWNNAME":"東山區","LI":"聖賢里","LIN":"10鄰","STREET":" ","SECT":" ","MAREA":"田尾","LANE":" ","ALLEY":" ","HOUSE_NO":"３號之１","E_COORD97":185039.19,"N_COORD97":2578297.98,"ADDRESS":"田尾３號之１","OBJECTID":100123},"geometry":{"x":185039.19000000134,"y":2578297.9799999986}},{"attributes":{"ID":100124,"DIS_CODE":0,"TOWNNAME":"東區","LI":"復興里","LIN":"1鄰","STREET":"富農街","SECT":"一段","MAREA":" ","LANE":" ","ALLEY":" ","HOUSE_NO":"２９８號","E_COORD97":171640.45000000001,"N_COORD97":2542805.2200000002,"ADDRESS":"富農街一段２９８號","OBJECTID":100124},"geometry":{"x":171640.45000000112,"y":2542805.2200000007}},{"attributes":{"ID":100125,"DIS_CODE":0,"TOWNNAME":"永康區","LI":"龍潭里","LIN":"1鄰","STREET":"龍潭街","SECT":" ","MAREA":" ","LANE":" ","ALLEY":" ","HOUSE_NO":"６９號","E_COORD97":174801.88,"N_COORD97":2548022.73,"ADDRESS":"龍潭街６９號","OBJECTID":100125},"geometry":{"x":174801.88000000082,"y":2548022.7300000004}},{"attributes":{"ID":100126,"DIS_CODE":0,"TOWNNAME":"東山區","LI":"聖賢里","LIN":"10鄰","STREET":" ","SECT":" ","MAREA":"田尾","LANE":" ","ALLEY":" ","HOUSE_NO":"３號","E_COORD97":185050.17000000001,"N_COORD97":2578276.3199999998,"ADDRESS":"田尾３號","OBJECTID":100126},"geometry":{"x":185050.16999999993,"y":2578276.3200000022}},{"attributes":{"ID":100127,"DIS_CODE":0,"TOWNNAME":"永康區","LI":"東灣里","LIN":"1鄰","STREET":"南灣街","SECT":" ","MAREA":" ","LANE":" ","ALLEY":" ","HOUSE_NO":"６號","E_COORD97":174630.91,"N_COORD97":2544900.75,"ADDRESS":"南灣街６號","OBJECTID":100127},"geometry":{"x":174630.91000000108,"y":2544900.7500000037}},{"attributes":{"ID":100128,"DIS_CODE":0,"TOWNNAME":"東山區","LI":"聖賢里","LIN":"10鄰","STREET":" ","SECT":" ","MAREA":"田尾","LANE":" ","ALLEY":" ","HOUSE_NO":"４號之１","E_COORD97":185002.94,"N_COORD97":2578282.5800000001,"ADDRESS":"田尾４號之１","OBJECTID":100128},"geometry":{"x":185002.94000000041,"y":2578282.5800000001}},{"attributes":{"ID":100129,"DIS_CODE":0,"TOWNNAME":"東山區","LI":"聖賢里","LIN":"10鄰","STREET":" ","SECT":" ","MAREA":"田尾","LANE":" ","ALLEY":" ","HOUSE_NO":"４號之２","E_COORD97":184993.09,"N_COORD97":2578239.7400000002,"ADDRESS":"田尾４號之２","OBJECTID":100129},"geometry":{"x":184993.08999999892,"y":2578239.7400000021}},{"attributes":{"ID":100130,"DIS_CODE":0,"TOWNNAME":"七股區","LI":"竹港里","LIN":"1鄰","STREET":" ","SECT":" ","MAREA":"竹港","LANE":" ","ALLEY":" ","HOUSE_NO":"１號","E_COORD97":164947.60000000001,"N_COORD97":2557645.3399999999,"ADDRESS":"竹港１號","OBJECTID":100130},"geometry":{"x":164947.60000000056,"y":2557645.3400000017}},{"attributes":{"ID":100131,"DIS_CODE":0,"TOWNNAME":"東山區","LI":"聖賢里","LIN":"10鄰","STREET":" ","SECT":" ","MAREA":"田尾","LANE":" ","ALLEY":" ","HOUSE_NO":"４號之３","E_COORD97":184986.82999999999,"N_COORD97":2578304.6299999999,"ADDRESS":"田尾４號之３","OBJECTID":100131},"geometry":{"x":184986.83000000194,"y":2578304.629999999}},{"attributes":{"ID":100132,"DIS_CODE":0,"TOWNNAME":"東山區","LI":"聖賢里","LIN":"10鄰","STREET":" ","SECT":" ","MAREA":"田尾","LANE":" ","ALLEY":" ","HOUSE_NO":"４號之４","E_COORD97":184978.98000000001,"N_COORD97":2578274.0699999998,"ADDRESS":"田尾４號之４","OBJECTID":100132},"geometry":{"x":184978.98000000045,"y":2578274.0700000022}},{"attributes":{"ID":100133,"DIS_CODE":0,"TOWNNAME":"東山區","LI":"聖賢里","LIN":"10鄰","STREET":" ","SECT":" ","MAREA":"田尾","LANE":" ","ALLEY":" ","HOUSE_NO":"４號之５","E_COORD97":184978.73999999999,"N_COORD97":2578279.0499999998,"ADDRESS":"田尾４號之５","OBJECTID":100133},"geometry":{"x":184978.74000000022,"y":2578279.0500000026}},{"attributes":{"ID":100134,"DIS_CODE":0,"TOWNNAME":"東山區","LI":"聖賢里","LIN":"10鄰","STREET":" ","SECT":" ","MAREA":"田尾","LANE":" ","ALLEY":" ","HOUSE_NO":"４號","E_COORD97":185007.72,"N_COORD97":2578265.54,"ADDRESS":"田尾４號","OBJECTID":100134},"geometry":{"x":185007.72000000067,"y":2578265.5399999991}},{"attributes":{"ID":100135,"DIS_CODE":0,"TOWNNAME":"東山區","LI":"聖賢里","LIN":"10鄰","STREET":" ","SECT":" ","MAREA":"田尾","LANE":" ","ALLEY":" ","HOUSE_NO":"５０號之１","E_COORD97":184944.72,"N_COORD97":2578281.1099999999,"ADDRESS":"田尾５０號之１","OBJECTID":100135},"geometry":{"x":184944.7200000016,"y":2578281.1099999994}},{"attributes":{"ID":100136,"DIS_CODE":0,"TOWNNAME":"東山區","LI":"聖賢里","LIN":"10鄰","STREET":" ","SECT":" ","MAREA":"田尾","LANE":" ","ALLEY":" ","HOUSE_NO":"５０號","E_COORD97":184958.04000000001,"N_COORD97":2578265.2200000002,"ADDRESS":"田尾５０號","OBJECTID":100136},"geometry":{"x":184958.03999999911,"y":2578265.2200000007}},{"attributes":{"ID":100137,"DIS_CODE":0,"TOWNNAME":"東山區","LI":"聖賢里","LIN":"10鄰","STREET":" ","SECT":" ","MAREA":"田尾","LANE":" ","ALLEY":" ","HOUSE_NO":"５１號","E_COORD97":184965.03,"N_COORD97":2578254.29,"ADDRESS":"田尾５１號","OBJECTID":100137},"geometry":{"x":184965.03000000026,"y":2578254.290000001}},{"attributes":{"ID":100138,"DIS_CODE":0,"TOWNNAME":"東山區","LI":"聖賢里","LIN":"10鄰","STREET":" ","SECT":" ","MAREA":"田尾","LANE":" ","ALLEY":" ","HOUSE_NO":"５號","E_COORD97":185036.97,"N_COORD97":2578229.0499999998,"ADDRESS":"田尾５號","OBJECTID":100138},"geometry":{"x":185036.97000000067,"y":2578229.0500000007}},{"attributes":{"ID":100139,"DIS_CODE":0,"TOWNNAME":"東山區","LI":"聖賢里","LIN":"10鄰","STREET":" ","SECT":" ","MAREA":"田尾","LANE":" ","ALLEY":" ","HOUSE_NO":"６號","E_COORD97":185027.07999999999,"N_COORD97":2578208.9900000002,"ADDRESS":"田尾６號","OBJECTID":100139},"geometry":{"x":185027.08000000007,"y":2578208.9900000002}},{"attributes":{"ID":100140,"DIS_CODE":0,"TOWNNAME":"東山區","LI":"聖賢里","LIN":"10鄰","STREET":" ","SECT":" ","MAREA":"田尾","LANE":" ","ALLEY":" ","HOUSE_NO":"７號","E_COORD97":184996.25,"N_COORD97":2578220.1400000001,"ADDRESS":"田尾７號","OBJECTID":100140},"geometry":{"x":184996.25000000093,"y":2578220.1400000025}},{"attributes":{"ID":100141,"DIS_CODE":0,"TOWNNAME":"東山區","LI":"聖賢里","LIN":"10鄰","STREET":" ","SECT":" ","MAREA":"田尾","LANE":" ","ALLEY":" ","HOUSE_NO":"８號之１","E_COORD97":185020.57999999999,"N_COORD97":2578142.3100000001,"ADDRESS":"田尾８號之１","OBJECTID":100141},"geometry":{"x":185020.58000000194,"y":2578142.3100000005}},{"attributes":{"ID":100142,"DIS_CODE":0,"TOWNNAME":"東山區","LI":"聖賢里","LIN":"10鄰","STREET":" ","SECT":" ","MAREA":"田尾","LANE":" ","ALLEY":" ","HOUSE_NO":"８號之６","E_COORD97":185011.01999999999,"N_COORD97":2578030.02,"ADDRESS":"田尾８號之６","OBJECTID":100142},"geometry":{"x":185011.02000000048,"y":2578030.0200000014}},{"attributes":{"ID":100143,"DIS_CODE":0,"TOWNNAME":"安南區","LI":"幸福里","LIN":"9鄰","STREET":"國安街","SECT":" ","MAREA":" ","LANE":"１５５巷","ALLEY":"７３弄","HOUSE_NO":"１９號","E_COORD97":166861.60999999999,"N_COORD97":2546786.1000000001,"ADDRESS":"國安街１５５巷７３弄１９號","OBJECTID":100143},"geometry":{"x":166861.61000000034,"y":2546786.0999999978}},{"attributes":{"ID":100144,"DIS_CODE":0,"TOWNNAME":"安南區","LI":"幸福里","LIN":"9鄰","STREET":"國安街","SECT":" ","MAREA":" ","LANE":"１５５巷","ALLEY":"７３弄","HOUSE_NO":"２１號","E_COORD97":166868.32999999999,"N_COORD97":2546784.2799999998,"ADDRESS":"國安街１５５巷７３弄２１號","OBJECTID":100144},"geometry":{"x":166868.33000000007,"y":2546784.2799999993}},{"attributes":{"ID":100145,"DIS_CODE":0,"TOWNNAME":"東山區","LI":"聖賢里","LIN":"10鄰","STREET":" ","SECT":" ","MAREA":"田尾","LANE":" ","ALLEY":" ","HOUSE_NO":"８號","E_COORD97":185021.66,"N_COORD97":2578137.9300000002,"ADDRESS":"田尾８號","OBJECTID":100145},"geometry":{"x":185021.66000000015,"y":2578137.9299999997}},{"attributes":{"ID":100146,"DIS_CODE":0,"TOWNNAME":"東山區","LI":"東河里","LIN":"10鄰","STREET":" ","SECT":" ","MAREA":"吉貝耍","LANE":" ","ALLEY":" ","HOUSE_NO":"９２號","E_COORD97":186893.70000000001,"N_COORD97":2577211.4500000002,"ADDRESS":"吉貝耍９２號","OBJECTID":100146},"geometry":{"x":186893.70000000112,"y":2577211.4499999993}},{"attributes":{"ID":100147,"DIS_CODE":0,"TOWNNAME":"安南區","LI":"幸福里","LIN":"9鄰","STREET":"國安街","SECT":" ","MAREA":" ","LANE":"１５５巷","ALLEY":"７３弄","HOUSE_NO":"２３號","E_COORD97":166874.29999999999,"N_COORD97":2546786.4300000002,"ADDRESS":"國安街１５５巷７３弄２３號","OBJECTID":100147},"geometry":{"x":166874.30000000075,"y":2546786.4299999997}},{"attributes":{"ID":100148,"DIS_CODE":0,"TOWNNAME":"安南區","LI":"青草里","LIN":"9鄰","STREET":"青砂街","SECT":"二段","MAREA":" ","LANE":"２９９巷","ALLEY":"４０弄","HOUSE_NO":"２０號","E_COORD97":159127.82000000001,"N_COORD97":2553049.6099999999,"ADDRESS":"青砂街二段２９９巷４０弄２０號","OBJECTID":100148},"geometry":{"x":159127.8200000003,"y":2553049.6100000013}},{"attributes":{"ID":100149,"DIS_CODE":0,"TOWNNAME":"東山區","LI":"東河里","LIN":"10鄰","STREET":" ","SECT":" ","MAREA":"吉貝耍","LANE":" ","ALLEY":" ","HOUSE_NO":"８９號","E_COORD97":186934.22,"N_COORD97":2577198.6000000001,"ADDRESS":"吉貝耍８９號","OBJECTID":100149},"geometry":{"x":186934.21999999974,"y":2577198.6000000015}},{"attributes":{"ID":100150,"DIS_CODE":0,"TOWNNAME":"安南區","LI":"海西里","LIN":"9鄰","STREET":"海中街","SECT":" ","MAREA":" ","LANE":"７７巷","ALLEY":"４５弄","HOUSE_NO":"４８號","E_COORD97":166283.32000000001,"N_COORD97":2548795.0600000001,"ADDRESS":"海中街７７巷４５弄４８號","OBJECTID":100150},"geometry":{"x":166283.3200000003,"y":2548795.0600000024}},{"attributes":{"ID":100151,"DIS_CODE":0,"TOWNNAME":"安南區","LI":"\u25A0南里","LIN":"9鄰","STREET":"安昌街","SECT":" ","MAREA":" ","LANE":"２７５巷","ALLEY":"５５弄","HOUSE_NO":"２３號之１","E_COORD97":170015.38,"N_COORD97":2552592.5600000001,"ADDRESS":"安昌街２７５巷５５弄２３號之１","OBJECTID":100151},"geometry":{"x":170015.37999999989,"y":2552592.5600000024}},{"attributes":{"ID":100152,"DIS_CODE":0,"TOWNNAME":"永康區","LI":"三合里","LIN":"9鄰","STREET":"南工街","SECT":" ","MAREA":" ","LANE":"２４７巷","ALLEY":"３５弄","HOUSE_NO":"８７號","E_COORD97":172034.82000000001,"N_COORD97":2545643.4900000002,"ADDRESS":"南工街２４７巷３５弄８７號","OBJECTID":100152},"geometry":{"x":172034.82000000123,"y":2545643.4900000002}},{"attributes":{"ID":100153,"DIS_CODE":0,"TOWNNAME":"永康區","LI":"三合里","LIN":"9鄰","STREET":"南工街","SECT":" ","MAREA":" ","LANE":"２４７巷","ALLEY":"３５弄","HOUSE_NO":"９０號之４","E_COORD97":172050.79999999999,"N_COORD97":2545659.29,"ADDRESS":"南工街２４７巷３５弄９０號之４","OBJECTID":100153},"geometry":{"x":172050.80000000168,"y":2545659.290000001}},{"attributes":{"ID":100154,"DIS_CODE":0,"TOWNNAME":"東山區","LI":"東河里","LIN":"10鄰","STREET":" ","SECT":" ","MAREA":"吉貝耍","LANE":" ","ALLEY":" ","HOUSE_NO":"９１號","E_COORD97":186918.17000000001,"N_COORD97":2577196.1099999999,"ADDRESS":"吉貝耍９１號","OBJECTID":100154},"geometry":{"x":186918.16999999993,"y":2577196.1099999994}},{"attributes":{"ID":100155,"DIS_CODE":0,"TOWNNAME":"東山區","LI":"東河里","LIN":"10鄰","STREET":" ","SECT":" ","MAREA":"吉貝耍","LANE":" ","ALLEY":" ","HOUSE_NO":"９３號之１","E_COORD97":186874.48999999999,"N_COORD97":2577244.8700000001,"ADDRESS":"吉貝耍９３號之１","OBJECTID":100155},"geometry":{"x":186874.49000000115,"y":2577244.870000001}},{"attributes":{"ID":100156,"DIS_CODE":0,"TOWNNAME":"東山區","LI":"東河里","LIN":"10鄰","STREET":" ","SECT":" ","MAREA":"吉貝耍","LANE":" ","ALLEY":" ","HOUSE_NO":"９３號","E_COORD97":186900.34,"N_COORD97":2577232.23,"ADDRESS":"吉貝耍９３號","OBJECTID":100156},"geometry":{"x":186900.34000000171,"y":2577232.2300000023}},{"attributes":{"ID":100157,"DIS_CODE":0,"TOWNNAME":"東山區","LI":"東河里","LIN":"10鄰","STREET":" ","SECT":" ","MAREA":"吉貝耍","LANE":" ","ALLEY":" ","HOUSE_NO":"９４號之１","E_COORD97":186880.92999999999,"N_COORD97":2577193.02,"ADDRESS":"吉貝耍９４號之１","OBJECTID":100157},"geometry":{"x":186880.93000000156,"y":2577193.0200000014}},{"attributes":{"ID":100158,"DIS_CODE":0,"TOWNNAME":"新市區","LI":"大營里","LIN":"1鄰","STREET":" ","SECT":" ","MAREA":"大營","LANE":" ","ALLEY":" ","HOUSE_NO":"２０號","E_COORD97":179685.92999999999,"N_COORD97":2555702.75,"ADDRESS":"大營２０號","OBJECTID":100158},"geometry":{"x":179685.9299999997,"y":2555702.7500000019}},{"attributes":{"ID":100159,"DIS_CODE":0,"TOWNNAME":"安南區","LI":"鳳凰里","LIN":"1鄰","STREET":"北安路","SECT":"三段","MAREA":" ","LANE":" ","ALLEY":" ","HOUSE_NO":"１９９號","E_COORD97":168328.05959300001,"N_COORD97":2549181.0999400001,"ADDRESS":"北安路三段１９９號","OBJECTID":100159},"geometry":{"x":168328.05959300138,"y":2549181.099938998}},{"attributes":{"ID":100160,"DIS_CODE":0,"TOWNNAME":"安南區","LI":"鳳凰里","LIN":"1鄰","STREET":"北安路","SECT":"三段","MAREA":" ","LANE":" ","ALLEY":" ","HOUSE_NO":"２１３號","E_COORD97":168335,"N_COORD97":2549213.9100000001,"ADDRESS":"北安路三段２１３號","OBJECTID":100160},"geometry":{"x":168335,"y":2549213.910000002}},{"attributes":{"ID":100161,"DIS_CODE":0,"TOWNNAME":"東山區","LI":"東河里","LIN":"10鄰","STREET":" ","SECT":" ","MAREA":"吉貝耍","LANE":" ","ALLEY":" ","HOUSE_NO":"９４號之２","E_COORD97":186886.59,"N_COORD97":2577193.7999999998,"ADDRESS":"吉貝耍９４號之２","OBJECTID":100161},"geometry":{"x":186886.58999999985,"y":2577193.8000000007}},{"attributes":{"ID":100162,"DIS_CODE":0,"TOWNNAME":"新化區","LI":"東榮里","LIN":"25鄰","STREET":"中正路","SECT":" ","MAREA":" ","LANE":" ","ALLEY":" ","HOUSE_NO":"３０６號之２","E_COORD97":179202.76000000001,"N_COORD97":2547993.2599999998,"ADDRESS":"中正路３０６號之２","OBJECTID":100162},"geometry":{"x":179202.75999999978,"y":2547993.2600000016}},{"attributes":{"ID":100163,"DIS_CODE":0,"TOWNNAME":"永康區","LI":"三合里","LIN":"9鄰","STREET":"南工街","SECT":" ","MAREA":" ","LANE":"２４７巷","ALLEY":"３５弄","HOUSE_NO":"１０５號","E_COORD97":172044.67999999999,"N_COORD97":2545733.7400000002,"ADDRESS":"南工街２４７巷３５弄１０５號","OBJECTID":100163},"geometry":{"x":172044.68000000156,"y":2545733.7400000002}},{"attributes":{"ID":100164,"DIS_CODE":0,"TOWNNAME":"永康區","LI":"三合里","LIN":"9鄰","STREET":"南工街","SECT":" ","MAREA":" ","LANE":"２４７巷","ALLEY":"３５弄","HOUSE_NO":"３６號","E_COORD97":172005.64999999999,"N_COORD97":2545661.7400000002,"ADDRESS":"南工街２４７巷３５弄３６號","OBJECTID":100164},"geometry":{"x":172005.6500000013,"y":2545661.7400000021}},{"attributes":{"ID":100165,"DIS_CODE":0,"TOWNNAME":"永康區","LI":"三合里","LIN":"9鄰","STREET":"南工街","SECT":" ","MAREA":" ","LANE":"２４７巷","ALLEY":"３５弄","HOUSE_NO":"８０號","E_COORD97":172031.67000000001,"N_COORD97":2545676.4900000002,"ADDRESS":"南工街２４７巷３５弄８０號","OBJECTID":100165},"geometry":{"x":172031.67000000086,"y":2545676.4900000021}},{"attributes":{"ID":100166,"DIS_CODE":0,"TOWNNAME":"永康區","LI":"三合里","LIN":"9鄰","STREET":"南工街","SECT":" ","MAREA":" ","LANE":"２４７巷","ALLEY":"３５弄","HOUSE_NO":"１０４號","E_COORD97":172045.04999999999,"N_COORD97":2545729,"ADDRESS":"南工街２４７巷３５弄１０４號","OBJECTID":100166},"geometry":{"x":172045.04999999981,"y":2545729}},{"attributes":{"ID":100167,"DIS_CODE":0,"TOWNNAME":"永康區","LI":"三合里","LIN":"9鄰","STREET":"南工街","SECT":" ","MAREA":" ","LANE":"２４７巷","ALLEY":"３５弄","HOUSE_NO":"４５號","E_COORD97":172001.87,"N_COORD97":2545705.25,"ADDRESS":"南工街２４７巷３５弄４５號","OBJECTID":100167},"geometry":{"x":172001.87000000104,"y":2545705.2500000019}},{"attributes":{"ID":100168,"DIS_CODE":0,"TOWNNAME":"永康區","LI":"三合里","LIN":"9鄰","STREET":"南工街","SECT":" ","MAREA":" ","LANE":"２４７巷","ALLEY":"３５弄","HOUSE_NO":"３７號","E_COORD97":172005.12,"N_COORD97":2545666.2400000002,"ADDRESS":"南工街２４７巷３５弄３７號","OBJECTID":100168},"geometry":{"x":172005.12000000104,"y":2545666.2400000002}},{"attributes":{"ID":100169,"DIS_CODE":0,"TOWNNAME":"永康區","LI":"三合里","LIN":"9鄰","STREET":"南工街","SECT":" ","MAREA":" ","LANE":"２４７巷","ALLEY":"３５弄","HOUSE_NO":"１０７號","E_COORD97":172043.54999999999,"N_COORD97":2545742.4900000002,"ADDRESS":"南工街２４７巷３５弄１０７號","OBJECTID":100169},"geometry":{"x":172043.54999999981,"y":2545742.4900000002}},{"attributes":{"ID":100170,"DIS_CODE":0,"TOWNNAME":"仁德區","LI":"仁義里","LIN":"9鄰","STREET":"仁義一街","SECT":" ","MAREA":" ","LANE":"１０２巷","ALLEY":"１弄","HOUSE_NO":"１號","E_COORD97":173556.92000000001,"N_COORD97":2541161.77,"ADDRESS":"仁義一街１０２巷１弄１號","OBJECTID":100170},"geometry":{"x":173556.91999999899,"y":2541161.7700000014}},{"attributes":{"ID":100171,"DIS_CODE":0,"TOWNNAME":"仁德區","LI":"仁義里","LIN":"9鄰","STREET":"仁義一街","SECT":" ","MAREA":" ","LANE":"１０２巷","ALLEY":"１弄","HOUSE_NO":"３號","E_COORD97":173561.82000000001,"N_COORD97":2541161.02,"ADDRESS":"仁義一街１０２巷１弄３號","OBJECTID":100171},"geometry":{"x":173561.82000000123,"y":2541161.0199999996}},{"attributes":{"ID":100172,"DIS_CODE":0,"TOWNNAME":"仁德區","LI":"仁義里","LIN":"9鄰","STREET":"仁義一街","SECT":" ","MAREA":" ","LANE":"１０２巷","ALLEY":"１弄","HOUSE_NO":"１５號","E_COORD97":173593.73000000001,"N_COORD97":2541158.27,"ADDRESS":"仁義一街１０２巷１弄１５號","OBJECTID":100172},"geometry":{"x":173593.73000000045,"y":2541158.2700000014}},{"attributes":{"ID":100173,"DIS_CODE":0,"TOWNNAME":"新化區","LI":"唪口里","LIN":"4鄰","STREET":"大德路","SECT":" ","MAREA":" ","LANE":" ","ALLEY":" ","HOUSE_NO":"９０號之１５","E_COORD97":178115.79000000001,"N_COORD97":2549494.2599999998,"ADDRESS":"大德路９０號之１５","OBJECTID":100173},"geometry":{"x":178115.79000000004,"y":2549494.2600000035}},{"attributes":{"ID":100174,"DIS_CODE":0,"TOWNNAME":"新化區","LI":"太平里","LIN":"4鄰","STREET":"民生路","SECT":" ","MAREA":" ","LANE":" ","ALLEY":" ","HOUSE_NO":"３１９號","E_COORD97":178898.91,"N_COORD97":2549203.25,"ADDRESS":"民生路３１９號","OBJECTID":100174},"geometry":{"x":178898.91000000201,"y":2549203.2500000037}},{"attributes":{"ID":100175,"DIS_CODE":0,"TOWNNAME":"中西區","LI":"赤嵌里","LIN":"1鄰","STREET":"中山路","SECT":" ","MAREA":" ","LANE":" ","ALLEY":" ","HOUSE_NO":"１８７號","E_COORD97":169077.72,"N_COORD97":2544099.29,"ADDRESS":"中山路１８７號","OBJECTID":100175},"geometry":{"x":169077.7200000016,"y":2544099.2900000028}},{"attributes":{"ID":100176,"DIS_CODE":0,"TOWNNAME":"中西區","LI":"赤嵌里","LIN":"1鄰","STREET":"中山路","SECT":" ","MAREA":" ","LANE":" ","ALLEY":" ","HOUSE_NO":"１８９號","E_COORD97":169080.91,"N_COORD97":2544101.79,"ADDRESS":"中山路１８９號","OBJECTID":100176},"geometry":{"x":169080.91000000108,"y":2544101.7899999991}},{"attributes":{"ID":100177,"DIS_CODE":0,"TOWNNAME":"中西區","LI":"赤嵌里","LIN":"1鄰","STREET":"中山路","SECT":" ","MAREA":" ","LANE":" ","ALLEY":" ","HOUSE_NO":"１９１號","E_COORD97":169084.32999999999,"N_COORD97":2544103.6099999999,"ADDRESS":"中山路１９１號","OBJECTID":100177},"geometry":{"x":169084.33000000101,"y":2544103.6099999994}},{"attributes":{"ID":100178,"DIS_CODE":0,"TOWNNAME":"仁德區","LI":"三甲里","LIN":"1鄰","STREET":" ","SECT":" ","MAREA":"三甲子","LANE":" ","ALLEY":" ","HOUSE_NO":"９之２號","E_COORD97":171895.07000000001,"N_COORD97":2537132.5499999998,"ADDRESS":"三甲子９之２號","OBJECTID":100178},"geometry":{"x":171895.07000000216,"y":2537132.5500000026}},{"attributes":{"ID":100179,"DIS_CODE":0,"TOWNNAME":"仁德區","LI":"中洲里","LIN":"1鄰","STREET":" ","SECT":" ","MAREA":"中洲","LANE":" ","ALLEY":" ","HOUSE_NO":"１之１１６號","E_COORD97":173861.29999999999,"N_COORD97":2534394.5099999998,"ADDRESS":"中洲１之１１６號","OBJECTID":100179},"geometry":{"x":173861.30000000075,"y":2534394.5099999998}},{"attributes":{"ID":100180,"DIS_CODE":0,"TOWNNAME":"東山區","LI":"東河里","LIN":"10鄰","STREET":" ","SECT":" ","MAREA":"吉貝耍","LANE":" ","ALLEY":" ","HOUSE_NO":"９５號之１","E_COORD97":186840.89999999999,"N_COORD97":2577216.9900000002,"ADDRESS":"吉貝耍９５號之１","OBJECTID":100180},"geometry":{"x":186840.90000000037,"y":2577216.9900000021}},{"attributes":{"ID":100181,"DIS_CODE":0,"TOWNNAME":"東山區","LI":"東原里","LIN":"10鄰","STREET":" ","SECT":" ","MAREA":"前大埔","LANE":" ","ALLEY":" ","HOUSE_NO":"１１３號","E_COORD97":194256.31,"N_COORD97":2573063.02,"ADDRESS":"前大埔１１３號","OBJECTID":100181},"geometry":{"x":194256.31000000052,"y":2573063.0200000014}},{"attributes":{"ID":100182,"DIS_CODE":0,"TOWNNAME":"東山區","LI":"東原里","LIN":"10鄰","STREET":" ","SECT":" ","MAREA":"前大埔","LANE":" ","ALLEY":" ","HOUSE_NO":"１１４號之１","E_COORD97":194280.92000000001,"N_COORD97":2573095.9700000002,"ADDRESS":"前大埔１１４號之１","OBJECTID":100182},"geometry":{"x":194280.92000000086,"y":2573095.9700000007}},{"attributes":{"ID":100183,"DIS_CODE":0,"TOWNNAME":"中西區","LI":"赤嵌里","LIN":"1鄰","STREET":"中山路","SECT":" ","MAREA":" ","LANE":" ","ALLEY":" ","HOUSE_NO":"１９３號","E_COORD97":169087.75,"N_COORD97":2544105.8900000001,"ADDRESS":"中山路１９３號","OBJECTID":100183},"geometry":{"x":169087.75,"y":2544105.8900000006}},{"attributes":{"ID":100184,"DIS_CODE":0,"TOWNNAME":"中西區","LI":"赤嵌里","LIN":"1鄰","STREET":"中山路","SECT":" ","MAREA":" ","LANE":" ","ALLEY":" ","HOUSE_NO":"１９５號","E_COORD97":169091.17000000001,"N_COORD97":2544112.71,"ADDRESS":"中山路１９５號","OBJECTID":100184},"geometry":{"x":169091.16999999993,"y":2544112.7100000028}},{"attributes":{"ID":100185,"DIS_CODE":0,"TOWNNAME":"中西區","LI":"赤嵌里","LIN":"1鄰","STREET":"中山路","SECT":" ","MAREA":" ","LANE":" ","ALLEY":" ","HOUSE_NO":"１９７號","E_COORD97":169100.28,"N_COORD97":2544118.6299999999,"ADDRESS":"中山路１９７號","OBJECTID":100185},"geometry":{"x":169100.28000000119,"y":2544118.6300000008}},{"attributes":{"ID":100186,"DIS_CODE":0,"TOWNNAME":"仁德區","LI":"土庫里","LIN":"1鄰","STREET":"大發路","SECT":" ","MAREA":" ","LANE":" ","ALLEY":" ","HOUSE_NO":"３３號","E_COORD97":173216.14999999999,"N_COORD97":2542667.8100000001,"ADDRESS":"大發路３３號","OBJECTID":100186},"geometry":{"x":173216.15000000037,"y":2542667.8100000024}},{"attributes":{"ID":100187,"DIS_CODE":0,"TOWNNAME":"仁德區","LI":"土庫里","LIN":"1鄰","STREET":"大發路","SECT":" ","MAREA":" ","LANE":" ","ALLEY":" ","HOUSE_NO":"５７號","E_COORD97":173210.51999999999,"N_COORD97":2542741.9700000002,"ADDRESS":"大發路５７號","OBJECTID":100187},"geometry":{"x":173210.52000000048,"y":2542741.9700000007}},{"attributes":{"ID":100188,"DIS_CODE":0,"TOWNNAME":"仁德區","LI":"仁義里","LIN":"1鄰","STREET":"中山路","SECT":" ","MAREA":" ","LANE":" ","ALLEY":" ","HOUSE_NO":"２９５號","E_COORD97":174174.81,"N_COORD97":2541200.3799999999,"ADDRESS":"中山路２９５號","OBJECTID":100188},"geometry":{"x":174174.81000000052,"y":2541200.3800000008}},{"attributes":{"ID":100189,"DIS_CODE":0,"TOWNNAME":"安南區","LI":"鳳凰里","LIN":"1鄰","STREET":"北安路","SECT":"三段","MAREA":" ","LANE":" ","ALLEY":" ","HOUSE_NO":"２０９號","E_COORD97":168332.92945299999,"N_COORD97":2549204.5949300001,"ADDRESS":"北安路三段２０９號","OBJECTID":100189},"geometry":{"x":168332.92945300229,"y":2549204.594926998}},{"attributes":{"ID":100190,"DIS_CODE":0,"TOWNNAME":"下營區","LI":"大屯里","LIN":"1鄰","STREET":" ","SECT":" ","MAREA":"大屯寮","LANE":" ","ALLEY":" ","HOUSE_NO":"１０號之１","E_COORD97":172213.10000000001,"N_COORD97":2570551.7200000002,"ADDRESS":"大屯寮１０號之１","OBJECTID":100190},"geometry":{"x":172213.10000000056,"y":2570551.7200000007}},{"attributes":{"ID":100191,"DIS_CODE":0,"TOWNNAME":"下營區","LI":"大屯里","LIN":"1鄰","STREET":" ","SECT":" ","MAREA":"大屯寮","LANE":" ","ALLEY":" ","HOUSE_NO":"１０號之３","E_COORD97":172218.20000000001,"N_COORD97":2570542.6400000001,"ADDRESS":"大屯寮１０號之３","OBJECTID":100191},"geometry":{"x":172218.20000000112,"y":2570542.6400000006}},{"attributes":{"ID":100192,"DIS_CODE":0,"TOWNNAME":"下營區","LI":"大屯里","LIN":"1鄰","STREET":" ","SECT":" ","MAREA":"大屯寮","LANE":" ","ALLEY":" ","HOUSE_NO":"１０號","E_COORD97":172200.44,"N_COORD97":2570542.4100000001,"ADDRESS":"大屯寮１０號","OBJECTID":100192},"geometry":{"x":172200.44000000041,"y":2570542.410000002}},{"attributes":{"ID":100193,"DIS_CODE":0,"TOWNNAME":"下營區","LI":"大屯里","LIN":"1鄰","STREET":" ","SECT":" ","MAREA":"大屯寮","LANE":" ","ALLEY":" ","HOUSE_NO":"１１號","E_COORD97":172188.87,"N_COORD97":2570534.4700000002,"ADDRESS":"大屯寮１１號","OBJECTID":100193},"geometry":{"x":172188.87000000011,"y":2570534.4700000044}},{"attributes":{"ID":100194,"DIS_CODE":0,"TOWNNAME":"下營區","LI":"大屯里","LIN":"1鄰","STREET":" ","SECT":" ","MAREA":"大屯寮","LANE":" ","ALLEY":" ","HOUSE_NO":"１號之１２","E_COORD97":172644.88,"N_COORD97":2570533.9399999999,"ADDRESS":"大屯寮１號之１２","OBJECTID":100194},"geometry":{"x":172644.87999999989,"y":2570533.9400000013}},{"attributes":{"ID":100195,"DIS_CODE":0,"TOWNNAME":"七股區","LI":"竹港里","LIN":"1鄰","STREET":" ","SECT":" ","MAREA":"竹港","LANE":" ","ALLEY":" ","HOUSE_NO":"６號","E_COORD97":165343.57999999999,"N_COORD97":2557587.6299999999,"ADDRESS":"竹港６號","OBJECTID":100195},"geometry":{"x":165343.58000000101,"y":2557587.6300000008}},{"attributes":{"ID":100196,"DIS_CODE":0,"TOWNNAME":"仁德區","LI":"仁義里","LIN":"9鄰","STREET":"仁義一街","SECT":" ","MAREA":" ","LANE":"１０２巷","ALLEY":"１弄","HOUSE_NO":"５號","E_COORD97":173566.89999999999,"N_COORD97":2541160.52,"ADDRESS":"仁義一街１０２巷１弄５號","OBJECTID":100196},"geometry":{"x":173566.9000000013,"y":2541160.5199999996}},{"attributes":{"ID":100197,"DIS_CODE":0,"TOWNNAME":"仁德區","LI":"仁義里","LIN":"9鄰","STREET":"仁義一街","SECT":" ","MAREA":" ","LANE":"１０２巷","ALLEY":"１弄","HOUSE_NO":"１１號","E_COORD97":173583.69,"N_COORD97":2541159.02,"ADDRESS":"仁義一街１０２巷１弄１１號","OBJECTID":100197},"geometry":{"x":173583.69000000041,"y":2541159.0200000033}},{"attributes":{"ID":100198,"DIS_CODE":0,"TOWNNAME":"仁德區","LI":"土庫里","LIN":"9鄰","STREET":"土庫路","SECT":" ","MAREA":" ","LANE":"５３巷","ALLEY":"１１弄","HOUSE_NO":"３號","E_COORD97":174251.89000000001,"N_COORD97":2543361.0099999998,"ADDRESS":"土庫路５３巷１１弄３號","OBJECTID":100198},"geometry":{"x":174251.88999999873,"y":2543361.0100000016}},{"attributes":{"ID":100199,"DIS_CODE":0,"TOWNNAME":"仁德區","LI":"土庫里","LIN":"9鄰","STREET":"土庫路","SECT":" ","MAREA":" ","LANE":"５３巷","ALLEY":"１１弄","HOUSE_NO":"１號","E_COORD97":174252.73999999999,"N_COORD97":2543356.2599999998,"ADDRESS":"土庫路５３巷１１弄１號","OBJECTID":100199},"geometry":{"x":174252.74000000022,"y":2543356.2599999998}},{"attributes":{"ID":100200,"DIS_CODE":0,"TOWNNAME":"仁德區","LI":"土庫里","LIN":"9鄰","STREET":"土庫路","SECT":" ","MAREA":" ","LANE":"５３巷","ALLEY":"１１弄","HOUSE_NO":"９號","E_COORD97":174248.82000000001,"N_COORD97":2543374.7599999998,"ADDRESS":"土庫路５３巷１１弄９號","OBJECTID":100200},"geometry":{"x":174248.82000000123,"y":2543374.7600000035}}]}