{"displayFieldName":"TOWNNAME","fieldAliases":{"ID":"ID","DIS_CODE":"DIS_CODE","TOWNNAME":"TOWNNAME","LI":"LI","LIN":"LIN","STREET":"STREET","SECT":"SECT","MAREA":"MAREA","LANE":"LANE","ALLEY":"ALLEY","HOUSE_NO":"HOUSE_NO","E_COORD97":"E_COORD97","N_COORD97":"N_COORD97","ADDRESS":"ADDRESS","OBJECTID":"OBJECTID"},"geometryType":"esriGeometryPoint","spatialReference":{"wkid":102443,"latestWkid":3826},"fields":[{"name":"ID","type":"esriFieldTypeDouble","alias":"ID"},{"name":"DIS_CODE","type":"esriFieldTypeInteger","alias":"DIS_CODE"},{"name":"TOWNNAME","type":"esriFieldTypeString","alias":"TOWNNAME","length":8},{"name":"LI","type":"esriFieldTypeString","alias":"LI","length":8},{"name":"LIN","type":"esriFieldTypeString","alias":"LIN","length":12},{"name":"STREET","type":"esriFieldTypeString","alias":"STREET","length":20},{"name":"SECT","type":"esriFieldTypeString","alias":"SECT","length":8},{"name":"MAREA","type":"esriFieldTypeString","alias":"MAREA","length":12},{"name":"LANE","type":"esriFieldTypeString","alias":"LANE","length":10},{"name":"ALLEY","type":"esriFieldTypeString","alias":"ALLEY","length":10},{"name":"HOUSE_NO","type":"esriFieldTypeString","alias":"HOUSE_NO","length":20},{"name":"E_COORD97","type":"esriFieldTypeDouble","alias":"E_COORD97"},{"name":"N_COORD97","type":"esriFieldTypeDouble","alias":"N_COORD97"},{"name":"ADDRESS","type":"esriFieldTypeString","alias":"ADDRESS","length":50},{"name":"OBJECTID","type":"esriFieldTypeOID","alias":"OBJECTID"}],"features":[{"attributes":{"ID":261605,"DIS_CODE":0,"TOWNNAME":"新營區","LI":"永生里","LIN":"1鄰","STREET":"中山路","SECT":" ","MAREA":" ","LANE":" ","ALLEY":" ","HOUSE_NO":"１４１號","E_COORD97":180093.86463,"N_COORD97":2578128.88283,"ADDRESS":"中山路１４１號","OBJECTID":261601},"geometry":{"x":180093.86462999973,"y":2578128.8828289993}},{"attributes":{"ID":261606,"DIS_CODE":0,"TOWNNAME":"關廟區","LI":"新光里","LIN":"8鄰","STREET":"北寮街","SECT":" ","MAREA":" ","LANE":" ","ALLEY":" ","HOUSE_NO":"１４２號","E_COORD97":184317.62641200001,"N_COORD97":2541921.2944800002,"ADDRESS":"北寮街１４２號","OBJECTID":261602},"geometry":{"x":184317.62641199958,"y":2541921.2944760006}},{"attributes":{"ID":261607,"DIS_CODE":0,"TOWNNAME":"仁德區","LI":"仁德里","LIN":"39鄰","STREET":"文宏路","SECT":" ","MAREA":" ","LANE":" ","ALLEY":" ","HOUSE_NO":"１７６號","E_COORD97":172457.700235,"N_COORD97":2541853.3028799999,"ADDRESS":"文宏路１７６號","OBJECTID":261603},"geometry":{"x":172457.70023500081,"y":2541853.3028840013}},{"attributes":{"ID":261608,"DIS_CODE":0,"TOWNNAME":"關廟區","LI":"新光里","LIN":"10鄰","STREET":"新光街","SECT":" ","MAREA":" ","LANE":" ","ALLEY":" ","HOUSE_NO":"２８２號","E_COORD97":184366.72675999999,"N_COORD97":2541885.3685300001,"ADDRESS":"新光街２８２號","OBJECTID":261604},"geometry":{"x":184366.72675999999,"y":2541885.3685300034}},{"attributes":{"ID":261609,"DIS_CODE":0,"TOWNNAME":"佳里區","LI":"鎮山里","LIN":"22鄰","STREET":"鎮山街","SECT":" ","MAREA":" ","LANE":" ","ALLEY":" ","HOUSE_NO":"１２３號","E_COORD97":166292.64000000001,"N_COORD97":2560989.4500000002,"ADDRESS":"鎮山街１２３號","OBJECTID":261605},"geometry":{"x":166292.63999999966,"y":2560989.450000003}},{"attributes":{"ID":261610,"DIS_CODE":0,"TOWNNAME":"佳里區","LI":"鎮山里","LIN":"22鄰","STREET":"鎮山街","SECT":" ","MAREA":" ","LANE":" ","ALLEY":" ","HOUSE_NO":"１２５號","E_COORD97":166292,"N_COORD97":2560985.27,"ADDRESS":"鎮山街１２５號","OBJECTID":261606},"geometry":{"x":166292,"y":2560985.2700000014}},{"attributes":{"ID":261611,"DIS_CODE":0,"TOWNNAME":"新營區","LI":"永生里","LIN":"1鄰","STREET":"中興路","SECT":" ","MAREA":" ","LANE":" ","ALLEY":" ","HOUSE_NO":"２２之１號","E_COORD97":180123.31625900001,"N_COORD97":2578049.19037,"ADDRESS":"中興路２２之１號","OBJECTID":261607},"geometry":{"x":180123.31625900045,"y":2578049.1903720032}},{"attributes":{"ID":261612,"DIS_CODE":0,"TOWNNAME":"新營區","LI":"永生里","LIN":"1鄰","STREET":"中興路","SECT":" ","MAREA":" ","LANE":" ","ALLEY":" ","HOUSE_NO":"２４號之２","E_COORD97":180123.10437700001,"N_COORD97":2578026.7537199999,"ADDRESS":"中興路２４號之２","OBJECTID":261608},"geometry":{"x":180123.10437700152,"y":2578026.7537179999}},{"attributes":{"ID":261613,"DIS_CODE":0,"TOWNNAME":"新營區","LI":"永生里","LIN":"1鄰","STREET":"中興路","SECT":" ","MAREA":" ","LANE":" ","ALLEY":" ","HOUSE_NO":"２４號之３","E_COORD97":180122.25684799999,"N_COORD97":2577995.32124,"ADDRESS":"中興路２４號之３","OBJECTID":261609},"geometry":{"x":180122.25684799906,"y":2577995.3212350029}},{"attributes":{"ID":261614,"DIS_CODE":0,"TOWNNAME":"新營區","LI":"永生里","LIN":"1鄰","STREET":"富源街","SECT":" ","MAREA":" ","LANE":" ","ALLEY":" ","HOUSE_NO":"２之２號","E_COORD97":180109.75579699999,"N_COORD97":2578019.7687200001,"ADDRESS":"富源街２之２號","OBJECTID":261610},"geometry":{"x":180109.7557970006,"y":2578019.7687220015}},{"attributes":{"ID":261615,"DIS_CODE":0,"TOWNNAME":"新營區","LI":"永生里","LIN":"1鄰","STREET":"富源街","SECT":" ","MAREA":" ","LANE":" ","ALLEY":" ","HOUSE_NO":"２之３號","E_COORD97":180104.67062300001,"N_COORD97":2578018.7103900001,"ADDRESS":"富源街２之３號","OBJECTID":261611},"geometry":{"x":180104.67062299978,"y":2578018.7103889976}},{"attributes":{"ID":261616,"DIS_CODE":0,"TOWNNAME":"關廟區","LI":"新光里","LIN":"14鄰","STREET":"南寮街","SECT":" ","MAREA":" ","LANE":" ","ALLEY":" ","HOUSE_NO":"７號","E_COORD97":184251.31039500001,"N_COORD97":2541597.2296799999,"ADDRESS":"南寮街７號","OBJECTID":261612},"geometry":{"x":184251.31039500143,"y":2541597.2296770029}},{"attributes":{"ID":261617,"DIS_CODE":0,"TOWNNAME":"關廟區","LI":"新光里","LIN":"14鄰","STREET":"新光街","SECT":" ","MAREA":" ","LANE":" ","ALLEY":" ","HOUSE_NO":"１８６號","E_COORD97":184273.87479,"N_COORD97":2541647.8709,"ADDRESS":"新光街１８６號","OBJECTID":261613},"geometry":{"x":184273.87479000073,"y":2541647.8708999995}},{"attributes":{"ID":261618,"DIS_CODE":0,"TOWNNAME":"新營區","LI":"永生里","LIN":"1鄰","STREET":"中興路","SECT":" ","MAREA":" ","LANE":" ","ALLEY":" ","HOUSE_NO":"１８號","E_COORD97":180122.46872999999,"N_COORD97":2578065.3828599998,"ADDRESS":"中興路１８號","OBJECTID":261614},"geometry":{"x":180122.46873000078,"y":2578065.3828640021}},{"attributes":{"ID":261619,"DIS_CODE":0,"TOWNNAME":"仁德區","LI":"保安里","LIN":"12鄰","STREET":"開發七路","SECT":" ","MAREA":" ","LANE":" ","ALLEY":" ","HOUSE_NO":"１００號","E_COORD97":173538.32088700001,"N_COORD97":2535718.40026,"ADDRESS":"開發七路１００號","OBJECTID":261615},"geometry":{"x":173538.3208870003,"y":2535718.4002630003}},{"attributes":{"ID":261620,"DIS_CODE":0,"TOWNNAME":"新營區","LI":"永生里","LIN":"2鄰","STREET":"中山路","SECT":" ","MAREA":" ","LANE":" ","ALLEY":" ","HOUSE_NO":"１５３號之３","E_COORD97":180068.862528,"N_COORD97":2578113.4311700002,"ADDRESS":"中山路１５３號之３","OBJECTID":261616},"geometry":{"x":180068.86252800003,"y":2578113.4311710019}},{"attributes":{"ID":261621,"DIS_CODE":0,"TOWNNAME":"新營區","LI":"永生里","LIN":"2鄰","STREET":"中山路","SECT":" ","MAREA":" ","LANE":" ","ALLEY":" ","HOUSE_NO":"１６１號之２","E_COORD97":180045.55548400001,"N_COORD97":2578092.0528500001,"ADDRESS":"中山路１６１號之２","OBJECTID":261617},"geometry":{"x":180045.55548399966,"y":2578092.0528490022}},{"attributes":{"ID":261622,"DIS_CODE":0,"TOWNNAME":"新營區","LI":"永生里","LIN":"3鄰","STREET":"中山路","SECT":" ","MAREA":" ","LANE":" ","ALLEY":" ","HOUSE_NO":"１７７號","E_COORD97":179992.11977200001,"N_COORD97":2578052.7886999999,"ADDRESS":"中山路１７７號","OBJECTID":261618},"geometry":{"x":179992.1197720021,"y":2578052.7887040004}},{"attributes":{"ID":261623,"DIS_CODE":0,"TOWNNAME":"新營區","LI":"永生里","LIN":"3鄰","STREET":"富源街","SECT":" ","MAREA":" ","LANE":" ","ALLEY":" ","HOUSE_NO":"１２之３號","E_COORD97":180074.330074,"N_COORD97":2578035.4320499999,"ADDRESS":"富源街１２之３號","OBJECTID":261619},"geometry":{"x":180074.3300740011,"y":2578035.4320460018}},{"attributes":{"ID":261624,"DIS_CODE":0,"TOWNNAME":"新營區","LI":"永生里","LIN":"3鄰","STREET":"富源街","SECT":" ","MAREA":" ","LANE":" ","ALLEY":" ","HOUSE_NO":"１０之２號","E_COORD97":180026.44469199999,"N_COORD97":2578043.8987099999,"ADDRESS":"富源街１０之２號","OBJECTID":261620},"geometry":{"x":180026.44469200075,"y":2578043.898709001}},{"attributes":{"ID":261625,"DIS_CODE":0,"TOWNNAME":"新營區","LI":"永生里","LIN":"4鄰","STREET":"光明街","SECT":" ","MAREA":" ","LANE":" ","ALLEY":" ","HOUSE_NO":"２３號","E_COORD97":180030.04668999999,"N_COORD97":2578021.2503800001,"ADDRESS":"光明街２３號","OBJECTID":261621},"geometry":{"x":180030.04669000022,"y":2578021.2503800038}},{"attributes":{"ID":261626,"DIS_CODE":0,"TOWNNAME":"新營區","LI":"永生里","LIN":"4鄰","STREET":"光明街","SECT":" ","MAREA":" ","LANE":" ","ALLEY":" ","HOUSE_NO":"３５號","E_COORD97":180037.46256000001,"N_COORD97":2577992.1462300001,"ADDRESS":"光明街３５號","OBJECTID":261622},"geometry":{"x":180037.4625599999,"y":2577992.1462300047}},{"attributes":{"ID":261627,"DIS_CODE":0,"TOWNNAME":"新營區","LI":"永生里","LIN":"4鄰","STREET":"富源街","SECT":" ","MAREA":" ","LANE":" ","ALLEY":" ","HOUSE_NO":"１６號","E_COORD97":180059.49831,"N_COORD97":2578000.8245600001,"ADDRESS":"富源街１６號","OBJECTID":261623},"geometry":{"x":180059.49831000064,"y":2578000.8245599996}},{"attributes":{"ID":261628,"DIS_CODE":0,"TOWNNAME":"新營區","LI":"永生里","LIN":"4鄰","STREET":"光明街","SECT":" ","MAREA":" ","LANE":" ","ALLEY":" ","HOUSE_NO":"１９號","E_COORD97":180022.41893000001,"N_COORD97":2578019.9803900002,"ADDRESS":"光明街１９號","OBJECTID":261624},"geometry":{"x":180022.41892999969,"y":2578019.9803880025}},{"attributes":{"ID":261629,"DIS_CODE":0,"TOWNNAME":"新營區","LI":"永生里","LIN":"5鄰","STREET":"中山路","SECT":" ","MAREA":" ","LANE":" ","ALLEY":" ","HOUSE_NO":"１８３號","E_COORD97":179972.41472500001,"N_COORD97":2578041.3587099998,"ADDRESS":"中山路１８３號","OBJECTID":261625},"geometry":{"x":179972.4147250019,"y":2578041.3587100022}},{"attributes":{"ID":261630,"DIS_CODE":0,"TOWNNAME":"新營區","LI":"永生里","LIN":"5鄰","STREET":"中山路","SECT":" ","MAREA":" ","LANE":" ","ALLEY":" ","HOUSE_NO":"１８７號","E_COORD97":179965.42261199999,"N_COORD97":2578035.4320499999,"ADDRESS":"中山路１８７號","OBJECTID":261626},"geometry":{"x":179965.42261200119,"y":2578035.4320460018}},{"attributes":{"ID":261631,"DIS_CODE":0,"TOWNNAME":"新營區","LI":"永生里","LIN":"5鄰","STREET":"中山路","SECT":" ","MAREA":" ","LANE":" ","ALLEY":" ","HOUSE_NO":"１８９號","E_COORD97":179961.820614,"N_COORD97":2578032.6803799998,"ADDRESS":"中山路１８９號","OBJECTID":261627},"geometry":{"x":179961.82061400171,"y":2578032.680381}},{"attributes":{"ID":261632,"DIS_CODE":0,"TOWNNAME":"新營區","LI":"永生里","LIN":"5鄰","STREET":"中山路","SECT":" ","MAREA":" ","LANE":" ","ALLEY":" ","HOUSE_NO":"１９１號","E_COORD97":179958.85426299999,"N_COORD97":2578030.56372,"ADDRESS":"中山路１９１號","OBJECTID":261628},"geometry":{"x":179958.85426300205,"y":2578030.5637159999}},{"attributes":{"ID":261633,"DIS_CODE":0,"TOWNNAME":"關廟區","LI":"龜洞里","LIN":"4鄰","STREET":"南雄南路","SECT":" ","MAREA":" ","LANE":" ","ALLEY":" ","HOUSE_NO":"８８０號","E_COORD97":182605.26485599999,"N_COORD97":2533064.0748399999,"ADDRESS":"南雄南路８８０號","OBJECTID":261629},"geometry":{"x":182605.26485600043,"y":2533064.074843999}},{"attributes":{"ID":261634,"DIS_CODE":0,"TOWNNAME":"佳里區","LI":"鎮山里","LIN":"22鄰","STREET":"鎮山街","SECT":" ","MAREA":" ","LANE":" ","ALLEY":" ","HOUSE_NO":"１２７號","E_COORD97":166291.56,"N_COORD97":2560980.3700000001,"ADDRESS":"鎮山街１２７號","OBJECTID":261630},"geometry":{"x":166291.55999999959,"y":2560980.370000001}},{"attributes":{"ID":261635,"DIS_CODE":0,"TOWNNAME":"白河區","LI":"永安里","LIN":" ","STREET":"一心街","SECT":" ","MAREA":" ","LANE":" ","ALLEY":" ","HOUSE_NO":"２４號","E_COORD97":189972.51000000001,"N_COORD97":2583363.5800000001,"ADDRESS":"一心街２４號","OBJECTID":261631},"geometry":{"x":189972.51000000164,"y":2583363.5800000019}},{"attributes":{"ID":261636,"DIS_CODE":0,"TOWNNAME":"白河區","LI":"永安里","LIN":" ","STREET":"一心街","SECT":" ","MAREA":" ","LANE":" ","ALLEY":" ","HOUSE_NO":"２６號","E_COORD97":189967.60999999999,"N_COORD97":2583363.4199999999,"ADDRESS":"一心街２６號","OBJECTID":261632},"geometry":{"x":189967.61000000127,"y":2583363.4200000037}},{"attributes":{"ID":261637,"DIS_CODE":0,"TOWNNAME":"白河區","LI":"永安里","LIN":" ","STREET":"七賢街","SECT":" ","MAREA":" ","LANE":" ","ALLEY":" ","HOUSE_NO":"１１３號","E_COORD97":190092.89000000001,"N_COORD97":2583020.7000000002,"ADDRESS":"七賢街１１３號","OBJECTID":261633},"geometry":{"x":190092.88999999966,"y":2583020.6999999993}},{"attributes":{"ID":261638,"DIS_CODE":0,"TOWNNAME":"白河區","LI":"永安里","LIN":" ","STREET":"七賢街","SECT":" ","MAREA":" ","LANE":" ","ALLEY":" ","HOUSE_NO":"３５號","E_COORD97":190078.10999999999,"N_COORD97":2583030.3900000001,"ADDRESS":"七賢街３５號","OBJECTID":261634},"geometry":{"x":190078.11000000127,"y":2583030.3900000006}},{"attributes":{"ID":261639,"DIS_CODE":0,"TOWNNAME":"白河區","LI":"永安里","LIN":" ","STREET":"九龍街","SECT":" ","MAREA":" ","LANE":" ","ALLEY":" ","HOUSE_NO":"８２號","E_COORD97":190032.01999999999,"N_COORD97":2583029.9399999999,"ADDRESS":"九龍街８２號","OBJECTID":261635},"geometry":{"x":190032.02000000048,"y":2583029.9399999995}},{"attributes":{"ID":261640,"DIS_CODE":0,"TOWNNAME":"白河區","LI":"白河里","LIN":" ","STREET":"十全街","SECT":" ","MAREA":" ","LANE":" ","ALLEY":" ","HOUSE_NO":"１之３號","E_COORD97":190334.98000000001,"N_COORD97":2582704.8799999999,"ADDRESS":"十全街１之３號","OBJECTID":261636},"geometry":{"x":190334.98000000138,"y":2582704.8800000027}},{"attributes":{"ID":261641,"DIS_CODE":0,"TOWNNAME":"白河區","LI":"永安里","LIN":" ","STREET":"十全街","SECT":" ","MAREA":" ","LANE":" ","ALLEY":" ","HOUSE_NO":"２９７號","E_COORD97":189706.69,"N_COORD97":2583040.1200000001,"ADDRESS":"十全街２９７號","OBJECTID":261637},"geometry":{"x":189706.69000000041,"y":2583040.120000001}},{"attributes":{"ID":261642,"DIS_CODE":0,"TOWNNAME":"關廟區","LI":"龜洞里","LIN":"4鄰","STREET":"南雄南路","SECT":" ","MAREA":" ","LANE":" ","ALLEY":" ","HOUSE_NO":"８４３號","E_COORD97":182578.56895099999,"N_COORD97":2532977.6090600002,"ADDRESS":"南雄南路８４３號","OBJECTID":261638},"geometry":{"x":182578.56895100046,"y":2532977.609058002}},{"attributes":{"ID":261643,"DIS_CODE":0,"TOWNNAME":"下營區","LI":"仁里里","LIN":"8鄰","STREET":"蚵寮街","SECT":" ","MAREA":" ","LANE":" ","ALLEY":" ","HOUSE_NO":"４５號","E_COORD97":174054.95146700001,"N_COORD97":2570318.2584500001,"ADDRESS":"蚵寮街４５號","OBJECTID":261639},"geometry":{"x":174054.95146700181,"y":2570318.2584540024}},{"attributes":{"ID":261644,"DIS_CODE":0,"TOWNNAME":"新營區","LI":"永生里","LIN":"5鄰","STREET":"光明街","SECT":" ","MAREA":" ","LANE":" ","ALLEY":" ","HOUSE_NO":"８號","E_COORD97":179996.35741600001,"N_COORD97":2578023.5787200001,"ADDRESS":"光明街８號","OBJECTID":261640},"geometry":{"x":179996.35741600022,"y":2578023.5787199996}},{"attributes":{"ID":261645,"DIS_CODE":0,"TOWNNAME":"關廟區","LI":"龜洞里","LIN":"6鄰","STREET":"南雄南路","SECT":" ","MAREA":" ","LANE":" ","ALLEY":" ","HOUSE_NO":"８５３號","E_COORD97":182478.35337299999,"N_COORD97":2532851.1382900001,"ADDRESS":"南雄南路８５３號","OBJECTID":261641},"geometry":{"x":182478.35337300226,"y":2532851.1382930018}},{"attributes":{"ID":261646,"DIS_CODE":0,"TOWNNAME":"新營區","LI":"永生里","LIN":"6鄰","STREET":"光明街","SECT":" ","MAREA":" ","LANE":" ","ALLEY":" ","HOUSE_NO":"２０號","E_COORD97":180018.81693199999,"N_COORD97":2577996.4854000001,"ADDRESS":"光明街２０號","OBJECTID":261642},"geometry":{"x":180018.81693200022,"y":2577996.4854010027}},{"attributes":{"ID":261647,"DIS_CODE":0,"TOWNNAME":"新營區","LI":"永生里","LIN":"12鄰","STREET":"仁壽街","SECT":" ","MAREA":" ","LANE":" ","ALLEY":" ","HOUSE_NO":"６號","E_COORD97":179956.03,"N_COORD97":2578005.9100000001,"ADDRESS":"仁壽街６號","OBJECTID":261643},"geometry":{"x":179956.03000000212,"y":2578005.9100000001}},{"attributes":{"ID":261648,"DIS_CODE":0,"TOWNNAME":"新營區","LI":"永生里","LIN":"6鄰","STREET":"仁壽街","SECT":" ","MAREA":" ","LANE":" ","ALLEY":" ","HOUSE_NO":"１５號","E_COORD97":179983.64447999999,"N_COORD97":2577984.2087400001,"ADDRESS":"仁壽街１５號","OBJECTID":261644},"geometry":{"x":179983.64448000118,"y":2577984.2087399997}},{"attributes":{"ID":261649,"DIS_CODE":0,"TOWNNAME":"佳里區","LI":"鎮山里","LIN":"22鄰","STREET":"鎮山街","SECT":" ","MAREA":" ","LANE":" ","ALLEY":" ","HOUSE_NO":"９５號","E_COORD97":166314.28,"N_COORD97":2561064.0499999998,"ADDRESS":"鎮山街９５號","OBJECTID":261645},"geometry":{"x":166314.28000000026,"y":2561064.0500000007}},{"attributes":{"ID":261650,"DIS_CODE":0,"TOWNNAME":"新市區","LI":"新市里","LIN":"22鄰","STREET":"自強街","SECT":" ","MAREA":" ","LANE":" ","ALLEY":" ","HOUSE_NO":"１５號","E_COORD97":177690.10000000001,"N_COORD97":2553508.5,"ADDRESS":"自強街１５號","OBJECTID":261646},"geometry":{"x":177690.10000000149,"y":2553508.5000000019}},{"attributes":{"ID":261651,"DIS_CODE":0,"TOWNNAME":"新營區","LI":"永生里","LIN":"6鄰","STREET":"富源街","SECT":" ","MAREA":" ","LANE":" ","ALLEY":" ","HOUSE_NO":"２８號","E_COORD97":180008.010939,"N_COORD97":2577976.90625,"ADDRESS":"富源街２８號","OBJECTID":261647},"geometry":{"x":180008.01093900017,"y":2577976.9062450025}},{"attributes":{"ID":261652,"DIS_CODE":0,"TOWNNAME":"新營區","LI":"永生里","LIN":"6鄰","STREET":"富源街","SECT":" ","MAREA":" ","LANE":" ","ALLEY":" ","HOUSE_NO":"２８號之１","E_COORD97":180002.29011900001,"N_COORD97":2577975.4245799999,"ADDRESS":"富源街２８號之１","OBJECTID":261648},"geometry":{"x":180002.29011900071,"y":2577975.4245790001}},{"attributes":{"ID":261653,"DIS_CODE":0,"TOWNNAME":"關廟區","LI":"龜洞里","LIN":"4鄰","STREET":"南雄南路","SECT":" ","MAREA":" ","LANE":" ","ALLEY":" ","HOUSE_NO":"８５０號","E_COORD97":182753.15169299999,"N_COORD97":2533182.7139499998,"ADDRESS":"南雄南路８５０號","OBJECTID":261649},"geometry":{"x":182753.15169299953,"y":2533182.713947}},{"attributes":{"ID":261654,"DIS_CODE":0,"TOWNNAME":"仁德區","LI":"上崙里","LIN":"5鄰","STREET":"德善路","SECT":" ","MAREA":" ","LANE":" ","ALLEY":" ","HOUSE_NO":"３９２號","E_COORD97":174018.38560199999,"N_COORD97":2538156.1109000002,"ADDRESS":"德善路３９２號","OBJECTID":261650},"geometry":{"x":174018.3856020011,"y":2538156.1109000016}},{"attributes":{"ID":261655,"DIS_CODE":0,"TOWNNAME":"仁德區","LI":"仁德里","LIN":"38鄰","STREET":"文宏二街","SECT":" ","MAREA":" ","LANE":" ","ALLEY":" ","HOUSE_NO":"４９號","E_COORD97":172456.15964599999,"N_COORD97":2541765.7306900001,"ADDRESS":"文宏二街４９號","OBJECTID":261651},"geometry":{"x":172456.15964600071,"y":2541765.7306939997}},{"attributes":{"ID":261656,"DIS_CODE":0,"TOWNNAME":"仁德區","LI":"仁德里","LIN":"38鄰","STREET":"文宏二街","SECT":" ","MAREA":" ","LANE":" ","ALLEY":" ","HOUSE_NO":"４７號","E_COORD97":172454.676863,"N_COORD97":2541761.0740299998,"ADDRESS":"文宏二街４７號","OBJECTID":261652},"geometry":{"x":172454.67686300073,"y":2541761.0740300026}},{"attributes":{"ID":261657,"DIS_CODE":0,"TOWNNAME":"仁德區","LI":"仁德里","LIN":"38鄰","STREET":"文宏二街","SECT":" ","MAREA":" ","LANE":" ","ALLEY":" ","HOUSE_NO":"４５號","E_COORD97":172454.676863,"N_COORD97":2541757.2640300002,"ADDRESS":"文宏二街４５號","OBJECTID":261653},"geometry":{"x":172454.67686300073,"y":2541757.2640320044}},{"attributes":{"ID":261658,"DIS_CODE":0,"TOWNNAME":"仁德區","LI":"仁德里","LIN":"38鄰","STREET":"文宏二街","SECT":" ","MAREA":" ","LANE":" ","ALLEY":" ","HOUSE_NO":"４３號","E_COORD97":172452.55860300001,"N_COORD97":2541752.6073699999,"ADDRESS":"文宏二街４３號","OBJECTID":261654},"geometry":{"x":172452.5586029999,"y":2541752.607367998}},{"attributes":{"ID":261659,"DIS_CODE":0,"TOWNNAME":"仁德區","LI":"仁德里","LIN":"38鄰","STREET":"文宏路","SECT":" ","MAREA":" ","LANE":" ","ALLEY":" ","HOUSE_NO":"１０８號","E_COORD97":172420.63067099999,"N_COORD97":2541770.3873600001,"ADDRESS":"文宏路１０８號","OBJECTID":261655},"geometry":{"x":172420.63067100011,"y":2541770.3873580005}},{"attributes":{"ID":261660,"DIS_CODE":0,"TOWNNAME":"仁德區","LI":"仁德里","LIN":"38鄰","STREET":"文宏路","SECT":" ","MAREA":" ","LANE":" ","ALLEY":" ","HOUSE_NO":"１１０號","E_COORD97":172425.29084500001,"N_COORD97":2541772.2923599998,"ADDRESS":"文宏路１１０號","OBJECTID":261656},"geometry":{"x":172425.29084500112,"y":2541772.2923569996}},{"attributes":{"ID":261661,"DIS_CODE":0,"TOWNNAME":"仁德區","LI":"仁德里","LIN":"39鄰","STREET":"文宏一街","SECT":" ","MAREA":" ","LANE":" ","ALLEY":" ","HOUSE_NO":"６０號","E_COORD97":172445.414322,"N_COORD97":2541840.0256500002,"ADDRESS":"文宏一街６０號","OBJECTID":261657},"geometry":{"x":172445.414322,"y":2541840.0256540012}},{"attributes":{"ID":261662,"DIS_CODE":0,"TOWNNAME":"白河區","LI":"外角里","LIN":" ","STREET":"三民路","SECT":" ","MAREA":" ","LANE":" ","ALLEY":" ","HOUSE_NO":"１５４號","E_COORD97":191008.85999999999,"N_COORD97":2583350.0800000001,"ADDRESS":"三民路１５４號","OBJECTID":261658},"geometry":{"x":191008.86000000127,"y":2583350.0800000019}},{"attributes":{"ID":261663,"DIS_CODE":0,"TOWNNAME":"白河區","LI":"外角里","LIN":" ","STREET":"三民路","SECT":" ","MAREA":" ","LANE":" ","ALLEY":" ","HOUSE_NO":"１５８號","E_COORD97":190999.60999999999,"N_COORD97":2583352.2799999998,"ADDRESS":"三民路１５８號","OBJECTID":261659},"geometry":{"x":190999.6100000022,"y":2583352.2799999993}},{"attributes":{"ID":261664,"DIS_CODE":0,"TOWNNAME":"白河區","LI":"外角里","LIN":" ","STREET":"三民路","SECT":" ","MAREA":" ","LANE":" ","ALLEY":" ","HOUSE_NO":"１９３號","E_COORD97":190814.95999999999,"N_COORD97":2583290.7200000002,"ADDRESS":"三民路１９３號","OBJECTID":261660},"geometry":{"x":190814.95999999996,"y":2583290.7200000044}},{"attributes":{"ID":261665,"DIS_CODE":0,"TOWNNAME":"白河區","LI":"外角里","LIN":" ","STREET":"三民路","SECT":" ","MAREA":" ","LANE":" ","ALLEY":" ","HOUSE_NO":"２１號","E_COORD97":191167.76999999999,"N_COORD97":2583258.5499999998,"ADDRESS":"三民路２１號","OBJECTID":261661},"geometry":{"x":191167.77000000048,"y":2583258.5500000026}},{"attributes":{"ID":261666,"DIS_CODE":0,"TOWNNAME":"白河區","LI":"外角里","LIN":" ","STREET":"三民路","SECT":" ","MAREA":" ","LANE":" ","ALLEY":" ","HOUSE_NO":"３５４號","E_COORD97":190487.35000000001,"N_COORD97":2583252.2999999998,"ADDRESS":"三民路３５４號","OBJECTID":261662},"geometry":{"x":190487.35000000056,"y":2583252.3000000007}},{"attributes":{"ID":261667,"DIS_CODE":0,"TOWNNAME":"白河區","LI":"白河里","LIN":" ","STREET":"三民路","SECT":" ","MAREA":" ","LANE":" ","ALLEY":" ","HOUSE_NO":"３８２號","E_COORD97":190409.04999999999,"N_COORD97":2583277.1000000001,"ADDRESS":"三民路３８２號","OBJECTID":261663},"geometry":{"x":190409.04999999981,"y":2583277.1000000034}},{"attributes":{"ID":261668,"DIS_CODE":0,"TOWNNAME":"白河區","LI":"白河里","LIN":" ","STREET":"三民路","SECT":" ","MAREA":" ","LANE":" ","ALLEY":" ","HOUSE_NO":"３９４號","E_COORD97":190373.84,"N_COORD97":2583289.8500000001,"ADDRESS":"三民路３９４號","OBJECTID":261664},"geometry":{"x":190373.84000000171,"y":2583289.8500000015}},{"attributes":{"ID":261669,"DIS_CODE":0,"TOWNNAME":"白河區","LI":"永安里","LIN":" ","STREET":"三民路","SECT":" ","MAREA":" ","LANE":" ","ALLEY":" ","HOUSE_NO":"４１９號","E_COORD97":190050.53,"N_COORD97":2583387.04,"ADDRESS":"三民路４１９號","OBJECTID":261665},"geometry":{"x":190050.53000000026,"y":2583387.0399999991}},{"attributes":{"ID":261670,"DIS_CODE":0,"TOWNNAME":"白河區","LI":"永安里","LIN":" ","STREET":"三民路","SECT":" ","MAREA":" ","LANE":" ","ALLEY":" ","HOUSE_NO":"４２０號","E_COORD97":190231.01999999999,"N_COORD97":2583344.3199999998,"ADDRESS":"三民路４２０號","OBJECTID":261666},"geometry":{"x":190231.01999999955,"y":2583344.3200000022}},{"attributes":{"ID":261671,"DIS_CODE":0,"TOWNNAME":"白河區","LI":"外角里","LIN":" ","STREET":"三民路","SECT":" ","MAREA":" ","LANE":" ","ALLEY":" ","HOUSE_NO":"５８號","E_COORD97":191224.22,"N_COORD97":2583247.6000000001,"ADDRESS":"三民路５８號","OBJECTID":261667},"geometry":{"x":191224.22000000067,"y":2583247.6000000015}},{"attributes":{"ID":261672,"DIS_CODE":0,"TOWNNAME":"仁德區","LI":"仁德里","LIN":"39鄰","STREET":"文宏一街","SECT":" ","MAREA":" ","LANE":" ","ALLEY":" ","HOUSE_NO":"５８號","E_COORD97":172451.133627,"N_COORD97":2541838.5439900002,"ADDRESS":"文宏一街５８號","OBJECTID":261668},"geometry":{"x":172451.13362700026,"y":2541838.5439880043}},{"attributes":{"ID":261673,"DIS_CODE":0,"TOWNNAME":"仁德區","LI":"仁德里","LIN":"39鄰","STREET":"文宏一街","SECT":" ","MAREA":" ","LANE":" ","ALLEY":" ","HOUSE_NO":"５６號","E_COORD97":172458.54753899999,"N_COORD97":2541836.6389899999,"ADDRESS":"文宏一街５６號","OBJECTID":261669},"geometry":{"x":172458.5475390004,"y":2541836.6389889996}},{"attributes":{"ID":261674,"DIS_CODE":0,"TOWNNAME":"仁德區","LI":"仁德里","LIN":"39鄰","STREET":"文宏一街","SECT":" ","MAREA":" ","LANE":" ","ALLEY":" ","HOUSE_NO":"５２號","E_COORD97":172464.05501700001,"N_COORD97":2541835.79232,"ADDRESS":"文宏一街５２號","OBJECTID":261670},"geometry":{"x":172464.055017001,"y":2541835.7923230026}},{"attributes":{"ID":261675,"DIS_CODE":0,"TOWNNAME":"仁德區","LI":"仁德里","LIN":"39鄰","STREET":"文宏路","SECT":" ","MAREA":" ","LANE":" ","ALLEY":" ","HOUSE_NO":"１５２號","E_COORD97":172431.43380100001,"N_COORD97":2541837.6973199998,"ADDRESS":"文宏路１５２號","OBJECTID":261671},"geometry":{"x":172431.43380100094,"y":2541837.6973220017}},{"attributes":{"ID":261676,"DIS_CODE":0,"TOWNNAME":"仁德區","LI":"仁德里","LIN":"39鄰","STREET":"文宏路","SECT":" ","MAREA":" ","LANE":" ","ALLEY":" ","HOUSE_NO":"１５６號","E_COORD97":172432.281105,"N_COORD97":2541843.4123200001,"ADDRESS":"文宏路１５６號","OBJECTID":261672},"geometry":{"x":172432.28110500053,"y":2541843.4123190008}},{"attributes":{"ID":261677,"DIS_CODE":0,"TOWNNAME":"白河區","LI":"永安里","LIN":" ","STREET":"三義街","SECT":" ","MAREA":" ","LANE":" ","ALLEY":" ","HOUSE_NO":"３４號","E_COORD97":190056,"N_COORD97":2583212.48,"ADDRESS":"三義街３４號","OBJECTID":261673},"geometry":{"x":190056.00000000093,"y":2583212.4800000023}},{"attributes":{"ID":261678,"DIS_CODE":0,"TOWNNAME":"白河區","LI":"永安里","LIN":" ","STREET":"中山路","SECT":" ","MAREA":" ","LANE":" ","ALLEY":" ","HOUSE_NO":"１１１號","E_COORD97":190263.22,"N_COORD97":2583266.6099999999,"ADDRESS":"中山路１１１號","OBJECTID":261674},"geometry":{"x":190263.22000000067,"y":2583266.6100000031}},{"attributes":{"ID":261679,"DIS_CODE":0,"TOWNNAME":"山上區","LI":"明和里","LIN":"22鄰","STREET":" ","SECT":" ","MAREA":"北勢洲","LANE":" ","ALLEY":" ","HOUSE_NO":"５７號之１","E_COORD97":181880.17999999999,"N_COORD97":2556535.2999999998,"ADDRESS":"北勢洲５７號之１","OBJECTID":261675},"geometry":{"x":181880.18000000156,"y":2556535.3000000007}},{"attributes":{"ID":261680,"DIS_CODE":0,"TOWNNAME":"下營區","LI":"仁里里","LIN":"21鄰","STREET":"仁民街","SECT":" ","MAREA":" ","LANE":" ","ALLEY":" ","HOUSE_NO":"１９號","E_COORD97":174314.66298600001,"N_COORD97":2569827.2293600002,"ADDRESS":"仁民街１９號","OBJECTID":261676},"geometry":{"x":174314.66298600007,"y":2569827.2293630037}},{"attributes":{"ID":261681,"DIS_CODE":0,"TOWNNAME":"新營區","LI":"新南里","LIN":"28鄰","STREET":"明清街","SECT":" ","MAREA":" ","LANE":" ","ALLEY":" ","HOUSE_NO":"２號","E_COORD97":178197.25566200001,"N_COORD97":2578609.4680400002,"ADDRESS":"明清街２號","OBJECTID":261677},"geometry":{"x":178197.25566200074,"y":2578609.4680359997}},{"attributes":{"ID":261682,"DIS_CODE":0,"TOWNNAME":"新營區","LI":"新南里","LIN":"29鄰","STREET":"明清一街","SECT":" ","MAREA":" ","LANE":" ","ALLEY":" ","HOUSE_NO":"１２５號","E_COORD97":178084.74620200001,"N_COORD97":2578741.86546,"ADDRESS":"明清一街１２５號","OBJECTID":261678},"geometry":{"x":178084.74620200135,"y":2578741.8654640019}},{"attributes":{"ID":261683,"DIS_CODE":0,"TOWNNAME":"新營區","LI":"新南里","LIN":"29鄰","STREET":"明清一街","SECT":" ","MAREA":" ","LANE":" ","ALLEY":" ","HOUSE_NO":"１２７號","E_COORD97":178089.195729,"N_COORD97":2578741.86546,"ADDRESS":"明清一街１２７號","OBJECTID":261679},"geometry":{"x":178089.19572900049,"y":2578741.8654640019}},{"attributes":{"ID":261684,"DIS_CODE":0,"TOWNNAME":"新營區","LI":"新南里","LIN":"28鄰","STREET":"明清二街","SECT":" ","MAREA":" ","LANE":" ","ALLEY":" ","HOUSE_NO":"３８號","E_COORD97":178288.153135,"N_COORD97":2578643.7580200001,"ADDRESS":"明清二街３８號","OBJECTID":261680},"geometry":{"x":178288.1531349998,"y":2578643.7580169998}},{"attributes":{"ID":261685,"DIS_CODE":0,"TOWNNAME":"安南區","LI":"顯宮里","LIN":"7鄰","STREET":"媽祖宮二街","SECT":" ","MAREA":" ","LANE":" ","ALLEY":" ","HOUSE_NO":"１４６號","E_COORD97":160585.44533799999,"N_COORD97":2548918.70896,"ADDRESS":"媽祖宮二街１４６號","OBJECTID":261681},"geometry":{"x":160585.44533799961,"y":2548918.7089600023}},{"attributes":{"ID":261686,"DIS_CODE":0,"TOWNNAME":"新營區","LI":"新南里","LIN":"1鄰","STREET":"民治路","SECT":" ","MAREA":" ","LANE":" ","ALLEY":" ","HOUSE_NO":"２１２號","E_COORD97":178881.84711800001,"N_COORD97":2578591.68805,"ADDRESS":"民治路２１２號","OBJECTID":261682},"geometry":{"x":178881.8471180005,"y":2578591.6880450025}},{"attributes":{"ID":261687,"DIS_CODE":0,"TOWNNAME":"新營區","LI":"新南里","LIN":"1鄰","STREET":"民治路","SECT":" ","MAREA":" ","LANE":" ","ALLEY":" ","HOUSE_NO":"２００號","E_COORD97":178921.680975,"N_COORD97":2578628.3063599998,"ADDRESS":"民治路２００號","OBJECTID":261683},"geometry":{"x":178921.68097500037,"y":2578628.3063590005}},{"attributes":{"ID":261688,"DIS_CODE":0,"TOWNNAME":"新營區","LI":"新南里","LIN":"4鄰","STREET":"新北三街","SECT":" ","MAREA":" ","LANE":" ","ALLEY":" ","HOUSE_NO":"２４號","E_COORD97":178608.62149699999,"N_COORD97":2578819.50452,"ADDRESS":"新北三街２４號","OBJECTID":261684},"geometry":{"x":178608.62149700057,"y":2578819.5045229997}},{"attributes":{"ID":261689,"DIS_CODE":0,"TOWNNAME":"新營區","LI":"新南里","LIN":"4鄰","STREET":"新北三街","SECT":" ","MAREA":" ","LANE":" ","ALLEY":" ","HOUSE_NO":"３０之１號","E_COORD97":178594.425388,"N_COORD97":2578827.7595199998,"ADDRESS":"新北三街３０之１號","OBJECTID":261685},"geometry":{"x":178594.42538800091,"y":2578827.7595180031}},{"attributes":{"ID":261690,"DIS_CODE":0,"TOWNNAME":"新營區","LI":"新南里","LIN":"4鄰","STREET":"新北三街","SECT":" ","MAREA":" ","LANE":" ","ALLEY":" ","HOUSE_NO":"３０之４號","E_COORD97":178588.49268600001,"N_COORD97":2578837.4961799998,"ADDRESS":"新北三街３０之４號","OBJECTID":261686},"geometry":{"x":178588.49268599972,"y":2578837.4961800016}},{"attributes":{"ID":261691,"DIS_CODE":0,"TOWNNAME":"新營區","LI":"新南里","LIN":"4鄰","STREET":"新北三街","SECT":" ","MAREA":" ","LANE":" ","ALLEY":" ","HOUSE_NO":"３號","E_COORD97":178677.48321800001,"N_COORD97":2578843.4228400001,"ADDRESS":"新北三街３號","OBJECTID":261687},"geometry":{"x":178677.4832180012,"y":2578843.4228430018}},{"attributes":{"ID":261692,"DIS_CODE":0,"TOWNNAME":"新營區","LI":"新南里","LIN":"4鄰","STREET":"新北三街","SECT":" ","MAREA":" ","LANE":" ","ALLEY":" ","HOUSE_NO":"４號","E_COORD97":178668.58416500001,"N_COORD97":2578858.6628399999,"ADDRESS":"新北三街４號","OBJECTID":261688},"geometry":{"x":178668.58416499943,"y":2578858.6628350001}},{"attributes":{"ID":261693,"DIS_CODE":0,"TOWNNAME":"新營區","LI":"新南里","LIN":"4鄰","STREET":"金華路","SECT":"二段","MAREA":" ","LANE":" ","ALLEY":" ","HOUSE_NO":"１０８號","E_COORD97":178645.06523899999,"N_COORD97":2578790.7178699998,"ADDRESS":"金華路二段１０８號","OBJECTID":261689},"geometry":{"x":178645.06523900013,"y":2578790.7178720012}},{"attributes":{"ID":261694,"DIS_CODE":0,"TOWNNAME":"新營區","LI":"新南里","LIN":"5鄰","STREET":"新北三街","SECT":" ","MAREA":" ","LANE":" ","ALLEY":" ","HOUSE_NO":"１２０號","E_COORD97":178524.292373,"N_COORD97":2578802.8887,"ADDRESS":"新北三街１２０號","OBJECTID":261690},"geometry":{"x":178524.29237300064,"y":2578802.8886990007}},{"attributes":{"ID":261695,"DIS_CODE":0,"TOWNNAME":"新營區","LI":"新南里","LIN":"5鄰","STREET":"新北三街","SECT":" ","MAREA":" ","LANE":" ","ALLEY":" ","HOUSE_NO":"１３２號","E_COORD97":178498.86650599999,"N_COORD97":2578782.7803799999,"ADDRESS":"新北三街１３２號","OBJECTID":261691},"geometry":{"x":178498.86650600098,"y":2578782.7803760022}},{"attributes":{"ID":261696,"DIS_CODE":0,"TOWNNAME":"新營區","LI":"新南里","LIN":"5鄰","STREET":"新北三街","SECT":" ","MAREA":" ","LANE":" ","ALLEY":" ","HOUSE_NO":"１４２號","E_COORD97":178482.76345699999,"N_COORD97":2578768.2812199998,"ADDRESS":"新北三街１４２號","OBJECTID":261692},"geometry":{"x":178482.76345700026,"y":2578768.2812169995}},{"attributes":{"ID":261697,"DIS_CODE":0,"TOWNNAME":"安南區","LI":"安慶里","LIN":"22鄰","STREET":"安通一街","SECT":" ","MAREA":" ","LANE":" ","ALLEY":" ","HOUSE_NO":"１８８號","E_COORD97":168790.67000000001,"N_COORD97":2548223.54,"ADDRESS":"安通一街１８８號","OBJECTID":261693},"geometry":{"x":168790.67000000086,"y":2548223.5399999972}},{"attributes":{"ID":261698,"DIS_CODE":0,"TOWNNAME":"安南區","LI":"安慶里","LIN":"22鄰","STREET":"安通一街","SECT":" ","MAREA":" ","LANE":" ","ALLEY":" ","HOUSE_NO":"１８６號","E_COORD97":168790.98999999999,"N_COORD97":2548219.8900000001,"ADDRESS":"安通一街１８６號","OBJECTID":261694},"geometry":{"x":168790.99000000022,"y":2548219.8900000025}},{"attributes":{"ID":261699,"DIS_CODE":0,"TOWNNAME":"安南區","LI":"安慶里","LIN":"22鄰","STREET":"安通一街","SECT":" ","MAREA":" ","LANE":" ","ALLEY":" ","HOUSE_NO":"１８２號","E_COORD97":168790.67000000001,"N_COORD97":2548216.4700000002,"ADDRESS":"安通一街１８２號","OBJECTID":261695},"geometry":{"x":168790.67000000086,"y":2548216.4700000025}},{"attributes":{"ID":261700,"DIS_CODE":0,"TOWNNAME":"安南區","LI":"安慶里","LIN":"22鄰","STREET":"安通一街","SECT":" ","MAREA":" ","LANE":" ","ALLEY":" ","HOUSE_NO":"１８０號","E_COORD97":168790.67000000001,"N_COORD97":2548213.6200000001,"ADDRESS":"安通一街１８０號","OBJECTID":261696},"geometry":{"x":168790.67000000086,"y":2548213.620000001}},{"attributes":{"ID":261701,"DIS_CODE":0,"TOWNNAME":"安南區","LI":"安慶里","LIN":"22鄰","STREET":"安通一街","SECT":" ","MAREA":" ","LANE":" ","ALLEY":" ","HOUSE_NO":"１７６號","E_COORD97":168791.78,"N_COORD97":2548199.9700000002,"ADDRESS":"安通一街１７６號","OBJECTID":261697},"geometry":{"x":168791.78000000119,"y":2548199.9700000025}},{"attributes":{"ID":261702,"DIS_CODE":0,"TOWNNAME":"安南區","LI":"安慶里","LIN":"22鄰","STREET":"安通一街","SECT":" ","MAREA":" ","LANE":" ","ALLEY":" ","HOUSE_NO":"１７２號","E_COORD97":168792.26000000001,"N_COORD97":2548196,"ADDRESS":"安通一街１７２號","OBJECTID":261698},"geometry":{"x":168792.25999999978,"y":2548196.0000000019}},{"attributes":{"ID":261703,"DIS_CODE":0,"TOWNNAME":"白河區","LI":"白河里","LIN":" ","STREET":"中山路","SECT":" ","MAREA":" ","LANE":" ","ALLEY":" ","HOUSE_NO":"１２４號","E_COORD97":190310.37,"N_COORD97":2583243.7200000002,"ADDRESS":"中山路１２４號","OBJECTID":261699},"geometry":{"x":190310.37000000011,"y":2583243.7200000025}},{"attributes":{"ID":261704,"DIS_CODE":0,"TOWNNAME":"白河區","LI":"永安里","LIN":" ","STREET":"中山路","SECT":" ","MAREA":" ","LANE":" ","ALLEY":" ","HOUSE_NO":"１２７號","E_COORD97":190346.94,"N_COORD97":2583359.2200000002,"ADDRESS":"中山路１２７號","OBJECTID":261700},"geometry":{"x":190346.94000000134,"y":2583359.2200000025}},{"attributes":{"ID":261705,"DIS_CODE":0,"TOWNNAME":"白河區","LI":"永安里","LIN":" ","STREET":"中山路","SECT":" ","MAREA":" ","LANE":" ","ALLEY":" ","HOUSE_NO":"１３１號","E_COORD97":190351.04999999999,"N_COORD97":2583365.6699999999,"ADDRESS":"中山路１３１號","OBJECTID":261701},"geometry":{"x":190351.05000000075,"y":2583365.6700000018}},{"attributes":{"ID":261706,"DIS_CODE":0,"TOWNNAME":"白河區","LI":"永安里","LIN":" ","STREET":"中山路","SECT":" ","MAREA":" ","LANE":" ","ALLEY":" ","HOUSE_NO":"１４１號","E_COORD97":190383.98999999999,"N_COORD97":2583404.4100000001,"ADDRESS":"中山路１４１號","OBJECTID":261702},"geometry":{"x":190383.99000000115,"y":2583404.4100000039}},{"attributes":{"ID":261707,"DIS_CODE":0,"TOWNNAME":"白河區","LI":"永安里","LIN":" ","STREET":"中山路","SECT":" ","MAREA":" ","LANE":" ","ALLEY":" ","HOUSE_NO":"１４７號","E_COORD97":190394.20000000001,"N_COORD97":2583424.8399999999,"ADDRESS":"中山路１４７號","OBJECTID":261703},"geometry":{"x":190394.20000000112,"y":2583424.8400000036}},{"attributes":{"ID":261708,"DIS_CODE":0,"TOWNNAME":"白河區","LI":"白河里","LIN":" ","STREET":"中山路","SECT":" ","MAREA":" ","LANE":" ","ALLEY":" ","HOUSE_NO":"１５０號","E_COORD97":190379.57999999999,"N_COORD97":2583359.6400000001,"ADDRESS":"中山路１５０號","OBJECTID":261704},"geometry":{"x":190379.58000000101,"y":2583359.6400000025}},{"attributes":{"ID":261709,"DIS_CODE":0,"TOWNNAME":"新營區","LI":"新南里","LIN":"5鄰","STREET":"新北三街","SECT":" ","MAREA":" ","LANE":" ","ALLEY":" ","HOUSE_NO":"８６號","E_COORD97":178551.837061,"N_COORD97":2578806.1695300001,"ADDRESS":"新北三街８６號","OBJECTID":261705},"geometry":{"x":178551.83706099913,"y":2578806.1695300005}},{"attributes":{"ID":261710,"DIS_CODE":0,"TOWNNAME":"仁德區","LI":"太子里","LIN":"27鄰","STREET":"太子五街","SECT":" ","MAREA":" ","LANE":" ","ALLEY":" ","HOUSE_NO":"２０號","E_COORD97":173057.79332500001,"N_COORD97":2543229.6167000001,"ADDRESS":"太子五街２０號","OBJECTID":261706},"geometry":{"x":173057.79332500137,"y":2543229.6166980006}},{"attributes":{"ID":261711,"DIS_CODE":0,"TOWNNAME":"新營區","LI":"新南里","LIN":"5鄰","STREET":"新北三街","SECT":" ","MAREA":" ","LANE":" ","ALLEY":" ","HOUSE_NO":"９６號","E_COORD97":178572.38963699999,"N_COORD97":2578824.1611899999,"ADDRESS":"新北三街９６號","OBJECTID":261707},"geometry":{"x":178572.38963700179,"y":2578824.1611869987}},{"attributes":{"ID":261712,"DIS_CODE":0,"TOWNNAME":"仁德區","LI":"太子里","LIN":"28鄰","STREET":"太子五街","SECT":" ","MAREA":" ","LANE":" ","ALLEY":" ","HOUSE_NO":"１２號","E_COORD97":173089.63858999999,"N_COORD97":2543278.5513800001,"ADDRESS":"太子五街１２號","OBJECTID":261708},"geometry":{"x":173089.63858999964,"y":2543278.5513800029}},{"attributes":{"ID":261713,"DIS_CODE":0,"TOWNNAME":"仁德區","LI":"太子里","LIN":"28鄰","STREET":"太子五街","SECT":" ","MAREA":" ","LANE":" ","ALLEY":" ","HOUSE_NO":"１８號","E_COORD97":173073.12038000001,"N_COORD97":2543236.8530700002,"ADDRESS":"太子五街１８號","OBJECTID":261709},"geometry":{"x":173073.12038000114,"y":2543236.853070002}},{"attributes":{"ID":261714,"DIS_CODE":0,"TOWNNAME":"歸仁區","LI":"歸仁里","LIN":"6鄰","STREET":"和平五街","SECT":" ","MAREA":" ","LANE":" ","ALLEY":" ","HOUSE_NO":"３７號","E_COORD97":177745.92459800001,"N_COORD97":2540842.3102600002,"ADDRESS":"和平五街３７號","OBJECTID":261710},"geometry":{"x":177745.92459800094,"y":2540842.310258003}},{"attributes":{"ID":261715,"DIS_CODE":0,"TOWNNAME":"永康區","LI":"二王里","LIN":"8鄰","STREET":"中山南路","SECT":" ","MAREA":" ","LANE":" ","ALLEY":" ","HOUSE_NO":"８９２之１號","E_COORD97":173003.46822400001,"N_COORD97":2546866.8456799998,"ADDRESS":"中山南路８９２之１號","OBJECTID":261711},"geometry":{"x":173003.46822400019,"y":2546866.8456770014}},{"attributes":{"ID":261716,"DIS_CODE":0,"TOWNNAME":"白河區","LI":"白河里","LIN":" ","STREET":"中山路","SECT":" ","MAREA":" ","LANE":" ","ALLEY":" ","HOUSE_NO":"１５２之２號","E_COORD97":190407.38,"N_COORD97":2583401.3100000001,"ADDRESS":"中山路１５２之２號","OBJECTID":261712},"geometry":{"x":190407.38000000175,"y":2583401.3100000005}},{"attributes":{"ID":261717,"DIS_CODE":0,"TOWNNAME":"安平區","LI":"億載里","LIN":"4鄰","STREET":"安億路","SECT":" ","MAREA":" ","LANE":" ","ALLEY":" ","HOUSE_NO":"１３３號","E_COORD97":163557.51000000001,"N_COORD97":2543555.54,"ADDRESS":"安億路１３３號","OBJECTID":261713},"geometry":{"x":163557.50999999978,"y":2543555.540000001}},{"attributes":{"ID":261718,"DIS_CODE":0,"TOWNNAME":"安平區","LI":"億載里","LIN":"4鄰","STREET":"安億路","SECT":" ","MAREA":" ","LANE":" ","ALLEY":" ","HOUSE_NO":"１３４號","E_COORD97":163593.60999999999,"N_COORD97":2543652.1800000002,"ADDRESS":"安億路１３４號","OBJECTID":261714},"geometry":{"x":163593.6100000022,"y":2543652.1799999997}},{"attributes":{"ID":261719,"DIS_CODE":0,"TOWNNAME":"安平區","LI":"億載里","LIN":"4鄰","STREET":"安億路","SECT":" ","MAREA":" ","LANE":" ","ALLEY":" ","HOUSE_NO":"１３５號","E_COORD97":163553.17999999999,"N_COORD97":2543574.6400000001,"ADDRESS":"安億路１３５號","OBJECTID":261715},"geometry":{"x":163553.1799999997,"y":2543574.6400000025}},{"attributes":{"ID":261720,"DIS_CODE":0,"TOWNNAME":"安平區","LI":"億載里","LIN":"4鄰","STREET":"安億路","SECT":" ","MAREA":" ","LANE":" ","ALLEY":" ","HOUSE_NO":"１３６號","E_COORD97":163593.23999999999,"N_COORD97":2543656.02,"ADDRESS":"安億路１３６號","OBJECTID":261716},"geometry":{"x":163593.24000000115,"y":2543656.0199999996}},{"attributes":{"ID":261721,"DIS_CODE":0,"TOWNNAME":"白河區","LI":"永安里","LIN":" ","STREET":"中山路","SECT":" ","MAREA":" ","LANE":" ","ALLEY":" ","HOUSE_NO":"１５５號","E_COORD97":190402.67999999999,"N_COORD97":2583437.77,"ADDRESS":"中山路１５５號","OBJECTID":261717},"geometry":{"x":190402.6799999997,"y":2583437.7699999996}},{"attributes":{"ID":261722,"DIS_CODE":0,"TOWNNAME":"安平區","LI":"億載里","LIN":"4鄰","STREET":"安億路","SECT":" ","MAREA":" ","LANE":" ","ALLEY":" ","HOUSE_NO":"１３７號","E_COORD97":163554.98000000001,"N_COORD97":2543600.5800000001,"ADDRESS":"安億路１３７號","OBJECTID":261718},"geometry":{"x":163554.98000000045,"y":2543600.5800000019}},{"attributes":{"ID":261723,"DIS_CODE":0,"TOWNNAME":"安平區","LI":"億載里","LIN":"4鄰","STREET":"安億路","SECT":" ","MAREA":" ","LANE":" ","ALLEY":" ","HOUSE_NO":"１３８號","E_COORD97":163592.48000000001,"N_COORD97":2543660.75,"ADDRESS":"安億路１３８號","OBJECTID":261719},"geometry":{"x":163592.48000000045,"y":2543660.7500000019}},{"attributes":{"ID":261724,"DIS_CODE":0,"TOWNNAME":"安平區","LI":"億載里","LIN":"4鄰","STREET":"安億路","SECT":" ","MAREA":" ","LANE":" ","ALLEY":" ","HOUSE_NO":"１４０號","E_COORD97":163592.12,"N_COORD97":2543664.71,"ADDRESS":"安億路１４０號","OBJECTID":261720},"geometry":{"x":163592.12000000104,"y":2543664.7100000028}},{"attributes":{"ID":261725,"DIS_CODE":0,"TOWNNAME":"歸仁區","LI":"七甲里","LIN":"10鄰","STREET":"七甲一街","SECT":" ","MAREA":" ","LANE":" ","ALLEY":" ","HOUSE_NO":"１８０號","E_COORD97":144657.06151599999,"N_COORD97":2558795.7019400001,"ADDRESS":"七甲一街１８０號","OBJECTID":261721},"geometry":{"x":144657.06151600089,"y":2558795.7019389998}},{"attributes":{"ID":261726,"DIS_CODE":0,"TOWNNAME":"新營區","LI":"新東里","LIN":"27鄰","STREET":"東光街","SECT":" ","MAREA":" ","LANE":" ","ALLEY":" ","HOUSE_NO":"２７號","E_COORD97":180607.16754600001,"N_COORD97":2579601.3727199999,"ADDRESS":"東光街２７號","OBJECTID":261722},"geometry":{"x":180607.16754600126,"y":2579601.3727170005}},{"attributes":{"ID":261727,"DIS_CODE":0,"TOWNNAME":"新營區","LI":"大宏里","LIN":"15鄰","STREET":"大同路","SECT":" ","MAREA":" ","LANE":" ","ALLEY":" ","HOUSE_NO":"４１號之４","E_COORD97":180660.23000000001,"N_COORD97":2578816.6299999999,"ADDRESS":"大同路４１號之４","OBJECTID":261723},"geometry":{"x":180660.23000000138,"y":2578816.629999999}},{"attributes":{"ID":261728,"DIS_CODE":0,"TOWNNAME":"新營區","LI":"大宏里","LIN":"15鄰","STREET":"大同路","SECT":" ","MAREA":" ","LANE":" ","ALLEY":" ","HOUSE_NO":"４３號之１１","E_COORD97":180698.37,"N_COORD97":2578831.9700000002,"ADDRESS":"大同路４３號之１１","OBJECTID":261724},"geometry":{"x":180698.37000000104,"y":2578831.9700000025}},{"attributes":{"ID":261729,"DIS_CODE":0,"TOWNNAME":"新營區","LI":"大宏里","LIN":"15鄰","STREET":"大同路","SECT":" ","MAREA":" ","LANE":" ","ALLEY":" ","HOUSE_NO":"４１號之５","E_COORD97":180660.25,"N_COORD97":2578821.0600000001,"ADDRESS":"大同路４１號之５","OBJECTID":261725},"geometry":{"x":180660.25,"y":2578821.0600000024}},{"attributes":{"ID":261730,"DIS_CODE":0,"TOWNNAME":"佳里區","LI":"建南里","LIN":"7鄰","STREET":"建南街","SECT":" ","MAREA":" ","LANE":" ","ALLEY":" ","HOUSE_NO":"１７５號","E_COORD97":165707.532052,"N_COORD97":2562180.2004999998,"ADDRESS":"建南街１７５號","OBJECTID":261726},"geometry":{"x":165707.53205200005,"y":2562180.2005020045}},{"attributes":{"ID":261731,"DIS_CODE":0,"TOWNNAME":"永康區","LI":"復華里","LIN":"22鄰","STREET":"復華七街","SECT":" ","MAREA":" ","LANE":" ","ALLEY":" ","HOUSE_NO":"１２５號","E_COORD97":172857.01066599999,"N_COORD97":2546196.25232,"ADDRESS":"復華七街１２５號","OBJECTID":261727},"geometry":{"x":172857.01066600066,"y":2546196.2523190025}},{"attributes":{"ID":261732,"DIS_CODE":0,"TOWNNAME":"安南區","LI":"原佃里","LIN":"10鄰","STREET":"安吉路","SECT":"二段","MAREA":" ","LANE":" ","ALLEY":" ","HOUSE_NO":"１３６號","E_COORD97":167114.93702099999,"N_COORD97":2550945.9386700001,"ADDRESS":"安吉路二段１３６號","OBJECTID":261728},"geometry":{"x":167114.93702100031,"y":2550945.9386749975}},{"attributes":{"ID":261733,"DIS_CODE":0,"TOWNNAME":"歸仁區","LI":"南興里","LIN":"22鄰","STREET":"南興街","SECT":" ","MAREA":" ","LANE":" ","ALLEY":" ","HOUSE_NO":"３１０號四樓之１","E_COORD97":175530.292101,"N_COORD97":2541261.1593300002,"ADDRESS":"南興街３１０號四樓之１","OBJECTID":261729},"geometry":{"x":175530.29210100044,"y":2541261.1593319997}},{"attributes":{"ID":261734,"DIS_CODE":0,"TOWNNAME":"歸仁區","LI":"歸仁里","LIN":"6鄰","STREET":"和平五街","SECT":" ","MAREA":" ","LANE":" ","ALLEY":" ","HOUSE_NO":"３９號","E_COORD97":177747.40766999999,"N_COORD97":2540850.56525,"ADDRESS":"和平五街３９號","OBJECTID":261730},"geometry":{"x":177747.40767000057,"y":2540850.5652530026}},{"attributes":{"ID":261735,"DIS_CODE":0,"TOWNNAME":"永康區","LI":"六合里","LIN":"3鄰","STREET":"中山南路","SECT":" ","MAREA":" ","LANE":" ","ALLEY":" ","HOUSE_NO":"７２之１號","E_COORD97":170930.80744599999,"N_COORD97":2545891.06287,"ADDRESS":"中山南路７２之１號","OBJECTID":261731},"geometry":{"x":170930.80744600203,"y":2545891.0628699996}},{"attributes":{"ID":261736,"DIS_CODE":0,"TOWNNAME":"永康區","LI":"六合里","LIN":"3鄰","STREET":"中山南路","SECT":" ","MAREA":" ","LANE":" ","ALLEY":" ","HOUSE_NO":"７２號","E_COORD97":170927.631116,"N_COORD97":2545895.0845300001,"ADDRESS":"中山南路７２號","OBJECTID":261732},"geometry":{"x":170927.63111600094,"y":2545895.084534999}},{"attributes":{"ID":261737,"DIS_CODE":0,"TOWNNAME":"歸仁區","LI":"歸仁里","LIN":"3鄰","STREET":"中正北路","SECT":"一段","MAREA":" ","LANE":" ","ALLEY":" ","HOUSE_NO":"３０號","E_COORD97":177677.067687,"N_COORD97":2540922.1614600001,"ADDRESS":"中正北路一段３０號","OBJECTID":261733},"geometry":{"x":177677.06768700015,"y":2540922.1614650004}},{"attributes":{"ID":261738,"DIS_CODE":0,"TOWNNAME":"永康區","LI":"六合里","LIN":"3鄰","STREET":"中山南路","SECT":" ","MAREA":" ","LANE":" ","ALLEY":" ","HOUSE_NO":"７２之２號","E_COORD97":170932.92499900001,"N_COORD97":2545886.8295399998,"ADDRESS":"中山南路７２之２號","OBJECTID":261734},"geometry":{"x":170932.92499899957,"y":2545886.829539001}},{"attributes":{"ID":261739,"DIS_CODE":0,"TOWNNAME":"永康區","LI":"六合里","LIN":"3鄰","STREET":"中山南路","SECT":" ","MAREA":" ","LANE":" ","ALLEY":" ","HOUSE_NO":"７２之３號","E_COORD97":170935.67781699999,"N_COORD97":2545882.8078700001,"ADDRESS":"中山南路７２之３號","OBJECTID":261735},"geometry":{"x":170935.67781700101,"y":2545882.8078749999}},{"attributes":{"ID":261740,"DIS_CODE":0,"TOWNNAME":"佳里區","LI":"鎮山里","LIN":"2鄰","STREET":"自由街","SECT":" ","MAREA":" ","LANE":" ","ALLEY":" ","HOUSE_NO":"９８號","E_COORD97":165869.12807000001,"N_COORD97":2561795.7387799998,"ADDRESS":"自由街９８號","OBJECTID":261736},"geometry":{"x":165869.12806999963,"y":2561795.7387840021}},{"attributes":{"ID":261741,"DIS_CODE":0,"TOWNNAME":"安南區","LI":"安西里","LIN":"12鄰","STREET":"安通路","SECT":"四段","MAREA":" ","LANE":" ","ALLEY":" ","HOUSE_NO":"１０６號","E_COORD97":168787.70654499999,"N_COORD97":2547755.3135799998,"ADDRESS":"安通路四段１０６號","OBJECTID":261737},"geometry":{"x":168787.7065450009,"y":2547755.3135780022}},{"attributes":{"ID":261742,"DIS_CODE":0,"TOWNNAME":"佳里區","LI":"建南里","LIN":"4鄰","STREET":"中和街","SECT":" ","MAREA":" ","LANE":" ","ALLEY":" ","HOUSE_NO":"９５號","E_COORD97":165581.126735,"N_COORD97":2562336.4226099998,"ADDRESS":"中和街９５號","OBJECTID":261738},"geometry":{"x":165581.12673500087,"y":2562336.4226130005}},{"attributes":{"ID":261743,"DIS_CODE":0,"TOWNNAME":"歸仁區","LI":"歸仁里","LIN":"22鄰","STREET":"文化二街","SECT":" ","MAREA":" ","LANE":" ","ALLEY":" ","HOUSE_NO":"２６號","E_COORD97":178058.90599500001,"N_COORD97":2541209.2622600002,"ADDRESS":"文化二街２６號","OBJECTID":261739},"geometry":{"x":178058.90599500109,"y":2541209.2622560002}},{"attributes":{"ID":261744,"DIS_CODE":0,"TOWNNAME":"歸仁區","LI":"歸仁里","LIN":"22鄰","STREET":"文化二街","SECT":" ","MAREA":" ","LANE":" ","ALLEY":" ","HOUSE_NO":"３０號","E_COORD97":178069.51836399999,"N_COORD97":2541214.9624200002,"ADDRESS":"文化二街３０號","OBJECTID":261740},"geometry":{"x":178069.518364002,"y":2541214.962421}},{"attributes":{"ID":261745,"DIS_CODE":0,"TOWNNAME":"佳里區","LI":"建南里","LIN":"9鄰","STREET":"新生路","SECT":" ","MAREA":" ","LANE":" ","ALLEY":" ","HOUSE_NO":"３１９號","E_COORD97":165547.99588599999,"N_COORD97":2562229.5981800002,"ADDRESS":"新生路３１９號","OBJECTID":261741},"geometry":{"x":165547.99588599987,"y":2562229.5981840026}},{"attributes":{"ID":261746,"DIS_CODE":0,"TOWNNAME":"新市區","LI":"港墘里","LIN":"4鄰","STREET":"三民街","SECT":" ","MAREA":" ","LANE":" ","ALLEY":" ","HOUSE_NO":"１０６號","E_COORD97":178349.48123100001,"N_COORD97":2553490.1873699999,"ADDRESS":"三民街１０６號","OBJECTID":261742},"geometry":{"x":178349.48123100214,"y":2553490.1873669997}},{"attributes":{"ID":261747,"DIS_CODE":0,"TOWNNAME":"新市區","LI":"港墘里","LIN":"2鄰","STREET":"中山路","SECT":" ","MAREA":" ","LANE":" ","ALLEY":" ","HOUSE_NO":"１５之５號","E_COORD97":178764.158964,"N_COORD97":2553602.68829,"ADDRESS":"中山路１５之５號","OBJECTID":261743},"geometry":{"x":178764.15896399971,"y":2553602.6882900018}},{"attributes":{"ID":261748,"DIS_CODE":0,"TOWNNAME":"下營區","LI":"新興里","LIN":"17鄰","STREET":"中興南路","SECT":" ","MAREA":" ","LANE":" ","ALLEY":" ","HOUSE_NO":"２８號","E_COORD97":175696.95688300001,"N_COORD97":2570981.1888299999,"ADDRESS":"中興南路２８號","OBJECTID":261744},"geometry":{"x":175696.95688300207,"y":2570981.1888270006}},{"attributes":{"ID":261749,"DIS_CODE":0,"TOWNNAME":"歸仁區","LI":"看西里","LIN":"2鄰","STREET":"仁愛三街","SECT":" ","MAREA":" ","LANE":" ","ALLEY":" ","HOUSE_NO":"４０號","E_COORD97":178361.398698,"N_COORD97":2540397.1356600001,"ADDRESS":"仁愛三街４０號","OBJECTID":261745},"geometry":{"x":178361.39869800024,"y":2540397.1356600001}},{"attributes":{"ID":261750,"DIS_CODE":0,"TOWNNAME":"白河區","LI":"永安里","LIN":" ","STREET":"中山路","SECT":" ","MAREA":" ","LANE":" ","ALLEY":" ","HOUSE_NO":"１５７號","E_COORD97":190407.57000000001,"N_COORD97":2583446.3100000001,"ADDRESS":"中山路１５７號","OBJECTID":261746},"geometry":{"x":190407.5700000003,"y":2583446.3100000024}},{"attributes":{"ID":261751,"DIS_CODE":0,"TOWNNAME":"白河區","LI":"白河里","LIN":" ","STREET":"中山路","SECT":" ","MAREA":" ","LANE":" ","ALLEY":" ","HOUSE_NO":"１６２號","E_COORD97":190416.10999999999,"N_COORD97":2583415.0099999998,"ADDRESS":"中山路１６２號","OBJECTID":261747},"geometry":{"x":190416.11000000034,"y":2583415.0100000016}},{"attributes":{"ID":261752,"DIS_CODE":0,"TOWNNAME":"白河區","LI":"白河里","LIN":" ","STREET":"中山路","SECT":" ","MAREA":" ","LANE":" ","ALLEY":" ","HOUSE_NO":"１６８之１號","E_COORD97":190430.03,"N_COORD97":2583434.79,"ADDRESS":"中山路１６８之１號","OBJECTID":261748},"geometry":{"x":190430.03000000026,"y":2583434.790000001}},{"attributes":{"ID":261753,"DIS_CODE":0,"TOWNNAME":"白河區","LI":"永安里","LIN":" ","STREET":"中山路","SECT":" ","MAREA":" ","LANE":" ","ALLEY":" ","HOUSE_NO":"１９１號","E_COORD97":190472.79999999999,"N_COORD97":2583540.3300000001,"ADDRESS":"中山路１９１號","OBJECTID":261749},"geometry":{"x":190472.80000000075,"y":2583540.3300000038}},{"attributes":{"ID":261754,"DIS_CODE":0,"TOWNNAME":"新營區","LI":"大宏里","LIN":"19鄰","STREET":"三民路","SECT":" ","MAREA":" ","LANE":" ","ALLEY":" ","HOUSE_NO":"３６號之１５","E_COORD97":180389.98000000001,"N_COORD97":2578501.1699999999,"ADDRESS":"三民路３６號之１５","OBJECTID":261750},"geometry":{"x":180389.98000000045,"y":2578501.1700000018}},{"attributes":{"ID":261755,"DIS_CODE":0,"TOWNNAME":"新營區","LI":"南興里","LIN":"1鄰","STREET":"延平路","SECT":" ","MAREA":" ","LANE":" ","ALLEY":" ","HOUSE_NO":"１１４號之２","E_COORD97":179715.84,"N_COORD97":2577640.5499999998,"ADDRESS":"延平路１１４號之２","OBJECTID":261751},"geometry":{"x":179715.83999999985,"y":2577640.5500000045}},{"attributes":{"ID":261756,"DIS_CODE":0,"TOWNNAME":"新營區","LI":"大宏里","LIN":"18鄰","STREET":"民族路","SECT":" ","MAREA":" ","LANE":" ","ALLEY":" ","HOUSE_NO":"１８號之３","E_COORD97":180303.04000000001,"N_COORD97":2578568.0299999998,"ADDRESS":"民族路１８號之３","OBJECTID":261752},"geometry":{"x":180303.03999999911,"y":2578568.0300000031}},{"attributes":{"ID":261757,"DIS_CODE":0,"TOWNNAME":"新營區","LI":"大宏里","LIN":"18鄰","STREET":"民族路","SECT":" ","MAREA":" ","LANE":" ","ALLEY":" ","HOUSE_NO":"１８號之５","E_COORD97":180303.07999999999,"N_COORD97":2578576.8799999999,"ADDRESS":"民族路１８號之５","OBJECTID":261753},"geometry":{"x":180303.08000000101,"y":2578576.8800000008}},{"attributes":{"ID":261758,"DIS_CODE":0,"TOWNNAME":"中西區","LI":"大涼里","LIN":"2鄰","STREET":"金華新路","SECT":" ","MAREA":" ","LANE":" ","ALLEY":" ","HOUSE_NO":"４３號","E_COORD97":167243.964183,"N_COORD97":2543764.0719699999,"ADDRESS":"金華新路４３號","OBJECTID":261754},"geometry":{"x":167243.96418299992,"y":2543764.0719690043}},{"attributes":{"ID":261759,"DIS_CODE":0,"TOWNNAME":"新營區","LI":"大宏里","LIN":"26鄰","STREET":"民族路","SECT":" ","MAREA":" ","LANE":" ","ALLEY":" ","HOUSE_NO":"５之５號","E_COORD97":180290.123422,"N_COORD97":2578364.4473199998,"ADDRESS":"民族路５之５號","OBJECTID":261755},"geometry":{"x":180290.12342199963,"y":2578364.4473150019}},{"attributes":{"ID":261760,"DIS_CODE":0,"TOWNNAME":"歸仁區","LI":"看東里","LIN":"10鄰","STREET":"成功路","SECT":"一段","MAREA":" ","LANE":" ","ALLEY":" ","HOUSE_NO":"１４８號","E_COORD97":178623.84315900001,"N_COORD97":2540233.52648,"ADDRESS":"成功路一段１４８號","OBJECTID":261756},"geometry":{"x":178623.84315900039,"y":2540233.5264809988}},{"attributes":{"ID":261761,"DIS_CODE":0,"TOWNNAME":"歸仁區","LI":"看東里","LIN":"10鄰","STREET":"成功路","SECT":"一段","MAREA":" ","LANE":" ","ALLEY":" ","HOUSE_NO":"１４０號","E_COORD97":178636.770196,"N_COORD97":2540241.1464800001,"ADDRESS":"成功路一段１４０號","OBJECTID":261757},"geometry":{"x":178636.77019600105,"y":2540241.1464770008}},{"attributes":{"ID":261762,"DIS_CODE":0,"TOWNNAME":"歸仁區","LI":"看東里","LIN":"11鄰","STREET":"中山一街","SECT":" ","MAREA":" ","LANE":" ","ALLEY":" ","HOUSE_NO":"１１６號","E_COORD97":178653.08793000001,"N_COORD97":2540346.9797499999,"ADDRESS":"中山一街１１６號","OBJECTID":261758},"geometry":{"x":178653.08793000039,"y":2540346.9797530007}},{"attributes":{"ID":261763,"DIS_CODE":0,"TOWNNAME":"歸仁區","LI":"大廟里","LIN":"6鄰","STREET":"和順路","SECT":"二段","MAREA":" ","LANE":" ","ALLEY":" ","HOUSE_NO":"２８８號","E_COORD97":175743.782152,"N_COORD97":2543603.3742300002,"ADDRESS":"和順路二段２８８號","OBJECTID":261759},"geometry":{"x":175743.78215200081,"y":2543603.3742319997}},{"attributes":{"ID":261764,"DIS_CODE":0,"TOWNNAME":"西港區","LI":"南海里","LIN":"22鄰","STREET":" ","SECT":" ","MAREA":"中港","LANE":" ","ALLEY":" ","HOUSE_NO":"４８號之２","E_COORD97":167692.72,"N_COORD97":2555093.4399999999,"ADDRESS":"中港４８號之２","OBJECTID":261760},"geometry":{"x":167692.71999999881,"y":2555093.4399999976}},{"attributes":{"ID":261765,"DIS_CODE":0,"TOWNNAME":"西港區","LI":"南海里","LIN":"22鄰","STREET":" ","SECT":" ","MAREA":"中港","LANE":" ","ALLEY":" ","HOUSE_NO":"４８號之３","E_COORD97":168268.95999999999,"N_COORD97":2555599.0299999998,"ADDRESS":"中港４８號之３","OBJECTID":261761},"geometry":{"x":168268.95999999996,"y":2555599.0300000012}},{"attributes":{"ID":261766,"DIS_CODE":0,"TOWNNAME":"西港區","LI":"南海里","LIN":"22鄰","STREET":" ","SECT":" ","MAREA":"中港","LANE":" ","ALLEY":" ","HOUSE_NO":"４８號之６","E_COORD97":167731.29000000001,"N_COORD97":2555080.2999999998,"ADDRESS":"中港４８號之６","OBJECTID":261762},"geometry":{"x":167731.29000000004,"y":2555080.3000000026}},{"attributes":{"ID":261767,"DIS_CODE":0,"TOWNNAME":"西港區","LI":"南海里","LIN":"22鄰","STREET":" ","SECT":" ","MAREA":"中港","LANE":" ","ALLEY":" ","HOUSE_NO":"４８號之８","E_COORD97":167736.85000000001,"N_COORD97":2555175.4900000002,"ADDRESS":"中港４８號之８","OBJECTID":261763},"geometry":{"x":167736.84999999963,"y":2555175.4900000039}},{"attributes":{"ID":261768,"DIS_CODE":0,"TOWNNAME":"西港區","LI":"南海里","LIN":"22鄰","STREET":" ","SECT":" ","MAREA":"中港","LANE":" ","ALLEY":" ","HOUSE_NO":"４８號","E_COORD97":167656.06,"N_COORD97":2555095.4700000002,"ADDRESS":"中港４８號","OBJECTID":261764},"geometry":{"x":167656.05999999959,"y":2555095.4700000025}},{"attributes":{"ID":261769,"DIS_CODE":0,"TOWNNAME":"西港區","LI":"南海里","LIN":"22鄰","STREET":" ","SECT":" ","MAREA":"中港","LANE":" ","ALLEY":" ","HOUSE_NO":"４９號","E_COORD97":167617.53,"N_COORD97":2555094.3199999998,"ADDRESS":"中港４９號","OBJECTID":261765},"geometry":{"x":167617.53000000026,"y":2555094.3200000003}},{"attributes":{"ID":261770,"DIS_CODE":0,"TOWNNAME":"西港區","LI":"南海里","LIN":"22鄰","STREET":" ","SECT":" ","MAREA":"中港","LANE":" ","ALLEY":" ","HOUSE_NO":"５１號之１","E_COORD97":167212.62,"N_COORD97":2554753.7400000002,"ADDRESS":"中港５１號之１","OBJECTID":261766},"geometry":{"x":167212.62000000104,"y":2554753.7400000021}},{"attributes":{"ID":261771,"DIS_CODE":0,"TOWNNAME":"西港區","LI":"南海里","LIN":"22鄰","STREET":" ","SECT":" ","MAREA":"中港","LANE":" ","ALLEY":" ","HOUSE_NO":"５１號之２","E_COORD97":167196.70999999999,"N_COORD97":2554886.6299999999,"ADDRESS":"中港５１號之２","OBJECTID":261767},"geometry":{"x":167196.71000000089,"y":2554886.6300000008}},{"attributes":{"ID":261772,"DIS_CODE":0,"TOWNNAME":"歸仁區","LI":"大廟里","LIN":"6鄰","STREET":"和順路","SECT":"二段","MAREA":" ","LANE":" ","ALLEY":" ","HOUSE_NO":"２９８號","E_COORD97":175729.59051400001,"N_COORD97":2543600.94007,"ADDRESS":"和順路二段２９８號","OBJECTID":261768},"geometry":{"x":175729.59051399957,"y":2543600.9400670007}},{"attributes":{"ID":261773,"DIS_CODE":0,"TOWNNAME":"安南區","LI":"溪心里","LIN":"17鄰","STREET":"海佃路","SECT":"三段","MAREA":" ","LANE":" ","ALLEY":" ","HOUSE_NO":"２５２號","E_COORD97":165960.503004,"N_COORD97":2550292.1420800001,"ADDRESS":"海佃路三段２５２號","OBJECTID":261769},"geometry":{"x":165960.50300400052,"y":2550292.1420769989}},{"attributes":{"ID":261774,"DIS_CODE":0,"TOWNNAME":"新營區","LI":"王公里","LIN":"33鄰","STREET":"民族路","SECT":" ","MAREA":" ","LANE":" ","ALLEY":" ","HOUSE_NO":"２７號","E_COORD97":180474.699765,"N_COORD97":2579766.1964799999,"ADDRESS":"民族路２７號","OBJECTID":261770},"geometry":{"x":180474.69976499956,"y":2579766.1964780018}},{"attributes":{"ID":261775,"DIS_CODE":0,"TOWNNAME":"關廟區","LI":"五甲里","LIN":"1鄰","STREET":"旺萊路","SECT":" ","MAREA":" ","LANE":" ","ALLEY":" ","HOUSE_NO":"２１９號","E_COORD97":181951.626716,"N_COORD97":2538629.1569599998,"ADDRESS":"旺萊路２１９號","OBJECTID":261771},"geometry":{"x":181951.62671600003,"y":2538629.1569620017}},{"attributes":{"ID":261776,"DIS_CODE":0,"TOWNNAME":"新營區","LI":"三仙里","LIN":"6鄰","STREET":"博愛街","SECT":" ","MAREA":" ","LANE":" ","ALLEY":" ","HOUSE_NO":"１６３號","E_COORD97":179569.60122700001,"N_COORD97":2578108.95144,"ADDRESS":"博愛街１６３號","OBJECTID":261772},"geometry":{"x":179569.60122700222,"y":2578108.9514399972}},{"attributes":{"ID":261777,"DIS_CODE":0,"TOWNNAME":"新營區","LI":"姑爺里","LIN":"4鄰","STREET":" ","SECT":" ","MAREA":"姑爺","LANE":" ","ALLEY":" ","HOUSE_NO":"３０之３號","E_COORD97":174190.57066,"N_COORD97":2574261.0831499998,"ADDRESS":"姑爺３０之３號","OBJECTID":261773},"geometry":{"x":174190.57065999974,"y":2574261.0831500012}},{"attributes":{"ID":261778,"DIS_CODE":0,"TOWNNAME":"關廟區","LI":"五甲里","LIN":"12鄰","STREET":"東興一街","SECT":" ","MAREA":" ","LANE":" ","ALLEY":" ","HOUSE_NO":"１０號","E_COORD97":181212.37711900001,"N_COORD97":2539611.7130999998,"ADDRESS":"東興一街１０號","OBJECTID":261774},"geometry":{"x":181212.37711900007,"y":2539611.7130980026}},{"attributes":{"ID":261779,"DIS_CODE":0,"TOWNNAME":"關廟區","LI":"五甲里","LIN":"12鄰","STREET":"東興一街","SECT":" ","MAREA":" ","LANE":" ","ALLEY":" ","HOUSE_NO":"２６號","E_COORD97":181230.60402999999,"N_COORD97":2539568.5331199998,"ADDRESS":"東興一街２６號","OBJECTID":261775},"geometry":{"x":181230.60403000005,"y":2539568.533121001}},{"attributes":{"ID":261780,"DIS_CODE":0,"TOWNNAME":"新營區","LI":"三仙里","LIN":"6鄰","STREET":"復興路","SECT":" ","MAREA":" ","LANE":" ","ALLEY":" ","HOUSE_NO":"７４號","E_COORD97":179539.10972400001,"N_COORD97":2578078.6831200002,"ADDRESS":"復興路７４號","OBJECTID":261776},"geometry":{"x":179539.1097240001,"y":2578078.683123}},{"attributes":{"ID":261781,"DIS_CODE":0,"TOWNNAME":"西港區","LI":"南海里","LIN":"22鄰","STREET":" ","SECT":" ","MAREA":"中港","LANE":" ","ALLEY":" ","HOUSE_NO":"５１號之３","E_COORD97":167212.23000000001,"N_COORD97":2554709.7400000002,"ADDRESS":"中港５１號之３","OBJECTID":261777},"geometry":{"x":167212.23000000138,"y":2554709.7400000021}},{"attributes":{"ID":261782,"DIS_CODE":0,"TOWNNAME":"西港區","LI":"南海里","LIN":"22鄰","STREET":" ","SECT":" ","MAREA":"中港","LANE":" ","ALLEY":" ","HOUSE_NO":"５２號之１","E_COORD97":167238.73000000001,"N_COORD97":2554791.5899999999,"ADDRESS":"中港５２號之１","OBJECTID":261778},"geometry":{"x":167238.73000000045,"y":2554791.5900000036}},{"attributes":{"ID":261783,"DIS_CODE":0,"TOWNNAME":"西港區","LI":"南海里","LIN":"22鄰","STREET":" ","SECT":" ","MAREA":"中港","LANE":" ","ALLEY":" ","HOUSE_NO":"５２號之２","E_COORD97":167234.73999999999,"N_COORD97":2554745.4100000001,"ADDRESS":"中港５２號之２","OBJECTID":261779},"geometry":{"x":167234.74000000022,"y":2554745.4100000039}},{"attributes":{"ID":261784,"DIS_CODE":0,"TOWNNAME":"西港區","LI":"南海里","LIN":"22鄰","STREET":" ","SECT":" ","MAREA":"中港","LANE":" ","ALLEY":" ","HOUSE_NO":"５２號之３","E_COORD97":167242.56,"N_COORD97":2554771.2999999998,"ADDRESS":"中港５２號之３","OBJECTID":261780},"geometry":{"x":167242.55999999959,"y":2554771.3000000026}},{"attributes":{"ID":261785,"DIS_CODE":0,"TOWNNAME":"新營區","LI":"三仙里","LIN":"6鄰","STREET":"復興路","SECT":" ","MAREA":" ","LANE":" ","ALLEY":" ","HOUSE_NO":"７６號","E_COORD97":179553.084997,"N_COORD97":2578076.3547899998,"ADDRESS":"復興路７６號","OBJECTID":261781},"geometry":{"x":179553.08499700017,"y":2578076.3547910023}},{"attributes":{"ID":261786,"DIS_CODE":0,"TOWNNAME":"西港區","LI":"南海里","LIN":"22鄰","STREET":" ","SECT":" ","MAREA":"中港","LANE":" ","ALLEY":" ","HOUSE_NO":"５２之５號","E_COORD97":167205.01000000001,"N_COORD97":2554773,"ADDRESS":"中港５２之５號","OBJECTID":261782},"geometry":{"x":167205.01000000071,"y":2554773.0000000019}},{"attributes":{"ID":261787,"DIS_CODE":0,"TOWNNAME":"西港區","LI":"南海里","LIN":"22鄰","STREET":" ","SECT":" ","MAREA":"中港","LANE":" ","ALLEY":" ","HOUSE_NO":"５２號","E_COORD97":167225.14999999999,"N_COORD97":2554793.1499999999,"ADDRESS":"中港５２號","OBJECTID":261783},"geometry":{"x":167225.1500000013,"y":2554793.1500000022}},{"attributes":{"ID":261788,"DIS_CODE":0,"TOWNNAME":"新營區","LI":"三仙里","LIN":"6鄰","STREET":"復興路","SECT":" ","MAREA":" ","LANE":" ","ALLEY":" ","HOUSE_NO":"７８號","E_COORD97":179565.15455000001,"N_COORD97":2578081.4347899999,"ADDRESS":"復興路７８號","OBJECTID":261784},"geometry":{"x":179565.15455000103,"y":2578081.4347880017}},{"attributes":{"ID":261789,"DIS_CODE":0,"TOWNNAME":"西港區","LI":"南海里","LIN":"22鄰","STREET":" ","SECT":" ","MAREA":"中港","LANE":" ","ALLEY":" ","HOUSE_NO":"５５之１號","E_COORD97":167237.85000000001,"N_COORD97":2554837.3599999999,"ADDRESS":"中港５５之１號","OBJECTID":261785},"geometry":{"x":167237.85000000056,"y":2554837.3600000013}},{"attributes":{"ID":261790,"DIS_CODE":0,"TOWNNAME":"關廟區","LI":"五甲里","LIN":"9鄰","STREET":"南雄路","SECT":"一段","MAREA":" ","LANE":" ","ALLEY":" ","HOUSE_NO":"５０６號","E_COORD97":181704.50371399999,"N_COORD97":2538209.5280200001,"ADDRESS":"南雄路一段５０６號","OBJECTID":261786},"geometry":{"x":181704.50371400081,"y":2538209.5280220024}},{"attributes":{"ID":261791,"DIS_CODE":0,"TOWNNAME":"歸仁區","LI":"崙頂里","LIN":"24鄰","STREET":"崙頂二街","SECT":" ","MAREA":" ","LANE":" ","ALLEY":" ","HOUSE_NO":"３號","E_COORD97":177833.65940999999,"N_COORD97":2539964.4077499998,"ADDRESS":"崙頂二街３號","OBJECTID":261787},"geometry":{"x":177833.65941000078,"y":2539964.4077470005}},{"attributes":{"ID":261792,"DIS_CODE":0,"TOWNNAME":"新營區","LI":"民榮里","LIN":"17鄰","STREET":"新榮六街","SECT":" ","MAREA":" ","LANE":" ","ALLEY":" ","HOUSE_NO":"５０號","E_COORD97":178322.194043,"N_COORD97":2577587.8787500001,"ADDRESS":"新榮六街５０號","OBJECTID":261788},"geometry":{"x":178322.19404300023,"y":2577587.8787510023}},{"attributes":{"ID":261793,"DIS_CODE":0,"TOWNNAME":"永康區","LI":"復華里","LIN":"22鄰","STREET":"復華七街","SECT":" ","MAREA":" ","LANE":" ","ALLEY":" ","HOUSE_NO":"１４１號","E_COORD97":172872.774783,"N_COORD97":2546227.6315600001,"ADDRESS":"復華七街１４１號","OBJECTID":261789},"geometry":{"x":172872.77478300128,"y":2546227.6315640006}},{"attributes":{"ID":261794,"DIS_CODE":0,"TOWNNAME":"永康區","LI":"復華里","LIN":"22鄰","STREET":"復華七街","SECT":" ","MAREA":" ","LANE":" ","ALLEY":" ","HOUSE_NO":"１４３號","E_COORD97":172874.75012300001,"N_COORD97":2546231.2747499999,"ADDRESS":"復華七街１４３號","OBJECTID":261790},"geometry":{"x":172874.75012299977,"y":2546231.2747479994}},{"attributes":{"ID":261795,"DIS_CODE":0,"TOWNNAME":"安南區","LI":"淵中里","LIN":"10鄰","STREET":"本原街","SECT":"三段","MAREA":" ","LANE":" ","ALLEY":" ","HOUSE_NO":"２６０號","E_COORD97":165322.99027000001,"N_COORD97":2550212.8593299999,"ADDRESS":"本原街三段２６０號","OBJECTID":261791},"geometry":{"x":165322.99026999995,"y":2550212.8593300022}},{"attributes":{"ID":261796,"DIS_CODE":0,"TOWNNAME":"歸仁區","LI":"崙頂里","LIN":"15鄰","STREET":"崙頂三街","SECT":" ","MAREA":" ","LANE":" ","ALLEY":" ","HOUSE_NO":"１９號","E_COORD97":177894.48005700001,"N_COORD97":2539905.5644499999,"ADDRESS":"崙頂三街１９號","OBJECTID":261792},"geometry":{"x":177894.48005700111,"y":2539905.5644450039}},{"attributes":{"ID":261797,"DIS_CODE":0,"TOWNNAME":"新營區","LI":"姑爺里","LIN":"5鄰","STREET":" ","SECT":" ","MAREA":"姑爺","LANE":" ","ALLEY":" ","HOUSE_NO":"４２之６號","E_COORD97":174176.37455000001,"N_COORD97":2574140.0098799998,"ADDRESS":"姑爺４２之６號","OBJECTID":261793},"geometry":{"x":174176.37455000076,"y":2574140.0098800026}},{"attributes":{"ID":261798,"DIS_CODE":0,"TOWNNAME":"新營區","LI":"姑爺里","LIN":"5鄰","STREET":" ","SECT":" ","MAREA":"姑爺","LANE":" ","ALLEY":" ","HOUSE_NO":"４２之６號","E_COORD97":174175.95078000001,"N_COORD97":2574140.2215499999,"ADDRESS":"姑爺４２之６號","OBJECTID":261794},"geometry":{"x":174175.95077999867,"y":2574140.2215500008}},{"attributes":{"ID":261799,"DIS_CODE":0,"TOWNNAME":"歸仁區","LI":"崙頂里","LIN":"8鄰","STREET":"崙頂三街","SECT":" ","MAREA":" ","LANE":" ","ALLEY":" ","HOUSE_NO":"５４號","E_COORD97":177972.88995099999,"N_COORD97":2539915.0894399998,"ADDRESS":"崙頂三街５４號","OBJECTID":261795},"geometry":{"x":177972.88995099906,"y":2539915.0894400012}},{"attributes":{"ID":261800,"DIS_CODE":0,"TOWNNAME":"歸仁區","LI":"大潭里","LIN":"5鄰","STREET":"大潭一街","SECT":" ","MAREA":" ","LANE":" ","ALLEY":" ","HOUSE_NO":"６６號","E_COORD97":175210.47707699999,"N_COORD97":2534576.4608300002,"ADDRESS":"大潭一街６６號","OBJECTID":261796},"geometry":{"x":175210.47707699984,"y":2534576.4608340021}},{"attributes":{"ID":261801,"DIS_CODE":0,"TOWNNAME":"歸仁區","LI":"崙頂里","LIN":"8鄰","STREET":"崙頂三街","SECT":" ","MAREA":" ","LANE":" ","ALLEY":" ","HOUSE_NO":"７０號","E_COORD97":177997.048675,"N_COORD97":2539919.9577700002,"ADDRESS":"崙頂三街７０號","OBJECTID":261797},"geometry":{"x":177997.04867500067,"y":2539919.9577709995}},{"attributes":{"ID":261802,"DIS_CODE":0,"TOWNNAME":"新營區","LI":"姑爺里","LIN":"6鄰","STREET":" ","SECT":" ","MAREA":"姑爺","LANE":" ","ALLEY":" ","HOUSE_NO":"５１號","E_COORD97":174243.96497999999,"N_COORD97":2574835.2286700001,"ADDRESS":"姑爺５１號","OBJECTID":261798},"geometry":{"x":174243.96498000063,"y":2574835.228670001}},{"attributes":{"ID":261803,"DIS_CODE":0,"TOWNNAME":"永康區","LI":"復華里","LIN":"22鄰","STREET":"復華七街","SECT":" ","MAREA":" ","LANE":" ","ALLEY":" ","HOUSE_NO":"１４９號","E_COORD97":172881.43588899999,"N_COORD97":2546245.6956799999,"ADDRESS":"復華七街１４９號","OBJECTID":261799},"geometry":{"x":172881.43588899914,"y":2546245.6956810001}},{"attributes":{"ID":261804,"DIS_CODE":0,"TOWNNAME":"新營區","LI":"民榮里","LIN":"11鄰","STREET":"裕民路","SECT":" ","MAREA":" ","LANE":" ","ALLEY":" ","HOUSE_NO":"１號","E_COORD97":179148.90794999999,"N_COORD97":2577993.75251,"ADDRESS":"裕民路１號","OBJECTID":261800},"geometry":{"x":179148.90795000177,"y":2577993.7525100019}}]}