{"displayFieldName":"TOWNNAME","fieldAliases":{"ID":"ID","DIS_CODE":"DIS_CODE","TOWNNAME":"TOWNNAME","LI":"LI","LIN":"LIN","STREET":"STREET","SECT":"SECT","MAREA":"MAREA","LANE":"LANE","ALLEY":"ALLEY","HOUSE_NO":"HOUSE_NO","E_COORD97":"E_COORD97","N_COORD97":"N_COORD97","ADDRESS":"ADDRESS","OBJECTID":"OBJECTID"},"geometryType":"esriGeometryPoint","spatialReference":{"wkid":102443,"latestWkid":3826},"fields":[{"name":"ID","type":"esriFieldTypeDouble","alias":"ID"},{"name":"DIS_CODE","type":"esriFieldTypeInteger","alias":"DIS_CODE"},{"name":"TOWNNAME","type":"esriFieldTypeString","alias":"TOWNNAME","length":8},{"name":"LI","type":"esriFieldTypeString","alias":"LI","length":8},{"name":"LIN","type":"esriFieldTypeString","alias":"LIN","length":12},{"name":"STREET","type":"esriFieldTypeString","alias":"STREET","length":20},{"name":"SECT","type":"esriFieldTypeString","alias":"SECT","length":8},{"name":"MAREA","type":"esriFieldTypeString","alias":"MAREA","length":12},{"name":"LANE","type":"esriFieldTypeString","alias":"LANE","length":10},{"name":"ALLEY","type":"esriFieldTypeString","alias":"ALLEY","length":10},{"name":"HOUSE_NO","type":"esriFieldTypeString","alias":"HOUSE_NO","length":20},{"name":"E_COORD97","type":"esriFieldTypeDouble","alias":"E_COORD97"},{"name":"N_COORD97","type":"esriFieldTypeDouble","alias":"N_COORD97"},{"name":"ADDRESS","type":"esriFieldTypeString","alias":"ADDRESS","length":50},{"name":"OBJECTID","type":"esriFieldTypeOID","alias":"OBJECTID"}],"features":[{"attributes":{"ID":470026,"DIS_CODE":0,"TOWNNAME":"南區","LI":"郡南里","LIN":"5鄰","STREET":"永興一街","SECT":" ","MAREA":" ","LANE":" ","ALLEY":" ","HOUSE_NO":"１０號","E_COORD97":167276.01000000001,"N_COORD97":2540729.1600000001,"ADDRESS":"永興一街１０號","OBJECTID":470001},"geometry":{"x":167276.01000000071,"y":2540729.160000002}},{"attributes":{"ID":470027,"DIS_CODE":0,"TOWNNAME":"南區","LI":"郡南里","LIN":"5鄰","STREET":"永興一街","SECT":" ","MAREA":" ","LANE":" ","ALLEY":" ","HOUSE_NO":"１２號","E_COORD97":167271.98000000001,"N_COORD97":2540729.6000000001,"ADDRESS":"永興一街１２號","OBJECTID":470002},"geometry":{"x":167271.98000000138,"y":2540729.5999999996}},{"attributes":{"ID":470028,"DIS_CODE":0,"TOWNNAME":"南區","LI":"郡南里","LIN":"5鄰","STREET":"永興一街","SECT":" ","MAREA":" ","LANE":" ","ALLEY":" ","HOUSE_NO":"１４號","E_COORD97":167269.29999999999,"N_COORD97":2540731.3900000001,"ADDRESS":"永興一街１４號","OBJECTID":470003},"geometry":{"x":167269.30000000075,"y":2540731.3900000025}},{"attributes":{"ID":470029,"DIS_CODE":0,"TOWNNAME":"南區","LI":"郡南里","LIN":"5鄰","STREET":"永興一街","SECT":" ","MAREA":" ","LANE":" ","ALLEY":" ","HOUSE_NO":"１６號","E_COORD97":167264.38,"N_COORD97":2540730.27,"ADDRESS":"永興一街１６號","OBJECTID":470004},"geometry":{"x":167264.37999999989,"y":2540730.2700000014}},{"attributes":{"ID":470030,"DIS_CODE":0,"TOWNNAME":"南區","LI":"郡南里","LIN":"5鄰","STREET":"永興一街","SECT":" ","MAREA":" ","LANE":" ","ALLEY":" ","HOUSE_NO":"１８號","E_COORD97":167258.56,"N_COORD97":2540730.9399999999,"ADDRESS":"永興一街１８號","OBJECTID":470005},"geometry":{"x":167258.56000000052,"y":2540730.9399999995}},{"attributes":{"ID":470031,"DIS_CODE":0,"TOWNNAME":"白河區","LI":"永安里","LIN":"14鄰","STREET":"復興街","SECT":" ","MAREA":" ","LANE":"５６巷","ALLEY":" ","HOUSE_NO":"２號","E_COORD97":190366.70999999999,"N_COORD97":2583424.6600000001,"ADDRESS":"復興街５６巷２號","OBJECTID":470006},"geometry":{"x":190366.71000000089,"y":2583424.6600000001}},{"attributes":{"ID":470032,"DIS_CODE":0,"TOWNNAME":"南區","LI":"郡南里","LIN":"5鄰","STREET":"永興一街","SECT":" ","MAREA":" ","LANE":" ","ALLEY":" ","HOUSE_NO":"２４號","E_COORD97":167242.23999999999,"N_COORD97":2540732.9500000002,"ADDRESS":"永興一街２４號","OBJECTID":470007},"geometry":{"x":167242.24000000209,"y":2540732.9500000011}},{"attributes":{"ID":470033,"DIS_CODE":0,"TOWNNAME":"南區","LI":"郡南里","LIN":"5鄰","STREET":"永興一街","SECT":" ","MAREA":" ","LANE":" ","ALLEY":" ","HOUSE_NO":"２５號","E_COORD97":167227.67999999999,"N_COORD97":2540700.79,"ADDRESS":"永興一街２５號","OBJECTID":470008},"geometry":{"x":167227.68000000063,"y":2540700.7899999991}},{"attributes":{"ID":470034,"DIS_CODE":0,"TOWNNAME":"南區","LI":"郡南里","LIN":"5鄰","STREET":"永興一街","SECT":" ","MAREA":" ","LANE":" ","ALLEY":" ","HOUSE_NO":"２７號","E_COORD97":167224.69,"N_COORD97":2540702.4199999999,"ADDRESS":"永興一街２７號","OBJECTID":470009},"geometry":{"x":167224.69000000134,"y":2540702.4200000018}},{"attributes":{"ID":470035,"DIS_CODE":0,"TOWNNAME":"南區","LI":"郡南里","LIN":"5鄰","STREET":"永興一街","SECT":" ","MAREA":" ","LANE":" ","ALLEY":" ","HOUSE_NO":"２９號","E_COORD97":167223.34,"N_COORD97":2540702.23,"ADDRESS":"永興一街２９號","OBJECTID":470010},"geometry":{"x":167223.34000000078,"y":2540702.2300000023}},{"attributes":{"ID":470036,"DIS_CODE":0,"TOWNNAME":"南區","LI":"郡南里","LIN":"5鄰","STREET":"永興一街","SECT":" ","MAREA":" ","LANE":" ","ALLEY":" ","HOUSE_NO":"３０號","E_COORD97":167221.19,"N_COORD97":2540734.02,"ADDRESS":"永興一街３０號","OBJECTID":470011},"geometry":{"x":167221.19000000134,"y":2540734.0199999996}},{"attributes":{"ID":470037,"DIS_CODE":0,"TOWNNAME":"南區","LI":"郡南里","LIN":"5鄰","STREET":"永興一街","SECT":" ","MAREA":" ","LANE":" ","ALLEY":" ","HOUSE_NO":"３１號","E_COORD97":167218.29000000001,"N_COORD97":2540701.8700000001,"ADDRESS":"永興一街３１號","OBJECTID":470012},"geometry":{"x":167218.29000000097,"y":2540701.8700000029}},{"attributes":{"ID":470038,"DIS_CODE":0,"TOWNNAME":"南區","LI":"郡南里","LIN":"5鄰","STREET":"永興一街","SECT":" ","MAREA":" ","LANE":" ","ALLEY":" ","HOUSE_NO":"３２號","E_COORD97":167217.94,"N_COORD97":2540735.1000000001,"ADDRESS":"永興一街３２號","OBJECTID":470013},"geometry":{"x":167217.94000000134,"y":2540735.1000000015}},{"attributes":{"ID":470039,"DIS_CODE":0,"TOWNNAME":"南區","LI":"郡南里","LIN":"5鄰","STREET":"永興一街","SECT":" ","MAREA":" ","LANE":" ","ALLEY":" ","HOUSE_NO":"３３號","E_COORD97":167213.59,"N_COORD97":2540701.8700000001,"ADDRESS":"永興一街３３號","OBJECTID":470014},"geometry":{"x":167213.58999999985,"y":2540701.8700000029}},{"attributes":{"ID":470040,"DIS_CODE":0,"TOWNNAME":"南區","LI":"郡南里","LIN":"5鄰","STREET":"永興一街","SECT":" ","MAREA":" ","LANE":" ","ALLEY":" ","HOUSE_NO":"３４號","E_COORD97":167212.89000000001,"N_COORD97":2540735.46,"ADDRESS":"永興一街３４號","OBJECTID":470015},"geometry":{"x":167212.88999999966,"y":2540735.4600000009}},{"attributes":{"ID":470041,"DIS_CODE":0,"TOWNNAME":"南區","LI":"郡南里","LIN":"5鄰","STREET":"永興一街","SECT":" ","MAREA":" ","LANE":" ","ALLEY":" ","HOUSE_NO":"３５號","E_COORD97":167210.70000000001,"N_COORD97":2540703.3100000001,"ADDRESS":"永興一街３５號","OBJECTID":470016},"geometry":{"x":167210.70000000112,"y":2540703.3099999987}},{"attributes":{"ID":470042,"DIS_CODE":0,"TOWNNAME":"南區","LI":"郡南里","LIN":"5鄰","STREET":"永興一街","SECT":" ","MAREA":" ","LANE":" ","ALLEY":" ","HOUSE_NO":"３６號","E_COORD97":167204.94,"N_COORD97":2540736.8999999999,"ADDRESS":"永興一街３６號","OBJECTID":470017},"geometry":{"x":167204.94000000041,"y":2540736.9000000041}},{"attributes":{"ID":470043,"DIS_CODE":0,"TOWNNAME":"南區","LI":"郡南里","LIN":"5鄰","STREET":"永興一街","SECT":" ","MAREA":" ","LANE":" ","ALLEY":" ","HOUSE_NO":"３７號","E_COORD97":167206.37,"N_COORD97":2540702.23,"ADDRESS":"永興一街３７號","OBJECTID":470018},"geometry":{"x":167206.37000000104,"y":2540702.2300000023}},{"attributes":{"ID":470044,"DIS_CODE":0,"TOWNNAME":"南區","LI":"郡南里","LIN":"5鄰","STREET":"永興一街","SECT":" ","MAREA":" ","LANE":" ","ALLEY":" ","HOUSE_NO":"３９號","E_COORD97":167202.03,"N_COORD97":2540701.5099999998,"ADDRESS":"永興一街３９號","OBJECTID":470019},"geometry":{"x":167202.03000000119,"y":2540701.5100000035}},{"attributes":{"ID":470045,"DIS_CODE":0,"TOWNNAME":"南區","LI":"郡南里","LIN":"5鄰","STREET":"永興一街","SECT":" ","MAREA":" ","LANE":" ","ALLEY":" ","HOUSE_NO":"４１號","E_COORD97":167198.42000000001,"N_COORD97":2540701.8700000001,"ADDRESS":"永興一街４１號","OBJECTID":470020},"geometry":{"x":167198.42000000179,"y":2540701.8700000029}},{"attributes":{"ID":470046,"DIS_CODE":0,"TOWNNAME":"南區","LI":"郡南里","LIN":"5鄰","STREET":"永興二街","SECT":" ","MAREA":" ","LANE":" ","ALLEY":" ","HOUSE_NO":"１２之１號","E_COORD97":167280.64999999999,"N_COORD97":2540676.8599999999,"ADDRESS":"永興二街１２之１號","OBJECTID":470021},"geometry":{"x":167280.6500000013,"y":2540676.8599999994}},{"attributes":{"ID":470047,"DIS_CODE":0,"TOWNNAME":"南區","LI":"郡南里","LIN":"5鄰","STREET":"永興二街","SECT":" ","MAREA":" ","LANE":" ","ALLEY":" ","HOUSE_NO":"２６號","E_COORD97":167256.32000000001,"N_COORD97":2540676.6200000001,"ADDRESS":"永興二街２６號","OBJECTID":470022},"geometry":{"x":167256.3200000003,"y":2540676.620000001}},{"attributes":{"ID":470048,"DIS_CODE":0,"TOWNNAME":"南區","LI":"郡南里","LIN":"5鄰","STREET":"永興二街","SECT":" ","MAREA":" ","LANE":" ","ALLEY":" ","HOUSE_NO":"５０號","E_COORD97":167191.92000000001,"N_COORD97":2540677.96,"ADDRESS":"永興二街５０號","OBJECTID":470023},"geometry":{"x":167191.92000000086,"y":2540677.9600000009}},{"attributes":{"ID":470049,"DIS_CODE":0,"TOWNNAME":"南區","LI":"郡南里","LIN":"5鄰","STREET":"德興路","SECT":" ","MAREA":" ","LANE":" ","ALLEY":" ","HOUSE_NO":"６５號","E_COORD97":167183.01000000001,"N_COORD97":2540713.6299999999,"ADDRESS":"德興路６５號","OBJECTID":470024},"geometry":{"x":167183.01000000071,"y":2540713.6300000008}},{"attributes":{"ID":470050,"DIS_CODE":0,"TOWNNAME":"南區","LI":"郡南里","LIN":"5鄰","STREET":"德興路","SECT":" ","MAREA":" ","LANE":" ","ALLEY":" ","HOUSE_NO":"６７號","E_COORD97":167184.45999999999,"N_COORD97":2540708.2999999998,"ADDRESS":"德興路６７號","OBJECTID":470025},"geometry":{"x":167184.45999999903,"y":2540708.3000000026}},{"attributes":{"ID":470051,"DIS_CODE":0,"TOWNNAME":"南區","LI":"郡南里","LIN":"5鄰","STREET":"德興路","SECT":" ","MAREA":" ","LANE":" ","ALLEY":" ","HOUSE_NO":"６９號","E_COORD97":167183.01000000001,"N_COORD97":2540702.98,"ADDRESS":"德興路６９號","OBJECTID":470026},"geometry":{"x":167183.01000000071,"y":2540702.9800000023}},{"attributes":{"ID":470052,"DIS_CODE":0,"TOWNNAME":"南區","LI":"郡南里","LIN":"5鄰","STREET":"德興路","SECT":" ","MAREA":" ","LANE":" ","ALLEY":" ","HOUSE_NO":"７１號","E_COORD97":167181.07000000001,"N_COORD97":2540698.1299999999,"ADDRESS":"德興路７１號","OBJECTID":470027},"geometry":{"x":167181.07000000123,"y":2540698.129999999}},{"attributes":{"ID":470053,"DIS_CODE":0,"TOWNNAME":"南區","LI":"郡南里","LIN":"5鄰","STREET":"德興路","SECT":" ","MAREA":" ","LANE":" ","ALLEY":" ","HOUSE_NO":"７３號","E_COORD97":167181.32999999999,"N_COORD97":2540693.8799999999,"ADDRESS":"德興路７３號","OBJECTID":470028},"geometry":{"x":167181.33000000007,"y":2540693.879999999}},{"attributes":{"ID":470054,"DIS_CODE":0,"TOWNNAME":"南區","LI":"喜北里","LIN":"5鄰","STREET":"喜樹路","SECT":" ","MAREA":" ","LANE":" ","ALLEY":" ","HOUSE_NO":"７８號之１","E_COORD97":165871.23999999999,"N_COORD97":2538430.3799999999,"ADDRESS":"喜樹路７８號之１","OBJECTID":470029},"geometry":{"x":165871.24000000115,"y":2538430.3800000008}},{"attributes":{"ID":470055,"DIS_CODE":0,"TOWNNAME":"南區","LI":"喜東里","LIN":"5鄰","STREET":"喜樹路","SECT":" ","MAREA":" ","LANE":" ","ALLEY":" ","HOUSE_NO":"５５號之１","E_COORD97":165909.82999999999,"N_COORD97":2538591.5,"ADDRESS":"喜樹路５５號之１","OBJECTID":470030},"geometry":{"x":165909.83000000101,"y":2538591.5}},{"attributes":{"ID":470056,"DIS_CODE":0,"TOWNNAME":"南區","LI":"喜東里","LIN":"5鄰","STREET":"喜樹路","SECT":" ","MAREA":" ","LANE":" ","ALLEY":" ","HOUSE_NO":"５５號之２","E_COORD97":165909.72,"N_COORD97":2538586.9100000001,"ADDRESS":"喜樹路５５號之２","OBJECTID":470031},"geometry":{"x":165909.72000000067,"y":2538586.9100000039}},{"attributes":{"ID":470057,"DIS_CODE":0,"TOWNNAME":"南區","LI":"喜東里","LIN":"5鄰","STREET":"喜樹路","SECT":" ","MAREA":" ","LANE":" ","ALLEY":" ","HOUSE_NO":"６５號","E_COORD97":165918.57999999999,"N_COORD97":2538517.75,"ADDRESS":"喜樹路６５號","OBJECTID":470032},"geometry":{"x":165918.58000000007,"y":2538517.7500000019}},{"attributes":{"ID":470058,"DIS_CODE":0,"TOWNNAME":"南區","LI":"喜東里","LIN":"5鄰","STREET":"喜樹路","SECT":" ","MAREA":" ","LANE":" ","ALLEY":" ","HOUSE_NO":"６７號","E_COORD97":165921.35000000001,"N_COORD97":2538508.6200000001,"ADDRESS":"喜樹路６７號","OBJECTID":470033},"geometry":{"x":165921.34999999963,"y":2538508.6200000048}},{"attributes":{"ID":470059,"DIS_CODE":0,"TOWNNAME":"南區","LI":"喜東里","LIN":"5鄰","STREET":"喜樹路","SECT":" ","MAREA":" ","LANE":" ","ALLEY":" ","HOUSE_NO":"６９號","E_COORD97":165917.73999999999,"N_COORD97":2538494.2000000002,"ADDRESS":"喜樹路６９號","OBJECTID":470034},"geometry":{"x":165917.74000000022,"y":2538494.1999999993}},{"attributes":{"ID":470060,"DIS_CODE":0,"TOWNNAME":"南區","LI":"喜東里","LIN":"5鄰","STREET":"喜樹路","SECT":" ","MAREA":" ","LANE":" ","ALLEY":" ","HOUSE_NO":"７３號","E_COORD97":165909.92000000001,"N_COORD97":2538471.6299999999,"ADDRESS":"喜樹路７３號","OBJECTID":470035},"geometry":{"x":165909.91999999899,"y":2538471.629999999}},{"attributes":{"ID":470061,"DIS_CODE":0,"TOWNNAME":"南區","LI":"喜東里","LIN":"5鄰","STREET":"喜樹路","SECT":" ","MAREA":" ","LANE":" ","ALLEY":" ","HOUSE_NO":"７３號之１","E_COORD97":165909.32000000001,"N_COORD97":2538466.3500000001,"ADDRESS":"喜樹路７３號之１","OBJECTID":470036},"geometry":{"x":165909.32000000216,"y":2538466.3499999996}},{"attributes":{"ID":470062,"DIS_CODE":0,"TOWNNAME":"南區","LI":"喜東里","LIN":"5鄰","STREET":"喜樹路","SECT":" ","MAREA":" ","LANE":" ","ALLEY":" ","HOUSE_NO":"７３號之１０","E_COORD97":165907.88,"N_COORD97":2538428.0299999998,"ADDRESS":"喜樹路７３號之１０","OBJECTID":470037},"geometry":{"x":165907.87999999989,"y":2538428.0299999993}},{"attributes":{"ID":470063,"DIS_CODE":0,"TOWNNAME":"南區","LI":"喜東里","LIN":"5鄰","STREET":"喜樹路","SECT":" ","MAREA":" ","LANE":" ","ALLEY":" ","HOUSE_NO":"７３號之１１","E_COORD97":165907.39999999999,"N_COORD97":2538424.0099999998,"ADDRESS":"喜樹路７３號之１１","OBJECTID":470038},"geometry":{"x":165907.4000000013,"y":2538424.0100000016}},{"attributes":{"ID":470064,"DIS_CODE":0,"TOWNNAME":"南區","LI":"喜東里","LIN":"5鄰","STREET":"喜樹路","SECT":" ","MAREA":" ","LANE":" ","ALLEY":" ","HOUSE_NO":"７３號之１２","E_COORD97":165906.42999999999,"N_COORD97":2538420.2799999998,"ADDRESS":"喜樹路７３號之１２","OBJECTID":470039},"geometry":{"x":165906.43000000156,"y":2538420.2799999993}},{"attributes":{"ID":470065,"DIS_CODE":0,"TOWNNAME":"南區","LI":"喜東里","LIN":"5鄰","STREET":"喜樹路","SECT":" ","MAREA":" ","LANE":" ","ALLEY":" ","HOUSE_NO":"７３號之１３","E_COORD97":165906.67000000001,"N_COORD97":2538415.8399999999,"ADDRESS":"喜樹路７３號之１３","OBJECTID":470040},"geometry":{"x":165906.67000000179,"y":2538415.8399999999}},{"attributes":{"ID":470066,"DIS_CODE":0,"TOWNNAME":"南區","LI":"喜東里","LIN":"5鄰","STREET":"喜樹路","SECT":" ","MAREA":" ","LANE":" ","ALLEY":" ","HOUSE_NO":"７３號之１４","E_COORD97":165906.54999999999,"N_COORD97":2538411.75,"ADDRESS":"喜樹路７３號之１４","OBJECTID":470041},"geometry":{"x":165906.54999999981,"y":2538411.7500000019}},{"attributes":{"ID":470067,"DIS_CODE":0,"TOWNNAME":"南區","LI":"喜東里","LIN":"5鄰","STREET":"喜樹路","SECT":" ","MAREA":" ","LANE":" ","ALLEY":" ","HOUSE_NO":"７３號之１５","E_COORD97":165906.79000000001,"N_COORD97":2538407.1899999999,"ADDRESS":"喜樹路７３號之１５","OBJECTID":470042},"geometry":{"x":165906.79000000004,"y":2538407.1899999995}},{"attributes":{"ID":470068,"DIS_CODE":0,"TOWNNAME":"南區","LI":"喜東里","LIN":"5鄰","STREET":"喜樹路","SECT":" ","MAREA":" ","LANE":" ","ALLEY":" ","HOUSE_NO":"７３號之１６","E_COORD97":165906.31,"N_COORD97":2538403.1000000001,"ADDRESS":"喜樹路７３號之１６","OBJECTID":470043},"geometry":{"x":165906.30999999959,"y":2538403.1000000015}},{"attributes":{"ID":470069,"DIS_CODE":0,"TOWNNAME":"南區","LI":"喜東里","LIN":"5鄰","STREET":"喜樹路","SECT":" ","MAREA":" ","LANE":" ","ALLEY":" ","HOUSE_NO":"７３號之１７","E_COORD97":165906.42999999999,"N_COORD97":2538398.6600000001,"ADDRESS":"喜樹路７３號之１７","OBJECTID":470044},"geometry":{"x":165906.43000000156,"y":2538398.6600000039}},{"attributes":{"ID":470070,"DIS_CODE":0,"TOWNNAME":"南區","LI":"喜東里","LIN":"5鄰","STREET":"喜樹路","SECT":" ","MAREA":" ","LANE":" ","ALLEY":" ","HOUSE_NO":"７３號之１８","E_COORD97":165905.82999999999,"N_COORD97":2538394.9399999999,"ADDRESS":"喜樹路７３號之１８","OBJECTID":470045},"geometry":{"x":165905.83000000101,"y":2538394.9399999995}},{"attributes":{"ID":470071,"DIS_CODE":0,"TOWNNAME":"南區","LI":"喜東里","LIN":"5鄰","STREET":"喜樹路","SECT":" ","MAREA":" ","LANE":" ","ALLEY":" ","HOUSE_NO":"７３號之１９","E_COORD97":165906.91,"N_COORD97":2538390.4900000002,"ADDRESS":"喜樹路７３號之１９","OBJECTID":470046},"geometry":{"x":165906.91000000201,"y":2538390.4900000021}},{"attributes":{"ID":470072,"DIS_CODE":0,"TOWNNAME":"南區","LI":"喜東里","LIN":"5鄰","STREET":"喜樹路","SECT":" ","MAREA":" ","LANE":" ","ALLEY":" ","HOUSE_NO":"７３號之２","E_COORD97":165909.20000000001,"N_COORD97":2538462.5,"ADDRESS":"喜樹路７３號之２","OBJECTID":470047},"geometry":{"x":165909.20000000112,"y":2538462.5}},{"attributes":{"ID":470073,"DIS_CODE":0,"TOWNNAME":"南區","LI":"喜東里","LIN":"5鄰","STREET":"喜樹路","SECT":" ","MAREA":" ","LANE":" ","ALLEY":" ","HOUSE_NO":"７３號之２０","E_COORD97":165926.88,"N_COORD97":2538394.21,"ADDRESS":"喜樹路７３號之２０","OBJECTID":470048},"geometry":{"x":165926.87999999989,"y":2538394.2100000009}},{"attributes":{"ID":470074,"DIS_CODE":0,"TOWNNAME":"南區","LI":"喜東里","LIN":"5鄰","STREET":"喜樹路","SECT":" ","MAREA":" ","LANE":" ","ALLEY":" ","HOUSE_NO":"７３號之２１","E_COORD97":165931.57000000001,"N_COORD97":2538394.21,"ADDRESS":"喜樹路７３號之２１","OBJECTID":470049},"geometry":{"x":165931.57000000123,"y":2538394.2100000009}},{"attributes":{"ID":470075,"DIS_CODE":0,"TOWNNAME":"南區","LI":"喜東里","LIN":"5鄰","STREET":"喜樹路","SECT":" ","MAREA":" ","LANE":" ","ALLEY":" ","HOUSE_NO":"７３號之２２","E_COORD97":165930.32000000001,"N_COORD97":2538368.75,"ADDRESS":"喜樹路７３號之２２","OBJECTID":470050},"geometry":{"x":165930.32000000123,"y":2538368.7500000019}},{"attributes":{"ID":470076,"DIS_CODE":0,"TOWNNAME":"南區","LI":"喜東里","LIN":"5鄰","STREET":"喜樹路","SECT":" ","MAREA":" ","LANE":" ","ALLEY":" ","HOUSE_NO":"７３號之２３","E_COORD97":165926.01000000001,"N_COORD97":2538371.8199999998,"ADDRESS":"喜樹路７３號之２３","OBJECTID":470051},"geometry":{"x":165926.00999999978,"y":2538371.8200000022}},{"attributes":{"ID":470077,"DIS_CODE":0,"TOWNNAME":"南區","LI":"喜東里","LIN":"5鄰","STREET":"喜樹路","SECT":" ","MAREA":" ","LANE":" ","ALLEY":" ","HOUSE_NO":"７３號之２４","E_COORD97":165906.29000000001,"N_COORD97":2538380.2400000002,"ADDRESS":"喜樹路７３號之２４","OBJECTID":470052},"geometry":{"x":165906.29000000097,"y":2538380.2400000002}},{"attributes":{"ID":470078,"DIS_CODE":0,"TOWNNAME":"南區","LI":"喜東里","LIN":"5鄰","STREET":"喜樹路","SECT":" ","MAREA":" ","LANE":" ","ALLEY":" ","HOUSE_NO":"７３號之２５","E_COORD97":165906.29000000001,"N_COORD97":2538375.7200000002,"ADDRESS":"喜樹路７３號之２５","OBJECTID":470053},"geometry":{"x":165906.29000000097,"y":2538375.7200000025}},{"attributes":{"ID":470079,"DIS_CODE":0,"TOWNNAME":"南區","LI":"喜東里","LIN":"5鄰","STREET":"喜樹路","SECT":" ","MAREA":" ","LANE":" ","ALLEY":" ","HOUSE_NO":"７３號之２６","E_COORD97":165906.29000000001,"N_COORD97":2538372.0299999998,"ADDRESS":"喜樹路７３號之２６","OBJECTID":470054},"geometry":{"x":165906.29000000097,"y":2538372.0300000012}},{"attributes":{"ID":470080,"DIS_CODE":0,"TOWNNAME":"南區","LI":"喜東里","LIN":"5鄰","STREET":"喜樹路","SECT":" ","MAREA":" ","LANE":" ","ALLEY":" ","HOUSE_NO":"７３號之２７","E_COORD97":165906.5,"N_COORD97":2538366.8999999999,"ADDRESS":"喜樹路７３號之２７","OBJECTID":470055},"geometry":{"x":165906.50000000093,"y":2538366.9000000041}},{"attributes":{"ID":470081,"DIS_CODE":0,"TOWNNAME":"南區","LI":"喜東里","LIN":"5鄰","STREET":"喜樹路","SECT":" ","MAREA":" ","LANE":" ","ALLEY":" ","HOUSE_NO":"７３號之２８","E_COORD97":165906.07999999999,"N_COORD97":2538362.7999999998,"ADDRESS":"喜樹路７３號之２８","OBJECTID":470056},"geometry":{"x":165906.08000000101,"y":2538362.8000000007}},{"attributes":{"ID":470082,"DIS_CODE":0,"TOWNNAME":"南區","LI":"喜東里","LIN":"5鄰","STREET":"喜樹路","SECT":" ","MAREA":" ","LANE":" ","ALLEY":" ","HOUSE_NO":"７３號之２９","E_COORD97":165906.07999999999,"N_COORD97":2538358.4900000002,"ADDRESS":"喜樹路７３號之２９","OBJECTID":470057},"geometry":{"x":165906.08000000101,"y":2538358.4900000002}},{"attributes":{"ID":470083,"DIS_CODE":0,"TOWNNAME":"南區","LI":"喜東里","LIN":"5鄰","STREET":"喜樹路","SECT":" ","MAREA":" ","LANE":" ","ALLEY":" ","HOUSE_NO":"７３號之３","E_COORD97":165909.20000000001,"N_COORD97":2538458.4199999999,"ADDRESS":"喜樹路７３號之３","OBJECTID":470058},"geometry":{"x":165909.20000000112,"y":2538458.4200000018}},{"attributes":{"ID":470084,"DIS_CODE":0,"TOWNNAME":"南區","LI":"喜東里","LIN":"5鄰","STREET":"喜樹路","SECT":" ","MAREA":" ","LANE":" ","ALLEY":" ","HOUSE_NO":"７３號之５","E_COORD97":165908.84,"N_COORD97":2538449.6499999999,"ADDRESS":"喜樹路７３號之５","OBJECTID":470059},"geometry":{"x":165908.84000000171,"y":2538449.6499999985}},{"attributes":{"ID":470085,"DIS_CODE":0,"TOWNNAME":"南區","LI":"喜東里","LIN":"5鄰","STREET":"喜樹路","SECT":" ","MAREA":" ","LANE":" ","ALLEY":" ","HOUSE_NO":"７３號之７","E_COORD97":165908.35999999999,"N_COORD97":2538441.3599999999,"ADDRESS":"喜樹路７３號之７","OBJECTID":470060},"geometry":{"x":165908.36000000034,"y":2538441.3600000013}},{"attributes":{"ID":470086,"DIS_CODE":0,"TOWNNAME":"南區","LI":"喜東里","LIN":"5鄰","STREET":"喜樹路","SECT":" ","MAREA":" ","LANE":" ","ALLEY":" ","HOUSE_NO":"７３號之８","E_COORD97":165907.88,"N_COORD97":2538437.1600000001,"ADDRESS":"喜樹路７３號之８","OBJECTID":470061},"geometry":{"x":165907.87999999989,"y":2538437.160000002}},{"attributes":{"ID":470087,"DIS_CODE":0,"TOWNNAME":"南區","LI":"喜東里","LIN":"5鄰","STREET":"喜樹路","SECT":" ","MAREA":" ","LANE":" ","ALLEY":" ","HOUSE_NO":"７３號之９","E_COORD97":165907.88,"N_COORD97":2538432.9500000002,"ADDRESS":"喜樹路７３號之９","OBJECTID":470062},"geometry":{"x":165907.87999999989,"y":2538432.950000003}},{"attributes":{"ID":470088,"DIS_CODE":0,"TOWNNAME":"永康區","LI":"埔園里","LIN":"5鄰","STREET":"聖龍街","SECT":" ","MAREA":" ","LANE":" ","ALLEY":" ","HOUSE_NO":"２５號","E_COORD97":173847.76000000001,"N_COORD97":2547798.25,"ADDRESS":"聖龍街２５號","OBJECTID":470063},"geometry":{"x":173847.76000000164,"y":2547798.25}},{"attributes":{"ID":470089,"DIS_CODE":0,"TOWNNAME":"永康區","LI":"埔園里","LIN":"5鄰","STREET":"聖龍街","SECT":" ","MAREA":" ","LANE":" ","ALLEY":" ","HOUSE_NO":"３５號","E_COORD97":173875.48000000001,"N_COORD97":2547805.2400000002,"ADDRESS":"聖龍街３５號","OBJECTID":470064},"geometry":{"x":173875.48000000045,"y":2547805.2400000002}},{"attributes":{"ID":470090,"DIS_CODE":0,"TOWNNAME":"永康區","LI":"埔園里","LIN":"5鄰","STREET":"聖龍街","SECT":" ","MAREA":" ","LANE":" ","ALLEY":" ","HOUSE_NO":"３９號","E_COORD97":173893.07999999999,"N_COORD97":2547809.7400000002,"ADDRESS":"聖龍街３９號","OBJECTID":470065},"geometry":{"x":173893.08000000007,"y":2547809.7399999984}},{"attributes":{"ID":470091,"DIS_CODE":0,"TOWNNAME":"永康區","LI":"埔園里","LIN":"5鄰","STREET":"聖龍街","SECT":" ","MAREA":" ","LANE":" ","ALLEY":" ","HOUSE_NO":"４３號","E_COORD97":173901.26000000001,"N_COORD97":2547811.9900000002,"ADDRESS":"聖龍街４３號","OBJECTID":470066},"geometry":{"x":173901.25999999978,"y":2547811.9900000021}},{"attributes":{"ID":470092,"DIS_CODE":0,"TOWNNAME":"永康區","LI":"烏竹里","LIN":"5鄰","STREET":"烏竹街","SECT":" ","MAREA":" ","LANE":" ","ALLEY":" ","HOUSE_NO":"５３號","E_COORD97":174487.13,"N_COORD97":2549327.75,"ADDRESS":"烏竹街５３號","OBJECTID":470067},"geometry":{"x":174487.12999999989,"y":2549327.75}},{"attributes":{"ID":470093,"DIS_CODE":0,"TOWNNAME":"永康區","LI":"烏竹里","LIN":"5鄰","STREET":"烏竹街","SECT":" ","MAREA":" ","LANE":" ","ALLEY":" ","HOUSE_NO":"２２號","E_COORD97":174485.97,"N_COORD97":2549259.2400000002,"ADDRESS":"烏竹街２２號","OBJECTID":470068},"geometry":{"x":174485.97000000067,"y":2549259.2400000021}},{"attributes":{"ID":470094,"DIS_CODE":0,"TOWNNAME":"永康區","LI":"烏竹里","LIN":"5鄰","STREET":"烏竹街","SECT":" ","MAREA":" ","LANE":" ","ALLEY":" ","HOUSE_NO":"５７號","E_COORD97":174486.66,"N_COORD97":2549336.3199999998,"ADDRESS":"烏竹街５７號","OBJECTID":470069},"geometry":{"x":174486.66000000108,"y":2549336.3200000022}},{"attributes":{"ID":470095,"DIS_CODE":0,"TOWNNAME":"永康區","LI":"烏竹里","LIN":"5鄰","STREET":"烏竹街","SECT":" ","MAREA":" ","LANE":" ","ALLEY":" ","HOUSE_NO":"５７號之１","E_COORD97":174483.78,"N_COORD97":2549346.6699999999,"ADDRESS":"烏竹街５７號之１","OBJECTID":470070},"geometry":{"x":174483.77999999933,"y":2549346.6700000018}},{"attributes":{"ID":470096,"DIS_CODE":0,"TOWNNAME":"永康區","LI":"烏竹里","LIN":"5鄰","STREET":"烏竹街","SECT":" ","MAREA":" ","LANE":" ","ALLEY":" ","HOUSE_NO":"３５號","E_COORD97":174481.95999999999,"N_COORD97":2549296.2400000002,"ADDRESS":"烏竹街３５號","OBJECTID":470071},"geometry":{"x":174481.95999999996,"y":2549296.2400000021}},{"attributes":{"ID":470097,"DIS_CODE":0,"TOWNNAME":"永康區","LI":"埔園里","LIN":"5鄰","STREET":"聖龍街","SECT":" ","MAREA":" ","LANE":" ","ALLEY":" ","HOUSE_NO":"１１號","E_COORD97":173812.64000000001,"N_COORD97":2547787.5,"ADDRESS":"聖龍街１１號","OBJECTID":470072},"geometry":{"x":173812.63999999966,"y":2547787.5000000037}},{"attributes":{"ID":470098,"DIS_CODE":0,"TOWNNAME":"安南區","LI":"淵東里","LIN":"5鄰","STREET":"本原街","SECT":"三段","MAREA":" ","LANE":" ","ALLEY":" ","HOUSE_NO":"１４０號","E_COORD97":165558.39000000001,"N_COORD97":2550373.46,"ADDRESS":"本原街三段１４０號","OBJECTID":470073},"geometry":{"x":165558.38999999966,"y":2550373.4600000028}},{"attributes":{"ID":470099,"DIS_CODE":0,"TOWNNAME":"安南區","LI":"淵東里","LIN":"5鄰","STREET":"本原街","SECT":"三段","MAREA":" ","LANE":" ","ALLEY":" ","HOUSE_NO":"１４４號","E_COORD97":165551.10999999999,"N_COORD97":2550372.75,"ADDRESS":"本原街三段１４４號","OBJECTID":470074},"geometry":{"x":165551.11000000034,"y":2550372.7500000037}},{"attributes":{"ID":470100,"DIS_CODE":0,"TOWNNAME":"安南區","LI":"淵東里","LIN":"5鄰","STREET":"本原街","SECT":"三段","MAREA":" ","LANE":" ","ALLEY":" ","HOUSE_NO":"１５０號","E_COORD97":165536.26000000001,"N_COORD97":2550370.3199999998,"ADDRESS":"本原街三段１５０號","OBJECTID":470075},"geometry":{"x":165536.26000000164,"y":2550370.3200000022}},{"attributes":{"ID":470101,"DIS_CODE":0,"TOWNNAME":"安南區","LI":"淵東里","LIN":"5鄰","STREET":"本原街","SECT":"三段","MAREA":" ","LANE":" ","ALLEY":" ","HOUSE_NO":"１５２號","E_COORD97":165532.41,"N_COORD97":2550369.6099999999,"ADDRESS":"本原街三段１５２號","OBJECTID":470076},"geometry":{"x":165532.41000000201,"y":2550369.6100000031}},{"attributes":{"ID":470102,"DIS_CODE":0,"TOWNNAME":"安南區","LI":"淵東里","LIN":"5鄰","STREET":"本原街","SECT":"三段","MAREA":" ","LANE":" ","ALLEY":" ","HOUSE_NO":"１５４號","E_COORD97":165527.56,"N_COORD97":2550369.04,"ADDRESS":"本原街三段１５４號","OBJECTID":470077},"geometry":{"x":165527.56000000052,"y":2550369.0399999991}},{"attributes":{"ID":470103,"DIS_CODE":0,"TOWNNAME":"安南區","LI":"淵東里","LIN":"5鄰","STREET":"本原街","SECT":"三段","MAREA":" ","LANE":" ","ALLEY":" ","HOUSE_NO":"１５６號","E_COORD97":165524.84,"N_COORD97":2550368.4700000002,"ADDRESS":"本原街三段１５６號","OBJECTID":470078},"geometry":{"x":165524.83999999985,"y":2550368.4700000044}},{"attributes":{"ID":470104,"DIS_CODE":0,"TOWNNAME":"安南區","LI":"淵東里","LIN":"5鄰","STREET":"本原街","SECT":"三段","MAREA":" ","LANE":" ","ALLEY":" ","HOUSE_NO":"１５８號","E_COORD97":165521.42000000001,"N_COORD97":2550367.7599999998,"ADDRESS":"本原街三段１５８號","OBJECTID":470079},"geometry":{"x":165521.41999999993,"y":2550367.7599999998}},{"attributes":{"ID":470105,"DIS_CODE":0,"TOWNNAME":"安南區","LI":"淵東里","LIN":"5鄰","STREET":"本原街","SECT":"三段","MAREA":" ","LANE":" ","ALLEY":" ","HOUSE_NO":"１７０號","E_COORD97":165498.54000000001,"N_COORD97":2550362.79,"ADDRESS":"本原街三段１７０號","OBJECTID":470080},"geometry":{"x":165498.54000000004,"y":2550362.790000001}},{"attributes":{"ID":470106,"DIS_CODE":0,"TOWNNAME":"安南區","LI":"公\u25A0里","LIN":"5鄰","STREET":"安興街","SECT":" ","MAREA":" ","LANE":" ","ALLEY":" ","HOUSE_NO":"１１８號","E_COORD97":164173.56,"N_COORD97":2552179.75,"ADDRESS":"安興街１１８號","OBJECTID":470081},"geometry":{"x":164173.56000000052,"y":2552179.7500000037}},{"attributes":{"ID":470107,"DIS_CODE":0,"TOWNNAME":"安南區","LI":"公\u25A0里","LIN":"5鄰","STREET":"安興街","SECT":" ","MAREA":" ","LANE":" ","ALLEY":" ","HOUSE_NO":"１２２號","E_COORD97":164168.85999999999,"N_COORD97":2552155.7999999998,"ADDRESS":"安興街１２２號","OBJECTID":470082},"geometry":{"x":164168.86000000127,"y":2552155.8000000007}},{"attributes":{"ID":470108,"DIS_CODE":0,"TOWNNAME":"安南區","LI":"公\u25A0里","LIN":"5鄰","STREET":"安興街","SECT":" ","MAREA":" ","LANE":" ","ALLEY":" ","HOUSE_NO":"１２３號","E_COORD97":164185.31,"N_COORD97":2552132.3199999998,"ADDRESS":"安興街１２３號","OBJECTID":470083},"geometry":{"x":164185.31000000052,"y":2552132.320000004}},{"attributes":{"ID":470109,"DIS_CODE":0,"TOWNNAME":"安南區","LI":"公\u25A0里","LIN":"5鄰","STREET":"安興街","SECT":" ","MAREA":" ","LANE":" ","ALLEY":" ","HOUSE_NO":"１２６號","E_COORD97":164164.62,"N_COORD97":2552151.5699999998,"ADDRESS":"安興街１２６號","OBJECTID":470084},"geometry":{"x":164164.62000000197,"y":2552151.5700000022}},{"attributes":{"ID":470110,"DIS_CODE":0,"TOWNNAME":"安南區","LI":"公\u25A0里","LIN":"5鄰","STREET":"安興街","SECT":" ","MAREA":" ","LANE":" ","ALLEY":" ","HOUSE_NO":"１２８號","E_COORD97":164159.56,"N_COORD97":2552145.7200000002,"ADDRESS":"安興街１２８號","OBJECTID":470085},"geometry":{"x":164159.56000000052,"y":2552145.7200000007}},{"attributes":{"ID":470111,"DIS_CODE":0,"TOWNNAME":"安南區","LI":"公\u25A0里","LIN":"5鄰","STREET":"安興街","SECT":" ","MAREA":" ","LANE":" ","ALLEY":" ","HOUSE_NO":"１３０號","E_COORD97":164154.41,"N_COORD97":2552141.6600000001,"ADDRESS":"安興街１３０號","OBJECTID":470086},"geometry":{"x":164154.41000000108,"y":2552141.6600000001}},{"attributes":{"ID":470112,"DIS_CODE":0,"TOWNNAME":"安南區","LI":"南興里","LIN":"5鄰","STREET":"安興街","SECT":" ","MAREA":" ","LANE":" ","ALLEY":" ","HOUSE_NO":"３４８號","E_COORD97":163817.39000000001,"N_COORD97":2552320.2200000002,"ADDRESS":"安興街３４８號","OBJECTID":470087},"geometry":{"x":163817.38999999966,"y":2552320.2200000025}},{"attributes":{"ID":470113,"DIS_CODE":0,"TOWNNAME":"安南區","LI":"南興里","LIN":"5鄰","STREET":"安興街","SECT":" ","MAREA":" ","LANE":" ","ALLEY":" ","HOUSE_NO":"３６２號","E_COORD97":163760.03,"N_COORD97":2552378.04,"ADDRESS":"安興街３６２號","OBJECTID":470088},"geometry":{"x":163760.02999999933,"y":2552378.040000001}},{"attributes":{"ID":470114,"DIS_CODE":0,"TOWNNAME":"安南區","LI":"南興里","LIN":"5鄰","STREET":"安興街","SECT":" ","MAREA":" ","LANE":" ","ALLEY":" ","HOUSE_NO":"３７２號","E_COORD97":163747.92000000001,"N_COORD97":2552361.2200000002,"ADDRESS":"安興街３７２號","OBJECTID":470089},"geometry":{"x":163747.91999999993,"y":2552361.2200000025}},{"attributes":{"ID":470115,"DIS_CODE":0,"TOWNNAME":"安南區","LI":"南興里","LIN":"5鄰","STREET":"安興街","SECT":" ","MAREA":" ","LANE":" ","ALLEY":" ","HOUSE_NO":"３７６號","E_COORD97":163732.66,"N_COORD97":2552347.0299999998,"ADDRESS":"安興街３７６號","OBJECTID":470090},"geometry":{"x":163732.66000000108,"y":2552347.0300000012}},{"attributes":{"ID":470116,"DIS_CODE":0,"TOWNNAME":"麻豆區","LI":"大埕里","LIN":"5鄰","STREET":"文昌路","SECT":" ","MAREA":" ","LANE":" ","ALLEY":" ","HOUSE_NO":"１７號之１","E_COORD97":173431.34,"N_COORD97":2564927.3500000001,"ADDRESS":"文昌路１７號之１","OBJECTID":470091},"geometry":{"x":173431.33999999985,"y":2564927.3500000015}},{"attributes":{"ID":470117,"DIS_CODE":0,"TOWNNAME":"安南區","LI":"城東里","LIN":"5鄰","STREET":"城北路","SECT":" ","MAREA":" ","LANE":" ","ALLEY":" ","HOUSE_NO":"１４０號","E_COORD97":161027.66,"N_COORD97":2551671.0699999998,"ADDRESS":"城北路１４０號","OBJECTID":470092},"geometry":{"x":161027.66000000015,"y":2551671.0700000022}},{"attributes":{"ID":470118,"DIS_CODE":0,"TOWNNAME":"安南區","LI":"城東里","LIN":"5鄰","STREET":"城北路","SECT":" ","MAREA":" ","LANE":" ","ALLEY":" ","HOUSE_NO":"１５０號","E_COORD97":161023.32999999999,"N_COORD97":2551692.8399999999,"ADDRESS":"城北路１５０號","OBJECTID":470093},"geometry":{"x":161023.33000000007,"y":2551692.8399999999}},{"attributes":{"ID":470119,"DIS_CODE":0,"TOWNNAME":"安南區","LI":"城東里","LIN":"5鄰","STREET":"城北路","SECT":" ","MAREA":" ","LANE":" ","ALLEY":" ","HOUSE_NO":"１５６號","E_COORD97":161022.34,"N_COORD97":2551704.6299999999,"ADDRESS":"城北路１５６號","OBJECTID":470094},"geometry":{"x":161022.34000000078,"y":2551704.6299999971}},{"attributes":{"ID":470120,"DIS_CODE":0,"TOWNNAME":"安南區","LI":"城東里","LIN":"5鄰","STREET":"城北路","SECT":" ","MAREA":" ","LANE":" ","ALLEY":" ","HOUSE_NO":"１６２號","E_COORD97":161015.84,"N_COORD97":2551713.0299999998,"ADDRESS":"城北路１６２號","OBJECTID":470095},"geometry":{"x":161015.83999999985,"y":2551713.0300000012}},{"attributes":{"ID":470121,"DIS_CODE":0,"TOWNNAME":"安南區","LI":"城東里","LIN":"5鄰","STREET":"城北路","SECT":" ","MAREA":" ","LANE":" ","ALLEY":" ","HOUSE_NO":"１７０號","E_COORD97":161008.75,"N_COORD97":2551728.48,"ADDRESS":"城北路１７０號","OBJECTID":470096},"geometry":{"x":161008.75000000186,"y":2551728.4800000023}},{"attributes":{"ID":470122,"DIS_CODE":0,"TOWNNAME":"東區","LI":"裕聖里","LIN":"5鄰","STREET":"裕孝路","SECT":" ","MAREA":" ","LANE":" ","ALLEY":" ","HOUSE_NO":"４７１號","E_COORD97":172466.88,"N_COORD97":2542270.9900000002,"ADDRESS":"裕孝路４７１號","OBJECTID":470097},"geometry":{"x":172466.87999999989,"y":2542270.9900000002}},{"attributes":{"ID":470123,"DIS_CODE":0,"TOWNNAME":"安南區","LI":"城北里","LIN":"5鄰","STREET":"安中路","SECT":"六段","MAREA":" ","LANE":" ","ALLEY":" ","HOUSE_NO":"５５６號","E_COORD97":160891.72,"N_COORD97":2551414.54,"ADDRESS":"安中路六段５５６號","OBJECTID":470098},"geometry":{"x":160891.7200000016,"y":2551414.540000001}},{"attributes":{"ID":470124,"DIS_CODE":0,"TOWNNAME":"安南區","LI":"城北里","LIN":"5鄰","STREET":"安中路","SECT":"六段","MAREA":" ","LANE":" ","ALLEY":" ","HOUSE_NO":"５５８號","E_COORD97":160888.73999999999,"N_COORD97":2551416.6000000001,"ADDRESS":"安中路六段５５８號","OBJECTID":470099},"geometry":{"x":160888.74000000209,"y":2551416.5999999996}},{"attributes":{"ID":470125,"DIS_CODE":0,"TOWNNAME":"安南區","LI":"城北里","LIN":"5鄰","STREET":"安中路","SECT":"六段","MAREA":" ","LANE":" ","ALLEY":" ","HOUSE_NO":"５６０號","E_COORD97":160886.22,"N_COORD97":2551419.3399999999,"ADDRESS":"安中路六段５６０號","OBJECTID":470100},"geometry":{"x":160886.21999999974,"y":2551419.339999998}},{"attributes":{"ID":470126,"DIS_CODE":0,"TOWNNAME":"安南區","LI":"城北里","LIN":"5鄰","STREET":"安中路","SECT":"六段","MAREA":" ","LANE":" ","ALLEY":" ","HOUSE_NO":"５７６號","E_COORD97":160864.23999999999,"N_COORD97":2551442.4700000002,"ADDRESS":"安中路六段５７６號","OBJECTID":470101},"geometry":{"x":160864.24000000022,"y":2551442.4700000007}},{"attributes":{"ID":470127,"DIS_CODE":0,"TOWNNAME":"東區","LI":"龍山里","LIN":"5鄰","STREET":"崇仁街","SECT":" ","MAREA":" ","LANE":" ","ALLEY":" ","HOUSE_NO":"５６號","E_COORD97":170306.37,"N_COORD97":2542762.2799999998,"ADDRESS":"崇仁街５６號","OBJECTID":470102},"geometry":{"x":170306.37000000104,"y":2542762.2799999993}},{"attributes":{"ID":470128,"DIS_CODE":0,"TOWNNAME":"東區","LI":"龍山里","LIN":"5鄰","STREET":"崇仁街","SECT":" ","MAREA":" ","LANE":" ","ALLEY":" ","HOUSE_NO":"５８號","E_COORD97":170314.70999999999,"N_COORD97":2542757.3199999998,"ADDRESS":"崇仁街５８號","OBJECTID":470103},"geometry":{"x":170314.71000000089,"y":2542757.3200000003}},{"attributes":{"ID":470129,"DIS_CODE":0,"TOWNNAME":"東區","LI":"龍山里","LIN":"5鄰","STREET":"崇善路","SECT":" ","MAREA":" ","LANE":" ","ALLEY":" ","HOUSE_NO":"１５１號","E_COORD97":170270.51999999999,"N_COORD97":2542441.9300000002,"ADDRESS":"崇善路１５１號","OBJECTID":470104},"geometry":{"x":170270.51999999862,"y":2542441.9300000016}},{"attributes":{"ID":470130,"DIS_CODE":0,"TOWNNAME":"東區","LI":"裕聖里","LIN":"5鄰","STREET":"裕孝路","SECT":" ","MAREA":" ","LANE":" ","ALLEY":" ","HOUSE_NO":"４６９號","E_COORD97":172472.14999999999,"N_COORD97":2542270.7400000002,"ADDRESS":"裕孝路４６９號","OBJECTID":470105},"geometry":{"x":172472.15000000037,"y":2542270.7400000021}},{"attributes":{"ID":470131,"DIS_CODE":0,"TOWNNAME":"東區","LI":"裕聖里","LIN":"5鄰","STREET":"裕孝路","SECT":" ","MAREA":" ","LANE":" ","ALLEY":" ","HOUSE_NO":"４２３號","E_COORD97":172444.64000000001,"N_COORD97":2542282.2999999998,"ADDRESS":"裕孝路４２３號","OBJECTID":470106},"geometry":{"x":172444.63999999966,"y":2542282.3000000007}},{"attributes":{"ID":470132,"DIS_CODE":0,"TOWNNAME":"東區","LI":"裕聖里","LIN":"5鄰","STREET":"裕孝路","SECT":" ","MAREA":" ","LANE":" ","ALLEY":" ","HOUSE_NO":"４２５號","E_COORD97":172449.97,"N_COORD97":2542282.1600000001,"ADDRESS":"裕孝路４２５號","OBJECTID":470107},"geometry":{"x":172449.97000000067,"y":2542282.160000002}},{"attributes":{"ID":470133,"DIS_CODE":0,"TOWNNAME":"東區","LI":"裕聖里","LIN":"5鄰","STREET":"裕孝路","SECT":" ","MAREA":" ","LANE":" ","ALLEY":" ","HOUSE_NO":"４３７號","E_COORD97":172477.37,"N_COORD97":2542281.5800000001,"ADDRESS":"裕孝路４３７號","OBJECTID":470108},"geometry":{"x":172477.37000000011,"y":2542281.5800000019}},{"attributes":{"ID":470134,"DIS_CODE":0,"TOWNNAME":"東區","LI":"裕聖里","LIN":"5鄰","STREET":"裕孝路","SECT":" ","MAREA":" ","LANE":" ","ALLEY":" ","HOUSE_NO":"４２７號","E_COORD97":172455.16,"N_COORD97":2542282.2999999998,"ADDRESS":"裕孝路４２７號","OBJECTID":470109},"geometry":{"x":172455.16000000015,"y":2542282.3000000007}},{"attributes":{"ID":470135,"DIS_CODE":0,"TOWNNAME":"東區","LI":"裕聖里","LIN":"5鄰","STREET":"裕孝路","SECT":" ","MAREA":" ","LANE":" ","ALLEY":" ","HOUSE_NO":"４２９號","E_COORD97":172458.91,"N_COORD97":2542282.02,"ADDRESS":"裕孝路４２９號","OBJECTID":470110},"geometry":{"x":172458.91000000201,"y":2542282.0200000014}},{"attributes":{"ID":470136,"DIS_CODE":0,"TOWNNAME":"東區","LI":"裕聖里","LIN":"5鄰","STREET":"裕孝路","SECT":" ","MAREA":" ","LANE":" ","ALLEY":" ","HOUSE_NO":"４３１號","E_COORD97":172462.37,"N_COORD97":2542282.02,"ADDRESS":"裕孝路４３１號","OBJECTID":470111},"geometry":{"x":172462.36999999918,"y":2542282.0200000014}},{"attributes":{"ID":470137,"DIS_CODE":0,"TOWNNAME":"東區","LI":"裕聖里","LIN":"5鄰","STREET":"裕孝路","SECT":" ","MAREA":" ","LANE":" ","ALLEY":" ","HOUSE_NO":"４３３號","E_COORD97":172466.84,"N_COORD97":2542281.73,"ADDRESS":"裕孝路４３３號","OBJECTID":470112},"geometry":{"x":172466.83999999985,"y":2542281.7300000023}},{"attributes":{"ID":470138,"DIS_CODE":0,"TOWNNAME":"東區","LI":"裕聖里","LIN":"5鄰","STREET":"裕孝路","SECT":" ","MAREA":" ","LANE":" ","ALLEY":" ","HOUSE_NO":"４３５號","E_COORD97":172471.73999999999,"N_COORD97":2542281.5800000001,"ADDRESS":"裕孝路４３５號","OBJECTID":470113},"geometry":{"x":172471.74000000022,"y":2542281.5800000019}},{"attributes":{"ID":470139,"DIS_CODE":0,"TOWNNAME":"東區","LI":"裕聖里","LIN":"5鄰","STREET":"裕孝路","SECT":" ","MAREA":" ","LANE":" ","ALLEY":" ","HOUSE_NO":"４３９號","E_COORD97":172480.97,"N_COORD97":2542281.5800000001,"ADDRESS":"裕孝路４３９號","OBJECTID":470114},"geometry":{"x":172480.96999999974,"y":2542281.5800000019}},{"attributes":{"ID":470140,"DIS_CODE":0,"TOWNNAME":"東區","LI":"裕聖里","LIN":"5鄰","STREET":"裕孝路","SECT":" ","MAREA":" ","LANE":" ","ALLEY":" ","HOUSE_NO":"４４１號","E_COORD97":172486.60000000001,"N_COORD97":2542281.8700000001,"ADDRESS":"裕孝路４４１號","OBJECTID":470115},"geometry":{"x":172486.60000000056,"y":2542281.8700000029}},{"attributes":{"ID":470141,"DIS_CODE":0,"TOWNNAME":"東區","LI":"裕聖里","LIN":"5鄰","STREET":"裕孝路","SECT":" ","MAREA":" ","LANE":" ","ALLEY":" ","HOUSE_NO":"４４３號","E_COORD97":172490.78,"N_COORD97":2542281.73,"ADDRESS":"裕孝路４４３號","OBJECTID":470116},"geometry":{"x":172490.78000000119,"y":2542281.7300000023}},{"attributes":{"ID":470142,"DIS_CODE":0,"TOWNNAME":"東區","LI":"裕聖里","LIN":"5鄰","STREET":"裕孝路","SECT":" ","MAREA":" ","LANE":" ","ALLEY":" ","HOUSE_NO":"４４５號","E_COORD97":172495.82000000001,"N_COORD97":2542281.5800000001,"ADDRESS":"裕孝路４４５號","OBJECTID":470117},"geometry":{"x":172495.82000000123,"y":2542281.5800000019}},{"attributes":{"ID":470143,"DIS_CODE":0,"TOWNNAME":"東區","LI":"裕聖里","LIN":"5鄰","STREET":"裕孝路","SECT":" ","MAREA":" ","LANE":" ","ALLEY":" ","HOUSE_NO":"４４７號","E_COORD97":172500.87,"N_COORD97":2542281.5800000001,"ADDRESS":"裕孝路４４７號","OBJECTID":470118},"geometry":{"x":172500.87000000011,"y":2542281.5800000019}},{"attributes":{"ID":470144,"DIS_CODE":0,"TOWNNAME":"東區","LI":"裕聖里","LIN":"5鄰","STREET":"裕孝路","SECT":" ","MAREA":" ","LANE":" ","ALLEY":" ","HOUSE_NO":"４４９號","E_COORD97":172505.76999999999,"N_COORD97":2542281.73,"ADDRESS":"裕孝路４４９號","OBJECTID":470119},"geometry":{"x":172505.76999999955,"y":2542281.7300000023}},{"attributes":{"ID":470145,"DIS_CODE":0,"TOWNNAME":"東區","LI":"裕聖里","LIN":"5鄰","STREET":"裕孝路","SECT":" ","MAREA":" ","LANE":" ","ALLEY":" ","HOUSE_NO":"４５１號","E_COORD97":172510.53,"N_COORD97":2542281.5800000001,"ADDRESS":"裕孝路４５１號","OBJECTID":470120},"geometry":{"x":172510.53000000026,"y":2542281.5800000019}},{"attributes":{"ID":470146,"DIS_CODE":0,"TOWNNAME":"東區","LI":"裕聖里","LIN":"5鄰","STREET":"裕孝路","SECT":" ","MAREA":" ","LANE":" ","ALLEY":" ","HOUSE_NO":"４５３號","E_COORD97":172510.35999999999,"N_COORD97":2542269.3999999999,"ADDRESS":"裕孝路４５３號","OBJECTID":470121},"geometry":{"x":172510.36000000127,"y":2542269.4000000022}},{"attributes":{"ID":470147,"DIS_CODE":0,"TOWNNAME":"東區","LI":"裕聖里","LIN":"5鄰","STREET":"裕孝路","SECT":" ","MAREA":" ","LANE":" ","ALLEY":" ","HOUSE_NO":"４５５號","E_COORD97":172505.70000000001,"N_COORD97":2542269.7599999998,"ADDRESS":"裕孝路４５５號","OBJECTID":470122},"geometry":{"x":172505.70000000019,"y":2542269.7600000016}},{"attributes":{"ID":470148,"DIS_CODE":0,"TOWNNAME":"東區","LI":"裕聖里","LIN":"5鄰","STREET":"裕孝路","SECT":" ","MAREA":" ","LANE":" ","ALLEY":" ","HOUSE_NO":"４５７號","E_COORD97":172500.92999999999,"N_COORD97":2542269.7599999998,"ADDRESS":"裕孝路４５７號","OBJECTID":470123},"geometry":{"x":172500.93000000063,"y":2542269.7600000016}},{"attributes":{"ID":470149,"DIS_CODE":0,"TOWNNAME":"東區","LI":"裕聖里","LIN":"5鄰","STREET":"裕孝路","SECT":" ","MAREA":" ","LANE":" ","ALLEY":" ","HOUSE_NO":"４５９號","E_COORD97":172496.14999999999,"N_COORD97":2542269.8900000001,"ADDRESS":"裕孝路４５９號","OBJECTID":470124},"geometry":{"x":172496.15000000037,"y":2542269.8900000025}},{"attributes":{"ID":470150,"DIS_CODE":0,"TOWNNAME":"東區","LI":"裕聖里","LIN":"5鄰","STREET":"裕孝路","SECT":" ","MAREA":" ","LANE":" ","ALLEY":" ","HOUSE_NO":"４６１號","E_COORD97":172491.62,"N_COORD97":2542270.0099999998,"ADDRESS":"裕孝路４６１號","OBJECTID":470125},"geometry":{"x":172491.62000000104,"y":2542270.0099999998}},{"attributes":{"ID":470151,"DIS_CODE":0,"TOWNNAME":"東區","LI":"裕聖里","LIN":"5鄰","STREET":"裕孝路","SECT":" ","MAREA":" ","LANE":" ","ALLEY":" ","HOUSE_NO":"４６３號","E_COORD97":172487.34,"N_COORD97":2542270.25,"ADDRESS":"裕孝路４６３號","OBJECTID":470126},"geometry":{"x":172487.33999999985,"y":2542270.2500000019}},{"attributes":{"ID":470152,"DIS_CODE":0,"TOWNNAME":"東區","LI":"裕聖里","LIN":"5鄰","STREET":"裕孝路","SECT":" ","MAREA":" ","LANE":" ","ALLEY":" ","HOUSE_NO":"４６５號","E_COORD97":172481.95000000001,"N_COORD97":2542269.6400000001,"ADDRESS":"裕孝路４６５號","OBJECTID":470127},"geometry":{"x":172481.95000000019,"y":2542269.6400000006}},{"attributes":{"ID":470153,"DIS_CODE":0,"TOWNNAME":"東區","LI":"裕聖里","LIN":"5鄰","STREET":"裕孝路","SECT":" ","MAREA":" ","LANE":" ","ALLEY":" ","HOUSE_NO":"４６７號","E_COORD97":172477.54000000001,"N_COORD97":2542270.25,"ADDRESS":"裕孝路４６７號","OBJECTID":470128},"geometry":{"x":172477.54000000004,"y":2542270.2500000019}},{"attributes":{"ID":470154,"DIS_CODE":0,"TOWNNAME":"東區","LI":"裕聖里","LIN":"5鄰","STREET":"裕孝路","SECT":" ","MAREA":" ","LANE":" ","ALLEY":" ","HOUSE_NO":"４８１號","E_COORD97":172443.73999999999,"N_COORD97":2542271.23,"ADDRESS":"裕孝路４８１號","OBJECTID":470129},"geometry":{"x":172443.74000000115,"y":2542271.2300000023}},{"attributes":{"ID":470155,"DIS_CODE":0,"TOWNNAME":"東區","LI":"裕聖里","LIN":"5鄰","STREET":"裕孝路","SECT":" ","MAREA":" ","LANE":" ","ALLEY":" ","HOUSE_NO":"４７９號","E_COORD97":172449.13,"N_COORD97":2542271.1099999999,"ADDRESS":"裕孝路４７９號","OBJECTID":470130},"geometry":{"x":172449.13000000082,"y":2542271.1100000013}},{"attributes":{"ID":470156,"DIS_CODE":0,"TOWNNAME":"東區","LI":"裕聖里","LIN":"5鄰","STREET":"裕孝路","SECT":" ","MAREA":" ","LANE":" ","ALLEY":" ","HOUSE_NO":"４７７號","E_COORD97":172453.54000000001,"N_COORD97":2542271.1099999999,"ADDRESS":"裕孝路４７７號","OBJECTID":470131},"geometry":{"x":172453.54000000097,"y":2542271.1100000013}},{"attributes":{"ID":470157,"DIS_CODE":0,"TOWNNAME":"東區","LI":"裕聖里","LIN":"5鄰","STREET":"裕孝路","SECT":" ","MAREA":" ","LANE":" ","ALLEY":" ","HOUSE_NO":"４７５號","E_COORD97":172457.70000000001,"N_COORD97":2542271.23,"ADDRESS":"裕孝路４７５號","OBJECTID":470132},"geometry":{"x":172457.70000000112,"y":2542271.2300000023}},{"attributes":{"ID":470158,"DIS_CODE":0,"TOWNNAME":"東區","LI":"裕聖里","LIN":"5鄰","STREET":"裕孝路","SECT":" ","MAREA":" ","LANE":" ","ALLEY":" ","HOUSE_NO":"４７３號","E_COORD97":172461.73999999999,"N_COORD97":2542271.23,"ADDRESS":"裕孝路４７３號","OBJECTID":470133},"geometry":{"x":172461.74000000209,"y":2542271.2300000023}},{"attributes":{"ID":470159,"DIS_CODE":0,"TOWNNAME":"善化區","LI":"坐駕里","LIN":"5鄰","STREET":"民生路","SECT":" ","MAREA":" ","LANE":" ","ALLEY":" ","HOUSE_NO":"４４１號","E_COORD97":177755.07000000001,"N_COORD97":2558851.0099999998,"ADDRESS":"民生路４４１號","OBJECTID":470134},"geometry":{"x":177755.0700000003,"y":2558851.0100000016}},{"attributes":{"ID":470160,"DIS_CODE":0,"TOWNNAME":"善化區","LI":"東關里","LIN":"5鄰","STREET":"中山路","SECT":" ","MAREA":" ","LANE":" ","ALLEY":" ","HOUSE_NO":"４２６號","E_COORD97":177381.62,"N_COORD97":2559122.75,"ADDRESS":"中山路４２６號","OBJECTID":470135},"geometry":{"x":177381.62000000011,"y":2559122.75}},{"attributes":{"ID":470161,"DIS_CODE":0,"TOWNNAME":"善化區","LI":"北關里","LIN":"5鄰","STREET":"中山路","SECT":" ","MAREA":" ","LANE":" ","ALLEY":" ","HOUSE_NO":"５１６號之３","E_COORD97":177144.07000000001,"N_COORD97":2559157.77,"ADDRESS":"中山路５１６號之３","OBJECTID":470136},"geometry":{"x":177144.07000000123,"y":2559157.7700000014}},{"attributes":{"ID":470162,"DIS_CODE":0,"TOWNNAME":"善化區","LI":"西關里","LIN":"5鄰","STREET":"中山路","SECT":" ","MAREA":" ","LANE":" ","ALLEY":" ","HOUSE_NO":"５０９號","E_COORD97":177145.87,"N_COORD97":2559135.75,"ADDRESS":"中山路５０９號","OBJECTID":470137},"geometry":{"x":177145.87000000011,"y":2559135.75}},{"attributes":{"ID":470163,"DIS_CODE":0,"TOWNNAME":"善化區","LI":"東關里","LIN":"5鄰","STREET":"中山路","SECT":" ","MAREA":" ","LANE":" ","ALLEY":" ","HOUSE_NO":"４４８號","E_COORD97":177332.97,"N_COORD97":2559127.5,"ADDRESS":"中山路４４８號","OBJECTID":470138},"geometry":{"x":177332.96999999974,"y":2559127.5}},{"attributes":{"ID":470164,"DIS_CODE":0,"TOWNNAME":"善化區","LI":"坐駕里","LIN":"5鄰","STREET":"民生路","SECT":" ","MAREA":" ","LANE":" ","ALLEY":" ","HOUSE_NO":"４０３號","E_COORD97":177898.98000000001,"N_COORD97":2558864.2599999998,"ADDRESS":"民生路４０３號","OBJECTID":470139},"geometry":{"x":177898.98000000138,"y":2558864.2599999998}},{"attributes":{"ID":470165,"DIS_CODE":0,"TOWNNAME":"善化區","LI":"坐駕里","LIN":"5鄰","STREET":"民生路","SECT":" ","MAREA":" ","LANE":" ","ALLEY":" ","HOUSE_NO":"３８１號","E_COORD97":177951.25,"N_COORD97":2558872.2599999998,"ADDRESS":"民生路３８１號","OBJECTID":470140},"geometry":{"x":177951.25000000093,"y":2558872.2600000035}},{"attributes":{"ID":470166,"DIS_CODE":0,"TOWNNAME":"善化區","LI":"文正里","LIN":"5鄰","STREET":"文正路","SECT":" ","MAREA":" ","LANE":" ","ALLEY":" ","HOUSE_NO":"７３號之３","E_COORD97":177151.64000000001,"N_COORD97":2559311.5299999998,"ADDRESS":"文正路７３號之３","OBJECTID":470141},"geometry":{"x":177151.63999999966,"y":2559311.5300000012}},{"attributes":{"ID":470167,"DIS_CODE":0,"TOWNNAME":"善化區","LI":"坐駕里","LIN":"5鄰","STREET":"民生路","SECT":" ","MAREA":" ","LANE":" ","ALLEY":" ","HOUSE_NO":"４３２號","E_COORD97":177787.38,"N_COORD97":2558869.2599999998,"ADDRESS":"民生路４３２號","OBJECTID":470142},"geometry":{"x":177787.38000000082,"y":2558869.2600000016}},{"attributes":{"ID":470168,"DIS_CODE":0,"TOWNNAME":"善化區","LI":"南關里","LIN":"5鄰","STREET":"永安路","SECT":" ","MAREA":" ","LANE":" ","ALLEY":" ","HOUSE_NO":"６５號","E_COORD97":177107.53,"N_COORD97":2558712.02,"ADDRESS":"永安路６５號","OBJECTID":470143},"geometry":{"x":177107.53000000026,"y":2558712.0200000014}},{"attributes":{"ID":470169,"DIS_CODE":0,"TOWNNAME":"善化區","LI":"南關里","LIN":"5鄰","STREET":"永安路","SECT":" ","MAREA":" ","LANE":" ","ALLEY":" ","HOUSE_NO":"５６號","E_COORD97":177092.42999999999,"N_COORD97":2558698.77,"ADDRESS":"永安路５６號","OBJECTID":470144},"geometry":{"x":177092.4299999997,"y":2558698.7700000033}},{"attributes":{"ID":470170,"DIS_CODE":0,"TOWNNAME":"仁德區","LI":"上崙里","LIN":"5鄰","STREET":"德南路","SECT":" ","MAREA":" ","LANE":" ","ALLEY":" ","HOUSE_NO":"４３１號","E_COORD97":173936.62,"N_COORD97":2538162.02,"ADDRESS":"德南路４３１號","OBJECTID":470145},"geometry":{"x":173936.62000000011,"y":2538162.0200000014}},{"attributes":{"ID":470171,"DIS_CODE":0,"TOWNNAME":"仁德區","LI":"一甲里","LIN":"5鄰","STREET":"正義三街","SECT":" ","MAREA":" ","LANE":" ","ALLEY":" ","HOUSE_NO":"８９號","E_COORD97":173694.48999999999,"N_COORD97":2541644.77,"ADDRESS":"正義三街８９號","OBJECTID":470146},"geometry":{"x":173694.49000000115,"y":2541644.7699999996}},{"attributes":{"ID":470172,"DIS_CODE":0,"TOWNNAME":"仁德區","LI":"二行里","LIN":"5鄰","STREET":"行大街","SECT":" ","MAREA":" ","LANE":" ","ALLEY":" ","HOUSE_NO":"２號","E_COORD97":170375.92000000001,"N_COORD97":2535271.9900000002,"ADDRESS":"行大街２號","OBJECTID":470147},"geometry":{"x":170375.92000000086,"y":2535271.9900000021}},{"attributes":{"ID":470173,"DIS_CODE":0,"TOWNNAME":"仁德區","LI":"上崙里","LIN":"5鄰","STREET":"德南路","SECT":" ","MAREA":" ","LANE":" ","ALLEY":" ","HOUSE_NO":"３８２號","E_COORD97":173919.37,"N_COORD97":2538165.52,"ADDRESS":"德南路３８２號","OBJECTID":470148},"geometry":{"x":173919.37000000104,"y":2538165.5200000014}},{"attributes":{"ID":470174,"DIS_CODE":0,"TOWNNAME":"仁德區","LI":"上崙里","LIN":"5鄰","STREET":"德崙路","SECT":" ","MAREA":" ","LANE":" ","ALLEY":" ","HOUSE_NO":"３１９號","E_COORD97":173941.98000000001,"N_COORD97":2538130.27,"ADDRESS":"德崙路３１９號","OBJECTID":470149},"geometry":{"x":173941.98000000231,"y":2538130.2700000014}},{"attributes":{"ID":470175,"DIS_CODE":0,"TOWNNAME":"仁德區","LI":"上崙里","LIN":"5鄰","STREET":"德南路","SECT":" ","MAREA":" ","LANE":" ","ALLEY":" ","HOUSE_NO":"４１３號","E_COORD97":173931.98999999999,"N_COORD97":2538211.5099999998,"ADDRESS":"德南路４１３號","OBJECTID":470150},"geometry":{"x":173931.99000000115,"y":2538211.5099999998}},{"attributes":{"ID":470176,"DIS_CODE":0,"TOWNNAME":"仁德區","LI":"上崙里","LIN":"5鄰","STREET":"德南路","SECT":" ","MAREA":" ","LANE":" ","ALLEY":" ","HOUSE_NO":"４３９號","E_COORD97":173937.16,"N_COORD97":2538138.52,"ADDRESS":"德南路４３９號","OBJECTID":470151},"geometry":{"x":173937.16000000201,"y":2538138.5200000014}},{"attributes":{"ID":470177,"DIS_CODE":0,"TOWNNAME":"仁德區","LI":"上崙里","LIN":"5鄰","STREET":"德崙路","SECT":" ","MAREA":" ","LANE":" ","ALLEY":" ","HOUSE_NO":"３３７號","E_COORD97":173982.42999999999,"N_COORD97":2538130.27,"ADDRESS":"德崙路３３７號","OBJECTID":470152},"geometry":{"x":173982.43000000063,"y":2538130.2700000014}},{"attributes":{"ID":470178,"DIS_CODE":0,"TOWNNAME":"仁德區","LI":"二行里","LIN":"5鄰","STREET":"二行一路","SECT":" ","MAREA":" ","LANE":" ","ALLEY":" ","HOUSE_NO":"６號","E_COORD97":170416.09,"N_COORD97":2535215.7400000002,"ADDRESS":"二行一路６號","OBJECTID":470153},"geometry":{"x":170416.08999999985,"y":2535215.7400000021}},{"attributes":{"ID":470179,"DIS_CODE":0,"TOWNNAME":"仁德區","LI":"二行里","LIN":"5鄰","STREET":"二行一路","SECT":" ","MAREA":" ","LANE":" ","ALLEY":" ","HOUSE_NO":"１８之１號","E_COORD97":170410.59,"N_COORD97":2535267.5499999998,"ADDRESS":"二行一路１８之１號","OBJECTID":470154},"geometry":{"x":170410.58999999985,"y":2535267.5500000045}},{"attributes":{"ID":470180,"DIS_CODE":0,"TOWNNAME":"仁德區","LI":"上崙里","LIN":"5鄰","STREET":"德崙路","SECT":" ","MAREA":" ","LANE":" ","ALLEY":" ","HOUSE_NO":"３０１號","E_COORD97":173882.79000000001,"N_COORD97":2538133.02,"ADDRESS":"德崙路３０１號","OBJECTID":470155},"geometry":{"x":173882.79000000004,"y":2538133.0199999996}},{"attributes":{"ID":470181,"DIS_CODE":0,"TOWNNAME":"仁德區","LI":"二行里","LIN":"5鄰","STREET":"二行一路","SECT":" ","MAREA":" ","LANE":" ","ALLEY":" ","HOUSE_NO":"１８號","E_COORD97":170409.56,"N_COORD97":2535271.9900000002,"ADDRESS":"二行一路１８號","OBJECTID":470156},"geometry":{"x":170409.56000000145,"y":2535271.9900000021}},{"attributes":{"ID":470182,"DIS_CODE":0,"TOWNNAME":"仁德區","LI":"上崙里","LIN":"5鄰","STREET":"德崙路","SECT":" ","MAREA":" ","LANE":" ","ALLEY":" ","HOUSE_NO":"３３９號","E_COORD97":173985.84,"N_COORD97":2538130.77,"ADDRESS":"德崙路３３９號","OBJECTID":470157},"geometry":{"x":173985.83999999985,"y":2538130.7700000014}},{"attributes":{"ID":470183,"DIS_CODE":0,"TOWNNAME":"仁德區","LI":"上崙里","LIN":"5鄰","STREET":"德崙路","SECT":" ","MAREA":" ","LANE":" ","ALLEY":" ","HOUSE_NO":"３１３號","E_COORD97":173914.01000000001,"N_COORD97":2538131.77,"ADDRESS":"德崙路３１３號","OBJECTID":470158},"geometry":{"x":173914.01000000164,"y":2538131.7699999996}},{"attributes":{"ID":470184,"DIS_CODE":0,"TOWNNAME":"仁德區","LI":"上崙里","LIN":"5鄰","STREET":"德崙路","SECT":" ","MAREA":" ","LANE":" ","ALLEY":" ","HOUSE_NO":"３４５號","E_COORD97":174000.92999999999,"N_COORD97":2538133.52,"ADDRESS":"德崙路３４５號","OBJECTID":470159},"geometry":{"x":174000.93000000156,"y":2538133.5199999996}},{"attributes":{"ID":470185,"DIS_CODE":0,"TOWNNAME":"仁德區","LI":"上崙里","LIN":"5鄰","STREET":"德崙路","SECT":" ","MAREA":" ","LANE":" ","ALLEY":" ","HOUSE_NO":"３３１號","E_COORD97":173971.14999999999,"N_COORD97":2538130.77,"ADDRESS":"德崙路３３１號","OBJECTID":470160},"geometry":{"x":173971.14999999944,"y":2538130.7700000014}},{"attributes":{"ID":470186,"DIS_CODE":0,"TOWNNAME":"新化區","LI":"竹林里","LIN":"5鄰","STREET":"竹林路","SECT":" ","MAREA":" ","LANE":" ","ALLEY":" ","HOUSE_NO":"２８號","E_COORD97":178859.17999999999,"N_COORD97":2548495.25,"ADDRESS":"竹林路２８號","OBJECTID":470161},"geometry":{"x":178859.17999999877,"y":2548495.2500000019}},{"attributes":{"ID":470187,"DIS_CODE":0,"TOWNNAME":"仁德區","LI":"上崙里","LIN":"5鄰","STREET":"德崙路","SECT":" ","MAREA":" ","LANE":" ","ALLEY":" ","HOUSE_NO":"３２１號","E_COORD97":173946.07000000001,"N_COORD97":2538129.77,"ADDRESS":"德崙路３２１號","OBJECTID":470162},"geometry":{"x":173946.0700000003,"y":2538129.7700000014}},{"attributes":{"ID":470188,"DIS_CODE":0,"TOWNNAME":"仁德區","LI":"上崙里","LIN":"5鄰","STREET":"德崙路","SECT":" ","MAREA":" ","LANE":" ","ALLEY":" ","HOUSE_NO":"３４１號","E_COORD97":173989.54000000001,"N_COORD97":2538130.02,"ADDRESS":"德崙路３４１號","OBJECTID":470163},"geometry":{"x":173989.54000000004,"y":2538130.0199999996}},{"attributes":{"ID":470189,"DIS_CODE":0,"TOWNNAME":"仁德區","LI":"上崙里","LIN":"5鄰","STREET":"德崙路","SECT":" ","MAREA":" ","LANE":" ","ALLEY":" ","HOUSE_NO":"３２９號","E_COORD97":173966.73999999999,"N_COORD97":2538130.27,"ADDRESS":"德崙路３２９號","OBJECTID":470164},"geometry":{"x":173966.74000000022,"y":2538130.2700000014}},{"attributes":{"ID":470190,"DIS_CODE":0,"TOWNNAME":"仁德區","LI":"上崙里","LIN":"5鄰","STREET":"德崙路","SECT":" ","MAREA":" ","LANE":" ","ALLEY":" ","HOUSE_NO":"３３３號","E_COORD97":173975.14999999999,"N_COORD97":2538130.77,"ADDRESS":"德崙路３３３號","OBJECTID":470165},"geometry":{"x":173975.1500000013,"y":2538130.7700000014}},{"attributes":{"ID":470191,"DIS_CODE":0,"TOWNNAME":"仁德區","LI":"上崙里","LIN":"5鄰","STREET":"德善路","SECT":" ","MAREA":" ","LANE":" ","ALLEY":" ","HOUSE_NO":"３７８號","E_COORD97":174038.09,"N_COORD97":2538194.2599999998,"ADDRESS":"德善路３７８號","OBJECTID":470166},"geometry":{"x":174038.08999999985,"y":2538194.2600000035}},{"attributes":{"ID":470192,"DIS_CODE":0,"TOWNNAME":"仁德區","LI":"一甲里","LIN":"5鄰","STREET":"正義三街","SECT":" ","MAREA":" ","LANE":" ","ALLEY":" ","HOUSE_NO":"７３號","E_COORD97":173623.45000000001,"N_COORD97":2541636.5099999998,"ADDRESS":"正義三街７３號","OBJECTID":470167},"geometry":{"x":173623.45000000112,"y":2541636.5099999998}},{"attributes":{"ID":470193,"DIS_CODE":0,"TOWNNAME":"仁德區","LI":"二行里","LIN":"5鄰","STREET":"二行一路","SECT":" ","MAREA":" ","LANE":" ","ALLEY":" ","HOUSE_NO":"６３號","E_COORD97":170396.85000000001,"N_COORD97":2535294.9900000002,"ADDRESS":"二行一路６３號","OBJECTID":470168},"geometry":{"x":170396.84999999963,"y":2535294.9900000021}},{"attributes":{"ID":470194,"DIS_CODE":0,"TOWNNAME":"仁德區","LI":"二行里","LIN":"5鄰","STREET":"二行一路","SECT":" ","MAREA":" ","LANE":" ","ALLEY":" ","HOUSE_NO":"５９號","E_COORD97":170393.82000000001,"N_COORD97":2535280.7400000002,"ADDRESS":"二行一路５９號","OBJECTID":470169},"geometry":{"x":170393.82000000123,"y":2535280.7400000021}},{"attributes":{"ID":470195,"DIS_CODE":0,"TOWNNAME":"仁德區","LI":"二行里","LIN":"5鄰","STREET":"二行一路","SECT":" ","MAREA":" ","LANE":" ","ALLEY":" ","HOUSE_NO":"２６號","E_COORD97":170413.91,"N_COORD97":2535287.4900000002,"ADDRESS":"二行一路２６號","OBJECTID":470170},"geometry":{"x":170413.91000000015,"y":2535287.4900000039}},{"attributes":{"ID":470196,"DIS_CODE":0,"TOWNNAME":"仁德區","LI":"二行里","LIN":"5鄰","STREET":"二行一路","SECT":" ","MAREA":" ","LANE":" ","ALLEY":" ","HOUSE_NO":"２２號","E_COORD97":170412.39000000001,"N_COORD97":2535280.2400000002,"ADDRESS":"二行一路２２號","OBJECTID":470171},"geometry":{"x":170412.39000000153,"y":2535280.2400000021}},{"attributes":{"ID":470197,"DIS_CODE":0,"TOWNNAME":"新化區","LI":"清水里","LIN":"5鄰","STREET":"中山路","SECT":" ","MAREA":" ","LANE":" ","ALLEY":" ","HOUSE_NO":"４８０號之１","E_COORD97":178622.64000000001,"N_COORD97":2548454.2599999998,"ADDRESS":"中山路４８０號之１","OBJECTID":470172},"geometry":{"x":178622.6400000006,"y":2548454.2600000016}},{"attributes":{"ID":470198,"DIS_CODE":0,"TOWNNAME":"新化區","LI":"協興里","LIN":"5鄰","STREET":"中山路","SECT":" ","MAREA":" ","LANE":" ","ALLEY":" ","HOUSE_NO":"５８４號","E_COORD97":178384.51000000001,"N_COORD97":2548475.25,"ADDRESS":"中山路５８４號","OBJECTID":470173},"geometry":{"x":178384.51000000071,"y":2548475.2500000019}},{"attributes":{"ID":470199,"DIS_CODE":0,"TOWNNAME":"新化區","LI":"中央里","LIN":"5鄰","STREET":"中山路","SECT":" ","MAREA":" ","LANE":" ","ALLEY":" ","HOUSE_NO":"３３１號","E_COORD97":178912.41,"N_COORD97":2548408.25,"ADDRESS":"中山路３３１號","OBJECTID":470174},"geometry":{"x":178912.41000000201,"y":2548408.25}},{"attributes":{"ID":470200,"DIS_CODE":0,"TOWNNAME":"新化區","LI":"協興里","LIN":"5鄰","STREET":"忠孝路","SECT":" ","MAREA":" ","LANE":" ","ALLEY":" ","HOUSE_NO":"２８３號","E_COORD97":178371.42000000001,"N_COORD97":2548538.25,"ADDRESS":"忠孝路２８３號","OBJECTID":470175},"geometry":{"x":178371.42000000179,"y":2548538.25}},{"attributes":{"ID":470201,"DIS_CODE":0,"TOWNNAME":"新化區","LI":"協興里","LIN":"5鄰","STREET":"忠孝路","SECT":" ","MAREA":" ","LANE":" ","ALLEY":" ","HOUSE_NO":"２８５號","E_COORD97":178368.51999999999,"N_COORD97":2548537.25,"ADDRESS":"忠孝路２８５號","OBJECTID":470176},"geometry":{"x":178368.52000000142,"y":2548537.25}},{"attributes":{"ID":470202,"DIS_CODE":0,"TOWNNAME":"新化區","LI":"清水里","LIN":"5鄰","STREET":"中山路","SECT":" ","MAREA":" ","LANE":" ","ALLEY":" ","HOUSE_NO":"４９８號","E_COORD97":178593.81,"N_COORD97":2548423.25,"ADDRESS":"中山路４９８號","OBJECTID":470177},"geometry":{"x":178593.81000000145,"y":2548423.2500000037}},{"attributes":{"ID":470203,"DIS_CODE":0,"TOWNNAME":"新化區","LI":"中央里","LIN":"5鄰","STREET":"中山路","SECT":" ","MAREA":" ","LANE":" ","ALLEY":" ","HOUSE_NO":"３３７號","E_COORD97":178901.51000000001,"N_COORD97":2548407.25,"ADDRESS":"中山路３３７號","OBJECTID":470178},"geometry":{"x":178901.51000000071,"y":2548407.2500000019}},{"attributes":{"ID":470204,"DIS_CODE":0,"TOWNNAME":"新化區","LI":"竹林里","LIN":"5鄰","STREET":"竹林路","SECT":" ","MAREA":" ","LANE":" ","ALLEY":" ","HOUSE_NO":"５０號","E_COORD97":178849.28,"N_COORD97":2548539.25,"ADDRESS":"竹林路５０號","OBJECTID":470179},"geometry":{"x":178849.28000000119,"y":2548539.2500000019}},{"attributes":{"ID":470205,"DIS_CODE":0,"TOWNNAME":"南區","LI":"大成里","LIN":"5鄰","STREET":"水交社路","SECT":" ","MAREA":" ","LANE":" ","ALLEY":" ","HOUSE_NO":"３３６號","E_COORD97":168052.57000000001,"N_COORD97":2542300.96,"ADDRESS":"水交社路３３６號","OBJECTID":470180},"geometry":{"x":168052.57000000123,"y":2542300.9600000028}},{"attributes":{"ID":470206,"DIS_CODE":0,"TOWNNAME":"安南區","LI":"大安里","LIN":"5鄰","STREET":"理安街","SECT":" ","MAREA":" ","LANE":" ","ALLEY":" ","HOUSE_NO":"７３號","E_COORD97":167348.51000000001,"N_COORD97":2548029.3900000001,"ADDRESS":"理安街７３號","OBJECTID":470181},"geometry":{"x":167348.51000000164,"y":2548029.3899999987}},{"attributes":{"ID":470207,"DIS_CODE":0,"TOWNNAME":"安南區","LI":"大安里","LIN":"5鄰","STREET":"大安街","SECT":" ","MAREA":" ","LANE":" ","ALLEY":" ","HOUSE_NO":"１００號","E_COORD97":167250.82999999999,"N_COORD97":2548069.0800000001,"ADDRESS":"大安街１００號","OBJECTID":470182},"geometry":{"x":167250.83000000007,"y":2548069.0800000019}},{"attributes":{"ID":470208,"DIS_CODE":0,"TOWNNAME":"安南區","LI":"大安里","LIN":"5鄰","STREET":"大安街","SECT":" ","MAREA":" ","LANE":" ","ALLEY":" ","HOUSE_NO":"１０２號","E_COORD97":167253.13,"N_COORD97":2548073.4900000002,"ADDRESS":"大安街１０２號","OBJECTID":470183},"geometry":{"x":167253.13000000082,"y":2548073.4900000021}},{"attributes":{"ID":470209,"DIS_CODE":0,"TOWNNAME":"安南區","LI":"大安里","LIN":"5鄰","STREET":"大安街","SECT":" ","MAREA":" ","LANE":" ","ALLEY":" ","HOUSE_NO":"１０４號","E_COORD97":167256.04000000001,"N_COORD97":2548077.29,"ADDRESS":"大安街１０４號","OBJECTID":470184},"geometry":{"x":167256.04000000097,"y":2548077.290000001}},{"attributes":{"ID":470210,"DIS_CODE":0,"TOWNNAME":"安南區","LI":"大安里","LIN":"5鄰","STREET":"大安街","SECT":" ","MAREA":" ","LANE":" ","ALLEY":" ","HOUSE_NO":"１０６號","E_COORD97":167257.57000000001,"N_COORD97":2548081.7000000002,"ADDRESS":"大安街１０６號","OBJECTID":470185},"geometry":{"x":167257.57000000123,"y":2548081.7000000011}},{"attributes":{"ID":470211,"DIS_CODE":0,"TOWNNAME":"安南區","LI":"大安里","LIN":"5鄰","STREET":"大安街","SECT":" ","MAREA":" ","LANE":" ","ALLEY":" ","HOUSE_NO":"１０８號","E_COORD97":167259.88,"N_COORD97":2548085.1499999999,"ADDRESS":"大安街１０８號","OBJECTID":470186},"geometry":{"x":167259.88000000082,"y":2548085.1499999985}},{"attributes":{"ID":470212,"DIS_CODE":0,"TOWNNAME":"安南區","LI":"大安里","LIN":"5鄰","STREET":"大安街","SECT":" ","MAREA":" ","LANE":" ","ALLEY":" ","HOUSE_NO":"８４號","E_COORD97":167231.25,"N_COORD97":2548036.29,"ADDRESS":"大安街８４號","OBJECTID":470187},"geometry":{"x":167231.25,"y":2548036.290000001}},{"attributes":{"ID":470213,"DIS_CODE":0,"TOWNNAME":"安南區","LI":"大安里","LIN":"5鄰","STREET":"大安街","SECT":" ","MAREA":" ","LANE":" ","ALLEY":" ","HOUSE_NO":"８６號","E_COORD97":167232.79000000001,"N_COORD97":2548041.0899999999,"ADDRESS":"大安街８６號","OBJECTID":470188},"geometry":{"x":167232.79000000004,"y":2548041.0900000036}},{"attributes":{"ID":470214,"DIS_CODE":0,"TOWNNAME":"安南區","LI":"大安里","LIN":"5鄰","STREET":"大安街","SECT":" ","MAREA":" ","LANE":" ","ALLEY":" ","HOUSE_NO":"９０號","E_COORD97":167237.59,"N_COORD97":2548048.9500000002,"ADDRESS":"大安街９０號","OBJECTID":470189},"geometry":{"x":167237.58999999985,"y":2548048.9500000011}},{"attributes":{"ID":470215,"DIS_CODE":0,"TOWNNAME":"安南區","LI":"大安里","LIN":"5鄰","STREET":"大安街","SECT":" ","MAREA":" ","LANE":" ","ALLEY":" ","HOUSE_NO":"９８號","E_COORD97":167249.10000000001,"N_COORD97":2548065.4399999999,"ADDRESS":"大安街９８號","OBJECTID":470190},"geometry":{"x":167249.09999999963,"y":2548065.4400000032}},{"attributes":{"ID":470216,"DIS_CODE":0,"TOWNNAME":"安南區","LI":"大安里","LIN":"5鄰","STREET":"理安街","SECT":" ","MAREA":" ","LANE":" ","ALLEY":" ","HOUSE_NO":"４９號","E_COORD97":167316.95000000001,"N_COORD97":2547982.4199999999,"ADDRESS":"理安街４９號","OBJECTID":470191},"geometry":{"x":167316.94999999925,"y":2547982.4200000018}},{"attributes":{"ID":470217,"DIS_CODE":0,"TOWNNAME":"安南區","LI":"大安里","LIN":"5鄰","STREET":"理安街","SECT":" ","MAREA":" ","LANE":" ","ALLEY":" ","HOUSE_NO":"５１號","E_COORD97":167318.97,"N_COORD97":2547985.7200000002,"ADDRESS":"理安街５１號","OBJECTID":470192},"geometry":{"x":167318.97000000067,"y":2547985.7200000007}},{"attributes":{"ID":470218,"DIS_CODE":0,"TOWNNAME":"安南區","LI":"大安里","LIN":"5鄰","STREET":"理安街","SECT":" ","MAREA":" ","LANE":" ","ALLEY":" ","HOUSE_NO":"５５號","E_COORD97":167326.54999999999,"N_COORD97":2547992.0800000001,"ADDRESS":"理安街５５號","OBJECTID":470193},"geometry":{"x":167326.55000000075,"y":2547992.0800000019}},{"attributes":{"ID":470219,"DIS_CODE":0,"TOWNNAME":"安南區","LI":"大安里","LIN":"5鄰","STREET":"理安街","SECT":" ","MAREA":" ","LANE":" ","ALLEY":" ","HOUSE_NO":"５７號","E_COORD97":167324.32999999999,"N_COORD97":2547999.8700000001,"ADDRESS":"理安街５７號","OBJECTID":470194},"geometry":{"x":167324.33000000007,"y":2547999.8700000048}},{"attributes":{"ID":470220,"DIS_CODE":0,"TOWNNAME":"安南區","LI":"大安里","LIN":"5鄰","STREET":"理安街","SECT":" ","MAREA":" ","LANE":" ","ALLEY":" ","HOUSE_NO":"５９號","E_COORD97":167327.01999999999,"N_COORD97":2548003.1200000001,"ADDRESS":"理安街５９號","OBJECTID":470195},"geometry":{"x":167327.01999999955,"y":2548003.1200000029}},{"attributes":{"ID":470221,"DIS_CODE":0,"TOWNNAME":"安南區","LI":"大安里","LIN":"5鄰","STREET":"理安街","SECT":" ","MAREA":" ","LANE":" ","ALLEY":" ","HOUSE_NO":"６３號","E_COORD97":167333.16,"N_COORD97":2548012.3300000001,"ADDRESS":"理安街６３號","OBJECTID":470196},"geometry":{"x":167333.16000000108,"y":2548012.3299999982}},{"attributes":{"ID":470222,"DIS_CODE":0,"TOWNNAME":"安南區","LI":"大安里","LIN":"5鄰","STREET":"理安街","SECT":" ","MAREA":" ","LANE":" ","ALLEY":" ","HOUSE_NO":"６５號","E_COORD97":167337.95999999999,"N_COORD97":2548015.0099999998,"ADDRESS":"理安街６５號","OBJECTID":470197},"geometry":{"x":167337.96000000089,"y":2548015.0100000016}},{"attributes":{"ID":470223,"DIS_CODE":0,"TOWNNAME":"安南區","LI":"大安里","LIN":"5鄰","STREET":"理安街","SECT":" ","MAREA":" ","LANE":" ","ALLEY":" ","HOUSE_NO":"６７號","E_COORD97":167340.64000000001,"N_COORD97":2548018.46,"ADDRESS":"理安街６７號","OBJECTID":470198},"geometry":{"x":167340.64000000153,"y":2548018.4600000009}},{"attributes":{"ID":470224,"DIS_CODE":0,"TOWNNAME":"新化區","LI":"協興里","LIN":"5鄰","STREET":"忠孝路","SECT":" ","MAREA":" ","LANE":" ","ALLEY":" ","HOUSE_NO":"２９３號","E_COORD97":178348.72,"N_COORD97":2548526.25,"ADDRESS":"忠孝路２９３號","OBJECTID":470199},"geometry":{"x":178348.7200000016,"y":2548526.2500000019}},{"attributes":{"ID":470225,"DIS_CODE":0,"TOWNNAME":"新化區","LI":"竹林里","LIN":"5鄰","STREET":"竹林路","SECT":" ","MAREA":" ","LANE":" ","ALLEY":" ","HOUSE_NO":"４８號","E_COORD97":178849.38,"N_COORD97":2548535.25,"ADDRESS":"竹林路４８號","OBJECTID":470200},"geometry":{"x":178849.37999999989,"y":2548535.2500000037}}]}