{"displayFieldName":"TOWNNAME","fieldAliases":{"ID":"ID","DIS_CODE":"DIS_CODE","TOWNNAME":"TOWNNAME","LI":"LI","LIN":"LIN","STREET":"STREET","SECT":"SECT","MAREA":"MAREA","LANE":"LANE","ALLEY":"ALLEY","HOUSE_NO":"HOUSE_NO","E_COORD97":"E_COORD97","N_COORD97":"N_COORD97","ADDRESS":"ADDRESS","OBJECTID":"OBJECTID"},"geometryType":"esriGeometryPoint","spatialReference":{"wkid":102443,"latestWkid":3826},"fields":[{"name":"ID","type":"esriFieldTypeDouble","alias":"ID"},{"name":"DIS_CODE","type":"esriFieldTypeInteger","alias":"DIS_CODE"},{"name":"TOWNNAME","type":"esriFieldTypeString","alias":"TOWNNAME","length":8},{"name":"LI","type":"esriFieldTypeString","alias":"LI","length":8},{"name":"LIN","type":"esriFieldTypeString","alias":"LIN","length":12},{"name":"STREET","type":"esriFieldTypeString","alias":"STREET","length":20},{"name":"SECT","type":"esriFieldTypeString","alias":"SECT","length":8},{"name":"MAREA","type":"esriFieldTypeString","alias":"MAREA","length":12},{"name":"LANE","type":"esriFieldTypeString","alias":"LANE","length":10},{"name":"ALLEY","type":"esriFieldTypeString","alias":"ALLEY","length":10},{"name":"HOUSE_NO","type":"esriFieldTypeString","alias":"HOUSE_NO","length":20},{"name":"E_COORD97","type":"esriFieldTypeDouble","alias":"E_COORD97"},{"name":"N_COORD97","type":"esriFieldTypeDouble","alias":"N_COORD97"},{"name":"ADDRESS","type":"esriFieldTypeString","alias":"ADDRESS","length":50},{"name":"OBJECTID","type":"esriFieldTypeOID","alias":"OBJECTID"}],"features":[{"attributes":{"ID":303609,"DIS_CODE":0,"TOWNNAME":"永康區","LI":"龍潭里","LIN":"38鄰","STREET":"中山北路","SECT":" ","MAREA":" ","LANE":"１６４巷","ALLEY":" ","HOUSE_NO":"７０之１號","E_COORD97":174406.59,"N_COORD97":2547392.6099999999,"ADDRESS":"中山北路１６４巷７０之１號","OBJECTID":303601},"geometry":{"x":174406.58999999985,"y":2547392.6099999994}},{"attributes":{"ID":303610,"DIS_CODE":0,"TOWNNAME":"永康區","LI":"龍潭里","LIN":"38鄰","STREET":"中山北路","SECT":" ","MAREA":" ","LANE":"１６４巷","ALLEY":" ","HOUSE_NO":"７０之２號","E_COORD97":174410.35999999999,"N_COORD97":2547392.6800000002,"ADDRESS":"中山北路１６４巷７０之２號","OBJECTID":303602},"geometry":{"x":174410.36000000034,"y":2547392.6800000034}},{"attributes":{"ID":303611,"DIS_CODE":0,"TOWNNAME":"永康區","LI":"龍潭里","LIN":"38鄰","STREET":"中山北路","SECT":" ","MAREA":" ","LANE":"１６４巷","ALLEY":" ","HOUSE_NO":"７０之３號","E_COORD97":174414.51000000001,"N_COORD97":2547392.6099999999,"ADDRESS":"中山北路１６４巷７０之３號","OBJECTID":303603},"geometry":{"x":174414.51000000071,"y":2547392.6099999994}},{"attributes":{"ID":303612,"DIS_CODE":0,"TOWNNAME":"永康區","LI":"龍潭里","LIN":"38鄰","STREET":"中山北路","SECT":" ","MAREA":" ","LANE":"１６４巷","ALLEY":" ","HOUSE_NO":"７０號","E_COORD97":174403.38,"N_COORD97":2547392.2999999998,"ADDRESS":"中山北路１６４巷７０號","OBJECTID":303604},"geometry":{"x":174403.38000000082,"y":2547392.3000000007}},{"attributes":{"ID":303613,"DIS_CODE":0,"TOWNNAME":"永康區","LI":"崑山里","LIN":"26鄰","STREET":"大灣路","SECT":" ","MAREA":" ","LANE":"９４２巷","ALLEY":" ","HOUSE_NO":"１２１號","E_COORD97":173684.28,"N_COORD97":2544687.5699999998,"ADDRESS":"大灣路９４２巷１２１號","OBJECTID":303605},"geometry":{"x":173684.28000000119,"y":2544687.5700000003}},{"attributes":{"ID":303614,"DIS_CODE":0,"TOWNNAME":"永康區","LI":"西灣里","LIN":"42鄰","STREET":"大灣路","SECT":" ","MAREA":" ","LANE":"９４２巷","ALLEY":" ","HOUSE_NO":"５０１號","E_COORD97":173965.91,"N_COORD97":2545491.9199999999,"ADDRESS":"大灣路９４２巷５０１號","OBJECTID":303606},"geometry":{"x":173965.91000000201,"y":2545491.9199999999}},{"attributes":{"ID":303615,"DIS_CODE":0,"TOWNNAME":"永康區","LI":"崑山里","LIN":"34鄰","STREET":"大灣路","SECT":" ","MAREA":" ","LANE":"９４２巷","ALLEY":" ","HOUSE_NO":"１８６號","E_COORD97":173797.19,"N_COORD97":2544960.6200000001,"ADDRESS":"大灣路９４２巷１８６號","OBJECTID":303607},"geometry":{"x":173797.19000000134,"y":2544960.6200000029}},{"attributes":{"ID":303616,"DIS_CODE":0,"TOWNNAME":"南區","LI":"文南里","LIN":"8鄰","STREET":"健康路","SECT":"二段","MAREA":" ","LANE":"２６４巷","ALLEY":" ","HOUSE_NO":"１０號","E_COORD97":166979.23999999999,"N_COORD97":2542538.98,"ADDRESS":"健康路二段２６４巷１０號","OBJECTID":303608},"geometry":{"x":166979.24000000022,"y":2542538.9800000004}},{"attributes":{"ID":303617,"DIS_CODE":0,"TOWNNAME":"佳里區","LI":"安西里","LIN":"55鄰","STREET":"佳安東路","SECT":" ","MAREA":" ","LANE":" ","ALLEY":" ","HOUSE_NO":"２８號五樓之１","E_COORD97":163768.57999999999,"N_COORD97":2562317.5800000001,"ADDRESS":"佳安東路２８號五樓之１","OBJECTID":303609},"geometry":{"x":163768.58000000101,"y":2562317.5800000001}},{"attributes":{"ID":303618,"DIS_CODE":0,"TOWNNAME":"佳里區","LI":"安西里","LIN":"55鄰","STREET":"佳安東路","SECT":" ","MAREA":" ","LANE":" ","ALLEY":" ","HOUSE_NO":"２８號五樓之２","E_COORD97":163768.57999999999,"N_COORD97":2562317.5800000001,"ADDRESS":"佳安東路２８號五樓之２","OBJECTID":303610},"geometry":{"x":163768.58000000101,"y":2562317.5800000001}},{"attributes":{"ID":303619,"DIS_CODE":0,"TOWNNAME":"佳里區","LI":"安西里","LIN":"55鄰","STREET":"佳安東路","SECT":" ","MAREA":" ","LANE":" ","ALLEY":" ","HOUSE_NO":"２８號六樓之１","E_COORD97":163768.57999999999,"N_COORD97":2562317.5800000001,"ADDRESS":"佳安東路２８號六樓之１","OBJECTID":303611},"geometry":{"x":163768.58000000101,"y":2562317.5800000001}},{"attributes":{"ID":303620,"DIS_CODE":0,"TOWNNAME":"佳里區","LI":"安西里","LIN":"55鄰","STREET":"佳安東路","SECT":" ","MAREA":" ","LANE":" ","ALLEY":" ","HOUSE_NO":"２８號六樓之２","E_COORD97":163768.57999999999,"N_COORD97":2562317.5800000001,"ADDRESS":"佳安東路２８號六樓之２","OBJECTID":303612},"geometry":{"x":163768.58000000101,"y":2562317.5800000001}},{"attributes":{"ID":303621,"DIS_CODE":0,"TOWNNAME":"佳里區","LI":"安西里","LIN":"55鄰","STREET":"佳安東路","SECT":" ","MAREA":" ","LANE":" ","ALLEY":" ","HOUSE_NO":"２８號四樓之１","E_COORD97":163768.57999999999,"N_COORD97":2562317.5800000001,"ADDRESS":"佳安東路２８號四樓之１","OBJECTID":303613},"geometry":{"x":163768.58000000101,"y":2562317.5800000001}},{"attributes":{"ID":303622,"DIS_CODE":0,"TOWNNAME":"佳里區","LI":"安西里","LIN":"55鄰","STREET":"佳安東路","SECT":" ","MAREA":" ","LANE":" ","ALLEY":" ","HOUSE_NO":"２８號四樓之２","E_COORD97":163768.57999999999,"N_COORD97":2562317.5800000001,"ADDRESS":"佳安東路２８號四樓之２","OBJECTID":303614},"geometry":{"x":163768.58000000101,"y":2562317.5800000001}},{"attributes":{"ID":303623,"DIS_CODE":0,"TOWNNAME":"佳里區","LI":"安西里","LIN":"55鄰","STREET":"佳安東路","SECT":" ","MAREA":" ","LANE":" ","ALLEY":" ","HOUSE_NO":"２號七樓之１","E_COORD97":163756.22,"N_COORD97":2562359.9199999999,"ADDRESS":"佳安東路２號七樓之１","OBJECTID":303615},"geometry":{"x":163756.21999999974,"y":2562359.9200000037}},{"attributes":{"ID":303624,"DIS_CODE":0,"TOWNNAME":"佳里區","LI":"安西里","LIN":"55鄰","STREET":"佳安東路","SECT":" ","MAREA":" ","LANE":" ","ALLEY":" ","HOUSE_NO":"２號七樓之２","E_COORD97":163756.22,"N_COORD97":2562359.9199999999,"ADDRESS":"佳安東路２號七樓之２","OBJECTID":303616},"geometry":{"x":163756.21999999974,"y":2562359.9200000037}},{"attributes":{"ID":303625,"DIS_CODE":0,"TOWNNAME":"佳里區","LI":"安西里","LIN":"55鄰","STREET":"佳安東路","SECT":" ","MAREA":" ","LANE":" ","ALLEY":" ","HOUSE_NO":"２號九樓之１","E_COORD97":163756.22,"N_COORD97":2562359.9199999999,"ADDRESS":"佳安東路２號九樓之１","OBJECTID":303617},"geometry":{"x":163756.21999999974,"y":2562359.9200000037}},{"attributes":{"ID":303626,"DIS_CODE":0,"TOWNNAME":"佳里區","LI":"安西里","LIN":"55鄰","STREET":"佳安東路","SECT":" ","MAREA":" ","LANE":" ","ALLEY":" ","HOUSE_NO":"２號九樓之２","E_COORD97":163756.22,"N_COORD97":2562359.9199999999,"ADDRESS":"佳安東路２號九樓之２","OBJECTID":303618},"geometry":{"x":163756.21999999974,"y":2562359.9200000037}},{"attributes":{"ID":303627,"DIS_CODE":0,"TOWNNAME":"佳里區","LI":"安西里","LIN":"55鄰","STREET":"佳安東路","SECT":" ","MAREA":" ","LANE":" ","ALLEY":" ","HOUSE_NO":"２號二樓之１","E_COORD97":163756.22,"N_COORD97":2562359.9199999999,"ADDRESS":"佳安東路２號二樓之１","OBJECTID":303619},"geometry":{"x":163756.21999999974,"y":2562359.9200000037}},{"attributes":{"ID":303628,"DIS_CODE":0,"TOWNNAME":"佳里區","LI":"安西里","LIN":"55鄰","STREET":"佳安東路","SECT":" ","MAREA":" ","LANE":" ","ALLEY":" ","HOUSE_NO":"２號二樓之２","E_COORD97":163756.22,"N_COORD97":2562359.9199999999,"ADDRESS":"佳安東路２號二樓之２","OBJECTID":303620},"geometry":{"x":163756.21999999974,"y":2562359.9200000037}},{"attributes":{"ID":303629,"DIS_CODE":0,"TOWNNAME":"佳里區","LI":"安西里","LIN":"55鄰","STREET":"佳安東路","SECT":" ","MAREA":" ","LANE":" ","ALLEY":" ","HOUSE_NO":"２號八樓之１","E_COORD97":163756.22,"N_COORD97":2562359.9199999999,"ADDRESS":"佳安東路２號八樓之１","OBJECTID":303621},"geometry":{"x":163756.21999999974,"y":2562359.9200000037}},{"attributes":{"ID":303630,"DIS_CODE":0,"TOWNNAME":"佳里區","LI":"安西里","LIN":"55鄰","STREET":"佳安東路","SECT":" ","MAREA":" ","LANE":" ","ALLEY":" ","HOUSE_NO":"２號八樓之２","E_COORD97":163756.22,"N_COORD97":2562359.9199999999,"ADDRESS":"佳安東路２號八樓之２","OBJECTID":303622},"geometry":{"x":163756.21999999974,"y":2562359.9200000037}},{"attributes":{"ID":303631,"DIS_CODE":0,"TOWNNAME":"佳里區","LI":"安西里","LIN":"55鄰","STREET":"佳安東路","SECT":" ","MAREA":" ","LANE":" ","ALLEY":" ","HOUSE_NO":"２號十樓之１","E_COORD97":163756.22,"N_COORD97":2562359.9199999999,"ADDRESS":"佳安東路２號十樓之１","OBJECTID":303623},"geometry":{"x":163756.21999999974,"y":2562359.9200000037}},{"attributes":{"ID":303632,"DIS_CODE":0,"TOWNNAME":"永康區","LI":"崑山里","LIN":"34鄰","STREET":"大灣路","SECT":" ","MAREA":" ","LANE":"９４２巷","ALLEY":" ","HOUSE_NO":"１８８號","E_COORD97":173795.79000000001,"N_COORD97":2544956.3399999999,"ADDRESS":"大灣路９４２巷１８８號","OBJECTID":303624},"geometry":{"x":173795.79000000097,"y":2544956.3399999999}},{"attributes":{"ID":303633,"DIS_CODE":0,"TOWNNAME":"永康區","LI":"龍潭里","LIN":"24鄰","STREET":"中山北路","SECT":" ","MAREA":" ","LANE":"２６４巷","ALLEY":" ","HOUSE_NO":"５號","E_COORD97":174711.97,"N_COORD97":2547641.2400000002,"ADDRESS":"中山北路２６４巷５號","OBJECTID":303625},"geometry":{"x":174711.96999999974,"y":2547641.2400000021}},{"attributes":{"ID":303634,"DIS_CODE":0,"TOWNNAME":"永康區","LI":"東橋里","LIN":"25鄰","STREET":"中正路","SECT":" ","MAREA":" ","LANE":"３５０巷","ALLEY":" ","HOUSE_NO":"２號","E_COORD97":172988.57000000001,"N_COORD97":2548102.46,"ADDRESS":"中正路３５０巷２號","OBJECTID":303626},"geometry":{"x":172988.57000000216,"y":2548102.4600000009}},{"attributes":{"ID":303635,"DIS_CODE":0,"TOWNNAME":"永康區","LI":"東橋里","LIN":"25鄰","STREET":"中正路","SECT":" ","MAREA":" ","LANE":"３５０巷","ALLEY":" ","HOUSE_NO":"６５號","E_COORD97":172972.19,"N_COORD97":2548229.48,"ADDRESS":"中正路３５０巷６５號","OBJECTID":303627},"geometry":{"x":172972.19000000041,"y":2548229.4800000023}},{"attributes":{"ID":303636,"DIS_CODE":0,"TOWNNAME":"南區","LI":"文南里","LIN":"8鄰","STREET":"健康路","SECT":"二段","MAREA":" ","LANE":"２６４巷","ALLEY":" ","HOUSE_NO":"１２號","E_COORD97":166979.42000000001,"N_COORD97":2542542.98,"ADDRESS":"健康路二段２６４巷１２號","OBJECTID":303628},"geometry":{"x":166979.41999999993,"y":2542542.9800000004}},{"attributes":{"ID":303637,"DIS_CODE":0,"TOWNNAME":"南區","LI":"文南里","LIN":"8鄰","STREET":"健康路","SECT":"二段","MAREA":" ","LANE":"２６４巷","ALLEY":" ","HOUSE_NO":"１４號","E_COORD97":166979.85999999999,"N_COORD97":2542547.1600000001,"ADDRESS":"健康路二段２６４巷１４號","OBJECTID":303629},"geometry":{"x":166979.86000000034,"y":2542547.1600000001}},{"attributes":{"ID":303638,"DIS_CODE":0,"TOWNNAME":"南區","LI":"文南里","LIN":"8鄰","STREET":"健康路","SECT":"二段","MAREA":" ","LANE":"２６４巷","ALLEY":" ","HOUSE_NO":"１６號","E_COORD97":166979.95000000001,"N_COORD97":2542551.0800000001,"ADDRESS":"健康路二段２６４巷１６號","OBJECTID":303630},"geometry":{"x":166979.95000000112,"y":2542551.0800000001}},{"attributes":{"ID":303639,"DIS_CODE":0,"TOWNNAME":"南區","LI":"文南里","LIN":"8鄰","STREET":"健康路","SECT":"二段","MAREA":" ","LANE":"２６４巷","ALLEY":" ","HOUSE_NO":"２０號","E_COORD97":166980.39999999999,"N_COORD97":2542560.8599999999,"ADDRESS":"健康路二段２６４巷２０號","OBJECTID":303631},"geometry":{"x":166980.40000000224,"y":2542560.8600000013}},{"attributes":{"ID":303640,"DIS_CODE":0,"TOWNNAME":"南區","LI":"文南里","LIN":"8鄰","STREET":"健康路","SECT":"二段","MAREA":" ","LANE":"２６４巷","ALLEY":" ","HOUSE_NO":"２２號","E_COORD97":166980.75,"N_COORD97":2542565.3900000001,"ADDRESS":"健康路二段２６４巷２２號","OBJECTID":303632},"geometry":{"x":166980.75,"y":2542565.3900000025}},{"attributes":{"ID":303641,"DIS_CODE":0,"TOWNNAME":"南區","LI":"文南里","LIN":"8鄰","STREET":"健康路","SECT":"二段","MAREA":" ","LANE":"２６４巷","ALLEY":" ","HOUSE_NO":"２６號","E_COORD97":166981.73000000001,"N_COORD97":2542574.8199999998,"ADDRESS":"健康路二段２６４巷２６號","OBJECTID":303633},"geometry":{"x":166981.73000000138,"y":2542574.820000004}},{"attributes":{"ID":303642,"DIS_CODE":0,"TOWNNAME":"南區","LI":"文南里","LIN":"8鄰","STREET":"健康路","SECT":"二段","MAREA":" ","LANE":"２６４巷","ALLEY":" ","HOUSE_NO":"２８號","E_COORD97":166981.73000000001,"N_COORD97":2542578.6400000001,"ADDRESS":"健康路二段２６４巷２８號","OBJECTID":303634},"geometry":{"x":166981.73000000138,"y":2542578.6400000006}},{"attributes":{"ID":303643,"DIS_CODE":0,"TOWNNAME":"新營區","LI":"新東里","LIN":"24鄰","STREET":"民治路","SECT":" ","MAREA":" ","LANE":"６巷","ALLEY":"２６弄","HOUSE_NO":"１號","E_COORD97":180641.28058300001,"N_COORD97":2578979.6484900001,"ADDRESS":"民治路６巷２６弄１號","OBJECTID":303635},"geometry":{"x":180641.28058300167,"y":2578979.6484860014}},{"attributes":{"ID":303644,"DIS_CODE":0,"TOWNNAME":"佳里區","LI":"安西里","LIN":"55鄰","STREET":"佳安東路","SECT":" ","MAREA":" ","LANE":" ","ALLEY":" ","HOUSE_NO":"２號十樓之２","E_COORD97":163756.22,"N_COORD97":2562359.9199999999,"ADDRESS":"佳安東路２號十樓之２","OBJECTID":303636},"geometry":{"x":163756.21999999974,"y":2562359.9200000037}},{"attributes":{"ID":303645,"DIS_CODE":0,"TOWNNAME":"佳里區","LI":"安西里","LIN":"55鄰","STREET":"佳安東路","SECT":" ","MAREA":" ","LANE":" ","ALLEY":" ","HOUSE_NO":"２號三樓之１","E_COORD97":163756.22,"N_COORD97":2562359.9199999999,"ADDRESS":"佳安東路２號三樓之１","OBJECTID":303637},"geometry":{"x":163756.21999999974,"y":2562359.9200000037}},{"attributes":{"ID":303646,"DIS_CODE":0,"TOWNNAME":"佳里區","LI":"安西里","LIN":"55鄰","STREET":"佳安東路","SECT":" ","MAREA":" ","LANE":" ","ALLEY":" ","HOUSE_NO":"２號三樓之２","E_COORD97":163756.22,"N_COORD97":2562359.9199999999,"ADDRESS":"佳安東路２號三樓之２","OBJECTID":303638},"geometry":{"x":163756.21999999974,"y":2562359.9200000037}},{"attributes":{"ID":303647,"DIS_CODE":0,"TOWNNAME":"佳里區","LI":"安西里","LIN":"55鄰","STREET":"佳安東路","SECT":" ","MAREA":" ","LANE":" ","ALLEY":" ","HOUSE_NO":"２號五樓之１","E_COORD97":163756.22,"N_COORD97":2562359.9199999999,"ADDRESS":"佳安東路２號五樓之１","OBJECTID":303639},"geometry":{"x":163756.21999999974,"y":2562359.9200000037}},{"attributes":{"ID":303648,"DIS_CODE":0,"TOWNNAME":"永康區","LI":"網寮里","LIN":"4鄰","STREET":"永二街","SECT":" ","MAREA":" ","LANE":"１１８巷","ALLEY":" ","HOUSE_NO":"１號","E_COORD97":173498.01999999999,"N_COORD97":2546459.1400000001,"ADDRESS":"永二街１１８巷１號","OBJECTID":303640},"geometry":{"x":173498.01999999955,"y":2546459.1400000025}},{"attributes":{"ID":303649,"DIS_CODE":0,"TOWNNAME":"永康區","LI":"網寮里","LIN":"4鄰","STREET":"永二街","SECT":" ","MAREA":" ","LANE":"１１８巷","ALLEY":" ","HOUSE_NO":"２號","E_COORD97":173501.75,"N_COORD97":2546465.7799999998,"ADDRESS":"永二街１１８巷２號","OBJECTID":303641},"geometry":{"x":173501.75,"y":2546465.7799999993}},{"attributes":{"ID":303650,"DIS_CODE":0,"TOWNNAME":"永康區","LI":"網寮里","LIN":"4鄰","STREET":"永二街","SECT":" ","MAREA":" ","LANE":"１１８巷","ALLEY":" ","HOUSE_NO":"３號","E_COORD97":173495.28,"N_COORD97":2546460.6499999999,"ADDRESS":"永二街１１８巷３號","OBJECTID":303642},"geometry":{"x":173495.28000000026,"y":2546460.6500000004}},{"attributes":{"ID":303651,"DIS_CODE":0,"TOWNNAME":"永康區","LI":"東灣里","LIN":"26鄰","STREET":"民族路","SECT":" ","MAREA":" ","LANE":"３巷","ALLEY":" ","HOUSE_NO":"２８號","E_COORD97":175461.17999999999,"N_COORD97":2544512.5099999998,"ADDRESS":"民族路３巷２８號","OBJECTID":303643},"geometry":{"x":175461.18000000063,"y":2544512.5100000016}},{"attributes":{"ID":303652,"DIS_CODE":0,"TOWNNAME":"東區","LI":"中西里","LIN":"4鄰","STREET":"勝利路","SECT":" ","MAREA":" ","LANE":"１２巷","ALLEY":" ","HOUSE_NO":"３號","E_COORD97":169893.13,"N_COORD97":2543372.1499999999,"ADDRESS":"勝利路１２巷３號","OBJECTID":303644},"geometry":{"x":169893.12999999989,"y":2543372.1500000004}},{"attributes":{"ID":303653,"DIS_CODE":0,"TOWNNAME":"北區","LI":"正風里","LIN":"8鄰","STREET":"公園路","SECT":" ","MAREA":" ","LANE":"１０３２巷","ALLEY":" ","HOUSE_NO":"２號","E_COORD97":169604.56,"N_COORD97":2546419.8599999999,"ADDRESS":"公園路１０３２巷２號","OBJECTID":303645},"geometry":{"x":169604.56000000052,"y":2546419.8600000013}},{"attributes":{"ID":303654,"DIS_CODE":0,"TOWNNAME":"北區","LI":"正風里","LIN":"8鄰","STREET":"公園路","SECT":" ","MAREA":" ","LANE":"９９４巷","ALLEY":" ","HOUSE_NO":"１號","E_COORD97":169540.04999999999,"N_COORD97":2546346.7999999998,"ADDRESS":"公園路９９４巷１號","OBJECTID":303646},"geometry":{"x":169540.05000000168,"y":2546346.8000000026}},{"attributes":{"ID":303655,"DIS_CODE":0,"TOWNNAME":"新營區","LI":"新東里","LIN":"8鄰","STREET":"東泰路","SECT":" ","MAREA":" ","LANE":"６巷","ALLEY":" ","HOUSE_NO":"４０號","E_COORD97":181207.76000000001,"N_COORD97":2579420.8999999999,"ADDRESS":"東泰路６巷４０號","OBJECTID":303647},"geometry":{"x":181207.75999999978,"y":2579420.9000000041}},{"attributes":{"ID":303656,"DIS_CODE":0,"TOWNNAME":"北區","LI":"正風里","LIN":"8鄰","STREET":"公園路","SECT":" ","MAREA":" ","LANE":"９９４巷","ALLEY":" ","HOUSE_NO":"１號之２","E_COORD97":169547.56,"N_COORD97":2546343.5299999998,"ADDRESS":"公園路９９４巷１號之２","OBJECTID":303648},"geometry":{"x":169547.55999999959,"y":2546343.5300000012}},{"attributes":{"ID":303657,"DIS_CODE":0,"TOWNNAME":"北區","LI":"正風里","LIN":"8鄰","STREET":"公園路","SECT":" ","MAREA":" ","LANE":"９９４巷","ALLEY":" ","HOUSE_NO":"１號之３","E_COORD97":169551.72,"N_COORD97":2546342.6499999999,"ADDRESS":"公園路９９４巷１號之３","OBJECTID":303649},"geometry":{"x":169551.71999999974,"y":2546342.6500000041}},{"attributes":{"ID":303658,"DIS_CODE":0,"TOWNNAME":"北區","LI":"正風里","LIN":"8鄰","STREET":"公園路","SECT":" ","MAREA":" ","LANE":"９９４巷","ALLEY":" ","HOUSE_NO":"３號","E_COORD97":169555.37,"N_COORD97":2546341.7999999998,"ADDRESS":"公園路９９４巷３號","OBJECTID":303650},"geometry":{"x":169555.37000000104,"y":2546341.7999999989}},{"attributes":{"ID":303659,"DIS_CODE":0,"TOWNNAME":"北區","LI":"正風里","LIN":"8鄰","STREET":"公園路","SECT":" ","MAREA":" ","LANE":"９９４巷","ALLEY":" ","HOUSE_NO":"３號之１","E_COORD97":169559.20000000001,"N_COORD97":2546340.3999999999,"ADDRESS":"公園路９９４巷３號之１","OBJECTID":303651},"geometry":{"x":169559.20000000019,"y":2546340.4000000004}},{"attributes":{"ID":303660,"DIS_CODE":0,"TOWNNAME":"北區","LI":"正風里","LIN":"8鄰","STREET":"公園路","SECT":" ","MAREA":" ","LANE":"９９４巷","ALLEY":" ","HOUSE_NO":"３號之２","E_COORD97":169564.14999999999,"N_COORD97":2546341.29,"ADDRESS":"公園路９９４巷３號之２","OBJECTID":303652},"geometry":{"x":169564.1500000013,"y":2546341.290000001}},{"attributes":{"ID":303661,"DIS_CODE":0,"TOWNNAME":"北區","LI":"正風里","LIN":"8鄰","STREET":"公園路","SECT":" ","MAREA":" ","LANE":"９９４巷","ALLEY":" ","HOUSE_NO":"３號之３","E_COORD97":169567.57999999999,"N_COORD97":2546340.5099999998,"ADDRESS":"公園路９９４巷３號之３","OBJECTID":303653},"geometry":{"x":169567.58000000101,"y":2546340.5100000016}},{"attributes":{"ID":303662,"DIS_CODE":0,"TOWNNAME":"北區","LI":"正風里","LIN":"8鄰","STREET":"公園路","SECT":" ","MAREA":" ","LANE":"９９４巷","ALLEY":" ","HOUSE_NO":"３號之４","E_COORD97":169570.85000000001,"N_COORD97":2546348.8599999999,"ADDRESS":"公園路９９４巷３號之４","OBJECTID":303654},"geometry":{"x":169570.85000000056,"y":2546348.8599999994}},{"attributes":{"ID":303663,"DIS_CODE":0,"TOWNNAME":"北區","LI":"正風里","LIN":"8鄰","STREET":"公園路","SECT":" ","MAREA":" ","LANE":"９９４巷","ALLEY":" ","HOUSE_NO":"１１號","E_COORD97":169610.60999999999,"N_COORD97":2546338,"ADDRESS":"公園路９９４巷１１號","OBJECTID":303655},"geometry":{"x":169610.61000000034,"y":2546338.0000000019}},{"attributes":{"ID":303664,"DIS_CODE":0,"TOWNNAME":"北區","LI":"正風里","LIN":"8鄰","STREET":"公園路","SECT":" ","MAREA":" ","LANE":"９９４巷","ALLEY":" ","HOUSE_NO":"１３號","E_COORD97":169603.95000000001,"N_COORD97":2546327.23,"ADDRESS":"公園路９９４巷１３號","OBJECTID":303656},"geometry":{"x":169603.95000000205,"y":2546327.2300000004}},{"attributes":{"ID":303665,"DIS_CODE":0,"TOWNNAME":"北區","LI":"正風里","LIN":"8鄰","STREET":"公園路","SECT":" ","MAREA":" ","LANE":"９９４巷","ALLEY":" ","HOUSE_NO":"１３號之１","E_COORD97":169606.093073,"N_COORD97":2546326.2100200001,"ADDRESS":"公園路９９４巷１３號之１","OBJECTID":303657},"geometry":{"x":169606.09307300113,"y":2546326.210016001}},{"attributes":{"ID":303666,"DIS_CODE":0,"TOWNNAME":"北區","LI":"正風里","LIN":"8鄰","STREET":"公園路","SECT":" ","MAREA":" ","LANE":"９９４巷","ALLEY":" ","HOUSE_NO":"１３號之２","E_COORD97":169609.06211599999,"N_COORD97":2546324.0933500002,"ADDRESS":"公園路９９４巷１３號之２","OBJECTID":303658},"geometry":{"x":169609.06211599987,"y":2546324.0933509991}},{"attributes":{"ID":303667,"DIS_CODE":0,"TOWNNAME":"北區","LI":"正風里","LIN":"8鄰","STREET":"公園路","SECT":" ","MAREA":" ","LANE":"９９４巷","ALLEY":" ","HOUSE_NO":"１號之１","E_COORD97":169543.29000000001,"N_COORD97":2546345.1000000001,"ADDRESS":"公園路９９４巷１號之１","OBJECTID":303659},"geometry":{"x":169543.29000000004,"y":2546345.0999999996}},{"attributes":{"ID":303668,"DIS_CODE":0,"TOWNNAME":"六甲區","LI":"二甲里","LIN":"8鄰","STREET":"民權街","SECT":" ","MAREA":" ","LANE":"３０４巷","ALLEY":" ","HOUSE_NO":"４２號","E_COORD97":182936.91,"N_COORD97":2569890.8799999999,"ADDRESS":"民權街３０４巷４２號","OBJECTID":303660},"geometry":{"x":182936.91000000201,"y":2569890.879999999}},{"attributes":{"ID":303669,"DIS_CODE":0,"TOWNNAME":"佳里區","LI":"安西里","LIN":"55鄰","STREET":"佳安東路","SECT":" ","MAREA":" ","LANE":" ","ALLEY":" ","HOUSE_NO":"２號五樓之２","E_COORD97":163756.22,"N_COORD97":2562359.9199999999,"ADDRESS":"佳安東路２號五樓之２","OBJECTID":303661},"geometry":{"x":163756.21999999974,"y":2562359.9200000037}},{"attributes":{"ID":303670,"DIS_CODE":0,"TOWNNAME":"佳里區","LI":"安西里","LIN":"55鄰","STREET":"佳安東路","SECT":" ","MAREA":" ","LANE":" ","ALLEY":" ","HOUSE_NO":"２號六樓之１","E_COORD97":163756.22,"N_COORD97":2562359.9199999999,"ADDRESS":"佳安東路２號六樓之１","OBJECTID":303662},"geometry":{"x":163756.21999999974,"y":2562359.9200000037}},{"attributes":{"ID":303671,"DIS_CODE":0,"TOWNNAME":"佳里區","LI":"安西里","LIN":"55鄰","STREET":"佳安東路","SECT":" ","MAREA":" ","LANE":" ","ALLEY":" ","HOUSE_NO":"２號六樓之２","E_COORD97":163756.22,"N_COORD97":2562359.9199999999,"ADDRESS":"佳安東路２號六樓之２","OBJECTID":303663},"geometry":{"x":163756.21999999974,"y":2562359.9200000037}},{"attributes":{"ID":303672,"DIS_CODE":0,"TOWNNAME":"佳里區","LI":"安西里","LIN":"55鄰","STREET":"佳安東路","SECT":" ","MAREA":" ","LANE":" ","ALLEY":" ","HOUSE_NO":"２號四樓之１","E_COORD97":163756.22,"N_COORD97":2562359.9199999999,"ADDRESS":"佳安東路２號四樓之１","OBJECTID":303664},"geometry":{"x":163756.21999999974,"y":2562359.9200000037}},{"attributes":{"ID":303673,"DIS_CODE":0,"TOWNNAME":"佳里區","LI":"安西里","LIN":"55鄰","STREET":"佳安東路","SECT":" ","MAREA":" ","LANE":" ","ALLEY":" ","HOUSE_NO":"２號四樓之２","E_COORD97":163756.22,"N_COORD97":2562359.9199999999,"ADDRESS":"佳安東路２號四樓之２","OBJECTID":303665},"geometry":{"x":163756.21999999974,"y":2562359.9200000037}},{"attributes":{"ID":303674,"DIS_CODE":0,"TOWNNAME":"永康區","LI":"西灣里","LIN":"52鄰","STREET":"永華路","SECT":" ","MAREA":" ","LANE":"３３９巷","ALLEY":" ","HOUSE_NO":"５３號","E_COORD97":173887.04000000001,"N_COORD97":2545916.27,"ADDRESS":"永華路３３９巷５３號","OBJECTID":303666},"geometry":{"x":173887.04000000097,"y":2545916.2699999996}},{"attributes":{"ID":303675,"DIS_CODE":0,"TOWNNAME":"六甲區","LI":"二甲里","LIN":"8鄰","STREET":"民權街","SECT":" ","MAREA":" ","LANE":"３０４巷","ALLEY":" ","HOUSE_NO":"４４號","E_COORD97":182938.16,"N_COORD97":2569895.1200000001,"ADDRESS":"民權街３０４巷４４號","OBJECTID":303667},"geometry":{"x":182938.16000000015,"y":2569895.120000001}},{"attributes":{"ID":303676,"DIS_CODE":0,"TOWNNAME":"六甲區","LI":"二甲里","LIN":"8鄰","STREET":"民權街","SECT":" ","MAREA":" ","LANE":"３０４巷","ALLEY":" ","HOUSE_NO":"８號","E_COORD97":182918.26000000001,"N_COORD97":2569823.2599999998,"ADDRESS":"民權街３０４巷８號","OBJECTID":303668},"geometry":{"x":182918.25999999978,"y":2569823.2600000035}},{"attributes":{"ID":303677,"DIS_CODE":0,"TOWNNAME":"六甲區","LI":"甲南里","LIN":"8鄰","STREET":"忠孝街","SECT":" ","MAREA":" ","LANE":"５３巷","ALLEY":" ","HOUSE_NO":"１２號","E_COORD97":183795.98000000001,"N_COORD97":2569654.9100000001,"ADDRESS":"忠孝街５３巷１２號","OBJECTID":303669},"geometry":{"x":183795.97999999952,"y":2569654.9100000001}},{"attributes":{"ID":303678,"DIS_CODE":0,"TOWNNAME":"六甲區","LI":"甲南里","LIN":"8鄰","STREET":"忠孝街","SECT":" ","MAREA":" ","LANE":"５３巷","ALLEY":" ","HOUSE_NO":"１４號","E_COORD97":183794.57000000001,"N_COORD97":2569677.1099999999,"ADDRESS":"忠孝街５３巷１４號","OBJECTID":303670},"geometry":{"x":183794.5700000003,"y":2569677.1099999994}},{"attributes":{"ID":303679,"DIS_CODE":0,"TOWNNAME":"六甲區","LI":"甲南里","LIN":"8鄰","STREET":"忠孝街","SECT":" ","MAREA":" ","LANE":"６３巷","ALLEY":" ","HOUSE_NO":"２號","E_COORD97":183835.39000000001,"N_COORD97":2569630.75,"ADDRESS":"忠孝街６３巷２號","OBJECTID":303671},"geometry":{"x":183835.3900000006,"y":2569630.7500000019}},{"attributes":{"ID":303680,"DIS_CODE":0,"TOWNNAME":"六甲區","LI":"甲南里","LIN":"8鄰","STREET":"忠孝街","SECT":" ","MAREA":" ","LANE":"６３巷","ALLEY":" ","HOUSE_NO":"４號","E_COORD97":183847.89000000001,"N_COORD97":2569617.8900000001,"ADDRESS":"忠孝街６３巷４號","OBJECTID":303672},"geometry":{"x":183847.88999999966,"y":2569617.8900000025}},{"attributes":{"ID":303681,"DIS_CODE":0,"TOWNNAME":"六甲區","LI":"甲南里","LIN":"8鄰","STREET":"忠孝街","SECT":" ","MAREA":" ","LANE":"６３巷","ALLEY":" ","HOUSE_NO":"６號","E_COORD97":183809.20999999999,"N_COORD97":2569640.8799999999,"ADDRESS":"忠孝街６３巷６號","OBJECTID":303673},"geometry":{"x":183809.21000000183,"y":2569640.879999999}},{"attributes":{"ID":303682,"DIS_CODE":0,"TOWNNAME":"六甲區","LI":"甲南里","LIN":"8鄰","STREET":"忠孝街","SECT":" ","MAREA":" ","LANE":"６７巷","ALLEY":" ","HOUSE_NO":"１號","E_COORD97":183854.45000000001,"N_COORD97":2569630.1600000001,"ADDRESS":"忠孝街６７巷１號","OBJECTID":303674},"geometry":{"x":183854.45000000112,"y":2569630.1600000001}},{"attributes":{"ID":303683,"DIS_CODE":0,"TOWNNAME":"六甲區","LI":"甲南里","LIN":"8鄰","STREET":"忠孝街","SECT":" ","MAREA":" ","LANE":"６７巷","ALLEY":" ","HOUSE_NO":"３號","E_COORD97":183841.64000000001,"N_COORD97":2569640.4100000001,"ADDRESS":"忠孝街６７巷３號","OBJECTID":303675},"geometry":{"x":183841.64000000153,"y":2569640.410000002}},{"attributes":{"ID":303684,"DIS_CODE":0,"TOWNNAME":"六甲區","LI":"甲南里","LIN":"8鄰","STREET":"忠孝街","SECT":" ","MAREA":" ","LANE":"６７巷","ALLEY":" ","HOUSE_NO":"５號","E_COORD97":183814.03,"N_COORD97":2569657.6299999999,"ADDRESS":"忠孝街６７巷５號","OBJECTID":303676},"geometry":{"x":183814.03000000026,"y":2569657.6300000008}},{"attributes":{"ID":303685,"DIS_CODE":0,"TOWNNAME":"新營區","LI":"民榮里","LIN":"20鄰","STREET":"裕民路","SECT":" ","MAREA":" ","LANE":"３４巷","ALLEY":" ","HOUSE_NO":"３２號","E_COORD97":179027,"N_COORD97":2577890.7200000002,"ADDRESS":"裕民路３４巷３２號","OBJECTID":303677},"geometry":{"x":179027.00000000186,"y":2577890.7200000025}},{"attributes":{"ID":303686,"DIS_CODE":0,"TOWNNAME":"新營區","LI":"新東里","LIN":"8鄰","STREET":"東泰路","SECT":" ","MAREA":" ","LANE":"６巷","ALLEY":" ","HOUSE_NO":"３２號","E_COORD97":181191.39999999999,"N_COORD97":2579419.8700000001,"ADDRESS":"東泰路６巷３２號","OBJECTID":303678},"geometry":{"x":181191.4000000013,"y":2579419.8700000029}},{"attributes":{"ID":303687,"DIS_CODE":0,"TOWNNAME":"新營區","LI":"新東里","LIN":"8鄰","STREET":"東泰路","SECT":" ","MAREA":" ","LANE":"６巷","ALLEY":" ","HOUSE_NO":"２５號","E_COORD97":181196.60999999999,"N_COORD97":2579444.2000000002,"ADDRESS":"東泰路６巷２５號","OBJECTID":303679},"geometry":{"x":181196.61000000127,"y":2579444.1999999993}},{"attributes":{"ID":303688,"DIS_CODE":0,"TOWNNAME":"新營區","LI":"新東里","LIN":"8鄰","STREET":"東泰路","SECT":" ","MAREA":" ","LANE":"１６巷","ALLEY":" ","HOUSE_NO":"１０號","E_COORD97":181169.04000000001,"N_COORD97":2579469.8100000001,"ADDRESS":"東泰路１６巷１０號","OBJECTID":303680},"geometry":{"x":181169.04000000004,"y":2579469.8100000024}},{"attributes":{"ID":303689,"DIS_CODE":0,"TOWNNAME":"新營區","LI":"新東里","LIN":"8鄰","STREET":"東泰路","SECT":" ","MAREA":" ","LANE":"６巷","ALLEY":" ","HOUSE_NO":"３３號","E_COORD97":181217.09,"N_COORD97":2579446.3300000001,"ADDRESS":"東泰路６巷３３號","OBJECTID":303681},"geometry":{"x":181217.09000000078,"y":2579446.3300000019}},{"attributes":{"ID":303690,"DIS_CODE":0,"TOWNNAME":"新營區","LI":"新東里","LIN":"8鄰","STREET":"東泰路","SECT":" ","MAREA":" ","LANE":"６巷","ALLEY":" ","HOUSE_NO":"４１號","E_COORD97":181235.48999999999,"N_COORD97":2579446.25,"ADDRESS":"東泰路６巷４１號","OBJECTID":303682},"geometry":{"x":181235.49000000022,"y":2579446.2500000019}},{"attributes":{"ID":303691,"DIS_CODE":0,"TOWNNAME":"新營區","LI":"新東里","LIN":"8鄰","STREET":"東泰路","SECT":" ","MAREA":" ","LANE":"６巷","ALLEY":" ","HOUSE_NO":"３６號","E_COORD97":181197.54000000001,"N_COORD97":2579420.9500000002,"ADDRESS":"東泰路６巷３６號","OBJECTID":303683},"geometry":{"x":181197.54000000004,"y":2579420.9500000011}},{"attributes":{"ID":303692,"DIS_CODE":0,"TOWNNAME":"新營區","LI":"新東里","LIN":"8鄰","STREET":"東泰路","SECT":" ","MAREA":" ","LANE":"６巷","ALLEY":" ","HOUSE_NO":"６２號","E_COORD97":181251.67999999999,"N_COORD97":2579422.9100000001,"ADDRESS":"東泰路６巷６２號","OBJECTID":303684},"geometry":{"x":181251.68000000063,"y":2579422.9100000001}},{"attributes":{"ID":303693,"DIS_CODE":0,"TOWNNAME":"新營區","LI":"新東里","LIN":"8鄰","STREET":"東泰路","SECT":" ","MAREA":" ","LANE":"６巷","ALLEY":" ","HOUSE_NO":"３７號","E_COORD97":181226.29999999999,"N_COORD97":2579446.29,"ADDRESS":"東泰路６巷３７號","OBJECTID":303685},"geometry":{"x":181226.29999999981,"y":2579446.2899999991}},{"attributes":{"ID":303694,"DIS_CODE":0,"TOWNNAME":"佳里區","LI":"安西里","LIN":"55鄰","STREET":"佳安東路","SECT":" ","MAREA":" ","LANE":" ","ALLEY":" ","HOUSE_NO":"３０號七樓之１","E_COORD97":163753.38,"N_COORD97":2562320.1099999999,"ADDRESS":"佳安東路３０號七樓之１","OBJECTID":303686},"geometry":{"x":163753.37999999989,"y":2562320.1099999994}},{"attributes":{"ID":303695,"DIS_CODE":0,"TOWNNAME":"新營區","LI":"新東里","LIN":"8鄰","STREET":"東泰路","SECT":" ","MAREA":" ","LANE":"６巷","ALLEY":" ","HOUSE_NO":"４７號","E_COORD97":181249.81,"N_COORD97":2579447.29,"ADDRESS":"東泰路６巷４７號","OBJECTID":303687},"geometry":{"x":181249.80999999959,"y":2579447.2900000028}},{"attributes":{"ID":303696,"DIS_CODE":0,"TOWNNAME":"新營區","LI":"新東里","LIN":"8鄰","STREET":"東泰路","SECT":" ","MAREA":" ","LANE":"６巷","ALLEY":" ","HOUSE_NO":"１１號","E_COORD97":181170.95999999999,"N_COORD97":2579442.1099999999,"ADDRESS":"東泰路６巷１１號","OBJECTID":303688},"geometry":{"x":181170.95999999996,"y":2579442.1100000031}},{"attributes":{"ID":303697,"DIS_CODE":0,"TOWNNAME":"新營區","LI":"新東里","LIN":"8鄰","STREET":"東泰路","SECT":" ","MAREA":" ","LANE":"６巷","ALLEY":" ","HOUSE_NO":"３號","E_COORD97":181152.39999999999,"N_COORD97":2579441.0800000001,"ADDRESS":"東泰路６巷３號","OBJECTID":303689},"geometry":{"x":181152.4000000013,"y":2579441.0800000019}},{"attributes":{"ID":303698,"DIS_CODE":0,"TOWNNAME":"新營區","LI":"新東里","LIN":"8鄰","STREET":"東泰路","SECT":" ","MAREA":" ","LANE":"１６巷","ALLEY":" ","HOUSE_NO":"８號","E_COORD97":181162.73999999999,"N_COORD97":2579469.8300000001,"ADDRESS":"東泰路１６巷８號","OBJECTID":303690},"geometry":{"x":181162.74000000022,"y":2579469.8300000019}},{"attributes":{"ID":303699,"DIS_CODE":0,"TOWNNAME":"新營區","LI":"民權里","LIN":"8鄰","STREET":"博愛街","SECT":" ","MAREA":" ","LANE":"６１巷","ALLEY":" ","HOUSE_NO":"１號之５","E_COORD97":179893.34,"N_COORD97":2578112.5800000001,"ADDRESS":"博愛街６１巷１號之５","OBJECTID":303691},"geometry":{"x":179893.33999999985,"y":2578112.5800000001}},{"attributes":{"ID":303700,"DIS_CODE":0,"TOWNNAME":"新營區","LI":"民權里","LIN":"8鄰","STREET":"博愛街","SECT":" ","MAREA":" ","LANE":"６１巷","ALLEY":" ","HOUSE_NO":"３號","E_COORD97":179881.91,"N_COORD97":2578107.04,"ADDRESS":"博愛街６１巷３號","OBJECTID":303692},"geometry":{"x":179881.91000000015,"y":2578107.040000001}},{"attributes":{"ID":303701,"DIS_CODE":0,"TOWNNAME":"新營區","LI":"民權里","LIN":"8鄰","STREET":"博愛街","SECT":" ","MAREA":" ","LANE":"６１巷","ALLEY":" ","HOUSE_NO":"１號","E_COORD97":179880.85999999999,"N_COORD97":2578119.2200000002,"ADDRESS":"博愛街６１巷１號","OBJECTID":303693},"geometry":{"x":179880.8600000022,"y":2578119.2200000007}},{"attributes":{"ID":303702,"DIS_CODE":0,"TOWNNAME":"新營區","LI":"民權里","LIN":"8鄰","STREET":"博愛街","SECT":" ","MAREA":" ","LANE":"６１巷","ALLEY":" ","HOUSE_NO":"４號","E_COORD97":179869.59,"N_COORD97":2578099.3300000001,"ADDRESS":"博愛街６１巷４號","OBJECTID":303694},"geometry":{"x":179869.58999999985,"y":2578099.3300000019}},{"attributes":{"ID":303703,"DIS_CODE":0,"TOWNNAME":"新營區","LI":"南紙里","LIN":"8鄰","STREET":"太子路","SECT":" ","MAREA":" ","LANE":"１３９巷","ALLEY":" ","HOUSE_NO":"１０２號","E_COORD97":177991.48999999999,"N_COORD97":2577585.6400000001,"ADDRESS":"太子路１３９巷１０２號","OBJECTID":303695},"geometry":{"x":177991.49000000209,"y":2577585.6400000025}},{"attributes":{"ID":303704,"DIS_CODE":0,"TOWNNAME":"新營區","LI":"新東里","LIN":"8鄰","STREET":"東泰路","SECT":" ","MAREA":" ","LANE":"６巷","ALLEY":" ","HOUSE_NO":"６０號","E_COORD97":181245.54000000001,"N_COORD97":2579422.9399999999,"ADDRESS":"東泰路６巷６０號","OBJECTID":303696},"geometry":{"x":181245.54000000004,"y":2579422.9400000032}},{"attributes":{"ID":303705,"DIS_CODE":0,"TOWNNAME":"新營區","LI":"興安里","LIN":"8鄰","STREET":"新進路","SECT":" ","MAREA":" ","LANE":"２８１巷","ALLEY":" ","HOUSE_NO":"５號","E_COORD97":179993.89999999999,"N_COORD97":2577793.1000000001,"ADDRESS":"新進路２８１巷５號","OBJECTID":303697},"geometry":{"x":179993.90000000037,"y":2577793.0999999996}},{"attributes":{"ID":303706,"DIS_CODE":0,"TOWNNAME":"新營區","LI":"護鎮里","LIN":"8鄰","STREET":"中正路","SECT":" ","MAREA":" ","LANE":"４３９巷","ALLEY":" ","HOUSE_NO":"１２４號","E_COORD97":179168.17999999999,"N_COORD97":2580220.1400000001,"ADDRESS":"中正路４３９巷１２４號","OBJECTID":303698},"geometry":{"x":179168.18000000063,"y":2580220.1400000025}},{"attributes":{"ID":303707,"DIS_CODE":0,"TOWNNAME":"新營區","LI":"新東里","LIN":"8鄰","STREET":"東泰路","SECT":" ","MAREA":" ","LANE":"６巷","ALLEY":" ","HOUSE_NO":"３５號","E_COORD97":181221.17999999999,"N_COORD97":2579446.3100000001,"ADDRESS":"東泰路６巷３５號","OBJECTID":303699},"geometry":{"x":181221.18000000063,"y":2579446.3100000024}},{"attributes":{"ID":303708,"DIS_CODE":0,"TOWNNAME":"新營區","LI":"新東里","LIN":"8鄰","STREET":"東泰路","SECT":" ","MAREA":" ","LANE":"６巷","ALLEY":" ","HOUSE_NO":"３９號","E_COORD97":181230.39000000001,"N_COORD97":2579446.27,"ADDRESS":"東泰路６巷３９號","OBJECTID":303700},"geometry":{"x":181230.38999999966,"y":2579446.2700000014}},{"attributes":{"ID":303709,"DIS_CODE":0,"TOWNNAME":"新營區","LI":"新東里","LIN":"8鄰","STREET":"東泰路","SECT":" ","MAREA":" ","LANE":"６巷","ALLEY":" ","HOUSE_NO":"４６號","E_COORD97":181217.98999999999,"N_COORD97":2579421.96,"ADDRESS":"東泰路６巷４６號","OBJECTID":303701},"geometry":{"x":181217.99000000115,"y":2579421.9600000028}},{"attributes":{"ID":303710,"DIS_CODE":0,"TOWNNAME":"新營區","LI":"興安里","LIN":"8鄰","STREET":"新進路","SECT":" ","MAREA":" ","LANE":"２８１巷","ALLEY":" ","HOUSE_NO":"７號","E_COORD97":179999.01000000001,"N_COORD97":2577789.75,"ADDRESS":"新進路２８１巷７號","OBJECTID":303702},"geometry":{"x":179999.00999999978,"y":2577789.75}},{"attributes":{"ID":303711,"DIS_CODE":0,"TOWNNAME":"新營區","LI":"南紙里","LIN":"17鄰","STREET":"南紙街","SECT":" ","MAREA":" ","LANE":"１６２巷","ALLEY":" ","HOUSE_NO":"９號","E_COORD97":177769.59,"N_COORD97":2577279.9500000002,"ADDRESS":"南紙街１６２巷９號","OBJECTID":303703},"geometry":{"x":177769.58999999985,"y":2577279.950000003}},{"attributes":{"ID":303712,"DIS_CODE":0,"TOWNNAME":"歸仁區","LI":"文化里","LIN":"8鄰","STREET":"民權一街","SECT":" ","MAREA":" ","LANE":"４７巷","ALLEY":" ","HOUSE_NO":"３號","E_COORD97":177169.35000000001,"N_COORD97":2541382.3300000001,"ADDRESS":"民權一街４７巷３號","OBJECTID":303704},"geometry":{"x":177169.34999999963,"y":2541382.3300000019}},{"attributes":{"ID":303713,"DIS_CODE":0,"TOWNNAME":"歸仁區","LI":"武東里","LIN":"8鄰","STREET":"武東一街","SECT":" ","MAREA":" ","LANE":"６０巷","ALLEY":" ","HOUSE_NO":"１８號","E_COORD97":175680.89000000001,"N_COORD97":2535385.25,"ADDRESS":"武東一街６０巷１８號","OBJECTID":303705},"geometry":{"x":175680.88999999873,"y":2535385.2500000019}},{"attributes":{"ID":303714,"DIS_CODE":0,"TOWNNAME":"歸仁區","LI":"大廟里","LIN":"8鄰","STREET":"大廟一街","SECT":" ","MAREA":" ","LANE":"９３巷","ALLEY":" ","HOUSE_NO":"１９號","E_COORD97":175840.92000000001,"N_COORD97":2543927.25,"ADDRESS":"大廟一街９３巷１９號","OBJECTID":303706},"geometry":{"x":175840.92000000086,"y":2543927.25}},{"attributes":{"ID":303715,"DIS_CODE":0,"TOWNNAME":"新營區","LI":"忠政里","LIN":"7鄰","STREET":"中正路","SECT":" ","MAREA":" ","LANE":"３５巷","ALLEY":" ","HOUSE_NO":"２３號","E_COORD97":179984.98999999999,"N_COORD97":2579095.5,"ADDRESS":"中正路３５巷２３號","OBJECTID":303707},"geometry":{"x":179984.99000000209,"y":2579095.5000000019}},{"attributes":{"ID":303716,"DIS_CODE":0,"TOWNNAME":"新營區","LI":"民生里","LIN":"20鄰","STREET":"進修街","SECT":" ","MAREA":" ","LANE":"２９巷","ALLEY":" ","HOUSE_NO":"２８號","E_COORD97":178914.16,"N_COORD97":2578470.46,"ADDRESS":"進修街２９巷２８號","OBJECTID":303708},"geometry":{"x":178914.16000000201,"y":2578470.4600000009}},{"attributes":{"ID":303717,"DIS_CODE":0,"TOWNNAME":"歸仁區","LI":"大廟里","LIN":"8鄰","STREET":"大廟一街","SECT":" ","MAREA":" ","LANE":"９３巷","ALLEY":" ","HOUSE_NO":"１１號","E_COORD97":175826.62,"N_COORD97":2543935.25,"ADDRESS":"大廟一街９３巷１１號","OBJECTID":303709},"geometry":{"x":175826.62000000011,"y":2543935.2500000019}},{"attributes":{"ID":303718,"DIS_CODE":0,"TOWNNAME":"歸仁區","LI":"大廟里","LIN":"8鄰","STREET":"大廟一街","SECT":" ","MAREA":" ","LANE":"９３巷","ALLEY":" ","HOUSE_NO":"２９號","E_COORD97":175859.42000000001,"N_COORD97":2543917.25,"ADDRESS":"大廟一街９３巷２９號","OBJECTID":303710},"geometry":{"x":175859.42000000086,"y":2543917.2499999981}},{"attributes":{"ID":303719,"DIS_CODE":0,"TOWNNAME":"歸仁區","LI":"大廟里","LIN":"8鄰","STREET":"大廟一街","SECT":" ","MAREA":" ","LANE":"９３巷","ALLEY":" ","HOUSE_NO":"３５號","E_COORD97":175870.62,"N_COORD97":2543910.25,"ADDRESS":"大廟一街９３巷３５號","OBJECTID":303711},"geometry":{"x":175870.62000000104,"y":2543910.25}},{"attributes":{"ID":303720,"DIS_CODE":0,"TOWNNAME":"歸仁區","LI":"文化里","LIN":"8鄰","STREET":"民權一街","SECT":" ","MAREA":" ","LANE":"４７巷","ALLEY":" ","HOUSE_NO":"１號","E_COORD97":177169.35000000001,"N_COORD97":2541378.3300000001,"ADDRESS":"民權一街４７巷１號","OBJECTID":303712},"geometry":{"x":177169.34999999963,"y":2541378.3300000019}},{"attributes":{"ID":303721,"DIS_CODE":0,"TOWNNAME":"歸仁區","LI":"七甲里","LIN":"8鄰","STREET":"七甲三街","SECT":" ","MAREA":" ","LANE":"１１６巷","ALLEY":" ","HOUSE_NO":"１２號","E_COORD97":177731.19,"N_COORD97":2542803.6600000001,"ADDRESS":"七甲三街１１６巷１２號","OBJECTID":303713},"geometry":{"x":177731.19000000134,"y":2542803.660000002}},{"attributes":{"ID":303722,"DIS_CODE":0,"TOWNNAME":"歸仁區","LI":"八甲里","LIN":"8鄰","STREET":"大光一街","SECT":" ","MAREA":" ","LANE":"６２巷","ALLEY":" ","HOUSE_NO":"１２號","E_COORD97":177889.76999999999,"N_COORD97":2541774.6099999999,"ADDRESS":"大光一街６２巷１２號","OBJECTID":303714},"geometry":{"x":177889.76999999955,"y":2541774.6099999994}},{"attributes":{"ID":303723,"DIS_CODE":0,"TOWNNAME":"東區","LI":"德高里","LIN":"16鄰","STREET":"崇善路","SECT":" ","MAREA":" ","LANE":"１０７３巷","ALLEY":" ","HOUSE_NO":"２８號","E_COORD97":171554.67999999999,"N_COORD97":2540595.8599999999,"ADDRESS":"崇善路１０７３巷２８號","OBJECTID":303715},"geometry":{"x":171554.68000000156,"y":2540595.8599999994}},{"attributes":{"ID":303724,"DIS_CODE":0,"TOWNNAME":"北區","LI":"延平里","LIN":"8鄰","STREET":"公園路","SECT":" ","MAREA":" ","LANE":"７７２巷","ALLEY":" ","HOUSE_NO":"４８號","E_COORD97":169258.82000000001,"N_COORD97":2545690.6499999999,"ADDRESS":"公園路７７２巷４８號","OBJECTID":303716},"geometry":{"x":169258.8200000003,"y":2545690.6500000004}},{"attributes":{"ID":303725,"DIS_CODE":0,"TOWNNAME":"北區","LI":"大豐里","LIN":"8鄰","STREET":"文賢路","SECT":" ","MAREA":" ","LANE":"３１３巷","ALLEY":" ","HOUSE_NO":"２２之１號","E_COORD97":167245.45999999999,"N_COORD97":2545260.6200000001,"ADDRESS":"文賢路３１３巷２２之１號","OBJECTID":303717},"geometry":{"x":167245.45999999903,"y":2545260.620000001}},{"attributes":{"ID":303726,"DIS_CODE":0,"TOWNNAME":"柳營區","LI":"中埕里","LIN":"8鄰","STREET":"建興街","SECT":" ","MAREA":" ","LANE":"２２巷","ALLEY":" ","HOUSE_NO":"１號","E_COORD97":179842.39000000001,"N_COORD97":2575045.77,"ADDRESS":"建興街２２巷１號","OBJECTID":303718},"geometry":{"x":179842.38999999966,"y":2575045.7699999996}},{"attributes":{"ID":303727,"DIS_CODE":0,"TOWNNAME":"柳營區","LI":"中埕里","LIN":"8鄰","STREET":"建興街","SECT":" ","MAREA":" ","LANE":"２２巷","ALLEY":" ","HOUSE_NO":"３號","E_COORD97":179845.60999999999,"N_COORD97":2575046.7400000002,"ADDRESS":"建興街２２巷３號","OBJECTID":303719},"geometry":{"x":179845.61000000127,"y":2575046.7400000002}},{"attributes":{"ID":303728,"DIS_CODE":0,"TOWNNAME":"柳營區","LI":"中埕里","LIN":"8鄰","STREET":"建興街","SECT":" ","MAREA":" ","LANE":"２２巷","ALLEY":" ","HOUSE_NO":"５號","E_COORD97":179849.35999999999,"N_COORD97":2575047.9300000002,"ADDRESS":"建興街２２巷５號","OBJECTID":303720},"geometry":{"x":179849.36000000127,"y":2575047.9300000016}},{"attributes":{"ID":303729,"DIS_CODE":0,"TOWNNAME":"柳營區","LI":"中埕里","LIN":"8鄰","STREET":"建興街","SECT":" ","MAREA":" ","LANE":"２２巷","ALLEY":" ","HOUSE_NO":"６號","E_COORD97":179843.51000000001,"N_COORD97":2575027.2400000002,"ADDRESS":"建興街２２巷６號","OBJECTID":303721},"geometry":{"x":179843.50999999978,"y":2575027.2400000002}},{"attributes":{"ID":303730,"DIS_CODE":0,"TOWNNAME":"柳營區","LI":"中埕里","LIN":"8鄰","STREET":"建興街","SECT":" ","MAREA":" ","LANE":"２２巷","ALLEY":" ","HOUSE_NO":"７號","E_COORD97":179852.73000000001,"N_COORD97":2575048.6899999999,"ADDRESS":"建興街２２巷７號","OBJECTID":303722},"geometry":{"x":179852.73000000045,"y":2575048.6900000013}},{"attributes":{"ID":303731,"DIS_CODE":0,"TOWNNAME":"柳營區","LI":"中埕里","LIN":"8鄰","STREET":"建興街","SECT":" ","MAREA":" ","LANE":"２２巷","ALLEY":" ","HOUSE_NO":"８號","E_COORD97":179847.23999999999,"N_COORD97":2575028.96,"ADDRESS":"建興街２２巷８號","OBJECTID":303723},"geometry":{"x":179847.24000000022,"y":2575028.9600000009}},{"attributes":{"ID":303732,"DIS_CODE":0,"TOWNNAME":"柳營區","LI":"篤農里","LIN":"8鄰","STREET":"義士路","SECT":"一段","MAREA":" ","LANE":"８３２巷","ALLEY":" ","HOUSE_NO":"１５０號","E_COORD97":185346.22,"N_COORD97":2576277.4300000002,"ADDRESS":"義士路一段８３２巷１５０號","OBJECTID":303724},"geometry":{"x":185346.21999999974,"y":2576277.4300000016}},{"attributes":{"ID":303733,"DIS_CODE":0,"TOWNNAME":"新營區","LI":"大宏里","LIN":"12鄰","STREET":"開元路","SECT":" ","MAREA":" ","LANE":"５９巷","ALLEY":" ","HOUSE_NO":"８之２號","E_COORD97":180859.31,"N_COORD97":2578786.8999999999,"ADDRESS":"開元路５９巷８之２號","OBJECTID":303725},"geometry":{"x":180859.31000000052,"y":2578786.9000000041}},{"attributes":{"ID":303734,"DIS_CODE":0,"TOWNNAME":"柳營區","LI":"人和里","LIN":"8鄰","STREET":"雙和路","SECT":" ","MAREA":" ","LANE":"２６巷","ALLEY":" ","HOUSE_NO":"２６號","E_COORD97":179584.10000000001,"N_COORD97":2577059.6000000001,"ADDRESS":"雙和路２６巷２６號","OBJECTID":303726},"geometry":{"x":179584.10000000056,"y":2577059.6000000015}},{"attributes":{"ID":303735,"DIS_CODE":0,"TOWNNAME":"柳營區","LI":"人和里","LIN":"8鄰","STREET":"雙和路","SECT":" ","MAREA":" ","LANE":"２６巷","ALLEY":" ","HOUSE_NO":"２８號","E_COORD97":179579.98000000001,"N_COORD97":2577062.5099999998,"ADDRESS":"雙和路２６巷２８號","OBJECTID":303727},"geometry":{"x":179579.98000000045,"y":2577062.5099999998}},{"attributes":{"ID":303736,"DIS_CODE":0,"TOWNNAME":"柳營區","LI":"人和里","LIN":"8鄰","STREET":"雙和路","SECT":" ","MAREA":" ","LANE":"２６巷","ALLEY":" ","HOUSE_NO":"３０號","E_COORD97":179568.88,"N_COORD97":2577058.0699999998,"ADDRESS":"雙和路２６巷３０號","OBJECTID":303728},"geometry":{"x":179568.88000000082,"y":2577058.0700000022}},{"attributes":{"ID":303737,"DIS_CODE":0,"TOWNNAME":"柳營區","LI":"人和里","LIN":"8鄰","STREET":"雙和路","SECT":" ","MAREA":" ","LANE":"２６巷","ALLEY":" ","HOUSE_NO":"３２號","E_COORD97":179563.84,"N_COORD97":2577061.3599999999,"ADDRESS":"雙和路２６巷３２號","OBJECTID":303729},"geometry":{"x":179563.84000000078,"y":2577061.3600000013}},{"attributes":{"ID":303738,"DIS_CODE":0,"TOWNNAME":"柳營區","LI":"人和里","LIN":"8鄰","STREET":"雙和路","SECT":" ","MAREA":" ","LANE":"２６巷","ALLEY":" ","HOUSE_NO":"３６號","E_COORD97":179558.79000000001,"N_COORD97":2577064.6400000001,"ADDRESS":"雙和路２６巷３６號","OBJECTID":303730},"geometry":{"x":179558.79000000004,"y":2577064.6400000025}},{"attributes":{"ID":303739,"DIS_CODE":0,"TOWNNAME":"柳營區","LI":"人和里","LIN":"8鄰","STREET":"雙和路","SECT":" ","MAREA":" ","LANE":"５６巷","ALLEY":" ","HOUSE_NO":"１２號","E_COORD97":179572.54999999999,"N_COORD97":2577034.6099999999,"ADDRESS":"雙和路５６巷１２號","OBJECTID":303731},"geometry":{"x":179572.55000000075,"y":2577034.6099999994}},{"attributes":{"ID":303740,"DIS_CODE":0,"TOWNNAME":"柳營區","LI":"人和里","LIN":"8鄰","STREET":"雙和路","SECT":" ","MAREA":" ","LANE":"５６巷","ALLEY":" ","HOUSE_NO":"１６號","E_COORD97":179565.45000000001,"N_COORD97":2577038.9100000001,"ADDRESS":"雙和路５６巷１６號","OBJECTID":303732},"geometry":{"x":179565.45000000112,"y":2577038.9100000001}},{"attributes":{"ID":303741,"DIS_CODE":0,"TOWNNAME":"柳營區","LI":"人和里","LIN":"8鄰","STREET":"雙和路","SECT":" ","MAREA":" ","LANE":"５６巷","ALLEY":" ","HOUSE_NO":"１８號","E_COORD97":179559.94,"N_COORD97":2577043.52,"ADDRESS":"雙和路５６巷１８號","OBJECTID":303733},"geometry":{"x":179559.93999999948,"y":2577043.5200000014}},{"attributes":{"ID":303742,"DIS_CODE":0,"TOWNNAME":"柳營區","LI":"人和里","LIN":"8鄰","STREET":"雙和路","SECT":" ","MAREA":" ","LANE":"５６巷","ALLEY":" ","HOUSE_NO":"１９號","E_COORD97":179527.06,"N_COORD97":2577052.9300000002,"ADDRESS":"雙和路５６巷１９號","OBJECTID":303734},"geometry":{"x":179527.05999999959,"y":2577052.9299999997}},{"attributes":{"ID":303743,"DIS_CODE":0,"TOWNNAME":"佳里區","LI":"安西里","LIN":"55鄰","STREET":"佳安東路","SECT":" ","MAREA":" ","LANE":" ","ALLEY":" ","HOUSE_NO":"３０號七樓之２","E_COORD97":163753.38,"N_COORD97":2562320.1099999999,"ADDRESS":"佳安東路３０號七樓之２","OBJECTID":303735},"geometry":{"x":163753.37999999989,"y":2562320.1099999994}},{"attributes":{"ID":303744,"DIS_CODE":0,"TOWNNAME":"東區","LI":"崇善里","LIN":"24鄰","STREET":"崇善十二街","SECT":" ","MAREA":" ","LANE":"５６巷","ALLEY":" ","HOUSE_NO":"７號","E_COORD97":171364.45000000001,"N_COORD97":2541122.6099999999,"ADDRESS":"崇善十二街５６巷７號","OBJECTID":303736},"geometry":{"x":171364.45000000019,"y":2541122.6099999994}},{"attributes":{"ID":303745,"DIS_CODE":0,"TOWNNAME":"東區","LI":"莊敬里","LIN":"4鄰","STREET":"小東路","SECT":" ","MAREA":" ","LANE":"２５４巷","ALLEY":" ","HOUSE_NO":"１號","E_COORD97":171143.13,"N_COORD97":2544310.54,"ADDRESS":"小東路２５４巷１號","OBJECTID":303737},"geometry":{"x":171143.12999999989,"y":2544310.5399999991}},{"attributes":{"ID":303746,"DIS_CODE":0,"TOWNNAME":"柳營區","LI":"人和里","LIN":"8鄰","STREET":"雙和路","SECT":" ","MAREA":" ","LANE":"５６巷","ALLEY":" ","HOUSE_NO":"２０號","E_COORD97":179553.10000000001,"N_COORD97":2577047.54,"ADDRESS":"雙和路５６巷２０號","OBJECTID":303738},"geometry":{"x":179553.10000000149,"y":2577047.5399999991}},{"attributes":{"ID":303747,"DIS_CODE":0,"TOWNNAME":"柳營區","LI":"人和里","LIN":"8鄰","STREET":"雙和路","SECT":" ","MAREA":" ","LANE":"５６巷","ALLEY":" ","HOUSE_NO":"２６號","E_COORD97":179542.76999999999,"N_COORD97":2577052.23,"ADDRESS":"雙和路５６巷２６號","OBJECTID":303739},"geometry":{"x":179542.76999999955,"y":2577052.2300000042}},{"attributes":{"ID":303748,"DIS_CODE":0,"TOWNNAME":"柳營區","LI":"人和里","LIN":"8鄰","STREET":"雙和路","SECT":" ","MAREA":" ","LANE":"５６巷","ALLEY":" ","HOUSE_NO":"２號","E_COORD97":179592.32999999999,"N_COORD97":2577021.7599999998,"ADDRESS":"雙和路５６巷２號","OBJECTID":303740},"geometry":{"x":179592.33000000007,"y":2577021.7600000016}},{"attributes":{"ID":303749,"DIS_CODE":0,"TOWNNAME":"柳營區","LI":"人和里","LIN":"8鄰","STREET":"雙和路","SECT":" ","MAREA":" ","LANE":"５６巷","ALLEY":" ","HOUSE_NO":"３０號","E_COORD97":179531.37,"N_COORD97":2577060.0099999998,"ADDRESS":"雙和路５６巷３０號","OBJECTID":303741},"geometry":{"x":179531.37000000197,"y":2577060.0100000035}},{"attributes":{"ID":303750,"DIS_CODE":0,"TOWNNAME":"柳營區","LI":"人和里","LIN":"8鄰","STREET":"雙和路","SECT":" ","MAREA":" ","LANE":"５６巷","ALLEY":" ","HOUSE_NO":"６號","E_COORD97":179579.66,"N_COORD97":2577030.1699999999,"ADDRESS":"雙和路５６巷６號","OBJECTID":303742},"geometry":{"x":179579.66000000015,"y":2577030.1699999999}},{"attributes":{"ID":303751,"DIS_CODE":0,"TOWNNAME":"北區","LI":"興北里","LIN":"8鄰","STREET":"公園北路","SECT":" ","MAREA":" ","LANE":"８８巷","ALLEY":" ","HOUSE_NO":"５９號","E_COORD97":169093.10999999999,"N_COORD97":2545172.75,"ADDRESS":"公園北路８８巷５９號","OBJECTID":303743},"geometry":{"x":169093.11000000127,"y":2545172.7500000019}},{"attributes":{"ID":303752,"DIS_CODE":0,"TOWNNAME":"北區","LI":"興北里","LIN":"8鄰","STREET":"公園北路","SECT":" ","MAREA":" ","LANE":"８８巷","ALLEY":" ","HOUSE_NO":"６０號","E_COORD97":169100.94,"N_COORD97":2545177.6699999999,"ADDRESS":"公園北路８８巷６０號","OBJECTID":303744},"geometry":{"x":169100.94000000134,"y":2545177.6699999999}},{"attributes":{"ID":303753,"DIS_CODE":0,"TOWNNAME":"北區","LI":"興北里","LIN":"8鄰","STREET":"公園北路","SECT":" ","MAREA":" ","LANE":"８８巷","ALLEY":" ","HOUSE_NO":"６１號","E_COORD97":169092.81,"N_COORD97":2545177.75,"ADDRESS":"公園北路８８巷６１號","OBJECTID":303745},"geometry":{"x":169092.81000000052,"y":2545177.75}},{"attributes":{"ID":303754,"DIS_CODE":0,"TOWNNAME":"北區","LI":"興北里","LIN":"8鄰","STREET":"公園北路","SECT":" ","MAREA":" ","LANE":"８８巷","ALLEY":" ","HOUSE_NO":"６２號","E_COORD97":169110.70999999999,"N_COORD97":2545179.46,"ADDRESS":"公園北路８８巷６２號","OBJECTID":303746},"geometry":{"x":169110.71000000089,"y":2545179.4600000028}},{"attributes":{"ID":303755,"DIS_CODE":0,"TOWNNAME":"佳里區","LI":"安西里","LIN":"55鄰","STREET":"佳安東路","SECT":" ","MAREA":" ","LANE":" ","ALLEY":" ","HOUSE_NO":"３０號九樓之１","E_COORD97":163753.38,"N_COORD97":2562320.1099999999,"ADDRESS":"佳安東路３０號九樓之１","OBJECTID":303747},"geometry":{"x":163753.37999999989,"y":2562320.1099999994}},{"attributes":{"ID":303756,"DIS_CODE":0,"TOWNNAME":"中西區","LI":"民權里","LIN":"1鄰","STREET":"康樂街","SECT":" ","MAREA":" ","LANE":" ","ALLEY":" ","HOUSE_NO":"１７４號","E_COORD97":167532.39000000001,"N_COORD97":2544092.75,"ADDRESS":"康樂街１７４號","OBJECTID":303748},"geometry":{"x":167532.3900000006,"y":2544092.75}},{"attributes":{"ID":303757,"DIS_CODE":0,"TOWNNAME":"北區","LI":"興北里","LIN":"8鄰","STREET":"公園北路","SECT":" ","MAREA":" ","LANE":"８８巷","ALLEY":" ","HOUSE_NO":"６３之２號","E_COORD97":169091.32000000001,"N_COORD97":2545183.8100000001,"ADDRESS":"公園北路８８巷６３之２號","OBJECTID":303749},"geometry":{"x":169091.32000000216,"y":2545183.8100000024}},{"attributes":{"ID":303758,"DIS_CODE":0,"TOWNNAME":"北區","LI":"興北里","LIN":"8鄰","STREET":"公園北路","SECT":" ","MAREA":" ","LANE":"８８巷","ALLEY":" ","HOUSE_NO":"６４號","E_COORD97":169104.14999999999,"N_COORD97":2545184.7799999998,"ADDRESS":"公園北路８８巷６４號","OBJECTID":303750},"geometry":{"x":169104.15000000037,"y":2545184.7800000031}},{"attributes":{"ID":303759,"DIS_CODE":0,"TOWNNAME":"北區","LI":"興北里","LIN":"8鄰","STREET":"公園北路","SECT":" ","MAREA":" ","LANE":"８８巷","ALLEY":" ","HOUSE_NO":"６４號之１","E_COORD97":169114.81,"N_COORD97":2545184.7999999998,"ADDRESS":"公園北路８８巷６４號之１","OBJECTID":303751},"geometry":{"x":169114.81000000052,"y":2545184.8000000007}},{"attributes":{"ID":303760,"DIS_CODE":0,"TOWNNAME":"北區","LI":"興北里","LIN":"8鄰","STREET":"公園北路","SECT":" ","MAREA":" ","LANE":"８８巷","ALLEY":" ","HOUSE_NO":"６５號","E_COORD97":169095.04999999999,"N_COORD97":2545194.98,"ADDRESS":"公園北路８８巷６５號","OBJECTID":303752},"geometry":{"x":169095.05000000075,"y":2545194.9800000023}},{"attributes":{"ID":303761,"DIS_CODE":0,"TOWNNAME":"北區","LI":"興北里","LIN":"8鄰","STREET":"公園北路","SECT":" ","MAREA":" ","LANE":"８８巷","ALLEY":" ","HOUSE_NO":"６６號","E_COORD97":169104.44,"N_COORD97":2545190.7400000002,"ADDRESS":"公園北路８８巷６６號","OBJECTID":303753},"geometry":{"x":169104.44000000134,"y":2545190.7400000021}},{"attributes":{"ID":303762,"DIS_CODE":0,"TOWNNAME":"北區","LI":"興北里","LIN":"8鄰","STREET":"公園北路","SECT":" ","MAREA":" ","LANE":"８８巷","ALLEY":" ","HOUSE_NO":"６８號","E_COORD97":169104.67000000001,"N_COORD97":2545196.2599999998,"ADDRESS":"公園北路８８巷６８號","OBJECTID":303754},"geometry":{"x":169104.66999999993,"y":2545196.2600000016}},{"attributes":{"ID":303763,"DIS_CODE":0,"TOWNNAME":"北區","LI":"興北里","LIN":"8鄰","STREET":"公園北路","SECT":" ","MAREA":" ","LANE":"８８巷","ALLEY":" ","HOUSE_NO":"８６號","E_COORD97":169117.70999999999,"N_COORD97":2545221.5,"ADDRESS":"公園北路８８巷８６號","OBJECTID":303755},"geometry":{"x":169117.71000000089,"y":2545221.5000000019}},{"attributes":{"ID":303764,"DIS_CODE":0,"TOWNNAME":"北區","LI":"興北里","LIN":"8鄰","STREET":"公園北路","SECT":" ","MAREA":" ","LANE":"８８巷","ALLEY":" ","HOUSE_NO":"８８號","E_COORD97":169120.89999999999,"N_COORD97":2545224.5299999998,"ADDRESS":"公園北路８８巷８８號","OBJECTID":303756},"geometry":{"x":169120.90000000037,"y":2545224.5300000012}},{"attributes":{"ID":303765,"DIS_CODE":0,"TOWNNAME":"北區","LI":"興北里","LIN":"8鄰","STREET":"公園北路","SECT":" ","MAREA":" ","LANE":"８８巷","ALLEY":" ","HOUSE_NO":"９０號","E_COORD97":169123,"N_COORD97":2545228.5699999998,"ADDRESS":"公園北路８８巷９０號","OBJECTID":303757},"geometry":{"x":169123,"y":2545228.5700000022}},{"attributes":{"ID":303766,"DIS_CODE":0,"TOWNNAME":"北區","LI":"興北里","LIN":"8鄰","STREET":"公園北路","SECT":" ","MAREA":" ","LANE":"８８巷","ALLEY":" ","HOUSE_NO":"９２號","E_COORD97":169131.23000000001,"N_COORD97":2545233.4300000002,"ADDRESS":"公園北路８８巷９２號","OBJECTID":303758},"geometry":{"x":169131.23000000138,"y":2545233.4299999997}},{"attributes":{"ID":303767,"DIS_CODE":0,"TOWNNAME":"北區","LI":"興北里","LIN":"8鄰","STREET":"公園北路","SECT":" ","MAREA":" ","LANE":"８８巷","ALLEY":" ","HOUSE_NO":"９４號","E_COORD97":169141.16,"N_COORD97":2545241.5,"ADDRESS":"公園北路８８巷９４號","OBJECTID":303759},"geometry":{"x":169141.16000000015,"y":2545241.5000000037}},{"attributes":{"ID":303768,"DIS_CODE":0,"TOWNNAME":"北區","LI":"興北里","LIN":"8鄰","STREET":"公園北路","SECT":" ","MAREA":" ","LANE":"８８巷","ALLEY":" ","HOUSE_NO":"９６號","E_COORD97":169148.51000000001,"N_COORD97":2545249.77,"ADDRESS":"公園北路８８巷９６號","OBJECTID":303760},"geometry":{"x":169148.50999999978,"y":2545249.7700000014}},{"attributes":{"ID":303769,"DIS_CODE":0,"TOWNNAME":"安南區","LI":"溪頂里","LIN":"25鄰","STREET":"郡安路","SECT":"四段","MAREA":" ","LANE":"１２０巷","ALLEY":" ","HOUSE_NO":"１１號","E_COORD97":168881.51999999999,"N_COORD97":2547576.8100000001,"ADDRESS":"郡安路四段１２０巷１１號","OBJECTID":303761},"geometry":{"x":168881.51999999955,"y":2547576.8100000024}},{"attributes":{"ID":303770,"DIS_CODE":0,"TOWNNAME":"安南區","LI":"溪頂里","LIN":"25鄰","STREET":"郡安路","SECT":"四段","MAREA":" ","LANE":"１２０巷","ALLEY":" ","HOUSE_NO":"１３號","E_COORD97":168881.81,"N_COORD97":2547572.5,"ADDRESS":"郡安路四段１２０巷１３號","OBJECTID":303762},"geometry":{"x":168881.80999999959,"y":2547572.5}},{"attributes":{"ID":303771,"DIS_CODE":0,"TOWNNAME":"安南區","LI":"溪頂里","LIN":"25鄰","STREET":"郡安路","SECT":"四段","MAREA":" ","LANE":"１２０巷","ALLEY":" ","HOUSE_NO":"１號","E_COORD97":168881.42000000001,"N_COORD97":2547599.3300000001,"ADDRESS":"郡安路四段１２０巷１號","OBJECTID":303763},"geometry":{"x":168881.41999999993,"y":2547599.3300000019}},{"attributes":{"ID":303772,"DIS_CODE":0,"TOWNNAME":"安南區","LI":"溪墘里","LIN":"25鄰","STREET":"安寧街","SECT":" ","MAREA":" ","LANE":"９巷","ALLEY":" ","HOUSE_NO":"１６號","E_COORD97":167377.51999999999,"N_COORD97":2546889.3999999999,"ADDRESS":"安寧街９巷１６號","OBJECTID":303764},"geometry":{"x":167377.52000000048,"y":2546889.4000000004}},{"attributes":{"ID":303773,"DIS_CODE":0,"TOWNNAME":"安南區","LI":"溪墘里","LIN":"25鄰","STREET":"安寧街","SECT":" ","MAREA":" ","LANE":"９巷","ALLEY":" ","HOUSE_NO":"１８號","E_COORD97":167371.57999999999,"N_COORD97":2546887.9399999999,"ADDRESS":"安寧街９巷１８號","OBJECTID":303765},"geometry":{"x":167371.58000000007,"y":2546887.9399999995}},{"attributes":{"ID":303774,"DIS_CODE":0,"TOWNNAME":"安南區","LI":"溪墘里","LIN":"25鄰","STREET":"安寧街","SECT":" ","MAREA":" ","LANE":"９巷","ALLEY":" ","HOUSE_NO":"１號","E_COORD97":167420.26000000001,"N_COORD97":2546875.0499999998,"ADDRESS":"安寧街９巷１號","OBJECTID":303766},"geometry":{"x":167420.26000000071,"y":2546875.0500000007}},{"attributes":{"ID":303775,"DIS_CODE":0,"TOWNNAME":"安南區","LI":"溪墘里","LIN":"25鄰","STREET":"安寧街","SECT":" ","MAREA":" ","LANE":"９巷","ALLEY":" ","HOUSE_NO":"２０號","E_COORD97":167366.78,"N_COORD97":2546886.9700000002,"ADDRESS":"安寧街９巷２０號","OBJECTID":303767},"geometry":{"x":167366.78000000026,"y":2546886.9700000025}},{"attributes":{"ID":303776,"DIS_CODE":0,"TOWNNAME":"北區","LI":"興北里","LIN":"8鄰","STREET":"公園北路","SECT":" ","MAREA":" ","LANE":"８８巷","ALLEY":" ","HOUSE_NO":"９８號","E_COORD97":169152.66,"N_COORD97":2545252.6499999999,"ADDRESS":"公園北路８８巷９８號","OBJECTID":303768},"geometry":{"x":169152.66000000015,"y":2545252.6500000004}},{"attributes":{"ID":303777,"DIS_CODE":0,"TOWNNAME":"北區","LI":"興北里","LIN":"8鄰","STREET":"公園北路","SECT":" ","MAREA":" ","LANE":"７８巷","ALLEY":" ","HOUSE_NO":"９４號","E_COORD97":169288.14000000001,"N_COORD97":2545256.6600000001,"ADDRESS":"公園北路７８巷９４號","OBJECTID":303769},"geometry":{"x":169288.13999999966,"y":2545256.6600000001}},{"attributes":{"ID":303778,"DIS_CODE":0,"TOWNNAME":"北區","LI":"興南里","LIN":"8鄰","STREET":"公園北路","SECT":" ","MAREA":" ","LANE":"１１６巷","ALLEY":" ","HOUSE_NO":"１１號","E_COORD97":168958.82000000001,"N_COORD97":2545113.29,"ADDRESS":"公園北路１１６巷１１號","OBJECTID":303770},"geometry":{"x":168958.8200000003,"y":2545113.2900000028}},{"attributes":{"ID":303779,"DIS_CODE":0,"TOWNNAME":"北區","LI":"興南里","LIN":"8鄰","STREET":"公園北路","SECT":" ","MAREA":" ","LANE":"１１６巷","ALLEY":" ","HOUSE_NO":"１３號","E_COORD97":168959.97,"N_COORD97":2545121.0800000001,"ADDRESS":"公園北路１１６巷１３號","OBJECTID":303771},"geometry":{"x":168959.96999999974,"y":2545121.0800000001}},{"attributes":{"ID":303780,"DIS_CODE":0,"TOWNNAME":"北區","LI":"興南里","LIN":"8鄰","STREET":"公園北路","SECT":" ","MAREA":" ","LANE":"１１６巷","ALLEY":" ","HOUSE_NO":"３號","E_COORD97":168957.54999999999,"N_COORD97":2545080.7799999998,"ADDRESS":"公園北路１１６巷３號","OBJECTID":303772},"geometry":{"x":168957.55000000075,"y":2545080.7800000012}},{"attributes":{"ID":303781,"DIS_CODE":0,"TOWNNAME":"北區","LI":"興南里","LIN":"8鄰","STREET":"公園北路","SECT":" ","MAREA":" ","LANE":"１１６巷","ALLEY":" ","HOUSE_NO":"７號","E_COORD97":168960.42000000001,"N_COORD97":2545099.3100000001,"ADDRESS":"公園北路１１６巷７號","OBJECTID":303773},"geometry":{"x":168960.42000000086,"y":2545099.3100000005}},{"attributes":{"ID":303782,"DIS_CODE":0,"TOWNNAME":"北區","LI":"興南里","LIN":"8鄰","STREET":"公園北路","SECT":" ","MAREA":" ","LANE":"１１６巷","ALLEY":" ","HOUSE_NO":"７號之１","E_COORD97":168952.39999999999,"N_COORD97":2545100.6800000002,"ADDRESS":"公園北路１１６巷７號之１","OBJECTID":303774},"geometry":{"x":168952.4000000013,"y":2545100.6799999978}},{"attributes":{"ID":303783,"DIS_CODE":0,"TOWNNAME":"新營區","LI":"忠政里","LIN":"30鄰","STREET":"府西路","SECT":" ","MAREA":" ","LANE":"３３巷","ALLEY":" ","HOUSE_NO":"９號","E_COORD97":179777.44,"N_COORD97":2578965.7999999998,"ADDRESS":"府西路３３巷９號","OBJECTID":303775},"geometry":{"x":179777.44000000134,"y":2578965.8000000026}},{"attributes":{"ID":303784,"DIS_CODE":0,"TOWNNAME":"北區","LI":"興南里","LIN":"8鄰","STREET":"公園北路","SECT":" ","MAREA":" ","LANE":"１４４巷","ALLEY":" ","HOUSE_NO":"１０號之６","E_COORD97":168913.79000000001,"N_COORD97":2545112.0299999998,"ADDRESS":"公園北路１４４巷１０號之６","OBJECTID":303776},"geometry":{"x":168913.79000000097,"y":2545112.0300000012}},{"attributes":{"ID":303785,"DIS_CODE":0,"TOWNNAME":"佳里區","LI":"安西里","LIN":"55鄰","STREET":"佳安東路","SECT":" ","MAREA":" ","LANE":" ","ALLEY":" ","HOUSE_NO":"３０號九樓之２","E_COORD97":163753.38,"N_COORD97":2562320.1099999999,"ADDRESS":"佳安東路３０號九樓之２","OBJECTID":303777},"geometry":{"x":163753.37999999989,"y":2562320.1099999994}},{"attributes":{"ID":303786,"DIS_CODE":0,"TOWNNAME":"佳里區","LI":"安西里","LIN":"55鄰","STREET":"佳安東路","SECT":" ","MAREA":" ","LANE":" ","ALLEY":" ","HOUSE_NO":"３０號二樓之１","E_COORD97":163753.38,"N_COORD97":2562320.1099999999,"ADDRESS":"佳安東路３０號二樓之１","OBJECTID":303778},"geometry":{"x":163753.37999999989,"y":2562320.1099999994}},{"attributes":{"ID":303787,"DIS_CODE":0,"TOWNNAME":"佳里區","LI":"安西里","LIN":"55鄰","STREET":"佳安東路","SECT":" ","MAREA":" ","LANE":" ","ALLEY":" ","HOUSE_NO":"３０號二樓之２","E_COORD97":163753.38,"N_COORD97":2562320.1099999999,"ADDRESS":"佳安東路３０號二樓之２","OBJECTID":303779},"geometry":{"x":163753.37999999989,"y":2562320.1099999994}},{"attributes":{"ID":303788,"DIS_CODE":0,"TOWNNAME":"佳里區","LI":"安西里","LIN":"55鄰","STREET":"佳安東路","SECT":" ","MAREA":" ","LANE":" ","ALLEY":" ","HOUSE_NO":"３０號八樓之１","E_COORD97":163753.38,"N_COORD97":2562320.1099999999,"ADDRESS":"佳安東路３０號八樓之１","OBJECTID":303780},"geometry":{"x":163753.37999999989,"y":2562320.1099999994}},{"attributes":{"ID":303789,"DIS_CODE":0,"TOWNNAME":"佳里區","LI":"安西里","LIN":"55鄰","STREET":"佳安東路","SECT":" ","MAREA":" ","LANE":" ","ALLEY":" ","HOUSE_NO":"３０號八樓之２","E_COORD97":163753.38,"N_COORD97":2562320.1099999999,"ADDRESS":"佳安東路３０號八樓之２","OBJECTID":303781},"geometry":{"x":163753.37999999989,"y":2562320.1099999994}},{"attributes":{"ID":303790,"DIS_CODE":0,"TOWNNAME":"佳里區","LI":"安西里","LIN":"55鄰","STREET":"佳安東路","SECT":" ","MAREA":" ","LANE":" ","ALLEY":" ","HOUSE_NO":"３０號三樓之１","E_COORD97":163753.38,"N_COORD97":2562320.1099999999,"ADDRESS":"佳安東路３０號三樓之１","OBJECTID":303782},"geometry":{"x":163753.37999999989,"y":2562320.1099999994}},{"attributes":{"ID":303791,"DIS_CODE":0,"TOWNNAME":"佳里區","LI":"安西里","LIN":"55鄰","STREET":"佳安東路","SECT":" ","MAREA":" ","LANE":" ","ALLEY":" ","HOUSE_NO":"３０號三樓之２","E_COORD97":163753.38,"N_COORD97":2562320.1099999999,"ADDRESS":"佳安東路３０號三樓之２","OBJECTID":303783},"geometry":{"x":163753.37999999989,"y":2562320.1099999994}},{"attributes":{"ID":303792,"DIS_CODE":0,"TOWNNAME":"中西區","LI":"建國里","LIN":"22鄰","STREET":"西門路","SECT":"二段","MAREA":" ","LANE":"２２８巷","ALLEY":" ","HOUSE_NO":"１１號","E_COORD97":167973.10999999999,"N_COORD97":2543960.21,"ADDRESS":"西門路二段２２８巷１１號","OBJECTID":303784},"geometry":{"x":167973.11000000034,"y":2543960.2100000028}},{"attributes":{"ID":303793,"DIS_CODE":0,"TOWNNAME":"中西區","LI":"建國里","LIN":"22鄰","STREET":"西門路","SECT":"二段","MAREA":" ","LANE":"２２８巷","ALLEY":" ","HOUSE_NO":"１３號","E_COORD97":167972.59,"N_COORD97":2543967.0699999998,"ADDRESS":"西門路二段２２８巷１３號","OBJECTID":303785},"geometry":{"x":167972.59000000078,"y":2543967.0700000022}},{"attributes":{"ID":303794,"DIS_CODE":0,"TOWNNAME":"北區","LI":"興南里","LIN":"8鄰","STREET":"公園北路","SECT":" ","MAREA":" ","LANE":"１４４巷","ALLEY":" ","HOUSE_NO":"１２號","E_COORD97":168904.14999999999,"N_COORD97":2545131.0499999998,"ADDRESS":"公園北路１４４巷１２號","OBJECTID":303786},"geometry":{"x":168904.15000000037,"y":2545131.0500000026}},{"attributes":{"ID":303795,"DIS_CODE":0,"TOWNNAME":"北區","LI":"興南里","LIN":"8鄰","STREET":"公園北路","SECT":" ","MAREA":" ","LANE":"１４４巷","ALLEY":" ","HOUSE_NO":"２號","E_COORD97":168894.06,"N_COORD97":2545089.9100000001,"ADDRESS":"公園北路１４４巷２號","OBJECTID":303787},"geometry":{"x":168894.06000000145,"y":2545089.910000002}},{"attributes":{"ID":303796,"DIS_CODE":0,"TOWNNAME":"北區","LI":"興南里","LIN":"8鄰","STREET":"公園北路","SECT":" ","MAREA":" ","LANE":"１４４巷","ALLEY":" ","HOUSE_NO":"２號之１","E_COORD97":168894.98000000001,"N_COORD97":2545094.5,"ADDRESS":"公園北路１４４巷２號之１","OBJECTID":303788},"geometry":{"x":168894.98000000045,"y":2545094.5}},{"attributes":{"ID":303797,"DIS_CODE":0,"TOWNNAME":"佳里區","LI":"安西里","LIN":"55鄰","STREET":"佳安東路","SECT":" ","MAREA":" ","LANE":" ","ALLEY":" ","HOUSE_NO":"３０號五樓之１","E_COORD97":163753.38,"N_COORD97":2562320.1099999999,"ADDRESS":"佳安東路３０號五樓之１","OBJECTID":303789},"geometry":{"x":163753.37999999989,"y":2562320.1099999994}},{"attributes":{"ID":303798,"DIS_CODE":0,"TOWNNAME":"佳里區","LI":"安西里","LIN":"55鄰","STREET":"佳安東路","SECT":" ","MAREA":" ","LANE":" ","ALLEY":" ","HOUSE_NO":"３０號五樓之２","E_COORD97":163753.38,"N_COORD97":2562320.1099999999,"ADDRESS":"佳安東路３０號五樓之２","OBJECTID":303790},"geometry":{"x":163753.37999999989,"y":2562320.1099999994}},{"attributes":{"ID":303799,"DIS_CODE":0,"TOWNNAME":"中西區","LI":"萬昌里","LIN":"17鄰","STREET":"青年路","SECT":" ","MAREA":" ","LANE":"１３２巷","ALLEY":" ","HOUSE_NO":"３號","E_COORD97":168927.76000000001,"N_COORD97":2543575.79,"ADDRESS":"青年路１３２巷３號","OBJECTID":303791},"geometry":{"x":168927.75999999978,"y":2543575.7899999991}},{"attributes":{"ID":303800,"DIS_CODE":0,"TOWNNAME":"中西區","LI":"萬昌里","LIN":"17鄰","STREET":"青年路","SECT":" ","MAREA":" ","LANE":"１３２巷","ALLEY":" ","HOUSE_NO":"５號","E_COORD97":168927.34,"N_COORD97":2543567.8500000001,"ADDRESS":"青年路１３２巷５號","OBJECTID":303792},"geometry":{"x":168927.33999999985,"y":2543567.8500000015}},{"attributes":{"ID":303801,"DIS_CODE":0,"TOWNNAME":"中西區","LI":"萬昌里","LIN":"17鄰","STREET":"青年路","SECT":" ","MAREA":" ","LANE":"１３２巷","ALLEY":" ","HOUSE_NO":"７號","E_COORD97":168927.85999999999,"N_COORD97":2543559.5899999999,"ADDRESS":"青年路１３２巷７號","OBJECTID":303793},"geometry":{"x":168927.86000000034,"y":2543559.5900000017}},{"attributes":{"ID":303802,"DIS_CODE":0,"TOWNNAME":"中西區","LI":"萬昌里","LIN":"17鄰","STREET":"青年路","SECT":" ","MAREA":" ","LANE":"１３２巷","ALLEY":" ","HOUSE_NO":"９號","E_COORD97":168928.60000000001,"N_COORD97":2543555.3999999999,"ADDRESS":"青年路１３２巷９號","OBJECTID":303794},"geometry":{"x":168928.59999999963,"y":2543555.4000000022}},{"attributes":{"ID":303803,"DIS_CODE":0,"TOWNNAME":"中西區","LI":"萬昌里","LIN":"20鄰","STREET":"民權路","SECT":"一段","MAREA":" ","LANE":"９０巷","ALLEY":" ","HOUSE_NO":"２８號","E_COORD97":169013.14000000001,"N_COORD97":2543478.8900000001,"ADDRESS":"民權路一段９０巷２８號","OBJECTID":303795},"geometry":{"x":169013.13999999966,"y":2543478.8900000006}},{"attributes":{"ID":303804,"DIS_CODE":0,"TOWNNAME":"中西區","LI":"萬昌里","LIN":"20鄰","STREET":"民權路","SECT":"一段","MAREA":" ","LANE":"９０巷","ALLEY":" ","HOUSE_NO":"３０號","E_COORD97":169013.57999999999,"N_COORD97":2543481.6800000002,"ADDRESS":"民權路一段９０巷３０號","OBJECTID":303796},"geometry":{"x":169013.58000000101,"y":2543481.6800000016}},{"attributes":{"ID":303805,"DIS_CODE":0,"TOWNNAME":"中西區","LI":"萬昌里","LIN":"20鄰","STREET":"民權路","SECT":"一段","MAREA":" ","LANE":"９０巷","ALLEY":" ","HOUSE_NO":"３２號","E_COORD97":169013.14000000001,"N_COORD97":2543485.4900000002,"ADDRESS":"民權路一段９０巷３２號","OBJECTID":303797},"geometry":{"x":169013.13999999966,"y":2543485.4900000039}},{"attributes":{"ID":303806,"DIS_CODE":0,"TOWNNAME":"中西區","LI":"萬昌里","LIN":"20鄰","STREET":"民權路","SECT":"一段","MAREA":" ","LANE":"９０巷","ALLEY":" ","HOUSE_NO":"３４號","E_COORD97":169013.87,"N_COORD97":2543487.8399999999,"ADDRESS":"民權路一段９０巷３４號","OBJECTID":303798},"geometry":{"x":169013.87000000011,"y":2543487.8399999999}},{"attributes":{"ID":303807,"DIS_CODE":0,"TOWNNAME":"中西區","LI":"萬昌里","LIN":"20鄰","STREET":"萬昌街","SECT":" ","MAREA":" ","LANE":"５１巷","ALLEY":" ","HOUSE_NO":"６號","E_COORD97":169016.95999999999,"N_COORD97":2543465.0299999998,"ADDRESS":"萬昌街５１巷６號","OBJECTID":303799},"geometry":{"x":169016.95999999903,"y":2543465.0300000012}},{"attributes":{"ID":303808,"DIS_CODE":0,"TOWNNAME":"北區","LI":"興南里","LIN":"8鄰","STREET":"公園北路","SECT":" ","MAREA":" ","LANE":"１４４巷","ALLEY":" ","HOUSE_NO":"６號","E_COORD97":168895.67000000001,"N_COORD97":2545098.6200000001,"ADDRESS":"公園北路１４４巷６號","OBJECTID":303800},"geometry":{"x":168895.67000000086,"y":2545098.620000001}}]}