{"displayFieldName":"TOWNNAME","fieldAliases":{"ID":"ID","DIS_CODE":"DIS_CODE","TOWNNAME":"TOWNNAME","LI":"LI","LIN":"LIN","STREET":"STREET","SECT":"SECT","MAREA":"MAREA","LANE":"LANE","ALLEY":"ALLEY","HOUSE_NO":"HOUSE_NO","E_COORD97":"E_COORD97","N_COORD97":"N_COORD97","ADDRESS":"ADDRESS","OBJECTID":"OBJECTID"},"geometryType":"esriGeometryPoint","spatialReference":{"wkid":102443,"latestWkid":3826},"fields":[{"name":"ID","type":"esriFieldTypeDouble","alias":"ID"},{"name":"DIS_CODE","type":"esriFieldTypeInteger","alias":"DIS_CODE"},{"name":"TOWNNAME","type":"esriFieldTypeString","alias":"TOWNNAME","length":8},{"name":"LI","type":"esriFieldTypeString","alias":"LI","length":8},{"name":"LIN","type":"esriFieldTypeString","alias":"LIN","length":12},{"name":"STREET","type":"esriFieldTypeString","alias":"STREET","length":20},{"name":"SECT","type":"esriFieldTypeString","alias":"SECT","length":8},{"name":"MAREA","type":"esriFieldTypeString","alias":"MAREA","length":12},{"name":"LANE","type":"esriFieldTypeString","alias":"LANE","length":10},{"name":"ALLEY","type":"esriFieldTypeString","alias":"ALLEY","length":10},{"name":"HOUSE_NO","type":"esriFieldTypeString","alias":"HOUSE_NO","length":20},{"name":"E_COORD97","type":"esriFieldTypeDouble","alias":"E_COORD97"},{"name":"N_COORD97","type":"esriFieldTypeDouble","alias":"N_COORD97"},{"name":"ADDRESS","type":"esriFieldTypeString","alias":"ADDRESS","length":50},{"name":"OBJECTID","type":"esriFieldTypeOID","alias":"OBJECTID"}],"features":[{"attributes":{"ID":109801,"DIS_CODE":0,"TOWNNAME":"安定區","LI":"中榮里","LIN":"9鄰","STREET":" ","SECT":" ","MAREA":"許中營","LANE":" ","ALLEY":" ","HOUSE_NO":"７７號之５","E_COORD97":172412.13,"N_COORD97":2555241.2999999998,"ADDRESS":"許中營７７號之５","OBJECTID":109801},"geometry":{"x":172412.13000000082,"y":2555241.3000000007}},{"attributes":{"ID":109802,"DIS_CODE":0,"TOWNNAME":"安定區","LI":"中榮里","LIN":"9鄰","STREET":" ","SECT":" ","MAREA":"許中營","LANE":" ","ALLEY":" ","HOUSE_NO":"７６之１７號","E_COORD97":172513.69,"N_COORD97":2555226.2999999998,"ADDRESS":"許中營７６之１７號","OBJECTID":109802},"geometry":{"x":172513.69000000134,"y":2555226.3000000026}},{"attributes":{"ID":109803,"DIS_CODE":0,"TOWNNAME":"安定區","LI":"中榮里","LIN":"9鄰","STREET":" ","SECT":" ","MAREA":"許中營","LANE":" ","ALLEY":" ","HOUSE_NO":"７６之３７號","E_COORD97":172543.60251500001,"N_COORD97":2555081.3256299999,"ADDRESS":"許中營７６之３７號","OBJECTID":109803},"geometry":{"x":172543.60251499899,"y":2555081.3256330024}},{"attributes":{"ID":109804,"DIS_CODE":0,"TOWNNAME":"安定區","LI":"中榮里","LIN":"9鄰","STREET":" ","SECT":" ","MAREA":"許中營","LANE":" ","ALLEY":" ","HOUSE_NO":"７５之１５號","E_COORD97":172444.98999999999,"N_COORD97":2555104.2999999998,"ADDRESS":"許中營７５之１５號","OBJECTID":109804},"geometry":{"x":172444.99000000115,"y":2555104.3000000026}},{"attributes":{"ID":109805,"DIS_CODE":0,"TOWNNAME":"安定區","LI":"中榮里","LIN":"9鄰","STREET":" ","SECT":" ","MAREA":"許中營","LANE":" ","ALLEY":" ","HOUSE_NO":"７６之４２號","E_COORD97":172521.151683,"N_COORD97":2555088.2047999999,"ADDRESS":"許中營７６之４２號","OBJECTID":109805},"geometry":{"x":172521.15168299992,"y":2555088.2047960013}},{"attributes":{"ID":109806,"DIS_CODE":0,"TOWNNAME":"歸仁區","LI":"南興里","LIN":"1鄰","STREET":"文化街","SECT":"三段","MAREA":" ","LANE":" ","ALLEY":" ","HOUSE_NO":"２７６號","E_COORD97":176426.04000000001,"N_COORD97":2541191.3300000001,"ADDRESS":"文化街三段２７６號","OBJECTID":109806},"geometry":{"x":176426.04000000004,"y":2541191.3300000038}},{"attributes":{"ID":109807,"DIS_CODE":0,"TOWNNAME":"安南區","LI":"溪心里","LIN":"9鄰","STREET":"海環街","SECT":" ","MAREA":" ","LANE":"７１５巷","ALLEY":"２７弄","HOUSE_NO":"４號","E_COORD97":166454.84,"N_COORD97":2549370.3500000001,"ADDRESS":"海環街７１５巷２７弄４號","OBJECTID":109807},"geometry":{"x":166454.84000000078,"y":2549370.3499999996}},{"attributes":{"ID":109808,"DIS_CODE":0,"TOWNNAME":"安南區","LI":"溪心里","LIN":"9鄰","STREET":"海環街","SECT":" ","MAREA":" ","LANE":"７１５巷","ALLEY":"２７弄","HOUSE_NO":"５號","E_COORD97":166466.06,"N_COORD97":2549351.5899999999,"ADDRESS":"海環街７１５巷２７弄５號","OBJECTID":109808},"geometry":{"x":166466.05999999959,"y":2549351.5899999999}},{"attributes":{"ID":109809,"DIS_CODE":0,"TOWNNAME":"歸仁區","LI":"南保里","LIN":"1鄰","STREET":"大德路","SECT":" ","MAREA":" ","LANE":" ","ALLEY":" ","HOUSE_NO":"３３５號","E_COORD97":176938.97,"N_COORD97":2541533.27,"ADDRESS":"大德路３３５號","OBJECTID":109809},"geometry":{"x":176938.97000000067,"y":2541533.2700000033}},{"attributes":{"ID":109810,"DIS_CODE":0,"TOWNNAME":"安定區","LI":"海寮里","LIN":"9鄰","STREET":" ","SECT":" ","MAREA":"海寮","LANE":" ","ALLEY":" ","HOUSE_NO":"９３號之２","E_COORD97":169291.35999999999,"N_COORD97":2555264.2999999998,"ADDRESS":"海寮９３號之２","OBJECTID":109810},"geometry":{"x":169291.36000000127,"y":2555264.3000000007}},{"attributes":{"ID":109811,"DIS_CODE":0,"TOWNNAME":"歸仁區","LI":"大廟里","LIN":"1鄰","STREET":"大廟二街","SECT":" ","MAREA":" ","LANE":" ","ALLEY":" ","HOUSE_NO":"３９號","E_COORD97":176002.76999999999,"N_COORD97":2544028.25,"ADDRESS":"大廟二街３９號","OBJECTID":109811},"geometry":{"x":176002.77000000048,"y":2544028.25}},{"attributes":{"ID":109812,"DIS_CODE":0,"TOWNNAME":"歸仁區","LI":"南興里","LIN":"1鄰","STREET":"文化街","SECT":"三段","MAREA":" ","LANE":" ","ALLEY":" ","HOUSE_NO":"２２８號","E_COORD97":176477.34,"N_COORD97":2541184.3300000001,"ADDRESS":"文化街三段２２８號","OBJECTID":109812},"geometry":{"x":176477.34000000078,"y":2541184.3300000038}},{"attributes":{"ID":109813,"DIS_CODE":0,"TOWNNAME":"安定區","LI":"中榮里","LIN":"9鄰","STREET":" ","SECT":" ","MAREA":"許中營","LANE":" ","ALLEY":" ","HOUSE_NO":"７６號之２","E_COORD97":172512.10999999999,"N_COORD97":2555176.2999999998,"ADDRESS":"許中營７６號之２","OBJECTID":109813},"geometry":{"x":172512.11000000127,"y":2555176.3000000007}},{"attributes":{"ID":109814,"DIS_CODE":0,"TOWNNAME":"安定區","LI":"中榮里","LIN":"9鄰","STREET":" ","SECT":" ","MAREA":"許中營","LANE":" ","ALLEY":" ","HOUSE_NO":"７６之２１號","E_COORD97":172585.96257599999,"N_COORD97":2555072.1181399999,"ADDRESS":"許中營７６之２１號","OBJECTID":109814},"geometry":{"x":172585.96257600188,"y":2555072.1181380022}},{"attributes":{"ID":109815,"DIS_CODE":0,"TOWNNAME":"安定區","LI":"中榮里","LIN":"9鄰","STREET":" ","SECT":" ","MAREA":"許中營","LANE":" ","ALLEY":" ","HOUSE_NO":"７５之１０號","E_COORD97":172435.48999999999,"N_COORD97":2555105.2999999998,"ADDRESS":"許中營７５之１０號","OBJECTID":109815},"geometry":{"x":172435.49000000022,"y":2555105.3000000007}},{"attributes":{"ID":109816,"DIS_CODE":0,"TOWNNAME":"安定區","LI":"海寮里","LIN":"9鄰","STREET":" ","SECT":" ","MAREA":"海寮","LANE":" ","ALLEY":" ","HOUSE_NO":"８６號","E_COORD97":169288.09,"N_COORD97":2555402.25,"ADDRESS":"海寮８６號","OBJECTID":109816},"geometry":{"x":169288.09000000078,"y":2555402.2500000019}},{"attributes":{"ID":109817,"DIS_CODE":0,"TOWNNAME":"歸仁區","LI":"南興里","LIN":"1鄰","STREET":"文化街","SECT":"三段","MAREA":" ","LANE":" ","ALLEY":" ","HOUSE_NO":"２１６號","E_COORD97":176494.73999999999,"N_COORD97":2541185.3300000001,"ADDRESS":"文化街三段２１６號","OBJECTID":109817},"geometry":{"x":176494.74000000209,"y":2541185.3300000019}},{"attributes":{"ID":109818,"DIS_CODE":0,"TOWNNAME":"安定區","LI":"港尾里","LIN":"9鄰","STREET":" ","SECT":" ","MAREA":"港子尾","LANE":" ","ALLEY":" ","HOUSE_NO":"４５號之２","E_COORD97":171566.66,"N_COORD97":2555881.2999999998,"ADDRESS":"港子尾４５號之２","OBJECTID":109818},"geometry":{"x":171566.66000000015,"y":2555881.3000000007}},{"attributes":{"ID":109819,"DIS_CODE":0,"TOWNNAME":"安定區","LI":"中榮里","LIN":"9鄰","STREET":" ","SECT":" ","MAREA":"許中營","LANE":" ","ALLEY":" ","HOUSE_NO":"７５號之１","E_COORD97":172366.17999999999,"N_COORD97":2555121.2999999998,"ADDRESS":"許中營７５號之１","OBJECTID":109819},"geometry":{"x":172366.1799999997,"y":2555121.3000000026}},{"attributes":{"ID":109820,"DIS_CODE":0,"TOWNNAME":"安南區","LI":"溪心里","LIN":"9鄰","STREET":"海環街","SECT":" ","MAREA":" ","LANE":"７１５巷","ALLEY":"２７弄","HOUSE_NO":"６號","E_COORD97":166449.79000000001,"N_COORD97":2549365.77,"ADDRESS":"海環街７１５巷２７弄６號","OBJECTID":109820},"geometry":{"x":166449.79000000004,"y":2549365.7700000014}},{"attributes":{"ID":109821,"DIS_CODE":0,"TOWNNAME":"安南區","LI":"溪心里","LIN":"9鄰","STREET":"海環街","SECT":" ","MAREA":" ","LANE":"７１５巷","ALLEY":"２７弄","HOUSE_NO":"７號","E_COORD97":166462,"N_COORD97":2549346.7999999998,"ADDRESS":"海環街７１５巷２７弄７號","OBJECTID":109821},"geometry":{"x":166462,"y":2549346.8000000026}},{"attributes":{"ID":109822,"DIS_CODE":0,"TOWNNAME":"安南區","LI":"溪心里","LIN":"9鄰","STREET":"海環街","SECT":" ","MAREA":" ","LANE":"７１５巷","ALLEY":"２７弄","HOUSE_NO":"８號","E_COORD97":166446.26999999999,"N_COORD97":2549361.0299999998,"ADDRESS":"海環街７１５巷２７弄８號","OBJECTID":109822},"geometry":{"x":166446.27000000142,"y":2549361.0300000012}},{"attributes":{"ID":109823,"DIS_CODE":0,"TOWNNAME":"安南區","LI":"溪心里","LIN":"9鄰","STREET":"海環街","SECT":" ","MAREA":" ","LANE":"７１５巷","ALLEY":"２７弄","HOUSE_NO":"９號","E_COORD97":166457.94,"N_COORD97":2549342.1899999999,"ADDRESS":"海環街７１５巷２７弄９號","OBJECTID":109823},"geometry":{"x":166457.94000000227,"y":2549342.1900000013}},{"attributes":{"ID":109824,"DIS_CODE":0,"TOWNNAME":"安南區","LI":"溪心里","LIN":"9鄰","STREET":"海環街","SECT":" ","MAREA":" ","LANE":"７１５巷","ALLEY":"４１弄","HOUSE_NO":"１０號","E_COORD97":166412.70999999999,"N_COORD97":2549376.4300000002,"ADDRESS":"海環街７１５巷４１弄１０號","OBJECTID":109824},"geometry":{"x":166412.70999999996,"y":2549376.4299999997}},{"attributes":{"ID":109825,"DIS_CODE":0,"TOWNNAME":"安南區","LI":"溪心里","LIN":"9鄰","STREET":"海環街","SECT":" ","MAREA":" ","LANE":"７１５巷","ALLEY":"４１弄","HOUSE_NO":"１１號","E_COORD97":166422.45000000001,"N_COORD97":2549357.29,"ADDRESS":"海環街７１５巷４１弄１１號","OBJECTID":109825},"geometry":{"x":166422.45000000112,"y":2549357.2899999991}},{"attributes":{"ID":109826,"DIS_CODE":0,"TOWNNAME":"安定區","LI":"中榮里","LIN":"9鄰","STREET":" ","SECT":" ","MAREA":"許中營","LANE":" ","ALLEY":" ","HOUSE_NO":"７６之５１號","E_COORD97":172531.39000000001,"N_COORD97":2555118.2999999998,"ADDRESS":"許中營７６之５１號","OBJECTID":109826},"geometry":{"x":172531.39000000153,"y":2555118.3000000007}},{"attributes":{"ID":109827,"DIS_CODE":0,"TOWNNAME":"安南區","LI":"溪心里","LIN":"9鄰","STREET":"海環街","SECT":" ","MAREA":" ","LANE":"７１５巷","ALLEY":"４１弄","HOUSE_NO":"１３號","E_COORD97":166417.64000000001,"N_COORD97":2549352.3100000001,"ADDRESS":"海環街７１５巷４１弄１３號","OBJECTID":109827},"geometry":{"x":166417.6400000006,"y":2549352.3100000042}},{"attributes":{"ID":109828,"DIS_CODE":0,"TOWNNAME":"安定區","LI":"中榮里","LIN":"9鄰","STREET":" ","SECT":" ","MAREA":"許中營","LANE":" ","ALLEY":" ","HOUSE_NO":"７６號之１","E_COORD97":172442.67999999999,"N_COORD97":2555158.2999999998,"ADDRESS":"許中營７６號之１","OBJECTID":109828},"geometry":{"x":172442.6799999997,"y":2555158.3000000026}},{"attributes":{"ID":109829,"DIS_CODE":0,"TOWNNAME":"安定區","LI":"中榮里","LIN":"9鄰","STREET":" ","SECT":" ","MAREA":"許中營","LANE":" ","ALLEY":" ","HOUSE_NO":"７７之３０號","E_COORD97":172672.48999999999,"N_COORD97":2555472.2999999998,"ADDRESS":"許中營７７之３０號","OBJECTID":109829},"geometry":{"x":172672.49000000115,"y":2555472.3000000045}},{"attributes":{"ID":109830,"DIS_CODE":0,"TOWNNAME":"安定區","LI":"中榮里","LIN":"9鄰","STREET":" ","SECT":" ","MAREA":"許中營","LANE":" ","ALLEY":" ","HOUSE_NO":"７５之７號","E_COORD97":172451.04000000001,"N_COORD97":2555089.2999999998,"ADDRESS":"許中營７５之７號","OBJECTID":109830},"geometry":{"x":172451.0400000019,"y":2555089.3000000045}},{"attributes":{"ID":109831,"DIS_CODE":0,"TOWNNAME":"安定區","LI":"中榮里","LIN":"9鄰","STREET":" ","SECT":" ","MAREA":"許中營","LANE":" ","ALLEY":" ","HOUSE_NO":"７６之２０號","E_COORD97":172587.339278,"N_COORD97":2555077.5156399999,"ADDRESS":"許中營７６之２０號","OBJECTID":109831},"geometry":{"x":172587.33927800041,"y":2555077.5156350043}},{"attributes":{"ID":109832,"DIS_CODE":0,"TOWNNAME":"安定區","LI":"海寮里","LIN":"9鄰","STREET":" ","SECT":" ","MAREA":"海寮","LANE":" ","ALLEY":" ","HOUSE_NO":"９２之１號","E_COORD97":169305.89000000001,"N_COORD97":2555268.2999999998,"ADDRESS":"海寮９２之１號","OBJECTID":109832},"geometry":{"x":169305.8900000006,"y":2555268.3000000007}},{"attributes":{"ID":109833,"DIS_CODE":0,"TOWNNAME":"安定區","LI":"中榮里","LIN":"9鄰","STREET":" ","SECT":" ","MAREA":"許中營","LANE":" ","ALLEY":" ","HOUSE_NO":"７７號之４","E_COORD97":172414.70000000001,"N_COORD97":2555201.2999999998,"ADDRESS":"許中營７７號之４","OBJECTID":109833},"geometry":{"x":172414.70000000112,"y":2555201.3000000045}},{"attributes":{"ID":109834,"DIS_CODE":0,"TOWNNAME":"安定區","LI":"中榮里","LIN":"9鄰","STREET":" ","SECT":" ","MAREA":"許中營","LANE":" ","ALLEY":" ","HOUSE_NO":"７６之１９號","E_COORD97":172590.30448200001,"N_COORD97":2555088.7339599999,"ADDRESS":"許中營７６之１９號","OBJECTID":109834},"geometry":{"x":172590.30448199995,"y":2555088.7339619994}},{"attributes":{"ID":109835,"DIS_CODE":0,"TOWNNAME":"安定區","LI":"中榮里","LIN":"9鄰","STREET":" ","SECT":" ","MAREA":"許中營","LANE":" ","ALLEY":" ","HOUSE_NO":"７７之２０號","E_COORD97":172902.39000000001,"N_COORD97":2555279.2999999998,"ADDRESS":"許中營７７之２０號","OBJECTID":109835},"geometry":{"x":172902.38999999966,"y":2555279.3000000045}},{"attributes":{"ID":109836,"DIS_CODE":0,"TOWNNAME":"安定區","LI":"港尾里","LIN":"9鄰","STREET":" ","SECT":" ","MAREA":"港子尾","LANE":" ","ALLEY":" ","HOUSE_NO":"４５號之１","E_COORD97":171567.23000000001,"N_COORD97":2555886.2999999998,"ADDRESS":"港子尾４５號之１","OBJECTID":109836},"geometry":{"x":171567.23000000138,"y":2555886.3000000026}},{"attributes":{"ID":109837,"DIS_CODE":0,"TOWNNAME":"安定區","LI":"中榮里","LIN":"9鄰","STREET":" ","SECT":" ","MAREA":"許中營","LANE":" ","ALLEY":" ","HOUSE_NO":"７７之２２號","E_COORD97":172461.19,"N_COORD97":2555224.2999999998,"ADDRESS":"許中營７７之２２號","OBJECTID":109837},"geometry":{"x":172461.19000000134,"y":2555224.3000000007}},{"attributes":{"ID":109838,"DIS_CODE":0,"TOWNNAME":"安定區","LI":"港尾里","LIN":"9鄰","STREET":" ","SECT":" ","MAREA":"港子尾","LANE":" ","ALLEY":" ","HOUSE_NO":"４３號之１","E_COORD97":171597.53,"N_COORD97":2555954.2999999998,"ADDRESS":"港子尾４３號之１","OBJECTID":109838},"geometry":{"x":171597.53000000119,"y":2555954.3000000026}},{"attributes":{"ID":109839,"DIS_CODE":0,"TOWNNAME":"安南區","LI":"溪心里","LIN":"9鄰","STREET":"海環街","SECT":" ","MAREA":" ","LANE":"７１５巷","ALLEY":"４１弄","HOUSE_NO":"１４號","E_COORD97":166402.38,"N_COORD97":2549364.77,"ADDRESS":"海環街７１５巷４１弄１４號","OBJECTID":109839},"geometry":{"x":166402.38000000082,"y":2549364.7699999996}},{"attributes":{"ID":109840,"DIS_CODE":0,"TOWNNAME":"歸仁區","LI":"沙崙里","LIN":"1鄰","STREET":" ","SECT":" ","MAREA":"二甲","LANE":" ","ALLEY":" ","HOUSE_NO":"１５７號","E_COORD97":178651.26999999999,"N_COORD97":2539549.25,"ADDRESS":"二甲１５７號","OBJECTID":109840},"geometry":{"x":178651.26999999955,"y":2539549.25}},{"attributes":{"ID":109841,"DIS_CODE":0,"TOWNNAME":"歸仁區","LI":"沙崙里","LIN":"1鄰","STREET":" ","SECT":" ","MAREA":"二甲","LANE":" ","ALLEY":" ","HOUSE_NO":"１２９號","E_COORD97":178519.03,"N_COORD97":2539274.8900000001,"ADDRESS":"二甲１２９號","OBJECTID":109841},"geometry":{"x":178519.03000000119,"y":2539274.8900000006}},{"attributes":{"ID":109842,"DIS_CODE":0,"TOWNNAME":"歸仁區","LI":"沙崙里","LIN":"1鄰","STREET":" ","SECT":" ","MAREA":"二甲","LANE":" ","ALLEY":" ","HOUSE_NO":"１６１號","E_COORD97":178795.48999999999,"N_COORD97":2539235.96,"ADDRESS":"二甲１６１號","OBJECTID":109842},"geometry":{"x":178795.49000000115,"y":2539235.9600000028}},{"attributes":{"ID":109843,"DIS_CODE":0,"TOWNNAME":"安南區","LI":"溪心里","LIN":"9鄰","STREET":"海環街","SECT":" ","MAREA":" ","LANE":"７１５巷","ALLEY":"４１弄","HOUSE_NO":"１５號","E_COORD97":166413.51000000001,"N_COORD97":2549345.7799999998,"ADDRESS":"海環街７１５巷４１弄１５號","OBJECTID":109843},"geometry":{"x":166413.51000000071,"y":2549345.7800000012}},{"attributes":{"ID":109844,"DIS_CODE":0,"TOWNNAME":"東山區","LI":"科里里","LIN":"1鄰","STREET":" ","SECT":" ","MAREA":"下庄子","LANE":" ","ALLEY":" ","HOUSE_NO":"１０號","E_COORD97":189603.53,"N_COORD97":2578468.7000000002,"ADDRESS":"下庄子１０號","OBJECTID":109844},"geometry":{"x":189603.53000000119,"y":2578468.7000000011}},{"attributes":{"ID":109845,"DIS_CODE":0,"TOWNNAME":"東山區","LI":"科里里","LIN":"1鄰","STREET":" ","SECT":" ","MAREA":"下庄子","LANE":" ","ALLEY":" ","HOUSE_NO":"１１號","E_COORD97":189642.28,"N_COORD97":2578460.29,"ADDRESS":"下庄子１１號","OBJECTID":109845},"geometry":{"x":189642.28000000212,"y":2578460.2899999991}},{"attributes":{"ID":109846,"DIS_CODE":0,"TOWNNAME":"北區","LI":"力行里","LIN":"1鄰","STREET":"開南街","SECT":" ","MAREA":" ","LANE":" ","ALLEY":" ","HOUSE_NO":"２２３之２號","E_COORD97":170835.64999999999,"N_COORD97":2544976.0600000001,"ADDRESS":"開南街２２３之２號","OBJECTID":109846},"geometry":{"x":170835.6500000013,"y":2544976.0600000005}},{"attributes":{"ID":109847,"DIS_CODE":0,"TOWNNAME":"北區","LI":"勝安里","LIN":"1鄰","STREET":"開元路","SECT":" ","MAREA":" ","LANE":" ","ALLEY":" ","HOUSE_NO":"４５號","E_COORD97":169594.51999999999,"N_COORD97":2545147.3399999999,"ADDRESS":"開元路４５號","OBJECTID":109847},"geometry":{"x":169594.52000000048,"y":2545147.3400000036}},{"attributes":{"ID":109848,"DIS_CODE":0,"TOWNNAME":"北區","LI":"勝安里","LIN":"1鄰","STREET":"開元路","SECT":" ","MAREA":" ","LANE":" ","ALLEY":" ","HOUSE_NO":"４７號","E_COORD97":169599.26000000001,"N_COORD97":2545149.23,"ADDRESS":"開元路４７號","OBJECTID":109848},"geometry":{"x":169599.25999999978,"y":2545149.2300000023}},{"attributes":{"ID":109849,"DIS_CODE":0,"TOWNNAME":"北區","LI":"勝安里","LIN":"1鄰","STREET":"開元路","SECT":" ","MAREA":" ","LANE":" ","ALLEY":" ","HOUSE_NO":"４９號","E_COORD97":169605.75,"N_COORD97":2545152.3100000001,"ADDRESS":"開元路４９號","OBJECTID":109849},"geometry":{"x":169605.75000000093,"y":2545152.3100000024}},{"attributes":{"ID":109850,"DIS_CODE":0,"TOWNNAME":"北區","LI":"勝安里","LIN":"1鄰","STREET":"開元路","SECT":" ","MAREA":" ","LANE":" ","ALLEY":" ","HOUSE_NO":"５１號","E_COORD97":169617.60000000001,"N_COORD97":2545156.6600000001,"ADDRESS":"開元路５１號","OBJECTID":109850},"geometry":{"x":169617.60000000149,"y":2545156.660000002}},{"attributes":{"ID":109851,"DIS_CODE":0,"TOWNNAME":"北區","LI":"勝安里","LIN":"1鄰","STREET":"開元路","SECT":" ","MAREA":" ","LANE":" ","ALLEY":" ","HOUSE_NO":"５３號","E_COORD97":169625.67999999999,"N_COORD97":2545160.5899999999,"ADDRESS":"開元路５３號","OBJECTID":109851},"geometry":{"x":169625.68000000156,"y":2545160.5900000017}},{"attributes":{"ID":109852,"DIS_CODE":0,"TOWNNAME":"安南區","LI":"溪心里","LIN":"9鄰","STREET":"海環街","SECT":" ","MAREA":" ","LANE":"７１５巷","ALLEY":"４１弄","HOUSE_NO":"１６號","E_COORD97":166397.20999999999,"N_COORD97":2549358.6400000001,"ADDRESS":"海環街７１５巷４１弄１６號","OBJECTID":109852},"geometry":{"x":166397.20999999996,"y":2549358.6400000025}},{"attributes":{"ID":109853,"DIS_CODE":0,"TOWNNAME":"安南區","LI":"溪心里","LIN":"9鄰","STREET":"海環街","SECT":" ","MAREA":" ","LANE":"７１５巷","ALLEY":"４１弄","HOUSE_NO":"１７號","E_COORD97":166408.35000000001,"N_COORD97":2549340.6299999999,"ADDRESS":"海環街７１５巷４１弄１７號","OBJECTID":109853},"geometry":{"x":166408.34999999963,"y":2549340.629999999}},{"attributes":{"ID":109854,"DIS_CODE":0,"TOWNNAME":"安南區","LI":"溪心里","LIN":"9鄰","STREET":"海環街","SECT":" ","MAREA":" ","LANE":"７１５巷","ALLEY":"４１弄","HOUSE_NO":"１８號","E_COORD97":166391.66,"N_COORD97":2549353.48,"ADDRESS":"海環街７１５巷４１弄１８號","OBJECTID":109854},"geometry":{"x":166391.65999999922,"y":2549353.4800000004}},{"attributes":{"ID":109855,"DIS_CODE":0,"TOWNNAME":"安南區","LI":"溪心里","LIN":"9鄰","STREET":"海環街","SECT":" ","MAREA":" ","LANE":"７１５巷","ALLEY":"４１弄","HOUSE_NO":"１號","E_COORD97":166447.95000000001,"N_COORD97":2549386.1000000001,"ADDRESS":"海環街７１５巷４１弄１號","OBJECTID":109855},"geometry":{"x":166447.95000000112,"y":2549386.0999999996}},{"attributes":{"ID":109856,"DIS_CODE":0,"TOWNNAME":"安南區","LI":"溪心里","LIN":"9鄰","STREET":"海環街","SECT":" ","MAREA":" ","LANE":"７１５巷","ALLEY":"４１弄","HOUSE_NO":"２０號","E_COORD97":166386.88,"N_COORD97":2549347.7400000002,"ADDRESS":"海環街７１５巷４１弄２０號","OBJECTID":109856},"geometry":{"x":166386.88000000082,"y":2549347.7400000002}},{"attributes":{"ID":109857,"DIS_CODE":0,"TOWNNAME":"安南區","LI":"溪心里","LIN":"9鄰","STREET":"海環街","SECT":" ","MAREA":" ","LANE":"７１５巷","ALLEY":"４１弄","HOUSE_NO":"２１號","E_COORD97":166397.51999999999,"N_COORD97":2549329.29,"ADDRESS":"海環街７１５巷４１弄２１號","OBJECTID":109857},"geometry":{"x":166397.52000000048,"y":2549329.2899999991}},{"attributes":{"ID":109858,"DIS_CODE":0,"TOWNNAME":"安南區","LI":"溪心里","LIN":"9鄰","STREET":"海環街","SECT":" ","MAREA":" ","LANE":"７１５巷","ALLEY":"４１弄","HOUSE_NO":"２２號","E_COORD97":166382.09,"N_COORD97":2549342.3900000001,"ADDRESS":"海環街７１５巷４１弄２２號","OBJECTID":109858},"geometry":{"x":166382.09000000078,"y":2549342.3900000025}},{"attributes":{"ID":109859,"DIS_CODE":0,"TOWNNAME":"北區","LI":"勝安里","LIN":"1鄰","STREET":"開元路","SECT":" ","MAREA":" ","LANE":" ","ALLEY":" ","HOUSE_NO":"５５號","E_COORD97":169637.17999999999,"N_COORD97":2545164.5800000001,"ADDRESS":"開元路５５號","OBJECTID":109859},"geometry":{"x":169637.1799999997,"y":2545164.5800000019}},{"attributes":{"ID":109860,"DIS_CODE":0,"TOWNNAME":"安定區","LI":"中榮里","LIN":"9鄰","STREET":" ","SECT":" ","MAREA":"許中營","LANE":" ","ALLEY":" ","HOUSE_NO":"７７號之１０","E_COORD97":172409.88,"N_COORD97":2555175.2999999998,"ADDRESS":"許中營７７號之１０","OBJECTID":109860},"geometry":{"x":172409.88000000082,"y":2555175.3000000026}},{"attributes":{"ID":109861,"DIS_CODE":0,"TOWNNAME":"安定區","LI":"中榮里","LIN":"9鄰","STREET":" ","SECT":" ","MAREA":"許中營","LANE":" ","ALLEY":" ","HOUSE_NO":"７６號之９","E_COORD97":172493.66,"N_COORD97":2555163.2999999998,"ADDRESS":"許中營７６號之９","OBJECTID":109861},"geometry":{"x":172493.66000000015,"y":2555163.3000000007}},{"attributes":{"ID":109862,"DIS_CODE":0,"TOWNNAME":"安定區","LI":"中榮里","LIN":"9鄰","STREET":" ","SECT":" ","MAREA":"許中營","LANE":" ","ALLEY":" ","HOUSE_NO":"７６之４１號","E_COORD97":172525.59948999999,"N_COORD97":2555086.7231299998,"ADDRESS":"許中營７６之４１號","OBJECTID":109862},"geometry":{"x":172525.59949000087,"y":2555086.7231299989}},{"attributes":{"ID":109863,"DIS_CODE":0,"TOWNNAME":"安定區","LI":"中榮里","LIN":"9鄰","STREET":" ","SECT":" ","MAREA":"許中營","LANE":" ","ALLEY":" ","HOUSE_NO":"７４號","E_COORD97":172368.473364,"N_COORD97":2555093.2724700002,"ADDRESS":"許中營７４號","OBJECTID":109863},"geometry":{"x":172368.47336400021,"y":2555093.272466002}},{"attributes":{"ID":109864,"DIS_CODE":0,"TOWNNAME":"安定區","LI":"中榮里","LIN":"9鄰","STREET":" ","SECT":" ","MAREA":"許中營","LANE":" ","ALLEY":" ","HOUSE_NO":"７６之４８號","E_COORD97":172544.79000000001,"N_COORD97":2555114.2999999998,"ADDRESS":"許中營７６之４８號","OBJECTID":109864},"geometry":{"x":172544.79000000097,"y":2555114.3000000026}},{"attributes":{"ID":109865,"DIS_CODE":0,"TOWNNAME":"安定區","LI":"中榮里","LIN":"9鄰","STREET":" ","SECT":" ","MAREA":"許中營","LANE":" ","ALLEY":" ","HOUSE_NO":"７６之４７號","E_COORD97":172548.473922,"N_COORD97":2555113.18145,"ADDRESS":"許中營７６之４７號","OBJECTID":109865},"geometry":{"x":172548.4739220012,"y":2555113.1814490017}},{"attributes":{"ID":109866,"DIS_CODE":0,"TOWNNAME":"安定區","LI":"中榮里","LIN":"9鄰","STREET":" ","SECT":" ","MAREA":"許中營","LANE":" ","ALLEY":" ","HOUSE_NO":"７６之２５號","E_COORD97":172574.63125899999,"N_COORD97":2555102.0689599998,"ADDRESS":"許中營７６之２５號","OBJECTID":109866},"geometry":{"x":172574.63125900086,"y":2555102.0689550024}},{"attributes":{"ID":109867,"DIS_CODE":0,"TOWNNAME":"安定區","LI":"中榮里","LIN":"9鄰","STREET":" ","SECT":" ","MAREA":"許中營","LANE":" ","ALLEY":" ","HOUSE_NO":"７６之２３號","E_COORD97":172579.07906600001,"N_COORD97":2555100.3756200001,"ADDRESS":"許中營７６之２３號","OBJECTID":109867},"geometry":{"x":172579.07906599995,"y":2555100.3756229989}},{"attributes":{"ID":109868,"DIS_CODE":0,"TOWNNAME":"安定區","LI":"六嘉里","LIN":"9鄰","STREET":" ","SECT":" ","MAREA":"六塊寮","LANE":" ","ALLEY":" ","HOUSE_NO":"７３號","E_COORD97":170250.92000000001,"N_COORD97":2553317.27,"ADDRESS":"六塊寮７３號","OBJECTID":109868},"geometry":{"x":170250.91999999993,"y":2553317.2699999996}},{"attributes":{"ID":109869,"DIS_CODE":0,"TOWNNAME":"北區","LI":"勝安里","LIN":"1鄰","STREET":"開元路","SECT":" ","MAREA":" ","LANE":" ","ALLEY":" ","HOUSE_NO":"２９號","E_COORD97":169552.45000000001,"N_COORD97":2545130.2000000002,"ADDRESS":"開元路２９號","OBJECTID":109869},"geometry":{"x":169552.45000000019,"y":2545130.1999999993}},{"attributes":{"ID":109870,"DIS_CODE":0,"TOWNNAME":"安南區","LI":"溪心里","LIN":"9鄰","STREET":"海環街","SECT":" ","MAREA":" ","LANE":"７１５巷","ALLEY":"４１弄","HOUSE_NO":"２３號","E_COORD97":166392.45999999999,"N_COORD97":2549322.6800000002,"ADDRESS":"海環街７１５巷４１弄２３號","OBJECTID":109870},"geometry":{"x":166392.45999999996,"y":2549322.6800000016}},{"attributes":{"ID":109871,"DIS_CODE":0,"TOWNNAME":"安南區","LI":"溪心里","LIN":"9鄰","STREET":"海環街","SECT":" ","MAREA":" ","LANE":"７１５巷","ALLEY":"４１弄","HOUSE_NO":"２４號","E_COORD97":166377.12,"N_COORD97":2549336.0800000001,"ADDRESS":"海環街７１５巷４１弄２４號","OBJECTID":109871},"geometry":{"x":166377.12000000104,"y":2549336.0800000001}},{"attributes":{"ID":109872,"DIS_CODE":0,"TOWNNAME":"安南區","LI":"溪心里","LIN":"9鄰","STREET":"海環街","SECT":" ","MAREA":" ","LANE":"７１５巷","ALLEY":"４１弄","HOUSE_NO":"２５號","E_COORD97":166385.85000000001,"N_COORD97":2549316.8399999999,"ADDRESS":"海環街７１５巷４１弄２５號","OBJECTID":109872},"geometry":{"x":166385.84999999963,"y":2549316.8399999999}},{"attributes":{"ID":109873,"DIS_CODE":0,"TOWNNAME":"安定區","LI":"中榮里","LIN":"9鄰","STREET":" ","SECT":" ","MAREA":"許中營","LANE":" ","ALLEY":" ","HOUSE_NO":"７６之３１號","E_COORD97":172566.58284799999,"N_COORD97":2555074.3406400001,"ADDRESS":"許中營７６之３１號","OBJECTID":109873},"geometry":{"x":172566.58284800034,"y":2555074.3406369984}},{"attributes":{"ID":109874,"DIS_CODE":0,"TOWNNAME":"安定區","LI":"中榮里","LIN":"9鄰","STREET":" ","SECT":" ","MAREA":"許中營","LANE":" ","ALLEY":" ","HOUSE_NO":"７５之２１號","E_COORD97":172465.89000000001,"N_COORD97":2555115.2999999998,"ADDRESS":"許中營７５之２１號","OBJECTID":109874},"geometry":{"x":172465.8900000006,"y":2555115.3000000007}},{"attributes":{"ID":109875,"DIS_CODE":0,"TOWNNAME":"安定區","LI":"中榮里","LIN":"9鄰","STREET":" ","SECT":" ","MAREA":"許中營","LANE":" ","ALLEY":" ","HOUSE_NO":"７６之４３號","E_COORD97":172516.597977,"N_COORD97":2555089.68646,"ADDRESS":"許中營７６之４３號","OBJECTID":109875},"geometry":{"x":172516.59797700122,"y":2555089.6864620019}},{"attributes":{"ID":109876,"DIS_CODE":0,"TOWNNAME":"安定區","LI":"中榮里","LIN":"9鄰","STREET":" ","SECT":" ","MAREA":"許中營","LANE":" ","ALLEY":" ","HOUSE_NO":"７６之３６號","E_COORD97":172548.15622199999,"N_COORD97":2555079.9498000001,"ADDRESS":"許中營７６之３６號","OBJECTID":109876},"geometry":{"x":172548.15622199979,"y":2555079.9498000033}},{"attributes":{"ID":109877,"DIS_CODE":0,"TOWNNAME":"安定區","LI":"中榮里","LIN":"9鄰","STREET":" ","SECT":" ","MAREA":"許中營","LANE":" ","ALLEY":" ","HOUSE_NO":"７６之４０號","E_COORD97":172530.153196,"N_COORD97":2555085.3473,"ADDRESS":"許中營７６之４０號","OBJECTID":109877},"geometry":{"x":172530.15319599956,"y":2555085.3472980037}},{"attributes":{"ID":109878,"DIS_CODE":0,"TOWNNAME":"安南區","LI":"溪心里","LIN":"9鄰","STREET":"海環街","SECT":" ","MAREA":" ","LANE":"７１５巷","ALLEY":"４１弄","HOUSE_NO":"２６號","E_COORD97":166371.95000000001,"N_COORD97":2549330.3399999999,"ADDRESS":"海環街７１５巷４１弄２６號","OBJECTID":109878},"geometry":{"x":166371.95000000112,"y":2549330.3399999999}},{"attributes":{"ID":109879,"DIS_CODE":0,"TOWNNAME":"安南區","LI":"溪心里","LIN":"9鄰","STREET":"海環街","SECT":" ","MAREA":" ","LANE":"７１５巷","ALLEY":"４１弄","HOUSE_NO":"２７號","E_COORD97":166382.03,"N_COORD97":2549312.77,"ADDRESS":"海環街７１５巷４１弄２７號","OBJECTID":109879},"geometry":{"x":166382.03000000026,"y":2549312.7699999996}},{"attributes":{"ID":109880,"DIS_CODE":0,"TOWNNAME":"安南區","LI":"溪心里","LIN":"9鄰","STREET":"海環街","SECT":" ","MAREA":" ","LANE":"７１５巷","ALLEY":"４１弄","HOUSE_NO":"２８號","E_COORD97":166366.78,"N_COORD97":2549325.5600000001,"ADDRESS":"海環街７１５巷４１弄２８號","OBJECTID":109880},"geometry":{"x":166366.78000000026,"y":2549325.5600000005}},{"attributes":{"ID":109881,"DIS_CODE":0,"TOWNNAME":"安南區","LI":"溪心里","LIN":"9鄰","STREET":"海環街","SECT":" ","MAREA":" ","LANE":"７１５巷","ALLEY":"４１弄","HOUSE_NO":"２９號","E_COORD97":166376.67999999999,"N_COORD97":2549306.4100000001,"ADDRESS":"海環街７１５巷４１弄２９號","OBJECTID":109881},"geometry":{"x":166376.68000000063,"y":2549306.4100000001}},{"attributes":{"ID":109882,"DIS_CODE":0,"TOWNNAME":"安南區","LI":"溪心里","LIN":"9鄰","STREET":"海環街","SECT":" ","MAREA":" ","LANE":"７１５巷","ALLEY":"４１弄","HOUSE_NO":"２號","E_COORD97":166432.48999999999,"N_COORD97":2549399.8599999999,"ADDRESS":"海環街７１５巷４１弄２號","OBJECTID":109882},"geometry":{"x":166432.49000000115,"y":2549399.8600000013}},{"attributes":{"ID":109883,"DIS_CODE":0,"TOWNNAME":"安南區","LI":"溪心里","LIN":"9鄰","STREET":"海環街","SECT":" ","MAREA":" ","LANE":"７１５巷","ALLEY":"４１弄","HOUSE_NO":"３０號","E_COORD97":166361.81,"N_COORD97":2549318.8700000001,"ADDRESS":"海環街７１５巷４１弄３０號","OBJECTID":109883},"geometry":{"x":166361.81000000052,"y":2549318.8700000048}},{"attributes":{"ID":109884,"DIS_CODE":0,"TOWNNAME":"安南區","LI":"溪心里","LIN":"9鄰","STREET":"海環街","SECT":" ","MAREA":" ","LANE":"７１５巷","ALLEY":"４１弄","HOUSE_NO":"３１號","E_COORD97":166370.07000000001,"N_COORD97":2549298.2799999998,"ADDRESS":"海環街７１５巷４１弄３１號","OBJECTID":109884},"geometry":{"x":166370.0700000003,"y":2549298.2800000012}},{"attributes":{"ID":109885,"DIS_CODE":0,"TOWNNAME":"北區","LI":"華興里","LIN":"1鄰","STREET":"林森路","SECT":"三段","MAREA":" ","LANE":" ","ALLEY":" ","HOUSE_NO":"２３７號","E_COORD97":170362.87,"N_COORD97":2545401.1800000002,"ADDRESS":"林森路三段２３７號","OBJECTID":109885},"geometry":{"x":170362.87000000104,"y":2545401.1799999997}},{"attributes":{"ID":109886,"DIS_CODE":0,"TOWNNAME":"北區","LI":"華興里","LIN":"1鄰","STREET":"林森路","SECT":"三段","MAREA":" ","LANE":" ","ALLEY":" ","HOUSE_NO":"２３９號","E_COORD97":170360.95000000001,"N_COORD97":2545404.6499999999,"ADDRESS":"林森路三段２３９號","OBJECTID":109886},"geometry":{"x":170360.95000000019,"y":2545404.6500000022}},{"attributes":{"ID":109887,"DIS_CODE":0,"TOWNNAME":"北區","LI":"華興里","LIN":"1鄰","STREET":"林森路","SECT":"三段","MAREA":" ","LANE":" ","ALLEY":" ","HOUSE_NO":"２４１號","E_COORD97":170358.29999999999,"N_COORD97":2545408.1299999999,"ADDRESS":"林森路三段２４１號","OBJECTID":109887},"geometry":{"x":170358.29999999981,"y":2545408.129999999}},{"attributes":{"ID":109888,"DIS_CODE":0,"TOWNNAME":"北區","LI":"華興里","LIN":"1鄰","STREET":"林森路","SECT":"三段","MAREA":" ","LANE":" ","ALLEY":" ","HOUSE_NO":"２４３號","E_COORD97":170356.19,"N_COORD97":2545411.1499999999,"ADDRESS":"林森路三段２４３號","OBJECTID":109888},"geometry":{"x":170356.19000000041,"y":2545411.1500000022}},{"attributes":{"ID":109889,"DIS_CODE":0,"TOWNNAME":"北區","LI":"華興里","LIN":"1鄰","STREET":"林森路","SECT":"三段","MAREA":" ","LANE":" ","ALLEY":" ","HOUSE_NO":"２４５號","E_COORD97":170354.17999999999,"N_COORD97":2545415.0800000001,"ADDRESS":"林森路三段２４５號","OBJECTID":109889},"geometry":{"x":170354.1799999997,"y":2545415.0800000019}},{"attributes":{"ID":109890,"DIS_CODE":0,"TOWNNAME":"關廟區","LI":"田中里","LIN":"1鄰","STREET":"田大路","SECT":" ","MAREA":" ","LANE":" ","ALLEY":" ","HOUSE_NO":"４１號","E_COORD97":184155.79000000001,"N_COORD97":2533881.2999999998,"ADDRESS":"田大路４１號","OBJECTID":109890},"geometry":{"x":184155.79000000004,"y":2533881.3000000007}},{"attributes":{"ID":109891,"DIS_CODE":0,"TOWNNAME":"六甲區","LI":"龜港里","LIN":"1鄰","STREET":" ","SECT":" ","MAREA":"龜子港","LANE":"２８１巷","ALLEY":"２１弄","HOUSE_NO":"１０號","E_COORD97":179603.53,"N_COORD97":2572320.8399999999,"ADDRESS":"龜子港２８１巷２１弄１０號","OBJECTID":109891},"geometry":{"x":179603.53000000119,"y":2572320.8399999999}},{"attributes":{"ID":109892,"DIS_CODE":0,"TOWNNAME":"六甲區","LI":"龜港里","LIN":"1鄰","STREET":" ","SECT":" ","MAREA":"龜子港","LANE":"２８１巷","ALLEY":"２１弄","HOUSE_NO":"１５號","E_COORD97":179614.45999999999,"N_COORD97":2572348.8900000001,"ADDRESS":"龜子港２８１巷２１弄１５號","OBJECTID":109892},"geometry":{"x":179614.46000000089,"y":2572348.8900000043}},{"attributes":{"ID":109893,"DIS_CODE":0,"TOWNNAME":"六甲區","LI":"龜港里","LIN":"1鄰","STREET":" ","SECT":" ","MAREA":"龜子港","LANE":"２８１巷","ALLEY":"２１弄","HOUSE_NO":"３號","E_COORD97":179580.95999999999,"N_COORD97":2572339.0800000001,"ADDRESS":"龜子港２８１巷２１弄３號","OBJECTID":109893},"geometry":{"x":179580.95999999996,"y":2572339.0800000001}},{"attributes":{"ID":109894,"DIS_CODE":0,"TOWNNAME":"六甲區","LI":"龜港里","LIN":"1鄰","STREET":" ","SECT":" ","MAREA":"龜子港","LANE":"２８１巷","ALLEY":" ","HOUSE_NO":"１９號","E_COORD97":179583.45999999999,"N_COORD97":2572352.5800000001,"ADDRESS":"龜子港２８１巷１９號","OBJECTID":109894},"geometry":{"x":179583.46000000089,"y":2572352.5800000001}},{"attributes":{"ID":109895,"DIS_CODE":0,"TOWNNAME":"六甲區","LI":"龜港里","LIN":"1鄰","STREET":" ","SECT":" ","MAREA":"龜子港","LANE":"２８１巷","ALLEY":"３１弄","HOUSE_NO":"１號","E_COORD97":179527.69,"N_COORD97":2572333.8399999999,"ADDRESS":"龜子港２８１巷３１弄１號","OBJECTID":109895},"geometry":{"x":179527.69000000041,"y":2572333.8399999999}},{"attributes":{"ID":109896,"DIS_CODE":0,"TOWNNAME":"六甲區","LI":"龜港里","LIN":"1鄰","STREET":" ","SECT":" ","MAREA":"龜子港","LANE":"２８１巷","ALLEY":" ","HOUSE_NO":"２３號","E_COORD97":179560.73999999999,"N_COORD97":2572358.4300000002,"ADDRESS":"龜子港２８１巷２３號","OBJECTID":109896},"geometry":{"x":179560.74000000022,"y":2572358.4300000016}},{"attributes":{"ID":109897,"DIS_CODE":0,"TOWNNAME":"六甲區","LI":"龜港里","LIN":"1鄰","STREET":" ","SECT":" ","MAREA":"龜子港","LANE":"２８１巷","ALLEY":" ","HOUSE_NO":"２７號","E_COORD97":179539.32000000001,"N_COORD97":2572350.79,"ADDRESS":"龜子港２８１巷２７號","OBJECTID":109897},"geometry":{"x":179539.32000000123,"y":2572350.7899999991}},{"attributes":{"ID":109898,"DIS_CODE":0,"TOWNNAME":"安定區","LI":"安定里","LIN":"9鄰","STREET":" ","SECT":" ","MAREA":"安定","LANE":" ","ALLEY":" ","HOUSE_NO":"８５之１號","E_COORD97":171899.17193800001,"N_COORD97":2557814.4166299999,"ADDRESS":"安定８５之１號","OBJECTID":109898},"geometry":{"x":171899.17193800025,"y":2557814.4166340046}},{"attributes":{"ID":109899,"DIS_CODE":0,"TOWNNAME":"六甲區","LI":"龜港里","LIN":"1鄰","STREET":" ","SECT":" ","MAREA":"龜子港","LANE":"２８１巷","ALLEY":" ","HOUSE_NO":"２９號","E_COORD97":179520.39999999999,"N_COORD97":2572342.02,"ADDRESS":"龜子港２８１巷２９號","OBJECTID":109899},"geometry":{"x":179520.4000000013,"y":2572342.0199999996}},{"attributes":{"ID":109900,"DIS_CODE":0,"TOWNNAME":"北區","LI":"長榮里","LIN":"1鄰","STREET":" ","SECT":" ","MAREA":"富台","LANE":" ","ALLEY":" ","HOUSE_NO":"１０號","E_COORD97":170186.75,"N_COORD97":2545398.0800000001,"ADDRESS":"富台１０號","OBJECTID":109900},"geometry":{"x":170186.75000000093,"y":2545398.0800000019}},{"attributes":{"ID":109901,"DIS_CODE":0,"TOWNNAME":"北區","LI":"長榮里","LIN":"1鄰","STREET":" ","SECT":" ","MAREA":"富台","LANE":" ","ALLEY":" ","HOUSE_NO":"１０號之１","E_COORD97":170189.51999999999,"N_COORD97":2545399.79,"ADDRESS":"富台１０號之１","OBJECTID":109901},"geometry":{"x":170189.52000000048,"y":2545399.7899999991}},{"attributes":{"ID":109902,"DIS_CODE":0,"TOWNNAME":"北區","LI":"長榮里","LIN":"1鄰","STREET":" ","SECT":" ","MAREA":"富台","LANE":" ","ALLEY":" ","HOUSE_NO":"４號","E_COORD97":170209.09,"N_COORD97":2545411.8799999999,"ADDRESS":"富台４號","OBJECTID":109902},"geometry":{"x":170209.08999999985,"y":2545411.8800000008}},{"attributes":{"ID":109903,"DIS_CODE":0,"TOWNNAME":"北區","LI":"長榮里","LIN":"1鄰","STREET":" ","SECT":" ","MAREA":"富台","LANE":" ","ALLEY":" ","HOUSE_NO":"５號","E_COORD97":170206.26999999999,"N_COORD97":2545410.21,"ADDRESS":"富台５號","OBJECTID":109903},"geometry":{"x":170206.27000000142,"y":2545410.209999999}},{"attributes":{"ID":109904,"DIS_CODE":0,"TOWNNAME":"北區","LI":"長榮里","LIN":"1鄰","STREET":" ","SECT":" ","MAREA":"富台","LANE":" ","ALLEY":" ","HOUSE_NO":"６號","E_COORD97":170203.60999999999,"N_COORD97":2545408.4500000002,"ADDRESS":"富台６號","OBJECTID":109904},"geometry":{"x":170203.61000000127,"y":2545408.4500000011}},{"attributes":{"ID":109905,"DIS_CODE":0,"TOWNNAME":"北區","LI":"長榮里","LIN":"1鄰","STREET":" ","SECT":" ","MAREA":"富台","LANE":" ","ALLEY":" ","HOUSE_NO":"８號","E_COORD97":170197.85000000001,"N_COORD97":2545404.98,"ADDRESS":"富台８號","OBJECTID":109905},"geometry":{"x":170197.85000000056,"y":2545404.9800000042}},{"attributes":{"ID":109906,"DIS_CODE":0,"TOWNNAME":"關廟區","LI":"東勢里","LIN":"1鄰","STREET":"光復街","SECT":" ","MAREA":" ","LANE":" ","ALLEY":" ","HOUSE_NO":"１４５號","E_COORD97":181486.23999999999,"N_COORD97":2539620.2799999998,"ADDRESS":"光復街１４５號","OBJECTID":109906},"geometry":{"x":181486.24000000022,"y":2539620.2799999993}},{"attributes":{"ID":109907,"DIS_CODE":0,"TOWNNAME":"安南區","LI":"溪心里","LIN":"9鄰","STREET":"海環街","SECT":" ","MAREA":" ","LANE":"７１５巷","ALLEY":"４１弄","HOUSE_NO":"３２號","E_COORD97":166355.29999999999,"N_COORD97":2549311.7999999998,"ADDRESS":"海環街７１５巷４１弄３２號","OBJECTID":109907},"geometry":{"x":166355.30000000075,"y":2549311.7999999989}},{"attributes":{"ID":109908,"DIS_CODE":0,"TOWNNAME":"關廟區","LI":"埤頭里","LIN":"1鄰","STREET":"關新路","SECT":"一段","MAREA":" ","LANE":" ","ALLEY":" ","HOUSE_NO":"７３９號","E_COORD97":179124.47,"N_COORD97":2543681.29,"ADDRESS":"關新路一段７３９號","OBJECTID":109908},"geometry":{"x":179124.46999999974,"y":2543681.2899999991}},{"attributes":{"ID":109909,"DIS_CODE":0,"TOWNNAME":"關廟區","LI":"香洋里","LIN":"1鄰","STREET":"南雄路","SECT":"二段","MAREA":" ","LANE":" ","ALLEY":" ","HOUSE_NO":"１５２號","E_COORD97":181182.09,"N_COORD97":2540394.2799999998,"ADDRESS":"南雄路二段１５２號","OBJECTID":109909},"geometry":{"x":181182.08999999985,"y":2540394.2800000012}},{"attributes":{"ID":109910,"DIS_CODE":0,"TOWNNAME":"關廟區","LI":"下湖里","LIN":"1鄰","STREET":"保東一街","SECT":" ","MAREA":" ","LANE":" ","ALLEY":" ","HOUSE_NO":"３５５號","E_COORD97":178669.23999999999,"N_COORD97":2543070.2999999998,"ADDRESS":"保東一街３５５號","OBJECTID":109910},"geometry":{"x":178669.24000000022,"y":2543070.3000000045}},{"attributes":{"ID":109911,"DIS_CODE":0,"TOWNNAME":"安南區","LI":"溪心里","LIN":"9鄰","STREET":"海環街","SECT":" ","MAREA":" ","LANE":"７１５巷","ALLEY":"４１弄","HOUSE_NO":"３號","E_COORD97":166442.75,"N_COORD97":2549380.4399999999,"ADDRESS":"海環街７１５巷４１弄３號","OBJECTID":109911},"geometry":{"x":166442.75,"y":2549380.4399999995}},{"attributes":{"ID":109912,"DIS_CODE":0,"TOWNNAME":"六甲區","LI":"龜港里","LIN":"1鄰","STREET":" ","SECT":" ","MAREA":"龜子港","LANE":"２８１巷","ALLEY":" ","HOUSE_NO":"３３號","E_COORD97":179502.70000000001,"N_COORD97":2572334.21,"ADDRESS":"龜子港２８１巷３３號","OBJECTID":109912},"geometry":{"x":179502.70000000112,"y":2572334.2100000028}},{"attributes":{"ID":109913,"DIS_CODE":0,"TOWNNAME":"六甲區","LI":"龜港里","LIN":"1鄰","STREET":" ","SECT":" ","MAREA":"龜子港","LANE":"２８１巷","ALLEY":" ","HOUSE_NO":"９號","E_COORD97":179611.5,"N_COORD97":2572372.1200000001,"ADDRESS":"龜子港２８１巷９號","OBJECTID":109913},"geometry":{"x":179611.5,"y":2572372.1200000029}},{"attributes":{"ID":109914,"DIS_CODE":0,"TOWNNAME":"安定區","LI":"中榮里","LIN":"9鄰","STREET":" ","SECT":" ","MAREA":"許中營","LANE":" ","ALLEY":" ","HOUSE_NO":"７６之３５號","E_COORD97":172552.28632799999,"N_COORD97":2555076.0339700002,"ADDRESS":"許中營７６之３５號","OBJECTID":109914},"geometry":{"x":172552.28632800002,"y":2555076.0339690018}},{"attributes":{"ID":109915,"DIS_CODE":0,"TOWNNAME":"安南區","LI":"溪心里","LIN":"9鄰","STREET":"海環街","SECT":" ","MAREA":" ","LANE":"７１５巷","ALLEY":"４１弄","HOUSE_NO":"４號","E_COORD97":166426.98000000001,"N_COORD97":2549394.2000000002,"ADDRESS":"海環街７１５巷４１弄４號","OBJECTID":109915},"geometry":{"x":166426.98000000045,"y":2549394.1999999993}},{"attributes":{"ID":109916,"DIS_CODE":0,"TOWNNAME":"安定區","LI":"中榮里","LIN":"9鄰","STREET":" ","SECT":" ","MAREA":"許中營","LANE":" ","ALLEY":" ","HOUSE_NO":"７６之４６號","E_COORD97":172552.709928,"N_COORD97":2555111.6997799999,"ADDRESS":"許中營７６之４６號","OBJECTID":109916},"geometry":{"x":172552.70992800035,"y":2555111.6997830011}},{"attributes":{"ID":109917,"DIS_CODE":0,"TOWNNAME":"安定區","LI":"中榮里","LIN":"9鄰","STREET":" ","SECT":" ","MAREA":"許中營","LANE":" ","ALLEY":" ","HOUSE_NO":"７５之２０號","E_COORD97":172465.48999999999,"N_COORD97":2555110.2999999998,"ADDRESS":"許中營７５之２０號","OBJECTID":109917},"geometry":{"x":172465.49000000115,"y":2555110.3000000026}},{"attributes":{"ID":109918,"DIS_CODE":0,"TOWNNAME":"安南區","LI":"溪心里","LIN":"9鄰","STREET":"海環街","SECT":" ","MAREA":" ","LANE":"７１５巷","ALLEY":"４１弄","HOUSE_NO":"５號","E_COORD97":166438.16,"N_COORD97":2549374.3300000001,"ADDRESS":"海環街７１５巷４１弄５號","OBJECTID":109918},"geometry":{"x":166438.16000000108,"y":2549374.3300000001}},{"attributes":{"ID":109919,"DIS_CODE":0,"TOWNNAME":"安定區","LI":"中榮里","LIN":"9鄰","STREET":" ","SECT":" ","MAREA":"許中營","LANE":" ","ALLEY":" ","HOUSE_NO":"７５之１７號","E_COORD97":172445.19,"N_COORD97":2555116.2999999998,"ADDRESS":"許中營７５之１７號","OBJECTID":109919},"geometry":{"x":172445.19000000041,"y":2555116.3000000045}},{"attributes":{"ID":109920,"DIS_CODE":0,"TOWNNAME":"安南區","LI":"溪心里","LIN":"9鄰","STREET":"海環街","SECT":" ","MAREA":" ","LANE":"７１５巷","ALLEY":"４１弄","HOUSE_NO":"６號","E_COORD97":166421.89999999999,"N_COORD97":2549387.3300000001,"ADDRESS":"海環街７１５巷４１弄６號","OBJECTID":109920},"geometry":{"x":166421.90000000037,"y":2549387.3300000019}},{"attributes":{"ID":109921,"DIS_CODE":0,"TOWNNAME":"安定區","LI":"中榮里","LIN":"9鄰","STREET":" ","SECT":" ","MAREA":"許中營","LANE":" ","ALLEY":" ","HOUSE_NO":"７７之１７號","E_COORD97":172576.10999999999,"N_COORD97":2555335.2999999998,"ADDRESS":"許中營７７號之１７","OBJECTID":109921},"geometry":{"x":172576.11000000034,"y":2555335.3000000007}},{"attributes":{"ID":109922,"DIS_CODE":0,"TOWNNAME":"安定區","LI":"中榮里","LIN":"9鄰","STREET":" ","SECT":" ","MAREA":"許中營","LANE":" ","ALLEY":" ","HOUSE_NO":"７６之３３號","E_COORD97":172557.05183400001,"N_COORD97":2555075.2931400002,"ADDRESS":"許中營７６之３３號","OBJECTID":109922},"geometry":{"x":172557.05183400121,"y":2555075.2931360025}},{"attributes":{"ID":109923,"DIS_CODE":0,"TOWNNAME":"安定區","LI":"港尾里","LIN":"9鄰","STREET":" ","SECT":" ","MAREA":"港子尾","LANE":" ","ALLEY":" ","HOUSE_NO":"４３之３號","E_COORD97":171603.98999999999,"N_COORD97":2555954.2999999998,"ADDRESS":"港子尾４３之３號","OBJECTID":109923},"geometry":{"x":171603.99000000209,"y":2555954.3000000026}},{"attributes":{"ID":109924,"DIS_CODE":0,"TOWNNAME":"安定區","LI":"港尾里","LIN":"9鄰","STREET":" ","SECT":" ","MAREA":"港子尾","LANE":" ","ALLEY":" ","HOUSE_NO":"４７號","E_COORD97":171559.29000000001,"N_COORD97":2555852.2599999998,"ADDRESS":"港子尾４７號","OBJECTID":109924},"geometry":{"x":171559.28999999911,"y":2555852.2600000016}},{"attributes":{"ID":109925,"DIS_CODE":0,"TOWNNAME":"安定區","LI":"中榮里","LIN":"9鄰","STREET":" ","SECT":" ","MAREA":"許中營","LANE":" ","ALLEY":" ","HOUSE_NO":"７５之１６號","E_COORD97":172445.59,"N_COORD97":2555110.2999999998,"ADDRESS":"許中營７５之１６號","OBJECTID":109925},"geometry":{"x":172445.59000000078,"y":2555110.3000000026}},{"attributes":{"ID":109926,"DIS_CODE":0,"TOWNNAME":"安南區","LI":"溪心里","LIN":"9鄰","STREET":"海環街","SECT":" ","MAREA":" ","LANE":"７１５巷","ALLEY":"４１弄","HOUSE_NO":"７號","E_COORD97":166433.56,"N_COORD97":2549368.98,"ADDRESS":"海環街７１５巷４１弄７號","OBJECTID":109926},"geometry":{"x":166433.55999999959,"y":2549368.9800000023}},{"attributes":{"ID":109927,"DIS_CODE":0,"TOWNNAME":"安定區","LI":"港尾里","LIN":"9鄰","STREET":" ","SECT":" ","MAREA":"港子尾","LANE":" ","ALLEY":" ","HOUSE_NO":"４３之５號","E_COORD97":171558.39000000001,"N_COORD97":2555927.2999999998,"ADDRESS":"港子尾４３之５號","OBJECTID":109927},"geometry":{"x":171558.39000000153,"y":2555927.3000000026}},{"attributes":{"ID":109928,"DIS_CODE":0,"TOWNNAME":"安定區","LI":"中榮里","LIN":"9鄰","STREET":" ","SECT":" ","MAREA":"許中營","LANE":" ","ALLEY":" ","HOUSE_NO":"７６之３０號","E_COORD97":172571.030654,"N_COORD97":2555073.7056399998,"ADDRESS":"許中營７６之３０號","OBJECTID":109928},"geometry":{"x":172571.03065400012,"y":2555073.7056370005}},{"attributes":{"ID":109929,"DIS_CODE":0,"TOWNNAME":"安南區","LI":"溪心里","LIN":"9鄰","STREET":"海環街","SECT":" ","MAREA":" ","LANE":"７１５巷","ALLEY":"４１弄","HOUSE_NO":"８號","E_COORD97":166415.97,"N_COORD97":2549382.1699999999,"ADDRESS":"海環街７１５巷４１弄８號","OBJECTID":109929},"geometry":{"x":166415.96999999974,"y":2549382.1699999999}},{"attributes":{"ID":109930,"DIS_CODE":0,"TOWNNAME":"安定區","LI":"中榮里","LIN":"9鄰","STREET":" ","SECT":" ","MAREA":"許中營","LANE":" ","ALLEY":" ","HOUSE_NO":"７６之１６號","E_COORD97":172509.29000000001,"N_COORD97":2555222.2999999998,"ADDRESS":"許中營７６之１６號","OBJECTID":109930},"geometry":{"x":172509.29000000097,"y":2555222.3000000026}},{"attributes":{"ID":109931,"DIS_CODE":0,"TOWNNAME":"六甲區","LI":"龜港里","LIN":"1鄰","STREET":" ","SECT":" ","MAREA":"龜子港","LANE":"２８１巷","ALLEY":"３１弄","HOUSE_NO":"３號","E_COORD97":179538.98999999999,"N_COORD97":2572321.5600000001,"ADDRESS":"龜子港２８１巷３１弄３號","OBJECTID":109931},"geometry":{"x":179538.99000000022,"y":2572321.5600000024}},{"attributes":{"ID":109932,"DIS_CODE":0,"TOWNNAME":"六甲區","LI":"龜港里","LIN":"1鄰","STREET":" ","SECT":" ","MAREA":"龜子港","LANE":"２８１巷","ALLEY":"３１弄","HOUSE_NO":"５號","E_COORD97":179551.89000000001,"N_COORD97":2572313.5800000001,"ADDRESS":"龜子港２８１巷３１弄５號","OBJECTID":109932},"geometry":{"x":179551.8900000006,"y":2572313.5800000019}},{"attributes":{"ID":109933,"DIS_CODE":0,"TOWNNAME":"六甲區","LI":"龜港里","LIN":"1鄰","STREET":" ","SECT":" ","MAREA":"龜子港","LANE":"２８１巷","ALLEY":"３１弄","HOUSE_NO":"７號","E_COORD97":179545.82000000001,"N_COORD97":2572295.1800000002,"ADDRESS":"龜子港２８１巷３１弄７號","OBJECTID":109933},"geometry":{"x":179545.82000000123,"y":2572295.1800000034}},{"attributes":{"ID":109934,"DIS_CODE":0,"TOWNNAME":"安定區","LI":"港口里","LIN":"9鄰","STREET":" ","SECT":" ","MAREA":"港口","LANE":" ","ALLEY":" ","HOUSE_NO":"３６１之８號","E_COORD97":171425.69,"N_COORD97":2554775.2999999998,"ADDRESS":"港口３６１之８號","OBJECTID":109934},"geometry":{"x":171425.69000000041,"y":2554775.3000000026}},{"attributes":{"ID":109935,"DIS_CODE":0,"TOWNNAME":"安定區","LI":"中榮里","LIN":"9鄰","STREET":" ","SECT":" ","MAREA":"許中營","LANE":" ","ALLEY":" ","HOUSE_NO":"７６之２７號","E_COORD97":172566.69,"N_COORD97":2555104.2999999998,"ADDRESS":"許中營７６之２７號","OBJECTID":109935},"geometry":{"x":172566.69000000041,"y":2555104.3000000026}},{"attributes":{"ID":109936,"DIS_CODE":0,"TOWNNAME":"安定區","LI":"中榮里","LIN":"9鄰","STREET":" ","SECT":" ","MAREA":"許中營","LANE":" ","ALLEY":" ","HOUSE_NO":"７６號之５","E_COORD97":172597.63,"N_COORD97":2555117.2999999998,"ADDRESS":"許中營７６號之５","OBJECTID":109936},"geometry":{"x":172597.62999999896,"y":2555117.3000000026}},{"attributes":{"ID":109937,"DIS_CODE":0,"TOWNNAME":"安定區","LI":"港口里","LIN":"9鄰","STREET":" ","SECT":" ","MAREA":"港口","LANE":" ","ALLEY":" ","HOUSE_NO":"３５３之２號","E_COORD97":171327.98999999999,"N_COORD97":2554757.2999999998,"ADDRESS":"港口３５３之２號","OBJECTID":109937},"geometry":{"x":171327.99000000115,"y":2554757.3000000026}},{"attributes":{"ID":109938,"DIS_CODE":0,"TOWNNAME":"安定區","LI":"中榮里","LIN":"9鄰","STREET":" ","SECT":" ","MAREA":"許中營","LANE":" ","ALLEY":" ","HOUSE_NO":"７５之９號","E_COORD97":172466.54000000001,"N_COORD97":2555087.2999999998,"ADDRESS":"許中營７５之９號","OBJECTID":109938},"geometry":{"x":172466.54000000097,"y":2555087.3000000026}},{"attributes":{"ID":109939,"DIS_CODE":0,"TOWNNAME":"安定區","LI":"中榮里","LIN":"9鄰","STREET":" ","SECT":" ","MAREA":"許中營","LANE":" ","ALLEY":" ","HOUSE_NO":"７６號之１０","E_COORD97":172500.67999999999,"N_COORD97":2555163.2999999998,"ADDRESS":"許中營７６號之１０","OBJECTID":109939},"geometry":{"x":172500.68000000156,"y":2555163.3000000007}},{"attributes":{"ID":109940,"DIS_CODE":0,"TOWNNAME":"安定區","LI":"海寮里","LIN":"9鄰","STREET":" ","SECT":" ","MAREA":"海寮","LANE":" ","ALLEY":" ","HOUSE_NO":"８５號","E_COORD97":169302.98999999999,"N_COORD97":2555366.25,"ADDRESS":"海寮８５號","OBJECTID":109940},"geometry":{"x":169302.99000000022,"y":2555366.25}},{"attributes":{"ID":109941,"DIS_CODE":0,"TOWNNAME":"安定區","LI":"中榮里","LIN":"9鄰","STREET":" ","SECT":" ","MAREA":"許中營","LANE":" ","ALLEY":" ","HOUSE_NO":"７７之１５號","E_COORD97":172366.09,"N_COORD97":2555184.2999999998,"ADDRESS":"許中營７７之１５號","OBJECTID":109941},"geometry":{"x":172366.09000000078,"y":2555184.3000000045}},{"attributes":{"ID":109942,"DIS_CODE":0,"TOWNNAME":"安定區","LI":"中榮里","LIN":"9鄰","STREET":" ","SECT":" ","MAREA":"許中營","LANE":" ","ALLEY":" ","HOUSE_NO":"７７之２５號","E_COORD97":172478.966105,"N_COORD97":2555253.3573799999,"ADDRESS":"許中營７７之２５號","OBJECTID":109942},"geometry":{"x":172478.96610500105,"y":2555253.3573810011}},{"attributes":{"ID":109943,"DIS_CODE":0,"TOWNNAME":"安定區","LI":"中榮里","LIN":"9鄰","STREET":" ","SECT":" ","MAREA":"許中營","LANE":" ","ALLEY":" ","HOUSE_NO":"７７號之９","E_COORD97":172377.76000000001,"N_COORD97":2555180.2999999998,"ADDRESS":"許中營７７號之９","OBJECTID":109943},"geometry":{"x":172377.75999999978,"y":2555180.3000000007}},{"attributes":{"ID":109944,"DIS_CODE":0,"TOWNNAME":"安定區","LI":"中榮里","LIN":"9鄰","STREET":" ","SECT":" ","MAREA":"許中營","LANE":" ","ALLEY":" ","HOUSE_NO":"７７之２６號","E_COORD97":172798.39000000001,"N_COORD97":2555540.2999999998,"ADDRESS":"許中營７７之２６號","OBJECTID":109944},"geometry":{"x":172798.38999999966,"y":2555540.3000000045}},{"attributes":{"ID":109945,"DIS_CODE":0,"TOWNNAME":"安定區","LI":"中榮里","LIN":"9鄰","STREET":" ","SECT":" ","MAREA":"許中營","LANE":" ","ALLEY":" ","HOUSE_NO":"７６之１５號","E_COORD97":172505.09,"N_COORD97":2555221.2999999998,"ADDRESS":"許中營７６之１５號","OBJECTID":109945},"geometry":{"x":172505.09000000078,"y":2555221.3000000045}},{"attributes":{"ID":109946,"DIS_CODE":0,"TOWNNAME":"安南區","LI":"溪心里","LIN":"9鄰","STREET":"海環街","SECT":" ","MAREA":" ","LANE":"７１５巷","ALLEY":"４１弄","HOUSE_NO":"９號","E_COORD97":166428.97,"N_COORD97":2549363.1699999999,"ADDRESS":"海環街７１５巷４１弄９號","OBJECTID":109946},"geometry":{"x":166428.97000000067,"y":2549363.1700000018}},{"attributes":{"ID":109947,"DIS_CODE":0,"TOWNNAME":"安南區","LI":"佃東里","LIN":"9鄰","STREET":"公學路","SECT":"四段","MAREA":" ","LANE":"１２６巷","ALLEY":"６１弄","HOUSE_NO":"１１號","E_COORD97":165468.98999999999,"N_COORD97":2551936.48,"ADDRESS":"公學路四段１２６巷６１弄１１號","OBJECTID":109947},"geometry":{"x":165468.98999999929,"y":2551936.4800000004}},{"attributes":{"ID":109948,"DIS_CODE":0,"TOWNNAME":"安定區","LI":"中榮里","LIN":"9鄰","STREET":" ","SECT":" ","MAREA":"許中營","LANE":" ","ALLEY":" ","HOUSE_NO":"７６之６號","E_COORD97":172597.84,"N_COORD97":2555117.2999999998,"ADDRESS":"許中營７６之６號","OBJECTID":109948},"geometry":{"x":172597.83999999985,"y":2555117.3000000026}},{"attributes":{"ID":109949,"DIS_CODE":0,"TOWNNAME":"安定區","LI":"港尾里","LIN":"9鄰","STREET":" ","SECT":" ","MAREA":"港子尾","LANE":" ","ALLEY":" ","HOUSE_NO":"４６號之１","E_COORD97":171537.32999999999,"N_COORD97":2555901.2999999998,"ADDRESS":"港子尾４６號之１","OBJECTID":109949},"geometry":{"x":171537.33000000101,"y":2555901.3000000007}},{"attributes":{"ID":109950,"DIS_CODE":0,"TOWNNAME":"安定區","LI":"六嘉里","LIN":"9鄰","STREET":" ","SECT":" ","MAREA":"六塊寮","LANE":" ","ALLEY":" ","HOUSE_NO":"７７號之１","E_COORD97":170284.45000000001,"N_COORD97":2553351.2999999998,"ADDRESS":"六塊寮７７號之１","OBJECTID":109950},"geometry":{"x":170284.45000000112,"y":2553351.3000000026}},{"attributes":{"ID":109951,"DIS_CODE":0,"TOWNNAME":"安定區","LI":"海寮里","LIN":"9鄰","STREET":" ","SECT":" ","MAREA":"海寮","LANE":" ","ALLEY":" ","HOUSE_NO":"８７號","E_COORD97":169268.48999999999,"N_COORD97":2555387.25,"ADDRESS":"海寮８７號","OBJECTID":109951},"geometry":{"x":169268.49000000115,"y":2555387.2500000037}},{"attributes":{"ID":109952,"DIS_CODE":0,"TOWNNAME":"安定區","LI":"港尾里","LIN":"9鄰","STREET":" ","SECT":" ","MAREA":"港子尾","LANE":" ","ALLEY":" ","HOUSE_NO":"４２號之１","E_COORD97":171505.53,"N_COORD97":2555931.2999999998,"ADDRESS":"港子尾４２號之１","OBJECTID":109952},"geometry":{"x":171505.53000000212,"y":2555931.3000000026}},{"attributes":{"ID":109953,"DIS_CODE":0,"TOWNNAME":"安定區","LI":"港尾里","LIN":"9鄰","STREET":" ","SECT":" ","MAREA":"港子尾","LANE":" ","ALLEY":" ","HOUSE_NO":"４７號之１","E_COORD97":171561.82999999999,"N_COORD97":2555870.2999999998,"ADDRESS":"港子尾４７號之１","OBJECTID":109953},"geometry":{"x":171561.83000000007,"y":2555870.3000000026}},{"attributes":{"ID":109954,"DIS_CODE":0,"TOWNNAME":"安定區","LI":"中榮里","LIN":"9鄰","STREET":" ","SECT":" ","MAREA":"許中營","LANE":" ","ALLEY":" ","HOUSE_NO":"７５之１２號","E_COORD97":172435.48999999999,"N_COORD97":2555116.2999999998,"ADDRESS":"許中營７５之１２號","OBJECTID":109954},"geometry":{"x":172435.49000000022,"y":2555116.3000000045}},{"attributes":{"ID":109955,"DIS_CODE":0,"TOWNNAME":"安定區","LI":"中榮里","LIN":"9鄰","STREET":" ","SECT":" ","MAREA":"許中營","LANE":" ","ALLEY":" ","HOUSE_NO":"７７號之８","E_COORD97":172344.73000000001,"N_COORD97":2555184.2999999998,"ADDRESS":"許中營７７號之８","OBJECTID":109955},"geometry":{"x":172344.73000000045,"y":2555184.3000000045}},{"attributes":{"ID":109956,"DIS_CODE":0,"TOWNNAME":"安定區","LI":"六嘉里","LIN":"9鄰","STREET":" ","SECT":" ","MAREA":"六塊寮","LANE":" ","ALLEY":" ","HOUSE_NO":"７３之１號","E_COORD97":170262.12,"N_COORD97":2553307.2999999998,"ADDRESS":"六塊寮７３之１號","OBJECTID":109956},"geometry":{"x":170262.12000000197,"y":2553307.3000000026}},{"attributes":{"ID":109957,"DIS_CODE":0,"TOWNNAME":"安南區","LI":"佃西里","LIN":"9鄰","STREET":"公學路","SECT":"四段","MAREA":" ","LANE":"１２６巷","ALLEY":"１５７弄","HOUSE_NO":"１１號","E_COORD97":165253.59,"N_COORD97":2551791.1600000001,"ADDRESS":"公學路四段１２６巷１５７弄１１號","OBJECTID":109957},"geometry":{"x":165253.58999999985,"y":2551791.160000002}},{"attributes":{"ID":109958,"DIS_CODE":0,"TOWNNAME":"安定區","LI":"六嘉里","LIN":"9鄰","STREET":" ","SECT":" ","MAREA":"六塊寮","LANE":" ","ALLEY":" ","HOUSE_NO":"７４號","E_COORD97":170247.42000000001,"N_COORD97":2553331.27,"ADDRESS":"六塊寮７４號","OBJECTID":109958},"geometry":{"x":170247.41999999993,"y":2553331.2699999996}},{"attributes":{"ID":109959,"DIS_CODE":0,"TOWNNAME":"安定區","LI":"港口里","LIN":"9鄰","STREET":" ","SECT":" ","MAREA":"港口","LANE":" ","ALLEY":" ","HOUSE_NO":"３６１號之２","E_COORD97":171370.56,"N_COORD97":2554776.2999999998,"ADDRESS":"港口３６１號之２","OBJECTID":109959},"geometry":{"x":171370.56000000145,"y":2554776.3000000007}},{"attributes":{"ID":109960,"DIS_CODE":0,"TOWNNAME":"麻豆區","LI":"大埕里","LIN":"8鄰","STREET":"新生北路","SECT":" ","MAREA":" ","LANE":" ","ALLEY":" ","HOUSE_NO":"６６６號","E_COORD97":173227.67000000001,"N_COORD97":2565491.3599999999,"ADDRESS":"新生北路６６６號","OBJECTID":109960},"geometry":{"x":173227.66999999993,"y":2565491.3599999994}},{"attributes":{"ID":109961,"DIS_CODE":0,"TOWNNAME":"安定區","LI":"中榮里","LIN":"9鄰","STREET":" ","SECT":" ","MAREA":"許中營","LANE":" ","ALLEY":" ","HOUSE_NO":"７７號之２１","E_COORD97":172683.13,"N_COORD97":2555441.2999999998,"ADDRESS":"許中營７７號之２１","OBJECTID":109961},"geometry":{"x":172683.13000000082,"y":2555441.3000000007}},{"attributes":{"ID":109962,"DIS_CODE":0,"TOWNNAME":"安定區","LI":"中榮里","LIN":"9鄰","STREET":" ","SECT":" ","MAREA":"許中營","LANE":" ","ALLEY":" ","HOUSE_NO":"７５號之３","E_COORD97":172366.67999999999,"N_COORD97":2555115.2999999998,"ADDRESS":"許中營７５號之３","OBJECTID":109962},"geometry":{"x":172366.68000000156,"y":2555115.3000000007}},{"attributes":{"ID":109963,"DIS_CODE":0,"TOWNNAME":"安定區","LI":"港尾里","LIN":"9鄰","STREET":" ","SECT":" ","MAREA":"港子尾","LANE":" ","ALLEY":" ","HOUSE_NO":"４３之２號","E_COORD97":171591.39000000001,"N_COORD97":2555954.2999999998,"ADDRESS":"港子尾４３之２號","OBJECTID":109963},"geometry":{"x":171591.38999999966,"y":2555954.3000000026}},{"attributes":{"ID":109964,"DIS_CODE":0,"TOWNNAME":"安定區","LI":"中榮里","LIN":"9鄰","STREET":" ","SECT":" ","MAREA":"許中營","LANE":" ","ALLEY":" ","HOUSE_NO":"７７號之１９","E_COORD97":172349.31,"N_COORD97":2555140.2999999998,"ADDRESS":"許中營７７號之１９","OBJECTID":109964},"geometry":{"x":172349.31000000052,"y":2555140.3000000045}},{"attributes":{"ID":109965,"DIS_CODE":0,"TOWNNAME":"安定區","LI":"安定里","LIN":"9鄰","STREET":" ","SECT":" ","MAREA":"安定","LANE":" ","ALLEY":" ","HOUSE_NO":"８１之３號","E_COORD97":171844.87,"N_COORD97":2557820.3199999998,"ADDRESS":"安定８１之３號","OBJECTID":109965},"geometry":{"x":171844.87000000011,"y":2557820.3200000003}},{"attributes":{"ID":109966,"DIS_CODE":0,"TOWNNAME":"安定區","LI":"安加里","LIN":"9鄰","STREET":" ","SECT":" ","MAREA":"安定","LANE":" ","ALLEY":" ","HOUSE_NO":"２５６號之３","E_COORD97":171755.75,"N_COORD97":2557279.3199999998,"ADDRESS":"安定２５６號之３","OBJECTID":109966},"geometry":{"x":171755.75,"y":2557279.3200000022}},{"attributes":{"ID":109967,"DIS_CODE":0,"TOWNNAME":"鹽水區","LI":"下中里","LIN":"1鄰","STREET":" ","SECT":" ","MAREA":"二庄","LANE":" ","ALLEY":" ","HOUSE_NO":"１號","E_COORD97":173400.95999999999,"N_COORD97":2580431.3700000001,"ADDRESS":"二庄１號","OBJECTID":109967},"geometry":{"x":173400.96000000089,"y":2580431.370000001}},{"attributes":{"ID":109968,"DIS_CODE":0,"TOWNNAME":"安定區","LI":"港尾里","LIN":"9鄰","STREET":" ","SECT":" ","MAREA":"港子尾","LANE":" ","ALLEY":" ","HOUSE_NO":"４６之２號","E_COORD97":171545.48999999999,"N_COORD97":2555855.2999999998,"ADDRESS":"港子尾４６之２號","OBJECTID":109968},"geometry":{"x":171545.49000000115,"y":2555855.3000000045}},{"attributes":{"ID":109969,"DIS_CODE":0,"TOWNNAME":"安定區","LI":"中榮里","LIN":"9鄰","STREET":" ","SECT":" ","MAREA":"許中營","LANE":" ","ALLEY":" ","HOUSE_NO":"７７號之１２","E_COORD97":172437.76000000001,"N_COORD97":2555247.2999999998,"ADDRESS":"許中營７７號之１２","OBJECTID":109969},"geometry":{"x":172437.76000000071,"y":2555247.3000000007}},{"attributes":{"ID":109970,"DIS_CODE":0,"TOWNNAME":"安定區","LI":"港口里","LIN":"9鄰","STREET":" ","SECT":" ","MAREA":"港口","LANE":" ","ALLEY":" ","HOUSE_NO":"２８７號之１","E_COORD97":171416.53,"N_COORD97":2554742.29,"ADDRESS":"港口２８７號之１","OBJECTID":109970},"geometry":{"x":171416.53000000026,"y":2554742.290000001}},{"attributes":{"ID":109971,"DIS_CODE":0,"TOWNNAME":"安定區","LI":"中榮里","LIN":"9鄰","STREET":" ","SECT":" ","MAREA":"許中營","LANE":" ","ALLEY":" ","HOUSE_NO":"７６之２２號","E_COORD97":172584.48999999999,"N_COORD97":2555099.2999999998,"ADDRESS":"許中營７６之２２號","OBJECTID":109971},"geometry":{"x":172584.49000000115,"y":2555099.3000000045}},{"attributes":{"ID":109972,"DIS_CODE":0,"TOWNNAME":"新化區","LI":"全興里","LIN":"9鄰","STREET":" ","SECT":" ","MAREA":"竹子\u25A0","LANE":" ","ALLEY":" ","HOUSE_NO":"１５２號","E_COORD97":177480.03,"N_COORD97":2547594.25,"ADDRESS":"竹子\u25A0１５２號","OBJECTID":109972},"geometry":{"x":177480.03000000119,"y":2547594.2500000019}},{"attributes":{"ID":109973,"DIS_CODE":0,"TOWNNAME":"新化區","LI":"全興里","LIN":"9鄰","STREET":" ","SECT":" ","MAREA":"竹子\u25A0","LANE":" ","ALLEY":" ","HOUSE_NO":"１５１號","E_COORD97":177471.03,"N_COORD97":2547601.25,"ADDRESS":"竹子\u25A0１５１號","OBJECTID":109973},"geometry":{"x":177471.03000000119,"y":2547601.25}},{"attributes":{"ID":109974,"DIS_CODE":0,"TOWNNAME":"佳里區","LI":"溪州里","LIN":"9鄰","STREET":" ","SECT":" ","MAREA":"溪州","LANE":" ","ALLEY":" ","HOUSE_NO":"８１號","E_COORD97":166475.79000000001,"N_COORD97":2567522.6899999999,"ADDRESS":"溪州８１號","OBJECTID":109974},"geometry":{"x":166475.79000000097,"y":2567522.6900000013}},{"attributes":{"ID":109975,"DIS_CODE":0,"TOWNNAME":"佳里區","LI":"溪州里","LIN":"9鄰","STREET":" ","SECT":" ","MAREA":"溪州","LANE":" ","ALLEY":" ","HOUSE_NO":"８２號","E_COORD97":166450.31,"N_COORD97":2567531.0099999998,"ADDRESS":"溪州８２號","OBJECTID":109975},"geometry":{"x":166450.31000000052,"y":2567531.0100000016}},{"attributes":{"ID":109976,"DIS_CODE":0,"TOWNNAME":"佳里區","LI":"溪州里","LIN":"9鄰","STREET":" ","SECT":" ","MAREA":"溪州","LANE":" ","ALLEY":" ","HOUSE_NO":"８３號之１","E_COORD97":166449.76999999999,"N_COORD97":2567558.3100000001,"ADDRESS":"溪州８３號之１","OBJECTID":109976},"geometry":{"x":166449.77000000142,"y":2567558.3100000005}},{"attributes":{"ID":109977,"DIS_CODE":0,"TOWNNAME":"佳里區","LI":"溪州里","LIN":"9鄰","STREET":" ","SECT":" ","MAREA":"溪州","LANE":" ","ALLEY":" ","HOUSE_NO":"８３號","E_COORD97":166471.95000000001,"N_COORD97":2567555.9900000002,"ADDRESS":"溪州８３號","OBJECTID":109977},"geometry":{"x":166471.95000000112,"y":2567555.9900000002}},{"attributes":{"ID":109978,"DIS_CODE":0,"TOWNNAME":"佳里區","LI":"溪州里","LIN":"9鄰","STREET":" ","SECT":" ","MAREA":"溪州","LANE":" ","ALLEY":" ","HOUSE_NO":"８４號","E_COORD97":166481.72,"N_COORD97":2567604.2999999998,"ADDRESS":"溪州８４號","OBJECTID":109978},"geometry":{"x":166481.71999999974,"y":2567604.3000000026}},{"attributes":{"ID":109979,"DIS_CODE":0,"TOWNNAME":"佳里區","LI":"溪州里","LIN":"9鄰","STREET":" ","SECT":" ","MAREA":"溪州","LANE":" ","ALLEY":" ","HOUSE_NO":"８５號之１０","E_COORD97":166508.23999999999,"N_COORD97":2567633.29,"ADDRESS":"溪州８５號之１０","OBJECTID":109979},"geometry":{"x":166508.24000000209,"y":2567633.290000001}},{"attributes":{"ID":109980,"DIS_CODE":0,"TOWNNAME":"佳里區","LI":"溪州里","LIN":"9鄰","STREET":" ","SECT":" ","MAREA":"溪州","LANE":" ","ALLEY":" ","HOUSE_NO":"８５號之１１","E_COORD97":166485.85999999999,"N_COORD97":2567623.3199999998,"ADDRESS":"溪州８５號之１１","OBJECTID":109980},"geometry":{"x":166485.86000000127,"y":2567623.3200000022}},{"attributes":{"ID":109981,"DIS_CODE":0,"TOWNNAME":"佳里區","LI":"溪州里","LIN":"9鄰","STREET":" ","SECT":" ","MAREA":"溪州","LANE":" ","ALLEY":" ","HOUSE_NO":"８５號之１２","E_COORD97":166506.98999999999,"N_COORD97":2567637.1800000002,"ADDRESS":"溪州８５號之１２","OBJECTID":109981},"geometry":{"x":166506.99000000115,"y":2567637.1800000016}},{"attributes":{"ID":109982,"DIS_CODE":0,"TOWNNAME":"佳里區","LI":"溪州里","LIN":"9鄰","STREET":" ","SECT":" ","MAREA":"溪州","LANE":" ","ALLEY":" ","HOUSE_NO":"８５號之１３","E_COORD97":166484.79999999999,"N_COORD97":2567627.1400000001,"ADDRESS":"溪州８５號之１３","OBJECTID":109982},"geometry":{"x":166484.79999999981,"y":2567627.1400000006}},{"attributes":{"ID":109983,"DIS_CODE":0,"TOWNNAME":"佳里區","LI":"溪州里","LIN":"9鄰","STREET":" ","SECT":" ","MAREA":"溪州","LANE":" ","ALLEY":" ","HOUSE_NO":"８５號之１４","E_COORD97":166505.59,"N_COORD97":2567641.1600000001,"ADDRESS":"溪州８５號之１４","OBJECTID":109983},"geometry":{"x":166505.59000000171,"y":2567641.160000002}},{"attributes":{"ID":109984,"DIS_CODE":0,"TOWNNAME":"佳里區","LI":"溪州里","LIN":"9鄰","STREET":" ","SECT":" ","MAREA":"溪州","LANE":" ","ALLEY":" ","HOUSE_NO":"８５號之１５","E_COORD97":166483.34,"N_COORD97":2567631.4100000001,"ADDRESS":"溪州８５號之１５","OBJECTID":109984},"geometry":{"x":166483.33999999892,"y":2567631.4100000001}},{"attributes":{"ID":109985,"DIS_CODE":0,"TOWNNAME":"關廟區","LI":"南花里","LIN":"1鄰","STREET":"中山路","SECT":"一段","MAREA":" ","LANE":" ","ALLEY":" ","HOUSE_NO":"２２８號","E_COORD97":181882.95999999999,"N_COORD97":2539964.2799999998,"ADDRESS":"中山路一段２２８號","OBJECTID":109985},"geometry":{"x":181882.95999999996,"y":2539964.2800000012}},{"attributes":{"ID":109986,"DIS_CODE":0,"TOWNNAME":"安南區","LI":"佃西里","LIN":"9鄰","STREET":"公學路","SECT":"四段","MAREA":" ","LANE":"１２６巷","ALLEY":"１５７弄","HOUSE_NO":"５號","E_COORD97":165249.31,"N_COORD97":2551778.6499999999,"ADDRESS":"公學路四段１２６巷１５７弄５號","OBJECTID":109986},"geometry":{"x":165249.31000000145,"y":2551778.6500000022}},{"attributes":{"ID":109987,"DIS_CODE":0,"TOWNNAME":"安南區","LI":"海西里","LIN":"9鄰","STREET":"海中街","SECT":" ","MAREA":" ","LANE":"７７巷","ALLEY":"４５弄","HOUSE_NO":"４９號","E_COORD97":166297.12,"N_COORD97":2548780.4199999999,"ADDRESS":"海中街７７巷４５弄４９號","OBJECTID":109987},"geometry":{"x":166297.12000000197,"y":2548780.4199999999}},{"attributes":{"ID":109988,"DIS_CODE":0,"TOWNNAME":"佳里區","LI":"溪州里","LIN":"9鄰","STREET":" ","SECT":" ","MAREA":"溪州","LANE":" ","ALLEY":" ","HOUSE_NO":"８５號之１６","E_COORD97":166504.26000000001,"N_COORD97":2567645.1600000001,"ADDRESS":"溪州８５號之１６","OBJECTID":109988},"geometry":{"x":166504.26000000164,"y":2567645.160000002}},{"attributes":{"ID":109989,"DIS_CODE":0,"TOWNNAME":"佳里區","LI":"溪州里","LIN":"9鄰","STREET":" ","SECT":" ","MAREA":"溪州","LANE":" ","ALLEY":" ","HOUSE_NO":"８５號之１７","E_COORD97":166481.91,"N_COORD97":2567635.6800000002,"ADDRESS":"溪州８５號之１７","OBJECTID":109989},"geometry":{"x":166481.91000000108,"y":2567635.6799999997}},{"attributes":{"ID":109990,"DIS_CODE":0,"TOWNNAME":"佳里區","LI":"溪州里","LIN":"9鄰","STREET":" ","SECT":" ","MAREA":"溪州","LANE":" ","ALLEY":" ","HOUSE_NO":"８５號之１８","E_COORD97":166502.95000000001,"N_COORD97":2567649.2400000002,"ADDRESS":"溪州８５號之１８","OBJECTID":109990},"geometry":{"x":166502.95000000019,"y":2567649.2400000002}},{"attributes":{"ID":109991,"DIS_CODE":0,"TOWNNAME":"佳里區","LI":"溪州里","LIN":"9鄰","STREET":" ","SECT":" ","MAREA":"溪州","LANE":" ","ALLEY":" ","HOUSE_NO":"８５號之１９","E_COORD97":166480.45000000001,"N_COORD97":2567640.46,"ADDRESS":"溪州８５號之１９","OBJECTID":109991},"geometry":{"x":166480.45000000112,"y":2567640.4600000028}},{"attributes":{"ID":109992,"DIS_CODE":0,"TOWNNAME":"佳里區","LI":"溪州里","LIN":"9鄰","STREET":" ","SECT":" ","MAREA":"溪州","LANE":" ","ALLEY":" ","HOUSE_NO":"８５號之１","E_COORD97":166543.20999999999,"N_COORD97":2567646.02,"ADDRESS":"溪州８５號之１","OBJECTID":109992},"geometry":{"x":166543.20999999996,"y":2567646.0200000014}},{"attributes":{"ID":109993,"DIS_CODE":0,"TOWNNAME":"南區","LI":"喜東里","LIN":"9鄰","STREET":"喜樹路","SECT":" ","MAREA":" ","LANE":"１５１巷","ALLEY":"６３弄","HOUSE_NO":"５號","E_COORD97":166018.82000000001,"N_COORD97":2538007.6899999999,"ADDRESS":"喜樹路１５１巷６３弄５號","OBJECTID":109993},"geometry":{"x":166018.8200000003,"y":2538007.6899999976}},{"attributes":{"ID":109994,"DIS_CODE":0,"TOWNNAME":"安南區","LI":"溪心里","LIN":"9鄰","STREET":"海環街","SECT":" ","MAREA":" ","LANE":"７１５巷","ALLEY":"４１弄","HOUSE_NO":"１２號","E_COORD97":166407.35999999999,"N_COORD97":2549370.7000000002,"ADDRESS":"海環街７１５巷４１弄１２號","OBJECTID":109994},"geometry":{"x":166407.36000000034,"y":2549370.6999999993}},{"attributes":{"ID":109995,"DIS_CODE":0,"TOWNNAME":"南區","LI":"喜東里","LIN":"9鄰","STREET":"喜樹路","SECT":" ","MAREA":" ","LANE":"１５１巷","ALLEY":"６３弄","HOUSE_NO":"１０號","E_COORD97":166039.28,"N_COORD97":2538018.5600000001,"ADDRESS":"喜樹路１５１巷６３弄１０號","OBJECTID":109995},"geometry":{"x":166039.28000000119,"y":2538018.5600000005}},{"attributes":{"ID":109996,"DIS_CODE":0,"TOWNNAME":"南區","LI":"喜東里","LIN":"9鄰","STREET":"喜樹路","SECT":" ","MAREA":" ","LANE":"１５１巷","ALLEY":"６３弄","HOUSE_NO":"１１號","E_COORD97":166018.82000000001,"N_COORD97":2538020.6400000001,"ADDRESS":"喜樹路１５１巷６３弄１１號","OBJECTID":109996},"geometry":{"x":166018.8200000003,"y":2538020.6400000025}},{"attributes":{"ID":109997,"DIS_CODE":0,"TOWNNAME":"南區","LI":"喜東里","LIN":"9鄰","STREET":"喜樹路","SECT":" ","MAREA":" ","LANE":"１５１巷","ALLEY":"６３弄","HOUSE_NO":"１２號","E_COORD97":166038.76000000001,"N_COORD97":2538027.6000000001,"ADDRESS":"喜樹路１５１巷６３弄１２號","OBJECTID":109997},"geometry":{"x":166038.76000000071,"y":2538027.5999999996}},{"attributes":{"ID":109998,"DIS_CODE":0,"TOWNNAME":"南區","LI":"喜東里","LIN":"9鄰","STREET":"喜樹路","SECT":" ","MAREA":" ","LANE":"１５１巷","ALLEY":"６３弄","HOUSE_NO":"１３號","E_COORD97":166018.82000000001,"N_COORD97":2538025.3599999999,"ADDRESS":"喜樹路１５１巷６３弄１３號","OBJECTID":109998},"geometry":{"x":166018.8200000003,"y":2538025.3599999994}},{"attributes":{"ID":109999,"DIS_CODE":0,"TOWNNAME":"南區","LI":"喜東里","LIN":"9鄰","STREET":"喜樹路","SECT":" ","MAREA":" ","LANE":"１５１巷","ALLEY":"６３弄","HOUSE_NO":"１４號","E_COORD97":166042.98000000001,"N_COORD97":2538032.9199999999,"ADDRESS":"喜樹路１５１巷６３弄１４號","OBJECTID":109999},"geometry":{"x":166042.98000000138,"y":2538032.9199999999}},{"attributes":{"ID":110000,"DIS_CODE":0,"TOWNNAME":"南區","LI":"喜東里","LIN":"9鄰","STREET":"喜樹路","SECT":" ","MAREA":" ","LANE":"１５１巷","ALLEY":"６３弄","HOUSE_NO":"１６號","E_COORD97":166042.78,"N_COORD97":2538037.4300000002,"ADDRESS":"喜樹路１５１巷６３弄１６號","OBJECTID":110000},"geometry":{"x":166042.78000000026,"y":2538037.4300000016}}]}