{"displayFieldName":"TOWNNAME","fieldAliases":{"ID":"ID","DIS_CODE":"DIS_CODE","TOWNNAME":"TOWNNAME","LI":"LI","LIN":"LIN","STREET":"STREET","SECT":"SECT","MAREA":"MAREA","LANE":"LANE","ALLEY":"ALLEY","HOUSE_NO":"HOUSE_NO","E_COORD97":"E_COORD97","N_COORD97":"N_COORD97","ADDRESS":"ADDRESS","OBJECTID":"OBJECTID"},"geometryType":"esriGeometryPoint","spatialReference":{"wkid":102443,"latestWkid":3826},"fields":[{"name":"ID","type":"esriFieldTypeDouble","alias":"ID"},{"name":"DIS_CODE","type":"esriFieldTypeInteger","alias":"DIS_CODE"},{"name":"TOWNNAME","type":"esriFieldTypeString","alias":"TOWNNAME","length":8},{"name":"LI","type":"esriFieldTypeString","alias":"LI","length":8},{"name":"LIN","type":"esriFieldTypeString","alias":"LIN","length":12},{"name":"STREET","type":"esriFieldTypeString","alias":"STREET","length":20},{"name":"SECT","type":"esriFieldTypeString","alias":"SECT","length":8},{"name":"MAREA","type":"esriFieldTypeString","alias":"MAREA","length":12},{"name":"LANE","type":"esriFieldTypeString","alias":"LANE","length":10},{"name":"ALLEY","type":"esriFieldTypeString","alias":"ALLEY","length":10},{"name":"HOUSE_NO","type":"esriFieldTypeString","alias":"HOUSE_NO","length":20},{"name":"E_COORD97","type":"esriFieldTypeDouble","alias":"E_COORD97"},{"name":"N_COORD97","type":"esriFieldTypeDouble","alias":"N_COORD97"},{"name":"ADDRESS","type":"esriFieldTypeString","alias":"ADDRESS","length":50},{"name":"OBJECTID","type":"esriFieldTypeOID","alias":"OBJECTID"}],"features":[{"attributes":{"ID":34801,"DIS_CODE":0,"TOWNNAME":"北區","LI":"勝安里","LIN":"8鄰","STREET":"開元路","SECT":" ","MAREA":" ","LANE":"７３巷","ALLEY":"７４弄","HOUSE_NO":"６號","E_COORD97":169903.17999999999,"N_COORD97":2545401.4500000002,"ADDRESS":"開元路７３巷７４弄６號","OBJECTID":34801},"geometry":{"x":169903.1799999997,"y":2545401.4500000011}},{"attributes":{"ID":34802,"DIS_CODE":0,"TOWNNAME":"北區","LI":"勝安里","LIN":"8鄰","STREET":"開元路","SECT":" ","MAREA":" ","LANE":"７３巷","ALLEY":"７４弄","HOUSE_NO":"８號","E_COORD97":169907.76000000001,"N_COORD97":2545402.71,"ADDRESS":"開元路７３巷７４弄８號","OBJECTID":34802},"geometry":{"x":169907.75999999978,"y":2545402.7100000009}},{"attributes":{"ID":34803,"DIS_CODE":0,"TOWNNAME":"新營區","LI":"民生里","LIN":"24鄰","STREET":"民生路","SECT":" ","MAREA":" ","LANE":"１３９巷","ALLEY":"７弄","HOUSE_NO":"１０號","E_COORD97":179187.62,"N_COORD97":2578556.6400000001,"ADDRESS":"民生路１３９巷７弄１０號","OBJECTID":34803},"geometry":{"x":179187.62000000104,"y":2578556.6400000006}},{"attributes":{"ID":34804,"DIS_CODE":0,"TOWNNAME":"北區","LI":"華興里","LIN":"8鄰","STREET":"南園街","SECT":" ","MAREA":" ","LANE":"１６２巷","ALLEY":"１６弄","HOUSE_NO":"１０號","E_COORD97":170596.35999999999,"N_COORD97":2545242.8799999999,"ADDRESS":"南園街１６２巷１６弄１０號","OBJECTID":34804},"geometry":{"x":170596.3600000022,"y":2545242.879999999}},{"attributes":{"ID":34805,"DIS_CODE":0,"TOWNNAME":"北區","LI":"華興里","LIN":"8鄰","STREET":"南園街","SECT":" ","MAREA":" ","LANE":"１６２巷","ALLEY":"１６弄","HOUSE_NO":"１１號","E_COORD97":170580.07000000001,"N_COORD97":2545271.7400000002,"ADDRESS":"南園街１６２巷１６弄１１號","OBJECTID":34805},"geometry":{"x":170580.07000000123,"y":2545271.7400000021}},{"attributes":{"ID":34806,"DIS_CODE":0,"TOWNNAME":"北區","LI":"華興里","LIN":"8鄰","STREET":"南園街","SECT":" ","MAREA":" ","LANE":"１６２巷","ALLEY":"１６弄","HOUSE_NO":"１２號","E_COORD97":170597.37,"N_COORD97":2545253.0899999999,"ADDRESS":"南園街１６２巷１６弄１２號","OBJECTID":34806},"geometry":{"x":170597.37000000011,"y":2545253.0899999999}},{"attributes":{"ID":34807,"DIS_CODE":0,"TOWNNAME":"北區","LI":"華興里","LIN":"8鄰","STREET":"南園街","SECT":" ","MAREA":" ","LANE":"１６２巷","ALLEY":"１６弄","HOUSE_NO":"１３號","E_COORD97":170580.31,"N_COORD97":2545275.77,"ADDRESS":"南園街１６２巷１６弄１３號","OBJECTID":34807},"geometry":{"x":170580.30999999959,"y":2545275.7699999996}},{"attributes":{"ID":34808,"DIS_CODE":0,"TOWNNAME":"北區","LI":"華興里","LIN":"8鄰","STREET":"南園街","SECT":" ","MAREA":" ","LANE":"１６２巷","ALLEY":"１６弄","HOUSE_NO":"１４號","E_COORD97":170597.76999999999,"N_COORD97":2545256.6400000001,"ADDRESS":"南園街１６２巷１６弄１４號","OBJECTID":34808},"geometry":{"x":170597.77000000142,"y":2545256.6400000006}},{"attributes":{"ID":34809,"DIS_CODE":0,"TOWNNAME":"北區","LI":"華興里","LIN":"8鄰","STREET":"南園街","SECT":" ","MAREA":" ","LANE":"１６２巷","ALLEY":"１６弄","HOUSE_NO":"１５號","E_COORD97":170580.70000000001,"N_COORD97":2545279.9500000002,"ADDRESS":"南園街１６２巷１６弄１５號","OBJECTID":34809},"geometry":{"x":170580.70000000112,"y":2545279.9499999993}},{"attributes":{"ID":34810,"DIS_CODE":0,"TOWNNAME":"北區","LI":"華興里","LIN":"8鄰","STREET":"南園街","SECT":" ","MAREA":" ","LANE":"１６２巷","ALLEY":"１６弄","HOUSE_NO":"１６號","E_COORD97":170598.16,"N_COORD97":2545261.1299999999,"ADDRESS":"南園街１６２巷１６弄１６號","OBJECTID":34810},"geometry":{"x":170598.16000000108,"y":2545261.1300000008}},{"attributes":{"ID":34811,"DIS_CODE":0,"TOWNNAME":"北區","LI":"華興里","LIN":"8鄰","STREET":"南園街","SECT":" ","MAREA":" ","LANE":"１６２巷","ALLEY":"１６弄","HOUSE_NO":"１８號","E_COORD97":170598.79999999999,"N_COORD97":2545265.0800000001,"ADDRESS":"南園街１６２巷１６弄１８號","OBJECTID":34811},"geometry":{"x":170598.79999999981,"y":2545265.0800000019}},{"attributes":{"ID":34812,"DIS_CODE":0,"TOWNNAME":"北區","LI":"華興里","LIN":"8鄰","STREET":"南園街","SECT":" ","MAREA":" ","LANE":"１６２巷","ALLEY":"１６弄","HOUSE_NO":"１號","E_COORD97":170576.12,"N_COORD97":2545228.3500000001,"ADDRESS":"南園街１６２巷１６弄１號","OBJECTID":34812},"geometry":{"x":170576.12000000104,"y":2545228.3500000034}},{"attributes":{"ID":34813,"DIS_CODE":0,"TOWNNAME":"北區","LI":"華興里","LIN":"8鄰","STREET":"南園街","SECT":" ","MAREA":" ","LANE":"１６２巷","ALLEY":"１６弄","HOUSE_NO":"２０號","E_COORD97":170598.88,"N_COORD97":2545269.3399999999,"ADDRESS":"南園街１６２巷１６弄２０號","OBJECTID":34813},"geometry":{"x":170598.87999999989,"y":2545269.3400000036}},{"attributes":{"ID":34814,"DIS_CODE":0,"TOWNNAME":"北區","LI":"華興里","LIN":"8鄰","STREET":"南園街","SECT":" ","MAREA":" ","LANE":"１６２巷","ALLEY":"１６弄","HOUSE_NO":"２２號","E_COORD97":170599.42999999999,"N_COORD97":2545273.1600000001,"ADDRESS":"南園街１６２巷１６弄２２號","OBJECTID":34814},"geometry":{"x":170599.43000000063,"y":2545273.1600000001}},{"attributes":{"ID":34815,"DIS_CODE":0,"TOWNNAME":"北區","LI":"華興里","LIN":"8鄰","STREET":"南園街","SECT":" ","MAREA":" ","LANE":"１６２巷","ALLEY":"１６弄","HOUSE_NO":"２４號","E_COORD97":170599.75,"N_COORD97":2545277.1800000002,"ADDRESS":"南園街１６２巷１６弄２４號","OBJECTID":34815},"geometry":{"x":170599.75,"y":2545277.1800000034}},{"attributes":{"ID":34816,"DIS_CODE":0,"TOWNNAME":"北區","LI":"華興里","LIN":"8鄰","STREET":"南園街","SECT":" ","MAREA":" ","LANE":"１６２巷","ALLEY":"１６弄","HOUSE_NO":"２６號","E_COORD97":170600.54000000001,"N_COORD97":2545281.3599999999,"ADDRESS":"南園街１６２巷１６弄２６號","OBJECTID":34816},"geometry":{"x":170600.54000000097,"y":2545281.3599999994}},{"attributes":{"ID":34817,"DIS_CODE":0,"TOWNNAME":"北區","LI":"華興里","LIN":"8鄰","STREET":"南園街","SECT":" ","MAREA":" ","LANE":"１６２巷","ALLEY":"１６弄","HOUSE_NO":"２８號","E_COORD97":170601.72,"N_COORD97":2545287.3599999999,"ADDRESS":"南園街１６２巷１６弄２８號","OBJECTID":34817},"geometry":{"x":170601.7200000016,"y":2545287.3600000013}},{"attributes":{"ID":34818,"DIS_CODE":0,"TOWNNAME":"北區","LI":"華興里","LIN":"8鄰","STREET":"南園街","SECT":" ","MAREA":" ","LANE":"１６２巷","ALLEY":"１６弄","HOUSE_NO":"２號","E_COORD97":170594.45000000001,"N_COORD97":2545227.5699999998,"ADDRESS":"南園街１６２巷１６弄２號","OBJECTID":34818},"geometry":{"x":170594.45000000112,"y":2545227.570000004}},{"attributes":{"ID":34819,"DIS_CODE":0,"TOWNNAME":"北區","LI":"華興里","LIN":"8鄰","STREET":"南園街","SECT":" ","MAREA":" ","LANE":"１６２巷","ALLEY":"１６弄","HOUSE_NO":"３０號","E_COORD97":170602.04000000001,"N_COORD97":2545291.7200000002,"ADDRESS":"南園街１６２巷１６弄３０號","OBJECTID":34819},"geometry":{"x":170602.04000000097,"y":2545291.7200000044}},{"attributes":{"ID":34820,"DIS_CODE":0,"TOWNNAME":"北區","LI":"華興里","LIN":"8鄰","STREET":"南園街","SECT":" ","MAREA":" ","LANE":"１６２巷","ALLEY":"１６弄","HOUSE_NO":"３２號","E_COORD97":170600.91,"N_COORD97":2545296.3999999999,"ADDRESS":"南園街１６２巷１６弄３２號","OBJECTID":34820},"geometry":{"x":170600.91000000201,"y":2545296.4000000004}},{"attributes":{"ID":34821,"DIS_CODE":0,"TOWNNAME":"北區","LI":"華興里","LIN":"8鄰","STREET":"南園街","SECT":" ","MAREA":" ","LANE":"１６２巷","ALLEY":"１６弄","HOUSE_NO":"３４號","E_COORD97":170600.17999999999,"N_COORD97":2545300.3599999999,"ADDRESS":"南園街１６２巷１６弄３４號","OBJECTID":34821},"geometry":{"x":170600.17999999877,"y":2545300.3600000013}},{"attributes":{"ID":34822,"DIS_CODE":0,"TOWNNAME":"北區","LI":"華興里","LIN":"8鄰","STREET":"南園街","SECT":" ","MAREA":" ","LANE":"１６２巷","ALLEY":"１６弄","HOUSE_NO":"３６號","E_COORD97":170599.29000000001,"N_COORD97":2545305.04,"ADDRESS":"南園街１６２巷１６弄３６號","OBJECTID":34822},"geometry":{"x":170599.29000000004,"y":2545305.040000001}},{"attributes":{"ID":34823,"DIS_CODE":0,"TOWNNAME":"北區","LI":"華興里","LIN":"8鄰","STREET":"南園街","SECT":" ","MAREA":" ","LANE":"１６２巷","ALLEY":"１６弄","HOUSE_NO":"３８號","E_COORD97":170598.07999999999,"N_COORD97":2545310.21,"ADDRESS":"南園街１６２巷１６弄３８號","OBJECTID":34823},"geometry":{"x":170598.08000000194,"y":2545310.2100000028}},{"attributes":{"ID":34824,"DIS_CODE":0,"TOWNNAME":"北區","LI":"華興里","LIN":"8鄰","STREET":"南園街","SECT":" ","MAREA":" ","LANE":"１６２巷","ALLEY":"１６弄","HOUSE_NO":"３號","E_COORD97":170576.67000000001,"N_COORD97":2545232.5299999998,"ADDRESS":"南園街１６２巷１６弄３號","OBJECTID":34824},"geometry":{"x":170576.66999999993,"y":2545232.5299999993}},{"attributes":{"ID":34825,"DIS_CODE":0,"TOWNNAME":"北區","LI":"華興里","LIN":"8鄰","STREET":"南園街","SECT":" ","MAREA":" ","LANE":"１６２巷","ALLEY":"１６弄","HOUSE_NO":"４號","E_COORD97":170595.07999999999,"N_COORD97":2545231.6699999999,"ADDRESS":"南園街１６２巷１６弄４號","OBJECTID":34825},"geometry":{"x":170595.08000000101,"y":2545231.6700000018}},{"attributes":{"ID":34826,"DIS_CODE":0,"TOWNNAME":"北區","LI":"華興里","LIN":"8鄰","STREET":"南園街","SECT":" ","MAREA":" ","LANE":"１６２巷","ALLEY":"１６弄","HOUSE_NO":"５號","E_COORD97":170577.62,"N_COORD97":2545236.9500000002,"ADDRESS":"南園街１６２巷１６弄５號","OBJECTID":34826},"geometry":{"x":170577.62000000104,"y":2545236.9499999993}},{"attributes":{"ID":34827,"DIS_CODE":0,"TOWNNAME":"北區","LI":"華興里","LIN":"8鄰","STREET":"南園街","SECT":" ","MAREA":" ","LANE":"１６２巷","ALLEY":"１６弄","HOUSE_NO":"６號","E_COORD97":170595.32000000001,"N_COORD97":2545234.9100000001,"ADDRESS":"南園街１６２巷１６弄６號","OBJECTID":34827},"geometry":{"x":170595.32000000123,"y":2545234.9100000001}},{"attributes":{"ID":34828,"DIS_CODE":0,"TOWNNAME":"北區","LI":"華興里","LIN":"8鄰","STREET":"南園街","SECT":" ","MAREA":" ","LANE":"１６２巷","ALLEY":"１６弄","HOUSE_NO":"７號","E_COORD97":170578.17000000001,"N_COORD97":2545241.0499999998,"ADDRESS":"南園街１６２巷１６弄７號","OBJECTID":34828},"geometry":{"x":170578.16999999993,"y":2545241.0500000007}},{"attributes":{"ID":34829,"DIS_CODE":0,"TOWNNAME":"北區","LI":"華興里","LIN":"8鄰","STREET":"南園街","SECT":" ","MAREA":" ","LANE":"１６２巷","ALLEY":"１６弄","HOUSE_NO":"８號","E_COORD97":170595.95000000001,"N_COORD97":2545239.0099999998,"ADDRESS":"南園街１６２巷１６弄８號","OBJECTID":34829},"geometry":{"x":170595.95000000112,"y":2545239.0100000016}},{"attributes":{"ID":34830,"DIS_CODE":0,"TOWNNAME":"北區","LI":"華興里","LIN":"8鄰","STREET":"南園街","SECT":" ","MAREA":" ","LANE":"１６２巷","ALLEY":"１６弄","HOUSE_NO":"９號","E_COORD97":170578.56,"N_COORD97":2545245,"ADDRESS":"南園街１６２巷１６弄９號","OBJECTID":34830},"geometry":{"x":170578.55999999959,"y":2545245.0000000037}},{"attributes":{"ID":34831,"DIS_CODE":0,"TOWNNAME":"關廟區","LI":"布袋里","LIN":"8鄰","STREET":"長文街","SECT":" ","MAREA":" ","LANE":"３２６巷","ALLEY":"２５弄","HOUSE_NO":"２８號","E_COORD97":182047.44,"N_COORD97":2534939.2999999998,"ADDRESS":"長文街３２６巷２５弄２８號","OBJECTID":34831},"geometry":{"x":182047.44000000134,"y":2534939.3000000007}},{"attributes":{"ID":34832,"DIS_CODE":0,"TOWNNAME":"關廟區","LI":"布袋里","LIN":"8鄰","STREET":"長文街","SECT":" ","MAREA":" ","LANE":"３２６巷","ALLEY":"３２弄","HOUSE_NO":"５號","E_COORD97":181969.14000000001,"N_COORD97":2534991.2999999998,"ADDRESS":"長文街３２６巷３２弄５號","OBJECTID":34832},"geometry":{"x":181969.1400000006,"y":2534991.3000000045}},{"attributes":{"ID":34833,"DIS_CODE":0,"TOWNNAME":"關廟區","LI":"布袋里","LIN":"8鄰","STREET":"長文街","SECT":" ","MAREA":" ","LANE":"３２６巷","ALLEY":"２５弄","HOUSE_NO":"２１號","E_COORD97":182026.29000000001,"N_COORD97":2534952.25,"ADDRESS":"長文街３２６巷２５弄２１號","OBJECTID":34833},"geometry":{"x":182026.29000000097,"y":2534952.25}},{"attributes":{"ID":34834,"DIS_CODE":0,"TOWNNAME":"關廟區","LI":"山西里","LIN":"8鄰","STREET":"成功路","SECT":" ","MAREA":" ","LANE":"５３０巷","ALLEY":"１６弄","HOUSE_NO":"２號","E_COORD97":180860.23999999999,"N_COORD97":2540653.27,"ADDRESS":"成功路５３０巷１６弄２號","OBJECTID":34834},"geometry":{"x":180860.24000000115,"y":2540653.2700000014}},{"attributes":{"ID":34835,"DIS_CODE":0,"TOWNNAME":"關廟區","LI":"深坑里","LIN":"8鄰","STREET":"深坑三街","SECT":" ","MAREA":" ","LANE":"２５巷","ALLEY":"７６弄","HOUSE_NO":"３號","E_COORD97":181828.37,"N_COORD97":2537928.2999999998,"ADDRESS":"深坑三街２５巷７６弄３號","OBJECTID":34835},"geometry":{"x":181828.37000000197,"y":2537928.3000000026}},{"attributes":{"ID":34836,"DIS_CODE":0,"TOWNNAME":"關廟區","LI":"新埔里","LIN":"8鄰","STREET":"新埔三街","SECT":" ","MAREA":" ","LANE":"１３７巷","ALLEY":"１弄","HOUSE_NO":"１號","E_COORD97":181244.22,"N_COORD97":2541138.25,"ADDRESS":"新埔三街１３７巷１弄１號","OBJECTID":34836},"geometry":{"x":181244.2200000016,"y":2541138.2500000019}},{"attributes":{"ID":34837,"DIS_CODE":0,"TOWNNAME":"關廟區","LI":"山西里","LIN":"8鄰","STREET":"成功路","SECT":" ","MAREA":" ","LANE":"５３０巷","ALLEY":"２１弄","HOUSE_NO":"２號","E_COORD97":180831.84,"N_COORD97":2540676.27,"ADDRESS":"成功路５３０巷２１弄２號","OBJECTID":34837},"geometry":{"x":180831.84000000078,"y":2540676.2700000014}},{"attributes":{"ID":34838,"DIS_CODE":0,"TOWNNAME":"關廟區","LI":"松腳里","LIN":"8鄰","STREET":"四維街","SECT":" ","MAREA":" ","LANE":"１４２巷","ALLEY":"１弄","HOUSE_NO":"２號","E_COORD97":181908.45999999999,"N_COORD97":2539770.25,"ADDRESS":"四維街１４２巷１弄２號","OBJECTID":34838},"geometry":{"x":181908.45999999996,"y":2539770.25}},{"attributes":{"ID":34839,"DIS_CODE":0,"TOWNNAME":"東山區","LI":"東中里","LIN":"8鄰","STREET":"公園路","SECT":" ","MAREA":" ","LANE":"３６巷","ALLEY":"１８弄","HOUSE_NO":"２號","E_COORD97":189161.13,"N_COORD97":2579752.1000000001,"ADDRESS":"公園路３６巷１８弄２號","OBJECTID":34839},"geometry":{"x":189161.12999999989,"y":2579752.1000000015}},{"attributes":{"ID":34840,"DIS_CODE":0,"TOWNNAME":"東山區","LI":"東中里","LIN":"8鄰","STREET":"公園路","SECT":" ","MAREA":" ","LANE":"３６巷","ALLEY":"１８弄","HOUSE_NO":"６號","E_COORD97":189163.89000000001,"N_COORD97":2579749.6800000002,"ADDRESS":"公園路３６巷１８弄６號","OBJECTID":34840},"geometry":{"x":189163.88999999966,"y":2579749.6799999997}},{"attributes":{"ID":34841,"DIS_CODE":0,"TOWNNAME":"關廟區","LI":"山西里","LIN":"8鄰","STREET":"成功路","SECT":" ","MAREA":" ","LANE":"５３０巷","ALLEY":"２１弄","HOUSE_NO":"１號","E_COORD97":180839.54000000001,"N_COORD97":2540677.27,"ADDRESS":"成功路５３０巷２１弄１號","OBJECTID":34841},"geometry":{"x":180839.54000000097,"y":2540677.2700000014}},{"attributes":{"ID":34842,"DIS_CODE":0,"TOWNNAME":"關廟區","LI":"山西里","LIN":"8鄰","STREET":"成功路","SECT":" ","MAREA":" ","LANE":"５３０巷","ALLEY":"１６弄","HOUSE_NO":"１號","E_COORD97":180854.44,"N_COORD97":2540653.27,"ADDRESS":"成功路５３０巷１６弄１號","OBJECTID":34842},"geometry":{"x":180854.44000000041,"y":2540653.2700000014}},{"attributes":{"ID":34843,"DIS_CODE":0,"TOWNNAME":"關廟區","LI":"山西里","LIN":"8鄰","STREET":"成功路","SECT":" ","MAREA":" ","LANE":"５３０巷","ALLEY":"２１弄","HOUSE_NO":"６號","E_COORD97":180821.84,"N_COORD97":2540668.27,"ADDRESS":"成功路５３０巷２１弄６號","OBJECTID":34843},"geometry":{"x":180821.84000000078,"y":2540668.2699999996}},{"attributes":{"ID":34844,"DIS_CODE":0,"TOWNNAME":"關廟區","LI":"東勢里","LIN":"8鄰","STREET":"四維街","SECT":" ","MAREA":" ","LANE":"７２巷","ALLEY":"１１弄","HOUSE_NO":"５號","E_COORD97":181974.45999999999,"N_COORD97":2539579.25,"ADDRESS":"四維街７２巷１１弄５號","OBJECTID":34844},"geometry":{"x":181974.45999999996,"y":2539579.2500000019}},{"attributes":{"ID":34845,"DIS_CODE":0,"TOWNNAME":"關廟區","LI":"深坑里","LIN":"8鄰","STREET":"深坑三街","SECT":" ","MAREA":" ","LANE":"２５巷","ALLEY":"７６弄","HOUSE_NO":"１３號","E_COORD97":181845.17000000001,"N_COORD97":2537937.2999999998,"ADDRESS":"深坑三街２５巷７６弄１３號","OBJECTID":34845},"geometry":{"x":181845.17000000086,"y":2537937.3000000045}},{"attributes":{"ID":34846,"DIS_CODE":0,"TOWNNAME":"關廟區","LI":"布袋里","LIN":"8鄰","STREET":"長文街","SECT":" ","MAREA":" ","LANE":"３２６巷","ALLEY":"３２弄","HOUSE_NO":"１５號","E_COORD97":181964.73999999999,"N_COORD97":2534949.25,"ADDRESS":"長文街３２６巷３２弄１５號","OBJECTID":34846},"geometry":{"x":181964.74000000022,"y":2534949.25}},{"attributes":{"ID":34847,"DIS_CODE":0,"TOWNNAME":"北區","LI":"成功里","LIN":"8鄰","STREET":"北安路","SECT":"一段","MAREA":" ","LANE":"２６２巷","ALLEY":"２２弄","HOUSE_NO":"１號","E_COORD97":168764.10000000001,"N_COORD97":2546671.29,"ADDRESS":"北安路一段２６２巷２２弄１號","OBJECTID":34847},"geometry":{"x":168764.09999999963,"y":2546671.2899999991}},{"attributes":{"ID":34848,"DIS_CODE":0,"TOWNNAME":"北區","LI":"成功里","LIN":"8鄰","STREET":"北安路","SECT":"一段","MAREA":" ","LANE":"２６２巷","ALLEY":"２２弄","HOUSE_NO":"３號","E_COORD97":168768.16,"N_COORD97":2546669.0099999998,"ADDRESS":"北安路一段２６２巷２２弄３號","OBJECTID":34848},"geometry":{"x":168768.16000000015,"y":2546669.0100000016}},{"attributes":{"ID":34849,"DIS_CODE":0,"TOWNNAME":"北區","LI":"成功里","LIN":"8鄰","STREET":"北安路","SECT":"一段","MAREA":" ","LANE":"２６２巷","ALLEY":"２２弄","HOUSE_NO":"５號","E_COORD97":168772.72,"N_COORD97":2546665.7200000002,"ADDRESS":"北安路一段２６２巷２２弄５號","OBJECTID":34849},"geometry":{"x":168772.7200000016,"y":2546665.7200000025}},{"attributes":{"ID":34850,"DIS_CODE":0,"TOWNNAME":"北區","LI":"成功里","LIN":"8鄰","STREET":"北安路","SECT":"一段","MAREA":" ","LANE":"２６２巷","ALLEY":"２２弄","HOUSE_NO":"７號","E_COORD97":168776.01999999999,"N_COORD97":2546663.6899999999,"ADDRESS":"北安路一段２６２巷２２弄７號","OBJECTID":34850},"geometry":{"x":168776.02000000048,"y":2546663.6900000032}},{"attributes":{"ID":34851,"DIS_CODE":0,"TOWNNAME":"北區","LI":"成功里","LIN":"8鄰","STREET":"北安路","SECT":"一段","MAREA":" ","LANE":"２６２巷","ALLEY":"２２弄","HOUSE_NO":"９號","E_COORD97":168779.57000000001,"N_COORD97":2546661.6600000001,"ADDRESS":"北安路一段２６２巷２２弄９號","OBJECTID":34851},"geometry":{"x":168779.57000000123,"y":2546661.660000002}},{"attributes":{"ID":34852,"DIS_CODE":0,"TOWNNAME":"北區","LI":"成功里","LIN":"8鄰","STREET":"北安路","SECT":"一段","MAREA":" ","LANE":"２６２巷","ALLEY":"２６弄","HOUSE_NO":"１０號","E_COORD97":168792.01000000001,"N_COORD97":2546683.4500000002,"ADDRESS":"北安路一段２６２巷２６弄１０號","OBJECTID":34852},"geometry":{"x":168792.00999999978,"y":2546683.4500000011}},{"attributes":{"ID":34853,"DIS_CODE":0,"TOWNNAME":"北區","LI":"成功里","LIN":"8鄰","STREET":"北安路","SECT":"一段","MAREA":" ","LANE":"２６２巷","ALLEY":"２６弄","HOUSE_NO":"１號","E_COORD97":168780.59,"N_COORD97":2546701.4399999999,"ADDRESS":"北安路一段２６２巷２６弄１號","OBJECTID":34853},"geometry":{"x":168780.59000000078,"y":2546701.4399999995}},{"attributes":{"ID":34854,"DIS_CODE":0,"TOWNNAME":"北區","LI":"成功里","LIN":"8鄰","STREET":"北安路","SECT":"一段","MAREA":" ","LANE":"２６２巷","ALLEY":"２６弄","HOUSE_NO":"２號","E_COORD97":168776.01999999999,"N_COORD97":2546691.8199999998,"ADDRESS":"北安路一段２６２巷２６弄２號","OBJECTID":34854},"geometry":{"x":168776.02000000048,"y":2546691.8200000022}},{"attributes":{"ID":34855,"DIS_CODE":0,"TOWNNAME":"北區","LI":"成功里","LIN":"8鄰","STREET":"北安路","SECT":"一段","MAREA":" ","LANE":"２６２巷","ALLEY":"２６弄","HOUSE_NO":"３號","E_COORD97":168785.16,"N_COORD97":2546699.4199999999,"ADDRESS":"北安路一段２６２巷２６弄３號","OBJECTID":34855},"geometry":{"x":168785.16000000015,"y":2546699.4199999999}},{"attributes":{"ID":34856,"DIS_CODE":0,"TOWNNAME":"北區","LI":"成功里","LIN":"8鄰","STREET":"北安路","SECT":"一段","MAREA":" ","LANE":"２６２巷","ALLEY":"２６弄","HOUSE_NO":"４號","E_COORD97":168779.32000000001,"N_COORD97":2546689.5299999998,"ADDRESS":"北安路一段２６２巷２６弄４號","OBJECTID":34856},"geometry":{"x":168779.32000000216,"y":2546689.5300000012}},{"attributes":{"ID":34857,"DIS_CODE":0,"TOWNNAME":"北區","LI":"成功里","LIN":"8鄰","STREET":"北安路","SECT":"一段","MAREA":" ","LANE":"２６２巷","ALLEY":"２６弄","HOUSE_NO":"５號","E_COORD97":168788.95999999999,"N_COORD97":2546697.3900000001,"ADDRESS":"北安路一段２６２巷２６弄５號","OBJECTID":34857},"geometry":{"x":168788.96000000089,"y":2546697.3900000043}},{"attributes":{"ID":34858,"DIS_CODE":0,"TOWNNAME":"北區","LI":"成功里","LIN":"8鄰","STREET":"北安路","SECT":"一段","MAREA":" ","LANE":"２６２巷","ALLEY":"２６弄","HOUSE_NO":"６號","E_COORD97":168783.63,"N_COORD97":2546688.27,"ADDRESS":"北安路一段２６２巷２６弄６號","OBJECTID":34858},"geometry":{"x":168783.63000000175,"y":2546688.2700000014}},{"attributes":{"ID":34859,"DIS_CODE":0,"TOWNNAME":"北區","LI":"成功里","LIN":"8鄰","STREET":"北安路","SECT":"一段","MAREA":" ","LANE":"２６２巷","ALLEY":"２６弄","HOUSE_NO":"７號","E_COORD97":168792.26000000001,"N_COORD97":2546695.1099999999,"ADDRESS":"北安路一段２６２巷２６弄７號","OBJECTID":34859},"geometry":{"x":168792.25999999978,"y":2546695.1100000013}},{"attributes":{"ID":34860,"DIS_CODE":0,"TOWNNAME":"北區","LI":"成功里","LIN":"8鄰","STREET":"北安路","SECT":"一段","MAREA":" ","LANE":"２６２巷","ALLEY":"２６弄","HOUSE_NO":"８號","E_COORD97":168787.69,"N_COORD97":2546685.23,"ADDRESS":"北安路一段２６２巷２６弄８號","OBJECTID":34860},"geometry":{"x":168787.69000000134,"y":2546685.2300000023}},{"attributes":{"ID":34861,"DIS_CODE":0,"TOWNNAME":"東山區","LI":"東中里","LIN":"20鄰","STREET":"龍山一街","SECT":" ","MAREA":" ","LANE":" ","ALLEY":" ","HOUSE_NO":"２號","E_COORD97":188902.26000000001,"N_COORD97":2580157.02,"ADDRESS":"龍山一街２號","OBJECTID":34861},"geometry":{"x":188902.25999999978,"y":2580157.0199999996}},{"attributes":{"ID":34862,"DIS_CODE":0,"TOWNNAME":"新化區","LI":"竹林里","LIN":"4鄰","STREET":"中山路","SECT":" ","MAREA":" ","LANE":" ","ALLEY":" ","HOUSE_NO":"３５８號","E_COORD97":178888.41,"N_COORD97":2548426.25,"ADDRESS":"中山路３５８號","OBJECTID":34862},"geometry":{"x":178888.41000000015,"y":2548426.25}},{"attributes":{"ID":34863,"DIS_CODE":0,"TOWNNAME":"北區","LI":"成功里","LIN":"8鄰","STREET":"北安路","SECT":"一段","MAREA":" ","LANE":"２６２巷","ALLEY":"２６弄","HOUSE_NO":"９號","E_COORD97":168797.32999999999,"N_COORD97":2546692.8300000001,"ADDRESS":"北安路一段２６２巷２６弄９號","OBJECTID":34863},"geometry":{"x":168797.33000000007,"y":2546692.8300000001}},{"attributes":{"ID":34864,"DIS_CODE":0,"TOWNNAME":"北區","LI":"成德里","LIN":"8鄰","STREET":"西門路","SECT":"四段","MAREA":" ","LANE":"６５巷","ALLEY":"１０８弄","HOUSE_NO":"１１號","E_COORD97":168469.60999999999,"N_COORD97":2545517.7599999998,"ADDRESS":"西門路四段６５巷１０８弄１１號","OBJECTID":34864},"geometry":{"x":168469.61000000127,"y":2545517.7600000016}},{"attributes":{"ID":34865,"DIS_CODE":0,"TOWNNAME":"北區","LI":"成德里","LIN":"8鄰","STREET":"西門路","SECT":"四段","MAREA":" ","LANE":"６５巷","ALLEY":"１０８弄","HOUSE_NO":"１３號","E_COORD97":168470.67000000001,"N_COORD97":2545521.3199999998,"ADDRESS":"西門路四段６５巷１０８弄１３號","OBJECTID":34865},"geometry":{"x":168470.66999999993,"y":2545521.3200000022}},{"attributes":{"ID":34866,"DIS_CODE":0,"TOWNNAME":"北區","LI":"成德里","LIN":"8鄰","STREET":"西門路","SECT":"四段","MAREA":" ","LANE":"６５巷","ALLEY":"１０８弄","HOUSE_NO":"１５號","E_COORD97":168475.42999999999,"N_COORD97":2545522.9100000001,"ADDRESS":"西門路四段６５巷１０８弄１５號","OBJECTID":34866},"geometry":{"x":168475.4299999997,"y":2545522.9100000001}},{"attributes":{"ID":34867,"DIS_CODE":0,"TOWNNAME":"北區","LI":"成德里","LIN":"8鄰","STREET":"西門路","SECT":"四段","MAREA":" ","LANE":"６５巷","ALLEY":"１０８弄","HOUSE_NO":"１７號","E_COORD97":168477.01000000001,"N_COORD97":2545526.9300000002,"ADDRESS":"西門路四段６５巷１０８弄１７號","OBJECTID":34867},"geometry":{"x":168477.00999999978,"y":2545526.9300000016}},{"attributes":{"ID":34868,"DIS_CODE":0,"TOWNNAME":"永康區","LI":"復華里","LIN":"21鄰","STREET":"國華街","SECT":" ","MAREA":" ","LANE":"１３２巷","ALLEY":"８弄","HOUSE_NO":"１４號","E_COORD97":172884.45072399999,"N_COORD97":2546334.8648000001,"ADDRESS":"國華街１３２巷８弄１４號","OBJECTID":34868},"geometry":{"x":172884.45072399918,"y":2546334.8648029976}},{"attributes":{"ID":34869,"DIS_CODE":0,"TOWNNAME":"北區","LI":"成德里","LIN":"8鄰","STREET":"西門路","SECT":"四段","MAREA":" ","LANE":"６５巷","ALLEY":"１０８弄","HOUSE_NO":"１９號","E_COORD97":168478.85999999999,"N_COORD97":2545530.1000000001,"ADDRESS":"西門路四段６５巷１０８弄１９號","OBJECTID":34869},"geometry":{"x":168478.86000000034,"y":2545530.1000000015}},{"attributes":{"ID":34870,"DIS_CODE":0,"TOWNNAME":"北區","LI":"成德里","LIN":"8鄰","STREET":"西門路","SECT":"四段","MAREA":" ","LANE":"６５巷","ALLEY":"１０８弄","HOUSE_NO":"１號","E_COORD97":168458.51000000001,"N_COORD97":2545500.4700000002,"ADDRESS":"西門路四段６５巷１０８弄１號","OBJECTID":34870},"geometry":{"x":168458.50999999978,"y":2545500.4700000025}},{"attributes":{"ID":34871,"DIS_CODE":0,"TOWNNAME":"北區","LI":"成德里","LIN":"8鄰","STREET":"西門路","SECT":"四段","MAREA":" ","LANE":"６５巷","ALLEY":"１０８弄","HOUSE_NO":"２１號","E_COORD97":168481.51000000001,"N_COORD97":2545533.7999999998,"ADDRESS":"西門路四段６５巷１０８弄２１號","OBJECTID":34871},"geometry":{"x":168481.51000000071,"y":2545533.8000000007}},{"attributes":{"ID":34872,"DIS_CODE":0,"TOWNNAME":"北區","LI":"成德里","LIN":"8鄰","STREET":"西門路","SECT":"四段","MAREA":" ","LANE":"６５巷","ALLEY":"１０８弄","HOUSE_NO":"２３號","E_COORD97":168483.22,"N_COORD97":2545537.1000000001,"ADDRESS":"西門路四段６５巷１０８弄２３號","OBJECTID":34872},"geometry":{"x":168483.22000000067,"y":2545537.0999999996}},{"attributes":{"ID":34873,"DIS_CODE":0,"TOWNNAME":"北區","LI":"成德里","LIN":"8鄰","STREET":"西門路","SECT":"四段","MAREA":" ","LANE":"６５巷","ALLEY":"１０８弄","HOUSE_NO":"２５號","E_COORD97":168485.34,"N_COORD97":2545540.1299999999,"ADDRESS":"西門路四段６５巷１０８弄２５號","OBJECTID":34873},"geometry":{"x":168485.33999999892,"y":2545540.129999999}},{"attributes":{"ID":34874,"DIS_CODE":0,"TOWNNAME":"北區","LI":"成德里","LIN":"8鄰","STREET":"西門路","SECT":"四段","MAREA":" ","LANE":"６５巷","ALLEY":"１０８弄","HOUSE_NO":"２７號","E_COORD97":168487.85000000001,"N_COORD97":2545543.4300000002,"ADDRESS":"西門路四段６５巷１０８弄２７號","OBJECTID":34874},"geometry":{"x":168487.84999999963,"y":2545543.4300000034}},{"attributes":{"ID":34875,"DIS_CODE":0,"TOWNNAME":"北區","LI":"成德里","LIN":"8鄰","STREET":"西門路","SECT":"四段","MAREA":" ","LANE":"６５巷","ALLEY":"１０８弄","HOUSE_NO":"２９號","E_COORD97":168489.95999999999,"N_COORD97":2545546.8700000001,"ADDRESS":"西門路四段６５巷１０８弄２９號","OBJECTID":34875},"geometry":{"x":168489.96000000183,"y":2545546.870000001}},{"attributes":{"ID":34876,"DIS_CODE":0,"TOWNNAME":"北區","LI":"成德里","LIN":"8鄰","STREET":"西門路","SECT":"四段","MAREA":" ","LANE":"６５巷","ALLEY":"１０８弄","HOUSE_NO":"３１號","E_COORD97":168491.81,"N_COORD97":2545550.5600000001,"ADDRESS":"西門路四段６５巷１０８弄３１號","OBJECTID":34876},"geometry":{"x":168491.80999999959,"y":2545550.5600000024}},{"attributes":{"ID":34877,"DIS_CODE":0,"TOWNNAME":"北區","LI":"成德里","LIN":"8鄰","STREET":"西門路","SECT":"四段","MAREA":" ","LANE":"６５巷","ALLEY":"１０８弄","HOUSE_NO":"３３號","E_COORD97":168494.19,"N_COORD97":2545553.9900000002,"ADDRESS":"西門路四段６５巷１０８弄３３號","OBJECTID":34877},"geometry":{"x":168494.19000000134,"y":2545553.9900000021}},{"attributes":{"ID":34878,"DIS_CODE":0,"TOWNNAME":"北區","LI":"成德里","LIN":"8鄰","STREET":"西門路","SECT":"四段","MAREA":" ","LANE":"６５巷","ALLEY":"１０８弄","HOUSE_NO":"３５號","E_COORD97":168496.44,"N_COORD97":2545557.1600000001,"ADDRESS":"西門路四段６５巷１０８弄３５號","OBJECTID":34878},"geometry":{"x":168496.44000000041,"y":2545557.160000002}},{"attributes":{"ID":34879,"DIS_CODE":0,"TOWNNAME":"北區","LI":"成德里","LIN":"8鄰","STREET":"西門路","SECT":"四段","MAREA":" ","LANE":"６５巷","ALLEY":"１０８弄","HOUSE_NO":"３號","E_COORD97":168460.63,"N_COORD97":2545504.1600000001,"ADDRESS":"西門路四段６５巷１０８弄３號","OBJECTID":34879},"geometry":{"x":168460.63000000082,"y":2545504.1600000001}},{"attributes":{"ID":34880,"DIS_CODE":0,"TOWNNAME":"北區","LI":"成德里","LIN":"8鄰","STREET":"西門路","SECT":"四段","MAREA":" ","LANE":"６５巷","ALLEY":"１０８弄","HOUSE_NO":"５號","E_COORD97":168462.73999999999,"N_COORD97":2545507.46,"ADDRESS":"西門路四段６５巷１０８弄５號","OBJECTID":34880},"geometry":{"x":168462.74000000209,"y":2545507.4600000028}},{"attributes":{"ID":34881,"DIS_CODE":0,"TOWNNAME":"北區","LI":"成德里","LIN":"8鄰","STREET":"西門路","SECT":"四段","MAREA":" ","LANE":"６５巷","ALLEY":"１０８弄","HOUSE_NO":"７號","E_COORD97":168465.39000000001,"N_COORD97":2545510.6299999999,"ADDRESS":"西門路四段６５巷１０８弄７號","OBJECTID":34881},"geometry":{"x":168465.3900000006,"y":2545510.6300000027}},{"attributes":{"ID":34882,"DIS_CODE":0,"TOWNNAME":"北區","LI":"成德里","LIN":"8鄰","STREET":"西門路","SECT":"四段","MAREA":" ","LANE":"６５巷","ALLEY":"１０８弄","HOUSE_NO":"９號","E_COORD97":168467.5,"N_COORD97":2545514.2000000002,"ADDRESS":"西門路四段６５巷１０８弄９號","OBJECTID":34882},"geometry":{"x":168467.49999999907,"y":2545514.2000000011}},{"attributes":{"ID":34883,"DIS_CODE":0,"TOWNNAME":"新營區","LI":"南紙里","LIN":"13鄰","STREET":"太子路","SECT":" ","MAREA":" ","LANE":"２３８巷","ALLEY":"４０弄","HOUSE_NO":"１號","E_COORD97":177776.01999999999,"N_COORD97":2577963.21,"ADDRESS":"太子路２３８巷４０弄１號","OBJECTID":34883},"geometry":{"x":177776.02000000048,"y":2577963.2100000009}},{"attributes":{"ID":34884,"DIS_CODE":0,"TOWNNAME":"北區","LI":"力行里","LIN":"8鄰","STREET":"開南街","SECT":" ","MAREA":" ","LANE":"２７５巷","ALLEY":"１２弄","HOUSE_NO":"１０號","E_COORD97":170998.89000000001,"N_COORD97":2545101.7400000002,"ADDRESS":"開南街２７５巷１２弄１０號","OBJECTID":34884},"geometry":{"x":170998.89000000153,"y":2545101.7400000021}},{"attributes":{"ID":34885,"DIS_CODE":0,"TOWNNAME":"北區","LI":"力行里","LIN":"8鄰","STREET":"開南街","SECT":" ","MAREA":" ","LANE":"２７５巷","ALLEY":"１２弄","HOUSE_NO":"１１號","E_COORD97":171008.60999999999,"N_COORD97":2545111.27,"ADDRESS":"開南街２７５巷１２弄１１號","OBJECTID":34885},"geometry":{"x":171008.61000000127,"y":2545111.2700000014}},{"attributes":{"ID":34886,"DIS_CODE":0,"TOWNNAME":"北區","LI":"力行里","LIN":"8鄰","STREET":"開南街","SECT":" ","MAREA":" ","LANE":"２７５巷","ALLEY":"１２弄","HOUSE_NO":"１２號","E_COORD97":171001.92999999999,"N_COORD97":2545100.6099999999,"ADDRESS":"開南街２７５巷１２弄１２號","OBJECTID":34886},"geometry":{"x":171001.92999999877,"y":2545100.6099999994}},{"attributes":{"ID":34887,"DIS_CODE":0,"TOWNNAME":"官田區","LI":"南\u25A0里","LIN":"7鄰","STREET":" ","SECT":" ","MAREA":"南\u25A0","LANE":" ","ALLEY":" ","HOUSE_NO":"８６號","E_COORD97":179059.10000000001,"N_COORD97":2568193.5499999998,"ADDRESS":"南\u25A0８６號","OBJECTID":34887},"geometry":{"x":179059.09999999963,"y":2568193.5500000007}},{"attributes":{"ID":34888,"DIS_CODE":0,"TOWNNAME":"北區","LI":"力行里","LIN":"8鄰","STREET":"開南街","SECT":" ","MAREA":" ","LANE":"２７５巷","ALLEY":"１２弄","HOUSE_NO":"１３號","E_COORD97":171013.54000000001,"N_COORD97":2545111.0800000001,"ADDRESS":"開南街２７５巷１２弄１３號","OBJECTID":34888},"geometry":{"x":171013.5400000019,"y":2545111.0800000001}},{"attributes":{"ID":34889,"DIS_CODE":0,"TOWNNAME":"北區","LI":"力行里","LIN":"8鄰","STREET":"開南街","SECT":" ","MAREA":" ","LANE":"２７５巷","ALLEY":"１２弄","HOUSE_NO":"１４號","E_COORD97":171006.29000000001,"N_COORD97":2545100.4199999999,"ADDRESS":"開南街２７５巷１２弄１４號","OBJECTID":34889},"geometry":{"x":171006.29000000004,"y":2545100.4200000018}},{"attributes":{"ID":34890,"DIS_CODE":0,"TOWNNAME":"北區","LI":"力行里","LIN":"8鄰","STREET":"開南街","SECT":" ","MAREA":" ","LANE":"２７５巷","ALLEY":"１２弄","HOUSE_NO":"１５號","E_COORD97":171019.04000000001,"N_COORD97":2545110.5099999998,"ADDRESS":"開南街２７５巷１２弄１５號","OBJECTID":34890},"geometry":{"x":171019.04000000097,"y":2545110.5100000016}},{"attributes":{"ID":34891,"DIS_CODE":0,"TOWNNAME":"新化區","LI":"豐榮里","LIN":"4鄰","STREET":"中山路","SECT":" ","MAREA":" ","LANE":" ","ALLEY":" ","HOUSE_NO":"６９１號","E_COORD97":178005.20999999999,"N_COORD97":2548464.25,"ADDRESS":"中山路６９１號","OBJECTID":34891},"geometry":{"x":178005.21000000089,"y":2548464.2500000019}},{"attributes":{"ID":34892,"DIS_CODE":0,"TOWNNAME":"北區","LI":"力行里","LIN":"8鄰","STREET":"開南街","SECT":" ","MAREA":" ","LANE":"２７５巷","ALLEY":"１２弄","HOUSE_NO":"１６號","E_COORD97":171010.26999999999,"N_COORD97":2545100.4199999999,"ADDRESS":"開南街２７５巷１２弄１６號","OBJECTID":34892},"geometry":{"x":171010.27000000048,"y":2545100.4200000018}},{"attributes":{"ID":34893,"DIS_CODE":0,"TOWNNAME":"北區","LI":"力行里","LIN":"8鄰","STREET":"開南街","SECT":" ","MAREA":" ","LANE":"２７５巷","ALLEY":"１２弄","HOUSE_NO":"１７號","E_COORD97":171023.39999999999,"N_COORD97":2545110.3300000001,"ADDRESS":"開南街２７５巷１２弄１７號","OBJECTID":34893},"geometry":{"x":171023.40000000224,"y":2545110.3300000038}},{"attributes":{"ID":34894,"DIS_CODE":0,"TOWNNAME":"北區","LI":"力行里","LIN":"8鄰","STREET":"開南街","SECT":" ","MAREA":" ","LANE":"２７５巷","ALLEY":"１２弄","HOUSE_NO":"１８號","E_COORD97":171014.06,"N_COORD97":2545100.4199999999,"ADDRESS":"開南街２７５巷１２弄１８號","OBJECTID":34894},"geometry":{"x":171014.05999999959,"y":2545100.4200000018}},{"attributes":{"ID":34895,"DIS_CODE":0,"TOWNNAME":"北區","LI":"力行里","LIN":"8鄰","STREET":"開南街","SECT":" ","MAREA":" ","LANE":"２７５巷","ALLEY":"１２弄","HOUSE_NO":"１９號","E_COORD97":171028.89999999999,"N_COORD97":2545110.3300000001,"ADDRESS":"開南街２７５巷１２弄１９號","OBJECTID":34895},"geometry":{"x":171028.9000000013,"y":2545110.3300000038}},{"attributes":{"ID":34896,"DIS_CODE":0,"TOWNNAME":"北區","LI":"力行里","LIN":"8鄰","STREET":"開南街","SECT":" ","MAREA":" ","LANE":"２７５巷","ALLEY":"１２弄","HOUSE_NO":"１號","E_COORD97":170983.76999999999,"N_COORD97":2545112.2200000002,"ADDRESS":"開南街２７５巷１２弄１號","OBJECTID":34896},"geometry":{"x":170983.76999999955,"y":2545112.2200000025}},{"attributes":{"ID":34897,"DIS_CODE":0,"TOWNNAME":"北區","LI":"力行里","LIN":"8鄰","STREET":"開南街","SECT":" ","MAREA":" ","LANE":"２７５巷","ALLEY":"１２弄","HOUSE_NO":"２０號","E_COORD97":171018.04999999999,"N_COORD97":2545099.8500000001,"ADDRESS":"開南街２７５巷１２弄２０號","OBJECTID":34897},"geometry":{"x":171018.04999999981,"y":2545099.8500000034}},{"attributes":{"ID":34898,"DIS_CODE":0,"TOWNNAME":"北區","LI":"力行里","LIN":"8鄰","STREET":"開南街","SECT":" ","MAREA":" ","LANE":"２７５巷","ALLEY":"１２弄","HOUSE_NO":"２１號","E_COORD97":171033.26000000001,"N_COORD97":2545109.9500000002,"ADDRESS":"開南街２７５巷１２弄２１號","OBJECTID":34898},"geometry":{"x":171033.25999999978,"y":2545109.9500000011}},{"attributes":{"ID":34899,"DIS_CODE":0,"TOWNNAME":"北區","LI":"力行里","LIN":"8鄰","STREET":"開南街","SECT":" ","MAREA":" ","LANE":"２７５巷","ALLEY":"１２弄","HOUSE_NO":"２２號","E_COORD97":171021.64999999999,"N_COORD97":2545099.6600000001,"ADDRESS":"開南街２７５巷１２弄２２號","OBJECTID":34899},"geometry":{"x":171021.65000000224,"y":2545099.660000002}},{"attributes":{"ID":34900,"DIS_CODE":0,"TOWNNAME":"北區","LI":"力行里","LIN":"8鄰","STREET":"開南街","SECT":" ","MAREA":" ","LANE":"２７５巷","ALLEY":"１２弄","HOUSE_NO":"２３號","E_COORD97":171038.19,"N_COORD97":2545109.9500000002,"ADDRESS":"開南街２７５巷１２弄２３號","OBJECTID":34900},"geometry":{"x":171038.19000000041,"y":2545109.9500000011}},{"attributes":{"ID":34901,"DIS_CODE":0,"TOWNNAME":"安平區","LI":"西門里","LIN":"1鄰","STREET":"國勝路","SECT":" ","MAREA":" ","LANE":"３１巷","ALLEY":"２弄","HOUSE_NO":"５號","E_COORD97":163917.37,"N_COORD97":2544602.3500000001,"ADDRESS":"國勝路３１巷２弄５號","OBJECTID":34901},"geometry":{"x":163917.37000000104,"y":2544602.3500000015}},{"attributes":{"ID":34902,"DIS_CODE":0,"TOWNNAME":"北區","LI":"力行里","LIN":"8鄰","STREET":"開南街","SECT":" ","MAREA":" ","LANE":"２７５巷","ALLEY":"１２弄","HOUSE_NO":"２４號","E_COORD97":171026.76999999999,"N_COORD97":2545099.6600000001,"ADDRESS":"開南街２７５巷１２弄２４號","OBJECTID":34902},"geometry":{"x":171026.77000000142,"y":2545099.660000002}},{"attributes":{"ID":34903,"DIS_CODE":0,"TOWNNAME":"北區","LI":"力行里","LIN":"8鄰","STREET":"開南街","SECT":" ","MAREA":" ","LANE":"２７５巷","ALLEY":"１２弄","HOUSE_NO":"２號","E_COORD97":170982.59,"N_COORD97":2545103.0699999998,"ADDRESS":"開南街２７５巷１２弄２號","OBJECTID":34903},"geometry":{"x":170982.59000000171,"y":2545103.0700000022}},{"attributes":{"ID":34904,"DIS_CODE":0,"TOWNNAME":"北區","LI":"力行里","LIN":"8鄰","STREET":"開南街","SECT":" ","MAREA":" ","LANE":"２７５巷","ALLEY":"１２弄","HOUSE_NO":"３號","E_COORD97":170988.70000000001,"N_COORD97":2545112.2200000002,"ADDRESS":"開南街２７５巷１２弄３號","OBJECTID":34904},"geometry":{"x":170988.70000000019,"y":2545112.2200000025}},{"attributes":{"ID":34905,"DIS_CODE":0,"TOWNNAME":"北區","LI":"力行里","LIN":"8鄰","STREET":"開南街","SECT":" ","MAREA":" ","LANE":"２７５巷","ALLEY":"１２弄","HOUSE_NO":"４號","E_COORD97":170986.19,"N_COORD97":2545101.3599999999,"ADDRESS":"開南街２７５巷１２弄４號","OBJECTID":34905},"geometry":{"x":170986.19000000134,"y":2545101.3599999994}},{"attributes":{"ID":34906,"DIS_CODE":0,"TOWNNAME":"北區","LI":"力行里","LIN":"8鄰","STREET":"開南街","SECT":" ","MAREA":" ","LANE":"２７５巷","ALLEY":"１２弄","HOUSE_NO":"５號","E_COORD97":170993.44,"N_COORD97":2545112.2200000002,"ADDRESS":"開南街２７５巷１２弄５號","OBJECTID":34906},"geometry":{"x":170993.44000000041,"y":2545112.2200000025}},{"attributes":{"ID":34907,"DIS_CODE":0,"TOWNNAME":"北區","LI":"力行里","LIN":"8鄰","STREET":"開南街","SECT":" ","MAREA":" ","LANE":"２７５巷","ALLEY":"１２弄","HOUSE_NO":"６號","E_COORD97":170990.54999999999,"N_COORD97":2545101.9300000002,"ADDRESS":"開南街２７５巷１２弄６號","OBJECTID":34907},"geometry":{"x":170990.54999999981,"y":2545101.9299999997}},{"attributes":{"ID":34908,"DIS_CODE":0,"TOWNNAME":"北區","LI":"力行里","LIN":"8鄰","STREET":"開南街","SECT":" ","MAREA":" ","LANE":"２７５巷","ALLEY":"１２弄","HOUSE_NO":"７號","E_COORD97":170997.98999999999,"N_COORD97":2545111.8399999999,"ADDRESS":"開南街２７５巷１２弄７號","OBJECTID":34908},"geometry":{"x":170997.99000000022,"y":2545111.8399999999}},{"attributes":{"ID":34909,"DIS_CODE":0,"TOWNNAME":"北區","LI":"力行里","LIN":"8鄰","STREET":"開南街","SECT":" ","MAREA":" ","LANE":"２７５巷","ALLEY":"１２弄","HOUSE_NO":"８號","E_COORD97":170995.10000000001,"N_COORD97":2545100.9900000002,"ADDRESS":"開南街２７５巷１２弄８號","OBJECTID":34909},"geometry":{"x":170995.09999999963,"y":2545100.9900000021}},{"attributes":{"ID":34910,"DIS_CODE":0,"TOWNNAME":"北區","LI":"力行里","LIN":"8鄰","STREET":"開南街","SECT":" ","MAREA":" ","LANE":"２７５巷","ALLEY":"１２弄","HOUSE_NO":"９號","E_COORD97":171003.10999999999,"N_COORD97":2545111.8399999999,"ADDRESS":"開南街２７５巷１２弄９號","OBJECTID":34910},"geometry":{"x":171003.1099999994,"y":2545111.8399999999}},{"attributes":{"ID":34911,"DIS_CODE":0,"TOWNNAME":"新營區","LI":"忠政里","LIN":"31鄰","STREET":"府西路","SECT":" ","MAREA":" ","LANE":"６３巷","ALLEY":"３２弄","HOUSE_NO":"４號","E_COORD97":179721,"N_COORD97":2579117.79,"ADDRESS":"府西路６３巷３２弄４號","OBJECTID":34911},"geometry":{"x":179721.00000000093,"y":2579117.7899999991}},{"attributes":{"ID":34912,"DIS_CODE":0,"TOWNNAME":"北區","LI":"大仁里","LIN":"8鄰","STREET":"北門路","SECT":"二段","MAREA":" ","LANE":"２３７巷","ALLEY":"３１弄","HOUSE_NO":"１號","E_COORD97":169412.95999999999,"N_COORD97":2545308.5600000001,"ADDRESS":"北門路二段２３７巷３１弄１號","OBJECTID":34912},"geometry":{"x":169412.95999999996,"y":2545308.5600000005}},{"attributes":{"ID":34913,"DIS_CODE":0,"TOWNNAME":"北區","LI":"大仁里","LIN":"8鄰","STREET":"北門路","SECT":"二段","MAREA":" ","LANE":"２３７巷","ALLEY":"３１弄","HOUSE_NO":"２號","E_COORD97":169404.28,"N_COORD97":2545304.8300000001,"ADDRESS":"北門路二段２３７巷３１弄２號","OBJECTID":34913},"geometry":{"x":169404.28000000026,"y":2545304.8300000019}},{"attributes":{"ID":34914,"DIS_CODE":0,"TOWNNAME":"北區","LI":"大仁里","LIN":"8鄰","STREET":"北門路","SECT":"二段","MAREA":" ","LANE":"２３７巷","ALLEY":"３１弄","HOUSE_NO":"６號","E_COORD97":169399.73000000001,"N_COORD97":2545285.1400000001,"ADDRESS":"北門路二段２３７巷３１弄６號","OBJECTID":34914},"geometry":{"x":169399.73000000045,"y":2545285.1400000043}},{"attributes":{"ID":34915,"DIS_CODE":0,"TOWNNAME":"北區","LI":"大仁里","LIN":"8鄰","STREET":"北門路","SECT":"二段","MAREA":" ","LANE":"２３７巷","ALLEY":"４１弄","HOUSE_NO":"１號","E_COORD97":169385.60999999999,"N_COORD97":2545305.6800000002,"ADDRESS":"北門路二段２３７巷４１弄１號","OBJECTID":34915},"geometry":{"x":169385.61000000034,"y":2545305.6800000016}},{"attributes":{"ID":34916,"DIS_CODE":0,"TOWNNAME":"北區","LI":"大仁里","LIN":"8鄰","STREET":"北門路","SECT":"二段","MAREA":" ","LANE":"２３７巷","ALLEY":"４１弄","HOUSE_NO":"３號","E_COORD97":169383.48000000001,"N_COORD97":2545294.4399999999,"ADDRESS":"北門路二段２３７巷４１弄３號","OBJECTID":34916},"geometry":{"x":169383.47999999952,"y":2545294.4399999995}},{"attributes":{"ID":34917,"DIS_CODE":0,"TOWNNAME":"北區","LI":"大仁里","LIN":"8鄰","STREET":"北門路","SECT":"二段","MAREA":" ","LANE":"２３７巷","ALLEY":"４１弄","HOUSE_NO":"５號","E_COORD97":169380.38,"N_COORD97":2545287.1899999999,"ADDRESS":"北門路二段２３７巷４１弄５號","OBJECTID":34917},"geometry":{"x":169380.38000000175,"y":2545287.1900000032}},{"attributes":{"ID":34918,"DIS_CODE":0,"TOWNNAME":"北區","LI":"大仁里","LIN":"8鄰","STREET":"北門路","SECT":"二段","MAREA":" ","LANE":"２３７巷","ALLEY":"４１弄","HOUSE_NO":"７號","E_COORD97":169378.53,"N_COORD97":2545278.7999999998,"ADDRESS":"北門路二段２３７巷４１弄７號","OBJECTID":34918},"geometry":{"x":169378.53000000119,"y":2545278.8000000026}},{"attributes":{"ID":34919,"DIS_CODE":0,"TOWNNAME":"新營區","LI":"忠政里","LIN":"26鄰","STREET":"府西路","SECT":" ","MAREA":" ","LANE":"１３７巷","ALLEY":"１２弄","HOUSE_NO":"１３號","E_COORD97":179753.06,"N_COORD97":2579377.8999999999,"ADDRESS":"府西路１３７巷１２弄１３號","OBJECTID":34919},"geometry":{"x":179753.05999999959,"y":2579377.9000000022}},{"attributes":{"ID":34920,"DIS_CODE":0,"TOWNNAME":"新營區","LI":"忠政里","LIN":"14鄰","STREET":"中正路","SECT":" ","MAREA":" ","LANE":"５９巷","ALLEY":"１９弄","HOUSE_NO":"２０號","E_COORD97":180021.17999999999,"N_COORD97":2579611.4100000001,"ADDRESS":"中正路５９巷１９弄２０號","OBJECTID":34920},"geometry":{"x":180021.18000000063,"y":2579611.410000002}},{"attributes":{"ID":34921,"DIS_CODE":0,"TOWNNAME":"安平區","LI":"西門里","LIN":"8鄰","STREET":"古堡街","SECT":" ","MAREA":" ","LANE":"８９巷","ALLEY":"４弄","HOUSE_NO":"５號","E_COORD97":163757.73000000001,"N_COORD97":2544806.7599999998,"ADDRESS":"古堡街８９巷４弄５號","OBJECTID":34921},"geometry":{"x":163757.73000000138,"y":2544806.7600000016}},{"attributes":{"ID":34922,"DIS_CODE":0,"TOWNNAME":"歸仁區","LI":"南保里","LIN":"8鄰","STREET":"文化十街","SECT":" ","MAREA":" ","LANE":"２８巷","ALLEY":"９５弄","HOUSE_NO":"１５號","E_COORD97":176804.04000000001,"N_COORD97":2541344.3300000001,"ADDRESS":"文化十街２８巷９５弄１５號","OBJECTID":34922},"geometry":{"x":176804.04000000004,"y":2541344.3300000019}},{"attributes":{"ID":34923,"DIS_CODE":0,"TOWNNAME":"歸仁區","LI":"南保里","LIN":"8鄰","STREET":"文化十街","SECT":" ","MAREA":" ","LANE":"２８巷","ALLEY":"９５弄","HOUSE_NO":"７號","E_COORD97":176802.89000000001,"N_COORD97":2541360.3300000001,"ADDRESS":"文化十街２８巷９５弄７號","OBJECTID":34923},"geometry":{"x":176802.88999999966,"y":2541360.3300000001}},{"attributes":{"ID":34924,"DIS_CODE":0,"TOWNNAME":"歸仁區","LI":"媽廟里","LIN":"8鄰","STREET":"中正北路","SECT":"三段","MAREA":" ","LANE":"２０５巷","ALLEY":"２５弄","HOUSE_NO":"９號","E_COORD97":177475.81,"N_COORD97":2543837.7200000002,"ADDRESS":"中正北路三段２０５巷２５弄９號","OBJECTID":34924},"geometry":{"x":177475.81000000052,"y":2543837.7200000025}},{"attributes":{"ID":34925,"DIS_CODE":0,"TOWNNAME":"歸仁區","LI":"媽廟里","LIN":"8鄰","STREET":"中正北路","SECT":"三段","MAREA":" ","LANE":"２０５巷","ALLEY":"２７弄","HOUSE_NO":"１３號","E_COORD97":177457.66,"N_COORD97":2543845.7200000002,"ADDRESS":"中正北路三段２０５巷２７弄１３號","OBJECTID":34925},"geometry":{"x":177457.66000000015,"y":2543845.7200000007}},{"attributes":{"ID":34926,"DIS_CODE":0,"TOWNNAME":"歸仁區","LI":"媽廟里","LIN":"8鄰","STREET":"中正北路","SECT":"三段","MAREA":" ","LANE":"２０５巷","ALLEY":"２５弄","HOUSE_NO":"１號","E_COORD97":177490.41,"N_COORD97":2543875.7200000002,"ADDRESS":"中正北路三段２０５巷２５弄１號","OBJECTID":34926},"geometry":{"x":177490.41000000108,"y":2543875.7200000025}},{"attributes":{"ID":34927,"DIS_CODE":0,"TOWNNAME":"歸仁區","LI":"媽廟里","LIN":"8鄰","STREET":"中正北路","SECT":"三段","MAREA":" ","LANE":"２０５巷","ALLEY":"２５弄","HOUSE_NO":"２５號","E_COORD97":177469.66,"N_COORD97":2543778.7200000002,"ADDRESS":"中正北路三段２０５巷２５弄２５號","OBJECTID":34927},"geometry":{"x":177469.66000000015,"y":2543778.7200000007}},{"attributes":{"ID":34928,"DIS_CODE":0,"TOWNNAME":"佳里區","LI":"佳化里","LIN":"14鄰","STREET":" ","SECT":" ","MAREA":"佳里興","LANE":" ","ALLEY":" ","HOUSE_NO":"１３７號","E_COORD97":167400.84,"N_COORD97":2565135.3500000001,"ADDRESS":"佳里興１３７號","OBJECTID":34928},"geometry":{"x":167400.84000000078,"y":2565135.3499999996}},{"attributes":{"ID":34929,"DIS_CODE":0,"TOWNNAME":"官田區","LI":"南\u25A0里","LIN":"7鄰","STREET":" ","SECT":" ","MAREA":"南\u25A0","LANE":" ","ALLEY":" ","HOUSE_NO":"１００號","E_COORD97":178966.82000000001,"N_COORD97":2568312.6499999999,"ADDRESS":"南\u25A0１００號","OBJECTID":34929},"geometry":{"x":178966.8200000003,"y":2568312.6500000022}},{"attributes":{"ID":34930,"DIS_CODE":0,"TOWNNAME":"官田區","LI":"南\u25A0里","LIN":"7鄰","STREET":" ","SECT":" ","MAREA":"南\u25A0","LANE":" ","ALLEY":" ","HOUSE_NO":"１０１號之１","E_COORD97":179022.94,"N_COORD97":2568165.8500000001,"ADDRESS":"南\u25A0１０１號之１","OBJECTID":34930},"geometry":{"x":179022.94000000134,"y":2568165.8500000015}},{"attributes":{"ID":34931,"DIS_CODE":0,"TOWNNAME":"官田區","LI":"南\u25A0里","LIN":"7鄰","STREET":" ","SECT":" ","MAREA":"南\u25A0","LANE":" ","ALLEY":" ","HOUSE_NO":"１０１號","E_COORD97":179007.63,"N_COORD97":2568164.8500000001,"ADDRESS":"南\u25A0１０１號","OBJECTID":34931},"geometry":{"x":179007.63000000082,"y":2568164.8500000015}},{"attributes":{"ID":34932,"DIS_CODE":0,"TOWNNAME":"官田區","LI":"南\u25A0里","LIN":"7鄰","STREET":" ","SECT":" ","MAREA":"南\u25A0","LANE":" ","ALLEY":" ","HOUSE_NO":"１０２號","E_COORD97":178989.12,"N_COORD97":2568139.3700000001,"ADDRESS":"南\u25A0１０２號","OBJECTID":34932},"geometry":{"x":178989.12000000104,"y":2568139.3700000029}},{"attributes":{"ID":34933,"DIS_CODE":0,"TOWNNAME":"官田區","LI":"南\u25A0里","LIN":"7鄰","STREET":" ","SECT":" ","MAREA":"南\u25A0","LANE":" ","ALLEY":" ","HOUSE_NO":"１０３號之１０","E_COORD97":178627.22,"N_COORD97":2567957.1699999999,"ADDRESS":"南\u25A0１０３號之１０","OBJECTID":34933},"geometry":{"x":178627.22000000067,"y":2567957.1700000018}},{"attributes":{"ID":34934,"DIS_CODE":0,"TOWNNAME":"官田區","LI":"南\u25A0里","LIN":"7鄰","STREET":" ","SECT":" ","MAREA":"南\u25A0","LANE":" ","ALLEY":" ","HOUSE_NO":"１０３號之１１","E_COORD97":178007.903937,"N_COORD97":2567977.3755700001,"ADDRESS":"南\u25A0１０３號之１１","OBJECTID":34934},"geometry":{"x":178007.90393700078,"y":2567977.3755690008}},{"attributes":{"ID":34935,"DIS_CODE":0,"TOWNNAME":"官田區","LI":"南\u25A0里","LIN":"7鄰","STREET":" ","SECT":" ","MAREA":"南\u25A0","LANE":" ","ALLEY":" ","HOUSE_NO":"１０３號之１","E_COORD97":178410.78,"N_COORD97":2568068.0899999999,"ADDRESS":"南\u25A0１０３號之１","OBJECTID":34935},"geometry":{"x":178410.78000000119,"y":2568068.0900000036}},{"attributes":{"ID":34936,"DIS_CODE":0,"TOWNNAME":"官田區","LI":"南\u25A0里","LIN":"7鄰","STREET":" ","SECT":" ","MAREA":"南\u25A0","LANE":" ","ALLEY":" ","HOUSE_NO":"１０３號之４","E_COORD97":178342.04999999999,"N_COORD97":2568122.3399999999,"ADDRESS":"南\u25A0１０３號之４","OBJECTID":34936},"geometry":{"x":178342.05000000075,"y":2568122.3399999999}},{"attributes":{"ID":34937,"DIS_CODE":0,"TOWNNAME":"官田區","LI":"南\u25A0里","LIN":"7鄰","STREET":" ","SECT":" ","MAREA":"南\u25A0","LANE":" ","ALLEY":" ","HOUSE_NO":"１０３號之６","E_COORD97":178528,"N_COORD97":2568041.3199999998,"ADDRESS":"南\u25A0１０３號之６","OBJECTID":34937},"geometry":{"x":178528,"y":2568041.3200000022}},{"attributes":{"ID":34938,"DIS_CODE":0,"TOWNNAME":"官田區","LI":"南\u25A0里","LIN":"7鄰","STREET":" ","SECT":" ","MAREA":"南\u25A0","LANE":" ","ALLEY":" ","HOUSE_NO":"１０３號","E_COORD97":178942.60999999999,"N_COORD97":2568116.4199999999,"ADDRESS":"南\u25A0１０３號","OBJECTID":34938},"geometry":{"x":178942.61000000127,"y":2568116.4199999999}},{"attributes":{"ID":34939,"DIS_CODE":0,"TOWNNAME":"歸仁區","LI":"媽廟里","LIN":"8鄰","STREET":"中正北路","SECT":"三段","MAREA":" ","LANE":"２０５巷","ALLEY":"２５弄","HOUSE_NO":"７號","E_COORD97":177483.01000000001,"N_COORD97":2543844.7200000002,"ADDRESS":"中正北路三段２０５巷２５弄７號","OBJECTID":34939},"geometry":{"x":177483.01000000071,"y":2543844.7200000025}},{"attributes":{"ID":34940,"DIS_CODE":0,"TOWNNAME":"歸仁區","LI":"媽廟里","LIN":"8鄰","STREET":"中正北路","SECT":"三段","MAREA":" ","LANE":"２０５巷","ALLEY":"２５弄","HOUSE_NO":"５號","E_COORD97":177477.91,"N_COORD97":2543851.7200000002,"ADDRESS":"中正北路三段２０５巷２５弄５號","OBJECTID":34940},"geometry":{"x":177477.91000000015,"y":2543851.7200000025}},{"attributes":{"ID":34941,"DIS_CODE":0,"TOWNNAME":"歸仁區","LI":"媽廟里","LIN":"8鄰","STREET":"中正北路","SECT":"三段","MAREA":" ","LANE":"２０５巷","ALLEY":"２７弄","HOUSE_NO":"１５號","E_COORD97":177458.66,"N_COORD97":2543829.7200000002,"ADDRESS":"中正北路三段２０５巷２７弄１５號","OBJECTID":34941},"geometry":{"x":177458.66000000108,"y":2543829.7200000007}},{"attributes":{"ID":34942,"DIS_CODE":0,"TOWNNAME":"歸仁區","LI":"媽廟里","LIN":"8鄰","STREET":"中正北路","SECT":"三段","MAREA":" ","LANE":"２０５巷","ALLEY":"２５弄","HOUSE_NO":"２３號","E_COORD97":177469.66,"N_COORD97":2543787.7200000002,"ADDRESS":"中正北路三段２０５巷２５弄２３號","OBJECTID":34942},"geometry":{"x":177469.66000000015,"y":2543787.7200000025}},{"attributes":{"ID":34943,"DIS_CODE":0,"TOWNNAME":"歸仁區","LI":"南保里","LIN":"8鄰","STREET":"文化十街","SECT":" ","MAREA":" ","LANE":"２８巷","ALLEY":"９５弄","HOUSE_NO":"１３號","E_COORD97":176804.04000000001,"N_COORD97":2541347.3300000001,"ADDRESS":"文化十街２８巷９５弄１３號","OBJECTID":34943},"geometry":{"x":176804.04000000004,"y":2541347.3300000038}},{"attributes":{"ID":34944,"DIS_CODE":0,"TOWNNAME":"北區","LI":"正覺里","LIN":"14鄰","STREET":"西門路","SECT":"四段","MAREA":" ","LANE":" ","ALLEY":" ","HOUSE_NO":"４８０號三樓之１","E_COORD97":169147.26000000001,"N_COORD97":2546314.6099999999,"ADDRESS":"西門路四段４８０號三樓之１","OBJECTID":34944},"geometry":{"x":169147.26000000071,"y":2546314.6099999975}},{"attributes":{"ID":34945,"DIS_CODE":0,"TOWNNAME":"北區","LI":"正覺里","LIN":"14鄰","STREET":"西門路","SECT":"四段","MAREA":" ","LANE":" ","ALLEY":" ","HOUSE_NO":"４８０號三樓之２","E_COORD97":169147.26000000001,"N_COORD97":2546314.6099999999,"ADDRESS":"西門路四段４８０號三樓之２","OBJECTID":34945},"geometry":{"x":169147.26000000071,"y":2546314.6099999975}},{"attributes":{"ID":34946,"DIS_CODE":0,"TOWNNAME":"北區","LI":"正覺里","LIN":"14鄰","STREET":"西門路","SECT":"四段","MAREA":" ","LANE":" ","ALLEY":" ","HOUSE_NO":"４８０號三樓之３","E_COORD97":169147.26000000001,"N_COORD97":2546314.6099999999,"ADDRESS":"西門路四段４８０號三樓之３","OBJECTID":34946},"geometry":{"x":169147.26000000071,"y":2546314.6099999975}},{"attributes":{"ID":34947,"DIS_CODE":0,"TOWNNAME":"白河區","LI":"秀祐里","LIN":"7鄰","STREET":" ","SECT":" ","MAREA":"下秀祐","LANE":" ","ALLEY":" ","HOUSE_NO":"４２號","E_COORD97":187954.5,"N_COORD97":2582353.0499999998,"ADDRESS":"下秀祐４２號","OBJECTID":34947},"geometry":{"x":187954.50000000093,"y":2582353.0500000045}},{"attributes":{"ID":34948,"DIS_CODE":0,"TOWNNAME":"官田區","LI":"南\u25A0里","LIN":"7鄰","STREET":" ","SECT":" ","MAREA":"南\u25A0","LANE":" ","ALLEY":" ","HOUSE_NO":"８１號之３","E_COORD97":179037.17000000001,"N_COORD97":2568187.1899999999,"ADDRESS":"南\u25A0８１號之３","OBJECTID":34948},"geometry":{"x":179037.16999999993,"y":2568187.1900000013}},{"attributes":{"ID":34949,"DIS_CODE":0,"TOWNNAME":"官田區","LI":"南\u25A0里","LIN":"7鄰","STREET":" ","SECT":" ","MAREA":"南\u25A0","LANE":" ","ALLEY":" ","HOUSE_NO":"８２號","E_COORD97":179061.09,"N_COORD97":2568186.2799999998,"ADDRESS":"南\u25A0８２號","OBJECTID":34949},"geometry":{"x":179061.08999999985,"y":2568186.2800000012}},{"attributes":{"ID":34950,"DIS_CODE":0,"TOWNNAME":"官田區","LI":"南\u25A0里","LIN":"7鄰","STREET":" ","SECT":" ","MAREA":"南\u25A0","LANE":" ","ALLEY":" ","HOUSE_NO":"８３號","E_COORD97":179062.38,"N_COORD97":2568183.1200000001,"ADDRESS":"南\u25A0８３號","OBJECTID":34950},"geometry":{"x":179062.37999999989,"y":2568183.120000001}},{"attributes":{"ID":34951,"DIS_CODE":0,"TOWNNAME":"北區","LI":"正覺里","LIN":"14鄰","STREET":"西門路","SECT":"四段","MAREA":" ","LANE":" ","ALLEY":" ","HOUSE_NO":"４８０號五樓","E_COORD97":169147.26000000001,"N_COORD97":2546314.6099999999,"ADDRESS":"西門路四段４８０號五樓","OBJECTID":34951},"geometry":{"x":169147.26000000071,"y":2546314.6099999975}},{"attributes":{"ID":34952,"DIS_CODE":0,"TOWNNAME":"官田區","LI":"南\u25A0里","LIN":"7鄰","STREET":" ","SECT":" ","MAREA":"南\u25A0","LANE":" ","ALLEY":" ","HOUSE_NO":"９８號","E_COORD97":179017.54999999999,"N_COORD97":2568269.21,"ADDRESS":"南\u25A0９８號","OBJECTID":34952},"geometry":{"x":179017.54999999981,"y":2568269.2100000028}},{"attributes":{"ID":34953,"DIS_CODE":0,"TOWNNAME":"官田區","LI":"南\u25A0里","LIN":"7鄰","STREET":" ","SECT":" ","MAREA":"南\u25A0","LANE":" ","ALLEY":" ","HOUSE_NO":"９９號","E_COORD97":179015.78,"N_COORD97":2568274.4199999999,"ADDRESS":"南\u25A0９９號","OBJECTID":34953},"geometry":{"x":179015.78000000119,"y":2568274.4199999999}},{"attributes":{"ID":34954,"DIS_CODE":0,"TOWNNAME":"官田區","LI":"湖山里","LIN":"7鄰","STREET":" ","SECT":" ","MAREA":"烏山頭","LANE":" ","ALLEY":" ","HOUSE_NO":"３４號之１","E_COORD97":183297.32999999999,"N_COORD97":2567688.0099999998,"ADDRESS":"烏山頭３４號之１","OBJECTID":34954},"geometry":{"x":183297.33000000101,"y":2567688.0099999998}},{"attributes":{"ID":34955,"DIS_CODE":0,"TOWNNAME":"官田區","LI":"湖山里","LIN":"7鄰","STREET":" ","SECT":" ","MAREA":"烏山頭","LANE":" ","ALLEY":" ","HOUSE_NO":"３４號","E_COORD97":183295.73000000001,"N_COORD97":2567704.29,"ADDRESS":"烏山頭３４號","OBJECTID":34955},"geometry":{"x":183295.73000000045,"y":2567704.290000001}},{"attributes":{"ID":34956,"DIS_CODE":0,"TOWNNAME":"官田區","LI":"湖山里","LIN":"7鄰","STREET":" ","SECT":" ","MAREA":"烏山頭","LANE":" ","ALLEY":" ","HOUSE_NO":"３５號之１","E_COORD97":183262.56,"N_COORD97":2567703.5299999998,"ADDRESS":"烏山頭３５號之１","OBJECTID":34956},"geometry":{"x":183262.56000000052,"y":2567703.5299999993}},{"attributes":{"ID":34957,"DIS_CODE":0,"TOWNNAME":"官田區","LI":"湖山里","LIN":"7鄰","STREET":" ","SECT":" ","MAREA":"烏山頭","LANE":" ","ALLEY":" ","HOUSE_NO":"３５號之２","E_COORD97":183261.57999999999,"N_COORD97":2567715.29,"ADDRESS":"烏山頭３５號之２","OBJECTID":34957},"geometry":{"x":183261.58000000101,"y":2567715.2899999991}},{"attributes":{"ID":34958,"DIS_CODE":0,"TOWNNAME":"官田區","LI":"湖山里","LIN":"7鄰","STREET":" ","SECT":" ","MAREA":"烏山頭","LANE":" ","ALLEY":" ","HOUSE_NO":"３６號之２","E_COORD97":183234.87,"N_COORD97":2567735.25,"ADDRESS":"烏山頭３６號之２","OBJECTID":34958},"geometry":{"x":183234.87000000011,"y":2567735.2500000019}},{"attributes":{"ID":34959,"DIS_CODE":0,"TOWNNAME":"官田區","LI":"湖山里","LIN":"7鄰","STREET":" ","SECT":" ","MAREA":"烏山頭","LANE":" ","ALLEY":" ","HOUSE_NO":"３６號","E_COORD97":183257.44,"N_COORD97":2567736.48,"ADDRESS":"烏山頭３６號","OBJECTID":34959},"geometry":{"x":183257.44000000134,"y":2567736.4800000004}},{"attributes":{"ID":34960,"DIS_CODE":0,"TOWNNAME":"官田區","LI":"湖山里","LIN":"7鄰","STREET":" ","SECT":" ","MAREA":"烏山頭","LANE":" ","ALLEY":" ","HOUSE_NO":"３７號","E_COORD97":183297.85999999999,"N_COORD97":2567717.3300000001,"ADDRESS":"烏山頭３７號","OBJECTID":34960},"geometry":{"x":183297.86000000034,"y":2567717.3300000038}},{"attributes":{"ID":34961,"DIS_CODE":0,"TOWNNAME":"官田區","LI":"湖山里","LIN":"7鄰","STREET":" ","SECT":" ","MAREA":"烏山頭","LANE":" ","ALLEY":" ","HOUSE_NO":"３８號之２","E_COORD97":183275.89999999999,"N_COORD97":2567846.4700000002,"ADDRESS":"烏山頭３８號之２","OBJECTID":34961},"geometry":{"x":183275.90000000037,"y":2567846.4700000025}},{"attributes":{"ID":34962,"DIS_CODE":0,"TOWNNAME":"官田區","LI":"湖山里","LIN":"7鄰","STREET":" ","SECT":" ","MAREA":"烏山頭","LANE":" ","ALLEY":" ","HOUSE_NO":"３８號","E_COORD97":183327.06,"N_COORD97":2567865.5299999998,"ADDRESS":"烏山頭３８號","OBJECTID":34962},"geometry":{"x":183327.06000000052,"y":2567865.5300000012}},{"attributes":{"ID":34963,"DIS_CODE":0,"TOWNNAME":"白河區","LI":"秀祐里","LIN":"7鄰","STREET":" ","SECT":" ","MAREA":"下秀祐","LANE":" ","ALLEY":" ","HOUSE_NO":"２６號","E_COORD97":188463.70999999999,"N_COORD97":2582794.0499999998,"ADDRESS":"下秀祐２６號","OBJECTID":34963},"geometry":{"x":188463.70999999996,"y":2582794.0500000026}},{"attributes":{"ID":34964,"DIS_CODE":0,"TOWNNAME":"白河區","LI":"昇安里","LIN":"7鄰","STREET":" ","SECT":" ","MAREA":"三間厝","LANE":" ","ALLEY":" ","HOUSE_NO":"９０號","E_COORD97":192088.45000000001,"N_COORD97":2584675.27,"ADDRESS":"三間厝９０號","OBJECTID":34964},"geometry":{"x":192088.45000000019,"y":2584675.2699999996}},{"attributes":{"ID":34965,"DIS_CODE":0,"TOWNNAME":"白河區","LI":"昇安里","LIN":"7鄰","STREET":" ","SECT":" ","MAREA":"三間厝","LANE":" ","ALLEY":" ","HOUSE_NO":"９２之１號","E_COORD97":192121.70999999999,"N_COORD97":2584858.3300000001,"ADDRESS":"三間厝９２之１號","OBJECTID":34965},"geometry":{"x":192121.70999999996,"y":2584858.3300000001}},{"attributes":{"ID":34966,"DIS_CODE":0,"TOWNNAME":"白河區","LI":"昇安里","LIN":"7鄰","STREET":" ","SECT":" ","MAREA":"三間厝","LANE":" ","ALLEY":" ","HOUSE_NO":"９２之２號","E_COORD97":192108.73000000001,"N_COORD97":2584718.5800000001,"ADDRESS":"三間厝９２之２號","OBJECTID":34966},"geometry":{"x":192108.73000000045,"y":2584718.5800000038}},{"attributes":{"ID":34967,"DIS_CODE":0,"TOWNNAME":"白河區","LI":"昇安里","LIN":"7鄰","STREET":" ","SECT":" ","MAREA":"三間厝","LANE":" ","ALLEY":" ","HOUSE_NO":"９４之５號","E_COORD97":192155.04000000001,"N_COORD97":2584753.4100000001,"ADDRESS":"三間厝９４之５號","OBJECTID":34967},"geometry":{"x":192155.04000000097,"y":2584753.4099999983}},{"attributes":{"ID":34968,"DIS_CODE":0,"TOWNNAME":"白河區","LI":"昇安里","LIN":"7鄰","STREET":" ","SECT":" ","MAREA":"三間厝","LANE":" ","ALLEY":" ","HOUSE_NO":"９４之６號","E_COORD97":192166.78,"N_COORD97":2584899.5,"ADDRESS":"三間厝９４之６號","OBJECTID":34968},"geometry":{"x":192166.78000000119,"y":2584899.5000000019}},{"attributes":{"ID":34969,"DIS_CODE":0,"TOWNNAME":"白河區","LI":"昇安里","LIN":"7鄰","STREET":" ","SECT":" ","MAREA":"三間厝","LANE":" ","ALLEY":" ","HOUSE_NO":"９４之７號","E_COORD97":192159,"N_COORD97":2584753.25,"ADDRESS":"三間厝９４之７號","OBJECTID":34969},"geometry":{"x":192159,"y":2584753.25}},{"attributes":{"ID":34970,"DIS_CODE":0,"TOWNNAME":"白河區","LI":"昇安里","LIN":"7鄰","STREET":" ","SECT":" ","MAREA":"三間厝","LANE":" ","ALLEY":" ","HOUSE_NO":"９４之８號","E_COORD97":192162.97,"N_COORD97":2584753.0899999999,"ADDRESS":"三間厝９４之８號","OBJECTID":34970},"geometry":{"x":192162.9700000016,"y":2584753.0900000017}},{"attributes":{"ID":34971,"DIS_CODE":0,"TOWNNAME":"白河區","LI":"秀祐里","LIN":"7鄰","STREET":" ","SECT":" ","MAREA":"下秀祐","LANE":" ","ALLEY":" ","HOUSE_NO":"２８號","E_COORD97":188449.67000000001,"N_COORD97":2582713.8199999998,"ADDRESS":"下秀祐２８號","OBJECTID":34971},"geometry":{"x":188449.67000000086,"y":2582713.8200000022}},{"attributes":{"ID":34972,"DIS_CODE":0,"TOWNNAME":"白河區","LI":"秀祐里","LIN":"7鄰","STREET":" ","SECT":" ","MAREA":"下秀祐","LANE":" ","ALLEY":" ","HOUSE_NO":"２２之１號","E_COORD97":188561.98000000001,"N_COORD97":2582760.1699999999,"ADDRESS":"下秀祐２２之１號","OBJECTID":34972},"geometry":{"x":188561.98000000138,"y":2582760.1699999999}},{"attributes":{"ID":34973,"DIS_CODE":0,"TOWNNAME":"白河區","LI":"秀祐里","LIN":"7鄰","STREET":" ","SECT":" ","MAREA":"下秀祐","LANE":" ","ALLEY":" ","HOUSE_NO":"２３之１號","E_COORD97":188494.25,"N_COORD97":2582718.6800000002,"ADDRESS":"下秀祐２３之１號","OBJECTID":34973},"geometry":{"x":188494.25,"y":2582718.6800000016}},{"attributes":{"ID":34974,"DIS_CODE":0,"TOWNNAME":"白河區","LI":"秀祐里","LIN":"7鄰","STREET":" ","SECT":" ","MAREA":"下秀祐","LANE":" ","ALLEY":" ","HOUSE_NO":"２４之２號","E_COORD97":188512.92999999999,"N_COORD97":2582822.54,"ADDRESS":"下秀祐２４之２號","OBJECTID":34974},"geometry":{"x":188512.9299999997,"y":2582822.5400000028}},{"attributes":{"ID":34975,"DIS_CODE":0,"TOWNNAME":"白河區","LI":"秀祐里","LIN":"7鄰","STREET":" ","SECT":" ","MAREA":"下秀祐","LANE":" ","ALLEY":" ","HOUSE_NO":"２４之３號","E_COORD97":188525.75,"N_COORD97":2582841.4700000002,"ADDRESS":"下秀祐２４之３號","OBJECTID":34975},"geometry":{"x":188525.75000000093,"y":2582841.4700000044}},{"attributes":{"ID":34976,"DIS_CODE":0,"TOWNNAME":"白河區","LI":"秀祐里","LIN":"7鄰","STREET":" ","SECT":" ","MAREA":"下秀祐","LANE":" ","ALLEY":" ","HOUSE_NO":"２４之５號","E_COORD97":188523.42000000001,"N_COORD97":2582881.23,"ADDRESS":"下秀祐２４之５號","OBJECTID":34976},"geometry":{"x":188523.41999999993,"y":2582881.2300000023}},{"attributes":{"ID":34977,"DIS_CODE":0,"TOWNNAME":"白河區","LI":"秀祐里","LIN":"7鄰","STREET":" ","SECT":" ","MAREA":"下秀祐","LANE":" ","ALLEY":" ","HOUSE_NO":"２４之６號","E_COORD97":188523.70999999999,"N_COORD97":2582886.75,"ADDRESS":"下秀祐２４之６號","OBJECTID":34977},"geometry":{"x":188523.71000000183,"y":2582886.7500000019}},{"attributes":{"ID":34978,"DIS_CODE":0,"TOWNNAME":"白河區","LI":"秀祐里","LIN":"7鄰","STREET":" ","SECT":" ","MAREA":"下秀祐","LANE":" ","ALLEY":" ","HOUSE_NO":"２４號","E_COORD97":188452.01999999999,"N_COORD97":2582807.0899999999,"ADDRESS":"下秀祐２４號","OBJECTID":34978},"geometry":{"x":188452.02000000048,"y":2582807.0900000017}},{"attributes":{"ID":34979,"DIS_CODE":0,"TOWNNAME":"白河區","LI":"秀祐里","LIN":"7鄰","STREET":" ","SECT":" ","MAREA":"下秀祐","LANE":" ","ALLEY":" ","HOUSE_NO":"２５號","E_COORD97":188490.70000000001,"N_COORD97":2582773.77,"ADDRESS":"下秀祐２５號","OBJECTID":34979},"geometry":{"x":188490.70000000112,"y":2582773.7699999977}},{"attributes":{"ID":34980,"DIS_CODE":0,"TOWNNAME":"白河區","LI":"大竹里","LIN":"7鄰","STREET":" ","SECT":" ","MAREA":"大排竹","LANE":" ","ALLEY":" ","HOUSE_NO":"１０２號","E_COORD97":189864.89000000001,"N_COORD97":2585101.98,"ADDRESS":"大排竹１０２號","OBJECTID":34980},"geometry":{"x":189864.8900000006,"y":2585101.9800000004}},{"attributes":{"ID":34981,"DIS_CODE":0,"TOWNNAME":"白河區","LI":"大竹里","LIN":"7鄰","STREET":" ","SECT":" ","MAREA":"大排竹","LANE":" ","ALLEY":" ","HOUSE_NO":"１０３之１號","E_COORD97":189845.88,"N_COORD97":2585116.1499999999,"ADDRESS":"大排竹１０３之１號","OBJECTID":34981},"geometry":{"x":189845.87999999989,"y":2585116.1500000022}},{"attributes":{"ID":34982,"DIS_CODE":0,"TOWNNAME":"白河區","LI":"大竹里","LIN":"7鄰","STREET":" ","SECT":" ","MAREA":"大排竹","LANE":" ","ALLEY":" ","HOUSE_NO":"１０３之２號","E_COORD97":189844.42999999999,"N_COORD97":2585119.8999999999,"ADDRESS":"大排竹１０３之２號","OBJECTID":34982},"geometry":{"x":189844.43000000063,"y":2585119.8999999985}},{"attributes":{"ID":34983,"DIS_CODE":0,"TOWNNAME":"白河區","LI":"大竹里","LIN":"7鄰","STREET":" ","SECT":" ","MAREA":"大排竹","LANE":" ","ALLEY":" ","HOUSE_NO":"１０３之３號","E_COORD97":189842.98000000001,"N_COORD97":2585123.6499999999,"ADDRESS":"大排竹１０３之３號","OBJECTID":34983},"geometry":{"x":189842.98000000138,"y":2585123.6500000004}},{"attributes":{"ID":34984,"DIS_CODE":0,"TOWNNAME":"白河區","LI":"大竹里","LIN":"7鄰","STREET":" ","SECT":" ","MAREA":"大排竹","LANE":" ","ALLEY":" ","HOUSE_NO":"１０３號","E_COORD97":189847.34,"N_COORD97":2585112.3999999999,"ADDRESS":"大排竹１０３號","OBJECTID":34984},"geometry":{"x":189847.34000000078,"y":2585112.4000000004}},{"attributes":{"ID":34985,"DIS_CODE":0,"TOWNNAME":"白河區","LI":"大竹里","LIN":"7鄰","STREET":" ","SECT":" ","MAREA":"大排竹","LANE":" ","ALLEY":" ","HOUSE_NO":"１０７號","E_COORD97":189832.92000000001,"N_COORD97":2585130.4700000002,"ADDRESS":"大排竹１０７號","OBJECTID":34985},"geometry":{"x":189832.92000000086,"y":2585130.4700000025}},{"attributes":{"ID":34986,"DIS_CODE":0,"TOWNNAME":"白河區","LI":"大竹里","LIN":"7鄰","STREET":" ","SECT":" ","MAREA":"大排竹","LANE":" ","ALLEY":" ","HOUSE_NO":"１０９號","E_COORD97":189823.98999999999,"N_COORD97":2585153.2000000002,"ADDRESS":"大排竹１０９號","OBJECTID":34986},"geometry":{"x":189823.99000000209,"y":2585153.1999999993}},{"attributes":{"ID":34987,"DIS_CODE":0,"TOWNNAME":"白河區","LI":"大竹里","LIN":"7鄰","STREET":" ","SECT":" ","MAREA":"大排竹","LANE":" ","ALLEY":" ","HOUSE_NO":"１１０之１號","E_COORD97":189801.22,"N_COORD97":2585182.1600000001,"ADDRESS":"大排竹１１０之１號","OBJECTID":34987},"geometry":{"x":189801.21999999974,"y":2585182.1600000001}},{"attributes":{"ID":34988,"DIS_CODE":0,"TOWNNAME":"白河區","LI":"大竹里","LIN":"7鄰","STREET":" ","SECT":" ","MAREA":"大排竹","LANE":" ","ALLEY":" ","HOUSE_NO":"１１０之２號","E_COORD97":189782.48999999999,"N_COORD97":2585163.3700000001,"ADDRESS":"大排竹１１０之２號","OBJECTID":34988},"geometry":{"x":189782.49000000022,"y":2585163.3700000029}},{"attributes":{"ID":34989,"DIS_CODE":0,"TOWNNAME":"白河區","LI":"大竹里","LIN":"7鄰","STREET":" ","SECT":" ","MAREA":"大排竹","LANE":" ","ALLEY":" ","HOUSE_NO":"１１０號","E_COORD97":189815.78,"N_COORD97":2585173.6800000002,"ADDRESS":"大排竹１１０號","OBJECTID":34989},"geometry":{"x":189815.78000000119,"y":2585173.6799999997}},{"attributes":{"ID":34990,"DIS_CODE":0,"TOWNNAME":"白河區","LI":"大竹里","LIN":"7鄰","STREET":" ","SECT":" ","MAREA":"大排竹","LANE":" ","ALLEY":" ","HOUSE_NO":"１１１號","E_COORD97":189813.59,"N_COORD97":2585212.9700000002,"ADDRESS":"大排竹１１１號","OBJECTID":34990},"geometry":{"x":189813.58999999985,"y":2585212.9700000025}},{"attributes":{"ID":34991,"DIS_CODE":0,"TOWNNAME":"白河區","LI":"大竹里","LIN":"7鄰","STREET":" ","SECT":" ","MAREA":"大排竹","LANE":" ","ALLEY":" ","HOUSE_NO":"１１２之１號","E_COORD97":189789.85999999999,"N_COORD97":2585199.0299999998,"ADDRESS":"大排竹１１２之１號","OBJECTID":34991},"geometry":{"x":189789.86000000127,"y":2585199.0299999993}},{"attributes":{"ID":34992,"DIS_CODE":0,"TOWNNAME":"白河區","LI":"大竹里","LIN":"7鄰","STREET":" ","SECT":" ","MAREA":"大排竹","LANE":" ","ALLEY":" ","HOUSE_NO":"１１２號","E_COORD97":189792.23999999999,"N_COORD97":2585212.5099999998,"ADDRESS":"大排竹１１２號","OBJECTID":34992},"geometry":{"x":189792.24000000115,"y":2585212.5099999998}},{"attributes":{"ID":34993,"DIS_CODE":0,"TOWNNAME":"白河區","LI":"大竹里","LIN":"7鄰","STREET":" ","SECT":" ","MAREA":"大排竹","LANE":" ","ALLEY":" ","HOUSE_NO":"１１３號","E_COORD97":189759.88,"N_COORD97":2585181.73,"ADDRESS":"大排竹１１３號","OBJECTID":34993},"geometry":{"x":189759.88000000175,"y":2585181.7300000004}},{"attributes":{"ID":34994,"DIS_CODE":0,"TOWNNAME":"白河區","LI":"大竹里","LIN":"7鄰","STREET":" ","SECT":" ","MAREA":"大排竹","LANE":" ","ALLEY":" ","HOUSE_NO":"１１５號","E_COORD97":189791.07999999999,"N_COORD97":2585114.3300000001,"ADDRESS":"大排竹１１５號","OBJECTID":34994},"geometry":{"x":189791.08000000101,"y":2585114.3300000019}},{"attributes":{"ID":34995,"DIS_CODE":0,"TOWNNAME":"後壁區","LI":"嘉苳里","LIN":"7鄰","STREET":" ","SECT":" ","MAREA":"下茄苳","LANE":" ","ALLEY":" ","HOUSE_NO":"８８號之１","E_COORD97":184867.06,"N_COORD97":2583399.75,"ADDRESS":"下茄苳８８號之１","OBJECTID":34995},"geometry":{"x":184867.05999999959,"y":2583399.7500000019}},{"attributes":{"ID":34996,"DIS_CODE":0,"TOWNNAME":"後壁區","LI":"嘉苳里","LIN":"7鄰","STREET":" ","SECT":" ","MAREA":"下茄苳","LANE":" ","ALLEY":" ","HOUSE_NO":"８８號之２","E_COORD97":184870.10000000001,"N_COORD97":2583416.1600000001,"ADDRESS":"下茄苳８８號之２","OBJECTID":34996},"geometry":{"x":184870.09999999963,"y":2583416.1600000039}},{"attributes":{"ID":34997,"DIS_CODE":0,"TOWNNAME":"後壁區","LI":"福安里","LIN":"7鄰","STREET":" ","SECT":" ","MAREA":"下寮","LANE":" ","ALLEY":" ","HOUSE_NO":"６７號","E_COORD97":184303.19,"N_COORD97":2580895.9100000001,"ADDRESS":"下寮６７號","OBJECTID":34997},"geometry":{"x":184303.19000000227,"y":2580895.910000002}},{"attributes":{"ID":34998,"DIS_CODE":0,"TOWNNAME":"後壁區","LI":"福安里","LIN":"7鄰","STREET":" ","SECT":" ","MAREA":"下寮","LANE":" ","ALLEY":" ","HOUSE_NO":"７１號","E_COORD97":184255.51000000001,"N_COORD97":2580912.1800000002,"ADDRESS":"下寮７１號","OBJECTID":34998},"geometry":{"x":184255.50999999978,"y":2580912.1799999997}},{"attributes":{"ID":34999,"DIS_CODE":0,"TOWNNAME":"後壁區","LI":"福安里","LIN":"7鄰","STREET":" ","SECT":" ","MAREA":"下寮","LANE":" ","ALLEY":" ","HOUSE_NO":"７２號之１０","E_COORD97":184236.73999999999,"N_COORD97":2580835.6400000001,"ADDRESS":"下寮７２號之１０","OBJECTID":34999},"geometry":{"x":184236.74000000115,"y":2580835.6400000006}},{"attributes":{"ID":35000,"DIS_CODE":0,"TOWNNAME":"後壁區","LI":"福安里","LIN":"7鄰","STREET":" ","SECT":" ","MAREA":"下寮","LANE":" ","ALLEY":" ","HOUSE_NO":"７２號之１","E_COORD97":184241.10999999999,"N_COORD97":2580882.48,"ADDRESS":"下寮７２號之１","OBJECTID":35000},"geometry":{"x":184241.11000000127,"y":2580882.4800000023}}]}