{"displayFieldName":"TOWNNAME","fieldAliases":{"ID":"ID","DIS_CODE":"DIS_CODE","TOWNNAME":"TOWNNAME","LI":"LI","LIN":"LIN","STREET":"STREET","SECT":"SECT","MAREA":"MAREA","LANE":"LANE","ALLEY":"ALLEY","HOUSE_NO":"HOUSE_NO","E_COORD97":"E_COORD97","N_COORD97":"N_COORD97","ADDRESS":"ADDRESS","OBJECTID":"OBJECTID"},"geometryType":"esriGeometryPoint","spatialReference":{"wkid":102443,"latestWkid":3826},"fields":[{"name":"ID","type":"esriFieldTypeDouble","alias":"ID"},{"name":"DIS_CODE","type":"esriFieldTypeInteger","alias":"DIS_CODE"},{"name":"TOWNNAME","type":"esriFieldTypeString","alias":"TOWNNAME","length":8},{"name":"LI","type":"esriFieldTypeString","alias":"LI","length":8},{"name":"LIN","type":"esriFieldTypeString","alias":"LIN","length":12},{"name":"STREET","type":"esriFieldTypeString","alias":"STREET","length":20},{"name":"SECT","type":"esriFieldTypeString","alias":"SECT","length":8},{"name":"MAREA","type":"esriFieldTypeString","alias":"MAREA","length":12},{"name":"LANE","type":"esriFieldTypeString","alias":"LANE","length":10},{"name":"ALLEY","type":"esriFieldTypeString","alias":"ALLEY","length":10},{"name":"HOUSE_NO","type":"esriFieldTypeString","alias":"HOUSE_NO","length":20},{"name":"E_COORD97","type":"esriFieldTypeDouble","alias":"E_COORD97"},{"name":"N_COORD97","type":"esriFieldTypeDouble","alias":"N_COORD97"},{"name":"ADDRESS","type":"esriFieldTypeString","alias":"ADDRESS","length":50},{"name":"OBJECTID","type":"esriFieldTypeOID","alias":"OBJECTID"}],"features":[{"attributes":{"ID":495428,"DIS_CODE":0,"TOWNNAME":"南區","LI":"鯤鯓里","LIN":"8鄰","STREET":"鯤鯓路","SECT":" ","MAREA":" ","LANE":" ","ALLEY":" ","HOUSE_NO":"１３２之１號","E_COORD97":164937.35000000001,"N_COORD97":2540076.0800000001,"ADDRESS":"鯤鯓路１３２之１號","OBJECTID":495401},"geometry":{"x":164937.35000000056,"y":2540076.0800000001}},{"attributes":{"ID":495429,"DIS_CODE":0,"TOWNNAME":"東區","LI":"中西里","LIN":"8鄰","STREET":"勝利路","SECT":" ","MAREA":" ","LANE":" ","ALLEY":" ","HOUSE_NO":"２６號之１","E_COORD97":169835.66,"N_COORD97":2543427.3300000001,"ADDRESS":"勝利路２６號之１","OBJECTID":495402},"geometry":{"x":169835.66000000015,"y":2543427.3300000001}},{"attributes":{"ID":495430,"DIS_CODE":0,"TOWNNAME":"東區","LI":"中西里","LIN":"8鄰","STREET":"勝利路","SECT":" ","MAREA":" ","LANE":" ","ALLEY":" ","HOUSE_NO":"２６號之２","E_COORD97":169840.98000000001,"N_COORD97":2543428.79,"ADDRESS":"勝利路２６號之２","OBJECTID":495403},"geometry":{"x":169840.98000000045,"y":2543428.790000001}},{"attributes":{"ID":495431,"DIS_CODE":0,"TOWNNAME":"東區","LI":"中西里","LIN":"8鄰","STREET":"勝利路","SECT":" ","MAREA":" ","LANE":" ","ALLEY":" ","HOUSE_NO":"２６號之３","E_COORD97":169846.29999999999,"N_COORD97":2543430.9900000002,"ADDRESS":"勝利路２６號之３","OBJECTID":495404},"geometry":{"x":169846.29999999981,"y":2543430.9899999984}},{"attributes":{"ID":495432,"DIS_CODE":0,"TOWNNAME":"東區","LI":"中西里","LIN":"8鄰","STREET":"勝利路","SECT":" ","MAREA":" ","LANE":" ","ALLEY":" ","HOUSE_NO":"３６號","E_COORD97":169809.95999999999,"N_COORD97":2543473.6200000001,"ADDRESS":"勝利路３６號","OBJECTID":495405},"geometry":{"x":169809.95999999996,"y":2543473.620000001}},{"attributes":{"ID":495433,"DIS_CODE":0,"TOWNNAME":"東區","LI":"中西里","LIN":"8鄰","STREET":"勝利路","SECT":" ","MAREA":" ","LANE":" ","ALLEY":" ","HOUSE_NO":"４０號","E_COORD97":169811.12,"N_COORD97":2543496.6800000002,"ADDRESS":"勝利路４０號","OBJECTID":495406},"geometry":{"x":169811.12000000197,"y":2543496.6799999997}},{"attributes":{"ID":495434,"DIS_CODE":0,"TOWNNAME":"東區","LI":"中西里","LIN":"8鄰","STREET":"勝利路","SECT":" ","MAREA":" ","LANE":" ","ALLEY":" ","HOUSE_NO":"２４號之１","E_COORD97":169824.45999999999,"N_COORD97":2543423.6600000001,"ADDRESS":"勝利路２４號之１","OBJECTID":495407},"geometry":{"x":169824.46000000089,"y":2543423.660000002}},{"attributes":{"ID":495435,"DIS_CODE":0,"TOWNNAME":"東區","LI":"中西里","LIN":"8鄰","STREET":"勝利路","SECT":" ","MAREA":" ","LANE":" ","ALLEY":" ","HOUSE_NO":"４２號之１","E_COORD97":169849.97,"N_COORD97":2543522.5800000001,"ADDRESS":"勝利路４２號之１","OBJECTID":495408},"geometry":{"x":169849.96999999974,"y":2543522.5800000019}},{"attributes":{"ID":495436,"DIS_CODE":0,"TOWNNAME":"安南區","LI":"城北里","LIN":"8鄰","STREET":"安中路","SECT":"六段","MAREA":" ","LANE":" ","ALLEY":" ","HOUSE_NO":"３０１號之１９","E_COORD97":161267.85999999999,"N_COORD97":2551226.48,"ADDRESS":"安中路六段３０１號之１９","OBJECTID":495409},"geometry":{"x":161267.86000000127,"y":2551226.4800000023}},{"attributes":{"ID":495437,"DIS_CODE":0,"TOWNNAME":"安南區","LI":"長安里","LIN":"8鄰","STREET":"長溪路","SECT":"三段","MAREA":" ","LANE":" ","ALLEY":" ","HOUSE_NO":"４５３號","E_COORD97":167572.75,"N_COORD97":2552098.1600000001,"ADDRESS":"長溪路三段４５３號","OBJECTID":495410},"geometry":{"x":167572.75000000093,"y":2552098.1600000001}},{"attributes":{"ID":495438,"DIS_CODE":0,"TOWNNAME":"安南區","LI":"長安里","LIN":"8鄰","STREET":"長溪路","SECT":"三段","MAREA":" ","LANE":" ","ALLEY":" ","HOUSE_NO":"４５３號之１","E_COORD97":167564.39999999999,"N_COORD97":2552095.6400000001,"ADDRESS":"長溪路三段４５３號之１","OBJECTID":495411},"geometry":{"x":167564.40000000037,"y":2552095.6400000006}},{"attributes":{"ID":495439,"DIS_CODE":0,"TOWNNAME":"安南區","LI":"長安里","LIN":"8鄰","STREET":"長溪路","SECT":"三段","MAREA":" ","LANE":" ","ALLEY":" ","HOUSE_NO":"４５３號之２","E_COORD97":167561.39999999999,"N_COORD97":2552092.27,"ADDRESS":"長溪路三段４５３號之２","OBJECTID":495412},"geometry":{"x":167561.40000000037,"y":2552092.2700000014}},{"attributes":{"ID":495440,"DIS_CODE":0,"TOWNNAME":"安南區","LI":"長安里","LIN":"8鄰","STREET":"長溪路","SECT":"三段","MAREA":" ","LANE":" ","ALLEY":" ","HOUSE_NO":"４５３號之３","E_COORD97":167573.66,"N_COORD97":2552086.3500000001,"ADDRESS":"長溪路三段４５３號之３","OBJECTID":495413},"geometry":{"x":167573.66000000108,"y":2552086.3499999996}},{"attributes":{"ID":495441,"DIS_CODE":0,"TOWNNAME":"安南區","LI":"長安里","LIN":"8鄰","STREET":"長溪路","SECT":"三段","MAREA":" ","LANE":" ","ALLEY":" ","HOUSE_NO":"４５３號之５","E_COORD97":167576.12,"N_COORD97":2552082.4700000002,"ADDRESS":"長溪路三段４５３號之５","OBJECTID":495414},"geometry":{"x":167576.12000000011,"y":2552082.4700000007}},{"attributes":{"ID":495442,"DIS_CODE":0,"TOWNNAME":"安南區","LI":"長安里","LIN":"8鄰","STREET":"長溪路","SECT":"三段","MAREA":" ","LANE":" ","ALLEY":" ","HOUSE_NO":"４５３號之６","E_COORD97":167579.35999999999,"N_COORD97":2552079.6899999999,"ADDRESS":"長溪路三段４５３號之６","OBJECTID":495415},"geometry":{"x":167579.36000000127,"y":2552079.6899999995}},{"attributes":{"ID":495443,"DIS_CODE":0,"TOWNNAME":"安南區","LI":"長安里","LIN":"8鄰","STREET":"長溪路","SECT":"三段","MAREA":" ","LANE":" ","ALLEY":" ","HOUSE_NO":"４５３號之７","E_COORD97":167581.57999999999,"N_COORD97":2552075.98,"ADDRESS":"長溪路三段４５３號之７","OBJECTID":495416},"geometry":{"x":167581.58000000007,"y":2552075.9800000004}},{"attributes":{"ID":495444,"DIS_CODE":0,"TOWNNAME":"安南區","LI":"長安里","LIN":"8鄰","STREET":"長溪路","SECT":"三段","MAREA":" ","LANE":" ","ALLEY":" ","HOUSE_NO":"４５５號","E_COORD97":167570.75,"N_COORD97":2552102.1000000001,"ADDRESS":"長溪路三段４５５號","OBJECTID":495417},"geometry":{"x":167570.74999999907,"y":2552102.0999999996}},{"attributes":{"ID":495445,"DIS_CODE":0,"TOWNNAME":"安南區","LI":"長安里","LIN":"8鄰","STREET":"長溪路","SECT":"三段","MAREA":" ","LANE":" ","ALLEY":" ","HOUSE_NO":"４５７號","E_COORD97":167567.57999999999,"N_COORD97":2552105.6000000001,"ADDRESS":"長溪路三段４５７號","OBJECTID":495418},"geometry":{"x":167567.58000000101,"y":2552105.5999999978}},{"attributes":{"ID":495446,"DIS_CODE":0,"TOWNNAME":"善化區","LI":"南關里","LIN":"8鄰","STREET":"三民路","SECT":" ","MAREA":" ","LANE":" ","ALLEY":" ","HOUSE_NO":"１７號之２１","E_COORD97":176929.34,"N_COORD97":2558759.02,"ADDRESS":"三民路１７號之２１","OBJECTID":495419},"geometry":{"x":176929.34000000078,"y":2558759.0200000014}},{"attributes":{"ID":495447,"DIS_CODE":0,"TOWNNAME":"善化區","LI":"文昌里","LIN":"8鄰","STREET":"文昌路","SECT":" ","MAREA":" ","LANE":" ","ALLEY":" ","HOUSE_NO":"２６號之４","E_COORD97":177447.54999999999,"N_COORD97":2558791.5299999998,"ADDRESS":"文昌路２６號之４","OBJECTID":495420},"geometry":{"x":177447.54999999981,"y":2558791.5299999993}},{"attributes":{"ID":495448,"DIS_CODE":0,"TOWNNAME":"善化區","LI":"南關里","LIN":"8鄰","STREET":"三民路","SECT":" ","MAREA":" ","LANE":" ","ALLEY":" ","HOUSE_NO":"１７號之１７","E_COORD97":176952.45999999999,"N_COORD97":2558714.02,"ADDRESS":"三民路１７號之１７","OBJECTID":495421},"geometry":{"x":176952.46000000089,"y":2558714.0200000033}},{"attributes":{"ID":495449,"DIS_CODE":0,"TOWNNAME":"善化區","LI":"光文里","LIN":"8鄰","STREET":"中山路","SECT":" ","MAREA":" ","LANE":" ","ALLEY":" ","HOUSE_NO":"４號之１","E_COORD97":178987.64000000001,"N_COORD97":2559292.27,"ADDRESS":"中山路４號之１","OBJECTID":495422},"geometry":{"x":178987.63999999966,"y":2559292.2700000033}},{"attributes":{"ID":495450,"DIS_CODE":0,"TOWNNAME":"善化區","LI":"南關里","LIN":"8鄰","STREET":"三民路","SECT":" ","MAREA":" ","LANE":" ","ALLEY":" ","HOUSE_NO":"１７之３１號","E_COORD97":176952,"N_COORD97":2558700.02,"ADDRESS":"三民路１７之３１號","OBJECTID":495423},"geometry":{"x":176952.00000000186,"y":2558700.0199999996}},{"attributes":{"ID":495451,"DIS_CODE":0,"TOWNNAME":"善化區","LI":"南關里","LIN":"8鄰","STREET":"三民路","SECT":" ","MAREA":" ","LANE":" ","ALLEY":" ","HOUSE_NO":"１５號之８","E_COORD97":176985.48000000001,"N_COORD97":2558822.27,"ADDRESS":"三民路１５號之８","OBJECTID":495424},"geometry":{"x":176985.48000000138,"y":2558822.2700000014}},{"attributes":{"ID":495452,"DIS_CODE":0,"TOWNNAME":"善化區","LI":"文昌里","LIN":"8鄰","STREET":"大同路","SECT":" ","MAREA":" ","LANE":" ","ALLEY":" ","HOUSE_NO":"２２９號","E_COORD97":177421.60000000001,"N_COORD97":2558737,"ADDRESS":"大同路２２９號","OBJECTID":495425},"geometry":{"x":177421.59999999963,"y":2558737}},{"attributes":{"ID":495453,"DIS_CODE":0,"TOWNNAME":"善化區","LI":"南關里","LIN":"8鄰","STREET":"光復路","SECT":" ","MAREA":" ","LANE":" ","ALLEY":" ","HOUSE_NO":"５５０號","E_COORD97":176793.82999999999,"N_COORD97":2558927.5099999998,"ADDRESS":"光復路５５０號","OBJECTID":495426},"geometry":{"x":176793.83000000194,"y":2558927.5099999998}},{"attributes":{"ID":495454,"DIS_CODE":0,"TOWNNAME":"善化區","LI":"南關里","LIN":"8鄰","STREET":"光復路","SECT":" ","MAREA":" ","LANE":" ","ALLEY":" ","HOUSE_NO":"４１２號","E_COORD97":176923.34,"N_COORD97":2558695.5099999998,"ADDRESS":"光復路４１２號","OBJECTID":495427},"geometry":{"x":176923.33999999985,"y":2558695.5100000016}},{"attributes":{"ID":495455,"DIS_CODE":0,"TOWNNAME":"善化區","LI":"光文里","LIN":"8鄰","STREET":"中山路","SECT":" ","MAREA":" ","LANE":" ","ALLEY":" ","HOUSE_NO":"２號之１","E_COORD97":178978.45000000001,"N_COORD97":2559246.02,"ADDRESS":"中山路２號之１","OBJECTID":495428},"geometry":{"x":178978.45000000112,"y":2559246.0199999996}},{"attributes":{"ID":495456,"DIS_CODE":0,"TOWNNAME":"善化區","LI":"文昌里","LIN":"8鄰","STREET":"光復路","SECT":" ","MAREA":" ","LANE":" ","ALLEY":" ","HOUSE_NO":"１３８號","E_COORD97":177397.87,"N_COORD97":2558654.3300000001,"ADDRESS":"光復路１３８號","OBJECTID":495429},"geometry":{"x":177397.87000000104,"y":2558654.3300000001}},{"attributes":{"ID":495457,"DIS_CODE":0,"TOWNNAME":"善化區","LI":"文昌里","LIN":"8鄰","STREET":"文昌路","SECT":" ","MAREA":" ","LANE":" ","ALLEY":" ","HOUSE_NO":"２７號","E_COORD97":177443.14000000001,"N_COORD97":2558769.0299999998,"ADDRESS":"文昌路２７號","OBJECTID":495430},"geometry":{"x":177443.1400000006,"y":2558769.0300000012}},{"attributes":{"ID":495458,"DIS_CODE":0,"TOWNNAME":"善化區","LI":"文昌里","LIN":"8鄰","STREET":"大同路","SECT":" ","MAREA":" ","LANE":" ","ALLEY":" ","HOUSE_NO":"２２０號","E_COORD97":177448.51000000001,"N_COORD97":2558718,"ADDRESS":"大同路２２０號","OBJECTID":495431},"geometry":{"x":177448.51000000164,"y":2558717.9999999981}},{"attributes":{"ID":495459,"DIS_CODE":0,"TOWNNAME":"善化區","LI":"文昌里","LIN":"8鄰","STREET":"光復路","SECT":" ","MAREA":" ","LANE":" ","ALLEY":" ","HOUSE_NO":"１２８號","E_COORD97":177418.66,"N_COORD97":2558661.5800000001,"ADDRESS":"光復路１２８號","OBJECTID":495432},"geometry":{"x":177418.66000000015,"y":2558661.5800000019}},{"attributes":{"ID":495460,"DIS_CODE":0,"TOWNNAME":"善化區","LI":"文昌里","LIN":"8鄰","STREET":"光復路","SECT":" ","MAREA":" ","LANE":" ","ALLEY":" ","HOUSE_NO":"１２６號","E_COORD97":177422.76000000001,"N_COORD97":2558663.0800000001,"ADDRESS":"光復路１２６號","OBJECTID":495433},"geometry":{"x":177422.75999999978,"y":2558663.0800000001}},{"attributes":{"ID":495461,"DIS_CODE":0,"TOWNNAME":"善化區","LI":"文昌里","LIN":"8鄰","STREET":"光復路","SECT":" ","MAREA":" ","LANE":" ","ALLEY":" ","HOUSE_NO":"１３４號","E_COORD97":177405.92000000001,"N_COORD97":2558657.0800000001,"ADDRESS":"光復路１３４號","OBJECTID":495434},"geometry":{"x":177405.92000000086,"y":2558657.0800000019}},{"attributes":{"ID":495462,"DIS_CODE":0,"TOWNNAME":"善化區","LI":"光文里","LIN":"8鄰","STREET":"中山路","SECT":" ","MAREA":" ","LANE":" ","ALLEY":" ","HOUSE_NO":"２號之３","E_COORD97":178981.92000000001,"N_COORD97":2559270.27,"ADDRESS":"中山路２號之３","OBJECTID":495435},"geometry":{"x":178981.92000000086,"y":2559270.2699999996}},{"attributes":{"ID":495463,"DIS_CODE":0,"TOWNNAME":"善化區","LI":"文昌里","LIN":"8鄰","STREET":"大同路","SECT":" ","MAREA":" ","LANE":" ","ALLEY":" ","HOUSE_NO":"２０９號","E_COORD97":177436.29000000001,"N_COORD97":2558690.75,"ADDRESS":"大同路２０９號","OBJECTID":495436},"geometry":{"x":177436.29000000004,"y":2558690.7500000019}},{"attributes":{"ID":495464,"DIS_CODE":0,"TOWNNAME":"善化區","LI":"文昌里","LIN":"8鄰","STREET":"光復路","SECT":" ","MAREA":" ","LANE":" ","ALLEY":" ","HOUSE_NO":"１２４號","E_COORD97":177426.87,"N_COORD97":2558664.5800000001,"ADDRESS":"光復路１２４號","OBJECTID":495437},"geometry":{"x":177426.87000000011,"y":2558664.5800000019}},{"attributes":{"ID":495465,"DIS_CODE":0,"TOWNNAME":"善化區","LI":"文昌里","LIN":"8鄰","STREET":"文昌路","SECT":" ","MAREA":" ","LANE":" ","ALLEY":" ","HOUSE_NO":"２７號之１","E_COORD97":177466.54000000001,"N_COORD97":2558760.5299999998,"ADDRESS":"文昌路２７號之１","OBJECTID":495438},"geometry":{"x":177466.54000000004,"y":2558760.5299999993}},{"attributes":{"ID":495466,"DIS_CODE":0,"TOWNNAME":"善化區","LI":"文正里","LIN":"8鄰","STREET":"文正路","SECT":" ","MAREA":" ","LANE":" ","ALLEY":" ","HOUSE_NO":"３１號","E_COORD97":176981.62,"N_COORD97":2559243.5299999998,"ADDRESS":"文正路３１號","OBJECTID":495439},"geometry":{"x":176981.62000000011,"y":2559243.5300000012}},{"attributes":{"ID":495467,"DIS_CODE":0,"TOWNNAME":"善化區","LI":"文昌里","LIN":"8鄰","STREET":"文昌路","SECT":" ","MAREA":" ","LANE":" ","ALLEY":" ","HOUSE_NO":"３３之７號","E_COORD97":177346.45000000001,"N_COORD97":2558736.0299999998,"ADDRESS":"文昌路３３之７號","OBJECTID":495440},"geometry":{"x":177346.45000000112,"y":2558736.0299999993}},{"attributes":{"ID":495468,"DIS_CODE":0,"TOWNNAME":"善化區","LI":"光文里","LIN":"8鄰","STREET":"中山路","SECT":" ","MAREA":" ","LANE":" ","ALLEY":" ","HOUSE_NO":"１０號（半毀）","E_COORD97":178977.67000000001,"N_COORD97":2559307.25,"ADDRESS":"中山路１０號（半毀）","OBJECTID":495441},"geometry":{"x":178977.66999999993,"y":2559307.2500000019}},{"attributes":{"ID":495469,"DIS_CODE":0,"TOWNNAME":"善化區","LI":"文昌里","LIN":"8鄰","STREET":"光復路","SECT":" ","MAREA":" ","LANE":" ","ALLEY":" ","HOUSE_NO":"１４６號","E_COORD97":177381.41,"N_COORD97":2558648.5800000001,"ADDRESS":"光復路１４６號","OBJECTID":495442},"geometry":{"x":177381.41000000015,"y":2558648.5800000001}},{"attributes":{"ID":495470,"DIS_CODE":0,"TOWNNAME":"善化區","LI":"文昌里","LIN":"8鄰","STREET":"光復路","SECT":" ","MAREA":" ","LANE":" ","ALLEY":" ","HOUSE_NO":"１４２號","E_COORD97":177389.56,"N_COORD97":2558651.3300000001,"ADDRESS":"光復路１４２號","OBJECTID":495443},"geometry":{"x":177389.55999999959,"y":2558651.3299999982}},{"attributes":{"ID":495471,"DIS_CODE":0,"TOWNNAME":"善化區","LI":"文昌里","LIN":"8鄰","STREET":"文昌路","SECT":" ","MAREA":" ","LANE":" ","ALLEY":" ","HOUSE_NO":"２６號之２","E_COORD97":177451.04000000001,"N_COORD97":2558795.7799999998,"ADDRESS":"文昌路２６號之２","OBJECTID":495444},"geometry":{"x":177451.04000000004,"y":2558795.7799999993}},{"attributes":{"ID":495472,"DIS_CODE":0,"TOWNNAME":"善化區","LI":"文正里","LIN":"8鄰","STREET":"文正路","SECT":" ","MAREA":" ","LANE":" ","ALLEY":" ","HOUSE_NO":"３１號之１","E_COORD97":176981.47,"N_COORD97":2559246.2799999998,"ADDRESS":"文正路３１號之１","OBJECTID":495445},"geometry":{"x":176981.47000000067,"y":2559246.2799999993}},{"attributes":{"ID":495473,"DIS_CODE":0,"TOWNNAME":"善化區","LI":"北關里","LIN":"8鄰","STREET":"進學路","SECT":" ","MAREA":" ","LANE":" ","ALLEY":" ","HOUSE_NO":"２１號之５","E_COORD97":177241.60000000001,"N_COORD97":2559246.52,"ADDRESS":"進學路２１號之５","OBJECTID":495446},"geometry":{"x":177241.60000000056,"y":2559246.5200000033}},{"attributes":{"ID":495474,"DIS_CODE":0,"TOWNNAME":"善化區","LI":"文昌里","LIN":"8鄰","STREET":"文昌路","SECT":" ","MAREA":" ","LANE":" ","ALLEY":" ","HOUSE_NO":"２６號之５","E_COORD97":177442.67000000001,"N_COORD97":2558789.5299999998,"ADDRESS":"文昌路２６號之５","OBJECTID":495447},"geometry":{"x":177442.67000000086,"y":2558789.5300000012}},{"attributes":{"ID":495475,"DIS_CODE":0,"TOWNNAME":"善化區","LI":"文昌里","LIN":"8鄰","STREET":"大同路","SECT":" ","MAREA":" ","LANE":" ","ALLEY":" ","HOUSE_NO":"２４２號之１","E_COORD97":177436.42999999999,"N_COORD97":2558815.27,"ADDRESS":"大同路２４２號之１","OBJECTID":495448},"geometry":{"x":177436.4299999997,"y":2558815.2700000014}},{"attributes":{"ID":495476,"DIS_CODE":0,"TOWNNAME":"善化區","LI":"坐駕里","LIN":"8鄰","STREET":"大成路","SECT":" ","MAREA":" ","LANE":" ","ALLEY":" ","HOUSE_NO":"３８５號","E_COORD97":177797.17999999999,"N_COORD97":2558711.5,"ADDRESS":"大成路３８５號","OBJECTID":495449},"geometry":{"x":177797.18000000063,"y":2558711.5000000037}},{"attributes":{"ID":495477,"DIS_CODE":0,"TOWNNAME":"善化區","LI":"文昌里","LIN":"8鄰","STREET":"文昌路","SECT":" ","MAREA":" ","LANE":" ","ALLEY":" ","HOUSE_NO":"３４號之１","E_COORD97":177357.38,"N_COORD97":2558761.2799999998,"ADDRESS":"文昌路３４號之１","OBJECTID":495450},"geometry":{"x":177357.37999999989,"y":2558761.2800000012}},{"attributes":{"ID":495478,"DIS_CODE":0,"TOWNNAME":"安南區","LI":"城中里","LIN":"8鄰","STREET":"城安二街","SECT":" ","MAREA":" ","LANE":" ","ALLEY":" ","HOUSE_NO":"５６號","E_COORD97":160600.42000000001,"N_COORD97":2551731.4100000001,"ADDRESS":"城安二街５６號","OBJECTID":495451},"geometry":{"x":160600.41999999993,"y":2551731.4100000039}},{"attributes":{"ID":495479,"DIS_CODE":0,"TOWNNAME":"安南區","LI":"城中里","LIN":"8鄰","STREET":"城安二街","SECT":" ","MAREA":" ","LANE":" ","ALLEY":" ","HOUSE_NO":"５８號","E_COORD97":160595.66,"N_COORD97":2551728.8700000001,"ADDRESS":"城安二街５８號","OBJECTID":495452},"geometry":{"x":160595.66000000015,"y":2551728.870000001}},{"attributes":{"ID":495480,"DIS_CODE":0,"TOWNNAME":"安南區","LI":"城中里","LIN":"8鄰","STREET":"城安二街","SECT":" ","MAREA":" ","LANE":" ","ALLEY":" ","HOUSE_NO":"６０號","E_COORD97":160590.89000000001,"N_COORD97":2551726.02,"ADDRESS":"城安二街６０號","OBJECTID":495453},"geometry":{"x":160590.8900000006,"y":2551726.0199999996}},{"attributes":{"ID":495481,"DIS_CODE":0,"TOWNNAME":"安南區","LI":"城中里","LIN":"8鄰","STREET":"青砂街","SECT":"一段","MAREA":" ","LANE":" ","ALLEY":" ","HOUSE_NO":"５２號","E_COORD97":160683.59,"N_COORD97":2551514.3199999998,"ADDRESS":"青砂街一段５２號","OBJECTID":495454},"geometry":{"x":160683.58999999985,"y":2551514.3200000003}},{"attributes":{"ID":495482,"DIS_CODE":0,"TOWNNAME":"白河區","LI":"外角里","LIN":"8鄰","STREET":"光明街","SECT":" ","MAREA":" ","LANE":" ","ALLEY":" ","HOUSE_NO":"６９號","E_COORD97":190533.64000000001,"N_COORD97":2583389.5299999998,"ADDRESS":"光明街６９號","OBJECTID":495455},"geometry":{"x":190533.63999999966,"y":2583389.5300000012}},{"attributes":{"ID":495483,"DIS_CODE":0,"TOWNNAME":"中西區","LI":"萬昌里","LIN":"8鄰","STREET":"城隍街","SECT":" ","MAREA":" ","LANE":" ","ALLEY":" ","HOUSE_NO":"４５號","E_COORD97":168814.07000000001,"N_COORD97":2543402.7400000002,"ADDRESS":"城隍街４５號","OBJECTID":495456},"geometry":{"x":168814.07000000123,"y":2543402.7400000021}},{"attributes":{"ID":495484,"DIS_CODE":0,"TOWNNAME":"仁德區","LI":"一甲里","LIN":"8鄰","STREET":"中正路","SECT":"三段","MAREA":" ","LANE":" ","ALLEY":" ","HOUSE_NO":"１８６號","E_COORD97":173497.70999999999,"N_COORD97":2541824.77,"ADDRESS":"中正路三段１８６號","OBJECTID":495457},"geometry":{"x":173497.71000000089,"y":2541824.7699999977}},{"attributes":{"ID":495485,"DIS_CODE":0,"TOWNNAME":"仁德區","LI":"一甲里","LIN":"8鄰","STREET":"中正路","SECT":"三段","MAREA":" ","LANE":" ","ALLEY":" ","HOUSE_NO":"１８４號","E_COORD97":173495.97,"N_COORD97":2541820.52,"ADDRESS":"中正路三段１８４號","OBJECTID":495458},"geometry":{"x":173495.97000000067,"y":2541820.5200000014}},{"attributes":{"ID":495486,"DIS_CODE":0,"TOWNNAME":"仁德區","LI":"土庫里","LIN":"8鄰","STREET":"土庫五街","SECT":" ","MAREA":" ","LANE":" ","ALLEY":" ","HOUSE_NO":"３５之１號","E_COORD97":174015.29000000001,"N_COORD97":2543159.79,"ADDRESS":"土庫五街３５之１號","OBJECTID":495459},"geometry":{"x":174015.29000000004,"y":2543159.7899999991}},{"attributes":{"ID":495487,"DIS_CODE":0,"TOWNNAME":"仁德區","LI":"一甲里","LIN":"8鄰","STREET":"中正路","SECT":"三段","MAREA":" ","LANE":" ","ALLEY":" ","HOUSE_NO":"１９２號","E_COORD97":173502.84,"N_COORD97":2541835.77,"ADDRESS":"中正路三段１９２號","OBJECTID":495460},"geometry":{"x":173502.83999999985,"y":2541835.7700000014}},{"attributes":{"ID":495488,"DIS_CODE":0,"TOWNNAME":"仁德區","LI":"一甲里","LIN":"8鄰","STREET":"中正路","SECT":"三段","MAREA":" ","LANE":" ","ALLEY":" ","HOUSE_NO":"１９４號","E_COORD97":173504.73000000001,"N_COORD97":2541839.77,"ADDRESS":"中正路三段１９４號","OBJECTID":495461},"geometry":{"x":173504.73000000231,"y":2541839.7700000014}},{"attributes":{"ID":495489,"DIS_CODE":0,"TOWNNAME":"仁德區","LI":"一甲里","LIN":"8鄰","STREET":"中正路","SECT":"三段","MAREA":" ","LANE":" ","ALLEY":" ","HOUSE_NO":"１８８號","E_COORD97":173499.5,"N_COORD97":2541828.27,"ADDRESS":"中正路三段１８８號","OBJECTID":495462},"geometry":{"x":173499.50000000093,"y":2541828.2700000033}},{"attributes":{"ID":495490,"DIS_CODE":0,"TOWNNAME":"仁德區","LI":"仁義里","LIN":"8鄰","STREET":"仁義一街","SECT":" ","MAREA":" ","LANE":" ","ALLEY":" ","HOUSE_NO":"１２３號","E_COORD97":173604.23999999999,"N_COORD97":2541195.2599999998,"ADDRESS":"仁義一街１２３號","OBJECTID":495463},"geometry":{"x":173604.23999999929,"y":2541195.2600000016}},{"attributes":{"ID":495491,"DIS_CODE":0,"TOWNNAME":"仁德區","LI":"土庫里","LIN":"8鄰","STREET":"土庫六街","SECT":" ","MAREA":" ","LANE":" ","ALLEY":" ","HOUSE_NO":"９１號","E_COORD97":174087.51999999999,"N_COORD97":2543251.7400000002,"ADDRESS":"土庫六街９１號","OBJECTID":495464},"geometry":{"x":174087.51999999955,"y":2543251.7400000002}},{"attributes":{"ID":495492,"DIS_CODE":0,"TOWNNAME":"東區","LI":"崇德里","LIN":"8鄰","STREET":"崇善路","SECT":" ","MAREA":" ","LANE":" ","ALLEY":" ","HOUSE_NO":"３６６號","E_COORD97":170910.92999999999,"N_COORD97":2541764.1699999999,"ADDRESS":"崇善路３６６號","OBJECTID":495465},"geometry":{"x":170910.93000000063,"y":2541764.1699999999}},{"attributes":{"ID":495493,"DIS_CODE":0,"TOWNNAME":"東區","LI":"裕聖里","LIN":"8鄰","STREET":"裕孝三街","SECT":" ","MAREA":" ","LANE":" ","ALLEY":" ","HOUSE_NO":"８８號","E_COORD97":172671.75,"N_COORD97":2542062.3100000001,"ADDRESS":"裕孝三街８８號","OBJECTID":495466},"geometry":{"x":172671.75000000186,"y":2542062.3100000005}},{"attributes":{"ID":495494,"DIS_CODE":0,"TOWNNAME":"東區","LI":"中西里","LIN":"8鄰","STREET":"勝利路","SECT":" ","MAREA":" ","LANE":" ","ALLEY":" ","HOUSE_NO":"４８之１號","E_COORD97":169814.73999999999,"N_COORD97":2543516.5800000001,"ADDRESS":"勝利路４８之１號","OBJECTID":495467},"geometry":{"x":169814.74000000022,"y":2543516.5800000019}},{"attributes":{"ID":495495,"DIS_CODE":0,"TOWNNAME":"東區","LI":"南聖里","LIN":"8鄰","STREET":"裕和路","SECT":" ","MAREA":" ","LANE":" ","ALLEY":" ","HOUSE_NO":"１號","E_COORD97":171924.84,"N_COORD97":2543130.1899999999,"ADDRESS":"裕和路１號","OBJECTID":495468},"geometry":{"x":171924.83999999985,"y":2543130.1899999995}},{"attributes":{"ID":495496,"DIS_CODE":0,"TOWNNAME":"東區","LI":"南聖里","LIN":"8鄰","STREET":"裕和路","SECT":" ","MAREA":" ","LANE":" ","ALLEY":" ","HOUSE_NO":"３號","E_COORD97":171933.95000000001,"N_COORD97":2543130.0099999998,"ADDRESS":"裕和路３號","OBJECTID":495469},"geometry":{"x":171933.95000000019,"y":2543130.0100000016}},{"attributes":{"ID":495497,"DIS_CODE":0,"TOWNNAME":"東區","LI":"南聖里","LIN":"8鄰","STREET":"裕和路","SECT":" ","MAREA":" ","LANE":" ","ALLEY":" ","HOUSE_NO":"５號","E_COORD97":171943.60999999999,"N_COORD97":2543130.1899999999,"ADDRESS":"裕和路５號","OBJECTID":495470},"geometry":{"x":171943.61000000034,"y":2543130.1899999995}},{"attributes":{"ID":495498,"DIS_CODE":0,"TOWNNAME":"東區","LI":"裕聖里","LIN":"8鄰","STREET":"裕東一街","SECT":" ","MAREA":" ","LANE":" ","ALLEY":" ","HOUSE_NO":"２９號","E_COORD97":172753.09,"N_COORD97":2542020.1800000002,"ADDRESS":"裕東一街２９號","OBJECTID":495471},"geometry":{"x":172753.09000000078,"y":2542020.1800000016}},{"attributes":{"ID":495499,"DIS_CODE":0,"TOWNNAME":"東區","LI":"中西里","LIN":"8鄰","STREET":"勝利路","SECT":" ","MAREA":" ","LANE":" ","ALLEY":" ","HOUSE_NO":"２４號","E_COORD97":169803.35000000001,"N_COORD97":2543415.4100000001,"ADDRESS":"勝利路２４號","OBJECTID":495472},"geometry":{"x":169803.34999999963,"y":2543415.410000002}},{"attributes":{"ID":495500,"DIS_CODE":0,"TOWNNAME":"東區","LI":"大德里","LIN":"8鄰","STREET":"立德十一路","SECT":" ","MAREA":" ","LANE":" ","ALLEY":" ","HOUSE_NO":"６７號","E_COORD97":169523.84,"N_COORD97":2542115.6800000002,"ADDRESS":"立德十一路６７號","OBJECTID":495473},"geometry":{"x":169523.83999999985,"y":2542115.6799999997}},{"attributes":{"ID":495501,"DIS_CODE":0,"TOWNNAME":"東區","LI":"大德里","LIN":"8鄰","STREET":"立德十一路","SECT":" ","MAREA":" ","LANE":" ","ALLEY":" ","HOUSE_NO":"６９號","E_COORD97":169527.75,"N_COORD97":2542117.4500000002,"ADDRESS":"立德十一路６９號","OBJECTID":495474},"geometry":{"x":169527.75000000093,"y":2542117.4499999993}},{"attributes":{"ID":495502,"DIS_CODE":0,"TOWNNAME":"東區","LI":"大德里","LIN":"8鄰","STREET":"立德十一路","SECT":" ","MAREA":" ","LANE":" ","ALLEY":" ","HOUSE_NO":"１８號之２","E_COORD97":169478.63,"N_COORD97":2542079.1299999999,"ADDRESS":"立德十一路１８號之２","OBJECTID":495475},"geometry":{"x":169478.63000000175,"y":2542079.129999999}},{"attributes":{"ID":495503,"DIS_CODE":0,"TOWNNAME":"永康區","LI":"西灣里","LIN":"8鄰","STREET":"大灣三街","SECT":" ","MAREA":" ","LANE":" ","ALLEY":" ","HOUSE_NO":"２１０號","E_COORD97":174482.54000000001,"N_COORD97":2545160.4900000002,"ADDRESS":"大灣三街２１０號","OBJECTID":495476},"geometry":{"x":174482.54000000097,"y":2545160.4900000039}},{"attributes":{"ID":495504,"DIS_CODE":0,"TOWNNAME":"永康區","LI":"西勢里","LIN":"8鄰","STREET":"廣興街","SECT":" ","MAREA":" ","LANE":" ","ALLEY":" ","HOUSE_NO":"１３號","E_COORD97":175769.88,"N_COORD97":2546592.2400000002,"ADDRESS":"廣興街１３號","OBJECTID":495477},"geometry":{"x":175769.88000000082,"y":2546592.2400000002}},{"attributes":{"ID":495505,"DIS_CODE":0,"TOWNNAME":"永康區","LI":"西勢里","LIN":"8鄰","STREET":"廣興街","SECT":" ","MAREA":" ","LANE":" ","ALLEY":" ","HOUSE_NO":"２１號","E_COORD97":175792.10000000001,"N_COORD97":2546591.4900000002,"ADDRESS":"廣興街２１號","OBJECTID":495478},"geometry":{"x":175792.10000000056,"y":2546591.4900000021}},{"attributes":{"ID":495506,"DIS_CODE":0,"TOWNNAME":"永康區","LI":"蔦松里","LIN":"8鄰","STREET":"蔦松二街","SECT":" ","MAREA":" ","LANE":" ","ALLEY":" ","HOUSE_NO":"１７號","E_COORD97":173638,"N_COORD97":2549173.8199999998,"ADDRESS":"蔦松二街１７號","OBJECTID":495479},"geometry":{"x":173638.00000000186,"y":2549173.8200000022}},{"attributes":{"ID":495507,"DIS_CODE":0,"TOWNNAME":"永康區","LI":"蔦松里","LIN":"8鄰","STREET":"蔦松二街","SECT":" ","MAREA":" ","LANE":" ","ALLEY":" ","HOUSE_NO":"１６號","E_COORD97":173471.73999999999,"N_COORD97":2548847.9900000002,"ADDRESS":"蔦松二街１６號","OBJECTID":495480},"geometry":{"x":173471.74000000022,"y":2548847.9900000002}},{"attributes":{"ID":495508,"DIS_CODE":0,"TOWNNAME":"中西區","LI":"三民里","LIN":"8鄰","STREET":"民權路","SECT":"二段","MAREA":" ","LANE":" ","ALLEY":" ","HOUSE_NO":"１０７號","E_COORD97":168433.01999999999,"N_COORD97":2543897.7799999998,"ADDRESS":"民權路二段１０７號","OBJECTID":495481},"geometry":{"x":168433.02000000142,"y":2543897.7800000012}},{"attributes":{"ID":495509,"DIS_CODE":0,"TOWNNAME":"中西區","LI":"三民里","LIN":"8鄰","STREET":"民權路","SECT":"二段","MAREA":" ","LANE":" ","ALLEY":" ","HOUSE_NO":"１０９號","E_COORD97":168426.91,"N_COORD97":2543899.5,"ADDRESS":"民權路二段１０９號","OBJECTID":495482},"geometry":{"x":168426.91000000015,"y":2543899.5000000019}},{"attributes":{"ID":495510,"DIS_CODE":0,"TOWNNAME":"中西區","LI":"三民里","LIN":"8鄰","STREET":"民權路","SECT":"二段","MAREA":" ","LANE":" ","ALLEY":" ","HOUSE_NO":"１１１號","E_COORD97":168422.60999999999,"N_COORD97":2543901.2400000002,"ADDRESS":"民權路二段１１１號","OBJECTID":495483},"geometry":{"x":168422.61000000034,"y":2543901.2400000021}},{"attributes":{"ID":495511,"DIS_CODE":0,"TOWNNAME":"中西區","LI":"三民里","LIN":"8鄰","STREET":"民權路","SECT":"二段","MAREA":" ","LANE":" ","ALLEY":" ","HOUSE_NO":"１１３號","E_COORD97":168417.45000000001,"N_COORD97":2543901.3900000001,"ADDRESS":"民權路二段１１３號","OBJECTID":495484},"geometry":{"x":168417.45000000112,"y":2543901.3900000025}},{"attributes":{"ID":495512,"DIS_CODE":0,"TOWNNAME":"中西區","LI":"三民里","LIN":"8鄰","STREET":"民權路","SECT":"二段","MAREA":" ","LANE":" ","ALLEY":" ","HOUSE_NO":"１１５號","E_COORD97":168412.44,"N_COORD97":2543903.27,"ADDRESS":"民權路二段１１５號","OBJECTID":495485},"geometry":{"x":168412.44000000227,"y":2543903.2700000033}},{"attributes":{"ID":495513,"DIS_CODE":0,"TOWNNAME":"中西區","LI":"三民里","LIN":"8鄰","STREET":"民權路","SECT":"二段","MAREA":" ","LANE":" ","ALLEY":" ","HOUSE_NO":"１１７號","E_COORD97":168409.29999999999,"N_COORD97":2543905.2999999998,"ADDRESS":"民權路二段１１７號","OBJECTID":495486},"geometry":{"x":168409.29999999888,"y":2543905.3000000026}},{"attributes":{"ID":495514,"DIS_CODE":0,"TOWNNAME":"中西區","LI":"三民里","LIN":"8鄰","STREET":"民權路","SECT":"二段","MAREA":" ","LANE":" ","ALLEY":" ","HOUSE_NO":"１１９號","E_COORD97":168403.67000000001,"N_COORD97":2543904.21,"ADDRESS":"民權路二段１１９號","OBJECTID":495487},"geometry":{"x":168403.67000000179,"y":2543904.2100000009}},{"attributes":{"ID":495515,"DIS_CODE":0,"TOWNNAME":"中西區","LI":"三民里","LIN":"8鄰","STREET":"民權路","SECT":"二段","MAREA":" ","LANE":" ","ALLEY":" ","HOUSE_NO":"１２１號","E_COORD97":168399.28,"N_COORD97":2543906.0899999999,"ADDRESS":"民權路二段１２１號","OBJECTID":495488},"geometry":{"x":168399.28000000026,"y":2543906.0900000017}},{"attributes":{"ID":495516,"DIS_CODE":0,"TOWNNAME":"中西區","LI":"三民里","LIN":"8鄰","STREET":"民權路","SECT":"二段","MAREA":" ","LANE":" ","ALLEY":" ","HOUSE_NO":"１２３號","E_COORD97":168396.14999999999,"N_COORD97":2543907.4900000002,"ADDRESS":"民權路二段１２３號","OBJECTID":495489},"geometry":{"x":168396.1500000013,"y":2543907.4900000021}},{"attributes":{"ID":495517,"DIS_CODE":0,"TOWNNAME":"中西區","LI":"三民里","LIN":"8鄰","STREET":"民權路","SECT":"二段","MAREA":" ","LANE":" ","ALLEY":" ","HOUSE_NO":"１２５號","E_COORD97":168391.76000000001,"N_COORD97":2543909.3700000001,"ADDRESS":"民權路二段１２５號","OBJECTID":495490},"geometry":{"x":168391.76000000071,"y":2543909.370000001}},{"attributes":{"ID":495518,"DIS_CODE":0,"TOWNNAME":"中西區","LI":"三民里","LIN":"8鄰","STREET":"民權路","SECT":"二段","MAREA":" ","LANE":" ","ALLEY":" ","HOUSE_NO":"１２７號","E_COORD97":168388.63,"N_COORD97":2543910.7799999998,"ADDRESS":"民權路二段１２７號","OBJECTID":495491},"geometry":{"x":168388.63000000175,"y":2543910.7800000012}},{"attributes":{"ID":495519,"DIS_CODE":0,"TOWNNAME":"中西區","LI":"三民里","LIN":"8鄰","STREET":"民權路","SECT":"二段","MAREA":" ","LANE":" ","ALLEY":" ","HOUSE_NO":"１２９號","E_COORD97":168384.17999999999,"N_COORD97":2543912.4199999999,"ADDRESS":"民權路二段１２９號","OBJECTID":495492},"geometry":{"x":168384.1799999997,"y":2543912.4199999999}},{"attributes":{"ID":495520,"DIS_CODE":0,"TOWNNAME":"中西區","LI":"三民里","LIN":"8鄰","STREET":"民權路","SECT":"二段","MAREA":" ","LANE":" ","ALLEY":" ","HOUSE_NO":"１３１號","E_COORD97":168380.64000000001,"N_COORD97":2543914.23,"ADDRESS":"民權路二段１３１號","OBJECTID":495493},"geometry":{"x":168380.6400000006,"y":2543914.2300000004}},{"attributes":{"ID":495521,"DIS_CODE":0,"TOWNNAME":"中西區","LI":"三民里","LIN":"8鄰","STREET":"民權路","SECT":"二段","MAREA":" ","LANE":" ","ALLEY":" ","HOUSE_NO":"１３３號","E_COORD97":168374.97,"N_COORD97":2543914.9399999999,"ADDRESS":"民權路二段１３３號","OBJECTID":495494},"geometry":{"x":168374.97000000067,"y":2543914.9399999995}},{"attributes":{"ID":495522,"DIS_CODE":0,"TOWNNAME":"中西區","LI":"三民里","LIN":"8鄰","STREET":"民權路","SECT":"二段","MAREA":" ","LANE":" ","ALLEY":" ","HOUSE_NO":"１３５號","E_COORD97":168371.10999999999,"N_COORD97":2543915.52,"ADDRESS":"民權路二段１３５號","OBJECTID":495495},"geometry":{"x":168371.11000000127,"y":2543915.5200000014}},{"attributes":{"ID":495523,"DIS_CODE":0,"TOWNNAME":"中西區","LI":"三民里","LIN":"8鄰","STREET":"民權路","SECT":"二段","MAREA":" ","LANE":" ","ALLEY":" ","HOUSE_NO":"１３７號","E_COORD97":168367.41,"N_COORD97":2543917.2999999998,"ADDRESS":"民權路二段１３７號","OBJECTID":495496},"geometry":{"x":168367.41000000108,"y":2543917.3000000007}},{"attributes":{"ID":495524,"DIS_CODE":0,"TOWNNAME":"中西區","LI":"三民里","LIN":"8鄰","STREET":"民權路","SECT":"二段","MAREA":" ","LANE":" ","ALLEY":" ","HOUSE_NO":"１３９號","E_COORD97":168364.51000000001,"N_COORD97":2543918.6899999999,"ADDRESS":"民權路二段１３９號","OBJECTID":495497},"geometry":{"x":168364.51000000071,"y":2543918.6900000013}},{"attributes":{"ID":495525,"DIS_CODE":0,"TOWNNAME":"新化區","LI":"北勢里","LIN":"8鄰","STREET":"永新路","SECT":" ","MAREA":" ","LANE":" ","ALLEY":" ","HOUSE_NO":"１７號","E_COORD97":177811.29000000001,"N_COORD97":2551004.1899999999,"ADDRESS":"永新路１７號","OBJECTID":495498},"geometry":{"x":177811.2900000019,"y":2551004.1900000013}},{"attributes":{"ID":495526,"DIS_CODE":0,"TOWNNAME":"新化區","LI":"北勢里","LIN":"8鄰","STREET":"永新路","SECT":" ","MAREA":" ","LANE":" ","ALLEY":" ","HOUSE_NO":"１９號","E_COORD97":177819.37,"N_COORD97":2551006.98,"ADDRESS":"永新路１９號","OBJECTID":495499},"geometry":{"x":177819.37000000197,"y":2551006.9800000023}},{"attributes":{"ID":495527,"DIS_CODE":0,"TOWNNAME":"新化區","LI":"北勢里","LIN":"8鄰","STREET":"永新路","SECT":" ","MAREA":" ","LANE":" ","ALLEY":" ","HOUSE_NO":"２１號","E_COORD97":177829.03,"N_COORD97":2551008.3500000001,"ADDRESS":"永新路２１號","OBJECTID":495500},"geometry":{"x":177829.03000000119,"y":2551008.3499999996}},{"attributes":{"ID":495528,"DIS_CODE":0,"TOWNNAME":"新化區","LI":"北勢里","LIN":"8鄰","STREET":"永新路","SECT":" ","MAREA":" ","LANE":" ","ALLEY":" ","HOUSE_NO":"２３號","E_COORD97":177832.42999999999,"N_COORD97":2550999.9300000002,"ADDRESS":"永新路２３號","OBJECTID":495501},"geometry":{"x":177832.43000000063,"y":2550999.9300000016}},{"attributes":{"ID":495529,"DIS_CODE":0,"TOWNNAME":"新化區","LI":"北勢里","LIN":"8鄰","STREET":"永新路","SECT":" ","MAREA":" ","LANE":" ","ALLEY":" ","HOUSE_NO":"２５號","E_COORD97":177843.94,"N_COORD97":2550967.5800000001,"ADDRESS":"永新路２５號","OBJECTID":495502},"geometry":{"x":177843.94000000041,"y":2550967.5800000019}},{"attributes":{"ID":495530,"DIS_CODE":0,"TOWNNAME":"新化區","LI":"北勢里","LIN":"8鄰","STREET":"永新路","SECT":" ","MAREA":" ","LANE":" ","ALLEY":" ","HOUSE_NO":"２７號","E_COORD97":177847.26999999999,"N_COORD97":2550960.0699999998,"ADDRESS":"永新路２７號","OBJECTID":495503},"geometry":{"x":177847.27000000048,"y":2550960.0700000003}},{"attributes":{"ID":495531,"DIS_CODE":0,"TOWNNAME":"新化區","LI":"北勢里","LIN":"8鄰","STREET":"永新路","SECT":" ","MAREA":" ","LANE":" ","ALLEY":" ","HOUSE_NO":"２９號","E_COORD97":177835.75,"N_COORD97":2550956.6699999999,"ADDRESS":"永新路２９號","OBJECTID":495504},"geometry":{"x":177835.75000000093,"y":2550956.6700000018}},{"attributes":{"ID":495532,"DIS_CODE":0,"TOWNNAME":"新化區","LI":"北勢里","LIN":"8鄰","STREET":"永新路","SECT":" ","MAREA":" ","LANE":" ","ALLEY":" ","HOUSE_NO":"３１號","E_COORD97":177830.76000000001,"N_COORD97":2550954.71,"ADDRESS":"永新路３１號","OBJECTID":495505},"geometry":{"x":177830.75999999978,"y":2550954.7100000028}},{"attributes":{"ID":495533,"DIS_CODE":0,"TOWNNAME":"新化區","LI":"北勢里","LIN":"8鄰","STREET":"永新路","SECT":" ","MAREA":" ","LANE":" ","ALLEY":" ","HOUSE_NO":"３３號","E_COORD97":177821.10999999999,"N_COORD97":2550949.4500000002,"ADDRESS":"永新路３３號","OBJECTID":495506},"geometry":{"x":177821.1099999994,"y":2550949.4499999993}},{"attributes":{"ID":495534,"DIS_CODE":0,"TOWNNAME":"新化區","LI":"北勢里","LIN":"8鄰","STREET":"永新路","SECT":" ","MAREA":" ","LANE":" ","ALLEY":" ","HOUSE_NO":"３５號","E_COORD97":177817.59,"N_COORD97":2550957.5499999998,"ADDRESS":"永新路３５號","OBJECTID":495507},"geometry":{"x":177817.59000000171,"y":2550957.5500000007}},{"attributes":{"ID":495535,"DIS_CODE":0,"TOWNNAME":"新化區","LI":"北勢里","LIN":"8鄰","STREET":"永新路","SECT":" ","MAREA":" ","LANE":" ","ALLEY":" ","HOUSE_NO":"３７號","E_COORD97":177786.06,"N_COORD97":2550969.4700000002,"ADDRESS":"永新路３７號","OBJECTID":495508},"geometry":{"x":177786.05999999959,"y":2550969.4700000025}},{"attributes":{"ID":495536,"DIS_CODE":0,"TOWNNAME":"新化區","LI":"北勢里","LIN":"8鄰","STREET":"永新路","SECT":" ","MAREA":" ","LANE":" ","ALLEY":" ","HOUSE_NO":"３９號","E_COORD97":177789.92000000001,"N_COORD97":2550961.4700000002,"ADDRESS":"永新路３９號","OBJECTID":495509},"geometry":{"x":177789.92000000179,"y":2550961.4700000007}},{"attributes":{"ID":495537,"DIS_CODE":0,"TOWNNAME":"新化區","LI":"北勢里","LIN":"8鄰","STREET":"永新路","SECT":" ","MAREA":" ","LANE":" ","ALLEY":" ","HOUSE_NO":"４１號","E_COORD97":177778.07999999999,"N_COORD97":2550958.73,"ADDRESS":"永新路４１號","OBJECTID":495510},"geometry":{"x":177778.08000000007,"y":2550958.7300000004}},{"attributes":{"ID":495538,"DIS_CODE":0,"TOWNNAME":"新化區","LI":"北勢里","LIN":"8鄰","STREET":"永新路","SECT":" ","MAREA":" ","LANE":" ","ALLEY":" ","HOUSE_NO":"４３號","E_COORD97":177772.85000000001,"N_COORD97":2550956.96,"ADDRESS":"永新路４３號","OBJECTID":495511},"geometry":{"x":177772.84999999963,"y":2550956.9600000028}},{"attributes":{"ID":495539,"DIS_CODE":0,"TOWNNAME":"安南區","LI":"城中里","LIN":"8鄰","STREET":"青砂街","SECT":"一段","MAREA":" ","LANE":" ","ALLEY":" ","HOUSE_NO":"５６號","E_COORD97":160681.34,"N_COORD97":2551518.8199999998,"ADDRESS":"青砂街一段５６號","OBJECTID":495512},"geometry":{"x":160681.34000000078,"y":2551518.8200000022}},{"attributes":{"ID":495540,"DIS_CODE":0,"TOWNNAME":"安南區","LI":"城北里","LIN":"8鄰","STREET":"安中路","SECT":"六段","MAREA":" ","LANE":" ","ALLEY":" ","HOUSE_NO":"２２１號","E_COORD97":161518.14999999999,"N_COORD97":2551266.0299999998,"ADDRESS":"安中路六段２２１號","OBJECTID":495513},"geometry":{"x":161518.15000000037,"y":2551266.0300000012}},{"attributes":{"ID":495541,"DIS_CODE":0,"TOWNNAME":"安南區","LI":"城北里","LIN":"8鄰","STREET":"安中路","SECT":"六段","MAREA":" ","LANE":" ","ALLEY":" ","HOUSE_NO":"２２５號","E_COORD97":161510.17000000001,"N_COORD97":2551267.9300000002,"ADDRESS":"安中路六段２２５號","OBJECTID":495514},"geometry":{"x":161510.16999999993,"y":2551267.9300000016}},{"attributes":{"ID":495542,"DIS_CODE":0,"TOWNNAME":"安南區","LI":"城北里","LIN":"8鄰","STREET":"安中路","SECT":"六段","MAREA":" ","LANE":" ","ALLEY":" ","HOUSE_NO":"３５５號","E_COORD97":161210.128364,"N_COORD97":2551294.9879800002,"ADDRESS":"安中路六段３５５號","OBJECTID":495515},"geometry":{"x":161210.12836400047,"y":2551294.9879840016}},{"attributes":{"ID":495543,"DIS_CODE":0,"TOWNNAME":"安南區","LI":"城中里","LIN":"8鄰","STREET":"城西街","SECT":"一段","MAREA":" ","LANE":" ","ALLEY":" ","HOUSE_NO":"３３號","E_COORD97":160761.04999999999,"N_COORD97":2551413.0099999998,"ADDRESS":"城西街一段３３號","OBJECTID":495516},"geometry":{"x":160761.05000000075,"y":2551413.0100000016}},{"attributes":{"ID":495544,"DIS_CODE":0,"TOWNNAME":"安南區","LI":"城中里","LIN":"8鄰","STREET":"城西街","SECT":"一段","MAREA":" ","LANE":" ","ALLEY":" ","HOUSE_NO":"３５號","E_COORD97":160757.64000000001,"N_COORD97":2551409.0099999998,"ADDRESS":"城西街一段３５號","OBJECTID":495517},"geometry":{"x":160757.63999999966,"y":2551409.0100000016}},{"attributes":{"ID":495545,"DIS_CODE":0,"TOWNNAME":"安南區","LI":"城中里","LIN":"8鄰","STREET":"城西街","SECT":"一段","MAREA":" ","LANE":" ","ALLEY":" ","HOUSE_NO":"３７號","E_COORD97":160752.19,"N_COORD97":2551411.3399999999,"ADDRESS":"城西街一段３７號","OBJECTID":495518},"geometry":{"x":160752.19000000134,"y":2551411.3399999999}},{"attributes":{"ID":495546,"DIS_CODE":0,"TOWNNAME":"安南區","LI":"城中里","LIN":"8鄰","STREET":"城西街","SECT":"一段","MAREA":" ","LANE":" ","ALLEY":" ","HOUSE_NO":"３９號","E_COORD97":160747.64999999999,"N_COORD97":2551412.8100000001,"ADDRESS":"城西街一段３９號","OBJECTID":495519},"geometry":{"x":160747.6500000013,"y":2551412.8100000005}},{"attributes":{"ID":495547,"DIS_CODE":0,"TOWNNAME":"安南區","LI":"城中里","LIN":"8鄰","STREET":"城西街","SECT":"一段","MAREA":" ","LANE":" ","ALLEY":" ","HOUSE_NO":"４３號","E_COORD97":160741.04999999999,"N_COORD97":2551410.96,"ADDRESS":"城西街一段４３號","OBJECTID":495520},"geometry":{"x":160741.05000000075,"y":2551410.9600000028}},{"attributes":{"ID":495548,"DIS_CODE":0,"TOWNNAME":"安南區","LI":"城中里","LIN":"8鄰","STREET":"城西街","SECT":"一段","MAREA":" ","LANE":" ","ALLEY":" ","HOUSE_NO":"４７號","E_COORD97":160733,"N_COORD97":2551408.3599999999,"ADDRESS":"城西街一段４７號","OBJECTID":495521},"geometry":{"x":160733.00000000093,"y":2551408.3599999994}},{"attributes":{"ID":495549,"DIS_CODE":0,"TOWNNAME":"安南區","LI":"城中里","LIN":"8鄰","STREET":"城西街","SECT":"一段","MAREA":" ","LANE":" ","ALLEY":" ","HOUSE_NO":"４８號","E_COORD97":160742.29999999999,"N_COORD97":2551458.52,"ADDRESS":"城西街一段４８號","OBJECTID":495522},"geometry":{"x":160742.30000000075,"y":2551458.5199999977}},{"attributes":{"ID":495550,"DIS_CODE":0,"TOWNNAME":"安南區","LI":"城中里","LIN":"8鄰","STREET":"城西街","SECT":"一段","MAREA":" ","LANE":" ","ALLEY":" ","HOUSE_NO":"５２號","E_COORD97":160741.29000000001,"N_COORD97":2551444.1400000001,"ADDRESS":"城西街一段５２號","OBJECTID":495523},"geometry":{"x":160741.29000000097,"y":2551444.1400000006}},{"attributes":{"ID":495551,"DIS_CODE":0,"TOWNNAME":"安南區","LI":"城中里","LIN":"8鄰","STREET":"城西街","SECT":"一段","MAREA":" ","LANE":" ","ALLEY":" ","HOUSE_NO":"５３號","E_COORD97":160723.79000000001,"N_COORD97":2551398.8300000001,"ADDRESS":"城西街一段５３號","OBJECTID":495524},"geometry":{"x":160723.7900000019,"y":2551398.8300000001}},{"attributes":{"ID":495552,"DIS_CODE":0,"TOWNNAME":"安南區","LI":"城中里","LIN":"8鄰","STREET":"城西街","SECT":"一段","MAREA":" ","LANE":" ","ALLEY":" ","HOUSE_NO":"５４號","E_COORD97":160734.97,"N_COORD97":2551445.6600000001,"ADDRESS":"城西街一段５４號","OBJECTID":495525},"geometry":{"x":160734.96999999974,"y":2551445.660000002}},{"attributes":{"ID":495553,"DIS_CODE":0,"TOWNNAME":"安南區","LI":"城中里","LIN":"8鄰","STREET":"城西街","SECT":"一段","MAREA":" ","LANE":" ","ALLEY":" ","HOUSE_NO":"５６號","E_COORD97":160729.92000000001,"N_COORD97":2551449.9500000002,"ADDRESS":"城西街一段５６號","OBJECTID":495526},"geometry":{"x":160729.92000000086,"y":2551449.9500000011}},{"attributes":{"ID":495554,"DIS_CODE":0,"TOWNNAME":"安南區","LI":"城中里","LIN":"8鄰","STREET":"城西街","SECT":"一段","MAREA":" ","LANE":" ","ALLEY":" ","HOUSE_NO":"５７號","E_COORD97":160717.51999999999,"N_COORD97":2551407.5899999999,"ADDRESS":"城西街一段５７號","OBJECTID":495527},"geometry":{"x":160717.51999999955,"y":2551407.5900000036}},{"attributes":{"ID":495555,"DIS_CODE":0,"TOWNNAME":"安南區","LI":"城中里","LIN":"8鄰","STREET":"城西街","SECT":"一段","MAREA":" ","LANE":" ","ALLEY":" ","HOUSE_NO":"５８號","E_COORD97":160725.37,"N_COORD97":2551441.3700000001,"ADDRESS":"城西街一段５８號","OBJECTID":495528},"geometry":{"x":160725.37000000104,"y":2551441.3700000029}},{"attributes":{"ID":495556,"DIS_CODE":0,"TOWNNAME":"安南區","LI":"城中里","LIN":"8鄰","STREET":"城西街","SECT":"一段","MAREA":" ","LANE":" ","ALLEY":" ","HOUSE_NO":"６２號","E_COORD97":160717.04000000001,"N_COORD97":2551446.1600000001,"ADDRESS":"城西街一段６２號","OBJECTID":495529},"geometry":{"x":160717.0400000019,"y":2551446.160000002}},{"attributes":{"ID":495557,"DIS_CODE":0,"TOWNNAME":"安南區","LI":"城南里","LIN":"8鄰","STREET":"城西街","SECT":"一段","MAREA":" ","LANE":" ","ALLEY":" ","HOUSE_NO":"２１７號","E_COORD97":160433.82000000001,"N_COORD97":2551221.29,"ADDRESS":"城西街一段２１７號","OBJECTID":495530},"geometry":{"x":160433.81999999937,"y":2551221.2899999991}},{"attributes":{"ID":495558,"DIS_CODE":0,"TOWNNAME":"安南區","LI":"城南里","LIN":"8鄰","STREET":"城西街","SECT":"一段","MAREA":" ","LANE":" ","ALLEY":" ","HOUSE_NO":"２１９號","E_COORD97":160429.34,"N_COORD97":2551218.8100000001,"ADDRESS":"城西街一段２１９號","OBJECTID":495531},"geometry":{"x":160429.33999999985,"y":2551218.8100000005}},{"attributes":{"ID":495559,"DIS_CODE":0,"TOWNNAME":"安南區","LI":"城南里","LIN":"8鄰","STREET":"城西街","SECT":"一段","MAREA":" ","LANE":" ","ALLEY":" ","HOUSE_NO":"２２３號","E_COORD97":160422.20999999999,"N_COORD97":2551210.21,"ADDRESS":"城西街一段２２３號","OBJECTID":495532},"geometry":{"x":160422.20999999996,"y":2551210.2100000009}},{"attributes":{"ID":495560,"DIS_CODE":0,"TOWNNAME":"善化區","LI":"文昌里","LIN":"8鄰","STREET":"大同路","SECT":" ","MAREA":" ","LANE":" ","ALLEY":" ","HOUSE_NO":"２２２號","E_COORD97":177446.70999999999,"N_COORD97":2558722.25,"ADDRESS":"大同路２２２號","OBJECTID":495533},"geometry":{"x":177446.70999999996,"y":2558722.25}},{"attributes":{"ID":495561,"DIS_CODE":0,"TOWNNAME":"善化區","LI":"坐駕里","LIN":"8鄰","STREET":"大成路","SECT":" ","MAREA":" ","LANE":" ","ALLEY":" ","HOUSE_NO":"３６９號","E_COORD97":177926.01999999999,"N_COORD97":2558770.25,"ADDRESS":"大成路３６９號","OBJECTID":495534},"geometry":{"x":177926.01999999862,"y":2558770.25}},{"attributes":{"ID":495562,"DIS_CODE":0,"TOWNNAME":"善化區","LI":"西關里","LIN":"8鄰","STREET":"中山路","SECT":" ","MAREA":" ","LANE":" ","ALLEY":" ","HOUSE_NO":"５６９號","E_COORD97":177000.07000000001,"N_COORD97":2559143.5,"ADDRESS":"中山路５６９號","OBJECTID":495535},"geometry":{"x":177000.07000000123,"y":2559143.5000000019}},{"attributes":{"ID":495563,"DIS_CODE":0,"TOWNNAME":"善化區","LI":"北關里","LIN":"8鄰","STREET":"進學路","SECT":" ","MAREA":" ","LANE":" ","ALLEY":" ","HOUSE_NO":"２１號之１","E_COORD97":177275.20999999999,"N_COORD97":2559241.27,"ADDRESS":"進學路２１號之１","OBJECTID":495536},"geometry":{"x":177275.20999999996,"y":2559241.2700000033}},{"attributes":{"ID":495564,"DIS_CODE":0,"TOWNNAME":"善化區","LI":"西關里","LIN":"8鄰","STREET":"中山路","SECT":" ","MAREA":" ","LANE":" ","ALLEY":" ","HOUSE_NO":"５６１號","E_COORD97":177046.25,"N_COORD97":2559147.75,"ADDRESS":"中山路５６１號","OBJECTID":495537},"geometry":{"x":177046.25,"y":2559147.7500000019}},{"attributes":{"ID":495565,"DIS_CODE":0,"TOWNNAME":"善化區","LI":"文昌里","LIN":"8鄰","STREET":"文昌路","SECT":" ","MAREA":" ","LANE":" ","ALLEY":" ","HOUSE_NO":"３３之２號","E_COORD97":177366.76000000001,"N_COORD97":2558742.7799999998,"ADDRESS":"文昌路３３之２號","OBJECTID":495538},"geometry":{"x":177366.75999999978,"y":2558742.7800000031}},{"attributes":{"ID":495566,"DIS_CODE":0,"TOWNNAME":"善化區","LI":"文昌里","LIN":"8鄰","STREET":"文昌路","SECT":" ","MAREA":" ","LANE":" ","ALLEY":" ","HOUSE_NO":"３４號之２","E_COORD97":177346.48000000001,"N_COORD97":2558756.7799999998,"ADDRESS":"文昌路３４號之２","OBJECTID":495539},"geometry":{"x":177346.48000000138,"y":2558756.7800000012}},{"attributes":{"ID":495567,"DIS_CODE":0,"TOWNNAME":"善化區","LI":"文昌里","LIN":"8鄰","STREET":"文昌路","SECT":" ","MAREA":" ","LANE":" ","ALLEY":" ","HOUSE_NO":"３３號","E_COORD97":177369.95000000001,"N_COORD97":2558744.0299999998,"ADDRESS":"文昌路３３號","OBJECTID":495540},"geometry":{"x":177369.95000000112,"y":2558744.0299999993}},{"attributes":{"ID":495568,"DIS_CODE":0,"TOWNNAME":"善化區","LI":"光文里","LIN":"8鄰","STREET":"中山路","SECT":" ","MAREA":" ","LANE":" ","ALLEY":" ","HOUSE_NO":"１號","E_COORD97":178973.76000000001,"N_COORD97":2559217.75,"ADDRESS":"中山路１號","OBJECTID":495541},"geometry":{"x":178973.75999999978,"y":2559217.75}},{"attributes":{"ID":495569,"DIS_CODE":0,"TOWNNAME":"善化區","LI":"北關里","LIN":"8鄰","STREET":"進學路","SECT":" ","MAREA":" ","LANE":" ","ALLEY":" ","HOUSE_NO":"５４號","E_COORD97":177264.75,"N_COORD97":2559290.75,"ADDRESS":"進學路５４號","OBJECTID":495542},"geometry":{"x":177264.75000000093,"y":2559290.7500000019}},{"attributes":{"ID":495570,"DIS_CODE":0,"TOWNNAME":"善化區","LI":"西關里","LIN":"8鄰","STREET":"中山路","SECT":" ","MAREA":" ","LANE":" ","ALLEY":" ","HOUSE_NO":"５６５號","E_COORD97":177013.03,"N_COORD97":2559143,"ADDRESS":"中山路５６５號","OBJECTID":495543},"geometry":{"x":177013.02999999933,"y":2559143.0000000019}},{"attributes":{"ID":495571,"DIS_CODE":0,"TOWNNAME":"善化區","LI":"北關里","LIN":"8鄰","STREET":"博愛路","SECT":" ","MAREA":" ","LANE":" ","ALLEY":" ","HOUSE_NO":"１２號","E_COORD97":177262.48000000001,"N_COORD97":2559223.0099999998,"ADDRESS":"博愛路１２號","OBJECTID":495544},"geometry":{"x":177262.48000000045,"y":2559223.0100000035}},{"attributes":{"ID":495572,"DIS_CODE":0,"TOWNNAME":"善化區","LI":"北關里","LIN":"8鄰","STREET":"進學路","SECT":" ","MAREA":" ","LANE":" ","ALLEY":" ","HOUSE_NO":"３０號","E_COORD97":177308.95999999999,"N_COORD97":2559226.5,"ADDRESS":"進學路３０號","OBJECTID":495545},"geometry":{"x":177308.96000000089,"y":2559226.4999999981}},{"attributes":{"ID":495573,"DIS_CODE":0,"TOWNNAME":"善化區","LI":"北關里","LIN":"8鄰","STREET":"進學路","SECT":" ","MAREA":" ","LANE":" ","ALLEY":" ","HOUSE_NO":"２１號之４","E_COORD97":177268.17999999999,"N_COORD97":2559254.02,"ADDRESS":"進學路２１號之４","OBJECTID":495546},"geometry":{"x":177268.18000000063,"y":2559254.0200000014}},{"attributes":{"ID":495574,"DIS_CODE":0,"TOWNNAME":"善化區","LI":"光文里","LIN":"8鄰","STREET":"光文路","SECT":" ","MAREA":" ","LANE":" ","ALLEY":" ","HOUSE_NO":"１８之２號","E_COORD97":178999.06,"N_COORD97":2559338.0299999998,"ADDRESS":"光文路１８之２號","OBJECTID":495547},"geometry":{"x":178999.06000000145,"y":2559338.0300000012}},{"attributes":{"ID":495575,"DIS_CODE":0,"TOWNNAME":"善化區","LI":"北關里","LIN":"8鄰","STREET":"博愛路","SECT":" ","MAREA":" ","LANE":" ","ALLEY":" ","HOUSE_NO":"８號","E_COORD97":177269.66144200001,"N_COORD97":2559227.36913,"ADDRESS":"博愛路８號","OBJECTID":495548},"geometry":{"x":177269.66144200042,"y":2559227.3691350035}},{"attributes":{"ID":495576,"DIS_CODE":0,"TOWNNAME":"善化區","LI":"北關里","LIN":"8鄰","STREET":"進學路","SECT":" ","MAREA":" ","LANE":" ","ALLEY":" ","HOUSE_NO":"６０號","E_COORD97":177255.10999999999,"N_COORD97":2559302.5,"ADDRESS":"進學路６０號","OBJECTID":495549},"geometry":{"x":177255.1100000022,"y":2559302.5000000019}},{"attributes":{"ID":495577,"DIS_CODE":0,"TOWNNAME":"善化區","LI":"文昌里","LIN":"8鄰","STREET":"光復路","SECT":" ","MAREA":" ","LANE":" ","ALLEY":" ","HOUSE_NO":"１３２號","E_COORD97":177410.26000000001,"N_COORD97":2558658.5800000001,"ADDRESS":"光復路１３２號","OBJECTID":495550},"geometry":{"x":177410.25999999978,"y":2558658.5800000001}},{"attributes":{"ID":495578,"DIS_CODE":0,"TOWNNAME":"善化區","LI":"文昌里","LIN":"8鄰","STREET":"文昌路","SECT":" ","MAREA":" ","LANE":" ","ALLEY":" ","HOUSE_NO":"３３之６號","E_COORD97":177350.07999999999,"N_COORD97":2558738.2799999998,"ADDRESS":"文昌路３３之６號","OBJECTID":495551},"geometry":{"x":177350.08000000101,"y":2558738.2799999993}},{"attributes":{"ID":495579,"DIS_CODE":0,"TOWNNAME":"善化區","LI":"光文里","LIN":"8鄰","STREET":"中山路","SECT":" ","MAREA":" ","LANE":" ","ALLEY":" ","HOUSE_NO":"１２號","E_COORD97":178972.81,"N_COORD97":2559308.25,"ADDRESS":"中山路１２號","OBJECTID":495552},"geometry":{"x":178972.80999999959,"y":2559308.25}},{"attributes":{"ID":495580,"DIS_CODE":0,"TOWNNAME":"善化區","LI":"光文里","LIN":"8鄰","STREET":"中山路","SECT":" ","MAREA":" ","LANE":" ","ALLEY":" ","HOUSE_NO":"２號之２","E_COORD97":178973.17000000001,"N_COORD97":2559267.77,"ADDRESS":"中山路２號之２","OBJECTID":495553},"geometry":{"x":178973.17000000179,"y":2559267.7699999996}},{"attributes":{"ID":495581,"DIS_CODE":0,"TOWNNAME":"善化區","LI":"文昌里","LIN":"8鄰","STREET":"大同路","SECT":" ","MAREA":" ","LANE":" ","ALLEY":" ","HOUSE_NO":"２１６號","E_COORD97":177452.04999999999,"N_COORD97":2558709.25,"ADDRESS":"大同路２１６號","OBJECTID":495554},"geometry":{"x":177452.05000000075,"y":2558709.25}},{"attributes":{"ID":495582,"DIS_CODE":0,"TOWNNAME":"善化區","LI":"文昌里","LIN":"8鄰","STREET":"永福路","SECT":" ","MAREA":" ","LANE":" ","ALLEY":" ","HOUSE_NO":"９８號","E_COORD97":177363.16,"N_COORD97":2558836.25,"ADDRESS":"永福路９８號","OBJECTID":495555},"geometry":{"x":177363.16000000108,"y":2558836.2500000019}},{"attributes":{"ID":495583,"DIS_CODE":0,"TOWNNAME":"善化區","LI":"文昌里","LIN":"8鄰","STREET":"大同路","SECT":" ","MAREA":" ","LANE":" ","ALLEY":" ","HOUSE_NO":"２０７號","E_COORD97":177437.78,"N_COORD97":2558686,"ADDRESS":"大同路２０７號","OBJECTID":495556},"geometry":{"x":177437.78000000026,"y":2558686}},{"attributes":{"ID":495584,"DIS_CODE":0,"TOWNNAME":"善化區","LI":"文昌里","LIN":"8鄰","STREET":"大同路","SECT":" ","MAREA":" ","LANE":" ","ALLEY":" ","HOUSE_NO":"２１７號","E_COORD97":177428.20999999999,"N_COORD97":2558711,"ADDRESS":"大同路２１７號","OBJECTID":495557},"geometry":{"x":177428.20999999996,"y":2558711}},{"attributes":{"ID":495585,"DIS_CODE":0,"TOWNNAME":"善化區","LI":"文昌里","LIN":"8鄰","STREET":"文昌路","SECT":" ","MAREA":" ","LANE":" ","ALLEY":" ","HOUSE_NO":"２６之１１號","E_COORD97":177456.98000000001,"N_COORD97":2558796.0299999998,"ADDRESS":"文昌路２６之１１號","OBJECTID":495558},"geometry":{"x":177456.98000000045,"y":2558796.0300000012}},{"attributes":{"ID":495586,"DIS_CODE":0,"TOWNNAME":"善化區","LI":"文昌里","LIN":"8鄰","STREET":"文昌路","SECT":" ","MAREA":" ","LANE":" ","ALLEY":" ","HOUSE_NO":"３３之５號","E_COORD97":177354.22,"N_COORD97":2558739.5299999998,"ADDRESS":"文昌路３３之５號","OBJECTID":495559},"geometry":{"x":177354.22000000067,"y":2558739.5299999993}},{"attributes":{"ID":495587,"DIS_CODE":0,"TOWNNAME":"善化區","LI":"文昌里","LIN":"8鄰","STREET":"永福路","SECT":" ","MAREA":" ","LANE":" ","ALLEY":" ","HOUSE_NO":"１０６號","E_COORD97":177341.75,"N_COORD97":2558822.25,"ADDRESS":"永福路１０６號","OBJECTID":495560},"geometry":{"x":177341.75,"y":2558822.2500000019}},{"attributes":{"ID":495588,"DIS_CODE":0,"TOWNNAME":"善化區","LI":"光文里","LIN":"8鄰","STREET":"中山路","SECT":" ","MAREA":" ","LANE":" ","ALLEY":" ","HOUSE_NO":"２０號","E_COORD97":178958.59,"N_COORD97":2559245.75,"ADDRESS":"中山路２０號","OBJECTID":495561},"geometry":{"x":178958.59000000078,"y":2559245.7500000019}},{"attributes":{"ID":495589,"DIS_CODE":0,"TOWNNAME":"善化區","LI":"文昌里","LIN":"8鄰","STREET":"大同路","SECT":" ","MAREA":" ","LANE":" ","ALLEY":" ","HOUSE_NO":"２１５號","E_COORD97":177428.37,"N_COORD97":2558706.5,"ADDRESS":"大同路２１５號","OBJECTID":495562},"geometry":{"x":177428.37000000104,"y":2558706.5}},{"attributes":{"ID":495590,"DIS_CODE":0,"TOWNNAME":"善化區","LI":"文昌里","LIN":"8鄰","STREET":"大同路","SECT":" ","MAREA":" ","LANE":" ","ALLEY":" ","HOUSE_NO":"２２１號","E_COORD97":177426.10999999999,"N_COORD97":2558719.25,"ADDRESS":"大同路２２１號","OBJECTID":495563},"geometry":{"x":177426.11000000034,"y":2558719.25}},{"attributes":{"ID":495591,"DIS_CODE":0,"TOWNNAME":"善化區","LI":"光文里","LIN":"8鄰","STREET":"中山路","SECT":" ","MAREA":" ","LANE":" ","ALLEY":" ","HOUSE_NO":"８號（半毀）","E_COORD97":178982.28,"N_COORD97":2559306.5,"ADDRESS":"中山路８號（半毀）","OBJECTID":495564},"geometry":{"x":178982.28000000026,"y":2559306.5}},{"attributes":{"ID":495592,"DIS_CODE":0,"TOWNNAME":"善化區","LI":"文昌里","LIN":"8鄰","STREET":"永福路","SECT":" ","MAREA":" ","LANE":" ","ALLEY":" ","HOUSE_NO":"９７號","E_COORD97":177379.04999999999,"N_COORD97":2558810,"ADDRESS":"永福路９７號","OBJECTID":495565},"geometry":{"x":177379.05000000075,"y":2558810.0000000019}},{"attributes":{"ID":495593,"DIS_CODE":0,"TOWNNAME":"善化區","LI":"光文里","LIN":"8鄰","STREET":"中山路","SECT":" ","MAREA":" ","LANE":" ","ALLEY":" ","HOUSE_NO":"６號之１","E_COORD97":178998.12,"N_COORD97":2559313.27,"ADDRESS":"中山路６號之１","OBJECTID":495566},"geometry":{"x":178998.12000000104,"y":2559313.2700000014}},{"attributes":{"ID":495594,"DIS_CODE":0,"TOWNNAME":"善化區","LI":"文昌里","LIN":"8鄰","STREET":"永福路","SECT":" ","MAREA":" ","LANE":" ","ALLEY":" ","HOUSE_NO":"１０８號","E_COORD97":177336.35999999999,"N_COORD97":2558820.5,"ADDRESS":"永福路１０８號","OBJECTID":495567},"geometry":{"x":177336.3600000022,"y":2558820.5000000019}},{"attributes":{"ID":495595,"DIS_CODE":0,"TOWNNAME":"南區","LI":"喜北里","LIN":"10鄰","STREET":"喜樹路","SECT":" ","MAREA":" ","LANE":"１６８巷","ALLEY":"２弄","HOUSE_NO":"８號","E_COORD97":165803.88,"N_COORD97":2538258.0600000001,"ADDRESS":"喜樹路１６８巷２弄８號","OBJECTID":495568},"geometry":{"x":165803.88000000082,"y":2538258.0600000024}},{"attributes":{"ID":495596,"DIS_CODE":0,"TOWNNAME":"善化區","LI":"文正里","LIN":"8鄰","STREET":"文正路","SECT":" ","MAREA":" ","LANE":" ","ALLEY":" ","HOUSE_NO":"２７號","E_COORD97":176964.81,"N_COORD97":2559258.7799999998,"ADDRESS":"文正路２７號","OBJECTID":495569},"geometry":{"x":176964.81000000145,"y":2559258.7800000012}},{"attributes":{"ID":495597,"DIS_CODE":0,"TOWNNAME":"善化區","LI":"文昌里","LIN":"8鄰","STREET":"文昌路","SECT":" ","MAREA":" ","LANE":" ","ALLEY":" ","HOUSE_NO":"２８號之１","E_COORD97":177433.97,"N_COORD97":2558785.7799999998,"ADDRESS":"文昌路２８號之１","OBJECTID":495570},"geometry":{"x":177433.97000000067,"y":2558785.7799999993}},{"attributes":{"ID":495598,"DIS_CODE":0,"TOWNNAME":"善化區","LI":"文正里","LIN":"8鄰","STREET":"文正路","SECT":" ","MAREA":" ","LANE":" ","ALLEY":" ","HOUSE_NO":"５５號","E_COORD97":177002.06,"N_COORD97":2559253.5299999998,"ADDRESS":"文正路５５號","OBJECTID":495571},"geometry":{"x":177002.06000000145,"y":2559253.5300000012}},{"attributes":{"ID":495599,"DIS_CODE":0,"TOWNNAME":"善化區","LI":"文正里","LIN":"8鄰","STREET":"文正路","SECT":" ","MAREA":" ","LANE":" ","ALLEY":" ","HOUSE_NO":"３３號","E_COORD97":176990.51000000001,"N_COORD97":2559278.2799999998,"ADDRESS":"文正路３３號","OBJECTID":495572},"geometry":{"x":176990.50999999978,"y":2559278.2800000031}},{"attributes":{"ID":495600,"DIS_CODE":0,"TOWNNAME":"善化區","LI":"文昌里","LIN":"8鄰","STREET":"大同路","SECT":" ","MAREA":" ","LANE":" ","ALLEY":" ","HOUSE_NO":"２１８號","E_COORD97":177450.32000000001,"N_COORD97":2558713.5,"ADDRESS":"大同路２１８號","OBJECTID":495573},"geometry":{"x":177450.32000000216,"y":2558713.5}},{"attributes":{"ID":495601,"DIS_CODE":0,"TOWNNAME":"善化區","LI":"文昌里","LIN":"8鄰","STREET":"大同路","SECT":" ","MAREA":" ","LANE":" ","ALLEY":" ","HOUSE_NO":"２０５號","E_COORD97":177439.23999999999,"N_COORD97":2558681.5,"ADDRESS":"大同路２０５號","OBJECTID":495574},"geometry":{"x":177439.24000000115,"y":2558681.5000000019}},{"attributes":{"ID":495602,"DIS_CODE":0,"TOWNNAME":"善化區","LI":"文昌里","LIN":"8鄰","STREET":"大同路","SECT":" ","MAREA":" ","LANE":" ","ALLEY":" ","HOUSE_NO":"２０１號","E_COORD97":177442.69,"N_COORD97":2558670.75,"ADDRESS":"大同路２０１號","OBJECTID":495575},"geometry":{"x":177442.69000000227,"y":2558670.75}},{"attributes":{"ID":495603,"DIS_CODE":0,"TOWNNAME":"善化區","LI":"文昌里","LIN":"8鄰","STREET":"永福路","SECT":" ","MAREA":" ","LANE":" ","ALLEY":" ","HOUSE_NO":"１０４號","E_COORD97":177346.95999999999,"N_COORD97":2558824,"ADDRESS":"永福路１０４號","OBJECTID":495576},"geometry":{"x":177346.95999999996,"y":2558824.0000000019}},{"attributes":{"ID":495604,"DIS_CODE":0,"TOWNNAME":"善化區","LI":"文昌里","LIN":"8鄰","STREET":"文昌路","SECT":" ","MAREA":" ","LANE":" ","ALLEY":" ","HOUSE_NO":"３１號之１","E_COORD97":177374.85000000001,"N_COORD97":2558745.2799999998,"ADDRESS":"文昌路３１號之１","OBJECTID":495577},"geometry":{"x":177374.85000000149,"y":2558745.2799999993}},{"attributes":{"ID":495605,"DIS_CODE":0,"TOWNNAME":"善化區","LI":"文昌里","LIN":"8鄰","STREET":"文昌路","SECT":" ","MAREA":" ","LANE":" ","ALLEY":" ","HOUSE_NO":"３３之３號","E_COORD97":177362.54999999999,"N_COORD97":2558741.7799999998,"ADDRESS":"文昌路３３之３號","OBJECTID":495578},"geometry":{"x":177362.55000000075,"y":2558741.7799999993}},{"attributes":{"ID":495606,"DIS_CODE":0,"TOWNNAME":"善化區","LI":"光文里","LIN":"8鄰","STREET":"中山路","SECT":" ","MAREA":" ","LANE":" ","ALLEY":" ","HOUSE_NO":"６號（半毀）","E_COORD97":178987.76999999999,"N_COORD97":2559306.5,"ADDRESS":"中山路６號（半毀）","OBJECTID":495579},"geometry":{"x":178987.77000000048,"y":2559306.5}},{"attributes":{"ID":495607,"DIS_CODE":0,"TOWNNAME":"關廟區","LI":"五甲里","LIN":"21鄰","STREET":"大富街","SECT":" ","MAREA":" ","LANE":" ","ALLEY":" ","HOUSE_NO":"７７號","E_COORD97":181078.92000000001,"N_COORD97":2539130.25,"ADDRESS":"大富街７７號","OBJECTID":495580},"geometry":{"x":181078.92000000086,"y":2539130.2500000037}},{"attributes":{"ID":495608,"DIS_CODE":0,"TOWNNAME":"東區","LI":"裕聖里","LIN":"8鄰","STREET":"裕華三街","SECT":" ","MAREA":" ","LANE":" ","ALLEY":" ","HOUSE_NO":"６８號","E_COORD97":172760.28,"N_COORD97":2542028.2200000002,"ADDRESS":"裕華三街６８號","OBJECTID":495581},"geometry":{"x":172760.28000000119,"y":2542028.2200000025}},{"attributes":{"ID":495609,"DIS_CODE":0,"TOWNNAME":"永康區","LI":"尚頂里","LIN":"8鄰","STREET":"中正二街","SECT":" ","MAREA":" ","LANE":" ","ALLEY":" ","HOUSE_NO":"４９號","E_COORD97":170869.63,"N_COORD97":2547376.1400000001,"ADDRESS":"中正二街４９號","OBJECTID":495582},"geometry":{"x":170869.62999999989,"y":2547376.1400000006}},{"attributes":{"ID":495610,"DIS_CODE":0,"TOWNNAME":"永康區","LI":"西勢里","LIN":"8鄰","STREET":"富強路","SECT":"一段","MAREA":" ","LANE":" ","ALLEY":" ","HOUSE_NO":"３１３號","E_COORD97":175710.79999999999,"N_COORD97":2546673.5499999998,"ADDRESS":"富強路一段３１３號","OBJECTID":495583},"geometry":{"x":175710.80000000075,"y":2546673.5500000026}},{"attributes":{"ID":495611,"DIS_CODE":0,"TOWNNAME":"永康區","LI":"尚頂里","LIN":"8鄰","STREET":"中正二街","SECT":" ","MAREA":" ","LANE":" ","ALLEY":" ","HOUSE_NO":"３０號","E_COORD97":170875.28,"N_COORD97":2547357.52,"ADDRESS":"中正二街３０號","OBJECTID":495584},"geometry":{"x":170875.28000000119,"y":2547357.5200000014}},{"attributes":{"ID":495612,"DIS_CODE":0,"TOWNNAME":"永康區","LI":"尚頂里","LIN":"8鄰","STREET":"正南一街","SECT":" ","MAREA":" ","LANE":" ","ALLEY":" ","HOUSE_NO":"１２０號","E_COORD97":170878.44,"N_COORD97":2547268.02,"ADDRESS":"正南一街１２０號","OBJECTID":495585},"geometry":{"x":170878.44000000041,"y":2547268.0199999977}},{"attributes":{"ID":495613,"DIS_CODE":0,"TOWNNAME":"永康區","LI":"尚頂里","LIN":"8鄰","STREET":"中正二街","SECT":" ","MAREA":" ","LANE":" ","ALLEY":" ","HOUSE_NO":"１８號","E_COORD97":170830.66,"N_COORD97":2547322.6000000001,"ADDRESS":"中正二街１８號","OBJECTID":495586},"geometry":{"x":170830.66000000015,"y":2547322.6000000015}},{"attributes":{"ID":495614,"DIS_CODE":0,"TOWNNAME":"永康區","LI":"尚頂里","LIN":"8鄰","STREET":"中正二街","SECT":" ","MAREA":" ","LANE":" ","ALLEY":" ","HOUSE_NO":"５２號","E_COORD97":170979.60999999999,"N_COORD97":2547429.4500000002,"ADDRESS":"中正二街５２號","OBJECTID":495587},"geometry":{"x":170979.61000000127,"y":2547429.4499999993}},{"attributes":{"ID":495615,"DIS_CODE":0,"TOWNNAME":"永康區","LI":"尚頂里","LIN":"8鄰","STREET":"中正二街","SECT":" ","MAREA":" ","LANE":" ","ALLEY":" ","HOUSE_NO":"２２號","E_COORD97":170848.22,"N_COORD97":2547336.2599999998,"ADDRESS":"中正二街２２號","OBJECTID":495588},"geometry":{"x":170848.22000000067,"y":2547336.2600000016}},{"attributes":{"ID":495616,"DIS_CODE":0,"TOWNNAME":"永康區","LI":"尚頂里","LIN":"8鄰","STREET":"中正二街","SECT":" ","MAREA":" ","LANE":" ","ALLEY":" ","HOUSE_NO":"２０號","E_COORD97":170837.28,"N_COORD97":2547328.6000000001,"ADDRESS":"中正二街２０號","OBJECTID":495589},"geometry":{"x":170837.28000000026,"y":2547328.5999999978}},{"attributes":{"ID":495617,"DIS_CODE":0,"TOWNNAME":"永康區","LI":"\u25A0行里","LIN":"8鄰","STREET":"中正五街","SECT":" ","MAREA":" ","LANE":" ","ALLEY":" ","HOUSE_NO":"６５號","E_COORD97":172756.84,"N_COORD97":2548481.5,"ADDRESS":"中正五街６５號","OBJECTID":495590},"geometry":{"x":172756.83999999985,"y":2548481.5}},{"attributes":{"ID":495618,"DIS_CODE":0,"TOWNNAME":"永康區","LI":"\u25A0行里","LIN":"8鄰","STREET":"中正五街","SECT":" ","MAREA":" ","LANE":" ","ALLEY":" ","HOUSE_NO":"９２號","E_COORD97":172879.54999999999,"N_COORD97":2548461.75,"ADDRESS":"中正五街９２號","OBJECTID":495591},"geometry":{"x":172879.54999999888,"y":2548461.7500000019}},{"attributes":{"ID":495619,"DIS_CODE":0,"TOWNNAME":"永康區","LI":"\u25A0行里","LIN":"8鄰","STREET":"中正五街","SECT":" ","MAREA":" ","LANE":" ","ALLEY":" ","HOUSE_NO":"８８號","E_COORD97":172849.01999999999,"N_COORD97":2548454.7400000002,"ADDRESS":"中正五街８８號","OBJECTID":495592},"geometry":{"x":172849.02000000142,"y":2548454.7400000021}},{"attributes":{"ID":495620,"DIS_CODE":0,"TOWNNAME":"永康區","LI":"\u25A0行里","LIN":"8鄰","STREET":"中正五街","SECT":" ","MAREA":" ","LANE":" ","ALLEY":" ","HOUSE_NO":"７３號","E_COORD97":172818.34,"N_COORD97":2548481.25,"ADDRESS":"中正五街７３號","OBJECTID":495593},"geometry":{"x":172818.34000000171,"y":2548481.2500000019}},{"attributes":{"ID":495621,"DIS_CODE":0,"TOWNNAME":"永康區","LI":"\u25A0行里","LIN":"8鄰","STREET":"中正五街","SECT":" ","MAREA":" ","LANE":" ","ALLEY":" ","HOUSE_NO":"６８號","E_COORD97":172708.34,"N_COORD97":2548440.9900000002,"ADDRESS":"中正五街６８號","OBJECTID":495594},"geometry":{"x":172708.34000000078,"y":2548440.9900000002}},{"attributes":{"ID":495622,"DIS_CODE":0,"TOWNNAME":"善化區","LI":"南關里","LIN":"8鄰","STREET":"三民路","SECT":" ","MAREA":" ","LANE":" ","ALLEY":" ","HOUSE_NO":"２３號","E_COORD97":177058.878635,"N_COORD97":2558862.3001700002,"ADDRESS":"三民路２３號","OBJECTID":495595},"geometry":{"x":177058.87863500137,"y":2558862.3001710027}},{"attributes":{"ID":495623,"DIS_CODE":0,"TOWNNAME":"永康區","LI":"蔦松里","LIN":"8鄰","STREET":"蔦松二街","SECT":" ","MAREA":" ","LANE":" ","ALLEY":" ","HOUSE_NO":"１５號","E_COORD97":173635.67999999999,"N_COORD97":2549170.0699999998,"ADDRESS":"蔦松二街１５號","OBJECTID":495596},"geometry":{"x":173635.6799999997,"y":2549170.0700000003}},{"attributes":{"ID":495624,"DIS_CODE":0,"TOWNNAME":"永康區","LI":"蔦松里","LIN":"8鄰","STREET":"蔦松二街","SECT":" ","MAREA":" ","LANE":" ","ALLEY":" ","HOUSE_NO":"３號","E_COORD97":173516.14999999999,"N_COORD97":2549022.75,"ADDRESS":"蔦松二街３號","OBJECTID":495597},"geometry":{"x":173516.15000000037,"y":2549022.75}},{"attributes":{"ID":495625,"DIS_CODE":0,"TOWNNAME":"永康區","LI":"\u25A0行里","LIN":"8鄰","STREET":"中正一街","SECT":" ","MAREA":" ","LANE":" ","ALLEY":" ","HOUSE_NO":"４６號","E_COORD97":172785.34,"N_COORD97":2548388,"ADDRESS":"中正一街４６號","OBJECTID":495598},"geometry":{"x":172785.33999999985,"y":2548388.0000000019}},{"attributes":{"ID":495626,"DIS_CODE":0,"TOWNNAME":"麻豆區","LI":"\u25A0江里","LIN":"8鄰","STREET":"建南街","SECT":" ","MAREA":" ","LANE":" ","ALLEY":" ","HOUSE_NO":"２００號","E_COORD97":173484.51000000001,"N_COORD97":2564274.04,"ADDRESS":"建南街２００號","OBJECTID":495599},"geometry":{"x":173484.50999999978,"y":2564274.040000001}},{"attributes":{"ID":495627,"DIS_CODE":0,"TOWNNAME":"麻豆區","LI":"\u25A0江里","LIN":"8鄰","STREET":"建南街","SECT":" ","MAREA":" ","LANE":" ","ALLEY":" ","HOUSE_NO":"２０２號","E_COORD97":173488.29999999999,"N_COORD97":2564274.6600000001,"ADDRESS":"建南街２０２號","OBJECTID":495600},"geometry":{"x":173488.30000000168,"y":2564274.660000002}}]}