{"displayFieldName":"TOWNNAME","fieldAliases":{"ID":"ID","DIS_CODE":"DIS_CODE","TOWNNAME":"TOWNNAME","LI":"LI","LIN":"LIN","STREET":"STREET","SECT":"SECT","MAREA":"MAREA","LANE":"LANE","ALLEY":"ALLEY","HOUSE_NO":"HOUSE_NO","E_COORD97":"E_COORD97","N_COORD97":"N_COORD97","ADDRESS":"ADDRESS","OBJECTID":"OBJECTID"},"geometryType":"esriGeometryPoint","spatialReference":{"wkid":102443,"latestWkid":3826},"fields":[{"name":"ID","type":"esriFieldTypeDouble","alias":"ID"},{"name":"DIS_CODE","type":"esriFieldTypeInteger","alias":"DIS_CODE"},{"name":"TOWNNAME","type":"esriFieldTypeString","alias":"TOWNNAME","length":8},{"name":"LI","type":"esriFieldTypeString","alias":"LI","length":8},{"name":"LIN","type":"esriFieldTypeString","alias":"LIN","length":12},{"name":"STREET","type":"esriFieldTypeString","alias":"STREET","length":20},{"name":"SECT","type":"esriFieldTypeString","alias":"SECT","length":8},{"name":"MAREA","type":"esriFieldTypeString","alias":"MAREA","length":12},{"name":"LANE","type":"esriFieldTypeString","alias":"LANE","length":10},{"name":"ALLEY","type":"esriFieldTypeString","alias":"ALLEY","length":10},{"name":"HOUSE_NO","type":"esriFieldTypeString","alias":"HOUSE_NO","length":20},{"name":"E_COORD97","type":"esriFieldTypeDouble","alias":"E_COORD97"},{"name":"N_COORD97","type":"esriFieldTypeDouble","alias":"N_COORD97"},{"name":"ADDRESS","type":"esriFieldTypeString","alias":"ADDRESS","length":50},{"name":"OBJECTID","type":"esriFieldTypeOID","alias":"OBJECTID"}],"features":[{"attributes":{"ID":223205,"DIS_CODE":0,"TOWNNAME":"永康區","LI":"永康里","LIN":"28鄰","STREET":"永平街","SECT":" ","MAREA":" ","LANE":"４６９巷","ALLEY":" ","HOUSE_NO":"１９號","E_COORD97":174152.69,"N_COORD97":2546902.2200000002,"ADDRESS":"永平街４６９巷１９號","OBJECTID":223201},"geometry":{"x":174152.69000000134,"y":2546902.2200000025}},{"attributes":{"ID":223206,"DIS_CODE":0,"TOWNNAME":"永康區","LI":"甲頂里","LIN":"28鄰","STREET":"中央路","SECT":" ","MAREA":" ","LANE":"２３巷","ALLEY":" ","HOUSE_NO":"５４號","E_COORD97":169431.85999999999,"N_COORD97":2546952.9399999999,"ADDRESS":"中央路２３巷５４號","OBJECTID":223202},"geometry":{"x":169431.8600000022,"y":2546952.9399999995}},{"attributes":{"ID":223207,"DIS_CODE":0,"TOWNNAME":"東區","LI":"圍下里","LIN":"6鄰","STREET":"青年路","SECT":" ","MAREA":" ","LANE":" ","ALLEY":" ","HOUSE_NO":"４５３號之１","E_COORD97":169711.22,"N_COORD97":2543542.1400000001,"ADDRESS":"青年路４５３號之１","OBJECTID":223203},"geometry":{"x":169711.21999999974,"y":2543542.1400000006}},{"attributes":{"ID":223208,"DIS_CODE":0,"TOWNNAME":"北區","LI":"長榮里","LIN":"1鄰","STREET":" ","SECT":" ","MAREA":"富台","LANE":" ","ALLEY":" ","HOUSE_NO":"７號","E_COORD97":170200.70999999999,"N_COORD97":2545406.6200000001,"ADDRESS":"富台７號","OBJECTID":223204},"geometry":{"x":170200.71000000089,"y":2545406.620000001}},{"attributes":{"ID":223209,"DIS_CODE":0,"TOWNNAME":"東區","LI":"忠孝里","LIN":"28鄰","STREET":"中華東路","SECT":"三段","MAREA":" ","LANE":"４５２巷","ALLEY":" ","HOUSE_NO":"３號","E_COORD97":169900.34,"N_COORD97":2541560.1200000001,"ADDRESS":"中華東路三段４５２巷３號","OBJECTID":223205},"geometry":{"x":169900.33999999985,"y":2541560.1200000029}},{"attributes":{"ID":223210,"DIS_CODE":0,"TOWNNAME":"安南區","LI":"溪頂里","LIN":"28鄰","STREET":"郡安路","SECT":"四段","MAREA":" ","LANE":"２７８巷","ALLEY":" ","HOUSE_NO":"１７號","E_COORD97":168588.64000000001,"N_COORD97":2547583.4199999999,"ADDRESS":"郡安路四段２７８巷１７號","OBJECTID":223206},"geometry":{"x":168588.6400000006,"y":2547583.4199999999}},{"attributes":{"ID":223211,"DIS_CODE":0,"TOWNNAME":"安平區","LI":"平安里","LIN":"1鄰","STREET":"安平路","SECT":" ","MAREA":" ","LANE":" ","ALLEY":" ","HOUSE_NO":"６２號","E_COORD97":166463.41,"N_COORD97":2544314.73,"ADDRESS":"安平路６２號","OBJECTID":223207},"geometry":{"x":166463.41000000108,"y":2544314.7300000042}},{"attributes":{"ID":223212,"DIS_CODE":0,"TOWNNAME":"安平區","LI":"平安里","LIN":"1鄰","STREET":"安平路","SECT":" ","MAREA":" ","LANE":" ","ALLEY":" ","HOUSE_NO":"６４號","E_COORD97":166457.87,"N_COORD97":2544315.6800000002,"ADDRESS":"安平路６４號","OBJECTID":223208},"geometry":{"x":166457.87000000011,"y":2544315.6800000016}},{"attributes":{"ID":223213,"DIS_CODE":0,"TOWNNAME":"安南區","LI":"溪頂里","LIN":"28鄰","STREET":"郡安路","SECT":"四段","MAREA":" ","LANE":"２７８巷","ALLEY":" ","HOUSE_NO":"１９號","E_COORD97":168589.60999999999,"N_COORD97":2547577.7799999998,"ADDRESS":"郡安路四段２７８巷１９號","OBJECTID":223209},"geometry":{"x":168589.61000000127,"y":2547577.7799999993}},{"attributes":{"ID":223214,"DIS_CODE":0,"TOWNNAME":"安平區","LI":"平安里","LIN":"1鄰","STREET":"安平路","SECT":" ","MAREA":" ","LANE":" ","ALLEY":" ","HOUSE_NO":"４４號","E_COORD97":166530.12,"N_COORD97":2544311.3999999999,"ADDRESS":"安平路４４號","OBJECTID":223210},"geometry":{"x":166530.12000000104,"y":2544311.4000000022}},{"attributes":{"ID":223215,"DIS_CODE":0,"TOWNNAME":"安南區","LI":"原佃里","LIN":"1鄰","STREET":"本原街","SECT":"一段","MAREA":" ","LANE":" ","ALLEY":" ","HOUSE_NO":"１３０號","E_COORD97":167924.10999999999,"N_COORD97":2550167.1099999999,"ADDRESS":"本原街一段１３０號","OBJECTID":223211},"geometry":{"x":167924.11000000034,"y":2550167.1100000013}},{"attributes":{"ID":223216,"DIS_CODE":0,"TOWNNAME":"安南區","LI":"安慶里","LIN":"1鄰","STREET":"長溪路","SECT":"一段","MAREA":" ","LANE":" ","ALLEY":" ","HOUSE_NO":"２７０號","E_COORD97":168833.32000000001,"N_COORD97":2548743.7599999998,"ADDRESS":"長溪路一段２７０號","OBJECTID":223212},"geometry":{"x":168833.3200000003,"y":2548743.7599999998}},{"attributes":{"ID":223217,"DIS_CODE":0,"TOWNNAME":"安南區","LI":"溪頂里","LIN":"28鄰","STREET":"郡安路","SECT":"四段","MAREA":" ","LANE":"２７８巷","ALLEY":" ","HOUSE_NO":"２１號","E_COORD97":168590.20000000001,"N_COORD97":2547573.1099999999,"ADDRESS":"郡安路四段２７８巷２１號","OBJECTID":223213},"geometry":{"x":168590.20000000205,"y":2547573.1100000013}},{"attributes":{"ID":223218,"DIS_CODE":0,"TOWNNAME":"安南區","LI":"布袋里","LIN":"1鄰","STREET":"工明南一路","SECT":" ","MAREA":" ","LANE":" ","ALLEY":" ","HOUSE_NO":"２０號","E_COORD97":168989.62,"N_COORD97":2551066.75,"ADDRESS":"工明南一路２０號","OBJECTID":223214},"geometry":{"x":168989.62000000104,"y":2551066.75}},{"attributes":{"ID":223219,"DIS_CODE":0,"TOWNNAME":"安南區","LI":"溪心里","LIN":"1鄰","STREET":"安中路","SECT":"三段","MAREA":" ","LANE":" ","ALLEY":" ","HOUSE_NO":"４３之５號","E_COORD97":166241.31,"N_COORD97":2549755.21,"ADDRESS":"安中路三段４３之５號","OBJECTID":223215},"geometry":{"x":166241.31000000052,"y":2549755.2100000009}},{"attributes":{"ID":223220,"DIS_CODE":0,"TOWNNAME":"安南區","LI":"溪頂里","LIN":"28鄰","STREET":"郡安路","SECT":"四段","MAREA":" ","LANE":"２７８巷","ALLEY":" ","HOUSE_NO":"２３號","E_COORD97":168590.78,"N_COORD97":2547567.48,"ADDRESS":"郡安路四段２７８巷２３號","OBJECTID":223216},"geometry":{"x":168590.78000000026,"y":2547567.4800000004}},{"attributes":{"ID":223221,"DIS_CODE":0,"TOWNNAME":"安南區","LI":"溪頂里","LIN":"28鄰","STREET":"郡安路","SECT":"四段","MAREA":" ","LANE":"２７８巷","ALLEY":" ","HOUSE_NO":"２５號","E_COORD97":168591.17000000001,"N_COORD97":2547562.6200000001,"ADDRESS":"郡安路四段２７８巷２５號","OBJECTID":223217},"geometry":{"x":168591.16999999993,"y":2547562.620000001}},{"attributes":{"ID":223222,"DIS_CODE":0,"TOWNNAME":"安南區","LI":"溪頂里","LIN":"28鄰","STREET":"郡安路","SECT":"四段","MAREA":" ","LANE":"２７８巷","ALLEY":" ","HOUSE_NO":"２７號","E_COORD97":168591.95000000001,"N_COORD97":2547557.3700000001,"ADDRESS":"郡安路四段２７８巷２７號","OBJECTID":223218},"geometry":{"x":168591.95000000205,"y":2547557.370000001}},{"attributes":{"ID":223223,"DIS_CODE":0,"TOWNNAME":"西港區","LI":"慶安里","LIN":"28鄰","STREET":"新興街","SECT":" ","MAREA":" ","LANE":"１５巷","ALLEY":" ","HOUSE_NO":"２號","E_COORD97":168203.14999999999,"N_COORD97":2557782.96,"ADDRESS":"新興街１５巷２號","OBJECTID":223219},"geometry":{"x":168203.1500000013,"y":2557782.9600000009}},{"attributes":{"ID":223224,"DIS_CODE":0,"TOWNNAME":"東區","LI":"圍下里","LIN":"6鄰","STREET":"青年路","SECT":" ","MAREA":" ","LANE":" ","ALLEY":" ","HOUSE_NO":"４５５號之２","E_COORD97":169741.01000000001,"N_COORD97":2543540.3599999999,"ADDRESS":"青年路４５５號之２","OBJECTID":223220},"geometry":{"x":169741.01000000071,"y":2543540.3600000013}},{"attributes":{"ID":223225,"DIS_CODE":0,"TOWNNAME":"東區","LI":"圍下里","LIN":"6鄰","STREET":"青年路","SECT":" ","MAREA":" ","LANE":" ","ALLEY":" ","HOUSE_NO":"４５７號之３","E_COORD97":169703.28,"N_COORD97":2543560.0899999999,"ADDRESS":"青年路４５７號之３","OBJECTID":223221},"geometry":{"x":169703.28000000026,"y":2543560.0900000017}},{"attributes":{"ID":223226,"DIS_CODE":0,"TOWNNAME":"東區","LI":"圍下里","LIN":"6鄰","STREET":"青年路","SECT":" ","MAREA":" ","LANE":" ","ALLEY":" ","HOUSE_NO":"４５９號之１","E_COORD97":169724.01000000001,"N_COORD97":2543558.7999999998,"ADDRESS":"青年路４５９號之１","OBJECTID":223222},"geometry":{"x":169724.01000000071,"y":2543558.8000000026}},{"attributes":{"ID":223227,"DIS_CODE":0,"TOWNNAME":"東區","LI":"圍下里","LIN":"6鄰","STREET":"青年路","SECT":" ","MAREA":" ","LANE":" ","ALLEY":" ","HOUSE_NO":"４６１號之１","E_COORD97":169743.28,"N_COORD97":2543557.3399999999,"ADDRESS":"青年路４６１號之１","OBJECTID":223223},"geometry":{"x":169743.28000000119,"y":2543557.3400000036}},{"attributes":{"ID":223228,"DIS_CODE":0,"TOWNNAME":"永康區","LI":"西灣里","LIN":"28鄰","STREET":"公園路","SECT":" ","MAREA":" ","LANE":"７巷","ALLEY":" ","HOUSE_NO":"３８號","E_COORD97":174452.91,"N_COORD97":2545888.3999999999,"ADDRESS":"公園路７巷３８號","OBJECTID":223224},"geometry":{"x":174452.91000000108,"y":2545888.4000000004}},{"attributes":{"ID":223229,"DIS_CODE":0,"TOWNNAME":"永康區","LI":"西灣里","LIN":"28鄰","STREET":"公園路","SECT":" ","MAREA":" ","LANE":"６３巷","ALLEY":" ","HOUSE_NO":"３１號","E_COORD97":174369.73999999999,"N_COORD97":2545883.3799999999,"ADDRESS":"公園路６３巷３１號","OBJECTID":223225},"geometry":{"x":174369.74000000022,"y":2545883.3800000008}},{"attributes":{"ID":223230,"DIS_CODE":0,"TOWNNAME":"永康區","LI":"\u25A0行里","LIN":"28鄰","STREET":"中正三街","SECT":" ","MAREA":" ","LANE":"４５５巷","ALLEY":" ","HOUSE_NO":"８號","E_COORD97":173056.17999999999,"N_COORD97":2548563.4900000002,"ADDRESS":"中正三街４５５巷８號","OBJECTID":223226},"geometry":{"x":173056.1799999997,"y":2548563.4900000002}},{"attributes":{"ID":223231,"DIS_CODE":0,"TOWNNAME":"永康區","LI":"龍潭里","LIN":"28鄰","STREET":"中山北路","SECT":" ","MAREA":" ","LANE":"３８５巷","ALLEY":" ","HOUSE_NO":"２２號之３","E_COORD97":174896.06,"N_COORD97":2547780.9500000002,"ADDRESS":"中山北路３８５巷２２號之３","OBJECTID":223227},"geometry":{"x":174896.05999999959,"y":2547780.9500000011}},{"attributes":{"ID":223232,"DIS_CODE":0,"TOWNNAME":"永康區","LI":"\u25A0行里","LIN":"28鄰","STREET":"中正三街","SECT":" ","MAREA":" ","LANE":"４５５巷","ALLEY":" ","HOUSE_NO":"１３號","E_COORD97":173089.23000000001,"N_COORD97":2548578.7400000002,"ADDRESS":"中正三街４５５巷１３號","OBJECTID":223228},"geometry":{"x":173089.23000000231,"y":2548578.7400000002}},{"attributes":{"ID":223233,"DIS_CODE":0,"TOWNNAME":"東區","LI":"圍下里","LIN":"2鄰","STREET":"青年路","SECT":" ","MAREA":" ","LANE":" ","ALLEY":" ","HOUSE_NO":"４０６號","E_COORD97":169664.47,"N_COORD97":2543518.04,"ADDRESS":"青年路４０６號","OBJECTID":223229},"geometry":{"x":169664.47000000067,"y":2543518.0400000028}},{"attributes":{"ID":223234,"DIS_CODE":0,"TOWNNAME":"安南區","LI":"東和里","LIN":"1鄰","STREET":"長和路","SECT":"一段","MAREA":" ","LANE":"８４５巷","ALLEY":" ","HOUSE_NO":"８號","E_COORD97":170817.95999999999,"N_COORD97":2551412.1499999999,"ADDRESS":"長和路一段８４５巷８號","OBJECTID":223230},"geometry":{"x":170817.96000000089,"y":2551412.1500000022}},{"attributes":{"ID":223235,"DIS_CODE":0,"TOWNNAME":"安南區","LI":"東和里","LIN":"1鄰","STREET":"長和路","SECT":"一段","MAREA":" ","LANE":"８４５巷","ALLEY":" ","HOUSE_NO":"２０號","E_COORD97":170807.42000000001,"N_COORD97":2551396.8300000001,"ADDRESS":"長和路一段８４５巷２０號","OBJECTID":223231},"geometry":{"x":170807.42000000179,"y":2551396.8300000019}},{"attributes":{"ID":223236,"DIS_CODE":0,"TOWNNAME":"安南區","LI":"東和里","LIN":"1鄰","STREET":"長和路","SECT":"一段","MAREA":" ","LANE":"８７１巷","ALLEY":" ","HOUSE_NO":"１３號","E_COORD97":170766.78,"N_COORD97":2551452.4700000002,"ADDRESS":"長和路一段８７１巷１３號","OBJECTID":223232},"geometry":{"x":170766.78000000119,"y":2551452.4700000007}},{"attributes":{"ID":223237,"DIS_CODE":0,"TOWNNAME":"安南區","LI":"東和里","LIN":"1鄰","STREET":"長和路","SECT":"一段","MAREA":" ","LANE":"８７１巷","ALLEY":" ","HOUSE_NO":"４３號","E_COORD97":170753.42000000001,"N_COORD97":2551377.27,"ADDRESS":"長和路一段８７１巷４３號","OBJECTID":223233},"geometry":{"x":170753.42000000086,"y":2551377.2700000014}},{"attributes":{"ID":223238,"DIS_CODE":0,"TOWNNAME":"安南區","LI":"東和里","LIN":"1鄰","STREET":"長和路","SECT":"一段","MAREA":" ","LANE":"８７１巷","ALLEY":" ","HOUSE_NO":"３７號","E_COORD97":170745.62,"N_COORD97":2551404.6499999999,"ADDRESS":"長和路一段８７１巷３７號","OBJECTID":223234},"geometry":{"x":170745.62000000104,"y":2551404.6500000041}},{"attributes":{"ID":223239,"DIS_CODE":0,"TOWNNAME":"安南區","LI":"東和里","LIN":"1鄰","STREET":"長和路","SECT":"一段","MAREA":" ","LANE":"８７１巷","ALLEY":" ","HOUSE_NO":"３６號","E_COORD97":170700.64999999999,"N_COORD97":2551474.0299999998,"ADDRESS":"長和路一段８７１巷３６號","OBJECTID":223235},"geometry":{"x":170700.65000000037,"y":2551474.0299999993}},{"attributes":{"ID":223240,"DIS_CODE":0,"TOWNNAME":"安南區","LI":"東和里","LIN":"1鄰","STREET":"長和路","SECT":"一段","MAREA":" ","LANE":"８７１巷","ALLEY":" ","HOUSE_NO":"２９號","E_COORD97":170732.63,"N_COORD97":2551431.0899999999,"ADDRESS":"長和路一段８７１巷２９號","OBJECTID":223236},"geometry":{"x":170732.62999999989,"y":2551431.0899999999}},{"attributes":{"ID":223241,"DIS_CODE":0,"TOWNNAME":"安南區","LI":"東和里","LIN":"1鄰","STREET":"長和路","SECT":"一段","MAREA":" ","LANE":"８７１巷","ALLEY":" ","HOUSE_NO":"２６號","E_COORD97":170731.67000000001,"N_COORD97":2551481.96,"ADDRESS":"長和路一段８７１巷２６號","OBJECTID":223237},"geometry":{"x":170731.67000000086,"y":2551481.9600000028}},{"attributes":{"ID":223242,"DIS_CODE":0,"TOWNNAME":"安南區","LI":"東和里","LIN":"1鄰","STREET":"長和路","SECT":"一段","MAREA":" ","LANE":"８７１巷","ALLEY":" ","HOUSE_NO":"２０號","E_COORD97":170740.57000000001,"N_COORD97":2551462.7999999998,"ADDRESS":"長和路一段８７１巷２０號","OBJECTID":223238},"geometry":{"x":170740.56999999937,"y":2551462.8000000026}},{"attributes":{"ID":223243,"DIS_CODE":0,"TOWNNAME":"永康區","LI":"龍潭里","LIN":" ","STREET":"龍潭街","SECT":" ","MAREA":" ","LANE":" ","ALLEY":" ","HOUSE_NO":"４０號","E_COORD97":174746.89000000001,"N_COORD97":2547791.2000000002,"ADDRESS":"龍潭街４０號","OBJECTID":223239},"geometry":{"x":174746.89000000153,"y":2547791.1999999993}},{"attributes":{"ID":223244,"DIS_CODE":0,"TOWNNAME":"安南區","LI":"東和里","LIN":"1鄰","STREET":"長和路","SECT":"一段","MAREA":" ","LANE":"８７１巷","ALLEY":" ","HOUSE_NO":"１９號","E_COORD97":170752.10999999999,"N_COORD97":2551440.9399999999,"ADDRESS":"長和路一段８７１巷１９號","OBJECTID":223240},"geometry":{"x":170752.11000000034,"y":2551440.9399999995}},{"attributes":{"ID":223245,"DIS_CODE":0,"TOWNNAME":"安南區","LI":"東和里","LIN":"1鄰","STREET":"長和路","SECT":"一段","MAREA":" ","LANE":" ","ALLEY":" ","HOUSE_NO":"８５９號","E_COORD97":170800.69,"N_COORD97":2551456.1800000002,"ADDRESS":"長和路一段８５９號","OBJECTID":223241},"geometry":{"x":170800.69000000041,"y":2551456.1799999997}},{"attributes":{"ID":223246,"DIS_CODE":0,"TOWNNAME":"安南區","LI":"東和里","LIN":"1鄰","STREET":"長和路","SECT":"一段","MAREA":" ","LANE":" ","ALLEY":" ","HOUSE_NO":"８４９號","E_COORD97":170823.53,"N_COORD97":2551448.25,"ADDRESS":"長和路一段８４９號","OBJECTID":223242},"geometry":{"x":170823.53000000026,"y":2551448.2500000019}},{"attributes":{"ID":223247,"DIS_CODE":0,"TOWNNAME":"安南區","LI":"東和里","LIN":"1鄰","STREET":"長和路","SECT":"一段","MAREA":" ","LANE":" ","ALLEY":" ","HOUSE_NO":"８８７號","E_COORD97":170744.42000000001,"N_COORD97":2551487.0699999998,"ADDRESS":"長和路一段８８７號","OBJECTID":223243},"geometry":{"x":170744.41999999993,"y":2551487.0700000022}},{"attributes":{"ID":223248,"DIS_CODE":0,"TOWNNAME":"永康區","LI":"\u25A0洲里","LIN":"28鄰","STREET":"洲尾街","SECT":" ","MAREA":" ","LANE":"１５２巷","ALLEY":" ","HOUSE_NO":"４５號","E_COORD97":171129.85000000001,"N_COORD97":2549094.25,"ADDRESS":"洲尾街１５２巷４５號","OBJECTID":223244},"geometry":{"x":171129.85000000056,"y":2549094.25}},{"attributes":{"ID":223249,"DIS_CODE":0,"TOWNNAME":"永康區","LI":"龍潭里","LIN":"28鄰","STREET":"中山北路","SECT":" ","MAREA":" ","LANE":"３８５巷","ALLEY":" ","HOUSE_NO":"１５號","E_COORD97":174862.23999999999,"N_COORD97":2547773.4100000001,"ADDRESS":"中山北路３８５巷１５號","OBJECTID":223245},"geometry":{"x":174862.24000000209,"y":2547773.4100000001}},{"attributes":{"ID":223250,"DIS_CODE":0,"TOWNNAME":"永康區","LI":"復興里","LIN":"28鄰","STREET":"興國街","SECT":" ","MAREA":" ","LANE":"１７６巷","ALLEY":" ","HOUSE_NO":"５號","E_COORD97":172369.51000000001,"N_COORD97":2544913.7400000002,"ADDRESS":"興國街１７６巷５號","OBJECTID":223246},"geometry":{"x":172369.50999999885,"y":2544913.7400000002}},{"attributes":{"ID":223251,"DIS_CODE":0,"TOWNNAME":"永康區","LI":"復興里","LIN":"28鄰","STREET":"興國街","SECT":" ","MAREA":" ","LANE":"１７６巷","ALLEY":" ","HOUSE_NO":"３號","E_COORD97":172366.03,"N_COORD97":2544913.7400000002,"ADDRESS":"興國街１７６巷３號","OBJECTID":223247},"geometry":{"x":172366.03000000026,"y":2544913.7400000002}},{"attributes":{"ID":223252,"DIS_CODE":0,"TOWNNAME":"永康區","LI":"龍潭里","LIN":"28鄰","STREET":"中山北路","SECT":" ","MAREA":" ","LANE":"３８５巷","ALLEY":" ","HOUSE_NO":"８號","E_COORD97":174875.95000000001,"N_COORD97":2547746.1600000001,"ADDRESS":"中山北路３８５巷８號","OBJECTID":223248},"geometry":{"x":174875.95000000205,"y":2547746.1600000039}},{"attributes":{"ID":223253,"DIS_CODE":0,"TOWNNAME":"永康區","LI":"復華里","LIN":"28鄰","STREET":"復華八街","SECT":" ","MAREA":" ","LANE":"４１巷","ALLEY":" ","HOUSE_NO":"１８號","E_COORD97":172700.44,"N_COORD97":2546286.1699999999,"ADDRESS":"復華八街４１巷１８號","OBJECTID":223249},"geometry":{"x":172700.44000000134,"y":2546286.1699999999}},{"attributes":{"ID":223254,"DIS_CODE":0,"TOWNNAME":"永康區","LI":"復華里","LIN":"28鄰","STREET":"復華八街","SECT":" ","MAREA":" ","LANE":"４１巷","ALLEY":" ","HOUSE_NO":"１２號","E_COORD97":172716.35000000001,"N_COORD97":2546282.6699999999,"ADDRESS":"復華八街４１巷１２號","OBJECTID":223250},"geometry":{"x":172716.35000000149,"y":2546282.6700000018}},{"attributes":{"ID":223255,"DIS_CODE":0,"TOWNNAME":"永康區","LI":"復華里","LIN":"28鄰","STREET":"復華八街","SECT":" ","MAREA":" ","LANE":"４３巷","ALLEY":" ","HOUSE_NO":"９號","E_COORD97":172721.29000000001,"N_COORD97":2546301.7400000002,"ADDRESS":"復華八街４３巷９號","OBJECTID":223251},"geometry":{"x":172721.29000000097,"y":2546301.7400000021}},{"attributes":{"ID":223256,"DIS_CODE":0,"TOWNNAME":"安南區","LI":"安富里","LIN":"28鄰","STREET":"府安路","SECT":"五段","MAREA":" ","LANE":"２３０巷","ALLEY":" ","HOUSE_NO":"３１號","E_COORD97":167438.64000000001,"N_COORD97":2546977.5099999998,"ADDRESS":"府安路五段２３０巷３１號","OBJECTID":223252},"geometry":{"x":167438.63999999966,"y":2546977.5100000016}},{"attributes":{"ID":223257,"DIS_CODE":0,"TOWNNAME":"安南區","LI":"安富里","LIN":"28鄰","STREET":"府安路","SECT":"五段","MAREA":" ","LANE":"２３０巷","ALLEY":" ","HOUSE_NO":"３７號","E_COORD97":167451.35999999999,"N_COORD97":2546981.3500000001,"ADDRESS":"府安路五段２３０巷３７號","OBJECTID":223253},"geometry":{"x":167451.36000000034,"y":2546981.3500000034}},{"attributes":{"ID":223258,"DIS_CODE":0,"TOWNNAME":"安南區","LI":"安富里","LIN":"28鄰","STREET":"府安路","SECT":"五段","MAREA":" ","LANE":"２３０巷","ALLEY":" ","HOUSE_NO":"３９號","E_COORD97":167434.39999999999,"N_COORD97":2546999.0499999998,"ADDRESS":"府安路五段２３０巷３９號","OBJECTID":223254},"geometry":{"x":167434.40000000037,"y":2546999.0500000026}},{"attributes":{"ID":223259,"DIS_CODE":0,"TOWNNAME":"安南區","LI":"安富里","LIN":"28鄰","STREET":"府安路","SECT":"五段","MAREA":" ","LANE":"２３０巷","ALLEY":" ","HOUSE_NO":"４３號","E_COORD97":167442.88,"N_COORD97":2546999.0499999998,"ADDRESS":"府安路五段２３０巷４３號","OBJECTID":223255},"geometry":{"x":167442.88000000082,"y":2546999.0500000026}},{"attributes":{"ID":223260,"DIS_CODE":0,"TOWNNAME":"安南區","LI":"安富里","LIN":"28鄰","STREET":"府安路","SECT":"五段","MAREA":" ","LANE":"２３０巷","ALLEY":" ","HOUSE_NO":"４５號","E_COORD97":167448.26999999999,"N_COORD97":2546996.3599999999,"ADDRESS":"府安路五段２３０巷４５號","OBJECTID":223256},"geometry":{"x":167448.27000000142,"y":2546996.3599999994}},{"attributes":{"ID":223261,"DIS_CODE":0,"TOWNNAME":"新市區","LI":"新和里","LIN":"28鄰","STREET":"永福街","SECT":" ","MAREA":" ","LANE":"１６巷","ALLEY":" ","HOUSE_NO":"６０號","E_COORD97":177808.48999999999,"N_COORD97":2552807.8999999999,"ADDRESS":"永福街１６巷６０號","OBJECTID":223257},"geometry":{"x":177808.49000000209,"y":2552807.9000000022}},{"attributes":{"ID":223262,"DIS_CODE":0,"TOWNNAME":"新市區","LI":"新和里","LIN":"28鄰","STREET":"永福街","SECT":" ","MAREA":" ","LANE":"１６巷","ALLEY":" ","HOUSE_NO":"６２號","E_COORD97":177799.56,"N_COORD97":2552813.4199999999,"ADDRESS":"永福街１６巷６２號","OBJECTID":223258},"geometry":{"x":177799.56000000052,"y":2552813.4200000018}},{"attributes":{"ID":223263,"DIS_CODE":0,"TOWNNAME":"安南區","LI":"東和里","LIN":"1鄰","STREET":"長和路","SECT":"一段","MAREA":" ","LANE":"８７１巷","ALLEY":" ","HOUSE_NO":"１４號","E_COORD97":170768.76027,"N_COORD97":2551468.5874999999,"ADDRESS":"長和路一段８７１巷１４號","OBJECTID":223259},"geometry":{"x":170768.76027000044,"y":2551468.5874979999}},{"attributes":{"ID":223264,"DIS_CODE":0,"TOWNNAME":"新市區","LI":"新和里","LIN":"28鄰","STREET":"永福街","SECT":" ","MAREA":" ","LANE":"１６巷","ALLEY":" ","HOUSE_NO":"６６號","E_COORD97":177798.95999999999,"N_COORD97":2552818.1600000001,"ADDRESS":"永福街１６巷６６號","OBJECTID":223260},"geometry":{"x":177798.96000000089,"y":2552818.1600000039}},{"attributes":{"ID":223265,"DIS_CODE":0,"TOWNNAME":"新市區","LI":"新和里","LIN":"28鄰","STREET":"永福街","SECT":" ","MAREA":" ","LANE":"１６巷","ALLEY":" ","HOUSE_NO":"６８號","E_COORD97":177798.35000000001,"N_COORD97":2552823.21,"ADDRESS":"永福街１６巷６８號","OBJECTID":223261},"geometry":{"x":177798.34999999963,"y":2552823.2100000028}},{"attributes":{"ID":223266,"DIS_CODE":0,"TOWNNAME":"新市區","LI":"新和里","LIN":"28鄰","STREET":"永福街","SECT":" ","MAREA":" ","LANE":"１６巷","ALLEY":" ","HOUSE_NO":"７２號","E_COORD97":177796.95000000001,"N_COORD97":2552833.4700000002,"ADDRESS":"永福街１６巷７２號","OBJECTID":223262},"geometry":{"x":177796.95000000112,"y":2552833.4700000044}},{"attributes":{"ID":223267,"DIS_CODE":0,"TOWNNAME":"永康區","LI":"\u25A0洲里","LIN":"21鄰","STREET":"中正南路","SECT":" ","MAREA":" ","LANE":" ","ALLEY":" ","HOUSE_NO":"７５９號","E_COORD97":171648.48999999999,"N_COORD97":2548926.5,"ADDRESS":"中正南路７５９號","OBJECTID":223263},"geometry":{"x":171648.49000000115,"y":2548926.4999999981}},{"attributes":{"ID":223268,"DIS_CODE":0,"TOWNNAME":"新市區","LI":"新和里","LIN":"28鄰","STREET":"永福街","SECT":" ","MAREA":" ","LANE":"１６巷","ALLEY":" ","HOUSE_NO":"７６號","E_COORD97":177801.07999999999,"N_COORD97":2552839.7799999998,"ADDRESS":"永福街１６巷７６號","OBJECTID":223264},"geometry":{"x":177801.08000000101,"y":2552839.7799999975}},{"attributes":{"ID":223269,"DIS_CODE":0,"TOWNNAME":"新市區","LI":"新和里","LIN":"28鄰","STREET":"永福街","SECT":" ","MAREA":" ","LANE":"１６巷","ALLEY":" ","HOUSE_NO":"７８號","E_COORD97":177795.72,"N_COORD97":2552842.6600000001,"ADDRESS":"永福街１６巷７８號","OBJECTID":223265},"geometry":{"x":177795.71999999974,"y":2552842.660000002}},{"attributes":{"ID":223270,"DIS_CODE":0,"TOWNNAME":"東區","LI":"圍下里","LIN":"2鄰","STREET":"青年路","SECT":" ","MAREA":" ","LANE":" ","ALLEY":" ","HOUSE_NO":"４２６號","E_COORD97":169700.20999999999,"N_COORD97":2543489.8700000001,"ADDRESS":"青年路４２６號","OBJECTID":223266},"geometry":{"x":169700.21000000183,"y":2543489.870000001}},{"attributes":{"ID":223271,"DIS_CODE":0,"TOWNNAME":"新市區","LI":"新和里","LIN":"28鄰","STREET":"永福街","SECT":" ","MAREA":" ","LANE":"１６巷","ALLEY":" ","HOUSE_NO":"８０號","E_COORD97":177800.32999999999,"N_COORD97":2552850.0099999998,"ADDRESS":"永福街１６巷８０號","OBJECTID":223267},"geometry":{"x":177800.33000000007,"y":2552850.0100000016}},{"attributes":{"ID":223272,"DIS_CODE":0,"TOWNNAME":"新市區","LI":"新和里","LIN":"28鄰","STREET":"永福街","SECT":" ","MAREA":" ","LANE":"１６巷","ALLEY":" ","HOUSE_NO":"８２號","E_COORD97":177794.31,"N_COORD97":2552853.0699999998,"ADDRESS":"永福街１６巷８２號","OBJECTID":223268},"geometry":{"x":177794.31000000052,"y":2552853.0700000022}},{"attributes":{"ID":223273,"DIS_CODE":0,"TOWNNAME":"新市區","LI":"新和里","LIN":"28鄰","STREET":"永福街","SECT":" ","MAREA":" ","LANE":"１６巷","ALLEY":" ","HOUSE_NO":"８６號","E_COORD97":177793.42999999999,"N_COORD97":2552860.25,"ADDRESS":"永福街１６巷８６號","OBJECTID":223269},"geometry":{"x":177793.43000000063,"y":2552860.25}},{"attributes":{"ID":223274,"DIS_CODE":0,"TOWNNAME":"新市區","LI":"新和里","LIN":"28鄰","STREET":"永福街","SECT":" ","MAREA":" ","LANE":"１６巷","ALLEY":" ","HOUSE_NO":"９０號","E_COORD97":177792.16,"N_COORD97":2552879.9100000001,"ADDRESS":"永福街１６巷９０號","OBJECTID":223270},"geometry":{"x":177792.16000000108,"y":2552879.9100000001}},{"attributes":{"ID":223275,"DIS_CODE":0,"TOWNNAME":"新市區","LI":"港墘里","LIN":"28鄰","STREET":"華美街","SECT":" ","MAREA":" ","LANE":"６１巷","ALLEY":" ","HOUSE_NO":"２７號","E_COORD97":178066.57000000001,"N_COORD97":2553011.3999999999,"ADDRESS":"華美街６１巷２７號","OBJECTID":223271},"geometry":{"x":178066.5700000003,"y":2553011.4000000022}},{"attributes":{"ID":223276,"DIS_CODE":0,"TOWNNAME":"新市區","LI":"港墘里","LIN":"28鄰","STREET":"華美街","SECT":" ","MAREA":" ","LANE":"６１巷","ALLEY":" ","HOUSE_NO":"２９號","E_COORD97":178060.04999999999,"N_COORD97":2553010.5,"ADDRESS":"華美街６１巷２９號","OBJECTID":223272},"geometry":{"x":178060.04999999888,"y":2553010.5}},{"attributes":{"ID":223277,"DIS_CODE":0,"TOWNNAME":"善化區","LI":"光文里","LIN":"28鄰","STREET":"中山路","SECT":" ","MAREA":" ","LANE":"２４０巷","ALLEY":" ","HOUSE_NO":"３１號","E_COORD97":177808.31,"N_COORD97":2559193.25,"ADDRESS":"中山路２４０巷３１號","OBJECTID":223273},"geometry":{"x":177808.30999999959,"y":2559193.25}},{"attributes":{"ID":223278,"DIS_CODE":0,"TOWNNAME":"善化區","LI":"光文里","LIN":"28鄰","STREET":"中山路","SECT":" ","MAREA":" ","LANE":"２４０巷","ALLEY":" ","HOUSE_NO":"３０號","E_COORD97":177808.13,"N_COORD97":2559189.5,"ADDRESS":"中山路２４０巷３０號","OBJECTID":223274},"geometry":{"x":177808.12999999989,"y":2559189.5000000037}},{"attributes":{"ID":223279,"DIS_CODE":0,"TOWNNAME":"善化區","LI":"光文里","LIN":"28鄰","STREET":"中山路","SECT":" ","MAREA":" ","LANE":"２４０巷","ALLEY":" ","HOUSE_NO":"５５號","E_COORD97":177801.98000000001,"N_COORD97":2559257,"ADDRESS":"中山路２４０巷５５號","OBJECTID":223275},"geometry":{"x":177801.98000000231,"y":2559256.9999999981}},{"attributes":{"ID":223280,"DIS_CODE":0,"TOWNNAME":"善化區","LI":"光文里","LIN":"28鄰","STREET":"中山路","SECT":" ","MAREA":" ","LANE":"２４０巷","ALLEY":" ","HOUSE_NO":"４０號","E_COORD97":177810.20999999999,"N_COORD97":2559237.75,"ADDRESS":"中山路２４０巷４０號","OBJECTID":223276},"geometry":{"x":177810.21000000089,"y":2559237.75}},{"attributes":{"ID":223281,"DIS_CODE":0,"TOWNNAME":"善化區","LI":"光文里","LIN":"28鄰","STREET":"中山路","SECT":" ","MAREA":" ","LANE":"２４０巷","ALLEY":" ","HOUSE_NO":"４９號","E_COORD97":177784.44,"N_COORD97":2559228.5,"ADDRESS":"中山路２４０巷４９號","OBJECTID":223277},"geometry":{"x":177784.44000000041,"y":2559228.5}},{"attributes":{"ID":223282,"DIS_CODE":0,"TOWNNAME":"善化區","LI":"光文里","LIN":"28鄰","STREET":"中山路","SECT":" ","MAREA":" ","LANE":"２４０巷","ALLEY":" ","HOUSE_NO":"５０號","E_COORD97":177784.34,"N_COORD97":2559234.25,"ADDRESS":"中山路２４０巷５０號","OBJECTID":223278},"geometry":{"x":177784.34000000078,"y":2559234.25}},{"attributes":{"ID":223283,"DIS_CODE":0,"TOWNNAME":"善化區","LI":"光文里","LIN":"28鄰","STREET":"中山路","SECT":" ","MAREA":" ","LANE":"２４０巷","ALLEY":" ","HOUSE_NO":"４８號","E_COORD97":177783.88,"N_COORD97":2559222,"ADDRESS":"中山路２４０巷４８號","OBJECTID":223279},"geometry":{"x":177783.88000000082,"y":2559222}},{"attributes":{"ID":223284,"DIS_CODE":0,"TOWNNAME":"善化區","LI":"光文里","LIN":"28鄰","STREET":"中山路","SECT":" ","MAREA":" ","LANE":"２４０巷","ALLEY":" ","HOUSE_NO":"２８號","E_COORD97":177808.13,"N_COORD97":2559180.75,"ADDRESS":"中山路２４０巷２８號","OBJECTID":223280},"geometry":{"x":177808.12999999989,"y":2559180.7499999981}},{"attributes":{"ID":223285,"DIS_CODE":0,"TOWNNAME":"善化區","LI":"光文里","LIN":"28鄰","STREET":"中山路","SECT":" ","MAREA":" ","LANE":"２４０巷","ALLEY":" ","HOUSE_NO":"４４號","E_COORD97":177782.20000000001,"N_COORD97":2559191,"ADDRESS":"中山路２４０巷４４號","OBJECTID":223281},"geometry":{"x":177782.20000000112,"y":2559191.0000000019}},{"attributes":{"ID":223286,"DIS_CODE":0,"TOWNNAME":"東區","LI":"虎尾里","LIN":"8鄰","STREET":"東成街","SECT":" ","MAREA":" ","LANE":"１４２巷","ALLEY":" ","HOUSE_NO":"２號","E_COORD97":171645.17000000001,"N_COORD97":2542284.4199999999,"ADDRESS":"東成街１４２巷２號","OBJECTID":223282},"geometry":{"x":171645.17000000086,"y":2542284.4199999999}},{"attributes":{"ID":223287,"DIS_CODE":0,"TOWNNAME":"東區","LI":"虎尾里","LIN":"8鄰","STREET":"東成街","SECT":" ","MAREA":" ","LANE":"１４２巷","ALLEY":" ","HOUSE_NO":"３０號","E_COORD97":171660.5,"N_COORD97":2542189.3599999999,"ADDRESS":"東成街１４２巷３０號","OBJECTID":223283},"geometry":{"x":171660.5,"y":2542189.3599999994}},{"attributes":{"ID":223288,"DIS_CODE":0,"TOWNNAME":"東區","LI":"虎尾里","LIN":"8鄰","STREET":"東成街","SECT":" ","MAREA":" ","LANE":"１４２巷","ALLEY":" ","HOUSE_NO":"３２號","E_COORD97":171661.32999999999,"N_COORD97":2542182.8700000001,"ADDRESS":"東成街１４２巷３２號","OBJECTID":223284},"geometry":{"x":171661.33000000101,"y":2542182.8700000029}},{"attributes":{"ID":223289,"DIS_CODE":0,"TOWNNAME":"東區","LI":"虎尾里","LIN":"8鄰","STREET":"東成街","SECT":" ","MAREA":" ","LANE":"１４２巷","ALLEY":" ","HOUSE_NO":"３４號","E_COORD97":171662.16,"N_COORD97":2542175.8399999999,"ADDRESS":"東成街１４２巷３４號","OBJECTID":223285},"geometry":{"x":171662.16000000201,"y":2542175.8399999999}},{"attributes":{"ID":223290,"DIS_CODE":0,"TOWNNAME":"東區","LI":"虎尾里","LIN":"8鄰","STREET":"東成街","SECT":" ","MAREA":" ","LANE":"１４２巷","ALLEY":" ","HOUSE_NO":"３６號","E_COORD97":171663.82000000001,"N_COORD97":2542168.6600000001,"ADDRESS":"東成街１４２巷３６號","OBJECTID":223286},"geometry":{"x":171663.8200000003,"y":2542168.6600000039}},{"attributes":{"ID":223291,"DIS_CODE":0,"TOWNNAME":"東區","LI":"富強里","LIN":"25鄰","STREET":"裕農路","SECT":" ","MAREA":" ","LANE":"３５０巷","ALLEY":" ","HOUSE_NO":"２５之１號","E_COORD97":171069.56,"N_COORD97":2542961.4399999999,"ADDRESS":"裕農路３５０巷２５之１號","OBJECTID":223287},"geometry":{"x":171069.56000000052,"y":2542961.4399999995}},{"attributes":{"ID":223292,"DIS_CODE":0,"TOWNNAME":"永康區","LI":"大灣里","LIN":"28鄰","STREET":"民族路","SECT":" ","MAREA":" ","LANE":"１９０巷","ALLEY":" ","HOUSE_NO":"１６號","E_COORD97":175255.88,"N_COORD97":2545093.04,"ADDRESS":"民族路１９０巷１６號","OBJECTID":223288},"geometry":{"x":175255.88000000175,"y":2545093.0399999991}},{"attributes":{"ID":223293,"DIS_CODE":0,"TOWNNAME":"永康區","LI":"復華里","LIN":"28鄰","STREET":"復華八街","SECT":" ","MAREA":" ","LANE":"４１巷","ALLEY":" ","HOUSE_NO":"７號","E_COORD97":172712.09,"N_COORD97":2546272.7999999998,"ADDRESS":"復華八街４１巷７號","OBJECTID":223289},"geometry":{"x":172712.09000000078,"y":2546272.8000000007}},{"attributes":{"ID":223294,"DIS_CODE":0,"TOWNNAME":"永康區","LI":"勝利里","LIN":"28鄰","STREET":"勝利街","SECT":" ","MAREA":" ","LANE":"４２巷","ALLEY":" ","HOUSE_NO":"１９號","E_COORD97":171403.37,"N_COORD97":2544630,"ADDRESS":"勝利街４２巷１９號","OBJECTID":223290},"geometry":{"x":171403.37000000104,"y":2544630}},{"attributes":{"ID":223295,"DIS_CODE":0,"TOWNNAME":"安南區","LI":"\u25A0南里","LIN":"28鄰","STREET":"安昌街","SECT":" ","MAREA":" ","LANE":"３００巷","ALLEY":" ","HOUSE_NO":"４３號","E_COORD97":170245.76999999999,"N_COORD97":2552775.3599999999,"ADDRESS":"安昌街３００巷４３號","OBJECTID":223291},"geometry":{"x":170245.77000000048,"y":2552775.3600000031}},{"attributes":{"ID":223296,"DIS_CODE":0,"TOWNNAME":"安南區","LI":"\u25A0南里","LIN":"28鄰","STREET":"安昌街","SECT":" ","MAREA":" ","LANE":"３００巷","ALLEY":" ","HOUSE_NO":"４５號","E_COORD97":170253.64000000001,"N_COORD97":2552771.7599999998,"ADDRESS":"安昌街３００巷４５號","OBJECTID":223292},"geometry":{"x":170253.6400000006,"y":2552771.7599999998}},{"attributes":{"ID":223297,"DIS_CODE":0,"TOWNNAME":"安南區","LI":"\u25A0南里","LIN":"28鄰","STREET":"安昌街","SECT":" ","MAREA":" ","LANE":"３００巷","ALLEY":" ","HOUSE_NO":"４７號","E_COORD97":170263.81,"N_COORD97":2552770.29,"ADDRESS":"安昌街３００巷４７號","OBJECTID":223293},"geometry":{"x":170263.81000000052,"y":2552770.2899999991}},{"attributes":{"ID":223298,"DIS_CODE":0,"TOWNNAME":"安南區","LI":"四草里","LIN":"9鄰","STREET":"大眾路","SECT":" ","MAREA":" ","LANE":"９１２巷","ALLEY":" ","HOUSE_NO":"６６號","E_COORD97":160183.35308599999,"N_COORD97":2546103.64427,"ADDRESS":"大眾路９１２巷６６號","OBJECTID":223294},"geometry":{"x":160183.35308600217,"y":2546103.6442740001}},{"attributes":{"ID":223299,"DIS_CODE":0,"TOWNNAME":"永康區","LI":"\u25A0行里","LIN":" ","STREET":"中正路","SECT":" ","MAREA":" ","LANE":" ","ALLEY":" ","HOUSE_NO":"３２０號","E_COORD97":173037.34,"N_COORD97":2548005.75,"ADDRESS":"中正路３２０號","OBJECTID":223295},"geometry":{"x":173037.34000000078,"y":2548005.75}},{"attributes":{"ID":223300,"DIS_CODE":0,"TOWNNAME":"永康區","LI":"永康里","LIN":"28鄰","STREET":"永大路","SECT":"二段","MAREA":" ","LANE":"８３１巷","ALLEY":" ","HOUSE_NO":"３０號","E_COORD97":174192.12,"N_COORD97":2546933.2999999998,"ADDRESS":"永大路二段８３１巷３０號","OBJECTID":223296},"geometry":{"x":174192.12000000104,"y":2546933.3000000026}},{"attributes":{"ID":223301,"DIS_CODE":0,"TOWNNAME":"永康區","LI":"永康里","LIN":"28鄰","STREET":"永大路","SECT":"二段","MAREA":" ","LANE":"８３１巷","ALLEY":" ","HOUSE_NO":"２８號","E_COORD97":174197.5,"N_COORD97":2546931.5499999998,"ADDRESS":"永大路二段８３１巷２８號","OBJECTID":223297},"geometry":{"x":174197.50000000093,"y":2546931.5500000026}},{"attributes":{"ID":223302,"DIS_CODE":0,"TOWNNAME":"永康區","LI":"永康里","LIN":"28鄰","STREET":"永大路","SECT":"二段","MAREA":" ","LANE":"８３１巷","ALLEY":" ","HOUSE_NO":"３８號","E_COORD97":174180.91,"N_COORD97":2546938.8900000001,"ADDRESS":"永大路二段８３１巷３８號","OBJECTID":223298},"geometry":{"x":174180.91000000015,"y":2546938.8900000025}},{"attributes":{"ID":223303,"DIS_CODE":0,"TOWNNAME":"永康區","LI":"永康里","LIN":"28鄰","STREET":"永大路","SECT":"二段","MAREA":" ","LANE":"８３１巷","ALLEY":" ","HOUSE_NO":"３２號","E_COORD97":174188.32000000001,"N_COORD97":2546935.2999999998,"ADDRESS":"永大路二段８３１巷３２號","OBJECTID":223299},"geometry":{"x":174188.3200000003,"y":2546935.3000000045}},{"attributes":{"ID":223304,"DIS_CODE":0,"TOWNNAME":"永康區","LI":"五王里","LIN":"28鄰","STREET":"中山東路","SECT":" ","MAREA":" ","LANE":"６８巷","ALLEY":" ","HOUSE_NO":"６號","E_COORD97":171665.44,"N_COORD97":2546007.2200000002,"ADDRESS":"中山東路６８巷６號","OBJECTID":223300},"geometry":{"x":171665.43999999948,"y":2546007.2200000025}},{"attributes":{"ID":223305,"DIS_CODE":0,"TOWNNAME":"永康區","LI":"永康里","LIN":"28鄰","STREET":"永康街","SECT":" ","MAREA":" ","LANE":"３１０巷","ALLEY":" ","HOUSE_NO":"３８號","E_COORD97":174215.57999999999,"N_COORD97":2546949.4700000002,"ADDRESS":"永康街３１０巷３８號","OBJECTID":223301},"geometry":{"x":174215.58000000194,"y":2546949.4700000007}},{"attributes":{"ID":223306,"DIS_CODE":0,"TOWNNAME":"東區","LI":"虎尾里","LIN":"36鄰","STREET":"東成街","SECT":" ","MAREA":" ","LANE":"２００巷","ALLEY":" ","HOUSE_NO":"２１號","E_COORD97":171893.09,"N_COORD97":2542253.2999999998,"ADDRESS":"東成街２００巷２１號","OBJECTID":223302},"geometry":{"x":171893.09000000078,"y":2542253.3000000045}},{"attributes":{"ID":223307,"DIS_CODE":0,"TOWNNAME":"東區","LI":"虎尾里","LIN":"36鄰","STREET":"東成街","SECT":" ","MAREA":" ","LANE":"２００巷","ALLEY":" ","HOUSE_NO":"２３號","E_COORD97":171893.23000000001,"N_COORD97":2542243.7400000002,"ADDRESS":"東成街２００巷２３號","OBJECTID":223303},"geometry":{"x":171893.23000000138,"y":2542243.7400000021}},{"attributes":{"ID":223308,"DIS_CODE":0,"TOWNNAME":"新市區","LI":"新和里","LIN":"28鄰","STREET":"永福街","SECT":" ","MAREA":" ","LANE":"１６巷","ALLEY":" ","HOUSE_NO":"２０號","E_COORD97":177793.62,"N_COORD97":2552735.25,"ADDRESS":"永福街１６巷２０號","OBJECTID":223304},"geometry":{"x":177793.62000000011,"y":2552735.25}},{"attributes":{"ID":223309,"DIS_CODE":0,"TOWNNAME":"東區","LI":"小東里","LIN":"28鄰","STREET":"東和路","SECT":" ","MAREA":" ","LANE":"１５９巷","ALLEY":" ","HOUSE_NO":"１４號","E_COORD97":170693.78,"N_COORD97":2544252.7200000002,"ADDRESS":"東和路１５９巷１４號","OBJECTID":223305},"geometry":{"x":170693.78000000119,"y":2544252.7200000007}},{"attributes":{"ID":223310,"DIS_CODE":0,"TOWNNAME":"永康區","LI":"勝利里","LIN":" ","STREET":"勝利街","SECT":" ","MAREA":" ","LANE":" ","ALLEY":" ","HOUSE_NO":"１４０號","E_COORD97":171384.79999999999,"N_COORD97":2545033.8399999999,"ADDRESS":"勝利街１４０號","OBJECTID":223306},"geometry":{"x":171384.80000000075,"y":2545033.8399999999}},{"attributes":{"ID":223311,"DIS_CODE":0,"TOWNNAME":"永康區","LI":"大橋里","LIN":" ","STREET":"大橋三街","SECT":" ","MAREA":" ","LANE":" ","ALLEY":" ","HOUSE_NO":"１０３號","E_COORD97":170975.34,"N_COORD97":2546936.75,"ADDRESS":"大橋三街１０３號","OBJECTID":223307},"geometry":{"x":170975.33999999985,"y":2546936.75}},{"attributes":{"ID":223312,"DIS_CODE":0,"TOWNNAME":"永康區","LI":"西灣里","LIN":"52鄰","STREET":"永華路","SECT":" ","MAREA":" ","LANE":" ","ALLEY":" ","HOUSE_NO":"３２７號","E_COORD97":174016.76000000001,"N_COORD97":2545942.73,"ADDRESS":"永華路３２７號","OBJECTID":223308},"geometry":{"x":174016.75999999978,"y":2545942.7300000023}},{"attributes":{"ID":223313,"DIS_CODE":0,"TOWNNAME":"永康區","LI":"西灣里","LIN":"52鄰","STREET":"永華路","SECT":" ","MAREA":" ","LANE":" ","ALLEY":" ","HOUSE_NO":"３２３號","E_COORD97":174019.16,"N_COORD97":2545934.2400000002,"ADDRESS":"永華路３２３號","OBJECTID":223309},"geometry":{"x":174019.16000000108,"y":2545934.2400000002}},{"attributes":{"ID":223314,"DIS_CODE":0,"TOWNNAME":"永康區","LI":"西灣里","LIN":"52鄰","STREET":"永華路","SECT":" ","MAREA":" ","LANE":" ","ALLEY":" ","HOUSE_NO":"３２９號","E_COORD97":174015.60999999999,"N_COORD97":2545947.48,"ADDRESS":"永華路３２９號","OBJECTID":223310},"geometry":{"x":174015.6100000022,"y":2545947.4800000023}},{"attributes":{"ID":223315,"DIS_CODE":0,"TOWNNAME":"永康區","LI":"西灣里","LIN":"52鄰","STREET":"永華路","SECT":" ","MAREA":" ","LANE":" ","ALLEY":" ","HOUSE_NO":"３５１號","E_COORD97":173946.64000000001,"N_COORD97":2546202.79,"ADDRESS":"永華路３５１號","OBJECTID":223311},"geometry":{"x":173946.63999999966,"y":2546202.790000001}},{"attributes":{"ID":223316,"DIS_CODE":0,"TOWNNAME":"永康區","LI":"西灣里","LIN":"52鄰","STREET":"永華路","SECT":" ","MAREA":" ","LANE":" ","ALLEY":" ","HOUSE_NO":"３４７號","E_COORD97":173965.37,"N_COORD97":2546114.6899999999,"ADDRESS":"永華路３４７號","OBJECTID":223312},"geometry":{"x":173965.37000000011,"y":2546114.6900000013}},{"attributes":{"ID":223317,"DIS_CODE":0,"TOWNNAME":"永康區","LI":"西灣里","LIN":"52鄰","STREET":"永華路","SECT":" ","MAREA":" ","LANE":" ","ALLEY":" ","HOUSE_NO":"３２１號","E_COORD97":174020.01000000001,"N_COORD97":2545929.9900000002,"ADDRESS":"永華路３２１號","OBJECTID":223313},"geometry":{"x":174020.00999999978,"y":2545929.9900000039}},{"attributes":{"ID":223318,"DIS_CODE":0,"TOWNNAME":"永康區","LI":"\u25A0洲里","LIN":"20鄰","STREET":"中正南路","SECT":" ","MAREA":" ","LANE":" ","ALLEY":" ","HOUSE_NO":"８２７號","E_COORD97":171750.03,"N_COORD97":2549019.5,"ADDRESS":"中正南路８２７號","OBJECTID":223314},"geometry":{"x":171750.03000000119,"y":2549019.5000000019}},{"attributes":{"ID":223319,"DIS_CODE":0,"TOWNNAME":"歸仁區","LI":"南保里","LIN":"52鄰","STREET":"民權南路","SECT":" ","MAREA":" ","LANE":" ","ALLEY":" ","HOUSE_NO":"１１６號","E_COORD97":176950.149213,"N_COORD97":2540542.59057,"ADDRESS":"民權南路１１６號","OBJECTID":223315},"geometry":{"x":176950.1492130002,"y":2540542.5905699991}},{"attributes":{"ID":223320,"DIS_CODE":0,"TOWNNAME":"中西區","LI":"西賢里","LIN":"28鄰","STREET":"西賢五街","SECT":" ","MAREA":" ","LANE":"２３巷","ALLEY":" ","HOUSE_NO":"５０號","E_COORD97":165151.79000000001,"N_COORD97":2544670.4500000002,"ADDRESS":"西賢五街２３巷５０號","OBJECTID":223316},"geometry":{"x":165151.79000000097,"y":2544670.4499999993}},{"attributes":{"ID":223321,"DIS_CODE":0,"TOWNNAME":"中西區","LI":"西賢里","LIN":"28鄰","STREET":"西賢五街","SECT":" ","MAREA":" ","LANE":"２３巷","ALLEY":" ","HOUSE_NO":"５２號","E_COORD97":165152.47,"N_COORD97":2544674.02,"ADDRESS":"西賢五街２３巷５２號","OBJECTID":223317},"geometry":{"x":165152.47000000067,"y":2544674.0199999996}},{"attributes":{"ID":223322,"DIS_CODE":0,"TOWNNAME":"中西區","LI":"西賢里","LIN":"28鄰","STREET":"西賢五街","SECT":" ","MAREA":" ","LANE":"２３巷","ALLEY":" ","HOUSE_NO":"５６號","E_COORD97":165154.51000000001,"N_COORD97":2544679.1200000001,"ADDRESS":"西賢五街２３巷５６號","OBJECTID":223318},"geometry":{"x":165154.50999999978,"y":2544679.1200000048}},{"attributes":{"ID":223323,"DIS_CODE":0,"TOWNNAME":"中西區","LI":"西賢里","LIN":"28鄰","STREET":"西賢五街","SECT":" ","MAREA":" ","LANE":"２３巷","ALLEY":" ","HOUSE_NO":"５８號","E_COORD97":165154.17000000001,"N_COORD97":2544683.7000000002,"ADDRESS":"西賢五街２３巷５８號","OBJECTID":223319},"geometry":{"x":165154.17000000086,"y":2544683.7000000011}},{"attributes":{"ID":223324,"DIS_CODE":0,"TOWNNAME":"中西區","LI":"西賢里","LIN":"28鄰","STREET":"西賢五街","SECT":" ","MAREA":" ","LANE":"２３巷","ALLEY":" ","HOUSE_NO":"６０號","E_COORD97":165155.35999999999,"N_COORD97":2544687.1000000001,"ADDRESS":"西賢五街２３巷６０號","OBJECTID":223320},"geometry":{"x":165155.36000000127,"y":2544687.0999999996}},{"attributes":{"ID":223325,"DIS_CODE":0,"TOWNNAME":"中西區","LI":"西賢里","LIN":"28鄰","STREET":"西賢五街","SECT":" ","MAREA":" ","LANE":"２３巷","ALLEY":" ","HOUSE_NO":"６２號","E_COORD97":165165.39999999999,"N_COORD97":2544678.1000000001,"ADDRESS":"西賢五街２３巷６２號","OBJECTID":223321},"geometry":{"x":165165.4000000013,"y":2544678.1000000015}},{"attributes":{"ID":223326,"DIS_CODE":0,"TOWNNAME":"中西區","LI":"西賢里","LIN":"28鄰","STREET":"西賢五街","SECT":" ","MAREA":" ","LANE":"２３巷","ALLEY":" ","HOUSE_NO":"６６號","E_COORD97":165172.54999999999,"N_COORD97":2544679.6299999999,"ADDRESS":"西賢五街２３巷６６號","OBJECTID":223322},"geometry":{"x":165172.54999999981,"y":2544679.629999999}},{"attributes":{"ID":223327,"DIS_CODE":0,"TOWNNAME":"中西區","LI":"西賢里","LIN":"28鄰","STREET":"西賢五街","SECT":" ","MAREA":" ","LANE":"２３巷","ALLEY":" ","HOUSE_NO":"６８號","E_COORD97":165178.5,"N_COORD97":2544674.7000000002,"ADDRESS":"西賢五街２３巷６８號","OBJECTID":223323},"geometry":{"x":165178.5,"y":2544674.7000000011}},{"attributes":{"ID":223328,"DIS_CODE":0,"TOWNNAME":"中西區","LI":"西賢里","LIN":"28鄰","STREET":"西賢五街","SECT":" ","MAREA":" ","LANE":"２３巷","ALLEY":" ","HOUSE_NO":"６號","E_COORD97":165174.28,"N_COORD97":2544630.3599999999,"ADDRESS":"西賢五街２３巷６號","OBJECTID":223324},"geometry":{"x":165174.28000000119,"y":2544630.3599999994}},{"attributes":{"ID":223329,"DIS_CODE":0,"TOWNNAME":"中西區","LI":"西賢里","LIN":"28鄰","STREET":"西賢五街","SECT":" ","MAREA":" ","LANE":"２３巷","ALLEY":" ","HOUSE_NO":"７０號","E_COORD97":165185.98999999999,"N_COORD97":2544676.5699999998,"ADDRESS":"西賢五街２３巷７０號","OBJECTID":223325},"geometry":{"x":165185.99000000209,"y":2544676.5700000022}},{"attributes":{"ID":223330,"DIS_CODE":0,"TOWNNAME":"東區","LI":"大同里","LIN":"28鄰","STREET":"大同路","SECT":"一段","MAREA":" ","LANE":"２７５巷","ALLEY":" ","HOUSE_NO":"４６號","E_COORD97":169273.17000000001,"N_COORD97":2542552.6600000001,"ADDRESS":"大同路一段２７５巷４６號","OBJECTID":223326},"geometry":{"x":169273.16999999899,"y":2542552.660000002}},{"attributes":{"ID":223331,"DIS_CODE":0,"TOWNNAME":"東區","LI":"大同里","LIN":"28鄰","STREET":"大同路","SECT":"一段","MAREA":" ","LANE":"２７５巷","ALLEY":" ","HOUSE_NO":"４８號","E_COORD97":169283.85000000001,"N_COORD97":2542551.9500000002,"ADDRESS":"大同路一段２７５巷４８號","OBJECTID":223327},"geometry":{"x":169283.85000000056,"y":2542551.9499999993}},{"attributes":{"ID":223332,"DIS_CODE":0,"TOWNNAME":"東區","LI":"大同里","LIN":"28鄰","STREET":"大同路","SECT":"一段","MAREA":" ","LANE":"２７５巷","ALLEY":" ","HOUSE_NO":"５０號","E_COORD97":169291.45000000001,"N_COORD97":2542549.1000000001,"ADDRESS":"大同路一段２７５巷５０號","OBJECTID":223328},"geometry":{"x":169291.45000000019,"y":2542549.1000000015}},{"attributes":{"ID":223333,"DIS_CODE":0,"TOWNNAME":"東區","LI":"大同里","LIN":"28鄰","STREET":"大同路","SECT":"一段","MAREA":" ","LANE":"２７５巷","ALLEY":" ","HOUSE_NO":"５２號","E_COORD97":169298.10000000001,"N_COORD97":2542548.8599999999,"ADDRESS":"大同路一段２７５巷５２號","OBJECTID":223329},"geometry":{"x":169298.09999999963,"y":2542548.8599999994}},{"attributes":{"ID":223334,"DIS_CODE":0,"TOWNNAME":"東區","LI":"大同里","LIN":"28鄰","STREET":"大同路","SECT":"一段","MAREA":" ","LANE":"２７５巷","ALLEY":" ","HOUSE_NO":"５４號","E_COORD97":169302.38,"N_COORD97":2542546.9700000002,"ADDRESS":"大同路一段２７５巷５４號","OBJECTID":223330},"geometry":{"x":169302.38000000175,"y":2542546.9700000044}},{"attributes":{"ID":223335,"DIS_CODE":0,"TOWNNAME":"東區","LI":"大同里","LIN":"28鄰","STREET":"大同路","SECT":"一段","MAREA":" ","LANE":"２７５巷","ALLEY":" ","HOUSE_NO":"５６號","E_COORD97":169309.23999999999,"N_COORD97":2542557.0800000001,"ADDRESS":"大同路一段２７５巷５６號","OBJECTID":223331},"geometry":{"x":169309.24000000115,"y":2542557.0800000019}},{"attributes":{"ID":223336,"DIS_CODE":0,"TOWNNAME":"永康區","LI":"復興里","LIN":"28鄰","STREET":"興國街","SECT":" ","MAREA":" ","LANE":"１９６巷","ALLEY":" ","HOUSE_NO":"２號","E_COORD97":172397.48999999999,"N_COORD97":2544945.9900000002,"ADDRESS":"興國街１９６巷２號","OBJECTID":223332},"geometry":{"x":172397.49000000115,"y":2544945.9900000002}},{"attributes":{"ID":223337,"DIS_CODE":0,"TOWNNAME":"仁德區","LI":"後壁里","LIN":"28鄰","STREET":"德洋路","SECT":" ","MAREA":" ","LANE":"２５巷","ALLEY":" ","HOUSE_NO":"２９號","E_COORD97":173105.56,"N_COORD97":2538959.27,"ADDRESS":"德洋路２５巷２９號","OBJECTID":223333},"geometry":{"x":173105.56000000052,"y":2538959.2699999996}},{"attributes":{"ID":223338,"DIS_CODE":0,"TOWNNAME":"仁德區","LI":"後壁里","LIN":"28鄰","STREET":"德洋路","SECT":" ","MAREA":" ","LANE":"３９巷","ALLEY":" ","HOUSE_NO":"５號","E_COORD97":173066.31,"N_COORD97":2538960.27,"ADDRESS":"德洋路３９巷５號","OBJECTID":223334},"geometry":{"x":173066.31000000052,"y":2538960.2700000033}},{"attributes":{"ID":223339,"DIS_CODE":0,"TOWNNAME":"仁德區","LI":"後壁里","LIN":"28鄰","STREET":"德洋路","SECT":" ","MAREA":" ","LANE":"３９巷","ALLEY":" ","HOUSE_NO":"２４號","E_COORD97":173080.73999999999,"N_COORD97":2538973.52,"ADDRESS":"德洋路３９巷２４號","OBJECTID":223335},"geometry":{"x":173080.74000000115,"y":2538973.5200000014}},{"attributes":{"ID":223340,"DIS_CODE":0,"TOWNNAME":"仁德區","LI":"後壁里","LIN":"28鄰","STREET":"德洋路","SECT":" ","MAREA":" ","LANE":"３９巷","ALLEY":" ","HOUSE_NO":"１６號","E_COORD97":173096.39999999999,"N_COORD97":2538988.52,"ADDRESS":"德洋路３９巷１６號","OBJECTID":223336},"geometry":{"x":173096.39999999944,"y":2538988.5199999996}},{"attributes":{"ID":223341,"DIS_CODE":0,"TOWNNAME":"仁德區","LI":"後壁里","LIN":"28鄰","STREET":"德洋路","SECT":" ","MAREA":" ","LANE":"３９巷","ALLEY":" ","HOUSE_NO":"１８號","E_COORD97":173094.17000000001,"N_COORD97":2538985.02,"ADDRESS":"德洋路３９巷１８號","OBJECTID":223337},"geometry":{"x":173094.17000000179,"y":2538985.0199999996}},{"attributes":{"ID":223342,"DIS_CODE":0,"TOWNNAME":"仁德區","LI":"後壁里","LIN":"28鄰","STREET":"德洋路","SECT":" ","MAREA":" ","LANE":"２５巷","ALLEY":" ","HOUSE_NO":"３０號","E_COORD97":173094.98999999999,"N_COORD97":2538935.5099999998,"ADDRESS":"德洋路２５巷３０號","OBJECTID":223338},"geometry":{"x":173094.99000000022,"y":2538935.5100000016}},{"attributes":{"ID":223343,"DIS_CODE":0,"TOWNNAME":"仁德區","LI":"後壁里","LIN":"28鄰","STREET":"德洋路","SECT":" ","MAREA":" ","LANE":"３９巷","ALLEY":" ","HOUSE_NO":"６號","E_COORD97":173107.26999999999,"N_COORD97":2539009.2599999998,"ADDRESS":"德洋路３９巷６號","OBJECTID":223339},"geometry":{"x":173107.27000000048,"y":2539009.2600000016}},{"attributes":{"ID":223344,"DIS_CODE":0,"TOWNNAME":"仁德區","LI":"仁義里","LIN":"52鄰","STREET":"仁義路","SECT":" ","MAREA":" ","LANE":"２１巷","ALLEY":" ","HOUSE_NO":"４７號","E_COORD97":173495.85999999999,"N_COORD97":2541052.27,"ADDRESS":"仁義路２１巷４７號","OBJECTID":223340},"geometry":{"x":173495.86000000127,"y":2541052.2700000014}},{"attributes":{"ID":223345,"DIS_CODE":0,"TOWNNAME":"仁德區","LI":"仁義里","LIN":"52鄰","STREET":"仁義三街","SECT":" ","MAREA":" ","LANE":" ","ALLEY":" ","HOUSE_NO":"２２號","E_COORD97":173408.89999999999,"N_COORD97":2541063.27,"ADDRESS":"仁義三街２２號","OBJECTID":223341},"geometry":{"x":173408.9000000013,"y":2541063.2700000014}},{"attributes":{"ID":223346,"DIS_CODE":0,"TOWNNAME":"東區","LI":"虎尾里","LIN":"4鄰","STREET":"東門路","SECT":"三段","MAREA":" ","LANE":"１７９巷","ALLEY":" ","HOUSE_NO":"６７號","E_COORD97":171572.48999999999,"N_COORD97":2542057.3999999999,"ADDRESS":"東門路三段１７９巷６７號","OBJECTID":223342},"geometry":{"x":171572.49000000115,"y":2542057.4000000004}},{"attributes":{"ID":223347,"DIS_CODE":0,"TOWNNAME":"新營區","LI":"王公里","LIN":"22鄰","STREET":"大勇街","SECT":" ","MAREA":" ","LANE":" ","ALLEY":" ","HOUSE_NO":"８９號","E_COORD97":180459.45999999999,"N_COORD97":2579454.1299999999,"ADDRESS":"大勇街８９號","OBJECTID":223343},"geometry":{"x":180459.45999999903,"y":2579454.129999999}},{"attributes":{"ID":223348,"DIS_CODE":0,"TOWNNAME":"永康區","LI":"中華里","LIN":"15鄰","STREET":"華興街","SECT":" ","MAREA":" ","LANE":" ","ALLEY":" ","HOUSE_NO":"９７號底二層之１","E_COORD97":171791.60000000001,"N_COORD97":2544563.1299999999,"ADDRESS":"華興街９７號底二層之１","OBJECTID":223344},"geometry":{"x":171791.60000000056,"y":2544563.129999999}},{"attributes":{"ID":223349,"DIS_CODE":0,"TOWNNAME":"東區","LI":"成大里","LIN":"28鄰","STREET":"勝利路","SECT":" ","MAREA":" ","LANE":"１７１巷","ALLEY":" ","HOUSE_NO":"１０號","E_COORD97":169726.51000000001,"N_COORD97":2544053.1800000002,"ADDRESS":"勝利路１７１巷１０號","OBJECTID":223345},"geometry":{"x":169726.50999999978,"y":2544053.1800000034}},{"attributes":{"ID":223350,"DIS_CODE":0,"TOWNNAME":"東區","LI":"成大里","LIN":"28鄰","STREET":"勝利路","SECT":" ","MAREA":" ","LANE":"１７１巷","ALLEY":" ","HOUSE_NO":"１１號","E_COORD97":169715.94,"N_COORD97":2544057.0499999998,"ADDRESS":"勝利路１７１巷１１號","OBJECTID":223346},"geometry":{"x":169715.94000000041,"y":2544057.0500000007}},{"attributes":{"ID":223351,"DIS_CODE":0,"TOWNNAME":"東區","LI":"成大里","LIN":"28鄰","STREET":"勝利路","SECT":" ","MAREA":" ","LANE":"１７１巷","ALLEY":" ","HOUSE_NO":"１號","E_COORD97":169814.20999999999,"N_COORD97":2544036.9900000002,"ADDRESS":"勝利路１７１巷１號","OBJECTID":223347},"geometry":{"x":169814.21000000089,"y":2544036.9900000002}},{"attributes":{"ID":223352,"DIS_CODE":0,"TOWNNAME":"佳里區","LI":"建南里","LIN":"28鄰","STREET":"四維一街","SECT":" ","MAREA":" ","LANE":"１３３巷","ALLEY":" ","HOUSE_NO":"１號","E_COORD97":165825.59,"N_COORD97":2561118.48,"ADDRESS":"四維一街１３３巷１號","OBJECTID":223348},"geometry":{"x":165825.58999999892,"y":2561118.4800000004}},{"attributes":{"ID":223353,"DIS_CODE":0,"TOWNNAME":"佳里區","LI":"建南里","LIN":"28鄰","STREET":"四維一街","SECT":" ","MAREA":" ","LANE":"１３３巷","ALLEY":" ","HOUSE_NO":"３號","E_COORD97":165843.23000000001,"N_COORD97":2561116.79,"ADDRESS":"四維一街１３３巷３號","OBJECTID":223349},"geometry":{"x":165843.23000000045,"y":2561116.790000001}},{"attributes":{"ID":223354,"DIS_CODE":0,"TOWNNAME":"東區","LI":"虎尾里","LIN":"24鄰","STREET":"東成街","SECT":" ","MAREA":" ","LANE":"２２２巷","ALLEY":" ","HOUSE_NO":"１２號","E_COORD97":171911.69,"N_COORD97":2542272.5099999998,"ADDRESS":"東成街２２２巷１２號","OBJECTID":223350},"geometry":{"x":171911.69000000134,"y":2542272.5100000016}},{"attributes":{"ID":223355,"DIS_CODE":0,"TOWNNAME":"東區","LI":"泉南里","LIN":"1鄰","STREET":"東門路","SECT":"一段","MAREA":" ","LANE":"１９６巷","ALLEY":" ","HOUSE_NO":"７號","E_COORD97":169644,"N_COORD97":2543064.1099999999,"ADDRESS":"東門路一段１９６巷７號","OBJECTID":223351},"geometry":{"x":169644.00000000186,"y":2543064.1100000013}},{"attributes":{"ID":223356,"DIS_CODE":0,"TOWNNAME":"永康區","LI":"中華里","LIN":"15鄰","STREET":"華興街","SECT":" ","MAREA":" ","LANE":" ","ALLEY":" ","HOUSE_NO":"９７號底一層之２２","E_COORD97":171792.98000000001,"N_COORD97":2544563.1299999999,"ADDRESS":"華興街９７號底一層之２２","OBJECTID":223352},"geometry":{"x":171792.98000000138,"y":2544563.129999999}},{"attributes":{"ID":223357,"DIS_CODE":0,"TOWNNAME":"東區","LI":"虎尾里","LIN":"1鄰","STREET":"東門路","SECT":"三段","MAREA":" ","LANE":"１４１巷","ALLEY":" ","HOUSE_NO":"３４號","E_COORD97":171416.26000000001,"N_COORD97":2542142.1499999999,"ADDRESS":"東門路三段１４１巷３４號","OBJECTID":223353},"geometry":{"x":171416.25999999978,"y":2542142.1500000041}},{"attributes":{"ID":223358,"DIS_CODE":0,"TOWNNAME":"永康區","LI":"中華里","LIN":"20鄰","STREET":"中華路","SECT":" ","MAREA":" ","LANE":" ","ALLEY":" ","HOUSE_NO":"８號","E_COORD97":171573.56,"N_COORD97":2544428.1800000002,"ADDRESS":"中華路８號","OBJECTID":223354},"geometry":{"x":171573.55999999959,"y":2544428.1799999997}},{"attributes":{"ID":223359,"DIS_CODE":0,"TOWNNAME":"東區","LI":"龍山里","LIN":"9鄰","STREET":"東門路","SECT":"二段","MAREA":" ","LANE":"１３４巷","ALLEY":" ","HOUSE_NO":"１２號","E_COORD97":170087.70999999999,"N_COORD97":2542903.2200000002,"ADDRESS":"東門路二段１３４巷１２號","OBJECTID":223355},"geometry":{"x":170087.70999999996,"y":2542903.2200000007}},{"attributes":{"ID":223360,"DIS_CODE":0,"TOWNNAME":"佳里區","LI":"建南里","LIN":"28鄰","STREET":"四維一街","SECT":" ","MAREA":" ","LANE":"１３３巷","ALLEY":" ","HOUSE_NO":"５號","E_COORD97":165850.07999999999,"N_COORD97":2561119.1600000001,"ADDRESS":"四維一街１３３巷５號","OBJECTID":223356},"geometry":{"x":165850.08000000101,"y":2561119.160000002}},{"attributes":{"ID":223361,"DIS_CODE":0,"TOWNNAME":"佳里區","LI":"建南里","LIN":"28鄰","STREET":"四維一街","SECT":" ","MAREA":" ","LANE":"９１巷","ALLEY":" ","HOUSE_NO":"１號","E_COORD97":165818.39000000001,"N_COORD97":2561229.9900000002,"ADDRESS":"四維一街９１巷１號","OBJECTID":223357},"geometry":{"x":165818.39000000153,"y":2561229.9900000002}},{"attributes":{"ID":223362,"DIS_CODE":0,"TOWNNAME":"佳里區","LI":"建南里","LIN":"28鄰","STREET":"四維一街","SECT":" ","MAREA":" ","LANE":"９１巷","ALLEY":" ","HOUSE_NO":"２５號","E_COORD97":165849.32000000001,"N_COORD97":2561197.5499999998,"ADDRESS":"四維一街９１巷２５號","OBJECTID":223358},"geometry":{"x":165849.3200000003,"y":2561197.5500000026}},{"attributes":{"ID":223363,"DIS_CODE":0,"TOWNNAME":"佳里區","LI":"建南里","LIN":"28鄰","STREET":"四維一街","SECT":" ","MAREA":" ","LANE":"９１巷","ALLEY":" ","HOUSE_NO":"４３號","E_COORD97":165902.98999999999,"N_COORD97":2561185.9199999999,"ADDRESS":"四維一街９１巷４３號","OBJECTID":223359},"geometry":{"x":165902.98999999929,"y":2561185.9199999999}},{"attributes":{"ID":223364,"DIS_CODE":0,"TOWNNAME":"佳里區","LI":"安西里","LIN":"52鄰","STREET":"文化西路","SECT":" ","MAREA":" ","LANE":" ","ALLEY":" ","HOUSE_NO":"６０７號","E_COORD97":163443.34,"N_COORD97":2562439.7400000002,"ADDRESS":"文化西路６０７號","OBJECTID":223360},"geometry":{"x":163443.33999999985,"y":2562439.7400000021}},{"attributes":{"ID":223365,"DIS_CODE":0,"TOWNNAME":"佳里區","LI":"安西里","LIN":"52鄰","STREET":"文化西路","SECT":" ","MAREA":" ","LANE":" ","ALLEY":" ","HOUSE_NO":"６０９號","E_COORD97":163438.60999999999,"N_COORD97":2562439.3799999999,"ADDRESS":"文化西路６０９號","OBJECTID":223361},"geometry":{"x":163438.61000000034,"y":2562439.379999999}},{"attributes":{"ID":223366,"DIS_CODE":0,"TOWNNAME":"佳里區","LI":"安西里","LIN":"52鄰","STREET":"文化西路","SECT":" ","MAREA":" ","LANE":" ","ALLEY":" ","HOUSE_NO":"６１１號","E_COORD97":163433.88,"N_COORD97":2562439.02,"ADDRESS":"文化西路６１１號","OBJECTID":223362},"geometry":{"x":163433.88000000082,"y":2562439.0199999996}},{"attributes":{"ID":223367,"DIS_CODE":0,"TOWNNAME":"永康區","LI":"中華里","LIN":"20鄰","STREET":"中華路","SECT":" ","MAREA":" ","LANE":" ","ALLEY":" ","HOUSE_NO":"８號之７","E_COORD97":171576.75,"N_COORD97":2544461.7200000002,"ADDRESS":"中華路８號之７","OBJECTID":223363},"geometry":{"x":171576.75000000093,"y":2544461.7200000025}},{"attributes":{"ID":223368,"DIS_CODE":0,"TOWNNAME":"永康區","LI":"中華里","LIN":"8鄰","STREET":"忠勇街","SECT":" ","MAREA":" ","LANE":" ","ALLEY":" ","HOUSE_NO":"３４號","E_COORD97":171900.63,"N_COORD97":2544434.6800000002,"ADDRESS":"忠勇街３４號","OBJECTID":223364},"geometry":{"x":171900.62999999989,"y":2544434.6799999997}},{"attributes":{"ID":223369,"DIS_CODE":0,"TOWNNAME":"永康區","LI":"永康里","LIN":"28鄰","STREET":"永平街","SECT":" ","MAREA":" ","LANE":"４６９巷","ALLEY":" ","HOUSE_NO":"３１號","E_COORD97":174164.79999999999,"N_COORD97":2546928.48,"ADDRESS":"永平街４６９巷３１號","OBJECTID":223365},"geometry":{"x":174164.80000000075,"y":2546928.4800000023}},{"attributes":{"ID":223370,"DIS_CODE":0,"TOWNNAME":"東區","LI":"虎尾里","LIN":"24鄰","STREET":"東成街","SECT":" ","MAREA":" ","LANE":"２２２巷","ALLEY":" ","HOUSE_NO":"１號","E_COORD97":171956.38,"N_COORD97":2542270.4900000002,"ADDRESS":"東成街２２２巷１號","OBJECTID":223366},"geometry":{"x":171956.37999999989,"y":2542270.4900000002}},{"attributes":{"ID":223371,"DIS_CODE":0,"TOWNNAME":"永康區","LI":"南灣里","LIN":"28鄰","STREET":"立興街","SECT":" ","MAREA":" ","LANE":"６４巷","ALLEY":" ","HOUSE_NO":"９號","E_COORD97":174582.91,"N_COORD97":2544867.9100000001,"ADDRESS":"立興街６４巷９號","OBJECTID":223367},"geometry":{"x":174582.91000000201,"y":2544867.9100000001}},{"attributes":{"ID":223372,"DIS_CODE":0,"TOWNNAME":"永康區","LI":"東灣里","LIN":"28鄰","STREET":"民族路","SECT":" ","MAREA":" ","LANE":"１４５巷","ALLEY":" ","HOUSE_NO":"３號","E_COORD97":175308.94,"N_COORD97":2544795.0899999999,"ADDRESS":"民族路１４５巷３號","OBJECTID":223368},"geometry":{"x":175308.94000000134,"y":2544795.0899999999}},{"attributes":{"ID":223373,"DIS_CODE":0,"TOWNNAME":"永康區","LI":"東灣里","LIN":"28鄰","STREET":"民族路","SECT":" ","MAREA":" ","LANE":"１４５巷","ALLEY":" ","HOUSE_NO":"１３號","E_COORD97":175285.29999999999,"N_COORD97":2544780.3599999999,"ADDRESS":"民族路１４５巷１３號","OBJECTID":223369},"geometry":{"x":175285.30000000075,"y":2544780.3599999975}},{"attributes":{"ID":223374,"DIS_CODE":0,"TOWNNAME":"永康區","LI":"東灣里","LIN":"28鄰","STREET":"民族路","SECT":" ","MAREA":" ","LANE":"１４５巷","ALLEY":" ","HOUSE_NO":"１５號","E_COORD97":175281.48999999999,"N_COORD97":2544777.6200000001,"ADDRESS":"民族路１４５巷１５號","OBJECTID":223370},"geometry":{"x":175281.49000000115,"y":2544777.6200000029}},{"attributes":{"ID":223375,"DIS_CODE":0,"TOWNNAME":"永康區","LI":"東灣里","LIN":"28鄰","STREET":"民族路","SECT":" ","MAREA":" ","LANE":"１４５巷","ALLEY":" ","HOUSE_NO":"３７號","E_COORD97":175235.95000000001,"N_COORD97":2544751.8199999998,"ADDRESS":"民族路１４５巷３７號","OBJECTID":223371},"geometry":{"x":175235.95000000112,"y":2544751.8200000022}},{"attributes":{"ID":223376,"DIS_CODE":0,"TOWNNAME":"永康區","LI":"東灣里","LIN":"28鄰","STREET":"民族路","SECT":" ","MAREA":" ","LANE":"１４５巷","ALLEY":" ","HOUSE_NO":"２５號","E_COORD97":175261.98000000001,"N_COORD97":2544766.1200000001,"ADDRESS":"民族路１４５巷２５號","OBJECTID":223372},"geometry":{"x":175261.98000000045,"y":2544766.120000001}},{"attributes":{"ID":223377,"DIS_CODE":0,"TOWNNAME":"永康區","LI":"東灣里","LIN":"28鄰","STREET":"民族路","SECT":" ","MAREA":" ","LANE":"１４５巷","ALLEY":" ","HOUSE_NO":"１號","E_COORD97":175313.29000000001,"N_COORD97":2544797.5800000001,"ADDRESS":"民族路１４５巷１號","OBJECTID":223373},"geometry":{"x":175313.29000000097,"y":2544797.5800000019}},{"attributes":{"ID":223378,"DIS_CODE":0,"TOWNNAME":"安南區","LI":"海佃里","LIN":"28鄰","STREET":"郡安路","SECT":"六段","MAREA":" ","LANE":"５５巷","ALLEY":" ","HOUSE_NO":"１２６號","E_COORD97":166701.23000000001,"N_COORD97":2547467.9500000002,"ADDRESS":"郡安路六段５５巷１２６號","OBJECTID":223374},"geometry":{"x":166701.23000000045,"y":2547467.9499999993}},{"attributes":{"ID":223379,"DIS_CODE":0,"TOWNNAME":"東區","LI":"成大里","LIN":"28鄰","STREET":"勝利路","SECT":" ","MAREA":" ","LANE":"１７１巷","ALLEY":" ","HOUSE_NO":"９號","E_COORD97":169740.42000000001,"N_COORD97":2544052.6099999999,"ADDRESS":"勝利路１７１巷９號","OBJECTID":223375},"geometry":{"x":169740.41999999993,"y":2544052.6099999994}},{"attributes":{"ID":223380,"DIS_CODE":0,"TOWNNAME":"東區","LI":"成大里","LIN":"28鄰","STREET":"育樂街","SECT":" ","MAREA":" ","LANE":"４６巷","ALLEY":" ","HOUSE_NO":"５號","E_COORD97":169726.26000000001,"N_COORD97":2544039.2799999998,"ADDRESS":"育樂街４６巷５號","OBJECTID":223376},"geometry":{"x":169726.25999999978,"y":2544039.2800000012}},{"attributes":{"ID":223381,"DIS_CODE":0,"TOWNNAME":"永康區","LI":"東灣里","LIN":"28鄰","STREET":"民族路","SECT":" ","MAREA":" ","LANE":"１４５巷","ALLEY":" ","HOUSE_NO":"３３號","E_COORD97":175242.67999999999,"N_COORD97":2544756.4100000001,"ADDRESS":"民族路１４５巷３３號","OBJECTID":223377},"geometry":{"x":175242.6799999997,"y":2544756.4100000001}},{"attributes":{"ID":223382,"DIS_CODE":0,"TOWNNAME":"永康區","LI":"東灣里","LIN":"28鄰","STREET":"民族路","SECT":" ","MAREA":" ","LANE":"１４５巷","ALLEY":" ","HOUSE_NO":"１９號","E_COORD97":175274.10000000001,"N_COORD97":2544773.1200000001,"ADDRESS":"民族路１４５巷１９號","OBJECTID":223378},"geometry":{"x":175274.09999999963,"y":2544773.120000001}},{"attributes":{"ID":223383,"DIS_CODE":0,"TOWNNAME":"永康區","LI":"東灣里","LIN":"28鄰","STREET":"民族路","SECT":" ","MAREA":" ","LANE":"１４５巷","ALLEY":" ","HOUSE_NO":"３９號","E_COORD97":175232.20999999999,"N_COORD97":2544749.5699999998,"ADDRESS":"民族路１４５巷３９號","OBJECTID":223379},"geometry":{"x":175232.21000000089,"y":2544749.570000004}},{"attributes":{"ID":223384,"DIS_CODE":0,"TOWNNAME":"永康區","LI":"西灣里","LIN":"28鄰","STREET":"永大路","SECT":"二段","MAREA":" ","LANE":"４６９巷","ALLEY":" ","HOUSE_NO":"８６號","E_COORD97":174368.45000000001,"N_COORD97":2546168.96,"ADDRESS":"永大路二段４６９巷８６號","OBJECTID":223380},"geometry":{"x":174368.45000000019,"y":2546168.9600000028}},{"attributes":{"ID":223385,"DIS_CODE":0,"TOWNNAME":"永康區","LI":"南灣里","LIN":"28鄰","STREET":"立興街","SECT":" ","MAREA":" ","LANE":"６４巷","ALLEY":" ","HOUSE_NO":"１１號","E_COORD97":174524.45000000001,"N_COORD97":2544880.5,"ADDRESS":"立興街６４巷１１號","OBJECTID":223381},"geometry":{"x":174524.45000000019,"y":2544880.5}},{"attributes":{"ID":223386,"DIS_CODE":0,"TOWNNAME":"東區","LI":"泉南里","LIN":"4鄰","STREET":"東門路","SECT":"一段","MAREA":" ","LANE":"１５６巷","ALLEY":" ","HOUSE_NO":"１號","E_COORD97":169525.97,"N_COORD97":2543118.6299999999,"ADDRESS":"東門路一段１５６巷１號","OBJECTID":223382},"geometry":{"x":169525.97000000067,"y":2543118.6300000008}},{"attributes":{"ID":223387,"DIS_CODE":0,"TOWNNAME":"永康區","LI":"成功里","LIN":"28鄰","STREET":"忠孝路","SECT":" ","MAREA":" ","LANE":"１８１巷","ALLEY":" ","HOUSE_NO":"１１０號","E_COORD97":171765.82999999999,"N_COORD97":2544728.4900000002,"ADDRESS":"忠孝路１８１巷１１０號","OBJECTID":223383},"geometry":{"x":171765.82999999914,"y":2544728.4900000002}},{"attributes":{"ID":223388,"DIS_CODE":0,"TOWNNAME":"永康區","LI":"北灣里","LIN":"28鄰","STREET":"文賢街","SECT":" ","MAREA":" ","LANE":"７８巷","ALLEY":" ","HOUSE_NO":"２１號","E_COORD97":175463.89999999999,"N_COORD97":2545317.3199999998,"ADDRESS":"文賢街７８巷２１號","OBJECTID":223384},"geometry":{"x":175463.90000000037,"y":2545317.3199999984}},{"attributes":{"ID":223389,"DIS_CODE":0,"TOWNNAME":"永康區","LI":"永康里","LIN":"28鄰","STREET":"永平街","SECT":" ","MAREA":" ","LANE":"４６９巷","ALLEY":" ","HOUSE_NO":"１０號","E_COORD97":174154.34,"N_COORD97":2546873.3700000001,"ADDRESS":"永平街４６９巷１０號","OBJECTID":223385},"geometry":{"x":174154.34000000078,"y":2546873.370000001}},{"attributes":{"ID":223390,"DIS_CODE":0,"TOWNNAME":"安南區","LI":"鳳凰里","LIN":"28鄰","STREET":"安中路","SECT":"一段","MAREA":" ","LANE":"５６０巷","ALLEY":" ","HOUSE_NO":"２２號","E_COORD97":168044.39999999999,"N_COORD97":2549066.4300000002,"ADDRESS":"安中路一段５６０巷２２號","OBJECTID":223386},"geometry":{"x":168044.40000000037,"y":2549066.4300000016}},{"attributes":{"ID":223391,"DIS_CODE":0,"TOWNNAME":"安南區","LI":"鳳凰里","LIN":"28鄰","STREET":"安中路","SECT":"一段","MAREA":" ","LANE":"５６０巷","ALLEY":" ","HOUSE_NO":"３２號","E_COORD97":168054.82000000001,"N_COORD97":2549081.7999999998,"ADDRESS":"安中路一段５６０巷３２號","OBJECTID":223387},"geometry":{"x":168054.8200000003,"y":2549081.8000000026}},{"attributes":{"ID":223392,"DIS_CODE":0,"TOWNNAME":"安南區","LI":"鳳凰里","LIN":"28鄰","STREET":"安中路","SECT":"一段","MAREA":" ","LANE":"５６０巷","ALLEY":" ","HOUSE_NO":"２８號","E_COORD97":168049.60999999999,"N_COORD97":2549074.1800000002,"ADDRESS":"安中路一段５６０巷２８號","OBJECTID":223388},"geometry":{"x":168049.61000000034,"y":2549074.1799999978}},{"attributes":{"ID":223393,"DIS_CODE":0,"TOWNNAME":"安南區","LI":"鳳凰里","LIN":"28鄰","STREET":"安中路","SECT":"一段","MAREA":" ","LANE":"５６０巷","ALLEY":" ","HOUSE_NO":"２０號","E_COORD97":168042.12,"N_COORD97":2549063.2599999998,"ADDRESS":"安中路一段５６０巷２０號","OBJECTID":223389},"geometry":{"x":168042.12000000104,"y":2549063.2599999998}},{"attributes":{"ID":223394,"DIS_CODE":0,"TOWNNAME":"北區","LI":"大和里","LIN":"22鄰","STREET":"大港街","SECT":" ","MAREA":" ","LANE":"１２４巷","ALLEY":" ","HOUSE_NO":"３９號","E_COORD97":166967.42999999999,"N_COORD97":2546120.8399999999,"ADDRESS":"大港街１２４巷３９號","OBJECTID":223390},"geometry":{"x":166967.42999999877,"y":2546120.8400000017}},{"attributes":{"ID":223395,"DIS_CODE":0,"TOWNNAME":"佳里區","LI":"安西里","LIN":"28鄰","STREET":"安西路","SECT":" ","MAREA":" ","LANE":"３３５巷","ALLEY":" ","HOUSE_NO":"１８號","E_COORD97":165186.39999999999,"N_COORD97":2563051.79,"ADDRESS":"安西路３３５巷１８號","OBJECTID":223391},"geometry":{"x":165186.40000000037,"y":2563051.7900000028}},{"attributes":{"ID":223396,"DIS_CODE":0,"TOWNNAME":"仁德區","LI":"仁義里","LIN":"1鄰","STREET":"義林六街","SECT":" ","MAREA":" ","LANE":" ","ALLEY":" ","HOUSE_NO":"３６號","E_COORD97":174406.39000000001,"N_COORD97":2541076.7599999998,"ADDRESS":"義林六街３６號","OBJECTID":223392},"geometry":{"x":174406.3900000006,"y":2541076.7600000016}},{"attributes":{"ID":223397,"DIS_CODE":0,"TOWNNAME":"仁德區","LI":"仁義里","LIN":"1鄰","STREET":"義林三街","SECT":" ","MAREA":" ","LANE":" ","ALLEY":" ","HOUSE_NO":"９６號","E_COORD97":174146.10000000001,"N_COORD97":2540997.2599999998,"ADDRESS":"義林三街９６號","OBJECTID":223393},"geometry":{"x":174146.10000000056,"y":2540997.2599999998}},{"attributes":{"ID":223398,"DIS_CODE":0,"TOWNNAME":"仁德區","LI":"仁義里","LIN":"1鄰","STREET":"義林五街","SECT":" ","MAREA":" ","LANE":" ","ALLEY":" ","HOUSE_NO":"９號","E_COORD97":174432.85000000001,"N_COORD97":2540996.5099999998,"ADDRESS":"義林五街９號","OBJECTID":223394},"geometry":{"x":174432.84999999963,"y":2540996.5100000035}},{"attributes":{"ID":223399,"DIS_CODE":0,"TOWNNAME":"仁德區","LI":"仁義里","LIN":"1鄰","STREET":"義林五街","SECT":" ","MAREA":" ","LANE":" ","ALLEY":" ","HOUSE_NO":"１２０號","E_COORD97":174147.88,"N_COORD97":2541053.52,"ADDRESS":"義林五街１２０號","OBJECTID":223395},"geometry":{"x":174147.88000000082,"y":2541053.5199999977}},{"attributes":{"ID":223400,"DIS_CODE":0,"TOWNNAME":"歸仁區","LI":"辜厝里","LIN":"52鄰","STREET":"中正十街","SECT":" ","MAREA":" ","LANE":" ","ALLEY":" ","HOUSE_NO":"４５號","E_COORD97":177008.66,"N_COORD97":2540272.25,"ADDRESS":"中正十街４５號","OBJECTID":223396},"geometry":{"x":177008.66000000201,"y":2540272.25}},{"attributes":{"ID":223401,"DIS_CODE":0,"TOWNNAME":"永康區","LI":"中華里","LIN":"2鄰","STREET":"忠孝路","SECT":" ","MAREA":" ","LANE":" ","ALLEY":" ","HOUSE_NO":"５３號","E_COORD97":172070.63,"N_COORD97":2544481.0299999998,"ADDRESS":"忠孝路５３號","OBJECTID":223397},"geometry":{"x":172070.63000000175,"y":2544481.0300000031}},{"attributes":{"ID":223402,"DIS_CODE":0,"TOWNNAME":"永康區","LI":"中華里","LIN":"1鄰","STREET":"小東路","SECT":" ","MAREA":" ","LANE":" ","ALLEY":" ","HOUSE_NO":"６８９號之６０","E_COORD97":172059.73999999999,"N_COORD97":2544344.3399999999,"ADDRESS":"小東路６８９號之６０","OBJECTID":223398},"geometry":{"x":172059.74000000022,"y":2544344.3400000017}},{"attributes":{"ID":223403,"DIS_CODE":0,"TOWNNAME":"永康區","LI":"中華里","LIN":"1鄰","STREET":"小東路","SECT":" ","MAREA":" ","LANE":" ","ALLEY":" ","HOUSE_NO":"６８９號之７０","E_COORD97":172059.73999999999,"N_COORD97":2544344.3399999999,"ADDRESS":"小東路６８９號之７０","OBJECTID":223399},"geometry":{"x":172059.74000000022,"y":2544344.3400000017}},{"attributes":{"ID":223404,"DIS_CODE":0,"TOWNNAME":"永康區","LI":"中華里","LIN":"1鄰","STREET":"小東路","SECT":" ","MAREA":" ","LANE":" ","ALLEY":" ","HOUSE_NO":"６８９號之７９","E_COORD97":172059.78,"N_COORD97":2544344.3399999999,"ADDRESS":"小東路６８９號之７９","OBJECTID":223400},"geometry":{"x":172059.78000000212,"y":2544344.3400000017}}]}