{"displayFieldName":"TOWNNAME","fieldAliases":{"ID":"ID","DIS_CODE":"DIS_CODE","TOWNNAME":"TOWNNAME","LI":"LI","LIN":"LIN","STREET":"STREET","SECT":"SECT","MAREA":"MAREA","LANE":"LANE","ALLEY":"ALLEY","HOUSE_NO":"HOUSE_NO","E_COORD97":"E_COORD97","N_COORD97":"N_COORD97","ADDRESS":"ADDRESS","OBJECTID":"OBJECTID"},"geometryType":"esriGeometryPoint","spatialReference":{"wkid":102443,"latestWkid":3826},"fields":[{"name":"ID","type":"esriFieldTypeDouble","alias":"ID"},{"name":"DIS_CODE","type":"esriFieldTypeInteger","alias":"DIS_CODE"},{"name":"TOWNNAME","type":"esriFieldTypeString","alias":"TOWNNAME","length":8},{"name":"LI","type":"esriFieldTypeString","alias":"LI","length":8},{"name":"LIN","type":"esriFieldTypeString","alias":"LIN","length":12},{"name":"STREET","type":"esriFieldTypeString","alias":"STREET","length":20},{"name":"SECT","type":"esriFieldTypeString","alias":"SECT","length":8},{"name":"MAREA","type":"esriFieldTypeString","alias":"MAREA","length":12},{"name":"LANE","type":"esriFieldTypeString","alias":"LANE","length":10},{"name":"ALLEY","type":"esriFieldTypeString","alias":"ALLEY","length":10},{"name":"HOUSE_NO","type":"esriFieldTypeString","alias":"HOUSE_NO","length":20},{"name":"E_COORD97","type":"esriFieldTypeDouble","alias":"E_COORD97"},{"name":"N_COORD97","type":"esriFieldTypeDouble","alias":"N_COORD97"},{"name":"ADDRESS","type":"esriFieldTypeString","alias":"ADDRESS","length":50},{"name":"OBJECTID","type":"esriFieldTypeOID","alias":"OBJECTID"}],"features":[{"attributes":{"ID":411825,"DIS_CODE":0,"TOWNNAME":"北區","LI":"華興里","LIN":"3鄰","STREET":"南園街","SECT":" ","MAREA":" ","LANE":"１４巷","ALLEY":" ","HOUSE_NO":"８號","E_COORD97":170409.92999999999,"N_COORD97":2545455.7799999998,"ADDRESS":"南園街１４巷８號","OBJECTID":411801},"geometry":{"x":170409.9299999997,"y":2545455.7800000031}},{"attributes":{"ID":411826,"DIS_CODE":0,"TOWNNAME":"北區","LI":"華興里","LIN":"3鄰","STREET":"南園街","SECT":" ","MAREA":" ","LANE":"１４巷","ALLEY":" ","HOUSE_NO":"９號","E_COORD97":170423.12,"N_COORD97":2545448.6400000001,"ADDRESS":"南園街１４巷９號","OBJECTID":411802},"geometry":{"x":170423.12000000197,"y":2545448.6400000025}},{"attributes":{"ID":411827,"DIS_CODE":0,"TOWNNAME":"北區","LI":"華興里","LIN":"3鄰","STREET":"南園街","SECT":" ","MAREA":" ","LANE":"２８巷","ALLEY":" ","HOUSE_NO":"１０號","E_COORD97":170432.48000000001,"N_COORD97":2545438.7000000002,"ADDRESS":"南園街２８巷１０號","OBJECTID":411803},"geometry":{"x":170432.48000000045,"y":2545438.6999999993}},{"attributes":{"ID":411828,"DIS_CODE":0,"TOWNNAME":"北區","LI":"華興里","LIN":"3鄰","STREET":"南園街","SECT":" ","MAREA":" ","LANE":"２８巷","ALLEY":" ","HOUSE_NO":"１１號","E_COORD97":170443.79999999999,"N_COORD97":2545426.8900000001,"ADDRESS":"南園街２８巷１１號","OBJECTID":411804},"geometry":{"x":170443.80000000075,"y":2545426.8900000025}},{"attributes":{"ID":411829,"DIS_CODE":0,"TOWNNAME":"北區","LI":"華興里","LIN":"3鄰","STREET":"南園街","SECT":" ","MAREA":" ","LANE":"２８巷","ALLEY":" ","HOUSE_NO":"１２號","E_COORD97":170430.45999999999,"N_COORD97":2545434.5899999999,"ADDRESS":"南園街２８巷１２號","OBJECTID":411805},"geometry":{"x":170430.45999999996,"y":2545434.5900000017}},{"attributes":{"ID":411830,"DIS_CODE":0,"TOWNNAME":"北區","LI":"華興里","LIN":"3鄰","STREET":"南園街","SECT":" ","MAREA":" ","LANE":"２８巷","ALLEY":" ","HOUSE_NO":"１３號","E_COORD97":170441.37,"N_COORD97":2545423.1000000001,"ADDRESS":"南園街２８巷１３號","OBJECTID":411806},"geometry":{"x":170441.37000000011,"y":2545423.0999999996}},{"attributes":{"ID":411831,"DIS_CODE":0,"TOWNNAME":"北區","LI":"華興里","LIN":"3鄰","STREET":"南園街","SECT":" ","MAREA":" ","LANE":"２８巷","ALLEY":" ","HOUSE_NO":"１４號","E_COORD97":170427.31,"N_COORD97":2545430.04,"ADDRESS":"南園街２８巷１４號","OBJECTID":411807},"geometry":{"x":170427.30999999959,"y":2545430.0400000028}},{"attributes":{"ID":411832,"DIS_CODE":0,"TOWNNAME":"仁德區","LI":"後壁里","LIN":"28鄰","STREET":"德洋路","SECT":" ","MAREA":" ","LANE":"３９巷","ALLEY":" ","HOUSE_NO":"８號","E_COORD97":173105.88,"N_COORD97":2539001.0099999998,"ADDRESS":"德洋路３９巷８號","OBJECTID":411808},"geometry":{"x":173105.87999999989,"y":2539001.0100000016}},{"attributes":{"ID":411833,"DIS_CODE":0,"TOWNNAME":"北區","LI":"華興里","LIN":"3鄰","STREET":"南園街","SECT":" ","MAREA":" ","LANE":"２８巷","ALLEY":" ","HOUSE_NO":"１５號","E_COORD97":170439.26999999999,"N_COORD97":2545419.7799999998,"ADDRESS":"南園街２８巷１５號","OBJECTID":411809},"geometry":{"x":170439.27000000048,"y":2545419.7800000012}},{"attributes":{"ID":411834,"DIS_CODE":0,"TOWNNAME":"北區","LI":"華興里","LIN":"3鄰","STREET":"南園街","SECT":" ","MAREA":" ","LANE":"２８巷","ALLEY":" ","HOUSE_NO":"１７號","E_COORD97":170437.32999999999,"N_COORD97":2545415.9100000001,"ADDRESS":"南園街２８巷１７號","OBJECTID":411810},"geometry":{"x":170437.33000000101,"y":2545415.910000002}},{"attributes":{"ID":411835,"DIS_CODE":0,"TOWNNAME":"北區","LI":"華興里","LIN":"3鄰","STREET":"南園街","SECT":" ","MAREA":" ","LANE":"２８巷","ALLEY":" ","HOUSE_NO":"１號","E_COORD97":170453.60000000001,"N_COORD97":2545447.1899999999,"ADDRESS":"南園街２８巷１號","OBJECTID":411811},"geometry":{"x":170453.60000000056,"y":2545447.1900000013}},{"attributes":{"ID":411836,"DIS_CODE":0,"TOWNNAME":"北區","LI":"華興里","LIN":"3鄰","STREET":"南園街","SECT":" ","MAREA":" ","LANE":"２８巷","ALLEY":" ","HOUSE_NO":"５號","E_COORD97":170450.04000000001,"N_COORD97":2545439.1899999999,"ADDRESS":"南園街２８巷５號","OBJECTID":411812},"geometry":{"x":170450.04000000004,"y":2545439.1899999995}},{"attributes":{"ID":411837,"DIS_CODE":0,"TOWNNAME":"北區","LI":"華興里","LIN":"3鄰","STREET":"南園街","SECT":" ","MAREA":" ","LANE":"２８巷","ALLEY":" ","HOUSE_NO":"６號","E_COORD97":170437.57000000001,"N_COORD97":2545445.8100000001,"ADDRESS":"南園街２８巷６號","OBJECTID":411813},"geometry":{"x":170437.57000000123,"y":2545445.8100000005}},{"attributes":{"ID":411838,"DIS_CODE":0,"TOWNNAME":"北區","LI":"華興里","LIN":"3鄰","STREET":"南園街","SECT":" ","MAREA":" ","LANE":"２８巷","ALLEY":" ","HOUSE_NO":"７號","E_COORD97":170448.01999999999,"N_COORD97":2545434.4300000002,"ADDRESS":"南園街２８巷７號","OBJECTID":411814},"geometry":{"x":170448.01999999955,"y":2545434.4299999997}},{"attributes":{"ID":411839,"DIS_CODE":0,"TOWNNAME":"北區","LI":"華興里","LIN":"3鄰","STREET":"南園街","SECT":" ","MAREA":" ","LANE":"２８巷","ALLEY":" ","HOUSE_NO":"８號","E_COORD97":170434.91,"N_COORD97":2545442.6600000001,"ADDRESS":"南園街２８巷８號","OBJECTID":411815},"geometry":{"x":170434.91000000108,"y":2545442.6600000001}},{"attributes":{"ID":411840,"DIS_CODE":0,"TOWNNAME":"北區","LI":"華興里","LIN":"3鄰","STREET":"南園街","SECT":" ","MAREA":" ","LANE":"２８巷","ALLEY":" ","HOUSE_NO":"９號","E_COORD97":170445.82000000001,"N_COORD97":2545430.6899999999,"ADDRESS":"南園街２８巷９號","OBJECTID":411816},"geometry":{"x":170445.82000000216,"y":2545430.6900000013}},{"attributes":{"ID":411841,"DIS_CODE":0,"TOWNNAME":"關廟區","LI":"北花里","LIN":"3鄰","STREET":"旺萊路","SECT":" ","MAREA":" ","LANE":"５８１巷","ALLEY":" ","HOUSE_NO":"５０號","E_COORD97":182138.39000000001,"N_COORD97":2540338.25,"ADDRESS":"旺萊路５８１巷５０號","OBJECTID":411817},"geometry":{"x":182138.3900000006,"y":2540338.2500000019}},{"attributes":{"ID":411842,"DIS_CODE":0,"TOWNNAME":"關廟區","LI":"東勢里","LIN":"3鄰","STREET":"東安街","SECT":" ","MAREA":" ","LANE":"２４５巷","ALLEY":" ","HOUSE_NO":"６１號","E_COORD97":181660.92000000001,"N_COORD97":2539474.3199999998,"ADDRESS":"東安街２４５巷６１號","OBJECTID":411818},"geometry":{"x":181660.91999999993,"y":2539474.3200000003}},{"attributes":{"ID":411843,"DIS_CODE":0,"TOWNNAME":"仁德區","LI":"後壁里","LIN":"25鄰","STREET":"德洋一街","SECT":" ","MAREA":" ","LANE":"１０巷","ALLEY":" ","HOUSE_NO":"１２號","E_COORD97":173117.17000000001,"N_COORD97":2539089.02,"ADDRESS":"德洋一街１０巷１２號","OBJECTID":411819},"geometry":{"x":173117.16999999993,"y":2539089.0199999996}},{"attributes":{"ID":411844,"DIS_CODE":0,"TOWNNAME":"仁德區","LI":"後壁里","LIN":"13鄰","STREET":"德善路","SECT":" ","MAREA":" ","LANE":"１０８巷","ALLEY":" ","HOUSE_NO":"２９號","E_COORD97":173519.67999999999,"N_COORD97":2538754.52,"ADDRESS":"德善路１０８巷２９號","OBJECTID":411820},"geometry":{"x":173519.68000000063,"y":2538754.5199999996}},{"attributes":{"ID":411845,"DIS_CODE":0,"TOWNNAME":"仁德區","LI":"新田里","LIN":"7鄰","STREET":"新田路","SECT":" ","MAREA":" ","LANE":"３４巷","ALLEY":" ","HOUSE_NO":"８號","E_COORD97":174515.17999999999,"N_COORD97":2538923.2400000002,"ADDRESS":"新田路３４巷８號","OBJECTID":411821},"geometry":{"x":174515.18000000063,"y":2538923.2400000002}},{"attributes":{"ID":411846,"DIS_CODE":0,"TOWNNAME":"仁德區","LI":"後壁里","LIN":"15鄰","STREET":"德南路","SECT":" ","MAREA":" ","LANE":"１３７巷","ALLEY":" ","HOUSE_NO":"６８之１０號","E_COORD97":173661.63,"N_COORD97":2538647.8700000001,"ADDRESS":"德南路１３７巷６８之１０號","OBJECTID":411822},"geometry":{"x":173661.62999999989,"y":2538647.870000001}},{"attributes":{"ID":411847,"DIS_CODE":0,"TOWNNAME":"關廟區","LI":"田中里","LIN":"3鄰","STREET":"田大路","SECT":" ","MAREA":" ","LANE":"１７２巷","ALLEY":" ","HOUSE_NO":"７號","E_COORD97":184639.34,"N_COORD97":2533765.25,"ADDRESS":"田大路１７２巷７號","OBJECTID":411823},"geometry":{"x":184639.34000000078,"y":2533765.25}},{"attributes":{"ID":411848,"DIS_CODE":0,"TOWNNAME":"關廟區","LI":"深坑里","LIN":"3鄰","STREET":"南雄路","SECT":"一段","MAREA":" ","LANE":"４３３巷","ALLEY":" ","HOUSE_NO":"３２號","E_COORD97":181607.99131899999,"N_COORD97":2537554.9905500002,"ADDRESS":"南雄路一段４３３巷３２號","OBJECTID":411824},"geometry":{"x":181607.99131899979,"y":2537554.9905479997}},{"attributes":{"ID":411849,"DIS_CODE":0,"TOWNNAME":"仁德區","LI":"新田里","LIN":"4鄰","STREET":"新田路","SECT":" ","MAREA":" ","LANE":"１９９巷","ALLEY":" ","HOUSE_NO":"２號","E_COORD97":174482.48000000001,"N_COORD97":2539622.4900000002,"ADDRESS":"新田路１９９巷２號","OBJECTID":411825},"geometry":{"x":174482.48000000045,"y":2539622.4900000002}},{"attributes":{"ID":411850,"DIS_CODE":0,"TOWNNAME":"仁德區","LI":"後壁里","LIN":"34鄰","STREET":"德洋二街","SECT":" ","MAREA":" ","LANE":"２５巷","ALLEY":" ","HOUSE_NO":"９號","E_COORD97":172418.01999999999,"N_COORD97":2539374.02,"ADDRESS":"德洋二街２５巷９號","OBJECTID":411826},"geometry":{"x":172418.01999999955,"y":2539374.0199999996}},{"attributes":{"ID":411851,"DIS_CODE":0,"TOWNNAME":"仁德區","LI":"後壁里","LIN":"28鄰","STREET":"德洋路","SECT":" ","MAREA":" ","LANE":"２５巷","ALLEY":" ","HOUSE_NO":"２７號","E_COORD97":173110.20999999999,"N_COORD97":2538959.02,"ADDRESS":"德洋路２５巷２７號","OBJECTID":411827},"geometry":{"x":173110.20999999996,"y":2538959.0200000014}},{"attributes":{"ID":411852,"DIS_CODE":0,"TOWNNAME":"關廟區","LI":"五甲里","LIN":"3鄰","STREET":"旺萊路","SECT":" ","MAREA":" ","LANE":"５７巷","ALLEY":" ","HOUSE_NO":"１號","E_COORD97":181536.69,"N_COORD97":2539197.25,"ADDRESS":"旺萊路５７巷１號","OBJECTID":411828},"geometry":{"x":181536.69000000227,"y":2539197.25}},{"attributes":{"ID":411853,"DIS_CODE":0,"TOWNNAME":"關廟區","LI":"布袋里","LIN":"3鄰","STREET":"長文街","SECT":" ","MAREA":" ","LANE":"１１８巷","ALLEY":" ","HOUSE_NO":"２８號","E_COORD97":182887.73999999999,"N_COORD97":2535553.2999999998,"ADDRESS":"長文街１１８巷２８號","OBJECTID":411829},"geometry":{"x":182887.74000000115,"y":2535553.3000000007}},{"attributes":{"ID":411854,"DIS_CODE":0,"TOWNNAME":"關廟區","LI":"北花里","LIN":"3鄰","STREET":"中正路","SECT":" ","MAREA":" ","LANE":"６５７巷","ALLEY":" ","HOUSE_NO":"１５號","E_COORD97":182031.20999999999,"N_COORD97":2540329.25,"ADDRESS":"中正路６５７巷１５號","OBJECTID":411830},"geometry":{"x":182031.21000000089,"y":2540329.25}},{"attributes":{"ID":411855,"DIS_CODE":0,"TOWNNAME":"關廟區","LI":"東勢里","LIN":"3鄰","STREET":"東安街","SECT":" ","MAREA":" ","LANE":"２４５巷","ALLEY":" ","HOUSE_NO":"７３號","E_COORD97":181660.51999999999,"N_COORD97":2539514.3199999998,"ADDRESS":"東安街２４５巷７３號","OBJECTID":411831},"geometry":{"x":181660.51999999862,"y":2539514.3200000022}},{"attributes":{"ID":411856,"DIS_CODE":0,"TOWNNAME":"關廟區","LI":"深坑里","LIN":"3鄰","STREET":"南雄路","SECT":"一段","MAREA":" ","LANE":"４３３巷","ALLEY":" ","HOUSE_NO":"１６號","E_COORD97":181651.12,"N_COORD97":2537579.2999999998,"ADDRESS":"南雄路一段４３３巷１６號","OBJECTID":411832},"geometry":{"x":181651.12000000104,"y":2537579.3000000026}},{"attributes":{"ID":411857,"DIS_CODE":0,"TOWNNAME":"關廟區","LI":"五甲里","LIN":"3鄰","STREET":"旺萊路","SECT":" ","MAREA":" ","LANE":"５７巷","ALLEY":" ","HOUSE_NO":"２０號","E_COORD97":181557.54000000001,"N_COORD97":2539263.25,"ADDRESS":"旺萊路５７巷２０號","OBJECTID":411833},"geometry":{"x":181557.5400000019,"y":2539263.2500000019}},{"attributes":{"ID":411858,"DIS_CODE":0,"TOWNNAME":"關廟區","LI":"深坑里","LIN":"3鄰","STREET":"南雄路","SECT":"一段","MAREA":" ","LANE":"３９８巷","ALLEY":" ","HOUSE_NO":"１２號","E_COORD97":181776.87,"N_COORD97":2537607.2999999998,"ADDRESS":"南雄路一段３９８巷１２號","OBJECTID":411834},"geometry":{"x":181776.87000000011,"y":2537607.3000000007}},{"attributes":{"ID":411859,"DIS_CODE":0,"TOWNNAME":"關廟區","LI":"北花里","LIN":"3鄰","STREET":"旺萊路","SECT":" ","MAREA":" ","LANE":"５８１巷","ALLEY":" ","HOUSE_NO":"３５號","E_COORD97":182141.79000000001,"N_COORD97":2540325.25,"ADDRESS":"旺萊路５８１巷３５號","OBJECTID":411835},"geometry":{"x":182141.79000000004,"y":2540325.2500000019}},{"attributes":{"ID":411860,"DIS_CODE":0,"TOWNNAME":"東區","LI":"大智里","LIN":"40鄰","STREET":"文東街","SECT":" ","MAREA":" ","LANE":"２巷","ALLEY":" ","HOUSE_NO":"６號","E_COORD97":171332.45000000001,"N_COORD97":2540126.7400000002,"ADDRESS":"文東街２巷６號","OBJECTID":411836},"geometry":{"x":171332.45000000019,"y":2540126.7400000002}},{"attributes":{"ID":411861,"DIS_CODE":0,"TOWNNAME":"關廟區","LI":"東勢里","LIN":"3鄰","STREET":"東安街","SECT":" ","MAREA":" ","LANE":"２４５巷","ALLEY":" ","HOUSE_NO":"６９號","E_COORD97":181660.12,"N_COORD97":2539505.3199999998,"ADDRESS":"東安街２４５巷６９號","OBJECTID":411837},"geometry":{"x":181660.12000000011,"y":2539505.3200000003}},{"attributes":{"ID":411862,"DIS_CODE":0,"TOWNNAME":"關廟區","LI":"北花里","LIN":"3鄰","STREET":"旺萊路","SECT":" ","MAREA":" ","LANE":"５８１巷","ALLEY":" ","HOUSE_NO":"４１號","E_COORD97":182101.09,"N_COORD97":2540335.25,"ADDRESS":"旺萊路５８１巷４１號","OBJECTID":411838},"geometry":{"x":182101.08999999892,"y":2540335.2500000019}},{"attributes":{"ID":411863,"DIS_CODE":0,"TOWNNAME":"關廟區","LI":"新光里","LIN":"3鄰","STREET":"新湖街","SECT":" ","MAREA":" ","LANE":"１２０巷","ALLEY":" ","HOUSE_NO":"１５號","E_COORD97":183638.37,"N_COORD97":2541839.25,"ADDRESS":"新湖街１２０巷１５號","OBJECTID":411839},"geometry":{"x":183638.37000000011,"y":2541839.2500000037}},{"attributes":{"ID":411864,"DIS_CODE":0,"TOWNNAME":"關廟區","LI":"東勢里","LIN":"3鄰","STREET":"東安街","SECT":" ","MAREA":" ","LANE":"２２１巷","ALLEY":" ","HOUSE_NO":"３７號","E_COORD97":181593.72,"N_COORD97":2539482.3199999998,"ADDRESS":"東安街２２１巷３７號","OBJECTID":411840},"geometry":{"x":181593.72000000067,"y":2539482.3200000003}},{"attributes":{"ID":411865,"DIS_CODE":0,"TOWNNAME":"關廟區","LI":"布袋里","LIN":"3鄰","STREET":"長文街","SECT":" ","MAREA":" ","LANE":"３６巷","ALLEY":" ","HOUSE_NO":"１０號","E_COORD97":183031.89000000001,"N_COORD97":2535547.25,"ADDRESS":"長文街３６巷１０號","OBJECTID":411841},"geometry":{"x":183031.8900000006,"y":2535547.2500000019}},{"attributes":{"ID":411866,"DIS_CODE":0,"TOWNNAME":"關廟區","LI":"北花里","LIN":"3鄰","STREET":"旺萊路","SECT":" ","MAREA":" ","LANE":"５８１巷","ALLEY":" ","HOUSE_NO":"４６號","E_COORD97":182146.39000000001,"N_COORD97":2540336.25,"ADDRESS":"旺萊路５８１巷４６號","OBJECTID":411842},"geometry":{"x":182146.39000000153,"y":2540336.25}},{"attributes":{"ID":411867,"DIS_CODE":0,"TOWNNAME":"關廟區","LI":"北勢里","LIN":"3鄰","STREET":"北仁街","SECT":" ","MAREA":" ","LANE":"８９巷","ALLEY":" ","HOUSE_NO":"９號","E_COORD97":181426.54000000001,"N_COORD97":2540302.25,"ADDRESS":"北仁街８９巷９號","OBJECTID":411843},"geometry":{"x":181426.54000000004,"y":2540302.25}},{"attributes":{"ID":411868,"DIS_CODE":0,"TOWNNAME":"關廟區","LI":"山西里","LIN":"3鄰","STREET":"興中街","SECT":" ","MAREA":" ","LANE":"２６巷","ALLEY":" ","HOUSE_NO":"６號","E_COORD97":180937.51999999999,"N_COORD97":2540282.25,"ADDRESS":"興中街２６巷６號","OBJECTID":411844},"geometry":{"x":180937.52000000048,"y":2540282.25}},{"attributes":{"ID":411869,"DIS_CODE":0,"TOWNNAME":"關廟區","LI":"北花里","LIN":"3鄰","STREET":"花園二街","SECT":" ","MAREA":" ","LANE":"４６巷","ALLEY":" ","HOUSE_NO":"８號","E_COORD97":182118.34,"N_COORD97":2540311.25,"ADDRESS":"花園二街４６巷８號","OBJECTID":411845},"geometry":{"x":182118.34000000078,"y":2540311.2500000019}},{"attributes":{"ID":411870,"DIS_CODE":0,"TOWNNAME":"關廟區","LI":"北花里","LIN":"3鄰","STREET":"花園二街","SECT":" ","MAREA":" ","LANE":"４６巷","ALLEY":" ","HOUSE_NO":"１號","E_COORD97":182113.34,"N_COORD97":2540329.25,"ADDRESS":"花園二街４６巷１號","OBJECTID":411846},"geometry":{"x":182113.34000000078,"y":2540329.25}},{"attributes":{"ID":411871,"DIS_CODE":0,"TOWNNAME":"北區","LI":"開元里","LIN":"3鄰","STREET":"北園街","SECT":" ","MAREA":" ","LANE":"９９巷","ALLEY":" ","HOUSE_NO":"４６號","E_COORD97":170221.37,"N_COORD97":2545883.8300000001,"ADDRESS":"北園街９９巷４６號","OBJECTID":411847},"geometry":{"x":170221.37000000197,"y":2545883.8300000019}},{"attributes":{"ID":411872,"DIS_CODE":0,"TOWNNAME":"仁德區","LI":"新田里","LIN":"10鄰","STREET":"北保路","SECT":" ","MAREA":" ","LANE":"９５巷","ALLEY":" ","HOUSE_NO":"１２號","E_COORD97":173267.81,"N_COORD97":2539561.9900000002,"ADDRESS":"北保路９５巷１２號","OBJECTID":411848},"geometry":{"x":173267.81000000052,"y":2539561.9900000002}},{"attributes":{"ID":411873,"DIS_CODE":0,"TOWNNAME":"北區","LI":"開元里","LIN":"3鄰","STREET":"北園街","SECT":" ","MAREA":" ","LANE":"９９巷","ALLEY":" ","HOUSE_NO":"１２號","E_COORD97":170298.31,"N_COORD97":2545877.3599999999,"ADDRESS":"北園街９９巷１２號","OBJECTID":411849},"geometry":{"x":170298.31000000052,"y":2545877.3600000013}},{"attributes":{"ID":411874,"DIS_CODE":0,"TOWNNAME":"北區","LI":"開元里","LIN":"3鄰","STREET":"北園街","SECT":" ","MAREA":" ","LANE":"９９巷","ALLEY":" ","HOUSE_NO":"１４號","E_COORD97":170293.95000000001,"N_COORD97":2545877.6899999999,"ADDRESS":"北園街９９巷１４號","OBJECTID":411850},"geometry":{"x":170293.95000000205,"y":2545877.6900000013}},{"attributes":{"ID":411875,"DIS_CODE":0,"TOWNNAME":"北區","LI":"開元里","LIN":"3鄰","STREET":"北園街","SECT":" ","MAREA":" ","LANE":"９９巷","ALLEY":" ","HOUSE_NO":"１６號","E_COORD97":170289.69,"N_COORD97":2545878.2400000002,"ADDRESS":"北園街９９巷１６號","OBJECTID":411851},"geometry":{"x":170289.69000000134,"y":2545878.2400000021}},{"attributes":{"ID":411876,"DIS_CODE":0,"TOWNNAME":"北區","LI":"元寶里","LIN":"3鄰","STREET":"北園街","SECT":" ","MAREA":" ","LANE":"４６巷","ALLEY":" ","HOUSE_NO":"３號","E_COORD97":170402.04000000001,"N_COORD97":2545794.8100000001,"ADDRESS":"北園街４６巷３號","OBJECTID":411852},"geometry":{"x":170402.04000000097,"y":2545794.8100000005}},{"attributes":{"ID":411877,"DIS_CODE":0,"TOWNNAME":"北區","LI":"元寶里","LIN":"3鄰","STREET":"北園街","SECT":" ","MAREA":" ","LANE":"４６巷","ALLEY":" ","HOUSE_NO":"５號","E_COORD97":170406.32000000001,"N_COORD97":2545791.8900000001,"ADDRESS":"北園街４６巷５號","OBJECTID":411853},"geometry":{"x":170406.3200000003,"y":2545791.8900000043}},{"attributes":{"ID":411878,"DIS_CODE":0,"TOWNNAME":"北區","LI":"元寶里","LIN":"3鄰","STREET":"北園街","SECT":" ","MAREA":" ","LANE":"４６巷","ALLEY":" ","HOUSE_NO":"７號","E_COORD97":170410.60000000001,"N_COORD97":2545794.8100000001,"ADDRESS":"北園街４６巷７號","OBJECTID":411854},"geometry":{"x":170410.59999999963,"y":2545794.8100000005}},{"attributes":{"ID":411879,"DIS_CODE":0,"TOWNNAME":"北區","LI":"元寶里","LIN":"3鄰","STREET":"北園街","SECT":" ","MAREA":" ","LANE":"４６巷","ALLEY":" ","HOUSE_NO":"９號","E_COORD97":170415.32000000001,"N_COORD97":2545793.46,"ADDRESS":"北園街４６巷９號","OBJECTID":411855},"geometry":{"x":170415.32000000216,"y":2545793.4600000028}},{"attributes":{"ID":411880,"DIS_CODE":0,"TOWNNAME":"北區","LI":"元寶里","LIN":"3鄰","STREET":"北園街","SECT":" ","MAREA":" ","LANE":"８０巷","ALLEY":" ","HOUSE_NO":"１２號","E_COORD97":170382.01000000001,"N_COORD97":2545833.02,"ADDRESS":"北園街８０巷１２號","OBJECTID":411856},"geometry":{"x":170382.00999999978,"y":2545833.0199999996}},{"attributes":{"ID":411881,"DIS_CODE":0,"TOWNNAME":"北區","LI":"元寶里","LIN":"3鄰","STREET":"北園街","SECT":" ","MAREA":" ","LANE":"８０巷","ALLEY":" ","HOUSE_NO":"１４號","E_COORD97":170383.14000000001,"N_COORD97":2545828.5299999998,"ADDRESS":"北園街８０巷１４號","OBJECTID":411857},"geometry":{"x":170383.13999999966,"y":2545828.5300000012}},{"attributes":{"ID":411882,"DIS_CODE":0,"TOWNNAME":"北區","LI":"元寶里","LIN":"3鄰","STREET":"北園街","SECT":" ","MAREA":" ","LANE":"８０巷","ALLEY":" ","HOUSE_NO":"１６號","E_COORD97":170382.91,"N_COORD97":2545824.7000000002,"ADDRESS":"北園街８０巷１６號","OBJECTID":411858},"geometry":{"x":170382.91000000108,"y":2545824.6999999993}},{"attributes":{"ID":411883,"DIS_CODE":0,"TOWNNAME":"北區","LI":"元寶里","LIN":"3鄰","STREET":"北園街","SECT":" ","MAREA":" ","LANE":"８０巷","ALLEY":" ","HOUSE_NO":"１８號","E_COORD97":170383.59,"N_COORD97":2545820.4399999999,"ADDRESS":"北園街８０巷１８號","OBJECTID":411859},"geometry":{"x":170383.58999999985,"y":2545820.4399999995}},{"attributes":{"ID":411884,"DIS_CODE":0,"TOWNNAME":"北區","LI":"元寶里","LIN":"3鄰","STREET":"北園街","SECT":" ","MAREA":" ","LANE":"８０巷","ALLEY":" ","HOUSE_NO":"２０號","E_COORD97":170382.91,"N_COORD97":2545815.7200000002,"ADDRESS":"北園街８０巷２０號","OBJECTID":411860},"geometry":{"x":170382.91000000108,"y":2545815.7200000007}},{"attributes":{"ID":411885,"DIS_CODE":0,"TOWNNAME":"北區","LI":"元寶里","LIN":"3鄰","STREET":"北園街","SECT":" ","MAREA":" ","LANE":"８０巷","ALLEY":" ","HOUSE_NO":"２２號","E_COORD97":170383.14000000001,"N_COORD97":2545811.2200000002,"ADDRESS":"北園街８０巷２２號","OBJECTID":411861},"geometry":{"x":170383.13999999966,"y":2545811.2200000025}},{"attributes":{"ID":411886,"DIS_CODE":0,"TOWNNAME":"北區","LI":"元寶里","LIN":"3鄰","STREET":"北園街","SECT":" ","MAREA":" ","LANE":"８０巷","ALLEY":" ","HOUSE_NO":"２４號","E_COORD97":170383.81,"N_COORD97":2545806.5,"ADDRESS":"北園街８０巷２４號","OBJECTID":411862},"geometry":{"x":170383.80999999959,"y":2545806.5}},{"attributes":{"ID":411887,"DIS_CODE":0,"TOWNNAME":"北區","LI":"元寶里","LIN":"3鄰","STREET":"北園街","SECT":" ","MAREA":" ","LANE":"８０巷","ALLEY":" ","HOUSE_NO":"２６號","E_COORD97":170384.04000000001,"N_COORD97":2545802.6800000002,"ADDRESS":"北園街８０巷２６號","OBJECTID":411863},"geometry":{"x":170384.04000000004,"y":2545802.6800000034}},{"attributes":{"ID":411888,"DIS_CODE":0,"TOWNNAME":"北區","LI":"元寶里","LIN":"3鄰","STREET":"北園街","SECT":" ","MAREA":" ","LANE":"８０巷","ALLEY":" ","HOUSE_NO":"２８號","E_COORD97":170384.26000000001,"N_COORD97":2545798.1800000002,"ADDRESS":"北園街８０巷２８號","OBJECTID":411864},"geometry":{"x":170384.25999999978,"y":2545798.1799999997}},{"attributes":{"ID":411889,"DIS_CODE":0,"TOWNNAME":"北區","LI":"元寶里","LIN":"3鄰","STREET":"北園街","SECT":" ","MAREA":" ","LANE":"８０巷","ALLEY":" ","HOUSE_NO":"２號","E_COORD97":170381.10999999999,"N_COORD97":2545855.2799999998,"ADDRESS":"北園街８０巷２號","OBJECTID":411865},"geometry":{"x":170381.1100000022,"y":2545855.2799999993}},{"attributes":{"ID":411890,"DIS_CODE":0,"TOWNNAME":"北區","LI":"元寶里","LIN":"3鄰","STREET":"北園街","SECT":" ","MAREA":" ","LANE":"８０巷","ALLEY":" ","HOUSE_NO":"４８號","E_COORD97":170429.14999999999,"N_COORD97":2545807.1200000001,"ADDRESS":"北園街８０巷４８號","OBJECTID":411866},"geometry":{"x":170429.15000000037,"y":2545807.120000001}},{"attributes":{"ID":411891,"DIS_CODE":0,"TOWNNAME":"北區","LI":"元寶里","LIN":"3鄰","STREET":"北園街","SECT":" ","MAREA":" ","LANE":"８０巷","ALLEY":" ","HOUSE_NO":"４號","E_COORD97":170381.10999999999,"N_COORD97":2545850.3300000001,"ADDRESS":"北園街８０巷４號","OBJECTID":411867},"geometry":{"x":170381.1100000022,"y":2545850.3300000019}},{"attributes":{"ID":411892,"DIS_CODE":0,"TOWNNAME":"北區","LI":"元寶里","LIN":"3鄰","STREET":"北園街","SECT":" ","MAREA":" ","LANE":"８０巷","ALLEY":" ","HOUSE_NO":"５０號","E_COORD97":170432.29999999999,"N_COORD97":2545807.4700000002,"ADDRESS":"北園街８０巷５０號","OBJECTID":411868},"geometry":{"x":170432.30000000075,"y":2545807.4700000007}},{"attributes":{"ID":411893,"DIS_CODE":0,"TOWNNAME":"北區","LI":"元寶里","LIN":"3鄰","STREET":"北園街","SECT":" ","MAREA":" ","LANE":"８０巷","ALLEY":" ","HOUSE_NO":"５２號","E_COORD97":170433.35000000001,"N_COORD97":2545825.7799999998,"ADDRESS":"北園街８０巷５２號","OBJECTID":411869},"geometry":{"x":170433.35000000056,"y":2545825.7800000012}},{"attributes":{"ID":411894,"DIS_CODE":0,"TOWNNAME":"北區","LI":"玉皇里","LIN":"13鄰","STREET":"公園路","SECT":" ","MAREA":" ","LANE":" ","ALLEY":" ","HOUSE_NO":"２０５號","E_COORD97":168777.59,"N_COORD97":2544444.5,"ADDRESS":"公園路２０５號","OBJECTID":411870},"geometry":{"x":168777.59000000078,"y":2544444.4999999981}},{"attributes":{"ID":411895,"DIS_CODE":0,"TOWNNAME":"北區","LI":"元寶里","LIN":"3鄰","STREET":"北園街","SECT":" ","MAREA":" ","LANE":"８０巷","ALLEY":" ","HOUSE_NO":"５４號","E_COORD97":170433,"N_COORD97":2545830.3199999998,"ADDRESS":"北園街８０巷５４號","OBJECTID":411871},"geometry":{"x":170433.00000000093,"y":2545830.3200000022}},{"attributes":{"ID":411896,"DIS_CODE":0,"TOWNNAME":"北區","LI":"元寶里","LIN":"3鄰","STREET":"北園街","SECT":" ","MAREA":" ","LANE":"８０巷","ALLEY":" ","HOUSE_NO":"５６號","E_COORD97":170434.04999999999,"N_COORD97":2545835.21,"ADDRESS":"北園街８０巷５６號","OBJECTID":411872},"geometry":{"x":170434.05000000075,"y":2545835.2100000028}},{"attributes":{"ID":411897,"DIS_CODE":0,"TOWNNAME":"北區","LI":"元寶里","LIN":"3鄰","STREET":"北園街","SECT":" ","MAREA":" ","LANE":"８０巷","ALLEY":" ","HOUSE_NO":"５８號","E_COORD97":170433,"N_COORD97":2545839.7599999998,"ADDRESS":"北園街８０巷５８號","OBJECTID":411873},"geometry":{"x":170433.00000000093,"y":2545839.7600000035}},{"attributes":{"ID":411898,"DIS_CODE":0,"TOWNNAME":"北區","LI":"元寶里","LIN":"3鄰","STREET":"北園街","SECT":" ","MAREA":" ","LANE":"８０巷","ALLEY":" ","HOUSE_NO":"６０號","E_COORD97":170432.29999999999,"N_COORD97":2545842.8999999999,"ADDRESS":"北園街８０巷６０號","OBJECTID":411874},"geometry":{"x":170432.30000000075,"y":2545842.9000000022}},{"attributes":{"ID":411899,"DIS_CODE":0,"TOWNNAME":"北區","LI":"文元里","LIN":"3鄰","STREET":"北成路","SECT":" ","MAREA":" ","LANE":"４８１巷","ALLEY":" ","HOUSE_NO":"５０號","E_COORD97":167753.94,"N_COORD97":2546455.5899999999,"ADDRESS":"北成路４８１巷５０號","OBJECTID":411875},"geometry":{"x":167753.94000000041,"y":2546455.5900000017}},{"attributes":{"ID":411900,"DIS_CODE":0,"TOWNNAME":"北區","LI":"文元里","LIN":"3鄰","STREET":"北成路","SECT":" ","MAREA":" ","LANE":"４８１巷","ALLEY":" ","HOUSE_NO":"５２號","E_COORD97":167749.81,"N_COORD97":2546449.5699999998,"ADDRESS":"北成路４８１巷５２號","OBJECTID":411876},"geometry":{"x":167749.81000000145,"y":2546449.5700000022}},{"attributes":{"ID":411901,"DIS_CODE":0,"TOWNNAME":"北區","LI":"文元里","LIN":"3鄰","STREET":"北成路","SECT":" ","MAREA":" ","LANE":"４８１巷","ALLEY":" ","HOUSE_NO":"５６號","E_COORD97":167745.20999999999,"N_COORD97":2546443.0600000001,"ADDRESS":"北成路４８１巷５６號","OBJECTID":411877},"geometry":{"x":167745.20999999996,"y":2546443.0600000024}},{"attributes":{"ID":411902,"DIS_CODE":0,"TOWNNAME":"北區","LI":"文元里","LIN":"3鄰","STREET":"北成路","SECT":" ","MAREA":" ","LANE":"４８１巷","ALLEY":" ","HOUSE_NO":"５８號","E_COORD97":167742.04000000001,"N_COORD97":2546439.0899999999,"ADDRESS":"北成路４８１巷５８號","OBJECTID":411878},"geometry":{"x":167742.04000000097,"y":2546439.0900000017}},{"attributes":{"ID":411903,"DIS_CODE":0,"TOWNNAME":"新營區","LI":"新東里","LIN":"3鄰","STREET":"東大街","SECT":" ","MAREA":" ","LANE":"１２巷","ALLEY":" ","HOUSE_NO":"１３號","E_COORD97":181050.51999999999,"N_COORD97":2579058.3900000001,"ADDRESS":"東大街１２巷１３號","OBJECTID":411879},"geometry":{"x":181050.52000000048,"y":2579058.3900000043}},{"attributes":{"ID":411904,"DIS_CODE":0,"TOWNNAME":"新營區","LI":"新東里","LIN":"3鄰","STREET":"東大街","SECT":" ","MAREA":" ","LANE":"１２巷","ALLEY":" ","HOUSE_NO":"５號","E_COORD97":181031.91,"N_COORD97":2579058.4700000002,"ADDRESS":"東大街１２巷５號","OBJECTID":411880},"geometry":{"x":181031.91000000108,"y":2579058.4700000025}},{"attributes":{"ID":411905,"DIS_CODE":0,"TOWNNAME":"新營區","LI":"忠政里","LIN":"3鄰","STREET":"中正路","SECT":" ","MAREA":" ","LANE":"３５巷","ALLEY":" ","HOUSE_NO":"３之１號","E_COORD97":180079.34,"N_COORD97":2579095.1099999999,"ADDRESS":"中正路３５巷３之１號","OBJECTID":411881},"geometry":{"x":180079.34000000078,"y":2579095.1099999994}},{"attributes":{"ID":411906,"DIS_CODE":0,"TOWNNAME":"新營區","LI":"王公里","LIN":"3鄰","STREET":"民治路","SECT":" ","MAREA":" ","LANE":"２６巷","ALLEY":" ","HOUSE_NO":"４號","E_COORD97":180258.23000000001,"N_COORD97":2578956.8900000001,"ADDRESS":"民治路２６巷４號","OBJECTID":411882},"geometry":{"x":180258.23000000231,"y":2578956.8900000043}},{"attributes":{"ID":411907,"DIS_CODE":0,"TOWNNAME":"新營區","LI":"忠政里","LIN":"3鄰","STREET":"中正路","SECT":" ","MAREA":" ","LANE":"３５巷","ALLEY":" ","HOUSE_NO":"１之１號","E_COORD97":180089.47,"N_COORD97":2579093.96,"ADDRESS":"中正路３５巷１之１號","OBJECTID":411883},"geometry":{"x":180089.46999999974,"y":2579093.9600000009}},{"attributes":{"ID":411908,"DIS_CODE":0,"TOWNNAME":"鹽水區","LI":"水仙里","LIN":"3鄰","STREET":"中山路","SECT":" ","MAREA":" ","LANE":"３巷","ALLEY":" ","HOUSE_NO":"１０號","E_COORD97":175053.84,"N_COORD97":2579812.1099999999,"ADDRESS":"中山路３巷１０號","OBJECTID":411884},"geometry":{"x":175053.83999999985,"y":2579812.1100000013}},{"attributes":{"ID":411909,"DIS_CODE":0,"TOWNNAME":"鹽水區","LI":"水仙里","LIN":"3鄰","STREET":"中山路","SECT":" ","MAREA":" ","LANE":"３巷","ALLEY":" ","HOUSE_NO":"１１號","E_COORD97":175052.89999999999,"N_COORD97":2579806.0600000001,"ADDRESS":"中山路３巷１１號","OBJECTID":411885},"geometry":{"x":175052.90000000224,"y":2579806.0600000005}},{"attributes":{"ID":411910,"DIS_CODE":0,"TOWNNAME":"鹽水區","LI":"水仙里","LIN":"3鄰","STREET":"中山路","SECT":" ","MAREA":" ","LANE":"３巷","ALLEY":" ","HOUSE_NO":"１３號","E_COORD97":175052.20999999999,"N_COORD97":2579794.5099999998,"ADDRESS":"中山路３巷１３號","OBJECTID":411886},"geometry":{"x":175052.21000000089,"y":2579794.5099999998}},{"attributes":{"ID":411911,"DIS_CODE":0,"TOWNNAME":"鹽水區","LI":"水仙里","LIN":"3鄰","STREET":"中山路","SECT":" ","MAREA":" ","LANE":"３巷","ALLEY":" ","HOUSE_NO":"１４之１號","E_COORD97":175056.5,"N_COORD97":2579784.2200000002,"ADDRESS":"中山路３巷１４之１號","OBJECTID":411887},"geometry":{"x":175056.5,"y":2579784.2200000007}},{"attributes":{"ID":411912,"DIS_CODE":0,"TOWNNAME":"鹽水區","LI":"水仙里","LIN":"3鄰","STREET":"中山路","SECT":" ","MAREA":" ","LANE":"３巷","ALLEY":" ","HOUSE_NO":"１４號之１","E_COORD97":175056.5,"N_COORD97":2579784.2200000002,"ADDRESS":"中山路３巷１４號之１","OBJECTID":411888},"geometry":{"x":175056.5,"y":2579784.2200000007}},{"attributes":{"ID":411913,"DIS_CODE":0,"TOWNNAME":"鹽水區","LI":"水仙里","LIN":"3鄰","STREET":"中山路","SECT":" ","MAREA":" ","LANE":"３巷","ALLEY":" ","HOUSE_NO":"１４號之３","E_COORD97":175056.29999999999,"N_COORD97":2579770.3999999999,"ADDRESS":"中山路３巷１４號之３","OBJECTID":411889},"geometry":{"x":175056.30000000168,"y":2579770.4000000022}},{"attributes":{"ID":411914,"DIS_CODE":0,"TOWNNAME":"鹽水區","LI":"水仙里","LIN":"3鄰","STREET":"中山路","SECT":" ","MAREA":" ","LANE":"３巷","ALLEY":" ","HOUSE_NO":"６號","E_COORD97":175059.94,"N_COORD97":2579856.1400000001,"ADDRESS":"中山路３巷６號","OBJECTID":411890},"geometry":{"x":175059.94000000134,"y":2579856.1400000006}},{"attributes":{"ID":411915,"DIS_CODE":0,"TOWNNAME":"鹽水區","LI":"水仙里","LIN":"3鄰","STREET":"中山路","SECT":" ","MAREA":" ","LANE":"３巷","ALLEY":" ","HOUSE_NO":"７號","E_COORD97":175057.98999999999,"N_COORD97":2579845.6699999999,"ADDRESS":"中山路３巷７號","OBJECTID":411891},"geometry":{"x":175057.99000000022,"y":2579845.6700000037}},{"attributes":{"ID":411916,"DIS_CODE":0,"TOWNNAME":"鹽水區","LI":"水仙里","LIN":"3鄰","STREET":"中山路","SECT":" ","MAREA":" ","LANE":"３巷","ALLEY":" ","HOUSE_NO":"８號","E_COORD97":175055.95000000001,"N_COORD97":2579832.7799999998,"ADDRESS":"中山路３巷８號","OBJECTID":411892},"geometry":{"x":175055.95000000112,"y":2579832.7799999993}},{"attributes":{"ID":411917,"DIS_CODE":0,"TOWNNAME":"鹽水區","LI":"水仙里","LIN":"3鄰","STREET":"中山路","SECT":" ","MAREA":" ","LANE":"３巷","ALLEY":" ","HOUSE_NO":"９號","E_COORD97":175054.45999999999,"N_COORD97":2579816.1299999999,"ADDRESS":"中山路３巷９號","OBJECTID":411893},"geometry":{"x":175054.46000000089,"y":2579816.1300000008}},{"attributes":{"ID":411918,"DIS_CODE":0,"TOWNNAME":"關廟區","LI":"五甲里","LIN":"3鄰","STREET":"旺萊路","SECT":" ","MAREA":" ","LANE":"５７巷","ALLEY":" ","HOUSE_NO":"１５號","E_COORD97":181542.54000000001,"N_COORD97":2539262.25,"ADDRESS":"旺萊路５７巷１５號","OBJECTID":411894},"geometry":{"x":181542.54000000097,"y":2539262.2499999981}},{"attributes":{"ID":411919,"DIS_CODE":0,"TOWNNAME":"關廟區","LI":"五甲里","LIN":"3鄰","STREET":"旺萊路","SECT":" ","MAREA":" ","LANE":"３９巷","ALLEY":" ","HOUSE_NO":"９號","E_COORD97":181477.59,"N_COORD97":2539228.25,"ADDRESS":"旺萊路３９巷９號","OBJECTID":411895},"geometry":{"x":181477.59000000078,"y":2539228.25}},{"attributes":{"ID":411920,"DIS_CODE":0,"TOWNNAME":"關廟區","LI":"田中里","LIN":"3鄰","STREET":"田大路","SECT":" ","MAREA":" ","LANE":"１７２巷","ALLEY":" ","HOUSE_NO":"１３號","E_COORD97":184635.84,"N_COORD97":2533742.25,"ADDRESS":"田大路１７２巷１３號","OBJECTID":411896},"geometry":{"x":184635.84000000078,"y":2533742.25}},{"attributes":{"ID":411921,"DIS_CODE":0,"TOWNNAME":"關廟區","LI":"東勢里","LIN":"3鄰","STREET":"光復街","SECT":" ","MAREA":" ","LANE":"１４２巷","ALLEY":" ","HOUSE_NO":"２５號","E_COORD97":181580.19,"N_COORD97":2539482.2799999998,"ADDRESS":"光復街１４２巷２５號","OBJECTID":411897},"geometry":{"x":181580.19000000041,"y":2539482.2800000012}},{"attributes":{"ID":411922,"DIS_CODE":0,"TOWNNAME":"關廟區","LI":"田中里","LIN":"3鄰","STREET":"田大路","SECT":" ","MAREA":" ","LANE":"１８０巷","ALLEY":" ","HOUSE_NO":"１號","E_COORD97":184768.44,"N_COORD97":2534009.2999999998,"ADDRESS":"田大路１８０巷１號","OBJECTID":411898},"geometry":{"x":184768.44000000134,"y":2534009.3000000026}},{"attributes":{"ID":411923,"DIS_CODE":0,"TOWNNAME":"關廟區","LI":"深坑里","LIN":"3鄰","STREET":"南雄路","SECT":"一段","MAREA":" ","LANE":"３９８巷","ALLEY":" ","HOUSE_NO":"１１號","E_COORD97":181775.69411800001,"N_COORD97":2537656.3813999998,"ADDRESS":"南雄路一段３９８巷１１號","OBJECTID":411899},"geometry":{"x":181775.6941180015,"y":2537656.3813980035}},{"attributes":{"ID":411924,"DIS_CODE":0,"TOWNNAME":"關廟區","LI":"東勢里","LIN":"3鄰","STREET":"東安街","SECT":" ","MAREA":" ","LANE":"２４１巷","ALLEY":" ","HOUSE_NO":"３５號","E_COORD97":181635.12,"N_COORD97":2539460.3199999998,"ADDRESS":"東安街２４１巷３５號","OBJECTID":411900},"geometry":{"x":181635.12000000197,"y":2539460.3200000022}},{"attributes":{"ID":411925,"DIS_CODE":0,"TOWNNAME":"關廟區","LI":"北勢里","LIN":"3鄰","STREET":"中正路","SECT":" ","MAREA":" ","LANE":"８５０巷","ALLEY":" ","HOUSE_NO":"１３號","E_COORD97":181375.91,"N_COORD97":2540280.25,"ADDRESS":"中正路８５０巷１３號","OBJECTID":411901},"geometry":{"x":181375.91000000108,"y":2540280.2500000019}},{"attributes":{"ID":411926,"DIS_CODE":0,"TOWNNAME":"關廟區","LI":"北勢里","LIN":"3鄰","STREET":"中正路","SECT":" ","MAREA":" ","LANE":"８５０巷","ALLEY":" ","HOUSE_NO":"２５號","E_COORD97":181398.60999999999,"N_COORD97":2540282.25,"ADDRESS":"中正路８５０巷２５號","OBJECTID":411902},"geometry":{"x":181398.61000000127,"y":2540282.25}},{"attributes":{"ID":411927,"DIS_CODE":0,"TOWNNAME":"關廟區","LI":"布袋里","LIN":"3鄰","STREET":"長文街","SECT":" ","MAREA":" ","LANE":"３６巷","ALLEY":" ","HOUSE_NO":"１２號","E_COORD97":183031.19,"N_COORD97":2535551.25,"ADDRESS":"長文街３６巷１２號","OBJECTID":411903},"geometry":{"x":183031.19000000041,"y":2535551.2500000019}},{"attributes":{"ID":411928,"DIS_CODE":0,"TOWNNAME":"關廟區","LI":"北勢里","LIN":"3鄰","STREET":"北仁街","SECT":" ","MAREA":" ","LANE":"８９巷","ALLEY":" ","HOUSE_NO":"１３號","E_COORD97":181422.09,"N_COORD97":2540286.25,"ADDRESS":"北仁街８９巷１３號","OBJECTID":411904},"geometry":{"x":181422.09000000078,"y":2540286.2500000037}},{"attributes":{"ID":411929,"DIS_CODE":0,"TOWNNAME":"關廟區","LI":"北勢里","LIN":"3鄰","STREET":"北仁街","SECT":" ","MAREA":" ","LANE":"８９巷","ALLEY":" ","HOUSE_NO":"１２號","E_COORD97":181412.09,"N_COORD97":2540296.25,"ADDRESS":"北仁街８９巷１２號","OBJECTID":411905},"geometry":{"x":181412.09000000078,"y":2540296.25}},{"attributes":{"ID":411930,"DIS_CODE":0,"TOWNNAME":"關廟區","LI":"北勢里","LIN":"3鄰","STREET":"中正路","SECT":" ","MAREA":" ","LANE":"８５０巷","ALLEY":" ","HOUSE_NO":"１５號","E_COORD97":181373.60999999999,"N_COORD97":2540299.25,"ADDRESS":"中正路８５０巷１５號","OBJECTID":411906},"geometry":{"x":181373.61000000034,"y":2540299.25}},{"attributes":{"ID":411931,"DIS_CODE":0,"TOWNNAME":"關廟區","LI":"北勢里","LIN":"3鄰","STREET":"中正路","SECT":" ","MAREA":" ","LANE":"８５０巷","ALLEY":" ","HOUSE_NO":"１６號","E_COORD97":181382.81,"N_COORD97":2540270.25,"ADDRESS":"中正路８５０巷１６號","OBJECTID":411907},"geometry":{"x":181382.81000000052,"y":2540270.2500000019}},{"attributes":{"ID":411932,"DIS_CODE":0,"TOWNNAME":"關廟區","LI":"龜洞里","LIN":"3鄰","STREET":"中崙街","SECT":" ","MAREA":" ","LANE":"５１巷","ALLEY":" ","HOUSE_NO":"２６號","E_COORD97":183123.54000000001,"N_COORD97":2533629.25,"ADDRESS":"中崙街５１巷２６號","OBJECTID":411908},"geometry":{"x":183123.54000000004,"y":2533629.2500000019}},{"attributes":{"ID":411933,"DIS_CODE":0,"TOWNNAME":"關廟區","LI":"北勢里","LIN":"3鄰","STREET":"中正路","SECT":" ","MAREA":" ","LANE":"８５０巷","ALLEY":" ","HOUSE_NO":"１１號","E_COORD97":181374.41,"N_COORD97":2540276.25,"ADDRESS":"中正路８５０巷１１號","OBJECTID":411909},"geometry":{"x":181374.41000000108,"y":2540276.2500000037}},{"attributes":{"ID":411934,"DIS_CODE":0,"TOWNNAME":"關廟區","LI":"北花里","LIN":"3鄰","STREET":"旺萊路","SECT":" ","MAREA":" ","LANE":"５８１巷","ALLEY":" ","HOUSE_NO":"６６號","E_COORD97":182110.29000000001,"N_COORD97":2540347.25,"ADDRESS":"旺萊路５８１巷６６號","OBJECTID":411910},"geometry":{"x":182110.2900000019,"y":2540347.2500000037}},{"attributes":{"ID":411935,"DIS_CODE":0,"TOWNNAME":"關廟區","LI":"布袋里","LIN":"3鄰","STREET":"長文街","SECT":" ","MAREA":" ","LANE":"１６８巷","ALLEY":" ","HOUSE_NO":"５６號","E_COORD97":182681.23999999999,"N_COORD97":2535435.2999999998,"ADDRESS":"長文街１６８巷５６號","OBJECTID":411911},"geometry":{"x":182681.24000000022,"y":2535435.3000000045}},{"attributes":{"ID":411936,"DIS_CODE":0,"TOWNNAME":"關廟區","LI":"北花里","LIN":"3鄰","STREET":"旺萊路","SECT":" ","MAREA":" ","LANE":"５８１巷","ALLEY":" ","HOUSE_NO":"４５號","E_COORD97":182091.48999999999,"N_COORD97":2540344.25,"ADDRESS":"旺萊路５８１巷４５號","OBJECTID":411912},"geometry":{"x":182091.49000000022,"y":2540344.2500000037}},{"attributes":{"ID":411937,"DIS_CODE":0,"TOWNNAME":"關廟區","LI":"東勢里","LIN":"3鄰","STREET":"東安街","SECT":" ","MAREA":" ","LANE":"２４５巷","ALLEY":" ","HOUSE_NO":"７７號","E_COORD97":181656.32000000001,"N_COORD97":2539528.3199999998,"ADDRESS":"東安街２４５巷７７號","OBJECTID":411913},"geometry":{"x":181656.32000000123,"y":2539528.3200000022}},{"attributes":{"ID":411938,"DIS_CODE":0,"TOWNNAME":"關廟區","LI":"北花里","LIN":"3鄰","STREET":"旺萊路","SECT":" ","MAREA":" ","LANE":"５８１巷","ALLEY":" ","HOUSE_NO":"３８號","E_COORD97":182159.48999999999,"N_COORD97":2540331.25,"ADDRESS":"旺萊路５８１巷３８號","OBJECTID":411914},"geometry":{"x":182159.49000000022,"y":2540331.2500000019}},{"attributes":{"ID":411939,"DIS_CODE":0,"TOWNNAME":"關廟區","LI":"北花里","LIN":"3鄰","STREET":"旺萊路","SECT":" ","MAREA":" ","LANE":"５８１巷","ALLEY":" ","HOUSE_NO":"４８號","E_COORD97":182142.19,"N_COORD97":2540337.25,"ADDRESS":"旺萊路５８１巷４８號","OBJECTID":411915},"geometry":{"x":182142.19000000134,"y":2540337.2500000037}},{"attributes":{"ID":411940,"DIS_CODE":0,"TOWNNAME":"關廟區","LI":"北花里","LIN":"3鄰","STREET":"旺萊路","SECT":" ","MAREA":" ","LANE":"５８１巷","ALLEY":" ","HOUSE_NO":"３３號","E_COORD97":182145.98999999999,"N_COORD97":2540324.25,"ADDRESS":"旺萊路５８１巷３３號","OBJECTID":411916},"geometry":{"x":182145.99000000022,"y":2540324.2500000019}},{"attributes":{"ID":411941,"DIS_CODE":0,"TOWNNAME":"關廟區","LI":"香洋里","LIN":"3鄰","STREET":"忠孝街","SECT":" ","MAREA":" ","LANE":"１６０巷","ALLEY":" ","HOUSE_NO":"２２號","E_COORD97":181092.82999999999,"N_COORD97":2540398.7400000002,"ADDRESS":"忠孝街１６０巷２２號","OBJECTID":411917},"geometry":{"x":181092.83000000194,"y":2540398.7400000039}},{"attributes":{"ID":411942,"DIS_CODE":0,"TOWNNAME":"關廟區","LI":"龜洞里","LIN":"3鄰","STREET":"中崙街","SECT":" ","MAREA":" ","LANE":"１１巷","ALLEY":" ","HOUSE_NO":"３２號","E_COORD97":183269.23999999999,"N_COORD97":2533528.2999999998,"ADDRESS":"中崙街１１巷３２號","OBJECTID":411918},"geometry":{"x":183269.24000000115,"y":2533528.3000000007}},{"attributes":{"ID":411943,"DIS_CODE":0,"TOWNNAME":"關廟區","LI":"北花里","LIN":"3鄰","STREET":"旺萊路","SECT":" ","MAREA":" ","LANE":"５８１巷","ALLEY":" ","HOUSE_NO":"１０號","E_COORD97":182209.79000000001,"N_COORD97":2540311.25,"ADDRESS":"旺萊路５８１巷１０號","OBJECTID":411919},"geometry":{"x":182209.79000000004,"y":2540311.2500000019}},{"attributes":{"ID":411944,"DIS_CODE":0,"TOWNNAME":"關廟區","LI":"布袋里","LIN":"3鄰","STREET":"長文街","SECT":" ","MAREA":" ","LANE":"１６８巷","ALLEY":" ","HOUSE_NO":"５２號","E_COORD97":182633.29000000001,"N_COORD97":2535454.2999999998,"ADDRESS":"長文街１６８巷５２號","OBJECTID":411920},"geometry":{"x":182633.29000000004,"y":2535454.3000000007}},{"attributes":{"ID":411945,"DIS_CODE":0,"TOWNNAME":"大內區","LI":"曲溪里","LIN":"1鄰","STREET":" ","SECT":" ","MAREA":"二重溪","LANE":" ","ALLEY":" ","HOUSE_NO":"７號","E_COORD97":187374.49626499999,"N_COORD97":2557641.0117100002,"ADDRESS":"二重溪７號","OBJECTID":411921},"geometry":{"x":187374.49626499973,"y":2557641.0117050037}},{"attributes":{"ID":411946,"DIS_CODE":0,"TOWNNAME":"關廟區","LI":"北勢里","LIN":"3鄰","STREET":"北仁街","SECT":" ","MAREA":" ","LANE":"８９巷","ALLEY":" ","HOUSE_NO":"１７號","E_COORD97":181422.79000000001,"N_COORD97":2540269.25,"ADDRESS":"北仁街８９巷１７號","OBJECTID":411922},"geometry":{"x":181422.79000000097,"y":2540269.2499999981}},{"attributes":{"ID":411947,"DIS_CODE":0,"TOWNNAME":"關廟區","LI":"南花里","LIN":"3鄰","STREET":"四維街","SECT":" ","MAREA":" ","LANE":"２８８巷","ALLEY":" ","HOUSE_NO":"１７號","E_COORD97":181901.41,"N_COORD97":2540121.25,"ADDRESS":"四維街２８８巷１７號","OBJECTID":411923},"geometry":{"x":181901.41000000108,"y":2540121.2500000019}},{"attributes":{"ID":411948,"DIS_CODE":0,"TOWNNAME":"安南區","LI":"海東里","LIN":"13鄰","STREET":"海環街","SECT":" ","MAREA":" ","LANE":" ","ALLEY":" ","HOUSE_NO":"２號","E_COORD97":166728.51000000001,"N_COORD97":2548904.5,"ADDRESS":"海環街２號","OBJECTID":411924},"geometry":{"x":166728.51000000071,"y":2548904.5000000019}},{"attributes":{"ID":411949,"DIS_CODE":0,"TOWNNAME":"關廟區","LI":"香洋里","LIN":"3鄰","STREET":"忠孝街","SECT":" ","MAREA":" ","LANE":"１８０巷","ALLEY":" ","HOUSE_NO":"１２號","E_COORD97":181120.39000000001,"N_COORD97":2540466.25,"ADDRESS":"忠孝街１８０巷１２號","OBJECTID":411925},"geometry":{"x":181120.38999999966,"y":2540466.2500000037}},{"attributes":{"ID":411950,"DIS_CODE":0,"TOWNNAME":"關廟區","LI":"北花里","LIN":"3鄰","STREET":"旺萊路","SECT":" ","MAREA":" ","LANE":"５８１巷","ALLEY":" ","HOUSE_NO":"６８號","E_COORD97":182105.69,"N_COORD97":2540349.25,"ADDRESS":"旺萊路５８１巷６８號","OBJECTID":411926},"geometry":{"x":182105.69000000041,"y":2540349.25}},{"attributes":{"ID":411951,"DIS_CODE":0,"TOWNNAME":"關廟區","LI":"北勢里","LIN":"3鄰","STREET":"北仁街","SECT":" ","MAREA":" ","LANE":"８９巷","ALLEY":" ","HOUSE_NO":"８號","E_COORD97":181412.73999999999,"N_COORD97":2540303.25,"ADDRESS":"北仁街８９巷８號","OBJECTID":411927},"geometry":{"x":181412.74000000115,"y":2540303.2500000037}},{"attributes":{"ID":411952,"DIS_CODE":0,"TOWNNAME":"關廟區","LI":"北花里","LIN":"3鄰","STREET":"旺萊路","SECT":" ","MAREA":" ","LANE":"５８１巷","ALLEY":" ","HOUSE_NO":"６２號","E_COORD97":182115.69,"N_COORD97":2540345.25,"ADDRESS":"旺萊路５８１巷６２號","OBJECTID":411928},"geometry":{"x":182115.69000000041,"y":2540345.2500000019}},{"attributes":{"ID":411953,"DIS_CODE":0,"TOWNNAME":"關廟區","LI":"北花里","LIN":"3鄰","STREET":"旺萊路","SECT":" ","MAREA":" ","LANE":"５８１巷","ALLEY":" ","HOUSE_NO":"３７號","E_COORD97":182126.48999999999,"N_COORD97":2540330.25,"ADDRESS":"旺萊路５８１巷３７號","OBJECTID":411929},"geometry":{"x":182126.49000000115,"y":2540330.2499999981}},{"attributes":{"ID":411954,"DIS_CODE":0,"TOWNNAME":"關廟區","LI":"香洋里","LIN":"3鄰","STREET":"忠孝街","SECT":" ","MAREA":" ","LANE":"１６０巷","ALLEY":" ","HOUSE_NO":"１２號","E_COORD97":181107.82999999999,"N_COORD97":2540411.7400000002,"ADDRESS":"忠孝街１６０巷１２號","OBJECTID":411930},"geometry":{"x":181107.83000000007,"y":2540411.7400000002}},{"attributes":{"ID":411955,"DIS_CODE":0,"TOWNNAME":"關廟區","LI":"北花里","LIN":"3鄰","STREET":"旺萊路","SECT":" ","MAREA":" ","LANE":"５８１巷","ALLEY":" ","HOUSE_NO":"１２號","E_COORD97":182203.19,"N_COORD97":2540312.25,"ADDRESS":"旺萊路５８１巷１２號","OBJECTID":411931},"geometry":{"x":182203.19000000134,"y":2540312.25}},{"attributes":{"ID":411956,"DIS_CODE":0,"TOWNNAME":"關廟區","LI":"北花里","LIN":"3鄰","STREET":"花園二街","SECT":" ","MAREA":" ","LANE":"４６巷","ALLEY":" ","HOUSE_NO":"１２號","E_COORD97":182123.79000000001,"N_COORD97":2540324.25,"ADDRESS":"花園二街４６巷１２號","OBJECTID":411932},"geometry":{"x":182123.7900000019,"y":2540324.2500000019}},{"attributes":{"ID":411957,"DIS_CODE":0,"TOWNNAME":"關廟區","LI":"五甲里","LIN":"3鄰","STREET":"旺萊路","SECT":" ","MAREA":" ","LANE":"５７巷","ALLEY":" ","HOUSE_NO":"７號","E_COORD97":181539.39000000001,"N_COORD97":2539230.25,"ADDRESS":"旺萊路５７巷７號","OBJECTID":411933},"geometry":{"x":181539.38999999966,"y":2539230.2500000019}},{"attributes":{"ID":411958,"DIS_CODE":0,"TOWNNAME":"北區","LI":"成德里","LIN":"3鄰","STREET":"西門路","SECT":"四段","MAREA":" ","LANE":"１９巷","ALLEY":" ","HOUSE_NO":"３２號","E_COORD97":168546.06,"N_COORD97":2545309.6499999999,"ADDRESS":"西門路四段１９巷３２號","OBJECTID":411934},"geometry":{"x":168546.05999999959,"y":2545309.6500000022}},{"attributes":{"ID":411959,"DIS_CODE":0,"TOWNNAME":"北區","LI":"成德里","LIN":"3鄰","STREET":"西門路","SECT":"四段","MAREA":" ","LANE":"１９巷","ALLEY":" ","HOUSE_NO":"１８號","E_COORD97":168573.75,"N_COORD97":2545293.6600000001,"ADDRESS":"西門路四段１９巷１８號","OBJECTID":411935},"geometry":{"x":168573.75,"y":2545293.6600000001}},{"attributes":{"ID":411960,"DIS_CODE":0,"TOWNNAME":"北區","LI":"成德里","LIN":"3鄰","STREET":"西門路","SECT":"四段","MAREA":" ","LANE":"１９巷","ALLEY":" ","HOUSE_NO":"１０號","E_COORD97":168590.35999999999,"N_COORD97":2545285.48,"ADDRESS":"西門路四段１９巷１０號","OBJECTID":411936},"geometry":{"x":168590.36000000034,"y":2545285.4800000004}},{"attributes":{"ID":411961,"DIS_CODE":0,"TOWNNAME":"北區","LI":"成德里","LIN":"3鄰","STREET":"西門路","SECT":"四段","MAREA":" ","LANE":"１９巷","ALLEY":" ","HOUSE_NO":"１２號","E_COORD97":168585.92999999999,"N_COORD97":2545287.25,"ADDRESS":"西門路四段１９巷１２號","OBJECTID":411937},"geometry":{"x":168585.9299999997,"y":2545287.2500000037}},{"attributes":{"ID":411962,"DIS_CODE":0,"TOWNNAME":"北區","LI":"成德里","LIN":"3鄰","STREET":"西門路","SECT":"四段","MAREA":" ","LANE":"１９巷","ALLEY":" ","HOUSE_NO":"１４號","E_COORD97":168582.17000000001,"N_COORD97":2545290.1200000001,"ADDRESS":"西門路四段１９巷１４號","OBJECTID":411938},"geometry":{"x":168582.17000000086,"y":2545290.1200000029}},{"attributes":{"ID":411963,"DIS_CODE":0,"TOWNNAME":"北區","LI":"成德里","LIN":"3鄰","STREET":"西門路","SECT":"四段","MAREA":" ","LANE":"１９巷","ALLEY":" ","HOUSE_NO":"１６號","E_COORD97":168577.73999999999,"N_COORD97":2545291.6699999999,"ADDRESS":"西門路四段１９巷１６號","OBJECTID":411939},"geometry":{"x":168577.74000000022,"y":2545291.6700000018}},{"attributes":{"ID":411964,"DIS_CODE":0,"TOWNNAME":"北區","LI":"成德里","LIN":"3鄰","STREET":"西門路","SECT":"四段","MAREA":" ","LANE":"１９巷","ALLEY":" ","HOUSE_NO":"２０號","E_COORD97":168570.42999999999,"N_COORD97":2545295.21,"ADDRESS":"西門路四段１９巷２０號","OBJECTID":411940},"geometry":{"x":168570.4299999997,"y":2545295.2100000046}},{"attributes":{"ID":411965,"DIS_CODE":0,"TOWNNAME":"北區","LI":"成德里","LIN":"3鄰","STREET":"西門路","SECT":"四段","MAREA":" ","LANE":"１９巷","ALLEY":" ","HOUSE_NO":"２２號","E_COORD97":168566.44,"N_COORD97":2545296.98,"ADDRESS":"西門路四段１９巷２２號","OBJECTID":411941},"geometry":{"x":168566.44000000041,"y":2545296.9800000023}},{"attributes":{"ID":411966,"DIS_CODE":0,"TOWNNAME":"北區","LI":"成德里","LIN":"3鄰","STREET":"西門路","SECT":"四段","MAREA":" ","LANE":"１９巷","ALLEY":" ","HOUSE_NO":"４號","E_COORD97":168602.32999999999,"N_COORD97":2545278.75,"ADDRESS":"西門路四段１９巷４號","OBJECTID":411942},"geometry":{"x":168602.33000000007,"y":2545278.75}},{"attributes":{"ID":411967,"DIS_CODE":0,"TOWNNAME":"北區","LI":"成德里","LIN":"3鄰","STREET":"西門路","SECT":"四段","MAREA":" ","LANE":"１９巷","ALLEY":" ","HOUSE_NO":"６號","E_COORD97":168597.89999999999,"N_COORD97":2545281.4900000002,"ADDRESS":"西門路四段１９巷６號","OBJECTID":411943},"geometry":{"x":168597.9000000013,"y":2545281.4900000002}},{"attributes":{"ID":411968,"DIS_CODE":0,"TOWNNAME":"北區","LI":"成德里","LIN":"3鄰","STREET":"西門路","SECT":"四段","MAREA":" ","LANE":"１９巷","ALLEY":" ","HOUSE_NO":"８號","E_COORD97":168594.13,"N_COORD97":2545283.71,"ADDRESS":"西門路四段１９巷８號","OBJECTID":411944},"geometry":{"x":168594.13000000082,"y":2545283.7100000009}},{"attributes":{"ID":411969,"DIS_CODE":0,"TOWNNAME":"北區","LI":"成德里","LIN":"3鄰","STREET":"西門路","SECT":"四段","MAREA":" ","LANE":"３３巷","ALLEY":" ","HOUSE_NO":"１０號","E_COORD97":168604.32000000001,"N_COORD97":2545316.3599999999,"ADDRESS":"西門路四段３３巷１０號","OBJECTID":411945},"geometry":{"x":168604.3200000003,"y":2545316.3600000031}},{"attributes":{"ID":411970,"DIS_CODE":0,"TOWNNAME":"北區","LI":"成德里","LIN":"3鄰","STREET":"西門路","SECT":"四段","MAREA":" ","LANE":"３３巷","ALLEY":" ","HOUSE_NO":"１１號","E_COORD97":168591.69,"N_COORD97":2545299.1099999999,"ADDRESS":"西門路四段３３巷１１號","OBJECTID":411946},"geometry":{"x":168591.69000000041,"y":2545299.1100000013}},{"attributes":{"ID":411971,"DIS_CODE":0,"TOWNNAME":"北區","LI":"成德里","LIN":"3鄰","STREET":"西門路","SECT":"四段","MAREA":" ","LANE":"３３巷","ALLEY":" ","HOUSE_NO":"１２號","E_COORD97":168599.67000000001,"N_COORD97":2545318.7999999998,"ADDRESS":"西門路四段３３巷１２號","OBJECTID":411947},"geometry":{"x":168599.66999999993,"y":2545318.8000000026}},{"attributes":{"ID":411972,"DIS_CODE":0,"TOWNNAME":"北區","LI":"成德里","LIN":"3鄰","STREET":"西門路","SECT":"四段","MAREA":" ","LANE":"３３巷","ALLEY":" ","HOUSE_NO":"１３號","E_COORD97":168586.60000000001,"N_COORD97":2545301.3199999998,"ADDRESS":"西門路四段３３巷１３號","OBJECTID":411948},"geometry":{"x":168586.59999999963,"y":2545301.3200000022}},{"attributes":{"ID":411973,"DIS_CODE":0,"TOWNNAME":"北區","LI":"成德里","LIN":"3鄰","STREET":"西門路","SECT":"四段","MAREA":" ","LANE":"３３巷","ALLEY":" ","HOUSE_NO":"１４號","E_COORD97":168595.23999999999,"N_COORD97":2545319.9100000001,"ADDRESS":"西門路四段３３巷１４號","OBJECTID":411949},"geometry":{"x":168595.24000000115,"y":2545319.9099999983}},{"attributes":{"ID":411974,"DIS_CODE":0,"TOWNNAME":"北區","LI":"成德里","LIN":"3鄰","STREET":"西門路","SECT":"四段","MAREA":" ","LANE":"３３巷","ALLEY":" ","HOUSE_NO":"１５號","E_COORD97":168581.28,"N_COORD97":2545303.75,"ADDRESS":"西門路四段３３巷１５號","OBJECTID":411950},"geometry":{"x":168581.28000000212,"y":2545303.75}},{"attributes":{"ID":411975,"DIS_CODE":0,"TOWNNAME":"北區","LI":"成德里","LIN":"3鄰","STREET":"西門路","SECT":"四段","MAREA":" ","LANE":"３３巷","ALLEY":" ","HOUSE_NO":"１６號","E_COORD97":168590.14000000001,"N_COORD97":2545322.7799999998,"ADDRESS":"西門路四段３３巷１６號","OBJECTID":411951},"geometry":{"x":168590.14000000153,"y":2545322.7799999993}},{"attributes":{"ID":411976,"DIS_CODE":0,"TOWNNAME":"北區","LI":"成德里","LIN":"3鄰","STREET":"西門路","SECT":"四段","MAREA":" ","LANE":"３３巷","ALLEY":" ","HOUSE_NO":"１７號","E_COORD97":168577.73999999999,"N_COORD97":2545306.6299999999,"ADDRESS":"西門路四段３３巷１７號","OBJECTID":411952},"geometry":{"x":168577.74000000022,"y":2545306.629999999}},{"attributes":{"ID":411977,"DIS_CODE":0,"TOWNNAME":"北區","LI":"成德里","LIN":"3鄰","STREET":"西門路","SECT":"四段","MAREA":" ","LANE":"３３巷","ALLEY":" ","HOUSE_NO":"１８號","E_COORD97":168585.70999999999,"N_COORD97":2545325,"ADDRESS":"西門路四段３３巷１８號","OBJECTID":411953},"geometry":{"x":168585.70999999996,"y":2545325}},{"attributes":{"ID":411978,"DIS_CODE":0,"TOWNNAME":"北區","LI":"成德里","LIN":"3鄰","STREET":"西門路","SECT":"四段","MAREA":" ","LANE":"３３巷","ALLEY":" ","HOUSE_NO":"１９號","E_COORD97":168573.07999999999,"N_COORD97":2545307.96,"ADDRESS":"西門路四段３３巷１９號","OBJECTID":411954},"geometry":{"x":168573.08000000007,"y":2545307.9600000028}},{"attributes":{"ID":411979,"DIS_CODE":0,"TOWNNAME":"北區","LI":"成德里","LIN":"3鄰","STREET":"西門路","SECT":"四段","MAREA":" ","LANE":"３３巷","ALLEY":" ","HOUSE_NO":"２０號","E_COORD97":168581.5,"N_COORD97":2545325.8799999999,"ADDRESS":"西門路四段３３巷２０號","OBJECTID":411955},"geometry":{"x":168581.50000000093,"y":2545325.8800000027}},{"attributes":{"ID":411980,"DIS_CODE":0,"TOWNNAME":"北區","LI":"成德里","LIN":"3鄰","STREET":"西門路","SECT":"四段","MAREA":" ","LANE":"３３巷","ALLEY":" ","HOUSE_NO":"２１號","E_COORD97":168568.64999999999,"N_COORD97":2545310.1699999999,"ADDRESS":"西門路四段３３巷２１號","OBJECTID":411956},"geometry":{"x":168568.65000000224,"y":2545310.1699999999}},{"attributes":{"ID":411981,"DIS_CODE":0,"TOWNNAME":"北區","LI":"成德里","LIN":"3鄰","STREET":"西門路","SECT":"四段","MAREA":" ","LANE":"３３巷","ALLEY":" ","HOUSE_NO":"２２號","E_COORD97":168577.73999999999,"N_COORD97":2545328.98,"ADDRESS":"西門路四段３３巷２２號","OBJECTID":411957},"geometry":{"x":168577.74000000022,"y":2545328.9800000004}},{"attributes":{"ID":411982,"DIS_CODE":0,"TOWNNAME":"北區","LI":"成德里","LIN":"3鄰","STREET":"西門路","SECT":"四段","MAREA":" ","LANE":"３３巷","ALLEY":" ","HOUSE_NO":"２３號","E_COORD97":168564.44,"N_COORD97":2545312.1600000001,"ADDRESS":"西門路四段３３巷２３號","OBJECTID":411958},"geometry":{"x":168564.44000000041,"y":2545312.160000002}},{"attributes":{"ID":411983,"DIS_CODE":0,"TOWNNAME":"北區","LI":"成德里","LIN":"3鄰","STREET":"西門路","SECT":"四段","MAREA":" ","LANE":"３３巷","ALLEY":" ","HOUSE_NO":"２４號","E_COORD97":168571.53,"N_COORD97":2545331.4100000001,"ADDRESS":"西門路四段３３巷２４號","OBJECTID":411959},"geometry":{"x":168571.53000000119,"y":2545331.410000002}},{"attributes":{"ID":411984,"DIS_CODE":0,"TOWNNAME":"北區","LI":"成德里","LIN":"3鄰","STREET":"西門路","SECT":"四段","MAREA":" ","LANE":"３３巷","ALLEY":" ","HOUSE_NO":"２５號","E_COORD97":168561.34,"N_COORD97":2545314.8199999998,"ADDRESS":"西門路四段３３巷２５號","OBJECTID":411960},"geometry":{"x":168561.33999999985,"y":2545314.8200000022}},{"attributes":{"ID":411985,"DIS_CODE":0,"TOWNNAME":"北區","LI":"成德里","LIN":"3鄰","STREET":"西門路","SECT":"四段","MAREA":" ","LANE":"３３巷","ALLEY":" ","HOUSE_NO":"２號","E_COORD97":168621.16,"N_COORD97":2545309.5099999998,"ADDRESS":"西門路四段３３巷２號","OBJECTID":411961},"geometry":{"x":168621.16000000108,"y":2545309.5100000016}},{"attributes":{"ID":411986,"DIS_CODE":0,"TOWNNAME":"北區","LI":"成德里","LIN":"3鄰","STREET":"西門路","SECT":"四段","MAREA":" ","LANE":"３３巷","ALLEY":" ","HOUSE_NO":"３號","E_COORD97":168612.29000000001,"N_COORD97":2545292.4700000002,"ADDRESS":"西門路四段３３巷３號","OBJECTID":411962},"geometry":{"x":168612.29000000004,"y":2545292.4700000007}},{"attributes":{"ID":411987,"DIS_CODE":0,"TOWNNAME":"北區","LI":"成德里","LIN":"3鄰","STREET":"西門路","SECT":"四段","MAREA":" ","LANE":"３３巷","ALLEY":" ","HOUSE_NO":"４號","E_COORD97":168616.73000000001,"N_COORD97":2545311.7200000002,"ADDRESS":"西門路四段３３巷４號","OBJECTID":411963},"geometry":{"x":168616.73000000045,"y":2545311.7200000044}},{"attributes":{"ID":411988,"DIS_CODE":0,"TOWNNAME":"北區","LI":"成德里","LIN":"3鄰","STREET":"西門路","SECT":"四段","MAREA":" ","LANE":"３３巷","ALLEY":" ","HOUSE_NO":"５號","E_COORD97":168604.32000000001,"N_COORD97":2545294.6800000002,"ADDRESS":"西門路四段３３巷５號","OBJECTID":411964},"geometry":{"x":168604.3200000003,"y":2545294.6800000016}},{"attributes":{"ID":411989,"DIS_CODE":0,"TOWNNAME":"北區","LI":"成德里","LIN":"3鄰","STREET":"西門路","SECT":"四段","MAREA":" ","LANE":"３３巷","ALLEY":" ","HOUSE_NO":"６號","E_COORD97":168612.29000000001,"N_COORD97":2545313.71,"ADDRESS":"西門路四段３３巷６號","OBJECTID":411965},"geometry":{"x":168612.29000000004,"y":2545313.7100000028}},{"attributes":{"ID":411990,"DIS_CODE":0,"TOWNNAME":"北區","LI":"成德里","LIN":"3鄰","STREET":"西門路","SECT":"四段","MAREA":" ","LANE":"３３巷","ALLEY":" ","HOUSE_NO":"７號","E_COORD97":168600.10999999999,"N_COORD97":2545296.6699999999,"ADDRESS":"西門路四段３３巷７號","OBJECTID":411966},"geometry":{"x":168600.11000000127,"y":2545296.6699999999}},{"attributes":{"ID":411991,"DIS_CODE":0,"TOWNNAME":"北區","LI":"成德里","LIN":"3鄰","STREET":"西門路","SECT":"四段","MAREA":" ","LANE":"３３巷","ALLEY":" ","HOUSE_NO":"８號","E_COORD97":168608.53,"N_COORD97":2545315.2599999998,"ADDRESS":"西門路四段３３巷８號","OBJECTID":411967},"geometry":{"x":168608.53000000119,"y":2545315.2600000016}},{"attributes":{"ID":411992,"DIS_CODE":0,"TOWNNAME":"北區","LI":"成德里","LIN":"3鄰","STREET":"西門路","SECT":"四段","MAREA":" ","LANE":"３３巷","ALLEY":" ","HOUSE_NO":"９號","E_COORD97":168595.89999999999,"N_COORD97":2545298,"ADDRESS":"西門路四段３３巷９號","OBJECTID":411968},"geometry":{"x":168595.90000000224,"y":2545298}},{"attributes":{"ID":411993,"DIS_CODE":0,"TOWNNAME":"北區","LI":"成德里","LIN":"3鄰","STREET":"西門路","SECT":"四段","MAREA":" ","LANE":"６５巷","ALLEY":" ","HOUSE_NO":"４７號","E_COORD97":168598.23999999999,"N_COORD97":2545346.46,"ADDRESS":"西門路四段６５巷４７號","OBJECTID":411969},"geometry":{"x":168598.24000000022,"y":2545346.4600000009}},{"attributes":{"ID":411994,"DIS_CODE":0,"TOWNNAME":"北區","LI":"成德里","LIN":"3鄰","STREET":"西門路","SECT":"四段","MAREA":" ","LANE":"６５巷","ALLEY":" ","HOUSE_NO":"４９號","E_COORD97":168575.73999999999,"N_COORD97":2545359,"ADDRESS":"西門路四段６５巷４９號","OBJECTID":411970},"geometry":{"x":168575.74000000022,"y":2545359}},{"attributes":{"ID":411995,"DIS_CODE":0,"TOWNNAME":"北區","LI":"成德里","LIN":"3鄰","STREET":"西門路","SECT":"四段","MAREA":" ","LANE":"６５巷","ALLEY":" ","HOUSE_NO":"５１號","E_COORD97":168571.31,"N_COORD97":2545361.4300000002,"ADDRESS":"西門路四段６５巷５１號","OBJECTID":411971},"geometry":{"x":168571.30999999959,"y":2545361.4300000016}},{"attributes":{"ID":411996,"DIS_CODE":0,"TOWNNAME":"北區","LI":"成德里","LIN":"3鄰","STREET":"西門路","SECT":"四段","MAREA":" ","LANE":"６５巷","ALLEY":" ","HOUSE_NO":"５３號","E_COORD97":168567.10000000001,"N_COORD97":2545364.0899999999,"ADDRESS":"西門路四段６５巷５３號","OBJECTID":411972},"geometry":{"x":168567.10000000056,"y":2545364.0900000017}},{"attributes":{"ID":411997,"DIS_CODE":0,"TOWNNAME":"北區","LI":"大和里","LIN":"3鄰","STREET":"大興街","SECT":" ","MAREA":" ","LANE":"７６巷","ALLEY":" ","HOUSE_NO":"２３號","E_COORD97":167163.26999999999,"N_COORD97":2545858.1899999999,"ADDRESS":"大興街７６巷２３號","OBJECTID":411973},"geometry":{"x":167163.26999999862,"y":2545858.1900000013}},{"attributes":{"ID":411998,"DIS_CODE":0,"TOWNNAME":"北區","LI":"大和里","LIN":"3鄰","STREET":"大興街","SECT":" ","MAREA":" ","LANE":"７６巷","ALLEY":" ","HOUSE_NO":"２５號","E_COORD97":167168.82000000001,"N_COORD97":2545871.3799999999,"ADDRESS":"大興街７６巷２５號","OBJECTID":411974},"geometry":{"x":167168.81999999937,"y":2545871.379999999}},{"attributes":{"ID":411999,"DIS_CODE":0,"TOWNNAME":"北區","LI":"大和里","LIN":"3鄰","STREET":"大興街","SECT":" ","MAREA":" ","LANE":"７６巷","ALLEY":" ","HOUSE_NO":"２７號","E_COORD97":167162.53,"N_COORD97":2545871.6499999999,"ADDRESS":"大興街７６巷２７號","OBJECTID":411975},"geometry":{"x":167162.53000000119,"y":2545871.6500000041}},{"attributes":{"ID":412000,"DIS_CODE":0,"TOWNNAME":"北區","LI":"大和里","LIN":"3鄰","STREET":"大興街","SECT":" ","MAREA":" ","LANE":"７６巷","ALLEY":" ","HOUSE_NO":"２９號","E_COORD97":167157.04000000001,"N_COORD97":2545871.25,"ADDRESS":"大興街７６巷２９號","OBJECTID":411976},"geometry":{"x":167157.0400000019,"y":2545871.2500000019}},{"attributes":{"ID":412001,"DIS_CODE":0,"TOWNNAME":"北區","LI":"大和里","LIN":"3鄰","STREET":"大興街","SECT":" ","MAREA":" ","LANE":"７６巷","ALLEY":" ","HOUSE_NO":"３１號","E_COORD97":167150.54999999999,"N_COORD97":2545870.7799999998,"ADDRESS":"大興街７６巷３１號","OBJECTID":411977},"geometry":{"x":167150.55000000075,"y":2545870.7800000012}},{"attributes":{"ID":412002,"DIS_CODE":0,"TOWNNAME":"北區","LI":"大和里","LIN":"3鄰","STREET":"大興街","SECT":" ","MAREA":" ","LANE":"７６巷","ALLEY":" ","HOUSE_NO":"３３號","E_COORD97":167148.66,"N_COORD97":2545893.0899999999,"ADDRESS":"大興街７６巷３３號","OBJECTID":411978},"geometry":{"x":167148.66000000015,"y":2545893.0900000017}},{"attributes":{"ID":412003,"DIS_CODE":0,"TOWNNAME":"北區","LI":"大和里","LIN":"3鄰","STREET":"大興街","SECT":" ","MAREA":" ","LANE":"７６巷","ALLEY":" ","HOUSE_NO":"３５號","E_COORD97":167154.85999999999,"N_COORD97":2545893.2799999998,"ADDRESS":"大興街７６巷３５號","OBJECTID":411979},"geometry":{"x":167154.86000000034,"y":2545893.2800000031}},{"attributes":{"ID":412004,"DIS_CODE":0,"TOWNNAME":"北區","LI":"大和里","LIN":"3鄰","STREET":"大興街","SECT":" ","MAREA":" ","LANE":"７６巷","ALLEY":" ","HOUSE_NO":"３７號","E_COORD97":167160.87,"N_COORD97":2545893.5800000001,"ADDRESS":"大興街７６巷３７號","OBJECTID":411980},"geometry":{"x":167160.87000000011,"y":2545893.5800000001}},{"attributes":{"ID":412005,"DIS_CODE":0,"TOWNNAME":"北區","LI":"大和里","LIN":"3鄰","STREET":"大興街","SECT":" ","MAREA":" ","LANE":"７６巷","ALLEY":" ","HOUSE_NO":"３９號","E_COORD97":167166.82000000001,"N_COORD97":2545893.8900000001,"ADDRESS":"大興街７６巷３９號","OBJECTID":411981},"geometry":{"x":167166.8200000003,"y":2545893.8900000043}},{"attributes":{"ID":412006,"DIS_CODE":0,"TOWNNAME":"北區","LI":"大和里","LIN":"3鄰","STREET":"大興街","SECT":" ","MAREA":" ","LANE":"７６巷","ALLEY":" ","HOUSE_NO":"３號","E_COORD97":167167.20999999999,"N_COORD97":2545817.0299999998,"ADDRESS":"大興街７６巷３號","OBJECTID":411982},"geometry":{"x":167167.20999999996,"y":2545817.0300000031}},{"attributes":{"ID":412007,"DIS_CODE":0,"TOWNNAME":"北區","LI":"大和里","LIN":"3鄰","STREET":"大興街","SECT":" ","MAREA":" ","LANE":"７６巷","ALLEY":" ","HOUSE_NO":"４１號","E_COORD97":167165.41,"N_COORD97":2545909.9900000002,"ADDRESS":"大興街７６巷４１號","OBJECTID":411983},"geometry":{"x":167165.41000000108,"y":2545909.9900000021}},{"attributes":{"ID":412008,"DIS_CODE":0,"TOWNNAME":"北區","LI":"大和里","LIN":"3鄰","STREET":"大興街","SECT":" ","MAREA":" ","LANE":"７６巷","ALLEY":" ","HOUSE_NO":"４３號","E_COORD97":167159.39999999999,"N_COORD97":2545910.4199999999,"ADDRESS":"大興街７６巷４３號","OBJECTID":411984},"geometry":{"x":167159.40000000037,"y":2545910.4200000018}},{"attributes":{"ID":412009,"DIS_CODE":0,"TOWNNAME":"北區","LI":"大和里","LIN":"3鄰","STREET":"大興街","SECT":" ","MAREA":" ","LANE":"７６巷","ALLEY":" ","HOUSE_NO":"４５號","E_COORD97":167153.76000000001,"N_COORD97":2545909.8700000001,"ADDRESS":"大興街７６巷４５號","OBJECTID":411985},"geometry":{"x":167153.76000000071,"y":2545909.870000001}},{"attributes":{"ID":412010,"DIS_CODE":0,"TOWNNAME":"北區","LI":"大和里","LIN":"3鄰","STREET":"大興街","SECT":" ","MAREA":" ","LANE":"７６巷","ALLEY":" ","HOUSE_NO":"４７號","E_COORD97":167147.5,"N_COORD97":2545909.3799999999,"ADDRESS":"大興街７６巷４７號","OBJECTID":411986},"geometry":{"x":167147.50000000093,"y":2545909.3800000008}},{"attributes":{"ID":412011,"DIS_CODE":0,"TOWNNAME":"北區","LI":"大和里","LIN":"3鄰","STREET":"大興街","SECT":" ","MAREA":" ","LANE":"７６巷","ALLEY":" ","HOUSE_NO":"４９號","E_COORD97":167146.45999999999,"N_COORD97":2545925.7000000002,"ADDRESS":"大興街７６巷４９號","OBJECTID":411987},"geometry":{"x":167146.45999999996,"y":2545925.7000000011}},{"attributes":{"ID":412012,"DIS_CODE":0,"TOWNNAME":"北區","LI":"大和里","LIN":"3鄰","STREET":"大興街","SECT":" ","MAREA":" ","LANE":"７６巷","ALLEY":" ","HOUSE_NO":"５１號","E_COORD97":167152.53,"N_COORD97":2545926.5600000001,"ADDRESS":"大興街７６巷５１號","OBJECTID":411988},"geometry":{"x":167152.53000000119,"y":2545926.5600000042}},{"attributes":{"ID":412013,"DIS_CODE":0,"TOWNNAME":"北區","LI":"大和里","LIN":"3鄰","STREET":"大興街","SECT":" ","MAREA":" ","LANE":"７６巷","ALLEY":" ","HOUSE_NO":"５３號","E_COORD97":167157.87,"N_COORD97":2545927.3599999999,"ADDRESS":"大興街７６巷５３號","OBJECTID":411989},"geometry":{"x":167157.87000000011,"y":2545927.3600000013}},{"attributes":{"ID":412014,"DIS_CODE":0,"TOWNNAME":"北區","LI":"大和里","LIN":"3鄰","STREET":"大興街","SECT":" ","MAREA":" ","LANE":"７６巷","ALLEY":" ","HOUSE_NO":"５５號","E_COORD97":167164.42999999999,"N_COORD97":2545928.3500000001,"ADDRESS":"大興街７６巷５５號","OBJECTID":411990},"geometry":{"x":167164.43000000063,"y":2545928.3500000015}},{"attributes":{"ID":412015,"DIS_CODE":0,"TOWNNAME":"北區","LI":"大和里","LIN":"3鄰","STREET":"大興街","SECT":" ","MAREA":" ","LANE":"７６巷","ALLEY":" ","HOUSE_NO":"５７號","E_COORD97":167164.19,"N_COORD97":2545943.5800000001,"ADDRESS":"大興街７６巷５７號","OBJECTID":411991},"geometry":{"x":167164.19000000041,"y":2545943.5800000019}},{"attributes":{"ID":412016,"DIS_CODE":0,"TOWNNAME":"北區","LI":"大和里","LIN":"3鄰","STREET":"大興街","SECT":" ","MAREA":" ","LANE":"７６巷","ALLEY":" ","HOUSE_NO":"５９號","E_COORD97":167159.03,"N_COORD97":2545943.4500000002,"ADDRESS":"大興街７６巷５９號","OBJECTID":411992},"geometry":{"x":167159.03000000212,"y":2545943.4500000011}},{"attributes":{"ID":412017,"DIS_CODE":0,"TOWNNAME":"北區","LI":"大和里","LIN":"3鄰","STREET":"大興街","SECT":" ","MAREA":" ","LANE":"７６巷","ALLEY":" ","HOUSE_NO":"５號","E_COORD97":167166.81,"N_COORD97":2545821.52,"ADDRESS":"大興街７６巷５號","OBJECTID":411993},"geometry":{"x":167166.81000000052,"y":2545821.5200000014}},{"attributes":{"ID":412018,"DIS_CODE":0,"TOWNNAME":"北區","LI":"大和里","LIN":"3鄰","STREET":"大興街","SECT":" ","MAREA":" ","LANE":"７６巷","ALLEY":" ","HOUSE_NO":"６１號","E_COORD97":167154.73999999999,"N_COORD97":2545943.7000000002,"ADDRESS":"大興街７６巷６１號","OBJECTID":411994},"geometry":{"x":167154.74000000115,"y":2545943.6999999993}},{"attributes":{"ID":412019,"DIS_CODE":0,"TOWNNAME":"北區","LI":"大和里","LIN":"3鄰","STREET":"大興街","SECT":" ","MAREA":" ","LANE":"７６巷","ALLEY":" ","HOUSE_NO":"６３號","E_COORD97":167149.89000000001,"N_COORD97":2545943.6400000001,"ADDRESS":"大興街７６巷６３號","OBJECTID":411995},"geometry":{"x":167149.8900000006,"y":2545943.6400000025}},{"attributes":{"ID":412020,"DIS_CODE":0,"TOWNNAME":"北區","LI":"大和里","LIN":"3鄰","STREET":"大興街","SECT":" ","MAREA":" ","LANE":"７６巷","ALLEY":" ","HOUSE_NO":"６５號","E_COORD97":167145.04999999999,"N_COORD97":2545943.5099999998,"ADDRESS":"大興街７６巷６５號","OBJECTID":411996},"geometry":{"x":167145.05000000075,"y":2545943.5100000016}},{"attributes":{"ID":412021,"DIS_CODE":0,"TOWNNAME":"北區","LI":"大和里","LIN":"3鄰","STREET":"大興街","SECT":" ","MAREA":" ","LANE":"７６巷","ALLEY":" ","HOUSE_NO":"６７號","E_COORD97":167142.85000000001,"N_COORD97":2545967.0499999998,"ADDRESS":"大興街７６巷６７號","OBJECTID":411997},"geometry":{"x":167142.85000000056,"y":2545967.0500000007}},{"attributes":{"ID":412022,"DIS_CODE":0,"TOWNNAME":"北區","LI":"大和里","LIN":"3鄰","STREET":"大興街","SECT":" ","MAREA":" ","LANE":"７６巷","ALLEY":" ","HOUSE_NO":"６９號","E_COORD97":167147.45000000001,"N_COORD97":2545967.7200000002,"ADDRESS":"大興街７６巷６９號","OBJECTID":411998},"geometry":{"x":167147.44999999925,"y":2545967.7200000025}},{"attributes":{"ID":412023,"DIS_CODE":0,"TOWNNAME":"北區","LI":"大和里","LIN":"3鄰","STREET":"大興街","SECT":" ","MAREA":" ","LANE":"７６巷","ALLEY":" ","HOUSE_NO":"７１號","E_COORD97":167152.17000000001,"N_COORD97":2545968.21,"ADDRESS":"大興街７６巷７１號","OBJECTID":411999},"geometry":{"x":167152.16999999993,"y":2545968.2100000009}},{"attributes":{"ID":412024,"DIS_CODE":0,"TOWNNAME":"北區","LI":"大和里","LIN":"3鄰","STREET":"大興街","SECT":" ","MAREA":" ","LANE":"７６巷","ALLEY":" ","HOUSE_NO":"７３號","E_COORD97":167156.70999999999,"N_COORD97":2545968.52,"ADDRESS":"大興街７６巷７３號","OBJECTID":412000},"geometry":{"x":167156.70999999996,"y":2545968.5199999996}}]}