{"displayFieldName":"TOWNNAME","fieldAliases":{"ID":"ID","DIS_CODE":"DIS_CODE","TOWNNAME":"TOWNNAME","LI":"LI","LIN":"LIN","STREET":"STREET","SECT":"SECT","MAREA":"MAREA","LANE":"LANE","ALLEY":"ALLEY","HOUSE_NO":"HOUSE_NO","E_COORD97":"E_COORD97","N_COORD97":"N_COORD97","ADDRESS":"ADDRESS","OBJECTID":"OBJECTID"},"geometryType":"esriGeometryPoint","spatialReference":{"wkid":102443,"latestWkid":3826},"fields":[{"name":"ID","type":"esriFieldTypeDouble","alias":"ID"},{"name":"DIS_CODE","type":"esriFieldTypeInteger","alias":"DIS_CODE"},{"name":"TOWNNAME","type":"esriFieldTypeString","alias":"TOWNNAME","length":8},{"name":"LI","type":"esriFieldTypeString","alias":"LI","length":8},{"name":"LIN","type":"esriFieldTypeString","alias":"LIN","length":12},{"name":"STREET","type":"esriFieldTypeString","alias":"STREET","length":20},{"name":"SECT","type":"esriFieldTypeString","alias":"SECT","length":8},{"name":"MAREA","type":"esriFieldTypeString","alias":"MAREA","length":12},{"name":"LANE","type":"esriFieldTypeString","alias":"LANE","length":10},{"name":"ALLEY","type":"esriFieldTypeString","alias":"ALLEY","length":10},{"name":"HOUSE_NO","type":"esriFieldTypeString","alias":"HOUSE_NO","length":20},{"name":"E_COORD97","type":"esriFieldTypeDouble","alias":"E_COORD97"},{"name":"N_COORD97","type":"esriFieldTypeDouble","alias":"N_COORD97"},{"name":"ADDRESS","type":"esriFieldTypeString","alias":"ADDRESS","length":50},{"name":"OBJECTID","type":"esriFieldTypeOID","alias":"OBJECTID"}],"features":[{"attributes":{"ID":599228,"DIS_CODE":0,"TOWNNAME":"東區","LI":"自強里","LIN":"27鄰","STREET":"中華東路","SECT":"二段","MAREA":" ","LANE":" ","ALLEY":" ","HOUSE_NO":"１６９號八樓之８","E_COORD97":171368.17000000001,"N_COORD97":2542826.5,"ADDRESS":"中華東路二段１６９號八樓之８","OBJECTID":599201},"geometry":{"x":171368.16999999993,"y":2542826.5}},{"attributes":{"ID":599229,"DIS_CODE":0,"TOWNNAME":"東區","LI":"自強里","LIN":"27鄰","STREET":"中華東路","SECT":"二段","MAREA":" ","LANE":" ","ALLEY":" ","HOUSE_NO":"１６９號八樓之９","E_COORD97":171368.17000000001,"N_COORD97":2542826.5,"ADDRESS":"中華東路二段１６９號八樓之９","OBJECTID":599202},"geometry":{"x":171368.16999999993,"y":2542826.5}},{"attributes":{"ID":599230,"DIS_CODE":0,"TOWNNAME":"東區","LI":"自強里","LIN":"27鄰","STREET":"中華東路","SECT":"二段","MAREA":" ","LANE":" ","ALLEY":" ","HOUSE_NO":"１６９號八樓之１０","E_COORD97":171368.17000000001,"N_COORD97":2542826.5,"ADDRESS":"中華東路二段１６９號八樓之１０","OBJECTID":599203},"geometry":{"x":171368.16999999993,"y":2542826.5}},{"attributes":{"ID":599231,"DIS_CODE":0,"TOWNNAME":"東區","LI":"自強里","LIN":"27鄰","STREET":"中華東路","SECT":"二段","MAREA":" ","LANE":" ","ALLEY":" ","HOUSE_NO":"１６９號八樓之１１","E_COORD97":171368.17000000001,"N_COORD97":2542826.5,"ADDRESS":"中華東路二段１６９號八樓之１１","OBJECTID":599204},"geometry":{"x":171368.16999999993,"y":2542826.5}},{"attributes":{"ID":599232,"DIS_CODE":0,"TOWNNAME":"東區","LI":"自強里","LIN":"27鄰","STREET":"中華東路","SECT":"二段","MAREA":" ","LANE":" ","ALLEY":" ","HOUSE_NO":"１６９號八樓之１２","E_COORD97":171368.17000000001,"N_COORD97":2542826.5,"ADDRESS":"中華東路二段１６９號八樓之１２","OBJECTID":599205},"geometry":{"x":171368.16999999993,"y":2542826.5}},{"attributes":{"ID":599233,"DIS_CODE":0,"TOWNNAME":"東區","LI":"自強里","LIN":"27鄰","STREET":"中華東路","SECT":"二段","MAREA":" ","LANE":" ","ALLEY":" ","HOUSE_NO":"１６９號八樓之１３","E_COORD97":171368.17000000001,"N_COORD97":2542826.5,"ADDRESS":"中華東路二段１６９號八樓之１３","OBJECTID":599206},"geometry":{"x":171368.16999999993,"y":2542826.5}},{"attributes":{"ID":599234,"DIS_CODE":0,"TOWNNAME":"東區","LI":"自強里","LIN":"27鄰","STREET":"中華東路","SECT":"二段","MAREA":" ","LANE":" ","ALLEY":" ","HOUSE_NO":"１６９號八樓之１５","E_COORD97":171368.17000000001,"N_COORD97":2542826.5,"ADDRESS":"中華東路二段１６９號八樓之１５","OBJECTID":599207},"geometry":{"x":171368.16999999993,"y":2542826.5}},{"attributes":{"ID":599235,"DIS_CODE":0,"TOWNNAME":"東區","LI":"自強里","LIN":"27鄰","STREET":"中華東路","SECT":"二段","MAREA":" ","LANE":" ","ALLEY":" ","HOUSE_NO":"１６９號八樓之１６","E_COORD97":171368.17000000001,"N_COORD97":2542826.5,"ADDRESS":"中華東路二段１６９號八樓之１６","OBJECTID":599208},"geometry":{"x":171368.16999999993,"y":2542826.5}},{"attributes":{"ID":599236,"DIS_CODE":0,"TOWNNAME":"東區","LI":"自強里","LIN":"27鄰","STREET":"中華東路","SECT":"二段","MAREA":" ","LANE":" ","ALLEY":" ","HOUSE_NO":"１６９號八樓之１７","E_COORD97":171368.17000000001,"N_COORD97":2542826.5,"ADDRESS":"中華東路二段１６９號八樓之１７","OBJECTID":599209},"geometry":{"x":171368.16999999993,"y":2542826.5}},{"attributes":{"ID":599237,"DIS_CODE":0,"TOWNNAME":"東區","LI":"自強里","LIN":"27鄰","STREET":"中華東路","SECT":"二段","MAREA":" ","LANE":" ","ALLEY":" ","HOUSE_NO":"１６９號八樓之１８","E_COORD97":171368.17000000001,"N_COORD97":2542826.5,"ADDRESS":"中華東路二段１６９號八樓之１８","OBJECTID":599210},"geometry":{"x":171368.16999999993,"y":2542826.5}},{"attributes":{"ID":599238,"DIS_CODE":0,"TOWNNAME":"東區","LI":"自強里","LIN":"27鄰","STREET":"中華東路","SECT":"二段","MAREA":" ","LANE":" ","ALLEY":" ","HOUSE_NO":"１６９號八樓之１９","E_COORD97":171368.17000000001,"N_COORD97":2542826.5,"ADDRESS":"中華東路二段１６９號八樓之１９","OBJECTID":599211},"geometry":{"x":171368.16999999993,"y":2542826.5}},{"attributes":{"ID":599239,"DIS_CODE":0,"TOWNNAME":"東區","LI":"自強里","LIN":"27鄰","STREET":"中華東路","SECT":"二段","MAREA":" ","LANE":" ","ALLEY":" ","HOUSE_NO":"１６９號八樓之２０","E_COORD97":171368.17000000001,"N_COORD97":2542826.5,"ADDRESS":"中華東路二段１６９號八樓之２０","OBJECTID":599212},"geometry":{"x":171368.16999999993,"y":2542826.5}},{"attributes":{"ID":599240,"DIS_CODE":0,"TOWNNAME":"東區","LI":"自強里","LIN":"27鄰","STREET":"中華東路","SECT":"二段","MAREA":" ","LANE":" ","ALLEY":" ","HOUSE_NO":"１６９號八樓之２１","E_COORD97":171368.17000000001,"N_COORD97":2542826.5,"ADDRESS":"中華東路二段１６９號八樓之２１","OBJECTID":599213},"geometry":{"x":171368.16999999993,"y":2542826.5}},{"attributes":{"ID":599241,"DIS_CODE":0,"TOWNNAME":"東區","LI":"自強里","LIN":"27鄰","STREET":"中華東路","SECT":"二段","MAREA":" ","LANE":" ","ALLEY":" ","HOUSE_NO":"１６９號九樓之１","E_COORD97":171368.17000000001,"N_COORD97":2542826.5,"ADDRESS":"中華東路二段１６９號九樓之１","OBJECTID":599214},"geometry":{"x":171368.16999999993,"y":2542826.5}},{"attributes":{"ID":599242,"DIS_CODE":0,"TOWNNAME":"東區","LI":"自強里","LIN":"27鄰","STREET":"中華東路","SECT":"二段","MAREA":" ","LANE":" ","ALLEY":" ","HOUSE_NO":"１６９號九樓之２","E_COORD97":171368.17000000001,"N_COORD97":2542826.5,"ADDRESS":"中華東路二段１６９號九樓之２","OBJECTID":599215},"geometry":{"x":171368.16999999993,"y":2542826.5}},{"attributes":{"ID":599243,"DIS_CODE":0,"TOWNNAME":"東區","LI":"自強里","LIN":"27鄰","STREET":"中華東路","SECT":"二段","MAREA":" ","LANE":" ","ALLEY":" ","HOUSE_NO":"１６９號九樓之３","E_COORD97":171368.17000000001,"N_COORD97":2542826.5,"ADDRESS":"中華東路二段１６９號九樓之３","OBJECTID":599216},"geometry":{"x":171368.16999999993,"y":2542826.5}},{"attributes":{"ID":599244,"DIS_CODE":0,"TOWNNAME":"東區","LI":"自強里","LIN":"27鄰","STREET":"中華東路","SECT":"二段","MAREA":" ","LANE":" ","ALLEY":" ","HOUSE_NO":"１６９號九樓之５","E_COORD97":171368.17000000001,"N_COORD97":2542826.5,"ADDRESS":"中華東路二段１６９號九樓之５","OBJECTID":599217},"geometry":{"x":171368.16999999993,"y":2542826.5}},{"attributes":{"ID":599245,"DIS_CODE":0,"TOWNNAME":"新市區","LI":"新和里","LIN":"27鄰","STREET":"忠孝街","SECT":" ","MAREA":" ","LANE":" ","ALLEY":" ","HOUSE_NO":"１８２號","E_COORD97":177740.87,"N_COORD97":2552812.75,"ADDRESS":"忠孝街１８２號","OBJECTID":599218},"geometry":{"x":177740.87000000011,"y":2552812.75}},{"attributes":{"ID":599246,"DIS_CODE":0,"TOWNNAME":"東區","LI":"自強里","LIN":"27鄰","STREET":"中華東路","SECT":"二段","MAREA":" ","LANE":" ","ALLEY":" ","HOUSE_NO":"１６９號九樓之６","E_COORD97":171368.17000000001,"N_COORD97":2542826.5,"ADDRESS":"中華東路二段１６９號九樓之６","OBJECTID":599219},"geometry":{"x":171368.16999999993,"y":2542826.5}},{"attributes":{"ID":599247,"DIS_CODE":0,"TOWNNAME":"東區","LI":"自強里","LIN":"27鄰","STREET":"中華東路","SECT":"二段","MAREA":" ","LANE":" ","ALLEY":" ","HOUSE_NO":"１６９號九樓之７","E_COORD97":171368.17000000001,"N_COORD97":2542826.5,"ADDRESS":"中華東路二段１６９號九樓之７","OBJECTID":599220},"geometry":{"x":171368.16999999993,"y":2542826.5}},{"attributes":{"ID":599248,"DIS_CODE":0,"TOWNNAME":"東區","LI":"自強里","LIN":"27鄰","STREET":"中華東路","SECT":"二段","MAREA":" ","LANE":" ","ALLEY":" ","HOUSE_NO":"１６９號九樓之８","E_COORD97":171368.17000000001,"N_COORD97":2542826.5,"ADDRESS":"中華東路二段１６９號九樓之８","OBJECTID":599221},"geometry":{"x":171368.16999999993,"y":2542826.5}},{"attributes":{"ID":599249,"DIS_CODE":0,"TOWNNAME":"東區","LI":"自強里","LIN":"27鄰","STREET":"中華東路","SECT":"二段","MAREA":" ","LANE":" ","ALLEY":" ","HOUSE_NO":"１６９號九樓之９","E_COORD97":171368.17000000001,"N_COORD97":2542826.5,"ADDRESS":"中華東路二段１６９號九樓之９","OBJECTID":599222},"geometry":{"x":171368.16999999993,"y":2542826.5}},{"attributes":{"ID":599250,"DIS_CODE":0,"TOWNNAME":"東區","LI":"自強里","LIN":"27鄰","STREET":"中華東路","SECT":"二段","MAREA":" ","LANE":" ","ALLEY":" ","HOUSE_NO":"１６９號九樓之１０","E_COORD97":171368.17000000001,"N_COORD97":2542826.5,"ADDRESS":"中華東路二段１６９號九樓之１０","OBJECTID":599223},"geometry":{"x":171368.16999999993,"y":2542826.5}},{"attributes":{"ID":599251,"DIS_CODE":0,"TOWNNAME":"東區","LI":"自強里","LIN":"27鄰","STREET":"中華東路","SECT":"二段","MAREA":" ","LANE":" ","ALLEY":" ","HOUSE_NO":"１６９號九樓之１１","E_COORD97":171368.17000000001,"N_COORD97":2542826.5,"ADDRESS":"中華東路二段１６９號九樓之１１","OBJECTID":599224},"geometry":{"x":171368.16999999993,"y":2542826.5}},{"attributes":{"ID":599252,"DIS_CODE":0,"TOWNNAME":"東區","LI":"自強里","LIN":"27鄰","STREET":"中華東路","SECT":"二段","MAREA":" ","LANE":" ","ALLEY":" ","HOUSE_NO":"１６９號九樓之１２","E_COORD97":171368.17000000001,"N_COORD97":2542826.5,"ADDRESS":"中華東路二段１６９號九樓之１２","OBJECTID":599225},"geometry":{"x":171368.16999999993,"y":2542826.5}},{"attributes":{"ID":599253,"DIS_CODE":0,"TOWNNAME":"東區","LI":"自強里","LIN":"27鄰","STREET":"中華東路","SECT":"二段","MAREA":" ","LANE":" ","ALLEY":" ","HOUSE_NO":"１６９號九樓之１３","E_COORD97":171368.17000000001,"N_COORD97":2542826.5,"ADDRESS":"中華東路二段１６９號九樓之１３","OBJECTID":599226},"geometry":{"x":171368.16999999993,"y":2542826.5}},{"attributes":{"ID":599254,"DIS_CODE":0,"TOWNNAME":"東區","LI":"自強里","LIN":"27鄰","STREET":"中華東路","SECT":"二段","MAREA":" ","LANE":" ","ALLEY":" ","HOUSE_NO":"１６９號九樓之１５","E_COORD97":171368.17000000001,"N_COORD97":2542826.5,"ADDRESS":"中華東路二段１６９號九樓之１５","OBJECTID":599227},"geometry":{"x":171368.16999999993,"y":2542826.5}},{"attributes":{"ID":599255,"DIS_CODE":0,"TOWNNAME":"東區","LI":"自強里","LIN":"27鄰","STREET":"中華東路","SECT":"二段","MAREA":" ","LANE":" ","ALLEY":" ","HOUSE_NO":"１６９號九樓之１６","E_COORD97":171368.17000000001,"N_COORD97":2542826.5,"ADDRESS":"中華東路二段１６９號九樓之１６","OBJECTID":599228},"geometry":{"x":171368.16999999993,"y":2542826.5}},{"attributes":{"ID":599256,"DIS_CODE":0,"TOWNNAME":"東區","LI":"自強里","LIN":"27鄰","STREET":"中華東路","SECT":"二段","MAREA":" ","LANE":" ","ALLEY":" ","HOUSE_NO":"１６９號九樓之１７","E_COORD97":171368.17000000001,"N_COORD97":2542826.5,"ADDRESS":"中華東路二段１６９號九樓之１７","OBJECTID":599229},"geometry":{"x":171368.16999999993,"y":2542826.5}},{"attributes":{"ID":599257,"DIS_CODE":0,"TOWNNAME":"東區","LI":"自強里","LIN":"27鄰","STREET":"中華東路","SECT":"二段","MAREA":" ","LANE":" ","ALLEY":" ","HOUSE_NO":"１６９號九樓之１８","E_COORD97":171368.17000000001,"N_COORD97":2542826.5,"ADDRESS":"中華東路二段１６９號九樓之１８","OBJECTID":599230},"geometry":{"x":171368.16999999993,"y":2542826.5}},{"attributes":{"ID":599258,"DIS_CODE":0,"TOWNNAME":"東區","LI":"自強里","LIN":"27鄰","STREET":"中華東路","SECT":"二段","MAREA":" ","LANE":" ","ALLEY":" ","HOUSE_NO":"１６９號九樓之１９","E_COORD97":171368.17000000001,"N_COORD97":2542826.5,"ADDRESS":"中華東路二段１６９號九樓之１９","OBJECTID":599231},"geometry":{"x":171368.16999999993,"y":2542826.5}},{"attributes":{"ID":599259,"DIS_CODE":0,"TOWNNAME":"東區","LI":"自強里","LIN":"27鄰","STREET":"中華東路","SECT":"二段","MAREA":" ","LANE":" ","ALLEY":" ","HOUSE_NO":"１６９號九樓之２０","E_COORD97":171368.17000000001,"N_COORD97":2542826.5,"ADDRESS":"中華東路二段１６９號九樓之２０","OBJECTID":599232},"geometry":{"x":171368.16999999993,"y":2542826.5}},{"attributes":{"ID":599260,"DIS_CODE":0,"TOWNNAME":"東區","LI":"自強里","LIN":"27鄰","STREET":"中華東路","SECT":"二段","MAREA":" ","LANE":" ","ALLEY":" ","HOUSE_NO":"１６９號九樓之２１","E_COORD97":171368.17000000001,"N_COORD97":2542826.5,"ADDRESS":"中華東路二段１６９號九樓之２１","OBJECTID":599233},"geometry":{"x":171368.16999999993,"y":2542826.5}},{"attributes":{"ID":599261,"DIS_CODE":0,"TOWNNAME":"東區","LI":"自強里","LIN":"27鄰","STREET":"中華東路","SECT":"二段","MAREA":" ","LANE":" ","ALLEY":" ","HOUSE_NO":"１６９號十樓之１","E_COORD97":171368.17000000001,"N_COORD97":2542826.5,"ADDRESS":"中華東路二段１６９號十樓之１","OBJECTID":599234},"geometry":{"x":171368.16999999993,"y":2542826.5}},{"attributes":{"ID":599262,"DIS_CODE":0,"TOWNNAME":"東區","LI":"自強里","LIN":"27鄰","STREET":"中華東路","SECT":"二段","MAREA":" ","LANE":" ","ALLEY":" ","HOUSE_NO":"１６９號十樓之２","E_COORD97":171368.17000000001,"N_COORD97":2542826.5,"ADDRESS":"中華東路二段１６９號十樓之２","OBJECTID":599235},"geometry":{"x":171368.16999999993,"y":2542826.5}},{"attributes":{"ID":599263,"DIS_CODE":0,"TOWNNAME":"東區","LI":"自強里","LIN":"27鄰","STREET":"中華東路","SECT":"二段","MAREA":" ","LANE":" ","ALLEY":" ","HOUSE_NO":"１６９號十樓之３","E_COORD97":171368.17000000001,"N_COORD97":2542826.5,"ADDRESS":"中華東路二段１６９號十樓之３","OBJECTID":599236},"geometry":{"x":171368.16999999993,"y":2542826.5}},{"attributes":{"ID":599264,"DIS_CODE":0,"TOWNNAME":"東區","LI":"自強里","LIN":"27鄰","STREET":"中華東路","SECT":"二段","MAREA":" ","LANE":" ","ALLEY":" ","HOUSE_NO":"１６９號十樓之５","E_COORD97":171368.17000000001,"N_COORD97":2542826.5,"ADDRESS":"中華東路二段１６９號十樓之５","OBJECTID":599237},"geometry":{"x":171368.16999999993,"y":2542826.5}},{"attributes":{"ID":599265,"DIS_CODE":0,"TOWNNAME":"東區","LI":"自強里","LIN":"27鄰","STREET":"中華東路","SECT":"二段","MAREA":" ","LANE":" ","ALLEY":" ","HOUSE_NO":"１６９號十樓之６","E_COORD97":171368.17000000001,"N_COORD97":2542826.5,"ADDRESS":"中華東路二段１６９號十樓之６","OBJECTID":599238},"geometry":{"x":171368.16999999993,"y":2542826.5}},{"attributes":{"ID":599266,"DIS_CODE":0,"TOWNNAME":"東區","LI":"自強里","LIN":"27鄰","STREET":"中華東路","SECT":"二段","MAREA":" ","LANE":" ","ALLEY":" ","HOUSE_NO":"１６９號十樓之７","E_COORD97":171368.17000000001,"N_COORD97":2542826.5,"ADDRESS":"中華東路二段１６９號十樓之７","OBJECTID":599239},"geometry":{"x":171368.16999999993,"y":2542826.5}},{"attributes":{"ID":599267,"DIS_CODE":0,"TOWNNAME":"東區","LI":"自強里","LIN":"27鄰","STREET":"中華東路","SECT":"二段","MAREA":" ","LANE":" ","ALLEY":" ","HOUSE_NO":"１６９號十樓之８","E_COORD97":171368.17000000001,"N_COORD97":2542826.5,"ADDRESS":"中華東路二段１６９號十樓之８","OBJECTID":599240},"geometry":{"x":171368.16999999993,"y":2542826.5}},{"attributes":{"ID":599268,"DIS_CODE":0,"TOWNNAME":"東區","LI":"自強里","LIN":"27鄰","STREET":"中華東路","SECT":"二段","MAREA":" ","LANE":" ","ALLEY":" ","HOUSE_NO":"１６９號十樓之９","E_COORD97":171368.17000000001,"N_COORD97":2542826.5,"ADDRESS":"中華東路二段１６９號十樓之９","OBJECTID":599241},"geometry":{"x":171368.16999999993,"y":2542826.5}},{"attributes":{"ID":599269,"DIS_CODE":0,"TOWNNAME":"東區","LI":"自強里","LIN":"27鄰","STREET":"中華東路","SECT":"二段","MAREA":" ","LANE":" ","ALLEY":" ","HOUSE_NO":"１６９號十樓之１０","E_COORD97":171368.17000000001,"N_COORD97":2542826.5,"ADDRESS":"中華東路二段１６９號十樓之１０","OBJECTID":599242},"geometry":{"x":171368.16999999993,"y":2542826.5}},{"attributes":{"ID":599270,"DIS_CODE":0,"TOWNNAME":"東區","LI":"自強里","LIN":"27鄰","STREET":"中華東路","SECT":"二段","MAREA":" ","LANE":" ","ALLEY":" ","HOUSE_NO":"１６９號十樓之１１","E_COORD97":171368.17000000001,"N_COORD97":2542826.5,"ADDRESS":"中華東路二段１６９號十樓之１１","OBJECTID":599243},"geometry":{"x":171368.16999999993,"y":2542826.5}},{"attributes":{"ID":599271,"DIS_CODE":0,"TOWNNAME":"東區","LI":"自強里","LIN":"27鄰","STREET":"中華東路","SECT":"二段","MAREA":" ","LANE":" ","ALLEY":" ","HOUSE_NO":"１６９號十樓之１２","E_COORD97":171368.17000000001,"N_COORD97":2542826.5,"ADDRESS":"中華東路二段１６９號十樓之１２","OBJECTID":599244},"geometry":{"x":171368.16999999993,"y":2542826.5}},{"attributes":{"ID":599272,"DIS_CODE":0,"TOWNNAME":"東區","LI":"自強里","LIN":"27鄰","STREET":"中華東路","SECT":"二段","MAREA":" ","LANE":" ","ALLEY":" ","HOUSE_NO":"１６９號十樓之１３","E_COORD97":171368.17000000001,"N_COORD97":2542826.5,"ADDRESS":"中華東路二段１６９號十樓之１３","OBJECTID":599245},"geometry":{"x":171368.16999999993,"y":2542826.5}},{"attributes":{"ID":599273,"DIS_CODE":0,"TOWNNAME":"東區","LI":"自強里","LIN":"27鄰","STREET":"中華東路","SECT":"二段","MAREA":" ","LANE":" ","ALLEY":" ","HOUSE_NO":"１６９號十樓之１５","E_COORD97":171368.17000000001,"N_COORD97":2542826.5,"ADDRESS":"中華東路二段１６９號十樓之１５","OBJECTID":599246},"geometry":{"x":171368.16999999993,"y":2542826.5}},{"attributes":{"ID":599274,"DIS_CODE":0,"TOWNNAME":"東區","LI":"自強里","LIN":"27鄰","STREET":"中華東路","SECT":"二段","MAREA":" ","LANE":" ","ALLEY":" ","HOUSE_NO":"１６９號十樓之１６","E_COORD97":171368.17000000001,"N_COORD97":2542826.5,"ADDRESS":"中華東路二段１６９號十樓之１６","OBJECTID":599247},"geometry":{"x":171368.16999999993,"y":2542826.5}},{"attributes":{"ID":599275,"DIS_CODE":0,"TOWNNAME":"東區","LI":"大智里","LIN":"25鄰","STREET":"文東街","SECT":" ","MAREA":" ","LANE":" ","ALLEY":" ","HOUSE_NO":"８３號","E_COORD97":171372.98000000001,"N_COORD97":2540216.21,"ADDRESS":"文東街８３號","OBJECTID":599248},"geometry":{"x":171372.98000000045,"y":2540216.209999999}},{"attributes":{"ID":599276,"DIS_CODE":0,"TOWNNAME":"東區","LI":"自強里","LIN":"27鄰","STREET":"中華東路","SECT":"二段","MAREA":" ","LANE":" ","ALLEY":" ","HOUSE_NO":"１６９號十樓之１７","E_COORD97":171368.17000000001,"N_COORD97":2542826.5,"ADDRESS":"中華東路二段１６９號十樓之１７","OBJECTID":599249},"geometry":{"x":171368.16999999993,"y":2542826.5}},{"attributes":{"ID":599277,"DIS_CODE":0,"TOWNNAME":"東區","LI":"自強里","LIN":"27鄰","STREET":"中華東路","SECT":"二段","MAREA":" ","LANE":" ","ALLEY":" ","HOUSE_NO":"１６９號十樓之１８","E_COORD97":171368.17000000001,"N_COORD97":2542826.5,"ADDRESS":"中華東路二段１６９號十樓之１８","OBJECTID":599250},"geometry":{"x":171368.16999999993,"y":2542826.5}},{"attributes":{"ID":599278,"DIS_CODE":0,"TOWNNAME":"東區","LI":"自強里","LIN":"27鄰","STREET":"中華東路","SECT":"二段","MAREA":" ","LANE":" ","ALLEY":" ","HOUSE_NO":"１６９號十樓之１９","E_COORD97":171368.17000000001,"N_COORD97":2542826.5,"ADDRESS":"中華東路二段１６９號十樓之１９","OBJECTID":599251},"geometry":{"x":171368.16999999993,"y":2542826.5}},{"attributes":{"ID":599279,"DIS_CODE":0,"TOWNNAME":"東區","LI":"自強里","LIN":"27鄰","STREET":"中華東路","SECT":"二段","MAREA":" ","LANE":" ","ALLEY":" ","HOUSE_NO":"１６９號十樓之２０","E_COORD97":171368.17000000001,"N_COORD97":2542826.5,"ADDRESS":"中華東路二段１６９號十樓之２０","OBJECTID":599252},"geometry":{"x":171368.16999999993,"y":2542826.5}},{"attributes":{"ID":599280,"DIS_CODE":0,"TOWNNAME":"東區","LI":"自強里","LIN":"27鄰","STREET":"中華東路","SECT":"二段","MAREA":" ","LANE":" ","ALLEY":" ","HOUSE_NO":"１６９號十樓之２１","E_COORD97":171368.17000000001,"N_COORD97":2542826.5,"ADDRESS":"中華東路二段１６９號十樓之２１","OBJECTID":599253},"geometry":{"x":171368.16999999993,"y":2542826.5}},{"attributes":{"ID":599281,"DIS_CODE":0,"TOWNNAME":"東區","LI":"自強里","LIN":"27鄰","STREET":"中華東路","SECT":"二段","MAREA":" ","LANE":" ","ALLEY":" ","HOUSE_NO":"１６９號十一樓之１","E_COORD97":171368.17000000001,"N_COORD97":2542826.5,"ADDRESS":"中華東路二段１６９號十一樓之１","OBJECTID":599254},"geometry":{"x":171368.16999999993,"y":2542826.5}},{"attributes":{"ID":599282,"DIS_CODE":0,"TOWNNAME":"東區","LI":"自強里","LIN":"27鄰","STREET":"中華東路","SECT":"二段","MAREA":" ","LANE":" ","ALLEY":" ","HOUSE_NO":"１６９號十一樓之２","E_COORD97":171368.17000000001,"N_COORD97":2542826.5,"ADDRESS":"中華東路二段１６９號十一樓之２","OBJECTID":599255},"geometry":{"x":171368.16999999993,"y":2542826.5}},{"attributes":{"ID":599283,"DIS_CODE":0,"TOWNNAME":"東區","LI":"自強里","LIN":"27鄰","STREET":"中華東路","SECT":"二段","MAREA":" ","LANE":" ","ALLEY":" ","HOUSE_NO":"１６９號十一樓之３","E_COORD97":171368.17000000001,"N_COORD97":2542826.5,"ADDRESS":"中華東路二段１６９號十一樓之３","OBJECTID":599256},"geometry":{"x":171368.16999999993,"y":2542826.5}},{"attributes":{"ID":599284,"DIS_CODE":0,"TOWNNAME":"東區","LI":"自強里","LIN":"27鄰","STREET":"中華東路","SECT":"二段","MAREA":" ","LANE":" ","ALLEY":" ","HOUSE_NO":"１６９號十一樓之５","E_COORD97":171368.17000000001,"N_COORD97":2542826.5,"ADDRESS":"中華東路二段１６９號十一樓之５","OBJECTID":599257},"geometry":{"x":171368.16999999993,"y":2542826.5}},{"attributes":{"ID":599285,"DIS_CODE":0,"TOWNNAME":"東區","LI":"自強里","LIN":"27鄰","STREET":"中華東路","SECT":"二段","MAREA":" ","LANE":" ","ALLEY":" ","HOUSE_NO":"１６９號十一樓之６","E_COORD97":171368.17000000001,"N_COORD97":2542826.5,"ADDRESS":"中華東路二段１６９號十一樓之６","OBJECTID":599258},"geometry":{"x":171368.16999999993,"y":2542826.5}},{"attributes":{"ID":599286,"DIS_CODE":0,"TOWNNAME":"東區","LI":"自強里","LIN":"27鄰","STREET":"中華東路","SECT":"二段","MAREA":" ","LANE":" ","ALLEY":" ","HOUSE_NO":"１６９號十一樓之７","E_COORD97":171368.17000000001,"N_COORD97":2542826.5,"ADDRESS":"中華東路二段１６９號十一樓之７","OBJECTID":599259},"geometry":{"x":171368.16999999993,"y":2542826.5}},{"attributes":{"ID":599287,"DIS_CODE":0,"TOWNNAME":"東區","LI":"自強里","LIN":"27鄰","STREET":"中華東路","SECT":"二段","MAREA":" ","LANE":" ","ALLEY":" ","HOUSE_NO":"１６９號十一樓之８","E_COORD97":171368.17000000001,"N_COORD97":2542826.5,"ADDRESS":"中華東路二段１６９號十一樓之８","OBJECTID":599260},"geometry":{"x":171368.16999999993,"y":2542826.5}},{"attributes":{"ID":599288,"DIS_CODE":0,"TOWNNAME":"東區","LI":"自強里","LIN":"27鄰","STREET":"中華東路","SECT":"二段","MAREA":" ","LANE":" ","ALLEY":" ","HOUSE_NO":"１６９號十一樓之９","E_COORD97":171368.17000000001,"N_COORD97":2542826.5,"ADDRESS":"中華東路二段１６９號十一樓之９","OBJECTID":599261},"geometry":{"x":171368.16999999993,"y":2542826.5}},{"attributes":{"ID":599289,"DIS_CODE":0,"TOWNNAME":"東區","LI":"自強里","LIN":"27鄰","STREET":"中華東路","SECT":"二段","MAREA":" ","LANE":" ","ALLEY":" ","HOUSE_NO":"１６９號十一樓之１０","E_COORD97":171368.17000000001,"N_COORD97":2542826.5,"ADDRESS":"中華東路二段１６９號十一樓之１０","OBJECTID":599262},"geometry":{"x":171368.16999999993,"y":2542826.5}},{"attributes":{"ID":599290,"DIS_CODE":0,"TOWNNAME":"東區","LI":"自強里","LIN":"27鄰","STREET":"中華東路","SECT":"二段","MAREA":" ","LANE":" ","ALLEY":" ","HOUSE_NO":"１６９號十一樓之１１","E_COORD97":171368.17000000001,"N_COORD97":2542826.5,"ADDRESS":"中華東路二段１６９號十一樓之１１","OBJECTID":599263},"geometry":{"x":171368.16999999993,"y":2542826.5}},{"attributes":{"ID":599291,"DIS_CODE":0,"TOWNNAME":"東區","LI":"自強里","LIN":"27鄰","STREET":"中華東路","SECT":"二段","MAREA":" ","LANE":" ","ALLEY":" ","HOUSE_NO":"１６９號十一樓之１２","E_COORD97":171368.17000000001,"N_COORD97":2542826.5,"ADDRESS":"中華東路二段１６９號十一樓之１２","OBJECTID":599264},"geometry":{"x":171368.16999999993,"y":2542826.5}},{"attributes":{"ID":599292,"DIS_CODE":0,"TOWNNAME":"東區","LI":"自強里","LIN":"27鄰","STREET":"中華東路","SECT":"二段","MAREA":" ","LANE":" ","ALLEY":" ","HOUSE_NO":"１６９號十一樓之１３","E_COORD97":171368.17000000001,"N_COORD97":2542826.5,"ADDRESS":"中華東路二段１６９號十一樓之１３","OBJECTID":599265},"geometry":{"x":171368.16999999993,"y":2542826.5}},{"attributes":{"ID":599293,"DIS_CODE":0,"TOWNNAME":"東區","LI":"自強里","LIN":"27鄰","STREET":"中華東路","SECT":"二段","MAREA":" ","LANE":" ","ALLEY":" ","HOUSE_NO":"１６９號十一樓之１５","E_COORD97":171368.17000000001,"N_COORD97":2542826.5,"ADDRESS":"中華東路二段１６９號十一樓之１５","OBJECTID":599266},"geometry":{"x":171368.16999999993,"y":2542826.5}},{"attributes":{"ID":599294,"DIS_CODE":0,"TOWNNAME":"東區","LI":"自強里","LIN":"27鄰","STREET":"中華東路","SECT":"二段","MAREA":" ","LANE":" ","ALLEY":" ","HOUSE_NO":"１６９號十一樓之１６","E_COORD97":171368.17000000001,"N_COORD97":2542826.5,"ADDRESS":"中華東路二段１６９號十一樓之１６","OBJECTID":599267},"geometry":{"x":171368.16999999993,"y":2542826.5}},{"attributes":{"ID":599295,"DIS_CODE":0,"TOWNNAME":"東區","LI":"自強里","LIN":"27鄰","STREET":"中華東路","SECT":"二段","MAREA":" ","LANE":" ","ALLEY":" ","HOUSE_NO":"１６９號十一樓之１７","E_COORD97":171368.17000000001,"N_COORD97":2542826.5,"ADDRESS":"中華東路二段１６９號十一樓之１７","OBJECTID":599268},"geometry":{"x":171368.16999999993,"y":2542826.5}},{"attributes":{"ID":599296,"DIS_CODE":0,"TOWNNAME":"東區","LI":"自強里","LIN":"27鄰","STREET":"中華東路","SECT":"二段","MAREA":" ","LANE":" ","ALLEY":" ","HOUSE_NO":"１６９號十一樓之１８","E_COORD97":171368.17000000001,"N_COORD97":2542826.5,"ADDRESS":"中華東路二段１６９號十一樓之１８","OBJECTID":599269},"geometry":{"x":171368.16999999993,"y":2542826.5}},{"attributes":{"ID":599297,"DIS_CODE":0,"TOWNNAME":"東區","LI":"自強里","LIN":"27鄰","STREET":"中華東路","SECT":"二段","MAREA":" ","LANE":" ","ALLEY":" ","HOUSE_NO":"１６９號十一樓之１９","E_COORD97":171368.17000000001,"N_COORD97":2542826.5,"ADDRESS":"中華東路二段１６９號十一樓之１９","OBJECTID":599270},"geometry":{"x":171368.16999999993,"y":2542826.5}},{"attributes":{"ID":599298,"DIS_CODE":0,"TOWNNAME":"東區","LI":"自強里","LIN":"27鄰","STREET":"中華東路","SECT":"二段","MAREA":" ","LANE":" ","ALLEY":" ","HOUSE_NO":"１６９號十一樓之２０","E_COORD97":171368.17000000001,"N_COORD97":2542826.5,"ADDRESS":"中華東路二段１６９號十一樓之２０","OBJECTID":599271},"geometry":{"x":171368.16999999993,"y":2542826.5}},{"attributes":{"ID":599299,"DIS_CODE":0,"TOWNNAME":"東區","LI":"自強里","LIN":"27鄰","STREET":"中華東路","SECT":"二段","MAREA":" ","LANE":" ","ALLEY":" ","HOUSE_NO":"１６９號十一樓之２１","E_COORD97":171368.17000000001,"N_COORD97":2542826.5,"ADDRESS":"中華東路二段１６９號十一樓之２１","OBJECTID":599272},"geometry":{"x":171368.16999999993,"y":2542826.5}},{"attributes":{"ID":599300,"DIS_CODE":0,"TOWNNAME":"東區","LI":"自強里","LIN":"27鄰","STREET":"中華東路","SECT":"二段","MAREA":" ","LANE":" ","ALLEY":" ","HOUSE_NO":"１６７號十二樓之１","E_COORD97":171368.17000000001,"N_COORD97":2542826.5,"ADDRESS":"中華東路二段１６７號十二樓之１","OBJECTID":599273},"geometry":{"x":171368.16999999993,"y":2542826.5}},{"attributes":{"ID":599301,"DIS_CODE":0,"TOWNNAME":"東區","LI":"自強里","LIN":"27鄰","STREET":"中華東路","SECT":"二段","MAREA":" ","LANE":" ","ALLEY":" ","HOUSE_NO":"１６７號十二樓之２","E_COORD97":171368.17000000001,"N_COORD97":2542826.5,"ADDRESS":"中華東路二段１６７號十二樓之２","OBJECTID":599274},"geometry":{"x":171368.16999999993,"y":2542826.5}},{"attributes":{"ID":599302,"DIS_CODE":0,"TOWNNAME":"東區","LI":"自強里","LIN":"27鄰","STREET":"中華東路","SECT":"二段","MAREA":" ","LANE":" ","ALLEY":" ","HOUSE_NO":"１６７號十二樓之３","E_COORD97":171368.17000000001,"N_COORD97":2542826.5,"ADDRESS":"中華東路二段１６７號十二樓之３","OBJECTID":599275},"geometry":{"x":171368.16999999993,"y":2542826.5}},{"attributes":{"ID":599303,"DIS_CODE":0,"TOWNNAME":"東區","LI":"自強里","LIN":"27鄰","STREET":"中華東路","SECT":"二段","MAREA":" ","LANE":" ","ALLEY":" ","HOUSE_NO":"１６７號十二樓之５","E_COORD97":171368.17000000001,"N_COORD97":2542826.5,"ADDRESS":"中華東路二段１６７號十二樓之５","OBJECTID":599276},"geometry":{"x":171368.16999999993,"y":2542826.5}},{"attributes":{"ID":599304,"DIS_CODE":0,"TOWNNAME":"東區","LI":"自強里","LIN":"27鄰","STREET":"中華東路","SECT":"二段","MAREA":" ","LANE":" ","ALLEY":" ","HOUSE_NO":"１６７號十二樓之６","E_COORD97":171368.17000000001,"N_COORD97":2542826.5,"ADDRESS":"中華東路二段１６７號十二樓之６","OBJECTID":599277},"geometry":{"x":171368.16999999993,"y":2542826.5}},{"attributes":{"ID":599305,"DIS_CODE":0,"TOWNNAME":"東區","LI":"自強里","LIN":"27鄰","STREET":"中華東路","SECT":"二段","MAREA":" ","LANE":" ","ALLEY":" ","HOUSE_NO":"１６７號十二樓之７","E_COORD97":171368.17000000001,"N_COORD97":2542826.5,"ADDRESS":"中華東路二段１６７號十二樓之７","OBJECTID":599278},"geometry":{"x":171368.16999999993,"y":2542826.5}},{"attributes":{"ID":599306,"DIS_CODE":0,"TOWNNAME":"東區","LI":"自強里","LIN":"27鄰","STREET":"中華東路","SECT":"二段","MAREA":" ","LANE":" ","ALLEY":" ","HOUSE_NO":"１６７號十二樓之８","E_COORD97":171368.17000000001,"N_COORD97":2542826.5,"ADDRESS":"中華東路二段１６７號十二樓之８","OBJECTID":599279},"geometry":{"x":171368.16999999993,"y":2542826.5}},{"attributes":{"ID":599307,"DIS_CODE":0,"TOWNNAME":"東區","LI":"自強里","LIN":"27鄰","STREET":"中華東路","SECT":"二段","MAREA":" ","LANE":" ","ALLEY":" ","HOUSE_NO":"１６７號十二樓之９","E_COORD97":171368.17000000001,"N_COORD97":2542826.5,"ADDRESS":"中華東路二段１６７號十二樓之９","OBJECTID":599280},"geometry":{"x":171368.16999999993,"y":2542826.5}},{"attributes":{"ID":599308,"DIS_CODE":0,"TOWNNAME":"東區","LI":"自強里","LIN":"27鄰","STREET":"中華東路","SECT":"二段","MAREA":" ","LANE":" ","ALLEY":" ","HOUSE_NO":"１６７號十二樓之１０","E_COORD97":171368.17000000001,"N_COORD97":2542826.5,"ADDRESS":"中華東路二段１６７號十二樓之１０","OBJECTID":599281},"geometry":{"x":171368.16999999993,"y":2542826.5}},{"attributes":{"ID":599309,"DIS_CODE":0,"TOWNNAME":"東區","LI":"自強里","LIN":"27鄰","STREET":"中華東路","SECT":"二段","MAREA":" ","LANE":" ","ALLEY":" ","HOUSE_NO":"１６７號十二樓之１１","E_COORD97":171368.17000000001,"N_COORD97":2542826.5,"ADDRESS":"中華東路二段１６７號十二樓之１１","OBJECTID":599282},"geometry":{"x":171368.16999999993,"y":2542826.5}},{"attributes":{"ID":599310,"DIS_CODE":0,"TOWNNAME":"永康區","LI":"復國里","LIN":"27鄰","STREET":"復華三街","SECT":" ","MAREA":" ","LANE":" ","ALLEY":" ","HOUSE_NO":"６８號九樓之３","E_COORD97":172699.10000000001,"N_COORD97":2545576.0499999998,"ADDRESS":"復華三街６８號九樓之３","OBJECTID":599283},"geometry":{"x":172699.09999999963,"y":2545576.0500000007}},{"attributes":{"ID":599311,"DIS_CODE":0,"TOWNNAME":"東區","LI":"自強里","LIN":"27鄰","STREET":"中華東路","SECT":"二段","MAREA":" ","LANE":" ","ALLEY":" ","HOUSE_NO":"１６７號十二樓之１２","E_COORD97":171368.17000000001,"N_COORD97":2542826.5,"ADDRESS":"中華東路二段１６７號十二樓之１２","OBJECTID":599284},"geometry":{"x":171368.16999999993,"y":2542826.5}},{"attributes":{"ID":599312,"DIS_CODE":0,"TOWNNAME":"東區","LI":"自強里","LIN":"27鄰","STREET":"中華東路","SECT":"二段","MAREA":" ","LANE":" ","ALLEY":" ","HOUSE_NO":"１６７號十二樓之１３","E_COORD97":171368.17000000001,"N_COORD97":2542826.5,"ADDRESS":"中華東路二段１６７號十二樓之１３","OBJECTID":599285},"geometry":{"x":171368.16999999993,"y":2542826.5}},{"attributes":{"ID":599313,"DIS_CODE":0,"TOWNNAME":"東區","LI":"自強里","LIN":"27鄰","STREET":"中華東路","SECT":"二段","MAREA":" ","LANE":" ","ALLEY":" ","HOUSE_NO":"１６７號十二樓之１５","E_COORD97":171368.17000000001,"N_COORD97":2542826.5,"ADDRESS":"中華東路二段１６７號十二樓之１５","OBJECTID":599286},"geometry":{"x":171368.16999999993,"y":2542826.5}},{"attributes":{"ID":599314,"DIS_CODE":0,"TOWNNAME":"東區","LI":"自強里","LIN":"27鄰","STREET":"中華東路","SECT":"二段","MAREA":" ","LANE":" ","ALLEY":" ","HOUSE_NO":"１６７號十二樓之１６","E_COORD97":171368.17000000001,"N_COORD97":2542826.5,"ADDRESS":"中華東路二段１６７號十二樓之１６","OBJECTID":599287},"geometry":{"x":171368.16999999993,"y":2542826.5}},{"attributes":{"ID":599315,"DIS_CODE":0,"TOWNNAME":"東區","LI":"自強里","LIN":"27鄰","STREET":"中華東路","SECT":"二段","MAREA":" ","LANE":" ","ALLEY":" ","HOUSE_NO":"１６７號十二樓之１７","E_COORD97":171368.17000000001,"N_COORD97":2542826.5,"ADDRESS":"中華東路二段１６７號十二樓之１７","OBJECTID":599288},"geometry":{"x":171368.16999999993,"y":2542826.5}},{"attributes":{"ID":599316,"DIS_CODE":0,"TOWNNAME":"東區","LI":"自強里","LIN":"27鄰","STREET":"中華東路","SECT":"二段","MAREA":" ","LANE":" ","ALLEY":" ","HOUSE_NO":"１６７號十二樓之１８","E_COORD97":171368.17000000001,"N_COORD97":2542826.5,"ADDRESS":"中華東路二段１６７號十二樓之１８","OBJECTID":599289},"geometry":{"x":171368.16999999993,"y":2542826.5}},{"attributes":{"ID":599317,"DIS_CODE":0,"TOWNNAME":"東區","LI":"自強里","LIN":"27鄰","STREET":"中華東路","SECT":"二段","MAREA":" ","LANE":" ","ALLEY":" ","HOUSE_NO":"１６７號十二樓之１９","E_COORD97":171368.17000000001,"N_COORD97":2542826.5,"ADDRESS":"中華東路二段１６７號十二樓之１９","OBJECTID":599290},"geometry":{"x":171368.16999999993,"y":2542826.5}},{"attributes":{"ID":599318,"DIS_CODE":0,"TOWNNAME":"東區","LI":"自強里","LIN":"27鄰","STREET":"中華東路","SECT":"二段","MAREA":" ","LANE":" ","ALLEY":" ","HOUSE_NO":"１６７號十二樓之２０","E_COORD97":171368.17000000001,"N_COORD97":2542826.5,"ADDRESS":"中華東路二段１６７號十二樓之２０","OBJECTID":599291},"geometry":{"x":171368.16999999993,"y":2542826.5}},{"attributes":{"ID":599319,"DIS_CODE":0,"TOWNNAME":"東區","LI":"自強里","LIN":"27鄰","STREET":"中華東路","SECT":"二段","MAREA":" ","LANE":" ","ALLEY":" ","HOUSE_NO":"１６７號十二樓之２１","E_COORD97":171368.17000000001,"N_COORD97":2542826.5,"ADDRESS":"中華東路二段１６７號十二樓之２１","OBJECTID":599292},"geometry":{"x":171368.16999999993,"y":2542826.5}},{"attributes":{"ID":599320,"DIS_CODE":0,"TOWNNAME":"東區","LI":"自強里","LIN":"27鄰","STREET":"中華東路","SECT":"二段","MAREA":" ","LANE":" ","ALLEY":" ","HOUSE_NO":"１６７號十二樓之２２","E_COORD97":171368.17000000001,"N_COORD97":2542826.5,"ADDRESS":"中華東路二段１６７號十二樓之２２","OBJECTID":599293},"geometry":{"x":171368.16999999993,"y":2542826.5}},{"attributes":{"ID":599321,"DIS_CODE":0,"TOWNNAME":"東區","LI":"自強里","LIN":"27鄰","STREET":"中華東路","SECT":"二段","MAREA":" ","LANE":" ","ALLEY":" ","HOUSE_NO":"１６９號十二樓之１","E_COORD97":171368.17000000001,"N_COORD97":2542826.5,"ADDRESS":"中華東路二段１６９號十二樓之１","OBJECTID":599294},"geometry":{"x":171368.16999999993,"y":2542826.5}},{"attributes":{"ID":599322,"DIS_CODE":0,"TOWNNAME":"東區","LI":"自強里","LIN":"27鄰","STREET":"中華東路","SECT":"二段","MAREA":" ","LANE":" ","ALLEY":" ","HOUSE_NO":"１６９號十二樓之２","E_COORD97":171368.17000000001,"N_COORD97":2542826.5,"ADDRESS":"中華東路二段１６９號十二樓之２","OBJECTID":599295},"geometry":{"x":171368.16999999993,"y":2542826.5}},{"attributes":{"ID":599323,"DIS_CODE":0,"TOWNNAME":"永康區","LI":"復國里","LIN":"27鄰","STREET":"復華三街","SECT":" ","MAREA":" ","LANE":" ","ALLEY":" ","HOUSE_NO":"６８號十二樓之６","E_COORD97":172700.35999999999,"N_COORD97":2545576.0499999998,"ADDRESS":"復華三街６８號十二樓之６","OBJECTID":599296},"geometry":{"x":172700.36000000127,"y":2545576.0500000007}},{"attributes":{"ID":599324,"DIS_CODE":0,"TOWNNAME":"東區","LI":"自強里","LIN":"27鄰","STREET":"中華東路","SECT":"二段","MAREA":" ","LANE":" ","ALLEY":" ","HOUSE_NO":"１６９號十二樓之３","E_COORD97":171368.17000000001,"N_COORD97":2542826.5,"ADDRESS":"中華東路二段１６９號十二樓之３","OBJECTID":599297},"geometry":{"x":171368.16999999993,"y":2542826.5}},{"attributes":{"ID":599325,"DIS_CODE":0,"TOWNNAME":"東區","LI":"自強里","LIN":"27鄰","STREET":"中華東路","SECT":"二段","MAREA":" ","LANE":" ","ALLEY":" ","HOUSE_NO":"１６９號十二樓之５","E_COORD97":171368.17000000001,"N_COORD97":2542826.5,"ADDRESS":"中華東路二段１６９號十二樓之５","OBJECTID":599298},"geometry":{"x":171368.16999999993,"y":2542826.5}},{"attributes":{"ID":599326,"DIS_CODE":0,"TOWNNAME":"東區","LI":"自強里","LIN":"27鄰","STREET":"中華東路","SECT":"二段","MAREA":" ","LANE":" ","ALLEY":" ","HOUSE_NO":"１６９號十二樓之６","E_COORD97":171368.17000000001,"N_COORD97":2542826.5,"ADDRESS":"中華東路二段１６９號十二樓之６","OBJECTID":599299},"geometry":{"x":171368.16999999993,"y":2542826.5}},{"attributes":{"ID":599327,"DIS_CODE":0,"TOWNNAME":"東區","LI":"自強里","LIN":"27鄰","STREET":"中華東路","SECT":"二段","MAREA":" ","LANE":" ","ALLEY":" ","HOUSE_NO":"１６９號十二樓之７","E_COORD97":171368.17000000001,"N_COORD97":2542826.5,"ADDRESS":"中華東路二段１６９號十二樓之７","OBJECTID":599300},"geometry":{"x":171368.16999999993,"y":2542826.5}},{"attributes":{"ID":599328,"DIS_CODE":0,"TOWNNAME":"東區","LI":"自強里","LIN":"27鄰","STREET":"中華東路","SECT":"二段","MAREA":" ","LANE":" ","ALLEY":" ","HOUSE_NO":"１６９號十二樓之８","E_COORD97":171368.17000000001,"N_COORD97":2542826.5,"ADDRESS":"中華東路二段１６９號十二樓之８","OBJECTID":599301},"geometry":{"x":171368.16999999993,"y":2542826.5}},{"attributes":{"ID":599329,"DIS_CODE":0,"TOWNNAME":"東區","LI":"自強里","LIN":"27鄰","STREET":"中華東路","SECT":"二段","MAREA":" ","LANE":" ","ALLEY":" ","HOUSE_NO":"１６９號十二樓之９","E_COORD97":171368.17000000001,"N_COORD97":2542826.5,"ADDRESS":"中華東路二段１６９號十二樓之９","OBJECTID":599302},"geometry":{"x":171368.16999999993,"y":2542826.5}},{"attributes":{"ID":599330,"DIS_CODE":0,"TOWNNAME":"東區","LI":"自強里","LIN":"27鄰","STREET":"中華東路","SECT":"二段","MAREA":" ","LANE":" ","ALLEY":" ","HOUSE_NO":"１６９號十二樓之１０","E_COORD97":171368.17000000001,"N_COORD97":2542826.5,"ADDRESS":"中華東路二段１６９號十二樓之１０","OBJECTID":599303},"geometry":{"x":171368.16999999993,"y":2542826.5}},{"attributes":{"ID":599331,"DIS_CODE":0,"TOWNNAME":"東區","LI":"自強里","LIN":"27鄰","STREET":"中華東路","SECT":"二段","MAREA":" ","LANE":" ","ALLEY":" ","HOUSE_NO":"１６９號十二樓之１１","E_COORD97":171368.17000000001,"N_COORD97":2542826.5,"ADDRESS":"中華東路二段１６９號十二樓之１１","OBJECTID":599304},"geometry":{"x":171368.16999999993,"y":2542826.5}},{"attributes":{"ID":599332,"DIS_CODE":0,"TOWNNAME":"東區","LI":"自強里","LIN":"27鄰","STREET":"中華東路","SECT":"二段","MAREA":" ","LANE":" ","ALLEY":" ","HOUSE_NO":"１６９號十二樓之１２","E_COORD97":171368.17000000001,"N_COORD97":2542826.5,"ADDRESS":"中華東路二段１６９號十二樓之１２","OBJECTID":599305},"geometry":{"x":171368.16999999993,"y":2542826.5}},{"attributes":{"ID":599333,"DIS_CODE":0,"TOWNNAME":"東區","LI":"自強里","LIN":"27鄰","STREET":"中華東路","SECT":"二段","MAREA":" ","LANE":" ","ALLEY":" ","HOUSE_NO":"１６９號十二樓之１３","E_COORD97":171368.17000000001,"N_COORD97":2542826.5,"ADDRESS":"中華東路二段１６９號十二樓之１３","OBJECTID":599306},"geometry":{"x":171368.16999999993,"y":2542826.5}},{"attributes":{"ID":599334,"DIS_CODE":0,"TOWNNAME":"東區","LI":"自強里","LIN":"27鄰","STREET":"中華東路","SECT":"二段","MAREA":" ","LANE":" ","ALLEY":" ","HOUSE_NO":"１６９號十二樓之１５","E_COORD97":171368.17000000001,"N_COORD97":2542826.5,"ADDRESS":"中華東路二段１６９號十二樓之１５","OBJECTID":599307},"geometry":{"x":171368.16999999993,"y":2542826.5}},{"attributes":{"ID":599335,"DIS_CODE":0,"TOWNNAME":"東區","LI":"自強里","LIN":"27鄰","STREET":"中華東路","SECT":"二段","MAREA":" ","LANE":" ","ALLEY":" ","HOUSE_NO":"１６９號十二樓之１６","E_COORD97":171368.17000000001,"N_COORD97":2542826.5,"ADDRESS":"中華東路二段１６９號十二樓之１６","OBJECTID":599308},"geometry":{"x":171368.16999999993,"y":2542826.5}},{"attributes":{"ID":599336,"DIS_CODE":0,"TOWNNAME":"東區","LI":"自強里","LIN":"27鄰","STREET":"中華東路","SECT":"二段","MAREA":" ","LANE":" ","ALLEY":" ","HOUSE_NO":"１６９號十二樓之１７","E_COORD97":171368.17000000001,"N_COORD97":2542826.5,"ADDRESS":"中華東路二段１６９號十二樓之１７","OBJECTID":599309},"geometry":{"x":171368.16999999993,"y":2542826.5}},{"attributes":{"ID":599337,"DIS_CODE":0,"TOWNNAME":"東區","LI":"自強里","LIN":"27鄰","STREET":"中華東路","SECT":"二段","MAREA":" ","LANE":" ","ALLEY":" ","HOUSE_NO":"１６９號十二樓之１８","E_COORD97":171368.17000000001,"N_COORD97":2542826.5,"ADDRESS":"中華東路二段１６９號十二樓之１８","OBJECTID":599310},"geometry":{"x":171368.16999999993,"y":2542826.5}},{"attributes":{"ID":599338,"DIS_CODE":0,"TOWNNAME":"東區","LI":"自強里","LIN":"27鄰","STREET":"中華東路","SECT":"二段","MAREA":" ","LANE":" ","ALLEY":" ","HOUSE_NO":"１６９號十二樓之１９","E_COORD97":171368.17000000001,"N_COORD97":2542826.5,"ADDRESS":"中華東路二段１６９號十二樓之１９","OBJECTID":599311},"geometry":{"x":171368.16999999993,"y":2542826.5}},{"attributes":{"ID":599339,"DIS_CODE":0,"TOWNNAME":"東區","LI":"自強里","LIN":"27鄰","STREET":"中華東路","SECT":"二段","MAREA":" ","LANE":" ","ALLEY":" ","HOUSE_NO":"１６９號十二樓之２０","E_COORD97":171368.17000000001,"N_COORD97":2542826.5,"ADDRESS":"中華東路二段１６９號十二樓之２０","OBJECTID":599312},"geometry":{"x":171368.16999999993,"y":2542826.5}},{"attributes":{"ID":599340,"DIS_CODE":0,"TOWNNAME":"東區","LI":"自強里","LIN":"27鄰","STREET":"中華東路","SECT":"二段","MAREA":" ","LANE":" ","ALLEY":" ","HOUSE_NO":"１６９號十二樓之２１","E_COORD97":171368.17000000001,"N_COORD97":2542826.5,"ADDRESS":"中華東路二段１６９號十二樓之２１","OBJECTID":599313},"geometry":{"x":171368.16999999993,"y":2542826.5}},{"attributes":{"ID":599341,"DIS_CODE":0,"TOWNNAME":"東區","LI":"自強里","LIN":"27鄰","STREET":"中華東路","SECT":"二段","MAREA":" ","LANE":" ","ALLEY":" ","HOUSE_NO":"１６９號十三樓之１","E_COORD97":171368.17000000001,"N_COORD97":2542826.5,"ADDRESS":"中華東路二段１６９號十三樓之１","OBJECTID":599314},"geometry":{"x":171368.16999999993,"y":2542826.5}},{"attributes":{"ID":599342,"DIS_CODE":0,"TOWNNAME":"東區","LI":"自強里","LIN":"27鄰","STREET":"中華東路","SECT":"二段","MAREA":" ","LANE":" ","ALLEY":" ","HOUSE_NO":"１６９號十三樓之２","E_COORD97":171368.17000000001,"N_COORD97":2542826.5,"ADDRESS":"中華東路二段１６９號十三樓之２","OBJECTID":599315},"geometry":{"x":171368.16999999993,"y":2542826.5}},{"attributes":{"ID":599343,"DIS_CODE":0,"TOWNNAME":"東區","LI":"自強里","LIN":"27鄰","STREET":"中華東路","SECT":"二段","MAREA":" ","LANE":" ","ALLEY":" ","HOUSE_NO":"１６９號十三樓之３","E_COORD97":171368.17000000001,"N_COORD97":2542826.5,"ADDRESS":"中華東路二段１６９號十三樓之３","OBJECTID":599316},"geometry":{"x":171368.16999999993,"y":2542826.5}},{"attributes":{"ID":599344,"DIS_CODE":0,"TOWNNAME":"東區","LI":"自強里","LIN":"27鄰","STREET":"中華東路","SECT":"二段","MAREA":" ","LANE":" ","ALLEY":" ","HOUSE_NO":"１６９號十三樓之５","E_COORD97":171368.17000000001,"N_COORD97":2542826.5,"ADDRESS":"中華東路二段１６９號十三樓之５","OBJECTID":599317},"geometry":{"x":171368.16999999993,"y":2542826.5}},{"attributes":{"ID":599345,"DIS_CODE":0,"TOWNNAME":"東區","LI":"自強里","LIN":"27鄰","STREET":"中華東路","SECT":"二段","MAREA":" ","LANE":" ","ALLEY":" ","HOUSE_NO":"１６９號十三樓之６","E_COORD97":171368.17000000001,"N_COORD97":2542826.5,"ADDRESS":"中華東路二段１６９號十三樓之６","OBJECTID":599318},"geometry":{"x":171368.16999999993,"y":2542826.5}},{"attributes":{"ID":599346,"DIS_CODE":0,"TOWNNAME":"東區","LI":"自強里","LIN":"27鄰","STREET":"中華東路","SECT":"二段","MAREA":" ","LANE":" ","ALLEY":" ","HOUSE_NO":"１６９號十三樓之７","E_COORD97":171368.17000000001,"N_COORD97":2542826.5,"ADDRESS":"中華東路二段１６９號十三樓之７","OBJECTID":599319},"geometry":{"x":171368.16999999993,"y":2542826.5}},{"attributes":{"ID":599347,"DIS_CODE":0,"TOWNNAME":"東區","LI":"自強里","LIN":"27鄰","STREET":"中華東路","SECT":"二段","MAREA":" ","LANE":" ","ALLEY":" ","HOUSE_NO":"１６９號十三樓之８","E_COORD97":171368.17000000001,"N_COORD97":2542826.5,"ADDRESS":"中華東路二段１６９號十三樓之８","OBJECTID":599320},"geometry":{"x":171368.16999999993,"y":2542826.5}},{"attributes":{"ID":599348,"DIS_CODE":0,"TOWNNAME":"東區","LI":"自強里","LIN":"27鄰","STREET":"中華東路","SECT":"二段","MAREA":" ","LANE":" ","ALLEY":" ","HOUSE_NO":"１６９號十三樓之９","E_COORD97":171368.17000000001,"N_COORD97":2542826.5,"ADDRESS":"中華東路二段１６９號十三樓之９","OBJECTID":599321},"geometry":{"x":171368.16999999993,"y":2542826.5}},{"attributes":{"ID":599349,"DIS_CODE":0,"TOWNNAME":"東區","LI":"自強里","LIN":"27鄰","STREET":"中華東路","SECT":"二段","MAREA":" ","LANE":" ","ALLEY":" ","HOUSE_NO":"１６９號十三樓之１０","E_COORD97":171368.17000000001,"N_COORD97":2542826.5,"ADDRESS":"中華東路二段１６９號十三樓之１０","OBJECTID":599322},"geometry":{"x":171368.16999999993,"y":2542826.5}},{"attributes":{"ID":599350,"DIS_CODE":0,"TOWNNAME":"永康區","LI":"復國里","LIN":"27鄰","STREET":"復華三街","SECT":" ","MAREA":" ","LANE":" ","ALLEY":" ","HOUSE_NO":"６８號十八樓之６","E_COORD97":172700.35999999999,"N_COORD97":2545576.0499999998,"ADDRESS":"復華三街６８號十八樓之６","OBJECTID":599323},"geometry":{"x":172700.36000000127,"y":2545576.0500000007}},{"attributes":{"ID":599351,"DIS_CODE":0,"TOWNNAME":"東區","LI":"自強里","LIN":"27鄰","STREET":"中華東路","SECT":"二段","MAREA":" ","LANE":" ","ALLEY":" ","HOUSE_NO":"１６９號十三樓之１１","E_COORD97":171368.17000000001,"N_COORD97":2542826.5,"ADDRESS":"中華東路二段１６９號十三樓之１１","OBJECTID":599324},"geometry":{"x":171368.16999999993,"y":2542826.5}},{"attributes":{"ID":599352,"DIS_CODE":0,"TOWNNAME":"東區","LI":"自強里","LIN":"27鄰","STREET":"中華東路","SECT":"二段","MAREA":" ","LANE":" ","ALLEY":" ","HOUSE_NO":"１６９號十三樓之１２","E_COORD97":171368.17000000001,"N_COORD97":2542826.5,"ADDRESS":"中華東路二段１６９號十三樓之１２","OBJECTID":599325},"geometry":{"x":171368.16999999993,"y":2542826.5}},{"attributes":{"ID":599353,"DIS_CODE":0,"TOWNNAME":"東區","LI":"自強里","LIN":"27鄰","STREET":"中華東路","SECT":"二段","MAREA":" ","LANE":" ","ALLEY":" ","HOUSE_NO":"１６９號十三樓之１３","E_COORD97":171368.17000000001,"N_COORD97":2542826.5,"ADDRESS":"中華東路二段１６９號十三樓之１３","OBJECTID":599326},"geometry":{"x":171368.16999999993,"y":2542826.5}},{"attributes":{"ID":599354,"DIS_CODE":0,"TOWNNAME":"東區","LI":"自強里","LIN":"27鄰","STREET":"中華東路","SECT":"二段","MAREA":" ","LANE":" ","ALLEY":" ","HOUSE_NO":"１６９號十三樓之１５","E_COORD97":171368.17000000001,"N_COORD97":2542826.5,"ADDRESS":"中華東路二段１６９號十三樓之１５","OBJECTID":599327},"geometry":{"x":171368.16999999993,"y":2542826.5}},{"attributes":{"ID":599355,"DIS_CODE":0,"TOWNNAME":"東區","LI":"自強里","LIN":"27鄰","STREET":"中華東路","SECT":"二段","MAREA":" ","LANE":" ","ALLEY":" ","HOUSE_NO":"１６９號十三樓之１６","E_COORD97":171368.17000000001,"N_COORD97":2542826.5,"ADDRESS":"中華東路二段１６９號十三樓之１６","OBJECTID":599328},"geometry":{"x":171368.16999999993,"y":2542826.5}},{"attributes":{"ID":599356,"DIS_CODE":0,"TOWNNAME":"東區","LI":"自強里","LIN":"27鄰","STREET":"中華東路","SECT":"二段","MAREA":" ","LANE":" ","ALLEY":" ","HOUSE_NO":"１６９號十三樓之１７","E_COORD97":171368.17000000001,"N_COORD97":2542826.5,"ADDRESS":"中華東路二段１６９號十三樓之１７","OBJECTID":599329},"geometry":{"x":171368.16999999993,"y":2542826.5}},{"attributes":{"ID":599357,"DIS_CODE":0,"TOWNNAME":"東區","LI":"自強里","LIN":"27鄰","STREET":"中華東路","SECT":"二段","MAREA":" ","LANE":" ","ALLEY":" ","HOUSE_NO":"１６９號十三樓之１８","E_COORD97":171368.17000000001,"N_COORD97":2542826.5,"ADDRESS":"中華東路二段１６９號十三樓之１８","OBJECTID":599330},"geometry":{"x":171368.16999999993,"y":2542826.5}},{"attributes":{"ID":599358,"DIS_CODE":0,"TOWNNAME":"東區","LI":"自強里","LIN":"27鄰","STREET":"中華東路","SECT":"二段","MAREA":" ","LANE":" ","ALLEY":" ","HOUSE_NO":"１６９號十三樓之１９","E_COORD97":171368.17000000001,"N_COORD97":2542826.5,"ADDRESS":"中華東路二段１６９號十三樓之１９","OBJECTID":599331},"geometry":{"x":171368.16999999993,"y":2542826.5}},{"attributes":{"ID":599359,"DIS_CODE":0,"TOWNNAME":"東區","LI":"自強里","LIN":"27鄰","STREET":"中華東路","SECT":"二段","MAREA":" ","LANE":" ","ALLEY":" ","HOUSE_NO":"１６９號十三樓之２０","E_COORD97":171368.17000000001,"N_COORD97":2542826.5,"ADDRESS":"中華東路二段１６９號十三樓之２０","OBJECTID":599332},"geometry":{"x":171368.16999999993,"y":2542826.5}},{"attributes":{"ID":599360,"DIS_CODE":0,"TOWNNAME":"東區","LI":"自強里","LIN":"27鄰","STREET":"中華東路","SECT":"二段","MAREA":" ","LANE":" ","ALLEY":" ","HOUSE_NO":"１６９號十三樓之２１","E_COORD97":171368.17000000001,"N_COORD97":2542826.5,"ADDRESS":"中華東路二段１６９號十三樓之２１","OBJECTID":599333},"geometry":{"x":171368.16999999993,"y":2542826.5}},{"attributes":{"ID":599361,"DIS_CODE":0,"TOWNNAME":"東區","LI":"自強里","LIN":"27鄰","STREET":"中華東路","SECT":"二段","MAREA":" ","LANE":" ","ALLEY":" ","HOUSE_NO":"１６９號十四樓之１","E_COORD97":171368.17000000001,"N_COORD97":2542826.5,"ADDRESS":"中華東路二段１６９號十四樓之１","OBJECTID":599334},"geometry":{"x":171368.16999999993,"y":2542826.5}},{"attributes":{"ID":599362,"DIS_CODE":0,"TOWNNAME":"東區","LI":"自強里","LIN":"27鄰","STREET":"中華東路","SECT":"二段","MAREA":" ","LANE":" ","ALLEY":" ","HOUSE_NO":"１６９號十四樓之２","E_COORD97":171368.17000000001,"N_COORD97":2542826.5,"ADDRESS":"中華東路二段１６９號十四樓之２","OBJECTID":599335},"geometry":{"x":171368.16999999993,"y":2542826.5}},{"attributes":{"ID":599363,"DIS_CODE":0,"TOWNNAME":"東區","LI":"自強里","LIN":"27鄰","STREET":"中華東路","SECT":"二段","MAREA":" ","LANE":" ","ALLEY":" ","HOUSE_NO":"１６９號十四樓之３","E_COORD97":171368.17000000001,"N_COORD97":2542826.5,"ADDRESS":"中華東路二段１６９號十四樓之３","OBJECTID":599336},"geometry":{"x":171368.16999999993,"y":2542826.5}},{"attributes":{"ID":599364,"DIS_CODE":0,"TOWNNAME":"東區","LI":"自強里","LIN":"27鄰","STREET":"中華東路","SECT":"二段","MAREA":" ","LANE":" ","ALLEY":" ","HOUSE_NO":"１６９號十四樓之５","E_COORD97":171368.17000000001,"N_COORD97":2542826.5,"ADDRESS":"中華東路二段１６９號十四樓之５","OBJECTID":599337},"geometry":{"x":171368.16999999993,"y":2542826.5}},{"attributes":{"ID":599365,"DIS_CODE":0,"TOWNNAME":"東區","LI":"自強里","LIN":"27鄰","STREET":"中華東路","SECT":"二段","MAREA":" ","LANE":" ","ALLEY":" ","HOUSE_NO":"１６９號十四樓之６","E_COORD97":171368.17000000001,"N_COORD97":2542826.5,"ADDRESS":"中華東路二段１６９號十四樓之６","OBJECTID":599338},"geometry":{"x":171368.16999999993,"y":2542826.5}},{"attributes":{"ID":599366,"DIS_CODE":0,"TOWNNAME":"東區","LI":"自強里","LIN":"27鄰","STREET":"中華東路","SECT":"二段","MAREA":" ","LANE":" ","ALLEY":" ","HOUSE_NO":"１６９號十四樓之７","E_COORD97":171368.17000000001,"N_COORD97":2542826.5,"ADDRESS":"中華東路二段１６９號十四樓之７","OBJECTID":599339},"geometry":{"x":171368.16999999993,"y":2542826.5}},{"attributes":{"ID":599367,"DIS_CODE":0,"TOWNNAME":"東區","LI":"自強里","LIN":"27鄰","STREET":"中華東路","SECT":"二段","MAREA":" ","LANE":" ","ALLEY":" ","HOUSE_NO":"１６９號十四樓之８","E_COORD97":171368.17000000001,"N_COORD97":2542826.5,"ADDRESS":"中華東路二段１６９號十四樓之８","OBJECTID":599340},"geometry":{"x":171368.16999999993,"y":2542826.5}},{"attributes":{"ID":599368,"DIS_CODE":0,"TOWNNAME":"東區","LI":"自強里","LIN":"27鄰","STREET":"中華東路","SECT":"二段","MAREA":" ","LANE":" ","ALLEY":" ","HOUSE_NO":"１６９號十四樓之９","E_COORD97":171368.17000000001,"N_COORD97":2542826.5,"ADDRESS":"中華東路二段１６９號十四樓之９","OBJECTID":599341},"geometry":{"x":171368.16999999993,"y":2542826.5}},{"attributes":{"ID":599369,"DIS_CODE":0,"TOWNNAME":"東區","LI":"自強里","LIN":"27鄰","STREET":"中華東路","SECT":"二段","MAREA":" ","LANE":" ","ALLEY":" ","HOUSE_NO":"１６９號十四樓之１０","E_COORD97":171368.17000000001,"N_COORD97":2542826.5,"ADDRESS":"中華東路二段１６９號十四樓之１０","OBJECTID":599342},"geometry":{"x":171368.16999999993,"y":2542826.5}},{"attributes":{"ID":599370,"DIS_CODE":0,"TOWNNAME":"東區","LI":"自強里","LIN":"27鄰","STREET":"中華東路","SECT":"二段","MAREA":" ","LANE":" ","ALLEY":" ","HOUSE_NO":"１６９號十四樓之１１","E_COORD97":171368.17000000001,"N_COORD97":2542826.5,"ADDRESS":"中華東路二段１６９號十四樓之１１","OBJECTID":599343},"geometry":{"x":171368.16999999993,"y":2542826.5}},{"attributes":{"ID":599371,"DIS_CODE":0,"TOWNNAME":"永康區","LI":"二王里","LIN":"1鄰","STREET":"二王路","SECT":" ","MAREA":" ","LANE":" ","ALLEY":" ","HOUSE_NO":"２９號","E_COORD97":173025.94,"N_COORD97":2546796.1400000001,"ADDRESS":"二王路２９號","OBJECTID":599344},"geometry":{"x":173025.94000000041,"y":2546796.1400000006}},{"attributes":{"ID":599372,"DIS_CODE":0,"TOWNNAME":"東區","LI":"自強里","LIN":"27鄰","STREET":"中華東路","SECT":"二段","MAREA":" ","LANE":" ","ALLEY":" ","HOUSE_NO":"１６９號十四樓之１２","E_COORD97":171368.17000000001,"N_COORD97":2542826.5,"ADDRESS":"中華東路二段１６９號十四樓之１２","OBJECTID":599345},"geometry":{"x":171368.16999999993,"y":2542826.5}},{"attributes":{"ID":599373,"DIS_CODE":0,"TOWNNAME":"東區","LI":"自強里","LIN":"27鄰","STREET":"中華東路","SECT":"二段","MAREA":" ","LANE":" ","ALLEY":" ","HOUSE_NO":"１６９號十四樓之１３","E_COORD97":171368.17000000001,"N_COORD97":2542826.5,"ADDRESS":"中華東路二段１６９號十四樓之１３","OBJECTID":599346},"geometry":{"x":171368.16999999993,"y":2542826.5}},{"attributes":{"ID":599374,"DIS_CODE":0,"TOWNNAME":"東區","LI":"自強里","LIN":"27鄰","STREET":"中華東路","SECT":"二段","MAREA":" ","LANE":" ","ALLEY":" ","HOUSE_NO":"１６９號十四樓之１５","E_COORD97":171368.17000000001,"N_COORD97":2542826.5,"ADDRESS":"中華東路二段１６９號十四樓之１５","OBJECTID":599347},"geometry":{"x":171368.16999999993,"y":2542826.5}},{"attributes":{"ID":599375,"DIS_CODE":0,"TOWNNAME":"東區","LI":"自強里","LIN":"27鄰","STREET":"中華東路","SECT":"二段","MAREA":" ","LANE":" ","ALLEY":" ","HOUSE_NO":"１６９號十四樓之１６","E_COORD97":171368.17000000001,"N_COORD97":2542826.5,"ADDRESS":"中華東路二段１６９號十四樓之１６","OBJECTID":599348},"geometry":{"x":171368.16999999993,"y":2542826.5}},{"attributes":{"ID":599376,"DIS_CODE":0,"TOWNNAME":"東區","LI":"自強里","LIN":"27鄰","STREET":"中華東路","SECT":"二段","MAREA":" ","LANE":" ","ALLEY":" ","HOUSE_NO":"１６９號十四樓之１７","E_COORD97":171368.17000000001,"N_COORD97":2542826.5,"ADDRESS":"中華東路二段１６９號十四樓之１７","OBJECTID":599349},"geometry":{"x":171368.16999999993,"y":2542826.5}},{"attributes":{"ID":599377,"DIS_CODE":0,"TOWNNAME":"東區","LI":"自強里","LIN":"27鄰","STREET":"中華東路","SECT":"二段","MAREA":" ","LANE":" ","ALLEY":" ","HOUSE_NO":"１６９號十四樓之１８","E_COORD97":171368.17000000001,"N_COORD97":2542826.5,"ADDRESS":"中華東路二段１６９號十四樓之１８","OBJECTID":599350},"geometry":{"x":171368.16999999993,"y":2542826.5}},{"attributes":{"ID":599378,"DIS_CODE":0,"TOWNNAME":"東區","LI":"自強里","LIN":"27鄰","STREET":"中華東路","SECT":"二段","MAREA":" ","LANE":" ","ALLEY":" ","HOUSE_NO":"１６９號十四樓之１９","E_COORD97":171368.17000000001,"N_COORD97":2542826.5,"ADDRESS":"中華東路二段１６９號十四樓之１９","OBJECTID":599351},"geometry":{"x":171368.16999999993,"y":2542826.5}},{"attributes":{"ID":599379,"DIS_CODE":0,"TOWNNAME":"東區","LI":"自強里","LIN":"27鄰","STREET":"中華東路","SECT":"二段","MAREA":" ","LANE":" ","ALLEY":" ","HOUSE_NO":"１６９號十四樓之２０","E_COORD97":171368.17000000001,"N_COORD97":2542826.5,"ADDRESS":"中華東路二段１６９號十四樓之２０","OBJECTID":599352},"geometry":{"x":171368.16999999993,"y":2542826.5}},{"attributes":{"ID":599380,"DIS_CODE":0,"TOWNNAME":"東區","LI":"自強里","LIN":"27鄰","STREET":"中華東路","SECT":"二段","MAREA":" ","LANE":" ","ALLEY":" ","HOUSE_NO":"１６９號十四樓之２１","E_COORD97":171368.17000000001,"N_COORD97":2542826.5,"ADDRESS":"中華東路二段１６９號十四樓之２１","OBJECTID":599353},"geometry":{"x":171368.16999999993,"y":2542826.5}},{"attributes":{"ID":599381,"DIS_CODE":0,"TOWNNAME":"永康區","LI":"復國里","LIN":"27鄰","STREET":"復華三街","SECT":" ","MAREA":" ","LANE":" ","ALLEY":" ","HOUSE_NO":"６６號十三樓之３","E_COORD97":172711.88,"N_COORD97":2545600.7999999998,"ADDRESS":"復華三街６６號十三樓之３","OBJECTID":599354},"geometry":{"x":172711.88000000082,"y":2545600.8000000026}},{"attributes":{"ID":599382,"DIS_CODE":0,"TOWNNAME":"永康區","LI":"復國里","LIN":"27鄰","STREET":"復華三街","SECT":" ","MAREA":" ","LANE":" ","ALLEY":" ","HOUSE_NO":"６６號三樓之１","E_COORD97":172710.54000000001,"N_COORD97":2545600.7999999998,"ADDRESS":"復華三街６６號三樓之１","OBJECTID":599355},"geometry":{"x":172710.5400000019,"y":2545600.8000000026}},{"attributes":{"ID":599383,"DIS_CODE":0,"TOWNNAME":"永康區","LI":"復國里","LIN":"27鄰","STREET":"復華三街","SECT":" ","MAREA":" ","LANE":" ","ALLEY":" ","HOUSE_NO":"６６號十六樓之１","E_COORD97":172711.79000000001,"N_COORD97":2545600.7999999998,"ADDRESS":"復華三街６６號十六樓之１","OBJECTID":599356},"geometry":{"x":172711.79000000004,"y":2545600.8000000026}},{"attributes":{"ID":599384,"DIS_CODE":0,"TOWNNAME":"永康區","LI":"復國里","LIN":"27鄰","STREET":"復華三街","SECT":" ","MAREA":" ","LANE":" ","ALLEY":" ","HOUSE_NO":"６８號十樓之６","E_COORD97":172699.10999999999,"N_COORD97":2545576.0499999998,"ADDRESS":"復華三街６８號十樓之６","OBJECTID":599357},"geometry":{"x":172699.11000000127,"y":2545576.0500000007}},{"attributes":{"ID":599385,"DIS_CODE":0,"TOWNNAME":"永康區","LI":"復國里","LIN":"27鄰","STREET":"復華三街","SECT":" ","MAREA":" ","LANE":" ","ALLEY":" ","HOUSE_NO":"６８號十三樓之２","E_COORD97":172700.39000000001,"N_COORD97":2545576.0499999998,"ADDRESS":"復華三街６８號十三樓之２","OBJECTID":599358},"geometry":{"x":172700.38999999966,"y":2545576.0500000007}},{"attributes":{"ID":599386,"DIS_CODE":0,"TOWNNAME":"永康區","LI":"復國里","LIN":"27鄰","STREET":"復華三街","SECT":" ","MAREA":" ","LANE":" ","ALLEY":" ","HOUSE_NO":"６８號十樓之５","E_COORD97":172699.16,"N_COORD97":2545576.0499999998,"ADDRESS":"復華三街６８號十樓之５","OBJECTID":599359},"geometry":{"x":172699.16000000015,"y":2545576.0500000007}},{"attributes":{"ID":599387,"DIS_CODE":0,"TOWNNAME":"永康區","LI":"復國里","LIN":"27鄰","STREET":"復華三街","SECT":" ","MAREA":" ","LANE":" ","ALLEY":" ","HOUSE_NO":"６８號八樓之１","E_COORD97":172699.01000000001,"N_COORD97":2545576.0499999998,"ADDRESS":"復華三街６８號八樓之１","OBJECTID":599360},"geometry":{"x":172699.01000000071,"y":2545576.0500000007}},{"attributes":{"ID":599388,"DIS_CODE":0,"TOWNNAME":"永康區","LI":"復國里","LIN":"27鄰","STREET":"復華三街","SECT":" ","MAREA":" ","LANE":" ","ALLEY":" ","HOUSE_NO":"６８號七樓之２","E_COORD97":172699.14000000001,"N_COORD97":2545576.0499999998,"ADDRESS":"復華三街６８號七樓之２","OBJECTID":599361},"geometry":{"x":172699.14000000153,"y":2545576.0500000007}},{"attributes":{"ID":599389,"DIS_CODE":0,"TOWNNAME":"永康區","LI":"復國里","LIN":"27鄰","STREET":"復華三街","SECT":" ","MAREA":" ","LANE":" ","ALLEY":" ","HOUSE_NO":"６８號九樓之５","E_COORD97":172699.16,"N_COORD97":2545576.0499999998,"ADDRESS":"復華三街６８號九樓之５","OBJECTID":599362},"geometry":{"x":172699.16000000015,"y":2545576.0500000007}},{"attributes":{"ID":599390,"DIS_CODE":0,"TOWNNAME":"永康區","LI":"復國里","LIN":"27鄰","STREET":"復華三街","SECT":" ","MAREA":" ","LANE":" ","ALLEY":" ","HOUSE_NO":"６８號九樓之４","E_COORD97":172699.03,"N_COORD97":2545576.0499999998,"ADDRESS":"復華三街６８號九樓之４","OBJECTID":599363},"geometry":{"x":172699.03000000119,"y":2545576.0500000007}},{"attributes":{"ID":599391,"DIS_CODE":0,"TOWNNAME":"永康區","LI":"復國里","LIN":"27鄰","STREET":"復華三街","SECT":" ","MAREA":" ","LANE":" ","ALLEY":" ","HOUSE_NO":"６８號六樓之６","E_COORD97":172699.10999999999,"N_COORD97":2545576.0499999998,"ADDRESS":"復華三街６８號六樓之６","OBJECTID":599364},"geometry":{"x":172699.11000000127,"y":2545576.0500000007}},{"attributes":{"ID":599392,"DIS_CODE":0,"TOWNNAME":"永康區","LI":"復國里","LIN":"27鄰","STREET":"復華三街","SECT":" ","MAREA":" ","LANE":" ","ALLEY":" ","HOUSE_NO":"６８號十一樓之６","E_COORD97":172700.35999999999,"N_COORD97":2545576.0499999998,"ADDRESS":"復華三街６８號十一樓之６","OBJECTID":599365},"geometry":{"x":172700.36000000127,"y":2545576.0500000007}},{"attributes":{"ID":599393,"DIS_CODE":0,"TOWNNAME":"永康區","LI":"復國里","LIN":"27鄰","STREET":"復華三街","SECT":" ","MAREA":" ","LANE":" ","ALLEY":" ","HOUSE_NO":"６８號八樓之６","E_COORD97":172699.10999999999,"N_COORD97":2545576.0499999998,"ADDRESS":"復華三街６８號八樓之６","OBJECTID":599366},"geometry":{"x":172699.11000000127,"y":2545576.0500000007}},{"attributes":{"ID":599394,"DIS_CODE":0,"TOWNNAME":"永康區","LI":"復國里","LIN":"27鄰","STREET":"復華三街","SECT":" ","MAREA":" ","LANE":" ","ALLEY":" ","HOUSE_NO":"６８號十二樓之３","E_COORD97":172700.35000000001,"N_COORD97":2545576.0499999998,"ADDRESS":"復華三街６８號十二樓之３","OBJECTID":599367},"geometry":{"x":172700.34999999963,"y":2545576.0500000007}},{"attributes":{"ID":599395,"DIS_CODE":0,"TOWNNAME":"永康區","LI":"復國里","LIN":"27鄰","STREET":"復華三街","SECT":" ","MAREA":" ","LANE":" ","ALLEY":" ","HOUSE_NO":"６８號七樓之５","E_COORD97":172699.16,"N_COORD97":2545576.0499999998,"ADDRESS":"復華三街６８號七樓之５","OBJECTID":599368},"geometry":{"x":172699.16000000015,"y":2545576.0500000007}},{"attributes":{"ID":599396,"DIS_CODE":0,"TOWNNAME":"永康區","LI":"復國里","LIN":"27鄰","STREET":"復華三街","SECT":" ","MAREA":" ","LANE":" ","ALLEY":" ","HOUSE_NO":"６８號十一樓之１","E_COORD97":172700.26000000001,"N_COORD97":2545576.0499999998,"ADDRESS":"復華三街６８號十一樓之１","OBJECTID":599369},"geometry":{"x":172700.26000000164,"y":2545576.0500000007}},{"attributes":{"ID":599397,"DIS_CODE":0,"TOWNNAME":"永康區","LI":"復國里","LIN":"27鄰","STREET":"復華三街","SECT":" ","MAREA":" ","LANE":" ","ALLEY":" ","HOUSE_NO":"６８號十八樓之１","E_COORD97":172700.26000000001,"N_COORD97":2545576.0499999998,"ADDRESS":"復華三街６８號十八樓之１","OBJECTID":599370},"geometry":{"x":172700.26000000164,"y":2545576.0500000007}},{"attributes":{"ID":599398,"DIS_CODE":0,"TOWNNAME":"永康區","LI":"復國里","LIN":"27鄰","STREET":"復華三街","SECT":" ","MAREA":" ","LANE":" ","ALLEY":" ","HOUSE_NO":"６８號十九樓之１","E_COORD97":172700.26000000001,"N_COORD97":2545576.0499999998,"ADDRESS":"復華三街６８號十九樓之１","OBJECTID":599371},"geometry":{"x":172700.26000000164,"y":2545576.0500000007}},{"attributes":{"ID":599399,"DIS_CODE":0,"TOWNNAME":"永康區","LI":"復國里","LIN":"27鄰","STREET":"復華三街","SECT":" ","MAREA":" ","LANE":" ","ALLEY":" ","HOUSE_NO":"６８號八樓之４","E_COORD97":172699.03,"N_COORD97":2545576.0499999998,"ADDRESS":"復華三街６８號八樓之４","OBJECTID":599372},"geometry":{"x":172699.03000000119,"y":2545576.0500000007}},{"attributes":{"ID":599400,"DIS_CODE":0,"TOWNNAME":"永康區","LI":"復國里","LIN":"27鄰","STREET":"復華三街","SECT":" ","MAREA":" ","LANE":" ","ALLEY":" ","HOUSE_NO":"６８號十樓之４","E_COORD97":172699.03,"N_COORD97":2545576.0499999998,"ADDRESS":"復華三街６８號十樓之４","OBJECTID":599373},"geometry":{"x":172699.03000000119,"y":2545576.0500000007}},{"attributes":{"ID":599401,"DIS_CODE":0,"TOWNNAME":"永康區","LI":"復國里","LIN":"27鄰","STREET":"復華三街","SECT":" ","MAREA":" ","LANE":" ","ALLEY":" ","HOUSE_NO":"６８號八樓之５","E_COORD97":172699.16,"N_COORD97":2545576.0499999998,"ADDRESS":"復華三街６８號八樓之５","OBJECTID":599374},"geometry":{"x":172699.16000000015,"y":2545576.0500000007}},{"attributes":{"ID":599402,"DIS_CODE":0,"TOWNNAME":"永康區","LI":"復國里","LIN":"27鄰","STREET":"復華三街","SECT":" ","MAREA":" ","LANE":" ","ALLEY":" ","HOUSE_NO":"６８號十二樓之２","E_COORD97":172700.39000000001,"N_COORD97":2545576.0499999998,"ADDRESS":"復華三街６８號十二樓之２","OBJECTID":599375},"geometry":{"x":172700.38999999966,"y":2545576.0500000007}},{"attributes":{"ID":599403,"DIS_CODE":0,"TOWNNAME":"永康區","LI":"復國里","LIN":"27鄰","STREET":"復華三街","SECT":" ","MAREA":" ","LANE":" ","ALLEY":" ","HOUSE_NO":"６８號七樓之１","E_COORD97":172699.01000000001,"N_COORD97":2545576.0499999998,"ADDRESS":"復華三街６８號七樓之１","OBJECTID":599376},"geometry":{"x":172699.01000000071,"y":2545576.0500000007}},{"attributes":{"ID":599404,"DIS_CODE":0,"TOWNNAME":"永康區","LI":"復國里","LIN":"27鄰","STREET":"復華三街","SECT":" ","MAREA":" ","LANE":" ","ALLEY":" ","HOUSE_NO":"６８號五樓之２","E_COORD97":172699.14000000001,"N_COORD97":2545576.0499999998,"ADDRESS":"復華三街６８號五樓之２","OBJECTID":599377},"geometry":{"x":172699.14000000153,"y":2545576.0500000007}},{"attributes":{"ID":599405,"DIS_CODE":0,"TOWNNAME":"永康區","LI":"復國里","LIN":"27鄰","STREET":"復華三街","SECT":" ","MAREA":" ","LANE":" ","ALLEY":" ","HOUSE_NO":"６８號十九樓之５","E_COORD97":172700.41,"N_COORD97":2545576.0499999998,"ADDRESS":"復華三街６８號十九樓之５","OBJECTID":599378},"geometry":{"x":172700.41000000015,"y":2545576.0500000007}},{"attributes":{"ID":599406,"DIS_CODE":0,"TOWNNAME":"永康區","LI":"復國里","LIN":"27鄰","STREET":"復華三街","SECT":" ","MAREA":" ","LANE":" ","ALLEY":" ","HOUSE_NO":"６８號九樓之２","E_COORD97":172699.14000000001,"N_COORD97":2545576.0499999998,"ADDRESS":"復華三街６８號九樓之２","OBJECTID":599379},"geometry":{"x":172699.14000000153,"y":2545576.0500000007}},{"attributes":{"ID":599407,"DIS_CODE":0,"TOWNNAME":"永康區","LI":"復國里","LIN":"27鄰","STREET":"復華三街","SECT":" ","MAREA":" ","LANE":" ","ALLEY":" ","HOUSE_NO":"６８號八樓之３","E_COORD97":172699.10000000001,"N_COORD97":2545576.0499999998,"ADDRESS":"復華三街６８號八樓之３","OBJECTID":599380},"geometry":{"x":172699.09999999963,"y":2545576.0500000007}},{"attributes":{"ID":599408,"DIS_CODE":0,"TOWNNAME":"永康區","LI":"復國里","LIN":"27鄰","STREET":"復華三街","SECT":" ","MAREA":" ","LANE":" ","ALLEY":" ","HOUSE_NO":"６８號十九樓之４","E_COORD97":172700.28,"N_COORD97":2545576.0499999998,"ADDRESS":"復華三街６８號十九樓之４","OBJECTID":599381},"geometry":{"x":172700.28000000026,"y":2545576.0500000007}},{"attributes":{"ID":599409,"DIS_CODE":0,"TOWNNAME":"永康區","LI":"復國里","LIN":"27鄰","STREET":"復華三街","SECT":" ","MAREA":" ","LANE":" ","ALLEY":" ","HOUSE_NO":"６６號八樓之６","E_COORD97":172710.64000000001,"N_COORD97":2545600.7999999998,"ADDRESS":"復華三街６６號八樓之６","OBJECTID":599382},"geometry":{"x":172710.63999999966,"y":2545600.8000000026}},{"attributes":{"ID":599410,"DIS_CODE":0,"TOWNNAME":"永康區","LI":"復國里","LIN":"27鄰","STREET":"復華三街","SECT":" ","MAREA":" ","LANE":" ","ALLEY":" ","HOUSE_NO":"６８號十三樓之５","E_COORD97":172700.41,"N_COORD97":2545576.0499999998,"ADDRESS":"復華三街６８號十三樓之５","OBJECTID":599383},"geometry":{"x":172700.41000000015,"y":2545576.0500000007}},{"attributes":{"ID":599411,"DIS_CODE":0,"TOWNNAME":"永康區","LI":"復國里","LIN":"27鄰","STREET":"復華三街","SECT":" ","MAREA":" ","LANE":" ","ALLEY":" ","HOUSE_NO":"６８號六樓之５","E_COORD97":172699.16,"N_COORD97":2545576.0499999998,"ADDRESS":"復華三街６８號六樓之５","OBJECTID":599384},"geometry":{"x":172699.16000000015,"y":2545576.0500000007}},{"attributes":{"ID":599412,"DIS_CODE":0,"TOWNNAME":"永康區","LI":"復國里","LIN":"27鄰","STREET":"復華三街","SECT":" ","MAREA":" ","LANE":" ","ALLEY":" ","HOUSE_NO":"６６號九樓之７","E_COORD97":172710.60999999999,"N_COORD97":2545600.7999999998,"ADDRESS":"復華三街６６號九樓之７","OBJECTID":599385},"geometry":{"x":172710.61000000127,"y":2545600.8000000026}},{"attributes":{"ID":599413,"DIS_CODE":0,"TOWNNAME":"永康區","LI":"復國里","LIN":"27鄰","STREET":"復華三街","SECT":" ","MAREA":" ","LANE":" ","ALLEY":" ","HOUSE_NO":"６６號八樓之４","E_COORD97":172710.56,"N_COORD97":2545600.7999999998,"ADDRESS":"復華三街６６號八樓之４","OBJECTID":599386},"geometry":{"x":172710.56000000052,"y":2545600.8000000026}},{"attributes":{"ID":599414,"DIS_CODE":0,"TOWNNAME":"永康區","LI":"復國里","LIN":"27鄰","STREET":"復華三街","SECT":" ","MAREA":" ","LANE":" ","ALLEY":" ","HOUSE_NO":"６６號十一樓之４","E_COORD97":172711.81,"N_COORD97":2545600.7999999998,"ADDRESS":"復華三街６６號十一樓之４","OBJECTID":599387},"geometry":{"x":172711.81000000052,"y":2545600.8000000026}},{"attributes":{"ID":599415,"DIS_CODE":0,"TOWNNAME":"永康區","LI":"復國里","LIN":"27鄰","STREET":"復華三街","SECT":" ","MAREA":" ","LANE":" ","ALLEY":" ","HOUSE_NO":"６６號十樓之３","E_COORD97":172710.63,"N_COORD97":2545600.7999999998,"ADDRESS":"復華三街６６號十樓之３","OBJECTID":599388},"geometry":{"x":172710.62999999989,"y":2545600.8000000026}},{"attributes":{"ID":599416,"DIS_CODE":0,"TOWNNAME":"永康區","LI":"復國里","LIN":"27鄰","STREET":"復華三街","SECT":" ","MAREA":" ","LANE":" ","ALLEY":" ","HOUSE_NO":"６６號十六樓之４","E_COORD97":172711.81,"N_COORD97":2545600.7999999998,"ADDRESS":"復華三街６６號十六樓之４","OBJECTID":599389},"geometry":{"x":172711.81000000052,"y":2545600.8000000026}},{"attributes":{"ID":599417,"DIS_CODE":0,"TOWNNAME":"永康區","LI":"復國里","LIN":"27鄰","STREET":"復華三街","SECT":" ","MAREA":" ","LANE":" ","ALLEY":" ","HOUSE_NO":"６６號十六樓之７","E_COORD97":172711.85999999999,"N_COORD97":2545600.7999999998,"ADDRESS":"復華三街６６號十六樓之７","OBJECTID":599390},"geometry":{"x":172711.8599999994,"y":2545600.8000000026}},{"attributes":{"ID":599418,"DIS_CODE":0,"TOWNNAME":"永康區","LI":"復國里","LIN":"27鄰","STREET":"復華三街","SECT":" ","MAREA":" ","LANE":" ","ALLEY":" ","HOUSE_NO":"６６號十三樓之６","E_COORD97":172711.89000000001,"N_COORD97":2545600.7999999998,"ADDRESS":"復華三街６６號十三樓之６","OBJECTID":599391},"geometry":{"x":172711.88999999966,"y":2545600.8000000026}},{"attributes":{"ID":599419,"DIS_CODE":0,"TOWNNAME":"永康區","LI":"復國里","LIN":"27鄰","STREET":"復華三街","SECT":" ","MAREA":" ","LANE":" ","ALLEY":" ","HOUSE_NO":"６６號十一樓之５","E_COORD97":172711.94,"N_COORD97":2545600.7999999998,"ADDRESS":"復華三街６６號十一樓之５","OBJECTID":599392},"geometry":{"x":172711.94000000134,"y":2545600.8000000026}},{"attributes":{"ID":599420,"DIS_CODE":0,"TOWNNAME":"永康區","LI":"復國里","LIN":"27鄰","STREET":"復華三街","SECT":" ","MAREA":" ","LANE":" ","ALLEY":" ","HOUSE_NO":"６６號四樓之２","E_COORD97":172710.67000000001,"N_COORD97":2545600.7999999998,"ADDRESS":"復華三街６６號四樓之２","OBJECTID":599393},"geometry":{"x":172710.66999999993,"y":2545600.8000000026}},{"attributes":{"ID":599421,"DIS_CODE":0,"TOWNNAME":"永康區","LI":"復國里","LIN":"27鄰","STREET":"復華三街","SECT":" ","MAREA":" ","LANE":" ","ALLEY":" ","HOUSE_NO":"６６號三樓之４","E_COORD97":172710.56,"N_COORD97":2545600.7999999998,"ADDRESS":"復華三街６６號三樓之４","OBJECTID":599394},"geometry":{"x":172710.56000000052,"y":2545600.8000000026}},{"attributes":{"ID":599422,"DIS_CODE":0,"TOWNNAME":"永康區","LI":"復國里","LIN":"27鄰","STREET":"復華三街","SECT":" ","MAREA":" ","LANE":" ","ALLEY":" ","HOUSE_NO":"６６號六樓之５","E_COORD97":172710.69,"N_COORD97":2545600.7999999998,"ADDRESS":"復華三街６６號六樓之５","OBJECTID":599395},"geometry":{"x":172710.69000000041,"y":2545600.8000000026}},{"attributes":{"ID":599423,"DIS_CODE":0,"TOWNNAME":"永康區","LI":"復國里","LIN":"27鄰","STREET":"復華三街","SECT":" ","MAREA":" ","LANE":" ","ALLEY":" ","HOUSE_NO":"６６號十六樓之５","E_COORD97":172711.94,"N_COORD97":2545600.7999999998,"ADDRESS":"復華三街６６號十六樓之５","OBJECTID":599396},"geometry":{"x":172711.94000000134,"y":2545600.8000000026}},{"attributes":{"ID":599424,"DIS_CODE":0,"TOWNNAME":"永康區","LI":"復國里","LIN":"27鄰","STREET":"復華三街","SECT":" ","MAREA":" ","LANE":" ","ALLEY":" ","HOUSE_NO":"６６號十五樓之５","E_COORD97":172711.94,"N_COORD97":2545600.7999999998,"ADDRESS":"復華三街６６號十五樓之５","OBJECTID":599397},"geometry":{"x":172711.94000000134,"y":2545600.8000000026}},{"attributes":{"ID":599425,"DIS_CODE":0,"TOWNNAME":"永康區","LI":"復國里","LIN":"27鄰","STREET":"復華三街","SECT":" ","MAREA":" ","LANE":" ","ALLEY":" ","HOUSE_NO":"６６號十三樓之２","E_COORD97":172711.92000000001,"N_COORD97":2545600.7999999998,"ADDRESS":"復華三街６６號十三樓之２","OBJECTID":599398},"geometry":{"x":172711.92000000086,"y":2545600.8000000026}},{"attributes":{"ID":599426,"DIS_CODE":0,"TOWNNAME":"永康區","LI":"復國里","LIN":"27鄰","STREET":"復華三街","SECT":" ","MAREA":" ","LANE":" ","ALLEY":" ","HOUSE_NO":"６６號十四樓之３","E_COORD97":172711.88,"N_COORD97":2545600.7999999998,"ADDRESS":"復華三街６６號十四樓之３","OBJECTID":599399},"geometry":{"x":172711.88000000082,"y":2545600.8000000026}},{"attributes":{"ID":599427,"DIS_CODE":0,"TOWNNAME":"永康區","LI":"復國里","LIN":"27鄰","STREET":"復華三街","SECT":" ","MAREA":" ","LANE":" ","ALLEY":" ","HOUSE_NO":"６６號六樓之３","E_COORD97":172710.63,"N_COORD97":2545600.7999999998,"ADDRESS":"復華三街６６號六樓之３","OBJECTID":599400},"geometry":{"x":172710.62999999989,"y":2545600.8000000026}}]}