{"displayFieldName":"TOWNNAME","fieldAliases":{"ID":"ID","DIS_CODE":"DIS_CODE","TOWNNAME":"TOWNNAME","LI":"LI","LIN":"LIN","STREET":"STREET","SECT":"SECT","MAREA":"MAREA","LANE":"LANE","ALLEY":"ALLEY","HOUSE_NO":"HOUSE_NO","E_COORD97":"E_COORD97","N_COORD97":"N_COORD97","ADDRESS":"ADDRESS","OBJECTID":"OBJECTID"},"geometryType":"esriGeometryPoint","spatialReference":{"wkid":102443,"latestWkid":3826},"fields":[{"name":"ID","type":"esriFieldTypeDouble","alias":"ID"},{"name":"DIS_CODE","type":"esriFieldTypeInteger","alias":"DIS_CODE"},{"name":"TOWNNAME","type":"esriFieldTypeString","alias":"TOWNNAME","length":8},{"name":"LI","type":"esriFieldTypeString","alias":"LI","length":8},{"name":"LIN","type":"esriFieldTypeString","alias":"LIN","length":12},{"name":"STREET","type":"esriFieldTypeString","alias":"STREET","length":20},{"name":"SECT","type":"esriFieldTypeString","alias":"SECT","length":8},{"name":"MAREA","type":"esriFieldTypeString","alias":"MAREA","length":12},{"name":"LANE","type":"esriFieldTypeString","alias":"LANE","length":10},{"name":"ALLEY","type":"esriFieldTypeString","alias":"ALLEY","length":10},{"name":"HOUSE_NO","type":"esriFieldTypeString","alias":"HOUSE_NO","length":20},{"name":"E_COORD97","type":"esriFieldTypeDouble","alias":"E_COORD97"},{"name":"N_COORD97","type":"esriFieldTypeDouble","alias":"N_COORD97"},{"name":"ADDRESS","type":"esriFieldTypeString","alias":"ADDRESS","length":50},{"name":"OBJECTID","type":"esriFieldTypeOID","alias":"OBJECTID"}],"features":[{"attributes":{"ID":293609,"DIS_CODE":0,"TOWNNAME":"新化區","LI":"\u25A0拔里","LIN":"4鄰","STREET":" ","SECT":" ","MAREA":"\u25A0拔林","LANE":" ","ALLEY":" ","HOUSE_NO":"２２３號之６","E_COORD97":183666.37,"N_COORD97":2551928.2599999998,"ADDRESS":"\u25A0拔林２２３號之６","OBJECTID":293601},"geometry":{"x":183666.37000000104,"y":2551928.2599999998}},{"attributes":{"ID":293610,"DIS_CODE":0,"TOWNNAME":"新化區","LI":"\u25A0拔里","LIN":"4鄰","STREET":" ","SECT":" ","MAREA":"\u25A0拔林","LANE":" ","ALLEY":" ","HOUSE_NO":"２２３號之５","E_COORD97":183662.38,"N_COORD97":2551930.2599999998,"ADDRESS":"\u25A0拔林２２３號之５","OBJECTID":293602},"geometry":{"x":183662.38000000175,"y":2551930.2600000016}},{"attributes":{"ID":293611,"DIS_CODE":0,"TOWNNAME":"歸仁區","LI":"媽廟里","LIN":"9鄰","STREET":"和順路","SECT":"一段","MAREA":" ","LANE":" ","ALLEY":" ","HOUSE_NO":"３１２號","E_COORD97":176704.300773,"N_COORD97":2543683.7101099999,"ADDRESS":"和順路一段３１２號","OBJECTID":293603},"geometry":{"x":176704.30077300128,"y":2543683.7101080026}},{"attributes":{"ID":293612,"DIS_CODE":0,"TOWNNAME":"新化區","LI":"山\u25A0里","LIN":"4鄰","STREET":" ","SECT":" ","MAREA":"頂山\u25A0","LANE":" ","ALLEY":" ","HOUSE_NO":"１１８號之２","E_COORD97":179698.78,"N_COORD97":2546733.2599999998,"ADDRESS":"頂山\u25A0１１８號之２","OBJECTID":293604},"geometry":{"x":179698.78000000119,"y":2546733.2599999998}},{"attributes":{"ID":293613,"DIS_CODE":0,"TOWNNAME":"新化區","LI":"\u25A0拔里","LIN":"4鄰","STREET":" ","SECT":" ","MAREA":"\u25A0拔林","LANE":" ","ALLEY":" ","HOUSE_NO":"２０４號","E_COORD97":183780.32000000001,"N_COORD97":2551914.25,"ADDRESS":"\u25A0拔林２０４號","OBJECTID":293605},"geometry":{"x":183780.32000000123,"y":2551914.25}},{"attributes":{"ID":293614,"DIS_CODE":0,"TOWNNAME":"中西區","LI":"藥王里","LIN":"17鄰","STREET":"民權路","SECT":"三段","MAREA":" ","LANE":"４００巷","ALLEY":" ","HOUSE_NO":"２７號四樓","E_COORD97":166918.17999999999,"N_COORD97":2544452.0899999999,"ADDRESS":"民權路三段４００巷２７號四樓","OBJECTID":293606},"geometry":{"x":166918.1799999997,"y":2544452.0900000017}},{"attributes":{"ID":293615,"DIS_CODE":0,"TOWNNAME":"中西區","LI":"藥王里","LIN":"17鄰","STREET":"民權路","SECT":"三段","MAREA":" ","LANE":"４００巷","ALLEY":" ","HOUSE_NO":"２號六樓","E_COORD97":166840.29999999999,"N_COORD97":2544432.4199999999,"ADDRESS":"民權路三段４００巷２號六樓","OBJECTID":293607},"geometry":{"x":166840.30000000075,"y":2544432.4200000018}},{"attributes":{"ID":293616,"DIS_CODE":0,"TOWNNAME":"中西區","LI":"藥王里","LIN":"17鄰","STREET":"民權路","SECT":"三段","MAREA":" ","LANE":"４００巷","ALLEY":" ","HOUSE_NO":"２號四樓","E_COORD97":166840.29999999999,"N_COORD97":2544432.4199999999,"ADDRESS":"民權路三段４００巷２號四樓","OBJECTID":293608},"geometry":{"x":166840.30000000075,"y":2544432.4200000018}},{"attributes":{"ID":293617,"DIS_CODE":0,"TOWNNAME":"中西區","LI":"藥王里","LIN":"17鄰","STREET":"民權路","SECT":"三段","MAREA":" ","LANE":"４００巷","ALLEY":" ","HOUSE_NO":"３號八樓","E_COORD97":166859.47,"N_COORD97":2544422.1000000001,"ADDRESS":"民權路三段４００巷３號八樓","OBJECTID":293609},"geometry":{"x":166859.47000000067,"y":2544422.0999999996}},{"attributes":{"ID":293618,"DIS_CODE":0,"TOWNNAME":"新化區","LI":"北勢里","LIN":"4鄰","STREET":" ","SECT":" ","MAREA":"北勢","LANE":" ","ALLEY":" ","HOUSE_NO":"４９號之１","E_COORD97":177313.06,"N_COORD97":2549606.2599999998,"ADDRESS":"北勢４９號之１","OBJECTID":293610},"geometry":{"x":177313.06000000052,"y":2549606.2600000035}},{"attributes":{"ID":293619,"DIS_CODE":0,"TOWNNAME":"中西區","LI":"藥王里","LIN":"17鄰","STREET":"民權路","SECT":"三段","MAREA":" ","LANE":"４００巷","ALLEY":" ","HOUSE_NO":"３號十樓","E_COORD97":166859.47,"N_COORD97":2544422.1000000001,"ADDRESS":"民權路三段４００巷３號十樓","OBJECTID":293611},"geometry":{"x":166859.47000000067,"y":2544422.0999999996}},{"attributes":{"ID":293620,"DIS_CODE":0,"TOWNNAME":"新化區","LI":"\u25A0拔里","LIN":"4鄰","STREET":" ","SECT":" ","MAREA":"\u25A0拔林","LANE":" ","ALLEY":" ","HOUSE_NO":"２０８號","E_COORD97":183796.92000000001,"N_COORD97":2551975.25,"ADDRESS":"\u25A0拔林２０８號","OBJECTID":293612},"geometry":{"x":183796.91999999993,"y":2551975.25}},{"attributes":{"ID":293621,"DIS_CODE":0,"TOWNNAME":"中西區","LI":"藥王里","LIN":"17鄰","STREET":"民權路","SECT":"三段","MAREA":" ","LANE":"４００巷","ALLEY":" ","HOUSE_NO":"５號二樓","E_COORD97":166867.37,"N_COORD97":2544418.1499999999,"ADDRESS":"民權路三段４００巷５號二樓","OBJECTID":293613},"geometry":{"x":166867.37000000104,"y":2544418.1500000022}},{"attributes":{"ID":293622,"DIS_CODE":0,"TOWNNAME":"中西區","LI":"藥王里","LIN":"17鄰","STREET":"民權路","SECT":"三段","MAREA":" ","LANE":"４００巷","ALLEY":" ","HOUSE_NO":"５號八樓","E_COORD97":166867.37,"N_COORD97":2544418.1499999999,"ADDRESS":"民權路三段４００巷５號八樓","OBJECTID":293614},"geometry":{"x":166867.37000000104,"y":2544418.1500000022}},{"attributes":{"ID":293623,"DIS_CODE":0,"TOWNNAME":"中西區","LI":"藥王里","LIN":"17鄰","STREET":"民權路","SECT":"三段","MAREA":" ","LANE":"４００巷","ALLEY":" ","HOUSE_NO":"５號六樓","E_COORD97":166867.37,"N_COORD97":2544418.1499999999,"ADDRESS":"民權路三段４００巷５號六樓","OBJECTID":293615},"geometry":{"x":166867.37000000104,"y":2544418.1500000022}},{"attributes":{"ID":293624,"DIS_CODE":0,"TOWNNAME":"新化區","LI":"北勢里","LIN":"4鄰","STREET":" ","SECT":" ","MAREA":"北勢","LANE":" ","ALLEY":" ","HOUSE_NO":"４８號之１","E_COORD97":177297.26000000001,"N_COORD97":2549582.2599999998,"ADDRESS":"北勢４８號之１","OBJECTID":293616},"geometry":{"x":177297.25999999978,"y":2549582.2599999979}},{"attributes":{"ID":293625,"DIS_CODE":0,"TOWNNAME":"中西區","LI":"藥王里","LIN":"17鄰","STREET":"民權路","SECT":"三段","MAREA":" ","LANE":"４００巷","ALLEY":" ","HOUSE_NO":"５號四樓","E_COORD97":166867.37,"N_COORD97":2544418.1499999999,"ADDRESS":"民權路三段４００巷５號四樓","OBJECTID":293617},"geometry":{"x":166867.37000000104,"y":2544418.1500000022}},{"attributes":{"ID":293626,"DIS_CODE":0,"TOWNNAME":"中西區","LI":"藥王里","LIN":"17鄰","STREET":"民權路","SECT":"三段","MAREA":" ","LANE":"４００巷","ALLEY":" ","HOUSE_NO":"７號七樓","E_COORD97":166875.79999999999,"N_COORD97":2544413.4199999999,"ADDRESS":"民權路三段４００巷７號七樓","OBJECTID":293618},"geometry":{"x":166875.80000000075,"y":2544413.4199999999}},{"attributes":{"ID":293627,"DIS_CODE":0,"TOWNNAME":"中西區","LI":"藥王里","LIN":"17鄰","STREET":"民權路","SECT":"三段","MAREA":" ","LANE":"４００巷","ALLEY":" ","HOUSE_NO":"７號九樓","E_COORD97":166875.79999999999,"N_COORD97":2544413.4199999999,"ADDRESS":"民權路三段４００巷７號九樓","OBJECTID":293619},"geometry":{"x":166875.80000000075,"y":2544413.4199999999}},{"attributes":{"ID":293628,"DIS_CODE":0,"TOWNNAME":"歸仁區","LI":"崙頂里","LIN":"14鄰","STREET":"崙頂五街","SECT":" ","MAREA":" ","LANE":" ","ALLEY":" ","HOUSE_NO":"４７號","E_COORD97":177962.73000000001,"N_COORD97":2539852.25,"ADDRESS":"崙頂五街４７號","OBJECTID":293620},"geometry":{"x":177962.73000000045,"y":2539852.2500000037}},{"attributes":{"ID":293629,"DIS_CODE":0,"TOWNNAME":"中西區","LI":"藥王里","LIN":"17鄰","STREET":"民權路","SECT":"三段","MAREA":" ","LANE":"４００巷","ALLEY":" ","HOUSE_NO":"７號二樓","E_COORD97":166875.79999999999,"N_COORD97":2544413.4199999999,"ADDRESS":"民權路三段４００巷７號二樓","OBJECTID":293621},"geometry":{"x":166875.80000000075,"y":2544413.4199999999}},{"attributes":{"ID":293630,"DIS_CODE":0,"TOWNNAME":"中西區","LI":"藥王里","LIN":"17鄰","STREET":"民權路","SECT":"三段","MAREA":" ","LANE":"４００巷","ALLEY":" ","HOUSE_NO":"７號八樓","E_COORD97":166875.79999999999,"N_COORD97":2544413.4199999999,"ADDRESS":"民權路三段４００巷７號八樓","OBJECTID":293622},"geometry":{"x":166875.80000000075,"y":2544413.4199999999}},{"attributes":{"ID":293631,"DIS_CODE":0,"TOWNNAME":"麻豆區","LI":"大埕里","LIN":"14鄰","STREET":"新興街","SECT":" ","MAREA":" ","LANE":" ","ALLEY":" ","HOUSE_NO":"５號之１","E_COORD97":172856.91,"N_COORD97":2565240.2599999998,"ADDRESS":"新興街５號之１","OBJECTID":293623},"geometry":{"x":172856.91000000015,"y":2565240.2600000016}},{"attributes":{"ID":293632,"DIS_CODE":0,"TOWNNAME":"玉井區","LI":"望明里","LIN":"6鄰","STREET":" ","SECT":" ","MAREA":"望明","LANE":" ","ALLEY":" ","HOUSE_NO":"６６之１號","E_COORD97":194283.15875599999,"N_COORD97":2556112.3544299998,"ADDRESS":"望明６６之１號","OBJECTID":293624},"geometry":{"x":194283.15875600185,"y":2556112.3544289991}},{"attributes":{"ID":293633,"DIS_CODE":0,"TOWNNAME":"新化區","LI":"\u25A0拔里","LIN":" ","STREET":" ","SECT":" ","MAREA":"牧場","LANE":" ","ALLEY":" ","HOUSE_NO":"１０５號","E_COORD97":181859.48000000001,"N_COORD97":2551102.25,"ADDRESS":"牧場１０５號","OBJECTID":293625},"geometry":{"x":181859.48000000045,"y":2551102.2500000019}},{"attributes":{"ID":293634,"DIS_CODE":0,"TOWNNAME":"歸仁區","LI":"大廟里","LIN":"21鄰","STREET":"保大路","SECT":"三段","MAREA":" ","LANE":"４０１巷","ALLEY":" ","HOUSE_NO":"８３號","E_COORD97":175559.34670600001,"N_COORD97":2544227.7207499999,"ADDRESS":"保大路三段４０１巷８３號","OBJECTID":293626},"geometry":{"x":175559.34670600016,"y":2544227.7207520045}},{"attributes":{"ID":293635,"DIS_CODE":0,"TOWNNAME":"仁德區","LI":"太子里","LIN":"15鄰","STREET":"長興路","SECT":" ","MAREA":" ","LANE":" ","ALLEY":" ","HOUSE_NO":"７７之１號","E_COORD97":174141.695703,"N_COORD97":2543793.6949800001,"ADDRESS":"長興路７７之１號","OBJECTID":293627},"geometry":{"x":174141.69570299983,"y":2543793.6949809995}},{"attributes":{"ID":293636,"DIS_CODE":0,"TOWNNAME":"新營區","LI":"大宏里","LIN":"19鄰","STREET":"三民路","SECT":" ","MAREA":" ","LANE":" ","ALLEY":" ","HOUSE_NO":"３６之３３號","E_COORD97":180386.20668999999,"N_COORD97":2578520.9404699998,"ADDRESS":"三民路３６之３３號","OBJECTID":293628},"geometry":{"x":180386.2066900013,"y":2578520.9404699989}},{"attributes":{"ID":293637,"DIS_CODE":0,"TOWNNAME":"中西區","LI":"藥王里","LIN":"17鄰","STREET":"民權路","SECT":"三段","MAREA":" ","LANE":"４００巷","ALLEY":" ","HOUSE_NO":"７號十樓","E_COORD97":166875.79999999999,"N_COORD97":2544413.4199999999,"ADDRESS":"民權路三段４００巷７號十樓","OBJECTID":293629},"geometry":{"x":166875.80000000075,"y":2544413.4199999999}},{"attributes":{"ID":293638,"DIS_CODE":0,"TOWNNAME":"中西區","LI":"藥王里","LIN":"17鄰","STREET":"民權路","SECT":"三段","MAREA":" ","LANE":"４００巷","ALLEY":" ","HOUSE_NO":"７號三樓","E_COORD97":166875.79999999999,"N_COORD97":2544413.4199999999,"ADDRESS":"民權路三段４００巷７號三樓","OBJECTID":293630},"geometry":{"x":166875.80000000075,"y":2544413.4199999999}},{"attributes":{"ID":293639,"DIS_CODE":0,"TOWNNAME":"中西區","LI":"藥王里","LIN":"17鄰","STREET":"民權路","SECT":"三段","MAREA":" ","LANE":"４００巷","ALLEY":" ","HOUSE_NO":"７號五樓","E_COORD97":166875.79999999999,"N_COORD97":2544413.4199999999,"ADDRESS":"民權路三段４００巷７號五樓","OBJECTID":293631},"geometry":{"x":166875.80000000075,"y":2544413.4199999999}},{"attributes":{"ID":293640,"DIS_CODE":0,"TOWNNAME":"中西區","LI":"藥王里","LIN":"17鄰","STREET":"民權路","SECT":"三段","MAREA":" ","LANE":"４００巷","ALLEY":" ","HOUSE_NO":"７號六樓","E_COORD97":166875.79999999999,"N_COORD97":2544413.4199999999,"ADDRESS":"民權路三段４００巷７號六樓","OBJECTID":293632},"geometry":{"x":166875.80000000075,"y":2544413.4199999999}},{"attributes":{"ID":293641,"DIS_CODE":0,"TOWNNAME":"中西區","LI":"藥王里","LIN":"17鄰","STREET":"民權路","SECT":"三段","MAREA":" ","LANE":"４００巷","ALLEY":" ","HOUSE_NO":"７號四樓","E_COORD97":166875.79999999999,"N_COORD97":2544413.4199999999,"ADDRESS":"民權路三段４００巷７號四樓","OBJECTID":293633},"geometry":{"x":166875.80000000075,"y":2544413.4199999999}},{"attributes":{"ID":293642,"DIS_CODE":0,"TOWNNAME":"中西區","LI":"開山里","LIN":"17鄰","STREET":"大同路","SECT":"一段","MAREA":" ","LANE":"７０巷","ALLEY":" ","HOUSE_NO":"９號四樓","E_COORD97":169096.51000000001,"N_COORD97":2543028.4900000002,"ADDRESS":"大同路一段７０巷９號四樓","OBJECTID":293634},"geometry":{"x":169096.51000000071,"y":2543028.4900000021}},{"attributes":{"ID":293643,"DIS_CODE":0,"TOWNNAME":"東區","LI":"小東里","LIN":"17鄰","STREET":"光明街","SECT":" ","MAREA":" ","LANE":"１０２巷","ALLEY":" ","HOUSE_NO":"２號二樓","E_COORD97":170898.51999999999,"N_COORD97":2544075.3700000001,"ADDRESS":"光明街１０２巷２號二樓","OBJECTID":293635},"geometry":{"x":170898.52000000048,"y":2544075.3700000029}},{"attributes":{"ID":293644,"DIS_CODE":0,"TOWNNAME":"東區","LI":"小東里","LIN":"17鄰","STREET":"光明街","SECT":" ","MAREA":" ","LANE":"１０２巷","ALLEY":" ","HOUSE_NO":"２號三樓","E_COORD97":170898.51999999999,"N_COORD97":2544075.3700000001,"ADDRESS":"光明街１０２巷２號三樓","OBJECTID":293636},"geometry":{"x":170898.52000000048,"y":2544075.3700000029}},{"attributes":{"ID":293645,"DIS_CODE":0,"TOWNNAME":"東區","LI":"小東里","LIN":"17鄰","STREET":"光明街","SECT":" ","MAREA":" ","LANE":"１０２巷","ALLEY":" ","HOUSE_NO":"２號四樓","E_COORD97":170898.51999999999,"N_COORD97":2544075.3700000001,"ADDRESS":"光明街１０２巷２號四樓","OBJECTID":293637},"geometry":{"x":170898.52000000048,"y":2544075.3700000029}},{"attributes":{"ID":293646,"DIS_CODE":0,"TOWNNAME":"東區","LI":"小東里","LIN":"17鄰","STREET":"光明街","SECT":" ","MAREA":" ","LANE":"１０２巷","ALLEY":" ","HOUSE_NO":"２號五樓","E_COORD97":170898.51999999999,"N_COORD97":2544075.3700000001,"ADDRESS":"光明街１０２巷２號五樓","OBJECTID":293638},"geometry":{"x":170898.52000000048,"y":2544075.3700000029}},{"attributes":{"ID":293647,"DIS_CODE":0,"TOWNNAME":"東區","LI":"小東里","LIN":"17鄰","STREET":"光明街","SECT":" ","MAREA":" ","LANE":"１０２巷","ALLEY":" ","HOUSE_NO":"２號六樓","E_COORD97":170898.51999999999,"N_COORD97":2544075.3700000001,"ADDRESS":"光明街１０２巷２號六樓","OBJECTID":293639},"geometry":{"x":170898.52000000048,"y":2544075.3700000029}},{"attributes":{"ID":293648,"DIS_CODE":0,"TOWNNAME":"東區","LI":"小東里","LIN":"17鄰","STREET":"光明街","SECT":" ","MAREA":" ","LANE":"１０２巷","ALLEY":" ","HOUSE_NO":"２號七樓","E_COORD97":170898.51999999999,"N_COORD97":2544075.3700000001,"ADDRESS":"光明街１０２巷２號七樓","OBJECTID":293640},"geometry":{"x":170898.52000000048,"y":2544075.3700000029}},{"attributes":{"ID":293649,"DIS_CODE":0,"TOWNNAME":"東區","LI":"小東里","LIN":"17鄰","STREET":"光明街","SECT":" ","MAREA":" ","LANE":"１０２巷","ALLEY":" ","HOUSE_NO":"２號八樓","E_COORD97":170898.51999999999,"N_COORD97":2544075.3700000001,"ADDRESS":"光明街１０２巷２號八樓","OBJECTID":293641},"geometry":{"x":170898.52000000048,"y":2544075.3700000029}},{"attributes":{"ID":293650,"DIS_CODE":0,"TOWNNAME":"麻豆區","LI":"大埕里","LIN":"14鄰","STREET":"新興街","SECT":" ","MAREA":" ","LANE":" ","ALLEY":" ","HOUSE_NO":"５號之２","E_COORD97":172861.62,"N_COORD97":2565238.5600000001,"ADDRESS":"新興街５號之２","OBJECTID":293642},"geometry":{"x":172861.62000000104,"y":2565238.5600000024}},{"attributes":{"ID":293651,"DIS_CODE":0,"TOWNNAME":"麻豆區","LI":"大埕里","LIN":"14鄰","STREET":"新興街","SECT":" ","MAREA":" ","LANE":" ","ALLEY":" ","HOUSE_NO":"５號之３","E_COORD97":172866.35000000001,"N_COORD97":2565237,"ADDRESS":"新興街５號之３","OBJECTID":293643},"geometry":{"x":172866.35000000056,"y":2565237}},{"attributes":{"ID":293652,"DIS_CODE":0,"TOWNNAME":"歸仁區","LI":"看東里","LIN":"14鄰","STREET":"中山路","SECT":"一段","MAREA":" ","LANE":" ","ALLEY":" ","HOUSE_NO":"２８３號","E_COORD97":178568.64000000001,"N_COORD97":2540624.6499999999,"ADDRESS":"中山路一段２８３號","OBJECTID":293644},"geometry":{"x":178568.6400000006,"y":2540624.6500000022}},{"attributes":{"ID":293653,"DIS_CODE":0,"TOWNNAME":"歸仁區","LI":"看東里","LIN":"14鄰","STREET":"中山路","SECT":"一段","MAREA":" ","LANE":" ","ALLEY":" ","HOUSE_NO":"２７５號","E_COORD97":178587.04000000001,"N_COORD97":2540618.6499999999,"ADDRESS":"中山路一段２７５號","OBJECTID":293645},"geometry":{"x":178587.04000000004,"y":2540618.6500000004}},{"attributes":{"ID":293654,"DIS_CODE":0,"TOWNNAME":"歸仁區","LI":"後市里","LIN":"14鄰","STREET":"中山路","SECT":"二段","MAREA":" ","LANE":" ","ALLEY":" ","HOUSE_NO":"１９１號","E_COORD97":177179.59,"N_COORD97":2540816.25,"ADDRESS":"中山路二段１９１號","OBJECTID":293646},"geometry":{"x":177179.58999999985,"y":2540816.2500000019}},{"attributes":{"ID":293655,"DIS_CODE":0,"TOWNNAME":"歸仁區","LI":"後市里","LIN":"14鄰","STREET":"中山路","SECT":"二段","MAREA":" ","LANE":" ","ALLEY":" ","HOUSE_NO":"１８９號","E_COORD97":177183.69,"N_COORD97":2540816.25,"ADDRESS":"中山路二段１８９號","OBJECTID":293647},"geometry":{"x":177183.69000000134,"y":2540816.2500000019}},{"attributes":{"ID":293656,"DIS_CODE":0,"TOWNNAME":"歸仁區","LI":"後市里","LIN":"14鄰","STREET":"中山五街","SECT":" ","MAREA":" ","LANE":" ","ALLEY":" ","HOUSE_NO":"２３號","E_COORD97":177107.98999999999,"N_COORD97":2540745.25,"ADDRESS":"中山五街２３號","OBJECTID":293648},"geometry":{"x":177107.99000000022,"y":2540745.2500000019}},{"attributes":{"ID":293657,"DIS_CODE":0,"TOWNNAME":"將軍區","LI":"廣山里","LIN":"15鄰","STREET":" ","SECT":" ","MAREA":"廣山","LANE":" ","ALLEY":" ","HOUSE_NO":"１４３號","E_COORD97":159596.595485,"N_COORD97":2569237.03296,"ADDRESS":"廣山１４３號","OBJECTID":293649},"geometry":{"x":159596.59548500087,"y":2569237.0329609998}},{"attributes":{"ID":293658,"DIS_CODE":0,"TOWNNAME":"歸仁區","LI":"看東里","LIN":"14鄰","STREET":"中山路","SECT":"一段","MAREA":" ","LANE":" ","ALLEY":" ","HOUSE_NO":"２８７號","E_COORD97":178559.44,"N_COORD97":2540626.6499999999,"ADDRESS":"中山路一段２８７號","OBJECTID":293650},"geometry":{"x":178559.44000000041,"y":2540626.6500000041}},{"attributes":{"ID":293659,"DIS_CODE":0,"TOWNNAME":"歸仁區","LI":"後市里","LIN":"14鄰","STREET":"中山路","SECT":"二段","MAREA":" ","LANE":" ","ALLEY":" ","HOUSE_NO":"１７９號","E_COORD97":177209.29000000001,"N_COORD97":2540812.25,"ADDRESS":"中山路二段１７９號","OBJECTID":293651},"geometry":{"x":177209.29000000004,"y":2540812.2500000019}},{"attributes":{"ID":293660,"DIS_CODE":0,"TOWNNAME":"安南區","LI":"原佃里","LIN":"4鄰","STREET":"本原街","SECT":"一段","MAREA":" ","LANE":"９４巷","ALLEY":" ","HOUSE_NO":"６號","E_COORD97":168011.17999999999,"N_COORD97":2550194.4199999999,"ADDRESS":"本原街一段９４巷６號","OBJECTID":293652},"geometry":{"x":168011.1799999997,"y":2550194.4199999999}},{"attributes":{"ID":293661,"DIS_CODE":0,"TOWNNAME":"安南區","LI":"原佃里","LIN":"4鄰","STREET":"本原街","SECT":"一段","MAREA":" ","LANE":"９４巷","ALLEY":" ","HOUSE_NO":"８號","E_COORD97":168010.54000000001,"N_COORD97":2550198.7999999998,"ADDRESS":"本原街一段９４巷８號","OBJECTID":293653},"geometry":{"x":168010.54000000004,"y":2550198.8000000007}},{"attributes":{"ID":293662,"DIS_CODE":0,"TOWNNAME":"安南區","LI":"安西里","LIN":"4鄰","STREET":"安和路","SECT":"一段","MAREA":" ","LANE":"２６３巷","ALLEY":" ","HOUSE_NO":"７號","E_COORD97":169226.31150000001,"N_COORD97":2548005.7151100002,"ADDRESS":"安和路一段２６３巷７號","OBJECTID":293654},"geometry":{"x":169226.31149999984,"y":2548005.7151090018}},{"attributes":{"ID":293663,"DIS_CODE":0,"TOWNNAME":"東區","LI":"小東里","LIN":"17鄰","STREET":"光明街","SECT":" ","MAREA":" ","LANE":"１０２巷","ALLEY":" ","HOUSE_NO":"２號九樓","E_COORD97":170898.51999999999,"N_COORD97":2544075.3700000001,"ADDRESS":"光明街１０２巷２號九樓","OBJECTID":293655},"geometry":{"x":170898.52000000048,"y":2544075.3700000029}},{"attributes":{"ID":293664,"DIS_CODE":0,"TOWNNAME":"東區","LI":"小東里","LIN":"17鄰","STREET":"光明街","SECT":" ","MAREA":" ","LANE":"１０２巷","ALLEY":" ","HOUSE_NO":"２號十樓","E_COORD97":170898.51999999999,"N_COORD97":2544075.3700000001,"ADDRESS":"光明街１０２巷２號十樓","OBJECTID":293656},"geometry":{"x":170898.52000000048,"y":2544075.3700000029}},{"attributes":{"ID":293665,"DIS_CODE":0,"TOWNNAME":"北區","LI":"大和里","LIN":"8鄰","STREET":"文賢路","SECT":" ","MAREA":" ","LANE":"７５９巷","ALLEY":" ","HOUSE_NO":"９號","E_COORD97":167289.79999999999,"N_COORD97":2546234.5899999999,"ADDRESS":"文賢路７５９巷９號","OBJECTID":293657},"geometry":{"x":167289.79999999981,"y":2546234.5900000017}},{"attributes":{"ID":293666,"DIS_CODE":0,"TOWNNAME":"東區","LI":"小東里","LIN":"17鄰","STREET":"光明街","SECT":" ","MAREA":" ","LANE":"１０２巷","ALLEY":" ","HOUSE_NO":"２號十一樓","E_COORD97":170898.51999999999,"N_COORD97":2544075.3700000001,"ADDRESS":"光明街１０２巷２號十一樓","OBJECTID":293658},"geometry":{"x":170898.52000000048,"y":2544075.3700000029}},{"attributes":{"ID":293667,"DIS_CODE":0,"TOWNNAME":"歸仁區","LI":"文化里","LIN":"14鄰","STREET":"文化北二街","SECT":" ","MAREA":" ","LANE":" ","ALLEY":" ","HOUSE_NO":"１８號","E_COORD97":177231.01000000001,"N_COORD97":2541461.3399999999,"ADDRESS":"文化北二街１８號","OBJECTID":293659},"geometry":{"x":177231.00999999978,"y":2541461.3399999999}},{"attributes":{"ID":293668,"DIS_CODE":0,"TOWNNAME":"歸仁區","LI":"後市里","LIN":"14鄰","STREET":"中山路","SECT":"二段","MAREA":" ","LANE":" ","ALLEY":" ","HOUSE_NO":"２０３號","E_COORD97":177146.79000000001,"N_COORD97":2540820.25,"ADDRESS":"中山路二段２０３號","OBJECTID":293660},"geometry":{"x":177146.7900000019,"y":2540820.2500000019}},{"attributes":{"ID":293669,"DIS_CODE":0,"TOWNNAME":"歸仁區","LI":"歸南里","LIN":"14鄰","STREET":"民生南街","SECT":"二段","MAREA":" ","LANE":" ","ALLEY":" ","HOUSE_NO":"３３３號","E_COORD97":176101.16,"N_COORD97":2539860.25,"ADDRESS":"民生南街二段３３３號","OBJECTID":293661},"geometry":{"x":176101.16000000015,"y":2539860.2500000019}},{"attributes":{"ID":293670,"DIS_CODE":0,"TOWNNAME":"歸仁區","LI":"新厝里","LIN":"14鄰","STREET":"大成路","SECT":" ","MAREA":" ","LANE":" ","ALLEY":" ","HOUSE_NO":"３７號","E_COORD97":177601.57000000001,"N_COORD97":2540437.5899999999,"ADDRESS":"大成路３７號","OBJECTID":293662},"geometry":{"x":177601.57000000123,"y":2540437.5900000017}},{"attributes":{"ID":293671,"DIS_CODE":0,"TOWNNAME":"歸仁區","LI":"新厝里","LIN":"14鄰","STREET":"大成路","SECT":" ","MAREA":" ","LANE":" ","ALLEY":" ","HOUSE_NO":"４９號","E_COORD97":177618.97,"N_COORD97":2540419.5899999999,"ADDRESS":"大成路４９號","OBJECTID":293663},"geometry":{"x":177618.97000000067,"y":2540419.5900000036}},{"attributes":{"ID":293672,"DIS_CODE":0,"TOWNNAME":"歸仁區","LI":"歸南里","LIN":"14鄰","STREET":"民生南街","SECT":"二段","MAREA":" ","LANE":" ","ALLEY":" ","HOUSE_NO":"３１７號","E_COORD97":176112.66,"N_COORD97":2539901.25,"ADDRESS":"民生南街二段３１７號","OBJECTID":293664},"geometry":{"x":176112.66000000108,"y":2539901.2500000019}},{"attributes":{"ID":293673,"DIS_CODE":0,"TOWNNAME":"歸仁區","LI":"媽廟里","LIN":"14鄰","STREET":"中正北路","SECT":"三段","MAREA":" ","LANE":" ","ALLEY":" ","HOUSE_NO":"１２０號","E_COORD97":177607.76000000001,"N_COORD97":2543819.7200000002,"ADDRESS":"中正北路三段１２０號","OBJECTID":293665},"geometry":{"x":177607.76000000164,"y":2543819.7200000007}},{"attributes":{"ID":293674,"DIS_CODE":0,"TOWNNAME":"歸仁區","LI":"新厝里","LIN":"14鄰","STREET":"大成路","SECT":" ","MAREA":" ","LANE":" ","ALLEY":" ","HOUSE_NO":"５９號","E_COORD97":177632.67999999999,"N_COORD97":2540405,"ADDRESS":"大成路５９號","OBJECTID":293666},"geometry":{"x":177632.68000000063,"y":2540405.0000000019}},{"attributes":{"ID":293675,"DIS_CODE":0,"TOWNNAME":"歸仁區","LI":"歸仁里","LIN":"14鄰","STREET":"信義北路","SECT":" ","MAREA":" ","LANE":" ","ALLEY":" ","HOUSE_NO":"１１２號","E_COORD97":177970.69,"N_COORD97":2541096.1099999999,"ADDRESS":"信義北路１１２號","OBJECTID":293667},"geometry":{"x":177970.69000000134,"y":2541096.1099999994}},{"attributes":{"ID":293676,"DIS_CODE":0,"TOWNNAME":"歸仁區","LI":"新厝里","LIN":"14鄰","STREET":"大成路","SECT":" ","MAREA":" ","LANE":" ","ALLEY":" ","HOUSE_NO":"４１號","E_COORD97":177607.76999999999,"N_COORD97":2540431.5899999999,"ADDRESS":"大成路４１號","OBJECTID":293668},"geometry":{"x":177607.77000000048,"y":2540431.5899999999}},{"attributes":{"ID":293677,"DIS_CODE":0,"TOWNNAME":"歸仁區","LI":"媽廟里","LIN":"14鄰","STREET":"中正北路","SECT":"三段","MAREA":" ","LANE":" ","ALLEY":" ","HOUSE_NO":"１０４號","E_COORD97":177603.45999999999,"N_COORD97":2543772.7200000002,"ADDRESS":"中正北路三段１０４號","OBJECTID":293669},"geometry":{"x":177603.46000000089,"y":2543772.7200000044}},{"attributes":{"ID":293678,"DIS_CODE":0,"TOWNNAME":"歸仁區","LI":"媽廟里","LIN":"14鄰","STREET":"中正北路","SECT":"三段","MAREA":" ","LANE":" ","ALLEY":" ","HOUSE_NO":"１１８號","E_COORD97":177606.76000000001,"N_COORD97":2543815.7200000002,"ADDRESS":"中正北路三段１１８號","OBJECTID":293670},"geometry":{"x":177606.76000000071,"y":2543815.7200000007}},{"attributes":{"ID":293679,"DIS_CODE":0,"TOWNNAME":"歸仁區","LI":"媽廟里","LIN":"8鄰","STREET":"和順路","SECT":"一段","MAREA":" ","LANE":" ","ALLEY":" ","HOUSE_NO":"５６之１號","E_COORD97":177378.02694700001,"N_COORD97":2543716.36485,"ADDRESS":"和順路一段５６之１號","OBJECTID":293671},"geometry":{"x":177378.026947001,"y":2543716.3648450021}},{"attributes":{"ID":293680,"DIS_CODE":0,"TOWNNAME":"新營區","LI":"興安里","LIN":"15鄰","STREET":"延平路","SECT":" ","MAREA":" ","LANE":" ","ALLEY":" ","HOUSE_NO":"１０９之６號","E_COORD97":179772.58145500001,"N_COORD97":2577569.77788,"ADDRESS":"延平路１０９之６號","OBJECTID":293672},"geometry":{"x":179772.58145499974,"y":2577569.7778750006}},{"attributes":{"ID":293681,"DIS_CODE":0,"TOWNNAME":"安南區","LI":"州北里","LIN":"4鄰","STREET":"安和路","SECT":"五段","MAREA":" ","LANE":"１７１巷","ALLEY":" ","HOUSE_NO":"１３１號","E_COORD97":169652.04999999999,"N_COORD97":2551674.52,"ADDRESS":"安和路五段１７１巷１３１號","OBJECTID":293673},"geometry":{"x":169652.05000000168,"y":2551674.5199999996}},{"attributes":{"ID":293682,"DIS_CODE":0,"TOWNNAME":"安南區","LI":"州北里","LIN":"4鄰","STREET":"安和路","SECT":"五段","MAREA":" ","LANE":"１７１巷","ALLEY":" ","HOUSE_NO":"１３１號之１","E_COORD97":169658.22,"N_COORD97":2551668.6000000001,"ADDRESS":"安和路五段１７１巷１３１號之１","OBJECTID":293674},"geometry":{"x":169658.22000000067,"y":2551668.6000000034}},{"attributes":{"ID":293683,"DIS_CODE":0,"TOWNNAME":"安南區","LI":"海東里","LIN":"17鄰","STREET":"同安路","SECT":" ","MAREA":" ","LANE":"３８７巷","ALLEY":" ","HOUSE_NO":"１１號","E_COORD97":167257.03,"N_COORD97":2549377.3599999999,"ADDRESS":"同安路３８７巷１１號","OBJECTID":293675},"geometry":{"x":167257.03000000026,"y":2549377.3599999994}},{"attributes":{"ID":293684,"DIS_CODE":0,"TOWNNAME":"安南區","LI":"海東里","LIN":"17鄰","STREET":"同安路","SECT":" ","MAREA":" ","LANE":"３８７巷","ALLEY":" ","HOUSE_NO":"１３號","E_COORD97":167257.06,"N_COORD97":2549364.21,"ADDRESS":"同安路３８７巷１３號","OBJECTID":293676},"geometry":{"x":167257.06000000052,"y":2549364.2100000028}},{"attributes":{"ID":293685,"DIS_CODE":0,"TOWNNAME":"安南區","LI":"海東里","LIN":"17鄰","STREET":"同安路","SECT":" ","MAREA":" ","LANE":"３８７巷","ALLEY":" ","HOUSE_NO":"１５號","E_COORD97":167255.39999999999,"N_COORD97":2549360.3900000001,"ADDRESS":"同安路３８７巷１５號","OBJECTID":293677},"geometry":{"x":167255.4000000013,"y":2549360.3900000006}},{"attributes":{"ID":293686,"DIS_CODE":0,"TOWNNAME":"安南區","LI":"海東里","LIN":"17鄰","STREET":"同安路","SECT":" ","MAREA":" ","LANE":"３８７巷","ALLEY":" ","HOUSE_NO":"１７號","E_COORD97":167252.98999999999,"N_COORD97":2549356.7599999998,"ADDRESS":"同安路３８７巷１７號","OBJECTID":293678},"geometry":{"x":167252.99000000115,"y":2549356.7600000016}},{"attributes":{"ID":293687,"DIS_CODE":0,"TOWNNAME":"安南區","LI":"海東里","LIN":"17鄰","STREET":"同安路","SECT":" ","MAREA":" ","LANE":"３８７巷","ALLEY":" ","HOUSE_NO":"１９號","E_COORD97":167250.75,"N_COORD97":2549352.98,"ADDRESS":"同安路３８７巷１９號","OBJECTID":293679},"geometry":{"x":167250.75000000093,"y":2549352.9800000004}},{"attributes":{"ID":293688,"DIS_CODE":0,"TOWNNAME":"安南區","LI":"海東里","LIN":"17鄰","STREET":"同安路","SECT":" ","MAREA":" ","LANE":"３８７巷","ALLEY":" ","HOUSE_NO":"１號","E_COORD97":167276.60999999999,"N_COORD97":2549367.9500000002,"ADDRESS":"同安路３８７巷１號","OBJECTID":293680},"geometry":{"x":167276.61000000034,"y":2549367.9500000011}},{"attributes":{"ID":293689,"DIS_CODE":0,"TOWNNAME":"東區","LI":"小東里","LIN":"17鄰","STREET":"光明街","SECT":" ","MAREA":" ","LANE":"１０２巷","ALLEY":" ","HOUSE_NO":"２號十二樓","E_COORD97":170898.51999999999,"N_COORD97":2544075.3700000001,"ADDRESS":"光明街１０２巷２號十二樓","OBJECTID":293681},"geometry":{"x":170898.52000000048,"y":2544075.3700000029}},{"attributes":{"ID":293690,"DIS_CODE":0,"TOWNNAME":"歸仁區","LI":"新厝里","LIN":"14鄰","STREET":"大成路","SECT":" ","MAREA":" ","LANE":" ","ALLEY":" ","HOUSE_NO":"３９號","E_COORD97":177604.67000000001,"N_COORD97":2540433.5899999999,"ADDRESS":"大成路３９號","OBJECTID":293682},"geometry":{"x":177604.66999999993,"y":2540433.5900000017}},{"attributes":{"ID":293691,"DIS_CODE":0,"TOWNNAME":"歸仁區","LI":"媽廟里","LIN":"14鄰","STREET":"中正北路","SECT":"三段","MAREA":" ","LANE":" ","ALLEY":" ","HOUSE_NO":"１００號","E_COORD97":177618.76000000001,"N_COORD97":2543751.7200000002,"ADDRESS":"中正北路三段１００號","OBJECTID":293683},"geometry":{"x":177618.75999999978,"y":2543751.7200000007}},{"attributes":{"ID":293692,"DIS_CODE":0,"TOWNNAME":"歸仁區","LI":"歸南里","LIN":"14鄰","STREET":"民生南街","SECT":"二段","MAREA":" ","LANE":" ","ALLEY":" ","HOUSE_NO":"３０１號","E_COORD97":176089.26000000001,"N_COORD97":2539928.25,"ADDRESS":"民生南街二段３０１號","OBJECTID":293684},"geometry":{"x":176089.26000000071,"y":2539928.2500000019}},{"attributes":{"ID":293693,"DIS_CODE":0,"TOWNNAME":"歸仁區","LI":"媽廟里","LIN":"14鄰","STREET":"中正北路","SECT":"三段","MAREA":" ","LANE":" ","ALLEY":" ","HOUSE_NO":"１２４號","E_COORD97":177608.85999999999,"N_COORD97":2543826.7200000002,"ADDRESS":"中正北路三段１２４號","OBJECTID":293685},"geometry":{"x":177608.86000000034,"y":2543826.7200000044}},{"attributes":{"ID":293694,"DIS_CODE":0,"TOWNNAME":"歸仁區","LI":"新厝里","LIN":"14鄰","STREET":"公園路","SECT":" ","MAREA":" ","LANE":" ","ALLEY":" ","HOUSE_NO":"２４０號","E_COORD97":177663.73000000001,"N_COORD97":2540404,"ADDRESS":"公園路２４０號","OBJECTID":293686},"geometry":{"x":177663.73000000138,"y":2540404.0000000019}},{"attributes":{"ID":293695,"DIS_CODE":0,"TOWNNAME":"歸仁區","LI":"新厝里","LIN":"14鄰","STREET":"大成路","SECT":" ","MAREA":" ","LANE":" ","ALLEY":" ","HOUSE_NO":"３３號","E_COORD97":177595.47,"N_COORD97":2540442.5899999999,"ADDRESS":"大成路３３號","OBJECTID":293687},"geometry":{"x":177595.46999999974,"y":2540442.5899999999}},{"attributes":{"ID":293696,"DIS_CODE":0,"TOWNNAME":"歸仁區","LI":"媽廟里","LIN":"14鄰","STREET":"中正北路","SECT":"三段","MAREA":" ","LANE":" ","ALLEY":" ","HOUSE_NO":"１２８號","E_COORD97":177609.85999999999,"N_COORD97":2543832.7200000002,"ADDRESS":"中正北路三段１２８號","OBJECTID":293688},"geometry":{"x":177609.86000000127,"y":2543832.7200000007}},{"attributes":{"ID":293697,"DIS_CODE":0,"TOWNNAME":"歸仁區","LI":"新厝里","LIN":"14鄰","STREET":"大成路","SECT":" ","MAREA":" ","LANE":" ","ALLEY":" ","HOUSE_NO":"５１號","E_COORD97":177621.97,"N_COORD97":2540417.5899999999,"ADDRESS":"大成路５１號","OBJECTID":293689},"geometry":{"x":177621.97000000067,"y":2540417.5900000017}},{"attributes":{"ID":293698,"DIS_CODE":0,"TOWNNAME":"歸仁區","LI":"歸仁里","LIN":"14鄰","STREET":"文化街","SECT":"一段","MAREA":" ","LANE":" ","ALLEY":" ","HOUSE_NO":"１０７號","E_COORD97":177982.44,"N_COORD97":2541124.1299999999,"ADDRESS":"文化街一段１０７號","OBJECTID":293690},"geometry":{"x":177982.44000000134,"y":2541124.1300000008}},{"attributes":{"ID":293699,"DIS_CODE":0,"TOWNNAME":"歸仁區","LI":"歸仁里","LIN":"14鄰","STREET":"文化街","SECT":"一段","MAREA":" ","LANE":" ","ALLEY":" ","HOUSE_NO":"１０３號","E_COORD97":178019.34,"N_COORD97":2541122.1299999999,"ADDRESS":"文化街一段１０３號","OBJECTID":293691},"geometry":{"x":178019.34000000171,"y":2541122.129999999}},{"attributes":{"ID":293700,"DIS_CODE":0,"TOWNNAME":"安南區","LI":"州北里","LIN":"21鄰","STREET":"北安路","SECT":"四段","MAREA":" ","LANE":"６００巷","ALLEY":" ","HOUSE_NO":"９號","E_COORD97":169620.73999999999,"N_COORD97":2552068.8700000001,"ADDRESS":"北安路四段６００巷９號","OBJECTID":293692},"geometry":{"x":169620.74000000209,"y":2552068.8700000029}},{"attributes":{"ID":293701,"DIS_CODE":0,"TOWNNAME":"安南區","LI":"安西里","LIN":"8鄰","STREET":"安中路","SECT":"一段","MAREA":" ","LANE":"２９巷","ALLEY":" ","HOUSE_NO":"１３號","E_COORD97":169153.07000000001,"N_COORD97":2548196.3300000001,"ADDRESS":"安中路一段２９巷１３號","OBJECTID":293693},"geometry":{"x":169153.07000000123,"y":2548196.3300000019}},{"attributes":{"ID":293702,"DIS_CODE":0,"TOWNNAME":"安南區","LI":"安西里","LIN":"8鄰","STREET":"安中路","SECT":"一段","MAREA":" ","LANE":"２９巷","ALLEY":" ","HOUSE_NO":"１５號","E_COORD97":169149.94,"N_COORD97":2548194.77,"ADDRESS":"安中路一段２９巷１５號","OBJECTID":293694},"geometry":{"x":169149.94000000227,"y":2548194.7699999996}},{"attributes":{"ID":293703,"DIS_CODE":0,"TOWNNAME":"安南區","LI":"安西里","LIN":"8鄰","STREET":"安中路","SECT":"一段","MAREA":" ","LANE":"２９巷","ALLEY":" ","HOUSE_NO":"１７號","E_COORD97":169144.85000000001,"N_COORD97":2548194.3799999999,"ADDRESS":"安中路一段２９巷１７號","OBJECTID":293695},"geometry":{"x":169144.85000000056,"y":2548194.3800000027}},{"attributes":{"ID":293704,"DIS_CODE":0,"TOWNNAME":"安南區","LI":"安西里","LIN":"8鄰","STREET":"安中路","SECT":"一段","MAREA":" ","LANE":"２９巷","ALLEY":" ","HOUSE_NO":"１８號","E_COORD97":169133.73000000001,"N_COORD97":2548235.48,"ADDRESS":"安中路一段２９巷１８號","OBJECTID":293696},"geometry":{"x":169133.73000000045,"y":2548235.4799999986}},{"attributes":{"ID":293705,"DIS_CODE":0,"TOWNNAME":"安南區","LI":"安西里","LIN":"8鄰","STREET":"安中路","SECT":"一段","MAREA":" ","LANE":"２９巷","ALLEY":" ","HOUSE_NO":"１９號","E_COORD97":169141.72,"N_COORD97":2548192.8199999998,"ADDRESS":"安中路一段２９巷１９號","OBJECTID":293697},"geometry":{"x":169141.71999999974,"y":2548192.820000004}},{"attributes":{"ID":293706,"DIS_CODE":0,"TOWNNAME":"安南區","LI":"安西里","LIN":"8鄰","STREET":"安中路","SECT":"一段","MAREA":" ","LANE":"２９巷","ALLEY":" ","HOUSE_NO":"１號","E_COORD97":169178.51000000001,"N_COORD97":2548203.7599999998,"ADDRESS":"安中路一段２９巷１號","OBJECTID":293698},"geometry":{"x":169178.50999999978,"y":2548203.7600000016}},{"attributes":{"ID":293707,"DIS_CODE":0,"TOWNNAME":"安南區","LI":"安西里","LIN":"8鄰","STREET":"安中路","SECT":"一段","MAREA":" ","LANE":"２９巷","ALLEY":" ","HOUSE_NO":"２１號","E_COORD97":169137.41,"N_COORD97":2548192.0299999998,"ADDRESS":"安中路一段２９巷２１號","OBJECTID":293699},"geometry":{"x":169137.41000000015,"y":2548192.0299999993}},{"attributes":{"ID":293708,"DIS_CODE":0,"TOWNNAME":"安南區","LI":"安西里","LIN":"8鄰","STREET":"安中路","SECT":"一段","MAREA":" ","LANE":"２９巷","ALLEY":" ","HOUSE_NO":"２３號","E_COORD97":169133.89000000001,"N_COORD97":2548190.4700000002,"ADDRESS":"安中路一段２９巷２３號","OBJECTID":293700},"geometry":{"x":169133.88999999966,"y":2548190.4700000007}},{"attributes":{"ID":293709,"DIS_CODE":0,"TOWNNAME":"東區","LI":"小東里","LIN":"17鄰","STREET":"光明街","SECT":" ","MAREA":" ","LANE":"１０２巷","ALLEY":" ","HOUSE_NO":"６號二樓","E_COORD97":170886,"N_COORD97":2544075.3700000001,"ADDRESS":"光明街１０２巷６號二樓","OBJECTID":293701},"geometry":{"x":170886,"y":2544075.3700000029}},{"attributes":{"ID":293710,"DIS_CODE":0,"TOWNNAME":"東區","LI":"小東里","LIN":"17鄰","STREET":"光明街","SECT":" ","MAREA":" ","LANE":"１０２巷","ALLEY":" ","HOUSE_NO":"６號四樓","E_COORD97":170886,"N_COORD97":2544075.3700000001,"ADDRESS":"光明街１０２巷６號四樓","OBJECTID":293702},"geometry":{"x":170886,"y":2544075.3700000029}},{"attributes":{"ID":293711,"DIS_CODE":0,"TOWNNAME":"東區","LI":"小東里","LIN":"17鄰","STREET":"光明街","SECT":" ","MAREA":" ","LANE":"１０２巷","ALLEY":" ","HOUSE_NO":"６號五樓","E_COORD97":170886,"N_COORD97":2544075.3700000001,"ADDRESS":"光明街１０２巷６號五樓","OBJECTID":293703},"geometry":{"x":170886,"y":2544075.3700000029}},{"attributes":{"ID":293712,"DIS_CODE":0,"TOWNNAME":"歸仁區","LI":"歸仁里","LIN":"14鄰","STREET":"信義北路","SECT":" ","MAREA":" ","LANE":" ","ALLEY":" ","HOUSE_NO":"１０２號","E_COORD97":177982.89000000001,"N_COORD97":2541070.1099999999,"ADDRESS":"信義北路１０２號","OBJECTID":293704},"geometry":{"x":177982.88999999966,"y":2541070.1100000031}},{"attributes":{"ID":293713,"DIS_CODE":0,"TOWNNAME":"歸仁區","LI":"看東里","LIN":"14鄰","STREET":"忠孝南路","SECT":" ","MAREA":" ","LANE":" ","ALLEY":" ","HOUSE_NO":"５號","E_COORD97":178524.81,"N_COORD97":2540612.6400000001,"ADDRESS":"忠孝南路５號","OBJECTID":293705},"geometry":{"x":178524.81000000052,"y":2540612.6400000006}},{"attributes":{"ID":293714,"DIS_CODE":0,"TOWNNAME":"歸仁區","LI":"看東里","LIN":"14鄰","STREET":"忠孝南路","SECT":" ","MAREA":" ","LANE":" ","ALLEY":" ","HOUSE_NO":"３號","E_COORD97":178523.81,"N_COORD97":2540616.6400000001,"ADDRESS":"忠孝南路３號","OBJECTID":293706},"geometry":{"x":178523.80999999959,"y":2540616.6400000043}},{"attributes":{"ID":293715,"DIS_CODE":0,"TOWNNAME":"歸仁區","LI":"媽廟里","LIN":"14鄰","STREET":"中正北路","SECT":"三段","MAREA":" ","LANE":" ","ALLEY":" ","HOUSE_NO":"１０８號","E_COORD97":177603.45999999999,"N_COORD97":2543783.7200000002,"ADDRESS":"中正北路三段１０８號","OBJECTID":293707},"geometry":{"x":177603.46000000089,"y":2543783.7200000025}},{"attributes":{"ID":293716,"DIS_CODE":0,"TOWNNAME":"歸仁區","LI":"歸南里","LIN":"14鄰","STREET":"民生南街","SECT":"二段","MAREA":" ","LANE":" ","ALLEY":" ","HOUSE_NO":"２７９號","E_COORD97":176084.26000000001,"N_COORD97":2539969.25,"ADDRESS":"民生南街二段２７９號","OBJECTID":293708},"geometry":{"x":176084.26000000071,"y":2539969.2500000019}},{"attributes":{"ID":293717,"DIS_CODE":0,"TOWNNAME":"歸仁區","LI":"新厝里","LIN":"14鄰","STREET":"大成路","SECT":" ","MAREA":" ","LANE":" ","ALLEY":" ","HOUSE_NO":"３５號","E_COORD97":177599.57000000001,"N_COORD97":2540440.5899999999,"ADDRESS":"大成路３５號","OBJECTID":293709},"geometry":{"x":177599.57000000123,"y":2540440.5900000017}},{"attributes":{"ID":293718,"DIS_CODE":0,"TOWNNAME":"歸仁區","LI":"新厝里","LIN":"14鄰","STREET":"公園路","SECT":" ","MAREA":" ","LANE":" ","ALLEY":" ","HOUSE_NO":"２３２號","E_COORD97":177679.13,"N_COORD97":2540411,"ADDRESS":"公園路２３２號","OBJECTID":293710},"geometry":{"x":177679.12999999989,"y":2540411.0000000019}},{"attributes":{"ID":293719,"DIS_CODE":0,"TOWNNAME":"歸仁區","LI":"看東里","LIN":"14鄰","STREET":"忠孝南路","SECT":" ","MAREA":" ","LANE":" ","ALLEY":" ","HOUSE_NO":"１７號","E_COORD97":178524.95999999999,"N_COORD97":2540587.6400000001,"ADDRESS":"忠孝南路１７號","OBJECTID":293711},"geometry":{"x":178524.95999999996,"y":2540587.6400000025}},{"attributes":{"ID":293720,"DIS_CODE":0,"TOWNNAME":"歸仁區","LI":"歸仁里","LIN":"14鄰","STREET":"信義北路","SECT":" ","MAREA":" ","LANE":" ","ALLEY":" ","HOUSE_NO":"１１４號","E_COORD97":177992.29000000001,"N_COORD97":2541097.1099999999,"ADDRESS":"信義北路１１４號","OBJECTID":293712},"geometry":{"x":177992.29000000004,"y":2541097.1100000031}},{"attributes":{"ID":293721,"DIS_CODE":0,"TOWNNAME":"歸仁區","LI":"新厝里","LIN":"14鄰","STREET":"大成路","SECT":" ","MAREA":" ","LANE":" ","ALLEY":" ","HOUSE_NO":"４３號","E_COORD97":177609.76999999999,"N_COORD97":2540428.5899999999,"ADDRESS":"大成路４３號","OBJECTID":293713},"geometry":{"x":177609.77000000048,"y":2540428.5899999999}},{"attributes":{"ID":293722,"DIS_CODE":0,"TOWNNAME":"安南區","LI":"州北里","LIN":"17鄰","STREET":"北安路","SECT":"四段","MAREA":" ","LANE":"７１３巷","ALLEY":" ","HOUSE_NO":"５號","E_COORD97":169536.5,"N_COORD97":2552357.4300000002,"ADDRESS":"北安路四段７１３巷５號","OBJECTID":293714},"geometry":{"x":169536.5,"y":2552357.4299999997}},{"attributes":{"ID":293723,"DIS_CODE":0,"TOWNNAME":"安南區","LI":"州北里","LIN":"21鄰","STREET":"北安路","SECT":"四段","MAREA":" ","LANE":"６００巷","ALLEY":" ","HOUSE_NO":"１１號","E_COORD97":169627.41,"N_COORD97":2552071.8599999999,"ADDRESS":"北安路四段６００巷１１號","OBJECTID":293715},"geometry":{"x":169627.41000000015,"y":2552071.8599999994}},{"attributes":{"ID":293724,"DIS_CODE":0,"TOWNNAME":"安南區","LI":"州北里","LIN":"21鄰","STREET":"北安路","SECT":"四段","MAREA":" ","LANE":"６００巷","ALLEY":" ","HOUSE_NO":"１４號","E_COORD97":169629.28,"N_COORD97":2552046.4199999999,"ADDRESS":"北安路四段６００巷１４號","OBJECTID":293716},"geometry":{"x":169629.28000000119,"y":2552046.4200000037}},{"attributes":{"ID":293725,"DIS_CODE":0,"TOWNNAME":"安南區","LI":"州北里","LIN":"21鄰","STREET":"安和路","SECT":"五段","MAREA":" ","LANE":"２６９巷","ALLEY":" ","HOUSE_NO":"１２號","E_COORD97":169648.07999999999,"N_COORD97":2552010.7200000002,"ADDRESS":"安和路五段２６９巷１２號","OBJECTID":293717},"geometry":{"x":169648.08000000007,"y":2552010.7200000007}},{"attributes":{"ID":293726,"DIS_CODE":0,"TOWNNAME":"安南區","LI":"公親里","LIN":"8鄰","STREET":"公學路","SECT":"一段","MAREA":" ","LANE":"１５７巷","ALLEY":" ","HOUSE_NO":"７號","E_COORD97":168160.62,"N_COORD97":2553004.9300000002,"ADDRESS":"公學路一段１５７巷７號","OBJECTID":293718},"geometry":{"x":168160.62000000104,"y":2553004.9299999997}},{"attributes":{"ID":293727,"DIS_CODE":0,"TOWNNAME":"安南區","LI":"公親里","LIN":"7鄰","STREET":"公學路","SECT":"一段","MAREA":" ","LANE":"４２巷","ALLEY":" ","HOUSE_NO":"１２號","E_COORD97":168573.70999999999,"N_COORD97":2553102.0800000001,"ADDRESS":"公學路一段４２巷１２號","OBJECTID":293719},"geometry":{"x":168573.71000000089,"y":2553102.0800000001}},{"attributes":{"ID":293728,"DIS_CODE":0,"TOWNNAME":"安南區","LI":"公親里","LIN":"7鄰","STREET":"公學路","SECT":"一段","MAREA":" ","LANE":"４２巷","ALLEY":" ","HOUSE_NO":"１６號","E_COORD97":168563.32999999999,"N_COORD97":2553126.6899999999,"ADDRESS":"公學路一段４２巷１６號","OBJECTID":293720},"geometry":{"x":168563.33000000007,"y":2553126.6900000013}},{"attributes":{"ID":293729,"DIS_CODE":0,"TOWNNAME":"永康區","LI":"崑山里","LIN":"4鄰","STREET":"永大路","SECT":"一段","MAREA":" ","LANE":"２８７巷","ALLEY":" ","HOUSE_NO":"１９號","E_COORD97":173916.63,"N_COORD97":2544401.4199999999,"ADDRESS":"永大路一段２８７巷１９號","OBJECTID":293721},"geometry":{"x":173916.63000000175,"y":2544401.4200000018}},{"attributes":{"ID":293730,"DIS_CODE":0,"TOWNNAME":"永康區","LI":"五王里","LIN":"39鄰","STREET":"中華路","SECT":" ","MAREA":" ","LANE":"５７８巷","ALLEY":" ","HOUSE_NO":"１７號之５９","E_COORD97":171333.64999999999,"N_COORD97":2545989.54,"ADDRESS":"中華路５７８巷１７號之５９","OBJECTID":293722},"geometry":{"x":171333.65000000224,"y":2545989.5400000028}},{"attributes":{"ID":293731,"DIS_CODE":0,"TOWNNAME":"永康區","LI":"安康里","LIN":"18鄰","STREET":"中華路","SECT":" ","MAREA":" ","LANE":"６６１巷","ALLEY":" ","HOUSE_NO":"１１０號","E_COORD97":170792.69,"N_COORD97":2546113.5,"ADDRESS":"中華路６６１巷１１０號","OBJECTID":293723},"geometry":{"x":170792.69000000134,"y":2546113.5000000019}},{"attributes":{"ID":293732,"DIS_CODE":0,"TOWNNAME":"永康區","LI":"王行里","LIN":"4鄰","STREET":"育樂街","SECT":" ","MAREA":" ","LANE":"１８２巷","ALLEY":" ","HOUSE_NO":"１１號","E_COORD97":175047.92999999999,"N_COORD97":2548382.4399999999,"ADDRESS":"育樂街１８２巷１１號","OBJECTID":293724},"geometry":{"x":175047.9299999997,"y":2548382.4399999995}},{"attributes":{"ID":293733,"DIS_CODE":0,"TOWNNAME":"永康區","LI":"永康里","LIN":"38鄰","STREET":"大同街","SECT":" ","MAREA":" ","LANE":"７１５巷","ALLEY":" ","HOUSE_NO":"３２號","E_COORD97":174427.56,"N_COORD97":2546666.6800000002,"ADDRESS":"大同街７１５巷３２號","OBJECTID":293725},"geometry":{"x":174427.56000000052,"y":2546666.6799999997}},{"attributes":{"ID":293734,"DIS_CODE":0,"TOWNNAME":"東區","LI":"小東里","LIN":"17鄰","STREET":"光明街","SECT":" ","MAREA":" ","LANE":"１０２巷","ALLEY":" ","HOUSE_NO":"６號六樓","E_COORD97":170886,"N_COORD97":2544075.3700000001,"ADDRESS":"光明街１０２巷６號六樓","OBJECTID":293726},"geometry":{"x":170886,"y":2544075.3700000029}},{"attributes":{"ID":293735,"DIS_CODE":0,"TOWNNAME":"東區","LI":"小東里","LIN":"17鄰","STREET":"光明街","SECT":" ","MAREA":" ","LANE":"１０２巷","ALLEY":" ","HOUSE_NO":"６號七樓","E_COORD97":170886,"N_COORD97":2544075.3700000001,"ADDRESS":"光明街１０２巷６號七樓","OBJECTID":293727},"geometry":{"x":170886,"y":2544075.3700000029}},{"attributes":{"ID":293736,"DIS_CODE":0,"TOWNNAME":"東區","LI":"小東里","LIN":"17鄰","STREET":"光明街","SECT":" ","MAREA":" ","LANE":"１０２巷","ALLEY":" ","HOUSE_NO":"６號八樓","E_COORD97":170886,"N_COORD97":2544075.3700000001,"ADDRESS":"光明街１０２巷６號八樓","OBJECTID":293728},"geometry":{"x":170886,"y":2544075.3700000029}},{"attributes":{"ID":293737,"DIS_CODE":0,"TOWNNAME":"歸仁區","LI":"新厝里","LIN":"14鄰","STREET":"公園十街","SECT":" ","MAREA":" ","LANE":" ","ALLEY":" ","HOUSE_NO":"３號","E_COORD97":177675.88,"N_COORD97":2540430,"ADDRESS":"公園十街３號","OBJECTID":293729},"geometry":{"x":177675.87999999989,"y":2540430}},{"attributes":{"ID":293738,"DIS_CODE":0,"TOWNNAME":"歸仁區","LI":"八甲里","LIN":"14鄰","STREET":"大明三街","SECT":" ","MAREA":" ","LANE":" ","ALLEY":" ","HOUSE_NO":"２７號","E_COORD97":178070.51999999999,"N_COORD97":2541767.6099999999,"ADDRESS":"大明三街２７號","OBJECTID":293730},"geometry":{"x":178070.52000000048,"y":2541767.6099999994}},{"attributes":{"ID":293739,"DIS_CODE":0,"TOWNNAME":"歸仁區","LI":"歸南里","LIN":"14鄰","STREET":"民生南街","SECT":"二段","MAREA":" ","LANE":" ","ALLEY":" ","HOUSE_NO":"２８１號","E_COORD97":176085.26000000001,"N_COORD97":2539965.25,"ADDRESS":"民生南街二段２８１號","OBJECTID":293731},"geometry":{"x":176085.25999999978,"y":2539965.2500000019}},{"attributes":{"ID":293740,"DIS_CODE":0,"TOWNNAME":"歸仁區","LI":"新厝里","LIN":"14鄰","STREET":"公園十街","SECT":" ","MAREA":" ","LANE":" ","ALLEY":" ","HOUSE_NO":"１７號","E_COORD97":177664.51999999999,"N_COORD97":2540460.5899999999,"ADDRESS":"公園十街１７號","OBJECTID":293732},"geometry":{"x":177664.51999999955,"y":2540460.5900000017}},{"attributes":{"ID":293741,"DIS_CODE":0,"TOWNNAME":"歸仁區","LI":"新厝里","LIN":"14鄰","STREET":"大成路","SECT":" ","MAREA":" ","LANE":" ","ALLEY":" ","HOUSE_NO":"４７號","E_COORD97":177615.87,"N_COORD97":2540422.5899999999,"ADDRESS":"大成路４７號","OBJECTID":293733},"geometry":{"x":177615.87000000197,"y":2540422.5899999999}},{"attributes":{"ID":293742,"DIS_CODE":0,"TOWNNAME":"歸仁區","LI":"看東里","LIN":"14鄰","STREET":"中山路","SECT":"一段","MAREA":" ","LANE":" ","ALLEY":" ","HOUSE_NO":"２７１號","E_COORD97":178595.23999999999,"N_COORD97":2540616.6499999999,"ADDRESS":"中山路一段２７１號","OBJECTID":293734},"geometry":{"x":178595.24000000115,"y":2540616.6500000022}},{"attributes":{"ID":293743,"DIS_CODE":0,"TOWNNAME":"歸仁區","LI":"六甲里","LIN":"14鄰","STREET":"六甲一街","SECT":" ","MAREA":" ","LANE":" ","ALLEY":" ","HOUSE_NO":"２１號","E_COORD97":175851.67000000001,"N_COORD97":2539151.25,"ADDRESS":"六甲一街２１號","OBJECTID":293735},"geometry":{"x":175851.66999999993,"y":2539151.2500000019}},{"attributes":{"ID":293744,"DIS_CODE":0,"TOWNNAME":"歸仁區","LI":"後市里","LIN":"14鄰","STREET":"大吉一街","SECT":" ","MAREA":" ","LANE":" ","ALLEY":" ","HOUSE_NO":"７號","E_COORD97":177184.66,"N_COORD97":2540747.25,"ADDRESS":"大吉一街７號","OBJECTID":293736},"geometry":{"x":177184.66000000015,"y":2540747.2499999981}},{"attributes":{"ID":293745,"DIS_CODE":0,"TOWNNAME":"歸仁區","LI":"後市里","LIN":"14鄰","STREET":"中山路","SECT":"二段","MAREA":" ","LANE":" ","ALLEY":" ","HOUSE_NO":"１９３號","E_COORD97":177175.48999999999,"N_COORD97":2540817.25,"ADDRESS":"中山路二段１９３號","OBJECTID":293737},"geometry":{"x":177175.49000000022,"y":2540817.25}},{"attributes":{"ID":293746,"DIS_CODE":0,"TOWNNAME":"歸仁區","LI":"南興里","LIN":"14鄰","STREET":"文化十八街","SECT":" ","MAREA":" ","LANE":" ","ALLEY":" ","HOUSE_NO":"２７號","E_COORD97":175849.98999999999,"N_COORD97":2541273.3300000001,"ADDRESS":"文化十八街２７號","OBJECTID":293738},"geometry":{"x":175849.99000000022,"y":2541273.3300000019}},{"attributes":{"ID":293747,"DIS_CODE":0,"TOWNNAME":"歸仁區","LI":"後市里","LIN":"14鄰","STREET":"大吉一街","SECT":" ","MAREA":" ","LANE":" ","ALLEY":" ","HOUSE_NO":"５號","E_COORD97":177188.76000000001,"N_COORD97":2540745.25,"ADDRESS":"大吉一街５號","OBJECTID":293739},"geometry":{"x":177188.75999999978,"y":2540745.2500000019}},{"attributes":{"ID":293748,"DIS_CODE":0,"TOWNNAME":"歸仁區","LI":"後市里","LIN":"14鄰","STREET":"中山路","SECT":"二段","MAREA":" ","LANE":" ","ALLEY":" ","HOUSE_NO":"１９９號","E_COORD97":177159.09,"N_COORD97":2540818.25,"ADDRESS":"中山路二段１９９號","OBJECTID":293740},"geometry":{"x":177159.08999999985,"y":2540818.25}},{"attributes":{"ID":293749,"DIS_CODE":0,"TOWNNAME":"歸仁區","LI":"南興里","LIN":"14鄰","STREET":"文化十八街","SECT":" ","MAREA":" ","LANE":" ","ALLEY":" ","HOUSE_NO":"２１號","E_COORD97":175844.69,"N_COORD97":2541248.3300000001,"ADDRESS":"文化十八街２１號","OBJECTID":293741},"geometry":{"x":175844.69000000134,"y":2541248.3300000001}},{"attributes":{"ID":293750,"DIS_CODE":0,"TOWNNAME":"歸仁區","LI":"南興里","LIN":"14鄰","STREET":"文化十八街","SECT":" ","MAREA":" ","LANE":" ","ALLEY":" ","HOUSE_NO":"３１號","E_COORD97":175848.98999999999,"N_COORD97":2541290.3300000001,"ADDRESS":"文化十八街３１號","OBJECTID":293742},"geometry":{"x":175848.99000000115,"y":2541290.3300000019}},{"attributes":{"ID":293751,"DIS_CODE":0,"TOWNNAME":"永康區","LI":"東灣里","LIN":"20鄰","STREET":"大灣三街","SECT":" ","MAREA":" ","LANE":"７３巷","ALLEY":" ","HOUSE_NO":"４３號","E_COORD97":174851.73999999999,"N_COORD97":2544860.3599999999,"ADDRESS":"大灣三街７３巷４３號","OBJECTID":293743},"geometry":{"x":174851.74000000022,"y":2544860.3599999994}},{"attributes":{"ID":293752,"DIS_CODE":0,"TOWNNAME":"永康區","LI":"東灣里","LIN":"32鄰","STREET":"大灣一街","SECT":" ","MAREA":" ","LANE":"３３６巷","ALLEY":" ","HOUSE_NO":"２１號","E_COORD97":175122.89000000001,"N_COORD97":2544701.3999999999,"ADDRESS":"大灣一街３３６巷２１號","OBJECTID":293744},"geometry":{"x":175122.88999999966,"y":2544701.4000000022}},{"attributes":{"ID":293753,"DIS_CODE":0,"TOWNNAME":"永康區","LI":"西勢里","LIN":"25鄰","STREET":"廣興街","SECT":" ","MAREA":" ","LANE":"２６巷","ALLEY":" ","HOUSE_NO":"７２號","E_COORD97":175992.51000000001,"N_COORD97":2546391.2400000002,"ADDRESS":"廣興街２６巷７２號","OBJECTID":293745},"geometry":{"x":175992.51000000071,"y":2546391.2400000002}},{"attributes":{"ID":293754,"DIS_CODE":0,"TOWNNAME":"永康區","LI":"西橋里","LIN":"5鄰","STREET":"中山南路","SECT":" ","MAREA":" ","LANE":"４３巷","ALLEY":" ","HOUSE_NO":"３０號","E_COORD97":170711.10000000001,"N_COORD97":2545933,"ADDRESS":"中山南路４３巷３０號","OBJECTID":293746},"geometry":{"x":170711.10000000056,"y":2545933.0000000037}},{"attributes":{"ID":293755,"DIS_CODE":0,"TOWNNAME":"永康區","LI":"正強里","LIN":"38鄰","STREET":"正強街","SECT":" ","MAREA":" ","LANE":"３０５巷","ALLEY":" ","HOUSE_NO":"２２號","E_COORD97":173210.62,"N_COORD97":2548074.2400000002,"ADDRESS":"正強街３０５巷２２號","OBJECTID":293747},"geometry":{"x":173210.62000000104,"y":2548074.2400000039}},{"attributes":{"ID":293756,"DIS_CODE":0,"TOWNNAME":"永康區","LI":"崑山里","LIN":"25鄰","STREET":"大灣路","SECT":" ","MAREA":" ","LANE":"９４２巷","ALLEY":" ","HOUSE_NO":"９２號","E_COORD97":173715.10999999999,"N_COORD97":2544722.29,"ADDRESS":"大灣路９４２巷９２號","OBJECTID":293748},"geometry":{"x":173715.11000000034,"y":2544722.2899999991}},{"attributes":{"ID":293757,"DIS_CODE":0,"TOWNNAME":"永康區","LI":"尚頂里","LIN":"25鄰","STREET":"中正南路","SECT":" ","MAREA":" ","LANE":"２１０巷","ALLEY":" ","HOUSE_NO":"３０號","E_COORD97":170200.26000000001,"N_COORD97":2547141.75,"ADDRESS":"中正南路２１０巷３０號","OBJECTID":293749},"geometry":{"x":170200.26000000071,"y":2547141.7500000037}},{"attributes":{"ID":293758,"DIS_CODE":0,"TOWNNAME":"永康區","LI":"西勢里","LIN":"5鄰","STREET":"富強路","SECT":"一段","MAREA":" ","LANE":"３２１巷","ALLEY":" ","HOUSE_NO":"４３之１號","E_COORD97":175563.73999999999,"N_COORD97":2546720.1800000002,"ADDRESS":"富強路一段３２１巷４３之１號","OBJECTID":293750},"geometry":{"x":175563.74000000022,"y":2546720.1799999997}},{"attributes":{"ID":293759,"DIS_CODE":0,"TOWNNAME":"永康區","LI":"永康里","LIN":"18鄰","STREET":"永中街","SECT":" ","MAREA":" ","LANE":"１３８巷","ALLEY":" ","HOUSE_NO":"２號","E_COORD97":173996.39000000001,"N_COORD97":2547264.3900000001,"ADDRESS":"永中街１３８巷２號","OBJECTID":293751},"geometry":{"x":173996.3900000006,"y":2547264.3900000025}},{"attributes":{"ID":293760,"DIS_CODE":0,"TOWNNAME":"東區","LI":"小東里","LIN":"17鄰","STREET":"光明街","SECT":" ","MAREA":" ","LANE":"１０２巷","ALLEY":" ","HOUSE_NO":"６號九樓","E_COORD97":170886,"N_COORD97":2544075.3700000001,"ADDRESS":"光明街１０２巷６號九樓","OBJECTID":293752},"geometry":{"x":170886,"y":2544075.3700000029}},{"attributes":{"ID":293761,"DIS_CODE":0,"TOWNNAME":"東區","LI":"小東里","LIN":"17鄰","STREET":"光明街","SECT":" ","MAREA":" ","LANE":"１０２巷","ALLEY":" ","HOUSE_NO":"６號十樓","E_COORD97":170886,"N_COORD97":2544075.3700000001,"ADDRESS":"光明街１０２巷６號十樓","OBJECTID":293753},"geometry":{"x":170886,"y":2544075.3700000029}},{"attributes":{"ID":293762,"DIS_CODE":0,"TOWNNAME":"歸仁區","LI":"看東里","LIN":"14鄰","STREET":"中山一街","SECT":" ","MAREA":" ","LANE":" ","ALLEY":" ","HOUSE_NO":"１０號","E_COORD97":178605.94,"N_COORD97":2540590.6400000001,"ADDRESS":"中山一街１０號","OBJECTID":293754},"geometry":{"x":178605.94000000134,"y":2540590.6400000025}},{"attributes":{"ID":293763,"DIS_CODE":0,"TOWNNAME":"歸仁區","LI":"後市里","LIN":"14鄰","STREET":"中山路","SECT":"二段","MAREA":" ","LANE":" ","ALLEY":" ","HOUSE_NO":"１８５號","E_COORD97":177191.89000000001,"N_COORD97":2540815.25,"ADDRESS":"中山路二段１８５號","OBJECTID":293755},"geometry":{"x":177191.8900000006,"y":2540815.2500000037}},{"attributes":{"ID":293764,"DIS_CODE":0,"TOWNNAME":"歸仁區","LI":"後市里","LIN":"14鄰","STREET":"大吉一街","SECT":" ","MAREA":" ","LANE":" ","ALLEY":" ","HOUSE_NO":"１０號","E_COORD97":177177.81,"N_COORD97":2540760.25,"ADDRESS":"大吉一街１０號","OBJECTID":293756},"geometry":{"x":177177.80999999959,"y":2540760.25}},{"attributes":{"ID":293765,"DIS_CODE":0,"TOWNNAME":"歸仁區","LI":"南興里","LIN":"14鄰","STREET":"文化十八街","SECT":" ","MAREA":" ","LANE":" ","ALLEY":" ","HOUSE_NO":"２３號","E_COORD97":175843.69,"N_COORD97":2541252.3300000001,"ADDRESS":"文化十八街２３號","OBJECTID":293757},"geometry":{"x":175843.69000000041,"y":2541252.3300000038}},{"attributes":{"ID":293766,"DIS_CODE":0,"TOWNNAME":"歸仁區","LI":"六甲里","LIN":"14鄰","STREET":"六甲一街","SECT":" ","MAREA":" ","LANE":" ","ALLEY":" ","HOUSE_NO":"２５號","E_COORD97":175851.57000000001,"N_COORD97":2539143.25,"ADDRESS":"六甲一街２５號","OBJECTID":293758},"geometry":{"x":175851.56999999937,"y":2539143.25}},{"attributes":{"ID":293767,"DIS_CODE":0,"TOWNNAME":"歸仁區","LI":"六甲里","LIN":"14鄰","STREET":"六甲一街","SECT":" ","MAREA":" ","LANE":" ","ALLEY":" ","HOUSE_NO":"１５號","E_COORD97":175851.67000000001,"N_COORD97":2539163.25,"ADDRESS":"六甲一街１５號","OBJECTID":293759},"geometry":{"x":175851.66999999993,"y":2539163.25}},{"attributes":{"ID":293768,"DIS_CODE":0,"TOWNNAME":"歸仁區","LI":"後市里","LIN":"14鄰","STREET":"中山路","SECT":"二段","MAREA":" ","LANE":" ","ALLEY":" ","HOUSE_NO":"１９５號","E_COORD97":177171.39000000001,"N_COORD97":2540818.25,"ADDRESS":"中山路二段１９５號","OBJECTID":293760},"geometry":{"x":177171.3900000006,"y":2540818.25}},{"attributes":{"ID":293769,"DIS_CODE":0,"TOWNNAME":"歸仁區","LI":"後市里","LIN":"14鄰","STREET":"中山路","SECT":"二段","MAREA":" ","LANE":" ","ALLEY":" ","HOUSE_NO":"２０７號","E_COORD97":177137.59,"N_COORD97":2540820.25,"ADDRESS":"中山路二段２０７號","OBJECTID":293761},"geometry":{"x":177137.58999999892,"y":2540820.2500000019}},{"attributes":{"ID":293770,"DIS_CODE":0,"TOWNNAME":"歸仁區","LI":"南興里","LIN":"14鄰","STREET":"文化十八街","SECT":" ","MAREA":" ","LANE":" ","ALLEY":" ","HOUSE_NO":"１５號","E_COORD97":175845.69,"N_COORD97":2541235.3300000001,"ADDRESS":"文化十八街１５號","OBJECTID":293762},"geometry":{"x":175845.69000000041,"y":2541235.3300000038}},{"attributes":{"ID":293771,"DIS_CODE":0,"TOWNNAME":"歸仁區","LI":"看東里","LIN":"14鄰","STREET":"中山路","SECT":"一段","MAREA":" ","LANE":" ","ALLEY":" ","HOUSE_NO":"２９７號","E_COORD97":178532.84,"N_COORD97":2540634.6499999999,"ADDRESS":"中山路一段２９７號","OBJECTID":293763},"geometry":{"x":178532.84000000171,"y":2540634.6500000022}},{"attributes":{"ID":293772,"DIS_CODE":0,"TOWNNAME":"永康區","LI":"西灣里","LIN":"46鄰","STREET":"永華路","SECT":" ","MAREA":" ","LANE":"２３３巷","ALLEY":" ","HOUSE_NO":"３７號","E_COORD97":173973.70000000001,"N_COORD97":2545749.7400000002,"ADDRESS":"永華路２３３巷３７號","OBJECTID":293764},"geometry":{"x":173973.70000000019,"y":2545749.7400000021}},{"attributes":{"ID":293773,"DIS_CODE":0,"TOWNNAME":"永康區","LI":"南灣里","LIN":"26鄰","STREET":"立興街","SECT":" ","MAREA":" ","LANE":"７４巷","ALLEY":" ","HOUSE_NO":"２２號","E_COORD97":174519.98000000001,"N_COORD97":2544836.1400000001,"ADDRESS":"立興街７４巷２２號","OBJECTID":293765},"geometry":{"x":174519.98000000231,"y":2544836.1400000006}},{"attributes":{"ID":293774,"DIS_CODE":0,"TOWNNAME":"永康區","LI":"中興里","LIN":"5鄰","STREET":"中華路","SECT":" ","MAREA":" ","LANE":"２１４巷","ALLEY":" ","HOUSE_NO":"５８號","E_COORD97":171831.22,"N_COORD97":2545058,"ADDRESS":"中華路２１４巷５８號","OBJECTID":293766},"geometry":{"x":171831.22000000067,"y":2545058}},{"attributes":{"ID":293775,"DIS_CODE":0,"TOWNNAME":"永康區","LI":"東灣里","LIN":"18鄰","STREET":"大灣三街","SECT":" ","MAREA":" ","LANE":"２１巷","ALLEY":" ","HOUSE_NO":"５２號","E_COORD97":175024.51999999999,"N_COORD97":2544817.4900000002,"ADDRESS":"大灣三街２１巷５２號","OBJECTID":293767},"geometry":{"x":175024.52000000048,"y":2544817.4900000002}},{"attributes":{"ID":293776,"DIS_CODE":0,"TOWNNAME":"永康區","LI":"網寮里","LIN":"26鄰","STREET":"永興路","SECT":" ","MAREA":" ","LANE":"１０５巷","ALLEY":" ","HOUSE_NO":"１７號","E_COORD97":173933.28,"N_COORD97":2546524.3100000001,"ADDRESS":"永興路１０５巷１７號","OBJECTID":293768},"geometry":{"x":173933.28000000119,"y":2546524.3100000005}},{"attributes":{"ID":293777,"DIS_CODE":0,"TOWNNAME":"永康區","LI":"東灣里","LIN":"26鄰","STREET":"大灣一街","SECT":" ","MAREA":" ","LANE":"２２０巷","ALLEY":" ","HOUSE_NO":"１０號","E_COORD97":174898.19,"N_COORD97":2544554.1200000001,"ADDRESS":"大灣一街２２０巷１０號","OBJECTID":293769},"geometry":{"x":174898.18999999948,"y":2544554.1200000029}},{"attributes":{"ID":293778,"DIS_CODE":0,"TOWNNAME":"永康區","LI":"西勢里","LIN":"25鄰","STREET":"廣興街","SECT":" ","MAREA":" ","LANE":"２６巷","ALLEY":" ","HOUSE_NO":"５２號","E_COORD97":175962.97,"N_COORD97":2546419.25,"ADDRESS":"廣興街２６巷５２號","OBJECTID":293770},"geometry":{"x":175962.96999999974,"y":2546419.25}},{"attributes":{"ID":293779,"DIS_CODE":0,"TOWNNAME":"永康區","LI":"西灣里","LIN":"39鄰","STREET":"永華路","SECT":" ","MAREA":" ","LANE":"２１２巷","ALLEY":" ","HOUSE_NO":"６號","E_COORD97":174139.31,"N_COORD97":2545468.7400000002,"ADDRESS":"永華路２１２巷６號","OBJECTID":293771},"geometry":{"x":174139.31000000052,"y":2545468.7400000021}},{"attributes":{"ID":293780,"DIS_CODE":0,"TOWNNAME":"永康區","LI":"北灣里","LIN":"4鄰","STREET":"信義街","SECT":" ","MAREA":" ","LANE":"１２９巷","ALLEY":" ","HOUSE_NO":"１號","E_COORD97":175203.64000000001,"N_COORD97":2545611.21,"ADDRESS":"信義街１２９巷１號","OBJECTID":293772},"geometry":{"x":175203.6400000006,"y":2545611.2100000028}},{"attributes":{"ID":293781,"DIS_CODE":0,"TOWNNAME":"永康區","LI":"永康里","LIN":"26鄰","STREET":"永明街","SECT":" ","MAREA":" ","LANE":"６９巷","ALLEY":" ","HOUSE_NO":"１６號","E_COORD97":174198.29000000001,"N_COORD97":2547294.4900000002,"ADDRESS":"永明街６９巷１６號","OBJECTID":293773},"geometry":{"x":174198.29000000004,"y":2547294.4900000021}},{"attributes":{"ID":293782,"DIS_CODE":0,"TOWNNAME":"永康區","LI":"尚頂里","LIN":"26鄰","STREET":"南台街","SECT":" ","MAREA":" ","LANE":"２６巷","ALLEY":" ","HOUSE_NO":"１２號","E_COORD97":170432.64999999999,"N_COORD97":2547014.9900000002,"ADDRESS":"南台街２６巷１２號","OBJECTID":293774},"geometry":{"x":170432.65000000037,"y":2547014.9900000039}},{"attributes":{"ID":293783,"DIS_CODE":0,"TOWNNAME":"永康區","LI":"甲頂里","LIN":"13鄰","STREET":"大武街","SECT":" ","MAREA":" ","LANE":"１８巷","ALLEY":" ","HOUSE_NO":"１２號","E_COORD97":170328.62,"N_COORD97":2546641.5899999999,"ADDRESS":"大武街１８巷１２號","OBJECTID":293775},"geometry":{"x":170328.62000000104,"y":2546641.5900000017}},{"attributes":{"ID":293784,"DIS_CODE":0,"TOWNNAME":"東區","LI":"小東里","LIN":"17鄰","STREET":"光明街","SECT":" ","MAREA":" ","LANE":"１０２巷","ALLEY":" ","HOUSE_NO":"６號十一樓","E_COORD97":170886,"N_COORD97":2544075.3700000001,"ADDRESS":"光明街１０２巷６號十一樓","OBJECTID":293776},"geometry":{"x":170886,"y":2544075.3700000029}},{"attributes":{"ID":293785,"DIS_CODE":0,"TOWNNAME":"東區","LI":"小東里","LIN":"17鄰","STREET":"光明街","SECT":" ","MAREA":" ","LANE":"１０２巷","ALLEY":" ","HOUSE_NO":"６號十二樓","E_COORD97":170886,"N_COORD97":2544075.3700000001,"ADDRESS":"光明街１０２巷６號十二樓","OBJECTID":293777},"geometry":{"x":170886,"y":2544075.3700000029}},{"attributes":{"ID":293786,"DIS_CODE":0,"TOWNNAME":"歸仁區","LI":"南興里","LIN":"14鄰","STREET":"文化街","SECT":"三段","MAREA":" ","LANE":" ","ALLEY":" ","HOUSE_NO":"５２８號","E_COORD97":175791.44,"N_COORD97":2541215.3300000001,"ADDRESS":"文化街三段５２８號","OBJECTID":293778},"geometry":{"x":175791.44000000041,"y":2541215.3300000019}},{"attributes":{"ID":293787,"DIS_CODE":0,"TOWNNAME":"歸仁區","LI":"大廟里","LIN":"14鄰","STREET":"大廟六街","SECT":" ","MAREA":" ","LANE":" ","ALLEY":" ","HOUSE_NO":"２１２號","E_COORD97":176397.62,"N_COORD97":2544434.25,"ADDRESS":"大廟六街２１２號","OBJECTID":293779},"geometry":{"x":176397.62000000104,"y":2544434.2500000019}},{"attributes":{"ID":293788,"DIS_CODE":0,"TOWNNAME":"歸仁區","LI":"看東里","LIN":"14鄰","STREET":"中山路","SECT":"一段","MAREA":" ","LANE":" ","ALLEY":" ","HOUSE_NO":"２９５號","E_COORD97":178537.94,"N_COORD97":2540633.6499999999,"ADDRESS":"中山路一段２９５號","OBJECTID":293780},"geometry":{"x":178537.94000000227,"y":2540633.6500000022}},{"attributes":{"ID":293789,"DIS_CODE":0,"TOWNNAME":"歸仁區","LI":"後市里","LIN":"14鄰","STREET":"中山路","SECT":"二段","MAREA":" ","LANE":" ","ALLEY":" ","HOUSE_NO":"２１５號","E_COORD97":177123.19,"N_COORD97":2540823.25,"ADDRESS":"中山路二段２１５號","OBJECTID":293781},"geometry":{"x":177123.19000000134,"y":2540823.2500000019}},{"attributes":{"ID":293790,"DIS_CODE":0,"TOWNNAME":"新營區","LI":"埤寮里","LIN":"14鄰","STREET":"中正路","SECT":" ","MAREA":" ","LANE":" ","ALLEY":" ","HOUSE_NO":"３３６號","E_COORD97":180078.31,"N_COORD97":2580177.0600000001,"ADDRESS":"中正路３３６號","OBJECTID":293782},"geometry":{"x":180078.30999999959,"y":2580177.0600000024}},{"attributes":{"ID":293791,"DIS_CODE":0,"TOWNNAME":"新營區","LI":"南紙里","LIN":"14鄰","STREET":"南紙街","SECT":" ","MAREA":" ","LANE":" ","ALLEY":" ","HOUSE_NO":"９６號","E_COORD97":177777.94,"N_COORD97":2577478.1499999999,"ADDRESS":"南紙街９６號","OBJECTID":293783},"geometry":{"x":177777.94000000041,"y":2577478.1500000022}},{"attributes":{"ID":293792,"DIS_CODE":0,"TOWNNAME":"新營區","LI":"民權里","LIN":"14鄰","STREET":"三民路","SECT":" ","MAREA":" ","LANE":" ","ALLEY":" ","HOUSE_NO":"７９之３號","E_COORD97":179887.19,"N_COORD97":2578441.5299999998,"ADDRESS":"三民路７９之３號","OBJECTID":293784},"geometry":{"x":179887.19000000227,"y":2578441.5299999993}},{"attributes":{"ID":293793,"DIS_CODE":0,"TOWNNAME":"新營區","LI":"南紙里","LIN":"14鄰","STREET":"南紙街","SECT":" ","MAREA":" ","LANE":" ","ALLEY":" ","HOUSE_NO":"１１８號","E_COORD97":177794.37,"N_COORD97":2577439.3100000001,"ADDRESS":"南紙街１１８號","OBJECTID":293785},"geometry":{"x":177794.37000000104,"y":2577439.3100000024}},{"attributes":{"ID":293794,"DIS_CODE":0,"TOWNNAME":"新營區","LI":"南紙里","LIN":"14鄰","STREET":"南紙街","SECT":" ","MAREA":" ","LANE":" ","ALLEY":" ","HOUSE_NO":"１２６號","E_COORD97":177793.28,"N_COORD97":2577426.0099999998,"ADDRESS":"南紙街１２６號","OBJECTID":293786},"geometry":{"x":177793.28000000119,"y":2577426.0100000035}},{"attributes":{"ID":293795,"DIS_CODE":0,"TOWNNAME":"新營區","LI":"南紙里","LIN":"14鄰","STREET":"南紙街","SECT":" ","MAREA":" ","LANE":" ","ALLEY":" ","HOUSE_NO":"１００號","E_COORD97":177789.45000000001,"N_COORD97":2577478.1000000001,"ADDRESS":"南紙街１００號","OBJECTID":293787},"geometry":{"x":177789.45000000019,"y":2577478.0999999996}},{"attributes":{"ID":293796,"DIS_CODE":0,"TOWNNAME":"新營區","LI":"南紙里","LIN":"14鄰","STREET":"南紙街","SECT":" ","MAREA":" ","LANE":" ","ALLEY":" ","HOUSE_NO":"１０８號","E_COORD97":177795.48999999999,"N_COORD97":2577458.1299999999,"ADDRESS":"南紙街１０８號","OBJECTID":293788},"geometry":{"x":177795.49000000115,"y":2577458.1300000027}},{"attributes":{"ID":293797,"DIS_CODE":0,"TOWNNAME":"新營區","LI":"民權里","LIN":"14鄰","STREET":"三民路","SECT":" ","MAREA":" ","LANE":" ","ALLEY":" ","HOUSE_NO":"８５號","E_COORD97":179839.64000000001,"N_COORD97":2578425.0800000001,"ADDRESS":"三民路８５號","OBJECTID":293789},"geometry":{"x":179839.6400000006,"y":2578425.0800000001}},{"attributes":{"ID":293798,"DIS_CODE":0,"TOWNNAME":"新營區","LI":"南紙里","LIN":"14鄰","STREET":"南紙街","SECT":" ","MAREA":" ","LANE":" ","ALLEY":" ","HOUSE_NO":"１５０號","E_COORD97":177790,"N_COORD97":2577381.75,"ADDRESS":"南紙街１５０號","OBJECTID":293790},"geometry":{"x":177790.00000000093,"y":2577381.7500000019}},{"attributes":{"ID":293799,"DIS_CODE":0,"TOWNNAME":"新營區","LI":"大宏里","LIN":"19鄰","STREET":"三民路","SECT":" ","MAREA":" ","LANE":" ","ALLEY":" ","HOUSE_NO":"３６之４２號","E_COORD97":180455.37887700001,"N_COORD97":2578537.52984,"ADDRESS":"三民路３６之４２號","OBJECTID":293791},"geometry":{"x":180455.37887699995,"y":2578537.5298440028}},{"attributes":{"ID":293800,"DIS_CODE":0,"TOWNNAME":"永康區","LI":"正強里","LIN":"43鄰","STREET":"中正路","SECT":" ","MAREA":" ","LANE":"２５６巷","ALLEY":" ","HOUSE_NO":"３號之５４","E_COORD97":173149.16,"N_COORD97":2547954.29,"ADDRESS":"中正路２５６巷３號之５４","OBJECTID":293792},"geometry":{"x":173149.16000000108,"y":2547954.2900000028}},{"attributes":{"ID":293801,"DIS_CODE":0,"TOWNNAME":"永康區","LI":"西灣里","LIN":"25鄰","STREET":"國光七街","SECT":" ","MAREA":" ","LANE":"２０巷","ALLEY":" ","HOUSE_NO":"３８號","E_COORD97":174340.09,"N_COORD97":2545622.0099999998,"ADDRESS":"國光七街２０巷３８號","OBJECTID":293793},"geometry":{"x":174340.08999999985,"y":2545622.0100000016}},{"attributes":{"ID":293802,"DIS_CODE":0,"TOWNNAME":"永康區","LI":"北灣里","LIN":"4鄰","STREET":"信義街","SECT":" ","MAREA":" ","LANE":"４４巷","ALLEY":" ","HOUSE_NO":"１６號","E_COORD97":175487.20999999999,"N_COORD97":2545720.4199999999,"ADDRESS":"信義街４４巷１６號","OBJECTID":293794},"geometry":{"x":175487.20999999996,"y":2545720.4200000018}},{"attributes":{"ID":293803,"DIS_CODE":0,"TOWNNAME":"永康區","LI":"正強里","LIN":"46鄰","STREET":"中正路","SECT":" ","MAREA":" ","LANE":"２５６巷","ALLEY":" ","HOUSE_NO":"９號之１４","E_COORD97":173207.07999999999,"N_COORD97":2547991.8799999999,"ADDRESS":"中正路２５６巷９號之１４","OBJECTID":293795},"geometry":{"x":173207.08000000101,"y":2547991.8800000008}},{"attributes":{"ID":293804,"DIS_CODE":0,"TOWNNAME":"永康區","LI":"正強里","LIN":"38鄰","STREET":"正強街","SECT":" ","MAREA":" ","LANE":"３０５巷","ALLEY":" ","HOUSE_NO":"２８號","E_COORD97":173201.04999999999,"N_COORD97":2548072.2400000002,"ADDRESS":"正強街３０５巷２８號","OBJECTID":293796},"geometry":{"x":173201.04999999981,"y":2548072.2400000021}},{"attributes":{"ID":293805,"DIS_CODE":0,"TOWNNAME":"永康區","LI":"南灣里","LIN":"26鄰","STREET":"立興街","SECT":" ","MAREA":" ","LANE":"７４巷","ALLEY":" ","HOUSE_NO":"２７號","E_COORD97":174476.14000000001,"N_COORD97":2544830.04,"ADDRESS":"立興街７４巷２７號","OBJECTID":293797},"geometry":{"x":174476.1400000006,"y":2544830.0400000028}},{"attributes":{"ID":293806,"DIS_CODE":0,"TOWNNAME":"永康區","LI":"崑山里","LIN":"26鄰","STREET":"大灣路","SECT":" ","MAREA":" ","LANE":"９４２巷","ALLEY":" ","HOUSE_NO":"７３號","E_COORD97":173653.64000000001,"N_COORD97":2544599.2599999998,"ADDRESS":"大灣路９４２巷７３號","OBJECTID":293798},"geometry":{"x":173653.64000000153,"y":2544599.2600000016}},{"attributes":{"ID":293807,"DIS_CODE":0,"TOWNNAME":"永康區","LI":"五王里","LIN":"39鄰","STREET":"中華路","SECT":" ","MAREA":" ","LANE":"５７８巷","ALLEY":" ","HOUSE_NO":"１７號之１０３","E_COORD97":171334.92000000001,"N_COORD97":2545989.54,"ADDRESS":"中華路５７８巷１７號之１０３","OBJECTID":293799},"geometry":{"x":171334.92000000086,"y":2545989.5400000028}},{"attributes":{"ID":293808,"DIS_CODE":0,"TOWNNAME":"永康區","LI":"蔦松里","LIN":"4鄰","STREET":"蔦松二街","SECT":" ","MAREA":" ","LANE":"１６２巷","ALLEY":" ","HOUSE_NO":"２１號之１","E_COORD97":173923.06,"N_COORD97":2549372.54,"ADDRESS":"蔦松二街１６２巷２１號之１","OBJECTID":293800},"geometry":{"x":173923.05999999959,"y":2549372.5399999991}}]}