{"displayFieldName":"TOWNNAME","fieldAliases":{"ID":"ID","DIS_CODE":"DIS_CODE","TOWNNAME":"TOWNNAME","LI":"LI","LIN":"LIN","STREET":"STREET","SECT":"SECT","MAREA":"MAREA","LANE":"LANE","ALLEY":"ALLEY","HOUSE_NO":"HOUSE_NO","E_COORD97":"E_COORD97","N_COORD97":"N_COORD97","ADDRESS":"ADDRESS","OBJECTID":"OBJECTID"},"geometryType":"esriGeometryPoint","spatialReference":{"wkid":102443,"latestWkid":3826},"fields":[{"name":"ID","type":"esriFieldTypeDouble","alias":"ID"},{"name":"DIS_CODE","type":"esriFieldTypeInteger","alias":"DIS_CODE"},{"name":"TOWNNAME","type":"esriFieldTypeString","alias":"TOWNNAME","length":8},{"name":"LI","type":"esriFieldTypeString","alias":"LI","length":8},{"name":"LIN","type":"esriFieldTypeString","alias":"LIN","length":12},{"name":"STREET","type":"esriFieldTypeString","alias":"STREET","length":20},{"name":"SECT","type":"esriFieldTypeString","alias":"SECT","length":8},{"name":"MAREA","type":"esriFieldTypeString","alias":"MAREA","length":12},{"name":"LANE","type":"esriFieldTypeString","alias":"LANE","length":10},{"name":"ALLEY","type":"esriFieldTypeString","alias":"ALLEY","length":10},{"name":"HOUSE_NO","type":"esriFieldTypeString","alias":"HOUSE_NO","length":20},{"name":"E_COORD97","type":"esriFieldTypeDouble","alias":"E_COORD97"},{"name":"N_COORD97","type":"esriFieldTypeDouble","alias":"N_COORD97"},{"name":"ADDRESS","type":"esriFieldTypeString","alias":"ADDRESS","length":50},{"name":"OBJECTID","type":"esriFieldTypeOID","alias":"OBJECTID"}],"features":[{"attributes":{"ID":28801,"DIS_CODE":0,"TOWNNAME":"麻豆區","LI":"北勢里","LIN":"14鄰","STREET":" ","SECT":" ","MAREA":"北勢寮","LANE":" ","ALLEY":" ","HOUSE_NO":"４７號之１","E_COORD97":171421.73000000001,"N_COORD97":2567698.25,"ADDRESS":"北勢寮４７號之１","OBJECTID":28801},"geometry":{"x":171421.73000000138,"y":2567698.2500000019}},{"attributes":{"ID":28802,"DIS_CODE":0,"TOWNNAME":"麻豆區","LI":"北勢里","LIN":"14鄰","STREET":" ","SECT":" ","MAREA":"北勢寮","LANE":" ","ALLEY":" ","HOUSE_NO":"４７號之２","E_COORD97":171397.60000000001,"N_COORD97":2567738.04,"ADDRESS":"北勢寮４７號之２","OBJECTID":28802},"geometry":{"x":171397.60000000149,"y":2567738.0399999991}},{"attributes":{"ID":28803,"DIS_CODE":0,"TOWNNAME":"麻豆區","LI":"北勢里","LIN":"14鄰","STREET":" ","SECT":" ","MAREA":"北勢寮","LANE":" ","ALLEY":" ","HOUSE_NO":"４７號之３","E_COORD97":171416.09,"N_COORD97":2567727.52,"ADDRESS":"北勢寮４７號之３","OBJECTID":28803},"geometry":{"x":171416.08999999985,"y":2567727.5199999996}},{"attributes":{"ID":28804,"DIS_CODE":0,"TOWNNAME":"麻豆區","LI":"北勢里","LIN":"14鄰","STREET":" ","SECT":" ","MAREA":"北勢寮","LANE":" ","ALLEY":" ","HOUSE_NO":"４７號之４","E_COORD97":171415.95000000001,"N_COORD97":2567731.8700000001,"ADDRESS":"北勢寮４７號之４","OBJECTID":28804},"geometry":{"x":171415.94999999925,"y":2567731.8700000048}},{"attributes":{"ID":28805,"DIS_CODE":0,"TOWNNAME":"佳里區","LI":"通興里","LIN":"7鄰","STREET":" ","SECT":" ","MAREA":"埔頂","LANE":" ","ALLEY":" ","HOUSE_NO":"６號之２","E_COORD97":163637.67999999999,"N_COORD97":2560531.4900000002,"ADDRESS":"埔頂６號之２","OBJECTID":28805},"geometry":{"x":163637.6799999997,"y":2560531.4900000002}},{"attributes":{"ID":28806,"DIS_CODE":0,"TOWNNAME":"麻豆區","LI":"北勢里","LIN":"14鄰","STREET":" ","SECT":" ","MAREA":"北勢寮","LANE":" ","ALLEY":" ","HOUSE_NO":"４７號","E_COORD97":171424.39000000001,"N_COORD97":2567711.5,"ADDRESS":"北勢寮４７號","OBJECTID":28806},"geometry":{"x":171424.39000000153,"y":2567711.5}},{"attributes":{"ID":28807,"DIS_CODE":0,"TOWNNAME":"麻豆區","LI":"北勢里","LIN":"14鄰","STREET":" ","SECT":" ","MAREA":"北勢寮","LANE":" ","ALLEY":" ","HOUSE_NO":"４８號","E_COORD97":171424.94,"N_COORD97":2567690.3700000001,"ADDRESS":"北勢寮４８號","OBJECTID":28807},"geometry":{"x":171424.94000000227,"y":2567690.370000001}},{"attributes":{"ID":28808,"DIS_CODE":0,"TOWNNAME":"麻豆區","LI":"北勢里","LIN":"14鄰","STREET":" ","SECT":" ","MAREA":"北勢寮","LANE":" ","ALLEY":" ","HOUSE_NO":"４９號","E_COORD97":171437.54000000001,"N_COORD97":2567676.04,"ADDRESS":"北勢寮４９號","OBJECTID":28808},"geometry":{"x":171437.54000000097,"y":2567676.0399999991}},{"attributes":{"ID":28809,"DIS_CODE":0,"TOWNNAME":"麻豆區","LI":"北勢里","LIN":"14鄰","STREET":" ","SECT":" ","MAREA":"北勢寮","LANE":" ","ALLEY":" ","HOUSE_NO":"５２號","E_COORD97":171432.12,"N_COORD97":2567658.6600000001,"ADDRESS":"北勢寮５２號","OBJECTID":28809},"geometry":{"x":171432.12000000104,"y":2567658.660000002}},{"attributes":{"ID":28810,"DIS_CODE":0,"TOWNNAME":"麻豆區","LI":"安西里","LIN":"8鄰","STREET":" ","SECT":" ","MAREA":"安業","LANE":" ","ALLEY":" ","HOUSE_NO":"２７２號之２","E_COORD97":172604.17000000001,"N_COORD97":2562320.1699999999,"ADDRESS":"安業２７２號之２","OBJECTID":28810},"geometry":{"x":172604.16999999993,"y":2562320.1699999999}},{"attributes":{"ID":28811,"DIS_CODE":0,"TOWNNAME":"麻豆區","LI":"安西里","LIN":"8鄰","STREET":" ","SECT":" ","MAREA":"安業","LANE":" ","ALLEY":" ","HOUSE_NO":"２７２號之３","E_COORD97":172652.35999999999,"N_COORD97":2562382.1899999999,"ADDRESS":"安業２７２號之３","OBJECTID":28811},"geometry":{"x":172652.36000000034,"y":2562382.1900000013}},{"attributes":{"ID":28812,"DIS_CODE":0,"TOWNNAME":"麻豆區","LI":"安西里","LIN":"8鄰","STREET":" ","SECT":" ","MAREA":"安業","LANE":" ","ALLEY":" ","HOUSE_NO":"２７２號之６","E_COORD97":172690.47,"N_COORD97":2562461.79,"ADDRESS":"安業２７２號之６","OBJECTID":28812},"geometry":{"x":172690.47000000067,"y":2562461.7900000028}},{"attributes":{"ID":28813,"DIS_CODE":0,"TOWNNAME":"麻豆區","LI":"安西里","LIN":"8鄰","STREET":" ","SECT":" ","MAREA":"安業","LANE":" ","ALLEY":" ","HOUSE_NO":"２７２號之７","E_COORD97":172696.97,"N_COORD97":2562478.3399999999,"ADDRESS":"安業２７２號之７","OBJECTID":28813},"geometry":{"x":172696.9700000016,"y":2562478.3399999999}},{"attributes":{"ID":28814,"DIS_CODE":0,"TOWNNAME":"麻豆區","LI":"安西里","LIN":"8鄰","STREET":" ","SECT":" ","MAREA":"安業","LANE":" ","ALLEY":" ","HOUSE_NO":"２７２號","E_COORD97":172545.89000000001,"N_COORD97":2562292.1000000001,"ADDRESS":"安業２７２號","OBJECTID":28814},"geometry":{"x":172545.88999999966,"y":2562292.1000000015}},{"attributes":{"ID":28815,"DIS_CODE":0,"TOWNNAME":"麻豆區","LI":"安東里","LIN":"8鄰","STREET":" ","SECT":" ","MAREA":"安業","LANE":" ","ALLEY":" ","HOUSE_NO":"２７３號之１","E_COORD97":172832.31,"N_COORD97":2562438.29,"ADDRESS":"安業２７３號之１","OBJECTID":28815},"geometry":{"x":172832.31000000052,"y":2562438.290000001}},{"attributes":{"ID":28816,"DIS_CODE":0,"TOWNNAME":"新市區","LI":"大社里","LIN":"14鄰","STREET":" ","SECT":" ","MAREA":"大社","LANE":" ","ALLEY":" ","HOUSE_NO":"５３０號之１","E_COORD97":179831.35999999999,"N_COORD97":2554747.7999999998,"ADDRESS":"大社５３０號之１","OBJECTID":28816},"geometry":{"x":179831.36000000034,"y":2554747.8000000026}},{"attributes":{"ID":28817,"DIS_CODE":0,"TOWNNAME":"新市區","LI":"潭頂里","LIN":"14鄰","STREET":" ","SECT":" ","MAREA":"潭頂","LANE":" ","ALLEY":" ","HOUSE_NO":"５６０號","E_COORD97":179966.84,"N_COORD97":2553045.5,"ADDRESS":"潭頂５６０號","OBJECTID":28817},"geometry":{"x":179966.83999999985,"y":2553045.5}},{"attributes":{"ID":28818,"DIS_CODE":0,"TOWNNAME":"新市區","LI":"大社里","LIN":"14鄰","STREET":" ","SECT":" ","MAREA":"大社","LANE":" ","ALLEY":" ","HOUSE_NO":"５３０之１０號","E_COORD97":179869.01000000001,"N_COORD97":2554760.0499999998,"ADDRESS":"大社５３０之１０號","OBJECTID":28818},"geometry":{"x":179869.00999999885,"y":2554760.0500000026}},{"attributes":{"ID":28819,"DIS_CODE":0,"TOWNNAME":"新市區","LI":"大社里","LIN":"14鄰","STREET":" ","SECT":" ","MAREA":"大社","LANE":" ","ALLEY":" ","HOUSE_NO":"５１８之５號","E_COORD97":179903.51000000001,"N_COORD97":2554772.2999999998,"ADDRESS":"大社５１８之５號","OBJECTID":28819},"geometry":{"x":179903.51000000071,"y":2554772.3000000007}},{"attributes":{"ID":28820,"DIS_CODE":0,"TOWNNAME":"新市區","LI":"潭頂里","LIN":"14鄰","STREET":" ","SECT":" ","MAREA":"潭頂","LANE":" ","ALLEY":" ","HOUSE_NO":"５４５號","E_COORD97":180201.34,"N_COORD97":2552964.25,"ADDRESS":"潭頂５４５號","OBJECTID":28820},"geometry":{"x":180201.34000000078,"y":2552964.2500000019}},{"attributes":{"ID":28821,"DIS_CODE":0,"TOWNNAME":"新市區","LI":"潭頂里","LIN":"14鄰","STREET":" ","SECT":" ","MAREA":"潭頂","LANE":" ","ALLEY":" ","HOUSE_NO":"５４４號","E_COORD97":179991.98000000001,"N_COORD97":2552840.5,"ADDRESS":"潭頂５４４號","OBJECTID":28821},"geometry":{"x":179991.97999999952,"y":2552840.5000000019}},{"attributes":{"ID":28822,"DIS_CODE":0,"TOWNNAME":"東區","LI":"崇誨里","LIN":"17鄰","STREET":"林森路","SECT":"二段","MAREA":" ","LANE":"１９２巷","ALLEY":"３６弄","HOUSE_NO":"７號七樓之１","E_COORD97":170634.28,"N_COORD97":2543304.0800000001,"ADDRESS":"林森路二段１９２巷３６弄７號七樓之１","OBJECTID":28822},"geometry":{"x":170634.28000000119,"y":2543304.0800000001}},{"attributes":{"ID":28823,"DIS_CODE":0,"TOWNNAME":"安定區","LI":"蘇林里","LIN":"14鄰","STREET":" ","SECT":" ","MAREA":"蘇厝","LANE":" ","ALLEY":" ","HOUSE_NO":"１６１號","E_COORD97":173440.92000000001,"N_COORD97":2558906.25,"ADDRESS":"蘇厝１６１號","OBJECTID":28823},"geometry":{"x":173440.91999999993,"y":2558906.2500000037}},{"attributes":{"ID":28824,"DIS_CODE":0,"TOWNNAME":"安定區","LI":"蘇厝里","LIN":"14鄰","STREET":" ","SECT":" ","MAREA":"蘇厝","LANE":" ","ALLEY":" ","HOUSE_NO":"４１０號","E_COORD97":173058.42000000001,"N_COORD97":2558814.25,"ADDRESS":"蘇厝４１０號","OBJECTID":28824},"geometry":{"x":173058.41999999993,"y":2558814.25}},{"attributes":{"ID":28825,"DIS_CODE":0,"TOWNNAME":"安定區","LI":"蘇林里","LIN":"14鄰","STREET":" ","SECT":" ","MAREA":"蘇厝","LANE":" ","ALLEY":" ","HOUSE_NO":"１６１之２號","E_COORD97":173435.72,"N_COORD97":2558915.2999999998,"ADDRESS":"蘇厝１６１之２號","OBJECTID":28825},"geometry":{"x":173435.71999999974,"y":2558915.3000000007}},{"attributes":{"ID":28826,"DIS_CODE":0,"TOWNNAME":"安定區","LI":"海寮里","LIN":"14鄰","STREET":" ","SECT":" ","MAREA":"海寮","LANE":" ","ALLEY":" ","HOUSE_NO":"１３２之１３０號","E_COORD97":168999.84,"N_COORD97":2555331.2999999998,"ADDRESS":"海寮１３２之１３０號","OBJECTID":28826},"geometry":{"x":168999.84000000078,"y":2555331.3000000026}},{"attributes":{"ID":28827,"DIS_CODE":0,"TOWNNAME":"安定區","LI":"海寮里","LIN":"14鄰","STREET":" ","SECT":" ","MAREA":"海寮","LANE":" ","ALLEY":" ","HOUSE_NO":"１３２號之１２８","E_COORD97":168998.03,"N_COORD97":2555339.2999999998,"ADDRESS":"海寮１３２號之１２８","OBJECTID":28827},"geometry":{"x":168998.03000000026,"y":2555339.3000000007}},{"attributes":{"ID":28828,"DIS_CODE":0,"TOWNNAME":"安定區","LI":"海寮里","LIN":"14鄰","STREET":" ","SECT":" ","MAREA":"海寮","LANE":" ","ALLEY":" ","HOUSE_NO":"１３２之１２５號","E_COORD97":168995.44,"N_COORD97":2555352.2999999998,"ADDRESS":"海寮１３２之１２５號","OBJECTID":28828},"geometry":{"x":168995.44000000041,"y":2555352.3000000007}},{"attributes":{"ID":28829,"DIS_CODE":0,"TOWNNAME":"安定區","LI":"海寮里","LIN":"14鄰","STREET":" ","SECT":" ","MAREA":"海寮","LANE":" ","ALLEY":" ","HOUSE_NO":"１３２之１０６號","E_COORD97":168976.34,"N_COORD97":2555430.2999999998,"ADDRESS":"海寮１３２之１０６號","OBJECTID":28829},"geometry":{"x":168976.33999999985,"y":2555430.3000000007}},{"attributes":{"ID":28830,"DIS_CODE":0,"TOWNNAME":"安定區","LI":"港口里","LIN":"14鄰","STREET":" ","SECT":" ","MAREA":"港口","LANE":" ","ALLEY":" ","HOUSE_NO":"３３２之２２號","E_COORD97":171060.14000000001,"N_COORD97":2554558.2999999998,"ADDRESS":"港口３３２之２２號","OBJECTID":28830},"geometry":{"x":171060.1400000006,"y":2554558.3000000026}},{"attributes":{"ID":28831,"DIS_CODE":0,"TOWNNAME":"新市區","LI":"潭頂里","LIN":"14鄰","STREET":" ","SECT":" ","MAREA":"潭頂","LANE":" ","ALLEY":" ","HOUSE_NO":"５５０之１號","E_COORD97":180055.26000000001,"N_COORD97":2552959.5499999998,"ADDRESS":"潭頂５５０之１號","OBJECTID":28831},"geometry":{"x":180055.25999999978,"y":2552959.5500000026}},{"attributes":{"ID":28832,"DIS_CODE":0,"TOWNNAME":"新市區","LI":"潭頂里","LIN":"14鄰","STREET":" ","SECT":" ","MAREA":"潭頂","LANE":" ","ALLEY":" ","HOUSE_NO":"５１９號","E_COORD97":180435.44,"N_COORD97":2552939,"ADDRESS":"潭頂５１９號","OBJECTID":28832},"geometry":{"x":180435.44000000134,"y":2552939.0000000019}},{"attributes":{"ID":28833,"DIS_CODE":0,"TOWNNAME":"新市區","LI":"潭頂里","LIN":"14鄰","STREET":" ","SECT":" ","MAREA":"潭頂","LANE":" ","ALLEY":" ","HOUSE_NO":"５４９之６號","E_COORD97":180082.47,"N_COORD97":2552950.2999999998,"ADDRESS":"潭頂５４９之６號","OBJECTID":28833},"geometry":{"x":180082.46999999974,"y":2552950.3000000026}},{"attributes":{"ID":28834,"DIS_CODE":0,"TOWNNAME":"新市區","LI":"大社里","LIN":"14鄰","STREET":" ","SECT":" ","MAREA":"大社","LANE":" ","ALLEY":" ","HOUSE_NO":"５３０號之１６","E_COORD97":179882.59,"N_COORD97":2554733.7999999998,"ADDRESS":"大社５３０號之１６","OBJECTID":28834},"geometry":{"x":179882.59000000078,"y":2554733.8000000026}},{"attributes":{"ID":28835,"DIS_CODE":0,"TOWNNAME":"東區","LI":"崇誨里","LIN":"17鄰","STREET":"林森路","SECT":"二段","MAREA":" ","LANE":"１９２巷","ALLEY":"３６弄","HOUSE_NO":"７號七樓之２","E_COORD97":170634.28,"N_COORD97":2543304.0800000001,"ADDRESS":"林森路二段１９２巷３６弄７號七樓之２","OBJECTID":28835},"geometry":{"x":170634.28000000119,"y":2543304.0800000001}},{"attributes":{"ID":28836,"DIS_CODE":0,"TOWNNAME":"東區","LI":"崇誨里","LIN":"17鄰","STREET":"林森路","SECT":"二段","MAREA":" ","LANE":"１９２巷","ALLEY":"３６弄","HOUSE_NO":"７號七樓之３","E_COORD97":170634.28,"N_COORD97":2543304.0800000001,"ADDRESS":"林森路二段１９２巷３６弄７號七樓之３","OBJECTID":28836},"geometry":{"x":170634.28000000119,"y":2543304.0800000001}},{"attributes":{"ID":28837,"DIS_CODE":0,"TOWNNAME":"中西區","LI":"郡王里","LIN":"14鄰","STREET":"南門路","SECT":" ","MAREA":" ","LANE":" ","ALLEY":" ","HOUSE_NO":"１０７號","E_COORD97":168449.95000000001,"N_COORD97":2543144.0600000001,"ADDRESS":"南門路１０７號","OBJECTID":28837},"geometry":{"x":168449.95000000112,"y":2543144.0600000024}},{"attributes":{"ID":28838,"DIS_CODE":0,"TOWNNAME":"新市區","LI":"大營里","LIN":"14鄰","STREET":" ","SECT":" ","MAREA":"大營","LANE":" ","ALLEY":" ","HOUSE_NO":"２７３號","E_COORD97":179147.29000000001,"N_COORD97":2555515.25,"ADDRESS":"大營２７３號","OBJECTID":28838},"geometry":{"x":179147.29000000097,"y":2555515.25}},{"attributes":{"ID":28839,"DIS_CODE":0,"TOWNNAME":"新市區","LI":"大社里","LIN":"14鄰","STREET":" ","SECT":" ","MAREA":"大社","LANE":" ","ALLEY":" ","HOUSE_NO":"５５７號","E_COORD97":179995.45000000001,"N_COORD97":2554576.75,"ADDRESS":"大社５５７號","OBJECTID":28839},"geometry":{"x":179995.45000000205,"y":2554576.7500000037}},{"attributes":{"ID":28840,"DIS_CODE":0,"TOWNNAME":"麻豆區","LI":"安東里","LIN":"8鄰","STREET":" ","SECT":" ","MAREA":"安業","LANE":" ","ALLEY":" ","HOUSE_NO":"２７３號之２","E_COORD97":172822.47,"N_COORD97":2562430.3700000001,"ADDRESS":"安業２７３號之２","OBJECTID":28840},"geometry":{"x":172822.4700000016,"y":2562430.3700000029}},{"attributes":{"ID":28841,"DIS_CODE":0,"TOWNNAME":"麻豆區","LI":"安東里","LIN":"8鄰","STREET":" ","SECT":" ","MAREA":"安業","LANE":" ","ALLEY":" ","HOUSE_NO":"２７３號之３","E_COORD97":172801.95000000001,"N_COORD97":2562418.4100000001,"ADDRESS":"安業２７３號之３","OBJECTID":28841},"geometry":{"x":172801.95000000019,"y":2562418.410000002}},{"attributes":{"ID":28842,"DIS_CODE":0,"TOWNNAME":"官田區","LI":"渡頭里","LIN":"14鄰","STREET":" ","SECT":" ","MAREA":"渡子頭","LANE":" ","ALLEY":" ","HOUSE_NO":"１０４號","E_COORD97":181112.84,"N_COORD97":2563085.1600000001,"ADDRESS":"渡子頭１０４號","OBJECTID":28842},"geometry":{"x":181112.83999999892,"y":2563085.160000002}},{"attributes":{"ID":28843,"DIS_CODE":0,"TOWNNAME":"麻豆區","LI":"安東里","LIN":"8鄰","STREET":" ","SECT":" ","MAREA":"安業","LANE":" ","ALLEY":" ","HOUSE_NO":"２７３號","E_COORD97":172812.82000000001,"N_COORD97":2562424.1299999999,"ADDRESS":"安業２７３號","OBJECTID":28843},"geometry":{"x":172812.82000000123,"y":2562424.129999999}},{"attributes":{"ID":28844,"DIS_CODE":0,"TOWNNAME":"東區","LI":"崇誨里","LIN":"17鄰","STREET":"林森路","SECT":"二段","MAREA":" ","LANE":"１９２巷","ALLEY":"３６弄","HOUSE_NO":"７號五樓之４","E_COORD97":170634.28,"N_COORD97":2543304.0800000001,"ADDRESS":"林森路二段１９２巷３６弄７號五樓之４","OBJECTID":28844},"geometry":{"x":170634.28000000119,"y":2543304.0800000001}},{"attributes":{"ID":28845,"DIS_CODE":0,"TOWNNAME":"東區","LI":"崇誨里","LIN":"17鄰","STREET":"林森路","SECT":"二段","MAREA":" ","LANE":"１９２巷","ALLEY":"３６弄","HOUSE_NO":"７號四樓之２","E_COORD97":170634.28,"N_COORD97":2543304.0800000001,"ADDRESS":"林森路二段１９２巷３６弄７號四樓之２","OBJECTID":28845},"geometry":{"x":170634.28000000119,"y":2543304.0800000001}},{"attributes":{"ID":28846,"DIS_CODE":0,"TOWNNAME":"東區","LI":"崇誨里","LIN":"17鄰","STREET":"林森路","SECT":"二段","MAREA":" ","LANE":"１９２巷","ALLEY":"３６弄","HOUSE_NO":"７號五樓之１","E_COORD97":170634.28,"N_COORD97":2543304.0800000001,"ADDRESS":"林森路二段１９２巷３６弄７號五樓之１","OBJECTID":28846},"geometry":{"x":170634.28000000119,"y":2543304.0800000001}},{"attributes":{"ID":28847,"DIS_CODE":0,"TOWNNAME":"東區","LI":"崇誨里","LIN":"17鄰","STREET":"林森路","SECT":"二段","MAREA":" ","LANE":"１９２巷","ALLEY":"３６弄","HOUSE_NO":"７號七樓","E_COORD97":170634.28,"N_COORD97":2543304.0800000001,"ADDRESS":"林森路二段１９２巷３６弄７號七樓","OBJECTID":28847},"geometry":{"x":170634.28000000119,"y":2543304.0800000001}},{"attributes":{"ID":28848,"DIS_CODE":0,"TOWNNAME":"東區","LI":"崇誨里","LIN":"17鄰","STREET":"林森路","SECT":"二段","MAREA":" ","LANE":"１９２巷","ALLEY":"３６弄","HOUSE_NO":"３號四樓","E_COORD97":170630.64999999999,"N_COORD97":2543317.3100000001,"ADDRESS":"林森路二段１９２巷３６弄３號四樓","OBJECTID":28848},"geometry":{"x":170630.6500000013,"y":2543317.3099999987}},{"attributes":{"ID":28849,"DIS_CODE":0,"TOWNNAME":"東區","LI":"大智里","LIN":"17鄰","STREET":"德東街","SECT":" ","MAREA":" ","LANE":"１５１巷","ALLEY":"３７弄","HOUSE_NO":"１號二樓","E_COORD97":171166.64999999999,"N_COORD97":2540359.71,"ADDRESS":"德東街１５１巷３７弄１號二樓","OBJECTID":28849},"geometry":{"x":171166.65000000037,"y":2540359.7100000028}},{"attributes":{"ID":28850,"DIS_CODE":0,"TOWNNAME":"東區","LI":"大智里","LIN":"17鄰","STREET":"德東街","SECT":" ","MAREA":" ","LANE":"１５１巷","ALLEY":"３７弄","HOUSE_NO":"１號八樓","E_COORD97":171166.64999999999,"N_COORD97":2540359.71,"ADDRESS":"德東街１５１巷３７弄１號八樓","OBJECTID":28850},"geometry":{"x":171166.65000000037,"y":2540359.7100000028}},{"attributes":{"ID":28851,"DIS_CODE":0,"TOWNNAME":"東區","LI":"大智里","LIN":"17鄰","STREET":"德東街","SECT":" ","MAREA":" ","LANE":"１５１巷","ALLEY":"３７弄","HOUSE_NO":"１號五樓","E_COORD97":171166.64999999999,"N_COORD97":2540359.71,"ADDRESS":"德東街１５１巷３７弄１號五樓","OBJECTID":28851},"geometry":{"x":171166.65000000037,"y":2540359.7100000028}},{"attributes":{"ID":28852,"DIS_CODE":0,"TOWNNAME":"東區","LI":"大智里","LIN":"17鄰","STREET":"德東街","SECT":" ","MAREA":" ","LANE":"１５１巷","ALLEY":"３７弄","HOUSE_NO":"１號六樓","E_COORD97":171166.64999999999,"N_COORD97":2540359.71,"ADDRESS":"德東街１５１巷３７弄１號六樓","OBJECTID":28852},"geometry":{"x":171166.65000000037,"y":2540359.7100000028}},{"attributes":{"ID":28853,"DIS_CODE":0,"TOWNNAME":"東區","LI":"大智里","LIN":"17鄰","STREET":"德東街","SECT":" ","MAREA":" ","LANE":"１５１巷","ALLEY":"３７弄","HOUSE_NO":"１號四樓","E_COORD97":171166.64999999999,"N_COORD97":2540359.71,"ADDRESS":"德東街１５１巷３７弄１號四樓","OBJECTID":28853},"geometry":{"x":171166.65000000037,"y":2540359.7100000028}},{"attributes":{"ID":28854,"DIS_CODE":0,"TOWNNAME":"東區","LI":"大智里","LIN":"17鄰","STREET":"德東街","SECT":" ","MAREA":" ","LANE":"１５１巷","ALLEY":"３７弄","HOUSE_NO":"３號八樓","E_COORD97":171162.54000000001,"N_COORD97":2540359.5099999998,"ADDRESS":"德東街１５１巷３７弄３號八樓","OBJECTID":28854},"geometry":{"x":171162.54000000004,"y":2540359.5100000016}},{"attributes":{"ID":28855,"DIS_CODE":0,"TOWNNAME":"東區","LI":"大智里","LIN":"17鄰","STREET":"德東街","SECT":" ","MAREA":" ","LANE":"１５１巷","ALLEY":"３７弄","HOUSE_NO":"３號三樓","E_COORD97":171162.54000000001,"N_COORD97":2540359.5099999998,"ADDRESS":"德東街１５１巷３７弄３號三樓","OBJECTID":28855},"geometry":{"x":171162.54000000004,"y":2540359.5100000016}},{"attributes":{"ID":28856,"DIS_CODE":0,"TOWNNAME":"東區","LI":"大智里","LIN":"17鄰","STREET":"德東街","SECT":" ","MAREA":" ","LANE":"１５１巷","ALLEY":"３７弄","HOUSE_NO":"３號五樓","E_COORD97":171162.54000000001,"N_COORD97":2540359.5099999998,"ADDRESS":"德東街１５１巷３７弄３號五樓","OBJECTID":28856},"geometry":{"x":171162.54000000004,"y":2540359.5100000016}},{"attributes":{"ID":28857,"DIS_CODE":0,"TOWNNAME":"東區","LI":"大智里","LIN":"17鄰","STREET":"德東街","SECT":" ","MAREA":" ","LANE":"１５１巷","ALLEY":"３７弄","HOUSE_NO":"３號四樓","E_COORD97":171162.54000000001,"N_COORD97":2540359.5099999998,"ADDRESS":"德東街１５１巷３７弄３號四樓","OBJECTID":28857},"geometry":{"x":171162.54000000004,"y":2540359.5100000016}},{"attributes":{"ID":28858,"DIS_CODE":0,"TOWNNAME":"東區","LI":"大智里","LIN":"17鄰","STREET":"德東街","SECT":" ","MAREA":" ","LANE":"１５１巷","ALLEY":"３７弄","HOUSE_NO":"５號七樓","E_COORD97":171156.85999999999,"N_COORD97":2540378.4900000002,"ADDRESS":"德東街１５１巷３７弄５號七樓","OBJECTID":28858},"geometry":{"x":171156.86000000034,"y":2540378.4900000002}},{"attributes":{"ID":28859,"DIS_CODE":0,"TOWNNAME":"東區","LI":"大智里","LIN":"17鄰","STREET":"德東街","SECT":" ","MAREA":" ","LANE":"１５１巷","ALLEY":"３７弄","HOUSE_NO":"５號八樓","E_COORD97":171156.85999999999,"N_COORD97":2540378.4900000002,"ADDRESS":"德東街１５１巷３７弄５號八樓","OBJECTID":28859},"geometry":{"x":171156.86000000034,"y":2540378.4900000002}},{"attributes":{"ID":28860,"DIS_CODE":0,"TOWNNAME":"東區","LI":"大智里","LIN":"17鄰","STREET":"德東街","SECT":" ","MAREA":" ","LANE":"１５１巷","ALLEY":"３７弄","HOUSE_NO":"５號三樓","E_COORD97":171156.85999999999,"N_COORD97":2540378.4900000002,"ADDRESS":"德東街１５１巷３７弄５號三樓","OBJECTID":28860},"geometry":{"x":171156.86000000034,"y":2540378.4900000002}},{"attributes":{"ID":28861,"DIS_CODE":0,"TOWNNAME":"東區","LI":"大智里","LIN":"17鄰","STREET":"德東街","SECT":" ","MAREA":" ","LANE":"１５１巷","ALLEY":"３７弄","HOUSE_NO":"５號五樓","E_COORD97":171156.85999999999,"N_COORD97":2540378.4900000002,"ADDRESS":"德東街１５１巷３７弄５號五樓","OBJECTID":28861},"geometry":{"x":171156.86000000034,"y":2540378.4900000002}},{"attributes":{"ID":28862,"DIS_CODE":0,"TOWNNAME":"麻豆區","LI":"安東里","LIN":"8鄰","STREET":" ","SECT":" ","MAREA":"安業","LANE":" ","ALLEY":" ","HOUSE_NO":"２７４號之１","E_COORD97":172835.95589499999,"N_COORD97":2562481.7650100002,"ADDRESS":"安業２７４號之１","OBJECTID":28862},"geometry":{"x":172835.95589500014,"y":2562481.7650060002}},{"attributes":{"ID":28863,"DIS_CODE":0,"TOWNNAME":"中西區","LI":"永華里","LIN":"14鄰","STREET":"府中街","SECT":" ","MAREA":" ","LANE":" ","ALLEY":" ","HOUSE_NO":"９４號","E_COORD97":168571.17999999999,"N_COORD97":2543421.1899999999,"ADDRESS":"府中街９４號","OBJECTID":28863},"geometry":{"x":168571.18000000156,"y":2543421.1899999995}},{"attributes":{"ID":28864,"DIS_CODE":0,"TOWNNAME":"麻豆區","LI":"安東里","LIN":"8鄰","STREET":" ","SECT":" ","MAREA":"安業","LANE":" ","ALLEY":" ","HOUSE_NO":"２７４號之２","E_COORD97":172751.89000000001,"N_COORD97":2562460.8999999999,"ADDRESS":"安業２７４號之２","OBJECTID":28864},"geometry":{"x":172751.8900000006,"y":2562460.9000000004}},{"attributes":{"ID":28865,"DIS_CODE":0,"TOWNNAME":"仁德區","LI":"成功里","LIN":"14鄰","STREET":"全福路","SECT":" ","MAREA":" ","LANE":" ","ALLEY":" ","HOUSE_NO":"４６號","E_COORD97":170933.29000000001,"N_COORD97":2539306.25,"ADDRESS":"全福路４６號","OBJECTID":28865},"geometry":{"x":170933.29000000004,"y":2539306.25}},{"attributes":{"ID":28866,"DIS_CODE":0,"TOWNNAME":"麻豆區","LI":"安東里","LIN":"8鄰","STREET":" ","SECT":" ","MAREA":"安業","LANE":" ","ALLEY":" ","HOUSE_NO":"２７５號之１０","E_COORD97":172849.06,"N_COORD97":2562588.48,"ADDRESS":"安業２７５號之１０","OBJECTID":28866},"geometry":{"x":172849.06000000052,"y":2562588.4800000023}},{"attributes":{"ID":28867,"DIS_CODE":0,"TOWNNAME":"麻豆區","LI":"安東里","LIN":"8鄰","STREET":" ","SECT":" ","MAREA":"安業","LANE":" ","ALLEY":" ","HOUSE_NO":"２７５號之１１","E_COORD97":172848.95999999999,"N_COORD97":2562596.2200000002,"ADDRESS":"安業２７５號之１１","OBJECTID":28867},"geometry":{"x":172848.96000000089,"y":2562596.2200000044}},{"attributes":{"ID":28868,"DIS_CODE":0,"TOWNNAME":"麻豆區","LI":"安東里","LIN":"8鄰","STREET":" ","SECT":" ","MAREA":"安業","LANE":" ","ALLEY":" ","HOUSE_NO":"２７５號之１２","E_COORD97":172871.22,"N_COORD97":2562542.98,"ADDRESS":"安業２７５號之１２","OBJECTID":28868},"geometry":{"x":172871.21999999974,"y":2562542.9800000042}},{"attributes":{"ID":28869,"DIS_CODE":0,"TOWNNAME":"柳營區","LI":"果毅里","LIN":"8鄰","STREET":" ","SECT":" ","MAREA":"果毅後","LANE":" ","ALLEY":" ","HOUSE_NO":"９３號之１","E_COORD97":185611.20999999999,"N_COORD97":2572785.2799999998,"ADDRESS":"果毅後９３號之１","OBJECTID":28869},"geometry":{"x":185611.21000000183,"y":2572785.2799999993}},{"attributes":{"ID":28870,"DIS_CODE":0,"TOWNNAME":"柳營區","LI":"果毅里","LIN":"8鄰","STREET":" ","SECT":" ","MAREA":"果毅後","LANE":" ","ALLEY":" ","HOUSE_NO":"９５號之１０","E_COORD97":185614.64999999999,"N_COORD97":2572729.4500000002,"ADDRESS":"果毅後９５號之１０","OBJECTID":28870},"geometry":{"x":185614.65000000037,"y":2572729.4499999993}},{"attributes":{"ID":28871,"DIS_CODE":0,"TOWNNAME":"柳營區","LI":"果毅里","LIN":"8鄰","STREET":" ","SECT":" ","MAREA":"果毅後","LANE":" ","ALLEY":" ","HOUSE_NO":"９５號之２","E_COORD97":185552.75,"N_COORD97":2572723.54,"ADDRESS":"果毅後９５號之２","OBJECTID":28871},"geometry":{"x":185552.75,"y":2572723.540000001}},{"attributes":{"ID":28872,"DIS_CODE":0,"TOWNNAME":"東區","LI":"大智里","LIN":"17鄰","STREET":"德東街","SECT":" ","MAREA":" ","LANE":"１５１巷","ALLEY":"３７弄","HOUSE_NO":"５號六樓","E_COORD97":171156.85999999999,"N_COORD97":2540378.4900000002,"ADDRESS":"德東街１５１巷３７弄５號六樓","OBJECTID":28872},"geometry":{"x":171156.86000000034,"y":2540378.4900000002}},{"attributes":{"ID":28873,"DIS_CODE":0,"TOWNNAME":"東區","LI":"大智里","LIN":"17鄰","STREET":"德東街","SECT":" ","MAREA":" ","LANE":"１５１巷","ALLEY":"３７弄","HOUSE_NO":"５號四樓","E_COORD97":171156.85999999999,"N_COORD97":2540378.4900000002,"ADDRESS":"德東街１５１巷３７弄５號四樓","OBJECTID":28873},"geometry":{"x":171156.86000000034,"y":2540378.4900000002}},{"attributes":{"ID":28874,"DIS_CODE":0,"TOWNNAME":"東區","LI":"大智里","LIN":"17鄰","STREET":"德東街","SECT":" ","MAREA":" ","LANE":"１５１巷","ALLEY":"３７弄","HOUSE_NO":"７號七樓","E_COORD97":171152.75,"N_COORD97":2540378.5899999999,"ADDRESS":"德東街１５１巷３７弄７號七樓","OBJECTID":28874},"geometry":{"x":171152.75000000186,"y":2540378.589999998}},{"attributes":{"ID":28875,"DIS_CODE":0,"TOWNNAME":"東區","LI":"大智里","LIN":"17鄰","STREET":"德東街","SECT":" ","MAREA":" ","LANE":"１５１巷","ALLEY":"３７弄","HOUSE_NO":"７號二樓","E_COORD97":171152.75,"N_COORD97":2540378.5899999999,"ADDRESS":"德東街１５１巷３７弄７號二樓","OBJECTID":28875},"geometry":{"x":171152.75000000186,"y":2540378.589999998}},{"attributes":{"ID":28876,"DIS_CODE":0,"TOWNNAME":"官田區","LI":"二鎮里","LIN":"14鄰","STREET":" ","SECT":" ","MAREA":"程泰","LANE":" ","ALLEY":" ","HOUSE_NO":"６１號","E_COORD97":181640.67000000001,"N_COORD97":2566518.5499999998,"ADDRESS":"程泰６１號","OBJECTID":28876},"geometry":{"x":181640.66999999993,"y":2566518.5500000007}},{"attributes":{"ID":28877,"DIS_CODE":0,"TOWNNAME":"東區","LI":"大智里","LIN":"17鄰","STREET":"德東街","SECT":" ","MAREA":" ","LANE":"１５１巷","ALLEY":"３７弄","HOUSE_NO":"７號三樓","E_COORD97":171152.75,"N_COORD97":2540378.5899999999,"ADDRESS":"德東街１５１巷３７弄７號三樓","OBJECTID":28877},"geometry":{"x":171152.75000000186,"y":2540378.589999998}},{"attributes":{"ID":28878,"DIS_CODE":0,"TOWNNAME":"東區","LI":"大智里","LIN":"17鄰","STREET":"德東街","SECT":" ","MAREA":" ","LANE":"１５１巷","ALLEY":"３７弄","HOUSE_NO":"７號五樓","E_COORD97":171152.75,"N_COORD97":2540378.5899999999,"ADDRESS":"德東街１５１巷３７弄７號五樓","OBJECTID":28878},"geometry":{"x":171152.75000000186,"y":2540378.589999998}},{"attributes":{"ID":28879,"DIS_CODE":0,"TOWNNAME":"東區","LI":"大智里","LIN":"17鄰","STREET":"德東街","SECT":" ","MAREA":" ","LANE":"１５１巷","ALLEY":"３７弄","HOUSE_NO":"７號六樓","E_COORD97":171152.75,"N_COORD97":2540378.5899999999,"ADDRESS":"德東街１５１巷３７弄７號六樓","OBJECTID":28879},"geometry":{"x":171152.75000000186,"y":2540378.589999998}},{"attributes":{"ID":28880,"DIS_CODE":0,"TOWNNAME":"東區","LI":"大智里","LIN":"17鄰","STREET":"德東街","SECT":" ","MAREA":" ","LANE":"１５１巷","ALLEY":"３７弄","HOUSE_NO":"７號四樓","E_COORD97":171152.75,"N_COORD97":2540378.5899999999,"ADDRESS":"德東街１５１巷３７弄７號四樓","OBJECTID":28880},"geometry":{"x":171152.75000000186,"y":2540378.589999998}},{"attributes":{"ID":28881,"DIS_CODE":0,"TOWNNAME":"永康區","LI":"三合里","LIN":"17鄰","STREET":"南工街","SECT":" ","MAREA":" ","LANE":"２４７巷","ALLEY":"６弄","HOUSE_NO":"６號四樓","E_COORD97":171926.44,"N_COORD97":2545831.8500000001,"ADDRESS":"南工街２４７巷６弄６號四樓","OBJECTID":28881},"geometry":{"x":171926.44000000041,"y":2545831.8500000034}},{"attributes":{"ID":28882,"DIS_CODE":0,"TOWNNAME":"永康區","LI":"三合里","LIN":"17鄰","STREET":"南工街","SECT":" ","MAREA":" ","LANE":"２４７巷","ALLEY":"６弄","HOUSE_NO":"１４號五樓","E_COORD97":171954.94,"N_COORD97":2545819.3500000001,"ADDRESS":"南工街２４７巷６弄１４號五樓","OBJECTID":28882},"geometry":{"x":171954.94000000041,"y":2545819.3500000015}},{"attributes":{"ID":28883,"DIS_CODE":0,"TOWNNAME":"永康區","LI":"二王里","LIN":"17鄰","STREET":"忠孝路","SECT":" ","MAREA":" ","LANE":"４１０巷","ALLEY":"５０弄","HOUSE_NO":"１４號四樓","E_COORD97":172588.37,"N_COORD97":2546461.7799999998,"ADDRESS":"忠孝路４１０巷５０弄１４號四樓","OBJECTID":28883},"geometry":{"x":172588.37000000104,"y":2546461.7799999993}},{"attributes":{"ID":28884,"DIS_CODE":0,"TOWNNAME":"永康區","LI":"三合里","LIN":"17鄰","STREET":"南工街","SECT":" ","MAREA":" ","LANE":"２４７巷","ALLEY":"６弄","HOUSE_NO":"１號四樓","E_COORD97":171954.04000000001,"N_COORD97":2545842.0899999999,"ADDRESS":"南工街２４７巷６弄１號四樓","OBJECTID":28884},"geometry":{"x":171954.04000000004,"y":2545842.0900000017}},{"attributes":{"ID":28885,"DIS_CODE":0,"TOWNNAME":"永康區","LI":"二王里","LIN":"17鄰","STREET":"忠孝路","SECT":" ","MAREA":" ","LANE":"４１０巷","ALLEY":"５０弄","HOUSE_NO":"１３號二樓","E_COORD97":172601.59,"N_COORD97":2546461.3399999999,"ADDRESS":"忠孝路４１０巷５０弄１３號二樓","OBJECTID":28885},"geometry":{"x":172601.59000000078,"y":2546461.3399999999}},{"attributes":{"ID":28886,"DIS_CODE":0,"TOWNNAME":"仁德區","LI":"成功里","LIN":"14鄰","STREET":"全福路","SECT":" ","MAREA":" ","LANE":" ","ALLEY":" ","HOUSE_NO":"５１號","E_COORD97":170952.26000000001,"N_COORD97":2539322.4900000002,"ADDRESS":"全福路５１號","OBJECTID":28886},"geometry":{"x":170952.25999999978,"y":2539322.4900000021}},{"attributes":{"ID":28887,"DIS_CODE":0,"TOWNNAME":"仁德區","LI":"成功里","LIN":"14鄰","STREET":"全福路","SECT":" ","MAREA":" ","LANE":" ","ALLEY":" ","HOUSE_NO":"５４號","E_COORD97":170950.45999999999,"N_COORD97":2539305,"ADDRESS":"全福路５４號","OBJECTID":28887},"geometry":{"x":170950.45999999996,"y":2539305.0000000037}},{"attributes":{"ID":28888,"DIS_CODE":0,"TOWNNAME":"新營區","LI":"民生里","LIN":" ","STREET":"民生路","SECT":" ","MAREA":" ","LANE":" ","ALLEY":" ","HOUSE_NO":"１０３之１８號","E_COORD97":179193.48999999999,"N_COORD97":2578526.79,"ADDRESS":"民生路１０３之１８號","OBJECTID":28888},"geometry":{"x":179193.49000000115,"y":2578526.790000001}},{"attributes":{"ID":28889,"DIS_CODE":0,"TOWNNAME":"仁德區","LI":"保安里","LIN":"14鄰","STREET":"文賢路","SECT":"一段","MAREA":" ","LANE":" ","ALLEY":" ","HOUSE_NO":"６０６號","E_COORD97":171125.29000000001,"N_COORD97":2536747.5699999998,"ADDRESS":"文賢路一段６０６號","OBJECTID":28889},"geometry":{"x":171125.28999999911,"y":2536747.5700000003}},{"attributes":{"ID":28890,"DIS_CODE":0,"TOWNNAME":"仁德區","LI":"保安里","LIN":"14鄰","STREET":"文賢路","SECT":"一段","MAREA":" ","LANE":" ","ALLEY":" ","HOUSE_NO":"６５５號","E_COORD97":171243.87,"N_COORD97":2536505.5800000001,"ADDRESS":"文賢路一段６５５號","OBJECTID":28890},"geometry":{"x":171243.87000000104,"y":2536505.5800000019}},{"attributes":{"ID":28891,"DIS_CODE":0,"TOWNNAME":"仁德區","LI":"保安里","LIN":"14鄰","STREET":"文賢路","SECT":"一段","MAREA":" ","LANE":" ","ALLEY":" ","HOUSE_NO":"５９９號","E_COORD97":171143.48000000001,"N_COORD97":2536768.0699999998,"ADDRESS":"文賢路一段５９９號","OBJECTID":28891},"geometry":{"x":171143.48000000138,"y":2536768.0700000003}},{"attributes":{"ID":28892,"DIS_CODE":0,"TOWNNAME":"新營區","LI":"三仙里","LIN":"20鄰","STREET":"三民路","SECT":" ","MAREA":" ","LANE":" ","ALLEY":" ","HOUSE_NO":"１４２號","E_COORD97":179535.92000000001,"N_COORD97":2578406.5800000001,"ADDRESS":"三民路１４２號","OBJECTID":28892},"geometry":{"x":179535.92000000179,"y":2578406.5800000019}},{"attributes":{"ID":28893,"DIS_CODE":0,"TOWNNAME":"新營區","LI":"王公里","LIN":"20鄰","STREET":"樂利街","SECT":" ","MAREA":" ","LANE":" ","ALLEY":" ","HOUSE_NO":"１０５號","E_COORD97":180432.97,"N_COORD97":2579276.1299999999,"ADDRESS":"樂利街１０５號","OBJECTID":28893},"geometry":{"x":180432.97000000067,"y":2579276.1300000008}},{"attributes":{"ID":28894,"DIS_CODE":0,"TOWNNAME":"新營區","LI":"民榮里","LIN":"13鄰","STREET":"南昌街","SECT":" ","MAREA":" ","LANE":" ","ALLEY":" ","HOUSE_NO":"６４號","E_COORD97":179205,"N_COORD97":2577698.29,"ADDRESS":"南昌街６４號","OBJECTID":28894},"geometry":{"x":179205.00000000186,"y":2577698.290000001}},{"attributes":{"ID":28895,"DIS_CODE":0,"TOWNNAME":"柳營區","LI":"果毅里","LIN":"8鄰","STREET":" ","SECT":" ","MAREA":"果毅後","LANE":" ","ALLEY":" ","HOUSE_NO":"９５號之３","E_COORD97":185568.57000000001,"N_COORD97":2572748.02,"ADDRESS":"果毅後９５號之３","OBJECTID":28895},"geometry":{"x":185568.57000000216,"y":2572748.0200000014}},{"attributes":{"ID":28896,"DIS_CODE":0,"TOWNNAME":"柳營區","LI":"果毅里","LIN":"8鄰","STREET":" ","SECT":" ","MAREA":"果毅後","LANE":" ","ALLEY":" ","HOUSE_NO":"９５號之４","E_COORD97":185577.17000000001,"N_COORD97":2572682.4399999999,"ADDRESS":"果毅後９５號之４","OBJECTID":28896},"geometry":{"x":185577.16999999993,"y":2572682.4399999995}},{"attributes":{"ID":28897,"DIS_CODE":0,"TOWNNAME":"柳營區","LI":"果毅里","LIN":"8鄰","STREET":" ","SECT":" ","MAREA":"果毅後","LANE":" ","ALLEY":" ","HOUSE_NO":"９５號之６","E_COORD97":185556.14999999999,"N_COORD97":2572744.25,"ADDRESS":"果毅後９５號之６","OBJECTID":28897},"geometry":{"x":185556.15000000224,"y":2572744.25}},{"attributes":{"ID":28898,"DIS_CODE":0,"TOWNNAME":"柳營區","LI":"果毅里","LIN":"8鄰","STREET":" ","SECT":" ","MAREA":"果毅後","LANE":" ","ALLEY":" ","HOUSE_NO":"９５號之７","E_COORD97":185576.53,"N_COORD97":2572709.6000000001,"ADDRESS":"果毅後９５號之７","OBJECTID":28898},"geometry":{"x":185576.53000000026,"y":2572709.6000000015}},{"attributes":{"ID":28899,"DIS_CODE":0,"TOWNNAME":"柳營區","LI":"果毅里","LIN":"8鄰","STREET":" ","SECT":" ","MAREA":"果毅後","LANE":" ","ALLEY":" ","HOUSE_NO":"９５號之８","E_COORD97":185578.29000000001,"N_COORD97":2572740.6600000001,"ADDRESS":"果毅後９５號之８","OBJECTID":28899},"geometry":{"x":185578.29000000004,"y":2572740.660000002}},{"attributes":{"ID":28900,"DIS_CODE":0,"TOWNNAME":"柳營區","LI":"果毅里","LIN":"8鄰","STREET":" ","SECT":" ","MAREA":"果毅後","LANE":" ","ALLEY":" ","HOUSE_NO":"９５號之９","E_COORD97":185589.29999999999,"N_COORD97":2572737.1200000001,"ADDRESS":"果毅後９５號之９","OBJECTID":28900},"geometry":{"x":185589.30000000075,"y":2572737.120000001}},{"attributes":{"ID":28901,"DIS_CODE":0,"TOWNNAME":"柳營區","LI":"果毅里","LIN":"8鄰","STREET":" ","SECT":" ","MAREA":"果毅後","LANE":" ","ALLEY":" ","HOUSE_NO":"９７號","E_COORD97":185576.34,"N_COORD97":2572788.7999999998,"ADDRESS":"果毅後９７號","OBJECTID":28901},"geometry":{"x":185576.34000000171,"y":2572788.8000000007}},{"attributes":{"ID":28902,"DIS_CODE":0,"TOWNNAME":"仁德區","LI":"成功里","LIN":"14鄰","STREET":"全福路","SECT":" ","MAREA":" ","LANE":" ","ALLEY":" ","HOUSE_NO":"６８號","E_COORD97":170980.06,"N_COORD97":2539302.5,"ADDRESS":"全福路６８號","OBJECTID":28902},"geometry":{"x":170980.05999999959,"y":2539302.5000000019}},{"attributes":{"ID":28903,"DIS_CODE":0,"TOWNNAME":"仁德區","LI":"後壁里","LIN":"14鄰","STREET":"德善路","SECT":" ","MAREA":" ","LANE":" ","ALLEY":" ","HOUSE_NO":"１７２號","E_COORD97":173630.98000000001,"N_COORD97":2538778.52,"ADDRESS":"德善路１７２號","OBJECTID":28903},"geometry":{"x":173630.98000000045,"y":2538778.5199999977}},{"attributes":{"ID":28904,"DIS_CODE":0,"TOWNNAME":"仁德區","LI":"新田里","LIN":"14鄰","STREET":"北保東路","SECT":" ","MAREA":" ","LANE":" ","ALLEY":" ","HOUSE_NO":"３９號","E_COORD97":173443.29999999999,"N_COORD97":2539390.5,"ADDRESS":"北保東路３９號","OBJECTID":28904},"geometry":{"x":173443.29999999981,"y":2539390.5000000019}},{"attributes":{"ID":28905,"DIS_CODE":0,"TOWNNAME":"柳營區","LI":"果毅里","LIN":"8鄰","STREET":" ","SECT":" ","MAREA":"果毅後","LANE":" ","ALLEY":" ","HOUSE_NO":"９８號","E_COORD97":185572.94,"N_COORD97":2572790.4399999999,"ADDRESS":"果毅後９８號","OBJECTID":28905},"geometry":{"x":185572.94000000227,"y":2572790.4399999995}},{"attributes":{"ID":28906,"DIS_CODE":0,"TOWNNAME":"官田區","LI":"二鎮里","LIN":"14鄰","STREET":" ","SECT":" ","MAREA":"程泰","LANE":" ","ALLEY":" ","HOUSE_NO":"９號","E_COORD97":181607.82999999999,"N_COORD97":2566330.3399999999,"ADDRESS":"程泰９號","OBJECTID":28906},"geometry":{"x":181607.83000000007,"y":2566330.3400000036}},{"attributes":{"ID":28907,"DIS_CODE":0,"TOWNNAME":"官田區","LI":"渡頭里","LIN":"14鄰","STREET":" ","SECT":" ","MAREA":"渡子頭","LANE":" ","ALLEY":" ","HOUSE_NO":"１０２號","E_COORD97":181112.07000000001,"N_COORD97":2563096.23,"ADDRESS":"渡子頭１０２號","OBJECTID":28907},"geometry":{"x":181112.07000000123,"y":2563096.2300000004}},{"attributes":{"ID":28908,"DIS_CODE":0,"TOWNNAME":"官田區","LI":"渡頭里","LIN":"14鄰","STREET":" ","SECT":" ","MAREA":"渡子頭","LANE":" ","ALLEY":" ","HOUSE_NO":"１０３號之１","E_COORD97":181092.97,"N_COORD97":2563095.3599999999,"ADDRESS":"渡子頭１０３號之１","OBJECTID":28908},"geometry":{"x":181092.96999999974,"y":2563095.3600000031}},{"attributes":{"ID":28909,"DIS_CODE":0,"TOWNNAME":"官田區","LI":"渡頭里","LIN":"14鄰","STREET":" ","SECT":" ","MAREA":"渡子頭","LANE":" ","ALLEY":" ","HOUSE_NO":"１０３號","E_COORD97":181095.89000000001,"N_COORD97":2563088.1299999999,"ADDRESS":"渡子頭１０３號","OBJECTID":28909},"geometry":{"x":181095.8900000006,"y":2563088.129999999}},{"attributes":{"ID":28910,"DIS_CODE":0,"TOWNNAME":"柳營區","LI":"東昇里","LIN":"8鄰","STREET":" ","SECT":" ","MAREA":"柳營","LANE":" ","ALLEY":" ","HOUSE_NO":"４３５之１號","E_COORD97":180016.63,"N_COORD97":2575404.8700000001,"ADDRESS":"柳營４３５之１號","OBJECTID":28910},"geometry":{"x":180016.63000000082,"y":2575404.8700000029}},{"attributes":{"ID":28911,"DIS_CODE":0,"TOWNNAME":"柳營區","LI":"東昇里","LIN":"8鄰","STREET":" ","SECT":" ","MAREA":"柳營","LANE":" ","ALLEY":" ","HOUSE_NO":"４３６之１號","E_COORD97":180014.14999999999,"N_COORD97":2575426.6099999999,"ADDRESS":"柳營４３６之１號","OBJECTID":28911},"geometry":{"x":180014.15000000037,"y":2575426.6099999994}},{"attributes":{"ID":28912,"DIS_CODE":0,"TOWNNAME":"柳營區","LI":"士林里","LIN":"8鄰","STREET":" ","SECT":" ","MAREA":"柳營","LANE":" ","ALLEY":" ","HOUSE_NO":"６８之２號","E_COORD97":179524.51000000001,"N_COORD97":2575132.8900000001,"ADDRESS":"柳營６８之２號","OBJECTID":28912},"geometry":{"x":179524.50999999978,"y":2575132.8900000025}},{"attributes":{"ID":28913,"DIS_CODE":0,"TOWNNAME":"柳營區","LI":"士林里","LIN":"8鄰","STREET":" ","SECT":" ","MAREA":"柳營","LANE":" ","ALLEY":" ","HOUSE_NO":"６８號之２","E_COORD97":179524.51000000001,"N_COORD97":2575132.8900000001,"ADDRESS":"柳營６８號之２","OBJECTID":28913},"geometry":{"x":179524.50999999978,"y":2575132.8900000025}},{"attributes":{"ID":28914,"DIS_CODE":0,"TOWNNAME":"柳營區","LI":"士林里","LIN":"8鄰","STREET":" ","SECT":" ","MAREA":"柳營","LANE":" ","ALLEY":" ","HOUSE_NO":"７０之１號","E_COORD97":179506.07000000001,"N_COORD97":2575187.1899999999,"ADDRESS":"柳營７０之１號","OBJECTID":28914},"geometry":{"x":179506.0700000003,"y":2575187.1900000013}},{"attributes":{"ID":28915,"DIS_CODE":0,"TOWNNAME":"新營區","LI":"鐵線里","LIN":"14鄰","STREET":" ","SECT":" ","MAREA":"秀才","LANE":" ","ALLEY":" ","HOUSE_NO":"２１之３號","E_COORD97":174575.54999999999,"N_COORD97":2573834,"ADDRESS":"秀才２１之３號","OBJECTID":28915},"geometry":{"x":174575.55000000075,"y":2573834.0000000019}},{"attributes":{"ID":28916,"DIS_CODE":0,"TOWNNAME":"新營區","LI":"嘉芳里","LIN":" ","STREET":" ","SECT":" ","MAREA":"茄苳腳","LANE":" ","ALLEY":" ","HOUSE_NO":"４６之１２號","E_COORD97":176868.37,"N_COORD97":2578524.7999999998,"ADDRESS":"茄苳腳４６之１２號","OBJECTID":28916},"geometry":{"x":176868.37000000197,"y":2578524.8000000026}},{"attributes":{"ID":28917,"DIS_CODE":0,"TOWNNAME":"東山區","LI":"大客里","LIN":"8鄰","STREET":" ","SECT":" ","MAREA":"大庄","LANE":" ","ALLEY":" ","HOUSE_NO":"６６號","E_COORD97":189761.66,"N_COORD97":2579033.5299999998,"ADDRESS":"大庄６６號","OBJECTID":28917},"geometry":{"x":189761.66000000201,"y":2579033.5300000012}},{"attributes":{"ID":28918,"DIS_CODE":0,"TOWNNAME":"東山區","LI":"大客里","LIN":"8鄰","STREET":" ","SECT":" ","MAREA":"大庄","LANE":" ","ALLEY":" ","HOUSE_NO":"６７號之１","E_COORD97":189786,"N_COORD97":2579045.4900000002,"ADDRESS":"大庄６７號之１","OBJECTID":28918},"geometry":{"x":189786,"y":2579045.4900000002}},{"attributes":{"ID":28919,"DIS_CODE":0,"TOWNNAME":"東山區","LI":"大客里","LIN":"8鄰","STREET":" ","SECT":" ","MAREA":"大庄","LANE":" ","ALLEY":" ","HOUSE_NO":"６８號","E_COORD97":189811.32999999999,"N_COORD97":2579072.3399999999,"ADDRESS":"大庄６８號","OBJECTID":28919},"geometry":{"x":189811.33000000194,"y":2579072.3400000017}},{"attributes":{"ID":28920,"DIS_CODE":0,"TOWNNAME":"東山區","LI":"大客里","LIN":"8鄰","STREET":" ","SECT":" ","MAREA":"大庄","LANE":" ","ALLEY":" ","HOUSE_NO":"６９號之１","E_COORD97":189795.76999999999,"N_COORD97":2579033.9199999999,"ADDRESS":"大庄６９號之１","OBJECTID":28920},"geometry":{"x":189795.76999999862,"y":2579033.9200000037}},{"attributes":{"ID":28921,"DIS_CODE":0,"TOWNNAME":"東山區","LI":"大客里","LIN":"8鄰","STREET":" ","SECT":" ","MAREA":"大庄","LANE":" ","ALLEY":" ","HOUSE_NO":"７０號之１","E_COORD97":189829.79999999999,"N_COORD97":2579014.0699999998,"ADDRESS":"大庄７０號之１","OBJECTID":28921},"geometry":{"x":189829.80000000168,"y":2579014.0700000022}},{"attributes":{"ID":28922,"DIS_CODE":0,"TOWNNAME":"東山區","LI":"大客里","LIN":"8鄰","STREET":" ","SECT":" ","MAREA":"大庄","LANE":" ","ALLEY":" ","HOUSE_NO":"７０號之２","E_COORD97":189842.35999999999,"N_COORD97":2579016.6800000002,"ADDRESS":"大庄７０號之２","OBJECTID":28922},"geometry":{"x":189842.36000000127,"y":2579016.6799999997}},{"attributes":{"ID":28923,"DIS_CODE":0,"TOWNNAME":"東山區","LI":"大客里","LIN":"8鄰","STREET":" ","SECT":" ","MAREA":"大庄","LANE":" ","ALLEY":" ","HOUSE_NO":"７０號之３","E_COORD97":189844.32999999999,"N_COORD97":2579027.1400000001,"ADDRESS":"大庄７０號之３","OBJECTID":28923},"geometry":{"x":189844.33000000007,"y":2579027.1400000025}},{"attributes":{"ID":28924,"DIS_CODE":0,"TOWNNAME":"東山區","LI":"大客里","LIN":"8鄰","STREET":" ","SECT":" ","MAREA":"大庄","LANE":" ","ALLEY":" ","HOUSE_NO":"７０號","E_COORD97":189821.57999999999,"N_COORD97":2579019.3999999999,"ADDRESS":"大庄７０號","OBJECTID":28924},"geometry":{"x":189821.58000000101,"y":2579019.4000000004}},{"attributes":{"ID":28925,"DIS_CODE":0,"TOWNNAME":"新營區","LI":"嘉芳里","LIN":"5鄰","STREET":" ","SECT":" ","MAREA":"茄苳腳","LANE":" ","ALLEY":" ","HOUSE_NO":"６０號之１４","E_COORD97":176916.10999999999,"N_COORD97":2578471.3999999999,"ADDRESS":"茄苳腳６０之１４號","OBJECTID":28925},"geometry":{"x":176916.1100000022,"y":2578471.3999999985}},{"attributes":{"ID":28926,"DIS_CODE":0,"TOWNNAME":"新營區","LI":"太北里","LIN":"8鄰","STREET":" ","SECT":" ","MAREA":"太子宮","LANE":" ","ALLEY":" ","HOUSE_NO":"６６之１號","E_COORD97":176018.20999999999,"N_COORD97":2577119.21,"ADDRESS":"太子宮６６之１號","OBJECTID":28926},"geometry":{"x":176018.21000000183,"y":2577119.2100000009}},{"attributes":{"ID":28927,"DIS_CODE":0,"TOWNNAME":"新營區","LI":"護鎮里","LIN":"8鄰","STREET":" ","SECT":" ","MAREA":"後鎮","LANE":" ","ALLEY":" ","HOUSE_NO":"８５之１６號","E_COORD97":179237.48000000001,"N_COORD97":2580913.1400000001,"ADDRESS":"後鎮８５之１６號","OBJECTID":28927},"geometry":{"x":179237.48000000045,"y":2580913.1400000006}},{"attributes":{"ID":28928,"DIS_CODE":0,"TOWNNAME":"新營區","LI":"太北里","LIN":"8鄰","STREET":" ","SECT":" ","MAREA":"太子宮","LANE":" ","ALLEY":" ","HOUSE_NO":"６８號","E_COORD97":176049.32999999999,"N_COORD97":2577091.3100000001,"ADDRESS":"太子宮６８號","OBJECTID":28928},"geometry":{"x":176049.33000000007,"y":2577091.3100000005}},{"attributes":{"ID":28929,"DIS_CODE":0,"TOWNNAME":"新營區","LI":"護鎮里","LIN":"8鄰","STREET":" ","SECT":" ","MAREA":"後鎮","LANE":" ","ALLEY":" ","HOUSE_NO":"８５之１３號","E_COORD97":179250.78,"N_COORD97":2580913.0800000001,"ADDRESS":"後鎮８５之１３號","OBJECTID":28929},"geometry":{"x":179250.78000000212,"y":2580913.0800000001}},{"attributes":{"ID":28930,"DIS_CODE":0,"TOWNNAME":"新營區","LI":"太北里","LIN":"8鄰","STREET":" ","SECT":" ","MAREA":"太子宮","LANE":" ","ALLEY":" ","HOUSE_NO":"６６之８號","E_COORD97":176023.29000000001,"N_COORD97":2577111.4300000002,"ADDRESS":"太子宮６６之８號","OBJECTID":28930},"geometry":{"x":176023.29000000097,"y":2577111.4300000016}},{"attributes":{"ID":28931,"DIS_CODE":0,"TOWNNAME":"新營區","LI":"太北里","LIN":"8鄰","STREET":" ","SECT":" ","MAREA":"太子宮","LANE":" ","ALLEY":" ","HOUSE_NO":"６７號","E_COORD97":176026.85000000001,"N_COORD97":2577096.96,"ADDRESS":"太子宮６７號","OBJECTID":28931},"geometry":{"x":176026.84999999963,"y":2577096.9600000009}},{"attributes":{"ID":28932,"DIS_CODE":0,"TOWNNAME":"新營區","LI":"護鎮里","LIN":"8鄰","STREET":" ","SECT":" ","MAREA":"後鎮","LANE":" ","ALLEY":" ","HOUSE_NO":"８５之５３號","E_COORD97":179304.13,"N_COORD97":2580949.3700000001,"ADDRESS":"後鎮８５之５３號","OBJECTID":28932},"geometry":{"x":179304.13000000082,"y":2580949.370000001}},{"attributes":{"ID":28933,"DIS_CODE":0,"TOWNNAME":"新營區","LI":"太北里","LIN":"8鄰","STREET":" ","SECT":" ","MAREA":"太子宮","LANE":" ","ALLEY":" ","HOUSE_NO":"６６號之４","E_COORD97":176029.32999999999,"N_COORD97":2577159.02,"ADDRESS":"太子宮６６號之４","OBJECTID":28933},"geometry":{"x":176029.33000000194,"y":2577159.0200000014}},{"attributes":{"ID":28934,"DIS_CODE":0,"TOWNNAME":"新營區","LI":"護鎮里","LIN":"8鄰","STREET":" ","SECT":" ","MAREA":"後鎮","LANE":" ","ALLEY":" ","HOUSE_NO":"８５之５２號","E_COORD97":179304.10999999999,"N_COORD97":2580946.04,"ADDRESS":"後鎮８５之５２號","OBJECTID":28934},"geometry":{"x":179304.11000000034,"y":2580946.0399999991}},{"attributes":{"ID":28935,"DIS_CODE":0,"TOWNNAME":"新營區","LI":"護鎮里","LIN":"8鄰","STREET":" ","SECT":" ","MAREA":"後鎮","LANE":" ","ALLEY":" ","HOUSE_NO":"８５之５１號","E_COORD97":179304.09,"N_COORD97":2580941.6099999999,"ADDRESS":"後鎮８５之５１號","OBJECTID":28935},"geometry":{"x":179304.08999999892,"y":2580941.6100000013}},{"attributes":{"ID":28936,"DIS_CODE":0,"TOWNNAME":"新營區","LI":"護鎮里","LIN":"8鄰","STREET":" ","SECT":" ","MAREA":"後鎮","LANE":" ","ALLEY":" ","HOUSE_NO":"８５之２７號","E_COORD97":179168.95999999999,"N_COORD97":2580913.4700000002,"ADDRESS":"後鎮８５之２７號","OBJECTID":28936},"geometry":{"x":179168.95999999996,"y":2580913.4700000025}},{"attributes":{"ID":28937,"DIS_CODE":0,"TOWNNAME":"仁德區","LI":"後壁里","LIN":"14鄰","STREET":"德善路","SECT":" ","MAREA":" ","LANE":" ","ALLEY":" ","HOUSE_NO":"１７８號","E_COORD97":173637.82000000001,"N_COORD97":2538773.77,"ADDRESS":"德善路１７８號","OBJECTID":28937},"geometry":{"x":173637.82000000216,"y":2538773.7700000033}},{"attributes":{"ID":28938,"DIS_CODE":0,"TOWNNAME":"官田區","LI":"渡頭里","LIN":"14鄰","STREET":" ","SECT":" ","MAREA":"渡子頭","LANE":" ","ALLEY":" ","HOUSE_NO":"１０５號","E_COORD97":181130.38,"N_COORD97":2563086.7400000002,"ADDRESS":"渡子頭１０５號","OBJECTID":28938},"geometry":{"x":181130.38000000082,"y":2563086.7399999984}},{"attributes":{"ID":28939,"DIS_CODE":0,"TOWNNAME":"官田區","LI":"渡頭里","LIN":"14鄰","STREET":" ","SECT":" ","MAREA":"渡子頭","LANE":" ","ALLEY":" ","HOUSE_NO":"１０６號之１０","E_COORD97":181109.32000000001,"N_COORD97":2563068.9100000001,"ADDRESS":"渡子頭１０６號之１０","OBJECTID":28939},"geometry":{"x":181109.3200000003,"y":2563068.9100000039}},{"attributes":{"ID":28940,"DIS_CODE":0,"TOWNNAME":"官田區","LI":"渡頭里","LIN":"14鄰","STREET":" ","SECT":" ","MAREA":"渡子頭","LANE":" ","ALLEY":" ","HOUSE_NO":"１０６號之１","E_COORD97":181105.12,"N_COORD97":2563071.7599999998,"ADDRESS":"渡子頭１０６號之１","OBJECTID":28940},"geometry":{"x":181105.12000000104,"y":2563071.7599999998}},{"attributes":{"ID":28941,"DIS_CODE":0,"TOWNNAME":"官田區","LI":"渡頭里","LIN":"14鄰","STREET":" ","SECT":" ","MAREA":"渡子頭","LANE":" ","ALLEY":" ","HOUSE_NO":"１０６號之２","E_COORD97":181131.91,"N_COORD97":2563060.1699999999,"ADDRESS":"渡子頭１０６號之２","OBJECTID":28941},"geometry":{"x":181131.91000000108,"y":2563060.1700000037}},{"attributes":{"ID":28942,"DIS_CODE":0,"TOWNNAME":"官田區","LI":"渡頭里","LIN":"14鄰","STREET":" ","SECT":" ","MAREA":"渡子頭","LANE":" ","ALLEY":" ","HOUSE_NO":"１０６號之３","E_COORD97":181127.66,"N_COORD97":2563063.8300000001,"ADDRESS":"渡子頭１０６號之３","OBJECTID":28942},"geometry":{"x":181127.66000000015,"y":2563063.8300000019}},{"attributes":{"ID":28943,"DIS_CODE":0,"TOWNNAME":"官田區","LI":"二鎮里","LIN":"14鄰","STREET":" ","SECT":" ","MAREA":"程泰","LANE":" ","ALLEY":" ","HOUSE_NO":"５８號","E_COORD97":181693.54999999999,"N_COORD97":2566504.1000000001,"ADDRESS":"程泰５８號","OBJECTID":28943},"geometry":{"x":181693.55000000075,"y":2566504.0999999996}},{"attributes":{"ID":28944,"DIS_CODE":0,"TOWNNAME":"官田區","LI":"二鎮里","LIN":"14鄰","STREET":" ","SECT":" ","MAREA":"程泰","LANE":" ","ALLEY":" ","HOUSE_NO":"５９號","E_COORD97":181640.51999999999,"N_COORD97":2566514.1099999999,"ADDRESS":"程泰５９號","OBJECTID":28944},"geometry":{"x":181640.52000000048,"y":2566514.1099999994}},{"attributes":{"ID":28945,"DIS_CODE":0,"TOWNNAME":"官田區","LI":"二鎮里","LIN":"14鄰","STREET":" ","SECT":" ","MAREA":"程泰","LANE":" ","ALLEY":" ","HOUSE_NO":"５號","E_COORD97":181616.16,"N_COORD97":2566285.8900000001,"ADDRESS":"程泰５號","OBJECTID":28945},"geometry":{"x":181616.15999999922,"y":2566285.8900000006}},{"attributes":{"ID":28946,"DIS_CODE":0,"TOWNNAME":"官田區","LI":"二鎮里","LIN":"14鄰","STREET":" ","SECT":" ","MAREA":"程泰","LANE":" ","ALLEY":" ","HOUSE_NO":"６０號","E_COORD97":181678.45999999999,"N_COORD97":2566487.6600000001,"ADDRESS":"程泰６０號","OBJECTID":28946},"geometry":{"x":181678.46000000183,"y":2566487.6600000001}},{"attributes":{"ID":28947,"DIS_CODE":0,"TOWNNAME":"永康區","LI":"神洲里","LIN":"17鄰","STREET":"忠孝路","SECT":" ","MAREA":" ","LANE":"７６巷","ALLEY":"４７弄","HOUSE_NO":"１１號五樓","E_COORD97":172208.37,"N_COORD97":2544940.8300000001,"ADDRESS":"忠孝路７６巷４７弄１１號五樓","OBJECTID":28947},"geometry":{"x":172208.37000000104,"y":2544940.8300000038}},{"attributes":{"ID":28948,"DIS_CODE":0,"TOWNNAME":"永康區","LI":"神洲里","LIN":"17鄰","STREET":"忠孝路","SECT":" ","MAREA":" ","LANE":"７６巷","ALLEY":"４７弄","HOUSE_NO":"１７號三樓","E_COORD97":172171.06,"N_COORD97":2544937.1899999999,"ADDRESS":"忠孝路７６巷４７弄１７號三樓","OBJECTID":28948},"geometry":{"x":172171.06000000052,"y":2544937.1899999995}},{"attributes":{"ID":28949,"DIS_CODE":0,"TOWNNAME":"永康區","LI":"神洲里","LIN":"17鄰","STREET":"忠孝路","SECT":" ","MAREA":" ","LANE":"７６巷","ALLEY":"４７弄","HOUSE_NO":"１９號三樓","E_COORD97":172157.04000000001,"N_COORD97":2544937.4399999999,"ADDRESS":"忠孝路７６巷４７弄１９號三樓","OBJECTID":28949},"geometry":{"x":172157.04000000004,"y":2544937.4400000013}},{"attributes":{"ID":28950,"DIS_CODE":0,"TOWNNAME":"官田區","LI":"二鎮里","LIN":"14鄰","STREET":" ","SECT":" ","MAREA":"程泰","LANE":" ","ALLEY":" ","HOUSE_NO":"８３號","E_COORD97":181623.44,"N_COORD97":2566623.77,"ADDRESS":"程泰８３號","OBJECTID":28950},"geometry":{"x":181623.44000000134,"y":2566623.7700000014}},{"attributes":{"ID":28951,"DIS_CODE":0,"TOWNNAME":"官田區","LI":"二鎮里","LIN":"14鄰","STREET":" ","SECT":" ","MAREA":"程泰","LANE":" ","ALLEY":" ","HOUSE_NO":"８８號","E_COORD97":182050.23999999999,"N_COORD97":2566837.29,"ADDRESS":"程泰８８號","OBJECTID":28951},"geometry":{"x":182050.24000000115,"y":2566837.2899999991}},{"attributes":{"ID":28952,"DIS_CODE":0,"TOWNNAME":"官田區","LI":"二鎮里","LIN":"14鄰","STREET":" ","SECT":" ","MAREA":"程泰","LANE":" ","ALLEY":" ","HOUSE_NO":"８號","E_COORD97":181710.51999999999,"N_COORD97":2566366.0800000001,"ADDRESS":"程泰８號","OBJECTID":28952},"geometry":{"x":181710.52000000048,"y":2566366.0800000001}},{"attributes":{"ID":28953,"DIS_CODE":0,"TOWNNAME":"官田區","LI":"二鎮里","LIN":"14鄰","STREET":" ","SECT":" ","MAREA":"程泰","LANE":" ","ALLEY":" ","HOUSE_NO":"９１號","E_COORD97":181645.82999999999,"N_COORD97":2566852.54,"ADDRESS":"程泰９１號","OBJECTID":28953},"geometry":{"x":181645.83000000101,"y":2566852.5399999991}},{"attributes":{"ID":28954,"DIS_CODE":0,"TOWNNAME":"官田區","LI":"二鎮里","LIN":"14鄰","STREET":" ","SECT":" ","MAREA":"程泰","LANE":" ","ALLEY":" ","HOUSE_NO":"９６號","E_COORD97":181945.07999999999,"N_COORD97":2566708.8100000001,"ADDRESS":"程泰９６號","OBJECTID":28954},"geometry":{"x":181945.08000000007,"y":2566708.8100000024}},{"attributes":{"ID":28955,"DIS_CODE":0,"TOWNNAME":"新營區","LI":"護鎮里","LIN":"8鄰","STREET":" ","SECT":" ","MAREA":"後鎮","LANE":" ","ALLEY":" ","HOUSE_NO":"８５之７號","E_COORD97":179301.70999999999,"N_COORD97":2580919.4700000002,"ADDRESS":"後鎮８５之７號","OBJECTID":28955},"geometry":{"x":179301.71000000183,"y":2580919.4700000044}},{"attributes":{"ID":28956,"DIS_CODE":0,"TOWNNAME":"安定區","LI":"海寮里","LIN":"14鄰","STREET":" ","SECT":" ","MAREA":"海寮","LANE":" ","ALLEY":" ","HOUSE_NO":"１３２號之７８","E_COORD97":168990.78,"N_COORD97":2555421.2999999998,"ADDRESS":"海寮１３２號之７８","OBJECTID":28956},"geometry":{"x":168990.78000000026,"y":2555421.2999999989}},{"attributes":{"ID":28957,"DIS_CODE":0,"TOWNNAME":"新市區","LI":"潭頂里","LIN":"14鄰","STREET":" ","SECT":" ","MAREA":"潭頂","LANE":" ","ALLEY":" ","HOUSE_NO":"５３７之６號","E_COORD97":180186.51000000001,"N_COORD97":2552845.2999999998,"ADDRESS":"潭頂５３７之６號","OBJECTID":28957},"geometry":{"x":180186.51000000071,"y":2552845.3000000026}},{"attributes":{"ID":28958,"DIS_CODE":0,"TOWNNAME":"新市區","LI":"潭頂里","LIN":"14鄰","STREET":" ","SECT":" ","MAREA":"潭頂","LANE":" ","ALLEY":" ","HOUSE_NO":"５４４號之５","E_COORD97":179836.85000000001,"N_COORD97":2552854.2999999998,"ADDRESS":"潭頂５４４號之５","OBJECTID":28958},"geometry":{"x":179836.85000000056,"y":2552854.3000000007}},{"attributes":{"ID":28959,"DIS_CODE":0,"TOWNNAME":"新營區","LI":"護鎮里","LIN":"8鄰","STREET":" ","SECT":" ","MAREA":"後鎮","LANE":" ","ALLEY":" ","HOUSE_NO":"８５號之１０","E_COORD97":179270.92999999999,"N_COORD97":2580915.1899999999,"ADDRESS":"後鎮８５號之１０","OBJECTID":28959},"geometry":{"x":179270.9299999997,"y":2580915.1899999995}},{"attributes":{"ID":28960,"DIS_CODE":0,"TOWNNAME":"新營區","LI":"護鎮里","LIN":"8鄰","STREET":" ","SECT":" ","MAREA":"後鎮","LANE":" ","ALLEY":" ","HOUSE_NO":"８５之５５號","E_COORD97":179303.14000000001,"N_COORD97":2580958.23,"ADDRESS":"後鎮８５之５５號","OBJECTID":28960},"geometry":{"x":179303.13999999966,"y":2580958.2300000023}},{"attributes":{"ID":28961,"DIS_CODE":0,"TOWNNAME":"新營區","LI":"嘉芳里","LIN":"8鄰","STREET":" ","SECT":" ","MAREA":"茄苳腳","LANE":" ","ALLEY":" ","HOUSE_NO":"７８之２３號","E_COORD97":176837.89999999999,"N_COORD97":2578578.1000000001,"ADDRESS":"茄苳腳７８之２３號","OBJECTID":28961},"geometry":{"x":176837.90000000224,"y":2578578.1000000034}},{"attributes":{"ID":28962,"DIS_CODE":0,"TOWNNAME":"新營區","LI":"嘉芳里","LIN":"10鄰","STREET":" ","SECT":" ","MAREA":"茄苳腳","LANE":" ","ALLEY":" ","HOUSE_NO":"７８號之２１","E_COORD97":176839.91,"N_COORD97":2578570.3399999999,"ADDRESS":"茄苳腳７８之２１號","OBJECTID":28962},"geometry":{"x":176839.91000000108,"y":2578570.3400000017}},{"attributes":{"ID":28963,"DIS_CODE":0,"TOWNNAME":"新營區","LI":"嘉芳里","LIN":"8鄰","STREET":" ","SECT":" ","MAREA":"茄苳腳","LANE":" ","ALLEY":" ","HOUSE_NO":"７８之２０號","E_COORD97":176839.88,"N_COORD97":2578565.9100000001,"ADDRESS":"茄苳腳７８之２０號","OBJECTID":28963},"geometry":{"x":176839.88000000082,"y":2578565.9100000001}},{"attributes":{"ID":28964,"DIS_CODE":0,"TOWNNAME":"新營區","LI":"嘉芳里","LIN":"8鄰","STREET":" ","SECT":" ","MAREA":"茄苳腳","LANE":" ","ALLEY":" ","HOUSE_NO":"７５號","E_COORD97":176754.04999999999,"N_COORD97":2578515.3300000001,"ADDRESS":"茄苳腳７５號","OBJECTID":28964},"geometry":{"x":176754.04999999981,"y":2578515.3300000001}},{"attributes":{"ID":28965,"DIS_CODE":0,"TOWNNAME":"新營區","LI":"嘉芳里","LIN":"8鄰","STREET":" ","SECT":" ","MAREA":"茄苳腳","LANE":" ","ALLEY":" ","HOUSE_NO":"８２號","E_COORD97":176733.87,"N_COORD97":2578561.9300000002,"ADDRESS":"茄苳腳８２號","OBJECTID":28965},"geometry":{"x":176733.87000000011,"y":2578561.9299999978}},{"attributes":{"ID":28966,"DIS_CODE":0,"TOWNNAME":"新營區","LI":"嘉芳里","LIN":"8鄰","STREET":" ","SECT":" ","MAREA":"茄苳腳","LANE":" ","ALLEY":" ","HOUSE_NO":"７８之８號","E_COORD97":176830.20999999999,"N_COORD97":2578517.23,"ADDRESS":"茄苳腳７８之８號","OBJECTID":28966},"geometry":{"x":176830.21000000183,"y":2578517.2300000023}},{"attributes":{"ID":28967,"DIS_CODE":0,"TOWNNAME":"永康區","LI":"神洲里","LIN":"17鄰","STREET":"忠孝路","SECT":" ","MAREA":" ","LANE":"７６巷","ALLEY":"４７弄","HOUSE_NO":"１９號四樓","E_COORD97":172157.04000000001,"N_COORD97":2544937.4399999999,"ADDRESS":"忠孝路７６巷４７弄１９號四樓","OBJECTID":28967},"geometry":{"x":172157.04000000004,"y":2544937.4400000013}},{"attributes":{"ID":28968,"DIS_CODE":0,"TOWNNAME":"新營區","LI":"嘉芳里","LIN":"8鄰","STREET":" ","SECT":" ","MAREA":"茄苳腳","LANE":" ","ALLEY":" ","HOUSE_NO":"７８之６號","E_COORD97":176822.01999999999,"N_COORD97":2578516.1600000001,"ADDRESS":"茄苳腳７８之６號","OBJECTID":28968},"geometry":{"x":176822.01999999955,"y":2578516.1600000001}},{"attributes":{"ID":28969,"DIS_CODE":0,"TOWNNAME":"永康區","LI":"神洲里","LIN":"17鄰","STREET":"忠孝路","SECT":" ","MAREA":" ","LANE":"７６巷","ALLEY":"４７弄","HOUSE_NO":"１９號五樓","E_COORD97":172157.04000000001,"N_COORD97":2544937.4399999999,"ADDRESS":"忠孝路７６巷４７弄１９號五樓","OBJECTID":28969},"geometry":{"x":172157.04000000004,"y":2544937.4400000013}},{"attributes":{"ID":28970,"DIS_CODE":0,"TOWNNAME":"東區","LI":"大智里","LIN":"17鄰","STREET":"德東街","SECT":" ","MAREA":" ","LANE":"１５１巷","ALLEY":"３７弄","HOUSE_NO":"１號三樓","E_COORD97":171166.64999999999,"N_COORD97":2540359.71,"ADDRESS":"德東街１５１巷３７弄１號三樓","OBJECTID":28970},"geometry":{"x":171166.65000000037,"y":2540359.7100000028}},{"attributes":{"ID":28971,"DIS_CODE":0,"TOWNNAME":"新營區","LI":"護鎮里","LIN":"8鄰","STREET":" ","SECT":" ","MAREA":"後鎮","LANE":" ","ALLEY":" ","HOUSE_NO":"８５號之４","E_COORD97":179275.92999999999,"N_COORD97":2580947.2799999998,"ADDRESS":"後鎮８５號之４","OBJECTID":28971},"geometry":{"x":179275.9299999997,"y":2580947.2800000012}},{"attributes":{"ID":28972,"DIS_CODE":0,"TOWNNAME":"東區","LI":"大智里","LIN":"17鄰","STREET":"德東街","SECT":" ","MAREA":" ","LANE":"１５１巷","ALLEY":"３７弄","HOUSE_NO":"１號七樓","E_COORD97":171166.64999999999,"N_COORD97":2540359.71,"ADDRESS":"德東街１５１巷３７弄１號七樓","OBJECTID":28972},"geometry":{"x":171166.65000000037,"y":2540359.7100000028}},{"attributes":{"ID":28973,"DIS_CODE":0,"TOWNNAME":"東山區","LI":"水雲里","LIN":"8鄰","STREET":" ","SECT":" ","MAREA":"牛肉崎","LANE":" ","ALLEY":" ","HOUSE_NO":"４７號","E_COORD97":190336.62,"N_COORD97":2573425.04,"ADDRESS":"牛肉崎４７號","OBJECTID":28973},"geometry":{"x":190336.62000000197,"y":2573425.040000001}},{"attributes":{"ID":28974,"DIS_CODE":0,"TOWNNAME":"東山區","LI":"水雲里","LIN":"8鄰","STREET":" ","SECT":" ","MAREA":"牛肉崎","LANE":" ","ALLEY":" ","HOUSE_NO":"４８號之２","E_COORD97":190342.23999999999,"N_COORD97":2573408.5299999998,"ADDRESS":"牛肉崎４８號之２","OBJECTID":28974},"geometry":{"x":190342.24000000022,"y":2573408.5300000012}},{"attributes":{"ID":28975,"DIS_CODE":0,"TOWNNAME":"東山區","LI":"水雲里","LIN":"8鄰","STREET":" ","SECT":" ","MAREA":"牛肉崎","LANE":" ","ALLEY":" ","HOUSE_NO":"４８號","E_COORD97":190332.04999999999,"N_COORD97":2573401.71,"ADDRESS":"牛肉崎４８號","OBJECTID":28975},"geometry":{"x":190332.05000000075,"y":2573401.7100000028}},{"attributes":{"ID":28976,"DIS_CODE":0,"TOWNNAME":"官田區","LI":"隆本里","LIN":"14鄰","STREET":"興隆街","SECT":" ","MAREA":" ","LANE":" ","ALLEY":" ","HOUSE_NO":"２０８號","E_COORD97":179668.42999999999,"N_COORD97":2566336.6800000002,"ADDRESS":"興隆街２０８號","OBJECTID":28976},"geometry":{"x":179668.43000000063,"y":2566336.6799999997}},{"attributes":{"ID":28977,"DIS_CODE":0,"TOWNNAME":"東山區","LI":"水雲里","LIN":"8鄰","STREET":" ","SECT":" ","MAREA":"牛肉崎","LANE":" ","ALLEY":" ","HOUSE_NO":"５０號","E_COORD97":190317.39000000001,"N_COORD97":2573445.6299999999,"ADDRESS":"牛肉崎５０號","OBJECTID":28977},"geometry":{"x":190317.39000000153,"y":2573445.6300000008}},{"attributes":{"ID":28978,"DIS_CODE":0,"TOWNNAME":"東山區","LI":"水雲里","LIN":"8鄰","STREET":" ","SECT":" ","MAREA":"牛肉崎","LANE":" ","ALLEY":" ","HOUSE_NO":"５１號之６","E_COORD97":190224.29999999999,"N_COORD97":2573524.7200000002,"ADDRESS":"牛肉崎５１號之６","OBJECTID":28978},"geometry":{"x":190224.29999999981,"y":2573524.7200000025}},{"attributes":{"ID":28979,"DIS_CODE":0,"TOWNNAME":"東山區","LI":"水雲里","LIN":"8鄰","STREET":" ","SECT":" ","MAREA":"牛肉崎","LANE":" ","ALLEY":" ","HOUSE_NO":"５１號","E_COORD97":190320.69,"N_COORD97":2573467.8100000001,"ADDRESS":"牛肉崎５１號","OBJECTID":28979},"geometry":{"x":190320.69000000041,"y":2573467.8100000005}},{"attributes":{"ID":28980,"DIS_CODE":0,"TOWNNAME":"東山區","LI":"水雲里","LIN":"8鄰","STREET":" ","SECT":" ","MAREA":"牛肉崎","LANE":" ","ALLEY":" ","HOUSE_NO":"５２號之１","E_COORD97":189920.97,"N_COORD97":2573430.2400000002,"ADDRESS":"牛肉崎５２號之１","OBJECTID":28980},"geometry":{"x":189920.97000000067,"y":2573430.2400000002}},{"attributes":{"ID":28981,"DIS_CODE":0,"TOWNNAME":"東山區","LI":"水雲里","LIN":"8鄰","STREET":" ","SECT":" ","MAREA":"牛肉崎","LANE":" ","ALLEY":" ","HOUSE_NO":"５２號之２","E_COORD97":189907.51999999999,"N_COORD97":2573322.73,"ADDRESS":"牛肉崎５２號之２","OBJECTID":28981},"geometry":{"x":189907.51999999955,"y":2573322.7300000042}},{"attributes":{"ID":28982,"DIS_CODE":0,"TOWNNAME":"東山區","LI":"水雲里","LIN":"8鄰","STREET":" ","SECT":" ","MAREA":"牛肉崎","LANE":" ","ALLEY":" ","HOUSE_NO":"５２號","E_COORD97":190292.19,"N_COORD97":2573465.71,"ADDRESS":"牛肉崎５２號","OBJECTID":28982},"geometry":{"x":190292.18999999948,"y":2573465.7100000046}},{"attributes":{"ID":28983,"DIS_CODE":0,"TOWNNAME":"東山區","LI":"水雲里","LIN":"8鄰","STREET":" ","SECT":" ","MAREA":"牛肉崎","LANE":" ","ALLEY":" ","HOUSE_NO":"５３號","E_COORD97":190290.23999999999,"N_COORD97":2573418.77,"ADDRESS":"牛肉崎５３號","OBJECTID":28983},"geometry":{"x":190290.24000000115,"y":2573418.7699999996}},{"attributes":{"ID":28984,"DIS_CODE":0,"TOWNNAME":"東山區","LI":"水雲里","LIN":"8鄰","STREET":" ","SECT":" ","MAREA":"牛肉崎","LANE":" ","ALLEY":" ","HOUSE_NO":"５４號","E_COORD97":190284.26999999999,"N_COORD97":2573444.8599999999,"ADDRESS":"牛肉崎５４號","OBJECTID":28984},"geometry":{"x":190284.27000000048,"y":2573444.8599999994}},{"attributes":{"ID":28985,"DIS_CODE":0,"TOWNNAME":"官田區","LI":"隆本里","LIN":"14鄰","STREET":"興隆街","SECT":" ","MAREA":" ","LANE":" ","ALLEY":" ","HOUSE_NO":"２１２號","E_COORD97":179655.51999999999,"N_COORD97":2566337.7400000002,"ADDRESS":"興隆街２１２號","OBJECTID":28985},"geometry":{"x":179655.52000000048,"y":2566337.7400000002}},{"attributes":{"ID":28986,"DIS_CODE":0,"TOWNNAME":"官田區","LI":"隆本里","LIN":"14鄰","STREET":"興隆街","SECT":" ","MAREA":" ","LANE":" ","ALLEY":" ","HOUSE_NO":"２１６號","E_COORD97":179651,"N_COORD97":2566338.0699999998,"ADDRESS":"興隆街２１６號","OBJECTID":28986},"geometry":{"x":179651.00000000093,"y":2566338.0700000003}},{"attributes":{"ID":28987,"DIS_CODE":0,"TOWNNAME":"新市區","LI":"新和里","LIN":"14鄰","STREET":"忠孝街","SECT":" ","MAREA":" ","LANE":" ","ALLEY":" ","HOUSE_NO":"１０４號","E_COORD97":177696.95999999999,"N_COORD97":2552593,"ADDRESS":"忠孝街１０４號","OBJECTID":28987},"geometry":{"x":177696.96000000089,"y":2552593.0000000019}},{"attributes":{"ID":28988,"DIS_CODE":0,"TOWNNAME":"東山區","LI":"水雲里","LIN":"8鄰","STREET":" ","SECT":" ","MAREA":"牛肉崎","LANE":" ","ALLEY":" ","HOUSE_NO":"５６號","E_COORD97":190277.60000000001,"N_COORD97":2573404.6400000001,"ADDRESS":"牛肉崎５６號","OBJECTID":28988},"geometry":{"x":190277.60000000056,"y":2573404.6400000006}},{"attributes":{"ID":28989,"DIS_CODE":0,"TOWNNAME":"東山區","LI":"水雲里","LIN":"8鄰","STREET":" ","SECT":" ","MAREA":"牛肉崎","LANE":" ","ALLEY":" ","HOUSE_NO":"５９號之１","E_COORD97":190364.62,"N_COORD97":2573280.1299999999,"ADDRESS":"牛肉崎５９號之１","OBJECTID":28989},"geometry":{"x":190364.62000000011,"y":2573280.129999999}},{"attributes":{"ID":28990,"DIS_CODE":0,"TOWNNAME":"東山區","LI":"水雲里","LIN":"8鄰","STREET":" ","SECT":" ","MAREA":"牛肉崎","LANE":" ","ALLEY":" ","HOUSE_NO":"５９號","E_COORD97":190326.72,"N_COORD97":2573377.4199999999,"ADDRESS":"牛肉崎５９號","OBJECTID":28990},"geometry":{"x":190326.71999999974,"y":2573377.4199999999}},{"attributes":{"ID":28991,"DIS_CODE":0,"TOWNNAME":"東山區","LI":"聖賢里","LIN":"8鄰","STREET":" ","SECT":" ","MAREA":"北勢寮","LANE":" ","ALLEY":" ","HOUSE_NO":"６７號","E_COORD97":184989.39000000001,"N_COORD97":2579507.1000000001,"ADDRESS":"北勢寮６７號","OBJECTID":28991},"geometry":{"x":184989.39000000153,"y":2579507.1000000034}},{"attributes":{"ID":28992,"DIS_CODE":0,"TOWNNAME":"東山區","LI":"聖賢里","LIN":"8鄰","STREET":" ","SECT":" ","MAREA":"北勢寮","LANE":" ","ALLEY":" ","HOUSE_NO":"６８號","E_COORD97":184977.26000000001,"N_COORD97":2579484.3100000001,"ADDRESS":"北勢寮６８號","OBJECTID":28992},"geometry":{"x":184977.26000000071,"y":2579484.3100000024}},{"attributes":{"ID":28993,"DIS_CODE":0,"TOWNNAME":"東區","LI":"大智里","LIN":"17鄰","STREET":"德東街","SECT":" ","MAREA":" ","LANE":"１５１巷","ALLEY":"３７弄","HOUSE_NO":"３號二樓","E_COORD97":171162.54000000001,"N_COORD97":2540359.5099999998,"ADDRESS":"德東街１５１巷３７弄３號二樓","OBJECTID":28993},"geometry":{"x":171162.54000000004,"y":2540359.5100000016}},{"attributes":{"ID":28994,"DIS_CODE":0,"TOWNNAME":"東山區","LI":"聖賢里","LIN":"8鄰","STREET":" ","SECT":" ","MAREA":"北勢寮","LANE":" ","ALLEY":" ","HOUSE_NO":"６９號之１","E_COORD97":184974.67999999999,"N_COORD97":2579449.8300000001,"ADDRESS":"北勢寮６９號之１","OBJECTID":28994},"geometry":{"x":184974.6799999997,"y":2579449.8300000019}},{"attributes":{"ID":28995,"DIS_CODE":0,"TOWNNAME":"東山區","LI":"聖賢里","LIN":"8鄰","STREET":" ","SECT":" ","MAREA":"北勢寮","LANE":" ","ALLEY":" ","HOUSE_NO":"６９號之２","E_COORD97":184984.12,"N_COORD97":2579480.6099999999,"ADDRESS":"北勢寮６９號之２","OBJECTID":28995},"geometry":{"x":184984.12000000011,"y":2579480.6100000013}},{"attributes":{"ID":28996,"DIS_CODE":0,"TOWNNAME":"新營區","LI":"護鎮里","LIN":" ","STREET":" ","SECT":" ","MAREA":"後鎮","LANE":" ","ALLEY":" ","HOUSE_NO":"６８之１號","E_COORD97":179087.57999999999,"N_COORD97":2581063.3500000001,"ADDRESS":"後鎮６８之１號","OBJECTID":28996},"geometry":{"x":179087.58000000194,"y":2581063.3499999996}},{"attributes":{"ID":28997,"DIS_CODE":0,"TOWNNAME":"東山區","LI":"聖賢里","LIN":"8鄰","STREET":" ","SECT":" ","MAREA":"北勢寮","LANE":" ","ALLEY":" ","HOUSE_NO":"７２號","E_COORD97":185013.45999999999,"N_COORD97":2579456.3100000001,"ADDRESS":"北勢寮７２號","OBJECTID":28997},"geometry":{"x":185013.46000000089,"y":2579456.3100000024}},{"attributes":{"ID":28998,"DIS_CODE":0,"TOWNNAME":"東山區","LI":"聖賢里","LIN":"8鄰","STREET":" ","SECT":" ","MAREA":"北勢寮","LANE":" ","ALLEY":" ","HOUSE_NO":"７３號之１０","E_COORD97":184992.41,"N_COORD97":2579379.4199999999,"ADDRESS":"北勢寮７３號之１０","OBJECTID":28998},"geometry":{"x":184992.41000000015,"y":2579379.4199999981}},{"attributes":{"ID":28999,"DIS_CODE":0,"TOWNNAME":"新營區","LI":"太北里","LIN":"18鄰","STREET":" ","SECT":" ","MAREA":"太子宮","LANE":" ","ALLEY":" ","HOUSE_NO":"８之１３號","E_COORD97":176226.47,"N_COORD97":2577226.7000000002,"ADDRESS":"太子宮８之１３號","OBJECTID":28999},"geometry":{"x":176226.4700000016,"y":2577226.6999999993}},{"attributes":{"ID":29000,"DIS_CODE":0,"TOWNNAME":"東區","LI":"大智里","LIN":"17鄰","STREET":"德東街","SECT":" ","MAREA":" ","LANE":"１５１巷","ALLEY":"３７弄","HOUSE_NO":"３號七樓","E_COORD97":171162.54000000001,"N_COORD97":2540359.5099999998,"ADDRESS":"德東街１５１巷３７弄３號七樓","OBJECTID":29000},"geometry":{"x":171162.54000000004,"y":2540359.5100000016}}]}