{"displayFieldName":"TOWNNAME","fieldAliases":{"ID":"ID","DIS_CODE":"DIS_CODE","TOWNNAME":"TOWNNAME","LI":"LI","LIN":"LIN","STREET":"STREET","SECT":"SECT","MAREA":"MAREA","LANE":"LANE","ALLEY":"ALLEY","HOUSE_NO":"HOUSE_NO","E_COORD97":"E_COORD97","N_COORD97":"N_COORD97","ADDRESS":"ADDRESS","OBJECTID":"OBJECTID"},"geometryType":"esriGeometryPoint","spatialReference":{"wkid":102443,"latestWkid":3826},"fields":[{"name":"ID","type":"esriFieldTypeDouble","alias":"ID"},{"name":"DIS_CODE","type":"esriFieldTypeInteger","alias":"DIS_CODE"},{"name":"TOWNNAME","type":"esriFieldTypeString","alias":"TOWNNAME","length":8},{"name":"LI","type":"esriFieldTypeString","alias":"LI","length":8},{"name":"LIN","type":"esriFieldTypeString","alias":"LIN","length":12},{"name":"STREET","type":"esriFieldTypeString","alias":"STREET","length":20},{"name":"SECT","type":"esriFieldTypeString","alias":"SECT","length":8},{"name":"MAREA","type":"esriFieldTypeString","alias":"MAREA","length":12},{"name":"LANE","type":"esriFieldTypeString","alias":"LANE","length":10},{"name":"ALLEY","type":"esriFieldTypeString","alias":"ALLEY","length":10},{"name":"HOUSE_NO","type":"esriFieldTypeString","alias":"HOUSE_NO","length":20},{"name":"E_COORD97","type":"esriFieldTypeDouble","alias":"E_COORD97"},{"name":"N_COORD97","type":"esriFieldTypeDouble","alias":"N_COORD97"},{"name":"ADDRESS","type":"esriFieldTypeString","alias":"ADDRESS","length":50},{"name":"OBJECTID","type":"esriFieldTypeOID","alias":"OBJECTID"}],"features":[{"attributes":{"ID":481226,"DIS_CODE":0,"TOWNNAME":"安南區","LI":"安慶里","LIN":"26鄰","STREET":"長溪路","SECT":"一段","MAREA":" ","LANE":" ","ALLEY":" ","HOUSE_NO":"１５５號","E_COORD97":169020.57999999999,"N_COORD97":2548514.77,"ADDRESS":"長溪路一段１５５號","OBJECTID":481201},"geometry":{"x":169020.58000000101,"y":2548514.7700000014}},{"attributes":{"ID":481227,"DIS_CODE":0,"TOWNNAME":"東區","LI":"崇文里","LIN":"26鄰","STREET":"崇德二十二街","SECT":" ","MAREA":" ","LANE":" ","ALLEY":" ","HOUSE_NO":"１００號","E_COORD97":171080.53,"N_COORD97":2540794.48,"ADDRESS":"崇德二十二街１００號","OBJECTID":481202},"geometry":{"x":171080.53000000119,"y":2540794.4800000023}},{"attributes":{"ID":481228,"DIS_CODE":0,"TOWNNAME":"東區","LI":"崇文里","LIN":"26鄰","STREET":"崇德二十二街","SECT":" ","MAREA":" ","LANE":" ","ALLEY":" ","HOUSE_NO":"１０２號","E_COORD97":171085.60999999999,"N_COORD97":2540794.48,"ADDRESS":"崇德二十二街１０２號","OBJECTID":481203},"geometry":{"x":171085.61000000034,"y":2540794.4800000023}},{"attributes":{"ID":481229,"DIS_CODE":0,"TOWNNAME":"東區","LI":"崇文里","LIN":"26鄰","STREET":"崇德二十二街","SECT":" ","MAREA":" ","LANE":" ","ALLEY":" ","HOUSE_NO":"１０４號","E_COORD97":171090.59,"N_COORD97":2540794.48,"ADDRESS":"崇德二十二街１０４號","OBJECTID":481204},"geometry":{"x":171090.58999999985,"y":2540794.4800000023}},{"attributes":{"ID":481230,"DIS_CODE":0,"TOWNNAME":"東區","LI":"崇文里","LIN":"26鄰","STREET":"崇德二十二街","SECT":" ","MAREA":" ","LANE":" ","ALLEY":" ","HOUSE_NO":"１０６號","E_COORD97":171095.07000000001,"N_COORD97":2540794.5800000001,"ADDRESS":"崇德二十二街１０６號","OBJECTID":481205},"geometry":{"x":171095.07000000216,"y":2540794.5800000001}},{"attributes":{"ID":481231,"DIS_CODE":0,"TOWNNAME":"東區","LI":"崇文里","LIN":"26鄰","STREET":"崇德二十二街","SECT":" ","MAREA":" ","LANE":" ","ALLEY":" ","HOUSE_NO":"１０８號","E_COORD97":171099.45000000001,"N_COORD97":2540794.6800000002,"ADDRESS":"崇德二十二街１０８號","OBJECTID":481206},"geometry":{"x":171099.45000000112,"y":2540794.6799999997}},{"attributes":{"ID":481232,"DIS_CODE":0,"TOWNNAME":"東區","LI":"崇文里","LIN":"26鄰","STREET":"崇德二十二街","SECT":" ","MAREA":" ","LANE":" ","ALLEY":" ","HOUSE_NO":"１０號","E_COORD97":170847.62,"N_COORD97":2540795.0800000001,"ADDRESS":"崇德二十二街１０號","OBJECTID":481207},"geometry":{"x":170847.62000000104,"y":2540795.0800000001}},{"attributes":{"ID":481233,"DIS_CODE":0,"TOWNNAME":"東區","LI":"崇文里","LIN":"26鄰","STREET":"崇德二十二街","SECT":" ","MAREA":" ","LANE":" ","ALLEY":" ","HOUSE_NO":"１１０號","E_COORD97":171104.03,"N_COORD97":2540794.6800000002,"ADDRESS":"崇德二十二街１１０號","OBJECTID":481208},"geometry":{"x":171104.03000000119,"y":2540794.6799999997}},{"attributes":{"ID":481234,"DIS_CODE":0,"TOWNNAME":"東區","LI":"崇文里","LIN":"26鄰","STREET":"崇德二十二街","SECT":" ","MAREA":" ","LANE":" ","ALLEY":" ","HOUSE_NO":"１１２號","E_COORD97":171108.31,"N_COORD97":2540794.7799999998,"ADDRESS":"崇德二十二街１１２號","OBJECTID":481209},"geometry":{"x":171108.31000000052,"y":2540794.7800000012}},{"attributes":{"ID":481235,"DIS_CODE":0,"TOWNNAME":"東區","LI":"崇文里","LIN":"26鄰","STREET":"崇德二十二街","SECT":" ","MAREA":" ","LANE":" ","ALLEY":" ","HOUSE_NO":"１１４號","E_COORD97":171113.88,"N_COORD97":2540794.98,"ADDRESS":"崇德二十二街１１４號","OBJECTID":481210},"geometry":{"x":171113.87999999989,"y":2540794.9800000023}},{"attributes":{"ID":481236,"DIS_CODE":0,"TOWNNAME":"東區","LI":"崇文里","LIN":"26鄰","STREET":"崇德二十二街","SECT":" ","MAREA":" ","LANE":" ","ALLEY":" ","HOUSE_NO":"１２號","E_COORD97":170853.48999999999,"N_COORD97":2540794.98,"ADDRESS":"崇德二十二街１２號","OBJECTID":481211},"geometry":{"x":170853.49000000115,"y":2540794.9800000023}},{"attributes":{"ID":481237,"DIS_CODE":0,"TOWNNAME":"東區","LI":"崇文里","LIN":"26鄰","STREET":"崇德二十二街","SECT":" ","MAREA":" ","LANE":" ","ALLEY":" ","HOUSE_NO":"１３８號","E_COORD97":171182.10000000001,"N_COORD97":2540807.02,"ADDRESS":"崇德二十二街１３８號","OBJECTID":481212},"geometry":{"x":171182.0999999987,"y":2540807.0200000014}},{"attributes":{"ID":481238,"DIS_CODE":0,"TOWNNAME":"東區","LI":"崇文里","LIN":"26鄰","STREET":"崇德二十二街","SECT":" ","MAREA":" ","LANE":" ","ALLEY":" ","HOUSE_NO":"１４８號","E_COORD97":171201.81,"N_COORD97":2540819.8700000001,"ADDRESS":"崇德二十二街１４８號","OBJECTID":481213},"geometry":{"x":171201.81000000052,"y":2540819.8700000029}},{"attributes":{"ID":481239,"DIS_CODE":0,"TOWNNAME":"東區","LI":"崇文里","LIN":"26鄰","STREET":"崇德二十二街","SECT":" ","MAREA":" ","LANE":" ","ALLEY":" ","HOUSE_NO":"３６號","E_COORD97":170909.60000000001,"N_COORD97":2540794.4900000002,"ADDRESS":"崇德二十二街３６號","OBJECTID":481214},"geometry":{"x":170909.60000000056,"y":2540794.4900000021}},{"attributes":{"ID":481240,"DIS_CODE":0,"TOWNNAME":"東區","LI":"崇文里","LIN":"26鄰","STREET":"崇德二十二街","SECT":" ","MAREA":" ","LANE":" ","ALLEY":" ","HOUSE_NO":"３８號","E_COORD97":170914.17999999999,"N_COORD97":2540794.29,"ADDRESS":"崇德二十二街３８號","OBJECTID":481215},"geometry":{"x":170914.18000000063,"y":2540794.290000001}},{"attributes":{"ID":481241,"DIS_CODE":0,"TOWNNAME":"東區","LI":"崇文里","LIN":"26鄰","STREET":"崇德二十二街","SECT":" ","MAREA":" ","LANE":" ","ALLEY":" ","HOUSE_NO":"４０號","E_COORD97":170918.56,"N_COORD97":2540794.1899999999,"ADDRESS":"崇德二十二街４０號","OBJECTID":481216},"geometry":{"x":170918.56000000052,"y":2540794.1899999995}},{"attributes":{"ID":481242,"DIS_CODE":0,"TOWNNAME":"東區","LI":"崇文里","LIN":"26鄰","STREET":"崇德二十二街","SECT":" ","MAREA":" ","LANE":" ","ALLEY":" ","HOUSE_NO":"４２號","E_COORD97":170922.64000000001,"N_COORD97":2540794.1899999999,"ADDRESS":"崇德二十二街４２號","OBJECTID":481217},"geometry":{"x":170922.64000000153,"y":2540794.1899999995}},{"attributes":{"ID":481243,"DIS_CODE":0,"TOWNNAME":"東區","LI":"崇文里","LIN":"26鄰","STREET":"崇德二十二街","SECT":" ","MAREA":" ","LANE":" ","ALLEY":" ","HOUSE_NO":"４４號","E_COORD97":170927.01999999999,"N_COORD97":2540794.1899999999,"ADDRESS":"崇德二十二街４４號","OBJECTID":481218},"geometry":{"x":170927.02000000048,"y":2540794.1899999995}},{"attributes":{"ID":481244,"DIS_CODE":0,"TOWNNAME":"東區","LI":"崇文里","LIN":"26鄰","STREET":"崇德二十二街","SECT":" ","MAREA":" ","LANE":" ","ALLEY":" ","HOUSE_NO":"４６號","E_COORD97":170931.20000000001,"N_COORD97":2540794.29,"ADDRESS":"崇德二十二街４６號","OBJECTID":481219},"geometry":{"x":170931.20000000205,"y":2540794.290000001}},{"attributes":{"ID":481245,"DIS_CODE":0,"TOWNNAME":"東區","LI":"崇文里","LIN":"26鄰","STREET":"崇德二十二街","SECT":" ","MAREA":" ","LANE":" ","ALLEY":" ","HOUSE_NO":"４８號","E_COORD97":170935.38,"N_COORD97":2540794.29,"ADDRESS":"崇德二十二街４８號","OBJECTID":481220},"geometry":{"x":170935.38000000082,"y":2540794.290000001}},{"attributes":{"ID":481246,"DIS_CODE":0,"TOWNNAME":"東區","LI":"崇文里","LIN":"26鄰","STREET":"崇德二十二街","SECT":" ","MAREA":" ","LANE":" ","ALLEY":" ","HOUSE_NO":"４號","E_COORD97":170829.5,"N_COORD97":2540795.0800000001,"ADDRESS":"崇德二十二街４號","OBJECTID":481221},"geometry":{"x":170829.50000000093,"y":2540795.0800000001}},{"attributes":{"ID":481247,"DIS_CODE":0,"TOWNNAME":"東區","LI":"崇文里","LIN":"26鄰","STREET":"崇德二十二街","SECT":" ","MAREA":" ","LANE":" ","ALLEY":" ","HOUSE_NO":"５０號","E_COORD97":170939.66,"N_COORD97":2540794.1899999999,"ADDRESS":"崇德二十二街５０號","OBJECTID":481222},"geometry":{"x":170939.66000000015,"y":2540794.1899999995}},{"attributes":{"ID":481248,"DIS_CODE":0,"TOWNNAME":"東區","LI":"崇文里","LIN":"26鄰","STREET":"崇德二十二街","SECT":" ","MAREA":" ","LANE":" ","ALLEY":" ","HOUSE_NO":"５２號","E_COORD97":170944.54000000001,"N_COORD97":2540794.0899999999,"ADDRESS":"崇德二十二街５２號","OBJECTID":481223},"geometry":{"x":170944.54000000097,"y":2540794.0900000017}},{"attributes":{"ID":481249,"DIS_CODE":0,"TOWNNAME":"東區","LI":"崇文里","LIN":"26鄰","STREET":"崇德二十二街","SECT":" ","MAREA":" ","LANE":" ","ALLEY":" ","HOUSE_NO":"５４號","E_COORD97":170949.32000000001,"N_COORD97":2540793.6899999999,"ADDRESS":"崇德二十二街５４號","OBJECTID":481224},"geometry":{"x":170949.32000000123,"y":2540793.6899999995}},{"attributes":{"ID":481250,"DIS_CODE":0,"TOWNNAME":"東區","LI":"崇文里","LIN":"26鄰","STREET":"崇德二十二街","SECT":" ","MAREA":" ","LANE":" ","ALLEY":" ","HOUSE_NO":"５６號","E_COORD97":170954.48999999999,"N_COORD97":2540793.79,"ADDRESS":"崇德二十二街５６號","OBJECTID":481225},"geometry":{"x":170954.49000000022,"y":2540793.7900000028}},{"attributes":{"ID":481251,"DIS_CODE":0,"TOWNNAME":"東區","LI":"崇文里","LIN":"26鄰","STREET":"崇德二十二街","SECT":" ","MAREA":" ","LANE":" ","ALLEY":" ","HOUSE_NO":"６６號","E_COORD97":170997.75,"N_COORD97":2540792.2000000002,"ADDRESS":"崇德二十二街６６號","OBJECTID":481226},"geometry":{"x":170997.75,"y":2540792.2000000011}},{"attributes":{"ID":481252,"DIS_CODE":0,"TOWNNAME":"東區","LI":"崇文里","LIN":"26鄰","STREET":"崇德二十二街","SECT":" ","MAREA":" ","LANE":" ","ALLEY":" ","HOUSE_NO":"６８號","E_COORD97":171006.70999999999,"N_COORD97":2540794.8799999999,"ADDRESS":"崇德二十二街６８號","OBJECTID":481227},"geometry":{"x":171006.70999999996,"y":2540794.879999999}},{"attributes":{"ID":481253,"DIS_CODE":0,"TOWNNAME":"東區","LI":"崇文里","LIN":"26鄰","STREET":"崇德二十二街","SECT":" ","MAREA":" ","LANE":" ","ALLEY":" ","HOUSE_NO":"６號","E_COORD97":170835.48000000001,"N_COORD97":2540795.1800000002,"ADDRESS":"崇德二十二街６號","OBJECTID":481228},"geometry":{"x":170835.48000000138,"y":2540795.1800000034}},{"attributes":{"ID":481254,"DIS_CODE":0,"TOWNNAME":"東區","LI":"崇文里","LIN":"26鄰","STREET":"崇德二十二街","SECT":" ","MAREA":" ","LANE":" ","ALLEY":" ","HOUSE_NO":"７０號","E_COORD97":171010.69,"N_COORD97":2540794.7799999998,"ADDRESS":"崇德二十二街７０號","OBJECTID":481229},"geometry":{"x":171010.69000000041,"y":2540794.7800000012}},{"attributes":{"ID":481255,"DIS_CODE":0,"TOWNNAME":"東區","LI":"崇文里","LIN":"26鄰","STREET":"崇德二十二街","SECT":" ","MAREA":" ","LANE":" ","ALLEY":" ","HOUSE_NO":"７２號","E_COORD97":171014.88,"N_COORD97":2540794.6800000002,"ADDRESS":"崇德二十二街７２號","OBJECTID":481230},"geometry":{"x":171014.88000000082,"y":2540794.6799999997}},{"attributes":{"ID":481256,"DIS_CODE":0,"TOWNNAME":"東區","LI":"崇文里","LIN":"26鄰","STREET":"崇德二十二街","SECT":" ","MAREA":" ","LANE":" ","ALLEY":" ","HOUSE_NO":"７４號","E_COORD97":171019.26000000001,"N_COORD97":2540794.8799999999,"ADDRESS":"崇德二十二街７４號","OBJECTID":481231},"geometry":{"x":171019.26000000071,"y":2540794.879999999}},{"attributes":{"ID":481257,"DIS_CODE":0,"TOWNNAME":"東區","LI":"崇文里","LIN":"26鄰","STREET":"崇德二十二街","SECT":" ","MAREA":" ","LANE":" ","ALLEY":" ","HOUSE_NO":"７６號","E_COORD97":171023.23999999999,"N_COORD97":2540794.7799999998,"ADDRESS":"崇德二十二街７６號","OBJECTID":481232},"geometry":{"x":171023.24000000115,"y":2540794.7800000012}},{"attributes":{"ID":481258,"DIS_CODE":0,"TOWNNAME":"東區","LI":"崇文里","LIN":"26鄰","STREET":"崇德二十二街","SECT":" ","MAREA":" ","LANE":" ","ALLEY":" ","HOUSE_NO":"７８號","E_COORD97":171027.62,"N_COORD97":2540794.8799999999,"ADDRESS":"崇德二十二街７８號","OBJECTID":481233},"geometry":{"x":171027.62000000011,"y":2540794.879999999}},{"attributes":{"ID":481259,"DIS_CODE":0,"TOWNNAME":"東區","LI":"崇文里","LIN":"26鄰","STREET":"崇德二十二街","SECT":" ","MAREA":" ","LANE":" ","ALLEY":" ","HOUSE_NO":"８０號","E_COORD97":171032.20000000001,"N_COORD97":2540794.7799999998,"ADDRESS":"崇德二十二街８０號","OBJECTID":481234},"geometry":{"x":171032.20000000019,"y":2540794.7800000012}},{"attributes":{"ID":481260,"DIS_CODE":0,"TOWNNAME":"東區","LI":"崇文里","LIN":"26鄰","STREET":"崇德二十二街","SECT":" ","MAREA":" ","LANE":" ","ALLEY":" ","HOUSE_NO":"８２號","E_COORD97":171037.5,"N_COORD97":2540795.5099999998,"ADDRESS":"崇德二十二街８２號","OBJECTID":481235},"geometry":{"x":171037.50000000186,"y":2540795.5099999998}},{"attributes":{"ID":481261,"DIS_CODE":0,"TOWNNAME":"東區","LI":"崇文里","LIN":"26鄰","STREET":"崇德二十二街","SECT":" ","MAREA":" ","LANE":" ","ALLEY":" ","HOUSE_NO":"８號","E_COORD97":170841.45000000001,"N_COORD97":2540794.98,"ADDRESS":"崇德二十二街８號","OBJECTID":481236},"geometry":{"x":170841.45000000205,"y":2540794.9800000023}},{"attributes":{"ID":481262,"DIS_CODE":0,"TOWNNAME":"東區","LI":"崇文里","LIN":"26鄰","STREET":"崇德二十二街","SECT":" ","MAREA":" ","LANE":" ","ALLEY":" ","HOUSE_NO":"９２號","E_COORD97":171059.07000000001,"N_COORD97":2540799.1600000001,"ADDRESS":"崇德二十二街９２號","OBJECTID":481237},"geometry":{"x":171059.0700000003,"y":2540799.1600000039}},{"attributes":{"ID":481263,"DIS_CODE":0,"TOWNNAME":"東區","LI":"崇文里","LIN":"26鄰","STREET":"崇德二十二街","SECT":" ","MAREA":" ","LANE":" ","ALLEY":" ","HOUSE_NO":"９６號","E_COORD97":171064.45000000001,"N_COORD97":2540793.1899999999,"ADDRESS":"崇德二十二街９６號","OBJECTID":481238},"geometry":{"x":171064.45000000019,"y":2540793.1899999995}},{"attributes":{"ID":481264,"DIS_CODE":0,"TOWNNAME":"東區","LI":"崇文里","LIN":"26鄰","STREET":"崇德二十二街","SECT":" ","MAREA":" ","LANE":" ","ALLEY":" ","HOUSE_NO":"９８號","E_COORD97":171075.85999999999,"N_COORD97":2540794.5800000001,"ADDRESS":"崇德二十二街９８號","OBJECTID":481239},"geometry":{"x":171075.86000000034,"y":2540794.5800000001}},{"attributes":{"ID":481265,"DIS_CODE":0,"TOWNNAME":"下營區","LI":"營前里","LIN":"26鄰","STREET":"仁愛街","SECT":" ","MAREA":" ","LANE":" ","ALLEY":" ","HOUSE_NO":"３９號","E_COORD97":174838.60000000001,"N_COORD97":2570112.0899999999,"ADDRESS":"仁愛街３９號","OBJECTID":481240},"geometry":{"x":174838.5999999987,"y":2570112.0899999999}},{"attributes":{"ID":481266,"DIS_CODE":0,"TOWNNAME":"下營區","LI":"營前里","LIN":"26鄰","STREET":"仁愛街","SECT":" ","MAREA":" ","LANE":" ","ALLEY":" ","HOUSE_NO":"４１號","E_COORD97":174850.23000000001,"N_COORD97":2570110.7000000002,"ADDRESS":"仁愛街４１號","OBJECTID":481241},"geometry":{"x":174850.23000000045,"y":2570110.6999999993}},{"attributes":{"ID":481267,"DIS_CODE":0,"TOWNNAME":"下營區","LI":"營前里","LIN":"26鄰","STREET":"仁愛街","SECT":" ","MAREA":" ","LANE":" ","ALLEY":" ","HOUSE_NO":"５８號","E_COORD97":174839.48000000001,"N_COORD97":2570081.1899999999,"ADDRESS":"仁愛街５８號","OBJECTID":481242},"geometry":{"x":174839.48000000138,"y":2570081.1900000013}},{"attributes":{"ID":481268,"DIS_CODE":0,"TOWNNAME":"下營區","LI":"營前里","LIN":"26鄰","STREET":"仁愛街","SECT":" ","MAREA":" ","LANE":" ","ALLEY":" ","HOUSE_NO":"６２號","E_COORD97":174856.62,"N_COORD97":2570095.9700000002,"ADDRESS":"仁愛街６２號","OBJECTID":481243},"geometry":{"x":174856.62000000104,"y":2570095.9700000007}},{"attributes":{"ID":481269,"DIS_CODE":0,"TOWNNAME":"下營區","LI":"營前里","LIN":"26鄰","STREET":"仁愛街","SECT":" ","MAREA":" ","LANE":" ","ALLEY":" ","HOUSE_NO":"７０號","E_COORD97":174872.14000000001,"N_COORD97":2570104.48,"ADDRESS":"仁愛街７０號","OBJECTID":481244},"geometry":{"x":174872.13999999966,"y":2570104.4800000023}},{"attributes":{"ID":481270,"DIS_CODE":0,"TOWNNAME":"下營區","LI":"營前里","LIN":"26鄰","STREET":"仁愛街","SECT":" ","MAREA":" ","LANE":" ","ALLEY":" ","HOUSE_NO":"７２號","E_COORD97":174876.39000000001,"N_COORD97":2570106.8300000001,"ADDRESS":"仁愛街７２號","OBJECTID":481245},"geometry":{"x":174876.3900000006,"y":2570106.8300000001}},{"attributes":{"ID":481271,"DIS_CODE":0,"TOWNNAME":"下營區","LI":"營前里","LIN":"26鄰","STREET":"仁愛街","SECT":" ","MAREA":" ","LANE":" ","ALLEY":" ","HOUSE_NO":"７６號","E_COORD97":174880.64000000001,"N_COORD97":2570109.5699999998,"ADDRESS":"仁愛街７６號","OBJECTID":481246},"geometry":{"x":174880.63999999966,"y":2570109.570000004}},{"attributes":{"ID":481272,"DIS_CODE":0,"TOWNNAME":"下營區","LI":"營前里","LIN":"26鄰","STREET":"仁愛街","SECT":" ","MAREA":" ","LANE":" ","ALLEY":" ","HOUSE_NO":"７８號","E_COORD97":174885.04000000001,"N_COORD97":2570112.1299999999,"ADDRESS":"仁愛街７８號","OBJECTID":481247},"geometry":{"x":174885.04000000004,"y":2570112.1300000008}},{"attributes":{"ID":481273,"DIS_CODE":0,"TOWNNAME":"下營區","LI":"營前里","LIN":"26鄰","STREET":"健康路","SECT":" ","MAREA":" ","LANE":" ","ALLEY":" ","HOUSE_NO":"１２８號","E_COORD97":174851.32000000001,"N_COORD97":2570196.75,"ADDRESS":"健康路１２８號","OBJECTID":481248},"geometry":{"x":174851.3200000003,"y":2570196.7500000019}},{"attributes":{"ID":481274,"DIS_CODE":0,"TOWNNAME":"永康區","LI":"永康里","LIN":"26鄰","STREET":"中山北路","SECT":" ","MAREA":" ","LANE":" ","ALLEY":" ","HOUSE_NO":"５８號","E_COORD97":174041.62,"N_COORD97":2547392.0499999998,"ADDRESS":"中山北路５８號","OBJECTID":481249},"geometry":{"x":174041.62000000011,"y":2547392.0500000026}},{"attributes":{"ID":481275,"DIS_CODE":0,"TOWNNAME":"永康區","LI":"永康里","LIN":"26鄰","STREET":"永大路","SECT":"二段","MAREA":" ","LANE":" ","ALLEY":" ","HOUSE_NO":"１１２９號地下一層之","E_COORD97":174202.32000000001,"N_COORD97":2547482.3599999999,"ADDRESS":"永大路二段１１２９號地下一層之３２","OBJECTID":481250},"geometry":{"x":174202.32000000216,"y":2547482.3599999994}},{"attributes":{"ID":481276,"DIS_CODE":0,"TOWNNAME":"佳里區","LI":"六安里","LIN":"26鄰","STREET":"林園街","SECT":" ","MAREA":" ","LANE":" ","ALLEY":" ","HOUSE_NO":"１８８號","E_COORD97":165596.04000000001,"N_COORD97":2562904.3599999999,"ADDRESS":"林園街１８８號","OBJECTID":481251},"geometry":{"x":165596.04000000097,"y":2562904.3599999994}},{"attributes":{"ID":481277,"DIS_CODE":0,"TOWNNAME":"佳里區","LI":"六安里","LIN":"26鄰","STREET":"林園街","SECT":" ","MAREA":" ","LANE":" ","ALLEY":" ","HOUSE_NO":"１９２號","E_COORD97":165586.62,"N_COORD97":2562904.0899999999,"ADDRESS":"林園街１９２號","OBJECTID":481252},"geometry":{"x":165586.62000000011,"y":2562904.0899999999}},{"attributes":{"ID":481278,"DIS_CODE":0,"TOWNNAME":"佳里區","LI":"六安里","LIN":"26鄰","STREET":"林園街","SECT":" ","MAREA":" ","LANE":" ","ALLEY":" ","HOUSE_NO":"１９４號","E_COORD97":165582.14000000001,"N_COORD97":2562903.6299999999,"ADDRESS":"林園街１９４號","OBJECTID":481253},"geometry":{"x":165582.13999999966,"y":2562903.6300000008}},{"attributes":{"ID":481279,"DIS_CODE":0,"TOWNNAME":"佳里區","LI":"六安里","LIN":"26鄰","STREET":"林園街","SECT":" ","MAREA":" ","LANE":" ","ALLEY":" ","HOUSE_NO":"１９６號","E_COORD97":165577.56,"N_COORD97":2562904.3700000001,"ADDRESS":"林園街１９６號","OBJECTID":481254},"geometry":{"x":165577.55999999959,"y":2562904.3700000029}},{"attributes":{"ID":481280,"DIS_CODE":0,"TOWNNAME":"佳里區","LI":"六安里","LIN":"26鄰","STREET":"林園街","SECT":" ","MAREA":" ","LANE":" ","ALLEY":" ","HOUSE_NO":"１９８號","E_COORD97":165570.89999999999,"N_COORD97":2562907,"ADDRESS":"林園街１９８號","OBJECTID":481255},"geometry":{"x":165570.90000000037,"y":2562907}},{"attributes":{"ID":481281,"DIS_CODE":0,"TOWNNAME":"佳里區","LI":"六安里","LIN":"26鄰","STREET":"青年街","SECT":" ","MAREA":" ","LANE":" ","ALLEY":" ","HOUSE_NO":"２１９號","E_COORD97":165548.32000000001,"N_COORD97":2562981.6299999999,"ADDRESS":"青年街２１９號","OBJECTID":481256},"geometry":{"x":165548.32000000216,"y":2562981.6300000008}},{"attributes":{"ID":481282,"DIS_CODE":0,"TOWNNAME":"佳里區","LI":"六安里","LIN":"26鄰","STREET":"青年街","SECT":" ","MAREA":" ","LANE":" ","ALLEY":" ","HOUSE_NO":"２２１號","E_COORD97":165544.32999999999,"N_COORD97":2562981.4700000002,"ADDRESS":"青年街２２１號","OBJECTID":481257},"geometry":{"x":165544.33000000007,"y":2562981.4700000025}},{"attributes":{"ID":481283,"DIS_CODE":0,"TOWNNAME":"佳里區","LI":"六安里","LIN":"26鄰","STREET":"青年街","SECT":" ","MAREA":" ","LANE":" ","ALLEY":" ","HOUSE_NO":"２２３號","E_COORD97":165539.89999999999,"N_COORD97":2562981.2400000002,"ADDRESS":"青年街２２３號","OBJECTID":481258},"geometry":{"x":165539.9000000013,"y":2562981.2400000002}},{"attributes":{"ID":481284,"DIS_CODE":0,"TOWNNAME":"佳里區","LI":"六安里","LIN":"26鄰","STREET":"青年街","SECT":" ","MAREA":" ","LANE":" ","ALLEY":" ","HOUSE_NO":"２２５號","E_COORD97":165535.38,"N_COORD97":2562979.2200000002,"ADDRESS":"青年街２２５號","OBJECTID":481259},"geometry":{"x":165535.37999999989,"y":2562979.2200000044}},{"attributes":{"ID":481285,"DIS_CODE":0,"TOWNNAME":"佳里區","LI":"六安里","LIN":"26鄰","STREET":"青年街","SECT":" ","MAREA":" ","LANE":" ","ALLEY":" ","HOUSE_NO":"２２７號","E_COORD97":165531.35999999999,"N_COORD97":2562978.8500000001,"ADDRESS":"青年街２２７號","OBJECTID":481260},"geometry":{"x":165531.36000000127,"y":2562978.8499999996}},{"attributes":{"ID":481286,"DIS_CODE":0,"TOWNNAME":"佳里區","LI":"六安里","LIN":"26鄰","STREET":"青年街","SECT":" ","MAREA":" ","LANE":" ","ALLEY":" ","HOUSE_NO":"２２９號","E_COORD97":165526.95000000001,"N_COORD97":2562978.48,"ADDRESS":"青年街２２９號","OBJECTID":481261},"geometry":{"x":165526.95000000205,"y":2562978.4800000023}},{"attributes":{"ID":481287,"DIS_CODE":0,"TOWNNAME":"佳里區","LI":"六安里","LIN":"26鄰","STREET":"青年街","SECT":" ","MAREA":" ","LANE":" ","ALLEY":" ","HOUSE_NO":"２３１號","E_COORD97":165521.76000000001,"N_COORD97":2562978.0299999998,"ADDRESS":"青年街２３１號","OBJECTID":481262},"geometry":{"x":165521.76000000071,"y":2562978.0299999993}},{"attributes":{"ID":481288,"DIS_CODE":0,"TOWNNAME":"佳里區","LI":"六安里","LIN":"26鄰","STREET":"青年街","SECT":" ","MAREA":" ","LANE":" ","ALLEY":" ","HOUSE_NO":"２３３號","E_COORD97":165518.13,"N_COORD97":2562978.0099999998,"ADDRESS":"青年街２３３號","OBJECTID":481263},"geometry":{"x":165518.12999999989,"y":2562978.0099999998}},{"attributes":{"ID":481289,"DIS_CODE":0,"TOWNNAME":"佳里區","LI":"六安里","LIN":"26鄰","STREET":"青年街","SECT":" ","MAREA":" ","LANE":" ","ALLEY":" ","HOUSE_NO":"２３５號","E_COORD97":165513.39000000001,"N_COORD97":2562977,"ADDRESS":"青年街２３５號","OBJECTID":481264},"geometry":{"x":165513.39000000153,"y":2562977.0000000019}},{"attributes":{"ID":481290,"DIS_CODE":0,"TOWNNAME":"佳里區","LI":"六安里","LIN":"26鄰","STREET":"青年街","SECT":" ","MAREA":" ","LANE":" ","ALLEY":" ","HOUSE_NO":"２３７號","E_COORD97":165509.23000000001,"N_COORD97":2562976.8700000001,"ADDRESS":"青年街２３７號","OBJECTID":481265},"geometry":{"x":165509.23000000138,"y":2562976.870000001}},{"attributes":{"ID":481291,"DIS_CODE":0,"TOWNNAME":"佳里區","LI":"六安里","LIN":"26鄰","STREET":"青年街","SECT":" ","MAREA":" ","LANE":" ","ALLEY":" ","HOUSE_NO":"２３９號","E_COORD97":165503.85000000001,"N_COORD97":2562976.21,"ADDRESS":"青年街２３９號","OBJECTID":481266},"geometry":{"x":165503.85000000056,"y":2562976.2100000046}},{"attributes":{"ID":481292,"DIS_CODE":0,"TOWNNAME":"六甲區","LI":"六甲里","LIN":"26鄰","STREET":"中正路","SECT":" ","MAREA":" ","LANE":" ","ALLEY":" ","HOUSE_NO":"６８３號","E_COORD97":183773.41,"N_COORD97":2570270.5299999998,"ADDRESS":"中正路６８３號","OBJECTID":481267},"geometry":{"x":183773.41000000015,"y":2570270.5299999993}},{"attributes":{"ID":481293,"DIS_CODE":0,"TOWNNAME":"六甲區","LI":"六甲里","LIN":"26鄰","STREET":"中正路","SECT":" ","MAREA":" ","LANE":" ","ALLEY":" ","HOUSE_NO":"７１３號","E_COORD97":183845.73999999999,"N_COORD97":2570269.6800000002,"ADDRESS":"中正路７１３號","OBJECTID":481268},"geometry":{"x":183845.74000000115,"y":2570269.6799999997}},{"attributes":{"ID":481294,"DIS_CODE":0,"TOWNNAME":"六甲區","LI":"六甲里","LIN":"26鄰","STREET":"中正路","SECT":" ","MAREA":" ","LANE":" ","ALLEY":" ","HOUSE_NO":"６７７號","E_COORD97":183759.01000000001,"N_COORD97":2570273.4199999999,"ADDRESS":"中正路６７７號","OBJECTID":481269},"geometry":{"x":183759.00999999978,"y":2570273.4200000018}},{"attributes":{"ID":481295,"DIS_CODE":0,"TOWNNAME":"六甲區","LI":"六甲里","LIN":"26鄰","STREET":"中正路","SECT":" ","MAREA":" ","LANE":" ","ALLEY":" ","HOUSE_NO":"６７９號","E_COORD97":183763.63,"N_COORD97":2570272.4300000002,"ADDRESS":"中正路６７９號","OBJECTID":481270},"geometry":{"x":183763.62999999989,"y":2570272.4299999997}},{"attributes":{"ID":481296,"DIS_CODE":0,"TOWNNAME":"六甲區","LI":"六甲里","LIN":"26鄰","STREET":"中正路","SECT":" ","MAREA":" ","LANE":" ","ALLEY":" ","HOUSE_NO":"６８１號","E_COORD97":183768.32000000001,"N_COORD97":2570271.4399999999,"ADDRESS":"中正路６８１號","OBJECTID":481271},"geometry":{"x":183768.32000000216,"y":2570271.4399999995}},{"attributes":{"ID":481297,"DIS_CODE":0,"TOWNNAME":"六甲區","LI":"六甲里","LIN":"26鄰","STREET":"中正路","SECT":" ","MAREA":" ","LANE":" ","ALLEY":" ","HOUSE_NO":"６８５號","E_COORD97":183777.76999999999,"N_COORD97":2570269.9900000002,"ADDRESS":"中正路６８５號","OBJECTID":481272},"geometry":{"x":183777.76999999955,"y":2570269.9900000021}},{"attributes":{"ID":481298,"DIS_CODE":0,"TOWNNAME":"六甲區","LI":"六甲里","LIN":"26鄰","STREET":"中正路","SECT":" ","MAREA":" ","LANE":" ","ALLEY":" ","HOUSE_NO":"６８７號","E_COORD97":183782.95999999999,"N_COORD97":2570269.0699999998,"ADDRESS":"中正路６８７號","OBJECTID":481273},"geometry":{"x":183782.96000000089,"y":2570269.070000004}},{"attributes":{"ID":481299,"DIS_CODE":0,"TOWNNAME":"六甲區","LI":"六甲里","LIN":"26鄰","STREET":"中正路","SECT":" ","MAREA":" ","LANE":" ","ALLEY":" ","HOUSE_NO":"６８９號","E_COORD97":183787.37,"N_COORD97":2570268.2799999998,"ADDRESS":"中正路６８９號","OBJECTID":481274},"geometry":{"x":183787.37000000011,"y":2570268.2799999993}},{"attributes":{"ID":481300,"DIS_CODE":0,"TOWNNAME":"六甲區","LI":"六甲里","LIN":"26鄰","STREET":"中正路","SECT":" ","MAREA":" ","LANE":" ","ALLEY":" ","HOUSE_NO":"６９１號","E_COORD97":183791.79999999999,"N_COORD97":2570267.6400000001,"ADDRESS":"中正路６９１號","OBJECTID":481275},"geometry":{"x":183791.80000000075,"y":2570267.6400000006}},{"attributes":{"ID":481301,"DIS_CODE":0,"TOWNNAME":"六甲區","LI":"六甲里","LIN":"26鄰","STREET":"中正路","SECT":" ","MAREA":" ","LANE":" ","ALLEY":" ","HOUSE_NO":"６９３號","E_COORD97":183796.67999999999,"N_COORD97":2570266.8300000001,"ADDRESS":"中正路６９３號","OBJECTID":481276},"geometry":{"x":183796.6799999997,"y":2570266.8299999982}},{"attributes":{"ID":481302,"DIS_CODE":0,"TOWNNAME":"六甲區","LI":"六甲里","LIN":"26鄰","STREET":"中正路","SECT":" ","MAREA":" ","LANE":" ","ALLEY":" ","HOUSE_NO":"６９５號","E_COORD97":183814.89999999999,"N_COORD97":2570280.73,"ADDRESS":"中正路６９５號","OBJECTID":481277},"geometry":{"x":183814.90000000037,"y":2570280.7300000004}},{"attributes":{"ID":481303,"DIS_CODE":0,"TOWNNAME":"六甲區","LI":"六甲里","LIN":"26鄰","STREET":"中正路","SECT":" ","MAREA":" ","LANE":" ","ALLEY":" ","HOUSE_NO":"７０５號","E_COORD97":183826.67000000001,"N_COORD97":2570273.6200000001,"ADDRESS":"中正路７０５號","OBJECTID":481278},"geometry":{"x":183826.67000000086,"y":2570273.6200000029}},{"attributes":{"ID":481304,"DIS_CODE":0,"TOWNNAME":"六甲區","LI":"六甲里","LIN":"26鄰","STREET":"中正路","SECT":" ","MAREA":" ","LANE":" ","ALLEY":" ","HOUSE_NO":"７０９號","E_COORD97":183836.76999999999,"N_COORD97":2570271.27,"ADDRESS":"中正路７０９號","OBJECTID":481279},"geometry":{"x":183836.76999999955,"y":2570271.2700000014}},{"attributes":{"ID":481305,"DIS_CODE":0,"TOWNNAME":"六甲區","LI":"六甲里","LIN":"26鄰","STREET":"中正路","SECT":" ","MAREA":" ","LANE":" ","ALLEY":" ","HOUSE_NO":"７１１號","E_COORD97":183841.42999999999,"N_COORD97":2570270.6000000001,"ADDRESS":"中正路７１１號","OBJECTID":481280},"geometry":{"x":183841.43000000156,"y":2570270.5999999996}},{"attributes":{"ID":481306,"DIS_CODE":0,"TOWNNAME":"六甲區","LI":"六甲里","LIN":"26鄰","STREET":"中正路","SECT":" ","MAREA":" ","LANE":" ","ALLEY":" ","HOUSE_NO":"７１５號","E_COORD97":183850.04000000001,"N_COORD97":2570268.9900000002,"ADDRESS":"中正路７１５號","OBJECTID":481281},"geometry":{"x":183850.04000000097,"y":2570268.9900000002}},{"attributes":{"ID":481307,"DIS_CODE":0,"TOWNNAME":"六甲區","LI":"六甲里","LIN":"26鄰","STREET":"中正路","SECT":" ","MAREA":" ","LANE":" ","ALLEY":" ","HOUSE_NO":"７１７號","E_COORD97":183854.44,"N_COORD97":2570268.0499999998,"ADDRESS":"中正路７１７號","OBJECTID":481282},"geometry":{"x":183854.44000000134,"y":2570268.0500000007}},{"attributes":{"ID":481308,"DIS_CODE":0,"TOWNNAME":"六甲區","LI":"六甲里","LIN":"26鄰","STREET":"中正路","SECT":" ","MAREA":" ","LANE":" ","ALLEY":" ","HOUSE_NO":"７７５號","E_COORD97":183858.13,"N_COORD97":2570255.2400000002,"ADDRESS":"中正路７７５號","OBJECTID":481283},"geometry":{"x":183858.12999999989,"y":2570255.2400000021}},{"attributes":{"ID":481309,"DIS_CODE":0,"TOWNNAME":"六甲區","LI":"六甲里","LIN":"26鄰","STREET":"中正路","SECT":" ","MAREA":" ","LANE":" ","ALLEY":" ","HOUSE_NO":"７７７號","E_COORD97":183871.60999999999,"N_COORD97":2570254.8900000001,"ADDRESS":"中正路７７７號","OBJECTID":481284},"geometry":{"x":183871.61000000127,"y":2570254.8900000025}},{"attributes":{"ID":481310,"DIS_CODE":0,"TOWNNAME":"六甲區","LI":"六甲里","LIN":"26鄰","STREET":"中正路","SECT":" ","MAREA":" ","LANE":" ","ALLEY":" ","HOUSE_NO":"７８１號","E_COORD97":183875.56,"N_COORD97":2570266.0800000001,"ADDRESS":"中正路７８１號","OBJECTID":481285},"geometry":{"x":183875.55999999959,"y":2570266.0800000019}},{"attributes":{"ID":481311,"DIS_CODE":0,"TOWNNAME":"六甲區","LI":"六甲里","LIN":"26鄰","STREET":"中正路","SECT":" ","MAREA":" ","LANE":" ","ALLEY":" ","HOUSE_NO":"７８３號","E_COORD97":183866.39000000001,"N_COORD97":2570274.46,"ADDRESS":"中正路７８３號","OBJECTID":481286},"geometry":{"x":183866.38999999966,"y":2570274.4600000028}},{"attributes":{"ID":481312,"DIS_CODE":0,"TOWNNAME":"六甲區","LI":"六甲里","LIN":"26鄰","STREET":"中正路","SECT":" ","MAREA":" ","LANE":" ","ALLEY":" ","HOUSE_NO":"７８５號","E_COORD97":183877.35000000001,"N_COORD97":2570281.04,"ADDRESS":"中正路７８５號","OBJECTID":481287},"geometry":{"x":183877.3499999987,"y":2570281.0399999991}},{"attributes":{"ID":481313,"DIS_CODE":0,"TOWNNAME":"六甲區","LI":"六甲里","LIN":"26鄰","STREET":"中正路","SECT":" ","MAREA":" ","LANE":" ","ALLEY":" ","HOUSE_NO":"７８７號","E_COORD97":183875.42000000001,"N_COORD97":2570296.2000000002,"ADDRESS":"中正路７８７號之１","OBJECTID":481288},"geometry":{"x":183875.41999999993,"y":2570296.1999999993}},{"attributes":{"ID":481314,"DIS_CODE":0,"TOWNNAME":"六甲區","LI":"六甲里","LIN":"26鄰","STREET":"中正路","SECT":" ","MAREA":" ","LANE":" ","ALLEY":" ","HOUSE_NO":"７８９號","E_COORD97":183877.17999999999,"N_COORD97":2570303.9900000002,"ADDRESS":"中正路７８９號","OBJECTID":481289},"geometry":{"x":183877.18000000063,"y":2570303.9900000021}},{"attributes":{"ID":481315,"DIS_CODE":0,"TOWNNAME":"六甲區","LI":"六甲里","LIN":"26鄰","STREET":"中正路","SECT":" ","MAREA":" ","LANE":" ","ALLEY":" ","HOUSE_NO":"７８７號之１","E_COORD97":183876.31,"N_COORD97":2570300,"ADDRESS":"中正路７９１號","OBJECTID":481290},"geometry":{"x":183876.31000000052,"y":2570300.0000000019}},{"attributes":{"ID":481316,"DIS_CODE":0,"TOWNNAME":"六甲區","LI":"六甲里","LIN":"26鄰","STREET":"中正路","SECT":" ","MAREA":" ","LANE":" ","ALLEY":" ","HOUSE_NO":"７９５號","E_COORD97":183878.04999999999,"N_COORD97":2570308.4100000001,"ADDRESS":"中正路７９５號","OBJECTID":481291},"geometry":{"x":183878.05000000168,"y":2570308.410000002}},{"attributes":{"ID":481317,"DIS_CODE":0,"TOWNNAME":"六甲區","LI":"六甲里","LIN":"26鄰","STREET":"中正路","SECT":" ","MAREA":" ","LANE":" ","ALLEY":" ","HOUSE_NO":"７９７號","E_COORD97":183869.94,"N_COORD97":2570323.3999999999,"ADDRESS":"中正路７９７號","OBJECTID":481292},"geometry":{"x":183869.94000000134,"y":2570323.4000000004}},{"attributes":{"ID":481318,"DIS_CODE":0,"TOWNNAME":"六甲區","LI":"六甲里","LIN":"26鄰","STREET":"中正路","SECT":" ","MAREA":" ","LANE":" ","ALLEY":" ","HOUSE_NO":"８０７號","E_COORD97":183885.5,"N_COORD97":2570336.1800000002,"ADDRESS":"中正路８０７號","OBJECTID":481293},"geometry":{"x":183885.50000000093,"y":2570336.1800000016}},{"attributes":{"ID":481319,"DIS_CODE":0,"TOWNNAME":"六甲區","LI":"六甲里","LIN":"26鄰","STREET":"中正路","SECT":" ","MAREA":" ","LANE":" ","ALLEY":" ","HOUSE_NO":"８０９號","E_COORD97":183891.79000000001,"N_COORD97":2570348.2999999998,"ADDRESS":"中正路８０９號","OBJECTID":481294},"geometry":{"x":183891.78999999911,"y":2570348.3000000007}},{"attributes":{"ID":481320,"DIS_CODE":0,"TOWNNAME":"六甲區","LI":"六甲里","LIN":"26鄰","STREET":"中正路","SECT":" ","MAREA":" ","LANE":" ","ALLEY":" ","HOUSE_NO":"８１３號","E_COORD97":183893.32999999999,"N_COORD97":2570353.7200000002,"ADDRESS":"中正路８１３號","OBJECTID":481295},"geometry":{"x":183893.33000000194,"y":2570353.7200000025}},{"attributes":{"ID":481321,"DIS_CODE":0,"TOWNNAME":"六甲區","LI":"六甲里","LIN":"26鄰","STREET":"中正路","SECT":" ","MAREA":" ","LANE":" ","ALLEY":" ","HOUSE_NO":"８１５號","E_COORD97":183894.89999999999,"N_COORD97":2570367.9500000002,"ADDRESS":"中正路８１５號","OBJECTID":481296},"geometry":{"x":183894.90000000224,"y":2570367.9500000011}},{"attributes":{"ID":481322,"DIS_CODE":0,"TOWNNAME":"六甲區","LI":"六甲里","LIN":"26鄰","STREET":"中正路","SECT":" ","MAREA":" ","LANE":" ","ALLEY":" ","HOUSE_NO":"８２３號","E_COORD97":183896.07000000001,"N_COORD97":2570385.1600000001,"ADDRESS":"中正路８２３號","OBJECTID":481297},"geometry":{"x":183896.07000000123,"y":2570385.160000002}},{"attributes":{"ID":481323,"DIS_CODE":0,"TOWNNAME":"六甲區","LI":"六甲里","LIN":"26鄰","STREET":"中正路","SECT":" ","MAREA":" ","LANE":" ","ALLEY":" ","HOUSE_NO":"８２５號","E_COORD97":183907.34,"N_COORD97":2570432.4300000002,"ADDRESS":"中正路８２５號","OBJECTID":481298},"geometry":{"x":183907.34000000078,"y":2570432.4300000016}},{"attributes":{"ID":481324,"DIS_CODE":0,"TOWNNAME":"六甲區","LI":"六甲里","LIN":"26鄰","STREET":"中正路","SECT":" ","MAREA":" ","LANE":" ","ALLEY":" ","HOUSE_NO":"８２７號","E_COORD97":183898.39999999999,"N_COORD97":2570396.7200000002,"ADDRESS":"中正路８２７號","OBJECTID":481299},"geometry":{"x":183898.40000000224,"y":2570396.7200000007}},{"attributes":{"ID":481325,"DIS_CODE":0,"TOWNNAME":"六甲區","LI":"六甲里","LIN":"26鄰","STREET":"中正路","SECT":" ","MAREA":" ","LANE":" ","ALLEY":" ","HOUSE_NO":"８２９號","E_COORD97":183906.42000000001,"N_COORD97":2570442.0099999998,"ADDRESS":"中正路８２９號","OBJECTID":481300},"geometry":{"x":183906.42000000086,"y":2570442.0100000035}},{"attributes":{"ID":481326,"DIS_CODE":0,"TOWNNAME":"六甲區","LI":"六甲里","LIN":"26鄰","STREET":"中正路","SECT":" ","MAREA":" ","LANE":" ","ALLEY":" ","HOUSE_NO":"８３１號","E_COORD97":183905.32999999999,"N_COORD97":2570446.5299999998,"ADDRESS":"中正路８３１號","OBJECTID":481301},"geometry":{"x":183905.33000000194,"y":2570446.5299999993}},{"attributes":{"ID":481327,"DIS_CODE":0,"TOWNNAME":"六甲區","LI":"六甲里","LIN":"26鄰","STREET":"中正路","SECT":" ","MAREA":" ","LANE":" ","ALLEY":" ","HOUSE_NO":"８３３號","E_COORD97":183904.20999999999,"N_COORD97":2570449.73,"ADDRESS":"中正路８３３號","OBJECTID":481302},"geometry":{"x":183904.21000000183,"y":2570449.7300000004}},{"attributes":{"ID":481328,"DIS_CODE":0,"TOWNNAME":"六甲區","LI":"六甲里","LIN":"26鄰","STREET":"中正路","SECT":" ","MAREA":" ","LANE":" ","ALLEY":" ","HOUSE_NO":"８３５號","E_COORD97":183903.38,"N_COORD97":2570453.3999999999,"ADDRESS":"中正路８３５號","OBJECTID":481303},"geometry":{"x":183903.38000000082,"y":2570453.4000000041}},{"attributes":{"ID":481329,"DIS_CODE":0,"TOWNNAME":"六甲區","LI":"六甲里","LIN":"26鄰","STREET":"中正路","SECT":" ","MAREA":" ","LANE":" ","ALLEY":" ","HOUSE_NO":"８３９號","E_COORD97":183902.03,"N_COORD97":2570457.6299999999,"ADDRESS":"中正路８３９號","OBJECTID":481304},"geometry":{"x":183902.03000000026,"y":2570457.6300000008}},{"attributes":{"ID":481330,"DIS_CODE":0,"TOWNNAME":"六甲區","LI":"六甲里","LIN":"26鄰","STREET":"中正路","SECT":" ","MAREA":" ","LANE":" ","ALLEY":" ","HOUSE_NO":"８５１號","E_COORD97":183882.28,"N_COORD97":2570532.8199999998,"ADDRESS":"中正路８５１號","OBJECTID":481305},"geometry":{"x":183882.28000000119,"y":2570532.8200000022}},{"attributes":{"ID":481331,"DIS_CODE":0,"TOWNNAME":"六甲區","LI":"六甲里","LIN":"26鄰","STREET":"中正路","SECT":" ","MAREA":" ","LANE":" ","ALLEY":" ","HOUSE_NO":"８５３號","E_COORD97":183880.95000000001,"N_COORD97":2570537.23,"ADDRESS":"中正路８５３號","OBJECTID":481306},"geometry":{"x":183880.95000000112,"y":2570537.2300000023}},{"attributes":{"ID":481332,"DIS_CODE":0,"TOWNNAME":"六甲區","LI":"六甲里","LIN":"26鄰","STREET":"中正路","SECT":" ","MAREA":" ","LANE":" ","ALLEY":" ","HOUSE_NO":"８６１號","E_COORD97":183879.38,"N_COORD97":2570551.9900000002,"ADDRESS":"中正路８６１號","OBJECTID":481307},"geometry":{"x":183879.38000000082,"y":2570551.9900000021}},{"attributes":{"ID":481333,"DIS_CODE":0,"TOWNNAME":"六甲區","LI":"甲東里","LIN":"26鄰","STREET":"忠孝街","SECT":" ","MAREA":" ","LANE":" ","ALLEY":" ","HOUSE_NO":"４０號","E_COORD97":183813.17000000001,"N_COORD97":2569460.4900000002,"ADDRESS":"忠孝街４０號","OBJECTID":481308},"geometry":{"x":183813.17000000086,"y":2569460.4900000021}},{"attributes":{"ID":481334,"DIS_CODE":0,"TOWNNAME":"六甲區","LI":"二甲里","LIN":"26鄰","STREET":"中華路","SECT":" ","MAREA":" ","LANE":" ","ALLEY":" ","HOUSE_NO":"１４２號","E_COORD97":183113.29000000001,"N_COORD97":2569284.8500000001,"ADDRESS":"中華路１４２號","OBJECTID":481309},"geometry":{"x":183113.29000000004,"y":2569284.8500000015}},{"attributes":{"ID":481335,"DIS_CODE":0,"TOWNNAME":"南區","LI":"文華里","LIN":"26鄰","STREET":"美南街","SECT":" ","MAREA":" ","LANE":" ","ALLEY":" ","HOUSE_NO":"１３４號","E_COORD97":166724.79999999999,"N_COORD97":2542948.5499999998,"ADDRESS":"美南街１３４號","OBJECTID":481310},"geometry":{"x":166724.80000000075,"y":2542948.5500000007}},{"attributes":{"ID":481336,"DIS_CODE":0,"TOWNNAME":"南區","LI":"文華里","LIN":"26鄰","STREET":"美南街","SECT":" ","MAREA":" ","LANE":" ","ALLEY":" ","HOUSE_NO":"１３６號","E_COORD97":166722.44,"N_COORD97":2542943.6400000001,"ADDRESS":"美南街１３６號","OBJECTID":481311},"geometry":{"x":166722.44000000227,"y":2542943.6400000025}},{"attributes":{"ID":481337,"DIS_CODE":0,"TOWNNAME":"南區","LI":"文華里","LIN":"26鄰","STREET":"美南街","SECT":" ","MAREA":" ","LANE":" ","ALLEY":" ","HOUSE_NO":"１３８號","E_COORD97":166721.04999999999,"N_COORD97":2542938.5,"ADDRESS":"美南街１３８號","OBJECTID":481312},"geometry":{"x":166721.05000000168,"y":2542938.5}},{"attributes":{"ID":481338,"DIS_CODE":0,"TOWNNAME":"南區","LI":"文華里","LIN":"26鄰","STREET":"美南街","SECT":" ","MAREA":" ","LANE":" ","ALLEY":" ","HOUSE_NO":"１４０號","E_COORD97":166720.19,"N_COORD97":2542933.1499999999,"ADDRESS":"美南街１４０號","OBJECTID":481313},"geometry":{"x":166720.19000000041,"y":2542933.1500000022}},{"attributes":{"ID":481339,"DIS_CODE":0,"TOWNNAME":"南區","LI":"文華里","LIN":"26鄰","STREET":"美南街","SECT":" ","MAREA":" ","LANE":" ","ALLEY":" ","HOUSE_NO":"１４２號","E_COORD97":166719.66,"N_COORD97":2542928.1200000001,"ADDRESS":"美南街１４２號","OBJECTID":481314},"geometry":{"x":166719.66000000108,"y":2542928.120000001}},{"attributes":{"ID":481340,"DIS_CODE":0,"TOWNNAME":"南區","LI":"文華里","LIN":"26鄰","STREET":"美南街","SECT":" ","MAREA":" ","LANE":" ","ALLEY":" ","HOUSE_NO":"１４４號","E_COORD97":166719.32999999999,"N_COORD97":2542922.6699999999,"ADDRESS":"美南街１４４號","OBJECTID":481315},"geometry":{"x":166719.33000000194,"y":2542922.6700000018}},{"attributes":{"ID":481341,"DIS_CODE":0,"TOWNNAME":"南區","LI":"文華里","LIN":"26鄰","STREET":"美南街","SECT":" ","MAREA":" ","LANE":" ","ALLEY":" ","HOUSE_NO":"１４６號","E_COORD97":166718.48000000001,"N_COORD97":2542916.79,"ADDRESS":"美南街１４６號","OBJECTID":481316},"geometry":{"x":166718.48000000045,"y":2542916.790000001}},{"attributes":{"ID":481342,"DIS_CODE":0,"TOWNNAME":"南區","LI":"文華里","LIN":"26鄰","STREET":"美南街","SECT":" ","MAREA":" ","LANE":" ","ALLEY":" ","HOUSE_NO":"１４６號之１","E_COORD97":166717.19,"N_COORD97":2542911.4399999999,"ADDRESS":"美南街１４６號之１","OBJECTID":481317},"geometry":{"x":166717.18999999948,"y":2542911.4399999995}},{"attributes":{"ID":481343,"DIS_CODE":0,"TOWNNAME":"南區","LI":"文華里","LIN":"26鄰","STREET":"美南街","SECT":" ","MAREA":" ","LANE":" ","ALLEY":" ","HOUSE_NO":"１４６號之２","E_COORD97":166717.09,"N_COORD97":2542905.5499999998,"ADDRESS":"美南街１４６號之２","OBJECTID":481318},"geometry":{"x":166717.08999999985,"y":2542905.5500000007}},{"attributes":{"ID":481344,"DIS_CODE":0,"TOWNNAME":"南區","LI":"文華里","LIN":"26鄰","STREET":"美南街","SECT":" ","MAREA":" ","LANE":" ","ALLEY":" ","HOUSE_NO":"１４６號之３","E_COORD97":166716.76000000001,"N_COORD97":2542899.4500000002,"ADDRESS":"美南街１４６號之３","OBJECTID":481319},"geometry":{"x":166716.76000000071,"y":2542899.4500000011}},{"attributes":{"ID":481345,"DIS_CODE":0,"TOWNNAME":"南區","LI":"文華里","LIN":"26鄰","STREET":"美南街","SECT":" ","MAREA":" ","LANE":" ","ALLEY":" ","HOUSE_NO":"１３２號","E_COORD97":166723.62,"N_COORD97":2542956.3599999999,"ADDRESS":"美南街１３２號","OBJECTID":481320},"geometry":{"x":166723.62000000011,"y":2542956.3599999975}},{"attributes":{"ID":481346,"DIS_CODE":0,"TOWNNAME":"南區","LI":"田寮里","LIN":"26鄰","STREET":"大成路","SECT":"二段","MAREA":" ","LANE":" ","ALLEY":" ","HOUSE_NO":"１５６號","E_COORD97":167311.5,"N_COORD97":2541749.7200000002,"ADDRESS":"大成路二段１５６號","OBJECTID":481321},"geometry":{"x":167311.50000000186,"y":2541749.7200000025}},{"attributes":{"ID":481347,"DIS_CODE":0,"TOWNNAME":"南區","LI":"田寮里","LIN":"26鄰","STREET":"大成路","SECT":"二段","MAREA":" ","LANE":" ","ALLEY":" ","HOUSE_NO":"１６２號","E_COORD97":167298.94,"N_COORD97":2541751.1099999999,"ADDRESS":"大成路二段１６２號","OBJECTID":481322},"geometry":{"x":167298.94000000134,"y":2541751.1099999975}},{"attributes":{"ID":481348,"DIS_CODE":0,"TOWNNAME":"歸仁區","LI":"歸仁里","LIN":"26鄰","STREET":"文化一街","SECT":" ","MAREA":" ","LANE":" ","ALLEY":" ","HOUSE_NO":"３６號","E_COORD97":178260.94,"N_COORD97":2541152.1299999999,"ADDRESS":"文化一街３６號","OBJECTID":481323},"geometry":{"x":178260.94000000041,"y":2541152.1300000008}},{"attributes":{"ID":481349,"DIS_CODE":0,"TOWNNAME":"歸仁區","LI":"歸仁里","LIN":"26鄰","STREET":"文化一街","SECT":" ","MAREA":" ","LANE":" ","ALLEY":" ","HOUSE_NO":"５５號","E_COORD97":178234.26999999999,"N_COORD97":2541167.1299999999,"ADDRESS":"文化一街５５號","OBJECTID":481324},"geometry":{"x":178234.26999999955,"y":2541167.129999999}},{"attributes":{"ID":481350,"DIS_CODE":0,"TOWNNAME":"歸仁區","LI":"歸仁里","LIN":"26鄰","STREET":"文化一街","SECT":" ","MAREA":" ","LANE":" ","ALLEY":" ","HOUSE_NO":"１號","E_COORD97":178197.32000000001,"N_COORD97":2541213.1299999999,"ADDRESS":"文化一街１號","OBJECTID":481325},"geometry":{"x":178197.3200000003,"y":2541213.1300000008}},{"attributes":{"ID":481351,"DIS_CODE":0,"TOWNNAME":"安平區","LI":"怡平里","LIN":"26鄰","STREET":"永華六街","SECT":" ","MAREA":" ","LANE":" ","ALLEY":" ","HOUSE_NO":"２６之１號","E_COORD97":165612.57000000001,"N_COORD97":2543592.2000000002,"ADDRESS":"永華六街２６之１號","OBJECTID":481326},"geometry":{"x":165612.5700000003,"y":2543592.2000000011}},{"attributes":{"ID":481352,"DIS_CODE":0,"TOWNNAME":"安平區","LI":"怡平里","LIN":"26鄰","STREET":"永華六街","SECT":" ","MAREA":" ","LANE":" ","ALLEY":" ","HOUSE_NO":"２６之２號","E_COORD97":165620.20999999999,"N_COORD97":2543590.7200000002,"ADDRESS":"永華六街２６之２號","OBJECTID":481327},"geometry":{"x":165620.21000000089,"y":2543590.7200000025}},{"attributes":{"ID":481353,"DIS_CODE":0,"TOWNNAME":"安平區","LI":"怡平里","LIN":"26鄰","STREET":"永華六街","SECT":" ","MAREA":" ","LANE":" ","ALLEY":" ","HOUSE_NO":"２６之３號","E_COORD97":165635.54999999999,"N_COORD97":2543585.04,"ADDRESS":"永華六街２６之３號","OBJECTID":481328},"geometry":{"x":165635.54999999981,"y":2543585.0399999991}},{"attributes":{"ID":481354,"DIS_CODE":0,"TOWNNAME":"安平區","LI":"怡平里","LIN":"26鄰","STREET":"永華六街","SECT":" ","MAREA":" ","LANE":" ","ALLEY":" ","HOUSE_NO":"２６之５號","E_COORD97":165644.78,"N_COORD97":2543583.3100000001,"ADDRESS":"永華六街２６之５號","OBJECTID":481329},"geometry":{"x":165644.78000000026,"y":2543583.3100000024}},{"attributes":{"ID":481355,"DIS_CODE":0,"TOWNNAME":"安平區","LI":"怡平里","LIN":"26鄰","STREET":"永華六街","SECT":" ","MAREA":" ","LANE":" ","ALLEY":" ","HOUSE_NO":"２６號","E_COORD97":165605.66,"N_COORD97":2543593.9199999999,"ADDRESS":"永華六街２６號","OBJECTID":481330},"geometry":{"x":165605.66000000108,"y":2543593.9199999981}},{"attributes":{"ID":481356,"DIS_CODE":0,"TOWNNAME":"安平區","LI":"怡平里","LIN":"26鄰","STREET":"永華六街","SECT":" ","MAREA":" ","LANE":" ","ALLEY":" ","HOUSE_NO":"２８號","E_COORD97":165604.92000000001,"N_COORD97":2543604.77,"ADDRESS":"永華六街２８號","OBJECTID":481331},"geometry":{"x":165604.92000000179,"y":2543604.7699999977}},{"attributes":{"ID":481357,"DIS_CODE":0,"TOWNNAME":"安平區","LI":"怡平里","LIN":"26鄰","STREET":"永華六街","SECT":" ","MAREA":" ","LANE":" ","ALLEY":" ","HOUSE_NO":"３０號","E_COORD97":165605.91,"N_COORD97":2543613.8799999999,"ADDRESS":"永華六街３０號","OBJECTID":481332},"geometry":{"x":165605.91000000108,"y":2543613.8800000027}},{"attributes":{"ID":481358,"DIS_CODE":0,"TOWNNAME":"安平區","LI":"怡平里","LIN":"26鄰","STREET":"永華六街","SECT":" ","MAREA":" ","LANE":" ","ALLEY":" ","HOUSE_NO":"３２之１號","E_COORD97":165615.87,"N_COORD97":2543621.2400000002,"ADDRESS":"永華六街３２之１號","OBJECTID":481333},"geometry":{"x":165615.87000000104,"y":2543621.2400000002}},{"attributes":{"ID":481359,"DIS_CODE":0,"TOWNNAME":"安平區","LI":"怡平里","LIN":"26鄰","STREET":"永華六街","SECT":" ","MAREA":" ","LANE":" ","ALLEY":" ","HOUSE_NO":"３２之２號","E_COORD97":165625.09,"N_COORD97":2543620.8300000001,"ADDRESS":"永華六街３２之２號","OBJECTID":481334},"geometry":{"x":165625.08999999985,"y":2543620.8300000001}},{"attributes":{"ID":481360,"DIS_CODE":0,"TOWNNAME":"六甲區","LI":"甲東里","LIN":"26鄰","STREET":"忠孝街","SECT":" ","MAREA":" ","LANE":" ","ALLEY":" ","HOUSE_NO":"３８號","E_COORD97":183810.76999999999,"N_COORD97":2569454.8799999999,"ADDRESS":"忠孝街３８號","OBJECTID":481335},"geometry":{"x":183810.77000000048,"y":2569454.879999999}},{"attributes":{"ID":481361,"DIS_CODE":0,"TOWNNAME":"六甲區","LI":"甲東里","LIN":"26鄰","STREET":"忠孝街","SECT":" ","MAREA":" ","LANE":" ","ALLEY":" ","HOUSE_NO":"４２號","E_COORD97":183815.87,"N_COORD97":2569465.04,"ADDRESS":"忠孝街４２號","OBJECTID":481336},"geometry":{"x":183815.87000000104,"y":2569465.040000001}},{"attributes":{"ID":481362,"DIS_CODE":0,"TOWNNAME":"六甲區","LI":"甲東里","LIN":"26鄰","STREET":"忠孝街","SECT":" ","MAREA":" ","LANE":" ","ALLEY":" ","HOUSE_NO":"４６號","E_COORD97":183817.97,"N_COORD97":2569468.9300000002,"ADDRESS":"忠孝街４６號","OBJECTID":481337},"geometry":{"x":183817.97000000067,"y":2569468.9299999978}},{"attributes":{"ID":481363,"DIS_CODE":0,"TOWNNAME":"六甲區","LI":"甲東里","LIN":"26鄰","STREET":"忠孝街","SECT":" ","MAREA":" ","LANE":" ","ALLEY":" ","HOUSE_NO":"４８號","E_COORD97":183825.42999999999,"N_COORD97":2569474.96,"ADDRESS":"忠孝街４８號","OBJECTID":481338},"geometry":{"x":183825.4299999997,"y":2569474.9600000028}},{"attributes":{"ID":481364,"DIS_CODE":0,"TOWNNAME":"六甲區","LI":"甲東里","LIN":"26鄰","STREET":"忠孝街","SECT":" ","MAREA":" ","LANE":" ","ALLEY":" ","HOUSE_NO":"５０號","E_COORD97":183827.57999999999,"N_COORD97":2569479.1099999999,"ADDRESS":"忠孝街５０號","OBJECTID":481339},"geometry":{"x":183827.58000000101,"y":2569479.1100000013}},{"attributes":{"ID":481365,"DIS_CODE":0,"TOWNNAME":"六甲區","LI":"甲東里","LIN":"26鄰","STREET":"忠孝街","SECT":" ","MAREA":" ","LANE":" ","ALLEY":" ","HOUSE_NO":"５２號","E_COORD97":183829.67000000001,"N_COORD97":2569482.6499999999,"ADDRESS":"忠孝街５２號","OBJECTID":481340},"geometry":{"x":183829.66999999993,"y":2569482.6500000022}},{"attributes":{"ID":481366,"DIS_CODE":0,"TOWNNAME":"六甲區","LI":"甲東里","LIN":"26鄰","STREET":"忠孝街","SECT":" ","MAREA":" ","LANE":" ","ALLEY":" ","HOUSE_NO":"５４號","E_COORD97":183851.17000000001,"N_COORD97":2569466.1299999999,"ADDRESS":"忠孝街５４號","OBJECTID":481341},"geometry":{"x":183851.16999999993,"y":2569466.129999999}},{"attributes":{"ID":481367,"DIS_CODE":0,"TOWNNAME":"六甲區","LI":"甲東里","LIN":"26鄰","STREET":"忠孝街","SECT":" ","MAREA":" ","LANE":" ","ALLEY":" ","HOUSE_NO":"５６號","E_COORD97":183835.28,"N_COORD97":2569491.79,"ADDRESS":"忠孝街５６號","OBJECTID":481342},"geometry":{"x":183835.28000000119,"y":2569491.7899999991}},{"attributes":{"ID":481368,"DIS_CODE":0,"TOWNNAME":"六甲區","LI":"甲東里","LIN":"26鄰","STREET":"忠孝街","SECT":" ","MAREA":" ","LANE":" ","ALLEY":" ","HOUSE_NO":"５８號","E_COORD97":183837.16,"N_COORD97":2569495.5499999998,"ADDRESS":"忠孝街５８號","OBJECTID":481343},"geometry":{"x":183837.16000000108,"y":2569495.5500000007}},{"attributes":{"ID":481369,"DIS_CODE":0,"TOWNNAME":"六甲區","LI":"二甲里","LIN":"26鄰","STREET":"信義街","SECT":" ","MAREA":" ","LANE":" ","ALLEY":" ","HOUSE_NO":"２０號","E_COORD97":183177.29999999999,"N_COORD97":2569355.0099999998,"ADDRESS":"信義街２０號","OBJECTID":481344},"geometry":{"x":183177.29999999981,"y":2569355.0100000016}},{"attributes":{"ID":481370,"DIS_CODE":0,"TOWNNAME":"六甲區","LI":"二甲里","LIN":"26鄰","STREET":"信義街","SECT":" ","MAREA":" ","LANE":" ","ALLEY":" ","HOUSE_NO":"２２號","E_COORD97":183171.01999999999,"N_COORD97":2569338.2799999998,"ADDRESS":"信義街２２號","OBJECTID":481345},"geometry":{"x":183171.02000000142,"y":2569338.2800000012}},{"attributes":{"ID":481371,"DIS_CODE":0,"TOWNNAME":"六甲區","LI":"二甲里","LIN":"26鄰","STREET":"信義街","SECT":" ","MAREA":" ","LANE":" ","ALLEY":" ","HOUSE_NO":"２６號","E_COORD97":183187.64999999999,"N_COORD97":2569343.75,"ADDRESS":"信義街２６號","OBJECTID":481346},"geometry":{"x":183187.65000000037,"y":2569343.75}},{"attributes":{"ID":481372,"DIS_CODE":0,"TOWNNAME":"六甲區","LI":"二甲里","LIN":"26鄰","STREET":"信義街","SECT":" ","MAREA":" ","LANE":" ","ALLEY":" ","HOUSE_NO":"３０號","E_COORD97":183194.76000000001,"N_COORD97":2569358.6099999999,"ADDRESS":"信義街３０號","OBJECTID":481347},"geometry":{"x":183194.75999999978,"y":2569358.6099999994}},{"attributes":{"ID":481373,"DIS_CODE":0,"TOWNNAME":"六甲區","LI":"二甲里","LIN":"26鄰","STREET":"信義街","SECT":" ","MAREA":" ","LANE":" ","ALLEY":" ","HOUSE_NO":"５１號","E_COORD97":183203.03,"N_COORD97":2569413.2400000002,"ADDRESS":"信義街５１號","OBJECTID":481348},"geometry":{"x":183203.03000000119,"y":2569413.2399999984}},{"attributes":{"ID":481374,"DIS_CODE":0,"TOWNNAME":"六甲區","LI":"二甲里","LIN":"26鄰","STREET":"信義街","SECT":" ","MAREA":" ","LANE":" ","ALLEY":" ","HOUSE_NO":"５３號","E_COORD97":183203.70999999999,"N_COORD97":2569417.48,"ADDRESS":"信義街５３號","OBJECTID":481349},"geometry":{"x":183203.70999999996,"y":2569417.4800000004}},{"attributes":{"ID":481375,"DIS_CODE":0,"TOWNNAME":"六甲區","LI":"二甲里","LIN":"26鄰","STREET":"信義街","SECT":" ","MAREA":" ","LANE":" ","ALLEY":" ","HOUSE_NO":"５７號","E_COORD97":183206.23999999999,"N_COORD97":2569424.7799999998,"ADDRESS":"信義街５７號","OBJECTID":481350},"geometry":{"x":183206.24000000115,"y":2569424.7799999993}},{"attributes":{"ID":481376,"DIS_CODE":0,"TOWNNAME":"六甲區","LI":"二甲里","LIN":"26鄰","STREET":"信義街","SECT":" ","MAREA":" ","LANE":" ","ALLEY":" ","HOUSE_NO":"５９號","E_COORD97":183206.88,"N_COORD97":2569429.04,"ADDRESS":"信義街５９號","OBJECTID":481351},"geometry":{"x":183206.88000000082,"y":2569429.0399999991}},{"attributes":{"ID":481377,"DIS_CODE":0,"TOWNNAME":"南區","LI":"文南里","LIN":"26鄰","STREET":"仁南四街","SECT":" ","MAREA":" ","LANE":" ","ALLEY":" ","HOUSE_NO":"５０號","E_COORD97":166420.04000000001,"N_COORD97":2542783.73,"ADDRESS":"仁南四街５０號","OBJECTID":481352},"geometry":{"x":166420.04000000097,"y":2542783.7300000023}},{"attributes":{"ID":481378,"DIS_CODE":0,"TOWNNAME":"新營區","LI":"三仙里","LIN":"26鄰","STREET":"育德三街","SECT":" ","MAREA":" ","LANE":" ","ALLEY":" ","HOUSE_NO":"６２號","E_COORD97":179465.81,"N_COORD97":2578979.4700000002,"ADDRESS":"育德三街６２號","OBJECTID":481353},"geometry":{"x":179465.81000000052,"y":2578979.4700000007}},{"attributes":{"ID":481379,"DIS_CODE":0,"TOWNNAME":"南區","LI":"金華里","LIN":"26鄰","STREET":"惠南街","SECT":" ","MAREA":" ","LANE":" ","ALLEY":" ","HOUSE_NO":"１２５號","E_COORD97":166707.22,"N_COORD97":2542417.0499999998,"ADDRESS":"惠南街１２５號","OBJECTID":481354},"geometry":{"x":166707.21999999974,"y":2542417.0500000007}},{"attributes":{"ID":481380,"DIS_CODE":0,"TOWNNAME":"南區","LI":"金華里","LIN":"26鄰","STREET":"惠南街","SECT":" ","MAREA":" ","LANE":" ","ALLEY":" ","HOUSE_NO":"１２７號","E_COORD97":166705.85999999999,"N_COORD97":2542421.9300000002,"ADDRESS":"惠南街１２７號","OBJECTID":481355},"geometry":{"x":166705.8600000022,"y":2542421.9300000016}},{"attributes":{"ID":481381,"DIS_CODE":0,"TOWNNAME":"南區","LI":"金華里","LIN":"26鄰","STREET":"惠南街","SECT":" ","MAREA":" ","LANE":" ","ALLEY":" ","HOUSE_NO":"１２９號","E_COORD97":166704.76999999999,"N_COORD97":2542426.8199999998,"ADDRESS":"惠南街１２９號","OBJECTID":481356},"geometry":{"x":166704.77000000048,"y":2542426.8200000022}},{"attributes":{"ID":481382,"DIS_CODE":0,"TOWNNAME":"南區","LI":"金華里","LIN":"26鄰","STREET":"惠南街","SECT":" ","MAREA":" ","LANE":" ","ALLEY":" ","HOUSE_NO":"１３１號","E_COORD97":166702.60000000001,"N_COORD97":2542431.1600000001,"ADDRESS":"惠南街１３１號","OBJECTID":481357},"geometry":{"x":166702.60000000056,"y":2542431.160000002}},{"attributes":{"ID":481383,"DIS_CODE":0,"TOWNNAME":"南區","LI":"金華里","LIN":"26鄰","STREET":"惠南街","SECT":" ","MAREA":" ","LANE":" ","ALLEY":" ","HOUSE_NO":"１３３號","E_COORD97":166702.60000000001,"N_COORD97":2542435.5,"ADDRESS":"惠南街１３３號","OBJECTID":481358},"geometry":{"x":166702.60000000056,"y":2542435.5000000019}},{"attributes":{"ID":481384,"DIS_CODE":0,"TOWNNAME":"南區","LI":"金華里","LIN":"26鄰","STREET":"惠南街","SECT":" ","MAREA":" ","LANE":" ","ALLEY":" ","HOUSE_NO":"１３５號","E_COORD97":166701.23999999999,"N_COORD97":2542440.3900000001,"ADDRESS":"惠南街１３５號","OBJECTID":481359},"geometry":{"x":166701.24000000022,"y":2542440.3900000025}},{"attributes":{"ID":481385,"DIS_CODE":0,"TOWNNAME":"南區","LI":"金華里","LIN":"26鄰","STREET":"惠南街","SECT":" ","MAREA":" ","LANE":" ","ALLEY":" ","HOUSE_NO":"１３７號","E_COORD97":166699.34,"N_COORD97":2542443.9100000001,"ADDRESS":"惠南街１３７號","OBJECTID":481360},"geometry":{"x":166699.34000000078,"y":2542443.9100000001}},{"attributes":{"ID":481386,"DIS_CODE":0,"TOWNNAME":"南區","LI":"金華里","LIN":"26鄰","STREET":"惠南街","SECT":" ","MAREA":" ","LANE":" ","ALLEY":" ","HOUSE_NO":"１３９號","E_COORD97":166698.79999999999,"N_COORD97":2542449.0699999998,"ADDRESS":"惠南街１３９號","OBJECTID":481361},"geometry":{"x":166698.79999999981,"y":2542449.0700000022}},{"attributes":{"ID":481387,"DIS_CODE":0,"TOWNNAME":"南區","LI":"金華里","LIN":"26鄰","STREET":"惠南街","SECT":" ","MAREA":" ","LANE":" ","ALLEY":" ","HOUSE_NO":"１４１號","E_COORD97":166698.53,"N_COORD97":2542454.23,"ADDRESS":"惠南街１４１號","OBJECTID":481362},"geometry":{"x":166698.53000000119,"y":2542454.2300000023}},{"attributes":{"ID":481388,"DIS_CODE":0,"TOWNNAME":"南區","LI":"金華里","LIN":"26鄰","STREET":"惠南街","SECT":" ","MAREA":" ","LANE":" ","ALLEY":" ","HOUSE_NO":"１４３號","E_COORD97":166697.44,"N_COORD97":2542459.3799999999,"ADDRESS":"惠南街１４３號","OBJECTID":481363},"geometry":{"x":166697.44000000134,"y":2542459.379999999}},{"attributes":{"ID":481389,"DIS_CODE":0,"TOWNNAME":"南區","LI":"金華里","LIN":"26鄰","STREET":"惠南街","SECT":" ","MAREA":" ","LANE":" ","ALLEY":" ","HOUSE_NO":"１４５號","E_COORD97":166695.81,"N_COORD97":2542464.54,"ADDRESS":"惠南街１４５號","OBJECTID":481364},"geometry":{"x":166695.81000000052,"y":2542464.540000001}},{"attributes":{"ID":481390,"DIS_CODE":0,"TOWNNAME":"安平區","LI":"平通里","LIN":"26鄰","STREET":"育平八街","SECT":" ","MAREA":" ","LANE":" ","ALLEY":" ","HOUSE_NO":"２３號","E_COORD97":164574.23000000001,"N_COORD97":2543895.3100000001,"ADDRESS":"育平八街２３號","OBJECTID":481365},"geometry":{"x":164574.22999999952,"y":2543895.3100000024}},{"attributes":{"ID":481391,"DIS_CODE":0,"TOWNNAME":"南區","LI":"金華里","LIN":"26鄰","STREET":"賢南街","SECT":" ","MAREA":" ","LANE":" ","ALLEY":" ","HOUSE_NO":"１０６號","E_COORD97":166706.95000000001,"N_COORD97":2542411.48,"ADDRESS":"賢南街１０６號","OBJECTID":481366},"geometry":{"x":166706.95000000205,"y":2542411.4800000023}},{"attributes":{"ID":481392,"DIS_CODE":0,"TOWNNAME":"南區","LI":"金華里","LIN":"26鄰","STREET":"賢南街","SECT":" ","MAREA":" ","LANE":" ","ALLEY":" ","HOUSE_NO":"１０８號","E_COORD97":166693.47,"N_COORD97":2542409.3599999999,"ADDRESS":"賢南街１０８號","OBJECTID":481367},"geometry":{"x":166693.47000000067,"y":2542409.3599999994}},{"attributes":{"ID":481393,"DIS_CODE":0,"TOWNNAME":"南區","LI":"金華里","LIN":"26鄰","STREET":"賢南街","SECT":" ","MAREA":" ","LANE":" ","ALLEY":" ","HOUSE_NO":"１１０號","E_COORD97":166688.14999999999,"N_COORD97":2542408.7200000002,"ADDRESS":"賢南街１１０號","OBJECTID":481368},"geometry":{"x":166688.15000000037,"y":2542408.7200000007}},{"attributes":{"ID":481394,"DIS_CODE":0,"TOWNNAME":"南區","LI":"金華里","LIN":"26鄰","STREET":"賢南街","SECT":" ","MAREA":" ","LANE":" ","ALLEY":" ","HOUSE_NO":"１１２號","E_COORD97":166683.95999999999,"N_COORD97":2542407.9199999999,"ADDRESS":"賢南街１１２號","OBJECTID":481369},"geometry":{"x":166683.95999999996,"y":2542407.9200000018}},{"attributes":{"ID":481395,"DIS_CODE":0,"TOWNNAME":"南區","LI":"金華里","LIN":"26鄰","STREET":"賢南街","SECT":" ","MAREA":" ","LANE":" ","ALLEY":" ","HOUSE_NO":"１１４號","E_COORD97":166678.48000000001,"N_COORD97":2542407.9199999999,"ADDRESS":"賢南街１１４號","OBJECTID":481370},"geometry":{"x":166678.48000000138,"y":2542407.9200000018}},{"attributes":{"ID":481396,"DIS_CODE":0,"TOWNNAME":"南區","LI":"金華里","LIN":"26鄰","STREET":"賢南街","SECT":" ","MAREA":" ","LANE":" ","ALLEY":" ","HOUSE_NO":"１１６號","E_COORD97":166680.06,"N_COORD97":2542424.5600000001,"ADDRESS":"賢南街１１６號","OBJECTID":481371},"geometry":{"x":166680.06000000145,"y":2542424.5600000024}},{"attributes":{"ID":481397,"DIS_CODE":0,"TOWNNAME":"南區","LI":"金華里","LIN":"26鄰","STREET":"賢南街","SECT":" ","MAREA":" ","LANE":" ","ALLEY":" ","HOUSE_NO":"１１８號","E_COORD97":166679.12,"N_COORD97":2542429.6099999999,"ADDRESS":"賢南街１１８號","OBJECTID":481372},"geometry":{"x":166679.12000000104,"y":2542429.6100000031}},{"attributes":{"ID":481398,"DIS_CODE":0,"TOWNNAME":"南區","LI":"金華里","LIN":"26鄰","STREET":"賢南街","SECT":" ","MAREA":" ","LANE":" ","ALLEY":" ","HOUSE_NO":"１２０號","E_COORD97":166678,"N_COORD97":2542433.9100000001,"ADDRESS":"賢南街１２０號","OBJECTID":481373},"geometry":{"x":166678.00000000093,"y":2542433.9100000001}},{"attributes":{"ID":481399,"DIS_CODE":0,"TOWNNAME":"南區","LI":"金華里","LIN":"26鄰","STREET":"賢南街","SECT":" ","MAREA":" ","LANE":" ","ALLEY":" ","HOUSE_NO":"１２２號","E_COORD97":166677.81,"N_COORD97":2542438.02,"ADDRESS":"賢南街１２２號","OBJECTID":481374},"geometry":{"x":166677.80999999959,"y":2542438.0200000014}},{"attributes":{"ID":481400,"DIS_CODE":0,"TOWNNAME":"南區","LI":"金華里","LIN":"26鄰","STREET":"賢南街","SECT":" ","MAREA":" ","LANE":" ","ALLEY":" ","HOUSE_NO":"１２４號","E_COORD97":166675.94,"N_COORD97":2542443.0600000001,"ADDRESS":"賢南街１２４號","OBJECTID":481375},"geometry":{"x":166675.94000000041,"y":2542443.0600000005}},{"attributes":{"ID":481401,"DIS_CODE":0,"TOWNNAME":"南區","LI":"金華里","LIN":"26鄰","STREET":"賢南街","SECT":" ","MAREA":" ","LANE":" ","ALLEY":" ","HOUSE_NO":"１２６號","E_COORD97":166650.31,"N_COORD97":2542440.0699999998,"ADDRESS":"賢南街１２６號","OBJECTID":481376},"geometry":{"x":166650.31000000052,"y":2542440.0700000003}},{"attributes":{"ID":481402,"DIS_CODE":0,"TOWNNAME":"南區","LI":"金華里","LIN":"26鄰","STREET":"賢南街","SECT":" ","MAREA":" ","LANE":" ","ALLEY":" ","HOUSE_NO":"１２８號","E_COORD97":166650.5,"N_COORD97":2542434.2799999998,"ADDRESS":"賢南街１２８號","OBJECTID":481377},"geometry":{"x":166650.50000000093,"y":2542434.2799999993}},{"attributes":{"ID":481403,"DIS_CODE":0,"TOWNNAME":"南區","LI":"金華里","LIN":"26鄰","STREET":"賢南街","SECT":" ","MAREA":" ","LANE":" ","ALLEY":" ","HOUSE_NO":"１３０號","E_COORD97":166652,"N_COORD97":2542429.7999999998,"ADDRESS":"賢南街１３０號","OBJECTID":481378},"geometry":{"x":166652.00000000186,"y":2542429.8000000026}},{"attributes":{"ID":481404,"DIS_CODE":0,"TOWNNAME":"南區","LI":"金華里","LIN":"26鄰","STREET":"賢南街","SECT":" ","MAREA":" ","LANE":" ","ALLEY":" ","HOUSE_NO":"１３２號","E_COORD97":166653.12,"N_COORD97":2542424.3799999999,"ADDRESS":"賢南街１３２號","OBJECTID":481379},"geometry":{"x":166653.12000000197,"y":2542424.3800000008}},{"attributes":{"ID":481405,"DIS_CODE":0,"TOWNNAME":"南區","LI":"金華里","LIN":"26鄰","STREET":"賢南街","SECT":" ","MAREA":" ","LANE":" ","ALLEY":" ","HOUSE_NO":"１３４號","E_COORD97":166654.42999999999,"N_COORD97":2542421.0099999998,"ADDRESS":"賢南街１３４號","OBJECTID":481380},"geometry":{"x":166654.43000000063,"y":2542421.0100000016}},{"attributes":{"ID":481406,"DIS_CODE":0,"TOWNNAME":"南區","LI":"金華里","LIN":"26鄰","STREET":"賢南街","SECT":" ","MAREA":" ","LANE":" ","ALLEY":" ","HOUSE_NO":"１３６號","E_COORD97":166667.35999999999,"N_COORD97":2542405.5,"ADDRESS":"賢南街１３６號","OBJECTID":481381},"geometry":{"x":166667.36000000127,"y":2542405.5}},{"attributes":{"ID":481407,"DIS_CODE":0,"TOWNNAME":"南區","LI":"金華里","LIN":"26鄰","STREET":"賢南街","SECT":" ","MAREA":" ","LANE":" ","ALLEY":" ","HOUSE_NO":"１３８號","E_COORD97":166662.20000000001,"N_COORD97":2542405.3399999999,"ADDRESS":"賢南街１３８號","OBJECTID":481382},"geometry":{"x":166662.20000000019,"y":2542405.3400000017}},{"attributes":{"ID":481408,"DIS_CODE":0,"TOWNNAME":"南區","LI":"金華里","LIN":"26鄰","STREET":"賢南街","SECT":" ","MAREA":" ","LANE":" ","ALLEY":" ","HOUSE_NO":"１４０號","E_COORD97":166657.69,"N_COORD97":2542402.9300000002,"ADDRESS":"賢南街１４０號","OBJECTID":481383},"geometry":{"x":166657.69000000041,"y":2542402.9299999997}},{"attributes":{"ID":481409,"DIS_CODE":0,"TOWNNAME":"南區","LI":"金華里","LIN":"26鄰","STREET":"賢南街","SECT":" ","MAREA":" ","LANE":" ","ALLEY":" ","HOUSE_NO":"１４２號","E_COORD97":166652.69,"N_COORD97":2542402.6000000001,"ADDRESS":"賢南街１４２號","OBJECTID":481384},"geometry":{"x":166652.69000000041,"y":2542402.6000000034}},{"attributes":{"ID":481410,"DIS_CODE":0,"TOWNNAME":"南區","LI":"金華里","LIN":"26鄰","STREET":"賢南街","SECT":" ","MAREA":" ","LANE":" ","ALLEY":" ","HOUSE_NO":"１４４號","E_COORD97":166647.53,"N_COORD97":2542401.7999999998,"ADDRESS":"賢南街１４４號","OBJECTID":481385},"geometry":{"x":166647.53000000119,"y":2542401.8000000007}},{"attributes":{"ID":481411,"DIS_CODE":0,"TOWNNAME":"南區","LI":"金華里","LIN":"26鄰","STREET":"賢南街","SECT":" ","MAREA":" ","LANE":" ","ALLEY":" ","HOUSE_NO":"１４６號","E_COORD97":166643.17999999999,"N_COORD97":2542401.3199999998,"ADDRESS":"賢南街１４６號","OBJECTID":481386},"geometry":{"x":166643.1799999997,"y":2542401.3200000003}},{"attributes":{"ID":481412,"DIS_CODE":0,"TOWNNAME":"南區","LI":"金華里","LIN":"26鄰","STREET":"賢南街","SECT":" ","MAREA":" ","LANE":" ","ALLEY":" ","HOUSE_NO":"１４８號","E_COORD97":166638.67000000001,"N_COORD97":2542400.6699999999,"ADDRESS":"賢南街１４８號","OBJECTID":481387},"geometry":{"x":166638.66999999993,"y":2542400.6700000018}},{"attributes":{"ID":481413,"DIS_CODE":0,"TOWNNAME":"南區","LI":"金華里","LIN":"26鄰","STREET":"賢南街","SECT":" ","MAREA":" ","LANE":" ","ALLEY":" ","HOUSE_NO":"１５０號","E_COORD97":166632.70999999999,"N_COORD97":2542400.3500000001,"ADDRESS":"賢南街１５０號","OBJECTID":481388},"geometry":{"x":166632.71000000089,"y":2542400.3499999996}},{"attributes":{"ID":481414,"DIS_CODE":0,"TOWNNAME":"南區","LI":"金華里","LIN":"26鄰","STREET":"賢南街","SECT":" ","MAREA":" ","LANE":" ","ALLEY":" ","HOUSE_NO":"１５２號","E_COORD97":166629,"N_COORD97":2542400.1899999999,"ADDRESS":"賢南街１５２號","OBJECTID":481389},"geometry":{"x":166629.00000000093,"y":2542400.1899999995}},{"attributes":{"ID":481415,"DIS_CODE":0,"TOWNNAME":"北區","LI":"成德里","LIN":"26鄰","STREET":"育德一街","SECT":" ","MAREA":" ","LANE":" ","ALLEY":" ","HOUSE_NO":"１１號","E_COORD97":168464.85999999999,"N_COORD97":2545805.3599999999,"ADDRESS":"育德一街１１號","OBJECTID":481390},"geometry":{"x":168464.86000000034,"y":2545805.3600000013}},{"attributes":{"ID":481416,"DIS_CODE":0,"TOWNNAME":"北區","LI":"成德里","LIN":"26鄰","STREET":"育德一街","SECT":" ","MAREA":" ","LANE":" ","ALLEY":" ","HOUSE_NO":"２３號","E_COORD97":168499.14999999999,"N_COORD97":2545837.1099999999,"ADDRESS":"育德一街２３號","OBJECTID":481391},"geometry":{"x":168499.15000000224,"y":2545837.1100000013}},{"attributes":{"ID":481417,"DIS_CODE":0,"TOWNNAME":"安平區","LI":"平通里","LIN":"26鄰","STREET":"育平八街","SECT":" ","MAREA":" ","LANE":" ","ALLEY":" ","HOUSE_NO":"１３號","E_COORD97":164607.23000000001,"N_COORD97":2543898.5800000001,"ADDRESS":"育平八街１３號","OBJECTID":481392},"geometry":{"x":164607.23000000138,"y":2543898.5800000038}},{"attributes":{"ID":481418,"DIS_CODE":0,"TOWNNAME":"安平區","LI":"平通里","LIN":"26鄰","STREET":"育平八街","SECT":" ","MAREA":" ","LANE":" ","ALLEY":" ","HOUSE_NO":"１５號","E_COORD97":164602.44,"N_COORD97":2543898.9199999999,"ADDRESS":"育平八街１５號","OBJECTID":481393},"geometry":{"x":164602.44000000134,"y":2543898.9199999999}},{"attributes":{"ID":481419,"DIS_CODE":0,"TOWNNAME":"安平區","LI":"平通里","LIN":"26鄰","STREET":"育平八街","SECT":" ","MAREA":" ","LANE":" ","ALLEY":" ","HOUSE_NO":"１７號","E_COORD97":164588.10999999999,"N_COORD97":2543895.1299999999,"ADDRESS":"育平八街１７號","OBJECTID":481394},"geometry":{"x":164588.11000000034,"y":2543895.129999999}},{"attributes":{"ID":481420,"DIS_CODE":0,"TOWNNAME":"安平區","LI":"平通里","LIN":"26鄰","STREET":"育平八街","SECT":" ","MAREA":" ","LANE":" ","ALLEY":" ","HOUSE_NO":"１９號","E_COORD97":164583.26000000001,"N_COORD97":2543895.2200000002,"ADDRESS":"育平八街１９號","OBJECTID":481395},"geometry":{"x":164583.25999999978,"y":2543895.2200000025}},{"attributes":{"ID":481421,"DIS_CODE":0,"TOWNNAME":"安平區","LI":"平通里","LIN":"26鄰","STREET":"育平八街","SECT":" ","MAREA":" ","LANE":" ","ALLEY":" ","HOUSE_NO":"２１號","E_COORD97":164578.72,"N_COORD97":2543895.3500000001,"ADDRESS":"育平八街２１號","OBJECTID":481396},"geometry":{"x":164578.7200000016,"y":2543895.3499999996}},{"attributes":{"ID":481422,"DIS_CODE":0,"TOWNNAME":"安平區","LI":"平通里","LIN":"26鄰","STREET":"育平八街","SECT":" ","MAREA":" ","LANE":" ","ALLEY":" ","HOUSE_NO":"２５號","E_COORD97":164570,"N_COORD97":2543895.3500000001,"ADDRESS":"育平八街２５號","OBJECTID":481397},"geometry":{"x":164570,"y":2543895.3499999996}},{"attributes":{"ID":481423,"DIS_CODE":0,"TOWNNAME":"安平區","LI":"平通里","LIN":"26鄰","STREET":"育平八街","SECT":" ","MAREA":" ","LANE":" ","ALLEY":" ","HOUSE_NO":"２７號","E_COORD97":164565.34,"N_COORD97":2543895.3999999999,"ADDRESS":"育平八街２７號","OBJECTID":481398},"geometry":{"x":164565.33999999985,"y":2543895.4000000004}},{"attributes":{"ID":481424,"DIS_CODE":0,"TOWNNAME":"安平區","LI":"平通里","LIN":"26鄰","STREET":"育平八街","SECT":" ","MAREA":" ","LANE":" ","ALLEY":" ","HOUSE_NO":"２９號","E_COORD97":164560.82000000001,"N_COORD97":2543895.4399999999,"ADDRESS":"育平八街２９號","OBJECTID":481399},"geometry":{"x":164560.82000000123,"y":2543895.4400000032}},{"attributes":{"ID":481425,"DIS_CODE":0,"TOWNNAME":"安平區","LI":"平通里","LIN":"26鄰","STREET":"育平八街","SECT":" ","MAREA":" ","LANE":" ","ALLEY":" ","HOUSE_NO":"３１號","E_COORD97":164556.32999999999,"N_COORD97":2543895.3100000001,"ADDRESS":"育平八街３１號","OBJECTID":481400},"geometry":{"x":164556.33000000194,"y":2543895.3100000024}}]}