{"displayFieldName":"TOWNNAME","fieldAliases":{"ID":"ID","DIS_CODE":"DIS_CODE","TOWNNAME":"TOWNNAME","LI":"LI","LIN":"LIN","STREET":"STREET","SECT":"SECT","MAREA":"MAREA","LANE":"LANE","ALLEY":"ALLEY","HOUSE_NO":"HOUSE_NO","E_COORD97":"E_COORD97","N_COORD97":"N_COORD97","ADDRESS":"ADDRESS","OBJECTID":"OBJECTID"},"geometryType":"esriGeometryPoint","spatialReference":{"wkid":102443,"latestWkid":3826},"fields":[{"name":"ID","type":"esriFieldTypeDouble","alias":"ID"},{"name":"DIS_CODE","type":"esriFieldTypeInteger","alias":"DIS_CODE"},{"name":"TOWNNAME","type":"esriFieldTypeString","alias":"TOWNNAME","length":8},{"name":"LI","type":"esriFieldTypeString","alias":"LI","length":8},{"name":"LIN","type":"esriFieldTypeString","alias":"LIN","length":12},{"name":"STREET","type":"esriFieldTypeString","alias":"STREET","length":20},{"name":"SECT","type":"esriFieldTypeString","alias":"SECT","length":8},{"name":"MAREA","type":"esriFieldTypeString","alias":"MAREA","length":12},{"name":"LANE","type":"esriFieldTypeString","alias":"LANE","length":10},{"name":"ALLEY","type":"esriFieldTypeString","alias":"ALLEY","length":10},{"name":"HOUSE_NO","type":"esriFieldTypeString","alias":"HOUSE_NO","length":20},{"name":"E_COORD97","type":"esriFieldTypeDouble","alias":"E_COORD97"},{"name":"N_COORD97","type":"esriFieldTypeDouble","alias":"N_COORD97"},{"name":"ADDRESS","type":"esriFieldTypeString","alias":"ADDRESS","length":50},{"name":"OBJECTID","type":"esriFieldTypeOID","alias":"OBJECTID"}],"features":[{"attributes":{"ID":51401,"DIS_CODE":0,"TOWNNAME":"下營區","LI":"大屯里","LIN":"1鄰","STREET":" ","SECT":" ","MAREA":"大屯寮","LANE":" ","ALLEY":" ","HOUSE_NO":"４號之２","E_COORD97":172251.94,"N_COORD97":2570349.96,"ADDRESS":"大屯寮４號之２","OBJECTID":51401},"geometry":{"x":172251.94000000041,"y":2570349.9600000028}},{"attributes":{"ID":51402,"DIS_CODE":0,"TOWNNAME":"下營區","LI":"大屯里","LIN":"1鄰","STREET":" ","SECT":" ","MAREA":"大屯寮","LANE":" ","ALLEY":" ","HOUSE_NO":"４號之３０","E_COORD97":172655.67000000001,"N_COORD97":2570297.8300000001,"ADDRESS":"大屯寮４號之３０","OBJECTID":51402},"geometry":{"x":172655.67000000086,"y":2570297.8300000019}},{"attributes":{"ID":51403,"DIS_CODE":0,"TOWNNAME":"下營區","LI":"大屯里","LIN":"1鄰","STREET":" ","SECT":" ","MAREA":"大屯寮","LANE":" ","ALLEY":" ","HOUSE_NO":"４號之３","E_COORD97":172224.39999999999,"N_COORD97":2570345.3900000001,"ADDRESS":"大屯寮４號之３","OBJECTID":51403},"geometry":{"x":172224.40000000037,"y":2570345.3900000043}},{"attributes":{"ID":51404,"DIS_CODE":0,"TOWNNAME":"下營區","LI":"大屯里","LIN":"1鄰","STREET":" ","SECT":" ","MAREA":"大屯寮","LANE":" ","ALLEY":" ","HOUSE_NO":"４號之６","E_COORD97":172312.73000000001,"N_COORD97":2570249.8700000001,"ADDRESS":"大屯寮４號之６","OBJECTID":51404},"geometry":{"x":172312.73000000045,"y":2570249.870000001}},{"attributes":{"ID":51405,"DIS_CODE":0,"TOWNNAME":"下營區","LI":"大屯里","LIN":"1鄰","STREET":" ","SECT":" ","MAREA":"大屯寮","LANE":" ","ALLEY":" ","HOUSE_NO":"４號之８","E_COORD97":172287.26999999999,"N_COORD97":2569810.6099999999,"ADDRESS":"大屯寮４號之８","OBJECTID":51405},"geometry":{"x":172287.26999999955,"y":2569810.6100000013}},{"attributes":{"ID":51406,"DIS_CODE":0,"TOWNNAME":"北區","LI":"成功里","LIN":"15鄰","STREET":"北成路","SECT":" ","MAREA":" ","LANE":"８０巷","ALLEY":"４０弄","HOUSE_NO":"２９號","E_COORD97":169138.47,"N_COORD97":2546719.7000000002,"ADDRESS":"北成路８０巷４０弄２９號","OBJECTID":51406},"geometry":{"x":169138.46999999974,"y":2546719.6999999993}},{"attributes":{"ID":51407,"DIS_CODE":0,"TOWNNAME":"下營區","LI":"大屯里","LIN":"1鄰","STREET":" ","SECT":" ","MAREA":"大屯寮","LANE":" ","ALLEY":" ","HOUSE_NO":"４號之９","E_COORD97":172413.25,"N_COORD97":2570229.52,"ADDRESS":"大屯寮４號之９","OBJECTID":51407},"geometry":{"x":172413.25,"y":2570229.5200000014}},{"attributes":{"ID":51408,"DIS_CODE":0,"TOWNNAME":"下營區","LI":"大屯里","LIN":"1鄰","STREET":" ","SECT":" ","MAREA":"大屯寮","LANE":" ","ALLEY":" ","HOUSE_NO":"４號","E_COORD97":172232.70999999999,"N_COORD97":2570446.3799999999,"ADDRESS":"大屯寮４號","OBJECTID":51408},"geometry":{"x":172232.70999999903,"y":2570446.3800000008}},{"attributes":{"ID":51409,"DIS_CODE":0,"TOWNNAME":"下營區","LI":"大屯里","LIN":"1鄰","STREET":" ","SECT":" ","MAREA":"大屯寮","LANE":" ","ALLEY":" ","HOUSE_NO":"５號之１","E_COORD97":172192.14999999999,"N_COORD97":2570471.3700000001,"ADDRESS":"大屯寮５號之１","OBJECTID":51409},"geometry":{"x":172192.15000000037,"y":2570471.3700000048}},{"attributes":{"ID":51410,"DIS_CODE":0,"TOWNNAME":"北區","LI":"成功里","LIN":"14鄰","STREET":"北成路","SECT":" ","MAREA":" ","LANE":"８０巷","ALLEY":"４０弄","HOUSE_NO":"４號","E_COORD97":169073.97,"N_COORD97":2546730.2999999998,"ADDRESS":"北成路８０巷４０弄４號","OBJECTID":51410},"geometry":{"x":169073.96999999974,"y":2546730.3000000007}},{"attributes":{"ID":51411,"DIS_CODE":0,"TOWNNAME":"北區","LI":"成功里","LIN":"15鄰","STREET":"北成路","SECT":" ","MAREA":" ","LANE":"８０巷","ALLEY":"４０弄","HOUSE_NO":"３１號","E_COORD97":169142.79999999999,"N_COORD97":2546716.9199999999,"ADDRESS":"北成路８０巷４０弄３１號","OBJECTID":51411},"geometry":{"x":169142.79999999981,"y":2546716.9200000037}},{"attributes":{"ID":51412,"DIS_CODE":0,"TOWNNAME":"北區","LI":"成功里","LIN":"15鄰","STREET":"北成路","SECT":" ","MAREA":" ","LANE":"８０巷","ALLEY":"４０弄","HOUSE_NO":"３３號","E_COORD97":169147.13,"N_COORD97":2546714.4500000002,"ADDRESS":"北成路８０巷４０弄３３號","OBJECTID":51412},"geometry":{"x":169147.13000000082,"y":2546714.4499999993}},{"attributes":{"ID":51413,"DIS_CODE":0,"TOWNNAME":"北區","LI":"成功里","LIN":"15鄰","STREET":"北成路","SECT":" ","MAREA":" ","LANE":"８０巷","ALLEY":"４０弄","HOUSE_NO":"３５號","E_COORD97":169152.70000000001,"N_COORD97":2546711.6699999999,"ADDRESS":"北成路８０巷４０弄３５號","OBJECTID":51413},"geometry":{"x":169152.70000000019,"y":2546711.6700000037}},{"attributes":{"ID":51414,"DIS_CODE":0,"TOWNNAME":"北區","LI":"成功里","LIN":"15鄰","STREET":"北成路","SECT":" ","MAREA":" ","LANE":"８０巷","ALLEY":"４０弄","HOUSE_NO":"３７號","E_COORD97":169156.10000000001,"N_COORD97":2546708.8900000001,"ADDRESS":"北成路８０巷４０弄３７號","OBJECTID":51414},"geometry":{"x":169156.09999999963,"y":2546708.8900000025}},{"attributes":{"ID":51415,"DIS_CODE":0,"TOWNNAME":"下營區","LI":"大屯里","LIN":"1鄰","STREET":" ","SECT":" ","MAREA":"大屯寮","LANE":" ","ALLEY":" ","HOUSE_NO":"５號之２","E_COORD97":172192.38,"N_COORD97":2570465.0499999998,"ADDRESS":"大屯寮５號之２","OBJECTID":51415},"geometry":{"x":172192.37999999989,"y":2570465.0500000007}},{"attributes":{"ID":51416,"DIS_CODE":0,"TOWNNAME":"北區","LI":"成功里","LIN":"15鄰","STREET":"北成路","SECT":" ","MAREA":" ","LANE":"８０巷","ALLEY":"４０弄","HOUSE_NO":"３９號","E_COORD97":169161.04999999999,"N_COORD97":2546707.04,"ADDRESS":"北成路８０巷４０弄３９號","OBJECTID":51416},"geometry":{"x":169161.05000000075,"y":2546707.0399999991}},{"attributes":{"ID":51417,"DIS_CODE":0,"TOWNNAME":"仁德區","LI":"一甲里","LIN":"17鄰","STREET":"中清路","SECT":" ","MAREA":" ","LANE":" ","ALLEY":" ","HOUSE_NO":"２４５號","E_COORD97":173733.34,"N_COORD97":2541734.04,"ADDRESS":"中清路２４５號","OBJECTID":51417},"geometry":{"x":173733.33999999985,"y":2541734.0399999991}},{"attributes":{"ID":51418,"DIS_CODE":0,"TOWNNAME":"下營區","LI":"大屯里","LIN":"1鄰","STREET":" ","SECT":" ","MAREA":"大屯寮","LANE":" ","ALLEY":" ","HOUSE_NO":"６號","E_COORD97":172173.28,"N_COORD97":2570485.48,"ADDRESS":"大屯寮６號","OBJECTID":51418},"geometry":{"x":172173.28000000212,"y":2570485.4800000004}},{"attributes":{"ID":51419,"DIS_CODE":0,"TOWNNAME":"下營區","LI":"大屯里","LIN":"1鄰","STREET":" ","SECT":" ","MAREA":"大屯寮","LANE":" ","ALLEY":" ","HOUSE_NO":"７號之１","E_COORD97":172161.26000000001,"N_COORD97":2570475.2999999998,"ADDRESS":"大屯寮７號之１","OBJECTID":51419},"geometry":{"x":172161.26000000071,"y":2570475.3000000026}},{"attributes":{"ID":51420,"DIS_CODE":0,"TOWNNAME":"下營區","LI":"大屯里","LIN":"1鄰","STREET":" ","SECT":" ","MAREA":"大屯寮","LANE":" ","ALLEY":" ","HOUSE_NO":"７號","E_COORD97":172154.48000000001,"N_COORD97":2570472.27,"ADDRESS":"大屯寮７號","OBJECTID":51420},"geometry":{"x":172154.48000000045,"y":2570472.2699999996}},{"attributes":{"ID":51421,"DIS_CODE":0,"TOWNNAME":"下營區","LI":"大屯里","LIN":"1鄰","STREET":" ","SECT":" ","MAREA":"大屯寮","LANE":" ","ALLEY":" ","HOUSE_NO":"９號","E_COORD97":172197.14000000001,"N_COORD97":2570506.3199999998,"ADDRESS":"大屯寮９號","OBJECTID":51421},"geometry":{"x":172197.13999999966,"y":2570506.3200000022}},{"attributes":{"ID":51422,"DIS_CODE":0,"TOWNNAME":"仁德區","LI":"一甲里","LIN":"17鄰","STREET":"正義三街","SECT":" ","MAREA":" ","LANE":" ","ALLEY":" ","HOUSE_NO":"２９５號","E_COORD97":174185.12,"N_COORD97":2541466.77,"ADDRESS":"正義三街２９５號","OBJECTID":51422},"geometry":{"x":174185.12000000104,"y":2541466.7700000014}},{"attributes":{"ID":51423,"DIS_CODE":0,"TOWNNAME":"仁德區","LI":"一甲里","LIN":"17鄰","STREET":"正義三街","SECT":" ","MAREA":" ","LANE":" ","ALLEY":" ","HOUSE_NO":"２８９號","E_COORD97":174169.81,"N_COORD97":2541463.52,"ADDRESS":"正義三街２８９號","OBJECTID":51423},"geometry":{"x":174169.81000000052,"y":2541463.5199999996}},{"attributes":{"ID":51424,"DIS_CODE":0,"TOWNNAME":"下營區","LI":"大埤里","LIN":"1鄰","STREET":" ","SECT":" ","MAREA":"大埤寮","LANE":" ","ALLEY":" ","HOUSE_NO":"１號之１","E_COORD97":173258.04999999999,"N_COORD97":2569817.1499999999,"ADDRESS":"大埤寮１號之１","OBJECTID":51424},"geometry":{"x":173258.05000000075,"y":2569817.1500000004}},{"attributes":{"ID":51425,"DIS_CODE":0,"TOWNNAME":"仁德區","LI":"仁和里","LIN":"17鄰","STREET":" ","SECT":" ","MAREA":"仁和","LANE":" ","ALLEY":" ","HOUSE_NO":"３５１之３號","E_COORD97":170486.60999999999,"N_COORD97":2539880.2999999998,"ADDRESS":"仁和３５１之３號","OBJECTID":51425},"geometry":{"x":170486.61000000127,"y":2539880.3000000026}},{"attributes":{"ID":51426,"DIS_CODE":0,"TOWNNAME":"下營區","LI":"大埤里","LIN":"1鄰","STREET":" ","SECT":" ","MAREA":"大埤寮","LANE":" ","ALLEY":" ","HOUSE_NO":"１號之２","E_COORD97":173281.64999999999,"N_COORD97":2569818.1899999999,"ADDRESS":"大埤寮１號之２","OBJECTID":51426},"geometry":{"x":173281.6500000013,"y":2569818.1899999995}},{"attributes":{"ID":51427,"DIS_CODE":0,"TOWNNAME":"北區","LI":"成功里","LIN":"15鄰","STREET":"北成路","SECT":" ","MAREA":" ","LANE":"８０巷","ALLEY":"４０弄","HOUSE_NO":"３號","E_COORD97":169079.09,"N_COORD97":2546751.52,"ADDRESS":"北成路８０巷４０弄３號","OBJECTID":51427},"geometry":{"x":169079.09000000078,"y":2546751.5199999996}},{"attributes":{"ID":51428,"DIS_CODE":0,"TOWNNAME":"下營區","LI":"大埤里","LIN":"1鄰","STREET":" ","SECT":" ","MAREA":"大埤寮","LANE":" ","ALLEY":" ","HOUSE_NO":"１號之４","E_COORD97":173314.95000000001,"N_COORD97":2569819.96,"ADDRESS":"大埤寮１號之４","OBJECTID":51428},"geometry":{"x":173314.95000000112,"y":2569819.9600000028}},{"attributes":{"ID":51429,"DIS_CODE":0,"TOWNNAME":"北區","LI":"成功里","LIN":"15鄰","STREET":"北成路","SECT":" ","MAREA":" ","LANE":"８０巷","ALLEY":"４０弄","HOUSE_NO":"４１號","E_COORD97":169166,"N_COORD97":2546704.5699999998,"ADDRESS":"北成路８０巷４０弄４１號","OBJECTID":51429},"geometry":{"x":169166.00000000186,"y":2546704.5700000003}},{"attributes":{"ID":51430,"DIS_CODE":0,"TOWNNAME":"北區","LI":"成功里","LIN":"15鄰","STREET":"北成路","SECT":" ","MAREA":" ","LANE":"８０巷","ALLEY":"４０弄","HOUSE_NO":"４３號","E_COORD97":169170.95000000001,"N_COORD97":2546701.79,"ADDRESS":"北成路８０巷４０弄４３號","OBJECTID":51430},"geometry":{"x":169170.95000000019,"y":2546701.7899999991}},{"attributes":{"ID":51431,"DIS_CODE":0,"TOWNNAME":"下營區","LI":"大埤里","LIN":"1鄰","STREET":" ","SECT":" ","MAREA":"大埤寮","LANE":" ","ALLEY":" ","HOUSE_NO":"１號之５","E_COORD97":173324.10999999999,"N_COORD97":2569833.7799999998,"ADDRESS":"大埤寮１號之５","OBJECTID":51431},"geometry":{"x":173324.11000000127,"y":2569833.7800000012}},{"attributes":{"ID":51432,"DIS_CODE":0,"TOWNNAME":"下營區","LI":"大埤里","LIN":"1鄰","STREET":" ","SECT":" ","MAREA":"大埤寮","LANE":" ","ALLEY":" ","HOUSE_NO":"１號之６","E_COORD97":173330.16,"N_COORD97":2569836.25,"ADDRESS":"大埤寮１號之６","OBJECTID":51432},"geometry":{"x":173330.16000000201,"y":2569836.25}},{"attributes":{"ID":51433,"DIS_CODE":0,"TOWNNAME":"南區","LI":"喜北里","LIN":"15鄰","STREET":"喜樹路","SECT":" ","MAREA":" ","LANE":"２２２巷","ALLEY":"５４弄","HOUSE_NO":"２號","E_COORD97":165565.63,"N_COORD97":2538084.9199999999,"ADDRESS":"喜樹路２２２巷５４弄２號","OBJECTID":51433},"geometry":{"x":165565.62999999989,"y":2538084.9200000037}},{"attributes":{"ID":51434,"DIS_CODE":0,"TOWNNAME":"南區","LI":"喜北里","LIN":"15鄰","STREET":"喜樹路","SECT":" ","MAREA":" ","LANE":"２２２巷","ALLEY":"５４弄","HOUSE_NO":"３號","E_COORD97":165556.56,"N_COORD97":2538096.9199999999,"ADDRESS":"喜樹路２２２巷５４弄３號","OBJECTID":51434},"geometry":{"x":165556.56000000052,"y":2538096.9199999999}},{"attributes":{"ID":51435,"DIS_CODE":0,"TOWNNAME":"仁德區","LI":"二行里","LIN":"17鄰","STREET":"行大街","SECT":" ","MAREA":" ","LANE":" ","ALLEY":" ","HOUSE_NO":"３０６號","E_COORD97":169699.31,"N_COORD97":2535187.9900000002,"ADDRESS":"行大街３０６號","OBJECTID":51435},"geometry":{"x":169699.31000000052,"y":2535187.9900000002}},{"attributes":{"ID":51436,"DIS_CODE":0,"TOWNNAME":"下營區","LI":"大埤里","LIN":"1鄰","STREET":" ","SECT":" ","MAREA":"大埤寮","LANE":" ","ALLEY":" ","HOUSE_NO":"２號之１４","E_COORD97":173561.67999999999,"N_COORD97":2569893.0899999999,"ADDRESS":"大埤寮２號之１４","OBJECTID":51436},"geometry":{"x":173561.67999999877,"y":2569893.0900000017}},{"attributes":{"ID":51437,"DIS_CODE":0,"TOWNNAME":"下營區","LI":"大埤里","LIN":"1鄰","STREET":" ","SECT":" ","MAREA":"大埤寮","LANE":" ","ALLEY":" ","HOUSE_NO":"２號之１６","E_COORD97":173619.79000000001,"N_COORD97":2569888.6299999999,"ADDRESS":"大埤寮２號之１６","OBJECTID":51437},"geometry":{"x":173619.79000000097,"y":2569888.6300000008}},{"attributes":{"ID":51438,"DIS_CODE":0,"TOWNNAME":"下營區","LI":"大埤里","LIN":"1鄰","STREET":" ","SECT":" ","MAREA":"大埤寮","LANE":" ","ALLEY":" ","HOUSE_NO":"２號之２０","E_COORD97":173645.20000000001,"N_COORD97":2569916.3999999999,"ADDRESS":"大埤寮２號之２０","OBJECTID":51438},"geometry":{"x":173645.20000000205,"y":2569916.4000000004}},{"attributes":{"ID":51439,"DIS_CODE":0,"TOWNNAME":"新市區","LI":"社內里","LIN":"1鄰","STREET":" ","SECT":" ","MAREA":"社內","LANE":" ","ALLEY":" ","HOUSE_NO":"１４之１６號","E_COORD97":176852.79000000001,"N_COORD97":2552963.5499999998,"ADDRESS":"社內１４之１６號","OBJECTID":51439},"geometry":{"x":176852.79000000004,"y":2552963.5500000007}},{"attributes":{"ID":51440,"DIS_CODE":0,"TOWNNAME":"新市區","LI":"社內里","LIN":"1鄰","STREET":" ","SECT":" ","MAREA":"社內","LANE":" ","ALLEY":" ","HOUSE_NO":"１４之１０號","E_COORD97":176831.79000000001,"N_COORD97":2552924.5499999998,"ADDRESS":"社內１４之１０號","OBJECTID":51440},"geometry":{"x":176831.79000000097,"y":2552924.5500000045}},{"attributes":{"ID":51441,"DIS_CODE":0,"TOWNNAME":"新市區","LI":"社內里","LIN":"1鄰","STREET":" ","SECT":" ","MAREA":"社內","LANE":" ","ALLEY":" ","HOUSE_NO":"２之１０號","E_COORD97":176953.70000000001,"N_COORD97":2553022.5499999998,"ADDRESS":"社內２之１０號","OBJECTID":51441},"geometry":{"x":176953.70000000019,"y":2553022.5499999989}},{"attributes":{"ID":51442,"DIS_CODE":0,"TOWNNAME":"新市區","LI":"社內里","LIN":"1鄰","STREET":" ","SECT":" ","MAREA":"社內","LANE":" ","ALLEY":" ","HOUSE_NO":"９之３號","E_COORD97":176799.45000000001,"N_COORD97":2553009.0499999998,"ADDRESS":"社內９之３號","OBJECTID":51442},"geometry":{"x":176799.45000000019,"y":2553009.0499999989}},{"attributes":{"ID":51443,"DIS_CODE":0,"TOWNNAME":"新市區","LI":"社內里","LIN":"1鄰","STREET":" ","SECT":" ","MAREA":"社內","LANE":" ","ALLEY":" ","HOUSE_NO":"８之１號","E_COORD97":176829.23000000001,"N_COORD97":2553035.2999999998,"ADDRESS":"社內８之１號","OBJECTID":51443},"geometry":{"x":176829.23000000138,"y":2553035.3000000026}},{"attributes":{"ID":51444,"DIS_CODE":0,"TOWNNAME":"新市區","LI":"社內里","LIN":"1鄰","STREET":" ","SECT":" ","MAREA":"社內","LANE":" ","ALLEY":" ","HOUSE_NO":"２之６號","E_COORD97":177035.09,"N_COORD97":2553027.2999999998,"ADDRESS":"社內２之６號","OBJECTID":51444},"geometry":{"x":177035.09000000078,"y":2553027.3000000007}},{"attributes":{"ID":51445,"DIS_CODE":0,"TOWNNAME":"新市區","LI":"大社里","LIN":"1鄰","STREET":" ","SECT":" ","MAREA":"大社","LANE":" ","ALLEY":" ","HOUSE_NO":"２７之２號","E_COORD97":180278.64999999999,"N_COORD97":2553800.7999999998,"ADDRESS":"大社２７之２號","OBJECTID":51445},"geometry":{"x":180278.65000000037,"y":2553800.8000000045}},{"attributes":{"ID":51446,"DIS_CODE":0,"TOWNNAME":"新市區","LI":"大社里","LIN":"1鄰","STREET":" ","SECT":" ","MAREA":"大社","LANE":" ","ALLEY":" ","HOUSE_NO":"８號","E_COORD97":180306.04000000001,"N_COORD97":2553673.25,"ADDRESS":"大社８號","OBJECTID":51446},"geometry":{"x":180306.04000000004,"y":2553673.2500000019}},{"attributes":{"ID":51447,"DIS_CODE":0,"TOWNNAME":"新市區","LI":"大營里","LIN":"1鄰","STREET":" ","SECT":" ","MAREA":"大營","LANE":" ","ALLEY":" ","HOUSE_NO":"１９之６號","E_COORD97":179744.29000000001,"N_COORD97":2555695.2999999998,"ADDRESS":"大營１９之６號","OBJECTID":51447},"geometry":{"x":179744.29000000097,"y":2555695.3000000007}},{"attributes":{"ID":51448,"DIS_CODE":0,"TOWNNAME":"新市區","LI":"永就里","LIN":"1鄰","STREET":" ","SECT":" ","MAREA":"永就","LANE":" ","ALLEY":" ","HOUSE_NO":"１１號","E_COORD97":178378.53,"N_COORD97":2551310.5,"ADDRESS":"永就１１號","OBJECTID":51448},"geometry":{"x":178378.53000000119,"y":2551310.5000000019}},{"attributes":{"ID":51449,"DIS_CODE":0,"TOWNNAME":"仁德區","LI":"一甲里","LIN":"17鄰","STREET":"正義三街","SECT":" ","MAREA":" ","LANE":" ","ALLEY":" ","HOUSE_NO":"２９１號","E_COORD97":174175.04999999999,"N_COORD97":2541464.52,"ADDRESS":"正義三街２９１號","OBJECTID":51449},"geometry":{"x":174175.05000000075,"y":2541464.5200000014}},{"attributes":{"ID":51450,"DIS_CODE":0,"TOWNNAME":"新市區","LI":"永就里","LIN":"1鄰","STREET":" ","SECT":" ","MAREA":"永就","LANE":" ","ALLEY":" ","HOUSE_NO":"７之１１號","E_COORD97":178467.29000000001,"N_COORD97":2551278.0499999998,"ADDRESS":"永就７之１１號","OBJECTID":51450},"geometry":{"x":178467.2900000019,"y":2551278.0500000026}},{"attributes":{"ID":51451,"DIS_CODE":0,"TOWNNAME":"新市區","LI":"永就里","LIN":"1鄰","STREET":" ","SECT":" ","MAREA":"永就","LANE":" ","ALLEY":" ","HOUSE_NO":"６之３號","E_COORD97":178533.34,"N_COORD97":2551176.5499999998,"ADDRESS":"永就６之３號","OBJECTID":51451},"geometry":{"x":178533.34000000078,"y":2551176.5500000026}},{"attributes":{"ID":51452,"DIS_CODE":0,"TOWNNAME":"新市區","LI":"永就里","LIN":"1鄰","STREET":" ","SECT":" ","MAREA":"永就","LANE":" ","ALLEY":" ","HOUSE_NO":"１５之１７號","E_COORD97":178160.42000000001,"N_COORD97":2551265.2999999998,"ADDRESS":"永就１５之１７號","OBJECTID":51452},"geometry":{"x":178160.41999999993,"y":2551265.3000000026}},{"attributes":{"ID":51453,"DIS_CODE":0,"TOWNNAME":"新市區","LI":"社內里","LIN":"1鄰","STREET":" ","SECT":" ","MAREA":"社內","LANE":" ","ALLEY":" ","HOUSE_NO":"８之７號","E_COORD97":176804.20000000001,"N_COORD97":2553038.5499999998,"ADDRESS":"社內８之７號","OBJECTID":51453},"geometry":{"x":176804.20000000112,"y":2553038.5500000007}},{"attributes":{"ID":51454,"DIS_CODE":0,"TOWNNAME":"新市區","LI":"社內里","LIN":"1鄰","STREET":" ","SECT":" ","MAREA":"社內","LANE":" ","ALLEY":" ","HOUSE_NO":"２之９號","E_COORD97":176956.70000000001,"N_COORD97":2553022.7999999998,"ADDRESS":"社內２之９號","OBJECTID":51454},"geometry":{"x":176956.70000000112,"y":2553022.8000000007}},{"attributes":{"ID":51455,"DIS_CODE":0,"TOWNNAME":"新市區","LI":"永就里","LIN":"1鄰","STREET":" ","SECT":" ","MAREA":"永就","LANE":" ","ALLEY":" ","HOUSE_NO":"７之８號","E_COORD97":178487.42000000001,"N_COORD97":2551274.7999999998,"ADDRESS":"永就７之８號","OBJECTID":51455},"geometry":{"x":178487.42000000086,"y":2551274.7999999989}},{"attributes":{"ID":51456,"DIS_CODE":0,"TOWNNAME":"仁德區","LI":"一甲里","LIN":"17鄰","STREET":"中清路","SECT":" ","MAREA":" ","LANE":" ","ALLEY":" ","HOUSE_NO":"２８２號","E_COORD97":173757.88,"N_COORD97":2541815.79,"ADDRESS":"中清路２８２號","OBJECTID":51456},"geometry":{"x":173757.88000000082,"y":2541815.790000001}},{"attributes":{"ID":51457,"DIS_CODE":0,"TOWNNAME":"仁德區","LI":"一甲里","LIN":"17鄰","STREET":"中清路","SECT":" ","MAREA":" ","LANE":" ","ALLEY":" ","HOUSE_NO":"２２６號","E_COORD97":173753.23000000001,"N_COORD97":2541680.0499999998,"ADDRESS":"中清路２２６號","OBJECTID":51457},"geometry":{"x":173753.23000000045,"y":2541680.0500000026}},{"attributes":{"ID":51458,"DIS_CODE":0,"TOWNNAME":"仁德區","LI":"一甲里","LIN":"17鄰","STREET":"正義三街","SECT":" ","MAREA":" ","LANE":" ","ALLEY":" ","HOUSE_NO":"３０３號","E_COORD97":174203.85999999999,"N_COORD97":2541472.27,"ADDRESS":"正義三街３０３號","OBJECTID":51458},"geometry":{"x":174203.86000000127,"y":2541472.2700000033}},{"attributes":{"ID":51459,"DIS_CODE":0,"TOWNNAME":"仁德區","LI":"一甲里","LIN":"17鄰","STREET":"正義三街","SECT":" ","MAREA":" ","LANE":" ","ALLEY":" ","HOUSE_NO":"２９９號","E_COORD97":174194.31,"N_COORD97":2541471.27,"ADDRESS":"正義三街２９９號","OBJECTID":51459},"geometry":{"x":174194.30999999959,"y":2541471.2699999996}},{"attributes":{"ID":51460,"DIS_CODE":0,"TOWNNAME":"新市區","LI":"社內里","LIN":"1鄰","STREET":" ","SECT":" ","MAREA":"社內","LANE":" ","ALLEY":" ","HOUSE_NO":"９之６號","E_COORD97":176814.54000000001,"N_COORD97":2553012.7999999998,"ADDRESS":"社內９之６號","OBJECTID":51460},"geometry":{"x":176814.5400000019,"y":2553012.8000000007}},{"attributes":{"ID":51461,"DIS_CODE":0,"TOWNNAME":"新市區","LI":"永就里","LIN":"1鄰","STREET":" ","SECT":" ","MAREA":"永就","LANE":" ","ALLEY":" ","HOUSE_NO":"７之９號","E_COORD97":178486.31,"N_COORD97":2551271.0499999998,"ADDRESS":"永就７之９號","OBJECTID":51461},"geometry":{"x":178486.30999999959,"y":2551271.0500000026}},{"attributes":{"ID":51462,"DIS_CODE":0,"TOWNNAME":"新市區","LI":"社內里","LIN":"1鄰","STREET":" ","SECT":" ","MAREA":"社內","LANE":" ","ALLEY":" ","HOUSE_NO":"９號之２","E_COORD97":176792.41,"N_COORD97":2553011.7999999998,"ADDRESS":"社內９號之２","OBJECTID":51462},"geometry":{"x":176792.41000000108,"y":2553011.8000000026}},{"attributes":{"ID":51463,"DIS_CODE":0,"TOWNNAME":"七股區","LI":"十份里","LIN":"1鄰","STREET":" ","SECT":" ","MAREA":"十份","LANE":" ","ALLEY":" ","HOUSE_NO":"１５號","E_COORD97":158229.98999999999,"N_COORD97":2555199.5299999998,"ADDRESS":"十份１５號","OBJECTID":51463},"geometry":{"x":158229.99000000022,"y":2555199.5300000012}},{"attributes":{"ID":51464,"DIS_CODE":0,"TOWNNAME":"南區","LI":"喜北里","LIN":"15鄰","STREET":"喜樹路","SECT":" ","MAREA":" ","LANE":"２２２巷","ALLEY":"５４弄","HOUSE_NO":"４號","E_COORD97":165547.5,"N_COORD97":2538109.4399999999,"ADDRESS":"喜樹路２２２巷５４弄４號","OBJECTID":51464},"geometry":{"x":165547.50000000093,"y":2538109.4400000013}},{"attributes":{"ID":51465,"DIS_CODE":0,"TOWNNAME":"南區","LI":"喜北里","LIN":"15鄰","STREET":"喜樹路","SECT":" ","MAREA":" ","LANE":"２２２巷","ALLEY":"５４弄","HOUSE_NO":"５號","E_COORD97":165563.67000000001,"N_COORD97":2538114.8900000001,"ADDRESS":"喜樹路２２２巷５４弄５號","OBJECTID":51465},"geometry":{"x":165563.66999999993,"y":2538114.8900000006}},{"attributes":{"ID":51466,"DIS_CODE":0,"TOWNNAME":"南區","LI":"喜北里","LIN":"15鄰","STREET":"喜樹路","SECT":" ","MAREA":" ","LANE":"２２２巷","ALLEY":"９２弄","HOUSE_NO":"７號","E_COORD97":165535.95999999999,"N_COORD97":2538095.5699999998,"ADDRESS":"喜樹路２２２巷９２弄７號","OBJECTID":51466},"geometry":{"x":165535.96000000089,"y":2538095.5700000022}},{"attributes":{"ID":51467,"DIS_CODE":0,"TOWNNAME":"南區","LI":"喜北里","LIN":"15鄰","STREET":"喜樹路","SECT":" ","MAREA":" ","LANE":"２２２巷","ALLEY":"９２弄","HOUSE_NO":"８號","E_COORD97":165535.32999999999,"N_COORD97":2538082.1499999999,"ADDRESS":"喜樹路２２２巷９２弄８號","OBJECTID":51467},"geometry":{"x":165535.33000000007,"y":2538082.1500000004}},{"attributes":{"ID":51468,"DIS_CODE":0,"TOWNNAME":"南區","LI":"喜北里","LIN":"15鄰","STREET":"喜樹路","SECT":" ","MAREA":" ","LANE":"２２２巷","ALLEY":"９２弄","HOUSE_NO":"９號","E_COORD97":165542.5,"N_COORD97":2538094.9399999999,"ADDRESS":"喜樹路２２２巷９２弄９號","OBJECTID":51468},"geometry":{"x":165542.50000000093,"y":2538094.9400000013}},{"attributes":{"ID":51469,"DIS_CODE":0,"TOWNNAME":"北區","LI":"成功里","LIN":"15鄰","STREET":"北成路","SECT":" ","MAREA":" ","LANE":"８０巷","ALLEY":"６０弄","HOUSE_NO":"２０號","E_COORD97":169159.5,"N_COORD97":2546747.8100000001,"ADDRESS":"北成路８０巷６０弄２０號","OBJECTID":51469},"geometry":{"x":169159.50000000093,"y":2546747.8100000005}},{"attributes":{"ID":51470,"DIS_CODE":0,"TOWNNAME":"北區","LI":"成功里","LIN":"15鄰","STREET":"北成路","SECT":" ","MAREA":" ","LANE":"８０巷","ALLEY":"６０弄","HOUSE_NO":"２２號","E_COORD97":169170.64000000001,"N_COORD97":2546743.7999999998,"ADDRESS":"北成路８０巷６０弄２２號","OBJECTID":51470},"geometry":{"x":169170.63999999966,"y":2546743.8000000007}},{"attributes":{"ID":51471,"DIS_CODE":0,"TOWNNAME":"北區","LI":"成功里","LIN":"15鄰","STREET":"北成路","SECT":" ","MAREA":" ","LANE":"８０巷","ALLEY":"６０弄","HOUSE_NO":"２４號","E_COORD97":169175.28,"N_COORD97":2546741.3300000001,"ADDRESS":"北成路８０巷６０弄２４號","OBJECTID":51471},"geometry":{"x":169175.28000000119,"y":2546741.3300000038}},{"attributes":{"ID":51472,"DIS_CODE":0,"TOWNNAME":"北區","LI":"成功里","LIN":"15鄰","STREET":"北成路","SECT":" ","MAREA":" ","LANE":"８０巷","ALLEY":"６０弄","HOUSE_NO":"２６號","E_COORD97":169178.98999999999,"N_COORD97":2546740.0899999999,"ADDRESS":"北成路８０巷６０弄２６號","OBJECTID":51472},"geometry":{"x":169178.99000000115,"y":2546740.0900000017}},{"attributes":{"ID":51473,"DIS_CODE":0,"TOWNNAME":"北區","LI":"成功里","LIN":"15鄰","STREET":"北成路","SECT":" ","MAREA":" ","LANE":"８０巷","ALLEY":"６０弄","HOUSE_NO":"２８號","E_COORD97":169184.25,"N_COORD97":2546736.6899999999,"ADDRESS":"北成路８０巷６０弄２８號","OBJECTID":51473},"geometry":{"x":169184.25,"y":2546736.6899999995}},{"attributes":{"ID":51474,"DIS_CODE":0,"TOWNNAME":"北區","LI":"成功里","LIN":"15鄰","STREET":"北成路","SECT":" ","MAREA":" ","LANE":"８０巷","ALLEY":"６０弄","HOUSE_NO":"２號","E_COORD97":169109.70999999999,"N_COORD97":2546780.5600000001,"ADDRESS":"北成路８０巷６０弄２號","OBJECTID":51474},"geometry":{"x":169109.70999999996,"y":2546780.5599999987}},{"attributes":{"ID":51475,"DIS_CODE":0,"TOWNNAME":"安南區","LI":"淵東里","LIN":"17鄰","STREET":"仁安路","SECT":" ","MAREA":" ","LANE":" ","ALLEY":" ","HOUSE_NO":"２０８號","E_COORD97":165843.53034299999,"N_COORD97":2550197.4899400002,"ADDRESS":"仁安路２０８號","OBJECTID":51475},"geometry":{"x":165843.53034300078,"y":2550197.4899410009}},{"attributes":{"ID":51476,"DIS_CODE":0,"TOWNNAME":"安南區","LI":"淵東里","LIN":"17鄰","STREET":"仁安路","SECT":" ","MAREA":" ","LANE":" ","ALLEY":" ","HOUSE_NO":"２１０號","E_COORD97":165847.76500399999,"N_COORD97":2550198.5482700001,"ADDRESS":"仁安路２１０號","OBJECTID":51476},"geometry":{"x":165847.76500400063,"y":2550198.5482739992}},{"attributes":{"ID":51477,"DIS_CODE":0,"TOWNNAME":"安南區","LI":"淵東里","LIN":"17鄰","STREET":"仁安路","SECT":" ","MAREA":" ","LANE":" ","ALLEY":" ","HOUSE_NO":"２１２號","E_COORD97":165853.48179600001,"N_COORD97":2550201.0882700002,"ADDRESS":"仁安路２１２號","OBJECTID":51477},"geometry":{"x":165853.48179600202,"y":2550201.0882719997}},{"attributes":{"ID":51478,"DIS_CODE":0,"TOWNNAME":"七股區","LI":"十份里","LIN":"1鄰","STREET":" ","SECT":" ","MAREA":"十份","LANE":" ","ALLEY":" ","HOUSE_NO":"１號之１","E_COORD97":158688.91,"N_COORD97":2555507.9300000002,"ADDRESS":"十份１號之１","OBJECTID":51478},"geometry":{"x":158688.91000000201,"y":2555507.9300000016}},{"attributes":{"ID":51479,"DIS_CODE":0,"TOWNNAME":"七股區","LI":"十份里","LIN":"1鄰","STREET":" ","SECT":" ","MAREA":"十份","LANE":" ","ALLEY":" ","HOUSE_NO":"１號之２","E_COORD97":158654.03,"N_COORD97":2555512.9500000002,"ADDRESS":"十份１號之２","OBJECTID":51479},"geometry":{"x":158654.03000000026,"y":2555512.9499999993}},{"attributes":{"ID":51480,"DIS_CODE":0,"TOWNNAME":"七股區","LI":"十份里","LIN":"1鄰","STREET":" ","SECT":" ","MAREA":"十份","LANE":" ","ALLEY":" ","HOUSE_NO":"１號之３","E_COORD97":158607.42999999999,"N_COORD97":2555516.5600000001,"ADDRESS":"十份１號之３","OBJECTID":51480},"geometry":{"x":158607.43000000063,"y":2555516.5600000005}},{"attributes":{"ID":51481,"DIS_CODE":0,"TOWNNAME":"七股區","LI":"十份里","LIN":"1鄰","STREET":" ","SECT":" ","MAREA":"十份","LANE":" ","ALLEY":" ","HOUSE_NO":"１號之７","E_COORD97":159048.29999999999,"N_COORD97":2555458.8700000001,"ADDRESS":"十份１號之７","OBJECTID":51481},"geometry":{"x":159048.29999999981,"y":2555458.8700000029}},{"attributes":{"ID":51482,"DIS_CODE":0,"TOWNNAME":"七股區","LI":"十份里","LIN":"1鄰","STREET":" ","SECT":" ","MAREA":"十份","LANE":" ","ALLEY":" ","HOUSE_NO":"７號之１","E_COORD97":158371.42000000001,"N_COORD97":2555357.4900000002,"ADDRESS":"十份７號之１","OBJECTID":51482},"geometry":{"x":158371.41999999899,"y":2555357.4900000002}},{"attributes":{"ID":51483,"DIS_CODE":0,"TOWNNAME":"七股區","LI":"十份里","LIN":"1鄰","STREET":" ","SECT":" ","MAREA":"十份","LANE":" ","ALLEY":" ","HOUSE_NO":"７號之２","E_COORD97":158372.35000000001,"N_COORD97":2555373.3599999999,"ADDRESS":"十份７號之２","OBJECTID":51483},"geometry":{"x":158372.35000000056,"y":2555373.3600000013}},{"attributes":{"ID":51484,"DIS_CODE":0,"TOWNNAME":"七股區","LI":"三股里","LIN":"1鄰","STREET":" ","SECT":" ","MAREA":"三股","LANE":" ","ALLEY":" ","HOUSE_NO":"１１號之１","E_COORD97":159801.56,"N_COORD97":2555519.1000000001,"ADDRESS":"三股１１號之１","OBJECTID":51484},"geometry":{"x":159801.56000000052,"y":2555519.0999999996}},{"attributes":{"ID":51485,"DIS_CODE":0,"TOWNNAME":"七股區","LI":"三股里","LIN":"1鄰","STREET":" ","SECT":" ","MAREA":"三股","LANE":" ","ALLEY":" ","HOUSE_NO":"１１號","E_COORD97":159790.62,"N_COORD97":2555521.2799999998,"ADDRESS":"三股１１號","OBJECTID":51485},"geometry":{"x":159790.62000000011,"y":2555521.2799999993}},{"attributes":{"ID":51486,"DIS_CODE":0,"TOWNNAME":"七股區","LI":"三股里","LIN":"1鄰","STREET":" ","SECT":" ","MAREA":"三股","LANE":" ","ALLEY":" ","HOUSE_NO":"１２號","E_COORD97":159768.75,"N_COORD97":2555523.7000000002,"ADDRESS":"三股１２號","OBJECTID":51486},"geometry":{"x":159768.75,"y":2555523.7000000011}},{"attributes":{"ID":51487,"DIS_CODE":0,"TOWNNAME":"七股區","LI":"大寮里","LIN":"1鄰","STREET":" ","SECT":" ","MAREA":"大寮","LANE":" ","ALLEY":" ","HOUSE_NO":"１８號","E_COORD97":163007.39000000001,"N_COORD97":2561033.0499999998,"ADDRESS":"大寮１８號之１","OBJECTID":51487},"geometry":{"x":163007.38999999966,"y":2561033.0500000007}},{"attributes":{"ID":51488,"DIS_CODE":0,"TOWNNAME":"七股區","LI":"大寮里","LIN":"1鄰","STREET":" ","SECT":" ","MAREA":"大寮","LANE":" ","ALLEY":" ","HOUSE_NO":"２號","E_COORD97":162910.95000000001,"N_COORD97":2560946.5299999998,"ADDRESS":"大寮２號","OBJECTID":51488},"geometry":{"x":162910.95000000019,"y":2560946.5299999993}},{"attributes":{"ID":51489,"DIS_CODE":0,"TOWNNAME":"七股區","LI":"三股里","LIN":"1鄰","STREET":" ","SECT":" ","MAREA":"三股","LANE":" ","ALLEY":" ","HOUSE_NO":"２號之１","E_COORD97":159884.92000000001,"N_COORD97":2555617.3100000001,"ADDRESS":"三股２號之１","OBJECTID":51489},"geometry":{"x":159884.91999999993,"y":2555617.3100000005}},{"attributes":{"ID":51490,"DIS_CODE":0,"TOWNNAME":"七股區","LI":"三股里","LIN":"1鄰","STREET":" ","SECT":" ","MAREA":"三股","LANE":" ","ALLEY":" ","HOUSE_NO":"２號","E_COORD97":159885,"N_COORD97":2555623.3900000001,"ADDRESS":"三股２號","OBJECTID":51490},"geometry":{"x":159885.00000000093,"y":2555623.3900000006}},{"attributes":{"ID":51491,"DIS_CODE":0,"TOWNNAME":"安南區","LI":"淵東里","LIN":"17鄰","STREET":"仁安路","SECT":" ","MAREA":" ","LANE":" ","ALLEY":" ","HOUSE_NO":"２１４號","E_COORD97":165859.410321,"N_COORD97":2550202.99327,"ADDRESS":"仁安路２１４號","OBJECTID":51491},"geometry":{"x":165859.41032100003,"y":2550202.9932710025}},{"attributes":{"ID":51492,"DIS_CODE":0,"TOWNNAME":"七股區","LI":"三股里","LIN":"1鄰","STREET":" ","SECT":" ","MAREA":"三股","LANE":" ","ALLEY":" ","HOUSE_NO":"３號之１","E_COORD97":159897.64999999999,"N_COORD97":2555563.1400000001,"ADDRESS":"三股３號之１","OBJECTID":51492},"geometry":{"x":159897.64999999944,"y":2555563.1400000006}},{"attributes":{"ID":51493,"DIS_CODE":0,"TOWNNAME":"七股區","LI":"三股里","LIN":"1鄰","STREET":" ","SECT":" ","MAREA":"三股","LANE":" ","ALLEY":" ","HOUSE_NO":"３號之２","E_COORD97":159911.48999999999,"N_COORD97":2555563.4300000002,"ADDRESS":"三股３號之２","OBJECTID":51493},"geometry":{"x":159911.49000000022,"y":2555563.4300000016}},{"attributes":{"ID":51494,"DIS_CODE":0,"TOWNNAME":"七股區","LI":"三股里","LIN":"1鄰","STREET":" ","SECT":" ","MAREA":"三股","LANE":" ","ALLEY":" ","HOUSE_NO":"３號之６","E_COORD97":159894.82000000001,"N_COORD97":2555525.3500000001,"ADDRESS":"三股３號之６","OBJECTID":51494},"geometry":{"x":159894.82000000216,"y":2555525.3500000015}},{"attributes":{"ID":51495,"DIS_CODE":0,"TOWNNAME":"七股區","LI":"三股里","LIN":"1鄰","STREET":" ","SECT":" ","MAREA":"三股","LANE":" ","ALLEY":" ","HOUSE_NO":"３號","E_COORD97":159892.01000000001,"N_COORD97":2555596.7400000002,"ADDRESS":"三股３號","OBJECTID":51495},"geometry":{"x":159892.01000000071,"y":2555596.7400000002}},{"attributes":{"ID":51496,"DIS_CODE":0,"TOWNNAME":"七股區","LI":"三股里","LIN":"1鄰","STREET":" ","SECT":" ","MAREA":"三股","LANE":" ","ALLEY":" ","HOUSE_NO":"４號之１５","E_COORD97":159897.59,"N_COORD97":2555435.04,"ADDRESS":"三股４號之１５","OBJECTID":51496},"geometry":{"x":159897.59000000171,"y":2555435.0400000028}},{"attributes":{"ID":51497,"DIS_CODE":0,"TOWNNAME":"七股區","LI":"三股里","LIN":"1鄰","STREET":" ","SECT":" ","MAREA":"三股","LANE":" ","ALLEY":" ","HOUSE_NO":"４號之２","E_COORD97":159896.70000000001,"N_COORD97":2555488.2200000002,"ADDRESS":"三股４號之２","OBJECTID":51497},"geometry":{"x":159896.70000000019,"y":2555488.2200000007}},{"attributes":{"ID":51498,"DIS_CODE":0,"TOWNNAME":"七股區","LI":"三股里","LIN":"1鄰","STREET":" ","SECT":" ","MAREA":"三股","LANE":" ","ALLEY":" ","HOUSE_NO":"４號之３","E_COORD97":159939.88,"N_COORD97":2555486.8599999999,"ADDRESS":"三股４號之３","OBJECTID":51498},"geometry":{"x":159939.88000000175,"y":2555486.8599999994}},{"attributes":{"ID":51499,"DIS_CODE":0,"TOWNNAME":"七股區","LI":"三股里","LIN":"1鄰","STREET":" ","SECT":" ","MAREA":"三股","LANE":" ","ALLEY":" ","HOUSE_NO":"６號","E_COORD97":159847.01999999999,"N_COORD97":2555528.96,"ADDRESS":"三股６號","OBJECTID":51499},"geometry":{"x":159847.02000000142,"y":2555528.9600000046}},{"attributes":{"ID":51500,"DIS_CODE":0,"TOWNNAME":"七股區","LI":"三股里","LIN":"1鄰","STREET":" ","SECT":" ","MAREA":"三股","LANE":" ","ALLEY":" ","HOUSE_NO":"７號","E_COORD97":159830.89000000001,"N_COORD97":2555524.9900000002,"ADDRESS":"三股７號","OBJECTID":51500},"geometry":{"x":159830.88999999873,"y":2555524.9900000021}},{"attributes":{"ID":51501,"DIS_CODE":0,"TOWNNAME":"七股區","LI":"三股里","LIN":"1鄰","STREET":" ","SECT":" ","MAREA":"三股","LANE":" ","ALLEY":" ","HOUSE_NO":"８號","E_COORD97":159814.88,"N_COORD97":2555521.5800000001,"ADDRESS":"三股８號","OBJECTID":51501},"geometry":{"x":159814.88000000082,"y":2555521.5800000019}},{"attributes":{"ID":51502,"DIS_CODE":0,"TOWNNAME":"七股區","LI":"三股里","LIN":"1鄰","STREET":" ","SECT":" ","MAREA":"三股","LANE":" ","ALLEY":" ","HOUSE_NO":"９號之１","E_COORD97":159801.51999999999,"N_COORD97":2555475.9700000002,"ADDRESS":"三股９號之１","OBJECTID":51502},"geometry":{"x":159801.52000000048,"y":2555475.9700000025}},{"attributes":{"ID":51503,"DIS_CODE":0,"TOWNNAME":"七股區","LI":"三股里","LIN":"1鄰","STREET":" ","SECT":" ","MAREA":"三股","LANE":" ","ALLEY":" ","HOUSE_NO":"９號之２","E_COORD97":159779.12,"N_COORD97":2555473.3900000001,"ADDRESS":"三股９號之２","OBJECTID":51503},"geometry":{"x":159779.12000000197,"y":2555473.3900000006}},{"attributes":{"ID":51504,"DIS_CODE":0,"TOWNNAME":"七股區","LI":"三股里","LIN":"1鄰","STREET":" ","SECT":" ","MAREA":"三股","LANE":" ","ALLEY":" ","HOUSE_NO":"９號之３","E_COORD97":159837.17000000001,"N_COORD97":2555474.1800000002,"ADDRESS":"三股９號之３","OBJECTID":51504},"geometry":{"x":159837.16999999993,"y":2555474.1799999997}},{"attributes":{"ID":51505,"DIS_CODE":0,"TOWNNAME":"七股區","LI":"三股里","LIN":"1鄰","STREET":" ","SECT":" ","MAREA":"三股","LANE":" ","ALLEY":" ","HOUSE_NO":"９號之４","E_COORD97":159780.22,"N_COORD97":2555425.8999999999,"ADDRESS":"三股９號之４","OBJECTID":51505},"geometry":{"x":159780.22000000067,"y":2555425.9000000004}},{"attributes":{"ID":51506,"DIS_CODE":0,"TOWNNAME":"北區","LI":"成功里","LIN":"15鄰","STREET":"北成路","SECT":" ","MAREA":" ","LANE":"８０巷","ALLEY":"６０弄","HOUSE_NO":"３０號","E_COORD97":169188.88,"N_COORD97":2546735.1499999999,"ADDRESS":"北成路８０巷６０弄３０號","OBJECTID":51506},"geometry":{"x":169188.88000000082,"y":2546735.1500000004}},{"attributes":{"ID":51507,"DIS_CODE":0,"TOWNNAME":"北區","LI":"成功里","LIN":"15鄰","STREET":"北成路","SECT":" ","MAREA":" ","LANE":"８０巷","ALLEY":"６０弄","HOUSE_NO":"３２號","E_COORD97":169192.91,"N_COORD97":2546731.75,"ADDRESS":"北成路８０巷６０弄３２號","OBJECTID":51507},"geometry":{"x":169192.91000000108,"y":2546731.7500000019}},{"attributes":{"ID":51508,"DIS_CODE":0,"TOWNNAME":"北區","LI":"成功里","LIN":"15鄰","STREET":"北成路","SECT":" ","MAREA":" ","LANE":"８０巷","ALLEY":"６０弄","HOUSE_NO":"３４號","E_COORD97":169179.29999999999,"N_COORD97":2546717.8500000001,"ADDRESS":"北成路８０巷６０弄３４號","OBJECTID":51508},"geometry":{"x":169179.30000000075,"y":2546717.8500000015}},{"attributes":{"ID":51509,"DIS_CODE":0,"TOWNNAME":"北區","LI":"成功里","LIN":"15鄰","STREET":"北成路","SECT":" ","MAREA":" ","LANE":"８０巷","ALLEY":"６０弄","HOUSE_NO":"３６號","E_COORD97":169174.35000000001,"N_COORD97":2546719.3900000001,"ADDRESS":"北成路８０巷６０弄３６號","OBJECTID":51509},"geometry":{"x":169174.34999999963,"y":2546719.3900000006}},{"attributes":{"ID":51510,"DIS_CODE":0,"TOWNNAME":"北區","LI":"成功里","LIN":"15鄰","STREET":"北成路","SECT":" ","MAREA":" ","LANE":"８０巷","ALLEY":"６０弄","HOUSE_NO":"３８號","E_COORD97":169170.64000000001,"N_COORD97":2546722.48,"ADDRESS":"北成路８０巷６０弄３８號","OBJECTID":51510},"geometry":{"x":169170.63999999966,"y":2546722.4800000004}},{"attributes":{"ID":51511,"DIS_CODE":0,"TOWNNAME":"北區","LI":"成功里","LIN":"15鄰","STREET":"北成路","SECT":" ","MAREA":" ","LANE":"８０巷","ALLEY":"６０弄","HOUSE_NO":"４０號","E_COORD97":169166.31,"N_COORD97":2546725.2599999998,"ADDRESS":"北成路８０巷６０弄４０號","OBJECTID":51511},"geometry":{"x":169166.30999999959,"y":2546725.2600000016}},{"attributes":{"ID":51512,"DIS_CODE":0,"TOWNNAME":"歸仁區","LI":"媽廟里","LIN":"6鄰","STREET":"中正北路","SECT":"三段","MAREA":" ","LANE":"２０５巷","ALLEY":"１１弄","HOUSE_NO":"１５號","E_COORD97":177567.728905,"N_COORD97":2543836.1179300002,"ADDRESS":"中正北路三段２０５巷１１弄１５號","OBJECTID":51512},"geometry":{"x":177567.72890499979,"y":2543836.1179260015}},{"attributes":{"ID":51513,"DIS_CODE":0,"TOWNNAME":"北區","LI":"成功里","LIN":"15鄰","STREET":"北成路","SECT":" ","MAREA":" ","LANE":"８０巷","ALLEY":"６０弄","HOUSE_NO":"４２號","E_COORD97":169161.98000000001,"N_COORD97":2546727.73,"ADDRESS":"北成路８０巷６０弄４２號","OBJECTID":51513},"geometry":{"x":169161.98000000138,"y":2546727.7300000004}},{"attributes":{"ID":51514,"DIS_CODE":0,"TOWNNAME":"北區","LI":"成功里","LIN":"15鄰","STREET":"北成路","SECT":" ","MAREA":" ","LANE":"８０巷","ALLEY":"６０弄","HOUSE_NO":"４２號之１","E_COORD97":169157.03,"N_COORD97":2546729.8999999999,"ADDRESS":"北成路８０巷６０弄４２號之１","OBJECTID":51514},"geometry":{"x":169157.03000000026,"y":2546729.9000000004}},{"attributes":{"ID":51515,"DIS_CODE":0,"TOWNNAME":"南區","LI":"喜北里","LIN":"15鄰","STREET":"喜樹路","SECT":" ","MAREA":" ","LANE":"２２２巷","ALLEY":"９２弄","HOUSE_NO":"１０號","E_COORD97":165541.56,"N_COORD97":2538082.3799999999,"ADDRESS":"喜樹路２２２巷９２弄１０號","OBJECTID":51515},"geometry":{"x":165541.56000000052,"y":2538082.379999999}},{"attributes":{"ID":51516,"DIS_CODE":0,"TOWNNAME":"南區","LI":"喜北里","LIN":"15鄰","STREET":"喜樹路","SECT":" ","MAREA":" ","LANE":"２２２巷","ALLEY":"９２弄","HOUSE_NO":"１２號","E_COORD97":165550.62,"N_COORD97":2538081.6000000001,"ADDRESS":"喜樹路２２２巷９２弄１２號","OBJECTID":51516},"geometry":{"x":165550.62000000011,"y":2538081.5999999996}},{"attributes":{"ID":51517,"DIS_CODE":0,"TOWNNAME":"南區","LI":"喜北里","LIN":"15鄰","STREET":"喜樹路","SECT":" ","MAREA":" ","LANE":"２２２巷","ALLEY":"９２弄","HOUSE_NO":"１４號","E_COORD97":165553.47,"N_COORD97":2538064.73,"ADDRESS":"喜樹路２２２巷９２弄１４號","OBJECTID":51517},"geometry":{"x":165553.4700000016,"y":2538064.7300000004}},{"attributes":{"ID":51518,"DIS_CODE":0,"TOWNNAME":"永康區","LI":"埔園里","LIN":"15鄰","STREET":"中山路","SECT":" ","MAREA":" ","LANE":"３８３巷","ALLEY":"１弄","HOUSE_NO":"３２號","E_COORD97":173527.98000000001,"N_COORD97":2548467.7200000002,"ADDRESS":"中山路３８３巷１弄３２號","OBJECTID":51518},"geometry":{"x":173527.98000000045,"y":2548467.7200000007}},{"attributes":{"ID":51519,"DIS_CODE":0,"TOWNNAME":"北區","LI":"成功里","LIN":"15鄰","STREET":"北成路","SECT":" ","MAREA":" ","LANE":"８０巷","ALLEY":"６０弄","HOUSE_NO":"５８號","E_COORD97":169118.98999999999,"N_COORD97":2546754.2999999998,"ADDRESS":"北成路８０巷６０弄５８號","OBJECTID":51519},"geometry":{"x":169118.99000000115,"y":2546754.3000000007}},{"attributes":{"ID":51520,"DIS_CODE":0,"TOWNNAME":"北區","LI":"成功里","LIN":"15鄰","STREET":"北成路","SECT":" ","MAREA":" ","LANE":"８０巷","ALLEY":"６０弄","HOUSE_NO":"６０號","E_COORD97":169112.48999999999,"N_COORD97":2546757.0800000001,"ADDRESS":"北成路８０巷６０弄６０號","OBJECTID":51520},"geometry":{"x":169112.49000000115,"y":2546757.0800000019}},{"attributes":{"ID":51521,"DIS_CODE":0,"TOWNNAME":"北區","LI":"成功里","LIN":"15鄰","STREET":"北成路","SECT":" ","MAREA":" ","LANE":"８０巷","ALLEY":"６０弄","HOUSE_NO":"６２號","E_COORD97":169106.31,"N_COORD97":2546760.1699999999,"ADDRESS":"北成路８０巷６０弄６２號","OBJECTID":51521},"geometry":{"x":169106.31000000052,"y":2546760.1700000018}},{"attributes":{"ID":51522,"DIS_CODE":0,"TOWNNAME":"北區","LI":"成功里","LIN":"15鄰","STREET":"北成路","SECT":" ","MAREA":" ","LANE":"８０巷","ALLEY":"６０弄","HOUSE_NO":"６４號","E_COORD97":169100.42999999999,"N_COORD97":2546763.2599999998,"ADDRESS":"北成路８０巷６０弄６４號","OBJECTID":51522},"geometry":{"x":169100.43000000063,"y":2546763.2600000016}},{"attributes":{"ID":51523,"DIS_CODE":0,"TOWNNAME":"北區","LI":"成功里","LIN":"15鄰","STREET":"北成路","SECT":" ","MAREA":" ","LANE":"８０巷","ALLEY":"６０弄","HOUSE_NO":"６號","E_COORD97":169120.84,"N_COORD97":2546772.8300000001,"ADDRESS":"北成路８０巷６０弄６號","OBJECTID":51523},"geometry":{"x":169120.83999999985,"y":2546772.8300000019}},{"attributes":{"ID":51524,"DIS_CODE":0,"TOWNNAME":"北區","LI":"成功里","LIN":"15鄰","STREET":"北成路","SECT":" ","MAREA":" ","LANE":"８０巷","ALLEY":"６０弄","HOUSE_NO":"８號","E_COORD97":169126.41,"N_COORD97":2546770.0499999998,"ADDRESS":"北成路８０巷６０弄８號","OBJECTID":51524},"geometry":{"x":169126.41000000108,"y":2546770.0500000007}},{"attributes":{"ID":51525,"DIS_CODE":0,"TOWNNAME":"七股區","LI":"三股里","LIN":"1鄰","STREET":" ","SECT":" ","MAREA":"三股","LANE":" ","ALLEY":" ","HOUSE_NO":"９號之５","E_COORD97":159781.94,"N_COORD97":2555384.8399999999,"ADDRESS":"三股９號之５","OBJECTID":51525},"geometry":{"x":159781.94000000041,"y":2555384.8399999999}},{"attributes":{"ID":51526,"DIS_CODE":0,"TOWNNAME":"七股區","LI":"三股里","LIN":"1鄰","STREET":" ","SECT":" ","MAREA":"三股","LANE":" ","ALLEY":" ","HOUSE_NO":"９號之６","E_COORD97":159778.07999999999,"N_COORD97":2555360.6299999999,"ADDRESS":"三股９號之６","OBJECTID":51526},"geometry":{"x":159778.08000000101,"y":2555360.6300000008}},{"attributes":{"ID":51527,"DIS_CODE":0,"TOWNNAME":"七股區","LI":"三股里","LIN":"1鄰","STREET":" ","SECT":" ","MAREA":"三股","LANE":" ","ALLEY":" ","HOUSE_NO":"９號之７","E_COORD97":159781.04000000001,"N_COORD97":2555325.1200000001,"ADDRESS":"三股９號之７","OBJECTID":51527},"geometry":{"x":159781.04000000004,"y":2555325.1200000029}},{"attributes":{"ID":51528,"DIS_CODE":0,"TOWNNAME":"七股區","LI":"三股里","LIN":"1鄰","STREET":" ","SECT":" ","MAREA":"三股","LANE":" ","ALLEY":" ","HOUSE_NO":"９號之８","E_COORD97":159775.79000000001,"N_COORD97":2555325.5099999998,"ADDRESS":"三股９號之８","OBJECTID":51528},"geometry":{"x":159775.79000000004,"y":2555325.5100000016}},{"attributes":{"ID":51529,"DIS_CODE":0,"TOWNNAME":"七股區","LI":"三股里","LIN":"1鄰","STREET":" ","SECT":" ","MAREA":"三股","LANE":" ","ALLEY":" ","HOUSE_NO":"９號","E_COORD97":159823.29000000001,"N_COORD97":2555473.3100000001,"ADDRESS":"三股９號","OBJECTID":51529},"geometry":{"x":159823.29000000004,"y":2555473.3100000024}},{"attributes":{"ID":51530,"DIS_CODE":0,"TOWNNAME":"七股區","LI":"大寮里","LIN":"1鄰","STREET":" ","SECT":" ","MAREA":"大寮","LANE":" ","ALLEY":" ","HOUSE_NO":"５號","E_COORD97":162936.63,"N_COORD97":2560955.0099999998,"ADDRESS":"大寮５號","OBJECTID":51530},"geometry":{"x":162936.62999999989,"y":2560955.0099999998}},{"attributes":{"ID":51531,"DIS_CODE":0,"TOWNNAME":"七股區","LI":"大寮里","LIN":"1鄰","STREET":" ","SECT":" ","MAREA":"大寮","LANE":" ","ALLEY":" ","HOUSE_NO":"６號之３","E_COORD97":162912.48999999999,"N_COORD97":2560997.48,"ADDRESS":"大寮６號之３","OBJECTID":51531},"geometry":{"x":162912.49000000022,"y":2560997.4800000023}},{"attributes":{"ID":51532,"DIS_CODE":0,"TOWNNAME":"七股區","LI":"大寮里","LIN":"1鄰","STREET":" ","SECT":" ","MAREA":"大寮","LANE":" ","ALLEY":" ","HOUSE_NO":"６號之４","E_COORD97":162916.38,"N_COORD97":2560999.4300000002,"ADDRESS":"大寮６號之４","OBJECTID":51532},"geometry":{"x":162916.37999999989,"y":2560999.4299999997}},{"attributes":{"ID":51533,"DIS_CODE":0,"TOWNNAME":"七股區","LI":"大寮里","LIN":"1鄰","STREET":" ","SECT":" ","MAREA":"大寮","LANE":" ","ALLEY":" ","HOUSE_NO":"８號之１","E_COORD97":162940.70000000001,"N_COORD97":2561009.1200000001,"ADDRESS":"大寮８號之１","OBJECTID":51533},"geometry":{"x":162940.70000000112,"y":2561009.120000001}},{"attributes":{"ID":51534,"DIS_CODE":0,"TOWNNAME":"永康區","LI":"埔園里","LIN":"15鄰","STREET":"中山路","SECT":" ","MAREA":" ","LANE":"３８３巷","ALLEY":"１弄","HOUSE_NO":"３６號","E_COORD97":173528.95999999999,"N_COORD97":2548463.2200000002,"ADDRESS":"中山路３８３巷１弄３６號","OBJECTID":51534},"geometry":{"x":173528.95999999996,"y":2548463.2200000007}},{"attributes":{"ID":51535,"DIS_CODE":0,"TOWNNAME":"七股區","LI":"大寮里","LIN":"1鄰","STREET":" ","SECT":" ","MAREA":"大寮","LANE":" ","ALLEY":" ","HOUSE_NO":"８號","E_COORD97":162960.16,"N_COORD97":2560989.4399999999,"ADDRESS":"大寮８號","OBJECTID":51535},"geometry":{"x":162960.16000000015,"y":2560989.4400000032}},{"attributes":{"ID":51536,"DIS_CODE":0,"TOWNNAME":"七股區","LI":"大埕里","LIN":"1鄰","STREET":" ","SECT":" ","MAREA":"大埕","LANE":" ","ALLEY":" ","HOUSE_NO":"１２８號","E_COORD97":162793.17000000001,"N_COORD97":2561283.7599999998,"ADDRESS":"大埕１２８號","OBJECTID":51536},"geometry":{"x":162793.17000000086,"y":2561283.7600000016}},{"attributes":{"ID":51537,"DIS_CODE":0,"TOWNNAME":"七股區","LI":"大埕里","LIN":"1鄰","STREET":" ","SECT":" ","MAREA":"大埕","LANE":" ","ALLEY":" ","HOUSE_NO":"１２９號之２","E_COORD97":162770.76999999999,"N_COORD97":2561240.27,"ADDRESS":"大埕１２９號","OBJECTID":51537},"geometry":{"x":162770.76999999955,"y":2561240.2699999996}},{"attributes":{"ID":51538,"DIS_CODE":0,"TOWNNAME":"七股區","LI":"大埕里","LIN":"1鄰","STREET":" ","SECT":" ","MAREA":"大埕","LANE":" ","ALLEY":" ","HOUSE_NO":"１３０號","E_COORD97":162801.75,"N_COORD97":2561174.1800000002,"ADDRESS":"大埕１３０號","OBJECTID":51538},"geometry":{"x":162801.75,"y":2561174.1799999997}},{"attributes":{"ID":51539,"DIS_CODE":0,"TOWNNAME":"七股區","LI":"大埕里","LIN":"1鄰","STREET":" ","SECT":" ","MAREA":"大埕","LANE":" ","ALLEY":" ","HOUSE_NO":"１３２號","E_COORD97":162793.01999999999,"N_COORD97":2561064.4399999999,"ADDRESS":"大埕１３２號","OBJECTID":51539},"geometry":{"x":162793.01999999955,"y":2561064.4400000013}},{"attributes":{"ID":51540,"DIS_CODE":0,"TOWNNAME":"七股區","LI":"大埕里","LIN":"1鄰","STREET":" ","SECT":" ","MAREA":"大埕","LANE":" ","ALLEY":" ","HOUSE_NO":"１３３號","E_COORD97":162772.87,"N_COORD97":2561079.7599999998,"ADDRESS":"大埕１３３號","OBJECTID":51540},"geometry":{"x":162772.87000000197,"y":2561079.7600000016}},{"attributes":{"ID":51541,"DIS_CODE":0,"TOWNNAME":"七股區","LI":"大埕里","LIN":"1鄰","STREET":" ","SECT":" ","MAREA":"大埕","LANE":" ","ALLEY":" ","HOUSE_NO":"１３４號之１","E_COORD97":162749.91,"N_COORD97":2561079.25,"ADDRESS":"大埕１３４號之１","OBJECTID":51541},"geometry":{"x":162749.91000000015,"y":2561079.25}},{"attributes":{"ID":51542,"DIS_CODE":0,"TOWNNAME":"七股區","LI":"大埕里","LIN":"1鄰","STREET":" ","SECT":" ","MAREA":"大埕","LANE":" ","ALLEY":" ","HOUSE_NO":"１３４號之２","E_COORD97":162755.70000000001,"N_COORD97":2561076.4399999999,"ADDRESS":"大埕１３４號之２","OBJECTID":51542},"geometry":{"x":162755.70000000112,"y":2561076.4399999995}},{"attributes":{"ID":51543,"DIS_CODE":0,"TOWNNAME":"七股區","LI":"大埕里","LIN":"1鄰","STREET":" ","SECT":" ","MAREA":"大埕","LANE":" ","ALLEY":" ","HOUSE_NO":"１３４號","E_COORD97":162741.19,"N_COORD97":2561082.8900000001,"ADDRESS":"大埕１３４號","OBJECTID":51543},"geometry":{"x":162741.19000000134,"y":2561082.8900000043}},{"attributes":{"ID":51544,"DIS_CODE":0,"TOWNNAME":"七股區","LI":"大埕里","LIN":"1鄰","STREET":" ","SECT":" ","MAREA":"大埕","LANE":" ","ALLEY":" ","HOUSE_NO":"１３６號","E_COORD97":162735.35000000001,"N_COORD97":2561064.0499999998,"ADDRESS":"大埕１３６號","OBJECTID":51544},"geometry":{"x":162735.35000000056,"y":2561064.0500000007}},{"attributes":{"ID":51545,"DIS_CODE":0,"TOWNNAME":"七股區","LI":"大埕里","LIN":"1鄰","STREET":" ","SECT":" ","MAREA":"大埕","LANE":" ","ALLEY":" ","HOUSE_NO":"１３７號","E_COORD97":162765.48000000001,"N_COORD97":2561052.2400000002,"ADDRESS":"大埕１３７號","OBJECTID":51545},"geometry":{"x":162765.47999999952,"y":2561052.2400000002}},{"attributes":{"ID":51546,"DIS_CODE":0,"TOWNNAME":"七股區","LI":"大埕里","LIN":"1鄰","STREET":" ","SECT":" ","MAREA":"大埕","LANE":" ","ALLEY":" ","HOUSE_NO":"１３８號之１","E_COORD97":162778,"N_COORD97":2561029.5499999998,"ADDRESS":"大埕１３８號之１","OBJECTID":51546},"geometry":{"x":162778,"y":2561029.5500000007}},{"attributes":{"ID":51547,"DIS_CODE":0,"TOWNNAME":"七股區","LI":"大埕里","LIN":"1鄰","STREET":" ","SECT":" ","MAREA":"大埕","LANE":" ","ALLEY":" ","HOUSE_NO":"１３８號之２","E_COORD97":162777.14999999999,"N_COORD97":2561025.2999999998,"ADDRESS":"大埕１３８號之２","OBJECTID":51547},"geometry":{"x":162777.15000000037,"y":2561025.3000000007}},{"attributes":{"ID":51548,"DIS_CODE":0,"TOWNNAME":"七股區","LI":"大埕里","LIN":"1鄰","STREET":" ","SECT":" ","MAREA":"大埕","LANE":" ","ALLEY":" ","HOUSE_NO":"１３８號","E_COORD97":162802.84,"N_COORD97":2561054.0899999999,"ADDRESS":"大埕１３８號","OBJECTID":51548},"geometry":{"x":162802.83999999985,"y":2561054.0900000017}},{"attributes":{"ID":51549,"DIS_CODE":0,"TOWNNAME":"七股區","LI":"大埕里","LIN":"1鄰","STREET":" ","SECT":" ","MAREA":"大埕","LANE":" ","ALLEY":" ","HOUSE_NO":"１３９號","E_COORD97":162812.63,"N_COORD97":2561041.4500000002,"ADDRESS":"大埕１３９號","OBJECTID":51549},"geometry":{"x":162812.62999999989,"y":2561041.4500000011}},{"attributes":{"ID":51550,"DIS_CODE":0,"TOWNNAME":"七股區","LI":"大埕里","LIN":"1鄰","STREET":" ","SECT":" ","MAREA":"大埕","LANE":" ","ALLEY":" ","HOUSE_NO":"１４０號","E_COORD97":162804.19,"N_COORD97":2561021.3799999999,"ADDRESS":"大埕１４０號","OBJECTID":51550},"geometry":{"x":162804.19000000041,"y":2561021.3800000008}},{"attributes":{"ID":51551,"DIS_CODE":0,"TOWNNAME":"七股區","LI":"大埕里","LIN":"1鄰","STREET":" ","SECT":" ","MAREA":"大埕","LANE":" ","ALLEY":" ","HOUSE_NO":"１４２號","E_COORD97":162771.88,"N_COORD97":2561012.8799999999,"ADDRESS":"大埕１４２號","OBJECTID":51551},"geometry":{"x":162771.87999999989,"y":2561012.8799999971}},{"attributes":{"ID":51552,"DIS_CODE":0,"TOWNNAME":"七股區","LI":"大埕里","LIN":"1鄰","STREET":" ","SECT":" ","MAREA":"大埕","LANE":" ","ALLEY":" ","HOUSE_NO":"１４３號","E_COORD97":162755.89000000001,"N_COORD97":2561020.6099999999,"ADDRESS":"大埕１４３號","OBJECTID":51552},"geometry":{"x":162755.8900000006,"y":2561020.6099999994}},{"attributes":{"ID":51553,"DIS_CODE":0,"TOWNNAME":"七股區","LI":"大埕里","LIN":"1鄰","STREET":" ","SECT":" ","MAREA":"大埕","LANE":" ","ALLEY":" ","HOUSE_NO":"１４４號","E_COORD97":162805.87,"N_COORD97":2561029.2999999998,"ADDRESS":"大埕１４４號","OBJECTID":51553},"geometry":{"x":162805.87000000011,"y":2561029.3000000045}},{"attributes":{"ID":51554,"DIS_CODE":0,"TOWNNAME":"七股區","LI":"大埕里","LIN":"1鄰","STREET":" ","SECT":" ","MAREA":"大埕","LANE":" ","ALLEY":" ","HOUSE_NO":"１４５號","E_COORD97":162786.72,"N_COORD97":2560992.8700000001,"ADDRESS":"大埕１４５號","OBJECTID":51554},"geometry":{"x":162786.71999999974,"y":2560992.8700000029}},{"attributes":{"ID":51555,"DIS_CODE":0,"TOWNNAME":"七股區","LI":"大埕里","LIN":"1鄰","STREET":" ","SECT":" ","MAREA":"大埕","LANE":" ","ALLEY":" ","HOUSE_NO":"１４６號","E_COORD97":162799.78,"N_COORD97":2560983.52,"ADDRESS":"大埕１４６號","OBJECTID":51555},"geometry":{"x":162799.78000000119,"y":2560983.5200000014}},{"attributes":{"ID":51556,"DIS_CODE":0,"TOWNNAME":"七股區","LI":"大埕里","LIN":"1鄰","STREET":" ","SECT":" ","MAREA":"大埕","LANE":" ","ALLEY":" ","HOUSE_NO":"１４８號","E_COORD97":162805.16,"N_COORD97":2560962.96,"ADDRESS":"大埕１４８號","OBJECTID":51556},"geometry":{"x":162805.16000000108,"y":2560962.9600000009}},{"attributes":{"ID":51557,"DIS_CODE":0,"TOWNNAME":"七股區","LI":"大埕里","LIN":"1鄰","STREET":" ","SECT":" ","MAREA":"大埕","LANE":" ","ALLEY":" ","HOUSE_NO":"１４９號","E_COORD97":162800.82000000001,"N_COORD97":2560960.0800000001,"ADDRESS":"大埕１４９號","OBJECTID":51557},"geometry":{"x":162800.82000000123,"y":2560960.0800000019}},{"attributes":{"ID":51558,"DIS_CODE":0,"TOWNNAME":"永康區","LI":"烏竹里","LIN":"15鄰","STREET":"龍橋街","SECT":" ","MAREA":" ","LANE":"３５０巷","ALLEY":"１３３弄","HOUSE_NO":"６號","E_COORD97":174766.39999999999,"N_COORD97":2549331.79,"ADDRESS":"龍橋街３５０巷１３３弄６號","OBJECTID":51558},"geometry":{"x":174766.40000000224,"y":2549331.790000001}},{"attributes":{"ID":51559,"DIS_CODE":0,"TOWNNAME":"永康區","LI":"烏竹里","LIN":"15鄰","STREET":"龍橋街","SECT":" ","MAREA":" ","LANE":"３５０巷","ALLEY":"１３３弄","HOUSE_NO":"４號","E_COORD97":174769.79000000001,"N_COORD97":2549327.29,"ADDRESS":"龍橋街３５０巷１３３弄４號","OBJECTID":51559},"geometry":{"x":174769.79000000004,"y":2549327.2900000028}},{"attributes":{"ID":51560,"DIS_CODE":0,"TOWNNAME":"永康區","LI":"埔園里","LIN":"15鄰","STREET":"中山路","SECT":" ","MAREA":" ","LANE":"３８３巷","ALLEY":"１弄","HOUSE_NO":"２３號","E_COORD97":173539.85999999999,"N_COORD97":2548476.1000000001,"ADDRESS":"中山路３８３巷１弄２３號","OBJECTID":51560},"geometry":{"x":173539.86000000127,"y":2548476.1000000015}},{"attributes":{"ID":51561,"DIS_CODE":0,"TOWNNAME":"永康區","LI":"埔園里","LIN":"15鄰","STREET":"中山路","SECT":" ","MAREA":" ","LANE":"３８３巷","ALLEY":"１弄","HOUSE_NO":"１７號","E_COORD97":173536.85000000001,"N_COORD97":2548488.8500000001,"ADDRESS":"中山路３８３巷１弄１７號","OBJECTID":51561},"geometry":{"x":173536.85000000149,"y":2548488.8499999996}},{"attributes":{"ID":51562,"DIS_CODE":0,"TOWNNAME":"永康區","LI":"東橋里","LIN":"15鄰","STREET":"中山南路","SECT":" ","MAREA":" ","LANE":"３１９巷","ALLEY":"２４弄","HOUSE_NO":"１號","E_COORD97":171796.07000000001,"N_COORD97":2546462.6400000001,"ADDRESS":"中山南路３１９巷２４弄１號","OBJECTID":51562},"geometry":{"x":171796.0700000003,"y":2546462.6400000025}},{"attributes":{"ID":51563,"DIS_CODE":0,"TOWNNAME":"永康區","LI":"東橋里","LIN":"15鄰","STREET":"中山南路","SECT":" ","MAREA":" ","LANE":"３１９巷","ALLEY":"２４弄","HOUSE_NO":"４號","E_COORD97":171821.04999999999,"N_COORD97":2546464.2999999998,"ADDRESS":"中山南路３１９巷２４弄４號","OBJECTID":51563},"geometry":{"x":171821.04999999981,"y":2546464.3000000045}},{"attributes":{"ID":51564,"DIS_CODE":0,"TOWNNAME":"永康區","LI":"埔園里","LIN":"15鄰","STREET":"中山路","SECT":" ","MAREA":" ","LANE":"３８３巷","ALLEY":"１弄","HOUSE_NO":"８號","E_COORD97":173516.37,"N_COORD97":2548508.98,"ADDRESS":"中山路３８３巷１弄８號","OBJECTID":51564},"geometry":{"x":173516.37000000011,"y":2548508.9800000004}},{"attributes":{"ID":51565,"DIS_CODE":0,"TOWNNAME":"永康區","LI":"埔園里","LIN":"15鄰","STREET":"中山路","SECT":" ","MAREA":" ","LANE":"３８３巷","ALLEY":"１弄","HOUSE_NO":"２５號","E_COORD97":173541.47,"N_COORD97":2548471.5899999999,"ADDRESS":"中山路３８３巷１弄２５號","OBJECTID":51565},"geometry":{"x":173541.47000000067,"y":2548471.5900000036}},{"attributes":{"ID":51566,"DIS_CODE":0,"TOWNNAME":"永康區","LI":"埔園里","LIN":"15鄰","STREET":"中山路","SECT":" ","MAREA":" ","LANE":"３８３巷","ALLEY":"１弄","HOUSE_NO":"２號","E_COORD97":173514.26000000001,"N_COORD97":2548517.73,"ADDRESS":"中山路３８３巷１弄２號","OBJECTID":51566},"geometry":{"x":173514.26000000071,"y":2548517.7300000004}},{"attributes":{"ID":51567,"DIS_CODE":0,"TOWNNAME":"永康區","LI":"埔園里","LIN":"15鄰","STREET":"中山路","SECT":" ","MAREA":" ","LANE":"３８３巷","ALLEY":"１弄","HOUSE_NO":"７號","E_COORD97":173530.47,"N_COORD97":2548508.8500000001,"ADDRESS":"中山路３８３巷１弄７號","OBJECTID":51567},"geometry":{"x":173530.46999999974,"y":2548508.8499999996}},{"attributes":{"ID":51568,"DIS_CODE":0,"TOWNNAME":"永康區","LI":"埔園里","LIN":"15鄰","STREET":"中山路","SECT":" ","MAREA":" ","LANE":"３８３巷","ALLEY":"１弄","HOUSE_NO":"１號","E_COORD97":173526.84,"N_COORD97":2548521.3500000001,"ADDRESS":"中山路３８３巷１弄１號","OBJECTID":51568},"geometry":{"x":173526.83999999892,"y":2548521.3500000015}},{"attributes":{"ID":51569,"DIS_CODE":0,"TOWNNAME":"永康區","LI":"埔園里","LIN":"15鄰","STREET":"中山路","SECT":" ","MAREA":" ","LANE":"３８３巷","ALLEY":"１弄","HOUSE_NO":"１０號","E_COORD97":173518.72,"N_COORD97":2548504.98,"ADDRESS":"中山路３８３巷１弄１０號","OBJECTID":51569},"geometry":{"x":173518.71999999974,"y":2548504.9800000023}},{"attributes":{"ID":51570,"DIS_CODE":0,"TOWNNAME":"永康區","LI":"埔園里","LIN":"15鄰","STREET":"中山路","SECT":" ","MAREA":" ","LANE":"３８３巷","ALLEY":"１弄","HOUSE_NO":"６號","E_COORD97":173515.57000000001,"N_COORD97":2548512.98,"ADDRESS":"中山路３８３巷１弄６號","OBJECTID":51570},"geometry":{"x":173515.56999999937,"y":2548512.9800000004}},{"attributes":{"ID":51571,"DIS_CODE":0,"TOWNNAME":"永康區","LI":"埔園里","LIN":"15鄰","STREET":"中山路","SECT":" ","MAREA":" ","LANE":"３８３巷","ALLEY":"１弄","HOUSE_NO":"１２號","E_COORD97":173519.84,"N_COORD97":2548500.73,"ADDRESS":"中山路３８３巷１弄１２號","OBJECTID":51571},"geometry":{"x":173519.83999999985,"y":2548500.7300000004}},{"attributes":{"ID":51572,"DIS_CODE":0,"TOWNNAME":"永康區","LI":"埔園里","LIN":"15鄰","STREET":"中山路","SECT":" ","MAREA":" ","LANE":"３８３巷","ALLEY":"１弄","HOUSE_NO":"２８號","E_COORD97":173525.97,"N_COORD97":2548475.98,"ADDRESS":"中山路３８３巷１弄２８號","OBJECTID":51572},"geometry":{"x":173525.9700000016,"y":2548475.9800000004}},{"attributes":{"ID":51573,"DIS_CODE":0,"TOWNNAME":"北區","LI":"公園里","LIN":"16鄰","STREET":"成功路","SECT":" ","MAREA":" ","LANE":"２２巷","ALLEY":"１８弄","HOUSE_NO":"１０號","E_COORD97":168933.10000000001,"N_COORD97":2544319.9199999999,"ADDRESS":"成功路２２巷１８弄１０號","OBJECTID":51573},"geometry":{"x":168933.10000000056,"y":2544319.9200000037}},{"attributes":{"ID":51574,"DIS_CODE":0,"TOWNNAME":"北區","LI":"公園里","LIN":"16鄰","STREET":"成功路","SECT":" ","MAREA":" ","LANE":"２２巷","ALLEY":"１８弄","HOUSE_NO":"１２號","E_COORD97":168936.23999999999,"N_COORD97":2544320.0600000001,"ADDRESS":"成功路２２巷１８弄１２號","OBJECTID":51574},"geometry":{"x":168936.24000000115,"y":2544320.0600000024}},{"attributes":{"ID":51575,"DIS_CODE":0,"TOWNNAME":"北區","LI":"公園里","LIN":"16鄰","STREET":"成功路","SECT":" ","MAREA":" ","LANE":"２２巷","ALLEY":"１８弄","HOUSE_NO":"２０號","E_COORD97":168939.66,"N_COORD97":2544325.8999999999,"ADDRESS":"成功路２２巷１８弄２０號","OBJECTID":51575},"geometry":{"x":168939.66000000201,"y":2544325.9000000004}},{"attributes":{"ID":51576,"DIS_CODE":0,"TOWNNAME":"北區","LI":"公園里","LIN":"16鄰","STREET":"成功路","SECT":" ","MAREA":" ","LANE":"２２巷","ALLEY":"１８弄","HOUSE_NO":"２２號之１","E_COORD97":168927.54000000001,"N_COORD97":2544333.1699999999,"ADDRESS":"成功路２２巷１８弄２２號之１","OBJECTID":51576},"geometry":{"x":168927.54000000097,"y":2544333.1700000018}},{"attributes":{"ID":51577,"DIS_CODE":0,"TOWNNAME":"仁德區","LI":"新田里","LIN":"15鄰","STREET":"民安路","SECT":"二段","MAREA":" ","LANE":"６３巷","ALLEY":"１７弄","HOUSE_NO":"１３號","E_COORD97":173450.48999999999,"N_COORD97":2539297.5699999998,"ADDRESS":"民安路二段６３巷１７弄１３號","OBJECTID":51577},"geometry":{"x":173450.49000000115,"y":2539297.5700000003}},{"attributes":{"ID":51578,"DIS_CODE":0,"TOWNNAME":"仁德區","LI":"二行里","LIN":"15鄰","STREET":"中正西路","SECT":" ","MAREA":" ","LANE":"３５３巷","ALLEY":"１８弄","HOUSE_NO":"１２號","E_COORD97":169789.56,"N_COORD97":2535287.4900000002,"ADDRESS":"中正西路３５３巷１８弄１２號","OBJECTID":51578},"geometry":{"x":169789.56000000052,"y":2535287.4900000039}},{"attributes":{"ID":51579,"DIS_CODE":0,"TOWNNAME":"仁德區","LI":"二行里","LIN":"15鄰","STREET":"中正西路","SECT":" ","MAREA":" ","LANE":"３５３巷","ALLEY":"１８弄","HOUSE_NO":"１４號","E_COORD97":169780.17999999999,"N_COORD97":2535291.4900000002,"ADDRESS":"中正西路３５３巷１８弄１４號","OBJECTID":51579},"geometry":{"x":169780.18000000063,"y":2535291.4900000021}},{"attributes":{"ID":51580,"DIS_CODE":0,"TOWNNAME":"仁德區","LI":"二行里","LIN":"15鄰","STREET":"中正西路","SECT":" ","MAREA":" ","LANE":"３５３巷","ALLEY":"１８弄","HOUSE_NO":"１８號","E_COORD97":169760.32999999999,"N_COORD97":2535289.23,"ADDRESS":"中正西路３５３巷１８弄１８號","OBJECTID":51580},"geometry":{"x":169760.33000000007,"y":2535289.2300000004}},{"attributes":{"ID":51581,"DIS_CODE":0,"TOWNNAME":"永康區","LI":"埔園里","LIN":"15鄰","STREET":"中山路","SECT":" ","MAREA":" ","LANE":"３８３巷","ALLEY":"１弄","HOUSE_NO":"１８號","E_COORD97":173521.82999999999,"N_COORD97":2548492.48,"ADDRESS":"中山路３８３巷１弄１８號","OBJECTID":51581},"geometry":{"x":173521.83000000007,"y":2548492.4800000004}},{"attributes":{"ID":51582,"DIS_CODE":0,"TOWNNAME":"永康區","LI":"東橋里","LIN":"15鄰","STREET":"中山南路","SECT":" ","MAREA":" ","LANE":"３１９巷","ALLEY":"２６弄","HOUSE_NO":"２號","E_COORD97":171787.28,"N_COORD97":2546498.9399999999,"ADDRESS":"中山南路３１９巷２６弄２號","OBJECTID":51582},"geometry":{"x":171787.28000000119,"y":2546498.9399999976}},{"attributes":{"ID":51583,"DIS_CODE":0,"TOWNNAME":"永康區","LI":"安康里","LIN":"15鄰","STREET":"中華路","SECT":" ","MAREA":" ","LANE":"６１９巷","ALLEY":"２２弄","HOUSE_NO":"７號","E_COORD97":170981.67000000001,"N_COORD97":2546109,"ADDRESS":"中華路６１９巷２２弄７號","OBJECTID":51583},"geometry":{"x":170981.66999999993,"y":2546109}},{"attributes":{"ID":51584,"DIS_CODE":0,"TOWNNAME":"西港區","LI":"慶安里","LIN":"15鄰","STREET":"慶安路","SECT":" ","MAREA":" ","LANE":"１７０巷","ALLEY":"１０弄","HOUSE_NO":"１０號","E_COORD97":167994.12,"N_COORD97":2557922.5499999998,"ADDRESS":"慶安路１７０巷１０弄１０號","OBJECTID":51584},"geometry":{"x":167994.12000000104,"y":2557922.5500000026}},{"attributes":{"ID":51585,"DIS_CODE":0,"TOWNNAME":"西港區","LI":"慶安里","LIN":"15鄰","STREET":"慶安路","SECT":" ","MAREA":" ","LANE":"１７０巷","ALLEY":"１０弄","HOUSE_NO":"１１號","E_COORD97":167998.5,"N_COORD97":2557935.23,"ADDRESS":"慶安路１７０巷１０弄１１號","OBJECTID":51585},"geometry":{"x":167998.50000000093,"y":2557935.2300000023}},{"attributes":{"ID":51586,"DIS_CODE":0,"TOWNNAME":"西港區","LI":"慶安里","LIN":"15鄰","STREET":"慶安路","SECT":" ","MAREA":" ","LANE":"１７０巷","ALLEY":"１０弄","HOUSE_NO":"１２號","E_COORD97":167998.14999999999,"N_COORD97":2557922.6200000001,"ADDRESS":"慶安路１７０巷１０弄１２號","OBJECTID":51586},"geometry":{"x":167998.1500000013,"y":2557922.6200000029}},{"attributes":{"ID":51587,"DIS_CODE":0,"TOWNNAME":"西港區","LI":"慶安里","LIN":"15鄰","STREET":"慶安路","SECT":" ","MAREA":" ","LANE":"１７０巷","ALLEY":"１０弄","HOUSE_NO":"１３號","E_COORD97":168002.95999999999,"N_COORD97":2557935.5699999998,"ADDRESS":"慶安路１７０巷１０弄１３號","OBJECTID":51587},"geometry":{"x":168002.95999999996,"y":2557935.5700000022}},{"attributes":{"ID":51588,"DIS_CODE":0,"TOWNNAME":"七股區","LI":"大埕里","LIN":"1鄰","STREET":" ","SECT":" ","MAREA":"大埕","LANE":" ","ALLEY":" ","HOUSE_NO":"１５０號","E_COORD97":162795.48999999999,"N_COORD97":2560956.8999999999,"ADDRESS":"大埕１５０號","OBJECTID":51588},"geometry":{"x":162795.49000000022,"y":2560956.9000000041}},{"attributes":{"ID":51589,"DIS_CODE":0,"TOWNNAME":"七股區","LI":"大埕里","LIN":"1鄰","STREET":" ","SECT":" ","MAREA":"大埕","LANE":" ","ALLEY":" ","HOUSE_NO":"１５２號","E_COORD97":162788.75,"N_COORD97":2560953.04,"ADDRESS":"大埕１５２號","OBJECTID":51589},"geometry":{"x":162788.75000000186,"y":2560953.0399999991}},{"attributes":{"ID":51590,"DIS_CODE":0,"TOWNNAME":"七股區","LI":"大埕里","LIN":"1鄰","STREET":" ","SECT":" ","MAREA":"大埕","LANE":" ","ALLEY":" ","HOUSE_NO":"１５３號","E_COORD97":162782.64000000001,"N_COORD97":2560948.5800000001,"ADDRESS":"大埕１５３號","OBJECTID":51590},"geometry":{"x":162782.6400000006,"y":2560948.5800000038}},{"attributes":{"ID":51591,"DIS_CODE":0,"TOWNNAME":"七股區","LI":"大埕里","LIN":"1鄰","STREET":" ","SECT":" ","MAREA":"大埕","LANE":" ","ALLEY":" ","HOUSE_NO":"１５５號","E_COORD97":162770,"N_COORD97":2560937.73,"ADDRESS":"大埕１５５號","OBJECTID":51591},"geometry":{"x":162770.00000000186,"y":2560937.7300000042}},{"attributes":{"ID":51592,"DIS_CODE":0,"TOWNNAME":"七股區","LI":"大埕里","LIN":"1鄰","STREET":" ","SECT":" ","MAREA":"大埕","LANE":" ","ALLEY":" ","HOUSE_NO":"１６１號","E_COORD97":162680.53,"N_COORD97":2561005.5699999998,"ADDRESS":"大埕１６１號","OBJECTID":51592},"geometry":{"x":162680.53000000119,"y":2561005.5700000003}},{"attributes":{"ID":51593,"DIS_CODE":0,"TOWNNAME":"西港區","LI":"慶安里","LIN":"15鄰","STREET":"慶安路","SECT":" ","MAREA":" ","LANE":"１７０巷","ALLEY":"１０弄","HOUSE_NO":"１４號","E_COORD97":168002.59,"N_COORD97":2557922.8999999999,"ADDRESS":"慶安路１７０巷１０弄１４號","OBJECTID":51593},"geometry":{"x":168002.59000000078,"y":2557922.9000000022}},{"attributes":{"ID":51594,"DIS_CODE":0,"TOWNNAME":"西港區","LI":"慶安里","LIN":"15鄰","STREET":"慶安路","SECT":" ","MAREA":" ","LANE":"１７０巷","ALLEY":"１０弄","HOUSE_NO":"１５號","E_COORD97":168007.07000000001,"N_COORD97":2557935.9100000001,"ADDRESS":"慶安路１７０巷１０弄１５號","OBJECTID":51594},"geometry":{"x":168007.07000000123,"y":2557935.9100000039}},{"attributes":{"ID":51595,"DIS_CODE":0,"TOWNNAME":"西港區","LI":"慶安里","LIN":"15鄰","STREET":"慶安路","SECT":" ","MAREA":" ","LANE":"１７０巷","ALLEY":"１０弄","HOUSE_NO":"１６號","E_COORD97":168007.41,"N_COORD97":2557922.8100000001,"ADDRESS":"慶安路１７０巷１０弄１６號","OBJECTID":51595},"geometry":{"x":168007.41000000108,"y":2557922.8100000005}},{"attributes":{"ID":51596,"DIS_CODE":0,"TOWNNAME":"西港區","LI":"慶安里","LIN":"15鄰","STREET":"慶安路","SECT":" ","MAREA":" ","LANE":"１７０巷","ALLEY":"１０弄","HOUSE_NO":"１號","E_COORD97":167976.79000000001,"N_COORD97":2557934.3999999999,"ADDRESS":"慶安路１７０巷１０弄１號","OBJECTID":51596},"geometry":{"x":167976.79000000004,"y":2557934.4000000004}},{"attributes":{"ID":51597,"DIS_CODE":0,"TOWNNAME":"西港區","LI":"慶安里","LIN":"15鄰","STREET":"慶安路","SECT":" ","MAREA":" ","LANE":"１７０巷","ALLEY":"１０弄","HOUSE_NO":"２號","E_COORD97":167976.41,"N_COORD97":2557921.4399999999,"ADDRESS":"慶安路１７０巷１０弄２號","OBJECTID":51597},"geometry":{"x":167976.41000000015,"y":2557921.4400000032}},{"attributes":{"ID":51598,"DIS_CODE":0,"TOWNNAME":"西港區","LI":"慶安里","LIN":"15鄰","STREET":"慶安路","SECT":" ","MAREA":" ","LANE":"１７０巷","ALLEY":"１０弄","HOUSE_NO":"３號","E_COORD97":167980.98999999999,"N_COORD97":2557934.7999999998,"ADDRESS":"慶安路１７０巷１０弄３號","OBJECTID":51598},"geometry":{"x":167980.99000000022,"y":2557934.8000000026}},{"attributes":{"ID":51599,"DIS_CODE":0,"TOWNNAME":"西港區","LI":"慶安里","LIN":"15鄰","STREET":"慶安路","SECT":" ","MAREA":" ","LANE":"１７０巷","ALLEY":"１０弄","HOUSE_NO":"４號","E_COORD97":167980.70000000001,"N_COORD97":2557921.8300000001,"ADDRESS":"慶安路１７０巷１０弄４號","OBJECTID":51599},"geometry":{"x":167980.70000000112,"y":2557921.8300000001}},{"attributes":{"ID":51600,"DIS_CODE":0,"TOWNNAME":"西港區","LI":"慶安里","LIN":"15鄰","STREET":"慶安路","SECT":" ","MAREA":" ","LANE":"１７０巷","ALLEY":"１０弄","HOUSE_NO":"５號","E_COORD97":167985.04000000001,"N_COORD97":2557934.9399999999,"ADDRESS":"慶安路１７０巷１０弄５號","OBJECTID":51600},"geometry":{"x":167985.04000000097,"y":2557934.9400000032}}]}