{"displayFieldName":"TOWNNAME","fieldAliases":{"ID":"ID","DIS_CODE":"DIS_CODE","TOWNNAME":"TOWNNAME","LI":"LI","LIN":"LIN","STREET":"STREET","SECT":"SECT","MAREA":"MAREA","LANE":"LANE","ALLEY":"ALLEY","HOUSE_NO":"HOUSE_NO","E_COORD97":"E_COORD97","N_COORD97":"N_COORD97","ADDRESS":"ADDRESS","OBJECTID":"OBJECTID"},"geometryType":"esriGeometryPoint","spatialReference":{"wkid":102443,"latestWkid":3826},"fields":[{"name":"ID","type":"esriFieldTypeDouble","alias":"ID"},{"name":"DIS_CODE","type":"esriFieldTypeInteger","alias":"DIS_CODE"},{"name":"TOWNNAME","type":"esriFieldTypeString","alias":"TOWNNAME","length":8},{"name":"LI","type":"esriFieldTypeString","alias":"LI","length":8},{"name":"LIN","type":"esriFieldTypeString","alias":"LIN","length":12},{"name":"STREET","type":"esriFieldTypeString","alias":"STREET","length":20},{"name":"SECT","type":"esriFieldTypeString","alias":"SECT","length":8},{"name":"MAREA","type":"esriFieldTypeString","alias":"MAREA","length":12},{"name":"LANE","type":"esriFieldTypeString","alias":"LANE","length":10},{"name":"ALLEY","type":"esriFieldTypeString","alias":"ALLEY","length":10},{"name":"HOUSE_NO","type":"esriFieldTypeString","alias":"HOUSE_NO","length":20},{"name":"E_COORD97","type":"esriFieldTypeDouble","alias":"E_COORD97"},{"name":"N_COORD97","type":"esriFieldTypeDouble","alias":"N_COORD97"},{"name":"ADDRESS","type":"esriFieldTypeString","alias":"ADDRESS","length":50},{"name":"OBJECTID","type":"esriFieldTypeOID","alias":"OBJECTID"}],"features":[{"attributes":{"ID":410425,"DIS_CODE":0,"TOWNNAME":"南區","LI":"建南里","LIN":"3鄰","STREET":"德興路","SECT":" ","MAREA":" ","LANE":"２３７巷","ALLEY":" ","HOUSE_NO":"９１號","E_COORD97":167333.72,"N_COORD97":2539992.3100000001,"ADDRESS":"德興路２３７巷９１號","OBJECTID":410401},"geometry":{"x":167333.72000000067,"y":2539992.3100000024}},{"attributes":{"ID":410426,"DIS_CODE":0,"TOWNNAME":"南區","LI":"建南里","LIN":"3鄰","STREET":"德興路","SECT":" ","MAREA":" ","LANE":"２４７巷","ALLEY":" ","HOUSE_NO":"１１號","E_COORD97":167260.42000000001,"N_COORD97":2540075.2000000002,"ADDRESS":"德興路２４７巷１１號","OBJECTID":410402},"geometry":{"x":167260.41999999993,"y":2540075.1999999993}},{"attributes":{"ID":410427,"DIS_CODE":0,"TOWNNAME":"南區","LI":"建南里","LIN":"3鄰","STREET":"德興路","SECT":" ","MAREA":" ","LANE":"２４７巷","ALLEY":" ","HOUSE_NO":"１３號","E_COORD97":167264.88,"N_COORD97":2540074.73,"ADDRESS":"德興路２４７巷１３號","OBJECTID":410403},"geometry":{"x":167264.88000000082,"y":2540074.7300000023}},{"attributes":{"ID":410428,"DIS_CODE":0,"TOWNNAME":"東區","LI":"忠孝里","LIN":"37鄰","STREET":"榮譽街","SECT":" ","MAREA":" ","LANE":"１３０巷","ALLEY":" ","HOUSE_NO":"１１號","E_COORD97":169928.48999999999,"N_COORD97":2541728.3799999999,"ADDRESS":"榮譽街１３０巷１１號","OBJECTID":410404},"geometry":{"x":169928.49000000022,"y":2541728.379999999}},{"attributes":{"ID":410429,"DIS_CODE":0,"TOWNNAME":"東區","LI":"忠孝里","LIN":"37鄰","STREET":"榮譽街","SECT":" ","MAREA":" ","LANE":"１３０巷","ALLEY":" ","HOUSE_NO":"１號","E_COORD97":169908.28,"N_COORD97":2541753.8100000001,"ADDRESS":"榮譽街１３０巷１號","OBJECTID":410405},"geometry":{"x":169908.28000000026,"y":2541753.8100000005}},{"attributes":{"ID":410430,"DIS_CODE":0,"TOWNNAME":"東區","LI":"忠孝里","LIN":"37鄰","STREET":"榮譽街","SECT":" ","MAREA":" ","LANE":"１３０巷","ALLEY":" ","HOUSE_NO":"３號","E_COORD97":169910.70999999999,"N_COORD97":2541749.5699999998,"ADDRESS":"榮譽街１３０巷３號","OBJECTID":410406},"geometry":{"x":169910.71000000089,"y":2541749.5700000022}},{"attributes":{"ID":410431,"DIS_CODE":0,"TOWNNAME":"東區","LI":"忠孝里","LIN":"37鄰","STREET":"榮譽街","SECT":" ","MAREA":" ","LANE":"１３０巷","ALLEY":" ","HOUSE_NO":"５號","E_COORD97":169916.35999999999,"N_COORD97":2541739.6800000002,"ADDRESS":"榮譽街１３０巷５號","OBJECTID":410407},"geometry":{"x":169916.36000000034,"y":2541739.6799999997}},{"attributes":{"ID":410432,"DIS_CODE":0,"TOWNNAME":"南區","LI":"建南里","LIN":"3鄰","STREET":"德興路","SECT":" ","MAREA":" ","LANE":"２４７巷","ALLEY":" ","HOUSE_NO":"１５號","E_COORD97":167269.57000000001,"N_COORD97":2540074.02,"ADDRESS":"德興路２４７巷１５號","OBJECTID":410408},"geometry":{"x":167269.57000000123,"y":2540074.0200000033}},{"attributes":{"ID":410433,"DIS_CODE":0,"TOWNNAME":"南區","LI":"建南里","LIN":"3鄰","STREET":"德興路","SECT":" ","MAREA":" ","LANE":"２４７巷","ALLEY":" ","HOUSE_NO":"１７號","E_COORD97":167273.56,"N_COORD97":2540074.02,"ADDRESS":"德興路２４７巷１７號","OBJECTID":410409},"geometry":{"x":167273.56000000052,"y":2540074.0200000033}},{"attributes":{"ID":410434,"DIS_CODE":0,"TOWNNAME":"南區","LI":"建南里","LIN":"3鄰","STREET":"德興路","SECT":" ","MAREA":" ","LANE":"２４７巷","ALLEY":" ","HOUSE_NO":"１９號","E_COORD97":167279.20000000001,"N_COORD97":2540074.4900000002,"ADDRESS":"德興路２４７巷１９號","OBJECTID":410410},"geometry":{"x":167279.20000000019,"y":2540074.4899999984}},{"attributes":{"ID":410435,"DIS_CODE":0,"TOWNNAME":"南區","LI":"建南里","LIN":"3鄰","STREET":"德興路","SECT":" ","MAREA":" ","LANE":"２４７巷","ALLEY":" ","HOUSE_NO":"２３號","E_COORD97":167288.59,"N_COORD97":2540074.73,"ADDRESS":"德興路２４７巷２３號","OBJECTID":410411},"geometry":{"x":167288.59000000171,"y":2540074.7300000023}},{"attributes":{"ID":410436,"DIS_CODE":0,"TOWNNAME":"南區","LI":"建南里","LIN":"3鄰","STREET":"德興路","SECT":" ","MAREA":" ","LANE":"２４７巷","ALLEY":" ","HOUSE_NO":"２５號","E_COORD97":167292.82000000001,"N_COORD97":2540073.79,"ADDRESS":"德興路２４７巷２５號","OBJECTID":410412},"geometry":{"x":167292.82000000123,"y":2540073.7899999991}},{"attributes":{"ID":410437,"DIS_CODE":0,"TOWNNAME":"南區","LI":"建南里","LIN":"3鄰","STREET":"德興路","SECT":" ","MAREA":" ","LANE":"２４７巷","ALLEY":" ","HOUSE_NO":"９號","E_COORD97":167255.95000000001,"N_COORD97":2540075.2000000002,"ADDRESS":"德興路２４７巷９號","OBJECTID":410413},"geometry":{"x":167255.94999999925,"y":2540075.1999999993}},{"attributes":{"ID":410438,"DIS_CODE":0,"TOWNNAME":"北區","LI":"振興里","LIN":"3鄰","STREET":"開元路","SECT":" ","MAREA":" ","LANE":"１４８巷","ALLEY":" ","HOUSE_NO":"１１號","E_COORD97":170005.38,"N_COORD97":2545223.2599999998,"ADDRESS":"開元路１４８巷１１號","OBJECTID":410414},"geometry":{"x":170005.37999999989,"y":2545223.2600000016}},{"attributes":{"ID":410439,"DIS_CODE":0,"TOWNNAME":"北區","LI":"振興里","LIN":"3鄰","STREET":"開元路","SECT":" ","MAREA":" ","LANE":"１４８巷","ALLEY":" ","HOUSE_NO":"１３號","E_COORD97":170007.64999999999,"N_COORD97":2545217.75,"ADDRESS":"開元路１４８巷１３號","OBJECTID":410415},"geometry":{"x":170007.65000000037,"y":2545217.75}},{"attributes":{"ID":410440,"DIS_CODE":0,"TOWNNAME":"北區","LI":"文元里","LIN":"3鄰","STREET":"文賢路","SECT":" ","MAREA":" ","LANE":"１１２２巷","ALLEY":" ","HOUSE_NO":"１１３號","E_COORD97":167681.39000000001,"N_COORD97":2546370.8900000001,"ADDRESS":"文賢路１１２２巷１１３號","OBJECTID":410416},"geometry":{"x":167681.39000000153,"y":2546370.8900000006}},{"attributes":{"ID":410441,"DIS_CODE":0,"TOWNNAME":"北區","LI":"文元里","LIN":"3鄰","STREET":"文賢路","SECT":" ","MAREA":" ","LANE":"１１２２巷","ALLEY":" ","HOUSE_NO":"１１５號","E_COORD97":167695.16,"N_COORD97":2546375.5899999999,"ADDRESS":"文賢路１１２２巷１１５號","OBJECTID":410417},"geometry":{"x":167695.16000000015,"y":2546375.5899999999}},{"attributes":{"ID":410442,"DIS_CODE":0,"TOWNNAME":"北區","LI":"文元里","LIN":"3鄰","STREET":"文賢路","SECT":" ","MAREA":" ","LANE":"１１２２巷","ALLEY":" ","HOUSE_NO":"１１７號","E_COORD97":167698.95999999999,"N_COORD97":2546378.7999999998,"ADDRESS":"文賢路１１２２巷１１７號","OBJECTID":410418},"geometry":{"x":167698.96000000089,"y":2546378.8000000007}},{"attributes":{"ID":410443,"DIS_CODE":0,"TOWNNAME":"北區","LI":"文元里","LIN":"3鄰","STREET":"文賢路","SECT":" ","MAREA":" ","LANE":"１１２２巷","ALLEY":" ","HOUSE_NO":"１１９號","E_COORD97":167704.20999999999,"N_COORD97":2546381.71,"ADDRESS":"文賢路１１２２巷１１９號","OBJECTID":410419},"geometry":{"x":167704.20999999996,"y":2546381.7100000028}},{"attributes":{"ID":410444,"DIS_CODE":0,"TOWNNAME":"北區","LI":"文元里","LIN":"3鄰","STREET":"文賢路","SECT":" ","MAREA":" ","LANE":"１１２２巷","ALLEY":" ","HOUSE_NO":"１２１號","E_COORD97":167710.63,"N_COORD97":2546381.4199999999,"ADDRESS":"文賢路１１２２巷１２１號","OBJECTID":410420},"geometry":{"x":167710.63000000175,"y":2546381.4200000018}},{"attributes":{"ID":410445,"DIS_CODE":0,"TOWNNAME":"北區","LI":"文元里","LIN":"3鄰","STREET":"文賢路","SECT":" ","MAREA":" ","LANE":"１１２２巷","ALLEY":" ","HOUSE_NO":"１２３號","E_COORD97":167716.20000000001,"N_COORD97":2546381.8500000001,"ADDRESS":"文賢路１１２２巷１２３號","OBJECTID":410421},"geometry":{"x":167716.20000000112,"y":2546381.8500000015}},{"attributes":{"ID":410446,"DIS_CODE":0,"TOWNNAME":"北區","LI":"安民里","LIN":"3鄰","STREET":"海安路","SECT":"三段","MAREA":" ","LANE":"３２巷","ALLEY":" ","HOUSE_NO":"２５號","E_COORD97":167992.13,"N_COORD97":2544682.0899999999,"ADDRESS":"海安路三段３２巷２５號","OBJECTID":410422},"geometry":{"x":167992.13000000082,"y":2544682.0900000017}},{"attributes":{"ID":410447,"DIS_CODE":0,"TOWNNAME":"北區","LI":"文元里","LIN":"3鄰","STREET":"文賢路","SECT":" ","MAREA":" ","LANE":"１１２２巷","ALLEY":" ","HOUSE_NO":"１２５號","E_COORD97":167720.66,"N_COORD97":2546383.5,"ADDRESS":"文賢路１１２２巷１２５號","OBJECTID":410423},"geometry":{"x":167720.65999999922,"y":2546383.5}},{"attributes":{"ID":410448,"DIS_CODE":0,"TOWNNAME":"北區","LI":"文元里","LIN":"3鄰","STREET":"文賢路","SECT":" ","MAREA":" ","LANE":"１１２２巷","ALLEY":" ","HOUSE_NO":"１２７號","E_COORD97":167725.13,"N_COORD97":2546386.3100000001,"ADDRESS":"文賢路１１２２巷１２７號","OBJECTID":410424},"geometry":{"x":167725.12999999989,"y":2546386.3100000024}},{"attributes":{"ID":410449,"DIS_CODE":0,"TOWNNAME":"東區","LI":"忠孝里","LIN":"40鄰","STREET":"崇明路","SECT":" ","MAREA":" ","LANE":"２６６巷","ALLEY":" ","HOUSE_NO":"１８號","E_COORD97":169878.25,"N_COORD97":2542029.5800000001,"ADDRESS":"崇明路２６６巷１８號","OBJECTID":410425},"geometry":{"x":169878.25000000093,"y":2542029.5800000001}},{"attributes":{"ID":410450,"DIS_CODE":0,"TOWNNAME":"東區","LI":"忠孝里","LIN":"40鄰","STREET":"崇明路","SECT":" ","MAREA":" ","LANE":"２６６巷","ALLEY":" ","HOUSE_NO":"２號","E_COORD97":169887.98000000001,"N_COORD97":2542069.25,"ADDRESS":"崇明路２６６巷２號","OBJECTID":410426},"geometry":{"x":169887.98000000045,"y":2542069.25}},{"attributes":{"ID":410451,"DIS_CODE":0,"TOWNNAME":"東區","LI":"忠孝里","LIN":"40鄰","STREET":"崇明路","SECT":" ","MAREA":" ","LANE":"２６６巷","ALLEY":" ","HOUSE_NO":"８號","E_COORD97":169900.63,"N_COORD97":2542045.6699999999,"ADDRESS":"崇明路２６６巷８號","OBJECTID":410427},"geometry":{"x":169900.62999999896,"y":2542045.6699999999}},{"attributes":{"ID":410452,"DIS_CODE":0,"TOWNNAME":"北區","LI":"文元里","LIN":"3鄰","STREET":"文賢路","SECT":" ","MAREA":" ","LANE":"１１２２巷","ALLEY":" ","HOUSE_NO":"１２９號","E_COORD97":167727.67999999999,"N_COORD97":2546390.3799999999,"ADDRESS":"文賢路１１２２巷１２９號","OBJECTID":410428},"geometry":{"x":167727.68000000063,"y":2546390.3800000027}},{"attributes":{"ID":410453,"DIS_CODE":0,"TOWNNAME":"北區","LI":"文元里","LIN":"3鄰","STREET":"文賢路","SECT":" ","MAREA":" ","LANE":"１１２２巷","ALLEY":" ","HOUSE_NO":"１３１號","E_COORD97":167731.76000000001,"N_COORD97":2546392.7999999998,"ADDRESS":"文賢路１１２２巷１３１號","OBJECTID":410429},"geometry":{"x":167731.76000000071,"y":2546392.8000000045}},{"attributes":{"ID":410454,"DIS_CODE":0,"TOWNNAME":"北區","LI":"文元里","LIN":"3鄰","STREET":"文賢路","SECT":" ","MAREA":" ","LANE":"１１２２巷","ALLEY":" ","HOUSE_NO":"１３３號","E_COORD97":167734.44,"N_COORD97":2546398.6600000001,"ADDRESS":"文賢路１１２２巷１３３號","OBJECTID":410430},"geometry":{"x":167734.44000000227,"y":2546398.6600000001}},{"attributes":{"ID":410455,"DIS_CODE":0,"TOWNNAME":"北區","LI":"文元里","LIN":"3鄰","STREET":"文賢路","SECT":" ","MAREA":" ","LANE":"１１２２巷","ALLEY":" ","HOUSE_NO":"１３５號","E_COORD97":167740.64000000001,"N_COORD97":2546402.9199999999,"ADDRESS":"文賢路１１２２巷１３５號","OBJECTID":410431},"geometry":{"x":167740.63999999873,"y":2546402.9200000018}},{"attributes":{"ID":410456,"DIS_CODE":0,"TOWNNAME":"北區","LI":"文元里","LIN":"3鄰","STREET":"文賢路","SECT":" ","MAREA":" ","LANE":"１１２２巷","ALLEY":" ","HOUSE_NO":"１３７號","E_COORD97":167745.73000000001,"N_COORD97":2546405.1000000001,"ADDRESS":"文賢路１１２２巷１３７號","OBJECTID":410432},"geometry":{"x":167745.73000000045,"y":2546405.0999999996}},{"attributes":{"ID":410457,"DIS_CODE":0,"TOWNNAME":"北區","LI":"文元里","LIN":"3鄰","STREET":"文賢路","SECT":" ","MAREA":" ","LANE":"１１２２巷","ALLEY":" ","HOUSE_NO":"１３９號","E_COORD97":167752.03,"N_COORD97":2546407.2799999998,"ADDRESS":"文賢路１１２２巷１３９號","OBJECTID":410433},"geometry":{"x":167752.03000000026,"y":2546407.2799999993}},{"attributes":{"ID":410458,"DIS_CODE":0,"TOWNNAME":"北區","LI":"文元里","LIN":"3鄰","STREET":"文賢路","SECT":" ","MAREA":" ","LANE":"１１２２巷","ALLEY":" ","HOUSE_NO":"１４１號","E_COORD97":167756.64000000001,"N_COORD97":2546408.73,"ADDRESS":"文賢路１１２２巷１４１號","OBJECTID":410434},"geometry":{"x":167756.6400000006,"y":2546408.7300000004}},{"attributes":{"ID":410459,"DIS_CODE":0,"TOWNNAME":"北區","LI":"文元里","LIN":"3鄰","STREET":"文賢路","SECT":" ","MAREA":" ","LANE":"１１２２巷","ALLEY":" ","HOUSE_NO":"１４３號","E_COORD97":167759.89999999999,"N_COORD97":2546410.8599999999,"ADDRESS":"文賢路１１２２巷１４３號","OBJECTID":410435},"geometry":{"x":167759.90000000037,"y":2546410.8599999994}},{"attributes":{"ID":410460,"DIS_CODE":0,"TOWNNAME":"北區","LI":"文元里","LIN":"3鄰","STREET":"文賢路","SECT":" ","MAREA":" ","LANE":"１１２２巷","ALLEY":" ","HOUSE_NO":"１４５號","E_COORD97":167765.81,"N_COORD97":2546414.8700000001,"ADDRESS":"文賢路１１２２巷１４５號","OBJECTID":410436},"geometry":{"x":167765.80999999959,"y":2546414.870000001}},{"attributes":{"ID":410461,"DIS_CODE":0,"TOWNNAME":"北區","LI":"文元里","LIN":"3鄰","STREET":"文賢路","SECT":" ","MAREA":" ","LANE":"１１２２巷","ALLEY":" ","HOUSE_NO":"９５號","E_COORD97":167599.20999999999,"N_COORD97":2546390.3300000001,"ADDRESS":"文賢路１１２２巷９５號","OBJECTID":410437},"geometry":{"x":167599.20999999996,"y":2546390.3300000001}},{"attributes":{"ID":410462,"DIS_CODE":0,"TOWNNAME":"北區","LI":"裕民里","LIN":"3鄰","STREET":"康樂街","SECT":" ","MAREA":" ","LANE":"４３５巷","ALLEY":" ","HOUSE_NO":"１１號","E_COORD97":167730.26999999999,"N_COORD97":2544702.6600000001,"ADDRESS":"康樂街４３５巷１１號","OBJECTID":410438},"geometry":{"x":167730.27000000048,"y":2544702.660000002}},{"attributes":{"ID":410463,"DIS_CODE":0,"TOWNNAME":"北區","LI":"裕民里","LIN":"3鄰","STREET":"康樂街","SECT":" ","MAREA":" ","LANE":"４３５巷","ALLEY":" ","HOUSE_NO":"１３號","E_COORD97":167731.79999999999,"N_COORD97":2544707.4399999999,"ADDRESS":"康樂街４３５巷１３號","OBJECTID":410439},"geometry":{"x":167731.80000000075,"y":2544707.4399999995}},{"attributes":{"ID":410464,"DIS_CODE":0,"TOWNNAME":"北區","LI":"裕民里","LIN":"3鄰","STREET":"康樂街","SECT":" ","MAREA":" ","LANE":"４３５巷","ALLEY":" ","HOUSE_NO":"１５號","E_COORD97":167723.19,"N_COORD97":2544709.54,"ADDRESS":"康樂街４３５巷１５號","OBJECTID":410440},"geometry":{"x":167723.19000000134,"y":2544709.540000001}},{"attributes":{"ID":410465,"DIS_CODE":0,"TOWNNAME":"北區","LI":"裕民里","LIN":"3鄰","STREET":"康樂街","SECT":" ","MAREA":" ","LANE":"４３５巷","ALLEY":" ","HOUSE_NO":"１７號","E_COORD97":167728.54999999999,"N_COORD97":2544723.1099999999,"ADDRESS":"康樂街４３５巷１７號","OBJECTID":410441},"geometry":{"x":167728.55000000075,"y":2544723.1099999994}},{"attributes":{"ID":410466,"DIS_CODE":0,"TOWNNAME":"北區","LI":"裕民里","LIN":"3鄰","STREET":"康樂街","SECT":" ","MAREA":" ","LANE":"４３５巷","ALLEY":" ","HOUSE_NO":"１號","E_COORD97":167722.04000000001,"N_COORD97":2544681.5800000001,"ADDRESS":"康樂街４３５巷１號","OBJECTID":410442},"geometry":{"x":167722.04000000097,"y":2544681.5800000038}},{"attributes":{"ID":410467,"DIS_CODE":0,"TOWNNAME":"北區","LI":"裕民里","LIN":"3鄰","STREET":"康樂街","SECT":" ","MAREA":" ","LANE":"４３５巷","ALLEY":" ","HOUSE_NO":"２１號","E_COORD97":167736.20000000001,"N_COORD97":2544720.0499999998,"ADDRESS":"康樂街４３５巷２１號","OBJECTID":410443},"geometry":{"x":167736.20000000112,"y":2544720.0500000026}},{"attributes":{"ID":410468,"DIS_CODE":0,"TOWNNAME":"北區","LI":"裕民里","LIN":"3鄰","STREET":"康樂街","SECT":" ","MAREA":" ","LANE":"４３５巷","ALLEY":" ","HOUSE_NO":"２３號","E_COORD97":167739.82999999999,"N_COORD97":2544719.0899999999,"ADDRESS":"康樂街４３５巷２３號","OBJECTID":410444},"geometry":{"x":167739.83000000194,"y":2544719.0900000017}},{"attributes":{"ID":410469,"DIS_CODE":0,"TOWNNAME":"北區","LI":"裕民里","LIN":"3鄰","STREET":"康樂街","SECT":" ","MAREA":" ","LANE":"４３５巷","ALLEY":" ","HOUSE_NO":"５號","E_COORD97":167724.34,"N_COORD97":2544689.7000000002,"ADDRESS":"康樂街４３５巷５號","OBJECTID":410445},"geometry":{"x":167724.34000000171,"y":2544689.6999999993}},{"attributes":{"ID":410470,"DIS_CODE":0,"TOWNNAME":"北區","LI":"裕民里","LIN":"3鄰","STREET":"康樂街","SECT":" ","MAREA":" ","LANE":"４３５巷","ALLEY":" ","HOUSE_NO":"７號","E_COORD97":167727.01999999999,"N_COORD97":2544695.2400000002,"ADDRESS":"康樂街４３５巷７號","OBJECTID":410446},"geometry":{"x":167727.02000000048,"y":2544695.2400000021}},{"attributes":{"ID":410471,"DIS_CODE":0,"TOWNNAME":"北區","LI":"裕民里","LIN":"3鄰","STREET":"康樂街","SECT":" ","MAREA":" ","LANE":"４３５巷","ALLEY":" ","HOUSE_NO":"９號","E_COORD97":167725.48999999999,"N_COORD97":2544699.25,"ADDRESS":"康樂街４３５巷９號","OBJECTID":410447},"geometry":{"x":167725.49000000209,"y":2544699.25}},{"attributes":{"ID":410472,"DIS_CODE":0,"TOWNNAME":"北區","LI":"安民里","LIN":"3鄰","STREET":"海安路","SECT":"三段","MAREA":" ","LANE":"３２巷","ALLEY":" ","HOUSE_NO":"３３號","E_COORD97":168012.32999999999,"N_COORD97":2544679.7599999998,"ADDRESS":"海安路三段３２巷３３號","OBJECTID":410448},"geometry":{"x":168012.33000000007,"y":2544679.7599999979}},{"attributes":{"ID":410473,"DIS_CODE":0,"TOWNNAME":"北區","LI":"安民里","LIN":"3鄰","STREET":"海安路","SECT":"三段","MAREA":" ","LANE":"３２巷","ALLEY":" ","HOUSE_NO":"１１號","E_COORD97":167967,"N_COORD97":2544673.6299999999,"ADDRESS":"海安路三段３２巷１１號","OBJECTID":410449},"geometry":{"x":167967,"y":2544673.6300000008}},{"attributes":{"ID":410474,"DIS_CODE":0,"TOWNNAME":"北區","LI":"安民里","LIN":"3鄰","STREET":"海安路","SECT":"三段","MAREA":" ","LANE":"３２巷","ALLEY":" ","HOUSE_NO":"１７號","E_COORD97":167973.07999999999,"N_COORD97":2544688.0800000001,"ADDRESS":"海安路三段３２巷１７號","OBJECTID":410450},"geometry":{"x":167973.08000000007,"y":2544688.0799999982}},{"attributes":{"ID":410475,"DIS_CODE":0,"TOWNNAME":"北區","LI":"安民里","LIN":"3鄰","STREET":"海安路","SECT":"三段","MAREA":" ","LANE":"３２巷","ALLEY":" ","HOUSE_NO":"１９號","E_COORD97":167977.17999999999,"N_COORD97":2544687.5600000001,"ADDRESS":"海安路三段３２巷１９號","OBJECTID":410451},"geometry":{"x":167977.1799999997,"y":2544687.5600000005}},{"attributes":{"ID":410476,"DIS_CODE":0,"TOWNNAME":"北區","LI":"安民里","LIN":"3鄰","STREET":"海安路","SECT":"三段","MAREA":" ","LANE":"３２巷","ALLEY":" ","HOUSE_NO":"１號","E_COORD97":167947.13,"N_COORD97":2544684.7200000002,"ADDRESS":"海安路三段３２巷１號","OBJECTID":410452},"geometry":{"x":167947.12999999989,"y":2544684.7200000044}},{"attributes":{"ID":410477,"DIS_CODE":0,"TOWNNAME":"北區","LI":"安民里","LIN":"3鄰","STREET":"海安路","SECT":"三段","MAREA":" ","LANE":"３２巷","ALLEY":" ","HOUSE_NO":"２１號","E_COORD97":167977.81,"N_COORD97":2544685.5899999999,"ADDRESS":"海安路三段３２巷２１號","OBJECTID":410453},"geometry":{"x":167977.80999999959,"y":2544685.5900000017}},{"attributes":{"ID":410478,"DIS_CODE":0,"TOWNNAME":"北區","LI":"安民里","LIN":"3鄰","STREET":"海安路","SECT":"三段","MAREA":" ","LANE":"３２巷","ALLEY":" ","HOUSE_NO":"２３號","E_COORD97":167987.45999999999,"N_COORD97":2544681.5099999998,"ADDRESS":"海安路三段３２巷２３號","OBJECTID":410454},"geometry":{"x":167987.45999999996,"y":2544681.5099999979}},{"attributes":{"ID":410479,"DIS_CODE":0,"TOWNNAME":"北區","LI":"安民里","LIN":"3鄰","STREET":"海安路","SECT":"三段","MAREA":" ","LANE":"３２巷","ALLEY":" ","HOUSE_NO":"２７號","E_COORD97":167997.39000000001,"N_COORD97":2544682.3799999999,"ADDRESS":"海安路三段３２巷２７號","OBJECTID":410455},"geometry":{"x":167997.3900000006,"y":2544682.3800000008}},{"attributes":{"ID":410480,"DIS_CODE":0,"TOWNNAME":"北區","LI":"安民里","LIN":"3鄰","STREET":"海安路","SECT":"三段","MAREA":" ","LANE":"３２巷","ALLEY":" ","HOUSE_NO":"２９號","E_COORD97":168000.31,"N_COORD97":2544683.5499999998,"ADDRESS":"海安路三段３２巷２９號","OBJECTID":410456},"geometry":{"x":168000.30999999959,"y":2544683.5500000026}},{"attributes":{"ID":410481,"DIS_CODE":0,"TOWNNAME":"北區","LI":"安民里","LIN":"3鄰","STREET":"海安路","SECT":"三段","MAREA":" ","LANE":"３２巷","ALLEY":" ","HOUSE_NO":"７號","E_COORD97":167958.53,"N_COORD97":2544677.71,"ADDRESS":"海安路三段３２巷７號","OBJECTID":410457},"geometry":{"x":167958.53000000026,"y":2544677.7100000009}},{"attributes":{"ID":410482,"DIS_CODE":0,"TOWNNAME":"北區","LI":"安民里","LIN":"3鄰","STREET":"海安路","SECT":"三段","MAREA":" ","LANE":"３２巷","ALLEY":" ","HOUSE_NO":"９號","E_COORD97":167963.48999999999,"N_COORD97":2544675.3799999999,"ADDRESS":"海安路三段３２巷９號","OBJECTID":410458},"geometry":{"x":167963.49000000115,"y":2544675.3800000008}},{"attributes":{"ID":410483,"DIS_CODE":0,"TOWNNAME":"北區","LI":"安民里","LIN":"3鄰","STREET":"海安路","SECT":"三段","MAREA":" ","LANE":"５４巷","ALLEY":" ","HOUSE_NO":"１６號","E_COORD97":167987.45999999999,"N_COORD97":2544697.5600000001,"ADDRESS":"海安路三段５４巷１６號","OBJECTID":410459},"geometry":{"x":167987.45999999996,"y":2544697.5600000005}},{"attributes":{"ID":410484,"DIS_CODE":0,"TOWNNAME":"北區","LI":"安民里","LIN":"3鄰","STREET":"海安路","SECT":"三段","MAREA":" ","LANE":"５４巷","ALLEY":" ","HOUSE_NO":"１８號","E_COORD97":167993.01000000001,"N_COORD97":2544695.52,"ADDRESS":"海安路三段５４巷１８號","OBJECTID":410460},"geometry":{"x":167993.01000000071,"y":2544695.5200000014}},{"attributes":{"ID":410485,"DIS_CODE":0,"TOWNNAME":"北區","LI":"安民里","LIN":"3鄰","STREET":"海安路","SECT":"三段","MAREA":" ","LANE":"５４巷","ALLEY":" ","HOUSE_NO":"２０號","E_COORD97":167996.81,"N_COORD97":2544693.4700000002,"ADDRESS":"海安路三段５４巷２０號","OBJECTID":410461},"geometry":{"x":167996.80999999959,"y":2544693.4700000025}},{"attributes":{"ID":410486,"DIS_CODE":0,"TOWNNAME":"北區","LI":"安民里","LIN":"3鄰","STREET":"海安路","SECT":"三段","MAREA":" ","LANE":"５４巷","ALLEY":" ","HOUSE_NO":"２２號","E_COORD97":168004.70000000001,"N_COORD97":2544691.4300000002,"ADDRESS":"海安路三段５４巷２２號","OBJECTID":410462},"geometry":{"x":168004.70000000019,"y":2544691.4299999997}},{"attributes":{"ID":410487,"DIS_CODE":0,"TOWNNAME":"北區","LI":"安民里","LIN":"3鄰","STREET":"海安路","SECT":"三段","MAREA":" ","LANE":"５４巷","ALLEY":" ","HOUSE_NO":"２６號","E_COORD97":168007.91,"N_COORD97":2544687.3399999999,"ADDRESS":"海安路三段５４巷２６號","OBJECTID":410463},"geometry":{"x":168007.91000000108,"y":2544687.3400000017}},{"attributes":{"ID":410488,"DIS_CODE":0,"TOWNNAME":"北區","LI":"安民里","LIN":"3鄰","STREET":"海安路","SECT":"三段","MAREA":" ","LANE":"５４巷","ALLEY":" ","HOUSE_NO":"２８號","E_COORD97":168012.29000000001,"N_COORD97":2544685.8900000001,"ADDRESS":"海安路三段５４巷２８號","OBJECTID":410464},"geometry":{"x":168012.29000000004,"y":2544685.8900000006}},{"attributes":{"ID":410489,"DIS_CODE":0,"TOWNNAME":"北區","LI":"安民里","LIN":"3鄰","STREET":"海安路","SECT":"三段","MAREA":" ","LANE":"５４巷","ALLEY":" ","HOUSE_NO":"２號","E_COORD97":167964.66,"N_COORD97":2544700.48,"ADDRESS":"海安路三段５４巷２號","OBJECTID":410465},"geometry":{"x":167964.66000000015,"y":2544700.4800000023}},{"attributes":{"ID":410490,"DIS_CODE":0,"TOWNNAME":"北區","LI":"安民里","LIN":"3鄰","STREET":"海安路","SECT":"三段","MAREA":" ","LANE":"５４巷","ALLEY":" ","HOUSE_NO":"３０號","E_COORD97":168016.97,"N_COORD97":2544684.1299999999,"ADDRESS":"海安路三段５４巷３０號","OBJECTID":410466},"geometry":{"x":168016.97000000067,"y":2544684.1300000008}},{"attributes":{"ID":410491,"DIS_CODE":0,"TOWNNAME":"東區","LI":"崇明里","LIN":"3鄰","STREET":"大同路","SECT":"二段","MAREA":" ","LANE":"４０３巷","ALLEY":" ","HOUSE_NO":"１２號二樓","E_COORD97":169585.63,"N_COORD97":2541346.2200000002,"ADDRESS":"大同路二段４０３巷１２號二樓","OBJECTID":410467},"geometry":{"x":169585.63000000082,"y":2541346.2200000025}},{"attributes":{"ID":410492,"DIS_CODE":0,"TOWNNAME":"東區","LI":"崇明里","LIN":"3鄰","STREET":"大同路","SECT":"二段","MAREA":" ","LANE":"４０３巷","ALLEY":" ","HOUSE_NO":"１２號三樓","E_COORD97":169585.63,"N_COORD97":2541346.2200000002,"ADDRESS":"大同路二段４０３巷１２號三樓","OBJECTID":410468},"geometry":{"x":169585.63000000082,"y":2541346.2200000025}},{"attributes":{"ID":410493,"DIS_CODE":0,"TOWNNAME":"東區","LI":"崇明里","LIN":"3鄰","STREET":"大同路","SECT":"二段","MAREA":" ","LANE":"４０３巷","ALLEY":" ","HOUSE_NO":"１２號四樓","E_COORD97":169585.63,"N_COORD97":2541346.2200000002,"ADDRESS":"大同路二段４０３巷１２號四樓","OBJECTID":410469},"geometry":{"x":169585.63000000082,"y":2541346.2200000025}},{"attributes":{"ID":410494,"DIS_CODE":0,"TOWNNAME":"東區","LI":"崇明里","LIN":"3鄰","STREET":"大同路","SECT":"二段","MAREA":" ","LANE":"４０３巷","ALLEY":" ","HOUSE_NO":"１２號五樓","E_COORD97":169585.63,"N_COORD97":2541346.2200000002,"ADDRESS":"大同路二段４０３巷１２號五樓","OBJECTID":410470},"geometry":{"x":169585.63000000082,"y":2541346.2200000025}},{"attributes":{"ID":410495,"DIS_CODE":0,"TOWNNAME":"東區","LI":"崇明里","LIN":"3鄰","STREET":"大同路","SECT":"二段","MAREA":" ","LANE":"４０３巷","ALLEY":" ","HOUSE_NO":"１２號六樓","E_COORD97":169585.63,"N_COORD97":2541346.2200000002,"ADDRESS":"大同路二段４０３巷１２號六樓","OBJECTID":410471},"geometry":{"x":169585.63000000082,"y":2541346.2200000025}},{"attributes":{"ID":410496,"DIS_CODE":0,"TOWNNAME":"東區","LI":"崇明里","LIN":"3鄰","STREET":"大同路","SECT":"二段","MAREA":" ","LANE":"４０３巷","ALLEY":" ","HOUSE_NO":"１２號之１二樓","E_COORD97":169581.09,"N_COORD97":2541354.1099999999,"ADDRESS":"大同路二段４０３巷１２號之１二樓","OBJECTID":410472},"geometry":{"x":169581.09000000078,"y":2541354.1099999994}},{"attributes":{"ID":410497,"DIS_CODE":0,"TOWNNAME":"東區","LI":"崇明里","LIN":"3鄰","STREET":"大同路","SECT":"二段","MAREA":" ","LANE":"４０３巷","ALLEY":" ","HOUSE_NO":"１２號之１三樓","E_COORD97":169581.09,"N_COORD97":2541354.1099999999,"ADDRESS":"大同路二段４０３巷１２號之１三樓","OBJECTID":410473},"geometry":{"x":169581.09000000078,"y":2541354.1099999994}},{"attributes":{"ID":410498,"DIS_CODE":0,"TOWNNAME":"東區","LI":"崇明里","LIN":"3鄰","STREET":"大同路","SECT":"二段","MAREA":" ","LANE":"４０３巷","ALLEY":" ","HOUSE_NO":"１２號之１四樓","E_COORD97":169581.09,"N_COORD97":2541354.1099999999,"ADDRESS":"大同路二段４０３巷１２號之１四樓","OBJECTID":410474},"geometry":{"x":169581.09000000078,"y":2541354.1099999994}},{"attributes":{"ID":410499,"DIS_CODE":0,"TOWNNAME":"東區","LI":"崇明里","LIN":"3鄰","STREET":"大同路","SECT":"二段","MAREA":" ","LANE":"４０３巷","ALLEY":" ","HOUSE_NO":"１２號之１五樓","E_COORD97":169581.09,"N_COORD97":2541354.1099999999,"ADDRESS":"大同路二段４０３巷１２號之１五樓","OBJECTID":410475},"geometry":{"x":169581.09000000078,"y":2541354.1099999994}},{"attributes":{"ID":410500,"DIS_CODE":0,"TOWNNAME":"東區","LI":"崇明里","LIN":"3鄰","STREET":"大同路","SECT":"二段","MAREA":" ","LANE":"４０３巷","ALLEY":" ","HOUSE_NO":"１２號之１六樓","E_COORD97":169581.09,"N_COORD97":2541354.1099999999,"ADDRESS":"大同路二段４０３巷１２號之１六樓","OBJECTID":410476},"geometry":{"x":169581.09000000078,"y":2541354.1099999994}},{"attributes":{"ID":410501,"DIS_CODE":0,"TOWNNAME":"東區","LI":"東安里","LIN":"3鄰","STREET":"長榮路","SECT":"二段","MAREA":" ","LANE":"２４巷","ALLEY":" ","HOUSE_NO":"６４號三樓","E_COORD97":170056.10000000001,"N_COORD97":2543043.6000000001,"ADDRESS":"長榮路二段２４巷６４號三樓","OBJECTID":410477},"geometry":{"x":170056.09999999963,"y":2543043.6000000034}},{"attributes":{"ID":410502,"DIS_CODE":0,"TOWNNAME":"東區","LI":"東安里","LIN":"3鄰","STREET":"長榮路","SECT":"二段","MAREA":" ","LANE":"２４巷","ALLEY":" ","HOUSE_NO":"６４號四樓","E_COORD97":170056.10000000001,"N_COORD97":2543043.6000000001,"ADDRESS":"長榮路二段２４巷６４號四樓","OBJECTID":410478},"geometry":{"x":170056.09999999963,"y":2543043.6000000034}},{"attributes":{"ID":410503,"DIS_CODE":0,"TOWNNAME":"東區","LI":"東安里","LIN":"3鄰","STREET":"長榮路","SECT":"二段","MAREA":" ","LANE":"２４巷","ALLEY":" ","HOUSE_NO":"６４號四樓之１","E_COORD97":170056.10000000001,"N_COORD97":2543043.6000000001,"ADDRESS":"長榮路二段２４巷６４號四樓之１","OBJECTID":410479},"geometry":{"x":170056.09999999963,"y":2543043.6000000034}},{"attributes":{"ID":410504,"DIS_CODE":0,"TOWNNAME":"東區","LI":"東安里","LIN":"3鄰","STREET":"長榮路","SECT":"二段","MAREA":" ","LANE":"２４巷","ALLEY":" ","HOUSE_NO":"６４號四樓之２","E_COORD97":170056.10000000001,"N_COORD97":2543043.6000000001,"ADDRESS":"長榮路二段２４巷６４號四樓之２","OBJECTID":410480},"geometry":{"x":170056.09999999963,"y":2543043.6000000034}},{"attributes":{"ID":410505,"DIS_CODE":0,"TOWNNAME":"東區","LI":"東安里","LIN":"3鄰","STREET":"長榮路","SECT":"二段","MAREA":" ","LANE":"２４巷","ALLEY":" ","HOUSE_NO":"６４號四樓之３","E_COORD97":170056.10000000001,"N_COORD97":2543043.6000000001,"ADDRESS":"長榮路二段２４巷６４號四樓之３","OBJECTID":410481},"geometry":{"x":170056.09999999963,"y":2543043.6000000034}},{"attributes":{"ID":410506,"DIS_CODE":0,"TOWNNAME":"東區","LI":"東安里","LIN":"3鄰","STREET":"長榮路","SECT":"二段","MAREA":" ","LANE":"２４巷","ALLEY":" ","HOUSE_NO":"６４號五樓","E_COORD97":170056.10000000001,"N_COORD97":2543043.6000000001,"ADDRESS":"長榮路二段２４巷６４號五樓","OBJECTID":410482},"geometry":{"x":170056.09999999963,"y":2543043.6000000034}},{"attributes":{"ID":410507,"DIS_CODE":0,"TOWNNAME":"東區","LI":"東安里","LIN":"3鄰","STREET":"長榮路","SECT":"二段","MAREA":" ","LANE":"２４巷","ALLEY":" ","HOUSE_NO":"６４號五樓之１","E_COORD97":170056.10000000001,"N_COORD97":2543043.6000000001,"ADDRESS":"長榮路二段２４巷６４號五樓之１","OBJECTID":410483},"geometry":{"x":170056.09999999963,"y":2543043.6000000034}},{"attributes":{"ID":410508,"DIS_CODE":0,"TOWNNAME":"東區","LI":"東安里","LIN":"3鄰","STREET":"長榮路","SECT":"二段","MAREA":" ","LANE":"２４巷","ALLEY":" ","HOUSE_NO":"６４號五樓之２","E_COORD97":170056.10000000001,"N_COORD97":2543043.6000000001,"ADDRESS":"長榮路二段２４巷６４號五樓之２","OBJECTID":410484},"geometry":{"x":170056.09999999963,"y":2543043.6000000034}},{"attributes":{"ID":410509,"DIS_CODE":0,"TOWNNAME":"東區","LI":"東安里","LIN":"3鄰","STREET":"長榮路","SECT":"二段","MAREA":" ","LANE":"２４巷","ALLEY":" ","HOUSE_NO":"６４號五樓之３","E_COORD97":170056.10000000001,"N_COORD97":2543043.6000000001,"ADDRESS":"長榮路二段２４巷６４號五樓之３","OBJECTID":410485},"geometry":{"x":170056.09999999963,"y":2543043.6000000034}},{"attributes":{"ID":410510,"DIS_CODE":0,"TOWNNAME":"東區","LI":"東安里","LIN":"3鄰","STREET":"長榮路","SECT":"二段","MAREA":" ","LANE":"２４巷","ALLEY":" ","HOUSE_NO":"６４號五樓之４","E_COORD97":170056.10000000001,"N_COORD97":2543043.6000000001,"ADDRESS":"長榮路二段２４巷６４號五樓之４","OBJECTID":410486},"geometry":{"x":170056.09999999963,"y":2543043.6000000034}},{"attributes":{"ID":410511,"DIS_CODE":0,"TOWNNAME":"東區","LI":"東安里","LIN":"3鄰","STREET":"長榮路","SECT":"二段","MAREA":" ","LANE":"２４巷","ALLEY":" ","HOUSE_NO":"６４號六樓","E_COORD97":170056.10000000001,"N_COORD97":2543043.6000000001,"ADDRESS":"長榮路二段２４巷６４號六樓","OBJECTID":410487},"geometry":{"x":170056.09999999963,"y":2543043.6000000034}},{"attributes":{"ID":410512,"DIS_CODE":0,"TOWNNAME":"東區","LI":"東安里","LIN":"3鄰","STREET":"長榮路","SECT":"二段","MAREA":" ","LANE":"２４巷","ALLEY":" ","HOUSE_NO":"６４號六樓之１","E_COORD97":170056.10000000001,"N_COORD97":2543043.6000000001,"ADDRESS":"長榮路二段２４巷６４號六樓之１","OBJECTID":410488},"geometry":{"x":170056.09999999963,"y":2543043.6000000034}},{"attributes":{"ID":410513,"DIS_CODE":0,"TOWNNAME":"東區","LI":"東安里","LIN":"3鄰","STREET":"長榮路","SECT":"二段","MAREA":" ","LANE":"２４巷","ALLEY":" ","HOUSE_NO":"６４號六樓之２","E_COORD97":170056.10000000001,"N_COORD97":2543043.6000000001,"ADDRESS":"長榮路二段２４巷６４號六樓之２","OBJECTID":410489},"geometry":{"x":170056.09999999963,"y":2543043.6000000034}},{"attributes":{"ID":410514,"DIS_CODE":0,"TOWNNAME":"東區","LI":"東安里","LIN":"3鄰","STREET":"長榮路","SECT":"二段","MAREA":" ","LANE":"２４巷","ALLEY":" ","HOUSE_NO":"６４號六樓之３","E_COORD97":170056.10000000001,"N_COORD97":2543043.6000000001,"ADDRESS":"長榮路二段２４巷６４號六樓之３","OBJECTID":410490},"geometry":{"x":170056.09999999963,"y":2543043.6000000034}},{"attributes":{"ID":410515,"DIS_CODE":0,"TOWNNAME":"東區","LI":"東安里","LIN":"3鄰","STREET":"長榮路","SECT":"二段","MAREA":" ","LANE":"２４巷","ALLEY":" ","HOUSE_NO":"６４號六樓之４","E_COORD97":170056.10000000001,"N_COORD97":2543043.6000000001,"ADDRESS":"長榮路二段２４巷６４號六樓之４","OBJECTID":410491},"geometry":{"x":170056.09999999963,"y":2543043.6000000034}},{"attributes":{"ID":410516,"DIS_CODE":0,"TOWNNAME":"東區","LI":"東安里","LIN":"3鄰","STREET":"長榮路","SECT":"二段","MAREA":" ","LANE":"２４巷","ALLEY":" ","HOUSE_NO":"６４號七樓","E_COORD97":170056.10000000001,"N_COORD97":2543043.6000000001,"ADDRESS":"長榮路二段２４巷６４號七樓","OBJECTID":410492},"geometry":{"x":170056.09999999963,"y":2543043.6000000034}},{"attributes":{"ID":410517,"DIS_CODE":0,"TOWNNAME":"東區","LI":"東安里","LIN":"3鄰","STREET":"長榮路","SECT":"二段","MAREA":" ","LANE":"２４巷","ALLEY":" ","HOUSE_NO":"６４號七樓之１","E_COORD97":170056.10000000001,"N_COORD97":2543043.6000000001,"ADDRESS":"長榮路二段２４巷６４號七樓之１","OBJECTID":410493},"geometry":{"x":170056.09999999963,"y":2543043.6000000034}},{"attributes":{"ID":410518,"DIS_CODE":0,"TOWNNAME":"東區","LI":"東安里","LIN":"3鄰","STREET":"長榮路","SECT":"二段","MAREA":" ","LANE":"２４巷","ALLEY":" ","HOUSE_NO":"６４號七樓之２","E_COORD97":170056.10000000001,"N_COORD97":2543043.6000000001,"ADDRESS":"長榮路二段２４巷６４號七樓之２","OBJECTID":410494},"geometry":{"x":170056.09999999963,"y":2543043.6000000034}},{"attributes":{"ID":410519,"DIS_CODE":0,"TOWNNAME":"東區","LI":"東安里","LIN":"3鄰","STREET":"長榮路","SECT":"二段","MAREA":" ","LANE":"２４巷","ALLEY":" ","HOUSE_NO":"６４號七樓之３","E_COORD97":170056.10000000001,"N_COORD97":2543043.6000000001,"ADDRESS":"長榮路二段２４巷６４號七樓之３","OBJECTID":410495},"geometry":{"x":170056.09999999963,"y":2543043.6000000034}},{"attributes":{"ID":410520,"DIS_CODE":0,"TOWNNAME":"東區","LI":"中西里","LIN":"3鄰","STREET":"東門路","SECT":"一段","MAREA":" ","LANE":"２６７巷","ALLEY":" ","HOUSE_NO":"５號三樓","E_COORD97":169848.07999999999,"N_COORD97":2543111.98,"ADDRESS":"東門路一段２６７巷５號三樓","OBJECTID":410496},"geometry":{"x":169848.08000000007,"y":2543111.9800000004}},{"attributes":{"ID":410521,"DIS_CODE":0,"TOWNNAME":"東區","LI":"中西里","LIN":"3鄰","STREET":"東門路","SECT":"一段","MAREA":" ","LANE":"２６７巷","ALLEY":" ","HOUSE_NO":"５號五樓","E_COORD97":169848.07999999999,"N_COORD97":2543111.98,"ADDRESS":"東門路一段２６７巷５號五樓","OBJECTID":410497},"geometry":{"x":169848.08000000007,"y":2543111.9800000004}},{"attributes":{"ID":410522,"DIS_CODE":0,"TOWNNAME":"東區","LI":"中西里","LIN":"3鄰","STREET":"東門路","SECT":"一段","MAREA":" ","LANE":"２６７巷","ALLEY":" ","HOUSE_NO":"５號四樓","E_COORD97":169848.07999999999,"N_COORD97":2543111.98,"ADDRESS":"東門路一段２６７巷５號四樓","OBJECTID":410498},"geometry":{"x":169848.08000000007,"y":2543111.9800000004}},{"attributes":{"ID":410523,"DIS_CODE":0,"TOWNNAME":"東區","LI":"中西里","LIN":"3鄰","STREET":"東門路","SECT":"一段","MAREA":" ","LANE":"２６７巷","ALLEY":" ","HOUSE_NO":"５號二樓","E_COORD97":169848.07999999999,"N_COORD97":2543111.98,"ADDRESS":"東門路一段２６７巷５號二樓","OBJECTID":410499},"geometry":{"x":169848.08000000007,"y":2543111.9800000004}},{"attributes":{"ID":410524,"DIS_CODE":0,"TOWNNAME":"東區","LI":"中西里","LIN":"3鄰","STREET":"東門路","SECT":"一段","MAREA":" ","LANE":"２６７巷","ALLEY":" ","HOUSE_NO":"６號之１二樓","E_COORD97":169868.62,"N_COORD97":2543108.1899999999,"ADDRESS":"東門路一段２６７巷６號之１二樓","OBJECTID":410500},"geometry":{"x":169868.62000000011,"y":2543108.1900000013}},{"attributes":{"ID":410525,"DIS_CODE":0,"TOWNNAME":"東區","LI":"中西里","LIN":"3鄰","STREET":"東門路","SECT":"一段","MAREA":" ","LANE":"２６７巷","ALLEY":" ","HOUSE_NO":"６號之１三樓","E_COORD97":169868.62,"N_COORD97":2543108.1899999999,"ADDRESS":"東門路一段２６７巷６號之１三樓","OBJECTID":410501},"geometry":{"x":169868.62000000011,"y":2543108.1900000013}},{"attributes":{"ID":410526,"DIS_CODE":0,"TOWNNAME":"東區","LI":"中西里","LIN":"3鄰","STREET":"東門路","SECT":"一段","MAREA":" ","LANE":"２６７巷","ALLEY":" ","HOUSE_NO":"６號之１四樓","E_COORD97":169868.62,"N_COORD97":2543108.1899999999,"ADDRESS":"東門路一段２６７巷６號之１四樓","OBJECTID":410502},"geometry":{"x":169868.62000000011,"y":2543108.1900000013}},{"attributes":{"ID":410527,"DIS_CODE":0,"TOWNNAME":"東區","LI":"中西里","LIN":"3鄰","STREET":"東門路","SECT":"一段","MAREA":" ","LANE":"２６７巷","ALLEY":" ","HOUSE_NO":"６號之１五樓","E_COORD97":169868.62,"N_COORD97":2543108.1899999999,"ADDRESS":"東門路一段２６７巷６號之１五樓","OBJECTID":410503},"geometry":{"x":169868.62000000011,"y":2543108.1900000013}},{"attributes":{"ID":410528,"DIS_CODE":0,"TOWNNAME":"永康區","LI":"北灣里","LIN":"3鄰","STREET":"文賢街","SECT":" ","MAREA":" ","LANE":"１３６巷","ALLEY":" ","HOUSE_NO":"８號十一樓之２","E_COORD97":175429.75,"N_COORD97":2545540.3799999999,"ADDRESS":"文賢街１３６巷８號十一樓之２","OBJECTID":410504},"geometry":{"x":175429.75000000186,"y":2545540.3800000008}},{"attributes":{"ID":410529,"DIS_CODE":0,"TOWNNAME":"東區","LI":"崇明里","LIN":"3鄰","STREET":"大同路","SECT":"二段","MAREA":" ","LANE":"４０３巷","ALLEY":" ","HOUSE_NO":"５２號二樓","E_COORD97":169650.57999999999,"N_COORD97":2541374.7799999998,"ADDRESS":"大同路二段４０３巷５２號二樓","OBJECTID":410505},"geometry":{"x":169650.58000000101,"y":2541374.7800000012}},{"attributes":{"ID":410530,"DIS_CODE":0,"TOWNNAME":"中西區","LI":"銀同里","LIN":"3鄰","STREET":"開山路","SECT":" ","MAREA":" ","LANE":"１０９巷","ALLEY":" ","HOUSE_NO":"９號一樓之１","E_COORD97":168768.72,"N_COORD97":2543354.29,"ADDRESS":"開山路１０９巷９號一樓之１","OBJECTID":410506},"geometry":{"x":168768.71999999974,"y":2543354.290000001}},{"attributes":{"ID":410531,"DIS_CODE":0,"TOWNNAME":"中西區","LI":"銀同里","LIN":"3鄰","STREET":"開山路","SECT":" ","MAREA":" ","LANE":"１０９巷","ALLEY":" ","HOUSE_NO":"９號一樓之２","E_COORD97":168774.87,"N_COORD97":2543353.7999999998,"ADDRESS":"開山路１０９巷９號一樓之２","OBJECTID":410507},"geometry":{"x":168774.87000000011,"y":2543353.8000000007}},{"attributes":{"ID":410532,"DIS_CODE":0,"TOWNNAME":"中西區","LI":"銀同里","LIN":"3鄰","STREET":"開山路","SECT":" ","MAREA":" ","LANE":"１０９巷","ALLEY":" ","HOUSE_NO":"９號一樓之３","E_COORD97":168778.54000000001,"N_COORD97":2543354.6499999999,"ADDRESS":"開山路１０９巷９號一樓之３","OBJECTID":410508},"geometry":{"x":168778.54000000004,"y":2543354.6500000004}},{"attributes":{"ID":410533,"DIS_CODE":0,"TOWNNAME":"中西區","LI":"銀同里","LIN":"3鄰","STREET":"開山路","SECT":" ","MAREA":" ","LANE":"１０９巷","ALLEY":" ","HOUSE_NO":"９號一樓之４","E_COORD97":168782.45000000001,"N_COORD97":2543354.6499999999,"ADDRESS":"開山路１０９巷９號一樓之４","OBJECTID":410509},"geometry":{"x":168782.45000000112,"y":2543354.6500000004}},{"attributes":{"ID":410534,"DIS_CODE":0,"TOWNNAME":"中西區","LI":"銀同里","LIN":"3鄰","STREET":"開山路","SECT":" ","MAREA":" ","LANE":"１０９巷","ALLEY":" ","HOUSE_NO":"９號一樓之５","E_COORD97":168786.60999999999,"N_COORD97":2543355.6299999999,"ADDRESS":"開山路１０９巷９號一樓之５","OBJECTID":410510},"geometry":{"x":168786.61000000127,"y":2543355.6300000008}},{"attributes":{"ID":410535,"DIS_CODE":0,"TOWNNAME":"中西區","LI":"銀同里","LIN":"3鄰","STREET":"開山路","SECT":" ","MAREA":" ","LANE":"１０９巷","ALLEY":" ","HOUSE_NO":"９號二樓之１","E_COORD97":168768.72,"N_COORD97":2543354.29,"ADDRESS":"開山路１０９巷９號二樓之１","OBJECTID":410511},"geometry":{"x":168768.71999999974,"y":2543354.290000001}},{"attributes":{"ID":410536,"DIS_CODE":0,"TOWNNAME":"中西區","LI":"銀同里","LIN":"3鄰","STREET":"開山路","SECT":" ","MAREA":" ","LANE":"１０９巷","ALLEY":" ","HOUSE_NO":"９號二樓之２","E_COORD97":168774.87,"N_COORD97":2543353.7999999998,"ADDRESS":"開山路１０９巷９號二樓之２","OBJECTID":410512},"geometry":{"x":168774.87000000011,"y":2543353.8000000007}},{"attributes":{"ID":410537,"DIS_CODE":0,"TOWNNAME":"中西區","LI":"銀同里","LIN":"3鄰","STREET":"開山路","SECT":" ","MAREA":" ","LANE":"１０９巷","ALLEY":" ","HOUSE_NO":"９號二樓之３","E_COORD97":168778.54000000001,"N_COORD97":2543354.6499999999,"ADDRESS":"開山路１０９巷９號二樓之３","OBJECTID":410513},"geometry":{"x":168778.54000000004,"y":2543354.6500000004}},{"attributes":{"ID":410538,"DIS_CODE":0,"TOWNNAME":"中西區","LI":"銀同里","LIN":"3鄰","STREET":"開山路","SECT":" ","MAREA":" ","LANE":"１０９巷","ALLEY":" ","HOUSE_NO":"９號二樓之４","E_COORD97":168782.45000000001,"N_COORD97":2543354.6499999999,"ADDRESS":"開山路１０９巷９號二樓之４","OBJECTID":410514},"geometry":{"x":168782.45000000112,"y":2543354.6500000004}},{"attributes":{"ID":410539,"DIS_CODE":0,"TOWNNAME":"中西區","LI":"銀同里","LIN":"3鄰","STREET":"開山路","SECT":" ","MAREA":" ","LANE":"１０９巷","ALLEY":" ","HOUSE_NO":"９號二樓之５","E_COORD97":168786.60999999999,"N_COORD97":2543355.6299999999,"ADDRESS":"開山路１０９巷９號二樓之５","OBJECTID":410515},"geometry":{"x":168786.61000000127,"y":2543355.6300000008}},{"attributes":{"ID":410540,"DIS_CODE":0,"TOWNNAME":"中西區","LI":"銀同里","LIN":"3鄰","STREET":"開山路","SECT":" ","MAREA":" ","LANE":"１０９巷","ALLEY":" ","HOUSE_NO":"９號三樓之１","E_COORD97":168768.72,"N_COORD97":2543354.29,"ADDRESS":"開山路１０９巷９號三樓之１","OBJECTID":410516},"geometry":{"x":168768.71999999974,"y":2543354.290000001}},{"attributes":{"ID":410541,"DIS_CODE":0,"TOWNNAME":"中西區","LI":"銀同里","LIN":"3鄰","STREET":"開山路","SECT":" ","MAREA":" ","LANE":"１０９巷","ALLEY":" ","HOUSE_NO":"９號三樓之２","E_COORD97":168774.87,"N_COORD97":2543353.7999999998,"ADDRESS":"開山路１０９巷９號三樓之２","OBJECTID":410517},"geometry":{"x":168774.87000000011,"y":2543353.8000000007}},{"attributes":{"ID":410542,"DIS_CODE":0,"TOWNNAME":"中西區","LI":"銀同里","LIN":"3鄰","STREET":"開山路","SECT":" ","MAREA":" ","LANE":"１０９巷","ALLEY":" ","HOUSE_NO":"９號三樓之３","E_COORD97":168778.54000000001,"N_COORD97":2543354.6499999999,"ADDRESS":"開山路１０９巷９號三樓之３","OBJECTID":410518},"geometry":{"x":168778.54000000004,"y":2543354.6500000004}},{"attributes":{"ID":410543,"DIS_CODE":0,"TOWNNAME":"東區","LI":"東光里","LIN":"32鄰","STREET":"東平路","SECT":" ","MAREA":" ","LANE":"９９巷","ALLEY":" ","HOUSE_NO":"１０號","E_COORD97":171149.41,"N_COORD97":2543903.2200000002,"ADDRESS":"東平路９９巷１０號","OBJECTID":410519},"geometry":{"x":171149.41000000015,"y":2543903.2200000007}},{"attributes":{"ID":410544,"DIS_CODE":0,"TOWNNAME":"中西區","LI":"銀同里","LIN":"3鄰","STREET":"開山路","SECT":" ","MAREA":" ","LANE":"１０９巷","ALLEY":" ","HOUSE_NO":"９號三樓之４","E_COORD97":168782.45000000001,"N_COORD97":2543354.6499999999,"ADDRESS":"開山路１０９巷９號三樓之４","OBJECTID":410520},"geometry":{"x":168782.45000000112,"y":2543354.6500000004}},{"attributes":{"ID":410545,"DIS_CODE":0,"TOWNNAME":"中西區","LI":"銀同里","LIN":"3鄰","STREET":"開山路","SECT":" ","MAREA":" ","LANE":"１０９巷","ALLEY":" ","HOUSE_NO":"９號三樓之５","E_COORD97":168786.60999999999,"N_COORD97":2543355.6299999999,"ADDRESS":"開山路１０９巷９號三樓之５","OBJECTID":410521},"geometry":{"x":168786.61000000127,"y":2543355.6300000008}},{"attributes":{"ID":410546,"DIS_CODE":0,"TOWNNAME":"中西區","LI":"銀同里","LIN":"3鄰","STREET":"開山路","SECT":" ","MAREA":" ","LANE":"１０９巷","ALLEY":" ","HOUSE_NO":"９號五樓之１","E_COORD97":168768.72,"N_COORD97":2543354.29,"ADDRESS":"開山路１０９巷９號五樓之１","OBJECTID":410522},"geometry":{"x":168768.71999999974,"y":2543354.290000001}},{"attributes":{"ID":410547,"DIS_CODE":0,"TOWNNAME":"中西區","LI":"銀同里","LIN":"3鄰","STREET":"開山路","SECT":" ","MAREA":" ","LANE":"１０９巷","ALLEY":" ","HOUSE_NO":"９號五樓之２","E_COORD97":168774.87,"N_COORD97":2543353.7999999998,"ADDRESS":"開山路１０９巷９號五樓之２","OBJECTID":410523},"geometry":{"x":168774.87000000011,"y":2543353.8000000007}},{"attributes":{"ID":410548,"DIS_CODE":0,"TOWNNAME":"中西區","LI":"銀同里","LIN":"3鄰","STREET":"開山路","SECT":" ","MAREA":" ","LANE":"１０９巷","ALLEY":" ","HOUSE_NO":"９號五樓之３","E_COORD97":168778.54000000001,"N_COORD97":2543354.6499999999,"ADDRESS":"開山路１０９巷９號五樓之３","OBJECTID":410524},"geometry":{"x":168778.54000000004,"y":2543354.6500000004}},{"attributes":{"ID":410549,"DIS_CODE":0,"TOWNNAME":"中西區","LI":"銀同里","LIN":"3鄰","STREET":"開山路","SECT":" ","MAREA":" ","LANE":"１０９巷","ALLEY":" ","HOUSE_NO":"９號五樓之４","E_COORD97":168782.45000000001,"N_COORD97":2543354.6499999999,"ADDRESS":"開山路１０９巷９號五樓之４","OBJECTID":410525},"geometry":{"x":168782.45000000112,"y":2543354.6500000004}},{"attributes":{"ID":410550,"DIS_CODE":0,"TOWNNAME":"中西區","LI":"保安里","LIN":"3鄰","STREET":"保安路","SECT":" ","MAREA":" ","LANE":"５８巷","ALLEY":" ","HOUSE_NO":"１號","E_COORD97":167609.23999999999,"N_COORD97":2543453.6800000002,"ADDRESS":"保安路５８巷１號","OBJECTID":410526},"geometry":{"x":167609.24000000115,"y":2543453.6800000016}},{"attributes":{"ID":410551,"DIS_CODE":0,"TOWNNAME":"中西區","LI":"銀同里","LIN":"3鄰","STREET":"開山路","SECT":" ","MAREA":" ","LANE":"１０９巷","ALLEY":" ","HOUSE_NO":"９號五樓之５","E_COORD97":168786.60999999999,"N_COORD97":2543355.6299999999,"ADDRESS":"開山路１０９巷９號五樓之５","OBJECTID":410527},"geometry":{"x":168786.61000000127,"y":2543355.6300000008}},{"attributes":{"ID":410552,"DIS_CODE":0,"TOWNNAME":"東區","LI":"東光里","LIN":"30鄰","STREET":"東平路","SECT":" ","MAREA":" ","LANE":"９巷","ALLEY":" ","HOUSE_NO":"３１號","E_COORD97":171438.31,"N_COORD97":2543815.23,"ADDRESS":"東平路９巷３１號","OBJECTID":410528},"geometry":{"x":171438.30999999866,"y":2543815.2300000004}},{"attributes":{"ID":410553,"DIS_CODE":0,"TOWNNAME":"中西區","LI":"銀同里","LIN":"3鄰","STREET":"開山路","SECT":" ","MAREA":" ","LANE":"１０９巷","ALLEY":" ","HOUSE_NO":"９號四樓之１","E_COORD97":168768.72,"N_COORD97":2543354.29,"ADDRESS":"開山路１０９巷９號四樓之１","OBJECTID":410529},"geometry":{"x":168768.71999999974,"y":2543354.290000001}},{"attributes":{"ID":410554,"DIS_CODE":0,"TOWNNAME":"中西區","LI":"銀同里","LIN":"3鄰","STREET":"開山路","SECT":" ","MAREA":" ","LANE":"１０９巷","ALLEY":" ","HOUSE_NO":"９號四樓之２","E_COORD97":168774.87,"N_COORD97":2543353.7999999998,"ADDRESS":"開山路１０９巷９號四樓之２","OBJECTID":410530},"geometry":{"x":168774.87000000011,"y":2543353.8000000007}},{"attributes":{"ID":410555,"DIS_CODE":0,"TOWNNAME":"中西區","LI":"銀同里","LIN":"3鄰","STREET":"開山路","SECT":" ","MAREA":" ","LANE":"１０９巷","ALLEY":" ","HOUSE_NO":"９號四樓之３","E_COORD97":168778.54000000001,"N_COORD97":2543354.6499999999,"ADDRESS":"開山路１０９巷９號四樓之３","OBJECTID":410531},"geometry":{"x":168778.54000000004,"y":2543354.6500000004}},{"attributes":{"ID":410556,"DIS_CODE":0,"TOWNNAME":"中西區","LI":"銀同里","LIN":"3鄰","STREET":"開山路","SECT":" ","MAREA":" ","LANE":"１０９巷","ALLEY":" ","HOUSE_NO":"９號四樓之４","E_COORD97":168782.45000000001,"N_COORD97":2543354.6499999999,"ADDRESS":"開山路１０９巷９號四樓之４","OBJECTID":410532},"geometry":{"x":168782.45000000112,"y":2543354.6500000004}},{"attributes":{"ID":410557,"DIS_CODE":0,"TOWNNAME":"中西區","LI":"銀同里","LIN":"3鄰","STREET":"開山路","SECT":" ","MAREA":" ","LANE":"１０９巷","ALLEY":" ","HOUSE_NO":"９號四樓之５","E_COORD97":168786.60999999999,"N_COORD97":2543355.6299999999,"ADDRESS":"開山路１０９巷９號四樓之５","OBJECTID":410533},"geometry":{"x":168786.61000000127,"y":2543355.6300000008}},{"attributes":{"ID":410558,"DIS_CODE":0,"TOWNNAME":"中西區","LI":"銀同里","LIN":"3鄰","STREET":"開山路","SECT":" ","MAREA":" ","LANE":"８９巷","ALLEY":" ","HOUSE_NO":"１７號二樓之１","E_COORD97":168750.78,"N_COORD97":2543382.9100000001,"ADDRESS":"開山路８９巷１７號二樓之１","OBJECTID":410534},"geometry":{"x":168750.78000000212,"y":2543382.9100000001}},{"attributes":{"ID":410559,"DIS_CODE":0,"TOWNNAME":"中西區","LI":"銀同里","LIN":"3鄰","STREET":"開山路","SECT":" ","MAREA":" ","LANE":"８９巷","ALLEY":" ","HOUSE_NO":"１７號二樓之２","E_COORD97":168750.78,"N_COORD97":2543382.9100000001,"ADDRESS":"開山路８９巷１７號二樓之２","OBJECTID":410535},"geometry":{"x":168750.78000000212,"y":2543382.9100000001}},{"attributes":{"ID":410560,"DIS_CODE":0,"TOWNNAME":"東區","LI":"東光里","LIN":"32鄰","STREET":"東平路","SECT":" ","MAREA":" ","LANE":"９９巷","ALLEY":" ","HOUSE_NO":"１２號","E_COORD97":171144.39999999999,"N_COORD97":2543907.52,"ADDRESS":"東平路９９巷１２號","OBJECTID":410536},"geometry":{"x":171144.4000000013,"y":2543907.5199999996}},{"attributes":{"ID":410561,"DIS_CODE":0,"TOWNNAME":"東區","LI":"東光里","LIN":"32鄰","STREET":"東平路","SECT":" ","MAREA":" ","LANE":"９９巷","ALLEY":" ","HOUSE_NO":"１４號","E_COORD97":171137.95999999999,"N_COORD97":2543904.6600000001,"ADDRESS":"東平路９９巷１４號","OBJECTID":410537},"geometry":{"x":171137.96000000089,"y":2543904.6600000039}},{"attributes":{"ID":410562,"DIS_CODE":0,"TOWNNAME":"東區","LI":"東光里","LIN":"32鄰","STREET":"東平路","SECT":" ","MAREA":" ","LANE":"９９巷","ALLEY":" ","HOUSE_NO":"１６號","E_COORD97":171134.37,"N_COORD97":2543907.52,"ADDRESS":"東平路９９巷１６號","OBJECTID":410538},"geometry":{"x":171134.37000000011,"y":2543907.5199999996}},{"attributes":{"ID":410563,"DIS_CODE":0,"TOWNNAME":"東區","LI":"東光里","LIN":"33鄰","STREET":"東平路","SECT":" ","MAREA":" ","LANE":"９９巷","ALLEY":" ","HOUSE_NO":"１６號之１０","E_COORD97":171100.32999999999,"N_COORD97":2543878.75,"ADDRESS":"東平路９９巷１６號之１０","OBJECTID":410539},"geometry":{"x":171100.33000000101,"y":2543878.75}},{"attributes":{"ID":410564,"DIS_CODE":0,"TOWNNAME":"東區","LI":"東光里","LIN":"33鄰","STREET":"東平路","SECT":" ","MAREA":" ","LANE":"９９巷","ALLEY":" ","HOUSE_NO":"１６號之１１","E_COORD97":171091.32000000001,"N_COORD97":2543880.1099999999,"ADDRESS":"東平路９９巷１６號之１１","OBJECTID":410540},"geometry":{"x":171091.3200000003,"y":2543880.1099999994}},{"attributes":{"ID":410565,"DIS_CODE":0,"TOWNNAME":"東區","LI":"崇學里","LIN":"13鄰","STREET":"崇明路","SECT":" ","MAREA":" ","LANE":" ","ALLEY":" ","HOUSE_NO":"３０１號","E_COORD97":170186.10999999999,"N_COORD97":2541866.3100000001,"ADDRESS":"崇明路３０１號","OBJECTID":410541},"geometry":{"x":170186.1100000022,"y":2541866.3100000042}},{"attributes":{"ID":410566,"DIS_CODE":0,"TOWNNAME":"東區","LI":"東光里","LIN":"33鄰","STREET":"東平路","SECT":" ","MAREA":" ","LANE":"９９巷","ALLEY":" ","HOUSE_NO":"１６號之１２","E_COORD97":171092.17000000001,"N_COORD97":2543885.0299999998,"ADDRESS":"東平路９９巷１６號之１２","OBJECTID":410542},"geometry":{"x":171092.17000000179,"y":2543885.0300000012}},{"attributes":{"ID":410567,"DIS_CODE":0,"TOWNNAME":"東區","LI":"東光里","LIN":"33鄰","STREET":"東平路","SECT":" ","MAREA":" ","LANE":"９９巷","ALLEY":" ","HOUSE_NO":"１６號之５","E_COORD97":171093.19,"N_COORD97":2543893.52,"ADDRESS":"東平路９９巷１６號之５","OBJECTID":410543},"geometry":{"x":171093.19000000134,"y":2543893.5199999996}},{"attributes":{"ID":410568,"DIS_CODE":0,"TOWNNAME":"中西區","LI":"銀同里","LIN":"3鄰","STREET":"開山路","SECT":" ","MAREA":" ","LANE":"８９巷","ALLEY":" ","HOUSE_NO":"１７號三樓之１","E_COORD97":168750.78,"N_COORD97":2543382.9100000001,"ADDRESS":"開山路８９巷１７號三樓之１","OBJECTID":410544},"geometry":{"x":168750.78000000212,"y":2543382.9100000001}},{"attributes":{"ID":410569,"DIS_CODE":0,"TOWNNAME":"中西區","LI":"銀同里","LIN":"3鄰","STREET":"開山路","SECT":" ","MAREA":" ","LANE":"８９巷","ALLEY":" ","HOUSE_NO":"１７號三樓之２","E_COORD97":168750.78,"N_COORD97":2543382.9100000001,"ADDRESS":"開山路８９巷１７號三樓之２","OBJECTID":410545},"geometry":{"x":168750.78000000212,"y":2543382.9100000001}},{"attributes":{"ID":410570,"DIS_CODE":0,"TOWNNAME":"中西區","LI":"銀同里","LIN":"3鄰","STREET":"開山路","SECT":" ","MAREA":" ","LANE":"８９巷","ALLEY":" ","HOUSE_NO":"１７號五樓之１","E_COORD97":168750.78,"N_COORD97":2543382.9100000001,"ADDRESS":"開山路８９巷１７號五樓之１","OBJECTID":410546},"geometry":{"x":168750.78000000212,"y":2543382.9100000001}},{"attributes":{"ID":410571,"DIS_CODE":0,"TOWNNAME":"中西區","LI":"銀同里","LIN":"3鄰","STREET":"開山路","SECT":" ","MAREA":" ","LANE":"８９巷","ALLEY":" ","HOUSE_NO":"１７號五樓之２","E_COORD97":168750.78,"N_COORD97":2543382.9100000001,"ADDRESS":"開山路８９巷１７號五樓之２","OBJECTID":410547},"geometry":{"x":168750.78000000212,"y":2543382.9100000001}},{"attributes":{"ID":410572,"DIS_CODE":0,"TOWNNAME":"中西區","LI":"銀同里","LIN":"3鄰","STREET":"開山路","SECT":" ","MAREA":" ","LANE":"８９巷","ALLEY":" ","HOUSE_NO":"１７號四樓之２","E_COORD97":168750.78,"N_COORD97":2543382.9100000001,"ADDRESS":"開山路８９巷１７號四樓之２","OBJECTID":410548},"geometry":{"x":168750.78000000212,"y":2543382.9100000001}},{"attributes":{"ID":410573,"DIS_CODE":0,"TOWNNAME":"中西區","LI":"銀同里","LIN":"3鄰","STREET":"開山路","SECT":" ","MAREA":" ","LANE":"８９巷","ALLEY":" ","HOUSE_NO":"９號一樓之１","E_COORD97":168750.81,"N_COORD97":2543404.1400000001,"ADDRESS":"開山路８９巷９號一樓之１","OBJECTID":410549},"geometry":{"x":168750.80999999959,"y":2543404.1400000025}},{"attributes":{"ID":410574,"DIS_CODE":0,"TOWNNAME":"中西區","LI":"銀同里","LIN":"3鄰","STREET":"開山路","SECT":" ","MAREA":" ","LANE":"８９巷","ALLEY":" ","HOUSE_NO":"９號一樓之２","E_COORD97":168751.31,"N_COORD97":2543400.3300000001,"ADDRESS":"開山路８９巷９號一樓之２","OBJECTID":410550},"geometry":{"x":168751.30999999959,"y":2543400.3300000001}},{"attributes":{"ID":410575,"DIS_CODE":0,"TOWNNAME":"中西區","LI":"銀同里","LIN":"3鄰","STREET":"開山路","SECT":" ","MAREA":" ","LANE":"８９巷","ALLEY":" ","HOUSE_NO":"９號一樓之３","E_COORD97":168752.47,"N_COORD97":2543397.5099999998,"ADDRESS":"開山路８９巷９號一樓之３","OBJECTID":410551},"geometry":{"x":168752.47000000067,"y":2543397.5100000016}},{"attributes":{"ID":410576,"DIS_CODE":0,"TOWNNAME":"中西區","LI":"銀同里","LIN":"3鄰","STREET":"開山路","SECT":" ","MAREA":" ","LANE":"８９巷","ALLEY":" ","HOUSE_NO":"９號一樓之４","E_COORD97":168752.97,"N_COORD97":2543393.54,"ADDRESS":"開山路８９巷９號一樓之４","OBJECTID":410552},"geometry":{"x":168752.97000000067,"y":2543393.540000001}},{"attributes":{"ID":410577,"DIS_CODE":0,"TOWNNAME":"中西區","LI":"銀同里","LIN":"3鄰","STREET":"開山路","SECT":" ","MAREA":" ","LANE":"８９巷","ALLEY":" ","HOUSE_NO":"９號二樓之１","E_COORD97":168750.81,"N_COORD97":2543404.1400000001,"ADDRESS":"開山路８９巷９號二樓之１","OBJECTID":410553},"geometry":{"x":168750.80999999959,"y":2543404.1400000025}},{"attributes":{"ID":410578,"DIS_CODE":0,"TOWNNAME":"中西區","LI":"銀同里","LIN":"3鄰","STREET":"開山路","SECT":" ","MAREA":" ","LANE":"８９巷","ALLEY":" ","HOUSE_NO":"９號二樓之２","E_COORD97":168751.31,"N_COORD97":2543400.3300000001,"ADDRESS":"開山路８９巷９號二樓之２","OBJECTID":410554},"geometry":{"x":168751.30999999959,"y":2543400.3300000001}},{"attributes":{"ID":410579,"DIS_CODE":0,"TOWNNAME":"中西區","LI":"銀同里","LIN":"3鄰","STREET":"開山路","SECT":" ","MAREA":" ","LANE":"８９巷","ALLEY":" ","HOUSE_NO":"９號二樓之３","E_COORD97":168752.47,"N_COORD97":2543397.5099999998,"ADDRESS":"開山路８９巷９號二樓之３","OBJECTID":410555},"geometry":{"x":168752.47000000067,"y":2543397.5100000016}},{"attributes":{"ID":410580,"DIS_CODE":0,"TOWNNAME":"中西區","LI":"銀同里","LIN":"3鄰","STREET":"開山路","SECT":" ","MAREA":" ","LANE":"８９巷","ALLEY":" ","HOUSE_NO":"９號二樓之４","E_COORD97":168752.97,"N_COORD97":2543393.54,"ADDRESS":"開山路８９巷９號二樓之４","OBJECTID":410556},"geometry":{"x":168752.97000000067,"y":2543393.540000001}},{"attributes":{"ID":410581,"DIS_CODE":0,"TOWNNAME":"中西區","LI":"銀同里","LIN":"3鄰","STREET":"開山路","SECT":" ","MAREA":" ","LANE":"８９巷","ALLEY":" ","HOUSE_NO":"９號三樓之１","E_COORD97":168750.81,"N_COORD97":2543404.1400000001,"ADDRESS":"開山路８９巷９號三樓之１","OBJECTID":410557},"geometry":{"x":168750.80999999959,"y":2543404.1400000025}},{"attributes":{"ID":410582,"DIS_CODE":0,"TOWNNAME":"東區","LI":"關聖里","LIN":"21鄰","STREET":"裕善街","SECT":" ","MAREA":" ","LANE":" ","ALLEY":" ","HOUSE_NO":"５號","E_COORD97":172698.45000000001,"N_COORD97":2543085.7200000002,"ADDRESS":"裕善街５號","OBJECTID":410558},"geometry":{"x":172698.45000000112,"y":2543085.7200000025}},{"attributes":{"ID":410583,"DIS_CODE":0,"TOWNNAME":"中西區","LI":"銀同里","LIN":"3鄰","STREET":"開山路","SECT":" ","MAREA":" ","LANE":"８９巷","ALLEY":" ","HOUSE_NO":"９號三樓之２","E_COORD97":168751.31,"N_COORD97":2543400.3300000001,"ADDRESS":"開山路８９巷９號三樓之２","OBJECTID":410559},"geometry":{"x":168751.30999999959,"y":2543400.3300000001}},{"attributes":{"ID":410584,"DIS_CODE":0,"TOWNNAME":"中西區","LI":"銀同里","LIN":"3鄰","STREET":"開山路","SECT":" ","MAREA":" ","LANE":"８９巷","ALLEY":" ","HOUSE_NO":"９號三樓之３","E_COORD97":168752.47,"N_COORD97":2543397.5099999998,"ADDRESS":"開山路８９巷９號三樓之３","OBJECTID":410560},"geometry":{"x":168752.47000000067,"y":2543397.5100000016}},{"attributes":{"ID":410585,"DIS_CODE":0,"TOWNNAME":"中西區","LI":"銀同里","LIN":"3鄰","STREET":"開山路","SECT":" ","MAREA":" ","LANE":"８９巷","ALLEY":" ","HOUSE_NO":"９號三樓之４","E_COORD97":168752.97,"N_COORD97":2543393.54,"ADDRESS":"開山路８９巷９號三樓之４","OBJECTID":410561},"geometry":{"x":168752.97000000067,"y":2543393.540000001}},{"attributes":{"ID":410586,"DIS_CODE":0,"TOWNNAME":"中西區","LI":"銀同里","LIN":"3鄰","STREET":"開山路","SECT":" ","MAREA":" ","LANE":"８９巷","ALLEY":" ","HOUSE_NO":"９號五樓之１","E_COORD97":168750.81,"N_COORD97":2543404.1400000001,"ADDRESS":"開山路８９巷９號五樓之１","OBJECTID":410562},"geometry":{"x":168750.80999999959,"y":2543404.1400000025}},{"attributes":{"ID":410587,"DIS_CODE":0,"TOWNNAME":"中西區","LI":"銀同里","LIN":"3鄰","STREET":"開山路","SECT":" ","MAREA":" ","LANE":"８９巷","ALLEY":" ","HOUSE_NO":"９號五樓之２","E_COORD97":168751.31,"N_COORD97":2543400.3300000001,"ADDRESS":"開山路８９巷９號五樓之２","OBJECTID":410563},"geometry":{"x":168751.30999999959,"y":2543400.3300000001}},{"attributes":{"ID":410588,"DIS_CODE":0,"TOWNNAME":"中西區","LI":"銀同里","LIN":"3鄰","STREET":"開山路","SECT":" ","MAREA":" ","LANE":"８９巷","ALLEY":" ","HOUSE_NO":"９號五樓之３","E_COORD97":168752.47,"N_COORD97":2543397.5099999998,"ADDRESS":"開山路８９巷９號五樓之３","OBJECTID":410564},"geometry":{"x":168752.47000000067,"y":2543397.5100000016}},{"attributes":{"ID":410589,"DIS_CODE":0,"TOWNNAME":"中西區","LI":"銀同里","LIN":"3鄰","STREET":"開山路","SECT":" ","MAREA":" ","LANE":"８９巷","ALLEY":" ","HOUSE_NO":"９號五樓之４","E_COORD97":168752.97,"N_COORD97":2543393.54,"ADDRESS":"開山路８９巷９號五樓之４","OBJECTID":410565},"geometry":{"x":168752.97000000067,"y":2543393.540000001}},{"attributes":{"ID":410590,"DIS_CODE":0,"TOWNNAME":"中西區","LI":"銀同里","LIN":"3鄰","STREET":"開山路","SECT":" ","MAREA":" ","LANE":"８９巷","ALLEY":" ","HOUSE_NO":"９號四樓之１","E_COORD97":168750.81,"N_COORD97":2543404.1400000001,"ADDRESS":"開山路８９巷９號四樓之１","OBJECTID":410566},"geometry":{"x":168750.80999999959,"y":2543404.1400000025}},{"attributes":{"ID":410591,"DIS_CODE":0,"TOWNNAME":"中西區","LI":"銀同里","LIN":"3鄰","STREET":"開山路","SECT":" ","MAREA":" ","LANE":"８９巷","ALLEY":" ","HOUSE_NO":"９號四樓之２","E_COORD97":168751.31,"N_COORD97":2543400.3300000001,"ADDRESS":"開山路８９巷９號四樓之２","OBJECTID":410567},"geometry":{"x":168751.30999999959,"y":2543400.3300000001}},{"attributes":{"ID":410592,"DIS_CODE":0,"TOWNNAME":"東區","LI":"東光里","LIN":"33鄰","STREET":"東平路","SECT":" ","MAREA":" ","LANE":"９９巷","ALLEY":" ","HOUSE_NO":"１６號之６","E_COORD97":171101.51999999999,"N_COORD97":2543892.6699999999,"ADDRESS":"東平路９９巷１６號之６","OBJECTID":410568},"geometry":{"x":171101.52000000048,"y":2543892.6699999999}},{"attributes":{"ID":410593,"DIS_CODE":0,"TOWNNAME":"東區","LI":"東光里","LIN":"33鄰","STREET":"東平路","SECT":" ","MAREA":" ","LANE":"９９巷","ALLEY":" ","HOUSE_NO":"１６號之７","E_COORD97":171110.51999999999,"N_COORD97":2543890.6400000001,"ADDRESS":"東平路９９巷１６號之７","OBJECTID":410569},"geometry":{"x":171110.52000000048,"y":2543890.6400000006}},{"attributes":{"ID":410594,"DIS_CODE":0,"TOWNNAME":"東區","LI":"東光里","LIN":"33鄰","STREET":"東平路","SECT":" ","MAREA":" ","LANE":"９９巷","ALLEY":" ","HOUSE_NO":"１６號之８","E_COORD97":171109.67000000001,"N_COORD97":2543884.3599999999,"ADDRESS":"東平路９９巷１６號之８","OBJECTID":410570},"geometry":{"x":171109.67000000086,"y":2543884.3599999994}},{"attributes":{"ID":410595,"DIS_CODE":0,"TOWNNAME":"東區","LI":"東光里","LIN":"33鄰","STREET":"東平路","SECT":" ","MAREA":" ","LANE":"９９巷","ALLEY":" ","HOUSE_NO":"１６號之９","E_COORD97":171107.97,"N_COORD97":2543877.5699999998,"ADDRESS":"東平路９９巷１６號之９","OBJECTID":410571},"geometry":{"x":171107.96999999974,"y":2543877.5700000003}},{"attributes":{"ID":410596,"DIS_CODE":0,"TOWNNAME":"東區","LI":"東光里","LIN":"33鄰","STREET":"東平路","SECT":" ","MAREA":" ","LANE":"９９巷","ALLEY":" ","HOUSE_NO":"１８號","E_COORD97":171130.91,"N_COORD97":2543879.9300000002,"ADDRESS":"東平路９９巷１８號","OBJECTID":410572},"geometry":{"x":171130.91000000015,"y":2543879.9300000016}},{"attributes":{"ID":410597,"DIS_CODE":0,"TOWNNAME":"東區","LI":"東光里","LIN":"33鄰","STREET":"東平路","SECT":" ","MAREA":" ","LANE":"９９巷","ALLEY":" ","HOUSE_NO":"２０號","E_COORD97":171135.75,"N_COORD97":2543878.02,"ADDRESS":"東平路９９巷２０號","OBJECTID":410573},"geometry":{"x":171135.75000000186,"y":2543878.0200000033}},{"attributes":{"ID":410598,"DIS_CODE":0,"TOWNNAME":"東區","LI":"東光里","LIN":"33鄰","STREET":"東平路","SECT":" ","MAREA":" ","LANE":"９９巷","ALLEY":" ","HOUSE_NO":"２２號","E_COORD97":171141.04999999999,"N_COORD97":2543879.3700000001,"ADDRESS":"東平路９９巷２２號","OBJECTID":410574},"geometry":{"x":171141.05000000075,"y":2543879.370000001}},{"attributes":{"ID":410599,"DIS_CODE":0,"TOWNNAME":"東區","LI":"東光里","LIN":"33鄰","STREET":"東平路","SECT":" ","MAREA":" ","LANE":"９９巷","ALLEY":" ","HOUSE_NO":"２４號","E_COORD97":171145.54999999999,"N_COORD97":2543876.3300000001,"ADDRESS":"東平路９９巷２４號","OBJECTID":410575},"geometry":{"x":171145.55000000168,"y":2543876.3300000038}},{"attributes":{"ID":410600,"DIS_CODE":0,"TOWNNAME":"中西區","LI":"銀同里","LIN":"3鄰","STREET":"開山路","SECT":" ","MAREA":" ","LANE":"８９巷","ALLEY":" ","HOUSE_NO":"９號四樓之３","E_COORD97":168752.47,"N_COORD97":2543397.5099999998,"ADDRESS":"開山路８９巷９號四樓之３","OBJECTID":410576},"geometry":{"x":168752.47000000067,"y":2543397.5100000016}},{"attributes":{"ID":410601,"DIS_CODE":0,"TOWNNAME":"中西區","LI":"銀同里","LIN":"3鄰","STREET":"開山路","SECT":" ","MAREA":" ","LANE":"８９巷","ALLEY":" ","HOUSE_NO":"９號四樓之４","E_COORD97":168752.97,"N_COORD97":2543393.54,"ADDRESS":"開山路８９巷９號四樓之４","OBJECTID":410577},"geometry":{"x":168752.97000000067,"y":2543393.540000001}},{"attributes":{"ID":410602,"DIS_CODE":0,"TOWNNAME":"東區","LI":"東光里","LIN":"34鄰","STREET":"莊敬路","SECT":" ","MAREA":" ","LANE":"２１巷","ALLEY":" ","HOUSE_NO":"１０號","E_COORD97":171293.92000000001,"N_COORD97":2543782.8700000001,"ADDRESS":"莊敬路２１巷１０號","OBJECTID":410578},"geometry":{"x":171293.92000000179,"y":2543782.8700000029}},{"attributes":{"ID":410603,"DIS_CODE":0,"TOWNNAME":"東區","LI":"東光里","LIN":"34鄰","STREET":"莊敬路","SECT":" ","MAREA":" ","LANE":"２１巷","ALLEY":" ","HOUSE_NO":"１２號","E_COORD97":171295.42000000001,"N_COORD97":2543789.3300000001,"ADDRESS":"莊敬路２１巷１２號","OBJECTID":410579},"geometry":{"x":171295.41999999993,"y":2543789.3300000019}},{"attributes":{"ID":410604,"DIS_CODE":0,"TOWNNAME":"東區","LI":"東光里","LIN":"34鄰","STREET":"莊敬路","SECT":" ","MAREA":" ","LANE":"２１巷","ALLEY":" ","HOUSE_NO":"１４號","E_COORD97":171295.87,"N_COORD97":2543795.1899999999,"ADDRESS":"莊敬路２１巷１４號","OBJECTID":410580},"geometry":{"x":171295.87000000011,"y":2543795.1900000032}},{"attributes":{"ID":410605,"DIS_CODE":0,"TOWNNAME":"東區","LI":"東光里","LIN":"34鄰","STREET":"莊敬路","SECT":" ","MAREA":" ","LANE":"２１巷","ALLEY":" ","HOUSE_NO":"１６號","E_COORD97":171274.67000000001,"N_COORD97":2543797.4399999999,"ADDRESS":"莊敬路２１巷１６號","OBJECTID":410581},"geometry":{"x":171274.66999999993,"y":2543797.4400000013}},{"attributes":{"ID":410606,"DIS_CODE":0,"TOWNNAME":"東區","LI":"東光里","LIN":"34鄰","STREET":"莊敬路","SECT":" ","MAREA":" ","LANE":"２１巷","ALLEY":" ","HOUSE_NO":"１８號","E_COORD97":171274.37,"N_COORD97":2543789.6299999999,"ADDRESS":"莊敬路２１巷１８號","OBJECTID":410582},"geometry":{"x":171274.37000000104,"y":2543789.6300000008}},{"attributes":{"ID":410607,"DIS_CODE":0,"TOWNNAME":"東區","LI":"東光里","LIN":"34鄰","STREET":"莊敬路","SECT":" ","MAREA":" ","LANE":"２１巷","ALLEY":" ","HOUSE_NO":"２０號","E_COORD97":171273.62,"N_COORD97":2543783.6200000001,"ADDRESS":"莊敬路２１巷２０號","OBJECTID":410583},"geometry":{"x":171273.62000000011,"y":2543783.6199999992}},{"attributes":{"ID":410608,"DIS_CODE":0,"TOWNNAME":"東區","LI":"東光里","LIN":"34鄰","STREET":"莊敬路","SECT":" ","MAREA":" ","LANE":"２１巷","ALLEY":" ","HOUSE_NO":"２２號","E_COORD97":171273.32000000001,"N_COORD97":2543777.6099999999,"ADDRESS":"莊敬路２１巷２２號","OBJECTID":410584},"geometry":{"x":171273.32000000123,"y":2543777.6099999994}},{"attributes":{"ID":410609,"DIS_CODE":0,"TOWNNAME":"東區","LI":"東光里","LIN":"34鄰","STREET":"莊敬路","SECT":" ","MAREA":" ","LANE":"２１巷","ALLEY":" ","HOUSE_NO":"６號","E_COORD97":171304.44,"N_COORD97":2543774.9100000001,"ADDRESS":"莊敬路２１巷６號","OBJECTID":410585},"geometry":{"x":171304.44000000227,"y":2543774.910000002}},{"attributes":{"ID":410610,"DIS_CODE":0,"TOWNNAME":"東區","LI":"東光里","LIN":"34鄰","STREET":"莊敬路","SECT":" ","MAREA":" ","LANE":"２１巷","ALLEY":" ","HOUSE_NO":"８號","E_COORD97":171293.92000000001,"N_COORD97":2543775.6600000001,"ADDRESS":"莊敬路２１巷８號","OBJECTID":410586},"geometry":{"x":171293.92000000179,"y":2543775.6599999983}},{"attributes":{"ID":410611,"DIS_CODE":0,"TOWNNAME":"永康區","LI":"北灣里","LIN":"3鄰","STREET":"文賢街","SECT":" ","MAREA":" ","LANE":"１３６巷","ALLEY":" ","HOUSE_NO":"１０號十一樓之３","E_COORD97":175430.87,"N_COORD97":2545543.8799999999,"ADDRESS":"文賢街１３６巷１０號十一樓之３","OBJECTID":410587},"geometry":{"x":175430.87000000104,"y":2545543.8800000008}},{"attributes":{"ID":410612,"DIS_CODE":0,"TOWNNAME":"永康區","LI":"北灣里","LIN":"3鄰","STREET":"文賢街","SECT":" ","MAREA":" ","LANE":"１３６巷","ALLEY":" ","HOUSE_NO":"１０號十一樓之１","E_COORD97":175430.76999999999,"N_COORD97":2545543.8799999999,"ADDRESS":"文賢街１３６巷１０號十一樓之１","OBJECTID":410588},"geometry":{"x":175430.77000000142,"y":2545543.8800000008}},{"attributes":{"ID":410613,"DIS_CODE":0,"TOWNNAME":"永康區","LI":"北灣里","LIN":"3鄰","STREET":"文賢街","SECT":" ","MAREA":" ","LANE":"１３６巷","ALLEY":" ","HOUSE_NO":"２號十一樓之３","E_COORD97":175409.35000000001,"N_COORD97":2545555.9300000002,"ADDRESS":"文賢街１３６巷２號十一樓之３","OBJECTID":410589},"geometry":{"x":175409.34999999963,"y":2545555.9299999997}},{"attributes":{"ID":410614,"DIS_CODE":0,"TOWNNAME":"永康區","LI":"北灣里","LIN":"3鄰","STREET":"文賢街","SECT":" ","MAREA":" ","LANE":"１３６巷","ALLEY":" ","HOUSE_NO":"２號十一樓之１","E_COORD97":175409.26000000001,"N_COORD97":2545555.9300000002,"ADDRESS":"文賢街１３６巷２號十一樓之１","OBJECTID":410590},"geometry":{"x":175409.26000000071,"y":2545555.9299999997}},{"attributes":{"ID":410615,"DIS_CODE":0,"TOWNNAME":"永康區","LI":"北灣里","LIN":"3鄰","STREET":"文賢街","SECT":" ","MAREA":" ","LANE":"１３６巷","ALLEY":" ","HOUSE_NO":"１０號十一樓之２","E_COORD97":175430.89999999999,"N_COORD97":2545543.8799999999,"ADDRESS":"文賢街１３６巷１０號十一樓之２","OBJECTID":410591},"geometry":{"x":175430.90000000224,"y":2545543.8800000008}},{"attributes":{"ID":410616,"DIS_CODE":0,"TOWNNAME":"永康區","LI":"北灣里","LIN":"3鄰","STREET":"文賢街","SECT":" ","MAREA":" ","LANE":"１３６巷","ALLEY":" ","HOUSE_NO":"１０號二樓之２","E_COORD97":175429.64999999999,"N_COORD97":2545543.8799999999,"ADDRESS":"文賢街１３６巷１０號二樓之２","OBJECTID":410592},"geometry":{"x":175429.6500000013,"y":2545543.8800000008}},{"attributes":{"ID":410617,"DIS_CODE":0,"TOWNNAME":"永康區","LI":"北灣里","LIN":"3鄰","STREET":"文賢街","SECT":" ","MAREA":" ","LANE":"１３６巷","ALLEY":" ","HOUSE_NO":"２號九樓之３","E_COORD97":175408.10000000001,"N_COORD97":2545555.9300000002,"ADDRESS":"文賢街１３６巷２號九樓之３","OBJECTID":410593},"geometry":{"x":175408.09999999963,"y":2545555.9299999997}},{"attributes":{"ID":410618,"DIS_CODE":0,"TOWNNAME":"永康區","LI":"北灣里","LIN":"3鄰","STREET":"文賢街","SECT":" ","MAREA":" ","LANE":"１３６巷","ALLEY":" ","HOUSE_NO":"１０號九樓之３","E_COORD97":175429.62,"N_COORD97":2545543.8799999999,"ADDRESS":"文賢街１３６巷１０號九樓之３","OBJECTID":410594},"geometry":{"x":175429.62000000104,"y":2545543.8800000008}},{"attributes":{"ID":410619,"DIS_CODE":0,"TOWNNAME":"東區","LI":"東光里","LIN":"30鄰","STREET":"東平路","SECT":" ","MAREA":" ","LANE":"９巷","ALLEY":" ","HOUSE_NO":"２９號","E_COORD97":171439.14000000001,"N_COORD97":2543819.7200000002,"ADDRESS":"東平路９巷２９號","OBJECTID":410595},"geometry":{"x":171439.13999999966,"y":2543819.7200000007}},{"attributes":{"ID":410620,"DIS_CODE":0,"TOWNNAME":"永康區","LI":"\u25A0洲里","LIN":"3鄰","STREET":"\u25A0洲二街","SECT":" ","MAREA":" ","LANE":"１６０巷","ALLEY":" ","HOUSE_NO":"３號五樓之１","E_COORD97":171705.20999999999,"N_COORD97":2549342.8199999998,"ADDRESS":"\u25A0洲二街１６０巷３號五樓之１","OBJECTID":410596},"geometry":{"x":171705.20999999996,"y":2549342.8200000022}},{"attributes":{"ID":410621,"DIS_CODE":0,"TOWNNAME":"永康區","LI":"\u25A0洲里","LIN":"3鄰","STREET":"\u25A0洲二街","SECT":" ","MAREA":" ","LANE":"１６０巷","ALLEY":" ","HOUSE_NO":"３號九樓之１","E_COORD97":171705.20999999999,"N_COORD97":2549342.8199999998,"ADDRESS":"\u25A0洲二街１６０巷３號九樓之１","OBJECTID":410597},"geometry":{"x":171705.20999999996,"y":2549342.8200000022}},{"attributes":{"ID":410622,"DIS_CODE":0,"TOWNNAME":"永康區","LI":"\u25A0洲里","LIN":"3鄰","STREET":"\u25A0洲二街","SECT":" ","MAREA":" ","LANE":"１６０巷","ALLEY":" ","HOUSE_NO":"３號十樓之３","E_COORD97":171705.31,"N_COORD97":2549342.8199999998,"ADDRESS":"\u25A0洲二街１６０巷３號十樓之３","OBJECTID":410598},"geometry":{"x":171705.31000000052,"y":2549342.8200000022}},{"attributes":{"ID":410623,"DIS_CODE":0,"TOWNNAME":"永康區","LI":"永康里","LIN":"3鄰","STREET":"中山路","SECT":" ","MAREA":" ","LANE":"１０巷","ALLEY":" ","HOUSE_NO":"８號八樓之２","E_COORD97":173894.84,"N_COORD97":2547386.6299999999,"ADDRESS":"中山路１０巷８號八樓之２","OBJECTID":410599},"geometry":{"x":173894.84000000171,"y":2547386.6300000008}},{"attributes":{"ID":410624,"DIS_CODE":0,"TOWNNAME":"東區","LI":"大同里","LIN":"3鄰","STREET":"大同路","SECT":"一段","MAREA":" ","LANE":"５１巷","ALLEY":" ","HOUSE_NO":"１１號二樓","E_COORD97":169221.42999999999,"N_COORD97":2543136.4300000002,"ADDRESS":"大同路一段５１巷１１號二樓","OBJECTID":410600},"geometry":{"x":169221.4299999997,"y":2543136.4300000016}}]}