{"displayFieldName":"TOWNNAME","fieldAliases":{"ID":"ID","DIS_CODE":"DIS_CODE","TOWNNAME":"TOWNNAME","LI":"LI","LIN":"LIN","STREET":"STREET","SECT":"SECT","MAREA":"MAREA","LANE":"LANE","ALLEY":"ALLEY","HOUSE_NO":"HOUSE_NO","E_COORD97":"E_COORD97","N_COORD97":"N_COORD97","ADDRESS":"ADDRESS","OBJECTID":"OBJECTID"},"geometryType":"esriGeometryPoint","spatialReference":{"wkid":102443,"latestWkid":3826},"fields":[{"name":"ID","type":"esriFieldTypeDouble","alias":"ID"},{"name":"DIS_CODE","type":"esriFieldTypeInteger","alias":"DIS_CODE"},{"name":"TOWNNAME","type":"esriFieldTypeString","alias":"TOWNNAME","length":8},{"name":"LI","type":"esriFieldTypeString","alias":"LI","length":8},{"name":"LIN","type":"esriFieldTypeString","alias":"LIN","length":12},{"name":"STREET","type":"esriFieldTypeString","alias":"STREET","length":20},{"name":"SECT","type":"esriFieldTypeString","alias":"SECT","length":8},{"name":"MAREA","type":"esriFieldTypeString","alias":"MAREA","length":12},{"name":"LANE","type":"esriFieldTypeString","alias":"LANE","length":10},{"name":"ALLEY","type":"esriFieldTypeString","alias":"ALLEY","length":10},{"name":"HOUSE_NO","type":"esriFieldTypeString","alias":"HOUSE_NO","length":20},{"name":"E_COORD97","type":"esriFieldTypeDouble","alias":"E_COORD97"},{"name":"N_COORD97","type":"esriFieldTypeDouble","alias":"N_COORD97"},{"name":"ADDRESS","type":"esriFieldTypeString","alias":"ADDRESS","length":50},{"name":"OBJECTID","type":"esriFieldTypeOID","alias":"OBJECTID"}],"features":[{"attributes":{"ID":181402,"DIS_CODE":0,"TOWNNAME":"新化區","LI":"礁坑里","LIN":"11鄰","STREET":" ","SECT":" ","MAREA":"茄冬坑","LANE":" ","ALLEY":" ","HOUSE_NO":"５３號","E_COORD97":183756.84646,"N_COORD97":2548412.3727699998,"ADDRESS":"茄冬坑５３號","OBJECTID":181401},"geometry":{"x":183756.84645999875,"y":2548412.3727669995}},{"attributes":{"ID":181403,"DIS_CODE":0,"TOWNNAME":"新化區","LI":"礁坑里","LIN":"11鄰","STREET":" ","SECT":" ","MAREA":"茄冬坑","LANE":" ","ALLEY":" ","HOUSE_NO":"４１號","E_COORD97":183953.45942500001,"N_COORD97":2548461.5852399999,"ADDRESS":"茄冬坑４１號","OBJECTID":181402},"geometry":{"x":183953.45942500047,"y":2548461.5852410011}},{"attributes":{"ID":181404,"DIS_CODE":0,"TOWNNAME":"新化區","LI":"礁坑里","LIN":"11鄰","STREET":" ","SECT":" ","MAREA":"茄冬坑","LANE":" ","ALLEY":" ","HOUSE_NO":"３２號","E_COORD97":182922.853764,"N_COORD97":2548451.9386999998,"ADDRESS":"茄冬坑３２號","OBJECTID":181403},"geometry":{"x":182922.85376400035,"y":2548451.9387010001}},{"attributes":{"ID":181405,"DIS_CODE":0,"TOWNNAME":"新化區","LI":"崙頂里","LIN":"11鄰","STREET":" ","SECT":" ","MAREA":"崙子頂","LANE":" ","ALLEY":" ","HOUSE_NO":"４２１號之２","E_COORD97":177050.17999999999,"N_COORD97":2547006.2599999998,"ADDRESS":"崙子頂４２１號之２","OBJECTID":181404},"geometry":{"x":177050.1799999997,"y":2547006.2600000016}},{"attributes":{"ID":181406,"DIS_CODE":0,"TOWNNAME":"新化區","LI":"礁坑里","LIN":"11鄰","STREET":" ","SECT":" ","MAREA":"茄冬坑","LANE":" ","ALLEY":" ","HOUSE_NO":"４１號之１","E_COORD97":184222.79999999999,"N_COORD97":2548711.2599999998,"ADDRESS":"茄冬坑４１號之１","OBJECTID":181405},"geometry":{"x":184222.80000000075,"y":2548711.2600000035}},{"attributes":{"ID":181407,"DIS_CODE":0,"TOWNNAME":"新化區","LI":"崙頂里","LIN":"11鄰","STREET":" ","SECT":" ","MAREA":"崙子頂","LANE":" ","ALLEY":" ","HOUSE_NO":"３９８號","E_COORD97":176942.03,"N_COORD97":2546924.25,"ADDRESS":"崙子頂３９８號","OBJECTID":181406},"geometry":{"x":176942.03000000212,"y":2546924.25}},{"attributes":{"ID":181408,"DIS_CODE":0,"TOWNNAME":"將軍區","LI":"玉山里","LIN":"3鄰","STREET":" ","SECT":" ","MAREA":"玉山","LANE":" ","ALLEY":" ","HOUSE_NO":"２９號","E_COORD97":160526.39000000001,"N_COORD97":2567716.1200000001,"ADDRESS":"玉山２９號","OBJECTID":181407},"geometry":{"x":160526.3900000006,"y":2567716.120000001}},{"attributes":{"ID":181409,"DIS_CODE":0,"TOWNNAME":"新化區","LI":"山\u25A0里","LIN":"11鄰","STREET":" ","SECT":" ","MAREA":"五甲勢","LANE":" ","ALLEY":" ","HOUSE_NO":"６７號","E_COORD97":181870.67999999999,"N_COORD97":2545485.2599999998,"ADDRESS":"五甲勢６７號","OBJECTID":181408},"geometry":{"x":181870.68000000063,"y":2545485.2599999998}},{"attributes":{"ID":181410,"DIS_CODE":0,"TOWNNAME":"新化區","LI":"\u25A0拔里","LIN":"11鄰","STREET":" ","SECT":" ","MAREA":"牧場","LANE":" ","ALLEY":" ","HOUSE_NO":"１３號之５","E_COORD97":181618.39000000001,"N_COORD97":2551101.2599999998,"ADDRESS":"牧場１３號之５","OBJECTID":181409},"geometry":{"x":181618.3900000006,"y":2551101.2600000035}},{"attributes":{"ID":181411,"DIS_CODE":0,"TOWNNAME":"新化區","LI":"山\u25A0里","LIN":"11鄰","STREET":" ","SECT":" ","MAREA":"五甲勢","LANE":" ","ALLEY":" ","HOUSE_NO":"７０號之１","E_COORD97":181820.20999999999,"N_COORD97":2545497.2599999998,"ADDRESS":"五甲勢７０號之１","OBJECTID":181410},"geometry":{"x":181820.20999999996,"y":2545497.2600000035}},{"attributes":{"ID":181412,"DIS_CODE":0,"TOWNNAME":"新市區","LI":"大營里","LIN":"11鄰","STREET":" ","SECT":" ","MAREA":"大營","LANE":" ","ALLEY":" ","HOUSE_NO":"２３４之９號","E_COORD97":179255.09,"N_COORD97":2555635.5499999998,"ADDRESS":"大營２３４之９號","OBJECTID":181411},"geometry":{"x":179255.09000000171,"y":2555635.5500000007}},{"attributes":{"ID":181413,"DIS_CODE":0,"TOWNNAME":"新市區","LI":"大營里","LIN":"11鄰","STREET":" ","SECT":" ","MAREA":"大營","LANE":" ","ALLEY":" ","HOUSE_NO":"２３８之３號","E_COORD97":179163.37,"N_COORD97":2555627.7999999998,"ADDRESS":"大營２３８之３號","OBJECTID":181412},"geometry":{"x":179163.37000000011,"y":2555627.8000000007}},{"attributes":{"ID":181414,"DIS_CODE":0,"TOWNNAME":"下營區","LI":"開化里","LIN":"11鄰","STREET":" ","SECT":" ","MAREA":"中營","LANE":" ","ALLEY":" ","HOUSE_NO":"５７９號","E_COORD97":176092.20999999999,"N_COORD97":2568321.98,"ADDRESS":"中營５７９號","OBJECTID":181413},"geometry":{"x":176092.20999999996,"y":2568321.9800000023}},{"attributes":{"ID":181415,"DIS_CODE":0,"TOWNNAME":"關廟區","LI":"深坑里","LIN":"11鄰","STREET":"深坑二街","SECT":" ","MAREA":" ","LANE":"６８巷","ALLEY":" ","HOUSE_NO":"５號","E_COORD97":181576.67000000001,"N_COORD97":2537488.2999999998,"ADDRESS":"深坑二街６８巷５號","OBJECTID":181414},"geometry":{"x":181576.66999999993,"y":2537488.3000000007}},{"attributes":{"ID":181416,"DIS_CODE":0,"TOWNNAME":"關廟區","LI":"深坑里","LIN":"11鄰","STREET":"深坑二街","SECT":" ","MAREA":" ","LANE":"６３巷","ALLEY":" ","HOUSE_NO":"９號","E_COORD97":181676.17000000001,"N_COORD97":2537482.2999999998,"ADDRESS":"深坑二街６３巷９號","OBJECTID":181415},"geometry":{"x":181676.16999999993,"y":2537482.3000000007}},{"attributes":{"ID":181417,"DIS_CODE":0,"TOWNNAME":"關廟區","LI":"埤頭里","LIN":"11鄰","STREET":"關新路","SECT":"二段","MAREA":" ","LANE":" ","ALLEY":" ","HOUSE_NO":"１００號","E_COORD97":179111.26999999999,"N_COORD97":2544251.2999999998,"ADDRESS":"關新路二段１００號","OBJECTID":181416},"geometry":{"x":179111.27000000048,"y":2544251.3000000026}},{"attributes":{"ID":181418,"DIS_CODE":0,"TOWNNAME":"永康區","LI":"西灣里","LIN":"32鄰","STREET":"國光八街","SECT":" ","MAREA":" ","LANE":"６０巷","ALLEY":"３弄","HOUSE_NO":"１２號","E_COORD97":174237.81,"N_COORD97":2545825.3900000001,"ADDRESS":"國光八街６０巷３弄１２號","OBJECTID":181417},"geometry":{"x":174237.81000000052,"y":2545825.3900000006}},{"attributes":{"ID":181419,"DIS_CODE":0,"TOWNNAME":"關廟區","LI":"埤頭里","LIN":"11鄰","STREET":"關新路","SECT":"二段","MAREA":" ","LANE":" ","ALLEY":" ","HOUSE_NO":"１０８號","E_COORD97":179114.67000000001,"N_COORD97":2544278.2999999998,"ADDRESS":"關新路二段１０８號","OBJECTID":181418},"geometry":{"x":179114.67000000086,"y":2544278.3000000026}},{"attributes":{"ID":181420,"DIS_CODE":0,"TOWNNAME":"關廟區","LI":"深坑里","LIN":"11鄰","STREET":"深坑二街","SECT":" ","MAREA":" ","LANE":"６８巷","ALLEY":" ","HOUSE_NO":"３０號","E_COORD97":181358.22,"N_COORD97":2537462.2999999998,"ADDRESS":"深坑二街６８巷３０號","OBJECTID":181419},"geometry":{"x":181358.22000000067,"y":2537462.3000000007}},{"attributes":{"ID":181421,"DIS_CODE":0,"TOWNNAME":"關廟區","LI":"深坑里","LIN":"11鄰","STREET":"深坑二街","SECT":" ","MAREA":" ","LANE":"９０巷","ALLEY":" ","HOUSE_NO":"６號","E_COORD97":181622.32000000001,"N_COORD97":2537483.2999999998,"ADDRESS":"深坑二街９０巷６號","OBJECTID":181420},"geometry":{"x":181622.32000000123,"y":2537483.3000000026}},{"attributes":{"ID":181422,"DIS_CODE":0,"TOWNNAME":"關廟區","LI":"埤頭里","LIN":"11鄰","STREET":"保東路","SECT":" ","MAREA":" ","LANE":"８８巷","ALLEY":" ","HOUSE_NO":"５８號","E_COORD97":178854.01999999999,"N_COORD97":2544204.2999999998,"ADDRESS":"保東路８８巷５８號","OBJECTID":181421},"geometry":{"x":178854.02000000048,"y":2544204.3000000026}},{"attributes":{"ID":181423,"DIS_CODE":0,"TOWNNAME":"關廟區","LI":"埤頭里","LIN":"11鄰","STREET":"保東路","SECT":" ","MAREA":" ","LANE":"８８巷","ALLEY":" ","HOUSE_NO":"６２號","E_COORD97":178852.82000000001,"N_COORD97":2544225.2999999998,"ADDRESS":"保東路８８巷６２號","OBJECTID":181422},"geometry":{"x":178852.82000000123,"y":2544225.3000000007}},{"attributes":{"ID":181424,"DIS_CODE":0,"TOWNNAME":"關廟區","LI":"埤頭里","LIN":"11鄰","STREET":"保東路","SECT":" ","MAREA":" ","LANE":"８８巷","ALLEY":" ","HOUSE_NO":"６８號","E_COORD97":178856.72,"N_COORD97":2544250.2999999998,"ADDRESS":"保東路８８巷６８號","OBJECTID":181423},"geometry":{"x":178856.71999999974,"y":2544250.3000000045}},{"attributes":{"ID":181425,"DIS_CODE":0,"TOWNNAME":"關廟區","LI":"埤頭里","LIN":"11鄰","STREET":"關新路","SECT":"二段","MAREA":" ","LANE":" ","ALLEY":" ","HOUSE_NO":"１７１號","E_COORD97":179085.97,"N_COORD97":2544473.2999999998,"ADDRESS":"關新路二段１７１號","OBJECTID":181424},"geometry":{"x":179085.96999999974,"y":2544473.3000000007}},{"attributes":{"ID":181426,"DIS_CODE":0,"TOWNNAME":"關廟區","LI":"埤頭里","LIN":"11鄰","STREET":"關新路","SECT":"二段","MAREA":" ","LANE":" ","ALLEY":" ","HOUSE_NO":"１８５號","E_COORD97":179086.67000000001,"N_COORD97":2544522.2999999998,"ADDRESS":"關新路二段１８５號","OBJECTID":181425},"geometry":{"x":179086.67000000179,"y":2544522.3000000026}},{"attributes":{"ID":181427,"DIS_CODE":0,"TOWNNAME":"關廟區","LI":"埤頭里","LIN":"11鄰","STREET":"關新路","SECT":"二段","MAREA":" ","LANE":" ","ALLEY":" ","HOUSE_NO":"１７３號","E_COORD97":179083.51999999999,"N_COORD97":2544481.2999999998,"ADDRESS":"關新路二段１７３號","OBJECTID":181426},"geometry":{"x":179083.51999999955,"y":2544481.3000000026}},{"attributes":{"ID":181428,"DIS_CODE":0,"TOWNNAME":"關廟區","LI":"埤頭里","LIN":"11鄰","STREET":"關新路","SECT":"二段","MAREA":" ","LANE":" ","ALLEY":" ","HOUSE_NO":"１３２號","E_COORD97":179113.18041900001,"N_COORD97":2544333.4024200002,"ADDRESS":"關新路二段１３２號","OBJECTID":181427},"geometry":{"x":179113.18041899893,"y":2544333.4024210013}},{"attributes":{"ID":181429,"DIS_CODE":0,"TOWNNAME":"關廟區","LI":"埤頭里","LIN":"11鄰","STREET":"關新路","SECT":"二段","MAREA":" ","LANE":"１０３巷","ALLEY":"６７弄","HOUSE_NO":"１３號","E_COORD97":178946.92000000001,"N_COORD97":2544260.2999999998,"ADDRESS":"關新路二段１０３巷６７弄１３號","OBJECTID":181428},"geometry":{"x":178946.91999999993,"y":2544260.3000000045}},{"attributes":{"ID":181430,"DIS_CODE":0,"TOWNNAME":"關廟區","LI":"埤頭里","LIN":"11鄰","STREET":"關新路","SECT":"二段","MAREA":" ","LANE":" ","ALLEY":" ","HOUSE_NO":"３２５號","E_COORD97":179094.37,"N_COORD97":2544840.2999999998,"ADDRESS":"關新路二段３２５號","OBJECTID":181429},"geometry":{"x":179094.37000000104,"y":2544840.3000000045}},{"attributes":{"ID":181431,"DIS_CODE":0,"TOWNNAME":"關廟區","LI":"埤頭里","LIN":"11鄰","STREET":"關新路","SECT":"二段","MAREA":" ","LANE":" ","ALLEY":" ","HOUSE_NO":"２５０號","E_COORD97":179161.82000000001,"N_COORD97":2544599.2999999998,"ADDRESS":"關新路二段２５０號","OBJECTID":181430},"geometry":{"x":179161.8200000003,"y":2544599.3000000045}},{"attributes":{"ID":181432,"DIS_CODE":0,"TOWNNAME":"關廟區","LI":"深坑里","LIN":"11鄰","STREET":"深坑二街","SECT":" ","MAREA":" ","LANE":"１０６巷","ALLEY":" ","HOUSE_NO":"６號","E_COORD97":181636.92000000001,"N_COORD97":2537432.2999999998,"ADDRESS":"深坑二街１０６巷６號","OBJECTID":181431},"geometry":{"x":181636.92000000086,"y":2537432.3000000045}},{"attributes":{"ID":181433,"DIS_CODE":0,"TOWNNAME":"關廟區","LI":"埤頭里","LIN":"11鄰","STREET":"關新路","SECT":"二段","MAREA":" ","LANE":" ","ALLEY":" ","HOUSE_NO":"２２３號","E_COORD97":179052.42000000001,"N_COORD97":2544597.2999999998,"ADDRESS":"關新路二段２２３號","OBJECTID":181432},"geometry":{"x":179052.41999999993,"y":2544597.3000000026}},{"attributes":{"ID":181434,"DIS_CODE":0,"TOWNNAME":"關廟區","LI":"埤頭里","LIN":"11鄰","STREET":"關新路","SECT":"二段","MAREA":" ","LANE":"１６９巷","ALLEY":" ","HOUSE_NO":"６８號","E_COORD97":178933.17000000001,"N_COORD97":2544474.2999999998,"ADDRESS":"關新路二段１６９巷６８號","OBJECTID":181433},"geometry":{"x":178933.17000000086,"y":2544474.3000000026}},{"attributes":{"ID":181435,"DIS_CODE":0,"TOWNNAME":"永康區","LI":"西灣里","LIN":"18鄰","STREET":"大安街","SECT":" ","MAREA":" ","LANE":"２９３巷","ALLEY":"９弄","HOUSE_NO":"１９號","E_COORD97":174619.04999999999,"N_COORD97":2545503.23,"ADDRESS":"大安街２９３巷９弄１９號","OBJECTID":181434},"geometry":{"x":174619.05000000075,"y":2545503.2300000004}},{"attributes":{"ID":181436,"DIS_CODE":0,"TOWNNAME":"永康區","LI":"西勢里","LIN":"20鄰","STREET":"富強路","SECT":"一段","MAREA":" ","LANE":"１８５巷","ALLEY":"２弄","HOUSE_NO":"３６號","E_COORD97":175590.35000000001,"N_COORD97":2546485.3700000001,"ADDRESS":"富強路一段１８５巷２弄３６號","OBJECTID":181435},"geometry":{"x":175590.35000000056,"y":2546485.3700000029}},{"attributes":{"ID":181437,"DIS_CODE":0,"TOWNNAME":"永康區","LI":"尚頂里","LIN":"26鄰","STREET":"南台街","SECT":" ","MAREA":" ","LANE":"５４巷","ALLEY":"１０弄","HOUSE_NO":"２號之２","E_COORD97":170376.01000000001,"N_COORD97":2547026.7999999998,"ADDRESS":"南台街５４巷１０弄２號之２","OBJECTID":181436},"geometry":{"x":170376.01000000164,"y":2547026.8000000045}},{"attributes":{"ID":181438,"DIS_CODE":0,"TOWNNAME":"永康區","LI":"西灣里","LIN":"32鄰","STREET":"國光八街","SECT":" ","MAREA":" ","LANE":"６０巷","ALLEY":"３弄","HOUSE_NO":"１８號","E_COORD97":174226.06,"N_COORD97":2545823.1400000001,"ADDRESS":"國光八街６０巷３弄１８號","OBJECTID":181437},"geometry":{"x":174226.06000000052,"y":2545823.1400000006}},{"attributes":{"ID":181439,"DIS_CODE":0,"TOWNNAME":"永康區","LI":"西灣里","LIN":"50鄰","STREET":"大灣路","SECT":" ","MAREA":" ","LANE":"９４２巷","ALLEY":"５００弄","HOUSE_NO":"７號","E_COORD97":173914.04999999999,"N_COORD97":2545839.9900000002,"ADDRESS":"大灣路９４２巷５００弄７號","OBJECTID":181438},"geometry":{"x":173914.05000000075,"y":2545839.9900000021}},{"attributes":{"ID":181440,"DIS_CODE":0,"TOWNNAME":"永康區","LI":"尚頂里","LIN":"26鄰","STREET":"南台街","SECT":" ","MAREA":" ","LANE":"５４巷","ALLEY":"１０弄","HOUSE_NO":"３７號","E_COORD97":170410.25,"N_COORD97":2547072.75,"ADDRESS":"南台街５４巷１０弄３７號","OBJECTID":181439},"geometry":{"x":170410.25000000186,"y":2547072.75}},{"attributes":{"ID":181441,"DIS_CODE":0,"TOWNNAME":"永康區","LI":"西勢里","LIN":"20鄰","STREET":"富強路","SECT":"一段","MAREA":" ","LANE":"１８５巷","ALLEY":"２弄","HOUSE_NO":"３９號","E_COORD97":175608.79999999999,"N_COORD97":2546484.52,"ADDRESS":"富強路一段１８５巷２弄３９號","OBJECTID":181440},"geometry":{"x":175608.79999999888,"y":2546484.5199999996}},{"attributes":{"ID":181442,"DIS_CODE":0,"TOWNNAME":"永康區","LI":"西灣里","LIN":"26鄰","STREET":"國光七街","SECT":" ","MAREA":" ","LANE":"６巷","ALLEY":"１１弄","HOUSE_NO":"２６號","E_COORD97":174347.70000000001,"N_COORD97":2545671.6299999999,"ADDRESS":"國光七街６巷１１弄２６號","OBJECTID":181441},"geometry":{"x":174347.70000000112,"y":2545671.6300000008}},{"attributes":{"ID":181443,"DIS_CODE":0,"TOWNNAME":"永康區","LI":"西灣里","LIN":"32鄰","STREET":"國光八街","SECT":" ","MAREA":" ","LANE":"６０巷","ALLEY":"３弄","HOUSE_NO":"１之１號","E_COORD97":174261.51999999999,"N_COORD97":2545809.7999999998,"ADDRESS":"國光八街６０巷３弄１之１號","OBJECTID":181442},"geometry":{"x":174261.52000000048,"y":2545809.8000000045}},{"attributes":{"ID":181444,"DIS_CODE":0,"TOWNNAME":"永康區","LI":"西勢里","LIN":"5鄰","STREET":"富強路","SECT":"一段","MAREA":" ","LANE":"２７９巷","ALLEY":"４４弄","HOUSE_NO":"１４號","E_COORD97":175627.60000000001,"N_COORD97":2546706.52,"ADDRESS":"富強路一段２７９巷４４弄１４號","OBJECTID":181443},"geometry":{"x":175627.60000000056,"y":2546706.5200000014}},{"attributes":{"ID":181445,"DIS_CODE":0,"TOWNNAME":"永康區","LI":"西灣里","LIN":"50鄰","STREET":"大灣路","SECT":" ","MAREA":" ","LANE":"９４２巷","ALLEY":"５００弄","HOUSE_NO":"１號","E_COORD97":173899.48000000001,"N_COORD97":2545835.3700000001,"ADDRESS":"大灣路９４２巷５００弄１號","OBJECTID":181444},"geometry":{"x":173899.47999999952,"y":2545835.370000001}},{"attributes":{"ID":181446,"DIS_CODE":0,"TOWNNAME":"永康區","LI":"西灣里","LIN":"26鄰","STREET":"國光七街","SECT":" ","MAREA":" ","LANE":"６巷","ALLEY":"１１弄","HOUSE_NO":"１２號","E_COORD97":174368.89000000001,"N_COORD97":2545665.3799999999,"ADDRESS":"國光七街６巷１１弄１２號","OBJECTID":181445},"geometry":{"x":174368.89000000153,"y":2545665.3800000008}},{"attributes":{"ID":181447,"DIS_CODE":0,"TOWNNAME":"永康區","LI":"西灣里","LIN":"50鄰","STREET":"大灣路","SECT":" ","MAREA":" ","LANE":"９４２巷","ALLEY":"５００弄","HOUSE_NO":"２９號","E_COORD97":173959.79999999999,"N_COORD97":2545851.9900000002,"ADDRESS":"大灣路９４２巷５００弄２９號","OBJECTID":181446},"geometry":{"x":173959.80000000075,"y":2545851.9900000039}},{"attributes":{"ID":181448,"DIS_CODE":0,"TOWNNAME":"永康區","LI":"尚頂里","LIN":"26鄰","STREET":"南台街","SECT":" ","MAREA":" ","LANE":"５４巷","ALLEY":"１０弄","HOUSE_NO":"１４號","E_COORD97":170405.92999999999,"N_COORD97":2547035.5,"ADDRESS":"南台街５４巷１０弄１４號","OBJECTID":181447},"geometry":{"x":170405.93000000063,"y":2547035.5000000019}},{"attributes":{"ID":181449,"DIS_CODE":0,"TOWNNAME":"永康區","LI":"尚頂里","LIN":"26鄰","STREET":"南台街","SECT":" ","MAREA":" ","LANE":"５４巷","ALLEY":"１０弄","HOUSE_NO":"３１號","E_COORD97":170398,"N_COORD97":2547057,"ADDRESS":"南台街５４巷１０弄３１號","OBJECTID":181448},"geometry":{"x":170398,"y":2547057}},{"attributes":{"ID":181450,"DIS_CODE":0,"TOWNNAME":"永康區","LI":"西灣里","LIN":"50鄰","STREET":"大灣路","SECT":" ","MAREA":" ","LANE":"９４２巷","ALLEY":"５００弄","HOUSE_NO":"２１號","E_COORD97":173943.72,"N_COORD97":2545847.7400000002,"ADDRESS":"大灣路９４２巷５００弄２１號","OBJECTID":181449},"geometry":{"x":173943.72000000067,"y":2545847.7400000021}},{"attributes":{"ID":181451,"DIS_CODE":0,"TOWNNAME":"關廟區","LI":"深坑里","LIN":"11鄰","STREET":"南雄路","SECT":"一段","MAREA":" ","LANE":"４０９巷","ALLEY":" ","HOUSE_NO":"４１號","E_COORD97":181655.72,"N_COORD97":2537502.2999999998,"ADDRESS":"南雄路一段４０９巷４１號","OBJECTID":181450},"geometry":{"x":181655.71999999974,"y":2537502.3000000007}},{"attributes":{"ID":181452,"DIS_CODE":0,"TOWNNAME":"關廟區","LI":"深坑里","LIN":"11鄰","STREET":"深坑二街","SECT":" ","MAREA":" ","LANE":"６８巷","ALLEY":" ","HOUSE_NO":"３號","E_COORD97":181586.67000000001,"N_COORD97":2537497.2999999998,"ADDRESS":"深坑二街６８巷３號","OBJECTID":181451},"geometry":{"x":181586.66999999993,"y":2537497.3000000026}},{"attributes":{"ID":181453,"DIS_CODE":0,"TOWNNAME":"永康區","LI":"尚頂里","LIN":"26鄰","STREET":"南台街","SECT":" ","MAREA":" ","LANE":"５４巷","ALLEY":"１０弄","HOUSE_NO":"６號","E_COORD97":170377.73999999999,"N_COORD97":2547044.4900000002,"ADDRESS":"南台街５４巷１０弄６號","OBJECTID":181452},"geometry":{"x":170377.74000000022,"y":2547044.4900000002}},{"attributes":{"ID":181454,"DIS_CODE":0,"TOWNNAME":"永康區","LI":"西灣里","LIN":"32鄰","STREET":"公園路","SECT":" ","MAREA":" ","LANE":"９３巷","ALLEY":"１２弄","HOUSE_NO":"１５號","E_COORD97":174224.97,"N_COORD97":2545855.7999999998,"ADDRESS":"公園路９３巷１２弄１５號","OBJECTID":181453},"geometry":{"x":174224.97000000067,"y":2545855.8000000007}},{"attributes":{"ID":181455,"DIS_CODE":0,"TOWNNAME":"永康區","LI":"尚頂里","LIN":"26鄰","STREET":"南台街","SECT":" ","MAREA":" ","LANE":"５４巷","ALLEY":"１０弄","HOUSE_NO":"２１號","E_COORD97":170380.54000000001,"N_COORD97":2547067.5,"ADDRESS":"南台街５４巷１０弄２１號","OBJECTID":181454},"geometry":{"x":170380.54000000004,"y":2547067.5}},{"attributes":{"ID":181456,"DIS_CODE":0,"TOWNNAME":"永康區","LI":"西灣里","LIN":"32鄰","STREET":"國光八街","SECT":" ","MAREA":" ","LANE":"６０巷","ALLEY":"３弄","HOUSE_NO":"１９號","E_COORD97":174214.45999999999,"N_COORD97":2545803.3999999999,"ADDRESS":"國光八街６０巷３弄１９號","OBJECTID":181455},"geometry":{"x":174214.46000000183,"y":2545803.4000000022}},{"attributes":{"ID":181457,"DIS_CODE":0,"TOWNNAME":"永康區","LI":"大橋里","LIN":" ","STREET":"大橋一街","SECT":" ","MAREA":" ","LANE":"２３３巷","ALLEY":"２弄","HOUSE_NO":"１３號","E_COORD97":171173.92999999999,"N_COORD97":2546647.25,"ADDRESS":"大橋一街２３３巷２弄１３號","OBJECTID":181456},"geometry":{"x":171173.93000000063,"y":2546647.2500000019}},{"attributes":{"ID":181458,"DIS_CODE":0,"TOWNNAME":"六甲區","LI":"菁埔里","LIN":"10鄰","STREET":" ","SECT":" ","MAREA":"菁埔寮","LANE":" ","ALLEY":" ","HOUSE_NO":"５３號","E_COORD97":177435.69,"N_COORD97":2569945.0600000001,"ADDRESS":"菁埔寮５３號","OBJECTID":181457},"geometry":{"x":177435.69000000041,"y":2569945.0600000024}},{"attributes":{"ID":181459,"DIS_CODE":0,"TOWNNAME":"關廟區","LI":"埤頭里","LIN":"11鄰","STREET":"關新路","SECT":"二段","MAREA":" ","LANE":" ","ALLEY":" ","HOUSE_NO":"１７５號","E_COORD97":179085.17000000001,"N_COORD97":2544486.2999999998,"ADDRESS":"關新路二段１７５號","OBJECTID":181458},"geometry":{"x":179085.17000000086,"y":2544486.3000000007}},{"attributes":{"ID":181460,"DIS_CODE":0,"TOWNNAME":"關廟區","LI":"深坑里","LIN":"11鄰","STREET":"深坑二街","SECT":" ","MAREA":" ","LANE":" ","ALLEY":" ","HOUSE_NO":"１０號","E_COORD97":181615.82000000001,"N_COORD97":2537478.2999999998,"ADDRESS":"深坑二街１０號","OBJECTID":181459},"geometry":{"x":181615.82000000123,"y":2537478.3000000007}},{"attributes":{"ID":181461,"DIS_CODE":0,"TOWNNAME":"關廟區","LI":"深坑里","LIN":"11鄰","STREET":"南雄路","SECT":"一段","MAREA":" ","LANE":"４０９巷","ALLEY":" ","HOUSE_NO":"３９號","E_COORD97":181659.51999999999,"N_COORD97":2537505.2999999998,"ADDRESS":"南雄路一段４０９巷３９號","OBJECTID":181460},"geometry":{"x":181659.52000000048,"y":2537505.3000000007}},{"attributes":{"ID":181462,"DIS_CODE":0,"TOWNNAME":"關廟區","LI":"深坑里","LIN":"11鄰","STREET":"南雄路","SECT":"一段","MAREA":" ","LANE":"４０９巷","ALLEY":" ","HOUSE_NO":"３１號","E_COORD97":181673.32000000001,"N_COORD97":2537514.2999999998,"ADDRESS":"南雄路一段４０９巷３１號","OBJECTID":181461},"geometry":{"x":181673.32000000123,"y":2537514.3000000026}},{"attributes":{"ID":181463,"DIS_CODE":0,"TOWNNAME":"關廟區","LI":"深坑里","LIN":"11鄰","STREET":"深坑二街","SECT":" ","MAREA":" ","LANE":"９０巷","ALLEY":" ","HOUSE_NO":"２０號","E_COORD97":181602.32000000001,"N_COORD97":2537469.2999999998,"ADDRESS":"深坑二街９０巷２０號","OBJECTID":181462},"geometry":{"x":181602.32000000123,"y":2537469.3000000045}},{"attributes":{"ID":181464,"DIS_CODE":0,"TOWNNAME":"關廟區","LI":"深坑里","LIN":"11鄰","STREET":"深坑二街","SECT":" ","MAREA":" ","LANE":"９０巷","ALLEY":" ","HOUSE_NO":"８號","E_COORD97":181618.82000000001,"N_COORD97":2537480.2999999998,"ADDRESS":"深坑二街９０巷８號","OBJECTID":181463},"geometry":{"x":181618.82000000216,"y":2537480.3000000026}},{"attributes":{"ID":181465,"DIS_CODE":0,"TOWNNAME":"關廟區","LI":"深坑里","LIN":"11鄰","STREET":"南雄路","SECT":"一段","MAREA":" ","LANE":"４０９巷","ALLEY":" ","HOUSE_NO":"２９號","E_COORD97":181676.82000000001,"N_COORD97":2537516.2999999998,"ADDRESS":"南雄路一段４０９巷２９號","OBJECTID":181464},"geometry":{"x":181676.82000000123,"y":2537516.3000000007}},{"attributes":{"ID":181466,"DIS_CODE":0,"TOWNNAME":"關廟區","LI":"深坑里","LIN":"11鄰","STREET":"深坑二街","SECT":" ","MAREA":" ","LANE":"９０巷","ALLEY":" ","HOUSE_NO":"２８號","E_COORD97":181591.67000000001,"N_COORD97":2537459.2999999998,"ADDRESS":"深坑二街９０巷２８號","OBJECTID":181465},"geometry":{"x":181591.66999999993,"y":2537459.3000000045}},{"attributes":{"ID":181467,"DIS_CODE":0,"TOWNNAME":"關廟區","LI":"深坑里","LIN":"11鄰","STREET":"深坑二街","SECT":" ","MAREA":" ","LANE":" ","ALLEY":" ","HOUSE_NO":"１２號","E_COORD97":181612.32000000001,"N_COORD97":2537476.2999999998,"ADDRESS":"深坑二街１２號","OBJECTID":181466},"geometry":{"x":181612.32000000123,"y":2537476.3000000045}},{"attributes":{"ID":181468,"DIS_CODE":0,"TOWNNAME":"關廟區","LI":"深坑里","LIN":"11鄰","STREET":"深坑二街","SECT":" ","MAREA":" ","LANE":"９０巷","ALLEY":" ","HOUSE_NO":"１８號","E_COORD97":181605.82000000001,"N_COORD97":2537471.2999999998,"ADDRESS":"深坑二街９０巷１８號","OBJECTID":181467},"geometry":{"x":181605.82000000123,"y":2537471.3000000007}},{"attributes":{"ID":181469,"DIS_CODE":0,"TOWNNAME":"關廟區","LI":"深坑里","LIN":"11鄰","STREET":"南雄路","SECT":"一段","MAREA":" ","LANE":"４０９巷","ALLEY":" ","HOUSE_NO":"４７號","E_COORD97":181645.32000000001,"N_COORD97":2537495.2999999998,"ADDRESS":"南雄路一段４０９巷４７號","OBJECTID":181468},"geometry":{"x":181645.3200000003,"y":2537495.3000000007}},{"attributes":{"ID":181470,"DIS_CODE":0,"TOWNNAME":"山上區","LI":"南洲里","LIN":"11鄰","STREET":" ","SECT":" ","MAREA":"南洲","LANE":" ","ALLEY":" ","HOUSE_NO":"２６８號","E_COORD97":183680.34,"N_COORD97":2555547.25,"ADDRESS":"南洲２６８號","OBJECTID":181469},"geometry":{"x":183680.33999999985,"y":2555547.2500000019}},{"attributes":{"ID":181471,"DIS_CODE":0,"TOWNNAME":"西港區","LI":"營西里","LIN":"11鄰","STREET":" ","SECT":" ","MAREA":"後營","LANE":" ","ALLEY":" ","HOUSE_NO":"９２號","E_COORD97":169737.35999999999,"N_COORD97":2560484.0499999998,"ADDRESS":"後營９２號","OBJECTID":181470},"geometry":{"x":169737.36000000127,"y":2560484.0500000007}},{"attributes":{"ID":181472,"DIS_CODE":0,"TOWNNAME":"西港區","LI":"港東里","LIN":"11鄰","STREET":" ","SECT":" ","MAREA":"烏竹林","LANE":" ","ALLEY":" ","HOUSE_NO":"５２號","E_COORD97":169748.63,"N_COORD97":2558113.46,"ADDRESS":"烏竹林５２號","OBJECTID":181471},"geometry":{"x":169748.63000000082,"y":2558113.4600000028}},{"attributes":{"ID":181473,"DIS_CODE":0,"TOWNNAME":"佳里區","LI":"海澄里","LIN":"11鄰","STREET":" ","SECT":" ","MAREA":"番子寮","LANE":" ","ALLEY":" ","HOUSE_NO":"７９號","E_COORD97":164043.35000000001,"N_COORD97":2564189.1600000001,"ADDRESS":"番子寮７９號","OBJECTID":181472},"geometry":{"x":164043.34999999963,"y":2564189.1600000039}},{"attributes":{"ID":181474,"DIS_CODE":0,"TOWNNAME":"安定區","LI":"蘇厝里","LIN":"11鄰","STREET":" ","SECT":" ","MAREA":"蘇厝","LANE":" ","ALLEY":" ","HOUSE_NO":"３７９號之２","E_COORD97":173062.29000000001,"N_COORD97":2558922.2999999998,"ADDRESS":"蘇厝３７９號之２","OBJECTID":181473},"geometry":{"x":173062.29000000004,"y":2558922.3000000007}},{"attributes":{"ID":181475,"DIS_CODE":0,"TOWNNAME":"安定區","LI":"中榮里","LIN":"11鄰","STREET":" ","SECT":" ","MAREA":"許中營","LANE":" ","ALLEY":" ","HOUSE_NO":"８９之７號","E_COORD97":172110.23999999999,"N_COORD97":2555079.2999999998,"ADDRESS":"許中營８９之７號","OBJECTID":181474},"geometry":{"x":172110.24000000022,"y":2555079.3000000026}},{"attributes":{"ID":181476,"DIS_CODE":0,"TOWNNAME":"永康區","LI":"建國里","LIN":" ","STREET":"復興路","SECT":" ","MAREA":" ","LANE":"７１巷","ALLEY":"８８弄","HOUSE_NO":"１２之６號","E_COORD97":172618,"N_COORD97":2543768.5899999999,"ADDRESS":"復興路７１巷８８弄１２之６號","OBJECTID":181475},"geometry":{"x":172618.00000000093,"y":2543768.5899999999}},{"attributes":{"ID":181477,"DIS_CODE":0,"TOWNNAME":"永康區","LI":"甲頂里","LIN":" ","STREET":"大武街","SECT":" ","MAREA":" ","LANE":"５９７巷","ALLEY":"２弄","HOUSE_NO":"２０號","E_COORD97":170319.34,"N_COORD97":2546592.9900000002,"ADDRESS":"大武街５９７巷２弄２０號","OBJECTID":181476},"geometry":{"x":170319.33999999985,"y":2546592.9900000002}},{"attributes":{"ID":181478,"DIS_CODE":0,"TOWNNAME":"北區","LI":"正風里","LIN":"10鄰","STREET":"公園路","SECT":" ","MAREA":" ","LANE":"１０６２巷","ALLEY":" ","HOUSE_NO":"５號","E_COORD97":169658.41,"N_COORD97":2546456.9199999999,"ADDRESS":"公園路１０６２巷５號","OBJECTID":181477},"geometry":{"x":169658.41000000201,"y":2546456.9200000018}},{"attributes":{"ID":181479,"DIS_CODE":0,"TOWNNAME":"歸仁區","LI":"南興里","LIN":"24鄰","STREET":"文化二十街","SECT":" ","MAREA":" ","LANE":" ","ALLEY":" ","HOUSE_NO":"５０號","E_COORD97":175512.69,"N_COORD97":2541292.3300000001,"ADDRESS":"文化二十街５０號","OBJECTID":181478},"geometry":{"x":175512.69000000134,"y":2541292.3300000001}},{"attributes":{"ID":181480,"DIS_CODE":0,"TOWNNAME":"歸仁區","LI":"南興里","LIN":"24鄰","STREET":"文化二十街","SECT":" ","MAREA":" ","LANE":" ","ALLEY":" ","HOUSE_NO":"８６號","E_COORD97":175523.09,"N_COORD97":2541312.3300000001,"ADDRESS":"文化二十街８６號","OBJECTID":181479},"geometry":{"x":175523.08999999985,"y":2541312.3300000001}},{"attributes":{"ID":181481,"DIS_CODE":0,"TOWNNAME":"歸仁區","LI":"南興里","LIN":"24鄰","STREET":"文化二十街","SECT":" ","MAREA":" ","LANE":" ","ALLEY":" ","HOUSE_NO":"１０６號","E_COORD97":175482.34,"N_COORD97":2541324.3300000001,"ADDRESS":"文化二十街１０６號","OBJECTID":181480},"geometry":{"x":175482.34000000078,"y":2541324.3300000019}},{"attributes":{"ID":181482,"DIS_CODE":0,"TOWNNAME":"六甲區","LI":"龍湖里","LIN":"10鄰","STREET":"和平街","SECT":" ","MAREA":" ","LANE":" ","ALLEY":" ","HOUSE_NO":"１５０號","E_COORD97":182676.73999999999,"N_COORD97":2569390.7999999998,"ADDRESS":"和平街１５０號","OBJECTID":181481},"geometry":{"x":182676.74000000022,"y":2569390.8000000026}},{"attributes":{"ID":181483,"DIS_CODE":0,"TOWNNAME":"六甲區","LI":"龍湖里","LIN":"10鄰","STREET":"和平街","SECT":" ","MAREA":" ","LANE":" ","ALLEY":" ","HOUSE_NO":"１６８號","E_COORD97":182687.39999999999,"N_COORD97":2569428.96,"ADDRESS":"和平街１６８號","OBJECTID":181482},"geometry":{"x":182687.40000000037,"y":2569428.9600000009}},{"attributes":{"ID":181484,"DIS_CODE":0,"TOWNNAME":"六甲區","LI":"龍湖里","LIN":"10鄰","STREET":"和平街","SECT":" ","MAREA":" ","LANE":" ","ALLEY":" ","HOUSE_NO":"１７０號","E_COORD97":182690.45999999999,"N_COORD97":2569445.9500000002,"ADDRESS":"和平街１７０號","OBJECTID":181483},"geometry":{"x":182690.46000000183,"y":2569445.9500000011}},{"attributes":{"ID":181485,"DIS_CODE":0,"TOWNNAME":"永康區","LI":"西灣里","LIN":"50鄰","STREET":"大灣路","SECT":" ","MAREA":" ","LANE":"９４２巷","ALLEY":"６４１弄","HOUSE_NO":"４３號","E_COORD97":173612.54000000001,"N_COORD97":2545920.7400000002,"ADDRESS":"大灣路９４２巷６４１弄４３號","OBJECTID":181484},"geometry":{"x":173612.54000000097,"y":2545920.7400000002}},{"attributes":{"ID":181486,"DIS_CODE":0,"TOWNNAME":"永康區","LI":"\u25A0行里","LIN":"32鄰","STREET":"仁愛街","SECT":" ","MAREA":" ","LANE":"１０８巷","ALLEY":"２１弄","HOUSE_NO":"２０號","E_COORD97":172202.51999999999,"N_COORD97":2549473.9199999999,"ADDRESS":"仁愛街１０８巷２１弄２０號","OBJECTID":181485},"geometry":{"x":172202.51999999955,"y":2549473.9200000018}},{"attributes":{"ID":181487,"DIS_CODE":0,"TOWNNAME":"永康區","LI":"建國里","LIN":" ","STREET":"復興路","SECT":" ","MAREA":" ","LANE":"１巷","ALLEY":"３０弄","HOUSE_NO":"１４０之５號","E_COORD97":173054.81,"N_COORD97":2543654.1099999999,"ADDRESS":"復興路１巷３０弄１４０之５號","OBJECTID":181486},"geometry":{"x":173054.80999999959,"y":2543654.1100000013}},{"attributes":{"ID":181488,"DIS_CODE":0,"TOWNNAME":"永康區","LI":"建國里","LIN":" ","STREET":"復興路","SECT":" ","MAREA":" ","LANE":"１巷","ALLEY":"３０弄","HOUSE_NO":"１４０之２號","E_COORD97":173055.42000000001,"N_COORD97":2543682.4500000002,"ADDRESS":"復興路１巷３０弄１４０之２號","OBJECTID":181487},"geometry":{"x":173055.42000000086,"y":2543682.4500000011}},{"attributes":{"ID":181489,"DIS_CODE":0,"TOWNNAME":"六甲區","LI":"菁埔里","LIN":"10鄰","STREET":" ","SECT":" ","MAREA":"菁埔寮","LANE":" ","ALLEY":" ","HOUSE_NO":"５５號","E_COORD97":177439.76999999999,"N_COORD97":2569957.6699999999,"ADDRESS":"菁埔寮５５號","OBJECTID":181488},"geometry":{"x":177439.77000000048,"y":2569957.6700000018}},{"attributes":{"ID":181490,"DIS_CODE":0,"TOWNNAME":"永康區","LI":"建國里","LIN":" ","STREET":"大灣路","SECT":" ","MAREA":" ","LANE":"９４２巷","ALLEY":"３７１弄","HOUSE_NO":"１０１之２號","E_COORD97":173051.04999999999,"N_COORD97":2545446.3599999999,"ADDRESS":"大灣路９４２巷３７１弄１０１之２號","OBJECTID":181489},"geometry":{"x":173051.05000000075,"y":2545446.3600000013}},{"attributes":{"ID":181491,"DIS_CODE":0,"TOWNNAME":"永康區","LI":"\u25A0行里","LIN":"41鄰","STREET":"永安路","SECT":" ","MAREA":" ","LANE":"１６５巷","ALLEY":"３０弄","HOUSE_NO":"５號之１","E_COORD97":172468.29000000001,"N_COORD97":2549482.5600000001,"ADDRESS":"永安路１６５巷３０弄５號之１","OBJECTID":181490},"geometry":{"x":172468.29000000097,"y":2549482.5600000005}},{"attributes":{"ID":181492,"DIS_CODE":0,"TOWNNAME":"永康區","LI":"甲頂里","LIN":" ","STREET":"大武街","SECT":" ","MAREA":" ","LANE":"５９７巷","ALLEY":"２弄","HOUSE_NO":"２２之１號","E_COORD97":170326.67999999999,"N_COORD97":2546585.0299999998,"ADDRESS":"大武街５９７巷２弄２２之１號","OBJECTID":181491},"geometry":{"x":170326.6799999997,"y":2546585.0299999993}},{"attributes":{"ID":181493,"DIS_CODE":0,"TOWNNAME":"六甲區","LI":"甲南里","LIN":"10鄰","STREET":"忠孝街","SECT":" ","MAREA":" ","LANE":" ","ALLEY":" ","HOUSE_NO":"１０１號","E_COORD97":183940.12,"N_COORD97":2569704.6899999999,"ADDRESS":"忠孝街１０１號","OBJECTID":181492},"geometry":{"x":183940.12000000011,"y":2569704.6900000032}},{"attributes":{"ID":181494,"DIS_CODE":0,"TOWNNAME":"六甲區","LI":"甲南里","LIN":"10鄰","STREET":"忠孝街","SECT":" ","MAREA":" ","LANE":" ","ALLEY":" ","HOUSE_NO":"１０３號","E_COORD97":183939.25,"N_COORD97":2569718.23,"ADDRESS":"忠孝街１０３號","OBJECTID":181493},"geometry":{"x":183939.25,"y":2569718.2300000004}},{"attributes":{"ID":181495,"DIS_CODE":0,"TOWNNAME":"六甲區","LI":"甲東里","LIN":"10鄰","STREET":"忠孝街","SECT":" ","MAREA":" ","LANE":" ","ALLEY":" ","HOUSE_NO":"２５０號之１","E_COORD97":184120.39000000001,"N_COORD97":2570203.1299999999,"ADDRESS":"忠孝街２５０號之１","OBJECTID":181494},"geometry":{"x":184120.3900000006,"y":2570203.1300000008}},{"attributes":{"ID":181496,"DIS_CODE":0,"TOWNNAME":"六甲區","LI":"甲東里","LIN":"10鄰","STREET":"忠孝街","SECT":" ","MAREA":" ","LANE":" ","ALLEY":" ","HOUSE_NO":"２５０號","E_COORD97":184114.53,"N_COORD97":2570187.4500000002,"ADDRESS":"忠孝街２５０號","OBJECTID":181495},"geometry":{"x":184114.53000000119,"y":2570187.450000003}},{"attributes":{"ID":181497,"DIS_CODE":0,"TOWNNAME":"六甲區","LI":"甲東里","LIN":"10鄰","STREET":"忠孝街","SECT":" ","MAREA":" ","LANE":" ","ALLEY":" ","HOUSE_NO":"２５２號","E_COORD97":184136.85000000001,"N_COORD97":2570222.9300000002,"ADDRESS":"忠孝街２５２號","OBJECTID":181496},"geometry":{"x":184136.85000000149,"y":2570222.9300000016}},{"attributes":{"ID":181498,"DIS_CODE":0,"TOWNNAME":"安定區","LI":"港南里","LIN":"11鄰","STREET":" ","SECT":" ","MAREA":"港口","LANE":" ","ALLEY":" ","HOUSE_NO":"８２號之２","E_COORD97":171296.31,"N_COORD97":2554316.2999999998,"ADDRESS":"港口８２號之２","OBJECTID":181497},"geometry":{"x":171296.31000000052,"y":2554316.3000000045}},{"attributes":{"ID":181499,"DIS_CODE":0,"TOWNNAME":"安定區","LI":"港南里","LIN":"11鄰","STREET":" ","SECT":" ","MAREA":"港口","LANE":" ","ALLEY":" ","HOUSE_NO":"８３號之２","E_COORD97":171259.20999999999,"N_COORD97":2554335.2999999998,"ADDRESS":"港口８３號之２","OBJECTID":181498},"geometry":{"x":171259.20999999996,"y":2554335.3000000007}},{"attributes":{"ID":181500,"DIS_CODE":0,"TOWNNAME":"安定區","LI":"港南里","LIN":"11鄰","STREET":" ","SECT":" ","MAREA":"港口","LANE":" ","ALLEY":" ","HOUSE_NO":"８０號之２","E_COORD97":171351.91,"N_COORD97":2554307.2999999998,"ADDRESS":"港口８０號之２","OBJECTID":181499},"geometry":{"x":171351.91000000201,"y":2554307.3000000026}},{"attributes":{"ID":181501,"DIS_CODE":0,"TOWNNAME":"安定區","LI":"蘇林里","LIN":"11鄰","STREET":" ","SECT":" ","MAREA":"蘇厝","LANE":" ","ALLEY":" ","HOUSE_NO":"１２５之６號","E_COORD97":173688.01999999999,"N_COORD97":2558946.2999999998,"ADDRESS":"蘇厝１２５之６號","OBJECTID":181500},"geometry":{"x":173688.01999999862,"y":2558946.3000000007}},{"attributes":{"ID":181502,"DIS_CODE":0,"TOWNNAME":"安定區","LI":"蘇林里","LIN":"11鄰","STREET":" ","SECT":" ","MAREA":"蘇厝","LANE":" ","ALLEY":" ","HOUSE_NO":"１２７之２號","E_COORD97":173659.42000000001,"N_COORD97":2559026.2999999998,"ADDRESS":"蘇厝１２７之２號","OBJECTID":181501},"geometry":{"x":173659.42000000086,"y":2559026.3000000026}},{"attributes":{"ID":181503,"DIS_CODE":0,"TOWNNAME":"安定區","LI":"安加里","LIN":"11鄰","STREET":" ","SECT":" ","MAREA":"安定","LANE":" ","ALLEY":" ","HOUSE_NO":"２６８號之３","E_COORD97":171558.04999999999,"N_COORD97":2557368.3199999998,"ADDRESS":"安定２６８號之３","OBJECTID":181502},"geometry":{"x":171558.05000000075,"y":2557368.3200000022}},{"attributes":{"ID":181504,"DIS_CODE":0,"TOWNNAME":"安定區","LI":"中榮里","LIN":"11鄰","STREET":" ","SECT":" ","MAREA":"許中營","LANE":" ","ALLEY":" ","HOUSE_NO":"９０之２０號","E_COORD97":172141.09,"N_COORD97":2555042.2999999998,"ADDRESS":"許中營９０之２０號","OBJECTID":181503},"geometry":{"x":172141.09000000078,"y":2555042.3000000026}},{"attributes":{"ID":181505,"DIS_CODE":0,"TOWNNAME":"安定區","LI":"港尾里","LIN":"11鄰","STREET":" ","SECT":" ","MAREA":"港子尾","LANE":" ","ALLEY":" ","HOUSE_NO":"６８號之２","E_COORD97":171395.16,"N_COORD97":2555775.2999999998,"ADDRESS":"港子尾６８號之２","OBJECTID":181504},"geometry":{"x":171395.16000000015,"y":2555775.3000000026}},{"attributes":{"ID":181506,"DIS_CODE":0,"TOWNNAME":"安定區","LI":"港尾里","LIN":"11鄰","STREET":" ","SECT":" ","MAREA":"港子尾","LANE":" ","ALLEY":" ","HOUSE_NO":"６０之３號","E_COORD97":171515.79000000001,"N_COORD97":2555851.2999999998,"ADDRESS":"港子尾６０之３號","OBJECTID":181505},"geometry":{"x":171515.79000000097,"y":2555851.3000000007}},{"attributes":{"ID":181507,"DIS_CODE":0,"TOWNNAME":"安定區","LI":"港口里","LIN":"11鄰","STREET":" ","SECT":" ","MAREA":"港口","LANE":" ","ALLEY":" ","HOUSE_NO":"３１４號","E_COORD97":171296.98999999999,"N_COORD97":2554592.25,"ADDRESS":"港口３１４號","OBJECTID":181506},"geometry":{"x":171296.99000000022,"y":2554592.25}},{"attributes":{"ID":181508,"DIS_CODE":0,"TOWNNAME":"六甲區","LI":"甲南里","LIN":"10鄰","STREET":"忠孝街","SECT":" ","MAREA":" ","LANE":" ","ALLEY":" ","HOUSE_NO":"７５號","E_COORD97":183891.39999999999,"N_COORD97":2569637.52,"ADDRESS":"忠孝街７５號","OBJECTID":181507},"geometry":{"x":183891.39999999944,"y":2569637.5199999996}},{"attributes":{"ID":181509,"DIS_CODE":0,"TOWNNAME":"安定區","LI":"六嘉里","LIN":"11鄰","STREET":" ","SECT":" ","MAREA":"六塊寮","LANE":" ","ALLEY":" ","HOUSE_NO":"８８號之１","E_COORD97":170337.04999999999,"N_COORD97":2553279.2999999998,"ADDRESS":"六塊寮８８號之１","OBJECTID":181508},"geometry":{"x":170337.05000000075,"y":2553279.3000000026}},{"attributes":{"ID":181510,"DIS_CODE":0,"TOWNNAME":"安定區","LI":"中榮里","LIN":"11鄰","STREET":" ","SECT":" ","MAREA":"許中營","LANE":" ","ALLEY":" ","HOUSE_NO":"８９之１號","E_COORD97":172131.44,"N_COORD97":2555081.2999999998,"ADDRESS":"許中營８９之１號","OBJECTID":181509},"geometry":{"x":172131.44000000041,"y":2555081.3000000007}},{"attributes":{"ID":181511,"DIS_CODE":0,"TOWNNAME":"安定區","LI":"管寮里","LIN":"11鄰","STREET":" ","SECT":" ","MAREA":"管寮","LANE":" ","ALLEY":" ","HOUSE_NO":"１０１號","E_COORD97":169946.39000000001,"N_COORD97":2556413.25,"ADDRESS":"管寮１０１號","OBJECTID":181510},"geometry":{"x":169946.3900000006,"y":2556413.25}},{"attributes":{"ID":181512,"DIS_CODE":0,"TOWNNAME":"安定區","LI":"新吉里","LIN":"11鄰","STREET":" ","SECT":" ","MAREA":"新吉","LANE":" ","ALLEY":" ","HOUSE_NO":"９８之７號","E_COORD97":169356.17000000001,"N_COORD97":2553949.2999999998,"ADDRESS":"新吉９８之７號","OBJECTID":181511},"geometry":{"x":169356.16999999993,"y":2553949.3000000007}},{"attributes":{"ID":181513,"DIS_CODE":0,"TOWNNAME":"安定區","LI":"港南里","LIN":"11鄰","STREET":" ","SECT":" ","MAREA":"港口","LANE":" ","ALLEY":" ","HOUSE_NO":"７９號","E_COORD97":171324.44,"N_COORD97":2554320.25,"ADDRESS":"港口７９號","OBJECTID":181512},"geometry":{"x":171324.44000000041,"y":2554320.2500000019}},{"attributes":{"ID":181514,"DIS_CODE":0,"TOWNNAME":"安定區","LI":"安定里","LIN":"11鄰","STREET":" ","SECT":" ","MAREA":"安定","LANE":" ","ALLEY":" ","HOUSE_NO":"９９號","E_COORD97":172001.47,"N_COORD97":2557754.3199999998,"ADDRESS":"安定９９號","OBJECTID":181513},"geometry":{"x":172001.46999999974,"y":2557754.3200000022}},{"attributes":{"ID":181515,"DIS_CODE":0,"TOWNNAME":"永康區","LI":"網寮里","LIN":" ","STREET":"大灣路","SECT":" ","MAREA":" ","LANE":"９４２巷","ALLEY":"６４１弄","HOUSE_NO":"８１之１２號","E_COORD97":173451.70999999999,"N_COORD97":2545933.5600000001,"ADDRESS":"大灣路９４２巷６４１弄８１之１２號","OBJECTID":181514},"geometry":{"x":173451.71000000183,"y":2545933.5600000024}},{"attributes":{"ID":181516,"DIS_CODE":0,"TOWNNAME":"六甲區","LI":"甲東里","LIN":"10鄰","STREET":"曾文街","SECT":" ","MAREA":" ","LANE":" ","ALLEY":" ","HOUSE_NO":"６２之１號","E_COORD97":184152.69,"N_COORD97":2570236.1000000001,"ADDRESS":"曾文街６２之１號","OBJECTID":181515},"geometry":{"x":184152.69000000134,"y":2570236.0999999996}},{"attributes":{"ID":181517,"DIS_CODE":0,"TOWNNAME":"六甲區","LI":"甲東里","LIN":"10鄰","STREET":"曾文街","SECT":" ","MAREA":" ","LANE":" ","ALLEY":" ","HOUSE_NO":"６６號","E_COORD97":184177.70999999999,"N_COORD97":2570257.5099999998,"ADDRESS":"曾文街６６號","OBJECTID":181516},"geometry":{"x":184177.71000000089,"y":2570257.5099999998}},{"attributes":{"ID":181518,"DIS_CODE":0,"TOWNNAME":"永康區","LI":"五王里","LIN":"4鄰","STREET":"中華二路","SECT":" ","MAREA":" ","LANE":"２０６巷","ALLEY":"３０弄","HOUSE_NO":"１７號","E_COORD97":171675.70999999999,"N_COORD97":2545587.9500000002,"ADDRESS":"中華二路２０６巷３０弄１７號","OBJECTID":181517},"geometry":{"x":171675.71000000089,"y":2545587.9500000011}},{"attributes":{"ID":181519,"DIS_CODE":0,"TOWNNAME":"永康區","LI":"五王里","LIN":"4鄰","STREET":"中華二路","SECT":" ","MAREA":" ","LANE":"２０６巷","ALLEY":"３０弄","HOUSE_NO":"１３號","E_COORD97":171667.42000000001,"N_COORD97":2545586.2000000002,"ADDRESS":"中華二路２０６巷３０弄１３號","OBJECTID":181518},"geometry":{"x":171667.42000000086,"y":2545586.2000000011}},{"attributes":{"ID":181520,"DIS_CODE":0,"TOWNNAME":"永康區","LI":"建國里","LIN":" ","STREET":"復興路","SECT":" ","MAREA":" ","LANE":"１巷","ALLEY":"３０弄","HOUSE_NO":"１５號","E_COORD97":173024.20000000001,"N_COORD97":2544180.27,"ADDRESS":"復興路１巷３０弄１５號","OBJECTID":181519},"geometry":{"x":173024.20000000019,"y":2544180.2699999996}},{"attributes":{"ID":181521,"DIS_CODE":0,"TOWNNAME":"永康區","LI":"建國里","LIN":" ","STREET":"復興路","SECT":" ","MAREA":" ","LANE":"１巷","ALLEY":"３０弄","HOUSE_NO":"１４０之４號","E_COORD97":173055,"N_COORD97":2543663.1000000001,"ADDRESS":"復興路１巷３０弄１４０之４號","OBJECTID":181520},"geometry":{"x":173055.00000000093,"y":2543663.0999999996}},{"attributes":{"ID":181522,"DIS_CODE":0,"TOWNNAME":"六甲區","LI":"菁埔里","LIN":"10鄰","STREET":" ","SECT":" ","MAREA":"菁埔寮","LANE":" ","ALLEY":" ","HOUSE_NO":"４７號","E_COORD97":177472.54000000001,"N_COORD97":2569921.96,"ADDRESS":"菁埔寮４７號","OBJECTID":181521},"geometry":{"x":177472.54000000097,"y":2569921.9600000028}},{"attributes":{"ID":181523,"DIS_CODE":0,"TOWNNAME":"麻豆區","LI":"安東里","LIN":"3鄰","STREET":" ","SECT":" ","MAREA":"安業","LANE":" ","ALLEY":" ","HOUSE_NO":"３７號","E_COORD97":172968.42000000001,"N_COORD97":2562905.8300000001,"ADDRESS":"安業３７號","OBJECTID":181522},"geometry":{"x":172968.41999999993,"y":2562905.8300000001}},{"attributes":{"ID":181524,"DIS_CODE":0,"TOWNNAME":"六甲區","LI":"菁埔里","LIN":"10鄰","STREET":" ","SECT":" ","MAREA":"菁埔寮","LANE":" ","ALLEY":" ","HOUSE_NO":"５７號","E_COORD97":177382.22,"N_COORD97":2569939.1299999999,"ADDRESS":"菁埔寮５７號","OBJECTID":181523},"geometry":{"x":177382.21999999974,"y":2569939.1300000008}},{"attributes":{"ID":181525,"DIS_CODE":0,"TOWNNAME":"六甲區","LI":"菁埔里","LIN":"10鄰","STREET":" ","SECT":" ","MAREA":"菁埔寮","LANE":" ","ALLEY":" ","HOUSE_NO":"６１號","E_COORD97":177420.48000000001,"N_COORD97":2569974.9399999999,"ADDRESS":"菁埔寮６１號","OBJECTID":181524},"geometry":{"x":177420.48000000231,"y":2569974.9400000013}},{"attributes":{"ID":181526,"DIS_CODE":0,"TOWNNAME":"六甲區","LI":"菁埔里","LIN":"10鄰","STREET":" ","SECT":" ","MAREA":"菁埔寮","LANE":" ","ALLEY":" ","HOUSE_NO":"６５號","E_COORD97":177447.10999999999,"N_COORD97":2570006.77,"ADDRESS":"菁埔寮６５號","OBJECTID":181525},"geometry":{"x":177447.11000000127,"y":2570006.7700000014}},{"attributes":{"ID":181527,"DIS_CODE":0,"TOWNNAME":"六甲區","LI":"菁埔里","LIN":"10鄰","STREET":" ","SECT":" ","MAREA":"菁埔寮","LANE":" ","ALLEY":" ","HOUSE_NO":"６９號","E_COORD97":177444.26000000001,"N_COORD97":2570034.8599999999,"ADDRESS":"菁埔寮６９號","OBJECTID":181526},"geometry":{"x":177444.25999999978,"y":2570034.8599999994}},{"attributes":{"ID":181528,"DIS_CODE":0,"TOWNNAME":"六甲區","LI":"菁埔里","LIN":"10鄰","STREET":" ","SECT":" ","MAREA":"菁埔寮","LANE":" ","ALLEY":" ","HOUSE_NO":"７１號","E_COORD97":177446.78,"N_COORD97":2570048.52,"ADDRESS":"菁埔寮７１號","OBJECTID":181527},"geometry":{"x":177446.78000000026,"y":2570048.5200000014}},{"attributes":{"ID":181529,"DIS_CODE":0,"TOWNNAME":"六甲區","LI":"菁埔里","LIN":"10鄰","STREET":" ","SECT":" ","MAREA":"菁埔寮","LANE":" ","ALLEY":" ","HOUSE_NO":"７２號","E_COORD97":177419.03,"N_COORD97":2570020.9100000001,"ADDRESS":"菁埔寮７２號","OBJECTID":181528},"geometry":{"x":177419.03000000119,"y":2570020.9100000001}},{"attributes":{"ID":181530,"DIS_CODE":0,"TOWNNAME":"永康區","LI":"甲頂里","LIN":" ","STREET":"大武街","SECT":" ","MAREA":" ","LANE":"５９７巷","ALLEY":"２弄","HOUSE_NO":"６號","E_COORD97":170293.26999999999,"N_COORD97":2546610.25,"ADDRESS":"大武街５９７巷２弄６號","OBJECTID":181529},"geometry":{"x":170293.27000000048,"y":2546610.2500000019}},{"attributes":{"ID":181531,"DIS_CODE":0,"TOWNNAME":"六甲區","LI":"菁埔里","LIN":"10鄰","STREET":" ","SECT":" ","MAREA":"菁埔寮","LANE":" ","ALLEY":" ","HOUSE_NO":"７３號","E_COORD97":177440.03,"N_COORD97":2570046.4900000002,"ADDRESS":"菁埔寮７３號","OBJECTID":181530},"geometry":{"x":177440.03000000026,"y":2570046.4900000021}},{"attributes":{"ID":181532,"DIS_CODE":0,"TOWNNAME":"六甲區","LI":"菁埔里","LIN":"10鄰","STREET":" ","SECT":" ","MAREA":"菁埔寮","LANE":" ","ALLEY":" ","HOUSE_NO":"７４號","E_COORD97":177383.63,"N_COORD97":2570011.3700000001,"ADDRESS":"菁埔寮７４號","OBJECTID":181531},"geometry":{"x":177383.63000000082,"y":2570011.3700000029}},{"attributes":{"ID":181533,"DIS_CODE":0,"TOWNNAME":"六甲區","LI":"菁埔里","LIN":"10鄰","STREET":" ","SECT":" ","MAREA":"菁埔寮","LANE":" ","ALLEY":" ","HOUSE_NO":"７５號","E_COORD97":177332.34,"N_COORD97":2570014.4199999999,"ADDRESS":"菁埔寮７５號","OBJECTID":181532},"geometry":{"x":177332.33999999985,"y":2570014.4199999999}},{"attributes":{"ID":181534,"DIS_CODE":0,"TOWNNAME":"六甲區","LI":"菁埔里","LIN":"10鄰","STREET":" ","SECT":" ","MAREA":"菁埔寮","LANE":" ","ALLEY":" ","HOUSE_NO":"８１號","E_COORD97":176808.01999999999,"N_COORD97":2570037.29,"ADDRESS":"菁埔寮８１號","OBJECTID":181533},"geometry":{"x":176808.02000000048,"y":2570037.290000001}},{"attributes":{"ID":181535,"DIS_CODE":0,"TOWNNAME":"六甲區","LI":"菁埔里","LIN":"10鄰","STREET":" ","SECT":" ","MAREA":"菁埔寮","LANE":" ","ALLEY":" ","HOUSE_NO":"８７號","E_COORD97":177334.87,"N_COORD97":2570049.0099999998,"ADDRESS":"菁埔寮８７號","OBJECTID":181534},"geometry":{"x":177334.87000000104,"y":2570049.0100000016}},{"attributes":{"ID":181536,"DIS_CODE":0,"TOWNNAME":"六甲區","LI":"菁埔里","LIN":"10鄰","STREET":" ","SECT":" ","MAREA":"菁埔寮","LANE":" ","ALLEY":" ","HOUSE_NO":"９０號","E_COORD97":177393.01000000001,"N_COORD97":2570068.7799999998,"ADDRESS":"菁埔寮９０號","OBJECTID":181535},"geometry":{"x":177393.01000000071,"y":2570068.7799999993}},{"attributes":{"ID":181537,"DIS_CODE":0,"TOWNNAME":"麻豆區","LI":"安業里","LIN":"10鄰","STREET":" ","SECT":" ","MAREA":"安業","LANE":" ","ALLEY":" ","HOUSE_NO":"１７５號","E_COORD97":172563.64000000001,"N_COORD97":2561964.3399999999,"ADDRESS":"安業１７５號","OBJECTID":181536},"geometry":{"x":172563.64000000153,"y":2561964.3400000017}},{"attributes":{"ID":181538,"DIS_CODE":0,"TOWNNAME":"麻豆區","LI":"安業里","LIN":"10鄰","STREET":" ","SECT":" ","MAREA":"安業","LANE":" ","ALLEY":" ","HOUSE_NO":"１７６號","E_COORD97":172574.64000000001,"N_COORD97":2561973.5699999998,"ADDRESS":"安業１７６號","OBJECTID":181537},"geometry":{"x":172574.63999999966,"y":2561973.5700000022}},{"attributes":{"ID":181539,"DIS_CODE":0,"TOWNNAME":"麻豆區","LI":"安業里","LIN":"10鄰","STREET":" ","SECT":" ","MAREA":"安業","LANE":" ","ALLEY":" ","HOUSE_NO":"１７８號","E_COORD97":172566.16,"N_COORD97":2561954.0699999998,"ADDRESS":"安業１７８號","OBJECTID":181538},"geometry":{"x":172566.16000000108,"y":2561954.0700000022}},{"attributes":{"ID":181540,"DIS_CODE":0,"TOWNNAME":"麻豆區","LI":"安業里","LIN":"10鄰","STREET":" ","SECT":" ","MAREA":"安業","LANE":" ","ALLEY":" ","HOUSE_NO":"１７９號","E_COORD97":172549.97,"N_COORD97":2561958.3500000001,"ADDRESS":"安業１７９號","OBJECTID":181539},"geometry":{"x":172549.97000000067,"y":2561958.3499999996}},{"attributes":{"ID":181541,"DIS_CODE":0,"TOWNNAME":"麻豆區","LI":"安業里","LIN":"10鄰","STREET":" ","SECT":" ","MAREA":"安業","LANE":" ","ALLEY":" ","HOUSE_NO":"１８４號之１","E_COORD97":172600.78,"N_COORD97":2561932.29,"ADDRESS":"安業１８４號之１","OBJECTID":181540},"geometry":{"x":172600.78000000119,"y":2561932.2899999991}},{"attributes":{"ID":181542,"DIS_CODE":0,"TOWNNAME":"麻豆區","LI":"安業里","LIN":"10鄰","STREET":" ","SECT":" ","MAREA":"安業","LANE":" ","ALLEY":" ","HOUSE_NO":"１８４號之２","E_COORD97":172602.39000000001,"N_COORD97":2561927.5800000001,"ADDRESS":"安業１８４號之２","OBJECTID":181541},"geometry":{"x":172602.38999999966,"y":2561927.5800000001}},{"attributes":{"ID":181543,"DIS_CODE":0,"TOWNNAME":"麻豆區","LI":"安業里","LIN":"10鄰","STREET":" ","SECT":" ","MAREA":"安業","LANE":" ","ALLEY":" ","HOUSE_NO":"１８５號之１","E_COORD97":172603.81,"N_COORD97":2561922.3700000001,"ADDRESS":"安業１８５號之１","OBJECTID":181542},"geometry":{"x":172603.81000000052,"y":2561922.370000001}},{"attributes":{"ID":181544,"DIS_CODE":0,"TOWNNAME":"麻豆區","LI":"安業里","LIN":"10鄰","STREET":" ","SECT":" ","MAREA":"安業","LANE":" ","ALLEY":" ","HOUSE_NO":"１８５號","E_COORD97":172605.12,"N_COORD97":2561917.5600000001,"ADDRESS":"安業１８５號","OBJECTID":181543},"geometry":{"x":172605.12000000104,"y":2561917.5600000005}},{"attributes":{"ID":181545,"DIS_CODE":0,"TOWNNAME":"麻豆區","LI":"安業里","LIN":"10鄰","STREET":" ","SECT":" ","MAREA":"安業","LANE":" ","ALLEY":" ","HOUSE_NO":"１８６號","E_COORD97":172577.87,"N_COORD97":2561937.04,"ADDRESS":"安業１８６號","OBJECTID":181544},"geometry":{"x":172577.87000000104,"y":2561937.0399999991}},{"attributes":{"ID":181546,"DIS_CODE":0,"TOWNNAME":"麻豆區","LI":"安業里","LIN":"10鄰","STREET":" ","SECT":" ","MAREA":"安業","LANE":" ","ALLEY":" ","HOUSE_NO":"１８７號","E_COORD97":172559.54999999999,"N_COORD97":2561893.04,"ADDRESS":"安業１８７號","OBJECTID":181545},"geometry":{"x":172559.55000000075,"y":2561893.0399999991}},{"attributes":{"ID":181547,"DIS_CODE":0,"TOWNNAME":"麻豆區","LI":"安業里","LIN":"10鄰","STREET":" ","SECT":" ","MAREA":"安業","LANE":" ","ALLEY":" ","HOUSE_NO":"１８８號","E_COORD97":172589.39999999999,"N_COORD97":2561917.1699999999,"ADDRESS":"安業１８８號","OBJECTID":181546},"geometry":{"x":172589.40000000037,"y":2561917.1699999981}},{"attributes":{"ID":181548,"DIS_CODE":0,"TOWNNAME":"麻豆區","LI":"安業里","LIN":"10鄰","STREET":" ","SECT":" ","MAREA":"安業","LANE":" ","ALLEY":" ","HOUSE_NO":"１８９號","E_COORD97":172587.81,"N_COORD97":2561902.6499999999,"ADDRESS":"安業１８９號","OBJECTID":181547},"geometry":{"x":172587.81000000145,"y":2561902.6500000022}},{"attributes":{"ID":181549,"DIS_CODE":0,"TOWNNAME":"麻豆區","LI":"安業里","LIN":"10鄰","STREET":" ","SECT":" ","MAREA":"安業","LANE":" ","ALLEY":" ","HOUSE_NO":"１９０號之１","E_COORD97":172592.64000000001,"N_COORD97":2561879.8599999999,"ADDRESS":"安業１９０號之１","OBJECTID":181548},"geometry":{"x":172592.6400000006,"y":2561879.8600000013}},{"attributes":{"ID":181550,"DIS_CODE":0,"TOWNNAME":"麻豆區","LI":"安業里","LIN":"10鄰","STREET":" ","SECT":" ","MAREA":"安業","LANE":" ","ALLEY":" ","HOUSE_NO":"１９０號之２","E_COORD97":172598.92000000001,"N_COORD97":2561882.27,"ADDRESS":"安業１９０號之２","OBJECTID":181549},"geometry":{"x":172598.91999999993,"y":2561882.2699999977}},{"attributes":{"ID":181551,"DIS_CODE":0,"TOWNNAME":"麻豆區","LI":"安業里","LIN":"10鄰","STREET":" ","SECT":" ","MAREA":"安業","LANE":" ","ALLEY":" ","HOUSE_NO":"１９４號之６","E_COORD97":172637.20000000001,"N_COORD97":2561834.9100000001,"ADDRESS":"安業１９４號之６","OBJECTID":181550},"geometry":{"x":172637.20000000112,"y":2561834.9100000039}},{"attributes":{"ID":181552,"DIS_CODE":0,"TOWNNAME":"麻豆區","LI":"安業里","LIN":"10鄰","STREET":" ","SECT":" ","MAREA":"安業","LANE":" ","ALLEY":" ","HOUSE_NO":"１９４號之７","E_COORD97":172633.16,"N_COORD97":2561831.8100000001,"ADDRESS":"安業１９４號之７","OBJECTID":181551},"geometry":{"x":172633.16000000015,"y":2561831.8100000005}},{"attributes":{"ID":181553,"DIS_CODE":0,"TOWNNAME":"麻豆區","LI":"安業里","LIN":"10鄰","STREET":" ","SECT":" ","MAREA":"安業","LANE":" ","ALLEY":" ","HOUSE_NO":"１９４號之８","E_COORD97":172629.16,"N_COORD97":2561829.1200000001,"ADDRESS":"安業１９４號之８","OBJECTID":181552},"geometry":{"x":172629.16000000108,"y":2561829.120000001}},{"attributes":{"ID":181554,"DIS_CODE":0,"TOWNNAME":"麻豆區","LI":"安業里","LIN":"10鄰","STREET":" ","SECT":" ","MAREA":"安業","LANE":" ","ALLEY":" ","HOUSE_NO":"１９４號","E_COORD97":172641.79999999999,"N_COORD97":2561839.1299999999,"ADDRESS":"安業１９４號","OBJECTID":181553},"geometry":{"x":172641.79999999981,"y":2561839.1300000008}},{"attributes":{"ID":181555,"DIS_CODE":0,"TOWNNAME":"新營區","LI":"土庫里","LIN":"10鄰","STREET":" ","SECT":" ","MAREA":"土庫","LANE":" ","ALLEY":" ","HOUSE_NO":"８５號","E_COORD97":183139.23000000001,"N_COORD97":2579748.71,"ADDRESS":"土庫８５號","OBJECTID":181554},"geometry":{"x":183139.23000000045,"y":2579748.7100000028}},{"attributes":{"ID":181556,"DIS_CODE":0,"TOWNNAME":"麻豆區","LI":"中興里","LIN":"10鄰","STREET":"和平路","SECT":" ","MAREA":" ","LANE":" ","ALLEY":" ","HOUSE_NO":"１０號","E_COORD97":173034.44,"N_COORD97":2564388.1600000001,"ADDRESS":"和平路１０號","OBJECTID":181555},"geometry":{"x":173034.44000000041,"y":2564388.1600000001}},{"attributes":{"ID":181557,"DIS_CODE":0,"TOWNNAME":"新營區","LI":"土庫里","LIN":"10鄰","STREET":" ","SECT":" ","MAREA":"土庫","LANE":" ","ALLEY":" ","HOUSE_NO":"８６號","E_COORD97":183137.10999999999,"N_COORD97":2579733.2200000002,"ADDRESS":"土庫８６號","OBJECTID":181556},"geometry":{"x":183137.11000000034,"y":2579733.2200000007}},{"attributes":{"ID":181558,"DIS_CODE":0,"TOWNNAME":"安定區","LI":"蘇林里","LIN":"11鄰","STREET":" ","SECT":" ","MAREA":"蘇厝","LANE":" ","ALLEY":" ","HOUSE_NO":"１２３號","E_COORD97":173638.92000000001,"N_COORD97":2558925.25,"ADDRESS":"蘇厝１２３號","OBJECTID":181557},"geometry":{"x":173638.92000000086,"y":2558925.25}},{"attributes":{"ID":181559,"DIS_CODE":0,"TOWNNAME":"安定區","LI":"蘇林里","LIN":"11鄰","STREET":" ","SECT":" ","MAREA":"蘇厝","LANE":" ","ALLEY":" ","HOUSE_NO":"１２９號","E_COORD97":173638.82000000001,"N_COORD97":2558980.25,"ADDRESS":"蘇厝１２９號","OBJECTID":181558},"geometry":{"x":173638.8200000003,"y":2558980.25}},{"attributes":{"ID":181560,"DIS_CODE":0,"TOWNNAME":"安定區","LI":"中榮里","LIN":"11鄰","STREET":" ","SECT":" ","MAREA":"許中營","LANE":" ","ALLEY":" ","HOUSE_NO":"８６號之１","E_COORD97":172184.88,"N_COORD97":2555155.2999999998,"ADDRESS":"許中營８６號之１","OBJECTID":181559},"geometry":{"x":172184.88000000082,"y":2555155.3000000026}},{"attributes":{"ID":181561,"DIS_CODE":0,"TOWNNAME":"安定區","LI":"蘇林里","LIN":"11鄰","STREET":" ","SECT":" ","MAREA":"蘇厝","LANE":" ","ALLEY":" ","HOUSE_NO":"１２４之５號","E_COORD97":173642.72,"N_COORD97":2558952.2999999998,"ADDRESS":"蘇厝１２４之５號","OBJECTID":181560},"geometry":{"x":173642.71999999974,"y":2558952.3000000026}},{"attributes":{"ID":181562,"DIS_CODE":0,"TOWNNAME":"安定區","LI":"蘇林里","LIN":"11鄰","STREET":" ","SECT":" ","MAREA":"蘇厝","LANE":" ","ALLEY":" ","HOUSE_NO":"１１７之２號","E_COORD97":173681.32000000001,"N_COORD97":2558907.2999999998,"ADDRESS":"蘇厝１１７之２號","OBJECTID":181561},"geometry":{"x":173681.3200000003,"y":2558907.3000000026}},{"attributes":{"ID":181563,"DIS_CODE":0,"TOWNNAME":"安定區","LI":"大同里","LIN":"11鄰","STREET":" ","SECT":" ","MAREA":"大同","LANE":" ","ALLEY":" ","HOUSE_NO":"１２７號","E_COORD97":170304.22,"N_COORD97":2553764.25,"ADDRESS":"大同１２７號","OBJECTID":181562},"geometry":{"x":170304.22000000067,"y":2553764.2500000019}},{"attributes":{"ID":181564,"DIS_CODE":0,"TOWNNAME":"麻豆區","LI":"中興里","LIN":"10鄰","STREET":"和平路","SECT":" ","MAREA":" ","LANE":" ","ALLEY":" ","HOUSE_NO":"１２號之１０","E_COORD97":172931.48999999999,"N_COORD97":2564376.7000000002,"ADDRESS":"和平路１２號之１０","OBJECTID":181563},"geometry":{"x":172931.49000000115,"y":2564376.6999999993}},{"attributes":{"ID":181565,"DIS_CODE":0,"TOWNNAME":"安定區","LI":"中榮里","LIN":"11鄰","STREET":" ","SECT":" ","MAREA":"許中營","LANE":" ","ALLEY":" ","HOUSE_NO":"８６之５號","E_COORD97":172159.84,"N_COORD97":2555159.2999999998,"ADDRESS":"許中營８６之５號","OBJECTID":181564},"geometry":{"x":172159.83999999985,"y":2555159.3000000007}},{"attributes":{"ID":181566,"DIS_CODE":0,"TOWNNAME":"安定區","LI":"港尾里","LIN":"11鄰","STREET":" ","SECT":" ","MAREA":"港子尾","LANE":" ","ALLEY":" ","HOUSE_NO":"６４號之１","E_COORD97":171443.23000000001,"N_COORD97":2555709.2999999998,"ADDRESS":"港子尾６４號之１","OBJECTID":181565},"geometry":{"x":171443.23000000231,"y":2555709.3000000007}},{"attributes":{"ID":181567,"DIS_CODE":0,"TOWNNAME":"安定區","LI":"大同里","LIN":"11鄰","STREET":" ","SECT":" ","MAREA":"大同","LANE":" ","ALLEY":" ","HOUSE_NO":"１２６號","E_COORD97":170317.22,"N_COORD97":2553768.25,"ADDRESS":"大同１２６號","OBJECTID":181566},"geometry":{"x":170317.22000000067,"y":2553768.25}},{"attributes":{"ID":181568,"DIS_CODE":0,"TOWNNAME":"永康區","LI":"甲頂里","LIN":" ","STREET":"大武街","SECT":" ","MAREA":" ","LANE":"５９７巷","ALLEY":"２弄","HOUSE_NO":"３６號","E_COORD97":170352.94,"N_COORD97":2546575.1800000002,"ADDRESS":"大武街５９７巷２弄３６號","OBJECTID":181567},"geometry":{"x":170352.94000000041,"y":2546575.1799999997}},{"attributes":{"ID":181569,"DIS_CODE":0,"TOWNNAME":"安定區","LI":"中榮里","LIN":"11鄰","STREET":" ","SECT":" ","MAREA":"許中營","LANE":" ","ALLEY":" ","HOUSE_NO":"９０號之８","E_COORD97":172089.84265800001,"N_COORD97":2555024.4141500001,"ADDRESS":"許中營９０號之８","OBJECTID":181568},"geometry":{"x":172089.842658001,"y":2555024.4141470026}},{"attributes":{"ID":181570,"DIS_CODE":0,"TOWNNAME":"安定區","LI":"港尾里","LIN":"11鄰","STREET":" ","SECT":" ","MAREA":"港子尾","LANE":" ","ALLEY":" ","HOUSE_NO":"６２號","E_COORD97":171474.09,"N_COORD97":2555755.2599999998,"ADDRESS":"港子尾６２號","OBJECTID":181569},"geometry":{"x":171474.09000000171,"y":2555755.2599999998}},{"attributes":{"ID":181571,"DIS_CODE":0,"TOWNNAME":"安定區","LI":"港尾里","LIN":"11鄰","STREET":" ","SECT":" ","MAREA":"港子尾","LANE":" ","ALLEY":" ","HOUSE_NO":"６６之２號","E_COORD97":171461.39000000001,"N_COORD97":2555776.2999999998,"ADDRESS":"港子尾６６之２號","OBJECTID":181570},"geometry":{"x":171461.38999999966,"y":2555776.3000000007}},{"attributes":{"ID":181572,"DIS_CODE":0,"TOWNNAME":"永康區","LI":"五王里","LIN":" ","STREET":"中華二路","SECT":" ","MAREA":" ","LANE":"２０６巷","ALLEY":"６８弄","HOUSE_NO":"３４號","E_COORD97":171677.14000000001,"N_COORD97":2545661.04,"ADDRESS":"中華二路２０６巷６８弄３４號","OBJECTID":181571},"geometry":{"x":171677.1400000006,"y":2545661.040000001}},{"attributes":{"ID":181573,"DIS_CODE":0,"TOWNNAME":"安定區","LI":"中榮里","LIN":"11鄰","STREET":" ","SECT":" ","MAREA":"許中營","LANE":" ","ALLEY":" ","HOUSE_NO":"８６之８號","E_COORD97":172166.44,"N_COORD97":2555171.2999999998,"ADDRESS":"許中營８６之８號","OBJECTID":181572},"geometry":{"x":172166.44000000134,"y":2555171.3000000026}},{"attributes":{"ID":181574,"DIS_CODE":0,"TOWNNAME":"永康區","LI":"北灣里","LIN":" ","STREET":"大灣路","SECT":" ","MAREA":" ","LANE":"３７巷","ALLEY":"６弄","HOUSE_NO":"１６號","E_COORD97":175341.32000000001,"N_COORD97":2545812.25,"ADDRESS":"大灣路３７巷６弄１６號","OBJECTID":181573},"geometry":{"x":175341.31999999937,"y":2545812.25}},{"attributes":{"ID":181575,"DIS_CODE":0,"TOWNNAME":"永康區","LI":"甲頂里","LIN":" ","STREET":"大武街","SECT":" ","MAREA":" ","LANE":"５９７巷","ALLEY":"３４弄","HOUSE_NO":"１５號","E_COORD97":170289.79000000001,"N_COORD97":2546535.25,"ADDRESS":"大武街５９７巷３４弄１５號","OBJECTID":181574},"geometry":{"x":170289.7900000019,"y":2546535.2500000019}},{"attributes":{"ID":181576,"DIS_CODE":0,"TOWNNAME":"永康區","LI":"北灣里","LIN":" ","STREET":"大灣路","SECT":" ","MAREA":" ","LANE":"４０巷","ALLEY":"２０９弄","HOUSE_NO":"１之３號","E_COORD97":174793.14999999999,"N_COORD97":2546313.0499999998,"ADDRESS":"大灣路４０巷２０９弄１之３號","OBJECTID":181575},"geometry":{"x":174793.15000000037,"y":2546313.0499999989}},{"attributes":{"ID":181577,"DIS_CODE":0,"TOWNNAME":"永康區","LI":"埔園里","LIN":" ","STREET":"永大路","SECT":"三段","MAREA":" ","LANE":"３６０巷","ALLEY":"２１弄","HOUSE_NO":"７號","E_COORD97":174225.60999999999,"N_COORD97":2548208.25,"ADDRESS":"永大路三段３６０巷２１弄７號","OBJECTID":181576},"geometry":{"x":174225.61000000034,"y":2548208.25}},{"attributes":{"ID":181578,"DIS_CODE":0,"TOWNNAME":"永康區","LI":"\u25A0行里","LIN":"32鄰","STREET":"仁愛街","SECT":" ","MAREA":" ","LANE":"１０８巷","ALLEY":"３２弄","HOUSE_NO":"１號","E_COORD97":172233.32999999999,"N_COORD97":2549379.0299999998,"ADDRESS":"仁愛街１０８巷３２弄１號","OBJECTID":181577},"geometry":{"x":172233.33000000007,"y":2549379.0299999993}},{"attributes":{"ID":181579,"DIS_CODE":0,"TOWNNAME":"安定區","LI":"海寮里","LIN":"11鄰","STREET":" ","SECT":" ","MAREA":"海寮","LANE":" ","ALLEY":" ","HOUSE_NO":"１０８之１號","E_COORD97":169137.54000000001,"N_COORD97":2555294.2999999998,"ADDRESS":"海寮１０８之１號","OBJECTID":181578},"geometry":{"x":169137.54000000097,"y":2555294.3000000026}},{"attributes":{"ID":181580,"DIS_CODE":0,"TOWNNAME":"永康區","LI":"甲頂里","LIN":" ","STREET":"大武街","SECT":" ","MAREA":" ","LANE":"５９７巷","ALLEY":"３４弄","HOUSE_NO":"３３號","E_COORD97":170324.85000000001,"N_COORD97":2546520,"ADDRESS":"大武街５９７巷３４弄３３號","OBJECTID":181579},"geometry":{"x":170324.85000000056,"y":2546520.0000000019}},{"attributes":{"ID":181581,"DIS_CODE":0,"TOWNNAME":"安定區","LI":"海寮里","LIN":"11鄰","STREET":" ","SECT":" ","MAREA":"海寮","LANE":" ","ALLEY":" ","HOUSE_NO":"１１１之１號","E_COORD97":169154.34,"N_COORD97":2555238.2999999998,"ADDRESS":"海寮１１１之１號","OBJECTID":181580},"geometry":{"x":169154.33999999985,"y":2555238.3000000045}},{"attributes":{"ID":181582,"DIS_CODE":0,"TOWNNAME":"安定區","LI":"海寮里","LIN":"11鄰","STREET":" ","SECT":" ","MAREA":"海寮","LANE":" ","ALLEY":" ","HOUSE_NO":"１１７之２號","E_COORD97":169110.14000000001,"N_COORD97":2555352.2999999998,"ADDRESS":"海寮１１７之２號","OBJECTID":181581},"geometry":{"x":169110.13999999966,"y":2555352.3000000007}},{"attributes":{"ID":181583,"DIS_CODE":0,"TOWNNAME":"安定區","LI":"港尾里","LIN":"11鄰","STREET":" ","SECT":" ","MAREA":"港子尾","LANE":" ","ALLEY":" ","HOUSE_NO":"６５號之２","E_COORD97":171462.66,"N_COORD97":2555744.2999999998,"ADDRESS":"港子尾６５號之２","OBJECTID":181582},"geometry":{"x":171462.66000000108,"y":2555744.3000000026}},{"attributes":{"ID":181584,"DIS_CODE":0,"TOWNNAME":"安定區","LI":"中榮里","LIN":"11鄰","STREET":" ","SECT":" ","MAREA":"許中營","LANE":" ","ALLEY":" ","HOUSE_NO":"９０之９號","E_COORD97":172152.194399,"N_COORD97":2555047.23019,"ADDRESS":"許中營９０之９號","OBJECTID":181583},"geometry":{"x":172152.19439900015,"y":2555047.2301920019}},{"attributes":{"ID":181585,"DIS_CODE":0,"TOWNNAME":"安定區","LI":"港口里","LIN":"11鄰","STREET":" ","SECT":" ","MAREA":"港口","LANE":" ","ALLEY":" ","HOUSE_NO":"３２４號之１","E_COORD97":171241.92999999999,"N_COORD97":2554571.2999999998,"ADDRESS":"港口３２４號之１","OBJECTID":181584},"geometry":{"x":171241.9299999997,"y":2554571.3000000026}},{"attributes":{"ID":181586,"DIS_CODE":0,"TOWNNAME":"安定區","LI":"中榮里","LIN":"11鄰","STREET":" ","SECT":" ","MAREA":"許中營","LANE":" ","ALLEY":" ","HOUSE_NO":"９０號之１８","E_COORD97":172078.48000000001,"N_COORD97":2554989.2999999998,"ADDRESS":"許中營９０號之１８","OBJECTID":181585},"geometry":{"x":172078.48000000045,"y":2554989.3000000007}},{"attributes":{"ID":181587,"DIS_CODE":0,"TOWNNAME":"永康區","LI":"大橋里","LIN":" ","STREET":"大橋一街","SECT":" ","MAREA":" ","LANE":"１０３巷","ALLEY":"４１弄","HOUSE_NO":"２９號","E_COORD97":170939.85000000001,"N_COORD97":2546473.5499999998,"ADDRESS":"大橋一街１０３巷４１弄２９號","OBJECTID":181586},"geometry":{"x":170939.85000000149,"y":2546473.5500000026}},{"attributes":{"ID":181588,"DIS_CODE":0,"TOWNNAME":"永康區","LI":"五王里","LIN":" ","STREET":"中華路","SECT":" ","MAREA":" ","LANE":"２０６巷","ALLEY":"３０弄","HOUSE_NO":"５號","E_COORD97":171648.32000000001,"N_COORD97":2545583.0899999999,"ADDRESS":"中華路２０６巷３０弄５號","OBJECTID":181587},"geometry":{"x":171648.32000000123,"y":2545583.0900000036}},{"attributes":{"ID":181589,"DIS_CODE":0,"TOWNNAME":"永康區","LI":"甲頂里","LIN":" ","STREET":"大武街","SECT":" ","MAREA":" ","LANE":"５９７巷","ALLEY":"２弄","HOUSE_NO":"３４號","E_COORD97":170348.73999999999,"N_COORD97":2546577.6800000002,"ADDRESS":"大武街５９７巷２弄３４號","OBJECTID":181588},"geometry":{"x":170348.74000000022,"y":2546577.6799999997}},{"attributes":{"ID":181590,"DIS_CODE":0,"TOWNNAME":"安定區","LI":"海寮里","LIN":"11鄰","STREET":" ","SECT":" ","MAREA":"海寮","LANE":" ","ALLEY":" ","HOUSE_NO":"１１７之１號","E_COORD97":169112.44,"N_COORD97":2555336.2999999998,"ADDRESS":"海寮１１７之１號","OBJECTID":181589},"geometry":{"x":169112.44000000041,"y":2555336.3000000007}},{"attributes":{"ID":181591,"DIS_CODE":0,"TOWNNAME":"安定區","LI":"中榮里","LIN":"11鄰","STREET":" ","SECT":" ","MAREA":"許中營","LANE":" ","ALLEY":" ","HOUSE_NO":"８７之１號","E_COORD97":172121.94,"N_COORD97":2555114.2999999998,"ADDRESS":"許中營８７之１號","OBJECTID":181590},"geometry":{"x":172121.94000000134,"y":2555114.3000000026}},{"attributes":{"ID":181592,"DIS_CODE":0,"TOWNNAME":"永康區","LI":"埔園里","LIN":"23鄰","STREET":"自強路","SECT":" ","MAREA":" ","LANE":"３７９巷","ALLEY":" ","HOUSE_NO":"５５號","E_COORD97":173581.94,"N_COORD97":2548021.5099999998,"ADDRESS":"自強路３７９巷５３弄５５號","OBJECTID":181591},"geometry":{"x":173581.94000000134,"y":2548021.5100000016}},{"attributes":{"ID":181593,"DIS_CODE":0,"TOWNNAME":"永康區","LI":"甲頂里","LIN":" ","STREET":"大武街","SECT":" ","MAREA":" ","LANE":"５９７巷","ALLEY":"２弄","HOUSE_NO":"３８號","E_COORD97":170356.14999999999,"N_COORD97":2546571.6800000002,"ADDRESS":"大武街５９７巷２弄３８號","OBJECTID":181592},"geometry":{"x":170356.1500000013,"y":2546571.6799999997}},{"attributes":{"ID":181594,"DIS_CODE":0,"TOWNNAME":"永康區","LI":"北灣里","LIN":" ","STREET":"大灣路","SECT":" ","MAREA":" ","LANE":"４０巷","ALLEY":"２０９弄","HOUSE_NO":"１之１０號","E_COORD97":174766.72,"N_COORD97":2546277.29,"ADDRESS":"大灣路４０巷２０９弄１之１０號","OBJECTID":181593},"geometry":{"x":174766.71999999881,"y":2546277.290000001}},{"attributes":{"ID":181595,"DIS_CODE":0,"TOWNNAME":"永康區","LI":"甲頂里","LIN":" ","STREET":"大武街","SECT":" ","MAREA":" ","LANE":"５９７巷","ALLEY":"３４弄","HOUSE_NO":"３號","E_COORD97":170263.81,"N_COORD97":2546543,"ADDRESS":"大武街５９７巷３４弄３號","OBJECTID":181594},"geometry":{"x":170263.81000000052,"y":2546543}},{"attributes":{"ID":181596,"DIS_CODE":0,"TOWNNAME":"永康區","LI":"大橋里","LIN":" ","STREET":"大橋一街","SECT":" ","MAREA":" ","LANE":"１０３巷","ALLEY":"６１弄","HOUSE_NO":"３６號","E_COORD97":170851.03,"N_COORD97":2546593.1200000001,"ADDRESS":"大橋一街１０３巷６１弄３６號","OBJECTID":181595},"geometry":{"x":170851.03000000212,"y":2546593.120000001}},{"attributes":{"ID":181597,"DIS_CODE":0,"TOWNNAME":"永康區","LI":"二王里","LIN":" ","STREET":"中山南路","SECT":" ","MAREA":" ","LANE":"５４４巷","ALLEY":"６７弄","HOUSE_NO":"２５號","E_COORD97":172416.31,"N_COORD97":2546360.8199999998,"ADDRESS":"中山南路５４４巷６７弄２５號","OBJECTID":181596},"geometry":{"x":172416.30999999959,"y":2546360.8200000003}},{"attributes":{"ID":181598,"DIS_CODE":0,"TOWNNAME":"永康區","LI":"\u25A0行里","LIN":"32鄰","STREET":"仁愛街","SECT":" ","MAREA":" ","LANE":"１０８巷","ALLEY":"３２弄","HOUSE_NO":"３號","E_COORD97":172237.54000000001,"N_COORD97":2549376.2000000002,"ADDRESS":"仁愛街１０８巷３２弄３號","OBJECTID":181597},"geometry":{"x":172237.5400000019,"y":2549376.2000000011}},{"attributes":{"ID":181599,"DIS_CODE":0,"TOWNNAME":"永康區","LI":"網寮里","LIN":" ","STREET":"大灣路","SECT":" ","MAREA":" ","LANE":"９４２巷","ALLEY":"６４１弄","HOUSE_NO":"８１之２號","E_COORD97":173474.70999999999,"N_COORD97":2545983.2999999998,"ADDRESS":"大灣路９４２巷６４１弄８１之２號","OBJECTID":181598},"geometry":{"x":173474.70999999996,"y":2545983.3000000026}},{"attributes":{"ID":181600,"DIS_CODE":0,"TOWNNAME":"安定區","LI":"海寮里","LIN":"11鄰","STREET":" ","SECT":" ","MAREA":"海寮","LANE":" ","ALLEY":" ","HOUSE_NO":"１１１之３號","E_COORD97":169149.23999999999,"N_COORD97":2555236.2999999998,"ADDRESS":"海寮１１１之３號","OBJECTID":181599},"geometry":{"x":169149.23999999929,"y":2555236.3000000026}},{"attributes":{"ID":181601,"DIS_CODE":0,"TOWNNAME":"安定區","LI":"中榮里","LIN":"11鄰","STREET":" ","SECT":" ","MAREA":"許中營","LANE":" ","ALLEY":" ","HOUSE_NO":"８６之９號","E_COORD97":172169.54000000001,"N_COORD97":2555175.2999999998,"ADDRESS":"許中營８６之９號","OBJECTID":181600},"geometry":{"x":172169.53999999911,"y":2555175.3000000026}}]}