{"displayFieldName":"TOWNNAME","fieldAliases":{"ID":"ID","DIS_CODE":"DIS_CODE","TOWNNAME":"TOWNNAME","LI":"LI","LIN":"LIN","STREET":"STREET","SECT":"SECT","MAREA":"MAREA","LANE":"LANE","ALLEY":"ALLEY","HOUSE_NO":"HOUSE_NO","E_COORD97":"E_COORD97","N_COORD97":"N_COORD97","ADDRESS":"ADDRESS","OBJECTID":"OBJECTID"},"geometryType":"esriGeometryPoint","spatialReference":{"wkid":102443,"latestWkid":3826},"fields":[{"name":"ID","type":"esriFieldTypeDouble","alias":"ID"},{"name":"DIS_CODE","type":"esriFieldTypeInteger","alias":"DIS_CODE"},{"name":"TOWNNAME","type":"esriFieldTypeString","alias":"TOWNNAME","length":8},{"name":"LI","type":"esriFieldTypeString","alias":"LI","length":8},{"name":"LIN","type":"esriFieldTypeString","alias":"LIN","length":12},{"name":"STREET","type":"esriFieldTypeString","alias":"STREET","length":20},{"name":"SECT","type":"esriFieldTypeString","alias":"SECT","length":8},{"name":"MAREA","type":"esriFieldTypeString","alias":"MAREA","length":12},{"name":"LANE","type":"esriFieldTypeString","alias":"LANE","length":10},{"name":"ALLEY","type":"esriFieldTypeString","alias":"ALLEY","length":10},{"name":"HOUSE_NO","type":"esriFieldTypeString","alias":"HOUSE_NO","length":20},{"name":"E_COORD97","type":"esriFieldTypeDouble","alias":"E_COORD97"},{"name":"N_COORD97","type":"esriFieldTypeDouble","alias":"N_COORD97"},{"name":"ADDRESS","type":"esriFieldTypeString","alias":"ADDRESS","length":50},{"name":"OBJECTID","type":"esriFieldTypeOID","alias":"OBJECTID"}],"features":[{"attributes":{"ID":653428,"DIS_CODE":0,"TOWNNAME":"仁德區","LI":"仁義里","LIN":"28鄰","STREET":"正義二街","SECT":" ","MAREA":" ","LANE":" ","ALLEY":" ","HOUSE_NO":"９０號四樓之５","E_COORD97":173696.112406,"N_COORD97":2541573.2324000001,"ADDRESS":"正義二街９０號四樓之５","OBJECTID":653401},"geometry":{"x":173696.11240600049,"y":2541573.2324030027}},{"attributes":{"ID":653429,"DIS_CODE":0,"TOWNNAME":"仁德區","LI":"仁義里","LIN":"28鄰","STREET":"正義二街","SECT":" ","MAREA":" ","LANE":" ","ALLEY":" ","HOUSE_NO":"９０號四樓之６","E_COORD97":173696.112406,"N_COORD97":2541573.2324000001,"ADDRESS":"正義二街９０號四樓之６","OBJECTID":653402},"geometry":{"x":173696.11240600049,"y":2541573.2324030027}},{"attributes":{"ID":653430,"DIS_CODE":0,"TOWNNAME":"仁德區","LI":"仁義里","LIN":"28鄰","STREET":"正義二街","SECT":" ","MAREA":" ","LANE":" ","ALLEY":" ","HOUSE_NO":"９０號四樓之７","E_COORD97":173696.112406,"N_COORD97":2541573.2324000001,"ADDRESS":"正義二街９０號四樓之７","OBJECTID":653403},"geometry":{"x":173696.11240600049,"y":2541573.2324030027}},{"attributes":{"ID":653431,"DIS_CODE":0,"TOWNNAME":"關廟區","LI":"龜洞里","LIN":"2鄰","STREET":"長榮街","SECT":" ","MAREA":" ","LANE":" ","ALLEY":" ","HOUSE_NO":"３２號","E_COORD97":183330.017968,"N_COORD97":2533792.1001200001,"ADDRESS":"長榮街３２號","OBJECTID":653404},"geometry":{"x":183330.01796800084,"y":2533792.1001200024}},{"attributes":{"ID":653432,"DIS_CODE":0,"TOWNNAME":"關廟區","LI":"龜洞里","LIN":"2鄰","STREET":"長榮街","SECT":" ","MAREA":" ","LANE":" ","ALLEY":" ","HOUSE_NO":"１８號","E_COORD97":183330.017968,"N_COORD97":2533792.1001200001,"ADDRESS":"長榮街１８號","OBJECTID":653405},"geometry":{"x":183330.01796800084,"y":2533792.1001200024}},{"attributes":{"ID":653433,"DIS_CODE":0,"TOWNNAME":"關廟區","LI":"關廟里","LIN":"2鄰","STREET":"長榮街","SECT":" ","MAREA":" ","LANE":" ","ALLEY":" ","HOUSE_NO":"１９號","E_COORD97":183353.323917,"N_COORD97":2533761.9376400001,"ADDRESS":"長榮街１９號","OBJECTID":653406},"geometry":{"x":183353.32391699962,"y":2533761.937636001}},{"attributes":{"ID":653434,"DIS_CODE":0,"TOWNNAME":"關廟區","LI":"龜洞里","LIN":"2鄰","STREET":"長榮街","SECT":" ","MAREA":" ","LANE":" ","ALLEY":" ","HOUSE_NO":"１９號","E_COORD97":183352.47642799999,"N_COORD97":2533763.4193000002,"ADDRESS":"長榮街１９號","OBJECTID":653407},"geometry":{"x":183352.47642800119,"y":2533763.4193020035}},{"attributes":{"ID":653435,"DIS_CODE":0,"TOWNNAME":"關廟區","LI":"龜洞里","LIN":"7鄰","STREET":"南雄南路","SECT":" ","MAREA":" ","LANE":" ","ALLEY":" ","HOUSE_NO":"７６５號","E_COORD97":183207.285195,"N_COORD97":2533355.0561000002,"ADDRESS":"南雄南路７６５號","OBJECTID":653408},"geometry":{"x":183207.28519500047,"y":2533355.0561019983}},{"attributes":{"ID":653436,"DIS_CODE":0,"TOWNNAME":"麻豆區","LI":"東角里","LIN":"11鄰","STREET":"國中街","SECT":" ","MAREA":" ","LANE":" ","ALLEY":" ","HOUSE_NO":"１３２號之１","E_COORD97":173918.59376799999,"N_COORD97":2564427.72303,"ADDRESS":"國中街１３２號之１","OBJECTID":653409},"geometry":{"x":173918.59376799967,"y":2564427.7230270039}},{"attributes":{"ID":653437,"DIS_CODE":0,"TOWNNAME":"麻豆區","LI":"東角里","LIN":"11鄰","STREET":"國中街","SECT":" ","MAREA":" ","LANE":" ","ALLEY":" ","HOUSE_NO":"１３０號","E_COORD97":173954.40018,"N_COORD97":2564426.45303,"ADDRESS":"國中街１３０號","OBJECTID":653410},"geometry":{"x":173954.40017999988,"y":2564426.4530280028}},{"attributes":{"ID":653438,"DIS_CODE":0,"TOWNNAME":"麻豆區","LI":"東角里","LIN":"12鄰","STREET":"同仁街","SECT":" ","MAREA":" ","LANE":" ","ALLEY":" ","HOUSE_NO":"４號之１２","E_COORD97":173768.80008099999,"N_COORD97":2564739.1903599999,"ADDRESS":"同仁街４號之１２","OBJECTID":653411},"geometry":{"x":173768.80008099973,"y":2564739.190359002}},{"attributes":{"ID":653439,"DIS_CODE":0,"TOWNNAME":"官田區","LI":"大崎里","LIN":"6鄰","STREET":" ","SECT":" ","MAREA":"大崎","LANE":" ","ALLEY":" ","HOUSE_NO":"５２號","E_COORD97":185790.84606499999,"N_COORD97":2565305.5455100001,"ADDRESS":"大崎５２號","OBJECTID":653412},"geometry":{"x":185790.84606500063,"y":2565305.5455099996}},{"attributes":{"ID":653440,"DIS_CODE":0,"TOWNNAME":"下營區","LI":"開化里","LIN":"2鄰","STREET":" ","SECT":" ","MAREA":"中營","LANE":" ","ALLEY":" ","HOUSE_NO":"１３０號","E_COORD97":175444.247581,"N_COORD97":2568103.7599599999,"ADDRESS":"中營１３０號","OBJECTID":653413},"geometry":{"x":175444.24758100044,"y":2568103.7599609997}},{"attributes":{"ID":653441,"DIS_CODE":0,"TOWNNAME":"安平區","LI":"港仔里","LIN":"5鄰","STREET":"安平路","SECT":" ","MAREA":" ","LANE":"７５巷","ALLEY":"１２弄","HOUSE_NO":"８號","E_COORD97":164416.93460899999,"N_COORD97":2544422.5061499998,"ADDRESS":"安平路７５巷１２弄８號","OBJECTID":653414},"geometry":{"x":164416.93460900057,"y":2544422.5061470009}},{"attributes":{"ID":653442,"DIS_CODE":0,"TOWNNAME":"安平區","LI":"港仔里","LIN":"2鄰","STREET":"安平路","SECT":" ","MAREA":" ","LANE":"７５巷","ALLEY":" ","HOUSE_NO":"１４號","E_COORD97":164421.596574,"N_COORD97":2544390.96783,"ADDRESS":"安平路７５巷１４號","OBJECTID":653415},"geometry":{"x":164421.59657400008,"y":2544390.9678310025}},{"attributes":{"ID":653443,"DIS_CODE":0,"TOWNNAME":"官田區","LI":"大崎里","LIN":"1鄰","STREET":" ","SECT":" ","MAREA":"大崎","LANE":" ","ALLEY":" ","HOUSE_NO":"７號之２","E_COORD97":185503.44550999999,"N_COORD97":2565602.6266600001,"ADDRESS":"大崎７號之２","OBJECTID":653416},"geometry":{"x":185503.44551000092,"y":2565602.6266600024}},{"attributes":{"ID":653444,"DIS_CODE":0,"TOWNNAME":"仁德區","LI":"仁義里","LIN":"29鄰","STREET":"中清一街","SECT":" ","MAREA":" ","LANE":" ","ALLEY":" ","HOUSE_NO":"４６號","E_COORD97":173660.934129,"N_COORD97":2541470.3037399999,"ADDRESS":"中清一街４６號","OBJECTID":653417},"geometry":{"x":173660.93412900064,"y":2541470.3037430029}},{"attributes":{"ID":653445,"DIS_CODE":0,"TOWNNAME":"仁德區","LI":"仁義里","LIN":"29鄰","STREET":"中清一街","SECT":" ","MAREA":" ","LANE":" ","ALLEY":" ","HOUSE_NO":"４６號七樓之１","E_COORD97":173660.934129,"N_COORD97":2541470.3037399999,"ADDRESS":"中清一街４６號七樓之１","OBJECTID":653418},"geometry":{"x":173660.93412900064,"y":2541470.3037430029}},{"attributes":{"ID":653446,"DIS_CODE":0,"TOWNNAME":"仁德區","LI":"仁義里","LIN":"29鄰","STREET":"中清一街","SECT":" ","MAREA":" ","LANE":" ","ALLEY":" ","HOUSE_NO":"４６號七樓之２","E_COORD97":173660.934129,"N_COORD97":2541470.3037399999,"ADDRESS":"中清一街４６號七樓之２","OBJECTID":653419},"geometry":{"x":173660.93412900064,"y":2541470.3037430029}},{"attributes":{"ID":653447,"DIS_CODE":0,"TOWNNAME":"仁德區","LI":"仁義里","LIN":"29鄰","STREET":"中清一街","SECT":" ","MAREA":" ","LANE":" ","ALLEY":" ","HOUSE_NO":"４６號七樓之３","E_COORD97":173660.934129,"N_COORD97":2541470.3037399999,"ADDRESS":"中清一街４６號七樓之３","OBJECTID":653420},"geometry":{"x":173660.93412900064,"y":2541470.3037430029}},{"attributes":{"ID":653448,"DIS_CODE":0,"TOWNNAME":"仁德區","LI":"仁義里","LIN":"29鄰","STREET":"中清一街","SECT":" ","MAREA":" ","LANE":" ","ALLEY":" ","HOUSE_NO":"４６號七樓之４","E_COORD97":173660.934129,"N_COORD97":2541470.3037399999,"ADDRESS":"中清一街４６號七樓之４","OBJECTID":653421},"geometry":{"x":173660.93412900064,"y":2541470.3037430029}},{"attributes":{"ID":653449,"DIS_CODE":0,"TOWNNAME":"仁德區","LI":"仁義里","LIN":"29鄰","STREET":"中清一街","SECT":" ","MAREA":" ","LANE":" ","ALLEY":" ","HOUSE_NO":"４６號二樓之１","E_COORD97":173660.934129,"N_COORD97":2541470.3037399999,"ADDRESS":"中清一街４６號二樓之１","OBJECTID":653422},"geometry":{"x":173660.93412900064,"y":2541470.3037430029}},{"attributes":{"ID":653450,"DIS_CODE":0,"TOWNNAME":"仁德區","LI":"仁義里","LIN":"29鄰","STREET":"中清一街","SECT":" ","MAREA":" ","LANE":" ","ALLEY":" ","HOUSE_NO":"４６號二樓之３","E_COORD97":173660.934129,"N_COORD97":2541470.3037399999,"ADDRESS":"中清一街４６號二樓之３","OBJECTID":653423},"geometry":{"x":173660.93412900064,"y":2541470.3037430029}},{"attributes":{"ID":653451,"DIS_CODE":0,"TOWNNAME":"仁德區","LI":"仁義里","LIN":"29鄰","STREET":"中清一街","SECT":" ","MAREA":" ","LANE":" ","ALLEY":" ","HOUSE_NO":"４６號二樓之４","E_COORD97":173660.934129,"N_COORD97":2541470.3037399999,"ADDRESS":"中清一街４６號二樓之４","OBJECTID":653424},"geometry":{"x":173660.93412900064,"y":2541470.3037430029}},{"attributes":{"ID":653452,"DIS_CODE":0,"TOWNNAME":"仁德區","LI":"仁義里","LIN":"29鄰","STREET":"中清一街","SECT":" ","MAREA":" ","LANE":" ","ALLEY":" ","HOUSE_NO":"４６號八樓之２","E_COORD97":173660.934129,"N_COORD97":2541470.3037399999,"ADDRESS":"中清一街４６號八樓之２","OBJECTID":653425},"geometry":{"x":173660.93412900064,"y":2541470.3037430029}},{"attributes":{"ID":653453,"DIS_CODE":0,"TOWNNAME":"仁德區","LI":"仁義里","LIN":"29鄰","STREET":"中清一街","SECT":" ","MAREA":" ","LANE":" ","ALLEY":" ","HOUSE_NO":"４６號八樓之３","E_COORD97":173660.934129,"N_COORD97":2541470.3037399999,"ADDRESS":"中清一街４６號八樓之３","OBJECTID":653426},"geometry":{"x":173660.93412900064,"y":2541470.3037430029}},{"attributes":{"ID":653454,"DIS_CODE":0,"TOWNNAME":"安平區","LI":"港仔里","LIN":"3鄰","STREET":"安平路","SECT":" ","MAREA":" ","LANE":"７５巷","ALLEY":"２２弄","HOUSE_NO":"１４號","E_COORD97":164359.083854,"N_COORD97":2544367.0495099998,"ADDRESS":"安平路７５巷２２弄１４號","OBJECTID":653427},"geometry":{"x":164359.08385400195,"y":2544367.0495100003}},{"attributes":{"ID":653455,"DIS_CODE":0,"TOWNNAME":"仁德區","LI":"仁義里","LIN":"29鄰","STREET":"中清一街","SECT":" ","MAREA":" ","LANE":" ","ALLEY":" ","HOUSE_NO":"４６號十二樓之１","E_COORD97":173660.934129,"N_COORD97":2541470.3037399999,"ADDRESS":"中清一街４６號十二樓之１","OBJECTID":653428},"geometry":{"x":173660.93412900064,"y":2541470.3037430029}},{"attributes":{"ID":653456,"DIS_CODE":0,"TOWNNAME":"仁德區","LI":"仁義里","LIN":"29鄰","STREET":"中清一街","SECT":" ","MAREA":" ","LANE":" ","ALLEY":" ","HOUSE_NO":"４６號十二樓之２","E_COORD97":173660.934129,"N_COORD97":2541470.3037399999,"ADDRESS":"中清一街４６號十二樓之２","OBJECTID":653429},"geometry":{"x":173660.93412900064,"y":2541470.3037430029}},{"attributes":{"ID":653457,"DIS_CODE":0,"TOWNNAME":"仁德區","LI":"仁義里","LIN":"29鄰","STREET":"中清一街","SECT":" ","MAREA":" ","LANE":" ","ALLEY":" ","HOUSE_NO":"４６號十二樓之３","E_COORD97":173660.934129,"N_COORD97":2541470.3037399999,"ADDRESS":"中清一街４６號十二樓之３","OBJECTID":653430},"geometry":{"x":173660.93412900064,"y":2541470.3037430029}},{"attributes":{"ID":653458,"DIS_CODE":0,"TOWNNAME":"仁德區","LI":"仁義里","LIN":"29鄰","STREET":"中清一街","SECT":" ","MAREA":" ","LANE":" ","ALLEY":" ","HOUSE_NO":"４６號十樓之１","E_COORD97":173660.934129,"N_COORD97":2541470.3037399999,"ADDRESS":"中清一街４６號十樓之１","OBJECTID":653431},"geometry":{"x":173660.93412900064,"y":2541470.3037430029}},{"attributes":{"ID":653459,"DIS_CODE":0,"TOWNNAME":"仁德區","LI":"仁義里","LIN":"29鄰","STREET":"中清一街","SECT":" ","MAREA":" ","LANE":" ","ALLEY":" ","HOUSE_NO":"４６號三樓之２","E_COORD97":173660.934129,"N_COORD97":2541470.3037399999,"ADDRESS":"中清一街４６號三樓之２","OBJECTID":653432},"geometry":{"x":173660.93412900064,"y":2541470.3037430029}},{"attributes":{"ID":653460,"DIS_CODE":0,"TOWNNAME":"仁德區","LI":"仁義里","LIN":"29鄰","STREET":"中清一街","SECT":" ","MAREA":" ","LANE":" ","ALLEY":" ","HOUSE_NO":"４６號五樓之１","E_COORD97":173660.934129,"N_COORD97":2541470.3037399999,"ADDRESS":"中清一街４６號五樓之１","OBJECTID":653433},"geometry":{"x":173660.93412900064,"y":2541470.3037430029}},{"attributes":{"ID":653461,"DIS_CODE":0,"TOWNNAME":"仁德區","LI":"仁義里","LIN":"29鄰","STREET":"中清一街","SECT":" ","MAREA":" ","LANE":" ","ALLEY":" ","HOUSE_NO":"４６號五樓之２","E_COORD97":173660.934129,"N_COORD97":2541470.3037399999,"ADDRESS":"中清一街４６號五樓之２","OBJECTID":653434},"geometry":{"x":173660.93412900064,"y":2541470.3037430029}},{"attributes":{"ID":653462,"DIS_CODE":0,"TOWNNAME":"仁德區","LI":"仁義里","LIN":"29鄰","STREET":"中清一街","SECT":" ","MAREA":" ","LANE":" ","ALLEY":" ","HOUSE_NO":"４６號五樓之４","E_COORD97":173660.934129,"N_COORD97":2541470.3037399999,"ADDRESS":"中清一街４６號五樓之４","OBJECTID":653435},"geometry":{"x":173660.93412900064,"y":2541470.3037430029}},{"attributes":{"ID":653463,"DIS_CODE":0,"TOWNNAME":"安平區","LI":"港仔里","LIN":"3鄰","STREET":"安平路","SECT":" ","MAREA":" ","LANE":"７５巷","ALLEY":"２２弄","HOUSE_NO":"１號","E_COORD97":164394.68431899999,"N_COORD97":2544363.0278500002,"ADDRESS":"安平路７５巷２２弄１號","OBJECTID":653436},"geometry":{"x":164394.68431900162,"y":2544363.027846003}},{"attributes":{"ID":653464,"DIS_CODE":0,"TOWNNAME":"仁德區","LI":"仁義里","LIN":"29鄰","STREET":"中清一街","SECT":" ","MAREA":" ","LANE":" ","ALLEY":" ","HOUSE_NO":"４６號六樓之２","E_COORD97":173660.934129,"N_COORD97":2541470.3037399999,"ADDRESS":"中清一街４６號六樓之２","OBJECTID":653437},"geometry":{"x":173660.93412900064,"y":2541470.3037430029}},{"attributes":{"ID":653465,"DIS_CODE":0,"TOWNNAME":"仁德區","LI":"仁義里","LIN":"29鄰","STREET":"中清一街","SECT":" ","MAREA":" ","LANE":" ","ALLEY":" ","HOUSE_NO":"４６號六樓之３","E_COORD97":173660.934129,"N_COORD97":2541470.3037399999,"ADDRESS":"中清一街４６號六樓之３","OBJECTID":653438},"geometry":{"x":173660.93412900064,"y":2541470.3037430029}},{"attributes":{"ID":653466,"DIS_CODE":0,"TOWNNAME":"仁德區","LI":"仁義里","LIN":"29鄰","STREET":"中清一街","SECT":" ","MAREA":" ","LANE":" ","ALLEY":" ","HOUSE_NO":"４６號四樓之１","E_COORD97":173660.934129,"N_COORD97":2541470.3037399999,"ADDRESS":"中清一街４６號四樓之１","OBJECTID":653439},"geometry":{"x":173660.93412900064,"y":2541470.3037430029}},{"attributes":{"ID":653467,"DIS_CODE":0,"TOWNNAME":"仁德區","LI":"仁義里","LIN":"29鄰","STREET":"中清一街","SECT":" ","MAREA":" ","LANE":" ","ALLEY":" ","HOUSE_NO":"４６號四樓之２","E_COORD97":173660.934129,"N_COORD97":2541470.3037399999,"ADDRESS":"中清一街４６號四樓之２","OBJECTID":653440},"geometry":{"x":173660.93412900064,"y":2541470.3037430029}},{"attributes":{"ID":653468,"DIS_CODE":0,"TOWNNAME":"仁德區","LI":"仁義里","LIN":"29鄰","STREET":"中清一街","SECT":" ","MAREA":" ","LANE":" ","ALLEY":" ","HOUSE_NO":"４６號四樓之３","E_COORD97":173660.934129,"N_COORD97":2541470.3037399999,"ADDRESS":"中清一街４６號四樓之３","OBJECTID":653441},"geometry":{"x":173660.93412900064,"y":2541470.3037430029}},{"attributes":{"ID":653469,"DIS_CODE":0,"TOWNNAME":"仁德區","LI":"仁義里","LIN":"29鄰","STREET":"中清一街","SECT":" ","MAREA":" ","LANE":" ","ALLEY":" ","HOUSE_NO":"４６號四樓之４","E_COORD97":173660.934129,"N_COORD97":2541470.3037399999,"ADDRESS":"中清一街４６號四樓之４","OBJECTID":653442},"geometry":{"x":173660.93412900064,"y":2541470.3037430029}},{"attributes":{"ID":653470,"DIS_CODE":0,"TOWNNAME":"下營區","LI":"開化里","LIN":"18鄰","STREET":" ","SECT":" ","MAREA":"中營","LANE":" ","ALLEY":" ","HOUSE_NO":"２０１號","E_COORD97":175623.69928500001,"N_COORD97":2568082.9636499998,"ADDRESS":"中營２０１號","OBJECTID":653443},"geometry":{"x":175623.69928499963,"y":2568082.9636470005}},{"attributes":{"ID":653471,"DIS_CODE":0,"TOWNNAME":"安平區","LI":"港仔里","LIN":"6鄰","STREET":"安平路","SECT":" ","MAREA":" ","LANE":"７５巷","ALLEY":"３弄","HOUSE_NO":"１號","E_COORD97":164475.63299300001,"N_COORD97":2544447.2711299998,"ADDRESS":"安平路７５巷３弄１號","OBJECTID":653444},"geometry":{"x":164475.63299299963,"y":2544447.2711330019}},{"attributes":{"ID":653472,"DIS_CODE":0,"TOWNNAME":"安平區","LI":"港仔里","LIN":"6鄰","STREET":"安平路","SECT":" ","MAREA":" ","LANE":"７５巷","ALLEY":"３弄","HOUSE_NO":"２號","E_COORD97":164479.44732800001,"N_COORD97":2544445.15447,"ADDRESS":"安平路７５巷３弄２號","OBJECTID":653445},"geometry":{"x":164479.44732800033,"y":2544445.1544679999}},{"attributes":{"ID":653473,"DIS_CODE":0,"TOWNNAME":"安平區","LI":"港仔里","LIN":"6鄰","STREET":"安平路","SECT":" ","MAREA":" ","LANE":"７５巷","ALLEY":"３弄","HOUSE_NO":"３號","E_COORD97":164482.20212599999,"N_COORD97":2544443.4611399998,"ADDRESS":"安平路７５巷３弄３號","OBJECTID":653446},"geometry":{"x":164482.20212600008,"y":2544443.4611360021}},{"attributes":{"ID":653474,"DIS_CODE":0,"TOWNNAME":"安平區","LI":"港仔里","LIN":"6鄰","STREET":"安平路","SECT":" ","MAREA":" ","LANE":"７５巷","ALLEY":"４弄","HOUSE_NO":"４號","E_COORD97":164457.40894600001,"N_COORD97":2544442.82614,"ADDRESS":"安平路７５巷４弄４號","OBJECTID":653447},"geometry":{"x":164457.40894600004,"y":2544442.8261360023}},{"attributes":{"ID":653475,"DIS_CODE":0,"TOWNNAME":"下營區","LI":"開化里","LIN":"18鄰","STREET":" ","SECT":" ","MAREA":"中營","LANE":" ","ALLEY":" ","HOUSE_NO":"２００號","E_COORD97":175625.07657400001,"N_COORD97":2568076.1903200001,"ADDRESS":"中營２００號","OBJECTID":653448},"geometry":{"x":175625.0765739996,"y":2568076.1903169993}},{"attributes":{"ID":653476,"DIS_CODE":0,"TOWNNAME":"官田區","LI":"大崎里","LIN":"5鄰","STREET":" ","SECT":" ","MAREA":"大崎","LANE":" ","ALLEY":" ","HOUSE_NO":"４３號之５","E_COORD97":185761.74174900001,"N_COORD97":2565513.3033799999,"ADDRESS":"大崎４３號之５","OBJECTID":653449},"geometry":{"x":185761.74174900074,"y":2565513.303375002}},{"attributes":{"ID":653477,"DIS_CODE":0,"TOWNNAME":"安平區","LI":"港仔里","LIN":"5鄰","STREET":"安平路","SECT":" ","MAREA":" ","LANE":" ","ALLEY":" ","HOUSE_NO":"９５號之２","E_COORD97":164387.90327000001,"N_COORD97":2544465.05112,"ADDRESS":"安平路９５號之２","OBJECTID":653450},"geometry":{"x":164387.90326999966,"y":2544465.05112}},{"attributes":{"ID":653478,"DIS_CODE":0,"TOWNNAME":"關廟區","LI":"香洋里","LIN":"5鄰","STREET":"農會路","SECT":" ","MAREA":" ","LANE":" ","ALLEY":" ","HOUSE_NO":"９０號","E_COORD97":181155.841958,"N_COORD97":2540248.24279,"ADDRESS":"農會路９０號","OBJECTID":653451},"geometry":{"x":181155.84195800126,"y":2540248.2427880019}},{"attributes":{"ID":653479,"DIS_CODE":0,"TOWNNAME":"麻豆區","LI":"南勢里","LIN":"5鄰","STREET":" ","SECT":" ","MAREA":"\u25A0帝\u25A0","LANE":" ","ALLEY":" ","HOUSE_NO":"２８號之５","E_COORD97":173715.54381199999,"N_COORD97":2565353.4974400001,"ADDRESS":"\u25A0帝\u25A0２８號之５","OBJECTID":653452},"geometry":{"x":173715.54381200112,"y":2565353.4974380005}},{"attributes":{"ID":653480,"DIS_CODE":0,"TOWNNAME":"楠西區","LI":"密枝里","LIN":"1鄰","STREET":" ","SECT":" ","MAREA":"密枝","LANE":" ","ALLEY":" ","HOUSE_NO":"１號之２","E_COORD97":199195.602159,"N_COORD97":2565488.7781199999,"ADDRESS":"密枝１號之２","OBJECTID":653453},"geometry":{"x":199195.602159,"y":2565488.7781150024}},{"attributes":{"ID":653481,"DIS_CODE":0,"TOWNNAME":"楠西區","LI":"密枝里","LIN":"1鄰","STREET":" ","SECT":" ","MAREA":"密枝","LANE":" ","ALLEY":" ","HOUSE_NO":"１號之７","E_COORD97":199227.171126,"N_COORD97":2565490.8947800002,"ADDRESS":"密枝１號之７","OBJECTID":653454},"geometry":{"x":199227.17112600058,"y":2565490.8947800025}},{"attributes":{"ID":653482,"DIS_CODE":0,"TOWNNAME":"關廟區","LI":"香洋里","LIN":"27鄰","STREET":"民權街","SECT":" ","MAREA":" ","LANE":"１３７巷","ALLEY":" ","HOUSE_NO":"１２號","E_COORD97":181147.18911100001,"N_COORD97":2539745.7309300001,"ADDRESS":"民權街１３７巷１２號","OBJECTID":653455},"geometry":{"x":181147.18911100179,"y":2539745.7309320029}},{"attributes":{"ID":653483,"DIS_CODE":0,"TOWNNAME":"楠西區","LI":"密枝里","LIN":"1鄰","STREET":" ","SECT":" ","MAREA":"密枝","LANE":" ","ALLEY":" ","HOUSE_NO":"２號之２","E_COORD97":199683.120226,"N_COORD97":2565398.0789999999,"ADDRESS":"密枝２號之２","OBJECTID":653456},"geometry":{"x":199683.12022600044,"y":2565398.0789969992}},{"attributes":{"ID":653484,"DIS_CODE":0,"TOWNNAME":"楠西區","LI":"密枝里","LIN":"1鄰","STREET":" ","SECT":" ","MAREA":"密枝","LANE":" ","ALLEY":" ","HOUSE_NO":"２號之３","E_COORD97":199723.58782700001,"N_COORD97":2565380.0873400001,"ADDRESS":"密枝２號之３","OBJECTID":653457},"geometry":{"x":199723.5878269989,"y":2565380.087340001}},{"attributes":{"ID":653485,"DIS_CODE":0,"TOWNNAME":"安平區","LI":"港仔里","LIN":"4鄰","STREET":"安平路","SECT":" ","MAREA":" ","LANE":" ","ALLEY":" ","HOUSE_NO":"９７號之１３二樓之２","E_COORD97":164312.67610700001,"N_COORD97":2544388.0044999998,"ADDRESS":"安平路９７號之１３二樓之２","OBJECTID":653458},"geometry":{"x":164312.67610700056,"y":2544388.0044989996}},{"attributes":{"ID":653486,"DIS_CODE":0,"TOWNNAME":"安平區","LI":"港仔里","LIN":"4鄰","STREET":"安平路","SECT":" ","MAREA":" ","LANE":" ","ALLEY":" ","HOUSE_NO":"９７號之１３三樓之１","E_COORD97":164312.67610700001,"N_COORD97":2544388.0044999998,"ADDRESS":"安平路９７號之１３三樓之１","OBJECTID":653459},"geometry":{"x":164312.67610700056,"y":2544388.0044989996}},{"attributes":{"ID":653487,"DIS_CODE":0,"TOWNNAME":"安平區","LI":"港仔里","LIN":"4鄰","STREET":"安平路","SECT":" ","MAREA":" ","LANE":" ","ALLEY":" ","HOUSE_NO":"９７號之１３四樓之２","E_COORD97":164312.67610700001,"N_COORD97":2544388.0044999998,"ADDRESS":"安平路９７號之１３四樓之２","OBJECTID":653460},"geometry":{"x":164312.67610700056,"y":2544388.0044989996}},{"attributes":{"ID":653488,"DIS_CODE":0,"TOWNNAME":"仁德區","LI":"仁義里","LIN":"29鄰","STREET":"中清一街","SECT":" ","MAREA":" ","LANE":" ","ALLEY":" ","HOUSE_NO":"４８號","E_COORD97":173674.27377,"N_COORD97":2541489.2772499998,"ADDRESS":"中清一街４８號","OBJECTID":653461},"geometry":{"x":173674.27377000079,"y":2541489.2772500012}},{"attributes":{"ID":653489,"DIS_CODE":0,"TOWNNAME":"仁德區","LI":"仁義里","LIN":"29鄰","STREET":"中清一街","SECT":" ","MAREA":" ","LANE":" ","ALLEY":" ","HOUSE_NO":"４８號七樓之１","E_COORD97":173674.27377500001,"N_COORD97":2541489.2772599999,"ADDRESS":"中清一街４８號七樓之１","OBJECTID":653462},"geometry":{"x":173674.27377499919,"y":2541489.277257001}},{"attributes":{"ID":653490,"DIS_CODE":0,"TOWNNAME":"仁德區","LI":"仁義里","LIN":"29鄰","STREET":"中清一街","SECT":" ","MAREA":" ","LANE":" ","ALLEY":" ","HOUSE_NO":"４８號九樓之１","E_COORD97":173674.27377500001,"N_COORD97":2541489.2772599999,"ADDRESS":"中清一街４８號九樓之１","OBJECTID":653463},"geometry":{"x":173674.27377499919,"y":2541489.277257001}},{"attributes":{"ID":653491,"DIS_CODE":0,"TOWNNAME":"仁德區","LI":"仁義里","LIN":"29鄰","STREET":"中清一街","SECT":" ","MAREA":" ","LANE":" ","ALLEY":" ","HOUSE_NO":"４８號九樓之２","E_COORD97":173674.27377500001,"N_COORD97":2541489.2772599999,"ADDRESS":"中清一街４８號九樓之２","OBJECTID":653464},"geometry":{"x":173674.27377499919,"y":2541489.277257001}},{"attributes":{"ID":653492,"DIS_CODE":0,"TOWNNAME":"仁德區","LI":"仁義里","LIN":"29鄰","STREET":"中清一街","SECT":" ","MAREA":" ","LANE":" ","ALLEY":" ","HOUSE_NO":"４８號八樓之１","E_COORD97":173674.27377500001,"N_COORD97":2541489.2772599999,"ADDRESS":"中清一街４８號八樓之１","OBJECTID":653465},"geometry":{"x":173674.27377499919,"y":2541489.277257001}},{"attributes":{"ID":653493,"DIS_CODE":0,"TOWNNAME":"仁德區","LI":"仁義里","LIN":"29鄰","STREET":"中清一街","SECT":" ","MAREA":" ","LANE":" ","ALLEY":" ","HOUSE_NO":"４８號八樓之２","E_COORD97":173674.27377500001,"N_COORD97":2541489.2772599999,"ADDRESS":"中清一街４８號八樓之２","OBJECTID":653466},"geometry":{"x":173674.27377499919,"y":2541489.277257001}},{"attributes":{"ID":653494,"DIS_CODE":0,"TOWNNAME":"仁德區","LI":"仁義里","LIN":"29鄰","STREET":"中清一街","SECT":" ","MAREA":" ","LANE":" ","ALLEY":" ","HOUSE_NO":"４８號十一樓之１","E_COORD97":173674.27377500001,"N_COORD97":2541489.2772599999,"ADDRESS":"中清一街４８號十一樓之１","OBJECTID":653467},"geometry":{"x":173674.27377499919,"y":2541489.277257001}},{"attributes":{"ID":653495,"DIS_CODE":0,"TOWNNAME":"仁德區","LI":"仁義里","LIN":"29鄰","STREET":"中清一街","SECT":" ","MAREA":" ","LANE":" ","ALLEY":" ","HOUSE_NO":"４８號十一樓之２","E_COORD97":173674.27377500001,"N_COORD97":2541489.2772599999,"ADDRESS":"中清一街４８號十一樓之２","OBJECTID":653468},"geometry":{"x":173674.27377499919,"y":2541489.277257001}},{"attributes":{"ID":653496,"DIS_CODE":0,"TOWNNAME":"仁德區","LI":"仁義里","LIN":"29鄰","STREET":"中清一街","SECT":" ","MAREA":" ","LANE":" ","ALLEY":" ","HOUSE_NO":"４８號十二樓之１","E_COORD97":173674.27377500001,"N_COORD97":2541489.2772599999,"ADDRESS":"中清一街４８號十二樓之１","OBJECTID":653469},"geometry":{"x":173674.27377499919,"y":2541489.277257001}},{"attributes":{"ID":653497,"DIS_CODE":0,"TOWNNAME":"仁德區","LI":"仁義里","LIN":"29鄰","STREET":"中清一街","SECT":" ","MAREA":" ","LANE":" ","ALLEY":" ","HOUSE_NO":"４８號十二樓之２","E_COORD97":173674.27377500001,"N_COORD97":2541489.2772599999,"ADDRESS":"中清一街４８號十二樓之２","OBJECTID":653470},"geometry":{"x":173674.27377499919,"y":2541489.277257001}},{"attributes":{"ID":653498,"DIS_CODE":0,"TOWNNAME":"學甲區","LI":"秀昌里","LIN":"14鄰","STREET":" ","SECT":" ","MAREA":"下溪洲","LANE":" ","ALLEY":" ","HOUSE_NO":"１號之５５","E_COORD97":165504.95419300001,"N_COORD97":2570975.1647000001,"ADDRESS":"下溪洲１號之５５","OBJECTID":653471},"geometry":{"x":165504.95419300068,"y":2570975.164702002}},{"attributes":{"ID":653499,"DIS_CODE":0,"TOWNNAME":"楠西區","LI":"密枝里","LIN":"1鄰","STREET":" ","SECT":" ","MAREA":"密枝","LANE":" ","ALLEY":" ","HOUSE_NO":"５號之１","E_COORD97":200185.045606,"N_COORD97":2566358.83348,"ADDRESS":"密枝５號之１","OBJECTID":653472},"geometry":{"x":200185.04560600035,"y":2566358.8334780019}},{"attributes":{"ID":653500,"DIS_CODE":0,"TOWNNAME":"安平區","LI":"港仔里","LIN":"4鄰","STREET":"安平路","SECT":" ","MAREA":" ","LANE":" ","ALLEY":" ","HOUSE_NO":"９７號之１６","E_COORD97":164270.29459999999,"N_COORD97":2544350.1161799999,"ADDRESS":"安平路９７號之１６","OBJECTID":653473},"geometry":{"x":164270.29459999874,"y":2544350.116179999}},{"attributes":{"ID":653501,"DIS_CODE":0,"TOWNNAME":"安平區","LI":"港仔里","LIN":"4鄰","STREET":"安平路","SECT":" ","MAREA":" ","LANE":" ","ALLEY":" ","HOUSE_NO":"９７號之１７","E_COORD97":164269.44696999999,"N_COORD97":2544345.45952,"ADDRESS":"安平路９７號之１７","OBJECTID":653474},"geometry":{"x":164269.44697000086,"y":2544345.459520001}},{"attributes":{"ID":653502,"DIS_CODE":0,"TOWNNAME":"楠西區","LI":"密枝里","LIN":"1鄰","STREET":" ","SECT":" ","MAREA":"密枝","LANE":" ","ALLEY":" ","HOUSE_NO":"８號之１","E_COORD97":200142.24741000001,"N_COORD97":2566555.3658699999,"ADDRESS":"密枝８號之１","OBJECTID":653475},"geometry":{"x":200142.24741000123,"y":2566555.3658719976}},{"attributes":{"ID":653503,"DIS_CODE":0,"TOWNNAME":"安平區","LI":"港仔里","LIN":"4鄰","STREET":"安平路","SECT":" ","MAREA":" ","LANE":" ","ALLEY":" ","HOUSE_NO":"９７號之１８","E_COORD97":164269.65887000001,"N_COORD97":2544340.37952,"ADDRESS":"安平路９７號之１８","OBJECTID":653476},"geometry":{"x":164269.65887000132,"y":2544340.379519999}},{"attributes":{"ID":653504,"DIS_CODE":0,"TOWNNAME":"楠西區","LI":"密枝里","LIN":"1鄰","STREET":" ","SECT":" ","MAREA":"密枝","LANE":" ","ALLEY":" ","HOUSE_NO":"９號","E_COORD97":200176.358844,"N_COORD97":2566561.5041999999,"ADDRESS":"密枝９號","OBJECTID":653477},"geometry":{"x":200176.35884400085,"y":2566561.5042020008}},{"attributes":{"ID":653505,"DIS_CODE":0,"TOWNNAME":"安平區","LI":"港仔里","LIN":"8鄰","STREET":"安平路","SECT":" ","MAREA":" ","LANE":" ","ALLEY":" ","HOUSE_NO":"９９號之１０","E_COORD97":164284.91622000001,"N_COORD97":2544414.67448,"ADDRESS":"安平路９９號之１０","OBJECTID":653478},"geometry":{"x":164284.91622000188,"y":2544414.6744800042}},{"attributes":{"ID":653506,"DIS_CODE":0,"TOWNNAME":"楠西區","LI":"密枝里","LIN":"2鄰","STREET":" ","SECT":" ","MAREA":"密枝","LANE":" ","ALLEY":" ","HOUSE_NO":"１８號","E_COORD97":200422.978153,"N_COORD97":2566720.7832800001,"ADDRESS":"密枝１８號","OBJECTID":653479},"geometry":{"x":200422.97815299965,"y":2566720.7832829989}},{"attributes":{"ID":653507,"DIS_CODE":0,"TOWNNAME":"楠西區","LI":"密枝里","LIN":"2鄰","STREET":" ","SECT":" ","MAREA":"密枝","LANE":" ","ALLEY":" ","HOUSE_NO":"２３號","E_COORD97":200413.02015699999,"N_COORD97":2566732.84828,"ADDRESS":"密枝２３號","OBJECTID":653480},"geometry":{"x":200413.02015700098,"y":2566732.8482760023}},{"attributes":{"ID":653508,"DIS_CODE":0,"TOWNNAME":"安平區","LI":"港仔里","LIN":"20鄰","STREET":"延平街","SECT":" ","MAREA":" ","LANE":" ","ALLEY":" ","HOUSE_NO":"１１９號","E_COORD97":164064.10858100001,"N_COORD97":2544597.13105,"ADDRESS":"延平街１１９號","OBJECTID":653481},"geometry":{"x":164064.10858099908,"y":2544597.1310530026}},{"attributes":{"ID":653509,"DIS_CODE":0,"TOWNNAME":"關廟區","LI":"深坑里","LIN":"3鄰","STREET":"南雄路","SECT":"一段","MAREA":" ","LANE":" ","ALLEY":" ","HOUSE_NO":"３８７號","E_COORD97":181784.005007,"N_COORD97":2537538.48184,"ADDRESS":"南雄路一段３８７號","OBJECTID":653482},"geometry":{"x":181784.00500699971,"y":2537538.481842}},{"attributes":{"ID":653510,"DIS_CODE":0,"TOWNNAME":"安平區","LI":"港仔里","LIN":"12鄰","STREET":"延平街","SECT":" ","MAREA":" ","LANE":" ","ALLEY":" ","HOUSE_NO":"３３號","E_COORD97":164263.513561,"N_COORD97":2544568.9794000001,"ADDRESS":"延平街３３號","OBJECTID":653483},"geometry":{"x":164263.51356100012,"y":2544568.9794010017}},{"attributes":{"ID":653511,"DIS_CODE":0,"TOWNNAME":"安平區","LI":"港仔里","LIN":"12鄰","STREET":"延平街","SECT":" ","MAREA":" ","LANE":" ","ALLEY":" ","HOUSE_NO":"３５號","E_COORD97":164258.42778,"N_COORD97":2544569.6143999998,"ADDRESS":"延平街３５號","OBJECTID":653484},"geometry":{"x":164258.42777999956,"y":2544569.6144010015}},{"attributes":{"ID":653512,"DIS_CODE":0,"TOWNNAME":"楠西區","LI":"密枝里","LIN":"2鄰","STREET":" ","SECT":" ","MAREA":"密枝","LANE":" ","ALLEY":" ","HOUSE_NO":"２０號","E_COORD97":200436.537977,"N_COORD97":2566719.0899499999,"ADDRESS":"密枝２０號","OBJECTID":653485},"geometry":{"x":200436.53797699977,"y":2566719.0899500009}},{"attributes":{"ID":653513,"DIS_CODE":0,"TOWNNAME":"關廟區","LI":"深坑里","LIN":"3鄰","STREET":"南雄路","SECT":"一段","MAREA":" ","LANE":" ","ALLEY":" ","HOUSE_NO":"３９１號","E_COORD97":181772.037859,"N_COORD97":2537540.5985099999,"ADDRESS":"南雄路一段３９１號","OBJECTID":653486},"geometry":{"x":181772.03785900213,"y":2537540.5985080004}},{"attributes":{"ID":653514,"DIS_CODE":0,"TOWNNAME":"關廟區","LI":"深坑里","LIN":"3鄰","STREET":"南雄路","SECT":"一段","MAREA":" ","LANE":" ","ALLEY":" ","HOUSE_NO":"３９５號","E_COORD97":181774.15593800001,"N_COORD97":2537549.7001700001,"ADDRESS":"南雄路一段３９５號","OBJECTID":653487},"geometry":{"x":181774.15593800135,"y":2537549.700170001}},{"attributes":{"ID":653515,"DIS_CODE":0,"TOWNNAME":"安平區","LI":"港仔里","LIN":"11鄰","STREET":"延平街","SECT":" ","MAREA":" ","LANE":" ","ALLEY":" ","HOUSE_NO":"３５號之６","E_COORD97":164252.70627,"N_COORD97":2544534.9010800002,"ADDRESS":"延平街３５號之６","OBJECTID":653488},"geometry":{"x":164252.70626999997,"y":2544534.901080003}},{"attributes":{"ID":653516,"DIS_CODE":0,"TOWNNAME":"楠西區","LI":"密枝里","LIN":"6鄰","STREET":" ","SECT":" ","MAREA":"密枝","LANE":" ","ALLEY":" ","HOUSE_NO":"６３號","E_COORD97":199109.58202199999,"N_COORD97":2566754.5441000001,"ADDRESS":"密枝６３號","OBJECTID":653489},"geometry":{"x":199109.5820220001,"y":2566754.5440980028}},{"attributes":{"ID":653517,"DIS_CODE":0,"TOWNNAME":"安平區","LI":"港仔里","LIN":"12鄰","STREET":"延平街","SECT":" ","MAREA":" ","LANE":" ","ALLEY":" ","HOUSE_NO":"３５號之１","E_COORD97":164259.27541,"N_COORD97":2544558.8193999999,"ADDRESS":"延平街３５號之１","OBJECTID":653490},"geometry":{"x":164259.27541000023,"y":2544558.8193999995}},{"attributes":{"ID":653518,"DIS_CODE":0,"TOWNNAME":"楠西區","LI":"密枝里","LIN":"6鄰","STREET":" ","SECT":" ","MAREA":"密枝","LANE":" ","ALLEY":" ","HOUSE_NO":"６３號之４","E_COORD97":198955.762762,"N_COORD97":2565861.2054099999,"ADDRESS":"密枝６３號之４","OBJECTID":653491},"geometry":{"x":198955.76276199985,"y":2565861.2054130044}},{"attributes":{"ID":653519,"DIS_CODE":0,"TOWNNAME":"楠西區","LI":"密枝里","LIN":"6鄰","STREET":" ","SECT":" ","MAREA":"密枝","LANE":" ","ALLEY":" ","HOUSE_NO":"６３號之２６","E_COORD97":198001.278238,"N_COORD97":2565110.84748,"ADDRESS":"密枝６３號之２６","OBJECTID":653492},"geometry":{"x":198001.27823800128,"y":2565110.8474850021}},{"attributes":{"ID":653520,"DIS_CODE":0,"TOWNNAME":"楠西區","LI":"密枝里","LIN":"6鄰","STREET":" ","SECT":" ","MAREA":"密枝","LANE":" ","ALLEY":" ","HOUSE_NO":"６３號之６０","E_COORD97":198050.85634599999,"N_COORD97":2565170.11412,"ADDRESS":"密枝６３號之６０","OBJECTID":653493},"geometry":{"x":198050.85634600185,"y":2565170.1141199991}},{"attributes":{"ID":653521,"DIS_CODE":0,"TOWNNAME":"楠西區","LI":"密枝里","LIN":"6鄰","STREET":" ","SECT":" ","MAREA":"密枝","LANE":" ","ALLEY":" ","HOUSE_NO":"６５號之１","E_COORD97":198060.390598,"N_COORD97":2565234.0374199999,"ADDRESS":"密枝６５號之１","OBJECTID":653494},"geometry":{"x":198060.39059800003,"y":2565234.0374190044}},{"attributes":{"ID":653522,"DIS_CODE":0,"TOWNNAME":"楠西區","LI":"密枝里","LIN":"3鄰","STREET":" ","SECT":" ","MAREA":"密枝","LANE":" ","ALLEY":" ","HOUSE_NO":"２８號","E_COORD97":200214.91959500001,"N_COORD97":2566858.6840400002,"ADDRESS":"密枝２８號","OBJECTID":653495},"geometry":{"x":200214.91959500127,"y":2566858.6840410046}},{"attributes":{"ID":653523,"DIS_CODE":0,"TOWNNAME":"楠西區","LI":"密枝里","LIN":"3鄰","STREET":" ","SECT":" ","MAREA":"密枝","LANE":" ","ALLEY":" ","HOUSE_NO":"２５號","E_COORD97":200208.56342699999,"N_COORD97":2566813.7048999998,"ADDRESS":"密枝２５號","OBJECTID":653496},"geometry":{"x":200208.56342700031,"y":2566813.7048990037}},{"attributes":{"ID":653524,"DIS_CODE":0,"TOWNNAME":"楠西區","LI":"密枝里","LIN":"3鄰","STREET":" ","SECT":" ","MAREA":"密枝","LANE":" ","ALLEY":" ","HOUSE_NO":"２９號","E_COORD97":200209.62278800001,"N_COORD97":2566842.4915499999,"ADDRESS":"密枝２９號","OBJECTID":653497},"geometry":{"x":200209.62278799992,"y":2566842.4915500004}},{"attributes":{"ID":653525,"DIS_CODE":0,"TOWNNAME":"仁德區","LI":"中生里","LIN":"5鄰","STREET":" ","SECT":" ","MAREA":"中洲","LANE":" ","ALLEY":" ","HOUSE_NO":"１３２之５號","E_COORD97":172540.851864,"N_COORD97":2534633.93358,"ADDRESS":"中洲１３２之５號","OBJECTID":653498},"geometry":{"x":172540.85186400078,"y":2534633.9335810021}},{"attributes":{"ID":653526,"DIS_CODE":0,"TOWNNAME":"官田區","LI":"大崎里","LIN":"7鄰","STREET":" ","SECT":" ","MAREA":"大崎","LANE":" ","ALLEY":" ","HOUSE_NO":"５５號之２","E_COORD97":185401.88877600001,"N_COORD97":2564840.06868,"ADDRESS":"大崎５５號之２","OBJECTID":653499},"geometry":{"x":185401.88877600059,"y":2564840.0686830021}},{"attributes":{"ID":653527,"DIS_CODE":0,"TOWNNAME":"楠西區","LI":"密枝里","LIN":"3鄰","STREET":" ","SECT":" ","MAREA":"密枝","LANE":" ","ALLEY":" ","HOUSE_NO":"３２號","E_COORD97":200175.08760999999,"N_COORD97":2566766.5032600001,"ADDRESS":"密枝３２號","OBJECTID":653500},"geometry":{"x":200175.08760999981,"y":2566766.5032580011}},{"attributes":{"ID":653528,"DIS_CODE":0,"TOWNNAME":"楠西區","LI":"密枝里","LIN":"3鄰","STREET":" ","SECT":" ","MAREA":"密枝","LANE":" ","ALLEY":" ","HOUSE_NO":"３２號之１","E_COORD97":200150.29855599999,"N_COORD97":2566781.5315800002,"ADDRESS":"密枝３２號之１","OBJECTID":653501},"geometry":{"x":200150.29855599906,"y":2566781.5315830018}},{"attributes":{"ID":653529,"DIS_CODE":0,"TOWNNAME":"仁德區","LI":"仁義里","LIN":"29鄰","STREET":"中清一街","SECT":" ","MAREA":" ","LANE":" ","ALLEY":" ","HOUSE_NO":"４８號十三樓之１","E_COORD97":173674.27377,"N_COORD97":2541489.2772499998,"ADDRESS":"中清一街４８號十三樓之１","OBJECTID":653502},"geometry":{"x":173674.27377000079,"y":2541489.2772500012}},{"attributes":{"ID":653530,"DIS_CODE":0,"TOWNNAME":"仁德區","LI":"仁義里","LIN":"29鄰","STREET":"中清一街","SECT":" ","MAREA":" ","LANE":" ","ALLEY":" ","HOUSE_NO":"４８號十三樓之２","E_COORD97":173674.27377,"N_COORD97":2541489.2772499998,"ADDRESS":"中清一街４８號十三樓之２","OBJECTID":653503},"geometry":{"x":173674.27377000079,"y":2541489.2772500012}},{"attributes":{"ID":653531,"DIS_CODE":0,"TOWNNAME":"仁德區","LI":"仁義里","LIN":"29鄰","STREET":"中清一街","SECT":" ","MAREA":" ","LANE":" ","ALLEY":" ","HOUSE_NO":"４８號三樓之１","E_COORD97":173674.27377,"N_COORD97":2541489.2772499998,"ADDRESS":"中清一街４８號三樓之１","OBJECTID":653504},"geometry":{"x":173674.27377000079,"y":2541489.2772500012}},{"attributes":{"ID":653532,"DIS_CODE":0,"TOWNNAME":"仁德區","LI":"仁義里","LIN":"29鄰","STREET":"中清一街","SECT":" ","MAREA":" ","LANE":" ","ALLEY":" ","HOUSE_NO":"４８號六樓之１","E_COORD97":173674.27377,"N_COORD97":2541489.2772499998,"ADDRESS":"中清一街４８號六樓之１","OBJECTID":653505},"geometry":{"x":173674.27377000079,"y":2541489.2772500012}},{"attributes":{"ID":653533,"DIS_CODE":0,"TOWNNAME":"仁德區","LI":"仁義里","LIN":"29鄰","STREET":"中清一街","SECT":" ","MAREA":" ","LANE":" ","ALLEY":" ","HOUSE_NO":"４８號四樓之２","E_COORD97":173674.27377,"N_COORD97":2541489.2772499998,"ADDRESS":"中清一街４８號四樓之２","OBJECTID":653506},"geometry":{"x":173674.27377000079,"y":2541489.2772500012}},{"attributes":{"ID":653534,"DIS_CODE":0,"TOWNNAME":"仁德區","LI":"仁義里","LIN":"29鄰","STREET":"中清一街","SECT":" ","MAREA":" ","LANE":" ","ALLEY":" ","HOUSE_NO":"５０號","E_COORD97":173662.62805199999,"N_COORD97":2541508.5389100001,"ADDRESS":"中清一街５０號","OBJECTID":653507},"geometry":{"x":173662.62805200089,"y":2541508.5389130004}},{"attributes":{"ID":653535,"DIS_CODE":0,"TOWNNAME":"仁德區","LI":"仁義里","LIN":"29鄰","STREET":"中清一街","SECT":" ","MAREA":" ","LANE":" ","ALLEY":" ","HOUSE_NO":"５０號七樓之１","E_COORD97":173662.62805199999,"N_COORD97":2541508.5389100001,"ADDRESS":"中清一街５０號七樓之１","OBJECTID":653508},"geometry":{"x":173662.62805200089,"y":2541508.5389130004}},{"attributes":{"ID":653536,"DIS_CODE":0,"TOWNNAME":"仁德區","LI":"仁義里","LIN":"29鄰","STREET":"中清一街","SECT":" ","MAREA":" ","LANE":" ","ALLEY":" ","HOUSE_NO":"５０號七樓之３","E_COORD97":173662.62805199999,"N_COORD97":2541508.5389100001,"ADDRESS":"中清一街５０號七樓之３","OBJECTID":653509},"geometry":{"x":173662.62805200089,"y":2541508.5389130004}},{"attributes":{"ID":653537,"DIS_CODE":0,"TOWNNAME":"仁德區","LI":"仁義里","LIN":"29鄰","STREET":"中清一街","SECT":" ","MAREA":" ","LANE":" ","ALLEY":" ","HOUSE_NO":"５０號九樓之１","E_COORD97":173662.62805199999,"N_COORD97":2541508.5389100001,"ADDRESS":"中清一街５０號九樓之１","OBJECTID":653510},"geometry":{"x":173662.62805200089,"y":2541508.5389130004}},{"attributes":{"ID":653538,"DIS_CODE":0,"TOWNNAME":"仁德區","LI":"仁義里","LIN":"29鄰","STREET":"中清一街","SECT":" ","MAREA":" ","LANE":" ","ALLEY":" ","HOUSE_NO":"５０號九樓之２","E_COORD97":173662.62805199999,"N_COORD97":2541508.5389100001,"ADDRESS":"中清一街５０號九樓之２","OBJECTID":653511},"geometry":{"x":173662.62805200089,"y":2541508.5389130004}},{"attributes":{"ID":653539,"DIS_CODE":0,"TOWNNAME":"仁德區","LI":"仁義里","LIN":"29鄰","STREET":"中清一街","SECT":" ","MAREA":" ","LANE":" ","ALLEY":" ","HOUSE_NO":"５０號二樓之３","E_COORD97":173662.62805199999,"N_COORD97":2541508.5389100001,"ADDRESS":"中清一街５０號二樓之３","OBJECTID":653512},"geometry":{"x":173662.62805200089,"y":2541508.5389130004}},{"attributes":{"ID":653540,"DIS_CODE":0,"TOWNNAME":"仁德區","LI":"仁義里","LIN":"29鄰","STREET":"中清一街","SECT":" ","MAREA":" ","LANE":" ","ALLEY":" ","HOUSE_NO":"５０號二樓之４","E_COORD97":173662.62805199999,"N_COORD97":2541508.5389100001,"ADDRESS":"中清一街５０號二樓之４","OBJECTID":653513},"geometry":{"x":173662.62805200089,"y":2541508.5389130004}},{"attributes":{"ID":653541,"DIS_CODE":0,"TOWNNAME":"仁德區","LI":"仁義里","LIN":"29鄰","STREET":"中清一街","SECT":" ","MAREA":" ","LANE":" ","ALLEY":" ","HOUSE_NO":"５０號八樓之２","E_COORD97":173662.62805199999,"N_COORD97":2541508.5389100001,"ADDRESS":"中清一街５０號八樓之２","OBJECTID":653514},"geometry":{"x":173662.62805200089,"y":2541508.5389130004}},{"attributes":{"ID":653542,"DIS_CODE":0,"TOWNNAME":"仁德區","LI":"仁義里","LIN":"29鄰","STREET":"中清一街","SECT":" ","MAREA":" ","LANE":" ","ALLEY":" ","HOUSE_NO":"５０號八樓之３","E_COORD97":173662.62805199999,"N_COORD97":2541508.5389100001,"ADDRESS":"中清一街５０號八樓之３","OBJECTID":653515},"geometry":{"x":173662.62805200089,"y":2541508.5389130004}},{"attributes":{"ID":653543,"DIS_CODE":0,"TOWNNAME":"仁德區","LI":"仁義里","LIN":"29鄰","STREET":"中清一街","SECT":" ","MAREA":" ","LANE":" ","ALLEY":" ","HOUSE_NO":"５０號十樓之４","E_COORD97":173662.62805199999,"N_COORD97":2541508.5389100001,"ADDRESS":"中清一街５０號十樓之４","OBJECTID":653516},"geometry":{"x":173662.62805200089,"y":2541508.5389130004}},{"attributes":{"ID":653544,"DIS_CODE":0,"TOWNNAME":"關廟區","LI":"香洋里","LIN":"12鄰","STREET":"巡腑路","SECT":" ","MAREA":" ","LANE":" ","ALLEY":" ","HOUSE_NO":"４５號","E_COORD97":181129.97771199999,"N_COORD97":2540046.2849699999,"ADDRESS":"巡腑路４５號","OBJECTID":653517},"geometry":{"x":181129.97771199979,"y":2540046.2849700022}},{"attributes":{"ID":653545,"DIS_CODE":0,"TOWNNAME":"仁德區","LI":"仁義里","LIN":"29鄰","STREET":"中清一街","SECT":" ","MAREA":" ","LANE":" ","ALLEY":" ","HOUSE_NO":"５０號三樓之１","E_COORD97":173662.62805,"N_COORD97":2541508.5389100001,"ADDRESS":"中清一街５０號三樓之１","OBJECTID":653518},"geometry":{"x":173662.62805000227,"y":2541508.5389100015}},{"attributes":{"ID":653546,"DIS_CODE":0,"TOWNNAME":"仁德區","LI":"仁義里","LIN":"29鄰","STREET":"中清一街","SECT":" ","MAREA":" ","LANE":" ","ALLEY":" ","HOUSE_NO":"５０號三樓之４","E_COORD97":173662.62805,"N_COORD97":2541508.5389100001,"ADDRESS":"中清一街５０號三樓之４","OBJECTID":653519},"geometry":{"x":173662.62805000227,"y":2541508.5389100015}},{"attributes":{"ID":653547,"DIS_CODE":0,"TOWNNAME":"仁德區","LI":"仁義里","LIN":"29鄰","STREET":"中清一街","SECT":" ","MAREA":" ","LANE":" ","ALLEY":" ","HOUSE_NO":"５０號五樓之１","E_COORD97":173662.62805,"N_COORD97":2541508.5389100001,"ADDRESS":"中清一街５０號五樓之１","OBJECTID":653520},"geometry":{"x":173662.62805000227,"y":2541508.5389100015}},{"attributes":{"ID":653548,"DIS_CODE":0,"TOWNNAME":"仁德區","LI":"仁義里","LIN":"29鄰","STREET":"中清一街","SECT":" ","MAREA":" ","LANE":" ","ALLEY":" ","HOUSE_NO":"５０號五樓之２","E_COORD97":173662.62805,"N_COORD97":2541508.5389100001,"ADDRESS":"中清一街５０號五樓之２","OBJECTID":653521},"geometry":{"x":173662.62805000227,"y":2541508.5389100015}},{"attributes":{"ID":653549,"DIS_CODE":0,"TOWNNAME":"仁德區","LI":"仁義里","LIN":"29鄰","STREET":"中清一街","SECT":" ","MAREA":" ","LANE":" ","ALLEY":" ","HOUSE_NO":"５０號五樓之４","E_COORD97":173662.62805,"N_COORD97":2541508.5389100001,"ADDRESS":"中清一街５０號五樓之４","OBJECTID":653522},"geometry":{"x":173662.62805000227,"y":2541508.5389100015}},{"attributes":{"ID":653550,"DIS_CODE":0,"TOWNNAME":"仁德區","LI":"仁義里","LIN":"29鄰","STREET":"中清一街","SECT":" ","MAREA":" ","LANE":" ","ALLEY":" ","HOUSE_NO":"５０號五樓之３","E_COORD97":173662.62805,"N_COORD97":2541508.5389100001,"ADDRESS":"中清一街５０號五樓之３","OBJECTID":653523},"geometry":{"x":173662.62805000227,"y":2541508.5389100015}},{"attributes":{"ID":653551,"DIS_CODE":0,"TOWNNAME":"仁德區","LI":"仁義里","LIN":"29鄰","STREET":"中清一街","SECT":" ","MAREA":" ","LANE":" ","ALLEY":" ","HOUSE_NO":"５０號六樓之１","E_COORD97":173662.62805,"N_COORD97":2541508.5389100001,"ADDRESS":"中清一街５０號六樓之１","OBJECTID":653524},"geometry":{"x":173662.62805000227,"y":2541508.5389100015}},{"attributes":{"ID":653552,"DIS_CODE":0,"TOWNNAME":"仁德區","LI":"仁義里","LIN":"29鄰","STREET":"中清一街","SECT":" ","MAREA":" ","LANE":" ","ALLEY":" ","HOUSE_NO":"５０號六樓之２","E_COORD97":173662.62805,"N_COORD97":2541508.5389100001,"ADDRESS":"中清一街５０號六樓之２","OBJECTID":653525},"geometry":{"x":173662.62805000227,"y":2541508.5389100015}},{"attributes":{"ID":653553,"DIS_CODE":0,"TOWNNAME":"仁德區","LI":"仁義里","LIN":"29鄰","STREET":"中清一街","SECT":" ","MAREA":" ","LANE":" ","ALLEY":" ","HOUSE_NO":"５０號六樓之３","E_COORD97":173662.62805,"N_COORD97":2541508.5389100001,"ADDRESS":"中清一街５０號六樓之３","OBJECTID":653526},"geometry":{"x":173662.62805000227,"y":2541508.5389100015}},{"attributes":{"ID":653554,"DIS_CODE":0,"TOWNNAME":"仁德區","LI":"仁義里","LIN":"29鄰","STREET":"中清一街","SECT":" ","MAREA":" ","LANE":" ","ALLEY":" ","HOUSE_NO":"５０號四樓之１","E_COORD97":173662.62805,"N_COORD97":2541508.5389100001,"ADDRESS":"中清一街５０號四樓之１","OBJECTID":653527},"geometry":{"x":173662.62805000227,"y":2541508.5389100015}},{"attributes":{"ID":653555,"DIS_CODE":0,"TOWNNAME":"仁德區","LI":"仁義里","LIN":"29鄰","STREET":"中清一街","SECT":" ","MAREA":" ","LANE":" ","ALLEY":" ","HOUSE_NO":"５０號四樓之２","E_COORD97":173662.62805,"N_COORD97":2541508.5389100001,"ADDRESS":"中清一街５０號四樓之２","OBJECTID":653528},"geometry":{"x":173662.62805000227,"y":2541508.5389100015}},{"attributes":{"ID":653556,"DIS_CODE":0,"TOWNNAME":"仁德區","LI":"仁義里","LIN":"29鄰","STREET":"中清一街","SECT":" ","MAREA":" ","LANE":" ","ALLEY":" ","HOUSE_NO":"５０號四樓之３","E_COORD97":173662.62805,"N_COORD97":2541508.5389100001,"ADDRESS":"中清一街５０號四樓之３","OBJECTID":653529},"geometry":{"x":173662.62805000227,"y":2541508.5389100015}},{"attributes":{"ID":653557,"DIS_CODE":0,"TOWNNAME":"仁德區","LI":"仁義里","LIN":"29鄰","STREET":"中清一街","SECT":" ","MAREA":" ","LANE":" ","ALLEY":" ","HOUSE_NO":"５０號四樓之４","E_COORD97":173662.62805,"N_COORD97":2541508.5389100001,"ADDRESS":"中清一街５０號四樓之４","OBJECTID":653530},"geometry":{"x":173662.62805000227,"y":2541508.5389100015}},{"attributes":{"ID":653558,"DIS_CODE":0,"TOWNNAME":"仁德區","LI":"仁義里","LIN":"29鄰","STREET":"中清一街","SECT":" ","MAREA":" ","LANE":" ","ALLEY":" ","HOUSE_NO":"５０號八樓之１","E_COORD97":173662.62805,"N_COORD97":2541508.5389100001,"ADDRESS":"中清一街５０號八樓之１","OBJECTID":653531},"geometry":{"x":173662.62805000227,"y":2541508.5389100015}},{"attributes":{"ID":653559,"DIS_CODE":0,"TOWNNAME":"安平區","LI":"港仔里","LIN":"11鄰","STREET":"延平街","SECT":" ","MAREA":" ","LANE":" ","ALLEY":" ","HOUSE_NO":"８７號四樓","E_COORD97":164151.020116,"N_COORD97":2544601.4555100002,"ADDRESS":"延平街８７號四樓","OBJECTID":653532},"geometry":{"x":164151.02011600137,"y":2544601.4555089995}},{"attributes":{"ID":653560,"DIS_CODE":0,"TOWNNAME":"安平區","LI":"港仔里","LIN":"9鄰","STREET":"運河路","SECT":" ","MAREA":" ","LANE":"１３巷","ALLEY":" ","HOUSE_NO":"１８號之２","E_COORD97":164196.156418,"N_COORD97":2544506.6288899998,"ADDRESS":"運河路１３巷１８號之２","OBJECTID":653533},"geometry":{"x":164196.15641799942,"y":2544506.628893001}},{"attributes":{"ID":653561,"DIS_CODE":0,"TOWNNAME":"安平區","LI":"港仔里","LIN":"9鄰","STREET":"運河路","SECT":" ","MAREA":" ","LANE":"１３巷","ALLEY":" ","HOUSE_NO":"１８號之４","E_COORD97":164196.156418,"N_COORD97":2544506.6288899998,"ADDRESS":"運河路１３巷１８號之４","OBJECTID":653534},"geometry":{"x":164196.15641799942,"y":2544506.628893001}},{"attributes":{"ID":653562,"DIS_CODE":0,"TOWNNAME":"安平區","LI":"港仔里","LIN":"9鄰","STREET":"運河路","SECT":" ","MAREA":" ","LANE":"１３巷","ALLEY":" ","HOUSE_NO":"１８號之５","E_COORD97":164196.156418,"N_COORD97":2544506.6288899998,"ADDRESS":"運河路１３巷１８號之５","OBJECTID":653535},"geometry":{"x":164196.15641799942,"y":2544506.628893001}},{"attributes":{"ID":653563,"DIS_CODE":0,"TOWNNAME":"安平區","LI":"港仔里","LIN":"9鄰","STREET":"運河路","SECT":" ","MAREA":" ","LANE":"１３巷","ALLEY":" ","HOUSE_NO":"１８號之６","E_COORD97":164196.156418,"N_COORD97":2544506.6288899998,"ADDRESS":"運河路１３巷１８號之６","OBJECTID":653536},"geometry":{"x":164196.15641799942,"y":2544506.628893001}},{"attributes":{"ID":653564,"DIS_CODE":0,"TOWNNAME":"歸仁區","LI":"崙頂里","LIN":"1鄰","STREET":"信義南路","SECT":" ","MAREA":" ","LANE":" ","ALLEY":" ","HOUSE_NO":"２８１之１號","E_COORD97":178215.15132599999,"N_COORD97":2539935.5152599998,"ADDRESS":"信義南路２８１之１號","OBJECTID":653537},"geometry":{"x":178215.15132599976,"y":2539935.5152630024}},{"attributes":{"ID":653565,"DIS_CODE":0,"TOWNNAME":"安平區","LI":"港仔里","LIN":"18鄰","STREET":"運河路","SECT":" ","MAREA":" ","LANE":"１３巷","ALLEY":"３１弄","HOUSE_NO":"１３號","E_COORD97":164136.39849600001,"N_COORD97":2544499.8555600001,"ADDRESS":"運河路１３巷３１弄１３號","OBJECTID":653538},"geometry":{"x":164136.39849600103,"y":2544499.8555640001}},{"attributes":{"ID":653566,"DIS_CODE":0,"TOWNNAME":"安平區","LI":"港仔里","LIN":"16鄰","STREET":"運河路","SECT":" ","MAREA":" ","LANE":"１３巷","ALLEY":"３弄","HOUSE_NO":"２０號","E_COORD97":164112.452946,"N_COORD97":2544435.50893,"ADDRESS":"運河路１３巷３弄２０號","OBJECTID":653539},"geometry":{"x":164112.45294599887,"y":2544435.508932}},{"attributes":{"ID":653567,"DIS_CODE":0,"TOWNNAME":"安平區","LI":"港仔里","LIN":"17鄰","STREET":"運河路","SECT":" ","MAREA":" ","LANE":"１３巷","ALLEY":"３弄","HOUSE_NO":"８號","E_COORD97":164150.38439299999,"N_COORD97":2544430.4289299999,"ADDRESS":"運河路１３巷３弄８號","OBJECTID":653540},"geometry":{"x":164150.38439300004,"y":2544430.4289340023}},{"attributes":{"ID":653568,"DIS_CODE":0,"TOWNNAME":"安平區","LI":"港仔里","LIN":"13鄰","STREET":"運河路","SECT":" ","MAREA":" ","LANE":"１３巷","ALLEY":"６弄","HOUSE_NO":"７號","E_COORD97":164217.98289300001,"N_COORD97":2544430.8522700001,"ADDRESS":"運河路１３巷６弄７號","OBJECTID":653541},"geometry":{"x":164217.98289300036,"y":2544430.8522670008}},{"attributes":{"ID":653569,"DIS_CODE":0,"TOWNNAME":"仁德區","LI":"仁義里","LIN":"3鄰","STREET":"仁義三街","SECT":" ","MAREA":" ","LANE":" ","ALLEY":" ","HOUSE_NO":"２７６號","E_COORD97":173963.20201000001,"N_COORD97":2541047.4153800001,"ADDRESS":"仁義三街２７６號","OBJECTID":653542},"geometry":{"x":173963.20201000012,"y":2541047.4153830018}},{"attributes":{"ID":653570,"DIS_CODE":0,"TOWNNAME":"安平區","LI":"港仔里","LIN":"15鄰","STREET":"運河路","SECT":" ","MAREA":" ","LANE":"２３巷","ALLEY":"２３弄","HOUSE_NO":"１０號","E_COORD97":164079.18346500001,"N_COORD97":2544473.8205800001,"ADDRESS":"運河路２３巷２３弄１０號","OBJECTID":653543},"geometry":{"x":164079.1834650021,"y":2544473.8205779996}},{"attributes":{"ID":653571,"DIS_CODE":0,"TOWNNAME":"麻豆區","LI":"大山里","LIN":"7鄰","STREET":" ","SECT":" ","MAREA":"大山\u25A0","LANE":" ","ALLEY":" ","HOUSE_NO":"７５號之８","E_COORD97":170303.45989900001,"N_COORD97":2566336.74523,"ADDRESS":"大山\u25A0７５號之８","OBJECTID":653544},"geometry":{"x":170303.45989900082,"y":2566336.7452350035}},{"attributes":{"ID":653572,"DIS_CODE":0,"TOWNNAME":"安平區","LI":"港仔里","LIN":"15鄰","STREET":"運河路","SECT":" ","MAREA":" ","LANE":"２３巷","ALLEY":"２３弄","HOUSE_NO":"１２號","E_COORD97":164074.73340699999,"N_COORD97":2544475.9372399999,"ADDRESS":"運河路２３巷２３弄１２號","OBJECTID":653545},"geometry":{"x":164074.73340700008,"y":2544475.9372430015}},{"attributes":{"ID":653573,"DIS_CODE":0,"TOWNNAME":"安平區","LI":"港仔里","LIN":"15鄰","STREET":"運河路","SECT":" ","MAREA":" ","LANE":"２３巷","ALLEY":" ","HOUSE_NO":"２７號","E_COORD97":164099.95040199999,"N_COORD97":2544495.4105699998,"ADDRESS":"運河路２３巷２７號","OBJECTID":653546},"geometry":{"x":164099.95040199999,"y":2544495.4105660003}},{"attributes":{"ID":653574,"DIS_CODE":0,"TOWNNAME":"仁德區","LI":"田厝里","LIN":"7鄰","STREET":"中正路","SECT":"一段","MAREA":" ","LANE":"５９９巷","ALLEY":"３０弄","HOUSE_NO":"１６號","E_COORD97":172804.29968500001,"N_COORD97":2537956.8316500001,"ADDRESS":"中正路一段５９９巷３０弄１６號","OBJECTID":653547},"geometry":{"x":172804.2996850023,"y":2537956.831646001}},{"attributes":{"ID":653575,"DIS_CODE":0,"TOWNNAME":"安平區","LI":"港仔里","LIN":"15鄰","STREET":"運河路","SECT":" ","MAREA":" ","LANE":"２３巷","ALLEY":"３１弄","HOUSE_NO":"１號","E_COORD97":164093.16936100001,"N_COORD97":2544511.4972199998,"ADDRESS":"運河路２３巷３１弄１號","OBJECTID":653548},"geometry":{"x":164093.16936099995,"y":2544511.4972239994}},{"attributes":{"ID":653576,"DIS_CODE":0,"TOWNNAME":"安平區","LI":"港仔里","LIN":"15鄰","STREET":"運河路","SECT":" ","MAREA":" ","LANE":"２３巷","ALLEY":"３１弄","HOUSE_NO":"３號","E_COORD97":164088.71930299999,"N_COORD97":2544512.5555599998,"ADDRESS":"運河路２３巷３１弄３號","OBJECTID":653549},"geometry":{"x":164088.71930299979,"y":2544512.5555570014}},{"attributes":{"ID":653577,"DIS_CODE":0,"TOWNNAME":"安平區","LI":"港仔里","LIN":"14鄰","STREET":"運河路","SECT":" ","MAREA":" ","LANE":" ","ALLEY":" ","HOUSE_NO":"２４號","E_COORD97":164085.96450599999,"N_COORD97":2544416.4589399998,"ADDRESS":"運河路２４號","OBJECTID":653550},"geometry":{"x":164085.96450600214,"y":2544416.4589419998}},{"attributes":{"ID":653578,"DIS_CODE":0,"TOWNNAME":"麻豆區","LI":"大山里","LIN":"6鄰","STREET":" ","SECT":" ","MAREA":"大山\u25A0","LANE":" ","ALLEY":" ","HOUSE_NO":"６５號之６","E_COORD97":170141.80136499999,"N_COORD97":2566342.3544000001,"ADDRESS":"大山\u25A0６５號之６","OBJECTID":653551},"geometry":{"x":170141.8013650002,"y":2566342.3543990012}},{"attributes":{"ID":653579,"DIS_CODE":0,"TOWNNAME":"安平區","LI":"港仔里","LIN":"20鄰","STREET":"觀音街","SECT":" ","MAREA":" ","LANE":" ","ALLEY":" ","HOUSE_NO":"８８號","E_COORD97":164064.13803100001,"N_COORD97":2544579.0188500001,"ADDRESS":"觀音街８８號","OBJECTID":653552},"geometry":{"x":164064.1380310012,"y":2544579.0188540034}},{"attributes":{"ID":653580,"DIS_CODE":0,"TOWNNAME":"關廟區","LI":"北勢里","LIN":"19鄰","STREET":"北安三街","SECT":" ","MAREA":" ","LANE":" ","ALLEY":" ","HOUSE_NO":"２５７號","E_COORD97":181230.43232600001,"N_COORD97":2540636.7540899999,"ADDRESS":"北安三街２５７號","OBJECTID":653553},"geometry":{"x":181230.43232600205,"y":2540636.7540889978}},{"attributes":{"ID":653581,"DIS_CODE":0,"TOWNNAME":"仁德區","LI":"田厝里","LIN":"7鄰","STREET":"中正路","SECT":"一段","MAREA":" ","LANE":"５９９巷","ALLEY":"２弄","HOUSE_NO":"６號","E_COORD97":172905.768109,"N_COORD97":2537854.5967000001,"ADDRESS":"中正路一段５９９巷２弄６號","OBJECTID":653554},"geometry":{"x":172905.76810900029,"y":2537854.5967009999}},{"attributes":{"ID":653582,"DIS_CODE":0,"TOWNNAME":"關廟區","LI":"深坑里","LIN":"4鄰","STREET":"深坑三街","SECT":" ","MAREA":" ","LANE":" ","ALLEY":" ","HOUSE_NO":"９１號","E_COORD97":181871.00769299999,"N_COORD97":2537597.4838899998,"ADDRESS":"深坑三街９１號","OBJECTID":653555},"geometry":{"x":181871.00769299921,"y":2537597.4838940017}},{"attributes":{"ID":653583,"DIS_CODE":0,"TOWNNAME":"北門區","LI":"北門里","LIN":"22鄰","STREET":" ","SECT":" ","MAREA":"舊埕","LANE":" ","ALLEY":" ","HOUSE_NO":"２０３號","E_COORD97":160323.63254300001,"N_COORD97":2574066.3569100001,"ADDRESS":"舊埕２０３號","OBJECTID":653556},"geometry":{"x":160323.63254300132,"y":2574066.3569130041}},{"attributes":{"ID":653584,"DIS_CODE":0,"TOWNNAME":"關廟區","LI":"深坑里","LIN":"4鄰","STREET":"深坑三街","SECT":" ","MAREA":" ","LANE":" ","ALLEY":" ","HOUSE_NO":"９７號","E_COORD97":181882.021706,"N_COORD97":2537575.68224,"ADDRESS":"深坑三街９７號","OBJECTID":653557},"geometry":{"x":181882.0217060009,"y":2537575.6822390035}},{"attributes":{"ID":653585,"DIS_CODE":0,"TOWNNAME":"麻豆區","LI":"大山里","LIN":"8鄰","STREET":" ","SECT":" ","MAREA":"大山\u25A0","LANE":" ","ALLEY":" ","HOUSE_NO":"１號之７１","E_COORD97":170376.7677,"N_COORD97":2565815.6221799999,"ADDRESS":"大山\u25A0１號之７１","OBJECTID":653558},"geometry":{"x":170376.76769999973,"y":2565815.6221830044}},{"attributes":{"ID":653586,"DIS_CODE":0,"TOWNNAME":"關廟區","LI":"深坑里","LIN":"4鄰","STREET":"深坑三街","SECT":" ","MAREA":" ","LANE":" ","ALLEY":" ","HOUSE_NO":"８９號","E_COORD97":181869.73684600001,"N_COORD97":2537611.2422199999,"ADDRESS":"深坑三街８９號","OBJECTID":653559},"geometry":{"x":181869.73684599996,"y":2537611.2422200013}},{"attributes":{"ID":653587,"DIS_CODE":0,"TOWNNAME":"安南區","LI":"城南里","LIN":"10鄰","STREET":"城南路","SECT":" ","MAREA":" ","LANE":" ","ALLEY":" ","HOUSE_NO":"４２０號","E_COORD97":160264.094855,"N_COORD97":2550973.8597300001,"ADDRESS":"城南路４２０號","OBJECTID":653560},"geometry":{"x":160264.0948550012,"y":2550973.8597340006}},{"attributes":{"ID":653588,"DIS_CODE":0,"TOWNNAME":"下營區","LI":"開化里","LIN":"3鄰","STREET":" ","SECT":" ","MAREA":"中營","LANE":" ","ALLEY":" ","HOUSE_NO":"２２４號","E_COORD97":175773.54274400001,"N_COORD97":2568272.35237,"ADDRESS":"中營２２４號","OBJECTID":653561},"geometry":{"x":175773.54274399951,"y":2568272.3523699995}},{"attributes":{"ID":653589,"DIS_CODE":0,"TOWNNAME":"麻豆區","LI":"大山里","LIN":"2鄰","STREET":" ","SECT":" ","MAREA":"大山\u25A0","LANE":" ","ALLEY":" ","HOUSE_NO":"２０號之７６","E_COORD97":169866.579302,"N_COORD97":2565691.2680799998,"ADDRESS":"大山\u25A0２０號之７６","OBJECTID":653562},"geometry":{"x":169866.57930199988,"y":2565691.2680840027}},{"attributes":{"ID":653590,"DIS_CODE":0,"TOWNNAME":"安南區","LI":"城南里","LIN":"10鄰","STREET":"城南路","SECT":" ","MAREA":" ","LANE":" ","ALLEY":" ","HOUSE_NO":"４１８號","E_COORD97":160263.88302000001,"N_COORD97":2550971.7430699999,"ADDRESS":"城南路４１８號","OBJECTID":653563},"geometry":{"x":160263.8830199996,"y":2550971.7430690043}},{"attributes":{"ID":653591,"DIS_CODE":0,"TOWNNAME":"關廟區","LI":"北勢里","LIN":"2鄰","STREET":"仁愛路","SECT":" ","MAREA":" ","LANE":"１０７巷","ALLEY":" ","HOUSE_NO":"３號","E_COORD97":181316.66433500001,"N_COORD97":2540296.6456300002,"ADDRESS":"仁愛路１０７巷３號","OBJECTID":653564},"geometry":{"x":181316.66433500219,"y":2540296.6456269994}},{"attributes":{"ID":653592,"DIS_CODE":0,"TOWNNAME":"安南區","LI":"城南里","LIN":"10鄰","STREET":"城南路","SECT":" ","MAREA":" ","LANE":" ","ALLEY":" ","HOUSE_NO":"４１６號","E_COORD97":160263.459351,"N_COORD97":2550969.6264,"ADDRESS":"城南路４１６號","OBJECTID":653565},"geometry":{"x":160263.45935099944,"y":2550969.6264030021}},{"attributes":{"ID":653593,"DIS_CODE":0,"TOWNNAME":"安南區","LI":"城南里","LIN":"10鄰","STREET":"城南路","SECT":" ","MAREA":" ","LANE":" ","ALLEY":" ","HOUSE_NO":"４１２號","E_COORD97":160263.247516,"N_COORD97":2550967.9330699998,"ADDRESS":"城南路４１２號","OBJECTID":653566},"geometry":{"x":160263.24751600157,"y":2550967.9330710005}},{"attributes":{"ID":653594,"DIS_CODE":0,"TOWNNAME":"關廟區","LI":"北勢里","LIN":"3鄰","STREET":"中正路","SECT":" ","MAREA":" ","LANE":" ","ALLEY":" ","HOUSE_NO":"８６２號","E_COORD97":181334.72644500001,"N_COORD97":2540241.8769100001,"ADDRESS":"中正路８６２號","OBJECTID":653567},"geometry":{"x":181334.72644500062,"y":2540241.8769060019}},{"attributes":{"ID":653595,"DIS_CODE":0,"TOWNNAME":"安南區","LI":"城南里","LIN":"10鄰","STREET":"城南路","SECT":" ","MAREA":" ","LANE":" ","ALLEY":" ","HOUSE_NO":"４１０號","E_COORD97":160263.67118500001,"N_COORD97":2550965.3930700002,"ADDRESS":"城南路４１０號","OBJECTID":653568},"geometry":{"x":160263.67118500173,"y":2550965.3930719998}},{"attributes":{"ID":653596,"DIS_CODE":0,"TOWNNAME":"下營區","LI":"開化里","LIN":"1鄰","STREET":" ","SECT":" ","MAREA":"中營","LANE":" ","ALLEY":" ","HOUSE_NO":"２３號","E_COORD97":175585.40447499999,"N_COORD97":2568351.4098299998,"ADDRESS":"中營２３號","OBJECTID":653569},"geometry":{"x":175585.40447500069,"y":2568351.4098270014}},{"attributes":{"ID":653597,"DIS_CODE":0,"TOWNNAME":"安南區","LI":"城南里","LIN":"10鄰","STREET":"城南路","SECT":" ","MAREA":" ","LANE":" ","ALLEY":" ","HOUSE_NO":"４０８號","E_COORD97":160263.67118500001,"N_COORD97":2550962.8530700002,"ADDRESS":"城南路４０８號","OBJECTID":653570},"geometry":{"x":160263.67118500173,"y":2550962.8530730009}},{"attributes":{"ID":653598,"DIS_CODE":0,"TOWNNAME":"安南區","LI":"城南里","LIN":"10鄰","STREET":"城南路","SECT":" ","MAREA":" ","LANE":" ","ALLEY":" ","HOUSE_NO":"４０６號","E_COORD97":160263.88302000001,"N_COORD97":2550960.1014100001,"ADDRESS":"城南路４０６號","OBJECTID":653571},"geometry":{"x":160263.8830199996,"y":2550960.1014079992}},{"attributes":{"ID":653599,"DIS_CODE":0,"TOWNNAME":"關廟區","LI":"北勢里","LIN":"9鄰","STREET":"成功路","SECT":" ","MAREA":" ","LANE":" ","ALLEY":" ","HOUSE_NO":"１５２號","E_COORD97":181610.90193399999,"N_COORD97":2540457.5915799998,"ADDRESS":"成功路１５２號","OBJECTID":653572},"geometry":{"x":181610.90193399973,"y":2540457.591581}},{"attributes":{"ID":653600,"DIS_CODE":0,"TOWNNAME":"安南區","LI":"城南里","LIN":"10鄰","STREET":"城南路","SECT":" ","MAREA":" ","LANE":" ","ALLEY":" ","HOUSE_NO":"４０２號","E_COORD97":160263.777103,"N_COORD97":2550957.7730800002,"ADDRESS":"城南路４０２號","OBJECTID":653573},"geometry":{"x":160263.77710300125,"y":2550957.7730760016}},{"attributes":{"ID":653601,"DIS_CODE":0,"TOWNNAME":"安南區","LI":"城南里","LIN":"10鄰","STREET":"城南路","SECT":" ","MAREA":" ","LANE":" ","ALLEY":" ","HOUSE_NO":"４００號","E_COORD97":160263.777103,"N_COORD97":2550954.5980799999,"ADDRESS":"城南路４００號","OBJECTID":653574},"geometry":{"x":160263.77710300125,"y":2550954.5980780032}},{"attributes":{"ID":653602,"DIS_CODE":0,"TOWNNAME":"安南區","LI":"城南里","LIN":"10鄰","STREET":"城南路","SECT":" ","MAREA":" ","LANE":" ","ALLEY":" ","HOUSE_NO":"３９８號","E_COORD97":160263.777103,"N_COORD97":2550951.4230800001,"ADDRESS":"城南路３９８號","OBJECTID":653575},"geometry":{"x":160263.77710300125,"y":2550951.4230789989}},{"attributes":{"ID":653603,"DIS_CODE":0,"TOWNNAME":"安南區","LI":"城南里","LIN":"10鄰","STREET":"城南路","SECT":" ","MAREA":" ","LANE":" ","ALLEY":" ","HOUSE_NO":"３９６號","E_COORD97":160264.20077299999,"N_COORD97":2550948.0364199998,"ADDRESS":"城南路３９６號","OBJECTID":653576},"geometry":{"x":160264.20077300072,"y":2550948.0364150014}},{"attributes":{"ID":653604,"DIS_CODE":0,"TOWNNAME":"安南區","LI":"城南里","LIN":"10鄰","STREET":"城南路","SECT":" ","MAREA":" ","LANE":" ","ALLEY":" ","HOUSE_NO":"３９２號","E_COORD97":160263.35343300001,"N_COORD97":2550943.80308,"ADDRESS":"城南路３９２號","OBJECTID":653577},"geometry":{"x":160263.35343299992,"y":2550943.8030840047}},{"attributes":{"ID":653605,"DIS_CODE":0,"TOWNNAME":"關廟區","LI":"深坑里","LIN":"4鄰","STREET":"深坑三街","SECT":" ","MAREA":" ","LANE":"８３巷","ALLEY":" ","HOUSE_NO":"１７號","E_COORD97":181901.071184,"N_COORD97":2537604.7467,"ADDRESS":"深坑三街８３巷１７號","OBJECTID":653578},"geometry":{"x":181901.07118400186,"y":2537604.7467020024}},{"attributes":{"ID":653606,"DIS_CODE":0,"TOWNNAME":"下營區","LI":"開化里","LIN":"1鄰","STREET":" ","SECT":" ","MAREA":"中營","LANE":" ","ALLEY":" ","HOUSE_NO":"１６號","E_COORD97":175560.88074600001,"N_COORD97":2568385.3823099998,"ADDRESS":"中營１６號","OBJECTID":653579},"geometry":{"x":175560.88074600045,"y":2568385.3823090028}},{"attributes":{"ID":653607,"DIS_CODE":0,"TOWNNAME":"關廟區","LI":"深坑里","LIN":"4鄰","STREET":"深坑一街","SECT":" ","MAREA":" ","LANE":"８１巷","ALLEY":" ","HOUSE_NO":"１５號","E_COORD97":181961.59530399999,"N_COORD97":2537658.5629199999,"ADDRESS":"深坑一街８１巷１５號","OBJECTID":653580},"geometry":{"x":181961.59530400112,"y":2537658.5629229993}},{"attributes":{"ID":653608,"DIS_CODE":0,"TOWNNAME":"下營區","LI":"開化里","LIN":"4鄰","STREET":" ","SECT":" ","MAREA":"中營","LANE":" ","ALLEY":" ","HOUSE_NO":"２８９號","E_COORD97":175814.32707100001,"N_COORD97":2567813.93561,"ADDRESS":"中營２８９號","OBJECTID":653581},"geometry":{"x":175814.32707099989,"y":2567813.9356090017}},{"attributes":{"ID":653609,"DIS_CODE":0,"TOWNNAME":"安南區","LI":"城南里","LIN":"10鄰","STREET":"城南路","SECT":" ","MAREA":" ","LANE":" ","ALLEY":" ","HOUSE_NO":"３９０號","E_COORD97":160263.67118500001,"N_COORD97":2550940.8397499998,"ADDRESS":"城南路３９０號","OBJECTID":653582},"geometry":{"x":160263.67118500173,"y":2550940.8397520017}},{"attributes":{"ID":653610,"DIS_CODE":0,"TOWNNAME":"下營區","LI":"開化里","LIN":"5鄰","STREET":" ","SECT":" ","MAREA":"中營","LANE":" ","ALLEY":" ","HOUSE_NO":"３５５號","E_COORD97":175985.99287399999,"N_COORD97":2568253.0907100001,"ADDRESS":"中營３５５號","OBJECTID":653583},"geometry":{"x":175985.99287400115,"y":2568253.090714002}},{"attributes":{"ID":653611,"DIS_CODE":0,"TOWNNAME":"安南區","LI":"城南里","LIN":"10鄰","STREET":"城南路","SECT":" ","MAREA":" ","LANE":" ","ALLEY":" ","HOUSE_NO":"３８８號","E_COORD97":160263.459351,"N_COORD97":2550937.2414199999,"ADDRESS":"城南路３８８號","OBJECTID":653584},"geometry":{"x":160263.45935099944,"y":2550937.2414199989}},{"attributes":{"ID":653612,"DIS_CODE":0,"TOWNNAME":"永康區","LI":"\u25A0洲里","LIN":"40鄰","STREET":"洲工街","SECT":" ","MAREA":" ","LANE":" ","ALLEY":" ","HOUSE_NO":"１３７號","E_COORD97":170634.06943999999,"N_COORD97":2548519.4569199998,"ADDRESS":"洲工街１３７號","OBJECTID":653585},"geometry":{"x":170634.06944000162,"y":2548519.4569230005}},{"attributes":{"ID":653613,"DIS_CODE":0,"TOWNNAME":"關廟區","LI":"北勢里","LIN":"16鄰","STREET":"成功路","SECT":" ","MAREA":" ","LANE":"３４６巷","ALLEY":"１弄","HOUSE_NO":"１１號","E_COORD97":181250.56018999999,"N_COORD97":2540558.3448600001,"ADDRESS":"成功路３４６巷１弄１１號","OBJECTID":653586},"geometry":{"x":181250.56019000057,"y":2540558.3448599987}},{"attributes":{"ID":653614,"DIS_CODE":0,"TOWNNAME":"安南區","LI":"城南里","LIN":"10鄰","STREET":"城南路","SECT":" ","MAREA":" ","LANE":" ","ALLEY":" ","HOUSE_NO":"３８６號","E_COORD97":160263.88302000001,"N_COORD97":2550934.2780900002,"ADDRESS":"城南路３８６號","OBJECTID":653587},"geometry":{"x":160263.8830199996,"y":2550934.2780890018}},{"attributes":{"ID":653615,"DIS_CODE":0,"TOWNNAME":"安南區","LI":"城南里","LIN":"10鄰","STREET":"城南路","SECT":" ","MAREA":" ","LANE":" ","ALLEY":" ","HOUSE_NO":"３８２號","E_COORD97":160263.03568100001,"N_COORD97":2550931.31476,"ADDRESS":"城南路３８２號","OBJECTID":653588},"geometry":{"x":160263.03568100091,"y":2550931.3147570025}},{"attributes":{"ID":653616,"DIS_CODE":0,"TOWNNAME":"下營區","LI":"開化里","LIN":"6鄰","STREET":" ","SECT":" ","MAREA":"中營","LANE":" ","ALLEY":" ","HOUSE_NO":"４０６號","E_COORD97":176089.755019,"N_COORD97":2568259.4407100002,"ADDRESS":"中營４０６號","OBJECTID":653589},"geometry":{"x":176089.75501900073,"y":2568259.4407100007}},{"attributes":{"ID":653617,"DIS_CODE":0,"TOWNNAME":"下營區","LI":"開化里","LIN":"7鄰","STREET":" ","SECT":" ","MAREA":"中營","LANE":" ","ALLEY":" ","HOUSE_NO":"４３７號","E_COORD97":176127.89115400001,"N_COORD97":2568275.2098699999,"ADDRESS":"中營４３７號","OBJECTID":653590},"geometry":{"x":176127.8911539996,"y":2568275.2098680008}},{"attributes":{"ID":653618,"DIS_CODE":0,"TOWNNAME":"下營區","LI":"開化里","LIN":"7鄰","STREET":" ","SECT":" ","MAREA":"中營","LANE":" ","ALLEY":" ","HOUSE_NO":"４３４號","E_COORD97":176098.01784799999,"N_COORD97":2568271.08237,"ADDRESS":"中營４３４號","OBJECTID":653591},"geometry":{"x":176098.01784799993,"y":2568271.0823710002}},{"attributes":{"ID":653619,"DIS_CODE":0,"TOWNNAME":"安南區","LI":"城南里","LIN":"10鄰","STREET":"城南路","SECT":" ","MAREA":" ","LANE":" ","ALLEY":" ","HOUSE_NO":"３８０號","E_COORD97":160262.400176,"N_COORD97":2550928.3514299998,"ADDRESS":"城南路３８０號","OBJECTID":653592},"geometry":{"x":160262.40017600078,"y":2550928.3514250014}},{"attributes":{"ID":653620,"DIS_CODE":0,"TOWNNAME":"安南區","LI":"城南里","LIN":"10鄰","STREET":"城南路","SECT":" ","MAREA":" ","LANE":" ","ALLEY":" ","HOUSE_NO":"３７８號","E_COORD97":160262.400176,"N_COORD97":2550925.8114299998,"ADDRESS":"城南路３７８號","OBJECTID":653593},"geometry":{"x":160262.40017600078,"y":2550925.8114270009}},{"attributes":{"ID":653621,"DIS_CODE":0,"TOWNNAME":"安南區","LI":"城南里","LIN":"10鄰","STREET":"城南路","SECT":" ","MAREA":" ","LANE":" ","ALLEY":" ","HOUSE_NO":"３７６號","E_COORD97":160262.61201099999,"N_COORD97":2550923.0597600001,"ADDRESS":"城南路３７６號","OBJECTID":653594},"geometry":{"x":160262.61201100145,"y":2550923.0597610008}},{"attributes":{"ID":653622,"DIS_CODE":0,"TOWNNAME":"關廟區","LI":"深坑里","LIN":"5鄰","STREET":"深坑三街","SECT":" ","MAREA":" ","LANE":" ","ALLEY":" ","HOUSE_NO":"５７號","E_COORD97":181907.425422,"N_COORD97":2537726.3491400001,"ADDRESS":"深坑三街５７號","OBJECTID":653595},"geometry":{"x":181907.42542200163,"y":2537726.3491370007}},{"attributes":{"ID":653623,"DIS_CODE":0,"TOWNNAME":"關廟區","LI":"香洋里","LIN":"14鄰","STREET":"仁愛路","SECT":" ","MAREA":" ","LANE":" ","ALLEY":" ","HOUSE_NO":"２６號","E_COORD97":181296.539246,"N_COORD97":2540124.5108599998,"ADDRESS":"仁愛路２６號","OBJECTID":653596},"geometry":{"x":181296.53924600221,"y":2540124.5108620003}},{"attributes":{"ID":653624,"DIS_CODE":0,"TOWNNAME":"關廟區","LI":"香洋里","LIN":"14鄰","STREET":"中央路","SECT":" ","MAREA":" ","LANE":"１９６巷","ALLEY":" ","HOUSE_NO":"１１號","E_COORD97":181324.187944,"N_COORD97":2540107.3129599998,"ADDRESS":"中央路１９６巷１１號","OBJECTID":653597},"geometry":{"x":181324.18794400059,"y":2540107.3129549995}},{"attributes":{"ID":653625,"DIS_CODE":0,"TOWNNAME":"關廟區","LI":"香洋里","LIN":"13鄰","STREET":"中山路","SECT":"一段","MAREA":" ","LANE":"６２０巷","ALLEY":" ","HOUSE_NO":"７號","E_COORD97":181141.98196400001,"N_COORD97":2540040.1088200002,"ADDRESS":"中山路一段６２０巷７號","OBJECTID":653598},"geometry":{"x":181141.98196399957,"y":2540040.1088239998}},{"attributes":{"ID":653626,"DIS_CODE":0,"TOWNNAME":"安南區","LI":"城南里","LIN":"10鄰","STREET":"城南路","SECT":" ","MAREA":" ","LANE":" ","ALLEY":" ","HOUSE_NO":"３７２號","E_COORD97":160263.459351,"N_COORD97":2550920.3081,"ADDRESS":"城南路３７２號","OBJECTID":653599},"geometry":{"x":160263.45935099944,"y":2550920.3080959991}},{"attributes":{"ID":653627,"DIS_CODE":0,"TOWNNAME":"安南區","LI":"城南里","LIN":"10鄰","STREET":"城南路","SECT":" ","MAREA":" ","LANE":" ","ALLEY":" ","HOUSE_NO":"３７０號","E_COORD97":160263.247516,"N_COORD97":2550918.1914300001,"ADDRESS":"城南路３７０號","OBJECTID":653600},"geometry":{"x":160263.24751600157,"y":2550918.1914310027}}]}