{"displayFieldName":"TOWNNAME","fieldAliases":{"ID":"ID","DIS_CODE":"DIS_CODE","TOWNNAME":"TOWNNAME","LI":"LI","LIN":"LIN","STREET":"STREET","SECT":"SECT","MAREA":"MAREA","LANE":"LANE","ALLEY":"ALLEY","HOUSE_NO":"HOUSE_NO","E_COORD97":"E_COORD97","N_COORD97":"N_COORD97","ADDRESS":"ADDRESS","OBJECTID":"OBJECTID"},"geometryType":"esriGeometryPoint","spatialReference":{"wkid":102443,"latestWkid":3826},"fields":[{"name":"ID","type":"esriFieldTypeDouble","alias":"ID"},{"name":"DIS_CODE","type":"esriFieldTypeInteger","alias":"DIS_CODE"},{"name":"TOWNNAME","type":"esriFieldTypeString","alias":"TOWNNAME","length":8},{"name":"LI","type":"esriFieldTypeString","alias":"LI","length":8},{"name":"LIN","type":"esriFieldTypeString","alias":"LIN","length":12},{"name":"STREET","type":"esriFieldTypeString","alias":"STREET","length":20},{"name":"SECT","type":"esriFieldTypeString","alias":"SECT","length":8},{"name":"MAREA","type":"esriFieldTypeString","alias":"MAREA","length":12},{"name":"LANE","type":"esriFieldTypeString","alias":"LANE","length":10},{"name":"ALLEY","type":"esriFieldTypeString","alias":"ALLEY","length":10},{"name":"HOUSE_NO","type":"esriFieldTypeString","alias":"HOUSE_NO","length":20},{"name":"E_COORD97","type":"esriFieldTypeDouble","alias":"E_COORD97"},{"name":"N_COORD97","type":"esriFieldTypeDouble","alias":"N_COORD97"},{"name":"ADDRESS","type":"esriFieldTypeString","alias":"ADDRESS","length":50},{"name":"OBJECTID","type":"esriFieldTypeOID","alias":"OBJECTID"}],"features":[{"attributes":{"ID":566828,"DIS_CODE":0,"TOWNNAME":"永康區","LI":"北灣里","LIN":"37鄰","STREET":"大同街","SECT":" ","MAREA":" ","LANE":" ","ALLEY":" ","HOUSE_NO":"３２６號","E_COORD97":174780.97,"N_COORD97":2545965.8799999999,"ADDRESS":"大同街３２６號","OBJECTID":566801},"geometry":{"x":174780.97000000067,"y":2545965.879999999}},{"attributes":{"ID":566829,"DIS_CODE":0,"TOWNNAME":"永康區","LI":"北灣里","LIN":"37鄰","STREET":"大同街","SECT":" ","MAREA":" ","LANE":" ","ALLEY":" ","HOUSE_NO":"３１８號","E_COORD97":174787.95999999999,"N_COORD97":2545944.0299999998,"ADDRESS":"大同街３１８號","OBJECTID":566802},"geometry":{"x":174787.96000000089,"y":2545944.0299999993}},{"attributes":{"ID":566830,"DIS_CODE":0,"TOWNNAME":"永康區","LI":"北灣里","LIN":"37鄰","STREET":"大同街","SECT":" ","MAREA":" ","LANE":" ","ALLEY":" ","HOUSE_NO":"３２３號","E_COORD97":174710.10000000001,"N_COORD97":2546045.1200000001,"ADDRESS":"大同街３２３號","OBJECTID":566803},"geometry":{"x":174710.10000000056,"y":2546045.1200000048}},{"attributes":{"ID":566831,"DIS_CODE":0,"TOWNNAME":"永康區","LI":"北灣里","LIN":"37鄰","STREET":"大同街","SECT":" ","MAREA":" ","LANE":" ","ALLEY":" ","HOUSE_NO":"５９８號","E_COORD97":174731.26999999999,"N_COORD97":2546174.8399999999,"ADDRESS":"大同街５９８號","OBJECTID":566804},"geometry":{"x":174731.27000000048,"y":2546174.8400000036}},{"attributes":{"ID":566832,"DIS_CODE":0,"TOWNNAME":"永康區","LI":"崑山里","LIN":"37鄰","STREET":"大仁街","SECT":" ","MAREA":" ","LANE":" ","ALLEY":" ","HOUSE_NO":"１４８號","E_COORD97":173911.64000000001,"N_COORD97":2544961.04,"ADDRESS":"大仁街１４８號","OBJECTID":566805},"geometry":{"x":173911.6400000006,"y":2544961.0399999991}},{"attributes":{"ID":566833,"DIS_CODE":0,"TOWNNAME":"永康區","LI":"埔園里","LIN":"37鄰","STREET":"龍埔街","SECT":" ","MAREA":" ","LANE":" ","ALLEY":" ","HOUSE_NO":"２３１號","E_COORD97":174288.34,"N_COORD97":2548268.5099999998,"ADDRESS":"龍埔街２３１號","OBJECTID":566806},"geometry":{"x":174288.34000000078,"y":2548268.5099999979}},{"attributes":{"ID":566834,"DIS_CODE":0,"TOWNNAME":"永康區","LI":"龍潭里","LIN":"23鄰","STREET":"龍中街","SECT":" ","MAREA":" ","LANE":" ","ALLEY":" ","HOUSE_NO":"２００號","E_COORD97":174400.32000000001,"N_COORD97":2548431.8100000001,"ADDRESS":"龍中街２００號","OBJECTID":566807},"geometry":{"x":174400.3200000003,"y":2548431.8100000024}},{"attributes":{"ID":566835,"DIS_CODE":0,"TOWNNAME":"永康區","LI":"龍潭里","LIN":"32鄰","STREET":"龍中街","SECT":" ","MAREA":" ","LANE":" ","ALLEY":" ","HOUSE_NO":"７６號之２","E_COORD97":174447.07000000001,"N_COORD97":2548032.3399999999,"ADDRESS":"龍中街７６號之２","OBJECTID":566808},"geometry":{"x":174447.07000000123,"y":2548032.339999998}},{"attributes":{"ID":566836,"DIS_CODE":0,"TOWNNAME":"永康區","LI":"新樹里","LIN":"7鄰","STREET":"富強路","SECT":"二段","MAREA":" ","LANE":" ","ALLEY":" ","HOUSE_NO":"４２號之１","E_COORD97":175705.98999999999,"N_COORD97":2546899.3500000001,"ADDRESS":"富強路二段４２號之１","OBJECTID":566809},"geometry":{"x":175705.99000000022,"y":2546899.3499999996}},{"attributes":{"ID":566837,"DIS_CODE":0,"TOWNNAME":"永康區","LI":"龍潭里","LIN":"15鄰","STREET":"龍潭街","SECT":" ","MAREA":" ","LANE":" ","ALLEY":" ","HOUSE_NO":"２２４號","E_COORD97":174912.26000000001,"N_COORD97":2548293.2200000002,"ADDRESS":"龍潭街２２４號","OBJECTID":566810},"geometry":{"x":174912.25999999885,"y":2548293.2200000025}},{"attributes":{"ID":566838,"DIS_CODE":0,"TOWNNAME":"永康區","LI":"網寮里","LIN":"6鄰","STREET":"永二街","SECT":" ","MAREA":" ","LANE":" ","ALLEY":" ","HOUSE_NO":"２４２號","E_COORD97":173253.22,"N_COORD97":2546299.0899999999,"ADDRESS":"永二街２４２號","OBJECTID":566811},"geometry":{"x":173253.22000000067,"y":2546299.0900000017}},{"attributes":{"ID":566839,"DIS_CODE":0,"TOWNNAME":"永康區","LI":"網寮里","LIN":"19鄰","STREET":"文化路","SECT":" ","MAREA":" ","LANE":" ","ALLEY":" ","HOUSE_NO":"３１８號","E_COORD97":173421.89000000001,"N_COORD97":2546174.9300000002,"ADDRESS":"文化路３１８號","OBJECTID":566812},"geometry":{"x":173421.8900000006,"y":2546174.9300000016}},{"attributes":{"ID":566840,"DIS_CODE":0,"TOWNNAME":"永康區","LI":"網寮里","LIN":"21鄰","STREET":"文化路","SECT":" ","MAREA":" ","LANE":" ","ALLEY":" ","HOUSE_NO":"２９１號","E_COORD97":173491.04999999999,"N_COORD97":2546112.8399999999,"ADDRESS":"文化路２９１號","OBJECTID":566813},"geometry":{"x":173491.04999999981,"y":2546112.8399999999}},{"attributes":{"ID":566841,"DIS_CODE":0,"TOWNNAME":"永康區","LI":"崑山里","LIN":"37鄰","STREET":"國光五街","SECT":" ","MAREA":" ","LANE":" ","ALLEY":" ","HOUSE_NO":"６７號","E_COORD97":173994.73999999999,"N_COORD97":2545121.7799999998,"ADDRESS":"國光五街６７號","OBJECTID":566814},"geometry":{"x":173994.74000000115,"y":2545121.7800000012}},{"attributes":{"ID":566842,"DIS_CODE":0,"TOWNNAME":"永康區","LI":"崑山里","LIN":"37鄰","STREET":"大仁街","SECT":" ","MAREA":" ","LANE":" ","ALLEY":" ","HOUSE_NO":"１９０號","E_COORD97":173942.57000000001,"N_COORD97":2545051.3700000001,"ADDRESS":"大仁街１９０號","OBJECTID":566815},"geometry":{"x":173942.5700000003,"y":2545051.3700000029}},{"attributes":{"ID":566843,"DIS_CODE":0,"TOWNNAME":"永康區","LI":"北灣里","LIN":"37鄰","STREET":"大同街","SECT":" ","MAREA":" ","LANE":" ","ALLEY":" ","HOUSE_NO":"３９１號","E_COORD97":174693.73000000001,"N_COORD97":2546210.7999999998,"ADDRESS":"大同街３９１號","OBJECTID":566816},"geometry":{"x":174693.73000000138,"y":2546210.8000000026}},{"attributes":{"ID":566844,"DIS_CODE":0,"TOWNNAME":"永康區","LI":"北灣里","LIN":"37鄰","STREET":"大同街","SECT":" ","MAREA":" ","LANE":" ","ALLEY":" ","HOUSE_NO":"３９３號","E_COORD97":174692.01000000001,"N_COORD97":2546214.8399999999,"ADDRESS":"大同街３９３號","OBJECTID":566817},"geometry":{"x":174692.01000000164,"y":2546214.8399999999}},{"attributes":{"ID":566845,"DIS_CODE":0,"TOWNNAME":"永康區","LI":"北灣里","LIN":"37鄰","STREET":"大同街","SECT":" ","MAREA":" ","LANE":" ","ALLEY":" ","HOUSE_NO":"６１６號","E_COORD97":174719.73999999999,"N_COORD97":2546218.48,"ADDRESS":"大同街６１６號","OBJECTID":566818},"geometry":{"x":174719.74000000209,"y":2546218.4800000042}},{"attributes":{"ID":566846,"DIS_CODE":0,"TOWNNAME":"永康區","LI":"北灣里","LIN":"37鄰","STREET":"大同街","SECT":" ","MAREA":" ","LANE":" ","ALLEY":" ","HOUSE_NO":"６１８號","E_COORD97":174716.81,"N_COORD97":2546221.8399999999,"ADDRESS":"大同街６１８號","OBJECTID":566819},"geometry":{"x":174716.80999999866,"y":2546221.8399999999}},{"attributes":{"ID":566847,"DIS_CODE":0,"TOWNNAME":"永康區","LI":"北灣里","LIN":"37鄰","STREET":"大同街","SECT":" ","MAREA":" ","LANE":" ","ALLEY":" ","HOUSE_NO":"６２０號","E_COORD97":174714.91,"N_COORD97":2546226.0600000001,"ADDRESS":"大同街６２０號","OBJECTID":566820},"geometry":{"x":174714.91000000015,"y":2546226.0600000024}},{"attributes":{"ID":566848,"DIS_CODE":0,"TOWNNAME":"永康區","LI":"北灣里","LIN":"37鄰","STREET":"大同街","SECT":" ","MAREA":" ","LANE":" ","ALLEY":" ","HOUSE_NO":"６２２號","E_COORD97":174712.92999999999,"N_COORD97":2546230.6299999999,"ADDRESS":"大同街６２２號","OBJECTID":566821},"geometry":{"x":174712.93000000156,"y":2546230.6300000008}},{"attributes":{"ID":566849,"DIS_CODE":0,"TOWNNAME":"永康區","LI":"北灣里","LIN":"37鄰","STREET":"大同街","SECT":" ","MAREA":" ","LANE":" ","ALLEY":" ","HOUSE_NO":"６２６號","E_COORD97":174711.03,"N_COORD97":2546233.6499999999,"ADDRESS":"大同街６２６號","OBJECTID":566822},"geometry":{"x":174711.03000000212,"y":2546233.6500000004}},{"attributes":{"ID":566850,"DIS_CODE":0,"TOWNNAME":"永康區","LI":"北灣里","LIN":"37鄰","STREET":"大同街","SECT":" ","MAREA":" ","LANE":" ","ALLEY":" ","HOUSE_NO":"６２８號","E_COORD97":174709.92999999999,"N_COORD97":2546238.71,"ADDRESS":"大同街６２８號","OBJECTID":566823},"geometry":{"x":174709.93000000063,"y":2546238.7100000028}},{"attributes":{"ID":566851,"DIS_CODE":0,"TOWNNAME":"永康區","LI":"崑山里","LIN":"37鄰","STREET":"國光五街","SECT":" ","MAREA":" ","LANE":" ","ALLEY":" ","HOUSE_NO":"６５號","E_COORD97":173998.64000000001,"N_COORD97":2545120.77,"ADDRESS":"國光五街６５號","OBJECTID":566824},"geometry":{"x":173998.63999999966,"y":2545120.7700000014}},{"attributes":{"ID":566852,"DIS_CODE":0,"TOWNNAME":"永康區","LI":"崑山里","LIN":"37鄰","STREET":"大仁街","SECT":" ","MAREA":" ","LANE":" ","ALLEY":" ","HOUSE_NO":"２１６號","E_COORD97":173963.73000000001,"N_COORD97":2545112.1200000001,"ADDRESS":"大仁街２１６號","OBJECTID":566825},"geometry":{"x":173963.73000000045,"y":2545112.120000001}},{"attributes":{"ID":566853,"DIS_CODE":0,"TOWNNAME":"永康區","LI":"崑山里","LIN":"37鄰","STREET":"國光五街","SECT":" ","MAREA":" ","LANE":" ","ALLEY":" ","HOUSE_NO":"７１號","E_COORD97":173986.53,"N_COORD97":2545124.29,"ADDRESS":"國光五街７１號","OBJECTID":566826},"geometry":{"x":173986.53000000026,"y":2545124.290000001}},{"attributes":{"ID":566854,"DIS_CODE":0,"TOWNNAME":"永康區","LI":"埔園里","LIN":"37鄰","STREET":"龍中街","SECT":" ","MAREA":" ","LANE":" ","ALLEY":" ","HOUSE_NO":"４３３號","E_COORD97":174397.73999999999,"N_COORD97":2548138.3799999999,"ADDRESS":"龍中街４３３號","OBJECTID":566827},"geometry":{"x":174397.74000000209,"y":2548138.379999999}},{"attributes":{"ID":566855,"DIS_CODE":0,"TOWNNAME":"永康區","LI":"埔園里","LIN":"37鄰","STREET":"龍埔街","SECT":" ","MAREA":" ","LANE":" ","ALLEY":" ","HOUSE_NO":"２２９號","E_COORD97":174295.47,"N_COORD97":2548273.1200000001,"ADDRESS":"龍埔街２２９號","OBJECTID":566828},"geometry":{"x":174295.46999999881,"y":2548273.1200000029}},{"attributes":{"ID":566856,"DIS_CODE":0,"TOWNNAME":"永康區","LI":"崑山里","LIN":"37鄰","STREET":"大仁街","SECT":" ","MAREA":" ","LANE":" ","ALLEY":" ","HOUSE_NO":"２１８號","E_COORD97":173965.26999999999,"N_COORD97":2545116.6200000001,"ADDRESS":"大仁街２１８號","OBJECTID":566829},"geometry":{"x":173965.27000000048,"y":2545116.6200000029}},{"attributes":{"ID":566857,"DIS_CODE":0,"TOWNNAME":"永康區","LI":"崑山里","LIN":"37鄰","STREET":"大仁街","SECT":" ","MAREA":" ","LANE":" ","ALLEY":" ","HOUSE_NO":"２００號","E_COORD97":173950.38,"N_COORD97":2545074.1299999999,"ADDRESS":"大仁街２００號","OBJECTID":566830},"geometry":{"x":173950.37999999989,"y":2545074.1300000008}},{"attributes":{"ID":566858,"DIS_CODE":0,"TOWNNAME":"永康區","LI":"崑山里","LIN":"37鄰","STREET":"大仁街","SECT":" ","MAREA":" ","LANE":" ","ALLEY":" ","HOUSE_NO":"２１２號","E_COORD97":173961.82999999999,"N_COORD97":2545107.3700000001,"ADDRESS":"大仁街２１２號","OBJECTID":566831},"geometry":{"x":173961.83000000101,"y":2545107.370000001}},{"attributes":{"ID":566859,"DIS_CODE":0,"TOWNNAME":"永康區","LI":"埔園里","LIN":"37鄰","STREET":"龍埔街","SECT":" ","MAREA":" ","LANE":" ","ALLEY":" ","HOUSE_NO":"２１９號","E_COORD97":174315.88,"N_COORD97":2548243.9500000002,"ADDRESS":"龍埔街２１９號","OBJECTID":566832},"geometry":{"x":174315.87999999989,"y":2548243.9499999993}},{"attributes":{"ID":566860,"DIS_CODE":0,"TOWNNAME":"永康區","LI":"崑山里","LIN":"37鄰","STREET":"國光五街","SECT":" ","MAREA":" ","LANE":" ","ALLEY":" ","HOUSE_NO":"６９號","E_COORD97":173990.88,"N_COORD97":2545122.79,"ADDRESS":"國光五街６９號","OBJECTID":566833},"geometry":{"x":173990.87999999989,"y":2545122.7899999991}},{"attributes":{"ID":566861,"DIS_CODE":0,"TOWNNAME":"永康區","LI":"崑山里","LIN":"37鄰","STREET":"大仁街","SECT":" ","MAREA":" ","LANE":" ","ALLEY":" ","HOUSE_NO":"２２０號","E_COORD97":173971.47,"N_COORD97":2545125.6099999999,"ADDRESS":"大仁街２２０號","OBJECTID":566834},"geometry":{"x":173971.46999999974,"y":2545125.6100000013}},{"attributes":{"ID":566862,"DIS_CODE":0,"TOWNNAME":"永康區","LI":"崑山里","LIN":"37鄰","STREET":"大仁街","SECT":" ","MAREA":" ","LANE":" ","ALLEY":" ","HOUSE_NO":"２０２之１號","E_COORD97":173956.32999999999,"N_COORD97":2545083.4300000002,"ADDRESS":"大仁街２０２之１號","OBJECTID":566835},"geometry":{"x":173956.33000000101,"y":2545083.4300000016}},{"attributes":{"ID":566863,"DIS_CODE":0,"TOWNNAME":"永康區","LI":"龍潭里","LIN":"38鄰","STREET":"國民路","SECT":" ","MAREA":" ","LANE":" ","ALLEY":" ","HOUSE_NO":"８５號","E_COORD97":174357.73999999999,"N_COORD97":2547316.79,"ADDRESS":"國民路８５號","OBJECTID":566836},"geometry":{"x":174357.74000000115,"y":2547316.7900000028}},{"attributes":{"ID":566864,"DIS_CODE":0,"TOWNNAME":"仁德區","LI":"太子里","LIN":"37鄰","STREET":"長興一街","SECT":" ","MAREA":" ","LANE":" ","ALLEY":" ","HOUSE_NO":"６６號","E_COORD97":174496.20000000001,"N_COORD97":2543824.7599999998,"ADDRESS":"長興一街６６號","OBJECTID":566837},"geometry":{"x":174496.20000000205,"y":2543824.7599999998}},{"attributes":{"ID":566865,"DIS_CODE":0,"TOWNNAME":"永康區","LI":"\u25A0行里","LIN":"37鄰","STREET":"仁愛街","SECT":" ","MAREA":" ","LANE":" ","ALLEY":" ","HOUSE_NO":"７２號","E_COORD97":172034.78,"N_COORD97":2549393.9700000002,"ADDRESS":"仁愛街７２號","OBJECTID":566838},"geometry":{"x":172034.78000000119,"y":2549393.9700000007}},{"attributes":{"ID":566866,"DIS_CODE":0,"TOWNNAME":"永康區","LI":"\u25A0行里","LIN":"37鄰","STREET":"仁愛街","SECT":" ","MAREA":" ","LANE":" ","ALLEY":" ","HOUSE_NO":"７０號","E_COORD97":172037.38,"N_COORD97":2549386.54,"ADDRESS":"仁愛街７０號","OBJECTID":566839},"geometry":{"x":172037.38000000082,"y":2549386.5400000028}},{"attributes":{"ID":566867,"DIS_CODE":0,"TOWNNAME":"永康區","LI":"\u25A0行里","LIN":"37鄰","STREET":"仁愛街","SECT":" ","MAREA":" ","LANE":" ","ALLEY":" ","HOUSE_NO":"６８號","E_COORD97":172027.42999999999,"N_COORD97":2549380.25,"ADDRESS":"仁愛街６８號","OBJECTID":566840},"geometry":{"x":172027.4299999997,"y":2549380.2500000019}},{"attributes":{"ID":566868,"DIS_CODE":0,"TOWNNAME":"永康區","LI":"\u25A0行里","LIN":"36鄰","STREET":"三村一街","SECT":" ","MAREA":" ","LANE":" ","ALLEY":" ","HOUSE_NO":"３６號","E_COORD97":172243.01000000001,"N_COORD97":2549257.73,"ADDRESS":"三村一街３６號","OBJECTID":566841},"geometry":{"x":172243.01000000071,"y":2549257.7299999986}},{"attributes":{"ID":566869,"DIS_CODE":0,"TOWNNAME":"永康區","LI":"龍潭里","LIN":"7鄰","STREET":"龍埔街","SECT":" ","MAREA":" ","LANE":" ","ALLEY":" ","HOUSE_NO":"４０號","E_COORD97":174766.82000000001,"N_COORD97":2548216.48,"ADDRESS":"龍埔街４０號","OBJECTID":566842},"geometry":{"x":174766.82000000216,"y":2548216.4800000023}},{"attributes":{"ID":566870,"DIS_CODE":0,"TOWNNAME":"永康區","LI":"\u25A0行里","LIN":"9鄰","STREET":"中正路","SECT":" ","MAREA":" ","LANE":" ","ALLEY":" ","HOUSE_NO":"４０３號之４","E_COORD97":172348.63,"N_COORD97":2548391.6800000002,"ADDRESS":"中正路４０３號之４","OBJECTID":566843},"geometry":{"x":172348.63000000175,"y":2548391.6799999997}},{"attributes":{"ID":566871,"DIS_CODE":0,"TOWNNAME":"歸仁區","LI":"南興里","LIN":"37鄰","STREET":"民生北街","SECT":" ","MAREA":" ","LANE":" ","ALLEY":" ","HOUSE_NO":"４５號","E_COORD97":176254.10999999999,"N_COORD97":2541081.25,"ADDRESS":"民生北街４５號","OBJECTID":566844},"geometry":{"x":176254.11000000034,"y":2541081.2500000019}},{"attributes":{"ID":566872,"DIS_CODE":0,"TOWNNAME":"歸仁區","LI":"許厝里","LIN":"37鄰","STREET":"信義南路","SECT":" ","MAREA":" ","LANE":" ","ALLEY":" ","HOUSE_NO":"３８號","E_COORD97":178040.29000000001,"N_COORD97":2540613.29,"ADDRESS":"信義南路３８號","OBJECTID":566845},"geometry":{"x":178040.29000000097,"y":2540613.2899999991}},{"attributes":{"ID":566873,"DIS_CODE":0,"TOWNNAME":"歸仁區","LI":"許厝里","LIN":"37鄰","STREET":"信義南路","SECT":" ","MAREA":" ","LANE":" ","ALLEY":" ","HOUSE_NO":"４０號","E_COORD97":178043.39000000001,"N_COORD97":2540609.29,"ADDRESS":"信義南路４０號","OBJECTID":566846},"geometry":{"x":178043.38999999966,"y":2540609.2899999991}},{"attributes":{"ID":566874,"DIS_CODE":0,"TOWNNAME":"歸仁區","LI":"許厝里","LIN":"37鄰","STREET":"復興路","SECT":" ","MAREA":" ","LANE":" ","ALLEY":" ","HOUSE_NO":"３號","E_COORD97":178002.98000000001,"N_COORD97":2540630.29,"ADDRESS":"復興路３號","OBJECTID":566847},"geometry":{"x":178002.98000000045,"y":2540630.2899999991}},{"attributes":{"ID":566875,"DIS_CODE":0,"TOWNNAME":"安平區","LI":"育平里","LIN":"37鄰","STREET":"府平路","SECT":" ","MAREA":" ","LANE":" ","ALLEY":" ","HOUSE_NO":"４２０號","E_COORD97":164510.70000000001,"N_COORD97":2543117.8399999999,"ADDRESS":"府平路４２０號","OBJECTID":566848},"geometry":{"x":164510.70000000019,"y":2543117.8400000017}},{"attributes":{"ID":566876,"DIS_CODE":0,"TOWNNAME":"安平區","LI":"育平里","LIN":"37鄰","STREET":"府平路","SECT":" ","MAREA":" ","LANE":" ","ALLEY":" ","HOUSE_NO":"４２２號","E_COORD97":164506.26000000001,"N_COORD97":2543118.7999999998,"ADDRESS":"府平路４２２號","OBJECTID":566849},"geometry":{"x":164506.26000000071,"y":2543118.8000000026}},{"attributes":{"ID":566877,"DIS_CODE":0,"TOWNNAME":"安平區","LI":"育平里","LIN":"37鄰","STREET":"育平路","SECT":" ","MAREA":" ","LANE":" ","ALLEY":" ","HOUSE_NO":"８７號","E_COORD97":164532.23000000001,"N_COORD97":2543119.1899999999,"ADDRESS":"育平路８７號","OBJECTID":566850},"geometry":{"x":164532.23000000138,"y":2543119.1899999995}},{"attributes":{"ID":566878,"DIS_CODE":0,"TOWNNAME":"安平區","LI":"育平里","LIN":"37鄰","STREET":"育平路","SECT":" ","MAREA":" ","LANE":" ","ALLEY":" ","HOUSE_NO":"８９號","E_COORD97":164533.10999999999,"N_COORD97":2543124.52,"ADDRESS":"育平路８９號","OBJECTID":566851},"geometry":{"x":164533.11000000127,"y":2543124.5199999996}},{"attributes":{"ID":566879,"DIS_CODE":0,"TOWNNAME":"安平區","LI":"育平里","LIN":"37鄰","STREET":"育平路","SECT":" ","MAREA":" ","LANE":" ","ALLEY":" ","HOUSE_NO":"９１號","E_COORD97":164533.70999999999,"N_COORD97":2543129.5499999998,"ADDRESS":"育平路９１號","OBJECTID":566852},"geometry":{"x":164533.71000000089,"y":2543129.5500000045}},{"attributes":{"ID":566880,"DIS_CODE":0,"TOWNNAME":"安平區","LI":"育平里","LIN":"37鄰","STREET":"育平路","SECT":" ","MAREA":" ","LANE":" ","ALLEY":" ","HOUSE_NO":"９３號","E_COORD97":164534.73999999999,"N_COORD97":2543133.6899999999,"ADDRESS":"育平路９３號","OBJECTID":566853},"geometry":{"x":164534.74000000022,"y":2543133.6899999995}},{"attributes":{"ID":566881,"DIS_CODE":0,"TOWNNAME":"安平區","LI":"育平里","LIN":"37鄰","STREET":"育平路","SECT":" ","MAREA":" ","LANE":" ","ALLEY":" ","HOUSE_NO":"９５號","E_COORD97":164535.48000000001,"N_COORD97":2543138.7200000002,"ADDRESS":"育平路９５號","OBJECTID":566854},"geometry":{"x":164535.48000000231,"y":2543138.7200000044}},{"attributes":{"ID":566882,"DIS_CODE":0,"TOWNNAME":"安平區","LI":"育平里","LIN":"37鄰","STREET":"育平路","SECT":" ","MAREA":" ","LANE":" ","ALLEY":" ","HOUSE_NO":"９７號","E_COORD97":164536.22,"N_COORD97":2543142.8599999999,"ADDRESS":"育平路９７號","OBJECTID":566855},"geometry":{"x":164536.21999999974,"y":2543142.8599999975}},{"attributes":{"ID":566883,"DIS_CODE":0,"TOWNNAME":"安平區","LI":"育平里","LIN":"37鄰","STREET":"育平路","SECT":" ","MAREA":" ","LANE":" ","ALLEY":" ","HOUSE_NO":"９９號","E_COORD97":164536.81,"N_COORD97":2543146.8599999999,"ADDRESS":"育平路９９號","OBJECTID":566856},"geometry":{"x":164536.80999999959,"y":2543146.8600000013}},{"attributes":{"ID":566884,"DIS_CODE":0,"TOWNNAME":"安平區","LI":"育平里","LIN":"37鄰","STREET":"育平路","SECT":" ","MAREA":" ","LANE":" ","ALLEY":" ","HOUSE_NO":"１０１號","E_COORD97":164537.47,"N_COORD97":2543152.5299999998,"ADDRESS":"育平路１０１號","OBJECTID":566857},"geometry":{"x":164537.46999999974,"y":2543152.5300000012}},{"attributes":{"ID":566885,"DIS_CODE":0,"TOWNNAME":"安平區","LI":"育平里","LIN":"37鄰","STREET":"育平路","SECT":" ","MAREA":" ","LANE":" ","ALLEY":" ","HOUSE_NO":"１０３號","E_COORD97":164539.20999999999,"N_COORD97":2543158.25,"ADDRESS":"育平路１０３號","OBJECTID":566858},"geometry":{"x":164539.21000000089,"y":2543158.2500000037}},{"attributes":{"ID":566886,"DIS_CODE":0,"TOWNNAME":"安平區","LI":"育平里","LIN":"37鄰","STREET":"育平三街","SECT":" ","MAREA":" ","LANE":" ","ALLEY":" ","HOUSE_NO":"９號","E_COORD97":164519.26999999999,"N_COORD97":2543161.5600000001,"ADDRESS":"育平三街９號","OBJECTID":566859},"geometry":{"x":164519.27000000048,"y":2543161.5600000005}},{"attributes":{"ID":566887,"DIS_CODE":0,"TOWNNAME":"安平區","LI":"育平里","LIN":"37鄰","STREET":"育平三街","SECT":" ","MAREA":" ","LANE":" ","ALLEY":" ","HOUSE_NO":"１１號","E_COORD97":164513.56,"N_COORD97":2543163.6200000001,"ADDRESS":"育平三街１１號","OBJECTID":566860},"geometry":{"x":164513.56000000145,"y":2543163.6200000048}},{"attributes":{"ID":566888,"DIS_CODE":0,"TOWNNAME":"安平區","LI":"育平里","LIN":"37鄰","STREET":"育平三街","SECT":" ","MAREA":" ","LANE":" ","ALLEY":" ","HOUSE_NO":"３９號","E_COORD97":164454.26999999999,"N_COORD97":2543173.4900000002,"ADDRESS":"育平三街３９號","OBJECTID":566861},"geometry":{"x":164454.26999999955,"y":2543173.4900000039}},{"attributes":{"ID":566889,"DIS_CODE":0,"TOWNNAME":"歸仁區","LI":"後市里","LIN":"37鄰","STREET":"民族一街","SECT":" ","MAREA":" ","LANE":" ","ALLEY":" ","HOUSE_NO":"６６號","E_COORD97":177279.82999999999,"N_COORD97":2541027.75,"ADDRESS":"民族一街６６號","OBJECTID":566862},"geometry":{"x":177279.83000000007,"y":2541027.75}},{"attributes":{"ID":566890,"DIS_CODE":0,"TOWNNAME":"歸仁區","LI":"後市里","LIN":"37鄰","STREET":"民族一街","SECT":" ","MAREA":" ","LANE":" ","ALLEY":" ","HOUSE_NO":"４８號","E_COORD97":177317.73000000001,"N_COORD97":2541026.75,"ADDRESS":"民族一街４８號","OBJECTID":566863},"geometry":{"x":177317.73000000138,"y":2541026.7500000019}},{"attributes":{"ID":566891,"DIS_CODE":0,"TOWNNAME":"永康區","LI":"\u25A0洲里","LIN":"23鄰","STREET":"中正南路","SECT":" ","MAREA":" ","LANE":" ","ALLEY":" ","HOUSE_NO":"５８１號","E_COORD97":171211.82000000001,"N_COORD97":2548512.3100000001,"ADDRESS":"中正南路５８１號","OBJECTID":566864},"geometry":{"x":171211.81999999937,"y":2548512.3100000024}},{"attributes":{"ID":566892,"DIS_CODE":0,"TOWNNAME":"歸仁區","LI":"許厝里","LIN":"37鄰","STREET":"信義南路","SECT":" ","MAREA":" ","LANE":" ","ALLEY":" ","HOUSE_NO":"３６號","E_COORD97":178038.29000000001,"N_COORD97":2540616.29,"ADDRESS":"信義南路３６號","OBJECTID":566865},"geometry":{"x":178038.28999999911,"y":2540616.2899999991}},{"attributes":{"ID":566893,"DIS_CODE":0,"TOWNNAME":"永康區","LI":"蔦松里","LIN":"1鄰","STREET":"蔦松二街","SECT":" ","MAREA":" ","LANE":" ","ALLEY":" ","HOUSE_NO":"５７號","E_COORD97":173685.17999999999,"N_COORD97":2549256.9900000002,"ADDRESS":"蔦松二街５７號","OBJECTID":566866},"geometry":{"x":173685.1799999997,"y":2549256.9900000021}},{"attributes":{"ID":566894,"DIS_CODE":0,"TOWNNAME":"歸仁區","LI":"南興里","LIN":"37鄰","STREET":"民生北街","SECT":" ","MAREA":" ","LANE":" ","ALLEY":" ","HOUSE_NO":"８１號","E_COORD97":176268.59,"N_COORD97":2541173.2799999998,"ADDRESS":"民生北街８１號","OBJECTID":566867},"geometry":{"x":176268.59000000078,"y":2541173.2799999993}},{"attributes":{"ID":566895,"DIS_CODE":0,"TOWNNAME":"歸仁區","LI":"南興里","LIN":"37鄰","STREET":"文化街","SECT":"三段","MAREA":" ","LANE":" ","ALLEY":" ","HOUSE_NO":"２７１號","E_COORD97":176265.04000000001,"N_COORD97":2541188.3300000001,"ADDRESS":"文化街三段２７１號","OBJECTID":566868},"geometry":{"x":176265.04000000004,"y":2541188.3300000019}},{"attributes":{"ID":566896,"DIS_CODE":0,"TOWNNAME":"歸仁區","LI":"許厝里","LIN":"37鄰","STREET":"信義南路","SECT":" ","MAREA":" ","LANE":" ","ALLEY":" ","HOUSE_NO":"６６號","E_COORD97":178069.79000000001,"N_COORD97":2540569.29,"ADDRESS":"信義南路６６號","OBJECTID":566869},"geometry":{"x":178069.79000000004,"y":2540569.2899999991}},{"attributes":{"ID":566897,"DIS_CODE":0,"TOWNNAME":"歸仁區","LI":"南興里","LIN":"37鄰","STREET":"民生北街","SECT":" ","MAREA":" ","LANE":" ","ALLEY":" ","HOUSE_NO":"８３號","E_COORD97":176268.59,"N_COORD97":2541177.29,"ADDRESS":"民生北街８３號","OBJECTID":566870},"geometry":{"x":176268.59000000078,"y":2541177.290000001}},{"attributes":{"ID":566898,"DIS_CODE":0,"TOWNNAME":"玉井區","LI":"玉田里","LIN":"37鄰","STREET":"大智街","SECT":" ","MAREA":" ","LANE":" ","ALLEY":" ","HOUSE_NO":"８號","E_COORD97":195182.66,"N_COORD97":2558060.2400000002,"ADDRESS":"大智街８號","OBJECTID":566871},"geometry":{"x":195182.66000000015,"y":2558060.2400000021}},{"attributes":{"ID":566899,"DIS_CODE":0,"TOWNNAME":"玉井區","LI":"玉田里","LIN":"37鄰","STREET":"大智街","SECT":" ","MAREA":" ","LANE":" ","ALLEY":" ","HOUSE_NO":"５６號","E_COORD97":195182.41,"N_COORD97":2557945.25,"ADDRESS":"大智街５６號","OBJECTID":566872},"geometry":{"x":195182.41000000015,"y":2557945.25}},{"attributes":{"ID":566900,"DIS_CODE":0,"TOWNNAME":"玉井區","LI":"玉田里","LIN":"37鄰","STREET":"大智街","SECT":" ","MAREA":" ","LANE":" ","ALLEY":" ","HOUSE_NO":"９２號","E_COORD97":195241.32000000001,"N_COORD97":2557856.2400000002,"ADDRESS":"大智街９２號","OBJECTID":566873},"geometry":{"x":195241.32000000216,"y":2557856.2400000021}},{"attributes":{"ID":566901,"DIS_CODE":0,"TOWNNAME":"玉井區","LI":"玉田里","LIN":"37鄰","STREET":"大智街","SECT":" ","MAREA":" ","LANE":" ","ALLEY":" ","HOUSE_NO":"８０號","E_COORD97":195185.17000000001,"N_COORD97":2557932.9700000002,"ADDRESS":"大智街８０號","OBJECTID":566874},"geometry":{"x":195185.16999999993,"y":2557932.9700000025}},{"attributes":{"ID":566902,"DIS_CODE":0,"TOWNNAME":"玉井區","LI":"玉田里","LIN":"37鄰","STREET":"大智街","SECT":" ","MAREA":" ","LANE":" ","ALLEY":" ","HOUSE_NO":"８２號","E_COORD97":195185.92000000001,"N_COORD97":2557930.25,"ADDRESS":"大智街８２號","OBJECTID":566875},"geometry":{"x":195185.92000000179,"y":2557930.2500000019}},{"attributes":{"ID":566903,"DIS_CODE":0,"TOWNNAME":"玉井區","LI":"玉田里","LIN":"37鄰","STREET":"民生路","SECT":" ","MAREA":" ","LANE":" ","ALLEY":" ","HOUSE_NO":"３３５號","E_COORD97":195154.29000000001,"N_COORD97":2558062.2799999998,"ADDRESS":"民生路３３５號","OBJECTID":566876},"geometry":{"x":195154.29000000004,"y":2558062.2800000012}},{"attributes":{"ID":566904,"DIS_CODE":0,"TOWNNAME":"玉井區","LI":"玉田里","LIN":"37鄰","STREET":"大智街","SECT":" ","MAREA":" ","LANE":" ","ALLEY":" ","HOUSE_NO":"９８號","E_COORD97":195248.01000000001,"N_COORD97":2557855.2400000002,"ADDRESS":"大智街９８號","OBJECTID":566877},"geometry":{"x":195248.01000000164,"y":2557855.2400000002}},{"attributes":{"ID":566905,"DIS_CODE":0,"TOWNNAME":"玉井區","LI":"玉田里","LIN":"37鄰","STREET":"大智街","SECT":" ","MAREA":" ","LANE":" ","ALLEY":" ","HOUSE_NO":"２２號","E_COORD97":195179.82000000001,"N_COORD97":2558033.25,"ADDRESS":"大智街２２號","OBJECTID":566878},"geometry":{"x":195179.8200000003,"y":2558033.2500000019}},{"attributes":{"ID":566906,"DIS_CODE":0,"TOWNNAME":"玉井區","LI":"玉田里","LIN":"37鄰","STREET":"大智街","SECT":" ","MAREA":" ","LANE":" ","ALLEY":" ","HOUSE_NO":"９０號","E_COORD97":195188.32000000001,"N_COORD97":2557918.25,"ADDRESS":"大智街９０號","OBJECTID":566879},"geometry":{"x":195188.3200000003,"y":2557918.25}},{"attributes":{"ID":566907,"DIS_CODE":0,"TOWNNAME":"玉井區","LI":"玉田里","LIN":"37鄰","STREET":"大智街","SECT":" ","MAREA":" ","LANE":" ","ALLEY":" ","HOUSE_NO":"１８號","E_COORD97":195181.62,"N_COORD97":2558041.25,"ADDRESS":"大智街１８號","OBJECTID":566880},"geometry":{"x":195181.62000000104,"y":2558041.25}},{"attributes":{"ID":566908,"DIS_CODE":0,"TOWNNAME":"玉井區","LI":"玉田里","LIN":"37鄰","STREET":"大智街","SECT":" ","MAREA":" ","LANE":" ","ALLEY":" ","HOUSE_NO":"４０號","E_COORD97":195177.62,"N_COORD97":2557992.2400000002,"ADDRESS":"大智街４０號","OBJECTID":566881},"geometry":{"x":195177.62000000011,"y":2557992.2400000021}},{"attributes":{"ID":566909,"DIS_CODE":0,"TOWNNAME":"玉井區","LI":"玉田里","LIN":"37鄰","STREET":"大智街","SECT":" ","MAREA":" ","LANE":" ","ALLEY":" ","HOUSE_NO":"２８號","E_COORD97":195179.42000000001,"N_COORD97":2558021.25,"ADDRESS":"大智街２８號","OBJECTID":566882},"geometry":{"x":195179.42000000086,"y":2558021.2499999981}},{"attributes":{"ID":566910,"DIS_CODE":0,"TOWNNAME":"玉井區","LI":"玉田里","LIN":"37鄰","STREET":"大智街","SECT":" ","MAREA":" ","LANE":" ","ALLEY":" ","HOUSE_NO":"１００號","E_COORD97":195253.95999999999,"N_COORD97":2557854.2400000002,"ADDRESS":"大智街１００號","OBJECTID":566883},"geometry":{"x":195253.96000000089,"y":2557854.2400000002}},{"attributes":{"ID":566911,"DIS_CODE":0,"TOWNNAME":"玉井區","LI":"玉田里","LIN":"37鄰","STREET":"大智街","SECT":" ","MAREA":" ","LANE":" ","ALLEY":" ","HOUSE_NO":"４２號","E_COORD97":195177.62,"N_COORD97":2557987.2400000002,"ADDRESS":"大智街４２號","OBJECTID":566884},"geometry":{"x":195177.62000000011,"y":2557987.2400000002}},{"attributes":{"ID":566912,"DIS_CODE":0,"TOWNNAME":"玉井區","LI":"玉田里","LIN":"37鄰","STREET":"大智街","SECT":" ","MAREA":" ","LANE":" ","ALLEY":" ","HOUSE_NO":"１０號","E_COORD97":195183.70999999999,"N_COORD97":2558056.25,"ADDRESS":"大智街１０號","OBJECTID":566885},"geometry":{"x":195183.70999999996,"y":2558056.2500000019}},{"attributes":{"ID":566913,"DIS_CODE":0,"TOWNNAME":"玉井區","LI":"玉田里","LIN":"37鄰","STREET":"大智街","SECT":" ","MAREA":" ","LANE":" ","ALLEY":" ","HOUSE_NO":"５０號","E_COORD97":195181.41,"N_COORD97":2557949.25,"ADDRESS":"大智街５０號","OBJECTID":566886},"geometry":{"x":195181.41000000108,"y":2557949.25}},{"attributes":{"ID":566914,"DIS_CODE":0,"TOWNNAME":"玉井區","LI":"玉田里","LIN":"37鄰","STREET":"大智街","SECT":" ","MAREA":" ","LANE":" ","ALLEY":" ","HOUSE_NO":"４６號","E_COORD97":195179.70999999999,"N_COORD97":2557965.2400000002,"ADDRESS":"大智街４６號","OBJECTID":566887},"geometry":{"x":195179.71000000089,"y":2557965.2400000021}},{"attributes":{"ID":566915,"DIS_CODE":0,"TOWNNAME":"玉井區","LI":"玉田里","LIN":"37鄰","STREET":"大智街","SECT":" ","MAREA":" ","LANE":" ","ALLEY":" ","HOUSE_NO":"２０號","E_COORD97":195180.70999999999,"N_COORD97":2558036.25,"ADDRESS":"大智街２０號","OBJECTID":566888},"geometry":{"x":195180.71000000183,"y":2558036.2500000019}},{"attributes":{"ID":566916,"DIS_CODE":0,"TOWNNAME":"玉井區","LI":"玉田里","LIN":"37鄰","STREET":"大智街","SECT":" ","MAREA":" ","LANE":" ","ALLEY":" ","HOUSE_NO":"８８號","E_COORD97":195187.62,"N_COORD97":2557923.25,"ADDRESS":"大智街８８號","OBJECTID":566889},"geometry":{"x":195187.62000000011,"y":2557923.2500000037}},{"attributes":{"ID":566917,"DIS_CODE":0,"TOWNNAME":"玉井區","LI":"玉田里","LIN":"37鄰","STREET":"大智街","SECT":" ","MAREA":" ","LANE":" ","ALLEY":" ","HOUSE_NO":"３０號","E_COORD97":195178.70999999999,"N_COORD97":2558015.25,"ADDRESS":"大智街３０號","OBJECTID":566890},"geometry":{"x":195178.70999999996,"y":2558015.2500000019}},{"attributes":{"ID":566918,"DIS_CODE":0,"TOWNNAME":"玉井區","LI":"玉田里","LIN":"37鄰","STREET":"大智街","SECT":" ","MAREA":" ","LANE":" ","ALLEY":" ","HOUSE_NO":"３８號","E_COORD97":195177.70999999999,"N_COORD97":2558001.2400000002,"ADDRESS":"大智街３８號","OBJECTID":566891},"geometry":{"x":195177.71000000089,"y":2558001.2399999984}},{"attributes":{"ID":566919,"DIS_CODE":0,"TOWNNAME":"玉井區","LI":"玉田里","LIN":"37鄰","STREET":"大智街","SECT":" ","MAREA":" ","LANE":" ","ALLEY":" ","HOUSE_NO":"３６號","E_COORD97":195177.51000000001,"N_COORD97":2558006.25,"ADDRESS":"大智街３６號","OBJECTID":566892},"geometry":{"x":195177.51000000071,"y":2558006.25}},{"attributes":{"ID":566920,"DIS_CODE":0,"TOWNNAME":"玉井區","LI":"玉田里","LIN":"37鄰","STREET":"大智街","SECT":" ","MAREA":" ","LANE":" ","ALLEY":" ","HOUSE_NO":"２６號","E_COORD97":195180.12,"N_COORD97":2558028.25,"ADDRESS":"大智街２６號","OBJECTID":566893},"geometry":{"x":195180.12000000104,"y":2558028.2500000037}},{"attributes":{"ID":566921,"DIS_CODE":0,"TOWNNAME":"玉井區","LI":"玉田里","LIN":"37鄰","STREET":"大智街","SECT":" ","MAREA":" ","LANE":" ","ALLEY":" ","HOUSE_NO":"４８號","E_COORD97":195180.62,"N_COORD97":2557953.2400000002,"ADDRESS":"大智街４８號","OBJECTID":566894},"geometry":{"x":195180.62000000011,"y":2557953.2400000002}},{"attributes":{"ID":566922,"DIS_CODE":0,"TOWNNAME":"玉井區","LI":"玉田里","LIN":"37鄰","STREET":"大智街","SECT":" ","MAREA":" ","LANE":" ","ALLEY":" ","HOUSE_NO":"５８號","E_COORD97":195183.42000000001,"N_COORD97":2557941.25,"ADDRESS":"大智街５８號","OBJECTID":566895},"geometry":{"x":195183.41999999993,"y":2557941.2500000019}},{"attributes":{"ID":566923,"DIS_CODE":0,"TOWNNAME":"玉井區","LI":"玉田里","LIN":"37鄰","STREET":"大智街","SECT":" ","MAREA":" ","LANE":" ","ALLEY":" ","HOUSE_NO":"８６號","E_COORD97":195186.92000000001,"N_COORD97":2557926.25,"ADDRESS":"大智街８６號","OBJECTID":566896},"geometry":{"x":195186.91999999993,"y":2557926.2499999981}},{"attributes":{"ID":566924,"DIS_CODE":0,"TOWNNAME":"玉井區","LI":"玉田里","LIN":"37鄰","STREET":"大智街","SECT":" ","MAREA":" ","LANE":" ","ALLEY":" ","HOUSE_NO":"１２號","E_COORD97":195183.01000000001,"N_COORD97":2558051.25,"ADDRESS":"大智街１２號","OBJECTID":566897},"geometry":{"x":195183.00999999978,"y":2558051.25}},{"attributes":{"ID":566925,"DIS_CODE":0,"TOWNNAME":"玉井區","LI":"玉田里","LIN":"37鄰","STREET":"大智街","SECT":" ","MAREA":" ","LANE":" ","ALLEY":" ","HOUSE_NO":"７６號","E_COORD97":195184.12,"N_COORD97":2557936.25,"ADDRESS":"大智街７６號","OBJECTID":566898},"geometry":{"x":195184.12000000011,"y":2557936.25}},{"attributes":{"ID":566926,"DIS_CODE":0,"TOWNNAME":"玉井區","LI":"玉田里","LIN":"37鄰","STREET":"大智街","SECT":" ","MAREA":" ","LANE":" ","ALLEY":" ","HOUSE_NO":"９６號","E_COORD97":195244.92000000001,"N_COORD97":2557856.2400000002,"ADDRESS":"大智街９６號","OBJECTID":566899},"geometry":{"x":195244.91999999993,"y":2557856.2400000021}},{"attributes":{"ID":566927,"DIS_CODE":0,"TOWNNAME":"玉井區","LI":"玉田里","LIN":"37鄰","STREET":"民生路","SECT":" ","MAREA":" ","LANE":" ","ALLEY":" ","HOUSE_NO":"３４１號","E_COORD97":195152.29000000001,"N_COORD97":2558053.29,"ADDRESS":"民生路３４１號","OBJECTID":566900},"geometry":{"x":195152.29000000004,"y":2558053.2899999991}},{"attributes":{"ID":566928,"DIS_CODE":0,"TOWNNAME":"玉井區","LI":"玉田里","LIN":"37鄰","STREET":"民族路","SECT":" ","MAREA":" ","LANE":" ","ALLEY":" ","HOUSE_NO":"８４號","E_COORD97":195286.84,"N_COORD97":2557915.29,"ADDRESS":"民族路８４號","OBJECTID":566901},"geometry":{"x":195286.84000000078,"y":2557915.2900000028}},{"attributes":{"ID":566929,"DIS_CODE":0,"TOWNNAME":"歸仁區","LI":"六甲里","LIN":"37鄰","STREET":"六甲八街","SECT":" ","MAREA":" ","LANE":" ","ALLEY":" ","HOUSE_NO":"１６２號","E_COORD97":175369.92000000001,"N_COORD97":2539581.25,"ADDRESS":"六甲八街１６２號","OBJECTID":566902},"geometry":{"x":175369.92000000086,"y":2539581.2500000037}},{"attributes":{"ID":566930,"DIS_CODE":0,"TOWNNAME":"永康區","LI":"龍潭里","LIN":"5鄰","STREET":"龍埔街","SECT":" ","MAREA":" ","LANE":" ","ALLEY":" ","HOUSE_NO":"５５號","E_COORD97":174722.29000000001,"N_COORD97":2548209.8599999999,"ADDRESS":"龍埔街５５號","OBJECTID":566903},"geometry":{"x":174722.29000000004,"y":2548209.8600000013}},{"attributes":{"ID":566931,"DIS_CODE":0,"TOWNNAME":"永康區","LI":"龍潭里","LIN":"31鄰","STREET":"龍中街","SECT":" ","MAREA":" ","LANE":" ","ALLEY":" ","HOUSE_NO":"１２號","E_COORD97":174323.92000000001,"N_COORD97":2547627.3599999999,"ADDRESS":"龍中街１２號","OBJECTID":566904},"geometry":{"x":174323.92000000086,"y":2547627.3599999994}},{"attributes":{"ID":566932,"DIS_CODE":0,"TOWNNAME":"歸仁區","LI":"六甲里","LIN":"37鄰","STREET":"六甲八街","SECT":" ","MAREA":" ","LANE":" ","ALLEY":" ","HOUSE_NO":"２３０號","E_COORD97":175338.12,"N_COORD97":2539788.25,"ADDRESS":"六甲八街２３０號","OBJECTID":566905},"geometry":{"x":175338.12000000104,"y":2539788.2500000019}},{"attributes":{"ID":566933,"DIS_CODE":0,"TOWNNAME":"歸仁區","LI":"六甲里","LIN":"37鄰","STREET":"六甲八街","SECT":" ","MAREA":" ","LANE":" ","ALLEY":" ","HOUSE_NO":"１５８號","E_COORD97":175352.51999999999,"N_COORD97":2539582.25,"ADDRESS":"六甲八街１５８號","OBJECTID":566906},"geometry":{"x":175352.51999999955,"y":2539582.2500000019}},{"attributes":{"ID":566934,"DIS_CODE":0,"TOWNNAME":"歸仁區","LI":"六甲里","LIN":"37鄰","STREET":"六甲八街","SECT":" ","MAREA":" ","LANE":" ","ALLEY":" ","HOUSE_NO":"１６８號","E_COORD97":175366.01999999999,"N_COORD97":2539615.25,"ADDRESS":"六甲八街１６８號","OBJECTID":566907},"geometry":{"x":175366.01999999955,"y":2539615.2500000037}},{"attributes":{"ID":566935,"DIS_CODE":0,"TOWNNAME":"歸仁區","LI":"南興里","LIN":"37鄰","STREET":"文化街","SECT":"三段","MAREA":" ","LANE":" ","ALLEY":" ","HOUSE_NO":"３５５號","E_COORD97":176003.64000000001,"N_COORD97":2541194.3300000001,"ADDRESS":"文化街三段３５５號","OBJECTID":566908},"geometry":{"x":176003.6400000006,"y":2541194.3299999982}},{"attributes":{"ID":566936,"DIS_CODE":0,"TOWNNAME":"歸仁區","LI":"南興里","LIN":"37鄰","STREET":"文化街","SECT":"三段","MAREA":" ","LANE":" ","ALLEY":" ","HOUSE_NO":"３７５號","E_COORD97":175972.84,"N_COORD97":2541195.3300000001,"ADDRESS":"文化街三段３７５號","OBJECTID":566909},"geometry":{"x":175972.83999999985,"y":2541195.3300000019}},{"attributes":{"ID":566937,"DIS_CODE":0,"TOWNNAME":"永康區","LI":"龍潭里","LIN":"44鄰","STREET":"永平街","SECT":" ","MAREA":" ","LANE":" ","ALLEY":" ","HOUSE_NO":"２９２之１７號","E_COORD97":174655.56,"N_COORD97":2547068.5499999998,"ADDRESS":"永平街２９２之１７號","OBJECTID":566910},"geometry":{"x":174655.55999999959,"y":2547068.5500000007}},{"attributes":{"ID":566938,"DIS_CODE":0,"TOWNNAME":"永康區","LI":"\u25A0行里","LIN":"3鄰","STREET":"中正七街","SECT":" ","MAREA":" ","LANE":" ","ALLEY":" ","HOUSE_NO":"１３號","E_COORD97":172071.17000000001,"N_COORD97":2548888.2599999998,"ADDRESS":"中正七街１３號","OBJECTID":566911},"geometry":{"x":172071.17000000086,"y":2548888.2600000016}},{"attributes":{"ID":566939,"DIS_CODE":0,"TOWNNAME":"永康區","LI":"龍潭里","LIN":"39鄰","STREET":"永明街","SECT":" ","MAREA":" ","LANE":" ","ALLEY":" ","HOUSE_NO":"２６３之１號","E_COORD97":174632.28,"N_COORD97":2547243.6200000001,"ADDRESS":"永明街２６３之１號","OBJECTID":566912},"geometry":{"x":174632.28000000026,"y":2547243.6200000029}},{"attributes":{"ID":566940,"DIS_CODE":0,"TOWNNAME":"永康區","LI":"\u25A0行里","LIN":"34鄰","STREET":"中正七街","SECT":" ","MAREA":" ","LANE":" ","ALLEY":" ","HOUSE_NO":"１０５號","E_COORD97":172141.95000000001,"N_COORD97":2549130.7200000002,"ADDRESS":"中正七街１０５號","OBJECTID":566913},"geometry":{"x":172141.95000000112,"y":2549130.7200000025}},{"attributes":{"ID":566941,"DIS_CODE":0,"TOWNNAME":"東區","LI":"忠孝里","LIN":"37鄰","STREET":"榮譽街","SECT":" ","MAREA":" ","LANE":" ","ALLEY":" ","HOUSE_NO":"１３２號七樓","E_COORD97":169895.32000000001,"N_COORD97":2541761.2200000002,"ADDRESS":"榮譽街１３２號七樓","OBJECTID":566914},"geometry":{"x":169895.32000000123,"y":2541761.2200000007}},{"attributes":{"ID":566942,"DIS_CODE":0,"TOWNNAME":"東區","LI":"忠孝里","LIN":"37鄰","STREET":"榮譽街","SECT":" ","MAREA":" ","LANE":" ","ALLEY":" ","HOUSE_NO":"１３２號七樓之１","E_COORD97":169895.32000000001,"N_COORD97":2541761.2200000002,"ADDRESS":"榮譽街１３２號七樓之１","OBJECTID":566915},"geometry":{"x":169895.32000000123,"y":2541761.2200000007}},{"attributes":{"ID":566943,"DIS_CODE":0,"TOWNNAME":"東區","LI":"忠孝里","LIN":"37鄰","STREET":"榮譽街","SECT":" ","MAREA":" ","LANE":" ","ALLEY":" ","HOUSE_NO":"１３２號七樓之２","E_COORD97":169895.32000000001,"N_COORD97":2541761.2200000002,"ADDRESS":"榮譽街１３２號七樓之２","OBJECTID":566916},"geometry":{"x":169895.32000000123,"y":2541761.2200000007}},{"attributes":{"ID":566944,"DIS_CODE":0,"TOWNNAME":"東區","LI":"忠孝里","LIN":"37鄰","STREET":"榮譽街","SECT":" ","MAREA":" ","LANE":" ","ALLEY":" ","HOUSE_NO":"１３２號二樓","E_COORD97":169895.32000000001,"N_COORD97":2541761.2200000002,"ADDRESS":"榮譽街１３２號二樓","OBJECTID":566917},"geometry":{"x":169895.32000000123,"y":2541761.2200000007}},{"attributes":{"ID":566945,"DIS_CODE":0,"TOWNNAME":"東區","LI":"忠孝里","LIN":"37鄰","STREET":"榮譽街","SECT":" ","MAREA":" ","LANE":" ","ALLEY":" ","HOUSE_NO":"１３２號二樓之１","E_COORD97":169895.32000000001,"N_COORD97":2541761.2200000002,"ADDRESS":"榮譽街１３２號二樓之１","OBJECTID":566918},"geometry":{"x":169895.32000000123,"y":2541761.2200000007}},{"attributes":{"ID":566946,"DIS_CODE":0,"TOWNNAME":"東區","LI":"忠孝里","LIN":"37鄰","STREET":"榮譽街","SECT":" ","MAREA":" ","LANE":" ","ALLEY":" ","HOUSE_NO":"１３２號二樓之２","E_COORD97":169895.32000000001,"N_COORD97":2541761.2200000002,"ADDRESS":"榮譽街１３２號二樓之２","OBJECTID":566919},"geometry":{"x":169895.32000000123,"y":2541761.2200000007}},{"attributes":{"ID":566947,"DIS_CODE":0,"TOWNNAME":"東區","LI":"忠孝里","LIN":"37鄰","STREET":"榮譽街","SECT":" ","MAREA":" ","LANE":" ","ALLEY":" ","HOUSE_NO":"１３２號三樓","E_COORD97":169895.32000000001,"N_COORD97":2541761.2200000002,"ADDRESS":"榮譽街１３２號三樓","OBJECTID":566920},"geometry":{"x":169895.32000000123,"y":2541761.2200000007}},{"attributes":{"ID":566948,"DIS_CODE":0,"TOWNNAME":"東區","LI":"忠孝里","LIN":"37鄰","STREET":"榮譽街","SECT":" ","MAREA":" ","LANE":" ","ALLEY":" ","HOUSE_NO":"１３２號三樓之１","E_COORD97":169895.32000000001,"N_COORD97":2541761.2200000002,"ADDRESS":"榮譽街１３２號三樓之１","OBJECTID":566921},"geometry":{"x":169895.32000000123,"y":2541761.2200000007}},{"attributes":{"ID":566949,"DIS_CODE":0,"TOWNNAME":"東區","LI":"忠孝里","LIN":"37鄰","STREET":"榮譽街","SECT":" ","MAREA":" ","LANE":" ","ALLEY":" ","HOUSE_NO":"１３２號三樓之２","E_COORD97":169895.32000000001,"N_COORD97":2541761.2200000002,"ADDRESS":"榮譽街１３２號三樓之２","OBJECTID":566922},"geometry":{"x":169895.32000000123,"y":2541761.2200000007}},{"attributes":{"ID":566950,"DIS_CODE":0,"TOWNNAME":"東區","LI":"忠孝里","LIN":"37鄰","STREET":"榮譽街","SECT":" ","MAREA":" ","LANE":" ","ALLEY":" ","HOUSE_NO":"１３２號五樓","E_COORD97":169895.32000000001,"N_COORD97":2541761.2200000002,"ADDRESS":"榮譽街１３２號五樓","OBJECTID":566923},"geometry":{"x":169895.32000000123,"y":2541761.2200000007}},{"attributes":{"ID":566951,"DIS_CODE":0,"TOWNNAME":"東區","LI":"忠孝里","LIN":"37鄰","STREET":"榮譽街","SECT":" ","MAREA":" ","LANE":" ","ALLEY":" ","HOUSE_NO":"１３２號五樓之１","E_COORD97":169895.32000000001,"N_COORD97":2541761.2200000002,"ADDRESS":"榮譽街１３２號五樓之１","OBJECTID":566924},"geometry":{"x":169895.32000000123,"y":2541761.2200000007}},{"attributes":{"ID":566952,"DIS_CODE":0,"TOWNNAME":"東區","LI":"忠孝里","LIN":"37鄰","STREET":"榮譽街","SECT":" ","MAREA":" ","LANE":" ","ALLEY":" ","HOUSE_NO":"１３２號六樓","E_COORD97":169895.32000000001,"N_COORD97":2541761.2200000002,"ADDRESS":"榮譽街１３２號六樓","OBJECTID":566925},"geometry":{"x":169895.32000000123,"y":2541761.2200000007}},{"attributes":{"ID":566953,"DIS_CODE":0,"TOWNNAME":"東區","LI":"忠孝里","LIN":"37鄰","STREET":"榮譽街","SECT":" ","MAREA":" ","LANE":" ","ALLEY":" ","HOUSE_NO":"１３２號六樓之１","E_COORD97":169895.32000000001,"N_COORD97":2541761.2200000002,"ADDRESS":"榮譽街１３２號六樓之１","OBJECTID":566926},"geometry":{"x":169895.32000000123,"y":2541761.2200000007}},{"attributes":{"ID":566954,"DIS_CODE":0,"TOWNNAME":"東區","LI":"忠孝里","LIN":"37鄰","STREET":"榮譽街","SECT":" ","MAREA":" ","LANE":" ","ALLEY":" ","HOUSE_NO":"１３２號六樓之２","E_COORD97":169895.32000000001,"N_COORD97":2541761.2200000002,"ADDRESS":"榮譽街１３２號六樓之２","OBJECTID":566927},"geometry":{"x":169895.32000000123,"y":2541761.2200000007}},{"attributes":{"ID":566955,"DIS_CODE":0,"TOWNNAME":"東區","LI":"忠孝里","LIN":"37鄰","STREET":"榮譽街","SECT":" ","MAREA":" ","LANE":" ","ALLEY":" ","HOUSE_NO":"１３２號四樓","E_COORD97":169895.32000000001,"N_COORD97":2541761.2200000002,"ADDRESS":"榮譽街１３２號四樓","OBJECTID":566928},"geometry":{"x":169895.32000000123,"y":2541761.2200000007}},{"attributes":{"ID":566956,"DIS_CODE":0,"TOWNNAME":"東區","LI":"忠孝里","LIN":"37鄰","STREET":"榮譽街","SECT":" ","MAREA":" ","LANE":" ","ALLEY":" ","HOUSE_NO":"１３２號四樓之１","E_COORD97":169895.32000000001,"N_COORD97":2541761.2200000002,"ADDRESS":"榮譽街１３２號四樓之１","OBJECTID":566929},"geometry":{"x":169895.32000000123,"y":2541761.2200000007}},{"attributes":{"ID":566957,"DIS_CODE":0,"TOWNNAME":"東區","LI":"忠孝里","LIN":"37鄰","STREET":"榮譽街","SECT":" ","MAREA":" ","LANE":" ","ALLEY":" ","HOUSE_NO":"１３２號四樓之２","E_COORD97":169895.32000000001,"N_COORD97":2541761.2200000002,"ADDRESS":"榮譽街１３２號四樓之２","OBJECTID":566930},"geometry":{"x":169895.32000000123,"y":2541761.2200000007}},{"attributes":{"ID":566958,"DIS_CODE":0,"TOWNNAME":"永康區","LI":"蔦松里","LIN":"5鄰","STREET":"蔦松二街","SECT":" ","MAREA":" ","LANE":" ","ALLEY":" ","HOUSE_NO":"１５９號","E_COORD97":173870.03,"N_COORD97":2549449.75,"ADDRESS":"蔦松二街１５９號","OBJECTID":566931},"geometry":{"x":173870.03000000026,"y":2549449.75}},{"attributes":{"ID":566959,"DIS_CODE":0,"TOWNNAME":"永康區","LI":"\u25A0行里","LIN":"40鄰","STREET":"永安路","SECT":" ","MAREA":" ","LANE":" ","ALLEY":" ","HOUSE_NO":"１１３號之７","E_COORD97":172672.66,"N_COORD97":2549387.0600000001,"ADDRESS":"永安路１１３號之７","OBJECTID":566932},"geometry":{"x":172672.66000000108,"y":2549387.0600000005}},{"attributes":{"ID":566960,"DIS_CODE":0,"TOWNNAME":"永康區","LI":"\u25A0行里","LIN":"43鄰","STREET":"正南三路","SECT":" ","MAREA":" ","LANE":" ","ALLEY":" ","HOUSE_NO":"１３０號","E_COORD97":171749.23000000001,"N_COORD97":2547712.9900000002,"ADDRESS":"正南三路１３０號","OBJECTID":566933},"geometry":{"x":171749.23000000045,"y":2547712.9900000002}},{"attributes":{"ID":566961,"DIS_CODE":0,"TOWNNAME":"永康區","LI":"龍潭里","LIN":"34鄰","STREET":"龍埔街","SECT":" ","MAREA":" ","LANE":" ","ALLEY":" ","HOUSE_NO":"１６１號","E_COORD97":174494.10000000001,"N_COORD97":2548245.23,"ADDRESS":"龍埔街１６１號","OBJECTID":566934},"geometry":{"x":174494.09999999963,"y":2548245.2300000023}},{"attributes":{"ID":566962,"DIS_CODE":0,"TOWNNAME":"永康區","LI":"龍潭里","LIN":"31鄰","STREET":"龍中街","SECT":" ","MAREA":" ","LANE":" ","ALLEY":" ","HOUSE_NO":"１６之８號","E_COORD97":174398.47,"N_COORD97":2547625.9300000002,"ADDRESS":"龍中街１６之８號","OBJECTID":566935},"geometry":{"x":174398.46999999974,"y":2547625.9300000016}},{"attributes":{"ID":566963,"DIS_CODE":0,"TOWNNAME":"永康區","LI":"東灣里","LIN":"37鄰","STREET":"大灣三街","SECT":" ","MAREA":" ","LANE":" ","ALLEY":" ","HOUSE_NO":"７號一樓之２","E_COORD97":175070.22,"N_COORD97":2544843.54,"ADDRESS":"大灣三街７號一樓之２","OBJECTID":566936},"geometry":{"x":175070.2200000016,"y":2544843.5400000028}},{"attributes":{"ID":566964,"DIS_CODE":0,"TOWNNAME":"永康區","LI":"東灣里","LIN":"37鄰","STREET":"大灣三街","SECT":" ","MAREA":" ","LANE":" ","ALLEY":" ","HOUSE_NO":"５號三樓之２","E_COORD97":175081.20999999999,"N_COORD97":2544850.04,"ADDRESS":"大灣三街５號三樓之２","OBJECTID":566937},"geometry":{"x":175081.21000000089,"y":2544850.0399999972}},{"attributes":{"ID":566965,"DIS_CODE":0,"TOWNNAME":"永康區","LI":"東灣里","LIN":"37鄰","STREET":"大灣三街","SECT":" ","MAREA":" ","LANE":" ","ALLEY":" ","HOUSE_NO":"５號四樓之５","E_COORD97":175081.23000000001,"N_COORD97":2544850.04,"ADDRESS":"大灣三街５號四樓之５","OBJECTID":566938},"geometry":{"x":175081.23000000231,"y":2544850.0399999972}},{"attributes":{"ID":566966,"DIS_CODE":0,"TOWNNAME":"永康區","LI":"龍潭里","LIN":"2鄰","STREET":"龍潭街","SECT":" ","MAREA":" ","LANE":" ","ALLEY":" ","HOUSE_NO":"８７號","E_COORD97":174821.75,"N_COORD97":2548077.2999999998,"ADDRESS":"龍潭街８７號","OBJECTID":566939},"geometry":{"x":174821.75000000093,"y":2548077.3000000007}},{"attributes":{"ID":566967,"DIS_CODE":0,"TOWNNAME":"永康區","LI":"網寮里","LIN":"26鄰","STREET":"永華路","SECT":" ","MAREA":" ","LANE":" ","ALLEY":" ","HOUSE_NO":"５７４號","E_COORD97":173889.29000000001,"N_COORD97":2546561.2599999998,"ADDRESS":"永華路５７４號","OBJECTID":566940},"geometry":{"x":173889.29000000097,"y":2546561.2599999998}},{"attributes":{"ID":566968,"DIS_CODE":0,"TOWNNAME":"永康區","LI":"龍潭里","LIN":"35鄰","STREET":"龍橋街","SECT":" ","MAREA":" ","LANE":" ","ALLEY":" ","HOUSE_NO":"１０９號","E_COORD97":174669.97,"N_COORD97":2548536.75,"ADDRESS":"龍橋街１０９號","OBJECTID":566941},"geometry":{"x":174669.96999999974,"y":2548536.7500000019}},{"attributes":{"ID":566969,"DIS_CODE":0,"TOWNNAME":"永康區","LI":"龍潭里","LIN":"44鄰","STREET":"永平街","SECT":" ","MAREA":" ","LANE":" ","ALLEY":" ","HOUSE_NO":"２７８之５號","E_COORD97":174684.26000000001,"N_COORD97":2547032.0499999998,"ADDRESS":"永平街２７８之５號","OBJECTID":566942},"geometry":{"x":174684.26000000071,"y":2547032.0500000045}},{"attributes":{"ID":566970,"DIS_CODE":0,"TOWNNAME":"永康區","LI":"東灣里","LIN":"37鄰","STREET":"大灣三街","SECT":" ","MAREA":" ","LANE":" ","ALLEY":" ","HOUSE_NO":"７號五樓之３","E_COORD97":175070.17999999999,"N_COORD97":2544843.54,"ADDRESS":"大灣三街７號五樓之３","OBJECTID":566943},"geometry":{"x":175070.1799999997,"y":2544843.5400000028}},{"attributes":{"ID":566971,"DIS_CODE":0,"TOWNNAME":"永康區","LI":"東灣里","LIN":"37鄰","STREET":"大灣三街","SECT":" ","MAREA":" ","LANE":" ","ALLEY":" ","HOUSE_NO":"５號一樓之２","E_COORD97":175081.20999999999,"N_COORD97":2544850.04,"ADDRESS":"大灣三街５號一樓之２","OBJECTID":566944},"geometry":{"x":175081.21000000089,"y":2544850.0399999972}},{"attributes":{"ID":566972,"DIS_CODE":0,"TOWNNAME":"永康區","LI":"東灣里","LIN":"37鄰","STREET":"大灣三街","SECT":" ","MAREA":" ","LANE":" ","ALLEY":" ","HOUSE_NO":"７號二樓之３","E_COORD97":175070.17999999999,"N_COORD97":2544843.54,"ADDRESS":"大灣三街７號二樓之３","OBJECTID":566945},"geometry":{"x":175070.1799999997,"y":2544843.5400000028}},{"attributes":{"ID":566973,"DIS_CODE":0,"TOWNNAME":"永康區","LI":"西灣里","LIN":"37鄰","STREET":"國光七街","SECT":" ","MAREA":" ","LANE":" ","ALLEY":" ","HOUSE_NO":"４８號六樓之２","E_COORD97":174180.47,"N_COORD97":2545536.29,"ADDRESS":"國光七街４８號六樓之２","OBJECTID":566946},"geometry":{"x":174180.47000000067,"y":2545536.2899999991}},{"attributes":{"ID":566974,"DIS_CODE":0,"TOWNNAME":"永康區","LI":"西灣里","LIN":"37鄰","STREET":"國光七街","SECT":" ","MAREA":" ","LANE":" ","ALLEY":" ","HOUSE_NO":"５６號七樓之２","E_COORD97":174160.67000000001,"N_COORD97":2545535.29,"ADDRESS":"國光七街５６號七樓之２","OBJECTID":566947},"geometry":{"x":174160.67000000086,"y":2545535.2899999991}},{"attributes":{"ID":566975,"DIS_CODE":0,"TOWNNAME":"永康區","LI":"西灣里","LIN":"37鄰","STREET":"國光七街","SECT":" ","MAREA":" ","LANE":" ","ALLEY":" ","HOUSE_NO":"５８號五樓之１","E_COORD97":174154.29000000001,"N_COORD97":2545535.29,"ADDRESS":"國光七街５８號五樓之１","OBJECTID":566948},"geometry":{"x":174154.29000000004,"y":2545535.2899999991}},{"attributes":{"ID":566976,"DIS_CODE":0,"TOWNNAME":"永康區","LI":"西灣里","LIN":"37鄰","STREET":"國光七街","SECT":" ","MAREA":" ","LANE":" ","ALLEY":" ","HOUSE_NO":"５８號六樓之１","E_COORD97":174154.29000000001,"N_COORD97":2545535.29,"ADDRESS":"國光七街５８號六樓之１","OBJECTID":566949},"geometry":{"x":174154.29000000004,"y":2545535.2899999991}},{"attributes":{"ID":566977,"DIS_CODE":0,"TOWNNAME":"永康區","LI":"西灣里","LIN":"37鄰","STREET":"國光七街","SECT":" ","MAREA":" ","LANE":" ","ALLEY":" ","HOUSE_NO":"４８號五樓之１","E_COORD97":174180.34,"N_COORD97":2545536.29,"ADDRESS":"國光七街４８號五樓之１","OBJECTID":566950},"geometry":{"x":174180.34000000078,"y":2545536.2899999991}},{"attributes":{"ID":566978,"DIS_CODE":0,"TOWNNAME":"永康區","LI":"西灣里","LIN":"37鄰","STREET":"國光七街","SECT":" ","MAREA":" ","LANE":" ","ALLEY":" ","HOUSE_NO":"５８號六樓之２","E_COORD97":174154.42000000001,"N_COORD97":2545535.29,"ADDRESS":"國光七街５８號六樓之２","OBJECTID":566951},"geometry":{"x":174154.42000000086,"y":2545535.2899999991}},{"attributes":{"ID":566979,"DIS_CODE":0,"TOWNNAME":"永康區","LI":"西灣里","LIN":"37鄰","STREET":"國光七街","SECT":" ","MAREA":" ","LANE":" ","ALLEY":" ","HOUSE_NO":"５８號七樓之１","E_COORD97":174154.29000000001,"N_COORD97":2545535.29,"ADDRESS":"國光七街５８號七樓之１","OBJECTID":566952},"geometry":{"x":174154.29000000004,"y":2545535.2899999991}},{"attributes":{"ID":566980,"DIS_CODE":0,"TOWNNAME":"永康區","LI":"西灣里","LIN":"37鄰","STREET":"國光七街","SECT":" ","MAREA":" ","LANE":" ","ALLEY":" ","HOUSE_NO":"４８號四樓之１","E_COORD97":174180.34,"N_COORD97":2545536.29,"ADDRESS":"國光七街４８號四樓之１","OBJECTID":566953},"geometry":{"x":174180.34000000078,"y":2545536.2899999991}},{"attributes":{"ID":566981,"DIS_CODE":0,"TOWNNAME":"永康區","LI":"西灣里","LIN":"37鄰","STREET":"國光七街","SECT":" ","MAREA":" ","LANE":" ","ALLEY":" ","HOUSE_NO":"４８號八樓之１","E_COORD97":174180.34,"N_COORD97":2545536.29,"ADDRESS":"國光七街４８號八樓之１","OBJECTID":566954},"geometry":{"x":174180.34000000078,"y":2545536.2899999991}},{"attributes":{"ID":566982,"DIS_CODE":0,"TOWNNAME":"永康區","LI":"西灣里","LIN":"37鄰","STREET":"國光七街","SECT":" ","MAREA":" ","LANE":" ","ALLEY":" ","HOUSE_NO":"５８號三樓之１","E_COORD97":174154.29000000001,"N_COORD97":2545535.29,"ADDRESS":"國光七街５８號三樓之１","OBJECTID":566955},"geometry":{"x":174154.29000000004,"y":2545535.2899999991}},{"attributes":{"ID":566983,"DIS_CODE":0,"TOWNNAME":"永康區","LI":"西灣里","LIN":"37鄰","STREET":"國光七街","SECT":" ","MAREA":" ","LANE":" ","ALLEY":" ","HOUSE_NO":"５８號八樓之２","E_COORD97":174154.42000000001,"N_COORD97":2545535.29,"ADDRESS":"國光七街５８號八樓之２","OBJECTID":566956},"geometry":{"x":174154.42000000086,"y":2545535.2899999991}},{"attributes":{"ID":566984,"DIS_CODE":0,"TOWNNAME":"永康區","LI":"西灣里","LIN":"37鄰","STREET":"國光七街","SECT":" ","MAREA":" ","LANE":" ","ALLEY":" ","HOUSE_NO":"４８號七樓之１","E_COORD97":174180.34,"N_COORD97":2545536.29,"ADDRESS":"國光七街４８號七樓之１","OBJECTID":566957},"geometry":{"x":174180.34000000078,"y":2545536.2899999991}},{"attributes":{"ID":566985,"DIS_CODE":0,"TOWNNAME":"永康區","LI":"西灣里","LIN":"37鄰","STREET":"國光七街","SECT":" ","MAREA":" ","LANE":" ","ALLEY":" ","HOUSE_NO":"４８號八樓之２","E_COORD97":174180.47,"N_COORD97":2545536.29,"ADDRESS":"國光七街４８號八樓之２","OBJECTID":566958},"geometry":{"x":174180.47000000067,"y":2545536.2899999991}},{"attributes":{"ID":566986,"DIS_CODE":0,"TOWNNAME":"永康區","LI":"西灣里","LIN":"37鄰","STREET":"國光七街","SECT":" ","MAREA":" ","LANE":" ","ALLEY":" ","HOUSE_NO":"５６號七樓之１","E_COORD97":174160.54000000001,"N_COORD97":2545535.29,"ADDRESS":"國光七街５６號七樓之１","OBJECTID":566959},"geometry":{"x":174160.54000000097,"y":2545535.2899999991}},{"attributes":{"ID":566987,"DIS_CODE":0,"TOWNNAME":"永康區","LI":"西灣里","LIN":"37鄰","STREET":"國光七街","SECT":" ","MAREA":" ","LANE":" ","ALLEY":" ","HOUSE_NO":"５８號五樓之２","E_COORD97":174154.42000000001,"N_COORD97":2545535.29,"ADDRESS":"國光七街５８號五樓之２","OBJECTID":566960},"geometry":{"x":174154.42000000086,"y":2545535.2899999991}},{"attributes":{"ID":566988,"DIS_CODE":0,"TOWNNAME":"永康區","LI":"\u25A0行里","LIN":"21鄰","STREET":"正南五街","SECT":" ","MAREA":" ","LANE":" ","ALLEY":" ","HOUSE_NO":"３９７號","E_COORD97":171640.75,"N_COORD97":2548698.8799999999,"ADDRESS":"正南五街３９７號","OBJECTID":566961},"geometry":{"x":171640.75,"y":2548698.879999999}},{"attributes":{"ID":566989,"DIS_CODE":0,"TOWNNAME":"永康區","LI":"\u25A0行里","LIN":"10鄰","STREET":"中正路","SECT":" ","MAREA":" ","LANE":" ","ALLEY":" ","HOUSE_NO":"４７７號","E_COORD97":172267.10000000001,"N_COORD97":2548607.2799999998,"ADDRESS":"中正路４７７號","OBJECTID":566962},"geometry":{"x":172267.10000000149,"y":2548607.2799999993}},{"attributes":{"ID":566990,"DIS_CODE":0,"TOWNNAME":"東區","LI":"崇文里","LIN":"37鄰","STREET":"崇德二十五街","SECT":" ","MAREA":" ","LANE":" ","ALLEY":" ","HOUSE_NO":"１０號九樓","E_COORD97":170848.32999999999,"N_COORD97":2540643.77,"ADDRESS":"崇德二十五街１０號九樓","OBJECTID":566963},"geometry":{"x":170848.33000000007,"y":2540643.7699999996}},{"attributes":{"ID":566991,"DIS_CODE":0,"TOWNNAME":"東區","LI":"崇文里","LIN":"37鄰","STREET":"崇德二十五街","SECT":" ","MAREA":" ","LANE":" ","ALLEY":" ","HOUSE_NO":"１０號二樓","E_COORD97":170848.32999999999,"N_COORD97":2540643.77,"ADDRESS":"崇德二十五街１０號二樓","OBJECTID":566964},"geometry":{"x":170848.33000000007,"y":2540643.7699999996}},{"attributes":{"ID":566992,"DIS_CODE":0,"TOWNNAME":"東區","LI":"崇文里","LIN":"37鄰","STREET":"崇德二十五街","SECT":" ","MAREA":" ","LANE":" ","ALLEY":" ","HOUSE_NO":"１０號八樓","E_COORD97":170848.32999999999,"N_COORD97":2540643.77,"ADDRESS":"崇德二十五街１０號八樓","OBJECTID":566965},"geometry":{"x":170848.33000000007,"y":2540643.7699999996}},{"attributes":{"ID":566993,"DIS_CODE":0,"TOWNNAME":"東區","LI":"崇文里","LIN":"37鄰","STREET":"崇德二十五街","SECT":" ","MAREA":" ","LANE":" ","ALLEY":" ","HOUSE_NO":"１０號十一樓","E_COORD97":170848.32999999999,"N_COORD97":2540643.77,"ADDRESS":"崇德二十五街１０號十一樓","OBJECTID":566966},"geometry":{"x":170848.33000000007,"y":2540643.7699999996}},{"attributes":{"ID":566994,"DIS_CODE":0,"TOWNNAME":"東區","LI":"崇文里","LIN":"37鄰","STREET":"崇德二十五街","SECT":" ","MAREA":" ","LANE":" ","ALLEY":" ","HOUSE_NO":"１０號十二樓","E_COORD97":170848.32999999999,"N_COORD97":2540643.77,"ADDRESS":"崇德二十五街１０號十二樓","OBJECTID":566967},"geometry":{"x":170848.33000000007,"y":2540643.7699999996}},{"attributes":{"ID":566995,"DIS_CODE":0,"TOWNNAME":"東區","LI":"崇文里","LIN":"37鄰","STREET":"崇德二十五街","SECT":" ","MAREA":" ","LANE":" ","ALLEY":" ","HOUSE_NO":"１０號十樓","E_COORD97":170848.32999999999,"N_COORD97":2540643.77,"ADDRESS":"崇德二十五街１０號十樓","OBJECTID":566968},"geometry":{"x":170848.33000000007,"y":2540643.7699999996}},{"attributes":{"ID":566996,"DIS_CODE":0,"TOWNNAME":"東區","LI":"崇文里","LIN":"37鄰","STREET":"崇德二十五街","SECT":" ","MAREA":" ","LANE":" ","ALLEY":" ","HOUSE_NO":"１０號三樓","E_COORD97":170848.32999999999,"N_COORD97":2540643.77,"ADDRESS":"崇德二十五街１０號三樓","OBJECTID":566969},"geometry":{"x":170848.33000000007,"y":2540643.7699999996}},{"attributes":{"ID":566997,"DIS_CODE":0,"TOWNNAME":"東區","LI":"崇文里","LIN":"37鄰","STREET":"崇德二十五街","SECT":" ","MAREA":" ","LANE":" ","ALLEY":" ","HOUSE_NO":"１０號五樓","E_COORD97":170848.32999999999,"N_COORD97":2540643.77,"ADDRESS":"崇德二十五街１０號五樓","OBJECTID":566970},"geometry":{"x":170848.33000000007,"y":2540643.7699999996}},{"attributes":{"ID":566998,"DIS_CODE":0,"TOWNNAME":"東區","LI":"崇文里","LIN":"37鄰","STREET":"崇德二十五街","SECT":" ","MAREA":" ","LANE":" ","ALLEY":" ","HOUSE_NO":"１０號六樓","E_COORD97":170848.32999999999,"N_COORD97":2540643.77,"ADDRESS":"崇德二十五街１０號六樓","OBJECTID":566971},"geometry":{"x":170848.33000000007,"y":2540643.7699999996}},{"attributes":{"ID":566999,"DIS_CODE":0,"TOWNNAME":"東區","LI":"崇文里","LIN":"37鄰","STREET":"崇德二十五街","SECT":" ","MAREA":" ","LANE":" ","ALLEY":" ","HOUSE_NO":"１０號四樓","E_COORD97":170848.32999999999,"N_COORD97":2540643.77,"ADDRESS":"崇德二十五街１０號四樓","OBJECTID":566972},"geometry":{"x":170848.33000000007,"y":2540643.7699999996}},{"attributes":{"ID":567000,"DIS_CODE":0,"TOWNNAME":"東區","LI":"崇文里","LIN":"37鄰","STREET":"崇德二十五街","SECT":" ","MAREA":" ","LANE":" ","ALLEY":" ","HOUSE_NO":"１２號七樓","E_COORD97":170859.35999999999,"N_COORD97":2540643.9700000002,"ADDRESS":"崇德二十五街１２號七樓","OBJECTID":566973},"geometry":{"x":170859.36000000127,"y":2540643.9700000007}},{"attributes":{"ID":567001,"DIS_CODE":0,"TOWNNAME":"東區","LI":"崇文里","LIN":"37鄰","STREET":"崇德二十五街","SECT":" ","MAREA":" ","LANE":" ","ALLEY":" ","HOUSE_NO":"１２號九樓","E_COORD97":170859.35999999999,"N_COORD97":2540643.9700000002,"ADDRESS":"崇德二十五街１２號九樓","OBJECTID":566974},"geometry":{"x":170859.36000000127,"y":2540643.9700000007}},{"attributes":{"ID":567002,"DIS_CODE":0,"TOWNNAME":"東區","LI":"崇文里","LIN":"37鄰","STREET":"崇德二十五街","SECT":" ","MAREA":" ","LANE":" ","ALLEY":" ","HOUSE_NO":"１２號二樓","E_COORD97":170859.35999999999,"N_COORD97":2540643.9700000002,"ADDRESS":"崇德二十五街１２號二樓","OBJECTID":566975},"geometry":{"x":170859.36000000127,"y":2540643.9700000007}},{"attributes":{"ID":567003,"DIS_CODE":0,"TOWNNAME":"東區","LI":"崇文里","LIN":"37鄰","STREET":"崇德二十五街","SECT":" ","MAREA":" ","LANE":" ","ALLEY":" ","HOUSE_NO":"１２號八樓","E_COORD97":170859.35999999999,"N_COORD97":2540643.9700000002,"ADDRESS":"崇德二十五街１２號八樓","OBJECTID":566976},"geometry":{"x":170859.36000000127,"y":2540643.9700000007}},{"attributes":{"ID":567004,"DIS_CODE":0,"TOWNNAME":"東區","LI":"崇文里","LIN":"37鄰","STREET":"崇德二十五街","SECT":" ","MAREA":" ","LANE":" ","ALLEY":" ","HOUSE_NO":"６號八樓","E_COORD97":170828.57999999999,"N_COORD97":2540643.6699999999,"ADDRESS":"崇德二十五街６號八樓","OBJECTID":566977},"geometry":{"x":170828.58000000194,"y":2540643.6700000018}},{"attributes":{"ID":567005,"DIS_CODE":0,"TOWNNAME":"東區","LI":"崇文里","LIN":"37鄰","STREET":"崇德二十五街","SECT":" ","MAREA":" ","LANE":" ","ALLEY":" ","HOUSE_NO":"６號十一樓","E_COORD97":170828.57999999999,"N_COORD97":2540643.6699999999,"ADDRESS":"崇德二十五街６號十一樓","OBJECTID":566978},"geometry":{"x":170828.58000000194,"y":2540643.6700000018}},{"attributes":{"ID":567006,"DIS_CODE":0,"TOWNNAME":"東區","LI":"崇文里","LIN":"37鄰","STREET":"崇德二十五街","SECT":" ","MAREA":" ","LANE":" ","ALLEY":" ","HOUSE_NO":"６號十二樓","E_COORD97":170828.57999999999,"N_COORD97":2540643.6699999999,"ADDRESS":"崇德二十五街６號十二樓","OBJECTID":566979},"geometry":{"x":170828.58000000194,"y":2540643.6700000018}},{"attributes":{"ID":567007,"DIS_CODE":0,"TOWNNAME":"東區","LI":"崇文里","LIN":"37鄰","STREET":"崇德二十五街","SECT":" ","MAREA":" ","LANE":" ","ALLEY":" ","HOUSE_NO":"６號十樓","E_COORD97":170828.57999999999,"N_COORD97":2540643.6699999999,"ADDRESS":"崇德二十五街６號十樓","OBJECTID":566980},"geometry":{"x":170828.58000000194,"y":2540643.6700000018}},{"attributes":{"ID":567008,"DIS_CODE":0,"TOWNNAME":"東區","LI":"崇文里","LIN":"37鄰","STREET":"崇德二十五街","SECT":" ","MAREA":" ","LANE":" ","ALLEY":" ","HOUSE_NO":"６號三樓","E_COORD97":170828.57999999999,"N_COORD97":2540643.6699999999,"ADDRESS":"崇德二十五街６號三樓","OBJECTID":566981},"geometry":{"x":170828.58000000194,"y":2540643.6700000018}},{"attributes":{"ID":567009,"DIS_CODE":0,"TOWNNAME":"東區","LI":"崇文里","LIN":"37鄰","STREET":"崇德二十五街","SECT":" ","MAREA":" ","LANE":" ","ALLEY":" ","HOUSE_NO":"６號五樓","E_COORD97":170828.57999999999,"N_COORD97":2540643.6699999999,"ADDRESS":"崇德二十五街６號五樓","OBJECTID":566982},"geometry":{"x":170828.58000000194,"y":2540643.6700000018}},{"attributes":{"ID":567010,"DIS_CODE":0,"TOWNNAME":"東區","LI":"崇文里","LIN":"37鄰","STREET":"崇德二十五街","SECT":" ","MAREA":" ","LANE":" ","ALLEY":" ","HOUSE_NO":"６號六樓","E_COORD97":170828.57999999999,"N_COORD97":2540643.6699999999,"ADDRESS":"崇德二十五街６號六樓","OBJECTID":566983},"geometry":{"x":170828.58000000194,"y":2540643.6700000018}},{"attributes":{"ID":567011,"DIS_CODE":0,"TOWNNAME":"東區","LI":"崇文里","LIN":"37鄰","STREET":"崇德二十五街","SECT":" ","MAREA":" ","LANE":" ","ALLEY":" ","HOUSE_NO":"６號四樓","E_COORD97":170828.57999999999,"N_COORD97":2540643.6699999999,"ADDRESS":"崇德二十五街６號四樓","OBJECTID":566984},"geometry":{"x":170828.58000000194,"y":2540643.6700000018}},{"attributes":{"ID":567012,"DIS_CODE":0,"TOWNNAME":"東區","LI":"崇文里","LIN":"37鄰","STREET":"崇德二十五街","SECT":" ","MAREA":" ","LANE":" ","ALLEY":" ","HOUSE_NO":"８號七樓","E_COORD97":170839.37,"N_COORD97":2540643.6699999999,"ADDRESS":"崇德二十五街８號七樓","OBJECTID":566985},"geometry":{"x":170839.37000000011,"y":2540643.6700000018}},{"attributes":{"ID":567013,"DIS_CODE":0,"TOWNNAME":"東區","LI":"崇文里","LIN":"37鄰","STREET":"崇德二十五街","SECT":" ","MAREA":" ","LANE":" ","ALLEY":" ","HOUSE_NO":"８號九樓","E_COORD97":170839.37,"N_COORD97":2540643.6699999999,"ADDRESS":"崇德二十五街８號九樓","OBJECTID":566986},"geometry":{"x":170839.37000000011,"y":2540643.6700000018}},{"attributes":{"ID":567014,"DIS_CODE":0,"TOWNNAME":"東區","LI":"崇文里","LIN":"37鄰","STREET":"崇德二十五街","SECT":" ","MAREA":" ","LANE":" ","ALLEY":" ","HOUSE_NO":"８號二樓","E_COORD97":170839.37,"N_COORD97":2540643.6699999999,"ADDRESS":"崇德二十五街８號二樓","OBJECTID":566987},"geometry":{"x":170839.37000000011,"y":2540643.6700000018}},{"attributes":{"ID":567015,"DIS_CODE":0,"TOWNNAME":"永康區","LI":"\u25A0行里","LIN":"4鄰","STREET":"新行街","SECT":" ","MAREA":" ","LANE":" ","ALLEY":" ","HOUSE_NO":"２４號","E_COORD97":172244.92999999999,"N_COORD97":2548780.02,"ADDRESS":"新行街２４號","OBJECTID":566988},"geometry":{"x":172244.93000000063,"y":2548780.0199999996}},{"attributes":{"ID":567016,"DIS_CODE":0,"TOWNNAME":"東區","LI":"崇文里","LIN":"37鄰","STREET":"崇德二十五街","SECT":" ","MAREA":" ","LANE":" ","ALLEY":" ","HOUSE_NO":"８號八樓","E_COORD97":170839.37,"N_COORD97":2540643.6699999999,"ADDRESS":"崇德二十五街８號八樓","OBJECTID":566989},"geometry":{"x":170839.37000000011,"y":2540643.6700000018}},{"attributes":{"ID":567017,"DIS_CODE":0,"TOWNNAME":"東區","LI":"崇文里","LIN":"37鄰","STREET":"崇德二十五街","SECT":" ","MAREA":" ","LANE":" ","ALLEY":" ","HOUSE_NO":"８號十一樓","E_COORD97":170839.37,"N_COORD97":2540643.6699999999,"ADDRESS":"崇德二十五街８號十一樓","OBJECTID":566990},"geometry":{"x":170839.37000000011,"y":2540643.6700000018}},{"attributes":{"ID":567018,"DIS_CODE":0,"TOWNNAME":"東區","LI":"崇文里","LIN":"37鄰","STREET":"崇德二十五街","SECT":" ","MAREA":" ","LANE":" ","ALLEY":" ","HOUSE_NO":"８號十二樓","E_COORD97":170839.37,"N_COORD97":2540643.6699999999,"ADDRESS":"崇德二十五街８號十二樓","OBJECTID":566991},"geometry":{"x":170839.37000000011,"y":2540643.6700000018}},{"attributes":{"ID":567019,"DIS_CODE":0,"TOWNNAME":"東區","LI":"崇文里","LIN":"37鄰","STREET":"崇德二十五街","SECT":" ","MAREA":" ","LANE":" ","ALLEY":" ","HOUSE_NO":"８號十樓","E_COORD97":170839.37,"N_COORD97":2540643.6699999999,"ADDRESS":"崇德二十五街８號十樓","OBJECTID":566992},"geometry":{"x":170839.37000000011,"y":2540643.6700000018}},{"attributes":{"ID":567020,"DIS_CODE":0,"TOWNNAME":"東區","LI":"崇文里","LIN":"37鄰","STREET":"崇德二十五街","SECT":" ","MAREA":" ","LANE":" ","ALLEY":" ","HOUSE_NO":"８號三樓","E_COORD97":170839.37,"N_COORD97":2540643.6699999999,"ADDRESS":"崇德二十五街８號三樓","OBJECTID":566993},"geometry":{"x":170839.37000000011,"y":2540643.6700000018}},{"attributes":{"ID":567021,"DIS_CODE":0,"TOWNNAME":"東區","LI":"崇文里","LIN":"37鄰","STREET":"崇德二十五街","SECT":" ","MAREA":" ","LANE":" ","ALLEY":" ","HOUSE_NO":"８號五樓","E_COORD97":170839.37,"N_COORD97":2540643.6699999999,"ADDRESS":"崇德二十五街８號五樓","OBJECTID":566994},"geometry":{"x":170839.37000000011,"y":2540643.6700000018}},{"attributes":{"ID":567022,"DIS_CODE":0,"TOWNNAME":"東區","LI":"崇文里","LIN":"37鄰","STREET":"崇德二十五街","SECT":" ","MAREA":" ","LANE":" ","ALLEY":" ","HOUSE_NO":"８號六樓","E_COORD97":170839.37,"N_COORD97":2540643.6699999999,"ADDRESS":"崇德二十五街８號六樓","OBJECTID":566995},"geometry":{"x":170839.37000000011,"y":2540643.6700000018}},{"attributes":{"ID":567023,"DIS_CODE":0,"TOWNNAME":"東區","LI":"崇文里","LIN":"37鄰","STREET":"崇德二十五街","SECT":" ","MAREA":" ","LANE":" ","ALLEY":" ","HOUSE_NO":"８號四樓","E_COORD97":170839.37,"N_COORD97":2540643.6699999999,"ADDRESS":"崇德二十五街８號四樓","OBJECTID":566996},"geometry":{"x":170839.37000000011,"y":2540643.6700000018}},{"attributes":{"ID":567024,"DIS_CODE":0,"TOWNNAME":"永康區","LI":"\u25A0行里","LIN":"48鄰","STREET":"新民街","SECT":" ","MAREA":" ","LANE":" ","ALLEY":" ","HOUSE_NO":"５２號","E_COORD97":172388.92999999999,"N_COORD97":2548959.7599999998,"ADDRESS":"新民街５２號","OBJECTID":566997},"geometry":{"x":172388.93000000063,"y":2548959.7600000016}},{"attributes":{"ID":567025,"DIS_CODE":0,"TOWNNAME":"永康區","LI":"\u25A0行里","LIN":"5鄰","STREET":"新行街","SECT":" ","MAREA":" ","LANE":" ","ALLEY":" ","HOUSE_NO":"１９號","E_COORD97":172214,"N_COORD97":2548779.9300000002,"ADDRESS":"新行街１９號","OBJECTID":566998},"geometry":{"x":172214.00000000186,"y":2548779.9299999997}},{"attributes":{"ID":567026,"DIS_CODE":0,"TOWNNAME":"永康區","LI":"\u25A0行里","LIN":"40鄰","STREET":"永安路","SECT":" ","MAREA":" ","LANE":" ","ALLEY":" ","HOUSE_NO":"１１７號","E_COORD97":172656.85999999999,"N_COORD97":2549405.4900000002,"ADDRESS":"永安路１１７號","OBJECTID":566999},"geometry":{"x":172656.86000000034,"y":2549405.4900000021}},{"attributes":{"ID":567027,"DIS_CODE":0,"TOWNNAME":"永康區","LI":"\u25A0行里","LIN":"40鄰","STREET":"永安路","SECT":" ","MAREA":" ","LANE":" ","ALLEY":" ","HOUSE_NO":"１２５號","E_COORD97":172638.53,"N_COORD97":2549425.8300000001,"ADDRESS":"永安路１２５號","OBJECTID":567000},"geometry":{"x":172638.53000000119,"y":2549425.8300000001}}]}