{"displayFieldName":"TOWNNAME","fieldAliases":{"ID":"ID","DIS_CODE":"DIS_CODE","TOWNNAME":"TOWNNAME","LI":"LI","LIN":"LIN","STREET":"STREET","SECT":"SECT","MAREA":"MAREA","LANE":"LANE","ALLEY":"ALLEY","HOUSE_NO":"HOUSE_NO","E_COORD97":"E_COORD97","N_COORD97":"N_COORD97","ADDRESS":"ADDRESS","OBJECTID":"OBJECTID"},"geometryType":"esriGeometryPoint","spatialReference":{"wkid":102443,"latestWkid":3826},"fields":[{"name":"ID","type":"esriFieldTypeDouble","alias":"ID"},{"name":"DIS_CODE","type":"esriFieldTypeInteger","alias":"DIS_CODE"},{"name":"TOWNNAME","type":"esriFieldTypeString","alias":"TOWNNAME","length":8},{"name":"LI","type":"esriFieldTypeString","alias":"LI","length":8},{"name":"LIN","type":"esriFieldTypeString","alias":"LIN","length":12},{"name":"STREET","type":"esriFieldTypeString","alias":"STREET","length":20},{"name":"SECT","type":"esriFieldTypeString","alias":"SECT","length":8},{"name":"MAREA","type":"esriFieldTypeString","alias":"MAREA","length":12},{"name":"LANE","type":"esriFieldTypeString","alias":"LANE","length":10},{"name":"ALLEY","type":"esriFieldTypeString","alias":"ALLEY","length":10},{"name":"HOUSE_NO","type":"esriFieldTypeString","alias":"HOUSE_NO","length":20},{"name":"E_COORD97","type":"esriFieldTypeDouble","alias":"E_COORD97"},{"name":"N_COORD97","type":"esriFieldTypeDouble","alias":"N_COORD97"},{"name":"ADDRESS","type":"esriFieldTypeString","alias":"ADDRESS","length":50},{"name":"OBJECTID","type":"esriFieldTypeOID","alias":"OBJECTID"}],"features":[{"attributes":{"ID":195402,"DIS_CODE":0,"TOWNNAME":"下營區","LI":"宅內里","LIN":"18鄰","STREET":"人和三街","SECT":" ","MAREA":" ","LANE":"７０巷","ALLEY":"５弄","HOUSE_NO":"１６號","E_COORD97":174313.06,"N_COORD97":2570772.9100000001,"ADDRESS":"人和三街７０巷５弄１６號","OBJECTID":195401},"geometry":{"x":174313.05999999959,"y":2570772.910000002}},{"attributes":{"ID":195403,"DIS_CODE":0,"TOWNNAME":"下營區","LI":"宅內里","LIN":"18鄰","STREET":"人和三街","SECT":" ","MAREA":" ","LANE":"７０巷","ALLEY":"５弄","HOUSE_NO":"１號","E_COORD97":174288.10000000001,"N_COORD97":2570790.0299999998,"ADDRESS":"人和三街７０巷５弄１號","OBJECTID":195402},"geometry":{"x":174288.10000000056,"y":2570790.0299999993}},{"attributes":{"ID":195404,"DIS_CODE":0,"TOWNNAME":"下營區","LI":"宅內里","LIN":"18鄰","STREET":"人和三街","SECT":" ","MAREA":" ","LANE":"７０巷","ALLEY":"５弄","HOUSE_NO":"２號","E_COORD97":174288.87,"N_COORD97":2570769.9399999999,"ADDRESS":"人和三街７０巷５弄２號","OBJECTID":195403},"geometry":{"x":174288.87000000104,"y":2570769.9399999995}},{"attributes":{"ID":195405,"DIS_CODE":0,"TOWNNAME":"北區","LI":"和順里","LIN":"26鄰","STREET":"民德路","SECT":" ","MAREA":" ","LANE":"５８巷","ALLEY":"５弄","HOUSE_NO":"３號","E_COORD97":168190.23000000001,"N_COORD97":2545226.1499999999,"ADDRESS":"民德路５８巷５弄３號","OBJECTID":195404},"geometry":{"x":168190.23000000231,"y":2545226.1500000004}},{"attributes":{"ID":195406,"DIS_CODE":0,"TOWNNAME":"下營區","LI":"宅內里","LIN":"18鄰","STREET":"人和三街","SECT":" ","MAREA":" ","LANE":"７０巷","ALLEY":"５弄","HOUSE_NO":"３號","E_COORD97":174292.45999999999,"N_COORD97":2570790.5,"ADDRESS":"人和三街７０巷５弄３號","OBJECTID":195405},"geometry":{"x":174292.46000000183,"y":2570790.5}},{"attributes":{"ID":195407,"DIS_CODE":0,"TOWNNAME":"北區","LI":"成德里","LIN":"21鄰","STREET":"育成路","SECT":" ","MAREA":" ","LANE":" ","ALLEY":" ","HOUSE_NO":"１９０號","E_COORD97":168716.89999999999,"N_COORD97":2546522.3500000001,"ADDRESS":"育成路１９０號","OBJECTID":195406},"geometry":{"x":168716.9000000013,"y":2546522.3499999996}},{"attributes":{"ID":195408,"DIS_CODE":0,"TOWNNAME":"南區","LI":"金華里","LIN":"21鄰","STREET":"賢南街","SECT":" ","MAREA":" ","LANE":" ","ALLEY":" ","HOUSE_NO":"３７號","E_COORD97":166818.79999999999,"N_COORD97":2542407.4300000002,"ADDRESS":"賢南街３７號","OBJECTID":195407},"geometry":{"x":166818.79999999981,"y":2542407.4300000034}},{"attributes":{"ID":195409,"DIS_CODE":0,"TOWNNAME":"下營區","LI":"宅內里","LIN":"18鄰","STREET":"人和三街","SECT":" ","MAREA":" ","LANE":"７０巷","ALLEY":"５弄","HOUSE_NO":"５號","E_COORD97":174297.60000000001,"N_COORD97":2570790.46,"ADDRESS":"人和三街７０巷５弄５號","OBJECTID":195408},"geometry":{"x":174297.59999999963,"y":2570790.4600000028}},{"attributes":{"ID":195410,"DIS_CODE":0,"TOWNNAME":"下營區","LI":"宅內里","LIN":"18鄰","STREET":"人和三街","SECT":" ","MAREA":" ","LANE":"７０巷","ALLEY":"５弄","HOUSE_NO":"６號","E_COORD97":174293.64999999999,"N_COORD97":2570770.6000000001,"ADDRESS":"人和三街７０巷５弄６號","OBJECTID":195409},"geometry":{"x":174293.6500000013,"y":2570770.6000000015}},{"attributes":{"ID":195411,"DIS_CODE":0,"TOWNNAME":"下營區","LI":"宅內里","LIN":"18鄰","STREET":"人和三街","SECT":" ","MAREA":" ","LANE":"７０巷","ALLEY":"５弄","HOUSE_NO":"８號","E_COORD97":174298.76999999999,"N_COORD97":2570771.1800000002,"ADDRESS":"人和三街７０巷５弄８號","OBJECTID":195410},"geometry":{"x":174298.77000000048,"y":2570771.1799999997}},{"attributes":{"ID":195412,"DIS_CODE":0,"TOWNNAME":"新市區","LI":"港墘里","LIN":"18鄰","STREET":"光華街","SECT":" ","MAREA":" ","LANE":"８４巷","ALLEY":"１８弄","HOUSE_NO":"９號","E_COORD97":178077.42000000001,"N_COORD97":2552686.25,"ADDRESS":"光華街８４巷１８弄９號","OBJECTID":195411},"geometry":{"x":178077.41999999993,"y":2552686.2500000019}},{"attributes":{"ID":195413,"DIS_CODE":0,"TOWNNAME":"新市區","LI":"新市里","LIN":"18鄰","STREET":"和平街","SECT":" ","MAREA":" ","LANE":"１５巷","ALLEY":"９弄","HOUSE_NO":"３號","E_COORD97":177785.32000000001,"N_COORD97":2553425.75,"ADDRESS":"和平街１５巷９弄３號","OBJECTID":195412},"geometry":{"x":177785.3200000003,"y":2553425.7500000019}},{"attributes":{"ID":195414,"DIS_CODE":0,"TOWNNAME":"永康區","LI":"永康里","LIN":"13鄰","STREET":"永康街","SECT":" ","MAREA":" ","LANE":"１３６巷","ALLEY":"１３弄","HOUSE_NO":"３０號","E_COORD97":173974.94,"N_COORD97":2546993.8700000001,"ADDRESS":"永康街１３６巷１３弄３０號","OBJECTID":195413},"geometry":{"x":173974.94000000134,"y":2546993.8700000029}},{"attributes":{"ID":195415,"DIS_CODE":0,"TOWNNAME":"永康區","LI":"正強里","LIN":"18鄰","STREET":"自強路","SECT":" ","MAREA":" ","LANE":"１８８巷","ALLEY":"７６弄","HOUSE_NO":"２號","E_COORD97":173208.97,"N_COORD97":2547243.25,"ADDRESS":"自強路１８８巷７６弄２號","OBJECTID":195414},"geometry":{"x":173208.9700000016,"y":2547243.2499999981}},{"attributes":{"ID":195416,"DIS_CODE":0,"TOWNNAME":"東區","LI":"自強里","LIN":"18鄰","STREET":"中華東路","SECT":"二段","MAREA":" ","LANE":"２０３巷","ALLEY":"１９弄","HOUSE_NO":"１１號","E_COORD97":171348.38,"N_COORD97":2542632.5499999998,"ADDRESS":"中華東路二段２０３巷１９弄１１號","OBJECTID":195415},"geometry":{"x":171348.38000000175,"y":2542632.5500000026}},{"attributes":{"ID":195417,"DIS_CODE":0,"TOWNNAME":"東區","LI":"自強里","LIN":"18鄰","STREET":"中華東路","SECT":"二段","MAREA":" ","LANE":"２０３巷","ALLEY":"１９弄","HOUSE_NO":"１３號","E_COORD97":171353.22,"N_COORD97":2542632.9300000002,"ADDRESS":"中華東路二段２０３巷１９弄１３號","OBJECTID":195416},"geometry":{"x":171353.22000000067,"y":2542632.9299999997}},{"attributes":{"ID":195418,"DIS_CODE":0,"TOWNNAME":"南區","LI":"金華里","LIN":"21鄰","STREET":"賢南街","SECT":" ","MAREA":" ","LANE":" ","ALLEY":" ","HOUSE_NO":"３９號","E_COORD97":166814.62,"N_COORD97":2542406.6400000001,"ADDRESS":"賢南街３９號","OBJECTID":195417},"geometry":{"x":166814.62000000104,"y":2542406.6400000043}},{"attributes":{"ID":195419,"DIS_CODE":0,"TOWNNAME":"新化區","LI":"\u25A0拔里","LIN":"3鄰","STREET":" ","SECT":" ","MAREA":"\u25A0拔林","LANE":" ","ALLEY":" ","HOUSE_NO":"１２９號","E_COORD97":183678.92000000001,"N_COORD97":2552106.25,"ADDRESS":"\u25A0拔林１２９號","OBJECTID":195418},"geometry":{"x":183678.92000000179,"y":2552106.2500000019}},{"attributes":{"ID":195420,"DIS_CODE":0,"TOWNNAME":"新化區","LI":"\u25A0拔里","LIN":"3鄰","STREET":" ","SECT":" ","MAREA":"\u25A0拔林","LANE":" ","ALLEY":" ","HOUSE_NO":"１３０號之１","E_COORD97":183697.25,"N_COORD97":2552096.2599999998,"ADDRESS":"\u25A0拔林１３０號之１","OBJECTID":195419},"geometry":{"x":183697.25000000186,"y":2552096.2600000016}},{"attributes":{"ID":195421,"DIS_CODE":0,"TOWNNAME":"新化區","LI":"\u25A0拔里","LIN":"3鄰","STREET":" ","SECT":" ","MAREA":"\u25A0拔林","LANE":" ","ALLEY":" ","HOUSE_NO":"１５４號之２","E_COORD97":183938.67999999999,"N_COORD97":2552181.2599999998,"ADDRESS":"\u25A0拔林１５４號之２","OBJECTID":195420},"geometry":{"x":183938.68000000063,"y":2552181.2599999998}},{"attributes":{"ID":195422,"DIS_CODE":0,"TOWNNAME":"新化區","LI":"山\u25A0里","LIN":"3鄰","STREET":" ","SECT":" ","MAREA":"頂山\u25A0","LANE":" ","ALLEY":" ","HOUSE_NO":"９３號之１","E_COORD97":179587.31,"N_COORD97":2546608.2599999998,"ADDRESS":"頂山\u25A0９３號之１","OBJECTID":195421},"geometry":{"x":179587.31000000145,"y":2546608.2599999998}},{"attributes":{"ID":195423,"DIS_CODE":0,"TOWNNAME":"東區","LI":"自強里","LIN":"18鄰","STREET":"中華東路","SECT":"二段","MAREA":" ","LANE":"２０３巷","ALLEY":"１９弄","HOUSE_NO":"１４號","E_COORD97":171363.64999999999,"N_COORD97":2542621.8700000001,"ADDRESS":"中華東路二段２０３巷１９弄１４號","OBJECTID":195422},"geometry":{"x":171363.65000000037,"y":2542621.870000001}},{"attributes":{"ID":195424,"DIS_CODE":0,"TOWNNAME":"東區","LI":"自強里","LIN":"18鄰","STREET":"中華東路","SECT":"二段","MAREA":" ","LANE":"２０３巷","ALLEY":"１９弄","HOUSE_NO":"１５號","E_COORD97":171356.70000000001,"N_COORD97":2542633.1299999999,"ADDRESS":"中華東路二段２０３巷１９弄１５號","OBJECTID":195423},"geometry":{"x":171356.70000000205,"y":2542633.1300000008}},{"attributes":{"ID":195425,"DIS_CODE":0,"TOWNNAME":"新營區","LI":"姑爺里","LIN":"9鄰","STREET":" ","SECT":" ","MAREA":"挖仔","LANE":" ","ALLEY":" ","HOUSE_NO":"２８號","E_COORD97":173833.98000000001,"N_COORD97":2575366.02,"ADDRESS":"挖仔２８號","OBJECTID":195424},"geometry":{"x":173833.98000000138,"y":2575366.0199999996}},{"attributes":{"ID":195426,"DIS_CODE":0,"TOWNNAME":"東區","LI":"自強里","LIN":"18鄰","STREET":"中華東路","SECT":"二段","MAREA":" ","LANE":"２０３巷","ALLEY":"１９弄","HOUSE_NO":"１６號","E_COORD97":171368.54999999999,"N_COORD97":2542622.3900000001,"ADDRESS":"中華東路二段２０３巷１９弄１６號","OBJECTID":195425},"geometry":{"x":171368.54999999981,"y":2542622.3900000025}},{"attributes":{"ID":195427,"DIS_CODE":0,"TOWNNAME":"東區","LI":"自強里","LIN":"18鄰","STREET":"中華東路","SECT":"二段","MAREA":" ","LANE":"２０３巷","ALLEY":"１９弄","HOUSE_NO":"１７號","E_COORD97":171360.57000000001,"N_COORD97":2542633.3199999998,"ADDRESS":"中華東路二段２０３巷１９弄１７號","OBJECTID":195426},"geometry":{"x":171360.5700000003,"y":2542633.3200000022}},{"attributes":{"ID":195428,"DIS_CODE":0,"TOWNNAME":"新營區","LI":"太北里","LIN":"21鄰","STREET":" ","SECT":" ","MAREA":"太子宮","LANE":" ","ALLEY":" ","HOUSE_NO":"１５２號之１","E_COORD97":175277.76999999999,"N_COORD97":2577183.8399999999,"ADDRESS":"太子宮１５２號之１","OBJECTID":195427},"geometry":{"x":175277.76999999955,"y":2577183.8400000017}},{"attributes":{"ID":195429,"DIS_CODE":0,"TOWNNAME":"新營區","LI":"太北里","LIN":"21鄰","STREET":" ","SECT":" ","MAREA":"太子宮","LANE":" ","ALLEY":" ","HOUSE_NO":"１５２之８號","E_COORD97":175317.01999999999,"N_COORD97":2577186.9700000002,"ADDRESS":"太子宮１５２之８號","OBJECTID":195428},"geometry":{"x":175317.01999999955,"y":2577186.9700000025}},{"attributes":{"ID":195430,"DIS_CODE":0,"TOWNNAME":"新營區","LI":"太北里","LIN":"21鄰","STREET":" ","SECT":" ","MAREA":"太子宮","LANE":" ","ALLEY":" ","HOUSE_NO":"１５２之２號","E_COORD97":175283.25,"N_COORD97":2577183.8199999998,"ADDRESS":"太子宮１５２之２號","OBJECTID":195429},"geometry":{"x":175283.25,"y":2577183.820000004}},{"attributes":{"ID":195431,"DIS_CODE":0,"TOWNNAME":"新化區","LI":"礁坑里","LIN":"3鄰","STREET":" ","SECT":" ","MAREA":"九層嶺","LANE":" ","ALLEY":" ","HOUSE_NO":"８５號","E_COORD97":185040.98000000001,"N_COORD97":2547712.25,"ADDRESS":"九層嶺８５號","OBJECTID":195430},"geometry":{"x":185040.98000000138,"y":2547712.2500000019}},{"attributes":{"ID":195432,"DIS_CODE":0,"TOWNNAME":"新化區","LI":"\u25A0拔里","LIN":"3鄰","STREET":" ","SECT":" ","MAREA":"\u25A0拔林","LANE":" ","ALLEY":" ","HOUSE_NO":"１４８號之１","E_COORD97":183796.45000000001,"N_COORD97":2552143.2599999998,"ADDRESS":"\u25A0拔林１４８號之１","OBJECTID":195431},"geometry":{"x":183796.45000000112,"y":2552143.2600000016}},{"attributes":{"ID":195433,"DIS_CODE":0,"TOWNNAME":"新化區","LI":"\u25A0拔里","LIN":"3鄰","STREET":" ","SECT":" ","MAREA":"\u25A0拔林","LANE":" ","ALLEY":" ","HOUSE_NO":"１３２號","E_COORD97":183700.22,"N_COORD97":2552143.25,"ADDRESS":"\u25A0拔林１３２號","OBJECTID":195432},"geometry":{"x":183700.21999999974,"y":2552143.2500000019}},{"attributes":{"ID":195434,"DIS_CODE":0,"TOWNNAME":"新化區","LI":"北勢里","LIN":"3鄰","STREET":" ","SECT":" ","MAREA":"北勢","LANE":" ","ALLEY":" ","HOUSE_NO":"５９號之３","E_COORD97":177393.07999999999,"N_COORD97":2549592.2599999998,"ADDRESS":"北勢５９號之３","OBJECTID":195433},"geometry":{"x":177393.08000000101,"y":2549592.2599999998}},{"attributes":{"ID":195435,"DIS_CODE":0,"TOWNNAME":"新化區","LI":"知義里","LIN":"3鄰","STREET":" ","SECT":" ","MAREA":"知母義","LANE":" ","ALLEY":" ","HOUSE_NO":"１２３號之６","E_COORD97":179751.76999999999,"N_COORD97":2547218.2599999998,"ADDRESS":"知母義１２３號之６","OBJECTID":195434},"geometry":{"x":179751.76999999862,"y":2547218.2599999998}},{"attributes":{"ID":195436,"DIS_CODE":0,"TOWNNAME":"新化區","LI":"知義里","LIN":"3鄰","STREET":" ","SECT":" ","MAREA":"知母義","LANE":" ","ALLEY":" ","HOUSE_NO":"１１７號","E_COORD97":179833.22,"N_COORD97":2547131.25,"ADDRESS":"知母義１１７號","OBJECTID":195435},"geometry":{"x":179833.21999999974,"y":2547131.25}},{"attributes":{"ID":195437,"DIS_CODE":0,"TOWNNAME":"東區","LI":"自強里","LIN":"18鄰","STREET":"中華東路","SECT":"二段","MAREA":" ","LANE":"２０３巷","ALLEY":"１９弄","HOUSE_NO":"１８號","E_COORD97":171376.28,"N_COORD97":2542622.3900000001,"ADDRESS":"中華東路二段２０３巷１９弄１８號","OBJECTID":195436},"geometry":{"x":171376.28000000026,"y":2542622.3900000025}},{"attributes":{"ID":195438,"DIS_CODE":0,"TOWNNAME":"東區","LI":"自強里","LIN":"18鄰","STREET":"中華東路","SECT":"二段","MAREA":" ","LANE":"２０３巷","ALLEY":"１９弄","HOUSE_NO":"１９號","E_COORD97":171364.64000000001,"N_COORD97":2542633.5099999998,"ADDRESS":"中華東路二段２０３巷１９弄１９號","OBJECTID":195437},"geometry":{"x":171364.63999999966,"y":2542633.5099999998}},{"attributes":{"ID":195439,"DIS_CODE":0,"TOWNNAME":"東區","LI":"自強里","LIN":"18鄰","STREET":"中華東路","SECT":"二段","MAREA":" ","LANE":"２０３巷","ALLEY":"１９弄","HOUSE_NO":"１號","E_COORD97":171328.45000000001,"N_COORD97":2542632.9300000002,"ADDRESS":"中華東路二段２０３巷１９弄１號","OBJECTID":195438},"geometry":{"x":171328.45000000112,"y":2542632.9299999997}},{"attributes":{"ID":195440,"DIS_CODE":0,"TOWNNAME":"東區","LI":"自強里","LIN":"18鄰","STREET":"中華東路","SECT":"二段","MAREA":" ","LANE":"２０３巷","ALLEY":"１９弄","HOUSE_NO":"２０號","E_COORD97":171382.73000000001,"N_COORD97":2542622.8999999999,"ADDRESS":"中華東路二段２０３巷１９弄２０號","OBJECTID":195439},"geometry":{"x":171382.73000000138,"y":2542622.9000000022}},{"attributes":{"ID":195441,"DIS_CODE":0,"TOWNNAME":"東區","LI":"自強里","LIN":"18鄰","STREET":"中華東路","SECT":"二段","MAREA":" ","LANE":"２０３巷","ALLEY":"１９弄","HOUSE_NO":"２１號","E_COORD97":171368.89000000001,"N_COORD97":2542633.5099999998,"ADDRESS":"中華東路二段２０３巷１９弄２１號","OBJECTID":195440},"geometry":{"x":171368.8900000006,"y":2542633.5099999998}},{"attributes":{"ID":195442,"DIS_CODE":0,"TOWNNAME":"新營區","LI":"新東里","LIN":"21鄰","STREET":"東明街","SECT":" ","MAREA":" ","LANE":"５６巷","ALLEY":" ","HOUSE_NO":"１５號","E_COORD97":180841.82000000001,"N_COORD97":2579704.9900000002,"ADDRESS":"東明街５６巷１５號","OBJECTID":195441},"geometry":{"x":180841.8200000003,"y":2579704.9900000039}},{"attributes":{"ID":195443,"DIS_CODE":0,"TOWNNAME":"北區","LI":"成德里","LIN":"24鄰","STREET":"海安路","SECT":"三段","MAREA":" ","LANE":" ","ALLEY":" ","HOUSE_NO":"７４８號","E_COORD97":168103.17000000001,"N_COORD97":2546187.3300000001,"ADDRESS":"海安路三段７４８號","OBJECTID":195442},"geometry":{"x":168103.16999999993,"y":2546187.3300000001}},{"attributes":{"ID":195444,"DIS_CODE":0,"TOWNNAME":"北區","LI":"成德里","LIN":"24鄰","STREET":"海安路","SECT":"三段","MAREA":" ","LANE":" ","ALLEY":" ","HOUSE_NO":"７５０號","E_COORD97":168101.17000000001,"N_COORD97":2546206.3999999999,"ADDRESS":"海安路三段７５０號","OBJECTID":195443},"geometry":{"x":168101.16999999993,"y":2546206.4000000022}},{"attributes":{"ID":195445,"DIS_CODE":0,"TOWNNAME":"北區","LI":"成德里","LIN":"24鄰","STREET":"海安路","SECT":"三段","MAREA":" ","LANE":" ","ALLEY":" ","HOUSE_NO":"７５２號","E_COORD97":168096.26999999999,"N_COORD97":2546206.25,"ADDRESS":"海安路三段７５２號","OBJECTID":195444},"geometry":{"x":168096.27000000048,"y":2546206.2500000019}},{"attributes":{"ID":195446,"DIS_CODE":0,"TOWNNAME":"北區","LI":"成德里","LIN":"24鄰","STREET":"海安路","SECT":"三段","MAREA":" ","LANE":" ","ALLEY":" ","HOUSE_NO":"７５６號","E_COORD97":168092.53,"N_COORD97":2546205.8199999998,"ADDRESS":"海安路三段７５６號","OBJECTID":195445},"geometry":{"x":168092.53000000026,"y":2546205.820000004}},{"attributes":{"ID":195447,"DIS_CODE":0,"TOWNNAME":"北區","LI":"成德里","LIN":"24鄰","STREET":"海安路","SECT":"三段","MAREA":" ","LANE":" ","ALLEY":" ","HOUSE_NO":"７５８號","E_COORD97":168088.06,"N_COORD97":2546205.1000000001,"ADDRESS":"海安路三段７５８號","OBJECTID":195446},"geometry":{"x":168088.05999999959,"y":2546205.0999999996}},{"attributes":{"ID":195448,"DIS_CODE":0,"TOWNNAME":"西港區","LI":"西港里","LIN":"25鄰","STREET":" ","SECT":" ","MAREA":"堀子頭","LANE":" ","ALLEY":" ","HOUSE_NO":"３４號","E_COORD97":168624.70999999999,"N_COORD97":2557659.73,"ADDRESS":"堀子頭３４號","OBJECTID":195447},"geometry":{"x":168624.70999999996,"y":2557659.7300000023}},{"attributes":{"ID":195449,"DIS_CODE":0,"TOWNNAME":"東區","LI":"自強里","LIN":"18鄰","STREET":"中華東路","SECT":"二段","MAREA":" ","LANE":"２０３巷","ALLEY":"１９弄","HOUSE_NO":"２２號","E_COORD97":171390.98000000001,"N_COORD97":2542623.4100000001,"ADDRESS":"中華東路二段２０３巷１９弄２２號","OBJECTID":195448},"geometry":{"x":171390.98000000138,"y":2542623.4100000001}},{"attributes":{"ID":195450,"DIS_CODE":0,"TOWNNAME":"東山區","LI":"東原里","LIN":"21鄰","STREET":" ","SECT":" ","MAREA":"瓦厝子","LANE":" ","ALLEY":" ","HOUSE_NO":"５５號之２","E_COORD97":194438.62,"N_COORD97":2575731.6800000002,"ADDRESS":"瓦厝子５５號之２","OBJECTID":195449},"geometry":{"x":194438.62000000011,"y":2575731.6799999997}},{"attributes":{"ID":195451,"DIS_CODE":0,"TOWNNAME":"東區","LI":"自強里","LIN":"18鄰","STREET":"中華東路","SECT":"二段","MAREA":" ","LANE":"２０３巷","ALLEY":"１９弄","HOUSE_NO":"２３號","E_COORD97":171373.14999999999,"N_COORD97":2542633.71,"ADDRESS":"中華東路二段２０３巷１９弄２３號","OBJECTID":195450},"geometry":{"x":171373.1500000013,"y":2542633.7100000046}},{"attributes":{"ID":195452,"DIS_CODE":0,"TOWNNAME":"新化區","LI":"\u25A0拔里","LIN":"3鄰","STREET":" ","SECT":" ","MAREA":"\u25A0拔林","LANE":" ","ALLEY":" ","HOUSE_NO":"１５６號之３","E_COORD97":183989.76999999999,"N_COORD97":2552235.2599999998,"ADDRESS":"\u25A0拔林１５６號之３","OBJECTID":195451},"geometry":{"x":183989.77000000142,"y":2552235.2600000016}},{"attributes":{"ID":195453,"DIS_CODE":0,"TOWNNAME":"新化區","LI":"\u25A0拔里","LIN":"3鄰","STREET":" ","SECT":" ","MAREA":"\u25A0拔林","LANE":" ","ALLEY":" ","HOUSE_NO":"１１４號之１","E_COORD97":183588.85000000001,"N_COORD97":2552082.2599999998,"ADDRESS":"\u25A0拔林１１４號之１","OBJECTID":195452},"geometry":{"x":183588.84999999963,"y":2552082.2600000016}},{"attributes":{"ID":195454,"DIS_CODE":0,"TOWNNAME":"新化區","LI":"北勢里","LIN":"3鄰","STREET":" ","SECT":" ","MAREA":"北勢","LANE":" ","ALLEY":" ","HOUSE_NO":"６３號之２","E_COORD97":177407.89000000001,"N_COORD97":2549666.2599999998,"ADDRESS":"北勢６３號之２","OBJECTID":195453},"geometry":{"x":177407.88999999966,"y":2549666.2599999998}},{"attributes":{"ID":195455,"DIS_CODE":0,"TOWNNAME":"新營區","LI":"太北里","LIN":"21鄰","STREET":" ","SECT":" ","MAREA":"太子宮","LANE":" ","ALLEY":" ","HOUSE_NO":"１５２之２４號","E_COORD97":175317.82735899999,"N_COORD97":2577210.3263900001,"ADDRESS":"太子宮１５２之２４號","OBJECTID":195454},"geometry":{"x":175317.82735900115,"y":2577210.3263930026}},{"attributes":{"ID":195456,"DIS_CODE":0,"TOWNNAME":"東區","LI":"自強里","LIN":"18鄰","STREET":"中華東路","SECT":"二段","MAREA":" ","LANE":"２０３巷","ALLEY":"１９弄","HOUSE_NO":"２５號","E_COORD97":171376.44,"N_COORD97":2542634.0899999999,"ADDRESS":"中華東路二段２０３巷１９弄２５號","OBJECTID":195455},"geometry":{"x":171376.44000000134,"y":2542634.0900000017}},{"attributes":{"ID":195457,"DIS_CODE":0,"TOWNNAME":"東區","LI":"自強里","LIN":"18鄰","STREET":"中華東路","SECT":"二段","MAREA":" ","LANE":"２０３巷","ALLEY":"１９弄","HOUSE_NO":"２７號","E_COORD97":171381.28,"N_COORD97":2542634.6699999999,"ADDRESS":"中華東路二段２０３巷１９弄２７號","OBJECTID":195456},"geometry":{"x":171381.28000000026,"y":2542634.6699999999}},{"attributes":{"ID":195458,"DIS_CODE":0,"TOWNNAME":"東區","LI":"自強里","LIN":"18鄰","STREET":"中華東路","SECT":"二段","MAREA":" ","LANE":"２０３巷","ALLEY":"１９弄","HOUSE_NO":"２９號","E_COORD97":171385.73000000001,"N_COORD97":2542634.48,"ADDRESS":"中華東路二段２０３巷１９弄２９號","OBJECTID":195457},"geometry":{"x":171385.73000000231,"y":2542634.4800000004}},{"attributes":{"ID":195459,"DIS_CODE":0,"TOWNNAME":"東區","LI":"自強里","LIN":"18鄰","STREET":"中華東路","SECT":"二段","MAREA":" ","LANE":"２０３巷","ALLEY":"１９弄","HOUSE_NO":"３１號","E_COORD97":171389.20999999999,"N_COORD97":2542634.48,"ADDRESS":"中華東路二段２０３巷１９弄３１號","OBJECTID":195458},"geometry":{"x":171389.21000000089,"y":2542634.4800000004}},{"attributes":{"ID":195460,"DIS_CODE":0,"TOWNNAME":"東區","LI":"自強里","LIN":"18鄰","STREET":"中華東路","SECT":"二段","MAREA":" ","LANE":"２０３巷","ALLEY":"１９弄","HOUSE_NO":"３３號","E_COORD97":171393.67000000001,"N_COORD97":2542635.25,"ADDRESS":"中華東路二段２０３巷１９弄３３號","OBJECTID":195459},"geometry":{"x":171393.66999999993,"y":2542635.25}},{"attributes":{"ID":195461,"DIS_CODE":0,"TOWNNAME":"東區","LI":"自強里","LIN":"18鄰","STREET":"中華東路","SECT":"二段","MAREA":" ","LANE":"２０３巷","ALLEY":"１９弄","HOUSE_NO":"３５號","E_COORD97":171406.92000000001,"N_COORD97":2542639.1200000001,"ADDRESS":"中華東路二段２０３巷１９弄３５號","OBJECTID":195460},"geometry":{"x":171406.91999999993,"y":2542639.1200000029}},{"attributes":{"ID":195462,"DIS_CODE":0,"TOWNNAME":"東區","LI":"自強里","LIN":"18鄰","STREET":"中華東路","SECT":"二段","MAREA":" ","LANE":"２０３巷","ALLEY":"１９弄","HOUSE_NO":"３７號","E_COORD97":171408.28,"N_COORD97":2542645.1200000001,"ADDRESS":"中華東路二段２０３巷１９弄３７號","OBJECTID":195461},"geometry":{"x":171408.28000000026,"y":2542645.1200000029}},{"attributes":{"ID":195463,"DIS_CODE":0,"TOWNNAME":"永康區","LI":"西勢里","LIN":"18鄰","STREET":"富強路","SECT":"一段","MAREA":" ","LANE":"２巷","ALLEY":"８弄","HOUSE_NO":"４０號","E_COORD97":175481.57999999999,"N_COORD97":2545972.1200000001,"ADDRESS":"富強路一段２巷８弄４０號","OBJECTID":195462},"geometry":{"x":175481.58000000007,"y":2545972.1200000029}},{"attributes":{"ID":195464,"DIS_CODE":0,"TOWNNAME":"永康區","LI":"正強里","LIN":"18鄰","STREET":"自強路","SECT":" ","MAREA":" ","LANE":"１８８巷","ALLEY":"６２弄","HOUSE_NO":"２９號","E_COORD97":173149.17999999999,"N_COORD97":2547260.1600000001,"ADDRESS":"自強路１８８巷６２弄２９號","OBJECTID":195463},"geometry":{"x":173149.1799999997,"y":2547260.1600000001}},{"attributes":{"ID":195465,"DIS_CODE":0,"TOWNNAME":"永康區","LI":"西橋里","LIN":"18鄰","STREET":"大橋一街","SECT":" ","MAREA":" ","LANE":"３１巷","ALLEY":"６５弄","HOUSE_NO":"１號","E_COORD97":170602.01999999999,"N_COORD97":2546448,"ADDRESS":"大橋一街３１巷６５弄１號","OBJECTID":195464},"geometry":{"x":170602.02000000048,"y":2546448}},{"attributes":{"ID":195466,"DIS_CODE":0,"TOWNNAME":"永康區","LI":"西勢里","LIN":"18鄰","STREET":"富強路","SECT":"一段","MAREA":" ","LANE":"２巷","ALLEY":"８弄","HOUSE_NO":"１號","E_COORD97":175418.89999999999,"N_COORD97":2545970.77,"ADDRESS":"富強路一段２巷８弄１號","OBJECTID":195465},"geometry":{"x":175418.90000000224,"y":2545970.7699999996}},{"attributes":{"ID":195467,"DIS_CODE":0,"TOWNNAME":"新營區","LI":"王公里","LIN":"21鄰","STREET":"民族路","SECT":" ","MAREA":" ","LANE":"１５０巷","ALLEY":" ","HOUSE_NO":"３２號","E_COORD97":180541.57999999999,"N_COORD97":2579346.4900000002,"ADDRESS":"民族路１５０巷３２號","OBJECTID":195466},"geometry":{"x":180541.58000000007,"y":2579346.4900000021}},{"attributes":{"ID":195468,"DIS_CODE":0,"TOWNNAME":"安平區","LI":"怡平里","LIN":"15鄰","STREET":"文平路","SECT":" ","MAREA":" ","LANE":" ","ALLEY":" ","HOUSE_NO":"４６５號","E_COORD97":165800.60000000001,"N_COORD97":2543881.8500000001,"ADDRESS":"文平路４６５號","OBJECTID":195467},"geometry":{"x":165800.60000000056,"y":2543881.8499999996}},{"attributes":{"ID":195469,"DIS_CODE":0,"TOWNNAME":"安平區","LI":"怡平里","LIN":"15鄰","STREET":"文平路","SECT":" ","MAREA":" ","LANE":" ","ALLEY":" ","HOUSE_NO":"４６７號","E_COORD97":165801.17999999999,"N_COORD97":2543886.23,"ADDRESS":"文平路４６７號","OBJECTID":195468},"geometry":{"x":165801.18000000156,"y":2543886.2300000004}},{"attributes":{"ID":195470,"DIS_CODE":0,"TOWNNAME":"安平區","LI":"怡平里","LIN":"15鄰","STREET":"文平路","SECT":" ","MAREA":" ","LANE":" ","ALLEY":" ","HOUSE_NO":"４６９號","E_COORD97":165802.07999999999,"N_COORD97":2543891.0099999998,"ADDRESS":"文平路４６９號","OBJECTID":195469},"geometry":{"x":165802.08000000007,"y":2543891.0099999998}},{"attributes":{"ID":195471,"DIS_CODE":0,"TOWNNAME":"安平區","LI":"怡平里","LIN":"15鄰","STREET":"文平路","SECT":" ","MAREA":" ","LANE":" ","ALLEY":" ","HOUSE_NO":"４７１號","E_COORD97":165802.66,"N_COORD97":2543895.3900000001,"ADDRESS":"文平路４７１號","OBJECTID":195470},"geometry":{"x":165802.66000000108,"y":2543895.3900000006}},{"attributes":{"ID":195472,"DIS_CODE":0,"TOWNNAME":"安平區","LI":"怡平里","LIN":"15鄰","STREET":"文平路","SECT":" ","MAREA":" ","LANE":" ","ALLEY":" ","HOUSE_NO":"４７３號","E_COORD97":165802.95000000001,"N_COORD97":2543899.77,"ADDRESS":"文平路４７３號","OBJECTID":195471},"geometry":{"x":165802.95000000019,"y":2543899.7700000033}},{"attributes":{"ID":195473,"DIS_CODE":0,"TOWNNAME":"安平區","LI":"怡平里","LIN":"15鄰","STREET":"文平路","SECT":" ","MAREA":" ","LANE":" ","ALLEY":" ","HOUSE_NO":"４７５號","E_COORD97":165803.82999999999,"N_COORD97":2543903.8500000001,"ADDRESS":"文平路４７５號","OBJECTID":195472},"geometry":{"x":165803.83000000007,"y":2543903.8500000015}},{"attributes":{"ID":195474,"DIS_CODE":0,"TOWNNAME":"安平區","LI":"怡平里","LIN":"15鄰","STREET":"文平路","SECT":" ","MAREA":" ","LANE":" ","ALLEY":" ","HOUSE_NO":"４７７號","E_COORD97":165804.41,"N_COORD97":2543908.8100000001,"ADDRESS":"文平路４７７號","OBJECTID":195473},"geometry":{"x":165804.41000000015,"y":2543908.8100000024}},{"attributes":{"ID":195475,"DIS_CODE":0,"TOWNNAME":"安平區","LI":"怡平里","LIN":"15鄰","STREET":"文平路","SECT":" ","MAREA":" ","LANE":" ","ALLEY":" ","HOUSE_NO":"４８１號","E_COORD97":165805.29000000001,"N_COORD97":2543919.8999999999,"ADDRESS":"文平路４８１號","OBJECTID":195474},"geometry":{"x":165805.29000000004,"y":2543919.9000000004}},{"attributes":{"ID":195476,"DIS_CODE":0,"TOWNNAME":"安平區","LI":"怡平里","LIN":"15鄰","STREET":"文平路","SECT":" ","MAREA":" ","LANE":" ","ALLEY":" ","HOUSE_NO":"４８３號","E_COORD97":165806.17000000001,"N_COORD97":2543924.5699999998,"ADDRESS":"文平路４８３號","OBJECTID":195475},"geometry":{"x":165806.16999999993,"y":2543924.5700000003}},{"attributes":{"ID":195477,"DIS_CODE":0,"TOWNNAME":"安平區","LI":"怡平里","LIN":"15鄰","STREET":"文平路","SECT":" ","MAREA":" ","LANE":" ","ALLEY":" ","HOUSE_NO":"４８５號","E_COORD97":165807.04000000001,"N_COORD97":2543928.9500000002,"ADDRESS":"文平路４８５號","OBJECTID":195476},"geometry":{"x":165807.04000000004,"y":2543928.950000003}},{"attributes":{"ID":195478,"DIS_CODE":0,"TOWNNAME":"安平區","LI":"怡平里","LIN":"15鄰","STREET":"文平路","SECT":" ","MAREA":" ","LANE":" ","ALLEY":" ","HOUSE_NO":"４８７號","E_COORD97":165807.63,"N_COORD97":2543933.6200000001,"ADDRESS":"文平路４８７號","OBJECTID":195477},"geometry":{"x":165807.63000000082,"y":2543933.6200000029}},{"attributes":{"ID":195479,"DIS_CODE":0,"TOWNNAME":"永康區","LI":"尚頂里","LIN":"18鄰","STREET":"南台街","SECT":" ","MAREA":" ","LANE":"５４巷","ALLEY":"１８弄","HOUSE_NO":"２４號","E_COORD97":170393.29999999999,"N_COORD97":2547118.9900000002,"ADDRESS":"南台街５４巷１８弄２４號","OBJECTID":195478},"geometry":{"x":170393.30000000075,"y":2547118.9900000002}},{"attributes":{"ID":195480,"DIS_CODE":0,"TOWNNAME":"永康區","LI":"尚頂里","LIN":"18鄰","STREET":"南台街","SECT":" ","MAREA":" ","LANE":"５４巷","ALLEY":"１８弄","HOUSE_NO":"２２號","E_COORD97":170389.10000000001,"N_COORD97":2547117.9900000002,"ADDRESS":"南台街５４巷１８弄２２號","OBJECTID":195479},"geometry":{"x":170389.10000000056,"y":2547117.9900000021}},{"attributes":{"ID":195481,"DIS_CODE":0,"TOWNNAME":"永康區","LI":"尚頂里","LIN":"18鄰","STREET":"南台街","SECT":" ","MAREA":" ","LANE":"５４巷","ALLEY":"１８弄","HOUSE_NO":"２１號","E_COORD97":170385.70000000001,"N_COORD97":2547128.4900000002,"ADDRESS":"南台街５４巷１８弄２１號","OBJECTID":195480},"geometry":{"x":170385.70000000112,"y":2547128.4900000002}},{"attributes":{"ID":195482,"DIS_CODE":0,"TOWNNAME":"新營區","LI":"三仙里","LIN":"18鄰","STREET":"民權路","SECT":" ","MAREA":" ","LANE":" ","ALLEY":" ","HOUSE_NO":"１０１號","E_COORD97":179636.97,"N_COORD97":2578575.5499999998,"ADDRESS":"民權路１０１號","OBJECTID":195481},"geometry":{"x":179636.96999999974,"y":2578575.5500000007}},{"attributes":{"ID":195483,"DIS_CODE":0,"TOWNNAME":"新營區","LI":"民權里","LIN":"21鄰","STREET":"三民路","SECT":" ","MAREA":" ","LANE":" ","ALLEY":" ","HOUSE_NO":"９５之２號","E_COORD97":179715.22,"N_COORD97":2578429.0499999998,"ADDRESS":"三民路９５之２號","OBJECTID":195482},"geometry":{"x":179715.2200000016,"y":2578429.0500000007}},{"attributes":{"ID":195484,"DIS_CODE":0,"TOWNNAME":"東區","LI":"大同里","LIN":"18鄰","STREET":"府連路","SECT":" ","MAREA":" ","LANE":"２０４巷","ALLEY":"１７弄","HOUSE_NO":"１０號","E_COORD97":169364.01999999999,"N_COORD97":2542790.7799999998,"ADDRESS":"府連路２０４巷１７弄１０號","OBJECTID":195483},"geometry":{"x":169364.02000000048,"y":2542790.7799999975}},{"attributes":{"ID":195485,"DIS_CODE":0,"TOWNNAME":"東區","LI":"大同里","LIN":"18鄰","STREET":"府連路","SECT":" ","MAREA":" ","LANE":"２０４巷","ALLEY":"１７弄","HOUSE_NO":"１１號","E_COORD97":169356.73000000001,"N_COORD97":2542811.6800000002,"ADDRESS":"府連路２０４巷１７弄１１號","OBJECTID":195484},"geometry":{"x":169356.73000000138,"y":2542811.6799999997}},{"attributes":{"ID":195486,"DIS_CODE":0,"TOWNNAME":"東區","LI":"大同里","LIN":"18鄰","STREET":"府連路","SECT":" ","MAREA":" ","LANE":"２０４巷","ALLEY":"１７弄","HOUSE_NO":"１２號","E_COORD97":169369.07999999999,"N_COORD97":2542791.2200000002,"ADDRESS":"府連路２０４巷１７弄１２號","OBJECTID":195485},"geometry":{"x":169369.08000000194,"y":2542791.2200000007}},{"attributes":{"ID":195487,"DIS_CODE":0,"TOWNNAME":"東山區","LI":"聖賢里","LIN":"21鄰","STREET":" ","SECT":" ","MAREA":"北勢寮","LANE":" ","ALLEY":" ","HOUSE_NO":"７７號","E_COORD97":185068.89999999999,"N_COORD97":2579421.2400000002,"ADDRESS":"北勢寮７７號","OBJECTID":195486},"geometry":{"x":185068.90000000037,"y":2579421.2400000002}},{"attributes":{"ID":195488,"DIS_CODE":0,"TOWNNAME":"東山區","LI":"聖賢里","LIN":"21鄰","STREET":" ","SECT":" ","MAREA":"北勢寮","LANE":" ","ALLEY":" ","HOUSE_NO":"７８號","E_COORD97":185060.07999999999,"N_COORD97":2579404.1200000001,"ADDRESS":"北勢寮７８號","OBJECTID":195487},"geometry":{"x":185060.08000000101,"y":2579404.1200000029}},{"attributes":{"ID":195489,"DIS_CODE":0,"TOWNNAME":"東山區","LI":"聖賢里","LIN":"21鄰","STREET":" ","SECT":" ","MAREA":"北勢寮","LANE":" ","ALLEY":" ","HOUSE_NO":"８１號之１５","E_COORD97":185104.31,"N_COORD97":2579351.8599999999,"ADDRESS":"北勢寮８１號之１５","OBJECTID":195488},"geometry":{"x":185104.30999999959,"y":2579351.8599999994}},{"attributes":{"ID":195490,"DIS_CODE":0,"TOWNNAME":"東山區","LI":"聖賢里","LIN":"21鄰","STREET":" ","SECT":" ","MAREA":"北勢寮","LANE":" ","ALLEY":" ","HOUSE_NO":"８１號之１６","E_COORD97":185104.60000000001,"N_COORD97":2579356.1400000001,"ADDRESS":"北勢寮８１號之１６","OBJECTID":195489},"geometry":{"x":185104.59999999963,"y":2579356.1400000025}},{"attributes":{"ID":195491,"DIS_CODE":0,"TOWNNAME":"東山區","LI":"聖賢里","LIN":"21鄰","STREET":" ","SECT":" ","MAREA":"北勢寮","LANE":" ","ALLEY":" ","HOUSE_NO":"８１號之１７","E_COORD97":185104.89000000001,"N_COORD97":2579360.4199999999,"ADDRESS":"北勢寮８１號之１７","OBJECTID":195490},"geometry":{"x":185104.8900000006,"y":2579360.4200000018}},{"attributes":{"ID":195492,"DIS_CODE":0,"TOWNNAME":"東山區","LI":"聖賢里","LIN":"21鄰","STREET":" ","SECT":" ","MAREA":"北勢寮","LANE":" ","ALLEY":" ","HOUSE_NO":"８１號之１８","E_COORD97":185105.17999999999,"N_COORD97":2579364.7000000002,"ADDRESS":"北勢寮８１號之１８","OBJECTID":195491},"geometry":{"x":185105.1799999997,"y":2579364.7000000011}},{"attributes":{"ID":195493,"DIS_CODE":0,"TOWNNAME":"東山區","LI":"聖賢里","LIN":"21鄰","STREET":" ","SECT":" ","MAREA":"北勢寮","LANE":" ","ALLEY":" ","HOUSE_NO":"８１號之１９","E_COORD97":185105.47,"N_COORD97":2579368.9900000002,"ADDRESS":"北勢寮８１號之１９","OBJECTID":195492},"geometry":{"x":185105.46999999974,"y":2579368.9899999984}},{"attributes":{"ID":195494,"DIS_CODE":0,"TOWNNAME":"東山區","LI":"聖賢里","LIN":"21鄰","STREET":" ","SECT":" ","MAREA":"北勢寮","LANE":" ","ALLEY":" ","HOUSE_NO":"８１號之１","E_COORD97":185003.29999999999,"N_COORD97":2579319.1400000001,"ADDRESS":"北勢寮８１號之１","OBJECTID":195493},"geometry":{"x":185003.29999999981,"y":2579319.1400000025}},{"attributes":{"ID":195495,"DIS_CODE":0,"TOWNNAME":"東山區","LI":"東原里","LIN":"21鄰","STREET":" ","SECT":" ","MAREA":"瓦厝子","LANE":" ","ALLEY":" ","HOUSE_NO":"５５號","E_COORD97":194275.84,"N_COORD97":2575719.4399999999,"ADDRESS":"瓦厝子５５號","OBJECTID":195494},"geometry":{"x":194275.83999999985,"y":2575719.4399999995}},{"attributes":{"ID":195496,"DIS_CODE":0,"TOWNNAME":"東山區","LI":"東原里","LIN":"21鄰","STREET":" ","SECT":" ","MAREA":"瓦厝子","LANE":" ","ALLEY":" ","HOUSE_NO":"５６號之１","E_COORD97":194480.84,"N_COORD97":2575590.5600000001,"ADDRESS":"瓦厝子５６號之１","OBJECTID":195495},"geometry":{"x":194480.83999999985,"y":2575590.5600000005}},{"attributes":{"ID":195497,"DIS_CODE":0,"TOWNNAME":"東山區","LI":"東原里","LIN":"21鄰","STREET":" ","SECT":" ","MAREA":"瓦厝子","LANE":" ","ALLEY":" ","HOUSE_NO":"５６號之２","E_COORD97":194596.98000000001,"N_COORD97":2575560.8199999998,"ADDRESS":"瓦厝子５６號之２","OBJECTID":195496},"geometry":{"x":194596.98000000138,"y":2575560.8200000022}},{"attributes":{"ID":195498,"DIS_CODE":0,"TOWNNAME":"東區","LI":"大同里","LIN":"18鄰","STREET":"府連路","SECT":" ","MAREA":" ","LANE":"２０４巷","ALLEY":"１７弄","HOUSE_NO":"１３號","E_COORD97":169361.79000000001,"N_COORD97":2542813.46,"ADDRESS":"府連路２０４巷１７弄１３號","OBJECTID":195497},"geometry":{"x":169361.79000000004,"y":2542813.4600000009}},{"attributes":{"ID":195499,"DIS_CODE":0,"TOWNNAME":"東區","LI":"大同里","LIN":"18鄰","STREET":"府連路","SECT":" ","MAREA":" ","LANE":"２０４巷","ALLEY":"１７弄","HOUSE_NO":"１５號","E_COORD97":169368.92999999999,"N_COORD97":2542810.9300000002,"ADDRESS":"府連路２０４巷１７弄１５號","OBJECTID":195498},"geometry":{"x":169368.9299999997,"y":2542810.9300000016}},{"attributes":{"ID":195500,"DIS_CODE":0,"TOWNNAME":"東區","LI":"大同里","LIN":"18鄰","STREET":"府連路","SECT":" ","MAREA":" ","LANE":"２０４巷","ALLEY":"１７弄","HOUSE_NO":"１號","E_COORD97":169333.23000000001,"N_COORD97":2542806.77,"ADDRESS":"府連路２０４巷１７弄１號","OBJECTID":195499},"geometry":{"x":169333.23000000138,"y":2542806.7699999996}},{"attributes":{"ID":195501,"DIS_CODE":0,"TOWNNAME":"東區","LI":"大同里","LIN":"18鄰","STREET":"府連路","SECT":" ","MAREA":" ","LANE":"２０４巷","ALLEY":"１７弄","HOUSE_NO":"４號","E_COORD97":169344.82999999999,"N_COORD97":2542787.0600000001,"ADDRESS":"府連路２０４巷１７弄４號","OBJECTID":195500},"geometry":{"x":169344.83000000007,"y":2542787.0600000042}},{"attributes":{"ID":195502,"DIS_CODE":0,"TOWNNAME":"東區","LI":"大同里","LIN":"18鄰","STREET":"府連路","SECT":" ","MAREA":" ","LANE":"２０４巷","ALLEY":"１７弄","HOUSE_NO":"５號","E_COORD97":169343.20000000001,"N_COORD97":2542808.4100000001,"ADDRESS":"府連路２０４巷１７弄５號","OBJECTID":195501},"geometry":{"x":169343.20000000112,"y":2542808.410000002}},{"attributes":{"ID":195503,"DIS_CODE":0,"TOWNNAME":"東區","LI":"大同里","LIN":"18鄰","STREET":"府連路","SECT":" ","MAREA":" ","LANE":"２０４巷","ALLEY":"１７弄","HOUSE_NO":"６號","E_COORD97":169352.12,"N_COORD97":2542788.7000000002,"ADDRESS":"府連路２０４巷１７弄６號","OBJECTID":195502},"geometry":{"x":169352.12000000104,"y":2542788.7000000011}},{"attributes":{"ID":195504,"DIS_CODE":0,"TOWNNAME":"東區","LI":"大同里","LIN":"18鄰","STREET":"府連路","SECT":" ","MAREA":" ","LANE":"２０４巷","ALLEY":"１７弄","HOUSE_NO":"７號","E_COORD97":169347.20999999999,"N_COORD97":2542810.6400000001,"ADDRESS":"府連路２０４巷１７弄７號","OBJECTID":195503},"geometry":{"x":169347.20999999996,"y":2542810.6400000025}},{"attributes":{"ID":195505,"DIS_CODE":0,"TOWNNAME":"安定區","LI":"港尾里","LIN":"3鄰","STREET":" ","SECT":" ","MAREA":"港子尾","LANE":" ","ALLEY":" ","HOUSE_NO":"５號","E_COORD97":171576.34,"N_COORD97":2556192.25,"ADDRESS":"港子尾５號","OBJECTID":195504},"geometry":{"x":171576.34000000078,"y":2556192.2500000019}},{"attributes":{"ID":195506,"DIS_CODE":0,"TOWNNAME":"東區","LI":"大同里","LIN":"18鄰","STREET":"府連路","SECT":" ","MAREA":" ","LANE":"２０４巷","ALLEY":"１７弄","HOUSE_NO":"８號","E_COORD97":169360,"N_COORD97":2542790.3300000001,"ADDRESS":"府連路２０４巷１７弄８號","OBJECTID":195505},"geometry":{"x":169360.00000000093,"y":2542790.3300000001}},{"attributes":{"ID":195507,"DIS_CODE":0,"TOWNNAME":"東區","LI":"大同里","LIN":"18鄰","STREET":"府連路","SECT":" ","MAREA":" ","LANE":"２０４巷","ALLEY":"１７弄","HOUSE_NO":"９號","E_COORD97":169352.12,"N_COORD97":2542810.79,"ADDRESS":"府連路２０４巷１７弄９號","OBJECTID":195506},"geometry":{"x":169352.12000000104,"y":2542810.7899999972}},{"attributes":{"ID":195508,"DIS_CODE":0,"TOWNNAME":"東區","LI":"大同里","LIN":"18鄰","STREET":"府連路","SECT":" ","MAREA":" ","LANE":"２０４巷","ALLEY":"２９弄","HOUSE_NO":"１１號","E_COORD97":169362.98000000001,"N_COORD97":2542777.5499999998,"ADDRESS":"府連路２０４巷２９弄１１號","OBJECTID":195507},"geometry":{"x":169362.98000000045,"y":2542777.5500000026}},{"attributes":{"ID":195509,"DIS_CODE":0,"TOWNNAME":"東區","LI":"大同里","LIN":"18鄰","STREET":"府連路","SECT":" ","MAREA":" ","LANE":"２０４巷","ALLEY":"２９弄","HOUSE_NO":"１３號","E_COORD97":169368.32999999999,"N_COORD97":2542778.7400000002,"ADDRESS":"府連路２０４巷２９弄１３號","OBJECTID":195508},"geometry":{"x":169368.33000000007,"y":2542778.7400000039}},{"attributes":{"ID":195510,"DIS_CODE":0,"TOWNNAME":"東區","LI":"大同里","LIN":"18鄰","STREET":"府連路","SECT":" ","MAREA":" ","LANE":"２０４巷","ALLEY":"２９弄","HOUSE_NO":"１號","E_COORD97":169342.60000000001,"N_COORD97":2542769.9700000002,"ADDRESS":"府連路２０４巷２９弄１號","OBJECTID":195509},"geometry":{"x":169342.59999999963,"y":2542769.9700000007}},{"attributes":{"ID":195511,"DIS_CODE":0,"TOWNNAME":"東區","LI":"大同里","LIN":"18鄰","STREET":"府連路","SECT":" ","MAREA":" ","LANE":"２０４巷","ALLEY":"２９弄","HOUSE_NO":"３號","E_COORD97":169346.32000000001,"N_COORD97":2542773.3900000001,"ADDRESS":"府連路２０４巷２９弄３號","OBJECTID":195510},"geometry":{"x":169346.32000000123,"y":2542773.3900000006}},{"attributes":{"ID":195512,"DIS_CODE":0,"TOWNNAME":"東區","LI":"大同里","LIN":"18鄰","STREET":"府連路","SECT":" ","MAREA":" ","LANE":"２０４巷","ALLEY":"２９弄","HOUSE_NO":"５號","E_COORD97":169350.19,"N_COORD97":2542772.2000000002,"ADDRESS":"府連路２０４巷２９弄５號","OBJECTID":195511},"geometry":{"x":169350.19000000134,"y":2542772.2000000011}},{"attributes":{"ID":195513,"DIS_CODE":0,"TOWNNAME":"東區","LI":"大同里","LIN":"18鄰","STREET":"府連路","SECT":" ","MAREA":" ","LANE":"２０４巷","ALLEY":"２９弄","HOUSE_NO":"７號","E_COORD97":169353.60999999999,"N_COORD97":2542775.4700000002,"ADDRESS":"府連路２０４巷２９弄７號","OBJECTID":195512},"geometry":{"x":169353.61000000034,"y":2542775.4700000025}},{"attributes":{"ID":195514,"DIS_CODE":0,"TOWNNAME":"東區","LI":"大同里","LIN":"18鄰","STREET":"府連路","SECT":" ","MAREA":" ","LANE":"２０４巷","ALLEY":"２９弄","HOUSE_NO":"９號","E_COORD97":169357.92000000001,"N_COORD97":2542775.6200000001,"ADDRESS":"府連路２０４巷２９弄９號","OBJECTID":195513},"geometry":{"x":169357.91999999899,"y":2542775.620000001}},{"attributes":{"ID":195515,"DIS_CODE":0,"TOWNNAME":"東區","LI":"復興里","LIN":"18鄰","STREET":"東成街","SECT":" ","MAREA":" ","LANE":"１３１巷","ALLEY":"１２弄","HOUSE_NO":"１１號","E_COORD97":171731.39999999999,"N_COORD97":2542375.8700000001,"ADDRESS":"東成街１３１巷１２弄１１號","OBJECTID":195514},"geometry":{"x":171731.40000000037,"y":2542375.8700000029}},{"attributes":{"ID":195516,"DIS_CODE":0,"TOWNNAME":"東區","LI":"復興里","LIN":"18鄰","STREET":"東成街","SECT":" ","MAREA":" ","LANE":"１３１巷","ALLEY":"１２弄","HOUSE_NO":"１３號","E_COORD97":171735.39000000001,"N_COORD97":2542374.2799999998,"ADDRESS":"東成街１３１巷１２弄１３號","OBJECTID":195515},"geometry":{"x":171735.3900000006,"y":2542374.2800000012}},{"attributes":{"ID":195517,"DIS_CODE":0,"TOWNNAME":"東區","LI":"復興里","LIN":"18鄰","STREET":"東成街","SECT":" ","MAREA":" ","LANE":"１３１巷","ALLEY":"１２弄","HOUSE_NO":"１５號","E_COORD97":171739.37,"N_COORD97":2542377.0600000001,"ADDRESS":"東成街１３１巷１２弄１５號","OBJECTID":195516},"geometry":{"x":171739.37000000104,"y":2542377.0600000024}},{"attributes":{"ID":195518,"DIS_CODE":0,"TOWNNAME":"東區","LI":"復興里","LIN":"18鄰","STREET":"東成街","SECT":" ","MAREA":" ","LANE":"１３１巷","ALLEY":"１２弄","HOUSE_NO":"１７號","E_COORD97":171743.75,"N_COORD97":2542374.2799999998,"ADDRESS":"東成街１３１巷１２弄１７號","OBJECTID":195517},"geometry":{"x":171743.75,"y":2542374.2800000012}},{"attributes":{"ID":195519,"DIS_CODE":0,"TOWNNAME":"六甲區","LI":"中社里","LIN":"2鄰","STREET":" ","SECT":" ","MAREA":"中社","LANE":" ","ALLEY":" ","HOUSE_NO":"３８號","E_COORD97":181142.97,"N_COORD97":2570912.1200000001,"ADDRESS":"中社３８號","OBJECTID":195518},"geometry":{"x":181142.97000000067,"y":2570912.120000001}},{"attributes":{"ID":195520,"DIS_CODE":0,"TOWNNAME":"東區","LI":"復興里","LIN":"18鄰","STREET":"東成街","SECT":" ","MAREA":" ","LANE":"１３１巷","ALLEY":"１２弄","HOUSE_NO":"１９號","E_COORD97":171747.73000000001,"N_COORD97":2542373.8799999999,"ADDRESS":"東成街１３１巷１２弄１９號","OBJECTID":195519},"geometry":{"x":171747.73000000045,"y":2542373.8800000008}},{"attributes":{"ID":195521,"DIS_CODE":0,"TOWNNAME":"東區","LI":"復興里","LIN":"18鄰","STREET":"東成街","SECT":" ","MAREA":" ","LANE":"１３１巷","ALLEY":"１２弄","HOUSE_NO":"１號","E_COORD97":171710.29999999999,"N_COORD97":2542375.8700000001,"ADDRESS":"東成街１３１巷１２弄１號","OBJECTID":195520},"geometry":{"x":171710.30000000075,"y":2542375.8700000029}},{"attributes":{"ID":195522,"DIS_CODE":0,"TOWNNAME":"安平區","LI":"怡平里","LIN":"15鄰","STREET":"文平路","SECT":" ","MAREA":" ","LANE":" ","ALLEY":" ","HOUSE_NO":"４８９號","E_COORD97":165808.20999999999,"N_COORD97":2543938.29,"ADDRESS":"文平路４８９號","OBJECTID":195521},"geometry":{"x":165808.21000000089,"y":2543938.2899999991}},{"attributes":{"ID":195523,"DIS_CODE":0,"TOWNNAME":"東區","LI":"復興里","LIN":"18鄰","STREET":"東成街","SECT":" ","MAREA":" ","LANE":"１３１巷","ALLEY":"１２弄","HOUSE_NO":"２１號","E_COORD97":171752.10999999999,"N_COORD97":2542377.46,"ADDRESS":"東成街１３１巷１２弄２１號","OBJECTID":195522},"geometry":{"x":171752.11000000034,"y":2542377.4600000009}},{"attributes":{"ID":195524,"DIS_CODE":0,"TOWNNAME":"東區","LI":"復興里","LIN":"18鄰","STREET":"東成街","SECT":" ","MAREA":" ","LANE":"１３１巷","ALLEY":"１２弄","HOUSE_NO":"２３號","E_COORD97":171756.09,"N_COORD97":2542375.8700000001,"ADDRESS":"東成街１３１巷１２弄２３號","OBJECTID":195523},"geometry":{"x":171756.09000000078,"y":2542375.8700000029}},{"attributes":{"ID":195525,"DIS_CODE":0,"TOWNNAME":"東區","LI":"復興里","LIN":"18鄰","STREET":"東成街","SECT":" ","MAREA":" ","LANE":"１３１巷","ALLEY":"１２弄","HOUSE_NO":"２５號","E_COORD97":171760.47,"N_COORD97":2542378.2599999998,"ADDRESS":"東成街１３１巷１２弄２５號","OBJECTID":195524},"geometry":{"x":171760.46999999974,"y":2542378.2600000016}},{"attributes":{"ID":195526,"DIS_CODE":0,"TOWNNAME":"東區","LI":"復興里","LIN":"18鄰","STREET":"東成街","SECT":" ","MAREA":" ","LANE":"１３１巷","ALLEY":"１２弄","HOUSE_NO":"２９號","E_COORD97":171768.44,"N_COORD97":2542377.46,"ADDRESS":"東成街１３１巷１２弄２９號","OBJECTID":195525},"geometry":{"x":171768.44000000041,"y":2542377.4600000009}},{"attributes":{"ID":195527,"DIS_CODE":0,"TOWNNAME":"東區","LI":"復興里","LIN":"18鄰","STREET":"東成街","SECT":" ","MAREA":" ","LANE":"１３１巷","ALLEY":"１２弄","HOUSE_NO":"３１號","E_COORD97":171772.01999999999,"N_COORD97":2542373.48,"ADDRESS":"東成街１３１巷１２弄３１號","OBJECTID":195526},"geometry":{"x":171772.01999999955,"y":2542373.4799999986}},{"attributes":{"ID":195528,"DIS_CODE":0,"TOWNNAME":"東區","LI":"復興里","LIN":"18鄰","STREET":"東成街","SECT":" ","MAREA":" ","LANE":"１３１巷","ALLEY":"１２弄","HOUSE_NO":"３３號","E_COORD97":171776.79999999999,"N_COORD97":2542377.46,"ADDRESS":"東成街１３１巷１２弄３３號","OBJECTID":195527},"geometry":{"x":171776.80000000075,"y":2542377.4600000009}},{"attributes":{"ID":195529,"DIS_CODE":0,"TOWNNAME":"東區","LI":"復興里","LIN":"18鄰","STREET":"東成街","SECT":" ","MAREA":" ","LANE":"１３１巷","ALLEY":"１２弄","HOUSE_NO":"３５號","E_COORD97":171780.78,"N_COORD97":2542376.6600000001,"ADDRESS":"東成街１３１巷１２弄３５號","OBJECTID":195528},"geometry":{"x":171780.78000000119,"y":2542376.660000002}},{"attributes":{"ID":195530,"DIS_CODE":0,"TOWNNAME":"東區","LI":"復興里","LIN":"18鄰","STREET":"東成街","SECT":" ","MAREA":" ","LANE":"１３１巷","ALLEY":"１２弄","HOUSE_NO":"３７號","E_COORD97":171783.97,"N_COORD97":2542372.6899999999,"ADDRESS":"東成街１３１巷１２弄３７號","OBJECTID":195529},"geometry":{"x":171783.97000000067,"y":2542372.6900000013}},{"attributes":{"ID":195531,"DIS_CODE":0,"TOWNNAME":"東區","LI":"復興里","LIN":"18鄰","STREET":"東成街","SECT":" ","MAREA":" ","LANE":"１３１巷","ALLEY":"１２弄","HOUSE_NO":"３號","E_COORD97":171714.67999999999,"N_COORD97":2542374.2799999998,"ADDRESS":"東成街１３１巷１２弄３號","OBJECTID":195530},"geometry":{"x":171714.68000000063,"y":2542374.2800000012}},{"attributes":{"ID":195532,"DIS_CODE":0,"TOWNNAME":"北區","LI":"成德里","LIN":"21鄰","STREET":"中華北路","SECT":"二段","MAREA":" ","LANE":" ","ALLEY":" ","HOUSE_NO":"２２７號","E_COORD97":168520.56,"N_COORD97":2546893.0899999999,"ADDRESS":"中華北路二段２２７號","OBJECTID":195531},"geometry":{"x":168520.55999999959,"y":2546893.0900000017}},{"attributes":{"ID":195533,"DIS_CODE":0,"TOWNNAME":"北區","LI":"成德里","LIN":"21鄰","STREET":"中華北路","SECT":"二段","MAREA":" ","LANE":" ","ALLEY":" ","HOUSE_NO":"２３３號","E_COORD97":168545.64000000001,"N_COORD97":2546899.4399999999,"ADDRESS":"中華北路二段２３３號","OBJECTID":195532},"geometry":{"x":168545.63999999966,"y":2546899.4400000013}},{"attributes":{"ID":195534,"DIS_CODE":0,"TOWNNAME":"北區","LI":"成德里","LIN":"21鄰","STREET":"中華北路","SECT":"二段","MAREA":" ","LANE":" ","ALLEY":" ","HOUSE_NO":"２３７號","E_COORD97":168567.54999999999,"N_COORD97":2546901.6600000001,"ADDRESS":"中華北路二段２３７號","OBJECTID":195533},"geometry":{"x":168567.55000000075,"y":2546901.6600000039}},{"attributes":{"ID":195535,"DIS_CODE":0,"TOWNNAME":"北區","LI":"成德里","LIN":"21鄰","STREET":"文成五街","SECT":" ","MAREA":" ","LANE":" ","ALLEY":" ","HOUSE_NO":"２７之１號","E_COORD97":168545.67999999999,"N_COORD97":2546574.2400000002,"ADDRESS":"文成五街２７之１號","OBJECTID":195534},"geometry":{"x":168545.68000000156,"y":2546574.2400000002}},{"attributes":{"ID":195536,"DIS_CODE":0,"TOWNNAME":"北區","LI":"成德里","LIN":"21鄰","STREET":"北安路","SECT":"一段","MAREA":" ","LANE":" ","ALLEY":" ","HOUSE_NO":"１９１號","E_COORD97":168789.45999999999,"N_COORD97":2546500.1699999999,"ADDRESS":"北安路一段１９１號","OBJECTID":195535},"geometry":{"x":168789.45999999996,"y":2546500.1699999999}},{"attributes":{"ID":195537,"DIS_CODE":0,"TOWNNAME":"新化區","LI":"北勢里","LIN":"3鄰","STREET":" ","SECT":" ","MAREA":"北勢","LANE":" ","ALLEY":" ","HOUSE_NO":"６２號之４","E_COORD97":177377.87,"N_COORD97":2549666.2599999998,"ADDRESS":"北勢６２號之４","OBJECTID":195536},"geometry":{"x":177377.87000000011,"y":2549666.2599999998}},{"attributes":{"ID":195538,"DIS_CODE":0,"TOWNNAME":"新化區","LI":"山\u25A0里","LIN":"3鄰","STREET":" ","SECT":" ","MAREA":"頂山\u25A0","LANE":" ","ALLEY":" ","HOUSE_NO":"９８號","E_COORD97":179655.57999999999,"N_COORD97":2546661.25,"ADDRESS":"頂山\u25A0９８號","OBJECTID":195537},"geometry":{"x":179655.58000000101,"y":2546661.2500000019}},{"attributes":{"ID":195539,"DIS_CODE":0,"TOWNNAME":"新化區","LI":"礁坑里","LIN":"3鄰","STREET":" ","SECT":" ","MAREA":"九層嶺","LANE":" ","ALLEY":" ","HOUSE_NO":"７７號","E_COORD97":185085.38,"N_COORD97":2547810.25,"ADDRESS":"九層嶺７７號","OBJECTID":195538},"geometry":{"x":185085.37999999989,"y":2547810.2500000019}},{"attributes":{"ID":195540,"DIS_CODE":0,"TOWNNAME":"新化區","LI":"知義里","LIN":"3鄰","STREET":" ","SECT":" ","MAREA":"知母義","LANE":" ","ALLEY":" ","HOUSE_NO":"１２８號之１","E_COORD97":179749.85000000001,"N_COORD97":2547160.2599999998,"ADDRESS":"知母義１２８號之１","OBJECTID":195539},"geometry":{"x":179749.85000000056,"y":2547160.2599999998}},{"attributes":{"ID":195541,"DIS_CODE":0,"TOWNNAME":"新化區","LI":"北勢里","LIN":"3鄰","STREET":" ","SECT":" ","MAREA":"北勢","LANE":" ","ALLEY":" ","HOUSE_NO":"６２號之２","E_COORD97":177371.19,"N_COORD97":2549659.2599999998,"ADDRESS":"北勢６２號之２","OBJECTID":195540},"geometry":{"x":177371.19000000041,"y":2549659.2599999998}},{"attributes":{"ID":195542,"DIS_CODE":0,"TOWNNAME":"新化區","LI":"\u25A0拔里","LIN":"3鄰","STREET":" ","SECT":" ","MAREA":"\u25A0拔林","LANE":" ","ALLEY":" ","HOUSE_NO":"１１６號","E_COORD97":183629.72,"N_COORD97":2552088.25,"ADDRESS":"\u25A0拔林１１６號","OBJECTID":195541},"geometry":{"x":183629.72000000067,"y":2552088.2500000037}},{"attributes":{"ID":195543,"DIS_CODE":0,"TOWNNAME":"新化區","LI":"\u25A0拔里","LIN":"3鄰","STREET":" ","SECT":" ","MAREA":"\u25A0拔林","LANE":" ","ALLEY":" ","HOUSE_NO":"１５０號","E_COORD97":183817.22,"N_COORD97":2552152.25,"ADDRESS":"\u25A0拔林１５０號","OBJECTID":195542},"geometry":{"x":183817.21999999974,"y":2552152.25}},{"attributes":{"ID":195544,"DIS_CODE":0,"TOWNNAME":"新化區","LI":"知義里","LIN":"3鄰","STREET":" ","SECT":" ","MAREA":"知母義","LANE":" ","ALLEY":" ","HOUSE_NO":"１２７號之７","E_COORD97":179696.26999999999,"N_COORD97":2547121.2599999998,"ADDRESS":"知母義１２７號之７","OBJECTID":195543},"geometry":{"x":179696.27000000048,"y":2547121.2600000035}},{"attributes":{"ID":195545,"DIS_CODE":0,"TOWNNAME":"新化區","LI":"礁坑里","LIN":"3鄰","STREET":" ","SECT":" ","MAREA":"九層嶺","LANE":" ","ALLEY":" ","HOUSE_NO":"７５號","E_COORD97":185303.38,"N_COORD97":2547673.25,"ADDRESS":"九層嶺７５號","OBJECTID":195544},"geometry":{"x":185303.38000000082,"y":2547673.25}},{"attributes":{"ID":195546,"DIS_CODE":0,"TOWNNAME":"新化區","LI":"\u25A0拔里","LIN":"3鄰","STREET":" ","SECT":" ","MAREA":"\u25A0拔林","LANE":" ","ALLEY":" ","HOUSE_NO":"１５６號之４","E_COORD97":183957.76000000001,"N_COORD97":2552234.2599999998,"ADDRESS":"\u25A0拔林１５６號之４","OBJECTID":195545},"geometry":{"x":183957.75999999978,"y":2552234.2600000016}},{"attributes":{"ID":195547,"DIS_CODE":0,"TOWNNAME":"新化區","LI":"\u25A0拔里","LIN":"3鄰","STREET":" ","SECT":" ","MAREA":"\u25A0拔林","LANE":" ","ALLEY":" ","HOUSE_NO":"１５４號之１","E_COORD97":183917.64999999999,"N_COORD97":2552172.25,"ADDRESS":"\u25A0拔林１５４號之１","OBJECTID":195546},"geometry":{"x":183917.6500000013,"y":2552172.25}},{"attributes":{"ID":195548,"DIS_CODE":0,"TOWNNAME":"新化區","LI":"\u25A0拔里","LIN":"3鄰","STREET":" ","SECT":" ","MAREA":"\u25A0拔林","LANE":" ","ALLEY":" ","HOUSE_NO":"１５６號之１４","E_COORD97":183964.41,"N_COORD97":2552253.2599999998,"ADDRESS":"\u25A0拔林１５６號之１４","OBJECTID":195547},"geometry":{"x":183964.41000000108,"y":2552253.2599999998}},{"attributes":{"ID":195549,"DIS_CODE":0,"TOWNNAME":"新化區","LI":"知義里","LIN":"3鄰","STREET":" ","SECT":" ","MAREA":"知母義","LANE":" ","ALLEY":" ","HOUSE_NO":"１２５號之３","E_COORD97":179749.37,"N_COORD97":2547165.2599999998,"ADDRESS":"知母義１２５號之３","OBJECTID":195548},"geometry":{"x":179749.37000000011,"y":2547165.2600000035}},{"attributes":{"ID":195550,"DIS_CODE":0,"TOWNNAME":"新化區","LI":"礁坑里","LIN":"3鄰","STREET":" ","SECT":" ","MAREA":"九層嶺","LANE":" ","ALLEY":" ","HOUSE_NO":"３６號","E_COORD97":185412.13877799999,"N_COORD97":2548443.6838600002,"ADDRESS":"九層嶺３６號","OBJECTID":195549},"geometry":{"x":185412.13877800107,"y":2548443.6838560011}},{"attributes":{"ID":195551,"DIS_CODE":0,"TOWNNAME":"新化區","LI":"北勢里","LIN":"3鄰","STREET":" ","SECT":" ","MAREA":"北勢","LANE":" ","ALLEY":" ","HOUSE_NO":"６２號之１０","E_COORD97":177395.72,"N_COORD97":2549682.2599999998,"ADDRESS":"北勢６２號之１０","OBJECTID":195550},"geometry":{"x":177395.71999999974,"y":2549682.2600000016}},{"attributes":{"ID":195552,"DIS_CODE":0,"TOWNNAME":"新化區","LI":"礁坑里","LIN":"3鄰","STREET":" ","SECT":" ","MAREA":"九層嶺","LANE":" ","ALLEY":" ","HOUSE_NO":"６７號","E_COORD97":185165.47160700001,"N_COORD97":2547498.4874700001,"ADDRESS":"九層嶺６７號","OBJECTID":195551},"geometry":{"x":185165.4716070015,"y":2547498.4874690007}},{"attributes":{"ID":195553,"DIS_CODE":0,"TOWNNAME":"新化區","LI":"山\u25A0里","LIN":"3鄰","STREET":" ","SECT":" ","MAREA":"頂山\u25A0","LANE":" ","ALLEY":" ","HOUSE_NO":"９８號之１","E_COORD97":179652.01000000001,"N_COORD97":2546645.2599999998,"ADDRESS":"頂山\u25A0９８號之１","OBJECTID":195552},"geometry":{"x":179652.00999999885,"y":2546645.2599999998}},{"attributes":{"ID":195554,"DIS_CODE":0,"TOWNNAME":"新化區","LI":"知義里","LIN":"3鄰","STREET":" ","SECT":" ","MAREA":"知母義","LANE":" ","ALLEY":" ","HOUSE_NO":"１１５號","E_COORD97":179861.92000000001,"N_COORD97":2547123.25,"ADDRESS":"知母義１１５號","OBJECTID":195553},"geometry":{"x":179861.92000000086,"y":2547123.25}},{"attributes":{"ID":195555,"DIS_CODE":0,"TOWNNAME":"新化區","LI":"\u25A0拔里","LIN":"3鄰","STREET":" ","SECT":" ","MAREA":"\u25A0拔林","LANE":" ","ALLEY":" ","HOUSE_NO":"１４９號之１","E_COORD97":183823.54999999999,"N_COORD97":2552126.2599999998,"ADDRESS":"\u25A0拔林１４９號之１","OBJECTID":195554},"geometry":{"x":183823.54999999981,"y":2552126.2600000016}},{"attributes":{"ID":195556,"DIS_CODE":0,"TOWNNAME":"東區","LI":"復興里","LIN":"18鄰","STREET":"東成街","SECT":" ","MAREA":" ","LANE":"１３１巷","ALLEY":"１２弄","HOUSE_NO":"５號","E_COORD97":171719.06,"N_COORD97":2542373.8799999999,"ADDRESS":"東成街１３１巷１２弄５號","OBJECTID":195555},"geometry":{"x":171719.05999999959,"y":2542373.8800000008}},{"attributes":{"ID":195557,"DIS_CODE":0,"TOWNNAME":"東區","LI":"復興里","LIN":"18鄰","STREET":"東成街","SECT":" ","MAREA":" ","LANE":"１３１巷","ALLEY":"１２弄","HOUSE_NO":"７號","E_COORD97":171722.64000000001,"N_COORD97":2542377.46,"ADDRESS":"東成街１３１巷１２弄７號","OBJECTID":195556},"geometry":{"x":171722.63999999873,"y":2542377.4600000009}},{"attributes":{"ID":195558,"DIS_CODE":0,"TOWNNAME":"東區","LI":"復興里","LIN":"18鄰","STREET":"東成街","SECT":" ","MAREA":" ","LANE":"１３１巷","ALLEY":"１２弄","HOUSE_NO":"９號","E_COORD97":171726.62,"N_COORD97":2542374.6800000002,"ADDRESS":"東成街１３１巷１２弄９號","OBJECTID":195557},"geometry":{"x":171726.61999999918,"y":2542374.6799999997}},{"attributes":{"ID":195559,"DIS_CODE":0,"TOWNNAME":"東區","LI":"復興里","LIN":"18鄰","STREET":"自由路","SECT":"三段","MAREA":" ","LANE":"１５５巷","ALLEY":" ","HOUSE_NO":"２９號","E_COORD97":171725.42999999999,"N_COORD97":2542394.1600000001,"ADDRESS":"自由路三段１５５巷２９號","OBJECTID":195558},"geometry":{"x":171725.4299999997,"y":2542394.160000002}},{"attributes":{"ID":195560,"DIS_CODE":0,"TOWNNAME":"鹽水區","LI":"歡雅里","LIN":"21鄰","STREET":" ","SECT":" ","MAREA":"下寮","LANE":" ","ALLEY":" ","HOUSE_NO":"２號","E_COORD97":172531.76999999999,"N_COORD97":2575225.1000000001,"ADDRESS":"下寮２號","OBJECTID":195559},"geometry":{"x":172531.76999999955,"y":2575225.1000000034}},{"attributes":{"ID":195561,"DIS_CODE":0,"TOWNNAME":"鹽水區","LI":"歡雅里","LIN":"21鄰","STREET":" ","SECT":" ","MAREA":"下寮","LANE":" ","ALLEY":" ","HOUSE_NO":"３號","E_COORD97":172513.81,"N_COORD97":2575216.3100000001,"ADDRESS":"下寮３號","OBJECTID":195560},"geometry":{"x":172513.81000000052,"y":2575216.3100000005}},{"attributes":{"ID":195562,"DIS_CODE":0,"TOWNNAME":"鹽水區","LI":"歡雅里","LIN":"21鄰","STREET":" ","SECT":" ","MAREA":"下寮","LANE":" ","ALLEY":" ","HOUSE_NO":"４之２號","E_COORD97":172489.76000000001,"N_COORD97":2575237.3100000001,"ADDRESS":"下寮４之２號","OBJECTID":195561},"geometry":{"x":172489.75999999978,"y":2575237.3100000005}},{"attributes":{"ID":195563,"DIS_CODE":0,"TOWNNAME":"鹽水區","LI":"歡雅里","LIN":"21鄰","STREET":" ","SECT":" ","MAREA":"下寮","LANE":" ","ALLEY":" ","HOUSE_NO":"４號","E_COORD97":172493.10000000001,"N_COORD97":2575215.3999999999,"ADDRESS":"下寮４號","OBJECTID":195562},"geometry":{"x":172493.10000000056,"y":2575215.4000000004}},{"attributes":{"ID":195564,"DIS_CODE":0,"TOWNNAME":"鹽水區","LI":"歡雅里","LIN":"21鄰","STREET":" ","SECT":" ","MAREA":"下寮","LANE":" ","ALLEY":" ","HOUSE_NO":"６號","E_COORD97":172490.70999999999,"N_COORD97":2575263.6899999999,"ADDRESS":"下寮６號","OBJECTID":195563},"geometry":{"x":172490.71000000089,"y":2575263.6899999995}},{"attributes":{"ID":195565,"DIS_CODE":0,"TOWNNAME":"鹽水區","LI":"歡雅里","LIN":"21鄰","STREET":" ","SECT":" ","MAREA":"下寮","LANE":" ","ALLEY":" ","HOUSE_NO":"７號","E_COORD97":172449.64000000001,"N_COORD97":2575205.79,"ADDRESS":"下寮７號","OBJECTID":195564},"geometry":{"x":172449.63999999966,"y":2575205.7899999972}},{"attributes":{"ID":195566,"DIS_CODE":0,"TOWNNAME":"新化區","LI":"北勢里","LIN":"3鄰","STREET":" ","SECT":" ","MAREA":"北勢","LANE":" ","ALLEY":" ","HOUSE_NO":"６２號之１","E_COORD97":177364.95999999999,"N_COORD97":2549654.2599999998,"ADDRESS":"北勢６２號之１","OBJECTID":195565},"geometry":{"x":177364.96000000089,"y":2549654.2600000016}},{"attributes":{"ID":195567,"DIS_CODE":0,"TOWNNAME":"東區","LI":"復興里","LIN":"18鄰","STREET":"自由路","SECT":"三段","MAREA":" ","LANE":"１５５巷","ALLEY":" ","HOUSE_NO":"２７號","E_COORD97":171729.41,"N_COORD97":2542394.1600000001,"ADDRESS":"自由路三段１５５巷２７號","OBJECTID":195566},"geometry":{"x":171729.41000000015,"y":2542394.160000002}},{"attributes":{"ID":195568,"DIS_CODE":0,"TOWNNAME":"新化區","LI":"礁坑里","LIN":"3鄰","STREET":" ","SECT":" ","MAREA":"九層嶺","LANE":" ","ALLEY":" ","HOUSE_NO":"７３號","E_COORD97":185131.98000000001,"N_COORD97":2547745.25,"ADDRESS":"九層嶺７３號","OBJECTID":195567},"geometry":{"x":185131.98000000231,"y":2547745.2500000037}},{"attributes":{"ID":195569,"DIS_CODE":0,"TOWNNAME":"東區","LI":"復興里","LIN":"18鄰","STREET":"自由路","SECT":"三段","MAREA":" ","LANE":"１５５巷","ALLEY":" ","HOUSE_NO":"２５號","E_COORD97":171733.79000000001,"N_COORD97":2542394.5600000001,"ADDRESS":"自由路三段１５５巷２５號","OBJECTID":195568},"geometry":{"x":171733.79000000004,"y":2542394.5600000024}},{"attributes":{"ID":195570,"DIS_CODE":0,"TOWNNAME":"新化區","LI":"知義里","LIN":"3鄰","STREET":" ","SECT":" ","MAREA":"知母義","LANE":" ","ALLEY":" ","HOUSE_NO":"１０３號之２","E_COORD97":179837.98000000001,"N_COORD97":2547244.2599999998,"ADDRESS":"知母義１０３號之２","OBJECTID":195569},"geometry":{"x":179837.98000000138,"y":2547244.2600000016}},{"attributes":{"ID":195571,"DIS_CODE":0,"TOWNNAME":"新化區","LI":"知義里","LIN":"3鄰","STREET":" ","SECT":" ","MAREA":"知母義","LANE":" ","ALLEY":" ","HOUSE_NO":"１４３號之５","E_COORD97":179791.28,"N_COORD97":2547087.2599999998,"ADDRESS":"知母義１４３號之５","OBJECTID":195570},"geometry":{"x":179791.28000000026,"y":2547087.2600000035}},{"attributes":{"ID":195572,"DIS_CODE":0,"TOWNNAME":"新化區","LI":"崙頂里","LIN":"3鄰","STREET":" ","SECT":" ","MAREA":"崙子頂","LANE":" ","ALLEY":" ","HOUSE_NO":"１４５號","E_COORD97":176764.92999999999,"N_COORD97":2546809.25,"ADDRESS":"崙子頂１４５號","OBJECTID":195571},"geometry":{"x":176764.9299999997,"y":2546809.2499999981}},{"attributes":{"ID":195573,"DIS_CODE":0,"TOWNNAME":"新化區","LI":"羊林里","LIN":"3鄰","STREET":" ","SECT":" ","MAREA":"\u25A0拔林","LANE":" ","ALLEY":" ","HOUSE_NO":"４１５號之１","E_COORD97":183768.75,"N_COORD97":2551794.2599999998,"ADDRESS":"\u25A0拔林４１５號之１","OBJECTID":195572},"geometry":{"x":183768.75000000093,"y":2551794.2600000016}},{"attributes":{"ID":195574,"DIS_CODE":0,"TOWNNAME":"新化區","LI":"山\u25A0里","LIN":"3鄰","STREET":" ","SECT":" ","MAREA":"頂山\u25A0","LANE":" ","ALLEY":" ","HOUSE_NO":"１００號","E_COORD97":179635.82999999999,"N_COORD97":2546675.25,"ADDRESS":"頂山\u25A0１００號","OBJECTID":195573},"geometry":{"x":179635.83000000101,"y":2546675.2500000019}},{"attributes":{"ID":195575,"DIS_CODE":0,"TOWNNAME":"新化區","LI":"崙頂里","LIN":"3鄰","STREET":" ","SECT":" ","MAREA":"崙子頂","LANE":" ","ALLEY":" ","HOUSE_NO":"１５１號","E_COORD97":176745.23000000001,"N_COORD97":2546776.25,"ADDRESS":"崙子頂１５１號","OBJECTID":195574},"geometry":{"x":176745.23000000045,"y":2546776.2500000019}},{"attributes":{"ID":195576,"DIS_CODE":0,"TOWNNAME":"新化區","LI":"崙頂里","LIN":"3鄰","STREET":" ","SECT":" ","MAREA":"崙子頂","LANE":" ","ALLEY":" ","HOUSE_NO":"１２９號之３","E_COORD97":176784.38,"N_COORD97":2546686.2599999998,"ADDRESS":"崙子頂１２９號之３","OBJECTID":195575},"geometry":{"x":176784.37999999989,"y":2546686.2599999998}},{"attributes":{"ID":195577,"DIS_CODE":0,"TOWNNAME":"新化區","LI":"羊林里","LIN":"3鄰","STREET":" ","SECT":" ","MAREA":"\u25A0拔林","LANE":" ","ALLEY":" ","HOUSE_NO":"４２２號之２","E_COORD97":183738.78,"N_COORD97":2551729.2599999998,"ADDRESS":"\u25A0拔林４２２號之２","OBJECTID":195576},"geometry":{"x":183738.78000000026,"y":2551729.2600000016}},{"attributes":{"ID":195578,"DIS_CODE":0,"TOWNNAME":"新化區","LI":"崙頂里","LIN":"3鄰","STREET":" ","SECT":" ","MAREA":"崙子頂","LANE":" ","ALLEY":" ","HOUSE_NO":"１２３號","E_COORD97":176754.63,"N_COORD97":2546647.25,"ADDRESS":"崙子頂１２３號","OBJECTID":195577},"geometry":{"x":176754.63000000082,"y":2546647.2500000019}},{"attributes":{"ID":195579,"DIS_CODE":0,"TOWNNAME":"新化區","LI":"羊林里","LIN":"3鄰","STREET":" ","SECT":" ","MAREA":"\u25A0拔林","LANE":" ","ALLEY":" ","HOUSE_NO":"４２８號之１","E_COORD97":183778.25,"N_COORD97":2551691.2599999998,"ADDRESS":"\u25A0拔林４２８號之１","OBJECTID":195578},"geometry":{"x":183778.25,"y":2551691.2600000035}},{"attributes":{"ID":195580,"DIS_CODE":0,"TOWNNAME":"新化區","LI":"豐榮里","LIN":"3鄰","STREET":" ","SECT":" ","MAREA":"洋子","LANE":" ","ALLEY":" ","HOUSE_NO":"５１號","E_COORD97":178032.73000000001,"N_COORD97":2548234.25,"ADDRESS":"洋子５１號","OBJECTID":195579},"geometry":{"x":178032.73000000138,"y":2548234.2500000019}},{"attributes":{"ID":195581,"DIS_CODE":0,"TOWNNAME":"新化區","LI":"崙頂里","LIN":"3鄰","STREET":" ","SECT":" ","MAREA":"崙子頂","LANE":" ","ALLEY":" ","HOUSE_NO":"１８０號","E_COORD97":176610.73000000001,"N_COORD97":2546760.25,"ADDRESS":"崙子頂１８０號","OBJECTID":195580},"geometry":{"x":176610.73000000138,"y":2546760.2500000019}},{"attributes":{"ID":195582,"DIS_CODE":0,"TOWNNAME":"新化區","LI":"羊林里","LIN":"3鄰","STREET":" ","SECT":" ","MAREA":"\u25A0拔林","LANE":" ","ALLEY":" ","HOUSE_NO":"４３１號之１","E_COORD97":183724.45000000001,"N_COORD97":2551639.2599999998,"ADDRESS":"\u25A0拔林４３１號之１","OBJECTID":195581},"geometry":{"x":183724.45000000019,"y":2551639.2599999998}},{"attributes":{"ID":195583,"DIS_CODE":0,"TOWNNAME":"新化區","LI":"崙頂里","LIN":"3鄰","STREET":" ","SECT":" ","MAREA":"崙子頂","LANE":" ","ALLEY":" ","HOUSE_NO":"１２０號之５","E_COORD97":176791.39000000001,"N_COORD97":2546622.2599999998,"ADDRESS":"崙子頂１２０號之５","OBJECTID":195582},"geometry":{"x":176791.39000000153,"y":2546622.2599999998}},{"attributes":{"ID":195584,"DIS_CODE":0,"TOWNNAME":"新化區","LI":"羊林里","LIN":"3鄰","STREET":" ","SECT":" ","MAREA":"\u25A0拔林","LANE":" ","ALLEY":" ","HOUSE_NO":"４４２號之２","E_COORD97":183678.07999999999,"N_COORD97":2551793.2599999998,"ADDRESS":"\u25A0拔林４４２號之２","OBJECTID":195583},"geometry":{"x":183678.08000000194,"y":2551793.2600000035}},{"attributes":{"ID":195585,"DIS_CODE":0,"TOWNNAME":"新化區","LI":"崙頂里","LIN":"3鄰","STREET":" ","SECT":" ","MAREA":"崙子頂","LANE":" ","ALLEY":" ","HOUSE_NO":"１２０號之８","E_COORD97":176791.69,"N_COORD97":2546607.2599999998,"ADDRESS":"崙子頂１２０號之８","OBJECTID":195584},"geometry":{"x":176791.68999999948,"y":2546607.2600000016}},{"attributes":{"ID":195586,"DIS_CODE":0,"TOWNNAME":"新化區","LI":"羊林里","LIN":"3鄰","STREET":" ","SECT":" ","MAREA":"\u25A0拔林","LANE":" ","ALLEY":" ","HOUSE_NO":"４３１號之６","E_COORD97":183765.87,"N_COORD97":2551637.2599999998,"ADDRESS":"\u25A0拔林４３１號之６","OBJECTID":195585},"geometry":{"x":183765.86999999918,"y":2551637.2600000035}},{"attributes":{"ID":195587,"DIS_CODE":0,"TOWNNAME":"西港區","LI":"西港里","LIN":"24鄰","STREET":" ","SECT":" ","MAREA":"堀子頭","LANE":" ","ALLEY":" ","HOUSE_NO":"３號","E_COORD97":168551.10000000001,"N_COORD97":2557544.7799999998,"ADDRESS":"堀子頭３號","OBJECTID":195586},"geometry":{"x":168551.09999999963,"y":2557544.7799999993}},{"attributes":{"ID":195588,"DIS_CODE":0,"TOWNNAME":"新化區","LI":"崙頂里","LIN":"3鄰","STREET":" ","SECT":" ","MAREA":"崙子頂","LANE":" ","ALLEY":" ","HOUSE_NO":"１１２號","E_COORD97":176798.92999999999,"N_COORD97":2546734.25,"ADDRESS":"崙子頂１１２號","OBJECTID":195587},"geometry":{"x":176798.9299999997,"y":2546734.25}},{"attributes":{"ID":195589,"DIS_CODE":0,"TOWNNAME":"新化區","LI":"羊林里","LIN":"3鄰","STREET":" ","SECT":" ","MAREA":"\u25A0拔林","LANE":" ","ALLEY":" ","HOUSE_NO":"４３０號之１","E_COORD97":183727.45000000001,"N_COORD97":2551652.2599999998,"ADDRESS":"\u25A0拔林４３０號之１","OBJECTID":195588},"geometry":{"x":183727.45000000019,"y":2551652.2600000016}},{"attributes":{"ID":195590,"DIS_CODE":0,"TOWNNAME":"新化區","LI":"豐榮里","LIN":"3鄰","STREET":" ","SECT":" ","MAREA":"洋子","LANE":" ","ALLEY":" ","HOUSE_NO":"５７號","E_COORD97":178061.23000000001,"N_COORD97":2548264.25,"ADDRESS":"洋子５７號","OBJECTID":195589},"geometry":{"x":178061.23000000231,"y":2548264.2500000019}},{"attributes":{"ID":195591,"DIS_CODE":0,"TOWNNAME":"新化區","LI":"崙頂里","LIN":"3鄰","STREET":" ","SECT":" ","MAREA":"崙子頂","LANE":" ","ALLEY":" ","HOUSE_NO":"１２０號之３","E_COORD97":176791.98000000001,"N_COORD97":2546631.2599999998,"ADDRESS":"崙子頂１２０號之３","OBJECTID":195590},"geometry":{"x":176791.98000000138,"y":2546631.2599999998}},{"attributes":{"ID":195592,"DIS_CODE":0,"TOWNNAME":"新化區","LI":"崙頂里","LIN":"3鄰","STREET":" ","SECT":" ","MAREA":"崙子頂","LANE":" ","ALLEY":" ","HOUSE_NO":"１２０號之１０","E_COORD97":176792.42000000001,"N_COORD97":2546597.2599999998,"ADDRESS":"崙子頂１２０號之１０","OBJECTID":195591},"geometry":{"x":176792.41999999993,"y":2546597.2599999998}},{"attributes":{"ID":195593,"DIS_CODE":0,"TOWNNAME":"新化區","LI":"崙頂里","LIN":"3鄰","STREET":" ","SECT":" ","MAREA":"崙子頂","LANE":" ","ALLEY":" ","HOUSE_NO":"１６８號之２","E_COORD97":176687.78,"N_COORD97":2546776.2599999998,"ADDRESS":"崙子頂１６８號之２","OBJECTID":195592},"geometry":{"x":176687.78000000119,"y":2546776.2600000016}},{"attributes":{"ID":195594,"DIS_CODE":0,"TOWNNAME":"新化區","LI":"崙頂里","LIN":"3鄰","STREET":" ","SECT":" ","MAREA":"崙子頂","LANE":" ","ALLEY":" ","HOUSE_NO":"１２１號","E_COORD97":176772.23000000001,"N_COORD97":2546647.25,"ADDRESS":"崙子頂１２１號","OBJECTID":195593},"geometry":{"x":176772.23000000045,"y":2546647.2500000019}},{"attributes":{"ID":195595,"DIS_CODE":0,"TOWNNAME":"新化區","LI":"崙頂里","LIN":"3鄰","STREET":" ","SECT":" ","MAREA":"崙子頂","LANE":" ","ALLEY":" ","HOUSE_NO":"１６６號之４","E_COORD97":176649.76000000001,"N_COORD97":2546804.2599999998,"ADDRESS":"崙子頂１６６號之４","OBJECTID":195594},"geometry":{"x":176649.75999999978,"y":2546804.2599999998}},{"attributes":{"ID":195596,"DIS_CODE":0,"TOWNNAME":"新化區","LI":"全興里","LIN":"3鄰","STREET":" ","SECT":" ","MAREA":"竹子\u25A0","LANE":" ","ALLEY":" ","HOUSE_NO":"４２號之１","E_COORD97":177622.01000000001,"N_COORD97":2547763.2599999998,"ADDRESS":"竹子\u25A0４２號之１","OBJECTID":195595},"geometry":{"x":177622.01000000071,"y":2547763.2600000016}},{"attributes":{"ID":195597,"DIS_CODE":0,"TOWNNAME":"新化區","LI":"崙頂里","LIN":"3鄰","STREET":" ","SECT":" ","MAREA":"崙子頂","LANE":" ","ALLEY":" ","HOUSE_NO":"１１４號之１","E_COORD97":176811.26996800001,"N_COORD97":2546722.1987299998,"ADDRESS":"崙子頂１１４號之１","OBJECTID":195596},"geometry":{"x":176811.26996800024,"y":2546722.1987309996}},{"attributes":{"ID":195598,"DIS_CODE":0,"TOWNNAME":"東區","LI":"復興里","LIN":"18鄰","STREET":"自由路","SECT":"三段","MAREA":" ","LANE":"１５５巷","ALLEY":" ","HOUSE_NO":"２３號","E_COORD97":171737.38,"N_COORD97":2542394.1600000001,"ADDRESS":"自由路三段１５５巷２３號","OBJECTID":195597},"geometry":{"x":171737.38000000082,"y":2542394.160000002}},{"attributes":{"ID":195599,"DIS_CODE":0,"TOWNNAME":"新化區","LI":"山\u25A0里","LIN":"3鄰","STREET":" ","SECT":" ","MAREA":"頂山\u25A0","LANE":" ","ALLEY":" ","HOUSE_NO":"１０２號","E_COORD97":179614.53,"N_COORD97":2546660.25,"ADDRESS":"頂山\u25A0１０２號","OBJECTID":195598},"geometry":{"x":179614.53000000026,"y":2546660.2500000037}},{"attributes":{"ID":195600,"DIS_CODE":0,"TOWNNAME":"新化區","LI":"崙頂里","LIN":"3鄰","STREET":" ","SECT":" ","MAREA":"崙子頂","LANE":" ","ALLEY":" ","HOUSE_NO":"１２０號之１１","E_COORD97":176792.51000000001,"N_COORD97":2546591.2599999998,"ADDRESS":"崙子頂１２０號之１１","OBJECTID":195599},"geometry":{"x":176792.51000000071,"y":2546591.2599999998}},{"attributes":{"ID":195601,"DIS_CODE":0,"TOWNNAME":"新化區","LI":"羊林里","LIN":"3鄰","STREET":" ","SECT":" ","MAREA":"\u25A0拔林","LANE":" ","ALLEY":" ","HOUSE_NO":"４３１號","E_COORD97":183726.42000000001,"N_COORD97":2551629.25,"ADDRESS":"\u25A0拔林４３１號","OBJECTID":195600},"geometry":{"x":183726.42000000179,"y":2551629.25}}]}