{"displayFieldName":"TOWNNAME","fieldAliases":{"ID":"ID","DIS_CODE":"DIS_CODE","TOWNNAME":"TOWNNAME","LI":"LI","LIN":"LIN","STREET":"STREET","SECT":"SECT","MAREA":"MAREA","LANE":"LANE","ALLEY":"ALLEY","HOUSE_NO":"HOUSE_NO","E_COORD97":"E_COORD97","N_COORD97":"N_COORD97","ADDRESS":"ADDRESS","OBJECTID":"OBJECTID"},"geometryType":"esriGeometryPoint","spatialReference":{"wkid":102443,"latestWkid":3826},"fields":[{"name":"ID","type":"esriFieldTypeDouble","alias":"ID"},{"name":"DIS_CODE","type":"esriFieldTypeInteger","alias":"DIS_CODE"},{"name":"TOWNNAME","type":"esriFieldTypeString","alias":"TOWNNAME","length":8},{"name":"LI","type":"esriFieldTypeString","alias":"LI","length":8},{"name":"LIN","type":"esriFieldTypeString","alias":"LIN","length":12},{"name":"STREET","type":"esriFieldTypeString","alias":"STREET","length":20},{"name":"SECT","type":"esriFieldTypeString","alias":"SECT","length":8},{"name":"MAREA","type":"esriFieldTypeString","alias":"MAREA","length":12},{"name":"LANE","type":"esriFieldTypeString","alias":"LANE","length":10},{"name":"ALLEY","type":"esriFieldTypeString","alias":"ALLEY","length":10},{"name":"HOUSE_NO","type":"esriFieldTypeString","alias":"HOUSE_NO","length":20},{"name":"E_COORD97","type":"esriFieldTypeDouble","alias":"E_COORD97"},{"name":"N_COORD97","type":"esriFieldTypeDouble","alias":"N_COORD97"},{"name":"ADDRESS","type":"esriFieldTypeString","alias":"ADDRESS","length":50},{"name":"OBJECTID","type":"esriFieldTypeOID","alias":"OBJECTID"}],"features":[{"attributes":{"ID":210802,"DIS_CODE":0,"TOWNNAME":"仁德區","LI":"太子里","LIN":"41鄰","STREET":"太子路","SECT":" ","MAREA":" ","LANE":"４２巷","ALLEY":"１弄","HOUSE_NO":"２號","E_COORD97":175263.35000000001,"N_COORD97":2543609.5099999998,"ADDRESS":"太子路４２巷１弄２號","OBJECTID":210801},"geometry":{"x":175263.35000000056,"y":2543609.5099999998}},{"attributes":{"ID":210803,"DIS_CODE":0,"TOWNNAME":"安定區","LI":"蘇厝里","LIN":"2鄰","STREET":" ","SECT":" ","MAREA":"蘇厝","LANE":" ","ALLEY":" ","HOUSE_NO":"２９３之１０２號","E_COORD97":173329.32000000001,"N_COORD97":2558383.2999999998,"ADDRESS":"蘇厝２９３之１０２號","OBJECTID":210802},"geometry":{"x":173329.32000000216,"y":2558383.3000000007}},{"attributes":{"ID":210804,"DIS_CODE":0,"TOWNNAME":"安定區","LI":"海寮里","LIN":"2鄰","STREET":" ","SECT":" ","MAREA":"海寮","LANE":" ","ALLEY":" ","HOUSE_NO":"２１之９號","E_COORD97":169416.32879999999,"N_COORD97":2555253.72487,"ADDRESS":"海寮２１之９號","OBJECTID":210803},"geometry":{"x":169416.32880000025,"y":2555253.7248710021}},{"attributes":{"ID":210805,"DIS_CODE":0,"TOWNNAME":"仁德區","LI":"太子里","LIN":"41鄰","STREET":"太子路","SECT":" ","MAREA":" ","LANE":"４２巷","ALLEY":"１弄","HOUSE_NO":"１５號","E_COORD97":175249.66,"N_COORD97":2543599.25,"ADDRESS":"太子路４２巷１弄１５號","OBJECTID":210804},"geometry":{"x":175249.66000000108,"y":2543599.2500000019}},{"attributes":{"ID":210806,"DIS_CODE":0,"TOWNNAME":"安定區","LI":"南安里","LIN":"2鄰","STREET":" ","SECT":" ","MAREA":"油車","LANE":" ","ALLEY":" ","HOUSE_NO":"２４之２號","E_COORD97":170567.84,"N_COORD97":2555707.2999999998,"ADDRESS":"油車２４之２號","OBJECTID":210805},"geometry":{"x":170567.84000000078,"y":2555707.3000000026}},{"attributes":{"ID":210807,"DIS_CODE":0,"TOWNNAME":"仁德區","LI":"仁德里","LIN":"41鄰","STREET":"中山路","SECT":" ","MAREA":" ","LANE":"８７０巷","ALLEY":"２２１弄","HOUSE_NO":"３８號","E_COORD97":171996.89999999999,"N_COORD97":2542196.25,"ADDRESS":"中山路８７０巷２２１弄３８號","OBJECTID":210806},"geometry":{"x":171996.9000000013,"y":2542196.2500000019}},{"attributes":{"ID":210808,"DIS_CODE":0,"TOWNNAME":"安定區","LI":"六嘉里","LIN":"2鄰","STREET":" ","SECT":" ","MAREA":"六塊寮","LANE":" ","ALLEY":" ","HOUSE_NO":"１７號之１","E_COORD97":170130.01999999999,"N_COORD97":2553606.2999999998,"ADDRESS":"六塊寮１７之１號","OBJECTID":210807},"geometry":{"x":170130.02000000142,"y":2553606.3000000007}},{"attributes":{"ID":210809,"DIS_CODE":0,"TOWNNAME":"安定區","LI":"中榮里","LIN":"2鄰","STREET":" ","SECT":" ","MAREA":"許中營","LANE":" ","ALLEY":" ","HOUSE_NO":"２３之３８號","E_COORD97":172516.79000000001,"N_COORD97":2554804.2999999998,"ADDRESS":"許中營２３之３８號","OBJECTID":210808},"geometry":{"x":172516.79000000004,"y":2554804.3000000045}},{"attributes":{"ID":210810,"DIS_CODE":0,"TOWNNAME":"安定區","LI":"中榮里","LIN":"2鄰","STREET":" ","SECT":" ","MAREA":"許中營","LANE":" ","ALLEY":" ","HOUSE_NO":"１７之１６號","E_COORD97":172489.29000000001,"N_COORD97":2554907.2999999998,"ADDRESS":"許中營１７之１６號","OBJECTID":210809},"geometry":{"x":172489.29000000004,"y":2554907.3000000026}},{"attributes":{"ID":210811,"DIS_CODE":0,"TOWNNAME":"安定區","LI":"中沙里","LIN":"2鄰","STREET":" ","SECT":" ","MAREA":"中崙","LANE":" ","ALLEY":" ","HOUSE_NO":"８４號","E_COORD97":168954.85999999999,"N_COORD97":2553269.25,"ADDRESS":"中崙８４號","OBJECTID":210810},"geometry":{"x":168954.86000000034,"y":2553269.2500000019}},{"attributes":{"ID":210812,"DIS_CODE":0,"TOWNNAME":"歸仁區","LI":"歸仁里","LIN":"9鄰","STREET":"大仁街","SECT":" ","MAREA":" ","LANE":" ","ALLEY":" ","HOUSE_NO":"５５號","E_COORD97":177965.14999999999,"N_COORD97":2540839.1699999999,"ADDRESS":"大仁街５５號","OBJECTID":210811},"geometry":{"x":177965.15000000224,"y":2540839.1699999999}},{"attributes":{"ID":210813,"DIS_CODE":0,"TOWNNAME":"歸仁區","LI":"歸仁里","LIN":"9鄰","STREET":"大仁街","SECT":" ","MAREA":" ","LANE":" ","ALLEY":" ","HOUSE_NO":"１５號","E_COORD97":177884.95000000001,"N_COORD97":2540785.1699999999,"ADDRESS":"大仁街１５號","OBJECTID":210812},"geometry":{"x":177884.95000000205,"y":2540785.1700000037}},{"attributes":{"ID":210814,"DIS_CODE":0,"TOWNNAME":"安定區","LI":"南安里","LIN":"2鄰","STREET":" ","SECT":" ","MAREA":"油車","LANE":" ","ALLEY":" ","HOUSE_NO":"１８號","E_COORD97":170663.04000000001,"N_COORD97":2555819.25,"ADDRESS":"油車１８號","OBJECTID":210813},"geometry":{"x":170663.04000000097,"y":2555819.2500000019}},{"attributes":{"ID":210815,"DIS_CODE":0,"TOWNNAME":"永康區","LI":"\u25A0行里","LIN":"41鄰","STREET":"永安路","SECT":" ","MAREA":" ","LANE":"１６５巷","ALLEY":"３０弄","HOUSE_NO":"１５號之４","E_COORD97":172434.69,"N_COORD97":2549481.0600000001,"ADDRESS":"永安路１６５巷３０弄１５號之４","OBJECTID":210814},"geometry":{"x":172434.69000000041,"y":2549481.0600000024}},{"attributes":{"ID":210816,"DIS_CODE":0,"TOWNNAME":"仁德區","LI":"太子里","LIN":"41鄰","STREET":"太子路","SECT":" ","MAREA":" ","LANE":"４２巷","ALLEY":"１弄","HOUSE_NO":"１２號","E_COORD97":175243.82000000001,"N_COORD97":2543614.2599999998,"ADDRESS":"太子路４２巷１弄１２號","OBJECTID":210815},"geometry":{"x":175243.82000000123,"y":2543614.2599999998}},{"attributes":{"ID":210817,"DIS_CODE":0,"TOWNNAME":"安定區","LI":"中榮里","LIN":"2鄰","STREET":" ","SECT":" ","MAREA":"許中營","LANE":" ","ALLEY":" ","HOUSE_NO":"２３之３１號","E_COORD97":172511.19,"N_COORD97":2554771.2999999998,"ADDRESS":"許中營２３之３１號","OBJECTID":210816},"geometry":{"x":172511.19000000041,"y":2554771.3000000026}},{"attributes":{"ID":210818,"DIS_CODE":0,"TOWNNAME":"安定區","LI":"中榮里","LIN":"2鄰","STREET":" ","SECT":" ","MAREA":"許中營","LANE":" ","ALLEY":" ","HOUSE_NO":"２３之１２號","E_COORD97":172569.09,"N_COORD97":2554807.2999999998,"ADDRESS":"許中營２３之１２號","OBJECTID":210817},"geometry":{"x":172569.08999999892,"y":2554807.3000000007}},{"attributes":{"ID":210819,"DIS_CODE":0,"TOWNNAME":"安定區","LI":"六嘉里","LIN":"2鄰","STREET":" ","SECT":" ","MAREA":"六塊寮","LANE":" ","ALLEY":" ","HOUSE_NO":"１２之１２號","E_COORD97":170111.97,"N_COORD97":2553537.2999999998,"ADDRESS":"六塊寮１２之１２號","OBJECTID":210818},"geometry":{"x":170111.9700000016,"y":2553537.3000000026}},{"attributes":{"ID":210820,"DIS_CODE":0,"TOWNNAME":"安定區","LI":"中榮里","LIN":"2鄰","STREET":" ","SECT":" ","MAREA":"許中營","LANE":" ","ALLEY":" ","HOUSE_NO":"２５之１１號","E_COORD97":172611.69,"N_COORD97":2554931.2999999998,"ADDRESS":"許中營２５之１１號","OBJECTID":210819},"geometry":{"x":172611.69000000134,"y":2554931.3000000026}},{"attributes":{"ID":210821,"DIS_CODE":0,"TOWNNAME":"仁德區","LI":"太子里","LIN":"41鄰","STREET":"太子路","SECT":" ","MAREA":" ","LANE":"４２巷","ALLEY":"１弄","HOUSE_NO":"１７號","E_COORD97":175245.48999999999,"N_COORD97":2543600,"ADDRESS":"太子路４２巷１弄１７號","OBJECTID":210820},"geometry":{"x":175245.49000000115,"y":2543600}},{"attributes":{"ID":210822,"DIS_CODE":0,"TOWNNAME":"仁德區","LI":"太子里","LIN":"41鄰","STREET":"太子路","SECT":" ","MAREA":" ","LANE":"４２巷","ALLEY":"１弄","HOUSE_NO":"４號","E_COORD97":175259,"N_COORD97":2543610.0099999998,"ADDRESS":"太子路４２巷１弄４號","OBJECTID":210821},"geometry":{"x":175259.00000000093,"y":2543610.0099999998}},{"attributes":{"ID":210823,"DIS_CODE":0,"TOWNNAME":"仁德區","LI":"太子里","LIN":"41鄰","STREET":"太子路","SECT":" ","MAREA":" ","LANE":"４２巷","ALLEY":"１弄","HOUSE_NO":"８號","E_COORD97":175250.79000000001,"N_COORD97":2543612.0099999998,"ADDRESS":"太子路４２巷１弄８號","OBJECTID":210822},"geometry":{"x":175250.79000000004,"y":2543612.0100000016}},{"attributes":{"ID":210824,"DIS_CODE":0,"TOWNNAME":"仁德區","LI":"太子里","LIN":"41鄰","STREET":"太子路","SECT":" ","MAREA":" ","LANE":"４２巷","ALLEY":"１弄","HOUSE_NO":"３號","E_COORD97":175272.23000000001,"N_COORD97":2543594,"ADDRESS":"太子路４２巷１弄３號","OBJECTID":210823},"geometry":{"x":175272.23000000045,"y":2543594.0000000019}},{"attributes":{"ID":210825,"DIS_CODE":0,"TOWNNAME":"仁德區","LI":"後壁里","LIN":"41鄰","STREET":"德善路","SECT":" ","MAREA":" ","LANE":"２７３巷","ALLEY":"６弄","HOUSE_NO":"１２號","E_COORD97":173948.91,"N_COORD97":2538663.5600000001,"ADDRESS":"德善路２７３巷６弄１２號","OBJECTID":210824},"geometry":{"x":173948.91000000201,"y":2538663.5600000005}},{"attributes":{"ID":210826,"DIS_CODE":0,"TOWNNAME":"安定區","LI":"安加里","LIN":"2鄰","STREET":" ","SECT":" ","MAREA":"安定","LANE":" ","ALLEY":" ","HOUSE_NO":"１６１之１號","E_COORD97":171938.85544399999,"N_COORD97":2557591.2785499999,"ADDRESS":"安定１６１之１號","OBJECTID":210825},"geometry":{"x":171938.8554440001,"y":2557591.2785519995}},{"attributes":{"ID":210827,"DIS_CODE":0,"TOWNNAME":"仁德區","LI":"後壁里","LIN":"41鄰","STREET":"德善路","SECT":" ","MAREA":" ","LANE":"２７３巷","ALLEY":"６弄","HOUSE_NO":"１１號","E_COORD97":173966.41,"N_COORD97":2538692.2999999998,"ADDRESS":"德善路２７３巷６弄１１號","OBJECTID":210826},"geometry":{"x":173966.41000000108,"y":2538692.3000000007}},{"attributes":{"ID":210828,"DIS_CODE":0,"TOWNNAME":"仁德區","LI":"後壁里","LIN":"41鄰","STREET":"德善路","SECT":" ","MAREA":" ","LANE":"２７３巷","ALLEY":"６弄","HOUSE_NO":"６號","E_COORD97":173946.81,"N_COORD97":2538677.1800000002,"ADDRESS":"德善路２７３巷６弄６號","OBJECTID":210827},"geometry":{"x":173946.80999999959,"y":2538677.1800000016}},{"attributes":{"ID":210829,"DIS_CODE":0,"TOWNNAME":"安定區","LI":"中榮里","LIN":"2鄰","STREET":" ","SECT":" ","MAREA":"許中營","LANE":" ","ALLEY":" ","HOUSE_NO":"２５之１３號","E_COORD97":172611.98999999999,"N_COORD97":2554921.2999999998,"ADDRESS":"許中營２５之１３號","OBJECTID":210828},"geometry":{"x":172611.99000000022,"y":2554921.3000000026}},{"attributes":{"ID":210830,"DIS_CODE":0,"TOWNNAME":"安定區","LI":"南安里","LIN":"2鄰","STREET":" ","SECT":" ","MAREA":"油車","LANE":" ","ALLEY":" ","HOUSE_NO":"１２之５號","E_COORD97":170751.94,"N_COORD97":2555823.2999999998,"ADDRESS":"油車１２之５號","OBJECTID":210829},"geometry":{"x":170751.94000000227,"y":2555823.3000000007}},{"attributes":{"ID":210831,"DIS_CODE":0,"TOWNNAME":"安定區","LI":"港口里","LIN":"2鄰","STREET":" ","SECT":" ","MAREA":"港口","LANE":" ","ALLEY":" ","HOUSE_NO":"２５０號","E_COORD97":171612.48999999999,"N_COORD97":2554771.25,"ADDRESS":"港口２５０號","OBJECTID":210830},"geometry":{"x":171612.49000000209,"y":2554771.2500000019}},{"attributes":{"ID":210832,"DIS_CODE":0,"TOWNNAME":"安定區","LI":"六嘉里","LIN":"2鄰","STREET":" ","SECT":" ","MAREA":"六塊寮","LANE":" ","ALLEY":" ","HOUSE_NO":"１６號","E_COORD97":170115.62,"N_COORD97":2553527.27,"ADDRESS":"六塊寮１６號","OBJECTID":210831},"geometry":{"x":170115.62000000011,"y":2553527.2699999996}},{"attributes":{"ID":210833,"DIS_CODE":0,"TOWNNAME":"仁德區","LI":"後壁里","LIN":"41鄰","STREET":"德善路","SECT":" ","MAREA":" ","LANE":"２５１巷","ALLEY":"７弄","HOUSE_NO":"１１號","E_COORD97":173850.06,"N_COORD97":2538712.2400000002,"ADDRESS":"德善路２５１巷７弄１１號","OBJECTID":210832},"geometry":{"x":173850.05999999959,"y":2538712.2400000002}},{"attributes":{"ID":210834,"DIS_CODE":0,"TOWNNAME":"安定區","LI":"中榮里","LIN":"2鄰","STREET":" ","SECT":" ","MAREA":"許中營","LANE":" ","ALLEY":" ","HOUSE_NO":"２３之２８號","E_COORD97":172528.29000000001,"N_COORD97":2554767.2999999998,"ADDRESS":"許中營２３之２８號","OBJECTID":210833},"geometry":{"x":172528.29000000004,"y":2554767.3000000045}},{"attributes":{"ID":210835,"DIS_CODE":0,"TOWNNAME":"仁德區","LI":"後壁里","LIN":"41鄰","STREET":"德善路","SECT":" ","MAREA":" ","LANE":"２５１巷","ALLEY":"７弄","HOUSE_NO":"９號","E_COORD97":173851.92000000001,"N_COORD97":2538716.7400000002,"ADDRESS":"德善路２５１巷７弄９號","OBJECTID":210834},"geometry":{"x":173851.92000000179,"y":2538716.7399999984}},{"attributes":{"ID":210836,"DIS_CODE":0,"TOWNNAME":"安定區","LI":"蘇厝里","LIN":"2鄰","STREET":" ","SECT":" ","MAREA":"蘇厝","LANE":" ","ALLEY":" ","HOUSE_NO":"２９２之８號","E_COORD97":173296.82000000001,"N_COORD97":2558540.2999999998,"ADDRESS":"蘇厝２９２之８號","OBJECTID":210835},"geometry":{"x":173296.8200000003,"y":2558540.3000000007}},{"attributes":{"ID":210837,"DIS_CODE":0,"TOWNNAME":"安定區","LI":"六嘉里","LIN":"2鄰","STREET":" ","SECT":" ","MAREA":"六塊寮","LANE":" ","ALLEY":" ","HOUSE_NO":"１７之１５號","E_COORD97":170174.47,"N_COORD97":2553829.2999999998,"ADDRESS":"六塊寮１７之１５號","OBJECTID":210836},"geometry":{"x":170174.46999999881,"y":2553829.3000000026}},{"attributes":{"ID":210838,"DIS_CODE":0,"TOWNNAME":"仁德區","LI":"後壁里","LIN":"41鄰","STREET":"德善路","SECT":" ","MAREA":" ","LANE":"２７３巷","ALLEY":"７弄","HOUSE_NO":"８號","E_COORD97":173928.92000000001,"N_COORD97":2538706.77,"ADDRESS":"德善路２７３巷７弄８號","OBJECTID":210837},"geometry":{"x":173928.92000000086,"y":2538706.7700000014}},{"attributes":{"ID":210839,"DIS_CODE":0,"TOWNNAME":"安定區","LI":"蘇厝里","LIN":"2鄰","STREET":" ","SECT":" ","MAREA":"蘇厝","LANE":" ","ALLEY":" ","HOUSE_NO":"２９３之７１號","E_COORD97":173357.07000000001,"N_COORD97":2558334.2999999998,"ADDRESS":"蘇厝２９３之７１號","OBJECTID":210838},"geometry":{"x":173357.07000000123,"y":2558334.3000000026}},{"attributes":{"ID":210840,"DIS_CODE":0,"TOWNNAME":"安定區","LI":"蘇厝里","LIN":"2鄰","STREET":" ","SECT":" ","MAREA":"蘇厝","LANE":" ","ALLEY":" ","HOUSE_NO":"２９２之１２號","E_COORD97":173298.87,"N_COORD97":2558522.2999999998,"ADDRESS":"蘇厝２９２之１２號","OBJECTID":210839},"geometry":{"x":173298.87000000104,"y":2558522.3000000007}},{"attributes":{"ID":210841,"DIS_CODE":0,"TOWNNAME":"安定區","LI":"蘇厝里","LIN":"2鄰","STREET":" ","SECT":" ","MAREA":"蘇厝","LANE":" ","ALLEY":" ","HOUSE_NO":"２９３之１１７號","E_COORD97":173344.32000000001,"N_COORD97":2558381.2999999998,"ADDRESS":"蘇厝２９３之１１７號","OBJECTID":210840},"geometry":{"x":173344.3200000003,"y":2558381.3000000045}},{"attributes":{"ID":210842,"DIS_CODE":0,"TOWNNAME":"安定區","LI":"蘇厝里","LIN":"2鄰","STREET":" ","SECT":" ","MAREA":"蘇厝","LANE":" ","ALLEY":" ","HOUSE_NO":"２９２號之２","E_COORD97":173257.09,"N_COORD97":2558513.2999999998,"ADDRESS":"蘇厝２９２號之２","OBJECTID":210841},"geometry":{"x":173257.08999999985,"y":2558513.2999999989}},{"attributes":{"ID":210843,"DIS_CODE":0,"TOWNNAME":"仁德區","LI":"後壁里","LIN":"41鄰","STREET":"德善路","SECT":" ","MAREA":" ","LANE":"２７３巷","ALLEY":"６弄","HOUSE_NO":"１７號","E_COORD97":173974.54000000001,"N_COORD97":2538705.0499999998,"ADDRESS":"德善路２７３巷６弄１７號","OBJECTID":210842},"geometry":{"x":173974.54000000004,"y":2538705.0499999989}},{"attributes":{"ID":210844,"DIS_CODE":0,"TOWNNAME":"安定區","LI":"管寮里","LIN":"2鄰","STREET":" ","SECT":" ","MAREA":"管寮","LANE":" ","ALLEY":" ","HOUSE_NO":"１８之３號","E_COORD97":170075.84,"N_COORD97":2556314.2999999998,"ADDRESS":"管寮１８之３號","OBJECTID":210843},"geometry":{"x":170075.84000000078,"y":2556314.3000000026}},{"attributes":{"ID":210845,"DIS_CODE":0,"TOWNNAME":"安定區","LI":"蘇厝里","LIN":"2鄰","STREET":" ","SECT":" ","MAREA":"蘇厝","LANE":" ","ALLEY":" ","HOUSE_NO":"２９２之１８號","E_COORD97":173287.47,"N_COORD97":2558547.2999999998,"ADDRESS":"蘇厝２９２之１８號","OBJECTID":210844},"geometry":{"x":173287.47000000067,"y":2558547.3000000045}},{"attributes":{"ID":210846,"DIS_CODE":0,"TOWNNAME":"安定區","LI":"管寮里","LIN":"2鄰","STREET":" ","SECT":" ","MAREA":"管寮","LANE":" ","ALLEY":" ","HOUSE_NO":"１３號","E_COORD97":170139.23999999999,"N_COORD97":2556215.25,"ADDRESS":"管寮１３號","OBJECTID":210845},"geometry":{"x":170139.23999999929,"y":2556215.2500000019}},{"attributes":{"ID":210847,"DIS_CODE":0,"TOWNNAME":"安定區","LI":"中榮里","LIN":"2鄰","STREET":" ","SECT":" ","MAREA":"許中營","LANE":" ","ALLEY":" ","HOUSE_NO":"２３之３號","E_COORD97":172554.94150700001,"N_COORD97":2554846.6209499999,"ADDRESS":"許中營２３之３號","OBJECTID":210846},"geometry":{"x":172554.94150700048,"y":2554846.6209520008}},{"attributes":{"ID":210848,"DIS_CODE":0,"TOWNNAME":"安定區","LI":"海寮里","LIN":"2鄰","STREET":" ","SECT":" ","MAREA":"海寮","LANE":" ","ALLEY":" ","HOUSE_NO":"２４之１０號","E_COORD97":169438.84,"N_COORD97":2555191.2999999998,"ADDRESS":"海寮２４之１０號","OBJECTID":210847},"geometry":{"x":169438.84000000078,"y":2555191.3000000026}},{"attributes":{"ID":210849,"DIS_CODE":0,"TOWNNAME":"安定區","LI":"中榮里","LIN":"2鄰","STREET":" ","SECT":" ","MAREA":"許中營","LANE":" ","ALLEY":" ","HOUSE_NO":"２５之１７號","E_COORD97":172612.79000000001,"N_COORD97":2554903.2999999998,"ADDRESS":"許中營２５之１７號","OBJECTID":210848},"geometry":{"x":172612.79000000097,"y":2554903.3000000026}},{"attributes":{"ID":210850,"DIS_CODE":0,"TOWNNAME":"安定區","LI":"海寮里","LIN":"2鄰","STREET":" ","SECT":" ","MAREA":"海寮","LANE":" ","ALLEY":" ","HOUSE_NO":"２５之１１號","E_COORD97":169462.14000000001,"N_COORD97":2554816.2999999998,"ADDRESS":"海寮２５之１１號","OBJECTID":210849},"geometry":{"x":169462.1400000006,"y":2554816.3000000007}},{"attributes":{"ID":210851,"DIS_CODE":0,"TOWNNAME":"仁德區","LI":"後壁里","LIN":"41鄰","STREET":"德善路","SECT":" ","MAREA":" ","LANE":"２５１巷","ALLEY":"７弄","HOUSE_NO":"３號","E_COORD97":173860.31,"N_COORD97":2538730.4900000002,"ADDRESS":"德善路２５１巷７弄３號","OBJECTID":210850},"geometry":{"x":173860.30999999959,"y":2538730.4900000002}},{"attributes":{"ID":210852,"DIS_CODE":0,"TOWNNAME":"安定區","LI":"中榮里","LIN":"2鄰","STREET":" ","SECT":" ","MAREA":"許中營","LANE":" ","ALLEY":" ","HOUSE_NO":"２４之１１號","E_COORD97":172625.79000000001,"N_COORD97":2554421.2999999998,"ADDRESS":"許中營２４之１１號","OBJECTID":210851},"geometry":{"x":172625.79000000097,"y":2554421.3000000045}},{"attributes":{"ID":210853,"DIS_CODE":0,"TOWNNAME":"仁德區","LI":"後壁里","LIN":"41鄰","STREET":"德善路","SECT":" ","MAREA":" ","LANE":"２７３巷","ALLEY":"６弄","HOUSE_NO":"１３號","E_COORD97":173969.97,"N_COORD97":2538696.2999999998,"ADDRESS":"德善路２７３巷６弄１３號","OBJECTID":210852},"geometry":{"x":173969.96999999881,"y":2538696.3000000007}},{"attributes":{"ID":210854,"DIS_CODE":0,"TOWNNAME":"仁德區","LI":"後壁里","LIN":"41鄰","STREET":"德善路","SECT":" ","MAREA":" ","LANE":"２７３巷","ALLEY":"６弄","HOUSE_NO":"１４號","E_COORD97":173946.85000000001,"N_COORD97":2538658.8100000001,"ADDRESS":"德善路２７３巷６弄１４號","OBJECTID":210853},"geometry":{"x":173946.84999999963,"y":2538658.8100000005}},{"attributes":{"ID":210855,"DIS_CODE":0,"TOWNNAME":"安定區","LI":"中榮里","LIN":"2鄰","STREET":" ","SECT":" ","MAREA":"許中營","LANE":" ","ALLEY":" ","HOUSE_NO":"２３之１５號","E_COORD97":172567.09,"N_COORD97":2554817.2999999998,"ADDRESS":"許中營２３之１５號","OBJECTID":210854},"geometry":{"x":172567.08999999985,"y":2554817.3000000007}},{"attributes":{"ID":210856,"DIS_CODE":0,"TOWNNAME":"安定區","LI":"蘇厝里","LIN":"2鄰","STREET":" ","SECT":" ","MAREA":"蘇厝","LANE":" ","ALLEY":" ","HOUSE_NO":"２９３之９５號","E_COORD97":173341.67000000001,"N_COORD97":2558355.2999999998,"ADDRESS":"蘇厝２９３之９５號","OBJECTID":210855},"geometry":{"x":173341.67000000179,"y":2558355.3000000026}},{"attributes":{"ID":210857,"DIS_CODE":0,"TOWNNAME":"永康區","LI":"\u25A0行里","LIN":"41鄰","STREET":"永安路","SECT":" ","MAREA":" ","LANE":"１６５巷","ALLEY":"３０弄","HOUSE_NO":"１５號之５","E_COORD97":172434.82000000001,"N_COORD97":2549481.0600000001,"ADDRESS":"永安路１６５巷３０弄１５號之５","OBJECTID":210856},"geometry":{"x":172434.82000000123,"y":2549481.0600000024}},{"attributes":{"ID":210858,"DIS_CODE":0,"TOWNNAME":"永康區","LI":"南灣里","LIN":"41鄰","STREET":"南興路","SECT":" ","MAREA":" ","LANE":"１１２巷","ALLEY":"１０４弄","HOUSE_NO":"２０號","E_COORD97":174676.07999999999,"N_COORD97":2544516.6200000001,"ADDRESS":"南興路１１２巷１０４弄２０號","OBJECTID":210857},"geometry":{"x":174676.08000000007,"y":2544516.6200000029}},{"attributes":{"ID":210859,"DIS_CODE":0,"TOWNNAME":"安定區","LI":"六嘉里","LIN":"2鄰","STREET":" ","SECT":" ","MAREA":"六塊寮","LANE":" ","ALLEY":" ","HOUSE_NO":"１２號","E_COORD97":170055.62,"N_COORD97":2553607.27,"ADDRESS":"六塊寮１２號","OBJECTID":210858},"geometry":{"x":170055.62000000104,"y":2553607.2700000014}},{"attributes":{"ID":210860,"DIS_CODE":0,"TOWNNAME":"永康區","LI":"\u25A0行里","LIN":"41鄰","STREET":"永安路","SECT":" ","MAREA":" ","LANE":"１６５巷","ALLEY":"３０弄","HOUSE_NO":"７７號","E_COORD97":172362.06,"N_COORD97":2549467.4900000002,"ADDRESS":"永安路１６５巷３０弄７７號","OBJECTID":210859},"geometry":{"x":172362.05999999959,"y":2549467.4900000021}},{"attributes":{"ID":210861,"DIS_CODE":0,"TOWNNAME":"仁德區","LI":"後壁里","LIN":"41鄰","STREET":"德善路","SECT":" ","MAREA":" ","LANE":"２５１巷","ALLEY":"７弄","HOUSE_NO":"７號","E_COORD97":173854.39000000001,"N_COORD97":2538721.4900000002,"ADDRESS":"德善路２５１巷７弄７號","OBJECTID":210860},"geometry":{"x":173854.3900000006,"y":2538721.4900000002}},{"attributes":{"ID":210862,"DIS_CODE":0,"TOWNNAME":"安定區","LI":"中榮里","LIN":"2鄰","STREET":" ","SECT":" ","MAREA":"許中營","LANE":" ","ALLEY":" ","HOUSE_NO":"２４之７號","E_COORD97":172863.04000000001,"N_COORD97":2554465.2999999998,"ADDRESS":"許中營２４之７號","OBJECTID":210861},"geometry":{"x":172863.0400000019,"y":2554465.3000000045}},{"attributes":{"ID":210863,"DIS_CODE":0,"TOWNNAME":"仁德區","LI":"後壁里","LIN":"41鄰","STREET":"德善路","SECT":" ","MAREA":" ","LANE":"２７３巷","ALLEY":"６弄","HOUSE_NO":"１６號","E_COORD97":173943.70000000001,"N_COORD97":2538654.8100000001,"ADDRESS":"德善路２７３巷６弄１６號","OBJECTID":210862},"geometry":{"x":173943.70000000205,"y":2538654.8100000005}},{"attributes":{"ID":210864,"DIS_CODE":0,"TOWNNAME":"玉井區","LI":"玉田里","LIN":"41鄰","STREET":"民族路","SECT":" ","MAREA":" ","LANE":"１７９巷","ALLEY":"３５弄","HOUSE_NO":"１號","E_COORD97":195441.82999999999,"N_COORD97":2558199.2799999998,"ADDRESS":"民族路１７９巷３５弄１號","OBJECTID":210863},"geometry":{"x":195441.83000000007,"y":2558199.2799999993}},{"attributes":{"ID":210865,"DIS_CODE":0,"TOWNNAME":"安定區","LI":"中榮里","LIN":"2鄰","STREET":" ","SECT":" ","MAREA":"許中營","LANE":" ","ALLEY":" ","HOUSE_NO":"２３之１７號","E_COORD97":172551.79000000001,"N_COORD97":2554776.2999999998,"ADDRESS":"許中營２３之１７號","OBJECTID":210864},"geometry":{"x":172551.79000000097,"y":2554776.3000000007}},{"attributes":{"ID":210866,"DIS_CODE":0,"TOWNNAME":"安定區","LI":"安加里","LIN":"2鄰","STREET":" ","SECT":" ","MAREA":"安定","LANE":" ","ALLEY":" ","HOUSE_NO":"１６９號","E_COORD97":171918.22,"N_COORD97":2557627.3199999998,"ADDRESS":"安定１６９號","OBJECTID":210865},"geometry":{"x":171918.21999999974,"y":2557627.3200000003}},{"attributes":{"ID":210867,"DIS_CODE":0,"TOWNNAME":"玉井區","LI":"玉田里","LIN":"41鄰","STREET":"民族路","SECT":" ","MAREA":" ","LANE":"１７９巷","ALLEY":"３５弄","HOUSE_NO":"３號","E_COORD97":195432.13,"N_COORD97":2558200.2799999998,"ADDRESS":"民族路１７９巷３５弄３號","OBJECTID":210866},"geometry":{"x":195432.13000000082,"y":2558200.2800000031}},{"attributes":{"ID":210868,"DIS_CODE":0,"TOWNNAME":"仁德區","LI":"後壁里","LIN":"41鄰","STREET":"德善路","SECT":" ","MAREA":" ","LANE":"２５１巷","ALLEY":"７弄","HOUSE_NO":"６號八樓之２","E_COORD97":173916.60000000001,"N_COORD97":2538729.54,"ADDRESS":"德善路２５１巷７弄６號八樓之２","OBJECTID":210867},"geometry":{"x":173916.60000000149,"y":2538729.5399999991}},{"attributes":{"ID":210869,"DIS_CODE":0,"TOWNNAME":"永康區","LI":"六合里","LIN":"2鄰","STREET":"中山南路","SECT":" ","MAREA":" ","LANE":" ","ALLEY":" ","HOUSE_NO":"３２號","E_COORD97":170829.06009300001,"N_COORD97":2545842.4168400001,"ADDRESS":"中山南路３２號","OBJECTID":210868},"geometry":{"x":170829.06009300053,"y":2545842.4168360028}},{"attributes":{"ID":210870,"DIS_CODE":0,"TOWNNAME":"安定區","LI":"蘇厝里","LIN":"2鄰","STREET":" ","SECT":" ","MAREA":"蘇厝","LANE":" ","ALLEY":" ","HOUSE_NO":"２９３之８９號","E_COORD97":173303.47,"N_COORD97":2558392.2999999998,"ADDRESS":"蘇厝２９３之８９號","OBJECTID":210869},"geometry":{"x":173303.46999999974,"y":2558392.3000000026}},{"attributes":{"ID":210871,"DIS_CODE":0,"TOWNNAME":"佳里區","LI":"建南里","LIN":"24鄰","STREET":"祥和二街","SECT":" ","MAREA":" ","LANE":" ","ALLEY":" ","HOUSE_NO":"２４１號","E_COORD97":165503.51000000001,"N_COORD97":2561129.1699999999,"ADDRESS":"祥和二街２４１號","OBJECTID":210870},"geometry":{"x":165503.50999999978,"y":2561129.1700000018}},{"attributes":{"ID":210872,"DIS_CODE":0,"TOWNNAME":"新市區","LI":"社內里","LIN":"2鄰","STREET":" ","SECT":" ","MAREA":"社內","LANE":" ","ALLEY":" ","HOUSE_NO":"２２之１１號","E_COORD97":176842.75,"N_COORD97":2552881.0499999998,"ADDRESS":"社內２２之１１號","OBJECTID":210871},"geometry":{"x":176842.75,"y":2552881.0500000026}},{"attributes":{"ID":210873,"DIS_CODE":0,"TOWNNAME":"佳里區","LI":"建南里","LIN":"24鄰","STREET":"祥和二街","SECT":" ","MAREA":" ","LANE":" ","ALLEY":" ","HOUSE_NO":"２６７號","E_COORD97":165451.10000000001,"N_COORD97":2561135.2799999998,"ADDRESS":"祥和二街２６７號","OBJECTID":210872},"geometry":{"x":165451.10000000056,"y":2561135.2799999993}},{"attributes":{"ID":210874,"DIS_CODE":0,"TOWNNAME":"新市區","LI":"社內里","LIN":"2鄰","STREET":" ","SECT":" ","MAREA":"社內","LANE":" ","ALLEY":" ","HOUSE_NO":"２２之６號","E_COORD97":176861.39000000001,"N_COORD97":2552883.2999999998,"ADDRESS":"社內２２之６號","OBJECTID":210873},"geometry":{"x":176861.3900000006,"y":2552883.3000000026}},{"attributes":{"ID":210875,"DIS_CODE":0,"TOWNNAME":"佳里區","LI":"建南里","LIN":"24鄰","STREET":"祥和二街","SECT":" ","MAREA":" ","LANE":" ","ALLEY":" ","HOUSE_NO":"２６９號","E_COORD97":165446.97,"N_COORD97":2561135.8900000001,"ADDRESS":"祥和二街２６９號","OBJECTID":210874},"geometry":{"x":165446.97000000067,"y":2561135.8900000006}},{"attributes":{"ID":210876,"DIS_CODE":0,"TOWNNAME":"新營區","LI":"鐵線里","LIN":"9鄰","STREET":" ","SECT":" ","MAREA":"鐵線橋","LANE":" ","ALLEY":" ","HOUSE_NO":"９９號","E_COORD97":175978.53,"N_COORD97":2573981.9199999999,"ADDRESS":"鐵線橋９９號","OBJECTID":210875},"geometry":{"x":175978.53000000026,"y":2573981.9199999981}},{"attributes":{"ID":210877,"DIS_CODE":0,"TOWNNAME":"新市區","LI":"潭頂里","LIN":"2鄰","STREET":" ","SECT":" ","MAREA":"潭頂","LANE":" ","ALLEY":" ","HOUSE_NO":"９９之２６號","E_COORD97":182541.73000000001,"N_COORD97":2554417.7999999998,"ADDRESS":"潭頂９９之２６號","OBJECTID":210876},"geometry":{"x":182541.73000000231,"y":2554417.8000000045}},{"attributes":{"ID":210878,"DIS_CODE":0,"TOWNNAME":"新市區","LI":"潭頂里","LIN":"2鄰","STREET":" ","SECT":" ","MAREA":"潭頂","LANE":" ","ALLEY":" ","HOUSE_NO":"９０之５４號","E_COORD97":181687.87,"N_COORD97":2553497.0499999998,"ADDRESS":"潭頂９０之５４號","OBJECTID":210877},"geometry":{"x":181687.87000000104,"y":2553497.0500000007}},{"attributes":{"ID":210879,"DIS_CODE":0,"TOWNNAME":"仁德區","LI":"後壁里","LIN":"41鄰","STREET":"德善路","SECT":" ","MAREA":" ","LANE":"２５１巷","ALLEY":"７弄","HOUSE_NO":"８號六樓之１","E_COORD97":173933.12,"N_COORD97":2538718.04,"ADDRESS":"德善路２５１巷７弄８號六樓之１","OBJECTID":210878},"geometry":{"x":173933.12000000011,"y":2538718.040000001}},{"attributes":{"ID":210880,"DIS_CODE":0,"TOWNNAME":"新市區","LI":"潭頂里","LIN":"2鄰","STREET":" ","SECT":" ","MAREA":"潭頂","LANE":" ","ALLEY":" ","HOUSE_NO":"１００之６０號","E_COORD97":181601.79000000001,"N_COORD97":2553305.5499999998,"ADDRESS":"潭頂１００之６０號","OBJECTID":210879},"geometry":{"x":181601.7900000019,"y":2553305.5500000026}},{"attributes":{"ID":210881,"DIS_CODE":0,"TOWNNAME":"新市區","LI":"潭頂里","LIN":"2鄰","STREET":" ","SECT":" ","MAREA":"潭頂","LANE":" ","ALLEY":" ","HOUSE_NO":"９０之２１號","E_COORD97":181684.78,"N_COORD97":2553466.0499999998,"ADDRESS":"潭頂９０之２１號","OBJECTID":210880},"geometry":{"x":181684.78000000026,"y":2553466.0500000007}},{"attributes":{"ID":210882,"DIS_CODE":0,"TOWNNAME":"新市區","LI":"潭頂里","LIN":"2鄰","STREET":" ","SECT":" ","MAREA":"潭頂","LANE":" ","ALLEY":" ","HOUSE_NO":"１３８號","E_COORD97":181014.09,"N_COORD97":2553085.75,"ADDRESS":"潭頂１３８號","OBJECTID":210881},"geometry":{"x":181014.08999999985,"y":2553085.7500000019}},{"attributes":{"ID":210883,"DIS_CODE":0,"TOWNNAME":"仁德區","LI":"後壁里","LIN":"41鄰","STREET":"德善路","SECT":" ","MAREA":" ","LANE":"２５１巷","ALLEY":"７弄","HOUSE_NO":"２號二樓之１","E_COORD97":173901.17000000001,"N_COORD97":2538740.5499999998,"ADDRESS":"德善路２５１巷７弄２號二樓之１","OBJECTID":210882},"geometry":{"x":173901.17000000179,"y":2538740.5500000026}},{"attributes":{"ID":210884,"DIS_CODE":0,"TOWNNAME":"新市區","LI":"潭頂里","LIN":"2鄰","STREET":" ","SECT":" ","MAREA":"潭頂","LANE":" ","ALLEY":" ","HOUSE_NO":"１３５號","E_COORD97":181141.79000000001,"N_COORD97":2553121.25,"ADDRESS":"潭頂１３５號","OBJECTID":210883},"geometry":{"x":181141.79000000004,"y":2553121.25}},{"attributes":{"ID":210885,"DIS_CODE":0,"TOWNNAME":"新市區","LI":"潭頂里","LIN":"2鄰","STREET":" ","SECT":" ","MAREA":"潭頂","LANE":" ","ALLEY":" ","HOUSE_NO":"９０之２６號","E_COORD97":181740.81,"N_COORD97":2553481.7999999998,"ADDRESS":"潭頂９０之２６號","OBJECTID":210884},"geometry":{"x":181740.81000000052,"y":2553481.8000000007}},{"attributes":{"ID":210886,"DIS_CODE":0,"TOWNNAME":"新市區","LI":"永就里","LIN":"2鄰","STREET":" ","SECT":" ","MAREA":"永就","LANE":" ","ALLEY":" ","HOUSE_NO":"１６號","E_COORD97":178386.59,"N_COORD97":2551350.25,"ADDRESS":"永就１６號","OBJECTID":210885},"geometry":{"x":178386.58999999985,"y":2551350.2500000019}},{"attributes":{"ID":210887,"DIS_CODE":0,"TOWNNAME":"白河區","LI":"仙草里","LIN":"2鄰","STREET":" ","SECT":" ","MAREA":"仙草","LANE":" ","ALLEY":" ","HOUSE_NO":"１６之２１號","E_COORD97":196205.91,"N_COORD97":2582756.3900000001,"ADDRESS":"仙草１６之２１號","OBJECTID":210886},"geometry":{"x":196205.91000000015,"y":2582756.3900000006}},{"attributes":{"ID":210888,"DIS_CODE":0,"TOWNNAME":"仁德區","LI":"後壁里","LIN":"41鄰","STREET":"德善路","SECT":" ","MAREA":" ","LANE":"２５１巷","ALLEY":"７弄","HOUSE_NO":"２號三樓之３","E_COORD97":173901.26999999999,"N_COORD97":2538740.5499999998,"ADDRESS":"德善路２５１巷７弄２號三樓之３","OBJECTID":210887},"geometry":{"x":173901.26999999955,"y":2538740.5500000026}},{"attributes":{"ID":210889,"DIS_CODE":0,"TOWNNAME":"白河區","LI":"仙草里","LIN":"2鄰","STREET":" ","SECT":" ","MAREA":"仙草","LANE":" ","ALLEY":" ","HOUSE_NO":"１６之２２號","E_COORD97":196202.35999999999,"N_COORD97":2582744.1099999999,"ADDRESS":"仙草１６之２２號","OBJECTID":210888},"geometry":{"x":196202.36000000127,"y":2582744.1099999994}},{"attributes":{"ID":210890,"DIS_CODE":0,"TOWNNAME":"白河區","LI":"仙草里","LIN":"2鄰","STREET":" ","SECT":" ","MAREA":"仙草","LANE":" ","ALLEY":" ","HOUSE_NO":"１６之２３號","E_COORD97":196235.54999999999,"N_COORD97":2582812.3399999999,"ADDRESS":"仙草１６之２３號","OBJECTID":210889},"geometry":{"x":196235.54999999981,"y":2582812.3400000017}},{"attributes":{"ID":210891,"DIS_CODE":0,"TOWNNAME":"仁德區","LI":"後壁里","LIN":"41鄰","STREET":"德善路","SECT":" ","MAREA":" ","LANE":"２５１巷","ALLEY":"７弄","HOUSE_NO":"２號三樓之２","E_COORD97":173901.31,"N_COORD97":2538740.5499999998,"ADDRESS":"德善路２５１巷７弄２號三樓之２","OBJECTID":210890},"geometry":{"x":173901.30999999959,"y":2538740.5500000026}},{"attributes":{"ID":210892,"DIS_CODE":0,"TOWNNAME":"白河區","LI":"仙草里","LIN":"2鄰","STREET":" ","SECT":" ","MAREA":"仙草","LANE":" ","ALLEY":" ","HOUSE_NO":"１６之２４號","E_COORD97":196232.01000000001,"N_COORD97":2582815.4100000001,"ADDRESS":"仙草１６之２４號","OBJECTID":210891},"geometry":{"x":196232.00999999978,"y":2582815.410000002}},{"attributes":{"ID":210893,"DIS_CODE":0,"TOWNNAME":"仁德區","LI":"後壁里","LIN":"41鄰","STREET":"德善路","SECT":" ","MAREA":" ","LANE":"２５１巷","ALLEY":"７弄","HOUSE_NO":"２號八樓之１","E_COORD97":173901.17000000001,"N_COORD97":2538740.5499999998,"ADDRESS":"德善路２５１巷７弄２號八樓之１","OBJECTID":210892},"geometry":{"x":173901.17000000179,"y":2538740.5500000026}},{"attributes":{"ID":210894,"DIS_CODE":0,"TOWNNAME":"白河區","LI":"仙草里","LIN":"2鄰","STREET":" ","SECT":" ","MAREA":"仙草","LANE":" ","ALLEY":" ","HOUSE_NO":"２０之１號","E_COORD97":196219.98999999999,"N_COORD97":2582655.8199999998,"ADDRESS":"仙草２０之１號","OBJECTID":210893},"geometry":{"x":196219.99000000115,"y":2582655.820000004}},{"attributes":{"ID":210895,"DIS_CODE":0,"TOWNNAME":"仁德區","LI":"後壁里","LIN":"41鄰","STREET":"德善路","SECT":" ","MAREA":" ","LANE":"２５１巷","ALLEY":"７弄","HOUSE_NO":"２號九樓之２","E_COORD97":173901.31,"N_COORD97":2538740.5499999998,"ADDRESS":"德善路２５１巷７弄２號九樓之２","OBJECTID":210894},"geometry":{"x":173901.30999999959,"y":2538740.5500000026}},{"attributes":{"ID":210896,"DIS_CODE":0,"TOWNNAME":"仁德區","LI":"後壁里","LIN":"41鄰","STREET":"德善路","SECT":" ","MAREA":" ","LANE":"２５１巷","ALLEY":"７弄","HOUSE_NO":"２號九樓之３","E_COORD97":173901.26999999999,"N_COORD97":2538740.5499999998,"ADDRESS":"德善路２５１巷７弄２號九樓之３","OBJECTID":210895},"geometry":{"x":173901.26999999955,"y":2538740.5500000026}},{"attributes":{"ID":210897,"DIS_CODE":0,"TOWNNAME":"白河區","LI":"仙草里","LIN":"2鄰","STREET":" ","SECT":" ","MAREA":"仙草","LANE":" ","ALLEY":" ","HOUSE_NO":"１６之２５號","E_COORD97":196228.42000000001,"N_COORD97":2582818.7599999998,"ADDRESS":"仙草１６之２５號","OBJECTID":210896},"geometry":{"x":196228.42000000179,"y":2582818.7600000016}},{"attributes":{"ID":210898,"DIS_CODE":0,"TOWNNAME":"仁德區","LI":"後壁里","LIN":"41鄰","STREET":"德善路","SECT":" ","MAREA":" ","LANE":"２５１巷","ALLEY":"７弄","HOUSE_NO":"２號八樓之３","E_COORD97":173901.26999999999,"N_COORD97":2538740.5499999998,"ADDRESS":"德善路２５１巷７弄２號八樓之３","OBJECTID":210897},"geometry":{"x":173901.26999999955,"y":2538740.5500000026}},{"attributes":{"ID":210899,"DIS_CODE":0,"TOWNNAME":"仁德區","LI":"後壁里","LIN":"41鄰","STREET":"德善路","SECT":" ","MAREA":" ","LANE":"２５１巷","ALLEY":"７弄","HOUSE_NO":"６號四樓之３","E_COORD97":173916.56,"N_COORD97":2538729.54,"ADDRESS":"德善路２５１巷７弄６號四樓之３","OBJECTID":210898},"geometry":{"x":173916.55999999959,"y":2538729.5399999991}},{"attributes":{"ID":210900,"DIS_CODE":0,"TOWNNAME":"白河區","LI":"仙草里","LIN":"2鄰","STREET":" ","SECT":" ","MAREA":"仙草","LANE":" ","ALLEY":" ","HOUSE_NO":"１６之２６號","E_COORD97":196225.07000000001,"N_COORD97":2582821.21,"ADDRESS":"仙草１６之２６號","OBJECTID":210899},"geometry":{"x":196225.07000000123,"y":2582821.2100000028}},{"attributes":{"ID":210901,"DIS_CODE":0,"TOWNNAME":"白河區","LI":"仙草里","LIN":"2鄰","STREET":" ","SECT":" ","MAREA":"仙草","LANE":" ","ALLEY":" ","HOUSE_NO":"１６之２７號","E_COORD97":196233.29000000001,"N_COORD97":2582832.5099999998,"ADDRESS":"仙草１６之２７號","OBJECTID":210900},"geometry":{"x":196233.29000000097,"y":2582832.5099999998}},{"attributes":{"ID":210902,"DIS_CODE":0,"TOWNNAME":"仁德區","LI":"後壁里","LIN":"41鄰","STREET":"德善路","SECT":" ","MAREA":" ","LANE":"２５１巷","ALLEY":"７弄","HOUSE_NO":"２號九樓之１","E_COORD97":173901.17000000001,"N_COORD97":2538740.5499999998,"ADDRESS":"德善路２５１巷７弄２號九樓之１","OBJECTID":210901},"geometry":{"x":173901.17000000179,"y":2538740.5500000026}},{"attributes":{"ID":210903,"DIS_CODE":0,"TOWNNAME":"歸仁區","LI":"新厝里","LIN":"9鄰","STREET":"和平南街","SECT":" ","MAREA":" ","LANE":"１２６巷","ALLEY":" ","HOUSE_NO":"１號","E_COORD97":177776.32000000001,"N_COORD97":2540471.5,"ADDRESS":"和平南街１２６巷１號","OBJECTID":210902},"geometry":{"x":177776.32000000123,"y":2540471.5000000019}},{"attributes":{"ID":210904,"DIS_CODE":0,"TOWNNAME":"佳里區","LI":"建南里","LIN":"24鄰","STREET":"祥和二街","SECT":" ","MAREA":" ","LANE":" ","ALLEY":" ","HOUSE_NO":"２７１號","E_COORD97":165443.17999999999,"N_COORD97":2561136.29,"ADDRESS":"祥和二街２７１號","OBJECTID":210903},"geometry":{"x":165443.1799999997,"y":2561136.290000001}},{"attributes":{"ID":210905,"DIS_CODE":0,"TOWNNAME":"佳里區","LI":"建南里","LIN":"24鄰","STREET":"祥和二街","SECT":" ","MAREA":" ","LANE":" ","ALLEY":" ","HOUSE_NO":"２７３號","E_COORD97":165438.72,"N_COORD97":2561137,"ADDRESS":"祥和二街２７３號","OBJECTID":210904},"geometry":{"x":165438.72000000067,"y":2561137.0000000019}},{"attributes":{"ID":210906,"DIS_CODE":0,"TOWNNAME":"佳里區","LI":"建南里","LIN":"24鄰","STREET":"祥和二街","SECT":" ","MAREA":" ","LANE":" ","ALLEY":" ","HOUSE_NO":"２７５號","E_COORD97":165434.67000000001,"N_COORD97":2561137.4199999999,"ADDRESS":"祥和二街２７５號","OBJECTID":210905},"geometry":{"x":165434.66999999993,"y":2561137.4200000018}},{"attributes":{"ID":210907,"DIS_CODE":0,"TOWNNAME":"佳里區","LI":"建南里","LIN":"24鄰","STREET":"祥和二街","SECT":" ","MAREA":" ","LANE":" ","ALLEY":" ","HOUSE_NO":"２７７號","E_COORD97":165430.79999999999,"N_COORD97":2561138.02,"ADDRESS":"祥和二街２７７號","OBJECTID":210906},"geometry":{"x":165430.79999999981,"y":2561138.0199999977}},{"attributes":{"ID":210908,"DIS_CODE":0,"TOWNNAME":"麻豆區","LI":"小埤里","LIN":"1鄰","STREET":" ","SECT":" ","MAREA":"苓子林","LANE":" ","ALLEY":" ","HOUSE_NO":"７號之５","E_COORD97":171578.98999999999,"N_COORD97":2565388.27,"ADDRESS":"苓子林７號之５","OBJECTID":210907},"geometry":{"x":171578.99000000115,"y":2565388.2700000033}},{"attributes":{"ID":210909,"DIS_CODE":0,"TOWNNAME":"歸仁區","LI":"後市里","LIN":"9鄰","STREET":"大順六街","SECT":" ","MAREA":" ","LANE":" ","ALLEY":" ","HOUSE_NO":"２８號","E_COORD97":177046.10999999999,"N_COORD97":2540668.25,"ADDRESS":"大順六街２８號","OBJECTID":210908},"geometry":{"x":177046.11000000034,"y":2540668.25}},{"attributes":{"ID":210910,"DIS_CODE":0,"TOWNNAME":"歸仁區","LI":"南興里","LIN":"9鄰","STREET":"文化街","SECT":"三段","MAREA":" ","LANE":" ","ALLEY":" ","HOUSE_NO":"４３８號","E_COORD97":175962.73999999999,"N_COORD97":2541214.3300000001,"ADDRESS":"文化街三段４３８號","OBJECTID":210909},"geometry":{"x":175962.74000000115,"y":2541214.3300000001}},{"attributes":{"ID":210911,"DIS_CODE":0,"TOWNNAME":"麻豆區","LI":"小埤里","LIN":"1鄰","STREET":" ","SECT":" ","MAREA":"苓子林","LANE":" ","ALLEY":" ","HOUSE_NO":"７號之６","E_COORD97":171642.45000000001,"N_COORD97":2565308.21,"ADDRESS":"苓子林７號之６","OBJECTID":210910},"geometry":{"x":171642.45000000019,"y":2565308.2100000009}},{"attributes":{"ID":210912,"DIS_CODE":0,"TOWNNAME":"麻豆區","LI":"小埤里","LIN":"1鄰","STREET":" ","SECT":" ","MAREA":"苓子林","LANE":" ","ALLEY":" ","HOUSE_NO":"７號","E_COORD97":171651.81,"N_COORD97":2564978.6699999999,"ADDRESS":"苓子林７號","OBJECTID":210911},"geometry":{"x":171651.80999999959,"y":2564978.6699999999}},{"attributes":{"ID":210913,"DIS_CODE":0,"TOWNNAME":"歸仁區","LI":"沙崙里","LIN":"9鄰","STREET":" ","SECT":" ","MAREA":"沙崙","LANE":" ","ALLEY":" ","HOUSE_NO":"１９９號","E_COORD97":179095.07999999999,"N_COORD97":2537101.25,"ADDRESS":"沙崙１９９號","OBJECTID":210912},"geometry":{"x":179095.08000000101,"y":2537101.25}},{"attributes":{"ID":210914,"DIS_CODE":0,"TOWNNAME":"仁德區","LI":"後壁里","LIN":"41鄰","STREET":"德善路","SECT":" ","MAREA":" ","LANE":"２５１巷","ALLEY":"７弄","HOUSE_NO":"２號七樓之３","E_COORD97":173901.26999999999,"N_COORD97":2538740.5499999998,"ADDRESS":"德善路２５１巷７弄２號七樓之３","OBJECTID":210913},"geometry":{"x":173901.26999999955,"y":2538740.5500000026}},{"attributes":{"ID":210915,"DIS_CODE":0,"TOWNNAME":"仁德區","LI":"後壁里","LIN":"41鄰","STREET":"德善路","SECT":" ","MAREA":" ","LANE":"２５１巷","ALLEY":"７弄","HOUSE_NO":"２號五樓之１","E_COORD97":173901.17000000001,"N_COORD97":2538740.5499999998,"ADDRESS":"德善路２５１巷７弄２號五樓之１","OBJECTID":210914},"geometry":{"x":173901.17000000179,"y":2538740.5500000026}},{"attributes":{"ID":210916,"DIS_CODE":0,"TOWNNAME":"新營區","LI":"鐵線里","LIN":"9鄰","STREET":" ","SECT":" ","MAREA":"鐵線橋","LANE":" ","ALLEY":" ","HOUSE_NO":"９６號","E_COORD97":175949.5,"N_COORD97":2573905.6499999999,"ADDRESS":"鐵線橋９６號","OBJECTID":210915},"geometry":{"x":175949.5,"y":2573905.6500000004}},{"attributes":{"ID":210917,"DIS_CODE":0,"TOWNNAME":"仁德區","LI":"後壁里","LIN":"41鄰","STREET":"德善路","SECT":" ","MAREA":" ","LANE":"２５１巷","ALLEY":"７弄","HOUSE_NO":"２號六樓之１","E_COORD97":173901.17000000001,"N_COORD97":2538740.5499999998,"ADDRESS":"德善路２５１巷７弄２號六樓之１","OBJECTID":210916},"geometry":{"x":173901.17000000179,"y":2538740.5500000026}},{"attributes":{"ID":210918,"DIS_CODE":0,"TOWNNAME":"仁德區","LI":"後壁里","LIN":"41鄰","STREET":"德善路","SECT":" ","MAREA":" ","LANE":"２５１巷","ALLEY":"７弄","HOUSE_NO":"８號七樓之１","E_COORD97":173933.12,"N_COORD97":2538718.04,"ADDRESS":"德善路２５１巷７弄８號七樓之１","OBJECTID":210917},"geometry":{"x":173933.12000000011,"y":2538718.040000001}},{"attributes":{"ID":210919,"DIS_CODE":0,"TOWNNAME":"白河區","LI":"仙草里","LIN":"2鄰","STREET":" ","SECT":" ","MAREA":"仙草","LANE":" ","ALLEY":" ","HOUSE_NO":"１６之２８號","E_COORD97":196235.82000000001,"N_COORD97":2582836.0699999998,"ADDRESS":"仙草１６之２８號","OBJECTID":210918},"geometry":{"x":196235.8200000003,"y":2582836.0700000003}},{"attributes":{"ID":210920,"DIS_CODE":0,"TOWNNAME":"白河區","LI":"仙草里","LIN":"2鄰","STREET":" ","SECT":" ","MAREA":"仙草","LANE":" ","ALLEY":" ","HOUSE_NO":"１６之２９號","E_COORD97":196238.42999999999,"N_COORD97":2582839.0800000001,"ADDRESS":"仙草１６之２９號","OBJECTID":210919},"geometry":{"x":196238.43000000156,"y":2582839.0800000001}},{"attributes":{"ID":210921,"DIS_CODE":0,"TOWNNAME":"白河區","LI":"仙草里","LIN":"2鄰","STREET":" ","SECT":" ","MAREA":"仙草","LANE":" ","ALLEY":" ","HOUSE_NO":"１６之３０號","E_COORD97":196240.75,"N_COORD97":2582842.3900000001,"ADDRESS":"仙草１６之３０號","OBJECTID":210920},"geometry":{"x":196240.75,"y":2582842.3900000025}},{"attributes":{"ID":210922,"DIS_CODE":0,"TOWNNAME":"仁德區","LI":"後壁里","LIN":"41鄰","STREET":"德善路","SECT":" ","MAREA":" ","LANE":"２５１巷","ALLEY":"７弄","HOUSE_NO":"２號四樓之１","E_COORD97":173901.17000000001,"N_COORD97":2538740.5499999998,"ADDRESS":"德善路２５１巷７弄２號四樓之１","OBJECTID":210921},"geometry":{"x":173901.17000000179,"y":2538740.5500000026}},{"attributes":{"ID":210923,"DIS_CODE":0,"TOWNNAME":"白河區","LI":"仙草里","LIN":"2鄰","STREET":" ","SECT":" ","MAREA":"仙草","LANE":" ","ALLEY":" ","HOUSE_NO":"１６之３１號","E_COORD97":196243.20000000001,"N_COORD97":2582845.5800000001,"ADDRESS":"仙草１６之３１號","OBJECTID":210922},"geometry":{"x":196243.20000000019,"y":2582845.5800000001}},{"attributes":{"ID":210924,"DIS_CODE":0,"TOWNNAME":"白河區","LI":"仙草里","LIN":"2鄰","STREET":" ","SECT":" ","MAREA":"仙草","LANE":" ","ALLEY":" ","HOUSE_NO":"１６之３２號","E_COORD97":196245.95999999999,"N_COORD97":2582848.5499999998,"ADDRESS":"仙草１６之３２號","OBJECTID":210923},"geometry":{"x":196245.96000000089,"y":2582848.5500000026}},{"attributes":{"ID":210925,"DIS_CODE":0,"TOWNNAME":"白河區","LI":"仙草里","LIN":"2鄰","STREET":" ","SECT":" ","MAREA":"仙草","LANE":" ","ALLEY":" ","HOUSE_NO":"１６之３３號","E_COORD97":196198.48000000001,"N_COORD97":2582792.54,"ADDRESS":"仙草１６之３３號","OBJECTID":210924},"geometry":{"x":196198.48000000138,"y":2582792.540000001}},{"attributes":{"ID":210926,"DIS_CODE":0,"TOWNNAME":"白河區","LI":"仙草里","LIN":"2鄰","STREET":" ","SECT":" ","MAREA":"仙草","LANE":" ","ALLEY":" ","HOUSE_NO":"１６之３５號","E_COORD97":196181.85000000001,"N_COORD97":2582760.1600000001,"ADDRESS":"仙草１６之３５號","OBJECTID":210925},"geometry":{"x":196181.85000000056,"y":2582760.1600000001}},{"attributes":{"ID":210927,"DIS_CODE":0,"TOWNNAME":"白河區","LI":"仙草里","LIN":"2鄰","STREET":" ","SECT":" ","MAREA":"仙草","LANE":" ","ALLEY":" ","HOUSE_NO":"１６之３號","E_COORD97":196261.29999999999,"N_COORD97":2582832.2000000002,"ADDRESS":"仙草１６之３號","OBJECTID":210926},"geometry":{"x":196261.29999999888,"y":2582832.2000000011}},{"attributes":{"ID":210928,"DIS_CODE":0,"TOWNNAME":"仁德區","LI":"後壁里","LIN":"41鄰","STREET":"德善路","SECT":" ","MAREA":" ","LANE":"２５１巷","ALLEY":"７弄","HOUSE_NO":"２號四樓之３","E_COORD97":173901.26999999999,"N_COORD97":2538740.5499999998,"ADDRESS":"德善路２５１巷７弄２號四樓之３","OBJECTID":210927},"geometry":{"x":173901.26999999955,"y":2538740.5500000026}},{"attributes":{"ID":210929,"DIS_CODE":0,"TOWNNAME":"仁德區","LI":"後壁里","LIN":"41鄰","STREET":"德善路","SECT":" ","MAREA":" ","LANE":"２５１巷","ALLEY":"７弄","HOUSE_NO":"２號三樓之１","E_COORD97":173901.17000000001,"N_COORD97":2538740.5499999998,"ADDRESS":"德善路２５１巷７弄２號三樓之１","OBJECTID":210928},"geometry":{"x":173901.17000000179,"y":2538740.5500000026}},{"attributes":{"ID":210930,"DIS_CODE":0,"TOWNNAME":"仁德區","LI":"後壁里","LIN":"41鄰","STREET":"德善路","SECT":" ","MAREA":" ","LANE":"２５１巷","ALLEY":"７弄","HOUSE_NO":"２號八樓之２","E_COORD97":173901.31,"N_COORD97":2538740.5499999998,"ADDRESS":"德善路２５１巷７弄２號八樓之２","OBJECTID":210929},"geometry":{"x":173901.30999999959,"y":2538740.5500000026}},{"attributes":{"ID":210931,"DIS_CODE":0,"TOWNNAME":"白河區","LI":"仙草里","LIN":"2鄰","STREET":" ","SECT":" ","MAREA":"仙草","LANE":" ","ALLEY":" ","HOUSE_NO":"１６之４號","E_COORD97":196252.64000000001,"N_COORD97":2582821.1299999999,"ADDRESS":"仙草１６之４號","OBJECTID":210930},"geometry":{"x":196252.6400000006,"y":2582821.129999999}},{"attributes":{"ID":210932,"DIS_CODE":0,"TOWNNAME":"白河區","LI":"仙草里","LIN":"2鄰","STREET":" ","SECT":" ","MAREA":"仙草","LANE":" ","ALLEY":" ","HOUSE_NO":"１６之５號","E_COORD97":196237.94,"N_COORD97":2582803.2200000002,"ADDRESS":"仙草１６之５號","OBJECTID":210931},"geometry":{"x":196237.94000000134,"y":2582803.2200000025}},{"attributes":{"ID":210933,"DIS_CODE":0,"TOWNNAME":"白河區","LI":"仙草里","LIN":"2鄰","STREET":" ","SECT":" ","MAREA":"仙草","LANE":" ","ALLEY":" ","HOUSE_NO":"１６之６號","E_COORD97":196290.87,"N_COORD97":2582832.3799999999,"ADDRESS":"仙草１６之６號","OBJECTID":210932},"geometry":{"x":196290.87000000104,"y":2582832.379999999}},{"attributes":{"ID":210934,"DIS_CODE":0,"TOWNNAME":"白河區","LI":"仙草里","LIN":"2鄰","STREET":" ","SECT":" ","MAREA":"仙草","LANE":" ","ALLEY":" ","HOUSE_NO":"１６之７號","E_COORD97":196279.35000000001,"N_COORD97":2582820.8999999999,"ADDRESS":"仙草１６之７號","OBJECTID":210933},"geometry":{"x":196279.3499999987,"y":2582820.9000000004}},{"attributes":{"ID":210935,"DIS_CODE":0,"TOWNNAME":"白河區","LI":"仙草里","LIN":"2鄰","STREET":" ","SECT":" ","MAREA":"仙草","LANE":" ","ALLEY":" ","HOUSE_NO":"１６之８號","E_COORD97":196269.62,"N_COORD97":2582804.6200000001,"ADDRESS":"仙草１６之８號","OBJECTID":210934},"geometry":{"x":196269.62000000197,"y":2582804.6200000029}},{"attributes":{"ID":210936,"DIS_CODE":0,"TOWNNAME":"白河區","LI":"仙草里","LIN":"2鄰","STREET":" ","SECT":" ","MAREA":"仙草","LANE":" ","ALLEY":" ","HOUSE_NO":"１６之９號","E_COORD97":196260.35000000001,"N_COORD97":2582795.8199999998,"ADDRESS":"仙草１６之９號","OBJECTID":210935},"geometry":{"x":196260.34999999963,"y":2582795.8200000022}},{"attributes":{"ID":210937,"DIS_CODE":0,"TOWNNAME":"仁德區","LI":"後壁里","LIN":"41鄰","STREET":"德善路","SECT":" ","MAREA":" ","LANE":"２５１巷","ALLEY":"７弄","HOUSE_NO":"６號四樓之２","E_COORD97":173916.60000000001,"N_COORD97":2538729.54,"ADDRESS":"德善路２５１巷７弄６號四樓之２","OBJECTID":210936},"geometry":{"x":173916.60000000149,"y":2538729.5399999991}},{"attributes":{"ID":210938,"DIS_CODE":0,"TOWNNAME":"仁德區","LI":"後壁里","LIN":"41鄰","STREET":"德善路","SECT":" ","MAREA":" ","LANE":"２５１巷","ALLEY":"７弄","HOUSE_NO":"８號七樓之３","E_COORD97":173933.22,"N_COORD97":2538718.04,"ADDRESS":"德善路２５１巷７弄８號七樓之３","OBJECTID":210937},"geometry":{"x":173933.22000000067,"y":2538718.040000001}},{"attributes":{"ID":210939,"DIS_CODE":0,"TOWNNAME":"仁德區","LI":"後壁里","LIN":"41鄰","STREET":"德善路","SECT":" ","MAREA":" ","LANE":"２５１巷","ALLEY":"７弄","HOUSE_NO":"８號九樓之４","E_COORD97":173933.14999999999,"N_COORD97":2538718.04,"ADDRESS":"德善路２５１巷７弄８號九樓之４","OBJECTID":210938},"geometry":{"x":173933.15000000037,"y":2538718.040000001}},{"attributes":{"ID":210940,"DIS_CODE":0,"TOWNNAME":"仁德區","LI":"後壁里","LIN":"41鄰","STREET":"德善路","SECT":" ","MAREA":" ","LANE":"２５１巷","ALLEY":"７弄","HOUSE_NO":"８號一樓之１","E_COORD97":173933.12,"N_COORD97":2538718.04,"ADDRESS":"德善路２５１巷７弄８號一樓之１","OBJECTID":210939},"geometry":{"x":173933.12000000011,"y":2538718.040000001}},{"attributes":{"ID":210941,"DIS_CODE":0,"TOWNNAME":"新營區","LI":"新南里","LIN":"9鄰","STREET":"新北五街","SECT":" ","MAREA":" ","LANE":" ","ALLEY":" ","HOUSE_NO":"１４５號","E_COORD97":178568.87,"N_COORD97":2579164.29,"ADDRESS":"新北五街１４５號","OBJECTID":210940},"geometry":{"x":178568.87000000104,"y":2579164.290000001}},{"attributes":{"ID":210942,"DIS_CODE":0,"TOWNNAME":"仁德區","LI":"後壁里","LIN":"41鄰","STREET":"德善路","SECT":" ","MAREA":" ","LANE":"２５１巷","ALLEY":"７弄","HOUSE_NO":"２號六樓之３","E_COORD97":173901.26999999999,"N_COORD97":2538740.5499999998,"ADDRESS":"德善路２５１巷７弄２號六樓之３","OBJECTID":210941},"geometry":{"x":173901.26999999955,"y":2538740.5500000026}},{"attributes":{"ID":210943,"DIS_CODE":0,"TOWNNAME":"新營區","LI":"新南里","LIN":"9鄰","STREET":"新北五街","SECT":" ","MAREA":" ","LANE":" ","ALLEY":" ","HOUSE_NO":"１４７號","E_COORD97":178567.88,"N_COORD97":2579168.73,"ADDRESS":"新北五街１４７號","OBJECTID":210942},"geometry":{"x":178567.87999999989,"y":2579168.7300000023}},{"attributes":{"ID":210944,"DIS_CODE":0,"TOWNNAME":"新營區","LI":"新南里","LIN":"9鄰","STREET":"新北五街","SECT":" ","MAREA":" ","LANE":" ","ALLEY":" ","HOUSE_NO":"１３７號","E_COORD97":178572.87,"N_COORD97":2579145.4500000002,"ADDRESS":"新北五街１３７號","OBJECTID":210943},"geometry":{"x":178572.87000000011,"y":2579145.4500000011}},{"attributes":{"ID":210945,"DIS_CODE":0,"TOWNNAME":"仁德區","LI":"後壁里","LIN":"41鄰","STREET":"德善路","SECT":" ","MAREA":" ","LANE":"２５１巷","ALLEY":"７弄","HOUSE_NO":"６號七樓之３","E_COORD97":173916.56,"N_COORD97":2538729.54,"ADDRESS":"德善路２５１巷７弄６號七樓之３","OBJECTID":210944},"geometry":{"x":173916.55999999959,"y":2538729.5399999991}},{"attributes":{"ID":210946,"DIS_CODE":0,"TOWNNAME":"麻豆區","LI":"小埤里","LIN":"2鄰","STREET":" ","SECT":" ","MAREA":"苓子林","LANE":" ","ALLEY":" ","HOUSE_NO":"８號之３","E_COORD97":171527.67999999999,"N_COORD97":2565012.8500000001,"ADDRESS":"苓子林８號之３","OBJECTID":210945},"geometry":{"x":171527.68000000156,"y":2565012.8500000015}},{"attributes":{"ID":210947,"DIS_CODE":0,"TOWNNAME":"新營區","LI":"新南里","LIN":"9鄰","STREET":"新北五街","SECT":" ","MAREA":" ","LANE":" ","ALLEY":" ","HOUSE_NO":"１３１號","E_COORD97":178576.89999999999,"N_COORD97":2579131.02,"ADDRESS":"新北五街１３１號","OBJECTID":210946},"geometry":{"x":178576.90000000037,"y":2579131.0200000033}},{"attributes":{"ID":210948,"DIS_CODE":0,"TOWNNAME":"新營區","LI":"新北里","LIN":"9鄰","STREET":"三興街","SECT":" ","MAREA":" ","LANE":" ","ALLEY":" ","HOUSE_NO":"３１５號","E_COORD97":179296.95000000001,"N_COORD97":2579753.2799999998,"ADDRESS":"三興街３１５號","OBJECTID":210947},"geometry":{"x":179296.95000000205,"y":2579753.2800000012}},{"attributes":{"ID":210949,"DIS_CODE":0,"TOWNNAME":"新營區","LI":"新北里","LIN":"9鄰","STREET":"三興街","SECT":" ","MAREA":" ","LANE":" ","ALLEY":" ","HOUSE_NO":"３２１號","E_COORD97":179298.04000000001,"N_COORD97":2579766.5699999998,"ADDRESS":"三興街３２１號","OBJECTID":210948},"geometry":{"x":179298.0400000019,"y":2579766.5700000022}},{"attributes":{"ID":210950,"DIS_CODE":0,"TOWNNAME":"仁德區","LI":"後壁里","LIN":"41鄰","STREET":"德善路","SECT":" ","MAREA":" ","LANE":"２５１巷","ALLEY":"７弄","HOUSE_NO":"８號四樓之２","E_COORD97":173933.26000000001,"N_COORD97":2538718.04,"ADDRESS":"德善路２５１巷７弄８號四樓之２","OBJECTID":210949},"geometry":{"x":173933.26000000071,"y":2538718.040000001}},{"attributes":{"ID":210951,"DIS_CODE":0,"TOWNNAME":"仁德區","LI":"後壁里","LIN":"41鄰","STREET":"德善路","SECT":" ","MAREA":" ","LANE":"２５１巷","ALLEY":"７弄","HOUSE_NO":"８號八樓之３","E_COORD97":173933.22,"N_COORD97":2538718.04,"ADDRESS":"德善路２５１巷７弄８號八樓之３","OBJECTID":210950},"geometry":{"x":173933.22000000067,"y":2538718.040000001}},{"attributes":{"ID":210952,"DIS_CODE":0,"TOWNNAME":"仁德區","LI":"後壁里","LIN":"41鄰","STREET":"德善路","SECT":" ","MAREA":" ","LANE":"２５１巷","ALLEY":"７弄","HOUSE_NO":"８號二樓之１","E_COORD97":173933.12,"N_COORD97":2538718.04,"ADDRESS":"德善路２５１巷７弄８號二樓之１","OBJECTID":210951},"geometry":{"x":173933.12000000011,"y":2538718.040000001}},{"attributes":{"ID":210953,"DIS_CODE":0,"TOWNNAME":"仁德區","LI":"後壁里","LIN":"41鄰","STREET":"德善路","SECT":" ","MAREA":" ","LANE":"２５１巷","ALLEY":"７弄","HOUSE_NO":"８號四樓之３","E_COORD97":173933.22,"N_COORD97":2538718.04,"ADDRESS":"德善路２５１巷７弄８號四樓之３","OBJECTID":210952},"geometry":{"x":173933.22000000067,"y":2538718.040000001}},{"attributes":{"ID":210954,"DIS_CODE":0,"TOWNNAME":"麻豆區","LI":"小埤里","LIN":"2鄰","STREET":" ","SECT":" ","MAREA":"苓子林","LANE":" ","ALLEY":" ","HOUSE_NO":"８號之６","E_COORD97":171627.17000000001,"N_COORD97":2565097.27,"ADDRESS":"苓子林８號之６","OBJECTID":210953},"geometry":{"x":171627.16999999993,"y":2565097.2700000014}},{"attributes":{"ID":210955,"DIS_CODE":0,"TOWNNAME":"新營區","LI":"鐵線里","LIN":"9鄰","STREET":" ","SECT":" ","MAREA":"鐵線橋","LANE":" ","ALLEY":" ","HOUSE_NO":"９８號","E_COORD97":175980.51999999999,"N_COORD97":2573968.6200000001,"ADDRESS":"鐵線橋９８號","OBJECTID":210954},"geometry":{"x":175980.52000000048,"y":2573968.6200000048}},{"attributes":{"ID":210956,"DIS_CODE":0,"TOWNNAME":"新營區","LI":"五興里","LIN":"9鄰","STREET":" ","SECT":" ","MAREA":"五間厝","LANE":" ","ALLEY":" ","HOUSE_NO":"９９號","E_COORD97":175602.82999999999,"N_COORD97":2574961.6800000002,"ADDRESS":"五間厝９９號","OBJECTID":210955},"geometry":{"x":175602.83000000101,"y":2574961.6799999997}},{"attributes":{"ID":210957,"DIS_CODE":0,"TOWNNAME":"新營區","LI":"鐵線里","LIN":"9鄰","STREET":" ","SECT":" ","MAREA":"鐵線橋","LANE":" ","ALLEY":" ","HOUSE_NO":"９７號","E_COORD97":175976.23999999999,"N_COORD97":2573930.98,"ADDRESS":"鐵線橋９７號","OBJECTID":210956},"geometry":{"x":175976.24000000115,"y":2573930.9800000004}},{"attributes":{"ID":210958,"DIS_CODE":0,"TOWNNAME":"白河區","LI":"仙草里","LIN":"2鄰","STREET":" ","SECT":" ","MAREA":"仙草","LANE":" ","ALLEY":" ","HOUSE_NO":"１６號","E_COORD97":196246.47,"N_COORD97":2582730.2799999998,"ADDRESS":"仙草１６號","OBJECTID":210957},"geometry":{"x":196246.46999999881,"y":2582730.2800000012}},{"attributes":{"ID":210959,"DIS_CODE":0,"TOWNNAME":"白河區","LI":"仙草里","LIN":"2鄰","STREET":" ","SECT":" ","MAREA":"仙草","LANE":" ","ALLEY":" ","HOUSE_NO":"１７號","E_COORD97":196239.48000000001,"N_COORD97":2582702.9199999999,"ADDRESS":"仙草１７號","OBJECTID":210958},"geometry":{"x":196239.48000000138,"y":2582702.9200000018}},{"attributes":{"ID":210960,"DIS_CODE":0,"TOWNNAME":"白河區","LI":"仙草里","LIN":"2鄰","STREET":" ","SECT":" ","MAREA":"仙草","LANE":" ","ALLEY":" ","HOUSE_NO":"１８號","E_COORD97":196217.64000000001,"N_COORD97":2582683.2000000002,"ADDRESS":"仙草１８號","OBJECTID":210959},"geometry":{"x":196217.63999999966,"y":2582683.2000000011}},{"attributes":{"ID":210961,"DIS_CODE":0,"TOWNNAME":"白河區","LI":"仙草里","LIN":"2鄰","STREET":" ","SECT":" ","MAREA":"仙草","LANE":" ","ALLEY":" ","HOUSE_NO":"２０之４號","E_COORD97":196193.42999999999,"N_COORD97":2582634.0099999998,"ADDRESS":"仙草２０之４號","OBJECTID":210960},"geometry":{"x":196193.4299999997,"y":2582634.0100000016}},{"attributes":{"ID":210962,"DIS_CODE":0,"TOWNNAME":"白河區","LI":"仙草里","LIN":"2鄰","STREET":" ","SECT":" ","MAREA":"仙草","LANE":" ","ALLEY":" ","HOUSE_NO":"２０號","E_COORD97":196204.69,"N_COORD97":2582635.7000000002,"ADDRESS":"仙草２０號","OBJECTID":210961},"geometry":{"x":196204.69000000041,"y":2582635.7000000011}},{"attributes":{"ID":210963,"DIS_CODE":0,"TOWNNAME":"白河區","LI":"仙草里","LIN":"2鄰","STREET":" ","SECT":" ","MAREA":"仙草","LANE":" ","ALLEY":" ","HOUSE_NO":"７之３號","E_COORD97":196138,"N_COORD97":2582655.3700000001,"ADDRESS":"仙草７之３號","OBJECTID":210962},"geometry":{"x":196138,"y":2582655.370000001}},{"attributes":{"ID":210964,"DIS_CODE":0,"TOWNNAME":"白河區","LI":"仙草里","LIN":"2鄰","STREET":" ","SECT":" ","MAREA":"仙草","LANE":" ","ALLEY":" ","HOUSE_NO":"７之５號","E_COORD97":196148.64000000001,"N_COORD97":2582612.1499999999,"ADDRESS":"仙草７之５號","OBJECTID":210963},"geometry":{"x":196148.63999999873,"y":2582612.1500000004}},{"attributes":{"ID":210965,"DIS_CODE":0,"TOWNNAME":"歸仁區","LI":"西埔里","LIN":"9鄰","STREET":"西埔一街","SECT":" ","MAREA":" ","LANE":" ","ALLEY":" ","HOUSE_NO":"１６３號","E_COORD97":177028.48999999999,"N_COORD97":2544621.0899999999,"ADDRESS":"西埔一街１６３號","OBJECTID":210964},"geometry":{"x":177028.48999999929,"y":2544621.0900000017}},{"attributes":{"ID":210966,"DIS_CODE":0,"TOWNNAME":"關廟區","LI":"北花里","LIN":"9鄰","STREET":"四維街","SECT":" ","MAREA":" ","LANE":" ","ALLEY":" ","HOUSE_NO":"３０９號","E_COORD97":181869.26000000001,"N_COORD97":2540363.25,"ADDRESS":"四維街３０９號","OBJECTID":210965},"geometry":{"x":181869.25999999978,"y":2540363.25}},{"attributes":{"ID":210967,"DIS_CODE":0,"TOWNNAME":"仁德區","LI":"後壁里","LIN":"41鄰","STREET":"德善路","SECT":" ","MAREA":" ","LANE":"２５１巷","ALLEY":"７弄","HOUSE_NO":"６號二樓之１","E_COORD97":173916.45999999999,"N_COORD97":2538729.54,"ADDRESS":"德善路２５１巷７弄６號二樓之１","OBJECTID":210966},"geometry":{"x":173916.46000000089,"y":2538729.5399999991}},{"attributes":{"ID":210968,"DIS_CODE":0,"TOWNNAME":"仁德區","LI":"後壁里","LIN":"41鄰","STREET":"德善路","SECT":" ","MAREA":" ","LANE":"２５１巷","ALLEY":"７弄","HOUSE_NO":"６號九樓之２","E_COORD97":173916.60000000001,"N_COORD97":2538729.54,"ADDRESS":"德善路２５１巷７弄６號九樓之２","OBJECTID":210967},"geometry":{"x":173916.60000000149,"y":2538729.5399999991}},{"attributes":{"ID":210969,"DIS_CODE":0,"TOWNNAME":"仁德區","LI":"後壁里","LIN":"41鄰","STREET":"德善路","SECT":" ","MAREA":" ","LANE":"２５１巷","ALLEY":"７弄","HOUSE_NO":"６號六樓之２","E_COORD97":173916.60000000001,"N_COORD97":2538729.54,"ADDRESS":"德善路２５１巷７弄６號六樓之２","OBJECTID":210968},"geometry":{"x":173916.60000000149,"y":2538729.5399999991}},{"attributes":{"ID":210970,"DIS_CODE":0,"TOWNNAME":"仁德區","LI":"後壁里","LIN":"41鄰","STREET":"德善路","SECT":" ","MAREA":" ","LANE":"２５１巷","ALLEY":"７弄","HOUSE_NO":"８號三樓之１","E_COORD97":173933.12,"N_COORD97":2538718.04,"ADDRESS":"德善路２５１巷７弄８號三樓之１","OBJECTID":210969},"geometry":{"x":173933.12000000011,"y":2538718.040000001}},{"attributes":{"ID":210971,"DIS_CODE":0,"TOWNNAME":"仁德區","LI":"後壁里","LIN":"41鄰","STREET":"德善路","SECT":" ","MAREA":" ","LANE":"２５１巷","ALLEY":"７弄","HOUSE_NO":"８號五樓之５","E_COORD97":173933.28,"N_COORD97":2538718.04,"ADDRESS":"德善路２５１巷７弄８號五樓之５","OBJECTID":210970},"geometry":{"x":173933.28000000119,"y":2538718.040000001}},{"attributes":{"ID":210972,"DIS_CODE":0,"TOWNNAME":"仁德區","LI":"後壁里","LIN":"41鄰","STREET":"德善路","SECT":" ","MAREA":" ","LANE":"２５１巷","ALLEY":"７弄","HOUSE_NO":"６號二樓之２","E_COORD97":173916.60000000001,"N_COORD97":2538729.54,"ADDRESS":"德善路２５１巷７弄６號二樓之２","OBJECTID":210971},"geometry":{"x":173916.60000000149,"y":2538729.5399999991}},{"attributes":{"ID":210973,"DIS_CODE":0,"TOWNNAME":"仁德區","LI":"後壁里","LIN":"41鄰","STREET":"德善路","SECT":" ","MAREA":" ","LANE":"２５１巷","ALLEY":"７弄","HOUSE_NO":"８號一樓之４","E_COORD97":173933.14999999999,"N_COORD97":2538718.04,"ADDRESS":"德善路２５１巷７弄８號一樓之４","OBJECTID":210972},"geometry":{"x":173933.15000000037,"y":2538718.040000001}},{"attributes":{"ID":210974,"DIS_CODE":0,"TOWNNAME":"歸仁區","LI":"沙崙里","LIN":"9鄰","STREET":" ","SECT":" ","MAREA":"沙崙","LANE":" ","ALLEY":" ","HOUSE_NO":"１９５號","E_COORD97":179155.67999999999,"N_COORD97":2537123.25,"ADDRESS":"沙崙１９５號","OBJECTID":210973},"geometry":{"x":179155.6799999997,"y":2537123.2500000037}},{"attributes":{"ID":210975,"DIS_CODE":0,"TOWNNAME":"仁德區","LI":"後壁里","LIN":"41鄰","STREET":"德善路","SECT":" ","MAREA":" ","LANE":"２５１巷","ALLEY":"７弄","HOUSE_NO":"８號六樓之４","E_COORD97":173933.14999999999,"N_COORD97":2538718.04,"ADDRESS":"德善路２５１巷７弄８號六樓之４","OBJECTID":210974},"geometry":{"x":173933.15000000037,"y":2538718.040000001}},{"attributes":{"ID":210976,"DIS_CODE":0,"TOWNNAME":"仁德區","LI":"後壁里","LIN":"41鄰","STREET":"德善路","SECT":" ","MAREA":" ","LANE":"２５１巷","ALLEY":"７弄","HOUSE_NO":"８號二樓之４","E_COORD97":173933.14999999999,"N_COORD97":2538718.04,"ADDRESS":"德善路２５１巷７弄８號二樓之４","OBJECTID":210975},"geometry":{"x":173933.15000000037,"y":2538718.040000001}},{"attributes":{"ID":210977,"DIS_CODE":0,"TOWNNAME":"仁德區","LI":"後壁里","LIN":"41鄰","STREET":"德善路","SECT":" ","MAREA":" ","LANE":"２５１巷","ALLEY":"７弄","HOUSE_NO":"８號八樓之１","E_COORD97":173933.12,"N_COORD97":2538718.04,"ADDRESS":"德善路２５１巷７弄８號八樓之１","OBJECTID":210976},"geometry":{"x":173933.12000000011,"y":2538718.040000001}},{"attributes":{"ID":210978,"DIS_CODE":0,"TOWNNAME":"東山區","LI":"高原里","LIN":"9鄰","STREET":" ","SECT":" ","MAREA":"高原","LANE":" ","ALLEY":" ","HOUSE_NO":"７１號之１","E_COORD97":198149.20999999999,"N_COORD97":2576636.2999999998,"ADDRESS":"高原７１號之１","OBJECTID":210977},"geometry":{"x":198149.21000000089,"y":2576636.3000000026}},{"attributes":{"ID":210979,"DIS_CODE":0,"TOWNNAME":"東山區","LI":"高原里","LIN":"9鄰","STREET":" ","SECT":" ","MAREA":"高原","LANE":" ","ALLEY":" ","HOUSE_NO":"７１號","E_COORD97":198033.16,"N_COORD97":2576674.2799999998,"ADDRESS":"高原７１號","OBJECTID":210978},"geometry":{"x":198033.16000000108,"y":2576674.2800000031}},{"attributes":{"ID":210980,"DIS_CODE":0,"TOWNNAME":"東山區","LI":"高原里","LIN":"9鄰","STREET":" ","SECT":" ","MAREA":"高原","LANE":" ","ALLEY":" ","HOUSE_NO":"７４號","E_COORD97":198474.35999999999,"N_COORD97":2576596.1600000001,"ADDRESS":"高原７４號","OBJECTID":210979},"geometry":{"x":198474.36000000127,"y":2576596.160000002}},{"attributes":{"ID":210981,"DIS_CODE":0,"TOWNNAME":"東山區","LI":"高原里","LIN":"9鄰","STREET":" ","SECT":" ","MAREA":"高原","LANE":" ","ALLEY":" ","HOUSE_NO":"７６號","E_COORD97":198489.51000000001,"N_COORD97":2576616.1600000001,"ADDRESS":"高原７６號","OBJECTID":210980},"geometry":{"x":198489.51000000071,"y":2576616.160000002}},{"attributes":{"ID":210982,"DIS_CODE":0,"TOWNNAME":"仁德區","LI":"後壁里","LIN":"41鄰","STREET":"德善路","SECT":" ","MAREA":" ","LANE":"２５１巷","ALLEY":"７弄","HOUSE_NO":"６號八樓之１","E_COORD97":173916.45999999999,"N_COORD97":2538729.54,"ADDRESS":"德善路２５１巷７弄６號八樓之１","OBJECTID":210981},"geometry":{"x":173916.46000000089,"y":2538729.5399999991}},{"attributes":{"ID":210983,"DIS_CODE":0,"TOWNNAME":"仁德區","LI":"後壁里","LIN":"41鄰","STREET":"德善路","SECT":" ","MAREA":" ","LANE":"２５１巷","ALLEY":"７弄","HOUSE_NO":"６號二樓之４","E_COORD97":173916.48999999999,"N_COORD97":2538729.54,"ADDRESS":"德善路２５１巷７弄６號二樓之４","OBJECTID":210982},"geometry":{"x":173916.49000000115,"y":2538729.5399999991}},{"attributes":{"ID":210984,"DIS_CODE":0,"TOWNNAME":"仁德區","LI":"後壁里","LIN":"41鄰","STREET":"德善路","SECT":" ","MAREA":" ","LANE":"２５１巷","ALLEY":"７弄","HOUSE_NO":"６號八樓之４","E_COORD97":173916.48999999999,"N_COORD97":2538729.54,"ADDRESS":"德善路２５１巷７弄６號八樓之４","OBJECTID":210983},"geometry":{"x":173916.49000000115,"y":2538729.5399999991}},{"attributes":{"ID":210985,"DIS_CODE":0,"TOWNNAME":"仁德區","LI":"後壁里","LIN":"41鄰","STREET":"德善路","SECT":" ","MAREA":" ","LANE":"２５１巷","ALLEY":"７弄","HOUSE_NO":"８號九樓之１","E_COORD97":173933.12,"N_COORD97":2538718.04,"ADDRESS":"德善路２５１巷７弄８號九樓之１","OBJECTID":210984},"geometry":{"x":173933.12000000011,"y":2538718.040000001}},{"attributes":{"ID":210986,"DIS_CODE":0,"TOWNNAME":"仁德區","LI":"後壁里","LIN":"41鄰","STREET":"德善路","SECT":" ","MAREA":" ","LANE":"２５１巷","ALLEY":"７弄","HOUSE_NO":"６號五樓之３","E_COORD97":173916.56,"N_COORD97":2538729.54,"ADDRESS":"德善路２５１巷７弄６號五樓之３","OBJECTID":210985},"geometry":{"x":173916.55999999959,"y":2538729.5399999991}},{"attributes":{"ID":210987,"DIS_CODE":0,"TOWNNAME":"關廟區","LI":"田中里","LIN":"9鄰","STREET":"官崙街","SECT":" ","MAREA":" ","LANE":" ","ALLEY":" ","HOUSE_NO":"１號","E_COORD97":183443.23999999999,"N_COORD97":2533491.25,"ADDRESS":"官崙街１號","OBJECTID":210986},"geometry":{"x":183443.24000000209,"y":2533491.25}},{"attributes":{"ID":210988,"DIS_CODE":0,"TOWNNAME":"東山區","LI":"高原里","LIN":"9鄰","STREET":" ","SECT":" ","MAREA":"高原","LANE":" ","ALLEY":" ","HOUSE_NO":"７７號","E_COORD97":198529.70000000001,"N_COORD97":2576618.6899999999,"ADDRESS":"高原７７號","OBJECTID":210987},"geometry":{"x":198529.70000000112,"y":2576618.6900000013}},{"attributes":{"ID":210989,"DIS_CODE":0,"TOWNNAME":"東山區","LI":"高原里","LIN":"9鄰","STREET":" ","SECT":" ","MAREA":"高原","LANE":" ","ALLEY":" ","HOUSE_NO":"７８號之１","E_COORD97":197887.38,"N_COORD97":2576255.5699999998,"ADDRESS":"高原７８號之１","OBJECTID":210988},"geometry":{"x":197887.38000000082,"y":2576255.5700000003}},{"attributes":{"ID":210990,"DIS_CODE":0,"TOWNNAME":"東山區","LI":"高原里","LIN":"9鄰","STREET":" ","SECT":" ","MAREA":"高原","LANE":" ","ALLEY":" ","HOUSE_NO":"７８號","E_COORD97":198468.73000000001,"N_COORD97":2576553.3799999999,"ADDRESS":"高原７８號","OBJECTID":210989},"geometry":{"x":198468.73000000138,"y":2576553.379999999}},{"attributes":{"ID":210991,"DIS_CODE":0,"TOWNNAME":"仁德區","LI":"後壁里","LIN":"41鄰","STREET":"德善路","SECT":" ","MAREA":" ","LANE":"２５１巷","ALLEY":"７弄","HOUSE_NO":"８號九樓之３","E_COORD97":173933.22,"N_COORD97":2538718.04,"ADDRESS":"德善路２５１巷７弄８號九樓之３","OBJECTID":210990},"geometry":{"x":173933.22000000067,"y":2538718.040000001}},{"attributes":{"ID":210992,"DIS_CODE":0,"TOWNNAME":"關廟區","LI":"新埔里","LIN":"9鄰","STREET":"新埔二街","SECT":" ","MAREA":" ","LANE":" ","ALLEY":" ","HOUSE_NO":"１２９號","E_COORD97":181256.12,"N_COORD97":2541027.25,"ADDRESS":"新埔二街１２９號","OBJECTID":210991},"geometry":{"x":181256.12000000104,"y":2541027.25}},{"attributes":{"ID":210993,"DIS_CODE":0,"TOWNNAME":"仁德區","LI":"後壁里","LIN":"41鄰","STREET":"德善路","SECT":" ","MAREA":" ","LANE":"２５１巷","ALLEY":"７弄","HOUSE_NO":"６號三樓之２","E_COORD97":173916.60000000001,"N_COORD97":2538729.54,"ADDRESS":"德善路２５１巷７弄６號三樓之２","OBJECTID":210992},"geometry":{"x":173916.60000000149,"y":2538729.5399999991}},{"attributes":{"ID":210994,"DIS_CODE":0,"TOWNNAME":"仁德區","LI":"後壁里","LIN":"41鄰","STREET":"德善路","SECT":" ","MAREA":" ","LANE":"２５１巷","ALLEY":"７弄","HOUSE_NO":"６號七樓之１","E_COORD97":173916.45999999999,"N_COORD97":2538729.54,"ADDRESS":"德善路２５１巷７弄６號七樓之１","OBJECTID":210993},"geometry":{"x":173916.46000000089,"y":2538729.5399999991}},{"attributes":{"ID":210995,"DIS_CODE":0,"TOWNNAME":"白河區","LI":"仙草里","LIN":"2鄰","STREET":" ","SECT":" ","MAREA":"仙草","LANE":" ","ALLEY":" ","HOUSE_NO":"７號","E_COORD97":196117.89999999999,"N_COORD97":2582672.77,"ADDRESS":"仙草７號","OBJECTID":210994},"geometry":{"x":196117.9000000013,"y":2582672.7700000014}},{"attributes":{"ID":210996,"DIS_CODE":0,"TOWNNAME":"白河區","LI":"仙草里","LIN":"2鄰","STREET":" ","SECT":" ","MAREA":"仙草","LANE":" ","ALLEY":" ","HOUSE_NO":"９號","E_COORD97":196178.29000000001,"N_COORD97":2582694.6899999999,"ADDRESS":"仙草９號","OBJECTID":210995},"geometry":{"x":196178.29000000004,"y":2582694.6900000013}},{"attributes":{"ID":210997,"DIS_CODE":0,"TOWNNAME":"仁德區","LI":"後壁里","LIN":"41鄰","STREET":"德善路","SECT":" ","MAREA":" ","LANE":"２５１巷","ALLEY":"７弄","HOUSE_NO":"８號二樓之３","E_COORD97":173933.22,"N_COORD97":2538718.04,"ADDRESS":"德善路２５１巷７弄８號二樓之３","OBJECTID":210996},"geometry":{"x":173933.22000000067,"y":2538718.040000001}},{"attributes":{"ID":210998,"DIS_CODE":0,"TOWNNAME":"白河區","LI":"外角里","LIN":"2鄰","STREET":" ","SECT":" ","MAREA":"外角","LANE":" ","ALLEY":" ","HOUSE_NO":"１２號","E_COORD97":190627.25,"N_COORD97":2583263.8100000001,"ADDRESS":"外角１２號","OBJECTID":210997},"geometry":{"x":190627.25000000093,"y":2583263.8100000024}},{"attributes":{"ID":210999,"DIS_CODE":0,"TOWNNAME":"白河區","LI":"外角里","LIN":"2鄰","STREET":" ","SECT":" ","MAREA":"外角","LANE":" ","ALLEY":" ","HOUSE_NO":"１３號","E_COORD97":190644.73999999999,"N_COORD97":2583245.5800000001,"ADDRESS":"外角１３號","OBJECTID":210998},"geometry":{"x":190644.74000000115,"y":2583245.5800000001}},{"attributes":{"ID":211000,"DIS_CODE":0,"TOWNNAME":"白河區","LI":"外角里","LIN":"2鄰","STREET":" ","SECT":" ","MAREA":"外角","LANE":" ","ALLEY":" ","HOUSE_NO":"１６之１號","E_COORD97":190647.67999999999,"N_COORD97":2583218.48,"ADDRESS":"外角１６之１號","OBJECTID":210999},"geometry":{"x":190647.68000000156,"y":2583218.4800000023}},{"attributes":{"ID":211001,"DIS_CODE":0,"TOWNNAME":"白河區","LI":"外角里","LIN":"2鄰","STREET":" ","SECT":" ","MAREA":"外角","LANE":" ","ALLEY":" ","HOUSE_NO":"１６之３號","E_COORD97":190625.73999999999,"N_COORD97":2583211.52,"ADDRESS":"外角１６之３號","OBJECTID":211000},"geometry":{"x":190625.74000000209,"y":2583211.5199999996}}]}