{"displayFieldName":"TOWNNAME","fieldAliases":{"ID":"ID","DIS_CODE":"DIS_CODE","TOWNNAME":"TOWNNAME","LI":"LI","LIN":"LIN","STREET":"STREET","SECT":"SECT","MAREA":"MAREA","LANE":"LANE","ALLEY":"ALLEY","HOUSE_NO":"HOUSE_NO","E_COORD97":"E_COORD97","N_COORD97":"N_COORD97","ADDRESS":"ADDRESS","OBJECTID":"OBJECTID"},"geometryType":"esriGeometryPoint","spatialReference":{"wkid":102443,"latestWkid":3826},"fields":[{"name":"ID","type":"esriFieldTypeDouble","alias":"ID"},{"name":"DIS_CODE","type":"esriFieldTypeInteger","alias":"DIS_CODE"},{"name":"TOWNNAME","type":"esriFieldTypeString","alias":"TOWNNAME","length":8},{"name":"LI","type":"esriFieldTypeString","alias":"LI","length":8},{"name":"LIN","type":"esriFieldTypeString","alias":"LIN","length":12},{"name":"STREET","type":"esriFieldTypeString","alias":"STREET","length":20},{"name":"SECT","type":"esriFieldTypeString","alias":"SECT","length":8},{"name":"MAREA","type":"esriFieldTypeString","alias":"MAREA","length":12},{"name":"LANE","type":"esriFieldTypeString","alias":"LANE","length":10},{"name":"ALLEY","type":"esriFieldTypeString","alias":"ALLEY","length":10},{"name":"HOUSE_NO","type":"esriFieldTypeString","alias":"HOUSE_NO","length":20},{"name":"E_COORD97","type":"esriFieldTypeDouble","alias":"E_COORD97"},{"name":"N_COORD97","type":"esriFieldTypeDouble","alias":"N_COORD97"},{"name":"ADDRESS","type":"esriFieldTypeString","alias":"ADDRESS","length":50},{"name":"OBJECTID","type":"esriFieldTypeOID","alias":"OBJECTID"}],"features":[{"attributes":{"ID":412825,"DIS_CODE":0,"TOWNNAME":"永康區","LI":"五王里","LIN":"35鄰","STREET":"中華路","SECT":" ","MAREA":" ","LANE":"５７８巷","ALLEY":" ","HOUSE_NO":"３號","E_COORD97":171240.95000000001,"N_COORD97":2545931,"ADDRESS":"中華路５７８巷３號","OBJECTID":412801},"geometry":{"x":171240.95000000019,"y":2545931.0000000019}},{"attributes":{"ID":412826,"DIS_CODE":0,"TOWNNAME":"永康區","LI":"王行里","LIN":"6鄰","STREET":"育樂街","SECT":" ","MAREA":" ","LANE":"２１４巷","ALLEY":" ","HOUSE_NO":"１０號","E_COORD97":174997.41,"N_COORD97":2548376.29,"ADDRESS":"育樂街２１４巷１０號","OBJECTID":412802},"geometry":{"x":174997.41000000015,"y":2548376.2899999991}},{"attributes":{"ID":412827,"DIS_CODE":0,"TOWNNAME":"永康區","LI":"王行里","LIN":"6鄰","STREET":"育樂街","SECT":" ","MAREA":" ","LANE":"２１４巷","ALLEY":" ","HOUSE_NO":"８號","E_COORD97":174997.07000000001,"N_COORD97":2548372.0299999998,"ADDRESS":"育樂街２１４巷８號","OBJECTID":412803},"geometry":{"x":174997.0700000003,"y":2548372.0299999993}},{"attributes":{"ID":412828,"DIS_CODE":0,"TOWNNAME":"永康區","LI":"五王里","LIN":"23鄰","STREET":"成功路","SECT":" ","MAREA":" ","LANE":"２４４巷","ALLEY":" ","HOUSE_NO":"６８號","E_COORD97":171483.73000000001,"N_COORD97":2545900.77,"ADDRESS":"成功路２４４巷６８號","OBJECTID":412804},"geometry":{"x":171483.73000000045,"y":2545900.7700000014}},{"attributes":{"ID":412829,"DIS_CODE":0,"TOWNNAME":"永康區","LI":"五王里","LIN":"23鄰","STREET":"成功路","SECT":" ","MAREA":" ","LANE":"２４４巷","ALLEY":" ","HOUSE_NO":"４５號","E_COORD97":171424.85000000001,"N_COORD97":2545880.7599999998,"ADDRESS":"成功路２４４巷４５號","OBJECTID":412805},"geometry":{"x":171424.85000000056,"y":2545880.7600000016}},{"attributes":{"ID":412830,"DIS_CODE":0,"TOWNNAME":"永康區","LI":"五王里","LIN":"22鄰","STREET":"成功路","SECT":" ","MAREA":" ","LANE":"２２８巷","ALLEY":" ","HOUSE_NO":"６３號","E_COORD97":171495.81,"N_COORD97":2545877.7599999998,"ADDRESS":"成功路２２８巷６３號","OBJECTID":412806},"geometry":{"x":171495.80999999959,"y":2545877.7600000016}},{"attributes":{"ID":412831,"DIS_CODE":0,"TOWNNAME":"安南區","LI":"溪心里","LIN":"3鄰","STREET":"安中路","SECT":"二段","MAREA":" ","LANE":"２００巷","ALLEY":" ","HOUSE_NO":"３７號","E_COORD97":166678.32999999999,"N_COORD97":2549793.0499999998,"ADDRESS":"安中路二段２００巷３７號","OBJECTID":412807},"geometry":{"x":166678.33000000007,"y":2549793.0500000026}},{"attributes":{"ID":412832,"DIS_CODE":0,"TOWNNAME":"安南區","LI":"溪心里","LIN":"3鄰","STREET":"安中路","SECT":"二段","MAREA":" ","LANE":"２００巷","ALLEY":" ","HOUSE_NO":"３９號","E_COORD97":166679.44,"N_COORD97":2549797.4900000002,"ADDRESS":"安中路二段２００巷３９號","OBJECTID":412808},"geometry":{"x":166679.44000000041,"y":2549797.4900000002}},{"attributes":{"ID":412833,"DIS_CODE":0,"TOWNNAME":"安南區","LI":"溪心里","LIN":"3鄰","STREET":"安中路","SECT":"二段","MAREA":" ","LANE":"２００巷","ALLEY":" ","HOUSE_NO":"４１號","E_COORD97":166680.87,"N_COORD97":2549802.5699999998,"ADDRESS":"安中路二段２００巷４１號","OBJECTID":412809},"geometry":{"x":166680.87000000104,"y":2549802.5700000022}},{"attributes":{"ID":412834,"DIS_CODE":0,"TOWNNAME":"安南區","LI":"溪心里","LIN":"3鄰","STREET":"安中路","SECT":"二段","MAREA":" ","LANE":"２００巷","ALLEY":" ","HOUSE_NO":"４３號","E_COORD97":166681.5,"N_COORD97":2549808.29,"ADDRESS":"安中路二段２００巷４３號","OBJECTID":412810},"geometry":{"x":166681.50000000093,"y":2549808.2899999991}},{"attributes":{"ID":412835,"DIS_CODE":0,"TOWNNAME":"安南區","LI":"溪心里","LIN":"3鄰","STREET":"安中路","SECT":"二段","MAREA":" ","LANE":"２００巷","ALLEY":" ","HOUSE_NO":"４５號","E_COORD97":166682.92999999999,"N_COORD97":2549812.73,"ADDRESS":"安中路二段２００巷４５號","OBJECTID":412811},"geometry":{"x":166682.93000000063,"y":2549812.7300000004}},{"attributes":{"ID":412836,"DIS_CODE":0,"TOWNNAME":"安南區","LI":"溪心里","LIN":"3鄰","STREET":"安中路","SECT":"二段","MAREA":" ","LANE":"２００巷","ALLEY":" ","HOUSE_NO":"１５號","E_COORD97":166664.35000000001,"N_COORD97":2549732.4100000001,"ADDRESS":"安中路二段２００巷１５號","OBJECTID":412812},"geometry":{"x":166664.34999999963,"y":2549732.410000002}},{"attributes":{"ID":412837,"DIS_CODE":0,"TOWNNAME":"安南區","LI":"溪心里","LIN":"3鄰","STREET":"安中路","SECT":"二段","MAREA":" ","LANE":"２００巷","ALLEY":" ","HOUSE_NO":"３１號","E_COORD97":166673.39999999999,"N_COORD97":2549766.8599999999,"ADDRESS":"安中路二段２００巷３１號","OBJECTID":412813},"geometry":{"x":166673.40000000224,"y":2549766.8599999994}},{"attributes":{"ID":412838,"DIS_CODE":0,"TOWNNAME":"安南區","LI":"溪心里","LIN":"3鄰","STREET":"安中路","SECT":"二段","MAREA":" ","LANE":"２００巷","ALLEY":" ","HOUSE_NO":"２３號","E_COORD97":166669.12,"N_COORD97":2549750.8199999998,"ADDRESS":"安中路二段２００巷２３號","OBJECTID":412814},"geometry":{"x":166669.12000000104,"y":2549750.8200000003}},{"attributes":{"ID":412839,"DIS_CODE":0,"TOWNNAME":"安南區","LI":"溪心里","LIN":"3鄰","STREET":"安中路","SECT":"二段","MAREA":" ","LANE":"２００巷","ALLEY":" ","HOUSE_NO":"１９號","E_COORD97":166666.10000000001,"N_COORD97":2549740.98,"ADDRESS":"安中路二段２００巷１９號","OBJECTID":412815},"geometry":{"x":166666.0999999987,"y":2549740.9800000042}},{"attributes":{"ID":412840,"DIS_CODE":0,"TOWNNAME":"安南區","LI":"溪心里","LIN":"3鄰","STREET":"安中路","SECT":"二段","MAREA":" ","LANE":"２００巷","ALLEY":" ","HOUSE_NO":"２１號","E_COORD97":166667.53,"N_COORD97":2549745.8999999999,"ADDRESS":"安中路二段２００巷２１號","OBJECTID":412816},"geometry":{"x":166667.53000000119,"y":2549745.9000000022}},{"attributes":{"ID":412841,"DIS_CODE":0,"TOWNNAME":"安南區","LI":"溪心里","LIN":"3鄰","STREET":"安中路","SECT":"二段","MAREA":" ","LANE":"２００巷","ALLEY":" ","HOUSE_NO":"１７號","E_COORD97":166664.82999999999,"N_COORD97":2549736.8500000001,"ADDRESS":"安中路二段２００巷１７號","OBJECTID":412817},"geometry":{"x":166664.83000000007,"y":2549736.8499999996}},{"attributes":{"ID":412842,"DIS_CODE":0,"TOWNNAME":"永康區","LI":"王行里","LIN":"7鄰","STREET":"王行路","SECT":" ","MAREA":" ","LANE":"３５１巷","ALLEY":" ","HOUSE_NO":"７９號","E_COORD97":175343.88,"N_COORD97":2548703.6200000001,"ADDRESS":"王行路３５１巷７９號","OBJECTID":412818},"geometry":{"x":175343.87999999896,"y":2548703.6200000029}},{"attributes":{"ID":412843,"DIS_CODE":0,"TOWNNAME":"永康區","LI":"五王里","LIN":"23鄰","STREET":"成功路","SECT":" ","MAREA":" ","LANE":"２４４巷","ALLEY":" ","HOUSE_NO":"６５號","E_COORD97":171438.29000000001,"N_COORD97":2545926.52,"ADDRESS":"成功路２４４巷６５號","OBJECTID":412819},"geometry":{"x":171438.29000000004,"y":2545926.5200000014}},{"attributes":{"ID":412844,"DIS_CODE":0,"TOWNNAME":"安南區","LI":"安東里","LIN":"3鄰","STREET":"安和路","SECT":"一段","MAREA":" ","LANE":"２８８巷","ALLEY":" ","HOUSE_NO":"７７之１號","E_COORD97":169488.88,"N_COORD97":2548186.9399999999,"ADDRESS":"安和路一段２８８巷７７之１號","OBJECTID":412820},"geometry":{"x":169488.88000000175,"y":2548186.9399999995}},{"attributes":{"ID":412845,"DIS_CODE":0,"TOWNNAME":"安南區","LI":"安東里","LIN":"3鄰","STREET":"安和路","SECT":"一段","MAREA":" ","LANE":"２８８巷","ALLEY":" ","HOUSE_NO":"７７之２號","E_COORD97":169478.85000000001,"N_COORD97":2548190.3700000001,"ADDRESS":"安和路一段２８８巷７７之２號","OBJECTID":412821},"geometry":{"x":169478.85000000056,"y":2548190.3700000029}},{"attributes":{"ID":412846,"DIS_CODE":0,"TOWNNAME":"仁德區","LI":"二行里","LIN":"3鄰","STREET":"中正西路","SECT":" ","MAREA":" ","LANE":"１２巷","ALLEY":" ","HOUSE_NO":"２１號","E_COORD97":170456.51999999999,"N_COORD97":2535535.25,"ADDRESS":"中正西路１２巷２１號","OBJECTID":412822},"geometry":{"x":170456.51999999955,"y":2535535.25}},{"attributes":{"ID":412847,"DIS_CODE":0,"TOWNNAME":"仁德區","LI":"土庫里","LIN":"3鄰","STREET":"土庫路","SECT":" ","MAREA":" ","LANE":"１４６巷","ALLEY":" ","HOUSE_NO":"１０號","E_COORD97":174297.38,"N_COORD97":2543035.5,"ADDRESS":"土庫路１４６巷１０號","OBJECTID":412823},"geometry":{"x":174297.37999999989,"y":2543035.5000000019}},{"attributes":{"ID":412848,"DIS_CODE":0,"TOWNNAME":"仁德區","LI":"一甲里","LIN":"3鄰","STREET":"中正路","SECT":"三段","MAREA":" ","LANE":"１１４巷","ALLEY":" ","HOUSE_NO":"１８號","E_COORD97":173458.51999999999,"N_COORD97":2541643.48,"ADDRESS":"中正路三段１１４巷１８號","OBJECTID":412824},"geometry":{"x":173458.51999999955,"y":2541643.4800000004}},{"attributes":{"ID":412849,"DIS_CODE":0,"TOWNNAME":"仁德區","LI":"二行里","LIN":"3鄰","STREET":"中正西路","SECT":" ","MAREA":" ","LANE":"１２巷","ALLEY":" ","HOUSE_NO":"１３號","E_COORD97":170451.32999999999,"N_COORD97":2535508.9900000002,"ADDRESS":"中正西路１２巷１３號","OBJECTID":412825},"geometry":{"x":170451.33000000101,"y":2535508.9900000021}},{"attributes":{"ID":412850,"DIS_CODE":0,"TOWNNAME":"永康區","LI":"五王里","LIN":"23鄰","STREET":"成功路","SECT":" ","MAREA":" ","LANE":"２４４巷","ALLEY":" ","HOUSE_NO":"７８號","E_COORD97":171455.95000000001,"N_COORD97":2545927.77,"ADDRESS":"成功路２４４巷７８號","OBJECTID":412826},"geometry":{"x":171455.95000000019,"y":2545927.7700000014}},{"attributes":{"ID":412851,"DIS_CODE":0,"TOWNNAME":"仁德區","LI":"新田里","LIN":"3鄰","STREET":"新田二街","SECT":" ","MAREA":" ","LANE":"１１８巷","ALLEY":" ","HOUSE_NO":"９號","E_COORD97":174926.89999999999,"N_COORD97":2539872.9900000002,"ADDRESS":"新田二街１１８巷９號","OBJECTID":412827},"geometry":{"x":174926.90000000037,"y":2539872.9900000021}},{"attributes":{"ID":412852,"DIS_CODE":0,"TOWNNAME":"仁德區","LI":"仁義里","LIN":"3鄰","STREET":"仁義四街","SECT":" ","MAREA":" ","LANE":"８２巷","ALLEY":" ","HOUSE_NO":"７號","E_COORD97":173920.78,"N_COORD97":2541036.02,"ADDRESS":"仁義四街８２巷７號","OBJECTID":412828},"geometry":{"x":173920.78000000026,"y":2541036.0199999996}},{"attributes":{"ID":412853,"DIS_CODE":0,"TOWNNAME":"仁德區","LI":"成功里","LIN":"3鄰","STREET":"保生東路","SECT":" ","MAREA":" ","LANE":"２１８巷","ALLEY":" ","HOUSE_NO":"６２號","E_COORD97":171246.95000000001,"N_COORD97":2539673.3399999999,"ADDRESS":"保生東路２１８巷６２號","OBJECTID":412829},"geometry":{"x":171246.95000000112,"y":2539673.3400000017}},{"attributes":{"ID":412854,"DIS_CODE":0,"TOWNNAME":"仁德區","LI":"保安里","LIN":"3鄰","STREET":"保安路","SECT":"一段","MAREA":" ","LANE":"７２巷","ALLEY":" ","HOUSE_NO":"１５號","E_COORD97":170848.66,"N_COORD97":2536259.8199999998,"ADDRESS":"保安路一段７２巷１５號","OBJECTID":412830},"geometry":{"x":170848.66000000108,"y":2536259.8200000022}},{"attributes":{"ID":412855,"DIS_CODE":0,"TOWNNAME":"仁德區","LI":"田厝里","LIN":"3鄰","STREET":"田厝三街","SECT":" ","MAREA":" ","LANE":"１２７巷","ALLEY":" ","HOUSE_NO":"２號","E_COORD97":172615.66,"N_COORD97":2537510.25,"ADDRESS":"田厝三街１２７巷２號","OBJECTID":412831},"geometry":{"x":172615.66000000015,"y":2537510.2500000019}},{"attributes":{"ID":412856,"DIS_CODE":0,"TOWNNAME":"仁德區","LI":"土庫里","LIN":"3鄰","STREET":"土庫路","SECT":" ","MAREA":" ","LANE":"１４６巷","ALLEY":" ","HOUSE_NO":"９號","E_COORD97":174283.25,"N_COORD97":2542998.75,"ADDRESS":"土庫路１４６巷９號","OBJECTID":412832},"geometry":{"x":174283.25,"y":2542998.7500000037}},{"attributes":{"ID":412857,"DIS_CODE":0,"TOWNNAME":"永康區","LI":"北灣里","LIN":"36鄰","STREET":"大灣路","SECT":" ","MAREA":" ","LANE":"４０巷","ALLEY":" ","HOUSE_NO":"１６０號","E_COORD97":174845.82999999999,"N_COORD97":2546325.1499999999,"ADDRESS":"大灣路４０巷１６０號","OBJECTID":412833},"geometry":{"x":174845.83000000007,"y":2546325.1500000004}},{"attributes":{"ID":412858,"DIS_CODE":0,"TOWNNAME":"永康區","LI":"五王里","LIN":"23鄰","STREET":"成功路","SECT":" ","MAREA":" ","LANE":"２４４巷","ALLEY":" ","HOUSE_NO":"７２之１號","E_COORD97":171461.45000000001,"N_COORD97":2545917.52,"ADDRESS":"成功路２４４巷７２之１號","OBJECTID":412834},"geometry":{"x":171461.45000000019,"y":2545917.5199999996}},{"attributes":{"ID":412859,"DIS_CODE":0,"TOWNNAME":"永康區","LI":"北灣里","LIN":"39鄰","STREET":"大同街","SECT":" ","MAREA":" ","LANE":"６３６巷","ALLEY":" ","HOUSE_NO":"９０號","E_COORD97":174647.31,"N_COORD97":2546521.9900000002,"ADDRESS":"大同街６３６巷９０號","OBJECTID":412835},"geometry":{"x":174647.30999999866,"y":2546521.9900000002}},{"attributes":{"ID":412860,"DIS_CODE":0,"TOWNNAME":"永康區","LI":"王行里","LIN":"7鄰","STREET":"王行路","SECT":" ","MAREA":" ","LANE":"３５１巷","ALLEY":" ","HOUSE_NO":"７７號","E_COORD97":175340.85000000001,"N_COORD97":2548736.4900000002,"ADDRESS":"王行路３５１巷７７號","OBJECTID":412836},"geometry":{"x":175340.85000000056,"y":2548736.4900000002}},{"attributes":{"ID":412861,"DIS_CODE":0,"TOWNNAME":"永康區","LI":"王行里","LIN":"7鄰","STREET":"王行路","SECT":" ","MAREA":" ","LANE":"３５１巷","ALLEY":" ","HOUSE_NO":"６６號","E_COORD97":175346.78,"N_COORD97":2548690.5,"ADDRESS":"王行路３５１巷６６號","OBJECTID":412837},"geometry":{"x":175346.78000000212,"y":2548690.5000000019}},{"attributes":{"ID":412862,"DIS_CODE":0,"TOWNNAME":"下營區","LI":"茅港里","LIN":"7鄰","STREET":" ","SECT":" ","MAREA":"茅港尾","LANE":" ","ALLEY":" ","HOUSE_NO":"２０６號之２","E_COORD97":177238.40707700001,"N_COORD97":2567169.5863199998,"ADDRESS":"茅港尾２０６號之２","OBJECTID":412838},"geometry":{"x":177238.40707699955,"y":2567169.5863189995}},{"attributes":{"ID":412863,"DIS_CODE":0,"TOWNNAME":"永康區","LI":"王行里","LIN":"6鄰","STREET":"育樂街","SECT":" ","MAREA":" ","LANE":"１６６巷","ALLEY":" ","HOUSE_NO":"２０號","E_COORD97":175119.20999999999,"N_COORD97":2548399.1600000001,"ADDRESS":"育樂街１６６巷２０號","OBJECTID":412839},"geometry":{"x":175119.20999999996,"y":2548399.1600000001}},{"attributes":{"ID":412864,"DIS_CODE":0,"TOWNNAME":"永康區","LI":"五王里","LIN":"23鄰","STREET":"成功路","SECT":" ","MAREA":" ","LANE":"２４４巷","ALLEY":" ","HOUSE_NO":"２２號","E_COORD97":171381.62,"N_COORD97":2545830.52,"ADDRESS":"成功路２４４巷２２號","OBJECTID":412840},"geometry":{"x":171381.62000000104,"y":2545830.5199999977}},{"attributes":{"ID":412865,"DIS_CODE":0,"TOWNNAME":"永康區","LI":"五王里","LIN":"22鄰","STREET":"成功路","SECT":" ","MAREA":" ","LANE":"２２８巷","ALLEY":" ","HOUSE_NO":"２０號","E_COORD97":171406.20999999999,"N_COORD97":2545803.27,"ADDRESS":"成功路２２８巷２０號","OBJECTID":412841},"geometry":{"x":171406.21000000089,"y":2545803.2700000014}},{"attributes":{"ID":412866,"DIS_CODE":0,"TOWNNAME":"永康區","LI":"五王里","LIN":"15鄰","STREET":"中華二路","SECT":" ","MAREA":" ","LANE":"２０６巷","ALLEY":" ","HOUSE_NO":"７６號","E_COORD97":171589.97,"N_COORD97":2545676.96,"ADDRESS":"中華二路２０６巷７６號","OBJECTID":412842},"geometry":{"x":171589.96999999881,"y":2545676.9600000028}},{"attributes":{"ID":412867,"DIS_CODE":0,"TOWNNAME":"永康區","LI":"王行里","LIN":"1鄰","STREET":"王行路","SECT":" ","MAREA":" ","LANE":"２４６巷","ALLEY":" ","HOUSE_NO":"１５號","E_COORD97":175639.20999999999,"N_COORD97":2548296.3900000001,"ADDRESS":"王行路２４６巷１５號","OBJECTID":412843},"geometry":{"x":175639.21000000089,"y":2548296.3900000006}},{"attributes":{"ID":412868,"DIS_CODE":0,"TOWNNAME":"永康區","LI":"五王里","LIN":"23鄰","STREET":"成功路","SECT":" ","MAREA":" ","LANE":"２４４巷","ALLEY":" ","HOUSE_NO":"８２號","E_COORD97":171450.04000000001,"N_COORD97":2545938.2599999998,"ADDRESS":"成功路２４４巷８２號","OBJECTID":412844},"geometry":{"x":171450.04000000004,"y":2545938.2600000016}},{"attributes":{"ID":412869,"DIS_CODE":0,"TOWNNAME":"佳里區","LI":"東寧里","LIN":"3鄰","STREET":"新生路","SECT":" ","MAREA":" ","LANE":"１４８巷","ALLEY":" ","HOUSE_NO":"１０號","E_COORD97":165810.69,"N_COORD97":2562341.9100000001,"ADDRESS":"新生路１４８巷１０號","OBJECTID":412845},"geometry":{"x":165810.69000000134,"y":2562341.9100000001}},{"attributes":{"ID":412870,"DIS_CODE":0,"TOWNNAME":"佳里區","LI":"東寧里","LIN":"3鄰","STREET":"新生路","SECT":" ","MAREA":" ","LANE":"１４８巷","ALLEY":" ","HOUSE_NO":"１２號","E_COORD97":165810.07999999999,"N_COORD97":2562346.9100000001,"ADDRESS":"新生路１４８巷１２號","OBJECTID":412846},"geometry":{"x":165810.08000000007,"y":2562346.910000002}},{"attributes":{"ID":412871,"DIS_CODE":0,"TOWNNAME":"佳里區","LI":"東寧里","LIN":"3鄰","STREET":"新生路","SECT":" ","MAREA":" ","LANE":"１４８巷","ALLEY":" ","HOUSE_NO":"２號","E_COORD97":165813.20999999999,"N_COORD97":2562324.5099999998,"ADDRESS":"新生路１４８巷２號","OBJECTID":412847},"geometry":{"x":165813.21000000183,"y":2562324.5099999998}},{"attributes":{"ID":412872,"DIS_CODE":0,"TOWNNAME":"佳里區","LI":"東寧里","LIN":"3鄰","STREET":"新生路","SECT":" ","MAREA":" ","LANE":"１４８巷","ALLEY":" ","HOUSE_NO":"４號","E_COORD97":165812.45000000001,"N_COORD97":2562329.0899999999,"ADDRESS":"新生路１４８巷４號","OBJECTID":412848},"geometry":{"x":165812.45000000112,"y":2562329.0900000017}},{"attributes":{"ID":412873,"DIS_CODE":0,"TOWNNAME":"佳里區","LI":"東寧里","LIN":"3鄰","STREET":"新生路","SECT":" ","MAREA":" ","LANE":"１４８巷","ALLEY":" ","HOUSE_NO":"６號","E_COORD97":165811.82000000001,"N_COORD97":2562333.23,"ADDRESS":"新生路１４８巷６號","OBJECTID":412849},"geometry":{"x":165811.82000000123,"y":2562333.2300000004}},{"attributes":{"ID":412874,"DIS_CODE":0,"TOWNNAME":"佳里區","LI":"東寧里","LIN":"3鄰","STREET":"新生路","SECT":" ","MAREA":" ","LANE":"１４８巷","ALLEY":" ","HOUSE_NO":"８號","E_COORD97":165811.35000000001,"N_COORD97":2562337.4700000002,"ADDRESS":"新生路１４８巷８號","OBJECTID":412850},"geometry":{"x":165811.34999999963,"y":2562337.4700000025}},{"attributes":{"ID":412875,"DIS_CODE":0,"TOWNNAME":"佳里區","LI":"建南里","LIN":"3鄰","STREET":"新生路","SECT":" ","MAREA":" ","LANE":"２７４巷","ALLEY":" ","HOUSE_NO":"１號","E_COORD97":165653.17999999999,"N_COORD97":2562317.8300000001,"ADDRESS":"新生路２７４巷１號","OBJECTID":412851},"geometry":{"x":165653.1799999997,"y":2562317.8300000019}},{"attributes":{"ID":412876,"DIS_CODE":0,"TOWNNAME":"佳里區","LI":"建南里","LIN":"3鄰","STREET":"新生路","SECT":" ","MAREA":" ","LANE":"２７４巷","ALLEY":" ","HOUSE_NO":"２號之１","E_COORD97":165653.98000000001,"N_COORD97":2562340.6899999999,"ADDRESS":"新生路２７４巷２號之１","OBJECTID":412852},"geometry":{"x":165653.98000000045,"y":2562340.6900000032}},{"attributes":{"ID":412877,"DIS_CODE":0,"TOWNNAME":"佳里區","LI":"建南里","LIN":"3鄰","STREET":"新生路","SECT":" ","MAREA":" ","LANE":"２７４巷","ALLEY":" ","HOUSE_NO":"２號","E_COORD97":165647.59,"N_COORD97":2562337.8900000001,"ADDRESS":"新生路２７４巷２號","OBJECTID":412853},"geometry":{"x":165647.58999999892,"y":2562337.8900000025}},{"attributes":{"ID":412878,"DIS_CODE":0,"TOWNNAME":"佳里區","LI":"建南里","LIN":"3鄰","STREET":"新生路","SECT":" ","MAREA":" ","LANE":"２７４巷","ALLEY":" ","HOUSE_NO":"３號","E_COORD97":165665.32000000001,"N_COORD97":2562331.0800000001,"ADDRESS":"新生路２７４巷３號","OBJECTID":412854},"geometry":{"x":165665.32000000216,"y":2562331.0800000001}},{"attributes":{"ID":412879,"DIS_CODE":0,"TOWNNAME":"永康區","LI":"五王里","LIN":"5鄰","STREET":"中華二路","SECT":" ","MAREA":" ","LANE":"２０６巷","ALLEY":" ","HOUSE_NO":"６０號","E_COORD97":171604.89000000001,"N_COORD97":2545624.8900000001,"ADDRESS":"中華二路２０６巷６０號","OBJECTID":412855},"geometry":{"x":171604.8900000006,"y":2545624.8900000006}},{"attributes":{"ID":412880,"DIS_CODE":0,"TOWNNAME":"佳里區","LI":"忠仁里","LIN":"3鄰","STREET":"興中街","SECT":" ","MAREA":" ","LANE":"２３巷","ALLEY":" ","HOUSE_NO":"１１號","E_COORD97":165776.5,"N_COORD97":2562236.9700000002,"ADDRESS":"興中街２３巷１１號","OBJECTID":412856},"geometry":{"x":165776.5,"y":2562236.9700000007}},{"attributes":{"ID":412881,"DIS_CODE":0,"TOWNNAME":"佳里區","LI":"忠仁里","LIN":"3鄰","STREET":"興中街","SECT":" ","MAREA":" ","LANE":"２３巷","ALLEY":" ","HOUSE_NO":"１號之１","E_COORD97":165774.88,"N_COORD97":2562214.25,"ADDRESS":"興中街２３巷１號之１","OBJECTID":412857},"geometry":{"x":165774.88000000082,"y":2562214.25}},{"attributes":{"ID":412882,"DIS_CODE":0,"TOWNNAME":"佳里區","LI":"忠仁里","LIN":"3鄰","STREET":"興中街","SECT":" ","MAREA":" ","LANE":"２３巷","ALLEY":" ","HOUSE_NO":"２號","E_COORD97":165817.01999999999,"N_COORD97":2562225.3300000001,"ADDRESS":"興中街２３巷２號","OBJECTID":412858},"geometry":{"x":165817.01999999955,"y":2562225.3300000019}},{"attributes":{"ID":412883,"DIS_CODE":0,"TOWNNAME":"佳里區","LI":"忠仁里","LIN":"3鄰","STREET":"興中街","SECT":" ","MAREA":" ","LANE":"２３巷","ALLEY":" ","HOUSE_NO":"３號","E_COORD97":165774.88,"N_COORD97":2562207.7999999998,"ADDRESS":"興中街２３巷３號","OBJECTID":412859},"geometry":{"x":165774.88000000082,"y":2562207.8000000007}},{"attributes":{"ID":412884,"DIS_CODE":0,"TOWNNAME":"永康區","LI":"永康里","LIN":"3鄰","STREET":"中山北路","SECT":" ","MAREA":" ","LANE":"３５巷","ALLEY":" ","HOUSE_NO":"２９號","E_COORD97":173898.35000000001,"N_COORD97":2547508.4900000002,"ADDRESS":"中山北路３５巷２９號","OBJECTID":412860},"geometry":{"x":173898.35000000056,"y":2547508.4900000002}},{"attributes":{"ID":412885,"DIS_CODE":0,"TOWNNAME":"永康區","LI":"六合里","LIN":"3鄰","STREET":"新興街","SECT":" ","MAREA":" ","LANE":"３５巷","ALLEY":" ","HOUSE_NO":"１８號","E_COORD97":171007.32000000001,"N_COORD97":2545837.7400000002,"ADDRESS":"新興街３５巷１８號","OBJECTID":412861},"geometry":{"x":171007.32000000123,"y":2545837.7400000021}},{"attributes":{"ID":412886,"DIS_CODE":0,"TOWNNAME":"永康區","LI":"正強里","LIN":"34鄰","STREET":"四維街","SECT":" ","MAREA":" ","LANE":"１４９巷","ALLEY":" ","HOUSE_NO":"１５號","E_COORD97":173233.95000000001,"N_COORD97":2548352.6699999999,"ADDRESS":"四維街１４９巷１５號","OBJECTID":412862},"geometry":{"x":173233.95000000112,"y":2548352.6700000037}},{"attributes":{"ID":412887,"DIS_CODE":0,"TOWNNAME":"永康區","LI":"北灣里","LIN":"25鄰","STREET":"大灣六街","SECT":" ","MAREA":" ","LANE":"８０巷","ALLEY":" ","HOUSE_NO":"４１號","E_COORD97":175189.89000000001,"N_COORD97":2545336.9900000002,"ADDRESS":"大灣六街８０巷４１號","OBJECTID":412863},"geometry":{"x":175189.8900000006,"y":2545336.9900000021}},{"attributes":{"ID":412888,"DIS_CODE":0,"TOWNNAME":"永康區","LI":"北灣里","LIN":"39鄰","STREET":"大同街","SECT":" ","MAREA":" ","LANE":"６３６巷","ALLEY":" ","HOUSE_NO":"１１號","E_COORD97":174650.14999999999,"N_COORD97":2546370.77,"ADDRESS":"大同街６３６巷１１號","OBJECTID":412864},"geometry":{"x":174650.1500000013,"y":2546370.7699999996}},{"attributes":{"ID":412889,"DIS_CODE":0,"TOWNNAME":"永康區","LI":"北灣里","LIN":"12鄰","STREET":"大民街","SECT":" ","MAREA":" ","LANE":"１４８巷","ALLEY":" ","HOUSE_NO":"１１號","E_COORD97":174976.66,"N_COORD97":2545637.2599999998,"ADDRESS":"大民街１４８巷１１號","OBJECTID":412865},"geometry":{"x":174976.66000000108,"y":2545637.2600000016}},{"attributes":{"ID":412890,"DIS_CODE":0,"TOWNNAME":"永康區","LI":"北灣里","LIN":"33鄰","STREET":"大灣路","SECT":" ","MAREA":" ","LANE":"４１巷","ALLEY":" ","HOUSE_NO":"８號","E_COORD97":175317.39999999999,"N_COORD97":2545804,"ADDRESS":"大灣路４１巷８號","OBJECTID":412866},"geometry":{"x":175317.4000000013,"y":2545803.9999999981}},{"attributes":{"ID":412891,"DIS_CODE":0,"TOWNNAME":"永康區","LI":"神洲里","LIN":"3鄰","STREET":"忠孝路","SECT":" ","MAREA":" ","LANE":"３６巷","ALLEY":" ","HOUSE_NO":"６號","E_COORD97":172109.57000000001,"N_COORD97":2544668.25,"ADDRESS":"忠孝路３６巷６號","OBJECTID":412867},"geometry":{"x":172109.5700000003,"y":2544668.2500000019}},{"attributes":{"ID":412892,"DIS_CODE":0,"TOWNNAME":"永康區","LI":"神洲里","LIN":"3鄰","STREET":"忠孝路","SECT":" ","MAREA":" ","LANE":"３２巷","ALLEY":" ","HOUSE_NO":"１７號","E_COORD97":172158.25,"N_COORD97":2544648.75,"ADDRESS":"忠孝路３２巷１７號","OBJECTID":412868},"geometry":{"x":172158.25000000093,"y":2544648.75}},{"attributes":{"ID":412893,"DIS_CODE":0,"TOWNNAME":"永康區","LI":"王行里","LIN":"1鄰","STREET":"王行路","SECT":" ","MAREA":" ","LANE":"２４６巷","ALLEY":" ","HOUSE_NO":"２５號之１","E_COORD97":175685.66,"N_COORD97":2548302.8199999998,"ADDRESS":"王行路２４６巷２５號之１","OBJECTID":412869},"geometry":{"x":175685.66000000015,"y":2548302.8200000003}},{"attributes":{"ID":412894,"DIS_CODE":0,"TOWNNAME":"南區","LI":"明德里","LIN":"3鄰","STREET":"大成路","SECT":"一段","MAREA":" ","LANE":"１９３巷","ALLEY":" ","HOUSE_NO":"７８號","E_COORD97":167943.70999999999,"N_COORD97":2541657.4199999999,"ADDRESS":"大成路一段１９３巷７８號","OBJECTID":412870},"geometry":{"x":167943.70999999996,"y":2541657.4199999999}},{"attributes":{"ID":412895,"DIS_CODE":0,"TOWNNAME":"南區","LI":"明德里","LIN":"3鄰","STREET":"大成路","SECT":"一段","MAREA":" ","LANE":"１９３巷","ALLEY":" ","HOUSE_NO":"７９號","E_COORD97":167949.89999999999,"N_COORD97":2541657.8900000001,"ADDRESS":"大成路一段１９３巷７９號","OBJECTID":412871},"geometry":{"x":167949.90000000224,"y":2541657.8900000006}},{"attributes":{"ID":412896,"DIS_CODE":0,"TOWNNAME":"南區","LI":"明德里","LIN":"3鄰","STREET":"大成路","SECT":"一段","MAREA":" ","LANE":"１９３巷","ALLEY":" ","HOUSE_NO":"７６號","E_COORD97":167932.28,"N_COORD97":2541657.1000000001,"ADDRESS":"大成路一段１９３巷７６號","OBJECTID":412872},"geometry":{"x":167932.28000000119,"y":2541657.1000000015}},{"attributes":{"ID":412897,"DIS_CODE":0,"TOWNNAME":"南區","LI":"明德里","LIN":"3鄰","STREET":"大成路","SECT":"一段","MAREA":" ","LANE":"１９３巷","ALLEY":" ","HOUSE_NO":"７７號","E_COORD97":167937.35999999999,"N_COORD97":2541657.2599999998,"ADDRESS":"大成路一段１９３巷７７號","OBJECTID":412873},"geometry":{"x":167937.36000000127,"y":2541657.2600000016}},{"attributes":{"ID":412898,"DIS_CODE":0,"TOWNNAME":"南區","LI":"明德里","LIN":"3鄰","STREET":"大成路","SECT":"一段","MAREA":" ","LANE":"１９３巷","ALLEY":" ","HOUSE_NO":"８０號","E_COORD97":167954.03,"N_COORD97":2541657.8900000001,"ADDRESS":"大成路一段１９３巷８０號","OBJECTID":412874},"geometry":{"x":167954.03000000212,"y":2541657.8900000006}},{"attributes":{"ID":412899,"DIS_CODE":0,"TOWNNAME":"南區","LI":"明德里","LIN":"3鄰","STREET":"大成路","SECT":"一段","MAREA":" ","LANE":"１９３巷","ALLEY":" ","HOUSE_NO":"８１號","E_COORD97":167964.51000000001,"N_COORD97":2541657.5699999998,"ADDRESS":"大成路一段１９３巷８１號","OBJECTID":412875},"geometry":{"x":167964.51000000071,"y":2541657.570000004}},{"attributes":{"ID":412900,"DIS_CODE":0,"TOWNNAME":"南區","LI":"明德里","LIN":"3鄰","STREET":"大成路","SECT":"一段","MAREA":" ","LANE":"１９３巷","ALLEY":" ","HOUSE_NO":"８２號","E_COORD97":167970.07000000001,"N_COORD97":2541657.73,"ADDRESS":"大成路一段１９３巷８２號","OBJECTID":412876},"geometry":{"x":167970.0700000003,"y":2541657.7300000023}},{"attributes":{"ID":412901,"DIS_CODE":0,"TOWNNAME":"南區","LI":"明德里","LIN":"3鄰","STREET":"大成路","SECT":"一段","MAREA":" ","LANE":"１９３巷","ALLEY":" ","HOUSE_NO":"８３號","E_COORD97":167975.29999999999,"N_COORD97":2541657.73,"ADDRESS":"大成路一段１９３巷８３號","OBJECTID":412877},"geometry":{"x":167975.29999999981,"y":2541657.7300000023}},{"attributes":{"ID":412902,"DIS_CODE":0,"TOWNNAME":"南區","LI":"明德里","LIN":"3鄰","STREET":"大成路","SECT":"一段","MAREA":" ","LANE":"１９３巷","ALLEY":" ","HOUSE_NO":"８４號","E_COORD97":167981.01999999999,"N_COORD97":2541657.5699999998,"ADDRESS":"大成路一段１９３巷８４號","OBJECTID":412878},"geometry":{"x":167981.02000000048,"y":2541657.570000004}},{"attributes":{"ID":412903,"DIS_CODE":0,"TOWNNAME":"南區","LI":"明德里","LIN":"3鄰","STREET":"大成路","SECT":"一段","MAREA":" ","LANE":"１９３巷","ALLEY":" ","HOUSE_NO":"８５號","E_COORD97":167986.42000000001,"N_COORD97":2541658.0499999998,"ADDRESS":"大成路一段１９３巷８５號","OBJECTID":412879},"geometry":{"x":167986.41999999993,"y":2541658.0499999989}},{"attributes":{"ID":412904,"DIS_CODE":0,"TOWNNAME":"南區","LI":"明德里","LIN":"3鄰","STREET":"大成路","SECT":"一段","MAREA":" ","LANE":"１９３巷","ALLEY":" ","HOUSE_NO":"８９號","E_COORD97":168020.39000000001,"N_COORD97":2541658.8399999999,"ADDRESS":"大成路一段１９３巷８９號","OBJECTID":412880},"geometry":{"x":168020.39000000153,"y":2541658.8400000036}},{"attributes":{"ID":412905,"DIS_CODE":0,"TOWNNAME":"南區","LI":"明德里","LIN":"3鄰","STREET":"大成路","SECT":"一段","MAREA":" ","LANE":"１９３巷","ALLEY":" ","HOUSE_NO":"９０號","E_COORD97":168030.54999999999,"N_COORD97":2541659.1600000001,"ADDRESS":"大成路一段１９３巷９０號","OBJECTID":412881},"geometry":{"x":168030.54999999981,"y":2541659.1600000001}},{"attributes":{"ID":412906,"DIS_CODE":0,"TOWNNAME":"南區","LI":"明德里","LIN":"3鄰","STREET":"大成路","SECT":"一段","MAREA":" ","LANE":"１９３巷","ALLEY":" ","HOUSE_NO":"７５號","E_COORD97":167921.48999999999,"N_COORD97":2541655.27,"ADDRESS":"大成路一段１９３巷７５號","OBJECTID":412882},"geometry":{"x":167921.49000000022,"y":2541655.2699999977}},{"attributes":{"ID":412907,"DIS_CODE":0,"TOWNNAME":"南區","LI":"明德里","LIN":"3鄰","STREET":"大成路","SECT":"一段","MAREA":" ","LANE":"１９３巷","ALLEY":" ","HOUSE_NO":"７４號","E_COORD97":167916.73000000001,"N_COORD97":2541655.27,"ADDRESS":"大成路一段１９３巷７４號","OBJECTID":412883},"geometry":{"x":167916.73000000045,"y":2541655.2699999977}},{"attributes":{"ID":412908,"DIS_CODE":0,"TOWNNAME":"南區","LI":"明德里","LIN":"3鄰","STREET":"大成路","SECT":"一段","MAREA":" ","LANE":"１９３巷","ALLEY":" ","HOUSE_NO":"７２號","E_COORD97":167905.45000000001,"N_COORD97":2541655.27,"ADDRESS":"大成路一段１９３巷７２號","OBJECTID":412884},"geometry":{"x":167905.45000000205,"y":2541655.2699999977}},{"attributes":{"ID":412909,"DIS_CODE":0,"TOWNNAME":"南區","LI":"明德里","LIN":"3鄰","STREET":"大成路","SECT":"一段","MAREA":" ","LANE":"１９３巷","ALLEY":" ","HOUSE_NO":"９６號","E_COORD97":167899.73999999999,"N_COORD97":2541641.1400000001,"ADDRESS":"大成路一段１９３巷９６號","OBJECTID":412885},"geometry":{"x":167899.74000000022,"y":2541641.1400000025}},{"attributes":{"ID":412910,"DIS_CODE":0,"TOWNNAME":"南區","LI":"明德里","LIN":"3鄰","STREET":"大成路","SECT":"一段","MAREA":" ","LANE":"１９３巷","ALLEY":" ","HOUSE_NO":"７３號","E_COORD97":167910.85000000001,"N_COORD97":2541655.1099999999,"ADDRESS":"大成路一段１９３巷７３號","OBJECTID":412886},"geometry":{"x":167910.85000000056,"y":2541655.1099999994}},{"attributes":{"ID":412911,"DIS_CODE":0,"TOWNNAME":"南區","LI":"明德里","LIN":"3鄰","STREET":"大成路","SECT":"一段","MAREA":" ","LANE":"１９３巷","ALLEY":" ","HOUSE_NO":"７１號","E_COORD97":167900.06,"N_COORD97":2541655.5899999999,"ADDRESS":"大成路一段１９３巷７１號","OBJECTID":412887},"geometry":{"x":167900.05999999959,"y":2541655.5899999999}},{"attributes":{"ID":412912,"DIS_CODE":0,"TOWNNAME":"南區","LI":"明德里","LIN":"3鄰","STREET":"大成路","SECT":"一段","MAREA":" ","LANE":"１９３巷","ALLEY":" ","HOUSE_NO":"１００號","E_COORD97":167921.17000000001,"N_COORD97":2541641.2999999998,"ADDRESS":"大成路一段１９３巷１００號","OBJECTID":412888},"geometry":{"x":167921.17000000086,"y":2541641.3000000007}},{"attributes":{"ID":412913,"DIS_CODE":0,"TOWNNAME":"南區","LI":"明德里","LIN":"3鄰","STREET":"大成路","SECT":"一段","MAREA":" ","LANE":"１９３巷","ALLEY":" ","HOUSE_NO":"９８號","E_COORD97":167910.53,"N_COORD97":2541641.1400000001,"ADDRESS":"大成路一段１９３巷９８號","OBJECTID":412889},"geometry":{"x":167910.53000000119,"y":2541641.1400000025}},{"attributes":{"ID":412914,"DIS_CODE":0,"TOWNNAME":"南區","LI":"明德里","LIN":"3鄰","STREET":"大成路","SECT":"一段","MAREA":" ","LANE":"１９３巷","ALLEY":" ","HOUSE_NO":"９７號","E_COORD97":167905.14000000001,"N_COORD97":2541641.2999999998,"ADDRESS":"大成路一段１９３巷９７號","OBJECTID":412890},"geometry":{"x":167905.14000000153,"y":2541641.3000000007}},{"attributes":{"ID":412915,"DIS_CODE":0,"TOWNNAME":"南區","LI":"明德里","LIN":"3鄰","STREET":"大成路","SECT":"一段","MAREA":" ","LANE":"１９３巷","ALLEY":" ","HOUSE_NO":"９９號","E_COORD97":167915.92999999999,"N_COORD97":2541640.9900000002,"ADDRESS":"大成路一段１９３巷９９號","OBJECTID":412891},"geometry":{"x":167915.93000000063,"y":2541640.9900000039}},{"attributes":{"ID":412916,"DIS_CODE":0,"TOWNNAME":"永康區","LI":"王行里","LIN":"13鄰","STREET":"王行路","SECT":" ","MAREA":" ","LANE":"１０３２巷","ALLEY":" ","HOUSE_NO":"１號","E_COORD97":175805.69,"N_COORD97":2550160.1600000001,"ADDRESS":"王行路１０３２巷１號","OBJECTID":412892},"geometry":{"x":175805.69000000134,"y":2550160.1600000039}},{"attributes":{"ID":412917,"DIS_CODE":0,"TOWNNAME":"永康區","LI":"王行里","LIN":"1鄰","STREET":"王行路","SECT":" ","MAREA":" ","LANE":"２２４巷","ALLEY":" ","HOUSE_NO":"１２號","E_COORD97":175693.54000000001,"N_COORD97":2548177.5600000001,"ADDRESS":"王行路２２４巷１２號","OBJECTID":412893},"geometry":{"x":175693.54000000004,"y":2548177.5600000042}},{"attributes":{"ID":412918,"DIS_CODE":0,"TOWNNAME":"南區","LI":"明興里","LIN":"3鄰","STREET":"金華路","SECT":"一段","MAREA":" ","LANE":"２１６巷","ALLEY":" ","HOUSE_NO":"３號","E_COORD97":166991.91,"N_COORD97":2540821,"ADDRESS":"金華路一段２１６巷３號","OBJECTID":412894},"geometry":{"x":166991.91000000201,"y":2540821.0000000019}},{"attributes":{"ID":412919,"DIS_CODE":0,"TOWNNAME":"南區","LI":"明興里","LIN":"3鄰","STREET":"金華路","SECT":"一段","MAREA":" ","LANE":"２１６巷","ALLEY":" ","HOUSE_NO":"４號","E_COORD97":166987.57999999999,"N_COORD97":2540811.23,"ADDRESS":"金華路一段２１６巷４號","OBJECTID":412895},"geometry":{"x":166987.58000000101,"y":2540811.2300000004}},{"attributes":{"ID":412920,"DIS_CODE":0,"TOWNNAME":"南區","LI":"明興里","LIN":"3鄰","STREET":"金華路","SECT":"一段","MAREA":" ","LANE":"２１６巷","ALLEY":" ","HOUSE_NO":"５號","E_COORD97":166997.34,"N_COORD97":2540821.2200000002,"ADDRESS":"金華路一段２１６巷５號","OBJECTID":412896},"geometry":{"x":166997.34000000078,"y":2540821.2200000025}},{"attributes":{"ID":412921,"DIS_CODE":0,"TOWNNAME":"南區","LI":"明興里","LIN":"3鄰","STREET":"金華路","SECT":"一段","MAREA":" ","LANE":"２１６巷","ALLEY":" ","HOUSE_NO":"７號","E_COORD97":167004,"N_COORD97":2540821,"ADDRESS":"金華路一段２１６巷７號","OBJECTID":412897},"geometry":{"x":167004,"y":2540821.0000000019}},{"attributes":{"ID":412922,"DIS_CODE":0,"TOWNNAME":"南區","LI":"明興里","LIN":"3鄰","STREET":"金華路","SECT":"一段","MAREA":" ","LANE":"２１６巷","ALLEY":" ","HOUSE_NO":"９號","E_COORD97":167008.76999999999,"N_COORD97":2540819.6699999999,"ADDRESS":"金華路一段２１６巷９號","OBJECTID":412898},"geometry":{"x":167008.76999999955,"y":2540819.6700000018}},{"attributes":{"ID":412923,"DIS_CODE":0,"TOWNNAME":"下營區","LI":"茅港里","LIN":"7鄰","STREET":" ","SECT":" ","MAREA":"茅港尾","LANE":" ","ALLEY":" ","HOUSE_NO":"２１０號","E_COORD97":177508.75607800001,"N_COORD97":2567135.6138399998,"ADDRESS":"茅港尾２１０號","OBJECTID":412899},"geometry":{"x":177508.75607800111,"y":2567135.613837}},{"attributes":{"ID":412924,"DIS_CODE":0,"TOWNNAME":"南區","LI":"明興里","LIN":"3鄰","STREET":"金華路","SECT":"一段","MAREA":" ","LANE":"２１６巷","ALLEY":" ","HOUSE_NO":"１１號","E_COORD97":167012.76000000001,"N_COORD97":2540819.5600000001,"ADDRESS":"金華路一段２１６巷１１號","OBJECTID":412900},"geometry":{"x":167012.76000000164,"y":2540819.5600000005}},{"attributes":{"ID":412925,"DIS_CODE":0,"TOWNNAME":"南區","LI":"明興里","LIN":"3鄰","STREET":"金華路","SECT":"一段","MAREA":" ","LANE":"２１６巷","ALLEY":" ","HOUSE_NO":"１３號","E_COORD97":167017.75,"N_COORD97":2540820.1099999999,"ADDRESS":"金華路一段２１６巷１３號","OBJECTID":412901},"geometry":{"x":167017.75,"y":2540820.1100000013}},{"attributes":{"ID":412926,"DIS_CODE":0,"TOWNNAME":"南區","LI":"明興里","LIN":"3鄰","STREET":"金華路","SECT":"一段","MAREA":" ","LANE":"２１６巷","ALLEY":" ","HOUSE_NO":"１４號","E_COORD97":167013.67000000001,"N_COORD97":2540807.9199999999,"ADDRESS":"金華路一段２１６巷１４號","OBJECTID":412902},"geometry":{"x":167013.67000000179,"y":2540807.9200000018}},{"attributes":{"ID":412927,"DIS_CODE":0,"TOWNNAME":"南區","LI":"明興里","LIN":"3鄰","STREET":"金華路","SECT":"一段","MAREA":" ","LANE":"２１６巷","ALLEY":" ","HOUSE_NO":"１５號","E_COORD97":167023.22,"N_COORD97":2540819.3399999999,"ADDRESS":"金華路一段２１６巷１５號","OBJECTID":412903},"geometry":{"x":167023.2200000016,"y":2540819.3400000017}},{"attributes":{"ID":412928,"DIS_CODE":0,"TOWNNAME":"南區","LI":"明興里","LIN":"3鄰","STREET":"金華路","SECT":"一段","MAREA":" ","LANE":"２１６巷","ALLEY":" ","HOUSE_NO":"１６號","E_COORD97":167017.82999999999,"N_COORD97":2540806.8999999999,"ADDRESS":"金華路一段２１６巷１６號","OBJECTID":412904},"geometry":{"x":167017.83000000194,"y":2540806.9000000004}},{"attributes":{"ID":412929,"DIS_CODE":0,"TOWNNAME":"南區","LI":"明興里","LIN":"3鄰","STREET":"金華路","SECT":"一段","MAREA":" ","LANE":"２１６巷","ALLEY":" ","HOUSE_NO":"１７號","E_COORD97":167028.44,"N_COORD97":2540818.23,"ADDRESS":"金華路一段２１６巷１７號","OBJECTID":412905},"geometry":{"x":167028.44000000041,"y":2540818.2300000004}},{"attributes":{"ID":412930,"DIS_CODE":0,"TOWNNAME":"南區","LI":"明興里","LIN":"3鄰","STREET":"金華路","SECT":"一段","MAREA":" ","LANE":"２１６巷","ALLEY":" ","HOUSE_NO":"１８號","E_COORD97":167023.60999999999,"N_COORD97":2540807.0699999998,"ADDRESS":"金華路一段２１６巷１８號","OBJECTID":412906},"geometry":{"x":167023.61000000127,"y":2540807.0700000022}},{"attributes":{"ID":412931,"DIS_CODE":0,"TOWNNAME":"南區","LI":"明興里","LIN":"3鄰","STREET":"金華路","SECT":"一段","MAREA":" ","LANE":"２１６巷","ALLEY":" ","HOUSE_NO":"２０號","E_COORD97":167029.20999999999,"N_COORD97":2540806.8100000001,"ADDRESS":"金華路一段２１６巷２０號","OBJECTID":412907},"geometry":{"x":167029.21000000089,"y":2540806.8100000024}},{"attributes":{"ID":412932,"DIS_CODE":0,"TOWNNAME":"南區","LI":"明興里","LIN":"3鄰","STREET":"金華路","SECT":"一段","MAREA":" ","LANE":"２１６巷","ALLEY":" ","HOUSE_NO":"２１號","E_COORD97":167039.19,"N_COORD97":2540817.1200000001,"ADDRESS":"金華路一段２１６巷２１號","OBJECTID":412908},"geometry":{"x":167039.19000000041,"y":2540817.1200000048}},{"attributes":{"ID":412933,"DIS_CODE":0,"TOWNNAME":"南區","LI":"明興里","LIN":"3鄰","STREET":"金華路","SECT":"一段","MAREA":" ","LANE":"２１６巷","ALLEY":" ","HOUSE_NO":"２２號","E_COORD97":167033.38,"N_COORD97":2540805.7999999998,"ADDRESS":"金華路一段２１６巷２２號","OBJECTID":412909},"geometry":{"x":167033.37999999989,"y":2540805.8000000045}},{"attributes":{"ID":412934,"DIS_CODE":0,"TOWNNAME":"南區","LI":"明興里","LIN":"3鄰","STREET":"金華路","SECT":"一段","MAREA":" ","LANE":"２１６巷","ALLEY":" ","HOUSE_NO":"２３號","E_COORD97":167049.17999999999,"N_COORD97":2540807.2400000002,"ADDRESS":"金華路一段２１６巷２３號","OBJECTID":412910},"geometry":{"x":167049.18000000063,"y":2540807.2400000002}},{"attributes":{"ID":412935,"DIS_CODE":0,"TOWNNAME":"南區","LI":"明興里","LIN":"3鄰","STREET":"金華路","SECT":"一段","MAREA":" ","LANE":"２１６巷","ALLEY":" ","HOUSE_NO":"２４號","E_COORD97":167038.56,"N_COORD97":2540807.2400000002,"ADDRESS":"金華路一段２１６巷２４號","OBJECTID":412911},"geometry":{"x":167038.55999999959,"y":2540807.2400000002}},{"attributes":{"ID":412936,"DIS_CODE":0,"TOWNNAME":"南區","LI":"明興里","LIN":"3鄰","STREET":"金華路","SECT":"一段","MAREA":" ","LANE":"２１６巷","ALLEY":" ","HOUSE_NO":"２５號","E_COORD97":167052.23999999999,"N_COORD97":2540806.3900000001,"ADDRESS":"金華路一段２１６巷２５號","OBJECTID":412912},"geometry":{"x":167052.24000000022,"y":2540806.3900000025}},{"attributes":{"ID":412937,"DIS_CODE":0,"TOWNNAME":"永康區","LI":"北灣里","LIN":"38鄰","STREET":"大灣路","SECT":" ","MAREA":" ","LANE":"４０巷","ALLEY":" ","HOUSE_NO":"１８３號","E_COORD97":174856.01000000001,"N_COORD97":2546294.1200000001,"ADDRESS":"大灣路４０巷１８３號","OBJECTID":412913},"geometry":{"x":174856.00999999978,"y":2546294.1200000029}},{"attributes":{"ID":412938,"DIS_CODE":0,"TOWNNAME":"永康區","LI":"北灣里","LIN":"13鄰","STREET":"大灣路","SECT":" ","MAREA":" ","LANE":"４４巷","ALLEY":" ","HOUSE_NO":"３９號","E_COORD97":175090.01000000001,"N_COORD97":2545882.2999999998,"ADDRESS":"大灣路４４巷３９號","OBJECTID":412914},"geometry":{"x":175090.00999999978,"y":2545882.3000000026}},{"attributes":{"ID":412939,"DIS_CODE":0,"TOWNNAME":"永康區","LI":"正強里","LIN":"34鄰","STREET":"四維街","SECT":" ","MAREA":" ","LANE":"１４９巷","ALLEY":" ","HOUSE_NO":"１號","E_COORD97":173283.35000000001,"N_COORD97":2548339.7799999998,"ADDRESS":"四維街１４９巷１號","OBJECTID":412915},"geometry":{"x":173283.35000000056,"y":2548339.7799999993}},{"attributes":{"ID":412940,"DIS_CODE":0,"TOWNNAME":"永康區","LI":"王行里","LIN":"8鄰","STREET":"王行路","SECT":" ","MAREA":" ","LANE":"３５１巷","ALLEY":" ","HOUSE_NO":"２９號","E_COORD97":175396.76000000001,"N_COORD97":2548485.25,"ADDRESS":"王行路３５１巷２９號","OBJECTID":412916},"geometry":{"x":175396.75999999978,"y":2548485.2500000019}},{"attributes":{"ID":412941,"DIS_CODE":0,"TOWNNAME":"南區","LI":"明興里","LIN":"3鄰","STREET":"金華路","SECT":"一段","MAREA":" ","LANE":"２１６巷","ALLEY":" ","HOUSE_NO":"２６號","E_COORD97":167045.69,"N_COORD97":2540786.6200000001,"ADDRESS":"金華路一段２１６巷２６號","OBJECTID":412917},"geometry":{"x":167045.69000000041,"y":2540786.6200000048}},{"attributes":{"ID":412942,"DIS_CODE":0,"TOWNNAME":"南區","LI":"明興里","LIN":"3鄰","STREET":"金華路","SECT":"一段","MAREA":" ","LANE":"２１６巷","ALLEY":" ","HOUSE_NO":"２７號","E_COORD97":167057.67999999999,"N_COORD97":2540807.4100000001,"ADDRESS":"金華路一段２１６巷２７號","OBJECTID":412918},"geometry":{"x":167057.68000000063,"y":2540807.4100000039}},{"attributes":{"ID":412943,"DIS_CODE":0,"TOWNNAME":"南區","LI":"明興里","LIN":"3鄰","STREET":"金華路","SECT":"一段","MAREA":" ","LANE":"２１６巷","ALLEY":" ","HOUSE_NO":"２８號","E_COORD97":167049.35000000001,"N_COORD97":2540786.8799999999,"ADDRESS":"金華路一段２１６巷２８號","OBJECTID":412919},"geometry":{"x":167049.35000000149,"y":2540786.8800000008}},{"attributes":{"ID":412944,"DIS_CODE":0,"TOWNNAME":"南區","LI":"明興里","LIN":"3鄰","STREET":"金華路","SECT":"一段","MAREA":" ","LANE":"２１６巷","ALLEY":" ","HOUSE_NO":"２９號","E_COORD97":167061.39000000001,"N_COORD97":2540805.71,"ADDRESS":"金華路一段２１６巷２９號","OBJECTID":412920},"geometry":{"x":167061.3900000006,"y":2540805.7100000009}},{"attributes":{"ID":412945,"DIS_CODE":0,"TOWNNAME":"南區","LI":"明興里","LIN":"3鄰","STREET":"金華路","SECT":"一段","MAREA":" ","LANE":"２１６巷","ALLEY":" ","HOUSE_NO":"３０號","E_COORD97":167052.92000000001,"N_COORD97":2540786.3700000001,"ADDRESS":"金華路一段２１６巷３０號","OBJECTID":412921},"geometry":{"x":167052.92000000086,"y":2540786.3700000029}},{"attributes":{"ID":412946,"DIS_CODE":0,"TOWNNAME":"南區","LI":"明興里","LIN":"3鄰","STREET":"金華路","SECT":"一段","MAREA":" ","LANE":"２１６巷","ALLEY":" ","HOUSE_NO":"３１號","E_COORD97":167064.87,"N_COORD97":2540805.1200000001,"ADDRESS":"金華路一段２１６巷３１號","OBJECTID":412922},"geometry":{"x":167064.86999999918,"y":2540805.1200000029}},{"attributes":{"ID":412947,"DIS_CODE":0,"TOWNNAME":"南區","LI":"明興里","LIN":"3鄰","STREET":"金華路","SECT":"一段","MAREA":" ","LANE":"２１６巷","ALLEY":" ","HOUSE_NO":"３４號","E_COORD97":167060.48000000001,"N_COORD97":2540785.7799999998,"ADDRESS":"金華路一段２１６巷３４號","OBJECTID":412923},"geometry":{"x":167060.48000000045,"y":2540785.7799999993}},{"attributes":{"ID":412948,"DIS_CODE":0,"TOWNNAME":"南區","LI":"明興里","LIN":"3鄰","STREET":"金華路","SECT":"一段","MAREA":" ","LANE":"２１６巷","ALLEY":" ","HOUSE_NO":"３５號","E_COORD97":167073.70999999999,"N_COORD97":2540805.6299999999,"ADDRESS":"金華路一段２１６巷３５號","OBJECTID":412924},"geometry":{"x":167073.70999999996,"y":2540805.6300000008}},{"attributes":{"ID":412949,"DIS_CODE":0,"TOWNNAME":"南區","LI":"明興里","LIN":"3鄰","STREET":"金華路","SECT":"一段","MAREA":" ","LANE":"２１６巷","ALLEY":" ","HOUSE_NO":"３６號","E_COORD97":167064.29999999999,"N_COORD97":2540785.7799999998,"ADDRESS":"金華路一段２１６巷３６號","OBJECTID":412925},"geometry":{"x":167064.29999999981,"y":2540785.7799999993}},{"attributes":{"ID":412950,"DIS_CODE":0,"TOWNNAME":"南區","LI":"明興里","LIN":"3鄰","STREET":"金華路","SECT":"一段","MAREA":" ","LANE":"２１６巷","ALLEY":" ","HOUSE_NO":"３７號","E_COORD97":167079.60999999999,"N_COORD97":2540794.5899999999,"ADDRESS":"金華路一段２１６巷３７號","OBJECTID":412926},"geometry":{"x":167079.61000000127,"y":2540794.5899999999}},{"attributes":{"ID":412951,"DIS_CODE":0,"TOWNNAME":"南區","LI":"明興里","LIN":"3鄰","STREET":"金華路","SECT":"一段","MAREA":" ","LANE":"２１６巷","ALLEY":" ","HOUSE_NO":"３８號","E_COORD97":167068.47,"N_COORD97":2540785.1000000001,"ADDRESS":"金華路一段２１６巷３８號","OBJECTID":412927},"geometry":{"x":167068.46999999974,"y":2540785.0999999978}},{"attributes":{"ID":412952,"DIS_CODE":0,"TOWNNAME":"南區","LI":"明興里","LIN":"3鄰","STREET":"金華路","SECT":"一段","MAREA":" ","LANE":"２１６巷","ALLEY":" ","HOUSE_NO":"４０號","E_COORD97":167072.72,"N_COORD97":2540784.7599999998,"ADDRESS":"金華路一段２１６巷４０號","OBJECTID":412928},"geometry":{"x":167072.72000000067,"y":2540784.7600000016}},{"attributes":{"ID":412953,"DIS_CODE":0,"TOWNNAME":"南區","LI":"金華里","LIN":"3鄰","STREET":"金華路","SECT":"二段","MAREA":" ","LANE":"６３巷","ALLEY":" ","HOUSE_NO":"２號","E_COORD97":167059.28,"N_COORD97":2542154.7799999998,"ADDRESS":"金華路二段６３巷２號","OBJECTID":412929},"geometry":{"x":167059.28000000119,"y":2542154.7800000012}},{"attributes":{"ID":412954,"DIS_CODE":0,"TOWNNAME":"南區","LI":"金華里","LIN":"3鄰","STREET":"金華路","SECT":"二段","MAREA":" ","LANE":"６３巷","ALLEY":" ","HOUSE_NO":"４號","E_COORD97":167047.04000000001,"N_COORD97":2542155.98,"ADDRESS":"金華路二段６３巷４號","OBJECTID":412930},"geometry":{"x":167047.04000000097,"y":2542155.9800000004}},{"attributes":{"ID":412955,"DIS_CODE":0,"TOWNNAME":"南區","LI":"金華里","LIN":"3鄰","STREET":"金華路","SECT":"二段","MAREA":" ","LANE":"６３巷","ALLEY":" ","HOUSE_NO":"６號","E_COORD97":167036.60000000001,"N_COORD97":2542155.98,"ADDRESS":"金華路二段６３巷６號","OBJECTID":412931},"geometry":{"x":167036.60000000056,"y":2542155.9800000004}},{"attributes":{"ID":412956,"DIS_CODE":0,"TOWNNAME":"南區","LI":"金華里","LIN":"3鄰","STREET":"金華路","SECT":"二段","MAREA":" ","LANE":"６３巷","ALLEY":" ","HOUSE_NO":"８號","E_COORD97":167023.45999999999,"N_COORD97":2542156.5699999998,"ADDRESS":"金華路二段６３巷８號","OBJECTID":412932},"geometry":{"x":167023.46000000183,"y":2542156.5700000022}},{"attributes":{"ID":412957,"DIS_CODE":0,"TOWNNAME":"南區","LI":"金華里","LIN":"3鄰","STREET":"金華路","SECT":"二段","MAREA":" ","LANE":"６３巷","ALLEY":" ","HOUSE_NO":"１０號","E_COORD97":167009.73999999999,"N_COORD97":2542155.1099999999,"ADDRESS":"金華路二段６３巷１０號","OBJECTID":412933},"geometry":{"x":167009.74000000022,"y":2542155.1100000013}},{"attributes":{"ID":412958,"DIS_CODE":0,"TOWNNAME":"南區","LI":"金華里","LIN":"3鄰","STREET":"金華路","SECT":"二段","MAREA":" ","LANE":"６３巷","ALLEY":" ","HOUSE_NO":"１２號","E_COORD97":167004.23000000001,"N_COORD97":2542154.8300000001,"ADDRESS":"金華路二段６３巷１２號","OBJECTID":412934},"geometry":{"x":167004.23000000138,"y":2542154.8300000019}},{"attributes":{"ID":412959,"DIS_CODE":0,"TOWNNAME":"南區","LI":"金華里","LIN":"3鄰","STREET":"金華路","SECT":"二段","MAREA":" ","LANE":"６３巷","ALLEY":" ","HOUSE_NO":"１４號","E_COORD97":166998.45000000001,"N_COORD97":2542155.9300000002,"ADDRESS":"金華路二段６３巷１４號","OBJECTID":412935},"geometry":{"x":166998.45000000205,"y":2542155.9299999997}},{"attributes":{"ID":412960,"DIS_CODE":0,"TOWNNAME":"南區","LI":"金華里","LIN":"3鄰","STREET":"金華路","SECT":"二段","MAREA":" ","LANE":"６３巷","ALLEY":" ","HOUSE_NO":"１６號","E_COORD97":166992.95000000001,"N_COORD97":2542155.6600000001,"ADDRESS":"金華路二段６３巷１６號","OBJECTID":412936},"geometry":{"x":166992.95000000019,"y":2542155.660000002}},{"attributes":{"ID":412961,"DIS_CODE":0,"TOWNNAME":"南區","LI":"金華里","LIN":"3鄰","STREET":"金華路","SECT":"二段","MAREA":" ","LANE":"６３巷","ALLEY":" ","HOUSE_NO":"１８號","E_COORD97":166987.70999999999,"N_COORD97":2542156.7599999998,"ADDRESS":"金華路二段６３巷１８號","OBJECTID":412937},"geometry":{"x":166987.70999999996,"y":2542156.7599999998}},{"attributes":{"ID":412962,"DIS_CODE":0,"TOWNNAME":"南區","LI":"金華里","LIN":"3鄰","STREET":"金華路","SECT":"二段","MAREA":" ","LANE":"６３巷","ALLEY":" ","HOUSE_NO":"２０號","E_COORD97":166983.31,"N_COORD97":2542156.7599999998,"ADDRESS":"金華路二段６３巷２０號","OBJECTID":412938},"geometry":{"x":166983.30999999959,"y":2542156.7599999998}},{"attributes":{"ID":412963,"DIS_CODE":0,"TOWNNAME":"南區","LI":"金華里","LIN":"3鄰","STREET":"金華路","SECT":"二段","MAREA":" ","LANE":"６３巷","ALLEY":" ","HOUSE_NO":"２２號","E_COORD97":166977.25,"N_COORD97":2542157.5800000001,"ADDRESS":"金華路二段６３巷２２號","OBJECTID":412939},"geometry":{"x":166977.25,"y":2542157.5800000001}},{"attributes":{"ID":412964,"DIS_CODE":0,"TOWNNAME":"南區","LI":"金華里","LIN":"3鄰","STREET":"金華路","SECT":"二段","MAREA":" ","LANE":"７１巷","ALLEY":" ","HOUSE_NO":"１號","E_COORD97":167053.89999999999,"N_COORD97":2542165.5099999998,"ADDRESS":"金華路二段７１巷１號","OBJECTID":412940},"geometry":{"x":167053.9000000013,"y":2542165.5099999998}},{"attributes":{"ID":412965,"DIS_CODE":0,"TOWNNAME":"南區","LI":"金華里","LIN":"3鄰","STREET":"金華路","SECT":"二段","MAREA":" ","LANE":"７１巷","ALLEY":" ","HOUSE_NO":"３號","E_COORD97":167044.06,"N_COORD97":2542165.5099999998,"ADDRESS":"金華路二段７１巷３號","OBJECTID":412941},"geometry":{"x":167044.05999999959,"y":2542165.5099999998}},{"attributes":{"ID":412966,"DIS_CODE":0,"TOWNNAME":"南區","LI":"金華里","LIN":"3鄰","STREET":"金華路","SECT":"二段","MAREA":" ","LANE":"７１巷","ALLEY":" ","HOUSE_NO":"５號","E_COORD97":167034.79999999999,"N_COORD97":2542166.7000000002,"ADDRESS":"金華路二段７１巷５號","OBJECTID":412942},"geometry":{"x":167034.80000000075,"y":2542166.6999999993}},{"attributes":{"ID":412967,"DIS_CODE":0,"TOWNNAME":"南區","LI":"金華里","LIN":"3鄰","STREET":"金華路","SECT":"二段","MAREA":" ","LANE":"７１巷","ALLEY":" ","HOUSE_NO":"７號","E_COORD97":167022.87,"N_COORD97":2542168.79,"ADDRESS":"金華路二段７１巷７號","OBJECTID":412943},"geometry":{"x":167022.87000000104,"y":2542168.7899999991}},{"attributes":{"ID":412968,"DIS_CODE":0,"TOWNNAME":"南區","LI":"金華里","LIN":"3鄰","STREET":"金華路","SECT":"二段","MAREA":" ","LANE":"７１巷","ALLEY":" ","HOUSE_NO":"９號","E_COORD97":167004.35999999999,"N_COORD97":2542170.2799999998,"ADDRESS":"金華路二段７１巷９號","OBJECTID":412944},"geometry":{"x":167004.3600000022,"y":2542170.2799999975}},{"attributes":{"ID":412969,"DIS_CODE":0,"TOWNNAME":"南區","LI":"金華里","LIN":"3鄰","STREET":"金華路","SECT":"二段","MAREA":" ","LANE":"７１巷","ALLEY":" ","HOUSE_NO":"１１號","E_COORD97":166991.82999999999,"N_COORD97":2542171.4700000002,"ADDRESS":"金華路二段７１巷１１號","OBJECTID":412945},"geometry":{"x":166991.83000000007,"y":2542171.4700000025}},{"attributes":{"ID":412970,"DIS_CODE":0,"TOWNNAME":"南區","LI":"金華里","LIN":"3鄰","STREET":"金華路","SECT":"二段","MAREA":" ","LANE":"７１巷","ALLEY":" ","HOUSE_NO":"１３號","E_COORD97":166981.38,"N_COORD97":2542172.3700000001,"ADDRESS":"金華路二段７１巷１３號","OBJECTID":412946},"geometry":{"x":166981.37999999989,"y":2542172.3700000029}},{"attributes":{"ID":412971,"DIS_CODE":0,"TOWNNAME":"南區","LI":"金華里","LIN":"3鄰","STREET":"金華路","SECT":"二段","MAREA":" ","LANE":"７１巷","ALLEY":" ","HOUSE_NO":"１５號","E_COORD97":166969.75,"N_COORD97":2542173.2599999998,"ADDRESS":"金華路二段７１巷１５號","OBJECTID":412947},"geometry":{"x":166969.75000000093,"y":2542173.2599999998}},{"attributes":{"ID":412972,"DIS_CODE":0,"TOWNNAME":"南區","LI":"建南里","LIN":"3鄰","STREET":"德興路","SECT":" ","MAREA":" ","LANE":"２３７巷","ALLEY":" ","HOUSE_NO":"２號","E_COORD97":167238.57999999999,"N_COORD97":2540099.8199999998,"ADDRESS":"德興路２３７巷２號","OBJECTID":412948},"geometry":{"x":167238.58000000101,"y":2540099.820000004}},{"attributes":{"ID":412973,"DIS_CODE":0,"TOWNNAME":"南區","LI":"建南里","LIN":"3鄰","STREET":"德興路","SECT":" ","MAREA":" ","LANE":"２３７巷","ALLEY":" ","HOUSE_NO":"４號","E_COORD97":167242.69,"N_COORD97":2540100.3300000001,"ADDRESS":"德興路２３７巷４號","OBJECTID":412949},"geometry":{"x":167242.68999999948,"y":2540100.3300000019}},{"attributes":{"ID":412974,"DIS_CODE":0,"TOWNNAME":"南區","LI":"建南里","LIN":"3鄰","STREET":"德興路","SECT":" ","MAREA":" ","LANE":"２３７巷","ALLEY":" ","HOUSE_NO":"６號","E_COORD97":167247.31,"N_COORD97":2540099.8199999998,"ADDRESS":"德興路２３７巷６號","OBJECTID":412950},"geometry":{"x":167247.30999999959,"y":2540099.820000004}},{"attributes":{"ID":412975,"DIS_CODE":0,"TOWNNAME":"南區","LI":"建南里","LIN":"3鄰","STREET":"德興路","SECT":" ","MAREA":" ","LANE":"２３７巷","ALLEY":" ","HOUSE_NO":"８號","E_COORD97":167251.67999999999,"N_COORD97":2540099.8199999998,"ADDRESS":"德興路２３７巷８號","OBJECTID":412951},"geometry":{"x":167251.6799999997,"y":2540099.820000004}},{"attributes":{"ID":412976,"DIS_CODE":0,"TOWNNAME":"南區","LI":"建南里","LIN":"3鄰","STREET":"德興路","SECT":" ","MAREA":" ","LANE":"２３７巷","ALLEY":" ","HOUSE_NO":"１２號","E_COORD97":167260.14999999999,"N_COORD97":2540099.0499999998,"ADDRESS":"德興路２３７巷１２號","OBJECTID":412952},"geometry":{"x":167260.1500000013,"y":2540099.0500000026}},{"attributes":{"ID":412977,"DIS_CODE":0,"TOWNNAME":"南區","LI":"建南里","LIN":"3鄰","STREET":"德興路","SECT":" ","MAREA":" ","LANE":"２３７巷","ALLEY":" ","HOUSE_NO":"９３號","E_COORD97":167332.84,"N_COORD97":2539987.9100000001,"ADDRESS":"德興路２３７巷９３號","OBJECTID":412953},"geometry":{"x":167332.84000000171,"y":2539987.910000002}},{"attributes":{"ID":412978,"DIS_CODE":0,"TOWNNAME":"南區","LI":"建南里","LIN":"3鄰","STREET":"德興路","SECT":" ","MAREA":" ","LANE":"２３７巷","ALLEY":" ","HOUSE_NO":"９５號","E_COORD97":167333.06,"N_COORD97":2539983.9399999999,"ADDRESS":"德興路２３７巷９５號","OBJECTID":412954},"geometry":{"x":167333.06000000052,"y":2539983.9400000013}},{"attributes":{"ID":412979,"DIS_CODE":0,"TOWNNAME":"南區","LI":"建南里","LIN":"3鄰","STREET":"德興路","SECT":" ","MAREA":" ","LANE":"２４７巷","ALLEY":" ","HOUSE_NO":"１號","E_COORD97":167237.87,"N_COORD97":2540075.4300000002,"ADDRESS":"德興路２４７巷１號","OBJECTID":412955},"geometry":{"x":167237.87000000197,"y":2540075.4300000016}},{"attributes":{"ID":412980,"DIS_CODE":0,"TOWNNAME":"南區","LI":"建南里","LIN":"3鄰","STREET":"德興路","SECT":" ","MAREA":" ","LANE":"２４７巷","ALLEY":" ","HOUSE_NO":"２號","E_COORD97":167228.25,"N_COORD97":2540054.2799999998,"ADDRESS":"德興路２４７巷２號","OBJECTID":412956},"geometry":{"x":167228.25,"y":2540054.2799999993}},{"attributes":{"ID":412981,"DIS_CODE":0,"TOWNNAME":"南區","LI":"建南里","LIN":"3鄰","STREET":"德興路","SECT":" ","MAREA":" ","LANE":"２４７巷","ALLEY":" ","HOUSE_NO":"３號","E_COORD97":167241.87,"N_COORD97":2540075.6600000001,"ADDRESS":"德興路２４７巷３號","OBJECTID":412957},"geometry":{"x":167241.87000000104,"y":2540075.6600000001}},{"attributes":{"ID":412982,"DIS_CODE":0,"TOWNNAME":"南區","LI":"建南里","LIN":"3鄰","STREET":"德興路","SECT":" ","MAREA":" ","LANE":"２４７巷","ALLEY":" ","HOUSE_NO":"４號","E_COORD97":167234.26000000001,"N_COORD97":2540055.96,"ADDRESS":"德興路２４７巷４號","OBJECTID":412958},"geometry":{"x":167234.25999999978,"y":2540055.9600000028}},{"attributes":{"ID":412983,"DIS_CODE":0,"TOWNNAME":"南區","LI":"建南里","LIN":"3鄰","STREET":"德興路","SECT":" ","MAREA":" ","LANE":"２４７巷","ALLEY":" ","HOUSE_NO":"５號","E_COORD97":167246.32999999999,"N_COORD97":2540076.1299999999,"ADDRESS":"德興路２４７巷５號","OBJECTID":412959},"geometry":{"x":167246.33000000007,"y":2540076.1300000027}},{"attributes":{"ID":412984,"DIS_CODE":0,"TOWNNAME":"南區","LI":"建南里","LIN":"3鄰","STREET":"德興路","SECT":" ","MAREA":" ","LANE":"２４７巷","ALLEY":" ","HOUSE_NO":"６號","E_COORD97":167240.98000000001,"N_COORD97":2540053.2200000002,"ADDRESS":"德興路２４７巷６號","OBJECTID":412960},"geometry":{"x":167240.98000000231,"y":2540053.2200000044}},{"attributes":{"ID":412985,"DIS_CODE":0,"TOWNNAME":"南區","LI":"建南里","LIN":"3鄰","STREET":"德興路","SECT":" ","MAREA":" ","LANE":"２４７巷","ALLEY":" ","HOUSE_NO":"７號","E_COORD97":167251.01999999999,"N_COORD97":2540074.73,"ADDRESS":"德興路２４７巷７號","OBJECTID":412961},"geometry":{"x":167251.01999999955,"y":2540074.7300000023}},{"attributes":{"ID":412986,"DIS_CODE":0,"TOWNNAME":"南區","LI":"建南里","LIN":"3鄰","STREET":"德興路","SECT":" ","MAREA":" ","LANE":"２４７巷","ALLEY":" ","HOUSE_NO":"８號","E_COORD97":167245.32999999999,"N_COORD97":2540053.3199999998,"ADDRESS":"德興路２４７巷８號","OBJECTID":412962},"geometry":{"x":167245.33000000101,"y":2540053.3200000022}},{"attributes":{"ID":412987,"DIS_CODE":0,"TOWNNAME":"南區","LI":"建南里","LIN":"3鄰","STREET":"德興路","SECT":" ","MAREA":" ","LANE":"２４７巷","ALLEY":" ","HOUSE_NO":"１０號","E_COORD97":167249.67000000001,"N_COORD97":2540052.8399999999,"ADDRESS":"德興路２４７巷１０號","OBJECTID":412963},"geometry":{"x":167249.67000000086,"y":2540052.8400000017}},{"attributes":{"ID":412988,"DIS_CODE":0,"TOWNNAME":"南區","LI":"建南里","LIN":"3鄰","STREET":"德興路","SECT":" ","MAREA":" ","LANE":"２４７巷","ALLEY":" ","HOUSE_NO":"１２號","E_COORD97":167253.76000000001,"N_COORD97":2540052.3599999999,"ADDRESS":"德興路２４７巷１２號","OBJECTID":412964},"geometry":{"x":167253.76000000071,"y":2540052.3600000013}},{"attributes":{"ID":412989,"DIS_CODE":0,"TOWNNAME":"南區","LI":"建南里","LIN":"3鄰","STREET":"德興路","SECT":" ","MAREA":" ","LANE":"２４７巷","ALLEY":" ","HOUSE_NO":"１４號","E_COORD97":167258.81,"N_COORD97":2540052.3599999999,"ADDRESS":"德興路２４７巷１４號","OBJECTID":412965},"geometry":{"x":167258.81000000052,"y":2540052.3600000013}},{"attributes":{"ID":412990,"DIS_CODE":0,"TOWNNAME":"南區","LI":"建南里","LIN":"3鄰","STREET":"德興路","SECT":" ","MAREA":" ","LANE":"２４７巷","ALLEY":" ","HOUSE_NO":"１６號","E_COORD97":167263.62,"N_COORD97":2540052.3599999999,"ADDRESS":"德興路２４７巷１６號","OBJECTID":412966},"geometry":{"x":167263.62000000104,"y":2540052.3600000013}},{"attributes":{"ID":412991,"DIS_CODE":0,"TOWNNAME":"南區","LI":"建南里","LIN":"3鄰","STREET":"德興路","SECT":" ","MAREA":" ","LANE":"２４７巷","ALLEY":" ","HOUSE_NO":"１８號","E_COORD97":167267.23000000001,"N_COORD97":2540052.3599999999,"ADDRESS":"德興路２４７巷１８號","OBJECTID":412967},"geometry":{"x":167267.23000000045,"y":2540052.3600000013}},{"attributes":{"ID":412992,"DIS_CODE":0,"TOWNNAME":"南區","LI":"建南里","LIN":"3鄰","STREET":"德興路","SECT":" ","MAREA":" ","LANE":"２４７巷","ALLEY":" ","HOUSE_NO":"２０號","E_COORD97":167272.29000000001,"N_COORD97":2540052.6000000001,"ADDRESS":"德興路２４７巷２０號","OBJECTID":412968},"geometry":{"x":167272.2900000019,"y":2540052.5999999996}},{"attributes":{"ID":412993,"DIS_CODE":0,"TOWNNAME":"新化區","LI":"協興里","LIN":"3鄰","STREET":"忠孝路","SECT":" ","MAREA":" ","LANE":"２４３巷","ALLEY":" ","HOUSE_NO":"７號","E_COORD97":178495.92000000001,"N_COORD97":2548559.25,"ADDRESS":"忠孝路２４３巷７號","OBJECTID":412969},"geometry":{"x":178495.92000000086,"y":2548559.2500000019}},{"attributes":{"ID":412994,"DIS_CODE":0,"TOWNNAME":"新化區","LI":"協興里","LIN":"3鄰","STREET":"忠孝路","SECT":" ","MAREA":" ","LANE":"２４３巷","ALLEY":" ","HOUSE_NO":"１２號","E_COORD97":178482.97,"N_COORD97":2548543.25,"ADDRESS":"忠孝路２４３巷１２號","OBJECTID":412970},"geometry":{"x":178482.97000000067,"y":2548543.2500000019}},{"attributes":{"ID":412995,"DIS_CODE":0,"TOWNNAME":"新化區","LI":"東榮里","LIN":"3鄰","STREET":"中興路","SECT":" ","MAREA":" ","LANE":"１０４巷","ALLEY":" ","HOUSE_NO":"３４號","E_COORD97":181892.76000000001,"N_COORD97":2547408.25,"ADDRESS":"中興路１０４巷３４號","OBJECTID":412971},"geometry":{"x":181892.75999999978,"y":2547408.25}},{"attributes":{"ID":412996,"DIS_CODE":0,"TOWNNAME":"新化區","LI":"東榮里","LIN":"3鄰","STREET":"中興路","SECT":" ","MAREA":" ","LANE":"１０４巷","ALLEY":" ","HOUSE_NO":"１０６號之６","E_COORD97":181950.56,"N_COORD97":2547706.2599999998,"ADDRESS":"中興路１０４巷１０６號之６","OBJECTID":412972},"geometry":{"x":181950.56000000052,"y":2547706.2599999998}},{"attributes":{"ID":412997,"DIS_CODE":0,"TOWNNAME":"新化區","LI":"武安里","LIN":"3鄰","STREET":"中正路","SECT":" ","MAREA":" ","LANE":"３０７巷","ALLEY":" ","HOUSE_NO":"１０號","E_COORD97":179060.16,"N_COORD97":2548117.25,"ADDRESS":"中正路３０７巷１０號","OBJECTID":412973},"geometry":{"x":179060.16000000108,"y":2548117.25}},{"attributes":{"ID":412998,"DIS_CODE":0,"TOWNNAME":"新化區","LI":"協興里","LIN":"3鄰","STREET":"忠孝路","SECT":" ","MAREA":" ","LANE":"２４３巷","ALLEY":" ","HOUSE_NO":"４號","E_COORD97":178482.92000000001,"N_COORD97":2548559.25,"ADDRESS":"忠孝路２４３巷４號","OBJECTID":412974},"geometry":{"x":178482.91999999993,"y":2548559.2500000019}},{"attributes":{"ID":412999,"DIS_CODE":0,"TOWNNAME":"新化區","LI":"協興里","LIN":"3鄰","STREET":"忠孝路","SECT":" ","MAREA":" ","LANE":"２４３巷","ALLEY":" ","HOUSE_NO":"１７號","E_COORD97":178495.57000000001,"N_COORD97":2548535.25,"ADDRESS":"忠孝路２４３巷１７號","OBJECTID":412975},"geometry":{"x":178495.5700000003,"y":2548535.2500000037}},{"attributes":{"ID":413000,"DIS_CODE":0,"TOWNNAME":"新化區","LI":"協興里","LIN":"3鄰","STREET":"忠孝路","SECT":" ","MAREA":" ","LANE":"２４３巷","ALLEY":" ","HOUSE_NO":"９號","E_COORD97":178495.72,"N_COORD97":2548555.25,"ADDRESS":"忠孝路２４３巷９號","OBJECTID":412976},"geometry":{"x":178495.71999999974,"y":2548555.2499999981}},{"attributes":{"ID":413001,"DIS_CODE":0,"TOWNNAME":"新化區","LI":"東榮里","LIN":"3鄰","STREET":"中興路","SECT":" ","MAREA":" ","LANE":"１０４巷","ALLEY":" ","HOUSE_NO":"３６號","E_COORD97":181897.06,"N_COORD97":2547408.25,"ADDRESS":"中興路１０４巷３６號","OBJECTID":412977},"geometry":{"x":181897.05999999959,"y":2547408.25}},{"attributes":{"ID":413002,"DIS_CODE":0,"TOWNNAME":"新化區","LI":"太平里","LIN":"3鄰","STREET":"太平街","SECT":" ","MAREA":" ","LANE":"１巷","ALLEY":" ","HOUSE_NO":"１６號之１","E_COORD97":179065.10000000001,"N_COORD97":2548795.2599999998,"ADDRESS":"太平街１巷１６號之１","OBJECTID":412978},"geometry":{"x":179065.10000000056,"y":2548795.2599999998}},{"attributes":{"ID":413003,"DIS_CODE":0,"TOWNNAME":"新化區","LI":"協興里","LIN":"3鄰","STREET":"正新路","SECT":" ","MAREA":" ","LANE":"２５１巷","ALLEY":" ","HOUSE_NO":"１８號","E_COORD97":178523.17000000001,"N_COORD97":2548520.25,"ADDRESS":"正新路２５１巷１８號","OBJECTID":412979},"geometry":{"x":178523.16999999993,"y":2548520.25}},{"attributes":{"ID":413004,"DIS_CODE":0,"TOWNNAME":"新化區","LI":"東榮里","LIN":"3鄰","STREET":"中興路","SECT":" ","MAREA":" ","LANE":"１０４巷","ALLEY":" ","HOUSE_NO":"４６號","E_COORD97":181916.85999999999,"N_COORD97":2547409.25,"ADDRESS":"中興路１０４巷４６號","OBJECTID":412980},"geometry":{"x":181916.8600000022,"y":2547409.25}},{"attributes":{"ID":413005,"DIS_CODE":0,"TOWNNAME":"新化區","LI":"東榮里","LIN":"3鄰","STREET":"中興路","SECT":" ","MAREA":" ","LANE":"１０４巷","ALLEY":" ","HOUSE_NO":"２４號","E_COORD97":181871.06,"N_COORD97":2547407.25,"ADDRESS":"中興路１０４巷２４號","OBJECTID":412981},"geometry":{"x":181871.06000000052,"y":2547407.2500000019}},{"attributes":{"ID":413006,"DIS_CODE":0,"TOWNNAME":"新化區","LI":"東榮里","LIN":"3鄰","STREET":"中興路","SECT":" ","MAREA":" ","LANE":"１０４巷","ALLEY":" ","HOUSE_NO":"２８號","E_COORD97":181881.26000000001,"N_COORD97":2547407.25,"ADDRESS":"中興路１０４巷２８號","OBJECTID":412982},"geometry":{"x":181881.26000000164,"y":2547407.2500000019}},{"attributes":{"ID":413007,"DIS_CODE":0,"TOWNNAME":"西港區","LI":"西港里","LIN":"3鄰","STREET":"文化路","SECT":" ","MAREA":" ","LANE":"１３巷","ALLEY":" ","HOUSE_NO":"１１號","E_COORD97":168468.32999999999,"N_COORD97":2558196.5099999998,"ADDRESS":"文化路１３巷１１號","OBJECTID":412983},"geometry":{"x":168468.33000000007,"y":2558196.5100000016}},{"attributes":{"ID":413008,"DIS_CODE":0,"TOWNNAME":"西港區","LI":"西港里","LIN":"3鄰","STREET":"文化路","SECT":" ","MAREA":" ","LANE":"１３巷","ALLEY":" ","HOUSE_NO":"１３號","E_COORD97":168467.01000000001,"N_COORD97":2558200.71,"ADDRESS":"文化路１３巷１３號","OBJECTID":412984},"geometry":{"x":168467.00999999978,"y":2558200.7100000009}},{"attributes":{"ID":413009,"DIS_CODE":0,"TOWNNAME":"西港區","LI":"西港里","LIN":"3鄰","STREET":"文化路","SECT":" ","MAREA":" ","LANE":"１３巷","ALLEY":" ","HOUSE_NO":"１５號","E_COORD97":168466.03,"N_COORD97":2558204.52,"ADDRESS":"文化路１３巷１５號","OBJECTID":412985},"geometry":{"x":168466.03000000212,"y":2558204.5199999996}},{"attributes":{"ID":413010,"DIS_CODE":0,"TOWNNAME":"西港區","LI":"西港里","LIN":"3鄰","STREET":"文化路","SECT":" ","MAREA":" ","LANE":"１３巷","ALLEY":" ","HOUSE_NO":"１７號","E_COORD97":168465.12,"N_COORD97":2558208.4700000002,"ADDRESS":"文化路１３巷１７號","OBJECTID":412986},"geometry":{"x":168465.11999999918,"y":2558208.4700000025}},{"attributes":{"ID":413011,"DIS_CODE":0,"TOWNNAME":"西港區","LI":"西港里","LIN":"3鄰","STREET":"文化路","SECT":" ","MAREA":" ","LANE":"１３巷","ALLEY":" ","HOUSE_NO":"１號","E_COORD97":168474.32999999999,"N_COORD97":2558175.73,"ADDRESS":"文化路１３巷１號","OBJECTID":412987},"geometry":{"x":168474.33000000101,"y":2558175.7300000023}},{"attributes":{"ID":413012,"DIS_CODE":0,"TOWNNAME":"西港區","LI":"西港里","LIN":"3鄰","STREET":"文化路","SECT":" ","MAREA":" ","LANE":"１３巷","ALLEY":" ","HOUSE_NO":"３號","E_COORD97":168473.35000000001,"N_COORD97":2558179.8100000001,"ADDRESS":"文化路１３巷３號","OBJECTID":412988},"geometry":{"x":168473.35000000149,"y":2558179.8100000005}},{"attributes":{"ID":413013,"DIS_CODE":0,"TOWNNAME":"西港區","LI":"西港里","LIN":"3鄰","STREET":"文化路","SECT":" ","MAREA":" ","LANE":"１３巷","ALLEY":" ","HOUSE_NO":"５號","E_COORD97":168472.20999999999,"N_COORD97":2558183.4900000002,"ADDRESS":"文化路１３巷５號","OBJECTID":412989},"geometry":{"x":168472.20999999996,"y":2558183.4900000021}},{"attributes":{"ID":413014,"DIS_CODE":0,"TOWNNAME":"西港區","LI":"西港里","LIN":"3鄰","STREET":"文化路","SECT":" ","MAREA":" ","LANE":"１３巷","ALLEY":" ","HOUSE_NO":"７號","E_COORD97":168470.51000000001,"N_COORD97":2558188.1499999999,"ADDRESS":"文化路１３巷７號","OBJECTID":412990},"geometry":{"x":168470.50999999978,"y":2558188.1500000004}},{"attributes":{"ID":413015,"DIS_CODE":0,"TOWNNAME":"西港區","LI":"西港里","LIN":"3鄰","STREET":"文化路","SECT":" ","MAREA":" ","LANE":"１３巷","ALLEY":" ","HOUSE_NO":"９號","E_COORD97":168469.54000000001,"N_COORD97":2558192.0600000001,"ADDRESS":"文化路１３巷９號","OBJECTID":412991},"geometry":{"x":168469.54000000097,"y":2558192.0600000005}},{"attributes":{"ID":413016,"DIS_CODE":0,"TOWNNAME":"西港區","LI":"西港里","LIN":"3鄰","STREET":"文化路","SECT":" ","MAREA":" ","LANE":"３６巷","ALLEY":" ","HOUSE_NO":"３號","E_COORD97":168607.72,"N_COORD97":2558149.02,"ADDRESS":"文化路３６巷３號","OBJECTID":412992},"geometry":{"x":168607.71999999974,"y":2558149.0200000014}},{"attributes":{"ID":413017,"DIS_CODE":0,"TOWNNAME":"西港區","LI":"西港里","LIN":"3鄰","STREET":"文化路","SECT":" ","MAREA":" ","LANE":"３６巷","ALLEY":" ","HOUSE_NO":"５號","E_COORD97":168609.23000000001,"N_COORD97":2558142.4199999999,"ADDRESS":"文化路３６巷５號","OBJECTID":412993},"geometry":{"x":168609.23000000138,"y":2558142.4200000037}},{"attributes":{"ID":413018,"DIS_CODE":0,"TOWNNAME":"東區","LI":"小東里","LIN":"3鄰","STREET":"小東路","SECT":" ","MAREA":" ","LANE":"１９８巷","ALLEY":" ","HOUSE_NO":"２１號","E_COORD97":170854.98000000001,"N_COORD97":2544394.3799999999,"ADDRESS":"小東路１９８巷２１號","OBJECTID":412994},"geometry":{"x":170854.98000000231,"y":2544394.3800000008}},{"attributes":{"ID":413019,"DIS_CODE":0,"TOWNNAME":"東區","LI":"小東里","LIN":"3鄰","STREET":"小東路","SECT":" ","MAREA":" ","LANE":"１９８巷","ALLEY":" ","HOUSE_NO":"２３號","E_COORD97":170855.60000000001,"N_COORD97":2544390.6800000002,"ADDRESS":"小東路１９８巷２３號","OBJECTID":412995},"geometry":{"x":170855.60000000056,"y":2544390.6799999997}},{"attributes":{"ID":413020,"DIS_CODE":0,"TOWNNAME":"東區","LI":"小東里","LIN":"3鄰","STREET":"小東路","SECT":" ","MAREA":" ","LANE":"１９８巷","ALLEY":" ","HOUSE_NO":"２５號","E_COORD97":170855.60000000001,"N_COORD97":2544387.1299999999,"ADDRESS":"小東路１９８巷２５號","OBJECTID":412996},"geometry":{"x":170855.60000000056,"y":2544387.129999999}},{"attributes":{"ID":413021,"DIS_CODE":0,"TOWNNAME":"東區","LI":"小東里","LIN":"3鄰","STREET":"小東路","SECT":" ","MAREA":" ","LANE":"１９８巷","ALLEY":" ","HOUSE_NO":"２７號","E_COORD97":170856.37,"N_COORD97":2544382.9700000002,"ADDRESS":"小東路１９８巷２７號","OBJECTID":412997},"geometry":{"x":170856.37000000011,"y":2544382.9700000007}},{"attributes":{"ID":413022,"DIS_CODE":0,"TOWNNAME":"東區","LI":"小東里","LIN":"3鄰","STREET":"小東路","SECT":" ","MAREA":" ","LANE":"１９８巷","ALLEY":" ","HOUSE_NO":"２９號","E_COORD97":170857.14000000001,"N_COORD97":2544378.96,"ADDRESS":"小東路１９８巷２９號","OBJECTID":412998},"geometry":{"x":170857.1400000006,"y":2544378.9600000028}},{"attributes":{"ID":413023,"DIS_CODE":0,"TOWNNAME":"東區","LI":"小東里","LIN":"3鄰","STREET":"小東路","SECT":" ","MAREA":" ","LANE":"１９８巷","ALLEY":" ","HOUSE_NO":"３１號","E_COORD97":170857.14000000001,"N_COORD97":2544374.6299999999,"ADDRESS":"小東路１９８巷３１號","OBJECTID":412999},"geometry":{"x":170857.1400000006,"y":2544374.6299999971}},{"attributes":{"ID":413024,"DIS_CODE":0,"TOWNNAME":"東區","LI":"小東里","LIN":"3鄰","STREET":"小東路","SECT":" ","MAREA":" ","LANE":"１９８巷","ALLEY":" ","HOUSE_NO":"３３號","E_COORD97":170857.60000000001,"N_COORD97":2544370.6200000001,"ADDRESS":"小東路１９８巷３３號","OBJECTID":413000},"geometry":{"x":170857.59999999963,"y":2544370.6200000048}}]}