{"displayFieldName":"TOWNNAME","fieldAliases":{"ID":"ID","DIS_CODE":"DIS_CODE","TOWNNAME":"TOWNNAME","LI":"LI","LIN":"LIN","STREET":"STREET","SECT":"SECT","MAREA":"MAREA","LANE":"LANE","ALLEY":"ALLEY","HOUSE_NO":"HOUSE_NO","E_COORD97":"E_COORD97","N_COORD97":"N_COORD97","ADDRESS":"ADDRESS","OBJECTID":"OBJECTID"},"geometryType":"esriGeometryPoint","spatialReference":{"wkid":102443,"latestWkid":3826},"fields":[{"name":"ID","type":"esriFieldTypeDouble","alias":"ID"},{"name":"DIS_CODE","type":"esriFieldTypeInteger","alias":"DIS_CODE"},{"name":"TOWNNAME","type":"esriFieldTypeString","alias":"TOWNNAME","length":8},{"name":"LI","type":"esriFieldTypeString","alias":"LI","length":8},{"name":"LIN","type":"esriFieldTypeString","alias":"LIN","length":12},{"name":"STREET","type":"esriFieldTypeString","alias":"STREET","length":20},{"name":"SECT","type":"esriFieldTypeString","alias":"SECT","length":8},{"name":"MAREA","type":"esriFieldTypeString","alias":"MAREA","length":12},{"name":"LANE","type":"esriFieldTypeString","alias":"LANE","length":10},{"name":"ALLEY","type":"esriFieldTypeString","alias":"ALLEY","length":10},{"name":"HOUSE_NO","type":"esriFieldTypeString","alias":"HOUSE_NO","length":20},{"name":"E_COORD97","type":"esriFieldTypeDouble","alias":"E_COORD97"},{"name":"N_COORD97","type":"esriFieldTypeDouble","alias":"N_COORD97"},{"name":"ADDRESS","type":"esriFieldTypeString","alias":"ADDRESS","length":50},{"name":"OBJECTID","type":"esriFieldTypeOID","alias":"OBJECTID"}],"features":[{"attributes":{"ID":533428,"DIS_CODE":0,"TOWNNAME":"佳里區","LI":"鎮山里","LIN":"19鄰","STREET":"中興街","SECT":" ","MAREA":" ","LANE":" ","ALLEY":" ","HOUSE_NO":"３９號","E_COORD97":166241.64999999999,"N_COORD97":2561160.3700000001,"ADDRESS":"中興街３９號","OBJECTID":533401},"geometry":{"x":166241.6500000013,"y":2561160.370000001}},{"attributes":{"ID":533429,"DIS_CODE":0,"TOWNNAME":"安南區","LI":"長安里","LIN":"19鄰","STREET":"公學路","SECT":"二段","MAREA":" ","LANE":" ","ALLEY":" ","HOUSE_NO":"８０號","E_COORD97":167719.76999999999,"N_COORD97":2552409.8500000001,"ADDRESS":"公學路二段８０號","OBJECTID":533402},"geometry":{"x":167719.77000000048,"y":2552409.8500000015}},{"attributes":{"ID":533430,"DIS_CODE":0,"TOWNNAME":"安南區","LI":"長安里","LIN":"19鄰","STREET":"公學路","SECT":"二段","MAREA":" ","LANE":" ","ALLEY":" ","HOUSE_NO":"１３４號","E_COORD97":167661.57999999999,"N_COORD97":2552282.3500000001,"ADDRESS":"公學路二段１３４號","OBJECTID":533403},"geometry":{"x":167661.58000000007,"y":2552282.3499999996}},{"attributes":{"ID":533431,"DIS_CODE":0,"TOWNNAME":"安南區","LI":"長安里","LIN":"19鄰","STREET":"公學路","SECT":"二段","MAREA":" ","LANE":" ","ALLEY":" ","HOUSE_NO":"１５６號","E_COORD97":167615.90908799999,"N_COORD97":2552223.7805599999,"ADDRESS":"公學路二段１５６號","OBJECTID":533404},"geometry":{"x":167615.90908799972,"y":2552223.7805630006}},{"attributes":{"ID":533432,"DIS_CODE":0,"TOWNNAME":"安南區","LI":"長安里","LIN":"19鄰","STREET":"公學路","SECT":"二段","MAREA":" ","LANE":" ","ALLEY":" ","HOUSE_NO":"１６２號","E_COORD97":167605.28,"N_COORD97":2552209.79,"ADDRESS":"公學路二段１６２號","OBJECTID":533405},"geometry":{"x":167605.28000000119,"y":2552209.790000001}},{"attributes":{"ID":533433,"DIS_CODE":0,"TOWNNAME":"安南區","LI":"長安里","LIN":"19鄰","STREET":"公學路","SECT":"二段","MAREA":" ","LANE":" ","ALLEY":" ","HOUSE_NO":"１６６號","E_COORD97":167594.25,"N_COORD97":2552201.0099999998,"ADDRESS":"公學路二段１６６號","OBJECTID":533406},"geometry":{"x":167594.25,"y":2552201.0099999998}},{"attributes":{"ID":533434,"DIS_CODE":0,"TOWNNAME":"安南區","LI":"長安里","LIN":"19鄰","STREET":"公學路","SECT":"二段","MAREA":" ","LANE":" ","ALLEY":" ","HOUSE_NO":"１６８號","E_COORD97":167588.32000000001,"N_COORD97":2552204.46,"ADDRESS":"公學路二段１６８號","OBJECTID":533407},"geometry":{"x":167588.32000000123,"y":2552204.4600000028}},{"attributes":{"ID":533435,"DIS_CODE":0,"TOWNNAME":"安南區","LI":"長安里","LIN":"19鄰","STREET":"公學路","SECT":"二段","MAREA":" ","LANE":" ","ALLEY":" ","HOUSE_NO":"１８０號","E_COORD97":167565.42000000001,"N_COORD97":2552180.4900000002,"ADDRESS":"公學路二段１８０號","OBJECTID":533408},"geometry":{"x":167565.41999999993,"y":2552180.4900000002}},{"attributes":{"ID":533436,"DIS_CODE":0,"TOWNNAME":"安南區","LI":"長安里","LIN":"19鄰","STREET":"公學路","SECT":"二段","MAREA":" ","LANE":" ","ALLEY":" ","HOUSE_NO":"１８６號","E_COORD97":167556.16,"N_COORD97":2552169.23,"ADDRESS":"公學路二段１８６號","OBJECTID":533409},"geometry":{"x":167556.16000000015,"y":2552169.2300000004}},{"attributes":{"ID":533437,"DIS_CODE":0,"TOWNNAME":"永康區","LI":"永康里","LIN":"19鄰","STREET":"永中街","SECT":" ","MAREA":" ","LANE":" ","ALLEY":" ","HOUSE_NO":"１５６號","E_COORD97":174002.22,"N_COORD97":2547302.5800000001,"ADDRESS":"永中街１５６號","OBJECTID":533410},"geometry":{"x":174002.21999999881,"y":2547302.5800000019}},{"attributes":{"ID":533438,"DIS_CODE":0,"TOWNNAME":"永康區","LI":"西橋里","LIN":"19鄰","STREET":"大橋三街","SECT":" ","MAREA":" ","LANE":" ","ALLEY":" ","HOUSE_NO":"３５號","E_COORD97":170509.31,"N_COORD97":2546401.7400000002,"ADDRESS":"大橋三街３５號","OBJECTID":533411},"geometry":{"x":170509.30999999866,"y":2546401.7400000002}},{"attributes":{"ID":533439,"DIS_CODE":0,"TOWNNAME":"永康區","LI":"西橋里","LIN":"19鄰","STREET":"大橋三街","SECT":" ","MAREA":" ","LANE":" ","ALLEY":" ","HOUSE_NO":"３７號之２","E_COORD97":170504.32999999999,"N_COORD97":2546390.54,"ADDRESS":"大橋三街３７號之２","OBJECTID":533412},"geometry":{"x":170504.33000000007,"y":2546390.540000001}},{"attributes":{"ID":533440,"DIS_CODE":0,"TOWNNAME":"永康區","LI":"網寮里","LIN":"19鄰","STREET":"文化路","SECT":" ","MAREA":" ","LANE":" ","ALLEY":" ","HOUSE_NO":"３２２號","E_COORD97":173435.60000000001,"N_COORD97":2546186.27,"ADDRESS":"文化路３２２號","OBJECTID":533413},"geometry":{"x":173435.60000000056,"y":2546186.2700000014}},{"attributes":{"ID":533441,"DIS_CODE":0,"TOWNNAME":"永康區","LI":"西橋里","LIN":"19鄰","STREET":"大橋三街","SECT":" ","MAREA":" ","LANE":" ","ALLEY":" ","HOUSE_NO":"７號","E_COORD97":170449.76000000001,"N_COORD97":2546339.75,"ADDRESS":"大橋三街７號","OBJECTID":533414},"geometry":{"x":170449.76000000071,"y":2546339.7500000019}},{"attributes":{"ID":533442,"DIS_CODE":0,"TOWNNAME":"永康區","LI":"西灣里","LIN":"19鄰","STREET":"大安街","SECT":" ","MAREA":" ","LANE":" ","ALLEY":" ","HOUSE_NO":"３４１號","E_COORD97":174612.23000000001,"N_COORD97":2545750.4500000002,"ADDRESS":"大安街３４１號","OBJECTID":533415},"geometry":{"x":174612.23000000138,"y":2545750.4500000011}},{"attributes":{"ID":533443,"DIS_CODE":0,"TOWNNAME":"安南區","LI":"溪頂里","LIN":"19鄰","STREET":"賢安街","SECT":" ","MAREA":" ","LANE":" ","ALLEY":" ","HOUSE_NO":"２６號","E_COORD97":168661.69,"N_COORD97":2547436.6499999999,"ADDRESS":"賢安街２６號","OBJECTID":533416},"geometry":{"x":168661.69000000227,"y":2547436.6500000004}},{"attributes":{"ID":533444,"DIS_CODE":0,"TOWNNAME":"安南區","LI":"溪頂里","LIN":"19鄰","STREET":"賢安街","SECT":" ","MAREA":" ","LANE":" ","ALLEY":" ","HOUSE_NO":"５４號","E_COORD97":168596.45000000001,"N_COORD97":2547429.52,"ADDRESS":"賢安街５４號","OBJECTID":533417},"geometry":{"x":168596.45000000019,"y":2547429.5199999996}},{"attributes":{"ID":533445,"DIS_CODE":0,"TOWNNAME":"安南區","LI":"溪頂里","LIN":"19鄰","STREET":"賢安街","SECT":" ","MAREA":" ","LANE":" ","ALLEY":" ","HOUSE_NO":"３４號","E_COORD97":168644.25,"N_COORD97":2547435.6400000001,"ADDRESS":"賢安街３４號","OBJECTID":533418},"geometry":{"x":168644.25000000093,"y":2547435.6400000025}},{"attributes":{"ID":533446,"DIS_CODE":0,"TOWNNAME":"中西區","LI":"天后里","LIN":"19鄰","STREET":"新美街","SECT":" ","MAREA":" ","LANE":" ","ALLEY":" ","HOUSE_NO":"１８９號","E_COORD97":168142.42999999999,"N_COORD97":2544341.9500000002,"ADDRESS":"新美街１８９號","OBJECTID":533419},"geometry":{"x":168142.43000000063,"y":2544341.9499999993}},{"attributes":{"ID":533447,"DIS_CODE":0,"TOWNNAME":"中西區","LI":"天后里","LIN":"19鄰","STREET":"新美街","SECT":" ","MAREA":" ","LANE":" ","ALLEY":" ","HOUSE_NO":"１９１號","E_COORD97":168145.26999999999,"N_COORD97":2544347,"ADDRESS":"新美街１９１號","OBJECTID":533420},"geometry":{"x":168145.27000000048,"y":2544347.0000000019}},{"attributes":{"ID":533448,"DIS_CODE":0,"TOWNNAME":"中西區","LI":"天后里","LIN":"19鄰","STREET":"新美街","SECT":" ","MAREA":" ","LANE":" ","ALLEY":" ","HOUSE_NO":"１９３號","E_COORD97":168147.98999999999,"N_COORD97":2544350.5,"ADDRESS":"新美街１９３號","OBJECTID":533421},"geometry":{"x":168147.99000000115,"y":2544350.5000000019}},{"attributes":{"ID":533449,"DIS_CODE":0,"TOWNNAME":"中西區","LI":"天后里","LIN":"19鄰","STREET":"新美街","SECT":" ","MAREA":" ","LANE":" ","ALLEY":" ","HOUSE_NO":"１９５號","E_COORD97":168149.81,"N_COORD97":2544353.4700000002,"ADDRESS":"新美街１９５號","OBJECTID":533422},"geometry":{"x":168149.81000000145,"y":2544353.4700000007}},{"attributes":{"ID":533450,"DIS_CODE":0,"TOWNNAME":"中西區","LI":"天后里","LIN":"19鄰","STREET":"新美街","SECT":" ","MAREA":" ","LANE":" ","ALLEY":" ","HOUSE_NO":"１９７號","E_COORD97":168151.88,"N_COORD97":2544358.6499999999,"ADDRESS":"新美街１９７號","OBJECTID":533423},"geometry":{"x":168151.88000000082,"y":2544358.6500000004}},{"attributes":{"ID":533451,"DIS_CODE":0,"TOWNNAME":"中西區","LI":"天后里","LIN":"19鄰","STREET":"新美街","SECT":" ","MAREA":" ","LANE":" ","ALLEY":" ","HOUSE_NO":"１９９號","E_COORD97":168154.85999999999,"N_COORD97":2544363.1899999999,"ADDRESS":"新美街１９９號","OBJECTID":533424},"geometry":{"x":168154.86000000034,"y":2544363.1899999995}},{"attributes":{"ID":533452,"DIS_CODE":0,"TOWNNAME":"中西區","LI":"天后里","LIN":"19鄰","STREET":"新美街","SECT":" ","MAREA":" ","LANE":" ","ALLEY":" ","HOUSE_NO":"２０１號","E_COORD97":168155.89000000001,"N_COORD97":2544367.5899999999,"ADDRESS":"新美街２０１號","OBJECTID":533425},"geometry":{"x":168155.88999999966,"y":2544367.5900000017}},{"attributes":{"ID":533453,"DIS_CODE":0,"TOWNNAME":"仁德區","LI":"後壁里","LIN":"19鄰","STREET":"德崙路","SECT":" ","MAREA":" ","LANE":" ","ALLEY":" ","HOUSE_NO":"１３號","E_COORD97":173245.81,"N_COORD97":2538627.0099999998,"ADDRESS":"德崙路１３號","OBJECTID":533426},"geometry":{"x":173245.81000000052,"y":2538627.0100000016}},{"attributes":{"ID":533454,"DIS_CODE":0,"TOWNNAME":"仁德區","LI":"一甲里","LIN":"19鄰","STREET":"太新路","SECT":" ","MAREA":" ","LANE":" ","ALLEY":" ","HOUSE_NO":"１３０號","E_COORD97":173524.22,"N_COORD97":2542321.2400000002,"ADDRESS":"太新路１３０號","OBJECTID":533427},"geometry":{"x":173524.2200000016,"y":2542321.2400000021}},{"attributes":{"ID":533455,"DIS_CODE":0,"TOWNNAME":"仁德區","LI":"一甲里","LIN":"19鄰","STREET":"太新路","SECT":" ","MAREA":" ","LANE":" ","ALLEY":" ","HOUSE_NO":"１３２號","E_COORD97":173522.41,"N_COORD97":2542317.4399999999,"ADDRESS":"太新路１３２號","OBJECTID":533428},"geometry":{"x":173522.41000000108,"y":2542317.4399999995}},{"attributes":{"ID":533456,"DIS_CODE":0,"TOWNNAME":"仁德區","LI":"仁德里","LIN":"19鄰","STREET":"文華一街","SECT":" ","MAREA":" ","LANE":" ","ALLEY":" ","HOUSE_NO":"１１８號","E_COORD97":172378.87,"N_COORD97":2540160.4900000002,"ADDRESS":"文華一街１１８號","OBJECTID":533429},"geometry":{"x":172378.87000000011,"y":2540160.4900000021}},{"attributes":{"ID":533457,"DIS_CODE":0,"TOWNNAME":"仁德區","LI":"仁德里","LIN":"19鄰","STREET":"文華一街","SECT":" ","MAREA":" ","LANE":" ","ALLEY":" ","HOUSE_NO":"１２２號","E_COORD97":172372.10000000001,"N_COORD97":2540136.98,"ADDRESS":"文華一街１２２號","OBJECTID":533430},"geometry":{"x":172372.0999999987,"y":2540136.9800000023}},{"attributes":{"ID":533458,"DIS_CODE":0,"TOWNNAME":"仁德區","LI":"仁德里","LIN":"19鄰","STREET":"民安路","SECT":"一段","MAREA":" ","LANE":" ","ALLEY":" ","HOUSE_NO":"１１５號","E_COORD97":172138.04000000001,"N_COORD97":2539970.5499999998,"ADDRESS":"民安路一段１１５號","OBJECTID":533431},"geometry":{"x":172138.04000000097,"y":2539970.5500000026}},{"attributes":{"ID":533459,"DIS_CODE":0,"TOWNNAME":"下營區","LI":"宅內里","LIN":"19鄰","STREET":"人和三街","SECT":" ","MAREA":" ","LANE":" ","ALLEY":" ","HOUSE_NO":"２０號","E_COORD97":174355.38,"N_COORD97":2570740.4900000002,"ADDRESS":"人和三街２０號","OBJECTID":533432},"geometry":{"x":174355.37999999989,"y":2570740.4899999984}},{"attributes":{"ID":533460,"DIS_CODE":0,"TOWNNAME":"下營區","LI":"宅內里","LIN":"19鄰","STREET":"人和三街","SECT":" ","MAREA":" ","LANE":" ","ALLEY":" ","HOUSE_NO":"２２號","E_COORD97":174326.54999999999,"N_COORD97":2570785.0800000001,"ADDRESS":"人和三街２２號","OBJECTID":533433},"geometry":{"x":174326.54999999981,"y":2570785.0800000019}},{"attributes":{"ID":533461,"DIS_CODE":0,"TOWNNAME":"下營區","LI":"宅內里","LIN":"19鄰","STREET":"人和三街","SECT":" ","MAREA":" ","LANE":" ","ALLEY":" ","HOUSE_NO":"２６號","E_COORD97":174332.22,"N_COORD97":2570754.79,"ADDRESS":"人和三街２６號","OBJECTID":533434},"geometry":{"x":174332.21999999974,"y":2570754.790000001}},{"attributes":{"ID":533462,"DIS_CODE":0,"TOWNNAME":"下營區","LI":"後街里","LIN":"19鄰","STREET":"大孝街","SECT":" ","MAREA":" ","LANE":" ","ALLEY":" ","HOUSE_NO":"６０號","E_COORD97":174551,"N_COORD97":2571147.1899999999,"ADDRESS":"大孝街６０號","OBJECTID":533435},"geometry":{"x":174551,"y":2571147.1899999995}},{"attributes":{"ID":533463,"DIS_CODE":0,"TOWNNAME":"下營區","LI":"後街里","LIN":"19鄰","STREET":"大孝街","SECT":" ","MAREA":" ","LANE":" ","ALLEY":" ","HOUSE_NO":"６２號","E_COORD97":174550.95000000001,"N_COORD97":2571151.4500000002,"ADDRESS":"大孝街６２號","OBJECTID":533436},"geometry":{"x":174550.95000000112,"y":2571151.4500000011}},{"attributes":{"ID":533464,"DIS_CODE":0,"TOWNNAME":"下營區","LI":"後街里","LIN":"19鄰","STREET":"大孝街","SECT":" ","MAREA":" ","LANE":" ","ALLEY":" ","HOUSE_NO":"６６號","E_COORD97":174550.69,"N_COORD97":2571155.46,"ADDRESS":"大孝街６６號","OBJECTID":533437},"geometry":{"x":174550.68999999948,"y":2571155.4600000046}},{"attributes":{"ID":533465,"DIS_CODE":0,"TOWNNAME":"下營區","LI":"後街里","LIN":"19鄰","STREET":"大孝街","SECT":" ","MAREA":" ","LANE":" ","ALLEY":" ","HOUSE_NO":"６８號","E_COORD97":174551.01999999999,"N_COORD97":2571159.6899999999,"ADDRESS":"大孝街６８號","OBJECTID":533438},"geometry":{"x":174551.02000000142,"y":2571159.6900000013}},{"attributes":{"ID":533466,"DIS_CODE":0,"TOWNNAME":"下營區","LI":"後街里","LIN":"19鄰","STREET":"大孝街","SECT":" ","MAREA":" ","LANE":" ","ALLEY":" ","HOUSE_NO":"７０號","E_COORD97":174551.17000000001,"N_COORD97":2571164.52,"ADDRESS":"大孝街７０號","OBJECTID":533439},"geometry":{"x":174551.17000000086,"y":2571164.5200000014}},{"attributes":{"ID":533467,"DIS_CODE":0,"TOWNNAME":"下營區","LI":"後街里","LIN":"19鄰","STREET":"大孝街","SECT":" ","MAREA":" ","LANE":" ","ALLEY":" ","HOUSE_NO":"４８號","E_COORD97":174551.54999999999,"N_COORD97":2571125.1000000001,"ADDRESS":"大孝街４８號","OBJECTID":533440},"geometry":{"x":174551.55000000075,"y":2571125.0999999996}},{"attributes":{"ID":533468,"DIS_CODE":0,"TOWNNAME":"下營區","LI":"後街里","LIN":"19鄰","STREET":"大孝街","SECT":" ","MAREA":" ","LANE":" ","ALLEY":" ","HOUSE_NO":"５０號","E_COORD97":174551.48000000001,"N_COORD97":2571129.3700000001,"ADDRESS":"大孝街５０號","OBJECTID":533441},"geometry":{"x":174551.48000000045,"y":2571129.3700000029}},{"attributes":{"ID":533469,"DIS_CODE":0,"TOWNNAME":"下營區","LI":"後街里","LIN":"19鄰","STREET":"大孝街","SECT":" ","MAREA":" ","LANE":" ","ALLEY":" ","HOUSE_NO":"５２號","E_COORD97":174551.59,"N_COORD97":2571133.3700000001,"ADDRESS":"大孝街５２號","OBJECTID":533442},"geometry":{"x":174551.59000000078,"y":2571133.3700000029}},{"attributes":{"ID":533470,"DIS_CODE":0,"TOWNNAME":"下營區","LI":"後街里","LIN":"19鄰","STREET":"大孝街","SECT":" ","MAREA":" ","LANE":" ","ALLEY":" ","HOUSE_NO":"５３號","E_COORD97":174528.92000000001,"N_COORD97":2571191.46,"ADDRESS":"大孝街５３號","OBJECTID":533443},"geometry":{"x":174528.92000000086,"y":2571191.4600000009}},{"attributes":{"ID":533471,"DIS_CODE":0,"TOWNNAME":"下營區","LI":"後街里","LIN":"19鄰","STREET":"大孝街","SECT":" ","MAREA":" ","LANE":" ","ALLEY":" ","HOUSE_NO":"５５號","E_COORD97":174528.38,"N_COORD97":2571200.5800000001,"ADDRESS":"大孝街５５號","OBJECTID":533444},"geometry":{"x":174528.37999999989,"y":2571200.5800000001}},{"attributes":{"ID":533472,"DIS_CODE":0,"TOWNNAME":"下營區","LI":"後街里","LIN":"19鄰","STREET":"大孝街","SECT":" ","MAREA":" ","LANE":" ","ALLEY":" ","HOUSE_NO":"５６號","E_COORD97":174551.81,"N_COORD97":2571137.8399999999,"ADDRESS":"大孝街５６號","OBJECTID":533445},"geometry":{"x":174551.80999999959,"y":2571137.839999998}},{"attributes":{"ID":533473,"DIS_CODE":0,"TOWNNAME":"下營區","LI":"後街里","LIN":"19鄰","STREET":"大和街","SECT":" ","MAREA":" ","LANE":" ","ALLEY":" ","HOUSE_NO":"１３５號","E_COORD97":174529.06,"N_COORD97":2571216.71,"ADDRESS":"大和街１３５號","OBJECTID":533446},"geometry":{"x":174529.06000000052,"y":2571216.7100000009}},{"attributes":{"ID":533474,"DIS_CODE":0,"TOWNNAME":"下營區","LI":"後街里","LIN":"19鄰","STREET":"大和街","SECT":" ","MAREA":" ","LANE":" ","ALLEY":" ","HOUSE_NO":"１４１號","E_COORD97":174520.10000000001,"N_COORD97":2571211.9900000002,"ADDRESS":"大和街１４１號","OBJECTID":533447},"geometry":{"x":174520.10000000149,"y":2571211.9900000039}},{"attributes":{"ID":533475,"DIS_CODE":0,"TOWNNAME":"下營區","LI":"後街里","LIN":"19鄰","STREET":"大和街","SECT":" ","MAREA":" ","LANE":" ","ALLEY":" ","HOUSE_NO":"１４３號","E_COORD97":174515.54999999999,"N_COORD97":2571211.7999999998,"ADDRESS":"大和街１４３號","OBJECTID":533448},"geometry":{"x":174515.55000000168,"y":2571211.8000000026}},{"attributes":{"ID":533476,"DIS_CODE":0,"TOWNNAME":"下營區","LI":"後街里","LIN":"19鄰","STREET":"大和街","SECT":" ","MAREA":" ","LANE":" ","ALLEY":" ","HOUSE_NO":"１４５號","E_COORD97":174509.25,"N_COORD97":2571211.7599999998,"ADDRESS":"大和街１４５號","OBJECTID":533449},"geometry":{"x":174509.25000000186,"y":2571211.7599999998}},{"attributes":{"ID":533477,"DIS_CODE":0,"TOWNNAME":"下營區","LI":"後街里","LIN":"19鄰","STREET":"大和街","SECT":" ","MAREA":" ","LANE":" ","ALLEY":" ","HOUSE_NO":"１４７號","E_COORD97":174505.14999999999,"N_COORD97":2571211.4199999999,"ADDRESS":"大和街１４７號","OBJECTID":533450},"geometry":{"x":174505.14999999944,"y":2571211.4199999999}},{"attributes":{"ID":533478,"DIS_CODE":0,"TOWNNAME":"下營區","LI":"後街里","LIN":"19鄰","STREET":"大和街","SECT":" ","MAREA":" ","LANE":" ","ALLEY":" ","HOUSE_NO":"１４９號","E_COORD97":174497.04999999999,"N_COORD97":2571212,"ADDRESS":"大和街１４９號","OBJECTID":533451},"geometry":{"x":174497.05000000075,"y":2571212.0000000019}},{"attributes":{"ID":533479,"DIS_CODE":0,"TOWNNAME":"中西區","LI":"青年里","LIN":"19鄰","STREET":"中山路","SECT":" ","MAREA":" ","LANE":" ","ALLEY":" ","HOUSE_NO":"１０號","E_COORD97":168592.82999999999,"N_COORD97":2543721.9900000002,"ADDRESS":"中山路１０號","OBJECTID":533452},"geometry":{"x":168592.83000000101,"y":2543721.9900000002}},{"attributes":{"ID":533480,"DIS_CODE":0,"TOWNNAME":"中西區","LI":"青年里","LIN":"19鄰","STREET":"中山路","SECT":" ","MAREA":" ","LANE":" ","ALLEY":" ","HOUSE_NO":"１４號","E_COORD97":168598.01000000001,"N_COORD97":2543721.1299999999,"ADDRESS":"中山路１４號","OBJECTID":533453},"geometry":{"x":168598.01000000071,"y":2543721.1300000008}},{"attributes":{"ID":533481,"DIS_CODE":0,"TOWNNAME":"中西區","LI":"青年里","LIN":"19鄰","STREET":"中山路","SECT":" ","MAREA":" ","LANE":" ","ALLEY":" ","HOUSE_NO":"１６號","E_COORD97":168601.14000000001,"N_COORD97":2543723.6099999999,"ADDRESS":"中山路１６號","OBJECTID":533454},"geometry":{"x":168601.13999999966,"y":2543723.6099999994}},{"attributes":{"ID":533482,"DIS_CODE":0,"TOWNNAME":"中西區","LI":"青年里","LIN":"19鄰","STREET":"中山路","SECT":" ","MAREA":" ","LANE":" ","ALLEY":" ","HOUSE_NO":"１８號","E_COORD97":168605.03,"N_COORD97":2543724.6899999999,"ADDRESS":"中山路１８號","OBJECTID":533455},"geometry":{"x":168605.03000000212,"y":2543724.6900000013}},{"attributes":{"ID":533483,"DIS_CODE":0,"TOWNNAME":"中西區","LI":"青年里","LIN":"19鄰","STREET":"中山路","SECT":" ","MAREA":" ","LANE":" ","ALLEY":" ","HOUSE_NO":"２０號","E_COORD97":168608.38,"N_COORD97":2543725.6600000001,"ADDRESS":"中山路２０號","OBJECTID":533456},"geometry":{"x":168608.37999999989,"y":2543725.660000002}},{"attributes":{"ID":533484,"DIS_CODE":0,"TOWNNAME":"中西區","LI":"青年里","LIN":"19鄰","STREET":"中山路","SECT":" ","MAREA":" ","LANE":" ","ALLEY":" ","HOUSE_NO":"２２號","E_COORD97":168612.38,"N_COORD97":2543728.1400000001,"ADDRESS":"中山路２２號","OBJECTID":533457},"geometry":{"x":168612.38000000175,"y":2543728.1400000006}},{"attributes":{"ID":533485,"DIS_CODE":0,"TOWNNAME":"中西區","LI":"青年里","LIN":"19鄰","STREET":"中山路","SECT":" ","MAREA":" ","LANE":" ","ALLEY":" ","HOUSE_NO":"２４號","E_COORD97":168614.64999999999,"N_COORD97":2543732.2400000002,"ADDRESS":"中山路２４號","OBJECTID":533458},"geometry":{"x":168614.6500000013,"y":2543732.2400000021}},{"attributes":{"ID":533486,"DIS_CODE":0,"TOWNNAME":"中西區","LI":"青年里","LIN":"19鄰","STREET":"中山路","SECT":" ","MAREA":" ","LANE":" ","ALLEY":" ","HOUSE_NO":"２６號","E_COORD97":168619.39999999999,"N_COORD97":2543734.6099999999,"ADDRESS":"中山路２６號","OBJECTID":533459},"geometry":{"x":168619.39999999944,"y":2543734.6100000031}},{"attributes":{"ID":533487,"DIS_CODE":0,"TOWNNAME":"中西區","LI":"青年里","LIN":"19鄰","STREET":"中山路","SECT":" ","MAREA":" ","LANE":" ","ALLEY":" ","HOUSE_NO":"３０號","E_COORD97":168628.89999999999,"N_COORD97":2543737.3100000001,"ADDRESS":"中山路３０號","OBJECTID":533460},"geometry":{"x":168628.90000000037,"y":2543737.3100000005}},{"attributes":{"ID":533488,"DIS_CODE":0,"TOWNNAME":"中西區","LI":"青年里","LIN":"19鄰","STREET":"中山路","SECT":" ","MAREA":" ","LANE":" ","ALLEY":" ","HOUSE_NO":"３２號","E_COORD97":168632.67999999999,"N_COORD97":2543740.8700000001,"ADDRESS":"中山路３２號","OBJECTID":533461},"geometry":{"x":168632.68000000063,"y":2543740.870000001}},{"attributes":{"ID":533489,"DIS_CODE":0,"TOWNNAME":"中西區","LI":"青年里","LIN":"19鄰","STREET":"中山路","SECT":" ","MAREA":" ","LANE":" ","ALLEY":" ","HOUSE_NO":"３８號","E_COORD97":168643.59,"N_COORD97":2543752.1200000001,"ADDRESS":"中山路３８號","OBJECTID":533462},"geometry":{"x":168643.59000000078,"y":2543752.120000001}},{"attributes":{"ID":533490,"DIS_CODE":0,"TOWNNAME":"中西區","LI":"青年里","LIN":"19鄰","STREET":"中山路","SECT":" ","MAREA":" ","LANE":" ","ALLEY":" ","HOUSE_NO":"４０號","E_COORD97":168649.85999999999,"N_COORD97":2543752.3900000001,"ADDRESS":"中山路４０號","OBJECTID":533463},"geometry":{"x":168649.86000000034,"y":2543752.3900000025}},{"attributes":{"ID":533491,"DIS_CODE":0,"TOWNNAME":"中西區","LI":"青年里","LIN":"19鄰","STREET":"中山路","SECT":" ","MAREA":" ","LANE":" ","ALLEY":" ","HOUSE_NO":"４２號","E_COORD97":168652.56,"N_COORD97":2543754.6499999999,"ADDRESS":"中山路４２號","OBJECTID":533464},"geometry":{"x":168652.55999999959,"y":2543754.6500000004}},{"attributes":{"ID":533492,"DIS_CODE":0,"TOWNNAME":"中西區","LI":"青年里","LIN":"19鄰","STREET":"中山路","SECT":" ","MAREA":" ","LANE":" ","ALLEY":" ","HOUSE_NO":"４６號","E_COORD97":168655.35999999999,"N_COORD97":2543757.1299999999,"ADDRESS":"中山路４６號","OBJECTID":533465},"geometry":{"x":168655.3600000022,"y":2543757.129999999}},{"attributes":{"ID":533493,"DIS_CODE":0,"TOWNNAME":"中西區","LI":"青年里","LIN":"19鄰","STREET":"中山路","SECT":" ","MAREA":" ","LANE":" ","ALLEY":" ","HOUSE_NO":"４８號","E_COORD97":168656.01000000001,"N_COORD97":2543762.8399999999,"ADDRESS":"中山路４８號","OBJECTID":533466},"geometry":{"x":168656.01000000071,"y":2543762.8399999999}},{"attributes":{"ID":533494,"DIS_CODE":0,"TOWNNAME":"中西區","LI":"青年里","LIN":"19鄰","STREET":"中山路","SECT":" ","MAREA":" ","LANE":" ","ALLEY":" ","HOUSE_NO":"５０號","E_COORD97":168658.06,"N_COORD97":2543766.0800000001,"ADDRESS":"中山路５０號","OBJECTID":533467},"geometry":{"x":168658.05999999959,"y":2543766.0800000038}},{"attributes":{"ID":533495,"DIS_CODE":0,"TOWNNAME":"中西區","LI":"青年里","LIN":"19鄰","STREET":"中山路","SECT":" ","MAREA":" ","LANE":" ","ALLEY":" ","HOUSE_NO":"５２號","E_COORD97":168667.76000000001,"N_COORD97":2543771.8199999998,"ADDRESS":"中山路５２號","OBJECTID":533468},"geometry":{"x":168667.76000000071,"y":2543771.8200000022}},{"attributes":{"ID":533496,"DIS_CODE":0,"TOWNNAME":"安南區","LI":"長安里","LIN":"19鄰","STREET":"公學路","SECT":"二段","MAREA":" ","LANE":" ","ALLEY":" ","HOUSE_NO":"２６２號","E_COORD97":167393.60000000001,"N_COORD97":2552110.9500000002,"ADDRESS":"公學路二段２６２號","OBJECTID":533469},"geometry":{"x":167393.60000000056,"y":2552110.9500000011}},{"attributes":{"ID":533497,"DIS_CODE":0,"TOWNNAME":"安南區","LI":"長安里","LIN":"19鄰","STREET":"公學路","SECT":"二段","MAREA":" ","LANE":" ","ALLEY":" ","HOUSE_NO":"２６４號","E_COORD97":167387.42999999999,"N_COORD97":2552112.77,"ADDRESS":"公學路二段２６４號","OBJECTID":533470},"geometry":{"x":167387.4299999997,"y":2552112.7700000014}},{"attributes":{"ID":533498,"DIS_CODE":0,"TOWNNAME":"新市區","LI":"新和里","LIN":"19鄰","STREET":"永福街","SECT":" ","MAREA":" ","LANE":" ","ALLEY":" ","HOUSE_NO":"９９號","E_COORD97":177515.76000000001,"N_COORD97":2552723.75,"ADDRESS":"永福街９９號","OBJECTID":533471},"geometry":{"x":177515.75999999978,"y":2552723.7500000019}},{"attributes":{"ID":533499,"DIS_CODE":0,"TOWNNAME":"新市區","LI":"港墘里","LIN":"19鄰","STREET":"南港街","SECT":" ","MAREA":" ","LANE":" ","ALLEY":" ","HOUSE_NO":"１３１號","E_COORD97":177970.85000000001,"N_COORD97":2552727.75,"ADDRESS":"南港街１３１號","OBJECTID":533472},"geometry":{"x":177970.84999999963,"y":2552727.75}},{"attributes":{"ID":533500,"DIS_CODE":0,"TOWNNAME":"新市區","LI":"港墘里","LIN":"19鄰","STREET":"南港街","SECT":" ","MAREA":" ","LANE":" ","ALLEY":" ","HOUSE_NO":"９３號","E_COORD97":178038.54999999999,"N_COORD97":2552734.75,"ADDRESS":"南港街９３號","OBJECTID":533473},"geometry":{"x":178038.55000000075,"y":2552734.75}},{"attributes":{"ID":533501,"DIS_CODE":0,"TOWNNAME":"新市區","LI":"港墘里","LIN":"19鄰","STREET":"南港街","SECT":" ","MAREA":" ","LANE":" ","ALLEY":" ","HOUSE_NO":"９９號","E_COORD97":178025.48999999999,"N_COORD97":2552733,"ADDRESS":"南港街９９號","OBJECTID":533474},"geometry":{"x":178025.49000000209,"y":2552733}},{"attributes":{"ID":533502,"DIS_CODE":0,"TOWNNAME":"新市區","LI":"新市里","LIN":"19鄰","STREET":"和平街","SECT":" ","MAREA":" ","LANE":" ","ALLEY":" ","HOUSE_NO":"３１號","E_COORD97":177710.23999999999,"N_COORD97":2553442.25,"ADDRESS":"和平街３１號","OBJECTID":533475},"geometry":{"x":177710.24000000115,"y":2553442.2500000019}},{"attributes":{"ID":533503,"DIS_CODE":0,"TOWNNAME":"新市區","LI":"港墘里","LIN":"19鄰","STREET":"南港街","SECT":" ","MAREA":" ","LANE":" ","ALLEY":" ","HOUSE_NO":"１１５號","E_COORD97":178011.95999999999,"N_COORD97":2552724,"ADDRESS":"南港街１１５號","OBJECTID":533476},"geometry":{"x":178011.96000000089,"y":2552724.0000000037}},{"attributes":{"ID":533504,"DIS_CODE":0,"TOWNNAME":"新市區","LI":"永就里","LIN":"19鄰","STREET":"永華三街","SECT":" ","MAREA":" ","LANE":" ","ALLEY":" ","HOUSE_NO":"１５號","E_COORD97":177564.70000000001,"N_COORD97":2551008.25,"ADDRESS":"永華三街１５號","OBJECTID":533477},"geometry":{"x":177564.70000000112,"y":2551008.2500000019}},{"attributes":{"ID":533505,"DIS_CODE":0,"TOWNNAME":"新市區","LI":"港墘里","LIN":"19鄰","STREET":"南港街","SECT":" ","MAREA":" ","LANE":" ","ALLEY":" ","HOUSE_NO":"９１號","E_COORD97":178043.64999999999,"N_COORD97":2552735.25,"ADDRESS":"南港街９１號","OBJECTID":533478},"geometry":{"x":178043.6500000013,"y":2552735.25}},{"attributes":{"ID":533506,"DIS_CODE":0,"TOWNNAME":"安南區","LI":"新順里","LIN":"19鄰","STREET":"安豐六街","SECT":" ","MAREA":" ","LANE":" ","ALLEY":" ","HOUSE_NO":"２２號","E_COORD97":169325.70000000001,"N_COORD97":2549679.9399999999,"ADDRESS":"安豐六街２２號","OBJECTID":533479},"geometry":{"x":169325.70000000019,"y":2549679.9400000013}},{"attributes":{"ID":533507,"DIS_CODE":0,"TOWNNAME":"安南區","LI":"頂安里","LIN":"19鄰","STREET":"北安路","SECT":"三段","MAREA":" ","LANE":" ","ALLEY":" ","HOUSE_NO":"３８８號","E_COORD97":168717.70999999999,"N_COORD97":2549487.4300000002,"ADDRESS":"北安路三段３８８號","OBJECTID":533480},"geometry":{"x":168717.71000000089,"y":2549487.4300000016}},{"attributes":{"ID":533508,"DIS_CODE":0,"TOWNNAME":"安南區","LI":"新順里","LIN":"19鄰","STREET":"安豐六街","SECT":" ","MAREA":" ","LANE":" ","ALLEY":" ","HOUSE_NO":"４２號","E_COORD97":169354.60999999999,"N_COORD97":2549658.2799999998,"ADDRESS":"安豐六街４２號","OBJECTID":533481},"geometry":{"x":169354.61000000127,"y":2549658.2799999993}},{"attributes":{"ID":533509,"DIS_CODE":0,"TOWNNAME":"安南區","LI":"新順里","LIN":"19鄰","STREET":"安豐六街","SECT":" ","MAREA":" ","LANE":" ","ALLEY":" ","HOUSE_NO":"２０號","E_COORD97":169321.51000000001,"N_COORD97":2549682.2200000002,"ADDRESS":"安豐六街２０號","OBJECTID":533482},"geometry":{"x":169321.50999999978,"y":2549682.2200000044}},{"attributes":{"ID":533510,"DIS_CODE":0,"TOWNNAME":"安南區","LI":"頂安里","LIN":"19鄰","STREET":"北安路","SECT":"三段","MAREA":" ","LANE":" ","ALLEY":" ","HOUSE_NO":"３０８號","E_COORD97":168601.26000000001,"N_COORD97":2549387.29,"ADDRESS":"北安路三段３０８號","OBJECTID":533483},"geometry":{"x":168601.26000000164,"y":2549387.2899999991}},{"attributes":{"ID":533511,"DIS_CODE":0,"TOWNNAME":"安南區","LI":"頂安里","LIN":"19鄰","STREET":"北安路","SECT":"三段","MAREA":" ","LANE":" ","ALLEY":" ","HOUSE_NO":"３７０號","E_COORD97":168686.14000000001,"N_COORD97":2549463.1400000001,"ADDRESS":"北安路三段３７０號","OBJECTID":533484},"geometry":{"x":168686.13999999966,"y":2549463.1400000025}},{"attributes":{"ID":533512,"DIS_CODE":0,"TOWNNAME":"安南區","LI":"頂安里","LIN":"19鄰","STREET":"北安路","SECT":"三段","MAREA":" ","LANE":" ","ALLEY":" ","HOUSE_NO":"３７２號","E_COORD97":168689.13,"N_COORD97":2549466.5499999998,"ADDRESS":"北安路三段３７２號","OBJECTID":533485},"geometry":{"x":168689.13000000082,"y":2549466.5500000026}},{"attributes":{"ID":533513,"DIS_CODE":0,"TOWNNAME":"安南區","LI":"頂安里","LIN":"19鄰","STREET":"北安路","SECT":"三段","MAREA":" ","LANE":" ","ALLEY":" ","HOUSE_NO":"３７６號","E_COORD97":168695.95000000001,"N_COORD97":2549471.6600000001,"ADDRESS":"北安路三段３７６號","OBJECTID":533486},"geometry":{"x":168695.95000000112,"y":2549471.6600000039}},{"attributes":{"ID":533514,"DIS_CODE":0,"TOWNNAME":"安南區","LI":"頂安里","LIN":"19鄰","STREET":"北安路","SECT":"三段","MAREA":" ","LANE":" ","ALLEY":" ","HOUSE_NO":"３８０號","E_COORD97":168703.63,"N_COORD97":2549475.9199999999,"ADDRESS":"北安路三段３８０號","OBJECTID":533487},"geometry":{"x":168703.62999999989,"y":2549475.9199999999}},{"attributes":{"ID":533515,"DIS_CODE":0,"TOWNNAME":"安南區","LI":"頂安里","LIN":"19鄰","STREET":"北安路","SECT":"三段","MAREA":" ","LANE":" ","ALLEY":" ","HOUSE_NO":"３８２號","E_COORD97":168707.04000000001,"N_COORD97":2549478.9100000001,"ADDRESS":"北安路三段３８２號","OBJECTID":533488},"geometry":{"x":168707.04000000097,"y":2549478.9100000001}},{"attributes":{"ID":533516,"DIS_CODE":0,"TOWNNAME":"安南區","LI":"頂安里","LIN":"19鄰","STREET":"北安路","SECT":"三段","MAREA":" ","LANE":" ","ALLEY":" ","HOUSE_NO":"３８４號","E_COORD97":168710.88,"N_COORD97":2549481.04,"ADDRESS":"北安路三段３８４號","OBJECTID":533489},"geometry":{"x":168710.88000000082,"y":2549481.0399999991}},{"attributes":{"ID":533517,"DIS_CODE":0,"TOWNNAME":"安南區","LI":"頂安里","LIN":"19鄰","STREET":"北安路","SECT":"三段","MAREA":" ","LANE":" ","ALLEY":" ","HOUSE_NO":"３９２之３０號","E_COORD97":168832.76000000001,"N_COORD97":2549586.0800000001,"ADDRESS":"北安路三段３９２之３０號","OBJECTID":533490},"geometry":{"x":168832.75999999978,"y":2549586.0800000001}},{"attributes":{"ID":533518,"DIS_CODE":0,"TOWNNAME":"安南區","LI":"頂安里","LIN":"19鄰","STREET":"北安路","SECT":"三段","MAREA":" ","LANE":" ","ALLEY":" ","HOUSE_NO":"３９２號之２３","E_COORD97":168796.79999999999,"N_COORD97":2549560.6400000001,"ADDRESS":"北安路三段３９２號之２３","OBJECTID":533491},"geometry":{"x":168796.79999999981,"y":2549560.6400000043}},{"attributes":{"ID":533519,"DIS_CODE":0,"TOWNNAME":"安南區","LI":"頂安里","LIN":"19鄰","STREET":"北安路","SECT":"三段","MAREA":" ","LANE":" ","ALLEY":" ","HOUSE_NO":"３９２號之２４","E_COORD97":168801.44,"N_COORD97":2549562.9500000002,"ADDRESS":"北安路三段３９２號之２４","OBJECTID":533492},"geometry":{"x":168801.44000000134,"y":2549562.9499999993}},{"attributes":{"ID":533520,"DIS_CODE":0,"TOWNNAME":"安南區","LI":"頂安里","LIN":"19鄰","STREET":"北安路","SECT":"三段","MAREA":" ","LANE":" ","ALLEY":" ","HOUSE_NO":"３９２號之２５","E_COORD97":168805.70000000001,"N_COORD97":2549566.4399999999,"ADDRESS":"北安路三段３９２號之２５","OBJECTID":533493},"geometry":{"x":168805.70000000112,"y":2549566.4399999995}},{"attributes":{"ID":533521,"DIS_CODE":0,"TOWNNAME":"安南區","LI":"頂安里","LIN":"19鄰","STREET":"北安路","SECT":"三段","MAREA":" ","LANE":" ","ALLEY":" ","HOUSE_NO":"３９２號之２６","E_COORD97":168809.57000000001,"N_COORD97":2549569.5299999998,"ADDRESS":"北安路三段３９２號之２６","OBJECTID":533494},"geometry":{"x":168809.5700000003,"y":2549569.5299999993}},{"attributes":{"ID":533522,"DIS_CODE":0,"TOWNNAME":"安南區","LI":"新順里","LIN":"19鄰","STREET":"安豐六街","SECT":" ","MAREA":" ","LANE":" ","ALLEY":" ","HOUSE_NO":"４４號","E_COORD97":169368.67999999999,"N_COORD97":2549658.2799999998,"ADDRESS":"安豐六街４４號","OBJECTID":533495},"geometry":{"x":169368.68000000063,"y":2549658.2799999993}},{"attributes":{"ID":533523,"DIS_CODE":0,"TOWNNAME":"安南區","LI":"新順里","LIN":"19鄰","STREET":"安豐六街","SECT":" ","MAREA":" ","LANE":" ","ALLEY":" ","HOUSE_NO":"４６號","E_COORD97":169368.67999999999,"N_COORD97":2549661.7000000002,"ADDRESS":"安豐六街４６號","OBJECTID":533496},"geometry":{"x":169368.68000000063,"y":2549661.7000000011}},{"attributes":{"ID":533524,"DIS_CODE":0,"TOWNNAME":"安南區","LI":"新順里","LIN":"19鄰","STREET":"安豐六街","SECT":" ","MAREA":" ","LANE":" ","ALLEY":" ","HOUSE_NO":"４８號","E_COORD97":169370.20999999999,"N_COORD97":2549666.6299999999,"ADDRESS":"安豐六街４８號","OBJECTID":533497},"geometry":{"x":169370.21000000089,"y":2549666.629999999}},{"attributes":{"ID":533525,"DIS_CODE":0,"TOWNNAME":"安南區","LI":"新順里","LIN":"19鄰","STREET":"安豐六街","SECT":" ","MAREA":" ","LANE":" ","ALLEY":" ","HOUSE_NO":"５０號","E_COORD97":169369.44,"N_COORD97":2549671.2000000002,"ADDRESS":"安豐六街５０號","OBJECTID":533498},"geometry":{"x":169369.44000000041,"y":2549671.2000000011}},{"attributes":{"ID":533526,"DIS_CODE":0,"TOWNNAME":"安南區","LI":"新順里","LIN":"19鄰","STREET":"安豐六街","SECT":" ","MAREA":" ","LANE":" ","ALLEY":" ","HOUSE_NO":"５２號","E_COORD97":169368.29999999999,"N_COORD97":2549682.2200000002,"ADDRESS":"安豐六街５２號","OBJECTID":533499},"geometry":{"x":169368.29999999981,"y":2549682.2200000044}},{"attributes":{"ID":533527,"DIS_CODE":0,"TOWNNAME":"安南區","LI":"新順里","LIN":"19鄰","STREET":"安豐六街","SECT":" ","MAREA":" ","LANE":" ","ALLEY":" ","HOUSE_NO":"５４號","E_COORD97":169375.14999999999,"N_COORD97":2549682.2200000002,"ADDRESS":"安豐六街５４號","OBJECTID":533500},"geometry":{"x":169375.15000000037,"y":2549682.2200000044}},{"attributes":{"ID":533528,"DIS_CODE":0,"TOWNNAME":"安南區","LI":"新順里","LIN":"19鄰","STREET":"培安二街","SECT":" ","MAREA":" ","LANE":" ","ALLEY":" ","HOUSE_NO":"１１號","E_COORD97":169380.70999999999,"N_COORD97":2549652.5600000001,"ADDRESS":"培安二街１１號","OBJECTID":533501},"geometry":{"x":169380.70999999996,"y":2549652.5600000042}},{"attributes":{"ID":533529,"DIS_CODE":0,"TOWNNAME":"安南區","LI":"新順里","LIN":"19鄰","STREET":"培安二街","SECT":" ","MAREA":" ","LANE":" ","ALLEY":" ","HOUSE_NO":"３號","E_COORD97":169378.14000000001,"N_COORD97":2549633.4500000002,"ADDRESS":"培安二街３號","OBJECTID":533502},"geometry":{"x":169378.13999999966,"y":2549633.4499999993}},{"attributes":{"ID":533530,"DIS_CODE":0,"TOWNNAME":"安南區","LI":"新順里","LIN":"19鄰","STREET":"培安二街","SECT":" ","MAREA":" ","LANE":" ","ALLEY":" ","HOUSE_NO":"５號","E_COORD97":169379.29000000001,"N_COORD97":2549638.2999999998,"ADDRESS":"培安二街５號","OBJECTID":533503},"geometry":{"x":169379.28999999911,"y":2549638.3000000026}},{"attributes":{"ID":533531,"DIS_CODE":0,"TOWNNAME":"安南區","LI":"新順里","LIN":"19鄰","STREET":"培安二街","SECT":" ","MAREA":" ","LANE":" ","ALLEY":" ","HOUSE_NO":"７號","E_COORD97":169379.57000000001,"N_COORD97":2549643.7200000002,"ADDRESS":"培安二街７號","OBJECTID":533504},"geometry":{"x":169379.57000000216,"y":2549643.7200000007}},{"attributes":{"ID":533532,"DIS_CODE":0,"TOWNNAME":"安南區","LI":"新順里","LIN":"19鄰","STREET":"培安二街","SECT":" ","MAREA":" ","LANE":" ","ALLEY":" ","HOUSE_NO":"９號","E_COORD97":169380.42999999999,"N_COORD97":2549648.5699999998,"ADDRESS":"培安二街９號","OBJECTID":533505},"geometry":{"x":169380.43000000063,"y":2549648.5699999984}},{"attributes":{"ID":533533,"DIS_CODE":0,"TOWNNAME":"佳里區","LI":"鎮山里","LIN":"19鄰","STREET":"中興街","SECT":" ","MAREA":" ","LANE":" ","ALLEY":" ","HOUSE_NO":"４１號","E_COORD97":166238.73000000001,"N_COORD97":2561171.2000000002,"ADDRESS":"中興街４１號","OBJECTID":533506},"geometry":{"x":166238.73000000045,"y":2561171.2000000011}},{"attributes":{"ID":533534,"DIS_CODE":0,"TOWNNAME":"佳里區","LI":"鎮山里","LIN":"19鄰","STREET":"中興街","SECT":" ","MAREA":" ","LANE":" ","ALLEY":" ","HOUSE_NO":"４７號","E_COORD97":166222.98000000001,"N_COORD97":2561177.6299999999,"ADDRESS":"中興街４７號","OBJECTID":533507},"geometry":{"x":166222.98000000045,"y":2561177.6300000027}},{"attributes":{"ID":533535,"DIS_CODE":0,"TOWNNAME":"佳里區","LI":"鎮山里","LIN":"19鄰","STREET":"中興街","SECT":" ","MAREA":" ","LANE":" ","ALLEY":" ","HOUSE_NO":"５號","E_COORD97":166265.04999999999,"N_COORD97":2561143.3999999999,"ADDRESS":"中興街５號","OBJECTID":533508},"geometry":{"x":166265.05000000168,"y":2561143.4000000041}},{"attributes":{"ID":533536,"DIS_CODE":0,"TOWNNAME":"佳里區","LI":"鎮山里","LIN":"19鄰","STREET":"中興街","SECT":" ","MAREA":" ","LANE":" ","ALLEY":" ","HOUSE_NO":"７號","E_COORD97":166261.73000000001,"N_COORD97":2561146.7799999998,"ADDRESS":"中興街７號","OBJECTID":533509},"geometry":{"x":166261.73000000138,"y":2561146.7800000012}},{"attributes":{"ID":533537,"DIS_CODE":0,"TOWNNAME":"佳里區","LI":"鎮山里","LIN":"19鄰","STREET":"中興街","SECT":" ","MAREA":" ","LANE":" ","ALLEY":" ","HOUSE_NO":"９號","E_COORD97":166258.32000000001,"N_COORD97":2561149.1800000002,"ADDRESS":"中興街９號","OBJECTID":533510},"geometry":{"x":166258.3200000003,"y":2561149.1800000016}},{"attributes":{"ID":533538,"DIS_CODE":0,"TOWNNAME":"永康區","LI":"南灣里","LIN":"19鄰","STREET":"大灣一街","SECT":" ","MAREA":" ","LANE":" ","ALLEY":" ","HOUSE_NO":"６０號","E_COORD97":174343.01000000001,"N_COORD97":2544752.0600000001,"ADDRESS":"大灣一街６０號","OBJECTID":533511},"geometry":{"x":174343.01000000071,"y":2544752.0600000005}},{"attributes":{"ID":533539,"DIS_CODE":0,"TOWNNAME":"永康區","LI":"南灣里","LIN":"19鄰","STREET":"大灣一街","SECT":" ","MAREA":" ","LANE":" ","ALLEY":" ","HOUSE_NO":"３０號","E_COORD97":174281.70000000001,"N_COORD97":2544776.8599999999,"ADDRESS":"大灣一街３０號","OBJECTID":533512},"geometry":{"x":174281.70000000112,"y":2544776.8599999994}},{"attributes":{"ID":533540,"DIS_CODE":0,"TOWNNAME":"永康區","LI":"南灣里","LIN":"19鄰","STREET":"大灣一街","SECT":" ","MAREA":" ","LANE":" ","ALLEY":" ","HOUSE_NO":"３２號","E_COORD97":174286.91,"N_COORD97":2544774.8599999999,"ADDRESS":"大灣一街３２號","OBJECTID":533513},"geometry":{"x":174286.91000000108,"y":2544774.8600000013}},{"attributes":{"ID":533541,"DIS_CODE":0,"TOWNNAME":"永康區","LI":"南灣里","LIN":"19鄰","STREET":"大灣一街","SECT":" ","MAREA":" ","LANE":" ","ALLEY":" ","HOUSE_NO":"５８號","E_COORD97":174323.89999999999,"N_COORD97":2544753.1099999999,"ADDRESS":"大灣一街５８號","OBJECTID":533514},"geometry":{"x":174323.90000000224,"y":2544753.1100000013}},{"attributes":{"ID":533542,"DIS_CODE":0,"TOWNNAME":"永康區","LI":"南灣里","LIN":"19鄰","STREET":"大灣一街","SECT":" ","MAREA":" ","LANE":" ","ALLEY":" ","HOUSE_NO":"６６號","E_COORD97":174360.04000000001,"N_COORD97":2544742.9300000002,"ADDRESS":"大灣一街６６號","OBJECTID":533515},"geometry":{"x":174360.04000000097,"y":2544742.9299999978}},{"attributes":{"ID":533543,"DIS_CODE":0,"TOWNNAME":"永康區","LI":"南灣里","LIN":"19鄰","STREET":"大灣一街","SECT":" ","MAREA":" ","LANE":" ","ALLEY":" ","HOUSE_NO":"２６號","E_COORD97":174270.03,"N_COORD97":2544779.8599999999,"ADDRESS":"大灣一街２６號","OBJECTID":533516},"geometry":{"x":174270.03000000026,"y":2544779.8599999994}},{"attributes":{"ID":533544,"DIS_CODE":0,"TOWNNAME":"永康區","LI":"南灣里","LIN":"19鄰","STREET":"大灣一街","SECT":" ","MAREA":" ","LANE":" ","ALLEY":" ","HOUSE_NO":"３６號","E_COORD97":174291.84,"N_COORD97":2544772.75,"ADDRESS":"大灣一街３６號","OBJECTID":533517},"geometry":{"x":174291.84000000078,"y":2544772.7500000019}},{"attributes":{"ID":533545,"DIS_CODE":0,"TOWNNAME":"永康區","LI":"東橋里","LIN":"19鄰","STREET":"中山南路","SECT":" ","MAREA":" ","LANE":" ","ALLEY":" ","HOUSE_NO":"４８９號","E_COORD97":173037.70000000001,"N_COORD97":2546910.8999999999,"ADDRESS":"中山南路４８９號","OBJECTID":533518},"geometry":{"x":173037.70000000019,"y":2546910.9000000022}},{"attributes":{"ID":533546,"DIS_CODE":0,"TOWNNAME":"永康區","LI":"東橋里","LIN":"19鄰","STREET":"中山南路","SECT":" ","MAREA":" ","LANE":" ","ALLEY":" ","HOUSE_NO":"４６３號","E_COORD97":172940.82999999999,"N_COORD97":2546874.5600000001,"ADDRESS":"中山南路４６３號","OBJECTID":533519},"geometry":{"x":172940.83000000194,"y":2546874.5600000005}},{"attributes":{"ID":533547,"DIS_CODE":0,"TOWNNAME":"永康區","LI":"東橋里","LIN":"19鄰","STREET":"中山南路","SECT":" ","MAREA":" ","LANE":" ","ALLEY":" ","HOUSE_NO":"４７９號","E_COORD97":173017.23000000001,"N_COORD97":2546902,"ADDRESS":"中山南路４７９號","OBJECTID":533520},"geometry":{"x":173017.23000000138,"y":2546902}},{"attributes":{"ID":533548,"DIS_CODE":0,"TOWNNAME":"永康區","LI":"東橋里","LIN":"19鄰","STREET":"中山南路","SECT":" ","MAREA":" ","LANE":" ","ALLEY":" ","HOUSE_NO":"４６１號","E_COORD97":172936.12,"N_COORD97":2546873.0600000001,"ADDRESS":"中山南路４６１號","OBJECTID":533521},"geometry":{"x":172936.12000000104,"y":2546873.0600000024}},{"attributes":{"ID":533549,"DIS_CODE":0,"TOWNNAME":"永康區","LI":"東橋里","LIN":"19鄰","STREET":"中山南路","SECT":" ","MAREA":" ","LANE":" ","ALLEY":" ","HOUSE_NO":"４６５號","E_COORD97":172945.62,"N_COORD97":2546877.3100000001,"ADDRESS":"中山南路４６５號","OBJECTID":533522},"geometry":{"x":172945.62000000197,"y":2546877.3100000042}},{"attributes":{"ID":533550,"DIS_CODE":0,"TOWNNAME":"佳里區","LI":"安西里","LIN":"19鄰","STREET":"光復路","SECT":" ","MAREA":" ","LANE":" ","ALLEY":" ","HOUSE_NO":"３９９號","E_COORD97":165497.54999999999,"N_COORD97":2562803.8300000001,"ADDRESS":"光復路３９９號","OBJECTID":533523},"geometry":{"x":165497.55000000075,"y":2562803.8300000001}},{"attributes":{"ID":533551,"DIS_CODE":0,"TOWNNAME":"佳里區","LI":"安西里","LIN":"19鄰","STREET":"光復路","SECT":" ","MAREA":" ","LANE":" ","ALLEY":" ","HOUSE_NO":"４０１號","E_COORD97":165498.26999999999,"N_COORD97":2562810.0099999998,"ADDRESS":"光復路４０１號","OBJECTID":533524},"geometry":{"x":165498.26999999955,"y":2562810.0100000035}},{"attributes":{"ID":533552,"DIS_CODE":0,"TOWNNAME":"佳里區","LI":"安西里","LIN":"19鄰","STREET":"光復路","SECT":" ","MAREA":" ","LANE":" ","ALLEY":" ","HOUSE_NO":"４０３號","E_COORD97":165498.45999999999,"N_COORD97":2562814.2599999998,"ADDRESS":"光復路４０３號","OBJECTID":533525},"geometry":{"x":165498.46000000089,"y":2562814.2599999998}},{"attributes":{"ID":533553,"DIS_CODE":0,"TOWNNAME":"佳里區","LI":"安西里","LIN":"19鄰","STREET":"光復路","SECT":" ","MAREA":" ","LANE":" ","ALLEY":" ","HOUSE_NO":"４０５號","E_COORD97":165498.79000000001,"N_COORD97":2562819.2599999998,"ADDRESS":"光復路４０５號","OBJECTID":533526},"geometry":{"x":165498.79000000004,"y":2562819.2600000016}},{"attributes":{"ID":533554,"DIS_CODE":0,"TOWNNAME":"佳里區","LI":"安西里","LIN":"19鄰","STREET":"光復路","SECT":" ","MAREA":" ","LANE":" ","ALLEY":" ","HOUSE_NO":"４０７號","E_COORD97":165498.82999999999,"N_COORD97":2562823.9399999999,"ADDRESS":"光復路４０７號","OBJECTID":533527},"geometry":{"x":165498.83000000194,"y":2562823.9400000032}},{"attributes":{"ID":533555,"DIS_CODE":0,"TOWNNAME":"佳里區","LI":"安西里","LIN":"19鄰","STREET":"光復路","SECT":" ","MAREA":" ","LANE":" ","ALLEY":" ","HOUSE_NO":"４０９號","E_COORD97":165499.35999999999,"N_COORD97":2562828.4900000002,"ADDRESS":"光復路４０９號","OBJECTID":533528},"geometry":{"x":165499.36000000127,"y":2562828.4900000021}},{"attributes":{"ID":533556,"DIS_CODE":0,"TOWNNAME":"佳里區","LI":"安西里","LIN":"19鄰","STREET":"光復路","SECT":" ","MAREA":" ","LANE":" ","ALLEY":" ","HOUSE_NO":"４１１號","E_COORD97":165499.19,"N_COORD97":2562833.2599999998,"ADDRESS":"光復路４１１號","OBJECTID":533529},"geometry":{"x":165499.19000000134,"y":2562833.2600000016}},{"attributes":{"ID":533557,"DIS_CODE":0,"TOWNNAME":"佳里區","LI":"安西里","LIN":"19鄰","STREET":"光復路","SECT":" ","MAREA":" ","LANE":" ","ALLEY":" ","HOUSE_NO":"４１３號","E_COORD97":165465.92999999999,"N_COORD97":2562840.0299999998,"ADDRESS":"光復路４１３號","OBJECTID":533530},"geometry":{"x":165465.93000000063,"y":2562840.0300000031}},{"attributes":{"ID":533558,"DIS_CODE":0,"TOWNNAME":"佳里區","LI":"安西里","LIN":"19鄰","STREET":"光復路","SECT":" ","MAREA":" ","LANE":" ","ALLEY":" ","HOUSE_NO":"４１５號","E_COORD97":165500.39000000001,"N_COORD97":2562842.96,"ADDRESS":"光復路４１５號","OBJECTID":533531},"geometry":{"x":165500.3900000006,"y":2562842.9600000028}},{"attributes":{"ID":533559,"DIS_CODE":0,"TOWNNAME":"佳里區","LI":"安西里","LIN":"19鄰","STREET":"光復路","SECT":" ","MAREA":" ","LANE":" ","ALLEY":" ","HOUSE_NO":"４１７號","E_COORD97":165500.48000000001,"N_COORD97":2562846.54,"ADDRESS":"光復路４１７號","OBJECTID":533532},"geometry":{"x":165500.48000000138,"y":2562846.5400000028}},{"attributes":{"ID":533560,"DIS_CODE":0,"TOWNNAME":"佳里區","LI":"安西里","LIN":"19鄰","STREET":"光復路","SECT":" ","MAREA":" ","LANE":" ","ALLEY":" ","HOUSE_NO":"４１９號","E_COORD97":165500.5,"N_COORD97":2562850.48,"ADDRESS":"光復路４１９號","OBJECTID":533533},"geometry":{"x":165500.5,"y":2562850.4800000004}},{"attributes":{"ID":533561,"DIS_CODE":0,"TOWNNAME":"佳里區","LI":"安西里","LIN":"19鄰","STREET":"光復路","SECT":" ","MAREA":" ","LANE":" ","ALLEY":" ","HOUSE_NO":"４２１號","E_COORD97":165500.45999999999,"N_COORD97":2562854.5299999998,"ADDRESS":"光復路４２１號","OBJECTID":533534},"geometry":{"x":165500.45999999996,"y":2562854.5300000012}},{"attributes":{"ID":533562,"DIS_CODE":0,"TOWNNAME":"佳里區","LI":"安西里","LIN":"19鄰","STREET":"光華街","SECT":" ","MAREA":" ","LANE":" ","ALLEY":" ","HOUSE_NO":"１０號","E_COORD97":165468.5,"N_COORD97":2562807.3500000001,"ADDRESS":"光華街１０號","OBJECTID":533535},"geometry":{"x":165468.5,"y":2562807.3499999978}},{"attributes":{"ID":533563,"DIS_CODE":0,"TOWNNAME":"佳里區","LI":"安西里","LIN":"19鄰","STREET":"光華街","SECT":" ","MAREA":" ","LANE":" ","ALLEY":" ","HOUSE_NO":"１２號","E_COORD97":165464.39000000001,"N_COORD97":2562807.7999999998,"ADDRESS":"光華街１２號","OBJECTID":533536},"geometry":{"x":165464.3900000006,"y":2562807.8000000007}},{"attributes":{"ID":533564,"DIS_CODE":0,"TOWNNAME":"安南區","LI":"長安里","LIN":"19鄰","STREET":"公學路","SECT":"二段","MAREA":" ","LANE":" ","ALLEY":" ","HOUSE_NO":"５６之１號","E_COORD97":167742.95000000001,"N_COORD97":2552469.0600000001,"ADDRESS":"公學路二段５６之１號","OBJECTID":533537},"geometry":{"x":167742.95000000112,"y":2552469.0600000005}},{"attributes":{"ID":533565,"DIS_CODE":0,"TOWNNAME":"新市區","LI":"港墘里","LIN":"19鄰","STREET":"南港街","SECT":" ","MAREA":" ","LANE":" ","ALLEY":" ","HOUSE_NO":"１２７號","E_COORD97":177980.23999999999,"N_COORD97":2552728.5,"ADDRESS":"南港街１２７號","OBJECTID":533538},"geometry":{"x":177980.24000000115,"y":2552728.5000000019}},{"attributes":{"ID":533566,"DIS_CODE":0,"TOWNNAME":"新市區","LI":"永就里","LIN":"19鄰","STREET":"永華三街","SECT":" ","MAREA":" ","LANE":" ","ALLEY":" ","HOUSE_NO":"１４號","E_COORD97":177573.45000000001,"N_COORD97":2551012,"ADDRESS":"永華三街１４號","OBJECTID":533539},"geometry":{"x":177573.45000000112,"y":2551012.0000000037}},{"attributes":{"ID":533567,"DIS_CODE":0,"TOWNNAME":"新市區","LI":"永就里","LIN":"19鄰","STREET":"永華三街","SECT":" ","MAREA":" ","LANE":" ","ALLEY":" ","HOUSE_NO":"１１號","E_COORD97":177587.17999999999,"N_COORD97":2551025.25,"ADDRESS":"永華三街１１號","OBJECTID":533540},"geometry":{"x":177587.1799999997,"y":2551025.2500000019}},{"attributes":{"ID":533568,"DIS_CODE":0,"TOWNNAME":"新市區","LI":"港墘里","LIN":"19鄰","STREET":"南港街","SECT":" ","MAREA":" ","LANE":" ","ALLEY":" ","HOUSE_NO":"８９號","E_COORD97":178052.26000000001,"N_COORD97":2552736,"ADDRESS":"南港街８９號","OBJECTID":533541},"geometry":{"x":178052.26000000071,"y":2552736}},{"attributes":{"ID":533569,"DIS_CODE":0,"TOWNNAME":"新市區","LI":"永就里","LIN":"19鄰","STREET":"永華三街","SECT":" ","MAREA":" ","LANE":" ","ALLEY":" ","HOUSE_NO":"１２號","E_COORD97":177590.29000000001,"N_COORD97":2551016,"ADDRESS":"永華三街１２號","OBJECTID":533542},"geometry":{"x":177590.29000000004,"y":2551016.0000000019}},{"attributes":{"ID":533570,"DIS_CODE":0,"TOWNNAME":"新市區","LI":"新和里","LIN":"19鄰","STREET":"永福街","SECT":" ","MAREA":" ","LANE":" ","ALLEY":" ","HOUSE_NO":"１０７號","E_COORD97":177495.95999999999,"N_COORD97":2552725.5,"ADDRESS":"永福街１０７號","OBJECTID":533543},"geometry":{"x":177495.95999999996,"y":2552725.5000000019}},{"attributes":{"ID":533571,"DIS_CODE":0,"TOWNNAME":"東區","LI":"虎尾里","LIN":"19鄰","STREET":"東成街","SECT":" ","MAREA":" ","LANE":" ","ALLEY":" ","HOUSE_NO":"４４號","E_COORD97":171349.64000000001,"N_COORD97":2542240.4100000001,"ADDRESS":"東成街４４號","OBJECTID":533544},"geometry":{"x":171349.63999999966,"y":2542240.4100000001}},{"attributes":{"ID":533572,"DIS_CODE":0,"TOWNNAME":"麻豆區","LI":"\u25A0江里","LIN":"19鄰","STREET":"興中路","SECT":" ","MAREA":" ","LANE":" ","ALLEY":" ","HOUSE_NO":"１４６號","E_COORD97":173463.76999999999,"N_COORD97":2564787.4700000002,"ADDRESS":"興中路１４６號","OBJECTID":533545},"geometry":{"x":173463.76999999955,"y":2564787.4700000007}},{"attributes":{"ID":533573,"DIS_CODE":0,"TOWNNAME":"麻豆區","LI":"\u25A0江里","LIN":"19鄰","STREET":"興中路","SECT":" ","MAREA":" ","LANE":" ","ALLEY":" ","HOUSE_NO":"１５２號之１","E_COORD97":173475.04000000001,"N_COORD97":2564806.9100000001,"ADDRESS":"興中路１５２號之１","OBJECTID":533546},"geometry":{"x":173475.0400000019,"y":2564806.9100000001}},{"attributes":{"ID":533574,"DIS_CODE":0,"TOWNNAME":"麻豆區","LI":"\u25A0江里","LIN":"19鄰","STREET":"興中路","SECT":" ","MAREA":" ","LANE":" ","ALLEY":" ","HOUSE_NO":"１５２號之２","E_COORD97":173479.10999999999,"N_COORD97":2564807,"ADDRESS":"興中路１５２號之２","OBJECTID":533547},"geometry":{"x":173479.11000000034,"y":2564806.9999999981}},{"attributes":{"ID":533575,"DIS_CODE":0,"TOWNNAME":"麻豆區","LI":"\u25A0江里","LIN":"19鄰","STREET":"興中路","SECT":" ","MAREA":" ","LANE":" ","ALLEY":" ","HOUSE_NO":"１５２號","E_COORD97":173470.92000000001,"N_COORD97":2564806.9100000001,"ADDRESS":"興中路１５２號","OBJECTID":533548},"geometry":{"x":173470.92000000086,"y":2564806.9100000001}},{"attributes":{"ID":533576,"DIS_CODE":0,"TOWNNAME":"麻豆區","LI":"\u25A0江里","LIN":"19鄰","STREET":"興中路","SECT":" ","MAREA":" ","LANE":" ","ALLEY":" ","HOUSE_NO":"１５４號","E_COORD97":173482.82999999999,"N_COORD97":2564807.4199999999,"ADDRESS":"興中路１５４號","OBJECTID":533549},"geometry":{"x":173482.83000000007,"y":2564807.4199999999}},{"attributes":{"ID":533577,"DIS_CODE":0,"TOWNNAME":"麻豆區","LI":"\u25A0江里","LIN":"19鄰","STREET":"興中路","SECT":" ","MAREA":" ","LANE":" ","ALLEY":" ","HOUSE_NO":"１５６號","E_COORD97":173486.57999999999,"N_COORD97":2564807.48,"ADDRESS":"興中路１５６號","OBJECTID":533550},"geometry":{"x":173486.58000000194,"y":2564807.4800000004}},{"attributes":{"ID":533578,"DIS_CODE":0,"TOWNNAME":"麻豆區","LI":"\u25A0江里","LIN":"19鄰","STREET":"興中路","SECT":" ","MAREA":" ","LANE":" ","ALLEY":" ","HOUSE_NO":"１５８號","E_COORD97":173496.34,"N_COORD97":2564807.6000000001,"ADDRESS":"興中路１５８號","OBJECTID":533551},"geometry":{"x":173496.33999999892,"y":2564807.6000000015}},{"attributes":{"ID":533579,"DIS_CODE":0,"TOWNNAME":"麻豆區","LI":"\u25A0江里","LIN":"19鄰","STREET":"興中路","SECT":" ","MAREA":" ","LANE":" ","ALLEY":" ","HOUSE_NO":"１６０號","E_COORD97":173502.38,"N_COORD97":2564807.3199999998,"ADDRESS":"興中路１６０號","OBJECTID":533552},"geometry":{"x":173502.37999999989,"y":2564807.3200000003}},{"attributes":{"ID":533580,"DIS_CODE":0,"TOWNNAME":"麻豆區","LI":"\u25A0江里","LIN":"19鄰","STREET":"興中路","SECT":" ","MAREA":" ","LANE":" ","ALLEY":" ","HOUSE_NO":"１６２號","E_COORD97":173507.04000000001,"N_COORD97":2564807.2599999998,"ADDRESS":"興中路１６２號","OBJECTID":533553},"geometry":{"x":173507.03999999911,"y":2564807.2599999998}},{"attributes":{"ID":533581,"DIS_CODE":0,"TOWNNAME":"麻豆區","LI":"\u25A0江里","LIN":"19鄰","STREET":"興中路","SECT":" ","MAREA":" ","LANE":" ","ALLEY":" ","HOUSE_NO":"１６４號之２","E_COORD97":173518.67999999999,"N_COORD97":2564807.73,"ADDRESS":"興中路１６４號之２","OBJECTID":533554},"geometry":{"x":173518.6799999997,"y":2564807.7300000023}},{"attributes":{"ID":533582,"DIS_CODE":0,"TOWNNAME":"麻豆區","LI":"\u25A0江里","LIN":"19鄰","STREET":"興中路","SECT":" ","MAREA":" ","LANE":" ","ALLEY":" ","HOUSE_NO":"１６４號之３","E_COORD97":173522.60999999999,"N_COORD97":2564807.8399999999,"ADDRESS":"興中路１６４號之３","OBJECTID":533555},"geometry":{"x":173522.61000000127,"y":2564807.8399999999}},{"attributes":{"ID":533583,"DIS_CODE":0,"TOWNNAME":"麻豆區","LI":"\u25A0江里","LIN":"19鄰","STREET":"興中路","SECT":" ","MAREA":" ","LANE":" ","ALLEY":" ","HOUSE_NO":"１６４號之４","E_COORD97":173530.85000000001,"N_COORD97":2564808.2200000002,"ADDRESS":"興中路１６４號之４","OBJECTID":533556},"geometry":{"x":173530.85000000056,"y":2564808.2200000007}},{"attributes":{"ID":533584,"DIS_CODE":0,"TOWNNAME":"麻豆區","LI":"\u25A0江里","LIN":"19鄰","STREET":"興中路","SECT":" ","MAREA":" ","LANE":" ","ALLEY":" ","HOUSE_NO":"１６４號之５","E_COORD97":173534.84,"N_COORD97":2564808.02,"ADDRESS":"興中路１６４號之５","OBJECTID":533557},"geometry":{"x":173534.83999999985,"y":2564808.0200000014}},{"attributes":{"ID":533585,"DIS_CODE":0,"TOWNNAME":"麻豆區","LI":"\u25A0江里","LIN":"19鄰","STREET":"興中路","SECT":" ","MAREA":" ","LANE":" ","ALLEY":" ","HOUSE_NO":"１６４號之６","E_COORD97":173538.84,"N_COORD97":2564807.9700000002,"ADDRESS":"興中路１６４號之６","OBJECTID":533558},"geometry":{"x":173538.84000000171,"y":2564807.9699999988}},{"attributes":{"ID":533586,"DIS_CODE":0,"TOWNNAME":"麻豆區","LI":"\u25A0江里","LIN":"19鄰","STREET":"興中路","SECT":" ","MAREA":" ","LANE":" ","ALLEY":" ","HOUSE_NO":"１６４號之７","E_COORD97":173526.85999999999,"N_COORD97":2564807.8700000001,"ADDRESS":"興中路１６４號之７","OBJECTID":533559},"geometry":{"x":173526.86000000034,"y":2564807.870000001}},{"attributes":{"ID":533587,"DIS_CODE":0,"TOWNNAME":"麻豆區","LI":"\u25A0江里","LIN":"19鄰","STREET":"興中路","SECT":" ","MAREA":" ","LANE":" ","ALLEY":" ","HOUSE_NO":"１６４號","E_COORD97":173510.64000000001,"N_COORD97":2564807.2599999998,"ADDRESS":"興中路１６４號","OBJECTID":533560},"geometry":{"x":173510.63999999966,"y":2564807.2599999998}},{"attributes":{"ID":533588,"DIS_CODE":0,"TOWNNAME":"麻豆區","LI":"\u25A0江里","LIN":"19鄰","STREET":"興中路","SECT":" ","MAREA":" ","LANE":" ","ALLEY":" ","HOUSE_NO":"１６６號","E_COORD97":173544.88,"N_COORD97":2564806.5,"ADDRESS":"興中路１６６號","OBJECTID":533561},"geometry":{"x":173544.87999999989,"y":2564806.5}},{"attributes":{"ID":533589,"DIS_CODE":0,"TOWNNAME":"麻豆區","LI":"\u25A0江里","LIN":"19鄰","STREET":"興中路","SECT":" ","MAREA":" ","LANE":" ","ALLEY":" ","HOUSE_NO":"１６８號","E_COORD97":173548.97,"N_COORD97":2564806.3399999999,"ADDRESS":"興中路１６８號","OBJECTID":533562},"geometry":{"x":173548.96999999974,"y":2564806.3400000017}},{"attributes":{"ID":533590,"DIS_CODE":0,"TOWNNAME":"麻豆區","LI":"\u25A0江里","LIN":"19鄰","STREET":"興中路","SECT":" ","MAREA":" ","LANE":" ","ALLEY":" ","HOUSE_NO":"１７０號","E_COORD97":173553.23000000001,"N_COORD97":2564806.4399999999,"ADDRESS":"興中路１７０號","OBJECTID":533563},"geometry":{"x":173553.23000000045,"y":2564806.4399999995}},{"attributes":{"ID":533591,"DIS_CODE":0,"TOWNNAME":"東區","LI":"成大里","LIN":"19鄰","STREET":"勝利路","SECT":" ","MAREA":" ","LANE":" ","ALLEY":" ","HOUSE_NO":"１２３號","E_COORD97":169824.59,"N_COORD97":2543917.46,"ADDRESS":"勝利路１２３號","OBJECTID":533564},"geometry":{"x":169824.58999999892,"y":2543917.4600000028}},{"attributes":{"ID":533592,"DIS_CODE":0,"TOWNNAME":"東區","LI":"成大里","LIN":"19鄰","STREET":"勝利路","SECT":" ","MAREA":" ","LANE":" ","ALLEY":" ","HOUSE_NO":"１２５號","E_COORD97":169824.67000000001,"N_COORD97":2543921.3300000001,"ADDRESS":"勝利路１２５號","OBJECTID":533565},"geometry":{"x":169824.67000000086,"y":2543921.3300000019}},{"attributes":{"ID":533593,"DIS_CODE":0,"TOWNNAME":"下營區","LI":"新興里","LIN":"19鄰","STREET":"中山路","SECT":"一段","MAREA":" ","LANE":" ","ALLEY":" ","HOUSE_NO":"３２２號","E_COORD97":175134.29000000001,"N_COORD97":2570794.54,"ADDRESS":"中山路一段３２２號","OBJECTID":533566},"geometry":{"x":175134.29000000004,"y":2570794.540000001}},{"attributes":{"ID":533594,"DIS_CODE":0,"TOWNNAME":"下營區","LI":"下營里","LIN":"19鄰","STREET":"中山路","SECT":"一段","MAREA":" ","LANE":" ","ALLEY":" ","HOUSE_NO":"３號","E_COORD97":174396.04000000001,"N_COORD97":2570486.9399999999,"ADDRESS":"中山路一段３號","OBJECTID":533567},"geometry":{"x":174396.04000000097,"y":2570486.9400000013}},{"attributes":{"ID":533595,"DIS_CODE":0,"TOWNNAME":"下營區","LI":"下營里","LIN":"19鄰","STREET":"中山路","SECT":"一段","MAREA":" ","LANE":" ","ALLEY":" ","HOUSE_NO":"５號","E_COORD97":174400.98999999999,"N_COORD97":2570488.4500000002,"ADDRESS":"中山路一段５號","OBJECTID":533568},"geometry":{"x":174400.99000000209,"y":2570488.4499999993}},{"attributes":{"ID":533596,"DIS_CODE":0,"TOWNNAME":"下營區","LI":"下營里","LIN":"19鄰","STREET":"中山路","SECT":"一段","MAREA":" ","LANE":" ","ALLEY":" ","HOUSE_NO":"７號","E_COORD97":174406.09,"N_COORD97":2570489.23,"ADDRESS":"中山路一段７號","OBJECTID":533569},"geometry":{"x":174406.08999999985,"y":2570489.2300000023}},{"attributes":{"ID":533597,"DIS_CODE":0,"TOWNNAME":"下營區","LI":"仁里里","LIN":"19鄰","STREET":"中山路","SECT":"二段","MAREA":" ","LANE":" ","ALLEY":" ","HOUSE_NO":"１６號","E_COORD97":174355.73000000001,"N_COORD97":2570452.6400000001,"ADDRESS":"中山路二段１６號","OBJECTID":533570},"geometry":{"x":174355.73000000138,"y":2570452.6400000025}},{"attributes":{"ID":533598,"DIS_CODE":0,"TOWNNAME":"下營區","LI":"仁里里","LIN":"19鄰","STREET":"中山路","SECT":"二段","MAREA":" ","LANE":" ","ALLEY":" ","HOUSE_NO":"１８號","E_COORD97":174356.20999999999,"N_COORD97":2570449.3700000001,"ADDRESS":"中山路二段１８號","OBJECTID":533571},"geometry":{"x":174356.20999999996,"y":2570449.370000001}},{"attributes":{"ID":533599,"DIS_CODE":0,"TOWNNAME":"下營區","LI":"仁里里","LIN":"19鄰","STREET":"中山路","SECT":"二段","MAREA":" ","LANE":" ","ALLEY":" ","HOUSE_NO":"２０號","E_COORD97":174357.23000000001,"N_COORD97":2570445.9199999999,"ADDRESS":"中山路二段２０號","OBJECTID":533572},"geometry":{"x":174357.23000000231,"y":2570445.9200000037}},{"attributes":{"ID":533600,"DIS_CODE":0,"TOWNNAME":"佳里區","LI":"安西里","LIN":"19鄰","STREET":"光華街","SECT":" ","MAREA":" ","LANE":" ","ALLEY":" ","HOUSE_NO":"１４號","E_COORD97":165455.06,"N_COORD97":2562830.02,"ADDRESS":"光華街１４號","OBJECTID":533573},"geometry":{"x":165455.06000000052,"y":2562830.0200000033}},{"attributes":{"ID":533601,"DIS_CODE":0,"TOWNNAME":"佳里區","LI":"安西里","LIN":"19鄰","STREET":"光華街","SECT":" ","MAREA":" ","LANE":" ","ALLEY":" ","HOUSE_NO":"１８號","E_COORD97":165450.42999999999,"N_COORD97":2562807.9700000002,"ADDRESS":"光華街１８號","OBJECTID":533574},"geometry":{"x":165450.43000000156,"y":2562807.9700000044}},{"attributes":{"ID":533602,"DIS_CODE":0,"TOWNNAME":"佳里區","LI":"安西里","LIN":"19鄰","STREET":"光華街","SECT":" ","MAREA":" ","LANE":" ","ALLEY":" ","HOUSE_NO":"２號","E_COORD97":165485.81,"N_COORD97":2562806.1000000001,"ADDRESS":"光華街２號","OBJECTID":533575},"geometry":{"x":165485.80999999959,"y":2562806.1000000034}},{"attributes":{"ID":533603,"DIS_CODE":0,"TOWNNAME":"佳里區","LI":"安西里","LIN":"19鄰","STREET":"光華街","SECT":" ","MAREA":" ","LANE":" ","ALLEY":" ","HOUSE_NO":"３２號","E_COORD97":165413.82000000001,"N_COORD97":2562809.8599999999,"ADDRESS":"光華街３２號","OBJECTID":533576},"geometry":{"x":165413.8200000003,"y":2562809.8599999994}},{"attributes":{"ID":533604,"DIS_CODE":0,"TOWNNAME":"佳里區","LI":"安西里","LIN":"19鄰","STREET":"光華街","SECT":" ","MAREA":" ","LANE":" ","ALLEY":" ","HOUSE_NO":"３４號","E_COORD97":165409.29000000001,"N_COORD97":2562810.0800000001,"ADDRESS":"光華街３４號","OBJECTID":533577},"geometry":{"x":165409.2900000019,"y":2562810.0800000038}},{"attributes":{"ID":533605,"DIS_CODE":0,"TOWNNAME":"佳里區","LI":"安西里","LIN":"19鄰","STREET":"光華街","SECT":" ","MAREA":" ","LANE":" ","ALLEY":" ","HOUSE_NO":"３６號","E_COORD97":165405.12,"N_COORD97":2562810.2000000002,"ADDRESS":"光華街３６號","OBJECTID":533578},"geometry":{"x":165405.12000000011,"y":2562810.1999999993}},{"attributes":{"ID":533606,"DIS_CODE":0,"TOWNNAME":"佳里區","LI":"安西里","LIN":"19鄰","STREET":"光華街","SECT":" ","MAREA":" ","LANE":" ","ALLEY":" ","HOUSE_NO":"３８號","E_COORD97":165400.95000000001,"N_COORD97":2562810.9399999999,"ADDRESS":"光華街３８號","OBJECTID":533579},"geometry":{"x":165400.95000000019,"y":2562810.9400000013}},{"attributes":{"ID":533607,"DIS_CODE":0,"TOWNNAME":"佳里區","LI":"安西里","LIN":"19鄰","STREET":"光華街","SECT":" ","MAREA":" ","LANE":" ","ALLEY":" ","HOUSE_NO":"４２號","E_COORD97":165382.42000000001,"N_COORD97":2562826.8999999999,"ADDRESS":"光華街４２號","OBJECTID":533580},"geometry":{"x":165382.41999999993,"y":2562826.9000000004}},{"attributes":{"ID":533608,"DIS_CODE":0,"TOWNNAME":"南區","LI":"明亮里","LIN":" ","STREET":"新都路","SECT":" ","MAREA":" ","LANE":" ","ALLEY":" ","HOUSE_NO":"５８０之１號","E_COORD97":166979.14999999999,"N_COORD97":2540897.52,"ADDRESS":"新都路５８０之１號","OBJECTID":533581},"geometry":{"x":166979.1500000013,"y":2540897.5199999977}},{"attributes":{"ID":533609,"DIS_CODE":0,"TOWNNAME":"佳里區","LI":"安西里","LIN":"19鄰","STREET":"光華街","SECT":" ","MAREA":" ","LANE":" ","ALLEY":" ","HOUSE_NO":"４號","E_COORD97":165481.92000000001,"N_COORD97":2562806.1899999999,"ADDRESS":"光華街４號","OBJECTID":533582},"geometry":{"x":165481.92000000086,"y":2562806.1900000013}},{"attributes":{"ID":533610,"DIS_CODE":0,"TOWNNAME":"佳里區","LI":"安西里","LIN":"19鄰","STREET":"光華街","SECT":" ","MAREA":" ","LANE":" ","ALLEY":" ","HOUSE_NO":"５４號","E_COORD97":165356.82999999999,"N_COORD97":2562810.96,"ADDRESS":"光華街５４號","OBJECTID":533583},"geometry":{"x":165356.83000000101,"y":2562810.9600000009}},{"attributes":{"ID":533611,"DIS_CODE":0,"TOWNNAME":"佳里區","LI":"安西里","LIN":"19鄰","STREET":"光華街","SECT":" ","MAREA":" ","LANE":" ","ALLEY":" ","HOUSE_NO":"６號","E_COORD97":165477.5,"N_COORD97":2562806.29,"ADDRESS":"光華街６號","OBJECTID":533584},"geometry":{"x":165477.50000000093,"y":2562806.2899999991}},{"attributes":{"ID":533612,"DIS_CODE":0,"TOWNNAME":"安南區","LI":"安順里","LIN":"19鄰","STREET":"安豐四街","SECT":" ","MAREA":" ","LANE":" ","ALLEY":" ","HOUSE_NO":"１１７號","E_COORD97":169623.79999999999,"N_COORD97":2549862.27,"ADDRESS":"安豐四街１１７號","OBJECTID":533585},"geometry":{"x":169623.80000000075,"y":2549862.2699999996}},{"attributes":{"ID":533613,"DIS_CODE":0,"TOWNNAME":"安南區","LI":"安順里","LIN":"19鄰","STREET":"安豐四街","SECT":" ","MAREA":" ","LANE":" ","ALLEY":" ","HOUSE_NO":"１１９號","E_COORD97":169628.72,"N_COORD97":2549861.96,"ADDRESS":"安豐四街１１９號","OBJECTID":533586},"geometry":{"x":169628.7200000016,"y":2549861.9600000028}},{"attributes":{"ID":533614,"DIS_CODE":0,"TOWNNAME":"安南區","LI":"安順里","LIN":"19鄰","STREET":"安豐四街","SECT":" ","MAREA":" ","LANE":" ","ALLEY":" ","HOUSE_NO":"１１５號","E_COORD97":169617.92000000001,"N_COORD97":2549863.0699999998,"ADDRESS":"安豐四街１１５號","OBJECTID":533587},"geometry":{"x":169617.92000000086,"y":2549863.0700000022}},{"attributes":{"ID":533615,"DIS_CODE":0,"TOWNNAME":"安南區","LI":"安順里","LIN":"19鄰","STREET":"安豐四街","SECT":" ","MAREA":" ","LANE":" ","ALLEY":" ","HOUSE_NO":"１１３號","E_COORD97":169614.26999999999,"N_COORD97":2549863.23,"ADDRESS":"安豐四街１１３號","OBJECTID":533588},"geometry":{"x":169614.26999999955,"y":2549863.2300000004}},{"attributes":{"ID":533616,"DIS_CODE":0,"TOWNNAME":"安南區","LI":"安順里","LIN":"19鄰","STREET":"安豐四街","SECT":" ","MAREA":" ","LANE":" ","ALLEY":" ","HOUSE_NO":"１１１號","E_COORD97":169610.29999999999,"N_COORD97":2549863.54,"ADDRESS":"安豐四街１１１號","OBJECTID":533589},"geometry":{"x":169610.30000000075,"y":2549863.5399999991}},{"attributes":{"ID":533617,"DIS_CODE":0,"TOWNNAME":"安南區","LI":"安順里","LIN":"19鄰","STREET":"安豐四街","SECT":" ","MAREA":" ","LANE":" ","ALLEY":" ","HOUSE_NO":"１１６號","E_COORD97":169631.73000000001,"N_COORD97":2549849.4100000001,"ADDRESS":"安豐四街１１６號","OBJECTID":533590},"geometry":{"x":169631.73000000138,"y":2549849.4100000001}},{"attributes":{"ID":533618,"DIS_CODE":0,"TOWNNAME":"安南區","LI":"安順里","LIN":"19鄰","STREET":"安豐四街","SECT":" ","MAREA":" ","LANE":" ","ALLEY":" ","HOUSE_NO":"１５３號","E_COORD97":169695.23999999999,"N_COORD97":2549858.46,"ADDRESS":"安豐四街１５３號","OBJECTID":533591},"geometry":{"x":169695.24000000209,"y":2549858.4600000028}},{"attributes":{"ID":533619,"DIS_CODE":0,"TOWNNAME":"安南區","LI":"安順里","LIN":"19鄰","STREET":"安豐四街","SECT":" ","MAREA":" ","LANE":" ","ALLEY":" ","HOUSE_NO":"１２１號","E_COORD97":169632.53,"N_COORD97":2549861.6400000001,"ADDRESS":"安豐四街１２１號","OBJECTID":533592},"geometry":{"x":169632.53000000119,"y":2549861.6400000006}},{"attributes":{"ID":533620,"DIS_CODE":0,"TOWNNAME":"安南區","LI":"安順里","LIN":"19鄰","STREET":"安豐四街","SECT":" ","MAREA":" ","LANE":" ","ALLEY":" ","HOUSE_NO":"１２３號","E_COORD97":169637.29000000001,"N_COORD97":2549861.6400000001,"ADDRESS":"安豐四街１２３號","OBJECTID":533593},"geometry":{"x":169637.29000000097,"y":2549861.6400000006}},{"attributes":{"ID":533621,"DIS_CODE":0,"TOWNNAME":"安南區","LI":"安順里","LIN":"19鄰","STREET":"安豐四街","SECT":" ","MAREA":" ","LANE":" ","ALLEY":" ","HOUSE_NO":"１２５號","E_COORD97":169640.62,"N_COORD97":2549861.48,"ADDRESS":"安豐四街１２５號","OBJECTID":533594},"geometry":{"x":169640.62000000104,"y":2549861.4800000004}},{"attributes":{"ID":533622,"DIS_CODE":0,"TOWNNAME":"安南區","LI":"安順里","LIN":"19鄰","STREET":"安豐四街","SECT":" ","MAREA":" ","LANE":" ","ALLEY":" ","HOUSE_NO":"１２７號","E_COORD97":169643.79999999999,"N_COORD97":2549861.3199999998,"ADDRESS":"安豐四街１２７號","OBJECTID":533595},"geometry":{"x":169643.80000000075,"y":2549861.3200000022}},{"attributes":{"ID":533623,"DIS_CODE":0,"TOWNNAME":"安南區","LI":"安順里","LIN":"19鄰","STREET":"安豐四街","SECT":" ","MAREA":" ","LANE":" ","ALLEY":" ","HOUSE_NO":"１２９號","E_COORD97":169647.45000000001,"N_COORD97":2549861.3199999998,"ADDRESS":"安豐四街１２９號","OBJECTID":533596},"geometry":{"x":169647.45000000019,"y":2549861.3200000022}},{"attributes":{"ID":533624,"DIS_CODE":0,"TOWNNAME":"安南區","LI":"安順里","LIN":"19鄰","STREET":"安豐四街","SECT":" ","MAREA":" ","LANE":" ","ALLEY":" ","HOUSE_NO":"１３１號","E_COORD97":169650.78,"N_COORD97":2549861.1600000001,"ADDRESS":"安豐四街１３１號","OBJECTID":533597},"geometry":{"x":169650.77999999933,"y":2549861.1600000001}},{"attributes":{"ID":533625,"DIS_CODE":0,"TOWNNAME":"安南區","LI":"安順里","LIN":"19鄰","STREET":"安豐四街","SECT":" ","MAREA":" ","LANE":" ","ALLEY":" ","HOUSE_NO":"１３３號","E_COORD97":169654.44,"N_COORD97":2549861,"ADDRESS":"安豐四街１３３號","OBJECTID":533598},"geometry":{"x":169654.44000000041,"y":2549861}},{"attributes":{"ID":533626,"DIS_CODE":0,"TOWNNAME":"安南區","LI":"安順里","LIN":"19鄰","STREET":"安豐四街","SECT":" ","MAREA":" ","LANE":" ","ALLEY":" ","HOUSE_NO":"１３５號","E_COORD97":169658.25,"N_COORD97":2549860.6899999999,"ADDRESS":"安豐四街１３５號","OBJECTID":533599},"geometry":{"x":169658.25000000093,"y":2549860.6900000032}},{"attributes":{"ID":533627,"DIS_CODE":0,"TOWNNAME":"安南區","LI":"安順里","LIN":"19鄰","STREET":"安豐四街","SECT":" ","MAREA":" ","LANE":" ","ALLEY":" ","HOUSE_NO":"１３７號","E_COORD97":169662.20999999999,"N_COORD97":2549860.5299999998,"ADDRESS":"安豐四街１３７號","OBJECTID":533600},"geometry":{"x":169662.20999999996,"y":2549860.5299999993}}]}