{"displayFieldName":"TOWNNAME","fieldAliases":{"ID":"ID","DIS_CODE":"DIS_CODE","TOWNNAME":"TOWNNAME","LI":"LI","LIN":"LIN","STREET":"STREET","SECT":"SECT","MAREA":"MAREA","LANE":"LANE","ALLEY":"ALLEY","HOUSE_NO":"HOUSE_NO","E_COORD97":"E_COORD97","N_COORD97":"N_COORD97","ADDRESS":"ADDRESS","OBJECTID":"OBJECTID"},"geometryType":"esriGeometryPoint","spatialReference":{"wkid":102443,"latestWkid":3826},"fields":[{"name":"ID","type":"esriFieldTypeDouble","alias":"ID"},{"name":"DIS_CODE","type":"esriFieldTypeInteger","alias":"DIS_CODE"},{"name":"TOWNNAME","type":"esriFieldTypeString","alias":"TOWNNAME","length":8},{"name":"LI","type":"esriFieldTypeString","alias":"LI","length":8},{"name":"LIN","type":"esriFieldTypeString","alias":"LIN","length":12},{"name":"STREET","type":"esriFieldTypeString","alias":"STREET","length":20},{"name":"SECT","type":"esriFieldTypeString","alias":"SECT","length":8},{"name":"MAREA","type":"esriFieldTypeString","alias":"MAREA","length":12},{"name":"LANE","type":"esriFieldTypeString","alias":"LANE","length":10},{"name":"ALLEY","type":"esriFieldTypeString","alias":"ALLEY","length":10},{"name":"HOUSE_NO","type":"esriFieldTypeString","alias":"HOUSE_NO","length":20},{"name":"E_COORD97","type":"esriFieldTypeDouble","alias":"E_COORD97"},{"name":"N_COORD97","type":"esriFieldTypeDouble","alias":"N_COORD97"},{"name":"ADDRESS","type":"esriFieldTypeString","alias":"ADDRESS","length":50},{"name":"OBJECTID","type":"esriFieldTypeOID","alias":"OBJECTID"}],"features":[{"attributes":{"ID":403425,"DIS_CODE":0,"TOWNNAME":"仁德區","LI":"二行里","LIN":"11鄰","STREET":"中正西路","SECT":" ","MAREA":" ","LANE":"２１１巷","ALLEY":" ","HOUSE_NO":"８４號","E_COORD97":170032.20999999999,"N_COORD97":2535144,"ADDRESS":"中正西路２１１巷８４號","OBJECTID":403401},"geometry":{"x":170032.20999999996,"y":2535144}},{"attributes":{"ID":403426,"DIS_CODE":0,"TOWNNAME":"仁德區","LI":"成功里","LIN":"44鄰","STREET":"文賢路","SECT":"一段","MAREA":" ","LANE":"９３巷","ALLEY":" ","HOUSE_NO":"８號","E_COORD97":170345.17999999999,"N_COORD97":2538173.8199999998,"ADDRESS":"文賢路一段９３巷８號","OBJECTID":403402},"geometry":{"x":170345.1799999997,"y":2538173.8199999984}},{"attributes":{"ID":403427,"DIS_CODE":0,"TOWNNAME":"仁德區","LI":"仁義里","LIN":"13鄰","STREET":"中山路","SECT":" ","MAREA":" ","LANE":"１２４巷","ALLEY":" ","HOUSE_NO":"２５號","E_COORD97":174596.92999999999,"N_COORD97":2541233.75,"ADDRESS":"中山路１２４巷２５號","OBJECTID":403403},"geometry":{"x":174596.9299999997,"y":2541233.7500000019}},{"attributes":{"ID":403428,"DIS_CODE":0,"TOWNNAME":"仁德區","LI":"保安里","LIN":"10鄰","STREET":"中正路","SECT":"一段","MAREA":" ","LANE":"２５１巷","ALLEY":" ","HOUSE_NO":"６號","E_COORD97":171799.07000000001,"N_COORD97":2536007.27,"ADDRESS":"中正路一段２５１巷６號","OBJECTID":403404},"geometry":{"x":171799.07000000123,"y":2536007.2700000033}},{"attributes":{"ID":403429,"DIS_CODE":0,"TOWNNAME":"新化區","LI":"護國里","LIN":"11鄰","STREET":"中山路","SECT":" ","MAREA":" ","LANE":"３巷","ALLEY":" ","HOUSE_NO":"８５號","E_COORD97":180985.16,"N_COORD97":2549173.25,"ADDRESS":"中山路３巷８５號","OBJECTID":403405},"geometry":{"x":180985.16000000015,"y":2549173.2500000019}},{"attributes":{"ID":403430,"DIS_CODE":0,"TOWNNAME":"新化區","LI":"護國里","LIN":"11鄰","STREET":"中山路","SECT":" ","MAREA":" ","LANE":"１９巷","ALLEY":" ","HOUSE_NO":"４８號","E_COORD97":180334.31,"N_COORD97":2549342.25,"ADDRESS":"中山路１９巷４８號","OBJECTID":403406},"geometry":{"x":180334.30999999959,"y":2549342.2500000037}},{"attributes":{"ID":403431,"DIS_CODE":0,"TOWNNAME":"新化區","LI":"護國里","LIN":"11鄰","STREET":"中山路","SECT":" ","MAREA":" ","LANE":"３９巷","ALLEY":" ","HOUSE_NO":"５０號","E_COORD97":180280.91,"N_COORD97":2549625.25,"ADDRESS":"中山路３９巷５０號","OBJECTID":403407},"geometry":{"x":180280.91000000108,"y":2549625.25}},{"attributes":{"ID":403432,"DIS_CODE":0,"TOWNNAME":"新化區","LI":"太平里","LIN":"11鄰","STREET":"中正路","SECT":" ","MAREA":" ","LANE":"６９１巷","ALLEY":" ","HOUSE_NO":"６號","E_COORD97":178786.20999999999,"N_COORD97":2549075.2400000002,"ADDRESS":"中正路６９１巷６號","OBJECTID":403408},"geometry":{"x":178786.20999999996,"y":2549075.2400000021}},{"attributes":{"ID":403433,"DIS_CODE":0,"TOWNNAME":"新化區","LI":"護國里","LIN":"11鄰","STREET":"中山路","SECT":" ","MAREA":" ","LANE":"３巷","ALLEY":" ","HOUSE_NO":"５３號之５","E_COORD97":181227.12,"N_COORD97":2549902.2599999998,"ADDRESS":"中山路３巷５３號之５","OBJECTID":403409},"geometry":{"x":181227.12000000104,"y":2549902.2600000016}},{"attributes":{"ID":403434,"DIS_CODE":0,"TOWNNAME":"仁德區","LI":"仁義里","LIN":"13鄰","STREET":"中山路","SECT":" ","MAREA":" ","LANE":"１２４巷","ALLEY":" ","HOUSE_NO":"１５號","E_COORD97":174613.37,"N_COORD97":2541215.2400000002,"ADDRESS":"中山路１２４巷１５號","OBJECTID":403410},"geometry":{"x":174613.37000000011,"y":2541215.2400000002}},{"attributes":{"ID":403435,"DIS_CODE":0,"TOWNNAME":"仁德區","LI":"仁義里","LIN":"1鄰","STREET":"中山路","SECT":" ","MAREA":" ","LANE":"９５巷","ALLEY":" ","HOUSE_NO":"６號","E_COORD97":174932.31,"N_COORD97":2541007.9900000002,"ADDRESS":"中山路９５巷６號","OBJECTID":403411},"geometry":{"x":174932.31000000145,"y":2541007.9900000021}},{"attributes":{"ID":403436,"DIS_CODE":0,"TOWNNAME":"新化區","LI":"協興里","LIN":"11鄰","STREET":"太平街","SECT":" ","MAREA":" ","LANE":"１５０巷","ALLEY":" ","HOUSE_NO":"１９２號","E_COORD97":178340.22,"N_COORD97":2548904.25,"ADDRESS":"太平街１５０巷１９２號","OBJECTID":403412},"geometry":{"x":178340.21999999881,"y":2548904.25}},{"attributes":{"ID":403437,"DIS_CODE":0,"TOWNNAME":"仁德區","LI":"田厝里","LIN":"10鄰","STREET":"田厝二街","SECT":" ","MAREA":" ","LANE":"８６巷","ALLEY":" ","HOUSE_NO":"３２號","E_COORD97":172394.35999999999,"N_COORD97":2537799.7400000002,"ADDRESS":"田厝二街８６巷３２號","OBJECTID":403413},"geometry":{"x":172394.36000000034,"y":2537799.7400000021}},{"attributes":{"ID":403438,"DIS_CODE":0,"TOWNNAME":"佳里區","LI":"鎮山里","LIN":"11鄰","STREET":"崇德街","SECT":" ","MAREA":" ","LANE":"８７巷","ALLEY":" ","HOUSE_NO":"１號","E_COORD97":166102.60999999999,"N_COORD97":2561619.4100000001,"ADDRESS":"崇德街８７巷１號","OBJECTID":403414},"geometry":{"x":166102.61000000127,"y":2561619.4100000001}},{"attributes":{"ID":403439,"DIS_CODE":0,"TOWNNAME":"佳里區","LI":"鎮山里","LIN":"11鄰","STREET":"崇德街","SECT":" ","MAREA":" ","LANE":"８７巷","ALLEY":" ","HOUSE_NO":"３號","E_COORD97":166103.26000000001,"N_COORD97":2561612.2200000002,"ADDRESS":"崇德街８７巷３號","OBJECTID":403415},"geometry":{"x":166103.26000000071,"y":2561612.2200000007}},{"attributes":{"ID":403440,"DIS_CODE":0,"TOWNNAME":"仁德區","LI":"太子里","LIN":"43鄰","STREET":"太子路","SECT":" ","MAREA":" ","LANE":"３１巷","ALLEY":" ","HOUSE_NO":"６１號","E_COORD97":175249.17000000001,"N_COORD97":2543122.0099999998,"ADDRESS":"太子路３１巷６１號","OBJECTID":403416},"geometry":{"x":175249.17000000086,"y":2543122.0100000035}},{"attributes":{"ID":403441,"DIS_CODE":0,"TOWNNAME":"佳里區","LI":"鎮山里","LIN":"11鄰","STREET":"崇德街","SECT":" ","MAREA":" ","LANE":"８７巷","ALLEY":" ","HOUSE_NO":"５號","E_COORD97":166104.76999999999,"N_COORD97":2561605.9199999999,"ADDRESS":"崇德街８７巷５號","OBJECTID":403417},"geometry":{"x":166104.76999999955,"y":2561605.9199999999}},{"attributes":{"ID":403442,"DIS_CODE":0,"TOWNNAME":"佳里區","LI":"鎮山里","LIN":"11鄰","STREET":"崇德街","SECT":" ","MAREA":" ","LANE":"９５巷","ALLEY":" ","HOUSE_NO":"１號","E_COORD97":166081.51000000001,"N_COORD97":2561616.8199999998,"ADDRESS":"崇德街９５巷１號","OBJECTID":403418},"geometry":{"x":166081.50999999978,"y":2561616.8200000003}},{"attributes":{"ID":403443,"DIS_CODE":0,"TOWNNAME":"佳里區","LI":"鎮山里","LIN":"11鄰","STREET":"崇德街","SECT":" ","MAREA":" ","LANE":"９５巷","ALLEY":" ","HOUSE_NO":"２號","E_COORD97":166067.64999999999,"N_COORD97":2561614.6600000001,"ADDRESS":"崇德街９５巷２號","OBJECTID":403419},"geometry":{"x":166067.65000000037,"y":2561614.6600000001}},{"attributes":{"ID":403444,"DIS_CODE":0,"TOWNNAME":"佳里區","LI":"鎮山里","LIN":"11鄰","STREET":"崇德街","SECT":" ","MAREA":" ","LANE":"９５巷","ALLEY":" ","HOUSE_NO":"３號","E_COORD97":166082.60999999999,"N_COORD97":2561611.9399999999,"ADDRESS":"崇德街９５巷３號","OBJECTID":403420},"geometry":{"x":166082.61000000127,"y":2561611.9399999995}},{"attributes":{"ID":403445,"DIS_CODE":0,"TOWNNAME":"佳里區","LI":"鎮山里","LIN":"11鄰","STREET":"崇德街","SECT":" ","MAREA":" ","LANE":"９５巷","ALLEY":" ","HOUSE_NO":"４號","E_COORD97":166068.04000000001,"N_COORD97":2561609.9199999999,"ADDRESS":"崇德街９５巷４號","OBJECTID":403421},"geometry":{"x":166068.04000000004,"y":2561609.9199999999}},{"attributes":{"ID":403446,"DIS_CODE":0,"TOWNNAME":"佳里區","LI":"鎮山里","LIN":"11鄰","STREET":"崇德街","SECT":" ","MAREA":" ","LANE":"９５巷","ALLEY":" ","HOUSE_NO":"５號","E_COORD97":166083.60999999999,"N_COORD97":2561606.8700000001,"ADDRESS":"崇德街９５巷５號","OBJECTID":403422},"geometry":{"x":166083.61000000034,"y":2561606.8700000029}},{"attributes":{"ID":403447,"DIS_CODE":0,"TOWNNAME":"佳里區","LI":"鎮山里","LIN":"11鄰","STREET":"崇德街","SECT":" ","MAREA":" ","LANE":"９５巷","ALLEY":" ","HOUSE_NO":"６號","E_COORD97":166068.89000000001,"N_COORD97":2561604.9700000002,"ADDRESS":"崇德街９５巷６號","OBJECTID":403423},"geometry":{"x":166068.88999999966,"y":2561604.9700000025}},{"attributes":{"ID":403448,"DIS_CODE":0,"TOWNNAME":"佳里區","LI":"鎮山里","LIN":"11鄰","STREET":"崇德街","SECT":" ","MAREA":" ","LANE":"９５巷","ALLEY":" ","HOUSE_NO":"７號","E_COORD97":166084.44,"N_COORD97":2561602.0600000001,"ADDRESS":"崇德街９５巷７號","OBJECTID":403424},"geometry":{"x":166084.44000000041,"y":2561602.0600000005}},{"attributes":{"ID":403449,"DIS_CODE":0,"TOWNNAME":"佳里區","LI":"鎮山里","LIN":"11鄰","STREET":"崇德街","SECT":" ","MAREA":" ","LANE":"９５巷","ALLEY":" ","HOUSE_NO":"８號","E_COORD97":166070.12,"N_COORD97":2561600.0800000001,"ADDRESS":"崇德街９５巷８號","OBJECTID":403425},"geometry":{"x":166070.12000000104,"y":2561600.0800000019}},{"attributes":{"ID":403450,"DIS_CODE":0,"TOWNNAME":"仁德區","LI":"仁德里","LIN":"43鄰","STREET":"中山路","SECT":" ","MAREA":" ","LANE":"９１０巷","ALLEY":" ","HOUSE_NO":"１０號","E_COORD97":172013.51999999999,"N_COORD97":2541736.7400000002,"ADDRESS":"中山路９１０巷１０號","OBJECTID":403426},"geometry":{"x":172013.52000000048,"y":2541736.7400000002}},{"attributes":{"ID":403451,"DIS_CODE":0,"TOWNNAME":"仁德區","LI":"仁德里","LIN":"4鄰","STREET":"中正路","SECT":"二段","MAREA":" ","LANE":"８６７巷","ALLEY":" ","HOUSE_NO":"１２號","E_COORD97":173377.17999999999,"N_COORD97":2540573.02,"ADDRESS":"中正路二段８６７巷１２號","OBJECTID":403427},"geometry":{"x":173377.18000000063,"y":2540573.0200000014}},{"attributes":{"ID":403452,"DIS_CODE":0,"TOWNNAME":"仁德區","LI":"仁德里","LIN":"4鄰","STREET":"中正路","SECT":"二段","MAREA":" ","LANE":"８６７巷","ALLEY":" ","HOUSE_NO":"１號","E_COORD97":173400.64999999999,"N_COORD97":2540546.5299999998,"ADDRESS":"中正路二段８６７巷１號","OBJECTID":403428},"geometry":{"x":173400.6500000013,"y":2540546.5299999993}},{"attributes":{"ID":403453,"DIS_CODE":0,"TOWNNAME":"歸仁區","LI":"南保里","LIN":"11鄰","STREET":"文化十街","SECT":" ","MAREA":" ","LANE":"１０巷","ALLEY":" ","HOUSE_NO":"３８號","E_COORD97":176663.87,"N_COORD97":2541255.2599999998,"ADDRESS":"文化十街１０巷３８號","OBJECTID":403429},"geometry":{"x":176663.87000000104,"y":2541255.2599999998}},{"attributes":{"ID":403454,"DIS_CODE":0,"TOWNNAME":"歸仁區","LI":"南保里","LIN":"11鄰","STREET":"文化十街","SECT":" ","MAREA":" ","LANE":"１０巷","ALLEY":" ","HOUSE_NO":"４２號","E_COORD97":176673.07000000001,"N_COORD97":2541254.2599999998,"ADDRESS":"文化十街１０巷４２號","OBJECTID":403430},"geometry":{"x":176673.0700000003,"y":2541254.2599999998}},{"attributes":{"ID":403455,"DIS_CODE":0,"TOWNNAME":"歸仁區","LI":"南保里","LIN":"11鄰","STREET":"文化十街","SECT":" ","MAREA":" ","LANE":"１０巷","ALLEY":" ","HOUSE_NO":"４６號","E_COORD97":176685.37,"N_COORD97":2541257.2599999998,"ADDRESS":"文化十街１０巷４６號","OBJECTID":403431},"geometry":{"x":176685.37000000104,"y":2541257.2600000016}},{"attributes":{"ID":403456,"DIS_CODE":0,"TOWNNAME":"歸仁區","LI":"南保里","LIN":"11鄰","STREET":"文化十街","SECT":" ","MAREA":" ","LANE":"１０巷","ALLEY":" ","HOUSE_NO":"５２號","E_COORD97":176701.76999999999,"N_COORD97":2541256.2599999998,"ADDRESS":"文化十街１０巷５２號","OBJECTID":403432},"geometry":{"x":176701.76999999955,"y":2541256.2600000016}},{"attributes":{"ID":403457,"DIS_CODE":0,"TOWNNAME":"北區","LI":"賢北里","LIN":"11鄰","STREET":"賢北街","SECT":" ","MAREA":" ","LANE":"２５巷","ALLEY":" ","HOUSE_NO":"３號","E_COORD97":166281.64999999999,"N_COORD97":2545354.4700000002,"ADDRESS":"賢北街２５巷３號","OBJECTID":403433},"geometry":{"x":166281.65000000037,"y":2545354.4700000025}},{"attributes":{"ID":403458,"DIS_CODE":0,"TOWNNAME":"歸仁區","LI":"南保里","LIN":"11鄰","STREET":"文化十街","SECT":" ","MAREA":" ","LANE":"１０巷","ALLEY":" ","HOUSE_NO":"３２號","E_COORD97":176650.47,"N_COORD97":2541254.2599999998,"ADDRESS":"文化十街１０巷３２號","OBJECTID":403434},"geometry":{"x":176650.47000000067,"y":2541254.2599999998}},{"attributes":{"ID":403459,"DIS_CODE":0,"TOWNNAME":"仁德區","LI":"太子里","LIN":"43鄰","STREET":"太子路","SECT":" ","MAREA":" ","LANE":"１０１巷","ALLEY":" ","HOUSE_NO":"１５號","E_COORD97":174933.07000000001,"N_COORD97":2543482.75,"ADDRESS":"太子路１０１巷１５號","OBJECTID":403435},"geometry":{"x":174933.07000000123,"y":2543482.75}},{"attributes":{"ID":403460,"DIS_CODE":0,"TOWNNAME":"歸仁區","LI":"崙頂里","LIN":"11鄰","STREET":"成功路","SECT":"二段","MAREA":" ","LANE":"１３１巷","ALLEY":" ","HOUSE_NO":"２７號","E_COORD97":178051.42999999999,"N_COORD97":2539703.25,"ADDRESS":"成功路二段１３１巷２７號","OBJECTID":403436},"geometry":{"x":178051.43000000063,"y":2539703.2500000037}},{"attributes":{"ID":403461,"DIS_CODE":0,"TOWNNAME":"歸仁區","LI":"崙頂里","LIN":"11鄰","STREET":"成功路","SECT":"二段","MAREA":" ","LANE":"１３１巷","ALLEY":" ","HOUSE_NO":"９號","E_COORD97":178009.07999999999,"N_COORD97":2539709.25,"ADDRESS":"成功路二段１３１巷９號","OBJECTID":403437},"geometry":{"x":178009.08000000007,"y":2539709.25}},{"attributes":{"ID":403462,"DIS_CODE":0,"TOWNNAME":"歸仁區","LI":"許厝里","LIN":"11鄰","STREET":"公園路","SECT":" ","MAREA":" ","LANE":"４９巷","ALLEY":" ","HOUSE_NO":"５號","E_COORD97":178158.57000000001,"N_COORD97":2540537.1000000001,"ADDRESS":"公園路４９巷５號","OBJECTID":403438},"geometry":{"x":178158.5700000003,"y":2540537.0999999996}},{"attributes":{"ID":403463,"DIS_CODE":0,"TOWNNAME":"歸仁區","LI":"崙頂里","LIN":"11鄰","STREET":"成功路","SECT":"二段","MAREA":" ","LANE":"１３１巷","ALLEY":" ","HOUSE_NO":"２號","E_COORD97":177995.67999999999,"N_COORD97":2539685.25,"ADDRESS":"成功路二段１３１巷２號","OBJECTID":403439},"geometry":{"x":177995.6799999997,"y":2539685.25}},{"attributes":{"ID":403464,"DIS_CODE":0,"TOWNNAME":"歸仁區","LI":"崙頂里","LIN":"11鄰","STREET":"成功路","SECT":"二段","MAREA":" ","LANE":"１３１巷","ALLEY":" ","HOUSE_NO":"１１號","E_COORD97":178015.53,"N_COORD97":2539709.25,"ADDRESS":"成功路二段１３１巷１１號","OBJECTID":403440},"geometry":{"x":178015.53000000119,"y":2539709.25}},{"attributes":{"ID":403465,"DIS_CODE":0,"TOWNNAME":"歸仁區","LI":"許厝里","LIN":"11鄰","STREET":"公園路","SECT":" ","MAREA":" ","LANE":"４９巷","ALLEY":" ","HOUSE_NO":"３號","E_COORD97":178157.57000000001,"N_COORD97":2540541.1000000001,"ADDRESS":"公園路４９巷３號","OBJECTID":403441},"geometry":{"x":178157.57000000123,"y":2540541.0999999978}},{"attributes":{"ID":403466,"DIS_CODE":0,"TOWNNAME":"歸仁區","LI":"崙頂里","LIN":"11鄰","STREET":"成功路","SECT":"二段","MAREA":" ","LANE":"１５３巷","ALLEY":" ","HOUSE_NO":"２５號","E_COORD97":177970.23000000001,"N_COORD97":2539679.25,"ADDRESS":"成功路二段１５３巷２５號","OBJECTID":403442},"geometry":{"x":177970.23000000138,"y":2539679.2499999981}},{"attributes":{"ID":403467,"DIS_CODE":0,"TOWNNAME":"仁德區","LI":"太子里","LIN":"43鄰","STREET":"太子路","SECT":" ","MAREA":" ","LANE":"１０１巷","ALLEY":" ","HOUSE_NO":"３１號","E_COORD97":174954.20000000001,"N_COORD97":2543479,"ADDRESS":"太子路１０１巷３１號","OBJECTID":403443},"geometry":{"x":174954.20000000112,"y":2543479.0000000019}},{"attributes":{"ID":403468,"DIS_CODE":0,"TOWNNAME":"歸仁區","LI":"崙頂里","LIN":"11鄰","STREET":"成功路","SECT":"二段","MAREA":" ","LANE":"１３１巷","ALLEY":" ","HOUSE_NO":"１７號","E_COORD97":178028.82999999999,"N_COORD97":2539707.25,"ADDRESS":"成功路二段１３１巷１７號","OBJECTID":403444},"geometry":{"x":178028.83000000101,"y":2539707.2500000019}},{"attributes":{"ID":403469,"DIS_CODE":0,"TOWNNAME":"歸仁區","LI":"崙頂里","LIN":"11鄰","STREET":"成功路","SECT":"二段","MAREA":" ","LANE":"１３１巷","ALLEY":" ","HOUSE_NO":"１５號","E_COORD97":178023.73000000001,"N_COORD97":2539707.25,"ADDRESS":"成功路二段１３１巷１５號","OBJECTID":403445},"geometry":{"x":178023.73000000045,"y":2539707.2500000019}},{"attributes":{"ID":403470,"DIS_CODE":0,"TOWNNAME":"北區","LI":"賢北里","LIN":"11鄰","STREET":"賢北街","SECT":" ","MAREA":" ","LANE":"２５巷","ALLEY":" ","HOUSE_NO":"１０號","E_COORD97":166253.70999999999,"N_COORD97":2545382.8500000001,"ADDRESS":"賢北街２５巷１０號","OBJECTID":403446},"geometry":{"x":166253.70999999996,"y":2545382.8499999996}},{"attributes":{"ID":403471,"DIS_CODE":0,"TOWNNAME":"北區","LI":"賢北里","LIN":"11鄰","STREET":"賢北街","SECT":" ","MAREA":" ","LANE":"２５巷","ALLEY":" ","HOUSE_NO":"１１號","E_COORD97":166263.87,"N_COORD97":2545347.6200000001,"ADDRESS":"賢北街２５巷１１號","OBJECTID":403447},"geometry":{"x":166263.87000000104,"y":2545347.6200000029}},{"attributes":{"ID":403472,"DIS_CODE":0,"TOWNNAME":"北區","LI":"賢北里","LIN":"11鄰","STREET":"賢北街","SECT":" ","MAREA":" ","LANE":"２５巷","ALLEY":" ","HOUSE_NO":"１２號","E_COORD97":166249.07000000001,"N_COORD97":2545380.75,"ADDRESS":"賢北街２５巷１２號","OBJECTID":403448},"geometry":{"x":166249.07000000123,"y":2545380.75}},{"attributes":{"ID":403473,"DIS_CODE":0,"TOWNNAME":"北區","LI":"賢北里","LIN":"11鄰","STREET":"賢北街","SECT":" ","MAREA":" ","LANE":"２５巷","ALLEY":" ","HOUSE_NO":"１３號","E_COORD97":166258.97,"N_COORD97":2545345.6699999999,"ADDRESS":"賢北街２５巷１３號","OBJECTID":403449},"geometry":{"x":166258.97000000067,"y":2545345.6700000018}},{"attributes":{"ID":403474,"DIS_CODE":0,"TOWNNAME":"北區","LI":"賢北里","LIN":"11鄰","STREET":"賢北街","SECT":" ","MAREA":" ","LANE":"２５巷","ALLEY":" ","HOUSE_NO":"１４號","E_COORD97":166245.48999999999,"N_COORD97":2545378.4300000002,"ADDRESS":"賢北街２５巷１４號","OBJECTID":403450},"geometry":{"x":166245.49000000209,"y":2545378.4300000016}},{"attributes":{"ID":403475,"DIS_CODE":0,"TOWNNAME":"北區","LI":"賢北里","LIN":"11鄰","STREET":"賢北街","SECT":" ","MAREA":" ","LANE":"２５巷","ALLEY":" ","HOUSE_NO":"１５號","E_COORD97":166254.57000000001,"N_COORD97":2545344.04,"ADDRESS":"賢北街２５巷１５號","OBJECTID":403451},"geometry":{"x":166254.5700000003,"y":2545344.0399999991}},{"attributes":{"ID":403476,"DIS_CODE":0,"TOWNNAME":"北區","LI":"賢北里","LIN":"11鄰","STREET":"賢北街","SECT":" ","MAREA":" ","LANE":"２５巷","ALLEY":" ","HOUSE_NO":"１６號","E_COORD97":166240.85000000001,"N_COORD97":2545376.75,"ADDRESS":"賢北街２５巷１６號","OBJECTID":403452},"geometry":{"x":166240.85000000149,"y":2545376.7500000019}},{"attributes":{"ID":403477,"DIS_CODE":0,"TOWNNAME":"北區","LI":"賢北里","LIN":"11鄰","STREET":"賢北街","SECT":" ","MAREA":" ","LANE":"２５巷","ALLEY":" ","HOUSE_NO":"１７號","E_COORD97":166249.84,"N_COORD97":2545341.9199999999,"ADDRESS":"賢北街２５巷１７號","OBJECTID":403453},"geometry":{"x":166249.84000000078,"y":2545341.9199999999}},{"attributes":{"ID":403478,"DIS_CODE":0,"TOWNNAME":"北區","LI":"賢北里","LIN":"11鄰","STREET":"賢北街","SECT":" ","MAREA":" ","LANE":"２５巷","ALLEY":" ","HOUSE_NO":"１８號","E_COORD97":166236,"N_COORD97":2545374.6400000001,"ADDRESS":"賢北街２５巷１８號","OBJECTID":403454},"geometry":{"x":166236,"y":2545374.6400000025}},{"attributes":{"ID":403479,"DIS_CODE":0,"TOWNNAME":"北區","LI":"賢北里","LIN":"11鄰","STREET":"賢北街","SECT":" ","MAREA":" ","LANE":"２５巷","ALLEY":" ","HOUSE_NO":"１９號","E_COORD97":166245.42999999999,"N_COORD97":2545339.9700000002,"ADDRESS":"賢北街２５巷１９號","OBJECTID":403455},"geometry":{"x":166245.43000000156,"y":2545339.9700000007}},{"attributes":{"ID":403480,"DIS_CODE":0,"TOWNNAME":"北區","LI":"賢北里","LIN":"11鄰","STREET":"賢北街","SECT":" ","MAREA":" ","LANE":"２５巷","ALLEY":" ","HOUSE_NO":"１號","E_COORD97":166286.38,"N_COORD97":2545356.75,"ADDRESS":"賢北街２５巷１號","OBJECTID":403456},"geometry":{"x":166286.37999999989,"y":2545356.75}},{"attributes":{"ID":403481,"DIS_CODE":0,"TOWNNAME":"北區","LI":"賢北里","LIN":"11鄰","STREET":"賢北街","SECT":" ","MAREA":" ","LANE":"２５巷","ALLEY":" ","HOUSE_NO":"２０號","E_COORD97":166230.73000000001,"N_COORD97":2545372.75,"ADDRESS":"賢北街２５巷２０號","OBJECTID":403457},"geometry":{"x":166230.73000000138,"y":2545372.7500000019}},{"attributes":{"ID":403482,"DIS_CODE":0,"TOWNNAME":"北區","LI":"賢北里","LIN":"11鄰","STREET":"賢北街","SECT":" ","MAREA":" ","LANE":"２５巷","ALLEY":" ","HOUSE_NO":"２１號","E_COORD97":166241.03,"N_COORD97":2545338.1699999999,"ADDRESS":"賢北街２５巷２１號","OBJECTID":403458},"geometry":{"x":166241.03000000026,"y":2545338.1699999999}},{"attributes":{"ID":403483,"DIS_CODE":0,"TOWNNAME":"北區","LI":"賢北里","LIN":"11鄰","STREET":"賢北街","SECT":" ","MAREA":" ","LANE":"２５巷","ALLEY":" ","HOUSE_NO":"２２號","E_COORD97":166225.88,"N_COORD97":2545370.8500000001,"ADDRESS":"賢北街２５巷２２號","OBJECTID":403459},"geometry":{"x":166225.88000000082,"y":2545370.8500000034}},{"attributes":{"ID":403484,"DIS_CODE":0,"TOWNNAME":"北區","LI":"賢北里","LIN":"11鄰","STREET":"賢北街","SECT":" ","MAREA":" ","LANE":"２５巷","ALLEY":" ","HOUSE_NO":"２３號","E_COORD97":166236.29999999999,"N_COORD97":2545335.5699999998,"ADDRESS":"賢北街２５巷２３號","OBJECTID":403460},"geometry":{"x":166236.30000000168,"y":2545335.5700000003}},{"attributes":{"ID":403485,"DIS_CODE":0,"TOWNNAME":"北區","LI":"賢北里","LIN":"11鄰","STREET":"賢北街","SECT":" ","MAREA":" ","LANE":"２５巷","ALLEY":" ","HOUSE_NO":"２４號","E_COORD97":166222.29999999999,"N_COORD97":2545368.3300000001,"ADDRESS":"賢北街２５巷２４號","OBJECTID":403461},"geometry":{"x":166222.29999999981,"y":2545368.3300000038}},{"attributes":{"ID":403486,"DIS_CODE":0,"TOWNNAME":"北區","LI":"賢北里","LIN":"11鄰","STREET":"賢北街","SECT":" ","MAREA":" ","LANE":"２５巷","ALLEY":" ","HOUSE_NO":"２５號","E_COORD97":166232.22,"N_COORD97":2545334.1000000001,"ADDRESS":"賢北街２５巷２５號","OBJECTID":403462},"geometry":{"x":166232.22000000067,"y":2545334.0999999996}},{"attributes":{"ID":403487,"DIS_CODE":0,"TOWNNAME":"北區","LI":"賢北里","LIN":"11鄰","STREET":"賢北街","SECT":" ","MAREA":" ","LANE":"２５巷","ALLEY":" ","HOUSE_NO":"２６號","E_COORD97":166217.66,"N_COORD97":2545366.4300000002,"ADDRESS":"賢北街２５巷２６號","OBJECTID":403463},"geometry":{"x":166217.66000000108,"y":2545366.4299999997}},{"attributes":{"ID":403488,"DIS_CODE":0,"TOWNNAME":"北區","LI":"賢北里","LIN":"11鄰","STREET":"賢北街","SECT":" ","MAREA":" ","LANE":"２５巷","ALLEY":" ","HOUSE_NO":"２７號","E_COORD97":166227.81,"N_COORD97":2545332.1499999999,"ADDRESS":"賢北街２５巷２７號","OBJECTID":403464},"geometry":{"x":166227.81000000052,"y":2545332.1499999985}},{"attributes":{"ID":403489,"DIS_CODE":0,"TOWNNAME":"北區","LI":"賢北里","LIN":"11鄰","STREET":"賢北街","SECT":" ","MAREA":" ","LANE":"２５巷","ALLEY":" ","HOUSE_NO":"２８號","E_COORD97":166213.23000000001,"N_COORD97":2545364.54,"ADDRESS":"賢北街２５巷２８號","OBJECTID":403465},"geometry":{"x":166213.23000000045,"y":2545364.5399999991}},{"attributes":{"ID":403490,"DIS_CODE":0,"TOWNNAME":"北區","LI":"賢北里","LIN":"11鄰","STREET":"賢北街","SECT":" ","MAREA":" ","LANE":"２５巷","ALLEY":" ","HOUSE_NO":"２９號","E_COORD97":166223.07999999999,"N_COORD97":2545330.0299999998,"ADDRESS":"賢北街２５巷２９號","OBJECTID":403466},"geometry":{"x":166223.08000000101,"y":2545330.0300000012}},{"attributes":{"ID":403491,"DIS_CODE":0,"TOWNNAME":"北區","LI":"賢北里","LIN":"11鄰","STREET":"賢北街","SECT":" ","MAREA":" ","LANE":"２５巷","ALLEY":" ","HOUSE_NO":"２號","E_COORD97":166272.26000000001,"N_COORD97":2545392.1200000001,"ADDRESS":"賢北街２５巷２號","OBJECTID":403467},"geometry":{"x":166272.26000000071,"y":2545392.1200000029}},{"attributes":{"ID":403492,"DIS_CODE":0,"TOWNNAME":"北區","LI":"賢北里","LIN":"11鄰","STREET":"賢北街","SECT":" ","MAREA":" ","LANE":"２５巷","ALLEY":" ","HOUSE_NO":"３０號","E_COORD97":166208.17999999999,"N_COORD97":2545361.7999999998,"ADDRESS":"賢北街２５巷３０號","OBJECTID":403468},"geometry":{"x":166208.18000000156,"y":2545361.8000000007}},{"attributes":{"ID":403493,"DIS_CODE":0,"TOWNNAME":"北區","LI":"賢北里","LIN":"11鄰","STREET":"賢北街","SECT":" ","MAREA":" ","LANE":"２５巷","ALLEY":" ","HOUSE_NO":"３１號","E_COORD97":166218.67999999999,"N_COORD97":2545328.0699999998,"ADDRESS":"賢北街２５巷３１號","OBJECTID":403469},"geometry":{"x":166218.68000000063,"y":2545328.0700000003}},{"attributes":{"ID":403494,"DIS_CODE":0,"TOWNNAME":"北區","LI":"賢北里","LIN":"11鄰","STREET":"賢北街","SECT":" ","MAREA":" ","LANE":"２５巷","ALLEY":" ","HOUSE_NO":"３２號","E_COORD97":166204.17000000001,"N_COORD97":2545360.75,"ADDRESS":"賢北街２５巷３２號","OBJECTID":403470},"geometry":{"x":166204.16999999993,"y":2545360.75}},{"attributes":{"ID":403495,"DIS_CODE":0,"TOWNNAME":"北區","LI":"賢北里","LIN":"11鄰","STREET":"賢北街","SECT":" ","MAREA":" ","LANE":"２５巷","ALLEY":" ","HOUSE_NO":"３３號","E_COORD97":166213.13,"N_COORD97":2545325.79,"ADDRESS":"賢北街２５巷３３號","OBJECTID":403471},"geometry":{"x":166213.12999999989,"y":2545325.7899999991}},{"attributes":{"ID":403496,"DIS_CODE":0,"TOWNNAME":"仁德區","LI":"成功里","LIN":"26鄰","STREET":"成功一街","SECT":" ","MAREA":" ","LANE":"４４巷","ALLEY":" ","HOUSE_NO":"１號","E_COORD97":170508.32000000001,"N_COORD97":2540021.27,"ADDRESS":"成功一街４４巷１號","OBJECTID":403472},"geometry":{"x":170508.31999999937,"y":2540021.2700000033}},{"attributes":{"ID":403497,"DIS_CODE":0,"TOWNNAME":"仁德區","LI":"仁德里","LIN":"43鄰","STREET":"中山路","SECT":" ","MAREA":" ","LANE":"９１０巷","ALLEY":" ","HOUSE_NO":"３號","E_COORD97":171990.98000000001,"N_COORD97":2541742.4900000002,"ADDRESS":"中山路９１０巷３號","OBJECTID":403473},"geometry":{"x":171990.98000000138,"y":2541742.4900000002}},{"attributes":{"ID":403498,"DIS_CODE":0,"TOWNNAME":"仁德區","LI":"仁義里","LIN":"45鄰","STREET":"仁義路","SECT":" ","MAREA":" ","LANE":"９８巷","ALLEY":" ","HOUSE_NO":"５０號","E_COORD97":173587.76000000001,"N_COORD97":2540843.27,"ADDRESS":"仁義路９８巷５０號","OBJECTID":403474},"geometry":{"x":173587.75999999978,"y":2540843.2700000014}},{"attributes":{"ID":403499,"DIS_CODE":0,"TOWNNAME":"仁德區","LI":"太子里","LIN":"23鄰","STREET":"長興四街","SECT":" ","MAREA":" ","LANE":"９０巷","ALLEY":" ","HOUSE_NO":"１５號","E_COORD97":173840.92000000001,"N_COORD97":2543636.7599999998,"ADDRESS":"長興四街９０巷１５號","OBJECTID":403475},"geometry":{"x":173840.92000000086,"y":2543636.7600000016}},{"attributes":{"ID":403500,"DIS_CODE":0,"TOWNNAME":"北區","LI":"賢北里","LIN":"11鄰","STREET":"賢北街","SECT":" ","MAREA":" ","LANE":"２５巷","ALLEY":" ","HOUSE_NO":"３４號","E_COORD97":166199.95000000001,"N_COORD97":2545358.8500000001,"ADDRESS":"賢北街２５巷３４號","OBJECTID":403476},"geometry":{"x":166199.95000000205,"y":2545358.8500000015}},{"attributes":{"ID":403501,"DIS_CODE":0,"TOWNNAME":"北區","LI":"賢北里","LIN":"11鄰","STREET":"賢北街","SECT":" ","MAREA":" ","LANE":"２５巷","ALLEY":" ","HOUSE_NO":"３５號","E_COORD97":166209.54000000001,"N_COORD97":2545323.6699999999,"ADDRESS":"賢北街２５巷３５號","OBJECTID":403477},"geometry":{"x":166209.54000000097,"y":2545323.6699999999}},{"attributes":{"ID":403502,"DIS_CODE":0,"TOWNNAME":"北區","LI":"賢北里","LIN":"11鄰","STREET":"賢北街","SECT":" ","MAREA":" ","LANE":"２５巷","ALLEY":" ","HOUSE_NO":"３６號","E_COORD97":166195.32000000001,"N_COORD97":2545355.9100000001,"ADDRESS":"賢北街２５巷３６號","OBJECTID":403478},"geometry":{"x":166195.3200000003,"y":2545355.9100000001}},{"attributes":{"ID":403503,"DIS_CODE":0,"TOWNNAME":"北區","LI":"賢北里","LIN":"11鄰","STREET":"賢北街","SECT":" ","MAREA":" ","LANE":"２５巷","ALLEY":" ","HOUSE_NO":"３７號","E_COORD97":166205.14000000001,"N_COORD97":2545322.04,"ADDRESS":"賢北街２５巷３７號","OBJECTID":403479},"geometry":{"x":166205.1400000006,"y":2545322.040000001}},{"attributes":{"ID":403504,"DIS_CODE":0,"TOWNNAME":"北區","LI":"賢北里","LIN":"11鄰","STREET":"賢北街","SECT":" ","MAREA":" ","LANE":"２５巷","ALLEY":" ","HOUSE_NO":"３８號","E_COORD97":166190.04999999999,"N_COORD97":2545354.0099999998,"ADDRESS":"賢北街２５巷３８號","OBJECTID":403480},"geometry":{"x":166190.04999999981,"y":2545354.0100000016}},{"attributes":{"ID":403505,"DIS_CODE":0,"TOWNNAME":"北區","LI":"賢北里","LIN":"11鄰","STREET":"賢北街","SECT":" ","MAREA":" ","LANE":"２５巷","ALLEY":" ","HOUSE_NO":"３９號","E_COORD97":166199.75,"N_COORD97":2545319.7599999998,"ADDRESS":"賢北街２５巷３９號","OBJECTID":403481},"geometry":{"x":166199.75000000093,"y":2545319.7599999998}},{"attributes":{"ID":403506,"DIS_CODE":0,"TOWNNAME":"北區","LI":"賢北里","LIN":"11鄰","STREET":"賢北街","SECT":" ","MAREA":" ","LANE":"２５巷","ALLEY":" ","HOUSE_NO":"４０號","E_COORD97":166184.78,"N_COORD97":2545352.54,"ADDRESS":"賢北街２５巷４０號","OBJECTID":403482},"geometry":{"x":166184.78000000119,"y":2545352.540000001}},{"attributes":{"ID":403507,"DIS_CODE":0,"TOWNNAME":"北區","LI":"賢北里","LIN":"11鄰","STREET":"賢北街","SECT":" ","MAREA":" ","LANE":"２５巷","ALLEY":" ","HOUSE_NO":"７號","E_COORD97":166273.17000000001,"N_COORD97":2545351.0499999998,"ADDRESS":"賢北街２５巷７號","OBJECTID":403483},"geometry":{"x":166273.17000000086,"y":2545351.0500000026}},{"attributes":{"ID":403508,"DIS_CODE":0,"TOWNNAME":"北區","LI":"賢北里","LIN":"11鄰","STREET":"賢北街","SECT":" ","MAREA":" ","LANE":"２５巷","ALLEY":" ","HOUSE_NO":"８號","E_COORD97":166258.56,"N_COORD97":2545384.96,"ADDRESS":"賢北街２５巷８號","OBJECTID":403484},"geometry":{"x":166258.56000000052,"y":2545384.9600000046}},{"attributes":{"ID":403509,"DIS_CODE":0,"TOWNNAME":"北區","LI":"賢北里","LIN":"11鄰","STREET":"賢北街","SECT":" ","MAREA":" ","LANE":"２５巷","ALLEY":" ","HOUSE_NO":"９號","E_COORD97":166267.78,"N_COORD97":2545349.7400000002,"ADDRESS":"賢北街２５巷９號","OBJECTID":403485},"geometry":{"x":166267.78000000119,"y":2545349.7400000021}},{"attributes":{"ID":403510,"DIS_CODE":0,"TOWNNAME":"北區","LI":"永祥里","LIN":"11鄰","STREET":"實踐街","SECT":" ","MAREA":" ","LANE":"７１巷","ALLEY":" ","HOUSE_NO":"２號","E_COORD97":169959.64999999999,"N_COORD97":2546034.5,"ADDRESS":"實踐街７１巷２號","OBJECTID":403486},"geometry":{"x":169959.65000000037,"y":2546034.4999999981}},{"attributes":{"ID":403511,"DIS_CODE":0,"TOWNNAME":"北區","LI":"永祥里","LIN":"11鄰","STREET":"實踐街","SECT":" ","MAREA":" ","LANE":"７１巷","ALLEY":" ","HOUSE_NO":"１０號","E_COORD97":169963.44,"N_COORD97":2546052.1499999999,"ADDRESS":"實踐街７１巷１０號","OBJECTID":403487},"geometry":{"x":169963.44000000041,"y":2546052.1500000022}},{"attributes":{"ID":403512,"DIS_CODE":0,"TOWNNAME":"北區","LI":"永祥里","LIN":"11鄰","STREET":"實踐街","SECT":" ","MAREA":" ","LANE":"７１巷","ALLEY":" ","HOUSE_NO":"１４號","E_COORD97":169965.60000000001,"N_COORD97":2546062.9199999999,"ADDRESS":"實踐街７１巷１４號","OBJECTID":403488},"geometry":{"x":169965.60000000056,"y":2546062.9200000018}},{"attributes":{"ID":403513,"DIS_CODE":0,"TOWNNAME":"北區","LI":"永祥里","LIN":"11鄰","STREET":"實踐街","SECT":" ","MAREA":" ","LANE":"７１巷","ALLEY":" ","HOUSE_NO":"１６號","E_COORD97":169967.13,"N_COORD97":2546072.3199999998,"ADDRESS":"實踐街７１巷１６號","OBJECTID":403489},"geometry":{"x":169967.13000000082,"y":2546072.3200000003}},{"attributes":{"ID":403514,"DIS_CODE":0,"TOWNNAME":"北區","LI":"永祥里","LIN":"11鄰","STREET":"實踐街","SECT":" ","MAREA":" ","LANE":"７１巷","ALLEY":" ","HOUSE_NO":"１８號","E_COORD97":169968.62,"N_COORD97":2546088.1099999999,"ADDRESS":"實踐街７１巷１８號","OBJECTID":403490},"geometry":{"x":169968.62000000011,"y":2546088.1100000013}},{"attributes":{"ID":403515,"DIS_CODE":0,"TOWNNAME":"北區","LI":"永祥里","LIN":"11鄰","STREET":"實踐街","SECT":" ","MAREA":" ","LANE":"７１巷","ALLEY":" ","HOUSE_NO":"２０號","E_COORD97":169968.84,"N_COORD97":2546094.3100000001,"ADDRESS":"實踐街７１巷２０號","OBJECTID":403491},"geometry":{"x":169968.84000000171,"y":2546094.3100000042}},{"attributes":{"ID":403516,"DIS_CODE":0,"TOWNNAME":"北區","LI":"永祥里","LIN":"11鄰","STREET":"實踐街","SECT":" ","MAREA":" ","LANE":"７１巷","ALLEY":" ","HOUSE_NO":"２２號","E_COORD97":169969.56,"N_COORD97":2546099.8300000001,"ADDRESS":"實踐街７１巷２２號","OBJECTID":403492},"geometry":{"x":169969.55999999959,"y":2546099.8300000001}},{"attributes":{"ID":403517,"DIS_CODE":0,"TOWNNAME":"北區","LI":"永祥里","LIN":"11鄰","STREET":"實踐街","SECT":" ","MAREA":" ","LANE":"７１巷","ALLEY":" ","HOUSE_NO":"２４號","E_COORD97":169969.48999999999,"N_COORD97":2546105,"ADDRESS":"實踐街７１巷２４號","OBJECTID":403493},"geometry":{"x":169969.49000000022,"y":2546105}},{"attributes":{"ID":403518,"DIS_CODE":0,"TOWNNAME":"仁德區","LI":"太子里","LIN":"22鄰","STREET":"長興四街","SECT":" ","MAREA":" ","LANE":"８２巷","ALLEY":" ","HOUSE_NO":"５號","E_COORD97":173867.59,"N_COORD97":2543590.25,"ADDRESS":"長興四街８２巷５號","OBJECTID":403494},"geometry":{"x":173867.58999999892,"y":2543590.2500000019}},{"attributes":{"ID":403519,"DIS_CODE":0,"TOWNNAME":"北區","LI":"永祥里","LIN":"11鄰","STREET":"實踐街","SECT":" ","MAREA":" ","LANE":"７１巷","ALLEY":" ","HOUSE_NO":"２６號","E_COORD97":169969.92999999999,"N_COORD97":2546110.3999999999,"ADDRESS":"實踐街７１巷２６號","OBJECTID":403495},"geometry":{"x":169969.93000000063,"y":2546110.4000000041}},{"attributes":{"ID":403520,"DIS_CODE":0,"TOWNNAME":"北區","LI":"永祥里","LIN":"11鄰","STREET":"實踐街","SECT":" ","MAREA":" ","LANE":"７１巷","ALLEY":" ","HOUSE_NO":"２８號","E_COORD97":169970.07999999999,"N_COORD97":2546114.7000000002,"ADDRESS":"實踐街７１巷２８號","OBJECTID":403496},"geometry":{"x":169970.08000000007,"y":2546114.7000000011}},{"attributes":{"ID":403521,"DIS_CODE":0,"TOWNNAME":"北區","LI":"永祥里","LIN":"11鄰","STREET":"實踐街","SECT":" ","MAREA":" ","LANE":"７１巷","ALLEY":" ","HOUSE_NO":"４８號","E_COORD97":169970.51999999999,"N_COORD97":2546157.0299999998,"ADDRESS":"實踐街７１巷４８號","OBJECTID":403497},"geometry":{"x":169970.51999999862,"y":2546157.0300000012}},{"attributes":{"ID":403522,"DIS_CODE":0,"TOWNNAME":"北區","LI":"永祥里","LIN":"11鄰","STREET":"實踐街","SECT":" ","MAREA":" ","LANE":"７１巷","ALLEY":" ","HOUSE_NO":"５０號","E_COORD97":169968.32999999999,"N_COORD97":2546168.3300000001,"ADDRESS":"實踐街７１巷５０號","OBJECTID":403498},"geometry":{"x":169968.33000000007,"y":2546168.3300000038}},{"attributes":{"ID":403523,"DIS_CODE":0,"TOWNNAME":"北區","LI":"永祥里","LIN":"11鄰","STREET":"實踐街","SECT":" ","MAREA":" ","LANE":"７１巷","ALLEY":" ","HOUSE_NO":"５０號之１","E_COORD97":169981.54000000001,"N_COORD97":2546165.7799999998,"ADDRESS":"實踐街７１巷５０號之１","OBJECTID":403499},"geometry":{"x":169981.54000000097,"y":2546165.7800000012}},{"attributes":{"ID":403524,"DIS_CODE":0,"TOWNNAME":"北區","LI":"永祥里","LIN":"11鄰","STREET":"實踐街","SECT":" ","MAREA":" ","LANE":"７１巷","ALLEY":" ","HOUSE_NO":"６號","E_COORD97":169959.57999999999,"N_COORD97":2546044.1400000001,"ADDRESS":"實踐街７１巷６號","OBJECTID":403500},"geometry":{"x":169959.58000000101,"y":2546044.1400000006}},{"attributes":{"ID":403525,"DIS_CODE":0,"TOWNNAME":"北區","LI":"永祥里","LIN":"11鄰","STREET":"實踐街","SECT":" ","MAREA":" ","LANE":"７１巷","ALLEY":" ","HOUSE_NO":"８號","E_COORD97":169960.51000000001,"N_COORD97":2546048.5800000001,"ADDRESS":"實踐街７１巷８號","OBJECTID":403501},"geometry":{"x":169960.50999999978,"y":2546048.5800000019}},{"attributes":{"ID":403526,"DIS_CODE":0,"TOWNNAME":"新營區","LI":"嘉芳里","LIN":"11鄰","STREET":"復興路","SECT":" ","MAREA":" ","LANE":"８０３巷","ALLEY":" ","HOUSE_NO":"１２號","E_COORD97":177112.10999999999,"N_COORD97":2578532.3799999999,"ADDRESS":"復興路８０３巷１２號","OBJECTID":403502},"geometry":{"x":177112.11000000034,"y":2578532.3800000008}},{"attributes":{"ID":403527,"DIS_CODE":0,"TOWNNAME":"新營區","LI":"新北里","LIN":"11鄰","STREET":"三興街","SECT":" ","MAREA":" ","LANE":"３０１巷","ALLEY":" ","HOUSE_NO":"５８號","E_COORD97":179185.01999999999,"N_COORD97":2579721.7000000002,"ADDRESS":"三興街３０１巷５８號","OBJECTID":403503},"geometry":{"x":179185.01999999955,"y":2579721.6999999993}},{"attributes":{"ID":403528,"DIS_CODE":0,"TOWNNAME":"仁德區","LI":"成功里","LIN":"5鄰","STREET":"成功三街","SECT":" ","MAREA":" ","LANE":"８１巷","ALLEY":" ","HOUSE_NO":"３號","E_COORD97":171204.41,"N_COORD97":2539838.5099999998,"ADDRESS":"成功三街８１巷３號","OBJECTID":403504},"geometry":{"x":171204.41000000201,"y":2539838.5100000016}},{"attributes":{"ID":403529,"DIS_CODE":0,"TOWNNAME":"仁德區","LI":"仁義里","LIN":"39鄰","STREET":"仁義五街","SECT":" ","MAREA":" ","LANE":"２４巷","ALLEY":" ","HOUSE_NO":"３號","E_COORD97":173554.48999999999,"N_COORD97":2540391.5099999998,"ADDRESS":"仁義五街２４巷３號","OBJECTID":403505},"geometry":{"x":173554.49000000022,"y":2540391.5099999998}},{"attributes":{"ID":403530,"DIS_CODE":0,"TOWNNAME":"南區","LI":"新興里","LIN":"11鄰","STREET":"新興路","SECT":" ","MAREA":" ","LANE":"２０巷","ALLEY":" ","HOUSE_NO":"１３號","E_COORD97":167673.51000000001,"N_COORD97":2542305.2999999998,"ADDRESS":"新興路２０巷１３號","OBJECTID":403506},"geometry":{"x":167673.50999999978,"y":2542305.3000000026}},{"attributes":{"ID":403531,"DIS_CODE":0,"TOWNNAME":"南區","LI":"新興里","LIN":"11鄰","STREET":"新興路","SECT":" ","MAREA":" ","LANE":"２０巷","ALLEY":" ","HOUSE_NO":"１５號","E_COORD97":167672.79000000001,"N_COORD97":2542301.7200000002,"ADDRESS":"新興路２０巷１５號","OBJECTID":403507},"geometry":{"x":167672.79000000097,"y":2542301.7200000025}},{"attributes":{"ID":403532,"DIS_CODE":0,"TOWNNAME":"南區","LI":"新興里","LIN":"11鄰","STREET":"新興路","SECT":" ","MAREA":" ","LANE":"２０巷","ALLEY":" ","HOUSE_NO":"１７號","E_COORD97":167673.51000000001,"N_COORD97":2542297.4199999999,"ADDRESS":"新興路２０巷１７號","OBJECTID":403508},"geometry":{"x":167673.50999999978,"y":2542297.4199999999}},{"attributes":{"ID":403533,"DIS_CODE":0,"TOWNNAME":"南區","LI":"新興里","LIN":"11鄰","STREET":"新興路","SECT":" ","MAREA":" ","LANE":"２０巷","ALLEY":" ","HOUSE_NO":"１９號","E_COORD97":167674.57999999999,"N_COORD97":2542291.3300000001,"ADDRESS":"新興路２０巷１９號","OBJECTID":403509},"geometry":{"x":167674.58000000101,"y":2542291.3300000001}},{"attributes":{"ID":403534,"DIS_CODE":0,"TOWNNAME":"南區","LI":"鯤鯓里","LIN":"11鄰","STREET":"鯤鯓路","SECT":" ","MAREA":" ","LANE":"１０２巷","ALLEY":" ","HOUSE_NO":"１６０號","E_COORD97":165099.07000000001,"N_COORD97":2540323.4700000002,"ADDRESS":"鯤鯓路１０２巷１６０號","OBJECTID":403510},"geometry":{"x":165099.07000000216,"y":2540323.4700000025}},{"attributes":{"ID":403535,"DIS_CODE":0,"TOWNNAME":"北區","LI":"延平里","LIN":"11鄰","STREET":"公園路","SECT":" ","MAREA":" ","LANE":"７８８巷","ALLEY":" ","HOUSE_NO":"３號","E_COORD97":169176.79999999999,"N_COORD97":2545782.5,"ADDRESS":"公園路７８８巷３號","OBJECTID":403511},"geometry":{"x":169176.79999999981,"y":2545782.5}},{"attributes":{"ID":403536,"DIS_CODE":0,"TOWNNAME":"南區","LI":"鯤鯓里","LIN":"11鄰","STREET":"鯤鯓路","SECT":" ","MAREA":" ","LANE":"１０２巷","ALLEY":" ","HOUSE_NO":"１６２號","E_COORD97":165097.29999999999,"N_COORD97":2540310.2799999998,"ADDRESS":"鯤鯓路１０２巷１６２號","OBJECTID":403512},"geometry":{"x":165097.30000000075,"y":2540310.2800000012}},{"attributes":{"ID":403537,"DIS_CODE":0,"TOWNNAME":"南區","LI":"鯤鯓里","LIN":"11鄰","STREET":"鯤鯓路","SECT":" ","MAREA":" ","LANE":"１０２巷","ALLEY":" ","HOUSE_NO":"１６４號","E_COORD97":165081,"N_COORD97":2540307.6200000001,"ADDRESS":"鯤鯓路１０２巷１６４號","OBJECTID":403513},"geometry":{"x":165081.00000000093,"y":2540307.620000001}},{"attributes":{"ID":403538,"DIS_CODE":0,"TOWNNAME":"南區","LI":"鯤鯓里","LIN":"11鄰","STREET":"鯤鯓路","SECT":" ","MAREA":" ","LANE":"１０２巷","ALLEY":" ","HOUSE_NO":"１６６號","E_COORD97":165071.20999999999,"N_COORD97":2540300.02,"ADDRESS":"鯤鯓路１０２巷１６６號","OBJECTID":403514},"geometry":{"x":165071.21000000089,"y":2540300.0199999996}},{"attributes":{"ID":403539,"DIS_CODE":0,"TOWNNAME":"南區","LI":"鯤鯓里","LIN":"11鄰","STREET":"鯤鯓路","SECT":" ","MAREA":" ","LANE":"１９４巷","ALLEY":" ","HOUSE_NO":"４８號","E_COORD97":165072.06,"N_COORD97":2540309.5499999998,"ADDRESS":"鯤鯓路１９４巷４８號","OBJECTID":403515},"geometry":{"x":165072.06000000052,"y":2540309.5500000026}},{"attributes":{"ID":403540,"DIS_CODE":0,"TOWNNAME":"南區","LI":"鯤鯓里","LIN":"11鄰","STREET":"鯤鯓路","SECT":" ","MAREA":" ","LANE":"１９４巷","ALLEY":" ","HOUSE_NO":"５０號","E_COORD97":165074.10000000001,"N_COORD97":2540319.5600000001,"ADDRESS":"鯤鯓路１９４巷５０號","OBJECTID":403516},"geometry":{"x":165074.09999999963,"y":2540319.5600000024}},{"attributes":{"ID":403541,"DIS_CODE":0,"TOWNNAME":"南區","LI":"鯤鯓里","LIN":"11鄰","STREET":"鯤鯓路","SECT":" ","MAREA":" ","LANE":"１９４巷","ALLEY":" ","HOUSE_NO":"５２號","E_COORD97":165084.62,"N_COORD97":2540330.5499999998,"ADDRESS":"鯤鯓路１９４巷５２號","OBJECTID":403517},"geometry":{"x":165084.62000000011,"y":2540330.5500000026}},{"attributes":{"ID":403542,"DIS_CODE":0,"TOWNNAME":"南區","LI":"鯤鯓里","LIN":"11鄰","STREET":"鯤鯓路","SECT":" ","MAREA":" ","LANE":"１９４巷","ALLEY":" ","HOUSE_NO":"５６號","E_COORD97":165087.07000000001,"N_COORD97":2540350.3999999999,"ADDRESS":"鯤鯓路１９４巷５６號","OBJECTID":403518},"geometry":{"x":165087.0700000003,"y":2540350.4000000041}},{"attributes":{"ID":403543,"DIS_CODE":0,"TOWNNAME":"南區","LI":"鯤鯓里","LIN":"11鄰","STREET":"鯤鯓路","SECT":" ","MAREA":" ","LANE":"２３２巷","ALLEY":" ","HOUSE_NO":"１００號","E_COORD97":165118.44,"N_COORD97":2540335.7799999998,"ADDRESS":"鯤鯓路２３２巷１００號","OBJECTID":403519},"geometry":{"x":165118.44000000041,"y":2540335.7799999993}},{"attributes":{"ID":403544,"DIS_CODE":0,"TOWNNAME":"南區","LI":"鯤鯓里","LIN":"11鄰","STREET":"鯤鯓路","SECT":" ","MAREA":" ","LANE":"２３２巷","ALLEY":" ","HOUSE_NO":"１０２號","E_COORD97":165125.32000000001,"N_COORD97":2540333.6099999999,"ADDRESS":"鯤鯓路２３２巷１０２號","OBJECTID":403520},"geometry":{"x":165125.32000000123,"y":2540333.6099999994}},{"attributes":{"ID":403545,"DIS_CODE":0,"TOWNNAME":"南區","LI":"鯤鯓里","LIN":"11鄰","STREET":"鯤鯓路","SECT":" ","MAREA":" ","LANE":"２３２巷","ALLEY":" ","HOUSE_NO":"９２號","E_COORD97":165091.87,"N_COORD97":2540367.7599999998,"ADDRESS":"鯤鯓路２３２巷９２號","OBJECTID":403521},"geometry":{"x":165091.87000000197,"y":2540367.7600000016}},{"attributes":{"ID":403546,"DIS_CODE":0,"TOWNNAME":"南區","LI":"鯤鯓里","LIN":"11鄰","STREET":"鯤鯓路","SECT":" ","MAREA":" ","LANE":"２３２巷","ALLEY":" ","HOUSE_NO":"９４號","E_COORD97":165100.92000000001,"N_COORD97":2540357.1400000001,"ADDRESS":"鯤鯓路２３２巷９４號","OBJECTID":403522},"geometry":{"x":165100.91999999993,"y":2540357.1400000025}},{"attributes":{"ID":403547,"DIS_CODE":0,"TOWNNAME":"南區","LI":"鯤鯓里","LIN":"11鄰","STREET":"鯤鯓路","SECT":" ","MAREA":" ","LANE":"２３２巷","ALLEY":" ","HOUSE_NO":"９６號","E_COORD97":165102.01000000001,"N_COORD97":2540344.8199999998,"ADDRESS":"鯤鯓路２３２巷９６號","OBJECTID":403523},"geometry":{"x":165102.00999999978,"y":2540344.8200000022}},{"attributes":{"ID":403548,"DIS_CODE":0,"TOWNNAME":"南區","LI":"鯤鯓里","LIN":"11鄰","STREET":"鯤鯓路","SECT":" ","MAREA":" ","LANE":"２３２巷","ALLEY":" ","HOUSE_NO":"９８號","E_COORD97":165103.22,"N_COORD97":2540340.1299999999,"ADDRESS":"鯤鯓路２３２巷９８號","OBJECTID":403524},"geometry":{"x":165103.22000000067,"y":2540340.1299999971}},{"attributes":{"ID":403549,"DIS_CODE":0,"TOWNNAME":"北區","LI":"延平里","LIN":"11鄰","STREET":"公園路","SECT":" ","MAREA":" ","LANE":"７８８巷","ALLEY":" ","HOUSE_NO":"１０號","E_COORD97":169184.94,"N_COORD97":2545767.6400000001,"ADDRESS":"公園路７８８巷１０號","OBJECTID":403525},"geometry":{"x":169184.94000000041,"y":2545767.6400000025}},{"attributes":{"ID":403550,"DIS_CODE":0,"TOWNNAME":"北區","LI":"延平里","LIN":"11鄰","STREET":"公園路","SECT":" ","MAREA":" ","LANE":"７８８巷","ALLEY":" ","HOUSE_NO":"１１號","E_COORD97":169191.67000000001,"N_COORD97":2545777.4500000002,"ADDRESS":"公園路７８８巷１１號","OBJECTID":403526},"geometry":{"x":169191.66999999993,"y":2545777.4500000011}},{"attributes":{"ID":403551,"DIS_CODE":0,"TOWNNAME":"北區","LI":"延平里","LIN":"11鄰","STREET":"公園路","SECT":" ","MAREA":" ","LANE":"７８８巷","ALLEY":" ","HOUSE_NO":"１２號","E_COORD97":169188.16,"N_COORD97":2545765.8199999998,"ADDRESS":"公園路７８８巷１２號","OBJECTID":403527},"geometry":{"x":169188.16000000015,"y":2545765.8200000022}},{"attributes":{"ID":403552,"DIS_CODE":0,"TOWNNAME":"北區","LI":"延平里","LIN":"11鄰","STREET":"公園路","SECT":" ","MAREA":" ","LANE":"７８８巷","ALLEY":" ","HOUSE_NO":"１３號","E_COORD97":169195.32000000001,"N_COORD97":2545775.9100000001,"ADDRESS":"公園路７８８巷１３號","OBJECTID":403528},"geometry":{"x":169195.32000000123,"y":2545775.910000002}},{"attributes":{"ID":403553,"DIS_CODE":0,"TOWNNAME":"北區","LI":"延平里","LIN":"11鄰","STREET":"公園路","SECT":" ","MAREA":" ","LANE":"７８８巷","ALLEY":" ","HOUSE_NO":"１４號","E_COORD97":169192.51000000001,"N_COORD97":2545767.0800000001,"ADDRESS":"公園路７８８巷１４號","OBJECTID":403529},"geometry":{"x":169192.50999999978,"y":2545767.0800000019}},{"attributes":{"ID":403554,"DIS_CODE":0,"TOWNNAME":"北區","LI":"延平里","LIN":"11鄰","STREET":"公園路","SECT":" ","MAREA":" ","LANE":"７８８巷","ALLEY":" ","HOUSE_NO":"１５號","E_COORD97":169198.95999999999,"N_COORD97":2545774.5099999998,"ADDRESS":"公園路７８８巷１５號","OBJECTID":403530},"geometry":{"x":169198.96000000089,"y":2545774.5100000016}},{"attributes":{"ID":403555,"DIS_CODE":0,"TOWNNAME":"仁德區","LI":"仁德里","LIN":"18鄰","STREET":"文華路","SECT":"三段","MAREA":" ","LANE":"１８９巷","ALLEY":" ","HOUSE_NO":"４２號","E_COORD97":172149.39000000001,"N_COORD97":2540477.8199999998,"ADDRESS":"文華路三段１８９巷４２號","OBJECTID":403531},"geometry":{"x":172149.38999999966,"y":2540477.8200000003}},{"attributes":{"ID":403556,"DIS_CODE":0,"TOWNNAME":"仁德區","LI":"太子里","LIN":"46鄰","STREET":"太子一街","SECT":" ","MAREA":" ","LANE":"４３巷","ALLEY":" ","HOUSE_NO":"２６號","E_COORD97":174819.95000000001,"N_COORD97":2543300.7599999998,"ADDRESS":"太子一街４３巷２６號","OBJECTID":403532},"geometry":{"x":174819.95000000205,"y":2543300.7600000016}},{"attributes":{"ID":403557,"DIS_CODE":0,"TOWNNAME":"北區","LI":"延平里","LIN":"11鄰","STREET":"公園路","SECT":" ","MAREA":" ","LANE":"７８８巷","ALLEY":" ","HOUSE_NO":"１７號","E_COORD97":169202.60999999999,"N_COORD97":2545773.6699999999,"ADDRESS":"公園路７８８巷１７號","OBJECTID":403533},"geometry":{"x":169202.61000000034,"y":2545773.6700000018}},{"attributes":{"ID":403558,"DIS_CODE":0,"TOWNNAME":"北區","LI":"延平里","LIN":"11鄰","STREET":"公園路","SECT":" ","MAREA":" ","LANE":"７８８巷","ALLEY":" ","HOUSE_NO":"１８號","E_COORD97":169199.25,"N_COORD97":2545763.5800000001,"ADDRESS":"公園路７８８巷１８號","OBJECTID":403534},"geometry":{"x":169199.25,"y":2545763.5800000019}},{"attributes":{"ID":403559,"DIS_CODE":0,"TOWNNAME":"北區","LI":"延平里","LIN":"11鄰","STREET":"公園路","SECT":" ","MAREA":" ","LANE":"７８８巷","ALLEY":" ","HOUSE_NO":"１９號","E_COORD97":169205.98000000001,"N_COORD97":2545772.27,"ADDRESS":"公園路７８８巷１９號","OBJECTID":403535},"geometry":{"x":169205.98000000138,"y":2545772.2700000014}},{"attributes":{"ID":403560,"DIS_CODE":0,"TOWNNAME":"北區","LI":"延平里","LIN":"11鄰","STREET":"公園路","SECT":" ","MAREA":" ","LANE":"７８８巷","ALLEY":" ","HOUSE_NO":"１號","E_COORD97":169172.59,"N_COORD97":2545783.7599999998,"ADDRESS":"公園路７８８巷１號","OBJECTID":403536},"geometry":{"x":169172.59000000078,"y":2545783.7599999998}},{"attributes":{"ID":403561,"DIS_CODE":0,"TOWNNAME":"北區","LI":"延平里","LIN":"11鄰","STREET":"公園路","SECT":" ","MAREA":" ","LANE":"７８８巷","ALLEY":" ","HOUSE_NO":"２０號","E_COORD97":169202.89000000001,"N_COORD97":2545762.0299999998,"ADDRESS":"公園路７８８巷２０號","OBJECTID":403537},"geometry":{"x":169202.88999999966,"y":2545762.0299999993}},{"attributes":{"ID":403562,"DIS_CODE":0,"TOWNNAME":"北區","LI":"延平里","LIN":"11鄰","STREET":"公園路","SECT":" ","MAREA":" ","LANE":"７８８巷","ALLEY":" ","HOUSE_NO":"２１號","E_COORD97":169209.63,"N_COORD97":2545771.4300000002,"ADDRESS":"公園路７８８巷２１號","OBJECTID":403538},"geometry":{"x":169209.63000000082,"y":2545771.4300000016}},{"attributes":{"ID":403563,"DIS_CODE":0,"TOWNNAME":"北區","LI":"延平里","LIN":"11鄰","STREET":"公園路","SECT":" ","MAREA":" ","LANE":"７８８巷","ALLEY":" ","HOUSE_NO":"２２號","E_COORD97":169206.26000000001,"N_COORD97":2545759.6499999999,"ADDRESS":"公園路７８８巷２２號","OBJECTID":403539},"geometry":{"x":169206.25999999885,"y":2545759.6500000041}},{"attributes":{"ID":403564,"DIS_CODE":0,"TOWNNAME":"北區","LI":"延平里","LIN":"11鄰","STREET":"公園路","SECT":" ","MAREA":" ","LANE":"７８８巷","ALLEY":" ","HOUSE_NO":"２３號","E_COORD97":169213.56,"N_COORD97":2545769.8799999999,"ADDRESS":"公園路７８８巷２３號","OBJECTID":403540},"geometry":{"x":169213.55999999959,"y":2545769.8800000027}},{"attributes":{"ID":403565,"DIS_CODE":0,"TOWNNAME":"北區","LI":"延平里","LIN":"11鄰","STREET":"公園路","SECT":" ","MAREA":" ","LANE":"７８８巷","ALLEY":" ","HOUSE_NO":"２４號","E_COORD97":169211.45000000001,"N_COORD97":2545761.1899999999,"ADDRESS":"公園路７８８巷２４號","OBJECTID":403541},"geometry":{"x":169211.45000000112,"y":2545761.1899999995}},{"attributes":{"ID":403566,"DIS_CODE":0,"TOWNNAME":"北區","LI":"延平里","LIN":"11鄰","STREET":"公園路","SECT":" ","MAREA":" ","LANE":"７８８巷","ALLEY":" ","HOUSE_NO":"２５號","E_COORD97":169217.20000000001,"N_COORD97":2545769.3199999998,"ADDRESS":"公園路７８８巷２５號","OBJECTID":403542},"geometry":{"x":169217.20000000019,"y":2545769.3200000022}},{"attributes":{"ID":403567,"DIS_CODE":0,"TOWNNAME":"北區","LI":"延平里","LIN":"11鄰","STREET":"公園路","SECT":" ","MAREA":" ","LANE":"７８８巷","ALLEY":" ","HOUSE_NO":"２７號","E_COORD97":169222.67000000001,"N_COORD97":2545771,"ADDRESS":"公園路７８８巷２７號","OBJECTID":403543},"geometry":{"x":169222.67000000086,"y":2545771.0000000019}},{"attributes":{"ID":403568,"DIS_CODE":0,"TOWNNAME":"北區","LI":"延平里","LIN":"11鄰","STREET":"公園路","SECT":" ","MAREA":" ","LANE":"７８８巷","ALLEY":" ","HOUSE_NO":"２號","E_COORD97":169169.64000000001,"N_COORD97":2545774.23,"ADDRESS":"公園路７８８巷２號","OBJECTID":403544},"geometry":{"x":169169.63999999966,"y":2545774.2300000023}},{"attributes":{"ID":403569,"DIS_CODE":0,"TOWNNAME":"北區","LI":"延平里","LIN":"11鄰","STREET":"公園路","SECT":" ","MAREA":" ","LANE":"７８８巷","ALLEY":" ","HOUSE_NO":"４號","E_COORD97":169173.57000000001,"N_COORD97":2545772.5499999998,"ADDRESS":"公園路７８８巷４號","OBJECTID":403545},"geometry":{"x":169173.5700000003,"y":2545772.5500000007}},{"attributes":{"ID":403570,"DIS_CODE":0,"TOWNNAME":"北區","LI":"延平里","LIN":"11鄰","STREET":"公園路","SECT":" ","MAREA":" ","LANE":"７８８巷","ALLEY":" ","HOUSE_NO":"５號","E_COORD97":169180.31,"N_COORD97":2545780.8199999998,"ADDRESS":"公園路７８８巷５號","OBJECTID":403546},"geometry":{"x":169180.30999999866,"y":2545780.8200000003}},{"attributes":{"ID":403571,"DIS_CODE":0,"TOWNNAME":"北區","LI":"延平里","LIN":"11鄰","STREET":"公園路","SECT":" ","MAREA":" ","LANE":"７８８巷","ALLEY":" ","HOUSE_NO":"６號","E_COORD97":169178.06,"N_COORD97":2545771.4300000002,"ADDRESS":"公園路７８８巷６號","OBJECTID":403547},"geometry":{"x":169178.05999999959,"y":2545771.4300000016}},{"attributes":{"ID":403572,"DIS_CODE":0,"TOWNNAME":"北區","LI":"延平里","LIN":"11鄰","STREET":"公園路","SECT":" ","MAREA":" ","LANE":"７８８巷","ALLEY":" ","HOUSE_NO":"７號","E_COORD97":169184.23000000001,"N_COORD97":2545779.98,"ADDRESS":"公園路７８８巷７號","OBJECTID":403548},"geometry":{"x":169184.23000000138,"y":2545779.9800000004}},{"attributes":{"ID":403573,"DIS_CODE":0,"TOWNNAME":"北區","LI":"延平里","LIN":"11鄰","STREET":"公園路","SECT":" ","MAREA":" ","LANE":"７８８巷","ALLEY":" ","HOUSE_NO":"８號","E_COORD97":169181.57000000001,"N_COORD97":2545769.6000000001,"ADDRESS":"公園路７８８巷８號","OBJECTID":403549},"geometry":{"x":169181.57000000123,"y":2545769.6000000015}},{"attributes":{"ID":403574,"DIS_CODE":0,"TOWNNAME":"北區","LI":"延平里","LIN":"11鄰","STREET":"公園路","SECT":" ","MAREA":" ","LANE":"７８８巷","ALLEY":" ","HOUSE_NO":"９號","E_COORD97":169187.88,"N_COORD97":2545778.71,"ADDRESS":"公園路７８８巷９號","OBJECTID":403550},"geometry":{"x":169187.88000000082,"y":2545778.7100000009}},{"attributes":{"ID":403575,"DIS_CODE":0,"TOWNNAME":"仁德區","LI":"太子里","LIN":"22鄰","STREET":"長興四街","SECT":" ","MAREA":" ","LANE":"９０巷","ALLEY":" ","HOUSE_NO":"１２號","E_COORD97":173844.76000000001,"N_COORD97":2543625.0099999998,"ADDRESS":"長興四街９０巷１２號","OBJECTID":403551},"geometry":{"x":173844.76000000071,"y":2543625.0100000016}},{"attributes":{"ID":403576,"DIS_CODE":0,"TOWNNAME":"安平區","LI":"華平里","LIN":"11鄰","STREET":"怡平路","SECT":" ","MAREA":" ","LANE":"４４２巷","ALLEY":" ","HOUSE_NO":"６５號","E_COORD97":165302.92000000001,"N_COORD97":2544016.4500000002,"ADDRESS":"怡平路４４２巷６５號","OBJECTID":403552},"geometry":{"x":165302.91999999993,"y":2544016.4499999993}},{"attributes":{"ID":403577,"DIS_CODE":0,"TOWNNAME":"安平區","LI":"華平里","LIN":"11鄰","STREET":"怡平路","SECT":" ","MAREA":" ","LANE":"４４２巷","ALLEY":" ","HOUSE_NO":"６７號","E_COORD97":165304.26999999999,"N_COORD97":2544025.8300000001,"ADDRESS":"怡平路４４２巷６７號","OBJECTID":403553},"geometry":{"x":165304.27000000048,"y":2544025.8300000019}},{"attributes":{"ID":403578,"DIS_CODE":0,"TOWNNAME":"安平區","LI":"金城里","LIN":"11鄰","STREET":"同平路","SECT":" ","MAREA":" ","LANE":"１５６巷","ALLEY":" ","HOUSE_NO":"１號","E_COORD97":163127.76999999999,"N_COORD97":2544004.5800000001,"ADDRESS":"同平路１５６巷１號","OBJECTID":403554},"geometry":{"x":163127.77000000048,"y":2544004.5800000019}},{"attributes":{"ID":403579,"DIS_CODE":0,"TOWNNAME":"北區","LI":"中樓里","LIN":"11鄰","STREET":"開元路","SECT":" ","MAREA":" ","LANE":"６６巷","ALLEY":" ","HOUSE_NO":"１３號","E_COORD97":169734.20999999999,"N_COORD97":2545104.98,"ADDRESS":"開元路６６巷１３號","OBJECTID":403555},"geometry":{"x":169734.21000000183,"y":2545104.9800000004}},{"attributes":{"ID":403580,"DIS_CODE":0,"TOWNNAME":"北區","LI":"中樓里","LIN":"11鄰","STREET":"開元路","SECT":" ","MAREA":" ","LANE":"６６巷","ALLEY":" ","HOUSE_NO":"１５號","E_COORD97":169735.45000000001,"N_COORD97":2545100.2799999998,"ADDRESS":"開元路６６巷１５號","OBJECTID":403556},"geometry":{"x":169735.45000000019,"y":2545100.2800000012}},{"attributes":{"ID":403581,"DIS_CODE":0,"TOWNNAME":"北區","LI":"中樓里","LIN":"11鄰","STREET":"開元路","SECT":" ","MAREA":" ","LANE":"６６巷","ALLEY":" ","HOUSE_NO":"１７號","E_COORD97":169736.84,"N_COORD97":2545096.8100000001,"ADDRESS":"開元路６６巷１７號","OBJECTID":403557},"geometry":{"x":169736.84000000078,"y":2545096.8100000005}},{"attributes":{"ID":403582,"DIS_CODE":0,"TOWNNAME":"北區","LI":"中樓里","LIN":"11鄰","STREET":"開元路","SECT":" ","MAREA":" ","LANE":"６６巷","ALLEY":" ","HOUSE_NO":"１９號","E_COORD97":169737.76000000001,"N_COORD97":2545092.4199999999,"ADDRESS":"開元路６６巷１９號","OBJECTID":403558},"geometry":{"x":169737.76000000071,"y":2545092.4199999981}},{"attributes":{"ID":403583,"DIS_CODE":0,"TOWNNAME":"北區","LI":"中樓里","LIN":"11鄰","STREET":"開元路","SECT":" ","MAREA":" ","LANE":"６６巷","ALLEY":" ","HOUSE_NO":"１號","E_COORD97":169726.34,"N_COORD97":2545131.0099999998,"ADDRESS":"開元路６６巷１號","OBJECTID":403559},"geometry":{"x":169726.34000000171,"y":2545131.0099999998}},{"attributes":{"ID":403584,"DIS_CODE":0,"TOWNNAME":"北區","LI":"中樓里","LIN":"11鄰","STREET":"開元路","SECT":" ","MAREA":" ","LANE":"６６巷","ALLEY":" ","HOUSE_NO":"２１號","E_COORD97":169739.23000000001,"N_COORD97":2545088.02,"ADDRESS":"開元路６６巷２１號","OBJECTID":403560},"geometry":{"x":169739.23000000045,"y":2545088.0199999977}},{"attributes":{"ID":403585,"DIS_CODE":0,"TOWNNAME":"北區","LI":"中樓里","LIN":"11鄰","STREET":"開元路","SECT":" ","MAREA":" ","LANE":"６６巷","ALLEY":" ","HOUSE_NO":"２３號","E_COORD97":169740,"N_COORD97":2545083.48,"ADDRESS":"開元路６６巷２３號","OBJECTID":403561},"geometry":{"x":169740,"y":2545083.4800000023}},{"attributes":{"ID":403586,"DIS_CODE":0,"TOWNNAME":"北區","LI":"中樓里","LIN":"11鄰","STREET":"開元路","SECT":" ","MAREA":" ","LANE":"６６巷","ALLEY":" ","HOUSE_NO":"２５號","E_COORD97":169744.85999999999,"N_COORD97":2545071.0899999999,"ADDRESS":"開元路６６巷２５號","OBJECTID":403562},"geometry":{"x":169744.86000000034,"y":2545071.0900000036}},{"attributes":{"ID":403587,"DIS_CODE":0,"TOWNNAME":"北區","LI":"中樓里","LIN":"11鄰","STREET":"開元路","SECT":" ","MAREA":" ","LANE":"６６巷","ALLEY":" ","HOUSE_NO":"２７號","E_COORD97":169748.56,"N_COORD97":2545058.8700000001,"ADDRESS":"開元路６６巷２７號","OBJECTID":403563},"geometry":{"x":169748.56000000052,"y":2545058.870000001}},{"attributes":{"ID":403588,"DIS_CODE":0,"TOWNNAME":"中西區","LI":"仙草里","LIN":"13鄰","STREET":"南寧街","SECT":" ","MAREA":" ","LANE":"８３巷","ALLEY":" ","HOUSE_NO":"３號","E_COORD97":167823.04000000001,"N_COORD97":2542824.2400000002,"ADDRESS":"南寧街８３巷３號","OBJECTID":403564},"geometry":{"x":167823.04000000004,"y":2542824.2400000021}},{"attributes":{"ID":403589,"DIS_CODE":0,"TOWNNAME":"北區","LI":"中樓里","LIN":"11鄰","STREET":"開元路","SECT":" ","MAREA":" ","LANE":"６６巷","ALLEY":" ","HOUSE_NO":"２９號","E_COORD97":169751.64000000001,"N_COORD97":2545050.9300000002,"ADDRESS":"開元路６６巷２９號","OBJECTID":403565},"geometry":{"x":169751.6400000006,"y":2545050.9299999997}},{"attributes":{"ID":403590,"DIS_CODE":0,"TOWNNAME":"北區","LI":"中樓里","LIN":"11鄰","STREET":"開元路","SECT":" ","MAREA":" ","LANE":"６６巷","ALLEY":" ","HOUSE_NO":"３１號","E_COORD97":169754.73000000001,"N_COORD97":2545039.25,"ADDRESS":"開元路６６巷３１號","OBJECTID":403566},"geometry":{"x":169754.72999999952,"y":2545039.25}},{"attributes":{"ID":403591,"DIS_CODE":0,"TOWNNAME":"歸仁區","LI":"看西里","LIN":"11鄰","STREET":"成功六街","SECT":" ","MAREA":" ","LANE":"３８巷","ALLEY":" ","HOUSE_NO":"１０９號","E_COORD97":178434.73000000001,"N_COORD97":2540270.8300000001,"ADDRESS":"成功六街３８巷１０９號","OBJECTID":403567},"geometry":{"x":178434.73000000138,"y":2540270.8300000001}},{"attributes":{"ID":403592,"DIS_CODE":0,"TOWNNAME":"歸仁區","LI":"南興里","LIN":"11鄰","STREET":"民生二街","SECT":" ","MAREA":" ","LANE":"１４６巷","ALLEY":" ","HOUSE_NO":"３號","E_COORD97":176060.04000000001,"N_COORD97":2541367.29,"ADDRESS":"民生二街１４６巷３號","OBJECTID":403568},"geometry":{"x":176060.0400000019,"y":2541367.290000001}},{"attributes":{"ID":403593,"DIS_CODE":0,"TOWNNAME":"歸仁區","LI":"看西里","LIN":"11鄰","STREET":"成功六街","SECT":" ","MAREA":" ","LANE":"３８巷","ALLEY":" ","HOUSE_NO":"９號","E_COORD97":178418.53,"N_COORD97":2540197.8300000001,"ADDRESS":"成功六街３８巷９號","OBJECTID":403569},"geometry":{"x":178418.53000000212,"y":2540197.8300000038}},{"attributes":{"ID":403594,"DIS_CODE":0,"TOWNNAME":"歸仁區","LI":"歸南里","LIN":"11鄰","STREET":"民生南街","SECT":"二段","MAREA":" ","LANE":"２０３巷","ALLEY":" ","HOUSE_NO":"８號","E_COORD97":176128.23999999999,"N_COORD97":2540126.29,"ADDRESS":"民生南街二段２０３巷８號","OBJECTID":403570},"geometry":{"x":176128.24000000022,"y":2540126.290000001}},{"attributes":{"ID":403595,"DIS_CODE":0,"TOWNNAME":"歸仁區","LI":"歸南里","LIN":"11鄰","STREET":"民生南街","SECT":"二段","MAREA":" ","LANE":"１９１巷","ALLEY":" ","HOUSE_NO":"２９號","E_COORD97":176161.39000000001,"N_COORD97":2540167.29,"ADDRESS":"民生南街二段１９１巷２９號","OBJECTID":403571},"geometry":{"x":176161.3900000006,"y":2540167.290000001}},{"attributes":{"ID":403596,"DIS_CODE":0,"TOWNNAME":"歸仁區","LI":"歸南里","LIN":"11鄰","STREET":"民生南街","SECT":"二段","MAREA":" ","LANE":"１９１巷","ALLEY":" ","HOUSE_NO":"１２之１號","E_COORD97":176130.59,"N_COORD97":2540151.29,"ADDRESS":"民生南街二段１９１巷１２之１號","OBJECTID":403572},"geometry":{"x":176130.58999999985,"y":2540151.2899999991}},{"attributes":{"ID":403597,"DIS_CODE":0,"TOWNNAME":"歸仁區","LI":"許厝里","LIN":"11鄰","STREET":"公園路","SECT":" ","MAREA":" ","LANE":"４９巷","ALLEY":" ","HOUSE_NO":"１號","E_COORD97":178156.57000000001,"N_COORD97":2540546.1000000001,"ADDRESS":"公園路４９巷１號","OBJECTID":403573},"geometry":{"x":178156.5700000003,"y":2540546.1000000015}},{"attributes":{"ID":403598,"DIS_CODE":0,"TOWNNAME":"歸仁區","LI":"南興里","LIN":"11鄰","STREET":"民生二街","SECT":" ","MAREA":" ","LANE":"１４６巷","ALLEY":" ","HOUSE_NO":"９號","E_COORD97":176042.64000000001,"N_COORD97":2541368.29,"ADDRESS":"民生二街１４６巷９號","OBJECTID":403574},"geometry":{"x":176042.6400000006,"y":2541368.290000001}},{"attributes":{"ID":403599,"DIS_CODE":0,"TOWNNAME":"歸仁區","LI":"南興里","LIN":"11鄰","STREET":"民生二街","SECT":" ","MAREA":" ","LANE":"１４６巷","ALLEY":" ","HOUSE_NO":"１５號","E_COORD97":176026.39000000001,"N_COORD97":2541367.29,"ADDRESS":"民生二街１４６巷１５號","OBJECTID":403575},"geometry":{"x":176026.38999999966,"y":2541367.290000001}},{"attributes":{"ID":403600,"DIS_CODE":0,"TOWNNAME":"歸仁區","LI":"許厝里","LIN":"11鄰","STREET":"公園路","SECT":" ","MAREA":" ","LANE":"４９巷","ALLEY":" ","HOUSE_NO":"６號","E_COORD97":178145.26999999999,"N_COORD97":2540538.1000000001,"ADDRESS":"公園路４９巷６號","OBJECTID":403576},"geometry":{"x":178145.27000000048,"y":2540538.1000000034}},{"attributes":{"ID":403601,"DIS_CODE":0,"TOWNNAME":"歸仁區","LI":"崙頂里","LIN":"11鄰","STREET":"成功路","SECT":"二段","MAREA":" ","LANE":"１３１巷","ALLEY":" ","HOUSE_NO":"２１號","E_COORD97":178037.03,"N_COORD97":2539706.25,"ADDRESS":"成功路二段１３１巷２１號","OBJECTID":403577},"geometry":{"x":178037.03000000212,"y":2539706.25}},{"attributes":{"ID":403602,"DIS_CODE":0,"TOWNNAME":"歸仁區","LI":"南興里","LIN":"11鄰","STREET":"民生二街","SECT":" ","MAREA":" ","LANE":"１４６巷","ALLEY":" ","HOUSE_NO":"２８號","E_COORD97":175998.79000000001,"N_COORD97":2541381.29,"ADDRESS":"民生二街１４６巷２８號","OBJECTID":403578},"geometry":{"x":175998.79000000004,"y":2541381.290000001}},{"attributes":{"ID":403603,"DIS_CODE":0,"TOWNNAME":"歸仁區","LI":"南保里","LIN":"11鄰","STREET":"文化街","SECT":"三段","MAREA":" ","LANE":"１６０巷","ALLEY":" ","HOUSE_NO":"１２號","E_COORD97":176665.89000000001,"N_COORD97":2541234.3300000001,"ADDRESS":"文化街三段１６０巷１２號","OBJECTID":403579},"geometry":{"x":176665.89000000153,"y":2541234.3300000001}},{"attributes":{"ID":403604,"DIS_CODE":0,"TOWNNAME":"歸仁區","LI":"南保里","LIN":"11鄰","STREET":"文化十街","SECT":" ","MAREA":" ","LANE":"１０巷","ALLEY":" ","HOUSE_NO":"１２號","E_COORD97":176587.59,"N_COORD97":2541259.3300000001,"ADDRESS":"文化十街１０巷１２號","OBJECTID":403580},"geometry":{"x":176587.59000000078,"y":2541259.3300000019}},{"attributes":{"ID":403605,"DIS_CODE":0,"TOWNNAME":"歸仁區","LI":"六甲里","LIN":"11鄰","STREET":"中正南路","SECT":"一段","MAREA":" ","LANE":"１０４５巷","ALLEY":" ","HOUSE_NO":"３１號","E_COORD97":176041.60000000001,"N_COORD97":2539120.2799999998,"ADDRESS":"中正南路一段１０４５巷３１號","OBJECTID":403581},"geometry":{"x":176041.59999999963,"y":2539120.2800000012}},{"attributes":{"ID":403606,"DIS_CODE":0,"TOWNNAME":"歸仁區","LI":"大廟里","LIN":"11鄰","STREET":"大廟五街","SECT":" ","MAREA":" ","LANE":"２６巷","ALLEY":" ","HOUSE_NO":"８號","E_COORD97":175966.78,"N_COORD97":2544185.9900000002,"ADDRESS":"大廟五街２６巷８號","OBJECTID":403582},"geometry":{"x":175966.78000000026,"y":2544185.9900000002}},{"attributes":{"ID":403607,"DIS_CODE":0,"TOWNNAME":"玉井區","LI":"玉井里","LIN":"11鄰","STREET":"中正路","SECT":" ","MAREA":" ","LANE":"５１巷","ALLEY":" ","HOUSE_NO":"６號","E_COORD97":194832.89999999999,"N_COORD97":2558208.2400000002,"ADDRESS":"中正路５１巷６號","OBJECTID":403583},"geometry":{"x":194832.9000000013,"y":2558208.2400000039}},{"attributes":{"ID":403608,"DIS_CODE":0,"TOWNNAME":"玉井區","LI":"竹圍里","LIN":"11鄰","STREET":"中正路","SECT":" ","MAREA":" ","LANE":"９５０巷","ALLEY":" ","HOUSE_NO":"２１號","E_COORD97":196266.88,"N_COORD97":2559155.0600000001,"ADDRESS":"中正路９５０巷２１號","OBJECTID":403584},"geometry":{"x":196266.87999999989,"y":2559155.0600000005}},{"attributes":{"ID":403609,"DIS_CODE":0,"TOWNNAME":"玉井區","LI":"玉田里","LIN":"11鄰","STREET":"民主街","SECT":" ","MAREA":" ","LANE":"２０巷","ALLEY":" ","HOUSE_NO":"３號","E_COORD97":194849.13,"N_COORD97":2558031.29,"ADDRESS":"民主街２０巷３號","OBJECTID":403585},"geometry":{"x":194849.13000000082,"y":2558031.290000001}},{"attributes":{"ID":403610,"DIS_CODE":0,"TOWNNAME":"玉井區","LI":"玉田里","LIN":"11鄰","STREET":"民主街","SECT":" ","MAREA":" ","LANE":"１０巷","ALLEY":" ","HOUSE_NO":"２號","E_COORD97":194831.04000000001,"N_COORD97":2558005.29,"ADDRESS":"民主街１０巷２號","OBJECTID":403586},"geometry":{"x":194831.0400000019,"y":2558005.2899999991}},{"attributes":{"ID":403611,"DIS_CODE":0,"TOWNNAME":"玉井區","LI":"玉田里","LIN":"11鄰","STREET":"民主街","SECT":" ","MAREA":" ","LANE":"２０巷","ALLEY":" ","HOUSE_NO":"１號","E_COORD97":194839.23999999999,"N_COORD97":2558022.29,"ADDRESS":"民主街２０巷１號","OBJECTID":403587},"geometry":{"x":194839.24000000022,"y":2558022.2899999991}},{"attributes":{"ID":403612,"DIS_CODE":0,"TOWNNAME":"玉井區","LI":"竹圍里","LIN":"11鄰","STREET":"中正路","SECT":" ","MAREA":" ","LANE":"９８８巷","ALLEY":" ","HOUSE_NO":"４０號","E_COORD97":196335.29999999999,"N_COORD97":2559131.1200000001,"ADDRESS":"中正路９８８巷４０號","OBJECTID":403588},"geometry":{"x":196335.29999999981,"y":2559131.120000001}},{"attributes":{"ID":403613,"DIS_CODE":0,"TOWNNAME":"學甲區","LI":"慈福里","LIN":"11鄰","STREET":"民族路","SECT":" ","MAREA":" ","LANE":"４５巷","ALLEY":" ","HOUSE_NO":"１１號","E_COORD97":166515.79000000001,"N_COORD97":2570266.96,"ADDRESS":"民族路４５巷１１號","OBJECTID":403589},"geometry":{"x":166515.79000000004,"y":2570266.9600000046}},{"attributes":{"ID":403614,"DIS_CODE":0,"TOWNNAME":"學甲區","LI":"慈福里","LIN":"11鄰","STREET":"民族路","SECT":" ","MAREA":" ","LANE":"４５巷","ALLEY":" ","HOUSE_NO":"７號","E_COORD97":166544.92999999999,"N_COORD97":2570269.3900000001,"ADDRESS":"民族路４５巷７號","OBJECTID":403590},"geometry":{"x":166544.9299999997,"y":2570269.3900000006}},{"attributes":{"ID":403615,"DIS_CODE":0,"TOWNNAME":"學甲區","LI":"慈福里","LIN":"11鄰","STREET":"民族路","SECT":" ","MAREA":" ","LANE":"４５巷","ALLEY":" ","HOUSE_NO":"９號之１","E_COORD97":166526.54000000001,"N_COORD97":2570271.2000000002,"ADDRESS":"民族路４５巷９號之１","OBJECTID":403591},"geometry":{"x":166526.54000000097,"y":2570271.2000000011}},{"attributes":{"ID":403616,"DIS_CODE":0,"TOWNNAME":"學甲區","LI":"慈福里","LIN":"11鄰","STREET":"民族路","SECT":" ","MAREA":" ","LANE":"４５巷","ALLEY":" ","HOUSE_NO":"９號","E_COORD97":166532.69,"N_COORD97":2570272.46,"ADDRESS":"民族路４５巷９號","OBJECTID":403592},"geometry":{"x":166532.69000000134,"y":2570272.4600000009}},{"attributes":{"ID":403617,"DIS_CODE":0,"TOWNNAME":"北區","LI":"和順里","LIN":"11鄰","STREET":"臨安路","SECT":"二段","MAREA":" ","LANE":"２４９巷","ALLEY":" ","HOUSE_NO":"５９號","E_COORD97":168041.78,"N_COORD97":2545144.8700000001,"ADDRESS":"臨安路二段２４９巷５９號","OBJECTID":403593},"geometry":{"x":168041.78000000026,"y":2545144.8699999992}},{"attributes":{"ID":403618,"DIS_CODE":0,"TOWNNAME":"北區","LI":"和順里","LIN":"11鄰","STREET":"臨安路","SECT":"二段","MAREA":" ","LANE":"２４９巷","ALLEY":" ","HOUSE_NO":"６１號","E_COORD97":168042.17000000001,"N_COORD97":2545149.5800000001,"ADDRESS":"臨安路二段２４９巷６１號","OBJECTID":403594},"geometry":{"x":168042.16999999993,"y":2545149.5800000038}},{"attributes":{"ID":403619,"DIS_CODE":0,"TOWNNAME":"北區","LI":"和順里","LIN":"11鄰","STREET":"臨安路","SECT":"二段","MAREA":" ","LANE":"２４９巷","ALLEY":" ","HOUSE_NO":"６３號","E_COORD97":168041.97,"N_COORD97":2545153.5099999998,"ADDRESS":"臨安路二段２４９巷６３號","OBJECTID":403595},"geometry":{"x":168041.9700000016,"y":2545153.5100000016}},{"attributes":{"ID":403620,"DIS_CODE":0,"TOWNNAME":"北區","LI":"和順里","LIN":"11鄰","STREET":"臨安路","SECT":"二段","MAREA":" ","LANE":"２４９巷","ALLEY":" ","HOUSE_NO":"６５號","E_COORD97":168041.78,"N_COORD97":2545157.8300000001,"ADDRESS":"臨安路二段２４９巷６５號","OBJECTID":403596},"geometry":{"x":168041.78000000026,"y":2545157.8300000038}},{"attributes":{"ID":403621,"DIS_CODE":0,"TOWNNAME":"中西區","LI":"大涼里","LIN":"13鄰","STREET":"金城街","SECT":" ","MAREA":" ","LANE":" ","ALLEY":" ","HOUSE_NO":"５１號","E_COORD97":166897.10000000001,"N_COORD97":2543688.5299999998,"ADDRESS":"金城街５１號","OBJECTID":403597},"geometry":{"x":166897.10000000056,"y":2543688.5300000012}},{"attributes":{"ID":403622,"DIS_CODE":0,"TOWNNAME":"北區","LI":"和順里","LIN":"11鄰","STREET":"臨安路","SECT":"二段","MAREA":" ","LANE":"２４９巷","ALLEY":" ","HOUSE_NO":"６７號","E_COORD97":168041.57999999999,"N_COORD97":2545162.3500000001,"ADDRESS":"臨安路二段２４９巷６７號","OBJECTID":403598},"geometry":{"x":168041.58000000194,"y":2545162.3499999996}},{"attributes":{"ID":403623,"DIS_CODE":0,"TOWNNAME":"北區","LI":"和順里","LIN":"11鄰","STREET":"臨安路","SECT":"二段","MAREA":" ","LANE":"２４９巷","ALLEY":" ","HOUSE_NO":"６９號","E_COORD97":168041.39000000001,"N_COORD97":2545166.8700000001,"ADDRESS":"臨安路二段２４９巷６９號","OBJECTID":403599},"geometry":{"x":168041.3900000006,"y":2545166.8700000029}},{"attributes":{"ID":403624,"DIS_CODE":0,"TOWNNAME":"北區","LI":"和順里","LIN":"11鄰","STREET":"臨安路","SECT":"二段","MAREA":" ","LANE":"２４９巷","ALLEY":" ","HOUSE_NO":"７１號","E_COORD97":168041.19,"N_COORD97":2545171.1899999999,"ADDRESS":"臨安路二段２４９巷７１號","OBJECTID":403600},"geometry":{"x":168041.19000000227,"y":2545171.1899999995}}]}