{"displayFieldName":"TOWNNAME","fieldAliases":{"ID":"ID","DIS_CODE":"DIS_CODE","TOWNNAME":"TOWNNAME","LI":"LI","LIN":"LIN","STREET":"STREET","SECT":"SECT","MAREA":"MAREA","LANE":"LANE","ALLEY":"ALLEY","HOUSE_NO":"HOUSE_NO","E_COORD97":"E_COORD97","N_COORD97":"N_COORD97","ADDRESS":"ADDRESS","OBJECTID":"OBJECTID"},"geometryType":"esriGeometryPoint","spatialReference":{"wkid":102443,"latestWkid":3826},"fields":[{"name":"ID","type":"esriFieldTypeDouble","alias":"ID"},{"name":"DIS_CODE","type":"esriFieldTypeInteger","alias":"DIS_CODE"},{"name":"TOWNNAME","type":"esriFieldTypeString","alias":"TOWNNAME","length":8},{"name":"LI","type":"esriFieldTypeString","alias":"LI","length":8},{"name":"LIN","type":"esriFieldTypeString","alias":"LIN","length":12},{"name":"STREET","type":"esriFieldTypeString","alias":"STREET","length":20},{"name":"SECT","type":"esriFieldTypeString","alias":"SECT","length":8},{"name":"MAREA","type":"esriFieldTypeString","alias":"MAREA","length":12},{"name":"LANE","type":"esriFieldTypeString","alias":"LANE","length":10},{"name":"ALLEY","type":"esriFieldTypeString","alias":"ALLEY","length":10},{"name":"HOUSE_NO","type":"esriFieldTypeString","alias":"HOUSE_NO","length":20},{"name":"E_COORD97","type":"esriFieldTypeDouble","alias":"E_COORD97"},{"name":"N_COORD97","type":"esriFieldTypeDouble","alias":"N_COORD97"},{"name":"ADDRESS","type":"esriFieldTypeString","alias":"ADDRESS","length":50},{"name":"OBJECTID","type":"esriFieldTypeOID","alias":"OBJECTID"}],"features":[{"attributes":{"ID":649228,"DIS_CODE":0,"TOWNNAME":"玉井區","LI":"豐里里","LIN":"15鄰","STREET":" ","SECT":" ","MAREA":"豐里","LANE":" ","ALLEY":" ","HOUSE_NO":"１５７之２號","E_COORD97":194543.01918,"N_COORD97":2562744.1414800002,"ADDRESS":"豐里１５７之２號","OBJECTID":649201},"geometry":{"x":194543.0191799989,"y":2562744.1414750014}},{"attributes":{"ID":649229,"DIS_CODE":0,"TOWNNAME":"玉井區","LI":"豐里里","LIN":"15鄰","STREET":" ","SECT":" ","MAREA":"豐里","LANE":" ","ALLEY":" ","HOUSE_NO":"１５８號","E_COORD97":194995.44174400001,"N_COORD97":2563083.6546299998,"ADDRESS":"豐里１５８號","OBJECTID":649202},"geometry":{"x":194995.44174400065,"y":2563083.6546250004}},{"attributes":{"ID":649230,"DIS_CODE":0,"TOWNNAME":"玉井區","LI":"豐里里","LIN":"15鄰","STREET":" ","SECT":" ","MAREA":"豐里","LANE":" ","ALLEY":" ","HOUSE_NO":"１５９號","E_COORD97":194773.36265900001,"N_COORD97":2562738.0031499998,"ADDRESS":"豐里１５９號","OBJECTID":649203},"geometry":{"x":194773.36265900079,"y":2562738.003145}},{"attributes":{"ID":649231,"DIS_CODE":0,"TOWNNAME":"新市區","LI":"豐華里","LIN":"9鄰","STREET":"南科六路","SECT":" ","MAREA":" ","LANE":" ","ALLEY":" ","HOUSE_NO":"９號","E_COORD97":176325.457674,"N_COORD97":2556161.73826,"ADDRESS":"南科六路９號","OBJECTID":649204},"geometry":{"x":176325.45767400134,"y":2556161.738264}},{"attributes":{"ID":649232,"DIS_CODE":0,"TOWNNAME":"玉井區","LI":"豐里里","LIN":"15鄰","STREET":" ","SECT":" ","MAREA":"豐里","LANE":" ","ALLEY":" ","HOUSE_NO":"１５９之２號","E_COORD97":194767.641156,"N_COORD97":2562742.0248099999,"ADDRESS":"豐里１５９之２號","OBJECTID":649205},"geometry":{"x":194767.64115600102,"y":2562742.024809001}},{"attributes":{"ID":649233,"DIS_CODE":0,"TOWNNAME":"新市區","LI":"豐華里","LIN":"9鄰","STREET":"南科六路","SECT":" ","MAREA":" ","LANE":" ","ALLEY":" ","HOUSE_NO":"１號","E_COORD97":176530.969071,"N_COORD97":2556238.14989,"ADDRESS":"南科六路１號","OBJECTID":649206},"geometry":{"x":176530.96907100081,"y":2556238.14989}},{"attributes":{"ID":649234,"DIS_CODE":0,"TOWNNAME":"新市區","LI":"豐華里","LIN":"9鄰","STREET":"南科六路","SECT":" ","MAREA":" ","LANE":" ","ALLEY":" ","HOUSE_NO":"２之１號","E_COORD97":176520.16383199999,"N_COORD97":2556267.0423699999,"ADDRESS":"南科六路２之１號","OBJECTID":649207},"geometry":{"x":176520.16383200046,"y":2556267.0423740037}},{"attributes":{"ID":649235,"DIS_CODE":0,"TOWNNAME":"新市區","LI":"豐華里","LIN":"9鄰","STREET":"環東路","SECT":"一段","MAREA":" ","LANE":" ","ALLEY":" ","HOUSE_NO":"１００號","E_COORD97":176893.050491,"N_COORD97":2555104.4638399999,"ADDRESS":"環東路一段１００號","OBJECTID":649208},"geometry":{"x":176893.05049099959,"y":2555104.4638350047}},{"attributes":{"ID":649236,"DIS_CODE":0,"TOWNNAME":"東區","LI":"文聖里","LIN":"10鄰","STREET":"裕興街","SECT":" ","MAREA":" ","LANE":" ","ALLEY":" ","HOUSE_NO":"６０號","E_COORD97":172101.66968600001,"N_COORD97":2542640.9919199999,"ADDRESS":"裕興街６０號","OBJECTID":649209},"geometry":{"x":172101.66968600173,"y":2542640.9919240009}},{"attributes":{"ID":649237,"DIS_CODE":0,"TOWNNAME":"東區","LI":"文聖里","LIN":"20鄰","STREET":"裕文一街","SECT":" ","MAREA":" ","LANE":" ","ALLEY":" ","HOUSE_NO":"８０號","E_COORD97":172747.86132600001,"N_COORD97":2542695.0045500002,"ADDRESS":"裕文一街８０號","OBJECTID":649210},"geometry":{"x":172747.86132599972,"y":2542695.0045520011}},{"attributes":{"ID":649238,"DIS_CODE":0,"TOWNNAME":"東區","LI":"自強里","LIN":"27鄰","STREET":"中華東路","SECT":"二段","MAREA":" ","LANE":"１３３巷","ALLEY":" ","HOUSE_NO":"６８號","E_COORD97":171546.62561399999,"N_COORD97":2542818.90203,"ADDRESS":"中華東路二段１３３巷６８號","OBJECTID":649211},"geometry":{"x":171546.62561400048,"y":2542818.9020349998}},{"attributes":{"ID":649239,"DIS_CODE":0,"TOWNNAME":"東區","LI":"崇成里","LIN":"24鄰","STREET":"崇明二十三街","SECT":" ","MAREA":" ","LANE":" ","ALLEY":" ","HOUSE_NO":"９號二樓","E_COORD97":170667.85058500001,"N_COORD97":2540878.3291799999,"ADDRESS":"崇明二十三街９號二樓","OBJECTID":649212},"geometry":{"x":170667.85058500059,"y":2540878.329181999}},{"attributes":{"ID":649240,"DIS_CODE":0,"TOWNNAME":"東區","LI":"崇成里","LIN":"24鄰","STREET":"崇明二十三街","SECT":" ","MAREA":" ","LANE":" ","ALLEY":" ","HOUSE_NO":"９號三樓","E_COORD97":170667.85058500001,"N_COORD97":2540878.3291799999,"ADDRESS":"崇明二十三街９號三樓","OBJECTID":649213},"geometry":{"x":170667.85058500059,"y":2540878.329181999}},{"attributes":{"ID":649241,"DIS_CODE":0,"TOWNNAME":"東區","LI":"崇成里","LIN":"24鄰","STREET":"崇明二十三街","SECT":" ","MAREA":" ","LANE":" ","ALLEY":" ","HOUSE_NO":"９號四樓","E_COORD97":170667.85058500001,"N_COORD97":2540878.3291799999,"ADDRESS":"崇明二十三街９號四樓","OBJECTID":649214},"geometry":{"x":170667.85058500059,"y":2540878.329181999}},{"attributes":{"ID":649242,"DIS_CODE":0,"TOWNNAME":"東區","LI":"崇成里","LIN":"24鄰","STREET":"崇明二十三街","SECT":" ","MAREA":" ","LANE":" ","ALLEY":" ","HOUSE_NO":"９號五樓","E_COORD97":170667.85058500001,"N_COORD97":2540878.3291799999,"ADDRESS":"崇明二十三街９號五樓","OBJECTID":649215},"geometry":{"x":170667.85058500059,"y":2540878.329181999}},{"attributes":{"ID":649243,"DIS_CODE":0,"TOWNNAME":"東區","LI":"崇信里","LIN":"27鄰","STREET":"崇學路","SECT":" ","MAREA":" ","LANE":" ","ALLEY":" ","HOUSE_NO":"１３６號","E_COORD97":170483.64385699999,"N_COORD97":2542375.18212,"ADDRESS":"崇學路１３６號","OBJECTID":649216},"geometry":{"x":170483.6438570004,"y":2542375.182124}},{"attributes":{"ID":649244,"DIS_CODE":0,"TOWNNAME":"東區","LI":"和平里","LIN":"24鄰","STREET":"仁和路","SECT":" ","MAREA":" ","LANE":"１０９巷","ALLEY":"１３５弄","HOUSE_NO":"１２１號","E_COORD97":171686.058089,"N_COORD97":2541427.8847500002,"ADDRESS":"仁和路１０９巷１３５弄１２１號","OBJECTID":649217},"geometry":{"x":171686.0580890011,"y":2541427.8847509995}},{"attributes":{"ID":649245,"DIS_CODE":0,"TOWNNAME":"東區","LI":"和平里","LIN":"24鄰","STREET":"仁和路","SECT":" ","MAREA":" ","LANE":"１０９巷","ALLEY":"１３５弄","HOUSE_NO":"１２３號","E_COORD97":171679.76810300001,"N_COORD97":2541427.8847500002,"ADDRESS":"仁和路１０９巷１３５弄１２３號","OBJECTID":649218},"geometry":{"x":171679.76810300071,"y":2541427.8847509995}},{"attributes":{"ID":649246,"DIS_CODE":0,"TOWNNAME":"東區","LI":"和平里","LIN":"24鄰","STREET":"仁和路","SECT":" ","MAREA":" ","LANE":"１０９巷","ALLEY":"１３５弄","HOUSE_NO":"１２５號","E_COORD97":171674.24831900001,"N_COORD97":2541428.1411899999,"ADDRESS":"仁和路１０９巷１３５弄１２５號","OBJECTID":649219},"geometry":{"x":171674.24831900001,"y":2541428.1411930006}},{"attributes":{"ID":649247,"DIS_CODE":0,"TOWNNAME":"東區","LI":"和平里","LIN":"24鄰","STREET":"仁和路","SECT":" ","MAREA":" ","LANE":"１０９巷","ALLEY":"１３５弄","HOUSE_NO":"１２７號","E_COORD97":171670.01220600001,"N_COORD97":2541427.6283100001,"ADDRESS":"仁和路１０９巷１３５弄１２７號","OBJECTID":649220},"geometry":{"x":171670.01220600121,"y":2541427.6283080019}},{"attributes":{"ID":649248,"DIS_CODE":0,"TOWNNAME":"東區","LI":"和平里","LIN":"24鄰","STREET":"仁和路","SECT":" ","MAREA":" ","LANE":"１０９巷","ALLEY":"１３５弄","HOUSE_NO":"１２９號","E_COORD97":171666.28956199999,"N_COORD97":2541428.39763,"ADDRESS":"仁和路１０９巷１３５弄１２９號","OBJECTID":649221},"geometry":{"x":171666.28956200182,"y":2541428.3976349998}},{"attributes":{"ID":649249,"DIS_CODE":0,"TOWNNAME":"東區","LI":"和平里","LIN":"24鄰","STREET":"仁和路","SECT":" ","MAREA":" ","LANE":"１０９巷","ALLEY":"１３５弄","HOUSE_NO":"１３１號","E_COORD97":171662.31018299999,"N_COORD97":2541427.8847500002,"ADDRESS":"仁和路１０９巷１３５弄１３１號","OBJECTID":649222},"geometry":{"x":171662.31018300168,"y":2541427.8847509995}},{"attributes":{"ID":649250,"DIS_CODE":0,"TOWNNAME":"東區","LI":"和平里","LIN":"24鄰","STREET":"仁和路","SECT":" ","MAREA":" ","LANE":"１０９巷","ALLEY":"１３５弄","HOUSE_NO":"１３３號","E_COORD97":171658.330804,"N_COORD97":2541427.8847500002,"ADDRESS":"仁和路１０９巷１３５弄１３３號","OBJECTID":649223},"geometry":{"x":171658.33080399968,"y":2541427.8847509995}},{"attributes":{"ID":649251,"DIS_CODE":0,"TOWNNAME":"東區","LI":"和平里","LIN":"24鄰","STREET":"仁和路","SECT":" ","MAREA":" ","LANE":"１０９巷","ALLEY":"１３５弄","HOUSE_NO":"１３５號","E_COORD97":171655.12162799999,"N_COORD97":2541428.9105199999,"ADDRESS":"仁和路１０９巷１３５弄１３５號","OBJECTID":649224},"geometry":{"x":171655.12162800133,"y":2541428.9105190001}},{"attributes":{"ID":649252,"DIS_CODE":0,"TOWNNAME":"東區","LI":"和平里","LIN":"24鄰","STREET":"仁和路","SECT":" ","MAREA":" ","LANE":"１０９巷","ALLEY":"１３５弄","HOUSE_NO":"１３７號","E_COORD97":171654.73652599999,"N_COORD97":2541442.6301799999,"ADDRESS":"仁和路１０９巷１３５弄１３７號","OBJECTID":649225},"geometry":{"x":171654.73652600031,"y":2541442.6301750001}},{"attributes":{"ID":649253,"DIS_CODE":0,"TOWNNAME":"東區","LI":"和平里","LIN":"24鄰","STREET":"仁和路","SECT":" ","MAREA":" ","LANE":"１０９巷","ALLEY":"１３５弄","HOUSE_NO":"１３９號","E_COORD97":171658.97263900001,"N_COORD97":2541443.0148399998,"ADDRESS":"仁和路１０９巷１３５弄１３９號","OBJECTID":649226},"geometry":{"x":171658.97263900191,"y":2541443.0148390029}},{"attributes":{"ID":649254,"DIS_CODE":0,"TOWNNAME":"東區","LI":"和平里","LIN":"24鄰","STREET":"仁和路","SECT":" ","MAREA":" ","LANE":"１０９巷","ALLEY":"１３５弄","HOUSE_NO":"１４１號","E_COORD97":171662.95201800001,"N_COORD97":2541443.27128,"ADDRESS":"仁和路１０９巷１３５弄１４１號","OBJECTID":649227},"geometry":{"x":171662.95201800112,"y":2541443.2712810021}},{"attributes":{"ID":649255,"DIS_CODE":0,"TOWNNAME":"東區","LI":"和平里","LIN":"24鄰","STREET":"仁和路","SECT":" ","MAREA":" ","LANE":"１０９巷","ALLEY":"１３５弄","HOUSE_NO":"１４３號","E_COORD97":171667.444865,"N_COORD97":2541442.7584000002,"ADDRESS":"仁和路１０９巷１３５弄１４３號","OBJECTID":649228},"geometry":{"x":171667.44486500137,"y":2541442.7583960015}},{"attributes":{"ID":649256,"DIS_CODE":0,"TOWNNAME":"東區","LI":"和平里","LIN":"24鄰","STREET":"仁和路","SECT":" ","MAREA":" ","LANE":"１０９巷","ALLEY":"１３５弄","HOUSE_NO":"１４５號","E_COORD97":171672.836282,"N_COORD97":2541443.7841699999,"ADDRESS":"仁和路１０９巷１３５弄１４５號","OBJECTID":649229},"geometry":{"x":171672.83628200088,"y":2541443.7841650024}},{"attributes":{"ID":649257,"DIS_CODE":0,"TOWNNAME":"東區","LI":"和平里","LIN":"24鄰","STREET":"仁和路","SECT":" ","MAREA":" ","LANE":"１０９巷","ALLEY":"１３５弄","HOUSE_NO":"１４７號","E_COORD97":171678.61279899999,"N_COORD97":2541443.5277200001,"ADDRESS":"仁和路１０９巷１３５弄１４７號","OBJECTID":649230},"geometry":{"x":171678.61279900093,"y":2541443.5277229995}},{"attributes":{"ID":649258,"DIS_CODE":0,"TOWNNAME":"東區","LI":"和平里","LIN":"24鄰","STREET":"仁和路","SECT":" ","MAREA":" ","LANE":"１０９巷","ALLEY":"１３５弄","HOUSE_NO":"１４９號","E_COORD97":171682.59217799999,"N_COORD97":2541443.5277200001,"ADDRESS":"仁和路１０９巷１３５弄１４９號","OBJECTID":649231},"geometry":{"x":171682.59217800107,"y":2541443.5277229995}},{"attributes":{"ID":649259,"DIS_CODE":0,"TOWNNAME":"東區","LI":"和平里","LIN":"24鄰","STREET":"仁和路","SECT":" ","MAREA":" ","LANE":"１０９巷","ALLEY":"１３５弄","HOUSE_NO":"１５１號","E_COORD97":171687.598493,"N_COORD97":2541443.7841699999,"ADDRESS":"仁和路１０９巷１３５弄１５１號","OBJECTID":649232},"geometry":{"x":171687.59849300049,"y":2541443.7841650024}},{"attributes":{"ID":649260,"DIS_CODE":0,"TOWNNAME":"東區","LI":"和平里","LIN":"24鄰","STREET":"仁和路","SECT":" ","MAREA":" ","LANE":"１０９巷","ALLEY":"１３５弄","HOUSE_NO":"１５３號","E_COORD97":171692.34807400001,"N_COORD97":2541443.7841699999,"ADDRESS":"仁和路１０９巷１３５弄１５３號","OBJECTID":649233},"geometry":{"x":171692.34807400126,"y":2541443.7841650024}},{"attributes":{"ID":649261,"DIS_CODE":0,"TOWNNAME":"東區","LI":"和平里","LIN":"24鄰","STREET":"仁和路","SECT":" ","MAREA":" ","LANE":"１０９巷","ALLEY":"１３５弄","HOUSE_NO":"１５５號","E_COORD97":171696.32745300001,"N_COORD97":2541443.5277200001,"ADDRESS":"仁和路１０９巷１３５弄１５５號","OBJECTID":649234},"geometry":{"x":171696.3274530014,"y":2541443.5277229995}},{"attributes":{"ID":649262,"DIS_CODE":0,"TOWNNAME":"東區","LI":"和平里","LIN":"24鄰","STREET":"仁和路","SECT":" ","MAREA":" ","LANE":"１０９巷","ALLEY":"１３５弄","HOUSE_NO":"１５７號","E_COORD97":171702.103971,"N_COORD97":2541443.27128,"ADDRESS":"仁和路１０９巷１３５弄１５７號","OBJECTID":649235},"geometry":{"x":171702.10397100076,"y":2541443.2712810021}},{"attributes":{"ID":649263,"DIS_CODE":0,"TOWNNAME":"東區","LI":"和平里","LIN":"24鄰","STREET":"仁和路","SECT":" ","MAREA":" ","LANE":"１０９巷","ALLEY":"１３５弄","HOUSE_NO":"１５９號","E_COORD97":171706.85355199999,"N_COORD97":2541443.0148399998,"ADDRESS":"仁和路１０９巷１３５弄１５９號","OBJECTID":649236},"geometry":{"x":171706.8535520006,"y":2541443.0148390029}},{"attributes":{"ID":649264,"DIS_CODE":0,"TOWNNAME":"東區","LI":"和平里","LIN":"24鄰","STREET":"仁和路","SECT":" ","MAREA":" ","LANE":"１０９巷","ALLEY":"１３５弄","HOUSE_NO":"１６１號","E_COORD97":171711.346399,"N_COORD97":2541442.7584000002,"ADDRESS":"仁和路１０９巷１３５弄１６１號","OBJECTID":649237},"geometry":{"x":171711.34639900085,"y":2541442.7583960015}},{"attributes":{"ID":649265,"DIS_CODE":0,"TOWNNAME":"東區","LI":"和平里","LIN":"24鄰","STREET":"仁和路","SECT":" ","MAREA":" ","LANE":"１０９巷","ALLEY":"１３５弄","HOUSE_NO":"１６３號","E_COORD97":171716.866182,"N_COORD97":2541442.2455099998,"ADDRESS":"仁和路１０９巷１３５弄１６３號","OBJECTID":649238},"geometry":{"x":171716.86618200131,"y":2541442.2455120012}},{"attributes":{"ID":649266,"DIS_CODE":0,"TOWNNAME":"東區","LI":"和平里","LIN":"24鄰","STREET":"仁和路","SECT":" ","MAREA":" ","LANE":"１０９巷","ALLEY":"１３５弄","HOUSE_NO":"１８號","E_COORD97":171734.19573499999,"N_COORD97":2541383.5202500001,"ADDRESS":"仁和路１０９巷１３５弄１８號","OBJECTID":649239},"geometry":{"x":171734.19573500007,"y":2541383.5202549994}},{"attributes":{"ID":649267,"DIS_CODE":0,"TOWNNAME":"東區","LI":"和平里","LIN":"24鄰","STREET":"仁和路","SECT":" ","MAREA":" ","LANE":"１０９巷","ALLEY":"１３５弄","HOUSE_NO":"２０號","E_COORD97":171733.81063399999,"N_COORD97":2541390.7006399999,"ADDRESS":"仁和路１０９巷１３５弄２０號","OBJECTID":649240},"geometry":{"x":171733.81063400116,"y":2541390.7006359994}},{"attributes":{"ID":649268,"DIS_CODE":0,"TOWNNAME":"東區","LI":"和平里","LIN":"24鄰","STREET":"仁和路","SECT":" ","MAREA":" ","LANE":"１０９巷","ALLEY":"１３５弄","HOUSE_NO":"２２號","E_COORD97":171733.425533,"N_COORD97":2541396.5988099999,"ADDRESS":"仁和路１０９巷１３５弄２２號","OBJECTID":649241},"geometry":{"x":171733.42553300224,"y":2541396.5988059994}},{"attributes":{"ID":649269,"DIS_CODE":0,"TOWNNAME":"後壁區","LI":"土溝里","LIN":"5鄰","STREET":" ","SECT":" ","MAREA":"土溝","LANE":" ","ALLEY":" ","HOUSE_NO":"４５號之６","E_COORD97":186837.347477,"N_COORD97":2585599.2845399999,"ADDRESS":"土溝４５號之６","OBJECTID":649242},"geometry":{"x":186837.34747700114,"y":2585599.2845430002}},{"attributes":{"ID":649270,"DIS_CODE":0,"TOWNNAME":"白河區","LI":"仙草里","LIN":"11鄰","STREET":" ","SECT":" ","MAREA":"白水溪","LANE":" ","ALLEY":" ","HOUSE_NO":"２號","E_COORD97":197314.59971899999,"N_COORD97":2583106.9698899998,"ADDRESS":"白水溪２號","OBJECTID":649243},"geometry":{"x":197314.59971900005,"y":2583106.9698870014}},{"attributes":{"ID":649271,"DIS_CODE":0,"TOWNNAME":"後壁區","LI":"土溝里","LIN":"11鄰","STREET":" ","SECT":" ","MAREA":"土溝","LANE":" ","ALLEY":" ","HOUSE_NO":"１０３號之１５","E_COORD97":187559.23422499999,"N_COORD97":2585467.3104500002,"ADDRESS":"土溝１０３號之１５","OBJECTID":649244},"geometry":{"x":187559.23422500119,"y":2585467.3104480002}},{"attributes":{"ID":649272,"DIS_CODE":0,"TOWNNAME":"仁德區","LI":"上崙里","LIN":"12鄰","STREET":"崑崙路","SECT":" ","MAREA":" ","LANE":"９２６巷","ALLEY":" ","HOUSE_NO":"４７號","E_COORD97":174937.69933100001,"N_COORD97":2538338.9305500002,"ADDRESS":"崑崙路９２６巷４７號","OBJECTID":649245},"geometry":{"x":174937.69933100045,"y":2538338.9305500016}},{"attributes":{"ID":649273,"DIS_CODE":0,"TOWNNAME":"後壁區","LI":"嘉苳里","LIN":"1鄰","STREET":" ","SECT":" ","MAREA":"下茄苳","LANE":" ","ALLEY":" ","HOUSE_NO":"１之１００號","E_COORD97":186184.898583,"N_COORD97":2584189.3596600001,"ADDRESS":"下茄苳１之１００號","OBJECTID":649246},"geometry":{"x":186184.89858299959,"y":2584189.3596560005}},{"attributes":{"ID":649274,"DIS_CODE":0,"TOWNNAME":"六甲區","LI":"菁埔里","LIN":"7鄰","STREET":" ","SECT":" ","MAREA":"菁埔","LANE":" ","ALLEY":" ","HOUSE_NO":"２７２號","E_COORD97":178442.49102799999,"N_COORD97":2569515.4177899999,"ADDRESS":"菁埔２７２號","OBJECTID":649247},"geometry":{"x":178442.49102799874,"y":2569515.4177930038}},{"attributes":{"ID":649275,"DIS_CODE":0,"TOWNNAME":"白河區","LI":"仙草里","LIN":"7鄰","STREET":" ","SECT":" ","MAREA":"仙草","LANE":" ","ALLEY":" ","HOUSE_NO":"７４號","E_COORD97":196909.697009,"N_COORD97":2582238.1770199998,"ADDRESS":"仙草７４號","OBJECTID":649248},"geometry":{"x":196909.69700900093,"y":2582238.177015001}},{"attributes":{"ID":649276,"DIS_CODE":0,"TOWNNAME":"六甲區","LI":"菁埔里","LIN":"7鄰","STREET":" ","SECT":" ","MAREA":"菁埔","LANE":" ","ALLEY":" ","HOUSE_NO":"２７３號","E_COORD97":178440.79608900001,"N_COORD97":2569527.3769499999,"ADDRESS":"菁埔２７３號","OBJECTID":649249},"geometry":{"x":178440.79608900007,"y":2569527.3769540004}},{"attributes":{"ID":649277,"DIS_CODE":0,"TOWNNAME":"安南區","LI":"溪東里","LIN":"4鄰","STREET":"府安路","SECT":"五段","MAREA":" ","LANE":"９８巷","ALLEY":"５５弄","HOUSE_NO":"４號","E_COORD97":168026.62373600001,"N_COORD97":2547334.0183999999,"ADDRESS":"府安路五段９８巷５５弄４號","OBJECTID":649250},"geometry":{"x":168026.62373599969,"y":2547334.0184020009}},{"attributes":{"ID":649278,"DIS_CODE":0,"TOWNNAME":"仁德區","LI":"中洲里","LIN":"9鄰","STREET":" ","SECT":" ","MAREA":"中洲","LANE":" ","ALLEY":" ","HOUSE_NO":"３０２號","E_COORD97":173330.75794800001,"N_COORD97":2533931.5593099999,"ADDRESS":"中洲３０２號","OBJECTID":649251},"geometry":{"x":173330.75794800092,"y":2533931.5593120027}},{"attributes":{"ID":649279,"DIS_CODE":0,"TOWNNAME":"仁德區","LI":"中洲里","LIN":"9鄰","STREET":" ","SECT":" ","MAREA":"中洲","LANE":" ","ALLEY":" ","HOUSE_NO":"３０６號","E_COORD97":173422.91872300001,"N_COORD97":2533909.1226599999,"ADDRESS":"中洲３０６號","OBJECTID":649252},"geometry":{"x":173422.91872300021,"y":2533909.122657001}},{"attributes":{"ID":649280,"DIS_CODE":0,"TOWNNAME":"後壁區","LI":"仕安里","LIN":"1鄰","STREET":" ","SECT":" ","MAREA":"下長","LANE":" ","ALLEY":" ","HOUSE_NO":"２號之２１","E_COORD97":181196.92083300001,"N_COORD97":2583887.7952299998,"ADDRESS":"下長２號之２１","OBJECTID":649253},"geometry":{"x":181196.92083300091,"y":2583887.795231998}},{"attributes":{"ID":649281,"DIS_CODE":0,"TOWNNAME":"安南區","LI":"\u25A0南里","LIN":"2鄰","STREET":"安昌街","SECT":" ","MAREA":" ","LANE":"１７９巷","ALLEY":" ","HOUSE_NO":"２３號","E_COORD97":170034.965929,"N_COORD97":2552434.8193399999,"ADDRESS":"安昌街１７９巷２３號","OBJECTID":649254},"geometry":{"x":170034.96592899971,"y":2552434.8193370011}},{"attributes":{"ID":649282,"DIS_CODE":0,"TOWNNAME":"安南區","LI":"城中里","LIN":"8鄰","STREET":"城安西街","SECT":" ","MAREA":" ","LANE":" ","ALLEY":" ","HOUSE_NO":"１０９號","E_COORD97":160636.07666200001,"N_COORD97":2551680.9039699999,"ADDRESS":"城安西街１０９號","OBJECTID":649255},"geometry":{"x":160636.0766620012,"y":2551680.9039670005}},{"attributes":{"ID":649283,"DIS_CODE":0,"TOWNNAME":"安南區","LI":"城中里","LIN":"8鄰","STREET":"城安西街","SECT":" ","MAREA":" ","LANE":" ","ALLEY":" ","HOUSE_NO":"１１１號","E_COORD97":160634.59462700001,"N_COORD97":2551683.4439699999,"ADDRESS":"城安西街１１１號","OBJECTID":649256},"geometry":{"x":160634.59462700132,"y":2551683.4439659994}},{"attributes":{"ID":649284,"DIS_CODE":0,"TOWNNAME":"安南區","LI":"學東里","LIN":"17鄰","STREET":"城北路","SECT":" ","MAREA":" ","LANE":"８６６巷","ALLEY":" ","HOUSE_NO":"６９號","E_COORD97":161091.62005900001,"N_COORD97":2553274.0645300001,"ADDRESS":"城北路８６６巷６９號","OBJECTID":649257},"geometry":{"x":161091.62005900033,"y":2553274.0645310022}},{"attributes":{"ID":649285,"DIS_CODE":0,"TOWNNAME":"中西區","LI":"藥王里","LIN":"8鄰","STREET":"大新街","SECT":" ","MAREA":" ","LANE":"７巷","ALLEY":" ","HOUSE_NO":"９號","E_COORD97":167102.57164400001,"N_COORD97":2544328.27483,"ADDRESS":"大新街７巷９號","OBJECTID":649258},"geometry":{"x":167102.57164400164,"y":2544328.2748300023}},{"attributes":{"ID":649286,"DIS_CODE":0,"TOWNNAME":"安南區","LI":"學東里","LIN":"17鄰","STREET":"城北路","SECT":" ","MAREA":" ","LANE":"８６６巷","ALLEY":" ","HOUSE_NO":"６７號","E_COORD97":161092.94503900001,"N_COORD97":2553279.8022799999,"ADDRESS":"城北路８６６巷６７號","OBJECTID":649259},"geometry":{"x":161092.94503900129,"y":2553279.802275002}},{"attributes":{"ID":649287,"DIS_CODE":0,"TOWNNAME":"安南區","LI":"學東里","LIN":"17鄰","STREET":"城北路","SECT":" ","MAREA":" ","LANE":"８６６巷","ALLEY":" ","HOUSE_NO":"６５號","E_COORD97":161093.52665000001,"N_COORD97":2553287.1878599999,"ADDRESS":"城北路８６６巷６５號","OBJECTID":649260},"geometry":{"x":161093.52665000129,"y":2553287.187857002}},{"attributes":{"ID":649288,"DIS_CODE":0,"TOWNNAME":"安南區","LI":"學東里","LIN":"17鄰","STREET":"城北路","SECT":" ","MAREA":" ","LANE":"８６６巷","ALLEY":" ","HOUSE_NO":"６３號","E_COORD97":161094.37402399999,"N_COORD97":2553293.1145199998,"ADDRESS":"城北路８６６巷６３號","OBJECTID":649261},"geometry":{"x":161094.37402400188,"y":2553293.1145210024}},{"attributes":{"ID":649289,"DIS_CODE":0,"TOWNNAME":"安南區","LI":"學東里","LIN":"17鄰","STREET":"城北路","SECT":" ","MAREA":" ","LANE":"８６６巷","ALLEY":" ","HOUSE_NO":"６１號","E_COORD97":161095.85692799999,"N_COORD97":2553298.61785,"ADDRESS":"城北路８６６巷６１號","OBJECTID":649262},"geometry":{"x":161095.8569279993,"y":2553298.6178510003}},{"attributes":{"ID":649290,"DIS_CODE":0,"TOWNNAME":"安南區","LI":"學東里","LIN":"17鄰","STREET":"城北路","SECT":" ","MAREA":" ","LANE":"８６６巷","ALLEY":" ","HOUSE_NO":"５９號","E_COORD97":161096.704302,"N_COORD97":2553305.6028499999,"ADDRESS":"城北路８６６巷５９號","OBJECTID":649263},"geometry":{"x":161096.70430199988,"y":2553305.6028470043}},{"attributes":{"ID":649291,"DIS_CODE":0,"TOWNNAME":"新營區","LI":"民生里","LIN":"2鄰","STREET":"中華路","SECT":" ","MAREA":" ","LANE":" ","ALLEY":" ","HOUSE_NO":"６５號","E_COORD97":179446.145602,"N_COORD97":2578168.0824899999,"ADDRESS":"中華路６５號","OBJECTID":649264},"geometry":{"x":179446.14560200088,"y":2578168.0824910011}},{"attributes":{"ID":649292,"DIS_CODE":0,"TOWNNAME":"安南區","LI":"學東里","LIN":"1鄰","STREET":"公學路","SECT":"六段","MAREA":" ","LANE":"７２１巷","ALLEY":"３１６弄","HOUSE_NO":"２５號","E_COORD97":162307.83778,"N_COORD97":2552839.1960800001,"ADDRESS":"公學路六段７２１巷３１６弄２５號","OBJECTID":649265},"geometry":{"x":162307.83777999971,"y":2552839.1960780025}},{"attributes":{"ID":649293,"DIS_CODE":0,"TOWNNAME":"安南區","LI":"學東里","LIN":"6鄰","STREET":"公學路","SECT":"七段","MAREA":" ","LANE":"１３１巷","ALLEY":"２弄","HOUSE_NO":"３５號","E_COORD97":161591.879392,"N_COORD97":2553388.8119899998,"ADDRESS":"公學路七段１３１巷２弄３５號","OBJECTID":649266},"geometry":{"x":161591.87939199992,"y":2553388.8119859993}},{"attributes":{"ID":649294,"DIS_CODE":0,"TOWNNAME":"中西區","LI":"藥王里","LIN":"15鄰","STREET":"民權路","SECT":"三段","MAREA":" ","LANE":" ","ALLEY":" ","HOUSE_NO":"４１０號","E_COORD97":166827.20558400001,"N_COORD97":2544413.3647799999,"ADDRESS":"民權路三段４１０號","OBJECTID":649267},"geometry":{"x":166827.2055840008,"y":2544413.3647840023}},{"attributes":{"ID":649295,"DIS_CODE":0,"TOWNNAME":"安南區","LI":"溪東里","LIN":"4鄰","STREET":"府安路","SECT":"五段","MAREA":" ","LANE":" ","ALLEY":" ","HOUSE_NO":"１０３號","E_COORD97":168043.76835599999,"N_COORD97":2547130.1973799998,"ADDRESS":"府安路五段１０３號","OBJECTID":649268},"geometry":{"x":168043.768356001,"y":2547130.1973839998}},{"attributes":{"ID":649296,"DIS_CODE":0,"TOWNNAME":"新營區","LI":"民生里","LIN":"2鄰","STREET":"民生路","SECT":" ","MAREA":" ","LANE":" ","ALLEY":" ","HOUSE_NO":"１６號","E_COORD97":179398.89586700001,"N_COORD97":2578127.3895999999,"ADDRESS":"民生路１６號","OBJECTID":649269},"geometry":{"x":179398.89586700033,"y":2578127.3895970006}},{"attributes":{"ID":649297,"DIS_CODE":0,"TOWNNAME":"中西區","LI":"普濟里","LIN":"16鄰","STREET":"海安路","SECT":"二段","MAREA":" ","LANE":"３６６巷","ALLEY":" ","HOUSE_NO":"８號","E_COORD97":167865.16334999999,"N_COORD97":2544502.7149,"ADDRESS":"海安路二段３６６巷８號","OBJECTID":649270},"geometry":{"x":167865.16335000191,"y":2544502.7148990016}},{"attributes":{"ID":649298,"DIS_CODE":0,"TOWNNAME":"安南區","LI":"溪東里","LIN":"4鄰","STREET":"府安路","SECT":"五段","MAREA":" ","LANE":"１０５巷","ALLEY":" ","HOUSE_NO":"２號","E_COORD97":168041.34334200001,"N_COORD97":2547144.2240499998,"ADDRESS":"府安路五段１０５巷２號","OBJECTID":649271},"geometry":{"x":168041.34334200062,"y":2547144.224053001}},{"attributes":{"ID":649299,"DIS_CODE":0,"TOWNNAME":"安南區","LI":"溪東里","LIN":"4鄰","STREET":"府安路","SECT":"五段","MAREA":" ","LANE":"１０５巷","ALLEY":" ","HOUSE_NO":"６號","E_COORD97":168039.11178400001,"N_COORD97":2547152.5097500002,"ADDRESS":"府安路五段１０５巷６號","OBJECTID":649272},"geometry":{"x":168039.11178400088,"y":2547152.5097470004}},{"attributes":{"ID":649300,"DIS_CODE":0,"TOWNNAME":"安南區","LI":"溪東里","LIN":"4鄰","STREET":"府安路","SECT":"五段","MAREA":" ","LANE":"１０５巷","ALLEY":" ","HOUSE_NO":"８號","E_COORD97":168038.155401,"N_COORD97":2547161.4328000001,"ADDRESS":"府安路五段１０５巷８號","OBJECTID":649273},"geometry":{"x":168038.15540100075,"y":2547161.4328030013}},{"attributes":{"ID":649301,"DIS_CODE":0,"TOWNNAME":"安南區","LI":"溪東里","LIN":"4鄰","STREET":"府安路","SECT":"五段","MAREA":" ","LANE":"１０５巷","ALLEY":" ","HOUSE_NO":"１０號","E_COORD97":168036.880225,"N_COORD97":2547168.1250999998,"ADDRESS":"府安路五段１０５巷１０號","OBJECTID":649274},"geometry":{"x":168036.8802250009,"y":2547168.1250950005}},{"attributes":{"ID":649302,"DIS_CODE":0,"TOWNNAME":"安南區","LI":"溪東里","LIN":"4鄰","STREET":"府安路","SECT":"五段","MAREA":" ","LANE":"１０５巷","ALLEY":" ","HOUSE_NO":"５０號","E_COORD97":168011.37669500001,"N_COORD97":2547286.9929499999,"ADDRESS":"府安路五段１０５巷５０號","OBJECTID":649275},"geometry":{"x":168011.37669500057,"y":2547286.9929479994}},{"attributes":{"ID":649303,"DIS_CODE":0,"TOWNNAME":"安南區","LI":"溪東里","LIN":"4鄰","STREET":"府安路","SECT":"五段","MAREA":" ","LANE":"１０５巷","ALLEY":" ","HOUSE_NO":"４８號","E_COORD97":168012.333078,"N_COORD97":2547280.6193400002,"ADDRESS":"府安路五段１０５巷４８號","OBJECTID":649276},"geometry":{"x":168012.33307800163,"y":2547280.6193360034}},{"attributes":{"ID":649304,"DIS_CODE":0,"TOWNNAME":"安南區","LI":"溪東里","LIN":"4鄰","STREET":"府安路","SECT":"五段","MAREA":" ","LANE":"１０５巷","ALLEY":" ","HOUSE_NO":"４６號","E_COORD97":168012.333078,"N_COORD97":2547274.8830900001,"ADDRESS":"府安路五段１０５巷４６號","OBJECTID":649277},"geometry":{"x":168012.33307800163,"y":2547274.8830860034}},{"attributes":{"ID":649305,"DIS_CODE":0,"TOWNNAME":"安南區","LI":"溪東里","LIN":"4鄰","STREET":"府安路","SECT":"五段","MAREA":" ","LANE":"１０５巷","ALLEY":" ","HOUSE_NO":"５２號","E_COORD97":168009.46393100001,"N_COORD97":2547296.8720499999,"ADDRESS":"府安路五段１０５巷５２號","OBJECTID":649278},"geometry":{"x":168009.46393099986,"y":2547296.8720459994}},{"attributes":{"ID":649306,"DIS_CODE":0,"TOWNNAME":"中西區","LI":"協進里","LIN":"9鄰","STREET":"臨安路","SECT":"一段","MAREA":" ","LANE":" ","ALLEY":" ","HOUSE_NO":"３９號","E_COORD97":166927.068978,"N_COORD97":2544335.15399,"ADDRESS":"臨安路一段３９號","OBJECTID":649279},"geometry":{"x":166927.06897800136,"y":2544335.1539930012}},{"attributes":{"ID":649307,"DIS_CODE":0,"TOWNNAME":"安南區","LI":"溪東里","LIN":"4鄰","STREET":"府安路","SECT":"五段","MAREA":" ","LANE":"１０５巷","ALLEY":" ","HOUSE_NO":"５６號","E_COORD97":168007.55116599999,"N_COORD97":2547305.1577400002,"ADDRESS":"府安路五段１０５巷５６號","OBJECTID":649280},"geometry":{"x":168007.55116599984,"y":2547305.1577400025}},{"attributes":{"ID":649308,"DIS_CODE":0,"TOWNNAME":"安南區","LI":"溪東里","LIN":"4鄰","STREET":"府安路","SECT":"五段","MAREA":" ","LANE":"９８巷","ALLEY":"５５弄","HOUSE_NO":"９號","E_COORD97":168007.86996000001,"N_COORD97":2547311.8500299999,"ADDRESS":"府安路五段９８巷５５弄９號","OBJECTID":649281},"geometry":{"x":168007.86995999981,"y":2547311.8500319999}},{"attributes":{"ID":649309,"DIS_CODE":0,"TOWNNAME":"安南區","LI":"溪東里","LIN":"4鄰","STREET":"府安路","SECT":"五段","MAREA":" ","LANE":"９８巷","ALLEY":"５５弄","HOUSE_NO":"１１號","E_COORD97":168002.76925400001,"N_COORD97":2547311.2126699998,"ADDRESS":"府安路五段９８巷５５弄１１號","OBJECTID":649282},"geometry":{"x":168002.76925399993,"y":2547311.2126710024}},{"attributes":{"ID":649310,"DIS_CODE":0,"TOWNNAME":"六甲區","LI":"菁埔里","LIN":"7鄰","STREET":" ","SECT":" ","MAREA":"菁埔","LANE":" ","ALLEY":" ","HOUSE_NO":"２８２號","E_COORD97":178878.56151900001,"N_COORD97":2569779.6812,"ADDRESS":"菁埔２８２號","OBJECTID":649283},"geometry":{"x":178878.56151899975,"y":2569779.6811950002}},{"attributes":{"ID":649311,"DIS_CODE":0,"TOWNNAME":"安南區","LI":"溪東里","LIN":"3鄰","STREET":"府安路","SECT":"五段","MAREA":" ","LANE":"１０５巷","ALLEY":" ","HOUSE_NO":"２９號","E_COORD97":168011.69549000001,"N_COORD97":2547224.53156,"ADDRESS":"府安路五段１０５巷２９號","OBJECTID":649284},"geometry":{"x":168011.69548999984,"y":2547224.5315559991}},{"attributes":{"ID":649312,"DIS_CODE":0,"TOWNNAME":"安南區","LI":"溪東里","LIN":"3鄰","STREET":"府安路","SECT":"五段","MAREA":" ","LANE":"１０５巷","ALLEY":" ","HOUSE_NO":"３５號","E_COORD97":168006.91357800001,"N_COORD97":2547243.0150299999,"ADDRESS":"府安路五段１０５巷３５號","OBJECTID":649285},"geometry":{"x":168006.91357800085,"y":2547243.015029002}},{"attributes":{"ID":649313,"DIS_CODE":0,"TOWNNAME":"安南區","LI":"溪東里","LIN":"3鄰","STREET":"府安路","SECT":"五段","MAREA":" ","LANE":"１０５巷","ALLEY":" ","HOUSE_NO":"３１號","E_COORD97":168008.50754799999,"N_COORD97":2547232.4985699998,"ADDRESS":"府安路五段１０５巷３１號","OBJECTID":649286},"geometry":{"x":168008.50754800066,"y":2547232.4985700026}},{"attributes":{"ID":649314,"DIS_CODE":0,"TOWNNAME":"安南區","LI":"溪東里","LIN":"3鄰","STREET":"府安路","SECT":"五段","MAREA":" ","LANE":"１０５巷","ALLEY":" ","HOUSE_NO":"３３號","E_COORD97":168006.91357800001,"N_COORD97":2547238.2348199999,"ADDRESS":"府安路五段１０５巷３３號","OBJECTID":649287},"geometry":{"x":168006.91357800085,"y":2547238.2348210011}},{"attributes":{"ID":649315,"DIS_CODE":0,"TOWNNAME":"安南區","LI":"溪東里","LIN":"3鄰","STREET":"府安路","SECT":"五段","MAREA":" ","LANE":"１０５巷","ALLEY":" ","HOUSE_NO":"３９號","E_COORD97":168002.45045999999,"N_COORD97":2547257.9930199999,"ADDRESS":"府安路五段１０５巷３９號","OBJECTID":649288},"geometry":{"x":168002.45046000183,"y":2547257.9930160046}},{"attributes":{"ID":649316,"DIS_CODE":0,"TOWNNAME":"安南區","LI":"溪東里","LIN":"3鄰","STREET":"府安路","SECT":"五段","MAREA":" ","LANE":"１０５巷","ALLEY":" ","HOUSE_NO":"４１號","E_COORD97":168000.85649000001,"N_COORD97":2547265.3226700001,"ADDRESS":"府安路五段１０５巷４１號","OBJECTID":649289},"geometry":{"x":168000.85649000108,"y":2547265.3226689994}},{"attributes":{"ID":649317,"DIS_CODE":0,"TOWNNAME":"安南區","LI":"溪東里","LIN":"3鄰","STREET":"府安路","SECT":"五段","MAREA":" ","LANE":"１０５巷","ALLEY":" ","HOUSE_NO":"４３號","E_COORD97":167998.624931,"N_COORD97":2547270.1028800001,"ADDRESS":"府安路五段１０５巷４３號","OBJECTID":649290},"geometry":{"x":167998.62493100017,"y":2547270.1028780006}},{"attributes":{"ID":649318,"DIS_CODE":0,"TOWNNAME":"安南區","LI":"溪東里","LIN":"3鄰","STREET":"府安路","SECT":"五段","MAREA":" ","LANE":"１０５巷","ALLEY":" ","HOUSE_NO":"４５號","E_COORD97":167997.03096,"N_COORD97":2547277.1138499998,"ADDRESS":"府安路五段１０５巷４５號","OBJECTID":649291},"geometry":{"x":167997.03096000105,"y":2547277.1138500012}},{"attributes":{"ID":649319,"DIS_CODE":0,"TOWNNAME":"安南區","LI":"溪東里","LIN":"3鄰","STREET":"府安路","SECT":"五段","MAREA":" ","LANE":"１０５巷","ALLEY":" ","HOUSE_NO":"４７號","E_COORD97":167995.43698999999,"N_COORD97":2547284.4435000001,"ADDRESS":"府安路五段１０５巷４７號","OBJECTID":649292},"geometry":{"x":167995.43699000031,"y":2547284.4435030017}},{"attributes":{"ID":649320,"DIS_CODE":0,"TOWNNAME":"安南區","LI":"溪東里","LIN":"3鄰","STREET":"府安路","SECT":"五段","MAREA":" ","LANE":"１０５巷","ALLEY":" ","HOUSE_NO":"４９號","E_COORD97":167994.16181300001,"N_COORD97":2547290.8171199998,"ADDRESS":"府安路五段１０５巷４９號","OBJECTID":649293},"geometry":{"x":167994.16181300115,"y":2547290.8171150032}},{"attributes":{"ID":649321,"DIS_CODE":0,"TOWNNAME":"安南區","LI":"溪東里","LIN":"3鄰","STREET":"府安路","SECT":"五段","MAREA":" ","LANE":"１０５巷","ALLEY":"３７弄","HOUSE_NO":"１號","E_COORD97":167999.90010699999,"N_COORD97":2547242.3776699998,"ADDRESS":"府安路五段１０５巷３７弄１號","OBJECTID":649294},"geometry":{"x":167999.90010700002,"y":2547242.3776680008}},{"attributes":{"ID":649322,"DIS_CODE":0,"TOWNNAME":"安南區","LI":"溪東里","LIN":"3鄰","STREET":"府安路","SECT":"五段","MAREA":" ","LANE":"１０５巷","ALLEY":"３７弄","HOUSE_NO":"３號","E_COORD97":167994.480607,"N_COORD97":2547241.4216300002,"ADDRESS":"府安路五段１０５巷３７弄３號","OBJECTID":649295},"geometry":{"x":167994.48060700018,"y":2547241.4216260016}},{"attributes":{"ID":649323,"DIS_CODE":0,"TOWNNAME":"安南區","LI":"溪東里","LIN":"3鄰","STREET":"府安路","SECT":"五段","MAREA":" ","LANE":"１０５巷","ALLEY":"３７弄","HOUSE_NO":"５號","E_COORD97":167988.10472500001,"N_COORD97":2547240.7842600001,"ADDRESS":"府安路五段１０５巷３７弄５號","OBJECTID":649296},"geometry":{"x":167988.10472499952,"y":2547240.7842650004}},{"attributes":{"ID":649324,"DIS_CODE":0,"TOWNNAME":"東區","LI":"東智里","LIN":"12鄰","STREET":"崇德路","SECT":" ","MAREA":" ","LANE":" ","ALLEY":" ","HOUSE_NO":"９７０號","E_COORD97":170776.83103299999,"N_COORD97":2540071.4080699999,"ADDRESS":"崇德路９７０號","OBJECTID":649297},"geometry":{"x":170776.83103300165,"y":2540071.408071002}},{"attributes":{"ID":649325,"DIS_CODE":0,"TOWNNAME":"安南區","LI":"溪東里","LIN":"3鄰","STREET":"府安路","SECT":"五段","MAREA":" ","LANE":"１０５巷","ALLEY":"３７弄","HOUSE_NO":"７號","E_COORD97":167982.04763700001,"N_COORD97":2547239.82822,"ADDRESS":"府安路五段１０５巷３７弄７號","OBJECTID":649298},"geometry":{"x":167982.04763700068,"y":2547239.8282240015}},{"attributes":{"ID":649326,"DIS_CODE":0,"TOWNNAME":"安南區","LI":"溪東里","LIN":"3鄰","STREET":"府安路","SECT":"五段","MAREA":" ","LANE":"１０５巷","ALLEY":"３７弄","HOUSE_NO":"２號","E_COORD97":167996.074578,"N_COORD97":2547260.8611400002,"ADDRESS":"府安路五段１０５巷３７弄２號","OBJECTID":649299},"geometry":{"x":167996.0745780021,"y":2547260.8611409999}},{"attributes":{"ID":649327,"DIS_CODE":0,"TOWNNAME":"安南區","LI":"溪東里","LIN":"3鄰","STREET":"府安路","SECT":"五段","MAREA":" ","LANE":"１０５巷","ALLEY":"３７弄","HOUSE_NO":"６號","E_COORD97":167990.973872,"N_COORD97":2547259.9051000001,"ADDRESS":"府安路五段１０５巷３７弄６號","OBJECTID":649300},"geometry":{"x":167990.97387200128,"y":2547259.9050990008}},{"attributes":{"ID":649328,"DIS_CODE":0,"TOWNNAME":"安南區","LI":"溪東里","LIN":"3鄰","STREET":"府安路","SECT":"五段","MAREA":" ","LANE":"１０５巷","ALLEY":"３７弄","HOUSE_NO":"８號","E_COORD97":167985.873166,"N_COORD97":2547259.5864200001,"ADDRESS":"府安路五段１０５巷３７弄８號","OBJECTID":649301},"geometry":{"x":167985.8731660014,"y":2547259.5864189994}},{"attributes":{"ID":649329,"DIS_CODE":0,"TOWNNAME":"東區","LI":"崇文里","LIN":"34鄰","STREET":"生產路","SECT":" ","MAREA":" ","LANE":" ","ALLEY":" ","HOUSE_NO":"３３５號","E_COORD97":171084.669322,"N_COORD97":2540686.5667500002,"ADDRESS":"生產路３３５號","OBJECTID":649302},"geometry":{"x":171084.66932200175,"y":2540686.566753}},{"attributes":{"ID":649330,"DIS_CODE":0,"TOWNNAME":"安南區","LI":"溪東里","LIN":"3鄰","STREET":"府安路","SECT":"五段","MAREA":" ","LANE":"１０５巷","ALLEY":"３７弄","HOUSE_NO":"１０號","E_COORD97":167980.134872,"N_COORD97":2547259.26774,"ADDRESS":"府安路五段１０５巷３７弄１０號","OBJECTID":649303},"geometry":{"x":167980.13487200066,"y":2547259.2677379996}},{"attributes":{"ID":649331,"DIS_CODE":0,"TOWNNAME":"安南區","LI":"溪東里","LIN":"3鄰","STREET":"府安路","SECT":"五段","MAREA":" ","LANE":"１０５巷","ALLEY":"５１弄","HOUSE_NO":"１號","E_COORD97":167990.01749,"N_COORD97":2547290.8171199998,"ADDRESS":"府安路五段１０５巷５１弄１號","OBJECTID":649304},"geometry":{"x":167990.01749000046,"y":2547290.8171150032}},{"attributes":{"ID":649332,"DIS_CODE":0,"TOWNNAME":"六甲區","LI":"水林里","LIN":"4鄰","STREET":"中山路","SECT":" ","MAREA":" ","LANE":"２０６巷","ALLEY":" ","HOUSE_NO":"１５之１號","E_COORD97":183169.41386999999,"N_COORD97":2570212.1793300002,"ADDRESS":"中山路２０６巷１５之１號","OBJECTID":649305},"geometry":{"x":183169.41387000028,"y":2570212.1793300007}},{"attributes":{"ID":649333,"DIS_CODE":0,"TOWNNAME":"安南區","LI":"溪東里","LIN":"3鄰","STREET":"府安路","SECT":"五段","MAREA":" ","LANE":"１０５巷","ALLEY":"５１弄","HOUSE_NO":"３號","E_COORD97":167984.59799000001,"N_COORD97":2547290.1797500001,"ADDRESS":"府安路五段１０５巷５１弄３號","OBJECTID":649306},"geometry":{"x":167984.59798999969,"y":2547290.1797540002}},{"attributes":{"ID":649334,"DIS_CODE":0,"TOWNNAME":"安南區","LI":"溪東里","LIN":"3鄰","STREET":"府安路","SECT":"五段","MAREA":" ","LANE":"１０５巷","ALLEY":"５１弄","HOUSE_NO":"５號","E_COORD97":167980.134872,"N_COORD97":2547289.8610700001,"ADDRESS":"府安路五段１０５巷５１弄５號","OBJECTID":649307},"geometry":{"x":167980.13487200066,"y":2547289.8610730004}},{"attributes":{"ID":649335,"DIS_CODE":0,"TOWNNAME":"東區","LI":"圍下里","LIN":"3鄰","STREET":"東榮街","SECT":" ","MAREA":" ","LANE":" ","ALLEY":" ","HOUSE_NO":"３５號","E_COORD97":169561.91222100001,"N_COORD97":2543417.3558299998,"ADDRESS":"東榮街３５號","OBJECTID":649308},"geometry":{"x":169561.91222100053,"y":2543417.3558299989}},{"attributes":{"ID":649336,"DIS_CODE":0,"TOWNNAME":"安南區","LI":"溪東里","LIN":"3鄰","STREET":"府安路","SECT":"五段","MAREA":" ","LANE":"１０５巷","ALLEY":"５１弄","HOUSE_NO":"７號","E_COORD97":167976.30934199999,"N_COORD97":2547289.5423900001,"ADDRESS":"府安路五段１０５巷５１弄７號","OBJECTID":649309},"geometry":{"x":167976.30934200063,"y":2547289.5423920043}},{"attributes":{"ID":649337,"DIS_CODE":0,"TOWNNAME":"六甲區","LI":"水林里","LIN":"4鄰","STREET":"中山路","SECT":" ","MAREA":" ","LANE":"２０６巷","ALLEY":" ","HOUSE_NO":"１５之２號","E_COORD97":183169.41386999999,"N_COORD97":2570216.8359900001,"ADDRESS":"中山路２０６巷１５之２號","OBJECTID":649310},"geometry":{"x":183169.41387000028,"y":2570216.8359940015}},{"attributes":{"ID":649338,"DIS_CODE":0,"TOWNNAME":"安南區","LI":"溪東里","LIN":"3鄰","STREET":"府安路","SECT":"五段","MAREA":" ","LANE":"１０５巷","ALLEY":"５１弄","HOUSE_NO":"２號","E_COORD97":167989.37990100001,"N_COORD97":2547301.0148900002,"ADDRESS":"府安路五段１０５巷５１弄２號","OBJECTID":649311},"geometry":{"x":167989.37990099937,"y":2547301.0148929991}},{"attributes":{"ID":649339,"DIS_CODE":0,"TOWNNAME":"安南區","LI":"溪東里","LIN":"3鄰","STREET":"府安路","SECT":"五段","MAREA":" ","LANE":"１０５巷","ALLEY":"５１弄","HOUSE_NO":"６號","E_COORD97":167983.641607,"N_COORD97":2547300.3775300002,"ADDRESS":"府安路五段１０５巷５１弄６號","OBJECTID":649312},"geometry":{"x":167983.64160700049,"y":2547300.3775320016}},{"attributes":{"ID":649340,"DIS_CODE":0,"TOWNNAME":"安南區","LI":"溪東里","LIN":"3鄰","STREET":"府安路","SECT":"五段","MAREA":" ","LANE":"１０５巷","ALLEY":"５１弄","HOUSE_NO":"８號","E_COORD97":167979.816078,"N_COORD97":2547301.0148900002,"ADDRESS":"府安路五段１０５巷５１弄８號","OBJECTID":649313},"geometry":{"x":167979.81607799977,"y":2547301.0148929991}},{"attributes":{"ID":649341,"DIS_CODE":0,"TOWNNAME":"安南區","LI":"溪東里","LIN":"3鄰","STREET":"府安路","SECT":"五段","MAREA":" ","LANE":"１０５巷","ALLEY":"５１弄","HOUSE_NO":"１０號","E_COORD97":167974.39657800001,"N_COORD97":2547300.0588500001,"ADDRESS":"府安路五段１０５巷５１弄１０號","OBJECTID":649314},"geometry":{"x":167974.396577999,"y":2547300.0588509999}},{"attributes":{"ID":649342,"DIS_CODE":0,"TOWNNAME":"安南區","LI":"溪東里","LIN":"3鄰","STREET":"府安路","SECT":"五段","MAREA":" ","LANE":"１０５巷","ALLEY":" ","HOUSE_NO":"５３號","E_COORD97":167991.93025400001,"N_COORD97":2547302.6083,"ADDRESS":"府安路五段１０５巷５３號","OBJECTID":649315},"geometry":{"x":167991.93025400117,"y":2547302.6082959995}},{"attributes":{"ID":649343,"DIS_CODE":0,"TOWNNAME":"安南區","LI":"溪東里","LIN":"3鄰","STREET":"府安路","SECT":"五段","MAREA":" ","LANE":"１０５巷","ALLEY":" ","HOUSE_NO":"５５號","E_COORD97":167991.29266599999,"N_COORD97":2547308.34455,"ADDRESS":"府安路五段１０５巷５５號","OBJECTID":649316},"geometry":{"x":167991.29266600031,"y":2547308.3445459995}},{"attributes":{"ID":649344,"DIS_CODE":0,"TOWNNAME":"安南區","LI":"溪東里","LIN":"3鄰","STREET":"府安路","SECT":"五段","MAREA":" ","LANE":"１０５巷","ALLEY":" ","HOUSE_NO":"５７號","E_COORD97":167989.698695,"N_COORD97":2547315.6741999998,"ADDRESS":"府安路五段１０５巷５７號","OBJECTID":649317},"geometry":{"x":167989.69869500026,"y":2547315.6741989981}},{"attributes":{"ID":649345,"DIS_CODE":0,"TOWNNAME":"安南區","LI":"溪東里","LIN":"3鄰","STREET":"府安路","SECT":"五段","MAREA":" ","LANE":"１０５巷","ALLEY":" ","HOUSE_NO":"５９號","E_COORD97":167988.10472500001,"N_COORD97":2547321.7291299999,"ADDRESS":"府安路五段１０５巷５９號","OBJECTID":649318},"geometry":{"x":167988.10472499952,"y":2547321.7291299999}},{"attributes":{"ID":649346,"DIS_CODE":0,"TOWNNAME":"新營區","LI":"民生里","LIN":"2鄰","STREET":"三興街","SECT":" ","MAREA":" ","LANE":" ","ALLEY":" ","HOUSE_NO":"１號之１１","E_COORD97":179443.81489800001,"N_COORD97":2578114.6366900001,"ADDRESS":"三興街１號之１１","OBJECTID":649319},"geometry":{"x":179443.81489800103,"y":2578114.6366869994}},{"attributes":{"ID":649347,"DIS_CODE":0,"TOWNNAME":"安南區","LI":"溪東里","LIN":"3鄰","STREET":"府安路","SECT":"五段","MAREA":" ","LANE":"１０５巷","ALLEY":"６１弄","HOUSE_NO":"１號","E_COORD97":167986.51075399999,"N_COORD97":2547327.1466999999,"ADDRESS":"府安路五段１０５巷６１弄１號","OBJECTID":649320},"geometry":{"x":167986.5107540004,"y":2547327.1467000023}},{"attributes":{"ID":649348,"DIS_CODE":0,"TOWNNAME":"安南區","LI":"溪東里","LIN":"3鄰","STREET":"府安路","SECT":"五段","MAREA":" ","LANE":"１０５巷","ALLEY":"６１弄","HOUSE_NO":"３號","E_COORD97":167982.68522499999,"N_COORD97":2547326.8280199999,"ADDRESS":"府安路五段１０５巷６１弄３號","OBJECTID":649321},"geometry":{"x":167982.68522499967,"y":2547326.8280190025}},{"attributes":{"ID":649349,"DIS_CODE":0,"TOWNNAME":"安南區","LI":"溪東里","LIN":"3鄰","STREET":"府安路","SECT":"五段","MAREA":" ","LANE":"１０５巷","ALLEY":"６１弄","HOUSE_NO":"５號","E_COORD97":167979.17848900001,"N_COORD97":2547325.8719799998,"ADDRESS":"府安路五段１０５巷６１弄５號","OBJECTID":649322},"geometry":{"x":167979.17848899961,"y":2547325.8719769996}},{"attributes":{"ID":649350,"DIS_CODE":0,"TOWNNAME":"安南區","LI":"溪東里","LIN":"3鄰","STREET":"府安路","SECT":"五段","MAREA":" ","LANE":"１０５巷","ALLEY":"６１弄","HOUSE_NO":"７號","E_COORD97":167975.67175400001,"N_COORD97":2547325.5532999998,"ADDRESS":"府安路五段１０５巷６１弄７號","OBJECTID":649323},"geometry":{"x":167975.67175400164,"y":2547325.5532970019}},{"attributes":{"ID":649351,"DIS_CODE":0,"TOWNNAME":"安南區","LI":"溪東里","LIN":"3鄰","STREET":"府安路","SECT":"五段","MAREA":" ","LANE":"１０５巷","ALLEY":"６１弄","HOUSE_NO":"９號","E_COORD97":167972.80260699999,"N_COORD97":2547325.5532999998,"ADDRESS":"府安路五段１０５巷６１弄９號","OBJECTID":649324},"geometry":{"x":167972.80260699987,"y":2547325.5532970019}},{"attributes":{"ID":649352,"DIS_CODE":0,"TOWNNAME":"安南區","LI":"溪東里","LIN":"3鄰","STREET":"府安路","SECT":"五段","MAREA":" ","LANE":"１０５巷","ALLEY":"６１弄","HOUSE_NO":"１１號","E_COORD97":167969.29587199999,"N_COORD97":2547324.5972500001,"ADDRESS":"府安路五段１０５巷６１弄１１號","OBJECTID":649325},"geometry":{"x":167969.29587200191,"y":2547324.597254999}},{"attributes":{"ID":649353,"DIS_CODE":0,"TOWNNAME":"安南區","LI":"溪東里","LIN":"3鄰","STREET":"府安路","SECT":"五段","MAREA":" ","LANE":"１０５巷","ALLEY":"６１弄","HOUSE_NO":"１３號","E_COORD97":167964.19516599999,"N_COORD97":2547323.9598900001,"ADDRESS":"府安路五段１０５巷６１弄１３號","OBJECTID":649326},"geometry":{"x":167964.1951660011,"y":2547323.9598940015}},{"attributes":{"ID":649354,"DIS_CODE":0,"TOWNNAME":"關廟區","LI":"東勢里","LIN":"25鄰","STREET":"光復街","SECT":" ","MAREA":" ","LANE":" ","ALLEY":" ","HOUSE_NO":"１５８之２號","E_COORD97":181522.09730200001,"N_COORD97":2539492.7257099999,"ADDRESS":"光復街１５８之２號","OBJECTID":649327},"geometry":{"x":181522.09730200097,"y":2539492.7257130016}},{"attributes":{"ID":649355,"DIS_CODE":0,"TOWNNAME":"東區","LI":"崇成里","LIN":"11鄰","STREET":"崇德路","SECT":" ","MAREA":" ","LANE":" ","ALLEY":" ","HOUSE_NO":"６２７之１號","E_COORD97":170800.02121499999,"N_COORD97":2541306.64696,"ADDRESS":"崇德路６２７之１號","OBJECTID":649328},"geometry":{"x":170800.02121500019,"y":2541306.6469650008}},{"attributes":{"ID":649356,"DIS_CODE":0,"TOWNNAME":"東區","LI":"崇成里","LIN":"11鄰","STREET":"崇德路","SECT":" ","MAREA":" ","LANE":" ","ALLEY":" ","HOUSE_NO":"６２７號","E_COORD97":170799.49408599999,"N_COORD97":2541310.7545599998,"ADDRESS":"崇德路６２７號","OBJECTID":649329},"geometry":{"x":170799.49408600014,"y":2541310.7545550019}},{"attributes":{"ID":649357,"DIS_CODE":0,"TOWNNAME":"東區","LI":"崇成里","LIN":"11鄰","STREET":"崇德路","SECT":" ","MAREA":" ","LANE":" ","ALLEY":" ","HOUSE_NO":"６５５號","E_COORD97":170801.15315599999,"N_COORD97":2541235.0548399999,"ADDRESS":"崇德路６５５號","OBJECTID":649330},"geometry":{"x":170801.15315600019,"y":2541235.0548430048}},{"attributes":{"ID":649358,"DIS_CODE":0,"TOWNNAME":"東區","LI":"崇信里","LIN":"1鄰","STREET":"東門路","SECT":"二段","MAREA":" ","LANE":" ","ALLEY":" ","HOUSE_NO":"３４２之１號","E_COORD97":170725.74768500001,"N_COORD97":2542595.97126,"ADDRESS":"東門路二段３４２之１號","OBJECTID":649331},"geometry":{"x":170725.7476850003,"y":2542595.9712610021}},{"attributes":{"ID":649359,"DIS_CODE":0,"TOWNNAME":"東區","LI":"崇信里","LIN":"1鄰","STREET":"東門路","SECT":"二段","MAREA":" ","LANE":" ","ALLEY":" ","HOUSE_NO":"３４２號","E_COORD97":170721.11382900001,"N_COORD97":2542598.8119800002,"ADDRESS":"東門路二段３４２號","OBJECTID":649332},"geometry":{"x":170721.11382900178,"y":2542598.8119830005}},{"attributes":{"ID":649360,"DIS_CODE":0,"TOWNNAME":"東區","LI":"崇善里","LIN":"12鄰","STREET":"崇善九街","SECT":" ","MAREA":" ","LANE":" ","ALLEY":" ","HOUSE_NO":"１９號","E_COORD97":171129.103768,"N_COORD97":2541341.0032600001,"ADDRESS":"崇善九街１９號","OBJECTID":649333},"geometry":{"x":171129.10376800038,"y":2541341.0032640025}},{"attributes":{"ID":649361,"DIS_CODE":0,"TOWNNAME":"安南區","LI":"佃東里","LIN":"5鄰","STREET":"十二佃路","SECT":" ","MAREA":" ","LANE":"１４６巷","ALLEY":" ","HOUSE_NO":"３５號","E_COORD97":165424.00765300001,"N_COORD97":2552207.89292,"ADDRESS":"十二佃路１４６巷３５號","OBJECTID":649334},"geometry":{"x":165424.00765300076,"y":2552207.8929169979}},{"attributes":{"ID":649362,"DIS_CODE":0,"TOWNNAME":"安南區","LI":"佃東里","LIN":"5鄰","STREET":"十二佃路","SECT":" ","MAREA":" ","LANE":"１４６巷","ALLEY":" ","HOUSE_NO":"３７號","E_COORD97":165423.79592,"N_COORD97":2552217.2062499998,"ADDRESS":"十二佃路１４６巷３７號","OBJECTID":649335},"geometry":{"x":165423.79592000134,"y":2552217.2062449995}},{"attributes":{"ID":649363,"DIS_CODE":0,"TOWNNAME":"關廟區","LI":"東勢里","LIN":"4鄰","STREET":"和平路","SECT":" ","MAREA":" ","LANE":"１００巷","ALLEY":"９弄","HOUSE_NO":"１號","E_COORD97":181758.91017700001,"N_COORD97":2539490.8736299998,"ADDRESS":"和平路１００巷９弄１號","OBJECTID":649336},"geometry":{"x":181758.91017700173,"y":2539490.8736300003}},{"attributes":{"ID":649364,"DIS_CODE":0,"TOWNNAME":"安南區","LI":"佃東里","LIN":"5鄰","STREET":"十二佃路","SECT":" ","MAREA":" ","LANE":"１４６巷","ALLEY":" ","HOUSE_NO":"３９號","E_COORD97":165423.79592,"N_COORD97":2552223.1329100002,"ADDRESS":"十二佃路１４６巷３９號","OBJECTID":649337},"geometry":{"x":165423.79592000134,"y":2552223.1329089999}},{"attributes":{"ID":649365,"DIS_CODE":0,"TOWNNAME":"安南區","LI":"佃東里","LIN":"5鄰","STREET":"十二佃路","SECT":" ","MAREA":" ","LANE":"１４６巷","ALLEY":" ","HOUSE_NO":"４１號","E_COORD97":165424.00765300001,"N_COORD97":2552227.3662399999,"ADDRESS":"十二佃路１４６巷４１號","OBJECTID":649338},"geometry":{"x":165424.00765300076,"y":2552227.3662400022}},{"attributes":{"ID":649366,"DIS_CODE":0,"TOWNNAME":"安南區","LI":"佃東里","LIN":"5鄰","STREET":"十二佃路","SECT":" ","MAREA":" ","LANE":"１４６巷","ALLEY":" ","HOUSE_NO":"４３號","E_COORD97":165423.372454,"N_COORD97":2552233.0812400002,"ADDRESS":"十二佃路１４６巷４３號","OBJECTID":649339},"geometry":{"x":165423.37245400064,"y":2552233.0812370013}},{"attributes":{"ID":649367,"DIS_CODE":0,"TOWNNAME":"安南區","LI":"佃東里","LIN":"5鄰","STREET":"十二佃路","SECT":" ","MAREA":" ","LANE":"１４６巷","ALLEY":" ","HOUSE_NO":"４５號","E_COORD97":165422.94898799999,"N_COORD97":2552239.0079000001,"ADDRESS":"十二佃路１４６巷４５號","OBJECTID":649340},"geometry":{"x":165422.94898800086,"y":2552239.0079000033}},{"attributes":{"ID":649368,"DIS_CODE":0,"TOWNNAME":"安南區","LI":"佃東里","LIN":"5鄰","STREET":"十二佃路","SECT":" ","MAREA":" ","LANE":"１４６巷","ALLEY":" ","HOUSE_NO":"４７號","E_COORD97":165422.94898799999,"N_COORD97":2552246.6279000002,"ADDRESS":"十二佃路１４６巷４７號","OBJECTID":649341},"geometry":{"x":165422.94898800086,"y":2552246.6278960016}},{"attributes":{"ID":649369,"DIS_CODE":0,"TOWNNAME":"安南區","LI":"佃東里","LIN":"5鄰","STREET":"十二佃路","SECT":" ","MAREA":" ","LANE":"１４６巷","ALLEY":" ","HOUSE_NO":"４９號","E_COORD97":165421.67859,"N_COORD97":2552251.4962300002,"ADDRESS":"十二佃路１４６巷４９號","OBJECTID":649342},"geometry":{"x":165421.67859000061,"y":2552251.4962270036}},{"attributes":{"ID":649370,"DIS_CODE":0,"TOWNNAME":"安南區","LI":"佃東里","LIN":"5鄰","STREET":"十二佃路","SECT":" ","MAREA":" ","LANE":"１４６巷","ALLEY":" ","HOUSE_NO":"５１號","E_COORD97":165419.77299200001,"N_COORD97":2552256.7878899998,"ADDRESS":"十二佃路１４６巷５１號","OBJECTID":649343},"geometry":{"x":165419.77299200092,"y":2552256.7878910042}},{"attributes":{"ID":649371,"DIS_CODE":0,"TOWNNAME":"安南區","LI":"佃東里","LIN":"5鄰","STREET":"十二佃路","SECT":" ","MAREA":" ","LANE":"１４６巷","ALLEY":" ","HOUSE_NO":"５３號","E_COORD97":165418.50259399999,"N_COORD97":2552263.1378899999,"ADDRESS":"十二佃路１４６巷５３號","OBJECTID":649344},"geometry":{"x":165418.50259400066,"y":2552263.1378870029}},{"attributes":{"ID":649372,"DIS_CODE":0,"TOWNNAME":"安南區","LI":"佃東里","LIN":"5鄰","STREET":"十二佃路","SECT":" ","MAREA":" ","LANE":"１４６巷","ALLEY":" ","HOUSE_NO":"５５號","E_COORD97":165416.80872999999,"N_COORD97":2552268.2178799999,"ADDRESS":"十二佃路１４６巷５５號","OBJECTID":649345},"geometry":{"x":165416.8087299997,"y":2552268.2178840023}},{"attributes":{"ID":649373,"DIS_CODE":0,"TOWNNAME":"安南區","LI":"佃東里","LIN":"5鄰","STREET":"十二佃路","SECT":" ","MAREA":" ","LANE":"１４６巷","ALLEY":" ","HOUSE_NO":"５７號","E_COORD97":165414.479666,"N_COORD97":2552273.29788,"ADDRESS":"十二佃路１４６巷５７號","OBJECTID":649346},"geometry":{"x":165414.47966600023,"y":2552273.297882}},{"attributes":{"ID":649374,"DIS_CODE":0,"TOWNNAME":"東區","LI":"崇德里","LIN":"10鄰","STREET":"崇德九街","SECT":" ","MAREA":" ","LANE":" ","ALLEY":" ","HOUSE_NO":"５５號","E_COORD97":170918.26865099999,"N_COORD97":2541574.27629,"ADDRESS":"崇德九街５５號","OBJECTID":649347},"geometry":{"x":170918.26865100022,"y":2541574.2762940023}},{"attributes":{"ID":649375,"DIS_CODE":0,"TOWNNAME":"東區","LI":"崇學里","LIN":"5鄰","STREET":"崇德路","SECT":" ","MAREA":" ","LANE":"３３３巷","ALLEY":" ","HOUSE_NO":"１６號","E_COORD97":170430.93307200001,"N_COORD97":2542047.58947,"ADDRESS":"崇德路３３３巷１６號","OBJECTID":649348},"geometry":{"x":170430.93307199981,"y":2542047.5894670002}},{"attributes":{"ID":649376,"DIS_CODE":0,"TOWNNAME":"東區","LI":"崇學里","LIN":"5鄰","STREET":"崇德路","SECT":" ","MAREA":" ","LANE":"３３３巷","ALLEY":" ","HOUSE_NO":"１８號","E_COORD97":170439.77951399999,"N_COORD97":2542041.5923899999,"ADDRESS":"崇德路３３３巷１８號","OBJECTID":649349},"geometry":{"x":170439.77951400075,"y":2542041.5923929997}},{"attributes":{"ID":649377,"DIS_CODE":0,"TOWNNAME":"東區","LI":"崇學里","LIN":"5鄰","STREET":"崇德路","SECT":" ","MAREA":" ","LANE":"３３３巷","ALLEY":" ","HOUSE_NO":"２０號","E_COORD97":170447.04800800001,"N_COORD97":2542035.34204,"ADDRESS":"崇德路３３３巷２０號","OBJECTID":649350},"geometry":{"x":170447.04800799955,"y":2542035.3420349993}},{"attributes":{"ID":649378,"DIS_CODE":0,"TOWNNAME":"東區","LI":"崇學里","LIN":"5鄰","STREET":"崇德路","SECT":" ","MAREA":" ","LANE":"３３３巷","ALLEY":" ","HOUSE_NO":"２２號","E_COORD97":170452.50284199999,"N_COORD97":2542042.7548600002,"ADDRESS":"崇德路３３３巷２２號","OBJECTID":649351},"geometry":{"x":170452.50284200162,"y":2542042.7548600007}},{"attributes":{"ID":649379,"DIS_CODE":0,"TOWNNAME":"東區","LI":"崇學里","LIN":"5鄰","STREET":"崇德路","SECT":" ","MAREA":" ","LANE":"３３３巷","ALLEY":" ","HOUSE_NO":"２６號","E_COORD97":170445.44675900001,"N_COORD97":2542047.91023,"ADDRESS":"崇德路３３３巷２６號","OBJECTID":649352},"geometry":{"x":170445.44675900135,"y":2542047.910233004}},{"attributes":{"ID":649380,"DIS_CODE":0,"TOWNNAME":"東區","LI":"崇學里","LIN":"5鄰","STREET":"崇德路","SECT":" ","MAREA":" ","LANE":"３３３巷","ALLEY":" ","HOUSE_NO":"２８號","E_COORD97":170437.238866,"N_COORD97":2542054.8613999998,"ADDRESS":"崇德路３３３巷２８號","OBJECTID":649353},"geometry":{"x":170437.23886600044,"y":2542054.8614040036}},{"attributes":{"ID":649381,"DIS_CODE":0,"TOWNNAME":"東區","LI":"崇學里","LIN":"5鄰","STREET":"崇德四街","SECT":" ","MAREA":" ","LANE":"５巷","ALLEY":" ","HOUSE_NO":"５０號","E_COORD97":170437.02801499999,"N_COORD97":2542025.0551499999,"ADDRESS":"崇德四街５巷５０號","OBJECTID":649354},"geometry":{"x":170437.02801500075,"y":2542025.0551500022}},{"attributes":{"ID":649382,"DIS_CODE":0,"TOWNNAME":"東區","LI":"崇學里","LIN":"5鄰","STREET":"崇德四街","SECT":" ","MAREA":" ","LANE":"５巷","ALLEY":" ","HOUSE_NO":"５２號","E_COORD97":170430.49429599999,"N_COORD97":2542030.4987699999,"ADDRESS":"崇德四街５巷５２號","OBJECTID":649355},"geometry":{"x":170430.49429600127,"y":2542030.4987690002}},{"attributes":{"ID":649383,"DIS_CODE":0,"TOWNNAME":"東區","LI":"崇學里","LIN":"5鄰","STREET":"崇德四街","SECT":" ","MAREA":" ","LANE":"５巷","ALLEY":" ","HOUSE_NO":"５６號","E_COORD97":170421.42504999999,"N_COORD97":2542035.1660699998,"ADDRESS":"崇德四街５巷５６號","OBJECTID":649356},"geometry":{"x":170421.42504999973,"y":2542035.1660649981}},{"attributes":{"ID":649384,"DIS_CODE":0,"TOWNNAME":"東區","LI":"崇學里","LIN":"19鄰","STREET":"崇德四街","SECT":" ","MAREA":" ","LANE":"７巷","ALLEY":" ","HOUSE_NO":"５３號","E_COORD97":170462.13990000001,"N_COORD97":2542053.0833899998,"ADDRESS":"崇德四街７巷５３號","OBJECTID":649357},"geometry":{"x":170462.13990000077,"y":2542053.0833909977}},{"attributes":{"ID":649385,"DIS_CODE":0,"TOWNNAME":"東區","LI":"崇學里","LIN":"19鄰","STREET":"崇德四街","SECT":" ","MAREA":" ","LANE":"７巷","ALLEY":" ","HOUSE_NO":"５５號","E_COORD97":170454.79870799999,"N_COORD97":2542058.8267199998,"ADDRESS":"崇德四街７巷５５號","OBJECTID":649358},"geometry":{"x":170454.79870800022,"y":2542058.8267190009}},{"attributes":{"ID":649386,"DIS_CODE":0,"TOWNNAME":"東區","LI":"崇學里","LIN":"19鄰","STREET":"崇德四街","SECT":" ","MAREA":" ","LANE":"７巷","ALLEY":" ","HOUSE_NO":"５７號","E_COORD97":170445.644019,"N_COORD97":2542063.0290799998,"ADDRESS":"崇德四街７巷５７號","OBJECTID":649359},"geometry":{"x":170445.64401900023,"y":2542063.0290750023}},{"attributes":{"ID":649387,"DIS_CODE":0,"TOWNNAME":"東區","LI":"德高里","LIN":"5鄰","STREET":"仁和路","SECT":" ","MAREA":" ","LANE":"２５２巷","ALLEY":" ","HOUSE_NO":"１０號","E_COORD97":171557.02604600001,"N_COORD97":2540871.3000599998,"ADDRESS":"仁和路２５２巷１０號","OBJECTID":649360},"geometry":{"x":171557.02604600228,"y":2540871.3000559993}},{"attributes":{"ID":649388,"DIS_CODE":0,"TOWNNAME":"東區","LI":"德高里","LIN":"5鄰","STREET":"仁和路","SECT":" ","MAREA":" ","LANE":"２５２巷","ALLEY":" ","HOUSE_NO":"１２號","E_COORD97":171554.39318799999,"N_COORD97":2540867.8280799999,"ADDRESS":"仁和路２５２巷１２號","OBJECTID":649361},"geometry":{"x":171554.39318800066,"y":2540867.8280810006}},{"attributes":{"ID":649389,"DIS_CODE":0,"TOWNNAME":"東區","LI":"德高里","LIN":"5鄰","STREET":"仁和路","SECT":" ","MAREA":" ","LANE":"２５２巷","ALLEY":" ","HOUSE_NO":"１６號","E_COORD97":171552.30153500001,"N_COORD97":2540864.0509899999,"ADDRESS":"仁和路２５２巷１６號","OBJECTID":649362},"geometry":{"x":171552.30153500009,"y":2540864.0509929992}},{"attributes":{"ID":649390,"DIS_CODE":0,"TOWNNAME":"東區","LI":"德高里","LIN":"5鄰","STREET":"仁和路","SECT":" ","MAREA":" ","LANE":"２５２巷","ALLEY":" ","HOUSE_NO":"１６之１號","E_COORD97":171549.03335499999,"N_COORD97":2540860.5753600001,"ADDRESS":"仁和路２５２巷１６之１號","OBJECTID":649363},"geometry":{"x":171549.03335500136,"y":2540860.5753640011}},{"attributes":{"ID":649391,"DIS_CODE":0,"TOWNNAME":"安南區","LI":"佃東里","LIN":"20鄰","STREET":"公學路","SECT":"四段","MAREA":" ","LANE":" ","ALLEY":" ","HOUSE_NO":"７２號","E_COORD97":165768.28558299999,"N_COORD97":2552046.3913400001,"ADDRESS":"公學路四段７２號","OBJECTID":649364},"geometry":{"x":165768.28558300063,"y":2552046.3913380019}},{"attributes":{"ID":649392,"DIS_CODE":0,"TOWNNAME":"東區","LI":"德高里","LIN":"5鄰","STREET":"仁和路","SECT":" ","MAREA":" ","LANE":"２５２巷","ALLEY":" ","HOUSE_NO":"１６之２號","E_COORD97":171546.30361900001,"N_COORD97":2540857.0091599999,"ADDRESS":"仁和路２５２巷１６之２號","OBJECTID":649365},"geometry":{"x":171546.30361900199,"y":2540857.009157002}},{"attributes":{"ID":649393,"DIS_CODE":0,"TOWNNAME":"善化區","LI":"坐駕里","LIN":"9鄰","STREET":" ","SECT":" ","MAREA":"坐駕","LANE":" ","ALLEY":" ","HOUSE_NO":"１１之１號","E_COORD97":178162.45845899999,"N_COORD97":2558455.8052099999,"ADDRESS":"坐駕１１之１號","OBJECTID":649366},"geometry":{"x":178162.4584590001,"y":2558455.8052069992}},{"attributes":{"ID":649394,"DIS_CODE":0,"TOWNNAME":"東區","LI":"南聖里","LIN":"10鄰","STREET":"裕孝路","SECT":" ","MAREA":" ","LANE":" ","ALLEY":" ","HOUSE_NO":"５８號","E_COORD97":172422.052513,"N_COORD97":2543182.1090000002,"ADDRESS":"裕孝路５８號","OBJECTID":649367},"geometry":{"x":172422.05251300056,"y":2543182.109000003}},{"attributes":{"ID":649395,"DIS_CODE":0,"TOWNNAME":"東區","LI":"裕聖里","LIN":"8鄰","STREET":"裕信六街","SECT":" ","MAREA":" ","LANE":" ","ALLEY":" ","HOUSE_NO":"１５５號","E_COORD97":172821.129289,"N_COORD97":2541900.9126300002,"ADDRESS":"裕信六街１５５號","OBJECTID":649368},"geometry":{"x":172821.12928900123,"y":2541900.9126300011}},{"attributes":{"ID":649396,"DIS_CODE":0,"TOWNNAME":"安南區","LI":"佃東里","LIN":"1鄰","STREET":"安吉路","SECT":"二段","MAREA":" ","LANE":"５１１巷","ALLEY":" ","HOUSE_NO":"３５５號","E_COORD97":166587.69246600001,"N_COORD97":2551311.2733999998,"ADDRESS":"安吉路二段５１１巷３５５號","OBJECTID":649369},"geometry":{"x":166587.69246599916,"y":2551311.2734009996}},{"attributes":{"ID":649397,"DIS_CODE":0,"TOWNNAME":"東區","LI":"裕聖里","LIN":"8鄰","STREET":"裕敬五街","SECT":" ","MAREA":" ","LANE":" ","ALLEY":" ","HOUSE_NO":"１７０號","E_COORD97":172830.30126899999,"N_COORD97":2541900.3860200001,"ADDRESS":"裕敬五街１７０號","OBJECTID":649370},"geometry":{"x":172830.30126900133,"y":2541900.386020001}},{"attributes":{"ID":649398,"DIS_CODE":0,"TOWNNAME":"安南區","LI":"佃東里","LIN":"18鄰","STREET":"公學路","SECT":"四段","MAREA":" ","LANE":"２巷","ALLEY":"１５０弄","HOUSE_NO":"１５號","E_COORD97":166085.46168400001,"N_COORD97":2552437.9744600002,"ADDRESS":"公學路四段２巷１５０弄１５號","OBJECTID":649371},"geometry":{"x":166085.46168400068,"y":2552437.9744590018}},{"attributes":{"ID":649399,"DIS_CODE":0,"TOWNNAME":"安南區","LI":"佃東里","LIN":"18鄰","STREET":"公學路","SECT":"四段","MAREA":" ","LANE":"２巷","ALLEY":"１５０弄","HOUSE_NO":"２５號","E_COORD97":166086.09688299999,"N_COORD97":2552445.5944599998,"ADDRESS":"公學路四段２巷１５０弄２５號","OBJECTID":649372},"geometry":{"x":166086.09688300081,"y":2552445.594455}},{"attributes":{"ID":649400,"DIS_CODE":0,"TOWNNAME":"安南區","LI":"佃東里","LIN":"1鄰","STREET":"台江大道","SECT":"三段","MAREA":" ","LANE":" ","ALLEY":" ","HOUSE_NO":"２９８號（農業資料材","E_COORD97":166183.91755000001,"N_COORD97":2551291.5884099999,"ADDRESS":"台江大道三段２９８號（農業資料材室）","OBJECTID":649373},"geometry":{"x":166183.91755000129,"y":2551291.5884120017}},{"attributes":{"ID":649401,"DIS_CODE":0,"TOWNNAME":"東區","LI":"和平里","LIN":"24鄰","STREET":"仁和路","SECT":" ","MAREA":" ","LANE":"１０９巷","ALLEY":"１３５弄","HOUSE_NO":"４３號","E_COORD97":171675.432757,"N_COORD97":2541373.0398300001,"ADDRESS":"仁和路１０９巷１３５弄４３號","OBJECTID":649374},"geometry":{"x":171675.43275700137,"y":2541373.0398280043}},{"attributes":{"ID":649402,"DIS_CODE":0,"TOWNNAME":"東區","LI":"和平里","LIN":"24鄰","STREET":"仁和路","SECT":" ","MAREA":" ","LANE":"１０９巷","ALLEY":"１３５弄","HOUSE_NO":"４５號","E_COORD97":171679.37593800001,"N_COORD97":2541372.8281899998,"ADDRESS":"仁和路１０９巷１３５弄４５號","OBJECTID":649375},"geometry":{"x":171679.37593800109,"y":2541372.8281870019}},{"attributes":{"ID":649403,"DIS_CODE":0,"TOWNNAME":"安南區","LI":"佃東里","LIN":"1鄰","STREET":"台江大道","SECT":"三段","MAREA":" ","LANE":"５１１巷","ALLEY":" ","HOUSE_NO":"３００號","E_COORD97":166163.16771099999,"N_COORD97":2551293.07008,"ADDRESS":"台江大道三段５１１巷３００號","OBJECTID":649376},"geometry":{"x":166163.16771099996,"y":2551293.0700780023}},{"attributes":{"ID":649404,"DIS_CODE":0,"TOWNNAME":"東區","LI":"和平里","LIN":"24鄰","STREET":"仁和路","SECT":" ","MAREA":" ","LANE":"１０９巷","ALLEY":"１３５弄","HOUSE_NO":"４７號","E_COORD97":171684.38440000001,"N_COORD97":2541372.6189899999,"ADDRESS":"仁和路１０９巷１３５弄４７號","OBJECTID":649377},"geometry":{"x":171684.38440000173,"y":2541372.6189850029}},{"attributes":{"ID":649405,"DIS_CODE":0,"TOWNNAME":"安南區","LI":"佃東里","LIN":"1鄰","STREET":"海佃路","SECT":"四段","MAREA":" ","LANE":"３８８巷","ALLEY":"２弄","HOUSE_NO":"２８８號","E_COORD97":166174.389563,"N_COORD97":2551311.9084000001,"ADDRESS":"海佃路四段３８８巷２弄２８８號","OBJECTID":649378},"geometry":{"x":166174.38956300076,"y":2551311.9084009975}},{"attributes":{"ID":649406,"DIS_CODE":0,"TOWNNAME":"東區","LI":"和平里","LIN":"24鄰","STREET":"仁和路","SECT":" ","MAREA":" ","LANE":"１０９巷","ALLEY":"１３５弄","HOUSE_NO":"４９號","E_COORD97":171688.20363900001,"N_COORD97":2541372.17087,"ADDRESS":"仁和路１０９巷１３５弄４９號","OBJECTID":649379},"geometry":{"x":171688.20363900159,"y":2541372.1708690021}},{"attributes":{"ID":649407,"DIS_CODE":0,"TOWNNAME":"東區","LI":"和平里","LIN":"24鄰","STREET":"仁和路","SECT":" ","MAREA":" ","LANE":"１０９巷","ALLEY":"１３５弄","HOUSE_NO":"５１號","E_COORD97":171692.62915299999,"N_COORD97":2541372.6971999998,"ADDRESS":"仁和路１０９巷１３５弄５１號","OBJECTID":649380},"geometry":{"x":171692.62915300112,"y":2541372.6972010024}},{"attributes":{"ID":649408,"DIS_CODE":0,"TOWNNAME":"東區","LI":"和平里","LIN":"24鄰","STREET":"仁和路","SECT":" ","MAREA":" ","LANE":"１０９巷","ALLEY":"１３５弄","HOUSE_NO":"５３號","E_COORD97":171696.843929,"N_COORD97":2541372.17087,"ADDRESS":"仁和路１０９巷１３５弄５３號","OBJECTID":649381},"geometry":{"x":171696.84392900113,"y":2541372.1708690021}},{"attributes":{"ID":649409,"DIS_CODE":0,"TOWNNAME":"安南區","LI":"佃東里","LIN":"1鄰","STREET":"安吉路","SECT":"二段","MAREA":" ","LANE":"５１１巷","ALLEY":" ","HOUSE_NO":"９９號","E_COORD97":166911.220558,"N_COORD97":2551511.2982899998,"ADDRESS":"安吉路二段５１１巷９９號","OBJECTID":649382},"geometry":{"x":166911.22055800073,"y":2551511.2982930001}},{"attributes":{"ID":649410,"DIS_CODE":0,"TOWNNAME":"東區","LI":"和平里","LIN":"24鄰","STREET":"仁和路","SECT":" ","MAREA":" ","LANE":"１０９巷","ALLEY":"１３５弄","HOUSE_NO":"５５號","E_COORD97":171701.90166,"N_COORD97":2541371.6445399998,"ADDRESS":"仁和路１０９巷１３５弄５５號","OBJECTID":649383},"geometry":{"x":171701.90166000091,"y":2541371.644537}},{"attributes":{"ID":649411,"DIS_CODE":0,"TOWNNAME":"東區","LI":"和平里","LIN":"24鄰","STREET":"仁和路","SECT":" ","MAREA":" ","LANE":"１０９巷","ALLEY":"１３５弄","HOUSE_NO":"５７號","E_COORD97":171706.95939199999,"N_COORD97":2541371.9603400002,"ADDRESS":"仁和路１０９巷１３５弄５７號","OBJECTID":649384},"geometry":{"x":171706.95939200185,"y":2541371.9603360016}},{"attributes":{"ID":649412,"DIS_CODE":0,"TOWNNAME":"東區","LI":"和平里","LIN":"24鄰","STREET":"仁和路","SECT":" ","MAREA":" ","LANE":"１０９巷","ALLEY":"１３５弄","HOUSE_NO":"５９號","E_COORD97":171714.545988,"N_COORD97":2541372.2761300001,"ADDRESS":"仁和路１０９巷１３５弄５９號","OBJECTID":649385},"geometry":{"x":171714.54598800093,"y":2541372.2761349995}},{"attributes":{"ID":649413,"DIS_CODE":0,"TOWNNAME":"善化區","LI":"坐駕里","LIN":"22鄰","STREET":"建國路","SECT":" ","MAREA":" ","LANE":" ","ALLEY":" ","HOUSE_NO":"３０號","E_COORD97":178069.236381,"N_COORD97":2558445.9210299999,"ADDRESS":"建國路３０號","OBJECTID":649386},"geometry":{"x":178069.23638100084,"y":2558445.9210270029}},{"attributes":{"ID":649414,"DIS_CODE":0,"TOWNNAME":"東區","LI":"和平里","LIN":"24鄰","STREET":"仁和路","SECT":" ","MAREA":" ","LANE":"１０９巷","ALLEY":"１３５弄","HOUSE_NO":"６１號","E_COORD97":171714.545988,"N_COORD97":2541384.8028299999,"ADDRESS":"仁和路１０９巷１３５弄６１號","OBJECTID":649387},"geometry":{"x":171714.54598800093,"y":2541384.8028340004}},{"attributes":{"ID":649415,"DIS_CODE":0,"TOWNNAME":"關廟區","LI":"深坑里","LIN":"12鄰","STREET":"深坑二街","SECT":" ","MAREA":" ","LANE":"５２巷","ALLEY":" ","HOUSE_NO":"３號","E_COORD97":181540.44706599999,"N_COORD97":2537597.9380800002,"ADDRESS":"深坑二街５２巷３號","OBJECTID":649388},"geometry":{"x":181540.44706600066,"y":2537597.9380799998}},{"attributes":{"ID":649416,"DIS_CODE":0,"TOWNNAME":"善化區","LI":"坐駕里","LIN":"23鄰","STREET":" ","SECT":" ","MAREA":"坐駕","LANE":" ","ALLEY":" ","HOUSE_NO":"２１號","E_COORD97":178660.720287,"N_COORD97":2558143.0261900001,"ADDRESS":"坐駕２１號","OBJECTID":649389},"geometry":{"x":178660.72028700076,"y":2558143.0261909999}},{"attributes":{"ID":649417,"DIS_CODE":0,"TOWNNAME":"善化區","LI":"坐駕里","LIN":"23鄰","STREET":" ","SECT":" ","MAREA":"坐駕","LANE":" ","ALLEY":" ","HOUSE_NO":"５２號","E_COORD97":178570.92824400001,"N_COORD97":2558463.9126800001,"ADDRESS":"坐駕５２號","OBJECTID":649390},"geometry":{"x":178570.92824400216,"y":2558463.912684001}},{"attributes":{"ID":649418,"DIS_CODE":0,"TOWNNAME":"中西區","LI":"普濟里","LIN":"7鄰","STREET":"海安路","SECT":"二段","MAREA":" ","LANE":" ","ALLEY":" ","HOUSE_NO":"３１８號","E_COORD97":167817.33420400001,"N_COORD97":2544407.4649499999,"ADDRESS":"海安路二段３１８號","OBJECTID":649391},"geometry":{"x":167817.33420400042,"y":2544407.464949999}},{"attributes":{"ID":649419,"DIS_CODE":0,"TOWNNAME":"關廟區","LI":"深坑里","LIN":"12鄰","STREET":"深坑二街","SECT":" ","MAREA":" ","LANE":" ","ALLEY":" ","HOUSE_NO":"５８之１號","E_COORD97":181532.184048,"N_COORD97":2537554.7581000002,"ADDRESS":"深坑二街５８之１號","OBJECTID":649392},"geometry":{"x":181532.18404800072,"y":2537554.7581040021}},{"attributes":{"ID":649420,"DIS_CODE":0,"TOWNNAME":"關廟區","LI":"東勢里","LIN":"17鄰","STREET":"東榮街","SECT":" ","MAREA":" ","LANE":" ","ALLEY":" ","HOUSE_NO":"３０號","E_COORD97":181961.989737,"N_COORD97":2539362.4449499999,"ADDRESS":"東榮街３０號","OBJECTID":649393},"geometry":{"x":181961.98973700032,"y":2539362.4449500013}},{"attributes":{"ID":649421,"DIS_CODE":0,"TOWNNAME":"關廟區","LI":"深坑里","LIN":"12鄰","STREET":"深坑二街","SECT":" ","MAREA":" ","LANE":"６８巷","ALLEY":" ","HOUSE_NO":"６號","E_COORD97":181561.84616399999,"N_COORD97":2537541.3172800001,"ADDRESS":"深坑二街６８巷６號","OBJECTID":649394},"geometry":{"x":181561.84616400115,"y":2537541.3172769994}},{"attributes":{"ID":649422,"DIS_CODE":0,"TOWNNAME":"關廟區","LI":"東勢里","LIN":"17鄰","STREET":"東榮街","SECT":" ","MAREA":" ","LANE":" ","ALLEY":" ","HOUSE_NO":"３２號","E_COORD97":181962.837226,"N_COORD97":2539353.1316200001,"ADDRESS":"東榮街３２號","OBJECTID":649395},"geometry":{"x":181962.83722600061,"y":2539353.1316219997}},{"attributes":{"ID":649423,"DIS_CODE":0,"TOWNNAME":"關廟區","LI":"深坑里","LIN":"12鄰","STREET":"深坑二街","SECT":" ","MAREA":" ","LANE":"６８巷","ALLEY":" ","HOUSE_NO":"１０號","E_COORD97":181549.76944500001,"N_COORD97":2537547.0322699999,"ADDRESS":"深坑二街６８巷１０號","OBJECTID":649396},"geometry":{"x":181549.76944500022,"y":2537547.0322740041}},{"attributes":{"ID":649424,"DIS_CODE":0,"TOWNNAME":"關廟區","LI":"深坑里","LIN":"12鄰","STREET":"深坑二街","SECT":" ","MAREA":" ","LANE":"６８巷","ALLEY":" ","HOUSE_NO":"１２號","E_COORD97":181541.50642699999,"N_COORD97":2537544.7039399999,"ADDRESS":"深坑二街６８巷１２號","OBJECTID":649397},"geometry":{"x":181541.50642700028,"y":2537544.7039420009}},{"attributes":{"ID":649425,"DIS_CODE":0,"TOWNNAME":"安南區","LI":"溪東里","LIN":"3鄰","STREET":"府安路","SECT":"五段","MAREA":" ","LANE":" ","ALLEY":" ","HOUSE_NO":"１１５號","E_COORD97":168005.236818,"N_COORD97":2547160.2372300001,"ADDRESS":"府安路五段１１５號","OBJECTID":649398},"geometry":{"x":168005.23681800067,"y":2547160.2372260001}},{"attributes":{"ID":649426,"DIS_CODE":0,"TOWNNAME":"仁德區","LI":"成功里","LIN":"8鄰","STREET":"保生東路","SECT":" ","MAREA":" ","LANE":" ","ALLEY":" ","HOUSE_NO":"２４８號","E_COORD97":171103.41084500001,"N_COORD97":2539786.08402,"ADDRESS":"保生東路２４８號","OBJECTID":649399},"geometry":{"x":171103.4108450003,"y":2539786.0840200037}},{"attributes":{"ID":649427,"DIS_CODE":0,"TOWNNAME":"仁德區","LI":"成功里","LIN":"8鄰","STREET":"保生東路","SECT":" ","MAREA":" ","LANE":" ","ALLEY":" ","HOUSE_NO":"２４６號","E_COORD97":171108.65032099999,"N_COORD97":2539786.5867300001,"ADDRESS":"保生東路２４６號","OBJECTID":649400},"geometry":{"x":171108.65032099932,"y":2539786.586728001}}]}