{"displayFieldName":"TOWNNAME","fieldAliases":{"ID":"ID","DIS_CODE":"DIS_CODE","TOWNNAME":"TOWNNAME","LI":"LI","LIN":"LIN","STREET":"STREET","SECT":"SECT","MAREA":"MAREA","LANE":"LANE","ALLEY":"ALLEY","HOUSE_NO":"HOUSE_NO","E_COORD97":"E_COORD97","N_COORD97":"N_COORD97","ADDRESS":"ADDRESS","OBJECTID":"OBJECTID"},"geometryType":"esriGeometryPoint","spatialReference":{"wkid":102443,"latestWkid":3826},"fields":[{"name":"ID","type":"esriFieldTypeDouble","alias":"ID"},{"name":"DIS_CODE","type":"esriFieldTypeInteger","alias":"DIS_CODE"},{"name":"TOWNNAME","type":"esriFieldTypeString","alias":"TOWNNAME","length":8},{"name":"LI","type":"esriFieldTypeString","alias":"LI","length":8},{"name":"LIN","type":"esriFieldTypeString","alias":"LIN","length":12},{"name":"STREET","type":"esriFieldTypeString","alias":"STREET","length":20},{"name":"SECT","type":"esriFieldTypeString","alias":"SECT","length":8},{"name":"MAREA","type":"esriFieldTypeString","alias":"MAREA","length":12},{"name":"LANE","type":"esriFieldTypeString","alias":"LANE","length":10},{"name":"ALLEY","type":"esriFieldTypeString","alias":"ALLEY","length":10},{"name":"HOUSE_NO","type":"esriFieldTypeString","alias":"HOUSE_NO","length":20},{"name":"E_COORD97","type":"esriFieldTypeDouble","alias":"E_COORD97"},{"name":"N_COORD97","type":"esriFieldTypeDouble","alias":"N_COORD97"},{"name":"ADDRESS","type":"esriFieldTypeString","alias":"ADDRESS","length":50},{"name":"OBJECTID","type":"esriFieldTypeOID","alias":"OBJECTID"}],"features":[{"attributes":{"ID":639228,"DIS_CODE":0,"TOWNNAME":"六甲區","LI":"六甲里","LIN":"14鄰","STREET":"民生街","SECT":" ","MAREA":" ","LANE":" ","ALLEY":" ","HOUSE_NO":"１７５號","E_COORD97":183785.51999999999,"N_COORD97":2569882.8999999999,"ADDRESS":"民生街１７５號","OBJECTID":639201},"geometry":{"x":183785.52000000048,"y":2569882.9000000004}},{"attributes":{"ID":639229,"DIS_CODE":0,"TOWNNAME":"六甲區","LI":"六甲里","LIN":"14鄰","STREET":"民生街","SECT":" ","MAREA":" ","LANE":" ","ALLEY":" ","HOUSE_NO":"１７７號","E_COORD97":183787.54999999999,"N_COORD97":2569885.6299999999,"ADDRESS":"民生街１７７號","OBJECTID":639202},"geometry":{"x":183787.54999999981,"y":2569885.6300000008}},{"attributes":{"ID":639230,"DIS_CODE":0,"TOWNNAME":"六甲區","LI":"六甲里","LIN":"14鄰","STREET":"民生街","SECT":" ","MAREA":" ","LANE":" ","ALLEY":" ","HOUSE_NO":"１７９號","E_COORD97":183789.89999999999,"N_COORD97":2569888.4399999999,"ADDRESS":"民生街１７９號","OBJECTID":639203},"geometry":{"x":183789.90000000224,"y":2569888.4399999995}},{"attributes":{"ID":639231,"DIS_CODE":0,"TOWNNAME":"六甲區","LI":"六甲里","LIN":"14鄰","STREET":"民生街","SECT":" ","MAREA":" ","LANE":" ","ALLEY":" ","HOUSE_NO":"１８１號","E_COORD97":183791.84,"N_COORD97":2569891.1400000001,"ADDRESS":"民生街１８１號","OBJECTID":639204},"geometry":{"x":183791.84000000078,"y":2569891.1400000006}},{"attributes":{"ID":639232,"DIS_CODE":0,"TOWNNAME":"六甲區","LI":"六甲里","LIN":"14鄰","STREET":"民生街","SECT":" ","MAREA":" ","LANE":" ","ALLEY":" ","HOUSE_NO":"１８３號","E_COORD97":183794.39999999999,"N_COORD97":2569893.79,"ADDRESS":"民生街１８３號","OBJECTID":639205},"geometry":{"x":183794.40000000037,"y":2569893.790000001}},{"attributes":{"ID":639233,"DIS_CODE":0,"TOWNNAME":"六甲區","LI":"六甲里","LIN":"14鄰","STREET":"民生街","SECT":" ","MAREA":" ","LANE":" ","ALLEY":" ","HOUSE_NO":"１８７號","E_COORD97":183799.03,"N_COORD97":2569899.1600000001,"ADDRESS":"民生街１８７號","OBJECTID":639206},"geometry":{"x":183799.03000000212,"y":2569899.160000002}},{"attributes":{"ID":639234,"DIS_CODE":0,"TOWNNAME":"六甲區","LI":"六甲里","LIN":"14鄰","STREET":"民生街","SECT":" ","MAREA":" ","LANE":" ","ALLEY":" ","HOUSE_NO":"１８９號","E_COORD97":183800.94,"N_COORD97":2569902.1800000002,"ADDRESS":"民生街１８９號","OBJECTID":639207},"geometry":{"x":183800.94000000041,"y":2569902.1800000016}},{"attributes":{"ID":639235,"DIS_CODE":0,"TOWNNAME":"六甲區","LI":"六甲里","LIN":"14鄰","STREET":"民生街","SECT":" ","MAREA":" ","LANE":" ","ALLEY":" ","HOUSE_NO":"１９１號","E_COORD97":183803.16,"N_COORD97":2569904.9700000002,"ADDRESS":"民生街１９１號","OBJECTID":639208},"geometry":{"x":183803.16000000201,"y":2569904.9700000025}},{"attributes":{"ID":639236,"DIS_CODE":0,"TOWNNAME":"六甲區","LI":"六甲里","LIN":"10鄰","STREET":"民生街","SECT":" ","MAREA":" ","LANE":" ","ALLEY":" ","HOUSE_NO":"１號","E_COORD97":183614.72,"N_COORD97":2569552.1600000001,"ADDRESS":"民生街１號","OBJECTID":639209},"geometry":{"x":183614.72000000067,"y":2569552.1600000001}},{"attributes":{"ID":639237,"DIS_CODE":0,"TOWNNAME":"六甲區","LI":"甲南里","LIN":"4鄰","STREET":"民生街","SECT":" ","MAREA":" ","LANE":" ","ALLEY":" ","HOUSE_NO":"４８號","E_COORD97":183702.67999999999,"N_COORD97":2569673.7400000002,"ADDRESS":"民生街４８號","OBJECTID":639210},"geometry":{"x":183702.68000000063,"y":2569673.7400000002}},{"attributes":{"ID":639238,"DIS_CODE":0,"TOWNNAME":"六甲區","LI":"甲南里","LIN":"4鄰","STREET":"民生街","SECT":" ","MAREA":" ","LANE":" ","ALLEY":" ","HOUSE_NO":"５０號","E_COORD97":183704.5,"N_COORD97":2569677.4199999999,"ADDRESS":"民生街５０號","OBJECTID":639211},"geometry":{"x":183704.50000000093,"y":2569677.4200000018}},{"attributes":{"ID":639239,"DIS_CODE":0,"TOWNNAME":"六甲區","LI":"甲南里","LIN":"4鄰","STREET":"民生街","SECT":" ","MAREA":" ","LANE":" ","ALLEY":" ","HOUSE_NO":"５２號","E_COORD97":183706.04000000001,"N_COORD97":2569681.6400000001,"ADDRESS":"民生街５２號","OBJECTID":639212},"geometry":{"x":183706.04000000097,"y":2569681.6400000006}},{"attributes":{"ID":639240,"DIS_CODE":0,"TOWNNAME":"六甲區","LI":"甲南里","LIN":"4鄰","STREET":"民生街","SECT":" ","MAREA":" ","LANE":" ","ALLEY":" ","HOUSE_NO":"５６號","E_COORD97":183709.17999999999,"N_COORD97":2569689.71,"ADDRESS":"民生街５６號","OBJECTID":639213},"geometry":{"x":183709.18000000156,"y":2569689.7100000028}},{"attributes":{"ID":639241,"DIS_CODE":0,"TOWNNAME":"六甲區","LI":"甲南里","LIN":"4鄰","STREET":"民生街","SECT":" ","MAREA":" ","LANE":" ","ALLEY":" ","HOUSE_NO":"５８號","E_COORD97":183710.70000000001,"N_COORD97":2569693.7599999998,"ADDRESS":"民生街５８號","OBJECTID":639214},"geometry":{"x":183710.70000000019,"y":2569693.7599999998}},{"attributes":{"ID":639242,"DIS_CODE":0,"TOWNNAME":"六甲區","LI":"甲南里","LIN":"4鄰","STREET":"民生街","SECT":" ","MAREA":" ","LANE":" ","ALLEY":" ","HOUSE_NO":"６０號","E_COORD97":183712.64999999999,"N_COORD97":2569697.7999999998,"ADDRESS":"民生街６０號","OBJECTID":639215},"geometry":{"x":183712.65000000037,"y":2569697.8000000007}},{"attributes":{"ID":639243,"DIS_CODE":0,"TOWNNAME":"六甲區","LI":"甲南里","LIN":"4鄰","STREET":"民生街","SECT":" ","MAREA":" ","LANE":" ","ALLEY":" ","HOUSE_NO":"６２號","E_COORD97":183715.20000000001,"N_COORD97":2569701.6400000001,"ADDRESS":"民生街６２號","OBJECTID":639216},"geometry":{"x":183715.20000000112,"y":2569701.6400000006}},{"attributes":{"ID":639244,"DIS_CODE":0,"TOWNNAME":"六甲區","LI":"甲南里","LIN":"4鄰","STREET":"民生街","SECT":" ","MAREA":" ","LANE":" ","ALLEY":" ","HOUSE_NO":"６４號","E_COORD97":183717.5,"N_COORD97":2569705.27,"ADDRESS":"民生街６４號","OBJECTID":639217},"geometry":{"x":183717.50000000186,"y":2569705.2700000014}},{"attributes":{"ID":639245,"DIS_CODE":0,"TOWNNAME":"六甲區","LI":"甲南里","LIN":"4鄰","STREET":"民生街","SECT":" ","MAREA":" ","LANE":" ","ALLEY":" ","HOUSE_NO":"６６號","E_COORD97":183718.81,"N_COORD97":2569709.1699999999,"ADDRESS":"民生街６６號","OBJECTID":639218},"geometry":{"x":183718.81000000052,"y":2569709.1700000018}},{"attributes":{"ID":639246,"DIS_CODE":0,"TOWNNAME":"六甲區","LI":"甲南里","LIN":"4鄰","STREET":"民生街","SECT":" ","MAREA":" ","LANE":" ","ALLEY":" ","HOUSE_NO":"６８號","E_COORD97":183720.47,"N_COORD97":2569712.79,"ADDRESS":"民生街６８號","OBJECTID":639219},"geometry":{"x":183720.46999999974,"y":2569712.7899999991}},{"attributes":{"ID":639247,"DIS_CODE":0,"TOWNNAME":"六甲區","LI":"甲南里","LIN":"4鄰","STREET":"民生街","SECT":" ","MAREA":" ","LANE":" ","ALLEY":" ","HOUSE_NO":"７０號","E_COORD97":183722.47,"N_COORD97":2569716.6099999999,"ADDRESS":"民生街７０號","OBJECTID":639220},"geometry":{"x":183722.4700000016,"y":2569716.6100000013}},{"attributes":{"ID":639248,"DIS_CODE":0,"TOWNNAME":"六甲區","LI":"甲南里","LIN":"4鄰","STREET":"民生街","SECT":" ","MAREA":" ","LANE":" ","ALLEY":" ","HOUSE_NO":"７２號","E_COORD97":183723.97,"N_COORD97":2569720.7200000002,"ADDRESS":"民生街７２號","OBJECTID":639221},"geometry":{"x":183723.96999999974,"y":2569720.7200000025}},{"attributes":{"ID":639249,"DIS_CODE":0,"TOWNNAME":"六甲區","LI":"甲南里","LIN":"4鄰","STREET":"民生街","SECT":" ","MAREA":" ","LANE":" ","ALLEY":" ","HOUSE_NO":"７４號","E_COORD97":183725.32999999999,"N_COORD97":2569724.9199999999,"ADDRESS":"民生街７４號","OBJECTID":639222},"geometry":{"x":183725.33000000007,"y":2569724.9200000018}},{"attributes":{"ID":639250,"DIS_CODE":0,"TOWNNAME":"六甲區","LI":"六甲里","LIN":"10鄰","STREET":"民生街","SECT":" ","MAREA":" ","LANE":" ","ALLEY":" ","HOUSE_NO":"３５號","E_COORD97":183645,"N_COORD97":2569613.77,"ADDRESS":"民生街３５號","OBJECTID":639223},"geometry":{"x":183645.00000000093,"y":2569613.7700000014}},{"attributes":{"ID":639251,"DIS_CODE":0,"TOWNNAME":"六甲區","LI":"六甲里","LIN":"10鄰","STREET":"民生街","SECT":" ","MAREA":" ","LANE":" ","ALLEY":" ","HOUSE_NO":"３７號","E_COORD97":183646.89999999999,"N_COORD97":2569617.29,"ADDRESS":"民生街３７號","OBJECTID":639224},"geometry":{"x":183646.90000000037,"y":2569617.2899999991}},{"attributes":{"ID":639252,"DIS_CODE":0,"TOWNNAME":"六甲區","LI":"六甲里","LIN":"10鄰","STREET":"民生街","SECT":" ","MAREA":" ","LANE":" ","ALLEY":" ","HOUSE_NO":"３９號","E_COORD97":183648.75,"N_COORD97":2569621.5600000001,"ADDRESS":"民生街３９號","OBJECTID":639225},"geometry":{"x":183648.75000000093,"y":2569621.5599999987}},{"attributes":{"ID":639253,"DIS_CODE":0,"TOWNNAME":"六甲區","LI":"六甲里","LIN":"10鄰","STREET":"民生街","SECT":" ","MAREA":" ","LANE":" ","ALLEY":" ","HOUSE_NO":"３號","E_COORD97":183615.85000000001,"N_COORD97":2569555.1400000001,"ADDRESS":"民生街３號","OBJECTID":639226},"geometry":{"x":183615.84999999963,"y":2569555.1400000025}},{"attributes":{"ID":639254,"DIS_CODE":0,"TOWNNAME":"六甲區","LI":"六甲里","LIN":"10鄰","STREET":"民生街","SECT":" ","MAREA":" ","LANE":" ","ALLEY":" ","HOUSE_NO":"４１號","E_COORD97":183650.73000000001,"N_COORD97":2569625.48,"ADDRESS":"民生街４１號","OBJECTID":639227},"geometry":{"x":183650.73000000138,"y":2569625.4800000042}},{"attributes":{"ID":639255,"DIS_CODE":0,"TOWNNAME":"六甲區","LI":"六甲里","LIN":"10鄰","STREET":"民生街","SECT":" ","MAREA":" ","LANE":" ","ALLEY":" ","HOUSE_NO":"４３號","E_COORD97":183652.42999999999,"N_COORD97":2569628.8999999999,"ADDRESS":"民生街４３號","OBJECTID":639228},"geometry":{"x":183652.4299999997,"y":2569628.9000000004}},{"attributes":{"ID":639256,"DIS_CODE":0,"TOWNNAME":"六甲區","LI":"六甲里","LIN":"10鄰","STREET":"民生街","SECT":" ","MAREA":" ","LANE":" ","ALLEY":" ","HOUSE_NO":"４５號","E_COORD97":183654.38,"N_COORD97":2569632.5600000001,"ADDRESS":"民生街４５號","OBJECTID":639229},"geometry":{"x":183654.38000000082,"y":2569632.5600000024}},{"attributes":{"ID":639257,"DIS_CODE":0,"TOWNNAME":"六甲區","LI":"甲南里","LIN":"4鄰","STREET":"民生街","SECT":" ","MAREA":" ","LANE":" ","ALLEY":" ","HOUSE_NO":"７６號","E_COORD97":183727.34,"N_COORD97":2569728.4500000002,"ADDRESS":"民生街７６號","OBJECTID":639230},"geometry":{"x":183727.34000000078,"y":2569728.4499999993}},{"attributes":{"ID":639258,"DIS_CODE":0,"TOWNNAME":"六甲區","LI":"甲南里","LIN":"4鄰","STREET":"民生街","SECT":" ","MAREA":" ","LANE":" ","ALLEY":" ","HOUSE_NO":"７８號","E_COORD97":183728.95000000001,"N_COORD97":2569732.2999999998,"ADDRESS":"民生街７８號","OBJECTID":639231},"geometry":{"x":183728.95000000112,"y":2569732.3000000045}},{"attributes":{"ID":639259,"DIS_CODE":0,"TOWNNAME":"六甲區","LI":"甲南里","LIN":"4鄰","STREET":"民生街","SECT":" ","MAREA":" ","LANE":" ","ALLEY":" ","HOUSE_NO":"８０號","E_COORD97":183730.72,"N_COORD97":2569736.77,"ADDRESS":"民生街８０號","OBJECTID":639232},"geometry":{"x":183730.71999999974,"y":2569736.7699999996}},{"attributes":{"ID":639260,"DIS_CODE":0,"TOWNNAME":"六甲區","LI":"甲南里","LIN":"4鄰","STREET":"民生街","SECT":" ","MAREA":" ","LANE":" ","ALLEY":" ","HOUSE_NO":"８２號","E_COORD97":183732.82000000001,"N_COORD97":2569740.8399999999,"ADDRESS":"民生街８２號","OBJECTID":639233},"geometry":{"x":183732.82000000123,"y":2569740.8399999999}},{"attributes":{"ID":639261,"DIS_CODE":0,"TOWNNAME":"六甲區","LI":"甲南里","LIN":"4鄰","STREET":"民生街","SECT":" ","MAREA":" ","LANE":" ","ALLEY":" ","HOUSE_NO":"８４號","E_COORD97":183734.39999999999,"N_COORD97":2569745.1400000001,"ADDRESS":"民生街８４號","OBJECTID":639234},"geometry":{"x":183734.4000000013,"y":2569745.1400000006}},{"attributes":{"ID":639262,"DIS_CODE":0,"TOWNNAME":"六甲區","LI":"甲南里","LIN":"4鄰","STREET":"民生街","SECT":" ","MAREA":" ","LANE":" ","ALLEY":" ","HOUSE_NO":"８６號","E_COORD97":183736.20000000001,"N_COORD97":2569749.2599999998,"ADDRESS":"民生街８６號","OBJECTID":639235},"geometry":{"x":183736.20000000019,"y":2569749.2600000016}},{"attributes":{"ID":639263,"DIS_CODE":0,"TOWNNAME":"六甲區","LI":"水林里","LIN":"15鄰","STREET":"民族街","SECT":" ","MAREA":" ","LANE":" ","ALLEY":" ","HOUSE_NO":"１０８號","E_COORD97":183448.70999999999,"N_COORD97":2570363.9500000002,"ADDRESS":"民族街１０８號","OBJECTID":639236},"geometry":{"x":183448.71000000089,"y":2570363.9500000011}},{"attributes":{"ID":639264,"DIS_CODE":0,"TOWNNAME":"六甲區","LI":"六甲里","LIN":"10鄰","STREET":"民生街","SECT":" ","MAREA":" ","LANE":" ","ALLEY":" ","HOUSE_NO":"７７號之１","E_COORD97":183675.07000000001,"N_COORD97":2569696.1800000002,"ADDRESS":"民生街７７號之１","OBJECTID":639237},"geometry":{"x":183675.07000000216,"y":2569696.1800000016}},{"attributes":{"ID":639265,"DIS_CODE":0,"TOWNNAME":"六甲區","LI":"六甲里","LIN":"10鄰","STREET":"民生街","SECT":" ","MAREA":" ","LANE":" ","ALLEY":" ","HOUSE_NO":"７７號","E_COORD97":183685.5,"N_COORD97":2569691.8900000001,"ADDRESS":"民生街７７號","OBJECTID":639238},"geometry":{"x":183685.50000000093,"y":2569691.8900000025}},{"attributes":{"ID":639266,"DIS_CODE":0,"TOWNNAME":"六甲區","LI":"六甲里","LIN":"10鄰","STREET":"民生街","SECT":" ","MAREA":" ","LANE":" ","ALLEY":" ","HOUSE_NO":"７９之１號","E_COORD97":183676.26999999999,"N_COORD97":2569699.9399999999,"ADDRESS":"民生街７９之１號","OBJECTID":639239},"geometry":{"x":183676.27000000142,"y":2569699.9400000013}},{"attributes":{"ID":639267,"DIS_CODE":0,"TOWNNAME":"六甲區","LI":"六甲里","LIN":"10鄰","STREET":"民生街","SECT":" ","MAREA":" ","LANE":" ","ALLEY":" ","HOUSE_NO":"７９號","E_COORD97":183687.01999999999,"N_COORD97":2569695.1000000001,"ADDRESS":"民生街７９號","OBJECTID":639240},"geometry":{"x":183687.02000000048,"y":2569695.1000000034}},{"attributes":{"ID":639268,"DIS_CODE":0,"TOWNNAME":"六甲區","LI":"六甲里","LIN":"10鄰","STREET":"民生街","SECT":" ","MAREA":" ","LANE":" ","ALLEY":" ","HOUSE_NO":"７號","E_COORD97":183616.82999999999,"N_COORD97":2569560.73,"ADDRESS":"民生街７號","OBJECTID":639241},"geometry":{"x":183616.83000000007,"y":2569560.7300000023}},{"attributes":{"ID":639269,"DIS_CODE":0,"TOWNNAME":"六甲區","LI":"六甲里","LIN":"10鄰","STREET":"民生街","SECT":" ","MAREA":" ","LANE":" ","ALLEY":" ","HOUSE_NO":"８１號","E_COORD97":183685.72,"N_COORD97":2569700,"ADDRESS":"民生街８１號","OBJECTID":639242},"geometry":{"x":183685.72000000067,"y":2569700.0000000019}},{"attributes":{"ID":639270,"DIS_CODE":0,"TOWNNAME":"六甲區","LI":"六甲里","LIN":"10鄰","STREET":"民生街","SECT":" ","MAREA":" ","LANE":" ","ALLEY":" ","HOUSE_NO":"８３號","E_COORD97":183687.07000000001,"N_COORD97":2569703.5600000001,"ADDRESS":"民生街８３號","OBJECTID":639243},"geometry":{"x":183687.07000000123,"y":2569703.5600000024}},{"attributes":{"ID":639271,"DIS_CODE":0,"TOWNNAME":"六甲區","LI":"六甲里","LIN":"10鄰","STREET":"民生街","SECT":" ","MAREA":" ","LANE":" ","ALLEY":" ","HOUSE_NO":"８５號","E_COORD97":183688.5,"N_COORD97":2569707.3599999999,"ADDRESS":"民生街８５號","OBJECTID":639244},"geometry":{"x":183688.5,"y":2569707.3600000013}},{"attributes":{"ID":639272,"DIS_CODE":0,"TOWNNAME":"六甲區","LI":"六甲里","LIN":"10鄰","STREET":"民生街","SECT":" ","MAREA":" ","LANE":" ","ALLEY":" ","HOUSE_NO":"９號","E_COORD97":183615.26000000001,"N_COORD97":2569564.7000000002,"ADDRESS":"民生街９號","OBJECTID":639245},"geometry":{"x":183615.25999999978,"y":2569564.6999999993}},{"attributes":{"ID":639273,"DIS_CODE":0,"TOWNNAME":"六甲區","LI":"六甲里","LIN":"11鄰","STREET":"民生街","SECT":" ","MAREA":" ","LANE":" ","ALLEY":" ","HOUSE_NO":"８７號","E_COORD97":183690.67999999999,"N_COORD97":2569711.2400000002,"ADDRESS":"民生街８７號","OBJECTID":639246},"geometry":{"x":183690.68000000063,"y":2569711.2400000002}},{"attributes":{"ID":639274,"DIS_CODE":0,"TOWNNAME":"六甲區","LI":"六甲里","LIN":"11鄰","STREET":"民生街","SECT":" ","MAREA":" ","LANE":" ","ALLEY":" ","HOUSE_NO":"８９號","E_COORD97":183692.98000000001,"N_COORD97":2569714.8599999999,"ADDRESS":"民生街８９號","OBJECTID":639247},"geometry":{"x":183692.98000000138,"y":2569714.8600000013}},{"attributes":{"ID":639275,"DIS_CODE":0,"TOWNNAME":"六甲區","LI":"六甲里","LIN":"11鄰","STREET":"民生街","SECT":" ","MAREA":" ","LANE":" ","ALLEY":" ","HOUSE_NO":"９１號","E_COORD97":183694.66,"N_COORD97":2569718.27,"ADDRESS":"民生街９１號","OBJECTID":639248},"geometry":{"x":183694.66000000201,"y":2569718.2700000014}},{"attributes":{"ID":639276,"DIS_CODE":0,"TOWNNAME":"六甲區","LI":"六甲里","LIN":"11鄰","STREET":"民生街","SECT":" ","MAREA":" ","LANE":" ","ALLEY":" ","HOUSE_NO":"９３號","E_COORD97":183695.97,"N_COORD97":2569721.8500000001,"ADDRESS":"民生街９３號","OBJECTID":639249},"geometry":{"x":183695.97000000067,"y":2569721.8500000015}},{"attributes":{"ID":639277,"DIS_CODE":0,"TOWNNAME":"六甲區","LI":"水林里","LIN":"15鄰","STREET":"民族街","SECT":" ","MAREA":" ","LANE":" ","ALLEY":" ","HOUSE_NO":"１７７號","E_COORD97":183353.62,"N_COORD97":2570321.0099999998,"ADDRESS":"民族街１７７號","OBJECTID":639250},"geometry":{"x":183353.62000000011,"y":2570321.0100000016}},{"attributes":{"ID":639278,"DIS_CODE":0,"TOWNNAME":"六甲區","LI":"水林里","LIN":"15鄰","STREET":"民族街","SECT":" ","MAREA":" ","LANE":" ","ALLEY":" ","HOUSE_NO":"１７９號","E_COORD97":183349.17000000001,"N_COORD97":2570321.75,"ADDRESS":"民族街１７９號","OBJECTID":639251},"geometry":{"x":183349.17000000086,"y":2570321.7500000037}},{"attributes":{"ID":639279,"DIS_CODE":0,"TOWNNAME":"六甲區","LI":"水林里","LIN":"15鄰","STREET":"民族街","SECT":" ","MAREA":" ","LANE":" ","ALLEY":" ","HOUSE_NO":"１９９號","E_COORD97":183314.41,"N_COORD97":2570321.8300000001,"ADDRESS":"民族街１９９號","OBJECTID":639252},"geometry":{"x":183314.41000000015,"y":2570321.8300000019}},{"attributes":{"ID":639280,"DIS_CODE":0,"TOWNNAME":"六甲區","LI":"水林里","LIN":"15鄰","STREET":"民族街","SECT":" ","MAREA":" ","LANE":" ","ALLEY":" ","HOUSE_NO":"２４２號","E_COORD97":183262.78,"N_COORD97":2570350.8300000001,"ADDRESS":"民族街２４２號","OBJECTID":639253},"geometry":{"x":183262.78000000026,"y":2570350.8300000001}},{"attributes":{"ID":639281,"DIS_CODE":0,"TOWNNAME":"六甲區","LI":"水林里","LIN":"18鄰","STREET":"民族街","SECT":" ","MAREA":" ","LANE":" ","ALLEY":" ","HOUSE_NO":"４０號","E_COORD97":183563.81,"N_COORD97":2570316.3799999999,"ADDRESS":"民族街４０號","OBJECTID":639254},"geometry":{"x":183563.80999999959,"y":2570316.3800000027}},{"attributes":{"ID":639282,"DIS_CODE":0,"TOWNNAME":"六甲區","LI":"水林里","LIN":"18鄰","STREET":"民族街","SECT":" ","MAREA":" ","LANE":" ","ALLEY":" ","HOUSE_NO":"６號","E_COORD97":183659.41,"N_COORD97":2570291.6499999999,"ADDRESS":"民族街６號","OBJECTID":639255},"geometry":{"x":183659.41000000108,"y":2570291.6500000004}},{"attributes":{"ID":639283,"DIS_CODE":0,"TOWNNAME":"新營區","LI":"民生里","LIN":" ","STREET":"中華路","SECT":" ","MAREA":" ","LANE":" ","ALLEY":" ","HOUSE_NO":"１３８之４號","E_COORD97":179101.84,"N_COORD97":2578231.5299999998,"ADDRESS":"中華路１３８之４號","OBJECTID":639256},"geometry":{"x":179101.83999999985,"y":2578231.5299999993}},{"attributes":{"ID":639284,"DIS_CODE":0,"TOWNNAME":"新營區","LI":"好平里","LIN":"3鄰","STREET":"武侯街","SECT":" ","MAREA":" ","LANE":" ","ALLEY":" ","HOUSE_NO":"１９號之３","E_COORD97":179635.44,"N_COORD97":2577776.0299999998,"ADDRESS":"武侯街１９號之３","OBJECTID":639257},"geometry":{"x":179635.44000000134,"y":2577776.0300000012}},{"attributes":{"ID":639285,"DIS_CODE":0,"TOWNNAME":"新營區","LI":"王公里","LIN":"4鄰","STREET":"民族路","SECT":" ","MAREA":" ","LANE":" ","ALLEY":" ","HOUSE_NO":"７４號之２","E_COORD97":180294.60000000001,"N_COORD97":2578941.2799999998,"ADDRESS":"民族路７４號之２","OBJECTID":639258},"geometry":{"x":180294.60000000056,"y":2578941.2799999993}},{"attributes":{"ID":639286,"DIS_CODE":0,"TOWNNAME":"新營區","LI":"王公里","LIN":"20鄰","STREET":"樂利街","SECT":" ","MAREA":" ","LANE":" ","ALLEY":" ","HOUSE_NO":"１４號","E_COORD97":180389.69,"N_COORD97":2579257.5,"ADDRESS":"樂利街１４號","OBJECTID":639259},"geometry":{"x":180389.69000000134,"y":2579257.5000000019}},{"attributes":{"ID":639287,"DIS_CODE":0,"TOWNNAME":"新營區","LI":"好平里","LIN":"13鄰","STREET":"復興路","SECT":" ","MAREA":" ","LANE":" ","ALLEY":" ","HOUSE_NO":"１２３號之１","E_COORD97":179449.52572599999,"N_COORD97":2578040.1894100001,"ADDRESS":"復興路１２３號之１","OBJECTID":639260},"geometry":{"x":179449.52572600078,"y":2578040.1894089989}},{"attributes":{"ID":639288,"DIS_CODE":0,"TOWNNAME":"新營區","LI":"大宏里","LIN":" ","STREET":"大同路","SECT":" ","MAREA":" ","LANE":" ","ALLEY":" ","HOUSE_NO":"３０之２２號","E_COORD97":180724.95999999999,"N_COORD97":2578828.52,"ADDRESS":"大同路３０之２２號","OBJECTID":639261},"geometry":{"x":180724.95999999996,"y":2578828.5199999996}},{"attributes":{"ID":639289,"DIS_CODE":0,"TOWNNAME":"新營區","LI":"王公里","LIN":"4鄰","STREET":"民族路","SECT":" ","MAREA":" ","LANE":" ","ALLEY":" ","HOUSE_NO":"７２號之２","E_COORD97":180287.28,"N_COORD97":2578908.0800000001,"ADDRESS":"民族路７２號之２","OBJECTID":639262},"geometry":{"x":180287.28000000119,"y":2578908.0800000019}},{"attributes":{"ID":639290,"DIS_CODE":0,"TOWNNAME":"新營區","LI":"民權里","LIN":"17鄰","STREET":"博愛街","SECT":" ","MAREA":" ","LANE":" ","ALLEY":" ","HOUSE_NO":"９５號","E_COORD97":179771.66,"N_COORD97":2578129.71,"ADDRESS":"博愛街９５號","OBJECTID":639263},"geometry":{"x":179771.66000000015,"y":2578129.7100000009}},{"attributes":{"ID":639291,"DIS_CODE":0,"TOWNNAME":"新營區","LI":"中營里","LIN":"8鄰","STREET":"新進路","SECT":" ","MAREA":" ","LANE":" ","ALLEY":" ","HOUSE_NO":"５８號","E_COORD97":180561.88,"N_COORD97":2578237.8399999999,"ADDRESS":"新進路５８號","OBJECTID":639264},"geometry":{"x":180561.88000000175,"y":2578237.8400000017}},{"attributes":{"ID":639292,"DIS_CODE":0,"TOWNNAME":"新營區","LI":"大宏里","LIN":" ","STREET":"大同路","SECT":" ","MAREA":" ","LANE":" ","ALLEY":" ","HOUSE_NO":"３０之２５號","E_COORD97":180724.95999999999,"N_COORD97":2578828.52,"ADDRESS":"大同路３０之２５號","OBJECTID":639265},"geometry":{"x":180724.95999999996,"y":2578828.5199999996}},{"attributes":{"ID":639293,"DIS_CODE":0,"TOWNNAME":"新營區","LI":"埤寮里","LIN":" ","STREET":"長榮路","SECT":"一段","MAREA":" ","LANE":" ","ALLEY":" ","HOUSE_NO":"９５號","E_COORD97":180480.70000000001,"N_COORD97":2579911.5800000001,"ADDRESS":"長榮路一段９５號","OBJECTID":639266},"geometry":{"x":180480.70000000112,"y":2579911.5800000019}},{"attributes":{"ID":639294,"DIS_CODE":0,"TOWNNAME":"新營區","LI":"延平里","LIN":" ","STREET":"延平路","SECT":" ","MAREA":" ","LANE":" ","ALLEY":" ","HOUSE_NO":"４６之９號","E_COORD97":179748.19,"N_COORD97":2577807.6200000001,"ADDRESS":"延平路４６之９號","OBJECTID":639267},"geometry":{"x":179748.19000000227,"y":2577807.6200000029}},{"attributes":{"ID":639295,"DIS_CODE":0,"TOWNNAME":"新營區","LI":"延平里","LIN":"18鄰","STREET":"長春街","SECT":" ","MAREA":" ","LANE":" ","ALLEY":" ","HOUSE_NO":"９４號","E_COORD97":179625.06,"N_COORD97":2577845.79,"ADDRESS":"長春街９４號","OBJECTID":639268},"geometry":{"x":179625.06000000052,"y":2577845.7899999991}},{"attributes":{"ID":639296,"DIS_CODE":0,"TOWNNAME":"新營區","LI":"永生里","LIN":"13鄰","STREET":"中山路","SECT":" ","MAREA":" ","LANE":" ","ALLEY":" ","HOUSE_NO":"２２７號","E_COORD97":179874.56,"N_COORD97":2577974.1800000002,"ADDRESS":"中山路２２７號","OBJECTID":639269},"geometry":{"x":179874.55999999959,"y":2577974.1800000034}},{"attributes":{"ID":639297,"DIS_CODE":0,"TOWNNAME":"新營區","LI":"王公里","LIN":"4鄰","STREET":"民族路","SECT":" ","MAREA":" ","LANE":" ","ALLEY":" ","HOUSE_NO":"７８號","E_COORD97":180338.25,"N_COORD97":2578968.7000000002,"ADDRESS":"民族路７８號","OBJECTID":639270},"geometry":{"x":180338.25,"y":2578968.6999999993}},{"attributes":{"ID":639298,"DIS_CODE":0,"TOWNNAME":"新營區","LI":"民榮里","LIN":"4鄰","STREET":"濟安街","SECT":" ","MAREA":" ","LANE":" ","ALLEY":" ","HOUSE_NO":"４５號","E_COORD97":179344.26999999999,"N_COORD97":2577930.1899999999,"ADDRESS":"濟安街４５號","OBJECTID":639271},"geometry":{"x":179344.26999999955,"y":2577930.1900000013}},{"attributes":{"ID":639299,"DIS_CODE":0,"TOWNNAME":"新營區","LI":"民生里","LIN":" ","STREET":"復興路","SECT":" ","MAREA":" ","LANE":" ","ALLEY":" ","HOUSE_NO":"２００號","E_COORD97":179046.32000000001,"N_COORD97":2578039.04,"ADDRESS":"復興路２００號","OBJECTID":639272},"geometry":{"x":179046.3200000003,"y":2578039.040000001}},{"attributes":{"ID":639300,"DIS_CODE":0,"TOWNNAME":"柳營區","LI":"中埕里","LIN":"4鄰","STREET":"中興街","SECT":" ","MAREA":" ","LANE":" ","ALLEY":" ","HOUSE_NO":"２３號","E_COORD97":179969.07999999999,"N_COORD97":2575196.21,"ADDRESS":"中興街２３號","OBJECTID":639273},"geometry":{"x":179969.08000000194,"y":2575196.2100000028}},{"attributes":{"ID":639301,"DIS_CODE":0,"TOWNNAME":"新營區","LI":"民生里","LIN":" ","STREET":"三民路","SECT":" ","MAREA":" ","LANE":" ","ALLEY":" ","HOUSE_NO":"１３１之６號","E_COORD97":179284.01000000001,"N_COORD97":2578252.8100000001,"ADDRESS":"三民路１３１之６號","OBJECTID":639274},"geometry":{"x":179284.00999999978,"y":2578252.8100000024}},{"attributes":{"ID":639302,"DIS_CODE":0,"TOWNNAME":"新營區","LI":"永生里","LIN":" ","STREET":"富源街","SECT":" ","MAREA":" ","LANE":" ","ALLEY":" ","HOUSE_NO":"１７號","E_COORD97":180036.89999999999,"N_COORD97":2577973.4100000001,"ADDRESS":"富源街１７號","OBJECTID":639275},"geometry":{"x":180036.9000000013,"y":2577973.410000002}},{"attributes":{"ID":639303,"DIS_CODE":0,"TOWNNAME":"新營區","LI":"新北里","LIN":"32鄰","STREET":"新北街","SECT":" ","MAREA":" ","LANE":" ","ALLEY":" ","HOUSE_NO":"２１８號","E_COORD97":178649.42000000001,"N_COORD97":2579096.3500000001,"ADDRESS":"新北街２１８號","OBJECTID":639276},"geometry":{"x":178649.42000000179,"y":2579096.3500000015}},{"attributes":{"ID":639304,"DIS_CODE":0,"TOWNNAME":"新營區","LI":"三仙里","LIN":"4鄰","STREET":"復興路","SECT":" ","MAREA":" ","LANE":" ","ALLEY":" ","HOUSE_NO":"５２號","E_COORD97":179601.51000000001,"N_COORD97":2578046.3500000001,"ADDRESS":"復興路５２號","OBJECTID":639277},"geometry":{"x":179601.51000000071,"y":2578046.3499999996}},{"attributes":{"ID":639305,"DIS_CODE":0,"TOWNNAME":"新營區","LI":"民生里","LIN":" ","STREET":"復興路","SECT":" ","MAREA":" ","LANE":" ","ALLEY":" ","HOUSE_NO":"１１２號","E_COORD97":179476.98000000001,"N_COORD97":2578058.02,"ADDRESS":"復興路１１２號","OBJECTID":639278},"geometry":{"x":179476.98000000138,"y":2578058.0199999996}},{"attributes":{"ID":639306,"DIS_CODE":0,"TOWNNAME":"新營區","LI":"嘉芳里","LIN":" ","STREET":"四維路","SECT":" ","MAREA":" ","LANE":" ","ALLEY":" ","HOUSE_NO":"１號","E_COORD97":176487.76999999999,"N_COORD97":2578498.9100000001,"ADDRESS":"四維路１號","OBJECTID":639279},"geometry":{"x":176487.76999999955,"y":2578498.910000002}},{"attributes":{"ID":639307,"DIS_CODE":0,"TOWNNAME":"新營區","LI":"新南里","LIN":"13鄰","STREET":"長榮路","SECT":"二段","MAREA":" ","LANE":" ","ALLEY":" ","HOUSE_NO":"７６３號","E_COORD97":178494.51999999999,"N_COORD97":2579223.3399999999,"ADDRESS":"長榮路二段７６３號","OBJECTID":639280},"geometry":{"x":178494.52000000048,"y":2579223.3399999999}},{"attributes":{"ID":639308,"DIS_CODE":0,"TOWNNAME":"新營區","LI":"護鎮里","LIN":" ","STREET":"三興街","SECT":" ","MAREA":" ","LANE":" ","ALLEY":" ","HOUSE_NO":"３８０號","E_COORD97":179384.94,"N_COORD97":2580186.9900000002,"ADDRESS":"三興街３８０號","OBJECTID":639281},"geometry":{"x":179384.94000000041,"y":2580186.9900000021}},{"attributes":{"ID":639309,"DIS_CODE":0,"TOWNNAME":"新營區","LI":"南興里","LIN":" ","STREET":"南昌街","SECT":" ","MAREA":" ","LANE":" ","ALLEY":" ","HOUSE_NO":"８１之１號","E_COORD97":179388.37,"N_COORD97":2577645.4199999999,"ADDRESS":"南昌街８１之１號","OBJECTID":639282},"geometry":{"x":179388.37000000011,"y":2577645.4199999999}},{"attributes":{"ID":639310,"DIS_CODE":0,"TOWNNAME":"新營區","LI":"新南里","LIN":"4鄰","STREET":"新北三街","SECT":" ","MAREA":" ","LANE":" ","ALLEY":" ","HOUSE_NO":"６號","E_COORD97":178656.92000000001,"N_COORD97":2578849.3399999999,"ADDRESS":"新北三街６號","OBJECTID":639283},"geometry":{"x":178656.92000000086,"y":2578849.3400000017}},{"attributes":{"ID":639311,"DIS_CODE":0,"TOWNNAME":"新營區","LI":"中營里","LIN":" ","STREET":"中山路","SECT":" ","MAREA":" ","LANE":" ","ALLEY":" ","HOUSE_NO":"４１號","E_COORD97":180668.04999999999,"N_COORD97":2578399.02,"ADDRESS":"中山路４１號","OBJECTID":639284},"geometry":{"x":180668.05000000075,"y":2578399.0200000014}},{"attributes":{"ID":639312,"DIS_CODE":0,"TOWNNAME":"新營區","LI":"民榮里","LIN":" ","STREET":"太子路","SECT":" ","MAREA":" ","LANE":" ","ALLEY":" ","HOUSE_NO":"１２８號","E_COORD97":178096.73000000001,"N_COORD97":2577982.7000000002,"ADDRESS":"太子路１２８號","OBJECTID":639285},"geometry":{"x":178096.72999999952,"y":2577982.6999999993}},{"attributes":{"ID":639313,"DIS_CODE":0,"TOWNNAME":"新營區","LI":"民生里","LIN":" ","STREET":"進修街","SECT":" ","MAREA":" ","LANE":" ","ALLEY":" ","HOUSE_NO":"１１之２２號","E_COORD97":179078.04000000001,"N_COORD97":2578387.79,"ADDRESS":"進修街１１之２２號","OBJECTID":639286},"geometry":{"x":179078.04000000097,"y":2578387.790000001}},{"attributes":{"ID":639314,"DIS_CODE":0,"TOWNNAME":"新營區","LI":"好平里","LIN":" ","STREET":"長春街","SECT":" ","MAREA":" ","LANE":" ","ALLEY":" ","HOUSE_NO":"１４７號","E_COORD97":179434.85999999999,"N_COORD97":2577803.5099999998,"ADDRESS":"長春街１４７號","OBJECTID":639287},"geometry":{"x":179434.86000000034,"y":2577803.5100000016}},{"attributes":{"ID":639315,"DIS_CODE":0,"TOWNNAME":"新營區","LI":"好平里","LIN":" ","STREET":"復興路","SECT":" ","MAREA":" ","LANE":" ","ALLEY":" ","HOUSE_NO":"１１５號","E_COORD97":179466.64999999999,"N_COORD97":2578038.1400000001,"ADDRESS":"復興路１１５號","OBJECTID":639288},"geometry":{"x":179466.65000000037,"y":2578038.1400000006}},{"attributes":{"ID":639316,"DIS_CODE":0,"TOWNNAME":"新營區","LI":"永生里","LIN":"18鄰","STREET":"康樂街","SECT":" ","MAREA":" ","LANE":" ","ALLEY":" ","HOUSE_NO":"５１號","E_COORD97":179865.48999999999,"N_COORD97":2577845.7599999998,"ADDRESS":"康樂街５１號","OBJECTID":639289},"geometry":{"x":179865.49000000115,"y":2577845.7600000016}},{"attributes":{"ID":639317,"DIS_CODE":0,"TOWNNAME":"新營區","LI":"新北里","LIN":"13鄰","STREET":"周武街","SECT":" ","MAREA":" ","LANE":" ","ALLEY":" ","HOUSE_NO":"７７號","E_COORD97":179367.59,"N_COORD97":2578969.9700000002,"ADDRESS":"周武街７７號","OBJECTID":639290},"geometry":{"x":179367.59000000078,"y":2578969.9700000044}},{"attributes":{"ID":639318,"DIS_CODE":0,"TOWNNAME":"新營區","LI":"民生里","LIN":" ","STREET":"進修街","SECT":" ","MAREA":" ","LANE":" ","ALLEY":" ","HOUSE_NO":"２５之１６號","E_COORD97":179086.63,"N_COORD97":2578457.52,"ADDRESS":"進修街２５之１６號","OBJECTID":639291},"geometry":{"x":179086.62999999989,"y":2578457.5200000014}},{"attributes":{"ID":639319,"DIS_CODE":0,"TOWNNAME":"新營區","LI":"延平里","LIN":"13鄰","STREET":"忠義街","SECT":" ","MAREA":" ","LANE":" ","ALLEY":" ","HOUSE_NO":"２０號之３","E_COORD97":179581.10999999999,"N_COORD97":2577952.3700000001,"ADDRESS":"忠義街２０號之３","OBJECTID":639292},"geometry":{"x":179581.11000000127,"y":2577952.370000001}},{"attributes":{"ID":639320,"DIS_CODE":0,"TOWNNAME":"新營區","LI":"新南里","LIN":"20鄰","STREET":"民治路","SECT":" ","MAREA":" ","LANE":" ","ALLEY":" ","HOUSE_NO":"３７２號","E_COORD97":178704.76000000001,"N_COORD97":2578263.27,"ADDRESS":"民治路３７２號","OBJECTID":639293},"geometry":{"x":178704.76000000071,"y":2578263.2699999996}},{"attributes":{"ID":639321,"DIS_CODE":0,"TOWNNAME":"新營區","LI":"中營里","LIN":"4鄰","STREET":"新進路","SECT":" ","MAREA":" ","LANE":" ","ALLEY":" ","HOUSE_NO":"１２號","E_COORD97":180659.60000000001,"N_COORD97":2578359.2000000002,"ADDRESS":"新進路１２號","OBJECTID":639294},"geometry":{"x":180659.59999999963,"y":2578359.1999999993}},{"attributes":{"ID":639322,"DIS_CODE":0,"TOWNNAME":"柳營區","LI":"中埕里","LIN":"4鄰","STREET":"中興街","SECT":" ","MAREA":" ","LANE":" ","ALLEY":" ","HOUSE_NO":"２５號","E_COORD97":179964.41,"N_COORD97":2575202.5099999998,"ADDRESS":"中興街２５號","OBJECTID":639295},"geometry":{"x":179964.41000000015,"y":2575202.5100000016}},{"attributes":{"ID":639323,"DIS_CODE":0,"TOWNNAME":"新營區","LI":"民生里","LIN":" ","STREET":"進修街","SECT":" ","MAREA":" ","LANE":" ","ALLEY":" ","HOUSE_NO":"２５之５７號","E_COORD97":178982.88,"N_COORD97":2578579.8399999999,"ADDRESS":"進修街２５之５７號","OBJECTID":639296},"geometry":{"x":178982.87999999989,"y":2578579.8400000036}},{"attributes":{"ID":639324,"DIS_CODE":0,"TOWNNAME":"新營區","LI":"延平里","LIN":" ","STREET":"復興路","SECT":" ","MAREA":" ","LANE":" ","ALLEY":" ","HOUSE_NO":"１之６６號","E_COORD97":179713.92999999999,"N_COORD97":2577935.1299999999,"ADDRESS":"復興路１之６６號","OBJECTID":639297},"geometry":{"x":179713.93000000063,"y":2577935.129999999}},{"attributes":{"ID":639325,"DIS_CODE":0,"TOWNNAME":"新營區","LI":"南紙里","LIN":"20鄰","STREET":"建業路","SECT":" ","MAREA":" ","LANE":" ","ALLEY":" ","HOUSE_NO":"３１１號","E_COORD97":177842.94,"N_COORD97":2577519.9199999999,"ADDRESS":"建業路３１１號","OBJECTID":639298},"geometry":{"x":177842.94000000227,"y":2577519.9200000018}},{"attributes":{"ID":639326,"DIS_CODE":0,"TOWNNAME":"新營區","LI":"民權里","LIN":"20鄰","STREET":"仁愛街","SECT":" ","MAREA":" ","LANE":" ","ALLEY":" ","HOUSE_NO":"４１號之３","E_COORD97":179773.67000000001,"N_COORD97":2578277.0499999998,"ADDRESS":"仁愛街４１號之３","OBJECTID":639299},"geometry":{"x":179773.67000000086,"y":2578277.0500000007}},{"attributes":{"ID":639327,"DIS_CODE":0,"TOWNNAME":"新營區","LI":"王公里","LIN":"17鄰","STREET":"大智街","SECT":" ","MAREA":" ","LANE":" ","ALLEY":" ","HOUSE_NO":"５號","E_COORD97":180176.03,"N_COORD97":2579321.6200000001,"ADDRESS":"大智街５號","OBJECTID":639300},"geometry":{"x":180176.03000000026,"y":2579321.6199999992}},{"attributes":{"ID":639328,"DIS_CODE":0,"TOWNNAME":"新營區","LI":"埤寮里","LIN":"4鄰","STREET":"建國路","SECT":" ","MAREA":" ","LANE":" ","ALLEY":" ","HOUSE_NO":"８２號","E_COORD97":179829.82000000001,"N_COORD97":2581098.5099999998,"ADDRESS":"建國路８２號","OBJECTID":639301},"geometry":{"x":179829.8200000003,"y":2581098.5100000016}},{"attributes":{"ID":639329,"DIS_CODE":0,"TOWNNAME":"新營區","LI":"民榮里","LIN":" ","STREET":"復興路","SECT":" ","MAREA":" ","LANE":" ","ALLEY":" ","HOUSE_NO":"１４９之２號","E_COORD97":179238.88,"N_COORD97":2578011.6000000001,"ADDRESS":"復興路１４９之２號","OBJECTID":639302},"geometry":{"x":179238.87999999989,"y":2578011.6000000034}},{"attributes":{"ID":639330,"DIS_CODE":0,"TOWNNAME":"新營區","LI":"民榮里","LIN":" ","STREET":"復興路","SECT":" ","MAREA":" ","LANE":" ","ALLEY":" ","HOUSE_NO":"１５３之１號","E_COORD97":179218.41,"N_COORD97":2578007.27,"ADDRESS":"復興路１５３之１號","OBJECTID":639303},"geometry":{"x":179218.41000000015,"y":2578007.2700000033}},{"attributes":{"ID":639331,"DIS_CODE":0,"TOWNNAME":"新營區","LI":"新南里","LIN":"5鄰","STREET":"新北三街","SECT":" ","MAREA":" ","LANE":" ","ALLEY":" ","HOUSE_NO":"５５號","E_COORD97":178556.42999999999,"N_COORD97":2578747.9399999999,"ADDRESS":"新北三街５５號","OBJECTID":639304},"geometry":{"x":178556.43000000063,"y":2578747.9399999995}},{"attributes":{"ID":639332,"DIS_CODE":0,"TOWNNAME":"新營區","LI":"民榮里","LIN":"25鄰","STREET":"新進路","SECT":"二段","MAREA":" ","LANE":" ","ALLEY":" ","HOUSE_NO":"１６９號","E_COORD97":179310.67000000001,"N_COORD97":2577717.7200000002,"ADDRESS":"新進路二段１６９號","OBJECTID":639305},"geometry":{"x":179310.67000000086,"y":2577717.7200000025}},{"attributes":{"ID":639333,"DIS_CODE":0,"TOWNNAME":"新營區","LI":"南紙里","LIN":"25鄰","STREET":"建業路","SECT":" ","MAREA":" ","LANE":" ","ALLEY":" ","HOUSE_NO":"２２９號","E_COORD97":178114.92000000001,"N_COORD97":2577498.6600000001,"ADDRESS":"建業路２２９號","OBJECTID":639306},"geometry":{"x":178114.91999999993,"y":2577498.6600000001}},{"attributes":{"ID":639334,"DIS_CODE":0,"TOWNNAME":"新營區","LI":"民生里","LIN":"6鄰","STREET":"三民路","SECT":" ","MAREA":" ","LANE":" ","ALLEY":" ","HOUSE_NO":"１２７號之４","E_COORD97":179307.75,"N_COORD97":2578296.9900000002,"ADDRESS":"三民路１２７號之４","OBJECTID":639307},"geometry":{"x":179307.75,"y":2578296.9900000002}},{"attributes":{"ID":639335,"DIS_CODE":0,"TOWNNAME":"新營區","LI":"延平里","LIN":" ","STREET":"復興路","SECT":" ","MAREA":" ","LANE":" ","ALLEY":" ","HOUSE_NO":"１之４８號","E_COORD97":179713.92999999999,"N_COORD97":2577935.1299999999,"ADDRESS":"復興路１之４８號","OBJECTID":639308},"geometry":{"x":179713.93000000063,"y":2577935.129999999}},{"attributes":{"ID":639336,"DIS_CODE":0,"TOWNNAME":"新營區","LI":"新東里","LIN":"20鄰","STREET":"東明街","SECT":" ","MAREA":" ","LANE":" ","ALLEY":" ","HOUSE_NO":"３２號","E_COORD97":180809.75,"N_COORD97":2579607.7000000002,"ADDRESS":"東明街３２號","OBJECTID":639309},"geometry":{"x":180809.75,"y":2579607.700000003}},{"attributes":{"ID":639337,"DIS_CODE":0,"TOWNNAME":"新營區","LI":"新東里","LIN":"26鄰","STREET":"東興路","SECT":" ","MAREA":" ","LANE":" ","ALLEY":" ","HOUSE_NO":"２０１號","E_COORD97":180747.20000000001,"N_COORD97":2579507.3300000001,"ADDRESS":"東興路２０１號","OBJECTID":639310},"geometry":{"x":180747.20000000112,"y":2579507.3300000019}},{"attributes":{"ID":639338,"DIS_CODE":0,"TOWNNAME":"新營區","LI":"王公里","LIN":"34鄰","STREET":"中正路","SECT":" ","MAREA":" ","LANE":" ","ALLEY":" ","HOUSE_NO":"２００之３２號","E_COORD97":180270.48000000001,"N_COORD97":2579796.3599999999,"ADDRESS":"中正路２００之３２號","OBJECTID":639311},"geometry":{"x":180270.48000000138,"y":2579796.3600000031}},{"attributes":{"ID":639339,"DIS_CODE":0,"TOWNNAME":"新營區","LI":"民權里","LIN":"17鄰","STREET":"文化街","SECT":" ","MAREA":" ","LANE":" ","ALLEY":" ","HOUSE_NO":"２５號","E_COORD97":179800.14000000001,"N_COORD97":2578075.3100000001,"ADDRESS":"文化街２５號","OBJECTID":639312},"geometry":{"x":179800.13999999966,"y":2578075.3100000005}},{"attributes":{"ID":639340,"DIS_CODE":0,"TOWNNAME":"新營區","LI":"延平里","LIN":" ","STREET":"復興路","SECT":" ","MAREA":" ","LANE":" ","ALLEY":" ","HOUSE_NO":"１之１５３號","E_COORD97":179715.17999999999,"N_COORD97":2577935.1299999999,"ADDRESS":"復興路１之１５３號","OBJECTID":639313},"geometry":{"x":179715.1799999997,"y":2577935.129999999}},{"attributes":{"ID":639341,"DIS_CODE":0,"TOWNNAME":"新營區","LI":"延平里","LIN":"6鄰","STREET":"復興路","SECT":" ","MAREA":" ","LANE":" ","ALLEY":" ","HOUSE_NO":"１號之５９","E_COORD97":179713.92999999999,"N_COORD97":2577935.1299999999,"ADDRESS":"復興路１號之５９","OBJECTID":639314},"geometry":{"x":179713.93000000063,"y":2577935.129999999}},{"attributes":{"ID":639342,"DIS_CODE":0,"TOWNNAME":"新營區","LI":"民榮里","LIN":" ","STREET":"復興路","SECT":" ","MAREA":" ","LANE":" ","ALLEY":" ","HOUSE_NO":"１２９之５號","E_COORD97":179375.04999999999,"N_COORD97":2578037.5299999998,"ADDRESS":"復興路１２９之５號","OBJECTID":639315},"geometry":{"x":179375.04999999981,"y":2578037.5299999993}},{"attributes":{"ID":639343,"DIS_CODE":0,"TOWNNAME":"新營區","LI":"南興里","LIN":" ","STREET":"新進路","SECT":"二段","MAREA":" ","LANE":" ","ALLEY":" ","HOUSE_NO":"２１５之１５號","E_COORD97":178975.95999999999,"N_COORD97":2577729.3599999999,"ADDRESS":"新進路二段２１５之１５號","OBJECTID":639316},"geometry":{"x":178975.95999999996,"y":2577729.3600000013}},{"attributes":{"ID":639344,"DIS_CODE":0,"TOWNNAME":"新營區","LI":"延平里","LIN":" ","STREET":"復興路","SECT":" ","MAREA":" ","LANE":" ","ALLEY":" ","HOUSE_NO":"１之１１５號","E_COORD97":179715.17999999999,"N_COORD97":2577935.1299999999,"ADDRESS":"復興路１之１１５號","OBJECTID":639317},"geometry":{"x":179715.1799999997,"y":2577935.129999999}},{"attributes":{"ID":639345,"DIS_CODE":0,"TOWNNAME":"新營區","LI":"民權里","LIN":"20鄰","STREET":"仁愛街","SECT":" ","MAREA":" ","LANE":" ","ALLEY":" ","HOUSE_NO":"４７之３號","E_COORD97":179766.85000000001,"N_COORD97":2578292.5800000001,"ADDRESS":"仁愛街４７之３號","OBJECTID":639318},"geometry":{"x":179766.85000000056,"y":2578292.5800000001}},{"attributes":{"ID":639346,"DIS_CODE":0,"TOWNNAME":"新營區","LI":"嘉芳里","LIN":"4鄰","STREET":"嘉芳街","SECT":" ","MAREA":" ","LANE":" ","ALLEY":" ","HOUSE_NO":"１０４號","E_COORD97":176957.38,"N_COORD97":2578430.1600000001,"ADDRESS":"嘉芳街１０４號","OBJECTID":639319},"geometry":{"x":176957.37999999989,"y":2578430.160000002}},{"attributes":{"ID":639347,"DIS_CODE":0,"TOWNNAME":"新營區","LI":"延平里","LIN":"6鄰","STREET":"復興路","SECT":" ","MAREA":" ","LANE":" ","ALLEY":" ","HOUSE_NO":"１號之６１","E_COORD97":179713.92999999999,"N_COORD97":2577935.1299999999,"ADDRESS":"復興路１號之６１","OBJECTID":639320},"geometry":{"x":179713.93000000063,"y":2577935.129999999}},{"attributes":{"ID":639348,"DIS_CODE":0,"TOWNNAME":"新營區","LI":"民榮里","LIN":" ","STREET":"復興路","SECT":" ","MAREA":" ","LANE":" ","ALLEY":" ","HOUSE_NO":"１５７之１８號","E_COORD97":179063.14999999999,"N_COORD97":2578008.02,"ADDRESS":"復興路１５７之１８號","OBJECTID":639321},"geometry":{"x":179063.15000000037,"y":2578008.0199999996}},{"attributes":{"ID":639349,"DIS_CODE":0,"TOWNNAME":"新營區","LI":"大宏里","LIN":" ","STREET":"三民路","SECT":" ","MAREA":" ","LANE":" ","ALLEY":" ","HOUSE_NO":"４５之５號","E_COORD97":180342.57000000001,"N_COORD97":2578475.9199999999,"ADDRESS":"三民路４５之５號","OBJECTID":639322},"geometry":{"x":180342.57000000123,"y":2578475.9200000018}},{"attributes":{"ID":639350,"DIS_CODE":0,"TOWNNAME":"新營區","LI":"南紙里","LIN":"25鄰","STREET":"建業路","SECT":" ","MAREA":" ","LANE":" ","ALLEY":" ","HOUSE_NO":"２５９號","E_COORD97":178037.20000000001,"N_COORD97":2577504.5800000001,"ADDRESS":"建業路２５９號","OBJECTID":639323},"geometry":{"x":178037.20000000019,"y":2577504.5800000019}},{"attributes":{"ID":639351,"DIS_CODE":0,"TOWNNAME":"新營區","LI":"新南里","LIN":"4鄰","STREET":"新北五街","SECT":" ","MAREA":" ","LANE":" ","ALLEY":" ","HOUSE_NO":"５６號","E_COORD97":178645.38,"N_COORD97":2578953.5,"ADDRESS":"新北五街５６號","OBJECTID":639324},"geometry":{"x":178645.37999999989,"y":2578953.5000000019}},{"attributes":{"ID":639352,"DIS_CODE":0,"TOWNNAME":"新營區","LI":"嘉芳里","LIN":"15鄰","STREET":"復興路","SECT":" ","MAREA":" ","LANE":" ","ALLEY":" ","HOUSE_NO":"９５６號之２","E_COORD97":176549.39999999999,"N_COORD97":2578786.6200000001,"ADDRESS":"復興路９５６之２號","OBJECTID":639325},"geometry":{"x":176549.40000000037,"y":2578786.6200000029}},{"attributes":{"ID":639353,"DIS_CODE":0,"TOWNNAME":"新營區","LI":"嘉芳里","LIN":" ","STREET":"復興路","SECT":" ","MAREA":" ","LANE":" ","ALLEY":" ","HOUSE_NO":"１１３５號","E_COORD97":176150.42000000001,"N_COORD97":2578812.9100000001,"ADDRESS":"復興路１１３５號","OBJECTID":639326},"geometry":{"x":176150.41999999993,"y":2578812.9100000001}},{"attributes":{"ID":639354,"DIS_CODE":0,"TOWNNAME":"新營區","LI":"南紙里","LIN":"20鄰","STREET":"建業路","SECT":" ","MAREA":" ","LANE":" ","ALLEY":" ","HOUSE_NO":"２７９號","E_COORD97":177949.26000000001,"N_COORD97":2577512.7599999998,"ADDRESS":"建業路２７９號","OBJECTID":639327},"geometry":{"x":177949.26000000071,"y":2577512.7600000016}},{"attributes":{"ID":639355,"DIS_CODE":0,"TOWNNAME":"新營區","LI":"民榮里","LIN":"24鄰","STREET":"復興路","SECT":" ","MAREA":" ","LANE":" ","ALLEY":" ","HOUSE_NO":"１５７之１６號","E_COORD97":179070.20000000001,"N_COORD97":2577983.6099999999,"ADDRESS":"復興路１５７之１６號","OBJECTID":639328},"geometry":{"x":179070.20000000112,"y":2577983.6099999994}},{"attributes":{"ID":639356,"DIS_CODE":0,"TOWNNAME":"柳營區","LI":"中埕里","LIN":"4鄰","STREET":"中山西路","SECT":"二段","MAREA":" ","LANE":" ","ALLEY":" ","HOUSE_NO":"１０２號","E_COORD97":179975.12,"N_COORD97":2575128.1200000001,"ADDRESS":"中山西路二段１０２號","OBJECTID":639329},"geometry":{"x":179975.12000000011,"y":2575128.1200000048}},{"attributes":{"ID":639357,"DIS_CODE":0,"TOWNNAME":"柳營區","LI":"中埕里","LIN":"4鄰","STREET":"中山西路","SECT":"二段","MAREA":" ","LANE":" ","ALLEY":" ","HOUSE_NO":"１０６號","E_COORD97":179969.98000000001,"N_COORD97":2575126.1800000002,"ADDRESS":"中山西路二段１０６號","OBJECTID":639330},"geometry":{"x":179969.97999999952,"y":2575126.1800000034}},{"attributes":{"ID":639358,"DIS_CODE":0,"TOWNNAME":"柳營區","LI":"東昇里","LIN":"17鄰","STREET":"中山西路","SECT":"一段","MAREA":" ","LANE":" ","ALLEY":" ","HOUSE_NO":"２５號","E_COORD97":180880.48999999999,"N_COORD97":2575342.1099999999,"ADDRESS":"中山西路一段２５號","OBJECTID":639331},"geometry":{"x":180880.49000000115,"y":2575342.1099999994}},{"attributes":{"ID":639359,"DIS_CODE":0,"TOWNNAME":"柳營區","LI":"東昇里","LIN":"17鄰","STREET":"中山西路","SECT":"一段","MAREA":" ","LANE":" ","ALLEY":" ","HOUSE_NO":"３２號","E_COORD97":180877.16,"N_COORD97":2575385.5699999998,"ADDRESS":"中山西路一段３２號","OBJECTID":639332},"geometry":{"x":180877.16000000201,"y":2575385.5700000022}},{"attributes":{"ID":639360,"DIS_CODE":0,"TOWNNAME":"柳營區","LI":"中埕里","LIN":"8鄰","STREET":"中山西路","SECT":"二段","MAREA":" ","LANE":" ","ALLEY":" ","HOUSE_NO":"１１９號","E_COORD97":179850.51000000001,"N_COORD97":2575100.9199999999,"ADDRESS":"中山西路二段１１９號","OBJECTID":639333},"geometry":{"x":179850.51000000164,"y":2575100.9200000037}},{"attributes":{"ID":639361,"DIS_CODE":0,"TOWNNAME":"柳營區","LI":"中埕里","LIN":"8鄰","STREET":"中山西路","SECT":"二段","MAREA":" ","LANE":" ","ALLEY":" ","HOUSE_NO":"１２１號","E_COORD97":179846.04999999999,"N_COORD97":2575099.6499999999,"ADDRESS":"中山西路二段１２１號","OBJECTID":639334},"geometry":{"x":179846.04999999981,"y":2575099.6499999985}},{"attributes":{"ID":639362,"DIS_CODE":0,"TOWNNAME":"柳營區","LI":"光福里","LIN":"4鄰","STREET":"中山西路","SECT":"二段","MAREA":" ","LANE":" ","ALLEY":" ","HOUSE_NO":"１６１號","E_COORD97":179758.13,"N_COORD97":2575073.3999999999,"ADDRESS":"中山西路二段１６１號","OBJECTID":639335},"geometry":{"x":179758.12999999896,"y":2575073.4000000004}},{"attributes":{"ID":639363,"DIS_CODE":0,"TOWNNAME":"柳營區","LI":"光福里","LIN":"4鄰","STREET":"中山西路","SECT":"二段","MAREA":" ","LANE":" ","ALLEY":" ","HOUSE_NO":"１６５號","E_COORD97":179742.78,"N_COORD97":2575071.2999999998,"ADDRESS":"中山西路二段１６５號","OBJECTID":639336},"geometry":{"x":179742.78000000119,"y":2575071.3000000007}},{"attributes":{"ID":639364,"DIS_CODE":0,"TOWNNAME":"柳營區","LI":"光福里","LIN":"4鄰","STREET":"中山西路","SECT":"二段","MAREA":" ","LANE":" ","ALLEY":" ","HOUSE_NO":"１６７號","E_COORD97":179738.98000000001,"N_COORD97":2575071.4700000002,"ADDRESS":"中山西路二段１６７號","OBJECTID":639337},"geometry":{"x":179738.98000000045,"y":2575071.4700000025}},{"attributes":{"ID":639365,"DIS_CODE":0,"TOWNNAME":"柳營區","LI":"光福里","LIN":"4鄰","STREET":"中山西路","SECT":"二段","MAREA":" ","LANE":" ","ALLEY":" ","HOUSE_NO":"１６９號","E_COORD97":179734.54999999999,"N_COORD97":2575071.25,"ADDRESS":"中山西路二段１６９號","OBJECTID":639338},"geometry":{"x":179734.54999999981,"y":2575071.25}},{"attributes":{"ID":639366,"DIS_CODE":0,"TOWNNAME":"柳營區","LI":"光福里","LIN":"4鄰","STREET":"中山西路","SECT":"二段","MAREA":" ","LANE":" ","ALLEY":" ","HOUSE_NO":"１７１號","E_COORD97":179730.48000000001,"N_COORD97":2575071.04,"ADDRESS":"中山西路二段１７１號","OBJECTID":639339},"geometry":{"x":179730.48000000045,"y":2575071.0399999991}},{"attributes":{"ID":639367,"DIS_CODE":0,"TOWNNAME":"柳營區","LI":"光福里","LIN":"4鄰","STREET":"中山西路","SECT":"二段","MAREA":" ","LANE":" ","ALLEY":" ","HOUSE_NO":"１７３號","E_COORD97":179726.20000000001,"N_COORD97":2575070.6099999999,"ADDRESS":"中山西路二段１７３號","OBJECTID":639340},"geometry":{"x":179726.20000000112,"y":2575070.6099999994}},{"attributes":{"ID":639368,"DIS_CODE":0,"TOWNNAME":"柳營區","LI":"光福里","LIN":"4鄰","STREET":"中山西路","SECT":"二段","MAREA":" ","LANE":" ","ALLEY":" ","HOUSE_NO":"１７５號","E_COORD97":179722.07000000001,"N_COORD97":2575070.73,"ADDRESS":"中山西路二段１７５號","OBJECTID":639341},"geometry":{"x":179722.07000000123,"y":2575070.7300000004}},{"attributes":{"ID":639369,"DIS_CODE":0,"TOWNNAME":"柳營區","LI":"光福里","LIN":"4鄰","STREET":"中山西路","SECT":"二段","MAREA":" ","LANE":" ","ALLEY":" ","HOUSE_NO":"１７７號","E_COORD97":179717.82999999999,"N_COORD97":2575070.2999999998,"ADDRESS":"中山西路二段１７７號","OBJECTID":639342},"geometry":{"x":179717.83000000007,"y":2575070.3000000026}},{"attributes":{"ID":639370,"DIS_CODE":0,"TOWNNAME":"柳營區","LI":"光福里","LIN":"4鄰","STREET":"中山西路","SECT":"二段","MAREA":" ","LANE":" ","ALLEY":" ","HOUSE_NO":"１７９號","E_COORD97":179713.48000000001,"N_COORD97":2575070.7999999998,"ADDRESS":"中山西路二段１７９號","OBJECTID":639343},"geometry":{"x":179713.48000000045,"y":2575070.8000000007}},{"attributes":{"ID":639371,"DIS_CODE":0,"TOWNNAME":"柳營區","LI":"光福里","LIN":"4鄰","STREET":"中山西路","SECT":"二段","MAREA":" ","LANE":" ","ALLEY":" ","HOUSE_NO":"１８１號","E_COORD97":179708.79999999999,"N_COORD97":2575070.6099999999,"ADDRESS":"中山西路二段１８１號","OBJECTID":639344},"geometry":{"x":179708.79999999981,"y":2575070.6099999994}},{"attributes":{"ID":639372,"DIS_CODE":0,"TOWNNAME":"柳營區","LI":"光福里","LIN":"8鄰","STREET":"中山西路","SECT":"二段","MAREA":" ","LANE":" ","ALLEY":" ","HOUSE_NO":"１６８號","E_COORD97":179821.14999999999,"N_COORD97":2575117.1099999999,"ADDRESS":"中山西路二段１６８號","OBJECTID":639345},"geometry":{"x":179821.15000000037,"y":2575117.1100000013}},{"attributes":{"ID":639373,"DIS_CODE":0,"TOWNNAME":"柳營區","LI":"中埕里","LIN":"4鄰","STREET":"中山西路","SECT":"二段","MAREA":" ","LANE":" ","ALLEY":" ","HOUSE_NO":"６５號","E_COORD97":180006.92999999999,"N_COORD97":2575109.8999999999,"ADDRESS":"中山西路二段６５號","OBJECTID":639346},"geometry":{"x":180006.93000000156,"y":2575109.9000000022}},{"attributes":{"ID":639374,"DIS_CODE":0,"TOWNNAME":"柳營區","LI":"東昇里","LIN":"7鄰","STREET":"中山西路","SECT":"二段","MAREA":" ","LANE":" ","ALLEY":" ","HOUSE_NO":"２８號","E_COORD97":180109.07999999999,"N_COORD97":2575197.2999999998,"ADDRESS":"中山西路二段２８號","OBJECTID":639347},"geometry":{"x":180109.08000000007,"y":2575197.2999999989}},{"attributes":{"ID":639375,"DIS_CODE":0,"TOWNNAME":"柳營區","LI":"東昇里","LIN":"7鄰","STREET":"中山西路","SECT":"二段","MAREA":" ","LANE":" ","ALLEY":" ","HOUSE_NO":"２號","E_COORD97":180145.57999999999,"N_COORD97":2575232.29,"ADDRESS":"中山西路二段２號","OBJECTID":639348},"geometry":{"x":180145.58000000101,"y":2575232.2899999991}},{"attributes":{"ID":639376,"DIS_CODE":0,"TOWNNAME":"柳營區","LI":"東昇里","LIN":"7鄰","STREET":"中山西路","SECT":"二段","MAREA":" ","LANE":" ","ALLEY":" ","HOUSE_NO":"６號","E_COORD97":180139.14000000001,"N_COORD97":2575219.1400000001,"ADDRESS":"中山西路二段６號","OBJECTID":639349},"geometry":{"x":180139.13999999966,"y":2575219.1400000025}},{"attributes":{"ID":639377,"DIS_CODE":0,"TOWNNAME":"柳營區","LI":"東昇里","LIN":"6鄰","STREET":"中山西路","SECT":"二段","MAREA":" ","LANE":" ","ALLEY":" ","HOUSE_NO":"３２號","E_COORD97":180077.85999999999,"N_COORD97":2575201.3599999999,"ADDRESS":"中山西路二段３２號","OBJECTID":639350},"geometry":{"x":180077.86000000127,"y":2575201.3599999994}},{"attributes":{"ID":639378,"DIS_CODE":0,"TOWNNAME":"柳營區","LI":"東昇里","LIN":"6鄰","STREET":"中山西路","SECT":"二段","MAREA":" ","LANE":" ","ALLEY":" ","HOUSE_NO":"４６號","E_COORD97":180083.23999999999,"N_COORD97":2575178.46,"ADDRESS":"中山西路二段４６號","OBJECTID":639351},"geometry":{"x":180083.23999999929,"y":2575178.4600000009}},{"attributes":{"ID":639379,"DIS_CODE":0,"TOWNNAME":"柳營區","LI":"東昇里","LIN":"6鄰","STREET":"中山西路","SECT":"二段","MAREA":" ","LANE":" ","ALLEY":" ","HOUSE_NO":"４８號","E_COORD97":180071.17999999999,"N_COORD97":2575183.4199999999,"ADDRESS":"中山西路二段４８號","OBJECTID":639352},"geometry":{"x":180071.17999999877,"y":2575183.4200000018}},{"attributes":{"ID":639380,"DIS_CODE":0,"TOWNNAME":"柳營區","LI":"東昇里","LIN":"6鄰","STREET":"中山西路","SECT":"二段","MAREA":" ","LANE":" ","ALLEY":" ","HOUSE_NO":"５０號","E_COORD97":180074.06,"N_COORD97":2575172.46,"ADDRESS":"中山西路二段５０號","OBJECTID":639353},"geometry":{"x":180074.06000000052,"y":2575172.4600000009}},{"attributes":{"ID":639381,"DIS_CODE":0,"TOWNNAME":"柳營區","LI":"東昇里","LIN":"6鄰","STREET":"中山西路","SECT":"二段","MAREA":" ","LANE":" ","ALLEY":" ","HOUSE_NO":"５２號","E_COORD97":180068.56,"N_COORD97":2575170.1499999999,"ADDRESS":"中山西路二段５２號","OBJECTID":639354},"geometry":{"x":180068.56000000145,"y":2575170.1500000004}},{"attributes":{"ID":639382,"DIS_CODE":0,"TOWNNAME":"柳營區","LI":"東昇里","LIN":"6鄰","STREET":"中山西路","SECT":"二段","MAREA":" ","LANE":" ","ALLEY":" ","HOUSE_NO":"５６號","E_COORD97":180063.14000000001,"N_COORD97":2575169.4900000002,"ADDRESS":"中山西路二段５６號","OBJECTID":639355},"geometry":{"x":180063.14000000153,"y":2575169.4900000021}},{"attributes":{"ID":639383,"DIS_CODE":0,"TOWNNAME":"柳營區","LI":"東昇里","LIN":"6鄰","STREET":"中山西路","SECT":"二段","MAREA":" ","LANE":" ","ALLEY":" ","HOUSE_NO":"５８號","E_COORD97":180057.67999999999,"N_COORD97":2575168.0099999998,"ADDRESS":"中山西路二段５８號","OBJECTID":639356},"geometry":{"x":180057.67999999877,"y":2575168.0100000035}},{"attributes":{"ID":639384,"DIS_CODE":0,"TOWNNAME":"柳營區","LI":"八翁里","LIN":"19鄰","STREET":"仁愛路","SECT":" ","MAREA":" ","LANE":" ","ALLEY":" ","HOUSE_NO":"６１號","E_COORD97":179098.29999999999,"N_COORD97":2575126.4500000002,"ADDRESS":"仁愛路６１號","OBJECTID":639357},"geometry":{"x":179098.30000000075,"y":2575126.4499999993}},{"attributes":{"ID":639385,"DIS_CODE":0,"TOWNNAME":"柳營區","LI":"中埕里","LIN":"10鄰","STREET":"中山西路","SECT":"二段","MAREA":" ","LANE":" ","ALLEY":" ","HOUSE_NO":"６２號","E_COORD97":180049.42000000001,"N_COORD97":2575164.3900000001,"ADDRESS":"中山西路二段６２號","OBJECTID":639358},"geometry":{"x":180049.41999999993,"y":2575164.3900000025}},{"attributes":{"ID":639386,"DIS_CODE":0,"TOWNNAME":"柳營區","LI":"中埕里","LIN":"10鄰","STREET":"中山西路","SECT":"二段","MAREA":" ","LANE":" ","ALLEY":" ","HOUSE_NO":"６６號","E_COORD97":180045.5,"N_COORD97":2575162.7599999998,"ADDRESS":"中山西路二段６６號","OBJECTID":639359},"geometry":{"x":180045.5,"y":2575162.7600000035}},{"attributes":{"ID":639387,"DIS_CODE":0,"TOWNNAME":"柳營區","LI":"中埕里","LIN":"4鄰","STREET":"中山西路","SECT":"二段","MAREA":" ","LANE":" ","ALLEY":" ","HOUSE_NO":"８８號","E_COORD97":179995.07999999999,"N_COORD97":2575135.4399999999,"ADDRESS":"中山西路二段８８號","OBJECTID":639360},"geometry":{"x":179995.08000000101,"y":2575135.4400000013}},{"attributes":{"ID":639388,"DIS_CODE":0,"TOWNNAME":"柳營區","LI":"中埕里","LIN":"4鄰","STREET":"中山西路","SECT":"二段","MAREA":" ","LANE":" ","ALLEY":" ","HOUSE_NO":"９２號","E_COORD97":179979.54999999999,"N_COORD97":2575129.8599999999,"ADDRESS":"中山西路二段９２號","OBJECTID":639361},"geometry":{"x":179979.55000000075,"y":2575129.8599999994}},{"attributes":{"ID":639389,"DIS_CODE":0,"TOWNNAME":"柳營區","LI":"士林里","LIN":"4鄰","STREET":"中山西路","SECT":"三段","MAREA":" ","LANE":" ","ALLEY":" ","HOUSE_NO":"１５８號","E_COORD97":179370.10000000001,"N_COORD97":2575109.52,"ADDRESS":"中山西路三段１５８號","OBJECTID":639362},"geometry":{"x":179370.10000000149,"y":2575109.5199999996}},{"attributes":{"ID":639390,"DIS_CODE":0,"TOWNNAME":"柳營區","LI":"士林里","LIN":"4鄰","STREET":"中山西路","SECT":"三段","MAREA":" ","LANE":" ","ALLEY":" ","HOUSE_NO":"１６６號","E_COORD97":179362.92999999999,"N_COORD97":2575094.7599999998,"ADDRESS":"中山西路三段１６６號","OBJECTID":639363},"geometry":{"x":179362.93000000063,"y":2575094.7599999998}},{"attributes":{"ID":639391,"DIS_CODE":0,"TOWNNAME":"柳營區","LI":"士林里","LIN":"4鄰","STREET":"中山西路","SECT":"三段","MAREA":" ","LANE":" ","ALLEY":" ","HOUSE_NO":"１７６號","E_COORD97":179335.17000000001,"N_COORD97":2575098.8599999999,"ADDRESS":"中山西路三段１７６號","OBJECTID":639364},"geometry":{"x":179335.16999999993,"y":2575098.8600000013}},{"attributes":{"ID":639392,"DIS_CODE":0,"TOWNNAME":"柳營區","LI":"士林里","LIN":"18鄰","STREET":"中山西路","SECT":"三段","MAREA":" ","LANE":" ","ALLEY":" ","HOUSE_NO":"１３５號","E_COORD97":179285.70999999999,"N_COORD97":2575040.04,"ADDRESS":"中山西路三段１３５號","OBJECTID":639365},"geometry":{"x":179285.70999999996,"y":2575040.0399999991}},{"attributes":{"ID":639393,"DIS_CODE":0,"TOWNNAME":"柳營區","LI":"士林里","LIN":"18鄰","STREET":"中山西路","SECT":"三段","MAREA":" ","LANE":" ","ALLEY":" ","HOUSE_NO":"１３７號","E_COORD97":179272.82000000001,"N_COORD97":2575039.71,"ADDRESS":"中山西路三段１３７號","OBJECTID":639366},"geometry":{"x":179272.82000000123,"y":2575039.7100000028}},{"attributes":{"ID":639394,"DIS_CODE":0,"TOWNNAME":"柳營區","LI":"士林里","LIN":"18鄰","STREET":"中山西路","SECT":"三段","MAREA":" ","LANE":" ","ALLEY":" ","HOUSE_NO":"１４５號","E_COORD97":179262.12,"N_COORD97":2575036.1800000002,"ADDRESS":"中山西路三段１４５號","OBJECTID":639367},"geometry":{"x":179262.12000000104,"y":2575036.1800000016}},{"attributes":{"ID":639395,"DIS_CODE":0,"TOWNNAME":"柳營區","LI":"士林里","LIN":"13鄰","STREET":"中山西路","SECT":"三段","MAREA":" ","LANE":" ","ALLEY":" ","HOUSE_NO":"１３號","E_COORD97":179610.42999999999,"N_COORD97":2575065.3999999999,"ADDRESS":"中山西路三段１３號","OBJECTID":639368},"geometry":{"x":179610.43000000063,"y":2575065.4000000022}},{"attributes":{"ID":639396,"DIS_CODE":0,"TOWNNAME":"柳營區","LI":"士林里","LIN":"13鄰","STREET":"中山西路","SECT":"三段","MAREA":" ","LANE":" ","ALLEY":" ","HOUSE_NO":"１５號","E_COORD97":179605.23000000001,"N_COORD97":2575065.6400000001,"ADDRESS":"中山西路三段１５號","OBJECTID":639369},"geometry":{"x":179605.23000000045,"y":2575065.6400000006}},{"attributes":{"ID":639397,"DIS_CODE":0,"TOWNNAME":"柳營區","LI":"東昇里","LIN":"7鄰","STREET":"中山西路","SECT":"二段","MAREA":" ","LANE":" ","ALLEY":" ","HOUSE_NO":"８號","E_COORD97":180136.39000000001,"N_COORD97":2575215.25,"ADDRESS":"中山西路二段８號","OBJECTID":639370},"geometry":{"x":180136.3900000006,"y":2575215.2500000019}},{"attributes":{"ID":639398,"DIS_CODE":0,"TOWNNAME":"柳營區","LI":"中埕里","LIN":"7鄰","STREET":"中山西路","SECT":"二段","MAREA":" ","LANE":" ","ALLEY":" ","HOUSE_NO":"９３號","E_COORD97":179928.07999999999,"N_COORD97":2575088.5899999999,"ADDRESS":"中山西路二段９３號","OBJECTID":639371},"geometry":{"x":179928.08000000007,"y":2575088.5899999999}},{"attributes":{"ID":639399,"DIS_CODE":0,"TOWNNAME":"柳營區","LI":"中埕里","LIN":"7鄰","STREET":"中山西路","SECT":"二段","MAREA":" ","LANE":" ","ALLEY":" ","HOUSE_NO":"９５號","E_COORD97":179922.89999999999,"N_COORD97":2575088.6200000001,"ADDRESS":"中山西路二段９５號","OBJECTID":639372},"geometry":{"x":179922.90000000037,"y":2575088.6200000029}},{"attributes":{"ID":639400,"DIS_CODE":0,"TOWNNAME":"柳營區","LI":"中埕里","LIN":"7鄰","STREET":"中山西路","SECT":"二段","MAREA":" ","LANE":" ","ALLEY":" ","HOUSE_NO":"９９號","E_COORD97":179898.51999999999,"N_COORD97":2575095.04,"ADDRESS":"中山西路二段９９號","OBJECTID":639373},"geometry":{"x":179898.51999999955,"y":2575095.0399999991}},{"attributes":{"ID":639401,"DIS_CODE":0,"TOWNNAME":"柳營區","LI":"中埕里","LIN":"10鄰","STREET":"中山西路","SECT":"二段","MAREA":" ","LANE":" ","ALLEY":" ","HOUSE_NO":"８２號","E_COORD97":180013.48999999999,"N_COORD97":2575150.79,"ADDRESS":"中山西路二段８２號","OBJECTID":639374},"geometry":{"x":180013.49000000022,"y":2575150.7899999991}},{"attributes":{"ID":639402,"DIS_CODE":0,"TOWNNAME":"柳營區","LI":"士林里","LIN":"4鄰","STREET":"中山西路","SECT":"三段","MAREA":" ","LANE":" ","ALLEY":" ","HOUSE_NO":"１８２號","E_COORD97":179318.85999999999,"N_COORD97":2575108.9399999999,"ADDRESS":"中山西路三段１８２號","OBJECTID":639375},"geometry":{"x":179318.86000000127,"y":2575108.9399999995}},{"attributes":{"ID":639403,"DIS_CODE":0,"TOWNNAME":"柳營區","LI":"八翁里","LIN":"4鄰","STREET":"中山西路","SECT":"三段","MAREA":" ","LANE":" ","ALLEY":" ","HOUSE_NO":"６４５號","E_COORD97":178150.76000000001,"N_COORD97":2575047.6200000001,"ADDRESS":"中山西路三段６４５號","OBJECTID":639376},"geometry":{"x":178150.76000000071,"y":2575047.6200000029}},{"attributes":{"ID":639404,"DIS_CODE":0,"TOWNNAME":"柳營區","LI":"八翁里","LIN":"4鄰","STREET":"中山西路","SECT":"三段","MAREA":" ","LANE":" ","ALLEY":" ","HOUSE_NO":"６４７號","E_COORD97":178143.79000000001,"N_COORD97":2575047.8399999999,"ADDRESS":"中山西路三段６４７號","OBJECTID":639377},"geometry":{"x":178143.79000000097,"y":2575047.8400000017}},{"attributes":{"ID":639405,"DIS_CODE":0,"TOWNNAME":"柳營區","LI":"八翁里","LIN":"4鄰","STREET":"中山西路","SECT":"三段","MAREA":" ","LANE":" ","ALLEY":" ","HOUSE_NO":"６４９號","E_COORD97":178137.54999999999,"N_COORD97":2575048.9300000002,"ADDRESS":"中山西路三段６４９號","OBJECTID":639378},"geometry":{"x":178137.54999999981,"y":2575048.9299999997}},{"attributes":{"ID":639406,"DIS_CODE":0,"TOWNNAME":"柳營區","LI":"八翁里","LIN":"4鄰","STREET":"中山西路","SECT":"三段","MAREA":" ","LANE":" ","ALLEY":" ","HOUSE_NO":"６５１號","E_COORD97":178122.69,"N_COORD97":2575046.3100000001,"ADDRESS":"中山西路三段６５１號","OBJECTID":639379},"geometry":{"x":178122.69000000134,"y":2575046.3100000024}},{"attributes":{"ID":639407,"DIS_CODE":0,"TOWNNAME":"柳營區","LI":"八翁里","LIN":"4鄰","STREET":"中山西路","SECT":"三段","MAREA":" ","LANE":" ","ALLEY":" ","HOUSE_NO":"６６１號","E_COORD97":178102.17999999999,"N_COORD97":2575038.9700000002,"ADDRESS":"中山西路三段６６１號","OBJECTID":639380},"geometry":{"x":178102.18000000063,"y":2575038.9700000007}},{"attributes":{"ID":639408,"DIS_CODE":0,"TOWNNAME":"柳營區","LI":"士林里","LIN":"8鄰","STREET":"中山西路","SECT":"三段","MAREA":" ","LANE":" ","ALLEY":" ","HOUSE_NO":"６８號","E_COORD97":179523.42999999999,"N_COORD97":2575101.02,"ADDRESS":"中山西路三段６８號","OBJECTID":639381},"geometry":{"x":179523.4299999997,"y":2575101.0200000014}},{"attributes":{"ID":639409,"DIS_CODE":0,"TOWNNAME":"柳營區","LI":"八翁里","LIN":"1鄰","STREET":"中山西路","SECT":"三段","MAREA":" ","LANE":" ","ALLEY":" ","HOUSE_NO":"６６６號","E_COORD97":178467.20000000001,"N_COORD97":2575049.1400000001,"ADDRESS":"中山西路三段６６６號","OBJECTID":639382},"geometry":{"x":178467.20000000019,"y":2575049.1399999987}},{"attributes":{"ID":639410,"DIS_CODE":0,"TOWNNAME":"柳營區","LI":"八翁里","LIN":"1鄰","STREET":"中山西路","SECT":"三段","MAREA":" ","LANE":" ","ALLEY":" ","HOUSE_NO":"６８６號","E_COORD97":178431.51999999999,"N_COORD97":2575055.8799999999,"ADDRESS":"中山西路三段６８６號","OBJECTID":639383},"geometry":{"x":178431.52000000048,"y":2575055.8799999971}},{"attributes":{"ID":639411,"DIS_CODE":0,"TOWNNAME":"柳營區","LI":"八翁里","LIN":"1鄰","STREET":"中山西路","SECT":"三段","MAREA":" ","LANE":" ","ALLEY":" ","HOUSE_NO":"６９６號","E_COORD97":178414.45000000001,"N_COORD97":2575044.98,"ADDRESS":"中山西路三段６９６號","OBJECTID":639384},"geometry":{"x":178414.45000000112,"y":2575044.9800000023}},{"attributes":{"ID":639412,"DIS_CODE":0,"TOWNNAME":"柳營區","LI":"八翁里","LIN":"1鄰","STREET":"中山西路","SECT":"三段","MAREA":" ","LANE":" ","ALLEY":" ","HOUSE_NO":"６９８號","E_COORD97":178410.14999999999,"N_COORD97":2575045.2599999998,"ADDRESS":"中山西路三段６９８號","OBJECTID":639385},"geometry":{"x":178410.15000000037,"y":2575045.2600000016}},{"attributes":{"ID":639413,"DIS_CODE":0,"TOWNNAME":"柳營區","LI":"八翁里","LIN":"1鄰","STREET":"中山西路","SECT":"三段","MAREA":" ","LANE":" ","ALLEY":" ","HOUSE_NO":"７０２號","E_COORD97":178401.54000000001,"N_COORD97":2575045.8199999998,"ADDRESS":"中山西路三段７０２號","OBJECTID":639386},"geometry":{"x":178401.54000000097,"y":2575045.8200000022}},{"attributes":{"ID":639414,"DIS_CODE":0,"TOWNNAME":"柳營區","LI":"八翁里","LIN":"1鄰","STREET":"中山西路","SECT":"三段","MAREA":" ","LANE":" ","ALLEY":" ","HOUSE_NO":"７０６號","E_COORD97":178397.23999999999,"N_COORD97":2575046.1000000001,"ADDRESS":"中山西路三段７０６號","OBJECTID":639387},"geometry":{"x":178397.24000000115,"y":2575046.1000000015}},{"attributes":{"ID":639415,"DIS_CODE":0,"TOWNNAME":"柳營區","LI":"八翁里","LIN":"1鄰","STREET":"中山西路","SECT":"三段","MAREA":" ","LANE":" ","ALLEY":" ","HOUSE_NO":"７０８號","E_COORD97":178392.94,"N_COORD97":2575046.3799999999,"ADDRESS":"中山西路三段７０８號","OBJECTID":639388},"geometry":{"x":178392.94000000041,"y":2575046.3800000008}},{"attributes":{"ID":639416,"DIS_CODE":0,"TOWNNAME":"柳營區","LI":"八翁里","LIN":"1鄰","STREET":"中山西路","SECT":"三段","MAREA":" ","LANE":" ","ALLEY":" ","HOUSE_NO":"７１０號","E_COORD97":178388.63,"N_COORD97":2575046.6600000001,"ADDRESS":"中山西路三段７１０號","OBJECTID":639389},"geometry":{"x":178388.63000000175,"y":2575046.660000002}},{"attributes":{"ID":639417,"DIS_CODE":0,"TOWNNAME":"柳營區","LI":"八翁里","LIN":"1鄰","STREET":"中山西路","SECT":"三段","MAREA":" ","LANE":" ","ALLEY":" ","HOUSE_NO":"７１２號","E_COORD97":178384.32999999999,"N_COORD97":2575046.9399999999,"ADDRESS":"中山西路三段７１２號","OBJECTID":639390},"geometry":{"x":178384.33000000101,"y":2575046.9400000013}},{"attributes":{"ID":639418,"DIS_CODE":0,"TOWNNAME":"柳營區","LI":"太康里","LIN":"20鄰","STREET":"中山東路","SECT":"二段","MAREA":" ","LANE":" ","ALLEY":" ","HOUSE_NO":"１１２號","E_COORD97":182936.32000000001,"N_COORD97":2575208.8900000001,"ADDRESS":"中山東路二段１１２號","OBJECTID":639391},"geometry":{"x":182936.32000000123,"y":2575208.8900000006}},{"attributes":{"ID":639419,"DIS_CODE":0,"TOWNNAME":"柳營區","LI":"士林里","LIN":"13鄰","STREET":"中山西路","SECT":"三段","MAREA":" ","LANE":" ","ALLEY":" ","HOUSE_NO":"８１號","E_COORD97":179445.92000000001,"N_COORD97":2575071.25,"ADDRESS":"中山西路三段８１號","OBJECTID":639392},"geometry":{"x":179445.91999999993,"y":2575071.25}},{"attributes":{"ID":639420,"DIS_CODE":0,"TOWNNAME":"柳營區","LI":"士林里","LIN":"13鄰","STREET":"中山西路","SECT":"三段","MAREA":" ","LANE":" ","ALLEY":" ","HOUSE_NO":"９號","E_COORD97":179619.42000000001,"N_COORD97":2575067.7999999998,"ADDRESS":"中山西路三段９號","OBJECTID":639393},"geometry":{"x":179619.42000000086,"y":2575067.8000000007}},{"attributes":{"ID":639421,"DIS_CODE":0,"TOWNNAME":"柳營區","LI":"東昇里","LIN":"17鄰","STREET":"中山東路","SECT":"二段","MAREA":" ","LANE":" ","ALLEY":" ","HOUSE_NO":"１１１６之１號","E_COORD97":181516.63,"N_COORD97":2575399.21,"ADDRESS":"中山東路二段１１１６之１號","OBJECTID":639394},"geometry":{"x":181516.63000000082,"y":2575399.2100000028}},{"attributes":{"ID":639422,"DIS_CODE":0,"TOWNNAME":"柳營區","LI":"東昇里","LIN":"17鄰","STREET":"中山東路","SECT":"二段","MAREA":" ","LANE":" ","ALLEY":" ","HOUSE_NO":"１１１６號","E_COORD97":181427.67999999999,"N_COORD97":2575434.29,"ADDRESS":"中山東路二段１１１６號","OBJECTID":639395},"geometry":{"x":181427.68000000063,"y":2575434.290000001}},{"attributes":{"ID":639423,"DIS_CODE":0,"TOWNNAME":"柳營區","LI":"東昇里","LIN":"17鄰","STREET":"中山東路","SECT":"二段","MAREA":" ","LANE":" ","ALLEY":" ","HOUSE_NO":"１１８８號","E_COORD97":181279.64000000001,"N_COORD97":2575406.1699999999,"ADDRESS":"中山東路二段１１８８號","OBJECTID":639396},"geometry":{"x":181279.63999999966,"y":2575406.1699999999}},{"attributes":{"ID":639424,"DIS_CODE":0,"TOWNNAME":"柳營區","LI":"東昇里","LIN":"17鄰","STREET":"中山東路","SECT":"二段","MAREA":" ","LANE":" ","ALLEY":" ","HOUSE_NO":"１２１８號","E_COORD97":181236.69,"N_COORD97":2575381.9500000002,"ADDRESS":"中山東路二段１２１８號","OBJECTID":639397},"geometry":{"x":181236.69000000227,"y":2575381.9500000011}},{"attributes":{"ID":639425,"DIS_CODE":0,"TOWNNAME":"柳營區","LI":"中埕里","LIN":"4鄰","STREET":"中興街","SECT":" ","MAREA":" ","LANE":" ","ALLEY":" ","HOUSE_NO":"２７號","E_COORD97":179962.45999999999,"N_COORD97":2575207.3300000001,"ADDRESS":"中興街２７號","OBJECTID":639398},"geometry":{"x":179962.45999999996,"y":2575207.3300000019}},{"attributes":{"ID":639426,"DIS_CODE":0,"TOWNNAME":"柳營區","LI":"東昇里","LIN":"17鄰","STREET":"中山東路","SECT":"二段","MAREA":" ","LANE":" ","ALLEY":" ","HOUSE_NO":"９５６號","E_COORD97":181606.95999999999,"N_COORD97":2575413.5600000001,"ADDRESS":"中山東路二段９５６號","OBJECTID":639399},"geometry":{"x":181606.95999999996,"y":2575413.5600000024}},{"attributes":{"ID":639427,"DIS_CODE":0,"TOWNNAME":"柳營區","LI":"東昇里","LIN":"29鄰","STREET":"中山東路","SECT":"二段","MAREA":" ","LANE":" ","ALLEY":" ","HOUSE_NO":"７４３號","E_COORD97":181534.87,"N_COORD97":2575344.5800000001,"ADDRESS":"中山東路二段７４３號","OBJECTID":639400},"geometry":{"x":181534.87000000011,"y":2575344.5800000019}}]}