{"displayFieldName":"TOWNNAME","fieldAliases":{"ID":"ID","DIS_CODE":"DIS_CODE","TOWNNAME":"TOWNNAME","LI":"LI","LIN":"LIN","STREET":"STREET","SECT":"SECT","MAREA":"MAREA","LANE":"LANE","ALLEY":"ALLEY","HOUSE_NO":"HOUSE_NO","E_COORD97":"E_COORD97","N_COORD97":"N_COORD97","ADDRESS":"ADDRESS","OBJECTID":"OBJECTID"},"geometryType":"esriGeometryPoint","spatialReference":{"wkid":102443,"latestWkid":3826},"fields":[{"name":"ID","type":"esriFieldTypeDouble","alias":"ID"},{"name":"DIS_CODE","type":"esriFieldTypeInteger","alias":"DIS_CODE"},{"name":"TOWNNAME","type":"esriFieldTypeString","alias":"TOWNNAME","length":8},{"name":"LI","type":"esriFieldTypeString","alias":"LI","length":8},{"name":"LIN","type":"esriFieldTypeString","alias":"LIN","length":12},{"name":"STREET","type":"esriFieldTypeString","alias":"STREET","length":20},{"name":"SECT","type":"esriFieldTypeString","alias":"SECT","length":8},{"name":"MAREA","type":"esriFieldTypeString","alias":"MAREA","length":12},{"name":"LANE","type":"esriFieldTypeString","alias":"LANE","length":10},{"name":"ALLEY","type":"esriFieldTypeString","alias":"ALLEY","length":10},{"name":"HOUSE_NO","type":"esriFieldTypeString","alias":"HOUSE_NO","length":20},{"name":"E_COORD97","type":"esriFieldTypeDouble","alias":"E_COORD97"},{"name":"N_COORD97","type":"esriFieldTypeDouble","alias":"N_COORD97"},{"name":"ADDRESS","type":"esriFieldTypeString","alias":"ADDRESS","length":50},{"name":"OBJECTID","type":"esriFieldTypeOID","alias":"OBJECTID"}],"features":[{"attributes":{"ID":19401,"DIS_CODE":0,"TOWNNAME":"永康區","LI":"龍潭里","LIN":"14鄰","STREET":"自強路","SECT":" ","MAREA":" ","LANE":"７５０巷","ALLEY":"２８弄","HOUSE_NO":"１０３號","E_COORD97":174496.39999999999,"N_COORD97":2548351.1299999999,"ADDRESS":"自強路７５０巷２８弄１０３號","OBJECTID":19401},"geometry":{"x":174496.40000000037,"y":2548351.129999999}},{"attributes":{"ID":19402,"DIS_CODE":0,"TOWNNAME":"大內區","LI":"石城里","LIN":"14鄰","STREET":" ","SECT":" ","MAREA":"石子瀨","LANE":" ","ALLEY":" ","HOUSE_NO":"１１２號之４２","E_COORD97":184077.59,"N_COORD97":2557937.2999999998,"ADDRESS":"石子瀨１１２號之４２","OBJECTID":19402},"geometry":{"x":184077.58999999985,"y":2557937.3000000045}},{"attributes":{"ID":19403,"DIS_CODE":0,"TOWNNAME":"大內區","LI":"石城里","LIN":"14鄰","STREET":" ","SECT":" ","MAREA":"石子瀨","LANE":" ","ALLEY":" ","HOUSE_NO":"１１４號之３０","E_COORD97":183965.60000000001,"N_COORD97":2557905.2999999998,"ADDRESS":"石子瀨１１４號之３０","OBJECTID":19403},"geometry":{"x":183965.60000000149,"y":2557905.3000000007}},{"attributes":{"ID":19404,"DIS_CODE":0,"TOWNNAME":"永康區","LI":"龍潭里","LIN":"14鄰","STREET":"自強路","SECT":" ","MAREA":" ","LANE":"７５０巷","ALLEY":"２８弄","HOUSE_NO":"１０５號","E_COORD97":174490.16,"N_COORD97":2548350.8199999998,"ADDRESS":"自強路７５０巷２８弄１０５號","OBJECTID":19404},"geometry":{"x":174490.16000000108,"y":2548350.8200000003}},{"attributes":{"ID":19405,"DIS_CODE":0,"TOWNNAME":"大內區","LI":"石湖里","LIN":"14鄰","STREET":" ","SECT":" ","MAREA":"新厝子","LANE":" ","ALLEY":" ","HOUSE_NO":"１５號","E_COORD97":184550.12,"N_COORD97":2561600.25,"ADDRESS":"新厝子１５號","OBJECTID":19405},"geometry":{"x":184550.12000000011,"y":2561600.25}},{"attributes":{"ID":19406,"DIS_CODE":0,"TOWNNAME":"大內區","LI":"石城里","LIN":"14鄰","STREET":" ","SECT":" ","MAREA":"石子瀨","LANE":" ","ALLEY":" ","HOUSE_NO":"１１２號之５９","E_COORD97":184038.44,"N_COORD97":2557895.2999999998,"ADDRESS":"石子瀨１１２號之５９","OBJECTID":19406},"geometry":{"x":184038.44000000041,"y":2557895.3000000007}},{"attributes":{"ID":19407,"DIS_CODE":0,"TOWNNAME":"永康區","LI":"龍潭里","LIN":"14鄰","STREET":"自強路","SECT":" ","MAREA":" ","LANE":"７５０巷","ALLEY":"６８弄","HOUSE_NO":"５８號","E_COORD97":174511.42000000001,"N_COORD97":2548323.8100000001,"ADDRESS":"自強路７５０巷６８弄５８號","OBJECTID":19407},"geometry":{"x":174511.42000000179,"y":2548323.8100000005}},{"attributes":{"ID":19408,"DIS_CODE":0,"TOWNNAME":"永康區","LI":"龍潭里","LIN":"14鄰","STREET":"自強路","SECT":" ","MAREA":" ","LANE":"７５０巷","ALLEY":"６８弄","HOUSE_NO":"６０號","E_COORD97":174505.23000000001,"N_COORD97":2548322.23,"ADDRESS":"自強路７５０巷６８弄６０號","OBJECTID":19408},"geometry":{"x":174505.23000000138,"y":2548322.2300000042}},{"attributes":{"ID":19409,"DIS_CODE":0,"TOWNNAME":"永康區","LI":"龍潭里","LIN":"14鄰","STREET":"自強路","SECT":" ","MAREA":" ","LANE":"７５０巷","ALLEY":"６８弄","HOUSE_NO":"６２號","E_COORD97":174500.79999999999,"N_COORD97":2548322.7400000002,"ADDRESS":"自強路７５０巷６８弄６２號","OBJECTID":19409},"geometry":{"x":174500.80000000075,"y":2548322.7400000021}},{"attributes":{"ID":19410,"DIS_CODE":0,"TOWNNAME":"永康區","LI":"龍潭里","LIN":"14鄰","STREET":"自強路","SECT":" ","MAREA":" ","LANE":"７５０巷","ALLEY":"６８弄","HOUSE_NO":"６６號","E_COORD97":174496.38,"N_COORD97":2548323.25,"ADDRESS":"自強路７５０巷６８弄６６號","OBJECTID":19410},"geometry":{"x":174496.38000000175,"y":2548323.25}},{"attributes":{"ID":19411,"DIS_CODE":0,"TOWNNAME":"永康區","LI":"龍潭里","LIN":"14鄰","STREET":"自強路","SECT":" ","MAREA":" ","LANE":"７５０巷","ALLEY":"６８弄","HOUSE_NO":"６８號","E_COORD97":174491.97,"N_COORD97":2548323.7599999998,"ADDRESS":"自強路７５０巷６８弄６８號","OBJECTID":19411},"geometry":{"x":174491.96999999974,"y":2548323.7599999998}},{"attributes":{"ID":19412,"DIS_CODE":0,"TOWNNAME":"永康區","LI":"龍潭里","LIN":"14鄰","STREET":"自強路","SECT":" ","MAREA":" ","LANE":"７５０巷","ALLEY":"６８弄","HOUSE_NO":"７０號","E_COORD97":174486.88,"N_COORD97":2548325.4399999999,"ADDRESS":"自強路７５０巷６８弄７０號","OBJECTID":19412},"geometry":{"x":174486.88000000082,"y":2548325.4399999995}},{"attributes":{"ID":19413,"DIS_CODE":0,"TOWNNAME":"永康區","LI":"龍潭里","LIN":"14鄰","STREET":"自強路","SECT":" ","MAREA":" ","LANE":"７５０巷","ALLEY":"６８弄","HOUSE_NO":"７２號","E_COORD97":174482.87,"N_COORD97":2548294.2400000002,"ADDRESS":"自強路７５０巷６８弄７２號","OBJECTID":19413},"geometry":{"x":174482.87000000011,"y":2548294.2400000002}},{"attributes":{"ID":19414,"DIS_CODE":0,"TOWNNAME":"永康區","LI":"龍潭里","LIN":"14鄰","STREET":"自強路","SECT":" ","MAREA":" ","LANE":"７５０巷","ALLEY":"６８弄","HOUSE_NO":"７６號","E_COORD97":174488.26999999999,"N_COORD97":2548295.4199999999,"ADDRESS":"自強路７５０巷６８弄７６號","OBJECTID":19414},"geometry":{"x":174488.27000000142,"y":2548295.4199999999}},{"attributes":{"ID":19415,"DIS_CODE":0,"TOWNNAME":"永康區","LI":"龍潭里","LIN":"14鄰","STREET":"自強路","SECT":" ","MAREA":" ","LANE":"７５０巷","ALLEY":"６８弄","HOUSE_NO":"７８號","E_COORD97":174492.67999999999,"N_COORD97":2548294.9100000001,"ADDRESS":"自強路７５０巷６８弄７８號","OBJECTID":19415},"geometry":{"x":174492.68000000063,"y":2548294.910000002}},{"attributes":{"ID":19416,"DIS_CODE":0,"TOWNNAME":"永康區","LI":"龍潭里","LIN":"14鄰","STREET":"自強路","SECT":" ","MAREA":" ","LANE":"７５０巷","ALLEY":"６８弄","HOUSE_NO":"８０號","E_COORD97":174497.07999999999,"N_COORD97":2548294.3900000001,"ADDRESS":"自強路７５０巷６８弄８０號","OBJECTID":19416},"geometry":{"x":174497.08000000101,"y":2548294.3900000025}},{"attributes":{"ID":19417,"DIS_CODE":0,"TOWNNAME":"永康區","LI":"龍潭里","LIN":"14鄰","STREET":"自強路","SECT":" ","MAREA":" ","LANE":"７５０巷","ALLEY":"６８弄","HOUSE_NO":"８２號","E_COORD97":174501.48000000001,"N_COORD97":2548293.8799999999,"ADDRESS":"自強路７５０巷６８弄８２號","OBJECTID":19417},"geometry":{"x":174501.48000000231,"y":2548293.8800000008}},{"attributes":{"ID":19418,"DIS_CODE":0,"TOWNNAME":"永康區","LI":"龍潭里","LIN":"14鄰","STREET":"自強路","SECT":" ","MAREA":" ","LANE":"７５０巷","ALLEY":"６８弄","HOUSE_NO":"８６號","E_COORD97":174506.01999999999,"N_COORD97":2548293.3500000001,"ADDRESS":"自強路７５０巷６８弄８６號","OBJECTID":19418},"geometry":{"x":174506.02000000048,"y":2548293.3500000034}},{"attributes":{"ID":19419,"DIS_CODE":0,"TOWNNAME":"仁德區","LI":"後壁里","LIN":"14鄰","STREET":"德善路","SECT":" ","MAREA":" ","LANE":"１９８巷","ALLEY":"１０弄","HOUSE_NO":"２號","E_COORD97":173696.16,"N_COORD97":2538688.48,"ADDRESS":"德善路１９８巷１０弄２號","OBJECTID":19419},"geometry":{"x":173696.16000000015,"y":2538688.4800000042}},{"attributes":{"ID":19420,"DIS_CODE":0,"TOWNNAME":"仁德區","LI":"後壁里","LIN":"14鄰","STREET":"德善路","SECT":" ","MAREA":" ","LANE":"１９８巷","ALLEY":"１０弄","HOUSE_NO":"１８號","E_COORD97":173675.66,"N_COORD97":2538705.48,"ADDRESS":"德善路１９８巷１０弄１８號","OBJECTID":19420},"geometry":{"x":173675.66000000015,"y":2538705.4800000042}},{"attributes":{"ID":19421,"DIS_CODE":0,"TOWNNAME":"仁德區","LI":"後壁里","LIN":"14鄰","STREET":"德善路","SECT":" ","MAREA":" ","LANE":"１８２巷","ALLEY":"３０弄","HOUSE_NO":"１２號","E_COORD97":173628.22,"N_COORD97":2538749.77,"ADDRESS":"德善路１８２巷３０弄１２號","OBJECTID":19421},"geometry":{"x":173628.22000000067,"y":2538749.7700000033}},{"attributes":{"ID":19422,"DIS_CODE":0,"TOWNNAME":"永康區","LI":"網寮里","LIN":"24鄰","STREET":"永大一路","SECT":" ","MAREA":" ","LANE":" ","ALLEY":" ","HOUSE_NO":"２０４號","E_COORD97":173766.37,"N_COORD97":2546350.6899999999,"ADDRESS":"永大一路２０４號","OBJECTID":19422},"geometry":{"x":173766.37000000104,"y":2546350.6899999995}},{"attributes":{"ID":19423,"DIS_CODE":0,"TOWNNAME":"永康區","LI":"龍潭里","LIN":"24鄰","STREET":"中山北路","SECT":" ","MAREA":" ","LANE":" ","ALLEY":" ","HOUSE_NO":"３４６號","E_COORD97":175125.97,"N_COORD97":2547701.79,"ADDRESS":"中山北路３４６號","OBJECTID":19423},"geometry":{"x":175125.96999999974,"y":2547701.7899999991}},{"attributes":{"ID":19424,"DIS_CODE":0,"TOWNNAME":"永康區","LI":"龍潭里","LIN":"24鄰","STREET":"中山北路","SECT":" ","MAREA":" ","LANE":" ","ALLEY":" ","HOUSE_NO":"３４２號之１","E_COORD97":175095.70000000001,"N_COORD97":2547698.2999999998,"ADDRESS":"中山北路３４２號之１","OBJECTID":19424},"geometry":{"x":175095.70000000019,"y":2547698.3000000045}},{"attributes":{"ID":19425,"DIS_CODE":0,"TOWNNAME":"永康區","LI":"龍潭里","LIN":"24鄰","STREET":"中山北路","SECT":" ","MAREA":" ","LANE":" ","ALLEY":" ","HOUSE_NO":"２９２號","E_COORD97":174791.22,"N_COORD97":2547656.2000000002,"ADDRESS":"中山北路２９２號","OBJECTID":19425},"geometry":{"x":174791.22000000067,"y":2547656.1999999993}},{"attributes":{"ID":19426,"DIS_CODE":0,"TOWNNAME":"永康區","LI":"復華里","LIN":"24鄰","STREET":"復華八街","SECT":" ","MAREA":" ","LANE":" ","ALLEY":" ","HOUSE_NO":"５０號","E_COORD97":172731.54999999999,"N_COORD97":2546231.8700000001,"ADDRESS":"復華八街５０號","OBJECTID":19426},"geometry":{"x":172731.54999999981,"y":2546231.870000001}},{"attributes":{"ID":19427,"DIS_CODE":0,"TOWNNAME":"永康區","LI":"中華里","LIN":"24鄰","STREET":"華興街","SECT":" ","MAREA":" ","LANE":" ","ALLEY":" ","HOUSE_NO":"１３８號","E_COORD97":171746.82999999999,"N_COORD97":2544582.1299999999,"ADDRESS":"華興街１３８號","OBJECTID":19427},"geometry":{"x":171746.83000000007,"y":2544582.1300000008}},{"attributes":{"ID":19428,"DIS_CODE":0,"TOWNNAME":"永康區","LI":"北灣里","LIN":"14鄰","STREET":"大灣路","SECT":" ","MAREA":" ","LANE":"４４巷","ALLEY":"４２弄","HOUSE_NO":"９號","E_COORD97":175111.42000000001,"N_COORD97":2545928.29,"ADDRESS":"大灣路４４巷４２弄９號","OBJECTID":19428},"geometry":{"x":175111.41999999899,"y":2545928.290000001}},{"attributes":{"ID":19429,"DIS_CODE":0,"TOWNNAME":"永康區","LI":"北灣里","LIN":"14鄰","STREET":"大灣路","SECT":" ","MAREA":" ","LANE":"４４巷","ALLEY":"２２弄","HOUSE_NO":"１０號","E_COORD97":175203.03,"N_COORD97":2545901.8300000001,"ADDRESS":"大灣路４４巷２２弄１０號","OBJECTID":19429},"geometry":{"x":175203.03000000119,"y":2545901.8300000019}},{"attributes":{"ID":19430,"DIS_CODE":0,"TOWNNAME":"永康區","LI":"北灣里","LIN":"14鄰","STREET":"大灣路","SECT":" ","MAREA":" ","LANE":"４４巷","ALLEY":"４２弄","HOUSE_NO":"７號","E_COORD97":175110.17000000001,"N_COORD97":2545922.29,"ADDRESS":"大灣路４４巷４２弄７號","OBJECTID":19430},"geometry":{"x":175110.17000000086,"y":2545922.2899999991}},{"attributes":{"ID":19431,"DIS_CODE":0,"TOWNNAME":"永康區","LI":"北灣里","LIN":"14鄰","STREET":"大灣路","SECT":" ","MAREA":" ","LANE":"４４巷","ALLEY":"２２弄","HOUSE_NO":"１１號","E_COORD97":175185.70000000001,"N_COORD97":2545925.4300000002,"ADDRESS":"大灣路４４巷２２弄１１號","OBJECTID":19431},"geometry":{"x":175185.70000000019,"y":2545925.4299999997}},{"attributes":{"ID":19432,"DIS_CODE":0,"TOWNNAME":"永康區","LI":"北灣里","LIN":"14鄰","STREET":"大灣路","SECT":" ","MAREA":" ","LANE":"４４巷","ALLEY":"４２弄","HOUSE_NO":"１１號","E_COORD97":175114.06,"N_COORD97":2545934.04,"ADDRESS":"大灣路４４巷４２弄１１號","OBJECTID":19432},"geometry":{"x":175114.06000000052,"y":2545934.0399999991}},{"attributes":{"ID":19433,"DIS_CODE":0,"TOWNNAME":"永康區","LI":"北灣里","LIN":"14鄰","STREET":"大灣路","SECT":" ","MAREA":" ","LANE":"４４巷","ALLEY":"２２弄","HOUSE_NO":"１４號","E_COORD97":175204.04000000001,"N_COORD97":2545911.8300000001,"ADDRESS":"大灣路４４巷２２弄１４號","OBJECTID":19433},"geometry":{"x":175204.0400000019,"y":2545911.8300000019}},{"attributes":{"ID":19434,"DIS_CODE":0,"TOWNNAME":"永康區","LI":"北灣里","LIN":"14鄰","STREET":"大灣路","SECT":" ","MAREA":" ","LANE":"４４巷","ALLEY":"２２弄","HOUSE_NO":"１８號","E_COORD97":175205.04000000001,"N_COORD97":2545921.8300000001,"ADDRESS":"大灣路４４巷２２弄１８號","OBJECTID":19434},"geometry":{"x":175205.04000000004,"y":2545921.8300000019}},{"attributes":{"ID":19435,"DIS_CODE":0,"TOWNNAME":"永康區","LI":"北灣里","LIN":"14鄰","STREET":"大灣路","SECT":" ","MAREA":" ","LANE":"４４巷","ALLEY":"２２弄","HOUSE_NO":"３號","E_COORD97":175183,"N_COORD97":2545907.9300000002,"ADDRESS":"大灣路４４巷２２弄３號","OBJECTID":19435},"geometry":{"x":175183.00000000093,"y":2545907.9299999997}},{"attributes":{"ID":19436,"DIS_CODE":0,"TOWNNAME":"永康區","LI":"北灣里","LIN":"14鄰","STREET":"大灣路","SECT":" ","MAREA":" ","LANE":"４４巷","ALLEY":"２２弄","HOUSE_NO":"９號","E_COORD97":175184.04999999999,"N_COORD97":2545921.1800000002,"ADDRESS":"大灣路４４巷２２弄９號","OBJECTID":19436},"geometry":{"x":175184.05000000075,"y":2545921.1799999978}},{"attributes":{"ID":19437,"DIS_CODE":0,"TOWNNAME":"永康區","LI":"北灣里","LIN":"14鄰","STREET":"大灣路","SECT":" ","MAREA":" ","LANE":"４４巷","ALLEY":"２２弄","HOUSE_NO":"８號","E_COORD97":175201.17999999999,"N_COORD97":2545896.8300000001,"ADDRESS":"大灣路４４巷２２弄８號","OBJECTID":19437},"geometry":{"x":175201.18000000063,"y":2545896.8299999982}},{"attributes":{"ID":19438,"DIS_CODE":0,"TOWNNAME":"永康區","LI":"北灣里","LIN":"14鄰","STREET":"大灣路","SECT":" ","MAREA":" ","LANE":"４４巷","ALLEY":"２２弄","HOUSE_NO":"４號","E_COORD97":175200.07999999999,"N_COORD97":2545886.8300000001,"ADDRESS":"大灣路４４巷２２弄４號","OBJECTID":19438},"geometry":{"x":175200.08000000007,"y":2545886.8300000038}},{"attributes":{"ID":19439,"DIS_CODE":0,"TOWNNAME":"永康區","LI":"北灣里","LIN":"14鄰","STREET":"大灣路","SECT":" ","MAREA":" ","LANE":"４４巷","ALLEY":"２２弄","HOUSE_NO":"１號","E_COORD97":175182.64999999999,"N_COORD97":2545903.9300000002,"ADDRESS":"大灣路４４巷２２弄１號","OBJECTID":19439},"geometry":{"x":175182.65000000037,"y":2545903.9300000016}},{"attributes":{"ID":19440,"DIS_CODE":0,"TOWNNAME":"永康區","LI":"北灣里","LIN":"14鄰","STREET":"大灣路","SECT":" ","MAREA":" ","LANE":"４４巷","ALLEY":"２２弄","HOUSE_NO":"５號","E_COORD97":175183.32999999999,"N_COORD97":2545912.4300000002,"ADDRESS":"大灣路４４巷２２弄５號","OBJECTID":19440},"geometry":{"x":175183.32999999914,"y":2545912.4299999997}},{"attributes":{"ID":19441,"DIS_CODE":0,"TOWNNAME":"永康區","LI":"北灣里","LIN":"14鄰","STREET":"大灣路","SECT":" ","MAREA":" ","LANE":"４４巷","ALLEY":"４２弄","HOUSE_NO":"５號","E_COORD97":175108.62,"N_COORD97":2545916.29,"ADDRESS":"大灣路４４巷４２弄５號","OBJECTID":19441},"geometry":{"x":175108.62000000197,"y":2545916.2899999972}},{"attributes":{"ID":19442,"DIS_CODE":0,"TOWNNAME":"永康區","LI":"北灣里","LIN":"14鄰","STREET":"大灣路","SECT":" ","MAREA":" ","LANE":"４４巷","ALLEY":"２２弄","HOUSE_NO":"６號","E_COORD97":175200.48999999999,"N_COORD97":2545891.8300000001,"ADDRESS":"大灣路４４巷２２弄６號","OBJECTID":19442},"geometry":{"x":175200.49000000022,"y":2545891.8300000019}},{"attributes":{"ID":19443,"DIS_CODE":0,"TOWNNAME":"北區","LI":"國姓里","LIN":"13鄰","STREET":"西門路","SECT":"四段","MAREA":" ","LANE":"７０巷","ALLEY":"５弄","HOUSE_NO":"１２號","E_COORD97":168740.37,"N_COORD97":2545333.6200000001,"ADDRESS":"西門路四段７０巷５弄１２號","OBJECTID":19443},"geometry":{"x":168740.37000000104,"y":2545333.6200000029}},{"attributes":{"ID":19444,"DIS_CODE":0,"TOWNNAME":"北區","LI":"國姓里","LIN":"13鄰","STREET":"西門路","SECT":"四段","MAREA":" ","LANE":"７０巷","ALLEY":"５弄","HOUSE_NO":"１４號","E_COORD97":168740.72,"N_COORD97":2545336.7599999998,"ADDRESS":"西門路四段７０巷５弄１４號","OBJECTID":19444},"geometry":{"x":168740.72000000067,"y":2545336.7599999998}},{"attributes":{"ID":19445,"DIS_CODE":0,"TOWNNAME":"北區","LI":"國姓里","LIN":"13鄰","STREET":"西門路","SECT":"四段","MAREA":" ","LANE":"７０巷","ALLEY":"５弄","HOUSE_NO":"１６號","E_COORD97":168742.12,"N_COORD97":2545342.6899999999,"ADDRESS":"西門路四段７０巷５弄１６號","OBJECTID":19445},"geometry":{"x":168742.12000000104,"y":2545342.6900000013}},{"attributes":{"ID":19446,"DIS_CODE":0,"TOWNNAME":"永康區","LI":"崑山里","LIN":"14鄰","STREET":"大灣路","SECT":" ","MAREA":" ","LANE":"９４２巷","ALLEY":"７１弄","HOUSE_NO":"１５９號","E_COORD97":173464.42999999999,"N_COORD97":2544587.3599999999,"ADDRESS":"大灣路９４２巷７１弄１５９號","OBJECTID":19446},"geometry":{"x":173464.4299999997,"y":2544587.3600000031}},{"attributes":{"ID":19447,"DIS_CODE":0,"TOWNNAME":"安南區","LI":"新順里","LIN":"14鄰","STREET":"安和路","SECT":"二段","MAREA":" ","LANE":"３１８巷","ALLEY":"１２５弄","HOUSE_NO":"２２號","E_COORD97":170148.03,"N_COORD97":2549385.4900000002,"ADDRESS":"安和路二段３１８巷１２５弄２２號","OBJECTID":19447},"geometry":{"x":170148.03000000119,"y":2549385.4900000021}},{"attributes":{"ID":19448,"DIS_CODE":0,"TOWNNAME":"安南區","LI":"安東里","LIN":"14鄰","STREET":"安和路","SECT":"一段","MAREA":" ","LANE":"２２０巷","ALLEY":"４４弄","HOUSE_NO":"５號","E_COORD97":169467.17999999999,"N_COORD97":2547962.4100000001,"ADDRESS":"安和路一段２２０巷４４弄５號","OBJECTID":19448},"geometry":{"x":169467.1799999997,"y":2547962.410000002}},{"attributes":{"ID":19449,"DIS_CODE":0,"TOWNNAME":"永康區","LI":"西灣里","LIN":"14鄰","STREET":"民族路","SECT":" ","MAREA":" ","LANE":"４１５巷","ALLEY":"１８弄","HOUSE_NO":"２２號","E_COORD97":174719.92000000001,"N_COORD97":2545325.9199999999,"ADDRESS":"民族路４１５巷１８弄２２號","OBJECTID":19449},"geometry":{"x":174719.92000000179,"y":2545325.9199999999}},{"attributes":{"ID":19450,"DIS_CODE":0,"TOWNNAME":"永康區","LI":"正強里","LIN":"14鄰","STREET":"正強街","SECT":" ","MAREA":" ","LANE":"１１１巷","ALLEY":"１５弄","HOUSE_NO":"９號","E_COORD97":173274.47,"N_COORD97":2547372.3799999999,"ADDRESS":"正強街１１１巷１５弄９號","OBJECTID":19450},"geometry":{"x":173274.46999999974,"y":2547372.379999999}},{"attributes":{"ID":19451,"DIS_CODE":0,"TOWNNAME":"永康區","LI":"北灣里","LIN":"14鄰","STREET":"大灣路","SECT":" ","MAREA":" ","LANE":"４０巷","ALLEY":"７５弄","HOUSE_NO":"５４號","E_COORD97":175016,"N_COORD97":2545948.9900000002,"ADDRESS":"大灣路４０巷７５弄５４號","OBJECTID":19451},"geometry":{"x":175015.99999999907,"y":2545948.9900000002}},{"attributes":{"ID":19452,"DIS_CODE":0,"TOWNNAME":"永康區","LI":"北灣里","LIN":"14鄰","STREET":"大灣路","SECT":" ","MAREA":" ","LANE":"４４巷","ALLEY":"２２弄","HOUSE_NO":"１２號","E_COORD97":175203.54000000001,"N_COORD97":2545906.8300000001,"ADDRESS":"大灣路４４巷２２弄１２號","OBJECTID":19452},"geometry":{"x":175203.54000000004,"y":2545906.8300000001}},{"attributes":{"ID":19453,"DIS_CODE":0,"TOWNNAME":"東區","LI":"仁和里","LIN":"14鄰","STREET":"仁和路","SECT":" ","MAREA":" ","LANE":"１３９巷","ALLEY":"５１弄","HOUSE_NO":"２號","E_COORD97":171742.17999999999,"N_COORD97":2541077.0899999999,"ADDRESS":"仁和路１３９巷５１弄２號","OBJECTID":19453},"geometry":{"x":171742.1799999997,"y":2541077.089999998}},{"attributes":{"ID":19454,"DIS_CODE":0,"TOWNNAME":"東區","LI":"仁和里","LIN":"14鄰","STREET":"仁和路","SECT":" ","MAREA":" ","LANE":"１３９巷","ALLEY":"５１弄","HOUSE_NO":"２號之１","E_COORD97":171747.19,"N_COORD97":2541077.1800000002,"ADDRESS":"仁和路１３９巷５１弄２號之１","OBJECTID":19454},"geometry":{"x":171747.19000000134,"y":2541077.1800000016}},{"attributes":{"ID":19455,"DIS_CODE":0,"TOWNNAME":"東區","LI":"仁和里","LIN":"14鄰","STREET":"仁和路","SECT":" ","MAREA":" ","LANE":"１３９巷","ALLEY":"５１弄","HOUSE_NO":"２號之２","E_COORD97":171752.64000000001,"N_COORD97":2541076.9199999999,"ADDRESS":"仁和路１３９巷５１弄２號之２","OBJECTID":19455},"geometry":{"x":171752.63999999966,"y":2541076.9199999999}},{"attributes":{"ID":19456,"DIS_CODE":0,"TOWNNAME":"東區","LI":"仁和里","LIN":"14鄰","STREET":"仁和路","SECT":" ","MAREA":" ","LANE":"１３９巷","ALLEY":"５１弄","HOUSE_NO":"２號之３","E_COORD97":171757.73000000001,"N_COORD97":2541077.6099999999,"ADDRESS":"仁和路１３９巷５１弄２號之３","OBJECTID":19456},"geometry":{"x":171757.73000000045,"y":2541077.6100000013}},{"attributes":{"ID":19457,"DIS_CODE":0,"TOWNNAME":"東區","LI":"仁和里","LIN":"14鄰","STREET":"仁和路","SECT":" ","MAREA":" ","LANE":"１３９巷","ALLEY":"５１弄","HOUSE_NO":"２號之５","E_COORD97":171762.82999999999,"N_COORD97":2541078.1299999999,"ADDRESS":"仁和路１３９巷５１弄２號之５","OBJECTID":19457},"geometry":{"x":171762.83000000101,"y":2541078.129999999}},{"attributes":{"ID":19458,"DIS_CODE":0,"TOWNNAME":"東區","LI":"仁和里","LIN":"14鄰","STREET":"仁和路","SECT":" ","MAREA":" ","LANE":"１３９巷","ALLEY":"５１弄","HOUSE_NO":"２號之６","E_COORD97":171767.14999999999,"N_COORD97":2541077.8700000001,"ADDRESS":"仁和路１３９巷５１弄２號之６","OBJECTID":19458},"geometry":{"x":171767.15000000037,"y":2541077.8700000029}},{"attributes":{"ID":19459,"DIS_CODE":0,"TOWNNAME":"東區","LI":"仁和里","LIN":"14鄰","STREET":"仁和路","SECT":" ","MAREA":" ","LANE":"１３９巷","ALLEY":"７１弄","HOUSE_NO":"１號","E_COORD97":171787.07999999999,"N_COORD97":2541079.8999999999,"ADDRESS":"仁和路１３９巷７１弄１號","OBJECTID":19459},"geometry":{"x":171787.08000000101,"y":2541079.9000000022}},{"attributes":{"ID":19460,"DIS_CODE":0,"TOWNNAME":"東區","LI":"仁和里","LIN":"14鄰","STREET":"仁和路","SECT":" ","MAREA":" ","LANE":"１３９巷","ALLEY":"７１弄","HOUSE_NO":"３號","E_COORD97":171787.23999999999,"N_COORD97":2541084.48,"ADDRESS":"仁和路１３９巷７１弄３號","OBJECTID":19460},"geometry":{"x":171787.24000000115,"y":2541084.4800000004}},{"attributes":{"ID":19461,"DIS_CODE":0,"TOWNNAME":"永康區","LI":"北灣里","LIN":"14鄰","STREET":"大灣路","SECT":" ","MAREA":" ","LANE":"４４巷","ALLEY":"４２弄","HOUSE_NO":"１號","E_COORD97":175106.20999999999,"N_COORD97":2545904.04,"ADDRESS":"大灣路４４巷４２弄１號","OBJECTID":19461},"geometry":{"x":175106.21000000183,"y":2545904.0399999991}},{"attributes":{"ID":19462,"DIS_CODE":0,"TOWNNAME":"永康區","LI":"中興里","LIN":"14鄰","STREET":"中興街","SECT":" ","MAREA":" ","LANE":"６９巷","ALLEY":"７弄","HOUSE_NO":"１０號","E_COORD97":172013.95000000001,"N_COORD97":2545254.9900000002,"ADDRESS":"中興街６９巷７弄１０號","OBJECTID":19462},"geometry":{"x":172013.95000000019,"y":2545254.9899999984}},{"attributes":{"ID":19463,"DIS_CODE":0,"TOWNNAME":"永康區","LI":"北灣里","LIN":"14鄰","STREET":"大灣路","SECT":" ","MAREA":" ","LANE":"４４巷","ALLEY":"２２弄","HOUSE_NO":"７號","E_COORD97":175183.70999999999,"N_COORD97":2545916.6800000002,"ADDRESS":"大灣路４４巷２２弄７號","OBJECTID":19463},"geometry":{"x":175183.70999999996,"y":2545916.6799999997}},{"attributes":{"ID":19464,"DIS_CODE":0,"TOWNNAME":"安南區","LI":"安西里","LIN":"14鄰","STREET":"安和路","SECT":"一段","MAREA":" ","LANE":"１５９巷","ALLEY":"８５弄","HOUSE_NO":"４６號","E_COORD97":169122.48000000001,"N_COORD97":2547928.29,"ADDRESS":"安和路一段１５９巷８５弄４６號","OBJECTID":19464},"geometry":{"x":169122.48000000231,"y":2547928.290000001}},{"attributes":{"ID":19465,"DIS_CODE":0,"TOWNNAME":"安南區","LI":"安西里","LIN":"14鄰","STREET":"安和路","SECT":"一段","MAREA":" ","LANE":"１５９巷","ALLEY":"８５弄","HOUSE_NO":"５４號","E_COORD97":169118.95999999999,"N_COORD97":2547945.4300000002,"ADDRESS":"安和路一段１５９巷８５弄５４號","OBJECTID":19465},"geometry":{"x":169118.96000000089,"y":2547945.4299999997}},{"attributes":{"ID":19466,"DIS_CODE":0,"TOWNNAME":"安南區","LI":"安西里","LIN":"14鄰","STREET":"安和路","SECT":"一段","MAREA":" ","LANE":"１５９巷","ALLEY":"１２１弄","HOUSE_NO":"２６號","E_COORD97":169104.48000000001,"N_COORD97":2547976.1899999999,"ADDRESS":"安和路一段１５９巷１２１弄２６號","OBJECTID":19466},"geometry":{"x":169104.48000000138,"y":2547976.1900000013}},{"attributes":{"ID":19467,"DIS_CODE":0,"TOWNNAME":"安南區","LI":"安西里","LIN":"14鄰","STREET":"安和路","SECT":"一段","MAREA":" ","LANE":"１５９巷","ALLEY":"１２１弄","HOUSE_NO":"２０號","E_COORD97":169119.35000000001,"N_COORD97":2547978.1400000001,"ADDRESS":"安和路一段１５９巷１２１弄２０號","OBJECTID":19467},"geometry":{"x":169119.35000000056,"y":2547978.1400000025}},{"attributes":{"ID":19468,"DIS_CODE":0,"TOWNNAME":"安南區","LI":"安西里","LIN":"14鄰","STREET":"安和路","SECT":"一段","MAREA":" ","LANE":"１５９巷","ALLEY":"１２１弄","HOUSE_NO":"２２號","E_COORD97":169115.04999999999,"N_COORD97":2547977.75,"ADDRESS":"安和路一段１５９巷１２１弄２２號","OBJECTID":19468},"geometry":{"x":169115.05000000075,"y":2547977.75}},{"attributes":{"ID":19469,"DIS_CODE":0,"TOWNNAME":"安南區","LI":"安西里","LIN":"14鄰","STREET":"安和路","SECT":"一段","MAREA":" ","LANE":"１５９巷","ALLEY":"１２１弄","HOUSE_NO":"２４號","E_COORD97":169109.57000000001,"N_COORD97":2547976.5800000001,"ADDRESS":"安和路一段１５９巷１２１弄２４號","OBJECTID":19469},"geometry":{"x":169109.5700000003,"y":2547976.5800000001}},{"attributes":{"ID":19470,"DIS_CODE":0,"TOWNNAME":"安南區","LI":"安西里","LIN":"14鄰","STREET":"安和路","SECT":"一段","MAREA":" ","LANE":"１５９巷","ALLEY":"８５弄","HOUSE_NO":"２２號","E_COORD97":169131.09,"N_COORD97":2547875.1299999999,"ADDRESS":"安和路一段１５９巷８５弄２２號","OBJECTID":19470},"geometry":{"x":169131.08999999985,"y":2547875.1300000008}},{"attributes":{"ID":19471,"DIS_CODE":0,"TOWNNAME":"安南區","LI":"安西里","LIN":"14鄰","STREET":"安和路","SECT":"一段","MAREA":" ","LANE":"１５９巷","ALLEY":"８５弄","HOUSE_NO":"２４號","E_COORD97":169131.87,"N_COORD97":2547879.8199999998,"ADDRESS":"安和路一段１５９巷８５弄２４號","OBJECTID":19471},"geometry":{"x":169131.87000000104,"y":2547879.8200000003}},{"attributes":{"ID":19472,"DIS_CODE":0,"TOWNNAME":"安南區","LI":"安西里","LIN":"14鄰","STREET":"安和路","SECT":"一段","MAREA":" ","LANE":"１５９巷","ALLEY":"８５弄","HOUSE_NO":"２６號","E_COORD97":169131.48000000001,"N_COORD97":2547884.5099999998,"ADDRESS":"安和路一段１５９巷８５弄２６號","OBJECTID":19472},"geometry":{"x":169131.48000000138,"y":2547884.5099999998}},{"attributes":{"ID":19473,"DIS_CODE":0,"TOWNNAME":"安南區","LI":"安西里","LIN":"14鄰","STREET":"安和路","SECT":"一段","MAREA":" ","LANE":"１５９巷","ALLEY":"８５弄","HOUSE_NO":"２８號","E_COORD97":169130.31,"N_COORD97":2547888.4199999999,"ADDRESS":"安和路一段１５９巷８５弄２８號","OBJECTID":19473},"geometry":{"x":169130.31000000052,"y":2547888.4199999999}},{"attributes":{"ID":19474,"DIS_CODE":0,"TOWNNAME":"安南區","LI":"安西里","LIN":"14鄰","STREET":"安和路","SECT":"一段","MAREA":" ","LANE":"１５９巷","ALLEY":"８５弄","HOUSE_NO":"３０號","E_COORD97":169129.14000000001,"N_COORD97":2547893.5,"ADDRESS":"安和路一段１５９巷８５弄３０號","OBJECTID":19474},"geometry":{"x":169129.14000000153,"y":2547893.5000000019}},{"attributes":{"ID":19475,"DIS_CODE":0,"TOWNNAME":"安南區","LI":"安西里","LIN":"14鄰","STREET":"安和路","SECT":"一段","MAREA":" ","LANE":"１５９巷","ALLEY":"８５弄","HOUSE_NO":"３２號","E_COORD97":169129.14000000001,"N_COORD97":2547897.4100000001,"ADDRESS":"安和路一段１５９巷８５弄３２號","OBJECTID":19475},"geometry":{"x":169129.14000000153,"y":2547897.410000002}},{"attributes":{"ID":19476,"DIS_CODE":0,"TOWNNAME":"安南區","LI":"安西里","LIN":"14鄰","STREET":"安和路","SECT":"一段","MAREA":" ","LANE":"１５９巷","ALLEY":"８５弄","HOUSE_NO":"３４號","E_COORD97":169127.57000000001,"N_COORD97":2547901.71,"ADDRESS":"安和路一段１５９巷８５弄３４號","OBJECTID":19476},"geometry":{"x":169127.57000000123,"y":2547901.7100000009}},{"attributes":{"ID":19477,"DIS_CODE":0,"TOWNNAME":"安南區","LI":"安西里","LIN":"14鄰","STREET":"安和路","SECT":"一段","MAREA":" ","LANE":"１５９巷","ALLEY":"８５弄","HOUSE_NO":"３６號","E_COORD97":169126.79000000001,"N_COORD97":2547905.6200000001,"ADDRESS":"安和路一段１５９巷８５弄３６號","OBJECTID":19477},"geometry":{"x":169126.7900000019,"y":2547905.620000001}},{"attributes":{"ID":19478,"DIS_CODE":0,"TOWNNAME":"東區","LI":"和平里","LIN":"20鄰","STREET":"仁和路","SECT":" ","MAREA":" ","LANE":" ","ALLEY":" ","HOUSE_NO":"４５之３２號","E_COORD97":171094.53,"N_COORD97":2541935.3300000001,"ADDRESS":"仁和路４５之３２號","OBJECTID":19478},"geometry":{"x":171094.53000000026,"y":2541935.3300000001}},{"attributes":{"ID":19479,"DIS_CODE":0,"TOWNNAME":"安南區","LI":"安西里","LIN":"14鄰","STREET":"安和路","SECT":"一段","MAREA":" ","LANE":"１５９巷","ALLEY":"８５弄","HOUSE_NO":"３８號","E_COORD97":169126,"N_COORD97":2547910.3100000001,"ADDRESS":"安和路一段１５９巷８５弄３８號","OBJECTID":19479},"geometry":{"x":169126.00000000093,"y":2547910.3100000005}},{"attributes":{"ID":19480,"DIS_CODE":0,"TOWNNAME":"安南區","LI":"安西里","LIN":"14鄰","STREET":"安和路","SECT":"一段","MAREA":" ","LANE":"１５９巷","ALLEY":"８５弄","HOUSE_NO":"４０號","E_COORD97":169124.82999999999,"N_COORD97":2547915,"ADDRESS":"安和路一段１５９巷８５弄４０號","OBJECTID":19480},"geometry":{"x":169124.83000000194,"y":2547915}},{"attributes":{"ID":19481,"DIS_CODE":0,"TOWNNAME":"安南區","LI":"安西里","LIN":"14鄰","STREET":"安和路","SECT":"一段","MAREA":" ","LANE":"１５９巷","ALLEY":"８５弄","HOUSE_NO":"４２號","E_COORD97":169125.60999999999,"N_COORD97":2547918.5099999998,"ADDRESS":"安和路一段１５９巷８５弄４２號","OBJECTID":19481},"geometry":{"x":169125.61000000127,"y":2547918.5099999998}},{"attributes":{"ID":19482,"DIS_CODE":0,"TOWNNAME":"安南區","LI":"安西里","LIN":"14鄰","STREET":"安和路","SECT":"一段","MAREA":" ","LANE":"１５９巷","ALLEY":"８５弄","HOUSE_NO":"４４號","E_COORD97":169124.04999999999,"N_COORD97":2547923.9900000002,"ADDRESS":"安和路一段１５９巷８５弄４４號","OBJECTID":19482},"geometry":{"x":169124.04999999981,"y":2547923.9900000021}},{"attributes":{"ID":19483,"DIS_CODE":0,"TOWNNAME":"安南區","LI":"安西里","LIN":"14鄰","STREET":"安和路","SECT":"一段","MAREA":" ","LANE":"１５９巷","ALLEY":"８５弄","HOUSE_NO":"４８號","E_COORD97":169122.48000000001,"N_COORD97":2547932.5899999999,"ADDRESS":"安和路一段１５９巷８５弄４８號","OBJECTID":19483},"geometry":{"x":169122.48000000231,"y":2547932.5900000036}},{"attributes":{"ID":19484,"DIS_CODE":0,"TOWNNAME":"安南區","LI":"安西里","LIN":"14鄰","STREET":"安和路","SECT":"一段","MAREA":" ","LANE":"１５９巷","ALLEY":"８５弄","HOUSE_NO":"５０號","E_COORD97":169121.70000000001,"N_COORD97":2547937.2799999998,"ADDRESS":"安和路一段１５９巷８５弄５０號","OBJECTID":19484},"geometry":{"x":169121.70000000019,"y":2547937.2799999975}},{"attributes":{"ID":19485,"DIS_CODE":0,"TOWNNAME":"安南區","LI":"安西里","LIN":"14鄰","STREET":"安和路","SECT":"一段","MAREA":" ","LANE":"１５９巷","ALLEY":"８５弄","HOUSE_NO":"５２號","E_COORD97":169122.09,"N_COORD97":2547941.1299999999,"ADDRESS":"安和路一段１５９巷８５弄５２號","OBJECTID":19485},"geometry":{"x":169122.08999999985,"y":2547941.129999999}},{"attributes":{"ID":19486,"DIS_CODE":0,"TOWNNAME":"安南區","LI":"安西里","LIN":"14鄰","STREET":"安和路","SECT":"一段","MAREA":" ","LANE":"１５９巷","ALLEY":"８５弄","HOUSE_NO":"５６號","E_COORD97":169118.57000000001,"N_COORD97":2547950.5099999998,"ADDRESS":"安和路一段１５９巷８５弄５６號","OBJECTID":19486},"geometry":{"x":169118.57000000123,"y":2547950.5100000016}},{"attributes":{"ID":19487,"DIS_CODE":0,"TOWNNAME":"安南區","LI":"安西里","LIN":"14鄰","STREET":"安和路","SECT":"一段","MAREA":" ","LANE":"１５９巷","ALLEY":"８５弄","HOUSE_NO":"５８號","E_COORD97":169117.79000000001,"N_COORD97":2547956.3700000001,"ADDRESS":"安和路一段１５９巷８５弄５８號","OBJECTID":19487},"geometry":{"x":169117.79000000004,"y":2547956.3700000029}},{"attributes":{"ID":19488,"DIS_CODE":0,"TOWNNAME":"南區","LI":"大林里","LIN":"13鄰","STREET":"國民路","SECT":" ","MAREA":" ","LANE":"５６７巷","ALLEY":"７弄","HOUSE_NO":"７號","E_COORD97":168476.28,"N_COORD97":2541430.23,"ADDRESS":"國民路５６７巷７弄７號","OBJECTID":19488},"geometry":{"x":168476.28000000119,"y":2541430.2300000023}},{"attributes":{"ID":19489,"DIS_CODE":0,"TOWNNAME":"南區","LI":"大林里","LIN":"13鄰","STREET":"國民路","SECT":" ","MAREA":" ","LANE":"５６７巷","ALLEY":"７弄","HOUSE_NO":"９號","E_COORD97":168482.38,"N_COORD97":2541421.0699999998,"ADDRESS":"國民路５６７巷７弄９號","OBJECTID":19489},"geometry":{"x":168482.38000000082,"y":2541421.0700000022}},{"attributes":{"ID":19490,"DIS_CODE":0,"TOWNNAME":"安南區","LI":"頂安里","LIN":"14鄰","STREET":"長溪路","SECT":"一段","MAREA":" ","LANE":"４０７巷","ALLEY":"１６弄","HOUSE_NO":"１０號","E_COORD97":168543.88,"N_COORD97":2548922.2400000002,"ADDRESS":"長溪路一段４０７巷１６弄１０號","OBJECTID":19490},"geometry":{"x":168543.87999999989,"y":2548922.2400000021}},{"attributes":{"ID":19491,"DIS_CODE":0,"TOWNNAME":"安南區","LI":"頂安里","LIN":"14鄰","STREET":"長溪路","SECT":"一段","MAREA":" ","LANE":"４０７巷","ALLEY":"１６弄","HOUSE_NO":"１２號","E_COORD97":168539.72,"N_COORD97":2548923.3700000001,"ADDRESS":"長溪路一段４０７巷１６弄１２號","OBJECTID":19491},"geometry":{"x":168539.71999999974,"y":2548923.3700000029}},{"attributes":{"ID":19492,"DIS_CODE":0,"TOWNNAME":"安南區","LI":"頂安里","LIN":"14鄰","STREET":"長溪路","SECT":"一段","MAREA":" ","LANE":"４０７巷","ALLEY":"１６弄","HOUSE_NO":"１４號","E_COORD97":168535.56,"N_COORD97":2548924.7000000002,"ADDRESS":"長溪路一段４０７巷１６弄１４號","OBJECTID":19492},"geometry":{"x":168535.55999999959,"y":2548924.700000003}},{"attributes":{"ID":19493,"DIS_CODE":0,"TOWNNAME":"安南區","LI":"頂安里","LIN":"14鄰","STREET":"長溪路","SECT":"一段","MAREA":" ","LANE":"４０７巷","ALLEY":"１６弄","HOUSE_NO":"１６號","E_COORD97":168531.95999999999,"N_COORD97":2548925.6400000001,"ADDRESS":"長溪路一段４０７巷１６弄１６號","OBJECTID":19493},"geometry":{"x":168531.95999999996,"y":2548925.6400000006}},{"attributes":{"ID":19494,"DIS_CODE":0,"TOWNNAME":"安南區","LI":"頂安里","LIN":"14鄰","STREET":"長溪路","SECT":"一段","MAREA":" ","LANE":"４０７巷","ALLEY":"１６弄","HOUSE_NO":"１８號","E_COORD97":168527.79999999999,"N_COORD97":2548927.1499999999,"ADDRESS":"長溪路一段４０７巷１６弄１８號","OBJECTID":19494},"geometry":{"x":168527.79999999981,"y":2548927.1500000022}},{"attributes":{"ID":19495,"DIS_CODE":0,"TOWNNAME":"安南區","LI":"頂安里","LIN":"14鄰","STREET":"長溪路","SECT":"一段","MAREA":" ","LANE":"４０７巷","ALLEY":"１６弄","HOUSE_NO":"１號","E_COORD97":168518.29000000001,"N_COORD97":2548888.5899999999,"ADDRESS":"長溪路一段４０７巷１６弄１號","OBJECTID":19495},"geometry":{"x":168518.2900000019,"y":2548888.5900000036}},{"attributes":{"ID":19496,"DIS_CODE":0,"TOWNNAME":"安南區","LI":"頂安里","LIN":"14鄰","STREET":"長溪路","SECT":"一段","MAREA":" ","LANE":"４０７巷","ALLEY":"１６弄","HOUSE_NO":"２０號","E_COORD97":168523.45000000001,"N_COORD97":2548928.48,"ADDRESS":"長溪路一段４０７巷１６弄２０號","OBJECTID":19496},"geometry":{"x":168523.45000000019,"y":2548928.4800000023}},{"attributes":{"ID":19497,"DIS_CODE":0,"TOWNNAME":"安南區","LI":"頂安里","LIN":"14鄰","STREET":"長溪路","SECT":"一段","MAREA":" ","LANE":"４０７巷","ALLEY":"１６弄","HOUSE_NO":"２２號","E_COORD97":168519.28,"N_COORD97":2548928.8500000001,"ADDRESS":"長溪路一段４０７巷１６弄２２號","OBJECTID":19497},"geometry":{"x":168519.28000000119,"y":2548928.8500000015}},{"attributes":{"ID":19498,"DIS_CODE":0,"TOWNNAME":"安南區","LI":"頂安里","LIN":"14鄰","STREET":"長溪路","SECT":"一段","MAREA":" ","LANE":"４０７巷","ALLEY":"１６弄","HOUSE_NO":"２４號","E_COORD97":168514.54999999999,"N_COORD97":2548930.3700000001,"ADDRESS":"長溪路一段４０７巷１６弄２４號","OBJECTID":19498},"geometry":{"x":168514.55000000168,"y":2548930.3700000029}},{"attributes":{"ID":19499,"DIS_CODE":0,"TOWNNAME":"安南區","LI":"頂安里","LIN":"14鄰","STREET":"長溪路","SECT":"一段","MAREA":" ","LANE":"４０７巷","ALLEY":"１６弄","HOUSE_NO":"２６號","E_COORD97":168524.57999999999,"N_COORD97":2548945.8700000001,"ADDRESS":"長溪路一段４０７巷１６弄２６號","OBJECTID":19499},"geometry":{"x":168524.58000000007,"y":2548945.8700000048}},{"attributes":{"ID":19500,"DIS_CODE":0,"TOWNNAME":"安南區","LI":"頂安里","LIN":"14鄰","STREET":"長溪路","SECT":"一段","MAREA":" ","LANE":"４０７巷","ALLEY":"１６弄","HOUSE_NO":"２８號","E_COORD97":168524.95999999999,"N_COORD97":2548950.4100000001,"ADDRESS":"長溪路一段４０７巷１６弄２８號","OBJECTID":19500},"geometry":{"x":168524.95999999996,"y":2548950.4100000001}},{"attributes":{"ID":19501,"DIS_CODE":0,"TOWNNAME":"安南區","LI":"頂安里","LIN":"14鄰","STREET":"長溪路","SECT":"一段","MAREA":" ","LANE":"４０７巷","ALLEY":"１６弄","HOUSE_NO":"２號","E_COORD97":168559.59,"N_COORD97":2548915.6200000001,"ADDRESS":"長溪路一段４０７巷１６弄２號","OBJECTID":19501},"geometry":{"x":168559.58999999985,"y":2548915.620000001}},{"attributes":{"ID":19502,"DIS_CODE":0,"TOWNNAME":"安南區","LI":"頂安里","LIN":"14鄰","STREET":"長溪路","SECT":"一段","MAREA":" ","LANE":"４０７巷","ALLEY":"１６弄","HOUSE_NO":"３０號","E_COORD97":168495.95999999999,"N_COORD97":2548959.1000000001,"ADDRESS":"長溪路一段４０７巷１６弄３０號","OBJECTID":19502},"geometry":{"x":168495.95999999996,"y":2548959.0999999996}},{"attributes":{"ID":19503,"DIS_CODE":0,"TOWNNAME":"安南區","LI":"頂安里","LIN":"14鄰","STREET":"長溪路","SECT":"一段","MAREA":" ","LANE":"４０７巷","ALLEY":"１６弄","HOUSE_NO":"３２號","E_COORD97":168495.01000000001,"N_COORD97":2548954.5699999998,"ADDRESS":"長溪路一段４０７巷１６弄３２號","OBJECTID":19503},"geometry":{"x":168495.01000000071,"y":2548954.5700000022}},{"attributes":{"ID":19504,"DIS_CODE":0,"TOWNNAME":"安南區","LI":"頂安里","LIN":"14鄰","STREET":"長溪路","SECT":"一段","MAREA":" ","LANE":"４０７巷","ALLEY":"１６弄","HOUSE_NO":"３４號","E_COORD97":168493.5,"N_COORD97":2548950.6000000001,"ADDRESS":"長溪路一段４０７巷１６弄３４號","OBJECTID":19504},"geometry":{"x":168493.50000000093,"y":2548950.6000000015}},{"attributes":{"ID":19505,"DIS_CODE":0,"TOWNNAME":"安南區","LI":"頂安里","LIN":"14鄰","STREET":"長溪路","SECT":"一段","MAREA":" ","LANE":"４０７巷","ALLEY":"１６弄","HOUSE_NO":"３６號","E_COORD97":168492.54999999999,"N_COORD97":2548946.25,"ADDRESS":"長溪路一段４０７巷１６弄３６號","OBJECTID":19505},"geometry":{"x":168492.55000000168,"y":2548946.2500000019}},{"attributes":{"ID":19506,"DIS_CODE":0,"TOWNNAME":"安南區","LI":"頂安里","LIN":"14鄰","STREET":"長溪路","SECT":"一段","MAREA":" ","LANE":"４０７巷","ALLEY":"１６弄","HOUSE_NO":"３號","E_COORD97":168513.75,"N_COORD97":2548895.96,"ADDRESS":"長溪路一段４０７巷１６弄３號","OBJECTID":19506},"geometry":{"x":168513.75000000093,"y":2548895.9600000009}},{"attributes":{"ID":19507,"DIS_CODE":0,"TOWNNAME":"安南區","LI":"頂安里","LIN":"14鄰","STREET":"長溪路","SECT":"一段","MAREA":" ","LANE":"４０７巷","ALLEY":"１６弄","HOUSE_NO":"４號","E_COORD97":168556.56,"N_COORD97":2548918.46,"ADDRESS":"長溪路一段４０７巷１６弄４號","OBJECTID":19507},"geometry":{"x":168556.56000000145,"y":2548918.4600000028}},{"attributes":{"ID":19508,"DIS_CODE":0,"TOWNNAME":"安南區","LI":"頂安里","LIN":"14鄰","STREET":"長溪路","SECT":"一段","MAREA":" ","LANE":"４０７巷","ALLEY":"１６弄","HOUSE_NO":"５號","E_COORD97":168507.69,"N_COORD97":2548894.2599999998,"ADDRESS":"長溪路一段４０７巷１６弄５號","OBJECTID":19508},"geometry":{"x":168507.69000000134,"y":2548894.2600000035}},{"attributes":{"ID":19509,"DIS_CODE":0,"TOWNNAME":"安南區","LI":"頂安里","LIN":"14鄰","STREET":"長溪路","SECT":"一段","MAREA":" ","LANE":"４０７巷","ALLEY":"１６弄","HOUSE_NO":"６號","E_COORD97":168552.20999999999,"N_COORD97":2548919.5899999999,"ADDRESS":"長溪路一段４０７巷１６弄６號","OBJECTID":19509},"geometry":{"x":168552.20999999996,"y":2548919.5900000017}},{"attributes":{"ID":19510,"DIS_CODE":0,"TOWNNAME":"安南區","LI":"頂安里","LIN":"14鄰","STREET":"長溪路","SECT":"一段","MAREA":" ","LANE":"４０７巷","ALLEY":"１６弄","HOUSE_NO":"７號","E_COORD97":168503.34,"N_COORD97":2548895.5800000001,"ADDRESS":"長溪路一段４０７巷１６弄７號","OBJECTID":19510},"geometry":{"x":168503.33999999985,"y":2548895.5799999982}},{"attributes":{"ID":19511,"DIS_CODE":0,"TOWNNAME":"仁德區","LI":"太子里","LIN":"27鄰","STREET":"中正路","SECT":"三段","MAREA":" ","LANE":"５２３巷","ALLEY":"１００弄","HOUSE_NO":"６號","E_COORD97":173616.88484000001,"N_COORD97":2543102.7754600001,"ADDRESS":"中正路三段５２３巷１００弄６號","OBJECTID":19511},"geometry":{"x":173616.88484000042,"y":2543102.7754560001}},{"attributes":{"ID":19512,"DIS_CODE":0,"TOWNNAME":"安南區","LI":"頂安里","LIN":"14鄰","STREET":"長溪路","SECT":"一段","MAREA":" ","LANE":"４０７巷","ALLEY":"１６弄","HOUSE_NO":"８號","E_COORD97":168548.04999999999,"N_COORD97":2548920.9100000001,"ADDRESS":"長溪路一段４０７巷１６弄８號","OBJECTID":19512},"geometry":{"x":168548.04999999981,"y":2548920.9100000039}},{"attributes":{"ID":19513,"DIS_CODE":0,"TOWNNAME":"安定區","LI":"蘇林里","LIN":"24鄰","STREET":" ","SECT":" ","MAREA":"蘇厝","LANE":" ","ALLEY":" ","HOUSE_NO":"２７２之３號","E_COORD97":173404.92000000001,"N_COORD97":2558616.2999999998,"ADDRESS":"蘇厝２７２之３號","OBJECTID":19513},"geometry":{"x":173404.92000000086,"y":2558616.3000000026}},{"attributes":{"ID":19514,"DIS_CODE":0,"TOWNNAME":"安南區","LI":"頂安里","LIN":"14鄰","STREET":"長溪路","SECT":"一段","MAREA":" ","LANE":"４０７巷","ALLEY":"１６弄","HOUSE_NO":"９號","E_COORD97":168495.39000000001,"N_COORD97":2548890.1000000001,"ADDRESS":"長溪路一段４０７巷１６弄９號","OBJECTID":19514},"geometry":{"x":168495.3900000006,"y":2548890.0999999996}},{"attributes":{"ID":19515,"DIS_CODE":0,"TOWNNAME":"新市區","LI":"港墘里","LIN":"14鄰","STREET":"長安街","SECT":" ","MAREA":" ","LANE":"３６巷","ALLEY":"３３弄","HOUSE_NO":"２號","E_COORD97":178236.07000000001,"N_COORD97":2552813.0699999998,"ADDRESS":"長安街３６巷３３弄２號","OBJECTID":19515},"geometry":{"x":178236.0700000003,"y":2552813.0700000022}},{"attributes":{"ID":19516,"DIS_CODE":0,"TOWNNAME":"安南區","LI":"頂安里","LIN":"14鄰","STREET":"長溪路","SECT":"一段","MAREA":" ","LANE":"４０７巷","ALLEY":"１６弄","HOUSE_NO":"１３號","E_COORD97":168488.91,"N_COORD97":2548902.2000000002,"ADDRESS":"長溪路一段４０７巷１６弄１３號","OBJECTID":19516},"geometry":{"x":168488.91000000108,"y":2548902.2000000011}},{"attributes":{"ID":19517,"DIS_CODE":0,"TOWNNAME":"大內區","LI":"石城里","LIN":"14鄰","STREET":" ","SECT":" ","MAREA":"石子瀨","LANE":" ","ALLEY":" ","HOUSE_NO":"１１２號之３５","E_COORD97":184041.10999999999,"N_COORD97":2557912.2999999998,"ADDRESS":"石子瀨１１２號之３５","OBJECTID":19517},"geometry":{"x":184041.11000000127,"y":2557912.3000000007}},{"attributes":{"ID":19518,"DIS_CODE":0,"TOWNNAME":"大內區","LI":"石城里","LIN":"14鄰","STREET":" ","SECT":" ","MAREA":"石子瀨","LANE":" ","ALLEY":" ","HOUSE_NO":"１１２號之４８","E_COORD97":184084.79999999999,"N_COORD97":2557924.2999999998,"ADDRESS":"石子瀨１１２號之４８","OBJECTID":19518},"geometry":{"x":184084.80000000168,"y":2557924.3000000026}},{"attributes":{"ID":19519,"DIS_CODE":0,"TOWNNAME":"麻豆區","LI":"南勢里","LIN":"14鄰","STREET":" ","SECT":" ","MAREA":"南勢","LANE":" ","ALLEY":" ","HOUSE_NO":"２７號之１","E_COORD97":174389.42000000001,"N_COORD97":2565040.23,"ADDRESS":"南勢２７號之１","OBJECTID":19519},"geometry":{"x":174389.42000000179,"y":2565040.2300000042}},{"attributes":{"ID":19520,"DIS_CODE":0,"TOWNNAME":"大內區","LI":"石城里","LIN":"14鄰","STREET":" ","SECT":" ","MAREA":"石子瀨","LANE":" ","ALLEY":" ","HOUSE_NO":"１１２號之５２","E_COORD97":184070.19,"N_COORD97":2557915.2999999998,"ADDRESS":"石子瀨１１２號之５２","OBJECTID":19520},"geometry":{"x":184070.19000000041,"y":2557915.3000000007}},{"attributes":{"ID":19521,"DIS_CODE":0,"TOWNNAME":"安南區","LI":"頂安里","LIN":"14鄰","STREET":"長溪路","SECT":"一段","MAREA":" ","LANE":"４０７巷","ALLEY":"１６弄","HOUSE_NO":"１５號","E_COORD97":168484.75,"N_COORD97":2548903.3300000001,"ADDRESS":"長溪路一段４０７巷１６弄１５號","OBJECTID":19521},"geometry":{"x":168484.75000000093,"y":2548903.3300000001}},{"attributes":{"ID":19522,"DIS_CODE":0,"TOWNNAME":"安南區","LI":"頂安里","LIN":"14鄰","STREET":"長溪路","SECT":"一段","MAREA":" ","LANE":"４０７巷","ALLEY":"１６弄","HOUSE_NO":"１７號","E_COORD97":168480.76999999999,"N_COORD97":2548904.2799999998,"ADDRESS":"長溪路一段４０７巷１６弄１７號","OBJECTID":19522},"geometry":{"x":168480.77000000048,"y":2548904.2800000012}},{"attributes":{"ID":19523,"DIS_CODE":0,"TOWNNAME":"安南區","LI":"頂安里","LIN":"14鄰","STREET":"長溪路","SECT":"一段","MAREA":" ","LANE":"４０７巷","ALLEY":"１６弄","HOUSE_NO":"１１號","E_COORD97":168493.26000000001,"N_COORD97":2548901.0600000001,"ADDRESS":"長溪路一段４０７巷１６弄１１號","OBJECTID":19523},"geometry":{"x":168493.26000000071,"y":2548901.0600000024}},{"attributes":{"ID":19524,"DIS_CODE":0,"TOWNNAME":"安南區","LI":"頂安里","LIN":"14鄰","STREET":"長溪路","SECT":"一段","MAREA":" ","LANE":"４０７巷","ALLEY":"１６弄","HOUSE_NO":"１９號","E_COORD97":168476.23000000001,"N_COORD97":2548905.79,"ADDRESS":"長溪路一段４０７巷１６弄１９號","OBJECTID":19524},"geometry":{"x":168476.23000000045,"y":2548905.7899999991}},{"attributes":{"ID":19525,"DIS_CODE":0,"TOWNNAME":"安南區","LI":"頂安里","LIN":"14鄰","STREET":"長溪路","SECT":"一段","MAREA":" ","LANE":"４０７巷","ALLEY":"１６弄","HOUSE_NO":"２１號","E_COORD97":168471.69,"N_COORD97":2548907.2999999998,"ADDRESS":"長溪路一段４０７巷１６弄２１號","OBJECTID":19525},"geometry":{"x":168471.68999999948,"y":2548907.3000000007}},{"attributes":{"ID":19526,"DIS_CODE":0,"TOWNNAME":"安南區","LI":"頂安里","LIN":"14鄰","STREET":"長溪路","SECT":"一段","MAREA":" ","LANE":"４０７巷","ALLEY":"１６弄","HOUSE_NO":"２３號","E_COORD97":168467.72,"N_COORD97":2548908.0600000001,"ADDRESS":"長溪路一段４０７巷１６弄２３號","OBJECTID":19526},"geometry":{"x":168467.72000000067,"y":2548908.0600000024}},{"attributes":{"ID":19527,"DIS_CODE":0,"TOWNNAME":"安南區","LI":"頂安里","LIN":"14鄰","STREET":"長溪路","SECT":"一段","MAREA":" ","LANE":"４０７巷","ALLEY":"１６弄","HOUSE_NO":"２５號","E_COORD97":168463.73999999999,"N_COORD97":2548909.1899999999,"ADDRESS":"長溪路一段４０７巷１６弄２５號","OBJECTID":19527},"geometry":{"x":168463.74000000022,"y":2548909.1900000013}},{"attributes":{"ID":19528,"DIS_CODE":0,"TOWNNAME":"安南區","LI":"頂安里","LIN":"14鄰","STREET":"長溪路","SECT":"一段","MAREA":" ","LANE":"４０７巷","ALLEY":"１６弄","HOUSE_NO":"２７號","E_COORD97":168459.39000000001,"N_COORD97":2548910.52,"ADDRESS":"長溪路一段４０７巷１６弄２７號","OBJECTID":19528},"geometry":{"x":168459.38999999873,"y":2548910.5200000014}},{"attributes":{"ID":19529,"DIS_CODE":0,"TOWNNAME":"安南區","LI":"頂安里","LIN":"14鄰","STREET":"長溪路","SECT":"一段","MAREA":" ","LANE":"４０７巷","ALLEY":"１６弄","HOUSE_NO":"２９號","E_COORD97":168454.85000000001,"N_COORD97":2548912.0299999998,"ADDRESS":"長溪路一段４０７巷１６弄２９號","OBJECTID":19529},"geometry":{"x":168454.85000000056,"y":2548912.0299999975}},{"attributes":{"ID":19530,"DIS_CODE":0,"TOWNNAME":"官田區","LI":"二鎮里","LIN":"14鄰","STREET":" ","SECT":" ","MAREA":"程泰","LANE":" ","ALLEY":" ","HOUSE_NO":"７８號","E_COORD97":181677.64999999999,"N_COORD97":2566538.2400000002,"ADDRESS":"程泰７８號","OBJECTID":19530},"geometry":{"x":181677.65000000224,"y":2566538.2400000039}},{"attributes":{"ID":19531,"DIS_CODE":0,"TOWNNAME":"大內區","LI":"頭社里","LIN":"14鄰","STREET":" ","SECT":" ","MAREA":"頭社","LANE":" ","ALLEY":" ","HOUSE_NO":"１８１之７號","E_COORD97":187744.19,"N_COORD97":2561642.2999999998,"ADDRESS":"頭社１８１之７號","OBJECTID":19531},"geometry":{"x":187744.19000000041,"y":2561642.3000000007}},{"attributes":{"ID":19532,"DIS_CODE":0,"TOWNNAME":"安南區","LI":"頂安里","LIN":"14鄰","STREET":"長溪路","SECT":"一段","MAREA":" ","LANE":"４０７巷","ALLEY":"１６弄","HOUSE_NO":"３１號","E_COORD97":168486.64000000001,"N_COORD97":2548897.4700000002,"ADDRESS":"長溪路一段４０７巷１６弄３１號","OBJECTID":19532},"geometry":{"x":168486.64000000153,"y":2548897.4700000025}},{"attributes":{"ID":19533,"DIS_CODE":0,"TOWNNAME":"安南區","LI":"頂安里","LIN":"14鄰","STREET":"長溪路","SECT":"一段","MAREA":" ","LANE":"４０７巷","ALLEY":"１６弄","HOUSE_NO":"３３號","E_COORD97":168478.5,"N_COORD97":2548896.5299999998,"ADDRESS":"長溪路一段４０７巷１６弄３３號","OBJECTID":19533},"geometry":{"x":168478.50000000093,"y":2548896.5300000012}},{"attributes":{"ID":19534,"DIS_CODE":0,"TOWNNAME":"安南區","LI":"頂安里","LIN":"14鄰","STREET":"長溪路","SECT":"一段","MAREA":" ","LANE":"４０７巷","ALLEY":"１６弄","HOUSE_NO":"３５號","E_COORD97":168470.17999999999,"N_COORD97":2548899.3599999999,"ADDRESS":"長溪路一段４０７巷１６弄３５號","OBJECTID":19534},"geometry":{"x":168470.18000000063,"y":2548899.3599999994}},{"attributes":{"ID":19535,"DIS_CODE":0,"TOWNNAME":"安南區","LI":"頂安里","LIN":"14鄰","STREET":"長溪路","SECT":"一段","MAREA":" ","LANE":"４０７巷","ALLEY":"１６弄","HOUSE_NO":"３７號","E_COORD97":168452.01000000001,"N_COORD97":2548903.52,"ADDRESS":"長溪路一段４０７巷１６弄３７號","OBJECTID":19535},"geometry":{"x":168452.01000000164,"y":2548903.5200000014}},{"attributes":{"ID":19536,"DIS_CODE":0,"TOWNNAME":"安南區","LI":"頂安里","LIN":"14鄰","STREET":"長溪路","SECT":"一段","MAREA":" ","LANE":"４０７巷","ALLEY":"１６弄","HOUSE_NO":"３９號","E_COORD97":168451.25,"N_COORD97":2548899.3599999999,"ADDRESS":"長溪路一段４０７巷１６弄３９號","OBJECTID":19536},"geometry":{"x":168451.25000000093,"y":2548899.3599999994}},{"attributes":{"ID":19537,"DIS_CODE":0,"TOWNNAME":"安南區","LI":"頂安里","LIN":"14鄰","STREET":"長溪路","SECT":"一段","MAREA":" ","LANE":"４０７巷","ALLEY":"１６弄","HOUSE_NO":"４１號","E_COORD97":168430.25,"N_COORD97":2548906.7400000002,"ADDRESS":"長溪路一段４０７巷１６弄４１號","OBJECTID":19537},"geometry":{"x":168430.25000000186,"y":2548906.7400000002}},{"attributes":{"ID":19538,"DIS_CODE":0,"TOWNNAME":"安南區","LI":"頂安里","LIN":"14鄰","STREET":"長溪路","SECT":"一段","MAREA":" ","LANE":"４０７巷","ALLEY":"１６弄","HOUSE_NO":"４３號","E_COORD97":168431.39000000001,"N_COORD97":2548910.8900000001,"ADDRESS":"長溪路一段４０７巷１６弄４３號","OBJECTID":19538},"geometry":{"x":168431.3900000006,"y":2548910.8899999987}},{"attributes":{"ID":19539,"DIS_CODE":0,"TOWNNAME":"佳里區","LI":"六安里","LIN":"24鄰","STREET":"延平路","SECT":" ","MAREA":" ","LANE":" ","ALLEY":" ","HOUSE_NO":"４３５號","E_COORD97":165841.04000000001,"N_COORD97":2562918.4900000002,"ADDRESS":"延平路４３５號","OBJECTID":19539},"geometry":{"x":165841.04000000004,"y":2562918.4900000002}},{"attributes":{"ID":19540,"DIS_CODE":0,"TOWNNAME":"大內區","LI":"石林里","LIN":"14鄰","STREET":" ","SECT":" ","MAREA":"石子瀨","LANE":" ","ALLEY":" ","HOUSE_NO":"２１８號","E_COORD97":184089.97,"N_COORD97":2558264.25,"ADDRESS":"石子瀨２１８號","OBJECTID":19540},"geometry":{"x":184089.96999999974,"y":2558264.25}},{"attributes":{"ID":19541,"DIS_CODE":0,"TOWNNAME":"大內區","LI":"頭社里","LIN":"14鄰","STREET":" ","SECT":" ","MAREA":"頭社","LANE":" ","ALLEY":" ","HOUSE_NO":"１８５號","E_COORD97":187614.09,"N_COORD97":2561759.25,"ADDRESS":"頭社１８５號","OBJECTID":19541},"geometry":{"x":187614.09000000171,"y":2561759.2500000019}},{"attributes":{"ID":19542,"DIS_CODE":0,"TOWNNAME":"大內區","LI":"石城里","LIN":"14鄰","STREET":" ","SECT":" ","MAREA":"石子瀨","LANE":" ","ALLEY":" ","HOUSE_NO":"１１２號之９","E_COORD97":184046.19,"N_COORD97":2557931.2999999998,"ADDRESS":"石子瀨１１２號之９","OBJECTID":19542},"geometry":{"x":184046.19000000134,"y":2557931.3000000026}},{"attributes":{"ID":19543,"DIS_CODE":0,"TOWNNAME":"佳里區","LI":"六安里","LIN":"24鄰","STREET":"延平路","SECT":" ","MAREA":" ","LANE":" ","ALLEY":" ","HOUSE_NO":"４３７號","E_COORD97":165842.70999999999,"N_COORD97":2562922.29,"ADDRESS":"延平路４３７號","OBJECTID":19543},"geometry":{"x":165842.71000000089,"y":2562922.2899999991}},{"attributes":{"ID":19544,"DIS_CODE":0,"TOWNNAME":"佳里區","LI":"六安里","LIN":"24鄰","STREET":"延平路","SECT":" ","MAREA":" ","LANE":" ","ALLEY":" ","HOUSE_NO":"４３９號","E_COORD97":165844.34,"N_COORD97":2562925.6400000001,"ADDRESS":"延平路４３９號","OBJECTID":19544},"geometry":{"x":165844.34000000171,"y":2562925.6400000025}},{"attributes":{"ID":19545,"DIS_CODE":0,"TOWNNAME":"佳里區","LI":"六安里","LIN":"24鄰","STREET":"延平路","SECT":" ","MAREA":" ","LANE":" ","ALLEY":" ","HOUSE_NO":"４６５號","E_COORD97":165864.45999999999,"N_COORD97":2562979.9900000002,"ADDRESS":"延平路４６５號","OBJECTID":19545},"geometry":{"x":165864.46000000089,"y":2562979.9899999984}},{"attributes":{"ID":19546,"DIS_CODE":0,"TOWNNAME":"大內區","LI":"石城里","LIN":"14鄰","STREET":" ","SECT":" ","MAREA":"石子瀨","LANE":" ","ALLEY":" ","HOUSE_NO":"１１２號之１９","E_COORD97":184013.04000000001,"N_COORD97":2557867.29,"ADDRESS":"石子瀨１１２號之１９","OBJECTID":19546},"geometry":{"x":184013.04000000097,"y":2557867.2899999991}},{"attributes":{"ID":19547,"DIS_CODE":0,"TOWNNAME":"大內區","LI":"石林里","LIN":"14鄰","STREET":" ","SECT":" ","MAREA":"石子瀨","LANE":" ","ALLEY":" ","HOUSE_NO":"２１９號之１","E_COORD97":184093.70000000001,"N_COORD97":2558236.2999999998,"ADDRESS":"石子瀨２１９號之１","OBJECTID":19547},"geometry":{"x":184093.70000000019,"y":2558236.3000000026}},{"attributes":{"ID":19548,"DIS_CODE":0,"TOWNNAME":"大內區","LI":"頭社里","LIN":"14鄰","STREET":" ","SECT":" ","MAREA":"頭社","LANE":" ","ALLEY":" ","HOUSE_NO":"１８４號","E_COORD97":187602.48999999999,"N_COORD97":2561782.25,"ADDRESS":"頭社１８４號","OBJECTID":19548},"geometry":{"x":187602.49000000022,"y":2561782.2500000019}},{"attributes":{"ID":19549,"DIS_CODE":0,"TOWNNAME":"大內區","LI":"石城里","LIN":"14鄰","STREET":" ","SECT":" ","MAREA":"石子瀨","LANE":" ","ALLEY":" ","HOUSE_NO":"１１２號之７","E_COORD97":184039.98000000001,"N_COORD97":2557940.2999999998,"ADDRESS":"石子瀨１１２號之７","OBJECTID":19549},"geometry":{"x":184039.98000000045,"y":2557940.2999999989}},{"attributes":{"ID":19550,"DIS_CODE":0,"TOWNNAME":"大內區","LI":"石城里","LIN":"14鄰","STREET":" ","SECT":" ","MAREA":"石子瀨","LANE":" ","ALLEY":" ","HOUSE_NO":"１１２號之１５","E_COORD97":184022.60999999999,"N_COORD97":2557854.2999999998,"ADDRESS":"石子瀨１１２號之１５","OBJECTID":19550},"geometry":{"x":184022.61000000127,"y":2557854.3000000007}},{"attributes":{"ID":19551,"DIS_CODE":0,"TOWNNAME":"大內區","LI":"石城里","LIN":"14鄰","STREET":" ","SECT":" ","MAREA":"石子瀨","LANE":" ","ALLEY":" ","HOUSE_NO":"１１２號之１３","E_COORD97":184027.54999999999,"N_COORD97":2557846.2999999998,"ADDRESS":"石子瀨１１２號之１３","OBJECTID":19551},"geometry":{"x":184027.55000000075,"y":2557846.3000000026}},{"attributes":{"ID":19552,"DIS_CODE":0,"TOWNNAME":"安南區","LI":"頂安里","LIN":"14鄰","STREET":"長溪路","SECT":"一段","MAREA":" ","LANE":"４０７巷","ALLEY":"１６弄","HOUSE_NO":"４５號","E_COORD97":168442.17000000001,"N_COORD97":2548911.8399999999,"ADDRESS":"長溪路一段４０７巷１６弄４５號","OBJECTID":19552},"geometry":{"x":168442.16999999993,"y":2548911.8400000017}},{"attributes":{"ID":19553,"DIS_CODE":0,"TOWNNAME":"安南區","LI":"頂安里","LIN":"14鄰","STREET":"長溪路","SECT":"一段","MAREA":" ","LANE":"４０７巷","ALLEY":"１６弄","HOUSE_NO":"４７號","E_COORD97":168438.01000000001,"N_COORD97":2548912.6000000001,"ADDRESS":"長溪路一段４０７巷１６弄４７號","OBJECTID":19553},"geometry":{"x":168438.00999999978,"y":2548912.6000000015}},{"attributes":{"ID":19554,"DIS_CODE":0,"TOWNNAME":"安南區","LI":"頂安里","LIN":"14鄰","STREET":"長溪路","SECT":"一段","MAREA":" ","LANE":"４０７巷","ALLEY":"１６弄","HOUSE_NO":"４９號","E_COORD97":168434.47,"N_COORD97":2548914.0699999998,"ADDRESS":"長溪路一段４０７巷１６弄４９號","OBJECTID":19554},"geometry":{"x":168434.46999999974,"y":2548914.0700000022}},{"attributes":{"ID":19555,"DIS_CODE":0,"TOWNNAME":"安南區","LI":"頂安里","LIN":"14鄰","STREET":"長溪路","SECT":"一段","MAREA":" ","LANE":"４０７巷","ALLEY":"１６弄","HOUSE_NO":"５１號","E_COORD97":168430.76999999999,"N_COORD97":2548916.1299999999,"ADDRESS":"長溪路一段４０７巷１６弄５１號","OBJECTID":19555},"geometry":{"x":168430.76999999955,"y":2548916.1300000008}},{"attributes":{"ID":19556,"DIS_CODE":0,"TOWNNAME":"安南區","LI":"頂安里","LIN":"14鄰","STREET":"長溪路","SECT":"一段","MAREA":" ","LANE":"４０７巷","ALLEY":"１６弄","HOUSE_NO":"５３號","E_COORD97":168426.45000000001,"N_COORD97":2548916.7400000002,"ADDRESS":"長溪路一段４０７巷１６弄５３號","OBJECTID":19556},"geometry":{"x":168426.45000000112,"y":2548916.7400000021}},{"attributes":{"ID":19557,"DIS_CODE":0,"TOWNNAME":"安南區","LI":"頂安里","LIN":"14鄰","STREET":"長溪路","SECT":"一段","MAREA":" ","LANE":"４０７巷","ALLEY":"１６弄","HOUSE_NO":"５５號","E_COORD97":168422.34,"N_COORD97":2548918.3799999999,"ADDRESS":"長溪路一段４０７巷１６弄５５號","OBJECTID":19557},"geometry":{"x":168422.33999999985,"y":2548918.379999999}},{"attributes":{"ID":19558,"DIS_CODE":0,"TOWNNAME":"大內區","LI":"頭社里","LIN":"14鄰","STREET":" ","SECT":" ","MAREA":"頭社","LANE":" ","ALLEY":" ","HOUSE_NO":"１８１號之４","E_COORD97":187697.04999999999,"N_COORD97":2561746.2999999998,"ADDRESS":"頭社１８１號之４","OBJECTID":19558},"geometry":{"x":187697.04999999981,"y":2561746.3000000007}},{"attributes":{"ID":19559,"DIS_CODE":0,"TOWNNAME":"大內區","LI":"石城里","LIN":"14鄰","STREET":" ","SECT":" ","MAREA":"石子瀨","LANE":" ","ALLEY":" ","HOUSE_NO":"１１４號之５３","E_COORD97":184031.45000000001,"N_COORD97":2557813.2999999998,"ADDRESS":"石子瀨１１４號之５３","OBJECTID":19559},"geometry":{"x":184031.45000000019,"y":2557813.3000000026}},{"attributes":{"ID":19560,"DIS_CODE":0,"TOWNNAME":"大內區","LI":"石城里","LIN":"14鄰","STREET":" ","SECT":" ","MAREA":"石子瀨","LANE":" ","ALLEY":" ","HOUSE_NO":"１１２號之１４","E_COORD97":184024.88,"N_COORD97":2557850.2999999998,"ADDRESS":"石子瀨１１２號之１４","OBJECTID":19560},"geometry":{"x":184024.87999999989,"y":2557850.3000000026}},{"attributes":{"ID":19561,"DIS_CODE":0,"TOWNNAME":"大內區","LI":"石林里","LIN":"14鄰","STREET":" ","SECT":" ","MAREA":"石子瀨","LANE":" ","ALLEY":" ","HOUSE_NO":"２２１號之１０","E_COORD97":184161.70000000001,"N_COORD97":2558413.2999999998,"ADDRESS":"石子瀨２２１號之１０","OBJECTID":19561},"geometry":{"x":184161.70000000019,"y":2558413.3000000026}},{"attributes":{"ID":19562,"DIS_CODE":0,"TOWNNAME":"安南區","LI":"頂安里","LIN":"14鄰","STREET":"長溪路","SECT":"一段","MAREA":" ","LANE":"４０７巷","ALLEY":"１６弄","HOUSE_NO":"５７號","E_COORD97":168418.44,"N_COORD97":2548919.4100000001,"ADDRESS":"長溪路一段４０７巷１６弄５７號","OBJECTID":19562},"geometry":{"x":168418.44000000041,"y":2548919.4100000001}},{"attributes":{"ID":19563,"DIS_CODE":0,"TOWNNAME":"安南區","LI":"頂安里","LIN":"14鄰","STREET":"長溪路","SECT":"一段","MAREA":" ","LANE":"４０７巷","ALLEY":"１６弄","HOUSE_NO":"５９號","E_COORD97":168414.54000000001,"N_COORD97":2548920.0299999998,"ADDRESS":"長溪路一段４０７巷１６弄５９號","OBJECTID":19563},"geometry":{"x":168414.54000000004,"y":2548920.0300000012}},{"attributes":{"ID":19564,"DIS_CODE":0,"TOWNNAME":"安南區","LI":"頂安里","LIN":"14鄰","STREET":"長溪路","SECT":"一段","MAREA":" ","LANE":"４０７巷","ALLEY":"１６弄","HOUSE_NO":"６１號","E_COORD97":168412.48000000001,"N_COORD97":2548914.8900000001,"ADDRESS":"長溪路一段４０７巷１６弄６１號","OBJECTID":19564},"geometry":{"x":168412.48000000138,"y":2548914.8900000025}},{"attributes":{"ID":19565,"DIS_CODE":0,"TOWNNAME":"安南區","LI":"頂安里","LIN":"14鄰","STREET":"長溪路","SECT":"一段","MAREA":" ","LANE":"４０７巷","ALLEY":"１６弄","HOUSE_NO":"６３號","E_COORD97":168410.42999999999,"N_COORD97":2548906.6800000002,"ADDRESS":"長溪路一段４０７巷１６弄６３號","OBJECTID":19565},"geometry":{"x":168410.43000000063,"y":2548906.6799999997}},{"attributes":{"ID":19566,"DIS_CODE":0,"TOWNNAME":"安南區","LI":"頂安里","LIN":"14鄰","STREET":"長溪路","SECT":"一段","MAREA":" ","LANE":"４０７巷","ALLEY":"１６弄","HOUSE_NO":"６５號","E_COORD97":168395.22,"N_COORD97":2548908.3300000001,"ADDRESS":"長溪路一段４０７巷１６弄６５號","OBJECTID":19566},"geometry":{"x":168395.22000000067,"y":2548908.3300000019}},{"attributes":{"ID":19567,"DIS_CODE":0,"TOWNNAME":"安南區","LI":"頂安里","LIN":"14鄰","STREET":"長溪路","SECT":"一段","MAREA":" ","LANE":"４０７巷","ALLEY":"１６弄","HOUSE_NO":"６７號","E_COORD97":168395.84,"N_COORD97":2548912.4300000002,"ADDRESS":"長溪路一段４０７巷１６弄６７號","OBJECTID":19567},"geometry":{"x":168395.84000000078,"y":2548912.4299999997}},{"attributes":{"ID":19568,"DIS_CODE":0,"TOWNNAME":"安南區","LI":"頂安里","LIN":"14鄰","STREET":"長溪路","SECT":"一段","MAREA":" ","LANE":"４０７巷","ALLEY":"１６弄","HOUSE_NO":"６９號","E_COORD97":168395.84,"N_COORD97":2548916.7400000002,"ADDRESS":"長溪路一段４０７巷１６弄６９號","OBJECTID":19568},"geometry":{"x":168395.84000000078,"y":2548916.7400000021}},{"attributes":{"ID":19569,"DIS_CODE":0,"TOWNNAME":"安南區","LI":"頂安里","LIN":"14鄰","STREET":"長溪路","SECT":"一段","MAREA":" ","LANE":"４０７巷","ALLEY":"１６弄","HOUSE_NO":"７１號","E_COORD97":168396.45999999999,"N_COORD97":2548921.0499999998,"ADDRESS":"長溪路一段４０７巷１６弄７１號","OBJECTID":19569},"geometry":{"x":168396.45999999996,"y":2548921.0500000026}},{"attributes":{"ID":19570,"DIS_CODE":0,"TOWNNAME":"佳里區","LI":"安西里","LIN":"24鄰","STREET":"忠孝路","SECT":" ","MAREA":" ","LANE":" ","ALLEY":" ","HOUSE_NO":"１６６號","E_COORD97":165154.95999999999,"N_COORD97":2563242,"ADDRESS":"忠孝路１６６號","OBJECTID":19570},"geometry":{"x":165154.95999999996,"y":2563242.0000000019}},{"attributes":{"ID":19571,"DIS_CODE":0,"TOWNNAME":"佳里區","LI":"安西里","LIN":"24鄰","STREET":"忠孝路","SECT":" ","MAREA":" ","LANE":" ","ALLEY":" ","HOUSE_NO":"１７０號","E_COORD97":165149.23000000001,"N_COORD97":2563246.7400000002,"ADDRESS":"忠孝路１７０號","OBJECTID":19571},"geometry":{"x":165149.23000000138,"y":2563246.7400000021}},{"attributes":{"ID":19572,"DIS_CODE":0,"TOWNNAME":"佳里區","LI":"安西里","LIN":"24鄰","STREET":"忠孝路","SECT":" ","MAREA":" ","LANE":" ","ALLEY":" ","HOUSE_NO":"１７４號","E_COORD97":165144.10999999999,"N_COORD97":2563250.8399999999,"ADDRESS":"忠孝路１７４號","OBJECTID":19572},"geometry":{"x":165144.11000000034,"y":2563250.8399999999}},{"attributes":{"ID":19573,"DIS_CODE":0,"TOWNNAME":"佳里區","LI":"安西里","LIN":"24鄰","STREET":"忠孝路","SECT":" ","MAREA":" ","LANE":" ","ALLEY":" ","HOUSE_NO":"１７６號","E_COORD97":165140.26000000001,"N_COORD97":2563253.4100000001,"ADDRESS":"忠孝路１７６號","OBJECTID":19573},"geometry":{"x":165140.26000000071,"y":2563253.410000002}},{"attributes":{"ID":19574,"DIS_CODE":0,"TOWNNAME":"佳里區","LI":"安西里","LIN":"24鄰","STREET":"忠孝路","SECT":" ","MAREA":" ","LANE":" ","ALLEY":" ","HOUSE_NO":"１７８號","E_COORD97":165136.88,"N_COORD97":2563255.9399999999,"ADDRESS":"忠孝路１７８號","OBJECTID":19574},"geometry":{"x":165136.87999999989,"y":2563255.9400000013}},{"attributes":{"ID":19575,"DIS_CODE":0,"TOWNNAME":"佳里區","LI":"安西里","LIN":"24鄰","STREET":"忠孝路","SECT":" ","MAREA":" ","LANE":" ","ALLEY":" ","HOUSE_NO":"１８０號","E_COORD97":165133.39000000001,"N_COORD97":2563258.25,"ADDRESS":"忠孝路１８０號","OBJECTID":19575},"geometry":{"x":165133.38999999966,"y":2563258.25}},{"attributes":{"ID":19576,"DIS_CODE":0,"TOWNNAME":"佳里區","LI":"安西里","LIN":"24鄰","STREET":"忠孝路","SECT":" ","MAREA":" ","LANE":" ","ALLEY":" ","HOUSE_NO":"１８２號","E_COORD97":165129.72,"N_COORD97":2563261.4399999999,"ADDRESS":"忠孝路１８２號","OBJECTID":19576},"geometry":{"x":165129.7200000016,"y":2563261.4400000013}},{"attributes":{"ID":19577,"DIS_CODE":0,"TOWNNAME":"安南區","LI":"頂安里","LIN":"14鄰","STREET":"長溪路","SECT":"一段","MAREA":" ","LANE":"４０７巷","ALLEY":"１６弄","HOUSE_NO":"７３號","E_COORD97":168405.09,"N_COORD97":2548922.4900000002,"ADDRESS":"長溪路一段４０７巷１６弄７３號","OBJECTID":19577},"geometry":{"x":168405.08999999985,"y":2548922.4900000002}},{"attributes":{"ID":19578,"DIS_CODE":0,"TOWNNAME":"安南區","LI":"頂安里","LIN":"14鄰","STREET":"長溪路","SECT":"一段","MAREA":" ","LANE":"４０７巷","ALLEY":"１６弄","HOUSE_NO":"７５號","E_COORD97":168399.95000000001,"N_COORD97":2548924.1299999999,"ADDRESS":"長溪路一段４０７巷１６弄７５號","OBJECTID":19578},"geometry":{"x":168399.95000000019,"y":2548924.129999999}},{"attributes":{"ID":19579,"DIS_CODE":0,"TOWNNAME":"安南區","LI":"頂安里","LIN":"14鄰","STREET":"長溪路","SECT":"一段","MAREA":" ","LANE":"４０７巷","ALLEY":"１６弄","HOUSE_NO":"７７號","E_COORD97":168395.84,"N_COORD97":2548925.1600000001,"ADDRESS":"長溪路一段４０７巷１６弄７７號","OBJECTID":19579},"geometry":{"x":168395.84000000078,"y":2548925.1600000001}},{"attributes":{"ID":19580,"DIS_CODE":0,"TOWNNAME":"安南區","LI":"頂安里","LIN":"14鄰","STREET":"長溪路","SECT":"一段","MAREA":" ","LANE":"４０７巷","ALLEY":"１６弄","HOUSE_NO":"７９號","E_COORD97":168391.53,"N_COORD97":2548925.98,"ADDRESS":"長溪路一段４０７巷１６弄７９號","OBJECTID":19580},"geometry":{"x":168391.53000000119,"y":2548925.9800000004}},{"attributes":{"ID":19581,"DIS_CODE":0,"TOWNNAME":"安南區","LI":"頂安里","LIN":"14鄰","STREET":"長溪路","SECT":"一段","MAREA":" ","LANE":"４０７巷","ALLEY":"１６弄","HOUSE_NO":"８１號","E_COORD97":168387.42000000001,"N_COORD97":2548926.7999999998,"ADDRESS":"長溪路一段４０７巷１６弄８１號","OBJECTID":19581},"geometry":{"x":168387.42000000086,"y":2548926.8000000026}},{"attributes":{"ID":19582,"DIS_CODE":0,"TOWNNAME":"安南區","LI":"頂安里","LIN":"14鄰","STREET":"長溪路","SECT":"一段","MAREA":" ","LANE":"４０７巷","ALLEY":"１６弄","HOUSE_NO":"３８號","E_COORD97":168502.35000000001,"N_COORD97":2548927.3399999999,"ADDRESS":"長溪路一段４０７巷１６弄３８號","OBJECTID":19582},"geometry":{"x":168502.35000000056,"y":2548927.3399999999}},{"attributes":{"ID":19583,"DIS_CODE":0,"TOWNNAME":"安南區","LI":"頂安里","LIN":"14鄰","STREET":"長溪路","SECT":"一段","MAREA":" ","LANE":"４０７巷","ALLEY":"１６弄","HOUSE_NO":"４０號","E_COORD97":168497.62,"N_COORD97":2548928.1000000001,"ADDRESS":"長溪路一段４０７巷１６弄４０號","OBJECTID":19583},"geometry":{"x":168497.62000000104,"y":2548928.0999999996}},{"attributes":{"ID":19584,"DIS_CODE":0,"TOWNNAME":"安南區","LI":"頂安里","LIN":"14鄰","STREET":"長溪路","SECT":"一段","MAREA":" ","LANE":"４０７巷","ALLEY":"１６弄","HOUSE_NO":"４２號","E_COORD97":168493.64000000001,"N_COORD97":2548929.23,"ADDRESS":"長溪路一段４０７巷１６弄４２號","OBJECTID":19584},"geometry":{"x":168493.6400000006,"y":2548929.2300000042}},{"attributes":{"ID":19585,"DIS_CODE":0,"TOWNNAME":"安南區","LI":"頂安里","LIN":"14鄰","STREET":"長溪路","SECT":"一段","MAREA":" ","LANE":"４０７巷","ALLEY":"１６弄","HOUSE_NO":"４６號","E_COORD97":168489.29000000001,"N_COORD97":2548930.5600000001,"ADDRESS":"長溪路一段４０７巷１６弄４６號","OBJECTID":19585},"geometry":{"x":168489.28999999911,"y":2548930.5600000024}},{"attributes":{"ID":19586,"DIS_CODE":0,"TOWNNAME":"安南區","LI":"頂安里","LIN":"14鄰","STREET":"長溪路","SECT":"一段","MAREA":" ","LANE":"４０７巷","ALLEY":"１６弄","HOUSE_NO":"４８號","E_COORD97":168484.94,"N_COORD97":2548931.1200000001,"ADDRESS":"長溪路一段４０７巷１６弄４８號","OBJECTID":19586},"geometry":{"x":168484.94000000041,"y":2548931.1200000029}},{"attributes":{"ID":19587,"DIS_CODE":0,"TOWNNAME":"安南區","LI":"頂安里","LIN":"14鄰","STREET":"長溪路","SECT":"一段","MAREA":" ","LANE":"４０７巷","ALLEY":"１６弄","HOUSE_NO":"５０號","E_COORD97":168480.76999999999,"N_COORD97":2548932.2599999998,"ADDRESS":"長溪路一段４０７巷１６弄５０號","OBJECTID":19587},"geometry":{"x":168480.77000000048,"y":2548932.2600000016}},{"attributes":{"ID":19588,"DIS_CODE":0,"TOWNNAME":"大內區","LI":"石城里","LIN":"14鄰","STREET":" ","SECT":" ","MAREA":"石子瀨","LANE":" ","ALLEY":" ","HOUSE_NO":"１１２號之８","E_COORD97":184043.75,"N_COORD97":2557935.2999999998,"ADDRESS":"石子瀨１１２號之８","OBJECTID":19588},"geometry":{"x":184043.75000000093,"y":2557935.3000000026}},{"attributes":{"ID":19589,"DIS_CODE":0,"TOWNNAME":"大內區","LI":"石林里","LIN":"14鄰","STREET":" ","SECT":" ","MAREA":"石子瀨","LANE":" ","ALLEY":" ","HOUSE_NO":"２２１號","E_COORD97":184108.07000000001,"N_COORD97":2558326.25,"ADDRESS":"石子瀨２２１號","OBJECTID":19589},"geometry":{"x":184108.07000000123,"y":2558326.25}},{"attributes":{"ID":19590,"DIS_CODE":0,"TOWNNAME":"大內區","LI":"石城里","LIN":"14鄰","STREET":" ","SECT":" ","MAREA":"石子瀨","LANE":" ","ALLEY":" ","HOUSE_NO":"１１４號之４１","E_COORD97":184007.95000000001,"N_COORD97":2557772.2999999998,"ADDRESS":"石子瀨１１４號之４１","OBJECTID":19590},"geometry":{"x":184007.95000000205,"y":2557772.3000000026}},{"attributes":{"ID":19591,"DIS_CODE":0,"TOWNNAME":"大內區","LI":"頭社里","LIN":"14鄰","STREET":" ","SECT":" ","MAREA":"頭社","LANE":" ","ALLEY":" ","HOUSE_NO":"１８０號","E_COORD97":187579.29000000001,"N_COORD97":2561671.25,"ADDRESS":"頭社１８０號","OBJECTID":19591},"geometry":{"x":187579.29000000097,"y":2561671.25}},{"attributes":{"ID":19592,"DIS_CODE":0,"TOWNNAME":"大內區","LI":"石林里","LIN":"14鄰","STREET":" ","SECT":" ","MAREA":"石子瀨","LANE":" ","ALLEY":" ","HOUSE_NO":"２２１號之５","E_COORD97":184121.76000000001,"N_COORD97":2558330.2999999998,"ADDRESS":"石子瀨２２１號之５","OBJECTID":19592},"geometry":{"x":184121.75999999978,"y":2558330.3000000045}},{"attributes":{"ID":19593,"DIS_CODE":0,"TOWNNAME":"大內區","LI":"頭社里","LIN":"14鄰","STREET":" ","SECT":" ","MAREA":"頭社","LANE":" ","ALLEY":" ","HOUSE_NO":"１８１之３號","E_COORD97":187686.59,"N_COORD97":2561733.2999999998,"ADDRESS":"頭社１８１之３號","OBJECTID":19593},"geometry":{"x":187686.58999999985,"y":2561733.3000000007}},{"attributes":{"ID":19594,"DIS_CODE":0,"TOWNNAME":"大內區","LI":"二溪里","LIN":"14鄰","STREET":" ","SECT":" ","MAREA":"其子瓦","LANE":" ","ALLEY":" ","HOUSE_NO":"４０號之１","E_COORD97":190609.04999999999,"N_COORD97":2558010.2999999998,"ADDRESS":"其子瓦４０號之１","OBJECTID":19594},"geometry":{"x":190609.04999999981,"y":2558010.3000000007}},{"attributes":{"ID":19595,"DIS_CODE":0,"TOWNNAME":"大內區","LI":"二溪里","LIN":"14鄰","STREET":" ","SECT":" ","MAREA":"其子瓦","LANE":" ","ALLEY":" ","HOUSE_NO":"４７之２號","E_COORD97":190582.51999999999,"N_COORD97":2557974.2999999998,"ADDRESS":"其子瓦４７之２號","OBJECTID":19595},"geometry":{"x":190582.52000000142,"y":2557974.3000000045}},{"attributes":{"ID":19596,"DIS_CODE":0,"TOWNNAME":"大內區","LI":"內江里","LIN":"14鄰","STREET":" ","SECT":" ","MAREA":"蒙正","LANE":" ","ALLEY":" ","HOUSE_NO":"２１號之１","E_COORD97":185789.78,"N_COORD97":2556309.2999999998,"ADDRESS":"蒙正２１號之１","OBJECTID":19596},"geometry":{"x":185789.78000000119,"y":2556309.3000000007}},{"attributes":{"ID":19597,"DIS_CODE":0,"TOWNNAME":"大內區","LI":"內江里","LIN":"14鄰","STREET":" ","SECT":" ","MAREA":"蒙正","LANE":" ","ALLEY":" ","HOUSE_NO":"２０號","E_COORD97":185762.14000000001,"N_COORD97":2556244.25,"ADDRESS":"蒙正２０號","OBJECTID":19597},"geometry":{"x":185762.13999999966,"y":2556244.25}},{"attributes":{"ID":19598,"DIS_CODE":0,"TOWNNAME":"大內區","LI":"內江里","LIN":"14鄰","STREET":" ","SECT":" ","MAREA":"蒙正","LANE":" ","ALLEY":" ","HOUSE_NO":"２７號","E_COORD97":185864.04000000001,"N_COORD97":2556269.25,"ADDRESS":"蒙正２７號","OBJECTID":19598},"geometry":{"x":185864.04000000097,"y":2556269.2500000019}},{"attributes":{"ID":19599,"DIS_CODE":0,"TOWNNAME":"大內區","LI":"內江里","LIN":"14鄰","STREET":" ","SECT":" ","MAREA":"蒙正","LANE":" ","ALLEY":" ","HOUSE_NO":"２６號","E_COORD97":185834.64000000001,"N_COORD97":2556249.25,"ADDRESS":"蒙正２６號","OBJECTID":19599},"geometry":{"x":185834.63999999966,"y":2556249.2500000019}},{"attributes":{"ID":19600,"DIS_CODE":0,"TOWNNAME":"麻豆區","LI":"油車里","LIN":"14鄰","STREET":" ","SECT":" ","MAREA":"油車","LANE":" ","ALLEY":" ","HOUSE_NO":"１０１號","E_COORD97":172357.91,"N_COORD97":2565868.4199999999,"ADDRESS":"油車１０１號","OBJECTID":19600},"geometry":{"x":172357.91000000108,"y":2565868.4199999999}}]}