{"displayFieldName":"TOWNNAME","fieldAliases":{"ID":"ID","DIS_CODE":"DIS_CODE","TOWNNAME":"TOWNNAME","LI":"LI","LIN":"LIN","STREET":"STREET","SECT":"SECT","MAREA":"MAREA","LANE":"LANE","ALLEY":"ALLEY","HOUSE_NO":"HOUSE_NO","E_COORD97":"E_COORD97","N_COORD97":"N_COORD97","ADDRESS":"ADDRESS","OBJECTID":"OBJECTID"},"geometryType":"esriGeometryPoint","spatialReference":{"wkid":102443,"latestWkid":3826},"fields":[{"name":"ID","type":"esriFieldTypeDouble","alias":"ID"},{"name":"DIS_CODE","type":"esriFieldTypeInteger","alias":"DIS_CODE"},{"name":"TOWNNAME","type":"esriFieldTypeString","alias":"TOWNNAME","length":8},{"name":"LI","type":"esriFieldTypeString","alias":"LI","length":8},{"name":"LIN","type":"esriFieldTypeString","alias":"LIN","length":12},{"name":"STREET","type":"esriFieldTypeString","alias":"STREET","length":20},{"name":"SECT","type":"esriFieldTypeString","alias":"SECT","length":8},{"name":"MAREA","type":"esriFieldTypeString","alias":"MAREA","length":12},{"name":"LANE","type":"esriFieldTypeString","alias":"LANE","length":10},{"name":"ALLEY","type":"esriFieldTypeString","alias":"ALLEY","length":10},{"name":"HOUSE_NO","type":"esriFieldTypeString","alias":"HOUSE_NO","length":20},{"name":"E_COORD97","type":"esriFieldTypeDouble","alias":"E_COORD97"},{"name":"N_COORD97","type":"esriFieldTypeDouble","alias":"N_COORD97"},{"name":"ADDRESS","type":"esriFieldTypeString","alias":"ADDRESS","length":50},{"name":"OBJECTID","type":"esriFieldTypeOID","alias":"OBJECTID"}],"features":[{"attributes":{"ID":453626,"DIS_CODE":0,"TOWNNAME":"北區","LI":"文元里","LIN":"26鄰","STREET":"文賢二街","SECT":" ","MAREA":" ","LANE":"３９６巷","ALLEY":" ","HOUSE_NO":"１６號","E_COORD97":167720,"N_COORD97":2546039.27,"ADDRESS":"文賢二街３９６巷１６號","OBJECTID":453601},"geometry":{"x":167720.00000000186,"y":2546039.2700000033}},{"attributes":{"ID":453627,"DIS_CODE":0,"TOWNNAME":"北區","LI":"文元里","LIN":"26鄰","STREET":"文賢二街","SECT":" ","MAREA":" ","LANE":"３９６巷","ALLEY":" ","HOUSE_NO":"１８號","E_COORD97":167724.34,"N_COORD97":2546041.9500000002,"ADDRESS":"文賢二街３９６巷１８號","OBJECTID":453602},"geometry":{"x":167724.34000000171,"y":2546041.9500000011}},{"attributes":{"ID":453628,"DIS_CODE":0,"TOWNNAME":"北區","LI":"文元里","LIN":"26鄰","STREET":"文賢二街","SECT":" ","MAREA":" ","LANE":"３９６巷","ALLEY":" ","HOUSE_NO":"２０號","E_COORD97":167729.09,"N_COORD97":2546039.27,"ADDRESS":"文賢二街３９６巷２０號","OBJECTID":453603},"geometry":{"x":167729.08999999985,"y":2546039.2700000033}},{"attributes":{"ID":453629,"DIS_CODE":0,"TOWNNAME":"佳里區","LI":"安西里","LIN":"40鄰","STREET":"佳西路","SECT":" ","MAREA":" ","LANE":" ","ALLEY":" ","HOUSE_NO":"２５１號","E_COORD97":164762.51000000001,"N_COORD97":2562636.5899999999,"ADDRESS":"佳西路２５１號","OBJECTID":453604},"geometry":{"x":164762.50999999978,"y":2562636.5900000036}},{"attributes":{"ID":453630,"DIS_CODE":0,"TOWNNAME":"北區","LI":"文元里","LIN":"26鄰","STREET":"文賢二街","SECT":" ","MAREA":" ","LANE":"３９６巷","ALLEY":" ","HOUSE_NO":"２２號","E_COORD97":167733.22,"N_COORD97":2546041.73,"ADDRESS":"文賢二街３９６巷２２號","OBJECTID":453605},"geometry":{"x":167733.21999999974,"y":2546041.7300000023}},{"attributes":{"ID":453631,"DIS_CODE":0,"TOWNNAME":"北區","LI":"文元里","LIN":"26鄰","STREET":"文賢二街","SECT":" ","MAREA":" ","LANE":"３９６巷","ALLEY":" ","HOUSE_NO":"２６號","E_COORD97":167737.97,"N_COORD97":2546039.6800000002,"ADDRESS":"文賢二街３９６巷２６號","OBJECTID":453606},"geometry":{"x":167737.96999999974,"y":2546039.6799999997}},{"attributes":{"ID":453632,"DIS_CODE":0,"TOWNNAME":"北區","LI":"文元里","LIN":"26鄰","STREET":"文賢二街","SECT":" ","MAREA":" ","LANE":"３９６巷","ALLEY":" ","HOUSE_NO":"２８號","E_COORD97":167743.95999999999,"N_COORD97":2546041.73,"ADDRESS":"文賢二街３９６巷２８號","OBJECTID":453607},"geometry":{"x":167743.96000000183,"y":2546041.7300000023}},{"attributes":{"ID":453633,"DIS_CODE":0,"TOWNNAME":"北區","LI":"文元里","LIN":"26鄰","STREET":"文賢二街","SECT":" ","MAREA":" ","LANE":"３９６巷","ALLEY":" ","HOUSE_NO":"３０號","E_COORD97":167749.32999999999,"N_COORD97":2546039.8900000001,"ADDRESS":"文賢二街３９６巷３０號","OBJECTID":453608},"geometry":{"x":167749.33000000007,"y":2546039.8900000025}},{"attributes":{"ID":453634,"DIS_CODE":0,"TOWNNAME":"北區","LI":"文元里","LIN":"26鄰","STREET":"文賢二街","SECT":" ","MAREA":" ","LANE":"３９６巷","ALLEY":" ","HOUSE_NO":"３２號","E_COORD97":167753.67000000001,"N_COORD97":2546041.73,"ADDRESS":"文賢二街３９６巷３２號","OBJECTID":453609},"geometry":{"x":167753.66999999993,"y":2546041.7300000023}},{"attributes":{"ID":453635,"DIS_CODE":0,"TOWNNAME":"北區","LI":"文元里","LIN":"26鄰","STREET":"文賢二街","SECT":" ","MAREA":" ","LANE":"３９６巷","ALLEY":" ","HOUSE_NO":"３８號","E_COORD97":167762.95999999999,"N_COORD97":2546041.9500000002,"ADDRESS":"文賢二街３９６巷３８號","OBJECTID":453610},"geometry":{"x":167762.96000000089,"y":2546041.9500000011}},{"attributes":{"ID":453636,"DIS_CODE":0,"TOWNNAME":"南區","LI":"廣州里","LIN":"26鄰","STREET":"福吉三街","SECT":" ","MAREA":" ","LANE":"８０巷","ALLEY":" ","HOUSE_NO":"５號","E_COORD97":167217.72,"N_COORD97":2542801.5299999998,"ADDRESS":"福吉三街８０巷５號","OBJECTID":453611},"geometry":{"x":167217.71999999974,"y":2542801.5299999993}},{"attributes":{"ID":453637,"DIS_CODE":0,"TOWNNAME":"北區","LI":"文元里","LIN":"26鄰","STREET":"文賢二街","SECT":" ","MAREA":" ","LANE":"３９６巷","ALLEY":" ","HOUSE_NO":"４０號","E_COORD97":167767.29999999999,"N_COORD97":2546039.6800000002,"ADDRESS":"文賢二街３９６巷４０號","OBJECTID":453612},"geometry":{"x":167767.30000000075,"y":2546039.6799999997}},{"attributes":{"ID":453638,"DIS_CODE":0,"TOWNNAME":"北區","LI":"文元里","LIN":"26鄰","STREET":"文賢二街","SECT":" ","MAREA":" ","LANE":"３９６巷","ALLEY":" ","HOUSE_NO":"４２號","E_COORD97":167771.64000000001,"N_COORD97":2546041.9500000002,"ADDRESS":"文賢二街３９６巷４２號","OBJECTID":453613},"geometry":{"x":167771.6400000006,"y":2546041.9500000011}},{"attributes":{"ID":453639,"DIS_CODE":0,"TOWNNAME":"北區","LI":"文元里","LIN":"26鄰","STREET":"文賢二街","SECT":" ","MAREA":" ","LANE":"３９６巷","ALLEY":" ","HOUSE_NO":"４６號","E_COORD97":167776.39000000001,"N_COORD97":2546040.0899999999,"ADDRESS":"文賢二街３９６巷４６號","OBJECTID":453614},"geometry":{"x":167776.39000000153,"y":2546040.0899999999}},{"attributes":{"ID":453640,"DIS_CODE":0,"TOWNNAME":"北區","LI":"文元里","LIN":"26鄰","STREET":"文賢二街","SECT":" ","MAREA":" ","LANE":"３９６巷","ALLEY":" ","HOUSE_NO":"４８號","E_COORD97":167781.14000000001,"N_COORD97":2546042.5699999998,"ADDRESS":"文賢二街３９６巷４８號","OBJECTID":453615},"geometry":{"x":167781.13999999966,"y":2546042.5700000022}},{"attributes":{"ID":453641,"DIS_CODE":0,"TOWNNAME":"北區","LI":"正覺里","LIN":"26鄰","STREET":"公園路","SECT":" ","MAREA":" ","LANE":"７６９巷","ALLEY":" ","HOUSE_NO":"２號","E_COORD97":169579.53,"N_COORD97":2546555.5099999998,"ADDRESS":"公園路７６９巷２號","OBJECTID":453616},"geometry":{"x":169579.53000000026,"y":2546555.5099999998}},{"attributes":{"ID":453642,"DIS_CODE":0,"TOWNNAME":"北區","LI":"正覺里","LIN":"26鄰","STREET":"公園路","SECT":" ","MAREA":" ","LANE":"７６９巷","ALLEY":" ","HOUSE_NO":"２號之１","E_COORD97":169574.37,"N_COORD97":2546556.8300000001,"ADDRESS":"公園路７６９巷２號之１","OBJECTID":453617},"geometry":{"x":169574.37000000104,"y":2546556.8300000001}},{"attributes":{"ID":453643,"DIS_CODE":0,"TOWNNAME":"東山區","LI":"東中里","LIN":"26鄰","STREET":"成功街","SECT":" ","MAREA":" ","LANE":"１３巷","ALLEY":" ","HOUSE_NO":"１號","E_COORD97":188754.35000000001,"N_COORD97":2579895.5,"ADDRESS":"成功街１３巷１號","OBJECTID":453618},"geometry":{"x":188754.34999999963,"y":2579895.5000000019}},{"attributes":{"ID":453644,"DIS_CODE":0,"TOWNNAME":"東山區","LI":"東中里","LIN":"26鄰","STREET":"成功街","SECT":" ","MAREA":" ","LANE":"１３巷","ALLEY":" ","HOUSE_NO":"２號","E_COORD97":188749.95999999999,"N_COORD97":2579912.3700000001,"ADDRESS":"成功街１３巷２號","OBJECTID":453619},"geometry":{"x":188749.95999999996,"y":2579912.370000001}},{"attributes":{"ID":453645,"DIS_CODE":0,"TOWNNAME":"東山區","LI":"東中里","LIN":"26鄰","STREET":"成功街","SECT":" ","MAREA":" ","LANE":"１３巷","ALLEY":" ","HOUSE_NO":"３號","E_COORD97":188748.35999999999,"N_COORD97":2579897.5699999998,"ADDRESS":"成功街１３巷３號","OBJECTID":453620},"geometry":{"x":188748.3599999994,"y":2579897.570000004}},{"attributes":{"ID":453646,"DIS_CODE":0,"TOWNNAME":"東山區","LI":"東中里","LIN":"26鄰","STREET":"成功街","SECT":" ","MAREA":" ","LANE":"１３巷","ALLEY":" ","HOUSE_NO":"５號","E_COORD97":188743.54999999999,"N_COORD97":2579899.5,"ADDRESS":"成功街１３巷５號","OBJECTID":453621},"geometry":{"x":188743.55000000075,"y":2579899.5000000019}},{"attributes":{"ID":453647,"DIS_CODE":0,"TOWNNAME":"東山區","LI":"東中里","LIN":"26鄰","STREET":"成功街","SECT":" ","MAREA":" ","LANE":"１３巷","ALLEY":" ","HOUSE_NO":"６號","E_COORD97":188746.98000000001,"N_COORD97":2579916.4399999999,"ADDRESS":"成功街１３巷６號","OBJECTID":453622},"geometry":{"x":188746.98000000045,"y":2579916.4399999995}},{"attributes":{"ID":453648,"DIS_CODE":0,"TOWNNAME":"東山區","LI":"東中里","LIN":"26鄰","STREET":"成功街","SECT":" ","MAREA":" ","LANE":"１３巷","ALLEY":" ","HOUSE_NO":"７號","E_COORD97":188739.60000000001,"N_COORD97":2579900.8300000001,"ADDRESS":"成功街１３巷７號","OBJECTID":453623},"geometry":{"x":188739.60000000056,"y":2579900.8300000001}},{"attributes":{"ID":453649,"DIS_CODE":0,"TOWNNAME":"東山區","LI":"東中里","LIN":"26鄰","STREET":"成功街","SECT":" ","MAREA":" ","LANE":"１３巷","ALLEY":" ","HOUSE_NO":"８號","E_COORD97":188742.64000000001,"N_COORD97":2579917.9500000002,"ADDRESS":"成功街１３巷８號","OBJECTID":453624},"geometry":{"x":188742.6400000006,"y":2579917.950000003}},{"attributes":{"ID":453650,"DIS_CODE":0,"TOWNNAME":"新營區","LI":"新北里","LIN":"26鄰","STREET":"民治路","SECT":" ","MAREA":" ","LANE":"１５６巷","ALLEY":" ","HOUSE_NO":"４２之１號","E_COORD97":179097.32999999999,"N_COORD97":2578784.98,"ADDRESS":"民治路１５６巷４２之１號","OBJECTID":453625},"geometry":{"x":179097.33000000007,"y":2578784.9800000004}},{"attributes":{"ID":453651,"DIS_CODE":0,"TOWNNAME":"六甲區","LI":"二甲里","LIN":"26鄰","STREET":"中華路","SECT":" ","MAREA":" ","LANE":"１３４巷","ALLEY":" ","HOUSE_NO":"１９號","E_COORD97":183145.39999999999,"N_COORD97":2569345.9100000001,"ADDRESS":"中華路１３４巷１９號","OBJECTID":453626},"geometry":{"x":183145.40000000037,"y":2569345.910000002}},{"attributes":{"ID":453652,"DIS_CODE":0,"TOWNNAME":"六甲區","LI":"二甲里","LIN":"26鄰","STREET":"中華路","SECT":" ","MAREA":" ","LANE":"１３４巷","ALLEY":" ","HOUSE_NO":"３號","E_COORD97":183131.42000000001,"N_COORD97":2569308.6499999999,"ADDRESS":"中華路１３４巷３號","OBJECTID":453627},"geometry":{"x":183131.42000000179,"y":2569308.6500000004}},{"attributes":{"ID":453653,"DIS_CODE":0,"TOWNNAME":"安南區","LI":"州北里","LIN":"26鄰","STREET":"北安路","SECT":"四段","MAREA":" ","LANE":"５４８巷","ALLEY":" ","HOUSE_NO":"３８號","E_COORD97":169647.35999999999,"N_COORD97":2551912.4700000002,"ADDRESS":"北安路四段５４８巷３８號","OBJECTID":453628},"geometry":{"x":169647.36000000127,"y":2551912.4700000025}},{"attributes":{"ID":453654,"DIS_CODE":0,"TOWNNAME":"安南區","LI":"州北里","LIN":"26鄰","STREET":"北安路","SECT":"四段","MAREA":" ","LANE":"５４８巷","ALLEY":" ","HOUSE_NO":"４０號","E_COORD97":169651.85999999999,"N_COORD97":2551915.1899999999,"ADDRESS":"北安路四段５４８巷４０號","OBJECTID":453629},"geometry":{"x":169651.86000000034,"y":2551915.1900000032}},{"attributes":{"ID":453655,"DIS_CODE":0,"TOWNNAME":"安南區","LI":"州北里","LIN":"26鄰","STREET":"北安路","SECT":"四段","MAREA":" ","LANE":"５４８巷","ALLEY":" ","HOUSE_NO":"４２號","E_COORD97":169656.70999999999,"N_COORD97":2551916.7200000002,"ADDRESS":"北安路四段５４８巷４２號","OBJECTID":453630},"geometry":{"x":169656.71000000089,"y":2551916.7200000025}},{"attributes":{"ID":453656,"DIS_CODE":0,"TOWNNAME":"安南區","LI":"州北里","LIN":"26鄰","STREET":"北安路","SECT":"四段","MAREA":" ","LANE":"５４８巷","ALLEY":" ","HOUSE_NO":"４２號之１","E_COORD97":169661.07999999999,"N_COORD97":2551918.2599999998,"ADDRESS":"北安路四段５４８巷４２號之１","OBJECTID":453631},"geometry":{"x":169661.08000000101,"y":2551918.2599999979}},{"attributes":{"ID":453657,"DIS_CODE":0,"TOWNNAME":"安南區","LI":"州北里","LIN":"26鄰","STREET":"北安路","SECT":"四段","MAREA":" ","LANE":"５４８巷","ALLEY":" ","HOUSE_NO":"４６號","E_COORD97":169665.45999999999,"N_COORD97":2551920.27,"ADDRESS":"北安路四段５４８巷４６號","OBJECTID":453632},"geometry":{"x":169665.46000000089,"y":2551920.2699999996}},{"attributes":{"ID":453658,"DIS_CODE":0,"TOWNNAME":"安南區","LI":"州北里","LIN":"26鄰","STREET":"北安路","SECT":"四段","MAREA":" ","LANE":"５４８巷","ALLEY":" ","HOUSE_NO":"４８號","E_COORD97":169669.84,"N_COORD97":2551921.7999999998,"ADDRESS":"北安路四段５４８巷４８號","OBJECTID":453633},"geometry":{"x":169669.83999999985,"y":2551921.8000000007}},{"attributes":{"ID":453659,"DIS_CODE":0,"TOWNNAME":"安南區","LI":"州北里","LIN":"26鄰","STREET":"北安路","SECT":"四段","MAREA":" ","LANE":"５４８巷","ALLEY":" ","HOUSE_NO":"５２號","E_COORD97":169680.25,"N_COORD97":2551926.29,"ADDRESS":"北安路四段５４８巷５２號","OBJECTID":453634},"geometry":{"x":169680.25000000093,"y":2551926.2899999991}},{"attributes":{"ID":453660,"DIS_CODE":0,"TOWNNAME":"安南區","LI":"州北里","LIN":"26鄰","STREET":"北安路","SECT":"四段","MAREA":" ","LANE":"５４８巷","ALLEY":" ","HOUSE_NO":"５３號","E_COORD97":169710.39999999999,"N_COORD97":2551954.8500000001,"ADDRESS":"北安路四段５４８巷５３號","OBJECTID":453635},"geometry":{"x":169710.40000000037,"y":2551954.8500000034}},{"attributes":{"ID":453661,"DIS_CODE":0,"TOWNNAME":"安南區","LI":"州北里","LIN":"26鄰","STREET":"北安路","SECT":"四段","MAREA":" ","LANE":"５４８巷","ALLEY":" ","HOUSE_NO":"５４號","E_COORD97":169684.14999999999,"N_COORD97":2551928.6499999999,"ADDRESS":"北安路四段５４８巷５４號","OBJECTID":453636},"geometry":{"x":169684.15000000224,"y":2551928.6500000004}},{"attributes":{"ID":453662,"DIS_CODE":0,"TOWNNAME":"安南區","LI":"州北里","LIN":"26鄰","STREET":"北安路","SECT":"四段","MAREA":" ","LANE":"５４８巷","ALLEY":" ","HOUSE_NO":"５５號","E_COORD97":169714.73999999999,"N_COORD97":2551950.3100000001,"ADDRESS":"北安路四段５４８巷５５號","OBJECTID":453637},"geometry":{"x":169714.74000000022,"y":2551950.3100000024}},{"attributes":{"ID":453663,"DIS_CODE":0,"TOWNNAME":"安南區","LI":"州北里","LIN":"26鄰","STREET":"北安路","SECT":"四段","MAREA":" ","LANE":"５４８巷","ALLEY":" ","HOUSE_NO":"６０號","E_COORD97":169698.10999999999,"N_COORD97":2551934.3199999998,"ADDRESS":"北安路四段５４８巷６０號","OBJECTID":453638},"geometry":{"x":169698.11000000127,"y":2551934.3200000003}},{"attributes":{"ID":453664,"DIS_CODE":0,"TOWNNAME":"安南區","LI":"州北里","LIN":"26鄰","STREET":"北安路","SECT":"四段","MAREA":" ","LANE":"５４８巷","ALLEY":" ","HOUSE_NO":"６１號","E_COORD97":169722.29000000001,"N_COORD97":2551937.6499999999,"ADDRESS":"北安路四段５４８巷６１號","OBJECTID":453639},"geometry":{"x":169722.29000000097,"y":2551937.6500000022}},{"attributes":{"ID":453665,"DIS_CODE":0,"TOWNNAME":"安平區","LI":"華平里","LIN":"8鄰","STREET":"育平九街","SECT":" ","MAREA":" ","LANE":"２２巷","ALLEY":" ","HOUSE_NO":"３號","E_COORD97":165414.54000000001,"N_COORD97":2543973.71,"ADDRESS":"育平九街２２巷３號","OBJECTID":453640},"geometry":{"x":165414.54000000097,"y":2543973.7100000028}},{"attributes":{"ID":453666,"DIS_CODE":0,"TOWNNAME":"安平區","LI":"華平里","LIN":"8鄰","STREET":"育平九街","SECT":" ","MAREA":" ","LANE":"２２巷","ALLEY":" ","HOUSE_NO":"７號","E_COORD97":165414.88,"N_COORD97":2543991.3799999999,"ADDRESS":"育平九街２２巷７號","OBJECTID":453641},"geometry":{"x":165414.87999999989,"y":2543991.3800000008}},{"attributes":{"ID":453667,"DIS_CODE":0,"TOWNNAME":"安平區","LI":"華平里","LIN":"8鄰","STREET":"育平九街","SECT":" ","MAREA":" ","LANE":"２２巷","ALLEY":" ","HOUSE_NO":"９號","E_COORD97":165414.95999999999,"N_COORD97":2543996.77,"ADDRESS":"育平九街２２巷９號","OBJECTID":453642},"geometry":{"x":165414.96000000089,"y":2543996.7699999996}},{"attributes":{"ID":453668,"DIS_CODE":0,"TOWNNAME":"安南區","LI":"州北里","LIN":"26鄰","STREET":"北安路","SECT":"四段","MAREA":" ","LANE":"５４８巷","ALLEY":" ","HOUSE_NO":"６２號","E_COORD97":169704.26000000001,"N_COORD97":2551935.98,"ADDRESS":"北安路四段５４８巷６２號","OBJECTID":453643},"geometry":{"x":169704.25999999978,"y":2551935.9800000023}},{"attributes":{"ID":453669,"DIS_CODE":0,"TOWNNAME":"安南區","LI":"州北里","LIN":"26鄰","STREET":"北安路","SECT":"四段","MAREA":" ","LANE":"５４８巷","ALLEY":" ","HOUSE_NO":"６３號","E_COORD97":169724.87,"N_COORD97":2551932.9100000001,"ADDRESS":"北安路四段５４８巷６３號","OBJECTID":453644},"geometry":{"x":169724.87000000104,"y":2551932.910000002}},{"attributes":{"ID":453670,"DIS_CODE":0,"TOWNNAME":"安南區","LI":"州北里","LIN":"26鄰","STREET":"北安路","SECT":"四段","MAREA":" ","LANE":"５４８巷","ALLEY":" ","HOUSE_NO":"６４號","E_COORD97":169707.62,"N_COORD97":2551919.75,"ADDRESS":"北安路四段５４８巷６４號","OBJECTID":453645},"geometry":{"x":169707.62000000011,"y":2551919.7500000019}},{"attributes":{"ID":453671,"DIS_CODE":0,"TOWNNAME":"安南區","LI":"州北里","LIN":"26鄰","STREET":"北安路","SECT":"四段","MAREA":" ","LANE":"５４８巷","ALLEY":" ","HOUSE_NO":"６６號","E_COORD97":169709.67999999999,"N_COORD97":2551914.7999999998,"ADDRESS":"北安路四段５４８巷６６號","OBJECTID":453646},"geometry":{"x":169709.6799999997,"y":2551914.8000000007}},{"attributes":{"ID":453672,"DIS_CODE":0,"TOWNNAME":"安南區","LI":"州北里","LIN":"26鄰","STREET":"北安路","SECT":"四段","MAREA":" ","LANE":"５４８巷","ALLEY":" ","HOUSE_NO":"７０號","E_COORD97":169715.47,"N_COORD97":2551905.73,"ADDRESS":"北安路四段５４８巷７０號","OBJECTID":453647},"geometry":{"x":169715.47000000067,"y":2551905.7300000042}},{"attributes":{"ID":453673,"DIS_CODE":0,"TOWNNAME":"安南區","LI":"州北里","LIN":"26鄰","STREET":"北安路","SECT":"四段","MAREA":" ","LANE":"５４８巷","ALLEY":" ","HOUSE_NO":"７２號","E_COORD97":169717.53,"N_COORD97":2551901.7000000002,"ADDRESS":"北安路四段５４８巷７２號","OBJECTID":453648},"geometry":{"x":169717.53000000119,"y":2551901.7000000011}},{"attributes":{"ID":453674,"DIS_CODE":0,"TOWNNAME":"安南區","LI":"州北里","LIN":"26鄰","STREET":"北安路","SECT":"四段","MAREA":" ","LANE":"５４８巷","ALLEY":" ","HOUSE_NO":"７４號","E_COORD97":169720.01000000001,"N_COORD97":2551897.5800000001,"ADDRESS":"北安路四段５４８巷７４號","OBJECTID":453649},"geometry":{"x":169720.01000000164,"y":2551897.5800000019}},{"attributes":{"ID":453675,"DIS_CODE":0,"TOWNNAME":"安南區","LI":"州北里","LIN":"26鄰","STREET":"北安路","SECT":"四段","MAREA":" ","LANE":"５４８巷","ALLEY":" ","HOUSE_NO":"７６號","E_COORD97":169723.10999999999,"N_COORD97":2551892.9900000002,"ADDRESS":"北安路四段５４８巷７６號","OBJECTID":453650},"geometry":{"x":169723.11000000034,"y":2551892.9900000002}},{"attributes":{"ID":453676,"DIS_CODE":0,"TOWNNAME":"安南區","LI":"州北里","LIN":"26鄰","STREET":"北安路","SECT":"四段","MAREA":" ","LANE":"５４８巷","ALLEY":" ","HOUSE_NO":"７８號","E_COORD97":169725.17999999999,"N_COORD97":2551888.1499999999,"ADDRESS":"北安路四段５４８巷７８號","OBJECTID":453651},"geometry":{"x":169725.1799999997,"y":2551888.1500000004}},{"attributes":{"ID":453677,"DIS_CODE":0,"TOWNNAME":"安南區","LI":"州北里","LIN":"26鄰","STREET":"北安路","SECT":"四段","MAREA":" ","LANE":"５４８巷","ALLEY":" ","HOUSE_NO":"８２號","E_COORD97":169733.13,"N_COORD97":2551879.79,"ADDRESS":"北安路四段５４８巷８２號","OBJECTID":453652},"geometry":{"x":169733.13000000082,"y":2551879.7899999991}},{"attributes":{"ID":453678,"DIS_CODE":0,"TOWNNAME":"安南區","LI":"州北里","LIN":"26鄰","STREET":"北安路","SECT":"四段","MAREA":" ","LANE":"５４８巷","ALLEY":" ","HOUSE_NO":"８４號","E_COORD97":169735.51000000001,"N_COORD97":2551876.6400000001,"ADDRESS":"北安路四段５４８巷８４號","OBJECTID":453653},"geometry":{"x":169735.51000000071,"y":2551876.6400000025}},{"attributes":{"ID":453679,"DIS_CODE":0,"TOWNNAME":"安南區","LI":"州北里","LIN":"26鄰","STREET":"北安路","SECT":"四段","MAREA":" ","LANE":"５４８巷","ALLEY":" ","HOUSE_NO":"８６號","E_COORD97":169737.57999999999,"N_COORD97":2551872.7200000002,"ADDRESS":"北安路四段５４８巷８６號","OBJECTID":453654},"geometry":{"x":169737.58000000101,"y":2551872.7200000025}},{"attributes":{"ID":453680,"DIS_CODE":0,"TOWNNAME":"安南區","LI":"州北里","LIN":"26鄰","STREET":"北安路","SECT":"四段","MAREA":" ","LANE":"５４８巷","ALLEY":" ","HOUSE_NO":"８８號","E_COORD97":169738.23000000001,"N_COORD97":2551869.0800000001,"ADDRESS":"北安路四段５４８巷８８號","OBJECTID":453655},"geometry":{"x":169738.23000000138,"y":2551869.0800000038}},{"attributes":{"ID":453681,"DIS_CODE":0,"TOWNNAME":"安南區","LI":"州北里","LIN":"26鄰","STREET":"北安路","SECT":"四段","MAREA":" ","LANE":"５４８巷","ALLEY":" ","HOUSE_NO":"９０號","E_COORD97":169741.10000000001,"N_COORD97":2551865.3199999998,"ADDRESS":"北安路四段５４８巷９０號","OBJECTID":453656},"geometry":{"x":169741.09999999963,"y":2551865.3200000022}},{"attributes":{"ID":453682,"DIS_CODE":0,"TOWNNAME":"安南區","LI":"州北里","LIN":"26鄰","STREET":"北安路","SECT":"四段","MAREA":" ","LANE":"５４８巷","ALLEY":" ","HOUSE_NO":"９２號","E_COORD97":169743.42999999999,"N_COORD97":2551861.3700000001,"ADDRESS":"北安路四段５４８巷９２號","OBJECTID":453657},"geometry":{"x":169743.4299999997,"y":2551861.3700000048}},{"attributes":{"ID":453683,"DIS_CODE":0,"TOWNNAME":"六甲區","LI":"甲南里","LIN":"25鄰","STREET":"珊瑚路","SECT":" ","MAREA":" ","LANE":"９６巷","ALLEY":" ","HOUSE_NO":"２號","E_COORD97":183797.32000000001,"N_COORD97":2569284.54,"ADDRESS":"珊瑚路９６巷２號","OBJECTID":453658},"geometry":{"x":183797.32000000123,"y":2569284.5399999972}},{"attributes":{"ID":453684,"DIS_CODE":0,"TOWNNAME":"安南區","LI":"州北里","LIN":"26鄰","STREET":"北安路","SECT":"四段","MAREA":" ","LANE":"５４８巷","ALLEY":" ","HOUSE_NO":"９４號","E_COORD97":169746.13,"N_COORD97":2551858.5099999998,"ADDRESS":"北安路四段５４８巷９４號","OBJECTID":453659},"geometry":{"x":169746.12999999989,"y":2551858.5099999998}},{"attributes":{"ID":453685,"DIS_CODE":0,"TOWNNAME":"安南區","LI":"州北里","LIN":"26鄰","STREET":"北安路","SECT":"四段","MAREA":" ","LANE":"５４８巷","ALLEY":" ","HOUSE_NO":"９８號","E_COORD97":169749.89000000001,"N_COORD97":2551850.2599999998,"ADDRESS":"北安路四段５４８巷９８號","OBJECTID":453660},"geometry":{"x":169749.8900000006,"y":2551850.2599999998}},{"attributes":{"ID":453686,"DIS_CODE":0,"TOWNNAME":"南區","LI":"光明里","LIN":"26鄰","STREET":"新建路","SECT":" ","MAREA":" ","LANE":"２５巷","ALLEY":" ","HOUSE_NO":"１４號","E_COORD97":166536.32000000001,"N_COORD97":2541315.1899999999,"ADDRESS":"新建路２５巷１４號","OBJECTID":453661},"geometry":{"x":166536.3200000003,"y":2541315.1900000013}},{"attributes":{"ID":453687,"DIS_CODE":0,"TOWNNAME":"南區","LI":"光明里","LIN":"26鄰","STREET":"新建路","SECT":" ","MAREA":" ","LANE":"２５巷","ALLEY":" ","HOUSE_NO":"１６號","E_COORD97":166543.17000000001,"N_COORD97":2541314.6200000001,"ADDRESS":"新建路２５巷１６號","OBJECTID":453662},"geometry":{"x":166543.16999999993,"y":2541314.620000001}},{"attributes":{"ID":453688,"DIS_CODE":0,"TOWNNAME":"南區","LI":"明亮里","LIN":"26鄰","STREET":"金華路","SECT":"一段","MAREA":" ","LANE":"４８４巷","ALLEY":" ","HOUSE_NO":"６０號","E_COORD97":167147.39000000001,"N_COORD97":2541390.6299999999,"ADDRESS":"金華路一段４８４巷６０號","OBJECTID":453663},"geometry":{"x":167147.39000000153,"y":2541390.629999999}},{"attributes":{"ID":453689,"DIS_CODE":0,"TOWNNAME":"南區","LI":"明亮里","LIN":"26鄰","STREET":"金華路","SECT":"一段","MAREA":" ","LANE":"４８４巷","ALLEY":" ","HOUSE_NO":"６２號","E_COORD97":167144.51000000001,"N_COORD97":2541381.04,"ADDRESS":"金華路一段４８４巷６２號","OBJECTID":453664},"geometry":{"x":167144.50999999978,"y":2541381.0399999991}},{"attributes":{"ID":453690,"DIS_CODE":0,"TOWNNAME":"南區","LI":"明亮里","LIN":"26鄰","STREET":"金華路","SECT":"一段","MAREA":" ","LANE":"４８４巷","ALLEY":" ","HOUSE_NO":"６４號","E_COORD97":167140.04000000001,"N_COORD97":2541374.98,"ADDRESS":"金華路一段４８４巷６４號","OBJECTID":453665},"geometry":{"x":167140.0400000019,"y":2541374.9800000023}},{"attributes":{"ID":453691,"DIS_CODE":0,"TOWNNAME":"南區","LI":"明亮里","LIN":"26鄰","STREET":"金華路","SECT":"一段","MAREA":" ","LANE":"４８４巷","ALLEY":" ","HOUSE_NO":"６６號","E_COORD97":167134.92000000001,"N_COORD97":2541363.7999999998,"ADDRESS":"金華路一段４８４巷６６號","OBJECTID":453666},"geometry":{"x":167134.91999999993,"y":2541363.8000000007}},{"attributes":{"ID":453692,"DIS_CODE":0,"TOWNNAME":"南區","LI":"明亮里","LIN":"26鄰","STREET":"金華路","SECT":"一段","MAREA":" ","LANE":"４８４巷","ALLEY":" ","HOUSE_NO":"６８號","E_COORD97":167141.64000000001,"N_COORD97":2541358.3700000001,"ADDRESS":"金華路一段４８４巷６８號","OBJECTID":453667},"geometry":{"x":167141.63999999966,"y":2541358.3700000029}},{"attributes":{"ID":453693,"DIS_CODE":0,"TOWNNAME":"南區","LI":"明亮里","LIN":"26鄰","STREET":"金華路","SECT":"一段","MAREA":" ","LANE":"４８４巷","ALLEY":" ","HOUSE_NO":"７０號","E_COORD97":167150.59,"N_COORD97":2541355.8100000001,"ADDRESS":"金華路一段４８４巷７０號","OBJECTID":453668},"geometry":{"x":167150.58999999985,"y":2541355.8100000024}},{"attributes":{"ID":453694,"DIS_CODE":0,"TOWNNAME":"南區","LI":"明亮里","LIN":"26鄰","STREET":"金華路","SECT":"一段","MAREA":" ","LANE":"４８４巷","ALLEY":" ","HOUSE_NO":"７２號","E_COORD97":167145.79000000001,"N_COORD97":2541352.6200000001,"ADDRESS":"金華路一段４８４巷７２號","OBJECTID":453669},"geometry":{"x":167145.79000000097,"y":2541352.620000001}},{"attributes":{"ID":453695,"DIS_CODE":0,"TOWNNAME":"新市區","LI":"港墘里","LIN":"26鄰","STREET":"中山路","SECT":" ","MAREA":" ","LANE":"７８巷","ALLEY":" ","HOUSE_NO":"１６號","E_COORD97":178177.98000000001,"N_COORD97":2552871,"ADDRESS":"中山路７８巷１６號","OBJECTID":453670},"geometry":{"x":178177.98000000045,"y":2552871.0000000019}},{"attributes":{"ID":453696,"DIS_CODE":0,"TOWNNAME":"新市區","LI":"新市里","LIN":"26鄰","STREET":"復興路","SECT":" ","MAREA":" ","LANE":"６巷","ALLEY":" ","HOUSE_NO":"３３號","E_COORD97":177918.89000000001,"N_COORD97":2553369.0299999998,"ADDRESS":"復興路６巷３３號","OBJECTID":453671},"geometry":{"x":177918.8900000006,"y":2553369.0299999993}},{"attributes":{"ID":453697,"DIS_CODE":0,"TOWNNAME":"永康區","LI":"東橋里","LIN":"26鄰","STREET":"中正路","SECT":" ","MAREA":" ","LANE":"２７９巷","ALLEY":" ","HOUSE_NO":"５號","E_COORD97":172676.12,"N_COORD97":2548062.25,"ADDRESS":"中正路２７９巷５號","OBJECTID":453672},"geometry":{"x":172676.12000000197,"y":2548062.25}},{"attributes":{"ID":453698,"DIS_CODE":0,"TOWNNAME":"永康區","LI":"埔園里","LIN":"26鄰","STREET":"自強路","SECT":" ","MAREA":" ","LANE":"４１７巷","ALLEY":" ","HOUSE_NO":"４５號","E_COORD97":173726.92999999999,"N_COORD97":2548094,"ADDRESS":"自強路４１７巷４５號","OBJECTID":453673},"geometry":{"x":173726.93000000063,"y":2548094.0000000019}},{"attributes":{"ID":453699,"DIS_CODE":0,"TOWNNAME":"永康區","LI":"東灣里","LIN":"26鄰","STREET":"大灣一街","SECT":" ","MAREA":" ","LANE":"２４２巷","ALLEY":" ","HOUSE_NO":"２６號","E_COORD97":174942.01999999999,"N_COORD97":2544577.0699999998,"ADDRESS":"大灣一街２４２巷２６號","OBJECTID":453674},"geometry":{"x":174942.01999999955,"y":2544577.0700000022}},{"attributes":{"ID":453700,"DIS_CODE":0,"TOWNNAME":"永康區","LI":"東灣里","LIN":"26鄰","STREET":"民族路","SECT":" ","MAREA":" ","LANE":"３巷","ALLEY":" ","HOUSE_NO":"２６號","E_COORD97":175476.42000000001,"N_COORD97":2544521.0299999998,"ADDRESS":"民族路３巷２６號","OBJECTID":453675},"geometry":{"x":175476.42000000086,"y":2544521.0299999993}},{"attributes":{"ID":453701,"DIS_CODE":0,"TOWNNAME":"善化區","LI":"光文里","LIN":"26鄰","STREET":"中山路","SECT":" ","MAREA":" ","LANE":"２４０巷","ALLEY":" ","HOUSE_NO":"１號之４２","E_COORD97":178174.26000000001,"N_COORD97":2559250.02,"ADDRESS":"中山路２４０巷１號之４２","OBJECTID":453676},"geometry":{"x":178174.26000000071,"y":2559250.0200000033}},{"attributes":{"ID":453702,"DIS_CODE":0,"TOWNNAME":"南區","LI":"廣州里","LIN":"26鄰","STREET":"福吉三街","SECT":" ","MAREA":" ","LANE":"８０巷","ALLEY":" ","HOUSE_NO":"７號","E_COORD97":167230.64000000001,"N_COORD97":2542812.2000000002,"ADDRESS":"福吉三街８０巷７號","OBJECTID":453677},"geometry":{"x":167230.6400000006,"y":2542812.2000000011}},{"attributes":{"ID":453703,"DIS_CODE":0,"TOWNNAME":"南區","LI":"廣州里","LIN":"26鄰","STREET":"福吉三街","SECT":" ","MAREA":" ","LANE":"８３巷","ALLEY":" ","HOUSE_NO":"２號","E_COORD97":167178.22,"N_COORD97":2542757.6899999999,"ADDRESS":"福吉三街８３巷２號","OBJECTID":453678},"geometry":{"x":167178.22000000067,"y":2542757.6900000032}},{"attributes":{"ID":453704,"DIS_CODE":0,"TOWNNAME":"南區","LI":"廣州里","LIN":"26鄰","STREET":"福吉三街","SECT":" ","MAREA":" ","LANE":"８３巷","ALLEY":" ","HOUSE_NO":"６號","E_COORD97":167174.22,"N_COORD97":2542755.6899999999,"ADDRESS":"福吉三街８３巷６號","OBJECTID":453679},"geometry":{"x":167174.22000000067,"y":2542755.6900000013}},{"attributes":{"ID":453705,"DIS_CODE":0,"TOWNNAME":"南區","LI":"廣州里","LIN":"26鄰","STREET":"福吉三街","SECT":" ","MAREA":" ","LANE":"８３巷","ALLEY":" ","HOUSE_NO":"８號","E_COORD97":167173.32999999999,"N_COORD97":2542751.6899999999,"ADDRESS":"福吉三街８３巷８號","OBJECTID":453680},"geometry":{"x":167173.33000000007,"y":2542751.6900000013}},{"attributes":{"ID":453706,"DIS_CODE":0,"TOWNNAME":"南區","LI":"廣州里","LIN":"26鄰","STREET":"福吉三街","SECT":" ","MAREA":" ","LANE":"８３巷","ALLEY":" ","HOUSE_NO":"１０號","E_COORD97":167170.66,"N_COORD97":2542748.3599999999,"ADDRESS":"福吉三街８３巷１０號","OBJECTID":453681},"geometry":{"x":167170.66000000108,"y":2542748.3599999994}},{"attributes":{"ID":453707,"DIS_CODE":0,"TOWNNAME":"南區","LI":"廣州里","LIN":"26鄰","STREET":"福吉三街","SECT":" ","MAREA":" ","LANE":"８３巷","ALLEY":" ","HOUSE_NO":"１２號","E_COORD97":167166.88,"N_COORD97":2542743.2599999998,"ADDRESS":"福吉三街８３巷１２號","OBJECTID":453682},"geometry":{"x":167166.88000000082,"y":2542743.2599999998}},{"attributes":{"ID":453708,"DIS_CODE":0,"TOWNNAME":"安平區","LI":"華平里","LIN":"11鄰","STREET":"怡平路","SECT":" ","MAREA":" ","LANE":"４４２巷","ALLEY":" ","HOUSE_NO":"１０５號","E_COORD97":165310.82000000001,"N_COORD97":2544069.5600000001,"ADDRESS":"怡平路４４２巷１０５號","OBJECTID":453683},"geometry":{"x":165310.8200000003,"y":2544069.5600000024}},{"attributes":{"ID":453709,"DIS_CODE":0,"TOWNNAME":"安平區","LI":"華平里","LIN":"11鄰","STREET":"怡平路","SECT":" ","MAREA":" ","LANE":"４４２巷","ALLEY":" ","HOUSE_NO":"１０５號之１","E_COORD97":165304.79999999999,"N_COORD97":2544070.0699999998,"ADDRESS":"怡平路４４２巷１０５號之１","OBJECTID":453684},"geometry":{"x":165304.79999999981,"y":2544070.0700000003}},{"attributes":{"ID":453710,"DIS_CODE":0,"TOWNNAME":"安南區","LI":"溪頂里","LIN":"26鄰","STREET":"郡安路","SECT":"四段","MAREA":" ","LANE":"２７８巷","ALLEY":" ","HOUSE_NO":"２０號","E_COORD97":168564.10999999999,"N_COORD97":2547603.3999999999,"ADDRESS":"郡安路四段２７８巷２０號","OBJECTID":453685},"geometry":{"x":168564.11000000127,"y":2547603.4000000022}},{"attributes":{"ID":453711,"DIS_CODE":0,"TOWNNAME":"安南區","LI":"溪頂里","LIN":"26鄰","STREET":"郡安路","SECT":"四段","MAREA":" ","LANE":"２７８巷","ALLEY":" ","HOUSE_NO":"２２號","E_COORD97":168564.70000000001,"N_COORD97":2547597.6899999999,"ADDRESS":"郡安路四段２７８巷２２號","OBJECTID":453686},"geometry":{"x":168564.70000000205,"y":2547597.6899999995}},{"attributes":{"ID":453712,"DIS_CODE":0,"TOWNNAME":"安南區","LI":"溪頂里","LIN":"26鄰","STREET":"郡安路","SECT":"四段","MAREA":" ","LANE":"２７８巷","ALLEY":" ","HOUSE_NO":"２６號","E_COORD97":168565.75,"N_COORD97":2547592.3199999998,"ADDRESS":"郡安路四段２７８巷２６號","OBJECTID":453687},"geometry":{"x":168565.75,"y":2547592.3199999984}},{"attributes":{"ID":453713,"DIS_CODE":0,"TOWNNAME":"安南區","LI":"溪頂里","LIN":"26鄰","STREET":"郡安路","SECT":"四段","MAREA":" ","LANE":"２７８巷","ALLEY":" ","HOUSE_NO":"２８號","E_COORD97":168566.22,"N_COORD97":2547586.6099999999,"ADDRESS":"郡安路四段２７８巷２８號","OBJECTID":453688},"geometry":{"x":168566.22000000067,"y":2547586.6100000013}},{"attributes":{"ID":453714,"DIS_CODE":0,"TOWNNAME":"安南區","LI":"溪頂里","LIN":"26鄰","STREET":"郡安路","SECT":"四段","MAREA":" ","LANE":"２７８巷","ALLEY":" ","HOUSE_NO":"３０號","E_COORD97":168566.57000000001,"N_COORD97":2547581.0099999998,"ADDRESS":"郡安路四段２７８巷３０號","OBJECTID":453689},"geometry":{"x":168566.57000000123,"y":2547581.0100000016}},{"attributes":{"ID":453715,"DIS_CODE":0,"TOWNNAME":"安南區","LI":"溪頂里","LIN":"26鄰","STREET":"郡安路","SECT":"四段","MAREA":" ","LANE":"２７８巷","ALLEY":" ","HOUSE_NO":"３２號","E_COORD97":168567.26999999999,"N_COORD97":2547574.8900000001,"ADDRESS":"郡安路四段２７８巷３２號","OBJECTID":453690},"geometry":{"x":168567.27000000048,"y":2547574.8900000006}},{"attributes":{"ID":453716,"DIS_CODE":0,"TOWNNAME":"安南區","LI":"溪頂里","LIN":"26鄰","STREET":"郡安路","SECT":"四段","MAREA":" ","LANE":"２７８巷","ALLEY":" ","HOUSE_NO":"３６號","E_COORD97":168567.73000000001,"N_COORD97":2547569.4100000001,"ADDRESS":"郡安路四段２７８巷３６號","OBJECTID":453691},"geometry":{"x":168567.73000000045,"y":2547569.410000002}},{"attributes":{"ID":453717,"DIS_CODE":0,"TOWNNAME":"安南區","LI":"溪頂里","LIN":"26鄰","STREET":"郡安路","SECT":"四段","MAREA":" ","LANE":"２７８巷","ALLEY":" ","HOUSE_NO":"３８號","E_COORD97":168568.67000000001,"N_COORD97":2547563.6899999999,"ADDRESS":"郡安路四段２７８巷３８號","OBJECTID":453692},"geometry":{"x":168568.67000000086,"y":2547563.6899999995}},{"attributes":{"ID":453718,"DIS_CODE":0,"TOWNNAME":"安南區","LI":"溪頂里","LIN":"26鄰","STREET":"郡安路","SECT":"四段","MAREA":" ","LANE":"２７８巷","ALLEY":" ","HOUSE_NO":"４０號","E_COORD97":168569.35999999999,"N_COORD97":2547558.1899999999,"ADDRESS":"郡安路四段２７８巷４０號","OBJECTID":453693},"geometry":{"x":168569.36000000127,"y":2547558.1899999995}},{"attributes":{"ID":453719,"DIS_CODE":0,"TOWNNAME":"安南區","LI":"溪頂里","LIN":"26鄰","STREET":"郡安路","SECT":"四段","MAREA":" ","LANE":"２７８巷","ALLEY":" ","HOUSE_NO":"４２號","E_COORD97":168570.29999999999,"N_COORD97":2547553.1699999999,"ADDRESS":"郡安路四段２７８巷４２號","OBJECTID":453694},"geometry":{"x":168570.29999999981,"y":2547553.1700000018}},{"attributes":{"ID":453720,"DIS_CODE":0,"TOWNNAME":"安南區","LI":"溪頂里","LIN":"26鄰","STREET":"郡安路","SECT":"四段","MAREA":" ","LANE":"２７８巷","ALLEY":" ","HOUSE_NO":"４６號","E_COORD97":168570.41,"N_COORD97":2547549.0899999999,"ADDRESS":"郡安路四段２７８巷４６號","OBJECTID":453695},"geometry":{"x":168570.41000000108,"y":2547549.0899999999}},{"attributes":{"ID":453721,"DIS_CODE":0,"TOWNNAME":"安南區","LI":"溪頂里","LIN":"26鄰","STREET":"郡安路","SECT":"四段","MAREA":" ","LANE":"２７８巷","ALLEY":" ","HOUSE_NO":"５２號","E_COORD97":168571.23000000001,"N_COORD97":2547533.7000000002,"ADDRESS":"郡安路四段２７８巷５２號","OBJECTID":453696},"geometry":{"x":168571.23000000045,"y":2547533.6999999993}},{"attributes":{"ID":453722,"DIS_CODE":0,"TOWNNAME":"安南區","LI":"溪頂里","LIN":"26鄰","STREET":"郡安路","SECT":"四段","MAREA":" ","LANE":"２７８巷","ALLEY":" ","HOUSE_NO":"５６號","E_COORD97":168572.51000000001,"N_COORD97":2547528.4500000002,"ADDRESS":"郡安路四段２７８巷５６號","OBJECTID":453697},"geometry":{"x":168572.51000000164,"y":2547528.4499999993}},{"attributes":{"ID":453723,"DIS_CODE":0,"TOWNNAME":"安南區","LI":"溪頂里","LIN":"26鄰","STREET":"郡安路","SECT":"四段","MAREA":" ","LANE":"２７８巷","ALLEY":" ","HOUSE_NO":"５８號","E_COORD97":168572.76999999999,"N_COORD97":2547524.1200000001,"ADDRESS":"郡安路四段２７８巷５８號","OBJECTID":453698},"geometry":{"x":168572.77000000048,"y":2547524.1200000029}},{"attributes":{"ID":453724,"DIS_CODE":0,"TOWNNAME":"西港區","LI":"慶安里","LIN":"26鄰","STREET":"新興街","SECT":" ","MAREA":" ","LANE":"１２巷","ALLEY":" ","HOUSE_NO":"１０號","E_COORD97":168254.57000000001,"N_COORD97":2557752.5800000001,"ADDRESS":"新興街１２巷１０號","OBJECTID":453699},"geometry":{"x":168254.57000000123,"y":2557752.5800000019}},{"attributes":{"ID":453725,"DIS_CODE":0,"TOWNNAME":"西港區","LI":"慶安里","LIN":"26鄰","STREET":"新興街","SECT":" ","MAREA":" ","LANE":"１２巷","ALLEY":" ","HOUSE_NO":"１１號","E_COORD97":168242.10999999999,"N_COORD97":2557796.6800000002,"ADDRESS":"新興街１２巷１１號","OBJECTID":453700},"geometry":{"x":168242.11000000127,"y":2557796.6799999997}},{"attributes":{"ID":453726,"DIS_CODE":0,"TOWNNAME":"西港區","LI":"慶安里","LIN":"26鄰","STREET":"新興街","SECT":" ","MAREA":" ","LANE":"１２巷","ALLEY":" ","HOUSE_NO":"１２號","E_COORD97":168246.16,"N_COORD97":2557797.9500000002,"ADDRESS":"新興街１２巷１２號","OBJECTID":453701},"geometry":{"x":168246.15999999922,"y":2557797.9499999993}},{"attributes":{"ID":453727,"DIS_CODE":0,"TOWNNAME":"西港區","LI":"慶安里","LIN":"26鄰","STREET":"新興街","SECT":" ","MAREA":" ","LANE":"１２巷","ALLEY":" ","HOUSE_NO":"１３號","E_COORD97":168250.38,"N_COORD97":2557799.4100000001,"ADDRESS":"新興街１２巷１３號","OBJECTID":453702},"geometry":{"x":168250.38000000082,"y":2557799.4100000001}},{"attributes":{"ID":453728,"DIS_CODE":0,"TOWNNAME":"西港區","LI":"慶安里","LIN":"26鄰","STREET":"新興街","SECT":" ","MAREA":" ","LANE":"１２巷","ALLEY":" ","HOUSE_NO":"１４號","E_COORD97":168254.22,"N_COORD97":2557800.5,"ADDRESS":"新興街１２巷１４號","OBJECTID":453703},"geometry":{"x":168254.22000000067,"y":2557800.5000000019}},{"attributes":{"ID":453729,"DIS_CODE":0,"TOWNNAME":"西港區","LI":"慶安里","LIN":"26鄰","STREET":"新興街","SECT":" ","MAREA":" ","LANE":"１２巷","ALLEY":" ","HOUSE_NO":"１５號","E_COORD97":168249.5,"N_COORD97":2557809.9700000002,"ADDRESS":"新興街１２巷１５號","OBJECTID":453704},"geometry":{"x":168249.50000000093,"y":2557809.9700000007}},{"attributes":{"ID":453730,"DIS_CODE":0,"TOWNNAME":"西港區","LI":"慶安里","LIN":"26鄰","STREET":"新興街","SECT":" ","MAREA":" ","LANE":"１２巷","ALLEY":" ","HOUSE_NO":"１６號","E_COORD97":168249.10999999999,"N_COORD97":2557813.5,"ADDRESS":"新興街１２巷１６號","OBJECTID":453705},"geometry":{"x":168249.11000000127,"y":2557813.5000000019}},{"attributes":{"ID":453731,"DIS_CODE":0,"TOWNNAME":"西港區","LI":"慶安里","LIN":"26鄰","STREET":"新興街","SECT":" ","MAREA":" ","LANE":"１２巷","ALLEY":" ","HOUSE_NO":"１７號","E_COORD97":168248.79000000001,"N_COORD97":2557817.27,"ADDRESS":"新興街１２巷１７號","OBJECTID":453706},"geometry":{"x":168248.7900000019,"y":2557817.2700000033}},{"attributes":{"ID":453732,"DIS_CODE":0,"TOWNNAME":"西港區","LI":"慶安里","LIN":"26鄰","STREET":"新興街","SECT":" ","MAREA":" ","LANE":"１２巷","ALLEY":" ","HOUSE_NO":"１８號","E_COORD97":168248.34,"N_COORD97":2557821.54,"ADDRESS":"新興街１２巷１８號","OBJECTID":453707},"geometry":{"x":168248.34000000078,"y":2557821.5399999991}},{"attributes":{"ID":453733,"DIS_CODE":0,"TOWNNAME":"西港區","LI":"慶安里","LIN":"26鄰","STREET":"新興街","SECT":" ","MAREA":" ","LANE":"１２巷","ALLEY":" ","HOUSE_NO":"１９號","E_COORD97":168247.73000000001,"N_COORD97":2557825.9500000002,"ADDRESS":"新興街１２巷１９號","OBJECTID":453708},"geometry":{"x":168247.72999999952,"y":2557825.950000003}},{"attributes":{"ID":453734,"DIS_CODE":0,"TOWNNAME":"永康區","LI":"龍潭里","LIN":"26鄰","STREET":"龍昌街","SECT":" ","MAREA":" ","LANE":"６６巷","ALLEY":" ","HOUSE_NO":"３８號","E_COORD97":175112.06,"N_COORD97":2547905.1699999999,"ADDRESS":"龍昌街６６巷３８號","OBJECTID":453709},"geometry":{"x":175112.06000000052,"y":2547905.1700000037}},{"attributes":{"ID":453735,"DIS_CODE":0,"TOWNNAME":"佳里區","LI":"六安里","LIN":"26鄰","STREET":"林園街","SECT":" ","MAREA":" ","LANE":"２０４巷","ALLEY":" ","HOUSE_NO":"３號","E_COORD97":165553.14999999999,"N_COORD97":2562925.77,"ADDRESS":"林園街２０４巷３號","OBJECTID":453710},"geometry":{"x":165553.1500000013,"y":2562925.7699999996}},{"attributes":{"ID":453736,"DIS_CODE":0,"TOWNNAME":"佳里區","LI":"六安里","LIN":"26鄰","STREET":"林園街","SECT":" ","MAREA":" ","LANE":"２０４巷","ALLEY":" ","HOUSE_NO":"５號","E_COORD97":165552.62,"N_COORD97":2562930.5,"ADDRESS":"林園街２０４巷５號","OBJECTID":453711},"geometry":{"x":165552.62000000011,"y":2562930.5000000019}},{"attributes":{"ID":453737,"DIS_CODE":0,"TOWNNAME":"佳里區","LI":"六安里","LIN":"26鄰","STREET":"林園街","SECT":" ","MAREA":" ","LANE":"２０４巷","ALLEY":" ","HOUSE_NO":"７號","E_COORD97":165552.23999999999,"N_COORD97":2562934.6299999999,"ADDRESS":"林園街２０４巷７號","OBJECTID":453712},"geometry":{"x":165552.24000000209,"y":2562934.6300000008}},{"attributes":{"ID":453738,"DIS_CODE":0,"TOWNNAME":"佳里區","LI":"六安里","LIN":"26鄰","STREET":"林園街","SECT":" ","MAREA":" ","LANE":"２０４巷","ALLEY":" ","HOUSE_NO":"９號","E_COORD97":165551.63,"N_COORD97":2562939.0800000001,"ADDRESS":"林園街２０４巷９號","OBJECTID":453713},"geometry":{"x":165551.63000000082,"y":2562939.0800000019}},{"attributes":{"ID":453739,"DIS_CODE":0,"TOWNNAME":"中西區","LI":"大涼里","LIN":"26鄰","STREET":"永華一街","SECT":" ","MAREA":" ","LANE":"４４巷","ALLEY":" ","HOUSE_NO":"１７號","E_COORD97":166909.17000000001,"N_COORD97":2543366.6099999999,"ADDRESS":"永華一街４４巷１７號","OBJECTID":453714},"geometry":{"x":166909.17000000086,"y":2543366.6100000013}},{"attributes":{"ID":453740,"DIS_CODE":0,"TOWNNAME":"中西區","LI":"大涼里","LIN":"26鄰","STREET":"永華一街","SECT":" ","MAREA":" ","LANE":"４４巷","ALLEY":" ","HOUSE_NO":"１９號","E_COORD97":166913.12,"N_COORD97":2543366.23,"ADDRESS":"永華一街４４巷１９號","OBJECTID":453715},"geometry":{"x":166913.12000000104,"y":2543366.2300000023}},{"attributes":{"ID":453741,"DIS_CODE":0,"TOWNNAME":"中西區","LI":"大涼里","LIN":"26鄰","STREET":"永華一街","SECT":" ","MAREA":" ","LANE":"４４巷","ALLEY":" ","HOUSE_NO":"２７號","E_COORD97":166921.78,"N_COORD97":2543364.04,"ADDRESS":"永華一街４４巷２７號","OBJECTID":453716},"geometry":{"x":166921.78000000119,"y":2543364.0399999991}},{"attributes":{"ID":453742,"DIS_CODE":0,"TOWNNAME":"中西區","LI":"大涼里","LIN":"26鄰","STREET":"永華一街","SECT":" ","MAREA":" ","LANE":"４４巷","ALLEY":" ","HOUSE_NO":"２９號","E_COORD97":166928.13,"N_COORD97":2543362.6499999999,"ADDRESS":"永華一街４４巷２９號","OBJECTID":453717},"geometry":{"x":166928.13000000082,"y":2543362.6500000041}},{"attributes":{"ID":453743,"DIS_CODE":0,"TOWNNAME":"中西區","LI":"大涼里","LIN":"26鄰","STREET":"永華一街","SECT":" ","MAREA":" ","LANE":"４４巷","ALLEY":" ","HOUSE_NO":"３３號","E_COORD97":166937.26999999999,"N_COORD97":2543361.4199999999,"ADDRESS":"永華一街４４巷３３號","OBJECTID":453718},"geometry":{"x":166937.26999999955,"y":2543361.4200000018}},{"attributes":{"ID":453744,"DIS_CODE":0,"TOWNNAME":"中西區","LI":"大涼里","LIN":"26鄰","STREET":"永華一街","SECT":" ","MAREA":" ","LANE":"４４巷","ALLEY":" ","HOUSE_NO":"３５號","E_COORD97":166939.37,"N_COORD97":2543374.25,"ADDRESS":"永華一街４４巷３５號","OBJECTID":453719},"geometry":{"x":166939.37000000011,"y":2543374.25}},{"attributes":{"ID":453745,"DIS_CODE":0,"TOWNNAME":"中西區","LI":"大涼里","LIN":"26鄰","STREET":"永華一街","SECT":" ","MAREA":" ","LANE":"４４巷","ALLEY":" ","HOUSE_NO":"３７號","E_COORD97":166938.64999999999,"N_COORD97":2543378.1800000002,"ADDRESS":"永華一街４４巷３７號","OBJECTID":453720},"geometry":{"x":166938.6500000013,"y":2543378.1799999997}},{"attributes":{"ID":453746,"DIS_CODE":0,"TOWNNAME":"中西區","LI":"大涼里","LIN":"26鄰","STREET":"永華一街","SECT":" ","MAREA":" ","LANE":"４４巷","ALLEY":" ","HOUSE_NO":"３號","E_COORD97":166878.64000000001,"N_COORD97":2543374.0499999998,"ADDRESS":"永華一街４４巷３號","OBJECTID":453721},"geometry":{"x":166878.6400000006,"y":2543374.0500000026}},{"attributes":{"ID":453747,"DIS_CODE":0,"TOWNNAME":"中西區","LI":"大涼里","LIN":"26鄰","STREET":"永華一街","SECT":" ","MAREA":" ","LANE":"４４巷","ALLEY":" ","HOUSE_NO":"９號","E_COORD97":166894.01999999999,"N_COORD97":2543374.6600000001,"ADDRESS":"永華一街４４巷９號","OBJECTID":453722},"geometry":{"x":166894.02000000048,"y":2543374.6600000001}},{"attributes":{"ID":453748,"DIS_CODE":0,"TOWNNAME":"中西區","LI":"大涼里","LIN":"26鄰","STREET":"永華一街","SECT":" ","MAREA":" ","LANE":"７０巷","ALLEY":" ","HOUSE_NO":"１０號","E_COORD97":166916.89000000001,"N_COORD97":2543394.0600000001,"ADDRESS":"永華一街７０巷１０號","OBJECTID":453723},"geometry":{"x":166916.89000000153,"y":2543394.0600000024}},{"attributes":{"ID":453749,"DIS_CODE":0,"TOWNNAME":"中西區","LI":"大涼里","LIN":"26鄰","STREET":"永華一街","SECT":" ","MAREA":" ","LANE":"７０巷","ALLEY":" ","HOUSE_NO":"２之１號","E_COORD97":166895.62,"N_COORD97":2543395.9900000002,"ADDRESS":"永華一街７０巷２之１號","OBJECTID":453724},"geometry":{"x":166895.62000000104,"y":2543395.9900000002}},{"attributes":{"ID":453750,"DIS_CODE":0,"TOWNNAME":"中西區","LI":"大涼里","LIN":"26鄰","STREET":"永華一街","SECT":" ","MAREA":" ","LANE":"７０巷","ALLEY":" ","HOUSE_NO":"２號","E_COORD97":166900.19,"N_COORD97":2543395.9900000002,"ADDRESS":"永華一街７０巷２號","OBJECTID":453725},"geometry":{"x":166900.19000000041,"y":2543395.9900000002}},{"attributes":{"ID":453751,"DIS_CODE":0,"TOWNNAME":"南區","LI":"開南里","LIN":"26鄰","STREET":"新建路","SECT":" ","MAREA":" ","LANE":"５１巷","ALLEY":" ","HOUSE_NO":"１３號","E_COORD97":166538.84,"N_COORD97":2540794.4300000002,"ADDRESS":"新建路５１巷１３號","OBJECTID":453726},"geometry":{"x":166538.83999999985,"y":2540794.4300000016}},{"attributes":{"ID":453752,"DIS_CODE":0,"TOWNNAME":"東區","LI":"大同里","LIN":"26鄰","STREET":"大同路","SECT":"一段","MAREA":" ","LANE":"３２９巷","ALLEY":" ","HOUSE_NO":"２８號","E_COORD97":169287.09,"N_COORD97":2542504.9399999999,"ADDRESS":"大同路一段３２９巷２８號","OBJECTID":453727},"geometry":{"x":169287.08999999985,"y":2542504.9399999976}},{"attributes":{"ID":453753,"DIS_CODE":0,"TOWNNAME":"安平區","LI":"華平里","LIN":"3鄰","STREET":"國平路","SECT":" ","MAREA":" ","LANE":"５５２巷","ALLEY":" ","HOUSE_NO":"９０號","E_COORD97":165283.66,"N_COORD97":2544120.77,"ADDRESS":"國平路５５２巷９０號","OBJECTID":453728},"geometry":{"x":165283.66000000108,"y":2544120.7700000014}},{"attributes":{"ID":453754,"DIS_CODE":0,"TOWNNAME":"安平區","LI":"文平里","LIN":"20鄰","STREET":"健康一街","SECT":" ","MAREA":" ","LANE":"５７巷","ALLEY":" ","HOUSE_NO":"３８號","E_COORD97":165831.91,"N_COORD97":2542823.5899999999,"ADDRESS":"健康一街５７巷３８號","OBJECTID":453729},"geometry":{"x":165831.91000000015,"y":2542823.5900000017}},{"attributes":{"ID":453755,"DIS_CODE":0,"TOWNNAME":"安平區","LI":"文平里","LIN":"20鄰","STREET":"健康一街","SECT":" ","MAREA":" ","LANE":"５７巷","ALLEY":" ","HOUSE_NO":"４０號","E_COORD97":165827.60999999999,"N_COORD97":2542824.1899999999,"ADDRESS":"健康一街５７巷４０號","OBJECTID":453730},"geometry":{"x":165827.61000000034,"y":2542824.1899999995}},{"attributes":{"ID":453756,"DIS_CODE":0,"TOWNNAME":"安平區","LI":"文平里","LIN":"20鄰","STREET":"健康一街","SECT":" ","MAREA":" ","LANE":"５７巷","ALLEY":" ","HOUSE_NO":"４２號","E_COORD97":165823.12,"N_COORD97":2542824.4900000002,"ADDRESS":"健康一街５７巷４２號","OBJECTID":453731},"geometry":{"x":165823.12000000104,"y":2542824.4900000039}},{"attributes":{"ID":453757,"DIS_CODE":0,"TOWNNAME":"安平區","LI":"文平里","LIN":"20鄰","STREET":"健康一街","SECT":" ","MAREA":" ","LANE":"５７巷","ALLEY":" ","HOUSE_NO":"４２號之１","E_COORD97":165819.22,"N_COORD97":2542825.4900000002,"ADDRESS":"健康一街５７巷４２號之１","OBJECTID":453732},"geometry":{"x":165819.21999999974,"y":2542825.4900000021}},{"attributes":{"ID":453758,"DIS_CODE":0,"TOWNNAME":"安平區","LI":"文平里","LIN":"20鄰","STREET":"健康一街","SECT":" ","MAREA":" ","LANE":"５７巷","ALLEY":" ","HOUSE_NO":"４６號","E_COORD97":165814.53,"N_COORD97":2542825.8799999999,"ADDRESS":"健康一街５７巷４６號","OBJECTID":453733},"geometry":{"x":165814.53000000026,"y":2542825.879999999}},{"attributes":{"ID":453759,"DIS_CODE":0,"TOWNNAME":"永康區","LI":"東灣里","LIN":"26鄰","STREET":"大灣一街","SECT":" ","MAREA":" ","LANE":"２４２巷","ALLEY":" ","HOUSE_NO":"７號","E_COORD97":174956.57000000001,"N_COORD97":2544601.2400000002,"ADDRESS":"大灣一街２４２巷７號","OBJECTID":453734},"geometry":{"x":174956.57000000216,"y":2544601.2400000002}},{"attributes":{"ID":453760,"DIS_CODE":0,"TOWNNAME":"北區","LI":"華興里","LIN":"1鄰","STREET":"開南街","SECT":" ","MAREA":" ","LANE":" ","ALLEY":" ","HOUSE_NO":"５號二樓","E_COORD97":170296.16,"N_COORD97":2545392.8599999999,"ADDRESS":"開南街５號二樓","OBJECTID":453735},"geometry":{"x":170296.16000000108,"y":2545392.8599999994}},{"attributes":{"ID":453761,"DIS_CODE":0,"TOWNNAME":"白河區","LI":"永安里","LIN":"17鄰","STREET":"七賢街","SECT":" ","MAREA":" ","LANE":"４５巷","ALLEY":" ","HOUSE_NO":"８號","E_COORD97":189952.97,"N_COORD97":2582895.3100000001,"ADDRESS":"七賢街４５巷８號","OBJECTID":453736},"geometry":{"x":189952.97000000067,"y":2582895.3100000005}},{"attributes":{"ID":453762,"DIS_CODE":0,"TOWNNAME":"安南區","LI":"州南里","LIN":"26鄰","STREET":"安和路","SECT":"四段","MAREA":" ","LANE":"５３８巷","ALLEY":" ","HOUSE_NO":"６１之５號","E_COORD97":170048.22,"N_COORD97":2551248.7599999998,"ADDRESS":"安和路四段５３８巷６１之５號","OBJECTID":453737},"geometry":{"x":170048.22000000067,"y":2551248.7600000016}},{"attributes":{"ID":453763,"DIS_CODE":0,"TOWNNAME":"新市區","LI":"港墘里","LIN":"26鄰","STREET":"華美街","SECT":" ","MAREA":" ","LANE":"３０巷","ALLEY":" ","HOUSE_NO":"１４號","E_COORD97":178190.57000000001,"N_COORD97":2552903.7999999998,"ADDRESS":"華美街３０巷１４號","OBJECTID":453738},"geometry":{"x":178190.5700000003,"y":2552903.8000000026}},{"attributes":{"ID":453764,"DIS_CODE":0,"TOWNNAME":"東區","LI":"成大里","LIN":"26鄰","STREET":"育樂街","SECT":" ","MAREA":" ","LANE":"６６巷","ALLEY":" ","HOUSE_NO":"１０號","E_COORD97":169647.75,"N_COORD97":2544060.1600000001,"ADDRESS":"育樂街６６巷１０號","OBJECTID":453739},"geometry":{"x":169647.75000000093,"y":2544060.1600000001}},{"attributes":{"ID":453765,"DIS_CODE":0,"TOWNNAME":"東區","LI":"成大里","LIN":"26鄰","STREET":"育樂街","SECT":" ","MAREA":" ","LANE":"６６巷","ALLEY":" ","HOUSE_NO":"１２號","E_COORD97":169648.78,"N_COORD97":2544070.46,"ADDRESS":"育樂街６６巷１２號","OBJECTID":453740},"geometry":{"x":169648.78000000026,"y":2544070.4600000028}},{"attributes":{"ID":453766,"DIS_CODE":0,"TOWNNAME":"東區","LI":"大福里","LIN":"26鄰","STREET":"中華東路","SECT":"三段","MAREA":" ","LANE":"５２０巷","ALLEY":" ","HOUSE_NO":"３號","E_COORD97":169684.89000000001,"N_COORD97":2541542.4300000002,"ADDRESS":"中華東路三段５２０巷３號","OBJECTID":453741},"geometry":{"x":169684.88999999966,"y":2541542.4299999978}},{"attributes":{"ID":453767,"DIS_CODE":0,"TOWNNAME":"東區","LI":"大福里","LIN":"26鄰","STREET":"中華東路","SECT":"三段","MAREA":" ","LANE":"５２０巷","ALLEY":" ","HOUSE_NO":"５號","E_COORD97":169683.88,"N_COORD97":2541546.2400000002,"ADDRESS":"中華東路三段５２０巷５號","OBJECTID":453742},"geometry":{"x":169683.88000000082,"y":2541546.2400000002}},{"attributes":{"ID":453768,"DIS_CODE":0,"TOWNNAME":"東區","LI":"大福里","LIN":"26鄰","STREET":"中華東路","SECT":"三段","MAREA":" ","LANE":"５２０巷","ALLEY":" ","HOUSE_NO":"７號","E_COORD97":169681.34,"N_COORD97":2541548.77,"ADDRESS":"中華東路三段５２０巷７號","OBJECTID":453743},"geometry":{"x":169681.34000000078,"y":2541548.7699999996}},{"attributes":{"ID":453769,"DIS_CODE":0,"TOWNNAME":"東區","LI":"大福里","LIN":"26鄰","STREET":"中華東路","SECT":"三段","MAREA":" ","LANE":"５２０巷","ALLEY":" ","HOUSE_NO":"９號","E_COORD97":169678.54999999999,"N_COORD97":2541552.3199999998,"ADDRESS":"中華東路三段５２０巷９號","OBJECTID":453744},"geometry":{"x":169678.54999999981,"y":2541552.3200000022}},{"attributes":{"ID":453770,"DIS_CODE":0,"TOWNNAME":"下營區","LI":"營前里","LIN":"26鄰","STREET":"中正南路","SECT":" ","MAREA":" ","LANE":"２０５巷","ALLEY":" ","HOUSE_NO":"４６號","E_COORD97":174854.25,"N_COORD97":2570016.21,"ADDRESS":"中正南路２０５巷４６號","OBJECTID":453745},"geometry":{"x":174854.25,"y":2570016.2100000009}},{"attributes":{"ID":453771,"DIS_CODE":0,"TOWNNAME":"下營區","LI":"營前里","LIN":"26鄰","STREET":"中正南路","SECT":" ","MAREA":" ","LANE":"２０５巷","ALLEY":" ","HOUSE_NO":"５２號","E_COORD97":174866.35000000001,"N_COORD97":2570032.5499999998,"ADDRESS":"中正南路２０５巷５２號","OBJECTID":453746},"geometry":{"x":174866.35000000056,"y":2570032.5500000045}},{"attributes":{"ID":453772,"DIS_CODE":0,"TOWNNAME":"下營區","LI":"營前里","LIN":"26鄰","STREET":"中正南路","SECT":" ","MAREA":" ","LANE":"２０５巷","ALLEY":" ","HOUSE_NO":"５６號","E_COORD97":174876.51000000001,"N_COORD97":2570035.8300000001,"ADDRESS":"中正南路２０５巷５６號","OBJECTID":453747},"geometry":{"x":174876.50999999978,"y":2570035.8300000001}},{"attributes":{"ID":453773,"DIS_CODE":0,"TOWNNAME":"下營區","LI":"營前里","LIN":"26鄰","STREET":"中正南路","SECT":" ","MAREA":" ","LANE":"２０５巷","ALLEY":" ","HOUSE_NO":"５號","E_COORD97":174823.07999999999,"N_COORD97":2570039.5,"ADDRESS":"中正南路２０５巷５號","OBJECTID":453748},"geometry":{"x":174823.08000000101,"y":2570039.5000000019}},{"attributes":{"ID":453774,"DIS_CODE":0,"TOWNNAME":"下營區","LI":"營前里","LIN":"26鄰","STREET":"中正南路","SECT":" ","MAREA":" ","LANE":"２０５巷","ALLEY":" ","HOUSE_NO":"７號","E_COORD97":174827.28,"N_COORD97":2570040.6600000001,"ADDRESS":"中正南路２０５巷７號","OBJECTID":453749},"geometry":{"x":174827.28000000026,"y":2570040.6600000001}},{"attributes":{"ID":453775,"DIS_CODE":0,"TOWNNAME":"下營區","LI":"營前里","LIN":"26鄰","STREET":"中正南路","SECT":" ","MAREA":" ","LANE":"２０５巷","ALLEY":" ","HOUSE_NO":"９號","E_COORD97":174830.88,"N_COORD97":2570042.2999999998,"ADDRESS":"中正南路２０５巷９號","OBJECTID":453750},"geometry":{"x":174830.88000000082,"y":2570042.3000000026}},{"attributes":{"ID":453776,"DIS_CODE":0,"TOWNNAME":"永康區","LI":"東灣里","LIN":"26鄰","STREET":"大灣一街","SECT":" ","MAREA":" ","LANE":"２４２巷","ALLEY":" ","HOUSE_NO":"１７號","E_COORD97":174992.66,"N_COORD97":2544596.6800000002,"ADDRESS":"大灣一街２４２巷１７號","OBJECTID":453751},"geometry":{"x":174992.66000000015,"y":2544596.6800000016}},{"attributes":{"ID":453777,"DIS_CODE":0,"TOWNNAME":"佳里區","LI":"安西里","LIN":"26鄰","STREET":"佳北路","SECT":" ","MAREA":" ","LANE":"３８２巷","ALLEY":" ","HOUSE_NO":"１１號","E_COORD97":165215.42000000001,"N_COORD97":2563461.3100000001,"ADDRESS":"佳北路３８２巷１１號","OBJECTID":453752},"geometry":{"x":165215.42000000086,"y":2563461.3100000024}},{"attributes":{"ID":453778,"DIS_CODE":0,"TOWNNAME":"佳里區","LI":"安西里","LIN":"26鄰","STREET":"佳北路","SECT":" ","MAREA":" ","LANE":"３８２巷","ALLEY":" ","HOUSE_NO":"１３號","E_COORD97":165213.72,"N_COORD97":2563474.1600000001,"ADDRESS":"佳北路３８２巷１３號","OBJECTID":453753},"geometry":{"x":165213.71999999974,"y":2563474.1600000039}},{"attributes":{"ID":453779,"DIS_CODE":0,"TOWNNAME":"佳里區","LI":"安西里","LIN":"26鄰","STREET":"佳北路","SECT":" ","MAREA":" ","LANE":"３８２巷","ALLEY":" ","HOUSE_NO":"１５號","E_COORD97":165212.51999999999,"N_COORD97":2563478.7799999998,"ADDRESS":"佳北路３８２巷１５號","OBJECTID":453754},"geometry":{"x":165212.52000000048,"y":2563478.7799999975}},{"attributes":{"ID":453780,"DIS_CODE":0,"TOWNNAME":"佳里區","LI":"安西里","LIN":"26鄰","STREET":"佳北路","SECT":" ","MAREA":" ","LANE":"３８２巷","ALLEY":" ","HOUSE_NO":"１７號","E_COORD97":165211.31,"N_COORD97":2563483.3500000001,"ADDRESS":"佳北路３８２巷１７號","OBJECTID":453755},"geometry":{"x":165211.30999999959,"y":2563483.3500000015}},{"attributes":{"ID":453781,"DIS_CODE":0,"TOWNNAME":"佳里區","LI":"安西里","LIN":"26鄰","STREET":"佳北路","SECT":" ","MAREA":" ","LANE":"３８２巷","ALLEY":" ","HOUSE_NO":"１９號","E_COORD97":165209.91,"N_COORD97":2563487.9500000002,"ADDRESS":"佳北路３８２巷１９號","OBJECTID":453756},"geometry":{"x":165209.91000000015,"y":2563487.950000003}},{"attributes":{"ID":453782,"DIS_CODE":0,"TOWNNAME":"佳里區","LI":"安西里","LIN":"26鄰","STREET":"佳北路","SECT":" ","MAREA":" ","LANE":"３８２巷","ALLEY":" ","HOUSE_NO":"２１號","E_COORD97":165208.53,"N_COORD97":2563492.29,"ADDRESS":"佳北路３８２巷２１號","OBJECTID":453757},"geometry":{"x":165208.53000000119,"y":2563492.2900000028}},{"attributes":{"ID":453783,"DIS_CODE":0,"TOWNNAME":"佳里區","LI":"安西里","LIN":"26鄰","STREET":"佳北路","SECT":" ","MAREA":" ","LANE":"３８２巷","ALLEY":" ","HOUSE_NO":"２３號","E_COORD97":165207.60999999999,"N_COORD97":2563497.1499999999,"ADDRESS":"佳北路３８２巷２３號","OBJECTID":453758},"geometry":{"x":165207.61000000127,"y":2563497.1500000004}},{"attributes":{"ID":453784,"DIS_CODE":0,"TOWNNAME":"佳里區","LI":"安西里","LIN":"26鄰","STREET":"佳北路","SECT":" ","MAREA":" ","LANE":"３８２巷","ALLEY":" ","HOUSE_NO":"２５號","E_COORD97":165206.37,"N_COORD97":2563502.0899999999,"ADDRESS":"佳北路３８２巷２５號","OBJECTID":453759},"geometry":{"x":165206.37000000011,"y":2563502.0900000017}},{"attributes":{"ID":453785,"DIS_CODE":0,"TOWNNAME":"佳里區","LI":"安西里","LIN":"26鄰","STREET":"佳北路","SECT":" ","MAREA":" ","LANE":"３８２巷","ALLEY":" ","HOUSE_NO":"２７號","E_COORD97":165205.45000000001,"N_COORD97":2563506.3900000001,"ADDRESS":"佳北路３８２巷２７號","OBJECTID":453760},"geometry":{"x":165205.45000000112,"y":2563506.3900000006}},{"attributes":{"ID":453786,"DIS_CODE":0,"TOWNNAME":"佳里區","LI":"安西里","LIN":"26鄰","STREET":"佳北路","SECT":" ","MAREA":" ","LANE":"３８２巷","ALLEY":" ","HOUSE_NO":"３號","E_COORD97":165224.34,"N_COORD97":2563443,"ADDRESS":"佳北路３８２巷３號","OBJECTID":453761},"geometry":{"x":165224.34000000078,"y":2563443}},{"attributes":{"ID":453787,"DIS_CODE":0,"TOWNNAME":"佳里區","LI":"安西里","LIN":"26鄰","STREET":"佳北路","SECT":" ","MAREA":" ","LANE":"３８２巷","ALLEY":" ","HOUSE_NO":"５號","E_COORD97":165222.10999999999,"N_COORD97":2563447.5800000001,"ADDRESS":"佳北路３８２巷５號","OBJECTID":453762},"geometry":{"x":165222.11000000034,"y":2563447.5800000019}},{"attributes":{"ID":453788,"DIS_CODE":0,"TOWNNAME":"佳里區","LI":"安西里","LIN":"26鄰","STREET":"佳北路","SECT":" ","MAREA":" ","LANE":"３８２巷","ALLEY":" ","HOUSE_NO":"７號","E_COORD97":165219.88,"N_COORD97":2563452.1600000001,"ADDRESS":"佳北路３８２巷７號","OBJECTID":453763},"geometry":{"x":165219.87999999989,"y":2563452.1600000001}},{"attributes":{"ID":453789,"DIS_CODE":0,"TOWNNAME":"佳里區","LI":"安西里","LIN":"26鄰","STREET":"佳北路","SECT":" ","MAREA":" ","LANE":"３８２巷","ALLEY":" ","HOUSE_NO":"９號","E_COORD97":165217.64999999999,"N_COORD97":2563456.73,"ADDRESS":"佳北路３８２巷９號","OBJECTID":453764},"geometry":{"x":165217.6500000013,"y":2563456.7300000042}},{"attributes":{"ID":453790,"DIS_CODE":0,"TOWNNAME":"官田區","LI":"隆田里","LIN":"26鄰","STREET":"中山路","SECT":"二段","MAREA":" ","LANE":"５３巷","ALLEY":" ","HOUSE_NO":"１２號","E_COORD97":178984.60999999999,"N_COORD97":2565919.9199999999,"ADDRESS":"中山路二段５３巷１２號","OBJECTID":453765},"geometry":{"x":178984.61000000127,"y":2565919.9200000037}},{"attributes":{"ID":453791,"DIS_CODE":0,"TOWNNAME":"官田區","LI":"隆田里","LIN":"26鄰","STREET":"中山路","SECT":"二段","MAREA":" ","LANE":"５３巷","ALLEY":" ","HOUSE_NO":"２號","E_COORD97":179003.75,"N_COORD97":2565950.8799999999,"ADDRESS":"中山路二段５３巷２號","OBJECTID":453766},"geometry":{"x":179003.75000000093,"y":2565950.8800000008}},{"attributes":{"ID":453792,"DIS_CODE":0,"TOWNNAME":"東區","LI":"崇文里","LIN":"40鄰","STREET":"生產路","SECT":" ","MAREA":" ","LANE":" ","ALLEY":" ","HOUSE_NO":"２７５號八樓","E_COORD97":170911.67999999999,"N_COORD97":2540618.3100000001,"ADDRESS":"生產路２７５號八樓","OBJECTID":453767},"geometry":{"x":170911.6799999997,"y":2540618.3100000005}},{"attributes":{"ID":453793,"DIS_CODE":0,"TOWNNAME":"新營區","LI":"新東里","LIN":"26鄰","STREET":"東興三街","SECT":" ","MAREA":" ","LANE":"２２巷","ALLEY":" ","HOUSE_NO":"５６號五樓","E_COORD97":180646.62,"N_COORD97":2579415.79,"ADDRESS":"東興三街２２巷５６號五樓","OBJECTID":453768},"geometry":{"x":180646.62000000011,"y":2579415.7899999991}},{"attributes":{"ID":453794,"DIS_CODE":0,"TOWNNAME":"新營區","LI":"新東里","LIN":"26鄰","STREET":"東興五街","SECT":" ","MAREA":" ","LANE":"２１巷","ALLEY":" ","HOUSE_NO":"４３號五樓","E_COORD97":180620.25,"N_COORD97":2579451.3500000001,"ADDRESS":"東興五街２１巷４３號五樓","OBJECTID":453769},"geometry":{"x":180620.25,"y":2579451.3500000015}},{"attributes":{"ID":453795,"DIS_CODE":0,"TOWNNAME":"新營區","LI":"新東里","LIN":"26鄰","STREET":"東興五街","SECT":" ","MAREA":" ","LANE":"２１巷","ALLEY":" ","HOUSE_NO":"３１號五樓","E_COORD97":180681.64000000001,"N_COORD97":2579453.2799999998,"ADDRESS":"東興五街２１巷３１號五樓","OBJECTID":453770},"geometry":{"x":180681.63999999966,"y":2579453.2799999993}},{"attributes":{"ID":453796,"DIS_CODE":0,"TOWNNAME":"安平區","LI":"國平里","LIN":"26鄰","STREET":"府平路","SECT":" ","MAREA":" ","LANE":"１４４巷","ALLEY":" ","HOUSE_NO":"６７號七樓之１","E_COORD97":164805.89999999999,"N_COORD97":2543273.3300000001,"ADDRESS":"府平路１４４巷６７號七樓之１","OBJECTID":453771},"geometry":{"x":164805.9000000013,"y":2543273.3300000019}},{"attributes":{"ID":453797,"DIS_CODE":0,"TOWNNAME":"安平區","LI":"國平里","LIN":"26鄰","STREET":"府平路","SECT":" ","MAREA":" ","LANE":"１４４巷","ALLEY":" ","HOUSE_NO":"６７號七樓之２","E_COORD97":164805.89999999999,"N_COORD97":2543273.3300000001,"ADDRESS":"府平路１４４巷６７號七樓之２","OBJECTID":453772},"geometry":{"x":164805.9000000013,"y":2543273.3300000019}},{"attributes":{"ID":453798,"DIS_CODE":0,"TOWNNAME":"安平區","LI":"國平里","LIN":"26鄰","STREET":"府平路","SECT":" ","MAREA":" ","LANE":"１４４巷","ALLEY":" ","HOUSE_NO":"６７號二樓之１","E_COORD97":164805.89999999999,"N_COORD97":2543273.3300000001,"ADDRESS":"府平路１４４巷６７號二樓之１","OBJECTID":453773},"geometry":{"x":164805.9000000013,"y":2543273.3300000019}},{"attributes":{"ID":453799,"DIS_CODE":0,"TOWNNAME":"安平區","LI":"國平里","LIN":"26鄰","STREET":"府平路","SECT":" ","MAREA":" ","LANE":"１４４巷","ALLEY":" ","HOUSE_NO":"６７號二樓之２","E_COORD97":164805.89999999999,"N_COORD97":2543273.3300000001,"ADDRESS":"府平路１４４巷６７號二樓之２","OBJECTID":453774},"geometry":{"x":164805.9000000013,"y":2543273.3300000019}},{"attributes":{"ID":453800,"DIS_CODE":0,"TOWNNAME":"安平區","LI":"國平里","LIN":"26鄰","STREET":"府平路","SECT":" ","MAREA":" ","LANE":"１４４巷","ALLEY":" ","HOUSE_NO":"６７號三樓之１","E_COORD97":164805.89999999999,"N_COORD97":2543273.3300000001,"ADDRESS":"府平路１４４巷６７號三樓之１","OBJECTID":453775},"geometry":{"x":164805.9000000013,"y":2543273.3300000019}},{"attributes":{"ID":453801,"DIS_CODE":0,"TOWNNAME":"安平區","LI":"國平里","LIN":"26鄰","STREET":"府平路","SECT":" ","MAREA":" ","LANE":"１４４巷","ALLEY":" ","HOUSE_NO":"６７號三樓之２","E_COORD97":164805.89999999999,"N_COORD97":2543273.3300000001,"ADDRESS":"府平路１４４巷６７號三樓之２","OBJECTID":453776},"geometry":{"x":164805.9000000013,"y":2543273.3300000019}},{"attributes":{"ID":453802,"DIS_CODE":0,"TOWNNAME":"安平區","LI":"國平里","LIN":"26鄰","STREET":"府平路","SECT":" ","MAREA":" ","LANE":"１４４巷","ALLEY":" ","HOUSE_NO":"６７號五樓之１","E_COORD97":164805.89999999999,"N_COORD97":2543273.3300000001,"ADDRESS":"府平路１４４巷６７號五樓之１","OBJECTID":453777},"geometry":{"x":164805.9000000013,"y":2543273.3300000019}},{"attributes":{"ID":453803,"DIS_CODE":0,"TOWNNAME":"安平區","LI":"國平里","LIN":"26鄰","STREET":"府平路","SECT":" ","MAREA":" ","LANE":"１４４巷","ALLEY":" ","HOUSE_NO":"６７號五樓之２","E_COORD97":164805.89999999999,"N_COORD97":2543273.3300000001,"ADDRESS":"府平路１４４巷６７號五樓之２","OBJECTID":453778},"geometry":{"x":164805.9000000013,"y":2543273.3300000019}},{"attributes":{"ID":453804,"DIS_CODE":0,"TOWNNAME":"安平區","LI":"國平里","LIN":"26鄰","STREET":"府平路","SECT":" ","MAREA":" ","LANE":"１４４巷","ALLEY":" ","HOUSE_NO":"６７號六樓之１","E_COORD97":164805.89999999999,"N_COORD97":2543273.3300000001,"ADDRESS":"府平路１４４巷６７號六樓之１","OBJECTID":453779},"geometry":{"x":164805.9000000013,"y":2543273.3300000019}},{"attributes":{"ID":453805,"DIS_CODE":0,"TOWNNAME":"安平區","LI":"國平里","LIN":"26鄰","STREET":"府平路","SECT":" ","MAREA":" ","LANE":"１４４巷","ALLEY":" ","HOUSE_NO":"６７號六樓之２","E_COORD97":164805.89999999999,"N_COORD97":2543273.3300000001,"ADDRESS":"府平路１４４巷６７號六樓之２","OBJECTID":453780},"geometry":{"x":164805.9000000013,"y":2543273.3300000019}},{"attributes":{"ID":453806,"DIS_CODE":0,"TOWNNAME":"安平區","LI":"國平里","LIN":"26鄰","STREET":"府平路","SECT":" ","MAREA":" ","LANE":"１４４巷","ALLEY":" ","HOUSE_NO":"６７號四樓之１","E_COORD97":164805.89999999999,"N_COORD97":2543273.3300000001,"ADDRESS":"府平路１４４巷６７號四樓之１","OBJECTID":453781},"geometry":{"x":164805.9000000013,"y":2543273.3300000019}},{"attributes":{"ID":453807,"DIS_CODE":0,"TOWNNAME":"安平區","LI":"國平里","LIN":"26鄰","STREET":"府平路","SECT":" ","MAREA":" ","LANE":"１４４巷","ALLEY":" ","HOUSE_NO":"６７號四樓之２","E_COORD97":164805.89999999999,"N_COORD97":2543273.3300000001,"ADDRESS":"府平路１４４巷６７號四樓之２","OBJECTID":453782},"geometry":{"x":164805.9000000013,"y":2543273.3300000019}},{"attributes":{"ID":453808,"DIS_CODE":0,"TOWNNAME":"安平區","LI":"國平里","LIN":"26鄰","STREET":"府平路","SECT":" ","MAREA":" ","LANE":"１４４巷","ALLEY":" ","HOUSE_NO":"７１號七樓之１","E_COORD97":164800.22,"N_COORD97":2543278.7599999998,"ADDRESS":"府平路１４４巷７１號七樓之１","OBJECTID":453783},"geometry":{"x":164800.21999999974,"y":2543278.7599999998}},{"attributes":{"ID":453809,"DIS_CODE":0,"TOWNNAME":"安平區","LI":"國平里","LIN":"26鄰","STREET":"府平路","SECT":" ","MAREA":" ","LANE":"１４４巷","ALLEY":" ","HOUSE_NO":"７１號七樓之２","E_COORD97":164800.22,"N_COORD97":2543278.7599999998,"ADDRESS":"府平路１４４巷７１號七樓之２","OBJECTID":453784},"geometry":{"x":164800.21999999974,"y":2543278.7599999998}},{"attributes":{"ID":453810,"DIS_CODE":0,"TOWNNAME":"安平區","LI":"國平里","LIN":"26鄰","STREET":"府平路","SECT":" ","MAREA":" ","LANE":"１４４巷","ALLEY":" ","HOUSE_NO":"７１號二樓之１","E_COORD97":164800.22,"N_COORD97":2543278.7599999998,"ADDRESS":"府平路１４４巷７１號二樓之１","OBJECTID":453785},"geometry":{"x":164800.21999999974,"y":2543278.7599999998}},{"attributes":{"ID":453811,"DIS_CODE":0,"TOWNNAME":"安平區","LI":"國平里","LIN":"26鄰","STREET":"府平路","SECT":" ","MAREA":" ","LANE":"１４４巷","ALLEY":" ","HOUSE_NO":"７１號二樓之２","E_COORD97":164800.22,"N_COORD97":2543278.7599999998,"ADDRESS":"府平路１４４巷７１號二樓之２","OBJECTID":453786},"geometry":{"x":164800.21999999974,"y":2543278.7599999998}},{"attributes":{"ID":453812,"DIS_CODE":0,"TOWNNAME":"安平區","LI":"國平里","LIN":"26鄰","STREET":"府平路","SECT":" ","MAREA":" ","LANE":"１４４巷","ALLEY":" ","HOUSE_NO":"７１號三樓之１","E_COORD97":164800.22,"N_COORD97":2543278.7599999998,"ADDRESS":"府平路１４４巷７１號三樓之１","OBJECTID":453787},"geometry":{"x":164800.21999999974,"y":2543278.7599999998}},{"attributes":{"ID":453813,"DIS_CODE":0,"TOWNNAME":"安平區","LI":"國平里","LIN":"26鄰","STREET":"府平路","SECT":" ","MAREA":" ","LANE":"１４４巷","ALLEY":" ","HOUSE_NO":"７１號三樓之２","E_COORD97":164800.22,"N_COORD97":2543278.7599999998,"ADDRESS":"府平路１４４巷７１號三樓之２","OBJECTID":453788},"geometry":{"x":164800.21999999974,"y":2543278.7599999998}},{"attributes":{"ID":453814,"DIS_CODE":0,"TOWNNAME":"安平區","LI":"國平里","LIN":"26鄰","STREET":"府平路","SECT":" ","MAREA":" ","LANE":"１４４巷","ALLEY":" ","HOUSE_NO":"７１號五樓之１","E_COORD97":164800.22,"N_COORD97":2543278.7599999998,"ADDRESS":"府平路１４４巷７１號五樓之１","OBJECTID":453789},"geometry":{"x":164800.21999999974,"y":2543278.7599999998}},{"attributes":{"ID":453815,"DIS_CODE":0,"TOWNNAME":"安平區","LI":"國平里","LIN":"26鄰","STREET":"府平路","SECT":" ","MAREA":" ","LANE":"１４４巷","ALLEY":" ","HOUSE_NO":"７１號五樓之２","E_COORD97":164800.22,"N_COORD97":2543278.7599999998,"ADDRESS":"府平路１４４巷７１號五樓之２","OBJECTID":453790},"geometry":{"x":164800.21999999974,"y":2543278.7599999998}},{"attributes":{"ID":453816,"DIS_CODE":0,"TOWNNAME":"安平區","LI":"國平里","LIN":"26鄰","STREET":"府平路","SECT":" ","MAREA":" ","LANE":"１４４巷","ALLEY":" ","HOUSE_NO":"７１號六樓之１","E_COORD97":164800.22,"N_COORD97":2543278.7599999998,"ADDRESS":"府平路１４４巷７１號六樓之１","OBJECTID":453791},"geometry":{"x":164800.21999999974,"y":2543278.7599999998}},{"attributes":{"ID":453817,"DIS_CODE":0,"TOWNNAME":"安平區","LI":"國平里","LIN":"26鄰","STREET":"府平路","SECT":" ","MAREA":" ","LANE":"１４４巷","ALLEY":" ","HOUSE_NO":"７１號六樓之２","E_COORD97":164800.22,"N_COORD97":2543278.7599999998,"ADDRESS":"府平路１４４巷７１號六樓之２","OBJECTID":453792},"geometry":{"x":164800.21999999974,"y":2543278.7599999998}},{"attributes":{"ID":453818,"DIS_CODE":0,"TOWNNAME":"安平區","LI":"國平里","LIN":"26鄰","STREET":"府平路","SECT":" ","MAREA":" ","LANE":"１４４巷","ALLEY":" ","HOUSE_NO":"７１號四樓之１","E_COORD97":164800.22,"N_COORD97":2543278.7599999998,"ADDRESS":"府平路１４４巷７１號四樓之１","OBJECTID":453793},"geometry":{"x":164800.21999999974,"y":2543278.7599999998}},{"attributes":{"ID":453819,"DIS_CODE":0,"TOWNNAME":"安平區","LI":"國平里","LIN":"26鄰","STREET":"府平路","SECT":" ","MAREA":" ","LANE":"１４４巷","ALLEY":" ","HOUSE_NO":"７１號四樓之２","E_COORD97":164800.22,"N_COORD97":2543278.7599999998,"ADDRESS":"府平路１４４巷７１號四樓之２","OBJECTID":453794},"geometry":{"x":164800.21999999974,"y":2543278.7599999998}},{"attributes":{"ID":453820,"DIS_CODE":0,"TOWNNAME":"南區","LI":"府南里","LIN":"26鄰","STREET":"大成路","SECT":"二段","MAREA":" ","LANE":"８１巷","ALLEY":" ","HOUSE_NO":"６４號四樓","E_COORD97":167349.20000000001,"N_COORD97":2541602.7799999998,"ADDRESS":"大成路二段８１巷６４號四樓","OBJECTID":453795},"geometry":{"x":167349.19999999925,"y":2541602.7799999993}},{"attributes":{"ID":453821,"DIS_CODE":0,"TOWNNAME":"南區","LI":"府南里","LIN":"26鄰","STREET":"大成路","SECT":"二段","MAREA":" ","LANE":"８１巷","ALLEY":" ","HOUSE_NO":"５０號二樓","E_COORD97":167364.54999999999,"N_COORD97":2541606.0099999998,"ADDRESS":"大成路二段８１巷５０號二樓","OBJECTID":453796},"geometry":{"x":167364.54999999981,"y":2541606.0099999998}},{"attributes":{"ID":453822,"DIS_CODE":0,"TOWNNAME":"南區","LI":"府南里","LIN":"26鄰","STREET":"大成路","SECT":"二段","MAREA":" ","LANE":"８１巷","ALLEY":" ","HOUSE_NO":"５０號三樓","E_COORD97":167364.54999999999,"N_COORD97":2541606.0099999998,"ADDRESS":"大成路二段８１巷５０號三樓","OBJECTID":453797},"geometry":{"x":167364.54999999981,"y":2541606.0099999998}},{"attributes":{"ID":453823,"DIS_CODE":0,"TOWNNAME":"南區","LI":"府南里","LIN":"26鄰","STREET":"大成路","SECT":"二段","MAREA":" ","LANE":"８１巷","ALLEY":" ","HOUSE_NO":"５０號五樓","E_COORD97":167364.54999999999,"N_COORD97":2541606.0099999998,"ADDRESS":"大成路二段８１巷５０號五樓","OBJECTID":453798},"geometry":{"x":167364.54999999981,"y":2541606.0099999998}},{"attributes":{"ID":453824,"DIS_CODE":0,"TOWNNAME":"南區","LI":"府南里","LIN":"26鄰","STREET":"大成路","SECT":"二段","MAREA":" ","LANE":"８１巷","ALLEY":" ","HOUSE_NO":"５０號四樓","E_COORD97":167364.54999999999,"N_COORD97":2541606.0099999998,"ADDRESS":"大成路二段８１巷５０號四樓","OBJECTID":453799},"geometry":{"x":167364.54999999981,"y":2541606.0099999998}},{"attributes":{"ID":453825,"DIS_CODE":0,"TOWNNAME":"南區","LI":"府南里","LIN":"26鄰","STREET":"大成路","SECT":"二段","MAREA":" ","LANE":"８１巷","ALLEY":" ","HOUSE_NO":"５２號二樓","E_COORD97":167357.91,"N_COORD97":2541608.0800000001,"ADDRESS":"大成路二段８１巷５２號二樓","OBJECTID":453800},"geometry":{"x":167357.90999999922,"y":2541608.0800000019}}]}