{"displayFieldName":"TOWNNAME","fieldAliases":{"ID":"ID","DIS_CODE":"DIS_CODE","TOWNNAME":"TOWNNAME","LI":"LI","LIN":"LIN","STREET":"STREET","SECT":"SECT","MAREA":"MAREA","LANE":"LANE","ALLEY":"ALLEY","HOUSE_NO":"HOUSE_NO","E_COORD97":"E_COORD97","N_COORD97":"N_COORD97","ADDRESS":"ADDRESS","OBJECTID":"OBJECTID"},"geometryType":"esriGeometryPoint","spatialReference":{"wkid":102443,"latestWkid":3826},"fields":[{"name":"ID","type":"esriFieldTypeDouble","alias":"ID"},{"name":"DIS_CODE","type":"esriFieldTypeInteger","alias":"DIS_CODE"},{"name":"TOWNNAME","type":"esriFieldTypeString","alias":"TOWNNAME","length":8},{"name":"LI","type":"esriFieldTypeString","alias":"LI","length":8},{"name":"LIN","type":"esriFieldTypeString","alias":"LIN","length":12},{"name":"STREET","type":"esriFieldTypeString","alias":"STREET","length":20},{"name":"SECT","type":"esriFieldTypeString","alias":"SECT","length":8},{"name":"MAREA","type":"esriFieldTypeString","alias":"MAREA","length":12},{"name":"LANE","type":"esriFieldTypeString","alias":"LANE","length":10},{"name":"ALLEY","type":"esriFieldTypeString","alias":"ALLEY","length":10},{"name":"HOUSE_NO","type":"esriFieldTypeString","alias":"HOUSE_NO","length":20},{"name":"E_COORD97","type":"esriFieldTypeDouble","alias":"E_COORD97"},{"name":"N_COORD97","type":"esriFieldTypeDouble","alias":"N_COORD97"},{"name":"ADDRESS","type":"esriFieldTypeString","alias":"ADDRESS","length":50},{"name":"OBJECTID","type":"esriFieldTypeOID","alias":"OBJECTID"}],"features":[{"attributes":{"ID":86201,"DIS_CODE":0,"TOWNNAME":"下營區","LI":"大屯里","LIN":"12鄰","STREET":" ","SECT":" ","MAREA":"大屯寮","LANE":" ","ALLEY":" ","HOUSE_NO":"９９號之１","E_COORD97":172257.85000000001,"N_COORD97":2570560.8599999999,"ADDRESS":"大屯寮９９號之１","OBJECTID":86201},"geometry":{"x":172257.84999999963,"y":2570560.8599999975}},{"attributes":{"ID":86202,"DIS_CODE":0,"TOWNNAME":"下營區","LI":"大屯里","LIN":"12鄰","STREET":" ","SECT":" ","MAREA":"大屯寮","LANE":" ","ALLEY":" ","HOUSE_NO":"９９號之３","E_COORD97":172293.79000000001,"N_COORD97":2570588.54,"ADDRESS":"大屯寮９９號之３","OBJECTID":86202},"geometry":{"x":172293.79000000097,"y":2570588.5399999991}},{"attributes":{"ID":86203,"DIS_CODE":0,"TOWNNAME":"下營區","LI":"大屯里","LIN":"12鄰","STREET":" ","SECT":" ","MAREA":"大屯寮","LANE":" ","ALLEY":" ","HOUSE_NO":"９９號之５","E_COORD97":172259.66,"N_COORD97":2570584.6099999999,"ADDRESS":"大屯寮９９號之５","OBJECTID":86203},"geometry":{"x":172259.66000000015,"y":2570584.6100000013}},{"attributes":{"ID":86204,"DIS_CODE":0,"TOWNNAME":"下營區","LI":"大屯里","LIN":"12鄰","STREET":" ","SECT":" ","MAREA":"大屯寮","LANE":" ","ALLEY":" ","HOUSE_NO":"９９號","E_COORD97":172270.29999999999,"N_COORD97":2570590.8799999999,"ADDRESS":"大屯寮９９號","OBJECTID":86204},"geometry":{"x":172270.29999999981,"y":2570590.8800000027}},{"attributes":{"ID":86205,"DIS_CODE":0,"TOWNNAME":"新市區","LI":"豐華里","LIN":"12鄰","STREET":" ","SECT":" ","MAREA":"豐華","LANE":" ","ALLEY":" ","HOUSE_NO":"４７之１３０號","E_COORD97":174241.73000000001,"N_COORD97":2554449.5499999998,"ADDRESS":"豐華４７之１３０號","OBJECTID":86205},"geometry":{"x":174241.73000000045,"y":2554449.5500000007}},{"attributes":{"ID":86206,"DIS_CODE":0,"TOWNNAME":"仁德區","LI":"二行里","LIN":"12鄰","STREET":"行大街","SECT":" ","MAREA":" ","LANE":"１７２巷","ALLEY":"４８弄","HOUSE_NO":"８號","E_COORD97":169920.95000000001,"N_COORD97":2535195.6499999999,"ADDRESS":"行大街１７２巷４８弄８號","OBJECTID":86206},"geometry":{"x":169920.95000000205,"y":2535195.6500000022}},{"attributes":{"ID":86207,"DIS_CODE":0,"TOWNNAME":"仁德區","LI":"上崙里","LIN":"12鄰","STREET":"德崙路","SECT":" ","MAREA":" ","LANE":"９２５巷","ALLEY":"８０弄","HOUSE_NO":"２１６號","E_COORD97":174245.88,"N_COORD97":2536982.5,"ADDRESS":"德崙路９２５巷８０弄２１６號","OBJECTID":86207},"geometry":{"x":174245.88000000082,"y":2536982.5000000037}},{"attributes":{"ID":86208,"DIS_CODE":0,"TOWNNAME":"新市區","LI":"豐華里","LIN":"12鄰","STREET":" ","SECT":" ","MAREA":"豐華","LANE":" ","ALLEY":" ","HOUSE_NO":"４７之１１８號","E_COORD97":174218.95999999999,"N_COORD97":2554479.2999999998,"ADDRESS":"豐華４７之１１８號","OBJECTID":86208},"geometry":{"x":174218.95999999996,"y":2554479.3000000026}},{"attributes":{"ID":86209,"DIS_CODE":0,"TOWNNAME":"新市區","LI":"豐華里","LIN":"12鄰","STREET":" ","SECT":" ","MAREA":"豐華","LANE":" ","ALLEY":" ","HOUSE_NO":"４７之１３１號","E_COORD97":174242.79000000001,"N_COORD97":2554453.5499999998,"ADDRESS":"豐華４７之１３１號","OBJECTID":86209},"geometry":{"x":174242.78999999911,"y":2554453.5500000045}},{"attributes":{"ID":86210,"DIS_CODE":0,"TOWNNAME":"仁德區","LI":"上崙里","LIN":"12鄰","STREET":"德崙路","SECT":" ","MAREA":" ","LANE":"５３９巷","ALLEY":"７１弄","HOUSE_NO":"３９５號","E_COORD97":175074.67999999999,"N_COORD97":2538057.75,"ADDRESS":"德崙路５３９巷７１弄３９５號","OBJECTID":86210},"geometry":{"x":175074.68000000063,"y":2538057.75}},{"attributes":{"ID":86211,"DIS_CODE":0,"TOWNNAME":"新市區","LI":"大營里","LIN":"12鄰","STREET":" ","SECT":" ","MAREA":"大營","LANE":" ","ALLEY":" ","HOUSE_NO":"２４５號","E_COORD97":179203.84,"N_COORD97":2555583.75,"ADDRESS":"大營２４５號","OBJECTID":86211},"geometry":{"x":179203.83999999985,"y":2555583.7500000037}},{"attributes":{"ID":86212,"DIS_CODE":0,"TOWNNAME":"仁德區","LI":"二行里","LIN":"12鄰","STREET":"行大街","SECT":" ","MAREA":" ","LANE":"１７２巷","ALLEY":"２８弄","HOUSE_NO":"３０號","E_COORD97":169934.14999999999,"N_COORD97":2535237.75,"ADDRESS":"行大街１７２巷２８弄３０號","OBJECTID":86212},"geometry":{"x":169934.15000000037,"y":2535237.75}},{"attributes":{"ID":86213,"DIS_CODE":0,"TOWNNAME":"仁德區","LI":"二行里","LIN":"12鄰","STREET":"行大街","SECT":" ","MAREA":" ","LANE":"１７２巷","ALLEY":"２８弄","HOUSE_NO":"２６號","E_COORD97":169955.57000000001,"N_COORD97":2535232,"ADDRESS":"行大街１７２巷２８弄２６號","OBJECTID":86213},"geometry":{"x":169955.5700000003,"y":2535232}},{"attributes":{"ID":86214,"DIS_CODE":0,"TOWNNAME":"新市區","LI":"大社里","LIN":"12鄰","STREET":" ","SECT":" ","MAREA":"大社","LANE":" ","ALLEY":" ","HOUSE_NO":"３１７號","E_COORD97":180120.10000000001,"N_COORD97":2554560.75,"ADDRESS":"大社３１７號","OBJECTID":86214},"geometry":{"x":180120.09999999963,"y":2554560.7500000019}},{"attributes":{"ID":86215,"DIS_CODE":0,"TOWNNAME":"新市區","LI":"大社里","LIN":"12鄰","STREET":" ","SECT":" ","MAREA":"大社","LANE":" ","ALLEY":" ","HOUSE_NO":"３１７號之１","E_COORD97":180127.42000000001,"N_COORD97":2554531.5499999998,"ADDRESS":"大社３１７號之１","OBJECTID":86215},"geometry":{"x":180127.41999999993,"y":2554531.5500000045}},{"attributes":{"ID":86216,"DIS_CODE":0,"TOWNNAME":"新市區","LI":"社內里","LIN":"12鄰","STREET":" ","SECT":" ","MAREA":"社內","LANE":" ","ALLEY":" ","HOUSE_NO":"１２４之１號","E_COORD97":176483.07999999999,"N_COORD97":2552650.7999999998,"ADDRESS":"社內１２４之１號","OBJECTID":86216},"geometry":{"x":176483.08000000007,"y":2552650.8000000007}},{"attributes":{"ID":86217,"DIS_CODE":0,"TOWNNAME":"新市區","LI":"社內里","LIN":"12鄰","STREET":" ","SECT":" ","MAREA":"社內","LANE":" ","ALLEY":" ","HOUSE_NO":"１３４號","E_COORD97":176374.56,"N_COORD97":2552743.25,"ADDRESS":"社內１３４號","OBJECTID":86217},"geometry":{"x":176374.55999999959,"y":2552743.2500000019}},{"attributes":{"ID":86218,"DIS_CODE":0,"TOWNNAME":"新市區","LI":"大社里","LIN":"12鄰","STREET":" ","SECT":" ","MAREA":"大社","LANE":" ","ALLEY":" ","HOUSE_NO":"４０３號","E_COORD97":180236.73000000001,"N_COORD97":2554657.75,"ADDRESS":"大社４０３號","OBJECTID":86218},"geometry":{"x":180236.73000000138,"y":2554657.75}},{"attributes":{"ID":86219,"DIS_CODE":0,"TOWNNAME":"新市區","LI":"社內里","LIN":"12鄰","STREET":" ","SECT":" ","MAREA":"社內","LANE":" ","ALLEY":" ","HOUSE_NO":"１３３號","E_COORD97":176382.92000000001,"N_COORD97":2552704.5,"ADDRESS":"社內１３３號","OBJECTID":86219},"geometry":{"x":176382.92000000179,"y":2552704.5000000019}},{"attributes":{"ID":86220,"DIS_CODE":0,"TOWNNAME":"新市區","LI":"大社里","LIN":"12鄰","STREET":" ","SECT":" ","MAREA":"大社","LANE":" ","ALLEY":" ","HOUSE_NO":"３１５號","E_COORD97":180155.56,"N_COORD97":2554580.5,"ADDRESS":"大社３１５號","OBJECTID":86220},"geometry":{"x":180155.56000000052,"y":2554580.5}},{"attributes":{"ID":86221,"DIS_CODE":0,"TOWNNAME":"新市區","LI":"社內里","LIN":"12鄰","STREET":" ","SECT":" ","MAREA":"社內","LANE":" ","ALLEY":" ","HOUSE_NO":"１２９號","E_COORD97":176439.72,"N_COORD97":2552678.25,"ADDRESS":"社內１２９號","OBJECTID":86221},"geometry":{"x":176439.71999999974,"y":2552678.2500000037}},{"attributes":{"ID":86222,"DIS_CODE":0,"TOWNNAME":"仁德區","LI":"二行里","LIN":"12鄰","STREET":"行大街","SECT":" ","MAREA":" ","LANE":"１７２巷","ALLEY":"２８弄","HOUSE_NO":"１７號","E_COORD97":169945.57000000001,"N_COORD97":2535200.6099999999,"ADDRESS":"行大街１７２巷２８弄１７號","OBJECTID":86222},"geometry":{"x":169945.57000000216,"y":2535200.6099999994}},{"attributes":{"ID":86223,"DIS_CODE":0,"TOWNNAME":"仁德區","LI":"二行里","LIN":"12鄰","STREET":"行大街","SECT":" ","MAREA":" ","LANE":"１７２巷","ALLEY":"２８弄","HOUSE_NO":"１５號","E_COORD97":169945.48000000001,"N_COORD97":2535195.9900000002,"ADDRESS":"行大街１７２巷２８弄１５號","OBJECTID":86223},"geometry":{"x":169945.48000000138,"y":2535195.9900000039}},{"attributes":{"ID":86224,"DIS_CODE":0,"TOWNNAME":"新市區","LI":"大社里","LIN":"12鄰","STREET":" ","SECT":" ","MAREA":"大社","LANE":" ","ALLEY":" ","HOUSE_NO":"３１３號","E_COORD97":180120.04000000001,"N_COORD97":2554625.5,"ADDRESS":"大社３１３號","OBJECTID":86224},"geometry":{"x":180120.0400000019,"y":2554625.5}},{"attributes":{"ID":86225,"DIS_CODE":0,"TOWNNAME":"新市區","LI":"大營里","LIN":"12鄰","STREET":" ","SECT":" ","MAREA":"大營","LANE":" ","ALLEY":" ","HOUSE_NO":"２３９號","E_COORD97":179239.37,"N_COORD97":2555605,"ADDRESS":"大營２３９號","OBJECTID":86225},"geometry":{"x":179239.37000000011,"y":2555605}},{"attributes":{"ID":86226,"DIS_CODE":0,"TOWNNAME":"新市區","LI":"社內里","LIN":"12鄰","STREET":" ","SECT":" ","MAREA":"社內","LANE":" ","ALLEY":" ","HOUSE_NO":"１２５之７號","E_COORD97":176459.39999999999,"N_COORD97":2552741.2999999998,"ADDRESS":"社內１２５之７號","OBJECTID":86226},"geometry":{"x":176459.40000000037,"y":2552741.3000000026}},{"attributes":{"ID":86227,"DIS_CODE":0,"TOWNNAME":"仁德區","LI":"二行里","LIN":"12鄰","STREET":"行大街","SECT":" ","MAREA":" ","LANE":"１７２巷","ALLEY":"２８弄","HOUSE_NO":"２１號","E_COORD97":169946.12,"N_COORD97":2535210.7999999998,"ADDRESS":"行大街１７２巷２８弄２１號","OBJECTID":86227},"geometry":{"x":169946.12000000011,"y":2535210.8000000007}},{"attributes":{"ID":86228,"DIS_CODE":0,"TOWNNAME":"仁德區","LI":"二行里","LIN":"12鄰","STREET":"行大街","SECT":" ","MAREA":" ","LANE":"１７２巷","ALLEY":"２８弄","HOUSE_NO":"３號","E_COORD97":169941.81,"N_COORD97":2535169,"ADDRESS":"行大街１７２巷２８弄３號","OBJECTID":86228},"geometry":{"x":169941.81000000052,"y":2535169.0000000019}},{"attributes":{"ID":86229,"DIS_CODE":0,"TOWNNAME":"安平區","LI":"億載里","LIN":"13鄰","STREET":"光州五街","SECT":" ","MAREA":" ","LANE":" ","ALLEY":" ","HOUSE_NO":"８４號","E_COORD97":164143.01999999999,"N_COORD97":2543299.4199999999,"ADDRESS":"光州五街８４號","OBJECTID":86229},"geometry":{"x":164143.02000000048,"y":2543299.4200000037}},{"attributes":{"ID":86230,"DIS_CODE":0,"TOWNNAME":"安平區","LI":"億載里","LIN":"13鄰","STREET":"光州五街","SECT":" ","MAREA":" ","LANE":" ","ALLEY":" ","HOUSE_NO":"８６號","E_COORD97":164147.85000000001,"N_COORD97":2543300.02,"ADDRESS":"光州五街８６號","OBJECTID":86230},"geometry":{"x":164147.85000000056,"y":2543300.0199999996}},{"attributes":{"ID":86231,"DIS_CODE":0,"TOWNNAME":"南區","LI":"白雪里","LIN":" ","STREET":"鹽埕路","SECT":" ","MAREA":" ","LANE":" ","ALLEY":" ","HOUSE_NO":"１６９號","E_COORD97":166828.37,"N_COORD97":2541059.6600000001,"ADDRESS":"鹽埕路１６９號","OBJECTID":86231},"geometry":{"x":166828.37000000104,"y":2541059.6600000001}},{"attributes":{"ID":86232,"DIS_CODE":0,"TOWNNAME":"南區","LI":"白雪里","LIN":" ","STREET":"鹽埕路","SECT":" ","MAREA":" ","LANE":" ","ALLEY":" ","HOUSE_NO":"１１１號之１","E_COORD97":166736.45999999999,"N_COORD97":2540877.8599999999,"ADDRESS":"鹽埕路１１１號之１","OBJECTID":86232},"geometry":{"x":166736.45999999996,"y":2540877.8599999994}},{"attributes":{"ID":86233,"DIS_CODE":0,"TOWNNAME":"南區","LI":"白雪里","LIN":" ","STREET":"鹽埕路","SECT":" ","MAREA":" ","LANE":" ","ALLEY":" ","HOUSE_NO":"１１１號之２","E_COORD97":166741.87,"N_COORD97":2540876.0499999998,"ADDRESS":"鹽埕路１１１號之２","OBJECTID":86233},"geometry":{"x":166741.87000000104,"y":2540876.0500000026}},{"attributes":{"ID":86234,"DIS_CODE":0,"TOWNNAME":"南區","LI":"白雪里","LIN":" ","STREET":"鹽埕路","SECT":" ","MAREA":" ","LANE":" ","ALLEY":" ","HOUSE_NO":"１１１號之３","E_COORD97":166746.35000000001,"N_COORD97":2540875.4500000002,"ADDRESS":"鹽埕路１１１號之３","OBJECTID":86234},"geometry":{"x":166746.35000000056,"y":2540875.4500000011}},{"attributes":{"ID":86235,"DIS_CODE":0,"TOWNNAME":"南區","LI":"白雪里","LIN":" ","STREET":"鹽埕路","SECT":" ","MAREA":" ","LANE":" ","ALLEY":" ","HOUSE_NO":"１１１號之４","E_COORD97":166751.10999999999,"N_COORD97":2540873.6400000001,"ADDRESS":"鹽埕路１１１號之４","OBJECTID":86235},"geometry":{"x":166751.11000000034,"y":2540873.6400000006}},{"attributes":{"ID":86236,"DIS_CODE":0,"TOWNNAME":"南區","LI":"白雪里","LIN":" ","STREET":"鹽埕路","SECT":" ","MAREA":" ","LANE":" ","ALLEY":" ","HOUSE_NO":"１１１號之５","E_COORD97":166756.23000000001,"N_COORD97":2540872.4199999999,"ADDRESS":"鹽埕路１１１號之５","OBJECTID":86236},"geometry":{"x":166756.23000000138,"y":2540872.4200000018}},{"attributes":{"ID":86237,"DIS_CODE":0,"TOWNNAME":"南區","LI":"白雪里","LIN":" ","STREET":"鹽埕路","SECT":" ","MAREA":" ","LANE":" ","ALLEY":" ","HOUSE_NO":"１１１號之６","E_COORD97":166764.59,"N_COORD97":2540871.77,"ADDRESS":"鹽埕路１１１號之６","OBJECTID":86237},"geometry":{"x":166764.58999999985,"y":2540871.7699999996}},{"attributes":{"ID":86238,"DIS_CODE":0,"TOWNNAME":"南區","LI":"白雪里","LIN":" ","STREET":"鹽埕路","SECT":" ","MAREA":" ","LANE":" ","ALLEY":" ","HOUSE_NO":"１１１號之７","E_COORD97":166769.06,"N_COORD97":2540871.6200000001,"ADDRESS":"鹽埕路１１１號之７","OBJECTID":86238},"geometry":{"x":166769.05999999959,"y":2540871.6200000048}},{"attributes":{"ID":86239,"DIS_CODE":0,"TOWNNAME":"南區","LI":"白雪里","LIN":" ","STREET":"鹽埕路","SECT":" ","MAREA":" ","LANE":" ","ALLEY":" ","HOUSE_NO":"１１１號之８","E_COORD97":166762.06,"N_COORD97":2540860.9100000001,"ADDRESS":"鹽埕路１１１號之８","OBJECTID":86239},"geometry":{"x":166762.06000000052,"y":2540860.9100000001}},{"attributes":{"ID":86240,"DIS_CODE":0,"TOWNNAME":"仁德區","LI":"二行里","LIN":"12鄰","STREET":"行大街","SECT":" ","MAREA":" ","LANE":"１７２巷","ALLEY":"２８弄","HOUSE_NO":"１１號","E_COORD97":169944.51000000001,"N_COORD97":2535187.5099999998,"ADDRESS":"行大街１７２巷２８弄１１號","OBJECTID":86240},"geometry":{"x":169944.51000000071,"y":2535187.5099999998}},{"attributes":{"ID":86241,"DIS_CODE":0,"TOWNNAME":"仁德區","LI":"二行里","LIN":"12鄰","STREET":"行大街","SECT":" ","MAREA":" ","LANE":"１７２巷","ALLEY":"２８弄","HOUSE_NO":"３８號","E_COORD97":169912.98999999999,"N_COORD97":2535228.5,"ADDRESS":"行大街１７２巷２８弄３８號","OBJECTID":86241},"geometry":{"x":169912.99000000115,"y":2535228.5}},{"attributes":{"ID":86242,"DIS_CODE":0,"TOWNNAME":"仁德區","LI":"二行里","LIN":"12鄰","STREET":"行大街","SECT":" ","MAREA":" ","LANE":"１７２巷","ALLEY":"２８弄","HOUSE_NO":"７號","E_COORD97":169942.97,"N_COORD97":2535178.5299999998,"ADDRESS":"行大街１７２巷２８弄７號","OBJECTID":86242},"geometry":{"x":169942.97000000067,"y":2535178.5300000012}},{"attributes":{"ID":86243,"DIS_CODE":0,"TOWNNAME":"新化區","LI":"武安里","LIN":"12鄰","STREET":"正新南路","SECT":" ","MAREA":" ","LANE":"８９巷","ALLEY":"３弄","HOUSE_NO":"５號","E_COORD97":178972.01999999999,"N_COORD97":2547972.25,"ADDRESS":"正新南路８９巷３弄５號","OBJECTID":86243},"geometry":{"x":178972.02000000142,"y":2547972.2500000037}},{"attributes":{"ID":86244,"DIS_CODE":0,"TOWNNAME":"新化區","LI":"豐榮里","LIN":"12鄰","STREET":"正新路","SECT":" ","MAREA":" ","LANE":"９５巷","ALLEY":"４３弄","HOUSE_NO":"５號","E_COORD97":178600.82000000001,"N_COORD97":2547933.25,"ADDRESS":"正新路９５巷４３弄５號","OBJECTID":86244},"geometry":{"x":178600.8200000003,"y":2547933.2500000019}},{"attributes":{"ID":86245,"DIS_CODE":0,"TOWNNAME":"南區","LI":"興農里","LIN":"12鄰","STREET":"明興路","SECT":" ","MAREA":" ","LANE":"１１２９巷","ALLEY":"１弄","HOUSE_NO":"２號","E_COORD97":166606.95999999999,"N_COORD97":2536543.8700000001,"ADDRESS":"明興路１１２９巷１弄２號","OBJECTID":86245},"geometry":{"x":166606.96000000089,"y":2536543.8700000048}},{"attributes":{"ID":86246,"DIS_CODE":0,"TOWNNAME":"官田區","LI":"湖山里","LIN":"15鄰","STREET":" ","SECT":" ","MAREA":"烏山頭","LANE":" ","ALLEY":" ","HOUSE_NO":"９１號之２","E_COORD97":183582.51999999999,"N_COORD97":2567977.77,"ADDRESS":"烏山頭９１號之２","OBJECTID":86246},"geometry":{"x":183582.51999999955,"y":2567977.7699999996}},{"attributes":{"ID":86247,"DIS_CODE":0,"TOWNNAME":"南區","LI":"興農里","LIN":"12鄰","STREET":"明興路","SECT":" ","MAREA":" ","LANE":"１１２９巷","ALLEY":"１弄","HOUSE_NO":"３號","E_COORD97":166588.04000000001,"N_COORD97":2536506.8300000001,"ADDRESS":"明興路１１２９巷１弄３號","OBJECTID":86247},"geometry":{"x":166588.04000000097,"y":2536506.8300000019}},{"attributes":{"ID":86248,"DIS_CODE":0,"TOWNNAME":"南區","LI":"興農里","LIN":"12鄰","STREET":"明興路","SECT":" ","MAREA":" ","LANE":"１１２９巷","ALLEY":"１弄","HOUSE_NO":"４號","E_COORD97":166606.47,"N_COORD97":2536539.75,"ADDRESS":"明興路１１２９巷１弄４號","OBJECTID":86248},"geometry":{"x":166606.47000000067,"y":2536539.7499999981}},{"attributes":{"ID":86249,"DIS_CODE":0,"TOWNNAME":"南區","LI":"興農里","LIN":"12鄰","STREET":"明興路","SECT":" ","MAREA":" ","LANE":"１１２９巷","ALLEY":"１弄","HOUSE_NO":"５號","E_COORD97":166588.29000000001,"N_COORD97":2536511.8999999999,"ADDRESS":"明興路１１２９巷１弄５號","OBJECTID":86249},"geometry":{"x":166588.29000000004,"y":2536511.9000000004}},{"attributes":{"ID":86250,"DIS_CODE":0,"TOWNNAME":"南區","LI":"興農里","LIN":"12鄰","STREET":"明興路","SECT":" ","MAREA":" ","LANE":"１１２９巷","ALLEY":"１弄","HOUSE_NO":"６號","E_COORD97":166606.95999999999,"N_COORD97":2536534.4300000002,"ADDRESS":"明興路１１２９巷１弄６號","OBJECTID":86250},"geometry":{"x":166606.96000000089,"y":2536534.4299999997}},{"attributes":{"ID":86251,"DIS_CODE":0,"TOWNNAME":"南區","LI":"興農里","LIN":"12鄰","STREET":"明興路","SECT":" ","MAREA":" ","LANE":"１１２９巷","ALLEY":"１弄","HOUSE_NO":"７號","E_COORD97":166588.29000000001,"N_COORD97":2536517.2400000002,"ADDRESS":"明興路１１２９巷１弄７號","OBJECTID":86251},"geometry":{"x":166588.29000000004,"y":2536517.2400000021}},{"attributes":{"ID":86252,"DIS_CODE":0,"TOWNNAME":"南區","LI":"興農里","LIN":"12鄰","STREET":"明興路","SECT":" ","MAREA":" ","LANE":"１１２９巷","ALLEY":"１弄","HOUSE_NO":"９號","E_COORD97":166588.29000000001,"N_COORD97":2536521.1099999999,"ADDRESS":"明興路１１２９巷１弄９號","OBJECTID":86252},"geometry":{"x":166588.29000000004,"y":2536521.1100000013}},{"attributes":{"ID":86253,"DIS_CODE":0,"TOWNNAME":"南區","LI":"興農里","LIN":"12鄰","STREET":"明興路","SECT":" ","MAREA":" ","LANE":"１１２９巷","ALLEY":"１弄","HOUSE_NO":"１０號","E_COORD97":166606.47,"N_COORD97":2536526.4399999999,"ADDRESS":"明興路１１２９巷１弄１０號","OBJECTID":86253},"geometry":{"x":166606.47000000067,"y":2536526.4399999995}},{"attributes":{"ID":86254,"DIS_CODE":0,"TOWNNAME":"南區","LI":"興農里","LIN":"12鄰","STREET":"明興路","SECT":" ","MAREA":" ","LANE":"１１２９巷","ALLEY":"１弄","HOUSE_NO":"１１號","E_COORD97":166588.76999999999,"N_COORD97":2536526.9199999999,"ADDRESS":"明興路１１２９巷１弄１１號","OBJECTID":86254},"geometry":{"x":166588.77000000142,"y":2536526.9199999999}},{"attributes":{"ID":86255,"DIS_CODE":0,"TOWNNAME":"七股區","LI":"三股里","LIN":"12鄰","STREET":" ","SECT":" ","MAREA":"三股","LANE":" ","ALLEY":" ","HOUSE_NO":"２６號之３","E_COORD97":159636.82999999999,"N_COORD97":2555476.2400000002,"ADDRESS":"三股２６號之３","OBJECTID":86255},"geometry":{"x":159636.83000000194,"y":2555476.2400000021}},{"attributes":{"ID":86256,"DIS_CODE":0,"TOWNNAME":"南區","LI":"興農里","LIN":"12鄰","STREET":"明興路","SECT":" ","MAREA":" ","LANE":"１１２９巷","ALLEY":"１弄","HOUSE_NO":"１２號","E_COORD97":166606.23000000001,"N_COORD97":2536521.8399999999,"ADDRESS":"明興路１１２９巷１弄１２號","OBJECTID":86256},"geometry":{"x":166606.23000000045,"y":2536521.8399999999}},{"attributes":{"ID":86257,"DIS_CODE":0,"TOWNNAME":"南區","LI":"興農里","LIN":"12鄰","STREET":"明興路","SECT":" ","MAREA":" ","LANE":"１１２９巷","ALLEY":"１弄","HOUSE_NO":"１４號","E_COORD97":166605.98999999999,"N_COORD97":2536516.27,"ADDRESS":"明興路１１２９巷１弄１４號","OBJECTID":86257},"geometry":{"x":166605.99000000022,"y":2536516.2700000014}},{"attributes":{"ID":86258,"DIS_CODE":0,"TOWNNAME":"南區","LI":"興農里","LIN":"12鄰","STREET":"明興路","SECT":" ","MAREA":" ","LANE":"１１２９巷","ALLEY":"１弄","HOUSE_NO":"１６號","E_COORD97":166605.26000000001,"N_COORD97":2536512.1400000001,"ADDRESS":"明興路１１２９巷１弄１６號","OBJECTID":86258},"geometry":{"x":166605.25999999978,"y":2536512.1400000025}},{"attributes":{"ID":86259,"DIS_CODE":0,"TOWNNAME":"南區","LI":"興農里","LIN":"12鄰","STREET":"明興路","SECT":" ","MAREA":" ","LANE":"１１２９巷","ALLEY":"１弄","HOUSE_NO":"１８號","E_COORD97":166605.5,"N_COORD97":2536507.5499999998,"ADDRESS":"明興路１１２９巷１弄１８號","OBJECTID":86259},"geometry":{"x":166605.5,"y":2536507.5500000007}},{"attributes":{"ID":86260,"DIS_CODE":0,"TOWNNAME":"南區","LI":"興農里","LIN":"12鄰","STREET":"明興路","SECT":" ","MAREA":" ","LANE":"１１２９巷","ALLEY":"１弄","HOUSE_NO":"２０號","E_COORD97":166605.01999999999,"N_COORD97":2536503.2000000002,"ADDRESS":"明興路１１２９巷１弄２０號","OBJECTID":86260},"geometry":{"x":166605.01999999955,"y":2536503.2000000011}},{"attributes":{"ID":86261,"DIS_CODE":0,"TOWNNAME":"安南區","LI":"理想里","LIN":"12鄰","STREET":"同安路","SECT":" ","MAREA":" ","LANE":"８０巷","ALLEY":"３１弄","HOUSE_NO":"１０號","E_COORD97":167044.72,"N_COORD97":2548883.4100000001,"ADDRESS":"同安路８０巷３１弄１０號","OBJECTID":86261},"geometry":{"x":167044.71999999974,"y":2548883.4100000039}},{"attributes":{"ID":86262,"DIS_CODE":0,"TOWNNAME":"安南區","LI":"理想里","LIN":"12鄰","STREET":"同安路","SECT":" ","MAREA":" ","LANE":"８０巷","ALLEY":"３１弄","HOUSE_NO":"１１號","E_COORD97":167034.23999999999,"N_COORD97":2548907.9399999999,"ADDRESS":"同安路８０巷３１弄１１號","OBJECTID":86262},"geometry":{"x":167034.24000000115,"y":2548907.9400000013}},{"attributes":{"ID":86263,"DIS_CODE":0,"TOWNNAME":"南區","LI":"白雪里","LIN":" ","STREET":"鹽埕路","SECT":" ","MAREA":" ","LANE":" ","ALLEY":" ","HOUSE_NO":"１１１號之９","E_COORD97":166757.60000000001,"N_COORD97":2540859.5699999998,"ADDRESS":"鹽埕路１１１號之９","OBJECTID":86263},"geometry":{"x":166757.59999999963,"y":2540859.5700000003}},{"attributes":{"ID":86264,"DIS_CODE":0,"TOWNNAME":"安南區","LI":"理想里","LIN":"12鄰","STREET":"同安路","SECT":" ","MAREA":" ","LANE":"８０巷","ALLEY":"３１弄","HOUSE_NO":"１２號","E_COORD97":167047.5,"N_COORD97":2548887.6600000001,"ADDRESS":"同安路８０巷３１弄１２號","OBJECTID":86264},"geometry":{"x":167047.50000000093,"y":2548887.6600000001}},{"attributes":{"ID":86265,"DIS_CODE":0,"TOWNNAME":"善化區","LI":"胡家里","LIN":"15鄰","STREET":" ","SECT":" ","MAREA":"胡厝寮","LANE":" ","ALLEY":" ","HOUSE_NO":"１３９之５號","E_COORD97":175336.47,"N_COORD97":2560750.0099999998,"ADDRESS":"胡厝寮１３９之５號","OBJECTID":86265},"geometry":{"x":175336.4700000016,"y":2560750.0100000016}},{"attributes":{"ID":86266,"DIS_CODE":0,"TOWNNAME":"善化區","LI":"溪美里","LIN":"15鄰","STREET":" ","SECT":" ","MAREA":"溪尾","LANE":" ","ALLEY":" ","HOUSE_NO":"１３８之１號","E_COORD97":176969.26000000001,"N_COORD97":2561365.52,"ADDRESS":"溪尾１３８之１號","OBJECTID":86266},"geometry":{"x":176969.26000000071,"y":2561365.5200000033}},{"attributes":{"ID":86267,"DIS_CODE":0,"TOWNNAME":"善化區","LI":"田寮里","LIN":"15鄰","STREET":" ","SECT":" ","MAREA":"六分寮","LANE":" ","ALLEY":" ","HOUSE_NO":"１６９之１號","E_COORD97":178744.73000000001,"N_COORD97":2561552.1699999999,"ADDRESS":"六分寮１６９之１號","OBJECTID":86267},"geometry":{"x":178744.73000000138,"y":2561552.1700000018}},{"attributes":{"ID":86268,"DIS_CODE":0,"TOWNNAME":"善化區","LI":"小新里","LIN":"15鄰","STREET":" ","SECT":" ","MAREA":"小新營","LANE":" ","ALLEY":" ","HOUSE_NO":"１１３號之２２","E_COORD97":179783.79000000001,"N_COORD97":2558069.8500000001,"ADDRESS":"小新營１１３號之２２","OBJECTID":86268},"geometry":{"x":179783.79000000004,"y":2558069.8499999996}},{"attributes":{"ID":86269,"DIS_CODE":0,"TOWNNAME":"善化區","LI":"六德里","LIN":"15鄰","STREET":" ","SECT":" ","MAREA":"六分寮","LANE":" ","ALLEY":" ","HOUSE_NO":"３２５號之１５","E_COORD97":178433.48999999999,"N_COORD97":2561480.3700000001,"ADDRESS":"六分寮３２５號之１５","OBJECTID":86269},"geometry":{"x":178433.49000000022,"y":2561480.3700000029}},{"attributes":{"ID":86270,"DIS_CODE":0,"TOWNNAME":"安南區","LI":"理想里","LIN":"12鄰","STREET":"同安路","SECT":" ","MAREA":" ","LANE":"８０巷","ALLEY":"３１弄","HOUSE_NO":"１３號","E_COORD97":167037.67999999999,"N_COORD97":2548911.3700000001,"ADDRESS":"同安路８０巷３１弄１３號","OBJECTID":86270},"geometry":{"x":167037.68000000063,"y":2548911.370000001}},{"attributes":{"ID":86271,"DIS_CODE":0,"TOWNNAME":"安南區","LI":"理想里","LIN":"12鄰","STREET":"同安路","SECT":" ","MAREA":" ","LANE":"８０巷","ALLEY":"３１弄","HOUSE_NO":"１５號","E_COORD97":167040.14000000001,"N_COORD97":2548914.1499999999,"ADDRESS":"同安路８０巷３１弄１５號","OBJECTID":86271},"geometry":{"x":167040.13999999966,"y":2548914.1500000022}},{"attributes":{"ID":86272,"DIS_CODE":0,"TOWNNAME":"安南區","LI":"理想里","LIN":"12鄰","STREET":"同安路","SECT":" ","MAREA":" ","LANE":"８０巷","ALLEY":"３１弄","HOUSE_NO":"１６號","E_COORD97":167051.10000000001,"N_COORD97":2548890.1200000001,"ADDRESS":"同安路８０巷３１弄１６號","OBJECTID":86272},"geometry":{"x":167051.10000000149,"y":2548890.1200000029}},{"attributes":{"ID":86273,"DIS_CODE":0,"TOWNNAME":"安南區","LI":"理想里","LIN":"12鄰","STREET":"同安路","SECT":" ","MAREA":" ","LANE":"８０巷","ALLEY":"３１弄","HOUSE_NO":"１７號","E_COORD97":167043.57000000001,"N_COORD97":2548917.75,"ADDRESS":"同安路８０巷３１弄１７號","OBJECTID":86273},"geometry":{"x":167043.57000000216,"y":2548917.75}},{"attributes":{"ID":86274,"DIS_CODE":0,"TOWNNAME":"安南區","LI":"理想里","LIN":"12鄰","STREET":"同安路","SECT":" ","MAREA":" ","LANE":"８０巷","ALLEY":"３１弄","HOUSE_NO":"１８號","E_COORD97":167053.39000000001,"N_COORD97":2548893.71,"ADDRESS":"同安路８０巷３１弄１８號","OBJECTID":86274},"geometry":{"x":167053.38999999966,"y":2548893.7100000028}},{"attributes":{"ID":86275,"DIS_CODE":0,"TOWNNAME":"善化區","LI":"東關里","LIN":"15鄰","STREET":"大同路","SECT":" ","MAREA":" ","LANE":" ","ALLEY":" ","HOUSE_NO":"３７４號","E_COORD97":177353.66,"N_COORD97":2559000.25,"ADDRESS":"大同路３７４號","OBJECTID":86275},"geometry":{"x":177353.66000000108,"y":2559000.25}},{"attributes":{"ID":86276,"DIS_CODE":0,"TOWNNAME":"善化區","LI":"文昌里","LIN":"15鄰","STREET":"文昌路","SECT":" ","MAREA":" ","LANE":" ","ALLEY":" ","HOUSE_NO":"８之３號","E_COORD97":177605.85000000001,"N_COORD97":2558852.2999999998,"ADDRESS":"文昌路８之３號","OBJECTID":86276},"geometry":{"x":177605.85000000056,"y":2558852.2999999989}},{"attributes":{"ID":86277,"DIS_CODE":0,"TOWNNAME":"安平區","LI":"怡平里","LIN":"14鄰","STREET":"建平十一街","SECT":" ","MAREA":" ","LANE":" ","ALLEY":" ","HOUSE_NO":"３２２號","E_COORD97":165562.82000000001,"N_COORD97":2544009.1200000001,"ADDRESS":"建平十一街３２２號","OBJECTID":86277},"geometry":{"x":165562.8200000003,"y":2544009.1200000029}},{"attributes":{"ID":86278,"DIS_CODE":0,"TOWNNAME":"新市區","LI":"大社里","LIN":"12鄰","STREET":" ","SECT":" ","MAREA":"大社","LANE":" ","ALLEY":" ","HOUSE_NO":"３１３之６號","E_COORD97":180133.04000000001,"N_COORD97":2554629.7999999998,"ADDRESS":"大社３１３之６號","OBJECTID":86278},"geometry":{"x":180133.04000000004,"y":2554629.8000000026}},{"attributes":{"ID":86279,"DIS_CODE":0,"TOWNNAME":"新市區","LI":"大營里","LIN":"12鄰","STREET":" ","SECT":" ","MAREA":"大營","LANE":" ","ALLEY":" ","HOUSE_NO":"２４３號","E_COORD97":179217.85000000001,"N_COORD97":2555558,"ADDRESS":"大營２４３號","OBJECTID":86279},"geometry":{"x":179217.85000000056,"y":2555558}},{"attributes":{"ID":86280,"DIS_CODE":0,"TOWNNAME":"新市區","LI":"大社里","LIN":"12鄰","STREET":" ","SECT":" ","MAREA":"大社","LANE":" ","ALLEY":" ","HOUSE_NO":"３１５之２號","E_COORD97":180145.26000000001,"N_COORD97":2554596.7999999998,"ADDRESS":"大社３１５之２號","OBJECTID":86280},"geometry":{"x":180145.25999999978,"y":2554596.8000000007}},{"attributes":{"ID":86281,"DIS_CODE":0,"TOWNNAME":"新市區","LI":"社內里","LIN":"12鄰","STREET":" ","SECT":" ","MAREA":"社內","LANE":" ","ALLEY":" ","HOUSE_NO":"１３０之２０號","E_COORD97":176455.25,"N_COORD97":2552402.5499999998,"ADDRESS":"社內１３０之２０號","OBJECTID":86281},"geometry":{"x":176455.25000000186,"y":2552402.5500000045}},{"attributes":{"ID":86282,"DIS_CODE":0,"TOWNNAME":"新市區","LI":"大社里","LIN":"12鄰","STREET":" ","SECT":" ","MAREA":"大社","LANE":" ","ALLEY":" ","HOUSE_NO":"３１３號之１","E_COORD97":180159.20000000001,"N_COORD97":2554634.7999999998,"ADDRESS":"大社３１３號之１","OBJECTID":86282},"geometry":{"x":180159.20000000019,"y":2554634.8000000045}},{"attributes":{"ID":86283,"DIS_CODE":0,"TOWNNAME":"七股區","LI":"十份里","LIN":"12鄰","STREET":" ","SECT":" ","MAREA":"十份","LANE":" ","ALLEY":" ","HOUSE_NO":"５７號之９","E_COORD97":157720.48000000001,"N_COORD97":2554574.27,"ADDRESS":"十份５７號之９","OBJECTID":86283},"geometry":{"x":157720.48000000045,"y":2554574.2700000014}},{"attributes":{"ID":86284,"DIS_CODE":0,"TOWNNAME":"七股區","LI":"三股里","LIN":"12鄰","STREET":" ","SECT":" ","MAREA":"三股","LANE":" ","ALLEY":" ","HOUSE_NO":"２５號之１０","E_COORD97":159626.91,"N_COORD97":2555426.6000000001,"ADDRESS":"三股２５號之１０","OBJECTID":86284},"geometry":{"x":159626.91000000108,"y":2555426.6000000015}},{"attributes":{"ID":86285,"DIS_CODE":0,"TOWNNAME":"七股區","LI":"三股里","LIN":"12鄰","STREET":" ","SECT":" ","MAREA":"三股","LANE":" ","ALLEY":" ","HOUSE_NO":"２５號之１","E_COORD97":159663.42000000001,"N_COORD97":2555327.9399999999,"ADDRESS":"三股２５號之１","OBJECTID":86285},"geometry":{"x":159663.42000000086,"y":2555327.9400000013}},{"attributes":{"ID":86286,"DIS_CODE":0,"TOWNNAME":"七股區","LI":"三股里","LIN":"12鄰","STREET":" ","SECT":" ","MAREA":"三股","LANE":" ","ALLEY":" ","HOUSE_NO":"２５號","E_COORD97":159632.79999999999,"N_COORD97":2555344.79,"ADDRESS":"三股２５號","OBJECTID":86286},"geometry":{"x":159632.79999999981,"y":2555344.7899999991}},{"attributes":{"ID":86287,"DIS_CODE":0,"TOWNNAME":"七股區","LI":"三股里","LIN":"12鄰","STREET":" ","SECT":" ","MAREA":"三股","LANE":" ","ALLEY":" ","HOUSE_NO":"２６號之１","E_COORD97":159637.20000000001,"N_COORD97":2555488.48,"ADDRESS":"三股２６號之１","OBJECTID":86287},"geometry":{"x":159637.20000000019,"y":2555488.4800000023}},{"attributes":{"ID":86288,"DIS_CODE":0,"TOWNNAME":"中西區","LI":"藥王里","LIN":"15鄰","STREET":"民權路","SECT":"三段","MAREA":" ","LANE":" ","ALLEY":" ","HOUSE_NO":"３８８號","E_COORD97":166873.19,"N_COORD97":2544397.8399999999,"ADDRESS":"民權路三段３８８號","OBJECTID":86288},"geometry":{"x":166873.19000000227,"y":2544397.8399999999}},{"attributes":{"ID":86289,"DIS_CODE":0,"TOWNNAME":"中西區","LI":"藥王里","LIN":"15鄰","STREET":"民權路","SECT":"三段","MAREA":" ","LANE":" ","ALLEY":" ","HOUSE_NO":"４０４號之１","E_COORD97":166836.66,"N_COORD97":2544426.04,"ADDRESS":"民權路三段４０４號之１","OBJECTID":86289},"geometry":{"x":166836.66000000108,"y":2544426.0399999991}},{"attributes":{"ID":86290,"DIS_CODE":0,"TOWNNAME":"中西區","LI":"開山里","LIN":"15鄰","STREET":"大埔街","SECT":" ","MAREA":" ","LANE":" ","ALLEY":" ","HOUSE_NO":"１６號","E_COORD97":168987.85000000001,"N_COORD97":2543052.27,"ADDRESS":"大埔街１６號","OBJECTID":86290},"geometry":{"x":168987.84999999963,"y":2543052.2700000033}},{"attributes":{"ID":86291,"DIS_CODE":0,"TOWNNAME":"新市區","LI":"大社里","LIN":"15鄰","STREET":" ","SECT":" ","MAREA":"大社","LANE":" ","ALLEY":" ","HOUSE_NO":"５７５號","E_COORD97":179968.26000000001,"N_COORD97":2554460.75,"ADDRESS":"大社５７５號","OBJECTID":86291},"geometry":{"x":179968.26000000071,"y":2554460.75}},{"attributes":{"ID":86292,"DIS_CODE":0,"TOWNNAME":"新市區","LI":"大社里","LIN":"15鄰","STREET":" ","SECT":" ","MAREA":"大社","LANE":" ","ALLEY":" ","HOUSE_NO":"５７０號","E_COORD97":180014.67999999999,"N_COORD97":2554498,"ADDRESS":"大社５７０號","OBJECTID":86292},"geometry":{"x":180014.6799999997,"y":2554498.0000000019}},{"attributes":{"ID":86293,"DIS_CODE":0,"TOWNNAME":"新市區","LI":"大營里","LIN":"15鄰","STREET":" ","SECT":" ","MAREA":"大營","LANE":" ","ALLEY":" ","HOUSE_NO":"２９５之８號","E_COORD97":179062.89999999999,"N_COORD97":2555410.5499999998,"ADDRESS":"大營２９５之８號","OBJECTID":86293},"geometry":{"x":179062.90000000037,"y":2555410.5500000026}},{"attributes":{"ID":86294,"DIS_CODE":0,"TOWNNAME":"新市區","LI":"大營里","LIN":"15鄰","STREET":" ","SECT":" ","MAREA":"大營","LANE":" ","ALLEY":" ","HOUSE_NO":"２７７之１號","E_COORD97":179066.82000000001,"N_COORD97":2555541.7999999998,"ADDRESS":"大營２７７之１號","OBJECTID":86294},"geometry":{"x":179066.8200000003,"y":2555541.8000000026}},{"attributes":{"ID":86295,"DIS_CODE":0,"TOWNNAME":"新市區","LI":"大社里","LIN":"15鄰","STREET":" ","SECT":" ","MAREA":"大社","LANE":" ","ALLEY":" ","HOUSE_NO":"６１４號","E_COORD97":180012.76999999999,"N_COORD97":2554425,"ADDRESS":"大社６１４號","OBJECTID":86295},"geometry":{"x":180012.76999999955,"y":2554425}},{"attributes":{"ID":86296,"DIS_CODE":0,"TOWNNAME":"新市區","LI":"大社里","LIN":"15鄰","STREET":" ","SECT":" ","MAREA":"大社","LANE":" ","ALLEY":" ","HOUSE_NO":"６２０號","E_COORD97":180037.45000000001,"N_COORD97":2554446.25,"ADDRESS":"大社６２０號","OBJECTID":86296},"geometry":{"x":180037.45000000019,"y":2554446.2500000019}},{"attributes":{"ID":86297,"DIS_CODE":0,"TOWNNAME":"安南區","LI":"理想里","LIN":"12鄰","STREET":"同安路","SECT":" ","MAREA":" ","LANE":"８０巷","ALLEY":"３１弄","HOUSE_NO":"１９號","E_COORD97":167047.01000000001,"N_COORD97":2548919.0600000001,"ADDRESS":"同安路８０巷３１弄１９號","OBJECTID":86297},"geometry":{"x":167047.01000000071,"y":2548919.0600000005}},{"attributes":{"ID":86298,"DIS_CODE":0,"TOWNNAME":"安南區","LI":"理想里","LIN":"12鄰","STREET":"同安路","SECT":" ","MAREA":" ","LANE":"８０巷","ALLEY":"３１弄","HOUSE_NO":"１號","E_COORD97":167017.70999999999,"N_COORD97":2548895.5099999998,"ADDRESS":"同安路８０巷３１弄１號","OBJECTID":86298},"geometry":{"x":167017.70999999996,"y":2548895.5099999998}},{"attributes":{"ID":86299,"DIS_CODE":0,"TOWNNAME":"安南區","LI":"理想里","LIN":"12鄰","STREET":"同安路","SECT":" ","MAREA":" ","LANE":"８０巷","ALLEY":"３１弄","HOUSE_NO":"２０號","E_COORD97":167056.01000000001,"N_COORD97":2548896.1699999999,"ADDRESS":"同安路８０巷３１弄２０號","OBJECTID":86299},"geometry":{"x":167056.01000000071,"y":2548896.1700000018}},{"attributes":{"ID":86300,"DIS_CODE":0,"TOWNNAME":"安南區","LI":"理想里","LIN":"12鄰","STREET":"同安路","SECT":" ","MAREA":" ","LANE":"８０巷","ALLEY":"３１弄","HOUSE_NO":"２１號","E_COORD97":167049.14000000001,"N_COORD97":2548923.6400000001,"ADDRESS":"同安路８０巷３１弄２１號","OBJECTID":86300},"geometry":{"x":167049.14000000153,"y":2548923.6400000025}},{"attributes":{"ID":86301,"DIS_CODE":0,"TOWNNAME":"安南區","LI":"理想里","LIN":"12鄰","STREET":"同安路","SECT":" ","MAREA":" ","LANE":"８０巷","ALLEY":"３１弄","HOUSE_NO":"２２號","E_COORD97":167058.79000000001,"N_COORD97":2548899.4399999999,"ADDRESS":"同安路８０巷３１弄２２號","OBJECTID":86301},"geometry":{"x":167058.79000000097,"y":2548899.4400000032}},{"attributes":{"ID":86302,"DIS_CODE":0,"TOWNNAME":"中西區","LI":"開山里","LIN":"15鄰","STREET":"大埔街","SECT":" ","MAREA":" ","LANE":" ","ALLEY":" ","HOUSE_NO":"３８號","E_COORD97":168942.54999999999,"N_COORD97":2543073.3100000001,"ADDRESS":"大埔街３８號","OBJECTID":86302},"geometry":{"x":168942.54999999981,"y":2543073.3100000042}},{"attributes":{"ID":86303,"DIS_CODE":0,"TOWNNAME":"中西區","LI":"開山里","LIN":"15鄰","STREET":"大埔街","SECT":" ","MAREA":" ","LANE":" ","ALLEY":" ","HOUSE_NO":"６之１號","E_COORD97":169013.09,"N_COORD97":2543043.3399999999,"ADDRESS":"大埔街６之１號","OBJECTID":86303},"geometry":{"x":169013.09000000078,"y":2543043.3400000017}},{"attributes":{"ID":86304,"DIS_CODE":0,"TOWNNAME":"新市區","LI":"大社里","LIN":"15鄰","STREET":" ","SECT":" ","MAREA":"大社","LANE":" ","ALLEY":" ","HOUSE_NO":"５７７號","E_COORD97":179655.89999999999,"N_COORD97":2554383.75,"ADDRESS":"大社５７７號","OBJECTID":86304},"geometry":{"x":179655.9000000013,"y":2554383.7500000037}},{"attributes":{"ID":86305,"DIS_CODE":0,"TOWNNAME":"安南區","LI":"理想里","LIN":"12鄰","STREET":"同安路","SECT":" ","MAREA":" ","LANE":"８０巷","ALLEY":"３１弄","HOUSE_NO":"２３號","E_COORD97":167052.57000000001,"N_COORD97":2548925.9300000002,"ADDRESS":"同安路８０巷３１弄２３號","OBJECTID":86305},"geometry":{"x":167052.57000000123,"y":2548925.9299999997}},{"attributes":{"ID":86306,"DIS_CODE":0,"TOWNNAME":"安南區","LI":"理想里","LIN":"12鄰","STREET":"同安路","SECT":" ","MAREA":" ","LANE":"８０巷","ALLEY":"３１弄","HOUSE_NO":"２５號","E_COORD97":167054.54000000001,"N_COORD97":2548930.02,"ADDRESS":"同安路８０巷３１弄２５號","OBJECTID":86306},"geometry":{"x":167054.54000000004,"y":2548930.0200000014}},{"attributes":{"ID":86307,"DIS_CODE":0,"TOWNNAME":"安平區","LI":"西門里","LIN":"20鄰","STREET":"大平路","SECT":" ","MAREA":" ","LANE":" ","ALLEY":" ","HOUSE_NO":"１１號","E_COORD97":163182.91,"N_COORD97":2544479.6400000001,"ADDRESS":"大平路１１號","OBJECTID":86307},"geometry":{"x":163182.91000000108,"y":2544479.6400000025}},{"attributes":{"ID":86308,"DIS_CODE":0,"TOWNNAME":"北門區","LI":"永隆里","LIN":"15鄰","STREET":" ","SECT":" ","MAREA":"港北","LANE":" ","ALLEY":" ","HOUSE_NO":"２５號","E_COORD97":160244.73999999999,"N_COORD97":2574570.77,"ADDRESS":"港北２５號","OBJECTID":86308},"geometry":{"x":160244.74000000115,"y":2574570.7700000014}},{"attributes":{"ID":86309,"DIS_CODE":0,"TOWNNAME":"安南區","LI":"理想里","LIN":"12鄰","STREET":"同安路","SECT":" ","MAREA":" ","LANE":"８０巷","ALLEY":"３１弄","HOUSE_NO":"２６號","E_COORD97":167061.89999999999,"N_COORD97":2548902.0499999998,"ADDRESS":"同安路８０巷３１弄２６號","OBJECTID":86309},"geometry":{"x":167061.9000000013,"y":2548902.0500000007}},{"attributes":{"ID":86310,"DIS_CODE":0,"TOWNNAME":"南區","LI":"白雪里","LIN":" ","STREET":"鹽埕路","SECT":" ","MAREA":" ","LANE":" ","ALLEY":" ","HOUSE_NO":"１１１號之１０","E_COORD97":166754.01999999999,"N_COORD97":2540857.79,"ADDRESS":"鹽埕路１１１號之１０","OBJECTID":86310},"geometry":{"x":166754.01999999955,"y":2540857.7899999991}},{"attributes":{"ID":86311,"DIS_CODE":0,"TOWNNAME":"安南區","LI":"理想里","LIN":"12鄰","STREET":"同安路","SECT":" ","MAREA":" ","LANE":"８０巷","ALLEY":"３１弄","HOUSE_NO":"２７號","E_COORD97":167057.64999999999,"N_COORD97":2548931.98,"ADDRESS":"同安路８０巷３１弄２７號","OBJECTID":86311},"geometry":{"x":167057.65000000037,"y":2548931.9800000023}},{"attributes":{"ID":86312,"DIS_CODE":0,"TOWNNAME":"安南區","LI":"理想里","LIN":"12鄰","STREET":"同安路","SECT":" ","MAREA":" ","LANE":"８０巷","ALLEY":"３１弄","HOUSE_NO":"２８號","E_COORD97":167066.16,"N_COORD97":2548906.4700000002,"ADDRESS":"同安路８０巷３１弄２８號","OBJECTID":86312},"geometry":{"x":167066.16000000015,"y":2548906.4700000007}},{"attributes":{"ID":86313,"DIS_CODE":0,"TOWNNAME":"安南區","LI":"理想里","LIN":"12鄰","STREET":"同安路","SECT":" ","MAREA":" ","LANE":"８０巷","ALLEY":"３１弄","HOUSE_NO":"２９號","E_COORD97":167060.10000000001,"N_COORD97":2548936.3900000001,"ADDRESS":"同安路８０巷３１弄２９號","OBJECTID":86313},"geometry":{"x":167060.10000000056,"y":2548936.3900000025}},{"attributes":{"ID":86314,"DIS_CODE":0,"TOWNNAME":"鹽水區","LI":"福得里","LIN":"5鄰","STREET":" ","SECT":" ","MAREA":"後厝","LANE":" ","ALLEY":" ","HOUSE_NO":"１１５號","E_COORD97":175349.29000000001,"N_COORD97":2579883.0899999999,"ADDRESS":"後厝１１５號","OBJECTID":86314},"geometry":{"x":175349.29000000004,"y":2579883.0899999999}},{"attributes":{"ID":86315,"DIS_CODE":0,"TOWNNAME":"安南區","LI":"理想里","LIN":"12鄰","STREET":"同安路","SECT":" ","MAREA":" ","LANE":"８０巷","ALLEY":"３１弄","HOUSE_NO":"２號","E_COORD97":167035.88,"N_COORD97":2548874.4199999999,"ADDRESS":"同安路８０巷３１弄２號","OBJECTID":86315},"geometry":{"x":167035.88000000175,"y":2548874.4200000018}},{"attributes":{"ID":86316,"DIS_CODE":0,"TOWNNAME":"安南區","LI":"理想里","LIN":"12鄰","STREET":"同安路","SECT":" ","MAREA":" ","LANE":"８０巷","ALLEY":"３１弄","HOUSE_NO":"３０號","E_COORD97":167071.72,"N_COORD97":2548911.7000000002,"ADDRESS":"同安路８０巷３１弄３０號","OBJECTID":86316},"geometry":{"x":167071.71999999974,"y":2548911.7000000011}},{"attributes":{"ID":86317,"DIS_CODE":0,"TOWNNAME":"安南區","LI":"理想里","LIN":"12鄰","STREET":"同安路","SECT":" ","MAREA":" ","LANE":"８０巷","ALLEY":"３１弄","HOUSE_NO":"３２號","E_COORD97":167076.63,"N_COORD97":2548917.1000000001,"ADDRESS":"同安路８０巷３１弄３２號","OBJECTID":86317},"geometry":{"x":167076.63000000175,"y":2548917.1000000015}},{"attributes":{"ID":86318,"DIS_CODE":0,"TOWNNAME":"安南區","LI":"理想里","LIN":"12鄰","STREET":"同安路","SECT":" ","MAREA":" ","LANE":"８０巷","ALLEY":"３１弄","HOUSE_NO":"３號","E_COORD97":167021.14999999999,"N_COORD97":2548898.46,"ADDRESS":"同安路８０巷３１弄３號","OBJECTID":86318},"geometry":{"x":167021.1500000013,"y":2548898.4600000028}},{"attributes":{"ID":86319,"DIS_CODE":0,"TOWNNAME":"安南區","LI":"理想里","LIN":"12鄰","STREET":"同安路","SECT":" ","MAREA":" ","LANE":"８０巷","ALLEY":"３１弄","HOUSE_NO":"５號","E_COORD97":167023.92999999999,"N_COORD97":2548900.5800000001,"ADDRESS":"同安路８０巷３１弄５號","OBJECTID":86319},"geometry":{"x":167023.93000000063,"y":2548900.5800000019}},{"attributes":{"ID":86320,"DIS_CODE":0,"TOWNNAME":"安南區","LI":"理想里","LIN":"12鄰","STREET":"同安路","SECT":" ","MAREA":" ","LANE":"８０巷","ALLEY":"３１弄","HOUSE_NO":"６號","E_COORD97":167038.82999999999,"N_COORD97":2548877.0299999998,"ADDRESS":"同安路８０巷３１弄６號","OBJECTID":86320},"geometry":{"x":167038.83000000101,"y":2548877.0299999993}},{"attributes":{"ID":86321,"DIS_CODE":0,"TOWNNAME":"安南區","LI":"理想里","LIN":"12鄰","STREET":"同安路","SECT":" ","MAREA":" ","LANE":"８０巷","ALLEY":"３１弄","HOUSE_NO":"７號","E_COORD97":167028.35000000001,"N_COORD97":2548902.3799999999,"ADDRESS":"同安路８０巷３１弄７號","OBJECTID":86321},"geometry":{"x":167028.34999999963,"y":2548902.379999999}},{"attributes":{"ID":86322,"DIS_CODE":0,"TOWNNAME":"安南區","LI":"理想里","LIN":"12鄰","STREET":"同安路","SECT":" ","MAREA":" ","LANE":"８０巷","ALLEY":"３１弄","HOUSE_NO":"８號","E_COORD97":167040.63,"N_COORD97":2548880.96,"ADDRESS":"同安路８０巷３１弄８號","OBJECTID":86322},"geometry":{"x":167040.62999999989,"y":2548880.9600000028}},{"attributes":{"ID":86323,"DIS_CODE":0,"TOWNNAME":"新市區","LI":"大社里","LIN":"15鄰","STREET":" ","SECT":" ","MAREA":"大社","LANE":" ","ALLEY":" ","HOUSE_NO":"５８０號","E_COORD97":179660.06,"N_COORD97":2554403,"ADDRESS":"大社５８０號","OBJECTID":86323},"geometry":{"x":179660.06000000145,"y":2554403.0000000019}},{"attributes":{"ID":86324,"DIS_CODE":0,"TOWNNAME":"新市區","LI":"大社里","LIN":"15鄰","STREET":" ","SECT":" ","MAREA":"大社","LANE":" ","ALLEY":" ","HOUSE_NO":"５７２之１號","E_COORD97":180024.67999999999,"N_COORD97":2554477.0499999998,"ADDRESS":"大社５７２之１號","OBJECTID":86324},"geometry":{"x":180024.68000000063,"y":2554477.0499999989}},{"attributes":{"ID":86325,"DIS_CODE":0,"TOWNNAME":"新市區","LI":"大營里","LIN":"15鄰","STREET":" ","SECT":" ","MAREA":"大營","LANE":" ","ALLEY":" ","HOUSE_NO":"２８２之３號","E_COORD97":179031.38,"N_COORD97":2555516.7999999998,"ADDRESS":"大營２８２之３號","OBJECTID":86325},"geometry":{"x":179031.38000000082,"y":2555516.8000000026}},{"attributes":{"ID":86326,"DIS_CODE":0,"TOWNNAME":"新市區","LI":"大社里","LIN":"15鄰","STREET":" ","SECT":" ","MAREA":"大社","LANE":" ","ALLEY":" ","HOUSE_NO":"５８８號","E_COORD97":179523.07000000001,"N_COORD97":2554594.5,"ADDRESS":"大社５８８號","OBJECTID":86326},"geometry":{"x":179523.0700000003,"y":2554594.5}},{"attributes":{"ID":86327,"DIS_CODE":0,"TOWNNAME":"七股區","LI":"大寮里","LIN":"12鄰","STREET":" ","SECT":" ","MAREA":"大寮","LANE":" ","ALLEY":" ","HOUSE_NO":"１２８號","E_COORD97":163382.91,"N_COORD97":2560576.1800000002,"ADDRESS":"大寮１２８號","OBJECTID":86327},"geometry":{"x":163382.91000000201,"y":2560576.1800000016}},{"attributes":{"ID":86328,"DIS_CODE":0,"TOWNNAME":"七股區","LI":"三股里","LIN":"12鄰","STREET":" ","SECT":" ","MAREA":"三股","LANE":" ","ALLEY":" ","HOUSE_NO":"２９號之１０","E_COORD97":159576.75,"N_COORD97":2555488.5699999998,"ADDRESS":"三股２９號之１０","OBJECTID":86328},"geometry":{"x":159576.75000000093,"y":2555488.5700000022}},{"attributes":{"ID":86329,"DIS_CODE":0,"TOWNNAME":"七股區","LI":"三股里","LIN":"12鄰","STREET":" ","SECT":" ","MAREA":"三股","LANE":" ","ALLEY":" ","HOUSE_NO":"２９號之１１","E_COORD97":159571.85000000001,"N_COORD97":2555488.5299999998,"ADDRESS":"三股２９號之１１","OBJECTID":86329},"geometry":{"x":159571.85000000149,"y":2555488.5299999993}},{"attributes":{"ID":86330,"DIS_CODE":0,"TOWNNAME":"七股區","LI":"三股里","LIN":"12鄰","STREET":" ","SECT":" ","MAREA":"三股","LANE":" ","ALLEY":" ","HOUSE_NO":"２９號之１２","E_COORD97":159566.95000000001,"N_COORD97":2555488.4900000002,"ADDRESS":"三股２９號之１２","OBJECTID":86330},"geometry":{"x":159566.95000000112,"y":2555488.4900000021}},{"attributes":{"ID":86331,"DIS_CODE":0,"TOWNNAME":"七股區","LI":"三股里","LIN":"12鄰","STREET":" ","SECT":" ","MAREA":"三股","LANE":" ","ALLEY":" ","HOUSE_NO":"２９號之１３","E_COORD97":159562.06,"N_COORD97":2555488.46,"ADDRESS":"三股２９號之１３","OBJECTID":86331},"geometry":{"x":159562.06000000052,"y":2555488.4600000046}},{"attributes":{"ID":86332,"DIS_CODE":0,"TOWNNAME":"七股區","LI":"三股里","LIN":"12鄰","STREET":" ","SECT":" ","MAREA":"三股","LANE":" ","ALLEY":" ","HOUSE_NO":"２９號之１４","E_COORD97":159557.16,"N_COORD97":2555488.4199999999,"ADDRESS":"三股２９號之１４","OBJECTID":86332},"geometry":{"x":159557.16000000108,"y":2555488.4200000018}},{"attributes":{"ID":86333,"DIS_CODE":0,"TOWNNAME":"七股區","LI":"三股里","LIN":"12鄰","STREET":" ","SECT":" ","MAREA":"三股","LANE":" ","ALLEY":" ","HOUSE_NO":"２９號之１５","E_COORD97":159601.16,"N_COORD97":2555455.4900000002,"ADDRESS":"三股２９號之１５","OBJECTID":86333},"geometry":{"x":159601.16000000108,"y":2555455.4900000002}},{"attributes":{"ID":86334,"DIS_CODE":0,"TOWNNAME":"七股區","LI":"三股里","LIN":"12鄰","STREET":" ","SECT":" ","MAREA":"三股","LANE":" ","ALLEY":" ","HOUSE_NO":"２９號之１６","E_COORD97":159596.32000000001,"N_COORD97":2555455.5299999998,"ADDRESS":"三股２９號之１６","OBJECTID":86334},"geometry":{"x":159596.3200000003,"y":2555455.5299999975}},{"attributes":{"ID":86335,"DIS_CODE":0,"TOWNNAME":"七股區","LI":"三股里","LIN":"12鄰","STREET":" ","SECT":" ","MAREA":"三股","LANE":" ","ALLEY":" ","HOUSE_NO":"２９號之１７","E_COORD97":159591.48999999999,"N_COORD97":2555455.5600000001,"ADDRESS":"三股２９號之１７","OBJECTID":86335},"geometry":{"x":159591.49000000022,"y":2555455.5600000005}},{"attributes":{"ID":86336,"DIS_CODE":0,"TOWNNAME":"七股區","LI":"三股里","LIN":"12鄰","STREET":" ","SECT":" ","MAREA":"三股","LANE":" ","ALLEY":" ","HOUSE_NO":"２９號之１８","E_COORD97":159586.66,"N_COORD97":2555455.5899999999,"ADDRESS":"三股２９號之１８","OBJECTID":86336},"geometry":{"x":159586.66000000015,"y":2555455.589999998}},{"attributes":{"ID":86337,"DIS_CODE":0,"TOWNNAME":"七股區","LI":"三股里","LIN":"12鄰","STREET":" ","SECT":" ","MAREA":"三股","LANE":" ","ALLEY":" ","HOUSE_NO":"２９號之１９","E_COORD97":159581.82000000001,"N_COORD97":2555455.6299999999,"ADDRESS":"三股２９號之１９","OBJECTID":86337},"geometry":{"x":159581.82000000123,"y":2555455.6300000008}},{"attributes":{"ID":86338,"DIS_CODE":0,"TOWNNAME":"七股區","LI":"三股里","LIN":"12鄰","STREET":" ","SECT":" ","MAREA":"三股","LANE":" ","ALLEY":" ","HOUSE_NO":"２９號之１","E_COORD97":159615.32000000001,"N_COORD97":2555489.21,"ADDRESS":"三股２９號之１","OBJECTID":86338},"geometry":{"x":159615.32000000123,"y":2555489.2100000009}},{"attributes":{"ID":86339,"DIS_CODE":0,"TOWNNAME":"七股區","LI":"三股里","LIN":"12鄰","STREET":" ","SECT":" ","MAREA":"三股","LANE":" ","ALLEY":" ","HOUSE_NO":"２９號之２０","E_COORD97":159576.98999999999,"N_COORD97":2555455.6600000001,"ADDRESS":"三股２９號之２０","OBJECTID":86339},"geometry":{"x":159576.99000000115,"y":2555455.6600000039}},{"attributes":{"ID":86340,"DIS_CODE":0,"TOWNNAME":"七股區","LI":"三股里","LIN":"12鄰","STREET":" ","SECT":" ","MAREA":"三股","LANE":" ","ALLEY":" ","HOUSE_NO":"２９號之２１","E_COORD97":159572.14999999999,"N_COORD97":2555455.6899999999,"ADDRESS":"三股２９號之２１","OBJECTID":86340},"geometry":{"x":159572.15000000037,"y":2555455.6900000013}},{"attributes":{"ID":86341,"DIS_CODE":0,"TOWNNAME":"安南區","LI":"理想里","LIN":"12鄰","STREET":"同安路","SECT":" ","MAREA":" ","LANE":"８０巷","ALLEY":"３１弄","HOUSE_NO":"９號","E_COORD97":167031.79000000001,"N_COORD97":2548905,"ADDRESS":"同安路８０巷３１弄９號","OBJECTID":86341},"geometry":{"x":167031.79000000097,"y":2548905}},{"attributes":{"ID":86342,"DIS_CODE":0,"TOWNNAME":"官田區","LI":"湖山里","LIN":"15鄰","STREET":" ","SECT":" ","MAREA":"烏山頭","LANE":" ","ALLEY":" ","HOUSE_NO":"９１號","E_COORD97":183572.47,"N_COORD97":2568002.3199999998,"ADDRESS":"烏山頭９１號","OBJECTID":86342},"geometry":{"x":183572.47000000067,"y":2568002.3199999984}},{"attributes":{"ID":86343,"DIS_CODE":0,"TOWNNAME":"七股區","LI":"三股里","LIN":"12鄰","STREET":" ","SECT":" ","MAREA":"三股","LANE":" ","ALLEY":" ","HOUSE_NO":"２９號之２２","E_COORD97":159567.32000000001,"N_COORD97":2555455.73,"ADDRESS":"三股２９號之２２","OBJECTID":86343},"geometry":{"x":159567.3200000003,"y":2555455.7300000042}},{"attributes":{"ID":86344,"DIS_CODE":0,"TOWNNAME":"安南區","LI":"理想里","LIN":"12鄰","STREET":"同安路","SECT":" ","MAREA":" ","LANE":"８０巷","ALLEY":"４５弄","HOUSE_NO":"１１號","E_COORD97":167051.98000000001,"N_COORD97":2548863.4500000002,"ADDRESS":"同安路８０巷４５弄１１號","OBJECTID":86344},"geometry":{"x":167051.98000000045,"y":2548863.4500000011}},{"attributes":{"ID":86345,"DIS_CODE":0,"TOWNNAME":"安南區","LI":"理想里","LIN":"12鄰","STREET":"同安路","SECT":" ","MAREA":" ","LANE":"８０巷","ALLEY":"４５弄","HOUSE_NO":"１３號","E_COORD97":167054.78,"N_COORD97":2548865.6299999999,"ADDRESS":"同安路８０巷４５弄１３號","OBJECTID":86345},"geometry":{"x":167054.78000000026,"y":2548865.629999999}},{"attributes":{"ID":86346,"DIS_CODE":0,"TOWNNAME":"安南區","LI":"理想里","LIN":"12鄰","STREET":"同安路","SECT":" ","MAREA":" ","LANE":"８０巷","ALLEY":"４５弄","HOUSE_NO":"１５號","E_COORD97":167059,"N_COORD97":2548868.8500000001,"ADDRESS":"同安路８０巷４５弄１５號","OBJECTID":86346},"geometry":{"x":167059.00000000186,"y":2548868.8499999996}},{"attributes":{"ID":86347,"DIS_CODE":0,"TOWNNAME":"安南區","LI":"理想里","LIN":"12鄰","STREET":"同安路","SECT":" ","MAREA":" ","LANE":"８０巷","ALLEY":"４５弄","HOUSE_NO":"１７號","E_COORD97":167062.60999999999,"N_COORD97":2548871.0600000001,"ADDRESS":"同安路８０巷４５弄１７號","OBJECTID":86347},"geometry":{"x":167062.61000000127,"y":2548871.0600000005}},{"attributes":{"ID":86348,"DIS_CODE":0,"TOWNNAME":"安南區","LI":"理想里","LIN":"12鄰","STREET":"同安路","SECT":" ","MAREA":" ","LANE":"８０巷","ALLEY":"４５弄","HOUSE_NO":"１９號","E_COORD97":167065.20999999999,"N_COORD97":2548872.8599999999,"ADDRESS":"同安路８０巷４５弄１９號","OBJECTID":86348},"geometry":{"x":167065.20999999996,"y":2548872.8600000031}},{"attributes":{"ID":86349,"DIS_CODE":0,"TOWNNAME":"七股區","LI":"三股里","LIN":"12鄰","STREET":" ","SECT":" ","MAREA":"三股","LANE":" ","ALLEY":" ","HOUSE_NO":"２９號之２３","E_COORD97":159562.48999999999,"N_COORD97":2555455.7599999998,"ADDRESS":"三股２９號之２３","OBJECTID":86349},"geometry":{"x":159562.49000000022,"y":2555455.7600000016}},{"attributes":{"ID":86350,"DIS_CODE":0,"TOWNNAME":"七股區","LI":"三股里","LIN":"12鄰","STREET":" ","SECT":" ","MAREA":"三股","LANE":" ","ALLEY":" ","HOUSE_NO":"２９號之２４","E_COORD97":159557.64999999999,"N_COORD97":2555455.79,"ADDRESS":"三股２９號之２４","OBJECTID":86350},"geometry":{"x":159557.6500000013,"y":2555455.7899999991}},{"attributes":{"ID":86351,"DIS_CODE":0,"TOWNNAME":"七股區","LI":"三股里","LIN":"12鄰","STREET":" ","SECT":" ","MAREA":"三股","LANE":" ","ALLEY":" ","HOUSE_NO":"２９號之２","E_COORD97":159620.06,"N_COORD97":2555489.23,"ADDRESS":"三股２９號之２","OBJECTID":86351},"geometry":{"x":159620.06000000052,"y":2555489.2299999986}},{"attributes":{"ID":86352,"DIS_CODE":0,"TOWNNAME":"七股區","LI":"三股里","LIN":"12鄰","STREET":" ","SECT":" ","MAREA":"三股","LANE":" ","ALLEY":" ","HOUSE_NO":"２９號之３","E_COORD97":159624.79999999999,"N_COORD97":2555489.25,"ADDRESS":"三股２９號之３","OBJECTID":86352},"geometry":{"x":159624.79999999981,"y":2555489.2500000019}},{"attributes":{"ID":86353,"DIS_CODE":0,"TOWNNAME":"七股區","LI":"三股里","LIN":"12鄰","STREET":" ","SECT":" ","MAREA":"三股","LANE":" ","ALLEY":" ","HOUSE_NO":"２９號之４","E_COORD97":159629.54000000001,"N_COORD97":2555489.2599999998,"ADDRESS":"三股２９號之４","OBJECTID":86353},"geometry":{"x":159629.54000000004,"y":2555489.2600000016}},{"attributes":{"ID":86354,"DIS_CODE":0,"TOWNNAME":"七股區","LI":"三股里","LIN":"12鄰","STREET":" ","SECT":" ","MAREA":"三股","LANE":" ","ALLEY":" ","HOUSE_NO":"２９號之５","E_COORD97":159600.95000000001,"N_COORD97":2555488.4199999999,"ADDRESS":"三股２９號之５","OBJECTID":86354},"geometry":{"x":159600.95000000112,"y":2555488.4200000018}},{"attributes":{"ID":86355,"DIS_CODE":0,"TOWNNAME":"安南區","LI":"理想里","LIN":"12鄰","STREET":"同安路","SECT":" ","MAREA":" ","LANE":"８０巷","ALLEY":"４５弄","HOUSE_NO":"１號","E_COORD97":167038.16,"N_COORD97":2548847.0299999998,"ADDRESS":"同安路８０巷４５弄１號","OBJECTID":86355},"geometry":{"x":167038.16000000108,"y":2548847.0299999993}},{"attributes":{"ID":86356,"DIS_CODE":0,"TOWNNAME":"安南區","LI":"理想里","LIN":"12鄰","STREET":"同安路","SECT":" ","MAREA":" ","LANE":"８０巷","ALLEY":"４５弄","HOUSE_NO":"２１號","E_COORD97":167067.42000000001,"N_COORD97":2548877.2599999998,"ADDRESS":"同安路８０巷４５弄２１號","OBJECTID":86356},"geometry":{"x":167067.41999999993,"y":2548877.2600000035}},{"attributes":{"ID":86357,"DIS_CODE":0,"TOWNNAME":"安南區","LI":"理想里","LIN":"12鄰","STREET":"同安路","SECT":" ","MAREA":" ","LANE":"８０巷","ALLEY":"４５弄","HOUSE_NO":"２３號","E_COORD97":167070.42000000001,"N_COORD97":2548880.0699999998,"ADDRESS":"同安路８０巷４５弄２３號","OBJECTID":86357},"geometry":{"x":167070.41999999993,"y":2548880.0700000022}},{"attributes":{"ID":86358,"DIS_CODE":0,"TOWNNAME":"安南區","LI":"理想里","LIN":"12鄰","STREET":"同安路","SECT":" ","MAREA":" ","LANE":"８０巷","ALLEY":"４５弄","HOUSE_NO":"２５號","E_COORD97":167073.63,"N_COORD97":2548883.27,"ADDRESS":"同安路８０巷４５弄２５號","OBJECTID":86358},"geometry":{"x":167073.63000000082,"y":2548883.2699999996}},{"attributes":{"ID":86359,"DIS_CODE":0,"TOWNNAME":"安南區","LI":"理想里","LIN":"12鄰","STREET":"同安路","SECT":" ","MAREA":" ","LANE":"８０巷","ALLEY":"４５弄","HOUSE_NO":"２７號","E_COORD97":167075.42999999999,"N_COORD97":2548887.2799999998,"ADDRESS":"同安路８０巷４５弄２７號","OBJECTID":86359},"geometry":{"x":167075.4299999997,"y":2548887.2800000012}},{"attributes":{"ID":86360,"DIS_CODE":0,"TOWNNAME":"安南區","LI":"理想里","LIN":"12鄰","STREET":"同安路","SECT":" ","MAREA":" ","LANE":"８０巷","ALLEY":"４５弄","HOUSE_NO":"２９號","E_COORD97":167077.23999999999,"N_COORD97":2548890.48,"ADDRESS":"同安路８０巷４５弄２９號","OBJECTID":86360},"geometry":{"x":167077.24000000022,"y":2548890.4800000023}},{"attributes":{"ID":86361,"DIS_CODE":0,"TOWNNAME":"七股區","LI":"三股里","LIN":"12鄰","STREET":" ","SECT":" ","MAREA":"三股","LANE":" ","ALLEY":" ","HOUSE_NO":"２９號之６","E_COORD97":159595.92000000001,"N_COORD97":2555488.3799999999,"ADDRESS":"三股２９號之６","OBJECTID":86361},"geometry":{"x":159595.92000000086,"y":2555488.3800000008}},{"attributes":{"ID":86362,"DIS_CODE":0,"TOWNNAME":"安南區","LI":"理想里","LIN":"12鄰","STREET":"同安路","SECT":" ","MAREA":" ","LANE":"８０巷","ALLEY":"４５弄","HOUSE_NO":"２號","E_COORD97":167073.73000000001,"N_COORD97":2548832.2200000002,"ADDRESS":"同安路８０巷４５弄２號","OBJECTID":86362},"geometry":{"x":167073.73000000138,"y":2548832.2200000025}},{"attributes":{"ID":86363,"DIS_CODE":0,"TOWNNAME":"安南區","LI":"理想里","LIN":"12鄰","STREET":"同安路","SECT":" ","MAREA":" ","LANE":"８０巷","ALLEY":"４５弄","HOUSE_NO":"３１號","E_COORD97":167080.39999999999,"N_COORD97":2548894.5299999998,"ADDRESS":"同安路８０巷４５弄３１號","OBJECTID":86363},"geometry":{"x":167080.40000000224,"y":2548894.5299999993}},{"attributes":{"ID":86364,"DIS_CODE":0,"TOWNNAME":"安南區","LI":"理想里","LIN":"12鄰","STREET":"同安路","SECT":" ","MAREA":" ","LANE":"８０巷","ALLEY":"４５弄","HOUSE_NO":"３３號","E_COORD97":167082.85000000001,"N_COORD97":2548898.1299999999,"ADDRESS":"同安路８０巷４５弄３３號","OBJECTID":86364},"geometry":{"x":167082.84999999963,"y":2548898.1300000008}},{"attributes":{"ID":86365,"DIS_CODE":0,"TOWNNAME":"官田區","LI":"隆本里","LIN":"15鄰","STREET":"信義街","SECT":"二段","MAREA":" ","LANE":" ","ALLEY":" ","HOUSE_NO":"１３７號","E_COORD97":179753.88,"N_COORD97":2566305.52,"ADDRESS":"信義街二段１３７號","OBJECTID":86365},"geometry":{"x":179753.88000000082,"y":2566305.5200000014}},{"attributes":{"ID":86366,"DIS_CODE":0,"TOWNNAME":"官田區","LI":"隆本里","LIN":"15鄰","STREET":"信義街","SECT":"二段","MAREA":" ","LANE":" ","ALLEY":" ","HOUSE_NO":"１３９號","E_COORD97":179752.48000000001,"N_COORD97":2566314.4100000001,"ADDRESS":"信義街二段１３９號","OBJECTID":86366},"geometry":{"x":179752.48000000045,"y":2566314.410000002}},{"attributes":{"ID":86367,"DIS_CODE":0,"TOWNNAME":"官田區","LI":"隆本里","LIN":"15鄰","STREET":"信義街","SECT":"二段","MAREA":" ","LANE":" ","ALLEY":" ","HOUSE_NO":"１４１號","E_COORD97":179754.10000000001,"N_COORD97":2566325.6400000001,"ADDRESS":"信義街二段１４１號","OBJECTID":86367},"geometry":{"x":179754.09999999963,"y":2566325.6399999987}},{"attributes":{"ID":86368,"DIS_CODE":0,"TOWNNAME":"永康區","LI":"大灣里","LIN":"15鄰","STREET":"大民街","SECT":" ","MAREA":" ","LANE":" ","ALLEY":" ","HOUSE_NO":"１８之１號","E_COORD97":174797.22,"N_COORD97":2545243.8399999999,"ADDRESS":"大民街１８之１號","OBJECTID":86368},"geometry":{"x":174797.21999999881,"y":2545243.8400000017}},{"attributes":{"ID":86369,"DIS_CODE":0,"TOWNNAME":"七股區","LI":"三股里","LIN":"12鄰","STREET":" ","SECT":" ","MAREA":"三股","LANE":" ","ALLEY":" ","HOUSE_NO":"２９號之７","E_COORD97":159590.89000000001,"N_COORD97":2555488.3399999999,"ADDRESS":"三股２９號之７","OBJECTID":86369},"geometry":{"x":159590.8900000006,"y":2555488.3400000017}},{"attributes":{"ID":86370,"DIS_CODE":0,"TOWNNAME":"永康區","LI":"大灣里","LIN":"15鄰","STREET":"大民街","SECT":" ","MAREA":" ","LANE":" ","ALLEY":" ","HOUSE_NO":"３２之１號","E_COORD97":174814.04999999999,"N_COORD97":2545278.5800000001,"ADDRESS":"大民街３２之１號","OBJECTID":86370},"geometry":{"x":174814.05000000075,"y":2545278.5800000019}},{"attributes":{"ID":86371,"DIS_CODE":0,"TOWNNAME":"七股區","LI":"三股里","LIN":"12鄰","STREET":" ","SECT":" ","MAREA":"三股","LANE":" ","ALLEY":" ","HOUSE_NO":"２９號之８","E_COORD97":159585.85000000001,"N_COORD97":2555488.2999999998,"ADDRESS":"三股２９號之８","OBJECTID":86371},"geometry":{"x":159585.85000000056,"y":2555488.3000000007}},{"attributes":{"ID":86372,"DIS_CODE":0,"TOWNNAME":"七股區","LI":"三股里","LIN":"12鄰","STREET":" ","SECT":" ","MAREA":"三股","LANE":" ","ALLEY":" ","HOUSE_NO":"２９號","E_COORD97":159610.57999999999,"N_COORD97":2555489.1899999999,"ADDRESS":"三股２９號","OBJECTID":86372},"geometry":{"x":159610.58000000101,"y":2555489.1900000013}},{"attributes":{"ID":86373,"DIS_CODE":0,"TOWNNAME":"永康區","LI":"大灣里","LIN":"15鄰","STREET":"大民街","SECT":" ","MAREA":" ","LANE":" ","ALLEY":" ","HOUSE_NO":"１９號","E_COORD97":174789.51000000001,"N_COORD97":2545266.79,"ADDRESS":"大民街１９號","OBJECTID":86373},"geometry":{"x":174789.50999999978,"y":2545266.790000001}},{"attributes":{"ID":86374,"DIS_CODE":0,"TOWNNAME":"永康區","LI":"二王里","LIN":"15鄰","STREET":"忠孝路","SECT":" ","MAREA":" ","LANE":" ","ALLEY":" ","HOUSE_NO":"４６４號","E_COORD97":172496.32999999999,"N_COORD97":2546652.27,"ADDRESS":"忠孝路４６４號","OBJECTID":86374},"geometry":{"x":172496.33000000007,"y":2546652.2699999996}},{"attributes":{"ID":86375,"DIS_CODE":0,"TOWNNAME":"官田區","LI":"湖山里","LIN":"15鄰","STREET":" ","SECT":" ","MAREA":"烏山頭","LANE":" ","ALLEY":" ","HOUSE_NO":"９０號之６","E_COORD97":183545.92999999999,"N_COORD97":2567995.6099999999,"ADDRESS":"烏山頭９０號之６","OBJECTID":86375},"geometry":{"x":183545.9299999997,"y":2567995.6099999994}},{"attributes":{"ID":86376,"DIS_CODE":0,"TOWNNAME":"官田區","LI":"湖山里","LIN":"15鄰","STREET":" ","SECT":" ","MAREA":"烏山頭","LANE":" ","ALLEY":" ","HOUSE_NO":"９１號之１００","E_COORD97":183447.17999999999,"N_COORD97":2568380.4199999999,"ADDRESS":"烏山頭９１號之１００","OBJECTID":86376},"geometry":{"x":183447.18000000063,"y":2568380.4199999999}},{"attributes":{"ID":86377,"DIS_CODE":0,"TOWNNAME":"官田區","LI":"湖山里","LIN":"15鄰","STREET":" ","SECT":" ","MAREA":"烏山頭","LANE":" ","ALLEY":" ","HOUSE_NO":"９１號之１","E_COORD97":183591.79000000001,"N_COORD97":2568008.3399999999,"ADDRESS":"烏山頭９１號之１","OBJECTID":86377},"geometry":{"x":183591.7900000019,"y":2568008.3399999999}},{"attributes":{"ID":86378,"DIS_CODE":0,"TOWNNAME":"安南區","LI":"理想里","LIN":"12鄰","STREET":"同安路","SECT":" ","MAREA":" ","LANE":"８０巷","ALLEY":"４５弄","HOUSE_NO":"３５號","E_COORD97":167084.48999999999,"N_COORD97":2548901.3999999999,"ADDRESS":"同安路８０巷４５弄３５號","OBJECTID":86378},"geometry":{"x":167084.48999999929,"y":2548901.4000000022}},{"attributes":{"ID":86379,"DIS_CODE":0,"TOWNNAME":"安南區","LI":"理想里","LIN":"12鄰","STREET":"同安路","SECT":" ","MAREA":" ","LANE":"８０巷","ALLEY":"４５弄","HOUSE_NO":"３７號","E_COORD97":167087.26999999999,"N_COORD97":2548904.02,"ADDRESS":"同安路８０巷４５弄３７號","OBJECTID":86379},"geometry":{"x":167087.27000000048,"y":2548904.0200000014}},{"attributes":{"ID":86380,"DIS_CODE":0,"TOWNNAME":"安南區","LI":"理想里","LIN":"12鄰","STREET":"同安路","SECT":" ","MAREA":" ","LANE":"８０巷","ALLEY":"４５弄","HOUSE_NO":"３９號","E_COORD97":167090.70999999999,"N_COORD97":2548906.96,"ADDRESS":"同安路８０巷４５弄３９號","OBJECTID":86380},"geometry":{"x":167090.70999999996,"y":2548906.9600000009}},{"attributes":{"ID":86381,"DIS_CODE":0,"TOWNNAME":"官田區","LI":"湖山里","LIN":"15鄰","STREET":" ","SECT":" ","MAREA":"烏山頭","LANE":" ","ALLEY":" ","HOUSE_NO":"９１號之３","E_COORD97":183601.59,"N_COORD97":2567979.1899999999,"ADDRESS":"烏山頭９１號之３","OBJECTID":86381},"geometry":{"x":183601.59000000171,"y":2567979.1900000013}},{"attributes":{"ID":86382,"DIS_CODE":0,"TOWNNAME":"官田區","LI":"湖山里","LIN":"15鄰","STREET":" ","SECT":" ","MAREA":"烏山頭","LANE":" ","ALLEY":" ","HOUSE_NO":"９１號之４","E_COORD97":183596.32000000001,"N_COORD97":2567993.3500000001,"ADDRESS":"烏山頭９１號之４","OBJECTID":86382},"geometry":{"x":183596.3200000003,"y":2567993.3499999996}},{"attributes":{"ID":86383,"DIS_CODE":0,"TOWNNAME":"安南區","LI":"理想里","LIN":"12鄰","STREET":"同安路","SECT":" ","MAREA":" ","LANE":"８０巷","ALLEY":"４５弄","HOUSE_NO":"３號","E_COORD97":167041.56,"N_COORD97":2548850.23,"ADDRESS":"同安路８０巷４５弄３號","OBJECTID":86383},"geometry":{"x":167041.56000000052,"y":2548850.2300000004}},{"attributes":{"ID":86384,"DIS_CODE":0,"TOWNNAME":"安南區","LI":"理想里","LIN":"12鄰","STREET":"同安路","SECT":" ","MAREA":" ","LANE":"８０巷","ALLEY":"４５弄","HOUSE_NO":"５號","E_COORD97":167045.97,"N_COORD97":2548852.0299999998,"ADDRESS":"同安路８０巷４５弄５號","OBJECTID":86384},"geometry":{"x":167045.97000000067,"y":2548852.0300000012}},{"attributes":{"ID":86385,"DIS_CODE":0,"TOWNNAME":"官田區","LI":"湖山里","LIN":"15鄰","STREET":" ","SECT":" ","MAREA":"烏山頭","LANE":" ","ALLEY":" ","HOUSE_NO":"９３號之１","E_COORD97":183638.89000000001,"N_COORD97":2568006.25,"ADDRESS":"烏山頭９３號之１","OBJECTID":86385},"geometry":{"x":183638.8900000006,"y":2568006.2500000037}},{"attributes":{"ID":86386,"DIS_CODE":0,"TOWNNAME":"安南區","LI":"理想里","LIN":"12鄰","STREET":"同安路","SECT":" ","MAREA":" ","LANE":"８０巷","ALLEY":"４５弄","HOUSE_NO":"７號","E_COORD97":167049.57999999999,"N_COORD97":2548854.4399999999,"ADDRESS":"同安路８０巷４５弄７號","OBJECTID":86386},"geometry":{"x":167049.58000000007,"y":2548854.4399999995}},{"attributes":{"ID":86387,"DIS_CODE":0,"TOWNNAME":"官田區","LI":"湖山里","LIN":"15鄰","STREET":" ","SECT":" ","MAREA":"烏山頭","LANE":" ","ALLEY":" ","HOUSE_NO":"９３號","E_COORD97":183633.76000000001,"N_COORD97":2567988.77,"ADDRESS":"烏山頭９３號","OBJECTID":86387},"geometry":{"x":183633.75999999978,"y":2567988.7700000033}},{"attributes":{"ID":86388,"DIS_CODE":0,"TOWNNAME":"安南區","LI":"理想里","LIN":"12鄰","STREET":"同安路","SECT":" ","MAREA":" ","LANE":"８０巷","ALLEY":"４５弄","HOUSE_NO":"９號","E_COORD97":167049.38,"N_COORD97":2548860.2400000002,"ADDRESS":"同安路８０巷４５弄９號","OBJECTID":86388},"geometry":{"x":167049.38000000175,"y":2548860.2400000002}},{"attributes":{"ID":86389,"DIS_CODE":0,"TOWNNAME":"安南區","LI":"理想里","LIN":"12鄰","STREET":"同安路","SECT":" ","MAREA":" ","LANE":"８０巷","ALLEY":"４５弄","HOUSE_NO":"６號","E_COORD97":167121.04999999999,"N_COORD97":2548873.8500000001,"ADDRESS":"同安路８０巷４５弄６號","OBJECTID":86389},"geometry":{"x":167121.05000000168,"y":2548873.8500000015}},{"attributes":{"ID":86390,"DIS_CODE":0,"TOWNNAME":"永康區","LI":"復國里","LIN":"15鄰","STREET":"復國二路","SECT":" ","MAREA":" ","LANE":" ","ALLEY":" ","HOUSE_NO":"１５１號","E_COORD97":172899.73999999999,"N_COORD97":2545672.02,"ADDRESS":"復國二路１５１號","OBJECTID":86390},"geometry":{"x":172899.74000000115,"y":2545672.0200000014}},{"attributes":{"ID":86391,"DIS_CODE":0,"TOWNNAME":"永康區","LI":"復華里","LIN":"15鄰","STREET":"復華六街","SECT":" ","MAREA":" ","LANE":" ","ALLEY":" ","HOUSE_NO":"４０號","E_COORD97":172820.57999999999,"N_COORD97":2545850.9399999999,"ADDRESS":"復華六街４０號","OBJECTID":86391},"geometry":{"x":172820.58000000101,"y":2545850.9399999995}},{"attributes":{"ID":86392,"DIS_CODE":0,"TOWNNAME":"官田區","LI":"湖山里","LIN":"15鄰","STREET":" ","SECT":" ","MAREA":"烏山頭","LANE":" ","ALLEY":" ","HOUSE_NO":"９４號之１","E_COORD97":183612.60999999999,"N_COORD97":2568012.9199999999,"ADDRESS":"烏山頭９４號之１","OBJECTID":86392},"geometry":{"x":183612.61000000127,"y":2568012.9200000018}},{"attributes":{"ID":86393,"DIS_CODE":0,"TOWNNAME":"永康區","LI":"復華里","LIN":"15鄰","STREET":"復華六街","SECT":" ","MAREA":" ","LANE":" ","ALLEY":" ","HOUSE_NO":"４２號","E_COORD97":172816.23999999999,"N_COORD97":2545851.1899999999,"ADDRESS":"復華六街４２號","OBJECTID":86393},"geometry":{"x":172816.24000000115,"y":2545851.1900000013}},{"attributes":{"ID":86394,"DIS_CODE":0,"TOWNNAME":"官田區","LI":"湖山里","LIN":"15鄰","STREET":" ","SECT":" ","MAREA":"烏山頭","LANE":" ","ALLEY":" ","HOUSE_NO":"９４號","E_COORD97":183629.31,"N_COORD97":2568023.4100000001,"ADDRESS":"烏山頭９４號","OBJECTID":86394},"geometry":{"x":183629.31000000052,"y":2568023.410000002}},{"attributes":{"ID":86395,"DIS_CODE":0,"TOWNNAME":"七股區","LI":"三股里","LIN":"12鄰","STREET":" ","SECT":" ","MAREA":"三股","LANE":" ","ALLEY":" ","HOUSE_NO":"３０號之１","E_COORD97":159543.98000000001,"N_COORD97":2555468.27,"ADDRESS":"三股３０號之１","OBJECTID":86395},"geometry":{"x":159543.98000000045,"y":2555468.2700000014}},{"attributes":{"ID":86396,"DIS_CODE":0,"TOWNNAME":"七股區","LI":"三股里","LIN":"12鄰","STREET":" ","SECT":" ","MAREA":"三股","LANE":" ","ALLEY":" ","HOUSE_NO":"３０號之３０","E_COORD97":159500.91,"N_COORD97":2555418.3399999999,"ADDRESS":"三股３０號之３０","OBJECTID":86396},"geometry":{"x":159500.91000000201,"y":2555418.3400000017}},{"attributes":{"ID":86397,"DIS_CODE":0,"TOWNNAME":"永康區","LI":"復國里","LIN":"15鄰","STREET":"復華五街","SECT":" ","MAREA":" ","LANE":" ","ALLEY":" ","HOUSE_NO":"７號","E_COORD97":172882.57000000001,"N_COORD97":2545696.6299999999,"ADDRESS":"復華五街７號","OBJECTID":86397},"geometry":{"x":172882.5700000003,"y":2545696.629999999}},{"attributes":{"ID":86398,"DIS_CODE":0,"TOWNNAME":"永康區","LI":"復華里","LIN":"15鄰","STREET":"復華六街","SECT":" ","MAREA":" ","LANE":" ","ALLEY":" ","HOUSE_NO":"３０號","E_COORD97":172841.92000000001,"N_COORD97":2545850.6899999999,"ADDRESS":"復華六街３０號","OBJECTID":86398},"geometry":{"x":172841.92000000086,"y":2545850.6900000013}},{"attributes":{"ID":86399,"DIS_CODE":0,"TOWNNAME":"七股區","LI":"三股里","LIN":"12鄰","STREET":" ","SECT":" ","MAREA":"三股","LANE":" ","ALLEY":" ","HOUSE_NO":"３０號之３","E_COORD97":159530.79999999999,"N_COORD97":2555436.6099999999,"ADDRESS":"三股３０號之３","OBJECTID":86399},"geometry":{"x":159530.80000000075,"y":2555436.6099999994}},{"attributes":{"ID":86400,"DIS_CODE":0,"TOWNNAME":"七股區","LI":"三股里","LIN":"12鄰","STREET":" ","SECT":" ","MAREA":"三股","LANE":" ","ALLEY":" ","HOUSE_NO":"３０號之４","E_COORD97":159534.67999999999,"N_COORD97":2555490.3100000001,"ADDRESS":"三股３０號之４","OBJECTID":86400},"geometry":{"x":159534.68000000063,"y":2555490.3100000024}}]}