{"displayFieldName":"TOWNNAME","fieldAliases":{"ID":"ID","DIS_CODE":"DIS_CODE","TOWNNAME":"TOWNNAME","LI":"LI","LIN":"LIN","STREET":"STREET","SECT":"SECT","MAREA":"MAREA","LANE":"LANE","ALLEY":"ALLEY","HOUSE_NO":"HOUSE_NO","E_COORD97":"E_COORD97","N_COORD97":"N_COORD97","ADDRESS":"ADDRESS","OBJECTID":"OBJECTID"},"geometryType":"esriGeometryPoint","spatialReference":{"wkid":102443,"latestWkid":3826},"fields":[{"name":"ID","type":"esriFieldTypeDouble","alias":"ID"},{"name":"DIS_CODE","type":"esriFieldTypeInteger","alias":"DIS_CODE"},{"name":"TOWNNAME","type":"esriFieldTypeString","alias":"TOWNNAME","length":8},{"name":"LI","type":"esriFieldTypeString","alias":"LI","length":8},{"name":"LIN","type":"esriFieldTypeString","alias":"LIN","length":12},{"name":"STREET","type":"esriFieldTypeString","alias":"STREET","length":20},{"name":"SECT","type":"esriFieldTypeString","alias":"SECT","length":8},{"name":"MAREA","type":"esriFieldTypeString","alias":"MAREA","length":12},{"name":"LANE","type":"esriFieldTypeString","alias":"LANE","length":10},{"name":"ALLEY","type":"esriFieldTypeString","alias":"ALLEY","length":10},{"name":"HOUSE_NO","type":"esriFieldTypeString","alias":"HOUSE_NO","length":20},{"name":"E_COORD97","type":"esriFieldTypeDouble","alias":"E_COORD97"},{"name":"N_COORD97","type":"esriFieldTypeDouble","alias":"N_COORD97"},{"name":"ADDRESS","type":"esriFieldTypeString","alias":"ADDRESS","length":50},{"name":"OBJECTID","type":"esriFieldTypeOID","alias":"OBJECTID"}],"features":[{"attributes":{"ID":51001,"DIS_CODE":0,"TOWNNAME":"後壁區","LI":"菁寮里","LIN":"1鄰","STREET":" ","SECT":" ","MAREA":"菁寮","LANE":" ","ALLEY":" ","HOUSE_NO":"１０號之１","E_COORD97":181904.39999999999,"N_COORD97":2586343.1800000002,"ADDRESS":"菁寮１０號之１","OBJECTID":51001},"geometry":{"x":181904.40000000037,"y":2586343.1799999997}},{"attributes":{"ID":51002,"DIS_CODE":0,"TOWNNAME":"後壁區","LI":"菁寮里","LIN":"1鄰","STREET":" ","SECT":" ","MAREA":"菁寮","LANE":" ","ALLEY":" ","HOUSE_NO":"１０號之３","E_COORD97":181901.14000000001,"N_COORD97":2586301.3999999999,"ADDRESS":"菁寮１０號之３","OBJECTID":51002},"geometry":{"x":181901.1400000006,"y":2586301.4000000022}},{"attributes":{"ID":51003,"DIS_CODE":0,"TOWNNAME":"後壁區","LI":"菁寮里","LIN":"1鄰","STREET":" ","SECT":" ","MAREA":"菁寮","LANE":" ","ALLEY":" ","HOUSE_NO":"１０號","E_COORD97":181882.45999999999,"N_COORD97":2586340.1099999999,"ADDRESS":"菁寮１０號","OBJECTID":51003},"geometry":{"x":181882.46000000089,"y":2586340.1099999994}},{"attributes":{"ID":51004,"DIS_CODE":0,"TOWNNAME":"後壁區","LI":"菁寮里","LIN":"1鄰","STREET":" ","SECT":" ","MAREA":"菁寮","LANE":" ","ALLEY":" ","HOUSE_NO":"１１號之３","E_COORD97":181915.29999999999,"N_COORD97":2586378.3900000001,"ADDRESS":"菁寮１１號之３","OBJECTID":51004},"geometry":{"x":181915.30000000075,"y":2586378.3900000043}},{"attributes":{"ID":51005,"DIS_CODE":0,"TOWNNAME":"仁德區","LI":"成功里","LIN":"15鄰","STREET":"全福路","SECT":" ","MAREA":" ","LANE":"８０巷","ALLEY":"１４弄","HOUSE_NO":"２４號","E_COORD97":170959.67000000001,"N_COORD97":2539280.5,"ADDRESS":"全福路８０巷１４弄２４號","OBJECTID":51005},"geometry":{"x":170959.66999999993,"y":2539280.5}},{"attributes":{"ID":51006,"DIS_CODE":0,"TOWNNAME":"仁德區","LI":"成功里","LIN":"15鄰","STREET":"全福路","SECT":" ","MAREA":" ","LANE":"８０巷","ALLEY":"１４弄","HOUSE_NO":"３４號","E_COORD97":170938.67000000001,"N_COORD97":2539281.5,"ADDRESS":"全福路８０巷１４弄３４號","OBJECTID":51006},"geometry":{"x":170938.67000000086,"y":2539281.5000000019}},{"attributes":{"ID":51007,"DIS_CODE":0,"TOWNNAME":"仁德區","LI":"成功里","LIN":"15鄰","STREET":"全福路","SECT":" ","MAREA":" ","LANE":"８０巷","ALLEY":"１４弄","HOUSE_NO":"１８號","E_COORD97":170972.26999999999,"N_COORD97":2539278.75,"ADDRESS":"全福路８０巷１４弄１８號","OBJECTID":51007},"geometry":{"x":170972.26999999955,"y":2539278.75}},{"attributes":{"ID":51008,"DIS_CODE":0,"TOWNNAME":"後壁區","LI":"菁寮里","LIN":"1鄰","STREET":" ","SECT":" ","MAREA":"菁寮","LANE":" ","ALLEY":" ","HOUSE_NO":"１１號","E_COORD97":181912.66,"N_COORD97":2586357.8999999999,"ADDRESS":"菁寮１１號","OBJECTID":51008},"geometry":{"x":181912.66000000015,"y":2586357.9000000022}},{"attributes":{"ID":51009,"DIS_CODE":0,"TOWNNAME":"仁德區","LI":"後壁里","LIN":"15鄰","STREET":"德善路","SECT":" ","MAREA":" ","LANE":"１０８巷","ALLEY":"１２弄","HOUSE_NO":"５號","E_COORD97":173464.09,"N_COORD97":2538750.52,"ADDRESS":"德善路１０８巷１２弄５號","OBJECTID":51009},"geometry":{"x":173464.08999999985,"y":2538750.5199999996}},{"attributes":{"ID":51010,"DIS_CODE":0,"TOWNNAME":"仁德區","LI":"成功里","LIN":"15鄰","STREET":"全福路","SECT":" ","MAREA":" ","LANE":"８０巷","ALLEY":"１４弄","HOUSE_NO":"７號","E_COORD97":170991.01999999999,"N_COORD97":2539259.25,"ADDRESS":"全福路８０巷１４弄７號","OBJECTID":51010},"geometry":{"x":170991.01999999862,"y":2539259.2500000037}},{"attributes":{"ID":51011,"DIS_CODE":0,"TOWNNAME":"仁德區","LI":"成功里","LIN":"15鄰","STREET":"全福路","SECT":" ","MAREA":" ","LANE":"８０巷","ALLEY":"１４弄","HOUSE_NO":"２５號","E_COORD97":170954.70999999999,"N_COORD97":2539262.25,"ADDRESS":"全福路８０巷１４弄２５號","OBJECTID":51011},"geometry":{"x":170954.71000000183,"y":2539262.2499999981}},{"attributes":{"ID":51012,"DIS_CODE":0,"TOWNNAME":"後壁區","LI":"墨林里","LIN":"1鄰","STREET":" ","SECT":" ","MAREA":"菁寮","LANE":" ","ALLEY":" ","HOUSE_NO":"１４５號","E_COORD97":182098.45000000001,"N_COORD97":2586548.27,"ADDRESS":"菁寮１４５號","OBJECTID":51012},"geometry":{"x":182098.45000000019,"y":2586548.2700000014}},{"attributes":{"ID":51013,"DIS_CODE":0,"TOWNNAME":"仁德區","LI":"成功里","LIN":"15鄰","STREET":"全福路","SECT":" ","MAREA":" ","LANE":"８０巷","ALLEY":"１４弄","HOUSE_NO":"５０號","E_COORD97":170904.26999999999,"N_COORD97":2539284.5,"ADDRESS":"全福路８０巷１４弄５０號","OBJECTID":51013},"geometry":{"x":170904.26999999955,"y":2539284.5000000037}},{"attributes":{"ID":51014,"DIS_CODE":0,"TOWNNAME":"仁德區","LI":"新田里","LIN":"15鄰","STREET":"民安路","SECT":"二段","MAREA":" ","LANE":"６３巷","ALLEY":"１７弄","HOUSE_NO":"５號","E_COORD97":173440.48000000001,"N_COORD97":2539283.0699999998,"ADDRESS":"民安路二段６３巷１７弄５號","OBJECTID":51014},"geometry":{"x":173440.48000000138,"y":2539283.0700000003}},{"attributes":{"ID":51015,"DIS_CODE":0,"TOWNNAME":"永康區","LI":"安康里","LIN":"15鄰","STREET":"中華路","SECT":" ","MAREA":" ","LANE":"６１９巷","ALLEY":"２２弄","HOUSE_NO":"１號之１","E_COORD97":170997.17000000001,"N_COORD97":2546088.54,"ADDRESS":"中華路６１９巷２２弄１號之１","OBJECTID":51015},"geometry":{"x":170997.16999999899,"y":2546088.540000001}},{"attributes":{"ID":51016,"DIS_CODE":0,"TOWNNAME":"永康區","LI":"安康里","LIN":"15鄰","STREET":"中華路","SECT":" ","MAREA":" ","LANE":"６１９巷","ALLEY":"２２弄","HOUSE_NO":"３號之１","E_COORD97":170990.81,"N_COORD97":2546099.2999999998,"ADDRESS":"中華路６１９巷２２弄３號之１","OBJECTID":51016},"geometry":{"x":170990.80999999866,"y":2546099.3000000026}},{"attributes":{"ID":51017,"DIS_CODE":0,"TOWNNAME":"佳里區","LI":"東寧里","LIN":"17鄰","STREET":"義民街","SECT":" ","MAREA":" ","LANE":" ","ALLEY":" ","HOUSE_NO":"５２號","E_COORD97":166018.48999999999,"N_COORD97":2562440.5499999998,"ADDRESS":"義民街５２號","OBJECTID":51017},"geometry":{"x":166018.49000000115,"y":2562440.5500000007}},{"attributes":{"ID":51018,"DIS_CODE":0,"TOWNNAME":"佳里區","LI":"東寧里","LIN":"17鄰","STREET":"義民街","SECT":" ","MAREA":" ","LANE":" ","ALLEY":" ","HOUSE_NO":"５４號","E_COORD97":166014.32999999999,"N_COORD97":2562440.04,"ADDRESS":"義民街５４號","OBJECTID":51018},"geometry":{"x":166014.33000000101,"y":2562440.040000001}},{"attributes":{"ID":51019,"DIS_CODE":0,"TOWNNAME":"佳里區","LI":"東寧里","LIN":"17鄰","STREET":"義民街","SECT":" ","MAREA":" ","LANE":" ","ALLEY":" ","HOUSE_NO":"５６號","E_COORD97":166010.22,"N_COORD97":2562438.9700000002,"ADDRESS":"義民街５６號","OBJECTID":51019},"geometry":{"x":166010.22000000067,"y":2562438.9700000025}},{"attributes":{"ID":51020,"DIS_CODE":0,"TOWNNAME":"佳里區","LI":"東寧里","LIN":"17鄰","STREET":"義民街","SECT":" ","MAREA":" ","LANE":" ","ALLEY":" ","HOUSE_NO":"５８號","E_COORD97":166005.85999999999,"N_COORD97":2562437.9199999999,"ADDRESS":"義民街５８號","OBJECTID":51020},"geometry":{"x":166005.8600000022,"y":2562437.9200000037}},{"attributes":{"ID":51021,"DIS_CODE":0,"TOWNNAME":"佳里區","LI":"東寧里","LIN":"17鄰","STREET":"義民街","SECT":" ","MAREA":" ","LANE":" ","ALLEY":" ","HOUSE_NO":"６０號","E_COORD97":166001.76999999999,"N_COORD97":2562436.8700000001,"ADDRESS":"義民街６０號","OBJECTID":51021},"geometry":{"x":166001.76999999955,"y":2562436.8700000029}},{"attributes":{"ID":51022,"DIS_CODE":0,"TOWNNAME":"佳里區","LI":"東寧里","LIN":"17鄰","STREET":"義民街","SECT":" ","MAREA":" ","LANE":" ","ALLEY":" ","HOUSE_NO":"６２號","E_COORD97":165991.23000000001,"N_COORD97":2562438,"ADDRESS":"義民街６２號","OBJECTID":51022},"geometry":{"x":165991.23000000045,"y":2562438.0000000019}},{"attributes":{"ID":51023,"DIS_CODE":0,"TOWNNAME":"佳里區","LI":"東寧里","LIN":"17鄰","STREET":"義民街","SECT":" ","MAREA":" ","LANE":" ","ALLEY":" ","HOUSE_NO":"７０號","E_COORD97":165973.84,"N_COORD97":2562436.48,"ADDRESS":"義民街７０號","OBJECTID":51023},"geometry":{"x":165973.84000000078,"y":2562436.4800000004}},{"attributes":{"ID":51024,"DIS_CODE":0,"TOWNNAME":"永康區","LI":"永康里","LIN":"17鄰","STREET":"永中街","SECT":" ","MAREA":" ","LANE":" ","ALLEY":" ","HOUSE_NO":"１２２號","E_COORD97":173973.59,"N_COORD97":2547253.0800000001,"ADDRESS":"永中街１２２號","OBJECTID":51024},"geometry":{"x":173973.59000000078,"y":2547253.0800000019}},{"attributes":{"ID":51025,"DIS_CODE":0,"TOWNNAME":"永康區","LI":"南灣里","LIN":"17鄰","STREET":"大灣路","SECT":" ","MAREA":" ","LANE":" ","ALLEY":" ","HOUSE_NO":"６９４號","E_COORD97":174366.16,"N_COORD97":2544582.21,"ADDRESS":"大灣路６９４號","OBJECTID":51025},"geometry":{"x":174366.16000000108,"y":2544582.2100000009}},{"attributes":{"ID":51026,"DIS_CODE":0,"TOWNNAME":"後壁區","LI":"墨林里","LIN":"1鄰","STREET":" ","SECT":" ","MAREA":"菁寮","LANE":" ","ALLEY":" ","HOUSE_NO":"１４６號","E_COORD97":182102.39000000001,"N_COORD97":2586577.4199999999,"ADDRESS":"菁寮１４６號","OBJECTID":51026},"geometry":{"x":182102.39000000153,"y":2586577.4200000037}},{"attributes":{"ID":51027,"DIS_CODE":0,"TOWNNAME":"永康區","LI":"尚頂里","LIN":"15鄰","STREET":"中正南路","SECT":" ","MAREA":" ","LANE":"２４２巷","ALLEY":"４弄","HOUSE_NO":"１０１號","E_COORD97":170575.07000000001,"N_COORD97":2547361.2599999998,"ADDRESS":"中正南路２４２巷４弄１０１號","OBJECTID":51027},"geometry":{"x":170575.07000000123,"y":2547361.2599999998}},{"attributes":{"ID":51028,"DIS_CODE":0,"TOWNNAME":"佳里區","LI":"鎮山里","LIN":"17鄰","STREET":" ","SECT":" ","MAREA":"鎮山","LANE":" ","ALLEY":" ","HOUSE_NO":"１６２號之１６","E_COORD97":166218.42999999999,"N_COORD97":2561218.2200000002,"ADDRESS":"鎮山１６２號之１６","OBJECTID":51028},"geometry":{"x":166218.43000000063,"y":2561218.2200000007}},{"attributes":{"ID":51029,"DIS_CODE":0,"TOWNNAME":"永康區","LI":"正強里","LIN":"15鄰","STREET":"中山南路","SECT":" ","MAREA":" ","LANE":"４７１巷","ALLEY":"８１弄","HOUSE_NO":"７號","E_COORD97":173273.53,"N_COORD97":2547223.3999999999,"ADDRESS":"中山南路４７１巷８１弄７號","OBJECTID":51029},"geometry":{"x":173273.53000000212,"y":2547223.4000000022}},{"attributes":{"ID":51030,"DIS_CODE":0,"TOWNNAME":"佳里區","LI":"鎮山里","LIN":"17鄰","STREET":" ","SECT":" ","MAREA":"鎮山","LANE":" ","ALLEY":" ","HOUSE_NO":"１６２號之１７","E_COORD97":166213.85000000001,"N_COORD97":2561217.5600000001,"ADDRESS":"鎮山１６２號之１７","OBJECTID":51030},"geometry":{"x":166213.85000000056,"y":2561217.5600000024}},{"attributes":{"ID":51031,"DIS_CODE":0,"TOWNNAME":"佳里區","LI":"鎮山里","LIN":"17鄰","STREET":" ","SECT":" ","MAREA":"鎮山","LANE":" ","ALLEY":" ","HOUSE_NO":"１６２號之１","E_COORD97":166255.72,"N_COORD97":2561254.9399999999,"ADDRESS":"鎮山１６２號之１","OBJECTID":51031},"geometry":{"x":166255.72000000067,"y":2561254.9400000013}},{"attributes":{"ID":51032,"DIS_CODE":0,"TOWNNAME":"佳里區","LI":"鎮山里","LIN":"17鄰","STREET":" ","SECT":" ","MAREA":"鎮山","LANE":" ","ALLEY":" ","HOUSE_NO":"１６２號之２","E_COORD97":166244.88,"N_COORD97":2561241.9399999999,"ADDRESS":"鎮山１６２號之２","OBJECTID":51032},"geometry":{"x":166244.88000000082,"y":2561241.9400000013}},{"attributes":{"ID":51033,"DIS_CODE":0,"TOWNNAME":"永康區","LI":"網寮里","LIN":"15鄰","STREET":"永和街","SECT":" ","MAREA":" ","LANE":"２６０巷","ALLEY":"２６弄","HOUSE_NO":"１８號","E_COORD97":173478.48000000001,"N_COORD97":2546629.5,"ADDRESS":"永和街２６０巷２６弄１８號","OBJECTID":51033},"geometry":{"x":173478.48000000045,"y":2546629.5000000019}},{"attributes":{"ID":51034,"DIS_CODE":0,"TOWNNAME":"永康區","LI":"尚頂里","LIN":"15鄰","STREET":"中正南路","SECT":" ","MAREA":" ","LANE":"２４２巷","ALLEY":"４弄","HOUSE_NO":"５７號","E_COORD97":170418.41,"N_COORD97":2547349.2400000002,"ADDRESS":"中正南路２４２巷４弄５７號","OBJECTID":51034},"geometry":{"x":170418.41000000108,"y":2547349.2400000021}},{"attributes":{"ID":51035,"DIS_CODE":0,"TOWNNAME":"永康區","LI":"正強里","LIN":"15鄰","STREET":"中山南路","SECT":" ","MAREA":" ","LANE":"４７１巷","ALLEY":"８１弄","HOUSE_NO":"３１號","E_COORD97":173270.73000000001,"N_COORD97":2547257.1000000001,"ADDRESS":"中山南路４７１巷８１弄３１號","OBJECTID":51035},"geometry":{"x":173270.73000000231,"y":2547257.0999999996}},{"attributes":{"ID":51036,"DIS_CODE":0,"TOWNNAME":"永康區","LI":"五王里","LIN":"15鄰","STREET":"中華二路","SECT":" ","MAREA":" ","LANE":"２０６巷","ALLEY":"６８弄","HOUSE_NO":"５號","E_COORD97":171610.60999999999,"N_COORD97":2545664.4500000002,"ADDRESS":"中華二路２０６巷６８弄５號","OBJECTID":51036},"geometry":{"x":171610.61000000127,"y":2545664.4499999993}},{"attributes":{"ID":51037,"DIS_CODE":0,"TOWNNAME":"佳里區","LI":"鎮山里","LIN":"17鄰","STREET":" ","SECT":" ","MAREA":"鎮山","LANE":" ","ALLEY":" ","HOUSE_NO":"１６２號之３","E_COORD97":166241.64000000001,"N_COORD97":2561236.7599999998,"ADDRESS":"鎮山１６２號之３","OBJECTID":51037},"geometry":{"x":166241.63999999966,"y":2561236.7600000016}},{"attributes":{"ID":51038,"DIS_CODE":0,"TOWNNAME":"佳里區","LI":"鎮山里","LIN":"17鄰","STREET":" ","SECT":" ","MAREA":"鎮山","LANE":" ","ALLEY":" ","HOUSE_NO":"１６２號之４","E_COORD97":166236.12,"N_COORD97":2561233.0099999998,"ADDRESS":"鎮山１６２號之４","OBJECTID":51038},"geometry":{"x":166236.12000000197,"y":2561233.0099999998}},{"attributes":{"ID":51039,"DIS_CODE":0,"TOWNNAME":"佳里區","LI":"鎮山里","LIN":"17鄰","STREET":" ","SECT":" ","MAREA":"鎮山","LANE":" ","ALLEY":" ","HOUSE_NO":"１６２號之５","E_COORD97":166233.20999999999,"N_COORD97":2561229.71,"ADDRESS":"鎮山１６２號之５","OBJECTID":51039},"geometry":{"x":166233.20999999996,"y":2561229.709999999}},{"attributes":{"ID":51040,"DIS_CODE":0,"TOWNNAME":"佳里區","LI":"鎮山里","LIN":"17鄰","STREET":" ","SECT":" ","MAREA":"鎮山","LANE":" ","ALLEY":" ","HOUSE_NO":"１６２號之６","E_COORD97":166233.60000000001,"N_COORD97":2561225.2999999998,"ADDRESS":"鎮山１６２號之６","OBJECTID":51040},"geometry":{"x":166233.59999999963,"y":2561225.3000000007}},{"attributes":{"ID":51041,"DIS_CODE":0,"TOWNNAME":"佳里區","LI":"鎮山里","LIN":"17鄰","STREET":" ","SECT":" ","MAREA":"鎮山","LANE":" ","ALLEY":" ","HOUSE_NO":"１６２號之７","E_COORD97":166233.22,"N_COORD97":2561219.25,"ADDRESS":"鎮山１６２號之７","OBJECTID":51041},"geometry":{"x":166233.2200000016,"y":2561219.2500000019}},{"attributes":{"ID":51042,"DIS_CODE":0,"TOWNNAME":"永康區","LI":"安康里","LIN":"15鄰","STREET":"中華路","SECT":" ","MAREA":" ","LANE":"６１９巷","ALLEY":"２２弄","HOUSE_NO":"１３號","E_COORD97":170977.51999999999,"N_COORD97":2546120.5,"ADDRESS":"中華路６１９巷２２弄１３號","OBJECTID":51042},"geometry":{"x":170977.52000000142,"y":2546120.5000000019}},{"attributes":{"ID":51043,"DIS_CODE":0,"TOWNNAME":"永康區","LI":"烏竹里","LIN":"17鄰","STREET":"龍橋街","SECT":" ","MAREA":" ","LANE":" ","ALLEY":" ","HOUSE_NO":"２２３號","E_COORD97":174592.07000000001,"N_COORD97":2548758.7400000002,"ADDRESS":"龍橋街２２３號","OBJECTID":51043},"geometry":{"x":174592.06999999937,"y":2548758.7400000002}},{"attributes":{"ID":51044,"DIS_CODE":0,"TOWNNAME":"永康區","LI":"烏竹里","LIN":"17鄰","STREET":"竹園一街","SECT":" ","MAREA":" ","LANE":" ","ALLEY":" ","HOUSE_NO":"４１之１號","E_COORD97":174436.60999999999,"N_COORD97":2548958.6699999999,"ADDRESS":"竹園一街４１之１號","OBJECTID":51044},"geometry":{"x":174436.61000000127,"y":2548958.6699999999}},{"attributes":{"ID":51045,"DIS_CODE":0,"TOWNNAME":"佳里區","LI":"鎮山里","LIN":"17鄰","STREET":" ","SECT":" ","MAREA":"鎮山","LANE":" ","ALLEY":" ","HOUSE_NO":"１６２號之８","E_COORD97":166242.81,"N_COORD97":2561269.48,"ADDRESS":"鎮山１６２號之８","OBJECTID":51045},"geometry":{"x":166242.81000000052,"y":2561269.4800000023}},{"attributes":{"ID":51046,"DIS_CODE":0,"TOWNNAME":"永康區","LI":"烏竹里","LIN":"17鄰","STREET":"竹園一街","SECT":" ","MAREA":" ","LANE":" ","ALLEY":" ","HOUSE_NO":"４１之９號","E_COORD97":174425.04999999999,"N_COORD97":2548941.1699999999,"ADDRESS":"竹園一街４１之９號","OBJECTID":51046},"geometry":{"x":174425.04999999981,"y":2548941.1699999999}},{"attributes":{"ID":51047,"DIS_CODE":0,"TOWNNAME":"佳里區","LI":"鎮山里","LIN":"17鄰","STREET":" ","SECT":" ","MAREA":"鎮山","LANE":" ","ALLEY":" ","HOUSE_NO":"１６２號之９","E_COORD97":166238.04000000001,"N_COORD97":2561269.1800000002,"ADDRESS":"鎮山１６２號之９","OBJECTID":51047},"geometry":{"x":166238.03999999911,"y":2561269.1799999997}},{"attributes":{"ID":51048,"DIS_CODE":0,"TOWNNAME":"後壁區","LI":"墨林里","LIN":"1鄰","STREET":" ","SECT":" ","MAREA":"菁寮","LANE":" ","ALLEY":" ","HOUSE_NO":"１４７號","E_COORD97":182077.34,"N_COORD97":2586559.4199999999,"ADDRESS":"菁寮１４７號之１","OBJECTID":51048},"geometry":{"x":182077.33999999985,"y":2586559.4199999999}},{"attributes":{"ID":51049,"DIS_CODE":0,"TOWNNAME":"後壁區","LI":"墨林里","LIN":"1鄰","STREET":" ","SECT":" ","MAREA":"菁寮","LANE":" ","ALLEY":" ","HOUSE_NO":"１４８號","E_COORD97":182060.78,"N_COORD97":2586584.9900000002,"ADDRESS":"菁寮１４８號","OBJECTID":51049},"geometry":{"x":182060.78000000026,"y":2586584.9900000021}},{"attributes":{"ID":51050,"DIS_CODE":0,"TOWNNAME":"佳里區","LI":"鎮山里","LIN":"17鄰","STREET":"鎮山街","SECT":" ","MAREA":" ","LANE":" ","ALLEY":" ","HOUSE_NO":"６８號","E_COORD97":166293.28,"N_COORD97":2561245.98,"ADDRESS":"鎮山街６８號","OBJECTID":51050},"geometry":{"x":166293.28000000119,"y":2561245.9800000023}},{"attributes":{"ID":51051,"DIS_CODE":0,"TOWNNAME":"佳里區","LI":"鎮山里","LIN":"17鄰","STREET":" ","SECT":" ","MAREA":"鎮山","LANE":" ","ALLEY":" ","HOUSE_NO":"１６２號","E_COORD97":166257.17000000001,"N_COORD97":2561261.9700000002,"ADDRESS":"鎮山１６２號","OBJECTID":51051},"geometry":{"x":166257.16999999993,"y":2561261.9700000044}},{"attributes":{"ID":51052,"DIS_CODE":0,"TOWNNAME":"佳里區","LI":"鎮山里","LIN":"17鄰","STREET":" ","SECT":" ","MAREA":"鎮山","LANE":" ","ALLEY":" ","HOUSE_NO":"１６３號","E_COORD97":166318.45999999999,"N_COORD97":2561269.75,"ADDRESS":"鎮山１６３號","OBJECTID":51052},"geometry":{"x":166318.46000000089,"y":2561269.7500000019}},{"attributes":{"ID":51053,"DIS_CODE":0,"TOWNNAME":"後壁區","LI":"墨林里","LIN":"1鄰","STREET":" ","SECT":" ","MAREA":"菁寮","LANE":" ","ALLEY":" ","HOUSE_NO":"１４９號之１０","E_COORD97":182068.73000000001,"N_COORD97":2586617.1899999999,"ADDRESS":"菁寮１４９號之１０","OBJECTID":51053},"geometry":{"x":182068.73000000231,"y":2586617.1900000013}},{"attributes":{"ID":51054,"DIS_CODE":0,"TOWNNAME":"後壁區","LI":"墨林里","LIN":"1鄰","STREET":" ","SECT":" ","MAREA":"菁寮","LANE":" ","ALLEY":" ","HOUSE_NO":"１４９號之１","E_COORD97":182068.23999999999,"N_COORD97":2586612.48,"ADDRESS":"菁寮１４９號之１","OBJECTID":51054},"geometry":{"x":182068.24000000022,"y":2586612.4800000023}},{"attributes":{"ID":51055,"DIS_CODE":0,"TOWNNAME":"後壁區","LI":"墨林里","LIN":"1鄰","STREET":" ","SECT":" ","MAREA":"菁寮","LANE":" ","ALLEY":" ","HOUSE_NO":"１４９號","E_COORD97":182074.89999999999,"N_COORD97":2586624.1499999999,"ADDRESS":"菁寮１４９號","OBJECTID":51055},"geometry":{"x":182074.9000000013,"y":2586624.1500000022}},{"attributes":{"ID":51056,"DIS_CODE":0,"TOWNNAME":"後壁區","LI":"墨林里","LIN":"1鄰","STREET":" ","SECT":" ","MAREA":"菁寮","LANE":" ","ALLEY":" ","HOUSE_NO":"１５０號之１０","E_COORD97":182065.79000000001,"N_COORD97":2586666.8900000001,"ADDRESS":"菁寮１５０號之１０","OBJECTID":51056},"geometry":{"x":182065.79000000004,"y":2586666.8900000025}},{"attributes":{"ID":51057,"DIS_CODE":0,"TOWNNAME":"後壁區","LI":"墨林里","LIN":"1鄰","STREET":" ","SECT":" ","MAREA":"菁寮","LANE":" ","ALLEY":" ","HOUSE_NO":"１５０號之１１","E_COORD97":182065.25,"N_COORD97":2586662.54,"ADDRESS":"菁寮１５０號之１１","OBJECTID":51057},"geometry":{"x":182065.25000000093,"y":2586662.5399999991}},{"attributes":{"ID":51058,"DIS_CODE":0,"TOWNNAME":"後壁區","LI":"墨林里","LIN":"1鄰","STREET":" ","SECT":" ","MAREA":"菁寮","LANE":" ","ALLEY":" ","HOUSE_NO":"１５０號之１２","E_COORD97":182064,"N_COORD97":2586658.1000000001,"ADDRESS":"菁寮１５０號之１２","OBJECTID":51058},"geometry":{"x":182064,"y":2586658.1000000015}},{"attributes":{"ID":51059,"DIS_CODE":0,"TOWNNAME":"永康區","LI":"埔園里","LIN":"15鄰","STREET":"中山路","SECT":" ","MAREA":" ","LANE":"３８３巷","ALLEY":"１弄","HOUSE_NO":"２７號","E_COORD97":173542.88,"N_COORD97":2548466.0899999999,"ADDRESS":"中山路３８３巷１弄２７號","OBJECTID":51059},"geometry":{"x":173542.87999999989,"y":2548466.0900000017}},{"attributes":{"ID":51060,"DIS_CODE":0,"TOWNNAME":"永康區","LI":"三合里","LIN":"15鄰","STREET":"南工街","SECT":" ","MAREA":" ","LANE":"２４７巷","ALLEY":"２３弄","HOUSE_NO":"８號","E_COORD97":172006.14999999999,"N_COORD97":2545875.1000000001,"ADDRESS":"南工街２４７巷２３弄８號","OBJECTID":51060},"geometry":{"x":172006.15000000037,"y":2545875.1000000015}},{"attributes":{"ID":51061,"DIS_CODE":0,"TOWNNAME":"永康區","LI":"正強里","LIN":"15鄰","STREET":"中山南路","SECT":" ","MAREA":" ","LANE":"４７１巷","ALLEY":"８１弄","HOUSE_NO":"６６號","E_COORD97":173335.42999999999,"N_COORD97":2547283.25,"ADDRESS":"中山南路４７１巷８１弄６６號","OBJECTID":51061},"geometry":{"x":173335.43000000063,"y":2547283.25}},{"attributes":{"ID":51062,"DIS_CODE":0,"TOWNNAME":"永康區","LI":"埔園里","LIN":"15鄰","STREET":"中山路","SECT":" ","MAREA":" ","LANE":"３８３巷","ALLEY":"１弄","HOUSE_NO":"１９號","E_COORD97":173537.85000000001,"N_COORD97":2548484.3500000001,"ADDRESS":"中山路３８３巷１弄１９號","OBJECTID":51062},"geometry":{"x":173537.84999999963,"y":2548484.3500000015}},{"attributes":{"ID":51063,"DIS_CODE":0,"TOWNNAME":"永康區","LI":"埔園里","LIN":"15鄰","STREET":"中山路","SECT":" ","MAREA":" ","LANE":"３８３巷","ALLEY":"１弄","HOUSE_NO":"１３號","E_COORD97":173534.82999999999,"N_COORD97":2548496.8500000001,"ADDRESS":"中山路３８３巷１弄１３號","OBJECTID":51063},"geometry":{"x":173534.83000000101,"y":2548496.8500000034}},{"attributes":{"ID":51064,"DIS_CODE":0,"TOWNNAME":"永康區","LI":"烏竹里","LIN":"15鄰","STREET":"龍橋街","SECT":" ","MAREA":" ","LANE":"３５０巷","ALLEY":"１３３弄","HOUSE_NO":"２號","E_COORD97":174773.48999999999,"N_COORD97":2549323.54,"ADDRESS":"龍橋街３５０巷１３３弄２號","OBJECTID":51064},"geometry":{"x":174773.49000000022,"y":2549323.540000001}},{"attributes":{"ID":51065,"DIS_CODE":0,"TOWNNAME":"永康區","LI":"埔園里","LIN":"15鄰","STREET":"中山路","SECT":" ","MAREA":" ","LANE":"３８３巷","ALLEY":"１弄","HOUSE_NO":"５號","E_COORD97":173529.16,"N_COORD97":2548513.1000000001,"ADDRESS":"中山路３８３巷１弄５號","OBJECTID":51065},"geometry":{"x":173529.16000000108,"y":2548513.1000000015}},{"attributes":{"ID":51066,"DIS_CODE":0,"TOWNNAME":"永康區","LI":"埔園里","LIN":"15鄰","STREET":"中山路","SECT":" ","MAREA":" ","LANE":"３８３巷","ALLEY":"１弄","HOUSE_NO":"１６號","E_COORD97":173520.94,"N_COORD97":2548496.48,"ADDRESS":"中山路３８３巷１弄１６號","OBJECTID":51066},"geometry":{"x":173520.94000000041,"y":2548496.4800000004}},{"attributes":{"ID":51067,"DIS_CODE":0,"TOWNNAME":"安南區","LI":"頂安里","LIN":"15鄰","STREET":"安中路","SECT":"一段","MAREA":" ","LANE":"２２０巷","ALLEY":"５７弄","HOUSE_NO":"１８號","E_COORD97":168667.39000000001,"N_COORD97":2548747.77,"ADDRESS":"安中路一段２２０巷５７弄１８號","OBJECTID":51067},"geometry":{"x":168667.38999999966,"y":2548747.7699999996}},{"attributes":{"ID":51068,"DIS_CODE":0,"TOWNNAME":"後壁區","LI":"墨林里","LIN":"1鄰","STREET":" ","SECT":" ","MAREA":"菁寮","LANE":" ","ALLEY":" ","HOUSE_NO":"１５０號之１３","E_COORD97":182090.29999999999,"N_COORD97":2586665.2799999998,"ADDRESS":"菁寮１５０號之１３","OBJECTID":51068},"geometry":{"x":182090.30000000075,"y":2586665.2799999993}},{"attributes":{"ID":51069,"DIS_CODE":0,"TOWNNAME":"後壁區","LI":"墨林里","LIN":"1鄰","STREET":" ","SECT":" ","MAREA":"菁寮","LANE":" ","ALLEY":" ","HOUSE_NO":"１５０號之１４","E_COORD97":182089.62,"N_COORD97":2586661.1299999999,"ADDRESS":"菁寮１５０號之１４","OBJECTID":51069},"geometry":{"x":182089.62000000104,"y":2586661.1300000008}},{"attributes":{"ID":51070,"DIS_CODE":0,"TOWNNAME":"後壁區","LI":"墨林里","LIN":"1鄰","STREET":" ","SECT":" ","MAREA":"菁寮","LANE":" ","ALLEY":" ","HOUSE_NO":"１５０號之１５","E_COORD97":182088.45999999999,"N_COORD97":2586656.5800000001,"ADDRESS":"菁寮１５０號之１５","OBJECTID":51070},"geometry":{"x":182088.45999999996,"y":2586656.5800000001}},{"attributes":{"ID":51071,"DIS_CODE":0,"TOWNNAME":"後壁區","LI":"墨林里","LIN":"1鄰","STREET":" ","SECT":" ","MAREA":"菁寮","LANE":" ","ALLEY":" ","HOUSE_NO":"１５０號之１６","E_COORD97":182087.42000000001,"N_COORD97":2586652.6600000001,"ADDRESS":"菁寮１５０號之１６","OBJECTID":51071},"geometry":{"x":182087.42000000086,"y":2586652.6600000001}},{"attributes":{"ID":51072,"DIS_CODE":0,"TOWNNAME":"安南區","LI":"頂安里","LIN":"15鄰","STREET":"安中路","SECT":"一段","MAREA":" ","LANE":"２２０巷","ALLEY":"５７弄","HOUSE_NO":"１２號","E_COORD97":168665.32000000001,"N_COORD97":2548737.29,"ADDRESS":"安中路一段２２０巷５７弄１２號","OBJECTID":51072},"geometry":{"x":168665.3200000003,"y":2548737.2900000028}},{"attributes":{"ID":51073,"DIS_CODE":0,"TOWNNAME":"安南區","LI":"頂安里","LIN":"15鄰","STREET":"安中路","SECT":"一段","MAREA":" ","LANE":"２２０巷","ALLEY":"５７弄","HOUSE_NO":"１６號","E_COORD97":168666.42999999999,"N_COORD97":2548742.5299999998,"ADDRESS":"安中路一段２２０巷５７弄１６號","OBJECTID":51073},"geometry":{"x":168666.43000000063,"y":2548742.5299999975}},{"attributes":{"ID":51074,"DIS_CODE":0,"TOWNNAME":"安南區","LI":"頂安里","LIN":"15鄰","STREET":"安中路","SECT":"一段","MAREA":" ","LANE":"２２０巷","ALLEY":"５７弄","HOUSE_NO":"２０號","E_COORD97":168668.17999999999,"N_COORD97":2548752.6899999999,"ADDRESS":"安中路一段２２０巷５７弄２０號","OBJECTID":51074},"geometry":{"x":168668.18000000063,"y":2548752.6900000013}},{"attributes":{"ID":51075,"DIS_CODE":0,"TOWNNAME":"安南區","LI":"頂安里","LIN":"15鄰","STREET":"安中路","SECT":"一段","MAREA":" ","LANE":"２２０巷","ALLEY":"５７弄","HOUSE_NO":"２２號","E_COORD97":168669.29000000001,"N_COORD97":2548757.6099999999,"ADDRESS":"安中路一段２２０巷５７弄２２號","OBJECTID":51075},"geometry":{"x":168669.29000000097,"y":2548757.6099999994}},{"attributes":{"ID":51076,"DIS_CODE":0,"TOWNNAME":"安南區","LI":"頂安里","LIN":"15鄰","STREET":"安中路","SECT":"一段","MAREA":" ","LANE":"２２０巷","ALLEY":"５７弄","HOUSE_NO":"２６號","E_COORD97":168670.09,"N_COORD97":2548762.3700000001,"ADDRESS":"安中路一段２２０巷５７弄２６號","OBJECTID":51076},"geometry":{"x":168670.08999999985,"y":2548762.3699999992}},{"attributes":{"ID":51077,"DIS_CODE":0,"TOWNNAME":"安南區","LI":"頂安里","LIN":"15鄰","STREET":"安中路","SECT":"一段","MAREA":" ","LANE":"２２０巷","ALLEY":"５７弄","HOUSE_NO":"２８號","E_COORD97":168670.88,"N_COORD97":2548766.6600000001,"ADDRESS":"安中路一段２２０巷５７弄２８號","OBJECTID":51077},"geometry":{"x":168670.87999999989,"y":2548766.6600000039}},{"attributes":{"ID":51078,"DIS_CODE":0,"TOWNNAME":"安南區","LI":"頂安里","LIN":"15鄰","STREET":"安中路","SECT":"一段","MAREA":" ","LANE":"２２０巷","ALLEY":"５７弄","HOUSE_NO":"３０號","E_COORD97":168671.67000000001,"N_COORD97":2548771.1099999999,"ADDRESS":"安中路一段２２０巷５７弄３０號","OBJECTID":51078},"geometry":{"x":168671.67000000086,"y":2548771.1099999994}},{"attributes":{"ID":51079,"DIS_CODE":0,"TOWNNAME":"安南區","LI":"頂安里","LIN":"15鄰","STREET":"安中路","SECT":"一段","MAREA":" ","LANE":"２２０巷","ALLEY":"５７弄","HOUSE_NO":"３２號","E_COORD97":168672.47,"N_COORD97":2548775.23,"ADDRESS":"安中路一段２２０巷５７弄３２號","OBJECTID":51079},"geometry":{"x":168672.46999999974,"y":2548775.2300000004}},{"attributes":{"ID":51080,"DIS_CODE":0,"TOWNNAME":"安南區","LI":"頂安里","LIN":"15鄰","STREET":"安中路","SECT":"一段","MAREA":" ","LANE":"２２０巷","ALLEY":"５７弄","HOUSE_NO":"３６號","E_COORD97":168662.78,"N_COORD97":2548777.2999999998,"ADDRESS":"安中路一段２２０巷５７弄３６號","OBJECTID":51080},"geometry":{"x":168662.78000000119,"y":2548777.3000000026}},{"attributes":{"ID":51081,"DIS_CODE":0,"TOWNNAME":"安南區","LI":"頂安里","LIN":"15鄰","STREET":"安中路","SECT":"一段","MAREA":" ","LANE":"２２０巷","ALLEY":"５７弄","HOUSE_NO":"３８號","E_COORD97":168661.82999999999,"N_COORD97":2548773.0099999998,"ADDRESS":"安中路一段２２０巷５７弄３８號","OBJECTID":51081},"geometry":{"x":168661.83000000007,"y":2548773.0099999998}},{"attributes":{"ID":51082,"DIS_CODE":0,"TOWNNAME":"安南區","LI":"頂安里","LIN":"15鄰","STREET":"安中路","SECT":"一段","MAREA":" ","LANE":"２２０巷","ALLEY":"５７弄","HOUSE_NO":"４０號","E_COORD97":168660.56,"N_COORD97":2548768.5699999998,"ADDRESS":"安中路一段２２０巷５７弄４０號","OBJECTID":51082},"geometry":{"x":168660.56000000052,"y":2548768.5700000022}},{"attributes":{"ID":51083,"DIS_CODE":0,"TOWNNAME":"安南區","LI":"頂安里","LIN":"15鄰","STREET":"安中路","SECT":"一段","MAREA":" ","LANE":"２２０巷","ALLEY":"５７弄","HOUSE_NO":"４２號","E_COORD97":168660.39999999999,"N_COORD97":2548764.9100000001,"ADDRESS":"安中路一段２２０巷５７弄４２號","OBJECTID":51083},"geometry":{"x":168660.4000000013,"y":2548764.9100000039}},{"attributes":{"ID":51084,"DIS_CODE":0,"TOWNNAME":"安南區","LI":"頂安里","LIN":"15鄰","STREET":"安中路","SECT":"一段","MAREA":" ","LANE":"２２０巷","ALLEY":"５７弄","HOUSE_NO":"４６號","E_COORD97":168658.81,"N_COORD97":2548759.8300000001,"ADDRESS":"安中路一段２２０巷５７弄４６號","OBJECTID":51084},"geometry":{"x":168658.81000000052,"y":2548759.8300000019}},{"attributes":{"ID":51085,"DIS_CODE":0,"TOWNNAME":"安南區","LI":"頂安里","LIN":"15鄰","STREET":"安中路","SECT":"一段","MAREA":" ","LANE":"２２０巷","ALLEY":"５７弄","HOUSE_NO":"４８號","E_COORD97":168657.23000000001,"N_COORD97":2548754.75,"ADDRESS":"安中路一段２２０巷５７弄４８號","OBJECTID":51085},"geometry":{"x":168657.23000000045,"y":2548754.75}},{"attributes":{"ID":51086,"DIS_CODE":0,"TOWNNAME":"安南區","LI":"頂安里","LIN":"15鄰","STREET":"安中路","SECT":"一段","MAREA":" ","LANE":"２２０巷","ALLEY":"５７弄","HOUSE_NO":"５０號","E_COORD97":168656.12,"N_COORD97":2548749.6699999999,"ADDRESS":"安中路一段２２０巷５７弄５０號","OBJECTID":51086},"geometry":{"x":168656.12000000011,"y":2548749.6700000018}},{"attributes":{"ID":51087,"DIS_CODE":0,"TOWNNAME":"安南區","LI":"頂安里","LIN":"15鄰","STREET":"安中路","SECT":"一段","MAREA":" ","LANE":"２２０巷","ALLEY":"５７弄","HOUSE_NO":"５２號","E_COORD97":168654.69,"N_COORD97":2548744.4399999999,"ADDRESS":"安中路一段２２０巷５７弄５２號","OBJECTID":51087},"geometry":{"x":168654.69000000041,"y":2548744.4400000013}},{"attributes":{"ID":51088,"DIS_CODE":0,"TOWNNAME":"後壁區","LI":"墨林里","LIN":"1鄰","STREET":" ","SECT":" ","MAREA":"菁寮","LANE":" ","ALLEY":" ","HOUSE_NO":"１５０號之１７","E_COORD97":182113.31,"N_COORD97":2586662.46,"ADDRESS":"菁寮１５０號之１７","OBJECTID":51088},"geometry":{"x":182113.31000000052,"y":2586662.4600000009}},{"attributes":{"ID":51089,"DIS_CODE":0,"TOWNNAME":"後壁區","LI":"墨林里","LIN":"1鄰","STREET":" ","SECT":" ","MAREA":"菁寮","LANE":" ","ALLEY":" ","HOUSE_NO":"１５０號之１９","E_COORD97":182111.29999999999,"N_COORD97":2586654.46,"ADDRESS":"菁寮１５０號之１９","OBJECTID":51089},"geometry":{"x":182111.29999999981,"y":2586654.4600000009}},{"attributes":{"ID":51090,"DIS_CODE":0,"TOWNNAME":"後壁區","LI":"墨林里","LIN":"1鄰","STREET":" ","SECT":" ","MAREA":"菁寮","LANE":" ","ALLEY":" ","HOUSE_NO":"１５０號之１","E_COORD97":182061.25,"N_COORD97":2586644.79,"ADDRESS":"菁寮１５０號之１","OBJECTID":51090},"geometry":{"x":182061.25000000186,"y":2586644.7899999991}},{"attributes":{"ID":51091,"DIS_CODE":0,"TOWNNAME":"後壁區","LI":"墨林里","LIN":"1鄰","STREET":" ","SECT":" ","MAREA":"菁寮","LANE":" ","ALLEY":" ","HOUSE_NO":"１５０號之２０","E_COORD97":182110.39999999999,"N_COORD97":2586650.48,"ADDRESS":"菁寮１５０號之２０","OBJECTID":51091},"geometry":{"x":182110.4000000013,"y":2586650.4800000004}},{"attributes":{"ID":51092,"DIS_CODE":0,"TOWNNAME":"後壁區","LI":"墨林里","LIN":"1鄰","STREET":" ","SECT":" ","MAREA":"菁寮","LANE":" ","ALLEY":" ","HOUSE_NO":"１５０號之２５","E_COORD97":182115.60999999999,"N_COORD97":2586667.8500000001,"ADDRESS":"菁寮１５０號之２５","OBJECTID":51092},"geometry":{"x":182115.61000000127,"y":2586667.8499999996}},{"attributes":{"ID":51093,"DIS_CODE":0,"TOWNNAME":"後壁區","LI":"墨林里","LIN":"1鄰","STREET":" ","SECT":" ","MAREA":"菁寮","LANE":" ","ALLEY":" ","HOUSE_NO":"１５０號之２６","E_COORD97":182115.82000000001,"N_COORD97":2586674.3999999999,"ADDRESS":"菁寮１５０號之２６","OBJECTID":51093},"geometry":{"x":182115.82000000123,"y":2586674.4000000022}},{"attributes":{"ID":51094,"DIS_CODE":0,"TOWNNAME":"後壁區","LI":"墨林里","LIN":"1鄰","STREET":" ","SECT":" ","MAREA":"菁寮","LANE":" ","ALLEY":" ","HOUSE_NO":"１５０號之２７","E_COORD97":182116.94,"N_COORD97":2586678.52,"ADDRESS":"菁寮１５０號之２７","OBJECTID":51094},"geometry":{"x":182116.94000000134,"y":2586678.5200000014}},{"attributes":{"ID":51095,"DIS_CODE":0,"TOWNNAME":"後壁區","LI":"墨林里","LIN":"1鄰","STREET":" ","SECT":" ","MAREA":"菁寮","LANE":" ","ALLEY":" ","HOUSE_NO":"１５０號之２","E_COORD97":182062.34,"N_COORD97":2586649.1400000001,"ADDRESS":"菁寮１５０號之２","OBJECTID":51095},"geometry":{"x":182062.34000000171,"y":2586649.1400000025}},{"attributes":{"ID":51096,"DIS_CODE":0,"TOWNNAME":"後壁區","LI":"墨林里","LIN":"1鄰","STREET":" ","SECT":" ","MAREA":"菁寮","LANE":" ","ALLEY":" ","HOUSE_NO":"１５０號之３","E_COORD97":182063.07000000001,"N_COORD97":2586653.23,"ADDRESS":"菁寮１５０號之３","OBJECTID":51096},"geometry":{"x":182063.07000000123,"y":2586653.2300000004}},{"attributes":{"ID":51097,"DIS_CODE":0,"TOWNNAME":"後壁區","LI":"墨林里","LIN":"1鄰","STREET":" ","SECT":" ","MAREA":"菁寮","LANE":" ","ALLEY":" ","HOUSE_NO":"１５０號之５","E_COORD97":182085.95999999999,"N_COORD97":2586636.2400000002,"ADDRESS":"菁寮１５０號之５","OBJECTID":51097},"geometry":{"x":182085.96000000089,"y":2586636.2400000002}},{"attributes":{"ID":51098,"DIS_CODE":0,"TOWNNAME":"後壁區","LI":"墨林里","LIN":"1鄰","STREET":" ","SECT":" ","MAREA":"菁寮","LANE":" ","ALLEY":" ","HOUSE_NO":"１５０號之６","E_COORD97":182090.5,"N_COORD97":2586635.9199999999,"ADDRESS":"菁寮１５０號之６","OBJECTID":51098},"geometry":{"x":182090.50000000093,"y":2586635.9200000018}},{"attributes":{"ID":51099,"DIS_CODE":0,"TOWNNAME":"後壁區","LI":"墨林里","LIN":"1鄰","STREET":" ","SECT":" ","MAREA":"菁寮","LANE":" ","ALLEY":" ","HOUSE_NO":"１５０號之７","E_COORD97":182094.95000000001,"N_COORD97":2586635.3199999998,"ADDRESS":"菁寮１５０號之７","OBJECTID":51099},"geometry":{"x":182094.95000000019,"y":2586635.3200000003}},{"attributes":{"ID":51100,"DIS_CODE":0,"TOWNNAME":"後壁區","LI":"墨林里","LIN":"1鄰","STREET":" ","SECT":" ","MAREA":"菁寮","LANE":" ","ALLEY":" ","HOUSE_NO":"１５０號之９","E_COORD97":182067.10000000001,"N_COORD97":2586671.23,"ADDRESS":"菁寮１５０號之９","OBJECTID":51100},"geometry":{"x":182067.10000000149,"y":2586671.2300000023}},{"attributes":{"ID":51101,"DIS_CODE":0,"TOWNNAME":"安南區","LI":"頂安里","LIN":"15鄰","STREET":"安中路","SECT":"一段","MAREA":" ","LANE":"２２０巷","ALLEY":"５７弄","HOUSE_NO":"５６號","E_COORD97":168653.10000000001,"N_COORD97":2548738.2400000002,"ADDRESS":"安中路一段２２０巷５７弄５６號","OBJECTID":51101},"geometry":{"x":168653.10000000149,"y":2548738.2400000002}},{"attributes":{"ID":51102,"DIS_CODE":0,"TOWNNAME":"南區","LI":"建南里","LIN":"15鄰","STREET":"中華南路","SECT":"二段","MAREA":" ","LANE":"２３３巷","ALLEY":"３１弄","HOUSE_NO":"１號","E_COORD97":166932.32000000001,"N_COORD97":2540133.6800000002,"ADDRESS":"中華南路二段２３３巷３１弄１號","OBJECTID":51102},"geometry":{"x":166932.32000000123,"y":2540133.6799999978}},{"attributes":{"ID":51103,"DIS_CODE":0,"TOWNNAME":"南區","LI":"建南里","LIN":"15鄰","STREET":"中華南路","SECT":"二段","MAREA":" ","LANE":"２３３巷","ALLEY":"３１弄","HOUSE_NO":"２號","E_COORD97":166941.32999999999,"N_COORD97":2540109.2999999998,"ADDRESS":"中華南路二段２３３巷３１弄２號","OBJECTID":51103},"geometry":{"x":166941.32999999914,"y":2540109.3000000007}},{"attributes":{"ID":51104,"DIS_CODE":0,"TOWNNAME":"南區","LI":"明興里","LIN":"17鄰","STREET":"中華南路","SECT":"二段","MAREA":" ","LANE":" ","ALLEY":" ","HOUSE_NO":"１８０號","E_COORD97":167043.70999999999,"N_COORD97":2540264.2599999998,"ADDRESS":"中華南路二段１８０號","OBJECTID":51104},"geometry":{"x":167043.70999999996,"y":2540264.2599999998}},{"attributes":{"ID":51105,"DIS_CODE":0,"TOWNNAME":"後壁區","LI":"墨林里","LIN":"1鄰","STREET":" ","SECT":" ","MAREA":"菁寮","LANE":" ","ALLEY":" ","HOUSE_NO":"１５０號","E_COORD97":182060.60000000001,"N_COORD97":2586640.7999999998,"ADDRESS":"菁寮１５０號","OBJECTID":51105},"geometry":{"x":182060.60000000056,"y":2586640.8000000026}},{"attributes":{"ID":51106,"DIS_CODE":0,"TOWNNAME":"後壁區","LI":"墨林里","LIN":"1鄰","STREET":" ","SECT":" ","MAREA":"菁寮","LANE":" ","ALLEY":" ","HOUSE_NO":"１５２號之１","E_COORD97":182078.76999999999,"N_COORD97":2586711.6699999999,"ADDRESS":"菁寮１５２號之１","OBJECTID":51106},"geometry":{"x":182078.76999999955,"y":2586711.6700000018}},{"attributes":{"ID":51107,"DIS_CODE":0,"TOWNNAME":"後壁區","LI":"墨林里","LIN":"1鄰","STREET":" ","SECT":" ","MAREA":"菁寮","LANE":" ","ALLEY":" ","HOUSE_NO":"１５２號","E_COORD97":182112.34,"N_COORD97":2586715.3100000001,"ADDRESS":"菁寮１５２號","OBJECTID":51107},"geometry":{"x":182112.33999999985,"y":2586715.3100000024}},{"attributes":{"ID":51108,"DIS_CODE":0,"TOWNNAME":"後壁區","LI":"墨林里","LIN":"1鄰","STREET":" ","SECT":" ","MAREA":"菁寮","LANE":" ","ALLEY":" ","HOUSE_NO":"１５３號","E_COORD97":182090.48000000001,"N_COORD97":2586727.6899999999,"ADDRESS":"菁寮１５３號","OBJECTID":51108},"geometry":{"x":182090.48000000045,"y":2586727.6900000032}},{"attributes":{"ID":51109,"DIS_CODE":0,"TOWNNAME":"後壁區","LI":"墨林里","LIN":"1鄰","STREET":" ","SECT":" ","MAREA":"菁寮","LANE":" ","ALLEY":" ","HOUSE_NO":"１５４號之１","E_COORD97":182102.07999999999,"N_COORD97":2586734.0600000001,"ADDRESS":"菁寮１５４號之１","OBJECTID":51109},"geometry":{"x":182102.08000000101,"y":2586734.0600000024}},{"attributes":{"ID":51110,"DIS_CODE":0,"TOWNNAME":"西港區","LI":"南海里","LIN":"17鄰","STREET":" ","SECT":" ","MAREA":"東港","LANE":" ","ALLEY":" ","HOUSE_NO":"２１號","E_COORD97":167050.67999999999,"N_COORD97":2556390.1699999999,"ADDRESS":"東港２１號","OBJECTID":51110},"geometry":{"x":167050.68000000156,"y":2556390.1699999999}},{"attributes":{"ID":51111,"DIS_CODE":0,"TOWNNAME":"西港區","LI":"南海里","LIN":"17鄰","STREET":" ","SECT":" ","MAREA":"東港","LANE":" ","ALLEY":" ","HOUSE_NO":"２２號之１","E_COORD97":167077.17000000001,"N_COORD97":2556370.8500000001,"ADDRESS":"東港２２號之１","OBJECTID":51111},"geometry":{"x":167077.16999999993,"y":2556370.8500000015}},{"attributes":{"ID":51112,"DIS_CODE":0,"TOWNNAME":"南區","LI":"建南里","LIN":"15鄰","STREET":"中華南路","SECT":"二段","MAREA":" ","LANE":"２３３巷","ALLEY":"３１弄","HOUSE_NO":"３號","E_COORD97":166938.32000000001,"N_COORD97":2540133.2799999998,"ADDRESS":"中華南路二段２３３巷３１弄３號","OBJECTID":51112},"geometry":{"x":166938.32000000216,"y":2540133.2800000012}},{"attributes":{"ID":51113,"DIS_CODE":0,"TOWNNAME":"南區","LI":"建南里","LIN":"15鄰","STREET":"中華南路","SECT":"二段","MAREA":" ","LANE":"２３３巷","ALLEY":"３１弄","HOUSE_NO":"４號","E_COORD97":166946.32999999999,"N_COORD97":2540109.5,"ADDRESS":"中華南路二段２３３巷３１弄４號","OBJECTID":51113},"geometry":{"x":166946.33000000007,"y":2540109.5000000019}},{"attributes":{"ID":51114,"DIS_CODE":0,"TOWNNAME":"南區","LI":"建南里","LIN":"15鄰","STREET":"中華南路","SECT":"二段","MAREA":" ","LANE":"２３３巷","ALLEY":"３１弄","HOUSE_NO":"５號","E_COORD97":166942.32999999999,"N_COORD97":2540132.8799999999,"ADDRESS":"中華南路二段２３３巷３１弄５號","OBJECTID":51114},"geometry":{"x":166942.33000000007,"y":2540132.8800000008}},{"attributes":{"ID":51115,"DIS_CODE":0,"TOWNNAME":"南區","LI":"建南里","LIN":"15鄰","STREET":"中華南路","SECT":"二段","MAREA":" ","LANE":"２３３巷","ALLEY":"３１弄","HOUSE_NO":"６號","E_COORD97":166951.32999999999,"N_COORD97":2540109.1000000001,"ADDRESS":"中華南路二段２３３巷３１弄６號","OBJECTID":51115},"geometry":{"x":166951.33000000007,"y":2540109.0999999996}},{"attributes":{"ID":51116,"DIS_CODE":0,"TOWNNAME":"南區","LI":"建南里","LIN":"15鄰","STREET":"中華南路","SECT":"二段","MAREA":" ","LANE":"２３３巷","ALLEY":"３１弄","HOUSE_NO":"７號","E_COORD97":166947.13,"N_COORD97":2540132.6800000002,"ADDRESS":"中華南路二段２３３巷３１弄７號","OBJECTID":51116},"geometry":{"x":166947.12999999989,"y":2540132.6799999997}},{"attributes":{"ID":51117,"DIS_CODE":0,"TOWNNAME":"南區","LI":"建南里","LIN":"15鄰","STREET":"中華南路","SECT":"二段","MAREA":" ","LANE":"２３３巷","ALLEY":"３１弄","HOUSE_NO":"８號","E_COORD97":166955.94,"N_COORD97":2540109.2999999998,"ADDRESS":"中華南路二段２３３巷３１弄８號","OBJECTID":51117},"geometry":{"x":166955.94000000041,"y":2540109.3000000007}},{"attributes":{"ID":51118,"DIS_CODE":0,"TOWNNAME":"南區","LI":"建南里","LIN":"15鄰","STREET":"中華南路","SECT":"二段","MAREA":" ","LANE":"２３３巷","ALLEY":"３１弄","HOUSE_NO":"９號","E_COORD97":166952.13,"N_COORD97":2540132.48,"ADDRESS":"中華南路二段２３３巷３１弄９號","OBJECTID":51118},"geometry":{"x":166952.12999999989,"y":2540132.4799999986}},{"attributes":{"ID":51119,"DIS_CODE":0,"TOWNNAME":"南區","LI":"建南里","LIN":"15鄰","STREET":"中華南路","SECT":"二段","MAREA":" ","LANE":"２３３巷","ALLEY":"３１弄","HOUSE_NO":"１０號","E_COORD97":166960.73999999999,"N_COORD97":2540108.2999999998,"ADDRESS":"中華南路二段２３３巷３１弄１０號","OBJECTID":51119},"geometry":{"x":166960.73999999929,"y":2540108.3000000026}},{"attributes":{"ID":51120,"DIS_CODE":0,"TOWNNAME":"南區","LI":"建南里","LIN":"15鄰","STREET":"中華南路","SECT":"二段","MAREA":" ","LANE":"２３３巷","ALLEY":"３１弄","HOUSE_NO":"１１號","E_COORD97":166957.73999999999,"N_COORD97":2540131.6800000002,"ADDRESS":"中華南路二段２３３巷３１弄１１號","OBJECTID":51120},"geometry":{"x":166957.74000000115,"y":2540131.6800000016}},{"attributes":{"ID":51121,"DIS_CODE":0,"TOWNNAME":"南區","LI":"建南里","LIN":"15鄰","STREET":"中華南路","SECT":"二段","MAREA":" ","LANE":"２３３巷","ALLEY":"３１弄","HOUSE_NO":"１２號","E_COORD97":166966.54000000001,"N_COORD97":2540108.2999999998,"ADDRESS":"中華南路二段２３３巷３１弄１２號","OBJECTID":51121},"geometry":{"x":166966.54000000004,"y":2540108.3000000026}},{"attributes":{"ID":51122,"DIS_CODE":0,"TOWNNAME":"南區","LI":"建南里","LIN":"15鄰","STREET":"中華南路","SECT":"二段","MAREA":" ","LANE":"２３３巷","ALLEY":"３１弄","HOUSE_NO":"１３號","E_COORD97":166961.73999999999,"N_COORD97":2540131.48,"ADDRESS":"中華南路二段２３３巷３１弄１３號","OBJECTID":51122},"geometry":{"x":166961.74000000022,"y":2540131.4800000004}},{"attributes":{"ID":51123,"DIS_CODE":0,"TOWNNAME":"南區","LI":"建南里","LIN":"15鄰","STREET":"中華南路","SECT":"二段","MAREA":" ","LANE":"２３３巷","ALLEY":"３１弄","HOUSE_NO":"１４號","E_COORD97":166971.54999999999,"N_COORD97":2540107.8999999999,"ADDRESS":"中華南路二段２３３巷３１弄１４號","OBJECTID":51123},"geometry":{"x":166971.54999999981,"y":2540107.9000000004}},{"attributes":{"ID":51124,"DIS_CODE":0,"TOWNNAME":"歸仁區","LI":"看東里","LIN":"16鄰","STREET":"成功路","SECT":"一段","MAREA":" ","LANE":"２７巷","ALLEY":"６０弄","HOUSE_NO":"６２５號","E_COORD97":179940.61449099999,"N_COORD97":2539017.62365,"ADDRESS":"成功路一段２７巷６０弄６２５號","OBJECTID":51124},"geometry":{"x":179940.61449100077,"y":2539017.6236509997}},{"attributes":{"ID":51125,"DIS_CODE":0,"TOWNNAME":"南區","LI":"建南里","LIN":"15鄰","STREET":"中華南路","SECT":"二段","MAREA":" ","LANE":"２３３巷","ALLEY":"３１弄","HOUSE_NO":"１５號","E_COORD97":166967.94,"N_COORD97":2540131.0800000001,"ADDRESS":"中華南路二段２３３巷３１弄１５號","OBJECTID":51125},"geometry":{"x":166967.94000000041,"y":2540131.0800000001}},{"attributes":{"ID":51126,"DIS_CODE":0,"TOWNNAME":"新市區","LI":"新市里","LIN":" ","STREET":"和平路","SECT":" ","MAREA":" ","LANE":" ","ALLEY":" ","HOUSE_NO":"２９９號","E_COORD97":174435.87,"N_COORD97":2551284,"ADDRESS":"和平路２９９號","OBJECTID":51126},"geometry":{"x":174435.87000000104,"y":2551284.0000000019}},{"attributes":{"ID":51127,"DIS_CODE":0,"TOWNNAME":"新市區","LI":"新和里","LIN":" ","STREET":"華興街","SECT":" ","MAREA":" ","LANE":" ","ALLEY":" ","HOUSE_NO":"５７號","E_COORD97":177660.60000000001,"N_COORD97":2552979.75,"ADDRESS":"華興街５７號","OBJECTID":51127},"geometry":{"x":177660.59999999963,"y":2552979.7499999981}},{"attributes":{"ID":51128,"DIS_CODE":0,"TOWNNAME":"新市區","LI":"新市里","LIN":" ","STREET":"仁愛街","SECT":" ","MAREA":" ","LANE":" ","ALLEY":" ","HOUSE_NO":"３０６之１號","E_COORD97":177670.29000000001,"N_COORD97":2553022.7999999998,"ADDRESS":"仁愛街３０６之１號","OBJECTID":51128},"geometry":{"x":177670.29000000004,"y":2553022.8000000007}},{"attributes":{"ID":51129,"DIS_CODE":0,"TOWNNAME":"新市區","LI":"新和里","LIN":" ","STREET":"華興街","SECT":" ","MAREA":" ","LANE":" ","ALLEY":" ","HOUSE_NO":"４１號","E_COORD97":177700.64999999999,"N_COORD97":2552966.25,"ADDRESS":"華興街４１號","OBJECTID":51129},"geometry":{"x":177700.65000000224,"y":2552966.2500000037}},{"attributes":{"ID":51130,"DIS_CODE":0,"TOWNNAME":"新市區","LI":"豐華里","LIN":" ","STREET":"南科三路","SECT":" ","MAREA":" ","LANE":" ","ALLEY":" ","HOUSE_NO":"１８號","E_COORD97":176146.29000000001,"N_COORD97":2555114,"ADDRESS":"南科三路１８號","OBJECTID":51130},"geometry":{"x":176146.29000000004,"y":2555113.9999999981}},{"attributes":{"ID":51131,"DIS_CODE":0,"TOWNNAME":"南區","LI":"建南里","LIN":"15鄰","STREET":"中華南路","SECT":"二段","MAREA":" ","LANE":"２３３巷","ALLEY":"３１弄","HOUSE_NO":"１６號","E_COORD97":166975.54999999999,"N_COORD97":2540107.7000000002,"ADDRESS":"中華南路二段２３３巷３１弄１６號","OBJECTID":51131},"geometry":{"x":166975.55000000075,"y":2540107.7000000011}},{"attributes":{"ID":51132,"DIS_CODE":0,"TOWNNAME":"南區","LI":"建南里","LIN":"15鄰","STREET":"中華南路","SECT":"二段","MAREA":" ","LANE":"２３３巷","ALLEY":"３１弄","HOUSE_NO":"１７號","E_COORD97":166972.14999999999,"N_COORD97":2540130.6800000002,"ADDRESS":"中華南路二段２３３巷３１弄１７號","OBJECTID":51132},"geometry":{"x":166972.1500000013,"y":2540130.6800000034}},{"attributes":{"ID":51133,"DIS_CODE":0,"TOWNNAME":"南區","LI":"建南里","LIN":"15鄰","STREET":"中華南路","SECT":"二段","MAREA":" ","LANE":"２３３巷","ALLEY":"３１弄","HOUSE_NO":"１８號","E_COORD97":166980.75,"N_COORD97":2540107.5,"ADDRESS":"中華南路二段２３３巷３１弄１８號","OBJECTID":51133},"geometry":{"x":166980.75,"y":2540107.5}},{"attributes":{"ID":51134,"DIS_CODE":0,"TOWNNAME":"南區","LI":"建南里","LIN":"15鄰","STREET":"中華南路","SECT":"二段","MAREA":" ","LANE":"２３３巷","ALLEY":"３１弄","HOUSE_NO":"１９號","E_COORD97":166976.54999999999,"N_COORD97":2540130.6800000002,"ADDRESS":"中華南路二段２３３巷３１弄１９號","OBJECTID":51134},"geometry":{"x":166976.54999999981,"y":2540130.6800000034}},{"attributes":{"ID":51135,"DIS_CODE":0,"TOWNNAME":"南區","LI":"建南里","LIN":"15鄰","STREET":"中華南路","SECT":"二段","MAREA":" ","LANE":"２３３巷","ALLEY":"３１弄","HOUSE_NO":"２０號","E_COORD97":166984.35000000001,"N_COORD97":2540107.8999999999,"ADDRESS":"中華南路二段２３３巷３１弄２０號","OBJECTID":51135},"geometry":{"x":166984.34999999963,"y":2540107.9000000004}},{"attributes":{"ID":51136,"DIS_CODE":0,"TOWNNAME":"歸仁區","LI":"文化里","LIN":"17鄰","STREET":"文化北街","SECT":" ","MAREA":" ","LANE":" ","ALLEY":" ","HOUSE_NO":"１３２號","E_COORD97":177149.81,"N_COORD97":2541418.3399999999,"ADDRESS":"文化北街１３２號","OBJECTID":51136},"geometry":{"x":177149.81000000052,"y":2541418.3400000017}},{"attributes":{"ID":51137,"DIS_CODE":0,"TOWNNAME":"西港區","LI":"後營里","LIN":"17鄰","STREET":" ","SECT":" ","MAREA":"後營","LANE":" ","ALLEY":" ","HOUSE_NO":"３０６號之１","E_COORD97":170083.39000000001,"N_COORD97":2560076.0699999998,"ADDRESS":"後營３０６號之１","OBJECTID":51137},"geometry":{"x":170083.38999999873,"y":2560076.0700000003}},{"attributes":{"ID":51138,"DIS_CODE":0,"TOWNNAME":"西港區","LI":"後營里","LIN":"17鄰","STREET":" ","SECT":" ","MAREA":"後營","LANE":" ","ALLEY":" ","HOUSE_NO":"３２１號之５","E_COORD97":170165.57000000001,"N_COORD97":2559992.1099999999,"ADDRESS":"後營３２１號之５","OBJECTID":51138},"geometry":{"x":170165.5700000003,"y":2559992.1100000013}},{"attributes":{"ID":51139,"DIS_CODE":0,"TOWNNAME":"西港區","LI":"後營里","LIN":"17鄰","STREET":" ","SECT":" ","MAREA":"後營","LANE":" ","ALLEY":" ","HOUSE_NO":"３２１號之６","E_COORD97":170169.38,"N_COORD97":2559994.8300000001,"ADDRESS":"後營３２１號之６","OBJECTID":51139},"geometry":{"x":170169.38000000082,"y":2559994.8300000019}},{"attributes":{"ID":51140,"DIS_CODE":0,"TOWNNAME":"新市區","LI":"社內里","LIN":"17鄰","STREET":" ","SECT":" ","MAREA":"社內","LANE":" ","ALLEY":" ","HOUSE_NO":"１８０之３號","E_COORD97":176030.04000000001,"N_COORD97":2553023.0499999998,"ADDRESS":"社內１８０之３號","OBJECTID":51140},"geometry":{"x":176030.04000000097,"y":2553023.0500000026}},{"attributes":{"ID":51141,"DIS_CODE":0,"TOWNNAME":"新市區","LI":"社內里","LIN":"17鄰","STREET":" ","SECT":" ","MAREA":"社內","LANE":" ","ALLEY":" ","HOUSE_NO":"１８４號","E_COORD97":175904.79000000001,"N_COORD97":2552861.5,"ADDRESS":"社內１８４號","OBJECTID":51141},"geometry":{"x":175904.79000000097,"y":2552861.5}},{"attributes":{"ID":51142,"DIS_CODE":0,"TOWNNAME":"新市區","LI":"社內里","LIN":"17鄰","STREET":" ","SECT":" ","MAREA":"社內","LANE":" ","ALLEY":" ","HOUSE_NO":"１７８之１號","E_COORD97":176033.59,"N_COORD97":2552943.7999999998,"ADDRESS":"社內１７８之１號","OBJECTID":51142},"geometry":{"x":176033.58999999985,"y":2552943.8000000026}},{"attributes":{"ID":51143,"DIS_CODE":0,"TOWNNAME":"新市區","LI":"社內里","LIN":"17鄰","STREET":" ","SECT":" ","MAREA":"社內","LANE":" ","ALLEY":" ","HOUSE_NO":"１８１之５號","E_COORD97":176019.20000000001,"N_COORD97":2552960.2999999998,"ADDRESS":"社內１８１之５號","OBJECTID":51143},"geometry":{"x":176019.20000000112,"y":2552960.3000000045}},{"attributes":{"ID":51144,"DIS_CODE":0,"TOWNNAME":"新市區","LI":"社內里","LIN":"17鄰","STREET":" ","SECT":" ","MAREA":"社內","LANE":" ","ALLEY":" ","HOUSE_NO":"１７７號","E_COORD97":176058.60999999999,"N_COORD97":2552881.5,"ADDRESS":"社內１７７號","OBJECTID":51144},"geometry":{"x":176058.61000000127,"y":2552881.5000000019}},{"attributes":{"ID":51145,"DIS_CODE":0,"TOWNNAME":"南區","LI":"建南里","LIN":"15鄰","STREET":"中華南路","SECT":"二段","MAREA":" ","LANE":"２３３巷","ALLEY":"３１弄","HOUSE_NO":"２１號","E_COORD97":166981.35000000001,"N_COORD97":2540130.48,"ADDRESS":"中華南路二段２３３巷３１弄２１號","OBJECTID":51145},"geometry":{"x":166981.34999999963,"y":2540130.4800000023}},{"attributes":{"ID":51146,"DIS_CODE":0,"TOWNNAME":"南區","LI":"建南里","LIN":"15鄰","STREET":"中華南路","SECT":"二段","MAREA":" ","LANE":"２３３巷","ALLEY":"３１弄","HOUSE_NO":"２３號","E_COORD97":166985.54999999999,"N_COORD97":2540130.8799999999,"ADDRESS":"中華南路二段２３３巷３１弄２３號","OBJECTID":51146},"geometry":{"x":166985.55000000168,"y":2540130.879999999}},{"attributes":{"ID":51147,"DIS_CODE":0,"TOWNNAME":"新市區","LI":"社內里","LIN":"17鄰","STREET":" ","SECT":" ","MAREA":"社內","LANE":" ","ALLEY":" ","HOUSE_NO":"１８３之１號","E_COORD97":175939.95000000001,"N_COORD97":2552967.7999999998,"ADDRESS":"社內１８３之１號","OBJECTID":51147},"geometry":{"x":175939.95000000019,"y":2552967.8000000026}},{"attributes":{"ID":51148,"DIS_CODE":0,"TOWNNAME":"南區","LI":"建南里","LIN":"15鄰","STREET":"中華南路","SECT":"二段","MAREA":" ","LANE":"２３３巷","ALLEY":"４７弄","HOUSE_NO":"１號","E_COORD97":166944.92999999999,"N_COORD97":2540093.4100000001,"ADDRESS":"中華南路二段２３３巷４７弄１號","OBJECTID":51148},"geometry":{"x":166944.9299999997,"y":2540093.410000002}},{"attributes":{"ID":51149,"DIS_CODE":0,"TOWNNAME":"南區","LI":"建南里","LIN":"15鄰","STREET":"中華南路","SECT":"二段","MAREA":" ","LANE":"２３３巷","ALLEY":"４７弄","HOUSE_NO":"２號","E_COORD97":166953.53,"N_COORD97":2540072.8300000001,"ADDRESS":"中華南路二段２３３巷４７弄２號","OBJECTID":51149},"geometry":{"x":166953.53000000026,"y":2540072.8300000019}},{"attributes":{"ID":51150,"DIS_CODE":0,"TOWNNAME":"七股區","LI":"七股里","LIN":"1鄰","STREET":" ","SECT":" ","MAREA":"七股","LANE":" ","ALLEY":" ","HOUSE_NO":"１２號","E_COORD97":161100.28,"N_COORD97":2559387.7999999998,"ADDRESS":"七股１２號","OBJECTID":51150},"geometry":{"x":161100.27999999933,"y":2559387.8000000007}},{"attributes":{"ID":51151,"DIS_CODE":0,"TOWNNAME":"南區","LI":"建南里","LIN":"15鄰","STREET":"中華南路","SECT":"二段","MAREA":" ","LANE":"２３３巷","ALLEY":"４７弄","HOUSE_NO":"３號","E_COORD97":166950.13,"N_COORD97":2540093.0099999998,"ADDRESS":"中華南路二段２３３巷４７弄３號","OBJECTID":51151},"geometry":{"x":166950.13000000082,"y":2540093.0099999998}},{"attributes":{"ID":51152,"DIS_CODE":0,"TOWNNAME":"南區","LI":"建南里","LIN":"15鄰","STREET":"中華南路","SECT":"二段","MAREA":" ","LANE":"２３３巷","ALLEY":"４７弄","HOUSE_NO":"４號","E_COORD97":166958.53,"N_COORD97":2540073.0299999998,"ADDRESS":"中華南路二段２３３巷４７弄４號","OBJECTID":51152},"geometry":{"x":166958.53000000026,"y":2540073.0299999993}},{"attributes":{"ID":51153,"DIS_CODE":0,"TOWNNAME":"南區","LI":"建南里","LIN":"15鄰","STREET":"中華南路","SECT":"二段","MAREA":" ","LANE":"２３３巷","ALLEY":"４７弄","HOUSE_NO":"５號","E_COORD97":166954.32999999999,"N_COORD97":2540093.21,"ADDRESS":"中華南路二段２３３巷４７弄５號","OBJECTID":51153},"geometry":{"x":166954.33000000007,"y":2540093.2100000009}},{"attributes":{"ID":51154,"DIS_CODE":0,"TOWNNAME":"南區","LI":"建南里","LIN":"15鄰","STREET":"中華南路","SECT":"二段","MAREA":" ","LANE":"２３３巷","ALLEY":"４７弄","HOUSE_NO":"６號","E_COORD97":166962.73999999999,"N_COORD97":2540072.8300000001,"ADDRESS":"中華南路二段２３３巷４７弄６號","OBJECTID":51154},"geometry":{"x":166962.74000000115,"y":2540072.8300000019}},{"attributes":{"ID":51155,"DIS_CODE":0,"TOWNNAME":"南區","LI":"建南里","LIN":"15鄰","STREET":"中華南路","SECT":"二段","MAREA":" ","LANE":"２３３巷","ALLEY":"４７弄","HOUSE_NO":"７號","E_COORD97":166959.54000000001,"N_COORD97":2540092.4100000001,"ADDRESS":"中華南路二段２３３巷４７弄７號","OBJECTID":51155},"geometry":{"x":166959.54000000004,"y":2540092.4100000039}},{"attributes":{"ID":51156,"DIS_CODE":0,"TOWNNAME":"南區","LI":"建南里","LIN":"15鄰","STREET":"中華南路","SECT":"二段","MAREA":" ","LANE":"２３３巷","ALLEY":"４７弄","HOUSE_NO":"８號","E_COORD97":166969.34,"N_COORD97":2540071.4300000002,"ADDRESS":"中華南路二段２３３巷４７弄８號","OBJECTID":51156},"geometry":{"x":166969.33999999985,"y":2540071.4300000034}},{"attributes":{"ID":51157,"DIS_CODE":0,"TOWNNAME":"南區","LI":"建南里","LIN":"15鄰","STREET":"中華南路","SECT":"二段","MAREA":" ","LANE":"２３３巷","ALLEY":"４７弄","HOUSE_NO":"９號","E_COORD97":166964.34,"N_COORD97":2540091.4100000001,"ADDRESS":"中華南路二段２３３巷４７弄９號","OBJECTID":51157},"geometry":{"x":166964.33999999985,"y":2540091.4100000001}},{"attributes":{"ID":51158,"DIS_CODE":0,"TOWNNAME":"新市區","LI":"港墘里","LIN":"17鄰","STREET":"南港街","SECT":" ","MAREA":" ","LANE":" ","ALLEY":" ","HOUSE_NO":"４０號","E_COORD97":178156.23999999999,"N_COORD97":2552765.75,"ADDRESS":"南港街４０號","OBJECTID":51158},"geometry":{"x":178156.24000000115,"y":2552765.75}},{"attributes":{"ID":51159,"DIS_CODE":0,"TOWNNAME":"新市區","LI":"港墘里","LIN":"17鄰","STREET":"長安街","SECT":" ","MAREA":" ","LANE":" ","ALLEY":" ","HOUSE_NO":"９０號","E_COORD97":178141.48000000001,"N_COORD97":2552663.4399999999,"ADDRESS":"長安街９０號","OBJECTID":51159},"geometry":{"x":178141.48000000138,"y":2552663.4400000013}},{"attributes":{"ID":51160,"DIS_CODE":0,"TOWNNAME":"新市區","LI":"港墘里","LIN":"17鄰","STREET":"南港街","SECT":" ","MAREA":" ","LANE":" ","ALLEY":" ","HOUSE_NO":"３５號","E_COORD97":178187.79000000001,"N_COORD97":2552753.75,"ADDRESS":"南港街３５號","OBJECTID":51160},"geometry":{"x":178187.79000000097,"y":2552753.7500000019}},{"attributes":{"ID":51161,"DIS_CODE":0,"TOWNNAME":"南區","LI":"建南里","LIN":"15鄰","STREET":"中華南路","SECT":"二段","MAREA":" ","LANE":"２３３巷","ALLEY":"４７弄","HOUSE_NO":"１０號","E_COORD97":166973.34,"N_COORD97":2540070.4300000002,"ADDRESS":"中華南路二段２３３巷４７弄１０號","OBJECTID":51161},"geometry":{"x":166973.34000000171,"y":2540070.4299999997}},{"attributes":{"ID":51162,"DIS_CODE":0,"TOWNNAME":"南區","LI":"建南里","LIN":"15鄰","STREET":"中華南路","SECT":"二段","MAREA":" ","LANE":"２３３巷","ALLEY":"４７弄","HOUSE_NO":"１１號","E_COORD97":166969.73999999999,"N_COORD97":2540091.4100000001,"ADDRESS":"中華南路二段２３３巷４７弄１１號","OBJECTID":51162},"geometry":{"x":166969.74000000115,"y":2540091.4100000001}},{"attributes":{"ID":51163,"DIS_CODE":0,"TOWNNAME":"後壁區","LI":"墨林里","LIN":"1鄰","STREET":" ","SECT":" ","MAREA":"菁寮","LANE":" ","ALLEY":" ","HOUSE_NO":"１５４號","E_COORD97":182097.85000000001,"N_COORD97":2586746.1299999999,"ADDRESS":"菁寮１５４號","OBJECTID":51163},"geometry":{"x":182097.85000000056,"y":2586746.129999999}},{"attributes":{"ID":51164,"DIS_CODE":0,"TOWNNAME":"後壁區","LI":"菁寮里","LIN":"1鄰","STREET":" ","SECT":" ","MAREA":"菁寮","LANE":" ","ALLEY":" ","HOUSE_NO":"１號","E_COORD97":182015.17999999999,"N_COORD97":2586174.6899999999,"ADDRESS":"菁寮１號","OBJECTID":51164},"geometry":{"x":182015.1799999997,"y":2586174.6899999995}},{"attributes":{"ID":51165,"DIS_CODE":0,"TOWNNAME":"南區","LI":"建南里","LIN":"15鄰","STREET":"中華南路","SECT":"二段","MAREA":" ","LANE":"２３３巷","ALLEY":"４７弄","HOUSE_NO":"１２號","E_COORD97":166978.35000000001,"N_COORD97":2540070.4300000002,"ADDRESS":"中華南路二段２３３巷４７弄１２號","OBJECTID":51165},"geometry":{"x":166978.35000000056,"y":2540070.4299999997}},{"attributes":{"ID":51166,"DIS_CODE":0,"TOWNNAME":"後壁區","LI":"菁寮里","LIN":"1鄰","STREET":" ","SECT":" ","MAREA":"菁寮","LANE":" ","ALLEY":" ","HOUSE_NO":"２號之１","E_COORD97":182052.91,"N_COORD97":2586173.3199999998,"ADDRESS":"菁寮２號之１","OBJECTID":51166},"geometry":{"x":182052.91000000015,"y":2586173.3200000003}},{"attributes":{"ID":51167,"DIS_CODE":0,"TOWNNAME":"南區","LI":"建南里","LIN":"15鄰","STREET":"中華南路","SECT":"二段","MAREA":" ","LANE":"２３３巷","ALLEY":"４７弄","HOUSE_NO":"１３號","E_COORD97":166974.34,"N_COORD97":2540091.4100000001,"ADDRESS":"中華南路二段２３３巷４７弄１３號","OBJECTID":51167},"geometry":{"x":166974.33999999985,"y":2540091.4100000001}},{"attributes":{"ID":51168,"DIS_CODE":0,"TOWNNAME":"後壁區","LI":"菁寮里","LIN":"1鄰","STREET":" ","SECT":" ","MAREA":"菁寮","LANE":" ","ALLEY":" ","HOUSE_NO":"２號之３","E_COORD97":182072.41,"N_COORD97":2586218.6800000002,"ADDRESS":"菁寮２號之３","OBJECTID":51168},"geometry":{"x":182072.41000000108,"y":2586218.6799999997}},{"attributes":{"ID":51169,"DIS_CODE":0,"TOWNNAME":"南區","LI":"建南里","LIN":"15鄰","STREET":"中華南路","SECT":"二段","MAREA":" ","LANE":"２３３巷","ALLEY":"４７弄","HOUSE_NO":"１４號","E_COORD97":166982.14999999999,"N_COORD97":2540070.8300000001,"ADDRESS":"中華南路二段２３３巷４７弄１４號","OBJECTID":51169},"geometry":{"x":166982.1500000013,"y":2540070.8300000001}},{"attributes":{"ID":51170,"DIS_CODE":0,"TOWNNAME":"後壁區","LI":"菁寮里","LIN":"1鄰","STREET":" ","SECT":" ","MAREA":"菁寮","LANE":" ","ALLEY":" ","HOUSE_NO":"２號之６","E_COORD97":182077.31,"N_COORD97":2586227.9300000002,"ADDRESS":"菁寮２號之６","OBJECTID":51170},"geometry":{"x":182077.30999999866,"y":2586227.9300000034}},{"attributes":{"ID":51171,"DIS_CODE":0,"TOWNNAME":"後壁區","LI":"菁寮里","LIN":"1鄰","STREET":" ","SECT":" ","MAREA":"菁寮","LANE":" ","ALLEY":" ","HOUSE_NO":"２號之７","E_COORD97":182078.92999999999,"N_COORD97":2586232.04,"ADDRESS":"菁寮２號之７","OBJECTID":51171},"geometry":{"x":182078.93000000063,"y":2586232.0399999991}},{"attributes":{"ID":51172,"DIS_CODE":0,"TOWNNAME":"南區","LI":"建南里","LIN":"15鄰","STREET":"中華南路","SECT":"二段","MAREA":" ","LANE":"２３３巷","ALLEY":"４７弄","HOUSE_NO":"１５號","E_COORD97":166978.95000000001,"N_COORD97":2540091.0099999998,"ADDRESS":"中華南路二段２３３巷４７弄１５號","OBJECTID":51172},"geometry":{"x":166978.95000000019,"y":2540091.0100000035}},{"attributes":{"ID":51173,"DIS_CODE":0,"TOWNNAME":"後壁區","LI":"菁寮里","LIN":"1鄰","STREET":" ","SECT":" ","MAREA":"菁寮","LANE":" ","ALLEY":" ","HOUSE_NO":"２號之８","E_COORD97":182081.10999999999,"N_COORD97":2586236.8399999999,"ADDRESS":"菁寮２號之８","OBJECTID":51173},"geometry":{"x":182081.11000000034,"y":2586236.8400000017}},{"attributes":{"ID":51174,"DIS_CODE":0,"TOWNNAME":"後壁區","LI":"菁寮里","LIN":"1鄰","STREET":" ","SECT":" ","MAREA":"菁寮","LANE":" ","ALLEY":" ","HOUSE_NO":"２號","E_COORD97":182039.70000000001,"N_COORD97":2586231.2799999998,"ADDRESS":"菁寮２號","OBJECTID":51174},"geometry":{"x":182039.69999999925,"y":2586231.2799999993}},{"attributes":{"ID":51175,"DIS_CODE":0,"TOWNNAME":"南區","LI":"建南里","LIN":"15鄰","STREET":"中華南路","SECT":"二段","MAREA":" ","LANE":"２３３巷","ALLEY":"４７弄","HOUSE_NO":"１７號","E_COORD97":166982.95000000001,"N_COORD97":2540089.8100000001,"ADDRESS":"中華南路二段２３３巷４７弄１７號","OBJECTID":51175},"geometry":{"x":166982.95000000019,"y":2540089.8100000042}},{"attributes":{"ID":51176,"DIS_CODE":0,"TOWNNAME":"後壁區","LI":"菁寮里","LIN":"1鄰","STREET":" ","SECT":" ","MAREA":"菁寮","LANE":" ","ALLEY":" ","HOUSE_NO":"４號之１０","E_COORD97":182000.07999999999,"N_COORD97":2586213.6099999999,"ADDRESS":"菁寮４號之１０","OBJECTID":51176},"geometry":{"x":182000.08000000101,"y":2586213.6100000013}},{"attributes":{"ID":51177,"DIS_CODE":0,"TOWNNAME":"東區","LI":"富裕里","LIN":"15鄰","STREET":"東門路","SECT":"二段","MAREA":" ","LANE":"３０１巷","ALLEY":"７３弄","HOUSE_NO":"３號","E_COORD97":170893.95000000001,"N_COORD97":2542750.9500000002,"ADDRESS":"東門路二段３０１巷７３弄３號","OBJECTID":51177},"geometry":{"x":170893.95000000205,"y":2542750.9499999993}},{"attributes":{"ID":51178,"DIS_CODE":0,"TOWNNAME":"新市區","LI":"新市里","LIN":"15鄰","STREET":"中正路","SECT":" ","MAREA":" ","LANE":"３０１巷","ALLEY":"１８弄","HOUSE_NO":"１號","E_COORD97":177599.85000000001,"N_COORD97":2553323.25,"ADDRESS":"中正路３０１巷１８弄１號","OBJECTID":51178},"geometry":{"x":177599.84999999963,"y":2553323.2500000019}},{"attributes":{"ID":51179,"DIS_CODE":0,"TOWNNAME":"後壁區","LI":"菁寮里","LIN":"1鄰","STREET":" ","SECT":" ","MAREA":"菁寮","LANE":" ","ALLEY":" ","HOUSE_NO":"４號","E_COORD97":182000.73000000001,"N_COORD97":2586262.5299999998,"ADDRESS":"菁寮４號","OBJECTID":51179},"geometry":{"x":182000.73000000045,"y":2586262.5299999993}},{"attributes":{"ID":51180,"DIS_CODE":0,"TOWNNAME":"新市區","LI":"新市里","LIN":"15鄰","STREET":"中正路","SECT":" ","MAREA":" ","LANE":"３０１巷","ALLEY":"１８弄","HOUSE_NO":"７號","E_COORD97":177623.07000000001,"N_COORD97":2553344,"ADDRESS":"中正路３０１巷１８弄７號","OBJECTID":51180},"geometry":{"x":177623.06999999937,"y":2553344}},{"attributes":{"ID":51181,"DIS_CODE":0,"TOWNNAME":"新市區","LI":"新市里","LIN":"15鄰","STREET":"中正路","SECT":" ","MAREA":" ","LANE":"３０１巷","ALLEY":"１８弄","HOUSE_NO":"１之１號","E_COORD97":177606.12,"N_COORD97":2553325.2999999998,"ADDRESS":"中正路３０１巷１８弄１之１號","OBJECTID":51181},"geometry":{"x":177606.12000000104,"y":2553325.3000000007}},{"attributes":{"ID":51182,"DIS_CODE":0,"TOWNNAME":"北區","LI":"成功里","LIN":"14鄰","STREET":"北成路","SECT":" ","MAREA":" ","LANE":"８０巷","ALLEY":"４０弄","HOUSE_NO":"３０號","E_COORD97":169152.82999999999,"N_COORD97":2546689.8300000001,"ADDRESS":"北成路８０巷４０弄３０號","OBJECTID":51182},"geometry":{"x":169152.83000000007,"y":2546689.8300000001}},{"attributes":{"ID":51183,"DIS_CODE":0,"TOWNNAME":"永康區","LI":"烏竹里","LIN":"17鄰","STREET":"竹園一街","SECT":" ","MAREA":" ","LANE":" ","ALLEY":" ","HOUSE_NO":"４１之１７號","E_COORD97":174451.35999999999,"N_COORD97":2548942.04,"ADDRESS":"竹園一街４１之１７號","OBJECTID":51183},"geometry":{"x":174451.36000000127,"y":2548942.0399999991}},{"attributes":{"ID":51184,"DIS_CODE":0,"TOWNNAME":"永康區","LI":"烏竹里","LIN":"17鄰","STREET":"龍橋街","SECT":" ","MAREA":" ","LANE":" ","ALLEY":" ","HOUSE_NO":"２１９號","E_COORD97":174598.28,"N_COORD97":2548748.9900000002,"ADDRESS":"龍橋街２１９號","OBJECTID":51184},"geometry":{"x":174598.28000000119,"y":2548748.9900000021}},{"attributes":{"ID":51185,"DIS_CODE":0,"TOWNNAME":"永康區","LI":"烏竹里","LIN":"17鄰","STREET":"竹園一街","SECT":" ","MAREA":" ","LANE":" ","ALLEY":" ","HOUSE_NO":"４１之３號","E_COORD97":174436.60999999999,"N_COORD97":2548958.6699999999,"ADDRESS":"竹園一街４１之３號","OBJECTID":51185},"geometry":{"x":174436.61000000127,"y":2548958.6699999999}},{"attributes":{"ID":51186,"DIS_CODE":0,"TOWNNAME":"後壁區","LI":"菁寮里","LIN":"1鄰","STREET":" ","SECT":" ","MAREA":"菁寮","LANE":" ","ALLEY":" ","HOUSE_NO":"５號","E_COORD97":181966.60999999999,"N_COORD97":2586260.1200000001,"ADDRESS":"菁寮５號","OBJECTID":51186},"geometry":{"x":181966.61000000127,"y":2586260.1200000029}},{"attributes":{"ID":51187,"DIS_CODE":0,"TOWNNAME":"後壁區","LI":"菁寮里","LIN":"1鄰","STREET":" ","SECT":" ","MAREA":"菁寮","LANE":" ","ALLEY":" ","HOUSE_NO":"６號之１５","E_COORD97":181783.47,"N_COORD97":2586399.52,"ADDRESS":"菁寮６號之１５","OBJECTID":51187},"geometry":{"x":181783.47000000067,"y":2586399.5199999996}},{"attributes":{"ID":51188,"DIS_CODE":0,"TOWNNAME":"後壁區","LI":"菁寮里","LIN":"1鄰","STREET":" ","SECT":" ","MAREA":"菁寮","LANE":" ","ALLEY":" ","HOUSE_NO":"６號之１６","E_COORD97":181783.81,"N_COORD97":2586391.7000000002,"ADDRESS":"菁寮６號之１６","OBJECTID":51188},"geometry":{"x":181783.80999999959,"y":2586391.700000003}},{"attributes":{"ID":51189,"DIS_CODE":0,"TOWNNAME":"永康區","LI":"烏竹里","LIN":"17鄰","STREET":"竹園一街","SECT":" ","MAREA":" ","LANE":" ","ALLEY":" ","HOUSE_NO":"４１之１８號","E_COORD97":174451.35999999999,"N_COORD97":2548942.04,"ADDRESS":"竹園一街４１之１８號","OBJECTID":51189},"geometry":{"x":174451.36000000127,"y":2548942.0399999991}},{"attributes":{"ID":51190,"DIS_CODE":0,"TOWNNAME":"永康區","LI":"烏竹里","LIN":"17鄰","STREET":"龍橋街","SECT":" ","MAREA":" ","LANE":" ","ALLEY":" ","HOUSE_NO":"２２９號","E_COORD97":174589.98000000001,"N_COORD97":2548772.4900000002,"ADDRESS":"龍橋街２２９號","OBJECTID":51190},"geometry":{"x":174589.98000000138,"y":2548772.4900000021}},{"attributes":{"ID":51191,"DIS_CODE":0,"TOWNNAME":"後壁區","LI":"菁寮里","LIN":"1鄰","STREET":" ","SECT":" ","MAREA":"菁寮","LANE":" ","ALLEY":" ","HOUSE_NO":"６號之１","E_COORD97":181824.01999999999,"N_COORD97":2586368.3500000001,"ADDRESS":"菁寮６號之１","OBJECTID":51191},"geometry":{"x":181824.02000000048,"y":2586368.3500000015}},{"attributes":{"ID":51192,"DIS_CODE":0,"TOWNNAME":"永康區","LI":"烏竹里","LIN":"17鄰","STREET":"竹園一街","SECT":" ","MAREA":" ","LANE":" ","ALLEY":" ","HOUSE_NO":"４１之１２號","E_COORD97":174451.35999999999,"N_COORD97":2548942.04,"ADDRESS":"竹園一街４１之１２號","OBJECTID":51192},"geometry":{"x":174451.36000000127,"y":2548942.0399999991}},{"attributes":{"ID":51193,"DIS_CODE":0,"TOWNNAME":"永康區","LI":"埔園里","LIN":"17鄰","STREET":"龍埔街","SECT":" ","MAREA":" ","LANE":" ","ALLEY":" ","HOUSE_NO":"５６４號之１","E_COORD97":173439.42000000001,"N_COORD97":2548401.0499999998,"ADDRESS":"龍埔街５６４號之１","OBJECTID":51193},"geometry":{"x":173439.41999999993,"y":2548401.0500000007}},{"attributes":{"ID":51194,"DIS_CODE":0,"TOWNNAME":"後壁區","LI":"菁寮里","LIN":"1鄰","STREET":" ","SECT":" ","MAREA":"菁寮","LANE":" ","ALLEY":" ","HOUSE_NO":"６號之２３","E_COORD97":181666.01999999999,"N_COORD97":2586431.6099999999,"ADDRESS":"菁寮６號之２３","OBJECTID":51194},"geometry":{"x":181666.02000000048,"y":2586431.6099999994}},{"attributes":{"ID":51195,"DIS_CODE":0,"TOWNNAME":"後壁區","LI":"菁寮里","LIN":"1鄰","STREET":" ","SECT":" ","MAREA":"菁寮","LANE":" ","ALLEY":" ","HOUSE_NO":"６號之２","E_COORD97":181841.57000000001,"N_COORD97":2586339.9199999999,"ADDRESS":"菁寮６號之２","OBJECTID":51195},"geometry":{"x":181841.57000000123,"y":2586339.9200000037}},{"attributes":{"ID":51196,"DIS_CODE":0,"TOWNNAME":"安南區","LI":"安西里","LIN":"15鄰","STREET":"安和路","SECT":"一段","MAREA":" ","LANE":"４５９巷","ALLEY":"３６弄","HOUSE_NO":"１７號","E_COORD97":169248.60000000001,"N_COORD97":2548569.6800000002,"ADDRESS":"安和路一段４５９巷３６弄１７號","OBJECTID":51196},"geometry":{"x":169248.60000000056,"y":2548569.6800000016}},{"attributes":{"ID":51197,"DIS_CODE":0,"TOWNNAME":"安南區","LI":"安西里","LIN":"15鄰","STREET":"安和路","SECT":"一段","MAREA":" ","LANE":"４５９巷","ALLEY":"３６弄","HOUSE_NO":"１１號","E_COORD97":169253.98000000001,"N_COORD97":2548555.23,"ADDRESS":"安和路一段４５９巷３６弄１１號","OBJECTID":51197},"geometry":{"x":169253.98000000045,"y":2548555.2300000004}},{"attributes":{"ID":51198,"DIS_CODE":0,"TOWNNAME":"後壁區","LI":"菁寮里","LIN":"1鄰","STREET":" ","SECT":" ","MAREA":"菁寮","LANE":" ","ALLEY":" ","HOUSE_NO":"６號之５","E_COORD97":181863.60000000001,"N_COORD97":2586317.2599999998,"ADDRESS":"菁寮６號之５","OBJECTID":51198},"geometry":{"x":181863.60000000149,"y":2586317.2600000035}},{"attributes":{"ID":51199,"DIS_CODE":0,"TOWNNAME":"安南區","LI":"\u25A0南里","LIN":"15鄰","STREET":"安昌街","SECT":" ","MAREA":" ","LANE":"１０６巷","ALLEY":"１４弄","HOUSE_NO":"１號","E_COORD97":169998.32000000001,"N_COORD97":2552146.7400000002,"ADDRESS":"安昌街１０６巷１４弄１號","OBJECTID":51199},"geometry":{"x":169998.32000000123,"y":2552146.7400000021}},{"attributes":{"ID":51200,"DIS_CODE":0,"TOWNNAME":"後壁區","LI":"菁寮里","LIN":"1鄰","STREET":" ","SECT":" ","MAREA":"菁寮","LANE":" ","ALLEY":" ","HOUSE_NO":"６號","E_COORD97":181836.85999999999,"N_COORD97":2586370.6099999999,"ADDRESS":"菁寮６號","OBJECTID":51200},"geometry":{"x":181836.86000000034,"y":2586370.6099999994}}]}