{"displayFieldName":"TOWNNAME","fieldAliases":{"ID":"ID","DIS_CODE":"DIS_CODE","TOWNNAME":"TOWNNAME","LI":"LI","LIN":"LIN","STREET":"STREET","SECT":"SECT","MAREA":"MAREA","LANE":"LANE","ALLEY":"ALLEY","HOUSE_NO":"HOUSE_NO","E_COORD97":"E_COORD97","N_COORD97":"N_COORD97","ADDRESS":"ADDRESS","OBJECTID":"OBJECTID"},"geometryType":"esriGeometryPoint","spatialReference":{"wkid":102443,"latestWkid":3826},"fields":[{"name":"ID","type":"esriFieldTypeDouble","alias":"ID"},{"name":"DIS_CODE","type":"esriFieldTypeInteger","alias":"DIS_CODE"},{"name":"TOWNNAME","type":"esriFieldTypeString","alias":"TOWNNAME","length":8},{"name":"LI","type":"esriFieldTypeString","alias":"LI","length":8},{"name":"LIN","type":"esriFieldTypeString","alias":"LIN","length":12},{"name":"STREET","type":"esriFieldTypeString","alias":"STREET","length":20},{"name":"SECT","type":"esriFieldTypeString","alias":"SECT","length":8},{"name":"MAREA","type":"esriFieldTypeString","alias":"MAREA","length":12},{"name":"LANE","type":"esriFieldTypeString","alias":"LANE","length":10},{"name":"ALLEY","type":"esriFieldTypeString","alias":"ALLEY","length":10},{"name":"HOUSE_NO","type":"esriFieldTypeString","alias":"HOUSE_NO","length":20},{"name":"E_COORD97","type":"esriFieldTypeDouble","alias":"E_COORD97"},{"name":"N_COORD97","type":"esriFieldTypeDouble","alias":"N_COORD97"},{"name":"ADDRESS","type":"esriFieldTypeString","alias":"ADDRESS","length":50},{"name":"OBJECTID","type":"esriFieldTypeOID","alias":"OBJECTID"}],"features":[{"attributes":{"ID":321810,"DIS_CODE":0,"TOWNNAME":"新營區","LI":"民榮里","LIN":"17鄰","STREET":"富強街","SECT":" ","MAREA":" ","LANE":" ","ALLEY":" ","HOUSE_NO":"２６號五樓","E_COORD97":178988.14000000001,"N_COORD97":2577803.4500000002,"ADDRESS":"富強街２６號五樓","OBJECTID":321801},"geometry":{"x":178988.13999999966,"y":2577803.4500000011}},{"attributes":{"ID":321811,"DIS_CODE":0,"TOWNNAME":"新營區","LI":"民榮里","LIN":"17鄰","STREET":"富強街","SECT":" ","MAREA":" ","LANE":" ","ALLEY":" ","HOUSE_NO":"２２號三樓","E_COORD97":178988.14000000001,"N_COORD97":2577803.4500000002,"ADDRESS":"富強街２２號三樓","OBJECTID":321802},"geometry":{"x":178988.13999999966,"y":2577803.4500000011}},{"attributes":{"ID":321812,"DIS_CODE":0,"TOWNNAME":"新營區","LI":"民榮里","LIN":"17鄰","STREET":"富強街","SECT":" ","MAREA":" ","LANE":" ","ALLEY":" ","HOUSE_NO":"２２號五樓","E_COORD97":178988.14000000001,"N_COORD97":2577803.4500000002,"ADDRESS":"富強街２２號五樓","OBJECTID":321803},"geometry":{"x":178988.13999999966,"y":2577803.4500000011}},{"attributes":{"ID":321813,"DIS_CODE":0,"TOWNNAME":"新營區","LI":"忠政里","LIN":"17鄰","STREET":"府西路","SECT":" ","MAREA":" ","LANE":" ","ALLEY":" ","HOUSE_NO":"２５６號四樓之２","E_COORD97":179806.69,"N_COORD97":2579697.77,"ADDRESS":"府西路２５６號四樓之２","OBJECTID":321804},"geometry":{"x":179806.69000000134,"y":2579697.7699999996}},{"attributes":{"ID":321814,"DIS_CODE":0,"TOWNNAME":"新營區","LI":"忠政里","LIN":"17鄰","STREET":"府西路","SECT":" ","MAREA":" ","LANE":" ","ALLEY":" ","HOUSE_NO":"２５６號三樓之２","E_COORD97":179806.69,"N_COORD97":2579697.77,"ADDRESS":"府西路２５６號三樓之２","OBJECTID":321805},"geometry":{"x":179806.69000000134,"y":2579697.7699999996}},{"attributes":{"ID":321815,"DIS_CODE":0,"TOWNNAME":"歸仁區","LI":"許厝里","LIN":"17鄰","STREET":"忠孝北路","SECT":" ","MAREA":" ","LANE":" ","ALLEY":" ","HOUSE_NO":"２７號五樓","E_COORD97":178444.22,"N_COORD97":2540724.25,"ADDRESS":"忠孝北路２７號五樓","OBJECTID":321806},"geometry":{"x":178444.22000000067,"y":2540724.2500000019}},{"attributes":{"ID":321816,"DIS_CODE":0,"TOWNNAME":"歸仁區","LI":"許厝里","LIN":"17鄰","STREET":"忠孝北路","SECT":" ","MAREA":" ","LANE":" ","ALLEY":" ","HOUSE_NO":"１５號五樓","E_COORD97":178435.01999999999,"N_COORD97":2540716.25,"ADDRESS":"忠孝北路１５號五樓","OBJECTID":321807},"geometry":{"x":178435.02000000048,"y":2540716.25}},{"attributes":{"ID":321817,"DIS_CODE":0,"TOWNNAME":"歸仁區","LI":"許厝里","LIN":"17鄰","STREET":"忠孝北路","SECT":" ","MAREA":" ","LANE":" ","ALLEY":" ","HOUSE_NO":"２１號三樓","E_COORD97":178444.22,"N_COORD97":2540724.25,"ADDRESS":"忠孝北路２１號三樓","OBJECTID":321808},"geometry":{"x":178444.22000000067,"y":2540724.2500000019}},{"attributes":{"ID":321818,"DIS_CODE":0,"TOWNNAME":"歸仁區","LI":"許厝里","LIN":"17鄰","STREET":"忠孝北路","SECT":" ","MAREA":" ","LANE":" ","ALLEY":" ","HOUSE_NO":"２３號五樓","E_COORD97":178444.22,"N_COORD97":2540724.25,"ADDRESS":"忠孝北路２３號五樓","OBJECTID":321809},"geometry":{"x":178444.22000000067,"y":2540724.2500000019}},{"attributes":{"ID":321819,"DIS_CODE":0,"TOWNNAME":"南區","LI":"白雪里","LIN":" ","STREET":"鹽埕路","SECT":" ","MAREA":" ","LANE":"１６０巷","ALLEY":" ","HOUSE_NO":"２１號","E_COORD97":166931.35999999999,"N_COORD97":2541032.5899999999,"ADDRESS":"鹽埕路１６０巷２１號","OBJECTID":321810},"geometry":{"x":166931.3600000022,"y":2541032.5899999999}},{"attributes":{"ID":321820,"DIS_CODE":0,"TOWNNAME":"南區","LI":"白雪里","LIN":" ","STREET":"鹽埕路","SECT":" ","MAREA":" ","LANE":"１３１巷","ALLEY":" ","HOUSE_NO":"３５號","E_COORD97":166728.32000000001,"N_COORD97":2540981.8500000001,"ADDRESS":"鹽埕路１３１巷３５號","OBJECTID":321811},"geometry":{"x":166728.32000000123,"y":2540981.8500000015}},{"attributes":{"ID":321821,"DIS_CODE":0,"TOWNNAME":"南區","LI":"白雪里","LIN":" ","STREET":"鹽埕路","SECT":" ","MAREA":" ","LANE":"１３１巷","ALLEY":" ","HOUSE_NO":"３７號","E_COORD97":166720.17000000001,"N_COORD97":2540985.52,"ADDRESS":"鹽埕路１３１巷３７號","OBJECTID":321812},"geometry":{"x":166720.16999999899,"y":2540985.5199999996}},{"attributes":{"ID":321822,"DIS_CODE":0,"TOWNNAME":"南區","LI":"白雪里","LIN":" ","STREET":"鹽埕路","SECT":" ","MAREA":" ","LANE":"１０３巷","ALLEY":" ","HOUSE_NO":"７０號","E_COORD97":166697.45000000001,"N_COORD97":2540681.4700000002,"ADDRESS":"鹽埕路１０３巷７０號","OBJECTID":321813},"geometry":{"x":166697.45000000112,"y":2540681.4700000007}},{"attributes":{"ID":321823,"DIS_CODE":0,"TOWNNAME":"南區","LI":"白雪里","LIN":" ","STREET":"鹽埕路","SECT":" ","MAREA":" ","LANE":"１０３巷","ALLEY":" ","HOUSE_NO":"７２號","E_COORD97":166697.85999999999,"N_COORD97":2540677.1400000001,"ADDRESS":"鹽埕路１０３巷７２號","OBJECTID":321814},"geometry":{"x":166697.86000000127,"y":2540677.1400000006}},{"attributes":{"ID":321824,"DIS_CODE":0,"TOWNNAME":"南區","LI":"白雪里","LIN":" ","STREET":"鹽埕路","SECT":" ","MAREA":" ","LANE":"１０３巷","ALLEY":" ","HOUSE_NO":"７４號","E_COORD97":166698.26999999999,"N_COORD97":2540673.23,"ADDRESS":"鹽埕路１０３巷７４號","OBJECTID":321815},"geometry":{"x":166698.26999999955,"y":2540673.2299999986}},{"attributes":{"ID":321825,"DIS_CODE":0,"TOWNNAME":"南區","LI":"白雪里","LIN":" ","STREET":"鹽埕路","SECT":" ","MAREA":" ","LANE":"２９１巷","ALLEY":" ","HOUSE_NO":"２８號","E_COORD97":166629.54000000001,"N_COORD97":2541247.2599999998,"ADDRESS":"鹽埕路２９１巷２８號","OBJECTID":321816},"geometry":{"x":166629.54000000004,"y":2541247.2599999998}},{"attributes":{"ID":321826,"DIS_CODE":0,"TOWNNAME":"南區","LI":"白雪里","LIN":" ","STREET":"鹽埕路","SECT":" ","MAREA":" ","LANE":"２９１巷","ALLEY":" ","HOUSE_NO":"３０號","E_COORD97":166627.12,"N_COORD97":2541254.7599999998,"ADDRESS":"鹽埕路２９１巷３０號","OBJECTID":321817},"geometry":{"x":166627.12000000011,"y":2541254.7599999998}},{"attributes":{"ID":321827,"DIS_CODE":0,"TOWNNAME":"安平區","LI":"國平里","LIN":"26鄰","STREET":"府平路","SECT":" ","MAREA":" ","LANE":"１４４巷","ALLEY":" ","HOUSE_NO":"６７號","E_COORD97":164805.89999999999,"N_COORD97":2543273.3300000001,"ADDRESS":"府平路１４４巷６７號","OBJECTID":321818},"geometry":{"x":164805.9000000013,"y":2543273.3300000019}},{"attributes":{"ID":321828,"DIS_CODE":0,"TOWNNAME":"安平區","LI":"國平里","LIN":"26鄰","STREET":"府平路","SECT":" ","MAREA":" ","LANE":"１４４巷","ALLEY":" ","HOUSE_NO":"６７號地下層","E_COORD97":164805.89999999999,"N_COORD97":2543273.3300000001,"ADDRESS":"府平路１４４巷６７號地下層","OBJECTID":321819},"geometry":{"x":164805.9000000013,"y":2543273.3300000019}},{"attributes":{"ID":321829,"DIS_CODE":0,"TOWNNAME":"安平區","LI":"港仔里","LIN":"9鄰","STREET":"運河路","SECT":" ","MAREA":" ","LANE":"１３巷","ALLEY":" ","HOUSE_NO":"３３號","E_COORD97":164184.10000000001,"N_COORD97":2544500.5899999999,"ADDRESS":"運河路１３巷３３號","OBJECTID":321820},"geometry":{"x":164184.09999999963,"y":2544500.5899999999}},{"attributes":{"ID":321830,"DIS_CODE":0,"TOWNNAME":"永康區","LI":"復興里","LIN":"15鄰","STREET":"復興路","SECT":" ","MAREA":" ","LANE":"３５６巷","ALLEY":" ","HOUSE_NO":"２９號","E_COORD97":172266.85999999999,"N_COORD97":2544413.52,"ADDRESS":"復興路３５６巷２９號","OBJECTID":321821},"geometry":{"x":172266.86000000127,"y":2544413.5200000033}},{"attributes":{"ID":321831,"DIS_CODE":0,"TOWNNAME":"永康區","LI":"網寮里","LIN":"15鄰","STREET":"永和街","SECT":" ","MAREA":" ","LANE":"２６０巷","ALLEY":" ","HOUSE_NO":"２２號","E_COORD97":173440.57000000001,"N_COORD97":2546646.5,"ADDRESS":"永和街２６０巷２２號","OBJECTID":321822},"geometry":{"x":173440.5700000003,"y":2546646.5000000019}},{"attributes":{"ID":321832,"DIS_CODE":0,"TOWNNAME":"歸仁區","LI":"許厝里","LIN":"17鄰","STREET":"忠孝北路","SECT":" ","MAREA":" ","LANE":" ","ALLEY":" ","HOUSE_NO":"２７號二樓","E_COORD97":178444.22,"N_COORD97":2540724.25,"ADDRESS":"忠孝北路２７號二樓","OBJECTID":321823},"geometry":{"x":178444.22000000067,"y":2540724.2500000019}},{"attributes":{"ID":321833,"DIS_CODE":0,"TOWNNAME":"歸仁區","LI":"許厝里","LIN":"17鄰","STREET":"忠孝北路","SECT":" ","MAREA":" ","LANE":" ","ALLEY":" ","HOUSE_NO":"２５號五樓","E_COORD97":178444.22,"N_COORD97":2540724.25,"ADDRESS":"忠孝北路２５號五樓","OBJECTID":321824},"geometry":{"x":178444.22000000067,"y":2540724.2500000019}},{"attributes":{"ID":321834,"DIS_CODE":0,"TOWNNAME":"歸仁區","LI":"許厝里","LIN":"17鄰","STREET":"忠孝北路","SECT":" ","MAREA":" ","LANE":" ","ALLEY":" ","HOUSE_NO":"３３號五樓","E_COORD97":178444.22,"N_COORD97":2540724.25,"ADDRESS":"忠孝北路３３號五樓","OBJECTID":321825},"geometry":{"x":178444.22000000067,"y":2540724.2500000019}},{"attributes":{"ID":321835,"DIS_CODE":0,"TOWNNAME":"新營區","LI":"忠政里","LIN":"17鄰","STREET":"府西路","SECT":" ","MAREA":" ","LANE":" ","ALLEY":" ","HOUSE_NO":"２５６號四樓之４","E_COORD97":179806.57999999999,"N_COORD97":2579697.77,"ADDRESS":"府西路２５６號四樓之４","OBJECTID":321826},"geometry":{"x":179806.58000000101,"y":2579697.7699999996}},{"attributes":{"ID":321836,"DIS_CODE":0,"TOWNNAME":"新營區","LI":"忠政里","LIN":"17鄰","STREET":"府西路","SECT":" ","MAREA":" ","LANE":" ","ALLEY":" ","HOUSE_NO":"２５６號六樓之４","E_COORD97":179806.57999999999,"N_COORD97":2579697.77,"ADDRESS":"府西路２５６號六樓之４","OBJECTID":321827},"geometry":{"x":179806.58000000101,"y":2579697.7699999996}},{"attributes":{"ID":321837,"DIS_CODE":0,"TOWNNAME":"安南區","LI":"長安里","LIN":"17鄰","STREET":"長溪路","SECT":"三段","MAREA":" ","LANE":" ","ALLEY":" ","HOUSE_NO":"２６９號","E_COORD97":167773.16,"N_COORD97":2551790.0499999998,"ADDRESS":"長溪路三段２６９號","OBJECTID":321828},"geometry":{"x":167773.16000000015,"y":2551790.0500000026}},{"attributes":{"ID":321838,"DIS_CODE":0,"TOWNNAME":"安南區","LI":"長安里","LIN":"17鄰","STREET":"長溪路","SECT":"三段","MAREA":" ","LANE":" ","ALLEY":" ","HOUSE_NO":"１６１號","E_COORD97":167886.72,"N_COORD97":2551518.3100000001,"ADDRESS":"長溪路三段１６１號","OBJECTID":321829},"geometry":{"x":167886.72000000067,"y":2551518.3100000005}},{"attributes":{"ID":321839,"DIS_CODE":0,"TOWNNAME":"安南區","LI":"長安里","LIN":"17鄰","STREET":"長溪路","SECT":"三段","MAREA":" ","LANE":" ","ALLEY":" ","HOUSE_NO":"１６１號之２０","E_COORD97":167916.82999999999,"N_COORD97":2551341.1400000001,"ADDRESS":"長溪路三段１６１號之２０","OBJECTID":321830},"geometry":{"x":167916.83000000101,"y":2551341.1400000025}},{"attributes":{"ID":321840,"DIS_CODE":0,"TOWNNAME":"南區","LI":"白雪里","LIN":" ","STREET":"鹽埕路","SECT":" ","MAREA":" ","LANE":"２９１巷","ALLEY":" ","HOUSE_NO":"１２號","E_COORD97":166662.60999999999,"N_COORD97":2541224.7000000002,"ADDRESS":"鹽埕路２９１巷１２號","OBJECTID":321831},"geometry":{"x":166662.61000000127,"y":2541224.6999999993}},{"attributes":{"ID":321841,"DIS_CODE":0,"TOWNNAME":"南區","LI":"白雪里","LIN":" ","STREET":"鹽埕路","SECT":" ","MAREA":" ","LANE":"２９１巷","ALLEY":" ","HOUSE_NO":"１０號","E_COORD97":166668.38,"N_COORD97":2541222.02,"ADDRESS":"鹽埕路２９１巷１０號","OBJECTID":321832},"geometry":{"x":166668.38000000082,"y":2541222.0199999996}},{"attributes":{"ID":321842,"DIS_CODE":0,"TOWNNAME":"南區","LI":"白雪里","LIN":" ","STREET":"鹽埕路","SECT":" ","MAREA":" ","LANE":"２９１巷","ALLEY":" ","HOUSE_NO":"１１９號","E_COORD97":166694.34,"N_COORD97":2541186.3100000001,"ADDRESS":"鹽埕路２９１巷１１９號","OBJECTID":321833},"geometry":{"x":166694.34000000078,"y":2541186.3100000024}},{"attributes":{"ID":321843,"DIS_CODE":0,"TOWNNAME":"南區","LI":"白雪里","LIN":" ","STREET":"鹽埕路","SECT":" ","MAREA":" ","LANE":"２９１巷","ALLEY":" ","HOUSE_NO":"１２１號","E_COORD97":166690.53,"N_COORD97":2541177.6899999999,"ADDRESS":"鹽埕路２９１巷１２１號","OBJECTID":321834},"geometry":{"x":166690.53000000026,"y":2541177.6899999976}},{"attributes":{"ID":321844,"DIS_CODE":0,"TOWNNAME":"南區","LI":"白雪里","LIN":" ","STREET":"鹽埕路","SECT":" ","MAREA":" ","LANE":"２９１巷","ALLEY":" ","HOUSE_NO":"１２５號","E_COORD97":166701.95000000001,"N_COORD97":2541167.04,"ADDRESS":"鹽埕路２９１巷１２５號","OBJECTID":321835},"geometry":{"x":166701.95000000112,"y":2541167.0399999991}},{"attributes":{"ID":321845,"DIS_CODE":0,"TOWNNAME":"南區","LI":"白雪里","LIN":" ","STREET":"鹽埕路","SECT":" ","MAREA":" ","LANE":"２９１巷","ALLEY":" ","HOUSE_NO":"１２７號","E_COORD97":166686.47,"N_COORD97":2541168.0499999998,"ADDRESS":"鹽埕路２９１巷１２７號","OBJECTID":321836},"geometry":{"x":166686.47000000067,"y":2541168.0500000026}},{"attributes":{"ID":321846,"DIS_CODE":0,"TOWNNAME":"南區","LI":"白雪里","LIN":" ","STREET":"鹽埕路","SECT":" ","MAREA":" ","LANE":"２９１巷","ALLEY":" ","HOUSE_NO":"１２９號","E_COORD97":166683.17000000001,"N_COORD97":2541162.73,"ADDRESS":"鹽埕路２９１巷１２９號","OBJECTID":321837},"geometry":{"x":166683.17000000086,"y":2541162.7300000023}},{"attributes":{"ID":321847,"DIS_CODE":0,"TOWNNAME":"南區","LI":"白雪里","LIN":" ","STREET":"鹽埕路","SECT":" ","MAREA":" ","LANE":"２９１巷","ALLEY":" ","HOUSE_NO":"１３３號","E_COORD97":166681.39000000001,"N_COORD97":2541159.6899999999,"ADDRESS":"鹽埕路２９１巷１３３號","OBJECTID":321838},"geometry":{"x":166681.3900000006,"y":2541159.6899999995}},{"attributes":{"ID":321848,"DIS_CODE":0,"TOWNNAME":"南區","LI":"白雪里","LIN":" ","STREET":"鹽埕路","SECT":" ","MAREA":" ","LANE":"２９１巷","ALLEY":" ","HOUSE_NO":"１３９號","E_COORD97":166674.79000000001,"N_COORD97":2541152.0800000001,"ADDRESS":"鹽埕路２９１巷１３９號","OBJECTID":321839},"geometry":{"x":166674.79000000004,"y":2541152.0800000038}},{"attributes":{"ID":321849,"DIS_CODE":0,"TOWNNAME":"南區","LI":"白雪里","LIN":" ","STREET":"鹽埕路","SECT":" ","MAREA":" ","LANE":"２９１巷","ALLEY":" ","HOUSE_NO":"１４５號","E_COORD97":166671.23999999999,"N_COORD97":2541144.73,"ADDRESS":"鹽埕路２９１巷１４５號","OBJECTID":321840},"geometry":{"x":166671.24000000115,"y":2541144.7300000042}},{"attributes":{"ID":321850,"DIS_CODE":0,"TOWNNAME":"南區","LI":"白雪里","LIN":" ","STREET":"鹽埕路","SECT":" ","MAREA":" ","LANE":"１５９巷","ALLEY":" ","HOUSE_NO":"３４號","E_COORD97":166748.62,"N_COORD97":2541100.2400000002,"ADDRESS":"鹽埕路１５９巷３４號","OBJECTID":321841},"geometry":{"x":166748.62000000104,"y":2541100.2400000039}},{"attributes":{"ID":321851,"DIS_CODE":0,"TOWNNAME":"南區","LI":"白雪里","LIN":" ","STREET":"鹽埕路","SECT":" ","MAREA":" ","LANE":"１５９巷","ALLEY":" ","HOUSE_NO":"４０號","E_COORD97":166733.56,"N_COORD97":2541110.2000000002,"ADDRESS":"鹽埕路１５９巷４０號","OBJECTID":321842},"geometry":{"x":166733.55999999959,"y":2541110.2000000011}},{"attributes":{"ID":321852,"DIS_CODE":0,"TOWNNAME":"南區","LI":"白雪里","LIN":" ","STREET":"鹽埕路","SECT":" ","MAREA":" ","LANE":"１５９巷","ALLEY":" ","HOUSE_NO":"６４號","E_COORD97":166676.82000000001,"N_COORD97":2541134.7799999998,"ADDRESS":"鹽埕路１５９巷６４號","OBJECTID":321843},"geometry":{"x":166676.8200000003,"y":2541134.7799999993}},{"attributes":{"ID":321853,"DIS_CODE":0,"TOWNNAME":"南區","LI":"白雪里","LIN":" ","STREET":"鹽埕路","SECT":" ","MAREA":" ","LANE":"１５９巷","ALLEY":" ","HOUSE_NO":"６８號","E_COORD97":166664.13,"N_COORD97":2541135.79,"ADDRESS":"鹽埕路１５９巷６８號","OBJECTID":321844},"geometry":{"x":166664.12999999989,"y":2541135.7899999991}},{"attributes":{"ID":321854,"DIS_CODE":0,"TOWNNAME":"永康區","LI":"網寮里","LIN":"15鄰","STREET":"永和街","SECT":" ","MAREA":" ","LANE":"２８２巷","ALLEY":" ","HOUSE_NO":"１２號","E_COORD97":173334.87,"N_COORD97":2546623,"ADDRESS":"永和街２８２巷１２號","OBJECTID":321845},"geometry":{"x":173334.87000000011,"y":2546623}},{"attributes":{"ID":321855,"DIS_CODE":0,"TOWNNAME":"安南區","LI":"長安里","LIN":"17鄰","STREET":"長溪路","SECT":"三段","MAREA":" ","LANE":" ","ALLEY":" ","HOUSE_NO":"１６３號","E_COORD97":167884.48999999999,"N_COORD97":2551522.2200000002,"ADDRESS":"長溪路三段１６３號","OBJECTID":321846},"geometry":{"x":167884.49000000022,"y":2551522.2200000007}},{"attributes":{"ID":321856,"DIS_CODE":0,"TOWNNAME":"安南區","LI":"長安里","LIN":"17鄰","STREET":"長溪路","SECT":"三段","MAREA":" ","LANE":" ","ALLEY":" ","HOUSE_NO":"１６５號","E_COORD97":167883.56,"N_COORD97":2551526.21,"ADDRESS":"長溪路三段１６５號","OBJECTID":321847},"geometry":{"x":167883.56000000145,"y":2551526.2100000009}},{"attributes":{"ID":321857,"DIS_CODE":0,"TOWNNAME":"新市區","LI":"新和里","LIN":"15鄰","STREET":"忠孝街","SECT":" ","MAREA":" ","LANE":"１０１巷","ALLEY":" ","HOUSE_NO":"６號","E_COORD97":177657.12,"N_COORD97":2552596.75,"ADDRESS":"忠孝街１０１巷６號","OBJECTID":321848},"geometry":{"x":177657.12000000104,"y":2552596.7500000037}},{"attributes":{"ID":321858,"DIS_CODE":0,"TOWNNAME":"安南區","LI":"長安里","LIN":"17鄰","STREET":"長溪路","SECT":"三段","MAREA":" ","LANE":" ","ALLEY":" ","HOUSE_NO":"１６７號","E_COORD97":167882.35000000001,"N_COORD97":2551529.9300000002,"ADDRESS":"長溪路三段１６７號","OBJECTID":321849},"geometry":{"x":167882.35000000056,"y":2551529.9299999997}},{"attributes":{"ID":321859,"DIS_CODE":0,"TOWNNAME":"安南區","LI":"長安里","LIN":"17鄰","STREET":"長溪路","SECT":"三段","MAREA":" ","LANE":" ","ALLEY":" ","HOUSE_NO":"１６９號","E_COORD97":167879.84,"N_COORD97":2551533.8700000001,"ADDRESS":"長溪路三段１６９號","OBJECTID":321850},"geometry":{"x":167879.83999999985,"y":2551533.8700000029}},{"attributes":{"ID":321860,"DIS_CODE":0,"TOWNNAME":"安南區","LI":"長安里","LIN":"17鄰","STREET":"長溪路","SECT":"三段","MAREA":" ","LANE":" ","ALLEY":" ","HOUSE_NO":"１７１號","E_COORD97":167878.63,"N_COORD97":2551538.4300000002,"ADDRESS":"長溪路三段１７１號","OBJECTID":321851},"geometry":{"x":167878.63000000082,"y":2551538.4300000016}},{"attributes":{"ID":321861,"DIS_CODE":0,"TOWNNAME":"安南區","LI":"長安里","LIN":"17鄰","STREET":"長溪路","SECT":"三段","MAREA":" ","LANE":" ","ALLEY":" ","HOUSE_NO":"２８１號","E_COORD97":167757.76000000001,"N_COORD97":2551819.8500000001,"ADDRESS":"長溪路三段２８１號","OBJECTID":321852},"geometry":{"x":167757.76000000071,"y":2551819.8500000015}},{"attributes":{"ID":321862,"DIS_CODE":0,"TOWNNAME":"安南區","LI":"長安里","LIN":"17鄰","STREET":"長溪路","SECT":"三段","MAREA":" ","LANE":" ","ALLEY":" ","HOUSE_NO":"２８３號","E_COORD97":167754.5,"N_COORD97":2551824.0800000001,"ADDRESS":"長溪路三段２８３號","OBJECTID":321853},"geometry":{"x":167754.50000000093,"y":2551824.0800000001}},{"attributes":{"ID":321863,"DIS_CODE":0,"TOWNNAME":"安南區","LI":"長安里","LIN":"17鄰","STREET":"長溪路","SECT":"三段","MAREA":" ","LANE":" ","ALLEY":" ","HOUSE_NO":"２８５號","E_COORD97":167750.91,"N_COORD97":2551828.6899999999,"ADDRESS":"長溪路三段２８５號","OBJECTID":321854},"geometry":{"x":167750.91000000015,"y":2551828.6900000013}},{"attributes":{"ID":321864,"DIS_CODE":0,"TOWNNAME":"安南區","LI":"長安里","LIN":"17鄰","STREET":"長溪路","SECT":"三段","MAREA":" ","LANE":" ","ALLEY":" ","HOUSE_NO":"２８５號之１","E_COORD97":167748.03,"N_COORD97":2551834.1699999999,"ADDRESS":"長溪路三段２８５號之１","OBJECTID":321855},"geometry":{"x":167748.03000000119,"y":2551834.1699999999}},{"attributes":{"ID":321865,"DIS_CODE":0,"TOWNNAME":"安南區","LI":"長安里","LIN":"17鄰","STREET":"長溪路","SECT":"三段","MAREA":" ","LANE":" ","ALLEY":" ","HOUSE_NO":"３１５號","E_COORD97":167734.62,"N_COORD97":2551883.8999999999,"ADDRESS":"長溪路三段３１５號","OBJECTID":321856},"geometry":{"x":167734.62000000197,"y":2551883.9000000004}},{"attributes":{"ID":321866,"DIS_CODE":0,"TOWNNAME":"安南區","LI":"長安里","LIN":"17鄰","STREET":"長溪路","SECT":"三段","MAREA":" ","LANE":" ","ALLEY":" ","HOUSE_NO":"３１７號","E_COORD97":167731.75,"N_COORD97":2551895.1000000001,"ADDRESS":"長溪路三段３１７號","OBJECTID":321857},"geometry":{"x":167731.74999999907,"y":2551895.0999999996}},{"attributes":{"ID":321867,"DIS_CODE":0,"TOWNNAME":"安南區","LI":"長安里","LIN":"17鄰","STREET":"長溪路","SECT":"三段","MAREA":" ","LANE":" ","ALLEY":" ","HOUSE_NO":"３３１號","E_COORD97":167724.60999999999,"N_COORD97":2551907.9300000002,"ADDRESS":"長溪路三段３３１號","OBJECTID":321858},"geometry":{"x":167724.6099999994,"y":2551907.9300000016}},{"attributes":{"ID":321868,"DIS_CODE":0,"TOWNNAME":"安南區","LI":"長安里","LIN":"17鄰","STREET":"長溪路","SECT":"三段","MAREA":" ","LANE":" ","ALLEY":" ","HOUSE_NO":"３３３號","E_COORD97":167720.79999999999,"N_COORD97":2551910.8500000001,"ADDRESS":"長溪路三段３３３號","OBJECTID":321859},"geometry":{"x":167720.79999999981,"y":2551910.8500000034}},{"attributes":{"ID":321869,"DIS_CODE":0,"TOWNNAME":"安南區","LI":"長安里","LIN":"17鄰","STREET":"長溪路","SECT":"三段","MAREA":" ","LANE":" ","ALLEY":" ","HOUSE_NO":"３３５號","E_COORD97":167719.73000000001,"N_COORD97":2551915.0699999998,"ADDRESS":"長溪路三段３３５號","OBJECTID":321860},"geometry":{"x":167719.73000000138,"y":2551915.0700000022}},{"attributes":{"ID":321870,"DIS_CODE":0,"TOWNNAME":"安南區","LI":"長安里","LIN":"17鄰","STREET":"長溪路","SECT":"三段","MAREA":" ","LANE":" ","ALLEY":" ","HOUSE_NO":"３３７號","E_COORD97":167718.03,"N_COORD97":2551919.1200000001,"ADDRESS":"長溪路三段３３７號","OBJECTID":321861},"geometry":{"x":167718.03000000026,"y":2551919.120000001}},{"attributes":{"ID":321871,"DIS_CODE":0,"TOWNNAME":"南區","LI":"白雪里","LIN":" ","STREET":"鹽埕路","SECT":" ","MAREA":" ","LANE":"１８７巷","ALLEY":" ","HOUSE_NO":"１２號","E_COORD97":166796.45999999999,"N_COORD97":2541127.8900000001,"ADDRESS":"鹽埕路１８７巷１２號","OBJECTID":321862},"geometry":{"x":166796.46000000183,"y":2541127.8900000025}},{"attributes":{"ID":321872,"DIS_CODE":0,"TOWNNAME":"南區","LI":"白雪里","LIN":" ","STREET":"鹽埕路","SECT":" ","MAREA":" ","LANE":"１８７巷","ALLEY":" ","HOUSE_NO":"１４號","E_COORD97":166790.35000000001,"N_COORD97":2541134.0899999999,"ADDRESS":"鹽埕路１８７巷１４號","OBJECTID":321863},"geometry":{"x":166790.35000000056,"y":2541134.0899999999}},{"attributes":{"ID":321873,"DIS_CODE":0,"TOWNNAME":"南區","LI":"白雪里","LIN":" ","STREET":"鹽埕路","SECT":" ","MAREA":" ","LANE":"１８７巷","ALLEY":" ","HOUSE_NO":"１６號","E_COORD97":166787.56,"N_COORD97":2541120.0600000001,"ADDRESS":"鹽埕路１８７巷１６號","OBJECTID":321864},"geometry":{"x":166787.56000000052,"y":2541120.0600000024}},{"attributes":{"ID":321874,"DIS_CODE":0,"TOWNNAME":"南區","LI":"白雪里","LIN":" ","STREET":"鹽埕路","SECT":" ","MAREA":" ","LANE":"１８７巷","ALLEY":" ","HOUSE_NO":"１８號","E_COORD97":166783.39999999999,"N_COORD97":2541135.5899999999,"ADDRESS":"鹽埕路１８７巷１８號","OBJECTID":321865},"geometry":{"x":166783.40000000037,"y":2541135.5900000017}},{"attributes":{"ID":321875,"DIS_CODE":0,"TOWNNAME":"南區","LI":"白雪里","LIN":" ","STREET":"鹽埕路","SECT":" ","MAREA":" ","LANE":"１８７巷","ALLEY":" ","HOUSE_NO":"２０號","E_COORD97":166775.04999999999,"N_COORD97":2541128.0699999998,"ADDRESS":"鹽埕路１８７巷２０號","OBJECTID":321866},"geometry":{"x":166775.04999999981,"y":2541128.0700000003}},{"attributes":{"ID":321876,"DIS_CODE":0,"TOWNNAME":"南區","LI":"白雪里","LIN":" ","STREET":"鹽埕路","SECT":" ","MAREA":" ","LANE":"１８７巷","ALLEY":" ","HOUSE_NO":"２２號","E_COORD97":166771.44,"N_COORD97":2541124.46,"ADDRESS":"鹽埕路１８７巷２２號","OBJECTID":321867},"geometry":{"x":166771.43999999948,"y":2541124.4600000028}},{"attributes":{"ID":321877,"DIS_CODE":0,"TOWNNAME":"南區","LI":"白雪里","LIN":" ","STREET":"鹽埕路","SECT":" ","MAREA":" ","LANE":"１８７巷","ALLEY":" ","HOUSE_NO":"２４號","E_COORD97":166764.94,"N_COORD97":2541119.8399999999,"ADDRESS":"鹽埕路１８７巷２４號","OBJECTID":321868},"geometry":{"x":166764.94000000134,"y":2541119.8400000036}},{"attributes":{"ID":321878,"DIS_CODE":0,"TOWNNAME":"永康區","LI":"崑山里","LIN":"15鄰","STREET":"大灣路","SECT":" ","MAREA":" ","LANE":"９４２巷","ALLEY":" ","HOUSE_NO":"１７號","E_COORD97":173613.39999999999,"N_COORD97":2544475.6099999999,"ADDRESS":"大灣路９４２巷１７號","OBJECTID":321869},"geometry":{"x":173613.40000000037,"y":2544475.6099999994}},{"attributes":{"ID":321879,"DIS_CODE":0,"TOWNNAME":"永康區","LI":"復華里","LIN":"15鄰","STREET":"國華街","SECT":" ","MAREA":" ","LANE":"８９巷","ALLEY":" ","HOUSE_NO":"２號","E_COORD97":172828.45000000001,"N_COORD97":2545932.25,"ADDRESS":"國華街８９巷２號","OBJECTID":321870},"geometry":{"x":172828.45000000112,"y":2545932.2500000019}},{"attributes":{"ID":321880,"DIS_CODE":0,"TOWNNAME":"永康區","LI":"復華里","LIN":"15鄰","STREET":"國華街","SECT":" ","MAREA":" ","LANE":"９１巷","ALLEY":" ","HOUSE_NO":"１６號","E_COORD97":172801.73000000001,"N_COORD97":2545964.4199999999,"ADDRESS":"國華街９１巷１６號","OBJECTID":321871},"geometry":{"x":172801.73000000138,"y":2545964.4200000018}},{"attributes":{"ID":321881,"DIS_CODE":0,"TOWNNAME":"永康區","LI":"復華里","LIN":"15鄰","STREET":"國華街","SECT":" ","MAREA":" ","LANE":"８７巷","ALLEY":" ","HOUSE_NO":"３號","E_COORD97":172837.44,"N_COORD97":2545876.9900000002,"ADDRESS":"國華街８７巷３號","OBJECTID":321872},"geometry":{"x":172837.44000000134,"y":2545876.9900000021}},{"attributes":{"ID":321882,"DIS_CODE":0,"TOWNNAME":"永康區","LI":"復華里","LIN":"15鄰","STREET":"國華街","SECT":" ","MAREA":" ","LANE":"８９巷","ALLEY":" ","HOUSE_NO":"１０號","E_COORD97":172810.72,"N_COORD97":2545932.75,"ADDRESS":"國華街８９巷１０號","OBJECTID":321873},"geometry":{"x":172810.7200000016,"y":2545932.7500000019}},{"attributes":{"ID":321883,"DIS_CODE":0,"TOWNNAME":"永康區","LI":"崑山里","LIN":"15鄰","STREET":"大灣路","SECT":" ","MAREA":" ","LANE":"９４２巷","ALLEY":" ","HOUSE_NO":"１３號","E_COORD97":173611.06,"N_COORD97":2544463.7200000002,"ADDRESS":"大灣路９４２巷１３號","OBJECTID":321874},"geometry":{"x":173611.05999999959,"y":2544463.7200000007}},{"attributes":{"ID":321884,"DIS_CODE":0,"TOWNNAME":"永康區","LI":"復華里","LIN":"15鄰","STREET":"國華街","SECT":" ","MAREA":" ","LANE":"８９巷","ALLEY":" ","HOUSE_NO":"９號","E_COORD97":172812.84,"N_COORD97":2545915.25,"ADDRESS":"國華街８９巷９號","OBJECTID":321875},"geometry":{"x":172812.83999999985,"y":2545915.2500000019}},{"attributes":{"ID":321885,"DIS_CODE":0,"TOWNNAME":"永康區","LI":"復華里","LIN":"15鄰","STREET":"國華街","SECT":" ","MAREA":" ","LANE":"９１巷","ALLEY":" ","HOUSE_NO":"８號","E_COORD97":172814.28,"N_COORD97":2545978.4199999999,"ADDRESS":"國華街９１巷８號","OBJECTID":321876},"geometry":{"x":172814.28000000119,"y":2545978.4200000018}},{"attributes":{"ID":321886,"DIS_CODE":0,"TOWNNAME":"永康區","LI":"復華里","LIN":"15鄰","STREET":"國華街","SECT":" ","MAREA":" ","LANE":"８９巷","ALLEY":" ","HOUSE_NO":"１號","E_COORD97":172834.87,"N_COORD97":2545915.25,"ADDRESS":"國華街８９巷１號","OBJECTID":321877},"geometry":{"x":172834.87000000011,"y":2545915.2500000019}},{"attributes":{"ID":321887,"DIS_CODE":0,"TOWNNAME":"永康區","LI":"復華里","LIN":"15鄰","STREET":"國華街","SECT":" ","MAREA":" ","LANE":"８７巷","ALLEY":" ","HOUSE_NO":"１２號","E_COORD97":172817.20000000001,"N_COORD97":2545894.98,"ADDRESS":"國華街８７巷１２號","OBJECTID":321878},"geometry":{"x":172817.20000000019,"y":2545894.9800000004}},{"attributes":{"ID":321888,"DIS_CODE":0,"TOWNNAME":"永康區","LI":"勝利里","LIN":"15鄰","STREET":"勝利街","SECT":" ","MAREA":" ","LANE":"９５巷","ALLEY":" ","HOUSE_NO":"４８號","E_COORD97":171234.26000000001,"N_COORD97":2544890.2599999998,"ADDRESS":"勝利街９５巷４８號","OBJECTID":321879},"geometry":{"x":171234.26000000071,"y":2544890.2600000035}},{"attributes":{"ID":321889,"DIS_CODE":0,"TOWNNAME":"永康區","LI":"復華里","LIN":"15鄰","STREET":"國華街","SECT":" ","MAREA":" ","LANE":"８７巷","ALLEY":" ","HOUSE_NO":"５號","E_COORD97":172831.95000000001,"N_COORD97":2545876.9900000002,"ADDRESS":"國華街８７巷５號","OBJECTID":321880},"geometry":{"x":172831.95000000112,"y":2545876.9900000021}},{"attributes":{"ID":321890,"DIS_CODE":0,"TOWNNAME":"永康區","LI":"復華里","LIN":"15鄰","STREET":"國華街","SECT":" ","MAREA":" ","LANE":"８７巷","ALLEY":" ","HOUSE_NO":"１１號","E_COORD97":172815.20999999999,"N_COORD97":2545877.2400000002,"ADDRESS":"國華街８７巷１１號","OBJECTID":321881},"geometry":{"x":172815.20999999996,"y":2545877.2399999984}},{"attributes":{"ID":321891,"DIS_CODE":0,"TOWNNAME":"永康區","LI":"復華里","LIN":"15鄰","STREET":"國華街","SECT":" ","MAREA":" ","LANE":"９１巷","ALLEY":" ","HOUSE_NO":"２號","E_COORD97":172821.37,"N_COORD97":2545985.6699999999,"ADDRESS":"國華街９１巷２號","OBJECTID":321882},"geometry":{"x":172821.37000000011,"y":2545985.6699999999}},{"attributes":{"ID":321892,"DIS_CODE":0,"TOWNNAME":"歸仁區","LI":"七甲里","LIN":"7鄰","STREET":"七甲一街","SECT":" ","MAREA":" ","LANE":" ","ALLEY":" ","HOUSE_NO":"７９號","E_COORD97":177618.678396,"N_COORD97":2542611.1474199998,"ADDRESS":"七甲一街７９號","OBJECTID":321883},"geometry":{"x":177618.67839600053,"y":2542611.1474210024}},{"attributes":{"ID":321893,"DIS_CODE":0,"TOWNNAME":"安南區","LI":"長安里","LIN":"17鄰","STREET":"長溪路","SECT":"三段","MAREA":" ","LANE":" ","ALLEY":" ","HOUSE_NO":"３４１號","E_COORD97":167713.73000000001,"N_COORD97":2551925.8399999999,"ADDRESS":"長溪路三段３４１號","OBJECTID":321884},"geometry":{"x":167713.72999999952,"y":2551925.8400000017}},{"attributes":{"ID":321894,"DIS_CODE":0,"TOWNNAME":"安南區","LI":"長安里","LIN":"17鄰","STREET":"長溪路","SECT":"三段","MAREA":" ","LANE":" ","ALLEY":" ","HOUSE_NO":"３４７號","E_COORD97":167706.67999999999,"N_COORD97":2551936.6000000001,"ADDRESS":"長溪路三段３４７號","OBJECTID":321885},"geometry":{"x":167706.68000000156,"y":2551936.6000000015}},{"attributes":{"ID":321895,"DIS_CODE":0,"TOWNNAME":"安南區","LI":"長安里","LIN":"17鄰","STREET":"長溪路","SECT":"三段","MAREA":" ","LANE":" ","ALLEY":" ","HOUSE_NO":"３４９號","E_COORD97":167705.26999999999,"N_COORD97":2551940.71,"ADDRESS":"長溪路三段３４９號","OBJECTID":321886},"geometry":{"x":167705.26999999955,"y":2551940.7100000028}},{"attributes":{"ID":321896,"DIS_CODE":0,"TOWNNAME":"安南區","LI":"長安里","LIN":"17鄰","STREET":"長溪路","SECT":"三段","MAREA":" ","LANE":" ","ALLEY":" ","HOUSE_NO":"３５１號","E_COORD97":167704.48000000001,"N_COORD97":2551944.73,"ADDRESS":"長溪路三段３５１號","OBJECTID":321887},"geometry":{"x":167704.48000000138,"y":2551944.7300000023}},{"attributes":{"ID":321897,"DIS_CODE":0,"TOWNNAME":"安南區","LI":"長安里","LIN":"17鄰","STREET":"長溪路","SECT":"三段","MAREA":" ","LANE":" ","ALLEY":" ","HOUSE_NO":"３５３號","E_COORD97":167703.63,"N_COORD97":2551949.1200000001,"ADDRESS":"長溪路三段３５３號","OBJECTID":321888},"geometry":{"x":167703.62999999896,"y":2551949.1200000029}},{"attributes":{"ID":321898,"DIS_CODE":0,"TOWNNAME":"安南區","LI":"長安里","LIN":"17鄰","STREET":"長溪路","SECT":"三段","MAREA":" ","LANE":" ","ALLEY":" ","HOUSE_NO":"３５５號","E_COORD97":167701.29999999999,"N_COORD97":2551953.02,"ADDRESS":"長溪路三段３５５號","OBJECTID":321889},"geometry":{"x":167701.30000000075,"y":2551953.0199999996}},{"attributes":{"ID":321899,"DIS_CODE":0,"TOWNNAME":"安南區","LI":"長安里","LIN":"17鄰","STREET":"長溪路","SECT":"三段","MAREA":" ","LANE":" ","ALLEY":" ","HOUSE_NO":"３５７號","E_COORD97":167698.91,"N_COORD97":2551956.6499999999,"ADDRESS":"長溪路三段３５７號","OBJECTID":321890},"geometry":{"x":167698.91000000108,"y":2551956.6500000004}},{"attributes":{"ID":321900,"DIS_CODE":0,"TOWNNAME":"南區","LI":"白雪里","LIN":" ","STREET":"鹽埕路","SECT":" ","MAREA":" ","LANE":"１８７巷","ALLEY":" ","HOUSE_NO":"１號","E_COORD97":166828.95000000001,"N_COORD97":2541106.7000000002,"ADDRESS":"鹽埕路１８７巷１號","OBJECTID":321891},"geometry":{"x":166828.95000000205,"y":2541106.7000000011}},{"attributes":{"ID":321901,"DIS_CODE":0,"TOWNNAME":"永康區","LI":"復華里","LIN":"15鄰","STREET":"國華街","SECT":" ","MAREA":" ","LANE":"８７巷","ALLEY":" ","HOUSE_NO":"１６號","E_COORD97":172805.95000000001,"N_COORD97":2545894.98,"ADDRESS":"國華街８７巷１６號","OBJECTID":321892},"geometry":{"x":172805.95000000019,"y":2545894.9800000004}},{"attributes":{"ID":321902,"DIS_CODE":0,"TOWNNAME":"永康區","LI":"復華里","LIN":"15鄰","STREET":"國華街","SECT":" ","MAREA":" ","LANE":"８７巷","ALLEY":" ","HOUSE_NO":"１０號","E_COORD97":172821.64999999999,"N_COORD97":2545894.98,"ADDRESS":"國華街８７巷１０號","OBJECTID":321893},"geometry":{"x":172821.65000000037,"y":2545894.9800000004}},{"attributes":{"ID":321903,"DIS_CODE":0,"TOWNNAME":"永康區","LI":"崑山里","LIN":"15鄰","STREET":"大灣路","SECT":" ","MAREA":" ","LANE":"９４２巷","ALLEY":" ","HOUSE_NO":"１１號","E_COORD97":173610.41,"N_COORD97":2544458.6600000001,"ADDRESS":"大灣路９４２巷１１號","OBJECTID":321894},"geometry":{"x":173610.41000000108,"y":2544458.660000002}},{"attributes":{"ID":321904,"DIS_CODE":0,"TOWNNAME":"永康區","LI":"復華里","LIN":"15鄰","STREET":"國華街","SECT":" ","MAREA":" ","LANE":"９１巷","ALLEY":" ","HOUSE_NO":"７號","E_COORD97":172813.04999999999,"N_COORD97":2545956.7400000002,"ADDRESS":"國華街９１巷７號","OBJECTID":321895},"geometry":{"x":172813.04999999981,"y":2545956.7400000021}},{"attributes":{"ID":321905,"DIS_CODE":0,"TOWNNAME":"東區","LI":"小東里","LIN":"15鄰","STREET":"光明街","SECT":" ","MAREA":" ","LANE":"６６巷","ALLEY":" ","HOUSE_NO":"９號","E_COORD97":170867.07999999999,"N_COORD97":2544210.29,"ADDRESS":"光明街６６巷９號","OBJECTID":321896},"geometry":{"x":170867.08000000007,"y":2544210.2899999991}},{"attributes":{"ID":321906,"DIS_CODE":0,"TOWNNAME":"永康區","LI":"大橋里","LIN":"15鄰","STREET":"大橋一街","SECT":" ","MAREA":" ","LANE":"７３巷","ALLEY":" ","HOUSE_NO":"３２號","E_COORD97":170883.67999999999,"N_COORD97":2546501.7400000002,"ADDRESS":"大橋一街７３巷３２號","OBJECTID":321897},"geometry":{"x":170883.68000000063,"y":2546501.7400000021}},{"attributes":{"ID":321907,"DIS_CODE":0,"TOWNNAME":"永康區","LI":"大灣里","LIN":"15鄰","STREET":"民族路","SECT":" ","MAREA":" ","LANE":"４１５巷","ALLEY":" ","HOUSE_NO":"３７號","E_COORD97":174769.89000000001,"N_COORD97":2545234.8500000001,"ADDRESS":"民族路４１５巷３７號","OBJECTID":321898},"geometry":{"x":174769.88999999966,"y":2545234.8499999996}},{"attributes":{"ID":321908,"DIS_CODE":0,"TOWNNAME":"永康區","LI":"大橋里","LIN":"15鄰","STREET":"大橋一街","SECT":" ","MAREA":" ","LANE":"１０３巷","ALLEY":" ","HOUSE_NO":"６１號","E_COORD97":170922.10000000001,"N_COORD97":2546555.27,"ADDRESS":"大橋一街１０３巷６１號","OBJECTID":321899},"geometry":{"x":170922.09999999963,"y":2546555.2700000014}},{"attributes":{"ID":321909,"DIS_CODE":0,"TOWNNAME":"仁德區","LI":"保安里","LIN":"15鄰","STREET":"文賢路","SECT":"二段","MAREA":" ","LANE":"１８巷","ALLEY":" ","HOUSE_NO":"１９號","E_COORD97":171675.91,"N_COORD97":2535777.5800000001,"ADDRESS":"文賢路二段１８巷１９號","OBJECTID":321900},"geometry":{"x":171675.91000000108,"y":2535777.5800000001}},{"attributes":{"ID":321910,"DIS_CODE":0,"TOWNNAME":"仁德區","LI":"太子里","LIN":"15鄰","STREET":"太子北路","SECT":" ","MAREA":" ","LANE":"１３２巷","ALLEY":" ","HOUSE_NO":"６號","E_COORD97":174058.84,"N_COORD97":2543705,"ADDRESS":"太子北路１３２巷６號","OBJECTID":321901},"geometry":{"x":174058.83999999985,"y":2543705}},{"attributes":{"ID":321911,"DIS_CODE":0,"TOWNNAME":"永康區","LI":"勝利里","LIN":"15鄰","STREET":"勝利街","SECT":" ","MAREA":" ","LANE":"９５巷","ALLEY":" ","HOUSE_NO":"７號","E_COORD97":171295.89000000001,"N_COORD97":2544836.5,"ADDRESS":"勝利街９５巷７號","OBJECTID":321902},"geometry":{"x":171295.8900000006,"y":2544836.5}},{"attributes":{"ID":321912,"DIS_CODE":0,"TOWNNAME":"仁德區","LI":"保安里","LIN":"15鄰","STREET":"文賢路","SECT":"二段","MAREA":" ","LANE":"１８巷","ALLEY":" ","HOUSE_NO":"２１號","E_COORD97":171672.81,"N_COORD97":2535774.8300000001,"ADDRESS":"文賢路二段１８巷２１號","OBJECTID":321903},"geometry":{"x":171672.81000000052,"y":2535774.8300000019}},{"attributes":{"ID":321913,"DIS_CODE":0,"TOWNNAME":"仁德區","LI":"保安里","LIN":"15鄰","STREET":"文賢路","SECT":"二段","MAREA":" ","LANE":"３６巷","ALLEY":" ","HOUSE_NO":"１０號","E_COORD97":171716.07999999999,"N_COORD97":2535773.0800000001,"ADDRESS":"文賢路二段３６巷１０號","OBJECTID":321904},"geometry":{"x":171716.08000000007,"y":2535773.0800000019}},{"attributes":{"ID":321914,"DIS_CODE":0,"TOWNNAME":"中西區","LI":"光賢里","LIN":"15鄰","STREET":"武聖路","SECT":" ","MAREA":" ","LANE":"１５１巷","ALLEY":" ","HOUSE_NO":"１１號","E_COORD97":167026,"N_COORD97":2545131.8999999999,"ADDRESS":"武聖路１５１巷１１號","OBJECTID":321905},"geometry":{"x":167026,"y":2545131.9000000022}},{"attributes":{"ID":321915,"DIS_CODE":0,"TOWNNAME":"中西區","LI":"光賢里","LIN":"15鄰","STREET":"武聖路","SECT":" ","MAREA":" ","LANE":"１５１巷","ALLEY":" ","HOUSE_NO":"１２號","E_COORD97":167000.29999999999,"N_COORD97":2545145.7000000002,"ADDRESS":"武聖路１５１巷１２號","OBJECTID":321906},"geometry":{"x":167000.29999999981,"y":2545145.7000000011}},{"attributes":{"ID":321916,"DIS_CODE":0,"TOWNNAME":"中西區","LI":"光賢里","LIN":"15鄰","STREET":"武聖路","SECT":" ","MAREA":" ","LANE":"１５１巷","ALLEY":" ","HOUSE_NO":"１４號","E_COORD97":166999.14999999999,"N_COORD97":2545139.9500000002,"ADDRESS":"武聖路１５１巷１４號","OBJECTID":321907},"geometry":{"x":166999.1500000013,"y":2545139.9500000011}},{"attributes":{"ID":321917,"DIS_CODE":0,"TOWNNAME":"中西區","LI":"光賢里","LIN":"15鄰","STREET":"武聖路","SECT":" ","MAREA":" ","LANE":"１５１巷","ALLEY":" ","HOUSE_NO":"１５號","E_COORD97":167020.63,"N_COORD97":2545122.3199999998,"ADDRESS":"武聖路１５１巷１５號","OBJECTID":321908},"geometry":{"x":167020.63000000175,"y":2545122.3200000022}},{"attributes":{"ID":321918,"DIS_CODE":0,"TOWNNAME":"中西區","LI":"光賢里","LIN":"15鄰","STREET":"武聖路","SECT":" ","MAREA":" ","LANE":"１５１巷","ALLEY":" ","HOUSE_NO":"１６號","E_COORD97":166996.85000000001,"N_COORD97":2545135.3500000001,"ADDRESS":"武聖路１５１巷１６號","OBJECTID":321909},"geometry":{"x":166996.85000000149,"y":2545135.3499999996}},{"attributes":{"ID":321919,"DIS_CODE":0,"TOWNNAME":"中西區","LI":"光賢里","LIN":"15鄰","STREET":"武聖路","SECT":" ","MAREA":" ","LANE":"１５１巷","ALLEY":" ","HOUSE_NO":"２５號","E_COORD97":167012.95999999999,"N_COORD97":2545100.1000000001,"ADDRESS":"武聖路１５１巷２５號","OBJECTID":321910},"geometry":{"x":167012.95999999996,"y":2545100.0999999996}},{"attributes":{"ID":321920,"DIS_CODE":0,"TOWNNAME":"安南區","LI":"長安里","LIN":"17鄰","STREET":"長溪路","SECT":"三段","MAREA":" ","LANE":" ","ALLEY":" ","HOUSE_NO":"３５９號","E_COORD97":167696.51999999999,"N_COORD97":2551961.0299999998,"ADDRESS":"長溪路三段３５９號","OBJECTID":321911},"geometry":{"x":167696.51999999955,"y":2551961.0300000012}},{"attributes":{"ID":321921,"DIS_CODE":0,"TOWNNAME":"中西區","LI":"光賢里","LIN":"15鄰","STREET":"武聖路","SECT":" ","MAREA":" ","LANE":"１５１巷","ALLEY":" ","HOUSE_NO":"２６號","E_COORD97":166983.79999999999,"N_COORD97":2545115.04,"ADDRESS":"武聖路１５１巷２６號","OBJECTID":321912},"geometry":{"x":166983.80000000168,"y":2545115.040000001}},{"attributes":{"ID":321922,"DIS_CODE":0,"TOWNNAME":"中西區","LI":"光賢里","LIN":"15鄰","STREET":"武聖路","SECT":" ","MAREA":" ","LANE":"１５１巷","ALLEY":" ","HOUSE_NO":"２８號","E_COORD97":166981.88,"N_COORD97":2545110.8300000001,"ADDRESS":"武聖路１５１巷２８號","OBJECTID":321913},"geometry":{"x":166981.88000000082,"y":2545110.8300000019}},{"attributes":{"ID":321923,"DIS_CODE":0,"TOWNNAME":"中西區","LI":"光賢里","LIN":"15鄰","STREET":"武聖路","SECT":" ","MAREA":" ","LANE":"１５１巷","ALLEY":" ","HOUSE_NO":"２號","E_COORD97":167014.88,"N_COORD97":2545171.3700000001,"ADDRESS":"武聖路１５１巷２號","OBJECTID":321914},"geometry":{"x":167014.87999999989,"y":2545171.370000001}},{"attributes":{"ID":321924,"DIS_CODE":0,"TOWNNAME":"中西區","LI":"光賢里","LIN":"15鄰","STREET":"武聖路","SECT":" ","MAREA":" ","LANE":"１５１巷","ALLEY":" ","HOUSE_NO":"３２號","E_COORD97":166978.42999999999,"N_COORD97":2545099.3300000001,"ADDRESS":"武聖路１５１巷３２號","OBJECTID":321915},"geometry":{"x":166978.43000000063,"y":2545099.3300000001}},{"attributes":{"ID":321925,"DIS_CODE":0,"TOWNNAME":"中西區","LI":"光賢里","LIN":"15鄰","STREET":"武聖路","SECT":" ","MAREA":" ","LANE":"１５１巷","ALLEY":" ","HOUSE_NO":"３３號","E_COORD97":166999.53,"N_COORD97":2545080.1800000002,"ADDRESS":"武聖路１５１巷３３號","OBJECTID":321916},"geometry":{"x":166999.52999999933,"y":2545080.1799999997}},{"attributes":{"ID":321926,"DIS_CODE":0,"TOWNNAME":"新市區","LI":"永就里","LIN":"10鄰","STREET":" ","SECT":" ","MAREA":"永就","LANE":" ","ALLEY":" ","HOUSE_NO":"２５０號","E_COORD97":177138.42316400001,"N_COORD97":2550687.2832399998,"ADDRESS":"永就２５０號","OBJECTID":321917},"geometry":{"x":177138.4231639998,"y":2550687.2832360007}},{"attributes":{"ID":321927,"DIS_CODE":0,"TOWNNAME":"中西區","LI":"光賢里","LIN":"15鄰","STREET":"武聖路","SECT":" ","MAREA":" ","LANE":"１５１巷","ALLEY":" ","HOUSE_NO":"３４號","E_COORD97":166971.91,"N_COORD97":2545090.52,"ADDRESS":"武聖路１５１巷３４號","OBJECTID":321918},"geometry":{"x":166971.91000000108,"y":2545090.5199999996}},{"attributes":{"ID":321928,"DIS_CODE":0,"TOWNNAME":"中西區","LI":"光賢里","LIN":"15鄰","STREET":"武聖路","SECT":" ","MAREA":" ","LANE":"１５１巷","ALLEY":" ","HOUSE_NO":"３５號","E_COORD97":166996.07999999999,"N_COORD97":2545072.5099999998,"ADDRESS":"武聖路１５１巷３５號","OBJECTID":321919},"geometry":{"x":166996.08000000101,"y":2545072.5100000016}},{"attributes":{"ID":321929,"DIS_CODE":0,"TOWNNAME":"中西區","LI":"光賢里","LIN":"15鄰","STREET":"武聖路","SECT":" ","MAREA":" ","LANE":"１５１巷","ALLEY":" ","HOUSE_NO":"３６號","E_COORD97":166970.76000000001,"N_COORD97":2545085.9199999999,"ADDRESS":"武聖路１５１巷３６號","OBJECTID":321920},"geometry":{"x":166970.76000000071,"y":2545085.9200000037}},{"attributes":{"ID":321930,"DIS_CODE":0,"TOWNNAME":"中西區","LI":"光賢里","LIN":"15鄰","STREET":"武聖路","SECT":" ","MAREA":" ","LANE":"１５１巷","ALLEY":" ","HOUSE_NO":"３７號","E_COORD97":166993.78,"N_COORD97":2545067.9100000001,"ADDRESS":"武聖路１５１巷３７號","OBJECTID":321921},"geometry":{"x":166993.78000000026,"y":2545067.9100000001}},{"attributes":{"ID":321931,"DIS_CODE":0,"TOWNNAME":"中西區","LI":"光賢里","LIN":"15鄰","STREET":"武聖路","SECT":" ","MAREA":" ","LANE":"１５１巷","ALLEY":" ","HOUSE_NO":"３８號","E_COORD97":166968.07000000001,"N_COORD97":2545082.4700000002,"ADDRESS":"武聖路１５１巷３８號","OBJECTID":321922},"geometry":{"x":166968.0700000003,"y":2545082.4700000007}},{"attributes":{"ID":321932,"DIS_CODE":0,"TOWNNAME":"中西區","LI":"光賢里","LIN":"15鄰","STREET":"武聖路","SECT":" ","MAREA":" ","LANE":"１５１巷","ALLEY":" ","HOUSE_NO":"３９號","E_COORD97":166991.09,"N_COORD97":2545064.0800000001,"ADDRESS":"武聖路１５１巷３９號","OBJECTID":321923},"geometry":{"x":166991.09000000078,"y":2545064.0800000001}},{"attributes":{"ID":321933,"DIS_CODE":0,"TOWNNAME":"中西區","LI":"光賢里","LIN":"15鄰","STREET":"武聖路","SECT":" ","MAREA":" ","LANE":"１５１巷","ALLEY":" ","HOUSE_NO":"３號","E_COORD97":167037.13,"N_COORD97":2545152.21,"ADDRESS":"武聖路１５１巷３號","OBJECTID":321924},"geometry":{"x":167037.12999999989,"y":2545152.2100000009}},{"attributes":{"ID":321934,"DIS_CODE":0,"TOWNNAME":"中西區","LI":"光賢里","LIN":"15鄰","STREET":"武聖路","SECT":" ","MAREA":" ","LANE":"１５１巷","ALLEY":" ","HOUSE_NO":"４０號","E_COORD97":166966.92000000001,"N_COORD97":2545076.73,"ADDRESS":"武聖路１５１巷４０號","OBJECTID":321925},"geometry":{"x":166966.92000000086,"y":2545076.7300000004}},{"attributes":{"ID":321935,"DIS_CODE":0,"TOWNNAME":"中西區","LI":"光賢里","LIN":"15鄰","STREET":"武聖路","SECT":" ","MAREA":" ","LANE":"１５１巷","ALLEY":" ","HOUSE_NO":"４２號","E_COORD97":166961.92999999999,"N_COORD97":2545074.4300000002,"ADDRESS":"武聖路１５１巷４２號","OBJECTID":321926},"geometry":{"x":166961.9299999997,"y":2545074.4299999997}},{"attributes":{"ID":321936,"DIS_CODE":0,"TOWNNAME":"中西區","LI":"光賢里","LIN":"15鄰","STREET":"武聖路","SECT":" ","MAREA":" ","LANE":"１５１巷","ALLEY":" ","HOUSE_NO":"４２號之１","E_COORD97":166626.70000000001,"N_COORD97":2545211.0899999999,"ADDRESS":"武聖路１５１巷４２號之１","OBJECTID":321927},"geometry":{"x":166626.70000000019,"y":2545211.0900000017}},{"attributes":{"ID":321937,"DIS_CODE":0,"TOWNNAME":"中西區","LI":"光賢里","LIN":"15鄰","STREET":"武聖路","SECT":" ","MAREA":" ","LANE":"１５１巷","ALLEY":" ","HOUSE_NO":"４４號","E_COORD97":166959.25,"N_COORD97":2545070.21,"ADDRESS":"武聖路１５１巷４４號","OBJECTID":321928},"geometry":{"x":166959.25000000093,"y":2545070.2100000009}},{"attributes":{"ID":321938,"DIS_CODE":0,"TOWNNAME":"中西區","LI":"光賢里","LIN":"15鄰","STREET":"武聖路","SECT":" ","MAREA":" ","LANE":"１５１巷","ALLEY":" ","HOUSE_NO":"４６號","E_COORD97":166956.17999999999,"N_COORD97":2545065.23,"ADDRESS":"武聖路１５１巷４６號","OBJECTID":321929},"geometry":{"x":166956.18000000063,"y":2545065.2300000023}},{"attributes":{"ID":321939,"DIS_CODE":0,"TOWNNAME":"中西區","LI":"光賢里","LIN":"15鄰","STREET":"武聖路","SECT":" ","MAREA":" ","LANE":"１５１巷","ALLEY":" ","HOUSE_NO":"４８號","E_COORD97":166973.06,"N_COORD97":2545095.8799999999,"ADDRESS":"武聖路１５１巷４８號","OBJECTID":321930},"geometry":{"x":166973.05999999959,"y":2545095.8800000008}},{"attributes":{"ID":321940,"DIS_CODE":0,"TOWNNAME":"中西區","LI":"開山里","LIN":"15鄰","STREET":"開山路","SECT":" ","MAREA":" ","LANE":"２３５巷","ALLEY":" ","HOUSE_NO":"２１號","E_COORD97":169033.26999999999,"N_COORD97":2543045.3799999999,"ADDRESS":"開山路２３５巷２１號","OBJECTID":321931},"geometry":{"x":169033.27000000142,"y":2543045.3800000008}},{"attributes":{"ID":321941,"DIS_CODE":0,"TOWNNAME":"中西區","LI":"開山里","LIN":"15鄰","STREET":"開山路","SECT":" ","MAREA":" ","LANE":"２３５巷","ALLEY":" ","HOUSE_NO":"２３號","E_COORD97":169038.97,"N_COORD97":2543052.7000000002,"ADDRESS":"開山路２３５巷２３號","OBJECTID":321932},"geometry":{"x":169038.97000000067,"y":2543052.700000003}},{"attributes":{"ID":321942,"DIS_CODE":0,"TOWNNAME":"中西區","LI":"開山里","LIN":"15鄰","STREET":"開山路","SECT":" ","MAREA":" ","LANE":"２３５巷","ALLEY":" ","HOUSE_NO":"２５號","E_COORD97":169043.32000000001,"N_COORD97":2543057.7200000002,"ADDRESS":"開山路２３５巷２５號","OBJECTID":321933},"geometry":{"x":169043.3200000003,"y":2543057.7200000025}},{"attributes":{"ID":321943,"DIS_CODE":0,"TOWNNAME":"新市區","LI":"新和里","LIN":"15鄰","STREET":"忠孝街","SECT":" ","MAREA":" ","LANE":"１０１巷","ALLEY":" ","HOUSE_NO":"４號","E_COORD97":177660.92999999999,"N_COORD97":2552595.75,"ADDRESS":"忠孝街１０１巷４號","OBJECTID":321934},"geometry":{"x":177660.93000000063,"y":2552595.75}},{"attributes":{"ID":321944,"DIS_CODE":0,"TOWNNAME":"安平區","LI":"億載里","LIN":"17鄰","STREET":"平豐路","SECT":" ","MAREA":" ","LANE":"４３巷","ALLEY":" ","HOUSE_NO":"２號之２","E_COORD97":164301.01999999999,"N_COORD97":2543015.2799999998,"ADDRESS":"平豐路４３巷２號之２","OBJECTID":321935},"geometry":{"x":164301.02000000048,"y":2543015.2800000012}},{"attributes":{"ID":321945,"DIS_CODE":0,"TOWNNAME":"安平區","LI":"億載里","LIN":"17鄰","STREET":"平豐路","SECT":" ","MAREA":" ","LANE":"４３巷","ALLEY":" ","HOUSE_NO":"２號之３","E_COORD97":164301.63,"N_COORD97":2543020.1000000001,"ADDRESS":"平豐路４３巷２號之３","OBJECTID":321936},"geometry":{"x":164301.63000000175,"y":2543020.1000000015}},{"attributes":{"ID":321946,"DIS_CODE":0,"TOWNNAME":"安平區","LI":"億載里","LIN":"17鄰","STREET":"平豐路","SECT":" ","MAREA":" ","LANE":"４３巷","ALLEY":" ","HOUSE_NO":"２號之５","E_COORD97":164301.01999999999,"N_COORD97":2543025.23,"ADDRESS":"平豐路４３巷２號之５","OBJECTID":321937},"geometry":{"x":164301.02000000048,"y":2543025.2300000004}},{"attributes":{"ID":321947,"DIS_CODE":0,"TOWNNAME":"新市區","LI":"新市里","LIN":"15鄰","STREET":"和平街","SECT":" ","MAREA":" ","LANE":"８７巷","ALLEY":" ","HOUSE_NO":"８號","E_COORD97":177610.37,"N_COORD97":2553356.25,"ADDRESS":"和平街８７巷８號","OBJECTID":321938},"geometry":{"x":177610.37000000011,"y":2553356.2500000037}},{"attributes":{"ID":321948,"DIS_CODE":0,"TOWNNAME":"新市區","LI":"新市里","LIN":"15鄰","STREET":"和平街","SECT":" ","MAREA":" ","LANE":"８７巷","ALLEY":" ","HOUSE_NO":"２號","E_COORD97":177602.39000000001,"N_COORD97":2553367.75,"ADDRESS":"和平街８７巷２號","OBJECTID":321939},"geometry":{"x":177602.3900000006,"y":2553367.7500000019}},{"attributes":{"ID":321949,"DIS_CODE":0,"TOWNNAME":"新市區","LI":"新市里","LIN":"15鄰","STREET":"和平街","SECT":" ","MAREA":" ","LANE":"８７巷","ALLEY":" ","HOUSE_NO":"１號","E_COORD97":177609.81,"N_COORD97":2553374,"ADDRESS":"和平街８７巷１號","OBJECTID":321940},"geometry":{"x":177609.80999999959,"y":2553374}},{"attributes":{"ID":321950,"DIS_CODE":0,"TOWNNAME":"東區","LI":"大智里","LIN":"15鄰","STREET":"長東街","SECT":" ","MAREA":" ","LANE":"１４５巷","ALLEY":" ","HOUSE_NO":"３９號","E_COORD97":171124.98999999999,"N_COORD97":2540074.8199999998,"ADDRESS":"長東街１４５巷３９號","OBJECTID":321941},"geometry":{"x":171124.99000000115,"y":2540074.8200000003}},{"attributes":{"ID":321951,"DIS_CODE":0,"TOWNNAME":"東區","LI":"大智里","LIN":"15鄰","STREET":"長東街","SECT":" ","MAREA":" ","LANE":"１４５巷","ALLEY":" ","HOUSE_NO":"４１號","E_COORD97":171130.51999999999,"N_COORD97":2540075.46,"ADDRESS":"長東街１４５巷４１號","OBJECTID":321942},"geometry":{"x":171130.52000000048,"y":2540075.459999999}},{"attributes":{"ID":321952,"DIS_CODE":0,"TOWNNAME":"東區","LI":"大智里","LIN":"15鄰","STREET":"長東街","SECT":" ","MAREA":" ","LANE":"１４５巷","ALLEY":" ","HOUSE_NO":"４３號","E_COORD97":171136.79000000001,"N_COORD97":2540075.8300000001,"ADDRESS":"長東街１４５巷４３號","OBJECTID":321943},"geometry":{"x":171136.79000000004,"y":2540075.8300000038}},{"attributes":{"ID":321953,"DIS_CODE":0,"TOWNNAME":"東區","LI":"大智里","LIN":"15鄰","STREET":"長東街","SECT":" ","MAREA":" ","LANE":"１４５巷","ALLEY":" ","HOUSE_NO":"４５號","E_COORD97":171143.16,"N_COORD97":2540076.1099999999,"ADDRESS":"長東街１４５巷４５號","OBJECTID":321944},"geometry":{"x":171143.16000000015,"y":2540076.1099999994}},{"attributes":{"ID":321954,"DIS_CODE":0,"TOWNNAME":"東區","LI":"大智里","LIN":"15鄰","STREET":"長東街","SECT":" ","MAREA":" ","LANE":"１４５巷","ALLEY":" ","HOUSE_NO":"４７號","E_COORD97":171149.70000000001,"N_COORD97":2540075.6499999999,"ADDRESS":"長東街１４５巷４７號","OBJECTID":321945},"geometry":{"x":171149.70000000019,"y":2540075.6500000004}},{"attributes":{"ID":321955,"DIS_CODE":0,"TOWNNAME":"東區","LI":"大智里","LIN":"15鄰","STREET":"長東街","SECT":" ","MAREA":" ","LANE":"１４５巷","ALLEY":" ","HOUSE_NO":"４９號","E_COORD97":171155.60999999999,"N_COORD97":2540075.6499999999,"ADDRESS":"長東街１４５巷４９號","OBJECTID":321946},"geometry":{"x":171155.61000000034,"y":2540075.6500000004}},{"attributes":{"ID":321956,"DIS_CODE":0,"TOWNNAME":"東區","LI":"大智里","LIN":"15鄰","STREET":"長東街","SECT":" ","MAREA":" ","LANE":"１４５巷","ALLEY":" ","HOUSE_NO":"５１號","E_COORD97":171161.69,"N_COORD97":2540075.7400000002,"ADDRESS":"長東街１４５巷５１號","OBJECTID":321947},"geometry":{"x":171161.69000000041,"y":2540075.7400000002}},{"attributes":{"ID":321957,"DIS_CODE":0,"TOWNNAME":"東區","LI":"大智里","LIN":"15鄰","STREET":"長東街","SECT":" ","MAREA":" ","LANE":"１４５巷","ALLEY":" ","HOUSE_NO":"５３號","E_COORD97":171167.04000000001,"N_COORD97":2540076.48,"ADDRESS":"長東街１４５巷５３號","OBJECTID":321948},"geometry":{"x":171167.04000000004,"y":2540076.4800000023}},{"attributes":{"ID":321958,"DIS_CODE":0,"TOWNNAME":"東區","LI":"大智里","LIN":"15鄰","STREET":"長東街","SECT":" ","MAREA":" ","LANE":"１４５巷","ALLEY":" ","HOUSE_NO":"５５號","E_COORD97":171174.14000000001,"N_COORD97":2540076.6600000001,"ADDRESS":"長東街１４５巷５５號","OBJECTID":321949},"geometry":{"x":171174.1400000006,"y":2540076.6599999983}},{"attributes":{"ID":321959,"DIS_CODE":0,"TOWNNAME":"東區","LI":"大智里","LIN":"15鄰","STREET":"長東街","SECT":" ","MAREA":" ","LANE":"１４５巷","ALLEY":" ","HOUSE_NO":"５７號","E_COORD97":171179.95000000001,"N_COORD97":2540077.1200000001,"ADDRESS":"長東街１４５巷５７號","OBJECTID":321950},"geometry":{"x":171179.95000000019,"y":2540077.120000001}},{"attributes":{"ID":321960,"DIS_CODE":0,"TOWNNAME":"新市區","LI":"新和里","LIN":"15鄰","STREET":"忠孝街","SECT":" ","MAREA":" ","LANE":"１０１巷","ALLEY":" ","HOUSE_NO":"５號","E_COORD97":177654.82000000001,"N_COORD97":2552584.25,"ADDRESS":"忠孝街１０１巷５號","OBJECTID":321951},"geometry":{"x":177654.8200000003,"y":2552584.2500000019}},{"attributes":{"ID":321961,"DIS_CODE":0,"TOWNNAME":"新市區","LI":"新和里","LIN":"15鄰","STREET":"忠孝街","SECT":" ","MAREA":" ","LANE":"１０１巷","ALLEY":" ","HOUSE_NO":"７號","E_COORD97":177651.03,"N_COORD97":2552585.25,"ADDRESS":"忠孝街１０１巷７號","OBJECTID":321952},"geometry":{"x":177651.03000000119,"y":2552585.25}},{"attributes":{"ID":321962,"DIS_CODE":0,"TOWNNAME":"新市區","LI":"新和里","LIN":"15鄰","STREET":"忠孝街","SECT":" ","MAREA":" ","LANE":"１０１巷","ALLEY":" ","HOUSE_NO":"３號","E_COORD97":177658.70999999999,"N_COORD97":2552583.5,"ADDRESS":"忠孝街１０１巷３號","OBJECTID":321953},"geometry":{"x":177658.70999999996,"y":2552583.5}},{"attributes":{"ID":321963,"DIS_CODE":0,"TOWNNAME":"永康區","LI":"大灣里","LIN":"15鄰","STREET":"民族路","SECT":" ","MAREA":" ","LANE":"４１５巷","ALLEY":" ","HOUSE_NO":"１１號","E_COORD97":174774.41,"N_COORD97":2545289.1699999999,"ADDRESS":"民族路４１５巷１１號","OBJECTID":321954},"geometry":{"x":174774.41000000201,"y":2545289.1700000018}},{"attributes":{"ID":321964,"DIS_CODE":0,"TOWNNAME":"永康區","LI":"中興里","LIN":"15鄰","STREET":"中興街","SECT":" ","MAREA":" ","LANE":"９１巷","ALLEY":" ","HOUSE_NO":"４８號","E_COORD97":171937.70000000001,"N_COORD97":2545363.4900000002,"ADDRESS":"中興街９１巷４８號","OBJECTID":321955},"geometry":{"x":171937.70000000019,"y":2545363.4899999984}},{"attributes":{"ID":321965,"DIS_CODE":0,"TOWNNAME":"永康區","LI":"大橋里","LIN":"15鄰","STREET":"大橋一街","SECT":" ","MAREA":" ","LANE":"７３巷","ALLEY":" ","HOUSE_NO":"１０號","E_COORD97":170919.42999999999,"N_COORD97":2546461.2400000002,"ADDRESS":"大橋一街７３巷１０號","OBJECTID":321956},"geometry":{"x":170919.43000000063,"y":2546461.2400000021}},{"attributes":{"ID":321966,"DIS_CODE":0,"TOWNNAME":"永康區","LI":"中興里","LIN":"15鄰","STREET":"中興街","SECT":" ","MAREA":" ","LANE":"９１巷","ALLEY":" ","HOUSE_NO":"５０號","E_COORD97":171934.37,"N_COORD97":2545363.9900000002,"ADDRESS":"中興街９１巷５０號","OBJECTID":321957},"geometry":{"x":171934.37000000104,"y":2545363.9900000039}},{"attributes":{"ID":321967,"DIS_CODE":0,"TOWNNAME":"永康區","LI":"中興里","LIN":"15鄰","STREET":"中興街","SECT":" ","MAREA":" ","LANE":"９１巷","ALLEY":" ","HOUSE_NO":"２６號","E_COORD97":171989.45000000001,"N_COORD97":2545357.9900000002,"ADDRESS":"中興街９１巷２６號","OBJECTID":321958},"geometry":{"x":171989.45000000112,"y":2545357.9900000021}},{"attributes":{"ID":321968,"DIS_CODE":0,"TOWNNAME":"永康區","LI":"中興里","LIN":"15鄰","STREET":"中興街","SECT":" ","MAREA":" ","LANE":"９１巷","ALLEY":" ","HOUSE_NO":"４６號","E_COORD97":171945.62,"N_COORD97":2545364.4900000002,"ADDRESS":"中興街９１巷４６號","OBJECTID":321959},"geometry":{"x":171945.62000000104,"y":2545364.4900000021}},{"attributes":{"ID":321969,"DIS_CODE":0,"TOWNNAME":"永康區","LI":"王行里","LIN":"15鄰","STREET":"龍昌街","SECT":" ","MAREA":" ","LANE":"１０７巷","ALLEY":" ","HOUSE_NO":"７號","E_COORD97":174923.81,"N_COORD97":2548112.9300000002,"ADDRESS":"龍昌街１０７巷７號","OBJECTID":321960},"geometry":{"x":174923.81000000145,"y":2548112.9299999997}},{"attributes":{"ID":321970,"DIS_CODE":0,"TOWNNAME":"永康區","LI":"崑山里","LIN":"15鄰","STREET":"大灣路","SECT":" ","MAREA":" ","LANE":"９４２巷","ALLEY":" ","HOUSE_NO":"５號","E_COORD97":173608.07999999999,"N_COORD97":2544444.25,"ADDRESS":"大灣路９４２巷５號","OBJECTID":321961},"geometry":{"x":173608.08000000007,"y":2544444.2500000019}},{"attributes":{"ID":321971,"DIS_CODE":0,"TOWNNAME":"永康區","LI":"崑山里","LIN":"15鄰","STREET":"大灣路","SECT":" ","MAREA":" ","LANE":"９４２巷","ALLEY":" ","HOUSE_NO":"９號","E_COORD97":173608.64999999999,"N_COORD97":2544450.5,"ADDRESS":"大灣路９４２巷９號","OBJECTID":321962},"geometry":{"x":173608.6500000013,"y":2544450.5}},{"attributes":{"ID":321972,"DIS_CODE":0,"TOWNNAME":"南區","LI":"白雪里","LIN":" ","STREET":"鹽埕路","SECT":" ","MAREA":" ","LANE":"１０３巷","ALLEY":" ","HOUSE_NO":"１號","E_COORD97":166804.51999999999,"N_COORD97":2540838.1699999999,"ADDRESS":"鹽埕路１０３巷１號","OBJECTID":321963},"geometry":{"x":166804.52000000048,"y":2540838.1699999999}},{"attributes":{"ID":321973,"DIS_CODE":0,"TOWNNAME":"南區","LI":"白雪里","LIN":" ","STREET":"鹽埕路","SECT":" ","MAREA":" ","LANE":"１０３巷","ALLEY":" ","HOUSE_NO":"３號","E_COORD97":166801.54999999999,"N_COORD97":2540834.2799999998,"ADDRESS":"鹽埕路１０３巷３號","OBJECTID":321964},"geometry":{"x":166801.54999999981,"y":2540834.2799999993}},{"attributes":{"ID":321974,"DIS_CODE":0,"TOWNNAME":"南區","LI":"白雪里","LIN":" ","STREET":"鹽埕路","SECT":" ","MAREA":" ","LANE":"１０３巷","ALLEY":" ","HOUSE_NO":"５號","E_COORD97":166800.34,"N_COORD97":2540824.4199999999,"ADDRESS":"鹽埕路１０３巷５號","OBJECTID":321965},"geometry":{"x":166800.33999999892,"y":2540824.4200000037}},{"attributes":{"ID":321975,"DIS_CODE":0,"TOWNNAME":"南區","LI":"白雪里","LIN":" ","STREET":"鹽埕路","SECT":" ","MAREA":" ","LANE":"１０３巷","ALLEY":" ","HOUSE_NO":"７號","E_COORD97":166800.44,"N_COORD97":2540816.5,"ADDRESS":"鹽埕路１０３巷７號","OBJECTID":321966},"geometry":{"x":166800.44000000227,"y":2540816.5}},{"attributes":{"ID":321976,"DIS_CODE":0,"TOWNNAME":"南區","LI":"白雪里","LIN":" ","STREET":"鹽埕路","SECT":" ","MAREA":" ","LANE":"１０３巷","ALLEY":" ","HOUSE_NO":"９號","E_COORD97":166795.5,"N_COORD97":2540808.8700000001,"ADDRESS":"鹽埕路１０３巷９號","OBJECTID":321967},"geometry":{"x":166795.5,"y":2540808.8700000048}},{"attributes":{"ID":321977,"DIS_CODE":0,"TOWNNAME":"南區","LI":"白雪里","LIN":" ","STREET":"鹽埕路","SECT":" ","MAREA":" ","LANE":"１０３巷","ALLEY":" ","HOUSE_NO":"１１號","E_COORD97":166807.53,"N_COORD97":2540805.6699999999,"ADDRESS":"鹽埕路１０３巷１１號","OBJECTID":321968},"geometry":{"x":166807.53000000026,"y":2540805.6700000037}},{"attributes":{"ID":321978,"DIS_CODE":0,"TOWNNAME":"永康區","LI":"復華里","LIN":"15鄰","STREET":"國華街","SECT":" ","MAREA":" ","LANE":"８７巷","ALLEY":" ","HOUSE_NO":"２號","E_COORD97":172837.85999999999,"N_COORD97":2545894.73,"ADDRESS":"國華街８７巷２號","OBJECTID":321969},"geometry":{"x":172837.86000000127,"y":2545894.7300000042}},{"attributes":{"ID":321979,"DIS_CODE":0,"TOWNNAME":"永康區","LI":"復華里","LIN":"15鄰","STREET":"國華街","SECT":" ","MAREA":" ","LANE":"９３巷","ALLEY":" ","HOUSE_NO":"１０號","E_COORD97":172798,"N_COORD97":2546011.9900000002,"ADDRESS":"國華街９３巷１０號","OBJECTID":321970},"geometry":{"x":172798,"y":2546011.9900000021}},{"attributes":{"ID":321980,"DIS_CODE":0,"TOWNNAME":"永康區","LI":"復華里","LIN":"15鄰","STREET":"國華街","SECT":" ","MAREA":" ","LANE":"９３巷","ALLEY":" ","HOUSE_NO":"６號","E_COORD97":172804.14000000001,"N_COORD97":2546018.9900000002,"ADDRESS":"國華街９３巷６號","OBJECTID":321971},"geometry":{"x":172804.13999999873,"y":2546018.9900000021}},{"attributes":{"ID":321981,"DIS_CODE":0,"TOWNNAME":"永康區","LI":"復華里","LIN":"15鄰","STREET":"國華街","SECT":" ","MAREA":" ","LANE":"９３巷","ALLEY":" ","HOUSE_NO":"１８號","E_COORD97":172783.92999999999,"N_COORD97":2545997.9900000002,"ADDRESS":"國華街９３巷１８號","OBJECTID":321972},"geometry":{"x":172783.93000000063,"y":2545997.9900000039}},{"attributes":{"ID":321982,"DIS_CODE":0,"TOWNNAME":"永康區","LI":"崑山里","LIN":"15鄰","STREET":"大灣路","SECT":" ","MAREA":" ","LANE":"９６０巷","ALLEY":" ","HOUSE_NO":"２號","E_COORD97":173586.95999999999,"N_COORD97":2544440.25,"ADDRESS":"大灣路９６０巷２號","OBJECTID":321973},"geometry":{"x":173586.95999999996,"y":2544440.2500000019}},{"attributes":{"ID":321983,"DIS_CODE":0,"TOWNNAME":"永康區","LI":"復華里","LIN":"15鄰","STREET":"國華街","SECT":" ","MAREA":" ","LANE":"９３巷","ALLEY":" ","HOUSE_NO":"１６號","E_COORD97":172787.5,"N_COORD97":2546001.2400000002,"ADDRESS":"國華街９３巷１６號","OBJECTID":321974},"geometry":{"x":172787.50000000093,"y":2546001.2400000002}},{"attributes":{"ID":321984,"DIS_CODE":0,"TOWNNAME":"安南區","LI":"安富里","LIN":"15鄰","STREET":"安富街","SECT":" ","MAREA":" ","LANE":"２５１巷","ALLEY":" ","HOUSE_NO":"６４號","E_COORD97":167551.5,"N_COORD97":2547281.3199999998,"ADDRESS":"安富街２５１巷６４號","OBJECTID":321975},"geometry":{"x":167551.5,"y":2547281.3200000022}},{"attributes":{"ID":321985,"DIS_CODE":0,"TOWNNAME":"安南區","LI":"安富里","LIN":"15鄰","STREET":"安富街","SECT":" ","MAREA":" ","LANE":"２５１巷","ALLEY":" ","HOUSE_NO":"６６號","E_COORD97":167553.01000000001,"N_COORD97":2547277.1099999999,"ADDRESS":"安富街２５１巷６６號","OBJECTID":321976},"geometry":{"x":167553.00999999978,"y":2547277.1099999994}},{"attributes":{"ID":321986,"DIS_CODE":0,"TOWNNAME":"安南區","LI":"安富里","LIN":"15鄰","STREET":"安富街","SECT":" ","MAREA":" ","LANE":"２５１巷","ALLEY":" ","HOUSE_NO":"６８號","E_COORD97":167554.20999999999,"N_COORD97":2547272.6099999999,"ADDRESS":"安富街２５１巷６８號","OBJECTID":321977},"geometry":{"x":167554.21000000183,"y":2547272.6099999994}},{"attributes":{"ID":321987,"DIS_CODE":0,"TOWNNAME":"安南區","LI":"安富里","LIN":"15鄰","STREET":"海佃路","SECT":"一段","MAREA":" ","LANE":"１５８巷","ALLEY":" ","HOUSE_NO":"１０１號","E_COORD97":167440.79999999999,"N_COORD97":2547257.0499999998,"ADDRESS":"海佃路一段１５８巷１０１號","OBJECTID":321978},"geometry":{"x":167440.79999999981,"y":2547257.0500000026}},{"attributes":{"ID":321988,"DIS_CODE":0,"TOWNNAME":"安南區","LI":"安富里","LIN":"15鄰","STREET":"海佃路","SECT":"一段","MAREA":" ","LANE":"１５８巷","ALLEY":" ","HOUSE_NO":"１０５號","E_COORD97":167458.57000000001,"N_COORD97":2547256.6899999999,"ADDRESS":"海佃路一段１５８巷１０５號","OBJECTID":321979},"geometry":{"x":167458.5700000003,"y":2547256.6899999976}},{"attributes":{"ID":321989,"DIS_CODE":0,"TOWNNAME":"安南區","LI":"長安里","LIN":"17鄰","STREET":"長溪路","SECT":"三段","MAREA":" ","LANE":" ","ALLEY":" ","HOUSE_NO":"３６３號","E_COORD97":167692.47,"N_COORD97":2551967.9900000002,"ADDRESS":"長溪路三段３６３號","OBJECTID":321980},"geometry":{"x":167692.46999999974,"y":2551967.9899999984}},{"attributes":{"ID":321990,"DIS_CODE":0,"TOWNNAME":"安南區","LI":"新順里","LIN":"17鄰","STREET":"頂安街","SECT":" ","MAREA":" ","LANE":" ","ALLEY":" ","HOUSE_NO":"５７號","E_COORD97":169529.07999999999,"N_COORD97":2549339.29,"ADDRESS":"頂安街５７號","OBJECTID":321981},"geometry":{"x":169529.08000000101,"y":2549339.2899999991}},{"attributes":{"ID":321991,"DIS_CODE":0,"TOWNNAME":"安南區","LI":"新順里","LIN":"17鄰","STREET":"頂安街","SECT":" ","MAREA":" ","LANE":" ","ALLEY":" ","HOUSE_NO":"６５號","E_COORD97":169510.79999999999,"N_COORD97":2549342.6899999999,"ADDRESS":"頂安街６５號","OBJECTID":321982},"geometry":{"x":169510.79999999981,"y":2549342.6900000013}},{"attributes":{"ID":321992,"DIS_CODE":0,"TOWNNAME":"安南區","LI":"新順里","LIN":"17鄰","STREET":"頂安街","SECT":" ","MAREA":" ","LANE":" ","ALLEY":" ","HOUSE_NO":"７９號","E_COORD97":169467.23999999999,"N_COORD97":2549350.6200000001,"ADDRESS":"頂安街７９號","OBJECTID":321983},"geometry":{"x":169467.24000000022,"y":2549350.6199999992}},{"attributes":{"ID":321993,"DIS_CODE":0,"TOWNNAME":"安南區","LI":"新順里","LIN":"17鄰","STREET":"頂安街","SECT":" ","MAREA":" ","LANE":" ","ALLEY":" ","HOUSE_NO":"８５號","E_COORD97":169453.67999999999,"N_COORD97":2549354.4900000002,"ADDRESS":"頂安街８５號","OBJECTID":321984},"geometry":{"x":169453.6799999997,"y":2549354.4900000039}},{"attributes":{"ID":321994,"DIS_CODE":0,"TOWNNAME":"安南區","LI":"新順里","LIN":"17鄰","STREET":"頂安街","SECT":" ","MAREA":" ","LANE":" ","ALLEY":" ","HOUSE_NO":"５９號","E_COORD97":169524.73999999999,"N_COORD97":2549340.2200000002,"ADDRESS":"頂安街５９號","OBJECTID":321985},"geometry":{"x":169524.74000000115,"y":2549340.2200000025}},{"attributes":{"ID":321995,"DIS_CODE":0,"TOWNNAME":"安南區","LI":"溪墘里","LIN":"17鄰","STREET":"海佃路","SECT":"一段","MAREA":" ","LANE":" ","ALLEY":" ","HOUSE_NO":"３７８號","E_COORD97":167087.51000000001,"N_COORD97":2547610.9199999999,"ADDRESS":"海佃路一段３７８號","OBJECTID":321986},"geometry":{"x":167087.51000000164,"y":2547610.9199999999}},{"attributes":{"ID":321996,"DIS_CODE":0,"TOWNNAME":"南區","LI":"白雪里","LIN":" ","STREET":"鹽埕路","SECT":" ","MAREA":" ","LANE":"１０３巷","ALLEY":" ","HOUSE_NO":"３０號","E_COORD97":166732.13,"N_COORD97":2540768.6000000001,"ADDRESS":"鹽埕路１０３巷３０號","OBJECTID":321987},"geometry":{"x":166732.12999999989,"y":2540768.6000000034}},{"attributes":{"ID":321997,"DIS_CODE":0,"TOWNNAME":"南區","LI":"白雪里","LIN":" ","STREET":"鹽埕路","SECT":" ","MAREA":" ","LANE":"１０３巷","ALLEY":" ","HOUSE_NO":"３２號","E_COORD97":166732.66,"N_COORD97":2540764.3900000001,"ADDRESS":"鹽埕路１０３巷３２號","OBJECTID":321988},"geometry":{"x":166732.66000000108,"y":2540764.3900000025}},{"attributes":{"ID":321998,"DIS_CODE":0,"TOWNNAME":"南區","LI":"白雪里","LIN":" ","STREET":"鹽埕路","SECT":" ","MAREA":" ","LANE":"１０３巷","ALLEY":" ","HOUSE_NO":"３４號","E_COORD97":166733.45000000001,"N_COORD97":2540759.3900000001,"ADDRESS":"鹽埕路１０３巷３４號","OBJECTID":321989},"geometry":{"x":166733.45000000019,"y":2540759.3900000006}},{"attributes":{"ID":321999,"DIS_CODE":0,"TOWNNAME":"南區","LI":"白雪里","LIN":" ","STREET":"鹽埕路","SECT":" ","MAREA":" ","LANE":"１０３巷","ALLEY":" ","HOUSE_NO":"３６號","E_COORD97":166730.81,"N_COORD97":2540754.9100000001,"ADDRESS":"鹽埕路１０３巷３６號","OBJECTID":321990},"geometry":{"x":166730.81000000145,"y":2540754.910000002}},{"attributes":{"ID":322000,"DIS_CODE":0,"TOWNNAME":"安南區","LI":"安富里","LIN":"15鄰","STREET":"海佃路","SECT":"一段","MAREA":" ","LANE":"１５８巷","ALLEY":" ","HOUSE_NO":"１０９號","E_COORD97":167467.29000000001,"N_COORD97":2547256.9900000002,"ADDRESS":"海佃路一段１５８巷１０９號","OBJECTID":321991},"geometry":{"x":167467.2900000019,"y":2547256.9900000021}},{"attributes":{"ID":322001,"DIS_CODE":0,"TOWNNAME":"安南區","LI":"安富里","LIN":"15鄰","STREET":"海佃路","SECT":"一段","MAREA":" ","LANE":"１５８巷","ALLEY":" ","HOUSE_NO":"１１１號","E_COORD97":167472.10000000001,"N_COORD97":2547260,"ADDRESS":"海佃路一段１５８巷１１１號","OBJECTID":321992},"geometry":{"x":167472.10000000056,"y":2547260.0000000019}},{"attributes":{"ID":322002,"DIS_CODE":0,"TOWNNAME":"安南區","LI":"安富里","LIN":"15鄰","STREET":"海佃路","SECT":"一段","MAREA":" ","LANE":"１５８巷","ALLEY":" ","HOUSE_NO":"１１３號","E_COORD97":167477.22,"N_COORD97":2547257.6000000001,"ADDRESS":"海佃路一段１５８巷１１３號","OBJECTID":321993},"geometry":{"x":167477.21999999974,"y":2547257.6000000034}},{"attributes":{"ID":322003,"DIS_CODE":0,"TOWNNAME":"安南區","LI":"安富里","LIN":"15鄰","STREET":"海佃路","SECT":"一段","MAREA":" ","LANE":"１５８巷","ALLEY":" ","HOUSE_NO":"１１５號","E_COORD97":167480.82999999999,"N_COORD97":2547260.6000000001,"ADDRESS":"海佃路一段１５８巷１１５號","OBJECTID":321994},"geometry":{"x":167480.83000000101,"y":2547260.5999999996}},{"attributes":{"ID":322004,"DIS_CODE":0,"TOWNNAME":"安南區","LI":"安富里","LIN":"15鄰","STREET":"海佃路","SECT":"一段","MAREA":" ","LANE":"１５８巷","ALLEY":" ","HOUSE_NO":"１１７號","E_COORD97":167485.04000000001,"N_COORD97":2547262.3999999999,"ADDRESS":"海佃路一段１５８巷１１７號","OBJECTID":321995},"geometry":{"x":167485.04000000004,"y":2547262.4000000004}},{"attributes":{"ID":322005,"DIS_CODE":0,"TOWNNAME":"安南區","LI":"安富里","LIN":"15鄰","STREET":"海佃路","SECT":"一段","MAREA":" ","LANE":"１５８巷","ALLEY":" ","HOUSE_NO":"１１９號","E_COORD97":167490.45000000001,"N_COORD97":2547259.3999999999,"ADDRESS":"海佃路一段１５８巷１１９號","OBJECTID":321996},"geometry":{"x":167490.45000000112,"y":2547259.4000000004}},{"attributes":{"ID":322006,"DIS_CODE":0,"TOWNNAME":"安南區","LI":"安富里","LIN":"15鄰","STREET":"海佃路","SECT":"一段","MAREA":" ","LANE":"１５８巷","ALLEY":" ","HOUSE_NO":"１２１號","E_COORD97":167494.95999999999,"N_COORD97":2547263,"ADDRESS":"海佃路一段１５８巷１２１號","OBJECTID":321997},"geometry":{"x":167494.96000000089,"y":2547263.0000000019}},{"attributes":{"ID":322007,"DIS_CODE":0,"TOWNNAME":"安南區","LI":"安富里","LIN":"15鄰","STREET":"海佃路","SECT":"一段","MAREA":" ","LANE":"１５８巷","ALLEY":" ","HOUSE_NO":"１２５號","E_COORD97":167503.38,"N_COORD97":2547263,"ADDRESS":"海佃路一段１５８巷１２５號","OBJECTID":321998},"geometry":{"x":167503.37999999989,"y":2547263.0000000019}},{"attributes":{"ID":322008,"DIS_CODE":0,"TOWNNAME":"安南區","LI":"鳳凰里","LIN":"15鄰","STREET":"安中路","SECT":"一段","MAREA":" ","LANE":"７０２巷","ALLEY":" ","HOUSE_NO":"６０號之３","E_COORD97":167689.89000000001,"N_COORD97":2549334.7400000002,"ADDRESS":"安中路一段７０２巷６０號之３","OBJECTID":321999},"geometry":{"x":167689.89000000153,"y":2549334.7400000002}},{"attributes":{"ID":322009,"DIS_CODE":0,"TOWNNAME":"安南區","LI":"海東里","LIN":"15鄰","STREET":"海中街","SECT":" ","MAREA":" ","LANE":"１８巷","ALLEY":" ","HOUSE_NO":"１１號","E_COORD97":166569.41,"N_COORD97":2548866.6299999999,"ADDRESS":"海中街１８巷１１號","OBJECTID":322000},"geometry":{"x":166569.41000000015,"y":2548866.629999999}}]}