{"displayFieldName":"TOWNNAME","fieldAliases":{"ID":"ID","DIS_CODE":"DIS_CODE","TOWNNAME":"TOWNNAME","LI":"LI","LIN":"LIN","STREET":"STREET","SECT":"SECT","MAREA":"MAREA","LANE":"LANE","ALLEY":"ALLEY","HOUSE_NO":"HOUSE_NO","E_COORD97":"E_COORD97","N_COORD97":"N_COORD97","ADDRESS":"ADDRESS","OBJECTID":"OBJECTID"},"geometryType":"esriGeometryPoint","spatialReference":{"wkid":102443,"latestWkid":3826},"fields":[{"name":"ID","type":"esriFieldTypeDouble","alias":"ID"},{"name":"DIS_CODE","type":"esriFieldTypeInteger","alias":"DIS_CODE"},{"name":"TOWNNAME","type":"esriFieldTypeString","alias":"TOWNNAME","length":8},{"name":"LI","type":"esriFieldTypeString","alias":"LI","length":8},{"name":"LIN","type":"esriFieldTypeString","alias":"LIN","length":12},{"name":"STREET","type":"esriFieldTypeString","alias":"STREET","length":20},{"name":"SECT","type":"esriFieldTypeString","alias":"SECT","length":8},{"name":"MAREA","type":"esriFieldTypeString","alias":"MAREA","length":12},{"name":"LANE","type":"esriFieldTypeString","alias":"LANE","length":10},{"name":"ALLEY","type":"esriFieldTypeString","alias":"ALLEY","length":10},{"name":"HOUSE_NO","type":"esriFieldTypeString","alias":"HOUSE_NO","length":20},{"name":"E_COORD97","type":"esriFieldTypeDouble","alias":"E_COORD97"},{"name":"N_COORD97","type":"esriFieldTypeDouble","alias":"N_COORD97"},{"name":"ADDRESS","type":"esriFieldTypeString","alias":"ADDRESS","length":50},{"name":"OBJECTID","type":"esriFieldTypeOID","alias":"OBJECTID"}],"features":[{"attributes":{"ID":422026,"DIS_CODE":0,"TOWNNAME":"東區","LI":"大同里","LIN":"20鄰","STREET":"大同路","SECT":"一段","MAREA":" ","LANE":"１９７巷","ALLEY":" ","HOUSE_NO":"８３號","E_COORD97":169310,"N_COORD97":2542674.46,"ADDRESS":"大同路一段１９７巷８３號","OBJECTID":422001},"geometry":{"x":169309.99999999907,"y":2542674.4600000009}},{"attributes":{"ID":422027,"DIS_CODE":0,"TOWNNAME":"鹽水區","LI":"岸內里","LIN":"24鄰","STREET":"北門路","SECT":" ","MAREA":" ","LANE":"９巷","ALLEY":" ","HOUSE_NO":"８４號","E_COORD97":175434.26000000001,"N_COORD97":2580533.6099999999,"ADDRESS":"北門路９巷８４號","OBJECTID":422002},"geometry":{"x":175434.25999999978,"y":2580533.6099999975}},{"attributes":{"ID":422028,"DIS_CODE":0,"TOWNNAME":"東區","LI":"大同里","LIN":"13鄰","STREET":"大同路","SECT":"一段","MAREA":" ","LANE":"１５５巷","ALLEY":" ","HOUSE_NO":"７７號","E_COORD97":169338.85000000001,"N_COORD97":2542928.7799999998,"ADDRESS":"大同路一段１５５巷７７號","OBJECTID":422003},"geometry":{"x":169338.84999999963,"y":2542928.7799999993}},{"attributes":{"ID":422029,"DIS_CODE":0,"TOWNNAME":"東區","LI":"大同里","LIN":"13鄰","STREET":"大同路","SECT":"一段","MAREA":" ","LANE":"１５５巷","ALLEY":" ","HOUSE_NO":"７９號","E_COORD97":169343.17999999999,"N_COORD97":2542919.5699999998,"ADDRESS":"大同路一段１５５巷７９號","OBJECTID":422004},"geometry":{"x":169343.18000000063,"y":2542919.5700000022}},{"attributes":{"ID":422030,"DIS_CODE":0,"TOWNNAME":"東區","LI":"大同里","LIN":"12鄰","STREET":"大同路","SECT":"一段","MAREA":" ","LANE":"１４１巷","ALLEY":" ","HOUSE_NO":"３號","E_COORD97":169169.59,"N_COORD97":2542920.1400000001,"ADDRESS":"大同路一段１４１巷３號","OBJECTID":422005},"geometry":{"x":169169.58999999985,"y":2542920.1400000025}},{"attributes":{"ID":422031,"DIS_CODE":0,"TOWNNAME":"東區","LI":"大同里","LIN":"12鄰","STREET":"大同路","SECT":"一段","MAREA":" ","LANE":"１４１巷","ALLEY":" ","HOUSE_NO":"５號","E_COORD97":169173.23999999999,"N_COORD97":2542926.25,"ADDRESS":"大同路一段１４１巷５號","OBJECTID":422006},"geometry":{"x":169173.24000000115,"y":2542926.25}},{"attributes":{"ID":422032,"DIS_CODE":0,"TOWNNAME":"東區","LI":"大同里","LIN":"12鄰","STREET":"大同路","SECT":"一段","MAREA":" ","LANE":"１４１巷","ALLEY":" ","HOUSE_NO":"７號","E_COORD97":169178.07000000001,"N_COORD97":2542921.8999999999,"ADDRESS":"大同路一段１４１巷７號","OBJECTID":422007},"geometry":{"x":169178.07000000123,"y":2542921.9000000004}},{"attributes":{"ID":422033,"DIS_CODE":0,"TOWNNAME":"東區","LI":"大同里","LIN":"11鄰","STREET":"大同路","SECT":"一段","MAREA":" ","LANE":"１４１巷","ALLEY":" ","HOUSE_NO":"２７號","E_COORD97":169246.72,"N_COORD97":2542938.6200000001,"ADDRESS":"大同路一段１４１巷２７號","OBJECTID":422008},"geometry":{"x":169246.71999999974,"y":2542938.620000001}},{"attributes":{"ID":422034,"DIS_CODE":0,"TOWNNAME":"東區","LI":"大同里","LIN":"11鄰","STREET":"大同路","SECT":"一段","MAREA":" ","LANE":"１４１巷","ALLEY":" ","HOUSE_NO":"２９號","E_COORD97":169251.06,"N_COORD97":2542939.5699999998,"ADDRESS":"大同路一段１４１巷２９號","OBJECTID":422009},"geometry":{"x":169251.05999999959,"y":2542939.5700000022}},{"attributes":{"ID":422035,"DIS_CODE":0,"TOWNNAME":"東區","LI":"大同里","LIN":"11鄰","STREET":"大同路","SECT":"一段","MAREA":" ","LANE":"１４１巷","ALLEY":" ","HOUSE_NO":"３０號","E_COORD97":169230.51000000001,"N_COORD97":2542919.4700000002,"ADDRESS":"大同路一段１４１巷３０號","OBJECTID":422010},"geometry":{"x":169230.51000000071,"y":2542919.4700000007}},{"attributes":{"ID":422036,"DIS_CODE":0,"TOWNNAME":"東區","LI":"大同里","LIN":"11鄰","STREET":"大同路","SECT":"一段","MAREA":" ","LANE":"１４１巷","ALLEY":" ","HOUSE_NO":"３１號","E_COORD97":169253.73999999999,"N_COORD97":2542943.5899999999,"ADDRESS":"大同路一段１４１巷３１號","OBJECTID":422011},"geometry":{"x":169253.74000000022,"y":2542943.5900000017}},{"attributes":{"ID":422037,"DIS_CODE":0,"TOWNNAME":"東區","LI":"大同里","LIN":"11鄰","STREET":"大同路","SECT":"一段","MAREA":" ","LANE":"１４１巷","ALLEY":" ","HOUSE_NO":"３２號","E_COORD97":169236.62,"N_COORD97":2542922.21,"ADDRESS":"大同路一段１４１巷３２號","OBJECTID":422012},"geometry":{"x":169236.62000000197,"y":2542922.2100000028}},{"attributes":{"ID":422038,"DIS_CODE":0,"TOWNNAME":"東區","LI":"大同里","LIN":"11鄰","STREET":"大同路","SECT":"一段","MAREA":" ","LANE":"１４１巷","ALLEY":" ","HOUSE_NO":"３３號","E_COORD97":169258.23000000001,"N_COORD97":2542942.0099999998,"ADDRESS":"大同路一段１４１巷３３號","OBJECTID":422013},"geometry":{"x":169258.23000000231,"y":2542942.0099999998}},{"attributes":{"ID":422039,"DIS_CODE":0,"TOWNNAME":"東區","LI":"大同里","LIN":"11鄰","STREET":"大同路","SECT":"一段","MAREA":" ","LANE":"１４１巷","ALLEY":" ","HOUSE_NO":"３５號","E_COORD97":169264.94,"N_COORD97":2542943.98,"ADDRESS":"大同路一段１４１巷３５號","OBJECTID":422014},"geometry":{"x":169264.94000000041,"y":2542943.9800000023}},{"attributes":{"ID":422040,"DIS_CODE":0,"TOWNNAME":"東區","LI":"大同里","LIN":"11鄰","STREET":"大同路","SECT":"一段","MAREA":" ","LANE":"１４１巷","ALLEY":" ","HOUSE_NO":"３８號","E_COORD97":169262.35999999999,"N_COORD97":2542923.29,"ADDRESS":"大同路一段１４１巷３８號","OBJECTID":422015},"geometry":{"x":169262.3600000022,"y":2542923.290000001}},{"attributes":{"ID":422041,"DIS_CODE":0,"TOWNNAME":"東區","LI":"大同里","LIN":"11鄰","STREET":"大同路","SECT":"一段","MAREA":" ","LANE":"１４１巷","ALLEY":" ","HOUSE_NO":"４２號","E_COORD97":169267.78,"N_COORD97":2542926.1400000001,"ADDRESS":"大同路一段１４１巷４２號","OBJECTID":422016},"geometry":{"x":169267.78000000212,"y":2542926.1400000025}},{"attributes":{"ID":422042,"DIS_CODE":0,"TOWNNAME":"東區","LI":"大同里","LIN":"11鄰","STREET":"大同路","SECT":"一段","MAREA":" ","LANE":"１４１巷","ALLEY":" ","HOUSE_NO":"４４號","E_COORD97":169273.34,"N_COORD97":2542926.54,"ADDRESS":"大同路一段１４１巷４４號","OBJECTID":422017},"geometry":{"x":169273.33999999985,"y":2542926.5399999991}},{"attributes":{"ID":422043,"DIS_CODE":0,"TOWNNAME":"東區","LI":"大同里","LIN":"11鄰","STREET":"大同路","SECT":"一段","MAREA":" ","LANE":"１４１巷","ALLEY":" ","HOUSE_NO":"４５號","E_COORD97":169274.89999999999,"N_COORD97":2542982.0299999998,"ADDRESS":"大同路一段１４１巷４５號","OBJECTID":422018},"geometry":{"x":169274.90000000037,"y":2542982.0299999993}},{"attributes":{"ID":422044,"DIS_CODE":0,"TOWNNAME":"東區","LI":"大同里","LIN":"11鄰","STREET":"大同路","SECT":"一段","MAREA":" ","LANE":"１４１巷","ALLEY":" ","HOUSE_NO":"４６號","E_COORD97":169290.07000000001,"N_COORD97":2542933.1099999999,"ADDRESS":"大同路一段１４１巷４６號","OBJECTID":422019},"geometry":{"x":169290.07000000123,"y":2542933.1099999994}},{"attributes":{"ID":422045,"DIS_CODE":0,"TOWNNAME":"佳里區","LI":"安西里","LIN":"35鄰","STREET":"育善街","SECT":" ","MAREA":" ","LANE":"２７６巷","ALLEY":" ","HOUSE_NO":"１號","E_COORD97":164942.79000000001,"N_COORD97":2562757.9700000002,"ADDRESS":"育善街２７６巷１號","OBJECTID":422020},"geometry":{"x":164942.79000000004,"y":2562757.9700000025}},{"attributes":{"ID":422046,"DIS_CODE":0,"TOWNNAME":"東區","LI":"大同里","LIN":"11鄰","STREET":"大同路","SECT":"一段","MAREA":" ","LANE":"１４１巷","ALLEY":" ","HOUSE_NO":"４８號","E_COORD97":169298.34,"N_COORD97":2542932.9700000002,"ADDRESS":"大同路一段１４１巷４８號","OBJECTID":422021},"geometry":{"x":169298.33999999985,"y":2542932.9700000007}},{"attributes":{"ID":422047,"DIS_CODE":0,"TOWNNAME":"東區","LI":"大同里","LIN":"11鄰","STREET":"大同路","SECT":"一段","MAREA":" ","LANE":"１４１巷","ALLEY":" ","HOUSE_NO":"４９號","E_COORD97":169276.87,"N_COORD97":2542973.9100000001,"ADDRESS":"大同路一段１４１巷４９號","OBJECTID":422022},"geometry":{"x":169276.87000000011,"y":2542973.9100000039}},{"attributes":{"ID":422048,"DIS_CODE":0,"TOWNNAME":"東區","LI":"大同里","LIN":"11鄰","STREET":"大同路","SECT":"一段","MAREA":" ","LANE":"１４１巷","ALLEY":" ","HOUSE_NO":"５０號","E_COORD97":169302.67000000001,"N_COORD97":2542933.3799999999,"ADDRESS":"大同路一段１４１巷５０號","OBJECTID":422023},"geometry":{"x":169302.67000000086,"y":2542933.3800000008}},{"attributes":{"ID":422049,"DIS_CODE":0,"TOWNNAME":"東區","LI":"大同里","LIN":"11鄰","STREET":"大同路","SECT":"一段","MAREA":" ","LANE":"１４１巷","ALLEY":" ","HOUSE_NO":"５１號","E_COORD97":169277.12,"N_COORD97":2542970.8399999999,"ADDRESS":"大同路一段１４１巷５１號","OBJECTID":422024},"geometry":{"x":169277.12000000197,"y":2542970.8400000036}},{"attributes":{"ID":422050,"DIS_CODE":0,"TOWNNAME":"東區","LI":"大同里","LIN":"11鄰","STREET":"大同路","SECT":"一段","MAREA":" ","LANE":"１４１巷","ALLEY":" ","HOUSE_NO":"５２號","E_COORD97":169307.67999999999,"N_COORD97":2542935.27,"ADDRESS":"大同路一段１４１巷５２號","OBJECTID":422025},"geometry":{"x":169307.68000000063,"y":2542935.2700000014}},{"attributes":{"ID":422051,"DIS_CODE":0,"TOWNNAME":"東區","LI":"大同里","LIN":"11鄰","STREET":"大同路","SECT":"一段","MAREA":" ","LANE":"１４１巷","ALLEY":" ","HOUSE_NO":"５３號","E_COORD97":169284.62,"N_COORD97":2542977.8500000001,"ADDRESS":"大同路一段１４１巷５３號","OBJECTID":422026},"geometry":{"x":169284.62000000104,"y":2542977.8500000015}},{"attributes":{"ID":422052,"DIS_CODE":0,"TOWNNAME":"東區","LI":"大同里","LIN":"11鄰","STREET":"大同路","SECT":"一段","MAREA":" ","LANE":"１４１巷","ALLEY":" ","HOUSE_NO":"５３號地下一層","E_COORD97":169284.62,"N_COORD97":2542977.8500000001,"ADDRESS":"大同路一段１４１巷５３號地下一層","OBJECTID":422027},"geometry":{"x":169284.62000000104,"y":2542977.8500000015}},{"attributes":{"ID":422053,"DIS_CODE":0,"TOWNNAME":"東區","LI":"大同里","LIN":"11鄰","STREET":"大同路","SECT":"一段","MAREA":" ","LANE":"１４１巷","ALLEY":" ","HOUSE_NO":"５５號之１","E_COORD97":169292.25,"N_COORD97":2542989.8900000001,"ADDRESS":"大同路一段１４１巷５５號之１","OBJECTID":422028},"geometry":{"x":169292.25000000093,"y":2542989.8900000006}},{"attributes":{"ID":422054,"DIS_CODE":0,"TOWNNAME":"東區","LI":"大同里","LIN":"11鄰","STREET":"大同路","SECT":"一段","MAREA":" ","LANE":"１４１巷","ALLEY":" ","HOUSE_NO":"５５號之２","E_COORD97":169300.13,"N_COORD97":2542985.7200000002,"ADDRESS":"大同路一段１４１巷５５號之２","OBJECTID":422029},"geometry":{"x":169300.12999999989,"y":2542985.7200000007}},{"attributes":{"ID":422055,"DIS_CODE":0,"TOWNNAME":"北區","LI":"五福里","LIN":"13鄰","STREET":"成功路","SECT":" ","MAREA":" ","LANE":" ","ALLEY":" ","HOUSE_NO":"２８２號","E_COORD97":168177.04999999999,"N_COORD97":2544463.8799999999,"ADDRESS":"成功路２８２號","OBJECTID":422030},"geometry":{"x":168177.04999999888,"y":2544463.879999999}},{"attributes":{"ID":422056,"DIS_CODE":0,"TOWNNAME":"東區","LI":"大同里","LIN":"11鄰","STREET":"大同路","SECT":"一段","MAREA":" ","LANE":"１４１巷","ALLEY":" ","HOUSE_NO":"５５號之３","E_COORD97":169308.73999999999,"N_COORD97":2542986.7000000002,"ADDRESS":"大同路一段１４１巷５５號之３","OBJECTID":422031},"geometry":{"x":169308.74000000209,"y":2542986.6999999993}},{"attributes":{"ID":422057,"DIS_CODE":0,"TOWNNAME":"東區","LI":"大同里","LIN":"11鄰","STREET":"大同路","SECT":"一段","MAREA":" ","LANE":"１４１巷","ALLEY":" ","HOUSE_NO":"５５號之４","E_COORD97":169292.01000000001,"N_COORD97":2542973.79,"ADDRESS":"大同路一段１４１巷５５號之４","OBJECTID":422032},"geometry":{"x":169292.00999999978,"y":2542973.7900000028}},{"attributes":{"ID":422058,"DIS_CODE":0,"TOWNNAME":"東區","LI":"大同里","LIN":"11鄰","STREET":"大同路","SECT":"一段","MAREA":" ","LANE":"１４１巷","ALLEY":" ","HOUSE_NO":"５５號之５","E_COORD97":169293.35999999999,"N_COORD97":2542968.2599999998,"ADDRESS":"大同路一段１４１巷５５號之５","OBJECTID":422033},"geometry":{"x":169293.36000000127,"y":2542968.2600000016}},{"attributes":{"ID":422059,"DIS_CODE":0,"TOWNNAME":"東區","LI":"大同里","LIN":"11鄰","STREET":"大同路","SECT":"一段","MAREA":" ","LANE":"１４１巷","ALLEY":" ","HOUSE_NO":"５５號之６","E_COORD97":169293.23999999999,"N_COORD97":2542964.4500000002,"ADDRESS":"大同路一段１４１巷５５號之６","OBJECTID":422034},"geometry":{"x":169293.24000000022,"y":2542964.4499999993}},{"attributes":{"ID":422060,"DIS_CODE":0,"TOWNNAME":"東區","LI":"大同里","LIN":"11鄰","STREET":"大同路","SECT":"一段","MAREA":" ","LANE":"１４１巷","ALLEY":" ","HOUSE_NO":"５５號之７","E_COORD97":169281.17999999999,"N_COORD97":2542957.3199999998,"ADDRESS":"大同路一段１４１巷５５號之７","OBJECTID":422035},"geometry":{"x":169281.1799999997,"y":2542957.3200000003}},{"attributes":{"ID":422061,"DIS_CODE":0,"TOWNNAME":"東區","LI":"大同里","LIN":"11鄰","STREET":"大同路","SECT":"一段","MAREA":" ","LANE":"１４１巷","ALLEY":" ","HOUSE_NO":"５５號之８","E_COORD97":169284.25,"N_COORD97":2542948.2200000002,"ADDRESS":"大同路一段１４１巷５５號之８","OBJECTID":422036},"geometry":{"x":169284.25,"y":2542948.2200000007}},{"attributes":{"ID":422062,"DIS_CODE":0,"TOWNNAME":"東區","LI":"大同里","LIN":"11鄰","STREET":"大同路","SECT":"一段","MAREA":" ","LANE":"１４１巷","ALLEY":" ","HOUSE_NO":"５５號之９","E_COORD97":169292.38,"N_COORD97":2542949.21,"ADDRESS":"大同路一段１４１巷５５號之９","OBJECTID":422037},"geometry":{"x":169292.38000000082,"y":2542949.2100000046}},{"attributes":{"ID":422063,"DIS_CODE":0,"TOWNNAME":"東區","LI":"大同里","LIN":"10鄰","STREET":"大同路","SECT":"一段","MAREA":" ","LANE":"１１５巷","ALLEY":" ","HOUSE_NO":"１２號","E_COORD97":169193.5,"N_COORD97":2542947.6099999999,"ADDRESS":"大同路一段１１５巷１２號","OBJECTID":422038},"geometry":{"x":169193.50000000093,"y":2542947.6099999994}},{"attributes":{"ID":422064,"DIS_CODE":0,"TOWNNAME":"東區","LI":"大同里","LIN":"11鄰","STREET":"大同路","SECT":"一段","MAREA":" ","LANE":"１４１巷","ALLEY":" ","HOUSE_NO":"５６號","E_COORD97":169319.20000000001,"N_COORD97":2542936.0899999999,"ADDRESS":"大同路一段１４１巷５６號","OBJECTID":422039},"geometry":{"x":169319.20000000205,"y":2542936.0900000017}},{"attributes":{"ID":422065,"DIS_CODE":0,"TOWNNAME":"東區","LI":"大同里","LIN":"11鄰","STREET":"大同路","SECT":"一段","MAREA":" ","LANE":"１４１巷","ALLEY":" ","HOUSE_NO":"５７號","E_COORD97":169297.79000000001,"N_COORD97":2542952.1600000001,"ADDRESS":"大同路一段１４１巷５７號","OBJECTID":422040},"geometry":{"x":169297.79000000004,"y":2542952.1600000039}},{"attributes":{"ID":422066,"DIS_CODE":0,"TOWNNAME":"東區","LI":"大同里","LIN":"11鄰","STREET":"大同路","SECT":"一段","MAREA":" ","LANE":"１４１巷","ALLEY":" ","HOUSE_NO":"５８號","E_COORD97":169323.54000000001,"N_COORD97":2542937.4399999999,"ADDRESS":"大同路一段１４１巷５８號","OBJECTID":422041},"geometry":{"x":169323.5400000019,"y":2542937.4400000013}},{"attributes":{"ID":422067,"DIS_CODE":0,"TOWNNAME":"東區","LI":"大同里","LIN":"11鄰","STREET":"大同路","SECT":"一段","MAREA":" ","LANE":"１４１巷","ALLEY":" ","HOUSE_NO":"５９號","E_COORD97":169301.48000000001,"N_COORD97":2542953.75,"ADDRESS":"大同路一段１４１巷５９號","OBJECTID":422042},"geometry":{"x":169301.48000000045,"y":2542953.75}},{"attributes":{"ID":422068,"DIS_CODE":0,"TOWNNAME":"東區","LI":"大同里","LIN":"11鄰","STREET":"大同路","SECT":"一段","MAREA":" ","LANE":"１４１巷","ALLEY":" ","HOUSE_NO":"６０號","E_COORD97":169327.47,"N_COORD97":2542938.9300000002,"ADDRESS":"大同路一段１４１巷６０號","OBJECTID":422043},"geometry":{"x":169327.47000000067,"y":2542938.9299999997}},{"attributes":{"ID":422069,"DIS_CODE":0,"TOWNNAME":"東區","LI":"大同里","LIN":"11鄰","STREET":"大同路","SECT":"一段","MAREA":" ","LANE":"１４１巷","ALLEY":" ","HOUSE_NO":"６１號","E_COORD97":169304.67999999999,"N_COORD97":2542954.3700000001,"ADDRESS":"大同路一段１４１巷６１號","OBJECTID":422044},"geometry":{"x":169304.6799999997,"y":2542954.370000001}},{"attributes":{"ID":422070,"DIS_CODE":0,"TOWNNAME":"東區","LI":"大同里","LIN":"11鄰","STREET":"大同路","SECT":"一段","MAREA":" ","LANE":"１４１巷","ALLEY":" ","HOUSE_NO":"６２號","E_COORD97":169332.60999999999,"N_COORD97":2542942.5800000001,"ADDRESS":"大同路一段１４１巷６２號","OBJECTID":422045},"geometry":{"x":169332.61000000034,"y":2542942.5800000019}},{"attributes":{"ID":422071,"DIS_CODE":0,"TOWNNAME":"東區","LI":"大同里","LIN":"11鄰","STREET":"大同路","SECT":"一段","MAREA":" ","LANE":"１４１巷","ALLEY":" ","HOUSE_NO":"６３號","E_COORD97":169307.88,"N_COORD97":2542955.4700000002,"ADDRESS":"大同路一段１４１巷６３號","OBJECTID":422046},"geometry":{"x":169307.88000000082,"y":2542955.4700000025}},{"attributes":{"ID":422072,"DIS_CODE":0,"TOWNNAME":"東區","LI":"大同里","LIN":"11鄰","STREET":"大同路","SECT":"一段","MAREA":" ","LANE":"１４１巷","ALLEY":" ","HOUSE_NO":"６５號","E_COORD97":169312.06,"N_COORD97":2542956.3399999999,"ADDRESS":"大同路一段１４１巷６５號","OBJECTID":422047},"geometry":{"x":169312.05999999959,"y":2542956.3399999999}},{"attributes":{"ID":422073,"DIS_CODE":0,"TOWNNAME":"東區","LI":"大同里","LIN":"11鄰","STREET":"大同路","SECT":"一段","MAREA":" ","LANE":"１４１巷","ALLEY":" ","HOUSE_NO":"６７號","E_COORD97":169323.38,"N_COORD97":2542958.0600000001,"ADDRESS":"大同路一段１４１巷６７號","OBJECTID":422048},"geometry":{"x":169323.38000000082,"y":2542958.0600000024}},{"attributes":{"ID":422074,"DIS_CODE":0,"TOWNNAME":"東區","LI":"大同里","LIN":"11鄰","STREET":"大同路","SECT":"一段","MAREA":" ","LANE":"１５５巷","ALLEY":" ","HOUSE_NO":"５３號","E_COORD97":169291.29000000001,"N_COORD97":2542928.5099999998,"ADDRESS":"大同路一段１５５巷５３號","OBJECTID":422049},"geometry":{"x":169291.2900000019,"y":2542928.5099999998}},{"attributes":{"ID":422075,"DIS_CODE":0,"TOWNNAME":"東區","LI":"大同里","LIN":"11鄰","STREET":"大同路","SECT":"一段","MAREA":" ","LANE":"１５５巷","ALLEY":" ","HOUSE_NO":"５５號","E_COORD97":169291.79999999999,"N_COORD97":2542924.8199999998,"ADDRESS":"大同路一段１５５巷５５號","OBJECTID":422050},"geometry":{"x":169291.79999999981,"y":2542924.8200000022}},{"attributes":{"ID":422076,"DIS_CODE":0,"TOWNNAME":"東區","LI":"大同里","LIN":"21鄰","STREET":"大同路","SECT":"一段","MAREA":" ","LANE":"１７５巷","ALLEY":" ","HOUSE_NO":"２５號","E_COORD97":169245.84,"N_COORD97":2542748.6899999999,"ADDRESS":"大同路一段１７５巷２５號","OBJECTID":422051},"geometry":{"x":169245.83999999985,"y":2542748.6900000013}},{"attributes":{"ID":422077,"DIS_CODE":0,"TOWNNAME":"東區","LI":"大同里","LIN":"21鄰","STREET":"大同路","SECT":"一段","MAREA":" ","LANE":"１７５巷","ALLEY":" ","HOUSE_NO":"２７號","E_COORD97":169253.01000000001,"N_COORD97":2542745.48,"ADDRESS":"大同路一段１７５巷２７號","OBJECTID":422052},"geometry":{"x":169253.00999999978,"y":2542745.4800000004}},{"attributes":{"ID":422078,"DIS_CODE":0,"TOWNNAME":"東區","LI":"大同里","LIN":"21鄰","STREET":"大同路","SECT":"一段","MAREA":" ","LANE":"１７５巷","ALLEY":" ","HOUSE_NO":"２９號","E_COORD97":169261.31,"N_COORD97":2542740.3900000001,"ADDRESS":"大同路一段１７５巷２９號","OBJECTID":422053},"geometry":{"x":169261.30999999959,"y":2542740.3900000006}},{"attributes":{"ID":422079,"DIS_CODE":0,"TOWNNAME":"東區","LI":"大同里","LIN":"21鄰","STREET":"大同路","SECT":"一段","MAREA":" ","LANE":"１７５巷","ALLEY":" ","HOUSE_NO":"３１號","E_COORD97":169268.48000000001,"N_COORD97":2542736.8100000001,"ADDRESS":"大同路一段１７５巷３１號","OBJECTID":422054},"geometry":{"x":169268.48000000138,"y":2542736.8100000005}},{"attributes":{"ID":422080,"DIS_CODE":0,"TOWNNAME":"東區","LI":"大同里","LIN":"21鄰","STREET":"大同路","SECT":"一段","MAREA":" ","LANE":"１７５巷","ALLEY":" ","HOUSE_NO":"３３號","E_COORD97":169273.20000000001,"N_COORD97":2542732.8500000001,"ADDRESS":"大同路一段１７５巷３３號","OBJECTID":422055},"geometry":{"x":169273.19999999925,"y":2542732.8499999996}},{"attributes":{"ID":422081,"DIS_CODE":0,"TOWNNAME":"東區","LI":"大同里","LIN":"21鄰","STREET":"大同路","SECT":"一段","MAREA":" ","LANE":"１７５巷","ALLEY":" ","HOUSE_NO":"３４號","E_COORD97":169187.31,"N_COORD97":2542752.3900000001,"ADDRESS":"大同路一段１７５巷３４號","OBJECTID":422056},"geometry":{"x":169187.31000000145,"y":2542752.3900000025}},{"attributes":{"ID":422082,"DIS_CODE":0,"TOWNNAME":"東區","LI":"大同里","LIN":"21鄰","STREET":"大同路","SECT":"一段","MAREA":" ","LANE":"１７５巷","ALLEY":" ","HOUSE_NO":"３６號","E_COORD97":169191.84,"N_COORD97":2542750,"ADDRESS":"大同路一段１７５巷３６號","OBJECTID":422057},"geometry":{"x":169191.83999999985,"y":2542750.0000000019}},{"attributes":{"ID":422083,"DIS_CODE":0,"TOWNNAME":"東區","LI":"大同里","LIN":"21鄰","STREET":"大同路","SECT":"一段","MAREA":" ","LANE":"１７５巷","ALLEY":" ","HOUSE_NO":"３８號","E_COORD97":169196.48999999999,"N_COORD97":2542748.5,"ADDRESS":"大同路一段１７５巷３８號","OBJECTID":422058},"geometry":{"x":169196.49000000022,"y":2542748.5}},{"attributes":{"ID":422084,"DIS_CODE":0,"TOWNNAME":"東區","LI":"大同里","LIN":"21鄰","STREET":"大同路","SECT":"一段","MAREA":" ","LANE":"１７５巷","ALLEY":" ","HOUSE_NO":"３號","E_COORD97":169155.92999999999,"N_COORD97":2542789.2799999998,"ADDRESS":"大同路一段１７５巷３號","OBJECTID":422059},"geometry":{"x":169155.93000000156,"y":2542789.2799999993}},{"attributes":{"ID":422085,"DIS_CODE":0,"TOWNNAME":"東區","LI":"大福里","LIN":"24鄰","STREET":"中華東路","SECT":"三段","MAREA":" ","LANE":"６１８巷","ALLEY":" ","HOUSE_NO":"１０號","E_COORD97":169521.07000000001,"N_COORD97":2541516.02,"ADDRESS":"中華東路三段６１８巷１０號","OBJECTID":422060},"geometry":{"x":169521.0700000003,"y":2541516.0200000014}},{"attributes":{"ID":422086,"DIS_CODE":0,"TOWNNAME":"東區","LI":"大福里","LIN":"24鄰","STREET":"中華東路","SECT":"三段","MAREA":" ","LANE":"６１８巷","ALLEY":" ","HOUSE_NO":"１１號","E_COORD97":169525.89999999999,"N_COORD97":2541516.79,"ADDRESS":"中華東路三段６１８巷１１號","OBJECTID":422061},"geometry":{"x":169525.90000000037,"y":2541516.790000001}},{"attributes":{"ID":422087,"DIS_CODE":0,"TOWNNAME":"東區","LI":"大福里","LIN":"24鄰","STREET":"中華東路","SECT":"三段","MAREA":" ","LANE":"６１８巷","ALLEY":" ","HOUSE_NO":"１２號","E_COORD97":169533.76999999999,"N_COORD97":2541517.04,"ADDRESS":"中華東路三段６１８巷１２號","OBJECTID":422062},"geometry":{"x":169533.77000000048,"y":2541517.0399999991}},{"attributes":{"ID":422088,"DIS_CODE":0,"TOWNNAME":"東區","LI":"大福里","LIN":"24鄰","STREET":"中華東路","SECT":"三段","MAREA":" ","LANE":"６１８巷","ALLEY":" ","HOUSE_NO":"１３號","E_COORD97":169542.66,"N_COORD97":2541523.1299999999,"ADDRESS":"中華東路三段６１８巷１３號","OBJECTID":422063},"geometry":{"x":169542.66000000015,"y":2541523.129999999}},{"attributes":{"ID":422089,"DIS_CODE":0,"TOWNNAME":"東區","LI":"大福里","LIN":"24鄰","STREET":"中華東路","SECT":"三段","MAREA":" ","LANE":"６１８巷","ALLEY":" ","HOUSE_NO":"１４號","E_COORD97":169543.42000000001,"N_COORD97":2541517.04,"ADDRESS":"中華東路三段６１８巷１４號","OBJECTID":422064},"geometry":{"x":169543.42000000086,"y":2541517.0399999991}},{"attributes":{"ID":422090,"DIS_CODE":0,"TOWNNAME":"東區","LI":"大福里","LIN":"24鄰","STREET":"中華東路","SECT":"三段","MAREA":" ","LANE":"６１８巷","ALLEY":" ","HOUSE_NO":"１５號","E_COORD97":169539.87,"N_COORD97":2541537.3300000001,"ADDRESS":"中華東路三段６１８巷１５號","OBJECTID":422065},"geometry":{"x":169539.86999999918,"y":2541537.3300000019}},{"attributes":{"ID":422091,"DIS_CODE":0,"TOWNNAME":"東區","LI":"大福里","LIN":"24鄰","STREET":"中華東路","SECT":"三段","MAREA":" ","LANE":"６１８巷","ALLEY":" ","HOUSE_NO":"１６號","E_COORD97":169536.06,"N_COORD97":2541535.8100000001,"ADDRESS":"中華東路三段６１８巷１６號","OBJECTID":422066},"geometry":{"x":169536.05999999959,"y":2541535.8100000024}},{"attributes":{"ID":422092,"DIS_CODE":0,"TOWNNAME":"東區","LI":"大福里","LIN":"24鄰","STREET":"中華東路","SECT":"三段","MAREA":" ","LANE":"６１８巷","ALLEY":" ","HOUSE_NO":"１７號","E_COORD97":169530.98000000001,"N_COORD97":2541535.0499999998,"ADDRESS":"中華東路三段６１８巷１７號","OBJECTID":422067},"geometry":{"x":169530.97999999952,"y":2541535.0500000007}},{"attributes":{"ID":422093,"DIS_CODE":0,"TOWNNAME":"東區","LI":"大福里","LIN":"24鄰","STREET":"中華東路","SECT":"三段","MAREA":" ","LANE":"６１８巷","ALLEY":" ","HOUSE_NO":"７號","E_COORD97":169543.92999999999,"N_COORD97":2541507.3999999999,"ADDRESS":"中華東路三段６１８巷７號","OBJECTID":422068},"geometry":{"x":169543.9299999997,"y":2541507.4000000022}},{"attributes":{"ID":422094,"DIS_CODE":0,"TOWNNAME":"東區","LI":"大福里","LIN":"27鄰","STREET":"中華東路","SECT":"三段","MAREA":" ","LANE":"５２０巷","ALLEY":" ","HOUSE_NO":"１０號","E_COORD97":169709.94,"N_COORD97":2541540.6800000002,"ADDRESS":"中華東路三段５２０巷１０號","OBJECTID":422069},"geometry":{"x":169709.94000000134,"y":2541540.6799999997}},{"attributes":{"ID":422095,"DIS_CODE":0,"TOWNNAME":"東區","LI":"大福里","LIN":"27鄰","STREET":"中華東路","SECT":"三段","MAREA":" ","LANE":"５２０巷","ALLEY":" ","HOUSE_NO":"１２號","E_COORD97":169709.17999999999,"N_COORD97":2541545.75,"ADDRESS":"中華東路三段５２０巷１２號","OBJECTID":422070},"geometry":{"x":169709.18000000063,"y":2541545.7500000019}},{"attributes":{"ID":422096,"DIS_CODE":0,"TOWNNAME":"東區","LI":"大福里","LIN":"27鄰","STREET":"中華東路","SECT":"三段","MAREA":" ","LANE":"５２０巷","ALLEY":" ","HOUSE_NO":"１４號","E_COORD97":169707.39999999999,"N_COORD97":2541549.0499999998,"ADDRESS":"中華東路三段５２０巷１４號","OBJECTID":422071},"geometry":{"x":169707.40000000037,"y":2541549.0500000007}},{"attributes":{"ID":422097,"DIS_CODE":0,"TOWNNAME":"東區","LI":"大福里","LIN":"27鄰","STREET":"中華東路","SECT":"三段","MAREA":" ","LANE":"５２０巷","ALLEY":" ","HOUSE_NO":"１６號","E_COORD97":169706.38,"N_COORD97":2541553.1000000001,"ADDRESS":"中華東路三段５２０巷１６號","OBJECTID":422072},"geometry":{"x":169706.38000000082,"y":2541553.1000000015}},{"attributes":{"ID":422098,"DIS_CODE":0,"TOWNNAME":"東區","LI":"大福里","LIN":"27鄰","STREET":"中華東路","SECT":"三段","MAREA":" ","LANE":"５２０巷","ALLEY":" ","HOUSE_NO":"１８號","E_COORD97":169704.10000000001,"N_COORD97":2541556.6499999999,"ADDRESS":"中華東路三段５２０巷１８號","OBJECTID":422073},"geometry":{"x":169704.10000000149,"y":2541556.6500000022}},{"attributes":{"ID":422099,"DIS_CODE":0,"TOWNNAME":"東區","LI":"大福里","LIN":"27鄰","STREET":"中華東路","SECT":"三段","MAREA":" ","LANE":"５２０巷","ALLEY":" ","HOUSE_NO":"２０號","E_COORD97":169700.54000000001,"N_COORD97":2541560.2000000002,"ADDRESS":"中華東路三段５２０巷２０號","OBJECTID":422074},"geometry":{"x":169700.54000000097,"y":2541560.1999999993}},{"attributes":{"ID":422100,"DIS_CODE":0,"TOWNNAME":"東區","LI":"忠孝里","LIN":"1鄰","STREET":"中華東路","SECT":"三段","MAREA":" ","LANE":"３３６巷","ALLEY":" ","HOUSE_NO":"４９號","E_COORD97":170096.37,"N_COORD97":2541756.0800000001,"ADDRESS":"中華東路三段３３６巷４９號","OBJECTID":422075},"geometry":{"x":170096.37000000104,"y":2541756.0800000019}},{"attributes":{"ID":422101,"DIS_CODE":0,"TOWNNAME":"東區","LI":"忠孝里","LIN":"1鄰","STREET":"中華東路","SECT":"三段","MAREA":" ","LANE":"３３６巷","ALLEY":" ","HOUSE_NO":"５１號","E_COORD97":170092.07999999999,"N_COORD97":2541761.96,"ADDRESS":"中華東路三段３３６巷５１號","OBJECTID":422076},"geometry":{"x":170092.08000000007,"y":2541761.9600000028}},{"attributes":{"ID":422102,"DIS_CODE":0,"TOWNNAME":"東區","LI":"忠孝里","LIN":"1鄰","STREET":"中華東路","SECT":"三段","MAREA":" ","LANE":"３３６巷","ALLEY":" ","HOUSE_NO":"５３號地下一層","E_COORD97":170084.39000000001,"N_COORD97":2541747.73,"ADDRESS":"中華東路三段３３６巷５３號地下一層","OBJECTID":422077},"geometry":{"x":170084.38999999966,"y":2541747.7300000004}},{"attributes":{"ID":422103,"DIS_CODE":0,"TOWNNAME":"東區","LI":"忠孝里","LIN":"3鄰","STREET":"中華東路","SECT":"三段","MAREA":" ","LANE":"３８０巷","ALLEY":" ","HOUSE_NO":"５０號","E_COORD97":170014.53,"N_COORD97":2541690.1499999999,"ADDRESS":"中華東路三段３８０巷５０號","OBJECTID":422078},"geometry":{"x":170014.53000000026,"y":2541690.1500000004}},{"attributes":{"ID":422104,"DIS_CODE":0,"TOWNNAME":"東區","LI":"忠孝里","LIN":"3鄰","STREET":"中華東路","SECT":"三段","MAREA":" ","LANE":"３８０巷","ALLEY":" ","HOUSE_NO":"５２號","E_COORD97":170010.91,"N_COORD97":2541696.02,"ADDRESS":"中華東路三段３８０巷５２號","OBJECTID":422079},"geometry":{"x":170010.91000000201,"y":2541696.0200000014}},{"attributes":{"ID":422105,"DIS_CODE":0,"TOWNNAME":"東區","LI":"忠孝里","LIN":"3鄰","STREET":"中華東路","SECT":"三段","MAREA":" ","LANE":"３８０巷","ALLEY":" ","HOUSE_NO":"５４號","E_COORD97":170007.75,"N_COORD97":2541702.1200000001,"ADDRESS":"中華東路三段３８０巷５４號","OBJECTID":422080},"geometry":{"x":170007.75,"y":2541702.1200000048}},{"attributes":{"ID":422106,"DIS_CODE":0,"TOWNNAME":"新營區","LI":"土庫里","LIN":"1鄰","STREET":" ","SECT":" ","MAREA":"土庫","LANE":" ","ALLEY":" ","HOUSE_NO":"１號之１４","E_COORD97":182943.99693200001,"N_COORD97":2579937.9844399998,"ADDRESS":"土庫１號之１４","OBJECTID":422081},"geometry":{"x":182943.99693200085,"y":2579937.9844370019}},{"attributes":{"ID":422107,"DIS_CODE":0,"TOWNNAME":"東區","LI":"忠孝里","LIN":"3鄰","STREET":"中華東路","SECT":"三段","MAREA":" ","LANE":"３８０巷","ALLEY":" ","HOUSE_NO":"５６號","E_COORD97":170004.35000000001,"N_COORD97":2541708.2200000002,"ADDRESS":"中華東路三段３８０巷５６號","OBJECTID":422082},"geometry":{"x":170004.35000000056,"y":2541708.2200000025}},{"attributes":{"ID":422108,"DIS_CODE":0,"TOWNNAME":"東區","LI":"忠孝里","LIN":"41鄰","STREET":"崇明路","SECT":" ","MAREA":" ","LANE":"２６６巷","ALLEY":" ","HOUSE_NO":"３號","E_COORD97":169954.28,"N_COORD97":2542023.8100000001,"ADDRESS":"崇明路２６６巷３號","OBJECTID":422083},"geometry":{"x":169954.28000000212,"y":2542023.8100000024}},{"attributes":{"ID":422109,"DIS_CODE":0,"TOWNNAME":"東區","LI":"忠孝里","LIN":"41鄰","STREET":"崇明路","SECT":" ","MAREA":" ","LANE":"２６６巷","ALLEY":" ","HOUSE_NO":"５號","E_COORD97":169960.72,"N_COORD97":2542014.2599999998,"ADDRESS":"崇明路２６６巷５號","OBJECTID":422084},"geometry":{"x":169960.71999999974,"y":2542014.2599999998}},{"attributes":{"ID":422110,"DIS_CODE":0,"TOWNNAME":"東區","LI":"忠孝里","LIN":"41鄰","STREET":"崇明路","SECT":" ","MAREA":" ","LANE":"２６６巷","ALLEY":" ","HOUSE_NO":"７號","E_COORD97":169963.63,"N_COORD97":2542007.8199999998,"ADDRESS":"崇明路２６６巷７號","OBJECTID":422085},"geometry":{"x":169963.63000000082,"y":2542007.8200000003}},{"attributes":{"ID":422111,"DIS_CODE":0,"TOWNNAME":"東區","LI":"忠孝里","LIN":"41鄰","STREET":"崇明路","SECT":" ","MAREA":" ","LANE":"２６６巷","ALLEY":" ","HOUSE_NO":"９號","E_COORD97":169969.85999999999,"N_COORD97":2542002.4300000002,"ADDRESS":"崇明路２６６巷９號","OBJECTID":422086},"geometry":{"x":169969.86000000127,"y":2542002.4299999997}},{"attributes":{"ID":422112,"DIS_CODE":0,"TOWNNAME":"東區","LI":"東安里","LIN":"15鄰","STREET":"長榮路","SECT":"二段","MAREA":" ","LANE":"３２巷","ALLEY":" ","HOUSE_NO":"１６２號","E_COORD97":170184.60000000001,"N_COORD97":2543077.5299999998,"ADDRESS":"長榮路二段３２巷１６２號","OBJECTID":422087},"geometry":{"x":170184.59999999963,"y":2543077.5300000031}},{"attributes":{"ID":422113,"DIS_CODE":0,"TOWNNAME":"東區","LI":"東安里","LIN":"15鄰","STREET":"長榮路","SECT":"二段","MAREA":" ","LANE":"３２巷","ALLEY":" ","HOUSE_NO":"１６２號之１","E_COORD97":170183.31,"N_COORD97":2543068.3700000001,"ADDRESS":"長榮路二段３２巷１６２號之１","OBJECTID":422088},"geometry":{"x":170183.30999999959,"y":2543068.3700000029}},{"attributes":{"ID":422114,"DIS_CODE":0,"TOWNNAME":"東區","LI":"東安里","LIN":"15鄰","STREET":"長榮路","SECT":"二段","MAREA":" ","LANE":"３２巷","ALLEY":" ","HOUSE_NO":"１６２號之２","E_COORD97":170182.26999999999,"N_COORD97":2543058.27,"ADDRESS":"長榮路二段３２巷１６２號之２","OBJECTID":422089},"geometry":{"x":170182.26999999955,"y":2543058.2699999996}},{"attributes":{"ID":422115,"DIS_CODE":0,"TOWNNAME":"東區","LI":"東安里","LIN":"15鄰","STREET":"長榮路","SECT":"二段","MAREA":" ","LANE":"３２巷","ALLEY":" ","HOUSE_NO":"１６２號之３","E_COORD97":170176.59,"N_COORD97":2543055.1699999999,"ADDRESS":"長榮路二段３２巷１６２號之３","OBJECTID":422090},"geometry":{"x":170176.58999999985,"y":2543055.1699999999}},{"attributes":{"ID":422116,"DIS_CODE":0,"TOWNNAME":"東區","LI":"東安里","LIN":"15鄰","STREET":"長榮路","SECT":"二段","MAREA":" ","LANE":"３２巷","ALLEY":" ","HOUSE_NO":"１６２號之４","E_COORD97":170166.84,"N_COORD97":2543056.5899999999,"ADDRESS":"長榮路二段３２巷１６２號之４","OBJECTID":422091},"geometry":{"x":170166.83999999985,"y":2543056.5899999999}},{"attributes":{"ID":422117,"DIS_CODE":0,"TOWNNAME":"東區","LI":"東安里","LIN":"15鄰","STREET":"長榮路","SECT":"二段","MAREA":" ","LANE":"３２巷","ALLEY":" ","HOUSE_NO":"１６２號之５","E_COORD97":170165.35000000001,"N_COORD97":2543062.0699999998,"ADDRESS":"長榮路二段３２巷１６２號之５","OBJECTID":422092},"geometry":{"x":170165.35000000056,"y":2543062.0700000022}},{"attributes":{"ID":422118,"DIS_CODE":0,"TOWNNAME":"東區","LI":"東安里","LIN":"15鄰","STREET":"長榮路","SECT":"二段","MAREA":" ","LANE":"３２巷","ALLEY":" ","HOUSE_NO":"１６２號之６","E_COORD97":170166.26000000001,"N_COORD97":2543069.23,"ADDRESS":"長榮路二段３２巷１６２號之６","OBJECTID":422093},"geometry":{"x":170166.26000000071,"y":2543069.2300000004}},{"attributes":{"ID":422119,"DIS_CODE":0,"TOWNNAME":"東區","LI":"東安里","LIN":"15鄰","STREET":"長榮路","SECT":"二段","MAREA":" ","LANE":"３２巷","ALLEY":" ","HOUSE_NO":"１６２號之７","E_COORD97":170167.60999999999,"N_COORD97":2543076.52,"ADDRESS":"長榮路二段３２巷１６２號之７","OBJECTID":422094},"geometry":{"x":170167.61000000127,"y":2543076.5199999996}},{"attributes":{"ID":422120,"DIS_CODE":0,"TOWNNAME":"東區","LI":"東安里","LIN":"15鄰","STREET":"長榮路","SECT":"二段","MAREA":" ","LANE":"３２巷","ALLEY":" ","HOUSE_NO":"１６２號地下層","E_COORD97":170184.60000000001,"N_COORD97":2543077.5299999998,"ADDRESS":"長榮路二段３２巷１６２號地下層","OBJECTID":422095},"geometry":{"x":170184.59999999963,"y":2543077.5300000031}},{"attributes":{"ID":422121,"DIS_CODE":0,"TOWNNAME":"東區","LI":"東明里","LIN":"33鄰","STREET":"怡東路","SECT":" ","MAREA":" ","LANE":"５８巷","ALLEY":" ","HOUSE_NO":"１０號","E_COORD97":170878.48999999999,"N_COORD97":2543572.0699999998,"ADDRESS":"怡東路５８巷１０號","OBJECTID":422096},"geometry":{"x":170878.49000000209,"y":2543572.0700000003}},{"attributes":{"ID":422122,"DIS_CODE":0,"TOWNNAME":"東區","LI":"東明里","LIN":"33鄰","STREET":"怡東路","SECT":" ","MAREA":" ","LANE":"５８巷","ALLEY":" ","HOUSE_NO":"４號","E_COORD97":170857.31,"N_COORD97":2543576.8300000001,"ADDRESS":"怡東路５８巷４號","OBJECTID":422097},"geometry":{"x":170857.31000000052,"y":2543576.8300000001}},{"attributes":{"ID":422123,"DIS_CODE":0,"TOWNNAME":"東區","LI":"東明里","LIN":"33鄰","STREET":"怡東路","SECT":" ","MAREA":" ","LANE":"５８巷","ALLEY":" ","HOUSE_NO":"６號","E_COORD97":170863.84,"N_COORD97":2543575.0699999998,"ADDRESS":"怡東路５８巷６號","OBJECTID":422098},"geometry":{"x":170863.84000000171,"y":2543575.0700000003}},{"attributes":{"ID":422124,"DIS_CODE":0,"TOWNNAME":"東區","LI":"東明里","LIN":"33鄰","STREET":"怡東路","SECT":" ","MAREA":" ","LANE":"５８巷","ALLEY":" ","HOUSE_NO":"８號","E_COORD97":170873.20000000001,"N_COORD97":2543572.9500000002,"ADDRESS":"怡東路５８巷８號","OBJECTID":422099},"geometry":{"x":170873.20000000019,"y":2543572.950000003}},{"attributes":{"ID":422125,"DIS_CODE":0,"TOWNNAME":"東區","LI":"虎尾里","LIN":"11鄰","STREET":"東門路","SECT":"三段","MAREA":" ","LANE":"１７９巷","ALLEY":" ","HOUSE_NO":"１０７號","E_COORD97":171646.67999999999,"N_COORD97":2542034.0800000001,"ADDRESS":"東門路三段１７９巷１０７號","OBJECTID":422100},"geometry":{"x":171646.68000000063,"y":2542034.0800000019}},{"attributes":{"ID":422126,"DIS_CODE":0,"TOWNNAME":"東區","LI":"虎尾里","LIN":"11鄰","STREET":"東門路","SECT":"三段","MAREA":" ","LANE":"１７９巷","ALLEY":" ","HOUSE_NO":"１０９號","E_COORD97":171658.44,"N_COORD97":2542031.8799999999,"ADDRESS":"東門路三段１７９巷１０９號","OBJECTID":422101},"geometry":{"x":171658.44000000041,"y":2542031.8800000008}},{"attributes":{"ID":422127,"DIS_CODE":0,"TOWNNAME":"東區","LI":"虎尾里","LIN":"11鄰","STREET":"東門路","SECT":"三段","MAREA":" ","LANE":"１７９巷","ALLEY":" ","HOUSE_NO":"１１１號","E_COORD97":171668.98000000001,"N_COORD97":2542032.6099999999,"ADDRESS":"東門路三段１７９巷１１１號","OBJECTID":422102},"geometry":{"x":171668.98000000138,"y":2542032.6100000031}},{"attributes":{"ID":422128,"DIS_CODE":0,"TOWNNAME":"東區","LI":"虎尾里","LIN":"12鄰","STREET":"富農街","SECT":"一段","MAREA":" ","LANE":"３６巷","ALLEY":" ","HOUSE_NO":"１０號","E_COORD97":171538.32999999999,"N_COORD97":2542069.8700000001,"ADDRESS":"富農街一段３６巷１０號","OBJECTID":422103},"geometry":{"x":171538.33000000007,"y":2542069.8700000048}},{"attributes":{"ID":422129,"DIS_CODE":0,"TOWNNAME":"東區","LI":"虎尾里","LIN":"12鄰","STREET":"富農街","SECT":"一段","MAREA":" ","LANE":"３６巷","ALLEY":" ","HOUSE_NO":"１１號","E_COORD97":171545.34,"N_COORD97":2542098.6200000001,"ADDRESS":"富農街一段３６巷１１號","OBJECTID":422104},"geometry":{"x":171545.34000000171,"y":2542098.6199999992}},{"attributes":{"ID":422130,"DIS_CODE":0,"TOWNNAME":"東區","LI":"虎尾里","LIN":"12鄰","STREET":"富農街","SECT":"一段","MAREA":" ","LANE":"３６巷","ALLEY":" ","HOUSE_NO":"１２號","E_COORD97":171541.75,"N_COORD97":2542070.7200000002,"ADDRESS":"富農街一段３６巷１２號","OBJECTID":422105},"geometry":{"x":171541.75000000093,"y":2542070.7200000044}},{"attributes":{"ID":422131,"DIS_CODE":0,"TOWNNAME":"東區","LI":"虎尾里","LIN":"12鄰","STREET":"富農街","SECT":"一段","MAREA":" ","LANE":"３６巷","ALLEY":" ","HOUSE_NO":"１３號","E_COORD97":171550.63,"N_COORD97":2542099.8100000001,"ADDRESS":"富農街一段３６巷１３號","OBJECTID":422106},"geometry":{"x":171550.63000000082,"y":2542099.8100000005}},{"attributes":{"ID":422132,"DIS_CODE":0,"TOWNNAME":"東區","LI":"虎尾里","LIN":"12鄰","STREET":"富農街","SECT":"一段","MAREA":" ","LANE":"３６巷","ALLEY":" ","HOUSE_NO":"１５號","E_COORD97":171556.10000000001,"N_COORD97":2542101.1800000002,"ADDRESS":"富農街一段３６巷１５號","OBJECTID":422107},"geometry":{"x":171556.09999999963,"y":2542101.1800000016}},{"attributes":{"ID":422133,"DIS_CODE":0,"TOWNNAME":"東區","LI":"虎尾里","LIN":"12鄰","STREET":"富農街","SECT":"一段","MAREA":" ","LANE":"３６巷","ALLEY":" ","HOUSE_NO":"１６號","E_COORD97":171557.29000000001,"N_COORD97":2542079.9300000002,"ADDRESS":"富農街一段３６巷１６號","OBJECTID":422108},"geometry":{"x":171557.29000000004,"y":2542079.9300000016}},{"attributes":{"ID":422134,"DIS_CODE":0,"TOWNNAME":"東區","LI":"虎尾里","LIN":"12鄰","STREET":"富農街","SECT":"一段","MAREA":" ","LANE":"３６巷","ALLEY":" ","HOUSE_NO":"１８號","E_COORD97":171553.54000000001,"N_COORD97":2542065.9399999999,"ADDRESS":"富農街一段３６巷１８號","OBJECTID":422109},"geometry":{"x":171553.54000000004,"y":2542065.9400000013}},{"attributes":{"ID":422135,"DIS_CODE":0,"TOWNNAME":"東區","LI":"虎尾里","LIN":"12鄰","STREET":"富農街","SECT":"一段","MAREA":" ","LANE":"３６巷","ALLEY":" ","HOUSE_NO":"１號","E_COORD97":171516.81,"N_COORD97":2542094.8700000001,"ADDRESS":"富農街一段３６巷１號","OBJECTID":422110},"geometry":{"x":171516.81000000052,"y":2542094.8700000029}},{"attributes":{"ID":422136,"DIS_CODE":0,"TOWNNAME":"東區","LI":"虎尾里","LIN":"12鄰","STREET":"富農街","SECT":"一段","MAREA":" ","LANE":"３６巷","ALLEY":" ","HOUSE_NO":"２０號","E_COORD97":171561.39000000001,"N_COORD97":2542068.8399999999,"ADDRESS":"富農街一段３６巷２０號","OBJECTID":422111},"geometry":{"x":171561.38999999966,"y":2542068.8400000036}},{"attributes":{"ID":422137,"DIS_CODE":0,"TOWNNAME":"東區","LI":"復興里","LIN":"20鄰","STREET":"東成街","SECT":" ","MAREA":" ","LANE":"２０１巷","ALLEY":" ","HOUSE_NO":"２０號","E_COORD97":171862.01999999999,"N_COORD97":2542366.9900000002,"ADDRESS":"東成街２０１巷２０號","OBJECTID":422112},"geometry":{"x":171862.01999999955,"y":2542366.9900000021}},{"attributes":{"ID":422138,"DIS_CODE":0,"TOWNNAME":"新營區","LI":"土庫里","LIN":"1鄰","STREET":" ","SECT":" ","MAREA":"土庫","LANE":" ","ALLEY":" ","HOUSE_NO":"１號之１５","E_COORD97":182940.39493400001,"N_COORD97":2579939.2544399998,"ADDRESS":"土庫１號之１５","OBJECTID":422113},"geometry":{"x":182940.39493400138,"y":2579939.2544370014}},{"attributes":{"ID":422139,"DIS_CODE":0,"TOWNNAME":"東區","LI":"虎尾里","LIN":"12鄰","STREET":"富農街","SECT":"一段","MAREA":" ","LANE":"３６巷","ALLEY":" ","HOUSE_NO":"２２號","E_COORD97":171573.69,"N_COORD97":2542071.7400000002,"ADDRESS":"富農街一段３６巷２２號","OBJECTID":422114},"geometry":{"x":171573.69000000041,"y":2542071.7400000002}},{"attributes":{"ID":422140,"DIS_CODE":0,"TOWNNAME":"東區","LI":"虎尾里","LIN":"12鄰","STREET":"富農街","SECT":"一段","MAREA":" ","LANE":"３６巷","ALLEY":" ","HOUSE_NO":"２４號","E_COORD97":171581.89000000001,"N_COORD97":2542073.1099999999,"ADDRESS":"富農街一段３６巷２４號","OBJECTID":422115},"geometry":{"x":171581.88999999966,"y":2542073.1099999994}},{"attributes":{"ID":422141,"DIS_CODE":0,"TOWNNAME":"東區","LI":"虎尾里","LIN":"12鄰","STREET":"富農街","SECT":"一段","MAREA":" ","LANE":"３６巷","ALLEY":" ","HOUSE_NO":"２６號","E_COORD97":171571.64000000001,"N_COORD97":2542083.52,"ADDRESS":"富農街一段３６巷２６號","OBJECTID":422116},"geometry":{"x":171571.63999999966,"y":2542083.5199999996}},{"attributes":{"ID":422142,"DIS_CODE":0,"TOWNNAME":"東區","LI":"虎尾里","LIN":"12鄰","STREET":"富農街","SECT":"一段","MAREA":" ","LANE":"３６巷","ALLEY":" ","HOUSE_NO":"２８號","E_COORD97":171578.98999999999,"N_COORD97":2542085.0499999998,"ADDRESS":"富農街一段３６巷２８號","OBJECTID":422117},"geometry":{"x":171578.99000000115,"y":2542085.0500000007}},{"attributes":{"ID":422143,"DIS_CODE":0,"TOWNNAME":"東區","LI":"虎尾里","LIN":"12鄰","STREET":"富農街","SECT":"一段","MAREA":" ","LANE":"３６巷","ALLEY":" ","HOUSE_NO":"２號","E_COORD97":171522.91,"N_COORD97":2542065.8599999999,"ADDRESS":"富農街一段３６巷２號","OBJECTID":422118},"geometry":{"x":171522.91000000015,"y":2542065.8600000013}},{"attributes":{"ID":422144,"DIS_CODE":0,"TOWNNAME":"東區","LI":"虎尾里","LIN":"12鄰","STREET":"富農街","SECT":"一段","MAREA":" ","LANE":"３６巷","ALLEY":" ","HOUSE_NO":"３號","E_COORD97":171522.95999999999,"N_COORD97":2542096.23,"ADDRESS":"富農街一段３６巷３號","OBJECTID":422119},"geometry":{"x":171522.96000000089,"y":2542096.2300000004}},{"attributes":{"ID":422145,"DIS_CODE":0,"TOWNNAME":"東區","LI":"虎尾里","LIN":"12鄰","STREET":"富農街","SECT":"一段","MAREA":" ","LANE":"３６巷","ALLEY":" ","HOUSE_NO":"４號","E_COORD97":171526.79000000001,"N_COORD97":2542067.4900000002,"ADDRESS":"富農街一段３６巷４號","OBJECTID":422120},"geometry":{"x":171526.79000000004,"y":2542067.4900000002}},{"attributes":{"ID":422146,"DIS_CODE":0,"TOWNNAME":"東區","LI":"虎尾里","LIN":"12鄰","STREET":"富農街","SECT":"一段","MAREA":" ","LANE":"３６巷","ALLEY":" ","HOUSE_NO":"５號","E_COORD97":171528.94,"N_COORD97":2542096.3999999999,"ADDRESS":"富農街一段３６巷５號","OBJECTID":422121},"geometry":{"x":171528.94000000134,"y":2542096.4000000041}},{"attributes":{"ID":422147,"DIS_CODE":0,"TOWNNAME":"東區","LI":"虎尾里","LIN":"12鄰","STREET":"富農街","SECT":"一段","MAREA":" ","LANE":"３６巷","ALLEY":" ","HOUSE_NO":"６號","E_COORD97":171530.48000000001,"N_COORD97":2542068.1600000001,"ADDRESS":"富農街一段３６巷６號","OBJECTID":422122},"geometry":{"x":171530.48000000138,"y":2542068.160000002}},{"attributes":{"ID":422148,"DIS_CODE":0,"TOWNNAME":"東區","LI":"虎尾里","LIN":"12鄰","STREET":"富農街","SECT":"一段","MAREA":" ","LANE":"３６巷","ALLEY":" ","HOUSE_NO":"７號","E_COORD97":171534.57999999999,"N_COORD97":2542095.8900000001,"ADDRESS":"富農街一段３６巷７號","OBJECTID":422123},"geometry":{"x":171534.58000000007,"y":2542095.8900000006}},{"attributes":{"ID":422149,"DIS_CODE":0,"TOWNNAME":"東區","LI":"虎尾里","LIN":"12鄰","STREET":"富農街","SECT":"一段","MAREA":" ","LANE":"３６巷","ALLEY":" ","HOUSE_NO":"８號","E_COORD97":171534.57999999999,"N_COORD97":2542068.5,"ADDRESS":"富農街一段３６巷８號","OBJECTID":422124},"geometry":{"x":171534.58000000007,"y":2542068.5000000019}},{"attributes":{"ID":422150,"DIS_CODE":0,"TOWNNAME":"東區","LI":"虎尾里","LIN":"19鄰","STREET":"東成街","SECT":" ","MAREA":" ","LANE":"２８巷","ALLEY":" ","HOUSE_NO":"１６號","E_COORD97":171338.48000000001,"N_COORD97":2542209.7799999998,"ADDRESS":"東成街２８巷１６號","OBJECTID":422125},"geometry":{"x":171338.48000000138,"y":2542209.7799999993}},{"attributes":{"ID":422151,"DIS_CODE":0,"TOWNNAME":"東區","LI":"虎尾里","LIN":"19鄰","STREET":"東成街","SECT":" ","MAREA":" ","LANE":"２８巷","ALLEY":" ","HOUSE_NO":"１８號","E_COORD97":171344.85000000001,"N_COORD97":2542205.1200000001,"ADDRESS":"東成街２８巷１８號","OBJECTID":422126},"geometry":{"x":171344.8499999987,"y":2542205.1200000029}},{"attributes":{"ID":422152,"DIS_CODE":0,"TOWNNAME":"東區","LI":"虎尾里","LIN":"19鄰","STREET":"東成街","SECT":" ","MAREA":" ","LANE":"２８巷","ALLEY":" ","HOUSE_NO":"４號","E_COORD97":171310.26999999999,"N_COORD97":2542232.8100000001,"ADDRESS":"東成街２８巷４號","OBJECTID":422127},"geometry":{"x":171310.27000000048,"y":2542232.8100000042}},{"attributes":{"ID":422153,"DIS_CODE":0,"TOWNNAME":"東區","LI":"虎尾里","LIN":"19鄰","STREET":"東成街","SECT":" ","MAREA":" ","LANE":"２８巷","ALLEY":" ","HOUSE_NO":"６號","E_COORD97":171317.14000000001,"N_COORD97":2542227.0499999998,"ADDRESS":"東成街２８巷６號","OBJECTID":422128},"geometry":{"x":171317.13999999966,"y":2542227.0500000007}},{"attributes":{"ID":422154,"DIS_CODE":0,"TOWNNAME":"東區","LI":"虎尾里","LIN":"19鄰","STREET":"東成街","SECT":" ","MAREA":" ","LANE":"２８巷","ALLEY":" ","HOUSE_NO":"８號","E_COORD97":171320.32999999999,"N_COORD97":2542224.8500000001,"ADDRESS":"東成街２８巷８號","OBJECTID":422129},"geometry":{"x":171320.33000000101,"y":2542224.8500000034}},{"attributes":{"ID":422155,"DIS_CODE":0,"TOWNNAME":"東區","LI":"復興里","LIN":"23鄰","STREET":"富農街","SECT":"一段","MAREA":" ","LANE":"１８８巷","ALLEY":" ","HOUSE_NO":"１４５號","E_COORD97":171739.87,"N_COORD97":2542414.29,"ADDRESS":"富農街一段１８８巷１４５號","OBJECTID":422130},"geometry":{"x":171739.87000000011,"y":2542414.2900000028}},{"attributes":{"ID":422156,"DIS_CODE":0,"TOWNNAME":"東區","LI":"復興里","LIN":"23鄰","STREET":"富農街","SECT":"一段","MAREA":" ","LANE":"１８８巷","ALLEY":" ","HOUSE_NO":"６３號","E_COORD97":171730.97,"N_COORD97":2542535.1400000001,"ADDRESS":"富農街一段１８８巷６３號","OBJECTID":422131},"geometry":{"x":171730.97000000067,"y":2542535.1400000006}},{"attributes":{"ID":422157,"DIS_CODE":0,"TOWNNAME":"東區","LI":"復興里","LIN":"23鄰","STREET":"富農街","SECT":"一段","MAREA":" ","LANE":"１８８巷","ALLEY":" ","HOUSE_NO":"６５號","E_COORD97":171731.53,"N_COORD97":2542530.73,"ADDRESS":"富農街一段１８８巷６５號","OBJECTID":422132},"geometry":{"x":171731.53000000119,"y":2542530.7300000004}},{"attributes":{"ID":422158,"DIS_CODE":0,"TOWNNAME":"東區","LI":"復興里","LIN":"23鄰","STREET":"富農街","SECT":"一段","MAREA":" ","LANE":"１８８巷","ALLEY":" ","HOUSE_NO":"６７號","E_COORD97":171731.97,"N_COORD97":2542525.6400000001,"ADDRESS":"富農街一段１８８巷６７號","OBJECTID":422133},"geometry":{"x":171731.96999999974,"y":2542525.6400000043}},{"attributes":{"ID":422159,"DIS_CODE":0,"TOWNNAME":"東區","LI":"復興里","LIN":"23鄰","STREET":"富農街","SECT":"一段","MAREA":" ","LANE":"１８８巷","ALLEY":" ","HOUSE_NO":"６９號","E_COORD97":171732.23000000001,"N_COORD97":2542518.7799999998,"ADDRESS":"富農街一段１８８巷６９號","OBJECTID":422134},"geometry":{"x":171732.23000000138,"y":2542518.7799999993}},{"attributes":{"ID":422160,"DIS_CODE":0,"TOWNNAME":"東區","LI":"復興里","LIN":"23鄰","STREET":"富農街","SECT":"一段","MAREA":" ","LANE":"１８８巷","ALLEY":" ","HOUSE_NO":"７１號","E_COORD97":171734.17999999999,"N_COORD97":2542508.52,"ADDRESS":"富農街一段１８８巷７１號","OBJECTID":422135},"geometry":{"x":171734.1799999997,"y":2542508.5200000014}},{"attributes":{"ID":422161,"DIS_CODE":0,"TOWNNAME":"東區","LI":"復興里","LIN":"23鄰","STREET":"富農街","SECT":"一段","MAREA":" ","LANE":"１８８巷","ALLEY":" ","HOUSE_NO":"７３號","E_COORD97":171741.29000000001,"N_COORD97":2542509.3999999999,"ADDRESS":"富農街一段１８８巷７３號","OBJECTID":422136},"geometry":{"x":171741.29000000097,"y":2542509.4000000004}},{"attributes":{"ID":422162,"DIS_CODE":0,"TOWNNAME":"東區","LI":"復興里","LIN":"23鄰","STREET":"富農街","SECT":"一段","MAREA":" ","LANE":"１８８巷","ALLEY":" ","HOUSE_NO":"７５號","E_COORD97":171748.20999999999,"N_COORD97":2542510.4100000001,"ADDRESS":"富農街一段１８８巷７５號","OBJECTID":422137},"geometry":{"x":171748.21000000089,"y":2542510.410000002}},{"attributes":{"ID":422163,"DIS_CODE":0,"TOWNNAME":"東區","LI":"復興里","LIN":"23鄰","STREET":"富農街","SECT":"一段","MAREA":" ","LANE":"１８８巷","ALLEY":" ","HOUSE_NO":"７７號","E_COORD97":171754.88,"N_COORD97":2542511.73,"ADDRESS":"富農街一段１８８巷７７號","OBJECTID":422138},"geometry":{"x":171754.87999999989,"y":2542511.7300000023}},{"attributes":{"ID":422164,"DIS_CODE":0,"TOWNNAME":"東區","LI":"復興里","LIN":"23鄰","STREET":"富農街","SECT":"一段","MAREA":" ","LANE":"１８８巷","ALLEY":" ","HOUSE_NO":"７９號","E_COORD97":171761.42000000001,"N_COORD97":2542512.6099999999,"ADDRESS":"富農街一段１８８巷７９號","OBJECTID":422139},"geometry":{"x":171761.41999999993,"y":2542512.6099999994}},{"attributes":{"ID":422165,"DIS_CODE":0,"TOWNNAME":"東區","LI":"復興里","LIN":"23鄰","STREET":"富農街","SECT":"一段","MAREA":" ","LANE":"１８８巷","ALLEY":" ","HOUSE_NO":"８１號","E_COORD97":171767.51999999999,"N_COORD97":2542513.5600000001,"ADDRESS":"富農街一段１８８巷８１號","OBJECTID":422140},"geometry":{"x":171767.52000000142,"y":2542513.5600000024}},{"attributes":{"ID":422166,"DIS_CODE":0,"TOWNNAME":"東區","LI":"復興里","LIN":"23鄰","STREET":"富農街","SECT":"一段","MAREA":" ","LANE":"１８８巷","ALLEY":" ","HOUSE_NO":"８３號","E_COORD97":171735.62,"N_COORD97":2542496.9500000002,"ADDRESS":"富農街一段１８８巷８３號","OBJECTID":422141},"geometry":{"x":171735.62000000104,"y":2542496.9499999993}},{"attributes":{"ID":422167,"DIS_CODE":0,"TOWNNAME":"下營區","LI":"仁里里","LIN":"5鄰","STREET":"仁中街","SECT":" ","MAREA":" ","LANE":"４３巷","ALLEY":" ","HOUSE_NO":"１號","E_COORD97":174410.97,"N_COORD97":2569807.5699999998,"ADDRESS":"仁中街４３巷１號","OBJECTID":422142},"geometry":{"x":174410.9700000016,"y":2569807.5700000003}},{"attributes":{"ID":422168,"DIS_CODE":0,"TOWNNAME":"永康區","LI":"尚頂里","LIN":"25鄰","STREET":"南台街","SECT":" ","MAREA":" ","LANE":"１５４巷","ALLEY":" ","HOUSE_NO":"１５號","E_COORD97":170088.95999999999,"N_COORD97":2547098.2599999998,"ADDRESS":"南台街１５４巷１５號","OBJECTID":422143},"geometry":{"x":170088.96000000089,"y":2547098.2600000016}},{"attributes":{"ID":422169,"DIS_CODE":0,"TOWNNAME":"永康區","LI":"西灣里","LIN":"32鄰","STREET":"國光八街","SECT":" ","MAREA":" ","LANE":"９０巷","ALLEY":" ","HOUSE_NO":"１２號","E_COORD97":174201.48000000001,"N_COORD97":2545817.5,"ADDRESS":"國光八街９０巷１２號","OBJECTID":422144},"geometry":{"x":174201.48000000138,"y":2545817.4999999981}},{"attributes":{"ID":422170,"DIS_CODE":0,"TOWNNAME":"永康區","LI":"西灣里","LIN":"17鄰","STREET":"永大路","SECT":"二段","MAREA":" ","LANE":"５５６巷","ALLEY":" ","HOUSE_NO":"９號","E_COORD97":174436.16,"N_COORD97":2545437.02,"ADDRESS":"永大路二段５５６巷９號","OBJECTID":422145},"geometry":{"x":174436.16000000108,"y":2545437.0199999996}},{"attributes":{"ID":422171,"DIS_CODE":0,"TOWNNAME":"永康區","LI":"西灣里","LIN":"12鄰","STREET":"永大路","SECT":"二段","MAREA":" ","LANE":"５５６巷","ALLEY":" ","HOUSE_NO":"４６號","E_COORD97":174515.01000000001,"N_COORD97":2545392.7400000002,"ADDRESS":"永大路二段５５６巷４６號","OBJECTID":422146},"geometry":{"x":174515.00999999978,"y":2545392.7400000039}},{"attributes":{"ID":422172,"DIS_CODE":0,"TOWNNAME":"永康區","LI":"西灣里","LIN":"25鄰","STREET":"國光七街","SECT":" ","MAREA":" ","LANE":"６巷","ALLEY":" ","HOUSE_NO":"７號之１７","E_COORD97":174369.45999999999,"N_COORD97":2545612.1400000001,"ADDRESS":"國光七街６巷７號之１７","OBJECTID":422147},"geometry":{"x":174369.46000000089,"y":2545612.1400000025}},{"attributes":{"ID":422173,"DIS_CODE":0,"TOWNNAME":"永康區","LI":"西灣里","LIN":"24鄰","STREET":"國光七街","SECT":" ","MAREA":" ","LANE":"６巷","ALLEY":" ","HOUSE_NO":"２８號","E_COORD97":174392.04999999999,"N_COORD97":2545641.2000000002,"ADDRESS":"國光七街６巷２８號","OBJECTID":422148},"geometry":{"x":174392.05000000075,"y":2545641.1999999993}},{"attributes":{"ID":422174,"DIS_CODE":0,"TOWNNAME":"永康區","LI":"西灣里","LIN":"15鄰","STREET":"南灣街","SECT":" ","MAREA":" ","LANE":"１３８巷","ALLEY":" ","HOUSE_NO":"５５號","E_COORD97":174390.20999999999,"N_COORD97":2545183.9100000001,"ADDRESS":"南灣街１３８巷５５號","OBJECTID":422149},"geometry":{"x":174390.20999999996,"y":2545183.9100000001}},{"attributes":{"ID":422175,"DIS_CODE":0,"TOWNNAME":"永康區","LI":"西灣里","LIN":"25鄰","STREET":"國光七街","SECT":" ","MAREA":" ","LANE":"２０巷","ALLEY":" ","HOUSE_NO":"１６號","E_COORD97":174327.17000000001,"N_COORD97":2545577.0099999998,"ADDRESS":"國光七街２０巷１６號","OBJECTID":422150},"geometry":{"x":174327.17000000086,"y":2545577.0100000035}},{"attributes":{"ID":422176,"DIS_CODE":0,"TOWNNAME":"永康區","LI":"尚頂里","LIN":"33鄰","STREET":"中正南路","SECT":" ","MAREA":" ","LANE":"３４９巷","ALLEY":" ","HOUSE_NO":"３號","E_COORD97":170417.79000000001,"N_COORD97":2547783.25,"ADDRESS":"中正南路３４９巷３號","OBJECTID":422151},"geometry":{"x":170417.79000000004,"y":2547783.2500000019}},{"attributes":{"ID":422177,"DIS_CODE":0,"TOWNNAME":"永康區","LI":"西灣里","LIN":"30鄰","STREET":"國光八街","SECT":" ","MAREA":" ","LANE":"６０巷","ALLEY":" ","HOUSE_NO":"１８號","E_COORD97":174271.79999999999,"N_COORD97":2545819.2599999998,"ADDRESS":"國光八街６０巷１８號","OBJECTID":422152},"geometry":{"x":174271.80000000075,"y":2545819.2600000035}},{"attributes":{"ID":422178,"DIS_CODE":0,"TOWNNAME":"永康區","LI":"尚頂里","LIN":"12鄰","STREET":"尚頂路","SECT":" ","MAREA":" ","LANE":"５２巷","ALLEY":" ","HOUSE_NO":"１１號","E_COORD97":171247.34,"N_COORD97":2547546.6800000002,"ADDRESS":"尚頂路５２巷１１號","OBJECTID":422153},"geometry":{"x":171247.34000000078,"y":2547546.6800000016}},{"attributes":{"ID":422179,"DIS_CODE":0,"TOWNNAME":"永康區","LI":"尚頂里","LIN":"9鄰","STREET":"正南一街","SECT":" ","MAREA":" ","LANE":"１２９巷","ALLEY":" ","HOUSE_NO":"２２號","E_COORD97":170795.69,"N_COORD97":2547195.9500000002,"ADDRESS":"正南一街１２９巷２２號","OBJECTID":422154},"geometry":{"x":170795.69000000041,"y":2547195.9499999993}},{"attributes":{"ID":422180,"DIS_CODE":0,"TOWNNAME":"永康區","LI":"尚頂里","LIN":"11鄰","STREET":"正南一街","SECT":" ","MAREA":" ","LANE":"５７巷","ALLEY":" ","HOUSE_NO":"９２號","E_COORD97":171364.78,"N_COORD97":2547320.4700000002,"ADDRESS":"正南一街５７巷９２號","OBJECTID":422155},"geometry":{"x":171364.78000000212,"y":2547320.4699999988}},{"attributes":{"ID":422181,"DIS_CODE":0,"TOWNNAME":"永康區","LI":"西灣里","LIN":"24鄰","STREET":"國光七街","SECT":" ","MAREA":" ","LANE":"６巷","ALLEY":" ","HOUSE_NO":"８號之７","E_COORD97":174374.04000000001,"N_COORD97":2545575.4900000002,"ADDRESS":"國光七街６巷８號之７","OBJECTID":422156},"geometry":{"x":174374.04000000097,"y":2545575.4900000021}},{"attributes":{"ID":422182,"DIS_CODE":0,"TOWNNAME":"永康區","LI":"西灣里","LIN":"17鄰","STREET":"永大路","SECT":"二段","MAREA":" ","LANE":"５５６巷","ALLEY":" ","HOUSE_NO":"１１號","E_COORD97":174444.31,"N_COORD97":2545438.52,"ADDRESS":"永大路二段５５６巷１１號","OBJECTID":422157},"geometry":{"x":174444.31000000052,"y":2545438.5200000014}},{"attributes":{"ID":422183,"DIS_CODE":0,"TOWNNAME":"永康區","LI":"埔園里","LIN":"30鄰","STREET":"八德街","SECT":" ","MAREA":" ","LANE":"１９９巷","ALLEY":" ","HOUSE_NO":"２０號","E_COORD97":173809.32000000001,"N_COORD97":2548495.02,"ADDRESS":"八德街１９９巷２０號","OBJECTID":422158},"geometry":{"x":173809.32000000123,"y":2548495.0199999996}},{"attributes":{"ID":422184,"DIS_CODE":0,"TOWNNAME":"永康區","LI":"南灣里","LIN":"10鄰","STREET":"大灣東路","SECT":" ","MAREA":" ","LANE":"２２巷","ALLEY":" ","HOUSE_NO":"２０號","E_COORD97":174067.70999999999,"N_COORD97":2544178.4900000002,"ADDRESS":"大灣東路２２巷２０號","OBJECTID":422159},"geometry":{"x":174067.71000000089,"y":2544178.4900000021}},{"attributes":{"ID":422185,"DIS_CODE":0,"TOWNNAME":"永康區","LI":"尚頂里","LIN":"29鄰","STREET":"南台街","SECT":" ","MAREA":" ","LANE":"７５巷","ALLEY":" ","HOUSE_NO":"４１號","E_COORD97":170256.73000000001,"N_COORD97":2546976.9900000002,"ADDRESS":"南台街７５巷４１號","OBJECTID":422160},"geometry":{"x":170256.73000000231,"y":2546976.9900000002}},{"attributes":{"ID":422186,"DIS_CODE":0,"TOWNNAME":"永康區","LI":"西灣里","LIN":"26鄰","STREET":"國光八街","SECT":" ","MAREA":" ","LANE":"４１巷","ALLEY":" ","HOUSE_NO":"２４號","E_COORD97":174335.35999999999,"N_COORD97":2545706.75,"ADDRESS":"國光八街４１巷２４號","OBJECTID":422161},"geometry":{"x":174335.36000000034,"y":2545706.75}},{"attributes":{"ID":422187,"DIS_CODE":0,"TOWNNAME":"永康區","LI":"西灣里","LIN":"45鄰","STREET":"永華路","SECT":" ","MAREA":" ","LANE":"２０１巷","ALLEY":" ","HOUSE_NO":"２８號","E_COORD97":174013.38,"N_COORD97":2545626.7999999998,"ADDRESS":"永華路２０１巷２８號","OBJECTID":422162},"geometry":{"x":174013.38000000082,"y":2545626.8000000045}},{"attributes":{"ID":422188,"DIS_CODE":0,"TOWNNAME":"永康區","LI":"東橋里","LIN":"2鄰","STREET":"大橋一街","SECT":" ","MAREA":" ","LANE":"３２４巷","ALLEY":" ","HOUSE_NO":"１４號","E_COORD97":171327.67999999999,"N_COORD97":2546626.29,"ADDRESS":"大橋一街３２４巷１４號","OBJECTID":422163},"geometry":{"x":171327.68000000063,"y":2546626.290000001}},{"attributes":{"ID":422189,"DIS_CODE":0,"TOWNNAME":"永康區","LI":"西灣里","LIN":"24鄰","STREET":"國光七街","SECT":" ","MAREA":" ","LANE":"６巷","ALLEY":" ","HOUSE_NO":"２２號","E_COORD97":174388.76000000001,"N_COORD97":2545628.9500000002,"ADDRESS":"國光七街６巷２２號","OBJECTID":422164},"geometry":{"x":174388.76000000071,"y":2545628.9500000011}},{"attributes":{"ID":422190,"DIS_CODE":0,"TOWNNAME":"永康區","LI":"尚頂里","LIN":"17鄰","STREET":"中正南路","SECT":" ","MAREA":" ","LANE":"２１０巷","ALLEY":" ","HOUSE_NO":"９號","E_COORD97":170175.41,"N_COORD97":2547156.5299999998,"ADDRESS":"中正南路２１０巷９號","OBJECTID":422165},"geometry":{"x":170175.41000000201,"y":2547156.5300000012}},{"attributes":{"ID":422191,"DIS_CODE":0,"TOWNNAME":"永康區","LI":"尚頂里","LIN":"12鄰","STREET":"正南一街","SECT":" ","MAREA":" ","LANE":"９２巷","ALLEY":" ","HOUSE_NO":"３８號","E_COORD97":171119.17999999999,"N_COORD97":2547381.23,"ADDRESS":"正南一街９２巷３８號","OBJECTID":422166},"geometry":{"x":171119.18000000063,"y":2547381.2300000023}},{"attributes":{"ID":422192,"DIS_CODE":0,"TOWNNAME":"永康區","LI":"尚頂里","LIN":"15鄰","STREET":"中正南路","SECT":" ","MAREA":" ","LANE":"２４２巷","ALLEY":" ","HOUSE_NO":"１３號","E_COORD97":170485.07000000001,"N_COORD97":2547483.25,"ADDRESS":"中正南路２４２巷１３號","OBJECTID":422167},"geometry":{"x":170485.07000000123,"y":2547483.25}},{"attributes":{"ID":422193,"DIS_CODE":0,"TOWNNAME":"永康區","LI":"尚頂里","LIN":"3鄰","STREET":"中正二街","SECT":" ","MAREA":" ","LANE":"１６２巷","ALLEY":" ","HOUSE_NO":"３５號","E_COORD97":171392.73000000001,"N_COORD97":2547526.7000000002,"ADDRESS":"中正二街１６２巷３５號","OBJECTID":422168},"geometry":{"x":171392.73000000138,"y":2547526.6999999993}},{"attributes":{"ID":422194,"DIS_CODE":0,"TOWNNAME":"永康區","LI":"建國里","LIN":"1鄰","STREET":"復興路","SECT":" ","MAREA":" ","LANE":"２６巷","ALLEY":" ","HOUSE_NO":"５１之２號","E_COORD97":173040.76000000001,"N_COORD97":2544765.0499999998,"ADDRESS":"復興路２６巷５１之２號","OBJECTID":422169},"geometry":{"x":173040.75999999978,"y":2544765.0500000026}},{"attributes":{"ID":422195,"DIS_CODE":0,"TOWNNAME":"永康區","LI":"西灣里","LIN":"39鄰","STREET":"永華路","SECT":" ","MAREA":" ","LANE":"２１２巷","ALLEY":" ","HOUSE_NO":"３號","E_COORD97":174128.91,"N_COORD97":2545493.27,"ADDRESS":"永華路２１２巷３號","OBJECTID":422170},"geometry":{"x":174128.91000000108,"y":2545493.2700000033}},{"attributes":{"ID":422196,"DIS_CODE":0,"TOWNNAME":"永康區","LI":"西灣里","LIN":"13鄰","STREET":"民族路","SECT":" ","MAREA":" ","LANE":"４８１巷","ALLEY":" ","HOUSE_NO":"１６號","E_COORD97":174570.26999999999,"N_COORD97":2545396.54,"ADDRESS":"民族路４８１巷１６號","OBJECTID":422171},"geometry":{"x":174570.27000000048,"y":2545396.540000001}},{"attributes":{"ID":422197,"DIS_CODE":0,"TOWNNAME":"永康區","LI":"埔園里","LIN":"35鄰","STREET":"八德街","SECT":" ","MAREA":" ","LANE":"２７巷","ALLEY":" ","HOUSE_NO":"２０號","E_COORD97":174268.76999999999,"N_COORD97":2548462.3399999999,"ADDRESS":"八德街２７巷２０號","OBJECTID":422172},"geometry":{"x":174268.76999999955,"y":2548462.3399999999}},{"attributes":{"ID":422198,"DIS_CODE":0,"TOWNNAME":"永康區","LI":"尚頂里","LIN":"11鄰","STREET":"正南一街","SECT":" ","MAREA":" ","LANE":"５７巷","ALLEY":" ","HOUSE_NO":"１８號","E_COORD97":171131.25,"N_COORD97":2547241.6400000001,"ADDRESS":"正南一街５７巷１８號","OBJECTID":422173},"geometry":{"x":171131.25000000093,"y":2547241.6400000043}},{"attributes":{"ID":422199,"DIS_CODE":0,"TOWNNAME":"永康區","LI":"尚頂里","LIN":"11鄰","STREET":"正南一街","SECT":" ","MAREA":" ","LANE":"５７巷","ALLEY":" ","HOUSE_NO":"３號","E_COORD97":171163.81,"N_COORD97":2547237.4700000002,"ADDRESS":"正南一街５７巷３號","OBJECTID":422174},"geometry":{"x":171163.81000000145,"y":2547237.4700000025}},{"attributes":{"ID":422200,"DIS_CODE":0,"TOWNNAME":"永康區","LI":"西灣里","LIN":"46鄰","STREET":"永華路","SECT":" ","MAREA":" ","LANE":"２７３巷","ALLEY":" ","HOUSE_NO":"３９號","E_COORD97":173930.25,"N_COORD97":2545778.1899999999,"ADDRESS":"永華路２７３巷３９號","OBJECTID":422175},"geometry":{"x":173930.25000000093,"y":2545778.1899999995}},{"attributes":{"ID":422201,"DIS_CODE":0,"TOWNNAME":"永康區","LI":"西灣里","LIN":"24鄰","STREET":"國光七街","SECT":" ","MAREA":" ","LANE":"６巷","ALLEY":" ","HOUSE_NO":"８號之２","E_COORD97":174369.51000000001,"N_COORD97":2545557.4900000002,"ADDRESS":"國光七街６巷８號之２","OBJECTID":422176},"geometry":{"x":174369.50999999978,"y":2545557.4900000021}},{"attributes":{"ID":422202,"DIS_CODE":0,"TOWNNAME":"永康區","LI":"西灣里","LIN":"34鄰","STREET":"永華路","SECT":" ","MAREA":" ","LANE":"３７６巷","ALLEY":" ","HOUSE_NO":"６號","E_COORD97":174100.67999999999,"N_COORD97":2545828.5,"ADDRESS":"永華路３７６巷６號","OBJECTID":422177},"geometry":{"x":174100.6799999997,"y":2545828.5000000019}},{"attributes":{"ID":422203,"DIS_CODE":0,"TOWNNAME":"永康區","LI":"尚頂里","LIN":"2鄰","STREET":"\u25A0信街","SECT":" ","MAREA":" ","LANE":"１４６巷","ALLEY":" ","HOUSE_NO":"３６號","E_COORD97":171153.29000000001,"N_COORD97":2547702.9300000002,"ADDRESS":"\u25A0信街１４６巷３６號","OBJECTID":422178},"geometry":{"x":171153.29000000097,"y":2547702.9300000034}},{"attributes":{"ID":422204,"DIS_CODE":0,"TOWNNAME":"永康區","LI":"西灣里","LIN":"25鄰","STREET":"國光七街","SECT":" ","MAREA":" ","LANE":"２０巷","ALLEY":" ","HOUSE_NO":"１２號之１","E_COORD97":174328.31,"N_COORD97":2545573.04,"ADDRESS":"國光七街２０巷１２號之１","OBJECTID":422179},"geometry":{"x":174328.30999999959,"y":2545573.040000001}},{"attributes":{"ID":422205,"DIS_CODE":0,"TOWNNAME":"將軍區","LI":"長沙里","LIN":"1鄰","STREET":" ","SECT":" ","MAREA":"長沙","LANE":" ","ALLEY":" ","HOUSE_NO":"３號","E_COORD97":157392.703992,"N_COORD97":2568661.8146199998,"ADDRESS":"長沙３號","OBJECTID":422180},"geometry":{"x":157392.70399199985,"y":2568661.8146210015}},{"attributes":{"ID":422206,"DIS_CODE":0,"TOWNNAME":"永康區","LI":"尚頂里","LIN":"4鄰","STREET":"正南一街","SECT":" ","MAREA":" ","LANE":"１９０巷","ALLEY":" ","HOUSE_NO":"４２號","E_COORD97":170808.39999999999,"N_COORD97":2547403.2000000002,"ADDRESS":"正南一街１９０巷４２號","OBJECTID":422181},"geometry":{"x":170808.4000000013,"y":2547403.2000000011}},{"attributes":{"ID":422207,"DIS_CODE":0,"TOWNNAME":"永康區","LI":"東橋里","LIN":"20鄰","STREET":"中山南路","SECT":" ","MAREA":" ","LANE":"３６５巷","ALLEY":" ","HOUSE_NO":"３號之７","E_COORD97":172783.95000000001,"N_COORD97":2547077.79,"ADDRESS":"中山南路３６５巷３號之７","OBJECTID":422182},"geometry":{"x":172783.94999999925,"y":2547077.7899999991}},{"attributes":{"ID":422208,"DIS_CODE":0,"TOWNNAME":"永康區","LI":"尚頂里","LIN":"26鄰","STREET":"南台街","SECT":" ","MAREA":" ","LANE":"５４巷","ALLEY":" ","HOUSE_NO":"８號之８","E_COORD97":170400.10000000001,"N_COORD97":2547008.98,"ADDRESS":"南台街５４巷８號之８","OBJECTID":422183},"geometry":{"x":170400.09999999963,"y":2547008.9800000023}},{"attributes":{"ID":422209,"DIS_CODE":0,"TOWNNAME":"永康區","LI":"尚頂里","LIN":"25鄰","STREET":"中正南路","SECT":" ","MAREA":" ","LANE":"２１０巷","ALLEY":" ","HOUSE_NO":"８號","E_COORD97":170145.67999999999,"N_COORD97":2547119.2400000002,"ADDRESS":"中正南路２１０巷８號","OBJECTID":422184},"geometry":{"x":170145.6799999997,"y":2547119.2400000021}},{"attributes":{"ID":422210,"DIS_CODE":0,"TOWNNAME":"永康區","LI":"東灣里","LIN":"30鄰","STREET":"民族路","SECT":" ","MAREA":" ","LANE":"１８１巷","ALLEY":" ","HOUSE_NO":"８３號","E_COORD97":175180.01999999999,"N_COORD97":2544806.8399999999,"ADDRESS":"民族路１８１巷８３號","OBJECTID":422185},"geometry":{"x":175180.02000000142,"y":2544806.8399999999}},{"attributes":{"ID":422211,"DIS_CODE":0,"TOWNNAME":"永康區","LI":"尚頂里","LIN":"12鄰","STREET":"尚頂路","SECT":" ","MAREA":" ","LANE":"５９巷","ALLEY":" ","HOUSE_NO":"３０號","E_COORD97":171210.73999999999,"N_COORD97":2547401.1099999999,"ADDRESS":"尚頂路５９巷３０號","OBJECTID":422186},"geometry":{"x":171210.74000000209,"y":2547401.1100000013}},{"attributes":{"ID":422212,"DIS_CODE":0,"TOWNNAME":"永康區","LI":"尚頂里","LIN":"6鄰","STREET":"中正二街","SECT":" ","MAREA":" ","LANE":"１０５巷","ALLEY":" ","HOUSE_NO":"３號","E_COORD97":171027.19,"N_COORD97":2547522.8199999998,"ADDRESS":"中正二街１０５巷３號","OBJECTID":422187},"geometry":{"x":171027.19000000134,"y":2547522.8200000022}},{"attributes":{"ID":422213,"DIS_CODE":0,"TOWNNAME":"永康區","LI":"西灣里","LIN":"52鄰","STREET":"永華路","SECT":" ","MAREA":" ","LANE":"３１７巷","ALLEY":" ","HOUSE_NO":"４號","E_COORD97":174000.54999999999,"N_COORD97":2545915.75,"ADDRESS":"永華路３１７巷４號","OBJECTID":422188},"geometry":{"x":174000.55000000075,"y":2545915.7500000019}},{"attributes":{"ID":422214,"DIS_CODE":0,"TOWNNAME":"永康區","LI":"尚頂里","LIN":"16鄰","STREET":"中正南路","SECT":" ","MAREA":" ","LANE":"２２０巷","ALLEY":" ","HOUSE_NO":"２號","E_COORD97":170151.78,"N_COORD97":2547229.6299999999,"ADDRESS":"中正南路２２０巷２號","OBJECTID":422189},"geometry":{"x":170151.78000000119,"y":2547229.6300000027}},{"attributes":{"ID":422215,"DIS_CODE":0,"TOWNNAME":"永康區","LI":"西灣里","LIN":"13鄰","STREET":"民族路","SECT":" ","MAREA":" ","LANE":"４８１巷","ALLEY":" ","HOUSE_NO":"７號","E_COORD97":174583.10000000001,"N_COORD97":2545403.3999999999,"ADDRESS":"民族路４８１巷７號","OBJECTID":422190},"geometry":{"x":174583.10000000056,"y":2545403.4000000022}},{"attributes":{"ID":422216,"DIS_CODE":0,"TOWNNAME":"北區","LI":"五福里","LIN":"13鄰","STREET":"成功路","SECT":" ","MAREA":" ","LANE":" ","ALLEY":" ","HOUSE_NO":"２８４號","E_COORD97":168173.09,"N_COORD97":2544465.5099999998,"ADDRESS":"成功路２８４號","OBJECTID":422191},"geometry":{"x":168173.08999999985,"y":2544465.5100000016}},{"attributes":{"ID":422217,"DIS_CODE":0,"TOWNNAME":"永康區","LI":"尚頂里","LIN":"34鄰","STREET":"中正南路","SECT":" ","MAREA":" ","LANE":"３８１巷","ALLEY":" ","HOUSE_NO":"２號之１","E_COORD97":170633.76999999999,"N_COORD97":2547947.54,"ADDRESS":"中正南路３８１巷２號之１","OBJECTID":422192},"geometry":{"x":170633.77000000048,"y":2547947.5399999991}},{"attributes":{"ID":422218,"DIS_CODE":0,"TOWNNAME":"永康區","LI":"西灣里","LIN":"34鄰","STREET":"永華路","SECT":" ","MAREA":" ","LANE":"３７６巷","ALLEY":" ","HOUSE_NO":"３４號","E_COORD97":174161.07999999999,"N_COORD97":2545838.0699999998,"ADDRESS":"永華路３７６巷３４號","OBJECTID":422193},"geometry":{"x":174161.08000000007,"y":2545838.070000004}},{"attributes":{"ID":422219,"DIS_CODE":0,"TOWNNAME":"永康區","LI":"尚頂里","LIN":"17鄰","STREET":"中正南路","SECT":" ","MAREA":" ","LANE":"２１０巷","ALLEY":" ","HOUSE_NO":"５號","E_COORD97":170092.60999999999,"N_COORD97":2547215.6800000002,"ADDRESS":"中正南路２１０巷５號","OBJECTID":422194},"geometry":{"x":170092.61000000034,"y":2547215.6799999997}},{"attributes":{"ID":422220,"DIS_CODE":0,"TOWNNAME":"永康區","LI":"尚頂里","LIN":"6鄰","STREET":"中正二街","SECT":" ","MAREA":" ","LANE":"１０５巷","ALLEY":" ","HOUSE_NO":"４０號","E_COORD97":170948,"N_COORD97":2547622.52,"ADDRESS":"中正二街１０５巷４０號","OBJECTID":422195},"geometry":{"x":170948.00000000093,"y":2547622.5200000014}},{"attributes":{"ID":422221,"DIS_CODE":0,"TOWNNAME":"永康區","LI":"西灣里","LIN":"12鄰","STREET":"永大路","SECT":"二段","MAREA":" ","LANE":"５５６巷","ALLEY":" ","HOUSE_NO":"５０號","E_COORD97":174533.48000000001,"N_COORD97":2545392.2200000002,"ADDRESS":"永大路二段５５６巷５０號","OBJECTID":422196},"geometry":{"x":174533.47999999952,"y":2545392.2200000007}},{"attributes":{"ID":422222,"DIS_CODE":0,"TOWNNAME":"永康區","LI":"西灣里","LIN":"37鄰","STREET":"國光八街","SECT":" ","MAREA":" ","LANE":"１２９巷","ALLEY":" ","HOUSE_NO":"４０號","E_COORD97":174143.67000000001,"N_COORD97":2545644.7200000002,"ADDRESS":"國光八街１２９巷４０號","OBJECTID":422197},"geometry":{"x":174143.67000000179,"y":2545644.7200000025}},{"attributes":{"ID":422223,"DIS_CODE":0,"TOWNNAME":"永康區","LI":"東橋里","LIN":"3鄰","STREET":"大橋一街","SECT":" ","MAREA":" ","LANE":"３２４巷","ALLEY":" ","HOUSE_NO":"１號","E_COORD97":171327.26999999999,"N_COORD97":2546648.04,"ADDRESS":"大橋一街３２４巷１號","OBJECTID":422198},"geometry":{"x":171327.27000000048,"y":2546648.040000001}},{"attributes":{"ID":422224,"DIS_CODE":0,"TOWNNAME":"永康區","LI":"東灣里","LIN":"23鄰","STREET":"大灣二街","SECT":" ","MAREA":" ","LANE":"３８巷","ALLEY":" ","HOUSE_NO":"４８號","E_COORD97":174964.85000000001,"N_COORD97":2544777.5600000001,"ADDRESS":"大灣二街３８巷４８號","OBJECTID":422199},"geometry":{"x":174964.85000000056,"y":2544777.5600000024}},{"attributes":{"ID":422225,"DIS_CODE":0,"TOWNNAME":"永康區","LI":"尚頂里","LIN":"22鄰","STREET":"南台街","SECT":" ","MAREA":" ","LANE":"１３巷","ALLEY":" ","HOUSE_NO":"４０號","E_COORD97":170355.35999999999,"N_COORD97":2546844.7200000002,"ADDRESS":"南台街１３巷４０號","OBJECTID":422200},"geometry":{"x":170355.36000000034,"y":2546844.7200000025}}]}