{"displayFieldName":"TOWNNAME","fieldAliases":{"ID":"ID","DIS_CODE":"DIS_CODE","TOWNNAME":"TOWNNAME","LI":"LI","LIN":"LIN","STREET":"STREET","SECT":"SECT","MAREA":"MAREA","LANE":"LANE","ALLEY":"ALLEY","HOUSE_NO":"HOUSE_NO","E_COORD97":"E_COORD97","N_COORD97":"N_COORD97","ADDRESS":"ADDRESS","OBJECTID":"OBJECTID"},"geometryType":"esriGeometryPoint","spatialReference":{"wkid":102443,"latestWkid":3826},"fields":[{"name":"ID","type":"esriFieldTypeDouble","alias":"ID"},{"name":"DIS_CODE","type":"esriFieldTypeInteger","alias":"DIS_CODE"},{"name":"TOWNNAME","type":"esriFieldTypeString","alias":"TOWNNAME","length":8},{"name":"LI","type":"esriFieldTypeString","alias":"LI","length":8},{"name":"LIN","type":"esriFieldTypeString","alias":"LIN","length":12},{"name":"STREET","type":"esriFieldTypeString","alias":"STREET","length":20},{"name":"SECT","type":"esriFieldTypeString","alias":"SECT","length":8},{"name":"MAREA","type":"esriFieldTypeString","alias":"MAREA","length":12},{"name":"LANE","type":"esriFieldTypeString","alias":"LANE","length":10},{"name":"ALLEY","type":"esriFieldTypeString","alias":"ALLEY","length":10},{"name":"HOUSE_NO","type":"esriFieldTypeString","alias":"HOUSE_NO","length":20},{"name":"E_COORD97","type":"esriFieldTypeDouble","alias":"E_COORD97"},{"name":"N_COORD97","type":"esriFieldTypeDouble","alias":"N_COORD97"},{"name":"ADDRESS","type":"esriFieldTypeString","alias":"ADDRESS","length":50},{"name":"OBJECTID","type":"esriFieldTypeOID","alias":"OBJECTID"}],"features":[{"attributes":{"ID":358210,"DIS_CODE":0,"TOWNNAME":"六甲區","LI":"六甲里","LIN":"30鄰","STREET":"中華路","SECT":" ","MAREA":" ","LANE":"９９巷","ALLEY":" ","HOUSE_NO":"７號","E_COORD97":183395.95999999999,"N_COORD97":2569307.25,"ADDRESS":"中華路９９巷７號","OBJECTID":358201},"geometry":{"x":183395.96000000089,"y":2569307.25}},{"attributes":{"ID":358211,"DIS_CODE":0,"TOWNNAME":"六甲區","LI":"六甲里","LIN":"30鄰","STREET":"中華路","SECT":" ","MAREA":" ","LANE":"９９巷","ALLEY":" ","HOUSE_NO":"８號","E_COORD97":183372.73000000001,"N_COORD97":2569292.0899999999,"ADDRESS":"中華路９９巷８號","OBJECTID":358202},"geometry":{"x":183372.73000000138,"y":2569292.0900000036}},{"attributes":{"ID":358212,"DIS_CODE":0,"TOWNNAME":"將軍區","LI":"西和里","LIN":"25鄰","STREET":" ","SECT":" ","MAREA":"西湖","LANE":" ","ALLEY":" ","HOUSE_NO":"９１號","E_COORD97":162148.94,"N_COORD97":2566237.2400000002,"ADDRESS":"西湖９１號","OBJECTID":358203},"geometry":{"x":162148.94000000134,"y":2566237.2400000021}},{"attributes":{"ID":358213,"DIS_CODE":0,"TOWNNAME":"新營區","LI":"民榮里","LIN":"30鄰","STREET":"太子路","SECT":" ","MAREA":" ","LANE":"４４巷","ALLEY":" ","HOUSE_NO":"４２號","E_COORD97":178083.45000000001,"N_COORD97":2578015.9900000002,"ADDRESS":"太子路４４巷４２號","OBJECTID":358204},"geometry":{"x":178083.45000000112,"y":2578015.9900000002}},{"attributes":{"ID":358214,"DIS_CODE":0,"TOWNNAME":"新營區","LI":"民榮里","LIN":"30鄰","STREET":"太子路","SECT":" ","MAREA":" ","LANE":"４４巷","ALLEY":" ","HOUSE_NO":"３７號","E_COORD97":178113.20999999999,"N_COORD97":2578033.5600000001,"ADDRESS":"太子路４４巷３７號","OBJECTID":358205},"geometry":{"x":178113.20999999996,"y":2578033.5600000024}},{"attributes":{"ID":358215,"DIS_CODE":0,"TOWNNAME":"新營區","LI":"民榮里","LIN":"30鄰","STREET":"太子路","SECT":" ","MAREA":" ","LANE":"４４巷","ALLEY":" ","HOUSE_NO":"４５號","E_COORD97":178079.39999999999,"N_COORD97":2578023.7599999998,"ADDRESS":"太子路４４巷４５號","OBJECTID":358206},"geometry":{"x":178079.4000000013,"y":2578023.7599999998}},{"attributes":{"ID":358216,"DIS_CODE":0,"TOWNNAME":"新營區","LI":"南興里","LIN":"30鄰","STREET":"建業路","SECT":" ","MAREA":" ","LANE":"１５７巷","ALLEY":" ","HOUSE_NO":"３號","E_COORD97":178401.73999999999,"N_COORD97":2577460.71,"ADDRESS":"建業路１５７巷３號","OBJECTID":358207},"geometry":{"x":178401.74000000209,"y":2577460.7100000028}},{"attributes":{"ID":358217,"DIS_CODE":0,"TOWNNAME":"歸仁區","LI":"南保里","LIN":"30鄰","STREET":"民權北路","SECT":" ","MAREA":" ","LANE":"６１巷","ALLEY":" ","HOUSE_NO":"１號","E_COORD97":176967.59,"N_COORD97":2541013.29,"ADDRESS":"民權北路６１巷１號","OBJECTID":358208},"geometry":{"x":176967.58999999985,"y":2541013.2899999991}},{"attributes":{"ID":358218,"DIS_CODE":0,"TOWNNAME":"歸仁區","LI":"六甲里","LIN":"30鄰","STREET":"民生十二街","SECT":" ","MAREA":" ","LANE":"１１５巷","ALLEY":" ","HOUSE_NO":"５０號","E_COORD97":175770.45000000001,"N_COORD97":2539338.7999999998,"ADDRESS":"民生十二街１１５巷５０號","OBJECTID":358209},"geometry":{"x":175770.45000000019,"y":2539338.8000000026}},{"attributes":{"ID":358219,"DIS_CODE":0,"TOWNNAME":"玉井區","LI":"玉田里","LIN":"30鄰","STREET":"仁愛街","SECT":" ","MAREA":" ","LANE":"３５巷","ALLEY":" ","HOUSE_NO":"３號","E_COORD97":195446.34,"N_COORD97":2557658.27,"ADDRESS":"仁愛街３５巷３號","OBJECTID":358210},"geometry":{"x":195446.34000000078,"y":2557658.2700000033}},{"attributes":{"ID":358220,"DIS_CODE":0,"TOWNNAME":"玉井區","LI":"玉田里","LIN":"30鄰","STREET":"仁愛街","SECT":" ","MAREA":" ","LANE":"３５巷","ALLEY":" ","HOUSE_NO":"７號","E_COORD97":195439.42999999999,"N_COORD97":2557652.27,"ADDRESS":"仁愛街３５巷７號","OBJECTID":358211},"geometry":{"x":195439.4299999997,"y":2557652.2700000014}},{"attributes":{"ID":358221,"DIS_CODE":0,"TOWNNAME":"玉井區","LI":"玉田里","LIN":"30鄰","STREET":"仁愛街","SECT":" ","MAREA":" ","LANE":"３５巷","ALLEY":" ","HOUSE_NO":"１號","E_COORD97":195450.03,"N_COORD97":2557662.27,"ADDRESS":"仁愛街３５巷１號","OBJECTID":358212},"geometry":{"x":195450.03000000212,"y":2557662.2700000014}},{"attributes":{"ID":358222,"DIS_CODE":0,"TOWNNAME":"玉井區","LI":"玉田里","LIN":"30鄰","STREET":"中華路","SECT":" ","MAREA":" ","LANE":"３８１巷","ALLEY":" ","HOUSE_NO":"１號","E_COORD97":195483.06,"N_COORD97":2557599.25,"ADDRESS":"中華路３８１巷１號","OBJECTID":358213},"geometry":{"x":195483.06000000145,"y":2557599.2500000019}},{"attributes":{"ID":358223,"DIS_CODE":0,"TOWNNAME":"六甲區","LI":"六甲里","LIN":"30鄰","STREET":"成功街","SECT":" ","MAREA":" ","LANE":"４８巷","ALLEY":" ","HOUSE_NO":"１５號","E_COORD97":183321.48000000001,"N_COORD97":2569175.3700000001,"ADDRESS":"成功街４８巷１５號","OBJECTID":358214},"geometry":{"x":183321.48000000231,"y":2569175.370000001}},{"attributes":{"ID":358224,"DIS_CODE":0,"TOWNNAME":"六甲區","LI":"六甲里","LIN":"30鄰","STREET":"成功街","SECT":" ","MAREA":" ","LANE":"４８巷","ALLEY":" ","HOUSE_NO":"１號","E_COORD97":183288.60000000001,"N_COORD97":2569190.98,"ADDRESS":"成功街４８巷１號","OBJECTID":358215},"geometry":{"x":183288.59999999963,"y":2569190.9800000004}},{"attributes":{"ID":358225,"DIS_CODE":0,"TOWNNAME":"六甲區","LI":"六甲里","LIN":"30鄰","STREET":"成功街","SECT":" ","MAREA":" ","LANE":"４８巷","ALLEY":" ","HOUSE_NO":"５號","E_COORD97":183299.51000000001,"N_COORD97":2569186.5299999998,"ADDRESS":"成功街４８巷５號","OBJECTID":358216},"geometry":{"x":183299.50999999978,"y":2569186.5299999975}},{"attributes":{"ID":358226,"DIS_CODE":0,"TOWNNAME":"六甲區","LI":"六甲里","LIN":"30鄰","STREET":"成功街","SECT":" ","MAREA":" ","LANE":"４８巷","ALLEY":" ","HOUSE_NO":"７號","E_COORD97":183304.89999999999,"N_COORD97":2569184.3300000001,"ADDRESS":"成功街４８巷７號","OBJECTID":358217},"geometry":{"x":183304.90000000224,"y":2569184.3300000001}},{"attributes":{"ID":358227,"DIS_CODE":0,"TOWNNAME":"六甲區","LI":"六甲里","LIN":"30鄰","STREET":"成功街","SECT":" ","MAREA":" ","LANE":"４８巷","ALLEY":" ","HOUSE_NO":"９號","E_COORD97":183309.26000000001,"N_COORD97":2569181.98,"ADDRESS":"成功街４８巷９號","OBJECTID":358218},"geometry":{"x":183309.26000000071,"y":2569181.9800000023}},{"attributes":{"ID":358228,"DIS_CODE":0,"TOWNNAME":"六甲區","LI":"六甲里","LIN":"30鄰","STREET":"成功街","SECT":" ","MAREA":" ","LANE":"６２巷","ALLEY":" ","HOUSE_NO":"１１號","E_COORD97":183333.16,"N_COORD97":2569242.5,"ADDRESS":"成功街６２巷１１號","OBJECTID":358219},"geometry":{"x":183333.16000000015,"y":2569242.5000000019}},{"attributes":{"ID":358229,"DIS_CODE":0,"TOWNNAME":"六甲區","LI":"六甲里","LIN":"30鄰","STREET":"成功街","SECT":" ","MAREA":" ","LANE":"６２巷","ALLEY":" ","HOUSE_NO":"１２號","E_COORD97":183323.66,"N_COORD97":2569219.7200000002,"ADDRESS":"成功街６２巷１２號","OBJECTID":358220},"geometry":{"x":183323.66000000108,"y":2569219.7200000007}},{"attributes":{"ID":358230,"DIS_CODE":0,"TOWNNAME":"六甲區","LI":"六甲里","LIN":"30鄰","STREET":"成功街","SECT":" ","MAREA":" ","LANE":"６２巷","ALLEY":" ","HOUSE_NO":"１３號","E_COORD97":183337.25,"N_COORD97":2569241.1499999999,"ADDRESS":"成功街６２巷１３號","OBJECTID":358221},"geometry":{"x":183337.25,"y":2569241.1500000041}},{"attributes":{"ID":358231,"DIS_CODE":0,"TOWNNAME":"六甲區","LI":"六甲里","LIN":"30鄰","STREET":"成功街","SECT":" ","MAREA":" ","LANE":"６２巷","ALLEY":" ","HOUSE_NO":"１４號","E_COORD97":183327.98999999999,"N_COORD97":2569218.6099999999,"ADDRESS":"成功街６２巷１４號","OBJECTID":358222},"geometry":{"x":183327.99000000209,"y":2569218.6099999994}},{"attributes":{"ID":358232,"DIS_CODE":0,"TOWNNAME":"六甲區","LI":"六甲里","LIN":"30鄰","STREET":"成功街","SECT":" ","MAREA":" ","LANE":"６２巷","ALLEY":" ","HOUSE_NO":"１５號","E_COORD97":183341.39999999999,"N_COORD97":2569239.8799999999,"ADDRESS":"成功街６２巷１５號","OBJECTID":358223},"geometry":{"x":183341.40000000037,"y":2569239.8800000008}},{"attributes":{"ID":358233,"DIS_CODE":0,"TOWNNAME":"六甲區","LI":"六甲里","LIN":"30鄰","STREET":"成功街","SECT":" ","MAREA":" ","LANE":"６２巷","ALLEY":" ","HOUSE_NO":"１６號","E_COORD97":183332.44,"N_COORD97":2569216.98,"ADDRESS":"成功街６２巷１６號","OBJECTID":358224},"geometry":{"x":183332.44000000134,"y":2569216.9800000023}},{"attributes":{"ID":358234,"DIS_CODE":0,"TOWNNAME":"六甲區","LI":"六甲里","LIN":"30鄰","STREET":"成功街","SECT":" ","MAREA":" ","LANE":"６２巷","ALLEY":" ","HOUSE_NO":"１７號","E_COORD97":183345.82000000001,"N_COORD97":2569238.6600000001,"ADDRESS":"成功街６２巷１７號","OBJECTID":358225},"geometry":{"x":183345.8200000003,"y":2569238.660000002}},{"attributes":{"ID":358235,"DIS_CODE":0,"TOWNNAME":"六甲區","LI":"六甲里","LIN":"30鄰","STREET":"成功街","SECT":" ","MAREA":" ","LANE":"６２巷","ALLEY":" ","HOUSE_NO":"１８號","E_COORD97":183336.29999999999,"N_COORD97":2569215.54,"ADDRESS":"成功街６２巷１８號","OBJECTID":358226},"geometry":{"x":183336.30000000075,"y":2569215.5399999991}},{"attributes":{"ID":358236,"DIS_CODE":0,"TOWNNAME":"六甲區","LI":"六甲里","LIN":"30鄰","STREET":"成功街","SECT":" ","MAREA":" ","LANE":"６２巷","ALLEY":" ","HOUSE_NO":"３號","E_COORD97":183316.03,"N_COORD97":2569248.1800000002,"ADDRESS":"成功街６２巷３號","OBJECTID":358227},"geometry":{"x":183316.03000000119,"y":2569248.1800000016}},{"attributes":{"ID":358237,"DIS_CODE":0,"TOWNNAME":"六甲區","LI":"六甲里","LIN":"30鄰","STREET":"成功街","SECT":" ","MAREA":" ","LANE":"６２巷","ALLEY":" ","HOUSE_NO":"５號","E_COORD97":183320.51999999999,"N_COORD97":2569246.9900000002,"ADDRESS":"成功街６２巷５號","OBJECTID":358228},"geometry":{"x":183320.52000000048,"y":2569246.9900000021}},{"attributes":{"ID":358238,"DIS_CODE":0,"TOWNNAME":"六甲區","LI":"六甲里","LIN":"30鄰","STREET":"成功街","SECT":" ","MAREA":" ","LANE":"６２巷","ALLEY":" ","HOUSE_NO":"７號","E_COORD97":183324.94,"N_COORD97":2569245.9199999999,"ADDRESS":"成功街６２巷７號","OBJECTID":358229},"geometry":{"x":183324.93999999948,"y":2569245.9200000037}},{"attributes":{"ID":358239,"DIS_CODE":0,"TOWNNAME":"六甲區","LI":"六甲里","LIN":"30鄰","STREET":"成功街","SECT":" ","MAREA":" ","LANE":"６２巷","ALLEY":" ","HOUSE_NO":"９號","E_COORD97":183329.01000000001,"N_COORD97":2569243.75,"ADDRESS":"成功街６２巷９號","OBJECTID":358230},"geometry":{"x":183329.01000000164,"y":2569243.7500000037}},{"attributes":{"ID":358240,"DIS_CODE":0,"TOWNNAME":"新營區","LI":"南興里","LIN":"30鄰","STREET":"建業路","SECT":" ","MAREA":" ","LANE":"１５７巷","ALLEY":" ","HOUSE_NO":"７號","E_COORD97":178400.60999999999,"N_COORD97":2577451.8599999999,"ADDRESS":"建業路１５７巷７號","OBJECTID":358231},"geometry":{"x":178400.61000000034,"y":2577451.8600000013}},{"attributes":{"ID":358241,"DIS_CODE":0,"TOWNNAME":"新營區","LI":"南興里","LIN":"30鄰","STREET":"建業路","SECT":" ","MAREA":" ","LANE":"１５７巷","ALLEY":" ","HOUSE_NO":"２３號","E_COORD97":178397.64999999999,"N_COORD97":2577419.7599999998,"ADDRESS":"建業路１５７巷２３號","OBJECTID":358232},"geometry":{"x":178397.6500000013,"y":2577419.7599999998}},{"attributes":{"ID":358242,"DIS_CODE":0,"TOWNNAME":"新營區","LI":"南興里","LIN":"30鄰","STREET":"建業路","SECT":" ","MAREA":" ","LANE":"１５７巷","ALLEY":" ","HOUSE_NO":"３５號","E_COORD97":178395.51000000001,"N_COORD97":2577394.3100000001,"ADDRESS":"建業路１５７巷３５號","OBJECTID":358233},"geometry":{"x":178395.50999999978,"y":2577394.3100000042}},{"attributes":{"ID":358243,"DIS_CODE":0,"TOWNNAME":"新營區","LI":"南興里","LIN":"30鄰","STREET":"建業路","SECT":" ","MAREA":" ","LANE":"１５７巷","ALLEY":" ","HOUSE_NO":"３９號","E_COORD97":178393.42999999999,"N_COORD97":2577386.5600000001,"ADDRESS":"建業路１５７巷３９號","OBJECTID":358234},"geometry":{"x":178393.43000000063,"y":2577386.5600000024}},{"attributes":{"ID":358244,"DIS_CODE":0,"TOWNNAME":"新營區","LI":"南興里","LIN":"30鄰","STREET":"建業路","SECT":" ","MAREA":" ","LANE":"１５７巷","ALLEY":" ","HOUSE_NO":"１７號","E_COORD97":178398.67000000001,"N_COORD97":2577431.9399999999,"ADDRESS":"建業路１５７巷１７號","OBJECTID":358235},"geometry":{"x":178398.67000000086,"y":2577431.9399999995}},{"attributes":{"ID":358245,"DIS_CODE":0,"TOWNNAME":"新營區","LI":"南興里","LIN":"30鄰","STREET":"建業路","SECT":" ","MAREA":" ","LANE":"１５７巷","ALLEY":" ","HOUSE_NO":"９號","E_COORD97":178400.54000000001,"N_COORD97":2577448.5299999998,"ADDRESS":"建業路１５７巷９號","OBJECTID":358236},"geometry":{"x":178400.54000000004,"y":2577448.5299999993}},{"attributes":{"ID":358246,"DIS_CODE":0,"TOWNNAME":"新營區","LI":"南興里","LIN":"30鄰","STREET":"建業路","SECT":" ","MAREA":" ","LANE":"１５７巷","ALLEY":" ","HOUSE_NO":"２９號","E_COORD97":178396.57000000001,"N_COORD97":2577407.5899999999,"ADDRESS":"建業路１５７巷２９號","OBJECTID":358237},"geometry":{"x":178396.57000000123,"y":2577407.5899999999}},{"attributes":{"ID":358247,"DIS_CODE":0,"TOWNNAME":"新營區","LI":"南興里","LIN":"30鄰","STREET":"建業路","SECT":" ","MAREA":" ","LANE":"１５７巷","ALLEY":" ","HOUSE_NO":"４１號","E_COORD97":178393.39000000001,"N_COORD97":2577382.1299999999,"ADDRESS":"建業路１５７巷４１號","OBJECTID":358238},"geometry":{"x":178393.39000000153,"y":2577382.129999999}},{"attributes":{"ID":358248,"DIS_CODE":0,"TOWNNAME":"新營區","LI":"南興里","LIN":"30鄰","STREET":"建業路","SECT":" ","MAREA":" ","LANE":"１５７巷","ALLEY":" ","HOUSE_NO":"２７號","E_COORD97":178396.60000000001,"N_COORD97":2577412.02,"ADDRESS":"建業路１５７巷２７號","OBJECTID":358239},"geometry":{"x":178396.59999999963,"y":2577412.0200000033}},{"attributes":{"ID":358249,"DIS_CODE":0,"TOWNNAME":"新營區","LI":"南興里","LIN":"30鄰","STREET":"建業路","SECT":" ","MAREA":" ","LANE":"１５７巷","ALLEY":" ","HOUSE_NO":"２１號","E_COORD97":178398.70000000001,"N_COORD97":2577424.1899999999,"ADDRESS":"建業路１５７巷２１號","OBJECTID":358240},"geometry":{"x":178398.70000000112,"y":2577424.1899999976}},{"attributes":{"ID":358250,"DIS_CODE":0,"TOWNNAME":"新營區","LI":"南興里","LIN":"30鄰","STREET":"建業路","SECT":" ","MAREA":" ","LANE":"１５７巷","ALLEY":" ","HOUSE_NO":"３３號","E_COORD97":178395.53,"N_COORD97":2577398.73,"ADDRESS":"建業路１５７巷３３號","OBJECTID":358241},"geometry":{"x":178395.53000000026,"y":2577398.7300000023}},{"attributes":{"ID":358251,"DIS_CODE":0,"TOWNNAME":"新營區","LI":"新北里","LIN":"30鄰","STREET":"新北街","SECT":" ","MAREA":" ","LANE":"１７０巷","ALLEY":" ","HOUSE_NO":"８號","E_COORD97":178699.56,"N_COORD97":2578984.2400000002,"ADDRESS":"新北街１７０巷８號","OBJECTID":358242},"geometry":{"x":178699.56000000052,"y":2578984.2399999984}},{"attributes":{"ID":358252,"DIS_CODE":0,"TOWNNAME":"新營區","LI":"新北里","LIN":"30鄰","STREET":"新北街","SECT":" ","MAREA":" ","LANE":"１７０巷","ALLEY":" ","HOUSE_NO":"９號","E_COORD97":178706.69,"N_COORD97":2578997.4900000002,"ADDRESS":"新北街１７０巷９號","OBJECTID":358243},"geometry":{"x":178706.69000000041,"y":2578997.4900000021}},{"attributes":{"ID":358253,"DIS_CODE":0,"TOWNNAME":"新營區","LI":"民榮里","LIN":"30鄰","STREET":"太子路","SECT":" ","MAREA":" ","LANE":"４４巷","ALLEY":" ","HOUSE_NO":"４０號","E_COORD97":178101.92000000001,"N_COORD97":2578028.0800000001,"ADDRESS":"太子路４４巷４０號","OBJECTID":358244},"geometry":{"x":178101.92000000179,"y":2578028.0800000001}},{"attributes":{"ID":358254,"DIS_CODE":0,"TOWNNAME":"新營區","LI":"新北里","LIN":"30鄰","STREET":"新北街","SECT":" ","MAREA":" ","LANE":"１７０巷","ALLEY":" ","HOUSE_NO":"１０號","E_COORD97":178705.87,"N_COORD97":2578985.3199999998,"ADDRESS":"新北街１７０巷１０號","OBJECTID":358245},"geometry":{"x":178705.87000000197,"y":2578985.3200000022}},{"attributes":{"ID":358255,"DIS_CODE":0,"TOWNNAME":"新營區","LI":"民榮里","LIN":"30鄰","STREET":"太子路","SECT":" ","MAREA":" ","LANE":"４４巷","ALLEY":" ","HOUSE_NO":"４３號","E_COORD97":178080.39999999999,"N_COORD97":2578019.3300000001,"ADDRESS":"太子路４４巷４３號","OBJECTID":358246},"geometry":{"x":178080.40000000224,"y":2578019.3300000001}},{"attributes":{"ID":358256,"DIS_CODE":0,"TOWNNAME":"歸仁區","LI":"六甲里","LIN":"30鄰","STREET":"民生十二街","SECT":" ","MAREA":" ","LANE":"１１５巷","ALLEY":" ","HOUSE_NO":"６６號","E_COORD97":175771.25,"N_COORD97":2539296.7999999998,"ADDRESS":"民生十二街１１５巷６６號","OBJECTID":358247},"geometry":{"x":175771.25000000093,"y":2539296.8000000045}},{"attributes":{"ID":358257,"DIS_CODE":0,"TOWNNAME":"歸仁區","LI":"六甲里","LIN":"30鄰","STREET":"民生十二街","SECT":" ","MAREA":" ","LANE":"１１５巷","ALLEY":" ","HOUSE_NO":"６０號","E_COORD97":175740.64999999999,"N_COORD97":2539318.7999999998,"ADDRESS":"民生十二街１１５巷６０號","OBJECTID":358248},"geometry":{"x":175740.65000000037,"y":2539318.8000000026}},{"attributes":{"ID":358258,"DIS_CODE":0,"TOWNNAME":"歸仁區","LI":"六甲里","LIN":"30鄰","STREET":"民生十二街","SECT":" ","MAREA":" ","LANE":"１１５巷","ALLEY":" ","HOUSE_NO":"５４號","E_COORD97":175746.85000000001,"N_COORD97":2539337.7999999998,"ADDRESS":"民生十二街１１５巷５４號","OBJECTID":358249},"geometry":{"x":175746.84999999963,"y":2539337.8000000026}},{"attributes":{"ID":358259,"DIS_CODE":0,"TOWNNAME":"歸仁區","LI":"六甲里","LIN":"30鄰","STREET":"民生十二街","SECT":" ","MAREA":" ","LANE":"１１５巷","ALLEY":" ","HOUSE_NO":"６２號","E_COORD97":175759.04999999999,"N_COORD97":2539304.7999999998,"ADDRESS":"民生十二街１１５巷６２號","OBJECTID":358250},"geometry":{"x":175759.04999999981,"y":2539304.8000000026}},{"attributes":{"ID":358260,"DIS_CODE":0,"TOWNNAME":"南區","LI":"金華里","LIN":"30鄰","STREET":"新孝路","SECT":" ","MAREA":" ","LANE":"１０２巷","ALLEY":" ","HOUSE_NO":"４４號","E_COORD97":166655.60000000001,"N_COORD97":2542297.1600000001,"ADDRESS":"新孝路１０２巷４４號","OBJECTID":358251},"geometry":{"x":166655.59999999963,"y":2542297.1600000001}},{"attributes":{"ID":358261,"DIS_CODE":0,"TOWNNAME":"南區","LI":"金華里","LIN":"30鄰","STREET":"新孝路","SECT":" ","MAREA":" ","LANE":"１０２巷","ALLEY":" ","HOUSE_NO":"４５號","E_COORD97":166649.88,"N_COORD97":2542299.0299999998,"ADDRESS":"新孝路１０２巷４５號","OBJECTID":358252},"geometry":{"x":166649.88000000082,"y":2542299.0300000012}},{"attributes":{"ID":358262,"DIS_CODE":0,"TOWNNAME":"南區","LI":"金華里","LIN":"30鄰","STREET":"新孝路","SECT":" ","MAREA":" ","LANE":"１０２巷","ALLEY":" ","HOUSE_NO":"４６號","E_COORD97":166646.42999999999,"N_COORD97":2542300.8999999999,"ADDRESS":"新孝路１０２巷４６號","OBJECTID":358253},"geometry":{"x":166646.4299999997,"y":2542300.9000000022}},{"attributes":{"ID":358263,"DIS_CODE":0,"TOWNNAME":"南區","LI":"金華里","LIN":"30鄰","STREET":"新孝路","SECT":" ","MAREA":" ","LANE":"１０２巷","ALLEY":" ","HOUSE_NO":"４７號","E_COORD97":166642.69,"N_COORD97":2542302.5800000001,"ADDRESS":"新孝路１０２巷４７號","OBJECTID":358254},"geometry":{"x":166642.69000000227,"y":2542302.5800000019}},{"attributes":{"ID":358264,"DIS_CODE":0,"TOWNNAME":"南區","LI":"金華里","LIN":"30鄰","STREET":"新孝路","SECT":" ","MAREA":" ","LANE":"１０２巷","ALLEY":" ","HOUSE_NO":"４８號","E_COORD97":166640.51999999999,"N_COORD97":2542313.21,"ADDRESS":"新孝路１０２巷４８號","OBJECTID":358255},"geometry":{"x":166640.51999999955,"y":2542313.2100000028}},{"attributes":{"ID":358265,"DIS_CODE":0,"TOWNNAME":"南區","LI":"金華里","LIN":"30鄰","STREET":"新孝路","SECT":" ","MAREA":" ","LANE":"１０２巷","ALLEY":" ","HOUSE_NO":"４９號","E_COORD97":166634.79999999999,"N_COORD97":2542314.98,"ADDRESS":"新孝路１０２巷４９號","OBJECTID":358256},"geometry":{"x":166634.80000000075,"y":2542314.9800000004}},{"attributes":{"ID":358266,"DIS_CODE":0,"TOWNNAME":"南區","LI":"金華里","LIN":"30鄰","STREET":"新孝路","SECT":" ","MAREA":" ","LANE":"１２６巷","ALLEY":" ","HOUSE_NO":"５９號","E_COORD97":166614.25,"N_COORD97":2542215.8199999998,"ADDRESS":"新孝路１２６巷５９號","OBJECTID":358257},"geometry":{"x":166614.25,"y":2542215.8200000022}},{"attributes":{"ID":358267,"DIS_CODE":0,"TOWNNAME":"南區","LI":"金華里","LIN":"30鄰","STREET":"新孝路","SECT":" ","MAREA":" ","LANE":"１２６巷","ALLEY":" ","HOUSE_NO":"６１號","E_COORD97":166616.45999999999,"N_COORD97":2542220.7799999998,"ADDRESS":"新孝路１２６巷６１號","OBJECTID":358258},"geometry":{"x":166616.45999999996,"y":2542220.7799999993}},{"attributes":{"ID":358268,"DIS_CODE":0,"TOWNNAME":"南區","LI":"金華里","LIN":"30鄰","STREET":"新孝路","SECT":" ","MAREA":" ","LANE":"１２６巷","ALLEY":" ","HOUSE_NO":"６３號","E_COORD97":166617.84,"N_COORD97":2542223.8199999998,"ADDRESS":"新孝路１２６巷６３號","OBJECTID":358259},"geometry":{"x":166617.84000000078,"y":2542223.8200000003}},{"attributes":{"ID":358269,"DIS_CODE":0,"TOWNNAME":"南區","LI":"金華里","LIN":"30鄰","STREET":"新孝路","SECT":" ","MAREA":" ","LANE":"１２６巷","ALLEY":" ","HOUSE_NO":"６５號","E_COORD97":166620.04999999999,"N_COORD97":2542226.8500000001,"ADDRESS":"新孝路１２６巷６５號","OBJECTID":358260},"geometry":{"x":166620.05000000075,"y":2542226.8499999996}},{"attributes":{"ID":358270,"DIS_CODE":0,"TOWNNAME":"南區","LI":"金華里","LIN":"30鄰","STREET":"新孝路","SECT":" ","MAREA":" ","LANE":"１２６巷","ALLEY":" ","HOUSE_NO":"６７號","E_COORD97":166621.16,"N_COORD97":2542231.8199999998,"ADDRESS":"新孝路１２６巷６７號","OBJECTID":358261},"geometry":{"x":166621.16000000108,"y":2542231.8200000003}},{"attributes":{"ID":358271,"DIS_CODE":0,"TOWNNAME":"南區","LI":"金華里","LIN":"30鄰","STREET":"新孝路","SECT":" ","MAREA":" ","LANE":"１２６巷","ALLEY":" ","HOUSE_NO":"６９號","E_COORD97":166622.26000000001,"N_COORD97":2542235.1299999999,"ADDRESS":"新孝路１２６巷６９號","OBJECTID":358262},"geometry":{"x":166622.25999999978,"y":2542235.129999999}},{"attributes":{"ID":358272,"DIS_CODE":0,"TOWNNAME":"南區","LI":"金華里","LIN":"30鄰","STREET":"新孝路","SECT":" ","MAREA":" ","LANE":"１２６巷","ALLEY":" ","HOUSE_NO":"７１號","E_COORD97":166623.37,"N_COORD97":2542239.54,"ADDRESS":"新孝路１２６巷７１號","OBJECTID":358263},"geometry":{"x":166623.37000000011,"y":2542239.5399999972}},{"attributes":{"ID":358273,"DIS_CODE":0,"TOWNNAME":"南區","LI":"金華里","LIN":"30鄰","STREET":"新孝路","SECT":" ","MAREA":" ","LANE":"１２６巷","ALLEY":" ","HOUSE_NO":"７３號","E_COORD97":166624.47,"N_COORD97":2542243.6800000002,"ADDRESS":"新孝路１２６巷７３號","OBJECTID":358264},"geometry":{"x":166624.46999999974,"y":2542243.6800000016}},{"attributes":{"ID":358274,"DIS_CODE":0,"TOWNNAME":"南區","LI":"金華里","LIN":"30鄰","STREET":"新孝路","SECT":" ","MAREA":" ","LANE":"１２６巷","ALLEY":" ","HOUSE_NO":"７５號","E_COORD97":166625.57999999999,"N_COORD97":2542247.27,"ADDRESS":"新孝路１２６巷７５號","OBJECTID":358265},"geometry":{"x":166625.58000000007,"y":2542247.2699999996}},{"attributes":{"ID":358275,"DIS_CODE":0,"TOWNNAME":"南區","LI":"金華里","LIN":"30鄰","STREET":"新孝路","SECT":" ","MAREA":" ","LANE":"１２６巷","ALLEY":" ","HOUSE_NO":"７７號","E_COORD97":166631.39000000001,"N_COORD97":2542259.2599999998,"ADDRESS":"新孝路１２６巷７７號","OBJECTID":358266},"geometry":{"x":166631.38999999966,"y":2542259.2600000035}},{"attributes":{"ID":358276,"DIS_CODE":0,"TOWNNAME":"南區","LI":"金華里","LIN":"30鄰","STREET":"新孝路","SECT":" ","MAREA":" ","LANE":"１２６巷","ALLEY":" ","HOUSE_NO":"７９號","E_COORD97":166631.78,"N_COORD97":2542263.5099999998,"ADDRESS":"新孝路１２６巷７９號","OBJECTID":358267},"geometry":{"x":166631.78000000212,"y":2542263.5099999998}},{"attributes":{"ID":358277,"DIS_CODE":0,"TOWNNAME":"南區","LI":"金華里","LIN":"30鄰","STREET":"新孝路","SECT":" ","MAREA":" ","LANE":"１２６巷","ALLEY":" ","HOUSE_NO":"８１號","E_COORD97":166634.20000000001,"N_COORD97":2542267.2799999998,"ADDRESS":"新孝路１２６巷８１號","OBJECTID":358268},"geometry":{"x":166634.20000000112,"y":2542267.2799999993}},{"attributes":{"ID":358278,"DIS_CODE":0,"TOWNNAME":"南區","LI":"金華里","LIN":"30鄰","STREET":"新孝路","SECT":" ","MAREA":" ","LANE":"１２６巷","ALLEY":" ","HOUSE_NO":"８３號","E_COORD97":166635.17999999999,"N_COORD97":2542271,"ADDRESS":"新孝路１２６巷８３號","OBJECTID":358269},"geometry":{"x":166635.18000000156,"y":2542271}},{"attributes":{"ID":358279,"DIS_CODE":0,"TOWNNAME":"南區","LI":"金華里","LIN":"30鄰","STREET":"新孝路","SECT":" ","MAREA":" ","LANE":"１２６巷","ALLEY":" ","HOUSE_NO":"８５號","E_COORD97":166636.16,"N_COORD97":2542275.8999999999,"ADDRESS":"新孝路１２６巷８５號","OBJECTID":358270},"geometry":{"x":166636.16000000108,"y":2542275.9000000041}},{"attributes":{"ID":358280,"DIS_CODE":0,"TOWNNAME":"南區","LI":"金華里","LIN":"30鄰","STREET":"新孝路","SECT":" ","MAREA":" ","LANE":"１２６巷","ALLEY":" ","HOUSE_NO":"８７號","E_COORD97":166637.14000000001,"N_COORD97":2542279.6200000001,"ADDRESS":"新孝路１２６巷８７號","OBJECTID":358271},"geometry":{"x":166637.14000000153,"y":2542279.6200000029}},{"attributes":{"ID":358281,"DIS_CODE":0,"TOWNNAME":"南區","LI":"金華里","LIN":"30鄰","STREET":"新孝路","SECT":" ","MAREA":" ","LANE":"１４８巷","ALLEY":" ","HOUSE_NO":"１００號","E_COORD97":166618.82999999999,"N_COORD97":2542320.6699999999,"ADDRESS":"新孝路１４８巷１００號","OBJECTID":358272},"geometry":{"x":166618.83000000007,"y":2542320.6699999999}},{"attributes":{"ID":358282,"DIS_CODE":0,"TOWNNAME":"南區","LI":"金華里","LIN":"30鄰","STREET":"新孝路","SECT":" ","MAREA":" ","LANE":"１４８巷","ALLEY":" ","HOUSE_NO":"１０２號","E_COORD97":166622.07999999999,"N_COORD97":2542326.6699999999,"ADDRESS":"新孝路１４８巷１０２號","OBJECTID":358273},"geometry":{"x":166622.08000000007,"y":2542326.6699999999}},{"attributes":{"ID":358283,"DIS_CODE":0,"TOWNNAME":"南區","LI":"金華里","LIN":"30鄰","STREET":"新孝路","SECT":" ","MAREA":" ","LANE":"１４８巷","ALLEY":" ","HOUSE_NO":"５８號","E_COORD97":166588.57000000001,"N_COORD97":2542225.75,"ADDRESS":"新孝路１４８巷５８號","OBJECTID":358274},"geometry":{"x":166588.5700000003,"y":2542225.7500000037}},{"attributes":{"ID":358284,"DIS_CODE":0,"TOWNNAME":"南區","LI":"金華里","LIN":"30鄰","STREET":"新孝路","SECT":" ","MAREA":" ","LANE":"１４８巷","ALLEY":" ","HOUSE_NO":"６０號","E_COORD97":166588.57000000001,"N_COORD97":2542230.1600000001,"ADDRESS":"新孝路１４８巷６０號","OBJECTID":358275},"geometry":{"x":166588.5700000003,"y":2542230.160000002}},{"attributes":{"ID":358285,"DIS_CODE":0,"TOWNNAME":"南區","LI":"金華里","LIN":"30鄰","STREET":"新孝路","SECT":" ","MAREA":" ","LANE":"１４８巷","ALLEY":" ","HOUSE_NO":"６２號","E_COORD97":166589.67000000001,"N_COORD97":2542233.75,"ADDRESS":"新孝路１４８巷６２號","OBJECTID":358276},"geometry":{"x":166589.66999999899,"y":2542233.7500000019}},{"attributes":{"ID":358286,"DIS_CODE":0,"TOWNNAME":"南區","LI":"金華里","LIN":"30鄰","STREET":"新孝路","SECT":" ","MAREA":" ","LANE":"１４８巷","ALLEY":" ","HOUSE_NO":"６４號","E_COORD97":166591.60000000001,"N_COORD97":2542236.7799999998,"ADDRESS":"新孝路１４８巷６４號","OBJECTID":358277},"geometry":{"x":166591.60000000149,"y":2542236.7799999993}},{"attributes":{"ID":358287,"DIS_CODE":0,"TOWNNAME":"南區","LI":"金華里","LIN":"30鄰","STREET":"新孝路","SECT":" ","MAREA":" ","LANE":"１４８巷","ALLEY":" ","HOUSE_NO":"６６號","E_COORD97":166593.26000000001,"N_COORD97":2542241.2000000002,"ADDRESS":"新孝路１４８巷６６號","OBJECTID":358278},"geometry":{"x":166593.25999999978,"y":2542241.1999999993}},{"attributes":{"ID":358288,"DIS_CODE":0,"TOWNNAME":"南區","LI":"金華里","LIN":"30鄰","STREET":"新孝路","SECT":" ","MAREA":" ","LANE":"１４８巷","ALLEY":" ","HOUSE_NO":"６８號","E_COORD97":166593.81,"N_COORD97":2542245.6099999999,"ADDRESS":"新孝路１４８巷６８號","OBJECTID":358279},"geometry":{"x":166593.81000000052,"y":2542245.6099999994}},{"attributes":{"ID":358289,"DIS_CODE":0,"TOWNNAME":"南區","LI":"金華里","LIN":"30鄰","STREET":"新孝路","SECT":" ","MAREA":" ","LANE":"１４８巷","ALLEY":" ","HOUSE_NO":"７０號","E_COORD97":166595.75,"N_COORD97":2542248.9199999999,"ADDRESS":"新孝路１４８巷７０號","OBJECTID":358280},"geometry":{"x":166595.75,"y":2542248.9200000018}},{"attributes":{"ID":358290,"DIS_CODE":0,"TOWNNAME":"南區","LI":"金華里","LIN":"30鄰","STREET":"新孝路","SECT":" ","MAREA":" ","LANE":"１４８巷","ALLEY":" ","HOUSE_NO":"７２號","E_COORD97":166597.13,"N_COORD97":2542255.8199999998,"ADDRESS":"新孝路１４８巷７２號","OBJECTID":358281},"geometry":{"x":166597.13000000082,"y":2542255.8199999984}},{"attributes":{"ID":358291,"DIS_CODE":0,"TOWNNAME":"南區","LI":"金華里","LIN":"30鄰","STREET":"新孝路","SECT":" ","MAREA":" ","LANE":"１４８巷","ALLEY":" ","HOUSE_NO":"７６號","E_COORD97":166601.42000000001,"N_COORD97":2542268.6499999999,"ADDRESS":"新孝路１４８巷７６號","OBJECTID":358282},"geometry":{"x":166601.41999999993,"y":2542268.6500000022}},{"attributes":{"ID":358292,"DIS_CODE":0,"TOWNNAME":"南區","LI":"金華里","LIN":"30鄰","STREET":"新孝路","SECT":" ","MAREA":" ","LANE":"１４８巷","ALLEY":" ","HOUSE_NO":"７８號","E_COORD97":166602.98999999999,"N_COORD97":2542272.1800000002,"ADDRESS":"新孝路１４８巷７８號","OBJECTID":358283},"geometry":{"x":166602.99000000022,"y":2542272.1799999997}},{"attributes":{"ID":358293,"DIS_CODE":0,"TOWNNAME":"南區","LI":"金華里","LIN":"30鄰","STREET":"新孝路","SECT":" ","MAREA":" ","LANE":"１４８巷","ALLEY":" ","HOUSE_NO":"８２號","E_COORD97":166606.92000000001,"N_COORD97":2542281.5899999999,"ADDRESS":"新孝路１４８巷８２號","OBJECTID":358284},"geometry":{"x":166606.92000000086,"y":2542281.5900000017}},{"attributes":{"ID":358294,"DIS_CODE":0,"TOWNNAME":"南區","LI":"金華里","LIN":"30鄰","STREET":"新孝路","SECT":" ","MAREA":" ","LANE":"１４８巷","ALLEY":" ","HOUSE_NO":"８４號","E_COORD97":166607.70000000001,"N_COORD97":2542284.9199999999,"ADDRESS":"新孝路１４８巷８４號","OBJECTID":358285},"geometry":{"x":166607.70000000019,"y":2542284.9199999999}},{"attributes":{"ID":358295,"DIS_CODE":0,"TOWNNAME":"南區","LI":"金華里","LIN":"30鄰","STREET":"新孝路","SECT":" ","MAREA":" ","LANE":"１４８巷","ALLEY":" ","HOUSE_NO":"８６號","E_COORD97":166609.47,"N_COORD97":2542289.0299999998,"ADDRESS":"新孝路１４８巷８６號","OBJECTID":358286},"geometry":{"x":166609.46999999881,"y":2542289.0300000012}},{"attributes":{"ID":358296,"DIS_CODE":0,"TOWNNAME":"關廟區","LI":"香洋里","LIN":"30鄰","STREET":"大仁街","SECT":" ","MAREA":" ","LANE":"４１６巷","ALLEY":" ","HOUSE_NO":"１８號","E_COORD97":180967.62,"N_COORD97":2539736.25,"ADDRESS":"大仁街４１６巷１８號","OBJECTID":358287},"geometry":{"x":180967.62000000104,"y":2539736.25}},{"attributes":{"ID":358297,"DIS_CODE":0,"TOWNNAME":"關廟區","LI":"香洋里","LIN":"30鄰","STREET":"大仁街","SECT":" ","MAREA":" ","LANE":"４１６巷","ALLEY":" ","HOUSE_NO":"１０號","E_COORD97":180979.92000000001,"N_COORD97":2539739.25,"ADDRESS":"大仁街４１６巷１０號","OBJECTID":358288},"geometry":{"x":180979.91999999993,"y":2539739.25}},{"attributes":{"ID":358298,"DIS_CODE":0,"TOWNNAME":"關廟區","LI":"香洋里","LIN":"30鄰","STREET":"大富街","SECT":" ","MAREA":" ","LANE":"３０１巷","ALLEY":" ","HOUSE_NO":"８號","E_COORD97":181013.57000000001,"N_COORD97":2539724.25,"ADDRESS":"大富街３０１巷８號","OBJECTID":358289},"geometry":{"x":181013.57000000216,"y":2539724.2500000019}},{"attributes":{"ID":358299,"DIS_CODE":0,"TOWNNAME":"北區","LI":"大港里","LIN":"30鄰","STREET":"賢北街","SECT":" ","MAREA":" ","LANE":"２２５巷","ALLEY":" ","HOUSE_NO":"５１之１號","E_COORD97":166078.70999999999,"N_COORD97":2545585.4199999999,"ADDRESS":"賢北街２２５巷５１之１號","OBJECTID":358290},"geometry":{"x":166078.70999999996,"y":2545585.4200000018}},{"attributes":{"ID":358300,"DIS_CODE":0,"TOWNNAME":"安平區","LI":"平通里","LIN":"30鄰","STREET":"育平九街","SECT":" ","MAREA":" ","LANE":"３７２巷","ALLEY":" ","HOUSE_NO":"１８號","E_COORD97":164610.14000000001,"N_COORD97":2543828.6299999999,"ADDRESS":"育平九街３７２巷１８號","OBJECTID":358291},"geometry":{"x":164610.1400000006,"y":2543828.629999999}},{"attributes":{"ID":358301,"DIS_CODE":0,"TOWNNAME":"安平區","LI":"平通里","LIN":"30鄰","STREET":"育平九街","SECT":" ","MAREA":" ","LANE":"３７２巷","ALLEY":" ","HOUSE_NO":"１９號","E_COORD97":164585.67000000001,"N_COORD97":2543800.9100000001,"ADDRESS":"育平九街３７２巷１９號","OBJECTID":358292},"geometry":{"x":164585.66999999993,"y":2543800.9100000001}},{"attributes":{"ID":358302,"DIS_CODE":0,"TOWNNAME":"安平區","LI":"平通里","LIN":"30鄰","STREET":"育平九街","SECT":" ","MAREA":" ","LANE":"３７２巷","ALLEY":" ","HOUSE_NO":"２０號","E_COORD97":164610.26999999999,"N_COORD97":2543832.5899999999,"ADDRESS":"育平九街３７２巷２０號","OBJECTID":358293},"geometry":{"x":164610.26999999955,"y":2543832.5899999999}},{"attributes":{"ID":358303,"DIS_CODE":0,"TOWNNAME":"安平區","LI":"平通里","LIN":"30鄰","STREET":"育平九街","SECT":" ","MAREA":" ","LANE":"３７２巷","ALLEY":" ","HOUSE_NO":"２１號","E_COORD97":164585.41,"N_COORD97":2543806.3599999999,"ADDRESS":"育平九街３７２巷２１號","OBJECTID":358294},"geometry":{"x":164585.41000000108,"y":2543806.3599999994}},{"attributes":{"ID":358304,"DIS_CODE":0,"TOWNNAME":"安平區","LI":"平通里","LIN":"30鄰","STREET":"育平九街","SECT":" ","MAREA":" ","LANE":"３７２巷","ALLEY":" ","HOUSE_NO":"２２號","E_COORD97":164602.98999999999,"N_COORD97":2543844.5499999998,"ADDRESS":"育平九街３７２巷２２號","OBJECTID":358295},"geometry":{"x":164602.99000000209,"y":2543844.5500000007}},{"attributes":{"ID":358305,"DIS_CODE":0,"TOWNNAME":"安平區","LI":"平通里","LIN":"30鄰","STREET":"育平九街","SECT":" ","MAREA":" ","LANE":"３７２巷","ALLEY":" ","HOUSE_NO":"２２號之１","E_COORD97":164607.84,"N_COORD97":2543844.4900000002,"ADDRESS":"育平九街３７２巷２２號之１","OBJECTID":358296},"geometry":{"x":164607.83999999985,"y":2543844.4900000002}},{"attributes":{"ID":358306,"DIS_CODE":0,"TOWNNAME":"南區","LI":"金華里","LIN":"30鄰","STREET":"新孝路","SECT":" ","MAREA":" ","LANE":"１２６巷","ALLEY":" ","HOUSE_NO":"２５號","E_COORD97":166589.12,"N_COORD97":2542146.7400000002,"ADDRESS":"新孝路１２６巷２５號","OBJECTID":358297},"geometry":{"x":166589.12000000104,"y":2542146.7400000002}},{"attributes":{"ID":358307,"DIS_CODE":0,"TOWNNAME":"南區","LI":"金華里","LIN":"30鄰","STREET":"新孝路","SECT":" ","MAREA":" ","LANE":"１４８巷","ALLEY":" ","HOUSE_NO":"１４號","E_COORD97":166549.82000000001,"N_COORD97":2542127.2999999998,"ADDRESS":"新孝路１４８巷１４號","OBJECTID":358298},"geometry":{"x":166549.8200000003,"y":2542127.3000000007}},{"attributes":{"ID":358308,"DIS_CODE":0,"TOWNNAME":"南區","LI":"金華里","LIN":"30鄰","STREET":"新孝路","SECT":" ","MAREA":" ","LANE":"１４８巷","ALLEY":" ","HOUSE_NO":"６號","E_COORD97":166542.75,"N_COORD97":2542107.6499999999,"ADDRESS":"新孝路１４８巷６號","OBJECTID":358299},"geometry":{"x":166542.75,"y":2542107.6500000004}},{"attributes":{"ID":358309,"DIS_CODE":0,"TOWNNAME":"新營區","LI":"南興里","LIN":"30鄰","STREET":"建業路","SECT":" ","MAREA":" ","LANE":"１５７巷","ALLEY":" ","HOUSE_NO":"３７號","E_COORD97":178394.47,"N_COORD97":2577390.9900000002,"ADDRESS":"建業路１５７巷３７號","OBJECTID":358300},"geometry":{"x":178394.4700000016,"y":2577390.9900000002}},{"attributes":{"ID":358310,"DIS_CODE":0,"TOWNNAME":"新營區","LI":"民榮里","LIN":"30鄰","STREET":"太子路","SECT":" ","MAREA":" ","LANE":"４４巷","ALLEY":" ","HOUSE_NO":"３８號","E_COORD97":178110.13,"N_COORD97":2578031.3599999999,"ADDRESS":"太子路４４巷３８號","OBJECTID":358301},"geometry":{"x":178110.12999999989,"y":2578031.3600000013}},{"attributes":{"ID":358311,"DIS_CODE":0,"TOWNNAME":"新營區","LI":"民榮里","LIN":"30鄰","STREET":"太子路","SECT":" ","MAREA":" ","LANE":"４４巷","ALLEY":" ","HOUSE_NO":"３５號","E_COORD97":178121.41,"N_COORD97":2578037.9500000002,"ADDRESS":"太子路４４巷３５號","OBJECTID":358302},"geometry":{"x":178121.41000000108,"y":2578037.9499999993}},{"attributes":{"ID":358312,"DIS_CODE":0,"TOWNNAME":"新營區","LI":"新東里","LIN":"24鄰","STREET":"大同路","SECT":" ","MAREA":" ","LANE":"５７巷","ALLEY":" ","HOUSE_NO":"７號","E_COORD97":180658.86680799999,"N_COORD97":2578989.8084800001,"ADDRESS":"大同路５７巷７號","OBJECTID":358303},"geometry":{"x":180658.86680800095,"y":2578989.8084810004}},{"attributes":{"ID":358313,"DIS_CODE":0,"TOWNNAME":"新營區","LI":"忠政里","LIN":"30鄰","STREET":"府西路","SECT":" ","MAREA":" ","LANE":"３３巷","ALLEY":" ","HOUSE_NO":"２號","E_COORD97":179790.89000000001,"N_COORD97":2578977.9199999999,"ADDRESS":"府西路３３巷２號","OBJECTID":358304},"geometry":{"x":179790.8900000006,"y":2578977.9199999999}},{"attributes":{"ID":358314,"DIS_CODE":0,"TOWNNAME":"新營區","LI":"民榮里","LIN":"30鄰","STREET":"太子路","SECT":" ","MAREA":" ","LANE":"４４巷","ALLEY":" ","HOUSE_NO":"４６號","E_COORD97":178077.37,"N_COORD97":2578028.2000000002,"ADDRESS":"太子路４４巷４６號","OBJECTID":358305},"geometry":{"x":178077.37000000104,"y":2578028.2000000011}},{"attributes":{"ID":358315,"DIS_CODE":0,"TOWNNAME":"歸仁區","LI":"六甲里","LIN":"30鄰","STREET":"民生十二街","SECT":" ","MAREA":" ","LANE":"１１５巷","ALLEY":" ","HOUSE_NO":"６４號","E_COORD97":175771.25,"N_COORD97":2539300.7999999998,"ADDRESS":"民生十二街１１５巷６４號","OBJECTID":358306},"geometry":{"x":175771.25000000093,"y":2539300.8000000026}},{"attributes":{"ID":358316,"DIS_CODE":0,"TOWNNAME":"關廟區","LI":"香洋里","LIN":"30鄰","STREET":"大富街","SECT":" ","MAREA":" ","LANE":"３０１巷","ALLEY":" ","HOUSE_NO":"３６號","E_COORD97":180972.22,"N_COORD97":2539711.25,"ADDRESS":"大富街３０１巷３６號","OBJECTID":358307},"geometry":{"x":180972.21999999974,"y":2539711.2500000019}},{"attributes":{"ID":358317,"DIS_CODE":0,"TOWNNAME":"關廟區","LI":"香洋里","LIN":"30鄰","STREET":"大仁街","SECT":" ","MAREA":" ","LANE":"４１６巷","ALLEY":" ","HOUSE_NO":"８號","E_COORD97":180982.57000000001,"N_COORD97":2539740.25,"ADDRESS":"大仁街４１６巷８號","OBJECTID":358308},"geometry":{"x":180982.5700000003,"y":2539740.2499999981}},{"attributes":{"ID":358318,"DIS_CODE":0,"TOWNNAME":"關廟區","LI":"香洋里","LIN":"30鄰","STREET":"大仁街","SECT":" ","MAREA":" ","LANE":"４１６巷","ALLEY":" ","HOUSE_NO":"２０號","E_COORD97":180963.42000000001,"N_COORD97":2539735.25,"ADDRESS":"大仁街４１６巷２０號","OBJECTID":358309},"geometry":{"x":180963.42000000179,"y":2539735.2500000019}},{"attributes":{"ID":358319,"DIS_CODE":0,"TOWNNAME":"關廟區","LI":"香洋里","LIN":"30鄰","STREET":"大仁街","SECT":" ","MAREA":" ","LANE":"４１６巷","ALLEY":" ","HOUSE_NO":"２號","E_COORD97":180982.57000000001,"N_COORD97":2539768.25,"ADDRESS":"大仁街４１６巷２號","OBJECTID":358310},"geometry":{"x":180982.5700000003,"y":2539768.2500000019}},{"attributes":{"ID":358320,"DIS_CODE":0,"TOWNNAME":"關廟區","LI":"香洋里","LIN":"30鄰","STREET":"大富街","SECT":" ","MAREA":" ","LANE":"３０１巷","ALLEY":" ","HOUSE_NO":"１２號","E_COORD97":181007.62,"N_COORD97":2539721.25,"ADDRESS":"大富街３０１巷１２號","OBJECTID":358311},"geometry":{"x":181007.62000000011,"y":2539721.2500000019}},{"attributes":{"ID":358321,"DIS_CODE":0,"TOWNNAME":"關廟區","LI":"香洋里","LIN":"30鄰","STREET":"大富街","SECT":" ","MAREA":" ","LANE":"３０１巷","ALLEY":" ","HOUSE_NO":"１６號","E_COORD97":181003.32000000001,"N_COORD97":2539721.25,"ADDRESS":"大富街３０１巷１６號","OBJECTID":358312},"geometry":{"x":181003.32000000216,"y":2539721.2500000019}},{"attributes":{"ID":358322,"DIS_CODE":0,"TOWNNAME":"關廟區","LI":"香洋里","LIN":"30鄰","STREET":"大富街","SECT":" ","MAREA":" ","LANE":"３０１巷","ALLEY":" ","HOUSE_NO":"６號","E_COORD97":181019.37,"N_COORD97":2539726.25,"ADDRESS":"大富街３０１巷６號","OBJECTID":358313},"geometry":{"x":181019.37000000011,"y":2539726.25}},{"attributes":{"ID":358323,"DIS_CODE":0,"TOWNNAME":"關廟區","LI":"香洋里","LIN":"30鄰","STREET":"大富街","SECT":" ","MAREA":" ","LANE":"３０１巷","ALLEY":" ","HOUSE_NO":"４０號","E_COORD97":180964.62,"N_COORD97":2539708.25,"ADDRESS":"大富街３０１巷４０號","OBJECTID":358314},"geometry":{"x":180964.62000000104,"y":2539708.2500000019}},{"attributes":{"ID":358324,"DIS_CODE":0,"TOWNNAME":"關廟區","LI":"香洋里","LIN":"30鄰","STREET":"大仁街","SECT":" ","MAREA":" ","LANE":"４１６巷","ALLEY":" ","HOUSE_NO":"６號","E_COORD97":180986.76999999999,"N_COORD97":2539741.25,"ADDRESS":"大仁街４１６巷６號","OBJECTID":358315},"geometry":{"x":180986.77000000048,"y":2539741.2500000019}},{"attributes":{"ID":358325,"DIS_CODE":0,"TOWNNAME":"關廟區","LI":"香洋里","LIN":"30鄰","STREET":"大富街","SECT":" ","MAREA":" ","LANE":"３０１巷","ALLEY":" ","HOUSE_NO":"２號","E_COORD97":181025.17000000001,"N_COORD97":2539727.25,"ADDRESS":"大富街３０１巷２號","OBJECTID":358316},"geometry":{"x":181025.16999999993,"y":2539727.2500000019}},{"attributes":{"ID":358326,"DIS_CODE":0,"TOWNNAME":"關廟區","LI":"香洋里","LIN":"30鄰","STREET":"大仁街","SECT":" ","MAREA":" ","LANE":"４１６巷","ALLEY":" ","HOUSE_NO":"１２號","E_COORD97":180975.72,"N_COORD97":2539737.25,"ADDRESS":"大仁街４１６巷１２號","OBJECTID":358317},"geometry":{"x":180975.71999999974,"y":2539737.2500000037}},{"attributes":{"ID":358327,"DIS_CODE":0,"TOWNNAME":"關廟區","LI":"香洋里","LIN":"30鄰","STREET":"大富街","SECT":" ","MAREA":" ","LANE":"３０１巷","ALLEY":" ","HOUSE_NO":"２０號","E_COORD97":180995.72,"N_COORD97":2539717.25,"ADDRESS":"大富街３０１巷２０號","OBJECTID":358318},"geometry":{"x":180995.72000000067,"y":2539717.2500000019}},{"attributes":{"ID":358328,"DIS_CODE":0,"TOWNNAME":"關廟區","LI":"香洋里","LIN":"30鄰","STREET":"大富街","SECT":" ","MAREA":" ","LANE":"３０１巷","ALLEY":" ","HOUSE_NO":"２８號","E_COORD97":180983.82000000001,"N_COORD97":2539714.25,"ADDRESS":"大富街３０１巷２８號","OBJECTID":358319},"geometry":{"x":180983.82000000123,"y":2539714.2500000019}},{"attributes":{"ID":358329,"DIS_CODE":0,"TOWNNAME":"關廟區","LI":"香洋里","LIN":"30鄰","STREET":"大富街","SECT":" ","MAREA":" ","LANE":"３０１巷","ALLEY":" ","HOUSE_NO":"１０號","E_COORD97":181011.01999999999,"N_COORD97":2539722.25,"ADDRESS":"大富街３０１巷１０號","OBJECTID":358320},"geometry":{"x":181011.01999999955,"y":2539722.25}},{"attributes":{"ID":358330,"DIS_CODE":0,"TOWNNAME":"關廟區","LI":"香洋里","LIN":"30鄰","STREET":"大富街","SECT":" ","MAREA":" ","LANE":"３０１巷","ALLEY":" ","HOUSE_NO":"４２號","E_COORD97":180958.82000000001,"N_COORD97":2539707.25,"ADDRESS":"大富街３０１巷４２號","OBJECTID":358321},"geometry":{"x":180958.8200000003,"y":2539707.2500000019}},{"attributes":{"ID":358331,"DIS_CODE":0,"TOWNNAME":"關廟區","LI":"香洋里","LIN":"30鄰","STREET":"大富街","SECT":" ","MAREA":" ","LANE":"３０１巷","ALLEY":" ","HOUSE_NO":"１８號","E_COORD97":180999.51999999999,"N_COORD97":2539719.25,"ADDRESS":"大富街３０１巷１８號","OBJECTID":358322},"geometry":{"x":180999.52000000142,"y":2539719.25}},{"attributes":{"ID":358332,"DIS_CODE":0,"TOWNNAME":"關廟區","LI":"香洋里","LIN":"30鄰","STREET":"大富街","SECT":" ","MAREA":" ","LANE":"３０１巷","ALLEY":" ","HOUSE_NO":"３８號","E_COORD97":180968.82000000001,"N_COORD97":2539710.25,"ADDRESS":"大富街３０１巷３８號","OBJECTID":358323},"geometry":{"x":180968.8200000003,"y":2539710.2500000037}},{"attributes":{"ID":358333,"DIS_CODE":0,"TOWNNAME":"北區","LI":"成德里","LIN":"30鄰","STREET":"海安路","SECT":"三段","MAREA":" ","LANE":"５００巷","ALLEY":" ","HOUSE_NO":"１０２號","E_COORD97":168112.69,"N_COORD97":2545675.0099999998,"ADDRESS":"海安路三段５００巷１０２號","OBJECTID":358324},"geometry":{"x":168112.69000000134,"y":2545675.0100000035}},{"attributes":{"ID":358334,"DIS_CODE":0,"TOWNNAME":"北區","LI":"成德里","LIN":"30鄰","STREET":"海安路","SECT":"三段","MAREA":" ","LANE":"５００巷","ALLEY":" ","HOUSE_NO":"１０６號","E_COORD97":168119.63,"N_COORD97":2545675.54,"ADDRESS":"海安路三段５００巷１０６號","OBJECTID":358325},"geometry":{"x":168119.63000000082,"y":2545675.540000001}},{"attributes":{"ID":358335,"DIS_CODE":0,"TOWNNAME":"北區","LI":"成德里","LIN":"30鄰","STREET":"海安路","SECT":"三段","MAREA":" ","LANE":"５００巷","ALLEY":" ","HOUSE_NO":"１０８號","E_COORD97":168126.31,"N_COORD97":2545675.54,"ADDRESS":"海安路三段５００巷１０８號","OBJECTID":358326},"geometry":{"x":168126.31000000052,"y":2545675.540000001}},{"attributes":{"ID":358336,"DIS_CODE":0,"TOWNNAME":"北區","LI":"成德里","LIN":"30鄰","STREET":"海安路","SECT":"三段","MAREA":" ","LANE":"５００巷","ALLEY":" ","HOUSE_NO":"１１０號","E_COORD97":168132.72,"N_COORD97":2545675.54,"ADDRESS":"海安路三段５００巷１１０號","OBJECTID":358327},"geometry":{"x":168132.71999999974,"y":2545675.540000001}},{"attributes":{"ID":358337,"DIS_CODE":0,"TOWNNAME":"北區","LI":"大港里","LIN":"30鄰","STREET":"賢北街","SECT":" ","MAREA":" ","LANE":"１９５巷","ALLEY":" ","HOUSE_NO":"２６號","E_COORD97":166128.42999999999,"N_COORD97":2545563.5699999998,"ADDRESS":"賢北街１９５巷２６號","OBJECTID":358328},"geometry":{"x":166128.43000000156,"y":2545563.570000004}},{"attributes":{"ID":358338,"DIS_CODE":0,"TOWNNAME":"北區","LI":"大港里","LIN":"30鄰","STREET":"賢北街","SECT":" ","MAREA":" ","LANE":"１９５巷","ALLEY":" ","HOUSE_NO":"２８號","E_COORD97":166122.85999999999,"N_COORD97":2545560.5800000001,"ADDRESS":"賢北街１９５巷２８號","OBJECTID":358329},"geometry":{"x":166122.8600000022,"y":2545560.5800000019}},{"attributes":{"ID":358339,"DIS_CODE":0,"TOWNNAME":"北區","LI":"大港里","LIN":"30鄰","STREET":"賢北街","SECT":" ","MAREA":" ","LANE":"１９５巷","ALLEY":" ","HOUSE_NO":"３０號","E_COORD97":166117.45999999999,"N_COORD97":2545557.0699999998,"ADDRESS":"賢北街１９５巷３０號","OBJECTID":358330},"geometry":{"x":166117.45999999996,"y":2545557.0700000022}},{"attributes":{"ID":358340,"DIS_CODE":0,"TOWNNAME":"北區","LI":"大港里","LIN":"30鄰","STREET":"賢北街","SECT":" ","MAREA":" ","LANE":"１９５巷","ALLEY":" ","HOUSE_NO":"４號","E_COORD97":166189.01999999999,"N_COORD97":2545593.3100000001,"ADDRESS":"賢北街１９５巷４號","OBJECTID":358331},"geometry":{"x":166189.02000000048,"y":2545593.3100000024}},{"attributes":{"ID":358341,"DIS_CODE":0,"TOWNNAME":"北區","LI":"大港里","LIN":"30鄰","STREET":"賢北街","SECT":" ","MAREA":" ","LANE":"１９５巷","ALLEY":" ","HOUSE_NO":"６號","E_COORD97":166185.29000000001,"N_COORD97":2545592.0499999998,"ADDRESS":"賢北街１９５巷６號","OBJECTID":358332},"geometry":{"x":166185.29000000004,"y":2545592.0500000026}},{"attributes":{"ID":358342,"DIS_CODE":0,"TOWNNAME":"北區","LI":"大港里","LIN":"30鄰","STREET":"賢北街","SECT":" ","MAREA":" ","LANE":"２２５巷","ALLEY":" ","HOUSE_NO":"６９號","E_COORD97":166060.95999999999,"N_COORD97":2545558.2999999998,"ADDRESS":"賢北街２２５巷６９號","OBJECTID":358333},"geometry":{"x":166060.96000000089,"y":2545558.3000000007}},{"attributes":{"ID":358343,"DIS_CODE":0,"TOWNNAME":"北區","LI":"大港里","LIN":"30鄰","STREET":"賢北街","SECT":" ","MAREA":" ","LANE":"２２５巷","ALLEY":" ","HOUSE_NO":"７１號","E_COORD97":166057.79999999999,"N_COORD97":2545563.0600000001,"ADDRESS":"賢北街２２５巷７１號","OBJECTID":358334},"geometry":{"x":166057.79999999981,"y":2545563.0600000005}},{"attributes":{"ID":358344,"DIS_CODE":0,"TOWNNAME":"北區","LI":"大港里","LIN":"30鄰","STREET":"賢北街","SECT":" ","MAREA":" ","LANE":"２２５巷","ALLEY":" ","HOUSE_NO":"７３號","E_COORD97":166054.44,"N_COORD97":2545566.75,"ADDRESS":"賢北街２２５巷７３號","OBJECTID":358335},"geometry":{"x":166054.44000000227,"y":2545566.7500000019}},{"attributes":{"ID":358345,"DIS_CODE":0,"TOWNNAME":"北區","LI":"大港里","LIN":"30鄰","STREET":"賢北街","SECT":" ","MAREA":" ","LANE":"２２５巷","ALLEY":" ","HOUSE_NO":"７號","E_COORD97":166151.76999999999,"N_COORD97":2545641.23,"ADDRESS":"賢北街２２５巷７號","OBJECTID":358336},"geometry":{"x":166151.77000000048,"y":2545641.2300000023}},{"attributes":{"ID":358346,"DIS_CODE":0,"TOWNNAME":"新營區","LI":"民榮里","LIN":"30鄰","STREET":"太子路","SECT":" ","MAREA":" ","LANE":"４４巷","ALLEY":" ","HOUSE_NO":"３３號","E_COORD97":178129.62,"N_COORD97":2578042.3399999999,"ADDRESS":"太子路４４巷３３號","OBJECTID":358337},"geometry":{"x":178129.62000000104,"y":2578042.3400000017}},{"attributes":{"ID":358347,"DIS_CODE":0,"TOWNNAME":"新營區","LI":"民榮里","LIN":"30鄰","STREET":"太子路","SECT":" ","MAREA":" ","LANE":"４４巷","ALLEY":" ","HOUSE_NO":"３９號","E_COORD97":178106.03,"N_COORD97":2578030.2799999998,"ADDRESS":"太子路４４巷３９號","OBJECTID":358338},"geometry":{"x":178106.03000000026,"y":2578030.2799999975}},{"attributes":{"ID":358348,"DIS_CODE":0,"TOWNNAME":"新營區","LI":"大宏里","LIN":"30鄰","STREET":"開元路","SECT":" ","MAREA":" ","LANE":"３１巷","ALLEY":" ","HOUSE_NO":"１３號","E_COORD97":180764.17999999999,"N_COORD97":2578630.04,"ADDRESS":"開元路３１巷１３號","OBJECTID":358339},"geometry":{"x":180764.1799999997,"y":2578630.040000001}},{"attributes":{"ID":358349,"DIS_CODE":0,"TOWNNAME":"新營區","LI":"大宏里","LIN":"30鄰","STREET":"開元路","SECT":" ","MAREA":" ","LANE":"３１巷","ALLEY":" ","HOUSE_NO":"３之１號","E_COORD97":180795.10999999999,"N_COORD97":2578614.4399999999,"ADDRESS":"開元路３１巷３之１號","OBJECTID":358340},"geometry":{"x":180795.11000000127,"y":2578614.4400000013}},{"attributes":{"ID":358350,"DIS_CODE":0,"TOWNNAME":"新營區","LI":"忠政里","LIN":"30鄰","STREET":"府西路","SECT":" ","MAREA":" ","LANE":"３３巷","ALLEY":" ","HOUSE_NO":"１１號","E_COORD97":179774.63,"N_COORD97":2578965.8199999998,"ADDRESS":"府西路３３巷１１號","OBJECTID":358341},"geometry":{"x":179774.62999999989,"y":2578965.8200000003}},{"attributes":{"ID":358351,"DIS_CODE":0,"TOWNNAME":"新營區","LI":"大宏里","LIN":"30鄰","STREET":"開元路","SECT":" ","MAREA":" ","LANE":"３１巷","ALLEY":" ","HOUSE_NO":"５號","E_COORD97":180779.20000000001,"N_COORD97":2578606.7000000002,"ADDRESS":"開元路３１巷５號","OBJECTID":358342},"geometry":{"x":180779.20000000112,"y":2578606.6999999993}},{"attributes":{"ID":358352,"DIS_CODE":0,"TOWNNAME":"新營區","LI":"南興里","LIN":"30鄰","STREET":"建業路","SECT":" ","MAREA":" ","LANE":"１５７巷","ALLEY":" ","HOUSE_NO":"１５號","E_COORD97":178399.70999999999,"N_COORD97":2577436.3599999999,"ADDRESS":"建業路１５７巷１５號","OBJECTID":358343},"geometry":{"x":178399.70999999996,"y":2577436.3599999994}},{"attributes":{"ID":358353,"DIS_CODE":0,"TOWNNAME":"新營區","LI":"新南里","LIN":"30鄰","STREET":"明清三街","SECT":" ","MAREA":" ","LANE":"２９巷","ALLEY":" ","HOUSE_NO":"５６號","E_COORD97":178167.95999999999,"N_COORD97":2578791.8999999999,"ADDRESS":"明清三街２９巷５６號","OBJECTID":358344},"geometry":{"x":178167.96000000089,"y":2578791.9000000022}},{"attributes":{"ID":358354,"DIS_CODE":0,"TOWNNAME":"新營區","LI":"新南里","LIN":"30鄰","STREET":"明清三街","SECT":" ","MAREA":" ","LANE":"２９巷","ALLEY":" ","HOUSE_NO":"５號","E_COORD97":178260.92000000001,"N_COORD97":2578812.4900000002,"ADDRESS":"明清三街２９巷５號","OBJECTID":358345},"geometry":{"x":178260.91999999993,"y":2578812.4900000002}},{"attributes":{"ID":358355,"DIS_CODE":0,"TOWNNAME":"新營區","LI":"南興里","LIN":"30鄰","STREET":"建業路","SECT":" ","MAREA":" ","LANE":"１５７巷","ALLEY":" ","HOUSE_NO":"１號","E_COORD97":178402.69,"N_COORD97":2577465.1299999999,"ADDRESS":"建業路１５７巷１號","OBJECTID":358346},"geometry":{"x":178402.69000000134,"y":2577465.1300000027}},{"attributes":{"ID":358356,"DIS_CODE":0,"TOWNNAME":"新營區","LI":"新南里","LIN":"30鄰","STREET":"明清三街","SECT":" ","MAREA":" ","LANE":"２９巷","ALLEY":" ","HOUSE_NO":"６０號","E_COORD97":178157.70000000001,"N_COORD97":2578787.52,"ADDRESS":"明清三街２９巷６０號","OBJECTID":358347},"geometry":{"x":178157.69999999925,"y":2578787.5199999996}},{"attributes":{"ID":358357,"DIS_CODE":0,"TOWNNAME":"新營區","LI":"新南里","LIN":"30鄰","STREET":"明清三街","SECT":" ","MAREA":" ","LANE":"２９巷","ALLEY":" ","HOUSE_NO":"４６號","E_COORD97":178190.51999999999,"N_COORD97":2578790.6899999999,"ADDRESS":"明清三街２９巷４６號","OBJECTID":358348},"geometry":{"x":178190.52000000142,"y":2578790.6900000032}},{"attributes":{"ID":358358,"DIS_CODE":0,"TOWNNAME":"新營區","LI":"新南里","LIN":"30鄰","STREET":"明清三街","SECT":" ","MAREA":" ","LANE":"２９巷","ALLEY":" ","HOUSE_NO":"１００號","E_COORD97":178132.35999999999,"N_COORD97":2578789.8700000001,"ADDRESS":"明清三街２９巷１００號","OBJECTID":358349},"geometry":{"x":178132.36000000034,"y":2578789.870000001}},{"attributes":{"ID":358359,"DIS_CODE":0,"TOWNNAME":"新營區","LI":"新南里","LIN":"30鄰","STREET":"明清三街","SECT":" ","MAREA":" ","LANE":"２９巷","ALLEY":" ","HOUSE_NO":"７號","E_COORD97":178259.88,"N_COORD97":2578808.0600000001,"ADDRESS":"明清三街２９巷７號","OBJECTID":358350},"geometry":{"x":178259.88000000082,"y":2578808.0600000005}},{"attributes":{"ID":358360,"DIS_CODE":0,"TOWNNAME":"新營區","LI":"新南里","LIN":"30鄰","STREET":"明清三街","SECT":" ","MAREA":" ","LANE":"２９巷","ALLEY":" ","HOUSE_NO":"４８號","E_COORD97":178185.39999999999,"N_COORD97":2578790.71,"ADDRESS":"明清三街２９巷４８號","OBJECTID":358351},"geometry":{"x":178185.39999999944,"y":2578790.7100000009}},{"attributes":{"ID":358361,"DIS_CODE":0,"TOWNNAME":"新營區","LI":"新南里","LIN":"30鄰","STREET":"明清三街","SECT":" ","MAREA":" ","LANE":"２９巷","ALLEY":" ","HOUSE_NO":"４０號","E_COORD97":178202.76999999999,"N_COORD97":2578786.2000000002,"ADDRESS":"明清三街２９巷４０號","OBJECTID":358352},"geometry":{"x":178202.77000000048,"y":2578786.1999999993}},{"attributes":{"ID":358362,"DIS_CODE":0,"TOWNNAME":"新營區","LI":"新南里","LIN":"30鄰","STREET":"明清三街","SECT":" ","MAREA":" ","LANE":"２９巷","ALLEY":" ","HOUSE_NO":"５２號","E_COORD97":178177.16,"N_COORD97":2578790.75,"ADDRESS":"明清三街２９巷５２號","OBJECTID":358353},"geometry":{"x":178177.16000000108,"y":2578790.7500000037}},{"attributes":{"ID":358363,"DIS_CODE":0,"TOWNNAME":"新營區","LI":"新南里","LIN":"30鄰","STREET":"明清三街","SECT":" ","MAREA":" ","LANE":"２９巷","ALLEY":" ","HOUSE_NO":"２１號","E_COORD97":178255.92000000001,"N_COORD97":2578779.2999999998,"ADDRESS":"明清三街２９巷２１號","OBJECTID":358354},"geometry":{"x":178255.91999999993,"y":2578779.3000000026}},{"attributes":{"ID":358364,"DIS_CODE":0,"TOWNNAME":"新營區","LI":"忠政里","LIN":"30鄰","STREET":"府西路","SECT":" ","MAREA":" ","LANE":"３３巷","ALLEY":" ","HOUSE_NO":"１７號","E_COORD97":179762.35000000001,"N_COORD97":2578965.8799999999,"ADDRESS":"府西路３３巷１７號","OBJECTID":358355},"geometry":{"x":179762.35000000056,"y":2578965.8800000008}},{"attributes":{"ID":358365,"DIS_CODE":0,"TOWNNAME":"新營區","LI":"南興里","LIN":"30鄰","STREET":"建業路","SECT":" ","MAREA":" ","LANE":"１５７巷","ALLEY":" ","HOUSE_NO":"１１號","E_COORD97":178400.78,"N_COORD97":2577444.1099999999,"ADDRESS":"建業路１５７巷１１號","OBJECTID":358356},"geometry":{"x":178400.78000000026,"y":2577444.1099999994}},{"attributes":{"ID":358366,"DIS_CODE":0,"TOWNNAME":"新營區","LI":"南興里","LIN":"30鄰","STREET":"建業路","SECT":" ","MAREA":" ","LANE":"１５７巷","ALLEY":" ","HOUSE_NO":"１３號","E_COORD97":178400.75,"N_COORD97":2577439.6800000002,"ADDRESS":"建業路１５７巷１３號","OBJECTID":358357},"geometry":{"x":178400.75,"y":2577439.6800000016}},{"attributes":{"ID":358367,"DIS_CODE":0,"TOWNNAME":"永康區","LI":"永康里","LIN":"30鄰","STREET":"永華路","SECT":" ","MAREA":" ","LANE":"７４０巷","ALLEY":" ","HOUSE_NO":"５號","E_COORD97":174140.92000000001,"N_COORD97":2547132.7200000002,"ADDRESS":"永華路７４０巷５號","OBJECTID":358358},"geometry":{"x":174140.92000000086,"y":2547132.7200000025}},{"attributes":{"ID":358368,"DIS_CODE":0,"TOWNNAME":"永康區","LI":"\u25A0洲里","LIN":"30鄰","STREET":"洲尾街","SECT":" ","MAREA":" ","LANE":"３３５巷","ALLEY":" ","HOUSE_NO":"３６號","E_COORD97":171225.57000000001,"N_COORD97":2549153.2400000002,"ADDRESS":"洲尾街３３５巷３６號","OBJECTID":358359},"geometry":{"x":171225.57000000216,"y":2549153.2400000021}},{"attributes":{"ID":358369,"DIS_CODE":0,"TOWNNAME":"永康區","LI":"\u25A0洲里","LIN":"30鄰","STREET":"洲尾街","SECT":" ","MAREA":" ","LANE":"３２１巷","ALLEY":" ","HOUSE_NO":"４６號","E_COORD97":171213.20999999999,"N_COORD97":2549205.9500000002,"ADDRESS":"洲尾街３２１巷４６號","OBJECTID":358360},"geometry":{"x":171213.20999999996,"y":2549205.9500000011}},{"attributes":{"ID":358370,"DIS_CODE":0,"TOWNNAME":"永康區","LI":"\u25A0洲里","LIN":"30鄰","STREET":"洲尾街","SECT":" ","MAREA":" ","LANE":"３３５巷","ALLEY":" ","HOUSE_NO":"６６號","E_COORD97":171251.53,"N_COORD97":2549175.8700000001,"ADDRESS":"洲尾街３３５巷６６號","OBJECTID":358361},"geometry":{"x":171251.53000000119,"y":2549175.870000001}},{"attributes":{"ID":358371,"DIS_CODE":0,"TOWNNAME":"永康區","LI":"\u25A0洲里","LIN":"30鄰","STREET":"洲尾街","SECT":" ","MAREA":" ","LANE":"３２１巷","ALLEY":" ","HOUSE_NO":"２８號","E_COORD97":171189.94,"N_COORD97":2549189.2200000002,"ADDRESS":"洲尾街３２１巷２８號","OBJECTID":358362},"geometry":{"x":171189.94000000134,"y":2549189.2200000007}},{"attributes":{"ID":358372,"DIS_CODE":0,"TOWNNAME":"永康區","LI":"\u25A0洲里","LIN":"30鄰","STREET":"洲尾街","SECT":" ","MAREA":" ","LANE":"３２１巷","ALLEY":" ","HOUSE_NO":"２號","E_COORD97":171157.85999999999,"N_COORD97":2549161.9100000001,"ADDRESS":"洲尾街３２１巷２號","OBJECTID":358363},"geometry":{"x":171157.86000000127,"y":2549161.910000002}},{"attributes":{"ID":358373,"DIS_CODE":0,"TOWNNAME":"永康區","LI":"\u25A0洲里","LIN":"30鄰","STREET":"洲尾街","SECT":" ","MAREA":" ","LANE":"３２１巷","ALLEY":" ","HOUSE_NO":"４２號","E_COORD97":171210.48999999999,"N_COORD97":2549203.48,"ADDRESS":"洲尾街３２１巷４２號","OBJECTID":358364},"geometry":{"x":171210.49000000022,"y":2549203.4800000023}},{"attributes":{"ID":358374,"DIS_CODE":0,"TOWNNAME":"永康區","LI":"\u25A0洲里","LIN":"30鄰","STREET":"洲尾街","SECT":" ","MAREA":" ","LANE":"３３５巷","ALLEY":" ","HOUSE_NO":"５７號","E_COORD97":171236.23999999999,"N_COORD97":2549198.3700000001,"ADDRESS":"洲尾街３３５巷５７號","OBJECTID":358365},"geometry":{"x":171236.24000000209,"y":2549198.370000001}},{"attributes":{"ID":358375,"DIS_CODE":0,"TOWNNAME":"永康區","LI":"\u25A0洲里","LIN":"30鄰","STREET":"洲尾街","SECT":" ","MAREA":" ","LANE":"３３５巷","ALLEY":" ","HOUSE_NO":"１０號","E_COORD97":171195.17999999999,"N_COORD97":2549123.3300000001,"ADDRESS":"洲尾街３３５巷１０號","OBJECTID":358366},"geometry":{"x":171195.17999999877,"y":2549123.3300000001}},{"attributes":{"ID":358376,"DIS_CODE":0,"TOWNNAME":"永康區","LI":"\u25A0洲里","LIN":"30鄰","STREET":"洲尾街","SECT":" ","MAREA":" ","LANE":"３３５巷","ALLEY":" ","HOUSE_NO":"６號","E_COORD97":171184.16,"N_COORD97":2549121.4700000002,"ADDRESS":"洲尾街３３５巷６號","OBJECTID":358367},"geometry":{"x":171184.16000000201,"y":2549121.4700000025}},{"attributes":{"ID":358377,"DIS_CODE":0,"TOWNNAME":"永康區","LI":"\u25A0洲里","LIN":"30鄰","STREET":"洲尾街","SECT":" ","MAREA":" ","LANE":"３３５巷","ALLEY":" ","HOUSE_NO":"５８號","E_COORD97":171240.78,"N_COORD97":2549167.6099999999,"ADDRESS":"洲尾街３３５巷５８號","OBJECTID":358368},"geometry":{"x":171240.78000000026,"y":2549167.6100000013}},{"attributes":{"ID":358378,"DIS_CODE":0,"TOWNNAME":"永康區","LI":"\u25A0洲里","LIN":"30鄰","STREET":"洲尾街","SECT":" ","MAREA":" ","LANE":"３２１巷","ALLEY":" ","HOUSE_NO":"３０號","E_COORD97":171193.16,"N_COORD97":2549191.7999999998,"ADDRESS":"洲尾街３２１巷３０號","OBJECTID":358369},"geometry":{"x":171193.16000000108,"y":2549191.8000000007}},{"attributes":{"ID":358379,"DIS_CODE":0,"TOWNNAME":"永康區","LI":"\u25A0洲里","LIN":"30鄰","STREET":"洲尾街","SECT":" ","MAREA":" ","LANE":"３２１巷","ALLEY":" ","HOUSE_NO":"２２號","E_COORD97":171183.42000000001,"N_COORD97":2549184.1499999999,"ADDRESS":"洲尾街３２１巷２２號","OBJECTID":358370},"geometry":{"x":171183.41999999993,"y":2549184.1500000022}},{"attributes":{"ID":358380,"DIS_CODE":0,"TOWNNAME":"永康區","LI":"\u25A0洲里","LIN":"30鄰","STREET":"洲尾街","SECT":" ","MAREA":" ","LANE":"３２１巷","ALLEY":" ","HOUSE_NO":"５６號","E_COORD97":171225.31,"N_COORD97":2549210.9500000002,"ADDRESS":"洲尾街３２１巷５６號","OBJECTID":358371},"geometry":{"x":171225.31000000052,"y":2549210.950000003}},{"attributes":{"ID":358381,"DIS_CODE":0,"TOWNNAME":"永康區","LI":"\u25A0洲里","LIN":"30鄰","STREET":"洲尾街","SECT":" ","MAREA":" ","LANE":"３３５巷","ALLEY":" ","HOUSE_NO":"５１號","E_COORD97":171222.5,"N_COORD97":2549193.0499999998,"ADDRESS":"洲尾街３３５巷５１號","OBJECTID":358372},"geometry":{"x":171222.50000000093,"y":2549193.0500000026}},{"attributes":{"ID":358382,"DIS_CODE":0,"TOWNNAME":"永康區","LI":"\u25A0洲里","LIN":"30鄰","STREET":"洲尾街","SECT":" ","MAREA":" ","LANE":"３２１巷","ALLEY":" ","HOUSE_NO":"４０號","E_COORD97":171207.39000000001,"N_COORD97":2549200.7000000002,"ADDRESS":"洲尾街３２１巷４０號","OBJECTID":358373},"geometry":{"x":171207.39000000153,"y":2549200.7000000011}},{"attributes":{"ID":358383,"DIS_CODE":0,"TOWNNAME":"永康區","LI":"\u25A0洲里","LIN":"30鄰","STREET":"洲尾街","SECT":" ","MAREA":" ","LANE":"３３５巷","ALLEY":" ","HOUSE_NO":"３０號","E_COORD97":171219.48999999999,"N_COORD97":2549147.5,"ADDRESS":"洲尾街３３５巷３０號","OBJECTID":358374},"geometry":{"x":171219.49000000115,"y":2549147.5000000019}},{"attributes":{"ID":358384,"DIS_CODE":0,"TOWNNAME":"永康區","LI":"\u25A0洲里","LIN":"30鄰","STREET":"洲尾街","SECT":" ","MAREA":" ","LANE":"３３５巷","ALLEY":" ","HOUSE_NO":"２８號","E_COORD97":171214.95000000001,"N_COORD97":2549145.2599999998,"ADDRESS":"洲尾街３３５巷２８號","OBJECTID":358375},"geometry":{"x":171214.95000000112,"y":2549145.2600000035}},{"attributes":{"ID":358385,"DIS_CODE":0,"TOWNNAME":"永康區","LI":"\u25A0洲里","LIN":"30鄰","STREET":"洲尾街","SECT":" ","MAREA":" ","LANE":"３３５巷","ALLEY":" ","HOUSE_NO":"２０號","E_COORD97":171207.32000000001,"N_COORD97":2549136,"ADDRESS":"洲尾街３３５巷２０號","OBJECTID":358376},"geometry":{"x":171207.32000000123,"y":2549136}},{"attributes":{"ID":358386,"DIS_CODE":0,"TOWNNAME":"永康區","LI":"\u25A0洲里","LIN":"30鄰","STREET":"洲尾街","SECT":" ","MAREA":" ","LANE":"３３５巷","ALLEY":" ","HOUSE_NO":"３７號","E_COORD97":171219.01000000001,"N_COORD97":2549183.3100000001,"ADDRESS":"洲尾街３３５巷３７號","OBJECTID":358377},"geometry":{"x":171219.01000000071,"y":2549183.3100000024}},{"attributes":{"ID":358387,"DIS_CODE":0,"TOWNNAME":"新營區","LI":"新東里","LIN":"25鄰","STREET":"東興三街","SECT":" ","MAREA":" ","LANE":"２２巷","ALLEY":" ","HOUSE_NO":"２３號八樓","E_COORD97":180696.79000000001,"N_COORD97":2579418.8700000001,"ADDRESS":"東興三街２２巷２３號八樓","OBJECTID":358378},"geometry":{"x":180696.79000000097,"y":2579418.8700000029}},{"attributes":{"ID":358388,"DIS_CODE":0,"TOWNNAME":"北區","LI":"中樓里","LIN":"5鄰","STREET":"前鋒路","SECT":" ","MAREA":" ","LANE":"２９７巷","ALLEY":" ","HOUSE_NO":"１號","E_COORD97":169600.92000000001,"N_COORD97":2545090.9399999999,"ADDRESS":"前鋒路２９７巷１號","OBJECTID":358379},"geometry":{"x":169600.92000000086,"y":2545090.9399999995}},{"attributes":{"ID":358389,"DIS_CODE":0,"TOWNNAME":"永康區","LI":"崑山里","LIN":"30鄰","STREET":"崑山街","SECT":" ","MAREA":" ","LANE":"１０３巷","ALLEY":" ","HOUSE_NO":"８號","E_COORD97":173955.70000000001,"N_COORD97":2544776.1899999999,"ADDRESS":"崑山街１０３巷８號","OBJECTID":358380},"geometry":{"x":173955.70000000112,"y":2544776.1900000013}},{"attributes":{"ID":358390,"DIS_CODE":0,"TOWNNAME":"永康區","LI":"\u25A0洲里","LIN":"30鄰","STREET":"洲尾街","SECT":" ","MAREA":" ","LANE":"３３５巷","ALLEY":" ","HOUSE_NO":"１２號","E_COORD97":171200.60000000001,"N_COORD97":2549124.4300000002,"ADDRESS":"洲尾街３３５巷１２號","OBJECTID":358381},"geometry":{"x":171200.59999999963,"y":2549124.4300000016}},{"attributes":{"ID":358391,"DIS_CODE":0,"TOWNNAME":"永康區","LI":"\u25A0洲里","LIN":"30鄰","STREET":"洲尾街","SECT":" ","MAREA":" ","LANE":"３３５巷","ALLEY":" ","HOUSE_NO":"１７號","E_COORD97":171187.84,"N_COORD97":2549155.98,"ADDRESS":"洲尾街３３５巷１７號","OBJECTID":358382},"geometry":{"x":171187.84000000078,"y":2549155.9800000023}},{"attributes":{"ID":358392,"DIS_CODE":0,"TOWNNAME":"永康區","LI":"\u25A0洲里","LIN":"30鄰","STREET":"洲尾街","SECT":" ","MAREA":" ","LANE":"３３５巷","ALLEY":" ","HOUSE_NO":"５２號","E_COORD97":171233.60000000001,"N_COORD97":2549162.8799999999,"ADDRESS":"洲尾街３３５巷５２號","OBJECTID":358383},"geometry":{"x":171233.60000000056,"y":2549162.879999999}},{"attributes":{"ID":358393,"DIS_CODE":0,"TOWNNAME":"永康區","LI":"\u25A0洲里","LIN":"30鄰","STREET":"洲尾街","SECT":" ","MAREA":" ","LANE":"３２１巷","ALLEY":" ","HOUSE_NO":"６０號","E_COORD97":171231.72,"N_COORD97":2549216.79,"ADDRESS":"洲尾街３２１巷６０號","OBJECTID":358384},"geometry":{"x":171231.71999999974,"y":2549216.790000001}},{"attributes":{"ID":358394,"DIS_CODE":0,"TOWNNAME":"永康區","LI":"\u25A0洲里","LIN":"30鄰","STREET":"洲尾街","SECT":" ","MAREA":" ","LANE":"３３５巷","ALLEY":" ","HOUSE_NO":"５５號","E_COORD97":171229.82000000001,"N_COORD97":2549203.27,"ADDRESS":"洲尾街３３５巷５５號","OBJECTID":358385},"geometry":{"x":171229.8200000003,"y":2549203.2700000014}},{"attributes":{"ID":358395,"DIS_CODE":0,"TOWNNAME":"永康區","LI":"\u25A0洲里","LIN":"30鄰","STREET":"洲尾街","SECT":" ","MAREA":" ","LANE":"３３５巷","ALLEY":" ","HOUSE_NO":"１８號","E_COORD97":171201.78,"N_COORD97":2549135.5600000001,"ADDRESS":"洲尾街３３５巷１８號","OBJECTID":358386},"geometry":{"x":171201.78000000026,"y":2549135.5600000005}},{"attributes":{"ID":358396,"DIS_CODE":0,"TOWNNAME":"永康區","LI":"\u25A0洲里","LIN":"30鄰","STREET":"洲尾街","SECT":" ","MAREA":" ","LANE":"３２１巷","ALLEY":" ","HOUSE_NO":"８號","E_COORD97":171165.72,"N_COORD97":2549166.21,"ADDRESS":"洲尾街３２１巷８號","OBJECTID":358387},"geometry":{"x":171165.71999999974,"y":2549166.2100000009}},{"attributes":{"ID":358397,"DIS_CODE":0,"TOWNNAME":"永康區","LI":"\u25A0洲里","LIN":"30鄰","STREET":"洲尾街","SECT":" ","MAREA":" ","LANE":"３３５巷","ALLEY":" ","HOUSE_NO":"１６號","E_COORD97":171199.82999999999,"N_COORD97":2549131.79,"ADDRESS":"洲尾街３３５巷１６號","OBJECTID":358388},"geometry":{"x":171199.83000000194,"y":2549131.790000001}},{"attributes":{"ID":358398,"DIS_CODE":0,"TOWNNAME":"永康區","LI":"\u25A0洲里","LIN":"30鄰","STREET":"洲尾街","SECT":" ","MAREA":" ","LANE":"３３５巷","ALLEY":" ","HOUSE_NO":"２９號","E_COORD97":171208.12,"N_COORD97":2549172.0299999998,"ADDRESS":"洲尾街３３５巷２９號","OBJECTID":358389},"geometry":{"x":171208.12000000197,"y":2549172.0299999993}},{"attributes":{"ID":358400,"DIS_CODE":0,"TOWNNAME":"永康區","LI":"\u25A0洲里","LIN":"30鄰","STREET":"洲尾街","SECT":" ","MAREA":" ","LANE":"３３５巷","ALLEY":" ","HOUSE_NO":"１３號","E_COORD97":171181.76000000001,"N_COORD97":2549150.23,"ADDRESS":"洲尾街３３５巷１３號","OBJECTID":358390},"geometry":{"x":171181.76000000071,"y":2549150.2300000023}},{"attributes":{"ID":358401,"DIS_CODE":0,"TOWNNAME":"中西區","LI":"三合里","LIN":"8鄰","STREET":"成功路","SECT":" ","MAREA":" ","LANE":" ","ALLEY":" ","HOUSE_NO":"４５７號十樓之４","E_COORD97":167602.39000000001,"N_COORD97":2544649.3900000001,"ADDRESS":"成功路４５７號十樓之４","OBJECTID":358391},"geometry":{"x":167602.3900000006,"y":2544649.3900000043}},{"attributes":{"ID":358402,"DIS_CODE":0,"TOWNNAME":"中西區","LI":"三合里","LIN":"8鄰","STREET":"成功路","SECT":" ","MAREA":" ","LANE":" ","ALLEY":" ","HOUSE_NO":"４５７號十樓之５","E_COORD97":167602.39000000001,"N_COORD97":2544649.3900000001,"ADDRESS":"成功路４５７號十樓之５","OBJECTID":358392},"geometry":{"x":167602.3900000006,"y":2544649.3900000043}},{"attributes":{"ID":358403,"DIS_CODE":0,"TOWNNAME":"永康區","LI":"\u25A0洲里","LIN":"30鄰","STREET":"洲尾街","SECT":" ","MAREA":" ","LANE":"３３５巷","ALLEY":" ","HOUSE_NO":"３號","E_COORD97":171167.32999999999,"N_COORD97":2549131.3999999999,"ADDRESS":"洲尾街３３５巷３號","OBJECTID":358393},"geometry":{"x":171167.33000000007,"y":2549131.4000000041}},{"attributes":{"ID":358404,"DIS_CODE":0,"TOWNNAME":"永康區","LI":"\u25A0洲里","LIN":"30鄰","STREET":"洲尾街","SECT":" ","MAREA":" ","LANE":"３３５巷","ALLEY":" ","HOUSE_NO":"１５號","E_COORD97":171184.79999999999,"N_COORD97":2549153.1099999999,"ADDRESS":"洲尾街３３５巷１５號","OBJECTID":358394},"geometry":{"x":171184.80000000075,"y":2549153.1100000013}},{"attributes":{"ID":358405,"DIS_CODE":0,"TOWNNAME":"永康區","LI":"\u25A0洲里","LIN":"30鄰","STREET":"洲尾街","SECT":" ","MAREA":" ","LANE":"３３５巷","ALLEY":" ","HOUSE_NO":"２７號","E_COORD97":171203.67999999999,"N_COORD97":2549169.8500000001,"ADDRESS":"洲尾街３３５巷２７號","OBJECTID":358395},"geometry":{"x":171203.67999999877,"y":2549169.8499999996}},{"attributes":{"ID":358406,"DIS_CODE":0,"TOWNNAME":"永康區","LI":"\u25A0洲里","LIN":"30鄰","STREET":"洲尾街","SECT":" ","MAREA":" ","LANE":"３３５巷","ALLEY":" ","HOUSE_NO":"２５號","E_COORD97":171198.23999999999,"N_COORD97":2549169.3900000001,"ADDRESS":"洲尾街３３５巷２５號","OBJECTID":358396},"geometry":{"x":171198.24000000022,"y":2549169.3900000025}},{"attributes":{"ID":358407,"DIS_CODE":0,"TOWNNAME":"永康區","LI":"崑山里","LIN":"30鄰","STREET":"崑山街","SECT":" ","MAREA":" ","LANE":"１０３巷","ALLEY":" ","HOUSE_NO":"１０號","E_COORD97":173950.48000000001,"N_COORD97":2544778.0099999998,"ADDRESS":"崑山街１０３巷１０號","OBJECTID":358397},"geometry":{"x":173950.48000000231,"y":2544778.0100000016}},{"attributes":{"ID":358408,"DIS_CODE":0,"TOWNNAME":"永康區","LI":"\u25A0洲里","LIN":"30鄰","STREET":"洲尾街","SECT":" ","MAREA":" ","LANE":"３２１巷","ALLEY":" ","HOUSE_NO":"２６號","E_COORD97":171186.69,"N_COORD97":2549186.6699999999,"ADDRESS":"洲尾街３２１巷２６號","OBJECTID":358398},"geometry":{"x":171186.69000000041,"y":2549186.6700000037}},{"attributes":{"ID":358409,"DIS_CODE":0,"TOWNNAME":"永康區","LI":"\u25A0洲里","LIN":"30鄰","STREET":"洲尾街","SECT":" ","MAREA":" ","LANE":"３３５巷","ALLEY":" ","HOUSE_NO":"７號","E_COORD97":171172.82000000001,"N_COORD97":2549140.5,"ADDRESS":"洲尾街３３５巷７號","OBJECTID":358399},"geometry":{"x":171172.81999999937,"y":2549140.5000000037}},{"attributes":{"ID":358410,"DIS_CODE":0,"TOWNNAME":"永康區","LI":"\u25A0洲里","LIN":"30鄰","STREET":"洲尾街","SECT":" ","MAREA":" ","LANE":"３３５巷","ALLEY":" ","HOUSE_NO":"５６號","E_COORD97":171237.73999999999,"N_COORD97":2549164.73,"ADDRESS":"洲尾街３３５巷５６號","OBJECTID":358400},"geometry":{"x":171237.73999999929,"y":2549164.7300000004}}]}