{"displayFieldName":"TOWNNAME","fieldAliases":{"ID":"ID","DIS_CODE":"DIS_CODE","TOWNNAME":"TOWNNAME","LI":"LI","LIN":"LIN","STREET":"STREET","SECT":"SECT","MAREA":"MAREA","LANE":"LANE","ALLEY":"ALLEY","HOUSE_NO":"HOUSE_NO","E_COORD97":"E_COORD97","N_COORD97":"N_COORD97","ADDRESS":"ADDRESS","OBJECTID":"OBJECTID"},"geometryType":"esriGeometryPoint","spatialReference":{"wkid":102443,"latestWkid":3826},"fields":[{"name":"ID","type":"esriFieldTypeDouble","alias":"ID"},{"name":"DIS_CODE","type":"esriFieldTypeInteger","alias":"DIS_CODE"},{"name":"TOWNNAME","type":"esriFieldTypeString","alias":"TOWNNAME","length":8},{"name":"LI","type":"esriFieldTypeString","alias":"LI","length":8},{"name":"LIN","type":"esriFieldTypeString","alias":"LIN","length":12},{"name":"STREET","type":"esriFieldTypeString","alias":"STREET","length":20},{"name":"SECT","type":"esriFieldTypeString","alias":"SECT","length":8},{"name":"MAREA","type":"esriFieldTypeString","alias":"MAREA","length":12},{"name":"LANE","type":"esriFieldTypeString","alias":"LANE","length":10},{"name":"ALLEY","type":"esriFieldTypeString","alias":"ALLEY","length":10},{"name":"HOUSE_NO","type":"esriFieldTypeString","alias":"HOUSE_NO","length":20},{"name":"E_COORD97","type":"esriFieldTypeDouble","alias":"E_COORD97"},{"name":"N_COORD97","type":"esriFieldTypeDouble","alias":"N_COORD97"},{"name":"ADDRESS","type":"esriFieldTypeString","alias":"ADDRESS","length":50},{"name":"OBJECTID","type":"esriFieldTypeOID","alias":"OBJECTID"}],"features":[{"attributes":{"ID":570828,"DIS_CODE":0,"TOWNNAME":"歸仁區","LI":"崙頂里","LIN":"29鄰","STREET":"成功十街","SECT":" ","MAREA":" ","LANE":" ","ALLEY":" ","HOUSE_NO":"１３號","E_COORD97":177763.92999999999,"N_COORD97":2539660.25,"ADDRESS":"成功十街１３號","OBJECTID":570801},"geometry":{"x":177763.9299999997,"y":2539660.2500000019}},{"attributes":{"ID":570829,"DIS_CODE":0,"TOWNNAME":"歸仁區","LI":"崙頂里","LIN":"29鄰","STREET":"成功十街","SECT":" ","MAREA":" ","LANE":" ","ALLEY":" ","HOUSE_NO":"１３之２號","E_COORD97":177755.13,"N_COORD97":2539643.2599999998,"ADDRESS":"成功十街１３之２號","OBJECTID":570802},"geometry":{"x":177755.13000000082,"y":2539643.2600000016}},{"attributes":{"ID":570830,"DIS_CODE":0,"TOWNNAME":"歸仁區","LI":"許厝里","LIN":"29鄰","STREET":"中山路","SECT":"一段","MAREA":" ","LANE":" ","ALLEY":" ","HOUSE_NO":"５１９號","E_COORD97":177947.26000000001,"N_COORD97":2540719.8199999998,"ADDRESS":"中山路一段５１９號","OBJECTID":570803},"geometry":{"x":177947.26000000071,"y":2540719.8200000003}},{"attributes":{"ID":570831,"DIS_CODE":0,"TOWNNAME":"歸仁區","LI":"崙頂里","LIN":"29鄰","STREET":"成功十街","SECT":" ","MAREA":" ","LANE":" ","ALLEY":" ","HOUSE_NO":"１９號","E_COORD97":177766.03,"N_COORD97":2539671.25,"ADDRESS":"成功十街１９號","OBJECTID":570804},"geometry":{"x":177766.03000000119,"y":2539671.25}},{"attributes":{"ID":570832,"DIS_CODE":0,"TOWNNAME":"歸仁區","LI":"南興里","LIN":"29鄰","STREET":"保興街","SECT":" ","MAREA":" ","LANE":" ","ALLEY":" ","HOUSE_NO":"１０３號","E_COORD97":176501.37,"N_COORD97":2541160.25,"ADDRESS":"保興街１０３號","OBJECTID":570805},"geometry":{"x":176501.37000000011,"y":2541160.25}},{"attributes":{"ID":570833,"DIS_CODE":0,"TOWNNAME":"歸仁區","LI":"六甲里","LIN":"29鄰","STREET":"六甲路","SECT":" ","MAREA":" ","LANE":" ","ALLEY":" ","HOUSE_NO":"２７０號","E_COORD97":175825.26999999999,"N_COORD97":2539223.25,"ADDRESS":"六甲路２７０號","OBJECTID":570806},"geometry":{"x":175825.26999999955,"y":2539223.2500000019}},{"attributes":{"ID":570834,"DIS_CODE":0,"TOWNNAME":"歸仁區","LI":"許厝里","LIN":"29鄰","STREET":"中山路","SECT":"一段","MAREA":" ","LANE":" ","ALLEY":" ","HOUSE_NO":"５０３號","E_COORD97":177987.26000000001,"N_COORD97":2540712.8199999998,"ADDRESS":"中山路一段５０３號","OBJECTID":570807},"geometry":{"x":177987.25999999978,"y":2540712.8200000003}},{"attributes":{"ID":570835,"DIS_CODE":0,"TOWNNAME":"新營區","LI":"三仙里","LIN":"29鄰","STREET":"三興街","SECT":" ","MAREA":" ","LANE":" ","ALLEY":" ","HOUSE_NO":"８８號","E_COORD97":179445.84,"N_COORD97":2579070.3799999999,"ADDRESS":"三興街８８號","OBJECTID":570808},"geometry":{"x":179445.83999999985,"y":2579070.3800000027}},{"attributes":{"ID":570836,"DIS_CODE":0,"TOWNNAME":"新營區","LI":"民榮里","LIN":"29鄰","STREET":"太子路","SECT":" ","MAREA":" ","LANE":" ","ALLEY":" ","HOUSE_NO":"５８號","E_COORD97":178249.35000000001,"N_COORD97":2578067.23,"ADDRESS":"太子路５８號","OBJECTID":570809},"geometry":{"x":178249.3499999987,"y":2578067.2300000023}},{"attributes":{"ID":570837,"DIS_CODE":0,"TOWNNAME":"新營區","LI":"民榮里","LIN":"29鄰","STREET":"太子路","SECT":" ","MAREA":" ","LANE":" ","ALLEY":" ","HOUSE_NO":"５２號","E_COORD97":178263.70999999999,"N_COORD97":2578076.02,"ADDRESS":"太子路５２號","OBJECTID":570810},"geometry":{"x":178263.70999999996,"y":2578076.0199999996}},{"attributes":{"ID":570838,"DIS_CODE":0,"TOWNNAME":"新營區","LI":"三仙里","LIN":"29鄰","STREET":"三興街","SECT":" ","MAREA":" ","LANE":" ","ALLEY":" ","HOUSE_NO":"９２號","E_COORD97":179439.85000000001,"N_COORD97":2579120.2400000002,"ADDRESS":"三興街９２號","OBJECTID":570811},"geometry":{"x":179439.85000000056,"y":2579120.2400000039}},{"attributes":{"ID":570839,"DIS_CODE":0,"TOWNNAME":"新營區","LI":"新南里","LIN":"29鄰","STREET":"明清一街","SECT":" ","MAREA":" ","LANE":" ","ALLEY":" ","HOUSE_NO":"１１０號","E_COORD97":178032.81,"N_COORD97":2578720.5800000001,"ADDRESS":"明清一街１１０號","OBJECTID":570812},"geometry":{"x":178032.81000000145,"y":2578720.5800000001}},{"attributes":{"ID":570840,"DIS_CODE":0,"TOWNNAME":"新營區","LI":"新北里","LIN":"29鄰","STREET":"金華路","SECT":"二段","MAREA":" ","LANE":" ","ALLEY":" ","HOUSE_NO":"１０７號","E_COORD97":178836.64000000001,"N_COORD97":2578907.1800000002,"ADDRESS":"金華路二段１０７號","OBJECTID":570813},"geometry":{"x":178836.63999999966,"y":2578907.1800000016}},{"attributes":{"ID":570841,"DIS_CODE":0,"TOWNNAME":"新營區","LI":"新北里","LIN":"29鄰","STREET":"金華路","SECT":"二段","MAREA":" ","LANE":" ","ALLEY":" ","HOUSE_NO":"１０３號","E_COORD97":178842.81,"N_COORD97":2578913.79,"ADDRESS":"金華路二段１０３號","OBJECTID":570814},"geometry":{"x":178842.80999999959,"y":2578913.7899999991}},{"attributes":{"ID":570842,"DIS_CODE":0,"TOWNNAME":"新營區","LI":"民榮里","LIN":"29鄰","STREET":"太子路","SECT":" ","MAREA":" ","LANE":" ","ALLEY":" ","HOUSE_NO":"７２號","E_COORD97":178202.17999999999,"N_COORD97":2578040.8799999999,"ADDRESS":"太子路７２號","OBJECTID":570815},"geometry":{"x":178202.18000000063,"y":2578040.8800000008}},{"attributes":{"ID":570843,"DIS_CODE":0,"TOWNNAME":"新營區","LI":"新北里","LIN":"29鄰","STREET":"金華路","SECT":"二段","MAREA":" ","LANE":" ","ALLEY":" ","HOUSE_NO":"８１號","E_COORD97":178887.73999999999,"N_COORD97":2578930.1899999999,"ADDRESS":"金華路二段８１號","OBJECTID":570816},"geometry":{"x":178887.74000000022,"y":2578930.1900000013}},{"attributes":{"ID":570844,"DIS_CODE":0,"TOWNNAME":"新營區","LI":"三仙里","LIN":"29鄰","STREET":"育德五街","SECT":" ","MAREA":" ","LANE":" ","ALLEY":" ","HOUSE_NO":"５４號","E_COORD97":179472.35999999999,"N_COORD97":2579063.6099999999,"ADDRESS":"育德五街５４號","OBJECTID":570817},"geometry":{"x":179472.3600000022,"y":2579063.6100000013}},{"attributes":{"ID":570845,"DIS_CODE":0,"TOWNNAME":"新營區","LI":"三仙里","LIN":"29鄰","STREET":"育德五街","SECT":" ","MAREA":" ","LANE":" ","ALLEY":" ","HOUSE_NO":"３２號","E_COORD97":179500,"N_COORD97":2579054.6200000001,"ADDRESS":"育德五街３２號","OBJECTID":570818},"geometry":{"x":179500.00000000186,"y":2579054.6200000029}},{"attributes":{"ID":570846,"DIS_CODE":0,"TOWNNAME":"新營區","LI":"新南里","LIN":"29鄰","STREET":"明清一街","SECT":" ","MAREA":" ","LANE":" ","ALLEY":" ","HOUSE_NO":"１６６號","E_COORD97":178147.29000000001,"N_COORD97":2578705.6299999999,"ADDRESS":"明清一街１６６號","OBJECTID":570819},"geometry":{"x":178147.29000000097,"y":2578705.6299999971}},{"attributes":{"ID":570847,"DIS_CODE":0,"TOWNNAME":"新營區","LI":"新南里","LIN":"29鄰","STREET":"明清一街","SECT":" ","MAREA":" ","LANE":" ","ALLEY":" ","HOUSE_NO":"１３８號","E_COORD97":178100.29999999999,"N_COORD97":2578716.9300000002,"ADDRESS":"明清一街１３８號","OBJECTID":570820},"geometry":{"x":178100.29999999981,"y":2578716.9299999997}},{"attributes":{"ID":570848,"DIS_CODE":0,"TOWNNAME":"新營區","LI":"三仙里","LIN":"29鄰","STREET":"育德五街","SECT":" ","MAREA":" ","LANE":" ","ALLEY":" ","HOUSE_NO":"６２號","E_COORD97":179468.34,"N_COORD97":2579081.3399999999,"ADDRESS":"育德五街６２號","OBJECTID":570821},"geometry":{"x":179468.33999999985,"y":2579081.3399999999}},{"attributes":{"ID":570849,"DIS_CODE":0,"TOWNNAME":"新營區","LI":"新南里","LIN":"29鄰","STREET":"明清一街","SECT":" ","MAREA":" ","LANE":" ","ALLEY":" ","HOUSE_NO":"１３８之３號","E_COORD97":178100.67999999999,"N_COORD97":2578701.48,"ADDRESS":"明清一街１３８之３號","OBJECTID":570822},"geometry":{"x":178100.6799999997,"y":2578701.4799999986}},{"attributes":{"ID":570850,"DIS_CODE":0,"TOWNNAME":"新營區","LI":"新南里","LIN":"29鄰","STREET":"明清一街","SECT":" ","MAREA":" ","LANE":" ","ALLEY":" ","HOUSE_NO":"１３８之１號","E_COORD97":178101.75,"N_COORD97":2578711.4500000002,"ADDRESS":"明清一街１３８之１號","OBJECTID":570823},"geometry":{"x":178101.75000000093,"y":2578711.4500000011}},{"attributes":{"ID":570851,"DIS_CODE":0,"TOWNNAME":"新營區","LI":"新南里","LIN":"29鄰","STREET":"明清一街","SECT":" ","MAREA":" ","LANE":" ","ALLEY":" ","HOUSE_NO":"１６號","E_COORD97":178146.88,"N_COORD97":2578665.7599999998,"ADDRESS":"明清一街１６號","OBJECTID":570824},"geometry":{"x":178146.88000000082,"y":2578665.7600000016}},{"attributes":{"ID":570852,"DIS_CODE":0,"TOWNNAME":"新營區","LI":"三仙里","LIN":"29鄰","STREET":"育德五街","SECT":" ","MAREA":" ","LANE":" ","ALLEY":" ","HOUSE_NO":"６６號","E_COORD97":179467.35000000001,"N_COORD97":2579089.1000000001,"ADDRESS":"育德五街６６號","OBJECTID":570825},"geometry":{"x":179467.35000000056,"y":2579089.0999999996}},{"attributes":{"ID":570853,"DIS_CODE":0,"TOWNNAME":"新營區","LI":"王公里","LIN":"29鄰","STREET":"大公街","SECT":" ","MAREA":" ","LANE":" ","ALLEY":" ","HOUSE_NO":"５６號","E_COORD97":180263.69,"N_COORD97":2579644.5899999999,"ADDRESS":"大公街５６號","OBJECTID":570826},"geometry":{"x":180263.69000000134,"y":2579644.5899999999}},{"attributes":{"ID":570854,"DIS_CODE":0,"TOWNNAME":"新營區","LI":"新南里","LIN":"29鄰","STREET":"明清一街","SECT":" ","MAREA":" ","LANE":" ","ALLEY":" ","HOUSE_NO":"１３８之４號","E_COORD97":178101.67999999999,"N_COORD97":2578697.0499999998,"ADDRESS":"明清一街１３８之４號","OBJECTID":570827},"geometry":{"x":178101.68000000063,"y":2578697.0500000007}},{"attributes":{"ID":570855,"DIS_CODE":0,"TOWNNAME":"歸仁區","LI":"六甲里","LIN":"29鄰","STREET":"六甲路","SECT":" ","MAREA":" ","LANE":" ","ALLEY":" ","HOUSE_NO":"２８４號","E_COORD97":175794.57000000001,"N_COORD97":2539227.25,"ADDRESS":"六甲路２８４號","OBJECTID":570828},"geometry":{"x":175794.57000000123,"y":2539227.25}},{"attributes":{"ID":570856,"DIS_CODE":0,"TOWNNAME":"歸仁區","LI":"許厝里","LIN":"29鄰","STREET":"大智街","SECT":" ","MAREA":" ","LANE":" ","ALLEY":" ","HOUSE_NO":"１３號","E_COORD97":177932.17000000001,"N_COORD97":2540690.5299999998,"ADDRESS":"大智街１３號","OBJECTID":570829},"geometry":{"x":177932.16999999899,"y":2540690.5300000031}},{"attributes":{"ID":570857,"DIS_CODE":0,"TOWNNAME":"關廟區","LI":"香洋里","LIN":"29鄰","STREET":"大富街","SECT":" ","MAREA":" ","LANE":" ","ALLEY":" ","HOUSE_NO":"３３３號","E_COORD97":181008.76999999999,"N_COORD97":2539796.25,"ADDRESS":"大富街３３３號","OBJECTID":570830},"geometry":{"x":181008.77000000048,"y":2539796.2500000019}},{"attributes":{"ID":570858,"DIS_CODE":0,"TOWNNAME":"關廟區","LI":"香洋里","LIN":"29鄰","STREET":"大富街","SECT":" ","MAREA":" ","LANE":" ","ALLEY":" ","HOUSE_NO":"３２５號","E_COORD97":181016.47,"N_COORD97":2539780.25,"ADDRESS":"大富街３２５號","OBJECTID":570831},"geometry":{"x":181016.46999999974,"y":2539780.25}},{"attributes":{"ID":570859,"DIS_CODE":0,"TOWNNAME":"關廟區","LI":"香洋里","LIN":"29鄰","STREET":"大富街","SECT":" ","MAREA":" ","LANE":" ","ALLEY":" ","HOUSE_NO":"３２３號","E_COORD97":181018.07000000001,"N_COORD97":2539776.25,"ADDRESS":"大富街３２３號","OBJECTID":570832},"geometry":{"x":181018.0700000003,"y":2539776.25}},{"attributes":{"ID":570860,"DIS_CODE":0,"TOWNNAME":"關廟區","LI":"香洋里","LIN":"29鄰","STREET":"大仁街","SECT":" ","MAREA":" ","LANE":" ","ALLEY":" ","HOUSE_NO":"４２６號","E_COORD97":180989.97,"N_COORD97":2539795.25,"ADDRESS":"大仁街４２６號","OBJECTID":570833},"geometry":{"x":180989.9700000016,"y":2539795.2500000019}},{"attributes":{"ID":570861,"DIS_CODE":0,"TOWNNAME":"關廟區","LI":"香洋里","LIN":"29鄰","STREET":"大富街","SECT":" ","MAREA":" ","LANE":" ","ALLEY":" ","HOUSE_NO":"３２９號","E_COORD97":181012.67000000001,"N_COORD97":2539788.25,"ADDRESS":"大富街３２９號","OBJECTID":570834},"geometry":{"x":181012.67000000086,"y":2539788.2500000019}},{"attributes":{"ID":570862,"DIS_CODE":0,"TOWNNAME":"關廟區","LI":"香洋里","LIN":"29鄰","STREET":"大富街","SECT":" ","MAREA":" ","LANE":" ","ALLEY":" ","HOUSE_NO":"３３１號","E_COORD97":181010.37,"N_COORD97":2539792.25,"ADDRESS":"大富街３３１號","OBJECTID":570835},"geometry":{"x":181010.37000000104,"y":2539792.2500000019}},{"attributes":{"ID":570863,"DIS_CODE":0,"TOWNNAME":"關廟區","LI":"香洋里","LIN":"29鄰","STREET":"大仁街","SECT":" ","MAREA":" ","LANE":" ","ALLEY":" ","HOUSE_NO":"４１８號","E_COORD97":180978.47,"N_COORD97":2539787.25,"ADDRESS":"大仁街４１８號","OBJECTID":570836},"geometry":{"x":180978.47000000067,"y":2539787.25}},{"attributes":{"ID":570864,"DIS_CODE":0,"TOWNNAME":"關廟區","LI":"香洋里","LIN":"29鄰","STREET":"大富街","SECT":" ","MAREA":" ","LANE":" ","ALLEY":" ","HOUSE_NO":"３１８號","E_COORD97":181040.26999999999,"N_COORD97":2539770.25,"ADDRESS":"大富街３１８號","OBJECTID":570837},"geometry":{"x":181040.27000000142,"y":2539770.25}},{"attributes":{"ID":570865,"DIS_CODE":0,"TOWNNAME":"關廟區","LI":"香洋里","LIN":"29鄰","STREET":"大富街","SECT":" ","MAREA":" ","LANE":" ","ALLEY":" ","HOUSE_NO":"３２２號","E_COORD97":181035.67000000001,"N_COORD97":2539779.25,"ADDRESS":"大富街３２２號","OBJECTID":570838},"geometry":{"x":181035.66999999993,"y":2539779.2500000019}},{"attributes":{"ID":570866,"DIS_CODE":0,"TOWNNAME":"關廟區","LI":"香洋里","LIN":"29鄰","STREET":"大仁街","SECT":" ","MAREA":" ","LANE":" ","ALLEY":" ","HOUSE_NO":"４２２號","E_COORD97":180986.17000000001,"N_COORD97":2539792.25,"ADDRESS":"大仁街４２２號","OBJECTID":570839},"geometry":{"x":180986.17000000086,"y":2539792.2500000019}},{"attributes":{"ID":570867,"DIS_CODE":0,"TOWNNAME":"關廟區","LI":"香洋里","LIN":"29鄰","STREET":"大富街","SECT":" ","MAREA":" ","LANE":" ","ALLEY":" ","HOUSE_NO":"３０７號","E_COORD97":181030.26999999999,"N_COORD97":2539744.25,"ADDRESS":"大富街３０７號","OBJECTID":570840},"geometry":{"x":181030.27000000048,"y":2539744.2500000019}},{"attributes":{"ID":570868,"DIS_CODE":0,"TOWNNAME":"關廟區","LI":"香洋里","LIN":"29鄰","STREET":"大富街","SECT":" ","MAREA":" ","LANE":" ","ALLEY":" ","HOUSE_NO":"３０３號","E_COORD97":181035.26999999999,"N_COORD97":2539732.25,"ADDRESS":"大富街３０３號","OBJECTID":570841},"geometry":{"x":181035.27000000048,"y":2539732.25}},{"attributes":{"ID":570869,"DIS_CODE":0,"TOWNNAME":"關廟區","LI":"香洋里","LIN":"29鄰","STREET":"大仁街","SECT":" ","MAREA":" ","LANE":" ","ALLEY":" ","HOUSE_NO":"４２０號","E_COORD97":180981.57000000001,"N_COORD97":2539790.25,"ADDRESS":"大仁街４２０號","OBJECTID":570842},"geometry":{"x":180981.57000000123,"y":2539790.25}},{"attributes":{"ID":570870,"DIS_CODE":0,"TOWNNAME":"關廟區","LI":"香洋里","LIN":"29鄰","STREET":"大富街","SECT":" ","MAREA":" ","LANE":" ","ALLEY":" ","HOUSE_NO":"３１２號","E_COORD97":181043.37,"N_COORD97":2539762.25,"ADDRESS":"大富街３１２號","OBJECTID":570843},"geometry":{"x":181043.36999999918,"y":2539762.2500000019}},{"attributes":{"ID":570871,"DIS_CODE":0,"TOWNNAME":"關廟區","LI":"香洋里","LIN":"29鄰","STREET":"南雄路","SECT":"一段","MAREA":" ","LANE":" ","ALLEY":" ","HOUSE_NO":"１１３１號","E_COORD97":181047.69,"N_COORD97":2539818.23,"ADDRESS":"南雄路一段１１３１號","OBJECTID":570844},"geometry":{"x":181047.69000000041,"y":2539818.2300000004}},{"attributes":{"ID":570872,"DIS_CODE":0,"TOWNNAME":"新化區","LI":"東榮里","LIN":"29鄰","STREET":"信義路","SECT":" ","MAREA":" ","LANE":" ","ALLEY":" ","HOUSE_NO":"１５７號之６","E_COORD97":179315.78,"N_COORD97":2548322.2599999998,"ADDRESS":"信義路１５７號之６","OBJECTID":570845},"geometry":{"x":179315.78000000119,"y":2548322.2600000016}},{"attributes":{"ID":570873,"DIS_CODE":0,"TOWNNAME":"南區","LI":"大忠里","LIN":"29鄰","STREET":"中華南路","SECT":"一段","MAREA":" ","LANE":" ","ALLEY":" ","HOUSE_NO":"１００號","E_COORD97":169257.57000000001,"N_COORD97":2541351.3500000001,"ADDRESS":"中華南路一段１００號","OBJECTID":570846},"geometry":{"x":169257.57000000123,"y":2541351.3500000015}},{"attributes":{"ID":570874,"DIS_CODE":0,"TOWNNAME":"南區","LI":"大忠里","LIN":"29鄰","STREET":"中華南路","SECT":"一段","MAREA":" ","LANE":" ","ALLEY":" ","HOUSE_NO":"１０２號","E_COORD97":169252.29999999999,"N_COORD97":2541346.8100000001,"ADDRESS":"中華南路一段１０２號","OBJECTID":570847},"geometry":{"x":169252.30000000075,"y":2541346.8100000005}},{"attributes":{"ID":570875,"DIS_CODE":0,"TOWNNAME":"仁德區","LI":"仁義里","LIN":"12鄰","STREET":"中山路","SECT":" ","MAREA":" ","LANE":" ","ALLEY":" ","HOUSE_NO":"３０號","E_COORD97":175065.56,"N_COORD97":2541159.25,"ADDRESS":"中山路３０號","OBJECTID":570848},"geometry":{"x":175065.55999999959,"y":2541159.2500000019}},{"attributes":{"ID":570876,"DIS_CODE":0,"TOWNNAME":"北區","LI":"文元里","LIN":"29鄰","STREET":"文成路","SECT":" ","MAREA":" ","LANE":" ","ALLEY":" ","HOUSE_NO":"７１６號","E_COORD97":167630.95999999999,"N_COORD97":2545892.1299999999,"ADDRESS":"文成路７１６號","OBJECTID":570849},"geometry":{"x":167630.96000000089,"y":2545892.129999999}},{"attributes":{"ID":570877,"DIS_CODE":0,"TOWNNAME":"北區","LI":"文元里","LIN":"29鄰","STREET":"文成路","SECT":" ","MAREA":" ","LANE":" ","ALLEY":" ","HOUSE_NO":"７１８號","E_COORD97":167626.51000000001,"N_COORD97":2545891.9700000002,"ADDRESS":"文成路７１８號","OBJECTID":570850},"geometry":{"x":167626.51000000164,"y":2545891.9700000007}},{"attributes":{"ID":570878,"DIS_CODE":0,"TOWNNAME":"北區","LI":"文元里","LIN":"29鄰","STREET":"文成路","SECT":" ","MAREA":" ","LANE":" ","ALLEY":" ","HOUSE_NO":"７２０號","E_COORD97":167621.75,"N_COORD97":2545891.5,"ADDRESS":"文成路７２０號","OBJECTID":570851},"geometry":{"x":167621.75000000186,"y":2545891.5}},{"attributes":{"ID":570879,"DIS_CODE":0,"TOWNNAME":"新化區","LI":"東榮里","LIN":"29鄰","STREET":"信義路","SECT":" ","MAREA":" ","LANE":" ","ALLEY":" ","HOUSE_NO":"１５７號之３","E_COORD97":179311.67999999999,"N_COORD97":2548377.2599999998,"ADDRESS":"信義路１５７號之３","OBJECTID":570852},"geometry":{"x":179311.6799999997,"y":2548377.2599999998}},{"attributes":{"ID":570880,"DIS_CODE":0,"TOWNNAME":"北區","LI":"大港里","LIN":"29鄰","STREET":"大興街","SECT":" ","MAREA":" ","LANE":" ","ALLEY":" ","HOUSE_NO":"４９６號","E_COORD97":166083.54000000001,"N_COORD97":2545486.1099999999,"ADDRESS":"大興街４９６號","OBJECTID":570853},"geometry":{"x":166083.54000000004,"y":2545486.1099999994}},{"attributes":{"ID":570881,"DIS_CODE":0,"TOWNNAME":"北區","LI":"大港里","LIN":"29鄰","STREET":"大興街","SECT":" ","MAREA":" ","LANE":" ","ALLEY":" ","HOUSE_NO":"４９８號","E_COORD97":166093.48999999999,"N_COORD97":2545488.5,"ADDRESS":"大興街４９８號","OBJECTID":570854},"geometry":{"x":166093.49000000115,"y":2545488.5}},{"attributes":{"ID":570882,"DIS_CODE":0,"TOWNNAME":"北區","LI":"大港里","LIN":"29鄰","STREET":"大興街","SECT":" ","MAREA":" ","LANE":" ","ALLEY":" ","HOUSE_NO":"４０２號","E_COORD97":166220.88,"N_COORD97":2545544.3999999999,"ADDRESS":"大興街４０２號","OBJECTID":570855},"geometry":{"x":166220.88000000082,"y":2545544.4000000041}},{"attributes":{"ID":570883,"DIS_CODE":0,"TOWNNAME":"仁德區","LI":"仁義里","LIN":"18鄰","STREET":"正義路","SECT":" ","MAREA":" ","LANE":" ","ALLEY":" ","HOUSE_NO":"１８０號","E_COORD97":173872,"N_COORD97":2541388.0099999998,"ADDRESS":"正義路１８０號","OBJECTID":570856},"geometry":{"x":173872.00000000093,"y":2541388.0099999998}},{"attributes":{"ID":570884,"DIS_CODE":0,"TOWNNAME":"仁德區","LI":"仁義里","LIN":"18鄰","STREET":"正義路","SECT":" ","MAREA":" ","LANE":" ","ALLEY":" ","HOUSE_NO":"２２６號","E_COORD97":173994.20000000001,"N_COORD97":2541372.27,"ADDRESS":"正義路２２６號","OBJECTID":570857},"geometry":{"x":173994.20000000019,"y":2541372.2700000014}},{"attributes":{"ID":570885,"DIS_CODE":0,"TOWNNAME":"仁德區","LI":"仁德里","LIN":"35鄰","STREET":"裕華三街","SECT":" ","MAREA":" ","LANE":" ","ALLEY":" ","HOUSE_NO":"２７２號","E_COORD97":172718.10999999999,"N_COORD97":2541739.7400000002,"ADDRESS":"裕華三街２７２號","OBJECTID":570858},"geometry":{"x":172718.11000000034,"y":2541739.7400000002}},{"attributes":{"ID":570886,"DIS_CODE":0,"TOWNNAME":"仁德區","LI":"仁德里","LIN":"33鄰","STREET":"中山路","SECT":" ","MAREA":" ","LANE":" ","ALLEY":" ","HOUSE_NO":"７００號","E_COORD97":172801.66,"N_COORD97":2541496.4900000002,"ADDRESS":"中山路７００號","OBJECTID":570859},"geometry":{"x":172801.66000000108,"y":2541496.4900000021}},{"attributes":{"ID":570887,"DIS_CODE":0,"TOWNNAME":"北區","LI":"大港里","LIN":"29鄰","STREET":"大興街","SECT":" ","MAREA":" ","LANE":" ","ALLEY":" ","HOUSE_NO":"４０４號","E_COORD97":166217.26000000001,"N_COORD97":2545540.8700000001,"ADDRESS":"大興街４０４號","OBJECTID":570860},"geometry":{"x":166217.25999999978,"y":2545540.870000001}},{"attributes":{"ID":570888,"DIS_CODE":0,"TOWNNAME":"北區","LI":"大港里","LIN":"29鄰","STREET":"大興街","SECT":" ","MAREA":" ","LANE":" ","ALLEY":" ","HOUSE_NO":"４０６號","E_COORD97":166213.67000000001,"N_COORD97":2545539.27,"ADDRESS":"大興街４０６號","OBJECTID":570861},"geometry":{"x":166213.67000000086,"y":2545539.2699999996}},{"attributes":{"ID":570889,"DIS_CODE":0,"TOWNNAME":"北區","LI":"大港里","LIN":"29鄰","STREET":"大興街","SECT":" ","MAREA":" ","LANE":" ","ALLEY":" ","HOUSE_NO":"４０８號","E_COORD97":166209.42000000001,"N_COORD97":2545537.3599999999,"ADDRESS":"大興街４０８號","OBJECTID":570862},"geometry":{"x":166209.41999999993,"y":2545537.3600000013}},{"attributes":{"ID":570890,"DIS_CODE":0,"TOWNNAME":"北區","LI":"大港里","LIN":"29鄰","STREET":"大興街","SECT":" ","MAREA":" ","LANE":" ","ALLEY":" ","HOUSE_NO":"４１０號","E_COORD97":166205.98999999999,"N_COORD97":2545535.9199999999,"ADDRESS":"大興街４１０號","OBJECTID":570863},"geometry":{"x":166205.99000000022,"y":2545535.9199999999}},{"attributes":{"ID":570891,"DIS_CODE":0,"TOWNNAME":"北區","LI":"大港里","LIN":"29鄰","STREET":"大興街","SECT":" ","MAREA":" ","LANE":" ","ALLEY":" ","HOUSE_NO":"４１２號","E_COORD97":166202.23999999999,"N_COORD97":2545534.7999999998,"ADDRESS":"大興街４１２號","OBJECTID":570864},"geometry":{"x":166202.24000000115,"y":2545534.8000000007}},{"attributes":{"ID":570892,"DIS_CODE":0,"TOWNNAME":"北區","LI":"大港里","LIN":"29鄰","STREET":"大興街","SECT":" ","MAREA":" ","LANE":" ","ALLEY":" ","HOUSE_NO":"４１４號","E_COORD97":166199.42999999999,"N_COORD97":2545532.3799999999,"ADDRESS":"大興街４１４號","OBJECTID":570865},"geometry":{"x":166199.4299999997,"y":2545532.379999999}},{"attributes":{"ID":570893,"DIS_CODE":0,"TOWNNAME":"北區","LI":"大港里","LIN":"29鄰","STREET":"大興街","SECT":" ","MAREA":" ","LANE":" ","ALLEY":" ","HOUSE_NO":"４２０號","E_COORD97":166180.31,"N_COORD97":2545526.27,"ADDRESS":"大興街４２０號","OBJECTID":570866},"geometry":{"x":166180.31000000052,"y":2545526.2699999996}},{"attributes":{"ID":570894,"DIS_CODE":0,"TOWNNAME":"歸仁區","LI":"八甲里","LIN":"4鄰","STREET":"大明三街","SECT":" ","MAREA":" ","LANE":" ","ALLEY":" ","HOUSE_NO":"２號","E_COORD97":178073.57000000001,"N_COORD97":2541821.6099999999,"ADDRESS":"大明三街２號","OBJECTID":570867},"geometry":{"x":178073.5700000003,"y":2541821.6099999994}},{"attributes":{"ID":570895,"DIS_CODE":0,"TOWNNAME":"北區","LI":"大港里","LIN":"29鄰","STREET":"大興街","SECT":" ","MAREA":" ","LANE":" ","ALLEY":" ","HOUSE_NO":"４２２號","E_COORD97":166173.66,"N_COORD97":2545522.9700000002,"ADDRESS":"大興街４２２號","OBJECTID":570868},"geometry":{"x":166173.66000000108,"y":2545522.9700000007}},{"attributes":{"ID":570896,"DIS_CODE":0,"TOWNNAME":"北區","LI":"大港里","LIN":"29鄰","STREET":"大興街","SECT":" ","MAREA":" ","LANE":" ","ALLEY":" ","HOUSE_NO":"４２４號","E_COORD97":166169.35999999999,"N_COORD97":2545520.6800000002,"ADDRESS":"大興街４２４號","OBJECTID":570869},"geometry":{"x":166169.36000000127,"y":2545520.6799999997}},{"attributes":{"ID":570897,"DIS_CODE":0,"TOWNNAME":"北區","LI":"大港里","LIN":"29鄰","STREET":"大興街","SECT":" ","MAREA":" ","LANE":" ","ALLEY":" ","HOUSE_NO":"４２６號","E_COORD97":166164.79000000001,"N_COORD97":2545518.7599999998,"ADDRESS":"大興街４２６號","OBJECTID":570870},"geometry":{"x":166164.79000000004,"y":2545518.7600000016}},{"attributes":{"ID":570898,"DIS_CODE":0,"TOWNNAME":"北區","LI":"大港里","LIN":"29鄰","STREET":"大興街","SECT":" ","MAREA":" ","LANE":" ","ALLEY":" ","HOUSE_NO":"４２８號","E_COORD97":166160.04999999999,"N_COORD97":2545517,"ADDRESS":"大興街４２８號","OBJECTID":570871},"geometry":{"x":166160.05000000075,"y":2545517.0000000019}},{"attributes":{"ID":570899,"DIS_CODE":0,"TOWNNAME":"北區","LI":"大港里","LIN":"29鄰","STREET":"大興街","SECT":" ","MAREA":" ","LANE":" ","ALLEY":" ","HOUSE_NO":"４３０號","E_COORD97":166156.95000000001,"N_COORD97":2545515.3999999999,"ADDRESS":"大興街４３０號","OBJECTID":570872},"geometry":{"x":166156.95000000019,"y":2545515.4000000004}},{"attributes":{"ID":570900,"DIS_CODE":0,"TOWNNAME":"北區","LI":"大港里","LIN":"29鄰","STREET":"大興街","SECT":" ","MAREA":" ","LANE":" ","ALLEY":" ","HOUSE_NO":"４３２號","E_COORD97":166151.72,"N_COORD97":2545513.1600000001,"ADDRESS":"大興街４３２號","OBJECTID":570873},"geometry":{"x":166151.71999999974,"y":2545513.160000002}},{"attributes":{"ID":570901,"DIS_CODE":0,"TOWNNAME":"北區","LI":"大港里","LIN":"29鄰","STREET":"大興街","SECT":" ","MAREA":" ","LANE":" ","ALLEY":" ","HOUSE_NO":"４３４號","E_COORD97":166147.48000000001,"N_COORD97":2545511.7200000002,"ADDRESS":"大興街４３４號","OBJECTID":570874},"geometry":{"x":166147.48000000231,"y":2545511.7200000044}},{"attributes":{"ID":570902,"DIS_CODE":0,"TOWNNAME":"北區","LI":"大港里","LIN":"29鄰","STREET":"大興街","SECT":" ","MAREA":" ","LANE":" ","ALLEY":" ","HOUSE_NO":"４３６號","E_COORD97":166143.87,"N_COORD97":2545509.5699999998,"ADDRESS":"大興街４３６號","OBJECTID":570875},"geometry":{"x":166143.87000000011,"y":2545509.5700000022}},{"attributes":{"ID":570903,"DIS_CODE":0,"TOWNNAME":"北區","LI":"大港里","LIN":"29鄰","STREET":"大興街","SECT":" ","MAREA":" ","LANE":" ","ALLEY":" ","HOUSE_NO":"４３８號","E_COORD97":166120.20000000001,"N_COORD97":2545504.0299999998,"ADDRESS":"大興街４３８號","OBJECTID":570876},"geometry":{"x":166120.19999999925,"y":2545504.0299999993}},{"attributes":{"ID":570904,"DIS_CODE":0,"TOWNNAME":"北區","LI":"大港里","LIN":"29鄰","STREET":"大興街","SECT":" ","MAREA":" ","LANE":" ","ALLEY":" ","HOUSE_NO":"４９０號","E_COORD97":166104.75,"N_COORD97":2545492.8199999998,"ADDRESS":"大興街４９０號","OBJECTID":570877},"geometry":{"x":166104.75000000093,"y":2545492.8200000003}},{"attributes":{"ID":570905,"DIS_CODE":0,"TOWNNAME":"北區","LI":"大港里","LIN":"29鄰","STREET":"大興街","SECT":" ","MAREA":" ","LANE":" ","ALLEY":" ","HOUSE_NO":"４９２號","E_COORD97":166100.01000000001,"N_COORD97":2545490.7400000002,"ADDRESS":"大興街４９２號","OBJECTID":570878},"geometry":{"x":166100.00999999978,"y":2545490.7399999984}},{"attributes":{"ID":570906,"DIS_CODE":0,"TOWNNAME":"北區","LI":"大港里","LIN":"29鄰","STREET":"大興街","SECT":" ","MAREA":" ","LANE":" ","ALLEY":" ","HOUSE_NO":"５００號","E_COORD97":166077.64000000001,"N_COORD97":2545481.46,"ADDRESS":"大興街５００號","OBJECTID":570879},"geometry":{"x":166077.63999999873,"y":2545481.4600000028}},{"attributes":{"ID":570907,"DIS_CODE":0,"TOWNNAME":"北區","LI":"大港里","LIN":"29鄰","STREET":"賢北街","SECT":" ","MAREA":" ","LANE":" ","ALLEY":" ","HOUSE_NO":"１８１號","E_COORD97":166212.28,"N_COORD97":2545561.9399999999,"ADDRESS":"賢北街１８１號","OBJECTID":570880},"geometry":{"x":166212.28000000026,"y":2545561.9399999995}},{"attributes":{"ID":570908,"DIS_CODE":0,"TOWNNAME":"北區","LI":"大港里","LIN":"29鄰","STREET":"賢北街","SECT":" ","MAREA":" ","LANE":" ","ALLEY":" ","HOUSE_NO":"１８３號","E_COORD97":166210.85999999999,"N_COORD97":2545565.79,"ADDRESS":"賢北街１８３號","OBJECTID":570881},"geometry":{"x":166210.8600000022,"y":2545565.7899999991}},{"attributes":{"ID":570909,"DIS_CODE":0,"TOWNNAME":"北區","LI":"大港里","LIN":"29鄰","STREET":"賢北街","SECT":" ","MAREA":" ","LANE":" ","ALLEY":" ","HOUSE_NO":"１８５號","E_COORD97":166209.76000000001,"N_COORD97":2545569.6299999999,"ADDRESS":"賢北街１８５號","OBJECTID":570882},"geometry":{"x":166209.76000000071,"y":2545569.6300000008}},{"attributes":{"ID":570910,"DIS_CODE":0,"TOWNNAME":"北區","LI":"大港里","LIN":"29鄰","STREET":"賢北街","SECT":" ","MAREA":" ","LANE":" ","ALLEY":" ","HOUSE_NO":"１８７號","E_COORD97":166208.01000000001,"N_COORD97":2545573.6400000001,"ADDRESS":"賢北街１８７號","OBJECTID":570883},"geometry":{"x":166208.01000000071,"y":2545573.6400000025}},{"attributes":{"ID":570911,"DIS_CODE":0,"TOWNNAME":"北區","LI":"大港里","LIN":"29鄰","STREET":"賢北街","SECT":" ","MAREA":" ","LANE":" ","ALLEY":" ","HOUSE_NO":"１８９號","E_COORD97":166206.42999999999,"N_COORD97":2545577.6499999999,"ADDRESS":"賢北街１８９號","OBJECTID":570884},"geometry":{"x":166206.43000000156,"y":2545577.6500000022}},{"attributes":{"ID":570912,"DIS_CODE":0,"TOWNNAME":"北區","LI":"大港里","LIN":"29鄰","STREET":"賢北街","SECT":" ","MAREA":" ","LANE":" ","ALLEY":" ","HOUSE_NO":"１９１號","E_COORD97":166205.17000000001,"N_COORD97":2545581.3300000001,"ADDRESS":"賢北街１９１號","OBJECTID":570885},"geometry":{"x":166205.17000000086,"y":2545581.3300000001}},{"attributes":{"ID":570913,"DIS_CODE":0,"TOWNNAME":"仁德區","LI":"仁義里","LIN":"18鄰","STREET":"正義路","SECT":" ","MAREA":" ","LANE":" ","ALLEY":" ","HOUSE_NO":"２０１號","E_COORD97":173905.63,"N_COORD97":2541409.5099999998,"ADDRESS":"正義路２０１號","OBJECTID":570886},"geometry":{"x":173905.62999999989,"y":2541409.5099999998}},{"attributes":{"ID":570914,"DIS_CODE":0,"TOWNNAME":"仁德區","LI":"仁義里","LIN":"26鄰","STREET":"中山路","SECT":" ","MAREA":" ","LANE":" ","ALLEY":" ","HOUSE_NO":"５５６號","E_COORD97":173351.79000000001,"N_COORD97":2541360.25,"ADDRESS":"中山路５５６號","OBJECTID":570887},"geometry":{"x":173351.79000000097,"y":2541360.25}},{"attributes":{"ID":570915,"DIS_CODE":0,"TOWNNAME":"仁德區","LI":"仁義里","LIN":"25鄰","STREET":"正義路","SECT":" ","MAREA":" ","LANE":" ","ALLEY":" ","HOUSE_NO":"７６號","E_COORD97":173511.56,"N_COORD97":2541427.7599999998,"ADDRESS":"正義路７６號","OBJECTID":570888},"geometry":{"x":173511.56000000145,"y":2541427.7599999998}},{"attributes":{"ID":570916,"DIS_CODE":0,"TOWNNAME":"仁德區","LI":"太子里","LIN":"32鄰","STREET":"太子三街","SECT":" ","MAREA":" ","LANE":" ","ALLEY":" ","HOUSE_NO":"３７號","E_COORD97":173953.81,"N_COORD97":2543419.0099999998,"ADDRESS":"太子三街３７號","OBJECTID":570889},"geometry":{"x":173953.80999999959,"y":2543419.0099999998}},{"attributes":{"ID":570917,"DIS_CODE":0,"TOWNNAME":"仁德區","LI":"太子里","LIN":"34鄰","STREET":"太子二街","SECT":" ","MAREA":" ","LANE":" ","ALLEY":" ","HOUSE_NO":"２２號","E_COORD97":174285.57000000001,"N_COORD97":2543409.2599999998,"ADDRESS":"太子二街２２號","OBJECTID":570890},"geometry":{"x":174285.57000000123,"y":2543409.2600000016}},{"attributes":{"ID":570918,"DIS_CODE":0,"TOWNNAME":"仁德區","LI":"太子里","LIN":"30鄰","STREET":"太子三街","SECT":" ","MAREA":" ","LANE":" ","ALLEY":" ","HOUSE_NO":"８７號","E_COORD97":173814.81,"N_COORD97":2543504.0099999998,"ADDRESS":"太子三街８７號","OBJECTID":570891},"geometry":{"x":173814.80999999959,"y":2543504.0099999998}},{"attributes":{"ID":570919,"DIS_CODE":0,"TOWNNAME":"北區","LI":"大港里","LIN":"29鄰","STREET":"賢北街","SECT":" ","MAREA":" ","LANE":" ","ALLEY":" ","HOUSE_NO":"１９３號","E_COORD97":166202.76999999999,"N_COORD97":2545585.3399999999,"ADDRESS":"賢北街１９３號","OBJECTID":570892},"geometry":{"x":166202.77000000048,"y":2545585.3400000017}},{"attributes":{"ID":570920,"DIS_CODE":0,"TOWNNAME":"歸仁區","LI":"南興里","LIN":"29鄰","STREET":"保興一街","SECT":" ","MAREA":" ","LANE":" ","ALLEY":" ","HOUSE_NO":"１８號","E_COORD97":176444.03,"N_COORD97":2541133.25,"ADDRESS":"保興一街１８號","OBJECTID":570893},"geometry":{"x":176444.03000000119,"y":2541133.25}},{"attributes":{"ID":570921,"DIS_CODE":0,"TOWNNAME":"仁德區","LI":"仁義里","LIN":"18鄰","STREET":"正義路","SECT":" ","MAREA":" ","LANE":" ","ALLEY":" ","HOUSE_NO":"１９５號","E_COORD97":173893.31,"N_COORD97":2541412.0099999998,"ADDRESS":"正義路１９５號","OBJECTID":570894},"geometry":{"x":173893.31000000052,"y":2541412.0099999998}},{"attributes":{"ID":570922,"DIS_CODE":0,"TOWNNAME":"仁德區","LI":"太子里","LIN":"20鄰","STREET":"太子北路","SECT":" ","MAREA":" ","LANE":" ","ALLEY":" ","HOUSE_NO":"１１５號","E_COORD97":173958.82000000001,"N_COORD97":2543682.25,"ADDRESS":"太子北路１１５號","OBJECTID":570895},"geometry":{"x":173958.82000000123,"y":2543682.25}},{"attributes":{"ID":570923,"DIS_CODE":0,"TOWNNAME":"仁德區","LI":"太子里","LIN":"13鄰","STREET":"長興二街","SECT":" ","MAREA":" ","LANE":" ","ALLEY":" ","HOUSE_NO":"２４號","E_COORD97":174404.82999999999,"N_COORD97":2543709.25,"ADDRESS":"長興二街２４號","OBJECTID":570896},"geometry":{"x":174404.83000000007,"y":2543709.25}},{"attributes":{"ID":570924,"DIS_CODE":0,"TOWNNAME":"仁德區","LI":"仁義里","LIN":"40鄰","STREET":"仁義五街","SECT":" ","MAREA":" ","LANE":" ","ALLEY":" ","HOUSE_NO":"３５號","E_COORD97":173576.82999999999,"N_COORD97":2540448.2599999998,"ADDRESS":"仁義五街３５號","OBJECTID":570897},"geometry":{"x":173576.83000000101,"y":2540448.2599999998}},{"attributes":{"ID":570925,"DIS_CODE":0,"TOWNNAME":"仁德區","LI":"仁德里","LIN":"1鄰","STREET":"中正路","SECT":"二段","MAREA":" ","LANE":" ","ALLEY":" ","HOUSE_NO":"６８１號","E_COORD97":173422.42000000001,"N_COORD97":2540063.02,"ADDRESS":"中正路二段６８１號","OBJECTID":570898},"geometry":{"x":173422.41999999993,"y":2540063.0199999996}},{"attributes":{"ID":570926,"DIS_CODE":0,"TOWNNAME":"仁德區","LI":"仁德里","LIN":"9鄰","STREET":"中正路","SECT":"二段","MAREA":" ","LANE":" ","ALLEY":" ","HOUSE_NO":"１２０１號","E_COORD97":173284.48000000001,"N_COORD97":2541175.27,"ADDRESS":"中正路二段１２０１號","OBJECTID":570899},"geometry":{"x":173284.48000000138,"y":2541175.2700000014}},{"attributes":{"ID":570927,"DIS_CODE":0,"TOWNNAME":"仁德區","LI":"太子里","LIN":"27鄰","STREET":"太子路","SECT":" ","MAREA":" ","LANE":" ","ALLEY":" ","HOUSE_NO":"６５１號","E_COORD97":173547.17000000001,"N_COORD97":2543526.0099999998,"ADDRESS":"太子路６５１號","OBJECTID":570900},"geometry":{"x":173547.17000000086,"y":2543526.0100000016}},{"attributes":{"ID":570928,"DIS_CODE":0,"TOWNNAME":"仁德區","LI":"太子里","LIN":"1鄰","STREET":"太子北路","SECT":" ","MAREA":" ","LANE":" ","ALLEY":" ","HOUSE_NO":"１０號","E_COORD97":174200.29999999999,"N_COORD97":2543551.2599999998,"ADDRESS":"太子北路１０號","OBJECTID":570901},"geometry":{"x":174200.30000000168,"y":2543551.2600000016}},{"attributes":{"ID":570929,"DIS_CODE":0,"TOWNNAME":"關廟區","LI":"香洋里","LIN":"29鄰","STREET":"南雄路","SECT":"一段","MAREA":" ","LANE":" ","ALLEY":" ","HOUSE_NO":"１１２９號","E_COORD97":181049.98999999999,"N_COORD97":2539814.23,"ADDRESS":"南雄路一段１１２９號","OBJECTID":570902},"geometry":{"x":181049.99000000115,"y":2539814.2300000004}},{"attributes":{"ID":570930,"DIS_CODE":0,"TOWNNAME":"關廟區","LI":"香洋里","LIN":"29鄰","STREET":"南雄路","SECT":"一段","MAREA":" ","LANE":" ","ALLEY":" ","HOUSE_NO":"１１２１號","E_COORD97":181059.70000000001,"N_COORD97":2539794.5299999998,"ADDRESS":"南雄路一段１１２１號","OBJECTID":570903},"geometry":{"x":181059.70000000019,"y":2539794.5299999993}},{"attributes":{"ID":570931,"DIS_CODE":0,"TOWNNAME":"關廟區","LI":"香洋里","LIN":"29鄰","STREET":"南雄路","SECT":"一段","MAREA":" ","LANE":" ","ALLEY":" ","HOUSE_NO":"１１１５號","E_COORD97":181065.10000000001,"N_COORD97":2539780.5299999998,"ADDRESS":"南雄路一段１１１５號","OBJECTID":570904},"geometry":{"x":181065.10000000149,"y":2539780.5299999993}},{"attributes":{"ID":570932,"DIS_CODE":0,"TOWNNAME":"關廟區","LI":"香洋里","LIN":"29鄰","STREET":"南雄路","SECT":"一段","MAREA":" ","LANE":" ","ALLEY":" ","HOUSE_NO":"１１１３號","E_COORD97":181070.79999999999,"N_COORD97":2539767.5299999998,"ADDRESS":"南雄路一段１１１３號","OBJECTID":570905},"geometry":{"x":181070.80000000168,"y":2539767.5299999993}},{"attributes":{"ID":570933,"DIS_CODE":0,"TOWNNAME":"關廟區","LI":"香洋里","LIN":"29鄰","STREET":"大富街","SECT":" ","MAREA":" ","LANE":" ","ALLEY":" ","HOUSE_NO":"３３５號","E_COORD97":181006.47,"N_COORD97":2539800.25,"ADDRESS":"大富街３３５號","OBJECTID":570906},"geometry":{"x":181006.46999999974,"y":2539800.25}},{"attributes":{"ID":570934,"DIS_CODE":0,"TOWNNAME":"新營區","LI":"民榮里","LIN":"29鄰","STREET":"太子路","SECT":" ","MAREA":" ","LANE":" ","ALLEY":" ","HOUSE_NO":"６２之２號","E_COORD97":178233.38,"N_COORD97":2578057.4100000001,"ADDRESS":"太子路６２之２號","OBJECTID":570907},"geometry":{"x":178233.38000000082,"y":2578057.4099999983}},{"attributes":{"ID":570935,"DIS_CODE":0,"TOWNNAME":"新營區","LI":"新南里","LIN":"29鄰","STREET":"明清一街","SECT":" ","MAREA":" ","LANE":" ","ALLEY":" ","HOUSE_NO":"１６３號","E_COORD97":178186.32999999999,"N_COORD97":2578738.6699999999,"ADDRESS":"明清一街１６３號","OBJECTID":570908},"geometry":{"x":178186.33000000101,"y":2578738.6700000018}},{"attributes":{"ID":570936,"DIS_CODE":0,"TOWNNAME":"新營區","LI":"民榮里","LIN":"29鄰","STREET":"太子路","SECT":" ","MAREA":" ","LANE":" ","ALLEY":" ","HOUSE_NO":"７０號","E_COORD97":178205.26000000001,"N_COORD97":2578043.0800000001,"ADDRESS":"太子路７０號","OBJECTID":570909},"geometry":{"x":178205.26000000071,"y":2578043.0800000038}},{"attributes":{"ID":570937,"DIS_CODE":0,"TOWNNAME":"新營區","LI":"民榮里","LIN":"29鄰","STREET":"太子路","SECT":" ","MAREA":" ","LANE":" ","ALLEY":" ","HOUSE_NO":"５４號","E_COORD97":178258.57999999999,"N_COORD97":2578072.7200000002,"ADDRESS":"太子路５４號","OBJECTID":570910},"geometry":{"x":178258.58000000194,"y":2578072.7200000007}},{"attributes":{"ID":570938,"DIS_CODE":0,"TOWNNAME":"新營區","LI":"王公里","LIN":"29鄰","STREET":"大公街","SECT":" ","MAREA":" ","LANE":" ","ALLEY":" ","HOUSE_NO":"７０號","E_COORD97":180298.45000000001,"N_COORD97":2579638.8900000001,"ADDRESS":"大公街７０號","OBJECTID":570911},"geometry":{"x":180298.45000000019,"y":2579638.8900000025}},{"attributes":{"ID":570939,"DIS_CODE":0,"TOWNNAME":"新營區","LI":"新南里","LIN":"29鄰","STREET":"明清一街","SECT":" ","MAREA":" ","LANE":" ","ALLEY":" ","HOUSE_NO":"１３１號","E_COORD97":178108.56,"N_COORD97":2578733.5099999998,"ADDRESS":"明清一街１３１號","OBJECTID":570912},"geometry":{"x":178108.55999999959,"y":2578733.5099999998}},{"attributes":{"ID":570940,"DIS_CODE":0,"TOWNNAME":"新營區","LI":"新南里","LIN":"29鄰","STREET":"明清一街","SECT":" ","MAREA":" ","LANE":" ","ALLEY":" ","HOUSE_NO":"１３３號","E_COORD97":178113.67000000001,"N_COORD97":2578733.48,"ADDRESS":"明清一街１３３號","OBJECTID":570913},"geometry":{"x":178113.67000000179,"y":2578733.4800000023}},{"attributes":{"ID":570941,"DIS_CODE":0,"TOWNNAME":"新營區","LI":"新南里","LIN":"29鄰","STREET":"明清一街","SECT":" ","MAREA":" ","LANE":" ","ALLEY":" ","HOUSE_NO":"１２０號","E_COORD97":178068.57000000001,"N_COORD97":2578713.7599999998,"ADDRESS":"明清一街１２０號","OBJECTID":570914},"geometry":{"x":178068.5700000003,"y":2578713.7600000016}},{"attributes":{"ID":570942,"DIS_CODE":0,"TOWNNAME":"新營區","LI":"新南里","LIN":"29鄰","STREET":"明清一街","SECT":" ","MAREA":" ","LANE":" ","ALLEY":" ","HOUSE_NO":"６號","E_COORD97":178166.07999999999,"N_COORD97":2578664.5499999998,"ADDRESS":"明清一街６號","OBJECTID":570915},"geometry":{"x":178166.08000000101,"y":2578664.5500000026}},{"attributes":{"ID":570943,"DIS_CODE":0,"TOWNNAME":"新營區","LI":"新南里","LIN":"29鄰","STREET":"明清一街","SECT":" ","MAREA":" ","LANE":" ","ALLEY":" ","HOUSE_NO":"５３號","E_COORD97":178039.45000000001,"N_COORD97":2578657.4199999999,"ADDRESS":"明清一街５３號","OBJECTID":570916},"geometry":{"x":178039.45000000112,"y":2578657.4200000037}},{"attributes":{"ID":570944,"DIS_CODE":0,"TOWNNAME":"新營區","LI":"新南里","LIN":"29鄰","STREET":"明清一街","SECT":" ","MAREA":" ","LANE":" ","ALLEY":" ","HOUSE_NO":"５９號","E_COORD97":178026.16,"N_COORD97":2578658.5899999999,"ADDRESS":"明清一街５９號","OBJECTID":570917},"geometry":{"x":178026.16000000108,"y":2578658.5899999999}},{"attributes":{"ID":570945,"DIS_CODE":0,"TOWNNAME":"新營區","LI":"新南里","LIN":"29鄰","STREET":"明清一街","SECT":" ","MAREA":" ","LANE":" ","ALLEY":" ","HOUSE_NO":"３８號","E_COORD97":178096.89000000001,"N_COORD97":2578675.9700000002,"ADDRESS":"明清一街３８號","OBJECTID":570918},"geometry":{"x":178096.8900000006,"y":2578675.9700000025}},{"attributes":{"ID":570946,"DIS_CODE":0,"TOWNNAME":"新營區","LI":"新南里","LIN":"29鄰","STREET":"明清一街","SECT":" ","MAREA":" ","LANE":" ","ALLEY":" ","HOUSE_NO":"６５號","E_COORD97":178008.78,"N_COORD97":2578660.8900000001,"ADDRESS":"明清一街６５號","OBJECTID":570919},"geometry":{"x":178008.78000000119,"y":2578660.8900000006}},{"attributes":{"ID":570947,"DIS_CODE":0,"TOWNNAME":"新營區","LI":"新南里","LIN":"29鄰","STREET":"明清一街","SECT":" ","MAREA":" ","LANE":" ","ALLEY":" ","HOUSE_NO":"５號","E_COORD97":178150.66,"N_COORD97":2578646.9100000001,"ADDRESS":"明清一街５號","OBJECTID":570920},"geometry":{"x":178150.66000000015,"y":2578646.9100000001}},{"attributes":{"ID":570948,"DIS_CODE":0,"TOWNNAME":"仁德區","LI":"仁義里","LIN":"25鄰","STREET":"中山路","SECT":" ","MAREA":" ","LANE":" ","ALLEY":" ","HOUSE_NO":"５０６號","E_COORD97":173485.94,"N_COORD97":2541322.2400000002,"ADDRESS":"中山路５０６號","OBJECTID":570921},"geometry":{"x":173485.94000000041,"y":2541322.2400000021}},{"attributes":{"ID":570949,"DIS_CODE":0,"TOWNNAME":"仁德區","LI":"太子里","LIN":"1鄰","STREET":"太子北路","SECT":" ","MAREA":" ","LANE":" ","ALLEY":" ","HOUSE_NO":"１２號","E_COORD97":174206.64999999999,"N_COORD97":2543558.5,"ADDRESS":"太子北路１２號","OBJECTID":570922},"geometry":{"x":174206.65000000037,"y":2543558.5}},{"attributes":{"ID":570950,"DIS_CODE":0,"TOWNNAME":"仁德區","LI":"仁德里","LIN":"35鄰","STREET":"文山路","SECT":" ","MAREA":" ","LANE":" ","ALLEY":" ","HOUSE_NO":"８１號","E_COORD97":172840.98999999999,"N_COORD97":2541704.3199999998,"ADDRESS":"文山路８１號","OBJECTID":570923},"geometry":{"x":172840.99000000022,"y":2541704.3200000022}},{"attributes":{"ID":570951,"DIS_CODE":0,"TOWNNAME":"仁德區","LI":"仁德里","LIN":"10鄰","STREET":"中正路","SECT":"二段","MAREA":" ","LANE":" ","ALLEY":" ","HOUSE_NO":"１２０７號","E_COORD97":173277.34,"N_COORD97":2541192.77,"ADDRESS":"中正路二段１２０７號","OBJECTID":570924},"geometry":{"x":173277.33999999985,"y":2541192.7699999996}},{"attributes":{"ID":570952,"DIS_CODE":0,"TOWNNAME":"新營區","LI":"三仙里","LIN":"29鄰","STREET":"育德街","SECT":" ","MAREA":" ","LANE":" ","ALLEY":" ","HOUSE_NO":"６５號","E_COORD97":179589.10999999999,"N_COORD97":2579096.27,"ADDRESS":"育德街６５號","OBJECTID":570925},"geometry":{"x":179589.11000000034,"y":2579096.2700000014}},{"attributes":{"ID":570953,"DIS_CODE":0,"TOWNNAME":"新營區","LI":"新南里","LIN":"29鄰","STREET":"明清一街","SECT":" ","MAREA":" ","LANE":" ","ALLEY":" ","HOUSE_NO":"５７號","E_COORD97":178031.26999999999,"N_COORD97":2578658.5699999998,"ADDRESS":"明清一街５７號","OBJECTID":570926},"geometry":{"x":178031.27000000142,"y":2578658.5700000003}},{"attributes":{"ID":570954,"DIS_CODE":0,"TOWNNAME":"新營區","LI":"新南里","LIN":"29鄰","STREET":"明清一街","SECT":" ","MAREA":" ","LANE":" ","ALLEY":" ","HOUSE_NO":"１３６之２號","E_COORD97":178090.47,"N_COORD97":2578707.0699999998,"ADDRESS":"明清一街１３６之２號","OBJECTID":570927},"geometry":{"x":178090.46999999974,"y":2578707.0700000003}},{"attributes":{"ID":570955,"DIS_CODE":0,"TOWNNAME":"新營區","LI":"三仙里","LIN":"29鄰","STREET":"育德五街","SECT":" ","MAREA":" ","LANE":" ","ALLEY":" ","HOUSE_NO":"５６號","E_COORD97":179472.38,"N_COORD97":2579068.04,"ADDRESS":"育德五街５６號","OBJECTID":570928},"geometry":{"x":179472.38000000082,"y":2579068.0399999991}},{"attributes":{"ID":570956,"DIS_CODE":0,"TOWNNAME":"新營區","LI":"新南里","LIN":"29鄰","STREET":"明清一街","SECT":" ","MAREA":" ","LANE":" ","ALLEY":" ","HOUSE_NO":"３６號","E_COORD97":178102.01000000001,"N_COORD97":2578674.8300000001,"ADDRESS":"明清一街３６號","OBJECTID":570929},"geometry":{"x":178102.00999999978,"y":2578674.8300000001}},{"attributes":{"ID":570957,"DIS_CODE":0,"TOWNNAME":"新營區","LI":"新南里","LIN":"29鄰","STREET":"明清一街","SECT":" ","MAREA":" ","LANE":" ","ALLEY":" ","HOUSE_NO":"９８號","E_COORD97":178007.92999999999,"N_COORD97":2578706.2999999998,"ADDRESS":"明清一街９８號","OBJECTID":570930},"geometry":{"x":178007.9299999997,"y":2578706.3000000007}},{"attributes":{"ID":570958,"DIS_CODE":0,"TOWNNAME":"新營區","LI":"新南里","LIN":"29鄰","STREET":"明清一街","SECT":" ","MAREA":" ","LANE":" ","ALLEY":" ","HOUSE_NO":"９６號","E_COORD97":178017.13,"N_COORD97":2578706.25,"ADDRESS":"明清一街９６號","OBJECTID":570931},"geometry":{"x":178017.12999999989,"y":2578706.2500000037}},{"attributes":{"ID":570959,"DIS_CODE":0,"TOWNNAME":"新營區","LI":"新南里","LIN":"29鄰","STREET":"明清一街","SECT":" ","MAREA":" ","LANE":" ","ALLEY":" ","HOUSE_NO":"１３６號之１","E_COORD97":178090.14999999999,"N_COORD97":2578712.6099999999,"ADDRESS":"明清一街１３６號之１","OBJECTID":570932},"geometry":{"x":178090.15000000037,"y":2578712.6099999994}},{"attributes":{"ID":570960,"DIS_CODE":0,"TOWNNAME":"新營區","LI":"新南里","LIN":"29鄰","STREET":"明清一街","SECT":" ","MAREA":" ","LANE":" ","ALLEY":" ","HOUSE_NO":"４７號","E_COORD97":178052.81,"N_COORD97":2578657.3599999999,"ADDRESS":"明清一街４７號","OBJECTID":570933},"geometry":{"x":178052.80999999959,"y":2578657.3600000031}},{"attributes":{"ID":570961,"DIS_CODE":0,"TOWNNAME":"新營區","LI":"王公里","LIN":"29鄰","STREET":"大公街","SECT":" ","MAREA":" ","LANE":" ","ALLEY":" ","HOUSE_NO":"６２號","E_COORD97":180277.98999999999,"N_COORD97":2579642.3100000001,"ADDRESS":"大公街６２號","OBJECTID":570934},"geometry":{"x":180277.99000000022,"y":2579642.3100000024}},{"attributes":{"ID":570962,"DIS_CODE":0,"TOWNNAME":"新營區","LI":"三仙里","LIN":"29鄰","STREET":"育德五街","SECT":" ","MAREA":" ","LANE":" ","ALLEY":" ","HOUSE_NO":"５８號","E_COORD97":179470.35999999999,"N_COORD97":2579072.48,"ADDRESS":"育德五街５８號","OBJECTID":570935},"geometry":{"x":179470.36000000034,"y":2579072.4800000023}},{"attributes":{"ID":570963,"DIS_CODE":0,"TOWNNAME":"新營區","LI":"新南里","LIN":"29鄰","STREET":"明清一街","SECT":" ","MAREA":" ","LANE":" ","ALLEY":" ","HOUSE_NO":"８０號","E_COORD97":178024.34,"N_COORD97":2578694.04,"ADDRESS":"明清一街８０號","OBJECTID":570936},"geometry":{"x":178024.34000000171,"y":2578694.040000001}},{"attributes":{"ID":570964,"DIS_CODE":0,"TOWNNAME":"新營區","LI":"新南里","LIN":"29鄰","STREET":"明清一街","SECT":" ","MAREA":" ","LANE":" ","ALLEY":" ","HOUSE_NO":"１０８號","E_COORD97":178023.60999999999,"N_COORD97":2578721.7400000002,"ADDRESS":"明清一街１０８號","OBJECTID":570937},"geometry":{"x":178023.61000000127,"y":2578721.7400000002}},{"attributes":{"ID":570965,"DIS_CODE":0,"TOWNNAME":"新營區","LI":"新南里","LIN":"29鄰","STREET":"明清一街","SECT":" ","MAREA":" ","LANE":" ","ALLEY":" ","HOUSE_NO":"１０６號","E_COORD97":178015.42999999999,"N_COORD97":2578722.8900000001,"ADDRESS":"明清一街１０６號","OBJECTID":570938},"geometry":{"x":178015.43000000063,"y":2578722.8900000043}},{"attributes":{"ID":570966,"DIS_CODE":0,"TOWNNAME":"仁德區","LI":"仁義里","LIN":"18鄰","STREET":"正義路","SECT":" ","MAREA":" ","LANE":" ","ALLEY":" ","HOUSE_NO":"１９４號","E_COORD97":173901.32000000001,"N_COORD97":2541385.0099999998,"ADDRESS":"正義路１９４號","OBJECTID":570939},"geometry":{"x":173901.32000000123,"y":2541385.0099999998}},{"attributes":{"ID":570967,"DIS_CODE":0,"TOWNNAME":"仁德區","LI":"仁義里","LIN":"24鄰","STREET":"正義路","SECT":" ","MAREA":" ","LANE":" ","ALLEY":" ","HOUSE_NO":"１２５號","E_COORD97":173679.95999999999,"N_COORD97":2541432.52,"ADDRESS":"正義路１２５號","OBJECTID":570940},"geometry":{"x":173679.95999999996,"y":2541432.5199999996}},{"attributes":{"ID":570968,"DIS_CODE":0,"TOWNNAME":"新營區","LI":"新南里","LIN":"29鄰","STREET":"明清一街","SECT":" ","MAREA":" ","LANE":" ","ALLEY":" ","HOUSE_NO":"６１號","E_COORD97":178022.07000000001,"N_COORD97":2578659.7200000002,"ADDRESS":"明清一街６１號","OBJECTID":570941},"geometry":{"x":178022.07000000123,"y":2578659.7200000044}},{"attributes":{"ID":570969,"DIS_CODE":0,"TOWNNAME":"新營區","LI":"新南里","LIN":"29鄰","STREET":"明清一街","SECT":" ","MAREA":" ","LANE":" ","ALLEY":" ","HOUSE_NO":"１１２號","E_COORD97":178042.01000000001,"N_COORD97":2578720.5299999998,"ADDRESS":"明清一街１１２號","OBJECTID":570942},"geometry":{"x":178042.01000000071,"y":2578720.5300000031}},{"attributes":{"ID":570970,"DIS_CODE":0,"TOWNNAME":"新營區","LI":"新南里","LIN":"29鄰","STREET":"明清一街","SECT":" ","MAREA":" ","LANE":" ","ALLEY":" ","HOUSE_NO":"４３號","E_COORD97":178062.01000000001,"N_COORD97":2578656.2000000002,"ADDRESS":"明清一街４３號","OBJECTID":570943},"geometry":{"x":178062.01000000164,"y":2578656.2000000011}},{"attributes":{"ID":570971,"DIS_CODE":0,"TOWNNAME":"新營區","LI":"新南里","LIN":"29鄰","STREET":"明清一街","SECT":" ","MAREA":" ","LANE":" ","ALLEY":" ","HOUSE_NO":"１７號","E_COORD97":178122.23999999999,"N_COORD97":2578648.1600000001,"ADDRESS":"明清一街１７號","OBJECTID":570944},"geometry":{"x":178122.24000000115,"y":2578648.1600000001}},{"attributes":{"ID":570972,"DIS_CODE":0,"TOWNNAME":"新營區","LI":"新南里","LIN":"29鄰","STREET":"明清一街","SECT":" ","MAREA":" ","LANE":" ","ALLEY":" ","HOUSE_NO":"８２號","E_COORD97":178034.56,"N_COORD97":2578691.77,"ADDRESS":"明清一街８２號","OBJECTID":570945},"geometry":{"x":178034.56000000052,"y":2578691.7699999977}},{"attributes":{"ID":570973,"DIS_CODE":0,"TOWNNAME":"新營區","LI":"新南里","LIN":"29鄰","STREET":"明清一街","SECT":" ","MAREA":" ","LANE":" ","ALLEY":" ","HOUSE_NO":"１０２號","E_COORD97":178007.25,"N_COORD97":2578722.9300000002,"ADDRESS":"明清一街１０２號","OBJECTID":570946},"geometry":{"x":178007.25000000093,"y":2578722.9300000016}},{"attributes":{"ID":570974,"DIS_CODE":0,"TOWNNAME":"新營區","LI":"新南里","LIN":"29鄰","STREET":"明清一街","SECT":" ","MAREA":" ","LANE":" ","ALLEY":" ","HOUSE_NO":"１３６之３號","E_COORD97":178090.45999999999,"N_COORD97":2578702.6400000001,"ADDRESS":"明清一街１３６之３號","OBJECTID":570947},"geometry":{"x":178090.46000000089,"y":2578702.6400000006}},{"attributes":{"ID":570975,"DIS_CODE":0,"TOWNNAME":"新營區","LI":"王公里","LIN":"29鄰","STREET":"大公街","SECT":" ","MAREA":" ","LANE":" ","ALLEY":" ","HOUSE_NO":"５８號","E_COORD97":180268.79999999999,"N_COORD97":2579644.5600000001,"ADDRESS":"大公街５８號","OBJECTID":570948},"geometry":{"x":180268.79999999981,"y":2579644.5600000024}},{"attributes":{"ID":570976,"DIS_CODE":0,"TOWNNAME":"新營區","LI":"王公里","LIN":"29鄰","STREET":"大公街","SECT":" ","MAREA":" ","LANE":" ","ALLEY":" ","HOUSE_NO":"５４號","E_COORD97":180258.57999999999,"N_COORD97":2579645.7200000002,"ADDRESS":"大公街５４號","OBJECTID":570949},"geometry":{"x":180258.58000000007,"y":2579645.7200000007}},{"attributes":{"ID":570977,"DIS_CODE":0,"TOWNNAME":"新營區","LI":"新南里","LIN":"29鄰","STREET":"明清一街","SECT":" ","MAREA":" ","LANE":" ","ALLEY":" ","HOUSE_NO":"８８號","E_COORD97":178043.82000000001,"N_COORD97":2578703.9100000001,"ADDRESS":"明清一街８８號","OBJECTID":570950},"geometry":{"x":178043.82000000123,"y":2578703.9100000001}},{"attributes":{"ID":570978,"DIS_CODE":0,"TOWNNAME":"新營區","LI":"新南里","LIN":"29鄰","STREET":"明清一街","SECT":" ","MAREA":" ","LANE":" ","ALLEY":" ","HOUSE_NO":"１３６號","E_COORD97":178089.04000000001,"N_COORD97":2578716.98,"ADDRESS":"明清一街１３６號","OBJECTID":570951},"geometry":{"x":178089.04000000004,"y":2578716.9800000004}},{"attributes":{"ID":570979,"DIS_CODE":0,"TOWNNAME":"新營區","LI":"新南里","LIN":"29鄰","STREET":"明清一街","SECT":" ","MAREA":" ","LANE":" ","ALLEY":" ","HOUSE_NO":"８６號","E_COORD97":178042.73999999999,"N_COORD97":2578691.73,"ADDRESS":"明清一街８６號","OBJECTID":570952},"geometry":{"x":178042.74000000115,"y":2578691.7300000004}},{"attributes":{"ID":570980,"DIS_CODE":0,"TOWNNAME":"新營區","LI":"新南里","LIN":"29鄰","STREET":"明清一街","SECT":" ","MAREA":" ","LANE":" ","ALLEY":" ","HOUSE_NO":"９０號","E_COORD97":178035.54000000001,"N_COORD97":2578705.0499999998,"ADDRESS":"明清一街９０號","OBJECTID":570953},"geometry":{"x":178035.54000000097,"y":2578705.0500000045}},{"attributes":{"ID":570981,"DIS_CODE":0,"TOWNNAME":"仁德區","LI":"仁德里","LIN":"4鄰","STREET":"仁中六街","SECT":" ","MAREA":" ","LANE":" ","ALLEY":" ","HOUSE_NO":"１４７號","E_COORD97":173334.29000000001,"N_COORD97":2540459.7400000002,"ADDRESS":"仁中六街１４７號","OBJECTID":570954},"geometry":{"x":173334.2900000019,"y":2540459.7400000039}},{"attributes":{"ID":570982,"DIS_CODE":0,"TOWNNAME":"仁德區","LI":"仁義里","LIN":"4鄰","STREET":"仁義三街","SECT":" ","MAREA":" ","LANE":" ","ALLEY":" ","HOUSE_NO":"１７８號","E_COORD97":173789.23000000001,"N_COORD97":2541114.7599999998,"ADDRESS":"仁義三街１７８號","OBJECTID":570955},"geometry":{"x":173789.23000000045,"y":2541114.7600000016}},{"attributes":{"ID":570983,"DIS_CODE":0,"TOWNNAME":"仁德區","LI":"太子里","LIN":"34鄰","STREET":"太子二街","SECT":" ","MAREA":" ","LANE":" ","ALLEY":" ","HOUSE_NO":"１６號","E_COORD97":174282.95000000001,"N_COORD97":2543422.0099999998,"ADDRESS":"太子二街１６號","OBJECTID":570956},"geometry":{"x":174282.95000000112,"y":2543422.0100000016}},{"attributes":{"ID":570984,"DIS_CODE":0,"TOWNNAME":"仁德區","LI":"太子里","LIN":"1鄰","STREET":"太子北路","SECT":" ","MAREA":" ","LANE":" ","ALLEY":" ","HOUSE_NO":"６號","E_COORD97":174199.26000000001,"N_COORD97":2543542.5099999998,"ADDRESS":"太子北路６號","OBJECTID":570957},"geometry":{"x":174199.26000000071,"y":2543542.5100000035}},{"attributes":{"ID":570985,"DIS_CODE":0,"TOWNNAME":"仁德區","LI":"太子里","LIN":"30鄰","STREET":"太子路","SECT":" ","MAREA":" ","LANE":" ","ALLEY":" ","HOUSE_NO":"６０９號","E_COORD97":173737.35999999999,"N_COORD97":2543514.2599999998,"ADDRESS":"太子路６０９號","OBJECTID":570958},"geometry":{"x":173737.36000000034,"y":2543514.2600000016}},{"attributes":{"ID":570986,"DIS_CODE":0,"TOWNNAME":"安平區","LI":"平通里","LIN":"29鄰","STREET":"育平七街","SECT":" ","MAREA":" ","LANE":" ","ALLEY":" ","HOUSE_NO":"６２號","E_COORD97":164444.84,"N_COORD97":2543781.6299999999,"ADDRESS":"育平七街６２號","OBJECTID":570959},"geometry":{"x":164444.84000000078,"y":2543781.6300000027}},{"attributes":{"ID":570987,"DIS_CODE":0,"TOWNNAME":"安平區","LI":"平通里","LIN":"29鄰","STREET":"育平七街","SECT":" ","MAREA":" ","LANE":" ","ALLEY":" ","HOUSE_NO":"６８號","E_COORD97":164436.16,"N_COORD97":2543777.6800000002,"ADDRESS":"育平七街６８號","OBJECTID":570960},"geometry":{"x":164436.16000000108,"y":2543777.6799999997}},{"attributes":{"ID":570988,"DIS_CODE":0,"TOWNNAME":"安平區","LI":"平通里","LIN":"29鄰","STREET":"育平七街","SECT":" ","MAREA":" ","LANE":" ","ALLEY":" ","HOUSE_NO":"６８之１號","E_COORD97":164432.75,"N_COORD97":2543777.52,"ADDRESS":"育平七街６８之１號","OBJECTID":570961},"geometry":{"x":164432.75,"y":2543777.5200000014}},{"attributes":{"ID":570989,"DIS_CODE":0,"TOWNNAME":"安平區","LI":"平通里","LIN":"29鄰","STREET":"育平七街","SECT":" ","MAREA":" ","LANE":" ","ALLEY":" ","HOUSE_NO":"６８之２號","E_COORD97":164428.85000000001,"N_COORD97":2543777.52,"ADDRESS":"育平七街６８之２號","OBJECTID":570962},"geometry":{"x":164428.85000000056,"y":2543777.5200000014}},{"attributes":{"ID":570990,"DIS_CODE":0,"TOWNNAME":"安平區","LI":"平通里","LIN":"29鄰","STREET":"育平七街","SECT":" ","MAREA":" ","LANE":" ","ALLEY":" ","HOUSE_NO":"７０號","E_COORD97":164425.44,"N_COORD97":2543777.1899999999,"ADDRESS":"育平七街７０號","OBJECTID":570963},"geometry":{"x":164425.44000000227,"y":2543777.1899999995}},{"attributes":{"ID":570991,"DIS_CODE":0,"TOWNNAME":"安平區","LI":"平通里","LIN":"29鄰","STREET":"育平七街","SECT":" ","MAREA":" ","LANE":" ","ALLEY":" ","HOUSE_NO":"６６號","E_COORD97":164441.20000000001,"N_COORD97":2543780.2999999998,"ADDRESS":"育平七街６６號","OBJECTID":570964},"geometry":{"x":164441.20000000019,"y":2543780.3000000026}},{"attributes":{"ID":570992,"DIS_CODE":0,"TOWNNAME":"南區","LI":"大忠里","LIN":"29鄰","STREET":"中華南路","SECT":"一段","MAREA":" ","LANE":" ","ALLEY":" ","HOUSE_NO":"１１６號","E_COORD97":169234.07999999999,"N_COORD97":2541331.2799999998,"ADDRESS":"中華南路一段１１６號","OBJECTID":570965},"geometry":{"x":169234.08000000101,"y":2541331.2800000012}},{"attributes":{"ID":570993,"DIS_CODE":0,"TOWNNAME":"南區","LI":"大忠里","LIN":"29鄰","STREET":"中華南路","SECT":"一段","MAREA":" ","LANE":" ","ALLEY":" ","HOUSE_NO":"１１８號","E_COORD97":169230.48999999999,"N_COORD97":2541328.8900000001,"ADDRESS":"中華南路一段１１８號","OBJECTID":570966},"geometry":{"x":169230.49000000022,"y":2541328.8900000006}},{"attributes":{"ID":570994,"DIS_CODE":0,"TOWNNAME":"仁德區","LI":"仁義里","LIN":"30鄰","STREET":"正義路","SECT":" ","MAREA":" ","LANE":" ","ALLEY":" ","HOUSE_NO":"１０５號","E_COORD97":173620.28,"N_COORD97":2541440.52,"ADDRESS":"正義路１０５號","OBJECTID":570967},"geometry":{"x":173620.28000000026,"y":2541440.5200000014}},{"attributes":{"ID":570995,"DIS_CODE":0,"TOWNNAME":"南區","LI":"大忠里","LIN":"29鄰","STREET":"中華南路","SECT":"一段","MAREA":" ","LANE":" ","ALLEY":" ","HOUSE_NO":"１２０號","E_COORD97":169227.60999999999,"N_COORD97":2541325.3100000001,"ADDRESS":"中華南路一段１２０號","OBJECTID":570968},"geometry":{"x":169227.61000000034,"y":2541325.3100000024}},{"attributes":{"ID":570996,"DIS_CODE":0,"TOWNNAME":"南區","LI":"大忠里","LIN":"29鄰","STREET":"中華南路","SECT":"一段","MAREA":" ","LANE":" ","ALLEY":" ","HOUSE_NO":"１２２號","E_COORD97":169223.60999999999,"N_COORD97":2541322.9199999999,"ADDRESS":"中華南路一段１２２號","OBJECTID":570969},"geometry":{"x":169223.61000000127,"y":2541322.9200000018}},{"attributes":{"ID":570997,"DIS_CODE":0,"TOWNNAME":"南區","LI":"大忠里","LIN":"29鄰","STREET":"中華南路","SECT":"一段","MAREA":" ","LANE":" ","ALLEY":" ","HOUSE_NO":"１２４號","E_COORD97":169220.39999999999,"N_COORD97":2541320.0099999998,"ADDRESS":"中華南路一段１２４號","OBJECTID":570970},"geometry":{"x":169220.4000000013,"y":2541320.0100000016}},{"attributes":{"ID":570998,"DIS_CODE":0,"TOWNNAME":"仁德區","LI":"仁德里","LIN":"4鄰","STREET":"仁中六街","SECT":" ","MAREA":" ","LANE":" ","ALLEY":" ","HOUSE_NO":"１３３號","E_COORD97":173312.5,"N_COORD97":2540451.9900000002,"ADDRESS":"仁中六街１３３號","OBJECTID":570971},"geometry":{"x":173312.50000000186,"y":2540451.9900000021}},{"attributes":{"ID":570999,"DIS_CODE":0,"TOWNNAME":"仁德區","LI":"仁義里","LIN":"18鄰","STREET":"正義路","SECT":" ","MAREA":" ","LANE":" ","ALLEY":" ","HOUSE_NO":"２１６號","E_COORD97":173970.75,"N_COORD97":2541375.52,"ADDRESS":"正義路２１６號","OBJECTID":570972},"geometry":{"x":173970.75000000093,"y":2541375.5199999977}},{"attributes":{"ID":571000,"DIS_CODE":0,"TOWNNAME":"仁德區","LI":"仁義里","LIN":"49鄰","STREET":"中清路","SECT":" ","MAREA":" ","LANE":" ","ALLEY":" ","HOUSE_NO":"１１號","E_COORD97":173683.88,"N_COORD97":2541020.5499999998,"ADDRESS":"中清路１１號","OBJECTID":570973},"geometry":{"x":173683.87999999989,"y":2541020.5499999989}},{"attributes":{"ID":571001,"DIS_CODE":0,"TOWNNAME":"南區","LI":"大忠里","LIN":"29鄰","STREET":"中華南路","SECT":"一段","MAREA":" ","LANE":" ","ALLEY":" ","HOUSE_NO":"１２６號","E_COORD97":169216.59,"N_COORD97":2541317.0899999999,"ADDRESS":"中華南路一段１２６號","OBJECTID":570974},"geometry":{"x":169216.59000000078,"y":2541317.0899999999}},{"attributes":{"ID":571002,"DIS_CODE":0,"TOWNNAME":"歸仁區","LI":"許厝里","LIN":"29鄰","STREET":"大智街","SECT":" ","MAREA":" ","LANE":" ","ALLEY":" ","HOUSE_NO":"１９號","E_COORD97":177931.07000000001,"N_COORD97":2540679.5299999998,"ADDRESS":"大智街１９號","OBJECTID":570975},"geometry":{"x":177931.0700000003,"y":2540679.5299999993}},{"attributes":{"ID":571003,"DIS_CODE":0,"TOWNNAME":"南區","LI":"大忠里","LIN":"29鄰","STREET":"中華南路","SECT":"一段","MAREA":" ","LANE":" ","ALLEY":" ","HOUSE_NO":"１２８號","E_COORD97":169213.07999999999,"N_COORD97":2541313.5899999999,"ADDRESS":"中華南路一段１２８號","OBJECTID":570976},"geometry":{"x":169213.08000000194,"y":2541313.5899999999}},{"attributes":{"ID":571004,"DIS_CODE":0,"TOWNNAME":"南區","LI":"大忠里","LIN":"29鄰","STREET":"中華南路","SECT":"一段","MAREA":" ","LANE":" ","ALLEY":" ","HOUSE_NO":"１３０號","E_COORD97":169210.45000000001,"N_COORD97":2541310.0899999999,"ADDRESS":"中華南路一段１３０號","OBJECTID":570977},"geometry":{"x":169210.45000000019,"y":2541310.0899999999}},{"attributes":{"ID":571005,"DIS_CODE":0,"TOWNNAME":"南區","LI":"大忠里","LIN":"29鄰","STREET":"中華南路","SECT":"一段","MAREA":" ","LANE":" ","ALLEY":" ","HOUSE_NO":"１３２號","E_COORD97":169207.53,"N_COORD97":2541307.7599999998,"ADDRESS":"中華南路一段１３２號","OBJECTID":570978},"geometry":{"x":169207.53000000119,"y":2541307.7600000016}},{"attributes":{"ID":571006,"DIS_CODE":0,"TOWNNAME":"南區","LI":"大忠里","LIN":"29鄰","STREET":"中華南路","SECT":"一段","MAREA":" ","LANE":" ","ALLEY":" ","HOUSE_NO":"１３４號","E_COORD97":169204.60000000001,"N_COORD97":2541305.1400000001,"ADDRESS":"中華南路一段１３４號","OBJECTID":570979},"geometry":{"x":169204.60000000056,"y":2541305.1400000025}},{"attributes":{"ID":571007,"DIS_CODE":0,"TOWNNAME":"南區","LI":"大忠里","LIN":"29鄰","STREET":"中華南路","SECT":"一段","MAREA":" ","LANE":" ","ALLEY":" ","HOUSE_NO":"１３６號","E_COORD97":169201.09,"N_COORD97":2541302.7999999998,"ADDRESS":"中華南路一段１３６號","OBJECTID":570980},"geometry":{"x":169201.09000000078,"y":2541302.8000000007}},{"attributes":{"ID":571008,"DIS_CODE":0,"TOWNNAME":"南區","LI":"大忠里","LIN":"29鄰","STREET":"中華南路","SECT":"一段","MAREA":" ","LANE":" ","ALLEY":" ","HOUSE_NO":"１４６號","E_COORD97":169183.82999999999,"N_COORD97":2541289.7999999998,"ADDRESS":"中華南路一段１４６號","OBJECTID":570981},"geometry":{"x":169183.83000000007,"y":2541289.8000000007}},{"attributes":{"ID":571009,"DIS_CODE":0,"TOWNNAME":"南區","LI":"大忠里","LIN":"29鄰","STREET":"中華南路","SECT":"一段","MAREA":" ","LANE":" ","ALLEY":" ","HOUSE_NO":"１４８號","E_COORD97":169180.95000000001,"N_COORD97":2541286.3500000001,"ADDRESS":"中華南路一段１４８號","OBJECTID":570982},"geometry":{"x":169180.95000000019,"y":2541286.3500000015}},{"attributes":{"ID":571010,"DIS_CODE":0,"TOWNNAME":"南區","LI":"大忠里","LIN":"29鄰","STREET":"中華南路","SECT":"一段","MAREA":" ","LANE":" ","ALLEY":" ","HOUSE_NO":"１５０號","E_COORD97":169177.48000000001,"N_COORD97":2541283.4700000002,"ADDRESS":"中華南路一段１５０號","OBJECTID":570983},"geometry":{"x":169177.48000000138,"y":2541283.4700000025}},{"attributes":{"ID":571011,"DIS_CODE":0,"TOWNNAME":"南區","LI":"大忠里","LIN":"29鄰","STREET":"中華南路","SECT":"一段","MAREA":" ","LANE":" ","ALLEY":" ","HOUSE_NO":"１５２號","E_COORD97":169174.31,"N_COORD97":2541280.02,"ADDRESS":"中華南路一段１５２號","OBJECTID":570984},"geometry":{"x":169174.31000000052,"y":2541280.0199999996}},{"attributes":{"ID":571012,"DIS_CODE":0,"TOWNNAME":"南區","LI":"大忠里","LIN":"29鄰","STREET":"中華南路","SECT":"一段","MAREA":" ","LANE":" ","ALLEY":" ","HOUSE_NO":"１５４號","E_COORD97":169171.42999999999,"N_COORD97":2541277.1499999999,"ADDRESS":"中華南路一段１５４號","OBJECTID":570985},"geometry":{"x":169171.43000000063,"y":2541277.1499999985}},{"attributes":{"ID":571013,"DIS_CODE":0,"TOWNNAME":"南區","LI":"大忠里","LIN":"29鄰","STREET":"中華南路","SECT":"一段","MAREA":" ","LANE":" ","ALLEY":" ","HOUSE_NO":"１５６號","E_COORD97":169167.95999999999,"N_COORD97":2541273.6899999999,"ADDRESS":"中華南路一段１５６號","OBJECTID":570986},"geometry":{"x":169167.96000000183,"y":2541273.6900000013}},{"attributes":{"ID":571014,"DIS_CODE":0,"TOWNNAME":"南區","LI":"大忠里","LIN":"29鄰","STREET":"中華南路","SECT":"一段","MAREA":" ","LANE":" ","ALLEY":" ","HOUSE_NO":"１５８號","E_COORD97":169163.92000000001,"N_COORD97":2541270.5299999998,"ADDRESS":"中華南路一段１５８號","OBJECTID":570987},"geometry":{"x":169163.92000000086,"y":2541270.5300000031}},{"attributes":{"ID":571015,"DIS_CODE":0,"TOWNNAME":"南區","LI":"大忠里","LIN":"29鄰","STREET":"中華南路","SECT":"一段","MAREA":" ","LANE":" ","ALLEY":" ","HOUSE_NO":"１６０號","E_COORD97":169161.04000000001,"N_COORD97":2541267.3700000001,"ADDRESS":"中華南路一段１６０號","OBJECTID":570988},"geometry":{"x":169161.04000000097,"y":2541267.3700000029}},{"attributes":{"ID":571016,"DIS_CODE":0,"TOWNNAME":"南區","LI":"大忠里","LIN":"29鄰","STREET":"中華南路","SECT":"一段","MAREA":" ","LANE":" ","ALLEY":" ","HOUSE_NO":"１６４號","E_COORD97":169154.10999999999,"N_COORD97":2541261.3300000001,"ADDRESS":"中華南路一段１６４號","OBJECTID":570989},"geometry":{"x":169154.11000000127,"y":2541261.3300000001}},{"attributes":{"ID":571017,"DIS_CODE":0,"TOWNNAME":"南區","LI":"大忠里","LIN":"29鄰","STREET":"中華南路","SECT":"一段","MAREA":" ","LANE":" ","ALLEY":" ","HOUSE_NO":"１６６號","E_COORD97":169150.64999999999,"N_COORD97":2541258.1600000001,"ADDRESS":"中華南路一段１６６號","OBJECTID":570990},"geometry":{"x":169150.6500000013,"y":2541258.160000002}},{"attributes":{"ID":571018,"DIS_CODE":0,"TOWNNAME":"南區","LI":"大忠里","LIN":"29鄰","STREET":"中華南路","SECT":"一段","MAREA":" ","LANE":" ","ALLEY":" ","HOUSE_NO":"１６８號","E_COORD97":169146.89999999999,"N_COORD97":2541254.71,"ADDRESS":"中華南路一段１６８號","OBJECTID":570991},"geometry":{"x":169146.9000000013,"y":2541254.7100000028}},{"attributes":{"ID":571019,"DIS_CODE":0,"TOWNNAME":"南區","LI":"大忠里","LIN":"29鄰","STREET":"中華南路","SECT":"一段","MAREA":" ","LANE":" ","ALLEY":" ","HOUSE_NO":"１７０號","E_COORD97":169143.14999999999,"N_COORD97":2541251.5499999998,"ADDRESS":"中華南路一段１７０號","OBJECTID":570992},"geometry":{"x":169143.15000000037,"y":2541251.5500000045}},{"attributes":{"ID":571020,"DIS_CODE":0,"TOWNNAME":"歸仁區","LI":"許厝里","LIN":"29鄰","STREET":"大智街","SECT":" ","MAREA":" ","LANE":" ","ALLEY":" ","HOUSE_NO":"７號","E_COORD97":177931.88,"N_COORD97":2540701.8199999998,"ADDRESS":"大智街７號","OBJECTID":570993},"geometry":{"x":177931.87999999989,"y":2540701.8200000003}},{"attributes":{"ID":571021,"DIS_CODE":0,"TOWNNAME":"歸仁區","LI":"辜厝里","LIN":"29鄰","STREET":"大順三街","SECT":" ","MAREA":" ","LANE":" ","ALLEY":" ","HOUSE_NO":"４０號","E_COORD97":177352.42999999999,"N_COORD97":2540513.9500000002,"ADDRESS":"大順三街４０號","OBJECTID":570994},"geometry":{"x":177352.43000000063,"y":2540513.9499999993}},{"attributes":{"ID":571022,"DIS_CODE":0,"TOWNNAME":"仁德區","LI":"仁義里","LIN":"6鄰","STREET":"仁義一街","SECT":" ","MAREA":" ","LANE":" ","ALLEY":" ","HOUSE_NO":"１６０號","E_COORD97":173675.10000000001,"N_COORD97":2541172.27,"ADDRESS":"仁義一街１６０號","OBJECTID":570995},"geometry":{"x":173675.09999999963,"y":2541172.2700000014}},{"attributes":{"ID":571023,"DIS_CODE":0,"TOWNNAME":"仁德區","LI":"仁義里","LIN":"9鄰","STREET":"仁義一街","SECT":" ","MAREA":" ","LANE":" ","ALLEY":" ","HOUSE_NO":"１３２號","E_COORD97":173610.16,"N_COORD97":2541178.7599999998,"ADDRESS":"仁義一街１３２號","OBJECTID":570996},"geometry":{"x":173610.16000000108,"y":2541178.7600000016}},{"attributes":{"ID":571024,"DIS_CODE":0,"TOWNNAME":"歸仁區","LI":"許厝里","LIN":"29鄰","STREET":"大智街","SECT":" ","MAREA":" ","LANE":" ","ALLEY":" ","HOUSE_NO":"４１號","E_COORD97":177927.76999999999,"N_COORD97":2540634.5299999998,"ADDRESS":"大智街４１號","OBJECTID":570997},"geometry":{"x":177927.77000000142,"y":2540634.5300000012}},{"attributes":{"ID":571025,"DIS_CODE":0,"TOWNNAME":"歸仁區","LI":"許厝里","LIN":"29鄰","STREET":"大智街","SECT":" ","MAREA":" ","LANE":" ","ALLEY":" ","HOUSE_NO":"３５號","E_COORD97":177929.97,"N_COORD97":2540648.5299999998,"ADDRESS":"大智街３５號","OBJECTID":570998},"geometry":{"x":177929.96999999881,"y":2540648.5299999993}},{"attributes":{"ID":571026,"DIS_CODE":0,"TOWNNAME":"歸仁區","LI":"許厝里","LIN":"29鄰","STREET":"大智街","SECT":" ","MAREA":" ","LANE":" ","ALLEY":" ","HOUSE_NO":"５號","E_COORD97":177932.88,"N_COORD97":2540704.8199999998,"ADDRESS":"大智街５號","OBJECTID":570999},"geometry":{"x":177932.88000000082,"y":2540704.8200000022}},{"attributes":{"ID":571027,"DIS_CODE":0,"TOWNNAME":"歸仁區","LI":"許厝里","LIN":"29鄰","STREET":"大智街","SECT":" ","MAREA":" ","LANE":" ","ALLEY":" ","HOUSE_NO":"３３號","E_COORD97":177930.97,"N_COORD97":2540651.5299999998,"ADDRESS":"大智街３３號","OBJECTID":571000},"geometry":{"x":177930.96999999974,"y":2540651.5300000012}}]}