{"displayFieldName":"TOWNNAME","fieldAliases":{"ID":"ID","DIS_CODE":"DIS_CODE","TOWNNAME":"TOWNNAME","LI":"LI","LIN":"LIN","STREET":"STREET","SECT":"SECT","MAREA":"MAREA","LANE":"LANE","ALLEY":"ALLEY","HOUSE_NO":"HOUSE_NO","E_COORD97":"E_COORD97","N_COORD97":"N_COORD97","ADDRESS":"ADDRESS","OBJECTID":"OBJECTID"},"geometryType":"esriGeometryPoint","spatialReference":{"wkid":102443,"latestWkid":3826},"fields":[{"name":"ID","type":"esriFieldTypeDouble","alias":"ID"},{"name":"DIS_CODE","type":"esriFieldTypeInteger","alias":"DIS_CODE"},{"name":"TOWNNAME","type":"esriFieldTypeString","alias":"TOWNNAME","length":8},{"name":"LI","type":"esriFieldTypeString","alias":"LI","length":8},{"name":"LIN","type":"esriFieldTypeString","alias":"LIN","length":12},{"name":"STREET","type":"esriFieldTypeString","alias":"STREET","length":20},{"name":"SECT","type":"esriFieldTypeString","alias":"SECT","length":8},{"name":"MAREA","type":"esriFieldTypeString","alias":"MAREA","length":12},{"name":"LANE","type":"esriFieldTypeString","alias":"LANE","length":10},{"name":"ALLEY","type":"esriFieldTypeString","alias":"ALLEY","length":10},{"name":"HOUSE_NO","type":"esriFieldTypeString","alias":"HOUSE_NO","length":20},{"name":"E_COORD97","type":"esriFieldTypeDouble","alias":"E_COORD97"},{"name":"N_COORD97","type":"esriFieldTypeDouble","alias":"N_COORD97"},{"name":"ADDRESS","type":"esriFieldTypeString","alias":"ADDRESS","length":50},{"name":"OBJECTID","type":"esriFieldTypeOID","alias":"OBJECTID"}],"features":[{"attributes":{"ID":580028,"DIS_CODE":0,"TOWNNAME":"東區","LI":"裕聖里","LIN":"16鄰","STREET":"裕敬路","SECT":" ","MAREA":" ","LANE":" ","ALLEY":" ","HOUSE_NO":"８０號","E_COORD97":172327.95999999999,"N_COORD97":2542204.0699999998,"ADDRESS":"裕敬路８０號","OBJECTID":580001},"geometry":{"x":172327.96000000089,"y":2542204.0700000022}},{"attributes":{"ID":580029,"DIS_CODE":0,"TOWNNAME":"東區","LI":"裕聖里","LIN":"16鄰","STREET":"裕敬路","SECT":" ","MAREA":" ","LANE":" ","ALLEY":" ","HOUSE_NO":"８２號","E_COORD97":172323.79000000001,"N_COORD97":2542204.2200000002,"ADDRESS":"裕敬路８２號","OBJECTID":580002},"geometry":{"x":172323.78999999911,"y":2542204.2200000025}},{"attributes":{"ID":580030,"DIS_CODE":0,"TOWNNAME":"東區","LI":"裕聖里","LIN":"16鄰","STREET":"裕敬路","SECT":" ","MAREA":" ","LANE":" ","ALLEY":" ","HOUSE_NO":"８６號","E_COORD97":172319.92000000001,"N_COORD97":2542204.0699999998,"ADDRESS":"裕敬路８６號","OBJECTID":580003},"geometry":{"x":172319.92000000086,"y":2542204.0700000022}},{"attributes":{"ID":580031,"DIS_CODE":0,"TOWNNAME":"東區","LI":"裕聖里","LIN":"16鄰","STREET":"裕敬路","SECT":" ","MAREA":" ","LANE":" ","ALLEY":" ","HOUSE_NO":"８８號","E_COORD97":172315.60000000001,"N_COORD97":2542204.3799999999,"ADDRESS":"裕敬路８８號","OBJECTID":580004},"geometry":{"x":172315.59999999963,"y":2542204.3800000008}},{"attributes":{"ID":580032,"DIS_CODE":0,"TOWNNAME":"東區","LI":"裕聖里","LIN":"16鄰","STREET":"裕敬路","SECT":" ","MAREA":" ","LANE":" ","ALLEY":" ","HOUSE_NO":"９０號","E_COORD97":172318.22,"N_COORD97":2542194.9500000002,"ADDRESS":"裕敬路９０號","OBJECTID":580005},"geometry":{"x":172318.21999999974,"y":2542194.9499999993}},{"attributes":{"ID":580033,"DIS_CODE":0,"TOWNNAME":"東區","LI":"裕聖里","LIN":"16鄰","STREET":"裕敬路","SECT":" ","MAREA":" ","LANE":" ","ALLEY":" ","HOUSE_NO":"９２號","E_COORD97":172320.70000000001,"N_COORD97":2542195.1099999999,"ADDRESS":"裕敬路９２號","OBJECTID":580006},"geometry":{"x":172320.70000000019,"y":2542195.1099999994}},{"attributes":{"ID":580034,"DIS_CODE":0,"TOWNNAME":"東區","LI":"裕聖里","LIN":"16鄰","STREET":"裕敬路","SECT":" ","MAREA":" ","LANE":" ","ALLEY":" ","HOUSE_NO":"９６號","E_COORD97":172323.32000000001,"N_COORD97":2542194.9500000002,"ADDRESS":"裕敬路９６號","OBJECTID":580007},"geometry":{"x":172323.3200000003,"y":2542194.9499999993}},{"attributes":{"ID":580035,"DIS_CODE":0,"TOWNNAME":"東區","LI":"裕聖里","LIN":"16鄰","STREET":"裕敬路","SECT":" ","MAREA":" ","LANE":" ","ALLEY":" ","HOUSE_NO":"９８號","E_COORD97":172327.79999999999,"N_COORD97":2542194.7999999998,"ADDRESS":"裕敬路９８號","OBJECTID":580008},"geometry":{"x":172327.80000000075,"y":2542194.8000000007}},{"attributes":{"ID":580036,"DIS_CODE":0,"TOWNNAME":"東區","LI":"南聖里","LIN":"16鄰","STREET":"裕義路","SECT":" ","MAREA":" ","LANE":" ","ALLEY":" ","HOUSE_NO":"２８號","E_COORD97":172859.81,"N_COORD97":2543331.8700000001,"ADDRESS":"裕義路２８號","OBJECTID":580009},"geometry":{"x":172859.81000000052,"y":2543331.8700000029}},{"attributes":{"ID":580037,"DIS_CODE":0,"TOWNNAME":"東區","LI":"南聖里","LIN":"16鄰","STREET":"裕誠街","SECT":" ","MAREA":" ","LANE":" ","ALLEY":" ","HOUSE_NO":"３５０號","E_COORD97":172621.10999999999,"N_COORD97":2543314.9900000002,"ADDRESS":"裕誠街３５０號","OBJECTID":580010},"geometry":{"x":172621.11000000127,"y":2543314.9900000002}},{"attributes":{"ID":580038,"DIS_CODE":0,"TOWNNAME":"東區","LI":"南聖里","LIN":"16鄰","STREET":"裕誠街","SECT":" ","MAREA":" ","LANE":" ","ALLEY":" ","HOUSE_NO":"３５２號","E_COORD97":172631.92000000001,"N_COORD97":2543316.6299999999,"ADDRESS":"裕誠街３５２號","OBJECTID":580011},"geometry":{"x":172631.92000000086,"y":2543316.629999999}},{"attributes":{"ID":580039,"DIS_CODE":0,"TOWNNAME":"東區","LI":"南聖里","LIN":"16鄰","STREET":"裕誠街","SECT":" ","MAREA":" ","LANE":" ","ALLEY":" ","HOUSE_NO":"３５６號","E_COORD97":172641.57999999999,"N_COORD97":2543318.6000000001,"ADDRESS":"裕誠街３５６號","OBJECTID":580012},"geometry":{"x":172641.58000000007,"y":2543318.6000000015}},{"attributes":{"ID":580040,"DIS_CODE":0,"TOWNNAME":"東區","LI":"後甲里","LIN":"16鄰","STREET":"裕農路","SECT":" ","MAREA":" ","LANE":" ","ALLEY":" ","HOUSE_NO":"５８３之１號","E_COORD97":171498.51000000001,"N_COORD97":2543236.8999999999,"ADDRESS":"裕農路５８３之１號","OBJECTID":580013},"geometry":{"x":171498.51000000071,"y":2543236.9000000022}},{"attributes":{"ID":580041,"DIS_CODE":0,"TOWNNAME":"東區","LI":"泉南里","LIN":"16鄰","STREET":"府連路","SECT":" ","MAREA":" ","LANE":" ","ALLEY":" ","HOUSE_NO":"３４９號","E_COORD97":169625.91,"N_COORD97":2542837.1000000001,"ADDRESS":"府連路３４９號","OBJECTID":580014},"geometry":{"x":169625.91000000015,"y":2542837.1000000015}},{"attributes":{"ID":580042,"DIS_CODE":0,"TOWNNAME":"東區","LI":"關聖里","LIN":"16鄰","STREET":"裕孝路","SECT":" ","MAREA":" ","LANE":" ","ALLEY":" ","HOUSE_NO":"１２０號","E_COORD97":172426.92999999999,"N_COORD97":2542963.48,"ADDRESS":"裕孝路１２０號","OBJECTID":580015},"geometry":{"x":172426.9299999997,"y":2542963.4799999986}},{"attributes":{"ID":580043,"DIS_CODE":0,"TOWNNAME":"東區","LI":"南聖里","LIN":"16鄰","STREET":"裕義路","SECT":" ","MAREA":" ","LANE":" ","ALLEY":" ","HOUSE_NO":"１１６號","E_COORD97":172863.82000000001,"N_COORD97":2543161.8700000001,"ADDRESS":"裕義路１１６號","OBJECTID":580016},"geometry":{"x":172863.82000000123,"y":2543161.8700000048}},{"attributes":{"ID":580044,"DIS_CODE":0,"TOWNNAME":"東區","LI":"裕聖里","LIN":"16鄰","STREET":"裕敬路","SECT":" ","MAREA":" ","LANE":" ","ALLEY":" ","HOUSE_NO":"２５６號","E_COORD97":172403.35000000001,"N_COORD97":2542233.5899999999,"ADDRESS":"裕敬路２５６號","OBJECTID":580017},"geometry":{"x":172403.35000000056,"y":2542233.5900000036}},{"attributes":{"ID":580045,"DIS_CODE":0,"TOWNNAME":"東區","LI":"裕聖里","LIN":"16鄰","STREET":"裕敬路","SECT":" ","MAREA":" ","LANE":" ","ALLEY":" ","HOUSE_NO":"２５８號","E_COORD97":172407.76999999999,"N_COORD97":2542233.4199999999,"ADDRESS":"裕敬路２５８號","OBJECTID":580018},"geometry":{"x":172407.76999999955,"y":2542233.4199999999}},{"attributes":{"ID":580046,"DIS_CODE":0,"TOWNNAME":"東區","LI":"南聖里","LIN":"16鄰","STREET":"裕和五街","SECT":" ","MAREA":" ","LANE":" ","ALLEY":" ","HOUSE_NO":"６１號","E_COORD97":172828.23000000001,"N_COORD97":2543197.6000000001,"ADDRESS":"裕和五街６１號","OBJECTID":580019},"geometry":{"x":172828.23000000231,"y":2543197.6000000015}},{"attributes":{"ID":580047,"DIS_CODE":0,"TOWNNAME":"東區","LI":"崇明里","LIN":"16鄰","STREET":"崇明路","SECT":" ","MAREA":" ","LANE":" ","ALLEY":" ","HOUSE_NO":"６０６號","E_COORD97":170533.95999999999,"N_COORD97":2541440.4500000002,"ADDRESS":"崇明路６０６號","OBJECTID":580020},"geometry":{"x":170533.95999999996,"y":2541440.450000003}},{"attributes":{"ID":580048,"DIS_CODE":0,"TOWNNAME":"東區","LI":"文聖里","LIN":"16鄰","STREET":"裕孝路","SECT":" ","MAREA":" ","LANE":" ","ALLEY":" ","HOUSE_NO":"１８１號","E_COORD97":172448.38,"N_COORD97":2542750.77,"ADDRESS":"裕孝路１８１號","OBJECTID":580021},"geometry":{"x":172448.37999999989,"y":2542750.7700000033}},{"attributes":{"ID":580049,"DIS_CODE":0,"TOWNNAME":"東區","LI":"文聖里","LIN":"16鄰","STREET":"裕孝路","SECT":" ","MAREA":" ","LANE":" ","ALLEY":" ","HOUSE_NO":"１８３之１號","E_COORD97":172457.92999999999,"N_COORD97":2542743.5600000001,"ADDRESS":"裕孝路１８３之１號","OBJECTID":580022},"geometry":{"x":172457.9299999997,"y":2542743.5600000024}},{"attributes":{"ID":580050,"DIS_CODE":0,"TOWNNAME":"西港區","LI":"慶安里","LIN":"16鄰","STREET":"慶安路","SECT":" ","MAREA":" ","LANE":" ","ALLEY":" ","HOUSE_NO":"１４４號","E_COORD97":168015.35000000001,"N_COORD97":2557897.54,"ADDRESS":"慶安路１４４號","OBJECTID":580023},"geometry":{"x":168015.34999999963,"y":2557897.540000001}},{"attributes":{"ID":580051,"DIS_CODE":0,"TOWNNAME":"東區","LI":"文聖里","LIN":"16鄰","STREET":"裕孝路","SECT":" ","MAREA":" ","LANE":" ","ALLEY":" ","HOUSE_NO":"１８３之１１號","E_COORD97":172493.20000000001,"N_COORD97":2542742.2000000002,"ADDRESS":"裕孝路１８３之１１號","OBJECTID":580024},"geometry":{"x":172493.20000000112,"y":2542742.2000000011}},{"attributes":{"ID":580052,"DIS_CODE":0,"TOWNNAME":"東區","LI":"文聖里","LIN":"16鄰","STREET":"裕孝路","SECT":" ","MAREA":" ","LANE":" ","ALLEY":" ","HOUSE_NO":"１８３之１２號","E_COORD97":172497.67999999999,"N_COORD97":2542745.1200000001,"ADDRESS":"裕孝路１８３之１２號","OBJECTID":580025},"geometry":{"x":172497.68000000063,"y":2542745.120000001}},{"attributes":{"ID":580053,"DIS_CODE":0,"TOWNNAME":"東區","LI":"文聖里","LIN":"16鄰","STREET":"裕孝路","SECT":" ","MAREA":" ","LANE":" ","ALLEY":" ","HOUSE_NO":"１８３號","E_COORD97":172448.38,"N_COORD97":2542743.75,"ADDRESS":"裕孝路１８３號","OBJECTID":580026},"geometry":{"x":172448.37999999989,"y":2542743.75}},{"attributes":{"ID":580054,"DIS_CODE":0,"TOWNNAME":"東區","LI":"文聖里","LIN":"16鄰","STREET":"裕孝路","SECT":" ","MAREA":" ","LANE":" ","ALLEY":" ","HOUSE_NO":"１８５之１號","E_COORD97":172456.95999999999,"N_COORD97":2542732.0600000001,"ADDRESS":"裕孝路１８５之１號","OBJECTID":580027},"geometry":{"x":172456.96000000089,"y":2542732.0600000005}},{"attributes":{"ID":580055,"DIS_CODE":0,"TOWNNAME":"學甲區","LI":"明宜里","LIN":"22鄰","STREET":"三民路","SECT":" ","MAREA":" ","LANE":" ","ALLEY":" ","HOUSE_NO":"６號","E_COORD97":165844.32000000001,"N_COORD97":2570606.0499999998,"ADDRESS":"三民路６號","OBJECTID":580028},"geometry":{"x":165844.3200000003,"y":2570606.0500000026}},{"attributes":{"ID":580056,"DIS_CODE":0,"TOWNNAME":"東區","LI":"文聖里","LIN":"16鄰","STREET":"裕孝路","SECT":" ","MAREA":" ","LANE":" ","ALLEY":" ","HOUSE_NO":"１８５之１１號","E_COORD97":172488.32999999999,"N_COORD97":2542731.48,"ADDRESS":"裕孝路１８５之１１號","OBJECTID":580029},"geometry":{"x":172488.33000000101,"y":2542731.4800000004}},{"attributes":{"ID":580057,"DIS_CODE":0,"TOWNNAME":"東區","LI":"文聖里","LIN":"16鄰","STREET":"裕孝路","SECT":" ","MAREA":" ","LANE":" ","ALLEY":" ","HOUSE_NO":"１８５之１２號","E_COORD97":172491.64000000001,"N_COORD97":2542727.9700000002,"ADDRESS":"裕孝路１８５之１２號","OBJECTID":580030},"geometry":{"x":172491.63999999966,"y":2542727.9700000025}},{"attributes":{"ID":580058,"DIS_CODE":0,"TOWNNAME":"東區","LI":"文聖里","LIN":"16鄰","STREET":"裕孝路","SECT":" ","MAREA":" ","LANE":" ","ALLEY":" ","HOUSE_NO":"１８５之１５號","E_COORD97":172497.67999999999,"N_COORD97":2542731.48,"ADDRESS":"裕孝路１８５之１５號","OBJECTID":580031},"geometry":{"x":172497.68000000063,"y":2542731.4800000004}},{"attributes":{"ID":580059,"DIS_CODE":0,"TOWNNAME":"東區","LI":"文聖里","LIN":"16鄰","STREET":"裕孝路","SECT":" ","MAREA":" ","LANE":" ","ALLEY":" ","HOUSE_NO":"１８５之１６號","E_COORD97":172501.78,"N_COORD97":2542728.1600000001,"ADDRESS":"裕孝路１８５之１６號","OBJECTID":580032},"geometry":{"x":172501.78000000026,"y":2542728.1600000039}},{"attributes":{"ID":580060,"DIS_CODE":0,"TOWNNAME":"東區","LI":"文聖里","LIN":"16鄰","STREET":"裕孝路","SECT":" ","MAREA":" ","LANE":" ","ALLEY":" ","HOUSE_NO":"１８５之１７號","E_COORD97":172507.82000000001,"N_COORD97":2542732.0600000001,"ADDRESS":"裕孝路１８５之１７號","OBJECTID":580033},"geometry":{"x":172507.82000000123,"y":2542732.0600000005}},{"attributes":{"ID":580061,"DIS_CODE":0,"TOWNNAME":"東區","LI":"文聖里","LIN":"16鄰","STREET":"裕孝路","SECT":" ","MAREA":" ","LANE":" ","ALLEY":" ","HOUSE_NO":"１８５之１８號","E_COORD97":172511.91,"N_COORD97":2542728.3599999999,"ADDRESS":"裕孝路１８５之１８號","OBJECTID":580034},"geometry":{"x":172511.91000000108,"y":2542728.3599999994}},{"attributes":{"ID":580062,"DIS_CODE":0,"TOWNNAME":"東區","LI":"文聖里","LIN":"16鄰","STREET":"裕孝路","SECT":" ","MAREA":" ","LANE":" ","ALLEY":" ","HOUSE_NO":"１８５之２號","E_COORD97":172460.45999999999,"N_COORD97":2542728.75,"ADDRESS":"裕孝路１８５之２號","OBJECTID":580035},"geometry":{"x":172460.46000000089,"y":2542728.7500000019}},{"attributes":{"ID":580063,"DIS_CODE":0,"TOWNNAME":"東區","LI":"文聖里","LIN":"16鄰","STREET":"裕孝路","SECT":" ","MAREA":" ","LANE":" ","ALLEY":" ","HOUSE_NO":"１８５之３號","E_COORD97":172465.14000000001,"N_COORD97":2542732.2599999998,"ADDRESS":"裕孝路１８５之３號","OBJECTID":580036},"geometry":{"x":172465.13999999873,"y":2542732.2599999998}},{"attributes":{"ID":580064,"DIS_CODE":0,"TOWNNAME":"東區","LI":"文聖里","LIN":"16鄰","STREET":"裕孝路","SECT":" ","MAREA":" ","LANE":" ","ALLEY":" ","HOUSE_NO":"１８５之５號","E_COORD97":172469.62,"N_COORD97":2542728.75,"ADDRESS":"裕孝路１８５之５號","OBJECTID":580037},"geometry":{"x":172469.62000000104,"y":2542728.7500000019}},{"attributes":{"ID":580065,"DIS_CODE":0,"TOWNNAME":"東區","LI":"文聖里","LIN":"16鄰","STREET":"裕孝路","SECT":" ","MAREA":" ","LANE":" ","ALLEY":" ","HOUSE_NO":"１８５之６號","E_COORD97":172472.94,"N_COORD97":2542733.23,"ADDRESS":"裕孝路１８５之６號","OBJECTID":580038},"geometry":{"x":172472.94000000134,"y":2542733.2300000004}},{"attributes":{"ID":580066,"DIS_CODE":0,"TOWNNAME":"東區","LI":"文聖里","LIN":"16鄰","STREET":"裕孝路","SECT":" ","MAREA":" ","LANE":" ","ALLEY":" ","HOUSE_NO":"１８５之７號","E_COORD97":172475.07999999999,"N_COORD97":2542729.3300000001,"ADDRESS":"裕孝路１８５之７號","OBJECTID":580039},"geometry":{"x":172475.08000000101,"y":2542729.3300000001}},{"attributes":{"ID":580067,"DIS_CODE":0,"TOWNNAME":"東區","LI":"文聖里","LIN":"16鄰","STREET":"裕孝路","SECT":" ","MAREA":" ","LANE":" ","ALLEY":" ","HOUSE_NO":"１８５之８號","E_COORD97":172478.98000000001,"N_COORD97":2542732.8399999999,"ADDRESS":"裕孝路１８５之８號","OBJECTID":580040},"geometry":{"x":172478.98000000231,"y":2542732.8399999999}},{"attributes":{"ID":580068,"DIS_CODE":0,"TOWNNAME":"東區","LI":"文聖里","LIN":"16鄰","STREET":"裕孝路","SECT":" ","MAREA":" ","LANE":" ","ALLEY":" ","HOUSE_NO":"１８５之９號","E_COORD97":172482.09,"N_COORD97":2542728.5499999998,"ADDRESS":"裕孝路１８５之９號","OBJECTID":580041},"geometry":{"x":172482.08999999985,"y":2542728.5500000007}},{"attributes":{"ID":580069,"DIS_CODE":0,"TOWNNAME":"東區","LI":"文聖里","LIN":"16鄰","STREET":"裕孝路","SECT":" ","MAREA":" ","LANE":" ","ALLEY":" ","HOUSE_NO":"１８５號","E_COORD97":172448.97,"N_COORD97":2542732.2599999998,"ADDRESS":"裕孝路１８５號","OBJECTID":580042},"geometry":{"x":172448.96999999974,"y":2542732.2599999998}},{"attributes":{"ID":580070,"DIS_CODE":0,"TOWNNAME":"東區","LI":"文聖里","LIN":"16鄰","STREET":"裕孝路","SECT":" ","MAREA":" ","LANE":" ","ALLEY":" ","HOUSE_NO":"１８７號","E_COORD97":172448.57999999999,"N_COORD97":2542725.6299999999,"ADDRESS":"裕孝路１８７號","OBJECTID":580043},"geometry":{"x":172448.58000000007,"y":2542725.629999999}},{"attributes":{"ID":580071,"DIS_CODE":0,"TOWNNAME":"西港區","LI":"慶安里","LIN":"16鄰","STREET":"慶安路","SECT":" ","MAREA":" ","LANE":" ","ALLEY":" ","HOUSE_NO":"１００號","E_COORD97":168100.45000000001,"N_COORD97":2557906.7599999998,"ADDRESS":"慶安路１００號","OBJECTID":580044},"geometry":{"x":168100.45000000112,"y":2557906.7600000016}},{"attributes":{"ID":580072,"DIS_CODE":0,"TOWNNAME":"西港區","LI":"慶安里","LIN":"16鄰","STREET":"慶安路","SECT":" ","MAREA":" ","LANE":" ","ALLEY":" ","HOUSE_NO":"１０２號","E_COORD97":168095.47,"N_COORD97":2557906.3599999999,"ADDRESS":"慶安路１０２號","OBJECTID":580045},"geometry":{"x":168095.46999999974,"y":2557906.3600000013}},{"attributes":{"ID":580073,"DIS_CODE":0,"TOWNNAME":"西港區","LI":"慶安里","LIN":"16鄰","STREET":"慶安路","SECT":" ","MAREA":" ","LANE":" ","ALLEY":" ","HOUSE_NO":"１０４號","E_COORD97":168091.97,"N_COORD97":2557906,"ADDRESS":"慶安路１０４號","OBJECTID":580046},"geometry":{"x":168091.97000000067,"y":2557906.0000000019}},{"attributes":{"ID":580074,"DIS_CODE":0,"TOWNNAME":"西港區","LI":"慶安里","LIN":"16鄰","STREET":"慶安路","SECT":" ","MAREA":" ","LANE":" ","ALLEY":" ","HOUSE_NO":"１０６號","E_COORD97":168088.35999999999,"N_COORD97":2557905.6099999999,"ADDRESS":"慶安路１０６號","OBJECTID":580047},"geometry":{"x":168088.36000000034,"y":2557905.6099999994}},{"attributes":{"ID":580075,"DIS_CODE":0,"TOWNNAME":"西港區","LI":"慶安里","LIN":"16鄰","STREET":"慶安路","SECT":" ","MAREA":" ","LANE":" ","ALLEY":" ","HOUSE_NO":"１０８號","E_COORD97":168084.76999999999,"N_COORD97":2557905.25,"ADDRESS":"慶安路１０８號","OBJECTID":580048},"geometry":{"x":168084.76999999955,"y":2557905.25}},{"attributes":{"ID":580076,"DIS_CODE":0,"TOWNNAME":"西港區","LI":"慶安里","LIN":"16鄰","STREET":"慶安路","SECT":" ","MAREA":" ","LANE":" ","ALLEY":" ","HOUSE_NO":"１１０號","E_COORD97":168081.35999999999,"N_COORD97":2557904.8900000001,"ADDRESS":"慶安路１１０號","OBJECTID":580049},"geometry":{"x":168081.36000000127,"y":2557904.8900000006}},{"attributes":{"ID":580077,"DIS_CODE":0,"TOWNNAME":"西港區","LI":"慶安里","LIN":"16鄰","STREET":"慶安路","SECT":" ","MAREA":" ","LANE":" ","ALLEY":" ","HOUSE_NO":"１１２號","E_COORD97":168077.89000000001,"N_COORD97":2557904.2799999998,"ADDRESS":"慶安路１１２號","OBJECTID":580050},"geometry":{"x":168077.88999999966,"y":2557904.2799999993}},{"attributes":{"ID":580078,"DIS_CODE":0,"TOWNNAME":"西港區","LI":"慶安里","LIN":"16鄰","STREET":"慶安路","SECT":" ","MAREA":" ","LANE":" ","ALLEY":" ","HOUSE_NO":"１１４號","E_COORD97":168074.04000000001,"N_COORD97":2557903.4300000002,"ADDRESS":"慶安路１１４號","OBJECTID":580051},"geometry":{"x":168074.0400000019,"y":2557903.4299999997}},{"attributes":{"ID":580079,"DIS_CODE":0,"TOWNNAME":"西港區","LI":"慶安里","LIN":"16鄰","STREET":"慶安路","SECT":" ","MAREA":" ","LANE":" ","ALLEY":" ","HOUSE_NO":"１１６號","E_COORD97":168068.81,"N_COORD97":2557902.98,"ADDRESS":"慶安路１１６號","OBJECTID":580052},"geometry":{"x":168068.81000000052,"y":2557902.9800000023}},{"attributes":{"ID":580080,"DIS_CODE":0,"TOWNNAME":"西港區","LI":"慶安里","LIN":"16鄰","STREET":"慶安路","SECT":" ","MAREA":" ","LANE":" ","ALLEY":" ","HOUSE_NO":"１２２號","E_COORD97":168060.20000000001,"N_COORD97":2557902.3999999999,"ADDRESS":"慶安路１２２號","OBJECTID":580053},"geometry":{"x":168060.20000000112,"y":2557902.4000000041}},{"attributes":{"ID":580081,"DIS_CODE":0,"TOWNNAME":"西港區","LI":"慶安里","LIN":"16鄰","STREET":"慶安路","SECT":" ","MAREA":" ","LANE":" ","ALLEY":" ","HOUSE_NO":"１２４號","E_COORD97":168056.06,"N_COORD97":2557901.96,"ADDRESS":"慶安路１２４號","OBJECTID":580054},"geometry":{"x":168056.05999999959,"y":2557901.9600000009}},{"attributes":{"ID":580082,"DIS_CODE":0,"TOWNNAME":"西港區","LI":"慶安里","LIN":"16鄰","STREET":"慶安路","SECT":" ","MAREA":" ","LANE":" ","ALLEY":" ","HOUSE_NO":"１２６號","E_COORD97":168052.35999999999,"N_COORD97":2557901.8700000001,"ADDRESS":"慶安路１２６號","OBJECTID":580055},"geometry":{"x":168052.36000000127,"y":2557901.870000001}},{"attributes":{"ID":580083,"DIS_CODE":0,"TOWNNAME":"西港區","LI":"慶安里","LIN":"16鄰","STREET":"慶安路","SECT":" ","MAREA":" ","LANE":" ","ALLEY":" ","HOUSE_NO":"１３０號","E_COORD97":168044.51000000001,"N_COORD97":2557900.8599999999,"ADDRESS":"慶安路１３０號","OBJECTID":580056},"geometry":{"x":168044.50999999978,"y":2557900.8599999994}},{"attributes":{"ID":580084,"DIS_CODE":0,"TOWNNAME":"西港區","LI":"慶安里","LIN":"16鄰","STREET":"慶安路","SECT":" ","MAREA":" ","LANE":" ","ALLEY":" ","HOUSE_NO":"１３２號","E_COORD97":168040.17000000001,"N_COORD97":2557900.2599999998,"ADDRESS":"慶安路１３２號","OBJECTID":580057},"geometry":{"x":168040.16999999993,"y":2557900.2600000016}},{"attributes":{"ID":580085,"DIS_CODE":0,"TOWNNAME":"西港區","LI":"慶安里","LIN":"16鄰","STREET":"慶安路","SECT":" ","MAREA":" ","LANE":" ","ALLEY":" ","HOUSE_NO":"１３４號","E_COORD97":168036.13,"N_COORD97":2557899.7999999998,"ADDRESS":"慶安路１３４號","OBJECTID":580058},"geometry":{"x":168036.13000000175,"y":2557899.8000000045}},{"attributes":{"ID":580086,"DIS_CODE":0,"TOWNNAME":"西港區","LI":"慶安里","LIN":"16鄰","STREET":"慶安路","SECT":" ","MAREA":" ","LANE":" ","ALLEY":" ","HOUSE_NO":"１３６號","E_COORD97":168032.10000000001,"N_COORD97":2557899.4700000002,"ADDRESS":"慶安路１３６號","OBJECTID":580059},"geometry":{"x":168032.09999999963,"y":2557899.4700000025}},{"attributes":{"ID":580087,"DIS_CODE":0,"TOWNNAME":"西港區","LI":"慶安里","LIN":"16鄰","STREET":"慶安路","SECT":" ","MAREA":" ","LANE":" ","ALLEY":" ","HOUSE_NO":"１３８號","E_COORD97":168028.14000000001,"N_COORD97":2557899.25,"ADDRESS":"慶安路１３８號","OBJECTID":580060},"geometry":{"x":168028.13999999966,"y":2557899.2500000037}},{"attributes":{"ID":580088,"DIS_CODE":0,"TOWNNAME":"西港區","LI":"慶安里","LIN":"16鄰","STREET":"慶安路","SECT":" ","MAREA":" ","LANE":" ","ALLEY":" ","HOUSE_NO":"９６號","E_COORD97":168108.54999999999,"N_COORD97":2557907.3399999999,"ADDRESS":"慶安路９６號","OBJECTID":580061},"geometry":{"x":168108.54999999981,"y":2557907.3399999999}},{"attributes":{"ID":580089,"DIS_CODE":0,"TOWNNAME":"西港區","LI":"慶安里","LIN":"16鄰","STREET":"慶安路","SECT":" ","MAREA":" ","LANE":" ","ALLEY":" ","HOUSE_NO":"９８號","E_COORD97":168104.70000000001,"N_COORD97":2557907.0699999998,"ADDRESS":"慶安路９８號","OBJECTID":580062},"geometry":{"x":168104.70000000019,"y":2557907.0700000003}},{"attributes":{"ID":580090,"DIS_CODE":0,"TOWNNAME":"白河區","LI":"白河里","LIN":"16鄰","STREET":"三民路","SECT":" ","MAREA":" ","LANE":" ","ALLEY":" ","HOUSE_NO":"３９６號","E_COORD97":190362.17000000001,"N_COORD97":2583293.8199999998,"ADDRESS":"三民路３９６號","OBJECTID":580063},"geometry":{"x":190362.17000000086,"y":2583293.8200000022}},{"attributes":{"ID":580091,"DIS_CODE":0,"TOWNNAME":"白河區","LI":"永安里","LIN":"16鄰","STREET":"三義街","SECT":" ","MAREA":" ","LANE":" ","ALLEY":" ","HOUSE_NO":"３８號","E_COORD97":190062.32999999999,"N_COORD97":2583218.1400000001,"ADDRESS":"三義街３８號","OBJECTID":580064},"geometry":{"x":190062.33000000101,"y":2583218.1400000025}},{"attributes":{"ID":580092,"DIS_CODE":0,"TOWNNAME":"白河區","LI":"永安里","LIN":"16鄰","STREET":"三義街","SECT":" ","MAREA":" ","LANE":" ","ALLEY":" ","HOUSE_NO":"４２號","E_COORD97":190069.73000000001,"N_COORD97":2583224.4100000001,"ADDRESS":"三義街４２號","OBJECTID":580065},"geometry":{"x":190069.73000000045,"y":2583224.4099999983}},{"attributes":{"ID":580093,"DIS_CODE":0,"TOWNNAME":"白河區","LI":"永安里","LIN":"16鄰","STREET":"三義街","SECT":" ","MAREA":" ","LANE":" ","ALLEY":" ","HOUSE_NO":"４４號","E_COORD97":190073.72,"N_COORD97":2583228.1699999999,"ADDRESS":"三義街４４號","OBJECTID":580066},"geometry":{"x":190073.71999999974,"y":2583228.1699999999}},{"attributes":{"ID":580094,"DIS_CODE":0,"TOWNNAME":"白河區","LI":"永安里","LIN":"16鄰","STREET":"中正路","SECT":" ","MAREA":" ","LANE":" ","ALLEY":" ","HOUSE_NO":"１１４號","E_COORD97":189877.07000000001,"N_COORD97":2583128.98,"ADDRESS":"中正路１１４號","OBJECTID":580067},"geometry":{"x":189877.0700000003,"y":2583128.9800000004}},{"attributes":{"ID":580095,"DIS_CODE":0,"TOWNNAME":"安南區","LI":"新順里","LIN":"16鄰","STREET":"安生街","SECT":" ","MAREA":" ","LANE":" ","ALLEY":" ","HOUSE_NO":"４３號","E_COORD97":169665.76000000001,"N_COORD97":2549443.02,"ADDRESS":"安生街４３號","OBJECTID":580068},"geometry":{"x":169665.76000000164,"y":2549443.0200000014}},{"attributes":{"ID":580096,"DIS_CODE":0,"TOWNNAME":"安南區","LI":"新順里","LIN":"16鄰","STREET":"安生街","SECT":" ","MAREA":" ","LANE":" ","ALLEY":" ","HOUSE_NO":"４５號","E_COORD97":169658.10999999999,"N_COORD97":2549444.04,"ADDRESS":"安生街４５號","OBJECTID":580069},"geometry":{"x":169658.11000000034,"y":2549444.0399999972}},{"attributes":{"ID":580097,"DIS_CODE":0,"TOWNNAME":"安南區","LI":"新順里","LIN":"16鄰","STREET":"安和路","SECT":"三段","MAREA":" ","LANE":" ","ALLEY":" ","HOUSE_NO":"１１號","E_COORD97":169719.82999999999,"N_COORD97":2549342.6299999999,"ADDRESS":"安和路三段１１號","OBJECTID":580070},"geometry":{"x":169719.83000000194,"y":2549342.6300000008}},{"attributes":{"ID":580098,"DIS_CODE":0,"TOWNNAME":"安南區","LI":"新順里","LIN":"16鄰","STREET":"安和路","SECT":"三段","MAREA":" ","LANE":" ","ALLEY":" ","HOUSE_NO":"１９號","E_COORD97":169700.79000000001,"N_COORD97":2549359.75,"ADDRESS":"安和路三段１９號","OBJECTID":580071},"geometry":{"x":169700.79000000004,"y":2549359.7500000019}},{"attributes":{"ID":580099,"DIS_CODE":0,"TOWNNAME":"安南區","LI":"新順里","LIN":"16鄰","STREET":"安和路","SECT":"三段","MAREA":" ","LANE":" ","ALLEY":" ","HOUSE_NO":"１號","E_COORD97":169713.26999999999,"N_COORD97":2549319.7999999998,"ADDRESS":"安和路三段１號","OBJECTID":580072},"geometry":{"x":169713.27000000048,"y":2549319.8000000026}},{"attributes":{"ID":580100,"DIS_CODE":0,"TOWNNAME":"安南區","LI":"新順里","LIN":"16鄰","STREET":"安和路","SECT":"三段","MAREA":" ","LANE":" ","ALLEY":" ","HOUSE_NO":"２１號","E_COORD97":169707.34,"N_COORD97":2549378.6299999999,"ADDRESS":"安和路三段２１號","OBJECTID":580073},"geometry":{"x":169707.33999999985,"y":2549378.629999999}},{"attributes":{"ID":580101,"DIS_CODE":0,"TOWNNAME":"安南區","LI":"新順里","LIN":"16鄰","STREET":"安和路","SECT":"三段","MAREA":" ","LANE":" ","ALLEY":" ","HOUSE_NO":"２９號","E_COORD97":169738.64999999999,"N_COORD97":2549383.0600000001,"ADDRESS":"安和路三段２９號","OBJECTID":580074},"geometry":{"x":169738.6500000013,"y":2549383.0600000005}},{"attributes":{"ID":580102,"DIS_CODE":0,"TOWNNAME":"安南區","LI":"新順里","LIN":"16鄰","STREET":"安和路","SECT":"三段","MAREA":" ","LANE":" ","ALLEY":" ","HOUSE_NO":"３１號","E_COORD97":169740.59,"N_COORD97":2549389.98,"ADDRESS":"安和路三段３１號","OBJECTID":580075},"geometry":{"x":169740.59000000078,"y":2549389.9800000023}},{"attributes":{"ID":580103,"DIS_CODE":0,"TOWNNAME":"安南區","LI":"新順里","LIN":"16鄰","STREET":"安和路","SECT":"三段","MAREA":" ","LANE":" ","ALLEY":" ","HOUSE_NO":"３３號","E_COORD97":169741.14999999999,"N_COORD97":2549394.1299999999,"ADDRESS":"安和路三段３３號","OBJECTID":580076},"geometry":{"x":169741.15000000037,"y":2549394.1300000008}},{"attributes":{"ID":580104,"DIS_CODE":0,"TOWNNAME":"安南區","LI":"新順里","LIN":"16鄰","STREET":"安和路","SECT":"三段","MAREA":" ","LANE":" ","ALLEY":" ","HOUSE_NO":"３５號","E_COORD97":169743.92000000001,"N_COORD97":2549398.8399999999,"ADDRESS":"安和路三段３５號","OBJECTID":580077},"geometry":{"x":169743.91999999993,"y":2549398.8400000036}},{"attributes":{"ID":580105,"DIS_CODE":0,"TOWNNAME":"安南區","LI":"新順里","LIN":"16鄰","STREET":"安和路","SECT":"三段","MAREA":" ","LANE":" ","ALLEY":" ","HOUSE_NO":"３９號","E_COORD97":169746.97,"N_COORD97":2549407.7000000002,"ADDRESS":"安和路三段３９號","OBJECTID":580078},"geometry":{"x":169746.96999999974,"y":2549407.7000000011}},{"attributes":{"ID":580106,"DIS_CODE":0,"TOWNNAME":"安南區","LI":"新順里","LIN":"16鄰","STREET":"安和路","SECT":"三段","MAREA":" ","LANE":" ","ALLEY":" ","HOUSE_NO":"３號","E_COORD97":169713.69,"N_COORD97":2549325.5099999998,"ADDRESS":"安和路三段３號","OBJECTID":580079},"geometry":{"x":169713.69000000041,"y":2549325.5099999998}},{"attributes":{"ID":580107,"DIS_CODE":0,"TOWNNAME":"安南區","LI":"新順里","LIN":"16鄰","STREET":"安和路","SECT":"三段","MAREA":" ","LANE":" ","ALLEY":" ","HOUSE_NO":"４１號","E_COORD97":169748.35000000001,"N_COORD97":2549411.02,"ADDRESS":"安和路三段４１號","OBJECTID":580080},"geometry":{"x":169748.35000000056,"y":2549411.0200000033}},{"attributes":{"ID":580108,"DIS_CODE":0,"TOWNNAME":"安南區","LI":"新順里","LIN":"16鄰","STREET":"安和路","SECT":"三段","MAREA":" ","LANE":" ","ALLEY":" ","HOUSE_NO":"４３號","E_COORD97":169750.29000000001,"N_COORD97":2549416.2799999998,"ADDRESS":"安和路三段４３號","OBJECTID":580081},"geometry":{"x":169750.29000000004,"y":2549416.2800000012}},{"attributes":{"ID":580109,"DIS_CODE":0,"TOWNNAME":"安南區","LI":"新順里","LIN":"16鄰","STREET":"安和路","SECT":"三段","MAREA":" ","LANE":" ","ALLEY":" ","HOUSE_NO":"４５號","E_COORD97":169752.23000000001,"N_COORD97":2549422.3700000001,"ADDRESS":"安和路三段４５號","OBJECTID":580082},"geometry":{"x":169752.23000000138,"y":2549422.370000001}},{"attributes":{"ID":580110,"DIS_CODE":0,"TOWNNAME":"安南區","LI":"新順里","LIN":"16鄰","STREET":"安和路","SECT":"三段","MAREA":" ","LANE":" ","ALLEY":" ","HOUSE_NO":"７號","E_COORD97":169717.5,"N_COORD97":2549334.1800000002,"ADDRESS":"安和路三段７號","OBJECTID":580083},"geometry":{"x":169717.50000000093,"y":2549334.1799999997}},{"attributes":{"ID":580111,"DIS_CODE":0,"TOWNNAME":"安南區","LI":"新順里","LIN":"16鄰","STREET":"安和路","SECT":"三段","MAREA":" ","LANE":" ","ALLEY":" ","HOUSE_NO":"９號","E_COORD97":169718.98000000001,"N_COORD97":2549338.3999999999,"ADDRESS":"安和路三段９號","OBJECTID":580084},"geometry":{"x":169718.98000000045,"y":2549338.4000000022}},{"attributes":{"ID":580112,"DIS_CODE":0,"TOWNNAME":"安南區","LI":"新順里","LIN":"16鄰","STREET":"頂安街","SECT":" ","MAREA":" ","LANE":" ","ALLEY":" ","HOUSE_NO":"２６號","E_COORD97":169646.72,"N_COORD97":2549340.6400000001,"ADDRESS":"頂安街２６號","OBJECTID":580085},"geometry":{"x":169646.71999999974,"y":2549340.6400000025}},{"attributes":{"ID":580113,"DIS_CODE":0,"TOWNNAME":"安南區","LI":"新順里","LIN":"16鄰","STREET":"頂安街","SECT":" ","MAREA":" ","LANE":" ","ALLEY":" ","HOUSE_NO":"３６號","E_COORD97":169622.98000000001,"N_COORD97":2549346.6400000001,"ADDRESS":"頂安街３６號","OBJECTID":580086},"geometry":{"x":169622.98000000138,"y":2549346.6399999987}},{"attributes":{"ID":580114,"DIS_CODE":0,"TOWNNAME":"南區","LI":"鯤鯓里","LIN":"16鄰","STREET":"新港路","SECT":" ","MAREA":" ","LANE":" ","ALLEY":" ","HOUSE_NO":"３０５號","E_COORD97":164954.5,"N_COORD97":2540706.29,"ADDRESS":"新港路３０５號","OBJECTID":580087},"geometry":{"x":164954.5,"y":2540706.290000001}},{"attributes":{"ID":580115,"DIS_CODE":0,"TOWNNAME":"南區","LI":"鯤鯓里","LIN":"16鄰","STREET":"新港路","SECT":" ","MAREA":" ","LANE":" ","ALLEY":" ","HOUSE_NO":"３６０號","E_COORD97":164892.70000000001,"N_COORD97":2540812.1299999999,"ADDRESS":"新港路３６０號","OBJECTID":580088},"geometry":{"x":164892.70000000019,"y":2540812.1300000008}},{"attributes":{"ID":580116,"DIS_CODE":0,"TOWNNAME":"南區","LI":"鯤鯓里","LIN":"16鄰","STREET":"新港路","SECT":" ","MAREA":" ","LANE":" ","ALLEY":" ","HOUSE_NO":"３７５號","E_COORD97":164824.54000000001,"N_COORD97":2540849.3799999999,"ADDRESS":"新港路３７５號","OBJECTID":580089},"geometry":{"x":164824.54000000097,"y":2540849.379999999}},{"attributes":{"ID":580117,"DIS_CODE":0,"TOWNNAME":"南區","LI":"白雪里","LIN":"16鄰","STREET":"\u25A0埕路","SECT":" ","MAREA":" ","LANE":" ","ALLEY":" ","HOUSE_NO":"２２號","E_COORD97":166902.62,"N_COORD97":2540741.2000000002,"ADDRESS":"\u25A0埕路２２號","OBJECTID":580090},"geometry":{"x":166902.62000000104,"y":2540741.2000000011}},{"attributes":{"ID":580118,"DIS_CODE":0,"TOWNNAME":"南區","LI":"彰南里","LIN":"16鄰","STREET":"新義路","SECT":" ","MAREA":" ","LANE":" ","ALLEY":" ","HOUSE_NO":"１１之１號","E_COORD97":166033.79999999999,"N_COORD97":2541191.9399999999,"ADDRESS":"新義路１１之１號","OBJECTID":580091},"geometry":{"x":166033.79999999981,"y":2541191.9399999995}},{"attributes":{"ID":580119,"DIS_CODE":0,"TOWNNAME":"南區","LI":"彰南里","LIN":"16鄰","STREET":"新義路","SECT":" ","MAREA":" ","LANE":" ","ALLEY":" ","HOUSE_NO":"１７之１號","E_COORD97":165931.67000000001,"N_COORD97":2541170.0800000001,"ADDRESS":"新義路１７之１號","OBJECTID":580092},"geometry":{"x":165931.66999999993,"y":2541170.0800000019}},{"attributes":{"ID":580120,"DIS_CODE":0,"TOWNNAME":"東區","LI":"龍山里","LIN":"16鄰","STREET":"光華街","SECT":" ","MAREA":" ","LANE":" ","ALLEY":" ","HOUSE_NO":"９４號","E_COORD97":169738.57000000001,"N_COORD97":2542895.2000000002,"ADDRESS":"光華街９４號","OBJECTID":580093},"geometry":{"x":169738.5700000003,"y":2542895.1999999993}},{"attributes":{"ID":580121,"DIS_CODE":0,"TOWNNAME":"南區","LI":"喜北里","LIN":"16鄰","STREET":"濱南路","SECT":" ","MAREA":" ","LANE":" ","ALLEY":" ","HOUSE_NO":"４９１號","E_COORD97":165544.44,"N_COORD97":2535477.04,"ADDRESS":"濱南路４９１號","OBJECTID":580094},"geometry":{"x":165544.44000000134,"y":2535477.040000001}},{"attributes":{"ID":580122,"DIS_CODE":0,"TOWNNAME":"南區","LI":"彰南里","LIN":"16鄰","STREET":"新義路","SECT":" ","MAREA":" ","LANE":" ","ALLEY":" ","HOUSE_NO":"７號之１","E_COORD97":166098.13,"N_COORD97":2541183.7400000002,"ADDRESS":"新義路７號之１","OBJECTID":580095},"geometry":{"x":166098.12999999989,"y":2541183.7400000002}},{"attributes":{"ID":580123,"DIS_CODE":0,"TOWNNAME":"南區","LI":"彰南里","LIN":"16鄰","STREET":"新義南路","SECT":" ","MAREA":" ","LANE":" ","ALLEY":" ","HOUSE_NO":"５４號之１","E_COORD97":165462.09,"N_COORD97":2541026.02,"ADDRESS":"新義南路５４號之１","OBJECTID":580096},"geometry":{"x":165462.09000000078,"y":2541026.0199999996}},{"attributes":{"ID":580124,"DIS_CODE":0,"TOWNNAME":"南區","LI":"廣州里","LIN":"16鄰","STREET":"福吉三街","SECT":" ","MAREA":" ","LANE":" ","ALLEY":" ","HOUSE_NO":"３０號","E_COORD97":167313.29000000001,"N_COORD97":2542694.6400000001,"ADDRESS":"福吉三街３０號","OBJECTID":580097},"geometry":{"x":167313.29000000097,"y":2542694.6399999987}},{"attributes":{"ID":580125,"DIS_CODE":0,"TOWNNAME":"東區","LI":"大福里","LIN":"16鄰","STREET":"立德六路","SECT":" ","MAREA":" ","LANE":" ","ALLEY":" ","HOUSE_NO":"２５號","E_COORD97":169581,"N_COORD97":2541885.8300000001,"ADDRESS":"立德六路２５號","OBJECTID":580098},"geometry":{"x":169581,"y":2541885.8300000001}},{"attributes":{"ID":580126,"DIS_CODE":0,"TOWNNAME":"東區","LI":"大福里","LIN":"16鄰","STREET":"立德六路","SECT":" ","MAREA":" ","LANE":" ","ALLEY":" ","HOUSE_NO":"２７號","E_COORD97":169585.19,"N_COORD97":2541886.5299999998,"ADDRESS":"立德六路２７號","OBJECTID":580099},"geometry":{"x":169585.19000000041,"y":2541886.5299999993}},{"attributes":{"ID":580127,"DIS_CODE":0,"TOWNNAME":"東區","LI":"大福里","LIN":"16鄰","STREET":"立德六路","SECT":" ","MAREA":" ","LANE":" ","ALLEY":" ","HOUSE_NO":"２９號","E_COORD97":169590.07000000001,"N_COORD97":2541887.9199999999,"ADDRESS":"立德六路２９號","OBJECTID":580100},"geometry":{"x":169590.07000000123,"y":2541887.9199999999}},{"attributes":{"ID":580128,"DIS_CODE":0,"TOWNNAME":"東區","LI":"大福里","LIN":"16鄰","STREET":"立德六路","SECT":" ","MAREA":" ","LANE":" ","ALLEY":" ","HOUSE_NO":"３１號","E_COORD97":169594.26000000001,"N_COORD97":2541890.0099999998,"ADDRESS":"立德六路３１號","OBJECTID":580101},"geometry":{"x":169594.25999999978,"y":2541890.0099999998}},{"attributes":{"ID":580129,"DIS_CODE":0,"TOWNNAME":"東區","LI":"大福里","LIN":"16鄰","STREET":"立德六路","SECT":" ","MAREA":" ","LANE":" ","ALLEY":" ","HOUSE_NO":"３３號","E_COORD97":169598.09,"N_COORD97":2541889.3100000001,"ADDRESS":"立德六路３３號","OBJECTID":580102},"geometry":{"x":169598.09000000078,"y":2541889.3100000005}},{"attributes":{"ID":580130,"DIS_CODE":0,"TOWNNAME":"東區","LI":"大福里","LIN":"16鄰","STREET":"立德六路","SECT":" ","MAREA":" ","LANE":" ","ALLEY":" ","HOUSE_NO":"３７號","E_COORD97":169609.60000000001,"N_COORD97":2541892.4500000002,"ADDRESS":"立德六路３７號","OBJECTID":580103},"geometry":{"x":169609.60000000056,"y":2541892.4500000011}},{"attributes":{"ID":580131,"DIS_CODE":0,"TOWNNAME":"東區","LI":"大福里","LIN":"16鄰","STREET":"立德六路","SECT":" ","MAREA":" ","LANE":" ","ALLEY":" ","HOUSE_NO":"４１號","E_COORD97":169619.01999999999,"N_COORD97":2541893.1400000001,"ADDRESS":"立德六路４１號","OBJECTID":580104},"geometry":{"x":169619.01999999955,"y":2541893.1400000006}},{"attributes":{"ID":580132,"DIS_CODE":0,"TOWNNAME":"南區","LI":"白雪里","LIN":"16鄰","STREET":"金華路","SECT":"一段","MAREA":" ","LANE":" ","ALLEY":" ","HOUSE_NO":"２３５號","E_COORD97":166937.59,"N_COORD97":2540877.3300000001,"ADDRESS":"金華路一段２３５號","OBJECTID":580105},"geometry":{"x":166937.58999999985,"y":2540877.3300000019}},{"attributes":{"ID":580133,"DIS_CODE":0,"TOWNNAME":"學甲區","LI":"明宜里","LIN":"22鄰","STREET":"三民路","SECT":" ","MAREA":" ","LANE":" ","ALLEY":" ","HOUSE_NO":"７號","E_COORD97":165801.66,"N_COORD97":2570636.5,"ADDRESS":"三民路７號","OBJECTID":580106},"geometry":{"x":165801.66000000015,"y":2570636.5000000019}},{"attributes":{"ID":580134,"DIS_CODE":0,"TOWNNAME":"東區","LI":"後甲里","LIN":"16鄰","STREET":"裕農路","SECT":" ","MAREA":" ","LANE":" ","ALLEY":" ","HOUSE_NO":"５７５號","E_COORD97":171478.03,"N_COORD97":2543238.6299999999,"ADDRESS":"裕農路５７５號","OBJECTID":580107},"geometry":{"x":171478.03000000026,"y":2543238.629999999}},{"attributes":{"ID":580135,"DIS_CODE":0,"TOWNNAME":"東區","LI":"後甲里","LIN":"16鄰","STREET":"裕農路","SECT":" ","MAREA":" ","LANE":" ","ALLEY":" ","HOUSE_NO":"５７９號","E_COORD97":171486.72,"N_COORD97":2543235.4900000002,"ADDRESS":"裕農路５７９號","OBJECTID":580108},"geometry":{"x":171486.7200000016,"y":2543235.4900000021}},{"attributes":{"ID":580136,"DIS_CODE":0,"TOWNNAME":"東區","LI":"後甲里","LIN":"16鄰","STREET":"裕農路","SECT":" ","MAREA":" ","LANE":" ","ALLEY":" ","HOUSE_NO":"５８１號","E_COORD97":171490.09,"N_COORD97":2543237.8999999999,"ADDRESS":"裕農路５８１號","OBJECTID":580109},"geometry":{"x":171490.09000000078,"y":2543237.9000000004}},{"attributes":{"ID":580137,"DIS_CODE":0,"TOWNNAME":"東區","LI":"大福里","LIN":"16鄰","STREET":"立德六路","SECT":" ","MAREA":" ","LANE":" ","ALLEY":" ","HOUSE_NO":"３５號","E_COORD97":169605.76999999999,"N_COORD97":2541889.6600000001,"ADDRESS":"立德六路３５號","OBJECTID":580110},"geometry":{"x":169605.76999999955,"y":2541889.6600000001}},{"attributes":{"ID":580138,"DIS_CODE":0,"TOWNNAME":"東區","LI":"大福里","LIN":"16鄰","STREET":"立德七路","SECT":" ","MAREA":" ","LANE":" ","ALLEY":" ","HOUSE_NO":"２６號之１","E_COORD97":169578.45999999999,"N_COORD97":2541894.1000000001,"ADDRESS":"立德七路２６號之１","OBJECTID":580111},"geometry":{"x":169578.46000000089,"y":2541894.1000000034}},{"attributes":{"ID":580139,"DIS_CODE":0,"TOWNNAME":"善化區","LI":"光文里","LIN":"16鄰","STREET":"中山路","SECT":" ","MAREA":" ","LANE":" ","ALLEY":" ","HOUSE_NO":"２０３號","E_COORD97":178283.25,"N_COORD97":2559123.75,"ADDRESS":"中山路２０３號","OBJECTID":580112},"geometry":{"x":178283.25000000093,"y":2559123.7500000019}},{"attributes":{"ID":580140,"DIS_CODE":0,"TOWNNAME":"安南區","LI":"淵東里","LIN":"16鄰","STREET":"功安一街","SECT":" ","MAREA":" ","LANE":" ","ALLEY":" ","HOUSE_NO":"１８１號","E_COORD97":165627.01999999999,"N_COORD97":2550046.46,"ADDRESS":"功安一街１８１號","OBJECTID":580113},"geometry":{"x":165627.01999999955,"y":2550046.4600000009}},{"attributes":{"ID":580141,"DIS_CODE":0,"TOWNNAME":"安南區","LI":"淵東里","LIN":"16鄰","STREET":"功安一街","SECT":" ","MAREA":" ","LANE":" ","ALLEY":" ","HOUSE_NO":"１８３號","E_COORD97":165621.44,"N_COORD97":2550042,"ADDRESS":"功安一街１８３號","OBJECTID":580114},"geometry":{"x":165621.44000000041,"y":2550041.9999999981}},{"attributes":{"ID":580142,"DIS_CODE":0,"TOWNNAME":"安南區","LI":"淵東里","LIN":"16鄰","STREET":"功安一街","SECT":" ","MAREA":" ","LANE":" ","ALLEY":" ","HOUSE_NO":"１８５號","E_COORD97":165618.78,"N_COORD97":2550026.52,"ADDRESS":"功安一街１８５號","OBJECTID":580115},"geometry":{"x":165618.78000000119,"y":2550026.5199999996}},{"attributes":{"ID":580143,"DIS_CODE":0,"TOWNNAME":"學甲區","LI":"明宜里","LIN":"22鄰","STREET":"三民路","SECT":" ","MAREA":" ","LANE":" ","ALLEY":" ","HOUSE_NO":"９號之１","E_COORD97":165803.75,"N_COORD97":2570653.52,"ADDRESS":"三民路９號之１","OBJECTID":580116},"geometry":{"x":165803.75,"y":2570653.5199999996}},{"attributes":{"ID":580144,"DIS_CODE":0,"TOWNNAME":"安南區","LI":"淵東里","LIN":"16鄰","STREET":"功安一街","SECT":" ","MAREA":" ","LANE":" ","ALLEY":" ","HOUSE_NO":"１８７號","E_COORD97":165619.89999999999,"N_COORD97":2550021.0800000001,"ADDRESS":"功安一街１８７號","OBJECTID":580117},"geometry":{"x":165619.90000000037,"y":2550021.0800000001}},{"attributes":{"ID":580145,"DIS_CODE":0,"TOWNNAME":"安南區","LI":"淵東里","LIN":"16鄰","STREET":"功安一街","SECT":" ","MAREA":" ","LANE":" ","ALLEY":" ","HOUSE_NO":"１８９號","E_COORD97":165620.88,"N_COORD97":2550014.9500000002,"ADDRESS":"功安一街１８９號","OBJECTID":580118},"geometry":{"x":165620.88000000082,"y":2550014.9500000011}},{"attributes":{"ID":580146,"DIS_CODE":0,"TOWNNAME":"安南區","LI":"淵東里","LIN":"16鄰","STREET":"功安一街","SECT":" ","MAREA":" ","LANE":" ","ALLEY":" ","HOUSE_NO":"１９１號","E_COORD97":165621.70999999999,"N_COORD97":2550009.5099999998,"ADDRESS":"功安一街１９１號","OBJECTID":580119},"geometry":{"x":165621.71000000183,"y":2550009.5100000016}},{"attributes":{"ID":580147,"DIS_CODE":0,"TOWNNAME":"安南區","LI":"淵東里","LIN":"16鄰","STREET":"功安一街","SECT":" ","MAREA":" ","LANE":" ","ALLEY":" ","HOUSE_NO":"１９２號","E_COORD97":165600.20999999999,"N_COORD97":2550075.7599999998,"ADDRESS":"功安一街１９２號","OBJECTID":580120},"geometry":{"x":165600.21000000089,"y":2550075.7600000016}},{"attributes":{"ID":580148,"DIS_CODE":0,"TOWNNAME":"安南區","LI":"淵東里","LIN":"16鄰","STREET":"功安一街","SECT":" ","MAREA":" ","LANE":" ","ALLEY":" ","HOUSE_NO":"１９３號","E_COORD97":165606.91,"N_COORD97":2550008.2599999998,"ADDRESS":"功安一街１９３號","OBJECTID":580121},"geometry":{"x":165606.91000000201,"y":2550008.2599999998}},{"attributes":{"ID":580149,"DIS_CODE":0,"TOWNNAME":"安南區","LI":"淵東里","LIN":"16鄰","STREET":"功安一街","SECT":" ","MAREA":" ","LANE":" ","ALLEY":" ","HOUSE_NO":"１９４號","E_COORD97":165600.92999999999,"N_COORD97":2550068.3900000001,"ADDRESS":"功安一街１９４號","OBJECTID":580122},"geometry":{"x":165600.9299999997,"y":2550068.3900000025}},{"attributes":{"ID":580150,"DIS_CODE":0,"TOWNNAME":"安南區","LI":"淵東里","LIN":"16鄰","STREET":"功安一街","SECT":" ","MAREA":" ","LANE":" ","ALLEY":" ","HOUSE_NO":"１９５號","E_COORD97":165606.76999999999,"N_COORD97":2550014.25,"ADDRESS":"功安一街１９５號","OBJECTID":580123},"geometry":{"x":165606.76999999955,"y":2550014.2500000019}},{"attributes":{"ID":580151,"DIS_CODE":0,"TOWNNAME":"安南區","LI":"淵東里","LIN":"16鄰","STREET":"功安一街","SECT":" ","MAREA":" ","LANE":" ","ALLEY":" ","HOUSE_NO":"１９６號","E_COORD97":165601.16,"N_COORD97":2550061.9700000002,"ADDRESS":"功安一街１９６號","OBJECTID":580124},"geometry":{"x":165601.16000000015,"y":2550061.9700000007}},{"attributes":{"ID":580152,"DIS_CODE":0,"TOWNNAME":"安南區","LI":"淵東里","LIN":"16鄰","STREET":"功安一街","SECT":" ","MAREA":" ","LANE":" ","ALLEY":" ","HOUSE_NO":"１９７號","E_COORD97":165609.79000000001,"N_COORD97":2550032.3900000001,"ADDRESS":"功安一街１９７號","OBJECTID":580125},"geometry":{"x":165609.79000000097,"y":2550032.3900000006}},{"attributes":{"ID":580153,"DIS_CODE":0,"TOWNNAME":"安南區","LI":"淵東里","LIN":"16鄰","STREET":"功安一街","SECT":" ","MAREA":" ","LANE":" ","ALLEY":" ","HOUSE_NO":"１９８號","E_COORD97":165601.64000000001,"N_COORD97":2550054.3599999999,"ADDRESS":"功安一街１９８號","OBJECTID":580126},"geometry":{"x":165601.6400000006,"y":2550054.3599999994}},{"attributes":{"ID":580154,"DIS_CODE":0,"TOWNNAME":"安南區","LI":"淵東里","LIN":"16鄰","STREET":"功安一街","SECT":" ","MAREA":" ","LANE":" ","ALLEY":" ","HOUSE_NO":"１９９號","E_COORD97":165604.22,"N_COORD97":2550028.6800000002,"ADDRESS":"功安一街１９９號","OBJECTID":580127},"geometry":{"x":165604.21999999881,"y":2550028.6800000016}},{"attributes":{"ID":580155,"DIS_CODE":0,"TOWNNAME":"安南區","LI":"淵東里","LIN":"16鄰","STREET":"安中路","SECT":"三段","MAREA":" ","LANE":" ","ALLEY":" ","HOUSE_NO":"２６０號","E_COORD97":165699.57999999999,"N_COORD97":2549919.46,"ADDRESS":"安中路三段２６０號","OBJECTID":580128},"geometry":{"x":165699.58000000101,"y":2549919.4600000028}},{"attributes":{"ID":580156,"DIS_CODE":0,"TOWNNAME":"安南區","LI":"淵東里","LIN":"16鄰","STREET":"安中路","SECT":"三段","MAREA":" ","LANE":" ","ALLEY":" ","HOUSE_NO":"２８２號","E_COORD97":165654.42999999999,"N_COORD97":2549925.3799999999,"ADDRESS":"安中路三段２８２號","OBJECTID":580129},"geometry":{"x":165654.43000000063,"y":2549925.379999999}},{"attributes":{"ID":580157,"DIS_CODE":0,"TOWNNAME":"安南區","LI":"淵東里","LIN":"16鄰","STREET":"安中路","SECT":"三段","MAREA":" ","LANE":" ","ALLEY":" ","HOUSE_NO":"２８４號","E_COORD97":165650.42999999999,"N_COORD97":2549926.1499999999,"ADDRESS":"安中路三段２８４號","OBJECTID":580130},"geometry":{"x":165650.43000000156,"y":2549926.1500000041}},{"attributes":{"ID":580158,"DIS_CODE":0,"TOWNNAME":"安南區","LI":"淵東里","LIN":"16鄰","STREET":"安中路","SECT":"三段","MAREA":" ","LANE":" ","ALLEY":" ","HOUSE_NO":"２８６號","E_COORD97":165645.91,"N_COORD97":2549926.6699999999,"ADDRESS":"安中路三段２８６號","OBJECTID":580131},"geometry":{"x":165645.91000000201,"y":2549926.6700000018}},{"attributes":{"ID":580159,"DIS_CODE":0,"TOWNNAME":"安南區","LI":"淵東里","LIN":"16鄰","STREET":"安中路","SECT":"三段","MAREA":" ","LANE":" ","ALLEY":" ","HOUSE_NO":"２８８號","E_COORD97":165642.04000000001,"N_COORD97":2549928.0899999999,"ADDRESS":"安中路三段２８８號","OBJECTID":580132},"geometry":{"x":165642.04000000097,"y":2549928.0899999999}},{"attributes":{"ID":580160,"DIS_CODE":0,"TOWNNAME":"安南區","LI":"淵東里","LIN":"16鄰","STREET":"安中路","SECT":"三段","MAREA":" ","LANE":" ","ALLEY":" ","HOUSE_NO":"２９２號","E_COORD97":165634.5,"N_COORD97":2549930.27,"ADDRESS":"安中路三段２９２號","OBJECTID":580133},"geometry":{"x":165634.5,"y":2549930.2699999996}},{"attributes":{"ID":580161,"DIS_CODE":0,"TOWNNAME":"安南區","LI":"淵東里","LIN":"16鄰","STREET":"智安一街","SECT":" ","MAREA":" ","LANE":" ","ALLEY":" ","HOUSE_NO":"１０號","E_COORD97":165665.72,"N_COORD97":2549954.3500000001,"ADDRESS":"智安一街１０號","OBJECTID":580134},"geometry":{"x":165665.72000000067,"y":2549954.3499999996}},{"attributes":{"ID":580162,"DIS_CODE":0,"TOWNNAME":"安南區","LI":"淵東里","LIN":"16鄰","STREET":"智安一街","SECT":" ","MAREA":" ","LANE":" ","ALLEY":" ","HOUSE_NO":"１１號","E_COORD97":165642.92000000001,"N_COORD97":2549970.5800000001,"ADDRESS":"智安一街１１號","OBJECTID":580135},"geometry":{"x":165642.92000000086,"y":2549970.5800000038}},{"attributes":{"ID":580163,"DIS_CODE":0,"TOWNNAME":"安南區","LI":"淵東里","LIN":"16鄰","STREET":"智安一街","SECT":" ","MAREA":" ","LANE":" ","ALLEY":" ","HOUSE_NO":"１２號","E_COORD97":165665.91,"N_COORD97":2549959.21,"ADDRESS":"智安一街１２號","OBJECTID":580136},"geometry":{"x":165665.91000000015,"y":2549959.2100000009}},{"attributes":{"ID":580164,"DIS_CODE":0,"TOWNNAME":"安南區","LI":"淵東里","LIN":"16鄰","STREET":"智安一街","SECT":" ","MAREA":" ","LANE":" ","ALLEY":" ","HOUSE_NO":"１４號","E_COORD97":165665.72,"N_COORD97":2549964.8100000001,"ADDRESS":"智安一街１４號","OBJECTID":580137},"geometry":{"x":165665.72000000067,"y":2549964.8100000005}},{"attributes":{"ID":580165,"DIS_CODE":0,"TOWNNAME":"安南區","LI":"淵東里","LIN":"16鄰","STREET":"智安一街","SECT":" ","MAREA":" ","LANE":" ","ALLEY":" ","HOUSE_NO":"１７號","E_COORD97":165639.89000000001,"N_COORD97":2550001.4700000002,"ADDRESS":"智安一街１７號","OBJECTID":580138},"geometry":{"x":165639.88999999966,"y":2550001.4700000007}},{"attributes":{"ID":580166,"DIS_CODE":0,"TOWNNAME":"安南區","LI":"淵東里","LIN":"16鄰","STREET":"智安一街","SECT":" ","MAREA":" ","LANE":" ","ALLEY":" ","HOUSE_NO":"１９號","E_COORD97":165639.22,"N_COORD97":2550008.8500000001,"ADDRESS":"智安一街１９號","OBJECTID":580139},"geometry":{"x":165639.21999999974,"y":2550008.8500000034}},{"attributes":{"ID":580167,"DIS_CODE":0,"TOWNNAME":"安南區","LI":"淵東里","LIN":"16鄰","STREET":"智安一街","SECT":" ","MAREA":" ","LANE":" ","ALLEY":" ","HOUSE_NO":"１號","E_COORD97":165642.62,"N_COORD97":2549941.8799999999,"ADDRESS":"智安一街１號","OBJECTID":580140},"geometry":{"x":165642.61999999918,"y":2549941.879999999}},{"attributes":{"ID":580168,"DIS_CODE":0,"TOWNNAME":"安南區","LI":"淵東里","LIN":"16鄰","STREET":"智安一街","SECT":" ","MAREA":" ","LANE":" ","ALLEY":" ","HOUSE_NO":"２０號","E_COORD97":165664.54000000001,"N_COORD97":2549990.73,"ADDRESS":"智安一街２０號","OBJECTID":580141},"geometry":{"x":165664.54000000004,"y":2549990.7300000023}},{"attributes":{"ID":580169,"DIS_CODE":0,"TOWNNAME":"安南區","LI":"淵東里","LIN":"16鄰","STREET":"智安一街","SECT":" ","MAREA":" ","LANE":" ","ALLEY":" ","HOUSE_NO":"２１號","E_COORD97":165638.32000000001,"N_COORD97":2550015.1099999999,"ADDRESS":"智安一街２１號","OBJECTID":580142},"geometry":{"x":165638.32000000123,"y":2550015.1100000013}},{"attributes":{"ID":580170,"DIS_CODE":0,"TOWNNAME":"安南區","LI":"淵東里","LIN":"16鄰","STREET":"智安一街","SECT":" ","MAREA":" ","LANE":" ","ALLEY":" ","HOUSE_NO":"２２號","E_COORD97":165664.31,"N_COORD97":2549996.3199999998,"ADDRESS":"智安一街２２號","OBJECTID":580143},"geometry":{"x":165664.30999999959,"y":2549996.320000004}},{"attributes":{"ID":580171,"DIS_CODE":0,"TOWNNAME":"安南區","LI":"淵東里","LIN":"16鄰","STREET":"智安一街","SECT":" ","MAREA":" ","LANE":" ","ALLEY":" ","HOUSE_NO":"２３號","E_COORD97":165638.32000000001,"N_COORD97":2550022.27,"ADDRESS":"智安一街２３號","OBJECTID":580144},"geometry":{"x":165638.32000000123,"y":2550022.2699999996}},{"attributes":{"ID":580172,"DIS_CODE":0,"TOWNNAME":"安南區","LI":"淵東里","LIN":"16鄰","STREET":"智安一街","SECT":" ","MAREA":" ","LANE":" ","ALLEY":" ","HOUSE_NO":"２４號","E_COORD97":165664.09,"N_COORD97":2550002.8100000001,"ADDRESS":"智安一街２４號","OBJECTID":580145},"geometry":{"x":165664.08999999985,"y":2550002.8100000005}},{"attributes":{"ID":580173,"DIS_CODE":0,"TOWNNAME":"安南區","LI":"淵東里","LIN":"16鄰","STREET":"智安一街","SECT":" ","MAREA":" ","LANE":" ","ALLEY":" ","HOUSE_NO":"２５號","E_COORD97":165638.10000000001,"N_COORD97":2550029.4300000002,"ADDRESS":"智安一街２５號","OBJECTID":580146},"geometry":{"x":165638.09999999963,"y":2550029.4300000016}},{"attributes":{"ID":580174,"DIS_CODE":0,"TOWNNAME":"安南區","LI":"淵東里","LIN":"16鄰","STREET":"智安一街","SECT":" ","MAREA":" ","LANE":" ","ALLEY":" ","HOUSE_NO":"２６號","E_COORD97":165664.09,"N_COORD97":2550008.8500000001,"ADDRESS":"智安一街２６號","OBJECTID":580147},"geometry":{"x":165664.08999999985,"y":2550008.8500000034}},{"attributes":{"ID":580175,"DIS_CODE":0,"TOWNNAME":"安南區","LI":"淵東里","LIN":"16鄰","STREET":"智安一街","SECT":" ","MAREA":" ","LANE":" ","ALLEY":" ","HOUSE_NO":"２７號","E_COORD97":165637.87,"N_COORD97":2550036.1499999999,"ADDRESS":"智安一街２７號","OBJECTID":580148},"geometry":{"x":165637.87000000104,"y":2550036.1500000022}},{"attributes":{"ID":580176,"DIS_CODE":0,"TOWNNAME":"安南區","LI":"淵東里","LIN":"16鄰","STREET":"智安一街","SECT":" ","MAREA":" ","LANE":" ","ALLEY":" ","HOUSE_NO":"２８號","E_COORD97":165663.85999999999,"N_COORD97":2550014.8900000001,"ADDRESS":"智安一街２８號","OBJECTID":580149},"geometry":{"x":165663.86000000127,"y":2550014.8900000006}},{"attributes":{"ID":580177,"DIS_CODE":0,"TOWNNAME":"安南區","LI":"淵東里","LIN":"16鄰","STREET":"智安一街","SECT":" ","MAREA":" ","LANE":" ","ALLEY":" ","HOUSE_NO":"２９號","E_COORD97":165637.42000000001,"N_COORD97":2550042.8599999999,"ADDRESS":"智安一街２９號","OBJECTID":580150},"geometry":{"x":165637.42000000086,"y":2550042.8600000013}},{"attributes":{"ID":580178,"DIS_CODE":0,"TOWNNAME":"安南區","LI":"淵東里","LIN":"16鄰","STREET":"智安一街","SECT":" ","MAREA":" ","LANE":" ","ALLEY":" ","HOUSE_NO":"３０號","E_COORD97":165663.42000000001,"N_COORD97":2550021.6000000001,"ADDRESS":"智安一街３０號","OBJECTID":580151},"geometry":{"x":165663.41999999993,"y":2550021.6000000015}},{"attributes":{"ID":580179,"DIS_CODE":0,"TOWNNAME":"安南區","LI":"淵東里","LIN":"16鄰","STREET":"智安一街","SECT":" ","MAREA":" ","LANE":" ","ALLEY":" ","HOUSE_NO":"３２號","E_COORD97":165662.51999999999,"N_COORD97":2550027.2000000002,"ADDRESS":"智安一街３２號","OBJECTID":580152},"geometry":{"x":165662.51999999955,"y":2550027.2000000011}},{"attributes":{"ID":580180,"DIS_CODE":0,"TOWNNAME":"安南區","LI":"淵東里","LIN":"16鄰","STREET":"智安一街","SECT":" ","MAREA":" ","LANE":" ","ALLEY":" ","HOUSE_NO":"３３號","E_COORD97":165617.60000000001,"N_COORD97":2550063.8700000001,"ADDRESS":"智安一街３３號","OBJECTID":580153},"geometry":{"x":165617.60000000056,"y":2550063.870000001}},{"attributes":{"ID":580181,"DIS_CODE":0,"TOWNNAME":"安南區","LI":"淵東里","LIN":"16鄰","STREET":"智安一街","SECT":" ","MAREA":" ","LANE":" ","ALLEY":" ","HOUSE_NO":"３５號","E_COORD97":165616.88,"N_COORD97":2550069.8199999998,"ADDRESS":"智安一街３５號","OBJECTID":580154},"geometry":{"x":165616.87999999896,"y":2550069.8200000003}},{"attributes":{"ID":580182,"DIS_CODE":0,"TOWNNAME":"安南區","LI":"淵東里","LIN":"16鄰","STREET":"智安一街","SECT":" ","MAREA":" ","LANE":" ","ALLEY":" ","HOUSE_NO":"５號","E_COORD97":165643.82999999999,"N_COORD97":2549952.4500000002,"ADDRESS":"智安一街５號","OBJECTID":580155},"geometry":{"x":165643.83000000007,"y":2549952.4499999993}},{"attributes":{"ID":580183,"DIS_CODE":0,"TOWNNAME":"安南區","LI":"淵東里","LIN":"16鄰","STREET":"智安一街","SECT":" ","MAREA":" ","LANE":" ","ALLEY":" ","HOUSE_NO":"７號","E_COORD97":165642.92000000001,"N_COORD97":2549958.7999999998,"ADDRESS":"智安一街７號","OBJECTID":580156},"geometry":{"x":165642.92000000086,"y":2549958.8000000007}},{"attributes":{"ID":580184,"DIS_CODE":0,"TOWNNAME":"安南區","LI":"淵東里","LIN":"16鄰","STREET":"智安一街","SECT":" ","MAREA":" ","LANE":" ","ALLEY":" ","HOUSE_NO":"８號","E_COORD97":165665.91,"N_COORD97":2549948.5600000001,"ADDRESS":"智安一街８號","OBJECTID":580157},"geometry":{"x":165665.91000000015,"y":2549948.5600000024}},{"attributes":{"ID":580185,"DIS_CODE":0,"TOWNNAME":"安南區","LI":"淵東里","LIN":"16鄰","STREET":"智安一街","SECT":" ","MAREA":" ","LANE":" ","ALLEY":" ","HOUSE_NO":"９號","E_COORD97":165643.53,"N_COORD97":2549965.1400000001,"ADDRESS":"智安一街９號","OBJECTID":580158},"geometry":{"x":165643.53000000212,"y":2549965.1400000025}},{"attributes":{"ID":580186,"DIS_CODE":0,"TOWNNAME":"安南區","LI":"城南里","LIN":"16鄰","STREET":"青砂街","SECT":"一段","MAREA":" ","LANE":" ","ALLEY":" ","HOUSE_NO":"４９號","E_COORD97":160623.28,"N_COORD97":2551560.6600000001,"ADDRESS":"青砂街一段４９號","OBJECTID":580159},"geometry":{"x":160623.28000000026,"y":2551560.660000002}},{"attributes":{"ID":580187,"DIS_CODE":0,"TOWNNAME":"安南區","LI":"城南里","LIN":"16鄰","STREET":"青砂街","SECT":"一段","MAREA":" ","LANE":" ","ALLEY":" ","HOUSE_NO":"１９號","E_COORD97":160668.78,"N_COORD97":2551480.48,"ADDRESS":"青砂街一段１９號","OBJECTID":580160},"geometry":{"x":160668.78000000119,"y":2551480.4800000042}},{"attributes":{"ID":580188,"DIS_CODE":0,"TOWNNAME":"安南區","LI":"城南里","LIN":"16鄰","STREET":"青砂街","SECT":"一段","MAREA":" ","LANE":" ","ALLEY":" ","HOUSE_NO":"２３號","E_COORD97":160665.79000000001,"N_COORD97":2551491.4100000001,"ADDRESS":"青砂街一段２３號","OBJECTID":580161},"geometry":{"x":160665.79000000004,"y":2551491.410000002}},{"attributes":{"ID":580189,"DIS_CODE":0,"TOWNNAME":"安南區","LI":"城南里","LIN":"16鄰","STREET":"青砂街","SECT":"一段","MAREA":" ","LANE":" ","ALLEY":" ","HOUSE_NO":"１０３號","E_COORD97":160560.28,"N_COORD97":2551686.7400000002,"ADDRESS":"青砂街一段１０３號","OBJECTID":580162},"geometry":{"x":160560.28000000119,"y":2551686.7400000021}},{"attributes":{"ID":580190,"DIS_CODE":0,"TOWNNAME":"安南區","LI":"城南里","LIN":"16鄰","STREET":"青砂街","SECT":"一段","MAREA":" ","LANE":" ","ALLEY":" ","HOUSE_NO":"１５１號","E_COORD97":160493.12,"N_COORD97":2551806.1099999999,"ADDRESS":"青砂街一段１５１號","OBJECTID":580163},"geometry":{"x":160493.12000000104,"y":2551806.1099999994}},{"attributes":{"ID":580191,"DIS_CODE":0,"TOWNNAME":"安南區","LI":"城南里","LIN":"16鄰","STREET":"青砂街","SECT":"一段","MAREA":" ","LANE":" ","ALLEY":" ","HOUSE_NO":"１５３號","E_COORD97":160492.62,"N_COORD97":2551809.8300000001,"ADDRESS":"青砂街一段１５３號","OBJECTID":580164},"geometry":{"x":160492.61999999918,"y":2551809.8300000038}},{"attributes":{"ID":580192,"DIS_CODE":0,"TOWNNAME":"安南區","LI":"城南里","LIN":"16鄰","STREET":"青砂街","SECT":"一段","MAREA":" ","LANE":" ","ALLEY":" ","HOUSE_NO":"１５３號之１","E_COORD97":160490.14000000001,"N_COORD97":2551813.7999999998,"ADDRESS":"青砂街一段１５３號之１","OBJECTID":580165},"geometry":{"x":160490.13999999966,"y":2551813.8000000007}},{"attributes":{"ID":580193,"DIS_CODE":0,"TOWNNAME":"安南區","LI":"城南里","LIN":"16鄰","STREET":"青砂街","SECT":"一段","MAREA":" ","LANE":" ","ALLEY":" ","HOUSE_NO":"１６９號","E_COORD97":160468.76000000001,"N_COORD97":2551848.4300000002,"ADDRESS":"青砂街一段１６９號","OBJECTID":580166},"geometry":{"x":160468.75999999978,"y":2551848.4299999997}},{"attributes":{"ID":580194,"DIS_CODE":0,"TOWNNAME":"安南區","LI":"城南里","LIN":"16鄰","STREET":"青砂街","SECT":"一段","MAREA":" ","LANE":" ","ALLEY":" ","HOUSE_NO":"１６９號之１１２","E_COORD97":160350.32000000001,"N_COORD97":2552076.8300000001,"ADDRESS":"青砂街一段１６９號之１１２","OBJECTID":580167},"geometry":{"x":160350.3200000003,"y":2552076.8300000001}},{"attributes":{"ID":580195,"DIS_CODE":0,"TOWNNAME":"安南區","LI":"城南里","LIN":"16鄰","STREET":"青砂街","SECT":"一段","MAREA":" ","LANE":" ","ALLEY":" ","HOUSE_NO":"１６９號之３０","E_COORD97":160448.12,"N_COORD97":2551896.1899999999,"ADDRESS":"青砂街一段１６９號之３０","OBJECTID":580168},"geometry":{"x":160448.12000000011,"y":2551896.1900000013}},{"attributes":{"ID":580196,"DIS_CODE":0,"TOWNNAME":"善化區","LI":"光文里","LIN":"16鄰","STREET":"中山路","SECT":" ","MAREA":" ","LANE":" ","ALLEY":" ","HOUSE_NO":"１９１號","E_COORD97":178318.06,"N_COORD97":2559128.5,"ADDRESS":"中山路１９１號","OBJECTID":580169},"geometry":{"x":178318.06000000052,"y":2559128.5000000037}},{"attributes":{"ID":580197,"DIS_CODE":0,"TOWNNAME":"安南區","LI":"城南里","LIN":"16鄰","STREET":"青砂街","SECT":"一段","MAREA":" ","LANE":" ","ALLEY":" ","HOUSE_NO":"１６９號之３３","E_COORD97":160439.67000000001,"N_COORD97":2551900.1600000001,"ADDRESS":"青砂街一段１６９號之３３","OBJECTID":580170},"geometry":{"x":160439.67000000179,"y":2551900.160000002}},{"attributes":{"ID":580198,"DIS_CODE":0,"TOWNNAME":"安南區","LI":"城南里","LIN":"16鄰","STREET":"青砂街","SECT":"一段","MAREA":" ","LANE":" ","ALLEY":" ","HOUSE_NO":"１６９號之３５","E_COORD97":160439.67000000001,"N_COORD97":2551921.7599999998,"ADDRESS":"青砂街一段１６９號之３５","OBJECTID":580171},"geometry":{"x":160439.67000000179,"y":2551921.7600000035}},{"attributes":{"ID":580199,"DIS_CODE":0,"TOWNNAME":"安南區","LI":"城南里","LIN":"16鄰","STREET":"青砂街","SECT":"一段","MAREA":" ","LANE":" ","ALLEY":" ","HOUSE_NO":"１６９號之４０","E_COORD97":160422.88,"N_COORD97":2551945.0099999998,"ADDRESS":"青砂街一段１６９號之４０","OBJECTID":580172},"geometry":{"x":160422.88000000175,"y":2551945.0100000016}},{"attributes":{"ID":580200,"DIS_CODE":0,"TOWNNAME":"安南區","LI":"城南里","LIN":"16鄰","STREET":"青砂街","SECT":"一段","MAREA":" ","LANE":" ","ALLEY":" ","HOUSE_NO":"１６９號之４６","E_COORD97":160399.51000000001,"N_COORD97":2551979.5099999998,"ADDRESS":"青砂街一段１６９號之４６","OBJECTID":580173},"geometry":{"x":160399.50999999978,"y":2551979.5099999998}},{"attributes":{"ID":580201,"DIS_CODE":0,"TOWNNAME":"安南區","LI":"城南里","LIN":"16鄰","STREET":"青砂街","SECT":"一段","MAREA":" ","LANE":" ","ALLEY":" ","HOUSE_NO":"１６９號之４８","E_COORD97":160402.75,"N_COORD97":2551982.25,"ADDRESS":"青砂街一段１６９號之４８","OBJECTID":580174},"geometry":{"x":160402.75,"y":2551982.25}},{"attributes":{"ID":580202,"DIS_CODE":0,"TOWNNAME":"安南區","LI":"城南里","LIN":"16鄰","STREET":"青砂街","SECT":"一段","MAREA":" ","LANE":" ","ALLEY":" ","HOUSE_NO":"１６９號之５０","E_COORD97":160403.73999999999,"N_COORD97":2551986.4700000002,"ADDRESS":"青砂街一段１６９號之５０","OBJECTID":580175},"geometry":{"x":160403.73999999929,"y":2551986.4700000025}},{"attributes":{"ID":580203,"DIS_CODE":0,"TOWNNAME":"安南區","LI":"城南里","LIN":"16鄰","STREET":"青砂街","SECT":"一段","MAREA":" ","LANE":" ","ALLEY":" ","HOUSE_NO":"３５號","E_COORD97":160643.17000000001,"N_COORD97":2551529.4199999999,"ADDRESS":"青砂街一段３５號","OBJECTID":580176},"geometry":{"x":160643.17000000179,"y":2551529.4199999999}},{"attributes":{"ID":580204,"DIS_CODE":0,"TOWNNAME":"安南區","LI":"城南里","LIN":"16鄰","STREET":"青砂街","SECT":"一段","MAREA":" ","LANE":" ","ALLEY":" ","HOUSE_NO":"３７號","E_COORD97":160643.17000000001,"N_COORD97":2551538.1099999999,"ADDRESS":"青砂街一段３７號","OBJECTID":580177},"geometry":{"x":160643.17000000179,"y":2551538.1099999994}},{"attributes":{"ID":580205,"DIS_CODE":0,"TOWNNAME":"安南區","LI":"城南里","LIN":"16鄰","STREET":"青砂街","SECT":"一段","MAREA":" ","LANE":" ","ALLEY":" ","HOUSE_NO":"４５號","E_COORD97":160626.51000000001,"N_COORD97":2551551.48,"ADDRESS":"青砂街一段４５號","OBJECTID":580178},"geometry":{"x":160626.50999999978,"y":2551551.4800000042}},{"attributes":{"ID":580206,"DIS_CODE":0,"TOWNNAME":"安南區","LI":"城南里","LIN":"16鄰","STREET":"青砂街","SECT":"一段","MAREA":" ","LANE":" ","ALLEY":" ","HOUSE_NO":"４７號","E_COORD97":160626.51000000001,"N_COORD97":2551556.6899999999,"ADDRESS":"青砂街一段４７號","OBJECTID":580179},"geometry":{"x":160626.50999999978,"y":2551556.6900000013}},{"attributes":{"ID":580207,"DIS_CODE":0,"TOWNNAME":"安南區","LI":"城南里","LIN":"16鄰","STREET":"青砂街","SECT":"一段","MAREA":" ","LANE":" ","ALLEY":" ","HOUSE_NO":"５３號","E_COORD97":160620.54000000001,"N_COORD97":2551570.0899999999,"ADDRESS":"青砂街一段５３號","OBJECTID":580180},"geometry":{"x":160620.54000000097,"y":2551570.0899999999}},{"attributes":{"ID":580208,"DIS_CODE":0,"TOWNNAME":"安南區","LI":"城南里","LIN":"16鄰","STREET":"青砂街","SECT":"一段","MAREA":" ","LANE":" ","ALLEY":" ","HOUSE_NO":"５５號","E_COORD97":160619.29999999999,"N_COORD97":2551574.8100000001,"ADDRESS":"青砂街一段５５號","OBJECTID":580181},"geometry":{"x":160619.29999999981,"y":2551574.8100000005}},{"attributes":{"ID":580209,"DIS_CODE":0,"TOWNNAME":"安南區","LI":"城南里","LIN":"16鄰","STREET":"青砂街","SECT":"一段","MAREA":" ","LANE":" ","ALLEY":" ","HOUSE_NO":"５９號","E_COORD97":160612.34,"N_COORD97":2551582.2599999998,"ADDRESS":"青砂街一段５９號","OBJECTID":580182},"geometry":{"x":160612.33999999985,"y":2551582.2599999998}},{"attributes":{"ID":580210,"DIS_CODE":0,"TOWNNAME":"安南區","LI":"城南里","LIN":"16鄰","STREET":"青砂街","SECT":"一段","MAREA":" ","LANE":" ","ALLEY":" ","HOUSE_NO":"６１號","E_COORD97":160612.59,"N_COORD97":2551586.9700000002,"ADDRESS":"青砂街一段６１號","OBJECTID":580183},"geometry":{"x":160612.58999999985,"y":2551586.9700000025}},{"attributes":{"ID":580211,"DIS_CODE":0,"TOWNNAME":"安南區","LI":"城南里","LIN":"16鄰","STREET":"青砂街","SECT":"一段","MAREA":" ","LANE":" ","ALLEY":" ","HOUSE_NO":"７１號","E_COORD97":160594.62,"N_COORD97":2551612.21,"ADDRESS":"青砂街一段７１號","OBJECTID":580184},"geometry":{"x":160594.62000000104,"y":2551612.2100000028}},{"attributes":{"ID":580212,"DIS_CODE":0,"TOWNNAME":"安南區","LI":"城南里","LIN":"16鄰","STREET":"青砂街","SECT":"一段","MAREA":" ","LANE":" ","ALLEY":" ","HOUSE_NO":"７３號","E_COORD97":160595.37,"N_COORD97":2551617.1699999999,"ADDRESS":"青砂街一段７３號","OBJECTID":580185},"geometry":{"x":160595.37000000011,"y":2551617.1699999999}},{"attributes":{"ID":580213,"DIS_CODE":0,"TOWNNAME":"安南區","LI":"城南里","LIN":"16鄰","STREET":"青砂街","SECT":"一段","MAREA":" ","LANE":" ","ALLEY":" ","HOUSE_NO":"７７號","E_COORD97":160585.42000000001,"N_COORD97":2551629.9300000002,"ADDRESS":"青砂街一段７７號","OBJECTID":580186},"geometry":{"x":160585.42000000179,"y":2551629.9300000016}},{"attributes":{"ID":580214,"DIS_CODE":0,"TOWNNAME":"安南區","LI":"城南里","LIN":"16鄰","STREET":"青砂街","SECT":"一段","MAREA":" ","LANE":" ","ALLEY":" ","HOUSE_NO":"８５號","E_COORD97":160580.42000000001,"N_COORD97":2551647.02,"ADDRESS":"青砂街一段８５號","OBJECTID":580187},"geometry":{"x":160580.42000000179,"y":2551647.0199999996}},{"attributes":{"ID":580215,"DIS_CODE":0,"TOWNNAME":"安南區","LI":"城南里","LIN":"16鄰","STREET":"青砂街","SECT":"一段","MAREA":" ","LANE":" ","ALLEY":" ","HOUSE_NO":"８９號","E_COORD97":160571.22,"N_COORD97":2551655.46,"ADDRESS":"青砂街一段８９號","OBJECTID":580188},"geometry":{"x":160571.21999999881,"y":2551655.4600000028}},{"attributes":{"ID":580216,"DIS_CODE":0,"TOWNNAME":"安南區","LI":"城南里","LIN":"16鄰","STREET":"青砂街","SECT":"一段","MAREA":" ","LANE":" ","ALLEY":" ","HOUSE_NO":"９３號","E_COORD97":160568.98000000001,"N_COORD97":2551664.3900000001,"ADDRESS":"青砂街一段９３號","OBJECTID":580189},"geometry":{"x":160568.98000000138,"y":2551664.3900000043}},{"attributes":{"ID":580217,"DIS_CODE":0,"TOWNNAME":"安南區","LI":"城南里","LIN":"16鄰","STREET":"青砂街","SECT":"一段","MAREA":" ","LANE":" ","ALLEY":" ","HOUSE_NO":"９３號之３","E_COORD97":160561.53,"N_COORD97":2551677.5499999998,"ADDRESS":"青砂街一段９３號之３","OBJECTID":580190},"geometry":{"x":160561.53000000119,"y":2551677.5500000026}},{"attributes":{"ID":580218,"DIS_CODE":0,"TOWNNAME":"安南區","LI":"城南里","LIN":"16鄰","STREET":"青砂街","SECT":"一段","MAREA":" ","LANE":" ","ALLEY":" ","HOUSE_NO":"９３號之５","E_COORD97":160561.28,"N_COORD97":2551681.77,"ADDRESS":"青砂街一段９３號之５","OBJECTID":580191},"geometry":{"x":160561.28000000212,"y":2551681.7700000014}},{"attributes":{"ID":580219,"DIS_CODE":0,"TOWNNAME":"安南區","LI":"城南里","LIN":"16鄰","STREET":"青砂街","SECT":"一段","MAREA":" ","LANE":" ","ALLEY":" ","HOUSE_NO":"１３號","E_COORD97":160681.70999999999,"N_COORD97":2551466.0899999999,"ADDRESS":"青砂街一段１３號","OBJECTID":580192},"geometry":{"x":160681.70999999903,"y":2551466.0900000017}},{"attributes":{"ID":580220,"DIS_CODE":0,"TOWNNAME":"安南區","LI":"城南里","LIN":"16鄰","STREET":"青砂街","SECT":"一段","MAREA":" ","LANE":" ","ALLEY":" ","HOUSE_NO":"９３號之１","E_COORD97":160568.23999999999,"N_COORD97":2551668.8599999999,"ADDRESS":"青砂街一段９３號之１","OBJECTID":580193},"geometry":{"x":160568.24000000209,"y":2551668.8599999994}},{"attributes":{"ID":580221,"DIS_CODE":0,"TOWNNAME":"東區","LI":"虎尾里","LIN":"16鄰","STREET":"東成街","SECT":" ","MAREA":" ","LANE":" ","ALLEY":" ","HOUSE_NO":"４８號","E_COORD97":171360.54999999999,"N_COORD97":2542246.04,"ADDRESS":"東成街４８號","OBJECTID":580194},"geometry":{"x":171360.54999999981,"y":2542246.0399999991}},{"attributes":{"ID":580222,"DIS_CODE":0,"TOWNNAME":"東區","LI":"虎尾里","LIN":"16鄰","STREET":"東成街","SECT":" ","MAREA":" ","LANE":" ","ALLEY":" ","HOUSE_NO":"５０號","E_COORD97":171366.19,"N_COORD97":2542246.04,"ADDRESS":"東成街５０號","OBJECTID":580195},"geometry":{"x":171366.19000000134,"y":2542246.0399999991}},{"attributes":{"ID":580223,"DIS_CODE":0,"TOWNNAME":"善化區","LI":"光文里","LIN":"16鄰","STREET":"樹人路","SECT":" ","MAREA":" ","LANE":" ","ALLEY":" ","HOUSE_NO":"７５號","E_COORD97":178355.35999999999,"N_COORD97":2559080.75,"ADDRESS":"樹人路７５號","OBJECTID":580196},"geometry":{"x":178355.3600000022,"y":2559080.7500000019}},{"attributes":{"ID":580224,"DIS_CODE":0,"TOWNNAME":"善化區","LI":"坐駕里","LIN":"16鄰","STREET":"大成路","SECT":" ","MAREA":" ","LANE":" ","ALLEY":" ","HOUSE_NO":"１１７號之１２","E_COORD97":178601.75,"N_COORD97":2558800.27,"ADDRESS":"大成路１１７號之１２","OBJECTID":580197},"geometry":{"x":178601.75000000093,"y":2558800.2699999996}},{"attributes":{"ID":580225,"DIS_CODE":0,"TOWNNAME":"善化區","LI":"文昌里","LIN":"16鄰","STREET":"中正路","SECT":" ","MAREA":" ","LANE":" ","ALLEY":" ","HOUSE_NO":"３８２之３號","E_COORD97":177707.04999999999,"N_COORD97":2558690.77,"ADDRESS":"中正路３８２之３號","OBJECTID":580198},"geometry":{"x":177707.04999999981,"y":2558690.7699999996}},{"attributes":{"ID":580226,"DIS_CODE":0,"TOWNNAME":"善化區","LI":"坐駕里","LIN":"16鄰","STREET":"大成路","SECT":" ","MAREA":" ","LANE":" ","ALLEY":" ","HOUSE_NO":"６３號","E_COORD97":178775.10000000001,"N_COORD97":2558908.75,"ADDRESS":"大成路６３號","OBJECTID":580199},"geometry":{"x":178775.10000000056,"y":2558908.75}},{"attributes":{"ID":580227,"DIS_CODE":0,"TOWNNAME":"善化區","LI":"文昌里","LIN":"16鄰","STREET":"中正路","SECT":" ","MAREA":" ","LANE":" ","ALLEY":" ","HOUSE_NO":"４１３號","E_COORD97":177684.37,"N_COORD97":2558696.5,"ADDRESS":"中正路４１３號","OBJECTID":580200},"geometry":{"x":177684.37000000104,"y":2558696.5}}]}