{"displayFieldName":"TOWNNAME","fieldAliases":{"ID":"ID","DIS_CODE":"DIS_CODE","TOWNNAME":"TOWNNAME","LI":"LI","LIN":"LIN","STREET":"STREET","SECT":"SECT","MAREA":"MAREA","LANE":"LANE","ALLEY":"ALLEY","HOUSE_NO":"HOUSE_NO","E_COORD97":"E_COORD97","N_COORD97":"N_COORD97","ADDRESS":"ADDRESS","OBJECTID":"OBJECTID"},"geometryType":"esriGeometryPoint","spatialReference":{"wkid":102443,"latestWkid":3826},"fields":[{"name":"ID","type":"esriFieldTypeDouble","alias":"ID"},{"name":"DIS_CODE","type":"esriFieldTypeInteger","alias":"DIS_CODE"},{"name":"TOWNNAME","type":"esriFieldTypeString","alias":"TOWNNAME","length":8},{"name":"LI","type":"esriFieldTypeString","alias":"LI","length":8},{"name":"LIN","type":"esriFieldTypeString","alias":"LIN","length":12},{"name":"STREET","type":"esriFieldTypeString","alias":"STREET","length":20},{"name":"SECT","type":"esriFieldTypeString","alias":"SECT","length":8},{"name":"MAREA","type":"esriFieldTypeString","alias":"MAREA","length":12},{"name":"LANE","type":"esriFieldTypeString","alias":"LANE","length":10},{"name":"ALLEY","type":"esriFieldTypeString","alias":"ALLEY","length":10},{"name":"HOUSE_NO","type":"esriFieldTypeString","alias":"HOUSE_NO","length":20},{"name":"E_COORD97","type":"esriFieldTypeDouble","alias":"E_COORD97"},{"name":"N_COORD97","type":"esriFieldTypeDouble","alias":"N_COORD97"},{"name":"ADDRESS","type":"esriFieldTypeString","alias":"ADDRESS","length":50},{"name":"OBJECTID","type":"esriFieldTypeOID","alias":"OBJECTID"}],"features":[{"attributes":{"ID":395425,"DIS_CODE":0,"TOWNNAME":"永康區","LI":"烏竹里","LIN":"16鄰","STREET":"龍橋街","SECT":" ","MAREA":" ","LANE":"１８６巷","ALLEY":" ","HOUSE_NO":"７８號","E_COORD97":174768.37,"N_COORD97":2548847.4900000002,"ADDRESS":"龍橋街１８６巷７８號","OBJECTID":395401},"geometry":{"x":174768.37000000104,"y":2548847.4900000002}},{"attributes":{"ID":395426,"DIS_CODE":0,"TOWNNAME":"永康區","LI":"永康里","LIN":"16鄰","STREET":"永中街","SECT":" ","MAREA":" ","LANE":"１１８巷","ALLEY":" ","HOUSE_NO":"１０號","E_COORD97":174002.26999999999,"N_COORD97":2547221.2400000002,"ADDRESS":"永中街１１８巷１０號","OBJECTID":395402},"geometry":{"x":174002.27000000048,"y":2547221.2400000021}},{"attributes":{"ID":395427,"DIS_CODE":0,"TOWNNAME":"永康區","LI":"永康里","LIN":"16鄰","STREET":"永中街","SECT":" ","MAREA":" ","LANE":"１１８巷","ALLEY":" ","HOUSE_NO":"６號","E_COORD97":173990.67999999999,"N_COORD97":2547224.2400000002,"ADDRESS":"永中街１１８巷６號","OBJECTID":395403},"geometry":{"x":173990.68000000156,"y":2547224.2400000021}},{"attributes":{"ID":395428,"DIS_CODE":0,"TOWNNAME":"永康區","LI":"永康里","LIN":"16鄰","STREET":"永中街","SECT":" ","MAREA":" ","LANE":"１１８巷","ALLEY":" ","HOUSE_NO":"１６號","E_COORD97":174007.98000000001,"N_COORD97":2547216.9900000002,"ADDRESS":"永中街１１８巷１６號","OBJECTID":395404},"geometry":{"x":174007.97999999952,"y":2547216.9900000002}},{"attributes":{"ID":395429,"DIS_CODE":0,"TOWNNAME":"中西區","LI":"郡王里","LIN":"5鄰","STREET":"大埔街","SECT":" ","MAREA":" ","LANE":"８９巷","ALLEY":" ","HOUSE_NO":"４７號","E_COORD97":168823.54000000001,"N_COORD97":2543036.7200000002,"ADDRESS":"大埔街８９巷４７號","OBJECTID":395405},"geometry":{"x":168823.54000000097,"y":2543036.7199999988}},{"attributes":{"ID":395430,"DIS_CODE":0,"TOWNNAME":"中西區","LI":"郡王里","LIN":"5鄰","STREET":"大埔街","SECT":" ","MAREA":" ","LANE":"８９巷","ALLEY":" ","HOUSE_NO":"４９號","E_COORD97":168820.25,"N_COORD97":2543037.9300000002,"ADDRESS":"大埔街８９巷４９號","OBJECTID":395406},"geometry":{"x":168820.25000000186,"y":2543037.9300000034}},{"attributes":{"ID":395431,"DIS_CODE":0,"TOWNNAME":"中西區","LI":"郡王里","LIN":"5鄰","STREET":"大埔街","SECT":" ","MAREA":" ","LANE":"８９巷","ALLEY":" ","HOUSE_NO":"５１號","E_COORD97":168817.91,"N_COORD97":2543025.5299999998,"ADDRESS":"大埔街８９巷５１號","OBJECTID":395407},"geometry":{"x":168817.91000000108,"y":2543025.5299999993}},{"attributes":{"ID":395432,"DIS_CODE":0,"TOWNNAME":"中西區","LI":"郡王里","LIN":"5鄰","STREET":"大埔街","SECT":" ","MAREA":" ","LANE":"８９巷","ALLEY":" ","HOUSE_NO":"５１號之１","E_COORD97":168823.54000000001,"N_COORD97":2543025.8999999999,"ADDRESS":"大埔街８９巷５１號之１","OBJECTID":395408},"geometry":{"x":168823.54000000097,"y":2543025.9000000022}},{"attributes":{"ID":395433,"DIS_CODE":0,"TOWNNAME":"中西區","LI":"郡王里","LIN":"5鄰","STREET":"大埔街","SECT":" ","MAREA":" ","LANE":"８９巷","ALLEY":" ","HOUSE_NO":"５１號之２","E_COORD97":168828.22,"N_COORD97":2543027.1299999999,"ADDRESS":"大埔街８９巷５１號之２","OBJECTID":395409},"geometry":{"x":168828.21999999974,"y":2543027.1300000008}},{"attributes":{"ID":395434,"DIS_CODE":0,"TOWNNAME":"中西區","LI":"郡王里","LIN":"13鄰","STREET":"建業街","SECT":" ","MAREA":" ","LANE":"３７巷","ALLEY":" ","HOUSE_NO":"１１號","E_COORD97":168554.04000000001,"N_COORD97":2543107.6499999999,"ADDRESS":"建業街３７巷１１號","OBJECTID":395410},"geometry":{"x":168554.04000000097,"y":2543107.6500000004}},{"attributes":{"ID":395435,"DIS_CODE":0,"TOWNNAME":"中西區","LI":"郡王里","LIN":"13鄰","STREET":"建業街","SECT":" ","MAREA":" ","LANE":"３７巷","ALLEY":" ","HOUSE_NO":"１５號","E_COORD97":168557.78,"N_COORD97":2543112.4500000002,"ADDRESS":"建業街３７巷１５號","OBJECTID":395411},"geometry":{"x":168557.78000000119,"y":2543112.4500000011}},{"attributes":{"ID":395436,"DIS_CODE":0,"TOWNNAME":"中西區","LI":"郡王里","LIN":"13鄰","STREET":"建業街","SECT":" ","MAREA":" ","LANE":"３７巷","ALLEY":" ","HOUSE_NO":"１７號","E_COORD97":168546.14999999999,"N_COORD97":2543112.46,"ADDRESS":"建業街３７巷１７號","OBJECTID":395412},"geometry":{"x":168546.15000000037,"y":2543112.4600000009}},{"attributes":{"ID":395437,"DIS_CODE":0,"TOWNNAME":"歸仁區","LI":"媽廟里","LIN":"16鄰","STREET":"媽廟二街","SECT":" ","MAREA":" ","LANE":"３１巷","ALLEY":" ","HOUSE_NO":"２６號","E_COORD97":177714.28,"N_COORD97":2543778.7200000002,"ADDRESS":"媽廟二街３１巷２６號","OBJECTID":395413},"geometry":{"x":177714.28000000026,"y":2543778.7200000007}},{"attributes":{"ID":395438,"DIS_CODE":0,"TOWNNAME":"歸仁區","LI":"媽廟里","LIN":"16鄰","STREET":"媽廟二街","SECT":" ","MAREA":" ","LANE":"４５巷","ALLEY":" ","HOUSE_NO":"２０號","E_COORD97":177779.88,"N_COORD97":2543785.7200000002,"ADDRESS":"媽廟二街４５巷２０號","OBJECTID":395414},"geometry":{"x":177779.87999999896,"y":2543785.7200000007}},{"attributes":{"ID":395439,"DIS_CODE":0,"TOWNNAME":"北區","LI":"振興里","LIN":"16鄰","STREET":"長榮路","SECT":"四段","MAREA":" ","LANE":"８４巷","ALLEY":" ","HOUSE_NO":"２之１號","E_COORD97":170337.37,"N_COORD97":2545043.4199999999,"ADDRESS":"長榮路四段８４巷２之１號","OBJECTID":395415},"geometry":{"x":170337.37000000104,"y":2545043.4200000018}},{"attributes":{"ID":395440,"DIS_CODE":0,"TOWNNAME":"安平區","LI":"怡平里","LIN":"16鄰","STREET":"永華六街","SECT":" ","MAREA":" ","LANE":"１５４巷","ALLEY":" ","HOUSE_NO":"７號","E_COORD97":165740.62,"N_COORD97":2543917.98,"ADDRESS":"永華六街１５４巷７號","OBJECTID":395416},"geometry":{"x":165740.62000000011,"y":2543917.9800000023}},{"attributes":{"ID":395441,"DIS_CODE":0,"TOWNNAME":"北區","LI":"大豐里","LIN":"16鄰","STREET":"武聖路","SECT":" ","MAREA":" ","LANE":"１６０巷","ALLEY":" ","HOUSE_NO":"３號","E_COORD97":166942.04000000001,"N_COORD97":2545301.4100000001,"ADDRESS":"武聖路１６０巷３號","OBJECTID":395417},"geometry":{"x":166942.04000000097,"y":2545301.410000002}},{"attributes":{"ID":395442,"DIS_CODE":0,"TOWNNAME":"歸仁區","LI":"大廟里","LIN":"16鄰","STREET":"大廟六街","SECT":" ","MAREA":" ","LANE":"７５巷","ALLEY":" ","HOUSE_NO":"２１號","E_COORD97":176101.92999999999,"N_COORD97":2544280.0899999999,"ADDRESS":"大廟六街７５巷２１號","OBJECTID":395418},"geometry":{"x":176101.93000000063,"y":2544280.0899999999}},{"attributes":{"ID":395443,"DIS_CODE":0,"TOWNNAME":"歸仁區","LI":"大廟里","LIN":"16鄰","STREET":"大廟六街","SECT":" ","MAREA":" ","LANE":"３５巷","ALLEY":" ","HOUSE_NO":"１７號","E_COORD97":176064.03,"N_COORD97":2544296.0899999999,"ADDRESS":"大廟六街３５巷１７號","OBJECTID":395419},"geometry":{"x":176064.03000000119,"y":2544296.0900000017}},{"attributes":{"ID":395444,"DIS_CODE":0,"TOWNNAME":"歸仁區","LI":"大廟里","LIN":"16鄰","STREET":"大廟六街","SECT":" ","MAREA":" ","LANE":"７５巷","ALLEY":" ","HOUSE_NO":"２２號","E_COORD97":176093.82999999999,"N_COORD97":2544295.0899999999,"ADDRESS":"大廟六街７５巷２２號","OBJECTID":395420},"geometry":{"x":176093.83000000194,"y":2544295.0900000017}},{"attributes":{"ID":395445,"DIS_CODE":0,"TOWNNAME":"楠西區","LI":"楠西里","LIN":"16鄰","STREET":"中華路","SECT":" ","MAREA":" ","LANE":"７３巷","ALLEY":" ","HOUSE_NO":"１７號","E_COORD97":197243.26000000001,"N_COORD97":2564103.25,"ADDRESS":"中華路７３巷１７號","OBJECTID":395421},"geometry":{"x":197243.26000000071,"y":2564103.25}},{"attributes":{"ID":395446,"DIS_CODE":0,"TOWNNAME":"新營區","LI":"南興里","LIN":"16鄰","STREET":"興農街","SECT":" ","MAREA":" ","LANE":"１４０巷","ALLEY":" ","HOUSE_NO":"１２號","E_COORD97":179191.98999999999,"N_COORD97":2577546.6200000001,"ADDRESS":"興農街１４０巷１２號","OBJECTID":395422},"geometry":{"x":179191.99000000115,"y":2577546.6200000029}},{"attributes":{"ID":395447,"DIS_CODE":0,"TOWNNAME":"新營區","LI":"興業里","LIN":"16鄰","STREET":"中興路","SECT":" ","MAREA":" ","LANE":"１５巷","ALLEY":" ","HOUSE_NO":"６號","E_COORD97":180164.29000000001,"N_COORD97":2577919.6499999999,"ADDRESS":"中興路１５巷６號","OBJECTID":395423},"geometry":{"x":180164.2900000019,"y":2577919.6500000004}},{"attributes":{"ID":395448,"DIS_CODE":0,"TOWNNAME":"新營區","LI":"忠政里","LIN":"16鄰","STREET":"府西路","SECT":" ","MAREA":" ","LANE":"２５９巷","ALLEY":" ","HOUSE_NO":"８號","E_COORD97":179765.85999999999,"N_COORD97":2579737.75,"ADDRESS":"府西路２５９巷８號","OBJECTID":395424},"geometry":{"x":179765.86000000127,"y":2579737.7500000019}},{"attributes":{"ID":395449,"DIS_CODE":0,"TOWNNAME":"新營區","LI":"民榮里","LIN":"16鄰","STREET":"復興路","SECT":" ","MAREA":" ","LANE":"３０５巷","ALLEY":" ","HOUSE_NO":"１０號","E_COORD97":178580.98999999999,"N_COORD97":2578116.5800000001,"ADDRESS":"復興路３０５巷１０號","OBJECTID":395425},"geometry":{"x":178580.99000000022,"y":2578116.5800000001}},{"attributes":{"ID":395450,"DIS_CODE":0,"TOWNNAME":"新營區","LI":"新東里","LIN":"16鄰","STREET":"東泰九街","SECT":" ","MAREA":" ","LANE":"１６巷","ALLEY":" ","HOUSE_NO":"２９號","E_COORD97":180998.98000000001,"N_COORD97":2579833.8399999999,"ADDRESS":"東泰九街１６巷２９號","OBJECTID":395426},"geometry":{"x":180998.98000000231,"y":2579833.8399999999}},{"attributes":{"ID":395451,"DIS_CODE":0,"TOWNNAME":"中西區","LI":"郡王里","LIN":"17鄰","STREET":"南門路","SECT":" ","MAREA":" ","LANE":"９７巷","ALLEY":" ","HOUSE_NO":"２號之３","E_COORD97":168490.04999999999,"N_COORD97":2543228.2000000002,"ADDRESS":"南門路９７巷２號之３","OBJECTID":395427},"geometry":{"x":168490.04999999981,"y":2543228.1999999993}},{"attributes":{"ID":395452,"DIS_CODE":0,"TOWNNAME":"中西區","LI":"郡王里","LIN":"17鄰","STREET":"南門路","SECT":" ","MAREA":" ","LANE":"９７巷","ALLEY":" ","HOUSE_NO":"２號之４","E_COORD97":168502.5,"N_COORD97":2543228.0299999998,"ADDRESS":"南門路９７巷２號之４","OBJECTID":395428},"geometry":{"x":168502.5,"y":2543228.0300000012}},{"attributes":{"ID":395453,"DIS_CODE":0,"TOWNNAME":"中西區","LI":"郡王里","LIN":"17鄰","STREET":"南門路","SECT":" ","MAREA":" ","LANE":"９７巷","ALLEY":" ","HOUSE_NO":"２號之５","E_COORD97":168510.23999999999,"N_COORD97":2543226.6899999999,"ADDRESS":"南門路９７巷２號之５","OBJECTID":395429},"geometry":{"x":168510.24000000209,"y":2543226.6900000013}},{"attributes":{"ID":395454,"DIS_CODE":0,"TOWNNAME":"中西區","LI":"郡王里","LIN":"17鄰","STREET":"南門路","SECT":" ","MAREA":" ","LANE":"９７巷","ALLEY":" ","HOUSE_NO":"２號之６","E_COORD97":168499.47,"N_COORD97":2543201.2999999998,"ADDRESS":"南門路９７巷２號之６","OBJECTID":395430},"geometry":{"x":168499.46999999974,"y":2543201.3000000007}},{"attributes":{"ID":395455,"DIS_CODE":0,"TOWNNAME":"中西區","LI":"郡王里","LIN":"17鄰","STREET":"南門路","SECT":" ","MAREA":" ","LANE":"９７巷","ALLEY":" ","HOUSE_NO":"２號之７","E_COORD97":168509.57000000001,"N_COORD97":2543201.2999999998,"ADDRESS":"南門路９７巷２號之７","OBJECTID":395431},"geometry":{"x":168509.5700000003,"y":2543201.3000000007}},{"attributes":{"ID":395456,"DIS_CODE":0,"TOWNNAME":"中西區","LI":"郡王里","LIN":"17鄰","STREET":"南門路","SECT":" ","MAREA":" ","LANE":"９７巷","ALLEY":" ","HOUSE_NO":"６號","E_COORD97":168528.38,"N_COORD97":2543218.04,"ADDRESS":"南門路９７巷６號","OBJECTID":395432},"geometry":{"x":168528.38000000082,"y":2543218.0399999991}},{"attributes":{"ID":395457,"DIS_CODE":0,"TOWNNAME":"中西區","LI":"郡王里","LIN":"17鄰","STREET":"南門路","SECT":" ","MAREA":" ","LANE":"９７巷","ALLEY":" ","HOUSE_NO":"７號","E_COORD97":168527.32000000001,"N_COORD97":2543239.73,"ADDRESS":"南門路９７巷７號","OBJECTID":395433},"geometry":{"x":168527.32000000123,"y":2543239.7299999986}},{"attributes":{"ID":395458,"DIS_CODE":0,"TOWNNAME":"安平區","LI":"華平里","LIN":"16鄰","STREET":"建平八街","SECT":" ","MAREA":" ","LANE":"４５０巷","ALLEY":" ","HOUSE_NO":"３５號","E_COORD97":165087.10999999999,"N_COORD97":2543699.6800000002,"ADDRESS":"建平八街４５０巷３５號","OBJECTID":395434},"geometry":{"x":165087.1100000022,"y":2543699.6799999997}},{"attributes":{"ID":395459,"DIS_CODE":0,"TOWNNAME":"安平區","LI":"華平里","LIN":"16鄰","STREET":"建平八街","SECT":" ","MAREA":" ","LANE":"４５０巷","ALLEY":" ","HOUSE_NO":"３７號","E_COORD97":165087.82000000001,"N_COORD97":2543707.8599999999,"ADDRESS":"建平八街４５０巷３７號","OBJECTID":395435},"geometry":{"x":165087.82000000123,"y":2543707.8599999994}},{"attributes":{"ID":395460,"DIS_CODE":0,"TOWNNAME":"安平區","LI":"華平里","LIN":"16鄰","STREET":"建平八街","SECT":" ","MAREA":" ","LANE":"４５０巷","ALLEY":" ","HOUSE_NO":"３７號之１","E_COORD97":165070.20999999999,"N_COORD97":2543709.5800000001,"ADDRESS":"建平八街４５０巷３７號之１","OBJECTID":395436},"geometry":{"x":165070.20999999996,"y":2543709.5800000019}},{"attributes":{"ID":395461,"DIS_CODE":0,"TOWNNAME":"北區","LI":"大道里","LIN":"16鄰","STREET":"北門路","SECT":"二段","MAREA":" ","LANE":"５４７巷","ALLEY":" ","HOUSE_NO":"４１號","E_COORD97":169537.42999999999,"N_COORD97":2545700.8999999999,"ADDRESS":"北門路二段５４７巷４１號","OBJECTID":395437},"geometry":{"x":169537.43000000156,"y":2545700.9000000022}},{"attributes":{"ID":395462,"DIS_CODE":0,"TOWNNAME":"北區","LI":"光武里","LIN":"16鄰","STREET":"北門路","SECT":"二段","MAREA":" ","LANE":"５７７巷","ALLEY":" ","HOUSE_NO":"１８號","E_COORD97":169607.26999999999,"N_COORD97":2545790.27,"ADDRESS":"北門路二段５７７巷１８號","OBJECTID":395438},"geometry":{"x":169607.26999999955,"y":2545790.2699999996}},{"attributes":{"ID":395463,"DIS_CODE":0,"TOWNNAME":"北區","LI":"大豐里","LIN":"16鄰","STREET":"和緯路","SECT":"四段","MAREA":" ","LANE":"１９７巷","ALLEY":" ","HOUSE_NO":"２６號","E_COORD97":166879.64999999999,"N_COORD97":2545343.2400000002,"ADDRESS":"和緯路四段１９７巷２６號","OBJECTID":395439},"geometry":{"x":166879.65000000037,"y":2545343.2400000021}},{"attributes":{"ID":395464,"DIS_CODE":0,"TOWNNAME":"北區","LI":"大豐里","LIN":"16鄰","STREET":"和緯路","SECT":"四段","MAREA":" ","LANE":"１９７巷","ALLEY":" ","HOUSE_NO":"２８號","E_COORD97":166882.56,"N_COORD97":2545338.1200000001,"ADDRESS":"和緯路四段１９７巷２８號","OBJECTID":395440},"geometry":{"x":166882.56000000052,"y":2545338.1200000029}},{"attributes":{"ID":395465,"DIS_CODE":0,"TOWNNAME":"北區","LI":"大豐里","LIN":"16鄰","STREET":"和緯路","SECT":"四段","MAREA":" ","LANE":"１９７巷","ALLEY":" ","HOUSE_NO":"５號","E_COORD97":166909.39999999999,"N_COORD97":2545362.7200000002,"ADDRESS":"和緯路四段１９７巷５號","OBJECTID":395441},"geometry":{"x":166909.4000000013,"y":2545362.7200000044}},{"attributes":{"ID":395466,"DIS_CODE":0,"TOWNNAME":"北區","LI":"大豐里","LIN":"16鄰","STREET":"和緯路","SECT":"四段","MAREA":" ","LANE":"１９７巷","ALLEY":" ","HOUSE_NO":"７號","E_COORD97":166908.82999999999,"N_COORD97":2545358.0899999999,"ADDRESS":"和緯路四段１９７巷７號","OBJECTID":395442},"geometry":{"x":166908.83000000007,"y":2545358.0899999999}},{"attributes":{"ID":395467,"DIS_CODE":0,"TOWNNAME":"新營區","LI":"忠政里","LIN":"16鄰","STREET":"府西路","SECT":" ","MAREA":" ","LANE":"２５９巷","ALLEY":" ","HOUSE_NO":"３號","E_COORD97":179780.14999999999,"N_COORD97":2579726.6099999999,"ADDRESS":"府西路２５９巷３號","OBJECTID":395443},"geometry":{"x":179780.15000000037,"y":2579726.6099999994}},{"attributes":{"ID":395468,"DIS_CODE":0,"TOWNNAME":"安平區","LI":"怡平里","LIN":"16鄰","STREET":"永華六街","SECT":" ","MAREA":" ","LANE":"１５４巷","ALLEY":" ","HOUSE_NO":"８號","E_COORD97":165773.44,"N_COORD97":2543921.6499999999,"ADDRESS":"永華六街１５４巷８號","OBJECTID":395444},"geometry":{"x":165773.44000000134,"y":2543921.6499999985}},{"attributes":{"ID":395469,"DIS_CODE":0,"TOWNNAME":"安平區","LI":"怡平里","LIN":"16鄰","STREET":"永華六街","SECT":" ","MAREA":" ","LANE":"１５４巷","ALLEY":" ","HOUSE_NO":"１０號","E_COORD97":165786.88,"N_COORD97":2543935.0800000001,"ADDRESS":"永華六街１５４巷１０號","OBJECTID":395445},"geometry":{"x":165786.88000000082,"y":2543935.0800000001}},{"attributes":{"ID":395470,"DIS_CODE":0,"TOWNNAME":"安平區","LI":"怡平里","LIN":"16鄰","STREET":"永華六街","SECT":" ","MAREA":" ","LANE":"１５４巷","ALLEY":" ","HOUSE_NO":"１２號","E_COORD97":165779.87,"N_COORD97":2543937.7000000002,"ADDRESS":"永華六街１５４巷１２號","OBJECTID":395446},"geometry":{"x":165779.87000000011,"y":2543937.7000000011}},{"attributes":{"ID":395471,"DIS_CODE":0,"TOWNNAME":"安平區","LI":"怡平里","LIN":"16鄰","STREET":"永華六街","SECT":" ","MAREA":" ","LANE":"１５４巷","ALLEY":" ","HOUSE_NO":"１６號","E_COORD97":165764.97,"N_COORD97":2543934.4900000002,"ADDRESS":"永華六街１５４巷１６號","OBJECTID":395447},"geometry":{"x":165764.96999999974,"y":2543934.4900000021}},{"attributes":{"ID":395472,"DIS_CODE":0,"TOWNNAME":"安平區","LI":"怡平里","LIN":"16鄰","STREET":"永華六街","SECT":" ","MAREA":" ","LANE":"１５４巷","ALLEY":" ","HOUSE_NO":"８之１號","E_COORD97":165784.84,"N_COORD97":2543920.1899999999,"ADDRESS":"永華六街１５４巷８之１號","OBJECTID":395448},"geometry":{"x":165784.83999999985,"y":2543920.1899999995}},{"attributes":{"ID":395473,"DIS_CODE":0,"TOWNNAME":"安平區","LI":"怡平里","LIN":"16鄰","STREET":"永華六街","SECT":" ","MAREA":" ","LANE":"１５４巷","ALLEY":" ","HOUSE_NO":"１２之１號","E_COORD97":165773.44,"N_COORD97":2543937.9900000002,"ADDRESS":"永華六街１５４巷１２之１號","OBJECTID":395449},"geometry":{"x":165773.44000000134,"y":2543937.9900000021}},{"attributes":{"ID":395474,"DIS_CODE":0,"TOWNNAME":"新營區","LI":"興業里","LIN":"16鄰","STREET":"中興路","SECT":" ","MAREA":" ","LANE":"１５巷","ALLEY":" ","HOUSE_NO":"１０號","E_COORD97":180187.01000000001,"N_COORD97":2577918.4399999999,"ADDRESS":"中興路１５巷１０號","OBJECTID":395450},"geometry":{"x":180187.00999999978,"y":2577918.4400000013}},{"attributes":{"ID":395475,"DIS_CODE":0,"TOWNNAME":"南區","LI":"白雪里","LIN":"16鄰","STREET":"金華路","SECT":"一段","MAREA":" ","LANE":"１０１巷","ALLEY":" ","HOUSE_NO":"１０號","E_COORD97":166794.41,"N_COORD97":2540520.8799999999,"ADDRESS":"金華路一段１０１巷１０號","OBJECTID":395451},"geometry":{"x":166794.41000000015,"y":2540520.879999999}},{"attributes":{"ID":395476,"DIS_CODE":0,"TOWNNAME":"南區","LI":"建南里","LIN":"16鄰","STREET":"中華南路","SECT":"二段","MAREA":" ","LANE":"２３３巷","ALLEY":" ","HOUSE_NO":"６之７號","E_COORD97":166856.14999999999,"N_COORD97":2540125.0299999998,"ADDRESS":"中華南路二段２３３巷６之７號","OBJECTID":395452},"geometry":{"x":166856.15000000037,"y":2540125.0300000012}},{"attributes":{"ID":395477,"DIS_CODE":0,"TOWNNAME":"南區","LI":"建南里","LIN":"16鄰","STREET":"中華南路","SECT":"二段","MAREA":" ","LANE":"２３３巷","ALLEY":" ","HOUSE_NO":"６之８號","E_COORD97":166852.95000000001,"N_COORD97":2540122.6600000001,"ADDRESS":"中華南路二段２３３巷６之８號","OBJECTID":395453},"geometry":{"x":166852.95000000112,"y":2540122.660000002}},{"attributes":{"ID":395478,"DIS_CODE":0,"TOWNNAME":"歸仁區","LI":"後市里","LIN":"16鄰","STREET":"民族南街","SECT":" ","MAREA":" ","LANE":"１８巷","ALLEY":" ","HOUSE_NO":"３０號","E_COORD97":177350.73999999999,"N_COORD97":2540749.5499999998,"ADDRESS":"民族南街１８巷３０號","OBJECTID":395454},"geometry":{"x":177350.74000000209,"y":2540749.5500000045}},{"attributes":{"ID":395479,"DIS_CODE":0,"TOWNNAME":"歸仁區","LI":"南保里","LIN":"16鄰","STREET":"文化十街","SECT":" ","MAREA":" ","LANE":"２８巷","ALLEY":" ","HOUSE_NO":"２５號","E_COORD97":176657.79000000001,"N_COORD97":2541356.3300000001,"ADDRESS":"文化十街２８巷２５號","OBJECTID":395455},"geometry":{"x":176657.79000000004,"y":2541356.3300000001}},{"attributes":{"ID":395480,"DIS_CODE":0,"TOWNNAME":"歸仁區","LI":"武東里","LIN":"16鄰","STREET":"光明街","SECT":" ","MAREA":" ","LANE":"８６巷","ALLEY":" ","HOUSE_NO":"２１０號","E_COORD97":175095.69,"N_COORD97":2536729.25,"ADDRESS":"光明街８６巷２１０號","OBJECTID":395456},"geometry":{"x":175095.69000000134,"y":2536729.25}},{"attributes":{"ID":395481,"DIS_CODE":0,"TOWNNAME":"玉井區","LI":"中正里","LIN":"16鄰","STREET":"玉安街","SECT":" ","MAREA":" ","LANE":"１７８巷","ALLEY":" ","HOUSE_NO":"１號","E_COORD97":195176.45999999999,"N_COORD97":2558611.3100000001,"ADDRESS":"玉安街１７８巷１號","OBJECTID":395457},"geometry":{"x":195176.45999999996,"y":2558611.3099999987}},{"attributes":{"ID":395482,"DIS_CODE":0,"TOWNNAME":"北區","LI":"中樓里","LIN":"16鄰","STREET":"東豐路","SECT":" ","MAREA":" ","LANE":"８５巷","ALLEY":" ","HOUSE_NO":"６８號","E_COORD97":169821.01000000001,"N_COORD97":2545020.3500000001,"ADDRESS":"東豐路８５巷６８號","OBJECTID":395458},"geometry":{"x":169821.00999999978,"y":2545020.3499999996}},{"attributes":{"ID":395483,"DIS_CODE":0,"TOWNNAME":"北區","LI":"中樓里","LIN":"16鄰","STREET":"東豐路","SECT":" ","MAREA":" ","LANE":"８５巷","ALLEY":" ","HOUSE_NO":"７０號","E_COORD97":169825.98000000001,"N_COORD97":2545021.6299999999,"ADDRESS":"東豐路８５巷７０號","OBJECTID":395459},"geometry":{"x":169825.98000000231,"y":2545021.629999999}},{"attributes":{"ID":395484,"DIS_CODE":0,"TOWNNAME":"北區","LI":"中樓里","LIN":"16鄰","STREET":"東豐路","SECT":" ","MAREA":" ","LANE":"８５巷","ALLEY":" ","HOUSE_NO":"７２號","E_COORD97":169829.51000000001,"N_COORD97":2545022.6699999999,"ADDRESS":"東豐路８５巷７２號","OBJECTID":395460},"geometry":{"x":169829.50999999978,"y":2545022.6699999999}},{"attributes":{"ID":395485,"DIS_CODE":0,"TOWNNAME":"北區","LI":"中樓里","LIN":"16鄰","STREET":"東豐路","SECT":" ","MAREA":" ","LANE":"８５巷","ALLEY":" ","HOUSE_NO":"７４號","E_COORD97":169849.10999999999,"N_COORD97":2545030.1000000001,"ADDRESS":"東豐路８５巷７４號","OBJECTID":395461},"geometry":{"x":169849.11000000127,"y":2545030.1000000034}},{"attributes":{"ID":395486,"DIS_CODE":0,"TOWNNAME":"北區","LI":"中樓里","LIN":"16鄰","STREET":"東豐路","SECT":" ","MAREA":" ","LANE":"８５巷","ALLEY":" ","HOUSE_NO":"７８號","E_COORD97":169858.17000000001,"N_COORD97":2545032.7400000002,"ADDRESS":"東豐路８５巷７８號","OBJECTID":395462},"geometry":{"x":169858.17000000179,"y":2545032.7400000002}},{"attributes":{"ID":395487,"DIS_CODE":0,"TOWNNAME":"北區","LI":"中樓里","LIN":"16鄰","STREET":"東豐路","SECT":" ","MAREA":" ","LANE":"８５巷","ALLEY":" ","HOUSE_NO":"８０號","E_COORD97":169865.14000000001,"N_COORD97":2545038.6899999999,"ADDRESS":"東豐路８５巷８０號","OBJECTID":395463},"geometry":{"x":169865.1400000006,"y":2545038.6899999995}},{"attributes":{"ID":395488,"DIS_CODE":0,"TOWNNAME":"新營區","LI":"新東里","LIN":"16鄰","STREET":"東泰九街","SECT":" ","MAREA":" ","LANE":"１６巷","ALLEY":" ","HOUSE_NO":"３號","E_COORD97":181065.22,"N_COORD97":2579826.8799999999,"ADDRESS":"東泰九街１６巷３號","OBJECTID":395464},"geometry":{"x":181065.22000000067,"y":2579826.8800000008}},{"attributes":{"ID":395489,"DIS_CODE":0,"TOWNNAME":"新營區","LI":"南興里","LIN":"16鄰","STREET":"興農街","SECT":" ","MAREA":" ","LANE":"１４０巷","ALLEY":" ","HOUSE_NO":"１６號之１","E_COORD97":179176.73999999999,"N_COORD97":2577546.7599999998,"ADDRESS":"興農街１４０巷１６號之１","OBJECTID":395465},"geometry":{"x":179176.74000000115,"y":2577546.7600000016}},{"attributes":{"ID":395490,"DIS_CODE":0,"TOWNNAME":"歸仁區","LI":"大廟里","LIN":"16鄰","STREET":"大廟六街","SECT":" ","MAREA":" ","LANE":"３５巷","ALLEY":" ","HOUSE_NO":"７號","E_COORD97":176055.48000000001,"N_COORD97":2544276.0899999999,"ADDRESS":"大廟六街３５巷７號","OBJECTID":395466},"geometry":{"x":176055.48000000045,"y":2544276.0899999999}},{"attributes":{"ID":395491,"DIS_CODE":0,"TOWNNAME":"北區","LI":"六甲里","LIN":"16鄰","STREET":"西門路","SECT":"四段","MAREA":" ","LANE":"３１６巷","ALLEY":" ","HOUSE_NO":"２之１號","E_COORD97":168995.39999999999,"N_COORD97":2545957.21,"ADDRESS":"西門路四段３１６巷２之１號","OBJECTID":395467},"geometry":{"x":168995.40000000037,"y":2545957.2100000028}},{"attributes":{"ID":395492,"DIS_CODE":0,"TOWNNAME":"北區","LI":"實踐里","LIN":"16鄰","STREET":"長榮路","SECT":"五段","MAREA":" ","LANE":"３９４巷","ALLEY":" ","HOUSE_NO":"２０號","E_COORD97":169531.97,"N_COORD97":2546024.2200000002,"ADDRESS":"長榮路五段３９４巷２０號","OBJECTID":395468},"geometry":{"x":169531.96999999881,"y":2546024.2200000025}},{"attributes":{"ID":395493,"DIS_CODE":0,"TOWNNAME":"北區","LI":"實踐里","LIN":"16鄰","STREET":"長榮路","SECT":"五段","MAREA":" ","LANE":"３９４巷","ALLEY":" ","HOUSE_NO":"２１號","E_COORD97":169522.45999999999,"N_COORD97":2546035.71,"ADDRESS":"長榮路五段３９４巷２１號","OBJECTID":395469},"geometry":{"x":169522.46000000089,"y":2546035.7100000028}},{"attributes":{"ID":395494,"DIS_CODE":0,"TOWNNAME":"北區","LI":"實踐里","LIN":"16鄰","STREET":"長榮路","SECT":"五段","MAREA":" ","LANE":"３９４巷","ALLEY":" ","HOUSE_NO":"２３號","E_COORD97":169524.32999999999,"N_COORD97":2546041.5899999999,"ADDRESS":"長榮路五段３９４巷２３號","OBJECTID":395470},"geometry":{"x":169524.33000000007,"y":2546041.5900000017}},{"attributes":{"ID":395495,"DIS_CODE":0,"TOWNNAME":"北區","LI":"實踐里","LIN":"16鄰","STREET":"長榮路","SECT":"五段","MAREA":" ","LANE":"３９４巷","ALLEY":" ","HOUSE_NO":"２６號","E_COORD97":169538.20000000001,"N_COORD97":2546040.7200000002,"ADDRESS":"長榮路五段３９４巷２６號","OBJECTID":395471},"geometry":{"x":169538.20000000112,"y":2546040.7200000044}},{"attributes":{"ID":395496,"DIS_CODE":0,"TOWNNAME":"北區","LI":"實踐里","LIN":"16鄰","STREET":"長榮路","SECT":"五段","MAREA":" ","LANE":"３９４巷","ALLEY":" ","HOUSE_NO":"２號","E_COORD97":169516.92000000001,"N_COORD97":2545980.2200000002,"ADDRESS":"長榮路五段３９４巷２號","OBJECTID":395472},"geometry":{"x":169516.91999999993,"y":2545980.2200000025}},{"attributes":{"ID":395497,"DIS_CODE":0,"TOWNNAME":"北區","LI":"實踐里","LIN":"16鄰","STREET":"長榮路","SECT":"五段","MAREA":" ","LANE":"３９４巷","ALLEY":" ","HOUSE_NO":"３號","E_COORD97":169503.84,"N_COORD97":2545983.5800000001,"ADDRESS":"長榮路五段３９４巷３號","OBJECTID":395473},"geometry":{"x":169503.83999999985,"y":2545983.5800000038}},{"attributes":{"ID":395498,"DIS_CODE":0,"TOWNNAME":"北區","LI":"實踐里","LIN":"16鄰","STREET":"長榮路","SECT":"五段","MAREA":" ","LANE":"３９４巷","ALLEY":" ","HOUSE_NO":"５號","E_COORD97":169505.91,"N_COORD97":2545988.79,"ADDRESS":"長榮路五段３９４巷５號","OBJECTID":395474},"geometry":{"x":169505.91000000201,"y":2545988.790000001}},{"attributes":{"ID":395499,"DIS_CODE":0,"TOWNNAME":"北區","LI":"實踐里","LIN":"16鄰","STREET":"長榮路","SECT":"五段","MAREA":" ","LANE":"３９４巷","ALLEY":" ","HOUSE_NO":"７號","E_COORD97":169507.78,"N_COORD97":2545992.9100000001,"ADDRESS":"長榮路五段３９４巷７號","OBJECTID":395475},"geometry":{"x":169507.78000000026,"y":2545992.910000002}},{"attributes":{"ID":395500,"DIS_CODE":0,"TOWNNAME":"北區","LI":"實踐里","LIN":"16鄰","STREET":"長榮路","SECT":"五段","MAREA":" ","LANE":"３９４巷","ALLEY":" ","HOUSE_NO":"９號","E_COORD97":169509.54999999999,"N_COORD97":2545998.02,"ADDRESS":"長榮路五段３９４巷９號","OBJECTID":395476},"geometry":{"x":169509.55000000168,"y":2545998.0200000014}},{"attributes":{"ID":395501,"DIS_CODE":0,"TOWNNAME":"南區","LI":"金華里","LIN":"16鄰","STREET":"金華路","SECT":"二段","MAREA":" ","LANE":"５７巷","ALLEY":" ","HOUSE_NO":"８８號","E_COORD97":166736.54999999999,"N_COORD97":2542148.9399999999,"ADDRESS":"金華路二段５７巷８８號","OBJECTID":395477},"geometry":{"x":166736.55000000075,"y":2542148.9399999995}},{"attributes":{"ID":395502,"DIS_CODE":0,"TOWNNAME":"南區","LI":"金華里","LIN":"16鄰","STREET":"金華路","SECT":"二段","MAREA":" ","LANE":"５７巷","ALLEY":" ","HOUSE_NO":"９０號","E_COORD97":166726.45000000001,"N_COORD97":2542148.0600000001,"ADDRESS":"金華路二段５７巷９０號","OBJECTID":395478},"geometry":{"x":166726.45000000019,"y":2542148.0600000005}},{"attributes":{"ID":395503,"DIS_CODE":0,"TOWNNAME":"南區","LI":"金華里","LIN":"16鄰","STREET":"金華路","SECT":"二段","MAREA":" ","LANE":"５７巷","ALLEY":" ","HOUSE_NO":"９２號","E_COORD97":166717.23000000001,"N_COORD97":2542147.9500000002,"ADDRESS":"金華路二段５７巷９２號","OBJECTID":395479},"geometry":{"x":166717.23000000138,"y":2542147.9499999993}},{"attributes":{"ID":395504,"DIS_CODE":0,"TOWNNAME":"南區","LI":"金華里","LIN":"16鄰","STREET":"金華路","SECT":"二段","MAREA":" ","LANE":"５７巷","ALLEY":" ","HOUSE_NO":"９３號","E_COORD97":166731.17000000001,"N_COORD97":2542125.4300000002,"ADDRESS":"金華路二段５７巷９３號","OBJECTID":395480},"geometry":{"x":166731.17000000086,"y":2542125.4299999997}},{"attributes":{"ID":395505,"DIS_CODE":0,"TOWNNAME":"南區","LI":"金華里","LIN":"16鄰","STREET":"金華路","SECT":"二段","MAREA":" ","LANE":"５７巷","ALLEY":" ","HOUSE_NO":"９５號","E_COORD97":166720.07999999999,"N_COORD97":2542125.8700000001,"ADDRESS":"金華路二段５７巷９５號","OBJECTID":395481},"geometry":{"x":166720.08000000101,"y":2542125.8700000029}},{"attributes":{"ID":395506,"DIS_CODE":0,"TOWNNAME":"南區","LI":"金華里","LIN":"16鄰","STREET":"金華路","SECT":"二段","MAREA":" ","LANE":"５７巷","ALLEY":" ","HOUSE_NO":"９７號","E_COORD97":166708.23000000001,"N_COORD97":2542128.5,"ADDRESS":"金華路二段５７巷９７號","OBJECTID":395482},"geometry":{"x":166708.23000000045,"y":2542128.5}},{"attributes":{"ID":395507,"DIS_CODE":0,"TOWNNAME":"南區","LI":"金華里","LIN":"16鄰","STREET":"金華路","SECT":"二段","MAREA":" ","LANE":"６３巷","ALLEY":" ","HOUSE_NO":"７７號","E_COORD97":166736.10999999999,"N_COORD97":2542156.0600000001,"ADDRESS":"金華路二段６３巷７７號","OBJECTID":395483},"geometry":{"x":166736.11000000034,"y":2542156.0599999987}},{"attributes":{"ID":395508,"DIS_CODE":0,"TOWNNAME":"南區","LI":"金華里","LIN":"16鄰","STREET":"金華路","SECT":"二段","MAREA":" ","LANE":"６３巷","ALLEY":" ","HOUSE_NO":"７９號","E_COORD97":166727.76999999999,"N_COORD97":2542158.1499999999,"ADDRESS":"金華路二段６３巷７９號","OBJECTID":395484},"geometry":{"x":166727.77000000142,"y":2542158.1500000004}},{"attributes":{"ID":395509,"DIS_CODE":0,"TOWNNAME":"南區","LI":"金華里","LIN":"16鄰","STREET":"金華路","SECT":"二段","MAREA":" ","LANE":"６３巷","ALLEY":" ","HOUSE_NO":"８１號","E_COORD97":166717.34,"N_COORD97":2542159.8999999999,"ADDRESS":"金華路二段６３巷８１號","OBJECTID":395485},"geometry":{"x":166717.34000000171,"y":2542159.9000000004}},{"attributes":{"ID":395510,"DIS_CODE":0,"TOWNNAME":"中西區","LI":"郡王里","LIN":"12鄰","STREET":"建業街","SECT":" ","MAREA":" ","LANE":"３７巷","ALLEY":" ","HOUSE_NO":"１０號","E_COORD97":168510.85999999999,"N_COORD97":2543092.5800000001,"ADDRESS":"建業街３７巷１０號","OBJECTID":395486},"geometry":{"x":168510.86000000034,"y":2543092.5800000019}},{"attributes":{"ID":395511,"DIS_CODE":0,"TOWNNAME":"中西區","LI":"郡王里","LIN":"12鄰","STREET":"建業街","SECT":" ","MAREA":" ","LANE":"３７巷","ALLEY":" ","HOUSE_NO":"１２號","E_COORD97":168519.07000000001,"N_COORD97":2543078.3599999999,"ADDRESS":"建業街３７巷１２號","OBJECTID":395487},"geometry":{"x":168519.07000000123,"y":2543078.3599999994}},{"attributes":{"ID":395512,"DIS_CODE":0,"TOWNNAME":"中西區","LI":"郡王里","LIN":"12鄰","STREET":"建業街","SECT":" ","MAREA":" ","LANE":"３７巷","ALLEY":" ","HOUSE_NO":"１４號","E_COORD97":168514.91,"N_COORD97":2543078.3599999999,"ADDRESS":"建業街３７巷１４號","OBJECTID":395488},"geometry":{"x":168514.91000000108,"y":2543078.3599999994}},{"attributes":{"ID":395513,"DIS_CODE":0,"TOWNNAME":"中西區","LI":"郡王里","LIN":"12鄰","STREET":"建業街","SECT":" ","MAREA":" ","LANE":"３７巷","ALLEY":" ","HOUSE_NO":"１６號","E_COORD97":168510.85999999999,"N_COORD97":2543078.4500000002,"ADDRESS":"建業街３７巷１６號","OBJECTID":395489},"geometry":{"x":168510.86000000034,"y":2543078.4500000011}},{"attributes":{"ID":395514,"DIS_CODE":0,"TOWNNAME":"北區","LI":"實踐里","LIN":"16鄰","STREET":"長榮路","SECT":"五段","MAREA":" ","LANE":"３９４巷","ALLEY":" ","HOUSE_NO":"８號","E_COORD97":169520.10000000001,"N_COORD97":2545993.48,"ADDRESS":"長榮路五段３９４巷８號","OBJECTID":395490},"geometry":{"x":169520.09999999963,"y":2545993.4800000004}},{"attributes":{"ID":395515,"DIS_CODE":0,"TOWNNAME":"北區","LI":"實踐里","LIN":"16鄰","STREET":"長榮路","SECT":"五段","MAREA":" ","LANE":"３９４巷","ALLEY":" ","HOUSE_NO":"１０號","E_COORD97":169521.20999999999,"N_COORD97":2545998.5600000001,"ADDRESS":"長榮路五段３９４巷１０號","OBJECTID":395491},"geometry":{"x":169521.21000000089,"y":2545998.5600000024}},{"attributes":{"ID":395516,"DIS_CODE":0,"TOWNNAME":"北區","LI":"實踐里","LIN":"16鄰","STREET":"長榮路","SECT":"五段","MAREA":" ","LANE":"３９４巷","ALLEY":" ","HOUSE_NO":"１２號","E_COORD97":169523.75,"N_COORD97":2546003.9500000002,"ADDRESS":"長榮路五段３９４巷１２號","OBJECTID":395492},"geometry":{"x":169523.75000000186,"y":2546003.950000003}},{"attributes":{"ID":395517,"DIS_CODE":0,"TOWNNAME":"安平區","LI":"海頭里","LIN":"16鄰","STREET":"古堡街","SECT":" ","MAREA":" ","LANE":"９０巷","ALLEY":" ","HOUSE_NO":"２之１號","E_COORD97":163954.39000000001,"N_COORD97":2544928.8900000001,"ADDRESS":"古堡街９０巷２之１號","OBJECTID":395493},"geometry":{"x":163954.3900000006,"y":2544928.8900000025}},{"attributes":{"ID":395518,"DIS_CODE":0,"TOWNNAME":"安平區","LI":"海頭里","LIN":"16鄰","STREET":"古堡街","SECT":" ","MAREA":" ","LANE":"９０巷","ALLEY":" ","HOUSE_NO":"３０號","E_COORD97":163943.04999999999,"N_COORD97":2544976.2200000002,"ADDRESS":"古堡街９０巷３０號","OBJECTID":395494},"geometry":{"x":163943.05000000075,"y":2544976.2200000044}},{"attributes":{"ID":395519,"DIS_CODE":0,"TOWNNAME":"安平區","LI":"海頭里","LIN":"16鄰","STREET":"古堡街","SECT":" ","MAREA":" ","LANE":"９０巷","ALLEY":" ","HOUSE_NO":"３１號","E_COORD97":163922.26000000001,"N_COORD97":2544977.8399999999,"ADDRESS":"古堡街９０巷３１號","OBJECTID":395495},"geometry":{"x":163922.25999999978,"y":2544977.8400000036}},{"attributes":{"ID":395520,"DIS_CODE":0,"TOWNNAME":"安平區","LI":"海頭里","LIN":"16鄰","STREET":"古堡街","SECT":" ","MAREA":" ","LANE":"９０巷","ALLEY":" ","HOUSE_NO":"３２號","E_COORD97":163940.35000000001,"N_COORD97":2544980.3599999999,"ADDRESS":"古堡街９０巷３２號","OBJECTID":395496},"geometry":{"x":163940.35000000149,"y":2544980.3599999994}},{"attributes":{"ID":395521,"DIS_CODE":0,"TOWNNAME":"安平區","LI":"海頭里","LIN":"16鄰","STREET":"古堡街","SECT":" ","MAREA":" ","LANE":"９０巷","ALLEY":" ","HOUSE_NO":"３３號","E_COORD97":163917.39000000001,"N_COORD97":2544984.6800000002,"ADDRESS":"古堡街９０巷３３號","OBJECTID":395497},"geometry":{"x":163917.38999999966,"y":2544984.6799999997}},{"attributes":{"ID":395522,"DIS_CODE":0,"TOWNNAME":"安平區","LI":"海頭里","LIN":"16鄰","STREET":"古堡街","SECT":" ","MAREA":" ","LANE":"９０巷","ALLEY":" ","HOUSE_NO":"３號","E_COORD97":163926.39999999999,"N_COORD97":2544924.6899999999,"ADDRESS":"古堡街９０巷３號","OBJECTID":395498},"geometry":{"x":163926.40000000037,"y":2544924.6900000013}},{"attributes":{"ID":395523,"DIS_CODE":0,"TOWNNAME":"安平區","LI":"海頭里","LIN":"16鄰","STREET":"古堡街","SECT":" ","MAREA":" ","LANE":"９０巷","ALLEY":" ","HOUSE_NO":"５號","E_COORD97":163924.95999999999,"N_COORD97":2544928.4300000002,"ADDRESS":"古堡街９０巷５號","OBJECTID":395499},"geometry":{"x":163924.96000000089,"y":2544928.4299999997}},{"attributes":{"ID":395524,"DIS_CODE":0,"TOWNNAME":"北區","LI":"長榮里","LIN":"16鄰","STREET":"長榮路","SECT":"五段","MAREA":" ","LANE":"４１巷","ALLEY":" ","HOUSE_NO":"６６號","E_COORD97":169887.76999999999,"N_COORD97":2545593.1400000001,"ADDRESS":"長榮路五段４１巷６６號","OBJECTID":395500},"geometry":{"x":169887.77000000048,"y":2545593.1400000006}},{"attributes":{"ID":395525,"DIS_CODE":0,"TOWNNAME":"北區","LI":"長榮里","LIN":"16鄰","STREET":"長榮路","SECT":"五段","MAREA":" ","LANE":"４１巷","ALLEY":" ","HOUSE_NO":"６２號","E_COORD97":169898.56,"N_COORD97":2545584.5699999998,"ADDRESS":"長榮路五段４１巷６２號","OBJECTID":395501},"geometry":{"x":169898.55999999959,"y":2545584.5700000022}},{"attributes":{"ID":395526,"DIS_CODE":0,"TOWNNAME":"中西區","LI":"郡王里","LIN":"12鄰","STREET":"建業街","SECT":" ","MAREA":" ","LANE":"３７巷","ALLEY":" ","HOUSE_NO":"６號","E_COORD97":168519.16,"N_COORD97":2543092.3999999999,"ADDRESS":"建業街３７巷６號","OBJECTID":395502},"geometry":{"x":168519.16000000201,"y":2543092.4000000004}},{"attributes":{"ID":395527,"DIS_CODE":0,"TOWNNAME":"中西區","LI":"郡王里","LIN":"12鄰","STREET":"建業街","SECT":" ","MAREA":" ","LANE":"３７巷","ALLEY":" ","HOUSE_NO":"８號","E_COORD97":168515.20000000001,"N_COORD97":2543092.4900000002,"ADDRESS":"建業街３７巷８號","OBJECTID":395503},"geometry":{"x":168515.20000000019,"y":2543092.4900000021}},{"attributes":{"ID":395528,"DIS_CODE":0,"TOWNNAME":"新營區","LI":"三仙里","LIN":"16鄰","STREET":"三興街","SECT":" ","MAREA":" ","LANE":"３２巷","ALLEY":" ","HOUSE_NO":"１１號","E_COORD97":179539.48000000001,"N_COORD97":2578343.4399999999,"ADDRESS":"三興街３２巷１１號","OBJECTID":395504},"geometry":{"x":179539.48000000231,"y":2578343.4399999995}},{"attributes":{"ID":395529,"DIS_CODE":0,"TOWNNAME":"新營區","LI":"三仙里","LIN":"16鄰","STREET":"三興街","SECT":" ","MAREA":" ","LANE":"３２巷","ALLEY":" ","HOUSE_NO":"１８號","E_COORD97":179546.57999999999,"N_COORD97":2578327.9100000001,"ADDRESS":"三興街３２巷１８號","OBJECTID":395505},"geometry":{"x":179546.58000000007,"y":2578327.9100000001}},{"attributes":{"ID":395530,"DIS_CODE":0,"TOWNNAME":"新營區","LI":"南紙里","LIN":"16鄰","STREET":"南紙街","SECT":" ","MAREA":" ","LANE":"１６２巷","ALLEY":" ","HOUSE_NO":"６號","E_COORD97":177764.60999999999,"N_COORD97":2577298.7999999998,"ADDRESS":"南紙街１６２巷６號","OBJECTID":395506},"geometry":{"x":177764.61000000034,"y":2577298.8000000007}},{"attributes":{"ID":395531,"DIS_CODE":0,"TOWNNAME":"新營區","LI":"三仙里","LIN":"16鄰","STREET":"三興街","SECT":" ","MAREA":" ","LANE":"３２巷","ALLEY":" ","HOUSE_NO":"４號","E_COORD97":179508.59,"N_COORD97":2578331.3999999999,"ADDRESS":"三興街３２巷４號","OBJECTID":395507},"geometry":{"x":179508.58999999985,"y":2578331.4000000004}},{"attributes":{"ID":395532,"DIS_CODE":0,"TOWNNAME":"新營區","LI":"三仙里","LIN":"16鄰","STREET":"三興街","SECT":" ","MAREA":" ","LANE":"３２巷","ALLEY":" ","HOUSE_NO":"１４號","E_COORD97":179561.01000000001,"N_COORD97":2578352.2000000002,"ADDRESS":"三興街３２巷１４號","OBJECTID":395508},"geometry":{"x":179561.01000000071,"y":2578352.1999999993}},{"attributes":{"ID":395533,"DIS_CODE":0,"TOWNNAME":"新營區","LI":"三仙里","LIN":"16鄰","STREET":"三興街","SECT":" ","MAREA":" ","LANE":"３２巷","ALLEY":" ","HOUSE_NO":"１３號","E_COORD97":179552.81,"N_COORD97":2578348.9100000001,"ADDRESS":"三興街３２巷１３號","OBJECTID":395509},"geometry":{"x":179552.80999999959,"y":2578348.9100000001}},{"attributes":{"ID":395534,"DIS_CODE":0,"TOWNNAME":"新營區","LI":"新東里","LIN":"16鄰","STREET":"東泰七街","SECT":" ","MAREA":" ","LANE":"１３巷","ALLEY":" ","HOUSE_NO":"１６號","E_COORD97":181069.79999999999,"N_COORD97":2579684.0099999998,"ADDRESS":"東泰七街１３巷１６號","OBJECTID":395510},"geometry":{"x":181069.80000000075,"y":2579684.0100000035}},{"attributes":{"ID":395535,"DIS_CODE":0,"TOWNNAME":"新營區","LI":"南紙里","LIN":"16鄰","STREET":"南紙街","SECT":" ","MAREA":" ","LANE":"１６２巷","ALLEY":" ","HOUSE_NO":"２號","E_COORD97":177760.57000000001,"N_COORD97":2577298.8199999998,"ADDRESS":"南紙街１６２巷２號","OBJECTID":395511},"geometry":{"x":177760.57000000216,"y":2577298.8199999984}},{"attributes":{"ID":395536,"DIS_CODE":0,"TOWNNAME":"鹽水區","LI":"橋南里","LIN":"16鄰","STREET":"月津路","SECT":" ","MAREA":" ","LANE":"１２７巷","ALLEY":" ","HOUSE_NO":"１０號","E_COORD97":174886.10000000001,"N_COORD97":2579109.0299999998,"ADDRESS":"月津路１２７巷１０號","OBJECTID":395512},"geometry":{"x":174886.0999999987,"y":2579109.0299999993}},{"attributes":{"ID":395537,"DIS_CODE":0,"TOWNNAME":"鹽水區","LI":"橋南里","LIN":"16鄰","STREET":"月津路","SECT":" ","MAREA":" ","LANE":"１２７巷","ALLEY":" ","HOUSE_NO":"１２號","E_COORD97":174890.95999999999,"N_COORD97":2579110.23,"ADDRESS":"月津路１２７巷１２號","OBJECTID":395513},"geometry":{"x":174890.96000000183,"y":2579110.2300000042}},{"attributes":{"ID":395538,"DIS_CODE":0,"TOWNNAME":"鹽水區","LI":"橋南里","LIN":"16鄰","STREET":"月津路","SECT":" ","MAREA":" ","LANE":"１２７巷","ALLEY":" ","HOUSE_NO":"１４號","E_COORD97":174895.82000000001,"N_COORD97":2579111.4399999999,"ADDRESS":"月津路１２７巷１４號","OBJECTID":395514},"geometry":{"x":174895.82000000123,"y":2579111.4400000013}},{"attributes":{"ID":395539,"DIS_CODE":0,"TOWNNAME":"鹽水區","LI":"橋南里","LIN":"16鄰","STREET":"月津路","SECT":" ","MAREA":" ","LANE":"１２７巷","ALLEY":" ","HOUSE_NO":"１６號","E_COORD97":174900.67999999999,"N_COORD97":2579112.6400000001,"ADDRESS":"月津路１２７巷１６號","OBJECTID":395515},"geometry":{"x":174900.6799999997,"y":2579112.6400000025}},{"attributes":{"ID":395540,"DIS_CODE":0,"TOWNNAME":"鹽水區","LI":"橋南里","LIN":"16鄰","STREET":"月津路","SECT":" ","MAREA":" ","LANE":"１２７巷","ALLEY":" ","HOUSE_NO":"１８號","E_COORD97":174905.54000000001,"N_COORD97":2579113.8399999999,"ADDRESS":"月津路１２７巷１８號","OBJECTID":395516},"geometry":{"x":174905.54000000004,"y":2579113.8400000017}},{"attributes":{"ID":395541,"DIS_CODE":0,"TOWNNAME":"鹽水區","LI":"橋南里","LIN":"16鄰","STREET":"月津路","SECT":" ","MAREA":" ","LANE":"１２７巷","ALLEY":" ","HOUSE_NO":"１號","E_COORD97":174866.62,"N_COORD97":2579126.04,"ADDRESS":"月津路１２７巷１號","OBJECTID":395517},"geometry":{"x":174866.62000000104,"y":2579126.0399999991}},{"attributes":{"ID":395542,"DIS_CODE":0,"TOWNNAME":"鹽水區","LI":"橋南里","LIN":"16鄰","STREET":"月津路","SECT":" ","MAREA":" ","LANE":"１２７巷","ALLEY":" ","HOUSE_NO":"２０號","E_COORD97":174910.39999999999,"N_COORD97":2579115.04,"ADDRESS":"月津路１２７巷２０號","OBJECTID":395518},"geometry":{"x":174910.40000000224,"y":2579115.040000001}},{"attributes":{"ID":395543,"DIS_CODE":0,"TOWNNAME":"鹽水區","LI":"橋南里","LIN":"16鄰","STREET":"月津路","SECT":" ","MAREA":" ","LANE":"１２７巷","ALLEY":" ","HOUSE_NO":"２２號","E_COORD97":174915.26000000001,"N_COORD97":2579116.2400000002,"ADDRESS":"月津路１２７巷２２號","OBJECTID":395519},"geometry":{"x":174915.25999999978,"y":2579116.2400000002}},{"attributes":{"ID":395544,"DIS_CODE":0,"TOWNNAME":"鹽水區","LI":"橋南里","LIN":"16鄰","STREET":"月津路","SECT":" ","MAREA":" ","LANE":"１２７巷","ALLEY":" ","HOUSE_NO":"２３號","E_COORD97":174937.01999999999,"N_COORD97":2579148.3199999998,"ADDRESS":"月津路１２７巷２３號","OBJECTID":395520},"geometry":{"x":174937.01999999955,"y":2579148.3200000022}},{"attributes":{"ID":395545,"DIS_CODE":0,"TOWNNAME":"鹽水區","LI":"橋南里","LIN":"16鄰","STREET":"月津路","SECT":" ","MAREA":" ","LANE":"７５巷","ALLEY":" ","HOUSE_NO":"２７號之２","E_COORD97":174948.07999999999,"N_COORD97":2579176.7799999998,"ADDRESS":"月津路７５巷２７號之２","OBJECTID":395521},"geometry":{"x":174948.08000000101,"y":2579176.7800000012}},{"attributes":{"ID":395546,"DIS_CODE":0,"TOWNNAME":"鹽水區","LI":"橋南里","LIN":"16鄰","STREET":"月津路","SECT":" ","MAREA":" ","LANE":"７５巷","ALLEY":" ","HOUSE_NO":"２７號之３","E_COORD97":174949.26000000001,"N_COORD97":2579172.5499999998,"ADDRESS":"月津路７５巷２７號之３","OBJECTID":395522},"geometry":{"x":174949.25999999978,"y":2579172.5499999989}},{"attributes":{"ID":395547,"DIS_CODE":0,"TOWNNAME":"鹽水區","LI":"橋南里","LIN":"16鄰","STREET":"月津路","SECT":" ","MAREA":" ","LANE":"７５巷","ALLEY":" ","HOUSE_NO":"２７號之４","E_COORD97":174950.39999999999,"N_COORD97":2579168.29,"ADDRESS":"月津路７５巷２７號之４","OBJECTID":395523},"geometry":{"x":174950.40000000037,"y":2579168.2899999991}},{"attributes":{"ID":395548,"DIS_CODE":0,"TOWNNAME":"鹽水區","LI":"橋南里","LIN":"16鄰","STREET":"月津路","SECT":" ","MAREA":" ","LANE":"７５巷","ALLEY":" ","HOUSE_NO":"２７號之５","E_COORD97":174934.10000000001,"N_COORD97":2579166.6899999999,"ADDRESS":"月津路７５巷２７號之５","OBJECTID":395524},"geometry":{"x":174934.10000000056,"y":2579166.6899999995}},{"attributes":{"ID":395549,"DIS_CODE":0,"TOWNNAME":"鹽水區","LI":"橋南里","LIN":"16鄰","STREET":"月津路","SECT":" ","MAREA":" ","LANE":"７５巷","ALLEY":" ","HOUSE_NO":"２７號之６","E_COORD97":174932.26999999999,"N_COORD97":2579170.75,"ADDRESS":"月津路７５巷２７號之６","OBJECTID":395525},"geometry":{"x":174932.26999999955,"y":2579170.7500000037}},{"attributes":{"ID":395550,"DIS_CODE":0,"TOWNNAME":"鹽水區","LI":"橋南里","LIN":"16鄰","STREET":"月津路","SECT":" ","MAREA":" ","LANE":"７５巷","ALLEY":" ","HOUSE_NO":"２７號","E_COORD97":174948.47,"N_COORD97":2579192.5899999999,"ADDRESS":"月津路７５巷２７號","OBJECTID":395526},"geometry":{"x":174948.47000000067,"y":2579192.5900000017}},{"attributes":{"ID":395551,"DIS_CODE":0,"TOWNNAME":"鹽水區","LI":"橋南里","LIN":"16鄰","STREET":"月津路","SECT":" ","MAREA":" ","LANE":"７５巷","ALLEY":" ","HOUSE_NO":"２８號","E_COORD97":174971.31,"N_COORD97":2579179.52,"ADDRESS":"月津路７５巷２８號","OBJECTID":395527},"geometry":{"x":174971.31000000145,"y":2579179.5200000014}},{"attributes":{"ID":395552,"DIS_CODE":0,"TOWNNAME":"鹽水區","LI":"橋南里","LIN":"16鄰","STREET":"月津路","SECT":" ","MAREA":" ","LANE":"７５巷","ALLEY":" ","HOUSE_NO":"２９號","E_COORD97":174977.39000000001,"N_COORD97":2579177.7200000002,"ADDRESS":"月津路７５巷２９號","OBJECTID":395528},"geometry":{"x":174977.38999999873,"y":2579177.7200000007}},{"attributes":{"ID":395553,"DIS_CODE":0,"TOWNNAME":"鹽水區","LI":"橋南里","LIN":"16鄰","STREET":"月津路","SECT":" ","MAREA":" ","LANE":"７５巷","ALLEY":" ","HOUSE_NO":"３０號","E_COORD97":174989.79999999999,"N_COORD97":2579175.7200000002,"ADDRESS":"月津路７５巷３０號","OBJECTID":395529},"geometry":{"x":174989.79999999981,"y":2579175.7200000025}},{"attributes":{"ID":395554,"DIS_CODE":0,"TOWNNAME":"鹽水區","LI":"橋南里","LIN":"16鄰","STREET":"月津路","SECT":" ","MAREA":" ","LANE":"７５巷","ALLEY":" ","HOUSE_NO":"３１號","E_COORD97":175000.41,"N_COORD97":2579182.2799999998,"ADDRESS":"月津路７５巷３１號","OBJECTID":395530},"geometry":{"x":175000.41000000108,"y":2579182.2799999993}},{"attributes":{"ID":395555,"DIS_CODE":0,"TOWNNAME":"鹽水區","LI":"橋南里","LIN":"16鄰","STREET":"月津路","SECT":" ","MAREA":" ","LANE":"７５巷","ALLEY":" ","HOUSE_NO":"３號","E_COORD97":174948.13,"N_COORD97":2579254.46,"ADDRESS":"月津路７５巷３號","OBJECTID":395531},"geometry":{"x":174948.13000000082,"y":2579254.4600000009}},{"attributes":{"ID":395556,"DIS_CODE":0,"TOWNNAME":"北區","LI":"玉皇里","LIN":"16鄰","STREET":"佑民街","SECT":" ","MAREA":" ","LANE":"４２巷","ALLEY":" ","HOUSE_NO":"６號","E_COORD97":168656.17999999999,"N_COORD97":2544409.5899999999,"ADDRESS":"佑民街４２巷６號","OBJECTID":395532},"geometry":{"x":168656.18000000063,"y":2544409.5899999999}},{"attributes":{"ID":395557,"DIS_CODE":0,"TOWNNAME":"北區","LI":"東興里","LIN":"16鄰","STREET":"小東路","SECT":" ","MAREA":" ","LANE":"２９９巷","ALLEY":" ","HOUSE_NO":"１９號","E_COORD97":171102.23000000001,"N_COORD97":2544479.3700000001,"ADDRESS":"小東路２９９巷１９號","OBJECTID":395533},"geometry":{"x":171102.23000000045,"y":2544479.370000001}},{"attributes":{"ID":395558,"DIS_CODE":0,"TOWNNAME":"北區","LI":"東興里","LIN":"16鄰","STREET":"小東路","SECT":" ","MAREA":" ","LANE":"２９９巷","ALLEY":" ","HOUSE_NO":"２１號","E_COORD97":171103.10999999999,"N_COORD97":2544482.3799999999,"ADDRESS":"小東路２９９巷２１號","OBJECTID":395534},"geometry":{"x":171103.1099999994,"y":2544482.3800000008}},{"attributes":{"ID":395559,"DIS_CODE":0,"TOWNNAME":"北區","LI":"東興里","LIN":"16鄰","STREET":"小東路","SECT":" ","MAREA":" ","LANE":"２９９巷","ALLEY":" ","HOUSE_NO":"２１號之２","E_COORD97":171097.56,"N_COORD97":2544483.4500000002,"ADDRESS":"小東路２９９巷２１號之２","OBJECTID":395535},"geometry":{"x":171097.55999999866,"y":2544483.4499999993}},{"attributes":{"ID":395560,"DIS_CODE":0,"TOWNNAME":"北區","LI":"東興里","LIN":"16鄰","STREET":"小東路","SECT":" ","MAREA":" ","LANE":"２９９巷","ALLEY":" ","HOUSE_NO":"２３號","E_COORD97":171103.89000000001,"N_COORD97":2544486.8599999999,"ADDRESS":"小東路２９９巷２３號","OBJECTID":395536},"geometry":{"x":171103.88999999873,"y":2544486.8600000013}},{"attributes":{"ID":395561,"DIS_CODE":0,"TOWNNAME":"北區","LI":"東興里","LIN":"16鄰","STREET":"小東路","SECT":" ","MAREA":" ","LANE":"２９９巷","ALLEY":" ","HOUSE_NO":"２３號之２","E_COORD97":171100.19,"N_COORD97":2544489.77,"ADDRESS":"小東路２９９巷２３號之２","OBJECTID":395537},"geometry":{"x":171100.19000000134,"y":2544489.7700000033}},{"attributes":{"ID":395562,"DIS_CODE":0,"TOWNNAME":"北區","LI":"東興里","LIN":"16鄰","STREET":"小東路","SECT":" ","MAREA":" ","LANE":"２９９巷","ALLEY":" ","HOUSE_NO":"２５號","E_COORD97":171104.95999999999,"N_COORD97":2544491.6200000001,"ADDRESS":"小東路２９９巷２５號","OBJECTID":395538},"geometry":{"x":171104.95999999996,"y":2544491.620000001}},{"attributes":{"ID":395563,"DIS_CODE":0,"TOWNNAME":"歸仁區","LI":"歸仁里","LIN":"16鄰","STREET":"信義北路","SECT":" ","MAREA":" ","LANE":"８２巷","ALLEY":" ","HOUSE_NO":"１４號","E_COORD97":178051.16,"N_COORD97":2540965.6800000002,"ADDRESS":"信義北路８２巷１４號","OBJECTID":395539},"geometry":{"x":178051.15999999922,"y":2540965.6800000016}},{"attributes":{"ID":395564,"DIS_CODE":0,"TOWNNAME":"歸仁區","LI":"媽廟里","LIN":"16鄰","STREET":"媽廟二街","SECT":" ","MAREA":" ","LANE":"３１巷","ALLEY":" ","HOUSE_NO":"６號","E_COORD97":177714.82999999999,"N_COORD97":2543738.7200000002,"ADDRESS":"媽廟二街３１巷６號","OBJECTID":395540},"geometry":{"x":177714.83000000101,"y":2543738.7200000044}},{"attributes":{"ID":395565,"DIS_CODE":0,"TOWNNAME":"歸仁區","LI":"媽廟里","LIN":"16鄰","STREET":"媽廟二街","SECT":" ","MAREA":" ","LANE":"３１巷","ALLEY":" ","HOUSE_NO":"１４號","E_COORD97":177713.07999999999,"N_COORD97":2543755.7200000002,"ADDRESS":"媽廟二街３１巷１４號","OBJECTID":395541},"geometry":{"x":177713.08000000101,"y":2543755.7200000044}},{"attributes":{"ID":395566,"DIS_CODE":0,"TOWNNAME":"歸仁區","LI":"歸南里","LIN":"16鄰","STREET":"民生十一街","SECT":" ","MAREA":" ","LANE":"３１巷","ALLEY":" ","HOUSE_NO":"１６號","E_COORD97":176174.91,"N_COORD97":2539787.25,"ADDRESS":"民生十一街３１巷１６號","OBJECTID":395542},"geometry":{"x":176174.91000000108,"y":2539787.25}},{"attributes":{"ID":395567,"DIS_CODE":0,"TOWNNAME":"歸仁區","LI":"歸仁里","LIN":"16鄰","STREET":"信義北路","SECT":" ","MAREA":" ","LANE":"８２巷","ALLEY":" ","HOUSE_NO":"１０號","E_COORD97":178040.95999999999,"N_COORD97":2540967.6800000002,"ADDRESS":"信義北路８２巷１０號","OBJECTID":395543},"geometry":{"x":178040.96000000089,"y":2540967.6799999997}},{"attributes":{"ID":395568,"DIS_CODE":0,"TOWNNAME":"歸仁區","LI":"歸南里","LIN":"16鄰","STREET":"民生十一街","SECT":" ","MAREA":" ","LANE":"３１巷","ALLEY":" ","HOUSE_NO":"１０號","E_COORD97":176178.91,"N_COORD97":2539769.25,"ADDRESS":"民生十一街３１巷１０號","OBJECTID":395544},"geometry":{"x":176178.91000000108,"y":2539769.2500000019}},{"attributes":{"ID":395569,"DIS_CODE":0,"TOWNNAME":"歸仁區","LI":"媽廟里","LIN":"16鄰","STREET":"媽廟二街","SECT":" ","MAREA":" ","LANE":"３１巷","ALLEY":" ","HOUSE_NO":"８號","E_COORD97":177713.82999999999,"N_COORD97":2543743.7200000002,"ADDRESS":"媽廟二街３１巷８號","OBJECTID":395545},"geometry":{"x":177713.83000000007,"y":2543743.7200000025}},{"attributes":{"ID":395570,"DIS_CODE":0,"TOWNNAME":"北區","LI":"元寶里","LIN":"16鄰","STREET":"北園街","SECT":" ","MAREA":" ","LANE":"８巷","ALLEY":" ","HOUSE_NO":"５６號","E_COORD97":170453.98000000001,"N_COORD97":2545697.29,"ADDRESS":"北園街８巷５６號","OBJECTID":395546},"geometry":{"x":170453.98000000138,"y":2545697.290000001}},{"attributes":{"ID":395571,"DIS_CODE":0,"TOWNNAME":"北區","LI":"元寶里","LIN":"16鄰","STREET":"北園街","SECT":" ","MAREA":" ","LANE":"８巷","ALLEY":" ","HOUSE_NO":"５８號","E_COORD97":170453.28,"N_COORD97":2545702.1899999999,"ADDRESS":"北園街８巷５８號","OBJECTID":395547},"geometry":{"x":170453.28000000119,"y":2545702.1900000013}},{"attributes":{"ID":395572,"DIS_CODE":0,"TOWNNAME":"北區","LI":"元寶里","LIN":"16鄰","STREET":"北園街","SECT":" ","MAREA":" ","LANE":"８巷","ALLEY":" ","HOUSE_NO":"６０號","E_COORD97":170451.89000000001,"N_COORD97":2545705.6800000002,"ADDRESS":"北園街８巷６０號","OBJECTID":395548},"geometry":{"x":170451.8900000006,"y":2545705.6800000016}},{"attributes":{"ID":395573,"DIS_CODE":0,"TOWNNAME":"北區","LI":"元寶里","LIN":"16鄰","STREET":"北園街","SECT":" ","MAREA":" ","LANE":"８巷","ALLEY":" ","HOUSE_NO":"６２號","E_COORD97":170451.89000000001,"N_COORD97":2545708.4700000002,"ADDRESS":"北園街８巷６２號","OBJECTID":395549},"geometry":{"x":170451.8900000006,"y":2545708.4700000025}},{"attributes":{"ID":395574,"DIS_CODE":0,"TOWNNAME":"南區","LI":"喜北里","LIN":"16鄰","STREET":"喜明街","SECT":" ","MAREA":" ","LANE":" ","ALLEY":" ","HOUSE_NO":"１１５號","E_COORD97":165634.26000000001,"N_COORD97":2538252.23,"ADDRESS":"喜明街１１５號","OBJECTID":395550},"geometry":{"x":165634.25999999978,"y":2538252.2300000004}},{"attributes":{"ID":395575,"DIS_CODE":0,"TOWNNAME":"北區","LI":"元寶里","LIN":"16鄰","STREET":"北園街","SECT":" ","MAREA":" ","LANE":"８巷","ALLEY":" ","HOUSE_NO":"２８號","E_COORD97":170483.76999999999,"N_COORD97":2545668.25,"ADDRESS":"北園街８巷２８號","OBJECTID":395551},"geometry":{"x":170483.76999999955,"y":2545668.2500000019}},{"attributes":{"ID":395576,"DIS_CODE":0,"TOWNNAME":"北區","LI":"元寶里","LIN":"16鄰","STREET":"開元路","SECT":" ","MAREA":" ","LANE":"４８５巷","ALLEY":" ","HOUSE_NO":"９號","E_COORD97":170492.34,"N_COORD97":2545664.9199999999,"ADDRESS":"開元路４８５巷９號","OBJECTID":395552},"geometry":{"x":170492.33999999985,"y":2545664.9199999999}},{"attributes":{"ID":395577,"DIS_CODE":0,"TOWNNAME":"中西區","LI":"永華里","LIN":"5鄰","STREET":"府前路","SECT":"一段","MAREA":" ","LANE":"１９６巷","ALLEY":" ","HOUSE_NO":"２８號","E_COORD97":168512.23999999999,"N_COORD97":2543395.8500000001,"ADDRESS":"府前路一段１９６巷２８號","OBJECTID":395553},"geometry":{"x":168512.24000000115,"y":2543395.8500000015}},{"attributes":{"ID":395578,"DIS_CODE":0,"TOWNNAME":"中西區","LI":"永華里","LIN":"5鄰","STREET":"開山路","SECT":" ","MAREA":" ","LANE":"１２２巷","ALLEY":" ","HOUSE_NO":"５８號","E_COORD97":168573.14999999999,"N_COORD97":2543341.6800000002,"ADDRESS":"開山路１２２巷５８號","OBJECTID":395554},"geometry":{"x":168573.15000000037,"y":2543341.6800000016}},{"attributes":{"ID":395579,"DIS_CODE":0,"TOWNNAME":"中西區","LI":"永華里","LIN":"5鄰","STREET":"開山路","SECT":" ","MAREA":" ","LANE":"１２２巷","ALLEY":" ","HOUSE_NO":"６２號","E_COORD97":168553.17000000001,"N_COORD97":2543342.79,"ADDRESS":"開山路１２２巷６２號","OBJECTID":395555},"geometry":{"x":168553.17000000086,"y":2543342.7899999991}},{"attributes":{"ID":395580,"DIS_CODE":0,"TOWNNAME":"中西區","LI":"永華里","LIN":"5鄰","STREET":"開山路","SECT":" ","MAREA":" ","LANE":"１２２巷","ALLEY":" ","HOUSE_NO":"６２號之１","E_COORD97":168549.23999999999,"N_COORD97":2543344.5699999998,"ADDRESS":"開山路１２２巷６２號之１","OBJECTID":395556},"geometry":{"x":168549.24000000209,"y":2543344.5700000003}},{"attributes":{"ID":395581,"DIS_CODE":0,"TOWNNAME":"中西區","LI":"永華里","LIN":"7鄰","STREET":"友愛街","SECT":" ","MAREA":" ","LANE":"１５巷","ALLEY":" ","HOUSE_NO":"１０號","E_COORD97":168582.88,"N_COORD97":2543467.6600000001,"ADDRESS":"友愛街１５巷１０號","OBJECTID":395557},"geometry":{"x":168582.87999999989,"y":2543467.660000002}},{"attributes":{"ID":395582,"DIS_CODE":0,"TOWNNAME":"中西區","LI":"永華里","LIN":"7鄰","STREET":"友愛街","SECT":" ","MAREA":" ","LANE":"１５巷","ALLEY":" ","HOUSE_NO":"１２號","E_COORD97":168586.07000000001,"N_COORD97":2543465.21,"ADDRESS":"友愛街１５巷１２號","OBJECTID":395558},"geometry":{"x":168586.07000000216,"y":2543465.2100000028}},{"attributes":{"ID":395583,"DIS_CODE":0,"TOWNNAME":"中西區","LI":"永華里","LIN":"7鄰","STREET":"友愛街","SECT":" ","MAREA":" ","LANE":"１５巷","ALLEY":" ","HOUSE_NO":"２號","E_COORD97":168575.38,"N_COORD97":2543477.7400000002,"ADDRESS":"友愛街１５巷２號","OBJECTID":395559},"geometry":{"x":168575.38000000082,"y":2543477.7400000021}},{"attributes":{"ID":395584,"DIS_CODE":0,"TOWNNAME":"中西區","LI":"永華里","LIN":"7鄰","STREET":"友愛街","SECT":" ","MAREA":" ","LANE":"１５巷","ALLEY":" ","HOUSE_NO":"６號","E_COORD97":168578.87,"N_COORD97":2543473.8900000001,"ADDRESS":"友愛街１５巷６號","OBJECTID":395560},"geometry":{"x":168578.87000000197,"y":2543473.8900000025}},{"attributes":{"ID":395585,"DIS_CODE":0,"TOWNNAME":"中西區","LI":"永華里","LIN":"7鄰","STREET":"友愛街","SECT":" ","MAREA":" ","LANE":"１５巷","ALLEY":" ","HOUSE_NO":"８號","E_COORD97":168580.28,"N_COORD97":2543470.48,"ADDRESS":"友愛街１５巷８號","OBJECTID":395561},"geometry":{"x":168580.28000000119,"y":2543470.4800000023}},{"attributes":{"ID":395586,"DIS_CODE":0,"TOWNNAME":"南區","LI":"田寮里","LIN":"16鄰","STREET":"西門路","SECT":"一段","MAREA":" ","LANE":"３３３巷","ALLEY":" ","HOUSE_NO":"２１號","E_COORD97":167652.28,"N_COORD97":2542058.3100000001,"ADDRESS":"西門路一段３３３巷２１號","OBJECTID":395562},"geometry":{"x":167652.28000000212,"y":2542058.3100000005}},{"attributes":{"ID":395587,"DIS_CODE":0,"TOWNNAME":"南區","LI":"田寮里","LIN":"16鄰","STREET":"西門路","SECT":"一段","MAREA":" ","LANE":"３３３巷","ALLEY":" ","HOUSE_NO":"２２號","E_COORD97":167667.72,"N_COORD97":2542070.7799999998,"ADDRESS":"西門路一段３３３巷２２號","OBJECTID":395563},"geometry":{"x":167667.72000000067,"y":2542070.7799999993}},{"attributes":{"ID":395588,"DIS_CODE":0,"TOWNNAME":"南區","LI":"田寮里","LIN":"16鄰","STREET":"西門路","SECT":"一段","MAREA":" ","LANE":"３３３巷","ALLEY":" ","HOUSE_NO":"２３號","E_COORD97":167647.39000000001,"N_COORD97":2542062.79,"ADDRESS":"西門路一段３３３巷２３號","OBJECTID":395564},"geometry":{"x":167647.38999999873,"y":2542062.790000001}},{"attributes":{"ID":395589,"DIS_CODE":0,"TOWNNAME":"南區","LI":"國宅里","LIN":"16鄰","STREET":"金華路","SECT":"二段","MAREA":" ","LANE":"３３巷","ALLEY":" ","HOUSE_NO":"８１號","E_COORD97":166730.17999999999,"N_COORD97":2541974.9500000002,"ADDRESS":"金華路二段３３巷８１號","OBJECTID":395565},"geometry":{"x":166730.18000000156,"y":2541974.9499999993}},{"attributes":{"ID":395590,"DIS_CODE":0,"TOWNNAME":"南區","LI":"喜南里","LIN":"16鄰","STREET":"喜樹路","SECT":" ","MAREA":" ","LANE":"３４０巷","ALLEY":" ","HOUSE_NO":"８７號","E_COORD97":165490.42999999999,"N_COORD97":2538047.7400000002,"ADDRESS":"喜樹路３４０巷８７號","OBJECTID":395566},"geometry":{"x":165490.4299999997,"y":2538047.7400000002}},{"attributes":{"ID":395591,"DIS_CODE":0,"TOWNNAME":"南區","LI":"喜南里","LIN":"16鄰","STREET":"喜樹路","SECT":" ","MAREA":" ","LANE":"３４０巷","ALLEY":" ","HOUSE_NO":"８９號","E_COORD97":165466.60000000001,"N_COORD97":2538038.21,"ADDRESS":"喜樹路３４０巷８９號","OBJECTID":395567},"geometry":{"x":165466.60000000056,"y":2538038.2100000009}},{"attributes":{"ID":395592,"DIS_CODE":0,"TOWNNAME":"北區","LI":"光武里","LIN":"16鄰","STREET":"北門路","SECT":"二段","MAREA":" ","LANE":"５７７巷","ALLEY":" ","HOUSE_NO":"２０號","E_COORD97":169599.34,"N_COORD97":2545793.1299999999,"ADDRESS":"北門路二段５７７巷２０號","OBJECTID":395568},"geometry":{"x":169599.34000000078,"y":2545793.1300000008}},{"attributes":{"ID":395593,"DIS_CODE":0,"TOWNNAME":"北區","LI":"光武里","LIN":"16鄰","STREET":"北門路","SECT":"二段","MAREA":" ","LANE":"５７７巷","ALLEY":" ","HOUSE_NO":"２號","E_COORD97":169657.76000000001,"N_COORD97":2545781.7000000002,"ADDRESS":"北門路二段５７７巷２號","OBJECTID":395569},"geometry":{"x":169657.76000000071,"y":2545781.700000003}},{"attributes":{"ID":395594,"DIS_CODE":0,"TOWNNAME":"北區","LI":"光武里","LIN":"16鄰","STREET":"北門路","SECT":"二段","MAREA":" ","LANE":"５７７巷","ALLEY":" ","HOUSE_NO":"６號","E_COORD97":169646.48999999999,"N_COORD97":2545784.5600000001,"ADDRESS":"北門路二段５７７巷６號","OBJECTID":395570},"geometry":{"x":169646.49000000115,"y":2545784.5600000024}},{"attributes":{"ID":395595,"DIS_CODE":0,"TOWNNAME":"永康區","LI":"東橋里","LIN":"16鄰","STREET":"東橋二街","SECT":" ","MAREA":" ","LANE":"７１巷","ALLEY":" ","HOUSE_NO":"７２號","E_COORD97":171682.39000000001,"N_COORD97":2546638.8900000001,"ADDRESS":"東橋二街７１巷７２號","OBJECTID":395571},"geometry":{"x":171682.3900000006,"y":2546638.8900000006}},{"attributes":{"ID":395596,"DIS_CODE":0,"TOWNNAME":"永康區","LI":"東橋里","LIN":"16鄰","STREET":"東橋二街","SECT":" ","MAREA":" ","LANE":"９７巷","ALLEY":" ","HOUSE_NO":"８８號","E_COORD97":171694.84,"N_COORD97":2546704.23,"ADDRESS":"東橋二街９７巷８８號","OBJECTID":395572},"geometry":{"x":171694.84000000078,"y":2546704.2300000004}},{"attributes":{"ID":395597,"DIS_CODE":0,"TOWNNAME":"永康區","LI":"東橋里","LIN":"16鄰","STREET":"東橋二街","SECT":" ","MAREA":" ","LANE":"９７巷","ALLEY":" ","HOUSE_NO":"５６號","E_COORD97":171729,"N_COORD97":2546645.6299999999,"ADDRESS":"東橋二街９７巷５６號","OBJECTID":395573},"geometry":{"x":171728.99999999907,"y":2546645.629999999}},{"attributes":{"ID":395598,"DIS_CODE":0,"TOWNNAME":"永康區","LI":"東橋里","LIN":"16鄰","STREET":"東橋二街","SECT":" ","MAREA":" ","LANE":"９７巷","ALLEY":" ","HOUSE_NO":"４７號","E_COORD97":171682.20999999999,"N_COORD97":2546672.4399999999,"ADDRESS":"東橋二街９７巷４７號","OBJECTID":395574},"geometry":{"x":171682.21000000089,"y":2546672.4400000013}},{"attributes":{"ID":395599,"DIS_CODE":0,"TOWNNAME":"東區","LI":"大智里","LIN":"16鄰","STREET":"德東街","SECT":" ","MAREA":" ","LANE":"１５１巷","ALLEY":" ","HOUSE_NO":"７１號","E_COORD97":171180.26000000001,"N_COORD97":2540455.9300000002,"ADDRESS":"德東街１５１巷７１號","OBJECTID":395575},"geometry":{"x":171180.26000000071,"y":2540455.9300000016}},{"attributes":{"ID":395600,"DIS_CODE":0,"TOWNNAME":"仁德區","LI":"二行里","LIN":"16鄰","STREET":"行大街","SECT":" ","MAREA":" ","LANE":"１７２巷","ALLEY":" ","HOUSE_NO":"７７之１號","E_COORD97":169724.73000000001,"N_COORD97":2535223.0499999998,"ADDRESS":"行大街１７２巷７７之１號","OBJECTID":395576},"geometry":{"x":169724.73000000138,"y":2535223.0499999989}},{"attributes":{"ID":395601,"DIS_CODE":0,"TOWNNAME":"永康區","LI":"安康里","LIN":"16鄰","STREET":"中華路","SECT":" ","MAREA":" ","LANE":"６６１巷","ALLEY":" ","HOUSE_NO":"２３號","E_COORD97":170903.85000000001,"N_COORD97":2546165.9900000002,"ADDRESS":"中華路６６１巷２３號","OBJECTID":395577},"geometry":{"x":170903.84999999963,"y":2546165.9900000002}},{"attributes":{"ID":395602,"DIS_CODE":0,"TOWNNAME":"永康區","LI":"正強里","LIN":"16鄰","STREET":"自強路","SECT":" ","MAREA":" ","LANE":"１８８巷","ALLEY":" ","HOUSE_NO":"２６號","E_COORD97":173196.59,"N_COORD97":2547450.25,"ADDRESS":"自強路１８８巷２６號","OBJECTID":395578},"geometry":{"x":173196.59000000078,"y":2547450.2500000037}},{"attributes":{"ID":395603,"DIS_CODE":0,"TOWNNAME":"永康區","LI":"光復里","LIN":"16鄰","STREET":"復興路","SECT":" ","MAREA":" ","LANE":"１２８巷","ALLEY":" ","HOUSE_NO":"３２號","E_COORD97":172705.23000000001,"N_COORD97":2544402.27,"ADDRESS":"復興路１２８巷３２號","OBJECTID":395579},"geometry":{"x":172705.23000000138,"y":2544402.2700000014}},{"attributes":{"ID":395604,"DIS_CODE":0,"TOWNNAME":"永康區","LI":"安康里","LIN":"16鄰","STREET":"中華路","SECT":" ","MAREA":" ","LANE":"６６１巷","ALLEY":" ","HOUSE_NO":"６７號","E_COORD97":170873.79000000001,"N_COORD97":2546148.9900000002,"ADDRESS":"中華路６６１巷６７號","OBJECTID":395580},"geometry":{"x":170873.79000000004,"y":2546148.9900000002}},{"attributes":{"ID":395605,"DIS_CODE":0,"TOWNNAME":"永康區","LI":"正強里","LIN":"16鄰","STREET":"自強路","SECT":" ","MAREA":" ","LANE":"１８８巷","ALLEY":" ","HOUSE_NO":"６號","E_COORD97":173187.89000000001,"N_COORD97":2547510.7200000002,"ADDRESS":"自強路１８８巷６號","OBJECTID":395581},"geometry":{"x":173187.8900000006,"y":2547510.7200000007}},{"attributes":{"ID":395606,"DIS_CODE":0,"TOWNNAME":"永康區","LI":"烏竹里","LIN":"16鄰","STREET":"龍橋街","SECT":" ","MAREA":" ","LANE":"２９６巷","ALLEY":" ","HOUSE_NO":"８號","E_COORD97":174543.42999999999,"N_COORD97":2548999,"ADDRESS":"龍橋街２９６巷８號","OBJECTID":395582},"geometry":{"x":174543.43000000156,"y":2548999.0000000019}},{"attributes":{"ID":395607,"DIS_CODE":0,"TOWNNAME":"南區","LI":"國宅里","LIN":"16鄰","STREET":"金華路","SECT":"二段","MAREA":" ","LANE":"３９巷","ALLEY":" ","HOUSE_NO":"９１號","E_COORD97":166779.09,"N_COORD97":2542017.1800000002,"ADDRESS":"金華路二段３９巷９１號","OBJECTID":395583},"geometry":{"x":166779.09000000078,"y":2542017.1800000016}},{"attributes":{"ID":395608,"DIS_CODE":0,"TOWNNAME":"南區","LI":"國宅里","LIN":"16鄰","STREET":"金華路","SECT":"二段","MAREA":" ","LANE":"３９巷","ALLEY":" ","HOUSE_NO":"９２號","E_COORD97":166780.56,"N_COORD97":2542034.25,"ADDRESS":"金華路二段３９巷９２號","OBJECTID":395584},"geometry":{"x":166780.56000000052,"y":2542034.25}},{"attributes":{"ID":395609,"DIS_CODE":0,"TOWNNAME":"南區","LI":"國宅里","LIN":"16鄰","STREET":"金華路","SECT":"二段","MAREA":" ","LANE":"３９巷","ALLEY":" ","HOUSE_NO":"９３號","E_COORD97":166773.60000000001,"N_COORD97":2542017.8100000001,"ADDRESS":"金華路二段３９巷９３號","OBJECTID":395585},"geometry":{"x":166773.60000000056,"y":2542017.8100000005}},{"attributes":{"ID":395610,"DIS_CODE":0,"TOWNNAME":"南區","LI":"國宅里","LIN":"16鄰","STREET":"金華路","SECT":"二段","MAREA":" ","LANE":"３９巷","ALLEY":" ","HOUSE_NO":"９４號","E_COORD97":166775.07999999999,"N_COORD97":2542034.6699999999,"ADDRESS":"金華路二段３９巷９４號","OBJECTID":395586},"geometry":{"x":166775.08000000007,"y":2542034.6699999999}},{"attributes":{"ID":395611,"DIS_CODE":0,"TOWNNAME":"南區","LI":"國宅里","LIN":"16鄰","STREET":"金華路","SECT":"二段","MAREA":" ","LANE":"３９巷","ALLEY":" ","HOUSE_NO":"９５號","E_COORD97":166767.69,"N_COORD97":2542018.6499999999,"ADDRESS":"金華路二段３９巷９５號","OBJECTID":395587},"geometry":{"x":166767.69000000041,"y":2542018.6500000004}},{"attributes":{"ID":395612,"DIS_CODE":0,"TOWNNAME":"南區","LI":"國宅里","LIN":"16鄰","STREET":"金華路","SECT":"二段","MAREA":" ","LANE":"３９巷","ALLEY":" ","HOUSE_NO":"９６號","E_COORD97":166769.17000000001,"N_COORD97":2542035.2999999998,"ADDRESS":"金華路二段３９巷９６號","OBJECTID":395588},"geometry":{"x":166769.16999999993,"y":2542035.3000000007}},{"attributes":{"ID":395613,"DIS_CODE":0,"TOWNNAME":"南區","LI":"國宅里","LIN":"16鄰","STREET":"金華路","SECT":"二段","MAREA":" ","LANE":"３９巷","ALLEY":" ","HOUSE_NO":"９７號","E_COORD97":166761.98999999999,"N_COORD97":2542019.5,"ADDRESS":"金華路二段３９巷９７號","OBJECTID":395589},"geometry":{"x":166761.99000000022,"y":2542019.5}},{"attributes":{"ID":395614,"DIS_CODE":0,"TOWNNAME":"南區","LI":"國宅里","LIN":"16鄰","STREET":"金華路","SECT":"二段","MAREA":" ","LANE":"３９巷","ALLEY":" ","HOUSE_NO":"９８號","E_COORD97":166763.67999999999,"N_COORD97":2542036.5699999998,"ADDRESS":"金華路二段３９巷９８號","OBJECTID":395590},"geometry":{"x":166763.6799999997,"y":2542036.5700000003}},{"attributes":{"ID":395615,"DIS_CODE":0,"TOWNNAME":"南區","LI":"國宅里","LIN":"16鄰","STREET":"金華路","SECT":"二段","MAREA":" ","LANE":"３９巷","ALLEY":" ","HOUSE_NO":"９９號","E_COORD97":166738.34,"N_COORD97":2542018.3999999999,"ADDRESS":"金華路二段３９巷９９號","OBJECTID":395591},"geometry":{"x":166738.34000000078,"y":2542018.4000000041}},{"attributes":{"ID":395616,"DIS_CODE":0,"TOWNNAME":"南區","LI":"國宅里","LIN":"16鄰","STREET":"金華路","SECT":"二段","MAREA":" ","LANE":"３９巷","ALLEY":" ","HOUSE_NO":"１０１號","E_COORD97":166724.54999999999,"N_COORD97":2542020.4199999999,"ADDRESS":"金華路二段３９巷１０１號","OBJECTID":395592},"geometry":{"x":166724.55000000075,"y":2542020.4199999999}},{"attributes":{"ID":395617,"DIS_CODE":0,"TOWNNAME":"南區","LI":"喜北里","LIN":"16鄰","STREET":"喜樹路","SECT":" ","MAREA":" ","LANE":"２２２巷","ALLEY":" ","HOUSE_NO":"５１號","E_COORD97":165461.82999999999,"N_COORD97":2538061.3100000001,"ADDRESS":"喜樹路２２２巷５１號","OBJECTID":395593},"geometry":{"x":165461.83000000101,"y":2538061.3100000005}},{"attributes":{"ID":395618,"DIS_CODE":0,"TOWNNAME":"永康區","LI":"烏竹里","LIN":"16鄰","STREET":"龍橋街","SECT":" ","MAREA":" ","LANE":"２９６巷","ALLEY":" ","HOUSE_NO":"７號","E_COORD97":174544.59,"N_COORD97":2549025.25,"ADDRESS":"龍橋街２９６巷７號","OBJECTID":395594},"geometry":{"x":174544.59000000078,"y":2549025.25}},{"attributes":{"ID":395619,"DIS_CODE":0,"TOWNNAME":"永康區","LI":"烏竹里","LIN":"16鄰","STREET":"龍橋街","SECT":" ","MAREA":" ","LANE":"１８６巷","ALLEY":" ","HOUSE_NO":"７２號","E_COORD97":174761.07000000001,"N_COORD97":2548841.7400000002,"ADDRESS":"龍橋街１８６巷７２號","OBJECTID":395595},"geometry":{"x":174761.0700000003,"y":2548841.7400000021}},{"attributes":{"ID":395620,"DIS_CODE":0,"TOWNNAME":"永康區","LI":"烏竹里","LIN":"16鄰","STREET":"龍橋街","SECT":" ","MAREA":" ","LANE":"２９６巷","ALLEY":" ","HOUSE_NO":"５號","E_COORD97":174541.31,"N_COORD97":2549022.5,"ADDRESS":"龍橋街２９６巷５號","OBJECTID":395596},"geometry":{"x":174541.31000000052,"y":2549022.5000000019}},{"attributes":{"ID":395621,"DIS_CODE":0,"TOWNNAME":"永康區","LI":"烏竹里","LIN":"16鄰","STREET":"龍橋街","SECT":" ","MAREA":" ","LANE":"２９６巷","ALLEY":" ","HOUSE_NO":"１６號","E_COORD97":174554.76999999999,"N_COORD97":2549007.5,"ADDRESS":"龍橋街２９６巷１６號","OBJECTID":395597},"geometry":{"x":174554.77000000048,"y":2549007.5}},{"attributes":{"ID":395622,"DIS_CODE":0,"TOWNNAME":"永康區","LI":"烏竹里","LIN":"16鄰","STREET":"龍橋街","SECT":" ","MAREA":" ","LANE":"１８６巷","ALLEY":" ","HOUSE_NO":"４２號","E_COORD97":174710.63,"N_COORD97":2548801,"ADDRESS":"龍橋街１８６巷４２號","OBJECTID":395598},"geometry":{"x":174710.63000000082,"y":2548801}},{"attributes":{"ID":395623,"DIS_CODE":0,"TOWNNAME":"永康區","LI":"烏竹里","LIN":"16鄰","STREET":"龍橋街","SECT":" ","MAREA":" ","LANE":"２９６巷","ALLEY":" ","HOUSE_NO":"２２號","E_COORD97":174564.34,"N_COORD97":2549016.5,"ADDRESS":"龍橋街２９６巷２２號","OBJECTID":395599},"geometry":{"x":174564.33999999892,"y":2549016.5000000019}},{"attributes":{"ID":395624,"DIS_CODE":0,"TOWNNAME":"永康區","LI":"烏竹里","LIN":"16鄰","STREET":"龍橋街","SECT":" ","MAREA":" ","LANE":"２９６巷","ALLEY":" ","HOUSE_NO":"３３號","E_COORD97":174593.14999999999,"N_COORD97":2549038.75,"ADDRESS":"龍橋街２９６巷３３號","OBJECTID":395600},"geometry":{"x":174593.15000000037,"y":2549038.75}}]}