{"displayFieldName":"TOWNNAME","fieldAliases":{"ID":"ID","DIS_CODE":"DIS_CODE","TOWNNAME":"TOWNNAME","LI":"LI","LIN":"LIN","STREET":"STREET","SECT":"SECT","MAREA":"MAREA","LANE":"LANE","ALLEY":"ALLEY","HOUSE_NO":"HOUSE_NO","E_COORD97":"E_COORD97","N_COORD97":"N_COORD97","ADDRESS":"ADDRESS","OBJECTID":"OBJECTID"},"geometryType":"esriGeometryPoint","spatialReference":{"wkid":102443,"latestWkid":3826},"fields":[{"name":"ID","type":"esriFieldTypeDouble","alias":"ID"},{"name":"DIS_CODE","type":"esriFieldTypeInteger","alias":"DIS_CODE"},{"name":"TOWNNAME","type":"esriFieldTypeString","alias":"TOWNNAME","length":8},{"name":"LI","type":"esriFieldTypeString","alias":"LI","length":8},{"name":"LIN","type":"esriFieldTypeString","alias":"LIN","length":12},{"name":"STREET","type":"esriFieldTypeString","alias":"STREET","length":20},{"name":"SECT","type":"esriFieldTypeString","alias":"SECT","length":8},{"name":"MAREA","type":"esriFieldTypeString","alias":"MAREA","length":12},{"name":"LANE","type":"esriFieldTypeString","alias":"LANE","length":10},{"name":"ALLEY","type":"esriFieldTypeString","alias":"ALLEY","length":10},{"name":"HOUSE_NO","type":"esriFieldTypeString","alias":"HOUSE_NO","length":20},{"name":"E_COORD97","type":"esriFieldTypeDouble","alias":"E_COORD97"},{"name":"N_COORD97","type":"esriFieldTypeDouble","alias":"N_COORD97"},{"name":"ADDRESS","type":"esriFieldTypeString","alias":"ADDRESS","length":50},{"name":"OBJECTID","type":"esriFieldTypeOID","alias":"OBJECTID"}],"features":[{"attributes":{"ID":652228,"DIS_CODE":0,"TOWNNAME":"新營區","LI":"新北里","LIN":"11鄰","STREET":"長榮路","SECT":"二段","MAREA":" ","LANE":" ","ALLEY":" ","HOUSE_NO":"３２９號","E_COORD97":179131.64778199999,"N_COORD97":2579748.5443699998,"ADDRESS":"長榮路二段３２９號","OBJECTID":652201},"geometry":{"x":179131.64778200071,"y":2579748.5443709996}},{"attributes":{"ID":652229,"DIS_CODE":0,"TOWNNAME":"中西區","LI":"光賢里","LIN":"12鄰","STREET":"中華西路","SECT":"二段","MAREA":" ","LANE":" ","ALLEY":" ","HOUSE_NO":"５１２號","E_COORD97":166678.07118500001,"N_COORD97":2544716.31483,"ADDRESS":"中華西路二段５１２號","OBJECTID":652202},"geometry":{"x":166678.07118500117,"y":2544716.3148270007}},{"attributes":{"ID":652230,"DIS_CODE":0,"TOWNNAME":"中西區","LI":"光賢里","LIN":"12鄰","STREET":"中華西路","SECT":"二段","MAREA":" ","LANE":" ","ALLEY":" ","HOUSE_NO":"５１６號","E_COORD97":166678.07118500001,"N_COORD97":2544725.2048200001,"ADDRESS":"中華西路二段５１６號","OBJECTID":652203},"geometry":{"x":166678.07118500117,"y":2544725.2048220038}},{"attributes":{"ID":652231,"DIS_CODE":0,"TOWNNAME":"中西區","LI":"光賢里","LIN":"12鄰","STREET":"中華西路","SECT":"二段","MAREA":" ","LANE":" ","ALLEY":" ","HOUSE_NO":"５１８號","E_COORD97":166678.28315999999,"N_COORD97":2544732.6131500001,"ADDRESS":"中華西路二段５１８號","OBJECTID":652204},"geometry":{"x":166678.28316000104,"y":2544732.6131510008}},{"attributes":{"ID":652232,"DIS_CODE":0,"TOWNNAME":"中西區","LI":"光賢里","LIN":"12鄰","STREET":"中華西路","SECT":"二段","MAREA":" ","LANE":" ","ALLEY":" ","HOUSE_NO":"５２０號二樓之３","E_COORD97":166684.43044900001,"N_COORD97":2544743.1964799999,"ADDRESS":"中華西路二段５２０號二樓之３","OBJECTID":652205},"geometry":{"x":166684.43044900056,"y":2544743.196479002}},{"attributes":{"ID":652233,"DIS_CODE":0,"TOWNNAME":"中西區","LI":"光賢里","LIN":"12鄰","STREET":"中華西路","SECT":"二段","MAREA":" ","LANE":" ","ALLEY":" ","HOUSE_NO":"５２０號二樓之５","E_COORD97":166684.43044900001,"N_COORD97":2544743.1964799999,"ADDRESS":"中華西路二段５２０號二樓之５","OBJECTID":652206},"geometry":{"x":166684.43044900056,"y":2544743.196479002}},{"attributes":{"ID":652234,"DIS_CODE":0,"TOWNNAME":"中西區","LI":"光賢里","LIN":"12鄰","STREET":"中華西路","SECT":"二段","MAREA":" ","LANE":" ","ALLEY":" ","HOUSE_NO":"５２０號二樓之７","E_COORD97":166684.43044900001,"N_COORD97":2544743.1964799999,"ADDRESS":"中華西路二段５２０號二樓之７","OBJECTID":652207},"geometry":{"x":166684.43044900056,"y":2544743.196479002}},{"attributes":{"ID":652235,"DIS_CODE":0,"TOWNNAME":"中西區","LI":"光賢里","LIN":"12鄰","STREET":"中華西路","SECT":"二段","MAREA":" ","LANE":" ","ALLEY":" ","HOUSE_NO":"５２０號二樓之９","E_COORD97":166684.43044900001,"N_COORD97":2544743.1964799999,"ADDRESS":"中華西路二段５２０號二樓之９","OBJECTID":652208},"geometry":{"x":166684.43044900056,"y":2544743.196479002}},{"attributes":{"ID":652236,"DIS_CODE":0,"TOWNNAME":"中西區","LI":"光賢里","LIN":"12鄰","STREET":"中華西路","SECT":"二段","MAREA":" ","LANE":" ","ALLEY":" ","HOUSE_NO":"５２０號二樓之１１","E_COORD97":166684.43044900001,"N_COORD97":2544743.1964799999,"ADDRESS":"中華西路二段５２０號二樓之１１","OBJECTID":652209},"geometry":{"x":166684.43044900056,"y":2544743.196479002}},{"attributes":{"ID":652237,"DIS_CODE":0,"TOWNNAME":"中西區","LI":"光賢里","LIN":"12鄰","STREET":"中華西路","SECT":"二段","MAREA":" ","LANE":" ","ALLEY":" ","HOUSE_NO":"５２０號三樓之２","E_COORD97":166684.43044900001,"N_COORD97":2544743.1964799999,"ADDRESS":"中華西路二段５２０號三樓之２","OBJECTID":652210},"geometry":{"x":166684.43044900056,"y":2544743.196479002}},{"attributes":{"ID":652238,"DIS_CODE":0,"TOWNNAME":"中西區","LI":"光賢里","LIN":"12鄰","STREET":"中華西路","SECT":"二段","MAREA":" ","LANE":" ","ALLEY":" ","HOUSE_NO":"５２０號三樓之６","E_COORD97":166684.43044900001,"N_COORD97":2544743.1964799999,"ADDRESS":"中華西路二段５２０號三樓之６","OBJECTID":652211},"geometry":{"x":166684.43044900056,"y":2544743.196479002}},{"attributes":{"ID":652239,"DIS_CODE":0,"TOWNNAME":"中西區","LI":"光賢里","LIN":"12鄰","STREET":"中華西路","SECT":"二段","MAREA":" ","LANE":" ","ALLEY":" ","HOUSE_NO":"５２０號三樓之８","E_COORD97":166684.43044900001,"N_COORD97":2544743.1964799999,"ADDRESS":"中華西路二段５２０號三樓之８","OBJECTID":652212},"geometry":{"x":166684.43044900056,"y":2544743.196479002}},{"attributes":{"ID":652240,"DIS_CODE":0,"TOWNNAME":"中西區","LI":"光賢里","LIN":"12鄰","STREET":"中華西路","SECT":"二段","MAREA":" ","LANE":" ","ALLEY":" ","HOUSE_NO":"５２０號三樓之１０","E_COORD97":166684.43044900001,"N_COORD97":2544743.1964799999,"ADDRESS":"中華西路二段５２０號三樓之１０","OBJECTID":652213},"geometry":{"x":166684.43044900056,"y":2544743.196479002}},{"attributes":{"ID":652241,"DIS_CODE":0,"TOWNNAME":"中西區","LI":"光賢里","LIN":"12鄰","STREET":"中華西路","SECT":"二段","MAREA":" ","LANE":" ","ALLEY":" ","HOUSE_NO":"５２０號三樓之１２","E_COORD97":166684.43044900001,"N_COORD97":2544743.1964799999,"ADDRESS":"中華西路二段５２０號三樓之１２","OBJECTID":652214},"geometry":{"x":166684.43044900056,"y":2544743.196479002}},{"attributes":{"ID":652242,"DIS_CODE":0,"TOWNNAME":"中西區","LI":"光賢里","LIN":"12鄰","STREET":"中華西路","SECT":"二段","MAREA":" ","LANE":" ","ALLEY":" ","HOUSE_NO":"５２０號三樓之１","E_COORD97":166684.43044900001,"N_COORD97":2544743.1964799999,"ADDRESS":"中華西路二段５２０號三樓之１","OBJECTID":652215},"geometry":{"x":166684.43044900056,"y":2544743.196479002}},{"attributes":{"ID":652243,"DIS_CODE":0,"TOWNNAME":"中西區","LI":"光賢里","LIN":"12鄰","STREET":"中華西路","SECT":"二段","MAREA":" ","LANE":" ","ALLEY":" ","HOUSE_NO":"５２０號三樓之３","E_COORD97":166684.43044900001,"N_COORD97":2544743.1964799999,"ADDRESS":"中華西路二段５２０號三樓之３","OBJECTID":652216},"geometry":{"x":166684.43044900056,"y":2544743.196479002}},{"attributes":{"ID":652244,"DIS_CODE":0,"TOWNNAME":"中西區","LI":"光賢里","LIN":"12鄰","STREET":"中華西路","SECT":"二段","MAREA":" ","LANE":" ","ALLEY":" ","HOUSE_NO":"５２０號三樓之５","E_COORD97":166684.43044900001,"N_COORD97":2544743.1964799999,"ADDRESS":"中華西路二段５２０號三樓之５","OBJECTID":652217},"geometry":{"x":166684.43044900056,"y":2544743.196479002}},{"attributes":{"ID":652245,"DIS_CODE":0,"TOWNNAME":"中西區","LI":"光賢里","LIN":"12鄰","STREET":"中華西路","SECT":"二段","MAREA":" ","LANE":" ","ALLEY":" ","HOUSE_NO":"５２０號三樓之７","E_COORD97":166684.43044900001,"N_COORD97":2544743.1964799999,"ADDRESS":"中華西路二段５２０號三樓之７","OBJECTID":652218},"geometry":{"x":166684.43044900056,"y":2544743.196479002}},{"attributes":{"ID":652246,"DIS_CODE":0,"TOWNNAME":"中西區","LI":"光賢里","LIN":"12鄰","STREET":"中華西路","SECT":"二段","MAREA":" ","LANE":" ","ALLEY":" ","HOUSE_NO":"５２０號三樓之９","E_COORD97":166684.43044900001,"N_COORD97":2544743.1964799999,"ADDRESS":"中華西路二段５２０號三樓之９","OBJECTID":652219},"geometry":{"x":166684.43044900056,"y":2544743.196479002}},{"attributes":{"ID":652247,"DIS_CODE":0,"TOWNNAME":"中西區","LI":"光賢里","LIN":"12鄰","STREET":"中華西路","SECT":"二段","MAREA":" ","LANE":" ","ALLEY":" ","HOUSE_NO":"５２０號三樓之１１","E_COORD97":166684.43044900001,"N_COORD97":2544743.1964799999,"ADDRESS":"中華西路二段５２０號三樓之１１","OBJECTID":652220},"geometry":{"x":166684.43044900056,"y":2544743.196479002}},{"attributes":{"ID":652248,"DIS_CODE":0,"TOWNNAME":"中西區","LI":"光賢里","LIN":"12鄰","STREET":"中華西路","SECT":"二段","MAREA":" ","LANE":" ","ALLEY":" ","HOUSE_NO":"５２０號四樓之２","E_COORD97":166684.43044900001,"N_COORD97":2544743.1964799999,"ADDRESS":"中華西路二段５２０號四樓之２","OBJECTID":652221},"geometry":{"x":166684.43044900056,"y":2544743.196479002}},{"attributes":{"ID":652249,"DIS_CODE":0,"TOWNNAME":"中西區","LI":"光賢里","LIN":"12鄰","STREET":"中華西路","SECT":"二段","MAREA":" ","LANE":" ","ALLEY":" ","HOUSE_NO":"５２０號四樓之６","E_COORD97":166684.43044900001,"N_COORD97":2544743.1964799999,"ADDRESS":"中華西路二段５２０號四樓之６","OBJECTID":652222},"geometry":{"x":166684.43044900056,"y":2544743.196479002}},{"attributes":{"ID":652250,"DIS_CODE":0,"TOWNNAME":"中西區","LI":"光賢里","LIN":"12鄰","STREET":"中華西路","SECT":"二段","MAREA":" ","LANE":" ","ALLEY":" ","HOUSE_NO":"５２０號四樓之８","E_COORD97":166684.43044900001,"N_COORD97":2544743.1964799999,"ADDRESS":"中華西路二段５２０號四樓之８","OBJECTID":652223},"geometry":{"x":166684.43044900056,"y":2544743.196479002}},{"attributes":{"ID":652251,"DIS_CODE":0,"TOWNNAME":"中西區","LI":"光賢里","LIN":"12鄰","STREET":"中華西路","SECT":"二段","MAREA":" ","LANE":" ","ALLEY":" ","HOUSE_NO":"５２０號四樓之１０","E_COORD97":166684.43044900001,"N_COORD97":2544743.1964799999,"ADDRESS":"中華西路二段５２０號四樓之１０","OBJECTID":652224},"geometry":{"x":166684.43044900056,"y":2544743.196479002}},{"attributes":{"ID":652252,"DIS_CODE":0,"TOWNNAME":"中西區","LI":"光賢里","LIN":"12鄰","STREET":"中華西路","SECT":"二段","MAREA":" ","LANE":" ","ALLEY":" ","HOUSE_NO":"５２０號四樓之１２","E_COORD97":166684.43044900001,"N_COORD97":2544743.1964799999,"ADDRESS":"中華西路二段５２０號四樓之１２","OBJECTID":652225},"geometry":{"x":166684.43044900056,"y":2544743.196479002}},{"attributes":{"ID":652253,"DIS_CODE":0,"TOWNNAME":"中西區","LI":"光賢里","LIN":"12鄰","STREET":"中華西路","SECT":"二段","MAREA":" ","LANE":" ","ALLEY":" ","HOUSE_NO":"５２０號四樓之１","E_COORD97":166684.43044900001,"N_COORD97":2544743.1964799999,"ADDRESS":"中華西路二段５２０號四樓之１","OBJECTID":652226},"geometry":{"x":166684.43044900056,"y":2544743.196479002}},{"attributes":{"ID":652254,"DIS_CODE":0,"TOWNNAME":"中西區","LI":"光賢里","LIN":"12鄰","STREET":"中華西路","SECT":"二段","MAREA":" ","LANE":" ","ALLEY":" ","HOUSE_NO":"５２０號四樓之３","E_COORD97":166684.43044900001,"N_COORD97":2544743.1964799999,"ADDRESS":"中華西路二段５２０號四樓之３","OBJECTID":652227},"geometry":{"x":166684.43044900056,"y":2544743.196479002}},{"attributes":{"ID":652255,"DIS_CODE":0,"TOWNNAME":"中西區","LI":"光賢里","LIN":"12鄰","STREET":"中華西路","SECT":"二段","MAREA":" ","LANE":" ","ALLEY":" ","HOUSE_NO":"５２０號四樓之５","E_COORD97":166684.43044900001,"N_COORD97":2544743.1964799999,"ADDRESS":"中華西路二段５２０號四樓之５","OBJECTID":652228},"geometry":{"x":166684.43044900056,"y":2544743.196479002}},{"attributes":{"ID":652256,"DIS_CODE":0,"TOWNNAME":"中西區","LI":"光賢里","LIN":"12鄰","STREET":"中華西路","SECT":"二段","MAREA":" ","LANE":" ","ALLEY":" ","HOUSE_NO":"５２０號四樓之７","E_COORD97":166684.43044900001,"N_COORD97":2544743.1964799999,"ADDRESS":"中華西路二段５２０號四樓之７","OBJECTID":652229},"geometry":{"x":166684.43044900056,"y":2544743.196479002}},{"attributes":{"ID":652257,"DIS_CODE":0,"TOWNNAME":"中西區","LI":"光賢里","LIN":"12鄰","STREET":"中華西路","SECT":"二段","MAREA":" ","LANE":" ","ALLEY":" ","HOUSE_NO":"５２０號四樓之９","E_COORD97":166684.43044900001,"N_COORD97":2544743.1964799999,"ADDRESS":"中華西路二段５２０號四樓之９","OBJECTID":652230},"geometry":{"x":166684.43044900056,"y":2544743.196479002}},{"attributes":{"ID":652258,"DIS_CODE":0,"TOWNNAME":"中西區","LI":"光賢里","LIN":"12鄰","STREET":"中華西路","SECT":"二段","MAREA":" ","LANE":" ","ALLEY":" ","HOUSE_NO":"５２０號四樓之１１","E_COORD97":166684.43044900001,"N_COORD97":2544743.1964799999,"ADDRESS":"中華西路二段５２０號四樓之１１","OBJECTID":652231},"geometry":{"x":166684.43044900056,"y":2544743.196479002}},{"attributes":{"ID":652259,"DIS_CODE":0,"TOWNNAME":"中西區","LI":"光賢里","LIN":"12鄰","STREET":"中華西路","SECT":"二段","MAREA":" ","LANE":" ","ALLEY":" ","HOUSE_NO":"５２０號五樓之２","E_COORD97":166684.43044900001,"N_COORD97":2544743.1964799999,"ADDRESS":"中華西路二段５２０號五樓之２","OBJECTID":652232},"geometry":{"x":166684.43044900056,"y":2544743.196479002}},{"attributes":{"ID":652260,"DIS_CODE":0,"TOWNNAME":"中西區","LI":"光賢里","LIN":"12鄰","STREET":"中華西路","SECT":"二段","MAREA":" ","LANE":" ","ALLEY":" ","HOUSE_NO":"５２０號五樓之６","E_COORD97":166684.43044900001,"N_COORD97":2544743.1964799999,"ADDRESS":"中華西路二段５２０號五樓之６","OBJECTID":652233},"geometry":{"x":166684.43044900056,"y":2544743.196479002}},{"attributes":{"ID":652261,"DIS_CODE":0,"TOWNNAME":"中西區","LI":"光賢里","LIN":"12鄰","STREET":"中華西路","SECT":"二段","MAREA":" ","LANE":" ","ALLEY":" ","HOUSE_NO":"５２０號五樓之８","E_COORD97":166684.43044900001,"N_COORD97":2544743.1964799999,"ADDRESS":"中華西路二段５２０號五樓之８","OBJECTID":652234},"geometry":{"x":166684.43044900056,"y":2544743.196479002}},{"attributes":{"ID":652262,"DIS_CODE":0,"TOWNNAME":"中西區","LI":"光賢里","LIN":"12鄰","STREET":"中華西路","SECT":"二段","MAREA":" ","LANE":" ","ALLEY":" ","HOUSE_NO":"５２０號五樓之１０","E_COORD97":166684.43044900001,"N_COORD97":2544743.1964799999,"ADDRESS":"中華西路二段５２０號五樓之１０","OBJECTID":652235},"geometry":{"x":166684.43044900056,"y":2544743.196479002}},{"attributes":{"ID":652263,"DIS_CODE":0,"TOWNNAME":"中西區","LI":"光賢里","LIN":"12鄰","STREET":"中華西路","SECT":"二段","MAREA":" ","LANE":" ","ALLEY":" ","HOUSE_NO":"５２０號五樓之１２","E_COORD97":166684.43044900001,"N_COORD97":2544743.1964799999,"ADDRESS":"中華西路二段５２０號五樓之１２","OBJECTID":652236},"geometry":{"x":166684.43044900056,"y":2544743.196479002}},{"attributes":{"ID":652264,"DIS_CODE":0,"TOWNNAME":"中西區","LI":"光賢里","LIN":"12鄰","STREET":"中華西路","SECT":"二段","MAREA":" ","LANE":" ","ALLEY":" ","HOUSE_NO":"５２０號五樓之１","E_COORD97":166684.43044900001,"N_COORD97":2544743.1964799999,"ADDRESS":"中華西路二段５２０號五樓之１","OBJECTID":652237},"geometry":{"x":166684.43044900056,"y":2544743.196479002}},{"attributes":{"ID":652265,"DIS_CODE":0,"TOWNNAME":"中西區","LI":"光賢里","LIN":"12鄰","STREET":"中華西路","SECT":"二段","MAREA":" ","LANE":" ","ALLEY":" ","HOUSE_NO":"５２０號五樓之３","E_COORD97":166684.43044900001,"N_COORD97":2544743.1964799999,"ADDRESS":"中華西路二段５２０號五樓之３","OBJECTID":652238},"geometry":{"x":166684.43044900056,"y":2544743.196479002}},{"attributes":{"ID":652266,"DIS_CODE":0,"TOWNNAME":"中西區","LI":"光賢里","LIN":"12鄰","STREET":"中華西路","SECT":"二段","MAREA":" ","LANE":" ","ALLEY":" ","HOUSE_NO":"５２０號五樓之５","E_COORD97":166684.43044900001,"N_COORD97":2544743.1964799999,"ADDRESS":"中華西路二段５２０號五樓之５","OBJECTID":652239},"geometry":{"x":166684.43044900056,"y":2544743.196479002}},{"attributes":{"ID":652267,"DIS_CODE":0,"TOWNNAME":"中西區","LI":"光賢里","LIN":"12鄰","STREET":"中華西路","SECT":"二段","MAREA":" ","LANE":" ","ALLEY":" ","HOUSE_NO":"５２０號五樓之７","E_COORD97":166684.43044900001,"N_COORD97":2544743.1964799999,"ADDRESS":"中華西路二段５２０號五樓之７","OBJECTID":652240},"geometry":{"x":166684.43044900056,"y":2544743.196479002}},{"attributes":{"ID":652268,"DIS_CODE":0,"TOWNNAME":"中西區","LI":"光賢里","LIN":"12鄰","STREET":"中華西路","SECT":"二段","MAREA":" ","LANE":" ","ALLEY":" ","HOUSE_NO":"５２０號五樓之９","E_COORD97":166684.43044900001,"N_COORD97":2544743.1964799999,"ADDRESS":"中華西路二段５２０號五樓之９","OBJECTID":652241},"geometry":{"x":166684.43044900056,"y":2544743.196479002}},{"attributes":{"ID":652269,"DIS_CODE":0,"TOWNNAME":"中西區","LI":"光賢里","LIN":"12鄰","STREET":"中華西路","SECT":"二段","MAREA":" ","LANE":" ","ALLEY":" ","HOUSE_NO":"５２０號五樓之１１","E_COORD97":166684.43044900001,"N_COORD97":2544743.1964799999,"ADDRESS":"中華西路二段５２０號五樓之１１","OBJECTID":652242},"geometry":{"x":166684.43044900056,"y":2544743.196479002}},{"attributes":{"ID":652270,"DIS_CODE":0,"TOWNNAME":"中西區","LI":"光賢里","LIN":"12鄰","STREET":"中華西路","SECT":"二段","MAREA":" ","LANE":" ","ALLEY":" ","HOUSE_NO":"５２０號六樓之２","E_COORD97":166684.43044900001,"N_COORD97":2544743.1964799999,"ADDRESS":"中華西路二段５２０號六樓之２","OBJECTID":652243},"geometry":{"x":166684.43044900056,"y":2544743.196479002}},{"attributes":{"ID":652271,"DIS_CODE":0,"TOWNNAME":"中西區","LI":"光賢里","LIN":"12鄰","STREET":"中華西路","SECT":"二段","MAREA":" ","LANE":" ","ALLEY":" ","HOUSE_NO":"５２０號六樓之６","E_COORD97":166684.43044900001,"N_COORD97":2544743.1964799999,"ADDRESS":"中華西路二段５２０號六樓之６","OBJECTID":652244},"geometry":{"x":166684.43044900056,"y":2544743.196479002}},{"attributes":{"ID":652272,"DIS_CODE":0,"TOWNNAME":"中西區","LI":"光賢里","LIN":"12鄰","STREET":"中華西路","SECT":"二段","MAREA":" ","LANE":" ","ALLEY":" ","HOUSE_NO":"５２０號六樓之８","E_COORD97":166684.43044900001,"N_COORD97":2544743.1964799999,"ADDRESS":"中華西路二段５２０號六樓之８","OBJECTID":652245},"geometry":{"x":166684.43044900056,"y":2544743.196479002}},{"attributes":{"ID":652273,"DIS_CODE":0,"TOWNNAME":"中西區","LI":"光賢里","LIN":"12鄰","STREET":"中華西路","SECT":"二段","MAREA":" ","LANE":" ","ALLEY":" ","HOUSE_NO":"５２０號六樓之１０","E_COORD97":166684.43044900001,"N_COORD97":2544743.1964799999,"ADDRESS":"中華西路二段５２０號六樓之１０","OBJECTID":652246},"geometry":{"x":166684.43044900056,"y":2544743.196479002}},{"attributes":{"ID":652274,"DIS_CODE":0,"TOWNNAME":"中西區","LI":"光賢里","LIN":"12鄰","STREET":"中華西路","SECT":"二段","MAREA":" ","LANE":" ","ALLEY":" ","HOUSE_NO":"５２０號六樓之１２","E_COORD97":166684.43044900001,"N_COORD97":2544743.1964799999,"ADDRESS":"中華西路二段５２０號六樓之１２","OBJECTID":652247},"geometry":{"x":166684.43044900056,"y":2544743.196479002}},{"attributes":{"ID":652275,"DIS_CODE":0,"TOWNNAME":"中西區","LI":"光賢里","LIN":"12鄰","STREET":"中華西路","SECT":"二段","MAREA":" ","LANE":" ","ALLEY":" ","HOUSE_NO":"５２０號六樓之１","E_COORD97":166684.43044900001,"N_COORD97":2544743.1964799999,"ADDRESS":"中華西路二段５２０號六樓之１","OBJECTID":652248},"geometry":{"x":166684.43044900056,"y":2544743.196479002}},{"attributes":{"ID":652276,"DIS_CODE":0,"TOWNNAME":"中西區","LI":"光賢里","LIN":"12鄰","STREET":"中華西路","SECT":"二段","MAREA":" ","LANE":" ","ALLEY":" ","HOUSE_NO":"５２０號六樓之３","E_COORD97":166684.43044900001,"N_COORD97":2544743.1964799999,"ADDRESS":"中華西路二段５２０號六樓之３","OBJECTID":652249},"geometry":{"x":166684.43044900056,"y":2544743.196479002}},{"attributes":{"ID":652277,"DIS_CODE":0,"TOWNNAME":"中西區","LI":"光賢里","LIN":"12鄰","STREET":"中華西路","SECT":"二段","MAREA":" ","LANE":" ","ALLEY":" ","HOUSE_NO":"５２０號六樓之５","E_COORD97":166684.43044900001,"N_COORD97":2544743.1964799999,"ADDRESS":"中華西路二段５２０號六樓之５","OBJECTID":652250},"geometry":{"x":166684.43044900056,"y":2544743.196479002}},{"attributes":{"ID":652278,"DIS_CODE":0,"TOWNNAME":"中西區","LI":"光賢里","LIN":"12鄰","STREET":"中華西路","SECT":"二段","MAREA":" ","LANE":" ","ALLEY":" ","HOUSE_NO":"５２０號六樓之７","E_COORD97":166684.43044900001,"N_COORD97":2544743.1964799999,"ADDRESS":"中華西路二段５２０號六樓之７","OBJECTID":652251},"geometry":{"x":166684.43044900056,"y":2544743.196479002}},{"attributes":{"ID":652279,"DIS_CODE":0,"TOWNNAME":"中西區","LI":"光賢里","LIN":"12鄰","STREET":"中華西路","SECT":"二段","MAREA":" ","LANE":" ","ALLEY":" ","HOUSE_NO":"５２０號六樓之９","E_COORD97":166684.43044900001,"N_COORD97":2544743.1964799999,"ADDRESS":"中華西路二段５２０號六樓之９","OBJECTID":652252},"geometry":{"x":166684.43044900056,"y":2544743.196479002}},{"attributes":{"ID":652280,"DIS_CODE":0,"TOWNNAME":"中西區","LI":"光賢里","LIN":"12鄰","STREET":"中華西路","SECT":"二段","MAREA":" ","LANE":" ","ALLEY":" ","HOUSE_NO":"５２０號六樓之１１","E_COORD97":166684.43044900001,"N_COORD97":2544743.1964799999,"ADDRESS":"中華西路二段５２０號六樓之１１","OBJECTID":652253},"geometry":{"x":166684.43044900056,"y":2544743.196479002}},{"attributes":{"ID":652281,"DIS_CODE":0,"TOWNNAME":"中西區","LI":"光賢里","LIN":"12鄰","STREET":"中華西路","SECT":"二段","MAREA":" ","LANE":" ","ALLEY":" ","HOUSE_NO":"５２０號七樓之２","E_COORD97":166684.43044900001,"N_COORD97":2544743.1964799999,"ADDRESS":"中華西路二段５２０號七樓之２","OBJECTID":652254},"geometry":{"x":166684.43044900056,"y":2544743.196479002}},{"attributes":{"ID":652282,"DIS_CODE":0,"TOWNNAME":"中西區","LI":"光賢里","LIN":"12鄰","STREET":"中華西路","SECT":"二段","MAREA":" ","LANE":" ","ALLEY":" ","HOUSE_NO":"５２０號七樓之６","E_COORD97":166684.43044900001,"N_COORD97":2544743.1964799999,"ADDRESS":"中華西路二段５２０號七樓之６","OBJECTID":652255},"geometry":{"x":166684.43044900056,"y":2544743.196479002}},{"attributes":{"ID":652283,"DIS_CODE":0,"TOWNNAME":"中西區","LI":"光賢里","LIN":"12鄰","STREET":"中華西路","SECT":"二段","MAREA":" ","LANE":" ","ALLEY":" ","HOUSE_NO":"５２０號七樓之８","E_COORD97":166684.43044900001,"N_COORD97":2544743.1964799999,"ADDRESS":"中華西路二段５２０號七樓之８","OBJECTID":652256},"geometry":{"x":166684.43044900056,"y":2544743.196479002}},{"attributes":{"ID":652284,"DIS_CODE":0,"TOWNNAME":"中西區","LI":"光賢里","LIN":"12鄰","STREET":"中華西路","SECT":"二段","MAREA":" ","LANE":" ","ALLEY":" ","HOUSE_NO":"５２０號七樓之１０","E_COORD97":166684.43044900001,"N_COORD97":2544743.1964799999,"ADDRESS":"中華西路二段５２０號七樓之１０","OBJECTID":652257},"geometry":{"x":166684.43044900056,"y":2544743.196479002}},{"attributes":{"ID":652285,"DIS_CODE":0,"TOWNNAME":"中西區","LI":"光賢里","LIN":"12鄰","STREET":"中華西路","SECT":"二段","MAREA":" ","LANE":" ","ALLEY":" ","HOUSE_NO":"５２０號七樓之１２","E_COORD97":166684.43044900001,"N_COORD97":2544743.1964799999,"ADDRESS":"中華西路二段５２０號七樓之１２","OBJECTID":652258},"geometry":{"x":166684.43044900056,"y":2544743.196479002}},{"attributes":{"ID":652286,"DIS_CODE":0,"TOWNNAME":"中西區","LI":"光賢里","LIN":"12鄰","STREET":"中華西路","SECT":"二段","MAREA":" ","LANE":" ","ALLEY":" ","HOUSE_NO":"５２０號七樓之１","E_COORD97":166684.43044900001,"N_COORD97":2544743.1964799999,"ADDRESS":"中華西路二段５２０號七樓之１","OBJECTID":652259},"geometry":{"x":166684.43044900056,"y":2544743.196479002}},{"attributes":{"ID":652287,"DIS_CODE":0,"TOWNNAME":"中西區","LI":"光賢里","LIN":"12鄰","STREET":"中華西路","SECT":"二段","MAREA":" ","LANE":" ","ALLEY":" ","HOUSE_NO":"５２０號七樓之３","E_COORD97":166684.43044900001,"N_COORD97":2544743.1964799999,"ADDRESS":"中華西路二段５２０號七樓之３","OBJECTID":652260},"geometry":{"x":166684.43044900056,"y":2544743.196479002}},{"attributes":{"ID":652288,"DIS_CODE":0,"TOWNNAME":"中西區","LI":"光賢里","LIN":"12鄰","STREET":"中華西路","SECT":"二段","MAREA":" ","LANE":" ","ALLEY":" ","HOUSE_NO":"５２０號七樓之５","E_COORD97":166684.43044900001,"N_COORD97":2544743.1964799999,"ADDRESS":"中華西路二段５２０號七樓之５","OBJECTID":652261},"geometry":{"x":166684.43044900056,"y":2544743.196479002}},{"attributes":{"ID":652289,"DIS_CODE":0,"TOWNNAME":"中西區","LI":"光賢里","LIN":"12鄰","STREET":"中華西路","SECT":"二段","MAREA":" ","LANE":" ","ALLEY":" ","HOUSE_NO":"５２０號七樓之７","E_COORD97":166684.43044900001,"N_COORD97":2544743.1964799999,"ADDRESS":"中華西路二段５２０號七樓之７","OBJECTID":652262},"geometry":{"x":166684.43044900056,"y":2544743.196479002}},{"attributes":{"ID":652290,"DIS_CODE":0,"TOWNNAME":"中西區","LI":"光賢里","LIN":"12鄰","STREET":"中華西路","SECT":"二段","MAREA":" ","LANE":" ","ALLEY":" ","HOUSE_NO":"５２０號七樓之９","E_COORD97":166684.43044900001,"N_COORD97":2544743.1964799999,"ADDRESS":"中華西路二段５２０號七樓之９","OBJECTID":652263},"geometry":{"x":166684.43044900056,"y":2544743.196479002}},{"attributes":{"ID":652291,"DIS_CODE":0,"TOWNNAME":"中西區","LI":"光賢里","LIN":"12鄰","STREET":"中華西路","SECT":"二段","MAREA":" ","LANE":" ","ALLEY":" ","HOUSE_NO":"５２０號七樓之１１","E_COORD97":166684.43044900001,"N_COORD97":2544743.1964799999,"ADDRESS":"中華西路二段５２０號七樓之１１","OBJECTID":652264},"geometry":{"x":166684.43044900056,"y":2544743.196479002}},{"attributes":{"ID":652292,"DIS_CODE":0,"TOWNNAME":"中西區","LI":"光賢里","LIN":"12鄰","STREET":"中華西路","SECT":"二段","MAREA":" ","LANE":" ","ALLEY":" ","HOUSE_NO":"５２０號八樓之２","E_COORD97":166684.43044900001,"N_COORD97":2544743.1964799999,"ADDRESS":"中華西路二段５２０號八樓之２","OBJECTID":652265},"geometry":{"x":166684.43044900056,"y":2544743.196479002}},{"attributes":{"ID":652293,"DIS_CODE":0,"TOWNNAME":"中西區","LI":"光賢里","LIN":"12鄰","STREET":"中華西路","SECT":"二段","MAREA":" ","LANE":" ","ALLEY":" ","HOUSE_NO":"５２０號八樓之６","E_COORD97":166684.43044900001,"N_COORD97":2544743.1964799999,"ADDRESS":"中華西路二段５２０號八樓之６","OBJECTID":652266},"geometry":{"x":166684.43044900056,"y":2544743.196479002}},{"attributes":{"ID":652294,"DIS_CODE":0,"TOWNNAME":"中西區","LI":"光賢里","LIN":"12鄰","STREET":"中華西路","SECT":"二段","MAREA":" ","LANE":" ","ALLEY":" ","HOUSE_NO":"５２０號八樓之８","E_COORD97":166684.43044900001,"N_COORD97":2544743.1964799999,"ADDRESS":"中華西路二段５２０號八樓之８","OBJECTID":652267},"geometry":{"x":166684.43044900056,"y":2544743.196479002}},{"attributes":{"ID":652295,"DIS_CODE":0,"TOWNNAME":"中西區","LI":"光賢里","LIN":"12鄰","STREET":"中華西路","SECT":"二段","MAREA":" ","LANE":" ","ALLEY":" ","HOUSE_NO":"５２０號八樓之１０","E_COORD97":166684.43044900001,"N_COORD97":2544743.1964799999,"ADDRESS":"中華西路二段５２０號八樓之１０","OBJECTID":652268},"geometry":{"x":166684.43044900056,"y":2544743.196479002}},{"attributes":{"ID":652296,"DIS_CODE":0,"TOWNNAME":"中西區","LI":"光賢里","LIN":"12鄰","STREET":"中華西路","SECT":"二段","MAREA":" ","LANE":" ","ALLEY":" ","HOUSE_NO":"５２０號八樓之１２","E_COORD97":166684.43044900001,"N_COORD97":2544743.1964799999,"ADDRESS":"中華西路二段５２０號八樓之１２","OBJECTID":652269},"geometry":{"x":166684.43044900056,"y":2544743.196479002}},{"attributes":{"ID":652297,"DIS_CODE":0,"TOWNNAME":"中西區","LI":"光賢里","LIN":"12鄰","STREET":"中華西路","SECT":"二段","MAREA":" ","LANE":" ","ALLEY":" ","HOUSE_NO":"５２０號八樓之１","E_COORD97":166684.43044900001,"N_COORD97":2544743.1964799999,"ADDRESS":"中華西路二段５２０號八樓之１","OBJECTID":652270},"geometry":{"x":166684.43044900056,"y":2544743.196479002}},{"attributes":{"ID":652298,"DIS_CODE":0,"TOWNNAME":"中西區","LI":"光賢里","LIN":"12鄰","STREET":"中華西路","SECT":"二段","MAREA":" ","LANE":" ","ALLEY":" ","HOUSE_NO":"５２０號八樓之３","E_COORD97":166684.43044900001,"N_COORD97":2544743.1964799999,"ADDRESS":"中華西路二段５２０號八樓之３","OBJECTID":652271},"geometry":{"x":166684.43044900056,"y":2544743.196479002}},{"attributes":{"ID":652299,"DIS_CODE":0,"TOWNNAME":"中西區","LI":"光賢里","LIN":"12鄰","STREET":"中華西路","SECT":"二段","MAREA":" ","LANE":" ","ALLEY":" ","HOUSE_NO":"５２０號八樓之５","E_COORD97":166684.43044900001,"N_COORD97":2544743.1964799999,"ADDRESS":"中華西路二段５２０號八樓之５","OBJECTID":652272},"geometry":{"x":166684.43044900056,"y":2544743.196479002}},{"attributes":{"ID":652300,"DIS_CODE":0,"TOWNNAME":"中西區","LI":"光賢里","LIN":"12鄰","STREET":"中華西路","SECT":"二段","MAREA":" ","LANE":" ","ALLEY":" ","HOUSE_NO":"５２０號八樓之７","E_COORD97":166684.43044900001,"N_COORD97":2544743.1964799999,"ADDRESS":"中華西路二段５２０號八樓之７","OBJECTID":652273},"geometry":{"x":166684.43044900056,"y":2544743.196479002}},{"attributes":{"ID":652301,"DIS_CODE":0,"TOWNNAME":"中西區","LI":"光賢里","LIN":"12鄰","STREET":"中華西路","SECT":"二段","MAREA":" ","LANE":" ","ALLEY":" ","HOUSE_NO":"５２０號八樓之９","E_COORD97":166684.43044900001,"N_COORD97":2544743.1964799999,"ADDRESS":"中華西路二段５２０號八樓之９","OBJECTID":652274},"geometry":{"x":166684.43044900056,"y":2544743.196479002}},{"attributes":{"ID":652302,"DIS_CODE":0,"TOWNNAME":"中西區","LI":"光賢里","LIN":"12鄰","STREET":"中華西路","SECT":"二段","MAREA":" ","LANE":" ","ALLEY":" ","HOUSE_NO":"５２０號八樓之１１","E_COORD97":166684.43044900001,"N_COORD97":2544743.1964799999,"ADDRESS":"中華西路二段５２０號八樓之１１","OBJECTID":652275},"geometry":{"x":166684.43044900056,"y":2544743.196479002}},{"attributes":{"ID":652303,"DIS_CODE":0,"TOWNNAME":"中西區","LI":"光賢里","LIN":"12鄰","STREET":"中華西路","SECT":"二段","MAREA":" ","LANE":" ","ALLEY":" ","HOUSE_NO":"５２０號九樓之２","E_COORD97":166684.43044900001,"N_COORD97":2544743.1964799999,"ADDRESS":"中華西路二段５２０號九樓之２","OBJECTID":652276},"geometry":{"x":166684.43044900056,"y":2544743.196479002}},{"attributes":{"ID":652304,"DIS_CODE":0,"TOWNNAME":"中西區","LI":"光賢里","LIN":"12鄰","STREET":"中華西路","SECT":"二段","MAREA":" ","LANE":" ","ALLEY":" ","HOUSE_NO":"５２０號九樓之６","E_COORD97":166684.43044900001,"N_COORD97":2544743.1964799999,"ADDRESS":"中華西路二段５２０號九樓之６","OBJECTID":652277},"geometry":{"x":166684.43044900056,"y":2544743.196479002}},{"attributes":{"ID":652305,"DIS_CODE":0,"TOWNNAME":"中西區","LI":"光賢里","LIN":"12鄰","STREET":"中華西路","SECT":"二段","MAREA":" ","LANE":" ","ALLEY":" ","HOUSE_NO":"５２０號九樓之８","E_COORD97":166684.43044900001,"N_COORD97":2544743.1964799999,"ADDRESS":"中華西路二段５２０號九樓之８","OBJECTID":652278},"geometry":{"x":166684.43044900056,"y":2544743.196479002}},{"attributes":{"ID":652306,"DIS_CODE":0,"TOWNNAME":"中西區","LI":"光賢里","LIN":"12鄰","STREET":"中華西路","SECT":"二段","MAREA":" ","LANE":" ","ALLEY":" ","HOUSE_NO":"５２０號九樓之１０","E_COORD97":166684.43044900001,"N_COORD97":2544743.1964799999,"ADDRESS":"中華西路二段５２０號九樓之１０","OBJECTID":652279},"geometry":{"x":166684.43044900056,"y":2544743.196479002}},{"attributes":{"ID":652307,"DIS_CODE":0,"TOWNNAME":"中西區","LI":"光賢里","LIN":"12鄰","STREET":"中華西路","SECT":"二段","MAREA":" ","LANE":" ","ALLEY":" ","HOUSE_NO":"５２０號九樓之１","E_COORD97":166684.43044900001,"N_COORD97":2544743.1964799999,"ADDRESS":"中華西路二段５２０號九樓之１","OBJECTID":652280},"geometry":{"x":166684.43044900056,"y":2544743.196479002}},{"attributes":{"ID":652308,"DIS_CODE":0,"TOWNNAME":"中西區","LI":"光賢里","LIN":"12鄰","STREET":"中華西路","SECT":"二段","MAREA":" ","LANE":" ","ALLEY":" ","HOUSE_NO":"５２０號九樓之３","E_COORD97":166684.43044900001,"N_COORD97":2544743.1964799999,"ADDRESS":"中華西路二段５２０號九樓之３","OBJECTID":652281},"geometry":{"x":166684.43044900056,"y":2544743.196479002}},{"attributes":{"ID":652309,"DIS_CODE":0,"TOWNNAME":"中西區","LI":"光賢里","LIN":"12鄰","STREET":"中華西路","SECT":"二段","MAREA":" ","LANE":" ","ALLEY":" ","HOUSE_NO":"５２０號九樓之５","E_COORD97":166684.43044900001,"N_COORD97":2544743.1964799999,"ADDRESS":"中華西路二段５２０號九樓之５","OBJECTID":652282},"geometry":{"x":166684.43044900056,"y":2544743.196479002}},{"attributes":{"ID":652310,"DIS_CODE":0,"TOWNNAME":"中西區","LI":"光賢里","LIN":"12鄰","STREET":"中華西路","SECT":"二段","MAREA":" ","LANE":" ","ALLEY":" ","HOUSE_NO":"５２０號九樓之７","E_COORD97":166684.43044900001,"N_COORD97":2544743.1964799999,"ADDRESS":"中華西路二段５２０號九樓之７","OBJECTID":652283},"geometry":{"x":166684.43044900056,"y":2544743.196479002}},{"attributes":{"ID":652311,"DIS_CODE":0,"TOWNNAME":"中西區","LI":"光賢里","LIN":"12鄰","STREET":"中華西路","SECT":"二段","MAREA":" ","LANE":" ","ALLEY":" ","HOUSE_NO":"５２０號九樓之９","E_COORD97":166684.43044900001,"N_COORD97":2544743.1964799999,"ADDRESS":"中華西路二段５２０號九樓之９","OBJECTID":652284},"geometry":{"x":166684.43044900056,"y":2544743.196479002}},{"attributes":{"ID":652312,"DIS_CODE":0,"TOWNNAME":"中西區","LI":"光賢里","LIN":"12鄰","STREET":"中華西路","SECT":"二段","MAREA":" ","LANE":" ","ALLEY":" ","HOUSE_NO":"５２０號九樓之１１","E_COORD97":166684.43044900001,"N_COORD97":2544743.1964799999,"ADDRESS":"中華西路二段５２０號九樓之１１","OBJECTID":652285},"geometry":{"x":166684.43044900056,"y":2544743.196479002}},{"attributes":{"ID":652313,"DIS_CODE":0,"TOWNNAME":"中西區","LI":"光賢里","LIN":"12鄰","STREET":"中華西路","SECT":"二段","MAREA":" ","LANE":" ","ALLEY":" ","HOUSE_NO":"５２０號十樓之２","E_COORD97":166684.43044900001,"N_COORD97":2544743.1964799999,"ADDRESS":"中華西路二段５２０號十樓之２","OBJECTID":652286},"geometry":{"x":166684.43044900056,"y":2544743.196479002}},{"attributes":{"ID":652314,"DIS_CODE":0,"TOWNNAME":"中西區","LI":"光賢里","LIN":"12鄰","STREET":"中華西路","SECT":"二段","MAREA":" ","LANE":" ","ALLEY":" ","HOUSE_NO":"５２０號十樓之６","E_COORD97":166684.43044900001,"N_COORD97":2544743.1964799999,"ADDRESS":"中華西路二段５２０號十樓之６","OBJECTID":652287},"geometry":{"x":166684.43044900056,"y":2544743.196479002}},{"attributes":{"ID":652315,"DIS_CODE":0,"TOWNNAME":"中西區","LI":"光賢里","LIN":"12鄰","STREET":"中華西路","SECT":"二段","MAREA":" ","LANE":" ","ALLEY":" ","HOUSE_NO":"５２０號十樓之８","E_COORD97":166684.43044900001,"N_COORD97":2544743.1964799999,"ADDRESS":"中華西路二段５２０號十樓之８","OBJECTID":652288},"geometry":{"x":166684.43044900056,"y":2544743.196479002}},{"attributes":{"ID":652316,"DIS_CODE":0,"TOWNNAME":"中西區","LI":"光賢里","LIN":"12鄰","STREET":"中華西路","SECT":"二段","MAREA":" ","LANE":" ","ALLEY":" ","HOUSE_NO":"５２０號十樓之１０","E_COORD97":166684.43044900001,"N_COORD97":2544743.1964799999,"ADDRESS":"中華西路二段５２０號十樓之１０","OBJECTID":652289},"geometry":{"x":166684.43044900056,"y":2544743.196479002}},{"attributes":{"ID":652317,"DIS_CODE":0,"TOWNNAME":"中西區","LI":"光賢里","LIN":"12鄰","STREET":"中華西路","SECT":"二段","MAREA":" ","LANE":" ","ALLEY":" ","HOUSE_NO":"５２０號十樓之１２","E_COORD97":166684.43044900001,"N_COORD97":2544743.1964799999,"ADDRESS":"中華西路二段５２０號十樓之１２","OBJECTID":652290},"geometry":{"x":166684.43044900056,"y":2544743.196479002}},{"attributes":{"ID":652318,"DIS_CODE":0,"TOWNNAME":"中西區","LI":"光賢里","LIN":"12鄰","STREET":"中華西路","SECT":"二段","MAREA":" ","LANE":" ","ALLEY":" ","HOUSE_NO":"５２０號十樓之１","E_COORD97":166684.43044900001,"N_COORD97":2544743.1964799999,"ADDRESS":"中華西路二段５２０號十樓之１","OBJECTID":652291},"geometry":{"x":166684.43044900056,"y":2544743.196479002}},{"attributes":{"ID":652319,"DIS_CODE":0,"TOWNNAME":"中西區","LI":"光賢里","LIN":"12鄰","STREET":"中華西路","SECT":"二段","MAREA":" ","LANE":" ","ALLEY":" ","HOUSE_NO":"５２０號十樓之３","E_COORD97":166684.43044900001,"N_COORD97":2544743.1964799999,"ADDRESS":"中華西路二段５２０號十樓之３","OBJECTID":652292},"geometry":{"x":166684.43044900056,"y":2544743.196479002}},{"attributes":{"ID":652320,"DIS_CODE":0,"TOWNNAME":"中西區","LI":"光賢里","LIN":"12鄰","STREET":"中華西路","SECT":"二段","MAREA":" ","LANE":" ","ALLEY":" ","HOUSE_NO":"５２０號十樓之５","E_COORD97":166684.43044900001,"N_COORD97":2544743.1964799999,"ADDRESS":"中華西路二段５２０號十樓之５","OBJECTID":652293},"geometry":{"x":166684.43044900056,"y":2544743.196479002}},{"attributes":{"ID":652321,"DIS_CODE":0,"TOWNNAME":"中西區","LI":"光賢里","LIN":"12鄰","STREET":"中華西路","SECT":"二段","MAREA":" ","LANE":" ","ALLEY":" ","HOUSE_NO":"５２０號十樓之７","E_COORD97":166684.43044900001,"N_COORD97":2544743.1964799999,"ADDRESS":"中華西路二段５２０號十樓之７","OBJECTID":652294},"geometry":{"x":166684.43044900056,"y":2544743.196479002}},{"attributes":{"ID":652322,"DIS_CODE":0,"TOWNNAME":"中西區","LI":"光賢里","LIN":"12鄰","STREET":"中華西路","SECT":"二段","MAREA":" ","LANE":" ","ALLEY":" ","HOUSE_NO":"５２０號十樓之９","E_COORD97":166684.43044900001,"N_COORD97":2544743.1964799999,"ADDRESS":"中華西路二段５２０號十樓之９","OBJECTID":652295},"geometry":{"x":166684.43044900056,"y":2544743.196479002}},{"attributes":{"ID":652323,"DIS_CODE":0,"TOWNNAME":"中西區","LI":"光賢里","LIN":"12鄰","STREET":"中華西路","SECT":"二段","MAREA":" ","LANE":" ","ALLEY":" ","HOUSE_NO":"５２０號十樓之１１","E_COORD97":166684.43044900001,"N_COORD97":2544743.1964799999,"ADDRESS":"中華西路二段５２０號十樓之１１","OBJECTID":652296},"geometry":{"x":166684.43044900056,"y":2544743.196479002}},{"attributes":{"ID":652324,"DIS_CODE":0,"TOWNNAME":"中西區","LI":"光賢里","LIN":"12鄰","STREET":"中華西路","SECT":"二段","MAREA":" ","LANE":" ","ALLEY":" ","HOUSE_NO":"５２０號十一樓之２","E_COORD97":166684.43044900001,"N_COORD97":2544743.1964799999,"ADDRESS":"中華西路二段５２０號十一樓之２","OBJECTID":652297},"geometry":{"x":166684.43044900056,"y":2544743.196479002}},{"attributes":{"ID":652325,"DIS_CODE":0,"TOWNNAME":"中西區","LI":"光賢里","LIN":"12鄰","STREET":"中華西路","SECT":"二段","MAREA":" ","LANE":" ","ALLEY":" ","HOUSE_NO":"５２０號十一樓之６","E_COORD97":166684.43044900001,"N_COORD97":2544743.1964799999,"ADDRESS":"中華西路二段５２０號十一樓之６","OBJECTID":652298},"geometry":{"x":166684.43044900056,"y":2544743.196479002}},{"attributes":{"ID":652326,"DIS_CODE":0,"TOWNNAME":"中西區","LI":"光賢里","LIN":"12鄰","STREET":"中華西路","SECT":"二段","MAREA":" ","LANE":" ","ALLEY":" ","HOUSE_NO":"５２０號十一樓之８","E_COORD97":166684.43044900001,"N_COORD97":2544743.1964799999,"ADDRESS":"中華西路二段５２０號十一樓之８","OBJECTID":652299},"geometry":{"x":166684.43044900056,"y":2544743.196479002}},{"attributes":{"ID":652327,"DIS_CODE":0,"TOWNNAME":"中西區","LI":"光賢里","LIN":"12鄰","STREET":"中華西路","SECT":"二段","MAREA":" ","LANE":" ","ALLEY":" ","HOUSE_NO":"５２０號十一樓之１０","E_COORD97":166684.43044900001,"N_COORD97":2544743.1964799999,"ADDRESS":"中華西路二段５２０號十一樓之１０","OBJECTID":652300},"geometry":{"x":166684.43044900056,"y":2544743.196479002}},{"attributes":{"ID":652328,"DIS_CODE":0,"TOWNNAME":"中西區","LI":"光賢里","LIN":"12鄰","STREET":"中華西路","SECT":"二段","MAREA":" ","LANE":" ","ALLEY":" ","HOUSE_NO":"５２０號十一樓之１２","E_COORD97":166684.43044900001,"N_COORD97":2544743.1964799999,"ADDRESS":"中華西路二段５２０號十一樓之１２","OBJECTID":652301},"geometry":{"x":166684.43044900056,"y":2544743.196479002}},{"attributes":{"ID":652329,"DIS_CODE":0,"TOWNNAME":"中西區","LI":"光賢里","LIN":"12鄰","STREET":"中華西路","SECT":"二段","MAREA":" ","LANE":" ","ALLEY":" ","HOUSE_NO":"５２０號十一樓之１","E_COORD97":166684.43044900001,"N_COORD97":2544743.1964799999,"ADDRESS":"中華西路二段５２０號十一樓之１","OBJECTID":652302},"geometry":{"x":166684.43044900056,"y":2544743.196479002}},{"attributes":{"ID":652330,"DIS_CODE":0,"TOWNNAME":"中西區","LI":"光賢里","LIN":"12鄰","STREET":"中華西路","SECT":"二段","MAREA":" ","LANE":" ","ALLEY":" ","HOUSE_NO":"５２０號十一樓之３","E_COORD97":166684.43044900001,"N_COORD97":2544743.1964799999,"ADDRESS":"中華西路二段５２０號十一樓之３","OBJECTID":652303},"geometry":{"x":166684.43044900056,"y":2544743.196479002}},{"attributes":{"ID":652331,"DIS_CODE":0,"TOWNNAME":"中西區","LI":"光賢里","LIN":"12鄰","STREET":"中華西路","SECT":"二段","MAREA":" ","LANE":" ","ALLEY":" ","HOUSE_NO":"５２０號十一樓之５","E_COORD97":166684.43044900001,"N_COORD97":2544743.1964799999,"ADDRESS":"中華西路二段５２０號十一樓之５","OBJECTID":652304},"geometry":{"x":166684.43044900056,"y":2544743.196479002}},{"attributes":{"ID":652332,"DIS_CODE":0,"TOWNNAME":"中西區","LI":"光賢里","LIN":"12鄰","STREET":"中華西路","SECT":"二段","MAREA":" ","LANE":" ","ALLEY":" ","HOUSE_NO":"５２０號十一樓之７","E_COORD97":166684.43044900001,"N_COORD97":2544743.1964799999,"ADDRESS":"中華西路二段５２０號十一樓之７","OBJECTID":652305},"geometry":{"x":166684.43044900056,"y":2544743.196479002}},{"attributes":{"ID":652333,"DIS_CODE":0,"TOWNNAME":"中西區","LI":"光賢里","LIN":"12鄰","STREET":"中華西路","SECT":"二段","MAREA":" ","LANE":" ","ALLEY":" ","HOUSE_NO":"５２０號十一樓之９","E_COORD97":166684.43044900001,"N_COORD97":2544743.1964799999,"ADDRESS":"中華西路二段５２０號十一樓之９","OBJECTID":652306},"geometry":{"x":166684.43044900056,"y":2544743.196479002}},{"attributes":{"ID":652334,"DIS_CODE":0,"TOWNNAME":"中西區","LI":"光賢里","LIN":"12鄰","STREET":"中華西路","SECT":"二段","MAREA":" ","LANE":" ","ALLEY":" ","HOUSE_NO":"５２０號十一樓之１１","E_COORD97":166684.43044900001,"N_COORD97":2544743.1964799999,"ADDRESS":"中華西路二段５２０號十一樓之１１","OBJECTID":652307},"geometry":{"x":166684.43044900056,"y":2544743.196479002}},{"attributes":{"ID":652335,"DIS_CODE":0,"TOWNNAME":"中西區","LI":"光賢里","LIN":"12鄰","STREET":"中華西路","SECT":"二段","MAREA":" ","LANE":" ","ALLEY":" ","HOUSE_NO":"５２０號十二樓之２","E_COORD97":166684.43044900001,"N_COORD97":2544743.1964799999,"ADDRESS":"中華西路二段５２０號十二樓之２","OBJECTID":652308},"geometry":{"x":166684.43044900056,"y":2544743.196479002}},{"attributes":{"ID":652336,"DIS_CODE":0,"TOWNNAME":"中西區","LI":"光賢里","LIN":"12鄰","STREET":"中華西路","SECT":"二段","MAREA":" ","LANE":" ","ALLEY":" ","HOUSE_NO":"５２０號十二樓之６","E_COORD97":166684.43044900001,"N_COORD97":2544743.1964799999,"ADDRESS":"中華西路二段５２０號十二樓之６","OBJECTID":652309},"geometry":{"x":166684.43044900056,"y":2544743.196479002}},{"attributes":{"ID":652337,"DIS_CODE":0,"TOWNNAME":"中西區","LI":"光賢里","LIN":"12鄰","STREET":"中華西路","SECT":"二段","MAREA":" ","LANE":" ","ALLEY":" ","HOUSE_NO":"５２０號十二樓之８","E_COORD97":166684.43044900001,"N_COORD97":2544743.1964799999,"ADDRESS":"中華西路二段５２０號十二樓之８","OBJECTID":652310},"geometry":{"x":166684.43044900056,"y":2544743.196479002}},{"attributes":{"ID":652338,"DIS_CODE":0,"TOWNNAME":"中西區","LI":"光賢里","LIN":"12鄰","STREET":"中華西路","SECT":"二段","MAREA":" ","LANE":" ","ALLEY":" ","HOUSE_NO":"５２０號十二樓之１０","E_COORD97":166684.43044900001,"N_COORD97":2544743.1964799999,"ADDRESS":"中華西路二段５２０號十二樓之１０","OBJECTID":652311},"geometry":{"x":166684.43044900056,"y":2544743.196479002}},{"attributes":{"ID":652339,"DIS_CODE":0,"TOWNNAME":"中西區","LI":"光賢里","LIN":"12鄰","STREET":"中華西路","SECT":"二段","MAREA":" ","LANE":" ","ALLEY":" ","HOUSE_NO":"５２０號十二樓之１２","E_COORD97":166684.43044900001,"N_COORD97":2544743.1964799999,"ADDRESS":"中華西路二段５２０號十二樓之１２","OBJECTID":652312},"geometry":{"x":166684.43044900056,"y":2544743.196479002}},{"attributes":{"ID":652340,"DIS_CODE":0,"TOWNNAME":"中西區","LI":"光賢里","LIN":"12鄰","STREET":"中華西路","SECT":"二段","MAREA":" ","LANE":" ","ALLEY":" ","HOUSE_NO":"５２０號十二樓之１","E_COORD97":166684.43044900001,"N_COORD97":2544743.1964799999,"ADDRESS":"中華西路二段５２０號十二樓之１","OBJECTID":652313},"geometry":{"x":166684.43044900056,"y":2544743.196479002}},{"attributes":{"ID":652341,"DIS_CODE":0,"TOWNNAME":"中西區","LI":"光賢里","LIN":"12鄰","STREET":"中華西路","SECT":"二段","MAREA":" ","LANE":" ","ALLEY":" ","HOUSE_NO":"５２０號十二樓之３","E_COORD97":166684.43044900001,"N_COORD97":2544743.1964799999,"ADDRESS":"中華西路二段５２０號十二樓之３","OBJECTID":652314},"geometry":{"x":166684.43044900056,"y":2544743.196479002}},{"attributes":{"ID":652342,"DIS_CODE":0,"TOWNNAME":"中西區","LI":"光賢里","LIN":"12鄰","STREET":"中華西路","SECT":"二段","MAREA":" ","LANE":" ","ALLEY":" ","HOUSE_NO":"５２０號十二樓之５","E_COORD97":166684.43044900001,"N_COORD97":2544743.1964799999,"ADDRESS":"中華西路二段５２０號十二樓之５","OBJECTID":652315},"geometry":{"x":166684.43044900056,"y":2544743.196479002}},{"attributes":{"ID":652343,"DIS_CODE":0,"TOWNNAME":"中西區","LI":"光賢里","LIN":"12鄰","STREET":"中華西路","SECT":"二段","MAREA":" ","LANE":" ","ALLEY":" ","HOUSE_NO":"５２０號十二樓之７","E_COORD97":166684.43044900001,"N_COORD97":2544743.1964799999,"ADDRESS":"中華西路二段５２０號十二樓之７","OBJECTID":652316},"geometry":{"x":166684.43044900056,"y":2544743.196479002}},{"attributes":{"ID":652344,"DIS_CODE":0,"TOWNNAME":"中西區","LI":"光賢里","LIN":"12鄰","STREET":"中華西路","SECT":"二段","MAREA":" ","LANE":" ","ALLEY":" ","HOUSE_NO":"５２０號十二樓之９","E_COORD97":166684.43044900001,"N_COORD97":2544743.1964799999,"ADDRESS":"中華西路二段５２０號十二樓之９","OBJECTID":652317},"geometry":{"x":166684.43044900056,"y":2544743.196479002}},{"attributes":{"ID":652345,"DIS_CODE":0,"TOWNNAME":"中西區","LI":"光賢里","LIN":"12鄰","STREET":"中華西路","SECT":"二段","MAREA":" ","LANE":" ","ALLEY":" ","HOUSE_NO":"５２０號十二樓之１１","E_COORD97":166684.43044900001,"N_COORD97":2544743.1964799999,"ADDRESS":"中華西路二段５２０號十二樓之１１","OBJECTID":652318},"geometry":{"x":166684.43044900056,"y":2544743.196479002}},{"attributes":{"ID":652346,"DIS_CODE":0,"TOWNNAME":"中西區","LI":"光賢里","LIN":"12鄰","STREET":"中華西路","SECT":"二段","MAREA":" ","LANE":" ","ALLEY":" ","HOUSE_NO":"５２０號十三樓之２","E_COORD97":166684.43044900001,"N_COORD97":2544743.1964799999,"ADDRESS":"中華西路二段５２０號十三樓之２","OBJECTID":652319},"geometry":{"x":166684.43044900056,"y":2544743.196479002}},{"attributes":{"ID":652347,"DIS_CODE":0,"TOWNNAME":"中西區","LI":"光賢里","LIN":"12鄰","STREET":"中華西路","SECT":"二段","MAREA":" ","LANE":" ","ALLEY":" ","HOUSE_NO":"５２０號十三樓之１０","E_COORD97":166684.43044900001,"N_COORD97":2544743.1964799999,"ADDRESS":"中華西路二段５２０號十三樓之１０","OBJECTID":652320},"geometry":{"x":166684.43044900056,"y":2544743.196479002}},{"attributes":{"ID":652348,"DIS_CODE":0,"TOWNNAME":"中西區","LI":"光賢里","LIN":"12鄰","STREET":"中華西路","SECT":"二段","MAREA":" ","LANE":" ","ALLEY":" ","HOUSE_NO":"５２０號十三樓之１２","E_COORD97":166684.43044900001,"N_COORD97":2544743.1964799999,"ADDRESS":"中華西路二段５２０號十三樓之１２","OBJECTID":652321},"geometry":{"x":166684.43044900056,"y":2544743.196479002}},{"attributes":{"ID":652349,"DIS_CODE":0,"TOWNNAME":"中西區","LI":"光賢里","LIN":"12鄰","STREET":"中華西路","SECT":"二段","MAREA":" ","LANE":" ","ALLEY":" ","HOUSE_NO":"５２０號十三樓之１","E_COORD97":166684.43044900001,"N_COORD97":2544743.1964799999,"ADDRESS":"中華西路二段５２０號十三樓之１","OBJECTID":652322},"geometry":{"x":166684.43044900056,"y":2544743.196479002}},{"attributes":{"ID":652350,"DIS_CODE":0,"TOWNNAME":"中西區","LI":"光賢里","LIN":"12鄰","STREET":"中華西路","SECT":"二段","MAREA":" ","LANE":" ","ALLEY":" ","HOUSE_NO":"５２０號十三樓之３","E_COORD97":166684.43044900001,"N_COORD97":2544743.1964799999,"ADDRESS":"中華西路二段５２０號十三樓之３","OBJECTID":652323},"geometry":{"x":166684.43044900056,"y":2544743.196479002}},{"attributes":{"ID":652351,"DIS_CODE":0,"TOWNNAME":"中西區","LI":"光賢里","LIN":"12鄰","STREET":"中華西路","SECT":"二段","MAREA":" ","LANE":" ","ALLEY":" ","HOUSE_NO":"５２０號十三樓之５","E_COORD97":166684.43044900001,"N_COORD97":2544743.1964799999,"ADDRESS":"中華西路二段５２０號十三樓之５","OBJECTID":652324},"geometry":{"x":166684.43044900056,"y":2544743.196479002}},{"attributes":{"ID":652352,"DIS_CODE":0,"TOWNNAME":"中西區","LI":"光賢里","LIN":"12鄰","STREET":"中華西路","SECT":"二段","MAREA":" ","LANE":" ","ALLEY":" ","HOUSE_NO":"５２０號十三樓之７","E_COORD97":166684.43044900001,"N_COORD97":2544743.1964799999,"ADDRESS":"中華西路二段５２０號十三樓之７","OBJECTID":652325},"geometry":{"x":166684.43044900056,"y":2544743.196479002}},{"attributes":{"ID":652353,"DIS_CODE":0,"TOWNNAME":"中西區","LI":"光賢里","LIN":"12鄰","STREET":"中華西路","SECT":"二段","MAREA":" ","LANE":" ","ALLEY":" ","HOUSE_NO":"５２０號十三樓之９","E_COORD97":166684.43044900001,"N_COORD97":2544743.1964799999,"ADDRESS":"中華西路二段５２０號十三樓之９","OBJECTID":652326},"geometry":{"x":166684.43044900056,"y":2544743.196479002}},{"attributes":{"ID":652354,"DIS_CODE":0,"TOWNNAME":"中西區","LI":"光賢里","LIN":"12鄰","STREET":"中華西路","SECT":"二段","MAREA":" ","LANE":" ","ALLEY":" ","HOUSE_NO":"５２０號十三樓之１１","E_COORD97":166684.43044900001,"N_COORD97":2544743.1964799999,"ADDRESS":"中華西路二段５２０號十三樓之１１","OBJECTID":652327},"geometry":{"x":166684.43044900056,"y":2544743.196479002}},{"attributes":{"ID":652355,"DIS_CODE":0,"TOWNNAME":"中西區","LI":"光賢里","LIN":"12鄰","STREET":"中華西路","SECT":"二段","MAREA":" ","LANE":" ","ALLEY":" ","HOUSE_NO":"５２０號十四樓之２","E_COORD97":166684.43044900001,"N_COORD97":2544743.1964799999,"ADDRESS":"中華西路二段５２０號十四樓之２","OBJECTID":652328},"geometry":{"x":166684.43044900056,"y":2544743.196479002}},{"attributes":{"ID":652356,"DIS_CODE":0,"TOWNNAME":"中西區","LI":"光賢里","LIN":"12鄰","STREET":"中華西路","SECT":"二段","MAREA":" ","LANE":" ","ALLEY":" ","HOUSE_NO":"５２０號十四樓之６","E_COORD97":166684.43044900001,"N_COORD97":2544743.1964799999,"ADDRESS":"中華西路二段５２０號十四樓之６","OBJECTID":652329},"geometry":{"x":166684.43044900056,"y":2544743.196479002}},{"attributes":{"ID":652357,"DIS_CODE":0,"TOWNNAME":"中西區","LI":"光賢里","LIN":"12鄰","STREET":"中華西路","SECT":"二段","MAREA":" ","LANE":" ","ALLEY":" ","HOUSE_NO":"５２０號十四樓之１","E_COORD97":166684.43044900001,"N_COORD97":2544743.1964799999,"ADDRESS":"中華西路二段５２０號十四樓之１","OBJECTID":652330},"geometry":{"x":166684.43044900056,"y":2544743.196479002}},{"attributes":{"ID":652358,"DIS_CODE":0,"TOWNNAME":"中西區","LI":"光賢里","LIN":"12鄰","STREET":"中華西路","SECT":"二段","MAREA":" ","LANE":" ","ALLEY":" ","HOUSE_NO":"５２０號十四樓之３","E_COORD97":166684.43044900001,"N_COORD97":2544743.1964799999,"ADDRESS":"中華西路二段５２０號十四樓之３","OBJECTID":652331},"geometry":{"x":166684.43044900056,"y":2544743.196479002}},{"attributes":{"ID":652359,"DIS_CODE":0,"TOWNNAME":"中西區","LI":"光賢里","LIN":"12鄰","STREET":"中華西路","SECT":"二段","MAREA":" ","LANE":" ","ALLEY":" ","HOUSE_NO":"５２０號十四樓之５","E_COORD97":166684.43044900001,"N_COORD97":2544743.1964799999,"ADDRESS":"中華西路二段５２０號十四樓之５","OBJECTID":652332},"geometry":{"x":166684.43044900056,"y":2544743.196479002}},{"attributes":{"ID":652360,"DIS_CODE":0,"TOWNNAME":"中西區","LI":"光賢里","LIN":"12鄰","STREET":"中華西路","SECT":"二段","MAREA":" ","LANE":" ","ALLEY":" ","HOUSE_NO":"５２０號十四樓之７","E_COORD97":166684.43044900001,"N_COORD97":2544743.1964799999,"ADDRESS":"中華西路二段５２０號十四樓之７","OBJECTID":652333},"geometry":{"x":166684.43044900056,"y":2544743.196479002}},{"attributes":{"ID":652361,"DIS_CODE":0,"TOWNNAME":"中西區","LI":"光賢里","LIN":"12鄰","STREET":"中華西路","SECT":"二段","MAREA":" ","LANE":" ","ALLEY":" ","HOUSE_NO":"５２０號十四樓之９","E_COORD97":166684.43044900001,"N_COORD97":2544743.1964799999,"ADDRESS":"中華西路二段５２０號十四樓之９","OBJECTID":652334},"geometry":{"x":166684.43044900056,"y":2544743.196479002}},{"attributes":{"ID":652362,"DIS_CODE":0,"TOWNNAME":"中西區","LI":"光賢里","LIN":"12鄰","STREET":"中華西路","SECT":"二段","MAREA":" ","LANE":" ","ALLEY":" ","HOUSE_NO":"５２０號十四樓之１１","E_COORD97":166684.43044900001,"N_COORD97":2544743.1964799999,"ADDRESS":"中華西路二段５２０號十四樓之１１","OBJECTID":652335},"geometry":{"x":166684.43044900056,"y":2544743.196479002}},{"attributes":{"ID":652363,"DIS_CODE":0,"TOWNNAME":"中西區","LI":"光賢里","LIN":"12鄰","STREET":"中華西路","SECT":"二段","MAREA":" ","LANE":" ","ALLEY":" ","HOUSE_NO":"５２０號十五樓之２","E_COORD97":166684.43044900001,"N_COORD97":2544743.1964799999,"ADDRESS":"中華西路二段５２０號十五樓之２","OBJECTID":652336},"geometry":{"x":166684.43044900056,"y":2544743.196479002}},{"attributes":{"ID":652364,"DIS_CODE":0,"TOWNNAME":"中西區","LI":"光賢里","LIN":"12鄰","STREET":"中華西路","SECT":"二段","MAREA":" ","LANE":" ","ALLEY":" ","HOUSE_NO":"５２０號十五樓之６","E_COORD97":166684.43044900001,"N_COORD97":2544743.1964799999,"ADDRESS":"中華西路二段５２０號十五樓之６","OBJECTID":652337},"geometry":{"x":166684.43044900056,"y":2544743.196479002}},{"attributes":{"ID":652365,"DIS_CODE":0,"TOWNNAME":"中西區","LI":"光賢里","LIN":"12鄰","STREET":"中華西路","SECT":"二段","MAREA":" ","LANE":" ","ALLEY":" ","HOUSE_NO":"５２０號十五樓之１","E_COORD97":166684.43044900001,"N_COORD97":2544743.1964799999,"ADDRESS":"中華西路二段５２０號十五樓之１","OBJECTID":652338},"geometry":{"x":166684.43044900056,"y":2544743.196479002}},{"attributes":{"ID":652366,"DIS_CODE":0,"TOWNNAME":"中西區","LI":"光賢里","LIN":"12鄰","STREET":"中華西路","SECT":"二段","MAREA":" ","LANE":" ","ALLEY":" ","HOUSE_NO":"５２０號十五樓之３","E_COORD97":166684.43044900001,"N_COORD97":2544743.1964799999,"ADDRESS":"中華西路二段５２０號十五樓之３","OBJECTID":652339},"geometry":{"x":166684.43044900056,"y":2544743.196479002}},{"attributes":{"ID":652367,"DIS_CODE":0,"TOWNNAME":"中西區","LI":"光賢里","LIN":"12鄰","STREET":"中華西路","SECT":"二段","MAREA":" ","LANE":" ","ALLEY":" ","HOUSE_NO":"５２０號十五樓之５","E_COORD97":166684.43044900001,"N_COORD97":2544743.1964799999,"ADDRESS":"中華西路二段５２０號十五樓之５","OBJECTID":652340},"geometry":{"x":166684.43044900056,"y":2544743.196479002}},{"attributes":{"ID":652368,"DIS_CODE":0,"TOWNNAME":"中西區","LI":"光賢里","LIN":"12鄰","STREET":"中華西路","SECT":"二段","MAREA":" ","LANE":" ","ALLEY":" ","HOUSE_NO":"５２０號十五樓之７","E_COORD97":166684.43044900001,"N_COORD97":2544743.1964799999,"ADDRESS":"中華西路二段５２０號十五樓之７","OBJECTID":652341},"geometry":{"x":166684.43044900056,"y":2544743.196479002}},{"attributes":{"ID":652369,"DIS_CODE":0,"TOWNNAME":"中西區","LI":"光賢里","LIN":"12鄰","STREET":"中華西路","SECT":"二段","MAREA":" ","LANE":" ","ALLEY":" ","HOUSE_NO":"５２０號十五樓之９","E_COORD97":166684.43044900001,"N_COORD97":2544743.1964799999,"ADDRESS":"中華西路二段５２０號十五樓之９","OBJECTID":652342},"geometry":{"x":166684.43044900056,"y":2544743.196479002}},{"attributes":{"ID":652370,"DIS_CODE":0,"TOWNNAME":"中西區","LI":"光賢里","LIN":"12鄰","STREET":"中華西路","SECT":"二段","MAREA":" ","LANE":" ","ALLEY":" ","HOUSE_NO":"５２０號十五樓之１１","E_COORD97":166684.43044900001,"N_COORD97":2544743.1964799999,"ADDRESS":"中華西路二段５２０號十五樓之１１","OBJECTID":652343},"geometry":{"x":166684.43044900056,"y":2544743.196479002}},{"attributes":{"ID":652371,"DIS_CODE":0,"TOWNNAME":"中西區","LI":"光賢里","LIN":"12鄰","STREET":"中華西路","SECT":"二段","MAREA":" ","LANE":" ","ALLEY":" ","HOUSE_NO":"５２０號二樓之１","E_COORD97":166684.43044900001,"N_COORD97":2544743.1964799999,"ADDRESS":"中華西路二段５２０號二樓之１","OBJECTID":652344},"geometry":{"x":166684.43044900056,"y":2544743.196479002}},{"attributes":{"ID":652372,"DIS_CODE":0,"TOWNNAME":"中西區","LI":"光賢里","LIN":"12鄰","STREET":"中華西路","SECT":"二段","MAREA":" ","LANE":" ","ALLEY":" ","HOUSE_NO":"５２０號十三樓之６","E_COORD97":166684.43044900001,"N_COORD97":2544743.1964799999,"ADDRESS":"中華西路二段５２０號十三樓之６","OBJECTID":652345},"geometry":{"x":166684.43044900056,"y":2544743.196479002}},{"attributes":{"ID":652373,"DIS_CODE":0,"TOWNNAME":"中西區","LI":"光賢里","LIN":"12鄰","STREET":"中華西路","SECT":"二段","MAREA":" ","LANE":" ","ALLEY":" ","HOUSE_NO":"５２０號十三樓之８","E_COORD97":166684.43044900001,"N_COORD97":2544743.1964799999,"ADDRESS":"中華西路二段５２０號十三樓之８","OBJECTID":652346},"geometry":{"x":166684.43044900056,"y":2544743.196479002}},{"attributes":{"ID":652374,"DIS_CODE":0,"TOWNNAME":"中西區","LI":"五妃里","LIN":"5鄰","STREET":"慶中街","SECT":" ","MAREA":" ","LANE":" ","ALLEY":" ","HOUSE_NO":"６０號","E_COORD97":168548.93769399999,"N_COORD97":2542591.8717899998,"ADDRESS":"慶中街６０號","OBJECTID":652347},"geometry":{"x":168548.93769400008,"y":2542591.8717940021}},{"attributes":{"ID":652375,"DIS_CODE":0,"TOWNNAME":"安南區","LI":"安慶里","LIN":"5鄰","STREET":"怡安路","SECT":"一段","MAREA":" ","LANE":"２６２巷","ALLEY":" ","HOUSE_NO":"５６號","E_COORD97":169048.54337999999,"N_COORD97":2549238.9436699999,"ADDRESS":"怡安路一段２６２巷５６號","OBJECTID":652348},"geometry":{"x":169048.54337999877,"y":2549238.9436660018}},{"attributes":{"ID":652376,"DIS_CODE":0,"TOWNNAME":"中西區","LI":"五妃里","LIN":"5鄰","STREET":"慶中街","SECT":" ","MAREA":" ","LANE":" ","ALLEY":" ","HOUSE_NO":"７０號","E_COORD97":168573.72661499999,"N_COORD97":2542621.92845,"ADDRESS":"慶中街７０號","OBJECTID":652349},"geometry":{"x":168573.72661500145,"y":2542621.9284450021}},{"attributes":{"ID":652377,"DIS_CODE":0,"TOWNNAME":"中西區","LI":"五妃里","LIN":"5鄰","STREET":"慶中街","SECT":" ","MAREA":" ","LANE":" ","ALLEY":" ","HOUSE_NO":"８４號","E_COORD97":168563.76867300001,"N_COORD97":2542631.4534399998,"ADDRESS":"慶中街８４號","OBJECTID":652350},"geometry":{"x":168563.76867300086,"y":2542631.4534400012}},{"attributes":{"ID":652378,"DIS_CODE":0,"TOWNNAME":"中西區","LI":"五妃里","LIN":"5鄰","STREET":"慶中街","SECT":" ","MAREA":" ","LANE":" ","ALLEY":" ","HOUSE_NO":"８８號","E_COORD97":168551.268277,"N_COORD97":2542637.3801000002,"ADDRESS":"慶中街８８號","OBJECTID":652351},"geometry":{"x":168551.26827699877,"y":2542637.3801030014}},{"attributes":{"ID":652379,"DIS_CODE":0,"TOWNNAME":"新營區","LI":"新北里","LIN":"11鄰","STREET":"長榮路","SECT":"二段","MAREA":" ","LANE":" ","ALLEY":" ","HOUSE_NO":"３３１號","E_COORD97":179127.72873800001,"N_COORD97":2579747.00979,"ADDRESS":"長榮路二段３３１號","OBJECTID":652352},"geometry":{"x":179127.72873800155,"y":2579747.0097889993}},{"attributes":{"ID":652380,"DIS_CODE":0,"TOWNNAME":"安平區","LI":"海頭里","LIN":"2鄰","STREET":"延平街","SECT":" ","MAREA":" ","LANE":"７０巷","ALLEY":" ","HOUSE_NO":"１號","E_COORD97":164221.79722899999,"N_COORD97":2544623.5599500001,"ADDRESS":"延平街７０巷１號","OBJECTID":652353},"geometry":{"x":164221.79722900037,"y":2544623.5599550009}},{"attributes":{"ID":652381,"DIS_CODE":0,"TOWNNAME":"中西區","LI":"五妃里","LIN":"16鄰","STREET":"慶中街","SECT":" ","MAREA":" ","LANE":" ","ALLEY":" ","HOUSE_NO":"２１０號","E_COORD97":168569.48919299999,"N_COORD97":2542835.2883299999,"ADDRESS":"慶中街２１０號","OBJECTID":652354},"geometry":{"x":168569.48919300083,"y":2542835.2883300018}},{"attributes":{"ID":652382,"DIS_CODE":0,"TOWNNAME":"安平區","LI":"海頭里","LIN":"2鄰","STREET":"延平街","SECT":" ","MAREA":" ","LANE":"７０巷","ALLEY":" ","HOUSE_NO":"５號","E_COORD97":164223.70439599999,"N_COORD97":2544631.6032799999,"ADDRESS":"延平街７０巷５號","OBJECTID":652355},"geometry":{"x":164223.70439600013,"y":2544631.6032840014}},{"attributes":{"ID":652383,"DIS_CODE":0,"TOWNNAME":"中西區","LI":"五妃里","LIN":"16鄰","STREET":"慶中街","SECT":" ","MAREA":" ","LANE":" ","ALLEY":" ","HOUSE_NO":"２１４號","E_COORD97":168579.02339300001,"N_COORD97":2542865.3449800001,"ADDRESS":"慶中街２１４號","OBJECTID":652356},"geometry":{"x":168579.02339300048,"y":2542865.3449799996}},{"attributes":{"ID":652384,"DIS_CODE":0,"TOWNNAME":"安平區","LI":"海頭里","LIN":"8鄰","STREET":"延平街","SECT":" ","MAREA":" ","LANE":" ","ALLEY":" ","HOUSE_NO":"１５４號","E_COORD97":164045.70207599999,"N_COORD97":2544614.24663,"ADDRESS":"延平街１５４號","OBJECTID":652357},"geometry":{"x":164045.70207600016,"y":2544614.2466269992}},{"attributes":{"ID":652385,"DIS_CODE":0,"TOWNNAME":"安平區","LI":"海頭里","LIN":"8鄰","STREET":"延平街","SECT":" ","MAREA":" ","LANE":" ","ALLEY":" ","HOUSE_NO":"１５６號","E_COORD97":164042.099648,"N_COORD97":2544613.8232900002,"ADDRESS":"延平街１５６號","OBJECTID":652358},"geometry":{"x":164042.09964799974,"y":2544613.8232940007}},{"attributes":{"ID":652386,"DIS_CODE":0,"TOWNNAME":"安平區","LI":"海頭里","LIN":"8鄰","STREET":"延平街","SECT":" ","MAREA":" ","LANE":" ","ALLEY":" ","HOUSE_NO":"１５８號","E_COORD97":164038.49721999999,"N_COORD97":2544613.8232900002,"ADDRESS":"延平街１５８號","OBJECTID":652359},"geometry":{"x":164038.49722000118,"y":2544613.8232940007}},{"attributes":{"ID":652387,"DIS_CODE":0,"TOWNNAME":"安平區","LI":"海頭里","LIN":"8鄰","STREET":"延平街","SECT":" ","MAREA":" ","LANE":" ","ALLEY":" ","HOUSE_NO":"１６０號","E_COORD97":164034.89479200001,"N_COORD97":2544613.8232900002,"ADDRESS":"延平街１６０號","OBJECTID":652360},"geometry":{"x":164034.89479199983,"y":2544613.8232940007}},{"attributes":{"ID":652388,"DIS_CODE":0,"TOWNNAME":"中西區","LI":"五妃里","LIN":"15鄰","STREET":"慶中街","SECT":" ","MAREA":" ","LANE":"２０６巷","ALLEY":" ","HOUSE_NO":"１０號","E_COORD97":168600.51955,"N_COORD97":2542862.50973,"ADDRESS":"慶中街２０６巷１０號","OBJECTID":652361},"geometry":{"x":168600.51955000125,"y":2542862.50973}},{"attributes":{"ID":652389,"DIS_CODE":0,"TOWNNAME":"中西區","LI":"五妃里","LIN":"15鄰","STREET":"慶中街","SECT":" ","MAREA":" ","LANE":"２０６巷","ALLEY":" ","HOUSE_NO":"１８號","E_COORD97":168621.145819,"N_COORD97":2542835.5629599998,"ADDRESS":"慶中街２０６巷１８號","OBJECTID":652362},"geometry":{"x":168621.14581899997,"y":2542835.5629590005}},{"attributes":{"ID":652390,"DIS_CODE":0,"TOWNNAME":"中西區","LI":"五妃里","LIN":"15鄰","STREET":"慶中街","SECT":" ","MAREA":" ","LANE":"２０６巷","ALLEY":"６弄","HOUSE_NO":"１０號","E_COORD97":168576.54371500001,"N_COORD97":2542801.3951599998,"ADDRESS":"慶中街２０６巷６弄１０號","OBJECTID":652363},"geometry":{"x":168576.54371500015,"y":2542801.3951570019}},{"attributes":{"ID":652391,"DIS_CODE":0,"TOWNNAME":"中西區","LI":"五妃里","LIN":"15鄰","STREET":"樹林街","SECT":"二段","MAREA":" ","LANE":"３５巷","ALLEY":" ","HOUSE_NO":"２２號","E_COORD97":168621.922147,"N_COORD97":2542816.43188,"ADDRESS":"樹林街二段３５巷２２號","OBJECTID":652364},"geometry":{"x":168621.92214700114,"y":2542816.4318830036}},{"attributes":{"ID":652392,"DIS_CODE":0,"TOWNNAME":"中西區","LI":"五妃里","LIN":"15鄰","STREET":"樹林街","SECT":"二段","MAREA":" ","LANE":"３５巷","ALLEY":" ","HOUSE_NO":"３４號","E_COORD97":168620.862792,"N_COORD97":2542814.5268799998,"ADDRESS":"樹林街二段３５巷３４號","OBJECTID":652365},"geometry":{"x":168620.86279200111,"y":2542814.5268840026}},{"attributes":{"ID":652393,"DIS_CODE":0,"TOWNNAME":"中西區","LI":"水仙里","LIN":"14鄰","STREET":"國華街","SECT":"三段","MAREA":" ","LANE":" ","ALLEY":" ","HOUSE_NO":"１２３號","E_COORD97":167833.88996299999,"N_COORD97":2544134.2140600001,"ADDRESS":"國華街三段１２３號","OBJECTID":652366},"geometry":{"x":167833.88996300008,"y":2544134.2140559983}},{"attributes":{"ID":652394,"DIS_CODE":0,"TOWNNAME":"新營區","LI":"新北里","LIN":"30鄰","STREET":"新北街","SECT":" ","MAREA":" ","LANE":" ","ALLEY":" ","HOUSE_NO":"１６２號","E_COORD97":178817.32986,"N_COORD97":2578691.87848,"ADDRESS":"新北街１６２號","OBJECTID":652367},"geometry":{"x":178817.32986000087,"y":2578691.878483003}},{"attributes":{"ID":652395,"DIS_CODE":0,"TOWNNAME":"新營區","LI":"新北里","LIN":"30鄰","STREET":"新北街","SECT":" ","MAREA":" ","LANE":" ","ALLEY":" ","HOUSE_NO":"１６６號","E_COORD97":178679.84555900001,"N_COORD97":2578957.5200100001,"ADDRESS":"新北街１６６號","OBJECTID":652368},"geometry":{"x":178679.84555900097,"y":2578957.5200069994}},{"attributes":{"ID":652396,"DIS_CODE":0,"TOWNNAME":"新營區","LI":"新北里","LIN":"30鄰","STREET":"新北街","SECT":" ","MAREA":" ","LANE":" ","ALLEY":" ","HOUSE_NO":"１６２號","E_COORD97":178796.464832,"N_COORD97":2578707.3702199999,"ADDRESS":"新北街１６２號","OBJECTID":652369},"geometry":{"x":178796.46483200137,"y":2578707.3702160008}},{"attributes":{"ID":652397,"DIS_CODE":0,"TOWNNAME":"新營區","LI":"新北里","LIN":"30鄰","STREET":"新北街","SECT":" ","MAREA":" ","LANE":" ","ALLEY":" ","HOUSE_NO":"１６２號","E_COORD97":178680.549501,"N_COORD97":2578953.0963300001,"ADDRESS":"新北街１６２號","OBJECTID":652370},"geometry":{"x":178680.5495010009,"y":2578953.0963279996}},{"attributes":{"ID":652398,"DIS_CODE":0,"TOWNNAME":"後壁區","LI":"新東里","LIN":"6鄰","STREET":" ","SECT":" ","MAREA":"新港東","LANE":" ","ALLEY":" ","HOUSE_NO":"７０號之１","E_COORD97":181571.60122300001,"N_COORD97":2581876.2286399999,"ADDRESS":"新港東７０號之１","OBJECTID":652371},"geometry":{"x":181571.60122300033,"y":2581876.228643002}},{"attributes":{"ID":652399,"DIS_CODE":0,"TOWNNAME":"後壁區","LI":"新東里","LIN":"7鄰","STREET":" ","SECT":" ","MAREA":"新港東","LANE":" ","ALLEY":" ","HOUSE_NO":"７２號","E_COORD97":181631.33550399999,"N_COORD97":2581871.57198,"ADDRESS":"新港東７２號","OBJECTID":652372},"geometry":{"x":181631.33550400101,"y":2581871.5719790012}},{"attributes":{"ID":652400,"DIS_CODE":0,"TOWNNAME":"後壁區","LI":"新東里","LIN":"8鄰","STREET":" ","SECT":" ","MAREA":"新港東","LANE":" ","ALLEY":" ","HOUSE_NO":"８２號","E_COORD97":181787.02591600001,"N_COORD97":2581811.9878400001,"ADDRESS":"新港東８２號","OBJECTID":652373},"geometry":{"x":181787.02591600083,"y":2581811.987844998}},{"attributes":{"ID":652401,"DIS_CODE":0,"TOWNNAME":"善化區","LI":"小新里","LIN":"22鄰","STREET":"成功路","SECT":" ","MAREA":" ","LANE":" ","ALLEY":" ","HOUSE_NO":"２號之１","E_COORD97":180329.74825999999,"N_COORD97":2558610.8172900002,"ADDRESS":"成功路２號之１","OBJECTID":652374},"geometry":{"x":180329.74826000072,"y":2558610.8172900025}},{"attributes":{"ID":652402,"DIS_CODE":0,"TOWNNAME":"善化區","LI":"小新里","LIN":"1鄰","STREET":" ","SECT":" ","MAREA":"小新營","LANE":" ","ALLEY":" ","HOUSE_NO":"３號","E_COORD97":179945.68983600001,"N_COORD97":2558282.7878299998,"ADDRESS":"小新營３號","OBJECTID":652375},"geometry":{"x":179945.68983600102,"y":2558282.7878249977}},{"attributes":{"ID":652403,"DIS_CODE":0,"TOWNNAME":"善化區","LI":"小新里","LIN":"2鄰","STREET":" ","SECT":" ","MAREA":"小新營","LANE":" ","ALLEY":" ","HOUSE_NO":"１０號","E_COORD97":179920.73766700001,"N_COORD97":2558425.18573,"ADDRESS":"小新營１０號","OBJECTID":652376},"geometry":{"x":179920.73766699992,"y":2558425.1857280023}},{"attributes":{"ID":652404,"DIS_CODE":0,"TOWNNAME":"善化區","LI":"小新里","LIN":"3鄰","STREET":" ","SECT":" ","MAREA":"小新營","LANE":" ","ALLEY":" ","HOUSE_NO":"１９號","E_COORD97":179831.140835,"N_COORD97":2558286.6499700001,"ADDRESS":"小新營１９號","OBJECTID":652377},"geometry":{"x":179831.1408350002,"y":2558286.6499700025}},{"attributes":{"ID":652405,"DIS_CODE":0,"TOWNNAME":"善化區","LI":"小新里","LIN":"3鄰","STREET":" ","SECT":" ","MAREA":"小新營","LANE":" ","ALLEY":" ","HOUSE_NO":"２０號","E_COORD97":179817.47890700001,"N_COORD97":2558293.2116299998,"ADDRESS":"小新營２０號","OBJECTID":652378},"geometry":{"x":179817.47890700027,"y":2558293.2116330024}},{"attributes":{"ID":652406,"DIS_CODE":0,"TOWNNAME":"善化區","LI":"小新里","LIN":"3鄰","STREET":" ","SECT":" ","MAREA":"小新營","LANE":" ","ALLEY":" ","HOUSE_NO":"２１號","E_COORD97":179804.558323,"N_COORD97":2558282.41664,"ADDRESS":"小新營２１號","OBJECTID":652379},"geometry":{"x":179804.55832299963,"y":2558282.4166390002}},{"attributes":{"ID":652407,"DIS_CODE":0,"TOWNNAME":"善化區","LI":"小新里","LIN":"3鄰","STREET":" ","SECT":" ","MAREA":"小新營","LANE":" ","ALLEY":" ","HOUSE_NO":"２１號之２","E_COORD97":179806.67645,"N_COORD97":2558266.9649800002,"ADDRESS":"小新營２１號之２","OBJECTID":652380},"geometry":{"x":179806.67645000201,"y":2558266.9649800025}},{"attributes":{"ID":652408,"DIS_CODE":0,"TOWNNAME":"善化區","LI":"小新里","LIN":"5鄰","STREET":" ","SECT":" ","MAREA":"小新營","LANE":" ","ALLEY":" ","HOUSE_NO":"４２號之２","E_COORD97":179745.46254000001,"N_COORD97":2558284.9566299999,"ADDRESS":"小新營４２號之２","OBJECTID":652381},"geometry":{"x":179745.46254000068,"y":2558284.9566300008}},{"attributes":{"ID":652409,"DIS_CODE":0,"TOWNNAME":"善化區","LI":"小新里","LIN":"6鄰","STREET":" ","SECT":" ","MAREA":"小新營","LANE":" ","ALLEY":" ","HOUSE_NO":"４５號","E_COORD97":179734.44827299999,"N_COORD97":2558239.44833,"ADDRESS":"小新營４５號","OBJECTID":652382},"geometry":{"x":179734.44827300217,"y":2558239.4483289998}},{"attributes":{"ID":652410,"DIS_CODE":0,"TOWNNAME":"善化區","LI":"小新里","LIN":"6鄰","STREET":" ","SECT":" ","MAREA":"小新營","LANE":" ","ALLEY":" ","HOUSE_NO":"４７號","E_COORD97":179715.59693,"N_COORD97":2558264.21331,"ADDRESS":"小新營４７號","OBJECTID":652383},"geometry":{"x":179715.59693000186,"y":2558264.2133150008}},{"attributes":{"ID":652411,"DIS_CODE":0,"TOWNNAME":"善化區","LI":"小新里","LIN":"7鄰","STREET":" ","SECT":" ","MAREA":"小新營","LANE":" ","ALLEY":" ","HOUSE_NO":"５５號","E_COORD97":179695.89833500001,"N_COORD97":2558401.5849100002,"ADDRESS":"小新營５５號","OBJECTID":652384},"geometry":{"x":179695.89833499957,"y":2558401.5849080011}},{"attributes":{"ID":652412,"DIS_CODE":0,"TOWNNAME":"善化區","LI":"小新里","LIN":"8鄰","STREET":" ","SECT":" ","MAREA":"小新營","LANE":" ","ALLEY":" ","HOUSE_NO":"５８號","E_COORD97":179659.89015200001,"N_COORD97":2558396.5049100001,"ADDRESS":"小新營５８號","OBJECTID":652385},"geometry":{"x":179659.89015200082,"y":2558396.5049110018}},{"attributes":{"ID":652413,"DIS_CODE":0,"TOWNNAME":"善化區","LI":"小新里","LIN":"8鄰","STREET":" ","SECT":" ","MAREA":"小新營","LANE":" ","ALLEY":" ","HOUSE_NO":"７１號之７","E_COORD97":179638.70886000001,"N_COORD97":2558254.4766500001,"ADDRESS":"小新營７１號之７","OBJECTID":652386},"geometry":{"x":179638.70885999966,"y":2558254.4766499996}},{"attributes":{"ID":652414,"DIS_CODE":0,"TOWNNAME":"善化區","LI":"小新里","LIN":"10鄰","STREET":" ","SECT":" ","MAREA":"小新營","LANE":" ","ALLEY":" ","HOUSE_NO":"８２號之１","E_COORD97":179468.26368999999,"N_COORD97":2558317.92447,"ADDRESS":"小新營８２號之１","OBJECTID":652387},"geometry":{"x":179468.26369000133,"y":2558317.92447}},{"attributes":{"ID":652415,"DIS_CODE":0,"TOWNNAME":"善化區","LI":"小新里","LIN":"10鄰","STREET":" ","SECT":" ","MAREA":"小新營","LANE":" ","ALLEY":" ","HOUSE_NO":"８４號","E_COORD97":179514.43888900001,"N_COORD97":2558222.4628599999,"ADDRESS":"小新營８４號","OBJECTID":652388},"geometry":{"x":179514.43888899963,"y":2558222.4628570005}},{"attributes":{"ID":652416,"DIS_CODE":0,"TOWNNAME":"善化區","LI":"小新里","LIN":"1鄰","STREET":" ","SECT":" ","MAREA":"小新營","LANE":" ","ALLEY":" ","HOUSE_NO":"２號","E_COORD97":179953.738724,"N_COORD97":2558303.7428100002,"ADDRESS":"小新營２號","OBJECTID":652389},"geometry":{"x":179953.73872400075,"y":2558303.7428130005}},{"attributes":{"ID":652417,"DIS_CODE":0,"TOWNNAME":"善化區","LI":"小新里","LIN":"2鄰","STREET":" ","SECT":" ","MAREA":"小新營","LANE":" ","ALLEY":" ","HOUSE_NO":"８號","E_COORD97":179924.93217799999,"N_COORD97":2558347.3461199999,"ADDRESS":"小新營８號","OBJECTID":652390},"geometry":{"x":179924.93217799999,"y":2558347.3461230006}},{"attributes":{"ID":652418,"DIS_CODE":0,"TOWNNAME":"善化區","LI":"小新里","LIN":"3鄰","STREET":" ","SECT":" ","MAREA":"小新營","LANE":" ","ALLEY":" ","HOUSE_NO":"１４號","E_COORD97":179872.34565599999,"N_COORD97":2558316.6432599998,"ADDRESS":"小新營１４號","OBJECTID":652391},"geometry":{"x":179872.34565600194,"y":2558316.6432610005}},{"attributes":{"ID":652419,"DIS_CODE":0,"TOWNNAME":"善化區","LI":"小新里","LIN":"4鄰","STREET":" ","SECT":" ","MAREA":"小新營","LANE":" ","ALLEY":" ","HOUSE_NO":"２７號","E_COORD97":179823.685639,"N_COORD97":2558306.91781,"ADDRESS":"小新營２７號","OBJECTID":652392},"geometry":{"x":179823.6856390005,"y":2558306.9178120028}},{"attributes":{"ID":652420,"DIS_CODE":0,"TOWNNAME":"善化區","LI":"光文里","LIN":"22鄰","STREET":"中山路","SECT":" ","MAREA":" ","LANE":" ","ALLEY":" ","HOUSE_NO":"４２號","E_COORD97":178855.83331700001,"N_COORD97":2559235.6581999999,"ADDRESS":"中山路４２號","OBJECTID":652393},"geometry":{"x":178855.83331700135,"y":2559235.6582040023}},{"attributes":{"ID":652421,"DIS_CODE":0,"TOWNNAME":"中西區","LI":"元安里","LIN":"10鄰","STREET":"西門路","SECT":"一段","MAREA":" ","LANE":"７４７巷","ALLEY":" ","HOUSE_NO":"４號","E_COORD97":167703.10819200001,"N_COORD97":2543350.41218,"ADDRESS":"西門路一段７４７巷４號","OBJECTID":652394},"geometry":{"x":167703.10819199961,"y":2543350.4121829998}},{"attributes":{"ID":652422,"DIS_CODE":0,"TOWNNAME":"中西區","LI":"元安里","LIN":"12鄰","STREET":"大勇街","SECT":" ","MAREA":" ","LANE":" ","ALLEY":" ","HOUSE_NO":"９號","E_COORD97":167503.949341,"N_COORD97":2543333.1613599998,"ADDRESS":"大勇街９號","OBJECTID":652395},"geometry":{"x":167503.94934100006,"y":2543333.161359001}},{"attributes":{"ID":652423,"DIS_CODE":0,"TOWNNAME":"中西區","LI":"元安里","LIN":"12鄰","STREET":"大德街","SECT":" ","MAREA":" ","LANE":" ","ALLEY":" ","HOUSE_NO":"５２號","E_COORD97":167525.560195,"N_COORD97":2543304.16304,"ADDRESS":"大德街５２號","OBJECTID":652396},"geometry":{"x":167525.56019500084,"y":2543304.1630419996}},{"attributes":{"ID":652424,"DIS_CODE":0,"TOWNNAME":"中西區","LI":"元安里","LIN":"11鄰","STREET":"大德街","SECT":" ","MAREA":" ","LANE":" ","ALLEY":" ","HOUSE_NO":"４９號","E_COORD97":167558.71802500001,"N_COORD97":2543324.3772,"ADDRESS":"大德街４９號","OBJECTID":652397},"geometry":{"x":167558.71802499983,"y":2543324.377197003}},{"attributes":{"ID":652425,"DIS_CODE":0,"TOWNNAME":"中西區","LI":"元安里","LIN":"6鄰","STREET":"大德街","SECT":" ","MAREA":" ","LANE":" ","ALLEY":" ","HOUSE_NO":"１０２號之１","E_COORD97":167536.15375100001,"N_COORD97":2543179.9147800002,"ADDRESS":"大德街１０２號之１","OBJECTID":652398},"geometry":{"x":167536.15375100076,"y":2543179.914774999}},{"attributes":{"ID":652426,"DIS_CODE":0,"TOWNNAME":"中西區","LI":"元安里","LIN":"5鄰","STREET":"大德街","SECT":" ","MAREA":" ","LANE":" ","ALLEY":" ","HOUSE_NO":"１０９號","E_COORD97":167551.62034200001,"N_COORD97":2543132.3956300002,"ADDRESS":"大德街１０９號","OBJECTID":652399},"geometry":{"x":167551.62034200132,"y":2543132.3956339993}},{"attributes":{"ID":652427,"DIS_CODE":0,"TOWNNAME":"中西區","LI":"元安里","LIN":"5鄰","STREET":"大德街","SECT":" ","MAREA":" ","LANE":" ","ALLEY":" ","HOUSE_NO":"７５號之１","E_COORD97":167551.1966,"N_COORD97":2543209.0189299998,"ADDRESS":"大德街７５號之１","OBJECTID":652400},"geometry":{"x":167551.19660000037,"y":2543209.0189260021}}]}