{"displayFieldName":"TOWNNAME","fieldAliases":{"ID":"ID","DIS_CODE":"DIS_CODE","TOWNNAME":"TOWNNAME","LI":"LI","LIN":"LIN","STREET":"STREET","SECT":"SECT","MAREA":"MAREA","LANE":"LANE","ALLEY":"ALLEY","HOUSE_NO":"HOUSE_NO","E_COORD97":"E_COORD97","N_COORD97":"N_COORD97","ADDRESS":"ADDRESS","OBJECTID":"OBJECTID"},"geometryType":"esriGeometryPoint","spatialReference":{"wkid":102443,"latestWkid":3826},"fields":[{"name":"ID","type":"esriFieldTypeDouble","alias":"ID"},{"name":"DIS_CODE","type":"esriFieldTypeInteger","alias":"DIS_CODE"},{"name":"TOWNNAME","type":"esriFieldTypeString","alias":"TOWNNAME","length":8},{"name":"LI","type":"esriFieldTypeString","alias":"LI","length":8},{"name":"LIN","type":"esriFieldTypeString","alias":"LIN","length":12},{"name":"STREET","type":"esriFieldTypeString","alias":"STREET","length":20},{"name":"SECT","type":"esriFieldTypeString","alias":"SECT","length":8},{"name":"MAREA","type":"esriFieldTypeString","alias":"MAREA","length":12},{"name":"LANE","type":"esriFieldTypeString","alias":"LANE","length":10},{"name":"ALLEY","type":"esriFieldTypeString","alias":"ALLEY","length":10},{"name":"HOUSE_NO","type":"esriFieldTypeString","alias":"HOUSE_NO","length":20},{"name":"E_COORD97","type":"esriFieldTypeDouble","alias":"E_COORD97"},{"name":"N_COORD97","type":"esriFieldTypeDouble","alias":"N_COORD97"},{"name":"ADDRESS","type":"esriFieldTypeString","alias":"ADDRESS","length":50},{"name":"OBJECTID","type":"esriFieldTypeOID","alias":"OBJECTID"}],"features":[{"attributes":{"ID":213602,"DIS_CODE":0,"TOWNNAME":"安南區","LI":"布袋里","LIN":"13鄰","STREET":"長和路","SECT":"四段","MAREA":" ","LANE":"２３１巷","ALLEY":" ","HOUSE_NO":"３２號","E_COORD97":168733.78,"N_COORD97":2551650.9700000002,"ADDRESS":"長和路四段２３１巷３２號","OBJECTID":213601},"geometry":{"x":168733.78000000212,"y":2551650.9700000025}},{"attributes":{"ID":213603,"DIS_CODE":0,"TOWNNAME":"安南區","LI":"布袋里","LIN":"13鄰","STREET":"長和路","SECT":"四段","MAREA":" ","LANE":"２３１巷","ALLEY":" ","HOUSE_NO":"３６號","E_COORD97":168739.04999999999,"N_COORD97":2551644.04,"ADDRESS":"長和路四段２３１巷３６號","OBJECTID":213602},"geometry":{"x":168739.05000000075,"y":2551644.0399999991}},{"attributes":{"ID":213604,"DIS_CODE":0,"TOWNNAME":"安南區","LI":"布袋里","LIN":"13鄰","STREET":"長和路","SECT":"四段","MAREA":" ","LANE":"２３１巷","ALLEY":" ","HOUSE_NO":"４４號","E_COORD97":168750.42000000001,"N_COORD97":2551630.2999999998,"ADDRESS":"長和路四段２３１巷４４號","OBJECTID":213603},"geometry":{"x":168750.41999999993,"y":2551630.3000000007}},{"attributes":{"ID":213605,"DIS_CODE":0,"TOWNNAME":"安南區","LI":"布袋里","LIN":"13鄰","STREET":"長和路","SECT":"四段","MAREA":" ","LANE":"２３１巷","ALLEY":" ","HOUSE_NO":"４６號","E_COORD97":168753.28,"N_COORD97":2551626.9100000001,"ADDRESS":"長和路四段２３１巷４６號","OBJECTID":213604},"geometry":{"x":168753.28000000119,"y":2551626.910000002}},{"attributes":{"ID":213606,"DIS_CODE":0,"TOWNNAME":"下營區","LI":"中營里","LIN":"2鄰","STREET":" ","SECT":" ","MAREA":"中營","LANE":" ","ALLEY":" ","HOUSE_NO":"８７９號","E_COORD97":176111.62,"N_COORD97":2568709.4900000002,"ADDRESS":"中營８７９號","OBJECTID":213605},"geometry":{"x":176111.62000000011,"y":2568709.4900000002}},{"attributes":{"ID":213607,"DIS_CODE":0,"TOWNNAME":"安南區","LI":"布袋里","LIN":"13鄰","STREET":"長和路","SECT":"四段","MAREA":" ","LANE":"２３１巷","ALLEY":" ","HOUSE_NO":"４８號","E_COORD97":168755.94,"N_COORD97":2551623.0699999998,"ADDRESS":"長和路四段２３１巷４８號","OBJECTID":213606},"geometry":{"x":168755.94000000041,"y":2551623.0700000022}},{"attributes":{"ID":213608,"DIS_CODE":0,"TOWNNAME":"安南區","LI":"布袋里","LIN":"13鄰","STREET":"長和路","SECT":"四段","MAREA":" ","LANE":"２３１巷","ALLEY":" ","HOUSE_NO":"５０號","E_COORD97":168759.09,"N_COORD97":2551620.0299999998,"ADDRESS":"長和路四段２３１巷５０號","OBJECTID":213607},"geometry":{"x":168759.09000000078,"y":2551620.0299999993}},{"attributes":{"ID":213609,"DIS_CODE":0,"TOWNNAME":"安平區","LI":"平安里","LIN":"9鄰","STREET":"安平路","SECT":" ","MAREA":" ","LANE":"４０６巷","ALLEY":" ","HOUSE_NO":"９號","E_COORD97":165394.678804,"N_COORD97":2544370.8595099999,"ADDRESS":"安平路４０６巷９號","OBJECTID":213608},"geometry":{"x":165394.67880400177,"y":2544370.859508004}},{"attributes":{"ID":213610,"DIS_CODE":0,"TOWNNAME":"仁德區","LI":"仁愛里","LIN":"28鄰","STREET":"大同路","SECT":"三段","MAREA":" ","LANE":"４９０巷","ALLEY":" ","HOUSE_NO":"４３號","E_COORD97":169719.45999999999,"N_COORD97":2539196.1499999999,"ADDRESS":"大同路三段４９０巷４３號","OBJECTID":213609},"geometry":{"x":169719.46000000089,"y":2539196.1500000022}},{"attributes":{"ID":213611,"DIS_CODE":0,"TOWNNAME":"安南區","LI":"理想里","LIN":"14鄰","STREET":"大安街","SECT":" ","MAREA":" ","LANE":"７５巷","ALLEY":" ","HOUSE_NO":"２號之１","E_COORD97":167195.75,"N_COORD97":2548063.6099999999,"ADDRESS":"大安街７５巷２號之１","OBJECTID":213610},"geometry":{"x":167195.75,"y":2548063.6099999994}},{"attributes":{"ID":213612,"DIS_CODE":0,"TOWNNAME":"仁德區","LI":"仁愛里","LIN":"28鄰","STREET":"大同路","SECT":"三段","MAREA":" ","LANE":"４５６巷","ALLEY":" ","HOUSE_NO":"２８號","E_COORD97":169727.63077600001,"N_COORD97":2539294.5299999998,"ADDRESS":"大同路三段４５６巷２８號","OBJECTID":213611},"geometry":{"x":169727.63077599928,"y":2539294.5300000012}},{"attributes":{"ID":213613,"DIS_CODE":0,"TOWNNAME":"永康區","LI":"尚頂里","LIN":"4鄰","STREET":"正南一街","SECT":" ","MAREA":" ","LANE":" ","ALLEY":" ","HOUSE_NO":"１９６號","E_COORD97":170607.89000000001,"N_COORD97":2547527.1299999999,"ADDRESS":"正南一街１９６號","OBJECTID":213612},"geometry":{"x":170607.8900000006,"y":2547527.129999999}},{"attributes":{"ID":213614,"DIS_CODE":0,"TOWNNAME":"永康區","LI":"尚頂里","LIN":"5鄰","STREET":"正南一街","SECT":" ","MAREA":" ","LANE":" ","ALLEY":" ","HOUSE_NO":"１５２號","E_COORD97":170705.5,"N_COORD97":2547370.3500000001,"ADDRESS":"正南一街１５２號","OBJECTID":213613},"geometry":{"x":170705.50000000093,"y":2547370.3499999996}},{"attributes":{"ID":213615,"DIS_CODE":0,"TOWNNAME":"永康區","LI":"尚頂里","LIN":"5鄰","STREET":"\u25A0信街","SECT":" ","MAREA":" ","LANE":" ","ALLEY":" ","HOUSE_NO":"５６號","E_COORD97":170867.62,"N_COORD97":2547475.6400000001,"ADDRESS":"\u25A0信街５６號","OBJECTID":213614},"geometry":{"x":170867.62000000104,"y":2547475.6400000025}},{"attributes":{"ID":213616,"DIS_CODE":0,"TOWNNAME":"永康區","LI":"西灣里","LIN":"42鄰","STREET":"國光六街","SECT":" ","MAREA":" ","LANE":" ","ALLEY":" ","HOUSE_NO":"１２０號","E_COORD97":173964.70000000001,"N_COORD97":2545378.6099999999,"ADDRESS":"國光六街１２０號","OBJECTID":213615},"geometry":{"x":173964.70000000112,"y":2545378.6099999994}},{"attributes":{"ID":213617,"DIS_CODE":0,"TOWNNAME":"永康區","LI":"西灣里","LIN":"39鄰","STREET":"永華路","SECT":" ","MAREA":" ","LANE":" ","ALLEY":" ","HOUSE_NO":"１９８號","E_COORD97":174115.79000000001,"N_COORD97":2545448.29,"ADDRESS":"永華路１９８號","OBJECTID":213616},"geometry":{"x":174115.7900000019,"y":2545448.2899999991}},{"attributes":{"ID":213618,"DIS_CODE":0,"TOWNNAME":"東區","LI":"裕聖里","LIN":"15鄰","STREET":"裕信路","SECT":" ","MAREA":" ","LANE":" ","ALLEY":" ","HOUSE_NO":"３３０之１０號","E_COORD97":172542.57000000001,"N_COORD97":2542389.9100000001,"ADDRESS":"裕信路３３０之１０號","OBJECTID":213617},"geometry":{"x":172542.56999999937,"y":2542389.9100000001}},{"attributes":{"ID":213619,"DIS_CODE":0,"TOWNNAME":"仁德區","LI":"仁愛里","LIN":"28鄰","STREET":"大同路","SECT":"三段","MAREA":" ","LANE":"４５６巷","ALLEY":" ","HOUSE_NO":"１２號","E_COORD97":169760.24853099999,"N_COORD97":2539294.5299999998,"ADDRESS":"大同路三段４５６巷１２號","OBJECTID":213618},"geometry":{"x":169760.24853100069,"y":2539294.5300000012}},{"attributes":{"ID":213620,"DIS_CODE":0,"TOWNNAME":"仁德區","LI":"仁愛里","LIN":"28鄰","STREET":"大同路","SECT":"三段","MAREA":" ","LANE":"４９０巷","ALLEY":" ","HOUSE_NO":"４１號","E_COORD97":169723.25,"N_COORD97":2539196.1499999999,"ADDRESS":"大同路三段４９０巷４１號","OBJECTID":213619},"geometry":{"x":169723.25,"y":2539196.1500000022}},{"attributes":{"ID":213621,"DIS_CODE":0,"TOWNNAME":"歸仁區","LI":"媽廟里","LIN":"28鄰","STREET":"保大路","SECT":"一段","MAREA":" ","LANE":"１２８巷","ALLEY":" ","HOUSE_NO":"１號","E_COORD97":177755.81313900001,"N_COORD97":2544057.2966700001,"ADDRESS":"保大路一段１２８巷１號","OBJECTID":213620},"geometry":{"x":177755.81313900091,"y":2544057.2966689989}},{"attributes":{"ID":213622,"DIS_CODE":0,"TOWNNAME":"安南區","LI":"幸福里","LIN":"20鄰","STREET":"海佃路","SECT":"一段","MAREA":" ","LANE":"９５巷","ALLEY":" ","HOUSE_NO":"４２號","E_COORD97":167011.45999999999,"N_COORD97":2546926.8399999999,"ADDRESS":"海佃路一段９５巷４２號","OBJECTID":213621},"geometry":{"x":167011.45999999996,"y":2546926.8399999999}},{"attributes":{"ID":213623,"DIS_CODE":0,"TOWNNAME":"仁德區","LI":"仁義里","LIN":"17鄰","STREET":"義林八街","SECT":" ","MAREA":" ","LANE":"９８巷","ALLEY":" ","HOUSE_NO":"３號","E_COORD97":174238.71460199999,"N_COORD97":2541300.8064600001,"ADDRESS":"義林八街９８巷３號","OBJECTID":213622},"geometry":{"x":174238.71460199915,"y":2541300.8064559996}},{"attributes":{"ID":213624,"DIS_CODE":0,"TOWNNAME":"仁德區","LI":"仁義里","LIN":"17鄰","STREET":"義林八街","SECT":" ","MAREA":" ","LANE":"９８巷","ALLEY":" ","HOUSE_NO":"５號","E_COORD97":174239.561812,"N_COORD97":2541306.8389499998,"ADDRESS":"義林八街９８巷５號","OBJECTID":213623},"geometry":{"x":174239.56181200128,"y":2541306.8389529996}},{"attributes":{"ID":213625,"DIS_CODE":0,"TOWNNAME":"仁德區","LI":"仁義里","LIN":"17鄰","STREET":"義林八街","SECT":" ","MAREA":" ","LANE":"９８巷","ALLEY":" ","HOUSE_NO":"７號","E_COORD97":174239.45590999999,"N_COORD97":2541310.8341600001,"ADDRESS":"義林八街９８巷７號","OBJECTID":213624},"geometry":{"x":174239.45591000095,"y":2541310.8341589998}},{"attributes":{"ID":213626,"DIS_CODE":0,"TOWNNAME":"安南區","LI":"海西里","LIN":"7鄰","STREET":"海中街","SECT":" ","MAREA":" ","LANE":"１０１巷","ALLEY":" ","HOUSE_NO":"４４號","E_COORD97":166306.43841999999,"N_COORD97":2549038.5887199999,"ADDRESS":"海中街１０１巷４４號","OBJECTID":213625},"geometry":{"x":166306.43841999955,"y":2549038.5887200013}},{"attributes":{"ID":213627,"DIS_CODE":0,"TOWNNAME":"安南區","LI":"東和里","LIN":"7鄰","STREET":"長和路","SECT":"一段","MAREA":" ","LANE":"１巷","ALLEY":" ","HOUSE_NO":"１９６號","E_COORD97":171416.97993,"N_COORD97":2549963.34069,"ADDRESS":"長和路一段１巷１９６號","OBJECTID":213626},"geometry":{"x":171416.97993000038,"y":2549963.3406910002}},{"attributes":{"ID":213628,"DIS_CODE":0,"TOWNNAME":"安南區","LI":"東和里","LIN":"7鄰","STREET":"長和路","SECT":"一段","MAREA":" ","LANE":"２１７巷","ALLEY":" ","HOUSE_NO":"５號","E_COORD97":171656.806381,"N_COORD97":2550591.9903500001,"ADDRESS":"長和路一段２１７巷５號","OBJECTID":213627},"geometry":{"x":171656.80638100021,"y":2550591.990352001}},{"attributes":{"ID":213629,"DIS_CODE":0,"TOWNNAME":"安南區","LI":"東和里","LIN":"7鄰","STREET":"長和路","SECT":"一段","MAREA":" ","LANE":"２１７巷","ALLEY":" ","HOUSE_NO":"６５號","E_COORD97":171446.62735,"N_COORD97":2550385.1921299999,"ADDRESS":"長和路一段２１７巷６５號","OBJECTID":213628},"geometry":{"x":171446.62735000066,"y":2550385.1921300013}},{"attributes":{"ID":213630,"DIS_CODE":0,"TOWNNAME":"安南區","LI":"東和里","LIN":"7鄰","STREET":"長和路","SECT":"一段","MAREA":" ","LANE":"２１７巷","ALLEY":" ","HOUSE_NO":"６７號","E_COORD97":171433.921313,"N_COORD97":2550373.7621399998,"ADDRESS":"長和路一段２１７巷６７號","OBJECTID":213629},"geometry":{"x":171433.92131300084,"y":2550373.762136003}},{"attributes":{"ID":213631,"DIS_CODE":0,"TOWNNAME":"仁德區","LI":"保安里","LIN":"8鄰","STREET":"文賢路","SECT":"一段","MAREA":" ","LANE":"７６３巷","ALLEY":" ","HOUSE_NO":"８號","E_COORD97":171545.34630400001,"N_COORD97":2536137.78846,"ADDRESS":"文賢路一段７６３巷８號","OBJECTID":213630},"geometry":{"x":171545.34630400129,"y":2536137.7884589992}},{"attributes":{"ID":213632,"DIS_CODE":0,"TOWNNAME":"永康區","LI":"六合里","LIN":"8鄰","STREET":"六合路","SECT":" ","MAREA":" ","LANE":"４７巷","ALLEY":" ","HOUSE_NO":"３６號","E_COORD97":171092.59445400001,"N_COORD97":2545594.5974099999,"ADDRESS":"六合路４７巷３６號","OBJECTID":213631},"geometry":{"x":171092.59445399977,"y":2545594.5974119995}},{"attributes":{"ID":213633,"DIS_CODE":0,"TOWNNAME":"關廟區","LI":"龜洞里","LIN":"8鄰","STREET":"官崙街","SECT":" ","MAREA":" ","LANE":"３２巷","ALLEY":" ","HOUSE_NO":"７號","E_COORD97":183441.64000000001,"N_COORD97":2533407.2999999998,"ADDRESS":"官崙街３２７號","OBJECTID":213632},"geometry":{"x":183441.64000000153,"y":2533407.3000000007}},{"attributes":{"ID":213634,"DIS_CODE":0,"TOWNNAME":"關廟區","LI":"龜洞里","LIN":"8鄰","STREET":"南雄南路","SECT":" ","MAREA":" ","LANE":"７０１巷","ALLEY":" ","HOUSE_NO":"２５號","E_COORD97":183395.69,"N_COORD97":2533365.2999999998,"ADDRESS":"南雄南路７０１２５號","OBJECTID":213633},"geometry":{"x":183395.69000000041,"y":2533365.3000000026}},{"attributes":{"ID":213635,"DIS_CODE":0,"TOWNNAME":"關廟區","LI":"龜洞里","LIN":"8鄰","STREET":"官崙街","SECT":" ","MAREA":" ","LANE":"３２巷","ALLEY":" ","HOUSE_NO":"９號","E_COORD97":183435.04000000001,"N_COORD97":2533405.2999999998,"ADDRESS":"官崙街３２９號","OBJECTID":213634},"geometry":{"x":183435.04000000004,"y":2533405.3000000026}},{"attributes":{"ID":213636,"DIS_CODE":0,"TOWNNAME":"安南區","LI":"理想里","LIN":"8鄰","STREET":"海佃路","SECT":"二段","MAREA":" ","LANE":"１５０巷","ALLEY":" ","HOUSE_NO":"１８６之３號","E_COORD97":167266.69279,"N_COORD97":2548534.19056,"ADDRESS":"海佃路二段１５０巷１８６之３號","OBJECTID":213635},"geometry":{"x":167266.69278999977,"y":2548534.19056}},{"attributes":{"ID":213637,"DIS_CODE":0,"TOWNNAME":"安南區","LI":"理想里","LIN":"8鄰","STREET":"海佃路","SECT":"二段","MAREA":" ","LANE":"１５０巷","ALLEY":" ","HOUSE_NO":"１８６之５號","E_COORD97":167270.50724000001,"N_COORD97":2548540.1172199999,"ADDRESS":"海佃路二段１５０巷１８６之５號","OBJECTID":213636},"geometry":{"x":167270.50724000111,"y":2548540.1172200032}},{"attributes":{"ID":213638,"DIS_CODE":0,"TOWNNAME":"關廟區","LI":"龜洞里","LIN":"8鄰","STREET":"南雄南路","SECT":" ","MAREA":" ","LANE":"７０１巷","ALLEY":" ","HOUSE_NO":"３１號","E_COORD97":183404.89000000001,"N_COORD97":2533330.2999999998,"ADDRESS":"南雄南路７０１３１號","OBJECTID":213637},"geometry":{"x":183404.8900000006,"y":2533330.3000000026}},{"attributes":{"ID":213639,"DIS_CODE":0,"TOWNNAME":"安南區","LI":"海西里","LIN":"8鄰","STREET":"海中街","SECT":" ","MAREA":" ","LANE":"７７巷","ALLEY":" ","HOUSE_NO":"９０號","E_COORD97":166230.849728,"N_COORD97":2548814.6455100002,"ADDRESS":"海中街７７巷９０號","OBJECTID":213638},"geometry":{"x":166230.84972800221,"y":2548814.6455090027}},{"attributes":{"ID":213640,"DIS_CODE":0,"TOWNNAME":"南區","LI":"郡南里","LIN":"8鄰","STREET":"永成路","SECT":"三段","MAREA":" ","LANE":"１７７巷","ALLEY":" ","HOUSE_NO":"２１號","E_COORD97":167417.607479,"N_COORD97":2540832.57761,"ADDRESS":"永成路三段１７７巷２１號","OBJECTID":213639},"geometry":{"x":167417.6074790014,"y":2540832.5776120033}},{"attributes":{"ID":213641,"DIS_CODE":0,"TOWNNAME":"安南區","LI":"理想里","LIN":"8鄰","STREET":"海佃路","SECT":"二段","MAREA":" ","LANE":"１５０巷","ALLEY":" ","HOUSE_NO":"１８６之１號","E_COORD97":167259.91154999999,"N_COORD97":2548520.8555600001,"ADDRESS":"海佃路二段１５０巷１８６之１號","OBJECTID":213640},"geometry":{"x":167259.91155000124,"y":2548520.8555600028}},{"attributes":{"ID":213642,"DIS_CODE":0,"TOWNNAME":"安南區","LI":"新順里","LIN":"8鄰","STREET":"總安街","SECT":"一段","MAREA":" ","LANE":"３６２巷","ALLEY":" ","HOUSE_NO":"８號","E_COORD97":169219.376697,"N_COORD97":2550409.5862799999,"ADDRESS":"總安街一段３６２巷８號","OBJECTID":213641},"geometry":{"x":169219.37669700012,"y":2550409.5862800013}},{"attributes":{"ID":213643,"DIS_CODE":0,"TOWNNAME":"安南區","LI":"新順里","LIN":"8鄰","STREET":"總安街","SECT":"一段","MAREA":" ","LANE":"３６２巷","ALLEY":" ","HOUSE_NO":"２２之１號","E_COORD97":169224.24655700001,"N_COORD97":2550449.37959,"ADDRESS":"總安街一段３６２巷２２之１號","OBJECTID":213642},"geometry":{"x":169224.24655700009,"y":2550449.3795920033}},{"attributes":{"ID":213644,"DIS_CODE":0,"TOWNNAME":"安南區","LI":"新順里","LIN":"8鄰","STREET":"總安街","SECT":"二段","MAREA":" ","LANE":"３１８巷","ALLEY":" ","HOUSE_NO":"１３之３號","E_COORD97":169309.68084099999,"N_COORD97":2550549.0745399999,"ADDRESS":"總安街二段３１８巷１３之３號","OBJECTID":213643},"geometry":{"x":169309.68084099982,"y":2550549.0745379999}},{"attributes":{"ID":213645,"DIS_CODE":0,"TOWNNAME":"歸仁區","LI":"南興里","LIN":"34鄰","STREET":"民生北街","SECT":" ","MAREA":" ","LANE":"５０巷","ALLEY":" ","HOUSE_NO":"５號","E_COORD97":176314.84565199999,"N_COORD97":2541090.0087100002,"ADDRESS":"民生北街５０巷５號","OBJECTID":213644},"geometry":{"x":176314.84565200098,"y":2541090.008708002}},{"attributes":{"ID":213646,"DIS_CODE":0,"TOWNNAME":"東區","LI":"崇明里","LIN":"15鄰","STREET":"崇明路","SECT":" ","MAREA":" ","LANE":" ","ALLEY":" ","HOUSE_NO":"５６０號","E_COORD97":170468.10999999999,"N_COORD97":2541510.2799999998,"ADDRESS":"崇明路５６０號","OBJECTID":213645},"geometry":{"x":170468.11000000127,"y":2541510.2800000012}},{"attributes":{"ID":213647,"DIS_CODE":0,"TOWNNAME":"歸仁區","LI":"西埔里","LIN":"7鄰","STREET":"西埔一街","SECT":" ","MAREA":" ","LANE":"６５巷","ALLEY":" ","HOUSE_NO":"７號","E_COORD97":177086.90941299999,"N_COORD97":2544325.66249,"ADDRESS":"西埔一街６５巷７號","OBJECTID":213646},"geometry":{"x":177086.90941299964,"y":2544325.6624849997}},{"attributes":{"ID":213648,"DIS_CODE":0,"TOWNNAME":"關廟區","LI":"東勢里","LIN":"7鄰","STREET":"旺萊路","SECT":" ","MAREA":" ","LANE":"１３９巷","ALLEY":" ","HOUSE_NO":"２２號","E_COORD97":181754.46085999999,"N_COORD97":2539337.81592,"ADDRESS":"旺萊路１３９巷２２號","OBJECTID":213647},"geometry":{"x":181754.46085999999,"y":2539337.8159220014}},{"attributes":{"ID":213649,"DIS_CODE":0,"TOWNNAME":"新營區","LI":"大宏里","LIN":"12鄰","STREET":"開元路","SECT":" ","MAREA":" ","LANE":"５９巷","ALLEY":" ","HOUSE_NO":"１２號之３","E_COORD97":180859.57999999999,"N_COORD97":2578810.1600000001,"ADDRESS":"開元路５９巷１２號之３","OBJECTID":213648},"geometry":{"x":180859.58000000101,"y":2578810.160000002}},{"attributes":{"ID":213650,"DIS_CODE":0,"TOWNNAME":"安南區","LI":"城東里","LIN":"7鄰","STREET":"城北路","SECT":" ","MAREA":" ","LANE":"９８巷","ALLEY":" ","HOUSE_NO":"１０２號","E_COORD97":161190.35037,"N_COORD97":2551527.7239700002,"ADDRESS":"城北路９８巷１０２號","OBJECTID":213649},"geometry":{"x":161190.35037000012,"y":2551527.7239720002}},{"attributes":{"ID":213651,"DIS_CODE":0,"TOWNNAME":"關廟區","LI":"下湖里","LIN":"7鄰","STREET":"關新路","SECT":"一段","MAREA":" ","LANE":"５１５巷","ALLEY":" ","HOUSE_NO":"５號","E_COORD97":179149.84,"N_COORD97":2543209.2999999998,"ADDRESS":"關新路一段５１５巷５號","OBJECTID":213650},"geometry":{"x":179149.84000000171,"y":2543209.3000000045}},{"attributes":{"ID":213652,"DIS_CODE":0,"TOWNNAME":"關廟區","LI":"龜洞里","LIN":"7鄰","STREET":"南雄南路","SECT":" ","MAREA":" ","LANE":"７８１巷","ALLEY":" ","HOUSE_NO":"４２號","E_COORD97":183166.73999999999,"N_COORD97":2533144.2999999998,"ADDRESS":"南雄南路７８１巷４２號","OBJECTID":213651},"geometry":{"x":183166.73999999929,"y":2533144.3000000026}},{"attributes":{"ID":213653,"DIS_CODE":0,"TOWNNAME":"新營區","LI":"大宏里","LIN":"11鄰","STREET":"三民路","SECT":" ","MAREA":" ","LANE":"８巷","ALLEY":" ","HOUSE_NO":"１３號之３","E_COORD97":180552.62,"N_COORD97":2578571.2799999998,"ADDRESS":"三民路８巷１３號之３","OBJECTID":213652},"geometry":{"x":180552.62000000104,"y":2578571.2800000012}},{"attributes":{"ID":213654,"DIS_CODE":0,"TOWNNAME":"安南區","LI":"淵中里","LIN":"6鄰","STREET":"本田路","SECT":"三段","MAREA":" ","LANE":"３３９巷","ALLEY":" ","HOUSE_NO":"８３號","E_COORD97":164534.75171899999,"N_COORD97":2549785.8323300001,"ADDRESS":"本田路三段３３９巷８３號","OBJECTID":213653},"geometry":{"x":164534.75171899982,"y":2549785.8323260024}},{"attributes":{"ID":213655,"DIS_CODE":0,"TOWNNAME":"安南區","LI":"新順里","LIN":"7鄰","STREET":"北安路","SECT":"三段","MAREA":" ","LANE":"７５７巷","ALLEY":" ","HOUSE_NO":"１２號","E_COORD97":169144.60256999999,"N_COORD97":2549977.1789899999,"ADDRESS":"北安路三段７５７巷１２號","OBJECTID":213654},"geometry":{"x":169144.60257000197,"y":2549977.178985998}},{"attributes":{"ID":213656,"DIS_CODE":0,"TOWNNAME":"歸仁區","LI":"西埔里","LIN":"8鄰","STREET":"保大路","SECT":"二段","MAREA":" ","LANE":"１７０巷","ALLEY":" ","HOUSE_NO":"１５號","E_COORD97":176914.57999999999,"N_COORD97":2544221.25,"ADDRESS":"保大路二段１７５１５號","OBJECTID":213655},"geometry":{"x":176914.58000000101,"y":2544221.25}},{"attributes":{"ID":213657,"DIS_CODE":0,"TOWNNAME":"仁德區","LI":"後壁里","LIN":"12鄰","STREET":"德南路","SECT":" ","MAREA":" ","LANE":"２５１巷","ALLEY":" ","HOUSE_NO":"４１號","E_COORD97":173861.174478,"N_COORD97":2538492.1335499999,"ADDRESS":"德南路２５１巷４１號","OBJECTID":213656},"geometry":{"x":173861.17447800003,"y":2538492.1335520018}},{"attributes":{"ID":213658,"DIS_CODE":0,"TOWNNAME":"安南區","LI":"海東里","LIN":"22鄰","STREET":"同安路","SECT":" ","MAREA":" ","LANE":"８３巷","ALLEY":" ","HOUSE_NO":"４０號","E_COORD97":166882.52757100001,"N_COORD97":2549025.9233300001,"ADDRESS":"同安路８３巷４０號","OBJECTID":213657},"geometry":{"x":166882.52757100016,"y":2549025.9233310018}},{"attributes":{"ID":213659,"DIS_CODE":0,"TOWNNAME":"南區","LI":"建南里","LIN":"2鄰","STREET":"永成路","SECT":"二段","MAREA":" ","LANE":"８８１巷","ALLEY":" ","HOUSE_NO":"８６號","E_COORD97":167267.02296500001,"N_COORD97":2540235.0040099998,"ADDRESS":"永成路二段８８１巷８６號","OBJECTID":213658},"geometry":{"x":167267.02296500001,"y":2540235.0040050037}},{"attributes":{"ID":213660,"DIS_CODE":0,"TOWNNAME":"南區","LI":"建南里","LIN":"2鄰","STREET":"永成路","SECT":"二段","MAREA":" ","LANE":"８８１巷","ALLEY":" ","HOUSE_NO":"８８號","E_COORD97":167262.68107799999,"N_COORD97":2540234.2631700002,"ADDRESS":"永成路二段８８１巷８８號","OBJECTID":213659},"geometry":{"x":167262.68107799999,"y":2540234.2631720025}},{"attributes":{"ID":213661,"DIS_CODE":0,"TOWNNAME":"關廟區","LI":"東勢里","LIN":"15鄰","STREET":"東興路","SECT":" ","MAREA":" ","LANE":"１４５巷","ALLEY":" ","HOUSE_NO":"２９號","E_COORD97":181597.509142,"N_COORD97":2539630.3618899998,"ADDRESS":"東興路１４５巷２９號","OBJECTID":213660},"geometry":{"x":181597.50914200116,"y":2539630.3618879989}},{"attributes":{"ID":213662,"DIS_CODE":0,"TOWNNAME":"南區","LI":"建南里","LIN":"2鄰","STREET":"永成路","SECT":"二段","MAREA":" ","LANE":"８８１巷","ALLEY":" ","HOUSE_NO":"９２號","E_COORD97":167256.00939699999,"N_COORD97":2540232.3581699999,"ADDRESS":"永成路二段８８１巷９２號","OBJECTID":213661},"geometry":{"x":167256.00939700101,"y":2540232.3581730034}},{"attributes":{"ID":213663,"DIS_CODE":0,"TOWNNAME":"安南區","LI":"城中里","LIN":"5鄰","STREET":"安中路","SECT":"六段","MAREA":" ","LANE":"５１９巷","ALLEY":" ","HOUSE_NO":"２５０號","E_COORD97":160791.06051000001,"N_COORD97":2551213.1136699999,"ADDRESS":"安中路六段５１９巷２５０號","OBJECTID":213662},"geometry":{"x":160791.06051000021,"y":2551213.1136700008}},{"attributes":{"ID":213664,"DIS_CODE":0,"TOWNNAME":"南區","LI":"建南里","LIN":"2鄰","STREET":"永成路","SECT":"二段","MAREA":" ","LANE":"８８１巷","ALLEY":" ","HOUSE_NO":"９６號","E_COORD97":167252.72650700001,"N_COORD97":2540231.82901,"ADDRESS":"永成路二段８８１巷９６號","OBJECTID":213663},"geometry":{"x":167252.72650700063,"y":2540231.8290069997}},{"attributes":{"ID":213665,"DIS_CODE":0,"TOWNNAME":"南區","LI":"建南里","LIN":"2鄰","STREET":"永成路","SECT":"二段","MAREA":" ","LANE":"８８１巷","ALLEY":" ","HOUSE_NO":"１０６號","E_COORD97":167238.32415,"N_COORD97":2540228.6540100002,"ADDRESS":"永成路二段８８１巷１０６號","OBJECTID":213664},"geometry":{"x":167238.32415000163,"y":2540228.6540089995}},{"attributes":{"ID":213666,"DIS_CODE":0,"TOWNNAME":"安南區","LI":"安東里","LIN":"15鄰","STREET":"安通路","SECT":"三段","MAREA":" ","LANE":"１３０巷","ALLEY":" ","HOUSE_NO":"８號","E_COORD97":169464.55148699999,"N_COORD97":2547859.64451,"ADDRESS":"安通路三段１３０巷８號","OBJECTID":213665},"geometry":{"x":169464.55148700159,"y":2547859.6445080042}},{"attributes":{"ID":213667,"DIS_CODE":0,"TOWNNAME":"永康區","LI":"埔園里","LIN":"9鄰","STREET":"中山路","SECT":" ","MAREA":" ","LANE":" ","ALLEY":" ","HOUSE_NO":"１１１號","E_COORD97":173738.79000000001,"N_COORD97":2547841.9900000002,"ADDRESS":"中山路１１１號","OBJECTID":213666},"geometry":{"x":173738.79000000004,"y":2547841.9900000039}},{"attributes":{"ID":213668,"DIS_CODE":0,"TOWNNAME":"歸仁區","LI":"媽廟里","LIN":"15鄰","STREET":"媽廟二街","SECT":" ","MAREA":" ","LANE":"３１巷","ALLEY":" ","HOUSE_NO":"１９號","E_COORD97":177698.88,"N_COORD97":2543793.7200000002,"ADDRESS":"媽廟二街３１巷１９號","OBJECTID":213667},"geometry":{"x":177698.88000000082,"y":2543793.7200000025}},{"attributes":{"ID":213669,"DIS_CODE":0,"TOWNNAME":"仁德區","LI":"上崙里","LIN":"1鄰","STREET":"德崙路","SECT":" ","MAREA":" ","LANE":"７７巷","ALLEY":" ","HOUSE_NO":"８２號三樓之４","E_COORD97":173603.19909000001,"N_COORD97":2538484.4586299998,"ADDRESS":"德崙路７７巷８２號三樓之４","OBJECTID":213668},"geometry":{"x":173603.19909000024,"y":2538484.4586299993}},{"attributes":{"ID":213670,"DIS_CODE":0,"TOWNNAME":"仁德區","LI":"上崙里","LIN":"1鄰","STREET":"德崙路","SECT":" ","MAREA":" ","LANE":"７７巷","ALLEY":" ","HOUSE_NO":"８２號五樓之２","E_COORD97":173603.19909000001,"N_COORD97":2538484.4586299998,"ADDRESS":"德崙路７７巷８２號五樓之２","OBJECTID":213669},"geometry":{"x":173603.19909000024,"y":2538484.4586299993}},{"attributes":{"ID":213671,"DIS_CODE":0,"TOWNNAME":"仁德區","LI":"上崙里","LIN":"1鄰","STREET":"德崙路","SECT":" ","MAREA":" ","LANE":"７７巷","ALLEY":" ","HOUSE_NO":"８４號一樓之２","E_COORD97":173598.74978000001,"N_COORD97":2538465.4086500001,"ADDRESS":"德崙路７７巷８４號一樓之２","OBJECTID":213670},"geometry":{"x":173598.74978000019,"y":2538465.4086499996}},{"attributes":{"ID":213672,"DIS_CODE":0,"TOWNNAME":"東區","LI":"裕聖里","LIN":"15鄰","STREET":"裕信路","SECT":" ","MAREA":" ","LANE":" ","ALLEY":" ","HOUSE_NO":"３３０之９號","E_COORD97":172547.64999999999,"N_COORD97":2542391.3199999998,"ADDRESS":"裕信路３３０之９號","OBJECTID":213671},"geometry":{"x":172547.6500000013,"y":2542391.3200000003}},{"attributes":{"ID":213673,"DIS_CODE":0,"TOWNNAME":"東區","LI":"裕聖里","LIN":"15鄰","STREET":"裕信路","SECT":" ","MAREA":" ","LANE":" ","ALLEY":" ","HOUSE_NO":"３３０之８號","E_COORD97":172551.60000000001,"N_COORD97":2542389.6299999999,"ADDRESS":"裕信路３３０之８號","OBJECTID":213672},"geometry":{"x":172551.59999999963,"y":2542389.6300000008}},{"attributes":{"ID":213674,"DIS_CODE":0,"TOWNNAME":"下營區","LI":"開化里","LIN":"2鄰","STREET":" ","SECT":" ","MAREA":"中營","LANE":" ","ALLEY":" ","HOUSE_NO":"８６號","E_COORD97":175592.51999999999,"N_COORD97":2568184.5499999998,"ADDRESS":"中營８６號","OBJECTID":213673},"geometry":{"x":175592.52000000048,"y":2568184.5500000045}},{"attributes":{"ID":213675,"DIS_CODE":0,"TOWNNAME":"仁德區","LI":"上崙里","LIN":"1鄰","STREET":"德崙路","SECT":" ","MAREA":" ","LANE":"７７巷","ALLEY":" ","HOUSE_NO":"８４號一樓之４","E_COORD97":173598.74978000001,"N_COORD97":2538465.4086500001,"ADDRESS":"德崙路７７巷８４號一樓之４","OBJECTID":213674},"geometry":{"x":173598.74978000019,"y":2538465.4086499996}},{"attributes":{"ID":213676,"DIS_CODE":0,"TOWNNAME":"南區","LI":"省躬里","LIN":"15鄰","STREET":"明興路","SECT":" ","MAREA":" ","LANE":"９２５巷","ALLEY":" ","HOUSE_NO":"２號","E_COORD97":166158.5,"N_COORD97":2537108.0499999998,"ADDRESS":"明興路９２５巷２號","OBJECTID":213675},"geometry":{"x":166158.5,"y":2537108.0499999989}},{"attributes":{"ID":213677,"DIS_CODE":0,"TOWNNAME":"仁德區","LI":"上崙里","LIN":"1鄰","STREET":"德崙路","SECT":" ","MAREA":" ","LANE":"７７巷","ALLEY":" ","HOUSE_NO":"８４號一樓之５","E_COORD97":173598.74978000001,"N_COORD97":2538465.4086500001,"ADDRESS":"德崙路７７巷８４號一樓之５","OBJECTID":213676},"geometry":{"x":173598.74978000019,"y":2538465.4086499996}},{"attributes":{"ID":213678,"DIS_CODE":0,"TOWNNAME":"仁德區","LI":"上崙里","LIN":"1鄰","STREET":"德崙路","SECT":" ","MAREA":" ","LANE":"７７巷","ALLEY":" ","HOUSE_NO":"８４號二樓之１","E_COORD97":173598.74978000001,"N_COORD97":2538465.4086500001,"ADDRESS":"德崙路７７巷８４號二樓之１","OBJECTID":213677},"geometry":{"x":173598.74978000019,"y":2538465.4086499996}},{"attributes":{"ID":213679,"DIS_CODE":0,"TOWNNAME":"歸仁區","LI":"西埔里","LIN":"15鄰","STREET":"西埔一街","SECT":" ","MAREA":" ","LANE":"５４５巷","ALLEY":" ","HOUSE_NO":"２６號","E_COORD97":177053.368476,"N_COORD97":2545215.8656500001,"ADDRESS":"西埔一街５４５巷２６號","OBJECTID":213678},"geometry":{"x":177053.36847599875,"y":2545215.8656460047}},{"attributes":{"ID":213680,"DIS_CODE":0,"TOWNNAME":"仁德區","LI":"上崙里","LIN":"1鄰","STREET":"德崙路","SECT":" ","MAREA":" ","LANE":"７７巷","ALLEY":" ","HOUSE_NO":"８４號二樓之３","E_COORD97":173598.74978000001,"N_COORD97":2538465.4086500001,"ADDRESS":"德崙路７７巷８４號二樓之３","OBJECTID":213679},"geometry":{"x":173598.74978000019,"y":2538465.4086499996}},{"attributes":{"ID":213681,"DIS_CODE":0,"TOWNNAME":"永康區","LI":"埔園里","LIN":"9鄰","STREET":"中山路","SECT":" ","MAREA":" ","LANE":" ","ALLEY":" ","HOUSE_NO":"１２１之５號","E_COORD97":173723.92999999999,"N_COORD97":2547906.6600000001,"ADDRESS":"中山路１２１之５號","OBJECTID":213680},"geometry":{"x":173723.9299999997,"y":2547906.660000002}},{"attributes":{"ID":213682,"DIS_CODE":0,"TOWNNAME":"仁德區","LI":"上崙里","LIN":"1鄰","STREET":"德崙路","SECT":" ","MAREA":" ","LANE":"７７巷","ALLEY":" ","HOUSE_NO":"８４號二樓之５","E_COORD97":173598.74978000001,"N_COORD97":2538465.4086500001,"ADDRESS":"德崙路７７巷８４號二樓之５","OBJECTID":213681},"geometry":{"x":173598.74978000019,"y":2538465.4086499996}},{"attributes":{"ID":213683,"DIS_CODE":0,"TOWNNAME":"永康區","LI":"勝利里","LIN":"9鄰","STREET":"勝利街","SECT":" ","MAREA":" ","LANE":" ","ALLEY":" ","HOUSE_NO":"５９號","E_COORD97":171326.51000000001,"N_COORD97":2544670.7599999998,"ADDRESS":"勝利街５９號","OBJECTID":213682},"geometry":{"x":171326.50999999978,"y":2544670.7600000016}},{"attributes":{"ID":213684,"DIS_CODE":0,"TOWNNAME":"仁德區","LI":"上崙里","LIN":"1鄰","STREET":"德崙路","SECT":" ","MAREA":" ","LANE":"７７巷","ALLEY":" ","HOUSE_NO":"８４號一樓之１","E_COORD97":173598.74978000001,"N_COORD97":2538465.4086500001,"ADDRESS":"德崙路７７巷８４號一樓之１","OBJECTID":213683},"geometry":{"x":173598.74978000019,"y":2538465.4086499996}},{"attributes":{"ID":213685,"DIS_CODE":0,"TOWNNAME":"仁德區","LI":"上崙里","LIN":"1鄰","STREET":"德崙路","SECT":" ","MAREA":" ","LANE":"７７巷","ALLEY":" ","HOUSE_NO":"８４號二樓之４","E_COORD97":173598.74978000001,"N_COORD97":2538465.4086500001,"ADDRESS":"德崙路７７巷８４號二樓之４","OBJECTID":213684},"geometry":{"x":173598.74978000019,"y":2538465.4086499996}},{"attributes":{"ID":213686,"DIS_CODE":0,"TOWNNAME":"麻豆區","LI":"\u25A0江里","LIN":"5鄰","STREET":"民權路","SECT":" ","MAREA":" ","LANE":"１８巷","ALLEY":" ","HOUSE_NO":"６號之４","E_COORD97":173288.840968,"N_COORD97":2564577.0537700001,"ADDRESS":"民權路１８巷６號之４","OBJECTID":213685},"geometry":{"x":173288.84096800163,"y":2564577.0537700038}},{"attributes":{"ID":213687,"DIS_CODE":0,"TOWNNAME":"永康區","LI":"埔園里","LIN":"9鄰","STREET":"中山路","SECT":" ","MAREA":" ","LANE":" ","ALLEY":" ","HOUSE_NO":"１０３號","E_COORD97":173741.48999999999,"N_COORD97":2547823.7400000002,"ADDRESS":"中山路１０３號","OBJECTID":213686},"geometry":{"x":173741.48999999929,"y":2547823.7400000039}},{"attributes":{"ID":213688,"DIS_CODE":0,"TOWNNAME":"永康區","LI":"南灣里","LIN":"9鄰","STREET":"大灣路","SECT":" ","MAREA":" ","LANE":" ","ALLEY":" ","HOUSE_NO":"５９９號","E_COORD97":174266.48000000001,"N_COORD97":2544527.1699999999,"ADDRESS":"大灣路５９９號","OBJECTID":213687},"geometry":{"x":174266.48000000138,"y":2544527.1699999999}},{"attributes":{"ID":213689,"DIS_CODE":0,"TOWNNAME":"永康區","LI":"烏竹里","LIN":"9鄰","STREET":"龍橋街","SECT":" ","MAREA":" ","LANE":" ","ALLEY":" ","HOUSE_NO":"３８２號","E_COORD97":174482.10999999999,"N_COORD97":2549137.6000000001,"ADDRESS":"龍橋街３８２號","OBJECTID":213688},"geometry":{"x":174482.11000000127,"y":2549137.5999999996}},{"attributes":{"ID":213690,"DIS_CODE":0,"TOWNNAME":"永康區","LI":"南灣里","LIN":"9鄰","STREET":"大灣路","SECT":" ","MAREA":" ","LANE":" ","ALLEY":" ","HOUSE_NO":"６４５號","E_COORD97":174124.01000000001,"N_COORD97":2544501.4300000002,"ADDRESS":"大灣路６４５號","OBJECTID":213689},"geometry":{"x":174124.00999999885,"y":2544501.4299999997}},{"attributes":{"ID":213691,"DIS_CODE":0,"TOWNNAME":"永康區","LI":"南灣里","LIN":"9鄰","STREET":"大灣路","SECT":" ","MAREA":" ","LANE":" ","ALLEY":" ","HOUSE_NO":"６４９號","E_COORD97":174107.42999999999,"N_COORD97":2544501.1699999999,"ADDRESS":"大灣路６４９號","OBJECTID":213690},"geometry":{"x":174107.4299999997,"y":2544501.1700000037}},{"attributes":{"ID":213692,"DIS_CODE":0,"TOWNNAME":"安南區","LI":"四草里","LIN":"6鄰","STREET":"四草大道","SECT":" ","MAREA":" ","LANE":"６８１巷","ALLEY":" ","HOUSE_NO":"２０號","E_COORD97":160955.893897,"N_COORD97":2546178.4534200002,"ADDRESS":"四草大道６８１巷２０號","OBJECTID":213691},"geometry":{"x":160955.8938970007,"y":2546178.4534160029}},{"attributes":{"ID":213693,"DIS_CODE":0,"TOWNNAME":"安南區","LI":"四草里","LIN":"6鄰","STREET":"四草大道","SECT":" ","MAREA":" ","LANE":"６８１巷","ALLEY":" ","HOUSE_NO":"２０號","E_COORD97":160957.37643,"N_COORD97":2546169.56342,"ADDRESS":"四草大道６８１巷２０號","OBJECTID":213692},"geometry":{"x":160957.37643000111,"y":2546169.5634200014}},{"attributes":{"ID":213694,"DIS_CODE":0,"TOWNNAME":"永康區","LI":"南灣里","LIN":"9鄰","STREET":"南興路","SECT":" ","MAREA":" ","LANE":" ","ALLEY":" ","HOUSE_NO":"１０９號","E_COORD97":174292.73000000001,"N_COORD97":2544516.6299999999,"ADDRESS":"南興路１０９號","OBJECTID":213693},"geometry":{"x":174292.72999999952,"y":2544516.629999999}},{"attributes":{"ID":213695,"DIS_CODE":0,"TOWNNAME":"永康區","LI":"烏竹里","LIN":"9鄰","STREET":"龍橋街","SECT":" ","MAREA":" ","LANE":" ","ALLEY":" ","HOUSE_NO":"３７２號","E_COORD97":174493.47,"N_COORD97":2549109.8500000001,"ADDRESS":"龍橋街３７２號","OBJECTID":213694},"geometry":{"x":174493.46999999974,"y":2549109.8499999996}},{"attributes":{"ID":213696,"DIS_CODE":0,"TOWNNAME":"下營區","LI":"中營里","LIN":"2鄰","STREET":" ","SECT":" ","MAREA":"中營","LANE":" ","ALLEY":" ","HOUSE_NO":"８７５號","E_COORD97":176139.42000000001,"N_COORD97":2568676.6899999999,"ADDRESS":"中營８７５號","OBJECTID":213695},"geometry":{"x":176139.42000000086,"y":2568676.6899999995}},{"attributes":{"ID":213697,"DIS_CODE":0,"TOWNNAME":"安南區","LI":"四草里","LIN":"6鄰","STREET":"四草大道","SECT":" ","MAREA":" ","LANE":"６８１巷","ALLEY":" ","HOUSE_NO":"２２號","E_COORD97":160950.17552399999,"N_COORD97":2546171.2567500002,"ADDRESS":"四草大道６８１巷２２號","OBJECTID":213696},"geometry":{"x":160950.17552400194,"y":2546171.2567529995}},{"attributes":{"ID":213698,"DIS_CODE":0,"TOWNNAME":"安南區","LI":"四草里","LIN":"5鄰","STREET":"四草大道","SECT":" ","MAREA":" ","LANE":"６８１巷","ALLEY":" ","HOUSE_NO":"２３號","E_COORD97":160960.12972900001,"N_COORD97":2546155.8051,"ADDRESS":"四草大道６８１巷２３號","OBJECTID":213697},"geometry":{"x":160960.12972899992,"y":2546155.8050950002}},{"attributes":{"ID":213699,"DIS_CODE":0,"TOWNNAME":"安南區","LI":"四草里","LIN":"6鄰","STREET":"四草大道","SECT":" ","MAREA":" ","LANE":"６８１巷","ALLEY":" ","HOUSE_NO":"２６號","E_COORD97":160943.398193,"N_COORD97":2546162.7900899998,"ADDRESS":"四草大道６８１巷２６號","OBJECTID":213698},"geometry":{"x":160943.39819299988,"y":2546162.7900910042}},{"attributes":{"ID":213700,"DIS_CODE":0,"TOWNNAME":"安南區","LI":"四草里","LIN":"6鄰","STREET":"四草大道","SECT":" ","MAREA":" ","LANE":"６８１巷","ALLEY":" ","HOUSE_NO":"２８號","E_COORD97":160937.468028,"N_COORD97":2546150.3017600002,"ADDRESS":"四草大道６８１巷２８號","OBJECTID":213699},"geometry":{"x":160937.46802799962,"y":2546150.3017640021}},{"attributes":{"ID":213701,"DIS_CODE":0,"TOWNNAME":"下營區","LI":"中營里","LIN":"2鄰","STREET":" ","SECT":" ","MAREA":"中營","LANE":" ","ALLEY":" ","HOUSE_NO":"８７６號","E_COORD97":176135.22,"N_COORD97":2568675.6299999999,"ADDRESS":"中營８７６號","OBJECTID":213700},"geometry":{"x":176135.22000000067,"y":2568675.629999999}},{"attributes":{"ID":213702,"DIS_CODE":0,"TOWNNAME":"安南區","LI":"四草里","LIN":"6鄰","STREET":"四草大道","SECT":" ","MAREA":" ","LANE":"６８１巷","ALLEY":" ","HOUSE_NO":"３０號","E_COORD97":160926.66665599999,"N_COORD97":2546146.06843,"ADDRESS":"四草大道６８１巷３０號","OBJECTID":213701},"geometry":{"x":160926.66665600054,"y":2546146.0684329998}},{"attributes":{"ID":213703,"DIS_CODE":0,"TOWNNAME":"安南區","LI":"四草里","LIN":"6鄰","STREET":"四草大道","SECT":" ","MAREA":" ","LANE":"６８１巷","ALLEY":" ","HOUSE_NO":"３２號","E_COORD97":160919.042158,"N_COORD97":2546142.6817700001,"ADDRESS":"四草大道６８１巷３２號","OBJECTID":213702},"geometry":{"x":160919.0421580011,"y":2546142.6817680001}},{"attributes":{"ID":213704,"DIS_CODE":0,"TOWNNAME":"歸仁區","LI":"七甲里","LIN":"2鄰","STREET":"七甲五街","SECT":" ","MAREA":" ","LANE":"１０２巷","ALLEY":" ","HOUSE_NO":"３１號","E_COORD97":177173.684806,"N_COORD97":2542662.2783300001,"ADDRESS":"七甲五街１０２巷３１號","OBJECTID":213703},"geometry":{"x":177173.68480599951,"y":2542662.2783349995}},{"attributes":{"ID":213705,"DIS_CODE":0,"TOWNNAME":"下營區","LI":"中營里","LIN":"2鄰","STREET":" ","SECT":" ","MAREA":"中營","LANE":" ","ALLEY":" ","HOUSE_NO":"８７７號之１","E_COORD97":176110.87,"N_COORD97":2568673.3999999999,"ADDRESS":"中營８７７號之１","OBJECTID":213704},"geometry":{"x":176110.87000000104,"y":2568673.4000000041}},{"attributes":{"ID":213706,"DIS_CODE":0,"TOWNNAME":"永康區","LI":"南灣里","LIN":"9鄰","STREET":"大灣路","SECT":" ","MAREA":" ","LANE":" ","ALLEY":" ","HOUSE_NO":"６０５號","E_COORD97":174252.01999999999,"N_COORD97":2544523.6699999999,"ADDRESS":"大灣路６０５號","OBJECTID":213705},"geometry":{"x":174252.01999999955,"y":2544523.6699999999}},{"attributes":{"ID":213707,"DIS_CODE":0,"TOWNNAME":"下營區","LI":"中營里","LIN":"2鄰","STREET":" ","SECT":" ","MAREA":"中營","LANE":" ","ALLEY":" ","HOUSE_NO":"８７７號之２","E_COORD97":176115.79999999999,"N_COORD97":2568674.3700000001,"ADDRESS":"中營８７７號之２","OBJECTID":213706},"geometry":{"x":176115.80000000168,"y":2568674.3700000048}},{"attributes":{"ID":213708,"DIS_CODE":0,"TOWNNAME":"下營區","LI":"中營里","LIN":"2鄰","STREET":" ","SECT":" ","MAREA":"中營","LANE":" ","ALLEY":" ","HOUSE_NO":"８７７號","E_COORD97":176123.81,"N_COORD97":2568676.1200000001,"ADDRESS":"中營８７７號","OBJECTID":213707},"geometry":{"x":176123.80999999866,"y":2568676.1200000048}},{"attributes":{"ID":213709,"DIS_CODE":0,"TOWNNAME":"下營區","LI":"中營里","LIN":"2鄰","STREET":" ","SECT":" ","MAREA":"中營","LANE":" ","ALLEY":" ","HOUSE_NO":"８７８號","E_COORD97":176111.23000000001,"N_COORD97":2568703.8300000001,"ADDRESS":"中營８７８號","OBJECTID":213708},"geometry":{"x":176111.23000000045,"y":2568703.8299999982}},{"attributes":{"ID":213710,"DIS_CODE":0,"TOWNNAME":"下營區","LI":"開化里","LIN":"2鄰","STREET":" ","SECT":" ","MAREA":"中營","LANE":" ","ALLEY":" ","HOUSE_NO":"８７號","E_COORD97":175599.37,"N_COORD97":2568121.3999999999,"ADDRESS":"中營８７號","OBJECTID":213709},"geometry":{"x":175599.37000000104,"y":2568121.4000000022}},{"attributes":{"ID":213711,"DIS_CODE":0,"TOWNNAME":"下營區","LI":"中營里","LIN":"2鄰","STREET":" ","SECT":" ","MAREA":"中營","LANE":" ","ALLEY":" ","HOUSE_NO":"８８０號","E_COORD97":176124.78,"N_COORD97":2568709.2000000002,"ADDRESS":"中營８８０號","OBJECTID":213710},"geometry":{"x":176124.78000000212,"y":2568709.1999999993}},{"attributes":{"ID":213712,"DIS_CODE":0,"TOWNNAME":"下營區","LI":"中營里","LIN":"2鄰","STREET":" ","SECT":" ","MAREA":"中營","LANE":" ","ALLEY":" ","HOUSE_NO":"８８１號","E_COORD97":176111.54000000001,"N_COORD97":2568715.1899999999,"ADDRESS":"中營８８１號","OBJECTID":213711},"geometry":{"x":176111.54000000097,"y":2568715.1900000013}},{"attributes":{"ID":213713,"DIS_CODE":0,"TOWNNAME":"下營區","LI":"中營里","LIN":"2鄰","STREET":" ","SECT":" ","MAREA":"中營","LANE":" ","ALLEY":" ","HOUSE_NO":"８８２號","E_COORD97":176112.28,"N_COORD97":2568719.3100000001,"ADDRESS":"中營８８２號","OBJECTID":213712},"geometry":{"x":176112.28000000026,"y":2568719.3100000024}},{"attributes":{"ID":213714,"DIS_CODE":0,"TOWNNAME":"下營區","LI":"中營里","LIN":"2鄰","STREET":" ","SECT":" ","MAREA":"中營","LANE":" ","ALLEY":" ","HOUSE_NO":"８８３號之１","E_COORD97":176100.94,"N_COORD97":2568745.4399999999,"ADDRESS":"中營８８３號之１","OBJECTID":213713},"geometry":{"x":176100.94000000134,"y":2568745.4399999995}},{"attributes":{"ID":213715,"DIS_CODE":0,"TOWNNAME":"下營區","LI":"中營里","LIN":"2鄰","STREET":" ","SECT":" ","MAREA":"中營","LANE":" ","ALLEY":" ","HOUSE_NO":"８８３號","E_COORD97":176111.67999999999,"N_COORD97":2568732.5600000001,"ADDRESS":"中營８８３號","OBJECTID":213714},"geometry":{"x":176111.68000000063,"y":2568732.5600000005}},{"attributes":{"ID":213716,"DIS_CODE":0,"TOWNNAME":"關廟區","LI":"下湖里","LIN":"1鄰","STREET":"南雄路","SECT":"二段","MAREA":" ","LANE":"８８０巷","ALLEY":" ","HOUSE_NO":"５１號","E_COORD97":180791.45823300001,"N_COORD97":2542308.1990700001,"ADDRESS":"南雄路二段８８０巷５１號","OBJECTID":213715},"geometry":{"x":180791.45823300071,"y":2542308.1990680024}},{"attributes":{"ID":213717,"DIS_CODE":0,"TOWNNAME":"下營區","LI":"中營里","LIN":"2鄰","STREET":" ","SECT":" ","MAREA":"中營","LANE":" ","ALLEY":" ","HOUSE_NO":"８８４號","E_COORD97":176111.78,"N_COORD97":2568756.7200000002,"ADDRESS":"中營８８４號","OBJECTID":213716},"geometry":{"x":176111.78000000119,"y":2568756.7200000025}},{"attributes":{"ID":213718,"DIS_CODE":0,"TOWNNAME":"安南區","LI":"四草里","LIN":"7鄰","STREET":"四草大道","SECT":" ","MAREA":" ","LANE":"８０巷","ALLEY":" ","HOUSE_NO":"１３３號","E_COORD97":161596.351712,"N_COORD97":2544755.5250200001,"ADDRESS":"四草大道８０巷１３３號","OBJECTID":213717},"geometry":{"x":161596.35171199962,"y":2544755.5250170007}},{"attributes":{"ID":213719,"DIS_CODE":0,"TOWNNAME":"下營區","LI":"中營里","LIN":"2鄰","STREET":" ","SECT":" ","MAREA":"中營","LANE":" ","ALLEY":" ","HOUSE_NO":"８８７號","E_COORD97":176126.38,"N_COORD97":2568757.77,"ADDRESS":"中營８８７號","OBJECTID":213718},"geometry":{"x":176126.37999999989,"y":2568757.7699999996}},{"attributes":{"ID":213720,"DIS_CODE":0,"TOWNNAME":"下營區","LI":"中營里","LIN":"2鄰","STREET":" ","SECT":" ","MAREA":"中營","LANE":" ","ALLEY":" ","HOUSE_NO":"８８９號","E_COORD97":176094.54000000001,"N_COORD97":2568666.4100000001,"ADDRESS":"中營８８９號","OBJECTID":213719},"geometry":{"x":176094.54000000097,"y":2568666.4100000039}},{"attributes":{"ID":213721,"DIS_CODE":0,"TOWNNAME":"下營區","LI":"開化里","LIN":"2鄰","STREET":" ","SECT":" ","MAREA":"中營","LANE":" ","ALLEY":" ","HOUSE_NO":"８８號","E_COORD97":175595.10000000001,"N_COORD97":2568120.75,"ADDRESS":"中營８８號","OBJECTID":213720},"geometry":{"x":175595.10000000056,"y":2568120.75}},{"attributes":{"ID":213722,"DIS_CODE":0,"TOWNNAME":"下營區","LI":"中營里","LIN":"2鄰","STREET":" ","SECT":" ","MAREA":"中營","LANE":" ","ALLEY":" ","HOUSE_NO":"８９０號","E_COORD97":176086.66,"N_COORD97":2568665.8700000001,"ADDRESS":"中營８９０號","OBJECTID":213721},"geometry":{"x":176086.66000000201,"y":2568665.870000001}},{"attributes":{"ID":213723,"DIS_CODE":0,"TOWNNAME":"下營區","LI":"中營里","LIN":"2鄰","STREET":" ","SECT":" ","MAREA":"中營","LANE":" ","ALLEY":" ","HOUSE_NO":"８９１號","E_COORD97":176082.29999999999,"N_COORD97":2568665.4300000002,"ADDRESS":"中營８９１號","OBJECTID":213722},"geometry":{"x":176082.30000000075,"y":2568665.4299999978}},{"attributes":{"ID":213724,"DIS_CODE":0,"TOWNNAME":"下營區","LI":"中營里","LIN":"2鄰","STREET":" ","SECT":" ","MAREA":"中營","LANE":" ","ALLEY":" ","HOUSE_NO":"８９３號","E_COORD97":176076.13,"N_COORD97":2568675.6699999999,"ADDRESS":"中營８９３號","OBJECTID":213723},"geometry":{"x":176076.12999999989,"y":2568675.6700000018}},{"attributes":{"ID":213725,"DIS_CODE":0,"TOWNNAME":"下營區","LI":"中營里","LIN":"2鄰","STREET":" ","SECT":" ","MAREA":"中營","LANE":" ","ALLEY":" ","HOUSE_NO":"８９５號","E_COORD97":176076.47,"N_COORD97":2568686.98,"ADDRESS":"中營８９５號","OBJECTID":213724},"geometry":{"x":176076.46999999974,"y":2568686.9800000023}},{"attributes":{"ID":213726,"DIS_CODE":0,"TOWNNAME":"下營區","LI":"中營里","LIN":"2鄰","STREET":" ","SECT":" ","MAREA":"中營","LANE":" ","ALLEY":" ","HOUSE_NO":"８９６號","E_COORD97":176075.91,"N_COORD97":2568695,"ADDRESS":"中營８９６號","OBJECTID":213725},"geometry":{"x":176075.91000000015,"y":2568695}},{"attributes":{"ID":213727,"DIS_CODE":0,"TOWNNAME":"下營區","LI":"中營里","LIN":"2鄰","STREET":" ","SECT":" ","MAREA":"中營","LANE":" ","ALLEY":" ","HOUSE_NO":"８９７號","E_COORD97":176075.64000000001,"N_COORD97":2568699.8500000001,"ADDRESS":"中營８９７號","OBJECTID":213726},"geometry":{"x":176075.63999999966,"y":2568699.8499999978}},{"attributes":{"ID":213728,"DIS_CODE":0,"TOWNNAME":"下營區","LI":"中營里","LIN":"2鄰","STREET":" ","SECT":" ","MAREA":"中營","LANE":" ","ALLEY":" ","HOUSE_NO":"８９８號","E_COORD97":176086.85999999999,"N_COORD97":2568712.3300000001,"ADDRESS":"中營８９８號","OBJECTID":213727},"geometry":{"x":176086.86000000034,"y":2568712.3300000019}},{"attributes":{"ID":213729,"DIS_CODE":0,"TOWNNAME":"下營區","LI":"中營里","LIN":"2鄰","STREET":" ","SECT":" ","MAREA":"中營","LANE":" ","ALLEY":" ","HOUSE_NO":"８９９號之１","E_COORD97":176066.64000000001,"N_COORD97":2568724.46,"ADDRESS":"中營８９９號之１","OBJECTID":213728},"geometry":{"x":176066.6400000006,"y":2568724.4600000046}},{"attributes":{"ID":213730,"DIS_CODE":0,"TOWNNAME":"下營區","LI":"中營里","LIN":"2鄰","STREET":" ","SECT":" ","MAREA":"中營","LANE":" ","ALLEY":" ","HOUSE_NO":"８９９號","E_COORD97":176072.87,"N_COORD97":2568733.8599999999,"ADDRESS":"中營８９９號","OBJECTID":213729},"geometry":{"x":176072.87000000011,"y":2568733.8600000031}},{"attributes":{"ID":213731,"DIS_CODE":0,"TOWNNAME":"安南區","LI":"四草里","LIN":"7鄰","STREET":"四草大道","SECT":" ","MAREA":" ","LANE":"８０巷","ALLEY":" ","HOUSE_NO":"１９２號","E_COORD97":161791.411781,"N_COORD97":2544698.05755,"ADDRESS":"四草大道８０巷１９２號","OBJECTID":213730},"geometry":{"x":161791.41178100184,"y":2544698.0575479995}},{"attributes":{"ID":213732,"DIS_CODE":0,"TOWNNAME":"安南區","LI":"四草里","LIN":"7鄰","STREET":"四草大道","SECT":" ","MAREA":" ","LANE":"８１巷","ALLEY":" ","HOUSE_NO":"９８號","E_COORD97":161198.44847100001,"N_COORD97":2544795.3394999998,"ADDRESS":"四草大道８１巷９８號","OBJECTID":213731},"geometry":{"x":161198.44847100228,"y":2544795.3395029977}},{"attributes":{"ID":213733,"DIS_CODE":0,"TOWNNAME":"安南區","LI":"四草里","LIN":"8鄰","STREET":"四草大道","SECT":" ","MAREA":" ","LANE":"８１巷","ALLEY":" ","HOUSE_NO":"４００號","E_COORD97":160859.58190200001,"N_COORD97":2545163.0043000001,"ADDRESS":"四草大道８１巷４００號","OBJECTID":213732},"geometry":{"x":160859.58190200012,"y":2545163.0043039992}},{"attributes":{"ID":213734,"DIS_CODE":0,"TOWNNAME":"歸仁區","LI":"歸仁里","LIN":"5鄰","STREET":"和平三街","SECT":" ","MAREA":" ","LANE":"１１巷","ALLEY":" ","HOUSE_NO":"８號","E_COORD97":177789.78009799999,"N_COORD97":2540969.36326,"ADDRESS":"和平三街１１巷８號","OBJECTID":213733},"geometry":{"x":177789.78009800054,"y":2540969.3632570002}},{"attributes":{"ID":213735,"DIS_CODE":0,"TOWNNAME":"關廟區","LI":"下湖里","LIN":"1鄰","STREET":"下湖二街","SECT":" ","MAREA":" ","LANE":"１６巷","ALLEY":" ","HOUSE_NO":"２８號","E_COORD97":179457.89000000001,"N_COORD97":2542856.2999999998,"ADDRESS":"下湖二街１６巷２８號","OBJECTID":213734},"geometry":{"x":179457.89000000153,"y":2542856.3000000007}},{"attributes":{"ID":213736,"DIS_CODE":0,"TOWNNAME":"下營區","LI":"中營里","LIN":"2鄰","STREET":" ","SECT":" ","MAREA":"中營","LANE":" ","ALLEY":" ","HOUSE_NO":"９０１號之５","E_COORD97":176065.04000000001,"N_COORD97":2568761.5600000001,"ADDRESS":"中營９０１號之５","OBJECTID":213735},"geometry":{"x":176065.04000000004,"y":2568761.5600000024}},{"attributes":{"ID":213737,"DIS_CODE":0,"TOWNNAME":"關廟區","LI":"下湖里","LIN":"1鄰","STREET":"關新路","SECT":"一段","MAREA":" ","LANE":"３４０","ALLEY":" ","HOUSE_NO":"１３號","E_COORD97":179507.48999999999,"N_COORD97":2542787.2999999998,"ADDRESS":"關新路一段３４０１３號","OBJECTID":213736},"geometry":{"x":179507.49000000115,"y":2542787.3000000007}},{"attributes":{"ID":213738,"DIS_CODE":0,"TOWNNAME":"下營區","LI":"中營里","LIN":"2鄰","STREET":" ","SECT":" ","MAREA":"中營","LANE":" ","ALLEY":" ","HOUSE_NO":"９０１號之６","E_COORD97":176065.04000000001,"N_COORD97":2568765.73,"ADDRESS":"中營９０１號之６","OBJECTID":213737},"geometry":{"x":176065.04000000004,"y":2568765.7300000004}},{"attributes":{"ID":213739,"DIS_CODE":0,"TOWNNAME":"下營區","LI":"開化里","LIN":"2鄰","STREET":" ","SECT":" ","MAREA":"中營","LANE":" ","ALLEY":" ","HOUSE_NO":"９２號之２","E_COORD97":175551.95999999999,"N_COORD97":2568117.5,"ADDRESS":"中營９２號之２","OBJECTID":213738},"geometry":{"x":175551.96000000183,"y":2568117.5000000019}},{"attributes":{"ID":213740,"DIS_CODE":0,"TOWNNAME":"關廟區","LI":"下湖里","LIN":"1鄰","STREET":"下湖二街","SECT":" ","MAREA":" ","LANE":"１６巷","ALLEY":" ","HOUSE_NO":"２０號","E_COORD97":179427.59,"N_COORD97":2542862.2999999998,"ADDRESS":"下湖二街１６巷２０號","OBJECTID":213739},"geometry":{"x":179427.58999999985,"y":2542862.3000000007}},{"attributes":{"ID":213741,"DIS_CODE":0,"TOWNNAME":"安南區","LI":"四草里","LIN":"8鄰","STREET":"四草大道","SECT":" ","MAREA":" ","LANE":"８１巷","ALLEY":" ","HOUSE_NO":"４１７號","E_COORD97":160510.117547,"N_COORD97":2545404.1312699998,"ADDRESS":"四草大道８１巷４１７號","OBJECTID":213740},"geometry":{"x":160510.11754699983,"y":2545404.1312710028}},{"attributes":{"ID":213742,"DIS_CODE":0,"TOWNNAME":"安南區","LI":"四草里","LIN":"8鄰","STREET":"四草大道","SECT":" ","MAREA":" ","LANE":"８１巷","ALLEY":" ","HOUSE_NO":"３４８號","E_COORD97":161043.26543100001,"N_COORD97":2545080.9539100002,"ADDRESS":"四草大道８１巷３４８號","OBJECTID":213741},"geometry":{"x":161043.26543099992,"y":2545080.9539060015}},{"attributes":{"ID":213743,"DIS_CODE":0,"TOWNNAME":"仁德區","LI":"上崙里","LIN":"4鄰","STREET":"德南路","SECT":" ","MAREA":" ","LANE":"２５２巷","ALLEY":" ","HOUSE_NO":"１１號","E_COORD97":173830.432095,"N_COORD97":2538330.4410999999,"ADDRESS":"德南路２５２巷１１號","OBJECTID":213742},"geometry":{"x":173830.43209499959,"y":2538330.4410970025}},{"attributes":{"ID":213744,"DIS_CODE":0,"TOWNNAME":"安南區","LI":"佃東里","LIN":"1鄰","STREET":"安吉路","SECT":"二段","MAREA":" ","LANE":"５１１巷","ALLEY":" ","HOUSE_NO":"３６０號","E_COORD97":166593.93048700001,"N_COORD97":2551358.65056,"ADDRESS":"安吉路二段５１１巷３６０號","OBJECTID":213743},"geometry":{"x":166593.93048700131,"y":2551358.6505559999}},{"attributes":{"ID":213745,"DIS_CODE":0,"TOWNNAME":"新市區","LI":"社內里","LIN":"9鄰","STREET":" ","SECT":" ","MAREA":"社內","LANE":" ","ALLEY":" ","HOUSE_NO":"９１之１５號","E_COORD97":176388.54000000001,"N_COORD97":2553016.5499999998,"ADDRESS":"社內９１之１５號","OBJECTID":213744},"geometry":{"x":176388.54000000004,"y":2553016.5500000026}},{"attributes":{"ID":213746,"DIS_CODE":0,"TOWNNAME":"新市區","LI":"社內里","LIN":"9鄰","STREET":" ","SECT":" ","MAREA":"社內","LANE":" ","ALLEY":" ","HOUSE_NO":"９９之１號","E_COORD97":176379.23000000001,"N_COORD97":2552968.5499999998,"ADDRESS":"社內９９之１號","OBJECTID":213745},"geometry":{"x":176379.23000000045,"y":2552968.5500000045}},{"attributes":{"ID":213747,"DIS_CODE":0,"TOWNNAME":"新市區","LI":"永就里","LIN":"9鄰","STREET":" ","SECT":" ","MAREA":"永就","LANE":" ","ALLEY":" ","HOUSE_NO":"９１之４號","E_COORD97":177524.76000000001,"N_COORD97":2551482.5499999998,"ADDRESS":"永就９１之４號","OBJECTID":213746},"geometry":{"x":177524.76000000164,"y":2551482.5500000007}},{"attributes":{"ID":213748,"DIS_CODE":0,"TOWNNAME":"南區","LI":"廣州里","LIN":"1鄰","STREET":"健康路","SECT":"二段","MAREA":" ","LANE":"１５０巷","ALLEY":" ","HOUSE_NO":"３１號","E_COORD97":167359.65796499999,"N_COORD97":2542544.8919099998,"ADDRESS":"健康路二段１５０巷３１號","OBJECTID":213747},"geometry":{"x":167359.65796500072,"y":2542544.8919069991}},{"attributes":{"ID":213749,"DIS_CODE":0,"TOWNNAME":"仁德區","LI":"仁和里","LIN":"1鄰","STREET":"二空路","SECT":" ","MAREA":" ","LANE":"１４２巷","ALLEY":" ","HOUSE_NO":"１號","E_COORD97":170359.108481,"N_COORD97":2540240.70077,"ADDRESS":"二空路１４２巷１號","OBJECTID":213748},"geometry":{"x":170359.10848100111,"y":2540240.7007730044}},{"attributes":{"ID":213750,"DIS_CODE":0,"TOWNNAME":"仁德區","LI":"仁和里","LIN":"1鄰","STREET":"二空路","SECT":" ","MAREA":" ","LANE":"１４２巷","ALLEY":" ","HOUSE_NO":"３號","E_COORD97":170368.64537799999,"N_COORD97":2540239.8541100002,"ADDRESS":"二空路１４２巷３號","OBJECTID":213749},"geometry":{"x":170368.6453780001,"y":2540239.8541070018}},{"attributes":{"ID":213751,"DIS_CODE":0,"TOWNNAME":"仁德區","LI":"仁和里","LIN":"1鄰","STREET":"二空路","SECT":" ","MAREA":" ","LANE":"１４２巷","ALLEY":" ","HOUSE_NO":"５號","E_COORD97":170377.12262000001,"N_COORD97":2540239.3249400002,"ADDRESS":"二空路１４２巷５號","OBJECTID":213750},"geometry":{"x":170377.12261999864,"y":2540239.3249410037}},{"attributes":{"ID":213752,"DIS_CODE":0,"TOWNNAME":"仁德區","LI":"仁和里","LIN":"1鄰","STREET":"二空路","SECT":" ","MAREA":" ","LANE":"１４２巷","ALLEY":" ","HOUSE_NO":"６號","E_COORD97":170384.96406900001,"N_COORD97":2540231.0699499999,"ADDRESS":"二空路１４２巷６號","OBJECTID":213751},"geometry":{"x":170384.96406900138,"y":2540231.0699450001}},{"attributes":{"ID":213753,"DIS_CODE":0,"TOWNNAME":"仁德區","LI":"仁和里","LIN":"1鄰","STREET":"二空路","SECT":" ","MAREA":" ","LANE":"１４２巷","ALLEY":" ","HOUSE_NO":"８號","E_COORD97":170394.71289699999,"N_COORD97":2540229.48245,"ADDRESS":"二空路１４２巷８號","OBJECTID":213752},"geometry":{"x":170394.71289700177,"y":2540229.4824460018}},{"attributes":{"ID":213754,"DIS_CODE":0,"TOWNNAME":"仁德區","LI":"仁和里","LIN":"1鄰","STREET":"二空路","SECT":" ","MAREA":" ","LANE":"１４２巷","ALLEY":" ","HOUSE_NO":"９號","E_COORD97":170388.99075900001,"N_COORD97":2540237.8432700001,"ADDRESS":"二空路１４２巷９號","OBJECTID":213753},"geometry":{"x":170388.99075900018,"y":2540237.8432750013}},{"attributes":{"ID":213755,"DIS_CODE":0,"TOWNNAME":"仁德區","LI":"仁和里","LIN":"1鄰","STREET":"二空路","SECT":" ","MAREA":" ","LANE":"１４２巷","ALLEY":" ","HOUSE_NO":"１１號","E_COORD97":170395.77255200001,"N_COORD97":2540237.5257799998,"ADDRESS":"二空路１４２巷１１號","OBJECTID":213754},"geometry":{"x":170395.77255200129,"y":2540237.5257750005}},{"attributes":{"ID":213756,"DIS_CODE":0,"TOWNNAME":"新市區","LI":"永就里","LIN":"9鄰","STREET":" ","SECT":" ","MAREA":"永就","LANE":" ","ALLEY":" ","HOUSE_NO":"９４之２號","E_COORD97":177492.32000000001,"N_COORD97":2551390.0499999998,"ADDRESS":"永就９４之２號","OBJECTID":213755},"geometry":{"x":177492.3200000003,"y":2551390.0500000026}},{"attributes":{"ID":213757,"DIS_CODE":0,"TOWNNAME":"仁德區","LI":"仁和里","LIN":"1鄰","STREET":"二空路","SECT":" ","MAREA":" ","LANE":"１４６巷","ALLEY":" ","HOUSE_NO":"９號","E_COORD97":170386.235655,"N_COORD97":2540250.8607700001,"ADDRESS":"二空路１４６巷９號","OBJECTID":213756},"geometry":{"x":170386.2356549995,"y":2540250.8607680015}},{"attributes":{"ID":213758,"DIS_CODE":0,"TOWNNAME":"仁德區","LI":"仁愛里","LIN":"1鄰","STREET":"二空路","SECT":" ","MAREA":" ","LANE":"２３１巷","ALLEY":" ","HOUSE_NO":"１６號","E_COORD97":170316.934202,"N_COORD97":2540257.1049299999,"ADDRESS":"二空路２３１巷１６號","OBJECTID":213757},"geometry":{"x":170316.9342020005,"y":2540257.1049310006}},{"attributes":{"ID":213759,"DIS_CODE":0,"TOWNNAME":"新市區","LI":"永就里","LIN":"9鄰","STREET":" ","SECT":" ","MAREA":"永就","LANE":" ","ALLEY":" ","HOUSE_NO":"９３之６號","E_COORD97":177534.51000000001,"N_COORD97":2551374.5499999998,"ADDRESS":"永就９３之６號","OBJECTID":213758},"geometry":{"x":177534.50999999978,"y":2551374.5500000007}},{"attributes":{"ID":213760,"DIS_CODE":0,"TOWNNAME":"仁德區","LI":"仁愛里","LIN":"1鄰","STREET":"二空路","SECT":" ","MAREA":" ","LANE":"２３１巷","ALLEY":" ","HOUSE_NO":"１０號","E_COORD97":170324.35178900001,"N_COORD97":2540256.0466,"ADDRESS":"二空路２３１巷１０號","OBJECTID":213759},"geometry":{"x":170324.35178900044,"y":2540256.0465980023}},{"attributes":{"ID":213761,"DIS_CODE":0,"TOWNNAME":"新市區","LI":"永就里","LIN":"9鄰","STREET":" ","SECT":" ","MAREA":"永就","LANE":" ","ALLEY":" ","HOUSE_NO":"９１之２號","E_COORD97":177521.56,"N_COORD97":2551490.2999999998,"ADDRESS":"永就９１之２號","OBJECTID":213760},"geometry":{"x":177521.56000000052,"y":2551490.3000000026}},{"attributes":{"ID":213762,"DIS_CODE":0,"TOWNNAME":"新市區","LI":"社內里","LIN":"9鄰","STREET":" ","SECT":" ","MAREA":"社內","LANE":" ","ALLEY":" ","HOUSE_NO":"９１之１０號","E_COORD97":176429.04000000001,"N_COORD97":2553031.2999999998,"ADDRESS":"社內９１之１０號","OBJECTID":213761},"geometry":{"x":176429.04000000004,"y":2553031.3000000045}},{"attributes":{"ID":213763,"DIS_CODE":0,"TOWNNAME":"新市區","LI":"永就里","LIN":"9鄰","STREET":" ","SECT":" ","MAREA":"永就","LANE":" ","ALLEY":" ","HOUSE_NO":"９１之１號","E_COORD97":177520.14999999999,"N_COORD97":2551494.2999999998,"ADDRESS":"永就９１之１號","OBJECTID":213762},"geometry":{"x":177520.15000000037,"y":2551494.3000000007}},{"attributes":{"ID":213764,"DIS_CODE":0,"TOWNNAME":"新市區","LI":"永就里","LIN":"9鄰","STREET":" ","SECT":" ","MAREA":"永就","LANE":" ","ALLEY":" ","HOUSE_NO":"９４之１２號","E_COORD97":177462.54000000001,"N_COORD97":2551444.2999999998,"ADDRESS":"永就９４之１２號","OBJECTID":213763},"geometry":{"x":177462.54000000097,"y":2551444.2999999989}},{"attributes":{"ID":213765,"DIS_CODE":0,"TOWNNAME":"新市區","LI":"社內里","LIN":"9鄰","STREET":" ","SECT":" ","MAREA":"社內","LANE":" ","ALLEY":" ","HOUSE_NO":"９８之１號","E_COORD97":176319.75,"N_COORD97":2552924.0499999998,"ADDRESS":"社內９８之１號","OBJECTID":213764},"geometry":{"x":176319.75000000186,"y":2552924.0500000007}},{"attributes":{"ID":213766,"DIS_CODE":0,"TOWNNAME":"仁德區","LI":"仁愛里","LIN":"1鄰","STREET":"二空路","SECT":" ","MAREA":" ","LANE":"２３１巷","ALLEY":" ","HOUSE_NO":"１２號","E_COORD97":170320.960892,"N_COORD97":2540256.3640999999,"ADDRESS":"二空路２３１巷１２號","OBJECTID":213765},"geometry":{"x":170320.96089200117,"y":2540256.3640979994}},{"attributes":{"ID":213767,"DIS_CODE":0,"TOWNNAME":"仁德區","LI":"仁愛里","LIN":"1鄰","STREET":"二空路","SECT":" ","MAREA":" ","LANE":"２３１巷","ALLEY":" ","HOUSE_NO":"１號","E_COORD97":170334.10061699999,"N_COORD97":2540244.1932700002,"ADDRESS":"二空路２３１巷１號","OBJECTID":213766},"geometry":{"x":170334.10061700083,"y":2540244.1932710018}},{"attributes":{"ID":213768,"DIS_CODE":0,"TOWNNAME":"山上區","LI":"山上里","LIN":"9鄰","STREET":" ","SECT":" ","MAREA":"山上","LANE":" ","ALLEY":" ","HOUSE_NO":"１５３號","E_COORD97":184210.01000000001,"N_COORD97":2555706.25,"ADDRESS":"山上１５３號","OBJECTID":213767},"geometry":{"x":184210.00999999978,"y":2555706.2500000019}},{"attributes":{"ID":213769,"DIS_CODE":0,"TOWNNAME":"山上區","LI":"山上里","LIN":"9鄰","STREET":" ","SECT":" ","MAREA":"山上","LANE":" ","ALLEY":" ","HOUSE_NO":"１５８號","E_COORD97":184131.01000000001,"N_COORD97":2555675.25,"ADDRESS":"山上１５８號","OBJECTID":213768},"geometry":{"x":184131.01000000071,"y":2555675.2500000037}},{"attributes":{"ID":213770,"DIS_CODE":0,"TOWNNAME":"山上區","LI":"山上里","LIN":"9鄰","STREET":" ","SECT":" ","MAREA":"山上","LANE":" ","ALLEY":" ","HOUSE_NO":"１５４號","E_COORD97":184178.70999999999,"N_COORD97":2555682.25,"ADDRESS":"山上１５４號","OBJECTID":213769},"geometry":{"x":184178.70999999903,"y":2555682.2500000037}},{"attributes":{"ID":213771,"DIS_CODE":0,"TOWNNAME":"山上區","LI":"山上里","LIN":"9鄰","STREET":" ","SECT":" ","MAREA":"山上","LANE":" ","ALLEY":" ","HOUSE_NO":"１５６號","E_COORD97":184139.20999999999,"N_COORD97":2555714.25,"ADDRESS":"山上１５６號","OBJECTID":213770},"geometry":{"x":184139.20999999996,"y":2555714.2500000019}},{"attributes":{"ID":213772,"DIS_CODE":0,"TOWNNAME":"山上區","LI":"新莊里","LIN":"9鄰","STREET":" ","SECT":" ","MAREA":"大庄","LANE":" ","ALLEY":" ","HOUSE_NO":"４２號","E_COORD97":183881.35999999999,"N_COORD97":2554994.25,"ADDRESS":"大庄４２號","OBJECTID":213771},"geometry":{"x":183881.36000000034,"y":2554994.2500000019}},{"attributes":{"ID":213773,"DIS_CODE":0,"TOWNNAME":"山上區","LI":"南洲里","LIN":"9鄰","STREET":" ","SECT":" ","MAREA":"南洲","LANE":" ","ALLEY":" ","HOUSE_NO":"２０７號","E_COORD97":183813.331106,"N_COORD97":2555548.1909099999,"ADDRESS":"南洲２０７號","OBJECTID":213772},"geometry":{"x":183813.33110599872,"y":2555548.1909110025}},{"attributes":{"ID":213774,"DIS_CODE":0,"TOWNNAME":"仁德區","LI":"仁愛里","LIN":"1鄰","STREET":"二空路","SECT":" ","MAREA":" ","LANE":"２３１巷","ALLEY":" ","HOUSE_NO":"２號","E_COORD97":170336.64378899999,"N_COORD97":2540254.8824300002,"ADDRESS":"二空路２３１巷２號","OBJECTID":213773},"geometry":{"x":170336.64378899988,"y":2540254.8824319988}},{"attributes":{"ID":213775,"DIS_CODE":0,"TOWNNAME":"仁德區","LI":"仁愛里","LIN":"1鄰","STREET":"二空路","SECT":" ","MAREA":" ","LANE":"２３１巷","ALLEY":" ","HOUSE_NO":"６號","E_COORD97":170332.45807600001,"N_COORD97":2540255.4116000002,"ADDRESS":"二空路２３１巷６號","OBJECTID":213774},"geometry":{"x":170332.45807600021,"y":2540255.4115990009}},{"attributes":{"ID":213776,"DIS_CODE":0,"TOWNNAME":"仁德區","LI":"仁愛里","LIN":"1鄰","STREET":"二空路","SECT":" ","MAREA":" ","LANE":"２３１巷","ALLEY":" ","HOUSE_NO":"３號","E_COORD97":170329.702972,"N_COORD97":2540245.1457699998,"ADDRESS":"二空路２３１巷３號","OBJECTID":213775},"geometry":{"x":170329.70297200046,"y":2540245.1457710024}},{"attributes":{"ID":213777,"DIS_CODE":0,"TOWNNAME":"關廟區","LI":"田中里","LIN":"1鄰","STREET":"南雄南路","SECT":" ","MAREA":" ","LANE":"５２０巷","ALLEY":" ","HOUSE_NO":"５號","E_COORD97":183927.04000000001,"N_COORD97":2533946.2999999998,"ADDRESS":"田大路５２０巷５號","OBJECTID":213776},"geometry":{"x":183927.04000000004,"y":2533946.3000000007}},{"attributes":{"ID":213778,"DIS_CODE":0,"TOWNNAME":"關廟區","LI":"新光里","LIN":"1鄰","STREET":"新湖街","SECT":" ","MAREA":" ","LANE":"３１６巷","ALLEY":" ","HOUSE_NO":"２９號","E_COORD97":183053.64000000001,"N_COORD97":2542906.2999999998,"ADDRESS":"新湖街３１６巷２９號","OBJECTID":213777},"geometry":{"x":183053.6400000006,"y":2542906.3000000007}},{"attributes":{"ID":213779,"DIS_CODE":0,"TOWNNAME":"仁德區","LI":"新田里","LIN":"1鄰","STREET":"新田二街","SECT":" ","MAREA":" ","LANE":"１３８巷","ALLEY":" ","HOUSE_NO":"１１號","E_COORD97":174992.025505,"N_COORD97":2540062.0702399998,"ADDRESS":"新田二街１３８巷１１號","OBJECTID":213778},"geometry":{"x":174992.02550500073,"y":2540062.0702370033}},{"attributes":{"ID":213780,"DIS_CODE":0,"TOWNNAME":"仁德區","LI":"新田里","LIN":"1鄰","STREET":"新田二街","SECT":" ","MAREA":" ","LANE":"１３８巷","ALLEY":" ","HOUSE_NO":"１１之２號","E_COORD97":175027.09,"N_COORD97":2540077.3100000001,"ADDRESS":"新田二街１３８巷１１之２號","OBJECTID":213779},"geometry":{"x":175027.08999999892,"y":2540077.3100000024}},{"attributes":{"ID":213781,"DIS_CODE":0,"TOWNNAME":"仁德區","LI":"仁義里","LIN":"1鄰","STREET":"中山路","SECT":" ","MAREA":" ","LANE":"７７巷","ALLEY":" ","HOUSE_NO":"３號","E_COORD97":175056.827628,"N_COORD97":2541029.22744,"ADDRESS":"中山路７７巷３號","OBJECTID":213780},"geometry":{"x":175056.82762799971,"y":2541029.2274390012}},{"attributes":{"ID":213782,"DIS_CODE":0,"TOWNNAME":"安南區","LI":"城西里","LIN":"1鄰","STREET":"城西街","SECT":"三段","MAREA":" ","LANE":"１巷","ALLEY":" ","HOUSE_NO":"１８６號","E_COORD97":158881.99967200001,"N_COORD97":2550109.2148000002,"ADDRESS":"城西街三段１巷１８６號","OBJECTID":213781},"geometry":{"x":158881.9996720003,"y":2550109.2147959974}},{"attributes":{"ID":213783,"DIS_CODE":0,"TOWNNAME":"安南區","LI":"東和里","LIN":"5鄰","STREET":"長和路","SECT":"一段","MAREA":" ","LANE":"８２３巷","ALLEY":" ","HOUSE_NO":"２６號","E_COORD97":170881.73000000001,"N_COORD97":2551353.0299999998,"ADDRESS":"長和路一段８２３巷２６號","OBJECTID":213782},"geometry":{"x":170881.73000000045,"y":2551353.0299999993}},{"attributes":{"ID":213784,"DIS_CODE":0,"TOWNNAME":"安南區","LI":"東和里","LIN":"5鄰","STREET":"長和路","SECT":"一段","MAREA":" ","LANE":"８２３巷","ALLEY":" ","HOUSE_NO":"３０號","E_COORD97":170879.79999999999,"N_COORD97":2551324.7999999998,"ADDRESS":"長和路一段８２３巷３０號","OBJECTID":213783},"geometry":{"x":170879.80000000075,"y":2551324.8000000007}},{"attributes":{"ID":213785,"DIS_CODE":0,"TOWNNAME":"安南區","LI":"布袋里","LIN":"5鄰","STREET":"長和路","SECT":"四段","MAREA":" ","LANE":"２３１巷","ALLEY":" ","HOUSE_NO":"４號","E_COORD97":168712.73999999999,"N_COORD97":2551687.7999999998,"ADDRESS":"長和路四段２３１巷４號","OBJECTID":213784},"geometry":{"x":168712.74000000115,"y":2551687.8000000007}},{"attributes":{"ID":213786,"DIS_CODE":0,"TOWNNAME":"安南區","LI":"布袋里","LIN":"5鄰","STREET":"長和路","SECT":"四段","MAREA":" ","LANE":"２５１巷","ALLEY":" ","HOUSE_NO":"２５號","E_COORD97":168671.76000000001,"N_COORD97":2551610.8999999999,"ADDRESS":"長和路四段２５１巷２５號","OBJECTID":213785},"geometry":{"x":168671.75999999978,"y":2551610.9000000022}},{"attributes":{"ID":213787,"DIS_CODE":0,"TOWNNAME":"安南區","LI":"布袋里","LIN":"5鄰","STREET":"長和路","SECT":"四段","MAREA":" ","LANE":"２５１巷","ALLEY":" ","HOUSE_NO":"２７號","E_COORD97":168674.16,"N_COORD97":2551607.3799999999,"ADDRESS":"長和路四段２５１巷２７號","OBJECTID":213786},"geometry":{"x":168674.16000000108,"y":2551607.379999999}},{"attributes":{"ID":213788,"DIS_CODE":0,"TOWNNAME":"安南區","LI":"布袋里","LIN":"5鄰","STREET":"長和路","SECT":"四段","MAREA":" ","LANE":"２５１巷","ALLEY":" ","HOUSE_NO":"３１號","E_COORD97":168677.82999999999,"N_COORD97":2551600.1899999999,"ADDRESS":"長和路四段２５１巷３１號","OBJECTID":213787},"geometry":{"x":168677.83000000101,"y":2551600.1900000013}},{"attributes":{"ID":213789,"DIS_CODE":0,"TOWNNAME":"安南區","LI":"布袋里","LIN":"5鄰","STREET":"長和路","SECT":"四段","MAREA":" ","LANE":"２５１巷","ALLEY":" ","HOUSE_NO":"２９號","E_COORD97":168675.85000000001,"N_COORD97":2551603.5699999998,"ADDRESS":"長和路四段２５１巷２９號","OBJECTID":213788},"geometry":{"x":168675.85000000056,"y":2551603.5700000003}},{"attributes":{"ID":213790,"DIS_CODE":0,"TOWNNAME":"安南區","LI":"布袋里","LIN":"5鄰","STREET":"長和路","SECT":"四段","MAREA":" ","LANE":"２５１巷","ALLEY":" ","HOUSE_NO":"３３號","E_COORD97":168680.07999999999,"N_COORD97":2551596.6600000001,"ADDRESS":"長和路四段２５１巷３３號","OBJECTID":213789},"geometry":{"x":168680.08000000007,"y":2551596.6600000001}},{"attributes":{"ID":213791,"DIS_CODE":0,"TOWNNAME":"安南區","LI":"布袋里","LIN":"5鄰","STREET":"長和路","SECT":"四段","MAREA":" ","LANE":"２５１巷","ALLEY":" ","HOUSE_NO":"３５號","E_COORD97":168682.63,"N_COORD97":2551593.1400000001,"ADDRESS":"長和路四段２５１巷３５號","OBJECTID":213790},"geometry":{"x":168682.63000000082,"y":2551593.1400000006}},{"attributes":{"ID":213792,"DIS_CODE":0,"TOWNNAME":"安南區","LI":"布袋里","LIN":"5鄰","STREET":"長和路","SECT":"四段","MAREA":" ","LANE":"２５１巷","ALLEY":" ","HOUSE_NO":"３７號","E_COORD97":168704.07999999999,"N_COORD97":2551588.48,"ADDRESS":"長和路四段２５１巷３７號","OBJECTID":213791},"geometry":{"x":168704.08000000007,"y":2551588.4800000004}},{"attributes":{"ID":213793,"DIS_CODE":0,"TOWNNAME":"山上區","LI":"新莊里","LIN":"9鄰","STREET":" ","SECT":" ","MAREA":"大庄","LANE":" ","ALLEY":" ","HOUSE_NO":"３１之９號","E_COORD97":183834.06,"N_COORD97":2554902.2999999998,"ADDRESS":"大庄３１之９號","OBJECTID":213792},"geometry":{"x":183834.06000000052,"y":2554902.3000000007}},{"attributes":{"ID":213794,"DIS_CODE":0,"TOWNNAME":"山上區","LI":"明和里","LIN":"9鄰","STREET":" ","SECT":" ","MAREA":"明和","LANE":" ","ALLEY":" ","HOUSE_NO":"１１２號","E_COORD97":183285.84,"N_COORD97":2556287.25,"ADDRESS":"明和１１２號","OBJECTID":213793},"geometry":{"x":183285.83999999985,"y":2556287.25}},{"attributes":{"ID":213795,"DIS_CODE":0,"TOWNNAME":"安南區","LI":"布袋里","LIN":"5鄰","STREET":"長和路","SECT":"四段","MAREA":" ","LANE":"２５１巷","ALLEY":" ","HOUSE_NO":"３９號","E_COORD97":168699.62,"N_COORD97":2551586.8399999999,"ADDRESS":"長和路四段２５１巷３９號","OBJECTID":213794},"geometry":{"x":168699.62000000104,"y":2551586.8400000017}},{"attributes":{"ID":213796,"DIS_CODE":0,"TOWNNAME":"安南區","LI":"布袋里","LIN":"5鄰","STREET":"長和路","SECT":"四段","MAREA":" ","LANE":"２５１巷","ALLEY":" ","HOUSE_NO":"４１號","E_COORD97":168694.85999999999,"N_COORD97":2551585.9500000002,"ADDRESS":"長和路四段２５１巷４１號","OBJECTID":213795},"geometry":{"x":168694.86000000127,"y":2551585.9500000011}},{"attributes":{"ID":213797,"DIS_CODE":0,"TOWNNAME":"安南區","LI":"布袋里","LIN":"5鄰","STREET":"長和路","SECT":"四段","MAREA":" ","LANE":"２５１巷","ALLEY":" ","HOUSE_NO":"４３號","E_COORD97":168689.79999999999,"N_COORD97":2551585.0600000001,"ADDRESS":"長和路四段２５１巷４３號","OBJECTID":213796},"geometry":{"x":168689.80000000075,"y":2551585.0600000042}},{"attributes":{"ID":213798,"DIS_CODE":0,"TOWNNAME":"安南區","LI":"東和里","LIN":"5鄰","STREET":"長和路","SECT":"一段","MAREA":" ","LANE":"８２３巷","ALLEY":" ","HOUSE_NO":"５２號","E_COORD97":170841.87882000001,"N_COORD97":2551322.9147100002,"ADDRESS":"長和路一段８２３巷５２號","OBJECTID":213797},"geometry":{"x":170841.87882000208,"y":2551322.9147100002}},{"attributes":{"ID":213799,"DIS_CODE":0,"TOWNNAME":"安南區","LI":"東和里","LIN":"5鄰","STREET":"長和路","SECT":"一段","MAREA":" ","LANE":"８２３巷","ALLEY":" ","HOUSE_NO":"１７號","E_COORD97":170911.48000000001,"N_COORD97":2551356.46,"ADDRESS":"長和路一段８２３巷１７號","OBJECTID":213798},"geometry":{"x":170911.48000000138,"y":2551356.4600000028}},{"attributes":{"ID":213800,"DIS_CODE":0,"TOWNNAME":"仁德區","LI":"上崙里","LIN":"4鄰","STREET":"德南路","SECT":" ","MAREA":" ","LANE":"２５２巷","ALLEY":" ","HOUSE_NO":"９號","E_COORD97":173825.34716100001,"N_COORD97":2538337.4260900002,"ADDRESS":"德南路２５２巷９號","OBJECTID":213799},"geometry":{"x":173825.34716099966,"y":2538337.4260930028}},{"attributes":{"ID":213801,"DIS_CODE":0,"TOWNNAME":"安南區","LI":"四草里","LIN":"7鄰","STREET":"四草大道","SECT":" ","MAREA":" ","LANE":"４８３巷","ALLEY":" ","HOUSE_NO":"１００號","E_COORD97":161534.12995999999,"N_COORD97":2545514.3037100001,"ADDRESS":"四草大道４８３巷１００號","OBJECTID":213800},"geometry":{"x":161534.12996000145,"y":2545514.3037110008}}]}