{"displayFieldName":"TOWNNAME","fieldAliases":{"ID":"ID","DIS_CODE":"DIS_CODE","TOWNNAME":"TOWNNAME","LI":"LI","LIN":"LIN","STREET":"STREET","SECT":"SECT","MAREA":"MAREA","LANE":"LANE","ALLEY":"ALLEY","HOUSE_NO":"HOUSE_NO","E_COORD97":"E_COORD97","N_COORD97":"N_COORD97","ADDRESS":"ADDRESS","OBJECTID":"OBJECTID"},"geometryType":"esriGeometryPoint","spatialReference":{"wkid":102443,"latestWkid":3826},"fields":[{"name":"ID","type":"esriFieldTypeDouble","alias":"ID"},{"name":"DIS_CODE","type":"esriFieldTypeInteger","alias":"DIS_CODE"},{"name":"TOWNNAME","type":"esriFieldTypeString","alias":"TOWNNAME","length":8},{"name":"LI","type":"esriFieldTypeString","alias":"LI","length":8},{"name":"LIN","type":"esriFieldTypeString","alias":"LIN","length":12},{"name":"STREET","type":"esriFieldTypeString","alias":"STREET","length":20},{"name":"SECT","type":"esriFieldTypeString","alias":"SECT","length":8},{"name":"MAREA","type":"esriFieldTypeString","alias":"MAREA","length":12},{"name":"LANE","type":"esriFieldTypeString","alias":"LANE","length":10},{"name":"ALLEY","type":"esriFieldTypeString","alias":"ALLEY","length":10},{"name":"HOUSE_NO","type":"esriFieldTypeString","alias":"HOUSE_NO","length":20},{"name":"E_COORD97","type":"esriFieldTypeDouble","alias":"E_COORD97"},{"name":"N_COORD97","type":"esriFieldTypeDouble","alias":"N_COORD97"},{"name":"ADDRESS","type":"esriFieldTypeString","alias":"ADDRESS","length":50},{"name":"OBJECTID","type":"esriFieldTypeOID","alias":"OBJECTID"}],"features":[{"attributes":{"ID":401425,"DIS_CODE":0,"TOWNNAME":"安南區","LI":"幸福里","LIN":"11鄰","STREET":"府安路","SECT":"六段","MAREA":" ","LANE":"１０３巷","ALLEY":" ","HOUSE_NO":"６０號","E_COORD97":166704.48999999999,"N_COORD97":2546658.9700000002,"ADDRESS":"府安路六段１０３巷６０號","OBJECTID":401401},"geometry":{"x":166704.49000000022,"y":2546658.9700000007}},{"attributes":{"ID":401426,"DIS_CODE":0,"TOWNNAME":"安南區","LI":"幸福里","LIN":"11鄰","STREET":"府安路","SECT":"六段","MAREA":" ","LANE":"１０３巷","ALLEY":" ","HOUSE_NO":"６號","E_COORD97":166727.92000000001,"N_COORD97":2546519.1600000001,"ADDRESS":"府安路六段１０３巷６號","OBJECTID":401402},"geometry":{"x":166727.92000000086,"y":2546519.160000002}},{"attributes":{"ID":401427,"DIS_CODE":0,"TOWNNAME":"安南區","LI":"幸福里","LIN":"11鄰","STREET":"府安路","SECT":"六段","MAREA":" ","LANE":"９４巷","ALLEY":" ","HOUSE_NO":"１５號","E_COORD97":166742.72,"N_COORD97":2546560.6800000002,"ADDRESS":"府安路六段９４巷１５號","OBJECTID":401403},"geometry":{"x":166742.71999999974,"y":2546560.6799999997}},{"attributes":{"ID":401428,"DIS_CODE":0,"TOWNNAME":"安南區","LI":"幸福里","LIN":"11鄰","STREET":"府安路","SECT":"六段","MAREA":" ","LANE":"９４巷","ALLEY":" ","HOUSE_NO":"１６號","E_COORD97":166764.32999999999,"N_COORD97":2546565.6299999999,"ADDRESS":"府安路六段９４巷１６號","OBJECTID":401404},"geometry":{"x":166764.33000000007,"y":2546565.6300000008}},{"attributes":{"ID":401429,"DIS_CODE":0,"TOWNNAME":"安南區","LI":"幸福里","LIN":"11鄰","STREET":"府安路","SECT":"六段","MAREA":" ","LANE":"９４巷","ALLEY":" ","HOUSE_NO":"１７號","E_COORD97":166740.70999999999,"N_COORD97":2546565.2799999998,"ADDRESS":"府安路六段９４巷１７號","OBJECTID":401405},"geometry":{"x":166740.71000000089,"y":2546565.2800000012}},{"attributes":{"ID":401430,"DIS_CODE":0,"TOWNNAME":"安南區","LI":"幸福里","LIN":"11鄰","STREET":"府安路","SECT":"六段","MAREA":" ","LANE":"９４巷","ALLEY":" ","HOUSE_NO":"１９號","E_COORD97":166740.28,"N_COORD97":2546570.8799999999,"ADDRESS":"府安路六段９４巷１９號","OBJECTID":401406},"geometry":{"x":166740.28000000212,"y":2546570.8800000008}},{"attributes":{"ID":401431,"DIS_CODE":0,"TOWNNAME":"安南區","LI":"幸福里","LIN":"11鄰","STREET":"府安路","SECT":"六段","MAREA":" ","LANE":"９４巷","ALLEY":" ","HOUSE_NO":"２０號","E_COORD97":166762.45000000001,"N_COORD97":2546576.6299999999,"ADDRESS":"府安路六段９４巷２０號","OBJECTID":401407},"geometry":{"x":166762.45000000019,"y":2546576.6300000008}},{"attributes":{"ID":401432,"DIS_CODE":0,"TOWNNAME":"安南區","LI":"幸福里","LIN":"11鄰","STREET":"府安路","SECT":"六段","MAREA":" ","LANE":"９４巷","ALLEY":" ","HOUSE_NO":"２１號","E_COORD97":166738.84,"N_COORD97":2546578.5,"ADDRESS":"府安路六段９４巷２１號","OBJECTID":401408},"geometry":{"x":166738.83999999985,"y":2546578.5000000019}},{"attributes":{"ID":401433,"DIS_CODE":0,"TOWNNAME":"安南區","LI":"幸福里","LIN":"11鄰","STREET":"府安路","SECT":"六段","MAREA":" ","LANE":"９４巷","ALLEY":" ","HOUSE_NO":"２２號","E_COORD97":166760.25,"N_COORD97":2546584.0499999998,"ADDRESS":"府安路六段９４巷２２號","OBJECTID":401409},"geometry":{"x":166760.25,"y":2546584.0500000007}},{"attributes":{"ID":401434,"DIS_CODE":0,"TOWNNAME":"安南區","LI":"幸福里","LIN":"11鄰","STREET":"府安路","SECT":"六段","MAREA":" ","LANE":"９４巷","ALLEY":" ","HOUSE_NO":"２３號","E_COORD97":166738.12,"N_COORD97":2546582.9500000002,"ADDRESS":"府安路六段９４巷２３號","OBJECTID":401410},"geometry":{"x":166738.12000000104,"y":2546582.9499999993}},{"attributes":{"ID":401435,"DIS_CODE":0,"TOWNNAME":"安南區","LI":"幸福里","LIN":"11鄰","STREET":"府安路","SECT":"六段","MAREA":" ","LANE":"９４巷","ALLEY":" ","HOUSE_NO":"２４號","E_COORD97":166759.67999999999,"N_COORD97":2546589.0699999998,"ADDRESS":"府安路六段９４巷２４號","OBJECTID":401411},"geometry":{"x":166759.68000000063,"y":2546589.0700000003}},{"attributes":{"ID":401436,"DIS_CODE":0,"TOWNNAME":"安南區","LI":"幸福里","LIN":"11鄰","STREET":"府安路","SECT":"六段","MAREA":" ","LANE":"９４巷","ALLEY":" ","HOUSE_NO":"２５號","E_COORD97":166736.95000000001,"N_COORD97":2546589.3300000001,"ADDRESS":"府安路六段９４巷２５號","OBJECTID":401412},"geometry":{"x":166736.95000000019,"y":2546589.3300000019}},{"attributes":{"ID":401437,"DIS_CODE":0,"TOWNNAME":"安南區","LI":"幸福里","LIN":"11鄰","STREET":"府安路","SECT":"六段","MAREA":" ","LANE":"９４巷","ALLEY":" ","HOUSE_NO":"２６號","E_COORD97":166758.44,"N_COORD97":2546594.9500000002,"ADDRESS":"府安路六段９４巷２６號","OBJECTID":401413},"geometry":{"x":166758.44000000134,"y":2546594.9500000011}},{"attributes":{"ID":401438,"DIS_CODE":0,"TOWNNAME":"安南區","LI":"幸福里","LIN":"11鄰","STREET":"府安路","SECT":"六段","MAREA":" ","LANE":"９４巷","ALLEY":" ","HOUSE_NO":"２７號","E_COORD97":166735.70999999999,"N_COORD97":2546595.9700000002,"ADDRESS":"府安路六段９４巷２７號","OBJECTID":401414},"geometry":{"x":166735.71000000089,"y":2546595.9700000025}},{"attributes":{"ID":401439,"DIS_CODE":0,"TOWNNAME":"安南區","LI":"幸福里","LIN":"11鄰","STREET":"府安路","SECT":"六段","MAREA":" ","LANE":"９４巷","ALLEY":" ","HOUSE_NO":"２８號","E_COORD97":166757.69,"N_COORD97":2546600.2599999998,"ADDRESS":"府安路六段９４巷２８號","OBJECTID":401415},"geometry":{"x":166757.69000000041,"y":2546600.2600000016}},{"attributes":{"ID":401440,"DIS_CODE":0,"TOWNNAME":"永康區","LI":"大灣里","LIN":"24鄰","STREET":"大灣路","SECT":" ","MAREA":" ","LANE":"２７９巷","ALLEY":" ","HOUSE_NO":"５號","E_COORD97":174936.07000000001,"N_COORD97":2545180.75,"ADDRESS":"大灣路２７９巷５號","OBJECTID":401416},"geometry":{"x":174936.0700000003,"y":2545180.75}},{"attributes":{"ID":401441,"DIS_CODE":0,"TOWNNAME":"永康區","LI":"大橋里","LIN":"15鄰","STREET":"大橋一街","SECT":" ","MAREA":" ","LANE":"１０３巷","ALLEY":" ","HOUSE_NO":"５７號","E_COORD97":170926.88,"N_COORD97":2546547.77,"ADDRESS":"大橋一街１０３巷５７號","OBJECTID":401417},"geometry":{"x":170926.88000000082,"y":2546547.7700000033}},{"attributes":{"ID":401442,"DIS_CODE":0,"TOWNNAME":"安南區","LI":"幸福里","LIN":"11鄰","STREET":"府安路","SECT":"六段","MAREA":" ","LANE":"９４巷","ALLEY":" ","HOUSE_NO":"２９號","E_COORD97":166734.45999999999,"N_COORD97":2546601.77,"ADDRESS":"府安路六段９４巷２９號","OBJECTID":401418},"geometry":{"x":166734.46000000089,"y":2546601.7699999977}},{"attributes":{"ID":401443,"DIS_CODE":0,"TOWNNAME":"安南區","LI":"幸福里","LIN":"11鄰","STREET":"府安路","SECT":"六段","MAREA":" ","LANE":"９４巷","ALLEY":" ","HOUSE_NO":"３０號","E_COORD97":166755.95999999999,"N_COORD97":2546606.6699999999,"ADDRESS":"府安路六段９４巷３０號","OBJECTID":401419},"geometry":{"x":166755.96000000089,"y":2546606.6700000037}},{"attributes":{"ID":401444,"DIS_CODE":0,"TOWNNAME":"安南區","LI":"幸福里","LIN":"11鄰","STREET":"府安路","SECT":"六段","MAREA":" ","LANE":"９４巷","ALLEY":" ","HOUSE_NO":"３１號","E_COORD97":166733.35000000001,"N_COORD97":2546607.1699999999,"ADDRESS":"府安路六段９４巷３１號","OBJECTID":401420},"geometry":{"x":166733.34999999963,"y":2546607.1700000018}},{"attributes":{"ID":401445,"DIS_CODE":0,"TOWNNAME":"安南區","LI":"幸福里","LIN":"11鄰","STREET":"府安路","SECT":"六段","MAREA":" ","LANE":"９４巷","ALLEY":" ","HOUSE_NO":"３２號","E_COORD97":166755.76999999999,"N_COORD97":2546612.8399999999,"ADDRESS":"府安路六段９４巷３２號","OBJECTID":401421},"geometry":{"x":166755.76999999955,"y":2546612.8400000017}},{"attributes":{"ID":401446,"DIS_CODE":0,"TOWNNAME":"安南區","LI":"幸福里","LIN":"11鄰","STREET":"府安路","SECT":"六段","MAREA":" ","LANE":"９４巷","ALLEY":" ","HOUSE_NO":"３４號","E_COORD97":166754.26000000001,"N_COORD97":2546618.1499999999,"ADDRESS":"府安路六段９４巷３４號","OBJECTID":401422},"geometry":{"x":166754.26000000071,"y":2546618.1500000022}},{"attributes":{"ID":401447,"DIS_CODE":0,"TOWNNAME":"安南區","LI":"幸福里","LIN":"11鄰","STREET":"府安路","SECT":"六段","MAREA":" ","LANE":"９４巷","ALLEY":" ","HOUSE_NO":"３５號","E_COORD97":166730.31,"N_COORD97":2546617.54,"ADDRESS":"府安路六段９４巷３５號","OBJECTID":401423},"geometry":{"x":166730.30999999959,"y":2546617.540000001}},{"attributes":{"ID":401448,"DIS_CODE":0,"TOWNNAME":"安南區","LI":"幸福里","LIN":"11鄰","STREET":"府安路","SECT":"六段","MAREA":" ","LANE":"９４巷","ALLEY":" ","HOUSE_NO":"３６號","E_COORD97":166753.39999999999,"N_COORD97":2546623.5499999998,"ADDRESS":"府安路六段９４巷３６號","OBJECTID":401424},"geometry":{"x":166753.4000000013,"y":2546623.5500000007}},{"attributes":{"ID":401449,"DIS_CODE":0,"TOWNNAME":"安南區","LI":"幸福里","LIN":"11鄰","STREET":"府安路","SECT":"六段","MAREA":" ","LANE":"９４巷","ALLEY":" ","HOUSE_NO":"３８號","E_COORD97":166752.92999999999,"N_COORD97":2546629.3399999999,"ADDRESS":"府安路六段９４巷３８號","OBJECTID":401425},"geometry":{"x":166752.93000000063,"y":2546629.3400000017}},{"attributes":{"ID":401450,"DIS_CODE":0,"TOWNNAME":"安南區","LI":"幸福里","LIN":"11鄰","STREET":"府安路","SECT":"六段","MAREA":" ","LANE":"９４巷","ALLEY":" ","HOUSE_NO":"３號","E_COORD97":166750.47,"N_COORD97":2546525.04,"ADDRESS":"府安路六段９４巷３號","OBJECTID":401426},"geometry":{"x":166750.47000000067,"y":2546525.0400000028}},{"attributes":{"ID":401451,"DIS_CODE":0,"TOWNNAME":"安南區","LI":"幸福里","LIN":"11鄰","STREET":"府安路","SECT":"六段","MAREA":" ","LANE":"９４巷","ALLEY":" ","HOUSE_NO":"５號","E_COORD97":166748.97,"N_COORD97":2546530.8900000001,"ADDRESS":"府安路六段９４巷５號","OBJECTID":401427},"geometry":{"x":166748.97000000067,"y":2546530.8899999987}},{"attributes":{"ID":401452,"DIS_CODE":0,"TOWNNAME":"安南區","LI":"幸福里","LIN":"11鄰","STREET":"府安路","SECT":"六段","MAREA":" ","LANE":"９４巷","ALLEY":" ","HOUSE_NO":"７號","E_COORD97":166747.47,"N_COORD97":2546535.3999999999,"ADDRESS":"府安路六段９４巷７號","OBJECTID":401428},"geometry":{"x":166747.47000000067,"y":2546535.4000000022}},{"attributes":{"ID":401453,"DIS_CODE":0,"TOWNNAME":"安南區","LI":"海南里","LIN":"11鄰","STREET":"府安路","SECT":"七段","MAREA":" ","LANE":"１９巷","ALLEY":" ","HOUSE_NO":"５號","E_COORD97":166060.82999999999,"N_COORD97":2546029.9100000001,"ADDRESS":"府安路七段１９巷５號","OBJECTID":401429},"geometry":{"x":166060.83000000007,"y":2546029.910000002}},{"attributes":{"ID":401454,"DIS_CODE":0,"TOWNNAME":"安南區","LI":"溪北里","LIN":"11鄰","STREET":"府安路","SECT":"四段","MAREA":" ","LANE":"３４巷","ALLEY":" ","HOUSE_NO":"４１號","E_COORD97":169343.14000000001,"N_COORD97":2547405.8500000001,"ADDRESS":"府安路四段３４巷４１號","OBJECTID":401430},"geometry":{"x":169343.1400000006,"y":2547405.8500000015}},{"attributes":{"ID":401455,"DIS_CODE":0,"TOWNNAME":"安南區","LI":"海南里","LIN":"11鄰","STREET":"府安路","SECT":"七段","MAREA":" ","LANE":"１９巷","ALLEY":" ","HOUSE_NO":"３號","E_COORD97":166067.14000000001,"N_COORD97":2546023.4500000002,"ADDRESS":"府安路七段１９巷３號","OBJECTID":401431},"geometry":{"x":166067.13999999966,"y":2546023.4499999993}},{"attributes":{"ID":401456,"DIS_CODE":0,"TOWNNAME":"安南區","LI":"海南里","LIN":"11鄰","STREET":"府安路","SECT":"七段","MAREA":" ","LANE":"１９巷","ALLEY":" ","HOUSE_NO":"７號","E_COORD97":166053.14000000001,"N_COORD97":2546037.4399999999,"ADDRESS":"府安路七段１９巷７號","OBJECTID":401432},"geometry":{"x":166053.1400000006,"y":2546037.4399999995}},{"attributes":{"ID":401457,"DIS_CODE":0,"TOWNNAME":"安南區","LI":"海南里","LIN":"11鄰","STREET":"府安路","SECT":"七段","MAREA":" ","LANE":"２８巷","ALLEY":" ","HOUSE_NO":"１３號","E_COORD97":166004.29999999999,"N_COORD97":2546037.96,"ADDRESS":"府安路七段２８巷１３號","OBJECTID":401433},"geometry":{"x":166004.30000000075,"y":2546037.9600000009}},{"attributes":{"ID":401458,"DIS_CODE":0,"TOWNNAME":"安南區","LI":"海南里","LIN":"11鄰","STREET":"府安路","SECT":"七段","MAREA":" ","LANE":"３７巷","ALLEY":" ","HOUSE_NO":"１０號","E_COORD97":166003.81,"N_COORD97":2546010.3900000001,"ADDRESS":"府安路七段３７巷１０號","OBJECTID":401434},"geometry":{"x":166003.81000000052,"y":2546010.3900000025}},{"attributes":{"ID":401459,"DIS_CODE":0,"TOWNNAME":"安南區","LI":"海南里","LIN":"11鄰","STREET":"府安路","SECT":"七段","MAREA":" ","LANE":"３７巷","ALLEY":" ","HOUSE_NO":"７號","E_COORD97":165990.28,"N_COORD97":2545988.8599999999,"ADDRESS":"府安路七段３７巷７號","OBJECTID":401435},"geometry":{"x":165990.28000000026,"y":2545988.8600000013}},{"attributes":{"ID":401460,"DIS_CODE":0,"TOWNNAME":"永康區","LI":"中興里","LIN":"25鄰","STREET":"中華路","SECT":" ","MAREA":" ","LANE":"２１６巷","ALLEY":" ","HOUSE_NO":"３號之８","E_COORD97":171747.88,"N_COORD97":2545153.04,"ADDRESS":"中華路２１６巷３號之８","OBJECTID":401436},"geometry":{"x":171747.87999999989,"y":2545153.040000001}},{"attributes":{"ID":401461,"DIS_CODE":0,"TOWNNAME":"永康區","LI":"大灣里","LIN":"16鄰","STREET":"大灣路","SECT":" ","MAREA":" ","LANE":"３５６巷","ALLEY":" ","HOUSE_NO":"２號","E_COORD97":174830.12,"N_COORD97":2545130.8399999999,"ADDRESS":"大灣路３５６巷２號","OBJECTID":401437},"geometry":{"x":174830.12000000011,"y":2545130.8400000017}},{"attributes":{"ID":401462,"DIS_CODE":0,"TOWNNAME":"安南區","LI":"幸福里","LIN":"11鄰","STREET":"府安路","SECT":"六段","MAREA":" ","LANE":"１０３巷","ALLEY":" ","HOUSE_NO":"８號","E_COORD97":166727.34,"N_COORD97":2546524.8199999998,"ADDRESS":"府安路六段１０３巷８號","OBJECTID":401438},"geometry":{"x":166727.33999999985,"y":2546524.8200000022}},{"attributes":{"ID":401463,"DIS_CODE":0,"TOWNNAME":"安南區","LI":"幸福里","LIN":"11鄰","STREET":"府安路","SECT":"六段","MAREA":" ","LANE":"９４巷","ALLEY":" ","HOUSE_NO":"１３號","E_COORD97":166743.73000000001,"N_COORD97":2546554.5,"ADDRESS":"府安路六段９４巷１３號","OBJECTID":401439},"geometry":{"x":166743.73000000045,"y":2546554.5000000019}},{"attributes":{"ID":401464,"DIS_CODE":0,"TOWNNAME":"安南區","LI":"幸福里","LIN":"11鄰","STREET":"府安路","SECT":"六段","MAREA":" ","LANE":"９４巷","ALLEY":" ","HOUSE_NO":"９號","E_COORD97":166746.32000000001,"N_COORD97":2546543.0099999998,"ADDRESS":"府安路六段９４巷９號","OBJECTID":401440},"geometry":{"x":166746.3200000003,"y":2546543.0100000035}},{"attributes":{"ID":401465,"DIS_CODE":0,"TOWNNAME":"安南區","LI":"海南里","LIN":"11鄰","STREET":"府安路","SECT":"七段","MAREA":" ","LANE":"２８巷","ALLEY":" ","HOUSE_NO":"８號","E_COORD97":166041.91,"N_COORD97":2546027.8100000001,"ADDRESS":"府安路七段２８巷８號","OBJECTID":401441},"geometry":{"x":166041.91000000015,"y":2546027.8100000024}},{"attributes":{"ID":401466,"DIS_CODE":0,"TOWNNAME":"安南區","LI":"海西里","LIN":"11鄰","STREET":"海中街","SECT":" ","MAREA":" ","LANE":"７７巷","ALLEY":" ","HOUSE_NO":"１９號","E_COORD97":166377.14000000001,"N_COORD97":2548885.5499999998,"ADDRESS":"海中街７７巷１９號","OBJECTID":401442},"geometry":{"x":166377.13999999966,"y":2548885.5500000007}},{"attributes":{"ID":401467,"DIS_CODE":0,"TOWNNAME":"安南區","LI":"海西里","LIN":"11鄰","STREET":"海中街","SECT":" ","MAREA":" ","LANE":"７７巷","ALLEY":" ","HOUSE_NO":"１９號之１","E_COORD97":166374.04000000001,"N_COORD97":2548892.2999999998,"ADDRESS":"海中街７７巷１９號之１","OBJECTID":401443},"geometry":{"x":166374.04000000097,"y":2548892.3000000026}},{"attributes":{"ID":401468,"DIS_CODE":0,"TOWNNAME":"安南區","LI":"學東里","LIN":"11鄰","STREET":"公學路","SECT":"六段","MAREA":" ","LANE":"６７２巷","ALLEY":" ","HOUSE_NO":"２號之２","E_COORD97":162211.10999999999,"N_COORD97":2553306.6600000001,"ADDRESS":"公學路六段６７２巷２號之２","OBJECTID":401444},"geometry":{"x":162211.11000000034,"y":2553306.660000002}},{"attributes":{"ID":401469,"DIS_CODE":0,"TOWNNAME":"永康區","LI":"王行里","LIN":"13鄰","STREET":"王行路","SECT":" ","MAREA":" ","LANE":"１０１８巷","ALLEY":" ","HOUSE_NO":"５３號","E_COORD97":175781.92999999999,"N_COORD97":2550197.9900000002,"ADDRESS":"王行路１０１８巷５３號","OBJECTID":401445},"geometry":{"x":175781.9299999997,"y":2550197.9900000002}},{"attributes":{"ID":401470,"DIS_CODE":0,"TOWNNAME":"永康區","LI":"五王里","LIN":"17鄰","STREET":"成功路","SECT":" ","MAREA":" ","LANE":"２０４巷","ALLEY":" ","HOUSE_NO":"５１號","E_COORD97":171515.89000000001,"N_COORD97":2545789.27,"ADDRESS":"成功路２０４巷５１號","OBJECTID":401446},"geometry":{"x":171515.89000000153,"y":2545789.2700000014}},{"attributes":{"ID":401471,"DIS_CODE":0,"TOWNNAME":"安南區","LI":"新順里","LIN":"11鄰","STREET":"安和路","SECT":"三段","MAREA":" ","LANE":"１１５巷","ALLEY":" ","HOUSE_NO":"４號","E_COORD97":169810.29000000001,"N_COORD97":2549652.1000000001,"ADDRESS":"安和路三段１１５巷４號","OBJECTID":401447},"geometry":{"x":169810.29000000097,"y":2549652.1000000015}},{"attributes":{"ID":401472,"DIS_CODE":0,"TOWNNAME":"安南區","LI":"南興里","LIN":"11鄰","STREET":"公學路","SECT":"五段","MAREA":" ","LANE":"６９７巷","ALLEY":" ","HOUSE_NO":"９２號","E_COORD97":163819.14999999999,"N_COORD97":2552578.5899999999,"ADDRESS":"公學路五段６９７巷９２號","OBJECTID":401448},"geometry":{"x":163819.1500000013,"y":2552578.5900000017}},{"attributes":{"ID":401473,"DIS_CODE":0,"TOWNNAME":"永康區","LI":"中興里","LIN":"27鄰","STREET":"中興街","SECT":" ","MAREA":" ","LANE":"９１巷","ALLEY":" ","HOUSE_NO":"５５號","E_COORD97":171915.26999999999,"N_COORD97":2545348.9900000002,"ADDRESS":"中興街９１巷５５號","OBJECTID":401449},"geometry":{"x":171915.27000000048,"y":2545348.9900000002}},{"attributes":{"ID":401474,"DIS_CODE":0,"TOWNNAME":"永康區","LI":"大橋里","LIN":"30鄰","STREET":"大橋一街","SECT":" ","MAREA":" ","LANE":"２８２巷","ALLEY":" ","HOUSE_NO":"１號","E_COORD97":171151.73999999999,"N_COORD97":2546533.5,"ADDRESS":"大橋一街２８２巷１號","OBJECTID":401450},"geometry":{"x":171151.74000000115,"y":2546533.5000000019}},{"attributes":{"ID":401475,"DIS_CODE":0,"TOWNNAME":"永康區","LI":"五王里","LIN":"12鄰","STREET":"中山東路","SECT":" ","MAREA":" ","LANE":"２１８巷","ALLEY":" ","HOUSE_NO":"８號","E_COORD97":171751.76999999999,"N_COORD97":2545745.8999999999,"ADDRESS":"中山東路２１８巷８號","OBJECTID":401451},"geometry":{"x":171751.76999999955,"y":2545745.9000000022}},{"attributes":{"ID":401476,"DIS_CODE":0,"TOWNNAME":"永康區","LI":"五王里","LIN":"28鄰","STREET":"中山東路","SECT":" ","MAREA":" ","LANE":"６８巷","ALLEY":" ","HOUSE_NO":"１８號","E_COORD97":171648.89999999999,"N_COORD97":2545996.2200000002,"ADDRESS":"中山東路６８巷１８號","OBJECTID":401452},"geometry":{"x":171648.90000000224,"y":2545996.2200000007}},{"attributes":{"ID":401477,"DIS_CODE":0,"TOWNNAME":"東區","LI":"富強里","LIN":"11鄰","STREET":"中華東路","SECT":"二段","MAREA":" ","LANE":"９６巷","ALLEY":" ","HOUSE_NO":"６４號","E_COORD97":171178.79999999999,"N_COORD97":2542852.9199999999,"ADDRESS":"中華東路二段９６巷６４號","OBJECTID":401453},"geometry":{"x":171178.79999999981,"y":2542852.9200000018}},{"attributes":{"ID":401478,"DIS_CODE":0,"TOWNNAME":"東區","LI":"富強里","LIN":"11鄰","STREET":"中華東路","SECT":"二段","MAREA":" ","LANE":"９６巷","ALLEY":" ","HOUSE_NO":"６５號","E_COORD97":171104.72,"N_COORD97":2542823.3700000001,"ADDRESS":"中華東路二段９６巷６５號","OBJECTID":401454},"geometry":{"x":171104.71999999974,"y":2542823.3700000029}},{"attributes":{"ID":401479,"DIS_CODE":0,"TOWNNAME":"東區","LI":"富強里","LIN":"11鄰","STREET":"中華東路","SECT":"二段","MAREA":" ","LANE":"９６巷","ALLEY":" ","HOUSE_NO":"６６號","E_COORD97":171174.95999999999,"N_COORD97":2542848.96,"ADDRESS":"中華東路二段９６巷６６號","OBJECTID":401455},"geometry":{"x":171174.95999999903,"y":2542848.9600000046}},{"attributes":{"ID":401480,"DIS_CODE":0,"TOWNNAME":"東區","LI":"富強里","LIN":"11鄰","STREET":"中華東路","SECT":"二段","MAREA":" ","LANE":"９６巷","ALLEY":" ","HOUSE_NO":"６７號","E_COORD97":171099.64999999999,"N_COORD97":2542822.3199999998,"ADDRESS":"中華東路二段９６巷６７號","OBJECTID":401456},"geometry":{"x":171099.65000000224,"y":2542822.320000004}},{"attributes":{"ID":401481,"DIS_CODE":0,"TOWNNAME":"東區","LI":"富強里","LIN":"11鄰","STREET":"中華東路","SECT":"二段","MAREA":" ","LANE":"９６巷","ALLEY":" ","HOUSE_NO":"６８號","E_COORD97":171169.76000000001,"N_COORD97":2542850.8700000001,"ADDRESS":"中華東路二段９６巷６８號","OBJECTID":401457},"geometry":{"x":171169.76000000071,"y":2542850.8700000029}},{"attributes":{"ID":401482,"DIS_CODE":0,"TOWNNAME":"東區","LI":"富強里","LIN":"11鄰","STREET":"中華東路","SECT":"二段","MAREA":" ","LANE":"９６巷","ALLEY":" ","HOUSE_NO":"６９號","E_COORD97":171094.51000000001,"N_COORD97":2542822.4199999999,"ADDRESS":"中華東路二段９６巷６９號","OBJECTID":401458},"geometry":{"x":171094.50999999978,"y":2542822.4200000018}},{"attributes":{"ID":401483,"DIS_CODE":0,"TOWNNAME":"東區","LI":"富強里","LIN":"11鄰","STREET":"中華東路","SECT":"二段","MAREA":" ","LANE":"９６巷","ALLEY":" ","HOUSE_NO":"７０號","E_COORD97":171162.37,"N_COORD97":2542852.79,"ADDRESS":"中華東路二段９６巷７０號","OBJECTID":401459},"geometry":{"x":171162.37000000197,"y":2542852.790000001}},{"attributes":{"ID":401484,"DIS_CODE":0,"TOWNNAME":"東區","LI":"富強里","LIN":"11鄰","STREET":"中華東路","SECT":"二段","MAREA":" ","LANE":"９６巷","ALLEY":" ","HOUSE_NO":"７１號","E_COORD97":171088.85000000001,"N_COORD97":2542821.5800000001,"ADDRESS":"中華東路二段９６巷７１號","OBJECTID":401460},"geometry":{"x":171088.8499999987,"y":2542821.5800000019}},{"attributes":{"ID":401485,"DIS_CODE":0,"TOWNNAME":"東區","LI":"富強里","LIN":"11鄰","STREET":"中華東路","SECT":"二段","MAREA":" ","LANE":"９６巷","ALLEY":" ","HOUSE_NO":"７３號","E_COORD97":171084.01999999999,"N_COORD97":2542821.3700000001,"ADDRESS":"中華東路二段９６巷７３號","OBJECTID":401461},"geometry":{"x":171084.01999999955,"y":2542821.370000001}},{"attributes":{"ID":401486,"DIS_CODE":0,"TOWNNAME":"東區","LI":"富強里","LIN":"11鄰","STREET":"裕農路","SECT":" ","MAREA":" ","LANE":"２８８巷","ALLEY":" ","HOUSE_NO":"１７１號","E_COORD97":171082.38,"N_COORD97":2542847.8100000001,"ADDRESS":"裕農路２８８巷１７１號","OBJECTID":401462},"geometry":{"x":171082.38000000175,"y":2542847.8100000024}},{"attributes":{"ID":401487,"DIS_CODE":0,"TOWNNAME":"東區","LI":"富強里","LIN":"11鄰","STREET":"裕農路","SECT":" ","MAREA":" ","LANE":"２８８巷","ALLEY":" ","HOUSE_NO":"１７３號","E_COORD97":171082.54000000001,"N_COORD97":2542844.29,"ADDRESS":"裕農路２８８巷１７３號","OBJECTID":401463},"geometry":{"x":171082.54000000004,"y":2542844.2899999991}},{"attributes":{"ID":401488,"DIS_CODE":0,"TOWNNAME":"東區","LI":"富強里","LIN":"11鄰","STREET":"中華東路","SECT":"二段","MAREA":" ","LANE":"９６巷","ALLEY":" ","HOUSE_NO":"８６號","E_COORD97":171111.67000000001,"N_COORD97":2542842.8599999999,"ADDRESS":"中華東路二段９６巷８６號","OBJECTID":401464},"geometry":{"x":171111.67000000086,"y":2542842.8600000013}},{"attributes":{"ID":401489,"DIS_CODE":0,"TOWNNAME":"東區","LI":"富強里","LIN":"11鄰","STREET":"裕農路","SECT":" ","MAREA":" ","LANE":"２８８巷","ALLEY":" ","HOUSE_NO":"１６５號","E_COORD97":171081.73999999999,"N_COORD97":2542860.4500000002,"ADDRESS":"裕農路２８８巷１６５號","OBJECTID":401465},"geometry":{"x":171081.73999999929,"y":2542860.4499999993}},{"attributes":{"ID":401490,"DIS_CODE":0,"TOWNNAME":"麻豆區","LI":"興農里","LIN":"11鄰","STREET":"中興街","SECT":" ","MAREA":" ","LANE":"２７６巷","ALLEY":" ","HOUSE_NO":"１５號","E_COORD97":172446.26000000001,"N_COORD97":2564598.0699999998,"ADDRESS":"中興街２７６巷１５號","OBJECTID":401466},"geometry":{"x":172446.26000000071,"y":2564598.0700000022}},{"attributes":{"ID":401491,"DIS_CODE":0,"TOWNNAME":"永康區","LI":"中興里","LIN":"5鄰","STREET":"中華一路","SECT":" ","MAREA":" ","LANE":"５８巷","ALLEY":" ","HOUSE_NO":"１１號","E_COORD97":171848.19,"N_COORD97":2545027.2400000002,"ADDRESS":"中華一路５８巷１１號","OBJECTID":401467},"geometry":{"x":171848.19000000041,"y":2545027.2400000021}},{"attributes":{"ID":401492,"DIS_CODE":0,"TOWNNAME":"永康區","LI":"中興里","LIN":"13鄰","STREET":"中興街","SECT":" ","MAREA":" ","LANE":"５７巷","ALLEY":" ","HOUSE_NO":"５號","E_COORD97":172033.84,"N_COORD97":2545257.9900000002,"ADDRESS":"中興街５７巷５號","OBJECTID":401468},"geometry":{"x":172033.84000000078,"y":2545257.9900000002}},{"attributes":{"ID":401493,"DIS_CODE":0,"TOWNNAME":"永康區","LI":"大橋里","LIN":"15鄰","STREET":"大橋一街","SECT":" ","MAREA":" ","LANE":"７３巷","ALLEY":" ","HOUSE_NO":"８號","E_COORD97":170921.01999999999,"N_COORD97":2546457.9900000002,"ADDRESS":"大橋一街７３巷８號","OBJECTID":401469},"geometry":{"x":170921.01999999955,"y":2546457.9900000002}},{"attributes":{"ID":401494,"DIS_CODE":0,"TOWNNAME":"東區","LI":"德光里","LIN":"13鄰","STREET":"崇德三街","SECT":" ","MAREA":" ","LANE":"６７巷","ALLEY":" ","HOUSE_NO":"７號","E_COORD97":170262.01000000001,"N_COORD97":2542304.1200000001,"ADDRESS":"崇德三街６７巷７號","OBJECTID":401470},"geometry":{"x":170262.00999999978,"y":2542304.120000001}},{"attributes":{"ID":401495,"DIS_CODE":0,"TOWNNAME":"永康區","LI":"中興里","LIN":"11鄰","STREET":"中興街","SECT":" ","MAREA":" ","LANE":"３５巷","ALLEY":" ","HOUSE_NO":"１７號","E_COORD97":172036.48999999999,"N_COORD97":2545173.8700000001,"ADDRESS":"中興街３５巷１７號","OBJECTID":401471},"geometry":{"x":172036.49000000115,"y":2545173.8700000029}},{"attributes":{"ID":401496,"DIS_CODE":0,"TOWNNAME":"麻豆區","LI":"興農里","LIN":"11鄰","STREET":"中興街","SECT":" ","MAREA":" ","LANE":"２７６巷","ALLEY":" ","HOUSE_NO":"３號","E_COORD97":172445.10000000001,"N_COORD97":2564573.3300000001,"ADDRESS":"中興街２７６巷３號","OBJECTID":401472},"geometry":{"x":172445.10000000149,"y":2564573.3300000001}},{"attributes":{"ID":401497,"DIS_CODE":0,"TOWNNAME":"麻豆區","LI":"興農里","LIN":"11鄰","STREET":"中興街","SECT":" ","MAREA":" ","LANE":"２７６巷","ALLEY":" ","HOUSE_NO":"５號","E_COORD97":172444.91,"N_COORD97":2564577.8799999999,"ADDRESS":"中興街２７６巷５號","OBJECTID":401473},"geometry":{"x":172444.91000000015,"y":2564577.8800000008}},{"attributes":{"ID":401498,"DIS_CODE":0,"TOWNNAME":"麻豆區","LI":"興農里","LIN":"11鄰","STREET":"中興街","SECT":" ","MAREA":" ","LANE":"２７６巷","ALLEY":" ","HOUSE_NO":"７號","E_COORD97":172444.88,"N_COORD97":2564582.96,"ADDRESS":"中興街２７６巷７號","OBJECTID":401474},"geometry":{"x":172444.87999999989,"y":2564582.9600000028}},{"attributes":{"ID":401499,"DIS_CODE":0,"TOWNNAME":"永康區","LI":"五王里","LIN":"26鄰","STREET":"五福街","SECT":" ","MAREA":" ","LANE":"８２巷","ALLEY":" ","HOUSE_NO":"２３號","E_COORD97":171506.64000000001,"N_COORD97":2545910.2599999998,"ADDRESS":"五福街８２巷２３號","OBJECTID":401475},"geometry":{"x":171506.63999999966,"y":2545910.2599999998}},{"attributes":{"ID":401500,"DIS_CODE":0,"TOWNNAME":"永康區","LI":"五王里","LIN":"26鄰","STREET":"五福街","SECT":" ","MAREA":" ","LANE":"８２巷","ALLEY":" ","HOUSE_NO":"７號","E_COORD97":171488.79000000001,"N_COORD97":2545936.2200000002,"ADDRESS":"五福街８２巷７號","OBJECTID":401476},"geometry":{"x":171488.79000000097,"y":2545936.2200000025}},{"attributes":{"ID":401501,"DIS_CODE":0,"TOWNNAME":"永康區","LI":"王行里","LIN":"13鄰","STREET":"王行路","SECT":" ","MAREA":" ","LANE":"１０１８巷","ALLEY":" ","HOUSE_NO":"５７號","E_COORD97":175774.34,"N_COORD97":2550197.2400000002,"ADDRESS":"王行路１０１８巷５７號","OBJECTID":401477},"geometry":{"x":175774.33999999985,"y":2550197.2400000021}},{"attributes":{"ID":401502,"DIS_CODE":0,"TOWNNAME":"永康區","LI":"中興里","LIN":"15鄰","STREET":"中興街","SECT":" ","MAREA":" ","LANE":"９１巷","ALLEY":" ","HOUSE_NO":"３６號","E_COORD97":171969.54999999999,"N_COORD97":2545361.4900000002,"ADDRESS":"中興街９１巷３６號","OBJECTID":401478},"geometry":{"x":171969.55000000075,"y":2545361.4900000021}},{"attributes":{"ID":401503,"DIS_CODE":0,"TOWNNAME":"永康區","LI":"中興里","LIN":"15鄰","STREET":"中興街","SECT":" ","MAREA":" ","LANE":"９１巷","ALLEY":" ","HOUSE_NO":"３８號","E_COORD97":171965.67000000001,"N_COORD97":2545361.4900000002,"ADDRESS":"中興街９１巷３８號","OBJECTID":401479},"geometry":{"x":171965.67000000086,"y":2545361.4900000021}},{"attributes":{"ID":401504,"DIS_CODE":0,"TOWNNAME":"永康區","LI":"大橋里","LIN":"27鄰","STREET":"大橋一街","SECT":" ","MAREA":" ","LANE":"２５３巷","ALLEY":" ","HOUSE_NO":"１號","E_COORD97":171313.98999999999,"N_COORD97":2546699.7400000002,"ADDRESS":"大橋一街２５３巷１號","OBJECTID":401480},"geometry":{"x":171313.98999999929,"y":2546699.7400000002}},{"attributes":{"ID":401505,"DIS_CODE":0,"TOWNNAME":"永康區","LI":"五王里","LIN":"26鄰","STREET":"五福街","SECT":" ","MAREA":" ","LANE":"８２巷","ALLEY":" ","HOUSE_NO":"２號","E_COORD97":171468.51000000001,"N_COORD97":2545948.2400000002,"ADDRESS":"五福街８２巷２號","OBJECTID":401481},"geometry":{"x":171468.51000000071,"y":2545948.2400000002}},{"attributes":{"ID":401506,"DIS_CODE":0,"TOWNNAME":"永康區","LI":"中興里","LIN":"15鄰","STREET":"中興街","SECT":" ","MAREA":" ","LANE":"９１巷","ALLEY":" ","HOUSE_NO":"４０號","E_COORD97":171962.06,"N_COORD97":2545361.9900000002,"ADDRESS":"中興街９１巷４０號","OBJECTID":401482},"geometry":{"x":171962.05999999959,"y":2545361.9900000021}},{"attributes":{"ID":401507,"DIS_CODE":0,"TOWNNAME":"永康區","LI":"五王里","LIN":"26鄰","STREET":"五福街","SECT":" ","MAREA":" ","LANE":"８２巷","ALLEY":" ","HOUSE_NO":"１７號","E_COORD97":171497.07999999999,"N_COORD97":2545926.7599999998,"ADDRESS":"五福街８２巷１７號","OBJECTID":401483},"geometry":{"x":171497.08000000101,"y":2545926.7599999998}},{"attributes":{"ID":401508,"DIS_CODE":0,"TOWNNAME":"永康區","LI":"五王里","LIN":"26鄰","STREET":"五福街","SECT":" ","MAREA":" ","LANE":"８２巷","ALLEY":" ","HOUSE_NO":"６號","E_COORD97":171472.64999999999,"N_COORD97":2545941.4900000002,"ADDRESS":"五福街８２巷６號","OBJECTID":401484},"geometry":{"x":171472.65000000224,"y":2545941.4900000021}},{"attributes":{"ID":401509,"DIS_CODE":0,"TOWNNAME":"永康區","LI":"五王里","LIN":"17鄰","STREET":"成功路","SECT":" ","MAREA":" ","LANE":"２０４巷","ALLEY":" ","HOUSE_NO":"２３號","E_COORD97":171457.01999999999,"N_COORD97":2545747.71,"ADDRESS":"成功路２０４巷２３號","OBJECTID":401485},"geometry":{"x":171457.01999999955,"y":2545747.7100000028}},{"attributes":{"ID":401510,"DIS_CODE":0,"TOWNNAME":"永康區","LI":"中興里","LIN":"11鄰","STREET":"中興街","SECT":" ","MAREA":" ","LANE":"３５巷","ALLEY":" ","HOUSE_NO":"２７號","E_COORD97":172014.26000000001,"N_COORD97":2545170.1200000001,"ADDRESS":"中興街３５巷２７號","OBJECTID":401486},"geometry":{"x":172014.26000000071,"y":2545170.120000001}},{"attributes":{"ID":401511,"DIS_CODE":0,"TOWNNAME":"永康區","LI":"五王里","LIN":"27鄰","STREET":"五福街","SECT":" ","MAREA":" ","LANE":"１１０巷","ALLEY":" ","HOUSE_NO":"１７號","E_COORD97":171581.34,"N_COORD97":2545928.1000000001,"ADDRESS":"五福街１１０巷１７號","OBJECTID":401487},"geometry":{"x":171581.34000000078,"y":2545928.0999999996}},{"attributes":{"ID":401512,"DIS_CODE":0,"TOWNNAME":"永康區","LI":"中興里","LIN":"27鄰","STREET":"中興街","SECT":" ","MAREA":" ","LANE":"９１巷","ALLEY":" ","HOUSE_NO":"４５號","E_COORD97":171943.87,"N_COORD97":2545347.9399999999,"ADDRESS":"中興街９１巷４５號","OBJECTID":401488},"geometry":{"x":171943.87000000104,"y":2545347.9400000013}},{"attributes":{"ID":401513,"DIS_CODE":0,"TOWNNAME":"永康區","LI":"五王里","LIN":"26鄰","STREET":"五福街","SECT":" ","MAREA":" ","LANE":"８２巷","ALLEY":" ","HOUSE_NO":"３８號","E_COORD97":171525.94,"N_COORD97":2545854.2400000002,"ADDRESS":"五福街８２巷３８號","OBJECTID":401489},"geometry":{"x":171525.94000000041,"y":2545854.2400000021}},{"attributes":{"ID":401514,"DIS_CODE":0,"TOWNNAME":"永康區","LI":"五王里","LIN":"39鄰","STREET":"中華路","SECT":" ","MAREA":" ","LANE":"５７８巷","ALLEY":" ","HOUSE_NO":"１７號之６１","E_COORD97":171333.57000000001,"N_COORD97":2545989.54,"ADDRESS":"中華路５７８巷１７號之６１","OBJECTID":401490},"geometry":{"x":171333.5700000003,"y":2545989.5400000028}},{"attributes":{"ID":401515,"DIS_CODE":0,"TOWNNAME":"永康區","LI":"王行里","LIN":"10鄰","STREET":"王行路","SECT":" ","MAREA":" ","LANE":"８９８巷","ALLEY":" ","HOUSE_NO":"１１９號","E_COORD97":175891.56,"N_COORD97":2550182.75,"ADDRESS":"王行路８９８巷１１９號","OBJECTID":401491},"geometry":{"x":175891.55999999866,"y":2550182.7500000037}},{"attributes":{"ID":401516,"DIS_CODE":0,"TOWNNAME":"永康區","LI":"王行里","LIN":"10鄰","STREET":"王行路","SECT":" ","MAREA":" ","LANE":"１０１８巷","ALLEY":" ","HOUSE_NO":"４０號","E_COORD97":175815.51999999999,"N_COORD97":2550215.2400000002,"ADDRESS":"王行路１０１８巷４０號","OBJECTID":401492},"geometry":{"x":175815.51999999862,"y":2550215.2400000021}},{"attributes":{"ID":401517,"DIS_CODE":0,"TOWNNAME":"中西區","LI":"建國里","LIN":"11鄰","STREET":"民生路","SECT":"一段","MAREA":" ","LANE":"１８１巷","ALLEY":" ","HOUSE_NO":"１３號","E_COORD97":167977.92999999999,"N_COORD97":2543810.5899999999,"ADDRESS":"民生路一段１８１巷１３號","OBJECTID":401493},"geometry":{"x":167977.93000000156,"y":2543810.5900000017}},{"attributes":{"ID":401518,"DIS_CODE":0,"TOWNNAME":"中西區","LI":"建國里","LIN":"11鄰","STREET":"民生路","SECT":"一段","MAREA":" ","LANE":"１８１巷","ALLEY":" ","HOUSE_NO":"１號","E_COORD97":167988.26999999999,"N_COORD97":2543838.0099999998,"ADDRESS":"民生路一段１８１巷１號","OBJECTID":401494},"geometry":{"x":167988.26999999955,"y":2543838.0100000016}},{"attributes":{"ID":401519,"DIS_CODE":0,"TOWNNAME":"中西區","LI":"建國里","LIN":"11鄰","STREET":"民生路","SECT":"一段","MAREA":" ","LANE":"１８１巷","ALLEY":" ","HOUSE_NO":"３號","E_COORD97":167987.12,"N_COORD97":2543834.0099999998,"ADDRESS":"民生路一段１８１巷３號","OBJECTID":401495},"geometry":{"x":167987.12000000197,"y":2543834.0100000035}},{"attributes":{"ID":401520,"DIS_CODE":0,"TOWNNAME":"中西區","LI":"建國里","LIN":"11鄰","STREET":"民生路","SECT":"一段","MAREA":" ","LANE":"１８１巷","ALLEY":" ","HOUSE_NO":"５號","E_COORD97":167985.98000000001,"N_COORD97":2543830.5800000001,"ADDRESS":"民生路一段１８１巷５號","OBJECTID":401496},"geometry":{"x":167985.98000000045,"y":2543830.5800000038}},{"attributes":{"ID":401521,"DIS_CODE":0,"TOWNNAME":"永康區","LI":"五王里","LIN":"26鄰","STREET":"五福街","SECT":" ","MAREA":" ","LANE":"８２巷","ALLEY":" ","HOUSE_NO":"１１號","E_COORD97":171511.07999999999,"N_COORD97":2545946.6499999999,"ADDRESS":"五福街８２巷１１號","OBJECTID":401497},"geometry":{"x":171511.08000000007,"y":2545946.6500000022}},{"attributes":{"ID":401522,"DIS_CODE":0,"TOWNNAME":"永康區","LI":"五王里","LIN":"25鄰","STREET":"五福街","SECT":" ","MAREA":" ","LANE":"３８巷","ALLEY":" ","HOUSE_NO":"３號","E_COORD97":171353.29000000001,"N_COORD97":2545862.2400000002,"ADDRESS":"五福街３８巷３號","OBJECTID":401498},"geometry":{"x":171353.29000000097,"y":2545862.2400000002}},{"attributes":{"ID":401523,"DIS_CODE":0,"TOWNNAME":"永康區","LI":"中興里","LIN":"15鄰","STREET":"中興街","SECT":" ","MAREA":" ","LANE":"９１巷","ALLEY":" ","HOUSE_NO":"５６號","E_COORD97":171916.35000000001,"N_COORD97":2545364.7400000002,"ADDRESS":"中興街９１巷５６號","OBJECTID":401499},"geometry":{"x":171916.35000000149,"y":2545364.7400000002}},{"attributes":{"ID":401524,"DIS_CODE":0,"TOWNNAME":"永康區","LI":"王行里","LIN":"11鄰","STREET":"王行路","SECT":" ","MAREA":" ","LANE":"８９８巷","ALLEY":" ","HOUSE_NO":"６３號","E_COORD97":175955.62,"N_COORD97":2550117.4900000002,"ADDRESS":"王行路８９８巷６３號","OBJECTID":401500},"geometry":{"x":175955.62000000011,"y":2550117.4900000021}},{"attributes":{"ID":401525,"DIS_CODE":0,"TOWNNAME":"永康區","LI":"五王里","LIN":"38鄰","STREET":"中華路","SECT":" ","MAREA":" ","LANE":"５７８巷","ALLEY":" ","HOUSE_NO":"１７號之５","E_COORD97":171332.47,"N_COORD97":2545989.54,"ADDRESS":"中華路５７８巷１７號之５","OBJECTID":401501},"geometry":{"x":171332.4700000016,"y":2545989.5400000028}},{"attributes":{"ID":401526,"DIS_CODE":0,"TOWNNAME":"中西區","LI":"安海里","LIN":"13鄰","STREET":"環河街","SECT":" ","MAREA":" ","LANE":" ","ALLEY":" ","HOUSE_NO":"１１６號","E_COORD97":167250.03,"N_COORD97":2544047.1299999999,"ADDRESS":"環河街１１６號","OBJECTID":401502},"geometry":{"x":167250.03000000026,"y":2544047.1300000008}},{"attributes":{"ID":401527,"DIS_CODE":0,"TOWNNAME":"永康區","LI":"五王里","LIN":"38鄰","STREET":"中華路","SECT":" ","MAREA":" ","LANE":"５７８巷","ALLEY":" ","HOUSE_NO":"１７號之８","E_COORD97":171332.47,"N_COORD97":2545989.54,"ADDRESS":"中華路５７８巷１７號之８","OBJECTID":401503},"geometry":{"x":171332.4700000016,"y":2545989.5400000028}},{"attributes":{"ID":401528,"DIS_CODE":0,"TOWNNAME":"永康區","LI":"五王里","LIN":"38鄰","STREET":"中華路","SECT":" ","MAREA":" ","LANE":"５７８巷","ALLEY":" ","HOUSE_NO":"１７號之２４","E_COORD97":171333.59,"N_COORD97":2545989.54,"ADDRESS":"中華路５７８巷１７號之２４","OBJECTID":401504},"geometry":{"x":171333.59000000078,"y":2545989.5400000028}},{"attributes":{"ID":401529,"DIS_CODE":0,"TOWNNAME":"永康區","LI":"五王里","LIN":"38鄰","STREET":"中華路","SECT":" ","MAREA":" ","LANE":"５７８巷","ALLEY":" ","HOUSE_NO":"１７號之１９","E_COORD97":171333.64999999999,"N_COORD97":2545989.54,"ADDRESS":"中華路５７８巷１７號之１９","OBJECTID":401505},"geometry":{"x":171333.65000000224,"y":2545989.5400000028}},{"attributes":{"ID":401530,"DIS_CODE":0,"TOWNNAME":"永康區","LI":"五王里","LIN":"26鄰","STREET":"五福街","SECT":" ","MAREA":" ","LANE":"８２巷","ALLEY":" ","HOUSE_NO":"８號","E_COORD97":171476.56,"N_COORD97":2545934.75,"ADDRESS":"五福街８２巷８號","OBJECTID":401506},"geometry":{"x":171476.55999999959,"y":2545934.7500000037}},{"attributes":{"ID":401531,"DIS_CODE":0,"TOWNNAME":"永康區","LI":"五王里","LIN":"34鄰","STREET":"中華路","SECT":" ","MAREA":" ","LANE":"５７８巷","ALLEY":" ","HOUSE_NO":"１２號","E_COORD97":171349.79999999999,"N_COORD97":2545962.9900000002,"ADDRESS":"中華路５７８巷１２號","OBJECTID":401507},"geometry":{"x":171349.79999999981,"y":2545962.9900000002}},{"attributes":{"ID":401532,"DIS_CODE":0,"TOWNNAME":"永康區","LI":"王行里","LIN":"12鄰","STREET":"王行路","SECT":" ","MAREA":" ","LANE":"８９８巷","ALLEY":" ","HOUSE_NO":"５９號","E_COORD97":175971.26000000001,"N_COORD97":2550083.2400000002,"ADDRESS":"王行路８９８巷５９號","OBJECTID":401508},"geometry":{"x":175971.25999999978,"y":2550083.2400000002}},{"attributes":{"ID":401533,"DIS_CODE":0,"TOWNNAME":"永康區","LI":"五王里","LIN":"37鄰","STREET":"中華路","SECT":" ","MAREA":" ","LANE":"５７８巷","ALLEY":" ","HOUSE_NO":"１５號之８","E_COORD97":171274.85000000001,"N_COORD97":2545965.79,"ADDRESS":"中華路５７８巷１５號之８","OBJECTID":401509},"geometry":{"x":171274.84999999963,"y":2545965.7899999991}},{"attributes":{"ID":401534,"DIS_CODE":0,"TOWNNAME":"永康區","LI":"中興里","LIN":"11鄰","STREET":"中興街","SECT":" ","MAREA":" ","LANE":"３５巷","ALLEY":" ","HOUSE_NO":"４１號","E_COORD97":171983.84,"N_COORD97":2545165.1000000001,"ADDRESS":"中興街３５巷４１號","OBJECTID":401510},"geometry":{"x":171983.83999999985,"y":2545165.0999999996}},{"attributes":{"ID":401535,"DIS_CODE":0,"TOWNNAME":"仁德區","LI":"保安里","LIN":"11鄰","STREET":"中正路","SECT":"一段","MAREA":" ","LANE":"２５１巷","ALLEY":" ","HOUSE_NO":"１９號之６","E_COORD97":171714.92999999999,"N_COORD97":2536016.04,"ADDRESS":"中正路一段２５１巷１９號之６","OBJECTID":401511},"geometry":{"x":171714.9299999997,"y":2536016.040000001}},{"attributes":{"ID":401536,"DIS_CODE":0,"TOWNNAME":"仁德區","LI":"太子里","LIN":"11鄰","STREET":"長興二街","SECT":" ","MAREA":" ","LANE":"８４巷","ALLEY":" ","HOUSE_NO":"２號","E_COORD97":174242.79000000001,"N_COORD97":2543719.7599999998,"ADDRESS":"長興二街８４巷２號","OBJECTID":401512},"geometry":{"x":174242.78999999911,"y":2543719.7599999998}},{"attributes":{"ID":401537,"DIS_CODE":0,"TOWNNAME":"仁德區","LI":"太子里","LIN":"11鄰","STREET":"長興二街","SECT":" ","MAREA":" ","LANE":"９２巷","ALLEY":" ","HOUSE_NO":"２０號","E_COORD97":174207.67999999999,"N_COORD97":2543757.7599999998,"ADDRESS":"長興二街９２巷２０號","OBJECTID":401513},"geometry":{"x":174207.68000000156,"y":2543757.7600000035}},{"attributes":{"ID":401538,"DIS_CODE":0,"TOWNNAME":"仁德區","LI":"成功里","LIN":"11鄰","STREET":"成功二街","SECT":" ","MAREA":" ","LANE":"２３巷","ALLEY":" ","HOUSE_NO":"１１號","E_COORD97":170955.04000000001,"N_COORD97":2539927.02,"ADDRESS":"成功二街２３巷１１號","OBJECTID":401514},"geometry":{"x":170955.04000000004,"y":2539927.0199999996}},{"attributes":{"ID":401539,"DIS_CODE":0,"TOWNNAME":"仁德區","LI":"保安里","LIN":"11鄰","STREET":"中正路","SECT":"一段","MAREA":" ","LANE":"２５１巷","ALLEY":" ","HOUSE_NO":"１９號","E_COORD97":171740.04000000001,"N_COORD97":2536043.52,"ADDRESS":"中正路一段２５１巷１９號","OBJECTID":401515},"geometry":{"x":171740.04000000004,"y":2536043.5200000014}},{"attributes":{"ID":401540,"DIS_CODE":0,"TOWNNAME":"仁德區","LI":"保安里","LIN":"11鄰","STREET":"中正路","SECT":"一段","MAREA":" ","LANE":"２５１巷","ALLEY":" ","HOUSE_NO":"１９號之１","E_COORD97":171731.44,"N_COORD97":2536031.79,"ADDRESS":"中正路一段２５１巷１９號之１","OBJECTID":401516},"geometry":{"x":171731.44000000041,"y":2536031.790000001}},{"attributes":{"ID":401541,"DIS_CODE":0,"TOWNNAME":"仁德區","LI":"太子里","LIN":"11鄰","STREET":"長興二街","SECT":" ","MAREA":" ","LANE":"９２巷","ALLEY":" ","HOUSE_NO":"８號","E_COORD97":174208.07000000001,"N_COORD97":2543724.7599999998,"ADDRESS":"長興二街９２巷８號","OBJECTID":401517},"geometry":{"x":174208.07000000123,"y":2543724.7600000016}},{"attributes":{"ID":401542,"DIS_CODE":0,"TOWNNAME":"仁德區","LI":"太子里","LIN":"11鄰","STREET":"長興二街","SECT":" ","MAREA":" ","LANE":"９２巷","ALLEY":" ","HOUSE_NO":"３０號","E_COORD97":174204.98999999999,"N_COORD97":2543786.75,"ADDRESS":"長興二街９２巷３０號","OBJECTID":401518},"geometry":{"x":174204.99000000115,"y":2543786.7500000019}},{"attributes":{"ID":401543,"DIS_CODE":0,"TOWNNAME":"仁德區","LI":"成功里","LIN":"11鄰","STREET":"成功二街","SECT":" ","MAREA":" ","LANE":"３１巷","ALLEY":" ","HOUSE_NO":"４４號","E_COORD97":171031.60000000001,"N_COORD97":2539839.75,"ADDRESS":"成功二街３１巷４４號","OBJECTID":401519},"geometry":{"x":171031.60000000056,"y":2539839.7500000019}},{"attributes":{"ID":401544,"DIS_CODE":0,"TOWNNAME":"仁德區","LI":"太子里","LIN":"11鄰","STREET":"長興二街","SECT":" ","MAREA":" ","LANE":"９２巷","ALLEY":" ","HOUSE_NO":"１６號","E_COORD97":174208.26000000001,"N_COORD97":2543744.5099999998,"ADDRESS":"長興二街９２巷１６號","OBJECTID":401520},"geometry":{"x":174208.25999999978,"y":2543744.5099999998}},{"attributes":{"ID":401545,"DIS_CODE":0,"TOWNNAME":"仁德區","LI":"太子里","LIN":"11鄰","STREET":"長興二街","SECT":" ","MAREA":" ","LANE":"９２巷","ALLEY":" ","HOUSE_NO":"２２號","E_COORD97":174205.39000000001,"N_COORD97":2543774,"ADDRESS":"長興二街９２巷２２號","OBJECTID":401521},"geometry":{"x":174205.38999999966,"y":2543774.0000000019}},{"attributes":{"ID":401546,"DIS_CODE":0,"TOWNNAME":"永康區","LI":"五王里","LIN":"26鄰","STREET":"五福街","SECT":" ","MAREA":" ","LANE":"８２巷","ALLEY":" ","HOUSE_NO":"４３號","E_COORD97":171543.01999999999,"N_COORD97":2545894.1299999999,"ADDRESS":"五福街８２巷４３號","OBJECTID":401522},"geometry":{"x":171543.01999999955,"y":2545894.1300000008}},{"attributes":{"ID":401547,"DIS_CODE":0,"TOWNNAME":"永康區","LI":"五王里","LIN":"34鄰","STREET":"中華路","SECT":" ","MAREA":" ","LANE":"５７８巷","ALLEY":" ","HOUSE_NO":"８號","E_COORD97":171328.25,"N_COORD97":2545956.4900000002,"ADDRESS":"中華路５７８巷８號","OBJECTID":401523},"geometry":{"x":171328.25,"y":2545956.4900000002}},{"attributes":{"ID":401548,"DIS_CODE":0,"TOWNNAME":"永康區","LI":"王行里","LIN":"7鄰","STREET":"王行路","SECT":" ","MAREA":" ","LANE":"３９９巷","ALLEY":" ","HOUSE_NO":"２０號","E_COORD97":175360.76999999999,"N_COORD97":2548733.3199999998,"ADDRESS":"王行路３９９巷２０號","OBJECTID":401524},"geometry":{"x":175360.76999999955,"y":2548733.3200000022}},{"attributes":{"ID":401549,"DIS_CODE":0,"TOWNNAME":"永康區","LI":"五王里","LIN":"37鄰","STREET":"中華路","SECT":" ","MAREA":" ","LANE":"５７８巷","ALLEY":" ","HOUSE_NO":"１５號之２","E_COORD97":171274.82999999999,"N_COORD97":2545965.79,"ADDRESS":"中華路５７８巷１５號之２","OBJECTID":401525},"geometry":{"x":171274.83000000101,"y":2545965.7899999991}},{"attributes":{"ID":401550,"DIS_CODE":0,"TOWNNAME":"仁德區","LI":"太子里","LIN":"11鄰","STREET":"長興二街","SECT":" ","MAREA":" ","LANE":"９２巷","ALLEY":" ","HOUSE_NO":"３２號","E_COORD97":174204.82999999999,"N_COORD97":2543791,"ADDRESS":"長興二街９２巷３２號","OBJECTID":401526},"geometry":{"x":174204.83000000007,"y":2543791.0000000019}},{"attributes":{"ID":401551,"DIS_CODE":0,"TOWNNAME":"仁德區","LI":"太子里","LIN":"11鄰","STREET":"長興二街","SECT":" ","MAREA":" ","LANE":"８４巷","ALLEY":" ","HOUSE_NO":"５號","E_COORD97":174229.51000000001,"N_COORD97":2543731.0099999998,"ADDRESS":"長興二街８４巷５號","OBJECTID":401527},"geometry":{"x":174229.51000000071,"y":2543731.0099999998}},{"attributes":{"ID":401552,"DIS_CODE":0,"TOWNNAME":"仁德區","LI":"成功里","LIN":"11鄰","STREET":"成功二街","SECT":" ","MAREA":" ","LANE":"２３巷","ALLEY":" ","HOUSE_NO":"１５號","E_COORD97":170964.42000000001,"N_COORD97":2539927.77,"ADDRESS":"成功二街２３巷１５號","OBJECTID":401528},"geometry":{"x":170964.41999999993,"y":2539927.7700000014}},{"attributes":{"ID":401553,"DIS_CODE":0,"TOWNNAME":"仁德區","LI":"成功里","LIN":"11鄰","STREET":"成功二街","SECT":" ","MAREA":" ","LANE":"２３巷","ALLEY":" ","HOUSE_NO":"９號","E_COORD97":170948.85000000001,"N_COORD97":2539927.02,"ADDRESS":"成功二街２３巷９號","OBJECTID":401529},"geometry":{"x":170948.85000000056,"y":2539927.0199999996}},{"attributes":{"ID":401554,"DIS_CODE":0,"TOWNNAME":"永康區","LI":"中興里","LIN":"4鄰","STREET":"中華路","SECT":" ","MAREA":" ","LANE":"２１２巷","ALLEY":" ","HOUSE_NO":"５５號","E_COORD97":171834.63,"N_COORD97":2545029.7400000002,"ADDRESS":"中華路２１２巷５５號","OBJECTID":401530},"geometry":{"x":171834.62999999989,"y":2545029.7400000039}},{"attributes":{"ID":401555,"DIS_CODE":0,"TOWNNAME":"永康區","LI":"五王里","LIN":"22鄰","STREET":"成功路","SECT":" ","MAREA":" ","LANE":"２２８巷","ALLEY":" ","HOUSE_NO":"６號","E_COORD97":171381.98000000001,"N_COORD97":2545784.52,"ADDRESS":"成功路２２８巷６號","OBJECTID":401531},"geometry":{"x":171381.98000000045,"y":2545784.5200000014}},{"attributes":{"ID":401556,"DIS_CODE":0,"TOWNNAME":"仁德區","LI":"太子里","LIN":"11鄰","STREET":"長興二街","SECT":" ","MAREA":" ","LANE":"９２巷","ALLEY":" ","HOUSE_NO":"１８號","E_COORD97":174207.92999999999,"N_COORD97":2543750.5099999998,"ADDRESS":"長興二街９２巷１８號","OBJECTID":401532},"geometry":{"x":174207.93000000063,"y":2543750.5100000016}},{"attributes":{"ID":401557,"DIS_CODE":0,"TOWNNAME":"永康區","LI":"中興里","LIN":"4鄰","STREET":"中華路","SECT":" ","MAREA":" ","LANE":"２１２巷","ALLEY":" ","HOUSE_NO":"４８號","E_COORD97":171812.60999999999,"N_COORD97":2545012.5099999998,"ADDRESS":"中華路２１２巷４８號","OBJECTID":401533},"geometry":{"x":171812.61000000127,"y":2545012.5099999998}},{"attributes":{"ID":401558,"DIS_CODE":0,"TOWNNAME":"永康區","LI":"五王里","LIN":"38鄰","STREET":"中華路","SECT":" ","MAREA":" ","LANE":"５７８巷","ALLEY":" ","HOUSE_NO":"１７號之４７","E_COORD97":171333.64999999999,"N_COORD97":2545989.54,"ADDRESS":"中華路５７８巷１７號之４７","OBJECTID":401534},"geometry":{"x":171333.65000000224,"y":2545989.5400000028}},{"attributes":{"ID":401559,"DIS_CODE":0,"TOWNNAME":"永康區","LI":"五王里","LIN":"39鄰","STREET":"中華路","SECT":" ","MAREA":" ","LANE":"５７８巷","ALLEY":" ","HOUSE_NO":"１７號之１０１","E_COORD97":171334.82000000001,"N_COORD97":2545989.54,"ADDRESS":"中華路５７８巷１７號之１０１","OBJECTID":401535},"geometry":{"x":171334.82000000123,"y":2545989.5400000028}},{"attributes":{"ID":401560,"DIS_CODE":0,"TOWNNAME":"永康區","LI":"中興里","LIN":"11鄰","STREET":"中興街","SECT":" ","MAREA":" ","LANE":"１１巷","ALLEY":" ","HOUSE_NO":"４號","E_COORD97":172066.85000000001,"N_COORD97":2545132.2400000002,"ADDRESS":"中興街１１巷４號","OBJECTID":401536},"geometry":{"x":172066.84999999963,"y":2545132.2400000021}},{"attributes":{"ID":401561,"DIS_CODE":0,"TOWNNAME":"仁德區","LI":"成功里","LIN":"11鄰","STREET":"成功二街","SECT":" ","MAREA":" ","LANE":"３１巷","ALLEY":" ","HOUSE_NO":"２４號","E_COORD97":170990.59,"N_COORD97":2539841,"ADDRESS":"成功二街３１巷２４號","OBJECTID":401537},"geometry":{"x":170990.58999999985,"y":2539841.0000000019}},{"attributes":{"ID":401562,"DIS_CODE":0,"TOWNNAME":"仁德區","LI":"成功里","LIN":"11鄰","STREET":"成功二街","SECT":" ","MAREA":" ","LANE":"３１巷","ALLEY":" ","HOUSE_NO":"２２號","E_COORD97":170986.48999999999,"N_COORD97":2539841.5,"ADDRESS":"成功二街３１巷２２號","OBJECTID":401538},"geometry":{"x":170986.49000000022,"y":2539841.5000000019}},{"attributes":{"ID":401563,"DIS_CODE":0,"TOWNNAME":"仁德區","LI":"成功里","LIN":"11鄰","STREET":"成功二街","SECT":" ","MAREA":" ","LANE":"３１巷","ALLEY":" ","HOUSE_NO":"１４號","E_COORD97":170968.64000000001,"N_COORD97":2539842.25,"ADDRESS":"成功二街３１巷１４號","OBJECTID":401539},"geometry":{"x":170968.6400000006,"y":2539842.2500000037}},{"attributes":{"ID":401564,"DIS_CODE":0,"TOWNNAME":"仁德區","LI":"成功里","LIN":"11鄰","STREET":"成功二街","SECT":" ","MAREA":" ","LANE":"３１巷","ALLEY":" ","HOUSE_NO":"６號","E_COORD97":170946.26000000001,"N_COORD97":2539844.2599999998,"ADDRESS":"成功二街３１巷６號","OBJECTID":401540},"geometry":{"x":170946.26000000071,"y":2539844.2599999998}},{"attributes":{"ID":401565,"DIS_CODE":0,"TOWNNAME":"仁德區","LI":"太子里","LIN":"11鄰","STREET":"長興二街","SECT":" ","MAREA":" ","LANE":"８４巷","ALLEY":" ","HOUSE_NO":"６號","E_COORD97":174241.92999999999,"N_COORD97":2543732.0099999998,"ADDRESS":"長興二街８４巷６號","OBJECTID":401541},"geometry":{"x":174241.93000000063,"y":2543732.0099999998}},{"attributes":{"ID":401566,"DIS_CODE":0,"TOWNNAME":"仁德區","LI":"成功里","LIN":"11鄰","STREET":"成功二街","SECT":" ","MAREA":" ","LANE":"３１巷","ALLEY":" ","HOUSE_NO":"１６號","E_COORD97":170973.22,"N_COORD97":2539842.25,"ADDRESS":"成功二街３１巷１６號","OBJECTID":401542},"geometry":{"x":170973.22000000067,"y":2539842.2500000037}},{"attributes":{"ID":401567,"DIS_CODE":0,"TOWNNAME":"永康區","LI":"中興里","LIN":"22鄰","STREET":"中華路","SECT":" ","MAREA":" ","LANE":"２１２巷","ALLEY":" ","HOUSE_NO":"３６號","E_COORD97":171780.37,"N_COORD97":2545009.5099999998,"ADDRESS":"中華路２１２巷３６號","OBJECTID":401543},"geometry":{"x":171780.37000000011,"y":2545009.5099999998}},{"attributes":{"ID":401568,"DIS_CODE":0,"TOWNNAME":"永康區","LI":"五王里","LIN":"26鄰","STREET":"五福街","SECT":" ","MAREA":" ","LANE":"８２巷","ALLEY":" ","HOUSE_NO":"１號","E_COORD97":171479.89000000001,"N_COORD97":2545953.21,"ADDRESS":"五福街８２巷１號","OBJECTID":401544},"geometry":{"x":171479.88999999966,"y":2545953.2100000028}},{"attributes":{"ID":401569,"DIS_CODE":0,"TOWNNAME":"永康區","LI":"五王里","LIN":"26鄰","STREET":"五福街","SECT":" ","MAREA":" ","LANE":"８２巷","ALLEY":" ","HOUSE_NO":"４９號","E_COORD97":171530.62,"N_COORD97":2545872.4900000002,"ADDRESS":"五福街８２巷４９號","OBJECTID":401545},"geometry":{"x":171530.62000000104,"y":2545872.4900000039}},{"attributes":{"ID":401570,"DIS_CODE":0,"TOWNNAME":"永康區","LI":"五王里","LIN":"39鄰","STREET":"中華路","SECT":" ","MAREA":" ","LANE":"５７８巷","ALLEY":" ","HOUSE_NO":"１７號之６４","E_COORD97":171333.59,"N_COORD97":2545989.54,"ADDRESS":"中華路５７８巷１７號之６４","OBJECTID":401546},"geometry":{"x":171333.59000000078,"y":2545989.5400000028}},{"attributes":{"ID":401571,"DIS_CODE":0,"TOWNNAME":"永康區","LI":"五王里","LIN":"39鄰","STREET":"中華路","SECT":" ","MAREA":" ","LANE":"５７８巷","ALLEY":" ","HOUSE_NO":"１７號之５５","E_COORD97":171333.72,"N_COORD97":2545989.54,"ADDRESS":"中華路５７８巷１７號之５５","OBJECTID":401547},"geometry":{"x":171333.71999999974,"y":2545989.5400000028}},{"attributes":{"ID":401572,"DIS_CODE":0,"TOWNNAME":"仁德區","LI":"保安里","LIN":"11鄰","STREET":"文賢路","SECT":"一段","MAREA":" ","LANE":"８４７巷","ALLEY":" ","HOUSE_NO":"２號","E_COORD97":171650.04000000001,"N_COORD97":2535969.0800000001,"ADDRESS":"文賢路一段８４７巷２號","OBJECTID":401548},"geometry":{"x":171650.04000000097,"y":2535969.0800000019}},{"attributes":{"ID":401573,"DIS_CODE":0,"TOWNNAME":"仁德區","LI":"後壁里","LIN":"11鄰","STREET":"德善路","SECT":" ","MAREA":" ","LANE":"２２３巷","ALLEY":" ","HOUSE_NO":"６號","E_COORD97":173792.89999999999,"N_COORD97":2538748.52,"ADDRESS":"德善路２２３巷６號","OBJECTID":401549},"geometry":{"x":173792.90000000037,"y":2538748.5200000014}},{"attributes":{"ID":401574,"DIS_CODE":0,"TOWNNAME":"永康區","LI":"五王里","LIN":"38鄰","STREET":"中華路","SECT":" ","MAREA":" ","LANE":"５７８巷","ALLEY":" ","HOUSE_NO":"１７號之６","E_COORD97":171332.42000000001,"N_COORD97":2545989.54,"ADDRESS":"中華路５７８巷１７號之６","OBJECTID":401550},"geometry":{"x":171332.41999999993,"y":2545989.5400000028}},{"attributes":{"ID":401575,"DIS_CODE":0,"TOWNNAME":"永康區","LI":"五王里","LIN":"39鄰","STREET":"中華路","SECT":" ","MAREA":" ","LANE":"５７８巷","ALLEY":" ","HOUSE_NO":"１７號之７１","E_COORD97":171333.57000000001,"N_COORD97":2545989.54,"ADDRESS":"中華路５７８巷１７號之７１","OBJECTID":401551},"geometry":{"x":171333.5700000003,"y":2545989.5400000028}},{"attributes":{"ID":401576,"DIS_CODE":0,"TOWNNAME":"永康區","LI":"五王里","LIN":"39鄰","STREET":"中華路","SECT":" ","MAREA":" ","LANE":"５７８巷","ALLEY":" ","HOUSE_NO":"１７號之８７","E_COORD97":171333.64999999999,"N_COORD97":2545989.54,"ADDRESS":"中華路５７８巷１７號之８７","OBJECTID":401552},"geometry":{"x":171333.65000000224,"y":2545989.5400000028}},{"attributes":{"ID":401577,"DIS_CODE":0,"TOWNNAME":"官田區","LI":"隆本里","LIN":"11鄰","STREET":"興隆街","SECT":" ","MAREA":" ","LANE":"１６巷","ALLEY":" ","HOUSE_NO":"１３號","E_COORD97":180028.41,"N_COORD97":2566447.3399999999,"ADDRESS":"興隆街１６巷１３號","OBJECTID":401553},"geometry":{"x":180028.41000000108,"y":2566447.3400000017}},{"attributes":{"ID":401578,"DIS_CODE":0,"TOWNNAME":"官田區","LI":"隆本里","LIN":"11鄰","STREET":"興隆街","SECT":" ","MAREA":" ","LANE":"１６巷","ALLEY":" ","HOUSE_NO":"１５號","E_COORD97":180028.34,"N_COORD97":2566451.5299999998,"ADDRESS":"興隆街１６巷１５號","OBJECTID":401554},"geometry":{"x":180028.34000000078,"y":2566451.5300000012}},{"attributes":{"ID":401579,"DIS_CODE":0,"TOWNNAME":"官田區","LI":"隆本里","LIN":"11鄰","STREET":"興隆街","SECT":" ","MAREA":" ","LANE":"１６巷","ALLEY":" ","HOUSE_NO":"３號","E_COORD97":180031.19,"N_COORD97":2566427.29,"ADDRESS":"興隆街１６巷３號","OBJECTID":401555},"geometry":{"x":180031.18999999948,"y":2566427.2899999991}},{"attributes":{"ID":401580,"DIS_CODE":0,"TOWNNAME":"官田區","LI":"隆本里","LIN":"11鄰","STREET":"興隆街","SECT":" ","MAREA":" ","LANE":"１６巷","ALLEY":" ","HOUSE_NO":"５號","E_COORD97":180030.63,"N_COORD97":2566431.5099999998,"ADDRESS":"興隆街１６巷５號","OBJECTID":401556},"geometry":{"x":180030.62999999989,"y":2566431.5100000016}},{"attributes":{"ID":401581,"DIS_CODE":0,"TOWNNAME":"官田區","LI":"隆本里","LIN":"11鄰","STREET":"興隆街","SECT":" ","MAREA":" ","LANE":"１６巷","ALLEY":" ","HOUSE_NO":"７號","E_COORD97":180030.23000000001,"N_COORD97":2566435.4700000002,"ADDRESS":"興隆街１６巷７號","OBJECTID":401557},"geometry":{"x":180030.23000000045,"y":2566435.4700000044}},{"attributes":{"ID":401582,"DIS_CODE":0,"TOWNNAME":"官田區","LI":"隆本里","LIN":"11鄰","STREET":"興隆街","SECT":" ","MAREA":" ","LANE":"１６巷","ALLEY":" ","HOUSE_NO":"９號","E_COORD97":180029.73999999999,"N_COORD97":2566439.6600000001,"ADDRESS":"興隆街１６巷９號","OBJECTID":401558},"geometry":{"x":180029.74000000115,"y":2566439.6600000001}},{"attributes":{"ID":401583,"DIS_CODE":0,"TOWNNAME":"永康區","LI":"王行里","LIN":"5鄰","STREET":"育樂街","SECT":" ","MAREA":" ","LANE":"１４３巷","ALLEY":" ","HOUSE_NO":"１２號","E_COORD97":175075.32000000001,"N_COORD97":2548303.8399999999,"ADDRESS":"育樂街１４３巷１２號","OBJECTID":401559},"geometry":{"x":175075.32000000216,"y":2548303.8400000036}},{"attributes":{"ID":401584,"DIS_CODE":0,"TOWNNAME":"永康區","LI":"王行里","LIN":"5鄰","STREET":"育樂街","SECT":" ","MAREA":" ","LANE":"１８３巷","ALLEY":" ","HOUSE_NO":"１９號","E_COORD97":174948.78,"N_COORD97":2548279.7000000002,"ADDRESS":"育樂街１８３巷１９號","OBJECTID":401560},"geometry":{"x":174948.78000000119,"y":2548279.6999999993}},{"attributes":{"ID":401585,"DIS_CODE":0,"TOWNNAME":"永康區","LI":"五王里","LIN":"38鄰","STREET":"中華路","SECT":" ","MAREA":" ","LANE":"５７８巷","ALLEY":" ","HOUSE_NO":"１７號之１６","E_COORD97":171333.67000000001,"N_COORD97":2545989.54,"ADDRESS":"中華路５７８巷１７號之１６","OBJECTID":401561},"geometry":{"x":171333.67000000086,"y":2545989.5400000028}},{"attributes":{"ID":401586,"DIS_CODE":0,"TOWNNAME":"永康區","LI":"五王里","LIN":"3鄰","STREET":"中華二路","SECT":" ","MAREA":" ","LANE":"２０６巷","ALLEY":" ","HOUSE_NO":"５３號","E_COORD97":171589.01000000001,"N_COORD97":2545610.3199999998,"ADDRESS":"中華二路２０６巷５３號","OBJECTID":401562},"geometry":{"x":171589.00999999978,"y":2545610.3200000022}},{"attributes":{"ID":401587,"DIS_CODE":0,"TOWNNAME":"永康區","LI":"五王里","LIN":"38鄰","STREET":"中華路","SECT":" ","MAREA":" ","LANE":"５７８巷","ALLEY":" ","HOUSE_NO":"１７號之３６","E_COORD97":171333.67000000001,"N_COORD97":2545989.54,"ADDRESS":"中華路５７８巷１７號之３６","OBJECTID":401563},"geometry":{"x":171333.67000000086,"y":2545989.5400000028}},{"attributes":{"ID":401588,"DIS_CODE":0,"TOWNNAME":"永康區","LI":"五王里","LIN":"38鄰","STREET":"中華路","SECT":" ","MAREA":" ","LANE":"５７８巷","ALLEY":" ","HOUSE_NO":"１７號之１８","E_COORD97":171333.72,"N_COORD97":2545989.54,"ADDRESS":"中華路５７８巷１７號之１８","OBJECTID":401564},"geometry":{"x":171333.71999999974,"y":2545989.5400000028}},{"attributes":{"ID":401589,"DIS_CODE":0,"TOWNNAME":"永康區","LI":"五王里","LIN":"39鄰","STREET":"中華路","SECT":" ","MAREA":" ","LANE":"５７８巷","ALLEY":" ","HOUSE_NO":"１７號之５６","E_COORD97":171333.67000000001,"N_COORD97":2545989.54,"ADDRESS":"中華路５７８巷１７號之５６","OBJECTID":401565},"geometry":{"x":171333.67000000086,"y":2545989.5400000028}},{"attributes":{"ID":401590,"DIS_CODE":0,"TOWNNAME":"永康區","LI":"五王里","LIN":"17鄰","STREET":"成功路","SECT":" ","MAREA":" ","LANE":"２０４巷","ALLEY":" ","HOUSE_NO":"５９號","E_COORD97":171538.42999999999,"N_COORD97":2545802.27,"ADDRESS":"成功路２０４巷５９號","OBJECTID":401566},"geometry":{"x":171538.43000000063,"y":2545802.2700000014}},{"attributes":{"ID":401591,"DIS_CODE":0,"TOWNNAME":"永康區","LI":"中興里","LIN":"4鄰","STREET":"中華路","SECT":" ","MAREA":" ","LANE":"２１２巷","ALLEY":" ","HOUSE_NO":"５０號","E_COORD97":171816.54000000001,"N_COORD97":2545012.5099999998,"ADDRESS":"中華路２１２巷５０號","OBJECTID":401567},"geometry":{"x":171816.54000000004,"y":2545012.5099999998}},{"attributes":{"ID":401592,"DIS_CODE":0,"TOWNNAME":"永康區","LI":"王行里","LIN":"11鄰","STREET":"王行路","SECT":" ","MAREA":" ","LANE":"８９８巷","ALLEY":" ","HOUSE_NO":"１３號","E_COORD97":175885.78,"N_COORD97":2550080,"ADDRESS":"王行路８９８巷１３號","OBJECTID":401568},"geometry":{"x":175885.78000000212,"y":2550080.0000000019}},{"attributes":{"ID":401593,"DIS_CODE":0,"TOWNNAME":"永康區","LI":"北灣里","LIN":"11鄰","STREET":"大灣七街","SECT":" ","MAREA":" ","LANE":"４５巷","ALLEY":" ","HOUSE_NO":"８號","E_COORD97":175043.51999999999,"N_COORD97":2545684.7599999998,"ADDRESS":"大灣七街４５巷８號","OBJECTID":401569},"geometry":{"x":175043.51999999955,"y":2545684.7600000016}},{"attributes":{"ID":401594,"DIS_CODE":0,"TOWNNAME":"永康區","LI":"中興里","LIN":"22鄰","STREET":"中華路","SECT":" ","MAREA":" ","LANE":"２１２巷","ALLEY":" ","HOUSE_NO":"１７號","E_COORD97":171749.57000000001,"N_COORD97":2545019.7999999998,"ADDRESS":"中華路２１２巷１７號","OBJECTID":401570},"geometry":{"x":171749.57000000123,"y":2545019.8000000045}},{"attributes":{"ID":401595,"DIS_CODE":0,"TOWNNAME":"永康區","LI":"五王里","LIN":"38鄰","STREET":"中華路","SECT":" ","MAREA":" ","LANE":"５７８巷","ALLEY":" ","HOUSE_NO":"１７號之３","E_COORD97":171332.42000000001,"N_COORD97":2545989.54,"ADDRESS":"中華路５７８巷１７號之３","OBJECTID":401571},"geometry":{"x":171332.41999999993,"y":2545989.5400000028}},{"attributes":{"ID":401596,"DIS_CODE":0,"TOWNNAME":"永康區","LI":"五王里","LIN":"38鄰","STREET":"中華路","SECT":" ","MAREA":" ","LANE":"５７８巷","ALLEY":" ","HOUSE_NO":"１７號之１３","E_COORD97":171333.67000000001,"N_COORD97":2545989.54,"ADDRESS":"中華路５７８巷１７號之１３","OBJECTID":401572},"geometry":{"x":171333.67000000086,"y":2545989.5400000028}},{"attributes":{"ID":401597,"DIS_CODE":0,"TOWNNAME":"永康區","LI":"中興里","LIN":"11鄰","STREET":"中興街","SECT":" ","MAREA":" ","LANE":"１１巷","ALLEY":" ","HOUSE_NO":"２８號","E_COORD97":172051.32000000001,"N_COORD97":2545093.79,"ADDRESS":"中興街１１巷２８號","OBJECTID":401573},"geometry":{"x":172051.32000000123,"y":2545093.790000001}},{"attributes":{"ID":401598,"DIS_CODE":0,"TOWNNAME":"永康區","LI":"北灣里","LIN":"11鄰","STREET":"大灣七街","SECT":" ","MAREA":" ","LANE":"４５巷","ALLEY":" ","HOUSE_NO":"２２號","E_COORD97":175001.69,"N_COORD97":2545670.1099999999,"ADDRESS":"大灣七街４５巷２２號","OBJECTID":401574},"geometry":{"x":175001.69000000227,"y":2545670.1099999994}},{"attributes":{"ID":401599,"DIS_CODE":0,"TOWNNAME":"永康區","LI":"北灣里","LIN":"11鄰","STREET":"大灣七街","SECT":" ","MAREA":" ","LANE":"４５巷","ALLEY":" ","HOUSE_NO":"２０號","E_COORD97":175023.95000000001,"N_COORD97":2545652.0299999998,"ADDRESS":"大灣七街４５巷２０號","OBJECTID":401575},"geometry":{"x":175023.95000000112,"y":2545652.0300000012}},{"attributes":{"ID":401600,"DIS_CODE":0,"TOWNNAME":"永康區","LI":"五王里","LIN":"26鄰","STREET":"五福街","SECT":" ","MAREA":" ","LANE":"８２巷","ALLEY":" ","HOUSE_NO":"１８號","E_COORD97":171493.03,"N_COORD97":2545907.75,"ADDRESS":"五福街８２巷１８號","OBJECTID":401576},"geometry":{"x":171493.03000000026,"y":2545907.7500000037}},{"attributes":{"ID":401601,"DIS_CODE":0,"TOWNNAME":"永康區","LI":"五王里","LIN":"39鄰","STREET":"中華路","SECT":" ","MAREA":" ","LANE":"５７８巷","ALLEY":" ","HOUSE_NO":"１７號之７８","E_COORD97":171333.72,"N_COORD97":2545989.54,"ADDRESS":"中華路５７８巷１７號之７８","OBJECTID":401577},"geometry":{"x":171333.71999999974,"y":2545989.5400000028}},{"attributes":{"ID":401602,"DIS_CODE":0,"TOWNNAME":"永康區","LI":"王行里","LIN":"6鄰","STREET":"育樂街","SECT":" ","MAREA":" ","LANE":"１８３巷","ALLEY":" ","HOUSE_NO":"１８號","E_COORD97":175040.73999999999,"N_COORD97":2548254.2400000002,"ADDRESS":"育樂街１８３巷１８號","OBJECTID":401578},"geometry":{"x":175040.74000000115,"y":2548254.2400000039}},{"attributes":{"ID":401603,"DIS_CODE":0,"TOWNNAME":"永康區","LI":"五王里","LIN":"37鄰","STREET":"中華路","SECT":" ","MAREA":" ","LANE":"５７８巷","ALLEY":" ","HOUSE_NO":"１５號之２２","E_COORD97":171276.07999999999,"N_COORD97":2545965.79,"ADDRESS":"中華路５７８巷１５號之２２","OBJECTID":401579},"geometry":{"x":171276.08000000194,"y":2545965.7899999991}},{"attributes":{"ID":401604,"DIS_CODE":0,"TOWNNAME":"永康區","LI":"五王里","LIN":"23鄰","STREET":"成功路","SECT":" ","MAREA":" ","LANE":"２４４巷","ALLEY":" ","HOUSE_NO":"１５號","E_COORD97":171368.23999999999,"N_COORD97":2545849.7599999998,"ADDRESS":"成功路２４４巷１５號","OBJECTID":401580},"geometry":{"x":171368.23999999929,"y":2545849.7600000035}},{"attributes":{"ID":401605,"DIS_CODE":0,"TOWNNAME":"永康區","LI":"五王里","LIN":"23鄰","STREET":"成功路","SECT":" ","MAREA":" ","LANE":"２４４巷","ALLEY":" ","HOUSE_NO":"３３號","E_COORD97":171400.23999999999,"N_COORD97":2545863.5099999998,"ADDRESS":"成功路２４４巷３３號","OBJECTID":401581},"geometry":{"x":171400.24000000022,"y":2545863.5099999998}},{"attributes":{"ID":401606,"DIS_CODE":0,"TOWNNAME":"永康區","LI":"中興里","LIN":"11鄰","STREET":"中興街","SECT":" ","MAREA":" ","LANE":"１１巷","ALLEY":" ","HOUSE_NO":"２０號","E_COORD97":172051.57000000001,"N_COORD97":2545111.5299999998,"ADDRESS":"中興街１１巷２０號","OBJECTID":401582},"geometry":{"x":172051.57000000123,"y":2545111.5300000031}},{"attributes":{"ID":401607,"DIS_CODE":0,"TOWNNAME":"永康區","LI":"北灣里","LIN":"11鄰","STREET":"大灣七街","SECT":" ","MAREA":" ","LANE":"４５巷","ALLEY":" ","HOUSE_NO":"２８號","E_COORD97":175025.54999999999,"N_COORD97":2545674.3300000001,"ADDRESS":"大灣七街４５巷２８號","OBJECTID":401583},"geometry":{"x":175025.54999999981,"y":2545674.3300000019}},{"attributes":{"ID":401608,"DIS_CODE":0,"TOWNNAME":"永康區","LI":"中興里","LIN":"11鄰","STREET":"中興街","SECT":" ","MAREA":" ","LANE":"１１巷","ALLEY":" ","HOUSE_NO":"１４號","E_COORD97":172045.85000000001,"N_COORD97":2545123.7400000002,"ADDRESS":"中興街１１巷１４號","OBJECTID":401584},"geometry":{"x":172045.85000000056,"y":2545123.7400000002}},{"attributes":{"ID":401609,"DIS_CODE":0,"TOWNNAME":"永康區","LI":"中興里","LIN":"11鄰","STREET":"中興街","SECT":" ","MAREA":" ","LANE":"１１巷","ALLEY":" ","HOUSE_NO":"２４號","E_COORD97":172051.44,"N_COORD97":2545102.54,"ADDRESS":"中興街１１巷２４號","OBJECTID":401585},"geometry":{"x":172051.44000000041,"y":2545102.540000001}},{"attributes":{"ID":401610,"DIS_CODE":0,"TOWNNAME":"永康區","LI":"中興里","LIN":"4鄰","STREET":"中華路","SECT":" ","MAREA":" ","LANE":"２１２巷","ALLEY":" ","HOUSE_NO":"５６號","E_COORD97":171829.54000000001,"N_COORD97":2545013.7599999998,"ADDRESS":"中華路２１２巷５６號","OBJECTID":401586},"geometry":{"x":171829.54000000097,"y":2545013.7600000016}},{"attributes":{"ID":401611,"DIS_CODE":0,"TOWNNAME":"永康區","LI":"中興里","LIN":"18鄰","STREET":"中華路","SECT":" ","MAREA":" ","LANE":"２８６巷","ALLEY":" ","HOUSE_NO":"７９號","E_COORD97":171721.76000000001,"N_COORD97":2545355.2400000002,"ADDRESS":"中華路２８６巷７９號","OBJECTID":401587},"geometry":{"x":171721.75999999978,"y":2545355.2400000039}},{"attributes":{"ID":401612,"DIS_CODE":0,"TOWNNAME":"永康區","LI":"五王里","LIN":"39鄰","STREET":"中華路","SECT":" ","MAREA":" ","LANE":"５７８巷","ALLEY":" ","HOUSE_NO":"１７號之８３","E_COORD97":171333.67000000001,"N_COORD97":2545989.54,"ADDRESS":"中華路５７８巷１７號之８３","OBJECTID":401588},"geometry":{"x":171333.67000000086,"y":2545989.5400000028}},{"attributes":{"ID":401613,"DIS_CODE":0,"TOWNNAME":"永康區","LI":"王行里","LIN":"7鄰","STREET":"王行路","SECT":" ","MAREA":" ","LANE":"３５１巷","ALLEY":" ","HOUSE_NO":"６９號","E_COORD97":175322.26999999999,"N_COORD97":2548709.75,"ADDRESS":"王行路３５１巷６９號","OBJECTID":401589},"geometry":{"x":175322.27000000142,"y":2548709.7500000019}},{"attributes":{"ID":401614,"DIS_CODE":0,"TOWNNAME":"永康區","LI":"中興里","LIN":"22鄰","STREET":"中華路","SECT":" ","MAREA":" ","LANE":"２１２巷","ALLEY":" ","HOUSE_NO":"２５號","E_COORD97":171766.25,"N_COORD97":2545021.5499999998,"ADDRESS":"中華路２１２巷２５號","OBJECTID":401590},"geometry":{"x":171766.25,"y":2545021.5500000045}},{"attributes":{"ID":401615,"DIS_CODE":0,"TOWNNAME":"永康區","LI":"中興里","LIN":"18鄰","STREET":"中華路","SECT":" ","MAREA":" ","LANE":"２８６巷","ALLEY":" ","HOUSE_NO":"８６號","E_COORD97":171746.32999999999,"N_COORD97":2545318.7400000002,"ADDRESS":"中華路２８６巷８６號","OBJECTID":401591},"geometry":{"x":171746.33000000101,"y":2545318.7400000021}},{"attributes":{"ID":401616,"DIS_CODE":0,"TOWNNAME":"永康區","LI":"五王里","LIN":"39鄰","STREET":"中華路","SECT":" ","MAREA":" ","LANE":"５７８巷","ALLEY":" ","HOUSE_NO":"１７號之１０４","E_COORD97":171334.84,"N_COORD97":2545989.54,"ADDRESS":"中華路５７８巷１７號之１０４","OBJECTID":401592},"geometry":{"x":171334.83999999985,"y":2545989.5400000028}},{"attributes":{"ID":401617,"DIS_CODE":0,"TOWNNAME":"永康區","LI":"中興里","LIN":"18鄰","STREET":"中華路","SECT":" ","MAREA":" ","LANE":"２８６巷","ALLEY":" ","HOUSE_NO":"８２號","E_COORD97":171736.39000000001,"N_COORD97":2545306,"ADDRESS":"中華路２８６巷８２號","OBJECTID":401593},"geometry":{"x":171736.39000000153,"y":2545306.0000000037}},{"attributes":{"ID":401618,"DIS_CODE":0,"TOWNNAME":"永康區","LI":"五王里","LIN":"39鄰","STREET":"中華路","SECT":" ","MAREA":" ","LANE":"５７８巷","ALLEY":" ","HOUSE_NO":"１７號之９７","E_COORD97":171333.64999999999,"N_COORD97":2545989.54,"ADDRESS":"中華路５７８巷１７號之９７","OBJECTID":401594},"geometry":{"x":171333.65000000224,"y":2545989.5400000028}},{"attributes":{"ID":401619,"DIS_CODE":0,"TOWNNAME":"永康區","LI":"五王里","LIN":"39鄰","STREET":"中華路","SECT":" ","MAREA":" ","LANE":"５７８巷","ALLEY":" ","HOUSE_NO":"１７號之１０７","E_COORD97":171334.89999999999,"N_COORD97":2545989.54,"ADDRESS":"中華路５７８巷１７號之１０７","OBJECTID":401595},"geometry":{"x":171334.90000000037,"y":2545989.5400000028}},{"attributes":{"ID":401620,"DIS_CODE":0,"TOWNNAME":"永康區","LI":"五王里","LIN":"37鄰","STREET":"中華路","SECT":" ","MAREA":" ","LANE":"５７８巷","ALLEY":" ","HOUSE_NO":"１５號之１８","E_COORD97":171276.10000000001,"N_COORD97":2545965.79,"ADDRESS":"中華路５７８巷１５號之１８","OBJECTID":401596},"geometry":{"x":171276.10000000056,"y":2545965.7899999991}},{"attributes":{"ID":401621,"DIS_CODE":0,"TOWNNAME":"永康區","LI":"王行里","LIN":"16鄰","STREET":"王行路","SECT":" ","MAREA":" ","LANE":"６８巷","ALLEY":" ","HOUSE_NO":"６號之２","E_COORD97":175725.66,"N_COORD97":2548034.27,"ADDRESS":"王行路６８巷６號之２","OBJECTID":401597},"geometry":{"x":175725.66000000108,"y":2548034.2700000014}},{"attributes":{"ID":401622,"DIS_CODE":0,"TOWNNAME":"東區","LI":"莊敬里","LIN":"11鄰","STREET":"中華東路","SECT":"一段","MAREA":" ","LANE":"１０巷","ALLEY":" ","HOUSE_NO":"１６號","E_COORD97":171469.48999999999,"N_COORD97":2544257.9500000002,"ADDRESS":"中華東路一段１０巷１６號","OBJECTID":401598},"geometry":{"x":171469.49000000022,"y":2544257.950000003}},{"attributes":{"ID":401623,"DIS_CODE":0,"TOWNNAME":"東區","LI":"莊敬里","LIN":"11鄰","STREET":"中華東路","SECT":"一段","MAREA":" ","LANE":"１０巷","ALLEY":" ","HOUSE_NO":"１８號","E_COORD97":171464.47,"N_COORD97":2544257.21,"ADDRESS":"中華東路一段１０巷１８號","OBJECTID":401599},"geometry":{"x":171464.46999999881,"y":2544257.2100000009}},{"attributes":{"ID":401624,"DIS_CODE":0,"TOWNNAME":"東區","LI":"莊敬里","LIN":"11鄰","STREET":"中華東路","SECT":"一段","MAREA":" ","LANE":"１０巷","ALLEY":" ","HOUSE_NO":"２０號","E_COORD97":171459.91,"N_COORD97":2544260.0899999999,"ADDRESS":"中華東路一段１０巷２０號","OBJECTID":401600},"geometry":{"x":171459.91000000015,"y":2544260.0899999999}}]}