{"displayFieldName":"TOWNNAME","fieldAliases":{"ID":"ID","DIS_CODE":"DIS_CODE","TOWNNAME":"TOWNNAME","LI":"LI","LIN":"LIN","STREET":"STREET","SECT":"SECT","MAREA":"MAREA","LANE":"LANE","ALLEY":"ALLEY","HOUSE_NO":"HOUSE_NO","E_COORD97":"E_COORD97","N_COORD97":"N_COORD97","ADDRESS":"ADDRESS","OBJECTID":"OBJECTID"},"geometryType":"esriGeometryPoint","spatialReference":{"wkid":102443,"latestWkid":3826},"fields":[{"name":"ID","type":"esriFieldTypeDouble","alias":"ID"},{"name":"DIS_CODE","type":"esriFieldTypeInteger","alias":"DIS_CODE"},{"name":"TOWNNAME","type":"esriFieldTypeString","alias":"TOWNNAME","length":8},{"name":"LI","type":"esriFieldTypeString","alias":"LI","length":8},{"name":"LIN","type":"esriFieldTypeString","alias":"LIN","length":12},{"name":"STREET","type":"esriFieldTypeString","alias":"STREET","length":20},{"name":"SECT","type":"esriFieldTypeString","alias":"SECT","length":8},{"name":"MAREA","type":"esriFieldTypeString","alias":"MAREA","length":12},{"name":"LANE","type":"esriFieldTypeString","alias":"LANE","length":10},{"name":"ALLEY","type":"esriFieldTypeString","alias":"ALLEY","length":10},{"name":"HOUSE_NO","type":"esriFieldTypeString","alias":"HOUSE_NO","length":20},{"name":"E_COORD97","type":"esriFieldTypeDouble","alias":"E_COORD97"},{"name":"N_COORD97","type":"esriFieldTypeDouble","alias":"N_COORD97"},{"name":"ADDRESS","type":"esriFieldTypeString","alias":"ADDRESS","length":50},{"name":"OBJECTID","type":"esriFieldTypeOID","alias":"OBJECTID"}],"features":[{"attributes":{"ID":16601,"DIS_CODE":0,"TOWNNAME":"永康區","LI":"西灣里","LIN":"40鄰","STREET":"永華路","SECT":" ","MAREA":" ","LANE":" ","ALLEY":" ","HOUSE_NO":"７６號","E_COORD97":174107.23999999999,"N_COORD97":2545362.5499999998,"ADDRESS":"永華路７６號","OBJECTID":16601},"geometry":{"x":174107.24000000022,"y":2545362.5500000007}},{"attributes":{"ID":16602,"DIS_CODE":0,"TOWNNAME":"永康區","LI":"西灣里","LIN":"40鄰","STREET":"國光六街","SECT":" ","MAREA":" ","LANE":" ","ALLEY":" ","HOUSE_NO":"６２號","E_COORD97":174150.60999999999,"N_COORD97":2545311.9199999999,"ADDRESS":"國光六街６２號","OBJECTID":16602},"geometry":{"x":174150.61000000034,"y":2545311.9199999999}},{"attributes":{"ID":16603,"DIS_CODE":0,"TOWNNAME":"永康區","LI":"永康里","LIN":"40鄰","STREET":"永大二路","SECT":" ","MAREA":" ","LANE":" ","ALLEY":" ","HOUSE_NO":"５２號","E_COORD97":174251.20999999999,"N_COORD97":2546565.04,"ADDRESS":"永大二路５２號","OBJECTID":16603},"geometry":{"x":174251.20999999996,"y":2546565.0399999991}},{"attributes":{"ID":16604,"DIS_CODE":0,"TOWNNAME":"永康區","LI":"永康里","LIN":"40鄰","STREET":"永大二路","SECT":" ","MAREA":" ","LANE":" ","ALLEY":" ","HOUSE_NO":"５６號","E_COORD97":174241.14999999999,"N_COORD97":2546562.29,"ADDRESS":"永大二路５６號","OBJECTID":16604},"geometry":{"x":174241.1500000013,"y":2546562.290000001}},{"attributes":{"ID":16605,"DIS_CODE":0,"TOWNNAME":"安南區","LI":"安順里","LIN":"24鄰","STREET":"北安路","SECT":"三段","MAREA":" ","LANE":"７５２巷","ALLEY":"２２弄","HOUSE_NO":"８７號","E_COORD97":169517.79000000001,"N_COORD97":2550307.4199999999,"ADDRESS":"北安路三段７５２巷２２弄８７號","OBJECTID":16605},"geometry":{"x":169517.79000000004,"y":2550307.4200000018}},{"attributes":{"ID":16606,"DIS_CODE":0,"TOWNNAME":"佳里區","LI":"興化里","LIN":"14鄰","STREET":" ","SECT":" ","MAREA":"佳里興","LANE":" ","ALLEY":" ","HOUSE_NO":"５４５號之４１","E_COORD97":166712.44,"N_COORD97":2565343.0600000001,"ADDRESS":"佳里興５４５號之４１","OBJECTID":16606},"geometry":{"x":166712.44000000134,"y":2565343.0600000042}},{"attributes":{"ID":16607,"DIS_CODE":0,"TOWNNAME":"安南區","LI":"安順里","LIN":"24鄰","STREET":"北安路","SECT":"三段","MAREA":" ","LANE":"７５２巷","ALLEY":"２２弄","HOUSE_NO":"８９號","E_COORD97":169517.63,"N_COORD97":2550303.9300000002,"ADDRESS":"北安路三段７５２巷２２弄８９號","OBJECTID":16607},"geometry":{"x":169517.63000000175,"y":2550303.9300000016}},{"attributes":{"ID":16608,"DIS_CODE":0,"TOWNNAME":"安南區","LI":"安順里","LIN":"24鄰","STREET":"北安路","SECT":"三段","MAREA":" ","LANE":"７５２巷","ALLEY":"２２弄","HOUSE_NO":"２５號","E_COORD97":169531.60000000001,"N_COORD97":2550502.4500000002,"ADDRESS":"北安路三段７５２巷２２弄２５號","OBJECTID":16608},"geometry":{"x":169531.60000000056,"y":2550502.4499999993}},{"attributes":{"ID":16609,"DIS_CODE":0,"TOWNNAME":"佳里區","LI":"興化里","LIN":"14鄰","STREET":" ","SECT":" ","MAREA":"佳里興","LANE":" ","ALLEY":" ","HOUSE_NO":"５４５號之４２","E_COORD97":166708.03,"N_COORD97":2565346.3799999999,"ADDRESS":"佳里興５４５號之４２","OBJECTID":16609},"geometry":{"x":166708.03000000212,"y":2565346.3800000008}},{"attributes":{"ID":16610,"DIS_CODE":0,"TOWNNAME":"佳里區","LI":"興化里","LIN":"14鄰","STREET":" ","SECT":" ","MAREA":"佳里興","LANE":" ","ALLEY":" ","HOUSE_NO":"５４５號之４４","E_COORD97":166693.04999999999,"N_COORD97":2565329.4900000002,"ADDRESS":"佳里興５４５號之４４","OBJECTID":16610},"geometry":{"x":166693.04999999981,"y":2565329.4899999984}},{"attributes":{"ID":16611,"DIS_CODE":0,"TOWNNAME":"佳里區","LI":"興化里","LIN":"14鄰","STREET":" ","SECT":" ","MAREA":"佳里興","LANE":" ","ALLEY":" ","HOUSE_NO":"５４５號之４５","E_COORD97":166698.73000000001,"N_COORD97":2565327.7999999998,"ADDRESS":"佳里興５４５號之４５","OBJECTID":16611},"geometry":{"x":166698.73000000138,"y":2565327.8000000007}},{"attributes":{"ID":16612,"DIS_CODE":0,"TOWNNAME":"佳里區","LI":"興化里","LIN":"14鄰","STREET":" ","SECT":" ","MAREA":"佳里興","LANE":" ","ALLEY":" ","HOUSE_NO":"５４５號之４６","E_COORD97":166704.39999999999,"N_COORD97":2565326.0499999998,"ADDRESS":"佳里興５４５號之４６","OBJECTID":16612},"geometry":{"x":166704.4000000013,"y":2565326.0500000007}},{"attributes":{"ID":16613,"DIS_CODE":0,"TOWNNAME":"佳里區","LI":"興化里","LIN":"14鄰","STREET":" ","SECT":" ","MAREA":"佳里興","LANE":" ","ALLEY":" ","HOUSE_NO":"５４５號之４７","E_COORD97":166710.38,"N_COORD97":2565325.6899999999,"ADDRESS":"佳里興５４５號之４７","OBJECTID":16613},"geometry":{"x":166710.38000000175,"y":2565325.6900000013}},{"attributes":{"ID":16614,"DIS_CODE":0,"TOWNNAME":"佳里區","LI":"興化里","LIN":"14鄰","STREET":" ","SECT":" ","MAREA":"佳里興","LANE":" ","ALLEY":" ","HOUSE_NO":"５４５號之４８","E_COORD97":166715.92999999999,"N_COORD97":2565324.0600000001,"ADDRESS":"佳里興５４５號之４８","OBJECTID":16614},"geometry":{"x":166715.9299999997,"y":2565324.0600000024}},{"attributes":{"ID":16615,"DIS_CODE":0,"TOWNNAME":"佳里區","LI":"興化里","LIN":"14鄰","STREET":" ","SECT":" ","MAREA":"佳里興","LANE":" ","ALLEY":" ","HOUSE_NO":"５４５號之４９","E_COORD97":166721.10999999999,"N_COORD97":2565322.4300000002,"ADDRESS":"佳里興５４５號之４９","OBJECTID":16615},"geometry":{"x":166721.1100000022,"y":2565322.4299999997}},{"attributes":{"ID":16616,"DIS_CODE":0,"TOWNNAME":"佳里區","LI":"興化里","LIN":"14鄰","STREET":" ","SECT":" ","MAREA":"佳里興","LANE":" ","ALLEY":" ","HOUSE_NO":"５４５號之５０","E_COORD97":166726.06,"N_COORD97":2565321.1200000001,"ADDRESS":"佳里興５４５號之５０","OBJECTID":16616},"geometry":{"x":166726.06000000052,"y":2565321.1200000029}},{"attributes":{"ID":16617,"DIS_CODE":0,"TOWNNAME":"佳里區","LI":"興化里","LIN":"14鄰","STREET":" ","SECT":" ","MAREA":"佳里興","LANE":" ","ALLEY":" ","HOUSE_NO":"５４５號之５１","E_COORD97":166665.39000000001,"N_COORD97":2565170,"ADDRESS":"佳里興５４５號之５１","OBJECTID":16617},"geometry":{"x":166665.38999999966,"y":2565170.0000000037}},{"attributes":{"ID":16618,"DIS_CODE":0,"TOWNNAME":"佳里區","LI":"興化里","LIN":"14鄰","STREET":" ","SECT":" ","MAREA":"佳里興","LANE":" ","ALLEY":" ","HOUSE_NO":"５４９號","E_COORD97":166631.39999999999,"N_COORD97":2565339.3399999999,"ADDRESS":"佳里興５４９號","OBJECTID":16618},"geometry":{"x":166631.4000000013,"y":2565339.3399999999}},{"attributes":{"ID":16619,"DIS_CODE":0,"TOWNNAME":"安南區","LI":"安順里","LIN":"24鄰","STREET":"北安路","SECT":"三段","MAREA":" ","LANE":"７５２巷","ALLEY":"２２弄","HOUSE_NO":"２７號","E_COORD97":169531.13,"N_COORD97":2550492.9199999999,"ADDRESS":"北安路三段７５２巷２２弄２７號","OBJECTID":16619},"geometry":{"x":169531.13000000175,"y":2550492.9199999999}},{"attributes":{"ID":16620,"DIS_CODE":0,"TOWNNAME":"佳里區","LI":"興化里","LIN":"14鄰","STREET":" ","SECT":" ","MAREA":"佳里興","LANE":" ","ALLEY":" ","HOUSE_NO":"５５０號之１","E_COORD97":166648.32000000001,"N_COORD97":2565349.5099999998,"ADDRESS":"佳里興５５０號之１","OBJECTID":16620},"geometry":{"x":166648.3200000003,"y":2565349.5100000035}},{"attributes":{"ID":16621,"DIS_CODE":0,"TOWNNAME":"安南區","LI":"安順里","LIN":"24鄰","STREET":"北安路","SECT":"三段","MAREA":" ","LANE":"７５２巷","ALLEY":"２２弄","HOUSE_NO":"２９號","E_COORD97":169530.64999999999,"N_COORD97":2550483.0800000001,"ADDRESS":"北安路三段７５２巷２２弄２９號","OBJECTID":16621},"geometry":{"x":169530.6500000013,"y":2550483.0800000019}},{"attributes":{"ID":16622,"DIS_CODE":0,"TOWNNAME":"安南區","LI":"安順里","LIN":"24鄰","STREET":"北安路","SECT":"三段","MAREA":" ","LANE":"７５２巷","ALLEY":"２２弄","HOUSE_NO":"３１號","E_COORD97":169530.81,"N_COORD97":2550474.0299999998,"ADDRESS":"北安路三段７５２巷２２弄３１號","OBJECTID":16622},"geometry":{"x":169530.80999999959,"y":2550474.0299999993}},{"attributes":{"ID":16623,"DIS_CODE":0,"TOWNNAME":"佳里區","LI":"興化里","LIN":"14鄰","STREET":" ","SECT":" ","MAREA":"佳里興","LANE":" ","ALLEY":" ","HOUSE_NO":"５５０號","E_COORD97":166643,"N_COORD97":2565349.8199999998,"ADDRESS":"佳里興５５０號","OBJECTID":16623},"geometry":{"x":166643,"y":2565349.8200000003}},{"attributes":{"ID":16624,"DIS_CODE":0,"TOWNNAME":"下營區","LI":"賀建里","LIN":"14鄰","STREET":" ","SECT":" ","MAREA":"洲子","LANE":" ","ALLEY":" ","HOUSE_NO":"３０號之８","E_COORD97":177476.13,"N_COORD97":2571946.5299999998,"ADDRESS":"洲子３０號之８","OBJECTID":16624},"geometry":{"x":177476.12999999989,"y":2571946.5300000031}},{"attributes":{"ID":16625,"DIS_CODE":0,"TOWNNAME":"安南區","LI":"安順里","LIN":"24鄰","STREET":"北安路","SECT":"三段","MAREA":" ","LANE":"７５２巷","ALLEY":"２２弄","HOUSE_NO":"３７號","E_COORD97":169528.26999999999,"N_COORD97":2550437.8300000001,"ADDRESS":"北安路三段７５２巷２２弄３７號","OBJECTID":16625},"geometry":{"x":169528.27000000142,"y":2550437.8300000019}},{"attributes":{"ID":16626,"DIS_CODE":0,"TOWNNAME":"安南區","LI":"安順里","LIN":"24鄰","STREET":"北安路","SECT":"三段","MAREA":" ","LANE":"７５２巷","ALLEY":"２２弄","HOUSE_NO":"３９號","E_COORD97":169527.32000000001,"N_COORD97":2550428.3100000001,"ADDRESS":"北安路三段７５２巷２２弄３９號","OBJECTID":16626},"geometry":{"x":169527.32000000123,"y":2550428.3100000024}},{"attributes":{"ID":16627,"DIS_CODE":0,"TOWNNAME":"安南區","LI":"安順里","LIN":"24鄰","STREET":"北安路","SECT":"三段","MAREA":" ","LANE":"７５２巷","ALLEY":"２２弄","HOUSE_NO":"４１號","E_COORD97":169526.84,"N_COORD97":2550422.2799999998,"ADDRESS":"北安路三段７５２巷２２弄４１號","OBJECTID":16627},"geometry":{"x":169526.84000000078,"y":2550422.2799999993}},{"attributes":{"ID":16628,"DIS_CODE":0,"TOWNNAME":"安南區","LI":"安順里","LIN":"24鄰","STREET":"北安路","SECT":"三段","MAREA":" ","LANE":"７５２巷","ALLEY":"２２弄","HOUSE_NO":"４９號","E_COORD97":169524.78,"N_COORD97":2550405.6099999999,"ADDRESS":"北安路三段７５２巷２２弄４９號","OBJECTID":16628},"geometry":{"x":169524.78000000026,"y":2550405.6099999994}},{"attributes":{"ID":16629,"DIS_CODE":0,"TOWNNAME":"安南區","LI":"安順里","LIN":"24鄰","STREET":"北安路","SECT":"三段","MAREA":" ","LANE":"７５２巷","ALLEY":"２２弄","HOUSE_NO":"４３號","E_COORD97":169526.20000000001,"N_COORD97":2550417.3599999999,"ADDRESS":"北安路三段７５２巷２２弄４３號","OBJECTID":16629},"geometry":{"x":169526.20000000112,"y":2550417.3599999994}},{"attributes":{"ID":16630,"DIS_CODE":0,"TOWNNAME":"永康區","LI":"北灣里","LIN":"40鄰","STREET":"永大路","SECT":"二段","MAREA":" ","LANE":" ","ALLEY":" ","HOUSE_NO":"８２６號","E_COORD97":174549.25,"N_COORD97":2546047.98,"ADDRESS":"永大路二段８２６號","OBJECTID":16630},"geometry":{"x":174549.25,"y":2546047.9800000004}},{"attributes":{"ID":16631,"DIS_CODE":0,"TOWNNAME":"永康區","LI":"永康里","LIN":"40鄰","STREET":"永大二路","SECT":" ","MAREA":" ","LANE":" ","ALLEY":" ","HOUSE_NO":"５０號五樓之２","E_COORD97":174243.48999999999,"N_COORD97":2546574.3399999999,"ADDRESS":"永大二路５０號五樓之２","OBJECTID":16631},"geometry":{"x":174243.49000000209,"y":2546574.3399999999}},{"attributes":{"ID":16632,"DIS_CODE":0,"TOWNNAME":"永康區","LI":"永康里","LIN":"40鄰","STREET":"永大二路","SECT":" ","MAREA":" ","LANE":" ","ALLEY":" ","HOUSE_NO":"５０號九樓之２","E_COORD97":174243.48999999999,"N_COORD97":2546574.3399999999,"ADDRESS":"永大二路５０號九樓之２","OBJECTID":16632},"geometry":{"x":174243.49000000209,"y":2546574.3399999999}},{"attributes":{"ID":16633,"DIS_CODE":0,"TOWNNAME":"永康區","LI":"永康里","LIN":"40鄰","STREET":"永大二路","SECT":" ","MAREA":" ","LANE":" ","ALLEY":" ","HOUSE_NO":"４６號一樓","E_COORD97":174253.29999999999,"N_COORD97":2546582.0499999998,"ADDRESS":"永大二路４６號一樓","OBJECTID":16633},"geometry":{"x":174253.30000000075,"y":2546582.0500000026}},{"attributes":{"ID":16634,"DIS_CODE":0,"TOWNNAME":"永康區","LI":"永康里","LIN":"40鄰","STREET":"永大二路","SECT":" ","MAREA":" ","LANE":" ","ALLEY":" ","HOUSE_NO":"４６號四樓之１","E_COORD97":174255.44,"N_COORD97":2546582.0899999999,"ADDRESS":"永大二路４６號四樓之１","OBJECTID":16634},"geometry":{"x":174255.44000000041,"y":2546582.0899999999}},{"attributes":{"ID":16635,"DIS_CODE":0,"TOWNNAME":"永康區","LI":"永康里","LIN":"40鄰","STREET":"永大二路","SECT":" ","MAREA":" ","LANE":" ","ALLEY":" ","HOUSE_NO":"４６號四樓之２","E_COORD97":174255.57000000001,"N_COORD97":2546582.0899999999,"ADDRESS":"永大二路４６號四樓之２","OBJECTID":16635},"geometry":{"x":174255.57000000123,"y":2546582.0899999999}},{"attributes":{"ID":16636,"DIS_CODE":0,"TOWNNAME":"東區","LI":"裕聖里","LIN":"20鄰","STREET":"裕忠路","SECT":" ","MAREA":" ","LANE":" ","ALLEY":" ","HOUSE_NO":"２９７之１５號","E_COORD97":172335.17000000001,"N_COORD97":2542362.3100000001,"ADDRESS":"裕忠路２９７之１５號","OBJECTID":16636},"geometry":{"x":172335.17000000086,"y":2542362.3100000024}},{"attributes":{"ID":16637,"DIS_CODE":0,"TOWNNAME":"東區","LI":"裕聖里","LIN":"20鄰","STREET":"裕忠路","SECT":" ","MAREA":" ","LANE":" ","ALLEY":" ","HOUSE_NO":"２９７之１６號","E_COORD97":172335.59,"N_COORD97":2542366.6800000002,"ADDRESS":"裕忠路２９７之１６號","OBJECTID":16637},"geometry":{"x":172335.59000000078,"y":2542366.6799999997}},{"attributes":{"ID":16638,"DIS_CODE":0,"TOWNNAME":"東區","LI":"裕聖里","LIN":"20鄰","STREET":"裕忠路","SECT":" ","MAREA":" ","LANE":" ","ALLEY":" ","HOUSE_NO":"２９７之１７號","E_COORD97":172335.31,"N_COORD97":2542371.4700000002,"ADDRESS":"裕忠路２９７之１７號","OBJECTID":16638},"geometry":{"x":172335.31000000052,"y":2542371.4700000025}},{"attributes":{"ID":16639,"DIS_CODE":0,"TOWNNAME":"東區","LI":"裕聖里","LIN":"20鄰","STREET":"裕忠路","SECT":" ","MAREA":" ","LANE":" ","ALLEY":" ","HOUSE_NO":"２９７之１８號","E_COORD97":172335.31,"N_COORD97":2542374.8599999999,"ADDRESS":"裕忠路２９７之１８號","OBJECTID":16639},"geometry":{"x":172335.31000000052,"y":2542374.8600000013}},{"attributes":{"ID":16640,"DIS_CODE":0,"TOWNNAME":"東區","LI":"裕聖里","LIN":"20鄰","STREET":"裕忠路","SECT":" ","MAREA":" ","LANE":" ","ALLEY":" ","HOUSE_NO":"２９９之２０號","E_COORD97":172349.69,"N_COORD97":2542375,"ADDRESS":"裕忠路２９９之２０號","OBJECTID":16640},"geometry":{"x":172349.69000000041,"y":2542375}},{"attributes":{"ID":16641,"DIS_CODE":0,"TOWNNAME":"東區","LI":"裕聖里","LIN":"20鄰","STREET":"裕忠路","SECT":" ","MAREA":" ","LANE":" ","ALLEY":" ","HOUSE_NO":"２９９之１９號","E_COORD97":172349.39999999999,"N_COORD97":2542371.0499999998,"ADDRESS":"裕忠路２９９之１９號","OBJECTID":16641},"geometry":{"x":172349.4000000013,"y":2542371.0500000026}},{"attributes":{"ID":16642,"DIS_CODE":0,"TOWNNAME":"東區","LI":"裕聖里","LIN":"20鄰","STREET":"裕忠路","SECT":" ","MAREA":" ","LANE":" ","ALLEY":" ","HOUSE_NO":"２９９之１８號","E_COORD97":172349.97,"N_COORD97":2542366.54,"ADDRESS":"裕忠路２９９之１８號","OBJECTID":16642},"geometry":{"x":172349.97000000067,"y":2542366.540000001}},{"attributes":{"ID":16643,"DIS_CODE":0,"TOWNNAME":"安南區","LI":"安順里","LIN":"24鄰","STREET":"北安路","SECT":"三段","MAREA":" ","LANE":"７５２巷","ALLEY":"２２弄","HOUSE_NO":"４５號","E_COORD97":169525.89000000001,"N_COORD97":2550413.8599999999,"ADDRESS":"北安路三段７５２巷２２弄４５號","OBJECTID":16643},"geometry":{"x":169525.89000000153,"y":2550413.8599999994}},{"attributes":{"ID":16644,"DIS_CODE":0,"TOWNNAME":"東區","LI":"裕聖里","LIN":"20鄰","STREET":"裕忠路","SECT":" ","MAREA":" ","LANE":" ","ALLEY":" ","HOUSE_NO":"２９９之１７號","E_COORD97":172349.69,"N_COORD97":2542362.3100000001,"ADDRESS":"裕忠路２９９之１７號","OBJECTID":16644},"geometry":{"x":172349.69000000041,"y":2542362.3100000024}},{"attributes":{"ID":16645,"DIS_CODE":0,"TOWNNAME":"安南區","LI":"安順里","LIN":"24鄰","STREET":"北安路","SECT":"三段","MAREA":" ","LANE":"７５２巷","ALLEY":"２２弄","HOUSE_NO":"４７號","E_COORD97":169525.41,"N_COORD97":2550409.7400000002,"ADDRESS":"北安路三段７５２巷２２弄４７號","OBJECTID":16645},"geometry":{"x":169525.41000000015,"y":2550409.7400000002}},{"attributes":{"ID":16646,"DIS_CODE":0,"TOWNNAME":"安南區","LI":"安順里","LIN":"24鄰","STREET":"北安路","SECT":"三段","MAREA":" ","LANE":"７５２巷","ALLEY":"２２弄","HOUSE_NO":"５３號","E_COORD97":169523.82000000001,"N_COORD97":2550391.79,"ADDRESS":"北安路三段７５２巷２２弄５３號","OBJECTID":16646},"geometry":{"x":169523.82000000123,"y":2550391.7900000028}},{"attributes":{"ID":16647,"DIS_CODE":0,"TOWNNAME":"安南區","LI":"安順里","LIN":"24鄰","STREET":"北安路","SECT":"三段","MAREA":" ","LANE":"７５２巷","ALLEY":"２２弄","HOUSE_NO":"５６號","E_COORD97":169511.76000000001,"N_COORD97":2550441.1699999999,"ADDRESS":"北安路三段７５２巷２２弄５６號","OBJECTID":16647},"geometry":{"x":169511.76000000071,"y":2550441.1700000037}},{"attributes":{"ID":16648,"DIS_CODE":0,"TOWNNAME":"安南區","LI":"安順里","LIN":"24鄰","STREET":"北安路","SECT":"三段","MAREA":" ","LANE":"７５２巷","ALLEY":"２２弄","HOUSE_NO":"５８號","E_COORD97":169511.28,"N_COORD97":2550436.7200000002,"ADDRESS":"北安路三段７５２巷２２弄５８號","OBJECTID":16648},"geometry":{"x":169511.28000000026,"y":2550436.7200000007}},{"attributes":{"ID":16649,"DIS_CODE":0,"TOWNNAME":"安南區","LI":"安順里","LIN":"24鄰","STREET":"北安路","SECT":"三段","MAREA":" ","LANE":"７５２巷","ALLEY":"２２弄","HOUSE_NO":"６０號","E_COORD97":169511.12,"N_COORD97":2550431.7999999998,"ADDRESS":"北安路三段７５２巷２２弄６０號","OBJECTID":16649},"geometry":{"x":169511.12000000197,"y":2550431.8000000026}},{"attributes":{"ID":16650,"DIS_CODE":0,"TOWNNAME":"安南區","LI":"安順里","LIN":"24鄰","STREET":"北安路","SECT":"三段","MAREA":" ","LANE":"７５２巷","ALLEY":"２２弄","HOUSE_NO":"６２號","E_COORD97":169511.28,"N_COORD97":2550426.8799999999,"ADDRESS":"北安路三段７５２巷２２弄６２號","OBJECTID":16650},"geometry":{"x":169511.28000000026,"y":2550426.879999999}},{"attributes":{"ID":16651,"DIS_CODE":0,"TOWNNAME":"安南區","LI":"安順里","LIN":"24鄰","STREET":"北安路","SECT":"三段","MAREA":" ","LANE":"７５２巷","ALLEY":"１８弄","HOUSE_NO":"３０號","E_COORD97":169459.53,"N_COORD97":2550533.3999999999,"ADDRESS":"北安路三段７５２巷１８弄３０號","OBJECTID":16651},"geometry":{"x":169459.53000000119,"y":2550533.4000000004}},{"attributes":{"ID":16652,"DIS_CODE":0,"TOWNNAME":"安南區","LI":"安順里","LIN":"24鄰","STREET":"北安路","SECT":"三段","MAREA":" ","LANE":"７５２巷","ALLEY":"１８弄","HOUSE_NO":"３２號","E_COORD97":169459.53,"N_COORD97":2550527.6899999999,"ADDRESS":"北安路三段７５２巷１８弄３２號","OBJECTID":16652},"geometry":{"x":169459.53000000119,"y":2550527.6899999995}},{"attributes":{"ID":16653,"DIS_CODE":0,"TOWNNAME":"安南區","LI":"安順里","LIN":"24鄰","STREET":"北安路","SECT":"三段","MAREA":" ","LANE":"７５２巷","ALLEY":"１８弄","HOUSE_NO":"３６號","E_COORD97":169459.37,"N_COORD97":2550522.1299999999,"ADDRESS":"北安路三段７５２巷１８弄３６號","OBJECTID":16653},"geometry":{"x":169459.37000000104,"y":2550522.1300000008}},{"attributes":{"ID":16654,"DIS_CODE":0,"TOWNNAME":"安南區","LI":"安順里","LIN":"24鄰","STREET":"北安路","SECT":"三段","MAREA":" ","LANE":"７５２巷","ALLEY":"１８弄","HOUSE_NO":"３８號","E_COORD97":169459.20999999999,"N_COORD97":2550516.5800000001,"ADDRESS":"北安路三段７５２巷１８弄３８號","OBJECTID":16654},"geometry":{"x":169459.20999999996,"y":2550516.5800000038}},{"attributes":{"ID":16655,"DIS_CODE":0,"TOWNNAME":"安南區","LI":"安順里","LIN":"24鄰","STREET":"北安路","SECT":"三段","MAREA":" ","LANE":"７５２巷","ALLEY":"１８弄","HOUSE_NO":"４０號","E_COORD97":169458.89000000001,"N_COORD97":2550511.1800000002,"ADDRESS":"北安路三段７５２巷１８弄４０號","OBJECTID":16655},"geometry":{"x":169458.88999999966,"y":2550511.1799999997}},{"attributes":{"ID":16656,"DIS_CODE":0,"TOWNNAME":"安南區","LI":"安順里","LIN":"24鄰","STREET":"北安路","SECT":"三段","MAREA":" ","LANE":"７５２巷","ALLEY":"１８弄","HOUSE_NO":"４２號","E_COORD97":169458.42000000001,"N_COORD97":2550505.2999999998,"ADDRESS":"北安路三段７５２巷１８弄４２號","OBJECTID":16656},"geometry":{"x":169458.42000000086,"y":2550505.3000000045}},{"attributes":{"ID":16657,"DIS_CODE":0,"TOWNNAME":"安南區","LI":"安順里","LIN":"24鄰","STREET":"北安路","SECT":"三段","MAREA":" ","LANE":"７５２巷","ALLEY":"１８弄","HOUSE_NO":"４６號","E_COORD97":169457.94,"N_COORD97":2550499.4300000002,"ADDRESS":"北安路三段７５２巷１８弄４６號","OBJECTID":16657},"geometry":{"x":169457.94000000041,"y":2550499.4299999997}},{"attributes":{"ID":16658,"DIS_CODE":0,"TOWNNAME":"安南區","LI":"安順里","LIN":"24鄰","STREET":"北安路","SECT":"三段","MAREA":" ","LANE":"７５２巷","ALLEY":"１８弄","HOUSE_NO":"４８號","E_COORD97":169457.94,"N_COORD97":2550493.8700000001,"ADDRESS":"北安路三段７５２巷１８弄４８號","OBJECTID":16658},"geometry":{"x":169457.94000000041,"y":2550493.870000001}},{"attributes":{"ID":16659,"DIS_CODE":0,"TOWNNAME":"安南區","LI":"安順里","LIN":"24鄰","STREET":"北安路","SECT":"三段","MAREA":" ","LANE":"７５２巷","ALLEY":"１８弄","HOUSE_NO":"５０號","E_COORD97":169457.62,"N_COORD97":2550488.48,"ADDRESS":"北安路三段７５２巷１８弄５０號","OBJECTID":16659},"geometry":{"x":169457.62000000104,"y":2550488.4800000023}},{"attributes":{"ID":16660,"DIS_CODE":0,"TOWNNAME":"安南區","LI":"安順里","LIN":"24鄰","STREET":"北安路","SECT":"三段","MAREA":" ","LANE":"７５２巷","ALLEY":"１８弄","HOUSE_NO":"５２號","E_COORD97":169457.31,"N_COORD97":2550482.9199999999,"ADDRESS":"北安路三段７５２巷１８弄５２號","OBJECTID":16660},"geometry":{"x":169457.31000000052,"y":2550482.9199999999}},{"attributes":{"ID":16661,"DIS_CODE":0,"TOWNNAME":"安南區","LI":"安順里","LIN":"24鄰","STREET":"北安路","SECT":"三段","MAREA":" ","LANE":"７５２巷","ALLEY":"１８弄","HOUSE_NO":"５６號","E_COORD97":169457.62,"N_COORD97":2550477.3599999999,"ADDRESS":"北安路三段７５２巷１８弄５６號","OBJECTID":16661},"geometry":{"x":169457.62000000104,"y":2550477.3600000013}},{"attributes":{"ID":16662,"DIS_CODE":0,"TOWNNAME":"安南區","LI":"安順里","LIN":"24鄰","STREET":"北安路","SECT":"三段","MAREA":" ","LANE":"７５２巷","ALLEY":"１８弄","HOUSE_NO":"５８號","E_COORD97":169457.31,"N_COORD97":2550471.8100000001,"ADDRESS":"北安路三段７５２巷１８弄５８號","OBJECTID":16662},"geometry":{"x":169457.31000000052,"y":2550471.8100000024}},{"attributes":{"ID":16663,"DIS_CODE":0,"TOWNNAME":"東區","LI":"裕聖里","LIN":"20鄰","STREET":"裕忠路","SECT":" ","MAREA":" ","LANE":" ","ALLEY":" ","HOUSE_NO":"２９９之１６號","E_COORD97":172349.54999999999,"N_COORD97":2542357.52,"ADDRESS":"裕忠路２９９之１６號","OBJECTID":16663},"geometry":{"x":172349.55000000075,"y":2542357.5199999996}},{"attributes":{"ID":16664,"DIS_CODE":0,"TOWNNAME":"安南區","LI":"安順里","LIN":"24鄰","STREET":"北安路","SECT":"三段","MAREA":" ","LANE":"７５２巷","ALLEY":"１８弄","HOUSE_NO":"１９號","E_COORD97":169474.13,"N_COORD97":2550532.77,"ADDRESS":"北安路三段７５２巷１８弄１９號","OBJECTID":16664},"geometry":{"x":169474.13000000082,"y":2550532.7700000014}},{"attributes":{"ID":16665,"DIS_CODE":0,"TOWNNAME":"安南區","LI":"安順里","LIN":"24鄰","STREET":"北安路","SECT":"三段","MAREA":" ","LANE":"７５２巷","ALLEY":"１８弄","HOUSE_NO":"２１號","E_COORD97":169473.98000000001,"N_COORD97":2550527.5299999998,"ADDRESS":"北安路三段７５２巷１８弄２１號","OBJECTID":16665},"geometry":{"x":169473.98000000138,"y":2550527.5300000012}},{"attributes":{"ID":16666,"DIS_CODE":0,"TOWNNAME":"安南區","LI":"安順里","LIN":"24鄰","STREET":"北安路","SECT":"三段","MAREA":" ","LANE":"７５２巷","ALLEY":"１８弄","HOUSE_NO":"２３號","E_COORD97":169473.5,"N_COORD97":2550521.9700000002,"ADDRESS":"北安路三段７５２巷１８弄２３號","OBJECTID":16666},"geometry":{"x":169473.50000000093,"y":2550521.9700000025}},{"attributes":{"ID":16667,"DIS_CODE":0,"TOWNNAME":"安南區","LI":"安順里","LIN":"24鄰","STREET":"北安路","SECT":"三段","MAREA":" ","LANE":"７５２巷","ALLEY":"１８弄","HOUSE_NO":"２５號","E_COORD97":169473.01999999999,"N_COORD97":2550516.1000000001,"ADDRESS":"北安路三段７５２巷１８弄２５號","OBJECTID":16667},"geometry":{"x":169473.02000000048,"y":2550516.1000000015}},{"attributes":{"ID":16668,"DIS_CODE":0,"TOWNNAME":"安南區","LI":"安順里","LIN":"24鄰","STREET":"北安路","SECT":"三段","MAREA":" ","LANE":"７５２巷","ALLEY":"１８弄","HOUSE_NO":"７號","E_COORD97":169475.72,"N_COORD97":2550558.7999999998,"ADDRESS":"北安路三段７５２巷１８弄７號","OBJECTID":16668},"geometry":{"x":169475.71999999974,"y":2550558.8000000007}},{"attributes":{"ID":16669,"DIS_CODE":0,"TOWNNAME":"安南區","LI":"安順里","LIN":"24鄰","STREET":"北安路","SECT":"三段","MAREA":" ","LANE":"７５２巷","ALLEY":"１８弄","HOUSE_NO":"９號","E_COORD97":169475.39999999999,"N_COORD97":2550554.8300000001,"ADDRESS":"北安路三段７５２巷１８弄９號","OBJECTID":16669},"geometry":{"x":169475.40000000037,"y":2550554.8300000001}},{"attributes":{"ID":16670,"DIS_CODE":0,"TOWNNAME":"下營區","LI":"賀建里","LIN":"14鄰","STREET":" ","SECT":" ","MAREA":"洲子","LANE":" ","ALLEY":" ","HOUSE_NO":"３０號之９","E_COORD97":177380.57000000001,"N_COORD97":2572073.2400000002,"ADDRESS":"洲子３０號之９","OBJECTID":16670},"geometry":{"x":177380.5700000003,"y":2572073.2400000002}},{"attributes":{"ID":16671,"DIS_CODE":0,"TOWNNAME":"下營區","LI":"賀建里","LIN":"14鄰","STREET":" ","SECT":" ","MAREA":"洲子","LANE":" ","ALLEY":" ","HOUSE_NO":"３０號","E_COORD97":177329.39000000001,"N_COORD97":2572027.1499999999,"ADDRESS":"洲子３０號","OBJECTID":16671},"geometry":{"x":177329.3900000006,"y":2572027.1500000004}},{"attributes":{"ID":16672,"DIS_CODE":0,"TOWNNAME":"下營區","LI":"賀建里","LIN":"14鄰","STREET":" ","SECT":" ","MAREA":"洲子","LANE":" ","ALLEY":" ","HOUSE_NO":"３２號","E_COORD97":177311.54000000001,"N_COORD97":2572015.5,"ADDRESS":"洲子３２號","OBJECTID":16672},"geometry":{"x":177311.54000000097,"y":2572015.5000000019}},{"attributes":{"ID":16673,"DIS_CODE":0,"TOWNNAME":"永康區","LI":"光復里","LIN":"24鄰","STREET":"復興路","SECT":" ","MAREA":" ","LANE":"１２８巷","ALLEY":"１弄","HOUSE_NO":"９號四樓","E_COORD97":172686.84,"N_COORD97":2544368.2799999998,"ADDRESS":"復興路１２８巷１弄９號四樓","OBJECTID":16673},"geometry":{"x":172686.84000000078,"y":2544368.2800000012}},{"attributes":{"ID":16674,"DIS_CODE":0,"TOWNNAME":"安南區","LI":"安順里","LIN":"24鄰","STREET":"北安路","SECT":"三段","MAREA":" ","LANE":"７５２巷","ALLEY":"２０弄","HOUSE_NO":"１８號","E_COORD97":169496.67999999999,"N_COORD97":2550536.8999999999,"ADDRESS":"北安路三段７５２巷２０弄１８號","OBJECTID":16674},"geometry":{"x":169496.68000000156,"y":2550536.9000000004}},{"attributes":{"ID":16675,"DIS_CODE":0,"TOWNNAME":"安南區","LI":"安順里","LIN":"24鄰","STREET":"北安路","SECT":"三段","MAREA":" ","LANE":"７５２巷","ALLEY":"２０弄","HOUSE_NO":"１６號","E_COORD97":169497.31,"N_COORD97":2550541.8199999998,"ADDRESS":"北安路三段７５２巷２０弄１６號","OBJECTID":16675},"geometry":{"x":169497.30999999866,"y":2550541.8199999984}},{"attributes":{"ID":16676,"DIS_CODE":0,"TOWNNAME":"安南區","LI":"安順里","LIN":"24鄰","STREET":"北安路","SECT":"三段","MAREA":" ","LANE":"７５２巷","ALLEY":"２０弄","HOUSE_NO":"１２號","E_COORD97":169498.10999999999,"N_COORD97":2550546.8999999999,"ADDRESS":"北安路三段７５２巷２０弄１２號","OBJECTID":16676},"geometry":{"x":169498.11000000127,"y":2550546.9000000004}},{"attributes":{"ID":16677,"DIS_CODE":0,"TOWNNAME":"安南區","LI":"安順里","LIN":"24鄰","STREET":"北安路","SECT":"三段","MAREA":" ","LANE":"７５２巷","ALLEY":"２０弄","HOUSE_NO":"１０號","E_COORD97":169498.42000000001,"N_COORD97":2550552.6099999999,"ADDRESS":"北安路三段７５２巷２０弄１０號","OBJECTID":16677},"geometry":{"x":169498.41999999993,"y":2550552.6100000031}},{"attributes":{"ID":16678,"DIS_CODE":0,"TOWNNAME":"安南區","LI":"安順里","LIN":"24鄰","STREET":"北安路","SECT":"三段","MAREA":" ","LANE":"７５２巷","ALLEY":"２０弄","HOUSE_NO":"２號","E_COORD97":169499.69,"N_COORD97":2550568.7999999998,"ADDRESS":"北安路三段７５２巷２０弄２號","OBJECTID":16678},"geometry":{"x":169499.69000000134,"y":2550568.8000000007}},{"attributes":{"ID":16679,"DIS_CODE":0,"TOWNNAME":"安南區","LI":"安順里","LIN":"24鄰","STREET":"北安路","SECT":"三段","MAREA":" ","LANE":"７５２巷","ALLEY":"２０弄","HOUSE_NO":"６號","E_COORD97":169499.38,"N_COORD97":2550563.0899999999,"ADDRESS":"北安路三段７５２巷２０弄６號","OBJECTID":16679},"geometry":{"x":169499.38000000082,"y":2550563.0899999999}},{"attributes":{"ID":16680,"DIS_CODE":0,"TOWNNAME":"安南區","LI":"安順里","LIN":"24鄰","STREET":"北安路","SECT":"三段","MAREA":" ","LANE":"７５２巷","ALLEY":"２０弄","HOUSE_NO":"８號","E_COORD97":169499.06,"N_COORD97":2550558.0099999998,"ADDRESS":"北安路三段７５２巷２０弄８號","OBJECTID":16680},"geometry":{"x":169499.06000000145,"y":2550558.0100000016}},{"attributes":{"ID":16681,"DIS_CODE":0,"TOWNNAME":"安南區","LI":"安順里","LIN":"24鄰","STREET":"北安路","SECT":"三段","MAREA":" ","LANE":"７５２巷","ALLEY":"２２弄","HOUSE_NO":"１６號","E_COORD97":169516.84,"N_COORD97":2550535.6299999999,"ADDRESS":"北安路三段７５２巷２２弄１６號","OBJECTID":16681},"geometry":{"x":169516.84000000078,"y":2550535.6300000008}},{"attributes":{"ID":16682,"DIS_CODE":0,"TOWNNAME":"安南區","LI":"安順里","LIN":"24鄰","STREET":"北安路","SECT":"三段","MAREA":" ","LANE":"７５２巷","ALLEY":"２２弄","HOUSE_NO":"１２號","E_COORD97":169517.47,"N_COORD97":2550540.71,"ADDRESS":"北安路三段７５２巷２２弄１２號","OBJECTID":16682},"geometry":{"x":169517.47000000067,"y":2550540.7100000028}},{"attributes":{"ID":16683,"DIS_CODE":0,"TOWNNAME":"安南區","LI":"安順里","LIN":"24鄰","STREET":"北安路","SECT":"三段","MAREA":" ","LANE":"７５２巷","ALLEY":"２２弄","HOUSE_NO":"２號","E_COORD97":169518.42999999999,"N_COORD97":2550562.2999999998,"ADDRESS":"北安路三段７５２巷２２弄２號","OBJECTID":16683},"geometry":{"x":169518.4299999997,"y":2550562.3000000007}},{"attributes":{"ID":16684,"DIS_CODE":0,"TOWNNAME":"安南區","LI":"安順里","LIN":"24鄰","STREET":"北安路","SECT":"三段","MAREA":" ","LANE":"７５２巷","ALLEY":"２２弄","HOUSE_NO":"１０號","E_COORD97":169517.95000000001,"N_COORD97":2550545.9399999999,"ADDRESS":"北安路三段７５２巷２２弄１０號","OBJECTID":16684},"geometry":{"x":169517.95000000112,"y":2550545.9399999995}},{"attributes":{"ID":16685,"DIS_CODE":0,"TOWNNAME":"安南區","LI":"安順里","LIN":"24鄰","STREET":"北安路","SECT":"三段","MAREA":" ","LANE":"７５２巷","ALLEY":"２２弄","HOUSE_NO":"６號","E_COORD97":169518.10999999999,"N_COORD97":2550556.2599999998,"ADDRESS":"北安路三段７５２巷２２弄６號","OBJECTID":16685},"geometry":{"x":169518.1099999994,"y":2550556.2600000016}},{"attributes":{"ID":16686,"DIS_CODE":0,"TOWNNAME":"安南區","LI":"安順里","LIN":"24鄰","STREET":"北安路","SECT":"三段","MAREA":" ","LANE":"７５２巷","ALLEY":"２２弄","HOUSE_NO":"８號","E_COORD97":169518.26999999999,"N_COORD97":2550551.8199999998,"ADDRESS":"北安路三段７５２巷２２弄８號","OBJECTID":16686},"geometry":{"x":169518.27000000048,"y":2550551.8200000003}},{"attributes":{"ID":16687,"DIS_CODE":0,"TOWNNAME":"安南區","LI":"安順里","LIN":"24鄰","STREET":"北安路","SECT":"三段","MAREA":" ","LANE":"７５２巷","ALLEY":"２２弄","HOUSE_NO":"１８號","E_COORD97":169516.67999999999,"N_COORD97":2550530.7000000002,"ADDRESS":"北安路三段７５２巷２２弄１８號","OBJECTID":16687},"geometry":{"x":169516.6799999997,"y":2550530.6999999993}},{"attributes":{"ID":16688,"DIS_CODE":0,"TOWNNAME":"安南區","LI":"安順里","LIN":"24鄰","STREET":"北安路","SECT":"三段","MAREA":" ","LANE":"７５２巷","ALLEY":"２２弄","HOUSE_NO":"２０號","E_COORD97":169516.51999999999,"N_COORD97":2550526.5800000001,"ADDRESS":"北安路三段７５２巷２２弄２０號","OBJECTID":16688},"geometry":{"x":169516.52000000048,"y":2550526.5800000038}},{"attributes":{"ID":16689,"DIS_CODE":0,"TOWNNAME":"永康區","LI":"西灣里","LIN":"40鄰","STREET":"大勇路","SECT":" ","MAREA":" ","LANE":"２３巷","ALLEY":" ","HOUSE_NO":"１７號五樓","E_COORD97":174150.59,"N_COORD97":2545395.5099999998,"ADDRESS":"大勇路２３巷１７號五樓","OBJECTID":16689},"geometry":{"x":174150.58999999985,"y":2545395.5099999998}},{"attributes":{"ID":16690,"DIS_CODE":0,"TOWNNAME":"北區","LI":"成德里","LIN":"40鄰","STREET":"文成五街","SECT":" ","MAREA":" ","LANE":" ","ALLEY":" ","HOUSE_NO":"２３５號","E_COORD97":168104.12,"N_COORD97":2546454.6499999999,"ADDRESS":"文成五街２３５號","OBJECTID":16690},"geometry":{"x":168104.12000000197,"y":2546454.6500000041}},{"attributes":{"ID":16691,"DIS_CODE":0,"TOWNNAME":"北區","LI":"成德里","LIN":"40鄰","STREET":"文成五街","SECT":" ","MAREA":" ","LANE":" ","ALLEY":" ","HOUSE_NO":"２３７號","E_COORD97":168099.44,"N_COORD97":2546453.1600000001,"ADDRESS":"文成五街２３７號","OBJECTID":16691},"geometry":{"x":168099.44000000134,"y":2546453.1600000001}},{"attributes":{"ID":16692,"DIS_CODE":0,"TOWNNAME":"北區","LI":"成功里","LIN":"26鄰","STREET":"北成路","SECT":" ","MAREA":" ","LANE":" ","ALLEY":" ","HOUSE_NO":"２１２號","E_COORD97":168673.47,"N_COORD97":2546789.5600000001,"ADDRESS":"北成路２１２號","OBJECTID":16692},"geometry":{"x":168673.47000000067,"y":2546789.5600000005}},{"attributes":{"ID":16693,"DIS_CODE":0,"TOWNNAME":"北區","LI":"成德里","LIN":"40鄰","STREET":"文成五街","SECT":" ","MAREA":" ","LANE":" ","ALLEY":" ","HOUSE_NO":"２３９號","E_COORD97":168094.75,"N_COORD97":2546452.4100000001,"ADDRESS":"文成五街２３９號","OBJECTID":16693},"geometry":{"x":168094.75000000186,"y":2546452.4100000039}},{"attributes":{"ID":16694,"DIS_CODE":0,"TOWNNAME":"安南區","LI":"安順里","LIN":"24鄰","STREET":"北安路","SECT":"三段","MAREA":" ","LANE":"７５２巷","ALLEY":"２２弄","HOUSE_NO":"２２號","E_COORD97":169516.67999999999,"N_COORD97":2550521.9700000002,"ADDRESS":"北安路三段７５２巷２２弄２２號","OBJECTID":16694},"geometry":{"x":169516.6799999997,"y":2550521.9700000025}},{"attributes":{"ID":16695,"DIS_CODE":0,"TOWNNAME":"安南區","LI":"安順里","LIN":"24鄰","STREET":"北安路","SECT":"三段","MAREA":" ","LANE":"７５２巷","ALLEY":"２２弄","HOUSE_NO":"２６號","E_COORD97":169516.04000000001,"N_COORD97":2550517.6899999999,"ADDRESS":"北安路三段７５２巷２２弄２６號","OBJECTID":16695},"geometry":{"x":169516.04000000004,"y":2550517.6899999995}},{"attributes":{"ID":16696,"DIS_CODE":0,"TOWNNAME":"安南區","LI":"安順里","LIN":"24鄰","STREET":"北安路","SECT":"三段","MAREA":" ","LANE":"７５２巷","ALLEY":"２２弄","HOUSE_NO":"２８號","E_COORD97":169515.73000000001,"N_COORD97":2550513.5600000001,"ADDRESS":"北安路三段７５２巷２２弄２８號","OBJECTID":16696},"geometry":{"x":169515.72999999952,"y":2550513.5600000042}},{"attributes":{"ID":16697,"DIS_CODE":0,"TOWNNAME":"安南區","LI":"安順里","LIN":"24鄰","STREET":"北安路","SECT":"三段","MAREA":" ","LANE":"７５２巷","ALLEY":"２２弄","HOUSE_NO":"３０號","E_COORD97":169515.57000000001,"N_COORD97":2550509.1099999999,"ADDRESS":"北安路三段７５２巷２２弄３０號","OBJECTID":16697},"geometry":{"x":169515.57000000123,"y":2550509.1100000013}},{"attributes":{"ID":16698,"DIS_CODE":0,"TOWNNAME":"安南區","LI":"安順里","LIN":"24鄰","STREET":"北安路","SECT":"三段","MAREA":" ","LANE":"７５２巷","ALLEY":"２２弄","HOUSE_NO":"３２號","E_COORD97":169515.73000000001,"N_COORD97":2550504.9900000002,"ADDRESS":"北安路三段７５２巷２２弄３２號","OBJECTID":16698},"geometry":{"x":169515.72999999952,"y":2550504.9900000021}},{"attributes":{"ID":16699,"DIS_CODE":0,"TOWNNAME":"安南區","LI":"安順里","LIN":"24鄰","STREET":"北安路","SECT":"三段","MAREA":" ","LANE":"７５２巷","ALLEY":"２２弄","HOUSE_NO":"３６號","E_COORD97":169515.57000000001,"N_COORD97":2550500.7000000002,"ADDRESS":"北安路三段７５２巷２２弄３６號","OBJECTID":16699},"geometry":{"x":169515.57000000123,"y":2550500.6999999993}},{"attributes":{"ID":16700,"DIS_CODE":0,"TOWNNAME":"安南區","LI":"安順里","LIN":"24鄰","STREET":"北安路","SECT":"三段","MAREA":" ","LANE":"７５２巷","ALLEY":"２２弄","HOUSE_NO":"３８號","E_COORD97":169515.09,"N_COORD97":2550496.1000000001,"ADDRESS":"北安路三段７５２巷２２弄３８號","OBJECTID":16700},"geometry":{"x":169515.09000000078,"y":2550496.1000000015}},{"attributes":{"ID":16701,"DIS_CODE":0,"TOWNNAME":"安南區","LI":"安順里","LIN":"24鄰","STREET":"北安路","SECT":"三段","MAREA":" ","LANE":"７５２巷","ALLEY":"２２弄","HOUSE_NO":"４０號","E_COORD97":169515.25,"N_COORD97":2550490.7000000002,"ADDRESS":"北安路三段７５２巷２２弄４０號","OBJECTID":16701},"geometry":{"x":169515.25000000186,"y":2550490.6999999974}},{"attributes":{"ID":16702,"DIS_CODE":0,"TOWNNAME":"安南區","LI":"安順里","LIN":"24鄰","STREET":"北安路","SECT":"三段","MAREA":" ","LANE":"７５２巷","ALLEY":"２２弄","HOUSE_NO":"４２號","E_COORD97":169515.25,"N_COORD97":2550487.0499999998,"ADDRESS":"北安路三段７５２巷２２弄４２號","OBJECTID":16702},"geometry":{"x":169515.25000000186,"y":2550487.0500000026}},{"attributes":{"ID":16703,"DIS_CODE":0,"TOWNNAME":"安南區","LI":"安順里","LIN":"24鄰","STREET":"北安路","SECT":"三段","MAREA":" ","LANE":"７５２巷","ALLEY":"２２弄","HOUSE_NO":"４６號","E_COORD97":169514.62,"N_COORD97":2550482.1299999999,"ADDRESS":"北安路三段７５２巷２２弄４６號","OBJECTID":16703},"geometry":{"x":169514.62000000197,"y":2550482.1300000008}},{"attributes":{"ID":16704,"DIS_CODE":0,"TOWNNAME":"安南區","LI":"安順里","LIN":"24鄰","STREET":"北安路","SECT":"三段","MAREA":" ","LANE":"７５２巷","ALLEY":"２２弄","HOUSE_NO":"４８號","E_COORD97":169514.76999999999,"N_COORD97":2550477.8399999999,"ADDRESS":"北安路三段７５２巷２２弄４８號","OBJECTID":16704},"geometry":{"x":169514.77000000048,"y":2550477.8400000017}},{"attributes":{"ID":16705,"DIS_CODE":0,"TOWNNAME":"安南區","LI":"安順里","LIN":"24鄰","STREET":"北安路","SECT":"三段","MAREA":" ","LANE":"７５２巷","ALLEY":"２２弄","HOUSE_NO":"５０號","E_COORD97":169514.29999999999,"N_COORD97":2550473.2400000002,"ADDRESS":"北安路三段７５２巷２２弄５０號","OBJECTID":16705},"geometry":{"x":169514.29999999981,"y":2550473.2400000002}},{"attributes":{"ID":16706,"DIS_CODE":0,"TOWNNAME":"安南區","LI":"安順里","LIN":"24鄰","STREET":"北安路","SECT":"三段","MAREA":" ","LANE":"７５２巷","ALLEY":"２２弄","HOUSE_NO":"５２號","E_COORD97":169514.29999999999,"N_COORD97":2550467.8399999999,"ADDRESS":"北安路三段７５２巷２２弄５２號","OBJECTID":16706},"geometry":{"x":169514.29999999981,"y":2550467.8400000017}},{"attributes":{"ID":16707,"DIS_CODE":0,"TOWNNAME":"安南區","LI":"安順里","LIN":"24鄰","STREET":"北安路","SECT":"三段","MAREA":" ","LANE":"７５２巷","ALLEY":"１８弄","HOUSE_NO":"２７號","E_COORD97":169472.23000000001,"N_COORD97":2550510.3799999999,"ADDRESS":"北安路三段７５２巷１８弄２７號","OBJECTID":16707},"geometry":{"x":169472.23000000138,"y":2550510.3800000008}},{"attributes":{"ID":16708,"DIS_CODE":0,"TOWNNAME":"安南區","LI":"安順里","LIN":"24鄰","STREET":"北安路","SECT":"三段","MAREA":" ","LANE":"７５２巷","ALLEY":"１８弄","HOUSE_NO":"２９號","E_COORD97":169472.07000000001,"N_COORD97":2550504.9900000002,"ADDRESS":"北安路三段７５２巷１８弄２９號","OBJECTID":16708},"geometry":{"x":169472.0700000003,"y":2550504.9900000021}},{"attributes":{"ID":16709,"DIS_CODE":0,"TOWNNAME":"安南區","LI":"安順里","LIN":"24鄰","STREET":"北安路","SECT":"三段","MAREA":" ","LANE":"７５２巷","ALLEY":"１８弄","HOUSE_NO":"３１號","E_COORD97":169472.07000000001,"N_COORD97":2550498.9500000002,"ADDRESS":"北安路三段７５２巷１８弄３１號","OBJECTID":16709},"geometry":{"x":169472.0700000003,"y":2550498.9499999993}},{"attributes":{"ID":16710,"DIS_CODE":0,"TOWNNAME":"安南區","LI":"安順里","LIN":"24鄰","STREET":"北安路","SECT":"三段","MAREA":" ","LANE":"７５２巷","ALLEY":"１８弄","HOUSE_NO":"３３號","E_COORD97":169471.44,"N_COORD97":2550493.8700000001,"ADDRESS":"北安路三段７５２巷１８弄３３號","OBJECTID":16710},"geometry":{"x":169471.44000000041,"y":2550493.870000001}},{"attributes":{"ID":16711,"DIS_CODE":0,"TOWNNAME":"安南區","LI":"安順里","LIN":"24鄰","STREET":"北安路","SECT":"三段","MAREA":" ","LANE":"７５２巷","ALLEY":"１８弄","HOUSE_NO":"３５號","E_COORD97":169471.75,"N_COORD97":2550487.8399999999,"ADDRESS":"北安路三段７５２巷１８弄３５號","OBJECTID":16711},"geometry":{"x":169471.75000000093,"y":2550487.8400000017}},{"attributes":{"ID":16712,"DIS_CODE":0,"TOWNNAME":"安南區","LI":"安順里","LIN":"24鄰","STREET":"北安路","SECT":"三段","MAREA":" ","LANE":"７５２巷","ALLEY":"１８弄","HOUSE_NO":"３７號","E_COORD97":169471.28,"N_COORD97":2550482.4399999999,"ADDRESS":"北安路三段７５２巷１８弄３７號","OBJECTID":16712},"geometry":{"x":169471.28000000212,"y":2550482.4399999995}},{"attributes":{"ID":16713,"DIS_CODE":0,"TOWNNAME":"安南區","LI":"安順里","LIN":"24鄰","STREET":"北安路","SECT":"三段","MAREA":" ","LANE":"７５２巷","ALLEY":"１８弄","HOUSE_NO":"３９號","E_COORD97":169470.64000000001,"N_COORD97":2550476.8900000001,"ADDRESS":"北安路三段７５２巷１８弄３９號","OBJECTID":16713},"geometry":{"x":169470.6400000006,"y":2550476.8900000006}},{"attributes":{"ID":16714,"DIS_CODE":0,"TOWNNAME":"安南區","LI":"安順里","LIN":"24鄰","STREET":"北安路","SECT":"三段","MAREA":" ","LANE":"７５２巷","ALLEY":"１８弄","HOUSE_NO":"４１號","E_COORD97":169470.64000000001,"N_COORD97":2550471.1699999999,"ADDRESS":"北安路三段７５２巷１８弄４１號","OBJECTID":16714},"geometry":{"x":169470.6400000006,"y":2550471.1699999999}},{"attributes":{"ID":16715,"DIS_CODE":0,"TOWNNAME":"安南區","LI":"安順里","LIN":"24鄰","STREET":"北安路","SECT":"三段","MAREA":" ","LANE":"７５２巷","ALLEY":"２２弄","HOUSE_NO":"６６號","E_COORD97":169511.12,"N_COORD97":2550422.75,"ADDRESS":"北安路三段７５２巷２２弄６６號","OBJECTID":16715},"geometry":{"x":169511.12000000197,"y":2550422.75}},{"attributes":{"ID":16716,"DIS_CODE":0,"TOWNNAME":"安南區","LI":"安順里","LIN":"24鄰","STREET":"北安路","SECT":"三段","MAREA":" ","LANE":"７５２巷","ALLEY":"２２弄","HOUSE_NO":"６８號","E_COORD97":169511.12,"N_COORD97":2550419.2599999998,"ADDRESS":"北安路三段７５２巷２２弄６８號","OBJECTID":16716},"geometry":{"x":169511.12000000197,"y":2550419.2599999998}},{"attributes":{"ID":16717,"DIS_CODE":0,"TOWNNAME":"永康區","LI":"五王里","LIN":"40鄰","STREET":"中山南路","SECT":" ","MAREA":" ","LANE":" ","ALLEY":" ","HOUSE_NO":"１６４號之３５","E_COORD97":171281.32999999999,"N_COORD97":2546011.5,"ADDRESS":"中山南路１６４號之３５","OBJECTID":16717},"geometry":{"x":171281.33000000101,"y":2546011.5000000019}},{"attributes":{"ID":16718,"DIS_CODE":0,"TOWNNAME":"東區","LI":"裕聖里","LIN":"20鄰","STREET":"裕忠路","SECT":" ","MAREA":" ","LANE":" ","ALLEY":" ","HOUSE_NO":"２９９之１號","E_COORD97":172278.07999999999,"N_COORD97":2542345.6800000002,"ADDRESS":"裕忠路２９９之１號","OBJECTID":16718},"geometry":{"x":172278.08000000101,"y":2542345.6800000016}},{"attributes":{"ID":16719,"DIS_CODE":0,"TOWNNAME":"東區","LI":"裕聖里","LIN":"20鄰","STREET":"裕忠路","SECT":" ","MAREA":" ","LANE":" ","ALLEY":" ","HOUSE_NO":"２９９之２號","E_COORD97":172281.88,"N_COORD97":2542345.8199999998,"ADDRESS":"裕忠路２９９之２號","OBJECTID":16719},"geometry":{"x":172281.87999999989,"y":2542345.8200000022}},{"attributes":{"ID":16720,"DIS_CODE":0,"TOWNNAME":"東區","LI":"裕聖里","LIN":"20鄰","STREET":"裕忠路","SECT":" ","MAREA":" ","LANE":" ","ALLEY":" ","HOUSE_NO":"２９９之３號","E_COORD97":172286.25,"N_COORD97":2542345.3900000001,"ADDRESS":"裕忠路２９９之３號","OBJECTID":16720},"geometry":{"x":172286.25,"y":2542345.3900000025}},{"attributes":{"ID":16721,"DIS_CODE":0,"TOWNNAME":"下營區","LI":"紅厝里","LIN":"14鄰","STREET":" ","SECT":" ","MAREA":"紅毛厝","LANE":" ","ALLEY":" ","HOUSE_NO":"１００號","E_COORD97":175030.07999999999,"N_COORD97":2571622.9500000002,"ADDRESS":"紅毛厝１００號","OBJECTID":16721},"geometry":{"x":175030.08000000007,"y":2571622.9500000011}},{"attributes":{"ID":16722,"DIS_CODE":0,"TOWNNAME":"下營區","LI":"紅厝里","LIN":"14鄰","STREET":" ","SECT":" ","MAREA":"紅毛厝","LANE":" ","ALLEY":" ","HOUSE_NO":"１０１號","E_COORD97":175012.48999999999,"N_COORD97":2571594.2999999998,"ADDRESS":"紅毛厝１０１號","OBJECTID":16722},"geometry":{"x":175012.49000000022,"y":2571594.3000000026}},{"attributes":{"ID":16723,"DIS_CODE":0,"TOWNNAME":"將軍區","LI":"玉山里","LIN":"14鄰","STREET":" ","SECT":" ","MAREA":"玉山","LANE":" ","ALLEY":" ","HOUSE_NO":"１１８號","E_COORD97":160487.35999999999,"N_COORD97":2567969.29,"ADDRESS":"玉山１１８號","OBJECTID":16723},"geometry":{"x":160487.36000000034,"y":2567969.2899999991}},{"attributes":{"ID":16724,"DIS_CODE":0,"TOWNNAME":"安南區","LI":"安順里","LIN":"24鄰","STREET":"北安路","SECT":"三段","MAREA":" ","LANE":"７５２巷","ALLEY":"２２弄","HOUSE_NO":"７０號","E_COORD97":169511.12,"N_COORD97":2550415.6099999999,"ADDRESS":"北安路三段７５２巷２２弄７０號","OBJECTID":16724},"geometry":{"x":169511.12000000197,"y":2550415.6099999994}},{"attributes":{"ID":16725,"DIS_CODE":0,"TOWNNAME":"下營區","LI":"紅厝里","LIN":"14鄰","STREET":" ","SECT":" ","MAREA":"紅毛厝","LANE":" ","ALLEY":" ","HOUSE_NO":"１０２號之１","E_COORD97":175022.51000000001,"N_COORD97":2571646.6800000002,"ADDRESS":"紅毛厝１０２號之１","OBJECTID":16725},"geometry":{"x":175022.51000000164,"y":2571646.6799999997}},{"attributes":{"ID":16726,"DIS_CODE":0,"TOWNNAME":"下營區","LI":"紅厝里","LIN":"14鄰","STREET":" ","SECT":" ","MAREA":"紅毛厝","LANE":" ","ALLEY":" ","HOUSE_NO":"１０２號","E_COORD97":175015.72,"N_COORD97":2571627.0299999998,"ADDRESS":"紅毛厝１０２號","OBJECTID":16726},"geometry":{"x":175015.71999999974,"y":2571627.0299999993}},{"attributes":{"ID":16727,"DIS_CODE":0,"TOWNNAME":"下營區","LI":"紅厝里","LIN":"14鄰","STREET":" ","SECT":" ","MAREA":"紅毛厝","LANE":" ","ALLEY":" ","HOUSE_NO":"１０３號","E_COORD97":174986.39000000001,"N_COORD97":2571629.3500000001,"ADDRESS":"紅毛厝１０３號","OBJECTID":16727},"geometry":{"x":174986.3900000006,"y":2571629.3500000034}},{"attributes":{"ID":16728,"DIS_CODE":0,"TOWNNAME":"下營區","LI":"紅厝里","LIN":"14鄰","STREET":" ","SECT":" ","MAREA":"紅毛厝","LANE":" ","ALLEY":" ","HOUSE_NO":"１０４號之１","E_COORD97":174970.10999999999,"N_COORD97":2571627.7999999998,"ADDRESS":"紅毛厝１０４號之１","OBJECTID":16728},"geometry":{"x":174970.11000000127,"y":2571627.8000000026}},{"attributes":{"ID":16729,"DIS_CODE":0,"TOWNNAME":"下營區","LI":"紅厝里","LIN":"14鄰","STREET":" ","SECT":" ","MAREA":"紅毛厝","LANE":" ","ALLEY":" ","HOUSE_NO":"１０４號","E_COORD97":174975.69,"N_COORD97":2571618.4300000002,"ADDRESS":"紅毛厝１０４號","OBJECTID":16729},"geometry":{"x":174975.69000000041,"y":2571618.4299999978}},{"attributes":{"ID":16730,"DIS_CODE":0,"TOWNNAME":"安南區","LI":"安順里","LIN":"24鄰","STREET":"北安路","SECT":"三段","MAREA":" ","LANE":"７５２巷","ALLEY":"２２弄","HOUSE_NO":"７２號","E_COORD97":169511.28,"N_COORD97":2550412.1200000001,"ADDRESS":"北安路三段７５２巷２２弄７２號","OBJECTID":16730},"geometry":{"x":169511.28000000026,"y":2550412.1200000048}},{"attributes":{"ID":16731,"DIS_CODE":0,"TOWNNAME":"安南區","LI":"安順里","LIN":"24鄰","STREET":"北安路","SECT":"三段","MAREA":" ","LANE":"７５２巷","ALLEY":"２２弄","HOUSE_NO":"７６號","E_COORD97":169511.60000000001,"N_COORD97":2550402.5899999999,"ADDRESS":"北安路三段７５２巷２２弄７６號","OBJECTID":16731},"geometry":{"x":169511.59999999963,"y":2550402.5899999999}},{"attributes":{"ID":16732,"DIS_CODE":0,"TOWNNAME":"安南區","LI":"安順里","LIN":"24鄰","STREET":"北安路","SECT":"三段","MAREA":" ","LANE":"７５２巷","ALLEY":"２２弄","HOUSE_NO":"７８號","E_COORD97":169511.44,"N_COORD97":2550394.3399999999,"ADDRESS":"北安路三段７５２巷２２弄７８號","OBJECTID":16732},"geometry":{"x":169511.44000000134,"y":2550394.3399999999}},{"attributes":{"ID":16733,"DIS_CODE":0,"TOWNNAME":"安南區","LI":"安順里","LIN":"24鄰","STREET":"北安路","SECT":"三段","MAREA":" ","LANE":"７５２巷","ALLEY":"２２弄","HOUSE_NO":"７３號","E_COORD97":169521.44,"N_COORD97":2550348.46,"ADDRESS":"北安路三段７５２巷２２弄７３號","OBJECTID":16733},"geometry":{"x":169521.44000000134,"y":2550348.4600000046}},{"attributes":{"ID":16734,"DIS_CODE":0,"TOWNNAME":"安南區","LI":"安順里","LIN":"24鄰","STREET":"北安路","SECT":"三段","MAREA":" ","LANE":"７５２巷","ALLEY":"２２弄","HOUSE_NO":"７１號","E_COORD97":169521.76000000001,"N_COORD97":2550353.3799999999,"ADDRESS":"北安路三段７５２巷２２弄７１號","OBJECTID":16734},"geometry":{"x":169521.76000000164,"y":2550353.379999999}},{"attributes":{"ID":16735,"DIS_CODE":0,"TOWNNAME":"安南區","LI":"安順里","LIN":"24鄰","STREET":"北安路","SECT":"三段","MAREA":" ","LANE":"７５２巷","ALLEY":"２２弄","HOUSE_NO":"９２號","E_COORD97":169507.31,"N_COORD97":2550349.4100000001,"ADDRESS":"北安路三段７５２巷２２弄９２號","OBJECTID":16735},"geometry":{"x":169507.30999999959,"y":2550349.410000002}},{"attributes":{"ID":16736,"DIS_CODE":0,"TOWNNAME":"安南區","LI":"安順里","LIN":"24鄰","STREET":"北安路","SECT":"三段","MAREA":" ","LANE":"７５２巷","ALLEY":"２２弄","HOUSE_NO":"９０號","E_COORD97":169508.10999999999,"N_COORD97":2550354.8100000001,"ADDRESS":"北安路三段７５２巷２２弄９０號","OBJECTID":16736},"geometry":{"x":169508.1100000022,"y":2550354.8100000005}},{"attributes":{"ID":16737,"DIS_CODE":0,"TOWNNAME":"安南區","LI":"安順里","LIN":"24鄰","STREET":"北安路","SECT":"三段","MAREA":" ","LANE":"７５２巷","ALLEY":"２２弄","HOUSE_NO":"６９號","E_COORD97":169521.76000000001,"N_COORD97":2550358.46,"ADDRESS":"北安路三段７５２巷２２弄６９號","OBJECTID":16737},"geometry":{"x":169521.76000000164,"y":2550358.459999999}},{"attributes":{"ID":16738,"DIS_CODE":0,"TOWNNAME":"下營區","LI":"紅厝里","LIN":"14鄰","STREET":" ","SECT":" ","MAREA":"紅毛厝","LANE":" ","ALLEY":" ","HOUSE_NO":"１０５號之１","E_COORD97":174931.76999999999,"N_COORD97":2571604.3900000001,"ADDRESS":"紅毛厝１０５號之１","OBJECTID":16738},"geometry":{"x":174931.76999999955,"y":2571604.3900000025}},{"attributes":{"ID":16739,"DIS_CODE":0,"TOWNNAME":"下營區","LI":"紅厝里","LIN":"14鄰","STREET":" ","SECT":" ","MAREA":"紅毛厝","LANE":" ","ALLEY":" ","HOUSE_NO":"１０５號之３","E_COORD97":174920.47,"N_COORD97":2571596.2799999998,"ADDRESS":"紅毛厝１０５號之３","OBJECTID":16739},"geometry":{"x":174920.46999999974,"y":2571596.2800000012}},{"attributes":{"ID":16740,"DIS_CODE":0,"TOWNNAME":"安南區","LI":"安順里","LIN":"24鄰","STREET":"北安路","SECT":"三段","MAREA":" ","LANE":"７５２巷","ALLEY":"２２弄","HOUSE_NO":"８８號","E_COORD97":169508.42000000001,"N_COORD97":2550360.3599999999,"ADDRESS":"北安路三段７５２巷２２弄８８號","OBJECTID":16740},"geometry":{"x":169508.41999999993,"y":2550360.3599999994}},{"attributes":{"ID":16741,"DIS_CODE":0,"TOWNNAME":"安南區","LI":"安順里","LIN":"24鄰","STREET":"北安路","SECT":"三段","MAREA":" ","LANE":"７５２巷","ALLEY":"２２弄","HOUSE_NO":"６７號","E_COORD97":169521.76000000001,"N_COORD97":2550361.79,"ADDRESS":"北安路三段７５２巷２２弄６７號","OBJECTID":16741},"geometry":{"x":169521.76000000164,"y":2550361.790000001}},{"attributes":{"ID":16742,"DIS_CODE":0,"TOWNNAME":"安南區","LI":"安順里","LIN":"24鄰","STREET":"北安路","SECT":"三段","MAREA":" ","LANE":"７５２巷","ALLEY":"２２弄","HOUSE_NO":"８０號","E_COORD97":169510.48999999999,"N_COORD97":2550387.5099999998,"ADDRESS":"北安路三段７５２巷２２弄８０號","OBJECTID":16742},"geometry":{"x":169510.49000000209,"y":2550387.5099999979}},{"attributes":{"ID":16743,"DIS_CODE":0,"TOWNNAME":"安南區","LI":"安順里","LIN":"24鄰","STREET":"北安路","SECT":"三段","MAREA":" ","LANE":"７５２巷","ALLEY":"２２弄","HOUSE_NO":"５５號","E_COORD97":169523.35000000001,"N_COORD97":2550388.1499999999,"ADDRESS":"北安路三段７５２巷２２弄５５號","OBJECTID":16743},"geometry":{"x":169523.35000000056,"y":2550388.1500000022}},{"attributes":{"ID":16744,"DIS_CODE":0,"TOWNNAME":"安南區","LI":"安順里","LIN":"24鄰","STREET":"北安路","SECT":"三段","MAREA":" ","LANE":"７５２巷","ALLEY":"２２弄","HOUSE_NO":"５７號","E_COORD97":169523.19,"N_COORD97":2550384.6499999999,"ADDRESS":"北安路三段７５２巷２２弄５７號","OBJECTID":16744},"geometry":{"x":169523.19000000134,"y":2550384.6500000022}},{"attributes":{"ID":16745,"DIS_CODE":0,"TOWNNAME":"安南區","LI":"安順里","LIN":"24鄰","STREET":"北安路","SECT":"三段","MAREA":" ","LANE":"７５２巷","ALLEY":"２２弄","HOUSE_NO":"５９號","E_COORD97":169522.70999999999,"N_COORD97":2550380.6800000002,"ADDRESS":"北安路三段７５２巷２２弄５９號","OBJECTID":16745},"geometry":{"x":169522.71000000089,"y":2550380.6800000016}},{"attributes":{"ID":16746,"DIS_CODE":0,"TOWNNAME":"安南區","LI":"安順里","LIN":"24鄰","STREET":"北安路","SECT":"三段","MAREA":" ","LANE":"７５２巷","ALLEY":"２２弄","HOUSE_NO":"６１號","E_COORD97":169522.54999999999,"N_COORD97":2550376.2400000002,"ADDRESS":"北安路三段７５２巷２２弄６１號","OBJECTID":16746},"geometry":{"x":169522.54999999981,"y":2550376.2399999984}},{"attributes":{"ID":16747,"DIS_CODE":0,"TOWNNAME":"仁德區","LI":"仁義里","LIN":"40鄰","STREET":"仁義五街","SECT":" ","MAREA":" ","LANE":" ","ALLEY":" ","HOUSE_NO":"４３號","E_COORD97":173598.42000000001,"N_COORD97":2540451.7599999998,"ADDRESS":"仁義五街４３號","OBJECTID":16747},"geometry":{"x":173598.42000000086,"y":2540451.7599999998}},{"attributes":{"ID":16748,"DIS_CODE":0,"TOWNNAME":"新市區","LI":"新和里","LIN":"40鄰","STREET":"勝利街","SECT":" ","MAREA":" ","LANE":" ","ALLEY":" ","HOUSE_NO":"１５號","E_COORD97":177350.60000000001,"N_COORD97":2552940.5099999998,"ADDRESS":"勝利街１５號","OBJECTID":16748},"geometry":{"x":177350.59999999963,"y":2552940.5100000035}},{"attributes":{"ID":16749,"DIS_CODE":0,"TOWNNAME":"新市區","LI":"新和里","LIN":"40鄰","STREET":"信義街","SECT":" ","MAREA":" ","LANE":" ","ALLEY":" ","HOUSE_NO":"１０１號","E_COORD97":177209.89999999999,"N_COORD97":2552994.52,"ADDRESS":"信義街１０１號","OBJECTID":16749},"geometry":{"x":177209.90000000037,"y":2552994.5200000033}},{"attributes":{"ID":16750,"DIS_CODE":0,"TOWNNAME":"新市區","LI":"新和里","LIN":"40鄰","STREET":"信義街","SECT":" ","MAREA":" ","LANE":" ","ALLEY":" ","HOUSE_NO":"７４號","E_COORD97":177227.67999999999,"N_COORD97":2552920.77,"ADDRESS":"信義街７４號","OBJECTID":16750},"geometry":{"x":177227.6799999997,"y":2552920.7699999996}},{"attributes":{"ID":16751,"DIS_CODE":0,"TOWNNAME":"新市區","LI":"新和里","LIN":"40鄰","STREET":"勝利街","SECT":" ","MAREA":" ","LANE":" ","ALLEY":" ","HOUSE_NO":"４１號","E_COORD97":177285.64999999999,"N_COORD97":2552940.2599999998,"ADDRESS":"勝利街４１號","OBJECTID":16751},"geometry":{"x":177285.6500000013,"y":2552940.2600000016}},{"attributes":{"ID":16752,"DIS_CODE":0,"TOWNNAME":"新市區","LI":"新和里","LIN":"40鄰","STREET":"信義街","SECT":" ","MAREA":" ","LANE":" ","ALLEY":" ","HOUSE_NO":"７２號","E_COORD97":177227.62,"N_COORD97":2552916.52,"ADDRESS":"信義街７２號","OBJECTID":16752},"geometry":{"x":177227.62000000197,"y":2552916.5200000033}},{"attributes":{"ID":16753,"DIS_CODE":0,"TOWNNAME":"永康區","LI":"正強里","LIN":"40鄰","STREET":"四維街","SECT":" ","MAREA":" ","LANE":" ","ALLEY":" ","HOUSE_NO":"１８７號","E_COORD97":173260.38,"N_COORD97":2548450.5699999998,"ADDRESS":"四維街１８７號","OBJECTID":16753},"geometry":{"x":173260.37999999989,"y":2548450.5700000003}},{"attributes":{"ID":16754,"DIS_CODE":0,"TOWNNAME":"安南區","LI":"安順里","LIN":"24鄰","STREET":"北安路","SECT":"三段","MAREA":" ","LANE":"７５２巷","ALLEY":"２２弄","HOUSE_NO":"６３號","E_COORD97":169522.07999999999,"N_COORD97":2550371,"ADDRESS":"北安路三段７５２巷２２弄６３號","OBJECTID":16754},"geometry":{"x":169522.08000000101,"y":2550371.0000000037}},{"attributes":{"ID":16755,"DIS_CODE":0,"TOWNNAME":"安南區","LI":"安順里","LIN":"24鄰","STREET":"北安路","SECT":"三段","MAREA":" ","LANE":"７５２巷","ALLEY":"２２弄","HOUSE_NO":"６５號","E_COORD97":169521.92000000001,"N_COORD97":2550365.7599999998,"ADDRESS":"北安路三段７５２巷２２弄６５號","OBJECTID":16755},"geometry":{"x":169521.91999999993,"y":2550365.7600000035}},{"attributes":{"ID":16756,"DIS_CODE":0,"TOWNNAME":"永康區","LI":"二王里","LIN":"24鄰","STREET":"中山南路","SECT":" ","MAREA":" ","LANE":"５４４巷","ALLEY":"６３弄","HOUSE_NO":"９號","E_COORD97":172365.59,"N_COORD97":2546407.5800000001,"ADDRESS":"中山南路５４４巷６３弄９號","OBJECTID":16756},"geometry":{"x":172365.58999999985,"y":2546407.5800000019}},{"attributes":{"ID":16757,"DIS_CODE":0,"TOWNNAME":"安南區","LI":"安順里","LIN":"24鄰","STREET":"北安路","SECT":"三段","MAREA":" ","LANE":"７５２巷","ALLEY":"２２弄","HOUSE_NO":"８６號","E_COORD97":169508.42000000001,"N_COORD97":2550367.98,"ADDRESS":"北安路三段７５２巷２２弄８６號","OBJECTID":16757},"geometry":{"x":169508.41999999993,"y":2550367.9800000004}},{"attributes":{"ID":16758,"DIS_CODE":0,"TOWNNAME":"安南區","LI":"安順里","LIN":"24鄰","STREET":"北安路","SECT":"三段","MAREA":" ","LANE":"７５２巷","ALLEY":"２２弄","HOUSE_NO":"８２號","E_COORD97":169509.54000000001,"N_COORD97":2550376.8700000001,"ADDRESS":"北安路三段７５２巷２２弄８２號","OBJECTID":16758},"geometry":{"x":169509.54000000004,"y":2550376.8700000029}},{"attributes":{"ID":16759,"DIS_CODE":0,"TOWNNAME":"安南區","LI":"安順里","LIN":"24鄰","STREET":"總安街","SECT":"一段","MAREA":" ","LANE":"１４６巷","ALLEY":"８５弄","HOUSE_NO":"３７號","E_COORD97":169511.28,"N_COORD97":2550447.3599999999,"ADDRESS":"總安街一段１４６巷８５弄３７號","OBJECTID":16759},"geometry":{"x":169511.28000000026,"y":2550447.3600000013}},{"attributes":{"ID":16760,"DIS_CODE":0,"TOWNNAME":"下營區","LI":"紅厝里","LIN":"14鄰","STREET":" ","SECT":" ","MAREA":"紅毛厝","LANE":" ","ALLEY":" ","HOUSE_NO":"１０５號之５","E_COORD97":174952.23000000001,"N_COORD97":2571591.1400000001,"ADDRESS":"紅毛厝１０５號之５","OBJECTID":16760},"geometry":{"x":174952.23000000231,"y":2571591.1400000043}},{"attributes":{"ID":16761,"DIS_CODE":0,"TOWNNAME":"下營區","LI":"紅厝里","LIN":"14鄰","STREET":" ","SECT":" ","MAREA":"紅毛厝","LANE":" ","ALLEY":" ","HOUSE_NO":"１０５號","E_COORD97":174945.73000000001,"N_COORD97":2571611.2200000002,"ADDRESS":"紅毛厝１０５號","OBJECTID":16761},"geometry":{"x":174945.73000000138,"y":2571611.2200000044}},{"attributes":{"ID":16762,"DIS_CODE":0,"TOWNNAME":"下營區","LI":"紅厝里","LIN":"14鄰","STREET":" ","SECT":" ","MAREA":"紅毛厝","LANE":" ","ALLEY":" ","HOUSE_NO":"９５號之４","E_COORD97":175076.53,"N_COORD97":2571583.1899999999,"ADDRESS":"紅毛厝９５號之４","OBJECTID":16762},"geometry":{"x":175076.53000000026,"y":2571583.1900000013}},{"attributes":{"ID":16763,"DIS_CODE":0,"TOWNNAME":"下營區","LI":"紅厝里","LIN":"14鄰","STREET":" ","SECT":" ","MAREA":"紅毛厝","LANE":" ","ALLEY":" ","HOUSE_NO":"９５號之５","E_COORD97":175075.31,"N_COORD97":2571588.1600000001,"ADDRESS":"紅毛厝９５號之５","OBJECTID":16763},"geometry":{"x":175075.31000000052,"y":2571588.160000002}},{"attributes":{"ID":16764,"DIS_CODE":0,"TOWNNAME":"下營區","LI":"紅厝里","LIN":"14鄰","STREET":" ","SECT":" ","MAREA":"紅毛厝","LANE":" ","ALLEY":" ","HOUSE_NO":"９５號之７","E_COORD97":175082.09,"N_COORD97":2571564.8599999999,"ADDRESS":"紅毛厝９５號之７","OBJECTID":16764},"geometry":{"x":175082.09000000078,"y":2571564.8600000031}},{"attributes":{"ID":16765,"DIS_CODE":0,"TOWNNAME":"安南區","LI":"安順里","LIN":"24鄰","STREET":"總安街","SECT":"一段","MAREA":" ","LANE":"１４６巷","ALLEY":"８５弄","HOUSE_NO":"３９號","E_COORD97":169502.54999999999,"N_COORD97":2550448.3100000001,"ADDRESS":"總安街一段１４６巷８５弄３９號","OBJECTID":16765},"geometry":{"x":169502.54999999981,"y":2550448.3100000024}},{"attributes":{"ID":16766,"DIS_CODE":0,"TOWNNAME":"安南區","LI":"安順里","LIN":"24鄰","STREET":"北安路","SECT":"三段","MAREA":" ","LANE":"７５２巷","ALLEY":"１８弄","HOUSE_NO":"２８號","E_COORD97":169457.78,"N_COORD97":2550538.6400000001,"ADDRESS":"北安路三段７５２巷１８弄２８號","OBJECTID":16766},"geometry":{"x":169457.78000000212,"y":2550538.6400000006}},{"attributes":{"ID":16767,"DIS_CODE":0,"TOWNNAME":"安南區","LI":"安順里","LIN":"24鄰","STREET":"北安路","SECT":"三段","MAREA":" ","LANE":"７５２巷","ALLEY":"１８弄","HOUSE_NO":"３號","E_COORD97":169476.35999999999,"N_COORD97":2550567.5299999998,"ADDRESS":"北安路三段７５２巷１８弄３號","OBJECTID":16767},"geometry":{"x":169476.36000000127,"y":2550567.5300000012}},{"attributes":{"ID":16768,"DIS_CODE":0,"TOWNNAME":"安南區","LI":"安順里","LIN":"24鄰","STREET":"北安路","SECT":"三段","MAREA":" ","LANE":"７５２巷","ALLEY":"１８弄","HOUSE_NO":"１７號","E_COORD97":169474.60999999999,"N_COORD97":2550537.5299999998,"ADDRESS":"北安路三段７５２巷１８弄１７號","OBJECTID":16768},"geometry":{"x":169474.61000000127,"y":2550537.5300000012}},{"attributes":{"ID":16769,"DIS_CODE":0,"TOWNNAME":"安南區","LI":"安順里","LIN":"24鄰","STREET":"北安路","SECT":"三段","MAREA":" ","LANE":"７５２巷","ALLEY":"１８弄","HOUSE_NO":"１０號","E_COORD97":169459.37,"N_COORD97":2550568.96,"ADDRESS":"北安路三段７５２巷１８弄１０號","OBJECTID":16769},"geometry":{"x":169459.37000000104,"y":2550568.9600000046}},{"attributes":{"ID":16770,"DIS_CODE":0,"TOWNNAME":"下營區","LI":"紅厝里","LIN":"14鄰","STREET":" ","SECT":" ","MAREA":"紅毛厝","LANE":" ","ALLEY":" ","HOUSE_NO":"９５號","E_COORD97":175093.28,"N_COORD97":2571592.1299999999,"ADDRESS":"紅毛厝９５號","OBJECTID":16770},"geometry":{"x":175093.28000000119,"y":2571592.129999999}},{"attributes":{"ID":16771,"DIS_CODE":0,"TOWNNAME":"下營區","LI":"紅厝里","LIN":"14鄰","STREET":" ","SECT":" ","MAREA":"紅毛厝","LANE":" ","ALLEY":" ","HOUSE_NO":"９６號之１","E_COORD97":175060.42999999999,"N_COORD97":2571561.6099999999,"ADDRESS":"紅毛厝９６號之１","OBJECTID":16771},"geometry":{"x":175060.43000000156,"y":2571561.6099999994}},{"attributes":{"ID":16772,"DIS_CODE":0,"TOWNNAME":"下營區","LI":"紅厝里","LIN":"14鄰","STREET":" ","SECT":" ","MAREA":"紅毛厝","LANE":" ","ALLEY":" ","HOUSE_NO":"９６號","E_COORD97":175041.29999999999,"N_COORD97":2571541.3599999999,"ADDRESS":"紅毛厝９６號","OBJECTID":16772},"geometry":{"x":175041.30000000075,"y":2571541.3600000013}},{"attributes":{"ID":16773,"DIS_CODE":0,"TOWNNAME":"下營區","LI":"紅厝里","LIN":"14鄰","STREET":" ","SECT":" ","MAREA":"紅毛厝","LANE":" ","ALLEY":" ","HOUSE_NO":"９７號","E_COORD97":175048.44,"N_COORD97":2571597.9100000001,"ADDRESS":"紅毛厝９７號","OBJECTID":16773},"geometry":{"x":175048.44000000041,"y":2571597.9100000001}},{"attributes":{"ID":16774,"DIS_CODE":0,"TOWNNAME":"下營區","LI":"紅厝里","LIN":"14鄰","STREET":" ","SECT":" ","MAREA":"紅毛厝","LANE":" ","ALLEY":" ","HOUSE_NO":"９８號","E_COORD97":175033.45000000001,"N_COORD97":2571582.8900000001,"ADDRESS":"紅毛厝９８號","OBJECTID":16774},"geometry":{"x":175033.44999999925,"y":2571582.8900000043}},{"attributes":{"ID":16775,"DIS_CODE":0,"TOWNNAME":"將軍區","LI":"玉山里","LIN":"14鄰","STREET":" ","SECT":" ","MAREA":"玉山","LANE":" ","ALLEY":" ","HOUSE_NO":"１１７號","E_COORD97":160528.14999999999,"N_COORD97":2567946.4199999999,"ADDRESS":"玉山１１７號","OBJECTID":16775},"geometry":{"x":160528.15000000037,"y":2567946.4199999999}},{"attributes":{"ID":16776,"DIS_CODE":0,"TOWNNAME":"將軍區","LI":"苓和里","LIN":"8鄰","STREET":" ","SECT":" ","MAREA":"苓和","LANE":" ","ALLEY":" ","HOUSE_NO":"７７號","E_COORD97":164478.45000000001,"N_COORD97":2568929.6400000001,"ADDRESS":"苓和７７號","OBJECTID":16776},"geometry":{"x":164478.45000000112,"y":2568929.6400000043}},{"attributes":{"ID":16777,"DIS_CODE":0,"TOWNNAME":"安南區","LI":"安順里","LIN":"24鄰","STREET":"北安路","SECT":"三段","MAREA":" ","LANE":"７５２巷","ALLEY":"１８弄","HOUSE_NO":"１２號","E_COORD97":169459.37,"N_COORD97":2550564.04,"ADDRESS":"北安路三段７５２巷１８弄１２號","OBJECTID":16777},"geometry":{"x":169459.37000000104,"y":2550564.040000001}},{"attributes":{"ID":16778,"DIS_CODE":0,"TOWNNAME":"安南區","LI":"安順里","LIN":"24鄰","STREET":"北安路","SECT":"三段","MAREA":" ","LANE":"７５２巷","ALLEY":"１８弄","HOUSE_NO":"１號","E_COORD97":169476.67000000001,"N_COORD97":2550574.04,"ADDRESS":"北安路三段７５２巷１８弄１號","OBJECTID":16778},"geometry":{"x":169476.67000000179,"y":2550574.040000001}},{"attributes":{"ID":16779,"DIS_CODE":0,"TOWNNAME":"安南區","LI":"安順里","LIN":"24鄰","STREET":"北安路","SECT":"三段","MAREA":" ","LANE":"７５２巷","ALLEY":"１８弄","HOUSE_NO":"１１號","E_COORD97":169475.09,"N_COORD97":2550550.71,"ADDRESS":"北安路三段７５２巷１８弄１１號","OBJECTID":16779},"geometry":{"x":169475.08999999985,"y":2550550.7100000028}},{"attributes":{"ID":16780,"DIS_CODE":0,"TOWNNAME":"安南區","LI":"安順里","LIN":"24鄰","STREET":"北安路","SECT":"三段","MAREA":" ","LANE":"７５２巷","ALLEY":"１８弄","HOUSE_NO":"１３號","E_COORD97":169474.76999999999,"N_COORD97":2550546.8999999999,"ADDRESS":"北安路三段７５２巷１８弄１３號","OBJECTID":16780},"geometry":{"x":169474.76999999955,"y":2550546.9000000004}},{"attributes":{"ID":16781,"DIS_CODE":0,"TOWNNAME":"歸仁區","LI":"南保里","LIN":"60鄰","STREET":"民權十街","SECT":" ","MAREA":" ","LANE":" ","ALLEY":" ","HOUSE_NO":"７４號","E_COORD97":176726.67000000001,"N_COORD97":2540777.29,"ADDRESS":"民權十街７４號","OBJECTID":16781},"geometry":{"x":176726.66999999993,"y":2540777.290000001}},{"attributes":{"ID":16782,"DIS_CODE":0,"TOWNNAME":"歸仁區","LI":"南保里","LIN":"60鄰","STREET":"民權十街","SECT":" ","MAREA":" ","LANE":" ","ALLEY":" ","HOUSE_NO":"７６號","E_COORD97":176715.69,"N_COORD97":2540775.25,"ADDRESS":"民權十街７６號","OBJECTID":16782},"geometry":{"x":176715.69000000134,"y":2540775.2500000019}},{"attributes":{"ID":16783,"DIS_CODE":0,"TOWNNAME":"歸仁區","LI":"南保里","LIN":"60鄰","STREET":"民權十街","SECT":" ","MAREA":" ","LANE":" ","ALLEY":" ","HOUSE_NO":"８０號","E_COORD97":176712.26999999999,"N_COORD97":2540778.29,"ADDRESS":"民權十街８０號","OBJECTID":16783},"geometry":{"x":176712.26999999862,"y":2540778.290000001}},{"attributes":{"ID":16784,"DIS_CODE":0,"TOWNNAME":"歸仁區","LI":"南保里","LIN":"60鄰","STREET":"民權十街","SECT":" ","MAREA":" ","LANE":" ","ALLEY":" ","HOUSE_NO":"７２號","E_COORD97":176734.87,"N_COORD97":2540795.29,"ADDRESS":"民權十街７２號","OBJECTID":16784},"geometry":{"x":176734.87000000104,"y":2540795.290000001}},{"attributes":{"ID":16785,"DIS_CODE":0,"TOWNNAME":"東區","LI":"大智里","LIN":"24鄰","STREET":"文東街","SECT":" ","MAREA":" ","LANE":" ","ALLEY":" ","HOUSE_NO":"１００號","E_COORD97":171459.79000000001,"N_COORD97":2540164.27,"ADDRESS":"文東街１００號","OBJECTID":16785},"geometry":{"x":171459.79000000097,"y":2540164.2700000014}},{"attributes":{"ID":16786,"DIS_CODE":0,"TOWNNAME":"東區","LI":"大智里","LIN":"24鄰","STREET":"文東街","SECT":" ","MAREA":" ","LANE":" ","ALLEY":" ","HOUSE_NO":"１０４號","E_COORD97":171468.56,"N_COORD97":2540165.27,"ADDRESS":"文東街１０４號","OBJECTID":16786},"geometry":{"x":171468.55999999959,"y":2540165.2700000014}},{"attributes":{"ID":16787,"DIS_CODE":0,"TOWNNAME":"官田區","LI":"二鎮里","LIN":"14鄰","STREET":" ","SECT":" ","MAREA":"程泰","LANE":" ","ALLEY":" ","HOUSE_NO":"６７號","E_COORD97":181616.42999999999,"N_COORD97":2566557.4399999999,"ADDRESS":"程泰６７號","OBJECTID":16787},"geometry":{"x":181616.43000000063,"y":2566557.4400000013}},{"attributes":{"ID":16788,"DIS_CODE":0,"TOWNNAME":"安南區","LI":"安順里","LIN":"24鄰","STREET":"北安路","SECT":"三段","MAREA":" ","LANE":"７５２巷","ALLEY":"１８弄","HOUSE_NO":"１５號","E_COORD97":169474.45000000001,"N_COORD97":2550541.98,"ADDRESS":"北安路三段７５２巷１８弄１５號","OBJECTID":16788},"geometry":{"x":169474.45000000019,"y":2550541.9800000023}},{"attributes":{"ID":16789,"DIS_CODE":0,"TOWNNAME":"安南區","LI":"安順里","LIN":"24鄰","STREET":"北安路","SECT":"三段","MAREA":" ","LANE":"７５２巷","ALLEY":"１８弄","HOUSE_NO":"５號","E_COORD97":169476.04000000001,"N_COORD97":2550563.4100000001,"ADDRESS":"北安路三段７５２巷１８弄５號","OBJECTID":16789},"geometry":{"x":169476.0400000019,"y":2550563.4100000001}},{"attributes":{"ID":16790,"DIS_CODE":0,"TOWNNAME":"安南區","LI":"州北里","LIN":"24鄰","STREET":"安和路","SECT":"五段","MAREA":" ","LANE":"８４巷","ALLEY":"６４弄","HOUSE_NO":"５８號","E_COORD97":170183.78,"N_COORD97":2551774.0299999998,"ADDRESS":"安和路五段８４巷６４弄５８號","OBJECTID":16790},"geometry":{"x":170183.78000000119,"y":2551774.0300000012}},{"attributes":{"ID":16791,"DIS_CODE":0,"TOWNNAME":"永康區","LI":"北灣里","LIN":"24鄰","STREET":"大灣路","SECT":" ","MAREA":" ","LANE":"３７巷","ALLEY":"８弄","HOUSE_NO":"５號","E_COORD97":175369.34,"N_COORD97":2545829.25,"ADDRESS":"大灣路３７巷８弄５號","OBJECTID":16791},"geometry":{"x":175369.33999999985,"y":2545829.25}},{"attributes":{"ID":16792,"DIS_CODE":0,"TOWNNAME":"安平區","LI":"文平里","LIN":"13鄰","STREET":"建平五街","SECT":" ","MAREA":" ","LANE":"２２巷","ALLEY":"３６弄","HOUSE_NO":"５５號之１","E_COORD97":165989.76000000001,"N_COORD97":2543209.4100000001,"ADDRESS":"建平五街２２巷３６弄５５號之１","OBJECTID":16792},"geometry":{"x":165989.75999999978,"y":2543209.410000002}},{"attributes":{"ID":16793,"DIS_CODE":0,"TOWNNAME":"永康區","LI":"永康里","LIN":"24鄰","STREET":"中山南路","SECT":" ","MAREA":" ","LANE":"６２１巷","ALLEY":"３５弄","HOUSE_NO":"３號","E_COORD97":173523.04000000001,"N_COORD97":2547315.9900000002,"ADDRESS":"中山南路６２１巷３５弄３號","OBJECTID":16793},"geometry":{"x":173523.04000000097,"y":2547315.9900000002}},{"attributes":{"ID":16794,"DIS_CODE":0,"TOWNNAME":"永康區","LI":"北灣里","LIN":"24鄰","STREET":"大灣路","SECT":" ","MAREA":" ","LANE":"３７巷","ALLEY":"３０弄","HOUSE_NO":"２２號","E_COORD97":175429.35000000001,"N_COORD97":2545801.7200000002,"ADDRESS":"大灣路３７巷３０弄２２號","OBJECTID":16794},"geometry":{"x":175429.35000000056,"y":2545801.7200000007}},{"attributes":{"ID":16795,"DIS_CODE":0,"TOWNNAME":"永康區","LI":"北灣里","LIN":"24鄰","STREET":"大灣路","SECT":" ","MAREA":" ","LANE":"３７巷","ALLEY":"３０弄","HOUSE_NO":"３２號","E_COORD97":175431.79999999999,"N_COORD97":2545779.71,"ADDRESS":"大灣路３７巷３０弄３２號","OBJECTID":16795},"geometry":{"x":175431.79999999981,"y":2545779.7100000009}},{"attributes":{"ID":16796,"DIS_CODE":0,"TOWNNAME":"新營區","LI":"南紙里","LIN":"24鄰","STREET":"南紙街","SECT":" ","MAREA":" ","LANE":"１１７巷","ALLEY":"４０弄","HOUSE_NO":"１號五樓之６","E_COORD97":177950.01999999999,"N_COORD97":2577430.8599999999,"ADDRESS":"南紙街１１７巷４０弄１號五樓之６","OBJECTID":16796},"geometry":{"x":177950.02000000048,"y":2577430.8600000013}},{"attributes":{"ID":16797,"DIS_CODE":0,"TOWNNAME":"新營區","LI":"南紙里","LIN":"24鄰","STREET":"南紙街","SECT":" ","MAREA":" ","LANE":"１１７巷","ALLEY":"４０弄","HOUSE_NO":"１號六樓之１８","E_COORD97":177951.31,"N_COORD97":2577430.8599999999,"ADDRESS":"南紙街１１７巷４０弄１號六樓之１８","OBJECTID":16797},"geometry":{"x":177951.31000000145,"y":2577430.8600000013}},{"attributes":{"ID":16798,"DIS_CODE":0,"TOWNNAME":"新營區","LI":"南紙里","LIN":"24鄰","STREET":"南紙街","SECT":" ","MAREA":" ","LANE":"１１７巷","ALLEY":"４０弄","HOUSE_NO":"１號六樓之１６","E_COORD97":177951.26999999999,"N_COORD97":2577430.8599999999,"ADDRESS":"南紙街１１７巷４０弄１號六樓之１６","OBJECTID":16798},"geometry":{"x":177951.26999999955,"y":2577430.8600000013}},{"attributes":{"ID":16799,"DIS_CODE":0,"TOWNNAME":"新營區","LI":"南紙里","LIN":"24鄰","STREET":"南紙街","SECT":" ","MAREA":" ","LANE":"１１７巷","ALLEY":"４０弄","HOUSE_NO":"１號五樓之２０","E_COORD97":177951.22,"N_COORD97":2577430.8599999999,"ADDRESS":"南紙街１１７巷４０弄１號五樓之２０","OBJECTID":16799},"geometry":{"x":177951.22000000067,"y":2577430.8600000013}},{"attributes":{"ID":16800,"DIS_CODE":0,"TOWNNAME":"新營區","LI":"南紙里","LIN":"24鄰","STREET":"南紙街","SECT":" ","MAREA":" ","LANE":"１１７巷","ALLEY":"４０弄","HOUSE_NO":"１號五樓之４","E_COORD97":177949.94,"N_COORD97":2577430.8599999999,"ADDRESS":"南紙街１１７巷４０弄１號五樓之４","OBJECTID":16800},"geometry":{"x":177949.94000000134,"y":2577430.8600000013}}]}