{"displayFieldName":"TOWNNAME","fieldAliases":{"ID":"ID","DIS_CODE":"DIS_CODE","TOWNNAME":"TOWNNAME","LI":"LI","LIN":"LIN","STREET":"STREET","SECT":"SECT","MAREA":"MAREA","LANE":"LANE","ALLEY":"ALLEY","HOUSE_NO":"HOUSE_NO","E_COORD97":"E_COORD97","N_COORD97":"N_COORD97","ADDRESS":"ADDRESS","OBJECTID":"OBJECTID"},"geometryType":"esriGeometryPoint","spatialReference":{"wkid":102443,"latestWkid":3826},"fields":[{"name":"ID","type":"esriFieldTypeDouble","alias":"ID"},{"name":"DIS_CODE","type":"esriFieldTypeInteger","alias":"DIS_CODE"},{"name":"TOWNNAME","type":"esriFieldTypeString","alias":"TOWNNAME","length":8},{"name":"LI","type":"esriFieldTypeString","alias":"LI","length":8},{"name":"LIN","type":"esriFieldTypeString","alias":"LIN","length":12},{"name":"STREET","type":"esriFieldTypeString","alias":"STREET","length":20},{"name":"SECT","type":"esriFieldTypeString","alias":"SECT","length":8},{"name":"MAREA","type":"esriFieldTypeString","alias":"MAREA","length":12},{"name":"LANE","type":"esriFieldTypeString","alias":"LANE","length":10},{"name":"ALLEY","type":"esriFieldTypeString","alias":"ALLEY","length":10},{"name":"HOUSE_NO","type":"esriFieldTypeString","alias":"HOUSE_NO","length":20},{"name":"E_COORD97","type":"esriFieldTypeDouble","alias":"E_COORD97"},{"name":"N_COORD97","type":"esriFieldTypeDouble","alias":"N_COORD97"},{"name":"ADDRESS","type":"esriFieldTypeString","alias":"ADDRESS","length":50},{"name":"OBJECTID","type":"esriFieldTypeOID","alias":"OBJECTID"}],"features":[{"attributes":{"ID":348810,"DIS_CODE":0,"TOWNNAME":"安南區","LI":"梅花里","LIN":"18鄰","STREET":"同安路","SECT":" ","MAREA":" ","LANE":"３８２巷","ALLEY":" ","HOUSE_NO":"１２號","E_COORD97":167346.10000000001,"N_COORD97":2549322.23,"ADDRESS":"同安路３８２巷１２號","OBJECTID":348801},"geometry":{"x":167346.10000000149,"y":2549322.2300000042}},{"attributes":{"ID":348811,"DIS_CODE":0,"TOWNNAME":"北區","LI":"正覺里","LIN":"6鄰","STREET":"西門路","SECT":"四段","MAREA":" ","LANE":"４３０巷","ALLEY":" ","HOUSE_NO":"１０號","E_COORD97":169114.25,"N_COORD97":2546187.1099999999,"ADDRESS":"西門路四段４３０巷１０號","OBJECTID":348802},"geometry":{"x":169114.25000000093,"y":2546187.1100000013}},{"attributes":{"ID":348812,"DIS_CODE":0,"TOWNNAME":"東區","LI":"虎尾里","LIN":"8鄰","STREET":"東成街","SECT":" ","MAREA":" ","LANE":" ","ALLEY":" ","HOUSE_NO":"１４０號","E_COORD97":171647.85999999999,"N_COORD97":2542292.71,"ADDRESS":"東成街１４０號","OBJECTID":348803},"geometry":{"x":171647.86000000127,"y":2542292.7100000028}},{"attributes":{"ID":348813,"DIS_CODE":0,"TOWNNAME":"東區","LI":"崇德里","LIN":"8鄰","STREET":"崇善路","SECT":" ","MAREA":" ","LANE":" ","ALLEY":" ","HOUSE_NO":"３５８號","E_COORD97":170904.32999999999,"N_COORD97":2541775.79,"ADDRESS":"崇善路３５８號","OBJECTID":348804},"geometry":{"x":170904.33000000007,"y":2541775.7899999991}},{"attributes":{"ID":348814,"DIS_CODE":0,"TOWNNAME":"東區","LI":"南聖里","LIN":"8鄰","STREET":"裕農一街","SECT":" ","MAREA":" ","LANE":" ","ALLEY":" ","HOUSE_NO":"２８號","E_COORD97":171901.56,"N_COORD97":2543121.3599999999,"ADDRESS":"裕農一街２８號","OBJECTID":348805},"geometry":{"x":171901.56000000052,"y":2543121.3599999994}},{"attributes":{"ID":348815,"DIS_CODE":0,"TOWNNAME":"中西區","LI":"永福里","LIN":"8鄰","STREET":"中正路","SECT":" ","MAREA":" ","LANE":" ","ALLEY":" ","HOUSE_NO":"８６號","E_COORD97":168084.23999999999,"N_COORD97":2543663.25,"ADDRESS":"中正路８６號","OBJECTID":348806},"geometry":{"x":168084.24000000022,"y":2543663.2500000037}},{"attributes":{"ID":348816,"DIS_CODE":0,"TOWNNAME":"中西區","LI":"永福里","LIN":"8鄰","STREET":"忠義路","SECT":"二段","MAREA":" ","LANE":" ","ALLEY":" ","HOUSE_NO":"７５號","E_COORD97":168267.06,"N_COORD97":2543670.8500000001,"ADDRESS":"忠義路二段７５號","OBJECTID":348807},"geometry":{"x":168267.06000000052,"y":2543670.8499999996}},{"attributes":{"ID":348817,"DIS_CODE":0,"TOWNNAME":"安南區","LI":"梅花里","LIN":"18鄰","STREET":"同安路","SECT":" ","MAREA":" ","LANE":"３８２巷","ALLEY":" ","HOUSE_NO":"２號","E_COORD97":167328.01999999999,"N_COORD97":2549334.1299999999,"ADDRESS":"同安路３８２巷２號","OBJECTID":348808},"geometry":{"x":167328.02000000048,"y":2549334.129999999}},{"attributes":{"ID":348818,"DIS_CODE":0,"TOWNNAME":"安南區","LI":"梅花里","LIN":"18鄰","STREET":"同安路","SECT":" ","MAREA":" ","LANE":"３８２巷","ALLEY":" ","HOUSE_NO":"４號","E_COORD97":167331.63,"N_COORD97":2549332,"ADDRESS":"同安路３８２巷４號","OBJECTID":348809},"geometry":{"x":167331.63000000082,"y":2549332}},{"attributes":{"ID":348819,"DIS_CODE":0,"TOWNNAME":"安南區","LI":"梅花里","LIN":"18鄰","STREET":"同安路","SECT":" ","MAREA":" ","LANE":"３８２巷","ALLEY":" ","HOUSE_NO":"６號","E_COORD97":167335.45999999999,"N_COORD97":2549329.8799999999,"ADDRESS":"同安路３８２巷６號","OBJECTID":348810},"geometry":{"x":167335.46000000183,"y":2549329.8800000027}},{"attributes":{"ID":348820,"DIS_CODE":0,"TOWNNAME":"安南區","LI":"梅花里","LIN":"18鄰","STREET":"同安路","SECT":" ","MAREA":" ","LANE":"３８２巷","ALLEY":" ","HOUSE_NO":"８號","E_COORD97":167339.51000000001,"N_COORD97":2549327.3300000001,"ADDRESS":"同安路３８２巷８號","OBJECTID":348811},"geometry":{"x":167339.50999999978,"y":2549327.3300000001}},{"attributes":{"ID":348821,"DIS_CODE":0,"TOWNNAME":"仁德區","LI":"後壁里","LIN":"18鄰","STREET":"德南路","SECT":" ","MAREA":" ","LANE":"７０巷","ALLEY":" ","HOUSE_NO":"２９號","E_COORD97":173387.32000000001,"N_COORD97":2538634.0099999998,"ADDRESS":"德南路７０巷２９號","OBJECTID":348812},"geometry":{"x":173387.32000000123,"y":2538634.0100000016}},{"attributes":{"ID":348822,"DIS_CODE":0,"TOWNNAME":"北區","LI":"正覺里","LIN":"6鄰","STREET":"西門路","SECT":"四段","MAREA":" ","LANE":"４３０巷","ALLEY":" ","HOUSE_NO":"１２號","E_COORD97":169117.38,"N_COORD97":2546184.8599999999,"ADDRESS":"西門路四段４３０巷１２號","OBJECTID":348813},"geometry":{"x":169117.37999999989,"y":2546184.8600000013}},{"attributes":{"ID":348823,"DIS_CODE":0,"TOWNNAME":"北區","LI":"正覺里","LIN":"6鄰","STREET":"西門路","SECT":"四段","MAREA":" ","LANE":"４３０巷","ALLEY":" ","HOUSE_NO":"１４號","E_COORD97":169120.51999999999,"N_COORD97":2546181.73,"ADDRESS":"西門路四段４３０巷１４號","OBJECTID":348814},"geometry":{"x":169120.51999999955,"y":2546181.7300000004}},{"attributes":{"ID":348824,"DIS_CODE":0,"TOWNNAME":"北區","LI":"正覺里","LIN":"6鄰","STREET":"西門路","SECT":"四段","MAREA":" ","LANE":"４３０巷","ALLEY":" ","HOUSE_NO":"１６號","E_COORD97":169125.41,"N_COORD97":2546178.2000000002,"ADDRESS":"西門路四段４３０巷１６號","OBJECTID":348815},"geometry":{"x":169125.41000000015,"y":2546178.1999999974}},{"attributes":{"ID":348825,"DIS_CODE":0,"TOWNNAME":"北區","LI":"正覺里","LIN":"6鄰","STREET":"西門路","SECT":"四段","MAREA":" ","LANE":"４３０巷","ALLEY":" ","HOUSE_NO":"１８號","E_COORD97":169130.51000000001,"N_COORD97":2546174.1899999999,"ADDRESS":"西門路四段４３０巷１８號","OBJECTID":348816},"geometry":{"x":169130.51000000071,"y":2546174.1899999995}},{"attributes":{"ID":348826,"DIS_CODE":0,"TOWNNAME":"北區","LI":"正覺里","LIN":"6鄰","STREET":"西門路","SECT":"四段","MAREA":" ","LANE":"４３０巷","ALLEY":" ","HOUSE_NO":"２０號","E_COORD97":169135.89000000001,"N_COORD97":2546170.3700000001,"ADDRESS":"西門路四段４３０巷２０號","OBJECTID":348817},"geometry":{"x":169135.89000000153,"y":2546170.3700000029}},{"attributes":{"ID":348827,"DIS_CODE":0,"TOWNNAME":"北區","LI":"正覺里","LIN":"6鄰","STREET":"西門路","SECT":"四段","MAREA":" ","LANE":"４３０巷","ALLEY":" ","HOUSE_NO":"２２號","E_COORD97":169139.70999999999,"N_COORD97":2546166.46,"ADDRESS":"西門路四段４３０巷２２號","OBJECTID":348818},"geometry":{"x":169139.71000000089,"y":2546166.4600000028}},{"attributes":{"ID":348828,"DIS_CODE":0,"TOWNNAME":"北區","LI":"正覺里","LIN":"6鄰","STREET":"西門路","SECT":"四段","MAREA":" ","LANE":"４３０巷","ALLEY":" ","HOUSE_NO":"２４號","E_COORD97":169145.29000000001,"N_COORD97":2546162.7400000002,"ADDRESS":"西門路四段４３０巷２４號","OBJECTID":348819},"geometry":{"x":169145.28999999911,"y":2546162.7400000021}},{"attributes":{"ID":348829,"DIS_CODE":0,"TOWNNAME":"北區","LI":"正覺里","LIN":"6鄰","STREET":"西門路","SECT":"四段","MAREA":" ","LANE":"４３０巷","ALLEY":" ","HOUSE_NO":"２６號","E_COORD97":169150.19,"N_COORD97":2546160,"ADDRESS":"西門路四段４３０巷２６號","OBJECTID":348820},"geometry":{"x":169150.19000000134,"y":2546159.9999999981}},{"attributes":{"ID":348830,"DIS_CODE":0,"TOWNNAME":"歸仁區","LI":"大廟里","LIN":"6鄰","STREET":"大廟一街","SECT":" ","MAREA":" ","LANE":"１６１巷","ALLEY":" ","HOUSE_NO":"９號","E_COORD97":175717.22,"N_COORD97":2543784.25,"ADDRESS":"大廟一街１６１巷９號","OBJECTID":348821},"geometry":{"x":175717.21999999974,"y":2543784.25}},{"attributes":{"ID":348831,"DIS_CODE":0,"TOWNNAME":"中西區","LI":"永福里","LIN":"8鄰","STREET":"忠義路","SECT":"二段","MAREA":" ","LANE":" ","ALLEY":" ","HOUSE_NO":"７９號","E_COORD97":168263.78,"N_COORD97":2543679.4100000001,"ADDRESS":"忠義路二段７９號","OBJECTID":348822},"geometry":{"x":168263.78000000026,"y":2543679.4100000039}},{"attributes":{"ID":348832,"DIS_CODE":0,"TOWNNAME":"中西區","LI":"永福里","LIN":"8鄰","STREET":"中正路","SECT":" ","MAREA":" ","LANE":" ","ALLEY":" ","HOUSE_NO":"４０號","E_COORD97":168218.19,"N_COORD97":2543631.6299999999,"ADDRESS":"中正路４０號","OBJECTID":348823},"geometry":{"x":168218.19000000134,"y":2543631.629999999}},{"attributes":{"ID":348833,"DIS_CODE":0,"TOWNNAME":"安平區","LI":"港仔里","LIN":"1鄰","STREET":"安平路","SECT":" ","MAREA":" ","LANE":" ","ALLEY":" ","HOUSE_NO":"５３號","E_COORD97":164546.64999999999,"N_COORD97":2544448.1499999999,"ADDRESS":"安平路５３號","OBJECTID":348824},"geometry":{"x":164546.6500000013,"y":2544448.1500000022}},{"attributes":{"ID":348834,"DIS_CODE":0,"TOWNNAME":"中西區","LI":"永福里","LIN":"8鄰","STREET":"中正路","SECT":" ","MAREA":" ","LANE":" ","ALLEY":" ","HOUSE_NO":"４２號","E_COORD97":168210.70000000001,"N_COORD97":2543633.8399999999,"ADDRESS":"中正路４２號","OBJECTID":348825},"geometry":{"x":168210.70000000112,"y":2543633.8399999999}},{"attributes":{"ID":348835,"DIS_CODE":0,"TOWNNAME":"中西區","LI":"永福里","LIN":"8鄰","STREET":"中正路","SECT":" ","MAREA":" ","LANE":" ","ALLEY":" ","HOUSE_NO":"４６號","E_COORD97":168202.94,"N_COORD97":2543635.7799999998,"ADDRESS":"中正路４６號","OBJECTID":348826},"geometry":{"x":168202.94000000134,"y":2543635.7800000012}},{"attributes":{"ID":348836,"DIS_CODE":0,"TOWNNAME":"中西區","LI":"永福里","LIN":"8鄰","STREET":"中正路","SECT":" ","MAREA":" ","LANE":" ","ALLEY":" ","HOUSE_NO":"４８號","E_COORD97":168190.95999999999,"N_COORD97":2543638.4199999999,"ADDRESS":"中正路４８號","OBJECTID":348827},"geometry":{"x":168190.95999999996,"y":2543638.4200000037}},{"attributes":{"ID":348837,"DIS_CODE":0,"TOWNNAME":"歸仁區","LI":"七甲里","LIN":"6鄰","STREET":"七甲三街","SECT":" ","MAREA":" ","LANE":"１５巷","ALLEY":" ","HOUSE_NO":"３６號","E_COORD97":177550.04000000001,"N_COORD97":2542924.2599999998,"ADDRESS":"七甲三街１５巷３６號","OBJECTID":348828},"geometry":{"x":177550.03999999911,"y":2542924.2600000016}},{"attributes":{"ID":348838,"DIS_CODE":0,"TOWNNAME":"南區","LI":"永寧里","LIN":"6鄰","STREET":"灣裡路","SECT":" ","MAREA":" ","LANE":"８８巷","ALLEY":" ","HOUSE_NO":"１３６號","E_COORD97":165871.73000000001,"N_COORD97":2536556.8300000001,"ADDRESS":"灣裡路８８巷１３６號","OBJECTID":348829},"geometry":{"x":165871.73000000138,"y":2536556.8300000019}},{"attributes":{"ID":348839,"DIS_CODE":0,"TOWNNAME":"南區","LI":"永寧里","LIN":"6鄰","STREET":"灣裡路","SECT":" ","MAREA":" ","LANE":"８８巷","ALLEY":" ","HOUSE_NO":"１３８號之１","E_COORD97":165867.94,"N_COORD97":2536547.9300000002,"ADDRESS":"灣裡路８８巷１３８號之１","OBJECTID":348830},"geometry":{"x":165867.94000000227,"y":2536547.9299999997}},{"attributes":{"ID":348840,"DIS_CODE":0,"TOWNNAME":"楠西區","LI":"東勢里","LIN":"6鄰","STREET":"仁愛路","SECT":" ","MAREA":" ","LANE":"１９１巷","ALLEY":" ","HOUSE_NO":"５０號","E_COORD97":197404.14000000001,"N_COORD97":2563904.2799999998,"ADDRESS":"仁愛路１９１巷５０號","OBJECTID":348831},"geometry":{"x":197404.13999999966,"y":2563904.2800000012}},{"attributes":{"ID":348841,"DIS_CODE":0,"TOWNNAME":"楠西區","LI":"東勢里","LIN":"6鄰","STREET":"仁愛路","SECT":" ","MAREA":" ","LANE":"１９１巷","ALLEY":" ","HOUSE_NO":"３８號","E_COORD97":197417.34,"N_COORD97":2563904.2799999998,"ADDRESS":"仁愛路１９１巷３８號","OBJECTID":348832},"geometry":{"x":197417.34000000171,"y":2563904.2800000012}},{"attributes":{"ID":348842,"DIS_CODE":0,"TOWNNAME":"楠西區","LI":"東勢里","LIN":"6鄰","STREET":"仁愛路","SECT":" ","MAREA":" ","LANE":"１９１巷","ALLEY":" ","HOUSE_NO":"１６號","E_COORD97":197463.23999999999,"N_COORD97":2563910.2799999998,"ADDRESS":"仁愛路１９１巷１６號","OBJECTID":348833},"geometry":{"x":197463.24000000115,"y":2563910.2800000012}},{"attributes":{"ID":348843,"DIS_CODE":0,"TOWNNAME":"楠西區","LI":"東勢里","LIN":"6鄰","STREET":"民生路","SECT":" ","MAREA":" ","LANE":"６巷","ALLEY":" ","HOUSE_NO":"８號","E_COORD97":197356.79000000001,"N_COORD97":2563900.29,"ADDRESS":"民生路６巷８號","OBJECTID":348834},"geometry":{"x":197356.7900000019,"y":2563900.290000001}},{"attributes":{"ID":348844,"DIS_CODE":0,"TOWNNAME":"楠西區","LI":"東勢里","LIN":"6鄰","STREET":"民生路","SECT":" ","MAREA":" ","LANE":"６巷","ALLEY":" ","HOUSE_NO":"２號","E_COORD97":197366.89000000001,"N_COORD97":2563905.29,"ADDRESS":"民生路６巷２號","OBJECTID":348835},"geometry":{"x":197366.88999999966,"y":2563905.2899999991}},{"attributes":{"ID":348845,"DIS_CODE":0,"TOWNNAME":"南區","LI":"大恩里","LIN":"6鄰","STREET":"大同路","SECT":"二段","MAREA":" ","LANE":"７０４巷","ALLEY":" ","HOUSE_NO":"１４號","E_COORD97":169511.87,"N_COORD97":2540853.6200000001,"ADDRESS":"大同路二段７０４巷１４號","OBJECTID":348836},"geometry":{"x":169511.87000000104,"y":2540853.620000001}},{"attributes":{"ID":348846,"DIS_CODE":0,"TOWNNAME":"南區","LI":"大恩里","LIN":"6鄰","STREET":"大同路","SECT":"二段","MAREA":" ","LANE":"７０４巷","ALLEY":" ","HOUSE_NO":"１５號","E_COORD97":169511.23000000001,"N_COORD97":2540830.52,"ADDRESS":"大同路二段７０４巷１５號","OBJECTID":348837},"geometry":{"x":169511.23000000138,"y":2540830.5200000014}},{"attributes":{"ID":348847,"DIS_CODE":0,"TOWNNAME":"南區","LI":"大恩里","LIN":"6鄰","STREET":"大同路","SECT":"二段","MAREA":" ","LANE":"７０４巷","ALLEY":" ","HOUSE_NO":"１６號","E_COORD97":169496.09,"N_COORD97":2540852.6499999999,"ADDRESS":"大同路二段７０４巷１６號","OBJECTID":348838},"geometry":{"x":169496.09000000078,"y":2540852.6500000004}},{"attributes":{"ID":348848,"DIS_CODE":0,"TOWNNAME":"南區","LI":"大恩里","LIN":"6鄰","STREET":"大同路","SECT":"二段","MAREA":" ","LANE":"７０４巷","ALLEY":" ","HOUSE_NO":"１７號","E_COORD97":169492.98000000001,"N_COORD97":2540817.4300000002,"ADDRESS":"大同路二段７０４巷１７號","OBJECTID":348839},"geometry":{"x":169492.98000000045,"y":2540817.4300000016}},{"attributes":{"ID":348849,"DIS_CODE":0,"TOWNNAME":"南區","LI":"大恩里","LIN":"6鄰","STREET":"大同路","SECT":"二段","MAREA":" ","LANE":"７０４巷","ALLEY":" ","HOUSE_NO":"１８號","E_COORD97":169484.60000000001,"N_COORD97":2540847.1800000002,"ADDRESS":"大同路二段７０４巷１８號","OBJECTID":348840},"geometry":{"x":169484.59999999963,"y":2540847.1800000016}},{"attributes":{"ID":348850,"DIS_CODE":0,"TOWNNAME":"南區","LI":"大恩里","LIN":"6鄰","STREET":"大同路","SECT":"二段","MAREA":" ","LANE":"７０４巷","ALLEY":" ","HOUSE_NO":"２０號","E_COORD97":169480.29999999999,"N_COORD97":2540846.96,"ADDRESS":"大同路二段７０４巷２０號","OBJECTID":348841},"geometry":{"x":169480.29999999981,"y":2540846.9600000028}},{"attributes":{"ID":348851,"DIS_CODE":0,"TOWNNAME":"南區","LI":"大恩里","LIN":"6鄰","STREET":"大同路","SECT":"二段","MAREA":" ","LANE":"７０４巷","ALLEY":" ","HOUSE_NO":"２１號","E_COORD97":169481.20000000001,"N_COORD97":2540824.0099999998,"ADDRESS":"大同路二段７０４巷２１號","OBJECTID":348842},"geometry":{"x":169481.20000000019,"y":2540824.0100000016}},{"attributes":{"ID":348852,"DIS_CODE":0,"TOWNNAME":"中西區","LI":"三合里","LIN":"5鄰","STREET":"忠孝街","SECT":" ","MAREA":" ","LANE":"１１６巷","ALLEY":" ","HOUSE_NO":"１０號之１","E_COORD97":167787.14000000001,"N_COORD97":2544536.3100000001,"ADDRESS":"忠孝街１１６巷１０號之１","OBJECTID":348843},"geometry":{"x":167787.1400000006,"y":2544536.3100000024}},{"attributes":{"ID":348853,"DIS_CODE":0,"TOWNNAME":"中西區","LI":"三合里","LIN":"5鄰","STREET":"忠孝街","SECT":" ","MAREA":" ","LANE":"１１６巷","ALLEY":" ","HOUSE_NO":"１２號","E_COORD97":167794.17999999999,"N_COORD97":2544537.79,"ADDRESS":"忠孝街１１６巷１２號","OBJECTID":348844},"geometry":{"x":167794.1799999997,"y":2544537.790000001}},{"attributes":{"ID":348854,"DIS_CODE":0,"TOWNNAME":"南區","LI":"大恩里","LIN":"6鄰","STREET":"大同路","SECT":"二段","MAREA":" ","LANE":"７０４巷","ALLEY":" ","HOUSE_NO":"２２號","E_COORD97":169476.12,"N_COORD97":2540847.0699999998,"ADDRESS":"大同路二段７０４巷２２號","OBJECTID":348845},"geometry":{"x":169476.12000000104,"y":2540847.0699999984}},{"attributes":{"ID":348855,"DIS_CODE":0,"TOWNNAME":"南區","LI":"大恩里","LIN":"6鄰","STREET":"大同路","SECT":"二段","MAREA":" ","LANE":"７０４巷","ALLEY":" ","HOUSE_NO":"２３號","E_COORD97":169477.45000000001,"N_COORD97":2540817.79,"ADDRESS":"大同路二段７０４巷２３號","OBJECTID":348846},"geometry":{"x":169477.45000000112,"y":2540817.790000001}},{"attributes":{"ID":348856,"DIS_CODE":0,"TOWNNAME":"南區","LI":"大恩里","LIN":"6鄰","STREET":"大同路","SECT":"二段","MAREA":" ","LANE":"７０４巷","ALLEY":" ","HOUSE_NO":"２４號","E_COORD97":169471.07000000001,"N_COORD97":2540846.8599999999,"ADDRESS":"大同路二段７０４巷２４號","OBJECTID":348847},"geometry":{"x":169471.07000000216,"y":2540846.8599999994}},{"attributes":{"ID":348857,"DIS_CODE":0,"TOWNNAME":"南區","LI":"大恩里","LIN":"6鄰","STREET":"大同路","SECT":"二段","MAREA":" ","LANE":"７０４巷","ALLEY":" ","HOUSE_NO":"２５號之１","E_COORD97":169473.04000000001,"N_COORD97":2540821.9700000002,"ADDRESS":"大同路二段７０４巷２５號之１","OBJECTID":348848},"geometry":{"x":169473.04000000097,"y":2540821.9700000025}},{"attributes":{"ID":348858,"DIS_CODE":0,"TOWNNAME":"南區","LI":"大恩里","LIN":"6鄰","STREET":"大同路","SECT":"二段","MAREA":" ","LANE":"７０４巷","ALLEY":" ","HOUSE_NO":"２６號","E_COORD97":169465.91,"N_COORD97":2540845.25,"ADDRESS":"大同路二段７０４巷２６號","OBJECTID":348849},"geometry":{"x":169465.91000000108,"y":2540845.25}},{"attributes":{"ID":348859,"DIS_CODE":0,"TOWNNAME":"南區","LI":"大恩里","LIN":"6鄰","STREET":"大同路","SECT":"二段","MAREA":" ","LANE":"７０４巷","ALLEY":" ","HOUSE_NO":"２７號","E_COORD97":169468.32000000001,"N_COORD97":2540819.7200000002,"ADDRESS":"大同路二段７０４巷２７號","OBJECTID":348850},"geometry":{"x":169468.32000000123,"y":2540819.7200000044}},{"attributes":{"ID":348860,"DIS_CODE":0,"TOWNNAME":"南區","LI":"大恩里","LIN":"6鄰","STREET":"大同路","SECT":"二段","MAREA":" ","LANE":"７０４巷","ALLEY":" ","HOUSE_NO":"２８號","E_COORD97":169460.12,"N_COORD97":2540844.71,"ADDRESS":"大同路二段７０４巷２８號","OBJECTID":348851},"geometry":{"x":169460.12000000011,"y":2540844.7100000028}},{"attributes":{"ID":348861,"DIS_CODE":0,"TOWNNAME":"安南區","LI":"理想里","LIN":"18鄰","STREET":"大安街","SECT":" ","MAREA":" ","LANE":"２９９巷","ALLEY":" ","HOUSE_NO":"９號","E_COORD97":167486.23000000001,"N_COORD97":2548545.3799999999,"ADDRESS":"大安街２９９巷９號","OBJECTID":348852},"geometry":{"x":167486.23000000045,"y":2548545.379999999}},{"attributes":{"ID":348862,"DIS_CODE":0,"TOWNNAME":"安南區","LI":"理想里","LIN":"18鄰","STREET":"大安街","SECT":" ","MAREA":" ","LANE":"２７１巷","ALLEY":" ","HOUSE_NO":"５號","E_COORD97":167459.54000000001,"N_COORD97":2548481.8300000001,"ADDRESS":"大安街２７１巷５號","OBJECTID":348853},"geometry":{"x":167459.54000000097,"y":2548481.8300000019}},{"attributes":{"ID":348863,"DIS_CODE":0,"TOWNNAME":"安南區","LI":"理想里","LIN":"18鄰","STREET":"大安街","SECT":" ","MAREA":" ","LANE":"２７１巷","ALLEY":" ","HOUSE_NO":"２號","E_COORD97":167481.29000000001,"N_COORD97":2548493.1000000001,"ADDRESS":"大安街２７１巷２號","OBJECTID":348854},"geometry":{"x":167481.29000000097,"y":2548493.1000000015}},{"attributes":{"ID":348864,"DIS_CODE":0,"TOWNNAME":"安南區","LI":"淵中里","LIN":"18鄰","STREET":"安中路","SECT":"四段","MAREA":" ","LANE":"１９７巷","ALLEY":" ","HOUSE_NO":"１０號","E_COORD97":164756.98999999999,"N_COORD97":2550052.8199999998,"ADDRESS":"安中路四段１９７巷１０號","OBJECTID":348855},"geometry":{"x":164756.98999999929,"y":2550052.8200000003}},{"attributes":{"ID":348865,"DIS_CODE":0,"TOWNNAME":"安南區","LI":"淵中里","LIN":"18鄰","STREET":"安中路","SECT":"四段","MAREA":" ","LANE":"１９７巷","ALLEY":" ","HOUSE_NO":"１２號","E_COORD97":164755.07000000001,"N_COORD97":2550048.1499999999,"ADDRESS":"安中路四段１９７巷１２號","OBJECTID":348856},"geometry":{"x":164755.07000000216,"y":2550048.1499999985}},{"attributes":{"ID":348866,"DIS_CODE":0,"TOWNNAME":"安南區","LI":"淵中里","LIN":"18鄰","STREET":"安中路","SECT":"四段","MAREA":" ","LANE":"１９７巷","ALLEY":" ","HOUSE_NO":"１４號","E_COORD97":164752.39000000001,"N_COORD97":2550040.79,"ADDRESS":"安中路四段１９７巷１４號","OBJECTID":348857},"geometry":{"x":164752.3900000006,"y":2550040.790000001}},{"attributes":{"ID":348867,"DIS_CODE":0,"TOWNNAME":"安南區","LI":"淵中里","LIN":"18鄰","STREET":"安中路","SECT":"四段","MAREA":" ","LANE":"１９７巷","ALLEY":" ","HOUSE_NO":"２０號","E_COORD97":164743.59,"N_COORD97":2550025.5800000001,"ADDRESS":"安中路四段１９７巷２０號","OBJECTID":348858},"geometry":{"x":164743.58999999985,"y":2550025.5800000019}},{"attributes":{"ID":348868,"DIS_CODE":0,"TOWNNAME":"安南區","LI":"淵中里","LIN":"18鄰","STREET":"安中路","SECT":"四段","MAREA":" ","LANE":"１９７巷","ALLEY":" ","HOUSE_NO":"２２號","E_COORD97":164742.34,"N_COORD97":2550021.1699999999,"ADDRESS":"安中路四段１９７巷２２號","OBJECTID":348859},"geometry":{"x":164742.33999999985,"y":2550021.1700000018}},{"attributes":{"ID":348869,"DIS_CODE":0,"TOWNNAME":"安南區","LI":"淵中里","LIN":"18鄰","STREET":"安中路","SECT":"四段","MAREA":" ","LANE":"１９７巷","ALLEY":" ","HOUSE_NO":"２４號","E_COORD97":164741.34,"N_COORD97":2550017.6699999999,"ADDRESS":"安中路四段１９７巷２４號","OBJECTID":348860},"geometry":{"x":164741.34000000078,"y":2550017.6700000018}},{"attributes":{"ID":348870,"DIS_CODE":0,"TOWNNAME":"安南區","LI":"淵中里","LIN":"18鄰","STREET":"安中路","SECT":"四段","MAREA":" ","LANE":"１９７巷","ALLEY":" ","HOUSE_NO":"６號","E_COORD97":164760.66,"N_COORD97":2550060.1499999999,"ADDRESS":"安中路四段１９７巷６號","OBJECTID":348861},"geometry":{"x":164760.66000000015,"y":2550060.1500000022}},{"attributes":{"ID":348871,"DIS_CODE":0,"TOWNNAME":"安南區","LI":"淵中里","LIN":"18鄰","STREET":"安中路","SECT":"四段","MAREA":" ","LANE":"１９７巷","ALLEY":" ","HOUSE_NO":"８號","E_COORD97":164758.48999999999,"N_COORD97":2550057.0699999998,"ADDRESS":"安中路四段１９７巷８號","OBJECTID":348862},"geometry":{"x":164758.49000000022,"y":2550057.0700000022}},{"attributes":{"ID":348872,"DIS_CODE":0,"TOWNNAME":"南區","LI":"大恩里","LIN":"6鄰","STREET":"大同路","SECT":"二段","MAREA":" ","LANE":"７０４巷","ALLEY":" ","HOUSE_NO":"２９號","E_COORD97":169464.23999999999,"N_COORD97":2540819.7200000002,"ADDRESS":"大同路二段７０４巷２９號","OBJECTID":348863},"geometry":{"x":169464.24000000022,"y":2540819.7200000044}},{"attributes":{"ID":348873,"DIS_CODE":0,"TOWNNAME":"南區","LI":"大恩里","LIN":"6鄰","STREET":"大同路","SECT":"二段","MAREA":" ","LANE":"７０４巷","ALLEY":" ","HOUSE_NO":"２號","E_COORD97":169565.06,"N_COORD97":2540857.7999999998,"ADDRESS":"大同路二段７０４巷２號","OBJECTID":348864},"geometry":{"x":169565.05999999959,"y":2540857.8000000026}},{"attributes":{"ID":348874,"DIS_CODE":0,"TOWNNAME":"中西區","LI":"公正里","LIN":"8鄰","STREET":"西華南街","SECT":" ","MAREA":" ","LANE":" ","ALLEY":" ","HOUSE_NO":"４８號","E_COORD97":168964.64999999999,"N_COORD97":2543836.52,"ADDRESS":"西華南街４８號","OBJECTID":348865},"geometry":{"x":168964.65000000037,"y":2543836.5199999996}},{"attributes":{"ID":348875,"DIS_CODE":0,"TOWNNAME":"南區","LI":"大恩里","LIN":"6鄰","STREET":"大同路","SECT":"二段","MAREA":" ","LANE":"７０４巷","ALLEY":" ","HOUSE_NO":"３０號","E_COORD97":169454.20999999999,"N_COORD97":2540844.1800000002,"ADDRESS":"大同路二段７０４巷３０號","OBJECTID":348866},"geometry":{"x":169454.20999999996,"y":2540844.1800000016}},{"attributes":{"ID":348876,"DIS_CODE":0,"TOWNNAME":"南區","LI":"大恩里","LIN":"6鄰","STREET":"大同路","SECT":"二段","MAREA":" ","LANE":"７０４巷","ALLEY":" ","HOUSE_NO":"３１號","E_COORD97":169461.12,"N_COORD97":2540818.8599999999,"ADDRESS":"大同路二段７０４巷３１號","OBJECTID":348867},"geometry":{"x":169461.12000000011,"y":2540818.8600000013}},{"attributes":{"ID":348877,"DIS_CODE":0,"TOWNNAME":"南區","LI":"大恩里","LIN":"6鄰","STREET":"大同路","SECT":"二段","MAREA":" ","LANE":"７０４巷","ALLEY":" ","HOUSE_NO":"３２號","E_COORD97":169448.73000000001,"N_COORD97":2540843.8500000001,"ADDRESS":"大同路二段７０４巷３２號","OBJECTID":348868},"geometry":{"x":169448.73000000138,"y":2540843.8499999996}},{"attributes":{"ID":348878,"DIS_CODE":0,"TOWNNAME":"南區","LI":"大恩里","LIN":"6鄰","STREET":"大同路","SECT":"二段","MAREA":" ","LANE":"７０４巷","ALLEY":" ","HOUSE_NO":"３３號","E_COORD97":169457.47,"N_COORD97":2540818.54,"ADDRESS":"大同路二段７０４巷３３號","OBJECTID":348869},"geometry":{"x":169457.4700000016,"y":2540818.5399999991}},{"attributes":{"ID":348879,"DIS_CODE":0,"TOWNNAME":"南區","LI":"大恩里","LIN":"6鄰","STREET":"大同路","SECT":"二段","MAREA":" ","LANE":"７０４巷","ALLEY":" ","HOUSE_NO":"３４號","E_COORD97":169442.07999999999,"N_COORD97":2540843.4199999999,"ADDRESS":"大同路二段７０４巷３４號","OBJECTID":348870},"geometry":{"x":169442.08000000101,"y":2540843.4199999999}},{"attributes":{"ID":348880,"DIS_CODE":0,"TOWNNAME":"南區","LI":"大恩里","LIN":"6鄰","STREET":"大同路","SECT":"二段","MAREA":" ","LANE":"７０４巷","ALLEY":" ","HOUSE_NO":"３５號","E_COORD97":169452.20999999999,"N_COORD97":2540817.79,"ADDRESS":"大同路二段７０４巷３５號","OBJECTID":348871},"geometry":{"x":169452.20999999996,"y":2540817.790000001}},{"attributes":{"ID":348881,"DIS_CODE":0,"TOWNNAME":"中西區","LI":"永福里","LIN":"8鄰","STREET":"中正路","SECT":" ","MAREA":" ","LANE":" ","ALLEY":" ","HOUSE_NO":"５０號","E_COORD97":168182.37,"N_COORD97":2543640.0800000001,"ADDRESS":"中正路５０號","OBJECTID":348872},"geometry":{"x":168182.37000000104,"y":2543640.0800000001}},{"attributes":{"ID":348882,"DIS_CODE":0,"TOWNNAME":"中西區","LI":"永福里","LIN":"8鄰","STREET":"中正路","SECT":" ","MAREA":" ","LANE":" ","ALLEY":" ","HOUSE_NO":"５２號","E_COORD97":168175.57000000001,"N_COORD97":2543642.02,"ADDRESS":"中正路５２號","OBJECTID":348873},"geometry":{"x":168175.5700000003,"y":2543642.0200000014}},{"attributes":{"ID":348883,"DIS_CODE":0,"TOWNNAME":"中西區","LI":"永福里","LIN":"8鄰","STREET":"中正路","SECT":" ","MAREA":" ","LANE":" ","ALLEY":" ","HOUSE_NO":"５４號","E_COORD97":168168.64000000001,"N_COORD97":2543643.1299999999,"ADDRESS":"中正路５４號","OBJECTID":348874},"geometry":{"x":168168.6400000006,"y":2543643.1300000008}},{"attributes":{"ID":348884,"DIS_CODE":0,"TOWNNAME":"中西區","LI":"永福里","LIN":"8鄰","STREET":"中正路","SECT":" ","MAREA":" ","LANE":" ","ALLEY":" ","HOUSE_NO":"５６號","E_COORD97":168165.17000000001,"N_COORD97":2543644.6499999999,"ADDRESS":"中正路５６號","OBJECTID":348875},"geometry":{"x":168165.17000000086,"y":2543644.6500000022}},{"attributes":{"ID":348885,"DIS_CODE":0,"TOWNNAME":"中西區","LI":"永福里","LIN":"8鄰","STREET":"中正路","SECT":" ","MAREA":" ","LANE":" ","ALLEY":" ","HOUSE_NO":"５８號","E_COORD97":168158.47,"N_COORD97":2543646.6000000001,"ADDRESS":"中正路５８號","OBJECTID":348876},"geometry":{"x":168158.46999999974,"y":2543646.5999999978}},{"attributes":{"ID":348886,"DIS_CODE":0,"TOWNNAME":"中西區","LI":"永福里","LIN":"8鄰","STREET":"中正路","SECT":" ","MAREA":" ","LANE":" ","ALLEY":" ","HOUSE_NO":"６０號","E_COORD97":168152.37,"N_COORD97":2543647.02,"ADDRESS":"中正路６０號","OBJECTID":348877},"geometry":{"x":168152.37000000104,"y":2543647.0199999996}},{"attributes":{"ID":348887,"DIS_CODE":0,"TOWNNAME":"中西區","LI":"永福里","LIN":"8鄰","STREET":"中正路","SECT":" ","MAREA":" ","LANE":" ","ALLEY":" ","HOUSE_NO":"６２號","E_COORD97":168146.67999999999,"N_COORD97":2543647.71,"ADDRESS":"中正路６２號","OBJECTID":348878},"geometry":{"x":168146.6799999997,"y":2543647.7100000028}},{"attributes":{"ID":348888,"DIS_CODE":0,"TOWNNAME":"中西區","LI":"永福里","LIN":"8鄰","STREET":"中正路","SECT":" ","MAREA":" ","LANE":" ","ALLEY":" ","HOUSE_NO":"６４號","E_COORD97":168140.29999999999,"N_COORD97":2543648.8199999998,"ADDRESS":"中正路６４號","OBJECTID":348879},"geometry":{"x":168140.30000000075,"y":2543648.8200000003}},{"attributes":{"ID":348889,"DIS_CODE":0,"TOWNNAME":"中西區","LI":"永福里","LIN":"8鄰","STREET":"中正路","SECT":" ","MAREA":" ","LANE":" ","ALLEY":" ","HOUSE_NO":"６６號","E_COORD97":168135.17999999999,"N_COORD97":2543650.48,"ADDRESS":"中正路６６號","OBJECTID":348880},"geometry":{"x":168135.1799999997,"y":2543650.4800000004}},{"attributes":{"ID":348890,"DIS_CODE":0,"TOWNNAME":"中西區","LI":"永福里","LIN":"8鄰","STREET":"中正路","SECT":" ","MAREA":" ","LANE":" ","ALLEY":" ","HOUSE_NO":"６８號","E_COORD97":168131.85000000001,"N_COORD97":2543650.8900000001,"ADDRESS":"中正路６８號","OBJECTID":348881},"geometry":{"x":168131.84999999963,"y":2543650.8900000025}},{"attributes":{"ID":348891,"DIS_CODE":0,"TOWNNAME":"中西區","LI":"永福里","LIN":"8鄰","STREET":"中正路","SECT":" ","MAREA":" ","LANE":" ","ALLEY":" ","HOUSE_NO":"７０號","E_COORD97":168128.51999999999,"N_COORD97":2543652.8300000001,"ADDRESS":"中正路７０號","OBJECTID":348882},"geometry":{"x":168128.52000000048,"y":2543652.8300000019}},{"attributes":{"ID":348892,"DIS_CODE":0,"TOWNNAME":"中西區","LI":"永福里","LIN":"8鄰","STREET":"中正路","SECT":" ","MAREA":" ","LANE":" ","ALLEY":" ","HOUSE_NO":"７４號","E_COORD97":168114.45999999999,"N_COORD97":2543655.0800000001,"ADDRESS":"中正路７４號","OBJECTID":348883},"geometry":{"x":168114.45999999996,"y":2543655.0800000019}},{"attributes":{"ID":348893,"DIS_CODE":0,"TOWNNAME":"中西區","LI":"永福里","LIN":"8鄰","STREET":"中正路","SECT":" ","MAREA":" ","LANE":" ","ALLEY":" ","HOUSE_NO":"７６號","E_COORD97":168106.28,"N_COORD97":2543656.8799999999,"ADDRESS":"中正路７６號","OBJECTID":348884},"geometry":{"x":168106.28000000026,"y":2543656.879999999}},{"attributes":{"ID":348894,"DIS_CODE":0,"TOWNNAME":"永康區","LI":"五王里","LIN":"18鄰","STREET":"成功路","SECT":" ","MAREA":" ","LANE":"１７２巷","ALLEY":" ","HOUSE_NO":"５３號","E_COORD97":171560.35000000001,"N_COORD97":2545712.8900000001,"ADDRESS":"成功路１７２巷５３號","OBJECTID":348885},"geometry":{"x":171560.35000000149,"y":2545712.8900000006}},{"attributes":{"ID":348895,"DIS_CODE":0,"TOWNNAME":"永康區","LI":"五王里","LIN":"18鄰","STREET":"成功路","SECT":" ","MAREA":" ","LANE":"１８８巷","ALLEY":" ","HOUSE_NO":"１５號","E_COORD97":171455.73000000001,"N_COORD97":2545696.77,"ADDRESS":"成功路１８８巷１５號","OBJECTID":348886},"geometry":{"x":171455.73000000138,"y":2545696.7700000033}},{"attributes":{"ID":348896,"DIS_CODE":0,"TOWNNAME":"永康區","LI":"五王里","LIN":"18鄰","STREET":"成功路","SECT":" ","MAREA":" ","LANE":"１７２巷","ALLEY":" ","HOUSE_NO":"７７號","E_COORD97":171546.45000000001,"N_COORD97":2545764.8799999999,"ADDRESS":"成功路１７２巷７７號","OBJECTID":348887},"geometry":{"x":171546.44999999925,"y":2545764.8800000008}},{"attributes":{"ID":348897,"DIS_CODE":0,"TOWNNAME":"永康區","LI":"五王里","LIN":"18鄰","STREET":"成功路","SECT":" ","MAREA":" ","LANE":"１８８巷","ALLEY":" ","HOUSE_NO":"２號","E_COORD97":171436.23000000001,"N_COORD97":2545664.0099999998,"ADDRESS":"成功路１８８巷２號","OBJECTID":348888},"geometry":{"x":171436.23000000045,"y":2545664.0099999998}},{"attributes":{"ID":348898,"DIS_CODE":0,"TOWNNAME":"永康區","LI":"五王里","LIN":"18鄰","STREET":"成功路","SECT":" ","MAREA":" ","LANE":"１７２巷","ALLEY":" ","HOUSE_NO":"７３號","E_COORD97":171548.70999999999,"N_COORD97":2545756.1299999999,"ADDRESS":"成功路１７２巷７３號","OBJECTID":348889},"geometry":{"x":171548.71000000089,"y":2545756.1300000008}},{"attributes":{"ID":348899,"DIS_CODE":0,"TOWNNAME":"永康區","LI":"五王里","LIN":"18鄰","STREET":"成功路","SECT":" ","MAREA":" ","LANE":"１８８巷","ALLEY":" ","HOUSE_NO":"１１號","E_COORD97":171448.17000000001,"N_COORD97":2545691.27,"ADDRESS":"成功路１８８巷１１號","OBJECTID":348890},"geometry":{"x":171448.17000000179,"y":2545691.2700000014}},{"attributes":{"ID":348900,"DIS_CODE":0,"TOWNNAME":"永康區","LI":"五王里","LIN":"18鄰","STREET":"成功路","SECT":" ","MAREA":" ","LANE":"１７２巷","ALLEY":" ","HOUSE_NO":"８３號","E_COORD97":171543,"N_COORD97":2545777.8799999999,"ADDRESS":"成功路１７２巷８３號","OBJECTID":348891},"geometry":{"x":171543.00000000093,"y":2545777.8800000008}},{"attributes":{"ID":348901,"DIS_CODE":0,"TOWNNAME":"南區","LI":"大恩里","LIN":"6鄰","STREET":"大同路","SECT":"二段","MAREA":" ","LANE":"７０４巷","ALLEY":" ","HOUSE_NO":"３６號","E_COORD97":169435.85000000001,"N_COORD97":2540842.7799999998,"ADDRESS":"大同路二段７０４巷３６號","OBJECTID":348892},"geometry":{"x":169435.84999999963,"y":2540842.7800000012}},{"attributes":{"ID":348902,"DIS_CODE":0,"TOWNNAME":"南區","LI":"大恩里","LIN":"6鄰","STREET":"大同路","SECT":"二段","MAREA":" ","LANE":"７０４巷","ALLEY":" ","HOUSE_NO":"３７號","E_COORD97":169448.23999999999,"N_COORD97":2540817.46,"ADDRESS":"大同路二段７０４巷３７號","OBJECTID":348893},"geometry":{"x":169448.24000000115,"y":2540817.4600000009}},{"attributes":{"ID":348903,"DIS_CODE":0,"TOWNNAME":"南區","LI":"大恩里","LIN":"6鄰","STREET":"大同路","SECT":"二段","MAREA":" ","LANE":"７０４巷","ALLEY":" ","HOUSE_NO":"３９號","E_COORD97":169443.07999999999,"N_COORD97":2540817.1400000001,"ADDRESS":"大同路二段７０４巷３９號","OBJECTID":348894},"geometry":{"x":169443.08000000007,"y":2540817.1400000025}},{"attributes":{"ID":348904,"DIS_CODE":0,"TOWNNAME":"南區","LI":"大恩里","LIN":"6鄰","STREET":"大同路","SECT":"二段","MAREA":" ","LANE":"７０４巷","ALLEY":" ","HOUSE_NO":"４７號","E_COORD97":169410.76999999999,"N_COORD97":2540819.8399999999,"ADDRESS":"大同路二段７０４巷４７號","OBJECTID":348895},"geometry":{"x":169410.76999999955,"y":2540819.8399999999}},{"attributes":{"ID":348905,"DIS_CODE":0,"TOWNNAME":"南區","LI":"大恩里","LIN":"6鄰","STREET":"大同路","SECT":"二段","MAREA":" ","LANE":"７０４巷","ALLEY":" ","HOUSE_NO":"４９號","E_COORD97":169405.72,"N_COORD97":2540819.4100000001,"ADDRESS":"大同路二段７０４巷４９號","OBJECTID":348896},"geometry":{"x":169405.72000000067,"y":2540819.410000002}},{"attributes":{"ID":348906,"DIS_CODE":0,"TOWNNAME":"南區","LI":"大恩里","LIN":"6鄰","STREET":"大同路","SECT":"二段","MAREA":" ","LANE":"７０４巷","ALLEY":" ","HOUSE_NO":"５１號","E_COORD97":169401.10999999999,"N_COORD97":2540818.98,"ADDRESS":"大同路二段７０４巷５１號","OBJECTID":348897},"geometry":{"x":169401.1099999994,"y":2540818.9800000023}},{"attributes":{"ID":348907,"DIS_CODE":0,"TOWNNAME":"南區","LI":"大恩里","LIN":"6鄰","STREET":"大同路","SECT":"二段","MAREA":" ","LANE":"７０４巷","ALLEY":" ","HOUSE_NO":"５３號","E_COORD97":169397.67000000001,"N_COORD97":2540818.3399999999,"ADDRESS":"大同路二段７０４巷５３號","OBJECTID":348898},"geometry":{"x":169397.67000000086,"y":2540818.3400000017}},{"attributes":{"ID":348908,"DIS_CODE":0,"TOWNNAME":"中西區","LI":"公正里","LIN":"8鄰","STREET":"民族路","SECT":"二段","MAREA":" ","LANE":" ","ALLEY":" ","HOUSE_NO":"３５號","E_COORD97":169088.70000000001,"N_COORD97":2543871.8999999999,"ADDRESS":"民族路二段３５號","OBJECTID":348899},"geometry":{"x":169088.70000000112,"y":2543871.9000000004}},{"attributes":{"ID":348909,"DIS_CODE":0,"TOWNNAME":"中西區","LI":"公正里","LIN":"8鄰","STREET":"民族路","SECT":"二段","MAREA":" ","LANE":" ","ALLEY":" ","HOUSE_NO":"５３號之１","E_COORD97":169039.23000000001,"N_COORD97":2543871.54,"ADDRESS":"民族路二段５３號之１","OBJECTID":348900},"geometry":{"x":169039.23000000045,"y":2543871.540000001}},{"attributes":{"ID":348910,"DIS_CODE":0,"TOWNNAME":"中西區","LI":"公正里","LIN":"8鄰","STREET":"民族路","SECT":"二段","MAREA":" ","LANE":" ","ALLEY":" ","HOUSE_NO":"５３號之２","E_COORD97":169033.17000000001,"N_COORD97":2543871.1899999999,"ADDRESS":"民族路二段５３號之２","OBJECTID":348901},"geometry":{"x":169033.17000000086,"y":2543871.1900000013}},{"attributes":{"ID":348911,"DIS_CODE":0,"TOWNNAME":"中西區","LI":"公正里","LIN":"8鄰","STREET":"民族路","SECT":"二段","MAREA":" ","LANE":" ","ALLEY":" ","HOUSE_NO":"５５號","E_COORD97":169027.12,"N_COORD97":2543871.0099999998,"ADDRESS":"民族路二段５５號","OBJECTID":348902},"geometry":{"x":169027.12000000104,"y":2543871.0099999998}},{"attributes":{"ID":348912,"DIS_CODE":0,"TOWNNAME":"中西區","LI":"公正里","LIN":"8鄰","STREET":"民族路","SECT":"二段","MAREA":" ","LANE":" ","ALLEY":" ","HOUSE_NO":"５５號之１","E_COORD97":169020.89000000001,"N_COORD97":2543870.2999999998,"ADDRESS":"民族路二段５５號之１","OBJECTID":348903},"geometry":{"x":169020.8900000006,"y":2543870.3000000045}},{"attributes":{"ID":348913,"DIS_CODE":0,"TOWNNAME":"中西區","LI":"公正里","LIN":"8鄰","STREET":"民族路","SECT":"二段","MAREA":" ","LANE":" ","ALLEY":" ","HOUSE_NO":"５９號","E_COORD97":169009.14999999999,"N_COORD97":2543871.0099999998,"ADDRESS":"民族路二段５９號","OBJECTID":348904},"geometry":{"x":169009.15000000037,"y":2543871.0099999998}},{"attributes":{"ID":348914,"DIS_CODE":0,"TOWNNAME":"中西區","LI":"公正里","LIN":"8鄰","STREET":"民族路","SECT":"二段","MAREA":" ","LANE":" ","ALLEY":" ","HOUSE_NO":"６１號","E_COORD97":169001.48999999999,"N_COORD97":2543870.8300000001,"ADDRESS":"民族路二段６１號","OBJECTID":348905},"geometry":{"x":169001.49000000022,"y":2543870.8300000019}},{"attributes":{"ID":348915,"DIS_CODE":0,"TOWNNAME":"中西區","LI":"公正里","LIN":"8鄰","STREET":"西華南街","SECT":" ","MAREA":" ","LANE":" ","ALLEY":" ","HOUSE_NO":"３８號","E_COORD97":168961.09,"N_COORD97":2543824.4399999999,"ADDRESS":"西華南街３８號","OBJECTID":348906},"geometry":{"x":168961.08999999985,"y":2543824.4400000013}},{"attributes":{"ID":348916,"DIS_CODE":0,"TOWNNAME":"安南區","LI":"梅花里","LIN":"18鄰","STREET":"同安路","SECT":" ","MAREA":" ","LANE":"３４４巷","ALLEY":" ","HOUSE_NO":"２號","E_COORD97":167278.23000000001,"N_COORD97":2549254.3999999999,"ADDRESS":"同安路３４４巷２號","OBJECTID":348907},"geometry":{"x":167278.23000000231,"y":2549254.4000000022}},{"attributes":{"ID":348917,"DIS_CODE":0,"TOWNNAME":"安南區","LI":"梅花里","LIN":"18鄰","STREET":"同安路","SECT":" ","MAREA":" ","LANE":"３４４巷","ALLEY":" ","HOUSE_NO":"３號","E_COORD97":167306.53,"N_COORD97":2549271.2000000002,"ADDRESS":"同安路３４４巷３號","OBJECTID":348908},"geometry":{"x":167306.53000000212,"y":2549271.2000000011}},{"attributes":{"ID":348918,"DIS_CODE":0,"TOWNNAME":"安南區","LI":"梅花里","LIN":"18鄰","STREET":"同安路","SECT":" ","MAREA":" ","LANE":"３４４巷","ALLEY":" ","HOUSE_NO":"６號","E_COORD97":167286.10999999999,"N_COORD97":2549251,"ADDRESS":"同安路３４４巷６號","OBJECTID":348909},"geometry":{"x":167286.11000000127,"y":2549251}},{"attributes":{"ID":348919,"DIS_CODE":0,"TOWNNAME":"安南區","LI":"梅花里","LIN":"18鄰","STREET":"同安路","SECT":" ","MAREA":" ","LANE":"３４４巷","ALLEY":" ","HOUSE_NO":"８號","E_COORD97":167290.14999999999,"N_COORD97":2549248.8700000001,"ADDRESS":"同安路３４４巷８號","OBJECTID":348910},"geometry":{"x":167290.15000000037,"y":2549248.8700000029}},{"attributes":{"ID":348920,"DIS_CODE":0,"TOWNNAME":"安南區","LI":"梅花里","LIN":"18鄰","STREET":"同安路","SECT":" ","MAREA":" ","LANE":"３４４巷","ALLEY":" ","HOUSE_NO":"１號","E_COORD97":167295.89000000001,"N_COORD97":2549276.52,"ADDRESS":"同安路３４４巷１號","OBJECTID":348911},"geometry":{"x":167295.88999999966,"y":2549276.5200000014}},{"attributes":{"ID":348921,"DIS_CODE":0,"TOWNNAME":"安南區","LI":"安富里","LIN":"18鄰","STREET":"安富街","SECT":" ","MAREA":" ","LANE":"１６７巷","ALLEY":" ","HOUSE_NO":"２０號","E_COORD97":167785.20999999999,"N_COORD97":2547436.73,"ADDRESS":"安富街１６７巷２０號","OBJECTID":348912},"geometry":{"x":167785.21000000089,"y":2547436.7300000004}},{"attributes":{"ID":348922,"DIS_CODE":0,"TOWNNAME":"安南區","LI":"安富里","LIN":"18鄰","STREET":"安富街","SECT":" ","MAREA":" ","LANE":"１６７巷","ALLEY":" ","HOUSE_NO":"２２號","E_COORD97":167785.89000000001,"N_COORD97":2547432.8399999999,"ADDRESS":"安富街１６７巷２２號","OBJECTID":348913},"geometry":{"x":167785.88999999966,"y":2547432.8400000017}},{"attributes":{"ID":348923,"DIS_CODE":0,"TOWNNAME":"安南區","LI":"安富里","LIN":"18鄰","STREET":"安富街","SECT":" ","MAREA":" ","LANE":"１６７巷","ALLEY":" ","HOUSE_NO":"２４號","E_COORD97":167786.57999999999,"N_COORD97":2547428.2599999998,"ADDRESS":"安富街１６７巷２４號","OBJECTID":348914},"geometry":{"x":167786.58000000007,"y":2547428.2599999998}},{"attributes":{"ID":348924,"DIS_CODE":0,"TOWNNAME":"南區","LI":"大恩里","LIN":"6鄰","STREET":"大同路","SECT":"二段","MAREA":" ","LANE":"７０４巷","ALLEY":" ","HOUSE_NO":"５５號","E_COORD97":169392.62,"N_COORD97":2540817.5899999999,"ADDRESS":"大同路二段７０４巷５５號","OBJECTID":348915},"geometry":{"x":169392.62000000104,"y":2540817.5900000017}},{"attributes":{"ID":348925,"DIS_CODE":0,"TOWNNAME":"南區","LI":"大恩里","LIN":"6鄰","STREET":"大同路","SECT":"二段","MAREA":" ","LANE":"７０４巷","ALLEY":" ","HOUSE_NO":"５７號","E_COORD97":169388.64999999999,"N_COORD97":2540817.5899999999,"ADDRESS":"大同路二段７０４巷５７號","OBJECTID":348916},"geometry":{"x":169388.65000000037,"y":2540817.5900000017}},{"attributes":{"ID":348926,"DIS_CODE":0,"TOWNNAME":"南區","LI":"大恩里","LIN":"6鄰","STREET":"大同路","SECT":"二段","MAREA":" ","LANE":"７０４巷","ALLEY":" ","HOUSE_NO":"５９號","E_COORD97":169384.78,"N_COORD97":2540817.7999999998,"ADDRESS":"大同路二段７０４巷５９號","OBJECTID":348917},"geometry":{"x":169384.78000000212,"y":2540817.8000000007}},{"attributes":{"ID":348927,"DIS_CODE":0,"TOWNNAME":"南區","LI":"大恩里","LIN":"6鄰","STREET":"大同路","SECT":"二段","MAREA":" ","LANE":"７０４巷","ALLEY":" ","HOUSE_NO":"６１號","E_COORD97":169380.81,"N_COORD97":2540817.5899999999,"ADDRESS":"大同路二段７０４巷６１號","OBJECTID":348918},"geometry":{"x":169380.81000000052,"y":2540817.5900000017}},{"attributes":{"ID":348928,"DIS_CODE":0,"TOWNNAME":"南區","LI":"大恩里","LIN":"6鄰","STREET":"大同路","SECT":"二段","MAREA":" ","LANE":"７０４巷","ALLEY":" ","HOUSE_NO":"６３號","E_COORD97":169376.84,"N_COORD97":2540817.3700000001,"ADDRESS":"大同路二段７０４巷６３號","OBJECTID":348919},"geometry":{"x":169376.83999999985,"y":2540817.370000001}},{"attributes":{"ID":348929,"DIS_CODE":0,"TOWNNAME":"南區","LI":"大恩里","LIN":"6鄰","STREET":"大同路","SECT":"二段","MAREA":" ","LANE":"７０４巷","ALLEY":" ","HOUSE_NO":"６５號","E_COORD97":169372.32999999999,"N_COORD97":2540817.3700000001,"ADDRESS":"大同路二段７０４巷６５號","OBJECTID":348920},"geometry":{"x":169372.33000000194,"y":2540817.370000001}},{"attributes":{"ID":348930,"DIS_CODE":0,"TOWNNAME":"南區","LI":"大恩里","LIN":"6鄰","STREET":"大同路","SECT":"二段","MAREA":" ","LANE":"７０４巷","ALLEY":" ","HOUSE_NO":"６７號","E_COORD97":169367.92999999999,"N_COORD97":2540818.4399999999,"ADDRESS":"大同路二段７０４巷６７號","OBJECTID":348921},"geometry":{"x":169367.93000000156,"y":2540818.4400000013}},{"attributes":{"ID":348931,"DIS_CODE":0,"TOWNNAME":"南區","LI":"大恩里","LIN":"6鄰","STREET":"大同路","SECT":"二段","MAREA":" ","LANE":"７０４巷","ALLEY":" ","HOUSE_NO":"６９號","E_COORD97":169364.06,"N_COORD97":2540818.6600000001,"ADDRESS":"大同路二段７０４巷６９號","OBJECTID":348922},"geometry":{"x":169364.06000000052,"y":2540818.6600000001}},{"attributes":{"ID":348932,"DIS_CODE":0,"TOWNNAME":"南區","LI":"大恩里","LIN":"6鄰","STREET":"大同路","SECT":"二段","MAREA":" ","LANE":"７０４巷","ALLEY":" ","HOUSE_NO":"６號","E_COORD97":169546.60000000001,"N_COORD97":2540856.73,"ADDRESS":"大同路二段７０４巷６號","OBJECTID":348923},"geometry":{"x":169546.60000000056,"y":2540856.7300000042}},{"attributes":{"ID":348933,"DIS_CODE":0,"TOWNNAME":"南區","LI":"大恩里","LIN":"6鄰","STREET":"大同路","SECT":"二段","MAREA":" ","LANE":"７０４巷","ALLEY":" ","HOUSE_NO":"７１號","E_COORD97":169360.09,"N_COORD97":2540820.0499999998,"ADDRESS":"大同路二段７０４巷７１號","OBJECTID":348924},"geometry":{"x":169360.08999999892,"y":2540820.0500000007}},{"attributes":{"ID":348934,"DIS_CODE":0,"TOWNNAME":"南區","LI":"大恩里","LIN":"6鄰","STREET":"大同路","SECT":"二段","MAREA":" ","LANE":"７０４巷","ALLEY":" ","HOUSE_NO":"７３號","E_COORD97":169355.89999999999,"N_COORD97":2540820.9100000001,"ADDRESS":"大同路二段７０４巷７３號","OBJECTID":348925},"geometry":{"x":169355.9000000013,"y":2540820.9099999983}},{"attributes":{"ID":348935,"DIS_CODE":0,"TOWNNAME":"南區","LI":"大恩里","LIN":"6鄰","STREET":"大同路","SECT":"二段","MAREA":" ","LANE":"７０４巷","ALLEY":" ","HOUSE_NO":"７５號","E_COORD97":169348.92000000001,"N_COORD97":2540822.3100000001,"ADDRESS":"大同路二段７０４巷７５號","OBJECTID":348926},"geometry":{"x":169348.91999999993,"y":2540822.3100000042}},{"attributes":{"ID":348936,"DIS_CODE":0,"TOWNNAME":"南區","LI":"大恩里","LIN":"6鄰","STREET":"大同路","SECT":"二段","MAREA":" ","LANE":"７０４巷","ALLEY":" ","HOUSE_NO":"７７號","E_COORD97":169343.01000000001,"N_COORD97":2540824.4500000002,"ADDRESS":"大同路二段７０４巷７７號","OBJECTID":348927},"geometry":{"x":169343.00999999978,"y":2540824.4500000011}},{"attributes":{"ID":348937,"DIS_CODE":0,"TOWNNAME":"南區","LI":"大恩里","LIN":"6鄰","STREET":"大同路","SECT":"二段","MAREA":" ","LANE":"７０４巷","ALLEY":" ","HOUSE_NO":"７９號","E_COORD97":169332.92000000001,"N_COORD97":2540825.3100000001,"ADDRESS":"大同路二段７０４巷７９號","OBJECTID":348928},"geometry":{"x":169332.92000000086,"y":2540825.3099999987}},{"attributes":{"ID":348938,"DIS_CODE":0,"TOWNNAME":"南區","LI":"大恩里","LIN":"6鄰","STREET":"大同路","SECT":"二段","MAREA":" ","LANE":"７０４巷","ALLEY":" ","HOUSE_NO":"８１號","E_COORD97":169309.22,"N_COORD97":2540831.5499999998,"ADDRESS":"大同路二段７０４巷８１號","OBJECTID":348929},"geometry":{"x":169309.21999999974,"y":2540831.5500000026}},{"attributes":{"ID":348939,"DIS_CODE":0,"TOWNNAME":"中西區","LI":"公正里","LIN":"8鄰","STREET":"西華南街","SECT":" ","MAREA":" ","LANE":" ","ALLEY":" ","HOUSE_NO":"４０號","E_COORD97":168962.51999999999,"N_COORD97":2543827.9900000002,"ADDRESS":"西華南街４０號","OBJECTID":348930},"geometry":{"x":168962.52000000048,"y":2543827.9900000039}},{"attributes":{"ID":348940,"DIS_CODE":0,"TOWNNAME":"中西區","LI":"公正里","LIN":"8鄰","STREET":"西華南街","SECT":" ","MAREA":" ","LANE":" ","ALLEY":" ","HOUSE_NO":"４２號","E_COORD97":168963.76000000001,"N_COORD97":2543830.6600000001,"ADDRESS":"西華南街４２號","OBJECTID":348931},"geometry":{"x":168963.75999999978,"y":2543830.660000002}},{"attributes":{"ID":348941,"DIS_CODE":0,"TOWNNAME":"中西區","LI":"公正里","LIN":"8鄰","STREET":"西華南街","SECT":" ","MAREA":" ","LANE":" ","ALLEY":" ","HOUSE_NO":"４６號","E_COORD97":168963.23000000001,"N_COORD97":2543833.1499999999,"ADDRESS":"西華南街４６號","OBJECTID":348932},"geometry":{"x":168963.23000000231,"y":2543833.1500000004}},{"attributes":{"ID":348942,"DIS_CODE":0,"TOWNNAME":"中西區","LI":"公正里","LIN":"8鄰","STREET":"西華南街","SECT":" ","MAREA":" ","LANE":" ","ALLEY":" ","HOUSE_NO":"５０號","E_COORD97":168987.25,"N_COORD97":2543842.1200000001,"ADDRESS":"西華南街５０號","OBJECTID":348933},"geometry":{"x":168987.25,"y":2543842.1200000029}},{"attributes":{"ID":348943,"DIS_CODE":0,"TOWNNAME":"中西區","LI":"公正里","LIN":"8鄰","STREET":"西華南街","SECT":" ","MAREA":" ","LANE":" ","ALLEY":" ","HOUSE_NO":"５２號","E_COORD97":168982.45000000001,"N_COORD97":2543842.1200000001,"ADDRESS":"西華南街５２號","OBJECTID":348934},"geometry":{"x":168982.45000000112,"y":2543842.1200000029}},{"attributes":{"ID":348944,"DIS_CODE":0,"TOWNNAME":"中西區","LI":"公正里","LIN":"8鄰","STREET":"西華南街","SECT":" ","MAREA":" ","LANE":" ","ALLEY":" ","HOUSE_NO":"５６號","E_COORD97":168977.29000000001,"N_COORD97":2543842.2999999998,"ADDRESS":"西華南街５６號","OBJECTID":348935},"geometry":{"x":168977.29000000004,"y":2543842.3000000007}},{"attributes":{"ID":348945,"DIS_CODE":0,"TOWNNAME":"中西區","LI":"公正里","LIN":"8鄰","STREET":"西華南街","SECT":" ","MAREA":" ","LANE":" ","ALLEY":" ","HOUSE_NO":"５８號","E_COORD97":168965.89999999999,"N_COORD97":2543844.4300000002,"ADDRESS":"西華南街５８號","OBJECTID":348936},"geometry":{"x":168965.9000000013,"y":2543844.4299999997}},{"attributes":{"ID":348946,"DIS_CODE":0,"TOWNNAME":"新營區","LI":"南紙里","LIN":"6鄰","STREET":"南紙街","SECT":" ","MAREA":" ","LANE":"１４３巷","ALLEY":" ","HOUSE_NO":"１７號","E_COORD97":177860.32000000001,"N_COORD97":2577373.6400000001,"ADDRESS":"南紙街１４３巷１７號","OBJECTID":348937},"geometry":{"x":177860.3200000003,"y":2577373.6400000006}},{"attributes":{"ID":348947,"DIS_CODE":0,"TOWNNAME":"新營區","LI":"埤寮里","LIN":"6鄰","STREET":"中正路","SECT":" ","MAREA":" ","LANE":"４８４巷","ALLEY":" ","HOUSE_NO":"４２號","E_COORD97":180310.57999999999,"N_COORD97":2580685.3700000001,"ADDRESS":"中正路４８４巷４２號","OBJECTID":348938},"geometry":{"x":180310.58000000007,"y":2580685.370000001}},{"attributes":{"ID":348948,"DIS_CODE":0,"TOWNNAME":"新營區","LI":"南紙里","LIN":"6鄰","STREET":"南紙街","SECT":" ","MAREA":" ","LANE":"１３５巷","ALLEY":" ","HOUSE_NO":"６號","E_COORD97":177845.89000000001,"N_COORD97":2577394.75,"ADDRESS":"南紙街１３５巷６號","OBJECTID":348939},"geometry":{"x":177845.89000000153,"y":2577394.7500000019}},{"attributes":{"ID":348949,"DIS_CODE":0,"TOWNNAME":"新營區","LI":"埤寮里","LIN":"6鄰","STREET":"中正路","SECT":" ","MAREA":" ","LANE":"５００巷","ALLEY":" ","HOUSE_NO":"６３號","E_COORD97":180289.5,"N_COORD97":2580782.9300000002,"ADDRESS":"中正路５００巷６３號","OBJECTID":348940},"geometry":{"x":180289.5,"y":2580782.9300000034}},{"attributes":{"ID":348950,"DIS_CODE":0,"TOWNNAME":"新營區","LI":"新東里","LIN":"6鄰","STREET":"東大街","SECT":" ","MAREA":" ","LANE":"６６巷","ALLEY":" ","HOUSE_NO":"３９號","E_COORD97":181156.63,"N_COORD97":2579201.8599999999,"ADDRESS":"東大街６６巷３９號","OBJECTID":348941},"geometry":{"x":181156.62999999989,"y":2579201.8599999994}},{"attributes":{"ID":348951,"DIS_CODE":0,"TOWNNAME":"新營區","LI":"新南里","LIN":"6鄰","STREET":"長榮路","SECT":"二段","MAREA":" ","LANE":"８６２巷","ALLEY":" ","HOUSE_NO":"５９號","E_COORD97":178200.42999999999,"N_COORD97":2579159.4300000002,"ADDRESS":"長榮路二段８６２巷５９號","OBJECTID":348942},"geometry":{"x":178200.43000000063,"y":2579159.4300000016}},{"attributes":{"ID":348952,"DIS_CODE":0,"TOWNNAME":"學甲區","LI":"新榮里","LIN":"6鄰","STREET":"華宗路","SECT":" ","MAREA":" ","LANE":"１４２巷","ALLEY":" ","HOUSE_NO":"５號","E_COORD97":166506.47,"N_COORD97":2569308.0699999998,"ADDRESS":"華宗路１４２巷５號","OBJECTID":348943},"geometry":{"x":166506.47000000067,"y":2569308.0700000003}},{"attributes":{"ID":348953,"DIS_CODE":0,"TOWNNAME":"新營區","LI":"新東里","LIN":"6鄰","STREET":"東大街","SECT":" ","MAREA":" ","LANE":"６６巷","ALLEY":" ","HOUSE_NO":"２８號","E_COORD97":181089.04000000001,"N_COORD97":2579187.7799999998,"ADDRESS":"東大街６６巷２８號","OBJECTID":348944},"geometry":{"x":181089.04000000004,"y":2579187.7800000012}},{"attributes":{"ID":348954,"DIS_CODE":0,"TOWNNAME":"新營區","LI":"新東里","LIN":"6鄰","STREET":"東大街","SECT":" ","MAREA":" ","LANE":"６６巷","ALLEY":" ","HOUSE_NO":"５６號","E_COORD97":181157.48999999999,"N_COORD97":2579183.0299999998,"ADDRESS":"東大街６６巷５６號","OBJECTID":348945},"geometry":{"x":181157.49000000022,"y":2579183.0300000012}},{"attributes":{"ID":348955,"DIS_CODE":0,"TOWNNAME":"新營區","LI":"新北里","LIN":"6鄰","STREET":"三興街","SECT":" ","MAREA":" ","LANE":"１７３巷","ALLEY":" ","HOUSE_NO":"１２號","E_COORD97":179325.48000000001,"N_COORD97":2579581.4900000002,"ADDRESS":"三興街１７３巷１２號","OBJECTID":348946},"geometry":{"x":179325.48000000045,"y":2579581.4900000002}},{"attributes":{"ID":348956,"DIS_CODE":0,"TOWNNAME":"新營區","LI":"南紙里","LIN":"6鄰","STREET":"南紙街","SECT":" ","MAREA":" ","LANE":"１３５巷","ALLEY":" ","HOUSE_NO":"８號","E_COORD97":177856.17000000001,"N_COORD97":2577394.7000000002,"ADDRESS":"南紙街１３５巷８號","OBJECTID":348947},"geometry":{"x":177856.17000000086,"y":2577394.7000000011}},{"attributes":{"ID":348957,"DIS_CODE":0,"TOWNNAME":"新營區","LI":"新北里","LIN":"6鄰","STREET":"三興街","SECT":" ","MAREA":" ","LANE":"２０５巷","ALLEY":" ","HOUSE_NO":"３８號","E_COORD97":179208.12,"N_COORD97":2579618.5899999999,"ADDRESS":"三興街２０５巷３８號","OBJECTID":348948},"geometry":{"x":179208.12000000104,"y":2579618.5899999999}},{"attributes":{"ID":348958,"DIS_CODE":0,"TOWNNAME":"新營區","LI":"南興里","LIN":"6鄰","STREET":"和平路","SECT":" ","MAREA":" ","LANE":"９７巷","ALLEY":" ","HOUSE_NO":"５之２號","E_COORD97":179438.95000000001,"N_COORD97":2577586.48,"ADDRESS":"和平路９７巷５之２號","OBJECTID":348949},"geometry":{"x":179438.95000000019,"y":2577586.4800000042}},{"attributes":{"ID":348959,"DIS_CODE":0,"TOWNNAME":"新營區","LI":"南紙里","LIN":"6鄰","STREET":"南紙街","SECT":" ","MAREA":" ","LANE":"１３５巷","ALLEY":" ","HOUSE_NO":"１號","E_COORD97":177821.32999999999,"N_COORD97":2577395.98,"ADDRESS":"南紙街１３５巷１號","OBJECTID":348950},"geometry":{"x":177821.33000000101,"y":2577395.9800000004}},{"attributes":{"ID":348960,"DIS_CODE":0,"TOWNNAME":"新營區","LI":"南紙里","LIN":"6鄰","STREET":"南紙街","SECT":" ","MAREA":" ","LANE":"１３５巷","ALLEY":" ","HOUSE_NO":"１５號","E_COORD97":177894.17000000001,"N_COORD97":2577392.3100000001,"ADDRESS":"南紙街１３５巷１５號","OBJECTID":348951},"geometry":{"x":177894.16999999993,"y":2577392.3100000024}},{"attributes":{"ID":348961,"DIS_CODE":0,"TOWNNAME":"新營區","LI":"新東里","LIN":"6鄰","STREET":"東大街","SECT":" ","MAREA":" ","LANE":"６６巷","ALLEY":" ","HOUSE_NO":"５０號","E_COORD97":181142.14999999999,"N_COORD97":2579182,"ADDRESS":"東大街６６巷５０號","OBJECTID":348952},"geometry":{"x":181142.1500000013,"y":2579182}},{"attributes":{"ID":348962,"DIS_CODE":0,"TOWNNAME":"新營區","LI":"新東里","LIN":"6鄰","STREET":"東大街","SECT":" ","MAREA":" ","LANE":"６６巷","ALLEY":" ","HOUSE_NO":"４５號","E_COORD97":181174.01999999999,"N_COORD97":2579204,"ADDRESS":"東大街６６巷４５號","OBJECTID":348953},"geometry":{"x":181174.01999999862,"y":2579204.0000000019}},{"attributes":{"ID":348963,"DIS_CODE":0,"TOWNNAME":"新營區","LI":"新北里","LIN":"6鄰","STREET":"三興街","SECT":" ","MAREA":" ","LANE":"２０５巷","ALLEY":" ","HOUSE_NO":"１１號","E_COORD97":179324.69,"N_COORD97":2579630.2200000002,"ADDRESS":"三興街２０５巷１１號","OBJECTID":348954},"geometry":{"x":179324.69000000134,"y":2579630.2200000025}},{"attributes":{"ID":348964,"DIS_CODE":0,"TOWNNAME":"新營區","LI":"興業里","LIN":"6鄰","STREET":"公誠街","SECT":" ","MAREA":" ","LANE":"１１巷","ALLEY":" ","HOUSE_NO":"５號","E_COORD97":180319.01000000001,"N_COORD97":2577974.29,"ADDRESS":"公誠街１１巷５號","OBJECTID":348955},"geometry":{"x":180319.01000000071,"y":2577974.2899999991}},{"attributes":{"ID":348965,"DIS_CODE":0,"TOWNNAME":"新營區","LI":"新東里","LIN":"6鄰","STREET":"東大街","SECT":" ","MAREA":" ","LANE":"６６巷","ALLEY":" ","HOUSE_NO":"１５號","E_COORD97":181082.89999999999,"N_COORD97":2579202.2000000002,"ADDRESS":"東大街６６巷１５號","OBJECTID":348956},"geometry":{"x":181082.9000000013,"y":2579202.2000000011}},{"attributes":{"ID":348966,"DIS_CODE":0,"TOWNNAME":"新營區","LI":"南興里","LIN":"6鄰","STREET":"和平路","SECT":" ","MAREA":" ","LANE":"９７巷","ALLEY":" ","HOUSE_NO":"２７號","E_COORD97":179488.89000000001,"N_COORD97":2577583.9700000002,"ADDRESS":"和平路９７巷２７號","OBJECTID":348957},"geometry":{"x":179488.8900000006,"y":2577583.9700000025}},{"attributes":{"ID":348967,"DIS_CODE":0,"TOWNNAME":"新營區","LI":"新北里","LIN":"6鄰","STREET":"三興街","SECT":" ","MAREA":" ","LANE":"２０５巷","ALLEY":" ","HOUSE_NO":"３７號","E_COORD97":179208.01000000001,"N_COORD97":2579594.23,"ADDRESS":"三興街２０５巷３７號","OBJECTID":348958},"geometry":{"x":179208.01000000164,"y":2579594.2300000004}},{"attributes":{"ID":348968,"DIS_CODE":0,"TOWNNAME":"新營區","LI":"埤寮里","LIN":"6鄰","STREET":"中正路","SECT":" ","MAREA":" ","LANE":"４８４巷","ALLEY":" ","HOUSE_NO":"４８號","E_COORD97":180320.79999999999,"N_COORD97":2580683.1099999999,"ADDRESS":"中正路４８４巷４８號","OBJECTID":348959},"geometry":{"x":180320.79999999981,"y":2580683.1100000031}},{"attributes":{"ID":348969,"DIS_CODE":0,"TOWNNAME":"新營區","LI":"新北里","LIN":"6鄰","STREET":"三興街","SECT":" ","MAREA":" ","LANE":"２７５巷","ALLEY":" ","HOUSE_NO":"３３號","E_COORD97":179219.5,"N_COORD97":2579645.1099999999,"ADDRESS":"三興街２７５巷３３號","OBJECTID":348960},"geometry":{"x":179219.5,"y":2579645.1099999994}},{"attributes":{"ID":348970,"DIS_CODE":0,"TOWNNAME":"新營區","LI":"南紙里","LIN":"6鄰","STREET":"南紙街","SECT":" ","MAREA":" ","LANE":"１３５巷","ALLEY":" ","HOUSE_NO":"３號","E_COORD97":177831.64999999999,"N_COORD97":2577395.9300000002,"ADDRESS":"南紙街１３５巷３號","OBJECTID":348961},"geometry":{"x":177831.6500000013,"y":2577395.9300000034}},{"attributes":{"ID":348971,"DIS_CODE":0,"TOWNNAME":"安平區","LI":"華平里","LIN":"6鄰","STREET":"怡平路","SECT":" ","MAREA":" ","LANE":"４１０巷","ALLEY":" ","HOUSE_NO":"１１３號","E_COORD97":165420.84,"N_COORD97":2544106.6400000001,"ADDRESS":"怡平路４１０巷１１３號","OBJECTID":348962},"geometry":{"x":165420.84000000078,"y":2544106.6400000025}},{"attributes":{"ID":348972,"DIS_CODE":0,"TOWNNAME":"安平區","LI":"華平里","LIN":"6鄰","STREET":"怡平路","SECT":" ","MAREA":" ","LANE":"４１０巷","ALLEY":" ","HOUSE_NO":"１１５號","E_COORD97":165415.22,"N_COORD97":2544107.2999999998,"ADDRESS":"怡平路４１０巷１１５號","OBJECTID":348963},"geometry":{"x":165415.22000000067,"y":2544107.3000000007}},{"attributes":{"ID":348973,"DIS_CODE":0,"TOWNNAME":"安平區","LI":"國平里","LIN":"6鄰","STREET":"文平路","SECT":" ","MAREA":" ","LANE":"１８７巷","ALLEY":" ","HOUSE_NO":"２６號","E_COORD97":165619.41,"N_COORD97":2543075.21,"ADDRESS":"文平路１８７巷２６號","OBJECTID":348964},"geometry":{"x":165619.41000000108,"y":2543075.2100000028}},{"attributes":{"ID":348974,"DIS_CODE":0,"TOWNNAME":"安平區","LI":"國平里","LIN":"6鄰","STREET":"文平路","SECT":" ","MAREA":" ","LANE":"１８７巷","ALLEY":" ","HOUSE_NO":"３２號","E_COORD97":165602.44,"N_COORD97":2543078.3500000001,"ADDRESS":"文平路１８７巷３２號","OBJECTID":348965},"geometry":{"x":165602.44000000134,"y":2543078.3499999996}},{"attributes":{"ID":348975,"DIS_CODE":0,"TOWNNAME":"安平區","LI":"國平里","LIN":"6鄰","STREET":"文平路","SECT":" ","MAREA":" ","LANE":"１８７巷","ALLEY":" ","HOUSE_NO":"３４號","E_COORD97":165598.67999999999,"N_COORD97":2543078.8399999999,"ADDRESS":"文平路１８７巷３４號","OBJECTID":348966},"geometry":{"x":165598.6799999997,"y":2543078.8399999999}},{"attributes":{"ID":348976,"DIS_CODE":0,"TOWNNAME":"安平區","LI":"國平里","LIN":"6鄰","STREET":"文平路","SECT":" ","MAREA":" ","LANE":"１８７巷","ALLEY":" ","HOUSE_NO":"３８號","E_COORD97":165589.01000000001,"N_COORD97":2543079.6600000001,"ADDRESS":"文平路１８７巷３８號","OBJECTID":348967},"geometry":{"x":165589.01000000071,"y":2543079.6600000001}},{"attributes":{"ID":348977,"DIS_CODE":0,"TOWNNAME":"安平區","LI":"國平里","LIN":"6鄰","STREET":"文平路","SECT":" ","MAREA":" ","LANE":"１８７巷","ALLEY":" ","HOUSE_NO":"４０號","E_COORD97":165584.09,"N_COORD97":2543080.3199999998,"ADDRESS":"文平路１８７巷４０號","OBJECTID":348968},"geometry":{"x":165584.09000000078,"y":2543080.3200000022}},{"attributes":{"ID":348978,"DIS_CODE":0,"TOWNNAME":"安平區","LI":"國平里","LIN":"6鄰","STREET":"文平路","SECT":" ","MAREA":" ","LANE":"１８７巷","ALLEY":" ","HOUSE_NO":"４６號","E_COORD97":165579.01000000001,"N_COORD97":2543080.9700000002,"ADDRESS":"文平路１８７巷４６號","OBJECTID":348969},"geometry":{"x":165579.01000000071,"y":2543080.9700000007}},{"attributes":{"ID":348979,"DIS_CODE":0,"TOWNNAME":"安平區","LI":"國平里","LIN":"6鄰","STREET":"文平路","SECT":" ","MAREA":" ","LANE":"１８７巷","ALLEY":" ","HOUSE_NO":"４８號","E_COORD97":165574.26000000001,"N_COORD97":2543081.46,"ADDRESS":"文平路１８７巷４８號","OBJECTID":348970},"geometry":{"x":165574.26000000071,"y":2543081.4600000009}},{"attributes":{"ID":348980,"DIS_CODE":0,"TOWNNAME":"安平區","LI":"國平里","LIN":"6鄰","STREET":"文平路","SECT":" ","MAREA":" ","LANE":"１８７巷","ALLEY":" ","HOUSE_NO":"５０號","E_COORD97":165570,"N_COORD97":2543081.46,"ADDRESS":"文平路１８７巷５０號","OBJECTID":348971},"geometry":{"x":165570,"y":2543081.4600000009}},{"attributes":{"ID":348981,"DIS_CODE":0,"TOWNNAME":"安平區","LI":"國平里","LIN":"6鄰","STREET":"文平路","SECT":" ","MAREA":" ","LANE":"１８７巷","ALLEY":" ","HOUSE_NO":"５２號","E_COORD97":165566.56,"N_COORD97":2543082.2799999998,"ADDRESS":"文平路１８７巷５２號","OBJECTID":348972},"geometry":{"x":165566.56000000052,"y":2543082.2799999975}},{"attributes":{"ID":348982,"DIS_CODE":0,"TOWNNAME":"安平區","LI":"國平里","LIN":"6鄰","STREET":"文平路","SECT":" ","MAREA":" ","LANE":"１８７巷","ALLEY":" ","HOUSE_NO":"５４號","E_COORD97":165561.64000000001,"N_COORD97":2543082.77,"ADDRESS":"文平路１８７巷５４號","OBJECTID":348973},"geometry":{"x":165561.63999999966,"y":2543082.7700000033}},{"attributes":{"ID":348983,"DIS_CODE":0,"TOWNNAME":"安平區","LI":"國平里","LIN":"6鄰","STREET":"文平路","SECT":" ","MAREA":" ","LANE":"１８７巷","ALLEY":" ","HOUSE_NO":"５６號","E_COORD97":165557.22,"N_COORD97":2543083.2599999998,"ADDRESS":"文平路１８７巷５６號","OBJECTID":348974},"geometry":{"x":165557.22000000067,"y":2543083.2600000035}},{"attributes":{"ID":348984,"DIS_CODE":0,"TOWNNAME":"安平區","LI":"國平里","LIN":"6鄰","STREET":"文平路","SECT":" ","MAREA":" ","LANE":"１８７巷","ALLEY":" ","HOUSE_NO":"５８號","E_COORD97":165552.14000000001,"N_COORD97":2543083.5899999999,"ADDRESS":"文平路１８７巷５８號","OBJECTID":348975},"geometry":{"x":165552.13999999873,"y":2543083.5899999999}},{"attributes":{"ID":348985,"DIS_CODE":0,"TOWNNAME":"安平區","LI":"國平里","LIN":"6鄰","STREET":"文平路","SECT":" ","MAREA":" ","LANE":"１８７巷","ALLEY":" ","HOUSE_NO":"６０號","E_COORD97":165548.04000000001,"N_COORD97":2543084.25,"ADDRESS":"文平路１８７巷６０號","OBJECTID":348976},"geometry":{"x":165548.04000000004,"y":2543084.2500000019}},{"attributes":{"ID":348986,"DIS_CODE":0,"TOWNNAME":"安平區","LI":"國平里","LIN":"6鄰","STREET":"文平路","SECT":" ","MAREA":" ","LANE":"１８７巷","ALLEY":" ","HOUSE_NO":"６２號","E_COORD97":165543.12,"N_COORD97":2543084.7400000002,"ADDRESS":"文平路１８７巷６２號","OBJECTID":348977},"geometry":{"x":165543.12000000104,"y":2543084.7400000021}},{"attributes":{"ID":348987,"DIS_CODE":0,"TOWNNAME":"安平區","LI":"國平里","LIN":"6鄰","STREET":"文平路","SECT":" ","MAREA":" ","LANE":"１８７巷","ALLEY":" ","HOUSE_NO":"６４號","E_COORD97":165538.53,"N_COORD97":2543085.0600000001,"ADDRESS":"文平路１８７巷６４號","OBJECTID":348978},"geometry":{"x":165538.53000000119,"y":2543085.0599999987}},{"attributes":{"ID":348988,"DIS_CODE":0,"TOWNNAME":"安平區","LI":"國平里","LIN":"6鄰","STREET":"文平路","SECT":" ","MAREA":" ","LANE":"１８７巷","ALLEY":" ","HOUSE_NO":"６６號","E_COORD97":165534.26999999999,"N_COORD97":2543085.7200000002,"ADDRESS":"文平路１８７巷６６號","OBJECTID":348979},"geometry":{"x":165534.27000000142,"y":2543085.7200000025}},{"attributes":{"ID":348989,"DIS_CODE":0,"TOWNNAME":"安平區","LI":"國平里","LIN":"6鄰","STREET":"文平路","SECT":" ","MAREA":" ","LANE":"１８７巷","ALLEY":" ","HOUSE_NO":"６８號","E_COORD97":165530.01000000001,"N_COORD97":2543087.0299999998,"ADDRESS":"文平路１８７巷６８號","OBJECTID":348980},"geometry":{"x":165530.01000000071,"y":2543087.0299999993}},{"attributes":{"ID":348990,"DIS_CODE":0,"TOWNNAME":"安平區","LI":"國平里","LIN":"6鄰","STREET":"文平路","SECT":" ","MAREA":" ","LANE":"１８７巷","ALLEY":" ","HOUSE_NO":"７０號","E_COORD97":165525.75,"N_COORD97":2543087.1899999999,"ADDRESS":"文平路１８７巷７０號","OBJECTID":348981},"geometry":{"x":165525.75,"y":2543087.1900000013}},{"attributes":{"ID":348991,"DIS_CODE":0,"TOWNNAME":"安平區","LI":"國平里","LIN":"6鄰","STREET":"文平路","SECT":" ","MAREA":" ","LANE":"１８７巷","ALLEY":" ","HOUSE_NO":"７２號","E_COORD97":165521.32999999999,"N_COORD97":2543087.6800000002,"ADDRESS":"文平路１８７巷７２號","OBJECTID":348982},"geometry":{"x":165521.33000000101,"y":2543087.6800000016}},{"attributes":{"ID":348992,"DIS_CODE":0,"TOWNNAME":"安平區","LI":"國平里","LIN":"6鄰","STREET":"文平路","SECT":" ","MAREA":" ","LANE":"１８７巷","ALLEY":" ","HOUSE_NO":"７４號","E_COORD97":165516.07999999999,"N_COORD97":2543088.0099999998,"ADDRESS":"文平路１８７巷７４號","OBJECTID":348983},"geometry":{"x":165516.08000000101,"y":2543088.0099999979}},{"attributes":{"ID":348993,"DIS_CODE":0,"TOWNNAME":"安平區","LI":"國平里","LIN":"6鄰","STREET":"文平路","SECT":" ","MAREA":" ","LANE":"１８７巷","ALLEY":" ","HOUSE_NO":"７６號","E_COORD97":165511.66,"N_COORD97":2543088.8300000001,"ADDRESS":"文平路１８７巷７６號","OBJECTID":348984},"geometry":{"x":165511.66000000015,"y":2543088.8300000001}},{"attributes":{"ID":348994,"DIS_CODE":0,"TOWNNAME":"安平區","LI":"文平里","LIN":"6鄰","STREET":"建平六街","SECT":" ","MAREA":" ","LANE":"７４巷","ALLEY":" ","HOUSE_NO":"１５號","E_COORD97":166314.5,"N_COORD97":2543159.9900000002,"ADDRESS":"建平六街７４巷１５號","OBJECTID":348985},"geometry":{"x":166314.5,"y":2543159.9900000039}},{"attributes":{"ID":348995,"DIS_CODE":0,"TOWNNAME":"安平區","LI":"文平里","LIN":"6鄰","STREET":"建平六街","SECT":" ","MAREA":" ","LANE":"７４巷","ALLEY":" ","HOUSE_NO":"１７號","E_COORD97":166315.17000000001,"N_COORD97":2543164.1099999999,"ADDRESS":"建平六街７４巷１７號","OBJECTID":348986},"geometry":{"x":166315.17000000179,"y":2543164.1099999994}},{"attributes":{"ID":348996,"DIS_CODE":0,"TOWNNAME":"安平區","LI":"文平里","LIN":"6鄰","STREET":"建平六街","SECT":" ","MAREA":" ","LANE":"７４巷","ALLEY":" ","HOUSE_NO":"１９號","E_COORD97":166315.45999999999,"N_COORD97":2543168.4199999999,"ADDRESS":"建平六街７４巷１９號","OBJECTID":348987},"geometry":{"x":166315.46000000089,"y":2543168.4200000018}},{"attributes":{"ID":348997,"DIS_CODE":0,"TOWNNAME":"南區","LI":"省躬里","LIN":"6鄰","STREET":"省躬一街","SECT":" ","MAREA":" ","LANE":"１９巷","ALLEY":" ","HOUSE_NO":"３號","E_COORD97":165865.03,"N_COORD97":2536932.46,"ADDRESS":"省躬一街１９巷３號","OBJECTID":348988},"geometry":{"x":165865.03000000026,"y":2536932.4600000009}},{"attributes":{"ID":348998,"DIS_CODE":0,"TOWNNAME":"南區","LI":"省躬里","LIN":"6鄰","STREET":"省躬一街","SECT":" ","MAREA":" ","LANE":"１９巷","ALLEY":" ","HOUSE_NO":"５號","E_COORD97":165872.62,"N_COORD97":2536933.98,"ADDRESS":"省躬一街１９巷５號","OBJECTID":348989},"geometry":{"x":165872.62000000011,"y":2536933.9800000004}},{"attributes":{"ID":348999,"DIS_CODE":0,"TOWNNAME":"南區","LI":"省躬里","LIN":"6鄰","STREET":"省躬一街","SECT":" ","MAREA":" ","LANE":"１９巷","ALLEY":" ","HOUSE_NO":"６號","E_COORD97":165868.07000000001,"N_COORD97":2536920.9500000002,"ADDRESS":"省躬一街１９巷６號","OBJECTID":348990},"geometry":{"x":165868.0700000003,"y":2536920.950000003}},{"attributes":{"ID":349000,"DIS_CODE":0,"TOWNNAME":"南區","LI":"省躬里","LIN":"6鄰","STREET":"省躬一街","SECT":" ","MAREA":" ","LANE":"１９巷","ALLEY":" ","HOUSE_NO":"８號","E_COORD97":165874.44,"N_COORD97":2536922.1600000001,"ADDRESS":"省躬一街１９巷８號","OBJECTID":348991},"geometry":{"x":165874.44000000041,"y":2536922.160000002}},{"attributes":{"ID":349001,"DIS_CODE":0,"TOWNNAME":"南區","LI":"省躬里","LIN":"6鄰","STREET":"灣裡路","SECT":" ","MAREA":" ","LANE":"７２巷","ALLEY":" ","HOUSE_NO":"１１號","E_COORD97":165848.95000000001,"N_COORD97":2536946.3999999999,"ADDRESS":"灣裡路７２巷１１號","OBJECTID":348992},"geometry":{"x":165848.94999999925,"y":2536946.4000000041}},{"attributes":{"ID":349002,"DIS_CODE":0,"TOWNNAME":"南區","LI":"省躬里","LIN":"6鄰","STREET":"灣裡路","SECT":" ","MAREA":" ","LANE":"７２巷","ALLEY":" ","HOUSE_NO":"１２號","E_COORD97":165906.29000000001,"N_COORD97":2536914.29,"ADDRESS":"灣裡路７２巷１２號","OBJECTID":348993},"geometry":{"x":165906.29000000097,"y":2536914.2899999991}},{"attributes":{"ID":349003,"DIS_CODE":0,"TOWNNAME":"南區","LI":"省躬里","LIN":"6鄰","STREET":"灣裡路","SECT":" ","MAREA":" ","LANE":"７２巷","ALLEY":" ","HOUSE_NO":"１４號","E_COORD97":165886.26999999999,"N_COORD97":2536910.9500000002,"ADDRESS":"灣裡路７２巷１４號","OBJECTID":348994},"geometry":{"x":165886.26999999955,"y":2536910.950000003}},{"attributes":{"ID":349004,"DIS_CODE":0,"TOWNNAME":"南區","LI":"省躬里","LIN":"6鄰","STREET":"灣裡路","SECT":" ","MAREA":" ","LANE":"７２巷","ALLEY":" ","HOUSE_NO":"１５號","E_COORD97":165892.94,"N_COORD97":2536951.5499999998,"ADDRESS":"灣裡路７２巷１５號","OBJECTID":348995},"geometry":{"x":165892.94000000041,"y":2536951.5500000007}},{"attributes":{"ID":349005,"DIS_CODE":0,"TOWNNAME":"南區","LI":"省躬里","LIN":"6鄰","STREET":"灣裡路","SECT":" ","MAREA":" ","LANE":"７２巷","ALLEY":" ","HOUSE_NO":"１５號之１","E_COORD97":165893.25,"N_COORD97":2536934.5800000001,"ADDRESS":"灣裡路７２巷１５號之１","OBJECTID":348996},"geometry":{"x":165893.25000000093,"y":2536934.5800000038}},{"attributes":{"ID":349006,"DIS_CODE":0,"TOWNNAME":"南區","LI":"省躬里","LIN":"6鄰","STREET":"灣裡路","SECT":" ","MAREA":" ","LANE":"７２巷","ALLEY":" ","HOUSE_NO":"１６號","E_COORD97":165880.81,"N_COORD97":2536909.4399999999,"ADDRESS":"灣裡路７２巷１６號","OBJECTID":348997},"geometry":{"x":165880.80999999959,"y":2536909.4399999995}},{"attributes":{"ID":349007,"DIS_CODE":0,"TOWNNAME":"六甲區","LI":"七甲里","LIN":"6鄰","STREET":"七甲街","SECT":" ","MAREA":" ","LANE":"１６６巷","ALLEY":" ","HOUSE_NO":"６號","E_COORD97":183088.34,"N_COORD97":2569152.7200000002,"ADDRESS":"七甲街１６６巷６號","OBJECTID":348998},"geometry":{"x":183088.34000000078,"y":2569152.7199999988}},{"attributes":{"ID":349008,"DIS_CODE":0,"TOWNNAME":"南區","LI":"省躬里","LIN":"6鄰","STREET":"灣裡路","SECT":" ","MAREA":" ","LANE":"７２巷","ALLEY":" ","HOUSE_NO":"１８號","E_COORD97":165873.22,"N_COORD97":2536909.1400000001,"ADDRESS":"灣裡路７２巷１８號","OBJECTID":348999},"geometry":{"x":165873.21999999974,"y":2536909.1400000025}},{"attributes":{"ID":349009,"DIS_CODE":0,"TOWNNAME":"南區","LI":"省躬里","LIN":"6鄰","STREET":"灣裡路","SECT":" ","MAREA":" ","LANE":"７２巷","ALLEY":" ","HOUSE_NO":"２０號","E_COORD97":165866.25,"N_COORD97":2536907.02,"ADDRESS":"灣裡路７２巷２０號","OBJECTID":349000},"geometry":{"x":165866.25000000093,"y":2536907.0199999977}}]}