{"displayFieldName":"TOWNNAME","fieldAliases":{"ID":"ID","DIS_CODE":"DIS_CODE","TOWNNAME":"TOWNNAME","LI":"LI","LIN":"LIN","STREET":"STREET","SECT":"SECT","MAREA":"MAREA","LANE":"LANE","ALLEY":"ALLEY","HOUSE_NO":"HOUSE_NO","E_COORD97":"E_COORD97","N_COORD97":"N_COORD97","ADDRESS":"ADDRESS","OBJECTID":"OBJECTID"},"geometryType":"esriGeometryPoint","spatialReference":{"wkid":102443,"latestWkid":3826},"fields":[{"name":"ID","type":"esriFieldTypeDouble","alias":"ID"},{"name":"DIS_CODE","type":"esriFieldTypeInteger","alias":"DIS_CODE"},{"name":"TOWNNAME","type":"esriFieldTypeString","alias":"TOWNNAME","length":8},{"name":"LI","type":"esriFieldTypeString","alias":"LI","length":8},{"name":"LIN","type":"esriFieldTypeString","alias":"LIN","length":12},{"name":"STREET","type":"esriFieldTypeString","alias":"STREET","length":20},{"name":"SECT","type":"esriFieldTypeString","alias":"SECT","length":8},{"name":"MAREA","type":"esriFieldTypeString","alias":"MAREA","length":12},{"name":"LANE","type":"esriFieldTypeString","alias":"LANE","length":10},{"name":"ALLEY","type":"esriFieldTypeString","alias":"ALLEY","length":10},{"name":"HOUSE_NO","type":"esriFieldTypeString","alias":"HOUSE_NO","length":20},{"name":"E_COORD97","type":"esriFieldTypeDouble","alias":"E_COORD97"},{"name":"N_COORD97","type":"esriFieldTypeDouble","alias":"N_COORD97"},{"name":"ADDRESS","type":"esriFieldTypeString","alias":"ADDRESS","length":50},{"name":"OBJECTID","type":"esriFieldTypeOID","alias":"OBJECTID"}],"features":[{"attributes":{"ID":333610,"DIS_CODE":0,"TOWNNAME":"永康區","LI":"復興里","LIN":"15鄰","STREET":"復興路","SECT":" ","MAREA":" ","LANE":"３５６巷","ALLEY":" ","HOUSE_NO":"１３號","E_COORD97":172239.92000000001,"N_COORD97":2544375.5299999998,"ADDRESS":"復興路３５６巷１３號","OBJECTID":333601},"geometry":{"x":172239.92000000179,"y":2544375.5299999993}},{"attributes":{"ID":333611,"DIS_CODE":0,"TOWNNAME":"龍崎區","LI":"崎頂里","LIN":"16鄰","STREET":" ","SECT":" ","MAREA":"過嶺","LANE":" ","ALLEY":" ","HOUSE_NO":"２０之５號","E_COORD97":189088.940076,"N_COORD97":2541151.23759,"ADDRESS":"過嶺２０之５號","OBJECTID":333602},"geometry":{"x":189088.94007600006,"y":2541151.2375910021}},{"attributes":{"ID":333612,"DIS_CODE":0,"TOWNNAME":"永康區","LI":"復興里","LIN":"15鄰","STREET":"復興路","SECT":" ","MAREA":" ","LANE":"３５６巷","ALLEY":" ","HOUSE_NO":"３號","E_COORD97":172212.39999999999,"N_COORD97":2544369.2799999998,"ADDRESS":"復興路３５６巷３號","OBJECTID":333603},"geometry":{"x":172212.4000000013,"y":2544369.2799999993}},{"attributes":{"ID":333613,"DIS_CODE":0,"TOWNNAME":"永康區","LI":"復興里","LIN":"15鄰","STREET":"復興路","SECT":" ","MAREA":" ","LANE":"３５６巷","ALLEY":" ","HOUSE_NO":"１１號","E_COORD97":172227.97,"N_COORD97":2544381.7799999998,"ADDRESS":"復興路３５６巷１１號","OBJECTID":333604},"geometry":{"x":172227.97000000067,"y":2544381.7800000012}},{"attributes":{"ID":333614,"DIS_CODE":0,"TOWNNAME":"永康區","LI":"網寮里","LIN":"15鄰","STREET":"永勝街","SECT":" ","MAREA":" ","LANE":"２４８巷","ALLEY":" ","HOUSE_NO":"９號","E_COORD97":173411.89000000001,"N_COORD97":2546637.7599999998,"ADDRESS":"永勝街２４８巷９號","OBJECTID":333605},"geometry":{"x":173411.8900000006,"y":2546637.7600000016}},{"attributes":{"ID":333615,"DIS_CODE":0,"TOWNNAME":"永康區","LI":"網寮里","LIN":"15鄰","STREET":"永勝街","SECT":" ","MAREA":" ","LANE":"２４８巷","ALLEY":" ","HOUSE_NO":"８號","E_COORD97":173398.19,"N_COORD97":2546633.3399999999,"ADDRESS":"永勝街２４８巷８號","OBJECTID":333606},"geometry":{"x":173398.19000000134,"y":2546633.3400000017}},{"attributes":{"ID":333616,"DIS_CODE":0,"TOWNNAME":"永康區","LI":"網寮里","LIN":"15鄰","STREET":"永勝街","SECT":" ","MAREA":" ","LANE":"２４８巷","ALLEY":" ","HOUSE_NO":"１２號","E_COORD97":173409.17000000001,"N_COORD97":2546628.8399999999,"ADDRESS":"永勝街２４８巷１２號","OBJECTID":333607},"geometry":{"x":173409.16999999993,"y":2546628.839999998}},{"attributes":{"ID":333617,"DIS_CODE":0,"TOWNNAME":"新營區","LI":"民權里","LIN":"13鄰","STREET":"信義街","SECT":" ","MAREA":" ","LANE":"５９巷","ALLEY":" ","HOUSE_NO":"２號","E_COORD97":179891.48000000001,"N_COORD97":2578402.6699999999,"ADDRESS":"信義街５９巷２號","OBJECTID":333608},"geometry":{"x":179891.48000000045,"y":2578402.6700000018}},{"attributes":{"ID":333618,"DIS_CODE":0,"TOWNNAME":"新營區","LI":"新南里","LIN":"18鄰","STREET":"隋唐街","SECT":" ","MAREA":" ","LANE":"３１巷","ALLEY":" ","HOUSE_NO":"２４號","E_COORD97":178685.69,"N_COORD97":2578390.7200000002,"ADDRESS":"隋唐街３１巷２４號","OBJECTID":333609},"geometry":{"x":178685.69000000134,"y":2578390.7200000007}},{"attributes":{"ID":333619,"DIS_CODE":0,"TOWNNAME":"新營區","LI":"忠政里","LIN":"32鄰","STREET":"府西路","SECT":" ","MAREA":" ","LANE":"１７巷","ALLEY":" ","HOUSE_NO":"６號","E_COORD97":179800.79999999999,"N_COORD97":2578922.5,"ADDRESS":"府西路１７巷６號","OBJECTID":333610},"geometry":{"x":179800.79999999981,"y":2578922.5000000019}},{"attributes":{"ID":333620,"DIS_CODE":0,"TOWNNAME":"仁德區","LI":"土庫里","LIN":"15鄰","STREET":"土庫一街","SECT":" ","MAREA":" ","LANE":"２２巷","ALLEY":" ","HOUSE_NO":"１６號","E_COORD97":174472.09,"N_COORD97":2543021.5,"ADDRESS":"土庫一街２２巷１６號","OBJECTID":333611},"geometry":{"x":174472.08999999985,"y":2543021.5000000019}},{"attributes":{"ID":333621,"DIS_CODE":0,"TOWNNAME":"仁德區","LI":"二行里","LIN":"15鄰","STREET":"中正西路","SECT":" ","MAREA":" ","LANE":"３５３巷","ALLEY":" ","HOUSE_NO":"１２號","E_COORD97":169789.51000000001,"N_COORD97":2535336,"ADDRESS":"中正西路３５３巷１２號","OBJECTID":333612},"geometry":{"x":169789.51000000164,"y":2535336.0000000019}},{"attributes":{"ID":333622,"DIS_CODE":0,"TOWNNAME":"仁德區","LI":"土庫里","LIN":"15鄰","STREET":"土庫一街","SECT":" ","MAREA":" ","LANE":"２２巷","ALLEY":" ","HOUSE_NO":"１４號","E_COORD97":174451.51999999999,"N_COORD97":2543033.5,"ADDRESS":"土庫一街２２巷１４號","OBJECTID":333613},"geometry":{"x":174451.52000000048,"y":2543033.5}},{"attributes":{"ID":333623,"DIS_CODE":0,"TOWNNAME":"仁德區","LI":"仁義里","LIN":"15鄰","STREET":"義林路","SECT":" ","MAREA":" ","LANE":"２５６巷","ALLEY":" ","HOUSE_NO":"８６號","E_COORD97":175061.32999999999,"N_COORD97":2541486.0099999998,"ADDRESS":"義林路２５６巷８６號","OBJECTID":333614},"geometry":{"x":175061.32999999914,"y":2541486.0100000016}},{"attributes":{"ID":333624,"DIS_CODE":0,"TOWNNAME":"仁德區","LI":"太子里","LIN":"15鄰","STREET":"太子北路","SECT":" ","MAREA":" ","LANE":"１２０巷","ALLEY":" ","HOUSE_NO":"８號","E_COORD97":174097.28,"N_COORD97":2543709.5,"ADDRESS":"太子北路１２０巷８號","OBJECTID":333615},"geometry":{"x":174097.27999999933,"y":2543709.5000000019}},{"attributes":{"ID":333625,"DIS_CODE":0,"TOWNNAME":"關廟區","LI":"龜洞里","LIN":"8鄰","STREET":"官崙街","SECT":" ","MAREA":" ","LANE":"９巷","ALLEY":" ","HOUSE_NO":"２２號","E_COORD97":183572.999526,"N_COORD97":2533427.89219,"ADDRESS":"官崙街９巷２２號","OBJECTID":333616},"geometry":{"x":183572.99952600058,"y":2533427.8921870012}},{"attributes":{"ID":333626,"DIS_CODE":0,"TOWNNAME":"鹽水區","LI":"橋南里","LIN":"6鄰","STREET":"南門路","SECT":" ","MAREA":" ","LANE":" ","ALLEY":" ","HOUSE_NO":"１００號","E_COORD97":175203.944185,"N_COORD97":2579229.73753,"ADDRESS":"南門路１００號","OBJECTID":333617},"geometry":{"x":175203.94418500084,"y":2579229.7375300042}},{"attributes":{"ID":333627,"DIS_CODE":0,"TOWNNAME":"關廟區","LI":"龜洞里","LIN":"8鄰","STREET":"官崙街","SECT":" ","MAREA":" ","LANE":" ","ALLEY":" ","HOUSE_NO":"２５號","E_COORD97":183473.207692,"N_COORD97":2533430.3263500002,"ADDRESS":"官崙街２５號","OBJECTID":333618},"geometry":{"x":183473.20769200101,"y":2533430.3263530042}},{"attributes":{"ID":333628,"DIS_CODE":0,"TOWNNAME":"東區","LI":"裕農里","LIN":"14鄰","STREET":"裕豐街","SECT":" ","MAREA":" ","LANE":" ","ALLEY":" ","HOUSE_NO":"２２０號之１","E_COORD97":170799.01999999999,"N_COORD97":2543201.0699999998,"ADDRESS":"裕豐街２２０號之１","OBJECTID":333619},"geometry":{"x":170799.01999999955,"y":2543201.0700000022}},{"attributes":{"ID":333629,"DIS_CODE":0,"TOWNNAME":"東區","LI":"泉南里","LIN":"17鄰","STREET":"府連路","SECT":" ","MAREA":" ","LANE":" ","ALLEY":" ","HOUSE_NO":"４１８號","E_COORD97":169716.95000000001,"N_COORD97":2542863.1000000001,"ADDRESS":"府連路４１８號","OBJECTID":333620},"geometry":{"x":169716.95000000019,"y":2542863.0999999996}},{"attributes":{"ID":333630,"DIS_CODE":0,"TOWNNAME":"東區","LI":"中西里","LIN":"8鄰","STREET":"勝利路","SECT":" ","MAREA":" ","LANE":" ","ALLEY":" ","HOUSE_NO":"２０號之２","E_COORD97":169824.52433300001,"N_COORD97":2543400.25966,"ADDRESS":"勝利路２０號之２","OBJECTID":333621},"geometry":{"x":169824.52433300111,"y":2543400.2596560027}},{"attributes":{"ID":333631,"DIS_CODE":0,"TOWNNAME":"東區","LI":"中西里","LIN":"8鄰","STREET":"勝利路","SECT":" ","MAREA":" ","LANE":" ","ALLEY":" ","HOUSE_NO":"２０號之３","E_COORD97":169829.609302,"N_COORD97":2543401.1063199998,"ADDRESS":"勝利路２０號之３","OBJECTID":333622},"geometry":{"x":169829.60930199921,"y":2543401.1063230038}},{"attributes":{"ID":333632,"DIS_CODE":0,"TOWNNAME":"東區","LI":"中西里","LIN":"8鄰","STREET":"勝利路","SECT":" ","MAREA":" ","LANE":" ","ALLEY":" ","HOUSE_NO":"２０號之４","E_COORD97":169833.423029,"N_COORD97":2543402.79966,"ADDRESS":"勝利路２０號之４","OBJECTID":333623},"geometry":{"x":169833.42302899994,"y":2543402.7996550016}},{"attributes":{"ID":333633,"DIS_CODE":0,"TOWNNAME":"東區","LI":"中西里","LIN":"8鄰","STREET":"勝利路","SECT":" ","MAREA":" ","LANE":" ","ALLEY":" ","HOUSE_NO":"２０號之５","E_COORD97":169836.813008,"N_COORD97":2543403.8579899999,"ADDRESS":"勝利路２０號之５","OBJECTID":333624},"geometry":{"x":169836.81300800107,"y":2543403.8579879999}},{"attributes":{"ID":333634,"DIS_CODE":0,"TOWNNAME":"東區","LI":"中西里","LIN":"8鄰","STREET":"勝利路","SECT":" ","MAREA":" ","LANE":" ","ALLEY":" ","HOUSE_NO":"２０號之６","E_COORD97":169840.414861,"N_COORD97":2543404.9163199998,"ADDRESS":"勝利路２０號之６","OBJECTID":333625},"geometry":{"x":169840.41486100107,"y":2543404.9163200036}},{"attributes":{"ID":333635,"DIS_CODE":0,"TOWNNAME":"東區","LI":"中西里","LIN":"8鄰","STREET":"勝利路","SECT":" ","MAREA":" ","LANE":" ","ALLEY":" ","HOUSE_NO":"２０號之８","E_COORD97":169847.61856599999,"N_COORD97":2543409.14965,"ADDRESS":"勝利路２０號之８","OBJECTID":333626},"geometry":{"x":169847.61856600083,"y":2543409.1496520005}},{"attributes":{"ID":333636,"DIS_CODE":0,"TOWNNAME":"六甲區","LI":"甲東里","LIN":"20鄰","STREET":"裕農街","SECT":" ","MAREA":" ","LANE":"４９巷","ALLEY":" ","HOUSE_NO":"１２之１號","E_COORD97":184125.89999999999,"N_COORD97":2569768.5099999998,"ADDRESS":"裕農街４９巷１２之１號","OBJECTID":333627},"geometry":{"x":184125.9000000013,"y":2569768.5100000016}},{"attributes":{"ID":333637,"DIS_CODE":0,"TOWNNAME":"六甲區","LI":"甲東里","LIN":"20鄰","STREET":"裕農街","SECT":" ","MAREA":" ","LANE":"４９巷","ALLEY":" ","HOUSE_NO":"１２號之２","E_COORD97":184124.60999999999,"N_COORD97":2569774.52,"ADDRESS":"裕農街４９巷１２號之２","OBJECTID":333628},"geometry":{"x":184124.61000000127,"y":2569774.5200000014}},{"attributes":{"ID":333638,"DIS_CODE":0,"TOWNNAME":"六甲區","LI":"甲東里","LIN":"20鄰","STREET":"裕農街","SECT":" ","MAREA":" ","LANE":"４９巷","ALLEY":" ","HOUSE_NO":"１２號","E_COORD97":184127.29000000001,"N_COORD97":2569763.54,"ADDRESS":"裕農街４９巷１２號","OBJECTID":333629},"geometry":{"x":184127.29000000004,"y":2569763.540000001}},{"attributes":{"ID":333639,"DIS_CODE":0,"TOWNNAME":"六甲區","LI":"甲東里","LIN":"20鄰","STREET":"裕農街","SECT":" ","MAREA":" ","LANE":"４９巷","ALLEY":" ","HOUSE_NO":"１４號","E_COORD97":184125.54999999999,"N_COORD97":2569786.0600000001,"ADDRESS":"裕農街４９巷１４號","OBJECTID":333630},"geometry":{"x":184125.55000000168,"y":2569786.0600000024}},{"attributes":{"ID":333640,"DIS_CODE":0,"TOWNNAME":"六甲區","LI":"甲東里","LIN":"20鄰","STREET":"裕農街","SECT":" ","MAREA":" ","LANE":"４９巷","ALLEY":" ","HOUSE_NO":"１６之１號","E_COORD97":184123.07999999999,"N_COORD97":2569799.4199999999,"ADDRESS":"裕農街４９巷１６之１號","OBJECTID":333631},"geometry":{"x":184123.08000000007,"y":2569799.4200000018}},{"attributes":{"ID":333641,"DIS_CODE":0,"TOWNNAME":"六甲區","LI":"甲東里","LIN":"20鄰","STREET":"裕農街","SECT":" ","MAREA":" ","LANE":"４９巷","ALLEY":" ","HOUSE_NO":"１６號","E_COORD97":184124.07999999999,"N_COORD97":2569795.3799999999,"ADDRESS":"裕農街４９巷１６號","OBJECTID":333632},"geometry":{"x":184124.08000000101,"y":2569795.3800000008}},{"attributes":{"ID":333642,"DIS_CODE":0,"TOWNNAME":"六甲區","LI":"甲東里","LIN":"20鄰","STREET":"裕農街","SECT":" ","MAREA":" ","LANE":"４９巷","ALLEY":" ","HOUSE_NO":"１８之１號","E_COORD97":184121.28,"N_COORD97":2569807.23,"ADDRESS":"裕農街４９巷１８之１號","OBJECTID":333633},"geometry":{"x":184121.28000000119,"y":2569807.2300000042}},{"attributes":{"ID":333643,"DIS_CODE":0,"TOWNNAME":"六甲區","LI":"甲東里","LIN":"20鄰","STREET":"裕農街","SECT":" ","MAREA":" ","LANE":"４９巷","ALLEY":" ","HOUSE_NO":"１８之２號","E_COORD97":184115.01000000001,"N_COORD97":2569813.3999999999,"ADDRESS":"裕農街４９巷１８之２號","OBJECTID":333634},"geometry":{"x":184115.00999999978,"y":2569813.4000000022}},{"attributes":{"ID":333644,"DIS_CODE":0,"TOWNNAME":"東區","LI":"泉南里","LIN":"17鄰","STREET":"府連路","SECT":" ","MAREA":" ","LANE":" ","ALLEY":" ","HOUSE_NO":"４２０號","E_COORD97":169718.59,"N_COORD97":2542866.7999999998,"ADDRESS":"府連路４２０號","OBJECTID":333635},"geometry":{"x":169718.59000000078,"y":2542866.8000000045}},{"attributes":{"ID":333645,"DIS_CODE":0,"TOWNNAME":"東區","LI":"忠孝里","LIN":"25鄰","STREET":"崇明四街","SECT":" ","MAREA":" ","LANE":" ","ALLEY":" ","HOUSE_NO":"２９號","E_COORD97":169642.91,"N_COORD97":2542312.96,"ADDRESS":"崇明四街２９號","OBJECTID":333636},"geometry":{"x":169642.91000000015,"y":2542312.9600000009}},{"attributes":{"ID":333646,"DIS_CODE":0,"TOWNNAME":"東區","LI":"德高里","LIN":"13鄰","STREET":"崇善路","SECT":" ","MAREA":" ","LANE":" ","ALLEY":" ","HOUSE_NO":"９４１號","E_COORD97":171477.16,"N_COORD97":2540606,"ADDRESS":"崇善路９４１號","OBJECTID":333637},"geometry":{"x":171477.16000000015,"y":2540606}},{"attributes":{"ID":333647,"DIS_CODE":0,"TOWNNAME":"東區","LI":"德高里","LIN":"13鄰","STREET":"崇善路","SECT":" ","MAREA":" ","LANE":" ","ALLEY":" ","HOUSE_NO":"９４３號","E_COORD97":171479.37,"N_COORD97":2540603.3999999999,"ADDRESS":"崇善路９４３號","OBJECTID":333638},"geometry":{"x":171479.37000000197,"y":2540603.4000000004}},{"attributes":{"ID":333648,"DIS_CODE":0,"TOWNNAME":"東區","LI":"德高里","LIN":"13鄰","STREET":"崇善路","SECT":" ","MAREA":" ","LANE":" ","ALLEY":" ","HOUSE_NO":"９４５號","E_COORD97":171482.88,"N_COORD97":2540599.8900000001,"ADDRESS":"崇善路９４５號","OBJECTID":333639},"geometry":{"x":171482.88000000082,"y":2540599.8900000006}},{"attributes":{"ID":333649,"DIS_CODE":0,"TOWNNAME":"東區","LI":"德高里","LIN":"13鄰","STREET":"崇善路","SECT":" ","MAREA":" ","LANE":" ","ALLEY":" ","HOUSE_NO":"９４７號","E_COORD97":171485.09,"N_COORD97":2540596.3799999999,"ADDRESS":"崇善路９４７號","OBJECTID":333640},"geometry":{"x":171485.09000000078,"y":2540596.3800000027}},{"attributes":{"ID":333650,"DIS_CODE":0,"TOWNNAME":"東區","LI":"德高里","LIN":"13鄰","STREET":"崇善路","SECT":" ","MAREA":" ","LANE":" ","ALLEY":" ","HOUSE_NO":"９４９號","E_COORD97":171487.44,"N_COORD97":2540592.6200000001,"ADDRESS":"崇善路９４９號","OBJECTID":333641},"geometry":{"x":171487.43999999948,"y":2540592.620000001}},{"attributes":{"ID":333651,"DIS_CODE":0,"TOWNNAME":"東區","LI":"大學里","LIN":"20鄰","STREET":"長榮路","SECT":"三段","MAREA":" ","LANE":" ","ALLEY":" ","HOUSE_NO":"２３號","E_COORD97":170192.01999999999,"N_COORD97":2543760.2799999998,"ADDRESS":"長榮路三段２３號","OBJECTID":333642},"geometry":{"x":170192.01999999955,"y":2543760.2799999993}},{"attributes":{"ID":333652,"DIS_CODE":0,"TOWNNAME":"東區","LI":"忠孝里","LIN":"26鄰","STREET":"林森路","SECT":"一段","MAREA":" ","LANE":" ","ALLEY":" ","HOUSE_NO":"１７０號","E_COORD97":169584,"N_COORD97":2542489.0699999998,"ADDRESS":"林森路一段１７０號","OBJECTID":333643},"geometry":{"x":169584,"y":2542489.0700000022}},{"attributes":{"ID":333653,"DIS_CODE":0,"TOWNNAME":"東區","LI":"忠孝里","LIN":"25鄰","STREET":"崇明三街","SECT":" ","MAREA":" ","LANE":" ","ALLEY":" ","HOUSE_NO":"２２號","E_COORD97":169587.62,"N_COORD97":2542332.3100000001,"ADDRESS":"崇明三街２２號","OBJECTID":333644},"geometry":{"x":169587.62000000104,"y":2542332.3100000024}},{"attributes":{"ID":333654,"DIS_CODE":0,"TOWNNAME":"東區","LI":"忠孝里","LIN":"25鄰","STREET":"崇明三街","SECT":" ","MAREA":" ","LANE":" ","ALLEY":" ","HOUSE_NO":"２４號","E_COORD97":169593.04000000001,"N_COORD97":2542332.5099999998,"ADDRESS":"崇明三街２４號","OBJECTID":333645},"geometry":{"x":169593.0400000019,"y":2542332.5100000016}},{"attributes":{"ID":333655,"DIS_CODE":0,"TOWNNAME":"東區","LI":"忠孝里","LIN":"25鄰","STREET":"崇明三街","SECT":" ","MAREA":" ","LANE":" ","ALLEY":" ","HOUSE_NO":"２６號","E_COORD97":169598.04000000001,"N_COORD97":2542334.7999999998,"ADDRESS":"崇明三街２６號","OBJECTID":333646},"geometry":{"x":169598.0400000019,"y":2542334.8000000045}},{"attributes":{"ID":333656,"DIS_CODE":0,"TOWNNAME":"麻豆區","LI":"東角里","LIN":"10鄰","STREET":"國中街","SECT":" ","MAREA":" ","LANE":" ","ALLEY":" ","HOUSE_NO":"８號","E_COORD97":173970.42000000001,"N_COORD97":2564770.3300000001,"ADDRESS":"國中街８號","OBJECTID":333647},"geometry":{"x":173970.41999999993,"y":2564770.3300000001}},{"attributes":{"ID":333657,"DIS_CODE":0,"TOWNNAME":"安南區","LI":"溪心里","LIN":"17鄰","STREET":"智安四街","SECT":" ","MAREA":" ","LANE":" ","ALLEY":" ","HOUSE_NO":"７３號","E_COORD97":166165.20000000001,"N_COORD97":2550268.3300000001,"ADDRESS":"智安四街７３號","OBJECTID":333648},"geometry":{"x":166165.20000000112,"y":2550268.3300000019}},{"attributes":{"ID":333658,"DIS_CODE":0,"TOWNNAME":"安南區","LI":"溪心里","LIN":"17鄰","STREET":"智安四街","SECT":" ","MAREA":" ","LANE":" ","ALLEY":" ","HOUSE_NO":"７５號","E_COORD97":166162.57000000001,"N_COORD97":2550271.6699999999,"ADDRESS":"智安四街７５號","OBJECTID":333649},"geometry":{"x":166162.57000000123,"y":2550271.6700000037}},{"attributes":{"ID":333659,"DIS_CODE":0,"TOWNNAME":"安南區","LI":"溪心里","LIN":"17鄰","STREET":"智安四街","SECT":" ","MAREA":" ","LANE":" ","ALLEY":" ","HOUSE_NO":"７７號","E_COORD97":166159.95999999999,"N_COORD97":2550274.96,"ADDRESS":"智安四街７７號","OBJECTID":333650},"geometry":{"x":166159.95999999996,"y":2550274.9600000028}},{"attributes":{"ID":333660,"DIS_CODE":0,"TOWNNAME":"歸仁區","LI":"大潭里","LIN":"21鄰","STREET":"長榮路","SECT":"二段","MAREA":" ","LANE":"４２０巷","ALLEY":" ","HOUSE_NO":"６號","E_COORD97":177525.49759899999,"N_COORD97":2534438.82418,"ADDRESS":"長榮路二段４２０巷６號","OBJECTID":333651},"geometry":{"x":177525.49759900197,"y":2534438.824177999}},{"attributes":{"ID":333661,"DIS_CODE":0,"TOWNNAME":"歸仁區","LI":"大潭里","LIN":"21鄰","STREET":"長榮路","SECT":"二段","MAREA":" ","LANE":"４２０巷","ALLEY":" ","HOUSE_NO":"９０號","E_COORD97":177597.10918999999,"N_COORD97":2534314.7875700002,"ADDRESS":"長榮路二段４２０巷９０號","OBJECTID":333652},"geometry":{"x":177597.10919000115,"y":2534314.7875700034}},{"attributes":{"ID":333662,"DIS_CODE":0,"TOWNNAME":"關廟區","LI":"下湖里","LIN":"1鄰","STREET":"保東一街","SECT":" ","MAREA":" ","LANE":"６００巷","ALLEY":" ","HOUSE_NO":"２６號","E_COORD97":178077.77778900001,"N_COORD97":2542507.4764899998,"ADDRESS":"保東一街６００巷２６號","OBJECTID":333653},"geometry":{"x":178077.77778900042,"y":2542507.4764900003}},{"attributes":{"ID":333663,"DIS_CODE":0,"TOWNNAME":"關廟區","LI":"下湖里","LIN":"1鄰","STREET":"保東一街","SECT":" ","MAREA":" ","LANE":"６００巷","ALLEY":" ","HOUSE_NO":"１５號","E_COORD97":178059.14114600001,"N_COORD97":2542498.3748300001,"ADDRESS":"保東一街６００巷１５號","OBJECTID":333654},"geometry":{"x":178059.14114600234,"y":2542498.3748280015}},{"attributes":{"ID":333664,"DIS_CODE":0,"TOWNNAME":"仁德區","LI":"上崙里","LIN":"1鄰","STREET":"德崙路","SECT":" ","MAREA":" ","LANE":"１２７巷","ALLEY":" ","HOUSE_NO":"１號","E_COORD97":173518.51050500001,"N_COORD97":2538438.0735399998,"ADDRESS":"德崙路１２７巷１號","OBJECTID":333655},"geometry":{"x":173518.51050500013,"y":2538438.073539}},{"attributes":{"ID":333665,"DIS_CODE":0,"TOWNNAME":"關廟區","LI":"香洋里","LIN":"7鄰","STREET":"中央路","SECT":" ","MAREA":" ","LANE":"２５２巷","ALLEY":" ","HOUSE_NO":"１１號","E_COORD97":181053.56601499999,"N_COORD97":2540171.0940700001,"ADDRESS":"中央路２５２巷１１號","OBJECTID":333656},"geometry":{"x":181053.56601500046,"y":2540171.0940700006}},{"attributes":{"ID":333666,"DIS_CODE":0,"TOWNNAME":"仁德區","LI":"上崙里","LIN":"1鄰","STREET":"德崙路","SECT":" ","MAREA":" ","LANE":"１２７巷","ALLEY":" ","HOUSE_NO":"３號","E_COORD97":173520.205483,"N_COORD97":2538442.5185400001,"ADDRESS":"德崙路１２７巷３號","OBJECTID":333657},"geometry":{"x":173520.20548300073,"y":2538442.5185359996}},{"attributes":{"ID":333667,"DIS_CODE":0,"TOWNNAME":"仁德區","LI":"上崙里","LIN":"1鄰","STREET":"德崙路","SECT":" ","MAREA":" ","LANE":"１２７巷","ALLEY":" ","HOUSE_NO":"５號","E_COORD97":173522.536078,"N_COORD97":2538447.8102000002,"ADDRESS":"德崙路１２７巷５號","OBJECTID":333658},"geometry":{"x":173522.53607800044,"y":2538447.8102000002}},{"attributes":{"ID":333668,"DIS_CODE":0,"TOWNNAME":"仁德區","LI":"上崙里","LIN":"1鄰","STREET":"德崙路","SECT":" ","MAREA":" ","LANE":"１２７巷","ALLEY":" ","HOUSE_NO":"７號","E_COORD97":173525.29041700001,"N_COORD97":2538450.5618699999,"ADDRESS":"德崙路１２７巷７號","OBJECTID":333659},"geometry":{"x":173525.29041700158,"y":2538450.5618650019}},{"attributes":{"ID":333669,"DIS_CODE":0,"TOWNNAME":"下營區","LI":"西連里","LIN":"4鄰","STREET":" ","SECT":" ","MAREA":"連表","LANE":" ","ALLEY":" ","HOUSE_NO":"３５號之２２","E_COORD97":174864.511638,"N_COORD97":2568601.1181200002,"ADDRESS":"連表３５號之２２","OBJECTID":333660},"geometry":{"x":174864.51163800061,"y":2568601.1181189995}},{"attributes":{"ID":333670,"DIS_CODE":0,"TOWNNAME":"仁德區","LI":"上崙里","LIN":"1鄰","STREET":"德崙路","SECT":" ","MAREA":" ","LANE":"１２７巷","ALLEY":" ","HOUSE_NO":"９號","E_COORD97":173526.77352300001,"N_COORD97":2538454.3718599998,"ADDRESS":"德崙路１２７巷９號","OBJECTID":333661},"geometry":{"x":173526.77352300007,"y":2538454.3718630001}},{"attributes":{"ID":333671,"DIS_CODE":0,"TOWNNAME":"仁德區","LI":"上崙里","LIN":"1鄰","STREET":"德崙路","SECT":" ","MAREA":" ","LANE":"１２７巷","ALLEY":" ","HOUSE_NO":"１１號","E_COORD97":173530.16347900001,"N_COORD97":2538457.5468600001,"ADDRESS":"德崙路１２７巷１１號","OBJECTID":333662},"geometry":{"x":173530.16347900219,"y":2538457.5468610004}},{"attributes":{"ID":333672,"DIS_CODE":0,"TOWNNAME":"歸仁區","LI":"大潭里","LIN":"20鄰","STREET":"長榮路","SECT":"三段","MAREA":" ","LANE":" ","ALLEY":" ","HOUSE_NO":"３０１號","E_COORD97":178720.93309899999,"N_COORD97":2534295.2447600001,"ADDRESS":"長榮路三段３０１號","OBJECTID":333663},"geometry":{"x":178720.93309900071,"y":2534295.2447590008}},{"attributes":{"ID":333673,"DIS_CODE":0,"TOWNNAME":"中西區","LI":"萬昌里","LIN":"11鄰","STREET":"民權路","SECT":"一段","MAREA":" ","LANE":" ","ALLEY":" ","HOUSE_NO":"４６號","E_COORD97":169055.202131,"N_COORD97":2543362.2208400001,"ADDRESS":"民權路一段４６號","OBJECTID":333664},"geometry":{"x":169055.20213100035,"y":2543362.2208410017}},{"attributes":{"ID":333674,"DIS_CODE":0,"TOWNNAME":"關廟區","LI":"香洋里","LIN":"15鄰","STREET":"中央路","SECT":" ","MAREA":" ","LANE":" ","ALLEY":" ","HOUSE_NO":"１４２號","E_COORD97":181414.08983300001,"N_COORD97":2540051.8010399998,"ADDRESS":"中央路１４２號","OBJECTID":333665},"geometry":{"x":181414.08983299974,"y":2540051.8010420017}},{"attributes":{"ID":333675,"DIS_CODE":0,"TOWNNAME":"歸仁區","LI":"大潭里","LIN":"20鄰","STREET":"長榮路","SECT":"三段","MAREA":" ","LANE":" ","ALLEY":" ","HOUSE_NO":"３０３號","E_COORD97":178716.83485300001,"N_COORD97":2534322.4075799999,"ADDRESS":"長榮路三段３０３號","OBJECTID":333666},"geometry":{"x":178716.83485300001,"y":2534322.4075750001}},{"attributes":{"ID":333676,"DIS_CODE":0,"TOWNNAME":"中西區","LI":"萬昌里","LIN":"13鄰","STREET":"萬昌街","SECT":" ","MAREA":" ","LANE":" ","ALLEY":" ","HOUSE_NO":"３０號","E_COORD97":169036.55654399999,"N_COORD97":2543410.05748,"ADDRESS":"萬昌街３０號","OBJECTID":333667},"geometry":{"x":169036.55654400028,"y":2543410.0574819986}},{"attributes":{"ID":333677,"DIS_CODE":0,"TOWNNAME":"歸仁區","LI":"大潭里","LIN":"21鄰","STREET":"長榮路","SECT":"三段","MAREA":" ","LANE":" ","ALLEY":" ","HOUSE_NO":"８１號","E_COORD97":178675.096735,"N_COORD97":2534138.4693399998,"ADDRESS":"長榮路三段８１號","OBJECTID":333668},"geometry":{"x":178675.09673499968,"y":2534138.4693410005}},{"attributes":{"ID":333678,"DIS_CODE":0,"TOWNNAME":"關廟區","LI":"香洋里","LIN":"7鄰","STREET":"中央路","SECT":" ","MAREA":" ","LANE":" ","ALLEY":" ","HOUSE_NO":"２４６號","E_COORD97":181074.166524,"N_COORD97":2540136.0390900001,"ADDRESS":"中央路２４６號","OBJECTID":333669},"geometry":{"x":181074.16652400047,"y":2540136.0390869994}},{"attributes":{"ID":333679,"DIS_CODE":0,"TOWNNAME":"歸仁區","LI":"南保里","LIN":"56鄰","STREET":"民權南路","SECT":" ","MAREA":" ","LANE":" ","ALLEY":" ","HOUSE_NO":"１２０號","E_COORD97":176954.84031999999,"N_COORD97":2540521.3054300002,"ADDRESS":"民權南路１２０號","OBJECTID":333670},"geometry":{"x":176954.84032000042,"y":2540521.3054330014}},{"attributes":{"ID":333680,"DIS_CODE":0,"TOWNNAME":"歸仁區","LI":"南保里","LIN":"56鄰","STREET":"民權南路","SECT":" ","MAREA":" ","LANE":" ","ALLEY":" ","HOUSE_NO":"１２２號","E_COORD97":176954.62841899999,"N_COORD97":2540513.8971000002,"ADDRESS":"民權南路１２２號","OBJECTID":333671},"geometry":{"x":176954.62841900066,"y":2540513.8971040007}},{"attributes":{"ID":333681,"DIS_CODE":0,"TOWNNAME":"新營區","LI":"忠政里","LIN":"28鄰","STREET":"中正路","SECT":" ","MAREA":" ","LANE":"３９巷","ALLEY":" ","HOUSE_NO":"７７號","E_COORD97":179878.35000000001,"N_COORD97":2579263.2400000002,"ADDRESS":"中正路３９巷７７號","OBJECTID":333672},"geometry":{"x":179878.34999999963,"y":2579263.2400000021}},{"attributes":{"ID":333682,"DIS_CODE":0,"TOWNNAME":"東區","LI":"大智里","LIN":"15鄰","STREET":"長東街","SECT":" ","MAREA":" ","LANE":"１４５巷","ALLEY":" ","HOUSE_NO":"１１號","E_COORD97":171060.12,"N_COORD97":2540069.79,"ADDRESS":"長東街１４５巷１１號","OBJECTID":333673},"geometry":{"x":171060.12000000011,"y":2540069.790000001}},{"attributes":{"ID":333683,"DIS_CODE":0,"TOWNNAME":"東區","LI":"大智里","LIN":"15鄰","STREET":"長東街","SECT":" ","MAREA":" ","LANE":"１４５巷","ALLEY":" ","HOUSE_NO":"１２號","E_COORD97":171067.35999999999,"N_COORD97":2540054.7400000002,"ADDRESS":"長東街１４５巷１２號","OBJECTID":333674},"geometry":{"x":171067.36000000034,"y":2540054.7400000002}},{"attributes":{"ID":333684,"DIS_CODE":0,"TOWNNAME":"東區","LI":"大智里","LIN":"15鄰","STREET":"長東街","SECT":" ","MAREA":" ","LANE":"１４５巷","ALLEY":" ","HOUSE_NO":"１３號","E_COORD97":171063.20000000001,"N_COORD97":2540071.7799999998,"ADDRESS":"長東街１４５巷１３號","OBJECTID":333675},"geometry":{"x":171063.20000000019,"y":2540071.7800000031}},{"attributes":{"ID":333685,"DIS_CODE":0,"TOWNNAME":"東區","LI":"大智里","LIN":"15鄰","STREET":"長東街","SECT":" ","MAREA":" ","LANE":"１４５巷","ALLEY":" ","HOUSE_NO":"１４號","E_COORD97":171077.66,"N_COORD97":2540056.1200000001,"ADDRESS":"長東街１４５巷１４號","OBJECTID":333676},"geometry":{"x":171077.66000000108,"y":2540056.120000001}},{"attributes":{"ID":333686,"DIS_CODE":0,"TOWNNAME":"東區","LI":"大智里","LIN":"15鄰","STREET":"長東街","SECT":" ","MAREA":" ","LANE":"１４５巷","ALLEY":" ","HOUSE_NO":"１５號","E_COORD97":171067.35000000001,"N_COORD97":2540070.0899999999,"ADDRESS":"長東街１４５巷１５號","OBJECTID":333677},"geometry":{"x":171067.35000000056,"y":2540070.089999998}},{"attributes":{"ID":333687,"DIS_CODE":0,"TOWNNAME":"東區","LI":"大智里","LIN":"15鄰","STREET":"長東街","SECT":" ","MAREA":" ","LANE":"１４５巷","ALLEY":" ","HOUSE_NO":"１６號","E_COORD97":171093.5,"N_COORD97":2540056.7799999998,"ADDRESS":"長東街１４５巷１６號","OBJECTID":333678},"geometry":{"x":171093.50000000186,"y":2540056.7799999993}},{"attributes":{"ID":333688,"DIS_CODE":0,"TOWNNAME":"東區","LI":"大智里","LIN":"15鄰","STREET":"長東街","SECT":" ","MAREA":" ","LANE":"１４５巷","ALLEY":" ","HOUSE_NO":"１７號","E_COORD97":171070.79999999999,"N_COORD97":2540072.1099999999,"ADDRESS":"長東街１４５巷１７號","OBJECTID":333679},"geometry":{"x":171070.80000000168,"y":2540072.1099999994}},{"attributes":{"ID":333689,"DIS_CODE":0,"TOWNNAME":"東區","LI":"大智里","LIN":"15鄰","STREET":"長東街","SECT":" ","MAREA":" ","LANE":"１４５巷","ALLEY":" ","HOUSE_NO":"１９號","E_COORD97":171075.14000000001,"N_COORD97":2540071.52,"ADDRESS":"長東街１４５巷１９號","OBJECTID":333680},"geometry":{"x":171075.14000000153,"y":2540071.5200000014}},{"attributes":{"ID":333690,"DIS_CODE":0,"TOWNNAME":"新市區","LI":"大營里","LIN":"7鄰","STREET":" ","SECT":" ","MAREA":"大營","LANE":" ","ALLEY":" ","HOUSE_NO":"１５８之１５號","E_COORD97":179338.160997,"N_COORD97":2555480.7003799998,"ADDRESS":"大營１５８之１５號","OBJECTID":333681},"geometry":{"x":179338.16099700052,"y":2555480.7003789991}},{"attributes":{"ID":333691,"DIS_CODE":0,"TOWNNAME":"東區","LI":"大智里","LIN":"15鄰","STREET":"長東街","SECT":" ","MAREA":" ","LANE":"１４５巷","ALLEY":" ","HOUSE_NO":"２１號","E_COORD97":171078.57999999999,"N_COORD97":2540072.79,"ADDRESS":"長東街１４５巷２１號","OBJECTID":333682},"geometry":{"x":171078.58000000007,"y":2540072.790000001}},{"attributes":{"ID":333692,"DIS_CODE":0,"TOWNNAME":"東區","LI":"大智里","LIN":"15鄰","STREET":"長東街","SECT":" ","MAREA":" ","LANE":"１４５巷","ALLEY":" ","HOUSE_NO":"２３號","E_COORD97":171083.22,"N_COORD97":2540071.5899999999,"ADDRESS":"長東街１４５巷２３號","OBJECTID":333683},"geometry":{"x":171083.2200000016,"y":2540071.5900000017}},{"attributes":{"ID":333693,"DIS_CODE":0,"TOWNNAME":"東區","LI":"大智里","LIN":"15鄰","STREET":"長東街","SECT":" ","MAREA":" ","LANE":"１４５巷","ALLEY":" ","HOUSE_NO":"２５號","E_COORD97":171086.51000000001,"N_COORD97":2540073.3799999999,"ADDRESS":"長東街１４５巷２５號","OBJECTID":333684},"geometry":{"x":171086.51000000071,"y":2540073.379999999}},{"attributes":{"ID":333694,"DIS_CODE":0,"TOWNNAME":"東區","LI":"大智里","LIN":"15鄰","STREET":"長東街","SECT":" ","MAREA":" ","LANE":"１４５巷","ALLEY":" ","HOUSE_NO":"２７號","E_COORD97":171090.92999999999,"N_COORD97":2540072.04,"ADDRESS":"長東街１４５巷２７號","OBJECTID":333685},"geometry":{"x":171090.93000000063,"y":2540072.0399999991}},{"attributes":{"ID":333695,"DIS_CODE":0,"TOWNNAME":"仁德區","LI":"上崙里","LIN":"1鄰","STREET":"德崙路","SECT":" ","MAREA":" ","LANE":"１２７巷","ALLEY":" ","HOUSE_NO":"１０號","E_COORD97":173533.97717999999,"N_COORD97":2538444.4235399999,"ADDRESS":"德崙路１２７巷１０號","OBJECTID":333686},"geometry":{"x":173533.97718000039,"y":2538444.4235350005}},{"attributes":{"ID":333696,"DIS_CODE":0,"TOWNNAME":"仁德區","LI":"上崙里","LIN":"1鄰","STREET":"德崙路","SECT":" ","MAREA":" ","LANE":"１２７巷","ALLEY":" ","HOUSE_NO":"１２號","E_COORD97":173537.79087999999,"N_COORD97":2538447.38687,"ADDRESS":"德崙路１２７巷１２號","OBJECTID":333687},"geometry":{"x":173537.79088000115,"y":2538447.3868670017}},{"attributes":{"ID":333697,"DIS_CODE":0,"TOWNNAME":"仁德區","LI":"上崙里","LIN":"1鄰","STREET":"德崙路","SECT":" ","MAREA":" ","LANE":"１２７巷","ALLEY":" ","HOUSE_NO":"１６號","E_COORD97":173540.75709200001,"N_COORD97":2538450.9852,"ADDRESS":"德崙路１２７巷１６號","OBJECTID":333688},"geometry":{"x":173540.75709200092,"y":2538450.9851980004}},{"attributes":{"ID":333698,"DIS_CODE":0,"TOWNNAME":"仁德區","LI":"上崙里","LIN":"1鄰","STREET":"德崙路","SECT":" ","MAREA":" ","LANE":"１２７巷","ALLEY":" ","HOUSE_NO":"１８號","E_COORD97":173543.51143099999,"N_COORD97":2538455.2185300002,"ADDRESS":"德崙路１２７巷１８號","OBJECTID":333689},"geometry":{"x":173543.5114310002,"y":2538455.2185290027}},{"attributes":{"ID":333699,"DIS_CODE":0,"TOWNNAME":"安南區","LI":"溪心里","LIN":"17鄰","STREET":"智安四街","SECT":" ","MAREA":" ","LANE":" ","ALLEY":" ","HOUSE_NO":"８１號","E_COORD97":166154.73999999999,"N_COORD97":2550281.54,"ADDRESS":"智安四街８１號","OBJECTID":333690},"geometry":{"x":166154.74000000115,"y":2550281.5400000028}},{"attributes":{"ID":333700,"DIS_CODE":0,"TOWNNAME":"安南區","LI":"溪心里","LIN":"17鄰","STREET":"智安四街","SECT":" ","MAREA":" ","LANE":" ","ALLEY":" ","HOUSE_NO":"８３號","E_COORD97":166151.38,"N_COORD97":2550284.96,"ADDRESS":"智安四街８３號","OBJECTID":333691},"geometry":{"x":166151.38000000082,"y":2550284.9600000028}},{"attributes":{"ID":333701,"DIS_CODE":0,"TOWNNAME":"安南區","LI":"州南里","LIN":"17鄰","STREET":"安和路","SECT":"四段","MAREA":" ","LANE":" ","ALLEY":" ","HOUSE_NO":"２５１號","E_COORD97":169904.28,"N_COORD97":2550678.9700000002,"ADDRESS":"安和路四段２５１號","OBJECTID":333692},"geometry":{"x":169904.28000000119,"y":2550678.9700000007}},{"attributes":{"ID":333702,"DIS_CODE":0,"TOWNNAME":"仁德區","LI":"上崙里","LIN":"1鄰","STREET":"德崙路","SECT":" ","MAREA":" ","LANE":"１２７巷","ALLEY":" ","HOUSE_NO":"２０號","E_COORD97":173545.842026,"N_COORD97":2538458.39353,"ADDRESS":"德崙路１２７巷２０號","OBJECTID":333693},"geometry":{"x":173545.84202600084,"y":2538458.3935280014}},{"attributes":{"ID":333703,"DIS_CODE":0,"TOWNNAME":"鹽水區","LI":"橋南里","LIN":"6鄰","STREET":"南門路","SECT":" ","MAREA":" ","LANE":" ","ALLEY":" ","HOUSE_NO":"９８號","E_COORD97":175199.38689200001,"N_COORD97":2579236.8283600002,"ADDRESS":"南門路９８號","OBJECTID":333694},"geometry":{"x":175199.38689200114,"y":2579236.8283590041}},{"attributes":{"ID":333704,"DIS_CODE":0,"TOWNNAME":"歸仁區","LI":"大潭里","LIN":"18鄰","STREET":"大潭二街","SECT":" ","MAREA":" ","LANE":" ","ALLEY":" ","HOUSE_NO":"１０之１號","E_COORD97":175101.29684,"N_COORD97":2534698.7507000002,"ADDRESS":"大潭二街１０號之１號","OBJECTID":333695},"geometry":{"x":175101.29683999997,"y":2534698.7507000007}},{"attributes":{"ID":333705,"DIS_CODE":0,"TOWNNAME":"仁德區","LI":"仁義里","LIN":"1鄰","STREET":"義林三街","SECT":" ","MAREA":" ","LANE":" ","ALLEY":" ","HOUSE_NO":"９２號","E_COORD97":174156.781258,"N_COORD97":2540996.77415,"ADDRESS":"義林三街９２號","OBJECTID":333696},"geometry":{"x":174156.78125800099,"y":2540996.774149999}},{"attributes":{"ID":333706,"DIS_CODE":0,"TOWNNAME":"仁德區","LI":"成功里","LIN":"1鄰","STREET":"文華路","SECT":"二段","MAREA":" ","LANE":" ","ALLEY":" ","HOUSE_NO":"８９１號","E_COORD97":171329.45598,"N_COORD97":2539423.4834400001,"ADDRESS":"文華路二段８９１號","OBJECTID":333697},"geometry":{"x":171329.45598000102,"y":2539423.4834430031}},{"attributes":{"ID":333707,"DIS_CODE":0,"TOWNNAME":"新營區","LI":"民榮里","LIN":"31鄰","STREET":"太子路","SECT":" ","MAREA":" ","LANE":" ","ALLEY":" ","HOUSE_NO":"３１之１號","E_COORD97":178371.992069,"N_COORD97":2578106.9148300001,"ADDRESS":"太子路３１之１號","OBJECTID":333698},"geometry":{"x":178371.99206900038,"y":2578106.9148329999}},{"attributes":{"ID":333708,"DIS_CODE":0,"TOWNNAME":"關廟區","LI":"山西里","LIN":"20鄰","STREET":"崇平路","SECT":" ","MAREA":" ","LANE":"１０７巷","ALLEY":" ","HOUSE_NO":"３８號","E_COORD97":180687.67000000001,"N_COORD97":2540320.5099999998,"ADDRESS":"崇平路１０７巷３８號","OBJECTID":333699},"geometry":{"x":180687.67000000086,"y":2540320.5099999998}},{"attributes":{"ID":333709,"DIS_CODE":0,"TOWNNAME":"關廟區","LI":"山西里","LIN":"20鄰","STREET":"崇平路","SECT":" ","MAREA":" ","LANE":"１０７巷","ALLEY":" ","HOUSE_NO":"１７號","E_COORD97":180728.72,"N_COORD97":2540311.46,"ADDRESS":"崇平路１０７巷１７號","OBJECTID":333700},"geometry":{"x":180728.71999999881,"y":2540311.4600000009}},{"attributes":{"ID":333710,"DIS_CODE":0,"TOWNNAME":"關廟區","LI":"山西里","LIN":"20鄰","STREET":"崇平路","SECT":" ","MAREA":" ","LANE":"１０７巷","ALLEY":" ","HOUSE_NO":"２２號","E_COORD97":180689.26999999999,"N_COORD97":2540345.5099999998,"ADDRESS":"崇平路１０７巷２２號","OBJECTID":333701},"geometry":{"x":180689.27000000142,"y":2540345.5100000035}},{"attributes":{"ID":333711,"DIS_CODE":0,"TOWNNAME":"北區","LI":"中樓里","LIN":"20鄰","STREET":"勝利路","SECT":" ","MAREA":" ","LANE":"４６７巷","ALLEY":" ","HOUSE_NO":"１０號","E_COORD97":169836.70999999999,"N_COORD97":2545133.2599999998,"ADDRESS":"勝利路４６７巷１０號","OBJECTID":333702},"geometry":{"x":169836.70999999996,"y":2545133.2599999998}},{"attributes":{"ID":333712,"DIS_CODE":0,"TOWNNAME":"北區","LI":"六甲里","LIN":"20鄰","STREET":"和緯路","SECT":"二段","MAREA":" ","LANE":"３０巷","ALLEY":" ","HOUSE_NO":"１０１號","E_COORD97":169058.26000000001,"N_COORD97":2545932.1499999999,"ADDRESS":"和緯路二段３０巷１０１號","OBJECTID":333703},"geometry":{"x":169058.25999999978,"y":2545932.1499999985}},{"attributes":{"ID":333713,"DIS_CODE":0,"TOWNNAME":"北區","LI":"六甲里","LIN":"20鄰","STREET":"和緯路","SECT":"二段","MAREA":" ","LANE":"３０巷","ALLEY":" ","HOUSE_NO":"１０３號","E_COORD97":169058.26000000001,"N_COORD97":2545935.6400000001,"ADDRESS":"和緯路二段３０巷１０３號","OBJECTID":333704},"geometry":{"x":169058.25999999978,"y":2545935.6400000006}},{"attributes":{"ID":333714,"DIS_CODE":0,"TOWNNAME":"北區","LI":"六甲里","LIN":"20鄰","STREET":"和緯路","SECT":"二段","MAREA":" ","LANE":"３０巷","ALLEY":" ","HOUSE_NO":"１０５號","E_COORD97":169058.57999999999,"N_COORD97":2545938.5,"ADDRESS":"和緯路二段３０巷１０５號","OBJECTID":333705},"geometry":{"x":169058.58000000007,"y":2545938.5}},{"attributes":{"ID":333715,"DIS_CODE":0,"TOWNNAME":"安南區","LI":"東和里","LIN":"7鄰","STREET":"環館五路","SECT":" ","MAREA":" ","LANE":" ","ALLEY":" ","HOUSE_NO":"５１號","E_COORD97":171207.48999999999,"N_COORD97":2551552.3900000001,"ADDRESS":"環館五路５１號","OBJECTID":333706},"geometry":{"x":171207.49000000115,"y":2551552.3900000043}},{"attributes":{"ID":333716,"DIS_CODE":0,"TOWNNAME":"安南區","LI":"安慶里","LIN":"13鄰","STREET":"怡安路","SECT":"一段","MAREA":" ","LANE":" ","ALLEY":" ","HOUSE_NO":"１７號","E_COORD97":169501.59,"N_COORD97":2548942.8900000001,"ADDRESS":"怡安路一段１７號","OBJECTID":333707},"geometry":{"x":169501.59000000078,"y":2548942.8900000025}},{"attributes":{"ID":333717,"DIS_CODE":0,"TOWNNAME":"安南區","LI":"安西里","LIN":"18鄰","STREET":"安通路","SECT":"四段","MAREA":" ","LANE":" ","ALLEY":" ","HOUSE_NO":"１３７號","E_COORD97":168625.95000000001,"N_COORD97":2547766,"ADDRESS":"安通路四段１３７號","OBJECTID":333708},"geometry":{"x":168625.95000000112,"y":2547766}},{"attributes":{"ID":333718,"DIS_CODE":0,"TOWNNAME":"安南區","LI":"安西里","LIN":"18鄰","STREET":"安通路","SECT":"四段","MAREA":" ","LANE":" ","ALLEY":" ","HOUSE_NO":"１３８號","E_COORD97":168619.214308,"N_COORD97":2547764.5988400001,"ADDRESS":"安通路四段１３８號","OBJECTID":333709},"geometry":{"x":168619.21430800017,"y":2547764.5988400001}},{"attributes":{"ID":333719,"DIS_CODE":0,"TOWNNAME":"安南區","LI":"新順里","LIN":"1鄰","STREET":"安豐六街","SECT":" ","MAREA":" ","LANE":" ","ALLEY":" ","HOUSE_NO":"６１號","E_COORD97":169402.91,"N_COORD97":2549707.5600000001,"ADDRESS":"安豐六街６１號","OBJECTID":333710},"geometry":{"x":169402.91000000108,"y":2549707.5600000024}},{"attributes":{"ID":333720,"DIS_CODE":0,"TOWNNAME":"安南區","LI":"新順里","LIN":"1鄰","STREET":"安豐六街","SECT":" ","MAREA":" ","LANE":" ","ALLEY":" ","HOUSE_NO":"６３號","E_COORD97":169409.26999999999,"N_COORD97":2549704.3500000001,"ADDRESS":"安豐六街６３號","OBJECTID":333711},"geometry":{"x":169409.26999999955,"y":2549704.3500000015}},{"attributes":{"ID":333721,"DIS_CODE":0,"TOWNNAME":"安南區","LI":"安西里","LIN":"18鄰","STREET":"安西二街","SECT":" ","MAREA":" ","LANE":" ","ALLEY":" ","HOUSE_NO":"６１號","E_COORD97":168703.89000000001,"N_COORD97":2547997.8900000001,"ADDRESS":"安西二街６１號","OBJECTID":333712},"geometry":{"x":168703.8900000006,"y":2547997.8900000006}},{"attributes":{"ID":333722,"DIS_CODE":0,"TOWNNAME":"安南區","LI":"淵東里","LIN":"10鄰","STREET":"仁安路","SECT":" ","MAREA":" ","LANE":" ","ALLEY":" ","HOUSE_NO":"２８號","E_COORD97":165492.81,"N_COORD97":2550008.6499999999,"ADDRESS":"仁安路２８號","OBJECTID":333713},"geometry":{"x":165492.80999999959,"y":2550008.6500000022}},{"attributes":{"ID":333723,"DIS_CODE":0,"TOWNNAME":"安南區","LI":"頂安里","LIN":"13鄰","STREET":"安中一街","SECT":" ","MAREA":" ","LANE":" ","ALLEY":" ","HOUSE_NO":"１１３號","E_COORD97":168534.20999999999,"N_COORD97":2548604.5,"ADDRESS":"安中一街１１３號","OBJECTID":333714},"geometry":{"x":168534.21000000089,"y":2548604.4999999981}},{"attributes":{"ID":333724,"DIS_CODE":0,"TOWNNAME":"安南區","LI":"頂安里","LIN":"13鄰","STREET":"安中一街","SECT":" ","MAREA":" ","LANE":" ","ALLEY":" ","HOUSE_NO":"１１５號","E_COORD97":168535.32999999999,"N_COORD97":2548610.2000000002,"ADDRESS":"安中一街１１５號","OBJECTID":333715},"geometry":{"x":168535.33000000101,"y":2548610.2000000011}},{"attributes":{"ID":333725,"DIS_CODE":0,"TOWNNAME":"安南區","LI":"新順里","LIN":"20鄰","STREET":"培安路","SECT":" ","MAREA":" ","LANE":" ","ALLEY":" ","HOUSE_NO":"１７３號","E_COORD97":169214.63,"N_COORD97":2549259.2400000002,"ADDRESS":"培安路１７３號","OBJECTID":333716},"geometry":{"x":169214.63000000082,"y":2549259.2400000021}},{"attributes":{"ID":333726,"DIS_CODE":0,"TOWNNAME":"安南區","LI":"安慶里","LIN":"13鄰","STREET":"培安路","SECT":" ","MAREA":" ","LANE":" ","ALLEY":" ","HOUSE_NO":"５００號","E_COORD97":169342.28,"N_COORD97":2548561.3100000001,"ADDRESS":"培安路５００號","OBJECTID":333717},"geometry":{"x":169342.27999999933,"y":2548561.3100000005}},{"attributes":{"ID":333727,"DIS_CODE":0,"TOWNNAME":"仁德區","LI":"仁義里","LIN":"1鄰","STREET":"中山路","SECT":" ","MAREA":" ","LANE":" ","ALLEY":" ","HOUSE_NO":"１９號","E_COORD97":175259.43252999999,"N_COORD97":2541049.3267600001,"ADDRESS":"中山路１９號","OBJECTID":333718},"geometry":{"x":175259.43252999987,"y":2541049.3267610017}},{"attributes":{"ID":333728,"DIS_CODE":0,"TOWNNAME":"安南區","LI":"新順里","LIN":"24鄰","STREET":"景安街","SECT":" ","MAREA":" ","LANE":" ","ALLEY":" ","HOUSE_NO":"１２３號","E_COORD97":169404.76000000001,"N_COORD97":2549152.4100000001,"ADDRESS":"景安街１２３號","OBJECTID":333719},"geometry":{"x":169404.76000000164,"y":2549152.410000002}},{"attributes":{"ID":333729,"DIS_CODE":0,"TOWNNAME":"安南區","LI":"新順里","LIN":"13鄰","STREET":"開安一街","SECT":" ","MAREA":" ","LANE":" ","ALLEY":" ","HOUSE_NO":"２２號","E_COORD97":170555.17999999999,"N_COORD97":2549624.48,"ADDRESS":"開安一街２２號","OBJECTID":333720},"geometry":{"x":170555.18000000063,"y":2549624.4800000004}},{"attributes":{"ID":333730,"DIS_CODE":0,"TOWNNAME":"安南區","LI":"新順里","LIN":"13鄰","STREET":"開安一街","SECT":" ","MAREA":" ","LANE":" ","ALLEY":" ","HOUSE_NO":"２６號","E_COORD97":170565.54000000001,"N_COORD97":2549608.7400000002,"ADDRESS":"開安一街２６號","OBJECTID":333721},"geometry":{"x":170565.54000000004,"y":2549608.7400000002}},{"attributes":{"ID":333731,"DIS_CODE":0,"TOWNNAME":"永康區","LI":"二王里","LIN":"14鄰","STREET":"永二街","SECT":" ","MAREA":" ","LANE":"４５９巷","ALLEY":" ","HOUSE_NO":"１６之８號","E_COORD97":172557.808624,"N_COORD97":2546639.4840000002,"ADDRESS":"永二街４５９巷１６之８號","OBJECTID":333722},"geometry":{"x":172557.80862400029,"y":2546639.4840020016}},{"attributes":{"ID":333732,"DIS_CODE":0,"TOWNNAME":"六甲區","LI":"中社里","LIN":"15鄰","STREET":" ","SECT":" ","MAREA":"港子頭","LANE":" ","ALLEY":" ","HOUSE_NO":"４６號之５","E_COORD97":180775.58965800001,"N_COORD97":2571256.0373,"ADDRESS":"港子頭４６號之５","OBJECTID":333723},"geometry":{"x":180775.58965799958,"y":2571256.0373020042}},{"attributes":{"ID":333733,"DIS_CODE":0,"TOWNNAME":"安南區","LI":"安慶里","LIN":"11鄰","STREET":"長溪路","SECT":"一段","MAREA":" ","LANE":" ","ALLEY":" ","HOUSE_NO":"１６１號","E_COORD97":169005.37,"N_COORD97":2548539.02,"ADDRESS":"長溪路一段１６１號","OBJECTID":333724},"geometry":{"x":169005.37000000011,"y":2548539.0199999996}},{"attributes":{"ID":333734,"DIS_CODE":0,"TOWNNAME":"仁德區","LI":"上崙里","LIN":"1鄰","STREET":"德崙路","SECT":" ","MAREA":" ","LANE":"１２７巷","ALLEY":" ","HOUSE_NO":"６號","E_COORD97":173528.892245,"N_COORD97":2538437.43854,"ADDRESS":"德崙路１２７巷６號","OBJECTID":333725},"geometry":{"x":173528.89224500023,"y":2538437.4385390002}},{"attributes":{"ID":333735,"DIS_CODE":0,"TOWNNAME":"仁德區","LI":"上崙里","LIN":"1鄰","STREET":"德崙路","SECT":" ","MAREA":" ","LANE":"１２７巷","ALLEY":" ","HOUSE_NO":"８號","E_COORD97":173532.49407399999,"N_COORD97":2538440.1902000001,"ADDRESS":"德崙路１２７巷８號","OBJECTID":333726},"geometry":{"x":173532.49407400098,"y":2538440.190204002}},{"attributes":{"ID":333736,"DIS_CODE":0,"TOWNNAME":"仁德區","LI":"仁義里","LIN":"22鄰","STREET":"中清一街","SECT":" ","MAREA":" ","LANE":" ","ALLEY":" ","HOUSE_NO":"１６號","E_COORD97":173654.93362500001,"N_COORD97":2541343.2658299999,"ADDRESS":"中清一街１６號","OBJECTID":333727},"geometry":{"x":173654.93362500053,"y":2541343.2658330016}},{"attributes":{"ID":333737,"DIS_CODE":0,"TOWNNAME":"仁德區","LI":"仁義里","LIN":"26鄰","STREET":"中山路","SECT":" ","MAREA":" ","LANE":" ","ALLEY":" ","HOUSE_NO":"５８８號","E_COORD97":173296.98362000001,"N_COORD97":2541345.4750999999,"ADDRESS":"中山路５８８號","OBJECTID":333728},"geometry":{"x":173296.983620001,"y":2541345.4751020018}},{"attributes":{"ID":333738,"DIS_CODE":0,"TOWNNAME":"下營區","LI":"西連里","LIN":"1鄰","STREET":" ","SECT":" ","MAREA":"連表","LANE":" ","ALLEY":" ","HOUSE_NO":"３號之３","E_COORD97":175066.39950599999,"N_COORD97":2567676.2397400001,"ADDRESS":"連表３號之３","OBJECTID":333729},"geometry":{"x":175066.3995060008,"y":2567676.2397400029}},{"attributes":{"ID":333739,"DIS_CODE":0,"TOWNNAME":"玉井區","LI":"中正里","LIN":"11鄰","STREET":" ","SECT":" ","MAREA":"中正","LANE":" ","ALLEY":" ","HOUSE_NO":"１２０之２０號","E_COORD97":195616.37479999999,"N_COORD97":2560391.61179,"ADDRESS":"中正１２０之２０號","OBJECTID":333730},"geometry":{"x":195616.37480000034,"y":2560391.6117870007}},{"attributes":{"ID":333740,"DIS_CODE":0,"TOWNNAME":"左鎮區","LI":"睦光里","LIN":"1鄰","STREET":" ","SECT":" ","MAREA":"睦光","LANE":" ","ALLEY":" ","HOUSE_NO":"３號之３","E_COORD97":190733.968055,"N_COORD97":2551313.58714,"ADDRESS":"睦光３號之３","OBJECTID":333731},"geometry":{"x":190733.96805500053,"y":2551313.5871440042}},{"attributes":{"ID":333741,"DIS_CODE":0,"TOWNNAME":"新營區","LI":"太北里","LIN":"20鄰","STREET":" ","SECT":" ","MAREA":"太子宮","LANE":" ","ALLEY":" ","HOUSE_NO":"１４０之４２號","E_COORD97":175115.13,"N_COORD97":2576666.3799999999,"ADDRESS":"太子宮１４０之４２號","OBJECTID":333732},"geometry":{"x":175115.13000000175,"y":2576666.3799999971}},{"attributes":{"ID":333742,"DIS_CODE":0,"TOWNNAME":"東山區","LI":"東原里","LIN":"20鄰","STREET":" ","SECT":" ","MAREA":"瓦厝子","LANE":" ","ALLEY":" ","HOUSE_NO":"４５號之２","E_COORD97":194721.23999999999,"N_COORD97":2575191.2000000002,"ADDRESS":"瓦厝子４５號之２","OBJECTID":333733},"geometry":{"x":194721.24000000209,"y":2575191.2000000011}},{"attributes":{"ID":333743,"DIS_CODE":0,"TOWNNAME":"東山區","LI":"東原里","LIN":"20鄰","STREET":" ","SECT":" ","MAREA":"瓦厝子","LANE":" ","ALLEY":" ","HOUSE_NO":"４５號","E_COORD97":194747.98000000001,"N_COORD97":2575190.3700000001,"ADDRESS":"瓦厝子４５號","OBJECTID":333734},"geometry":{"x":194747.98000000045,"y":2575190.3699999992}},{"attributes":{"ID":333744,"DIS_CODE":0,"TOWNNAME":"東山區","LI":"東原里","LIN":"20鄰","STREET":" ","SECT":" ","MAREA":"瓦厝子","LANE":" ","ALLEY":" ","HOUSE_NO":"４６號","E_COORD97":194771.70999999999,"N_COORD97":2575201.5899999999,"ADDRESS":"瓦厝子４６號","OBJECTID":333735},"geometry":{"x":194771.70999999996,"y":2575201.5900000036}},{"attributes":{"ID":333745,"DIS_CODE":0,"TOWNNAME":"永康區","LI":"中興里","LIN":"3鄰","STREET":"中華一路","SECT":" ","MAREA":" ","LANE":" ","ALLEY":" ","HOUSE_NO":"４６號","E_COORD97":171879.378666,"N_COORD97":2544982.7895,"ADDRESS":"中華一路４６號","OBJECTID":333736},"geometry":{"x":171879.37866600137,"y":2544982.7895010021}},{"attributes":{"ID":333746,"DIS_CODE":0,"TOWNNAME":"新營區","LI":"民榮里","LIN":"31鄰","STREET":"太子路","SECT":" ","MAREA":" ","LANE":" ","ALLEY":" ","HOUSE_NO":"３１號","E_COORD97":178367.33098599999,"N_COORD97":2578104.69233,"ADDRESS":"太子路３１號","OBJECTID":333737},"geometry":{"x":178367.33098600153,"y":2578104.6923340037}},{"attributes":{"ID":333747,"DIS_CODE":0,"TOWNNAME":"東山區","LI":"東原里","LIN":"20鄰","STREET":" ","SECT":" ","MAREA":"瓦厝子","LANE":" ","ALLEY":" ","HOUSE_NO":"４７號","E_COORD97":194797.67000000001,"N_COORD97":2575199.4100000001,"ADDRESS":"瓦厝子４７號","OBJECTID":333738},"geometry":{"x":194797.67000000179,"y":2575199.4099999983}},{"attributes":{"ID":333748,"DIS_CODE":0,"TOWNNAME":"東山區","LI":"東原里","LIN":"20鄰","STREET":" ","SECT":" ","MAREA":"瓦厝子","LANE":" ","ALLEY":" ","HOUSE_NO":"４８號","E_COORD97":194807.32000000001,"N_COORD97":2575180.5299999998,"ADDRESS":"瓦厝子４８號","OBJECTID":333739},"geometry":{"x":194807.32000000216,"y":2575180.5299999993}},{"attributes":{"ID":333749,"DIS_CODE":0,"TOWNNAME":"安南區","LI":"佃西里","LIN":"10鄰","STREET":"海佃路","SECT":"四段","MAREA":" ","LANE":" ","ALLEY":" ","HOUSE_NO":"３８７號","E_COORD97":165562.428051,"N_COORD97":2551511.1040500002,"ADDRESS":"海佃路四段３８７號","OBJECTID":333740},"geometry":{"x":165562.42805100139,"y":2551511.1040470004}},{"attributes":{"ID":333750,"DIS_CODE":0,"TOWNNAME":"鹽水區","LI":"橋南里","LIN":"16鄰","STREET":"月津路","SECT":" ","MAREA":" ","LANE":" ","ALLEY":" ","HOUSE_NO":"９５號","E_COORD97":174901.19393000001,"N_COORD97":2579221.9058699999,"ADDRESS":"月津路９５號","OBJECTID":333741},"geometry":{"x":174901.19393000007,"y":2579221.9058669992}},{"attributes":{"ID":333751,"DIS_CODE":0,"TOWNNAME":"東山區","LI":"東原里","LIN":"20鄰","STREET":" ","SECT":" ","MAREA":"瓦厝子","LANE":" ","ALLEY":" ","HOUSE_NO":"４９號之１０","E_COORD97":194966.78,"N_COORD97":2575173.0499999998,"ADDRESS":"瓦厝子４９號之１０","OBJECTID":333742},"geometry":{"x":194966.77999999933,"y":2575173.0500000026}},{"attributes":{"ID":333752,"DIS_CODE":0,"TOWNNAME":"新營區","LI":"新東里","LIN":"20鄰","STREET":"東明街","SECT":" ","MAREA":" ","LANE":"２巷","ALLEY":" ","HOUSE_NO":"５２號","E_COORD97":180894.20999999999,"N_COORD97":2579529.7799999998,"ADDRESS":"東明街２巷５２號","OBJECTID":333743},"geometry":{"x":180894.21000000089,"y":2579529.7800000012}},{"attributes":{"ID":333753,"DIS_CODE":0,"TOWNNAME":"新營區","LI":"忠政里","LIN":"20鄰","STREET":"府西路","SECT":" ","MAREA":" ","LANE":"２５７巷","ALLEY":" ","HOUSE_NO":"３６號","E_COORD97":179711.66,"N_COORD97":2579687.0699999998,"ADDRESS":"府西路２５７巷３６號","OBJECTID":333744},"geometry":{"x":179711.66000000108,"y":2579687.0700000003}},{"attributes":{"ID":333754,"DIS_CODE":0,"TOWNNAME":"東區","LI":"大智里","LIN":"15鄰","STREET":"長東街","SECT":" ","MAREA":" ","LANE":"１４５巷","ALLEY":" ","HOUSE_NO":"２９號","E_COORD97":171094.51999999999,"N_COORD97":2540073.5299999998,"ADDRESS":"長東街１４５巷２９號","OBJECTID":333745},"geometry":{"x":171094.52000000142,"y":2540073.5300000031}},{"attributes":{"ID":333755,"DIS_CODE":0,"TOWNNAME":"安南區","LI":"海東里","LIN":"20鄰","STREET":"海東八街","SECT":" ","MAREA":" ","LANE":" ","ALLEY":" ","HOUSE_NO":"６１號","E_COORD97":166741.75,"N_COORD97":2548227.4100000001,"ADDRESS":"海東八街６１號","OBJECTID":333746},"geometry":{"x":166741.74999999907,"y":2548227.4100000001}},{"attributes":{"ID":333756,"DIS_CODE":0,"TOWNNAME":"鹽水區","LI":"橋南里","LIN":"16鄰","STREET":"月津路","SECT":" ","MAREA":" ","LANE":" ","ALLEY":" ","HOUSE_NO":"９１號","E_COORD97":174904.525788,"N_COORD97":2579233.8054999998,"ADDRESS":"月津路９１號","OBJECTID":333747},"geometry":{"x":174904.52578800078,"y":2579233.8054960016}},{"attributes":{"ID":333757,"DIS_CODE":0,"TOWNNAME":"鹽水區","LI":"橋南里","LIN":"16鄰","STREET":"月津路","SECT":" ","MAREA":" ","LANE":" ","ALLEY":" ","HOUSE_NO":"６１號","E_COORD97":174942.25593700001,"N_COORD97":2579292.6488000001,"ADDRESS":"月津路６１號","OBJECTID":333748},"geometry":{"x":174942.25593700074,"y":2579292.6487980038}},{"attributes":{"ID":333758,"DIS_CODE":0,"TOWNNAME":"東區","LI":"大智里","LIN":"15鄰","STREET":"長東街","SECT":" ","MAREA":" ","LANE":"１４５巷","ALLEY":" ","HOUSE_NO":"２號","E_COORD97":171041.64000000001,"N_COORD97":2540050.4100000001,"ADDRESS":"長東街１４５巷２號","OBJECTID":333749},"geometry":{"x":171041.6400000006,"y":2540050.4100000001}},{"attributes":{"ID":333759,"DIS_CODE":0,"TOWNNAME":"東區","LI":"大智里","LIN":"15鄰","STREET":"長東街","SECT":" ","MAREA":" ","LANE":"１４５巷","ALLEY":" ","HOUSE_NO":"３１號","E_COORD97":171098.17999999999,"N_COORD97":2540072.4900000002,"ADDRESS":"長東街１４５巷３１號","OBJECTID":333750},"geometry":{"x":171098.1799999997,"y":2540072.4900000021}},{"attributes":{"ID":333760,"DIS_CODE":0,"TOWNNAME":"東區","LI":"大智里","LIN":"15鄰","STREET":"長東街","SECT":" ","MAREA":" ","LANE":"１４５巷","ALLEY":" ","HOUSE_NO":"３３號","E_COORD97":171101.85000000001,"N_COORD97":2540073.9100000001,"ADDRESS":"長東街１４５巷３３號","OBJECTID":333751},"geometry":{"x":171101.84999999963,"y":2540073.9100000001}},{"attributes":{"ID":333761,"DIS_CODE":0,"TOWNNAME":"東區","LI":"大智里","LIN":"15鄰","STREET":"長東街","SECT":" ","MAREA":" ","LANE":"１４５巷","ALLEY":" ","HOUSE_NO":"３５號","E_COORD97":171106.41,"N_COORD97":2540072.8599999999,"ADDRESS":"長東街１４５巷３５號","OBJECTID":333752},"geometry":{"x":171106.41000000108,"y":2540072.8600000013}},{"attributes":{"ID":333762,"DIS_CODE":0,"TOWNNAME":"佳里區","LI":"建南里","LIN":"18鄰","STREET":"平等街","SECT":" ","MAREA":" ","LANE":" ","ALLEY":" ","HOUSE_NO":"２０６號","E_COORD97":165630.596468,"N_COORD97":2561894.04201,"ADDRESS":"平等街２０６號","OBJECTID":333753},"geometry":{"x":165630.59646799974,"y":2561894.0420069993}},{"attributes":{"ID":333763,"DIS_CODE":0,"TOWNNAME":"佳里區","LI":"建南里","LIN":"18鄰","STREET":"博愛街","SECT":" ","MAREA":" ","LANE":" ","ALLEY":" ","HOUSE_NO":"１４９號","E_COORD97":165694.60569900001,"N_COORD97":2561967.5223099999,"ADDRESS":"博愛街１４９號","OBJECTID":333754},"geometry":{"x":165694.60569900088,"y":2561967.5223120004}},{"attributes":{"ID":333764,"DIS_CODE":0,"TOWNNAME":"佳里區","LI":"建南里","LIN":"18鄰","STREET":"博愛街","SECT":" ","MAREA":" ","LANE":" ","ALLEY":" ","HOUSE_NO":"１５１號","E_COORD97":165690.36634800001,"N_COORD97":2561969.0046799998,"ADDRESS":"博愛街１５１號","OBJECTID":333755},"geometry":{"x":165690.36634800117,"y":2561969.0046779998}},{"attributes":{"ID":333765,"DIS_CODE":0,"TOWNNAME":"佳里區","LI":"東寧里","LIN":"11鄰","STREET":"進學路","SECT":" ","MAREA":" ","LANE":" ","ALLEY":" ","HOUSE_NO":"１４３號","E_COORD97":165937.60619699999,"N_COORD97":2562656.8785600001,"ADDRESS":"進學路１４３號","OBJECTID":333756},"geometry":{"x":165937.60619699955,"y":2562656.8785619996}},{"attributes":{"ID":333766,"DIS_CODE":0,"TOWNNAME":"佳里區","LI":"建南里","LIN":"18鄰","STREET":"博愛街","SECT":" ","MAREA":" ","LANE":" ","ALLEY":" ","HOUSE_NO":"１５３號","E_COORD97":165686.55093200001,"N_COORD97":2561969.8517399998,"ADDRESS":"博愛街１５３號","OBJECTID":333757},"geometry":{"x":165686.55093200132,"y":2561969.8517439999}},{"attributes":{"ID":333767,"DIS_CODE":0,"TOWNNAME":"佳里區","LI":"建南里","LIN":"18鄰","STREET":"博愛街","SECT":" ","MAREA":" ","LANE":" ","ALLEY":" ","HOUSE_NO":"１５５號","E_COORD97":165683.371419,"N_COORD97":2561970.9105799999,"ADDRESS":"博愛街１５５號","OBJECTID":333758},"geometry":{"x":165683.37141900044,"y":2561970.9105769992}},{"attributes":{"ID":333768,"DIS_CODE":0,"TOWNNAME":"佳里區","LI":"建南里","LIN":"18鄰","STREET":"博愛街","SECT":" ","MAREA":" ","LANE":" ","ALLEY":" ","HOUSE_NO":"１５７號","E_COORD97":165679.97993900001,"N_COORD97":2561971.9694099999,"ADDRESS":"博愛街１５７號","OBJECTID":333759},"geometry":{"x":165679.97993900161,"y":2561971.9694100004}},{"attributes":{"ID":333769,"DIS_CODE":0,"TOWNNAME":"下營區","LI":"西連里","LIN":"4鄰","STREET":" ","SECT":" ","MAREA":"連表","LANE":" ","ALLEY":" ","HOUSE_NO":"４１號之２１","E_COORD97":174820.60000000001,"N_COORD97":2567990.7000000002,"ADDRESS":"連表４１號之２１","OBJECTID":333760},"geometry":{"x":174820.60000000056,"y":2567990.6999999993}},{"attributes":{"ID":333770,"DIS_CODE":0,"TOWNNAME":"東山區","LI":"東原里","LIN":"20鄰","STREET":" ","SECT":" ","MAREA":"瓦厝子","LANE":" ","ALLEY":" ","HOUSE_NO":"４９號之１１","E_COORD97":194972.29999999999,"N_COORD97":2575173.98,"ADDRESS":"瓦厝子４９號之１１","OBJECTID":333761},"geometry":{"x":194972.29999999981,"y":2575173.9800000004}},{"attributes":{"ID":333771,"DIS_CODE":0,"TOWNNAME":"東山區","LI":"東原里","LIN":"20鄰","STREET":" ","SECT":" ","MAREA":"瓦厝子","LANE":" ","ALLEY":" ","HOUSE_NO":"４９號之１２","E_COORD97":194977.82999999999,"N_COORD97":2575174.9100000001,"ADDRESS":"瓦厝子４９號之１２","OBJECTID":333762},"geometry":{"x":194977.83000000007,"y":2575174.9100000001}},{"attributes":{"ID":333772,"DIS_CODE":0,"TOWNNAME":"東山區","LI":"東原里","LIN":"20鄰","STREET":" ","SECT":" ","MAREA":"瓦厝子","LANE":" ","ALLEY":" ","HOUSE_NO":"４９號之１３","E_COORD97":194983.35000000001,"N_COORD97":2575175.8399999999,"ADDRESS":"瓦厝子４９號之１３","OBJECTID":333763},"geometry":{"x":194983.35000000056,"y":2575175.8400000036}},{"attributes":{"ID":333773,"DIS_CODE":0,"TOWNNAME":"歸仁區","LI":"西埔里","LIN":"6鄰","STREET":"保大路","SECT":"二段","MAREA":" ","LANE":" ","ALLEY":" ","HOUSE_NO":"１２４號","E_COORD97":177047.153013,"N_COORD97":2544147.7424599999,"ADDRESS":"保大路二段１２４號","OBJECTID":333764},"geometry":{"x":177047.15301300026,"y":2544147.7424570024}},{"attributes":{"ID":333774,"DIS_CODE":0,"TOWNNAME":"東山區","LI":"東原里","LIN":"20鄰","STREET":" ","SECT":" ","MAREA":"瓦厝子","LANE":" ","ALLEY":" ","HOUSE_NO":"４９之１４號","E_COORD97":194988.88,"N_COORD97":2575176.77,"ADDRESS":"瓦厝子４９之１４號","OBJECTID":333765},"geometry":{"x":194988.87999999989,"y":2575176.7700000014}},{"attributes":{"ID":333775,"DIS_CODE":0,"TOWNNAME":"鹽水區","LI":"橋南里","LIN":"3鄰","STREET":"橋南街","SECT":" ","MAREA":" ","LANE":" ","ALLEY":" ","HOUSE_NO":"５７號","E_COORD97":175141.625849,"N_COORD97":2579437.17075,"ADDRESS":"橋南街５７號","OBJECTID":333766},"geometry":{"x":175141.62584900111,"y":2579437.1707510035}},{"attributes":{"ID":333776,"DIS_CODE":0,"TOWNNAME":"東山區","LI":"東原里","LIN":"20鄰","STREET":" ","SECT":" ","MAREA":"瓦厝子","LANE":" ","ALLEY":" ","HOUSE_NO":"４９號之１４","E_COORD97":194988.88,"N_COORD97":2575176.77,"ADDRESS":"瓦厝子４９號之１４","OBJECTID":333767},"geometry":{"x":194988.87999999989,"y":2575176.7700000014}},{"attributes":{"ID":333777,"DIS_CODE":0,"TOWNNAME":"東山區","LI":"東原里","LIN":"20鄰","STREET":" ","SECT":" ","MAREA":"瓦厝子","LANE":" ","ALLEY":" ","HOUSE_NO":"４９號之１５","E_COORD97":194879.76999999999,"N_COORD97":2575115.0899999999,"ADDRESS":"瓦厝子４９號之１５","OBJECTID":333768},"geometry":{"x":194879.77000000142,"y":2575115.0899999999}},{"attributes":{"ID":333778,"DIS_CODE":0,"TOWNNAME":"歸仁區","LI":"西埔里","LIN":"6鄰","STREET":"保大路","SECT":"二段","MAREA":" ","LANE":" ","ALLEY":" ","HOUSE_NO":"１４６號","E_COORD97":177000.717539,"N_COORD97":2544150.2824599999,"ADDRESS":"保大路二段１４６號","OBJECTID":333769},"geometry":{"x":177000.71753900219,"y":2544150.2824560013}},{"attributes":{"ID":333779,"DIS_CODE":0,"TOWNNAME":"佳里區","LI":"東寧里","LIN":"18鄰","STREET":"中山麓","SECT":" ","MAREA":" ","LANE":" ","ALLEY":" ","HOUSE_NO":"１４７號之１","E_COORD97":165741.025987,"N_COORD97":2561983.9350200002,"ADDRESS":"中山麓１４７號之１","OBJECTID":333770},"geometry":{"x":165741.0259870002,"y":2561983.935021}},{"attributes":{"ID":333780,"DIS_CODE":0,"TOWNNAME":"東區","LI":"大智里","LIN":"15鄰","STREET":"長東街","SECT":" ","MAREA":" ","LANE":"１４５巷","ALLEY":" ","HOUSE_NO":"３號","E_COORD97":171044.12,"N_COORD97":2540068.25,"ADDRESS":"長東街１４５巷３號","OBJECTID":333771},"geometry":{"x":171044.12000000104,"y":2540068.25}},{"attributes":{"ID":333781,"DIS_CODE":0,"TOWNNAME":"東區","LI":"大智里","LIN":"15鄰","STREET":"長東街","SECT":" ","MAREA":" ","LANE":"１４５巷","ALLEY":" ","HOUSE_NO":"４號","E_COORD97":171044.57999999999,"N_COORD97":2540052.7000000002,"ADDRESS":"長東街１４５巷４號","OBJECTID":333772},"geometry":{"x":171044.58000000101,"y":2540052.7000000011}},{"attributes":{"ID":333782,"DIS_CODE":0,"TOWNNAME":"東區","LI":"大智里","LIN":"15鄰","STREET":"長東街","SECT":" ","MAREA":" ","LANE":"１４５巷","ALLEY":" ","HOUSE_NO":"６號","E_COORD97":171050.45999999999,"N_COORD97":2540050.8199999998,"ADDRESS":"長東街１４５巷６號","OBJECTID":333773},"geometry":{"x":171050.45999999996,"y":2540050.8200000003}},{"attributes":{"ID":333783,"DIS_CODE":0,"TOWNNAME":"東區","LI":"大智里","LIN":"15鄰","STREET":"長東街","SECT":" ","MAREA":" ","LANE":"１４５巷","ALLEY":" ","HOUSE_NO":"８號","E_COORD97":171055.35999999999,"N_COORD97":2540054.3300000001,"ADDRESS":"長東街１４５巷８號","OBJECTID":333774},"geometry":{"x":171055.36000000034,"y":2540054.3300000001}},{"attributes":{"ID":333784,"DIS_CODE":0,"TOWNNAME":"東區","LI":"大智里","LIN":"15鄰","STREET":"長東街","SECT":" ","MAREA":" ","LANE":"１４５巷","ALLEY":" ","HOUSE_NO":"５號","E_COORD97":171047.97,"N_COORD97":2540069.9399999999,"ADDRESS":"長東街１４５巷５號","OBJECTID":333775},"geometry":{"x":171047.97000000067,"y":2540069.9399999995}},{"attributes":{"ID":333785,"DIS_CODE":0,"TOWNNAME":"東區","LI":"新東里","LIN":"15鄰","STREET":"裕豐街","SECT":" ","MAREA":" ","LANE":"１３３巷","ALLEY":" ","HOUSE_NO":"２７號","E_COORD97":170670.69,"N_COORD97":2543035.3599999999,"ADDRESS":"裕豐街１３３巷２７號","OBJECTID":333776},"geometry":{"x":170670.69000000134,"y":2543035.3600000013}},{"attributes":{"ID":333786,"DIS_CODE":0,"TOWNNAME":"東區","LI":"新東里","LIN":"15鄰","STREET":"裕豐街","SECT":" ","MAREA":" ","LANE":"１３３巷","ALLEY":" ","HOUSE_NO":"２９號","E_COORD97":170666.26999999999,"N_COORD97":2543034.02,"ADDRESS":"裕豐街１３３巷２９號","OBJECTID":333777},"geometry":{"x":170666.27000000048,"y":2543034.0200000014}},{"attributes":{"ID":333787,"DIS_CODE":0,"TOWNNAME":"東區","LI":"新東里","LIN":"15鄰","STREET":"裕豐街","SECT":" ","MAREA":" ","LANE":"１３３巷","ALLEY":" ","HOUSE_NO":"３１號","E_COORD97":170661.70999999999,"N_COORD97":2543033.2200000002,"ADDRESS":"裕豐街１３３巷３１號","OBJECTID":333778},"geometry":{"x":170661.71000000089,"y":2543033.2199999988}},{"attributes":{"ID":333788,"DIS_CODE":0,"TOWNNAME":"東區","LI":"新東里","LIN":"15鄰","STREET":"裕豐街","SECT":" ","MAREA":" ","LANE":"１３３巷","ALLEY":" ","HOUSE_NO":"３３號","E_COORD97":170656.48000000001,"N_COORD97":2543032.8199999998,"ADDRESS":"裕豐街１３３巷３３號","OBJECTID":333779},"geometry":{"x":170656.48000000045,"y":2543032.8200000022}},{"attributes":{"ID":333789,"DIS_CODE":0,"TOWNNAME":"東區","LI":"新東里","LIN":"15鄰","STREET":"裕豐街","SECT":" ","MAREA":" ","LANE":"１３３巷","ALLEY":" ","HOUSE_NO":"３７號","E_COORD97":170647.23999999999,"N_COORD97":2543030.9399999999,"ADDRESS":"裕豐街１３３巷３７號","OBJECTID":333780},"geometry":{"x":170647.24000000022,"y":2543030.9400000032}},{"attributes":{"ID":333790,"DIS_CODE":0,"TOWNNAME":"東區","LI":"新東里","LIN":"15鄰","STREET":"裕豐街","SECT":" ","MAREA":" ","LANE":"１３３巷","ALLEY":" ","HOUSE_NO":"３８號","E_COORD97":170664.66,"N_COORD97":2543061.8900000001,"ADDRESS":"裕豐街１３３巷３８號","OBJECTID":333781},"geometry":{"x":170664.66000000015,"y":2543061.8900000006}},{"attributes":{"ID":333791,"DIS_CODE":0,"TOWNNAME":"新市區","LI":"大營里","LIN":"2鄰","STREET":" ","SECT":" ","MAREA":"大營","LANE":" ","ALLEY":" ","HOUSE_NO":"３０號","E_COORD97":179646.057249,"N_COORD97":2555668.2372499998,"ADDRESS":"大營３０號","OBJECTID":333782},"geometry":{"x":179646.05724900216,"y":2555668.2372450028}},{"attributes":{"ID":333792,"DIS_CODE":0,"TOWNNAME":"大內區","LI":"曲溪里","LIN":"4鄰","STREET":" ","SECT":" ","MAREA":"二重溪","LANE":" ","ALLEY":" ","HOUSE_NO":"４３號之１","E_COORD97":187327.979788,"N_COORD97":2557576.4534100001,"ADDRESS":"二重溪４３號之１","OBJECTID":333783},"geometry":{"x":187327.9797880007,"y":2557576.4534070008}},{"attributes":{"ID":333793,"DIS_CODE":0,"TOWNNAME":"七股區","LI":"樹林里","LIN":"11鄰","STREET":" ","SECT":" ","MAREA":"樹林","LANE":" ","ALLEY":" ","HOUSE_NO":"１０６號","E_COORD97":163947.16020300001,"N_COORD97":2556865.2170799999,"ADDRESS":"樹林１０６號","OBJECTID":333784},"geometry":{"x":163947.1602029996,"y":2556865.2170750014}},{"attributes":{"ID":333794,"DIS_CODE":0,"TOWNNAME":"大內區","LI":"曲溪里","LIN":"5鄰","STREET":" ","SECT":" ","MAREA":"二重溪","LANE":" ","ALLEY":" ","HOUSE_NO":"５２號","E_COORD97":187292.389536,"N_COORD97":2557554.01675,"ADDRESS":"二重溪５２號","OBJECTID":333785},"geometry":{"x":187292.38953599986,"y":2557554.0167520046}},{"attributes":{"ID":333795,"DIS_CODE":0,"TOWNNAME":"東山區","LI":"東原里","LIN":"20鄰","STREET":" ","SECT":" ","MAREA":"瓦厝子","LANE":" ","ALLEY":" ","HOUSE_NO":"４９號之１９","E_COORD97":194903.67000000001,"N_COORD97":2575135.79,"ADDRESS":"瓦厝子４９號之１９","OBJECTID":333786},"geometry":{"x":194903.67000000086,"y":2575135.790000001}},{"attributes":{"ID":333796,"DIS_CODE":0,"TOWNNAME":"東山區","LI":"東原里","LIN":"20鄰","STREET":" ","SECT":" ","MAREA":"瓦厝子","LANE":" ","ALLEY":" ","HOUSE_NO":"４９號之１","E_COORD97":194902.01999999999,"N_COORD97":2575172.3500000001,"ADDRESS":"瓦厝子４９號之１","OBJECTID":333787},"geometry":{"x":194902.02000000048,"y":2575172.3500000034}},{"attributes":{"ID":333797,"DIS_CODE":0,"TOWNNAME":"東山區","LI":"東原里","LIN":"20鄰","STREET":" ","SECT":" ","MAREA":"瓦厝子","LANE":" ","ALLEY":" ","HOUSE_NO":"４９號之２０","E_COORD97":194729.88,"N_COORD97":2575058.4100000001,"ADDRESS":"瓦厝子４９號之２０","OBJECTID":333788},"geometry":{"x":194729.87999999989,"y":2575058.410000002}},{"attributes":{"ID":333798,"DIS_CODE":0,"TOWNNAME":"東山區","LI":"東原里","LIN":"20鄰","STREET":" ","SECT":" ","MAREA":"瓦厝子","LANE":" ","ALLEY":" ","HOUSE_NO":"４９號之２１","E_COORD97":194754.39000000001,"N_COORD97":2575048.4100000001,"ADDRESS":"瓦厝子４９號之２１","OBJECTID":333789},"geometry":{"x":194754.3900000006,"y":2575048.410000002}},{"attributes":{"ID":333799,"DIS_CODE":0,"TOWNNAME":"東山區","LI":"東原里","LIN":"20鄰","STREET":" ","SECT":" ","MAREA":"瓦厝子","LANE":" ","ALLEY":" ","HOUSE_NO":"４９號之２２","E_COORD97":194936.84,"N_COORD97":2575162.0800000001,"ADDRESS":"瓦厝子４９號之２２","OBJECTID":333790},"geometry":{"x":194936.83999999985,"y":2575162.0800000019}},{"attributes":{"ID":333800,"DIS_CODE":0,"TOWNNAME":"東山區","LI":"東原里","LIN":"20鄰","STREET":" ","SECT":" ","MAREA":"瓦厝子","LANE":" ","ALLEY":" ","HOUSE_NO":"４９號之２３","E_COORD97":195033.76999999999,"N_COORD97":2575130.9700000002,"ADDRESS":"瓦厝子４９號之２３","OBJECTID":333791},"geometry":{"x":195033.76999999955,"y":2575130.9700000007}},{"attributes":{"ID":333801,"DIS_CODE":0,"TOWNNAME":"東山區","LI":"東原里","LIN":"20鄰","STREET":" ","SECT":" ","MAREA":"瓦厝子","LANE":" ","ALLEY":" ","HOUSE_NO":"４９號之２","E_COORD97":194932.17999999999,"N_COORD97":2575182.71,"ADDRESS":"瓦厝子４９號之２","OBJECTID":333792},"geometry":{"x":194932.18000000063,"y":2575182.7100000028}},{"attributes":{"ID":333802,"DIS_CODE":0,"TOWNNAME":"仁德區","LI":"仁義里","LIN":"1鄰","STREET":"義林路","SECT":" ","MAREA":" ","LANE":"１４８巷","ALLEY":" ","HOUSE_NO":"４０號","E_COORD97":174845.191999,"N_COORD97":2540518.46043,"ADDRESS":"義林路１４８巷４０號","OBJECTID":333793},"geometry":{"x":174845.19199899957,"y":2540518.4604330007}},{"attributes":{"ID":333803,"DIS_CODE":0,"TOWNNAME":"仁德區","LI":"仁義里","LIN":"1鄰","STREET":"義林路","SECT":" ","MAREA":" ","LANE":"１４８巷","ALLEY":" ","HOUSE_NO":"４１號","E_COORD97":174819.97977599999,"N_COORD97":2540638.6870300001,"ADDRESS":"義林路１４８巷４１號","OBJECTID":333794},"geometry":{"x":174819.97977600154,"y":2540638.6870339997}},{"attributes":{"ID":333804,"DIS_CODE":0,"TOWNNAME":"仁德區","LI":"大甲里","LIN":"3鄰","STREET":"行大一街","SECT":" ","MAREA":" ","LANE":" ","ALLEY":" ","HOUSE_NO":"１７４號","E_COORD97":169832.40248399999,"N_COORD97":2535070.5712299999,"ADDRESS":"行大一街１７４號","OBJECTID":333795},"geometry":{"x":169832.40248400066,"y":2535070.5712260008}},{"attributes":{"ID":333805,"DIS_CODE":0,"TOWNNAME":"永康區","LI":"五王里","LIN":"35鄰","STREET":"中山南路","SECT":" ","MAREA":" ","LANE":" ","ALLEY":" ","HOUSE_NO":"１５８號","E_COORD97":171233.48628799999,"N_COORD97":2545972.3695200002,"ADDRESS":"中山南路１５８號","OBJECTID":333796},"geometry":{"x":171233.48628800176,"y":2545972.3695170004}},{"attributes":{"ID":333806,"DIS_CODE":0,"TOWNNAME":"仁德區","LI":"大甲里","LIN":"3鄰","STREET":"行大一街","SECT":" ","MAREA":" ","LANE":" ","ALLEY":" ","HOUSE_NO":"１８８之３號","E_COORD97":169842.57647,"N_COORD97":2535066.3378900001,"ADDRESS":"行大一街１８８之３號","OBJECTID":333797},"geometry":{"x":169842.57647000067,"y":2535066.3378949985}},{"attributes":{"ID":333807,"DIS_CODE":0,"TOWNNAME":"東區","LI":"新東里","LIN":"15鄰","STREET":"裕豐街","SECT":" ","MAREA":" ","LANE":"１３３巷","ALLEY":" ","HOUSE_NO":"４０號","E_COORD97":170660.14999999999,"N_COORD97":2543060.1299999999,"ADDRESS":"裕豐街１３３巷４０號","OBJECTID":333798},"geometry":{"x":170660.15000000037,"y":2543060.1300000008}},{"attributes":{"ID":333808,"DIS_CODE":0,"TOWNNAME":"東區","LI":"新東里","LIN":"15鄰","STREET":"裕豐街","SECT":" ","MAREA":" ","LANE":"１３３巷","ALLEY":" ","HOUSE_NO":"４２號","E_COORD97":170655.45000000001,"N_COORD97":2543059.3500000001,"ADDRESS":"裕豐街１３３巷４２號","OBJECTID":333799},"geometry":{"x":170655.45000000112,"y":2543059.3500000015}},{"attributes":{"ID":333809,"DIS_CODE":0,"TOWNNAME":"東區","LI":"新東里","LIN":"15鄰","STREET":"裕豐街","SECT":" ","MAREA":" ","LANE":"１３３巷","ALLEY":" ","HOUSE_NO":"４４號","E_COORD97":170650.85000000001,"N_COORD97":2543058.4700000002,"ADDRESS":"裕豐街１３３巷４４號","OBJECTID":333800},"geometry":{"x":170650.84999999963,"y":2543058.4700000007}}]}