{"displayFieldName":"TOWNNAME","fieldAliases":{"ID":"ID","DIS_CODE":"DIS_CODE","TOWNNAME":"TOWNNAME","LI":"LI","LIN":"LIN","STREET":"STREET","SECT":"SECT","MAREA":"MAREA","LANE":"LANE","ALLEY":"ALLEY","HOUSE_NO":"HOUSE_NO","E_COORD97":"E_COORD97","N_COORD97":"N_COORD97","ADDRESS":"ADDRESS","OBJECTID":"OBJECTID"},"geometryType":"esriGeometryPoint","spatialReference":{"wkid":102443,"latestWkid":3826},"fields":[{"name":"ID","type":"esriFieldTypeDouble","alias":"ID"},{"name":"DIS_CODE","type":"esriFieldTypeInteger","alias":"DIS_CODE"},{"name":"TOWNNAME","type":"esriFieldTypeString","alias":"TOWNNAME","length":8},{"name":"LI","type":"esriFieldTypeString","alias":"LI","length":8},{"name":"LIN","type":"esriFieldTypeString","alias":"LIN","length":12},{"name":"STREET","type":"esriFieldTypeString","alias":"STREET","length":20},{"name":"SECT","type":"esriFieldTypeString","alias":"SECT","length":8},{"name":"MAREA","type":"esriFieldTypeString","alias":"MAREA","length":12},{"name":"LANE","type":"esriFieldTypeString","alias":"LANE","length":10},{"name":"ALLEY","type":"esriFieldTypeString","alias":"ALLEY","length":10},{"name":"HOUSE_NO","type":"esriFieldTypeString","alias":"HOUSE_NO","length":20},{"name":"E_COORD97","type":"esriFieldTypeDouble","alias":"E_COORD97"},{"name":"N_COORD97","type":"esriFieldTypeDouble","alias":"N_COORD97"},{"name":"ADDRESS","type":"esriFieldTypeString","alias":"ADDRESS","length":50},{"name":"OBJECTID","type":"esriFieldTypeOID","alias":"OBJECTID"}],"features":[{"attributes":{"ID":111801,"DIS_CODE":0,"TOWNNAME":"學甲區","LI":"光華里","LIN":"28鄰","STREET":" ","SECT":" ","MAREA":"筏子頭","LANE":" ","ALLEY":" ","HOUSE_NO":"４號之７","E_COORD97":165252.73000000001,"N_COORD97":2574363.96,"ADDRESS":"筏子頭４號之７","OBJECTID":111801},"geometry":{"x":165252.73000000138,"y":2574363.9600000028}},{"attributes":{"ID":111802,"DIS_CODE":0,"TOWNNAME":"學甲區","LI":"光華里","LIN":"28鄰","STREET":" ","SECT":" ","MAREA":"筏子頭","LANE":" ","ALLEY":" ","HOUSE_NO":"８號之１２","E_COORD97":165145.17000000001,"N_COORD97":2574243.3999999999,"ADDRESS":"筏子頭８號之１２","OBJECTID":111802},"geometry":{"x":165145.16999999993,"y":2574243.4000000004}},{"attributes":{"ID":111803,"DIS_CODE":0,"TOWNNAME":"學甲區","LI":"光華里","LIN":"28鄰","STREET":" ","SECT":" ","MAREA":"筏子頭","LANE":" ","ALLEY":" ","HOUSE_NO":"８號之１４","E_COORD97":164598.67000000001,"N_COORD97":2574328.1200000001,"ADDRESS":"筏子頭８號之１４","OBJECTID":111803},"geometry":{"x":164598.67000000086,"y":2574328.1200000029}},{"attributes":{"ID":111804,"DIS_CODE":0,"TOWNNAME":"學甲區","LI":"光華里","LIN":"28鄰","STREET":" ","SECT":" ","MAREA":"筏子頭","LANE":" ","ALLEY":" ","HOUSE_NO":"８號之１５","E_COORD97":164819.85999999999,"N_COORD97":2574541.8900000001,"ADDRESS":"筏子頭８號之１５","OBJECTID":111804},"geometry":{"x":164819.86000000127,"y":2574541.8900000006}},{"attributes":{"ID":111805,"DIS_CODE":0,"TOWNNAME":"學甲區","LI":"光華里","LIN":"28鄰","STREET":" ","SECT":" ","MAREA":"筏子頭","LANE":" ","ALLEY":" ","HOUSE_NO":"８號之１６","E_COORD97":164812.82999999999,"N_COORD97":2574514.1299999999,"ADDRESS":"筏子頭８號之１６","OBJECTID":111805},"geometry":{"x":164812.83000000101,"y":2574514.129999999}},{"attributes":{"ID":111806,"DIS_CODE":0,"TOWNNAME":"學甲區","LI":"光華里","LIN":"28鄰","STREET":" ","SECT":" ","MAREA":"筏子頭","LANE":" ","ALLEY":" ","HOUSE_NO":"８號之２０","E_COORD97":164815.20999999999,"N_COORD97":2574486.9900000002,"ADDRESS":"筏子頭８號之２０","OBJECTID":111806},"geometry":{"x":164815.21000000089,"y":2574486.9900000039}},{"attributes":{"ID":111807,"DIS_CODE":0,"TOWNNAME":"學甲區","LI":"光華里","LIN":"28鄰","STREET":" ","SECT":" ","MAREA":"筏子頭","LANE":" ","ALLEY":" ","HOUSE_NO":"８號之６","E_COORD97":164843.78,"N_COORD97":2574761.96,"ADDRESS":"筏子頭８號之６","OBJECTID":111807},"geometry":{"x":164843.78000000119,"y":2574761.9600000009}},{"attributes":{"ID":111808,"DIS_CODE":0,"TOWNNAME":"麻豆區","LI":"南勢里","LIN":"27鄰","STREET":" ","SECT":" ","MAREA":"總爺","LANE":" ","ALLEY":" ","HOUSE_NO":"２１４號","E_COORD97":175185.03,"N_COORD97":2565150.6899999999,"ADDRESS":"總爺２１４號","OBJECTID":111808},"geometry":{"x":175185.03000000026,"y":2565150.6899999995}},{"attributes":{"ID":111809,"DIS_CODE":0,"TOWNNAME":"安平區","LI":"平安里","LIN":"1鄰","STREET":"安平路","SECT":" ","MAREA":" ","LANE":" ","ALLEY":" ","HOUSE_NO":"５２號","E_COORD97":166504.45000000001,"N_COORD97":2544313.7799999998,"ADDRESS":"安平路５２號","OBJECTID":111809},"geometry":{"x":166504.45000000019,"y":2544313.7800000012}},{"attributes":{"ID":111810,"DIS_CODE":0,"TOWNNAME":"安平區","LI":"平通里","LIN":"1鄰","STREET":"國平路","SECT":" ","MAREA":" ","LANE":" ","ALLEY":" ","HOUSE_NO":"５８７號","E_COORD97":165064.60999999999,"N_COORD97":2544106.4700000002,"ADDRESS":"國平路５８７號","OBJECTID":111810},"geometry":{"x":165064.61000000034,"y":2544106.4700000044}},{"attributes":{"ID":111811,"DIS_CODE":0,"TOWNNAME":"安平區","LI":"億載里","LIN":"1鄰","STREET":"永華十一街","SECT":" ","MAREA":" ","LANE":" ","ALLEY":" ","HOUSE_NO":"１６２號","E_COORD97":164072.35000000001,"N_COORD97":2543886.4900000002,"ADDRESS":"永華十一街１６２號","OBJECTID":111811},"geometry":{"x":164072.34999999963,"y":2543886.4900000021}},{"attributes":{"ID":111812,"DIS_CODE":0,"TOWNNAME":"安平區","LI":"億載里","LIN":"1鄰","STREET":"永華十一街","SECT":" ","MAREA":" ","LANE":" ","ALLEY":" ","HOUSE_NO":"１６６號","E_COORD97":164070.92999999999,"N_COORD97":2543897.9199999999,"ADDRESS":"永華十一街１６６號","OBJECTID":111812},"geometry":{"x":164070.93000000063,"y":2543897.9199999999}},{"attributes":{"ID":111813,"DIS_CODE":0,"TOWNNAME":"安平區","LI":"國平里","LIN":"1鄰","STREET":"永華路","SECT":"二段","MAREA":" ","LANE":" ","ALLEY":" ","HOUSE_NO":"５５１號","E_COORD97":165391.59,"N_COORD97":2543461.8500000001,"ADDRESS":"永華路二段５５１號","OBJECTID":111813},"geometry":{"x":165391.58999999985,"y":2543461.8499999978}},{"attributes":{"ID":111814,"DIS_CODE":0,"TOWNNAME":"新營區","LI":"民權里","LIN":"15鄰","STREET":"三民路","SECT":" ","MAREA":" ","LANE":" ","ALLEY":" ","HOUSE_NO":"１１８號","E_COORD97":179817.59,"N_COORD97":2578486.0899999999,"ADDRESS":"三民路１１８號","OBJECTID":111814},"geometry":{"x":179817.58999999985,"y":2578486.0899999999}},{"attributes":{"ID":111815,"DIS_CODE":0,"TOWNNAME":"中西區","LI":"三民里","LIN":"20鄰","STREET":"忠義路","SECT":"二段","MAREA":" ","LANE":"１５８巷","ALLEY":"２０弄","HOUSE_NO":"１號","E_COORD97":168439.29000000001,"N_COORD97":2544020.7799999998,"ADDRESS":"忠義路二段１５８巷２０弄１號","OBJECTID":111815},"geometry":{"x":168439.29000000097,"y":2544020.7799999993}},{"attributes":{"ID":111816,"DIS_CODE":0,"TOWNNAME":"中西區","LI":"三民里","LIN":"20鄰","STREET":"忠義路","SECT":"二段","MAREA":" ","LANE":"１５８巷","ALLEY":"２０弄","HOUSE_NO":"５號","E_COORD97":168437.63,"N_COORD97":2544016.0499999998,"ADDRESS":"忠義路二段１５８巷２０弄５號","OBJECTID":111816},"geometry":{"x":168437.62999999896,"y":2544016.0500000026}},{"attributes":{"ID":111817,"DIS_CODE":0,"TOWNNAME":"安平區","LI":"平安里","LIN":"1鄰","STREET":"民權路","SECT":"四段","MAREA":" ","LANE":" ","ALLEY":" ","HOUSE_NO":"６５號","E_COORD97":166430.48000000001,"N_COORD97":2544404.7400000002,"ADDRESS":"民權路四段６５號","OBJECTID":111817},"geometry":{"x":166430.47999999952,"y":2544404.7400000002}},{"attributes":{"ID":111818,"DIS_CODE":0,"TOWNNAME":"中西區","LI":"三民里","LIN":"20鄰","STREET":"忠義路","SECT":"二段","MAREA":" ","LANE":"１５８巷","ALLEY":"２０弄","HOUSE_NO":"７號","E_COORD97":168427.97,"N_COORD97":2544014.2799999998,"ADDRESS":"忠義路二段１５８巷２０弄７號","OBJECTID":111818},"geometry":{"x":168427.96999999974,"y":2544014.2799999993}},{"attributes":{"ID":111819,"DIS_CODE":0,"TOWNNAME":"仁德區","LI":"太子里","LIN":"37鄰","STREET":"長興一街","SECT":" ","MAREA":" ","LANE":"４０巷","ALLEY":"２２弄","HOUSE_NO":"３號","E_COORD97":174495.89999999999,"N_COORD97":2543948.0099999998,"ADDRESS":"長興一街４０巷２２弄３號","OBJECTID":111819},"geometry":{"x":174495.90000000037,"y":2543948.0099999998}},{"attributes":{"ID":111820,"DIS_CODE":0,"TOWNNAME":"新市區","LI":"新和里","LIN":"37鄰","STREET":"仁愛街","SECT":" ","MAREA":" ","LANE":"２４１巷","ALLEY":"１９弄","HOUSE_NO":"１０號","E_COORD97":177566.44,"N_COORD97":2552868.2799999998,"ADDRESS":"仁愛街２４１巷１９弄１０號","OBJECTID":111820},"geometry":{"x":177566.44000000227,"y":2552868.2800000012}},{"attributes":{"ID":111821,"DIS_CODE":0,"TOWNNAME":"新市區","LI":"新和里","LIN":"37鄰","STREET":"仁愛街","SECT":" ","MAREA":" ","LANE":"２４１巷","ALLEY":"１９弄","HOUSE_NO":"１２號","E_COORD97":177570.39000000001,"N_COORD97":2552863.7799999998,"ADDRESS":"仁愛街２４１巷１９弄１２號","OBJECTID":111821},"geometry":{"x":177570.38999999966,"y":2552863.7800000031}},{"attributes":{"ID":111822,"DIS_CODE":0,"TOWNNAME":"新市區","LI":"新和里","LIN":"37鄰","STREET":"華興街","SECT":" ","MAREA":" ","LANE":"６９巷","ALLEY":"２弄","HOUSE_NO":"２號","E_COORD97":177564.87,"N_COORD97":2552962.5,"ADDRESS":"華興街６９巷２弄２號","OBJECTID":111822},"geometry":{"x":177564.86999999918,"y":2552962.5000000019}},{"attributes":{"ID":111823,"DIS_CODE":0,"TOWNNAME":"永康區","LI":"北灣里","LIN":"37鄰","STREET":"大同街","SECT":" ","MAREA":" ","LANE":"３８０巷","ALLEY":"１１弄","HOUSE_NO":"１８號","E_COORD97":174802.48999999999,"N_COORD97":2546156.46,"ADDRESS":"大同街３８０巷１１弄１８號","OBJECTID":111823},"geometry":{"x":174802.49000000022,"y":2546156.4600000009}},{"attributes":{"ID":111824,"DIS_CODE":0,"TOWNNAME":"新營區","LI":"太北里","LIN":"5鄰","STREET":" ","SECT":" ","MAREA":"太子宮","LANE":" ","ALLEY":" ","HOUSE_NO":"４０之６號","E_COORD97":175786.60999999999,"N_COORD97":2577226.6800000002,"ADDRESS":"太子宮４０之６號","OBJECTID":111824},"geometry":{"x":175786.61000000034,"y":2577226.6799999997}},{"attributes":{"ID":111825,"DIS_CODE":0,"TOWNNAME":"永康區","LI":"北灣里","LIN":"37鄰","STREET":"大同街","SECT":" ","MAREA":" ","LANE":"３８０巷","ALLEY":"１１弄","HOUSE_NO":"９號","E_COORD97":174779.70000000001,"N_COORD97":2546143.27,"ADDRESS":"大同街３８０巷１１弄９號","OBJECTID":111825},"geometry":{"x":174779.70000000112,"y":2546143.2699999996}},{"attributes":{"ID":111826,"DIS_CODE":0,"TOWNNAME":"永康區","LI":"北灣里","LIN":"37鄰","STREET":"大同街","SECT":" ","MAREA":" ","LANE":"３８０巷","ALLEY":"１１弄","HOUSE_NO":"１號","E_COORD97":174763.62,"N_COORD97":2546125.27,"ADDRESS":"大同街３８０巷１１弄１號","OBJECTID":111826},"geometry":{"x":174763.62000000104,"y":2546125.2700000014}},{"attributes":{"ID":111827,"DIS_CODE":0,"TOWNNAME":"永康區","LI":"北灣里","LIN":"37鄰","STREET":"大同街","SECT":" ","MAREA":" ","LANE":"３８０巷","ALLEY":"１１弄","HOUSE_NO":"２號","E_COORD97":174777.20999999999,"N_COORD97":2546130.2200000002,"ADDRESS":"大同街３８０巷１１弄２號","OBJECTID":111827},"geometry":{"x":174777.20999999903,"y":2546130.2200000025}},{"attributes":{"ID":111828,"DIS_CODE":0,"TOWNNAME":"永康區","LI":"北灣里","LIN":"37鄰","STREET":"大同街","SECT":" ","MAREA":" ","LANE":"３８０巷","ALLEY":"１１弄","HOUSE_NO":"１３號","E_COORD97":174788.48999999999,"N_COORD97":2546152.0099999998,"ADDRESS":"大同街３８０巷１１弄１３號","OBJECTID":111828},"geometry":{"x":174788.49000000022,"y":2546152.0099999998}},{"attributes":{"ID":111829,"DIS_CODE":0,"TOWNNAME":"永康區","LI":"北灣里","LIN":"37鄰","STREET":"大同街","SECT":" ","MAREA":" ","LANE":"３８０巷","ALLEY":"１１弄","HOUSE_NO":"１２號","E_COORD97":174794.39999999999,"N_COORD97":2546146.7599999998,"ADDRESS":"大同街３８０巷１１弄１２號","OBJECTID":111829},"geometry":{"x":174794.40000000037,"y":2546146.7599999998}},{"attributes":{"ID":111830,"DIS_CODE":0,"TOWNNAME":"永康區","LI":"北灣里","LIN":"37鄰","STREET":"大同街","SECT":" ","MAREA":" ","LANE":"３８０巷","ALLEY":"１１弄","HOUSE_NO":"１５號","E_COORD97":174792.81,"N_COORD97":2546156.5099999998,"ADDRESS":"大同街３８０巷１１弄１５號","OBJECTID":111830},"geometry":{"x":174792.80999999959,"y":2546156.5100000035}},{"attributes":{"ID":111831,"DIS_CODE":0,"TOWNNAME":"永康區","LI":"北灣里","LIN":"37鄰","STREET":"大同街","SECT":" ","MAREA":" ","LANE":"３８０巷","ALLEY":"１１弄","HOUSE_NO":"６號","E_COORD97":174782.25,"N_COORD97":2546135.2200000002,"ADDRESS":"大同街３８０巷１１弄６號","OBJECTID":111831},"geometry":{"x":174782.25000000186,"y":2546135.2200000007}},{"attributes":{"ID":111832,"DIS_CODE":0,"TOWNNAME":"永康區","LI":"北灣里","LIN":"37鄰","STREET":"大同街","SECT":" ","MAREA":" ","LANE":"３８０巷","ALLEY":"１１弄","HOUSE_NO":"１１號","E_COORD97":174784.87,"N_COORD97":2546147.5099999998,"ADDRESS":"大同街３８０巷１１弄１１號","OBJECTID":111832},"geometry":{"x":174784.87000000197,"y":2546147.5100000016}},{"attributes":{"ID":111833,"DIS_CODE":0,"TOWNNAME":"永康區","LI":"北灣里","LIN":"37鄰","STREET":"大同街","SECT":" ","MAREA":" ","LANE":"６０６巷","ALLEY":"１８弄","HOUSE_NO":"１號","E_COORD97":174782.16,"N_COORD97":2546223.0800000001,"ADDRESS":"大同街６０６巷１８弄１號","OBJECTID":111833},"geometry":{"x":174782.16000000015,"y":2546223.0800000001}},{"attributes":{"ID":111834,"DIS_CODE":0,"TOWNNAME":"東區","LI":"德光里","LIN":"4鄰","STREET":"崇明路","SECT":" ","MAREA":" ","LANE":" ","ALLEY":" ","HOUSE_NO":"８５號","E_COORD97":169755.23000000001,"N_COORD97":2542314.25,"ADDRESS":"崇明路８５號","OBJECTID":111834},"geometry":{"x":169755.23000000138,"y":2542314.2500000019}},{"attributes":{"ID":111835,"DIS_CODE":0,"TOWNNAME":"東山區","LI":"東原里","LIN":"28鄰","STREET":" ","SECT":" ","MAREA":"班芝花坑","LANE":" ","ALLEY":" ","HOUSE_NO":"２５號","E_COORD97":192294.82999999999,"N_COORD97":2575706.9399999999,"ADDRESS":"班芝花坑２５號","OBJECTID":111835},"geometry":{"x":192294.83000000194,"y":2575706.9399999976}},{"attributes":{"ID":111836,"DIS_CODE":0,"TOWNNAME":"東山區","LI":"東原里","LIN":"28鄰","STREET":" ","SECT":" ","MAREA":"班芝花坑","LANE":" ","ALLEY":" ","HOUSE_NO":"２７號","E_COORD97":192308.41,"N_COORD97":2575712.5299999998,"ADDRESS":"班芝花坑２７號","OBJECTID":111836},"geometry":{"x":192308.41000000108,"y":2575712.5299999993}},{"attributes":{"ID":111837,"DIS_CODE":0,"TOWNNAME":"東山區","LI":"東原里","LIN":"28鄰","STREET":" ","SECT":" ","MAREA":"班芝花坑","LANE":" ","ALLEY":" ","HOUSE_NO":"２８號之１０","E_COORD97":192288.20000000001,"N_COORD97":2575704.3399999999,"ADDRESS":"班芝花坑２８號之１０","OBJECTID":111837},"geometry":{"x":192288.20000000019,"y":2575704.3399999999}},{"attributes":{"ID":111838,"DIS_CODE":0,"TOWNNAME":"東山區","LI":"東原里","LIN":"28鄰","STREET":" ","SECT":" ","MAREA":"班芝花坑","LANE":" ","ALLEY":" ","HOUSE_NO":"２８號之１１","E_COORD97":192283.60000000001,"N_COORD97":2575703.3999999999,"ADDRESS":"班芝花坑２８號之１１","OBJECTID":111838},"geometry":{"x":192283.59999999963,"y":2575703.4000000004}},{"attributes":{"ID":111839,"DIS_CODE":0,"TOWNNAME":"東山區","LI":"東原里","LIN":"28鄰","STREET":" ","SECT":" ","MAREA":"班芝花坑","LANE":" ","ALLEY":" ","HOUSE_NO":"２８號之１２","E_COORD97":192279,"N_COORD97":2575702.46,"ADDRESS":"班芝花坑２８號之１２","OBJECTID":111839},"geometry":{"x":192279.00000000093,"y":2575702.4600000028}},{"attributes":{"ID":111840,"DIS_CODE":0,"TOWNNAME":"東山區","LI":"東原里","LIN":"28鄰","STREET":" ","SECT":" ","MAREA":"班芝花坑","LANE":" ","ALLEY":" ","HOUSE_NO":"２８號之２","E_COORD97":192284.20000000001,"N_COORD97":2575593.5699999998,"ADDRESS":"班芝花坑２８號之２","OBJECTID":111840},"geometry":{"x":192284.20000000112,"y":2575593.5700000022}},{"attributes":{"ID":111841,"DIS_CODE":0,"TOWNNAME":"永康區","LI":"北灣里","LIN":"37鄰","STREET":"大同街","SECT":" ","MAREA":" ","LANE":"６０６巷","ALLEY":"１８弄","HOUSE_NO":"６號","E_COORD97":174768.01999999999,"N_COORD97":2546213.6000000001,"ADDRESS":"大同街６０６巷１８弄６號","OBJECTID":111841},"geometry":{"x":174768.02000000142,"y":2546213.6000000034}},{"attributes":{"ID":111842,"DIS_CODE":0,"TOWNNAME":"永康區","LI":"北灣里","LIN":"37鄰","STREET":"大同街","SECT":" ","MAREA":" ","LANE":"３８０巷","ALLEY":"１１弄","HOUSE_NO":"３號","E_COORD97":174767.34,"N_COORD97":2546129.77,"ADDRESS":"大同街３８０巷１１弄３號","OBJECTID":111842},"geometry":{"x":174767.33999999985,"y":2546129.7699999996}},{"attributes":{"ID":111843,"DIS_CODE":0,"TOWNNAME":"永康區","LI":"北灣里","LIN":"37鄰","STREET":"大同街","SECT":" ","MAREA":" ","LANE":"６０６巷","ALLEY":"１８弄","HOUSE_NO":"２號","E_COORD97":174763.51999999999,"N_COORD97":2546218.1000000001,"ADDRESS":"大同街６０６巷１８弄２號","OBJECTID":111843},"geometry":{"x":174763.52000000048,"y":2546218.1000000015}},{"attributes":{"ID":111844,"DIS_CODE":0,"TOWNNAME":"新市區","LI":"新和里","LIN":"37鄰","STREET":"華興街","SECT":" ","MAREA":" ","LANE":"６９巷","ALLEY":"２弄","HOUSE_NO":"３號","E_COORD97":177589.07000000001,"N_COORD97":2552947.25,"ADDRESS":"華興街６９巷２弄３號","OBJECTID":111844},"geometry":{"x":177589.0700000003,"y":2552947.2500000019}},{"attributes":{"ID":111845,"DIS_CODE":0,"TOWNNAME":"新市區","LI":"新和里","LIN":"37鄰","STREET":"仁愛街","SECT":" ","MAREA":" ","LANE":"２４１巷","ALLEY":"１９弄","HOUSE_NO":"１號","E_COORD97":177574.28,"N_COORD97":2552891.2799999998,"ADDRESS":"仁愛街２４１巷１９弄１號","OBJECTID":111845},"geometry":{"x":177574.28000000212,"y":2552891.2800000012}},{"attributes":{"ID":111846,"DIS_CODE":0,"TOWNNAME":"永康區","LI":"北灣里","LIN":"37鄰","STREET":"大同街","SECT":" ","MAREA":" ","LANE":"３６９巷","ALLEY":"５弄","HOUSE_NO":"１９號","E_COORD97":174658.38,"N_COORD97":2546107.5,"ADDRESS":"大同街３６９巷５弄１９號","OBJECTID":111846},"geometry":{"x":174658.37999999989,"y":2546107.5000000019}},{"attributes":{"ID":111847,"DIS_CODE":0,"TOWNNAME":"永康區","LI":"成功里","LIN":"37鄰","STREET":"中華路","SECT":" ","MAREA":" ","LANE":"１５４巷","ALLEY":"８７弄","HOUSE_NO":"１５號","E_COORD97":171830.69,"N_COORD97":2544919.7000000002,"ADDRESS":"中華路１５４巷８７弄１５號","OBJECTID":111847},"geometry":{"x":171830.69000000134,"y":2544919.6999999993}},{"attributes":{"ID":111848,"DIS_CODE":0,"TOWNNAME":"永康區","LI":"北灣里","LIN":"37鄰","STREET":"大同街","SECT":" ","MAREA":" ","LANE":"３８０巷","ALLEY":"１１弄","HOUSE_NO":"５號","E_COORD97":174771.56,"N_COORD97":2546135.02,"ADDRESS":"大同街３８０巷１１弄５號","OBJECTID":111848},"geometry":{"x":174771.56000000052,"y":2546135.0199999996}},{"attributes":{"ID":111849,"DIS_CODE":0,"TOWNNAME":"永康區","LI":"北灣里","LIN":"37鄰","STREET":"大同街","SECT":" ","MAREA":" ","LANE":"３８０巷","ALLEY":"１１弄","HOUSE_NO":"２９號","E_COORD97":174821.26000000001,"N_COORD97":2546186.4100000001,"ADDRESS":"大同街３８０巷１１弄２９號","OBJECTID":111849},"geometry":{"x":174821.26000000071,"y":2546186.4100000001}},{"attributes":{"ID":111850,"DIS_CODE":0,"TOWNNAME":"永康區","LI":"成功里","LIN":"37鄰","STREET":"中華路","SECT":" ","MAREA":" ","LANE":"１５４巷","ALLEY":"８７弄","HOUSE_NO":"２０號","E_COORD97":171809.41,"N_COORD97":2544924.4900000002,"ADDRESS":"中華路１５４巷８７弄２０號","OBJECTID":111850},"geometry":{"x":171809.41000000015,"y":2544924.4900000021}},{"attributes":{"ID":111851,"DIS_CODE":0,"TOWNNAME":"仁德區","LI":"後壁里","LIN":"37鄰","STREET":"德洋一街","SECT":" ","MAREA":" ","LANE":"５１巷","ALLEY":"６弄","HOUSE_NO":"２之１號","E_COORD97":173150.13,"N_COORD97":2539251.8300000001,"ADDRESS":"德洋一街５１巷６弄２之１號","OBJECTID":111851},"geometry":{"x":173150.12999999989,"y":2539251.8300000038}},{"attributes":{"ID":111852,"DIS_CODE":0,"TOWNNAME":"新市區","LI":"新和里","LIN":"37鄰","STREET":"仁愛街","SECT":" ","MAREA":" ","LANE":"２４１巷","ALLEY":"１９弄","HOUSE_NO":"７號","E_COORD97":177576.73000000001,"N_COORD97":2552877.0299999998,"ADDRESS":"仁愛街２４１巷１９弄７號","OBJECTID":111852},"geometry":{"x":177576.73000000138,"y":2552877.0300000012}},{"attributes":{"ID":111853,"DIS_CODE":0,"TOWNNAME":"新市區","LI":"新和里","LIN":"37鄰","STREET":"仁愛街","SECT":" ","MAREA":" ","LANE":"２４１巷","ALLEY":"１９弄","HOUSE_NO":"３號","E_COORD97":177575.12,"N_COORD97":2552886.2799999998,"ADDRESS":"仁愛街２４１巷１９弄３號","OBJECTID":111853},"geometry":{"x":177575.12000000197,"y":2552886.2799999993}},{"attributes":{"ID":111854,"DIS_CODE":0,"TOWNNAME":"新市區","LI":"新和里","LIN":"37鄰","STREET":"仁愛街","SECT":" ","MAREA":" ","LANE":"２４１巷","ALLEY":"１９弄","HOUSE_NO":"６號","E_COORD97":177563.28,"N_COORD97":2552878.0299999998,"ADDRESS":"仁愛街２４１巷１９弄６號","OBJECTID":111854},"geometry":{"x":177563.28000000026,"y":2552878.0299999993}},{"attributes":{"ID":111855,"DIS_CODE":0,"TOWNNAME":"新市區","LI":"新和里","LIN":"37鄰","STREET":"仁愛街","SECT":" ","MAREA":" ","LANE":"２４１巷","ALLEY":"２０弄","HOUSE_NO":"２號","E_COORD97":177574.12,"N_COORD97":2552932.7799999998,"ADDRESS":"仁愛街２４１巷２０弄２號","OBJECTID":111855},"geometry":{"x":177574.12000000104,"y":2552932.7800000012}},{"attributes":{"ID":111856,"DIS_CODE":0,"TOWNNAME":"新市區","LI":"新和里","LIN":"37鄰","STREET":"仁愛街","SECT":" ","MAREA":" ","LANE":"２４１巷","ALLEY":"１９弄","HOUSE_NO":"５號","E_COORD97":177576.12,"N_COORD97":2552881.2799999998,"ADDRESS":"仁愛街２４１巷１９弄５號","OBJECTID":111856},"geometry":{"x":177576.12000000011,"y":2552881.2800000012}},{"attributes":{"ID":111857,"DIS_CODE":0,"TOWNNAME":"佳里區","LI":"安西里","LIN":"37鄰","STREET":"光華街","SECT":" ","MAREA":" ","LANE":"１３０巷","ALLEY":"２１弄","HOUSE_NO":"６號","E_COORD97":165045.45999999999,"N_COORD97":2562889.9300000002,"ADDRESS":"光華街１３０巷２１弄６號","OBJECTID":111857},"geometry":{"x":165045.46000000089,"y":2562889.9300000016}},{"attributes":{"ID":111858,"DIS_CODE":0,"TOWNNAME":"佳里區","LI":"安西里","LIN":"37鄰","STREET":"光華街","SECT":" ","MAREA":" ","LANE":"１３０巷","ALLEY":"２１弄","HOUSE_NO":"８號","E_COORD97":165040.51999999999,"N_COORD97":2562889.7000000002,"ADDRESS":"光華街１３０巷２１弄８號","OBJECTID":111858},"geometry":{"x":165040.51999999955,"y":2562889.700000003}},{"attributes":{"ID":111859,"DIS_CODE":0,"TOWNNAME":"中西區","LI":"永福里","LIN":"19鄰","STREET":"忠義路","SECT":"二段","MAREA":" ","LANE":"１４７巷","ALLEY":"１弄","HOUSE_NO":"４號","E_COORD97":168326.44,"N_COORD97":2544029.21,"ADDRESS":"忠義路二段１４７巷１弄４號","OBJECTID":111859},"geometry":{"x":168326.44000000134,"y":2544029.2100000009}},{"attributes":{"ID":111860,"DIS_CODE":0,"TOWNNAME":"新營區","LI":"中營里","LIN":"15鄰","STREET":"東山三路","SECT":" ","MAREA":" ","LANE":" ","ALLEY":" ","HOUSE_NO":"１５９號","E_COORD97":181622.45999999999,"N_COORD97":2579269.48,"ADDRESS":"東山三路１５９號","OBJECTID":111860},"geometry":{"x":181622.46000000183,"y":2579269.4800000023}},{"attributes":{"ID":111861,"DIS_CODE":0,"TOWNNAME":"南區","LI":"同安里","LIN":" ","STREET":"明興路","SECT":" ","MAREA":" ","LANE":" ","ALLEY":" ","HOUSE_NO":"１３６３號","E_COORD97":166386.31,"N_COORD97":2535909.1099999999,"ADDRESS":"明興路１３６３號","OBJECTID":111861},"geometry":{"x":166386.30999999959,"y":2535909.1099999994}},{"attributes":{"ID":111862,"DIS_CODE":0,"TOWNNAME":"南區","LI":"同安里","LIN":" ","STREET":"灣里路","SECT":" ","MAREA":" ","LANE":" ","ALLEY":" ","HOUSE_NO":"３８１號","E_COORD97":166221.85000000001,"N_COORD97":2536108.3700000001,"ADDRESS":"灣里路３８１號","OBJECTID":111862},"geometry":{"x":166221.84999999963,"y":2536108.370000001}},{"attributes":{"ID":111863,"DIS_CODE":0,"TOWNNAME":"南區","LI":"同安里","LIN":" ","STREET":"灣裡路","SECT":" ","MAREA":" ","LANE":" ","ALLEY":" ","HOUSE_NO":"４２０之１號","E_COORD97":166192.92999999999,"N_COORD97":2536119.2400000002,"ADDRESS":"灣裡路４２０之１號","OBJECTID":111863},"geometry":{"x":166192.93000000156,"y":2536119.2400000002}},{"attributes":{"ID":111864,"DIS_CODE":0,"TOWNNAME":"南區","LI":"竹溪里","LIN":" ","STREET":"健康路","SECT":"一段","MAREA":" ","LANE":" ","ALLEY":" ","HOUSE_NO":"２６９號","E_COORD97":168457.04000000001,"N_COORD97":2542371.6699999999,"ADDRESS":"健康路一段２６９號","OBJECTID":111864},"geometry":{"x":168457.04000000004,"y":2542371.6699999981}},{"attributes":{"ID":111865,"DIS_CODE":0,"TOWNNAME":"南區","LI":"竹溪里","LIN":" ","STREET":"健康路","SECT":"一段","MAREA":" ","LANE":" ","ALLEY":" ","HOUSE_NO":"２３１號","E_COORD97":168653.39000000001,"N_COORD97":2542415.0699999998,"ADDRESS":"健康路一段２３１號","OBJECTID":111865},"geometry":{"x":168653.3900000006,"y":2542415.0700000022}},{"attributes":{"ID":111866,"DIS_CODE":0,"TOWNNAME":"南區","LI":"竹溪里","LIN":" ","STREET":"健康路","SECT":"一段","MAREA":" ","LANE":" ","ALLEY":" ","HOUSE_NO":"２２１號","E_COORD97":168680.51000000001,"N_COORD97":2542410.8500000001,"ADDRESS":"健康路一段２２１號","OBJECTID":111866},"geometry":{"x":168680.50999999978,"y":2542410.8499999978}},{"attributes":{"ID":111867,"DIS_CODE":0,"TOWNNAME":"南區","LI":"竹溪里","LIN":" ","STREET":"體育路","SECT":" ","MAREA":" ","LANE":" ","ALLEY":" ","HOUSE_NO":"１７號","E_COORD97":168723.95000000001,"N_COORD97":2542371.4900000002,"ADDRESS":"體育路１７號","OBJECTID":111867},"geometry":{"x":168723.95000000019,"y":2542371.4900000021}},{"attributes":{"ID":111868,"DIS_CODE":0,"TOWNNAME":"南區","LI":"竹溪里","LIN":"7鄰","STREET":"健康路","SECT":"一段","MAREA":" ","LANE":" ","ALLEY":" ","HOUSE_NO":"１３５號","E_COORD97":168886.41,"N_COORD97":2542407.8799999999,"ADDRESS":"健康路一段１３５號","OBJECTID":111868},"geometry":{"x":168886.41000000015,"y":2542407.8800000008}},{"attributes":{"ID":111869,"DIS_CODE":0,"TOWNNAME":"南區","LI":"竹溪里","LIN":"7鄰","STREET":"健康路","SECT":"一段","MAREA":" ","LANE":" ","ALLEY":" ","HOUSE_NO":"１３７號","E_COORD97":168882.82999999999,"N_COORD97":2542408.29,"ADDRESS":"健康路一段１３７號","OBJECTID":111869},"geometry":{"x":168882.83000000101,"y":2542408.290000001}},{"attributes":{"ID":111870,"DIS_CODE":0,"TOWNNAME":"南區","LI":"竹溪里","LIN":"7鄰","STREET":"健康路","SECT":"一段","MAREA":" ","LANE":" ","ALLEY":" ","HOUSE_NO":"１３９號","E_COORD97":168879.69,"N_COORD97":2542408.6099999999,"ADDRESS":"健康路一段１３９號","OBJECTID":111870},"geometry":{"x":168879.69000000041,"y":2542408.6099999994}},{"attributes":{"ID":111871,"DIS_CODE":0,"TOWNNAME":"鹽水區","LI":"飯店里","LIN":"1鄰","STREET":" ","SECT":" ","MAREA":"麻油寮","LANE":" ","ALLEY":" ","HOUSE_NO":"２５號","E_COORD97":169159.29000000001,"N_COORD97":2573853.4100000001,"ADDRESS":"麻油寮２５號","OBJECTID":111871},"geometry":{"x":169159.29000000097,"y":2573853.4099999983}},{"attributes":{"ID":111872,"DIS_CODE":0,"TOWNNAME":"鹽水區","LI":"飯店里","LIN":"1鄰","STREET":" ","SECT":" ","MAREA":"麻油寮","LANE":" ","ALLEY":" ","HOUSE_NO":"２６號","E_COORD97":169195,"N_COORD97":2573860.9100000001,"ADDRESS":"麻油寮２６號","OBJECTID":111872},"geometry":{"x":169195.00000000093,"y":2573860.910000002}},{"attributes":{"ID":111873,"DIS_CODE":0,"TOWNNAME":"鹽水區","LI":"飯店里","LIN":"1鄰","STREET":" ","SECT":" ","MAREA":"麻油寮","LANE":" ","ALLEY":" ","HOUSE_NO":"２７號","E_COORD97":169225.76000000001,"N_COORD97":2573857.5,"ADDRESS":"麻油寮２７號","OBJECTID":111873},"geometry":{"x":169225.76000000071,"y":2573857.5000000019}},{"attributes":{"ID":111874,"DIS_CODE":0,"TOWNNAME":"鹽水區","LI":"飯店里","LIN":"1鄰","STREET":" ","SECT":" ","MAREA":"麻油寮","LANE":" ","ALLEY":" ","HOUSE_NO":"２８號","E_COORD97":169210.79999999999,"N_COORD97":2573906.02,"ADDRESS":"麻油寮２８號","OBJECTID":111874},"geometry":{"x":169210.79999999981,"y":2573906.0199999996}},{"attributes":{"ID":111875,"DIS_CODE":0,"TOWNNAME":"鹽水區","LI":"飯店里","LIN":"1鄰","STREET":" ","SECT":" ","MAREA":"麻油寮","LANE":" ","ALLEY":" ","HOUSE_NO":"２９號","E_COORD97":169193.67999999999,"N_COORD97":2573896.5899999999,"ADDRESS":"麻油寮２９號","OBJECTID":111875},"geometry":{"x":169193.68000000063,"y":2573896.5900000017}},{"attributes":{"ID":111876,"DIS_CODE":0,"TOWNNAME":"鹽水區","LI":"水正里","LIN":"1鄰","STREET":" ","SECT":" ","MAREA":"過港","LANE":" ","ALLEY":" ","HOUSE_NO":"１２號之１５","E_COORD97":175369.04999999999,"N_COORD97":2579746.3599999999,"ADDRESS":"過港１２號之１５","OBJECTID":111876},"geometry":{"x":175369.04999999981,"y":2579746.3600000013}},{"attributes":{"ID":111877,"DIS_CODE":0,"TOWNNAME":"南區","LI":"竹溪里","LIN":"7鄰","STREET":"健康路","SECT":"一段","MAREA":" ","LANE":" ","ALLEY":" ","HOUSE_NO":"１４１號","E_COORD97":168874.57999999999,"N_COORD97":2542408.8799999999,"ADDRESS":"健康路一段１４１號","OBJECTID":111877},"geometry":{"x":168874.58000000101,"y":2542408.879999999}},{"attributes":{"ID":111878,"DIS_CODE":0,"TOWNNAME":"歸仁區","LI":"歸仁里","LIN":"8鄰","STREET":"大通一街","SECT":" ","MAREA":" ","LANE":" ","ALLEY":" ","HOUSE_NO":"１０３號","E_COORD97":177881.85999999999,"N_COORD97":2540980.4900000002,"ADDRESS":"大通一街１０３號","OBJECTID":111878},"geometry":{"x":177881.86000000034,"y":2540980.4900000021}},{"attributes":{"ID":111879,"DIS_CODE":0,"TOWNNAME":"新營區","LI":"埤寮里","LIN":"6鄰","STREET":" ","SECT":" ","MAREA":"埤寮","LANE":" ","ALLEY":" ","HOUSE_NO":"２６號","E_COORD97":180402.45000000001,"N_COORD97":2580867.6699999999,"ADDRESS":"埤寮２６號","OBJECTID":111879},"geometry":{"x":180402.45000000112,"y":2580867.6700000018}},{"attributes":{"ID":111880,"DIS_CODE":0,"TOWNNAME":"新營區","LI":"埤寮里","LIN":"5鄰","STREET":" ","SECT":" ","MAREA":"埤寮","LANE":" ","ALLEY":" ","HOUSE_NO":"１４之１號","E_COORD97":180257.81,"N_COORD97":2580910.5099999998,"ADDRESS":"埤寮１４之１號","OBJECTID":111880},"geometry":{"x":180257.80999999959,"y":2580910.5099999998}},{"attributes":{"ID":111881,"DIS_CODE":0,"TOWNNAME":"新營區","LI":"護鎮里","LIN":"1鄰","STREET":" ","SECT":" ","MAREA":"後鎮","LANE":" ","ALLEY":" ","HOUSE_NO":"１之２６號","E_COORD97":179666.39000000001,"N_COORD97":2581276.5499999998,"ADDRESS":"後鎮１之２６號","OBJECTID":111881},"geometry":{"x":179666.39000000153,"y":2581276.5500000007}},{"attributes":{"ID":111882,"DIS_CODE":0,"TOWNNAME":"鹽水區","LI":"舊營里","LIN":"1鄰","STREET":" ","SECT":" ","MAREA":"舊營","LANE":" ","ALLEY":" ","HOUSE_NO":"１７之１號","E_COORD97":174188.85000000001,"N_COORD97":2577915.4500000002,"ADDRESS":"舊營１７之１號","OBJECTID":111882},"geometry":{"x":174188.84999999963,"y":2577915.4500000011}},{"attributes":{"ID":111883,"DIS_CODE":0,"TOWNNAME":"鹽水區","LI":"歡雅里","LIN":"1鄰","STREET":" ","SECT":" ","MAREA":"歡雅","LANE":" ","ALLEY":" ","HOUSE_NO":"１１號","E_COORD97":172515.82000000001,"N_COORD97":2576915.0899999999,"ADDRESS":"歡雅１１號","OBJECTID":111883},"geometry":{"x":172515.82000000123,"y":2576915.0900000017}},{"attributes":{"ID":111884,"DIS_CODE":0,"TOWNNAME":"鹽水區","LI":"歡雅里","LIN":"1鄰","STREET":" ","SECT":" ","MAREA":"歡雅","LANE":" ","ALLEY":" ","HOUSE_NO":"１２號","E_COORD97":172512.73999999999,"N_COORD97":2576912.1200000001,"ADDRESS":"歡雅１２號","OBJECTID":111884},"geometry":{"x":172512.74000000209,"y":2576912.1200000029}},{"attributes":{"ID":111885,"DIS_CODE":0,"TOWNNAME":"新市區","LI":"新和里","LIN":"37鄰","STREET":"華興街","SECT":" ","MAREA":" ","LANE":"６９巷","ALLEY":"２弄","HOUSE_NO":"１號","E_COORD97":177593.34,"N_COORD97":2552947.25,"ADDRESS":"華興街６９巷２弄１號","OBJECTID":111885},"geometry":{"x":177593.33999999985,"y":2552947.2500000019}},{"attributes":{"ID":111886,"DIS_CODE":0,"TOWNNAME":"歸仁區","LI":"媽廟里","LIN":"8鄰","STREET":"和順路","SECT":"一段","MAREA":" ","LANE":" ","ALLEY":" ","HOUSE_NO":"２８號","E_COORD97":177451.97,"N_COORD97":2543719.7200000002,"ADDRESS":"和順路一段２８號","OBJECTID":111886},"geometry":{"x":177451.9700000016,"y":2543719.7200000025}},{"attributes":{"ID":111887,"DIS_CODE":0,"TOWNNAME":"永康區","LI":"北灣里","LIN":"37鄰","STREET":"大同街","SECT":" ","MAREA":" ","LANE":"３６９巷","ALLEY":"５弄","HOUSE_NO":"１１號","E_COORD97":174676.26999999999,"N_COORD97":2546126.75,"ADDRESS":"大同街３６９巷５弄１１號","OBJECTID":111887},"geometry":{"x":174676.26999999955,"y":2546126.75}},{"attributes":{"ID":111888,"DIS_CODE":0,"TOWNNAME":"鹽水區","LI":"汫水里","LIN":"1鄰","STREET":" ","SECT":" ","MAREA":"汫水港","LANE":" ","ALLEY":" ","HOUSE_NO":"５９號之１０","E_COORD97":175633.88,"N_COORD97":2582970.9199999999,"ADDRESS":"汫水港５９號之１０","OBJECTID":111888},"geometry":{"x":175633.88000000175,"y":2582970.9200000018}},{"attributes":{"ID":111889,"DIS_CODE":0,"TOWNNAME":"左鎮區","LI":"榮和里","LIN":"1鄰","STREET":" ","SECT":" ","MAREA":"菜寮","LANE":" ","ALLEY":" ","HOUSE_NO":"４號","E_COORD97":186746.48999999999,"N_COORD97":2551621.25,"ADDRESS":"菜寮４號","OBJECTID":111889},"geometry":{"x":186746.49000000022,"y":2551621.2500000019}},{"attributes":{"ID":111890,"DIS_CODE":0,"TOWNNAME":"永康區","LI":"北灣里","LIN":"37鄰","STREET":"大同街","SECT":" ","MAREA":" ","LANE":"３６９巷","ALLEY":"５弄","HOUSE_NO":"２７號","E_COORD97":174636.17000000001,"N_COORD97":2546083.7400000002,"ADDRESS":"大同街３６９巷５弄２７號","OBJECTID":111890},"geometry":{"x":174636.16999999993,"y":2546083.7400000002}},{"attributes":{"ID":111891,"DIS_CODE":0,"TOWNNAME":"永康區","LI":"北灣里","LIN":"37鄰","STREET":"大同街","SECT":" ","MAREA":" ","LANE":"３６９巷","ALLEY":"５弄","HOUSE_NO":"５號","E_COORD97":174688.23000000001,"N_COORD97":2546141,"ADDRESS":"大同街３６９巷５弄５號","OBJECTID":111891},"geometry":{"x":174688.23000000138,"y":2546141.0000000019}},{"attributes":{"ID":111892,"DIS_CODE":0,"TOWNNAME":"左鎮區","LI":"光和里","LIN":"1鄰","STREET":" ","SECT":" ","MAREA":"光和","LANE":" ","ALLEY":" ","HOUSE_NO":"１０號之１","E_COORD97":186582.78,"N_COORD97":2552834.2999999998,"ADDRESS":"光和１０號之１","OBJECTID":111892},"geometry":{"x":186582.78000000119,"y":2552834.3000000007}},{"attributes":{"ID":111893,"DIS_CODE":0,"TOWNNAME":"左鎮區","LI":"光和里","LIN":"1鄰","STREET":" ","SECT":" ","MAREA":"光和","LANE":" ","ALLEY":" ","HOUSE_NO":"９號之２","E_COORD97":186539.45999999999,"N_COORD97":2552888.2999999998,"ADDRESS":"光和９號之２","OBJECTID":111893},"geometry":{"x":186539.45999999996,"y":2552888.3000000007}},{"attributes":{"ID":111894,"DIS_CODE":0,"TOWNNAME":"左鎮區","LI":"內庄里","LIN":"1鄰","STREET":" ","SECT":" ","MAREA":"內庄","LANE":" ","ALLEY":" ","HOUSE_NO":"９號之２","E_COORD97":190602.04999999999,"N_COORD97":2548547.2999999998,"ADDRESS":"內庄９號之２","OBJECTID":111894},"geometry":{"x":190602.04999999981,"y":2548547.3000000026}},{"attributes":{"ID":111895,"DIS_CODE":0,"TOWNNAME":"左鎮區","LI":"光和里","LIN":"1鄰","STREET":" ","SECT":" ","MAREA":"光和","LANE":" ","ALLEY":" ","HOUSE_NO":"８號","E_COORD97":186309.79000000001,"N_COORD97":2552599.25,"ADDRESS":"光和８號","OBJECTID":111895},"geometry":{"x":186309.79000000097,"y":2552599.25}},{"attributes":{"ID":111896,"DIS_CODE":0,"TOWNNAME":"永康區","LI":"北灣里","LIN":"37鄰","STREET":"大同街","SECT":" ","MAREA":" ","LANE":"３８０巷","ALLEY":"１１弄","HOUSE_NO":"２２號","E_COORD97":174810.32000000001,"N_COORD97":2546166.21,"ADDRESS":"大同街３８０巷１１弄２２號","OBJECTID":111896},"geometry":{"x":174810.3200000003,"y":2546166.2100000009}},{"attributes":{"ID":111897,"DIS_CODE":0,"TOWNNAME":"左鎮區","LI":"草山里","LIN":"1鄰","STREET":" ","SECT":" ","MAREA":"草山","LANE":" ","ALLEY":" ","HOUSE_NO":"６號","E_COORD97":191230.98999999999,"N_COORD97":2545338.25,"ADDRESS":"草山６號","OBJECTID":111897},"geometry":{"x":191230.99000000209,"y":2545338.2500000037}},{"attributes":{"ID":111898,"DIS_CODE":0,"TOWNNAME":"新營區","LI":"護鎮里","LIN":" ","STREET":" ","SECT":" ","MAREA":"後鎮","LANE":" ","ALLEY":" ","HOUSE_NO":"６２之４號","E_COORD97":179046.26999999999,"N_COORD97":2581193.1200000001,"ADDRESS":"後鎮６２之４號","OBJECTID":111898},"geometry":{"x":179046.26999999955,"y":2581193.1199999992}},{"attributes":{"ID":111899,"DIS_CODE":0,"TOWNNAME":"東山區","LI":"東原里","LIN":"28鄰","STREET":" ","SECT":" ","MAREA":"班芝花坑","LANE":" ","ALLEY":" ","HOUSE_NO":"２８號之３","E_COORD97":192201.25,"N_COORD97":2575709.5800000001,"ADDRESS":"班芝花坑２８號之３","OBJECTID":111899},"geometry":{"x":192201.25,"y":2575709.5800000001}},{"attributes":{"ID":111900,"DIS_CODE":0,"TOWNNAME":"永康區","LI":"北灣里","LIN":"37鄰","STREET":"大同街","SECT":" ","MAREA":" ","LANE":"３８０巷","ALLEY":"１１弄","HOUSE_NO":"２３號","E_COORD97":174807.04999999999,"N_COORD97":2546175.1600000001,"ADDRESS":"大同街３８０巷１１弄２３號","OBJECTID":111900},"geometry":{"x":174807.05000000168,"y":2546175.1600000001}},{"attributes":{"ID":111901,"DIS_CODE":0,"TOWNNAME":"東山區","LI":"東原里","LIN":"28鄰","STREET":" ","SECT":" ","MAREA":"班芝花坑","LANE":" ","ALLEY":" ","HOUSE_NO":"２８號之５","E_COORD97":192283.84,"N_COORD97":2575724.1699999999,"ADDRESS":"班芝花坑２８號之５","OBJECTID":111901},"geometry":{"x":192283.83999999985,"y":2575724.1700000018}},{"attributes":{"ID":111902,"DIS_CODE":0,"TOWNNAME":"佳里區","LI":"安西里","LIN":"37鄰","STREET":"光華街","SECT":" ","MAREA":" ","LANE":"１３０巷","ALLEY":"３７弄","HOUSE_NO":"１０號","E_COORD97":164992.85999999999,"N_COORD97":2562984.8599999999,"ADDRESS":"光華街１３０巷３７弄１０號","OBJECTID":111902},"geometry":{"x":164992.86000000127,"y":2562984.8600000013}},{"attributes":{"ID":111903,"DIS_CODE":0,"TOWNNAME":"東山區","LI":"東原里","LIN":"28鄰","STREET":" ","SECT":" ","MAREA":"班芝花坑","LANE":" ","ALLEY":" ","HOUSE_NO":"２８號之６","E_COORD97":192279.39999999999,"N_COORD97":2575723.2200000002,"ADDRESS":"班芝花坑２８號之６","OBJECTID":111903},"geometry":{"x":192279.40000000224,"y":2575723.2200000007}},{"attributes":{"ID":111904,"DIS_CODE":0,"TOWNNAME":"東山區","LI":"東原里","LIN":"28鄰","STREET":" ","SECT":" ","MAREA":"班芝花坑","LANE":" ","ALLEY":" ","HOUSE_NO":"２８號之７","E_COORD97":192274.88,"N_COORD97":2575722.0800000001,"ADDRESS":"班芝花坑２８號之７","OBJECTID":111904},"geometry":{"x":192274.87999999989,"y":2575722.0800000019}},{"attributes":{"ID":111905,"DIS_CODE":0,"TOWNNAME":"東山區","LI":"東原里","LIN":"28鄰","STREET":" ","SECT":" ","MAREA":"班芝花坑","LANE":" ","ALLEY":" ","HOUSE_NO":"２８號之８","E_COORD97":192270.53,"N_COORD97":2575721.3100000001,"ADDRESS":"班芝花坑２８號之８","OBJECTID":111905},"geometry":{"x":192270.53000000119,"y":2575721.3100000005}},{"attributes":{"ID":111906,"DIS_CODE":0,"TOWNNAME":"東山區","LI":"東原里","LIN":"28鄰","STREET":" ","SECT":" ","MAREA":"班芝花坑","LANE":" ","ALLEY":" ","HOUSE_NO":"２８號之９","E_COORD97":192274.39999999999,"N_COORD97":2575701.52,"ADDRESS":"班芝花坑２８號之９","OBJECTID":111906},"geometry":{"x":192274.4000000013,"y":2575701.5200000014}},{"attributes":{"ID":111907,"DIS_CODE":0,"TOWNNAME":"東山區","LI":"東山里","LIN":"28鄰","STREET":" ","SECT":" ","MAREA":"東山","LANE":" ","ALLEY":" ","HOUSE_NO":"５３７號","E_COORD97":188755.07999999999,"N_COORD97":2580380.96,"ADDRESS":"東山５３７號","OBJECTID":111907},"geometry":{"x":188755.08000000194,"y":2580380.9600000028}},{"attributes":{"ID":111908,"DIS_CODE":0,"TOWNNAME":"東山區","LI":"東山里","LIN":"28鄰","STREET":" ","SECT":" ","MAREA":"東山","LANE":" ","ALLEY":" ","HOUSE_NO":"５３８號","E_COORD97":188748.82000000001,"N_COORD97":2580382.27,"ADDRESS":"東山５３８號","OBJECTID":111908},"geometry":{"x":188748.82000000123,"y":2580382.2699999996}},{"attributes":{"ID":111909,"DIS_CODE":0,"TOWNNAME":"東山區","LI":"東山里","LIN":"28鄰","STREET":" ","SECT":" ","MAREA":"東山","LANE":" ","ALLEY":" ","HOUSE_NO":"５３９號","E_COORD97":188742.29000000001,"N_COORD97":2580383.2400000002,"ADDRESS":"東山５３９號","OBJECTID":111909},"geometry":{"x":188742.29000000097,"y":2580383.2400000002}},{"attributes":{"ID":111910,"DIS_CODE":0,"TOWNNAME":"東山區","LI":"東山里","LIN":"28鄰","STREET":" ","SECT":" ","MAREA":"東山","LANE":" ","ALLEY":" ","HOUSE_NO":"５４１號","E_COORD97":188722.23000000001,"N_COORD97":2580385.8599999999,"ADDRESS":"東山５４１號","OBJECTID":111910},"geometry":{"x":188722.22999999952,"y":2580385.8599999994}},{"attributes":{"ID":111911,"DIS_CODE":0,"TOWNNAME":"佳里區","LI":"安西里","LIN":"37鄰","STREET":"光華街","SECT":" ","MAREA":" ","LANE":"１３０巷","ALLEY":"３７弄","HOUSE_NO":"１１號","E_COORD97":164987.57000000001,"N_COORD97":2562984.71,"ADDRESS":"光華街１３０巷３７弄１１號","OBJECTID":111911},"geometry":{"x":164987.57000000123,"y":2562984.7100000009}},{"attributes":{"ID":111912,"DIS_CODE":0,"TOWNNAME":"中西區","LI":"永福里","LIN":"21鄰","STREET":"忠義路","SECT":"二段","MAREA":" ","LANE":"１４７巷","ALLEY":"１弄","HOUSE_NO":"１０號","E_COORD97":168267.23000000001,"N_COORD97":2544034.8599999999,"ADDRESS":"忠義路二段１４７巷１弄１０號","OBJECTID":111912},"geometry":{"x":168267.23000000138,"y":2544034.8600000031}},{"attributes":{"ID":111913,"DIS_CODE":0,"TOWNNAME":"東山區","LI":"東山里","LIN":"28鄰","STREET":" ","SECT":" ","MAREA":"東山","LANE":" ","ALLEY":" ","HOUSE_NO":"５４２號","E_COORD97":188712.20000000001,"N_COORD97":2580387.0699999998,"ADDRESS":"東山５４２號","OBJECTID":111913},"geometry":{"x":188712.20000000205,"y":2580387.0700000022}},{"attributes":{"ID":111914,"DIS_CODE":0,"TOWNNAME":"東山區","LI":"東山里","LIN":"28鄰","STREET":" ","SECT":" ","MAREA":"東山","LANE":" ","ALLEY":" ","HOUSE_NO":"５４３號","E_COORD97":188731.38,"N_COORD97":2580399.3599999999,"ADDRESS":"東山５４３號","OBJECTID":111914},"geometry":{"x":188731.38000000082,"y":2580399.3599999994}},{"attributes":{"ID":111915,"DIS_CODE":0,"TOWNNAME":"東山區","LI":"東山里","LIN":"28鄰","STREET":" ","SECT":" ","MAREA":"東山","LANE":" ","ALLEY":" ","HOUSE_NO":"５４４號","E_COORD97":188726.35999999999,"N_COORD97":2580400.0899999999,"ADDRESS":"東山５４４號","OBJECTID":111915},"geometry":{"x":188726.3600000022,"y":2580400.0900000017}},{"attributes":{"ID":111916,"DIS_CODE":0,"TOWNNAME":"東山區","LI":"東山里","LIN":"28鄰","STREET":" ","SECT":" ","MAREA":"東山","LANE":" ","ALLEY":" ","HOUSE_NO":"５４５號","E_COORD97":188721.35000000001,"N_COORD97":2580400.8300000001,"ADDRESS":"東山５４５號","OBJECTID":111916},"geometry":{"x":188721.35000000056,"y":2580400.8300000038}},{"attributes":{"ID":111917,"DIS_CODE":0,"TOWNNAME":"東山區","LI":"東山里","LIN":"28鄰","STREET":" ","SECT":" ","MAREA":"東山","LANE":" ","ALLEY":" ","HOUSE_NO":"５４６號","E_COORD97":188716.32999999999,"N_COORD97":2580401.5600000001,"ADDRESS":"東山５４６號","OBJECTID":111917},"geometry":{"x":188716.33000000101,"y":2580401.5600000005}},{"attributes":{"ID":111918,"DIS_CODE":0,"TOWNNAME":"東山區","LI":"東山里","LIN":"28鄰","STREET":" ","SECT":" ","MAREA":"東山","LANE":" ","ALLEY":" ","HOUSE_NO":"５４７號","E_COORD97":188711.31,"N_COORD97":2580402.2999999998,"ADDRESS":"東山５４７號","OBJECTID":111918},"geometry":{"x":188711.31000000052,"y":2580402.3000000026}},{"attributes":{"ID":111919,"DIS_CODE":0,"TOWNNAME":"新市區","LI":"大社里","LIN":"28鄰","STREET":" ","SECT":" ","MAREA":"大社","LANE":" ","ALLEY":" ","HOUSE_NO":"９２１號之１２","E_COORD97":180019.23000000001,"N_COORD97":2554011.2999999998,"ADDRESS":"大社９２１號之１２","OBJECTID":111919},"geometry":{"x":180019.23000000231,"y":2554011.3000000045}},{"attributes":{"ID":111920,"DIS_CODE":0,"TOWNNAME":"新市區","LI":"大社里","LIN":"28鄰","STREET":" ","SECT":" ","MAREA":"大社","LANE":" ","ALLEY":" ","HOUSE_NO":"９２３號","E_COORD97":180022.82000000001,"N_COORD97":2554068.75,"ADDRESS":"大社９２３號","OBJECTID":111920},"geometry":{"x":180022.8200000003,"y":2554068.7500000019}},{"attributes":{"ID":111921,"DIS_CODE":0,"TOWNNAME":"新市區","LI":"大社里","LIN":"28鄰","STREET":" ","SECT":" ","MAREA":"大社","LANE":" ","ALLEY":" ","HOUSE_NO":"９２５之４號","E_COORD97":180016.64999999999,"N_COORD97":2554113.5499999998,"ADDRESS":"大社９２５之４號","OBJECTID":111921},"geometry":{"x":180016.6500000013,"y":2554113.5500000007}},{"attributes":{"ID":111922,"DIS_CODE":0,"TOWNNAME":"新市區","LI":"大社里","LIN":"28鄰","STREET":" ","SECT":" ","MAREA":"大社","LANE":" ","ALLEY":" ","HOUSE_NO":"９２１號之８","E_COORD97":180032.23999999999,"N_COORD97":2553991.7999999998,"ADDRESS":"大社９２１號之８","OBJECTID":111922},"geometry":{"x":180032.24000000022,"y":2553991.8000000026}},{"attributes":{"ID":111923,"DIS_CODE":0,"TOWNNAME":"新市區","LI":"大社里","LIN":"28鄰","STREET":" ","SECT":" ","MAREA":"大社","LANE":" ","ALLEY":" ","HOUSE_NO":"９２９號之６","E_COORD97":180051.5,"N_COORD97":2554060.0499999998,"ADDRESS":"大社９２９號之６","OBJECTID":111923},"geometry":{"x":180051.50000000093,"y":2554060.0499999989}},{"attributes":{"ID":111924,"DIS_CODE":0,"TOWNNAME":"新市區","LI":"大社里","LIN":"28鄰","STREET":" ","SECT":" ","MAREA":"大社","LANE":" ","ALLEY":" ","HOUSE_NO":"９２５之２號","E_COORD97":179996.37,"N_COORD97":2554126.5499999998,"ADDRESS":"大社９２５之２號","OBJECTID":111924},"geometry":{"x":179996.37000000104,"y":2554126.5500000007}},{"attributes":{"ID":111925,"DIS_CODE":0,"TOWNNAME":"新市區","LI":"大社里","LIN":"28鄰","STREET":" ","SECT":" ","MAREA":"大社","LANE":" ","ALLEY":" ","HOUSE_NO":"９２１號之１５","E_COORD97":180012.29999999999,"N_COORD97":2554029.2999999998,"ADDRESS":"大社９２１號之１５","OBJECTID":111925},"geometry":{"x":180012.29999999981,"y":2554029.3000000026}},{"attributes":{"ID":111926,"DIS_CODE":0,"TOWNNAME":"新市區","LI":"大社里","LIN":"28鄰","STREET":" ","SECT":" ","MAREA":"大社","LANE":" ","ALLEY":" ","HOUSE_NO":"９２５之１號","E_COORD97":179991.70000000001,"N_COORD97":2554125.7999999998,"ADDRESS":"大社９２５之１號","OBJECTID":111926},"geometry":{"x":179991.70000000019,"y":2554125.8000000007}},{"attributes":{"ID":111927,"DIS_CODE":0,"TOWNNAME":"新市區","LI":"大社里","LIN":"28鄰","STREET":" ","SECT":" ","MAREA":"大社","LANE":" ","ALLEY":" ","HOUSE_NO":"９２１號之４","E_COORD97":180036.17000000001,"N_COORD97":2553967.2999999998,"ADDRESS":"大社９２１號之４","OBJECTID":111927},"geometry":{"x":180036.17000000086,"y":2553967.3000000026}},{"attributes":{"ID":111928,"DIS_CODE":0,"TOWNNAME":"中西區","LI":"永福里","LIN":"21鄰","STREET":"忠義路","SECT":"二段","MAREA":" ","LANE":"１４７巷","ALLEY":"１弄","HOUSE_NO":"１１號","E_COORD97":168272.53,"N_COORD97":2544034.6200000001,"ADDRESS":"忠義路二段１４７巷１弄１１號","OBJECTID":111928},"geometry":{"x":168272.53000000026,"y":2544034.6200000048}},{"attributes":{"ID":111929,"DIS_CODE":0,"TOWNNAME":"中西區","LI":"永福里","LIN":"21鄰","STREET":"忠義路","SECT":"二段","MAREA":" ","LANE":"１４７巷","ALLEY":"１弄","HOUSE_NO":"１２號","E_COORD97":168306.56,"N_COORD97":2544024.8799999999,"ADDRESS":"忠義路二段１４７巷１弄１２號","OBJECTID":111929},"geometry":{"x":168306.55999999959,"y":2544024.8800000008}},{"attributes":{"ID":111930,"DIS_CODE":0,"TOWNNAME":"歸仁區","LI":"崙頂里","LIN":"1鄰","STREET":"信義南路","SECT":" ","MAREA":" ","LANE":" ","ALLEY":" ","HOUSE_NO":"２７９號","E_COORD97":178210.10000000001,"N_COORD97":2539945.6800000002,"ADDRESS":"信義南路２７９號","OBJECTID":111930},"geometry":{"x":178210.09999999963,"y":2539945.6800000016}},{"attributes":{"ID":111931,"DIS_CODE":0,"TOWNNAME":"歸仁區","LI":"許厝里","LIN":"1鄰","STREET":"中山路","SECT":"一段","MAREA":" ","LANE":" ","ALLEY":" ","HOUSE_NO":"３６９號","E_COORD97":178335.23999999999,"N_COORD97":2540672.0099999998,"ADDRESS":"中山路一段３６９號","OBJECTID":111931},"geometry":{"x":178335.24000000022,"y":2540672.0100000016}},{"attributes":{"ID":111932,"DIS_CODE":0,"TOWNNAME":"新營區","LI":"護鎮里","LIN":"6鄰","STREET":" ","SECT":" ","MAREA":"後鎮","LANE":" ","ALLEY":" ","HOUSE_NO":"１０５之１０號","E_COORD97":178249.82000000001,"N_COORD97":2581356.46,"ADDRESS":"後鎮１０５之１０號","OBJECTID":111932},"geometry":{"x":178249.8200000003,"y":2581356.4600000009}},{"attributes":{"ID":111933,"DIS_CODE":0,"TOWNNAME":"中西區","LI":"永福里","LIN":"21鄰","STREET":"忠義路","SECT":"二段","MAREA":" ","LANE":"１４７巷","ALLEY":"１弄","HOUSE_NO":"１３號","E_COORD97":168309.45999999999,"N_COORD97":2544024.3300000001,"ADDRESS":"忠義路二段１４７巷１弄１３號","OBJECTID":111933},"geometry":{"x":168309.45999999996,"y":2544024.3300000001}},{"attributes":{"ID":111934,"DIS_CODE":0,"TOWNNAME":"柳營區","LI":"重溪里","LIN":"16鄰","STREET":" ","SECT":" ","MAREA":"小腳腿","LANE":" ","ALLEY":" ","HOUSE_NO":"１６３號之２","E_COORD97":185274.5,"N_COORD97":2576885.96,"ADDRESS":"小腳腿１６３號之２","OBJECTID":111934},"geometry":{"x":185274.50000000093,"y":2576885.9600000028}},{"attributes":{"ID":111935,"DIS_CODE":0,"TOWNNAME":"柳營區","LI":"重溪里","LIN":"16鄰","STREET":" ","SECT":" ","MAREA":"小腳腿","LANE":" ","ALLEY":" ","HOUSE_NO":"１６３號之３","E_COORD97":185256.10000000001,"N_COORD97":2576884.6299999999,"ADDRESS":"小腳腿１６３號之３","OBJECTID":111935},"geometry":{"x":185256.10000000056,"y":2576884.629999999}},{"attributes":{"ID":111936,"DIS_CODE":0,"TOWNNAME":"佳里區","LI":"安西里","LIN":"37鄰","STREET":"光華街","SECT":" ","MAREA":" ","LANE":"１３０巷","ALLEY":"３７弄","HOUSE_NO":"１號","E_COORD97":165053.5,"N_COORD97":2562983.4399999999,"ADDRESS":"光華街１３０巷３７弄１號","OBJECTID":111936},"geometry":{"x":165053.50000000186,"y":2562983.4400000013}},{"attributes":{"ID":111937,"DIS_CODE":0,"TOWNNAME":"柳營區","LI":"重溪里","LIN":"16鄰","STREET":" ","SECT":" ","MAREA":"小腳腿","LANE":" ","ALLEY":" ","HOUSE_NO":"１６３號之４","E_COORD97":185231.63,"N_COORD97":2576906.9500000002,"ADDRESS":"小腳腿１６３號之４","OBJECTID":111937},"geometry":{"x":185231.62999999989,"y":2576906.950000003}},{"attributes":{"ID":111938,"DIS_CODE":0,"TOWNNAME":"柳營區","LI":"重溪里","LIN":"16鄰","STREET":" ","SECT":" ","MAREA":"小腳腿","LANE":" ","ALLEY":" ","HOUSE_NO":"１６３號之５","E_COORD97":185269.60999999999,"N_COORD97":2576920.9700000002,"ADDRESS":"小腳腿１６３號之５","OBJECTID":111938},"geometry":{"x":185269.61000000034,"y":2576920.9700000007}},{"attributes":{"ID":111939,"DIS_CODE":0,"TOWNNAME":"柳營區","LI":"重溪里","LIN":"16鄰","STREET":" ","SECT":" ","MAREA":"小腳腿","LANE":" ","ALLEY":" ","HOUSE_NO":"１６３號之６","E_COORD97":185274.82999999999,"N_COORD97":2576920.1899999999,"ADDRESS":"小腳腿１６３號之６","OBJECTID":111939},"geometry":{"x":185274.82999999914,"y":2576920.1900000013}},{"attributes":{"ID":111940,"DIS_CODE":0,"TOWNNAME":"佳里區","LI":"安西里","LIN":"37鄰","STREET":"光華街","SECT":" ","MAREA":" ","LANE":"１３０巷","ALLEY":"３７弄","HOUSE_NO":"２號","E_COORD97":165047.14999999999,"N_COORD97":2562983,"ADDRESS":"光華街１３０巷３７弄２號","OBJECTID":111940},"geometry":{"x":165047.15000000037,"y":2562982.9999999981}},{"attributes":{"ID":111941,"DIS_CODE":0,"TOWNNAME":"佳里區","LI":"安西里","LIN":"37鄰","STREET":"光華街","SECT":" ","MAREA":" ","LANE":"１３０巷","ALLEY":"３７弄","HOUSE_NO":"３號","E_COORD97":165039.10000000001,"N_COORD97":2562983.25,"ADDRESS":"光華街１３０巷３７弄３號","OBJECTID":111941},"geometry":{"x":165039.10000000056,"y":2562983.25}},{"attributes":{"ID":111942,"DIS_CODE":0,"TOWNNAME":"佳里區","LI":"安西里","LIN":"37鄰","STREET":"光華街","SECT":" ","MAREA":" ","LANE":"１３０巷","ALLEY":"３７弄","HOUSE_NO":"４號","E_COORD97":165033.67000000001,"N_COORD97":2562983.4100000001,"ADDRESS":"光華街１３０巷３７弄４號","OBJECTID":111942},"geometry":{"x":165033.67000000179,"y":2562983.4100000001}},{"attributes":{"ID":111943,"DIS_CODE":0,"TOWNNAME":"佳里區","LI":"安西里","LIN":"37鄰","STREET":"光華街","SECT":" ","MAREA":" ","LANE":"１３０巷","ALLEY":"３７弄","HOUSE_NO":"５號","E_COORD97":165027.10000000001,"N_COORD97":2562983.5299999998,"ADDRESS":"光華街１３０巷３７弄５號","OBJECTID":111943},"geometry":{"x":165027.10000000149,"y":2562983.5300000012}},{"attributes":{"ID":111944,"DIS_CODE":0,"TOWNNAME":"柳營區","LI":"重溪里","LIN":"16鄰","STREET":" ","SECT":" ","MAREA":"小腳腿","LANE":" ","ALLEY":" ","HOUSE_NO":"１６３號之７","E_COORD97":185271.09,"N_COORD97":2576900.77,"ADDRESS":"小腳腿１６３號之７","OBJECTID":111944},"geometry":{"x":185271.08999999892,"y":2576900.7699999996}},{"attributes":{"ID":111945,"DIS_CODE":0,"TOWNNAME":"佳里區","LI":"安西里","LIN":"37鄰","STREET":"光華街","SECT":" ","MAREA":" ","LANE":"１３０巷","ALLEY":"３７弄","HOUSE_NO":"６號","E_COORD97":165021.20000000001,"N_COORD97":2562983.6000000001,"ADDRESS":"光華街１３０巷３７弄６號","OBJECTID":111945},"geometry":{"x":165021.20000000019,"y":2562983.6000000015}},{"attributes":{"ID":111946,"DIS_CODE":0,"TOWNNAME":"佳里區","LI":"安西里","LIN":"37鄰","STREET":"光華街","SECT":" ","MAREA":" ","LANE":"１３０巷","ALLEY":"３７弄","HOUSE_NO":"７號","E_COORD97":165012.94,"N_COORD97":2562984.1600000001,"ADDRESS":"光華街１３０巷３７弄７號","OBJECTID":111946},"geometry":{"x":165012.94000000041,"y":2562984.1600000001}},{"attributes":{"ID":111947,"DIS_CODE":0,"TOWNNAME":"佳里區","LI":"安西里","LIN":"37鄰","STREET":"光華街","SECT":" ","MAREA":" ","LANE":"１３０巷","ALLEY":"３７弄","HOUSE_NO":"８號","E_COORD97":165006.35000000001,"N_COORD97":2562984.23,"ADDRESS":"光華街１３０巷３７弄８號","OBJECTID":111947},"geometry":{"x":165006.34999999963,"y":2562984.2300000004}},{"attributes":{"ID":111948,"DIS_CODE":0,"TOWNNAME":"佳里區","LI":"安西里","LIN":"37鄰","STREET":"光華街","SECT":" ","MAREA":" ","LANE":"１３０巷","ALLEY":"３７弄","HOUSE_NO":"９號","E_COORD97":164999.76999999999,"N_COORD97":2562984.5699999998,"ADDRESS":"光華街１３０巷３７弄９號","OBJECTID":111948},"geometry":{"x":164999.76999999955,"y":2562984.5700000022}},{"attributes":{"ID":111949,"DIS_CODE":0,"TOWNNAME":"柳營區","LI":"重溪里","LIN":"16鄰","STREET":" ","SECT":" ","MAREA":"小腳腿","LANE":" ","ALLEY":" ","HOUSE_NO":"１６３號","E_COORD97":185239.37,"N_COORD97":2576926.3100000001,"ADDRESS":"小腳腿１６３號","OBJECTID":111949},"geometry":{"x":185239.37000000104,"y":2576926.3100000042}},{"attributes":{"ID":111950,"DIS_CODE":0,"TOWNNAME":"柳營區","LI":"篤農里","LIN":"16鄰","STREET":" ","SECT":" ","MAREA":"小腳腿","LANE":" ","ALLEY":" ","HOUSE_NO":"３２４號之１","E_COORD97":185524.57999999999,"N_COORD97":2576622.5699999998,"ADDRESS":"小腳腿３２４號之１","OBJECTID":111950},"geometry":{"x":185524.58000000101,"y":2576622.570000004}},{"attributes":{"ID":111951,"DIS_CODE":0,"TOWNNAME":"柳營區","LI":"篤農里","LIN":"16鄰","STREET":" ","SECT":" ","MAREA":"小腳腿","LANE":" ","ALLEY":" ","HOUSE_NO":"３２４號","E_COORD97":185509.88,"N_COORD97":2576628.1800000002,"ADDRESS":"小腳腿３２４號","OBJECTID":111951},"geometry":{"x":185509.87999999896,"y":2576628.1800000034}},{"attributes":{"ID":111952,"DIS_CODE":0,"TOWNNAME":"柳營區","LI":"篤農里","LIN":"16鄰","STREET":" ","SECT":" ","MAREA":"小腳腿","LANE":" ","ALLEY":" ","HOUSE_NO":"３２５號","E_COORD97":185510.35000000001,"N_COORD97":2576613.8500000001,"ADDRESS":"小腳腿３２５號","OBJECTID":111952},"geometry":{"x":185510.35000000056,"y":2576613.8500000015}},{"attributes":{"ID":111953,"DIS_CODE":0,"TOWNNAME":"柳營區","LI":"篤農里","LIN":"16鄰","STREET":" ","SECT":" ","MAREA":"小腳腿","LANE":" ","ALLEY":" ","HOUSE_NO":"３２６號","E_COORD97":185491.92000000001,"N_COORD97":2576647.5499999998,"ADDRESS":"小腳腿３２６號","OBJECTID":111953},"geometry":{"x":185491.92000000086,"y":2576647.5500000026}},{"attributes":{"ID":111954,"DIS_CODE":0,"TOWNNAME":"柳營區","LI":"篤農里","LIN":"16鄰","STREET":" ","SECT":" ","MAREA":"小腳腿","LANE":" ","ALLEY":" ","HOUSE_NO":"３２９號之１","E_COORD97":185474.20000000001,"N_COORD97":2576667.3300000001,"ADDRESS":"小腳腿３２９號之１","OBJECTID":111954},"geometry":{"x":185474.20000000205,"y":2576667.3300000001}},{"attributes":{"ID":111955,"DIS_CODE":0,"TOWNNAME":"柳營區","LI":"篤農里","LIN":"16鄰","STREET":" ","SECT":" ","MAREA":"小腳腿","LANE":" ","ALLEY":" ","HOUSE_NO":"３２９號","E_COORD97":185485.25,"N_COORD97":2576668.0800000001,"ADDRESS":"小腳腿３２９號","OBJECTID":111955},"geometry":{"x":185485.25,"y":2576668.0800000001}},{"attributes":{"ID":111956,"DIS_CODE":0,"TOWNNAME":"柳營區","LI":"篤農里","LIN":"16鄰","STREET":" ","SECT":" ","MAREA":"小腳腿","LANE":" ","ALLEY":" ","HOUSE_NO":"３３０號","E_COORD97":185456.14000000001,"N_COORD97":2576627.46,"ADDRESS":"小腳腿３３０號","OBJECTID":111956},"geometry":{"x":185456.1400000006,"y":2576627.4600000046}},{"attributes":{"ID":111957,"DIS_CODE":0,"TOWNNAME":"柳營區","LI":"旭山里","LIN":"16鄰","STREET":" ","SECT":" ","MAREA":"山子腳","LANE":" ","ALLEY":" ","HOUSE_NO":"１１號之１","E_COORD97":187174.32000000001,"N_COORD97":2574453.27,"ADDRESS":"山子腳１１號之１","OBJECTID":111957},"geometry":{"x":187174.32000000123,"y":2574453.2699999996}},{"attributes":{"ID":111958,"DIS_CODE":0,"TOWNNAME":"柳營區","LI":"旭山里","LIN":"16鄰","STREET":" ","SECT":" ","MAREA":"山子腳","LANE":" ","ALLEY":" ","HOUSE_NO":"１１號","E_COORD97":187167.81,"N_COORD97":2574446.3300000001,"ADDRESS":"山子腳１１號","OBJECTID":111958},"geometry":{"x":187167.80999999959,"y":2574446.3300000001}},{"attributes":{"ID":111959,"DIS_CODE":0,"TOWNNAME":"柳營區","LI":"旭山里","LIN":"16鄰","STREET":" ","SECT":" ","MAREA":"山子腳","LANE":" ","ALLEY":" ","HOUSE_NO":"１號之８","E_COORD97":187469.35000000001,"N_COORD97":2574340.1299999999,"ADDRESS":"山子腳１號之８","OBJECTID":111959},"geometry":{"x":187469.34999999963,"y":2574340.1300000008}},{"attributes":{"ID":111960,"DIS_CODE":0,"TOWNNAME":"柳營區","LI":"旭山里","LIN":"16鄰","STREET":" ","SECT":" ","MAREA":"山子腳","LANE":" ","ALLEY":" ","HOUSE_NO":"１號","E_COORD97":187334.87,"N_COORD97":2574421.2200000002,"ADDRESS":"山子腳１號","OBJECTID":111960},"geometry":{"x":187334.87000000104,"y":2574421.2200000007}},{"attributes":{"ID":111961,"DIS_CODE":0,"TOWNNAME":"柳營區","LI":"旭山里","LIN":"16鄰","STREET":" ","SECT":" ","MAREA":"山子腳","LANE":" ","ALLEY":" ","HOUSE_NO":"６之１１號","E_COORD97":187262.29000000001,"N_COORD97":2574404.1600000001,"ADDRESS":"山子腳６之１１號","OBJECTID":111961},"geometry":{"x":187262.29000000097,"y":2574404.1600000001}},{"attributes":{"ID":111962,"DIS_CODE":0,"TOWNNAME":"柳營區","LI":"旭山里","LIN":"16鄰","STREET":" ","SECT":" ","MAREA":"山子腳","LANE":" ","ALLEY":" ","HOUSE_NO":"６號之１３","E_COORD97":187271.20000000001,"N_COORD97":2574404.1000000001,"ADDRESS":"山子腳６號之１３","OBJECTID":111962},"geometry":{"x":187271.20000000205,"y":2574404.0999999978}},{"attributes":{"ID":111963,"DIS_CODE":0,"TOWNNAME":"歸仁區","LI":"南保里","LIN":"1鄰","STREET":"民權二街","SECT":" ","MAREA":" ","LANE":" ","ALLEY":" ","HOUSE_NO":"３０號","E_COORD97":176957.10999999999,"N_COORD97":2541409.25,"ADDRESS":"民權二街３０號","OBJECTID":111963},"geometry":{"x":176957.11000000127,"y":2541409.2500000019}},{"attributes":{"ID":111964,"DIS_CODE":0,"TOWNNAME":"歸仁區","LI":"後市里","LIN":"1鄰","STREET":"大順街","SECT":" ","MAREA":" ","LANE":" ","ALLEY":" ","HOUSE_NO":"１２５號","E_COORD97":177060.73000000001,"N_COORD97":2540578.25,"ADDRESS":"大順街１２５號","OBJECTID":111964},"geometry":{"x":177060.73000000045,"y":2540578.2500000019}},{"attributes":{"ID":111965,"DIS_CODE":0,"TOWNNAME":"歸仁區","LI":"南保里","LIN":"1鄰","STREET":"民權北路","SECT":" ","MAREA":" ","LANE":" ","ALLEY":" ","HOUSE_NO":"２５７號","E_COORD97":177016.84,"N_COORD97":2541481.29,"ADDRESS":"民權北路２５７號","OBJECTID":111965},"geometry":{"x":177016.83999999985,"y":2541481.2899999991}},{"attributes":{"ID":111966,"DIS_CODE":0,"TOWNNAME":"歸仁區","LI":"看西里","LIN":"1鄰","STREET":"仁愛三街","SECT":" ","MAREA":" ","LANE":" ","ALLEY":" ","HOUSE_NO":"２７號","E_COORD97":178361.84,"N_COORD97":2540473.2200000002,"ADDRESS":"仁愛三街２７號","OBJECTID":111966},"geometry":{"x":178361.84000000078,"y":2540473.2200000007}},{"attributes":{"ID":111967,"DIS_CODE":0,"TOWNNAME":"歸仁區","LI":"南保里","LIN":"1鄰","STREET":"民權二街","SECT":" ","MAREA":" ","LANE":" ","ALLEY":" ","HOUSE_NO":"２４號","E_COORD97":176956.01000000001,"N_COORD97":2541397.25,"ADDRESS":"民權二街２４號","OBJECTID":111967},"geometry":{"x":176956.00999999978,"y":2541397.25}},{"attributes":{"ID":111968,"DIS_CODE":0,"TOWNNAME":"佳里區","LI":"安西里","LIN":"37鄰","STREET":"光華街","SECT":" ","MAREA":" ","LANE":"１３０巷","ALLEY":"４７弄","HOUSE_NO":"１１號","E_COORD97":165010.76000000001,"N_COORD97":2563006.7799999998,"ADDRESS":"光華街１３０巷４７弄１１號","OBJECTID":111968},"geometry":{"x":165010.76000000164,"y":2563006.7799999993}},{"attributes":{"ID":111969,"DIS_CODE":0,"TOWNNAME":"歸仁區","LI":"辜厝里","LIN":"1鄰","STREET":"中山路","SECT":"二段","MAREA":" ","LANE":" ","ALLEY":" ","HOUSE_NO":"２９號","E_COORD97":177521.20999999999,"N_COORD97":2540771.1200000001,"ADDRESS":"中山路二段２９號","OBJECTID":111969},"geometry":{"x":177521.20999999996,"y":2540771.1200000029}},{"attributes":{"ID":111970,"DIS_CODE":0,"TOWNNAME":"新營區","LI":"舊部里","LIN":"8鄰","STREET":" ","SECT":" ","MAREA":"舊部","LANE":" ","ALLEY":" ","HOUSE_NO":"３７號之４","E_COORD97":177050.29999999999,"N_COORD97":2575492.77,"ADDRESS":"舊部３７號之４","OBJECTID":111970},"geometry":{"x":177050.30000000075,"y":2575492.7700000014}},{"attributes":{"ID":111971,"DIS_CODE":0,"TOWNNAME":"佳里區","LI":"安西里","LIN":"37鄰","STREET":"光華街","SECT":" ","MAREA":" ","LANE":"１３０巷","ALLEY":"４７弄","HOUSE_NO":"１３號","E_COORD97":165006.26000000001,"N_COORD97":2563006.8500000001,"ADDRESS":"光華街１３０巷４７弄１３號","OBJECTID":111971},"geometry":{"x":165006.26000000071,"y":2563006.8499999996}},{"attributes":{"ID":111972,"DIS_CODE":0,"TOWNNAME":"佳里區","LI":"安西里","LIN":"37鄰","STREET":"光華街","SECT":" ","MAREA":" ","LANE":"１３０巷","ALLEY":"４７弄","HOUSE_NO":"１５號","E_COORD97":165000.95999999999,"N_COORD97":2563007.2799999998,"ADDRESS":"光華街１３０巷４７弄１５號","OBJECTID":111972},"geometry":{"x":165000.95999999996,"y":2563007.2799999993}},{"attributes":{"ID":111973,"DIS_CODE":0,"TOWNNAME":"佳里區","LI":"安西里","LIN":"37鄰","STREET":"光華街","SECT":" ","MAREA":" ","LANE":"１３０巷","ALLEY":"４７弄","HOUSE_NO":"１７號","E_COORD97":164995.39999999999,"N_COORD97":2563007.2999999998,"ADDRESS":"光華街１３０巷４７弄１７號","OBJECTID":111973},"geometry":{"x":164995.4000000013,"y":2563007.3000000026}},{"attributes":{"ID":111974,"DIS_CODE":0,"TOWNNAME":"佳里區","LI":"安西里","LIN":"37鄰","STREET":"光華街","SECT":" ","MAREA":" ","LANE":"１３０巷","ALLEY":"４７弄","HOUSE_NO":"１９號","E_COORD97":164988.70000000001,"N_COORD97":2563007.5699999998,"ADDRESS":"光華街１３０巷４７弄１９號","OBJECTID":111974},"geometry":{"x":164988.70000000112,"y":2563007.5700000022}},{"attributes":{"ID":111975,"DIS_CODE":0,"TOWNNAME":"佳里區","LI":"安西里","LIN":"37鄰","STREET":"光華街","SECT":" ","MAREA":" ","LANE":"１３０巷","ALLEY":"４７弄","HOUSE_NO":"１號","E_COORD97":165033.29000000001,"N_COORD97":2563006.5,"ADDRESS":"光華街１３０巷４７弄１號","OBJECTID":111975},"geometry":{"x":165033.29000000097,"y":2563006.5}},{"attributes":{"ID":111976,"DIS_CODE":0,"TOWNNAME":"佳里區","LI":"安西里","LIN":"37鄰","STREET":"光華街","SECT":" ","MAREA":" ","LANE":"１３０巷","ALLEY":"４７弄","HOUSE_NO":"２１號","E_COORD97":164973.48000000001,"N_COORD97":2563013.3999999999,"ADDRESS":"光華街１３０巷４７弄２１號","OBJECTID":111976},"geometry":{"x":164973.48000000138,"y":2563013.4000000004}},{"attributes":{"ID":111977,"DIS_CODE":0,"TOWNNAME":"中西區","LI":"永福里","LIN":"21鄰","STREET":"忠義路","SECT":"二段","MAREA":" ","LANE":"１４７巷","ALLEY":"１弄","HOUSE_NO":"１４號","E_COORD97":168312.22,"N_COORD97":2544023.3599999999,"ADDRESS":"忠義路二段１４７巷１弄１４號","OBJECTID":111977},"geometry":{"x":168312.22000000067,"y":2544023.3599999994}},{"attributes":{"ID":111978,"DIS_CODE":0,"TOWNNAME":"新營區","LI":"新北里","LIN":"25鄰","STREET":"民治路","SECT":" ","MAREA":" ","LANE":" ","ALLEY":" ","HOUSE_NO":"１６２號","E_COORD97":179077,"N_COORD97":2578693.3900000001,"ADDRESS":"民治路１６２號","OBJECTID":111978},"geometry":{"x":179077,"y":2578693.3900000025}},{"attributes":{"ID":111979,"DIS_CODE":0,"TOWNNAME":"新營區","LI":"三仙里","LIN":"32鄰","STREET":"三興街","SECT":" ","MAREA":" ","LANE":" ","ALLEY":" ","HOUSE_NO":"１２４號","E_COORD97":179454.98000000001,"N_COORD97":2579237.5600000001,"ADDRESS":"三興街１２４號","OBJECTID":111979},"geometry":{"x":179454.98000000138,"y":2579237.5600000024}},{"attributes":{"ID":111980,"DIS_CODE":0,"TOWNNAME":"新營區","LI":"王公里","LIN":"34鄰","STREET":"長榮路","SECT":"一段","MAREA":" ","LANE":" ","ALLEY":" ","HOUSE_NO":"５３９號","E_COORD97":180211.70999999999,"N_COORD97":2579853.04,"ADDRESS":"長榮路一段５３９號","OBJECTID":111980},"geometry":{"x":180211.70999999996,"y":2579853.040000001}},{"attributes":{"ID":111981,"DIS_CODE":0,"TOWNNAME":"新營區","LI":"角帶里","LIN":"1鄰","STREET":" ","SECT":" ","MAREA":"角帶圍","LANE":" ","ALLEY":" ","HOUSE_NO":"１３號","E_COORD97":174729.29000000001,"N_COORD97":2576005.9900000002,"ADDRESS":"角帶圍１３號","OBJECTID":111981},"geometry":{"x":174729.28999999911,"y":2576005.9900000039}},{"attributes":{"ID":111982,"DIS_CODE":0,"TOWNNAME":"柳營區","LI":"旭山里","LIN":"16鄰","STREET":" ","SECT":" ","MAREA":"山子腳","LANE":" ","ALLEY":" ","HOUSE_NO":"６號之１４","E_COORD97":187275.54000000001,"N_COORD97":2574403.8700000001,"ADDRESS":"山子腳６號之１４","OBJECTID":111982},"geometry":{"x":187275.5400000019,"y":2574403.8699999992}},{"attributes":{"ID":111983,"DIS_CODE":0,"TOWNNAME":"柳營區","LI":"旭山里","LIN":"16鄰","STREET":" ","SECT":" ","MAREA":"山子腳","LANE":" ","ALLEY":" ","HOUSE_NO":"６號之１７","E_COORD97":187269.95000000001,"N_COORD97":2574431.2200000002,"ADDRESS":"山子腳６號之１７","OBJECTID":111983},"geometry":{"x":187269.95000000112,"y":2574431.2200000007}},{"attributes":{"ID":111984,"DIS_CODE":0,"TOWNNAME":"柳營區","LI":"旭山里","LIN":"16鄰","STREET":" ","SECT":" ","MAREA":"山子腳","LANE":" ","ALLEY":" ","HOUSE_NO":"６號之１８","E_COORD97":187265.01000000001,"N_COORD97":2574431.8100000001,"ADDRESS":"山子腳６號之１８","OBJECTID":111984},"geometry":{"x":187265.00999999978,"y":2574431.8100000024}},{"attributes":{"ID":111985,"DIS_CODE":0,"TOWNNAME":"柳營區","LI":"旭山里","LIN":"16鄰","STREET":" ","SECT":" ","MAREA":"山子腳","LANE":" ","ALLEY":" ","HOUSE_NO":"６號１５","E_COORD97":187231.98000000001,"N_COORD97":2574413.9199999999,"ADDRESS":"山子腳６號１５","OBJECTID":111985},"geometry":{"x":187231.98000000045,"y":2574413.9200000018}},{"attributes":{"ID":111986,"DIS_CODE":0,"TOWNNAME":"柳營區","LI":"旭山里","LIN":"16鄰","STREET":" ","SECT":" ","MAREA":"山子腳","LANE":" ","ALLEY":" ","HOUSE_NO":"７之１號","E_COORD97":187190.35999999999,"N_COORD97":2574450.3500000001,"ADDRESS":"山子腳７之１號","OBJECTID":111986},"geometry":{"x":187190.36000000034,"y":2574450.3500000034}},{"attributes":{"ID":111987,"DIS_CODE":0,"TOWNNAME":"柳營區","LI":"旭山里","LIN":"16鄰","STREET":" ","SECT":" ","MAREA":"山子腳","LANE":" ","ALLEY":" ","HOUSE_NO":"７號","E_COORD97":187198.04000000001,"N_COORD97":2574432.1200000001,"ADDRESS":"山子腳７號","OBJECTID":111987},"geometry":{"x":187198.04000000097,"y":2574432.120000001}},{"attributes":{"ID":111988,"DIS_CODE":0,"TOWNNAME":"柳營區","LI":"旭山里","LIN":"16鄰","STREET":" ","SECT":" ","MAREA":"山子腳","LANE":" ","ALLEY":" ","HOUSE_NO":"８號","E_COORD97":187176.85999999999,"N_COORD97":2574410.2599999998,"ADDRESS":"山子腳８號","OBJECTID":111988},"geometry":{"x":187176.8599999994,"y":2574410.2600000035}},{"attributes":{"ID":111989,"DIS_CODE":0,"TOWNNAME":"柳營區","LI":"旭山里","LIN":"16鄰","STREET":" ","SECT":" ","MAREA":"山子腳","LANE":" ","ALLEY":" ","HOUSE_NO":"９之１號","E_COORD97":187145.62,"N_COORD97":2574426.6800000002,"ADDRESS":"山子腳９之１號","OBJECTID":111989},"geometry":{"x":187145.62000000011,"y":2574426.6799999997}},{"attributes":{"ID":111990,"DIS_CODE":0,"TOWNNAME":"柳營區","LI":"旭山里","LIN":"16鄰","STREET":" ","SECT":" ","MAREA":"山子腳","LANE":" ","ALLEY":" ","HOUSE_NO":"９號","E_COORD97":187166.14000000001,"N_COORD97":2574421.3500000001,"ADDRESS":"山子腳９號","OBJECTID":111990},"geometry":{"x":187166.1400000006,"y":2574421.3499999996}},{"attributes":{"ID":111991,"DIS_CODE":0,"TOWNNAME":"東山區","LI":"大客里","LIN":"16鄰","STREET":" ","SECT":" ","MAREA":"凹子\u25A0","LANE":" ","ALLEY":" ","HOUSE_NO":"２２號之２","E_COORD97":191360.13,"N_COORD97":2579335.27,"ADDRESS":"凹子\u25A0２２號之２","OBJECTID":111991},"geometry":{"x":191360.13000000175,"y":2579335.2699999996}},{"attributes":{"ID":111992,"DIS_CODE":0,"TOWNNAME":"東山區","LI":"大客里","LIN":"16鄰","STREET":" ","SECT":" ","MAREA":"凹子\u25A0","LANE":" ","ALLEY":" ","HOUSE_NO":"２２號","E_COORD97":191346.98000000001,"N_COORD97":2579334.7599999998,"ADDRESS":"凹子\u25A0２２號","OBJECTID":111992},"geometry":{"x":191346.98000000138,"y":2579334.7599999998}},{"attributes":{"ID":111993,"DIS_CODE":0,"TOWNNAME":"東山區","LI":"大客里","LIN":"16鄰","STREET":" ","SECT":" ","MAREA":"凹子\u25A0","LANE":" ","ALLEY":" ","HOUSE_NO":"２３號","E_COORD97":191347.94,"N_COORD97":2579356.71,"ADDRESS":"凹子\u25A0２３號","OBJECTID":111993},"geometry":{"x":191347.94000000041,"y":2579356.7100000009}},{"attributes":{"ID":111994,"DIS_CODE":0,"TOWNNAME":"東山區","LI":"大客里","LIN":"16鄰","STREET":" ","SECT":" ","MAREA":"凹子\u25A0","LANE":" ","ALLEY":" ","HOUSE_NO":"２５號之１","E_COORD97":191342.51000000001,"N_COORD97":2579396.52,"ADDRESS":"凹子\u25A0２５號之１","OBJECTID":111994},"geometry":{"x":191342.51000000071,"y":2579396.5200000014}},{"attributes":{"ID":111995,"DIS_CODE":0,"TOWNNAME":"東山區","LI":"大客里","LIN":"16鄰","STREET":" ","SECT":" ","MAREA":"凹子\u25A0","LANE":" ","ALLEY":" ","HOUSE_NO":"２５號之２","E_COORD97":191387.45999999999,"N_COORD97":2579402.9300000002,"ADDRESS":"凹子\u25A0２５號之２","OBJECTID":111995},"geometry":{"x":191387.46000000089,"y":2579402.9300000034}},{"attributes":{"ID":111996,"DIS_CODE":0,"TOWNNAME":"東山區","LI":"大客里","LIN":"16鄰","STREET":" ","SECT":" ","MAREA":"凹子\u25A0","LANE":" ","ALLEY":" ","HOUSE_NO":"２５號之３","E_COORD97":191328.84,"N_COORD97":2579397.3799999999,"ADDRESS":"凹子\u25A0２５號之３","OBJECTID":111996},"geometry":{"x":191328.84000000078,"y":2579397.3800000008}},{"attributes":{"ID":111997,"DIS_CODE":0,"TOWNNAME":"新營區","LI":"嘉芳里","LIN":" ","STREET":"嘉芳街","SECT":" ","MAREA":" ","LANE":" ","ALLEY":" ","HOUSE_NO":"２００之１號","E_COORD97":177022,"N_COORD97":2578151.9300000002,"ADDRESS":"嘉芳街２００之１號","OBJECTID":111997},"geometry":{"x":177022.00000000093,"y":2578151.9300000034}},{"attributes":{"ID":111998,"DIS_CODE":0,"TOWNNAME":"中西區","LI":"永福里","LIN":"21鄰","STREET":"忠義路","SECT":"二段","MAREA":" ","LANE":"１４７巷","ALLEY":"１弄","HOUSE_NO":"１５號","E_COORD97":168314.89999999999,"N_COORD97":2544024.1699999999,"ADDRESS":"忠義路二段１４７巷１弄１５號","OBJECTID":111998},"geometry":{"x":168314.9000000013,"y":2544024.1700000018}},{"attributes":{"ID":111999,"DIS_CODE":0,"TOWNNAME":"中西區","LI":"永福里","LIN":"21鄰","STREET":"忠義路","SECT":"二段","MAREA":" ","LANE":"１４７巷","ALLEY":"１弄","HOUSE_NO":"９號","E_COORD97":168261.16,"N_COORD97":2544036.3799999999,"ADDRESS":"忠義路二段１４７巷１弄９號","OBJECTID":111999},"geometry":{"x":168261.16000000015,"y":2544036.379999999}},{"attributes":{"ID":112000,"DIS_CODE":0,"TOWNNAME":"佳里區","LI":"安西里","LIN":"37鄰","STREET":"光華街","SECT":" ","MAREA":" ","LANE":"１３０巷","ALLEY":"４７弄","HOUSE_NO":"２３號","E_COORD97":164973.60000000001,"N_COORD97":2563009.04,"ADDRESS":"光華街１３０巷４７弄２３號","OBJECTID":112000},"geometry":{"x":164973.59999999963,"y":2563009.0400000028}}]}