{"displayFieldName":"TOWNNAME","fieldAliases":{"ID":"ID","DIS_CODE":"DIS_CODE","TOWNNAME":"TOWNNAME","LI":"LI","LIN":"LIN","STREET":"STREET","SECT":"SECT","MAREA":"MAREA","LANE":"LANE","ALLEY":"ALLEY","HOUSE_NO":"HOUSE_NO","E_COORD97":"E_COORD97","N_COORD97":"N_COORD97","ADDRESS":"ADDRESS","OBJECTID":"OBJECTID"},"geometryType":"esriGeometryPoint","spatialReference":{"wkid":102443,"latestWkid":3826},"fields":[{"name":"ID","type":"esriFieldTypeDouble","alias":"ID"},{"name":"DIS_CODE","type":"esriFieldTypeInteger","alias":"DIS_CODE"},{"name":"TOWNNAME","type":"esriFieldTypeString","alias":"TOWNNAME","length":8},{"name":"LI","type":"esriFieldTypeString","alias":"LI","length":8},{"name":"LIN","type":"esriFieldTypeString","alias":"LIN","length":12},{"name":"STREET","type":"esriFieldTypeString","alias":"STREET","length":20},{"name":"SECT","type":"esriFieldTypeString","alias":"SECT","length":8},{"name":"MAREA","type":"esriFieldTypeString","alias":"MAREA","length":12},{"name":"LANE","type":"esriFieldTypeString","alias":"LANE","length":10},{"name":"ALLEY","type":"esriFieldTypeString","alias":"ALLEY","length":10},{"name":"HOUSE_NO","type":"esriFieldTypeString","alias":"HOUSE_NO","length":20},{"name":"E_COORD97","type":"esriFieldTypeDouble","alias":"E_COORD97"},{"name":"N_COORD97","type":"esriFieldTypeDouble","alias":"N_COORD97"},{"name":"ADDRESS","type":"esriFieldTypeString","alias":"ADDRESS","length":50},{"name":"OBJECTID","type":"esriFieldTypeOID","alias":"OBJECTID"}],"features":[{"attributes":{"ID":342410,"DIS_CODE":0,"TOWNNAME":"六甲區","LI":"中社里","LIN":"5鄰","STREET":" ","SECT":" ","MAREA":"中社","LANE":" ","ALLEY":" ","HOUSE_NO":"１１７號","E_COORD97":181154.95000000001,"N_COORD97":2570671.4700000002,"ADDRESS":"中社１１７號","OBJECTID":342401},"geometry":{"x":181154.95000000205,"y":2570671.4700000025}},{"attributes":{"ID":342411,"DIS_CODE":0,"TOWNNAME":"六甲區","LI":"中社里","LIN":"5鄰","STREET":" ","SECT":" ","MAREA":"中社","LANE":" ","ALLEY":" ","HOUSE_NO":"１２１號","E_COORD97":181137.91,"N_COORD97":2570654.5,"ADDRESS":"中社１２１號","OBJECTID":342402},"geometry":{"x":181137.91000000015,"y":2570654.5}},{"attributes":{"ID":342412,"DIS_CODE":0,"TOWNNAME":"六甲區","LI":"中社里","LIN":"5鄰","STREET":" ","SECT":" ","MAREA":"中社","LANE":" ","ALLEY":" ","HOUSE_NO":"１２３號","E_COORD97":181141.57000000001,"N_COORD97":2570638.7799999998,"ADDRESS":"中社１２３號","OBJECTID":342403},"geometry":{"x":181141.5700000003,"y":2570638.7799999993}},{"attributes":{"ID":342413,"DIS_CODE":0,"TOWNNAME":"東區","LI":"崇誨里","LIN":"1鄰","STREET":"林森路","SECT":"二段","MAREA":" ","LANE":"１９２巷","ALLEY":" ","HOUSE_NO":"１６號","E_COORD97":170532.06,"N_COORD97":2543309.4500000002,"ADDRESS":"林森路二段１９２巷１６號","OBJECTID":342404},"geometry":{"x":170532.06000000052,"y":2543309.4500000011}},{"attributes":{"ID":342414,"DIS_CODE":0,"TOWNNAME":"六甲區","LI":"中社里","LIN":"5鄰","STREET":" ","SECT":" ","MAREA":"中社","LANE":" ","ALLEY":" ","HOUSE_NO":"１３１號","E_COORD97":181097.31,"N_COORD97":2570797.5600000001,"ADDRESS":"中社１３１號","OBJECTID":342405},"geometry":{"x":181097.30999999959,"y":2570797.5600000005}},{"attributes":{"ID":342415,"DIS_CODE":0,"TOWNNAME":"六甲區","LI":"中社里","LIN":"5鄰","STREET":" ","SECT":" ","MAREA":"中社","LANE":" ","ALLEY":" ","HOUSE_NO":"１３９號","E_COORD97":181087.32999999999,"N_COORD97":2570820.8700000001,"ADDRESS":"中社１３９號","OBJECTID":342406},"geometry":{"x":181087.33000000007,"y":2570820.8700000029}},{"attributes":{"ID":342416,"DIS_CODE":0,"TOWNNAME":"六甲區","LI":"中社里","LIN":"5鄰","STREET":" ","SECT":" ","MAREA":"中社","LANE":" ","ALLEY":" ","HOUSE_NO":"１４１號","E_COORD97":181083.72,"N_COORD97":2570820.1200000001,"ADDRESS":"中社１４１號","OBJECTID":342407},"geometry":{"x":181083.72000000067,"y":2570820.1200000029}},{"attributes":{"ID":342417,"DIS_CODE":0,"TOWNNAME":"六甲區","LI":"中社里","LIN":"5鄰","STREET":" ","SECT":" ","MAREA":"中社","LANE":" ","ALLEY":" ","HOUSE_NO":"１４３號","E_COORD97":181080.51999999999,"N_COORD97":2570819.3999999999,"ADDRESS":"中社１４３號","OBJECTID":342408},"geometry":{"x":181080.51999999955,"y":2570819.4000000041}},{"attributes":{"ID":342418,"DIS_CODE":0,"TOWNNAME":"六甲區","LI":"中社里","LIN":"5鄰","STREET":" ","SECT":" ","MAREA":"中社","LANE":" ","ALLEY":" ","HOUSE_NO":"１４５號","E_COORD97":181076.88,"N_COORD97":2570818.54,"ADDRESS":"中社１４５號","OBJECTID":342409},"geometry":{"x":181076.87999999989,"y":2570818.540000001}},{"attributes":{"ID":342419,"DIS_CODE":0,"TOWNNAME":"六甲區","LI":"中社里","LIN":"5鄰","STREET":" ","SECT":" ","MAREA":"中社","LANE":" ","ALLEY":" ","HOUSE_NO":"１４７號","E_COORD97":181073.06,"N_COORD97":2570817.3599999999,"ADDRESS":"中社１４７號","OBJECTID":342410},"geometry":{"x":181073.05999999959,"y":2570817.3599999994}},{"attributes":{"ID":342420,"DIS_CODE":0,"TOWNNAME":"六甲區","LI":"中社里","LIN":"5鄰","STREET":" ","SECT":" ","MAREA":"中社","LANE":" ","ALLEY":" ","HOUSE_NO":"１５１號","E_COORD97":181064.12,"N_COORD97":2570814.9300000002,"ADDRESS":"中社１５１號","OBJECTID":342411},"geometry":{"x":181064.12000000104,"y":2570814.9299999978}},{"attributes":{"ID":342421,"DIS_CODE":0,"TOWNNAME":"六甲區","LI":"中社里","LIN":"5鄰","STREET":" ","SECT":" ","MAREA":"中社","LANE":" ","ALLEY":" ","HOUSE_NO":"９３號","E_COORD97":181112.35000000001,"N_COORD97":2570823.0800000001,"ADDRESS":"中社９３號","OBJECTID":342412},"geometry":{"x":181112.34999999963,"y":2570823.0800000001}},{"attributes":{"ID":342422,"DIS_CODE":0,"TOWNNAME":"六甲區","LI":"王爺里","LIN":"5鄰","STREET":" ","SECT":" ","MAREA":"水流東","LANE":" ","ALLEY":" ","HOUSE_NO":"２２號","E_COORD97":189497.69,"N_COORD97":2569700.9399999999,"ADDRESS":"水流東２２號","OBJECTID":342413},"geometry":{"x":189497.69000000134,"y":2569700.9400000013}},{"attributes":{"ID":342423,"DIS_CODE":0,"TOWNNAME":"六甲區","LI":"王爺里","LIN":"5鄰","STREET":" ","SECT":" ","MAREA":"水流東","LANE":" ","ALLEY":" ","HOUSE_NO":"２３之１號","E_COORD97":189528.81,"N_COORD97":2569702.5499999998,"ADDRESS":"水流東２３之１號","OBJECTID":342414},"geometry":{"x":189528.80999999959,"y":2569702.5500000007}},{"attributes":{"ID":342424,"DIS_CODE":0,"TOWNNAME":"六甲區","LI":"王爺里","LIN":"5鄰","STREET":" ","SECT":" ","MAREA":"水流東","LANE":" ","ALLEY":" ","HOUSE_NO":"２３號","E_COORD97":189537.64000000001,"N_COORD97":2569682.7400000002,"ADDRESS":"水流東２３號","OBJECTID":342415},"geometry":{"x":189537.6400000006,"y":2569682.7400000021}},{"attributes":{"ID":342425,"DIS_CODE":0,"TOWNNAME":"六甲區","LI":"王爺里","LIN":"5鄰","STREET":" ","SECT":" ","MAREA":"水流東","LANE":" ","ALLEY":" ","HOUSE_NO":"２４號","E_COORD97":189534.91,"N_COORD97":2569670.3399999999,"ADDRESS":"水流東２４號","OBJECTID":342416},"geometry":{"x":189534.91000000108,"y":2569670.3400000017}},{"attributes":{"ID":342426,"DIS_CODE":0,"TOWNNAME":"六甲區","LI":"王爺里","LIN":"5鄰","STREET":" ","SECT":" ","MAREA":"水流東","LANE":" ","ALLEY":" ","HOUSE_NO":"２７之１號","E_COORD97":189547.39999999999,"N_COORD97":2569660.0899999999,"ADDRESS":"水流東２７之１號","OBJECTID":342417},"geometry":{"x":189547.4000000013,"y":2569660.0899999999}},{"attributes":{"ID":342427,"DIS_CODE":0,"TOWNNAME":"六甲區","LI":"王爺里","LIN":"5鄰","STREET":" ","SECT":" ","MAREA":"水流東","LANE":" ","ALLEY":" ","HOUSE_NO":"２７號","E_COORD97":189583,"N_COORD97":2569617.75,"ADDRESS":"水流東２７號","OBJECTID":342418},"geometry":{"x":189583.00000000093,"y":2569617.7500000019}},{"attributes":{"ID":342428,"DIS_CODE":0,"TOWNNAME":"六甲區","LI":"王爺里","LIN":"5鄰","STREET":" ","SECT":" ","MAREA":"水流東","LANE":" ","ALLEY":" ","HOUSE_NO":"３０號","E_COORD97":189589,"N_COORD97":2569729.8900000001,"ADDRESS":"水流東３０號","OBJECTID":342419},"geometry":{"x":189589,"y":2569729.8900000006}},{"attributes":{"ID":342429,"DIS_CODE":0,"TOWNNAME":"六甲區","LI":"王爺里","LIN":"5鄰","STREET":" ","SECT":" ","MAREA":"水流東","LANE":" ","ALLEY":" ","HOUSE_NO":"３２號","E_COORD97":189549.29999999999,"N_COORD97":2569747.6299999999,"ADDRESS":"水流東３２號","OBJECTID":342420},"geometry":{"x":189549.29999999981,"y":2569747.629999999}},{"attributes":{"ID":342430,"DIS_CODE":0,"TOWNNAME":"六甲區","LI":"王爺里","LIN":"5鄰","STREET":" ","SECT":" ","MAREA":"水流東","LANE":" ","ALLEY":" ","HOUSE_NO":"３３號","E_COORD97":189594.48000000001,"N_COORD97":2569751.8999999999,"ADDRESS":"水流東３３號","OBJECTID":342421},"geometry":{"x":189594.48000000138,"y":2569751.9000000022}},{"attributes":{"ID":342431,"DIS_CODE":0,"TOWNNAME":"六甲區","LI":"王爺里","LIN":"5鄰","STREET":" ","SECT":" ","MAREA":"水流東","LANE":" ","ALLEY":" ","HOUSE_NO":"３４號","E_COORD97":189580.69,"N_COORD97":2569767.8999999999,"ADDRESS":"水流東３４號","OBJECTID":342422},"geometry":{"x":189580.69000000134,"y":2569767.9000000004}},{"attributes":{"ID":342432,"DIS_CODE":0,"TOWNNAME":"六甲區","LI":"王爺里","LIN":"5鄰","STREET":" ","SECT":" ","MAREA":"水流東","LANE":" ","ALLEY":" ","HOUSE_NO":"３５號","E_COORD97":189673.34,"N_COORD97":2569724.9500000002,"ADDRESS":"水流東３５號","OBJECTID":342423},"geometry":{"x":189673.33999999985,"y":2569724.9499999993}},{"attributes":{"ID":342433,"DIS_CODE":0,"TOWNNAME":"六甲區","LI":"王爺里","LIN":"5鄰","STREET":" ","SECT":" ","MAREA":"水流東","LANE":" ","ALLEY":" ","HOUSE_NO":"３６號","E_COORD97":189668.31,"N_COORD97":2569680.5800000001,"ADDRESS":"水流東３６號","OBJECTID":342424},"geometry":{"x":189668.30999999959,"y":2569680.5800000001}},{"attributes":{"ID":342434,"DIS_CODE":0,"TOWNNAME":"六甲區","LI":"王爺里","LIN":"5鄰","STREET":" ","SECT":" ","MAREA":"水流東","LANE":" ","ALLEY":" ","HOUSE_NO":"３７號","E_COORD97":189638.26999999999,"N_COORD97":2569730.8700000001,"ADDRESS":"水流東３７號","OBJECTID":342425},"geometry":{"x":189638.27000000142,"y":2569730.870000001}},{"attributes":{"ID":342435,"DIS_CODE":0,"TOWNNAME":"東區","LI":"崇誨里","LIN":"1鄰","STREET":"林森路","SECT":"二段","MAREA":" ","LANE":"１９２巷","ALLEY":" ","HOUSE_NO":"１８號","E_COORD97":170540.48000000001,"N_COORD97":2543310.5899999999,"ADDRESS":"林森路二段１９２巷１８號","OBJECTID":342426},"geometry":{"x":170540.48000000138,"y":2543310.5899999999}},{"attributes":{"ID":342436,"DIS_CODE":0,"TOWNNAME":"東區","LI":"崇誨里","LIN":"1鄰","STREET":"林森路","SECT":"二段","MAREA":" ","LANE":"１９２巷","ALLEY":" ","HOUSE_NO":"２０號之１","E_COORD97":170547.31,"N_COORD97":2543312.8599999999,"ADDRESS":"林森路二段１９２巷２０號之１","OBJECTID":342427},"geometry":{"x":170547.31000000052,"y":2543312.8600000031}},{"attributes":{"ID":342437,"DIS_CODE":0,"TOWNNAME":"東區","LI":"崇誨里","LIN":"1鄰","STREET":"林森路","SECT":"二段","MAREA":" ","LANE":"１９２巷","ALLEY":" ","HOUSE_NO":"２２號","E_COORD97":170553.69,"N_COORD97":2543314.2200000002,"ADDRESS":"林森路二段１９２巷２２號","OBJECTID":342428},"geometry":{"x":170553.69000000134,"y":2543314.2200000007}},{"attributes":{"ID":342438,"DIS_CODE":0,"TOWNNAME":"東區","LI":"崇誨里","LIN":"1鄰","STREET":"林森路","SECT":"二段","MAREA":" ","LANE":"１９２巷","ALLEY":" ","HOUSE_NO":"８號之１","E_COORD97":170499.06,"N_COORD97":2543302.1699999999,"ADDRESS":"林森路二段１９２巷８號之１","OBJECTID":342429},"geometry":{"x":170499.05999999959,"y":2543302.1700000018}},{"attributes":{"ID":342439,"DIS_CODE":0,"TOWNNAME":"六甲區","LI":"水林里","LIN":"5鄰","STREET":"民族街","SECT":" ","MAREA":" ","LANE":"２７５巷","ALLEY":" ","HOUSE_NO":"４５號","E_COORD97":183051.89000000001,"N_COORD97":2570209.7200000002,"ADDRESS":"民族街２７５巷４５號","OBJECTID":342430},"geometry":{"x":183051.8900000006,"y":2570209.7200000007}},{"attributes":{"ID":342440,"DIS_CODE":0,"TOWNNAME":"新營區","LI":"新東里","LIN":"5鄰","STREET":"東大街","SECT":" ","MAREA":" ","LANE":"５２巷","ALLEY":" ","HOUSE_NO":"９號","E_COORD97":181046.60999999999,"N_COORD97":2579150.3199999998,"ADDRESS":"東大街５２巷９號","OBJECTID":342431},"geometry":{"x":181046.61000000034,"y":2579150.320000004}},{"attributes":{"ID":342441,"DIS_CODE":0,"TOWNNAME":"新營區","LI":"新東里","LIN":"5鄰","STREET":"東大街","SECT":" ","MAREA":" ","LANE":"５２巷","ALLEY":" ","HOUSE_NO":"５號","E_COORD97":181038.47,"N_COORD97":2579150.3599999999,"ADDRESS":"東大街５２巷５號","OBJECTID":342432},"geometry":{"x":181038.46999999974,"y":2579150.3600000013}},{"attributes":{"ID":342442,"DIS_CODE":0,"TOWNNAME":"新營區","LI":"新東里","LIN":"5鄰","STREET":"東大街","SECT":" ","MAREA":" ","LANE":"５２巷","ALLEY":" ","HOUSE_NO":"４１號","E_COORD97":181119.60000000001,"N_COORD97":2579158.8500000001,"ADDRESS":"東大街５２巷４１號","OBJECTID":342433},"geometry":{"x":181119.60000000056,"y":2579158.8499999996}},{"attributes":{"ID":342443,"DIS_CODE":0,"TOWNNAME":"新營區","LI":"好平里","LIN":"5鄰","STREET":"南昌街","SECT":" ","MAREA":" ","LANE":"４０巷","ALLEY":" ","HOUSE_NO":"１１號","E_COORD97":179493.60456199999,"N_COORD97":2577688.92876,"ADDRESS":"南昌街４０巷１１號","OBJECTID":342434},"geometry":{"x":179493.6045620013,"y":2577688.9287649989}},{"attributes":{"ID":342444,"DIS_CODE":0,"TOWNNAME":"新營區","LI":"護鎮里","LIN":"5鄰","STREET":" ","SECT":" ","MAREA":"後鎮","LANE":" ","ALLEY":" ","HOUSE_NO":"５９之２０號","E_COORD97":179064.03,"N_COORD97":2581222.9500000002,"ADDRESS":"後鎮５９之２０號","OBJECTID":342435},"geometry":{"x":179064.03000000026,"y":2581222.950000003}},{"attributes":{"ID":342445,"DIS_CODE":0,"TOWNNAME":"新營區","LI":"土庫里","LIN":"5鄰","STREET":" ","SECT":" ","MAREA":"土庫","LANE":" ","ALLEY":" ","HOUSE_NO":"４９號","E_COORD97":183246.09,"N_COORD97":2579855.6499999999,"ADDRESS":"土庫４９號","OBJECTID":342436},"geometry":{"x":183246.09000000078,"y":2579855.6500000004}},{"attributes":{"ID":342446,"DIS_CODE":0,"TOWNNAME":"新營區","LI":"土庫里","LIN":"5鄰","STREET":" ","SECT":" ","MAREA":"土庫","LANE":" ","ALLEY":" ","HOUSE_NO":"４１號","E_COORD97":183334.48999999999,"N_COORD97":2579952.71,"ADDRESS":"土庫４１號","OBJECTID":342437},"geometry":{"x":183334.49000000022,"y":2579952.7100000028}},{"attributes":{"ID":342447,"DIS_CODE":0,"TOWNNAME":"新營區","LI":"土庫里","LIN":"5鄰","STREET":" ","SECT":" ","MAREA":"土庫","LANE":" ","ALLEY":" ","HOUSE_NO":"４１之２號","E_COORD97":183274.32000000001,"N_COORD97":2579889.9199999999,"ADDRESS":"土庫４１之２號","OBJECTID":342438},"geometry":{"x":183274.3200000003,"y":2579889.9199999999}},{"attributes":{"ID":342448,"DIS_CODE":0,"TOWNNAME":"安平區","LI":"建平里","LIN":"8鄰","STREET":"府前三街","SECT":" ","MAREA":" ","LANE":" ","ALLEY":" ","HOUSE_NO":"１２９號四樓之７","E_COORD97":166494.16,"N_COORD97":2543982.3300000001,"ADDRESS":"府前三街１２９號四樓之７","OBJECTID":342439},"geometry":{"x":166494.16000000108,"y":2543982.3300000019}},{"attributes":{"ID":342449,"DIS_CODE":0,"TOWNNAME":"安平區","LI":"建平里","LIN":"8鄰","STREET":"府前三街","SECT":" ","MAREA":" ","LANE":" ","ALLEY":" ","HOUSE_NO":"１２９號四樓之８","E_COORD97":166494.16,"N_COORD97":2543982.3300000001,"ADDRESS":"府前三街１２９號四樓之８","OBJECTID":342440},"geometry":{"x":166494.16000000108,"y":2543982.3300000019}},{"attributes":{"ID":342450,"DIS_CODE":0,"TOWNNAME":"安平區","LI":"建平里","LIN":"8鄰","STREET":"府前三街","SECT":" ","MAREA":" ","LANE":" ","ALLEY":" ","HOUSE_NO":"１２９號四樓之９","E_COORD97":166494.16,"N_COORD97":2543982.3300000001,"ADDRESS":"府前三街１２９號四樓之９","OBJECTID":342441},"geometry":{"x":166494.16000000108,"y":2543982.3300000019}},{"attributes":{"ID":342451,"DIS_CODE":0,"TOWNNAME":"安平區","LI":"文平里","LIN":"8鄰","STREET":"建平六街","SECT":" ","MAREA":" ","LANE":" ","ALLEY":" ","HOUSE_NO":"１１４號七樓之１０","E_COORD97":166176.26999999999,"N_COORD97":2543144.21,"ADDRESS":"建平六街１１４號七樓之１０","OBJECTID":342442},"geometry":{"x":166176.26999999955,"y":2543144.2100000009}},{"attributes":{"ID":342452,"DIS_CODE":0,"TOWNNAME":"柳營區","LI":"太康里","LIN":"5鄰","STREET":" ","SECT":" ","MAREA":"太康","LANE":" ","ALLEY":" ","HOUSE_NO":"３７號","E_COORD97":181427.62,"N_COORD97":2576412.6899999999,"ADDRESS":"太康３７號","OBJECTID":342443},"geometry":{"x":181427.62000000011,"y":2576412.6899999995}},{"attributes":{"ID":342453,"DIS_CODE":0,"TOWNNAME":"柳營區","LI":"太康里","LIN":"5鄰","STREET":" ","SECT":" ","MAREA":"太康","LANE":" ","ALLEY":" ","HOUSE_NO":"４０號","E_COORD97":181437.42999999999,"N_COORD97":2576373.9100000001,"ADDRESS":"太康４０號","OBJECTID":342444},"geometry":{"x":181437.4299999997,"y":2576373.910000002}},{"attributes":{"ID":342454,"DIS_CODE":0,"TOWNNAME":"柳營區","LI":"太康里","LIN":"5鄰","STREET":" ","SECT":" ","MAREA":"太康","LANE":" ","ALLEY":" ","HOUSE_NO":"４２號","E_COORD97":181408.35999999999,"N_COORD97":2576429.6499999999,"ADDRESS":"太康４２號","OBJECTID":342445},"geometry":{"x":181408.3600000022,"y":2576429.6500000022}},{"attributes":{"ID":342455,"DIS_CODE":0,"TOWNNAME":"柳營區","LI":"太康里","LIN":"5鄰","STREET":" ","SECT":" ","MAREA":"太康","LANE":" ","ALLEY":" ","HOUSE_NO":"４５之１號","E_COORD97":181448.37,"N_COORD97":2576356.4399999999,"ADDRESS":"太康４５之１號","OBJECTID":342446},"geometry":{"x":181448.37000000011,"y":2576356.4400000013}},{"attributes":{"ID":342456,"DIS_CODE":0,"TOWNNAME":"柳營區","LI":"太康里","LIN":"5鄰","STREET":" ","SECT":" ","MAREA":"太康","LANE":" ","ALLEY":" ","HOUSE_NO":"４５之２號","E_COORD97":181444.70000000001,"N_COORD97":2576355.5,"ADDRESS":"太康４５之２號","OBJECTID":342447},"geometry":{"x":181444.69999999925,"y":2576355.5000000019}},{"attributes":{"ID":342457,"DIS_CODE":0,"TOWNNAME":"柳營區","LI":"太康里","LIN":"5鄰","STREET":" ","SECT":" ","MAREA":"太康","LANE":" ","ALLEY":" ","HOUSE_NO":"４５之３號","E_COORD97":181441.03,"N_COORD97":2576354.5600000001,"ADDRESS":"太康４５之３號","OBJECTID":342448},"geometry":{"x":181441.03000000212,"y":2576354.5600000005}},{"attributes":{"ID":342458,"DIS_CODE":0,"TOWNNAME":"柳營區","LI":"太康里","LIN":"5鄰","STREET":" ","SECT":" ","MAREA":"太康","LANE":" ","ALLEY":" ","HOUSE_NO":"４５之５號","E_COORD97":181437.35999999999,"N_COORD97":2576353.6200000001,"ADDRESS":"太康４５之５號","OBJECTID":342449},"geometry":{"x":181437.36000000127,"y":2576353.620000001}},{"attributes":{"ID":342459,"DIS_CODE":0,"TOWNNAME":"東區","LI":"自強里","LIN":"1鄰","STREET":"富農街","SECT":"一段","MAREA":" ","LANE":"８９巷","ALLEY":" ","HOUSE_NO":"１１號","E_COORD97":171463.79999999999,"N_COORD97":2542369.6299999999,"ADDRESS":"富農街一段８９巷１１號","OBJECTID":342450},"geometry":{"x":171463.79999999981,"y":2542369.629999999}},{"attributes":{"ID":342460,"DIS_CODE":0,"TOWNNAME":"東區","LI":"自強里","LIN":"1鄰","STREET":"富農街","SECT":"一段","MAREA":" ","LANE":"８９巷","ALLEY":" ","HOUSE_NO":"１３號","E_COORD97":171459.98000000001,"N_COORD97":2542368.5899999999,"ADDRESS":"富農街一段８９巷１３號","OBJECTID":342451},"geometry":{"x":171459.98000000045,"y":2542368.5899999999}},{"attributes":{"ID":342461,"DIS_CODE":0,"TOWNNAME":"東區","LI":"自強里","LIN":"1鄰","STREET":"富農街","SECT":"一段","MAREA":" ","LANE":"８９巷","ALLEY":" ","HOUSE_NO":"１７號","E_COORD97":171461.89000000001,"N_COORD97":2542350,"ADDRESS":"富農街一段８９巷１７號","OBJECTID":342452},"geometry":{"x":171461.8900000006,"y":2542350.0000000019}},{"attributes":{"ID":342462,"DIS_CODE":0,"TOWNNAME":"東區","LI":"自強里","LIN":"1鄰","STREET":"富農街","SECT":"一段","MAREA":" ","LANE":"８９巷","ALLEY":" ","HOUSE_NO":"１９號","E_COORD97":171461.35999999999,"N_COORD97":2542344.7999999998,"ADDRESS":"富農街一段８９巷１９號","OBJECTID":342453},"geometry":{"x":171461.36000000127,"y":2542344.8000000045}},{"attributes":{"ID":342463,"DIS_CODE":0,"TOWNNAME":"東區","LI":"自強里","LIN":"1鄰","STREET":"富農街","SECT":"一段","MAREA":" ","LANE":"８９巷","ALLEY":" ","HOUSE_NO":"１號","E_COORD97":171486.37,"N_COORD97":2542372.75,"ADDRESS":"富農街一段８９巷１號","OBJECTID":342454},"geometry":{"x":171486.37000000104,"y":2542372.7500000019}},{"attributes":{"ID":342464,"DIS_CODE":0,"TOWNNAME":"東區","LI":"自強里","LIN":"1鄰","STREET":"富農街","SECT":"一段","MAREA":" ","LANE":"８９巷","ALLEY":" ","HOUSE_NO":"２１號","E_COORD97":171448.47,"N_COORD97":2542367.7200000002,"ADDRESS":"富農街一段８９巷２１號","OBJECTID":342455},"geometry":{"x":171448.47000000067,"y":2542367.7200000007}},{"attributes":{"ID":342465,"DIS_CODE":0,"TOWNNAME":"東區","LI":"自強里","LIN":"1鄰","STREET":"富農街","SECT":"一段","MAREA":" ","LANE":"８９巷","ALLEY":" ","HOUSE_NO":"２３號","E_COORD97":171443.42999999999,"N_COORD97":2542367.7200000002,"ADDRESS":"富農街一段８９巷２３號","OBJECTID":342456},"geometry":{"x":171443.43000000063,"y":2542367.7200000007}},{"attributes":{"ID":342466,"DIS_CODE":0,"TOWNNAME":"柳營區","LI":"太康里","LIN":"5鄰","STREET":" ","SECT":" ","MAREA":"太康","LANE":" ","ALLEY":" ","HOUSE_NO":"４６號","E_COORD97":181417.07999999999,"N_COORD97":2576336.1899999999,"ADDRESS":"太康４６號","OBJECTID":342457},"geometry":{"x":181417.08000000101,"y":2576336.1900000032}},{"attributes":{"ID":342467,"DIS_CODE":0,"TOWNNAME":"東區","LI":"自強里","LIN":"1鄰","STREET":"富農街","SECT":"一段","MAREA":" ","LANE":"８９巷","ALLEY":" ","HOUSE_NO":"２５號","E_COORD97":171439.44,"N_COORD97":2542367.0299999998,"ADDRESS":"富農街一段８９巷２５號","OBJECTID":342458},"geometry":{"x":171439.44000000041,"y":2542367.0300000012}},{"attributes":{"ID":342468,"DIS_CODE":0,"TOWNNAME":"東區","LI":"關聖里","LIN":"1鄰","STREET":"富農街","SECT":"二段","MAREA":" ","LANE":"９２巷","ALLEY":" ","HOUSE_NO":"６號","E_COORD97":171671.23000000001,"N_COORD97":2543029.75,"ADDRESS":"富農街二段９２巷６號","OBJECTID":342459},"geometry":{"x":171671.23000000138,"y":2543029.7500000019}},{"attributes":{"ID":342469,"DIS_CODE":0,"TOWNNAME":"東區","LI":"關聖里","LIN":"1鄰","STREET":"富農街","SECT":"二段","MAREA":" ","LANE":"９２巷","ALLEY":" ","HOUSE_NO":"７號","E_COORD97":171675.79999999999,"N_COORD97":2543053.2999999998,"ADDRESS":"富農街二段９２巷７號","OBJECTID":342460},"geometry":{"x":171675.79999999981,"y":2543053.3000000045}},{"attributes":{"ID":342470,"DIS_CODE":0,"TOWNNAME":"東區","LI":"關聖里","LIN":"1鄰","STREET":"富農街","SECT":"二段","MAREA":" ","LANE":"９２巷","ALLEY":" ","HOUSE_NO":"８號","E_COORD97":171677.39999999999,"N_COORD97":2543031.4700000002,"ADDRESS":"富農街二段９２巷８號","OBJECTID":342461},"geometry":{"x":171677.40000000037,"y":2543031.4700000007}},{"attributes":{"ID":342471,"DIS_CODE":0,"TOWNNAME":"柳營區","LI":"神農里","LIN":"5鄰","STREET":" ","SECT":" ","MAREA":"果毅後","LANE":" ","ALLEY":" ","HOUSE_NO":"２４９號之１","E_COORD97":185341.32999999999,"N_COORD97":2572855.7599999998,"ADDRESS":"果毅後２４９號之１","OBJECTID":342462},"geometry":{"x":185341.33000000101,"y":2572855.7599999998}},{"attributes":{"ID":342472,"DIS_CODE":0,"TOWNNAME":"柳營區","LI":"神農里","LIN":"5鄰","STREET":" ","SECT":" ","MAREA":"果毅後","LANE":" ","ALLEY":" ","HOUSE_NO":"２４９號之２","E_COORD97":185334.84,"N_COORD97":2572829.7200000002,"ADDRESS":"果毅後２４９號之２","OBJECTID":342463},"geometry":{"x":185334.83999999985,"y":2572829.7200000025}},{"attributes":{"ID":342473,"DIS_CODE":0,"TOWNNAME":"柳營區","LI":"神農里","LIN":"5鄰","STREET":" ","SECT":" ","MAREA":"果毅後","LANE":" ","ALLEY":" ","HOUSE_NO":"２４９號之３","E_COORD97":185308.70999999999,"N_COORD97":2572838.1499999999,"ADDRESS":"果毅後２４９號之３","OBJECTID":342464},"geometry":{"x":185308.70999999996,"y":2572838.1500000004}},{"attributes":{"ID":342474,"DIS_CODE":0,"TOWNNAME":"柳營區","LI":"神農里","LIN":"5鄰","STREET":" ","SECT":" ","MAREA":"果毅後","LANE":" ","ALLEY":" ","HOUSE_NO":"２４９號","E_COORD97":185373.73000000001,"N_COORD97":2572863.75,"ADDRESS":"果毅後２４９號","OBJECTID":342465},"geometry":{"x":185373.73000000045,"y":2572863.75}},{"attributes":{"ID":342475,"DIS_CODE":0,"TOWNNAME":"柳營區","LI":"神農里","LIN":"5鄰","STREET":" ","SECT":" ","MAREA":"果毅後","LANE":" ","ALLEY":" ","HOUSE_NO":"２７５號","E_COORD97":185279.14000000001,"N_COORD97":2572850.04,"ADDRESS":"果毅後２７５號","OBJECTID":342466},"geometry":{"x":185279.14000000153,"y":2572850.0399999991}},{"attributes":{"ID":342476,"DIS_CODE":0,"TOWNNAME":"柳營區","LI":"神農里","LIN":"5鄰","STREET":" ","SECT":" ","MAREA":"果毅後","LANE":" ","ALLEY":" ","HOUSE_NO":"２７６號","E_COORD97":185295.04000000001,"N_COORD97":2572851.1800000002,"ADDRESS":"果毅後２７６號","OBJECTID":342467},"geometry":{"x":185295.04000000004,"y":2572851.1800000034}},{"attributes":{"ID":342477,"DIS_CODE":0,"TOWNNAME":"柳營區","LI":"神農里","LIN":"5鄰","STREET":" ","SECT":" ","MAREA":"果毅後","LANE":" ","ALLEY":" ","HOUSE_NO":"２７７號之１","E_COORD97":185294.22,"N_COORD97":2572862.9900000002,"ADDRESS":"果毅後２７７號之１","OBJECTID":342468},"geometry":{"x":185294.22000000067,"y":2572862.9900000039}},{"attributes":{"ID":342478,"DIS_CODE":0,"TOWNNAME":"柳營區","LI":"神農里","LIN":"5鄰","STREET":" ","SECT":" ","MAREA":"果毅後","LANE":" ","ALLEY":" ","HOUSE_NO":"２７７號之２","E_COORD97":185286.06,"N_COORD97":2572868.1400000001,"ADDRESS":"果毅後２７７號之２","OBJECTID":342469},"geometry":{"x":185286.05999999959,"y":2572868.1400000006}},{"attributes":{"ID":342479,"DIS_CODE":0,"TOWNNAME":"柳營區","LI":"神農里","LIN":"5鄰","STREET":" ","SECT":" ","MAREA":"果毅後","LANE":" ","ALLEY":" ","HOUSE_NO":"２７７號","E_COORD97":185303.51999999999,"N_COORD97":2572874.77,"ADDRESS":"果毅後２７７號","OBJECTID":342470},"geometry":{"x":185303.51999999862,"y":2572874.7700000014}},{"attributes":{"ID":342480,"DIS_CODE":0,"TOWNNAME":"柳營區","LI":"東昇里","LIN":"5鄰","STREET":"成功街","SECT":" ","MAREA":" ","LANE":"７６巷","ALLEY":" ","HOUSE_NO":"９號","E_COORD97":180013.44,"N_COORD97":2575363.98,"ADDRESS":"成功街７６巷９號","OBJECTID":342471},"geometry":{"x":180013.44000000134,"y":2575363.9800000004}},{"attributes":{"ID":342481,"DIS_CODE":0,"TOWNNAME":"柳營區","LI":"東昇里","LIN":"5鄰","STREET":"成功街","SECT":" ","MAREA":" ","LANE":"９２巷","ALLEY":" ","HOUSE_NO":"１０號","E_COORD97":179992.81,"N_COORD97":2575372.71,"ADDRESS":"成功街９２巷１０號","OBJECTID":342472},"geometry":{"x":179992.81000000052,"y":2575372.7100000028}},{"attributes":{"ID":342482,"DIS_CODE":0,"TOWNNAME":"柳營區","LI":"東昇里","LIN":"5鄰","STREET":"成功街","SECT":" ","MAREA":" ","LANE":"９２巷","ALLEY":" ","HOUSE_NO":"６號","E_COORD97":180001.85999999999,"N_COORD97":2575351.98,"ADDRESS":"成功街９２巷６號","OBJECTID":342473},"geometry":{"x":180001.86000000127,"y":2575351.9800000042}},{"attributes":{"ID":342483,"DIS_CODE":0,"TOWNNAME":"柳營區","LI":"人和里","LIN":"5鄰","STREET":"忠得街","SECT":" ","MAREA":" ","LANE":"４１巷","ALLEY":" ","HOUSE_NO":"１１號","E_COORD97":178597.17999999999,"N_COORD97":2576025.9399999999,"ADDRESS":"忠得街４１巷１１號","OBJECTID":342474},"geometry":{"x":178597.18000000063,"y":2576025.9400000032}},{"attributes":{"ID":342484,"DIS_CODE":0,"TOWNNAME":"柳營區","LI":"人和里","LIN":"5鄰","STREET":"忠得街","SECT":" ","MAREA":" ","LANE":"４１巷","ALLEY":" ","HOUSE_NO":"１號","E_COORD97":178584.70999999999,"N_COORD97":2576038.8799999999,"ADDRESS":"忠得街４１巷１號","OBJECTID":342475},"geometry":{"x":178584.71000000183,"y":2576038.879999999}},{"attributes":{"ID":342485,"DIS_CODE":0,"TOWNNAME":"北區","LI":"國姓里","LIN":"5鄰","STREET":"小北路","SECT":" ","MAREA":" ","LANE":"２７巷","ALLEY":" ","HOUSE_NO":"５７號","E_COORD97":168889.97,"N_COORD97":2545452.8799999999,"ADDRESS":"小北路２７巷５７號","OBJECTID":342476},"geometry":{"x":168889.97000000067,"y":2545452.8800000008}},{"attributes":{"ID":342486,"DIS_CODE":0,"TOWNNAME":"北區","LI":"國姓里","LIN":"5鄰","STREET":"小北路","SECT":" ","MAREA":" ","LANE":"２７巷","ALLEY":" ","HOUSE_NO":"５９號","E_COORD97":168896.63,"N_COORD97":2545453.71,"ADDRESS":"小北路２７巷５９號","OBJECTID":342477},"geometry":{"x":168896.62999999989,"y":2545453.7100000009}},{"attributes":{"ID":342487,"DIS_CODE":0,"TOWNNAME":"北區","LI":"國姓里","LIN":"5鄰","STREET":"西門路","SECT":"四段","MAREA":" ","LANE":"１４０巷","ALLEY":" ","HOUSE_NO":"１０號","E_COORD97":168816.48999999999,"N_COORD97":2545470.52,"ADDRESS":"西門路四段１４０巷１０號","OBJECTID":342478},"geometry":{"x":168816.49000000022,"y":2545470.5199999996}},{"attributes":{"ID":342488,"DIS_CODE":0,"TOWNNAME":"東區","LI":"關聖里","LIN":"1鄰","STREET":"富農街","SECT":"二段","MAREA":" ","LANE":"９２巷","ALLEY":" ","HOUSE_NO":"９號","E_COORD97":171679.57999999999,"N_COORD97":2543056.21,"ADDRESS":"富農街二段９２巷９號","OBJECTID":342479},"geometry":{"x":171679.58000000194,"y":2543056.2100000009}},{"attributes":{"ID":342489,"DIS_CODE":0,"TOWNNAME":"新營區","LI":"大宏里","LIN":"8鄰","STREET":"文昌街","SECT":" ","MAREA":" ","LANE":" ","ALLEY":" ","HOUSE_NO":"１６號七樓之３","E_COORD97":180442.63,"N_COORD97":2578413.4500000002,"ADDRESS":"文昌街１６號七樓之３","OBJECTID":342480},"geometry":{"x":180442.62999999989,"y":2578413.4500000011}},{"attributes":{"ID":342490,"DIS_CODE":0,"TOWNNAME":"永康區","LI":"大灣里","LIN":"8鄰","STREET":"民族路","SECT":" ","MAREA":" ","LANE":" ","ALLEY":" ","HOUSE_NO":"３９８號","E_COORD97":174760.82999999999,"N_COORD97":2545379.5499999998,"ADDRESS":"民族路３９８號","OBJECTID":342481},"geometry":{"x":174760.83000000007,"y":2545379.5500000007}},{"attributes":{"ID":342491,"DIS_CODE":0,"TOWNNAME":"新營區","LI":"大宏里","LIN":"8鄰","STREET":"文昌街","SECT":" ","MAREA":" ","LANE":" ","ALLEY":" ","HOUSE_NO":"１６號七樓之１","E_COORD97":180442.54000000001,"N_COORD97":2578413.4500000002,"ADDRESS":"文昌街１６號七樓之１","OBJECTID":342482},"geometry":{"x":180442.54000000097,"y":2578413.4500000011}},{"attributes":{"ID":342492,"DIS_CODE":0,"TOWNNAME":"新化區","LI":"北勢里","LIN":"8鄰","STREET":"永新路","SECT":" ","MAREA":" ","LANE":" ","ALLEY":" ","HOUSE_NO":"２３號三樓之３","E_COORD97":177802.39999999999,"N_COORD97":2550963.2999999998,"ADDRESS":"永新路２３號三樓之３","OBJECTID":342483},"geometry":{"x":177802.40000000224,"y":2550963.3000000045}},{"attributes":{"ID":342493,"DIS_CODE":0,"TOWNNAME":"新化區","LI":"北勢里","LIN":"8鄰","STREET":"永新路","SECT":" ","MAREA":" ","LANE":" ","ALLEY":" ","HOUSE_NO":"３５號六樓之１","E_COORD97":177802.29999999999,"N_COORD97":2550963.2999999998,"ADDRESS":"永新路３５號六樓之１","OBJECTID":342484},"geometry":{"x":177802.29999999981,"y":2550963.3000000045}},{"attributes":{"ID":342494,"DIS_CODE":0,"TOWNNAME":"新化區","LI":"北勢里","LIN":"8鄰","STREET":"永新路","SECT":" ","MAREA":" ","LANE":" ","ALLEY":" ","HOUSE_NO":"１３號四樓之２","E_COORD97":177802.42999999999,"N_COORD97":2550963.2999999998,"ADDRESS":"永新路１３號四樓之２","OBJECTID":342485},"geometry":{"x":177802.4299999997,"y":2550963.3000000045}},{"attributes":{"ID":342495,"DIS_CODE":0,"TOWNNAME":"新化區","LI":"北勢里","LIN":"8鄰","STREET":"永新路","SECT":" ","MAREA":" ","LANE":" ","ALLEY":" ","HOUSE_NO":"３５號二樓之３","E_COORD97":177802.39999999999,"N_COORD97":2550963.2999999998,"ADDRESS":"永新路３５號二樓之３","OBJECTID":342486},"geometry":{"x":177802.40000000224,"y":2550963.3000000045}},{"attributes":{"ID":342496,"DIS_CODE":0,"TOWNNAME":"柳營區","LI":"東昇里","LIN":"5鄰","STREET":"成功街","SECT":" ","MAREA":" ","LANE":" ","ALLEY":" ","HOUSE_NO":"８２號","E_COORD97":180023.26000000001,"N_COORD97":2575338.5,"ADDRESS":"成功街８２號","OBJECTID":342487},"geometry":{"x":180023.25999999885,"y":2575338.5000000019}},{"attributes":{"ID":342497,"DIS_CODE":0,"TOWNNAME":"東區","LI":"東光里","LIN":"1鄰","STREET":"東寧路","SECT":" ","MAREA":" ","LANE":"４３５巷","ALLEY":" ","HOUSE_NO":"７號","E_COORD97":171072.76000000001,"N_COORD97":2543375.5800000001,"ADDRESS":"東寧路４３５巷７號","OBJECTID":342488},"geometry":{"x":171072.76000000164,"y":2543375.5800000001}},{"attributes":{"ID":342498,"DIS_CODE":0,"TOWNNAME":"東區","LI":"自強里","LIN":"1鄰","STREET":"富農街","SECT":"一段","MAREA":" ","LANE":"８９巷","ALLEY":" ","HOUSE_NO":"３號","E_COORD97":171482.03,"N_COORD97":2542373.1000000001,"ADDRESS":"富農街一段８９巷３號","OBJECTID":342489},"geometry":{"x":171482.03000000119,"y":2542373.1000000015}},{"attributes":{"ID":342499,"DIS_CODE":0,"TOWNNAME":"東區","LI":"自強里","LIN":"1鄰","STREET":"富農街","SECT":"一段","MAREA":" ","LANE":"８９巷","ALLEY":" ","HOUSE_NO":"１５號","E_COORD97":171461.01999999999,"N_COORD97":2542354.3399999999,"ADDRESS":"富農街一段８９巷１５號","OBJECTID":342490},"geometry":{"x":171461.02000000048,"y":2542354.3400000017}},{"attributes":{"ID":342500,"DIS_CODE":0,"TOWNNAME":"東區","LI":"仁和里","LIN":"1鄰","STREET":"仁和路","SECT":" ","MAREA":" ","LANE":"１０７巷","ALLEY":" ","HOUSE_NO":"３號","E_COORD97":171370.45000000001,"N_COORD97":2541365.1499999999,"ADDRESS":"仁和路１０７巷３號","OBJECTID":342491},"geometry":{"x":171370.45000000112,"y":2541365.1500000004}},{"attributes":{"ID":342501,"DIS_CODE":0,"TOWNNAME":"東區","LI":"仁和里","LIN":"1鄰","STREET":"仁和路","SECT":" ","MAREA":" ","LANE":"１０７巷","ALLEY":" ","HOUSE_NO":"５號","E_COORD97":171374.03,"N_COORD97":2541367.0800000001,"ADDRESS":"仁和路１０７巷５號","OBJECTID":342492},"geometry":{"x":171374.03000000119,"y":2541367.0800000019}},{"attributes":{"ID":342502,"DIS_CODE":0,"TOWNNAME":"東區","LI":"東光里","LIN":"1鄰","STREET":"東光路","SECT":"一段","MAREA":" ","LANE":"５巷","ALLEY":" ","HOUSE_NO":"４８號之１","E_COORD97":171012.64999999999,"N_COORD97":2543394.2200000002,"ADDRESS":"東光路一段５巷４８號之１","OBJECTID":342493},"geometry":{"x":171012.65000000037,"y":2543394.2200000025}},{"attributes":{"ID":342503,"DIS_CODE":0,"TOWNNAME":"永康區","LI":"尚頂里","LIN":"1鄰","STREET":"尚頂路","SECT":" ","MAREA":" ","LANE":"１７７巷","ALLEY":" ","HOUSE_NO":"５號","E_COORD97":170752.5,"N_COORD97":2547858.75,"ADDRESS":"尚頂路１７７巷５號","OBJECTID":342494},"geometry":{"x":170752.5,"y":2547858.7500000019}},{"attributes":{"ID":342504,"DIS_CODE":0,"TOWNNAME":"永康區","LI":"尚頂里","LIN":"1鄰","STREET":"中正南路","SECT":" ","MAREA":" ","LANE":"３０６巷","ALLEY":" ","HOUSE_NO":"１７號","E_COORD97":170746.78,"N_COORD97":2547805.4900000002,"ADDRESS":"中正南路３０６巷１７號","OBJECTID":342495},"geometry":{"x":170746.78000000119,"y":2547805.4900000021}},{"attributes":{"ID":342505,"DIS_CODE":0,"TOWNNAME":"永康區","LI":"尚頂里","LIN":"1鄰","STREET":"中正南路","SECT":" ","MAREA":" ","LANE":"２８６巷","ALLEY":" ","HOUSE_NO":"１１號","E_COORD97":170680.17999999999,"N_COORD97":2547767.6899999999,"ADDRESS":"中正南路２８６巷１１號","OBJECTID":342496},"geometry":{"x":170680.18000000063,"y":2547767.6899999995}},{"attributes":{"ID":342506,"DIS_CODE":0,"TOWNNAME":"永康區","LI":"尚頂里","LIN":"1鄰","STREET":"中正南路","SECT":" ","MAREA":" ","LANE":"３０６巷","ALLEY":" ","HOUSE_NO":"１４號","E_COORD97":170765.51000000001,"N_COORD97":2547730.4500000002,"ADDRESS":"中正南路３０６巷１４號","OBJECTID":342497},"geometry":{"x":170765.50999999978,"y":2547730.4500000011}},{"attributes":{"ID":342507,"DIS_CODE":0,"TOWNNAME":"永康區","LI":"尚頂里","LIN":"1鄰","STREET":"中正南路","SECT":" ","MAREA":" ","LANE":"３０６巷","ALLEY":" ","HOUSE_NO":"７號","E_COORD97":170716.67000000001,"N_COORD97":2547853.02,"ADDRESS":"中正南路３０６巷７號","OBJECTID":342498},"geometry":{"x":170716.67000000086,"y":2547853.0200000014}},{"attributes":{"ID":342508,"DIS_CODE":0,"TOWNNAME":"永康區","LI":"尚頂里","LIN":"1鄰","STREET":"中正南路","SECT":" ","MAREA":" ","LANE":"３０６巷","ALLEY":" ","HOUSE_NO":"４１號","E_COORD97":170801.45999999999,"N_COORD97":2547655.6499999999,"ADDRESS":"中正南路３０６巷４１號","OBJECTID":342499},"geometry":{"x":170801.45999999996,"y":2547655.6500000022}},{"attributes":{"ID":342509,"DIS_CODE":0,"TOWNNAME":"永康區","LI":"尚頂里","LIN":"1鄰","STREET":"中正南路","SECT":" ","MAREA":" ","LANE":"３０６巷","ALLEY":" ","HOUSE_NO":"１６號","E_COORD97":170768.51999999999,"N_COORD97":2547719.4500000002,"ADDRESS":"中正南路３０６巷１６號","OBJECTID":342500},"geometry":{"x":170768.51999999955,"y":2547719.450000003}},{"attributes":{"ID":342510,"DIS_CODE":0,"TOWNNAME":"永康區","LI":"\u25A0行里","LIN":"1鄰","STREET":"中正北路","SECT":" ","MAREA":" ","LANE":"１０２巷","ALLEY":" ","HOUSE_NO":"６號","E_COORD97":172263.92000000001,"N_COORD97":2549036,"ADDRESS":"中正北路１０２巷６號","OBJECTID":342501},"geometry":{"x":172263.92000000086,"y":2549036.0000000019}},{"attributes":{"ID":342511,"DIS_CODE":0,"TOWNNAME":"永康區","LI":"\u25A0行里","LIN":"1鄰","STREET":"中正路","SECT":" ","MAREA":" ","LANE":"９７０巷","ALLEY":" ","HOUSE_NO":"３４號","E_COORD97":172043.62,"N_COORD97":2549008.0600000001,"ADDRESS":"中正路９７０巷３４號","OBJECTID":342502},"geometry":{"x":172043.61999999918,"y":2549008.0599999987}},{"attributes":{"ID":342512,"DIS_CODE":0,"TOWNNAME":"永康區","LI":"\u25A0行里","LIN":"1鄰","STREET":"中正路","SECT":" ","MAREA":" ","LANE":"９７０巷","ALLEY":" ","HOUSE_NO":"１７號","E_COORD97":171975.23999999999,"N_COORD97":2549022.75,"ADDRESS":"中正路９７０巷１７號","OBJECTID":342503},"geometry":{"x":171975.24000000209,"y":2549022.75}},{"attributes":{"ID":342513,"DIS_CODE":0,"TOWNNAME":"永康區","LI":"\u25A0行里","LIN":"1鄰","STREET":"中正路","SECT":" ","MAREA":" ","LANE":"９７０巷","ALLEY":" ","HOUSE_NO":"２６號","E_COORD97":172026.45999999999,"N_COORD97":2549019.25,"ADDRESS":"中正路９７０巷２６號","OBJECTID":342504},"geometry":{"x":172026.46000000089,"y":2549019.25}},{"attributes":{"ID":342514,"DIS_CODE":0,"TOWNNAME":"永康區","LI":"\u25A0行里","LIN":"1鄰","STREET":"中正路","SECT":" ","MAREA":" ","LANE":"９７０巷","ALLEY":" ","HOUSE_NO":"６號","E_COORD97":171961.07000000001,"N_COORD97":2548980.2400000002,"ADDRESS":"中正路９７０巷６號","OBJECTID":342505},"geometry":{"x":171961.0700000003,"y":2548980.2400000021}},{"attributes":{"ID":342515,"DIS_CODE":0,"TOWNNAME":"永康區","LI":"\u25A0洲里","LIN":"1鄰","STREET":"仁愛街","SECT":" ","MAREA":" ","LANE":"５巷","ALLEY":" ","HOUSE_NO":"２號","E_COORD97":171910.48000000001,"N_COORD97":2549222.3500000001,"ADDRESS":"仁愛街５巷２號","OBJECTID":342506},"geometry":{"x":171910.48000000045,"y":2549222.3500000034}},{"attributes":{"ID":342516,"DIS_CODE":0,"TOWNNAME":"永康區","LI":"中華里","LIN":"1鄰","STREET":"小東路","SECT":" ","MAREA":" ","LANE":"６８５巷","ALLEY":" ","HOUSE_NO":"６號之３３","E_COORD97":172052.29000000001,"N_COORD97":2544383.3599999999,"ADDRESS":"小東路６８５巷６號之３３","OBJECTID":342507},"geometry":{"x":172052.29000000004,"y":2544383.3599999994}},{"attributes":{"ID":342517,"DIS_CODE":0,"TOWNNAME":"永康區","LI":"\u25A0行里","LIN":"1鄰","STREET":"中正路","SECT":" ","MAREA":" ","LANE":"９７０巷","ALLEY":" ","HOUSE_NO":"５號之１","E_COORD97":171961.32000000001,"N_COORD97":2548999.1299999999,"ADDRESS":"中正路９７０巷５號之１","OBJECTID":342508},"geometry":{"x":171961.32000000216,"y":2548999.1299999971}},{"attributes":{"ID":342518,"DIS_CODE":0,"TOWNNAME":"永康區","LI":"\u25A0行里","LIN":"1鄰","STREET":"中正路","SECT":" ","MAREA":" ","LANE":"９７０巷","ALLEY":" ","HOUSE_NO":"１號","E_COORD97":171946.66,"N_COORD97":2548983.4700000002,"ADDRESS":"中正路９７０巷１號","OBJECTID":342509},"geometry":{"x":171946.66000000015,"y":2548983.4700000025}},{"attributes":{"ID":342519,"DIS_CODE":0,"TOWNNAME":"安南區","LI":"溪頂里","LIN":"1鄰","STREET":"府安路","SECT":"四段","MAREA":" ","LANE":"９１巷","ALLEY":" ","HOUSE_NO":"２７號","E_COORD97":169088.70999999999,"N_COORD97":2547370.9199999999,"ADDRESS":"府安路四段９１巷２７號","OBJECTID":342510},"geometry":{"x":169088.71000000089,"y":2547370.9200000037}},{"attributes":{"ID":342520,"DIS_CODE":0,"TOWNNAME":"安南區","LI":"溪頂里","LIN":"1鄰","STREET":"府安路","SECT":"四段","MAREA":" ","LANE":"９１巷","ALLEY":" ","HOUSE_NO":"２９號","E_COORD97":169088.34,"N_COORD97":2547379.3199999998,"ADDRESS":"府安路四段９１巷２９號","OBJECTID":342511},"geometry":{"x":169088.33999999985,"y":2547379.3200000022}},{"attributes":{"ID":342521,"DIS_CODE":0,"TOWNNAME":"安南區","LI":"溪頂里","LIN":"1鄰","STREET":"府安路","SECT":"四段","MAREA":" ","LANE":"９１巷","ALLEY":" ","HOUSE_NO":"３１號","E_COORD97":169088.23999999999,"N_COORD97":2547389.1299999999,"ADDRESS":"府安路四段９１巷３１號","OBJECTID":342512},"geometry":{"x":169088.23999999929,"y":2547389.1300000027}},{"attributes":{"ID":342522,"DIS_CODE":0,"TOWNNAME":"南區","LI":"文南里","LIN":"5鄰","STREET":"長南街","SECT":" ","MAREA":" ","LANE":"３６巷","ALLEY":" ","HOUSE_NO":"４８號","E_COORD97":166995.73000000001,"N_COORD97":2542757.1299999999,"ADDRESS":"長南街３６巷４８號","OBJECTID":342513},"geometry":{"x":166995.73000000138,"y":2542757.129999999}},{"attributes":{"ID":342523,"DIS_CODE":0,"TOWNNAME":"南區","LI":"文南里","LIN":"5鄰","STREET":"長南街","SECT":" ","MAREA":" ","LANE":"３６巷","ALLEY":" ","HOUSE_NO":"１０號","E_COORD97":166989.31,"N_COORD97":2542667.0600000001,"ADDRESS":"長南街３６巷１０號","OBJECTID":342514},"geometry":{"x":166989.31000000052,"y":2542667.0600000005}},{"attributes":{"ID":342524,"DIS_CODE":0,"TOWNNAME":"永康區","LI":"蔦松里","LIN":"1鄰","STREET":"蔦松二街","SECT":" ","MAREA":" ","LANE":"８７巷","ALLEY":" ","HOUSE_NO":"６０號","E_COORD97":173622.01999999999,"N_COORD97":2549256.7400000002,"ADDRESS":"蔦松二街８７巷６０號","OBJECTID":342515},"geometry":{"x":173622.02000000142,"y":2549256.7400000002}},{"attributes":{"ID":342525,"DIS_CODE":0,"TOWNNAME":"永康區","LI":"蔦松里","LIN":"1鄰","STREET":"蔦松二街","SECT":" ","MAREA":" ","LANE":"１２４巷","ALLEY":" ","HOUSE_NO":"１８號","E_COORD97":173834.73999999999,"N_COORD97":2549342.75,"ADDRESS":"蔦松二街１２４巷１８號","OBJECTID":342516},"geometry":{"x":173834.73999999929,"y":2549342.7500000019}},{"attributes":{"ID":342526,"DIS_CODE":0,"TOWNNAME":"永康區","LI":"蔦松里","LIN":"1鄰","STREET":"蔦松二街","SECT":" ","MAREA":" ","LANE":"８７巷","ALLEY":" ","HOUSE_NO":"２７號","E_COORD97":173654.75,"N_COORD97":2549263.4900000002,"ADDRESS":"蔦松二街８７巷２７號","OBJECTID":342517},"geometry":{"x":173654.74999999907,"y":2549263.4900000021}},{"attributes":{"ID":342527,"DIS_CODE":0,"TOWNNAME":"永康區","LI":"蔦松里","LIN":"1鄰","STREET":"蔦松二街","SECT":" ","MAREA":" ","LANE":"８７巷","ALLEY":" ","HOUSE_NO":"１３號","E_COORD97":173666.32999999999,"N_COORD97":2549291.4900000002,"ADDRESS":"蔦松二街８７巷１３號","OBJECTID":342518},"geometry":{"x":173666.33000000194,"y":2549291.4900000021}},{"attributes":{"ID":342528,"DIS_CODE":0,"TOWNNAME":"永康區","LI":"蔦松里","LIN":"1鄰","STREET":"蔦松二街","SECT":" ","MAREA":" ","LANE":"８７巷","ALLEY":" ","HOUSE_NO":"３９號","E_COORD97":173631.5,"N_COORD97":2549227.75,"ADDRESS":"蔦松二街８７巷３９號","OBJECTID":342519},"geometry":{"x":173631.50000000093,"y":2549227.7500000019}},{"attributes":{"ID":342529,"DIS_CODE":0,"TOWNNAME":"永康區","LI":"新樹里","LIN":"1鄰","STREET":"富強路","SECT":"二段","MAREA":" ","LANE":"２７８巷","ALLEY":" ","HOUSE_NO":"７號","E_COORD97":175668.57000000001,"N_COORD97":2547447.4399999999,"ADDRESS":"富強路二段２７８巷７號","OBJECTID":342520},"geometry":{"x":175668.57000000216,"y":2547447.4399999995}},{"attributes":{"ID":342530,"DIS_CODE":0,"TOWNNAME":"永康區","LI":"新樹里","LIN":"1鄰","STREET":"富強路","SECT":"二段","MAREA":" ","LANE":"２９８巷","ALLEY":" ","HOUSE_NO":"２６號","E_COORD97":175699.23000000001,"N_COORD97":2547473.8599999999,"ADDRESS":"富強路二段２９８巷２６號","OBJECTID":342521},"geometry":{"x":175699.23000000045,"y":2547473.8600000013}},{"attributes":{"ID":342531,"DIS_CODE":0,"TOWNNAME":"永康區","LI":"新樹里","LIN":"1鄰","STREET":"富強路","SECT":"二段","MAREA":" ","LANE":"２９８巷","ALLEY":" ","HOUSE_NO":"３６號","E_COORD97":175732.34,"N_COORD97":2547493.8700000001,"ADDRESS":"富強路二段２９８巷３６號","OBJECTID":342522},"geometry":{"x":175732.34000000171,"y":2547493.870000001}},{"attributes":{"ID":342532,"DIS_CODE":0,"TOWNNAME":"永康區","LI":"蔦松里","LIN":"1鄰","STREET":"蔦松二街","SECT":" ","MAREA":" ","LANE":"８７巷","ALLEY":" ","HOUSE_NO":"３號","E_COORD97":173675.29000000001,"N_COORD97":2549308.75,"ADDRESS":"蔦松二街８７巷３號","OBJECTID":342523},"geometry":{"x":173675.29000000097,"y":2549308.7500000019}},{"attributes":{"ID":342533,"DIS_CODE":0,"TOWNNAME":"永康區","LI":"蔦松里","LIN":"1鄰","STREET":"蔦松二街","SECT":" ","MAREA":" ","LANE":"８７巷","ALLEY":" ","HOUSE_NO":"１之１號","E_COORD97":173684.20999999999,"N_COORD97":2549315.2999999998,"ADDRESS":"蔦松二街８７巷１之１號","OBJECTID":342524},"geometry":{"x":173684.21000000089,"y":2549315.3000000045}},{"attributes":{"ID":342534,"DIS_CODE":0,"TOWNNAME":"永康區","LI":"新樹里","LIN":"1鄰","STREET":"富強路","SECT":"二段","MAREA":" ","LANE":"２７８巷","ALLEY":" ","HOUSE_NO":"１７號","E_COORD97":175695.5,"N_COORD97":2547437.8599999999,"ADDRESS":"富強路二段２７８巷１７號","OBJECTID":342525},"geometry":{"x":175695.5,"y":2547437.8599999994}},{"attributes":{"ID":342535,"DIS_CODE":0,"TOWNNAME":"永康區","LI":"新樹里","LIN":"1鄰","STREET":"富強路","SECT":"二段","MAREA":" ","LANE":"２７５巷","ALLEY":" ","HOUSE_NO":"８號","E_COORD97":175572.41,"N_COORD97":2547435.8900000001,"ADDRESS":"富強路二段２７５巷８號","OBJECTID":342526},"geometry":{"x":175572.41000000015,"y":2547435.8900000006}},{"attributes":{"ID":342536,"DIS_CODE":0,"TOWNNAME":"永康區","LI":"新樹里","LIN":"1鄰","STREET":"富強路","SECT":"二段","MAREA":" ","LANE":"２９８巷","ALLEY":" ","HOUSE_NO":"２０號","E_COORD97":175685.87,"N_COORD97":2547467.6099999999,"ADDRESS":"富強路二段２９８巷２０號","OBJECTID":342527},"geometry":{"x":175685.87000000011,"y":2547467.6100000031}},{"attributes":{"ID":342537,"DIS_CODE":0,"TOWNNAME":"永康區","LI":"新樹里","LIN":"1鄰","STREET":"富強路","SECT":"二段","MAREA":" ","LANE":"２７８巷","ALLEY":" ","HOUSE_NO":"３０號","E_COORD97":175737.01999999999,"N_COORD97":2547423.4100000001,"ADDRESS":"富強路二段２７８巷３０號","OBJECTID":342528},"geometry":{"x":175737.01999999955,"y":2547423.410000002}},{"attributes":{"ID":342538,"DIS_CODE":0,"TOWNNAME":"新化區","LI":"北勢里","LIN":"8鄰","STREET":"永新路","SECT":" ","MAREA":" ","LANE":" ","ALLEY":" ","HOUSE_NO":"１３號五樓之３","E_COORD97":177802.39999999999,"N_COORD97":2550963.2999999998,"ADDRESS":"永新路１３號五樓之３","OBJECTID":342529},"geometry":{"x":177802.40000000224,"y":2550963.3000000045}},{"attributes":{"ID":342539,"DIS_CODE":0,"TOWNNAME":"新化區","LI":"北勢里","LIN":"8鄰","STREET":"永新路","SECT":" ","MAREA":" ","LANE":" ","ALLEY":" ","HOUSE_NO":"２３號二樓之１","E_COORD97":177802.29999999999,"N_COORD97":2550963.2999999998,"ADDRESS":"永新路２３號二樓之１","OBJECTID":342530},"geometry":{"x":177802.29999999981,"y":2550963.3000000045}},{"attributes":{"ID":342540,"DIS_CODE":0,"TOWNNAME":"南區","LI":"郡南里","LIN":"5鄰","STREET":"永興一街","SECT":" ","MAREA":" ","LANE":" ","ALLEY":" ","HOUSE_NO":"２６號","E_COORD97":167235.97,"N_COORD97":2540732.0600000001,"ADDRESS":"永興一街２６號","OBJECTID":342531},"geometry":{"x":167235.96999999974,"y":2540732.0600000005}},{"attributes":{"ID":342541,"DIS_CODE":0,"TOWNNAME":"歸仁區","LI":"沙崙里","LIN":"5鄰","STREET":" ","SECT":" ","MAREA":"沙崙","LANE":" ","ALLEY":" ","HOUSE_NO":"３４０號","E_COORD97":179617.98000000001,"N_COORD97":2538158.25,"ADDRESS":"沙崙３４０號","OBJECTID":342532},"geometry":{"x":179617.98000000138,"y":2538158.2500000019}},{"attributes":{"ID":342542,"DIS_CODE":0,"TOWNNAME":"歸仁區","LI":"沙崙里","LIN":"5鄰","STREET":" ","SECT":" ","MAREA":"沙崙","LANE":" ","ALLEY":" ","HOUSE_NO":"３３５號","E_COORD97":179530.38,"N_COORD97":2538063.25,"ADDRESS":"沙崙３３５號","OBJECTID":342533},"geometry":{"x":179530.37999999989,"y":2538063.2500000019}},{"attributes":{"ID":342543,"DIS_CODE":0,"TOWNNAME":"歸仁區","LI":"辜厝里","LIN":"5鄰","STREET":"大順街","SECT":" ","MAREA":" ","LANE":"７０巷","ALLEY":" ","HOUSE_NO":"３０號","E_COORD97":177351.20999999999,"N_COORD97":2540664.54,"ADDRESS":"大順街７０巷３０號","OBJECTID":342534},"geometry":{"x":177351.21000000089,"y":2540664.540000001}},{"attributes":{"ID":342544,"DIS_CODE":0,"TOWNNAME":"永康區","LI":"新樹里","LIN":"1鄰","STREET":"富強路","SECT":"二段","MAREA":" ","LANE":"２７８巷","ALLEY":" ","HOUSE_NO":"１９號","E_COORD97":175700,"N_COORD97":2547438.1099999999,"ADDRESS":"富強路二段２７８巷１９號","OBJECTID":342535},"geometry":{"x":175700.00000000093,"y":2547438.1100000013}},{"attributes":{"ID":342545,"DIS_CODE":0,"TOWNNAME":"永康區","LI":"網寮里","LIN":"1鄰","STREET":"永二街","SECT":" ","MAREA":" ","LANE":"８９巷","ALLEY":" ","HOUSE_NO":"１１號","E_COORD97":173615.10000000001,"N_COORD97":2546552.3700000001,"ADDRESS":"永二街８９巷１１號","OBJECTID":342536},"geometry":{"x":173615.10000000056,"y":2546552.3700000029}},{"attributes":{"ID":342546,"DIS_CODE":0,"TOWNNAME":"歸仁區","LI":"沙崙里","LIN":"5鄰","STREET":" ","SECT":" ","MAREA":"沙崙","LANE":" ","ALLEY":" ","HOUSE_NO":"３３０號","E_COORD97":179573.48000000001,"N_COORD97":2538067.25,"ADDRESS":"沙崙３３０號","OBJECTID":342537},"geometry":{"x":179573.48000000231,"y":2538067.2500000019}},{"attributes":{"ID":342547,"DIS_CODE":0,"TOWNNAME":"歸仁區","LI":"沙崙里","LIN":"5鄰","STREET":" ","SECT":" ","MAREA":"沙崙","LANE":" ","ALLEY":" ","HOUSE_NO":"３２０號","E_COORD97":179494.48000000001,"N_COORD97":2538058.25,"ADDRESS":"沙崙３２０號","OBJECTID":342538},"geometry":{"x":179494.48000000138,"y":2538058.25}},{"attributes":{"ID":342548,"DIS_CODE":0,"TOWNNAME":"歸仁區","LI":"沙崙里","LIN":"5鄰","STREET":" ","SECT":" ","MAREA":"沙崙","LANE":" ","ALLEY":" ","HOUSE_NO":"３７０號","E_COORD97":179660.07999999999,"N_COORD97":2538162.25,"ADDRESS":"沙崙３７０號","OBJECTID":342539},"geometry":{"x":179660.08000000007,"y":2538162.2500000019}},{"attributes":{"ID":342549,"DIS_CODE":0,"TOWNNAME":"永康區","LI":"新樹里","LIN":"1鄰","STREET":"富強路","SECT":"二段","MAREA":" ","LANE":"２７８巷","ALLEY":" ","HOUSE_NO":"９號","E_COORD97":175675.59,"N_COORD97":2547437.6099999999,"ADDRESS":"富強路二段２７８巷９號","OBJECTID":342540},"geometry":{"x":175675.59000000078,"y":2547437.6100000013}},{"attributes":{"ID":342550,"DIS_CODE":0,"TOWNNAME":"永康區","LI":"網寮里","LIN":"1鄰","STREET":"永二街","SECT":" ","MAREA":" ","LANE":"８９巷","ALLEY":" ","HOUSE_NO":"１５號","E_COORD97":173632.09,"N_COORD97":2546556.8300000001,"ADDRESS":"永二街８９巷１５號","OBJECTID":342541},"geometry":{"x":173632.09000000171,"y":2546556.8300000001}},{"attributes":{"ID":342551,"DIS_CODE":0,"TOWNNAME":"永康區","LI":"網寮里","LIN":"1鄰","STREET":"永二街","SECT":" ","MAREA":" ","LANE":"８９巷","ALLEY":" ","HOUSE_NO":"１７號","E_COORD97":173644.64999999999,"N_COORD97":2546558.8999999999,"ADDRESS":"永二街８９巷１７號","OBJECTID":342542},"geometry":{"x":173644.6500000013,"y":2546558.9000000022}},{"attributes":{"ID":342552,"DIS_CODE":0,"TOWNNAME":"永康區","LI":"網寮里","LIN":"1鄰","STREET":"永二街","SECT":" ","MAREA":" ","LANE":"８９巷","ALLEY":" ","HOUSE_NO":"２號","E_COORD97":173590.12,"N_COORD97":2546547.0499999998,"ADDRESS":"永二街８９巷２號","OBJECTID":342543},"geometry":{"x":173590.12000000104,"y":2546547.0500000045}},{"attributes":{"ID":342553,"DIS_CODE":0,"TOWNNAME":"永康區","LI":"新樹里","LIN":"1鄰","STREET":"富強路","SECT":"二段","MAREA":" ","LANE":"２９８巷","ALLEY":" ","HOUSE_NO":"１８號","E_COORD97":175681.57999999999,"N_COORD97":2547467.3599999999,"ADDRESS":"富強路二段２９８巷１８號","OBJECTID":342544},"geometry":{"x":175681.58000000007,"y":2547467.3600000013}},{"attributes":{"ID":342554,"DIS_CODE":0,"TOWNNAME":"永康區","LI":"網寮里","LIN":"1鄰","STREET":"永二街","SECT":" ","MAREA":" ","LANE":"８９巷","ALLEY":" ","HOUSE_NO":"５號","E_COORD97":173620.10000000001,"N_COORD97":2546587.3399999999,"ADDRESS":"永二街８９巷５號","OBJECTID":342545},"geometry":{"x":173620.10000000056,"y":2546587.3399999999}},{"attributes":{"ID":342555,"DIS_CODE":0,"TOWNNAME":"永康區","LI":"新樹里","LIN":"1鄰","STREET":"富強路","SECT":"二段","MAREA":" ","LANE":"２７５巷","ALLEY":" ","HOUSE_NO":"７之１號","E_COORD97":175586.92000000001,"N_COORD97":2547416.1299999999,"ADDRESS":"富強路二段２７５巷７之１號","OBJECTID":342546},"geometry":{"x":175586.92000000086,"y":2547416.1300000027}},{"attributes":{"ID":342556,"DIS_CODE":0,"TOWNNAME":"永康區","LI":"新樹里","LIN":"1鄰","STREET":"富強路","SECT":"二段","MAREA":" ","LANE":"１８９巷","ALLEY":" ","HOUSE_NO":"６６號","E_COORD97":175326.19,"N_COORD97":2547231.27,"ADDRESS":"富強路二段１８９巷６６號","OBJECTID":342547},"geometry":{"x":175326.19000000134,"y":2547231.2699999996}},{"attributes":{"ID":342557,"DIS_CODE":0,"TOWNNAME":"永康區","LI":"網寮里","LIN":"1鄰","STREET":"永二街","SECT":" ","MAREA":" ","LANE":"８９巷","ALLEY":" ","HOUSE_NO":"２３號","E_COORD97":173648.04999999999,"N_COORD97":2546548.54,"ADDRESS":"永二街８９巷２３號","OBJECTID":342548},"geometry":{"x":173648.05000000075,"y":2546548.5399999991}},{"attributes":{"ID":342558,"DIS_CODE":0,"TOWNNAME":"仁德區","LI":"上崙里","LIN":"1鄰","STREET":"德崙路","SECT":" ","MAREA":" ","LANE":"７７巷","ALLEY":" ","HOUSE_NO":"９４號","E_COORD97":173631.20000000001,"N_COORD97":2538477.52,"ADDRESS":"德崙路７７巷９４號","OBJECTID":342549},"geometry":{"x":173631.20000000019,"y":2538477.5200000014}},{"attributes":{"ID":342559,"DIS_CODE":0,"TOWNNAME":"仁德區","LI":"上崙里","LIN":"1鄰","STREET":"德崙路","SECT":" ","MAREA":" ","LANE":"７７巷","ALLEY":" ","HOUSE_NO":"８０號","E_COORD97":173616.25,"N_COORD97":2538485.2599999998,"ADDRESS":"德崙路７７巷８０號","OBJECTID":342550},"geometry":{"x":173616.25000000093,"y":2538485.2599999998}},{"attributes":{"ID":342560,"DIS_CODE":0,"TOWNNAME":"仁德區","LI":"上崙里","LIN":"1鄰","STREET":"德崙路","SECT":" ","MAREA":" ","LANE":"７７巷","ALLEY":" ","HOUSE_NO":"９６號","E_COORD97":173635.37,"N_COORD97":2538475.52,"ADDRESS":"德崙路７７巷９６號","OBJECTID":342551},"geometry":{"x":173635.37000000011,"y":2538475.5199999996}},{"attributes":{"ID":342561,"DIS_CODE":0,"TOWNNAME":"仁德區","LI":"上崙里","LIN":"1鄰","STREET":"德崙路","SECT":" ","MAREA":" ","LANE":"７７巷","ALLEY":" ","HOUSE_NO":"１４２號","E_COORD97":173741.26000000001,"N_COORD97":2538376.02,"ADDRESS":"德崙路７７巷１４２號","OBJECTID":342552},"geometry":{"x":173741.26000000071,"y":2538376.0200000014}},{"attributes":{"ID":342562,"DIS_CODE":0,"TOWNNAME":"仁德區","LI":"仁義里","LIN":"1鄰","STREET":"中山路","SECT":" ","MAREA":" ","LANE":"７７巷","ALLEY":" ","HOUSE_NO":"２０號","E_COORD97":175054.42999999999,"N_COORD97":2540976.9900000002,"ADDRESS":"中山路７７巷２０號","OBJECTID":342553},"geometry":{"x":175054.4299999997,"y":2540976.9900000021}},{"attributes":{"ID":342563,"DIS_CODE":0,"TOWNNAME":"仁德區","LI":"仁義里","LIN":"1鄰","STREET":"中山路","SECT":" ","MAREA":" ","LANE":"７７巷","ALLEY":" ","HOUSE_NO":"２２號","E_COORD97":175057.67999999999,"N_COORD97":2540959.25,"ADDRESS":"中山路７７巷２２號","OBJECTID":342554},"geometry":{"x":175057.68000000063,"y":2540959.2500000019}},{"attributes":{"ID":342564,"DIS_CODE":0,"TOWNNAME":"東山區","LI":"東中里","LIN":"4鄰","STREET":"中興路","SECT":" ","MAREA":" ","LANE":" ","ALLEY":" ","HOUSE_NO":"５３號","E_COORD97":188972.70999999999,"N_COORD97":2580208.52,"ADDRESS":"中興路５３號","OBJECTID":342555},"geometry":{"x":188972.70999999903,"y":2580208.5199999996}},{"attributes":{"ID":342565,"DIS_CODE":0,"TOWNNAME":"仁德區","LI":"仁德里","LIN":"1鄰","STREET":"中正路","SECT":"二段","MAREA":" ","LANE":"６７９巷","ALLEY":" ","HOUSE_NO":"３號","E_COORD97":173393.28,"N_COORD97":2540054.52,"ADDRESS":"中正路二段６７９巷３號","OBJECTID":342556},"geometry":{"x":173393.28000000026,"y":2540054.5200000014}},{"attributes":{"ID":342566,"DIS_CODE":0,"TOWNNAME":"仁德區","LI":"仁義里","LIN":"1鄰","STREET":"義林路","SECT":" ","MAREA":" ","LANE":"１４８巷","ALLEY":" ","HOUSE_NO":"１號","E_COORD97":174558.13,"N_COORD97":2540672.7599999998,"ADDRESS":"義林路１４８巷１號","OBJECTID":342557},"geometry":{"x":174558.13000000082,"y":2540672.7600000035}},{"attributes":{"ID":342567,"DIS_CODE":0,"TOWNNAME":"歸仁區","LI":"沙崙里","LIN":"5鄰","STREET":" ","SECT":" ","MAREA":"沙崙","LANE":" ","ALLEY":" ","HOUSE_NO":"３７２號","E_COORD97":179679.67999999999,"N_COORD97":2538194.25,"ADDRESS":"沙崙３７２號","OBJECTID":342558},"geometry":{"x":179679.68000000156,"y":2538194.2499999981}},{"attributes":{"ID":342568,"DIS_CODE":0,"TOWNNAME":"玉井區","LI":"豐里里","LIN":"5鄰","STREET":" ","SECT":" ","MAREA":"豐里","LANE":" ","ALLEY":" ","HOUSE_NO":"５２號","E_COORD97":193149.16,"N_COORD97":2557999.2400000002,"ADDRESS":"豐里５２號","OBJECTID":342559},"geometry":{"x":193149.16000000108,"y":2557999.2400000021}},{"attributes":{"ID":342569,"DIS_CODE":0,"TOWNNAME":"玉井區","LI":"層林里","LIN":"5鄰","STREET":" ","SECT":" ","MAREA":"層林","LANE":" ","ALLEY":" ","HOUSE_NO":"５７之１號","E_COORD97":190885.45999999999,"N_COORD97":2552673.29,"ADDRESS":"層林５７之１號","OBJECTID":342560},"geometry":{"x":190885.46000000089,"y":2552673.2899999991}},{"attributes":{"ID":342570,"DIS_CODE":0,"TOWNNAME":"玉井區","LI":"豐里里","LIN":"5鄰","STREET":" ","SECT":" ","MAREA":"豐里","LANE":" ","ALLEY":" ","HOUSE_NO":"５０號之３","E_COORD97":193170.89000000001,"N_COORD97":2558041.2999999998,"ADDRESS":"豐里５０號之３","OBJECTID":342561},"geometry":{"x":193170.8900000006,"y":2558041.3000000007}},{"attributes":{"ID":342571,"DIS_CODE":0,"TOWNNAME":"玉井區","LI":"豐里里","LIN":"5鄰","STREET":" ","SECT":" ","MAREA":"豐里","LANE":" ","ALLEY":" ","HOUSE_NO":"５６號","E_COORD97":193117.37,"N_COORD97":2558042.25,"ADDRESS":"豐里５６號","OBJECTID":342562},"geometry":{"x":193117.37000000104,"y":2558042.2500000019}},{"attributes":{"ID":342572,"DIS_CODE":0,"TOWNNAME":"玉井區","LI":"豐里里","LIN":"5鄰","STREET":" ","SECT":" ","MAREA":"豐里","LANE":" ","ALLEY":" ","HOUSE_NO":"４７號","E_COORD97":193367.35999999999,"N_COORD97":2558212.2400000002,"ADDRESS":"豐里４７號","OBJECTID":342563},"geometry":{"x":193367.36000000034,"y":2558212.2400000021}},{"attributes":{"ID":342573,"DIS_CODE":0,"TOWNNAME":"玉井區","LI":"層林里","LIN":"5鄰","STREET":" ","SECT":" ","MAREA":"層林","LANE":" ","ALLEY":" ","HOUSE_NO":"７０號之６","E_COORD97":191055.60000000001,"N_COORD97":2553151.2999999998,"ADDRESS":"層林７０號之６","OBJECTID":342564},"geometry":{"x":191055.60000000056,"y":2553151.3000000026}},{"attributes":{"ID":342574,"DIS_CODE":0,"TOWNNAME":"玉井區","LI":"層林里","LIN":"5鄰","STREET":" ","SECT":" ","MAREA":"層林","LANE":" ","ALLEY":" ","HOUSE_NO":"６９號","E_COORD97":191008.85999999999,"N_COORD97":2552936.25,"ADDRESS":"層林６９號","OBJECTID":342565},"geometry":{"x":191008.86000000127,"y":2552936.2500000019}},{"attributes":{"ID":342575,"DIS_CODE":0,"TOWNNAME":"玉井區","LI":"豐里里","LIN":"5鄰","STREET":" ","SECT":" ","MAREA":"豐里","LANE":" ","ALLEY":" ","HOUSE_NO":"５４號","E_COORD97":193132.76000000001,"N_COORD97":2558012.25,"ADDRESS":"豐里５４號","OBJECTID":342566},"geometry":{"x":193132.76000000071,"y":2558012.2500000019}},{"attributes":{"ID":342576,"DIS_CODE":0,"TOWNNAME":"仁德區","LI":"仁德里","LIN":"1鄰","STREET":"中正路","SECT":"二段","MAREA":" ","LANE":"６７９巷","ALLEY":" ","HOUSE_NO":"４９號","E_COORD97":173329.92999999999,"N_COORD97":2540077.5600000001,"ADDRESS":"中正路二段６７９巷４９號","OBJECTID":342567},"geometry":{"x":173329.93000000063,"y":2540077.5600000005}},{"attributes":{"ID":342577,"DIS_CODE":0,"TOWNNAME":"玉井區","LI":"豐里里","LIN":"5鄰","STREET":" ","SECT":" ","MAREA":"豐里","LANE":" ","ALLEY":" ","HOUSE_NO":"４８號","E_COORD97":193175.76000000001,"N_COORD97":2558083.2400000002,"ADDRESS":"豐里４８號","OBJECTID":342568},"geometry":{"x":193175.75999999978,"y":2558083.2400000021}},{"attributes":{"ID":342578,"DIS_CODE":0,"TOWNNAME":"玉井區","LI":"沙田里","LIN":"5鄰","STREET":" ","SECT":" ","MAREA":"沙田","LANE":" ","ALLEY":" ","HOUSE_NO":"５１之２５號","E_COORD97":198020.10999999999,"N_COORD97":2557185.2999999998,"ADDRESS":"沙田５１之２５號","OBJECTID":342569},"geometry":{"x":198020.11000000127,"y":2557185.3000000026}},{"attributes":{"ID":342579,"DIS_CODE":0,"TOWNNAME":"仁德區","LI":"仁德里","LIN":"1鄰","STREET":"中正路","SECT":"二段","MAREA":" ","LANE":"６７９巷","ALLEY":" ","HOUSE_NO":"６７號","E_COORD97":173318.78,"N_COORD97":2540083.0600000001,"ADDRESS":"中正路二段６７９巷６７號","OBJECTID":342570},"geometry":{"x":173318.78000000026,"y":2540083.0600000024}},{"attributes":{"ID":342580,"DIS_CODE":0,"TOWNNAME":"玉井區","LI":"望明里","LIN":"5鄰","STREET":" ","SECT":" ","MAREA":"望明","LANE":" ","ALLEY":" ","HOUSE_NO":"５５之３號","E_COORD97":194190.92999999999,"N_COORD97":2556133.29,"ADDRESS":"望明５５之３號","OBJECTID":342571},"geometry":{"x":194190.93000000063,"y":2556133.290000001}},{"attributes":{"ID":342581,"DIS_CODE":0,"TOWNNAME":"仁德區","LI":"仁德里","LIN":"1鄰","STREET":"中正路","SECT":"二段","MAREA":" ","LANE":"６７９巷","ALLEY":" ","HOUSE_NO":"６５號","E_COORD97":173315.85999999999,"N_COORD97":2540079.0600000001,"ADDRESS":"中正路二段６７９巷６５號","OBJECTID":342572},"geometry":{"x":173315.86000000127,"y":2540079.0600000024}},{"attributes":{"ID":342582,"DIS_CODE":0,"TOWNNAME":"玉井區","LI":"中正里","LIN":"5鄰","STREET":"中正路","SECT":" ","MAREA":" ","LANE":" ","ALLEY":" ","HOUSE_NO":"４７９號","E_COORD97":195500.85000000001,"N_COORD97":2558657.25,"ADDRESS":"中正路４７９號","OBJECTID":342573},"geometry":{"x":195500.84999999963,"y":2558657.25}},{"attributes":{"ID":342583,"DIS_CODE":0,"TOWNNAME":"仁德區","LI":"仁德里","LIN":"1鄰","STREET":"中正路","SECT":"二段","MAREA":" ","LANE":"６７９巷","ALLEY":" ","HOUSE_NO":"４３號","E_COORD97":173335.41,"N_COORD97":2540090.5699999998,"ADDRESS":"中正路二段６７９巷４３號","OBJECTID":342574},"geometry":{"x":173335.41000000108,"y":2540090.5700000003}},{"attributes":{"ID":342584,"DIS_CODE":0,"TOWNNAME":"仁德區","LI":"仁德里","LIN":"1鄰","STREET":"中正路","SECT":"二段","MAREA":" ","LANE":"６７９巷","ALLEY":" ","HOUSE_NO":"２０號","E_COORD97":173365.59,"N_COORD97":2540103.0299999998,"ADDRESS":"中正路二段６７９巷２０號","OBJECTID":342575},"geometry":{"x":173365.58999999985,"y":2540103.0299999993}},{"attributes":{"ID":342585,"DIS_CODE":0,"TOWNNAME":"仁德區","LI":"仁德里","LIN":"1鄰","STREET":"中正路","SECT":"二段","MAREA":" ","LANE":"６７９巷","ALLEY":" ","HOUSE_NO":"５９號","E_COORD97":173311.04999999999,"N_COORD97":2540067.8100000001,"ADDRESS":"中正路二段６７９巷５９號","OBJECTID":342576},"geometry":{"x":173311.04999999981,"y":2540067.8100000024}},{"attributes":{"ID":342586,"DIS_CODE":0,"TOWNNAME":"玉井區","LI":"望明里","LIN":"5鄰","STREET":" ","SECT":" ","MAREA":"望明","LANE":" ","ALLEY":" ","HOUSE_NO":"５５之１號","E_COORD97":194199.63,"N_COORD97":2556131.29,"ADDRESS":"望明５５之１號","OBJECTID":342577},"geometry":{"x":194199.63000000175,"y":2556131.2899999991}},{"attributes":{"ID":342587,"DIS_CODE":0,"TOWNNAME":"仁德區","LI":"仁德里","LIN":"1鄰","STREET":"中正路","SECT":"二段","MAREA":" ","LANE":"６７９巷","ALLEY":" ","HOUSE_NO":"５７號","E_COORD97":173322.57999999999,"N_COORD97":2540062.0600000001,"ADDRESS":"中正路二段６７９巷５７號","OBJECTID":342578},"geometry":{"x":173322.58000000101,"y":2540062.0600000024}},{"attributes":{"ID":342588,"DIS_CODE":0,"TOWNNAME":"玉井區","LI":"望明里","LIN":"5鄰","STREET":" ","SECT":" ","MAREA":"望明","LANE":" ","ALLEY":" ","HOUSE_NO":"５０之８號","E_COORD97":194141.34,"N_COORD97":2556040.2999999998,"ADDRESS":"望明５０之８號","OBJECTID":342579},"geometry":{"x":194141.33999999985,"y":2556040.3000000007}},{"attributes":{"ID":342589,"DIS_CODE":0,"TOWNNAME":"仁德區","LI":"仁德里","LIN":"1鄰","STREET":"中正路","SECT":"二段","MAREA":" ","LANE":"６７９巷","ALLEY":" ","HOUSE_NO":"７號","E_COORD97":173388.79999999999,"N_COORD97":2540042.77,"ADDRESS":"中正路二段６７９巷７號","OBJECTID":342580},"geometry":{"x":173388.80000000075,"y":2540042.7700000014}},{"attributes":{"ID":342590,"DIS_CODE":0,"TOWNNAME":"仁德區","LI":"仁德里","LIN":"1鄰","STREET":"中正路","SECT":"二段","MAREA":" ","LANE":"６７９巷","ALLEY":" ","HOUSE_NO":"６１號","E_COORD97":173312.54999999999,"N_COORD97":2540071.3100000001,"ADDRESS":"中正路二段６７９巷６１號","OBJECTID":342581},"geometry":{"x":173312.55000000075,"y":2540071.3100000005}},{"attributes":{"ID":342591,"DIS_CODE":0,"TOWNNAME":"玉井區","LI":"望明里","LIN":"5鄰","STREET":" ","SECT":" ","MAREA":"望明","LANE":" ","ALLEY":" ","HOUSE_NO":"５５之２號","E_COORD97":194195.42999999999,"N_COORD97":2556132.29,"ADDRESS":"望明５５之２號","OBJECTID":342582},"geometry":{"x":194195.4299999997,"y":2556132.290000001}},{"attributes":{"ID":342592,"DIS_CODE":0,"TOWNNAME":"玉井區","LI":"望明里","LIN":"5鄰","STREET":" ","SECT":" ","MAREA":"望明","LANE":" ","ALLEY":" ","HOUSE_NO":"５３之５號","E_COORD97":194028.04000000001,"N_COORD97":2556097.29,"ADDRESS":"望明５３之５號","OBJECTID":342583},"geometry":{"x":194028.04000000097,"y":2556097.2899999991}},{"attributes":{"ID":342593,"DIS_CODE":0,"TOWNNAME":"安南區","LI":"淵東里","LIN":"1鄰","STREET":"海佃路","SECT":"四段","MAREA":" ","LANE":"３巷","ALLEY":" ","HOUSE_NO":"２號","E_COORD97":165756.76999999999,"N_COORD97":2550465.4199999999,"ADDRESS":"海佃路四段３巷２號","OBJECTID":342584},"geometry":{"x":165756.77000000048,"y":2550465.4199999999}},{"attributes":{"ID":342594,"DIS_CODE":0,"TOWNNAME":"安南區","LI":"淵東里","LIN":"1鄰","STREET":"海佃路","SECT":"四段","MAREA":" ","LANE":"３巷","ALLEY":" ","HOUSE_NO":"６號","E_COORD97":165756.56,"N_COORD97":2550458.8100000001,"ADDRESS":"海佃路四段３巷６號","OBJECTID":342585},"geometry":{"x":165756.56000000052,"y":2550458.8100000024}},{"attributes":{"ID":342595,"DIS_CODE":0,"TOWNNAME":"安南區","LI":"淵東里","LIN":"1鄰","STREET":"海佃路","SECT":"四段","MAREA":" ","LANE":"３巷","ALLEY":" ","HOUSE_NO":"８號","E_COORD97":165753.42999999999,"N_COORD97":2550455.54,"ADDRESS":"海佃路四段３巷８號","OBJECTID":342586},"geometry":{"x":165753.4299999997,"y":2550455.540000001}},{"attributes":{"ID":342596,"DIS_CODE":0,"TOWNNAME":"安南區","LI":"淵東里","LIN":"1鄰","STREET":"海佃路","SECT":"四段","MAREA":" ","LANE":"３巷","ALLEY":" ","HOUSE_NO":"１０號","E_COORD97":165750.31,"N_COORD97":2550452.2599999998,"ADDRESS":"海佃路四段３巷１０號","OBJECTID":342587},"geometry":{"x":165750.30999999959,"y":2550452.2599999998}},{"attributes":{"ID":342597,"DIS_CODE":0,"TOWNNAME":"安南區","LI":"淵東里","LIN":"1鄰","STREET":"海佃路","SECT":"四段","MAREA":" ","LANE":"３巷","ALLEY":" ","HOUSE_NO":"１２號","E_COORD97":165747.19,"N_COORD97":2550448.98,"ADDRESS":"海佃路四段３巷１２號","OBJECTID":342588},"geometry":{"x":165747.19000000041,"y":2550448.9800000004}},{"attributes":{"ID":342598,"DIS_CODE":0,"TOWNNAME":"安南區","LI":"淵東里","LIN":"1鄰","STREET":"海佃路","SECT":"四段","MAREA":" ","LANE":"３巷","ALLEY":" ","HOUSE_NO":"１６號","E_COORD97":165744.07000000001,"N_COORD97":2550445.71,"ADDRESS":"海佃路四段３巷１６號","OBJECTID":342589},"geometry":{"x":165744.07000000123,"y":2550445.7100000028}},{"attributes":{"ID":342599,"DIS_CODE":0,"TOWNNAME":"安南區","LI":"淵東里","LIN":"1鄰","STREET":"海佃路","SECT":"四段","MAREA":" ","LANE":"３巷","ALLEY":" ","HOUSE_NO":"１８號","E_COORD97":165740.94,"N_COORD97":2550442.4300000002,"ADDRESS":"海佃路四段３巷１８號","OBJECTID":342590},"geometry":{"x":165740.94000000227,"y":2550442.4300000034}},{"attributes":{"ID":342600,"DIS_CODE":0,"TOWNNAME":"玉井區","LI":"望明里","LIN":"5鄰","STREET":" ","SECT":" ","MAREA":"望明","LANE":" ","ALLEY":" ","HOUSE_NO":"５０之４號","E_COORD97":194122.54000000001,"N_COORD97":2556042.2999999998,"ADDRESS":"望明５０之４號","OBJECTID":342591},"geometry":{"x":194122.54000000097,"y":2556042.3000000026}},{"attributes":{"ID":342601,"DIS_CODE":0,"TOWNNAME":"玉井區","LI":"玉井里","LIN":"5鄰","STREET":"憲政街","SECT":" ","MAREA":" ","LANE":"９２巷","ALLEY":" ","HOUSE_NO":"１３號","E_COORD97":194441.17000000001,"N_COORD97":2558187.2599999998,"ADDRESS":"憲政街９２巷１３號","OBJECTID":342592},"geometry":{"x":194441.16999999993,"y":2558187.2600000035}},{"attributes":{"ID":342602,"DIS_CODE":0,"TOWNNAME":"歸仁區","LI":"西埔里","LIN":"5鄰","STREET":"保大路","SECT":"二段","MAREA":" ","LANE":"１７０巷","ALLEY":" ","HOUSE_NO":"７６號","E_COORD97":177161.28,"N_COORD97":2544138.25,"ADDRESS":"保大路二段１７０巷７６號","OBJECTID":342593},"geometry":{"x":177161.28000000119,"y":2544138.2500000019}},{"attributes":{"ID":342603,"DIS_CODE":0,"TOWNNAME":"歸仁區","LI":"大廟里","LIN":"5鄰","STREET":"和順路","SECT":"二段","MAREA":" ","LANE":"１５１巷","ALLEY":" ","HOUSE_NO":"３２號","E_COORD97":176149.92999999999,"N_COORD97":2543515.9500000002,"ADDRESS":"和順路二段１５１巷３２號","OBJECTID":342594},"geometry":{"x":176149.9299999997,"y":2543515.9500000011}},{"attributes":{"ID":342604,"DIS_CODE":0,"TOWNNAME":"玉井區","LI":"玉井里","LIN":"5鄰","STREET":"憲政街","SECT":" ","MAREA":" ","LANE":"９２巷","ALLEY":" ","HOUSE_NO":"１０號之８","E_COORD97":194438.64000000001,"N_COORD97":2558147.2999999998,"ADDRESS":"憲政街９２巷１０號之８","OBJECTID":342595},"geometry":{"x":194438.6400000006,"y":2558147.3000000045}},{"attributes":{"ID":342605,"DIS_CODE":0,"TOWNNAME":"玉井區","LI":"玉井里","LIN":"5鄰","STREET":"憲政街","SECT":" ","MAREA":" ","LANE":"９２巷","ALLEY":" ","HOUSE_NO":"１１號","E_COORD97":194438.57999999999,"N_COORD97":2558168.2599999998,"ADDRESS":"憲政街９２巷１１號","OBJECTID":342596},"geometry":{"x":194438.58000000007,"y":2558168.2600000016}},{"attributes":{"ID":342606,"DIS_CODE":0,"TOWNNAME":"玉井區","LI":"玉田里","LIN":"5鄰","STREET":"中正路","SECT":" ","MAREA":" ","LANE":"１９０巷","ALLEY":" ","HOUSE_NO":"１號","E_COORD97":195017.64999999999,"N_COORD97":2558192.2400000002,"ADDRESS":"中正路１９０巷１號","OBJECTID":342597},"geometry":{"x":195017.6500000013,"y":2558192.2400000021}},{"attributes":{"ID":342607,"DIS_CODE":0,"TOWNNAME":"玉井區","LI":"三埔里","LIN":"5鄰","STREET":" ","SECT":" ","MAREA":"三埔","LANE":" ","ALLEY":" ","HOUSE_NO":"４６之１號","E_COORD97":196849.42999999999,"N_COORD97":2554603.2999999998,"ADDRESS":"三埔４６之１號","OBJECTID":342598},"geometry":{"x":196849.43000000063,"y":2554603.3000000007}},{"attributes":{"ID":342608,"DIS_CODE":0,"TOWNNAME":"玉井區","LI":"三和里","LIN":"5鄰","STREET":" ","SECT":" ","MAREA":"三和","LANE":" ","ALLEY":" ","HOUSE_NO":"５５號","E_COORD97":194835.92999999999,"N_COORD97":2555464.25,"ADDRESS":"三和５５號","OBJECTID":342599},"geometry":{"x":194835.9299999997,"y":2555464.25}},{"attributes":{"ID":342609,"DIS_CODE":0,"TOWNNAME":"玉井區","LI":"玉井里","LIN":"5鄰","STREET":"憲政街","SECT":" ","MAREA":" ","LANE":"９２巷","ALLEY":" ","HOUSE_NO":"１０號之６","E_COORD97":194437.31,"N_COORD97":2558137.2999999998,"ADDRESS":"憲政街９２巷１０號之６","OBJECTID":342600},"geometry":{"x":194437.31000000052,"y":2558137.3000000045}}]}