{"displayFieldName":"TOWNNAME","fieldAliases":{"ID":"ID","DIS_CODE":"DIS_CODE","TOWNNAME":"TOWNNAME","LI":"LI","LIN":"LIN","STREET":"STREET","SECT":"SECT","MAREA":"MAREA","LANE":"LANE","ALLEY":"ALLEY","HOUSE_NO":"HOUSE_NO","E_COORD97":"E_COORD97","N_COORD97":"N_COORD97","ADDRESS":"ADDRESS","OBJECTID":"OBJECTID"},"geometryType":"esriGeometryPoint","spatialReference":{"wkid":102443,"latestWkid":3826},"fields":[{"name":"ID","type":"esriFieldTypeDouble","alias":"ID"},{"name":"DIS_CODE","type":"esriFieldTypeInteger","alias":"DIS_CODE"},{"name":"TOWNNAME","type":"esriFieldTypeString","alias":"TOWNNAME","length":8},{"name":"LI","type":"esriFieldTypeString","alias":"LI","length":8},{"name":"LIN","type":"esriFieldTypeString","alias":"LIN","length":12},{"name":"STREET","type":"esriFieldTypeString","alias":"STREET","length":20},{"name":"SECT","type":"esriFieldTypeString","alias":"SECT","length":8},{"name":"MAREA","type":"esriFieldTypeString","alias":"MAREA","length":12},{"name":"LANE","type":"esriFieldTypeString","alias":"LANE","length":10},{"name":"ALLEY","type":"esriFieldTypeString","alias":"ALLEY","length":10},{"name":"HOUSE_NO","type":"esriFieldTypeString","alias":"HOUSE_NO","length":20},{"name":"E_COORD97","type":"esriFieldTypeDouble","alias":"E_COORD97"},{"name":"N_COORD97","type":"esriFieldTypeDouble","alias":"N_COORD97"},{"name":"ADDRESS","type":"esriFieldTypeString","alias":"ADDRESS","length":50},{"name":"OBJECTID","type":"esriFieldTypeOID","alias":"OBJECTID"}],"features":[{"attributes":{"ID":532628,"DIS_CODE":0,"TOWNNAME":"安平區","LI":"育平里","LIN":"30鄰","STREET":"育平路","SECT":" ","MAREA":" ","LANE":" ","ALLEY":" ","HOUSE_NO":"１６６號四樓之１６","E_COORD97":164591.47,"N_COORD97":2543236.0899999999,"ADDRESS":"育平路１６６號四樓之１６","OBJECTID":532601},"geometry":{"x":164591.46999999974,"y":2543236.0899999999}},{"attributes":{"ID":532629,"DIS_CODE":0,"TOWNNAME":"安平區","LI":"育平里","LIN":"30鄰","STREET":"育平路","SECT":" ","MAREA":" ","LANE":" ","ALLEY":" ","HOUSE_NO":"１６６號四樓之１７","E_COORD97":164591.47,"N_COORD97":2543236.0899999999,"ADDRESS":"育平路１６６號四樓之１７","OBJECTID":532602},"geometry":{"x":164591.46999999974,"y":2543236.0899999999}},{"attributes":{"ID":532630,"DIS_CODE":0,"TOWNNAME":"新營區","LI":"民生里","LIN":"30鄰","STREET":"民治路","SECT":" ","MAREA":" ","LANE":" ","ALLEY":" ","HOUSE_NO":"２８３號十一樓","E_COORD97":178757.62,"N_COORD97":2578271.9100000001,"ADDRESS":"民治路２８３號十一樓","OBJECTID":532603},"geometry":{"x":178757.62000000011,"y":2578271.910000002}},{"attributes":{"ID":532631,"DIS_CODE":0,"TOWNNAME":"新營區","LI":"民生里","LIN":"30鄰","STREET":"民治路","SECT":" ","MAREA":" ","LANE":" ","ALLEY":" ","HOUSE_NO":"２７５號九樓","E_COORD97":178756.37,"N_COORD97":2578271.9100000001,"ADDRESS":"民治路２７５號九樓","OBJECTID":532604},"geometry":{"x":178756.37000000011,"y":2578271.910000002}},{"attributes":{"ID":532632,"DIS_CODE":0,"TOWNNAME":"新營區","LI":"民生里","LIN":"30鄰","STREET":"民治路","SECT":" ","MAREA":" ","LANE":" ","ALLEY":" ","HOUSE_NO":"２７５號十四樓","E_COORD97":178757.62,"N_COORD97":2578271.9100000001,"ADDRESS":"民治路２７５號十四樓","OBJECTID":532605},"geometry":{"x":178757.62000000011,"y":2578271.910000002}},{"attributes":{"ID":532633,"DIS_CODE":0,"TOWNNAME":"新營區","LI":"民生里","LIN":"30鄰","STREET":"民治路","SECT":" ","MAREA":" ","LANE":" ","ALLEY":" ","HOUSE_NO":"２７５號七樓","E_COORD97":178756.37,"N_COORD97":2578271.9100000001,"ADDRESS":"民治路２７５號七樓","OBJECTID":532606},"geometry":{"x":178756.37000000011,"y":2578271.910000002}},{"attributes":{"ID":532634,"DIS_CODE":0,"TOWNNAME":"永康區","LI":"埔園里","LIN":"23鄰","STREET":"四維街","SECT":" ","MAREA":" ","LANE":" ","ALLEY":" ","HOUSE_NO":"１０號","E_COORD97":173457.51999999999,"N_COORD97":2547946.0699999998,"ADDRESS":"四維街１０號","OBJECTID":532607},"geometry":{"x":173457.51999999862,"y":2547946.0700000003}},{"attributes":{"ID":532635,"DIS_CODE":0,"TOWNNAME":"新營區","LI":"民生里","LIN":"30鄰","STREET":"民治路","SECT":" ","MAREA":" ","LANE":" ","ALLEY":" ","HOUSE_NO":"２８１號六樓","E_COORD97":178756.37,"N_COORD97":2578271.9100000001,"ADDRESS":"民治路２８１號六樓","OBJECTID":532608},"geometry":{"x":178756.37000000011,"y":2578271.910000002}},{"attributes":{"ID":532636,"DIS_CODE":0,"TOWNNAME":"新營區","LI":"民生里","LIN":"30鄰","STREET":"民治路","SECT":" ","MAREA":" ","LANE":" ","ALLEY":" ","HOUSE_NO":"２８１號五樓","E_COORD97":178756.37,"N_COORD97":2578271.9100000001,"ADDRESS":"民治路２８１號五樓","OBJECTID":532609},"geometry":{"x":178756.37000000011,"y":2578271.910000002}},{"attributes":{"ID":532637,"DIS_CODE":0,"TOWNNAME":"新營區","LI":"忠政里","LIN":"30鄰","STREET":"府西路","SECT":" ","MAREA":" ","LANE":" ","ALLEY":" ","HOUSE_NO":"６３號之２","E_COORD97":179807.23999999999,"N_COORD97":2579108.5899999999,"ADDRESS":"府西路６３號之２","OBJECTID":532610},"geometry":{"x":179807.24000000115,"y":2579108.5900000017}},{"attributes":{"ID":532638,"DIS_CODE":0,"TOWNNAME":"新營區","LI":"民生里","LIN":"30鄰","STREET":"民治路","SECT":" ","MAREA":" ","LANE":" ","ALLEY":" ","HOUSE_NO":"２８１號十二樓","E_COORD97":178757.62,"N_COORD97":2578271.9100000001,"ADDRESS":"民治路２８１號十二樓","OBJECTID":532611},"geometry":{"x":178757.62000000011,"y":2578271.910000002}},{"attributes":{"ID":532639,"DIS_CODE":0,"TOWNNAME":"新營區","LI":"民生里","LIN":"30鄰","STREET":"民治路","SECT":" ","MAREA":" ","LANE":" ","ALLEY":" ","HOUSE_NO":"２８１號十一樓","E_COORD97":178757.62,"N_COORD97":2578271.9100000001,"ADDRESS":"民治路２８１號十一樓","OBJECTID":532612},"geometry":{"x":178757.62000000011,"y":2578271.910000002}},{"attributes":{"ID":532640,"DIS_CODE":0,"TOWNNAME":"新營區","LI":"民生里","LIN":"30鄰","STREET":"民治路","SECT":" ","MAREA":" ","LANE":" ","ALLEY":" ","HOUSE_NO":"２７９號十二樓","E_COORD97":178757.62,"N_COORD97":2578271.9100000001,"ADDRESS":"民治路２７９號十二樓","OBJECTID":532613},"geometry":{"x":178757.62000000011,"y":2578271.910000002}},{"attributes":{"ID":532641,"DIS_CODE":0,"TOWNNAME":"新營區","LI":"民生里","LIN":"30鄰","STREET":"民治路","SECT":" ","MAREA":" ","LANE":" ","ALLEY":" ","HOUSE_NO":"２７９號十四樓","E_COORD97":178757.62,"N_COORD97":2578271.9100000001,"ADDRESS":"民治路２７９號十四樓","OBJECTID":532614},"geometry":{"x":178757.62000000011,"y":2578271.910000002}},{"attributes":{"ID":532642,"DIS_CODE":0,"TOWNNAME":"新營區","LI":"民生里","LIN":"30鄰","STREET":"民治路","SECT":" ","MAREA":" ","LANE":" ","ALLEY":" ","HOUSE_NO":"２７９號四樓","E_COORD97":178756.37,"N_COORD97":2578271.9100000001,"ADDRESS":"民治路２７９號四樓","OBJECTID":532615},"geometry":{"x":178756.37000000011,"y":2578271.910000002}},{"attributes":{"ID":532643,"DIS_CODE":0,"TOWNNAME":"新營區","LI":"民生里","LIN":"30鄰","STREET":"民治路","SECT":" ","MAREA":" ","LANE":" ","ALLEY":" ","HOUSE_NO":"２７９號十樓","E_COORD97":178756.37,"N_COORD97":2578271.9100000001,"ADDRESS":"民治路２７９號十樓","OBJECTID":532616},"geometry":{"x":178756.37000000011,"y":2578271.910000002}},{"attributes":{"ID":532644,"DIS_CODE":0,"TOWNNAME":"新營區","LI":"民生里","LIN":"30鄰","STREET":"民治路","SECT":" ","MAREA":" ","LANE":" ","ALLEY":" ","HOUSE_NO":"２７９號十三樓","E_COORD97":178757.62,"N_COORD97":2578271.9100000001,"ADDRESS":"民治路２７９號十三樓","OBJECTID":532617},"geometry":{"x":178757.62000000011,"y":2578271.910000002}},{"attributes":{"ID":532645,"DIS_CODE":0,"TOWNNAME":"新營區","LI":"民生里","LIN":"30鄰","STREET":"民治路","SECT":" ","MAREA":" ","LANE":" ","ALLEY":" ","HOUSE_NO":"２７９號九樓","E_COORD97":178756.37,"N_COORD97":2578271.9100000001,"ADDRESS":"民治路２７９號九樓","OBJECTID":532618},"geometry":{"x":178756.37000000011,"y":2578271.910000002}},{"attributes":{"ID":532646,"DIS_CODE":0,"TOWNNAME":"新營區","LI":"民生里","LIN":"30鄰","STREET":"民治路","SECT":" ","MAREA":" ","LANE":" ","ALLEY":" ","HOUSE_NO":"２８１號八樓","E_COORD97":178756.37,"N_COORD97":2578271.9100000001,"ADDRESS":"民治路２８１號八樓","OBJECTID":532619},"geometry":{"x":178756.37000000011,"y":2578271.910000002}},{"attributes":{"ID":532647,"DIS_CODE":0,"TOWNNAME":"新營區","LI":"民生里","LIN":"30鄰","STREET":"民治路","SECT":" ","MAREA":" ","LANE":" ","ALLEY":" ","HOUSE_NO":"２７９號七樓","E_COORD97":178756.37,"N_COORD97":2578271.9100000001,"ADDRESS":"民治路２７９號七樓","OBJECTID":532620},"geometry":{"x":178756.37000000011,"y":2578271.910000002}},{"attributes":{"ID":532648,"DIS_CODE":0,"TOWNNAME":"永康區","LI":"永康里","LIN":"30鄰","STREET":"永大路","SECT":"二段","MAREA":" ","LANE":" ","ALLEY":" ","HOUSE_NO":"９７９號","E_COORD97":174227.54999999999,"N_COORD97":2547177.1200000001,"ADDRESS":"永大路二段９７９號","OBJECTID":532621},"geometry":{"x":174227.55000000075,"y":2547177.120000001}},{"attributes":{"ID":532649,"DIS_CODE":0,"TOWNNAME":"永康區","LI":"永康里","LIN":"30鄰","STREET":"永大路","SECT":"二段","MAREA":" ","LANE":" ","ALLEY":" ","HOUSE_NO":"９１７號","E_COORD97":174242.19,"N_COORD97":2547073.6400000001,"ADDRESS":"永大路二段９１７號","OBJECTID":532622},"geometry":{"x":174242.19000000227,"y":2547073.6400000006}},{"attributes":{"ID":532650,"DIS_CODE":0,"TOWNNAME":"佳里區","LI":"安西里","LIN":"30鄰","STREET":"佳西路","SECT":" ","MAREA":" ","LANE":" ","ALLEY":" ","HOUSE_NO":"５６９號","E_COORD97":164922.85999999999,"N_COORD97":2563264.8999999999,"ADDRESS":"佳西路５６９號","OBJECTID":532623},"geometry":{"x":164922.86000000127,"y":2563264.9000000004}},{"attributes":{"ID":532651,"DIS_CODE":0,"TOWNNAME":"佳里區","LI":"安西里","LIN":"30鄰","STREET":"佳西路","SECT":" ","MAREA":" ","LANE":" ","ALLEY":" ","HOUSE_NO":"５７３號","E_COORD97":164918.66,"N_COORD97":2563289.29,"ADDRESS":"佳西路５７３號","OBJECTID":532624},"geometry":{"x":164918.66000000201,"y":2563289.290000001}},{"attributes":{"ID":532652,"DIS_CODE":0,"TOWNNAME":"佳里區","LI":"安西里","LIN":"30鄰","STREET":"佳西路","SECT":" ","MAREA":" ","LANE":" ","ALLEY":" ","HOUSE_NO":"５８１號","E_COORD97":164950.44,"N_COORD97":2563319.5699999998,"ADDRESS":"佳西路５８１號","OBJECTID":532625},"geometry":{"x":164950.44000000041,"y":2563319.5700000022}},{"attributes":{"ID":532653,"DIS_CODE":0,"TOWNNAME":"佳里區","LI":"安西里","LIN":"30鄰","STREET":"佳西路","SECT":" ","MAREA":" ","LANE":" ","ALLEY":" ","HOUSE_NO":"５８３號","E_COORD97":164962.13,"N_COORD97":2563321.8900000001,"ADDRESS":"佳西路５８３號","OBJECTID":532626},"geometry":{"x":164962.12999999989,"y":2563321.8900000025}},{"attributes":{"ID":532654,"DIS_CODE":0,"TOWNNAME":"佳里區","LI":"安西里","LIN":"30鄰","STREET":"佳西路","SECT":" ","MAREA":" ","LANE":" ","ALLEY":" ","HOUSE_NO":"５８５號","E_COORD97":164974.32000000001,"N_COORD97":2563292.0600000001,"ADDRESS":"佳西路５８５號","OBJECTID":532627},"geometry":{"x":164974.32000000123,"y":2563292.0600000042}},{"attributes":{"ID":532655,"DIS_CODE":0,"TOWNNAME":"佳里區","LI":"安西里","LIN":"30鄰","STREET":"佳西路","SECT":" ","MAREA":" ","LANE":" ","ALLEY":" ","HOUSE_NO":"５８７號","E_COORD97":165006.56,"N_COORD97":2563283.48,"ADDRESS":"佳西路５８７號","OBJECTID":532628},"geometry":{"x":165006.55999999959,"y":2563283.4800000023}},{"attributes":{"ID":532656,"DIS_CODE":0,"TOWNNAME":"佳里區","LI":"建南里","LIN":"30鄰","STREET":"佳南路","SECT":" ","MAREA":" ","LANE":" ","ALLEY":" ","HOUSE_NO":"４２２號","E_COORD97":165657.57000000001,"N_COORD97":2560947.7000000002,"ADDRESS":"佳南路４２２號","OBJECTID":532629},"geometry":{"x":165657.57000000123,"y":2560947.7000000011}},{"attributes":{"ID":532657,"DIS_CODE":0,"TOWNNAME":"佳里區","LI":"建南里","LIN":"30鄰","STREET":"佳南路","SECT":" ","MAREA":" ","LANE":" ","ALLEY":" ","HOUSE_NO":"４２６號","E_COORD97":165651.62,"N_COORD97":2560947.7799999998,"ADDRESS":"佳南路４２６號","OBJECTID":532630},"geometry":{"x":165651.62000000104,"y":2560947.7800000012}},{"attributes":{"ID":532658,"DIS_CODE":0,"TOWNNAME":"佳里區","LI":"建南里","LIN":"30鄰","STREET":"佳南路","SECT":" ","MAREA":" ","LANE":" ","ALLEY":" ","HOUSE_NO":"４２８號","E_COORD97":165647.29999999999,"N_COORD97":2560947.7000000002,"ADDRESS":"佳南路４２８號","OBJECTID":532631},"geometry":{"x":165647.29999999981,"y":2560947.7000000011}},{"attributes":{"ID":532659,"DIS_CODE":0,"TOWNNAME":"佳里區","LI":"建南里","LIN":"30鄰","STREET":"佳南路","SECT":" ","MAREA":" ","LANE":" ","ALLEY":" ","HOUSE_NO":"４３０號","E_COORD97":165643.78,"N_COORD97":2560947.3199999998,"ADDRESS":"佳南路４３０號","OBJECTID":532632},"geometry":{"x":165643.78000000119,"y":2560947.320000004}},{"attributes":{"ID":532660,"DIS_CODE":0,"TOWNNAME":"佳里區","LI":"建南里","LIN":"30鄰","STREET":"佳南路","SECT":" ","MAREA":" ","LANE":" ","ALLEY":" ","HOUSE_NO":"４３２號","E_COORD97":165639.54999999999,"N_COORD97":2560947.25,"ADDRESS":"佳南路４３２號","OBJECTID":532633},"geometry":{"x":165639.55000000168,"y":2560947.2500000037}},{"attributes":{"ID":532661,"DIS_CODE":0,"TOWNNAME":"佳里區","LI":"建南里","LIN":"30鄰","STREET":"佳南路","SECT":" ","MAREA":" ","LANE":" ","ALLEY":" ","HOUSE_NO":"４３６號","E_COORD97":165635.53,"N_COORD97":2560947.2799999998,"ADDRESS":"佳南路４３６號","OBJECTID":532634},"geometry":{"x":165635.53000000119,"y":2560947.2800000012}},{"attributes":{"ID":532662,"DIS_CODE":0,"TOWNNAME":"佳里區","LI":"建南里","LIN":"30鄰","STREET":"佳南路","SECT":" ","MAREA":" ","LANE":" ","ALLEY":" ","HOUSE_NO":"４３８號","E_COORD97":165630.98999999999,"N_COORD97":2560947.7999999998,"ADDRESS":"佳南路４３８號","OBJECTID":532635},"geometry":{"x":165630.99000000022,"y":2560947.8000000045}},{"attributes":{"ID":532663,"DIS_CODE":0,"TOWNNAME":"佳里區","LI":"建南里","LIN":"30鄰","STREET":"佳南路","SECT":" ","MAREA":" ","LANE":" ","ALLEY":" ","HOUSE_NO":"４４０號","E_COORD97":165621.88,"N_COORD97":2560948.3399999999,"ADDRESS":"佳南路４４０號","OBJECTID":532636},"geometry":{"x":165621.87999999989,"y":2560948.3399999999}},{"attributes":{"ID":532664,"DIS_CODE":0,"TOWNNAME":"永康區","LI":"永康里","LIN":"30鄰","STREET":"永明街","SECT":" ","MAREA":" ","LANE":" ","ALLEY":" ","HOUSE_NO":"１４２號","E_COORD97":174219.20000000001,"N_COORD97":2547196.6400000001,"ADDRESS":"永明街１４２號","OBJECTID":532637},"geometry":{"x":174219.20000000019,"y":2547196.6400000006}},{"attributes":{"ID":532665,"DIS_CODE":0,"TOWNNAME":"永康區","LI":"永康里","LIN":"30鄰","STREET":"永大路","SECT":"二段","MAREA":" ","LANE":" ","ALLEY":" ","HOUSE_NO":"９０５號","E_COORD97":174247.20999999999,"N_COORD97":2547034.98,"ADDRESS":"永大路二段９０５號","OBJECTID":532638},"geometry":{"x":174247.21000000089,"y":2547034.9800000004}},{"attributes":{"ID":532666,"DIS_CODE":0,"TOWNNAME":"永康區","LI":"龍潭里","LIN":"30鄰","STREET":"龍潭街","SECT":" ","MAREA":" ","LANE":" ","ALLEY":" ","HOUSE_NO":"９０號","E_COORD97":174801.67999999999,"N_COORD97":2547956.6699999999,"ADDRESS":"龍潭街９０號","OBJECTID":532639},"geometry":{"x":174801.68000000063,"y":2547956.6700000018}},{"attributes":{"ID":532667,"DIS_CODE":0,"TOWNNAME":"永康區","LI":"永康里","LIN":"30鄰","STREET":"永大路","SECT":"二段","MAREA":" ","LANE":" ","ALLEY":" ","HOUSE_NO":"９０１號","E_COORD97":174250.37,"N_COORD97":2547023.4700000002,"ADDRESS":"永大路二段９０１號","OBJECTID":532640},"geometry":{"x":174250.37000000011,"y":2547023.4700000025}},{"attributes":{"ID":532668,"DIS_CODE":0,"TOWNNAME":"佳里區","LI":"安西里","LIN":"30鄰","STREET":"忠孝路","SECT":" ","MAREA":" ","LANE":" ","ALLEY":" ","HOUSE_NO":"３６５號","E_COORD97":164983.76000000001,"N_COORD97":2563334.7000000002,"ADDRESS":"忠孝路３６５號","OBJECTID":532641},"geometry":{"x":164983.76000000164,"y":2563334.7000000011}},{"attributes":{"ID":532669,"DIS_CODE":0,"TOWNNAME":"佳里區","LI":"安西里","LIN":"30鄰","STREET":"忠孝路","SECT":" ","MAREA":" ","LANE":" ","ALLEY":" ","HOUSE_NO":"３７１號","E_COORD97":164969.31,"N_COORD97":2563346.6600000001,"ADDRESS":"忠孝路３７１號","OBJECTID":532642},"geometry":{"x":164969.30999999959,"y":2563346.660000002}},{"attributes":{"ID":532670,"DIS_CODE":0,"TOWNNAME":"佳里區","LI":"安西里","LIN":"30鄰","STREET":"忠孝路","SECT":" ","MAREA":" ","LANE":" ","ALLEY":" ","HOUSE_NO":"３７３號之２","E_COORD97":164944.10999999999,"N_COORD97":2563369.6400000001,"ADDRESS":"忠孝路３７３號之２","OBJECTID":532643},"geometry":{"x":164944.11000000034,"y":2563369.6400000043}},{"attributes":{"ID":532671,"DIS_CODE":0,"TOWNNAME":"佳里區","LI":"安西里","LIN":"30鄰","STREET":"忠孝路","SECT":" ","MAREA":" ","LANE":" ","ALLEY":" ","HOUSE_NO":"３７３號","E_COORD97":164966.01999999999,"N_COORD97":2563348.7000000002,"ADDRESS":"忠孝路３７３號","OBJECTID":532644},"geometry":{"x":164966.01999999955,"y":2563348.7000000011}},{"attributes":{"ID":532672,"DIS_CODE":0,"TOWNNAME":"永康區","LI":"永康里","LIN":"30鄰","STREET":"永康街","SECT":" ","MAREA":" ","LANE":" ","ALLEY":" ","HOUSE_NO":"２４１號","E_COORD97":174222.04000000001,"N_COORD97":2547047.0099999998,"ADDRESS":"永康街２４１號","OBJECTID":532645},"geometry":{"x":174222.04000000004,"y":2547047.0099999998}},{"attributes":{"ID":532673,"DIS_CODE":0,"TOWNNAME":"新營區","LI":"新南里","LIN":"30鄰","STREET":"明清街","SECT":" ","MAREA":" ","LANE":" ","ALLEY":" ","HOUSE_NO":"２３之３號","E_COORD97":178279.41,"N_COORD97":2578771.4300000002,"ADDRESS":"明清街２３號","OBJECTID":532646},"geometry":{"x":178279.41000000015,"y":2578771.4299999997}},{"attributes":{"ID":532674,"DIS_CODE":0,"TOWNNAME":"新營區","LI":"三仙里","LIN":"30鄰","STREET":"育德九街","SECT":" ","MAREA":" ","LANE":" ","ALLEY":" ","HOUSE_NO":"２５號","E_COORD97":179523.03,"N_COORD97":2579169.6800000002,"ADDRESS":"育德九街２５號","OBJECTID":532647},"geometry":{"x":179523.03000000026,"y":2579169.6799999997}},{"attributes":{"ID":532675,"DIS_CODE":0,"TOWNNAME":"新營區","LI":"新南里","LIN":"30鄰","STREET":"長榮路","SECT":"二段","MAREA":" ","LANE":" ","ALLEY":" ","HOUSE_NO":"９５７號","E_COORD97":178222.20999999999,"N_COORD97":2578973.27,"ADDRESS":"長榮路二段９５７號","OBJECTID":532648},"geometry":{"x":178222.21000000089,"y":2578973.2700000033}},{"attributes":{"ID":532676,"DIS_CODE":0,"TOWNNAME":"新營區","LI":"新北里","LIN":"30鄰","STREET":"新北四街","SECT":" ","MAREA":" ","LANE":" ","ALLEY":" ","HOUSE_NO":"４７號","E_COORD97":178747.82999999999,"N_COORD97":2578975.1600000001,"ADDRESS":"新北四街４７號","OBJECTID":532649},"geometry":{"x":178747.83000000007,"y":2578975.160000002}},{"attributes":{"ID":532677,"DIS_CODE":0,"TOWNNAME":"新營區","LI":"王公里","LIN":"30鄰","STREET":"民族路","SECT":" ","MAREA":" ","LANE":" ","ALLEY":" ","HOUSE_NO":"２６６號","E_COORD97":180397.56,"N_COORD97":2579562.02,"ADDRESS":"民族路２６６號","OBJECTID":532650},"geometry":{"x":180397.56000000145,"y":2579562.0200000014}},{"attributes":{"ID":532678,"DIS_CODE":0,"TOWNNAME":"新營區","LI":"三仙里","LIN":"30鄰","STREET":"育德九街","SECT":" ","MAREA":" ","LANE":" ","ALLEY":" ","HOUSE_NO":"２２號","E_COORD97":179534.35000000001,"N_COORD97":2579184.02,"ADDRESS":"育德九街２２號","OBJECTID":532651},"geometry":{"x":179534.35000000149,"y":2579184.0199999996}},{"attributes":{"ID":532679,"DIS_CODE":0,"TOWNNAME":"新營區","LI":"忠政里","LIN":"30鄰","STREET":"府西路","SECT":" ","MAREA":" ","LANE":" ","ALLEY":" ","HOUSE_NO":"７５號之１","E_COORD97":179785.82000000001,"N_COORD97":2579144.1299999999,"ADDRESS":"府西路７５號之１","OBJECTID":532652},"geometry":{"x":179785.8200000003,"y":2579144.1300000008}},{"attributes":{"ID":532680,"DIS_CODE":0,"TOWNNAME":"新營區","LI":"新南里","LIN":"30鄰","STREET":"明清三街","SECT":" ","MAREA":" ","LANE":" ","ALLEY":" ","HOUSE_NO":"２７１號","E_COORD97":178175.66,"N_COORD97":2578847.25,"ADDRESS":"明清三街２７１號","OBJECTID":532653},"geometry":{"x":178175.66000000108,"y":2578847.25}},{"attributes":{"ID":532681,"DIS_CODE":0,"TOWNNAME":"新營區","LI":"新北里","LIN":"30鄰","STREET":"新北街","SECT":" ","MAREA":" ","LANE":" ","ALLEY":" ","HOUSE_NO":"１６８之３號","E_COORD97":178677.88,"N_COORD97":2578978.8799999999,"ADDRESS":"新北街１６８之３號","OBJECTID":532654},"geometry":{"x":178677.87999999989,"y":2578978.8800000027}},{"attributes":{"ID":532682,"DIS_CODE":0,"TOWNNAME":"玉井區","LI":"玉田里","LIN":"30鄰","STREET":"仁愛街","SECT":" ","MAREA":" ","LANE":" ","ALLEY":" ","HOUSE_NO":"１０號","E_COORD97":195535.14000000001,"N_COORD97":2557603.2799999998,"ADDRESS":"仁愛街１０號","OBJECTID":532655},"geometry":{"x":195535.14000000153,"y":2557603.2799999975}},{"attributes":{"ID":532683,"DIS_CODE":0,"TOWNNAME":"新營區","LI":"忠政里","LIN":"30鄰","STREET":"府西路","SECT":" ","MAREA":" ","LANE":" ","ALLEY":" ","HOUSE_NO":"１０７號","E_COORD97":179799.73999999999,"N_COORD97":2579251.4300000002,"ADDRESS":"府西路１０７號","OBJECTID":532656},"geometry":{"x":179799.74000000022,"y":2579251.4300000016}},{"attributes":{"ID":532684,"DIS_CODE":0,"TOWNNAME":"新營區","LI":"新北里","LIN":"30鄰","STREET":"新北四街","SECT":" ","MAREA":" ","LANE":" ","ALLEY":" ","HOUSE_NO":"１２號","E_COORD97":178745.38,"N_COORD97":2578907.6099999999,"ADDRESS":"新北四街１２號","OBJECTID":532657},"geometry":{"x":178745.37999999989,"y":2578907.6100000013}},{"attributes":{"ID":532685,"DIS_CODE":0,"TOWNNAME":"新營區","LI":"王公里","LIN":"30鄰","STREET":"民族路","SECT":" ","MAREA":" ","LANE":" ","ALLEY":" ","HOUSE_NO":"２６２號","E_COORD97":180395.47,"N_COORD97":2579552.0600000001,"ADDRESS":"民族路２６２號","OBJECTID":532658},"geometry":{"x":180395.47000000067,"y":2579552.0600000042}},{"attributes":{"ID":532686,"DIS_CODE":0,"TOWNNAME":"新營區","LI":"民榮里","LIN":"30鄰","STREET":"太子路","SECT":" ","MAREA":" ","LANE":" ","ALLEY":" ","HOUSE_NO":"１２０號","E_COORD97":178111.09,"N_COORD97":2577990.3799999999,"ADDRESS":"太子路１２０號","OBJECTID":532659},"geometry":{"x":178111.09000000078,"y":2577990.3800000008}},{"attributes":{"ID":532687,"DIS_CODE":0,"TOWNNAME":"新營區","LI":"民榮里","LIN":"30鄰","STREET":"太子路","SECT":" ","MAREA":" ","LANE":" ","ALLEY":" ","HOUSE_NO":"１２２號","E_COORD97":178108.01999999999,"N_COORD97":2577989.29,"ADDRESS":"太子路１２２號","OBJECTID":532660},"geometry":{"x":178108.02000000048,"y":2577989.2899999972}},{"attributes":{"ID":532688,"DIS_CODE":0,"TOWNNAME":"新營區","LI":"民榮里","LIN":"30鄰","STREET":"太子路","SECT":" ","MAREA":" ","LANE":" ","ALLEY":" ","HOUSE_NO":"１３２號","E_COORD97":178076.22,"N_COORD97":2577971.73,"ADDRESS":"太子路１３２號","OBJECTID":532661},"geometry":{"x":178076.22000000067,"y":2577971.7300000023}},{"attributes":{"ID":532689,"DIS_CODE":0,"TOWNNAME":"新營區","LI":"王公里","LIN":"30鄰","STREET":"民族路","SECT":" ","MAREA":" ","LANE":" ","ALLEY":" ","HOUSE_NO":"２６４號","E_COORD97":180396.51999999999,"N_COORD97":2579556.4900000002,"ADDRESS":"民族路２６４號","OBJECTID":532662},"geometry":{"x":180396.52000000048,"y":2579556.4900000021}},{"attributes":{"ID":532690,"DIS_CODE":0,"TOWNNAME":"新營區","LI":"民榮里","LIN":"30鄰","STREET":"太子路","SECT":" ","MAREA":" ","LANE":" ","ALLEY":" ","HOUSE_NO":"１３６號","E_COORD97":178069.04000000001,"N_COORD97":2577967.3300000001,"ADDRESS":"太子路１３６號","OBJECTID":532663},"geometry":{"x":178069.04000000097,"y":2577967.3300000019}},{"attributes":{"ID":532691,"DIS_CODE":0,"TOWNNAME":"新營區","LI":"民榮里","LIN":"30鄰","STREET":"太子路","SECT":" ","MAREA":" ","LANE":" ","ALLEY":" ","HOUSE_NO":"１３０號","E_COORD97":178081.34,"N_COORD97":2577972.8100000001,"ADDRESS":"太子路１３０號","OBJECTID":532664},"geometry":{"x":178081.33999999985,"y":2577972.8100000005}},{"attributes":{"ID":532692,"DIS_CODE":0,"TOWNNAME":"新營區","LI":"新北里","LIN":"30鄰","STREET":"新北街","SECT":" ","MAREA":" ","LANE":" ","ALLEY":" ","HOUSE_NO":"１７６號","E_COORD97":178671.51999999999,"N_COORD97":2579026.4700000002,"ADDRESS":"新北街１７６號","OBJECTID":532665},"geometry":{"x":178671.51999999955,"y":2579026.4700000007}},{"attributes":{"ID":532693,"DIS_CODE":0,"TOWNNAME":"新營區","LI":"民榮里","LIN":"30鄰","STREET":"太子路","SECT":" ","MAREA":" ","LANE":" ","ALLEY":" ","HOUSE_NO":"１３８號","E_COORD97":178064.92999999999,"N_COORD97":2577965.1400000001,"ADDRESS":"太子路１３８號","OBJECTID":532666},"geometry":{"x":178064.93000000063,"y":2577965.1400000043}},{"attributes":{"ID":532694,"DIS_CODE":0,"TOWNNAME":"六甲區","LI":"六甲里","LIN":"30鄰","STREET":"中華路","SECT":" ","MAREA":" ","LANE":" ","ALLEY":" ","HOUSE_NO":"１１９號","E_COORD97":183344.60999999999,"N_COORD97":2569318.3399999999,"ADDRESS":"中華路１１９號","OBJECTID":532667},"geometry":{"x":183344.61000000127,"y":2569318.3400000017}},{"attributes":{"ID":532695,"DIS_CODE":0,"TOWNNAME":"六甲區","LI":"六甲里","LIN":"30鄰","STREET":"中華路","SECT":" ","MAREA":" ","LANE":" ","ALLEY":" ","HOUSE_NO":"１２１號","E_COORD97":183338.95999999999,"N_COORD97":2569316.6699999999,"ADDRESS":"中華路１２１號","OBJECTID":532668},"geometry":{"x":183338.95999999996,"y":2569316.6700000018}},{"attributes":{"ID":532696,"DIS_CODE":0,"TOWNNAME":"六甲區","LI":"六甲里","LIN":"30鄰","STREET":"中華路","SECT":" ","MAREA":" ","LANE":" ","ALLEY":" ","HOUSE_NO":"１２３號","E_COORD97":183331.63,"N_COORD97":2569315.3799999999,"ADDRESS":"中華路１２３號","OBJECTID":532669},"geometry":{"x":183331.63000000175,"y":2569315.379999999}},{"attributes":{"ID":532697,"DIS_CODE":0,"TOWNNAME":"六甲區","LI":"六甲里","LIN":"30鄰","STREET":"中華路","SECT":" ","MAREA":" ","LANE":" ","ALLEY":" ","HOUSE_NO":"８９號","E_COORD97":183432.28,"N_COORD97":2569340.9900000002,"ADDRESS":"中華路８９號","OBJECTID":532670},"geometry":{"x":183432.28000000026,"y":2569340.9900000021}},{"attributes":{"ID":532698,"DIS_CODE":0,"TOWNNAME":"六甲區","LI":"六甲里","LIN":"30鄰","STREET":"中華路","SECT":" ","MAREA":" ","LANE":" ","ALLEY":" ","HOUSE_NO":"９１號","E_COORD97":183426.13,"N_COORD97":2569339.4300000002,"ADDRESS":"中華路９１號","OBJECTID":532671},"geometry":{"x":183426.12999999989,"y":2569339.4299999997}},{"attributes":{"ID":532699,"DIS_CODE":0,"TOWNNAME":"新營區","LI":"新南里","LIN":"30鄰","STREET":"長榮路","SECT":"二段","MAREA":" ","LANE":" ","ALLEY":" ","HOUSE_NO":"９５１號","E_COORD97":178229.39999999999,"N_COORD97":2578980.9900000002,"ADDRESS":"長榮路二段９５１號","OBJECTID":532672},"geometry":{"x":178229.40000000037,"y":2578980.9900000021}},{"attributes":{"ID":532700,"DIS_CODE":0,"TOWNNAME":"新營區","LI":"新北里","LIN":"30鄰","STREET":"新北六街","SECT":" ","MAREA":" ","LANE":" ","ALLEY":" ","HOUSE_NO":"５６之３號","E_COORD97":178781.07999999999,"N_COORD97":2579000.5299999998,"ADDRESS":"新北六街５６之３號","OBJECTID":532673},"geometry":{"x":178781.08000000101,"y":2579000.5299999993}},{"attributes":{"ID":532701,"DIS_CODE":0,"TOWNNAME":"新營區","LI":"新北里","LIN":"30鄰","STREET":"新北六街","SECT":" ","MAREA":" ","LANE":" ","ALLEY":" ","HOUSE_NO":"５８號","E_COORD97":178775.64999999999,"N_COORD97":2579029.2799999998,"ADDRESS":"新北六街５８號","OBJECTID":532674},"geometry":{"x":178775.6500000013,"y":2579029.2799999993}},{"attributes":{"ID":532702,"DIS_CODE":0,"TOWNNAME":"新營區","LI":"新南里","LIN":"30鄰","STREET":"秦漢街","SECT":" ","MAREA":" ","LANE":" ","ALLEY":" ","HOUSE_NO":"１５１號","E_COORD97":178305.76000000001,"N_COORD97":2578901.9900000002,"ADDRESS":"秦漢街１５１號","OBJECTID":532675},"geometry":{"x":178305.75999999978,"y":2578901.9900000021}},{"attributes":{"ID":532703,"DIS_CODE":0,"TOWNNAME":"新營區","LI":"新北里","LIN":"30鄰","STREET":"新北六街","SECT":" ","MAREA":" ","LANE":" ","ALLEY":" ","HOUSE_NO":"２０之２號","E_COORD97":178719.79000000001,"N_COORD97":2579005.25,"ADDRESS":"新北六街２０之２號","OBJECTID":532676},"geometry":{"x":178719.7900000019,"y":2579005.2500000019}},{"attributes":{"ID":532704,"DIS_CODE":0,"TOWNNAME":"歸仁區","LI":"許厝里","LIN":"30鄰","STREET":"中山路","SECT":"一段","MAREA":" ","LANE":" ","ALLEY":" ","HOUSE_NO":"５２７號","E_COORD97":177912.01000000001,"N_COORD97":2540724.25,"ADDRESS":"中山路一段５２７號","OBJECTID":532677},"geometry":{"x":177912.01000000071,"y":2540724.2500000019}},{"attributes":{"ID":532705,"DIS_CODE":0,"TOWNNAME":"歸仁區","LI":"南興里","LIN":"30鄰","STREET":"保興街","SECT":" ","MAREA":" ","LANE":" ","ALLEY":" ","HOUSE_NO":"６３號","E_COORD97":176493.51999999999,"N_COORD97":2541070.25,"ADDRESS":"保興街６３號","OBJECTID":532678},"geometry":{"x":176493.51999999955,"y":2541070.2500000019}},{"attributes":{"ID":532706,"DIS_CODE":0,"TOWNNAME":"歸仁區","LI":"六甲里","LIN":"30鄰","STREET":"六甲路","SECT":" ","MAREA":" ","LANE":" ","ALLEY":" ","HOUSE_NO":"２９８號","E_COORD97":175739.26999999999,"N_COORD97":2539242.25,"ADDRESS":"六甲路２９８號","OBJECTID":532679},"geometry":{"x":175739.27000000142,"y":2539242.2500000037}},{"attributes":{"ID":532707,"DIS_CODE":0,"TOWNNAME":"歸仁區","LI":"南興里","LIN":"30鄰","STREET":"保興街","SECT":" ","MAREA":" ","LANE":" ","ALLEY":" ","HOUSE_NO":"７３號","E_COORD97":176495.72,"N_COORD97":2541091.25,"ADDRESS":"保興街７３號","OBJECTID":532680},"geometry":{"x":176495.71999999974,"y":2541091.2500000019}},{"attributes":{"ID":532708,"DIS_CODE":0,"TOWNNAME":"玉井區","LI":"玉田里","LIN":"30鄰","STREET":"仁愛街","SECT":" ","MAREA":" ","LANE":" ","ALLEY":" ","HOUSE_NO":"３６號","E_COORD97":195502.84,"N_COORD97":2557635.2799999998,"ADDRESS":"仁愛街３６號","OBJECTID":532681},"geometry":{"x":195502.83999999985,"y":2557635.2800000012}},{"attributes":{"ID":532709,"DIS_CODE":0,"TOWNNAME":"玉井區","LI":"玉田里","LIN":"30鄰","STREET":"仁愛街","SECT":" ","MAREA":" ","LANE":" ","ALLEY":" ","HOUSE_NO":"２０號","E_COORD97":195522.73000000001,"N_COORD97":2557615.2799999998,"ADDRESS":"仁愛街２０號","OBJECTID":532682},"geometry":{"x":195522.73000000045,"y":2557615.2800000012}},{"attributes":{"ID":532710,"DIS_CODE":0,"TOWNNAME":"玉井區","LI":"玉田里","LIN":"30鄰","STREET":"仁愛街","SECT":" ","MAREA":" ","LANE":" ","ALLEY":" ","HOUSE_NO":"１６號","E_COORD97":195529.03,"N_COORD97":2557609.2799999998,"ADDRESS":"仁愛街１６號","OBJECTID":532683},"geometry":{"x":195529.03000000026,"y":2557609.2799999993}},{"attributes":{"ID":532711,"DIS_CODE":0,"TOWNNAME":"玉井區","LI":"玉田里","LIN":"30鄰","STREET":"中華路","SECT":" ","MAREA":" ","LANE":" ","ALLEY":" ","HOUSE_NO":"４０７號","E_COORD97":195542.06,"N_COORD97":2557529.25,"ADDRESS":"中華路４０７號","OBJECTID":532684},"geometry":{"x":195542.05999999959,"y":2557529.25}},{"attributes":{"ID":532712,"DIS_CODE":0,"TOWNNAME":"玉井區","LI":"玉田里","LIN":"30鄰","STREET":"仁愛街","SECT":" ","MAREA":" ","LANE":" ","ALLEY":" ","HOUSE_NO":"３０號","E_COORD97":195507.84,"N_COORD97":2557631.2799999998,"ADDRESS":"仁愛街３０號","OBJECTID":532685},"geometry":{"x":195507.83999999985,"y":2557631.2800000012}},{"attributes":{"ID":532713,"DIS_CODE":0,"TOWNNAME":"玉井區","LI":"玉田里","LIN":"30鄰","STREET":"仁愛街","SECT":" ","MAREA":" ","LANE":" ","ALLEY":" ","HOUSE_NO":"２３號","E_COORD97":195480.53,"N_COORD97":2557635.2799999998,"ADDRESS":"仁愛街２３號","OBJECTID":532686},"geometry":{"x":195480.53000000212,"y":2557635.2800000012}},{"attributes":{"ID":532714,"DIS_CODE":0,"TOWNNAME":"玉井區","LI":"玉田里","LIN":"30鄰","STREET":"中華路","SECT":" ","MAREA":" ","LANE":" ","ALLEY":" ","HOUSE_NO":"３６１號","E_COORD97":195438.04999999999,"N_COORD97":2557617.25,"ADDRESS":"中華路３６１號","OBJECTID":532687},"geometry":{"x":195438.05000000075,"y":2557617.25}},{"attributes":{"ID":532715,"DIS_CODE":0,"TOWNNAME":"玉井區","LI":"玉田里","LIN":"30鄰","STREET":"仁愛街","SECT":" ","MAREA":" ","LANE":" ","ALLEY":" ","HOUSE_NO":"２７號","E_COORD97":195474.92999999999,"N_COORD97":2557641.2799999998,"ADDRESS":"仁愛街２７號","OBJECTID":532688},"geometry":{"x":195474.9299999997,"y":2557641.2800000012}},{"attributes":{"ID":532716,"DIS_CODE":0,"TOWNNAME":"玉井區","LI":"玉田里","LIN":"30鄰","STREET":"仁愛街","SECT":" ","MAREA":" ","LANE":" ","ALLEY":" ","HOUSE_NO":"１５號","E_COORD97":195491.84,"N_COORD97":2557624.2799999998,"ADDRESS":"仁愛街１５號","OBJECTID":532689},"geometry":{"x":195491.84000000078,"y":2557624.2800000012}},{"attributes":{"ID":532717,"DIS_CODE":0,"TOWNNAME":"玉井區","LI":"玉田里","LIN":"30鄰","STREET":"中華路","SECT":" ","MAREA":" ","LANE":" ","ALLEY":" ","HOUSE_NO":"３６７號","E_COORD97":195450.64999999999,"N_COORD97":2557603.25,"ADDRESS":"中華路３６７號","OBJECTID":532690},"geometry":{"x":195450.65000000037,"y":2557603.25}},{"attributes":{"ID":532718,"DIS_CODE":0,"TOWNNAME":"玉井區","LI":"玉田里","LIN":"30鄰","STREET":"中華路","SECT":" ","MAREA":" ","LANE":" ","ALLEY":" ","HOUSE_NO":"３７３號","E_COORD97":195461.14999999999,"N_COORD97":2557593.25,"ADDRESS":"中華路３７３號","OBJECTID":532691},"geometry":{"x":195461.15000000224,"y":2557593.25}},{"attributes":{"ID":532719,"DIS_CODE":0,"TOWNNAME":"玉井區","LI":"玉田里","LIN":"30鄰","STREET":"仁愛街","SECT":" ","MAREA":" ","LANE":" ","ALLEY":" ","HOUSE_NO":"３３號","E_COORD97":195460.94,"N_COORD97":2557650.27,"ADDRESS":"仁愛街３３號","OBJECTID":532692},"geometry":{"x":195460.94000000227,"y":2557650.2699999996}},{"attributes":{"ID":532720,"DIS_CODE":0,"TOWNNAME":"玉井區","LI":"玉田里","LIN":"30鄰","STREET":"中華路","SECT":" ","MAREA":" ","LANE":" ","ALLEY":" ","HOUSE_NO":"３９１號","E_COORD97":195488.35000000001,"N_COORD97":2557564.2400000002,"ADDRESS":"中華路３９１號","OBJECTID":532693},"geometry":{"x":195488.35000000056,"y":2557564.2400000039}},{"attributes":{"ID":532721,"DIS_CODE":0,"TOWNNAME":"玉井區","LI":"玉田里","LIN":"30鄰","STREET":"仁愛街","SECT":" ","MAREA":" ","LANE":" ","ALLEY":" ","HOUSE_NO":"３８號","E_COORD97":195500.14000000001,"N_COORD97":2557638.2799999998,"ADDRESS":"仁愛街３８號","OBJECTID":532694},"geometry":{"x":195500.1400000006,"y":2557638.2800000012}},{"attributes":{"ID":532722,"DIS_CODE":0,"TOWNNAME":"玉井區","LI":"玉田里","LIN":"30鄰","STREET":"仁愛街","SECT":" ","MAREA":" ","LANE":" ","ALLEY":" ","HOUSE_NO":"５號","E_COORD97":195512.98000000001,"N_COORD97":2557602.2799999998,"ADDRESS":"仁愛街５號","OBJECTID":532695},"geometry":{"x":195512.98000000045,"y":2557602.2799999993}},{"attributes":{"ID":532723,"DIS_CODE":0,"TOWNNAME":"玉井區","LI":"玉田里","LIN":"30鄰","STREET":"仁愛街","SECT":" ","MAREA":" ","LANE":" ","ALLEY":" ","HOUSE_NO":"２２號","E_COORD97":195520.23000000001,"N_COORD97":2557617.2799999998,"ADDRESS":"仁愛街２２號","OBJECTID":532696},"geometry":{"x":195520.23000000138,"y":2557617.2800000031}},{"attributes":{"ID":532724,"DIS_CODE":0,"TOWNNAME":"玉井區","LI":"玉田里","LIN":"30鄰","STREET":"仁愛街","SECT":" ","MAREA":" ","LANE":" ","ALLEY":" ","HOUSE_NO":"７號","E_COORD97":195510.17999999999,"N_COORD97":2557605.2799999998,"ADDRESS":"仁愛街７號","OBJECTID":532697},"geometry":{"x":195510.18000000063,"y":2557605.2799999993}},{"attributes":{"ID":532725,"DIS_CODE":0,"TOWNNAME":"玉井區","LI":"玉田里","LIN":"30鄰","STREET":"仁愛街","SECT":" ","MAREA":" ","LANE":" ","ALLEY":" ","HOUSE_NO":"１９號","E_COORD97":195484.64000000001,"N_COORD97":2557631.2799999998,"ADDRESS":"仁愛街１９號","OBJECTID":532698},"geometry":{"x":195484.6400000006,"y":2557631.2800000012}},{"attributes":{"ID":532726,"DIS_CODE":0,"TOWNNAME":"玉井區","LI":"玉田里","LIN":"30鄰","STREET":"仁愛街","SECT":" ","MAREA":" ","LANE":" ","ALLEY":" ","HOUSE_NO":"１８號","E_COORD97":195525.23000000001,"N_COORD97":2557612.2799999998,"ADDRESS":"仁愛街１８號","OBJECTID":532699},"geometry":{"x":195525.23000000231,"y":2557612.2799999993}},{"attributes":{"ID":532727,"DIS_CODE":0,"TOWNNAME":"玉井區","LI":"玉田里","LIN":"30鄰","STREET":"中華路","SECT":" ","MAREA":" ","LANE":" ","ALLEY":" ","HOUSE_NO":"３６５號","E_COORD97":195446.85000000001,"N_COORD97":2557608.25,"ADDRESS":"中華路３６５號","OBJECTID":532700},"geometry":{"x":195446.84999999963,"y":2557608.2500000019}},{"attributes":{"ID":532728,"DIS_CODE":0,"TOWNNAME":"玉井區","LI":"玉田里","LIN":"30鄰","STREET":"仁愛街","SECT":" ","MAREA":" ","LANE":" ","ALLEY":" ","HOUSE_NO":"１７號","E_COORD97":195488.44,"N_COORD97":2557627.2799999998,"ADDRESS":"仁愛街１７號","OBJECTID":532701},"geometry":{"x":195488.44000000134,"y":2557627.2800000031}},{"attributes":{"ID":532729,"DIS_CODE":0,"TOWNNAME":"歸仁區","LI":"六甲里","LIN":"30鄰","STREET":"六甲路","SECT":" ","MAREA":" ","LANE":" ","ALLEY":" ","HOUSE_NO":"２９２號","E_COORD97":175753.82999999999,"N_COORD97":2539229.25,"ADDRESS":"六甲路２９２號","OBJECTID":532702},"geometry":{"x":175753.83000000101,"y":2539229.2500000019}},{"attributes":{"ID":532730,"DIS_CODE":0,"TOWNNAME":"歸仁區","LI":"辜厝里","LIN":"30鄰","STREET":"大順三街","SECT":" ","MAREA":" ","LANE":" ","ALLEY":" ","HOUSE_NO":"７６號","E_COORD97":177408.63,"N_COORD97":2540468.9500000002,"ADDRESS":"大順三街７６號","OBJECTID":532703},"geometry":{"x":177408.62999999896,"y":2540468.9500000011}},{"attributes":{"ID":532731,"DIS_CODE":0,"TOWNNAME":"六甲區","LI":"六甲里","LIN":"30鄰","STREET":"成功街","SECT":" ","MAREA":" ","LANE":" ","ALLEY":" ","HOUSE_NO":"５２號","E_COORD97":183296.91,"N_COORD97":2569205.5699999998,"ADDRESS":"成功街５２號","OBJECTID":532704},"geometry":{"x":183296.91000000108,"y":2569205.5700000022}},{"attributes":{"ID":532732,"DIS_CODE":0,"TOWNNAME":"六甲區","LI":"六甲里","LIN":"30鄰","STREET":"成功街","SECT":" ","MAREA":" ","LANE":" ","ALLEY":" ","HOUSE_NO":"５４號","E_COORD97":183298.42000000001,"N_COORD97":2569209.6000000001,"ADDRESS":"成功街５４號","OBJECTID":532705},"geometry":{"x":183298.41999999993,"y":2569209.5999999996}},{"attributes":{"ID":532733,"DIS_CODE":0,"TOWNNAME":"六甲區","LI":"六甲里","LIN":"30鄰","STREET":"成功街","SECT":" ","MAREA":" ","LANE":" ","ALLEY":" ","HOUSE_NO":"５６號","E_COORD97":183299.34,"N_COORD97":2569213.8399999999,"ADDRESS":"成功街５６號","OBJECTID":532706},"geometry":{"x":183299.33999999985,"y":2569213.8400000017}},{"attributes":{"ID":532734,"DIS_CODE":0,"TOWNNAME":"六甲區","LI":"六甲里","LIN":"30鄰","STREET":"成功街","SECT":" ","MAREA":" ","LANE":" ","ALLEY":" ","HOUSE_NO":"５８號","E_COORD97":183300.92000000001,"N_COORD97":2569218.1499999999,"ADDRESS":"成功街５８號","OBJECTID":532707},"geometry":{"x":183300.92000000179,"y":2569218.1500000022}},{"attributes":{"ID":532735,"DIS_CODE":0,"TOWNNAME":"六甲區","LI":"六甲里","LIN":"30鄰","STREET":"成功街","SECT":" ","MAREA":" ","LANE":" ","ALLEY":" ","HOUSE_NO":"６０號","E_COORD97":183302.29999999999,"N_COORD97":2569222.4399999999,"ADDRESS":"成功街６０號","OBJECTID":532708},"geometry":{"x":183302.30000000075,"y":2569222.4400000013}},{"attributes":{"ID":532736,"DIS_CODE":0,"TOWNNAME":"六甲區","LI":"六甲里","LIN":"30鄰","STREET":"成功街","SECT":" ","MAREA":" ","LANE":" ","ALLEY":" ","HOUSE_NO":"７０號","E_COORD97":183320.73999999999,"N_COORD97":2569266.6800000002,"ADDRESS":"成功街７０號","OBJECTID":532709},"geometry":{"x":183320.74000000022,"y":2569266.6799999997}},{"attributes":{"ID":532737,"DIS_CODE":0,"TOWNNAME":"六甲區","LI":"六甲里","LIN":"30鄰","STREET":"成功街","SECT":" ","MAREA":" ","LANE":" ","ALLEY":" ","HOUSE_NO":"７２號","E_COORD97":183322.17000000001,"N_COORD97":2569271.4399999999,"ADDRESS":"成功街７２號","OBJECTID":532710},"geometry":{"x":183322.16999999993,"y":2569271.4399999995}},{"attributes":{"ID":532738,"DIS_CODE":0,"TOWNNAME":"六甲區","LI":"六甲里","LIN":"30鄰","STREET":"成功街","SECT":" ","MAREA":" ","LANE":" ","ALLEY":" ","HOUSE_NO":"７４號","E_COORD97":183324.32000000001,"N_COORD97":2569276.1499999999,"ADDRESS":"成功街７４號","OBJECTID":532711},"geometry":{"x":183324.32000000123,"y":2569276.1500000022}},{"attributes":{"ID":532739,"DIS_CODE":0,"TOWNNAME":"六甲區","LI":"六甲里","LIN":"30鄰","STREET":"成功街","SECT":" ","MAREA":" ","LANE":" ","ALLEY":" ","HOUSE_NO":"７６號","E_COORD97":183325.62,"N_COORD97":2569280.2799999998,"ADDRESS":"成功街７６號","OBJECTID":532712},"geometry":{"x":183325.62000000104,"y":2569280.2800000012}},{"attributes":{"ID":532740,"DIS_CODE":0,"TOWNNAME":"六甲區","LI":"六甲里","LIN":"30鄰","STREET":"成功街","SECT":" ","MAREA":" ","LANE":" ","ALLEY":" ","HOUSE_NO":"７８號","E_COORD97":183325.84,"N_COORD97":2569290.4700000002,"ADDRESS":"成功街７８號","OBJECTID":532713},"geometry":{"x":183325.84000000078,"y":2569290.4700000044}},{"attributes":{"ID":532741,"DIS_CODE":0,"TOWNNAME":"六甲區","LI":"六甲里","LIN":"30鄰","STREET":"成功街","SECT":" ","MAREA":" ","LANE":" ","ALLEY":" ","HOUSE_NO":"８０號","E_COORD97":183327.63,"N_COORD97":2569295.2999999998,"ADDRESS":"成功街８０號","OBJECTID":532714},"geometry":{"x":183327.62999999989,"y":2569295.3000000026}},{"attributes":{"ID":532742,"DIS_CODE":0,"TOWNNAME":"六甲區","LI":"六甲里","LIN":"30鄰","STREET":"成功街","SECT":" ","MAREA":" ","LANE":" ","ALLEY":" ","HOUSE_NO":"８２號","E_COORD97":183329,"N_COORD97":2569299.5800000001,"ADDRESS":"成功街８２號","OBJECTID":532715},"geometry":{"x":183329,"y":2569299.5800000019}},{"attributes":{"ID":532743,"DIS_CODE":0,"TOWNNAME":"六甲區","LI":"六甲里","LIN":"30鄰","STREET":"成功街","SECT":" ","MAREA":" ","LANE":" ","ALLEY":" ","HOUSE_NO":"８４號","E_COORD97":183330.69,"N_COORD97":2569303.8799999999,"ADDRESS":"成功街８４號","OBJECTID":532716},"geometry":{"x":183330.69000000134,"y":2569303.8800000008}},{"attributes":{"ID":532744,"DIS_CODE":0,"TOWNNAME":"仁德區","LI":"仁義里","LIN":"30鄰","STREET":"中清一街","SECT":" ","MAREA":" ","LANE":" ","ALLEY":" ","HOUSE_NO":"７１號","E_COORD97":173636.45999999999,"N_COORD97":2541514.54,"ADDRESS":"中清一街７１號","OBJECTID":532717},"geometry":{"x":173636.46000000183,"y":2541514.540000001}},{"attributes":{"ID":532745,"DIS_CODE":0,"TOWNNAME":"新營區","LI":"新北里","LIN":"30鄰","STREET":"新北街","SECT":" ","MAREA":" ","LANE":" ","ALLEY":" ","HOUSE_NO":"１７２之３號","E_COORD97":178671.85000000001,"N_COORD97":2579003.27,"ADDRESS":"新北街１７２之３號","OBJECTID":532718},"geometry":{"x":178671.85000000056,"y":2579003.2699999996}},{"attributes":{"ID":532746,"DIS_CODE":0,"TOWNNAME":"新營區","LI":"新北里","LIN":"30鄰","STREET":"新北街","SECT":" ","MAREA":" ","LANE":" ","ALLEY":" ","HOUSE_NO":"１７２號","E_COORD97":178673.39000000001,"N_COORD97":2578989.9199999999,"ADDRESS":"新北街１７２號","OBJECTID":532719},"geometry":{"x":178673.3900000006,"y":2578989.9200000037}},{"attributes":{"ID":532747,"DIS_CODE":0,"TOWNNAME":"新營區","LI":"新北里","LIN":"30鄰","STREET":"新北街","SECT":" ","MAREA":" ","LANE":" ","ALLEY":" ","HOUSE_NO":"１６８號","E_COORD97":178678.38,"N_COORD97":2578964.4199999999,"ADDRESS":"新北街１６８號","OBJECTID":532720},"geometry":{"x":178678.38000000175,"y":2578964.4199999999}},{"attributes":{"ID":532748,"DIS_CODE":0,"TOWNNAME":"新營區","LI":"三仙里","LIN":"30鄰","STREET":"育德九街","SECT":" ","MAREA":" ","LANE":" ","ALLEY":" ","HOUSE_NO":"２１號","E_COORD97":179530.20000000001,"N_COORD97":2579170.7599999998,"ADDRESS":"育德九街２１號","OBJECTID":532721},"geometry":{"x":179530.20000000019,"y":2579170.7600000016}},{"attributes":{"ID":532749,"DIS_CODE":0,"TOWNNAME":"新營區","LI":"新北里","LIN":"30鄰","STREET":"新北街","SECT":" ","MAREA":" ","LANE":" ","ALLEY":" ","HOUSE_NO":"１７２之５號","E_COORD97":178671.88,"N_COORD97":2579007.7000000002,"ADDRESS":"新北街１７２之５號","OBJECTID":532722},"geometry":{"x":178671.88000000082,"y":2579007.7000000011}},{"attributes":{"ID":532750,"DIS_CODE":0,"TOWNNAME":"新營區","LI":"三仙里","LIN":"30鄰","STREET":"育德九街","SECT":" ","MAREA":" ","LANE":" ","ALLEY":" ","HOUSE_NO":"１５號","E_COORD97":179542.41,"N_COORD97":2579172.9100000001,"ADDRESS":"育德九街１５號","OBJECTID":532723},"geometry":{"x":179542.41000000015,"y":2579172.9099999983}},{"attributes":{"ID":532751,"DIS_CODE":0,"TOWNNAME":"新營區","LI":"三仙里","LIN":"30鄰","STREET":"育德九街","SECT":" ","MAREA":" ","LANE":" ","ALLEY":" ","HOUSE_NO":"２３號","E_COORD97":179527.13,"N_COORD97":2579170.77,"ADDRESS":"育德九街２３號","OBJECTID":532724},"geometry":{"x":179527.12999999989,"y":2579170.7700000014}},{"attributes":{"ID":532752,"DIS_CODE":0,"TOWNNAME":"新營區","LI":"民榮里","LIN":"30鄰","STREET":"太子路","SECT":" ","MAREA":" ","LANE":" ","ALLEY":" ","HOUSE_NO":"８４號","E_COORD97":178166.32000000001,"N_COORD97":2578022.23,"ADDRESS":"太子路８４號","OBJECTID":532725},"geometry":{"x":178166.32000000123,"y":2578022.2300000023}},{"attributes":{"ID":532753,"DIS_CODE":0,"TOWNNAME":"新營區","LI":"民生里","LIN":"30鄰","STREET":"民治路","SECT":" ","MAREA":" ","LANE":" ","ALLEY":" ","HOUSE_NO":"２８５號地下室","E_COORD97":178757.59,"N_COORD97":2578271.8999999999,"ADDRESS":"民治路２８５號地下室","OBJECTID":532726},"geometry":{"x":178757.58999999985,"y":2578271.9000000022}},{"attributes":{"ID":532754,"DIS_CODE":0,"TOWNNAME":"新營區","LI":"民生里","LIN":"30鄰","STREET":"民治路","SECT":" ","MAREA":" ","LANE":" ","ALLEY":" ","HOUSE_NO":"３０１號","E_COORD97":178728.25,"N_COORD97":2578256.52,"ADDRESS":"民治路３０１號","OBJECTID":532727},"geometry":{"x":178728.25,"y":2578256.5200000033}},{"attributes":{"ID":532755,"DIS_CODE":0,"TOWNNAME":"新營區","LI":"三仙里","LIN":"30鄰","STREET":"育德九街","SECT":" ","MAREA":" ","LANE":" ","ALLEY":" ","HOUSE_NO":"１號","E_COORD97":179571.87,"N_COORD97":2579178.2999999998,"ADDRESS":"育德九街１號","OBJECTID":532728},"geometry":{"x":179571.87000000011,"y":2579178.3000000026}},{"attributes":{"ID":532756,"DIS_CODE":0,"TOWNNAME":"新營區","LI":"新北里","LIN":"30鄰","STREET":"新北街","SECT":" ","MAREA":" ","LANE":" ","ALLEY":" ","HOUSE_NO":"１６８之２號","E_COORD97":178678.88,"N_COORD97":2578974.4500000002,"ADDRESS":"新北街１６８之２號","OBJECTID":532729},"geometry":{"x":178678.88000000082,"y":2578974.4499999993}},{"attributes":{"ID":532757,"DIS_CODE":0,"TOWNNAME":"新營區","LI":"新北里","LIN":"30鄰","STREET":"新北六街","SECT":" ","MAREA":" ","LANE":" ","ALLEY":" ","HOUSE_NO":"１０號","E_COORD97":178699.94,"N_COORD97":2579028.54,"ADDRESS":"新北六街１０號","OBJECTID":532730},"geometry":{"x":178699.94000000041,"y":2579028.5399999972}},{"attributes":{"ID":532758,"DIS_CODE":0,"TOWNNAME":"新營區","LI":"三仙里","LIN":"30鄰","STREET":"育德九街","SECT":" ","MAREA":" ","LANE":" ","ALLEY":" ","HOUSE_NO":"２７號之３","E_COORD97":179518.97,"N_COORD97":2579137.6499999999,"ADDRESS":"育德九街２７號之３","OBJECTID":532731},"geometry":{"x":179518.97000000067,"y":2579137.6500000041}},{"attributes":{"ID":532759,"DIS_CODE":0,"TOWNNAME":"新營區","LI":"三仙里","LIN":"30鄰","STREET":"育德九街","SECT":" ","MAREA":" ","LANE":" ","ALLEY":" ","HOUSE_NO":"２７號之８","E_COORD97":179543.60999999999,"N_COORD97":2579146.3900000001,"ADDRESS":"育德九街２７號之８","OBJECTID":532732},"geometry":{"x":179543.6100000022,"y":2579146.3899999987}},{"attributes":{"ID":532760,"DIS_CODE":0,"TOWNNAME":"新營區","LI":"三仙里","LIN":"30鄰","STREET":"育德九街","SECT":" ","MAREA":" ","LANE":" ","ALLEY":" ","HOUSE_NO":"１３號","E_COORD97":179546.51000000001,"N_COORD97":2579174,"ADDRESS":"育德九街１３號","OBJECTID":532733},"geometry":{"x":179546.50999999978,"y":2579174}},{"attributes":{"ID":532761,"DIS_CODE":0,"TOWNNAME":"新營區","LI":"三仙里","LIN":"30鄰","STREET":"育德九街","SECT":" ","MAREA":" ","LANE":" ","ALLEY":" ","HOUSE_NO":"２７號之１","E_COORD97":179517.89000000001,"N_COORD97":2579147.6200000001,"ADDRESS":"育德九街２７號之１","OBJECTID":532734},"geometry":{"x":179517.8900000006,"y":2579147.620000001}},{"attributes":{"ID":532762,"DIS_CODE":0,"TOWNNAME":"新營區","LI":"三仙里","LIN":"30鄰","STREET":"育德九街","SECT":" ","MAREA":" ","LANE":" ","ALLEY":" ","HOUSE_NO":"２７號之９","E_COORD97":179550.70999999999,"N_COORD97":2579146.3599999999,"ADDRESS":"育德九街２７號之９","OBJECTID":532735},"geometry":{"x":179550.70999999996,"y":2579146.3600000013}},{"attributes":{"ID":532763,"DIS_CODE":0,"TOWNNAME":"新營區","LI":"民生里","LIN":"30鄰","STREET":"民治路","SECT":" ","MAREA":" ","LANE":" ","ALLEY":" ","HOUSE_NO":"２５７號","E_COORD97":178742.67000000001,"N_COORD97":2578281.9199999999,"ADDRESS":"民治路２５７號","OBJECTID":532736},"geometry":{"x":178742.67000000179,"y":2578281.9200000018}},{"attributes":{"ID":532764,"DIS_CODE":0,"TOWNNAME":"新營區","LI":"新北里","LIN":"30鄰","STREET":"新北六街","SECT":" ","MAREA":" ","LANE":" ","ALLEY":" ","HOUSE_NO":"１６號","E_COORD97":178709.14000000001,"N_COORD97":2579028.4900000002,"ADDRESS":"新北六街１６號","OBJECTID":532737},"geometry":{"x":178709.1400000006,"y":2579028.4900000021}},{"attributes":{"ID":532765,"DIS_CODE":0,"TOWNNAME":"新營區","LI":"新北里","LIN":"30鄰","STREET":"新北六街","SECT":" ","MAREA":" ","LANE":" ","ALLEY":" ","HOUSE_NO":"２８號","E_COORD97":178733.79000000001,"N_COORD97":2579033.9199999999,"ADDRESS":"新北六街２８號","OBJECTID":532738},"geometry":{"x":178733.79000000097,"y":2579033.9200000037}},{"attributes":{"ID":532766,"DIS_CODE":0,"TOWNNAME":"新營區","LI":"新北里","LIN":"30鄰","STREET":"新北街","SECT":" ","MAREA":" ","LANE":" ","ALLEY":" ","HOUSE_NO":"１６８之１號","E_COORD97":178679.87,"N_COORD97":2578968.9100000001,"ADDRESS":"新北街１６８之１號","OBJECTID":532739},"geometry":{"x":178679.87000000011,"y":2578968.9100000001}},{"attributes":{"ID":532767,"DIS_CODE":0,"TOWNNAME":"新營區","LI":"新北里","LIN":"30鄰","STREET":"新北六街","SECT":" ","MAREA":" ","LANE":" ","ALLEY":" ","HOUSE_NO":"２０之１號","E_COORD97":178718.79999999999,"N_COORD97":2579011.8999999999,"ADDRESS":"新北六街２０之１號","OBJECTID":532740},"geometry":{"x":178718.79999999981,"y":2579011.9000000022}},{"attributes":{"ID":532768,"DIS_CODE":0,"TOWNNAME":"新營區","LI":"三仙里","LIN":"30鄰","STREET":"育德九街","SECT":" ","MAREA":" ","LANE":" ","ALLEY":" ","HOUSE_NO":"２７號之４","E_COORD97":179518.88,"N_COORD97":2579133.21,"ADDRESS":"育德九街２７號之４","OBJECTID":532741},"geometry":{"x":179518.87999999989,"y":2579133.2100000009}},{"attributes":{"ID":532769,"DIS_CODE":0,"TOWNNAME":"新營區","LI":"新北里","LIN":"30鄰","STREET":"新北六街","SECT":" ","MAREA":" ","LANE":" ","ALLEY":" ","HOUSE_NO":"１２號","E_COORD97":178704.03,"N_COORD97":2579028.52,"ADDRESS":"新北六街１２號","OBJECTID":532742},"geometry":{"x":178704.03000000119,"y":2579028.5199999996}},{"attributes":{"ID":532770,"DIS_CODE":0,"TOWNNAME":"新營區","LI":"民榮里","LIN":"30鄰","STREET":"太子路","SECT":" ","MAREA":" ","LANE":" ","ALLEY":" ","HOUSE_NO":"８２號","E_COORD97":178171.45000000001,"N_COORD97":2578024.4199999999,"ADDRESS":"太子路８２號","OBJECTID":532743},"geometry":{"x":178171.45000000205,"y":2578024.4200000018}},{"attributes":{"ID":532771,"DIS_CODE":0,"TOWNNAME":"新營區","LI":"民榮里","LIN":"30鄰","STREET":"太子路","SECT":" ","MAREA":" ","LANE":" ","ALLEY":" ","HOUSE_NO":"８８號","E_COORD97":178162.22,"N_COORD97":2578020.04,"ADDRESS":"太子路８８號","OBJECTID":532744},"geometry":{"x":178162.21999999881,"y":2578020.040000001}},{"attributes":{"ID":532772,"DIS_CODE":0,"TOWNNAME":"新營區","LI":"王公里","LIN":"30鄰","STREET":"民族路","SECT":" ","MAREA":" ","LANE":" ","ALLEY":" ","HOUSE_NO":"２５６號","E_COORD97":180393.35999999999,"N_COORD97":2579539.8799999999,"ADDRESS":"民族路２５６號","OBJECTID":532745},"geometry":{"x":180393.36000000127,"y":2579539.879999999}},{"attributes":{"ID":532773,"DIS_CODE":0,"TOWNNAME":"新營區","LI":"民生里","LIN":"30鄰","STREET":"民治路","SECT":" ","MAREA":" ","LANE":" ","ALLEY":" ","HOUSE_NO":"２４７號","E_COORD97":178753.01000000001,"N_COORD97":2578304.0099999998,"ADDRESS":"民治路２４７號","OBJECTID":532746},"geometry":{"x":178753.00999999978,"y":2578304.0100000035}},{"attributes":{"ID":532774,"DIS_CODE":0,"TOWNNAME":"新營區","LI":"新北里","LIN":"30鄰","STREET":"新北六街","SECT":" ","MAREA":" ","LANE":" ","ALLEY":" ","HOUSE_NO":"２號","E_COORD97":178684.44,"N_COORD97":2579027.5,"ADDRESS":"新北六街２號","OBJECTID":532747},"geometry":{"x":178684.44000000134,"y":2579027.5000000019}},{"attributes":{"ID":532775,"DIS_CODE":0,"TOWNNAME":"新營區","LI":"三仙里","LIN":"30鄰","STREET":"育德九街","SECT":" ","MAREA":" ","LANE":" ","ALLEY":" ","HOUSE_NO":"２７號之７","E_COORD97":179539.44,"N_COORD97":2579145.2999999998,"ADDRESS":"育德九街２７號之７","OBJECTID":532748},"geometry":{"x":179539.44000000041,"y":2579145.3000000026}},{"attributes":{"ID":532776,"DIS_CODE":0,"TOWNNAME":"新營區","LI":"民生里","LIN":"30鄰","STREET":"民治路","SECT":" ","MAREA":" ","LANE":" ","ALLEY":" ","HOUSE_NO":"２７１號","E_COORD97":178753.87,"N_COORD97":2578271.8999999999,"ADDRESS":"民治路２７１號","OBJECTID":532749},"geometry":{"x":178753.87000000104,"y":2578271.9000000022}},{"attributes":{"ID":532777,"DIS_CODE":0,"TOWNNAME":"新營區","LI":"民生里","LIN":"30鄰","STREET":"民治路","SECT":" ","MAREA":" ","LANE":" ","ALLEY":" ","HOUSE_NO":"２５５號","E_COORD97":178745.75,"N_COORD97":2578285.2200000002,"ADDRESS":"民治路２５５號","OBJECTID":532750},"geometry":{"x":178745.75000000093,"y":2578285.2200000007}},{"attributes":{"ID":532778,"DIS_CODE":0,"TOWNNAME":"新營區","LI":"新北里","LIN":"30鄰","STREET":"新北六街","SECT":" ","MAREA":" ","LANE":" ","ALLEY":" ","HOUSE_NO":"５６之１號","E_COORD97":178780.10999999999,"N_COORD97":2579012.71,"ADDRESS":"新北六街５６之１號","OBJECTID":532751},"geometry":{"x":178780.11000000034,"y":2579012.7100000046}},{"attributes":{"ID":532779,"DIS_CODE":0,"TOWNNAME":"新營區","LI":"新北里","LIN":"30鄰","STREET":"新北六街","SECT":" ","MAREA":" ","LANE":" ","ALLEY":" ","HOUSE_NO":"４０之２號","E_COORD97":178763.78,"N_COORD97":2579006.1499999999,"ADDRESS":"新北六街４０之２號","OBJECTID":532752},"geometry":{"x":178763.78000000026,"y":2579006.1500000022}},{"attributes":{"ID":532780,"DIS_CODE":0,"TOWNNAME":"新營區","LI":"新南里","LIN":"30鄰","STREET":"長榮路","SECT":"二段","MAREA":" ","LANE":" ","ALLEY":" ","HOUSE_NO":"１００３號","E_COORD97":178134.09,"N_COORD97":2578889.54,"ADDRESS":"長榮路二段１００３號","OBJECTID":532753},"geometry":{"x":178134.08999999985,"y":2578889.5399999972}},{"attributes":{"ID":532781,"DIS_CODE":0,"TOWNNAME":"新營區","LI":"新北里","LIN":"30鄰","STREET":"新北六街","SECT":" ","MAREA":" ","LANE":" ","ALLEY":" ","HOUSE_NO":"４０號","E_COORD97":178760.39000000001,"N_COORD97":2579033.7999999998,"ADDRESS":"新北六街４０號","OBJECTID":532754},"geometry":{"x":178760.38999999966,"y":2579033.8000000007}},{"attributes":{"ID":532782,"DIS_CODE":0,"TOWNNAME":"新營區","LI":"新北里","LIN":"30鄰","STREET":"新北六街","SECT":" ","MAREA":" ","LANE":" ","ALLEY":" ","HOUSE_NO":"３０號","E_COORD97":178739.94,"N_COORD97":2579032.79,"ADDRESS":"新北六街３０號","OBJECTID":532755},"geometry":{"x":178739.94000000134,"y":2579032.7899999991}},{"attributes":{"ID":532783,"DIS_CODE":0,"TOWNNAME":"新營區","LI":"新南里","LIN":"30鄰","STREET":"長榮路","SECT":"二段","MAREA":" ","LANE":" ","ALLEY":" ","HOUSE_NO":"１０２３號","E_COORD97":178095.07999999999,"N_COORD97":2578858.7200000002,"ADDRESS":"長榮路二段１０２３號","OBJECTID":532756},"geometry":{"x":178095.08000000007,"y":2578858.7200000007}},{"attributes":{"ID":532784,"DIS_CODE":0,"TOWNNAME":"新營區","LI":"南興里","LIN":"30鄰","STREET":"建業路","SECT":" ","MAREA":" ","LANE":" ","ALLEY":" ","HOUSE_NO":"１５５號","E_COORD97":178403.25,"N_COORD97":2577485.0899999999,"ADDRESS":"建業路１５５號","OBJECTID":532757},"geometry":{"x":178403.25000000093,"y":2577485.0899999999}},{"attributes":{"ID":532785,"DIS_CODE":0,"TOWNNAME":"新營區","LI":"南興里","LIN":"30鄰","STREET":"建業路","SECT":" ","MAREA":" ","LANE":" ","ALLEY":" ","HOUSE_NO":"１５１號","E_COORD97":178412.45000000001,"N_COORD97":2577485.04,"ADDRESS":"建業路１５１號","OBJECTID":532758},"geometry":{"x":178412.45000000112,"y":2577485.0399999991}},{"attributes":{"ID":532786,"DIS_CODE":0,"TOWNNAME":"新營區","LI":"新北里","LIN":"30鄰","STREET":"新北六街","SECT":" ","MAREA":" ","LANE":" ","ALLEY":" ","HOUSE_NO":"３２號","E_COORD97":178745.06,"N_COORD97":2579033.8700000001,"ADDRESS":"新北六街３２號","OBJECTID":532759},"geometry":{"x":178745.06000000052,"y":2579033.870000001}},{"attributes":{"ID":532787,"DIS_CODE":0,"TOWNNAME":"新營區","LI":"新南里","LIN":"30鄰","STREET":"明清三街","SECT":" ","MAREA":" ","LANE":" ","ALLEY":" ","HOUSE_NO":"３８號","E_COORD97":178257.48999999999,"N_COORD97":2578887.8199999998,"ADDRESS":"明清三街３８號","OBJECTID":532760},"geometry":{"x":178257.48999999929,"y":2578887.8200000003}},{"attributes":{"ID":532788,"DIS_CODE":0,"TOWNNAME":"新營區","LI":"新南里","LIN":"30鄰","STREET":"長榮路","SECT":"二段","MAREA":" ","LANE":" ","ALLEY":" ","HOUSE_NO":"９７７號","E_COORD97":178183.14999999999,"N_COORD97":2578934.7000000002,"ADDRESS":"長榮路二段９７７號","OBJECTID":532761},"geometry":{"x":178183.15000000037,"y":2578934.6999999993}},{"attributes":{"ID":532789,"DIS_CODE":0,"TOWNNAME":"東區","LI":"忠孝里","LIN":"30鄰","STREET":"崇明十街","SECT":" ","MAREA":" ","LANE":" ","ALLEY":" ","HOUSE_NO":"１７號","E_COORD97":170024.35000000001,"N_COORD97":2541755.4100000001,"ADDRESS":"崇明十街１７號","OBJECTID":532762},"geometry":{"x":170024.35000000149,"y":2541755.4100000001}},{"attributes":{"ID":532790,"DIS_CODE":0,"TOWNNAME":"東區","LI":"忠孝里","LIN":"30鄰","STREET":"崇明十街","SECT":" ","MAREA":" ","LANE":" ","ALLEY":" ","HOUSE_NO":"５１號","E_COORD97":170102.51000000001,"N_COORD97":2541803.73,"ADDRESS":"崇明十街５１號","OBJECTID":532763},"geometry":{"x":170102.50999999978,"y":2541803.7300000023}},{"attributes":{"ID":532791,"DIS_CODE":0,"TOWNNAME":"東區","LI":"忠孝里","LIN":"30鄰","STREET":"崇明十街","SECT":" ","MAREA":" ","LANE":" ","ALLEY":" ","HOUSE_NO":"５號","E_COORD97":169999.92999999999,"N_COORD97":2541740.27,"ADDRESS":"崇明十街５號","OBJECTID":532764},"geometry":{"x":169999.9299999997,"y":2541740.2700000033}},{"attributes":{"ID":532792,"DIS_CODE":0,"TOWNNAME":"東區","LI":"忠孝里","LIN":"30鄰","STREET":"崇明十街","SECT":" ","MAREA":" ","LANE":" ","ALLEY":" ","HOUSE_NO":"６１號","E_COORD97":170119.79999999999,"N_COORD97":2541817.79,"ADDRESS":"崇明十街６１號","OBJECTID":532765},"geometry":{"x":170119.80000000168,"y":2541817.7900000028}},{"attributes":{"ID":532793,"DIS_CODE":0,"TOWNNAME":"東區","LI":"忠孝里","LIN":"30鄰","STREET":"崇明十街","SECT":" ","MAREA":" ","LANE":" ","ALLEY":" ","HOUSE_NO":"６３號","E_COORD97":170122.64999999999,"N_COORD97":2541821.1499999999,"ADDRESS":"崇明十街６３號","OBJECTID":532766},"geometry":{"x":170122.65000000037,"y":2541821.1500000022}},{"attributes":{"ID":532794,"DIS_CODE":0,"TOWNNAME":"南區","LI":"金華里","LIN":"30鄰","STREET":"新孝路","SECT":" ","MAREA":" ","LANE":" ","ALLEY":" ","HOUSE_NO":"１４０號","E_COORD97":166547.89999999999,"N_COORD97":2542073.2599999998,"ADDRESS":"新孝路１４０號","OBJECTID":532767},"geometry":{"x":166547.89999999944,"y":2542073.2600000016}},{"attributes":{"ID":532795,"DIS_CODE":0,"TOWNNAME":"南區","LI":"金華里","LIN":"30鄰","STREET":"新孝路","SECT":" ","MAREA":" ","LANE":" ","ALLEY":" ","HOUSE_NO":"１４２號","E_COORD97":166542.88,"N_COORD97":2542073.0899999999,"ADDRESS":"新孝路１４２號","OBJECTID":532768},"geometry":{"x":166542.88000000082,"y":2542073.0899999999}},{"attributes":{"ID":532796,"DIS_CODE":0,"TOWNNAME":"新營區","LI":"新南里","LIN":"30鄰","STREET":"長榮路","SECT":"二段","MAREA":" ","LANE":" ","ALLEY":" ","HOUSE_NO":"１０４５號","E_COORD97":178052.95000000001,"N_COORD97":2578819.0499999998,"ADDRESS":"長榮路二段１０４５號","OBJECTID":532769},"geometry":{"x":178052.95000000112,"y":2578819.0500000007}},{"attributes":{"ID":532797,"DIS_CODE":0,"TOWNNAME":"新營區","LI":"新北里","LIN":"30鄰","STREET":"新北六街","SECT":" ","MAREA":" ","LANE":" ","ALLEY":" ","HOUSE_NO":"５６號","E_COORD97":178771.56,"N_COORD97":2579029.2999999998,"ADDRESS":"新北六街５６號","OBJECTID":532770},"geometry":{"x":178771.55999999959,"y":2579029.3000000026}},{"attributes":{"ID":532798,"DIS_CODE":0,"TOWNNAME":"新營區","LI":"新南里","LIN":"30鄰","STREET":"長榮路","SECT":"二段","MAREA":" ","LANE":" ","ALLEY":" ","HOUSE_NO":"９５８號","E_COORD97":178144.57999999999,"N_COORD97":2578995.79,"ADDRESS":"長榮路二段９５８號","OBJECTID":532771},"geometry":{"x":178144.58000000007,"y":2578995.7899999991}},{"attributes":{"ID":532799,"DIS_CODE":0,"TOWNNAME":"新營區","LI":"新南里","LIN":"30鄰","STREET":"長榮路","SECT":"二段","MAREA":" ","LANE":" ","ALLEY":" ","HOUSE_NO":"９９５號","E_COORD97":178148.25,"N_COORD97":2578908.29,"ADDRESS":"長榮路二段９９５號","OBJECTID":532772},"geometry":{"x":178148.25,"y":2578908.2900000028}},{"attributes":{"ID":532800,"DIS_CODE":0,"TOWNNAME":"新營區","LI":"民生里","LIN":"30鄰","STREET":"民治路","SECT":" ","MAREA":" ","LANE":" ","ALLEY":" ","HOUSE_NO":"２５９號","E_COORD97":178741.63,"N_COORD97":2578278.6000000001,"ADDRESS":"民治路２５９號","OBJECTID":532773},"geometry":{"x":178741.63000000082,"y":2578278.5999999996}},{"attributes":{"ID":532801,"DIS_CODE":0,"TOWNNAME":"新營區","LI":"新北里","LIN":"30鄰","STREET":"新北六街","SECT":" ","MAREA":" ","LANE":" ","ALLEY":" ","HOUSE_NO":"３８號","E_COORD97":178755.29000000001,"N_COORD97":2579033.8199999998,"ADDRESS":"新北六街３８號","OBJECTID":532774},"geometry":{"x":178755.29000000004,"y":2579033.8200000003}},{"attributes":{"ID":532802,"DIS_CODE":0,"TOWNNAME":"新營區","LI":"大宏里","LIN":"30鄰","STREET":"大同路","SECT":" ","MAREA":" ","LANE":" ","ALLEY":" ","HOUSE_NO":"１４號之３","E_COORD97":180727.29999999999,"N_COORD97":2578579.3199999998,"ADDRESS":"大同路１４號之３","OBJECTID":532775},"geometry":{"x":180727.30000000075,"y":2578579.3200000003}},{"attributes":{"ID":532803,"DIS_CODE":0,"TOWNNAME":"新營區","LI":"新南里","LIN":"30鄰","STREET":"長榮路","SECT":"二段","MAREA":" ","LANE":" ","ALLEY":" ","HOUSE_NO":"１００５號","E_COORD97":178128.95000000001,"N_COORD97":2578885.1299999999,"ADDRESS":"長榮路二段１００５號","OBJECTID":532776},"geometry":{"x":178128.95000000205,"y":2578885.129999999}},{"attributes":{"ID":532804,"DIS_CODE":0,"TOWNNAME":"新營區","LI":"新北里","LIN":"30鄰","STREET":"新北六街","SECT":" ","MAREA":" ","LANE":" ","ALLEY":" ","HOUSE_NO":"３６號","E_COORD97":178750.17000000001,"N_COORD97":2579033.8399999999,"ADDRESS":"新北六街３６號","OBJECTID":532777},"geometry":{"x":178750.17000000086,"y":2579033.8399999999}},{"attributes":{"ID":532805,"DIS_CODE":0,"TOWNNAME":"新營區","LI":"忠政里","LIN":"30鄰","STREET":"府西路","SECT":" ","MAREA":" ","LANE":" ","ALLEY":" ","HOUSE_NO":"９３號","E_COORD97":179799.32000000001,"N_COORD97":2579218.2000000002,"ADDRESS":"府西路９３號","OBJECTID":532778},"geometry":{"x":179799.3200000003,"y":2579218.2000000011}},{"attributes":{"ID":532806,"DIS_CODE":0,"TOWNNAME":"新營區","LI":"忠政里","LIN":"30鄰","STREET":"府西路","SECT":" ","MAREA":" ","LANE":" ","ALLEY":" ","HOUSE_NO":"９９號","E_COORD97":179798.37,"N_COORD97":2579233.71,"ADDRESS":"府西路９９號","OBJECTID":532779},"geometry":{"x":179798.37000000104,"y":2579233.7100000028}},{"attributes":{"ID":532807,"DIS_CODE":0,"TOWNNAME":"新營區","LI":"忠政里","LIN":"30鄰","STREET":"府西路","SECT":" ","MAREA":" ","LANE":" ","ALLEY":" ","HOUSE_NO":"９１號","E_COORD97":179799.29999999999,"N_COORD97":2579213.77,"ADDRESS":"府西路９１號","OBJECTID":532780},"geometry":{"x":179799.29999999888,"y":2579213.7699999996}},{"attributes":{"ID":532808,"DIS_CODE":0,"TOWNNAME":"新營區","LI":"民榮里","LIN":"30鄰","STREET":"太子路","SECT":" ","MAREA":" ","LANE":" ","ALLEY":" ","HOUSE_NO":"８０號","E_COORD97":178175.54999999999,"N_COORD97":2578026.6200000001,"ADDRESS":"太子路８０號","OBJECTID":532781},"geometry":{"x":178175.55000000075,"y":2578026.6200000048}},{"attributes":{"ID":532809,"DIS_CODE":0,"TOWNNAME":"新營區","LI":"新南里","LIN":"30鄰","STREET":"明清三街","SECT":" ","MAREA":" ","LANE":" ","ALLEY":" ","HOUSE_NO":"２７８號","E_COORD97":178148.04000000001,"N_COORD97":2578845.1699999999,"ADDRESS":"明清三街２７８號","OBJECTID":532782},"geometry":{"x":178148.04000000004,"y":2578845.1699999999}},{"attributes":{"ID":532810,"DIS_CODE":0,"TOWNNAME":"新營區","LI":"新南里","LIN":"30鄰","STREET":"明清三街","SECT":" ","MAREA":" ","LANE":" ","ALLEY":" ","HOUSE_NO":"３７號","E_COORD97":178253.28,"N_COORD97":2578864.5800000001,"ADDRESS":"明清三街３７號","OBJECTID":532783},"geometry":{"x":178253.28000000026,"y":2578864.5800000019}},{"attributes":{"ID":532811,"DIS_CODE":0,"TOWNNAME":"新營區","LI":"新北里","LIN":"30鄰","STREET":"新北街","SECT":" ","MAREA":" ","LANE":" ","ALLEY":" ","HOUSE_NO":"１４８號","E_COORD97":178691.39000000001,"N_COORD97":2578906.77,"ADDRESS":"新北街１４８號","OBJECTID":532784},"geometry":{"x":178691.38999999966,"y":2578906.7700000014}},{"attributes":{"ID":532812,"DIS_CODE":0,"TOWNNAME":"歸仁區","LI":"南興里","LIN":"30鄰","STREET":"保興街","SECT":" ","MAREA":" ","LANE":" ","ALLEY":" ","HOUSE_NO":"７１號","E_COORD97":176495.72,"N_COORD97":2541086.25,"ADDRESS":"保興街７１號","OBJECTID":532785},"geometry":{"x":176495.71999999974,"y":2541086.2499999981}},{"attributes":{"ID":532813,"DIS_CODE":0,"TOWNNAME":"歸仁區","LI":"南興里","LIN":"30鄰","STREET":"保興街","SECT":" ","MAREA":" ","LANE":" ","ALLEY":" ","HOUSE_NO":"８３號","E_COORD97":176496.82000000001,"N_COORD97":2541112.25,"ADDRESS":"保興街８３號","OBJECTID":532786},"geometry":{"x":176496.8200000003,"y":2541112.25}},{"attributes":{"ID":532814,"DIS_CODE":0,"TOWNNAME":"歸仁區","LI":"南興里","LIN":"30鄰","STREET":"保興街","SECT":" ","MAREA":" ","LANE":" ","ALLEY":" ","HOUSE_NO":"５９號","E_COORD97":176493.51999999999,"N_COORD97":2541063.25,"ADDRESS":"保興街５９號","OBJECTID":532787},"geometry":{"x":176493.51999999955,"y":2541063.2500000019}},{"attributes":{"ID":532815,"DIS_CODE":0,"TOWNNAME":"歸仁區","LI":"南興里","LIN":"30鄰","STREET":"保興一街","SECT":" ","MAREA":" ","LANE":" ","ALLEY":" ","HOUSE_NO":"３３號","E_COORD97":176444.57000000001,"N_COORD97":2541080.25,"ADDRESS":"保興一街３３號","OBJECTID":532788},"geometry":{"x":176444.5700000003,"y":2541080.2500000019}},{"attributes":{"ID":532816,"DIS_CODE":0,"TOWNNAME":"歸仁區","LI":"南興里","LIN":"30鄰","STREET":"保興一街","SECT":" ","MAREA":" ","LANE":" ","ALLEY":" ","HOUSE_NO":"２９號","E_COORD97":176444.67000000001,"N_COORD97":2541090.25,"ADDRESS":"保興一街２９號","OBJECTID":532789},"geometry":{"x":176444.67000000086,"y":2541090.2500000019}},{"attributes":{"ID":532817,"DIS_CODE":0,"TOWNNAME":"歸仁區","LI":"南興里","LIN":"30鄰","STREET":"保興街","SECT":" ","MAREA":" ","LANE":" ","ALLEY":" ","HOUSE_NO":"７９號","E_COORD97":176495.72,"N_COORD97":2541103.25,"ADDRESS":"保興街７９號","OBJECTID":532790},"geometry":{"x":176495.71999999974,"y":2541103.2499999981}},{"attributes":{"ID":532818,"DIS_CODE":0,"TOWNNAME":"歸仁區","LI":"許厝里","LIN":"30鄰","STREET":"中山路","SECT":"一段","MAREA":" ","LANE":" ","ALLEY":" ","HOUSE_NO":"５４５號","E_COORD97":177879.20999999999,"N_COORD97":2540728.25,"ADDRESS":"中山路一段５４５號","OBJECTID":532791},"geometry":{"x":177879.20999999996,"y":2540728.2500000019}},{"attributes":{"ID":532819,"DIS_CODE":0,"TOWNNAME":"歸仁區","LI":"許厝里","LIN":"30鄰","STREET":"中山路","SECT":"一段","MAREA":" ","LANE":" ","ALLEY":" ","HOUSE_NO":"５４１號","E_COORD97":177886.41,"N_COORD97":2540727.25,"ADDRESS":"中山路一段５４１號","OBJECTID":532792},"geometry":{"x":177886.41000000015,"y":2540727.2500000037}},{"attributes":{"ID":532820,"DIS_CODE":0,"TOWNNAME":"歸仁區","LI":"南興里","LIN":"30鄰","STREET":"保興一街","SECT":" ","MAREA":" ","LANE":" ","ALLEY":" ","HOUSE_NO":"２７號","E_COORD97":176465.17000000001,"N_COORD97":2541092.25,"ADDRESS":"保興一街２７號","OBJECTID":532793},"geometry":{"x":176465.16999999993,"y":2541092.25}},{"attributes":{"ID":532821,"DIS_CODE":0,"TOWNNAME":"歸仁區","LI":"六甲里","LIN":"30鄰","STREET":"六甲路","SECT":" ","MAREA":" ","LANE":" ","ALLEY":" ","HOUSE_NO":"２９６號","E_COORD97":175749.57000000001,"N_COORD97":2539243.25,"ADDRESS":"六甲路２９６號","OBJECTID":532794},"geometry":{"x":175749.5700000003,"y":2539243.2500000019}},{"attributes":{"ID":532822,"DIS_CODE":0,"TOWNNAME":"歸仁區","LI":"南興里","LIN":"30鄰","STREET":"保興街","SECT":" ","MAREA":" ","LANE":" ","ALLEY":" ","HOUSE_NO":"７５號","E_COORD97":176495.72,"N_COORD97":2541094.25,"ADDRESS":"保興街７５號","OBJECTID":532795},"geometry":{"x":176495.71999999974,"y":2541094.2500000019}},{"attributes":{"ID":532823,"DIS_CODE":0,"TOWNNAME":"歸仁區","LI":"南興里","LIN":"30鄰","STREET":"保興街","SECT":" ","MAREA":" ","LANE":" ","ALLEY":" ","HOUSE_NO":"６７號","E_COORD97":176494.62,"N_COORD97":2541079.25,"ADDRESS":"保興街６７號","OBJECTID":532796},"geometry":{"x":176494.62000000011,"y":2541079.25}},{"attributes":{"ID":532824,"DIS_CODE":0,"TOWNNAME":"歸仁區","LI":"南興里","LIN":"30鄰","STREET":"保興街","SECT":" ","MAREA":" ","LANE":" ","ALLEY":" ","HOUSE_NO":"６９號","E_COORD97":176494.62,"N_COORD97":2541082.25,"ADDRESS":"保興街６９號","OBJECTID":532797},"geometry":{"x":176494.62000000011,"y":2541082.25}},{"attributes":{"ID":532825,"DIS_CODE":0,"TOWNNAME":"歸仁區","LI":"南興里","LIN":"30鄰","STREET":"保興一街","SECT":" ","MAREA":" ","LANE":" ","ALLEY":" ","HOUSE_NO":"３１號","E_COORD97":176444.67000000001,"N_COORD97":2541084.25,"ADDRESS":"保興一街３１號","OBJECTID":532798},"geometry":{"x":176444.67000000086,"y":2541084.2500000019}},{"attributes":{"ID":532826,"DIS_CODE":0,"TOWNNAME":"歸仁區","LI":"南保里","LIN":"30鄰","STREET":"民權北路","SECT":" ","MAREA":" ","LANE":" ","ALLEY":" ","HOUSE_NO":"５９號","E_COORD97":176985.59,"N_COORD97":2541015.29,"ADDRESS":"民權北路５９號","OBJECTID":532799},"geometry":{"x":176985.59000000078,"y":2541015.290000001}},{"attributes":{"ID":532827,"DIS_CODE":0,"TOWNNAME":"歸仁區","LI":"六甲里","LIN":"30鄰","STREET":"六甲二街","SECT":" ","MAREA":" ","LANE":" ","ALLEY":" ","HOUSE_NO":"７號","E_COORD97":175763.72,"N_COORD97":2539255.25,"ADDRESS":"六甲二街７號","OBJECTID":532800},"geometry":{"x":175763.7200000016,"y":2539255.25}}]}