{"displayFieldName":"TOWNNAME","fieldAliases":{"ID":"ID","DIS_CODE":"DIS_CODE","TOWNNAME":"TOWNNAME","LI":"LI","LIN":"LIN","STREET":"STREET","SECT":"SECT","MAREA":"MAREA","LANE":"LANE","ALLEY":"ALLEY","HOUSE_NO":"HOUSE_NO","E_COORD97":"E_COORD97","N_COORD97":"N_COORD97","ADDRESS":"ADDRESS","OBJECTID":"OBJECTID"},"geometryType":"esriGeometryPoint","spatialReference":{"wkid":102443,"latestWkid":3826},"fields":[{"name":"ID","type":"esriFieldTypeDouble","alias":"ID"},{"name":"DIS_CODE","type":"esriFieldTypeInteger","alias":"DIS_CODE"},{"name":"TOWNNAME","type":"esriFieldTypeString","alias":"TOWNNAME","length":8},{"name":"LI","type":"esriFieldTypeString","alias":"LI","length":8},{"name":"LIN","type":"esriFieldTypeString","alias":"LIN","length":12},{"name":"STREET","type":"esriFieldTypeString","alias":"STREET","length":20},{"name":"SECT","type":"esriFieldTypeString","alias":"SECT","length":8},{"name":"MAREA","type":"esriFieldTypeString","alias":"MAREA","length":12},{"name":"LANE","type":"esriFieldTypeString","alias":"LANE","length":10},{"name":"ALLEY","type":"esriFieldTypeString","alias":"ALLEY","length":10},{"name":"HOUSE_NO","type":"esriFieldTypeString","alias":"HOUSE_NO","length":20},{"name":"E_COORD97","type":"esriFieldTypeDouble","alias":"E_COORD97"},{"name":"N_COORD97","type":"esriFieldTypeDouble","alias":"N_COORD97"},{"name":"ADDRESS","type":"esriFieldTypeString","alias":"ADDRESS","length":50},{"name":"OBJECTID","type":"esriFieldTypeOID","alias":"OBJECTID"}],"features":[{"attributes":{"ID":470226,"DIS_CODE":0,"TOWNNAME":"新化區","LI":"中央里","LIN":"5鄰","STREET":"中山路","SECT":" ","MAREA":" ","LANE":" ","ALLEY":" ","HOUSE_NO":"３３５號","E_COORD97":178907.51000000001,"N_COORD97":2548408.25,"ADDRESS":"中山路３３５號","OBJECTID":470201},"geometry":{"x":178907.50999999978,"y":2548408.25}},{"attributes":{"ID":470227,"DIS_CODE":0,"TOWNNAME":"白河區","LI":"外角里","LIN":"5鄰","STREET":"開明街","SECT":" ","MAREA":" ","LANE":" ","ALLEY":" ","HOUSE_NO":"１５６號","E_COORD97":190544.39999999999,"N_COORD97":2583202.8799999999,"ADDRESS":"開明街１５６號","OBJECTID":470202},"geometry":{"x":190544.40000000037,"y":2583202.879999999}},{"attributes":{"ID":470228,"DIS_CODE":0,"TOWNNAME":"白河區","LI":"外角里","LIN":"5鄰","STREET":"開明街","SECT":" ","MAREA":" ","LANE":" ","ALLEY":" ","HOUSE_NO":"１５８號","E_COORD97":190539.54000000001,"N_COORD97":2583200.7799999998,"ADDRESS":"開明街１５８號","OBJECTID":470203},"geometry":{"x":190539.54000000097,"y":2583200.7800000031}},{"attributes":{"ID":470229,"DIS_CODE":0,"TOWNNAME":"白河區","LI":"外角里","LIN":"5鄰","STREET":"開明街","SECT":" ","MAREA":" ","LANE":" ","ALLEY":" ","HOUSE_NO":"１６０號","E_COORD97":190532.85000000001,"N_COORD97":2583199.9500000002,"ADDRESS":"開明街１６０號","OBJECTID":470204},"geometry":{"x":190532.85000000149,"y":2583199.9500000011}},{"attributes":{"ID":470230,"DIS_CODE":0,"TOWNNAME":"白河區","LI":"外角里","LIN":"5鄰","STREET":"開明街","SECT":" ","MAREA":" ","LANE":" ","ALLEY":" ","HOUSE_NO":"１６２號","E_COORD97":190530.34,"N_COORD97":2583196.4199999999,"ADDRESS":"開明街１６２號","OBJECTID":470205},"geometry":{"x":190530.34000000078,"y":2583196.4199999999}},{"attributes":{"ID":470231,"DIS_CODE":0,"TOWNNAME":"白河區","LI":"外角里","LIN":"5鄰","STREET":"開明街","SECT":" ","MAREA":" ","LANE":" ","ALLEY":" ","HOUSE_NO":"１６４號","E_COORD97":190525,"N_COORD97":2583195.3700000001,"ADDRESS":"開明街１６４號","OBJECTID":470206},"geometry":{"x":190525,"y":2583195.3700000048}},{"attributes":{"ID":470232,"DIS_CODE":0,"TOWNNAME":"白河區","LI":"庄內里","LIN":"5鄰","STREET":"新興路","SECT":" ","MAREA":" ","LANE":" ","ALLEY":" ","HOUSE_NO":"３８８號","E_COORD97":190747.01999999999,"N_COORD97":2583437.6000000001,"ADDRESS":"新興路３８８號","OBJECTID":470207},"geometry":{"x":190747.02000000048,"y":2583437.6000000015}},{"attributes":{"ID":470233,"DIS_CODE":0,"TOWNNAME":"白河區","LI":"庄內里","LIN":"5鄰","STREET":"新興路","SECT":" ","MAREA":" ","LANE":" ","ALLEY":" ","HOUSE_NO":"３７２號","E_COORD97":190780.45000000001,"N_COORD97":2583430.6699999999,"ADDRESS":"新興路３７２號","OBJECTID":470208},"geometry":{"x":190780.45000000112,"y":2583430.6700000018}},{"attributes":{"ID":470234,"DIS_CODE":0,"TOWNNAME":"白河區","LI":"庄內里","LIN":"5鄰","STREET":"新興路","SECT":" ","MAREA":" ","LANE":" ","ALLEY":" ","HOUSE_NO":"３７４號","E_COORD97":190776.26000000001,"N_COORD97":2583432.6600000001,"ADDRESS":"新興路３７４號","OBJECTID":470209},"geometry":{"x":190776.26000000071,"y":2583432.6600000001}},{"attributes":{"ID":470235,"DIS_CODE":0,"TOWNNAME":"白河區","LI":"庄內里","LIN":"5鄰","STREET":"新興路","SECT":" ","MAREA":" ","LANE":" ","ALLEY":" ","HOUSE_NO":"３７８號","E_COORD97":190768.85999999999,"N_COORD97":2583433.8199999998,"ADDRESS":"新興路３７８號","OBJECTID":470210},"geometry":{"x":190768.86000000034,"y":2583433.8200000022}},{"attributes":{"ID":470236,"DIS_CODE":0,"TOWNNAME":"白河區","LI":"庄內里","LIN":"5鄰","STREET":"新興路","SECT":" ","MAREA":" ","LANE":" ","ALLEY":" ","HOUSE_NO":"３８２號","E_COORD97":190760.45999999999,"N_COORD97":2583435.6400000001,"ADDRESS":"新興路３８２號","OBJECTID":470211},"geometry":{"x":190760.45999999996,"y":2583435.6400000006}},{"attributes":{"ID":470237,"DIS_CODE":0,"TOWNNAME":"白河區","LI":"庄內里","LIN":"5鄰","STREET":"新興路","SECT":" ","MAREA":" ","LANE":" ","ALLEY":" ","HOUSE_NO":"３９０號","E_COORD97":190743.14000000001,"N_COORD97":2583438.3100000001,"ADDRESS":"新興路３９０號","OBJECTID":470212},"geometry":{"x":190743.1400000006,"y":2583438.3100000005}},{"attributes":{"ID":470238,"DIS_CODE":0,"TOWNNAME":"白河區","LI":"庄內里","LIN":"5鄰","STREET":"新興路","SECT":" ","MAREA":" ","LANE":" ","ALLEY":" ","HOUSE_NO":"３９２號","E_COORD97":190738.04000000001,"N_COORD97":2583439.0600000001,"ADDRESS":"新興路３９２號","OBJECTID":470213},"geometry":{"x":190738.04000000004,"y":2583439.0600000024}},{"attributes":{"ID":470239,"DIS_CODE":0,"TOWNNAME":"白河區","LI":"庄內里","LIN":"5鄰","STREET":"新興路","SECT":" ","MAREA":" ","LANE":" ","ALLEY":" ","HOUSE_NO":"３９４號","E_COORD97":190733.95999999999,"N_COORD97":2583439.6499999999,"ADDRESS":"新興路３９４號","OBJECTID":470214},"geometry":{"x":190733.95999999996,"y":2583439.6500000004}},{"attributes":{"ID":470240,"DIS_CODE":0,"TOWNNAME":"白河區","LI":"庄內里","LIN":"5鄰","STREET":"新興路","SECT":" ","MAREA":" ","LANE":" ","ALLEY":" ","HOUSE_NO":"４１０號","E_COORD97":190718.79999999999,"N_COORD97":2583443.4500000002,"ADDRESS":"新興路４１０號","OBJECTID":470215},"geometry":{"x":190718.80000000075,"y":2583443.4499999993}},{"attributes":{"ID":470241,"DIS_CODE":0,"TOWNNAME":"白河區","LI":"庄內里","LIN":"5鄰","STREET":"新興路","SECT":" ","MAREA":" ","LANE":" ","ALLEY":" ","HOUSE_NO":"４１２號","E_COORD97":190712.51000000001,"N_COORD97":2583444.6400000001,"ADDRESS":"新興路４１２號","OBJECTID":470216},"geometry":{"x":190712.50999999978,"y":2583444.6400000025}},{"attributes":{"ID":470242,"DIS_CODE":0,"TOWNNAME":"白河區","LI":"庄內里","LIN":"5鄰","STREET":"新興路","SECT":" ","MAREA":" ","LANE":" ","ALLEY":" ","HOUSE_NO":"４１６號","E_COORD97":190707.92000000001,"N_COORD97":2583445.5899999999,"ADDRESS":"新興路４１６號","OBJECTID":470217},"geometry":{"x":190707.92000000086,"y":2583445.5899999999}},{"attributes":{"ID":470243,"DIS_CODE":0,"TOWNNAME":"西港區","LI":"慶安里","LIN":"5鄰","STREET":"新興街","SECT":" ","MAREA":" ","LANE":" ","ALLEY":" ","HOUSE_NO":"２０３號","E_COORD97":168230.89999999999,"N_COORD97":2558531.6400000001,"ADDRESS":"新興街２０３號","OBJECTID":470218},"geometry":{"x":168230.90000000037,"y":2558531.6400000025}},{"attributes":{"ID":470244,"DIS_CODE":0,"TOWNNAME":"西港區","LI":"慶安里","LIN":"5鄰","STREET":"新興街","SECT":" ","MAREA":" ","LANE":" ","ALLEY":" ","HOUSE_NO":"２０５號","E_COORD97":168231.97,"N_COORD97":2558546.4900000002,"ADDRESS":"新興街２０５號","OBJECTID":470219},"geometry":{"x":168231.9700000016,"y":2558546.4900000021}},{"attributes":{"ID":470245,"DIS_CODE":0,"TOWNNAME":"西港區","LI":"慶安里","LIN":"5鄰","STREET":"新興街","SECT":" ","MAREA":" ","LANE":" ","ALLEY":" ","HOUSE_NO":"２０７號","E_COORD97":168236.04999999999,"N_COORD97":2558552.2000000002,"ADDRESS":"新興街２０７號","OBJECTID":470220},"geometry":{"x":168236.04999999981,"y":2558552.1999999993}},{"attributes":{"ID":470246,"DIS_CODE":0,"TOWNNAME":"西港區","LI":"慶安里","LIN":"5鄰","STREET":"新興街","SECT":" ","MAREA":" ","LANE":" ","ALLEY":" ","HOUSE_NO":"２０９號","E_COORD97":168235.10000000001,"N_COORD97":2558561.04,"ADDRESS":"新興街２０９號","OBJECTID":470221},"geometry":{"x":168235.10000000056,"y":2558561.0400000028}},{"attributes":{"ID":470247,"DIS_CODE":0,"TOWNNAME":"永康區","LI":"西橋里","LIN":"5鄰","STREET":"中華西街","SECT":" ","MAREA":" ","LANE":" ","ALLEY":" ","HOUSE_NO":"３１號","E_COORD97":170780.89999999999,"N_COORD97":2545989.27,"ADDRESS":"中華西街３１號","OBJECTID":470222},"geometry":{"x":170780.90000000224,"y":2545989.2700000014}},{"attributes":{"ID":470248,"DIS_CODE":0,"TOWNNAME":"永康區","LI":"西灣里","LIN":"5鄰","STREET":"大安街","SECT":" ","MAREA":" ","LANE":" ","ALLEY":" ","HOUSE_NO":"２１２號","E_COORD97":174660.42000000001,"N_COORD97":2545262.04,"ADDRESS":"大安街２１２號","OBJECTID":470223},"geometry":{"x":174660.41999999993,"y":2545262.040000001}},{"attributes":{"ID":470249,"DIS_CODE":0,"TOWNNAME":"麻豆區","LI":"大埕里","LIN":"5鄰","STREET":"文昌路","SECT":" ","MAREA":" ","LANE":" ","ALLEY":" ","HOUSE_NO":"１９號之１","E_COORD97":173464.56,"N_COORD97":2565037.2799999998,"ADDRESS":"文昌路１９號之１","OBJECTID":470224},"geometry":{"x":173464.56000000052,"y":2565037.2799999993}},{"attributes":{"ID":470250,"DIS_CODE":0,"TOWNNAME":"永康區","LI":"尚頂里","LIN":"5鄰","STREET":"正南一街","SECT":" ","MAREA":" ","LANE":" ","ALLEY":" ","HOUSE_NO":"１６２號","E_COORD97":170688.70000000001,"N_COORD97":2547390.2400000002,"ADDRESS":"正南一街１６２號","OBJECTID":470225},"geometry":{"x":170688.69999999925,"y":2547390.2400000021}},{"attributes":{"ID":470251,"DIS_CODE":0,"TOWNNAME":"麻豆區","LI":"大埕里","LIN":"5鄰","STREET":"文昌路","SECT":" ","MAREA":" ","LANE":" ","ALLEY":" ","HOUSE_NO":"２１號","E_COORD97":173482.10999999999,"N_COORD97":2565053.3100000001,"ADDRESS":"文昌路２１號","OBJECTID":470226},"geometry":{"x":173482.11000000127,"y":2565053.3100000042}},{"attributes":{"ID":470252,"DIS_CODE":0,"TOWNNAME":"永康區","LI":"尚頂里","LIN":"5鄰","STREET":"正南一街","SECT":" ","MAREA":" ","LANE":" ","ALLEY":" ","HOUSE_NO":"１４５號","E_COORD97":170784.01999999999,"N_COORD97":2547264.4300000002,"ADDRESS":"正南一街１４５號","OBJECTID":470227},"geometry":{"x":170784.01999999955,"y":2547264.4299999997}},{"attributes":{"ID":470253,"DIS_CODE":0,"TOWNNAME":"永康區","LI":"尚頂里","LIN":"5鄰","STREET":"正南一街","SECT":" ","MAREA":" ","LANE":" ","ALLEY":" ","HOUSE_NO":"１５８號","E_COORD97":170699.63,"N_COORD97":2547377.5899999999,"ADDRESS":"正南一街１５８號","OBJECTID":470228},"geometry":{"x":170699.63000000082,"y":2547377.5900000017}},{"attributes":{"ID":470254,"DIS_CODE":0,"TOWNNAME":"永康區","LI":"西灣里","LIN":"5鄰","STREET":"大安街","SECT":" ","MAREA":" ","LANE":" ","ALLEY":" ","HOUSE_NO":"１８７號","E_COORD97":174628.12,"N_COORD97":2545256.0600000001,"ADDRESS":"大安街１８７號","OBJECTID":470229},"geometry":{"x":174628.12000000011,"y":2545256.0600000024}},{"attributes":{"ID":470255,"DIS_CODE":0,"TOWNNAME":"永康區","LI":"西灣里","LIN":"5鄰","STREET":"大安街","SECT":" ","MAREA":" ","LANE":" ","ALLEY":" ","HOUSE_NO":"１８５號","E_COORD97":174625.73999999999,"N_COORD97":2545251.3100000001,"ADDRESS":"大安街１８５號","OBJECTID":470230},"geometry":{"x":174625.74000000022,"y":2545251.3100000024}},{"attributes":{"ID":470256,"DIS_CODE":0,"TOWNNAME":"永康區","LI":"尚頂里","LIN":"5鄰","STREET":"\u25A0信街","SECT":" ","MAREA":" ","LANE":" ","ALLEY":" ","HOUSE_NO":"７２號","E_COORD97":170877.35000000001,"N_COORD97":2547535.8900000001,"ADDRESS":"\u25A0信街７２號","OBJECTID":470231},"geometry":{"x":170877.35000000056,"y":2547535.8900000025}},{"attributes":{"ID":470257,"DIS_CODE":0,"TOWNNAME":"永康區","LI":"尚頂里","LIN":"5鄰","STREET":"正南一街","SECT":" ","MAREA":" ","LANE":" ","ALLEY":" ","HOUSE_NO":"１４６號","E_COORD97":170776.04000000001,"N_COORD97":2547319.2400000002,"ADDRESS":"正南一街１４６號","OBJECTID":470232},"geometry":{"x":170776.04000000004,"y":2547319.2400000021}},{"attributes":{"ID":470258,"DIS_CODE":0,"TOWNNAME":"東區","LI":"裕聖里","LIN":"5鄰","STREET":"裕信路","SECT":" ","MAREA":" ","LANE":" ","ALLEY":" ","HOUSE_NO":"３４２之１５號","E_COORD97":172518.03,"N_COORD97":2542306.3900000001,"ADDRESS":"裕信路３４２之１５號","OBJECTID":470233},"geometry":{"x":172518.03000000119,"y":2542306.3900000006}},{"attributes":{"ID":470259,"DIS_CODE":0,"TOWNNAME":"東區","LI":"裕聖里","LIN":"5鄰","STREET":"裕信路","SECT":" ","MAREA":" ","LANE":" ","ALLEY":" ","HOUSE_NO":"３４２之１３號","E_COORD97":172524.09,"N_COORD97":2542306.25,"ADDRESS":"裕信路３４２之１３號","OBJECTID":470234},"geometry":{"x":172524.09000000078,"y":2542306.25}},{"attributes":{"ID":470260,"DIS_CODE":0,"TOWNNAME":"東區","LI":"裕聖里","LIN":"5鄰","STREET":"裕信路","SECT":" ","MAREA":" ","LANE":" ","ALLEY":" ","HOUSE_NO":"３４２之１２號","E_COORD97":172530.16,"N_COORD97":2542306.25,"ADDRESS":"裕信路３４２之１２號","OBJECTID":470235},"geometry":{"x":172530.16000000108,"y":2542306.25}},{"attributes":{"ID":470261,"DIS_CODE":0,"TOWNNAME":"東區","LI":"裕聖里","LIN":"5鄰","STREET":"裕信路","SECT":" ","MAREA":" ","LANE":" ","ALLEY":" ","HOUSE_NO":"３４２之１１號","E_COORD97":172536.23000000001,"N_COORD97":2542306.3900000001,"ADDRESS":"裕信路３４２之１１號","OBJECTID":470236},"geometry":{"x":172536.23000000045,"y":2542306.3900000006}},{"attributes":{"ID":470262,"DIS_CODE":0,"TOWNNAME":"東區","LI":"裕聖里","LIN":"5鄰","STREET":"裕信路","SECT":" ","MAREA":" ","LANE":" ","ALLEY":" ","HOUSE_NO":"３４２之１０號","E_COORD97":172541.87,"N_COORD97":2542305.9700000002,"ADDRESS":"裕信路３４２之１０號","OBJECTID":470237},"geometry":{"x":172541.87000000011,"y":2542305.9699999988}},{"attributes":{"ID":470263,"DIS_CODE":0,"TOWNNAME":"東區","LI":"裕聖里","LIN":"5鄰","STREET":"裕信路","SECT":" ","MAREA":" ","LANE":" ","ALLEY":" ","HOUSE_NO":"３４２之９號","E_COORD97":172547.51000000001,"N_COORD97":2542305.9700000002,"ADDRESS":"裕信路３４２之９號","OBJECTID":470238},"geometry":{"x":172547.50999999885,"y":2542305.9699999988}},{"attributes":{"ID":470264,"DIS_CODE":0,"TOWNNAME":"東區","LI":"裕聖里","LIN":"5鄰","STREET":"裕信路","SECT":" ","MAREA":" ","LANE":" ","ALLEY":" ","HOUSE_NO":"３４２之８號","E_COORD97":172552.73000000001,"N_COORD97":2542305.9700000002,"ADDRESS":"裕信路３４２之８號","OBJECTID":470239},"geometry":{"x":172552.73000000138,"y":2542305.9699999988}},{"attributes":{"ID":470265,"DIS_CODE":0,"TOWNNAME":"東區","LI":"裕聖里","LIN":"5鄰","STREET":"裕信路","SECT":" ","MAREA":" ","LANE":" ","ALLEY":" ","HOUSE_NO":"３４２之７號","E_COORD97":172558.09,"N_COORD97":2542305.9700000002,"ADDRESS":"裕信路３４２之７號","OBJECTID":470240},"geometry":{"x":172558.09000000078,"y":2542305.9699999988}},{"attributes":{"ID":470266,"DIS_CODE":0,"TOWNNAME":"東區","LI":"裕聖里","LIN":"5鄰","STREET":"裕信路","SECT":" ","MAREA":" ","LANE":" ","ALLEY":" ","HOUSE_NO":"３４２之６號","E_COORD97":172563.31,"N_COORD97":2542305.8300000001,"ADDRESS":"裕信路３４２之６號","OBJECTID":470241},"geometry":{"x":172563.30999999959,"y":2542305.8300000001}},{"attributes":{"ID":470267,"DIS_CODE":0,"TOWNNAME":"東區","LI":"崇善里","LIN":"5鄰","STREET":"崇善四街","SECT":" ","MAREA":" ","LANE":" ","ALLEY":" ","HOUSE_NO":"６號","E_COORD97":170991.54000000001,"N_COORD97":2541667.8399999999,"ADDRESS":"崇善四街６號","OBJECTID":470242},"geometry":{"x":170991.5400000019,"y":2541667.8399999999}},{"attributes":{"ID":470268,"DIS_CODE":0,"TOWNNAME":"東區","LI":"裕聖里","LIN":"5鄰","STREET":"裕信路","SECT":" ","MAREA":" ","LANE":" ","ALLEY":" ","HOUSE_NO":"３４２之５號","E_COORD97":172569.23999999999,"N_COORD97":2542305.6899999999,"ADDRESS":"裕信路３４２之５號","OBJECTID":470243},"geometry":{"x":172569.24000000115,"y":2542305.6899999995}},{"attributes":{"ID":470269,"DIS_CODE":0,"TOWNNAME":"東區","LI":"裕聖里","LIN":"5鄰","STREET":"裕信路","SECT":" ","MAREA":" ","LANE":" ","ALLEY":" ","HOUSE_NO":"３４２之３號","E_COORD97":172573.75,"N_COORD97":2542305.6899999999,"ADDRESS":"裕信路３４２之３號","OBJECTID":470244},"geometry":{"x":172573.75000000093,"y":2542305.6899999995}},{"attributes":{"ID":470270,"DIS_CODE":0,"TOWNNAME":"東區","LI":"裕聖里","LIN":"5鄰","STREET":"裕信路","SECT":" ","MAREA":" ","LANE":" ","ALLEY":" ","HOUSE_NO":"３４２之２號","E_COORD97":172578.69,"N_COORD97":2542305.5499999998,"ADDRESS":"裕信路３４２之２號","OBJECTID":470245},"geometry":{"x":172578.69000000041,"y":2542305.5499999989}},{"attributes":{"ID":470271,"DIS_CODE":0,"TOWNNAME":"東區","LI":"裕聖里","LIN":"5鄰","STREET":"裕信路","SECT":" ","MAREA":" ","LANE":" ","ALLEY":" ","HOUSE_NO":"３４２之１號","E_COORD97":172583.06,"N_COORD97":2542305.5499999998,"ADDRESS":"裕信路３４２之１號","OBJECTID":470246},"geometry":{"x":172583.06000000052,"y":2542305.5499999989}},{"attributes":{"ID":470272,"DIS_CODE":0,"TOWNNAME":"東區","LI":"裕聖里","LIN":"5鄰","STREET":"裕信路","SECT":" ","MAREA":" ","LANE":" ","ALLEY":" ","HOUSE_NO":"３４２號","E_COORD97":172587.44,"N_COORD97":2542305.2599999998,"ADDRESS":"裕信路３４２號","OBJECTID":470247},"geometry":{"x":172587.44000000041,"y":2542305.2599999998}},{"attributes":{"ID":470273,"DIS_CODE":0,"TOWNNAME":"東區","LI":"裕聖里","LIN":"5鄰","STREET":"裕信路","SECT":" ","MAREA":" ","LANE":" ","ALLEY":" ","HOUSE_NO":"３４６之１０號","E_COORD97":172541.12,"N_COORD97":2542297.2799999998,"ADDRESS":"裕信路３４６之１０號","OBJECTID":470248},"geometry":{"x":172541.12000000104,"y":2542297.2800000012}},{"attributes":{"ID":470274,"DIS_CODE":0,"TOWNNAME":"東區","LI":"裕聖里","LIN":"5鄰","STREET":"裕信路","SECT":" ","MAREA":" ","LANE":" ","ALLEY":" ","HOUSE_NO":"３４６之１１號","E_COORD97":172536.37,"N_COORD97":2542297.3599999999,"ADDRESS":"裕信路３４６之１１號","OBJECTID":470249},"geometry":{"x":172536.37000000011,"y":2542297.3599999994}},{"attributes":{"ID":470275,"DIS_CODE":0,"TOWNNAME":"東區","LI":"裕聖里","LIN":"5鄰","STREET":"裕信路","SECT":" ","MAREA":" ","LANE":" ","ALLEY":" ","HOUSE_NO":"３４６之１２號","E_COORD97":172530.44,"N_COORD97":2542297.3599999999,"ADDRESS":"裕信路３４６之１２號","OBJECTID":470250},"geometry":{"x":172530.44000000134,"y":2542297.3599999994}},{"attributes":{"ID":470276,"DIS_CODE":0,"TOWNNAME":"東區","LI":"裕聖里","LIN":"5鄰","STREET":"裕信路","SECT":" ","MAREA":" ","LANE":" ","ALLEY":" ","HOUSE_NO":"３４６之１３號","E_COORD97":172524.37,"N_COORD97":2542297.6499999999,"ADDRESS":"裕信路３４６之１３號","OBJECTID":470251},"geometry":{"x":172524.37000000011,"y":2542297.6499999985}},{"attributes":{"ID":470277,"DIS_CODE":0,"TOWNNAME":"東區","LI":"裕聖里","LIN":"5鄰","STREET":"裕信路","SECT":" ","MAREA":" ","LANE":" ","ALLEY":" ","HOUSE_NO":"３４６之１５號","E_COORD97":172517.88,"N_COORD97":2542297.9300000002,"ADDRESS":"裕信路３４６之１５號","OBJECTID":470252},"geometry":{"x":172517.87999999989,"y":2542297.9299999997}},{"attributes":{"ID":470278,"DIS_CODE":0,"TOWNNAME":"東區","LI":"裕聖里","LIN":"5鄰","STREET":"裕信路","SECT":" ","MAREA":" ","LANE":" ","ALLEY":" ","HOUSE_NO":"３４６之９號","E_COORD97":172546.81,"N_COORD97":2542297.5099999998,"ADDRESS":"裕信路３４６之９號","OBJECTID":470253},"geometry":{"x":172546.80999999959,"y":2542297.5099999998}},{"attributes":{"ID":470279,"DIS_CODE":0,"TOWNNAME":"東區","LI":"裕聖里","LIN":"5鄰","STREET":"裕信路","SECT":" ","MAREA":" ","LANE":" ","ALLEY":" ","HOUSE_NO":"３４６之８號","E_COORD97":172552.03,"N_COORD97":2542297.5099999998,"ADDRESS":"裕信路３４６之８號","OBJECTID":470254},"geometry":{"x":172552.03000000119,"y":2542297.5099999998}},{"attributes":{"ID":470280,"DIS_CODE":0,"TOWNNAME":"東區","LI":"裕聖里","LIN":"5鄰","STREET":"裕信路","SECT":" ","MAREA":" ","LANE":" ","ALLEY":" ","HOUSE_NO":"３４６之７號","E_COORD97":172556.98999999999,"N_COORD97":2542297.2799999998,"ADDRESS":"裕信路３４６之７號","OBJECTID":470255},"geometry":{"x":172556.99000000115,"y":2542297.2800000012}},{"attributes":{"ID":470281,"DIS_CODE":0,"TOWNNAME":"東區","LI":"裕聖里","LIN":"5鄰","STREET":"裕信路","SECT":" ","MAREA":" ","LANE":" ","ALLEY":" ","HOUSE_NO":"３４６之６號","E_COORD97":172562.23999999999,"N_COORD97":2542297.1400000001,"ADDRESS":"裕信路３４６之６號","OBJECTID":470256},"geometry":{"x":172562.24000000115,"y":2542297.1400000006}},{"attributes":{"ID":470282,"DIS_CODE":0,"TOWNNAME":"東區","LI":"裕聖里","LIN":"5鄰","STREET":"裕信路","SECT":" ","MAREA":" ","LANE":" ","ALLEY":" ","HOUSE_NO":"３４６之５號","E_COORD97":172568.59,"N_COORD97":2542297.2799999998,"ADDRESS":"裕信路３４６之５號","OBJECTID":470257},"geometry":{"x":172568.58999999985,"y":2542297.2800000012}},{"attributes":{"ID":470283,"DIS_CODE":0,"TOWNNAME":"東區","LI":"裕聖里","LIN":"5鄰","STREET":"裕信路","SECT":" ","MAREA":" ","LANE":" ","ALLEY":" ","HOUSE_NO":"３４６之３號","E_COORD97":172573.14999999999,"N_COORD97":2542297.2799999998,"ADDRESS":"裕信路３４６之３號","OBJECTID":470258},"geometry":{"x":172573.1500000013,"y":2542297.2800000012}},{"attributes":{"ID":470284,"DIS_CODE":0,"TOWNNAME":"東區","LI":"裕聖里","LIN":"5鄰","STREET":"裕信路","SECT":" ","MAREA":" ","LANE":" ","ALLEY":" ","HOUSE_NO":"３４６之２號","E_COORD97":172578.39000000001,"N_COORD97":2542297.4199999999,"ADDRESS":"裕信路３４６之２號","OBJECTID":470259},"geometry":{"x":172578.38999999966,"y":2542297.4199999999}},{"attributes":{"ID":470285,"DIS_CODE":0,"TOWNNAME":"東區","LI":"裕聖里","LIN":"5鄰","STREET":"裕信路","SECT":" ","MAREA":" ","LANE":" ","ALLEY":" ","HOUSE_NO":"３４６之１號","E_COORD97":172583.07999999999,"N_COORD97":2542297.4199999999,"ADDRESS":"裕信路３４６之１號","OBJECTID":470260},"geometry":{"x":172583.08000000194,"y":2542297.4199999999}},{"attributes":{"ID":470286,"DIS_CODE":0,"TOWNNAME":"東區","LI":"裕聖里","LIN":"5鄰","STREET":"裕信路","SECT":" ","MAREA":" ","LANE":" ","ALLEY":" ","HOUSE_NO":"３４６號","E_COORD97":172587.5,"N_COORD97":2542297.4199999999,"ADDRESS":"裕信路３４６號","OBJECTID":470261},"geometry":{"x":172587.50000000093,"y":2542297.4199999999}},{"attributes":{"ID":470287,"DIS_CODE":0,"TOWNNAME":"東區","LI":"富裕里","LIN":"5鄰","STREET":"裕農路","SECT":" ","MAREA":" ","LANE":" ","ALLEY":" ","HOUSE_NO":"９６號之１","E_COORD97":170717.72,"N_COORD97":2542898.73,"ADDRESS":"裕農路９６號之１","OBJECTID":470262},"geometry":{"x":170717.72000000067,"y":2542898.7300000023}},{"attributes":{"ID":470288,"DIS_CODE":0,"TOWNNAME":"東區","LI":"崇善里","LIN":"5鄰","STREET":"崇善五街","SECT":" ","MAREA":" ","LANE":" ","ALLEY":" ","HOUSE_NO":"１號","E_COORD97":171021.26999999999,"N_COORD97":2541574.1200000001,"ADDRESS":"崇善五街１號","OBJECTID":470263},"geometry":{"x":171021.26999999955,"y":2541574.1200000029}},{"attributes":{"ID":470289,"DIS_CODE":0,"TOWNNAME":"東區","LI":"崇善里","LIN":"5鄰","STREET":"崇善五街","SECT":" ","MAREA":" ","LANE":" ","ALLEY":" ","HOUSE_NO":"３號","E_COORD97":171027.03,"N_COORD97":2541577.29,"ADDRESS":"崇善五街３號","OBJECTID":470264},"geometry":{"x":171027.03000000026,"y":2541577.290000001}},{"attributes":{"ID":470290,"DIS_CODE":0,"TOWNNAME":"東區","LI":"崇善里","LIN":"5鄰","STREET":"崇善路","SECT":" ","MAREA":" ","LANE":" ","ALLEY":" ","HOUSE_NO":"５３９號","E_COORD97":171005.09,"N_COORD97":2541561.8799999999,"ADDRESS":"崇善路５３９號","OBJECTID":470265},"geometry":{"x":171005.09000000078,"y":2541561.879999999}},{"attributes":{"ID":470291,"DIS_CODE":0,"TOWNNAME":"東區","LI":"崇善里","LIN":"5鄰","STREET":"崇善四街","SECT":" ","MAREA":" ","LANE":" ","ALLEY":" ","HOUSE_NO":"２號","E_COORD97":170990.23000000001,"N_COORD97":2541671.77,"ADDRESS":"崇善四街２號","OBJECTID":470266},"geometry":{"x":170990.23000000045,"y":2541671.7699999996}},{"attributes":{"ID":470292,"DIS_CODE":0,"TOWNNAME":"東區","LI":"龍山里","LIN":"5鄰","STREET":"龍山街","SECT":" ","MAREA":" ","LANE":" ","ALLEY":" ","HOUSE_NO":"５７號","E_COORD97":170256.89999999999,"N_COORD97":2542575.1299999999,"ADDRESS":"龍山街５７號","OBJECTID":470267},"geometry":{"x":170256.90000000037,"y":2542575.1300000008}},{"attributes":{"ID":470293,"DIS_CODE":0,"TOWNNAME":"東區","LI":"龍山里","LIN":"5鄰","STREET":"龍山街","SECT":" ","MAREA":" ","LANE":" ","ALLEY":" ","HOUSE_NO":"６５號","E_COORD97":170270.89999999999,"N_COORD97":2542591.46,"ADDRESS":"龍山街６５號","OBJECTID":470268},"geometry":{"x":170270.9000000013,"y":2542591.4600000046}},{"attributes":{"ID":470294,"DIS_CODE":0,"TOWNNAME":"東區","LI":"龍山里","LIN":"5鄰","STREET":"龍山街","SECT":" ","MAREA":" ","LANE":" ","ALLEY":" ","HOUSE_NO":"６７號","E_COORD97":170274.20000000001,"N_COORD97":2542595.3500000001,"ADDRESS":"龍山街６７號","OBJECTID":470269},"geometry":{"x":170274.20000000112,"y":2542595.3500000015}},{"attributes":{"ID":470295,"DIS_CODE":0,"TOWNNAME":"東區","LI":"龍山里","LIN":"5鄰","STREET":"龍山街","SECT":" ","MAREA":" ","LANE":" ","ALLEY":" ","HOUSE_NO":"６９號","E_COORD97":170277.31,"N_COORD97":2542598.6499999999,"ADDRESS":"龍山街６９號","OBJECTID":470270},"geometry":{"x":170277.31000000145,"y":2542598.6500000004}},{"attributes":{"ID":470296,"DIS_CODE":0,"TOWNNAME":"東區","LI":"龍山里","LIN":"5鄰","STREET":"龍山街","SECT":" ","MAREA":" ","LANE":" ","ALLEY":" ","HOUSE_NO":"７１號","E_COORD97":170280.81,"N_COORD97":2542602.3500000001,"ADDRESS":"龍山街７１號","OBJECTID":470271},"geometry":{"x":170280.81000000052,"y":2542602.3500000015}},{"attributes":{"ID":470297,"DIS_CODE":0,"TOWNNAME":"東區","LI":"龍山里","LIN":"5鄰","STREET":"龍山街","SECT":" ","MAREA":" ","LANE":" ","ALLEY":" ","HOUSE_NO":"７３號","E_COORD97":170284.10999999999,"N_COORD97":2542606.23,"ADDRESS":"龍山街７３號","OBJECTID":470272},"geometry":{"x":170284.11000000034,"y":2542606.2300000042}},{"attributes":{"ID":470298,"DIS_CODE":0,"TOWNNAME":"東區","LI":"龍山里","LIN":"5鄰","STREET":"龍山街","SECT":" ","MAREA":" ","LANE":" ","ALLEY":" ","HOUSE_NO":"７５號","E_COORD97":170288.59,"N_COORD97":2542611.8700000001,"ADDRESS":"龍山街７５號","OBJECTID":470273},"geometry":{"x":170288.58999999985,"y":2542611.870000001}},{"attributes":{"ID":470299,"DIS_CODE":0,"TOWNNAME":"東區","LI":"崇善里","LIN":"5鄰","STREET":"崇善四街","SECT":" ","MAREA":" ","LANE":" ","ALLEY":" ","HOUSE_NO":"１０號","E_COORD97":170995.47,"N_COORD97":2541657.8500000001,"ADDRESS":"崇善四街１０號","OBJECTID":470274},"geometry":{"x":170995.47000000067,"y":2541657.8499999996}},{"attributes":{"ID":470300,"DIS_CODE":0,"TOWNNAME":"東區","LI":"崇善里","LIN":"5鄰","STREET":"崇善四街","SECT":" ","MAREA":" ","LANE":" ","ALLEY":" ","HOUSE_NO":"１２號","E_COORD97":170998.75,"N_COORD97":2541650.8100000001,"ADDRESS":"崇善四街１２號","OBJECTID":470275},"geometry":{"x":170998.75000000093,"y":2541650.8100000024}},{"attributes":{"ID":470301,"DIS_CODE":0,"TOWNNAME":"東區","LI":"崇善里","LIN":"5鄰","STREET":"崇善四街","SECT":" ","MAREA":" ","LANE":" ","ALLEY":" ","HOUSE_NO":"１６號","E_COORD97":171001.37,"N_COORD97":2541645.4100000001,"ADDRESS":"崇善四街１６號","OBJECTID":470276},"geometry":{"x":171001.37000000104,"y":2541645.410000002}},{"attributes":{"ID":470302,"DIS_CODE":0,"TOWNNAME":"東區","LI":"崇善里","LIN":"5鄰","STREET":"崇善路","SECT":" ","MAREA":" ","LANE":" ","ALLEY":" ","HOUSE_NO":"５０５號","E_COORD97":170973.37,"N_COORD97":2541666.5299999998,"ADDRESS":"崇善路５０５號","OBJECTID":470277},"geometry":{"x":170973.37000000011,"y":2541666.5299999993}},{"attributes":{"ID":470303,"DIS_CODE":0,"TOWNNAME":"東區","LI":"崇善里","LIN":"5鄰","STREET":"崇善路","SECT":" ","MAREA":" ","LANE":" ","ALLEY":" ","HOUSE_NO":"５０７號","E_COORD97":170974.19,"N_COORD97":2541661.7799999998,"ADDRESS":"崇善路５０７號","OBJECTID":470278},"geometry":{"x":170974.19000000134,"y":2541661.7799999975}},{"attributes":{"ID":470304,"DIS_CODE":0,"TOWNNAME":"東區","LI":"龍山里","LIN":"5鄰","STREET":"龍山街","SECT":" ","MAREA":" ","LANE":" ","ALLEY":" ","HOUSE_NO":"１０５號","E_COORD97":170349.51000000001,"N_COORD97":2542695.1800000002,"ADDRESS":"龍山街１０５號","OBJECTID":470279},"geometry":{"x":170349.51000000071,"y":2542695.1800000016}},{"attributes":{"ID":470305,"DIS_CODE":0,"TOWNNAME":"東區","LI":"龍山里","LIN":"5鄰","STREET":"龍山街","SECT":" ","MAREA":" ","LANE":" ","ALLEY":" ","HOUSE_NO":"１０１號","E_COORD97":170338.07000000001,"N_COORD97":2542681.2200000002,"ADDRESS":"龍山街１０１號","OBJECTID":470280},"geometry":{"x":170338.0700000003,"y":2542681.2200000025}},{"attributes":{"ID":470306,"DIS_CODE":0,"TOWNNAME":"南區","LI":"金華里","LIN":"5鄰","STREET":"金華路","SECT":"二段","MAREA":" ","LANE":" ","ALLEY":" ","HOUSE_NO":"８５號","E_COORD97":167065.60999999999,"N_COORD97":2542217.8900000001,"ADDRESS":"金華路二段８５號","OBJECTID":470281},"geometry":{"x":167065.61000000127,"y":2542217.8900000006}},{"attributes":{"ID":470307,"DIS_CODE":0,"TOWNNAME":"南區","LI":"郡南里","LIN":"5鄰","STREET":"德興路","SECT":" ","MAREA":" ","LANE":" ","ALLEY":" ","HOUSE_NO":"７５號","E_COORD97":167180.87,"N_COORD97":2540687.27,"ADDRESS":"德興路７５號","OBJECTID":470282},"geometry":{"x":167180.87000000104,"y":2540687.2700000014}},{"attributes":{"ID":470308,"DIS_CODE":0,"TOWNNAME":"南區","LI":"郡南里","LIN":"5鄰","STREET":"永興一街","SECT":" ","MAREA":" ","LANE":" ","ALLEY":" ","HOUSE_NO":"２號之１","E_COORD97":167289.47,"N_COORD97":2540732.3700000001,"ADDRESS":"永興一街２號之１","OBJECTID":470283},"geometry":{"x":167289.4700000016,"y":2540732.3700000029}},{"attributes":{"ID":470309,"DIS_CODE":0,"TOWNNAME":"南區","LI":"金華里","LIN":"5鄰","STREET":"金華路","SECT":"二段","MAREA":" ","LANE":" ","ALLEY":" ","HOUSE_NO":"８９號","E_COORD97":167067.10000000001,"N_COORD97":2542236.52,"ADDRESS":"金華路二段８９號","OBJECTID":470284},"geometry":{"x":167067.10000000056,"y":2542236.5199999996}},{"attributes":{"ID":470310,"DIS_CODE":0,"TOWNNAME":"南區","LI":"大恩里","LIN":"5鄰","STREET":"國民路","SECT":" ","MAREA":" ","LANE":" ","ALLEY":" ","HOUSE_NO":"９之１號","E_COORD97":169557.57000000001,"N_COORD97":2540872.48,"ADDRESS":"國民路９之１號","OBJECTID":470285},"geometry":{"x":169557.57000000123,"y":2540872.4800000023}},{"attributes":{"ID":470311,"DIS_CODE":0,"TOWNNAME":"南區","LI":"大恩里","LIN":"5鄰","STREET":"國民路","SECT":" ","MAREA":" ","LANE":" ","ALLEY":" ","HOUSE_NO":"９之２號","E_COORD97":169553.60000000001,"N_COORD97":2540872,"ADDRESS":"國民路９之２號","OBJECTID":470286},"geometry":{"x":169553.60000000056,"y":2540872.0000000019}},{"attributes":{"ID":470312,"DIS_CODE":0,"TOWNNAME":"南區","LI":"郡南里","LIN":"5鄰","STREET":"德興路","SECT":" ","MAREA":" ","LANE":" ","ALLEY":" ","HOUSE_NO":"７７號","E_COORD97":167181.03,"N_COORD97":2540680.1299999999,"ADDRESS":"德興路７７號","OBJECTID":470287},"geometry":{"x":167181.03000000212,"y":2540680.1300000008}},{"attributes":{"ID":470313,"DIS_CODE":0,"TOWNNAME":"南區","LI":"大恩里","LIN":"5鄰","STREET":"國民路","SECT":" ","MAREA":" ","LANE":" ","ALLEY":" ","HOUSE_NO":"２１之１號","E_COORD97":169521.20999999999,"N_COORD97":2540871.5299999998,"ADDRESS":"國民路２１之１號","OBJECTID":470288},"geometry":{"x":169521.21000000089,"y":2540871.5300000012}},{"attributes":{"ID":470314,"DIS_CODE":0,"TOWNNAME":"南區","LI":"大恩里","LIN":"5鄰","STREET":"國民路","SECT":" ","MAREA":" ","LANE":" ","ALLEY":" ","HOUSE_NO":"２１號","E_COORD97":169525.34,"N_COORD97":2540872.0099999998,"ADDRESS":"國民路２１號","OBJECTID":470289},"geometry":{"x":169525.34000000078,"y":2540872.0100000016}},{"attributes":{"ID":470315,"DIS_CODE":0,"TOWNNAME":"南區","LI":"大恩里","LIN":"5鄰","STREET":"國民路","SECT":" ","MAREA":" ","LANE":" ","ALLEY":" ","HOUSE_NO":"３１號","E_COORD97":169488.98000000001,"N_COORD97":2540866.6099999999,"ADDRESS":"國民路３１號","OBJECTID":470290},"geometry":{"x":169488.98000000138,"y":2540866.6100000031}},{"attributes":{"ID":470316,"DIS_CODE":0,"TOWNNAME":"南區","LI":"大恩里","LIN":"5鄰","STREET":"國民路","SECT":" ","MAREA":" ","LANE":" ","ALLEY":" ","HOUSE_NO":"２３號","E_COORD97":169516.13,"N_COORD97":2540871.2999999998,"ADDRESS":"國民路２３號","OBJECTID":470291},"geometry":{"x":169516.13000000082,"y":2540871.3000000026}},{"attributes":{"ID":470317,"DIS_CODE":0,"TOWNNAME":"南區","LI":"大恩里","LIN":"5鄰","STREET":"國民路","SECT":" ","MAREA":" ","LANE":" ","ALLEY":" ","HOUSE_NO":"２３之１號","E_COORD97":169511.04999999999,"N_COORD97":2540870.6600000001,"ADDRESS":"國民路２３之１號","OBJECTID":470292},"geometry":{"x":169511.04999999981,"y":2540870.660000002}},{"attributes":{"ID":470318,"DIS_CODE":0,"TOWNNAME":"南區","LI":"大恩里","LIN":"5鄰","STREET":"國民路","SECT":" ","MAREA":" ","LANE":" ","ALLEY":" ","HOUSE_NO":"２５號","E_COORD97":169504.85999999999,"N_COORD97":2540870.3399999999,"ADDRESS":"國民路２５號","OBJECTID":470293},"geometry":{"x":169504.86000000127,"y":2540870.3400000017}},{"attributes":{"ID":470319,"DIS_CODE":0,"TOWNNAME":"南區","LI":"大恩里","LIN":"5鄰","STREET":"國民路","SECT":" ","MAREA":" ","LANE":" ","ALLEY":" ","HOUSE_NO":"２７號","E_COORD97":169500.10000000001,"N_COORD97":2540869.8700000001,"ADDRESS":"國民路２７號","OBJECTID":470294},"geometry":{"x":169500.09999999963,"y":2540869.8700000048}},{"attributes":{"ID":470320,"DIS_CODE":0,"TOWNNAME":"南區","LI":"大恩里","LIN":"5鄰","STREET":"國民路","SECT":" ","MAREA":" ","LANE":" ","ALLEY":" ","HOUSE_NO":"２９號","E_COORD97":169494.38,"N_COORD97":2540869.3100000001,"ADDRESS":"國民路２９號","OBJECTID":470295},"geometry":{"x":169494.38000000082,"y":2540869.3100000005}},{"attributes":{"ID":470321,"DIS_CODE":0,"TOWNNAME":"南區","LI":"新昌里","LIN":"5鄰","STREET":"夏林路","SECT":" ","MAREA":" ","LANE":" ","ALLEY":" ","HOUSE_NO":"５７號","E_COORD97":167488.70000000001,"N_COORD97":2542701.6600000001,"ADDRESS":"夏林路５７號","OBJECTID":470296},"geometry":{"x":167488.70000000112,"y":2542701.660000002}},{"attributes":{"ID":470322,"DIS_CODE":0,"TOWNNAME":"南區","LI":"建南里","LIN":"5鄰","STREET":"興隆路","SECT":" ","MAREA":" ","LANE":" ","ALLEY":" ","HOUSE_NO":"８號","E_COORD97":167473.07999999999,"N_COORD97":2539960.1200000001,"ADDRESS":"興隆路８號","OBJECTID":470297},"geometry":{"x":167473.08000000007,"y":2539960.1200000029}},{"attributes":{"ID":470323,"DIS_CODE":0,"TOWNNAME":"南區","LI":"金華里","LIN":"5鄰","STREET":"金華路","SECT":"二段","MAREA":" ","LANE":" ","ALLEY":" ","HOUSE_NO":"１０１號","E_COORD97":167070.66,"N_COORD97":2542259.7000000002,"ADDRESS":"金華路二段１０１號","OBJECTID":470298},"geometry":{"x":167070.66000000108,"y":2542259.7000000011}},{"attributes":{"ID":470324,"DIS_CODE":0,"TOWNNAME":"南區","LI":"建南里","LIN":"5鄰","STREET":"興隆路","SECT":" ","MAREA":" ","LANE":" ","ALLEY":" ","HOUSE_NO":"９號","E_COORD97":167463.26000000001,"N_COORD97":2539939.5,"ADDRESS":"興隆路９號","OBJECTID":470299},"geometry":{"x":167463.25999999978,"y":2539939.5000000019}},{"attributes":{"ID":470325,"DIS_CODE":0,"TOWNNAME":"南區","LI":"鯤鯓里","LIN":"5鄰","STREET":"清水路","SECT":" ","MAREA":" ","LANE":" ","ALLEY":" ","HOUSE_NO":"２８８號","E_COORD97":165099.04000000001,"N_COORD97":2539702.6899999999,"ADDRESS":"清水路２８８號","OBJECTID":470300},"geometry":{"x":165099.0400000019,"y":2539702.6899999995}},{"attributes":{"ID":470326,"DIS_CODE":0,"TOWNNAME":"南區","LI":"金華里","LIN":"5鄰","STREET":"聖南街","SECT":" ","MAREA":" ","LANE":" ","ALLEY":" ","HOUSE_NO":"６９號","E_COORD97":167034.72,"N_COORD97":2542248.0499999998,"ADDRESS":"聖南街６９號","OBJECTID":470301},"geometry":{"x":167034.71999999974,"y":2542248.0500000045}},{"attributes":{"ID":470327,"DIS_CODE":0,"TOWNNAME":"南區","LI":"金華里","LIN":"5鄰","STREET":"聖南街","SECT":" ","MAREA":" ","LANE":" ","ALLEY":" ","HOUSE_NO":"３５號","E_COORD97":167042.19,"N_COORD97":2542317.1099999999,"ADDRESS":"聖南街３５號","OBJECTID":470302},"geometry":{"x":167042.19000000041,"y":2542317.1099999994}},{"attributes":{"ID":470328,"DIS_CODE":0,"TOWNNAME":"南區","LI":"金華里","LIN":"5鄰","STREET":"聖南街","SECT":" ","MAREA":" ","LANE":" ","ALLEY":" ","HOUSE_NO":"３７號","E_COORD97":167041.54999999999,"N_COORD97":2542313.1400000001,"ADDRESS":"聖南街３７號","OBJECTID":470303},"geometry":{"x":167041.55000000075,"y":2542313.1400000025}},{"attributes":{"ID":470329,"DIS_CODE":0,"TOWNNAME":"南區","LI":"金華里","LIN":"5鄰","STREET":"聖南街","SECT":" ","MAREA":" ","LANE":" ","ALLEY":" ","HOUSE_NO":"３９號","E_COORD97":167040.92000000001,"N_COORD97":2542309.4900000002,"ADDRESS":"聖南街３９號","OBJECTID":470304},"geometry":{"x":167040.92000000086,"y":2542309.4900000021}},{"attributes":{"ID":470330,"DIS_CODE":0,"TOWNNAME":"南區","LI":"金華里","LIN":"5鄰","STREET":"聖南街","SECT":" ","MAREA":" ","LANE":" ","ALLEY":" ","HOUSE_NO":"６７號","E_COORD97":167034.41,"N_COORD97":2542252.5,"ADDRESS":"聖南街６７號","OBJECTID":470305},"geometry":{"x":167034.41000000108,"y":2542252.5000000019}},{"attributes":{"ID":470331,"DIS_CODE":0,"TOWNNAME":"南區","LI":"金華里","LIN":"5鄰","STREET":"聖南街","SECT":" ","MAREA":" ","LANE":" ","ALLEY":" ","HOUSE_NO":"６５號","E_COORD97":167035.35999999999,"N_COORD97":2542257.8900000001,"ADDRESS":"聖南街６５號","OBJECTID":470306},"geometry":{"x":167035.36000000127,"y":2542257.8900000006}},{"attributes":{"ID":470332,"DIS_CODE":0,"TOWNNAME":"南區","LI":"金華里","LIN":"5鄰","STREET":"聖南街","SECT":" ","MAREA":" ","LANE":" ","ALLEY":" ","HOUSE_NO":"６３號","E_COORD97":167035.51999999999,"N_COORD97":2542262.5,"ADDRESS":"聖南街６３號","OBJECTID":470307},"geometry":{"x":167035.51999999955,"y":2542262.5000000019}},{"attributes":{"ID":470333,"DIS_CODE":0,"TOWNNAME":"南區","LI":"金華里","LIN":"5鄰","STREET":"聖南街","SECT":" ","MAREA":" ","LANE":" ","ALLEY":" ","HOUSE_NO":"６１號","E_COORD97":167036.31,"N_COORD97":2542266.1499999999,"ADDRESS":"聖南街６１號","OBJECTID":470308},"geometry":{"x":167036.31000000052,"y":2542266.1500000004}},{"attributes":{"ID":470334,"DIS_CODE":0,"TOWNNAME":"南區","LI":"金華里","LIN":"5鄰","STREET":"聖南街","SECT":" ","MAREA":" ","LANE":" ","ALLEY":" ","HOUSE_NO":"５９號","E_COORD97":167036.63,"N_COORD97":2542270.5899999999,"ADDRESS":"聖南街５９號","OBJECTID":470309},"geometry":{"x":167036.63000000082,"y":2542270.5900000036}},{"attributes":{"ID":470335,"DIS_CODE":0,"TOWNNAME":"南區","LI":"金華里","LIN":"5鄰","STREET":"聖南街","SECT":" ","MAREA":" ","LANE":" ","ALLEY":" ","HOUSE_NO":"５７號","E_COORD97":167037.26000000001,"N_COORD97":2542275.04,"ADDRESS":"聖南街５７號","OBJECTID":470310},"geometry":{"x":167037.26000000071,"y":2542275.040000001}},{"attributes":{"ID":470336,"DIS_CODE":0,"TOWNNAME":"南區","LI":"金華里","LIN":"5鄰","STREET":"聖南街","SECT":" ","MAREA":" ","LANE":" ","ALLEY":" ","HOUSE_NO":"５５號","E_COORD97":167037.57999999999,"N_COORD97":2542280.9100000001,"ADDRESS":"聖南街５５號","OBJECTID":470311},"geometry":{"x":167037.58000000007,"y":2542280.9100000001}},{"attributes":{"ID":470337,"DIS_CODE":0,"TOWNNAME":"南區","LI":"金華里","LIN":"5鄰","STREET":"聖南街","SECT":" ","MAREA":" ","LANE":" ","ALLEY":" ","HOUSE_NO":"５３號","E_COORD97":167037.89999999999,"N_COORD97":2542285.04,"ADDRESS":"聖南街５３號","OBJECTID":470312},"geometry":{"x":167037.90000000224,"y":2542285.040000001}},{"attributes":{"ID":470338,"DIS_CODE":0,"TOWNNAME":"南區","LI":"金華里","LIN":"5鄰","STREET":"聖南街","SECT":" ","MAREA":" ","LANE":" ","ALLEY":" ","HOUSE_NO":"５１號","E_COORD97":167038.22,"N_COORD97":2542288.0600000001,"ADDRESS":"聖南街５１號","OBJECTID":470313},"geometry":{"x":167038.21999999974,"y":2542288.0600000005}},{"attributes":{"ID":470339,"DIS_CODE":0,"TOWNNAME":"南區","LI":"金華里","LIN":"5鄰","STREET":"聖南街","SECT":" ","MAREA":" ","LANE":" ","ALLEY":" ","HOUSE_NO":"４９號","E_COORD97":167038.22,"N_COORD97":2542291.5499999998,"ADDRESS":"聖南街４９號","OBJECTID":470314},"geometry":{"x":167038.21999999974,"y":2542291.5500000007}},{"attributes":{"ID":470340,"DIS_CODE":0,"TOWNNAME":"南區","LI":"金華里","LIN":"5鄰","STREET":"聖南街","SECT":" ","MAREA":" ","LANE":" ","ALLEY":" ","HOUSE_NO":"４１號","E_COORD97":167040.44,"N_COORD97":2542305.52,"ADDRESS":"聖南街４１號","OBJECTID":470315},"geometry":{"x":167040.44000000041,"y":2542305.5200000014}},{"attributes":{"ID":470341,"DIS_CODE":0,"TOWNNAME":"南區","LI":"金華里","LIN":"5鄰","STREET":"聖南街","SECT":" ","MAREA":" ","LANE":" ","ALLEY":" ","HOUSE_NO":"４３號","E_COORD97":167039.48999999999,"N_COORD97":2542300.4399999999,"ADDRESS":"聖南街４３號","OBJECTID":470316},"geometry":{"x":167039.49000000115,"y":2542300.4399999995}},{"attributes":{"ID":470342,"DIS_CODE":0,"TOWNNAME":"南區","LI":"金華里","LIN":"5鄰","STREET":"聖南街","SECT":" ","MAREA":" ","LANE":" ","ALLEY":" ","HOUSE_NO":"４５號","E_COORD97":167039.17000000001,"N_COORD97":2542297.4199999999,"ADDRESS":"聖南街４５號","OBJECTID":470317},"geometry":{"x":167039.17000000086,"y":2542297.4199999999}},{"attributes":{"ID":470343,"DIS_CODE":0,"TOWNNAME":"南區","LI":"金華里","LIN":"5鄰","STREET":"聖南街","SECT":" ","MAREA":" ","LANE":" ","ALLEY":" ","HOUSE_NO":"４７號","E_COORD97":167039.01000000001,"N_COORD97":2542295.04,"ADDRESS":"聖南街４７號","OBJECTID":470318},"geometry":{"x":167039.01000000071,"y":2542295.040000001}},{"attributes":{"ID":470344,"DIS_CODE":0,"TOWNNAME":"南區","LI":"金華里","LIN":"5鄰","STREET":"金華路","SECT":"二段","MAREA":" ","LANE":" ","ALLEY":" ","HOUSE_NO":"１１７號","E_COORD97":167067.66,"N_COORD97":2542296.5499999998,"ADDRESS":"金華路二段１１７號","OBJECTID":470319},"geometry":{"x":167067.66000000015,"y":2542296.5500000026}},{"attributes":{"ID":470345,"DIS_CODE":0,"TOWNNAME":"南區","LI":"新興里","LIN":"5鄰","STREET":"夏林路","SECT":" ","MAREA":" ","LANE":" ","ALLEY":" ","HOUSE_NO":"１０１號","E_COORD97":167507.70999999999,"N_COORD97":2541183.21,"ADDRESS":"夏林路１０１號","OBJECTID":470320},"geometry":{"x":167507.70999999996,"y":2541183.2100000028}},{"attributes":{"ID":470346,"DIS_CODE":0,"TOWNNAME":"南區","LI":"新興里","LIN":"5鄰","STREET":"夏林路","SECT":" ","MAREA":" ","LANE":" ","ALLEY":" ","HOUSE_NO":"１０３之１號","E_COORD97":167507.39000000001,"N_COORD97":2541173.4300000002,"ADDRESS":"夏林路１０３之１號","OBJECTID":470321},"geometry":{"x":167507.3900000006,"y":2541173.4300000016}},{"attributes":{"ID":470347,"DIS_CODE":0,"TOWNNAME":"南區","LI":"新興里","LIN":"5鄰","STREET":"夏林路","SECT":" ","MAREA":" ","LANE":" ","ALLEY":" ","HOUSE_NO":"１０３號","E_COORD97":167506.91,"N_COORD97":2541178.1299999999,"ADDRESS":"夏林路１０３號","OBJECTID":470322},"geometry":{"x":167506.91000000015,"y":2541178.1300000008}},{"attributes":{"ID":470348,"DIS_CODE":0,"TOWNNAME":"南區","LI":"新興里","LIN":"5鄰","STREET":"夏林路","SECT":" ","MAREA":" ","LANE":" ","ALLEY":" ","HOUSE_NO":"９９號","E_COORD97":167506.91,"N_COORD97":2541187.6499999999,"ADDRESS":"夏林路９９號","OBJECTID":470323},"geometry":{"x":167506.91000000015,"y":2541187.6500000004}},{"attributes":{"ID":470349,"DIS_CODE":0,"TOWNNAME":"南區","LI":"日新里","LIN":"5鄰","STREET":"利南街","SECT":" ","MAREA":" ","LANE":" ","ALLEY":" ","HOUSE_NO":"１３０號","E_COORD97":166826.76999999999,"N_COORD97":2541356.6200000001,"ADDRESS":"利南街１３０號","OBJECTID":470324},"geometry":{"x":166826.77000000048,"y":2541356.6200000029}},{"attributes":{"ID":470350,"DIS_CODE":0,"TOWNNAME":"東區","LI":"圍下里","LIN":"5鄰","STREET":"衛民街","SECT":" ","MAREA":" ","LANE":" ","ALLEY":" ","HOUSE_NO":"２１號","E_COORD97":169261.01000000001,"N_COORD97":2543685.98,"ADDRESS":"衛民街２１號","OBJECTID":470325},"geometry":{"x":169261.01000000071,"y":2543685.9800000042}},{"attributes":{"ID":470351,"DIS_CODE":0,"TOWNNAME":"東區","LI":"圍下里","LIN":"5鄰","STREET":"衛民街","SECT":" ","MAREA":" ","LANE":" ","ALLEY":" ","HOUSE_NO":"２３號","E_COORD97":169255.76000000001,"N_COORD97":2543685.7999999998,"ADDRESS":"衛民街２３號","OBJECTID":470326},"geometry":{"x":169255.76000000071,"y":2543685.8000000007}},{"attributes":{"ID":470352,"DIS_CODE":0,"TOWNNAME":"東區","LI":"圍下里","LIN":"5鄰","STREET":"衛民街","SECT":" ","MAREA":" ","LANE":" ","ALLEY":" ","HOUSE_NO":"２５號","E_COORD97":169251.60000000001,"N_COORD97":2543686.1600000001,"ADDRESS":"衛民街２５號","OBJECTID":470327},"geometry":{"x":169251.60000000056,"y":2543686.1600000001}},{"attributes":{"ID":470353,"DIS_CODE":0,"TOWNNAME":"東區","LI":"圍下里","LIN":"5鄰","STREET":"衛民街","SECT":" ","MAREA":" ","LANE":" ","ALLEY":" ","HOUSE_NO":"２７號","E_COORD97":169247.44,"N_COORD97":2543686.3500000001,"ADDRESS":"衛民街２７號","OBJECTID":470328},"geometry":{"x":169247.44000000041,"y":2543686.3500000015}},{"attributes":{"ID":470354,"DIS_CODE":0,"TOWNNAME":"東區","LI":"圍下里","LIN":"5鄰","STREET":"衛民街","SECT":" ","MAREA":" ","LANE":" ","ALLEY":" ","HOUSE_NO":"２９號","E_COORD97":169242.73999999999,"N_COORD97":2543686.5299999998,"ADDRESS":"衛民街２９號","OBJECTID":470329},"geometry":{"x":169242.74000000115,"y":2543686.5299999993}},{"attributes":{"ID":470355,"DIS_CODE":0,"TOWNNAME":"東區","LI":"大學里","LIN":"5鄰","STREET":"東寧路","SECT":" ","MAREA":" ","LANE":" ","ALLEY":" ","HOUSE_NO":"５號","E_COORD97":169982.22,"N_COORD97":2543648.3799999999,"ADDRESS":"東寧路５號","OBJECTID":470330},"geometry":{"x":169982.21999999974,"y":2543648.3800000008}},{"attributes":{"ID":470356,"DIS_CODE":0,"TOWNNAME":"東區","LI":"大學里","LIN":"5鄰","STREET":"東寧路","SECT":" ","MAREA":" ","LANE":" ","ALLEY":" ","HOUSE_NO":"７號","E_COORD97":169996.79000000001,"N_COORD97":2543648.02,"ADDRESS":"東寧路７號","OBJECTID":470331},"geometry":{"x":169996.79000000097,"y":2543648.0200000014}},{"attributes":{"ID":470357,"DIS_CODE":0,"TOWNNAME":"東區","LI":"圍下里","LIN":"5鄰","STREET":"衛民街","SECT":" ","MAREA":" ","LANE":" ","ALLEY":" ","HOUSE_NO":"２９號之１","E_COORD97":169237.67999999999,"N_COORD97":2543686.8900000001,"ADDRESS":"衛民街２９號之１","OBJECTID":470332},"geometry":{"x":169237.68000000063,"y":2543686.8900000025}},{"attributes":{"ID":470358,"DIS_CODE":0,"TOWNNAME":"東區","LI":"大德里","LIN":"5鄰","STREET":"立德十路","SECT":" ","MAREA":" ","LANE":" ","ALLEY":" ","HOUSE_NO":"６０號","E_COORD97":169535.94,"N_COORD97":2542047.9500000002,"ADDRESS":"立德十路６０號","OBJECTID":470333},"geometry":{"x":169535.94000000041,"y":2542047.9500000011}},{"attributes":{"ID":470359,"DIS_CODE":0,"TOWNNAME":"安南區","LI":"淵東里","LIN":"5鄰","STREET":"本原街","SECT":"三段","MAREA":" ","LANE":" ","ALLEY":" ","HOUSE_NO":"１７２號","E_COORD97":165494.66,"N_COORD97":2550362.1499999999,"ADDRESS":"本原街三段１７２號","OBJECTID":470334},"geometry":{"x":165494.66000000015,"y":2550362.1500000004}},{"attributes":{"ID":470360,"DIS_CODE":0,"TOWNNAME":"安南區","LI":"長安里","LIN":"5鄰","STREET":"公學路","SECT":"二段","MAREA":" ","LANE":" ","ALLEY":" ","HOUSE_NO":"２７９號","E_COORD97":167313.01999999999,"N_COORD97":2551993.4900000002,"ADDRESS":"公學路二段２７９號","OBJECTID":470335},"geometry":{"x":167313.02000000048,"y":2551993.4900000021}},{"attributes":{"ID":470361,"DIS_CODE":0,"TOWNNAME":"安南區","LI":"公\u25A0里","LIN":"5鄰","STREET":"安興街","SECT":" ","MAREA":" ","LANE":" ","ALLEY":" ","HOUSE_NO":"１３３號","E_COORD97":164169.95999999999,"N_COORD97":2552124.3100000001,"ADDRESS":"安興街１３３號","OBJECTID":470336},"geometry":{"x":164169.95999999996,"y":2552124.3100000005}},{"attributes":{"ID":470362,"DIS_CODE":0,"TOWNNAME":"善化區","LI":"南關里","LIN":"5鄰","STREET":"三民路","SECT":" ","MAREA":" ","LANE":" ","ALLEY":" ","HOUSE_NO":"１４號之１８","E_COORD97":177013.94,"N_COORD97":2558631.02,"ADDRESS":"三民路１４號之１８","OBJECTID":470337},"geometry":{"x":177013.94000000227,"y":2558631.0200000014}},{"attributes":{"ID":470363,"DIS_CODE":0,"TOWNNAME":"善化區","LI":"南關里","LIN":"5鄰","STREET":"三民路","SECT":" ","MAREA":" ","LANE":" ","ALLEY":" ","HOUSE_NO":"１８號","E_COORD97":177076.04000000001,"N_COORD97":2558864.0099999998,"ADDRESS":"三民路１８號","OBJECTID":470338},"geometry":{"x":177076.04000000097,"y":2558864.0100000016}},{"attributes":{"ID":470364,"DIS_CODE":0,"TOWNNAME":"善化區","LI":"坐駕里","LIN":"5鄰","STREET":"民生路","SECT":" ","MAREA":" ","LANE":" ","ALLEY":" ","HOUSE_NO":"４１６號","E_COORD97":177833.67999999999,"N_COORD97":2558872.2599999998,"ADDRESS":"民生路４１６號","OBJECTID":470339},"geometry":{"x":177833.68000000156,"y":2558872.2600000035}},{"attributes":{"ID":470365,"DIS_CODE":0,"TOWNNAME":"善化區","LI":"坐駕里","LIN":"5鄰","STREET":"中正路","SECT":" ","MAREA":" ","LANE":" ","ALLEY":" ","HOUSE_NO":"３９４號","E_COORD97":177702.97,"N_COORD97":2558807.75,"ADDRESS":"中正路３９４號","OBJECTID":470340},"geometry":{"x":177702.9700000016,"y":2558807.7499999981}},{"attributes":{"ID":470366,"DIS_CODE":0,"TOWNNAME":"善化區","LI":"南關里","LIN":"5鄰","STREET":"三民路","SECT":" ","MAREA":" ","LANE":" ","ALLEY":" ","HOUSE_NO":"６號之７","E_COORD97":177046.98000000001,"N_COORD97":2558744.02,"ADDRESS":"三民路６號之７","OBJECTID":470341},"geometry":{"x":177046.98000000045,"y":2558744.0199999996}},{"attributes":{"ID":470367,"DIS_CODE":0,"TOWNNAME":"善化區","LI":"坐駕里","LIN":"5鄰","STREET":"民生路","SECT":" ","MAREA":" ","LANE":" ","ALLEY":" ","HOUSE_NO":"４０５號","E_COORD97":177894.23000000001,"N_COORD97":2558863.2599999998,"ADDRESS":"民生路４０５號","OBJECTID":470342},"geometry":{"x":177894.23000000138,"y":2558863.2600000016}},{"attributes":{"ID":470368,"DIS_CODE":0,"TOWNNAME":"善化區","LI":"西關里","LIN":"5鄰","STREET":"三民路","SECT":" ","MAREA":" ","LANE":" ","ALLEY":" ","HOUSE_NO":"７４號之２","E_COORD97":177126.32000000001,"N_COORD97":2559126.52,"ADDRESS":"三民路７４號之２","OBJECTID":470343},"geometry":{"x":177126.31999999937,"y":2559126.5199999996}},{"attributes":{"ID":470369,"DIS_CODE":0,"TOWNNAME":"善化區","LI":"坐駕里","LIN":"5鄰","STREET":"大智路","SECT":" ","MAREA":" ","LANE":" ","ALLEY":" ","HOUSE_NO":"９號","E_COORD97":177767.01999999999,"N_COORD97":2558828.5,"ADDRESS":"大智路９號","OBJECTID":470344},"geometry":{"x":177767.02000000048,"y":2558828.5}},{"attributes":{"ID":470370,"DIS_CODE":0,"TOWNNAME":"善化區","LI":"坐駕里","LIN":"5鄰","STREET":"民生路","SECT":" ","MAREA":" ","LANE":" ","ALLEY":" ","HOUSE_NO":"４３３號","E_COORD97":177806.06,"N_COORD97":2558851.2599999998,"ADDRESS":"民生路４３３號","OBJECTID":470345},"geometry":{"x":177806.06000000052,"y":2558851.2599999998}},{"attributes":{"ID":470371,"DIS_CODE":0,"TOWNNAME":"善化區","LI":"坐駕里","LIN":"5鄰","STREET":"民生路","SECT":" ","MAREA":" ","LANE":" ","ALLEY":" ","HOUSE_NO":"４６２號","E_COORD97":177721.38,"N_COORD97":2558872.0099999998,"ADDRESS":"民生路４６２號","OBJECTID":470346},"geometry":{"x":177721.38000000082,"y":2558872.0100000016}},{"attributes":{"ID":470372,"DIS_CODE":0,"TOWNNAME":"善化區","LI":"文昌里","LIN":"5鄰","STREET":"中華路","SECT":" ","MAREA":" ","LANE":" ","ALLEY":" ","HOUSE_NO":"９５號","E_COORD97":177216.12,"N_COORD97":2558850.75,"ADDRESS":"中華路９５號","OBJECTID":470347},"geometry":{"x":177216.12000000104,"y":2558850.75}},{"attributes":{"ID":470373,"DIS_CODE":0,"TOWNNAME":"善化區","LI":"文正里","LIN":"5鄰","STREET":"文正路","SECT":" ","MAREA":" ","LANE":" ","ALLEY":" ","HOUSE_NO":"７１號","E_COORD97":177127.81,"N_COORD97":2559303.7799999998,"ADDRESS":"文正路７１號","OBJECTID":470348},"geometry":{"x":177127.81000000052,"y":2559303.7799999993}},{"attributes":{"ID":470374,"DIS_CODE":0,"TOWNNAME":"善化區","LI":"文正里","LIN":"5鄰","STREET":"文正路","SECT":" ","MAREA":" ","LANE":" ","ALLEY":" ","HOUSE_NO":"８１號","E_COORD97":177166.82999999999,"N_COORD97":2559332.2799999998,"ADDRESS":"文正路８１號","OBJECTID":470349},"geometry":{"x":177166.83000000194,"y":2559332.2799999993}},{"attributes":{"ID":470375,"DIS_CODE":0,"TOWNNAME":"善化區","LI":"坐駕里","LIN":"5鄰","STREET":"光明路","SECT":" ","MAREA":" ","LANE":" ","ALLEY":" ","HOUSE_NO":"５７號","E_COORD97":177797.39000000001,"N_COORD97":2558935.25,"ADDRESS":"光明路５７號","OBJECTID":470350},"geometry":{"x":177797.3900000006,"y":2558935.25}},{"attributes":{"ID":470376,"DIS_CODE":0,"TOWNNAME":"善化區","LI":"文昌里","LIN":"5鄰","STREET":"中華路","SECT":" ","MAREA":" ","LANE":" ","ALLEY":" ","HOUSE_NO":"９３號","E_COORD97":177213.34,"N_COORD97":2558841,"ADDRESS":"中華路９３號","OBJECTID":470351},"geometry":{"x":177213.33999999985,"y":2558841.0000000019}},{"attributes":{"ID":470377,"DIS_CODE":0,"TOWNNAME":"善化區","LI":"西關里","LIN":"5鄰","STREET":"中山路","SECT":" ","MAREA":" ","LANE":" ","ALLEY":" ","HOUSE_NO":"４９９號","E_COORD97":177173.04999999999,"N_COORD97":2559130.5,"ADDRESS":"中山路４９９號","OBJECTID":470352},"geometry":{"x":177173.04999999981,"y":2559130.5}},{"attributes":{"ID":470378,"DIS_CODE":0,"TOWNNAME":"善化區","LI":"文昌里","LIN":"5鄰","STREET":"中華路","SECT":" ","MAREA":" ","LANE":" ","ALLEY":" ","HOUSE_NO":"９９號","E_COORD97":177215.60000000001,"N_COORD97":2558860.5,"ADDRESS":"中華路９９號","OBJECTID":470353},"geometry":{"x":177215.60000000056,"y":2558860.5000000037}},{"attributes":{"ID":470379,"DIS_CODE":0,"TOWNNAME":"安南區","LI":"公\u25A0里","LIN":"5鄰","STREET":"安興街","SECT":" ","MAREA":" ","LANE":" ","ALLEY":" ","HOUSE_NO":"１３１號","E_COORD97":164181.91,"N_COORD97":2552121.2000000002,"ADDRESS":"安興街１３１號","OBJECTID":470354},"geometry":{"x":164181.91000000108,"y":2552121.1999999993}},{"attributes":{"ID":470380,"DIS_CODE":0,"TOWNNAME":"安南區","LI":"原佃里","LIN":"5鄰","STREET":"本原街","SECT":"一段","MAREA":" ","LANE":" ","ALLEY":" ","HOUSE_NO":"１６０號之１","E_COORD97":167854.79000000001,"N_COORD97":2550150.1899999999,"ADDRESS":"本原街一段１６０號之１","OBJECTID":470355},"geometry":{"x":167854.79000000004,"y":2550150.1900000013}},{"attributes":{"ID":470381,"DIS_CODE":0,"TOWNNAME":"安南區","LI":"淵中里","LIN":"5鄰","STREET":"安中路","SECT":"四段","MAREA":" ","LANE":" ","ALLEY":" ","HOUSE_NO":"１８號","E_COORD97":165269.17000000001,"N_COORD97":2550117.6299999999,"ADDRESS":"安中路四段１８號","OBJECTID":470356},"geometry":{"x":165269.17000000179,"y":2550117.629999999}},{"attributes":{"ID":470382,"DIS_CODE":0,"TOWNNAME":"官田區","LI":"隆本里","LIN":"5鄰","STREET":"中華路","SECT":"二段","MAREA":" ","LANE":" ","ALLEY":" ","HOUSE_NO":"１１０號","E_COORD97":180060.06,"N_COORD97":2566539.23,"ADDRESS":"中華路二段１１０號","OBJECTID":470357},"geometry":{"x":180060.05999999866,"y":2566539.2300000023}},{"attributes":{"ID":470383,"DIS_CODE":0,"TOWNNAME":"東區","LI":"富裕里","LIN":"5鄰","STREET":"裕農路","SECT":" ","MAREA":" ","LANE":" ","ALLEY":" ","HOUSE_NO":"９８號","E_COORD97":170720.72,"N_COORD97":2542905.7999999998,"ADDRESS":"裕農路９８號","OBJECTID":470358},"geometry":{"x":170720.72000000067,"y":2542905.8000000026}},{"attributes":{"ID":470384,"DIS_CODE":0,"TOWNNAME":"官田區","LI":"隆本里","LIN":"5鄰","STREET":"中華路","SECT":"二段","MAREA":" ","LANE":" ","ALLEY":" ","HOUSE_NO":"１１２號","E_COORD97":180057.81,"N_COORD97":2566542.8900000001,"ADDRESS":"中華路二段１１２號","OBJECTID":470359},"geometry":{"x":180057.80999999959,"y":2566542.8900000006}},{"attributes":{"ID":470385,"DIS_CODE":0,"TOWNNAME":"官田區","LI":"隆本里","LIN":"5鄰","STREET":"中華路","SECT":"二段","MAREA":" ","LANE":" ","ALLEY":" ","HOUSE_NO":"１１６號之１","E_COORD97":180051.42000000001,"N_COORD97":2566558.48,"ADDRESS":"中華路二段１１６號之１","OBJECTID":470360},"geometry":{"x":180051.42000000086,"y":2566558.4800000023}},{"attributes":{"ID":470386,"DIS_CODE":0,"TOWNNAME":"官田區","LI":"隆本里","LIN":"5鄰","STREET":"中華路","SECT":"二段","MAREA":" ","LANE":" ","ALLEY":" ","HOUSE_NO":"１１８號","E_COORD97":180047.95999999999,"N_COORD97":2566563.1099999999,"ADDRESS":"中華路二段１１８號","OBJECTID":470361},"geometry":{"x":180047.96000000089,"y":2566563.1100000013}},{"attributes":{"ID":470387,"DIS_CODE":0,"TOWNNAME":"官田區","LI":"隆本里","LIN":"5鄰","STREET":"中華路","SECT":"二段","MAREA":" ","LANE":" ","ALLEY":" ","HOUSE_NO":"１２０號","E_COORD97":180044.26000000001,"N_COORD97":2566568.71,"ADDRESS":"中華路二段１２０號","OBJECTID":470362},"geometry":{"x":180044.26000000071,"y":2566568.7100000009}},{"attributes":{"ID":470388,"DIS_CODE":0,"TOWNNAME":"官田區","LI":"隆本里","LIN":"5鄰","STREET":"中華路","SECT":"二段","MAREA":" ","LANE":" ","ALLEY":" ","HOUSE_NO":"１２６號","E_COORD97":180040.37,"N_COORD97":2566574.3300000001,"ADDRESS":"中華路二段１２６號","OBJECTID":470363},"geometry":{"x":180040.37000000104,"y":2566574.3300000001}},{"attributes":{"ID":470389,"DIS_CODE":0,"TOWNNAME":"官田區","LI":"隆本里","LIN":"5鄰","STREET":"中華路","SECT":"二段","MAREA":" ","LANE":" ","ALLEY":" ","HOUSE_NO":"１２８號","E_COORD97":180037.79999999999,"N_COORD97":2566584.8100000001,"ADDRESS":"中華路二段１２８號","OBJECTID":470364},"geometry":{"x":180037.79999999981,"y":2566584.8100000005}},{"attributes":{"ID":470390,"DIS_CODE":0,"TOWNNAME":"官田區","LI":"隆本里","LIN":"5鄰","STREET":"中華路","SECT":"二段","MAREA":" ","LANE":" ","ALLEY":" ","HOUSE_NO":"１３０號","E_COORD97":180019.63,"N_COORD97":2566599.3799999999,"ADDRESS":"中華路二段１３０號","OBJECTID":470365},"geometry":{"x":180019.63000000082,"y":2566599.379999999}},{"attributes":{"ID":470391,"DIS_CODE":0,"TOWNNAME":"官田區","LI":"隆本里","LIN":"5鄰","STREET":"中華路","SECT":"二段","MAREA":" ","LANE":" ","ALLEY":" ","HOUSE_NO":"１３６號","E_COORD97":180004.85999999999,"N_COORD97":2566621.77,"ADDRESS":"中華路二段１３６號","OBJECTID":470366},"geometry":{"x":180004.86000000127,"y":2566621.7699999996}},{"attributes":{"ID":470392,"DIS_CODE":0,"TOWNNAME":"官田區","LI":"隆本里","LIN":"5鄰","STREET":"中華路","SECT":"二段","MAREA":" ","LANE":" ","ALLEY":" ","HOUSE_NO":"１５２號","E_COORD97":179907.23000000001,"N_COORD97":2566773.1000000001,"ADDRESS":"中華路二段１５２號","OBJECTID":470367},"geometry":{"x":179907.22999999952,"y":2566773.1000000015}},{"attributes":{"ID":470393,"DIS_CODE":0,"TOWNNAME":"官田區","LI":"隆本里","LIN":"5鄰","STREET":"中華路","SECT":"二段","MAREA":" ","LANE":" ","ALLEY":" ","HOUSE_NO":"１５６號","E_COORD97":179904.57000000001,"N_COORD97":2566778.6299999999,"ADDRESS":"中華路二段１５６號","OBJECTID":470368},"geometry":{"x":179904.5700000003,"y":2566778.6300000027}},{"attributes":{"ID":470394,"DIS_CODE":0,"TOWNNAME":"官田區","LI":"隆本里","LIN":"5鄰","STREET":"中華路","SECT":"二段","MAREA":" ","LANE":" ","ALLEY":" ","HOUSE_NO":"１５８號","E_COORD97":179903.38,"N_COORD97":2566785.6099999999,"ADDRESS":"中華路二段１５８號","OBJECTID":470369},"geometry":{"x":179903.37999999989,"y":2566785.6099999975}},{"attributes":{"ID":470395,"DIS_CODE":0,"TOWNNAME":"官田區","LI":"隆本里","LIN":"5鄰","STREET":"中華路","SECT":"二段","MAREA":" ","LANE":" ","ALLEY":" ","HOUSE_NO":"１６０號","E_COORD97":179900.57000000001,"N_COORD97":2566793.2200000002,"ADDRESS":"中華路二段１６０號","OBJECTID":470370},"geometry":{"x":179900.57000000123,"y":2566793.2200000044}},{"attributes":{"ID":470396,"DIS_CODE":0,"TOWNNAME":"官田區","LI":"隆本里","LIN":"5鄰","STREET":"中華路","SECT":"二段","MAREA":" ","LANE":" ","ALLEY":" ","HOUSE_NO":"１６８號","E_COORD97":179882.16,"N_COORD97":2566816.8199999998,"ADDRESS":"中華路二段１６８號","OBJECTID":470371},"geometry":{"x":179882.16000000201,"y":2566816.8200000022}},{"attributes":{"ID":470397,"DIS_CODE":0,"TOWNNAME":"官田區","LI":"隆本里","LIN":"5鄰","STREET":"中華路","SECT":"二段","MAREA":" ","LANE":" ","ALLEY":" ","HOUSE_NO":"１７０號","E_COORD97":179878.94,"N_COORD97":2566825.96,"ADDRESS":"中華路二段１７０號","OBJECTID":470372},"geometry":{"x":179878.94000000134,"y":2566825.9600000046}},{"attributes":{"ID":470398,"DIS_CODE":0,"TOWNNAME":"官田區","LI":"隆本里","LIN":"5鄰","STREET":"中華路","SECT":"二段","MAREA":" ","LANE":" ","ALLEY":" ","HOUSE_NO":"１７２號","E_COORD97":179872.45999999999,"N_COORD97":2566837,"ADDRESS":"中華路二段１７２號","OBJECTID":470373},"geometry":{"x":179872.45999999996,"y":2566837}},{"attributes":{"ID":470399,"DIS_CODE":0,"TOWNNAME":"官田區","LI":"隆本里","LIN":"5鄰","STREET":"中華路","SECT":"二段","MAREA":" ","LANE":" ","ALLEY":" ","HOUSE_NO":"１７８號","E_COORD97":179870.84,"N_COORD97":2566855.04,"ADDRESS":"中華路二段１７８號","OBJECTID":470374},"geometry":{"x":179870.84000000078,"y":2566855.040000001}},{"attributes":{"ID":470400,"DIS_CODE":0,"TOWNNAME":"官田區","LI":"隆本里","LIN":"5鄰","STREET":"中華路","SECT":"二段","MAREA":" ","LANE":" ","ALLEY":" ","HOUSE_NO":"１８０號","E_COORD97":179868.42999999999,"N_COORD97":2566859.0800000001,"ADDRESS":"中華路二段１８０號","OBJECTID":470375},"geometry":{"x":179868.43000000063,"y":2566859.0800000019}},{"attributes":{"ID":470401,"DIS_CODE":0,"TOWNNAME":"官田區","LI":"隆本里","LIN":"5鄰","STREET":"中華路","SECT":"二段","MAREA":" ","LANE":" ","ALLEY":" ","HOUSE_NO":"１８２號","E_COORD97":179865.85000000001,"N_COORD97":2566863.29,"ADDRESS":"中華路二段１８２號","OBJECTID":470376},"geometry":{"x":179865.84999999963,"y":2566863.290000001}},{"attributes":{"ID":470402,"DIS_CODE":0,"TOWNNAME":"官田區","LI":"隆本里","LIN":"5鄰","STREET":"中華路","SECT":"二段","MAREA":" ","LANE":" ","ALLEY":" ","HOUSE_NO":"１８６號","E_COORD97":179863.48000000001,"N_COORD97":2566867.3100000001,"ADDRESS":"中華路二段１８６號","OBJECTID":470377},"geometry":{"x":179863.48000000138,"y":2566867.3100000042}},{"attributes":{"ID":470403,"DIS_CODE":0,"TOWNNAME":"官田區","LI":"隆本里","LIN":"5鄰","STREET":"中華路","SECT":"二段","MAREA":" ","LANE":" ","ALLEY":" ","HOUSE_NO":"１８８號","E_COORD97":179855.79000000001,"N_COORD97":2566870.27,"ADDRESS":"中華路二段１８８號","OBJECTID":470378},"geometry":{"x":179855.79000000097,"y":2566870.2700000014}},{"attributes":{"ID":470404,"DIS_CODE":0,"TOWNNAME":"官田區","LI":"隆本里","LIN":"5鄰","STREET":"中華路","SECT":"二段","MAREA":" ","LANE":" ","ALLEY":" ","HOUSE_NO":"１９０號","E_COORD97":179852.07999999999,"N_COORD97":2566876.1099999999,"ADDRESS":"中華路二段１９０號","OBJECTID":470379},"geometry":{"x":179852.08000000194,"y":2566876.1099999994}},{"attributes":{"ID":470405,"DIS_CODE":0,"TOWNNAME":"官田區","LI":"隆本里","LIN":"5鄰","STREET":"中華路","SECT":"二段","MAREA":" ","LANE":" ","ALLEY":" ","HOUSE_NO":"２００號","E_COORD97":179895.47,"N_COORD97":2566909.02,"ADDRESS":"中華路二段２００號","OBJECTID":470380},"geometry":{"x":179895.47000000067,"y":2566909.0200000014}},{"attributes":{"ID":470406,"DIS_CODE":0,"TOWNNAME":"仁德區","LI":"大甲里","LIN":"5鄰","STREET":"行大一街","SECT":" ","MAREA":" ","LANE":" ","ALLEY":" ","HOUSE_NO":"２３６號","E_COORD97":169722.07000000001,"N_COORD97":2535049,"ADDRESS":"行大一街２３６號","OBJECTID":470381},"geometry":{"x":169722.07000000123,"y":2535049}},{"attributes":{"ID":470407,"DIS_CODE":0,"TOWNNAME":"新市區","LI":"新市里","LIN":"5鄰","STREET":"仁愛街","SECT":" ","MAREA":" ","LANE":" ","ALLEY":" ","HOUSE_NO":"２９５之１號","E_COORD97":177647.42000000001,"N_COORD97":2553040.0499999998,"ADDRESS":"仁愛街２９５之１號","OBJECTID":470382},"geometry":{"x":177647.41999999899,"y":2553040.0500000026}},{"attributes":{"ID":470408,"DIS_CODE":0,"TOWNNAME":"仁德區","LI":"上崙里","LIN":"5鄰","STREET":"德崙路","SECT":" ","MAREA":" ","LANE":" ","ALLEY":" ","HOUSE_NO":"３４９號","E_COORD97":174014.12,"N_COORD97":2538127.02,"ADDRESS":"德崙路３４９號","OBJECTID":470383},"geometry":{"x":174014.12000000104,"y":2538127.0199999996}},{"attributes":{"ID":470409,"DIS_CODE":0,"TOWNNAME":"仁德區","LI":"土庫里","LIN":"5鄰","STREET":"土庫三街","SECT":" ","MAREA":" ","LANE":" ","ALLEY":" ","HOUSE_NO":"２５號","E_COORD97":174092.26999999999,"N_COORD97":2543128.5,"ADDRESS":"土庫三街２５號","OBJECTID":470384},"geometry":{"x":174092.27000000048,"y":2543128.5}},{"attributes":{"ID":470410,"DIS_CODE":0,"TOWNNAME":"仁德區","LI":"上崙里","LIN":"5鄰","STREET":"德崙路","SECT":" ","MAREA":" ","LANE":" ","ALLEY":" ","HOUSE_NO":"３２７號","E_COORD97":173958.42999999999,"N_COORD97":2538129.27,"ADDRESS":"德崙路３２７號","OBJECTID":470385},"geometry":{"x":173958.43000000156,"y":2538129.2699999977}},{"attributes":{"ID":470411,"DIS_CODE":0,"TOWNNAME":"永康區","LI":"\u25A0洲里","LIN":"4鄰","STREET":"\u25A0洲二街","SECT":" ","MAREA":" ","LANE":" ","ALLEY":" ","HOUSE_NO":"１３５號","E_COORD97":171649.57000000001,"N_COORD97":2549344.75,"ADDRESS":"\u25A0洲二街１３５號","OBJECTID":470386},"geometry":{"x":171649.57000000123,"y":2549344.75}},{"attributes":{"ID":470412,"DIS_CODE":0,"TOWNNAME":"仁德區","LI":"土庫里","LIN":"5鄰","STREET":"土庫三街","SECT":" ","MAREA":" ","LANE":" ","ALLEY":" ","HOUSE_NO":"２１之２號","E_COORD97":174124.09,"N_COORD97":2543087.79,"ADDRESS":"土庫三街２１之２號","OBJECTID":470387},"geometry":{"x":174124.09000000078,"y":2543087.7899999991}},{"attributes":{"ID":470413,"DIS_CODE":0,"TOWNNAME":"新市區","LI":"永就里","LIN":"17鄰","STREET":"永華二街","SECT":" ","MAREA":" ","LANE":" ","ALLEY":" ","HOUSE_NO":"３０號","E_COORD97":177669.09,"N_COORD97":2551083.5,"ADDRESS":"永華二街３０號","OBJECTID":470388},"geometry":{"x":177669.09000000078,"y":2551083.5000000019}},{"attributes":{"ID":470414,"DIS_CODE":0,"TOWNNAME":"仁德區","LI":"上崙里","LIN":"5鄰","STREET":"德崙路","SECT":" ","MAREA":" ","LANE":" ","ALLEY":" ","HOUSE_NO":"３１１號","E_COORD97":173908.95999999999,"N_COORD97":2538133.52,"ADDRESS":"德崙路３１１號","OBJECTID":470389},"geometry":{"x":173908.95999999996,"y":2538133.5199999996}},{"attributes":{"ID":470415,"DIS_CODE":0,"TOWNNAME":"仁德區","LI":"土庫里","LIN":"5鄰","STREET":"土庫三街","SECT":" ","MAREA":" ","LANE":" ","ALLEY":" ","HOUSE_NO":"３３號","E_COORD97":174173.82000000001,"N_COORD97":2543085.4900000002,"ADDRESS":"土庫三街３３號","OBJECTID":470390},"geometry":{"x":174173.82000000123,"y":2543085.4900000039}},{"attributes":{"ID":470416,"DIS_CODE":0,"TOWNNAME":"仁德區","LI":"二行里","LIN":"5鄰","STREET":"二行一路","SECT":" ","MAREA":" ","LANE":" ","ALLEY":" ","HOUSE_NO":"２０號","E_COORD97":170410.84,"N_COORD97":2535275.9900000002,"ADDRESS":"二行一路２０號","OBJECTID":470391},"geometry":{"x":170410.83999999985,"y":2535275.9900000002}},{"attributes":{"ID":470417,"DIS_CODE":0,"TOWNNAME":"仁德區","LI":"上崙里","LIN":"5鄰","STREET":"德善路","SECT":" ","MAREA":" ","LANE":" ","ALLEY":" ","HOUSE_NO":"３９４號","E_COORD97":174023.54000000001,"N_COORD97":2538149.52,"ADDRESS":"德善路３９４號","OBJECTID":470392},"geometry":{"x":174023.54000000004,"y":2538149.5200000014}},{"attributes":{"ID":470418,"DIS_CODE":0,"TOWNNAME":"仁德區","LI":"大甲里","LIN":"5鄰","STREET":"行大街","SECT":" ","MAREA":" ","LANE":" ","ALLEY":" ","HOUSE_NO":"２９１之１號","E_COORD97":169743.81,"N_COORD97":2535149.2999999998,"ADDRESS":"行大街２９１之１號","OBJECTID":470393},"geometry":{"x":169743.81000000052,"y":2535149.3000000007}},{"attributes":{"ID":470419,"DIS_CODE":0,"TOWNNAME":"仁德區","LI":"大甲里","LIN":"5鄰","STREET":"行大一街","SECT":" ","MAREA":" ","LANE":" ","ALLEY":" ","HOUSE_NO":"２５０號","E_COORD97":169712.73999999999,"N_COORD97":2535052.75,"ADDRESS":"行大一街２５０號","OBJECTID":470394},"geometry":{"x":169712.74000000115,"y":2535052.7500000019}},{"attributes":{"ID":470420,"DIS_CODE":0,"TOWNNAME":"東區","LI":"大福里","LIN":"5鄰","STREET":"立德二路","SECT":" ","MAREA":" ","LANE":" ","ALLEY":" ","HOUSE_NO":"８６號","E_COORD97":169675.95999999999,"N_COORD97":2541746.2000000002,"ADDRESS":"立德二路８６號","OBJECTID":470395},"geometry":{"x":169675.95999999996,"y":2541746.1999999993}},{"attributes":{"ID":470421,"DIS_CODE":0,"TOWNNAME":"東區","LI":"泉南里","LIN":"5鄰","STREET":"東門路","SECT":"一段","MAREA":" ","LANE":" ","ALLEY":" ","HOUSE_NO":"１５２之１號","E_COORD97":169517.69,"N_COORD97":2543136.3999999999,"ADDRESS":"東門路一段１５２之１號","OBJECTID":470396},"geometry":{"x":169517.69000000227,"y":2543136.4000000004}},{"attributes":{"ID":470422,"DIS_CODE":0,"TOWNNAME":"東區","LI":"大德里","LIN":"5鄰","STREET":"立德十路","SECT":" ","MAREA":" ","LANE":" ","ALLEY":" ","HOUSE_NO":"１２號","E_COORD97":169432.60000000001,"N_COORD97":2542027.1000000001,"ADDRESS":"立德十路１２號","OBJECTID":470397},"geometry":{"x":169432.59999999963,"y":2542027.1000000015}},{"attributes":{"ID":470423,"DIS_CODE":0,"TOWNNAME":"東區","LI":"大德里","LIN":"5鄰","STREET":"立德十路","SECT":" ","MAREA":" ","LANE":" ","ALLEY":" ","HOUSE_NO":"２６號","E_COORD97":169462.28,"N_COORD97":2542034.5499999998,"ADDRESS":"立德十路２６號","OBJECTID":470398},"geometry":{"x":169462.28000000026,"y":2542034.5500000045}},{"attributes":{"ID":470424,"DIS_CODE":0,"TOWNNAME":"東區","LI":"大德里","LIN":"5鄰","STREET":"立德十路","SECT":" ","MAREA":" ","LANE":" ","ALLEY":" ","HOUSE_NO":"２８號","E_COORD97":169466.38,"N_COORD97":2542034.7599999998,"ADDRESS":"立德十路２８號","OBJECTID":470399},"geometry":{"x":169466.37999999989,"y":2542034.7599999998}},{"attributes":{"ID":470425,"DIS_CODE":0,"TOWNNAME":"關廟區","LI":"香洋里","LIN":"14鄰","STREET":"仁愛路","SECT":" ","MAREA":" ","LANE":"１８巷","ALLEY":" ","HOUSE_NO":"９號","E_COORD97":181305.64000000001,"N_COORD97":2540091.2799999998,"ADDRESS":"仁愛路１８巷９號","OBJECTID":470400},"geometry":{"x":181305.64000000153,"y":2540091.2799999993}}]}